,GPS LATITUDE (degrees), GPS LONGITUDE (degrees), GPS ALTITUDE (m), GPS SPEED (Kmh), GPS ACCURACY (m), GPS ORIENTATION (Â°),GPS SATELLITES IN RANGE, TIME SINCE START (ms), DATE (YYYY-MO-DD HH-MI-SS_SSS), ACCELEROMETER X (m/s²) , ACCELEROMETER Y (m/s²), ACCELEROMETER Z (m/s²), GRAVITY X (m/s²), GRAVITY Y (m/s²), GRAVITY Z (m/s²), GYROSCOPE Yaw (rad/s), GYROSCOPE Pitch (rad/s), GYROSCOPE Roll (rad/s), MAGNETIC FIELD X (Î¼T), MAGNETIC FIELD Y (Î¼T), MAGNETIC FIELD Z (Î¼T), ORIENTATION (Yaw) (Â°), ORIENTATION (Pitch) (Â°), ORIENTATION (Roll ) (Â°)
1872,53.088146,-1.766985,328.22,3.68,3,352.43,19 / 19,1660415,2019-11-06 13:10:02:123,2.8772,2.8153,10.9753,0.052,-0.0191,9.8064,0.1044,-0.1371,-0.0364,11.06,-42.5,-15.37,84.98,-85.24,110.41
1873,53.088146,-1.766985,328.22,3.68,3,352.43,19 / 20,1660515,2019-11-06 13:10:02:223,1.6708,0.031,8.9393,-0.0041,0.0553,9.8065,-0.2728,0.2638,0.0442,11.5,-42.06,-15.81,83.83,-85.51,111.24
1874,53.088146,-1.766985,328.22,3.68,3,352.43,19 / 20,1660614,2019-11-06 13:10:02:322,4.6097,1.3515,7.9813,-0.0254,0.0535,9.8064,-0.2185,-0.2492,0.1667,10.81,-41.44,-15.12,89.54,-85.58,115.99
1875,53.088146,-1.766985,328.22,3.68,3,352.43,19 / 20,1660714,2019-11-06 13:10:02:422,-2.1386,0.6369,11.0597,0.0562,0.0197,9.8064,0.1462,0.2297,-0.0994,11.19,-42.06,-15.12,91.38,-85.8,118.11
1876,53.088146,-1.766985,328.22,3.68,3,352.43,19 / 20,1660814,2019-11-06 13:10:02:522,1.8532,0.315,9.8832,0.0429,-0.0192,9.8065,0.0967,-0.2371,-0.052,10.56,-41.94,-15.25,90.18,-86.08,117.53
1877,53.088146,-1.766985,328.22,3.68,3,352.43,19 / 20,1660914,2019-11-06 13:10:02:622,1.5971,-2.1309,9.4116,-0.0022,-0.0012,9.8066,-0.1041,-0.0042,0.1844,11.06,-42.5,-15.87,89.07,-86.23,115.39
1878,53.088146,-1.766985,328.22,3.68,3,352.43,19 / 20,1661014,2019-11-06 13:10:02:722,1.3198,1.5802,10.7737,-0.0758,0.0023,9.8063,0.066,-0.2622,0.1976,10.31,-41.81,-15.31,90.34,-86.52,115.88
1879,53.088146,-1.766985,328.22,3.68,3,352.43,19 / 20,1661114,2019-11-06 13:10:02:822,1.6061,1.3082,9.7746,0.0124,0.0196,9.8065,-0.0214,0.0298,-0.0958,10.69,-41.94,-15.19,89.71,-86.07,117.04
1880,53.088146,-1.766985,328.22,3.68,3,352.43,19 / 20,1661214,2019-11-06 13:10:02:922,0.7686,3.4188,9.3142,-0.0534,0.0054,9.8065,0.0179,-0.2688,0.1874,10.0,-42.06,-15.69,94.95,-85.64,117.24
1881,53.088146,-1.766985,328.22,3.68,3,352.43,19 / 20,1661314,2019-11-06 13:10:03:022,-0.0339,2.7282,9.845,0.0024,-0.0115,9.8066,-0.0097,-0.1035,-0.0011,10.31,-41.44,-15.75,94.9,-85.71,117.58
1882,53.088146,-1.766985,328.22,3.68,3,352.43,19 / 20,1661415,2019-11-06 13:10:03:123,-0.4428,0.5841,10.2232,-0.0292,-0.0107,9.8066,0.027,-0.024,0.0224,10.56,-41.56,-15.62,91.28,-85.67,116.37
1883,53.088146,-1.766985,328.22,3.68,3,352.43,18 / 19,1661515,2019-11-06 13:10:03:223,0.5321,2.4925,9.8598,-0.0379,0.0257,9.8065,0.0262,-0.1758,0.0406,11.0,-41.62,-15.56,93.61,-85.2,117.68
1884,53.088146,-1.766985,328.22,3.68,3,352.43,18 / 19,1661615,2019-11-06 13:10:03:323,-2.1076,1.6982,10.0592,-0.0114,-0.0075,9.8066,-0.0636,0.0279,0.0335,10.75,-42.06,-14.87,94.22,-85.11,119.38
1885,53.088146,-1.766985,328.22,3.68,3,352.43,18 / 19,1661715,2019-11-06 13:10:03:423,0.7781,0.5265,9.8958,-0.0102,-0.013,9.8066,-0.0666,-0.1641,0.0459,11.13,-42.5,-15.31,91.52,-85.19,116.84
1886,53.088146,-1.766985,328.22,3.68,3,352.43,18 / 19,1661814,2019-11-06 13:10:03:522,0.3989,0.7523,9.8915,-0.0199,0.0059,9.8066,0.0401,-0.0562,0.1566,10.94,-41.69,-15.44,89.0,-85.33,114.61
1887,53.088146,-1.766985,328.22,3.68,3,352.43,18 / 19,1661914,2019-11-06 13:10:03:622,-1.6394,3.4307,10.0017,-0.0005,0.0159,9.8066,0.0115,-0.0598,-0.0167,10.63,-41.94,-15.62,93.44,-85.41,117.99
1888,53.088146,-1.766985,328.22,3.68,3,352.43,18 / 19,1662014,2019-11-06 13:10:03:722,0.4705,-0.867,9.7904,0.0106,0.0013,9.8066,0.0844,-0.0471,0.003,10.88,-42.0,-15.81,93.8,-85.46,118.46
1889,53.088146,-1.766985,328.22,3.68,3,352.43,18 / 19,1662114,2019-11-06 13:10:03:822,0.6482,0.8486,9.6865,-0.0056,0.0156,9.8066,0.0292,-0.0805,0.0581,10.25,-42.37,-15.94,100.04,-85.39,121.9
1890,53.088146,-1.766985,328.22,3.68,3,352.43,18 / 19,1662214,2019-11-06 13:10:03:922,0.859,-0.7999,10.027,-0.0078,0.0023,9.8066,0.1125,-0.1164,0.05,10.81,-41.94,-15.69,99.29,-85.47,124.09
1891,53.088146,-1.766985,328.22,3.68,3,352.43,18 / 19,1662315,2019-11-06 13:10:04:023,1.2248,1.858,9.8734,-0.0088,-0.0011,9.8066,0.0154,-0.309,0.094,10.19,-42.62,-15.25,102.4,-85.39,125.3
1892,53.088146,-1.766985,328.22,3.68,3,352.43,18 / 19,1662415,2019-11-06 13:10:04:123,-2.4373,1.5086,10.1259,-0.0014,0.002,9.8066,0.0855,0.0283,-0.0606,11.06,-42.0,-15.0,99.32,-85.43,125.34
1893,53.088146,-1.766985,328.22,3.68,3,352.43,19 / 20,1662514,2019-11-06 13:10:04:222,4.2242,-0.4699,9.8271,-0.0358,0.0079,9.8065,0.0378,-0.2598,0.1555,9.56,-41.94,-15.44,104.9,-85.23,127.8
1894,53.088146,-1.766985,328.22,3.68,3,352.43,19 / 20,1662615,2019-11-06 13:10:04:323,-2.4032,-1.1776,9.7122,-0.0421,-0.0183,9.8065,0.0517,-0.073,0.0686,9.81,-41.81,-15.06,105.62,-85.42,129.0
1895,53.088146,-1.766985,328.22,3.68,3,352.43,19 / 20,1662716,2019-11-06 13:10:04:424,3.5864,-0.0661,8.9189,-0.0442,-0.0003,9.8065,-0.059,-0.3324,0.209,9.19,-42.25,-15.19,108.5,-85.15,128.38
1896,53.088146,-1.766985,328.22,3.68,3,352.43,19 / 20,1662815,2019-11-06 13:10:04:523,-1.0836,-2.172,9.8463,0.0153,0.0139,9.8066,-0.0208,0.3532,-0.1769,10.13,-41.87,-14.06,106.24,-85.41,131.0
1897,53.088146,-1.766985,328.22,3.68,3,352.43,19 / 20,1662915,2019-11-06 13:10:04:623,1.7444,-0.4522,9.9051,0.0263,0.0086,9.8066,0.1861,-0.2239,-0.0521,10.31,-42.06,-14.94,107.79,-85.3,131.02
1898,53.088146,-1.766985,328.22,3.68,3,352.43,19 / 20,1663014,2019-11-06 13:10:04:722,1.5997,3.292,9.8273,-0.018,0.0187,9.8066,-0.0381,-0.0769,0.1973,10.38,-42.37,-15.06,111.77,-85.17,135.0
1899,53.088146,-1.766985,328.22,3.68,3,352.43,19 / 20,1663114,2019-11-06 13:10:04:822,2.0835,1.2511,9.938,-0.0372,-0.0123,9.8065,-0.104,-0.2243,0.279,10.5,-41.81,-15.44,111.28,-85.39,137.83
1900,53.088146,-1.766985,328.22,3.68,3,352.43,19 / 20,1663214,2019-11-06 13:10:04:922,2.3385,-1.8373,10.723,0.0101,0.0116,9.8065,0.1295,-0.0564,-0.0128,9.75,-42.37,-15.37,113.85,-85.51,137.99
1901,53.088146,-1.766985,328.22,3.68,3,352.43,19 / 20,1663314,2019-11-06 13:10:05:022,-1.892,-0.0592,8.8796,-0.0092,-0.0122,9.8066,0.1655,-0.2934,0.0644,10.13,-42.5,-15.12,116.14,-85.27,139.96
1902,53.088146,-1.766985,328.22,3.68,3,352.43,19 / 20,1663414,2019-11-06 13:10:05:122,-0.2698,1.039,9.2526,-0.0094,0.0625,9.8064,-0.0889,0.2472,-0.0589,9.94,-42.25,-15.0,119.77,-85.05,143.48
1903,53.088146,-1.766985,328.22,3.68,3,352.43,18 / 20,1663514,2019-11-06 13:10:05:222,-0.0678,2.9019,8.2433,0.0219,0.0029,9.8065,0.2843,-0.0269,-0.0169,9.63,-42.37,-15.12,123.99,-84.67,147.43
1904,53.088146,-1.766985,328.22,3.68,3,352.43,18 / 20,1663614,2019-11-06 13:10:05:322,0.3288,0.8697,9.3239,0.0161,0.0099,9.8066,-0.2249,-0.0698,0.1244,9.81,-42.31,-14.62,125.52,-84.79,149.37
1905,53.088146,-1.766985,328.22,3.68,3,352.43,18 / 20,1663714,2019-11-06 13:10:05:422,-0.7048,-0.3202,10.8197,-0.0805,0.028,9.8063,-0.2537,-0.1753,0.5128,9.56,-42.44,-14.75,128.09,-85.02,152.7
1906,53.088146,-1.766985,328.22,3.68,3,352.43,18 / 20,1663814,2019-11-06 13:10:05:522,0.9975,1.0173,8.5314,0.0385,-0.0101,9.8065,0.0363,-0.1799,-0.1617,8.69,-42.81,-15.37,133.16,-85.25,155.67
1907,53.088146,-1.766985,328.22,3.68,3,352.43,18 / 20,1663914,2019-11-06 13:10:05:622,0.299,-1.3298,8.798,0.0267,-0.0291,9.8065,0.0543,-0.0066,-0.0604,9.88,-42.37,-14.81,126.65,-85.46,151.89
1908,53.088146,-1.766985,328.22,3.68,3,352.43,18 / 20,1664014,2019-11-06 13:10:05:722,-0.1397,0.4467,9.9017,0.0015,-0.0345,9.8066,0.0329,-0.0125,-0.069,9.31,-42.19,-15.5,128.75,-85.44,151.23
1909,53.088146,-1.766985,328.22,3.68,3,352.43,18 / 20,1664114,2019-11-06 13:10:05:822,1.8811,0.7205,10.7839,0.017,0.0384,9.8065,-0.0118,0.0516,-0.1846,9.06,-42.69,-15.44,127.71,-85.25,149.47
1910,53.088146,-1.766985,328.22,3.68,3,352.43,18 / 20,1664214,2019-11-06 13:10:05:922,0.3601,-1.6416,10.349,-0.027,0.001,9.8066,-0.0384,0.0769,0.1479,9.44,-42.31,-15.31,129.0,-85.09,150.86
1911,53.088146,-1.766985,328.22,3.68,3,352.43,18 / 20,1664314,2019-11-06 13:10:06:022,-1.6064,1.4437,8.4877,-0.0216,-0.0026,9.8066,-0.1177,-0.0961,0.0121,9.44,-42.12,-15.12,129.48,-85.22,151.64
1912,53.088146,-1.766985,328.22,3.68,3,352.43,18 / 20,1664414,2019-11-06 13:10:06:122,1.9143,-0.1088,11.4251,0.0075,-0.0295,9.8066,0.1887,-0.0538,0.0143,9.25,-42.56,-15.19,127.85,-85.2,149.54
1913,53.088146,-1.766985,328.22,3.68,3,352.43,19 / 20,1664514,2019-11-06 13:10:06:222,1.7733,-4.108,10.3498,0.0236,-0.0474,9.8065,-0.08,-0.046,-0.0516,9.06,-42.94,-15.25,126.87,-85.15,148.35
1914,53.088146,-1.766985,328.22,3.68,3,352.43,19 / 20,1664614,2019-11-06 13:10:06:322,2.4348,-0.0251,10.3667,-0.0036,-0.0223,9.8066,0.0895,-0.1501,0.057,9.56,-42.5,-15.0,119.03,-85.59,143.76
1915,53.088146,-1.766985,328.22,3.68,3,352.43,19 / 20,1664714,2019-11-06 13:10:06:422,0.522,-0.7167,10.0593,-0.0164,0.006,9.8065,-0.0743,0.0499,-0.0018,10.0,-42.31,-14.94,120.78,-85.36,145.21
1916,53.088146,-1.766985,328.22,3.68,3,352.43,19 / 20,1664814,2019-11-06 13:10:06:522,-2.0552,2.4889,10.0653,-0.0163,0.0299,9.8065,0.0803,0.1027,-0.0455,10.0,-42.31,-15.25,121.82,-85.15,145.94
1917,53.088146,-1.766985,328.22,3.68,3,352.43,19 / 20,1664914,2019-11-06 13:10:06:622,1.1796,0.3131,9.5714,0.0069,-0.0058,9.8066,0.0486,-0.1718,0.0339,9.63,-42.69,-15.5,123.27,-84.98,146.99
1918,53.088146,-1.766985,328.22,3.68,3,352.43,19 / 20,1665014,2019-11-06 13:10:06:722,1.7501,-2.2578,11.3898,0.0002,0.0244,9.8066,0.0654,0.147,0.0137,9.88,-42.37,-15.37,124.91,-84.83,148.77
1919,53.088146,-1.766985,328.22,3.68,3,352.43,19 / 20,1665114,2019-11-06 13:10:06:822,0.7794,3.0434,10.2974,-0.0111,0.0301,9.8065,0.06,-0.1136,0.043,9.88,-43.12,-15.62,128.16,-84.64,150.63
1920,53.088146,-1.766985,328.22,3.68,3,352.43,19 / 20,1665214,2019-11-06 13:10:06:922,-0.3312,3.8579,9.1171,-0.0028,0.0358,9.8065,-0.1093,-0.064,0.0511,9.13,-42.37,-14.75,132.43,-84.28,153.32
1921,53.088146,-1.766985,328.22,3.68,3,352.43,19 / 20,1665314,2019-11-06 13:10:07:022,-2.3809,1.2609,9.2551,-0.0301,0.024,9.8065,-0.07,-0.1242,0.1414,10.13,-42.5,-15.31,130.2,-84.46,154.11
1922,53.088146,-1.766985,328.22,3.68,3,352.43,19 / 20,1665414,2019-11-06 13:10:07:122,1.0808,-2.0833,9.8536,0.0068,-0.0269,9.8066,0.0076,0.0219,-0.0821,9.94,-42.56,-14.25,129.4,-84.49,154.35
1923,53.088863,-1.767835,330.56,14.94,3,324.43,18 / 21,1665514,2019-11-06 13:10:07:222,0.7442,-0.6175,10.274,0.0135,0.0115,9.8066,0.1241,-0.1073,-0.1649,9.63,-42.19,-14.62,129.58,-84.51,153.48
1924,53.088863,-1.767835,330.56,14.94,3,324.43,18 / 21,1665615,2019-11-06 13:10:07:323,2.6166,-2.3522,9.8524,-0.0248,-0.0285,9.8065,-0.1022,-0.1415,0.1663,10.25,-42.37,-15.0,127.41,-84.53,151.04
1925,53.088863,-1.767835,330.56,14.94,3,324.43,18 / 21,1665715,2019-11-06 13:10:07:423,0.7828,0.1579,9.2773,-0.0153,0.0034,9.8066,-0.1013,-0.0653,0.0649,9.63,-42.69,-15.44,127.78,-84.83,151.77
1926,53.088863,-1.767835,330.56,14.94,3,324.43,18 / 21,1665815,2019-11-06 13:10:07:523,0.9874,0.9551,10.6267,0.0146,-0.0031,9.8066,0.0683,-0.0501,0.0984,10.25,-42.69,-15.06,128.04,-84.87,152.15
1927,53.088863,-1.767835,330.56,14.94,3,324.43,18 / 21,1665914,2019-11-06 13:10:07:622,-0.0357,-1.6764,10.0831,-0.0131,-0.0016,9.8065,0.064,-0.1558,-0.0141,9.75,-43.06,-14.87,129.95,-84.88,154.34
1928,53.088863,-1.767835,330.56,14.94,3,324.43,18 / 21,1666014,2019-11-06 13:10:07:722,1.8989,1.8451,9.4961,-0.0587,0.0268,9.8064,-0.0646,-0.1855,0.1498,9.06,-42.5,-14.87,132.86,-84.47,154.17
1929,53.088863,-1.767835,330.56,14.94,3,324.43,18 / 21,1666114,2019-11-06 13:10:07:822,0.2762,0.065,9.1481,-0.0083,0.0115,9.8066,-0.0831,0.12,-0.028,9.19,-42.31,-15.37,132.99,-84.52,154.41
1930,53.088863,-1.767835,330.56,14.94,3,324.43,18 / 21,1666214,2019-11-06 13:10:07:922,-1.3134,0.8962,10.3427,0.0095,-0.0034,9.8066,0.1305,0.0674,-0.062,9.63,-42.31,-15.19,129.96,-84.54,153.97
1931,53.088863,-1.767835,330.56,14.94,3,324.43,18 / 21,1666315,2019-11-06 13:10:08:023,-1.7812,0.3339,10.7285,0.0219,0.0226,9.8066,0.0804,0.1225,-0.1094,9.75,-42.81,-15.12,131.43,-84.12,154.68
1932,53.088863,-1.767835,330.56,14.94,3,324.43,18 / 21,1666415,2019-11-06 13:10:08:123,-0.1641,1.5313,9.6027,-0.0053,0.0012,9.8066,-0.1169,0.0275,0.1369,9.69,-42.19,-15.19,133.33,-84.12,157.15
1933,53.088863,-1.767835,330.56,14.94,3,324.43,17 / 18,1666515,2019-11-06 13:10:08:223,0.9262,-0.3053,9.7611,0.0116,-0.019,9.8066,-0.0238,0.0287,-0.0613,9.31,-42.19,-14.87,136.67,-84.48,158.63
1934,53.088863,-1.767835,330.56,14.94,3,324.43,17 / 18,1666614,2019-11-06 13:10:08:322,4.1341,2.5737,9.4101,-0.0324,0.0107,9.8065,0.0171,-0.2726,0.0941,9.81,-42.5,-14.75,132.64,-84.36,156.73
1935,53.088863,-1.767835,330.56,14.94,3,324.43,17 / 18,1666714,2019-11-06 13:10:08:422,-0.3016,1.5953,9.975,0.0104,0.0009,9.8066,0.0039,0.4312,-0.0744,9.94,-42.37,-15.25,133.75,-84.35,158.01
1936,53.088863,-1.767835,330.56,14.94,3,324.43,17 / 18,1666814,2019-11-06 13:10:08:522,-3.332,0.8515,9.641,0.0118,0.0075,9.8066,0.0685,0.1118,-0.149,9.75,-42.56,-14.75,133.54,-84.36,157.57
1937,53.088863,-1.767835,330.56,14.94,3,324.43,17 / 18,1666914,2019-11-06 13:10:08:622,0.773,1.0685,11.0506,0.0377,-0.0248,9.8065,0.0801,0.2985,-0.1475,9.44,-42.06,-14.87,135.49,-84.19,156.77
1938,53.088863,-1.767835,330.56,14.94,3,324.43,17 / 18,1667014,2019-11-06 13:10:08:722,-0.553,-0.893,7.6028,0.0014,0.0057,9.8065,-0.2837,0.191,-0.1006,9.69,-42.37,-15.56,131.3,-84.5,154.19
1939,53.088863,-1.767835,330.56,14.94,3,324.43,17 / 18,1667114,2019-11-06 13:10:08:822,-0.8049,1.6889,11.6879,-0.0275,0.0191,9.8066,-0.0913,0.0435,0.1213,9.94,-42.5,-14.81,126.74,-84.96,151.07
1940,53.088863,-1.767835,330.56,14.94,3,324.43,17 / 18,1667214,2019-11-06 13:10:08:922,-1.7163,1.029,10.6977,0.0123,0.0184,9.8066,0.1627,0.076,-0.1245,10.31,-42.19,-14.94,128.25,-84.9,152.67
1941,53.088863,-1.767835,330.56,14.94,3,324.43,17 / 18,1667314,2019-11-06 13:10:09:022,1.8731,-0.9138,9.2251,0.0443,-0.0135,9.8065,0.2014,-0.1572,-0.1043,10.0,-42.12,-15.87,131.67,-84.8,155.1
1942,53.088863,-1.767835,330.56,14.94,3,324.43,17 / 18,1667415,2019-11-06 13:10:09:123,-0.226,3.3209,10.3043,-0.0197,0.0165,9.8066,0.0795,-0.1441,0.1145,9.44,-42.69,-15.25,134.27,-84.46,155.56
1943,53.088863,-1.767835,330.56,14.94,3,324.43,17 / 20,1667514,2019-11-06 13:10:09:222,-1.7907,-0.8043,9.7141,-0.0085,0.0145,9.8065,-0.0503,0.1747,-0.1366,9.56,-42.06,-15.12,132.74,-84.39,156.91
1944,53.088863,-1.767835,330.56,14.94,3,324.43,17 / 20,1667614,2019-11-06 13:10:09:322,-0.972,3.4103,9.8983,-0.0042,-0.0363,9.8065,-0.1049,-0.0517,-0.0263,10.0,-42.5,-15.25,130.87,-84.51,154.97
1945,53.088863,-1.767835,330.56,14.94,3,324.43,17 / 20,1667714,2019-11-06 13:10:09:422,5.0107,0.1773,9.1613,0.0368,0.0221,9.8065,-0.0305,0.5518,-0.322,10.06,-41.94,-14.81,127.72,-84.72,151.73
1946,53.088863,-1.767835,330.56,14.94,3,324.43,17 / 20,1667814,2019-11-06 13:10:09:522,2.8666,2.9475,9.0595,0.0207,0.022,9.8066,0.0672,0.2189,-0.2868,9.94,-42.0,-15.0,128.16,-84.55,151.93
1947,53.088863,-1.767835,330.56,14.94,3,324.43,17 / 20,1667914,2019-11-06 13:10:09:622,3.394,2.5524,11.2046,0.0846,0.0329,9.8062,-0.0269,0.7549,-0.2882,10.13,-42.31,-14.75,131.05,-84.44,155.05
1948,53.088863,-1.767835,330.56,14.94,3,324.43,17 / 20,1668014,2019-11-06 13:10:09:722,-4.1995,-4.13,9.012,0.061,0.0501,9.8063,-0.2643,0.827,-0.4587,9.81,-42.44,-14.94,131.62,-84.58,155.94
1949,53.088863,-1.767835,330.56,14.94,3,324.43,17 / 20,1668114,2019-11-06 13:10:09:822,5.6239,1.4834,9.3866,0.0437,0.0494,9.8064,-0.0666,0.0779,-0.0206,9.56,-42.69,-15.12,130.75,-84.52,154.6
1950,53.088863,-1.767835,330.56,14.94,3,324.43,17 / 20,1668214,2019-11-06 13:10:09:922,-3.2943,-4.8521,9.9754,0.0673,0.0634,9.8062,0.0353,0.7816,-0.4102,9.94,-42.25,-14.87,135.69,-84.43,160.41
1951,53.088863,-1.767835,330.56,14.94,3,324.43,17 / 20,1668315,2019-11-06 13:10:10:023,1.3611,-1.9512,8.4968,0.0165,-0.0378,9.8065,0.2431,-0.3288,0.0389,9.44,-42.75,-14.56,136.9,-84.23,158.26
1952,53.088863,-1.767835,330.56,14.94,3,324.43,17 / 20,1668415,2019-11-06 13:10:10:123,-4.3022,-0.5726,9.0892,0.0306,0.0385,9.8065,-0.0181,0.2139,-0.0798,9.69,-42.37,-15.19,134.25,-84.11,158.2
1953,53.088863,-1.767835,330.56,14.94,3,324.43,17 / 17,1668515,2019-11-06 13:10:10:223,0.3363,-0.2074,10.2813,-0.0554,-0.0196,9.8064,0.0195,-0.4374,0.3395,9.31,-42.94,-15.37,135.72,-83.91,156.33
1954,53.088863,-1.767835,330.56,14.94,3,324.43,17 / 17,1668615,2019-11-06 13:10:10:323,3.7225,0.1402,10.1092,0.0297,0.0214,9.8065,0.0572,-0.192,-0.0686,9.31,-42.25,-14.87,138.64,-83.93,160.09
1955,53.088863,-1.767835,330.56,14.94,3,324.43,17 / 17,1668714,2019-11-06 13:10:10:422,2.7632,-1.8258,10.4278,0.0086,-0.0397,9.8066,0.0575,-0.2829,0.1657,9.31,-42.56,-14.5,137.66,-83.93,159.92
1956,53.088863,-1.767835,330.56,14.94,3,324.43,17 / 17,1668815,2019-11-06 13:10:10:523,0.7323,2.9891,10.2244,-0.0079,0.0007,9.8066,-0.0023,-0.2233,0.151,9.25,-42.81,-14.69,138.56,-84.17,160.13
1957,53.088863,-1.767835,330.56,14.94,3,324.43,17 / 17,1668915,2019-11-06 13:10:10:623,-0.4843,-1.699,10.363,-0.024,-0.0125,9.8065,-0.0683,-0.1741,0.0497,9.19,-42.56,-15.06,139.04,-84.48,161.2
1958,53.088863,-1.767835,330.56,14.94,3,324.43,17 / 17,1669015,2019-11-06 13:10:10:723,1.4738,0.168,10.8534,-0.0221,-0.0352,9.8065,0.0815,-0.152,0.1803,9.56,-42.56,-14.81,133.91,-84.6,158.4
1959,53.088863,-1.767835,330.56,14.94,3,324.43,17 / 17,1669115,2019-11-06 13:10:10:823,-0.0754,-1.006,9.7177,-0.001,0.0172,9.8066,0.0554,-0.0436,-0.1157,9.94,-42.25,-15.19,135.45,-84.57,160.34
1960,53.088863,-1.767835,330.56,14.94,3,324.43,17 / 17,1669215,2019-11-06 13:10:10:923,0.1939,1.2135,10.8085,0.0104,-0.02,9.8066,0.1383,-0.066,0.0343,9.38,-42.56,-14.81,138.33,-84.53,160.43
1961,53.088863,-1.767835,330.56,14.94,3,324.43,17 / 17,1669315,2019-11-06 13:10:11:023,-1.475,-0.0447,9.5145,0.0118,0.0155,9.8065,-0.0376,0.1097,-0.0816,8.75,-42.19,-14.75,139.47,-84.33,161.69
1962,53.088863,-1.767835,330.56,14.94,3,324.43,17 / 17,1669414,2019-11-06 13:10:11:122,1.2232,3.1426,9.1415,-0.0185,-0.0117,9.8066,-0.1257,-0.2037,0.2098,10.0,-42.44,-14.69,137.29,-84.38,162.19
1963,53.088863,-1.767835,330.56,14.94,3,324.43,17 / 19,1669514,2019-11-06 13:10:11:222,1.4914,1.1976,10.9733,-0.005,0.0303,9.8065,-0.114,0.1397,-0.1162,9.19,-42.56,-14.87,140.68,-84.74,163.54
1964,53.088863,-1.767835,330.56,14.94,3,324.43,17 / 19,1669614,2019-11-06 13:10:11:322,1.8725,-0.8031,10.8451,-0.0043,-0.012,9.8066,-0.051,0.0929,0.042,8.88,-42.5,-15.44,140.2,-84.84,163.32
1965,53.088863,-1.767835,330.56,14.94,3,324.43,17 / 19,1669715,2019-11-06 13:10:11:423,0.8071,0.787,9.209,0.0243,-0.0165,9.8066,-0.0508,0.169,-0.1403,8.88,-42.44,-15.5,139.65,-85.28,163.35
1966,53.088863,-1.767835,330.56,14.94,3,324.43,17 / 19,1669815,2019-11-06 13:10:11:523,-0.8771,-0.7027,10.5559,0.0101,-0.0099,9.8066,0.0096,0.1882,-0.0685,8.81,-43.0,-15.56,138.93,-85.3,161.13
1967,53.088863,-1.767835,330.56,14.94,3,324.43,17 / 19,1669915,2019-11-06 13:10:11:623,0.7802,-2.2291,10.8408,0.0317,0.0081,9.8065,-0.0214,0.1368,-0.0843,9.25,-42.25,-15.19,136.67,-85.24,159.86
1968,53.088863,-1.767835,330.56,14.94,3,324.43,17 / 19,1670015,2019-11-06 13:10:11:723,1.2786,-1.7745,10.1231,0.0067,0.0306,9.8065,0.0089,0.0521,0.0333,8.94,-42.5,-13.94,138.42,-85.27,163.29
1969,53.088863,-1.767835,330.56,14.94,3,324.43,17 / 19,1670115,2019-11-06 13:10:11:823,-0.2689,-1.2223,9.3491,0.0064,-0.0255,9.8066,-0.0329,-0.0804,0.1729,9.38,-42.62,-15.31,142.2,-85.29,166.14
1970,53.088863,-1.767835,330.56,14.94,3,324.43,17 / 19,1670215,2019-11-06 13:10:11:923,2.2934,-1.8984,9.5318,0.024,-0.0112,9.8065,-0.0383,-0.19,0.0232,9.19,-42.69,-15.44,142.99,-85.66,167.6
1971,53.088863,-1.767835,330.56,14.94,3,324.43,17 / 19,1670315,2019-11-06 13:10:12:023,-2.3826,-0.8302,9.0972,-0.0117,-0.049,9.8065,0.0586,-0.1139,0.131,8.81,-42.31,-15.31,139.48,-86.11,164.43
1972,53.088863,-1.767835,330.56,14.94,3,324.43,17 / 19,1670415,2019-11-06 13:10:12:123,0.2678,1.8881,10.216,-0.0398,-0.0003,9.8065,0.0065,-0.2029,0.1293,9.19,-42.31,-14.81,140.03,-86.0,164.88
1973,53.088863,-1.767835,330.56,14.94,3,324.43,18 / 19,1670515,2019-11-06 13:10:12:223,0.7783,0.2241,9.9295,-0.0293,-0.0025,9.8066,0.0326,-0.1373,0.1359,9.5,-41.87,-15.12,138.11,-85.9,165.48
1974,53.088863,-1.767835,330.56,14.94,3,324.43,18 / 19,1670614,2019-11-06 13:10:12:322,-1.7249,-0.458,10.6026,0.0063,0.0149,9.8066,-0.0057,0.0959,-0.054,9.0,-42.56,-15.06,142.53,-85.71,167.15
1975,53.088863,-1.767835,330.56,14.94,3,324.43,18 / 19,1670714,2019-11-06 13:10:12:422,0.8199,-2.6471,9.9197,-0.0047,-0.0267,9.8066,0.0493,-0.2996,0.2004,9.06,-42.25,-14.62,143.93,-85.89,169.14
1976,53.088863,-1.767835,330.56,14.94,3,324.43,18 / 19,1670814,2019-11-06 13:10:12:522,-0.89,-1.3761,9.5452,0.0317,0.0073,9.8066,0.1012,-0.1026,0.0686,8.38,-43.06,-15.19,147.84,-85.94,170.5
1977,53.088863,-1.767835,330.56,14.94,3,324.43,18 / 19,1670914,2019-11-06 13:10:12:622,-0.6029,0.793,10.7084,-0.0285,-0.0142,9.8065,-0.0041,-0.4868,0.2456,8.5,-42.62,-15.25,145.88,-85.83,171.16
1978,53.088863,-1.767835,330.56,14.94,3,324.43,18 / 19,1671014,2019-11-06 13:10:12:722,4.7332,0.5013,10.001,-0.0091,-0.005,9.8066,0.0237,-0.1775,0.1844,8.44,-42.75,-15.19,151.3,-86.0,174.56
1979,53.088863,-1.767835,330.56,14.94,3,324.43,18 / 19,1671114,2019-11-06 13:10:12:822,2.5995,-1.5789,9.1923,-0.0178,-0.0193,9.8065,0.0192,-0.2527,0.0959,8.13,-43.0,-15.44,154.36,-86.06,178.17
1980,53.088863,-1.767835,330.56,14.94,3,324.43,18 / 19,1671214,2019-11-06 13:10:12:922,2.572,0.1903,11.1472,0.0169,-0.0604,9.8064,0.1324,-0.1917,0.0247,8.31,-42.31,-14.94,151.94,-86.25,175.7
1981,53.088863,-1.767835,330.56,14.94,3,324.43,18 / 19,1671314,2019-11-06 13:10:13:022,0.8537,-1.5203,9.6504,0.0067,-0.0238,9.8066,0.0464,-0.1227,-0.0746,8.63,-42.94,-15.31,147.54,-86.2,173.54
1982,53.088863,-1.767835,330.56,14.94,3,324.43,18 / 19,1671414,2019-11-06 13:10:13:122,1.292,1.0871,10.8723,-0.0453,-0.0229,9.8065,0.0597,-0.1897,0.1528,8.44,-42.37,-15.5,146.23,-86.35,169.33
1983,53.088863,-1.767835,330.56,14.94,3,324.43,17 / 19,1671514,2019-11-06 13:10:13:222,1.2645,-2.843,8.8501,-0.0173,0.0262,9.8066,-0.003,0.1046,-0.0812,8.25,-42.69,-14.69,147.34,-85.98,169.99
1984,53.088863,-1.767835,330.56,14.94,3,324.43,17 / 19,1671614,2019-11-06 13:10:13:322,-0.6262,0.0791,10.059,0.0154,-0.0227,9.8065,0.1123,-0.0597,-0.0327,8.44,-42.19,-14.62,146.68,-85.89,169.23
1985,53.088863,-1.767835,330.56,14.94,3,324.43,17 / 19,1671714,2019-11-06 13:10:13:422,0.2369,-1.2936,9.9942,0.0281,-0.0199,9.8066,-0.0327,0.0669,-0.0689,8.75,-42.75,-14.87,143.18,-85.93,168.21
1986,53.088863,-1.767835,330.56,14.94,3,324.43,17 / 19,1671814,2019-11-06 13:10:13:522,0.8361,-0.9962,8.9591,-0.0219,0.0086,9.8066,-0.0866,0.0003,0.006,9.19,-42.5,-15.25,142.43,-86.17,167.84
1987,53.088863,-1.767835,330.56,14.94,3,324.43,17 / 19,1671914,2019-11-06 13:10:13:622,0.498,0.1134,10.8405,-0.0166,0.0174,9.8066,-0.1393,0.1169,-0.0295,8.88,-42.5,-15.37,141.37,-86.24,166.75
1988,53.088863,-1.767835,330.56,14.94,3,324.43,17 / 19,1672014,2019-11-06 13:10:13:722,0.8313,1.8714,10.4443,-0.0062,-0.0027,9.8066,0.0962,-0.0557,-0.0913,9.06,-42.37,-14.81,141.06,-86.15,166.27
1989,53.088863,-1.767835,330.56,14.94,3,324.43,17 / 19,1672114,2019-11-06 13:10:13:822,1.5498,-1.1635,10.7294,0.0069,0.0287,9.8065,0.0659,0.1234,-0.1743,9.0,-42.62,-15.44,140.06,-85.63,164.19
1990,53.088863,-1.767835,330.56,14.94,3,324.43,17 / 19,1672214,2019-11-06 13:10:13:922,-0.4678,-0.8905,10.032,-0.0426,-0.0052,9.8065,-0.1006,-0.0171,-0.086,8.75,-43.56,-15.37,137.15,-85.42,160.34
1991,53.088863,-1.767835,330.56,14.94,3,324.43,17 / 19,1672314,2019-11-06 13:10:14:022,-1.0616,0.6206,10.4857,0.0307,-0.0107,9.8066,0.1092,0.0823,-0.1725,8.13,-44.19,-15.37,135.46,-85.42,155.27
1992,53.088863,-1.767835,330.56,14.94,3,324.43,17 / 19,1672414,2019-11-06 13:10:14:122,5.4658,-0.6916,8.1703,-0.0558,0.0,9.8064,0.0088,-0.5213,0.2952,8.38,-42.94,-14.5,132.87,-85.27,153.43
1993,53.088863,-1.767835,330.56,14.94,3,324.43,19 / 20,1672514,2019-11-06 13:10:14:222,-3.2632,-0.7916,8.6444,0.0062,-0.0162,9.8066,0.1048,-0.2716,0.0599,9.19,-42.5,-14.31,132.76,-85.46,157.13
1994,53.088863,-1.767835,330.56,14.94,3,324.43,19 / 20,1672614,2019-11-06 13:10:14:322,6.9428,2.3426,10.0248,-0.0958,-0.0453,9.806,-0.0383,-0.9547,0.6433,8.25,-41.19,-15.56,137.92,-85.61,157.8
1995,53.088863,-1.767835,330.56,14.94,3,324.43,19 / 20,1672714,2019-11-06 13:10:14:422,-4.7586,-2.3078,9.6425,0.0149,0.0221,9.8066,-0.1062,0.2348,-0.1515,8.63,-42.69,-14.94,142.59,-85.81,167.35
1996,53.088863,-1.767835,330.56,14.94,3,324.43,19 / 20,1672814,2019-11-06 13:10:14:522,-0.1861,0.4179,10.9897,-0.0653,-0.0491,9.8062,0.1495,-0.659,0.3954,8.81,-42.75,-15.25,141.89,-85.84,166.61
1997,53.088863,-1.767835,330.56,14.94,3,324.43,19 / 20,1672914,2019-11-06 13:10:14:622,-6.254,-2.0723,10.1846,0.0532,0.02,9.8064,0.0537,0.585,-0.4553,8.0,-42.69,-15.06,146.98,-85.63,169.09
1998,53.088863,-1.767835,330.56,14.94,3,324.43,19 / 20,1673014,2019-11-06 13:10:14:722,2.0548,0.1191,9.825,-0.0608,-0.0306,9.8064,0.0312,-0.114,0.1187,8.13,-42.62,-14.56,145.7,-85.5,167.42
1999,53.088863,-1.767835,330.56,14.94,3,324.43,19 / 20,1673114,2019-11-06 13:10:14:822,7.506,4.1981,10.0995,0.0853,0.0651,9.806,-0.0688,0.9753,-0.5975,8.63,-42.87,-14.69,142.8,-85.42,167.02
2000,53.088863,-1.767835,330.56,14.94,3,324.43,19 / 20,1673214,2019-11-06 13:10:14:922,2.9028,0.9164,10.2848,0.0145,0.021,9.8066,-0.0394,0.5387,-0.2616,8.5,-42.69,-15.56,146.79,-85.31,170.21
2001,53.088863,-1.767835,330.56,14.94,3,324.43,19 / 20,1673314,2019-11-06 13:10:15:022,7.0242,1.7681,10.5262,0.0697,0.0467,9.8063,0.0122,0.5857,-0.3667,9.13,-42.5,-15.06,149.43,-85.14,174.54
2002,53.088863,-1.767835,330.56,14.94,3,324.43,19 / 20,1673415,2019-11-06 13:10:15:123,-3.3312,-2.7654,9.7223,0.0523,0.0518,9.8064,-0.1196,0.7845,-0.4158,8.94,-42.62,-15.12,147.37,-84.98,171.76
2003,53.088863,-1.767835,330.56,14.94,3,324.43,18 / 19,1673515,2019-11-06 13:10:15:223,5.9374,0.9814,10.5305,0.0031,-0.0021,9.8066,0.0376,-0.0572,0.0162,8.25,-43.0,-15.19,147.38,-85.0,168.72
2004,53.088863,-1.767835,330.56,14.94,3,324.43,18 / 19,1673614,2019-11-06 13:10:15:322,-1.7383,-2.5437,9.7676,0.0491,0.0285,9.8065,-0.0731,0.4496,-0.2536,8.25,-43.12,-15.06,145.83,-85.05,166.96
2005,53.088863,-1.767835,330.56,14.94,3,324.43,18 / 19,1673714,2019-11-06 13:10:15:422,-2.4975,-0.4355,9.1941,-0.0464,-0.0133,9.8065,0.093,-0.4284,0.3145,8.69,-42.5,-15.62,140.86,-84.85,162.88
2006,53.088863,-1.767835,330.56,14.94,3,324.43,18 / 19,1673814,2019-11-06 13:10:15:522,-0.6862,-0.8557,9.5998,0.0334,0.009,9.8065,-0.0321,-0.0841,-0.0275,8.69,-42.87,-14.87,141.92,-84.91,165.25
2007,53.088863,-1.767835,330.56,14.94,3,324.43,18 / 19,1673915,2019-11-06 13:10:15:623,-1.7975,-0.737,9.603,-0.033,-0.0416,9.8065,0.0796,-0.34,0.3019,8.94,-42.44,-15.56,143.18,-84.9,165.63
2008,53.088863,-1.767835,330.56,14.94,3,324.43,18 / 19,1674015,2019-11-06 13:10:15:723,3.1186,-0.9108,9.0394,-0.0138,0.0077,9.8066,-0.0695,-0.3372,0.1741,8.13,-42.62,-15.75,145.36,-84.97,165.14
2009,53.088863,-1.767835,330.56,14.94,3,324.43,18 / 19,1674115,2019-11-06 13:10:15:823,0.5526,-0.9382,10.0672,-0.0389,-0.0184,9.8065,0.0197,-0.2743,0.3135,8.25,-43.0,-15.0,146.7,-85.11,168.06
2010,53.088863,-1.767835,330.56,14.94,3,324.43,18 / 19,1674215,2019-11-06 13:10:15:923,4.391,1.2184,10.319,-0.0141,-0.016,9.8066,0.0458,-0.5496,0.1447,8.38,-43.06,-15.19,147.73,-85.16,169.35
2011,53.088863,-1.767835,330.56,14.94,3,324.43,18 / 19,1674315,2019-11-06 13:10:16:023,-0.4569,-0.1757,9.0705,0.0071,-0.0021,9.8066,0.0651,0.0416,-0.0208,7.81,-43.12,-15.94,149.41,-85.27,170.27
2012,53.088863,-1.767835,330.56,14.94,3,324.43,18 / 19,1674414,2019-11-06 13:10:16:122,6.1199,-0.1686,8.9176,-0.0308,-0.0438,9.8065,0.0245,-0.4786,0.0985,7.69,-42.69,-15.0,148.42,-85.19,170.2
2013,53.09006,-1.76915,331.45,18.02,4,328.93,18 / 19,1674514,2019-11-06 13:10:16:222,5.9546,1.2367,10.1142,0.0484,0.0037,9.8064,-0.0613,0.3711,-0.2564,7.94,-43.37,-16.25,147.89,-85.37,168.6
2014,53.09006,-1.76915,331.45,18.02,4,328.93,18 / 19,1674615,2019-11-06 13:10:16:323,6.2333,1.203,9.5766,-0.0678,-0.0295,9.8063,0.0361,-0.6496,0.3269,8.0,-42.94,-15.19,146.14,-85.33,167.7
2015,53.09006,-1.76915,331.45,18.02,4,328.93,18 / 19,1674714,2019-11-06 13:10:16:422,0.8269,-1.8069,10.0072,0.0454,0.0608,9.8064,0.0967,0.0605,-0.0636,8.38,-42.31,-14.75,148.72,-85.09,170.57
2016,53.09006,-1.76915,331.45,18.02,4,328.93,18 / 19,1674814,2019-11-06 13:10:16:522,-1.9906,-2.4026,9.5059,-0.0278,-0.0058,9.8066,0.1005,-0.5176,0.1887,8.06,-43.19,-15.5,145.85,-85.06,166.99
2017,53.09006,-1.76915,331.45,18.02,4,328.93,18 / 19,1674914,2019-11-06 13:10:16:622,-1.0618,-2.6957,9.2492,0.0373,0.0327,9.8064,0.0638,-0.0863,0.0888,7.94,-42.87,-15.69,146.24,-84.95,166.15
2018,53.09006,-1.76915,331.45,18.02,4,328.93,18 / 19,1675015,2019-11-06 13:10:16:723,-0.7086,-0.1096,11.0291,0.0026,-0.02,9.8066,-0.0169,-0.4399,0.1426,8.06,-42.37,-15.75,146.22,-85.04,166.39
2019,53.09006,-1.76915,331.45,18.02,4,328.93,18 / 19,1675115,2019-11-06 13:10:16:823,4.7574,1.4987,10.351,0.0406,0.0321,9.8065,0.0956,-0.3343,0.2325,7.94,-43.0,-15.81,144.79,-85.03,164.54
2020,53.09006,-1.76915,331.45,18.02,4,328.93,18 / 19,1675214,2019-11-06 13:10:16:922,0.3236,-2.1272,9.7061,0.0197,0.0217,9.8066,0.0001,-0.2183,0.1049,8.38,-42.75,-15.31,145.34,-84.85,166.1
2021,53.09006,-1.76915,331.45,18.02,4,328.93,18 / 19,1675314,2019-11-06 13:10:17:022,4.7122,0.4029,10.2333,0.0096,0.0057,9.8065,0.0646,-0.4535,0.1933,7.69,-43.06,-15.25,145.23,-84.98,166.14
2022,53.09006,-1.76915,331.45,18.02,4,328.93,18 / 19,1675414,2019-11-06 13:10:17:122,2.3549,-2.5815,9.7947,0.0489,0.0181,9.8065,-0.0297,0.1985,-0.0702,7.88,-42.37,-15.0,145.65,-85.13,167.01
2023,53.09006,-1.76915,331.45,18.02,4,328.93,17 / 20,1675514,2019-11-06 13:10:17:222,4.42,0.416,10.3284,-0.0225,-0.02,9.8065,-0.0567,-0.1655,0.0891,8.44,-43.06,-15.37,145.59,-85.21,166.89
2024,53.09006,-1.76915,331.45,18.02,4,328.93,17 / 20,1675614,2019-11-06 13:10:17:322,1.4796,-2.1637,9.643,0.0259,0.0098,9.8065,-0.0921,0.2974,-0.114,7.81,-43.0,-15.37,145.14,-85.14,166.26
2025,53.09006,-1.76915,331.45,18.02,4,328.93,17 / 20,1675714,2019-11-06 13:10:17:422,-1.859,-0.78,9.5938,-0.037,-0.0144,9.8066,-0.0169,0.0181,-0.1033,7.44,-42.62,-16.5,146.53,-85.09,163.57
2026,53.09006,-1.76915,331.45,18.02,4,328.93,17 / 20,1675814,2019-11-06 13:10:17:522,-0.6089,-1.4617,8.8962,0.008,-0.0083,9.8066,-0.0996,0.3168,-0.2181,7.69,-42.0,-15.94,145.81,-85.14,166.05
2027,53.09006,-1.76915,331.45,18.02,4,328.93,17 / 20,1675915,2019-11-06 13:10:17:623,-1.1683,-1.5774,9.407,-0.0308,-0.022,9.8065,-0.0184,0.1473,-0.1291,8.0,-42.94,-15.56,145.81,-85.12,165.86
2028,53.09006,-1.76915,331.45,18.02,4,328.93,17 / 20,1676014,2019-11-06 13:10:17:722,3.0627,0.1158,10.8153,-0.0147,-0.0358,9.8065,-0.0894,0.2192,-0.2146,8.13,-42.69,-15.5,143.17,-85.28,164.16
2029,53.09006,-1.76915,331.45,18.02,4,328.93,17 / 20,1676114,2019-11-06 13:10:17:822,0.0323,-1.0949,9.3439,-0.0015,-0.0227,9.8066,-0.0029,0.2793,-0.0661,7.69,-42.87,-16.0,144.2,-85.18,164.07
2030,53.09006,-1.76915,331.45,18.02,4,328.93,17 / 20,1676214,2019-11-06 13:10:17:922,3.2705,0.1067,9.513,-0.0463,0.0014,9.8065,0.0126,-0.1898,0.0634,7.19,-43.0,-15.0,143.64,-85.03,161.08
2031,53.09006,-1.76915,331.45,18.02,4,328.93,17 / 20,1676315,2019-11-06 13:10:18:023,0.8377,0.2426,10.5832,-0.0042,0.018,9.8066,0.0816,-0.0302,-0.0284,8.06,-42.81,-15.0,142.01,-84.78,162.04
2032,53.09006,-1.76915,331.45,18.02,4,328.93,17 / 20,1676415,2019-11-06 13:10:18:123,-1.3254,-1.7447,9.3877,0.0021,0.0231,9.8066,0.0992,-0.2678,0.1881,7.81,-43.5,-15.44,141.85,-84.66,161.66
2033,53.09006,-1.76915,331.45,18.02,4,328.93,18 / 18,1676514,2019-11-06 13:10:18:222,2.1582,-1.5024,9.2831,0.0063,0.0197,9.8066,-0.0066,-0.2443,0.0177,7.63,-42.5,-15.62,142.19,-84.64,161.14
2034,53.09006,-1.76915,331.45,18.02,4,328.93,18 / 18,1676614,2019-11-06 13:10:18:322,-1.5084,0.4494,10.871,0.0536,0.0016,9.8064,-0.1809,-0.0596,-0.0629,7.44,-42.87,-15.12,147.27,-84.72,164.95
2035,53.09006,-1.76915,331.45,18.02,4,328.93,18 / 18,1676715,2019-11-06 13:10:18:423,2.7103,-1.3659,10.0161,0.0297,-0.0326,9.8065,0.0553,-0.3486,0.2563,7.44,-42.81,-15.31,146.04,-84.76,163.54
2036,53.09006,-1.76915,331.45,18.02,4,328.93,18 / 18,1676814,2019-11-06 13:10:18:522,-2.5742,-2.86,9.3031,-0.0181,0.0033,9.8066,-0.022,0.3976,-0.4507,7.63,-42.56,-15.62,141.1,-84.92,160.09
2037,53.09006,-1.76915,331.45,18.02,4,328.93,18 / 18,1676914,2019-11-06 13:10:18:622,2.3092,-1.0532,10.2239,-0.0811,-0.0436,9.8062,0.0225,-0.0213,-0.015,7.63,-43.25,-15.69,140.75,-85.2,160.1
2038,53.09006,-1.76915,331.45,18.02,4,328.93,18 / 18,1677014,2019-11-06 13:10:18:722,7.2979,-0.3241,9.3046,-0.0007,0.0028,9.8066,0.0093,0.6125,-0.3173,8.0,-42.37,-15.94,136.27,-85.11,154.98
2039,53.09006,-1.76915,331.45,18.02,4,328.93,18 / 18,1677114,2019-11-06 13:10:18:822,2.7234,-0.3515,10.1914,-0.0756,-0.0294,9.8063,-0.0358,0.3586,-0.2811,7.5,-43.0,-15.87,138.79,-85.02,157.56
2040,53.09006,-1.76915,331.45,18.02,4,328.93,18 / 18,1677214,2019-11-06 13:10:18:922,5.8731,0.5101,10.2314,-0.0294,-0.0099,9.8065,-0.0799,0.321,-0.0766,7.25,-42.75,-15.81,140.71,-84.84,156.37
2041,53.09006,-1.76915,331.45,18.02,4,328.93,18 / 18,1677314,2019-11-06 13:10:19:022,-1.9029,0.4446,9.8209,-0.0332,-0.0092,9.8066,0.0223,0.4398,-0.3192,7.19,-42.37,-15.69,140.96,-84.87,156.91
2042,53.09006,-1.76915,331.45,18.02,4,328.93,18 / 18,1677414,2019-11-06 13:10:19:122,2.7473,1.548,10.3119,-0.0427,-0.0182,9.8064,0.0376,-0.1092,-0.0318,7.06,-42.44,-15.69,141.62,-84.9,157.72
2043,53.09006,-1.76915,331.45,18.02,4,328.93,18 / 19,1677514,2019-11-06 13:10:19:222,-0.4699,-0.7502,8.8805,0.0144,-0.0322,9.8066,-0.1784,0.2279,-0.0727,8.0,-42.56,-15.94,140.38,-84.84,159.11
2044,53.09006,-1.76915,331.45,18.02,4,328.93,18 / 19,1677614,2019-11-06 13:10:19:322,0.6806,-0.4751,9.6088,-0.0287,-0.0211,9.8065,-0.0225,-0.2308,0.0778,7.13,-42.94,-15.37,139.86,-85.01,156.61
2045,53.09006,-1.76915,331.45,18.02,4,328.93,18 / 19,1677714,2019-11-06 13:10:19:422,-1.4799,0.6968,9.6174,0.0034,0.0207,9.8066,0.0916,0.0446,-0.0731,7.0,-42.62,-16.06,140.75,-85.17,156.93
2046,53.09006,-1.76915,331.45,18.02,4,328.93,18 / 19,1677814,2019-11-06 13:10:19:522,1.5152,-1.1319,10.5525,-0.0078,-0.0016,9.8066,0.0574,-0.1255,0.0109,6.69,-43.56,-15.56,141.17,-85.15,157.22
2047,53.09006,-1.76915,331.45,18.02,4,328.93,18 / 19,1677914,2019-11-06 13:10:19:622,2.569,0.0914,9.8042,0.0183,0.0157,9.8066,-0.008,-0.0548,0.1102,6.13,-42.56,-16.12,146.58,-85.09,160.41
2048,53.09006,-1.76915,331.45,18.02,4,328.93,18 / 19,1678014,2019-11-06 13:10:19:722,2.4956,-1.5007,9.6082,0.0269,-0.0067,9.8065,-0.0781,-0.2307,0.1436,6.63,-42.56,-16.44,144.15,-85.11,160.81
2049,53.09006,-1.76915,331.45,18.02,4,328.93,18 / 19,1678114,2019-11-06 13:10:19:822,1.8234,0.1804,10.1338,0.0321,0.0003,9.8065,0.0655,-0.2016,0.0253,6.25,-42.56,-15.94,146.63,-85.14,160.53
2050,53.09006,-1.76915,331.45,18.02,4,328.93,18 / 19,1678215,2019-11-06 13:10:19:923,1.2715,-0.4872,9.7553,0.012,-0.0045,9.8066,-0.0009,-0.0252,-0.0722,6.0,-43.06,-16.06,148.72,-85.45,163.41
2051,53.09006,-1.76915,331.45,18.02,4,328.93,18 / 19,1678314,2019-11-06 13:10:20:022,1.3375,-1.5773,7.9807,0.0168,0.0015,9.8066,-0.1097,-0.1268,0.1235,5.81,-42.37,-16.37,148.67,-85.63,163.71
2052,53.09006,-1.76915,331.45,18.02,4,328.93,18 / 19,1678414,2019-11-06 13:10:20:122,-0.9321,-0.8731,11.0299,0.0555,-0.0233,9.8064,-0.064,-0.2336,0.1636,6.06,-43.06,-16.56,152.65,-85.83,167.58
2053,53.09006,-1.76915,331.45,18.02,4,328.93,17 / 20,1678514,2019-11-06 13:10:20:222,3.6591,-0.0019,9.5148,0.0422,0.0043,9.8065,0.11,-0.5624,0.2319,4.88,-42.44,-16.5,156.79,-85.72,169.97
2054,53.09006,-1.76915,331.45,18.02,4,328.93,17 / 20,1678614,2019-11-06 13:10:20:322,-2.4663,-0.2482,9.8558,0.0191,0.0526,9.8065,0.1854,0.1457,-0.1215,5.31,-42.94,-16.62,157.33,-85.46,169.54
2055,53.09006,-1.76915,331.45,18.02,4,328.93,17 / 20,1678715,2019-11-06 13:10:20:423,2.7353,-1.2954,9.5266,-0.0536,0.0207,9.8064,-0.0209,-0.184,0.0429,5.94,-42.87,-16.37,153.01,-85.46,168.45
2056,53.09006,-1.76915,331.45,18.02,4,328.93,17 / 20,1678815,2019-11-06 13:10:20:523,2.0019,-0.4908,10.6559,0.0429,-0.032,9.8065,-0.1815,0.2753,-0.1494,6.75,-43.62,-16.94,149.23,-85.47,166.13
2057,53.09006,-1.76915,331.45,18.02,4,328.93,17 / 20,1678914,2019-11-06 13:10:20:622,2.8818,0.0822,11.0088,0.0018,-0.0451,9.8065,-0.0545,-0.1291,0.0811,5.88,-42.5,-16.44,148.92,-85.53,163.87
2058,53.09006,-1.76915,331.45,18.02,4,328.93,17 / 20,1679016,2019-11-06 13:10:20:724,1.9429,-1.0446,9.1232,-0.0031,0.0286,9.8065,0.0755,0.3087,-0.207,5.69,-43.06,-16.25,147.95,-85.63,162.73
2059,53.09006,-1.76915,331.45,18.02,4,328.93,17 / 20,1679114,2019-11-06 13:10:20:822,-3.3344,-1.1204,10.3709,-0.0574,0.0175,9.8064,0.039,0.2728,-0.1611,5.25,-43.31,-16.25,150.18,-85.46,161.81
2060,53.09006,-1.76915,331.45,18.02,4,328.93,17 / 20,1679214,2019-11-06 13:10:20:922,0.2871,1.1034,10.0657,-0.0254,-0.0091,9.8066,0.0256,0.2411,-0.2134,5.0,-43.19,-15.87,152.63,-85.36,164.59
2061,53.09006,-1.76915,331.45,18.02,4,328.93,17 / 20,1679314,2019-11-06 13:10:21:022,-1.6177,-1.165,9.543,-0.0067,-0.0255,9.8066,-0.0573,0.2867,-0.074,5.63,-43.31,-16.37,151.59,-85.11,166.38
2062,53.09006,-1.76915,331.45,18.02,4,328.93,17 / 20,1679414,2019-11-06 13:10:21:122,1.9505,-1.9662,10.2622,-0.0243,-0.0244,9.8065,-0.0467,-0.025,0.0359,5.25,-43.25,-16.31,152.89,-85.34,164.88
2063,53.09006,-1.76915,331.45,18.02,4,328.93,18 / 20,1679514,2019-11-06 13:10:21:222,-0.3724,-2.3005,9.6076,0.0079,0.0057,9.8066,0.0242,0.1972,-0.1378,5.31,-43.37,-16.69,155.86,-85.35,167.7
2064,53.09006,-1.76915,331.45,18.02,4,328.93,18 / 20,1679614,2019-11-06 13:10:21:322,1.3354,0.4073,9.6148,-0.0102,-0.0309,9.8065,0.066,-0.1003,-0.016,4.75,-42.56,-16.5,155.85,-85.64,168.69
2065,53.09006,-1.76915,331.45,18.02,4,328.93,18 / 20,1679714,2019-11-06 13:10:21:422,1.4897,-0.5185,10.0262,-0.0058,-0.0012,9.8066,-0.0344,0.0051,-0.0224,4.75,-42.94,-16.62,157.87,-85.74,170.42
2066,53.09006,-1.76915,331.45,18.02,4,328.93,18 / 20,1679814,2019-11-06 13:10:21:522,3.3854,-1.2794,9.7185,0.0038,-0.017,9.8066,-0.0638,-0.1252,0.1301,5.13,-43.25,-16.81,156.61,-85.87,169.07
2067,53.09006,-1.76915,331.45,18.02,4,328.93,18 / 20,1679914,2019-11-06 13:10:21:622,-0.0131,-1.4106,9.5605,0.0117,-0.011,9.8066,-0.0067,0.017,-0.1312,5.25,-42.56,-16.62,154.58,-86.01,166.86
2068,53.09006,-1.76915,331.45,18.02,4,328.93,18 / 20,1680014,2019-11-06 13:10:21:722,1.4524,-2.8953,9.3991,-0.0171,0.0001,9.8065,0.0251,-0.0239,-0.0205,5.19,-42.94,-16.5,154.25,-86.0,167.21
2069,53.09006,-1.76915,331.45,18.02,4,328.93,18 / 20,1680114,2019-11-06 13:10:21:822,0.6237,-1.6403,8.7466,-0.0222,0.0117,9.8066,-0.0151,0.1116,-0.1164,4.81,-42.75,-16.19,154.07,-86.09,167.09
2070,53.09006,-1.76915,331.45,18.02,4,328.93,18 / 20,1680214,2019-11-06 13:10:21:922,0.8209,-1.4278,11.3736,0.0001,-0.025,9.8066,-0.0135,0.0306,-0.125,4.75,-43.25,-16.56,154.62,-86.14,167.05
2071,53.09006,-1.76915,331.45,18.02,4,328.93,18 / 20,1680314,2019-11-06 13:10:22:022,1.9392,-2.2298,8.9973,0.035,-0.0323,9.8065,-0.1286,0.0562,0.1508,5.0,-43.19,-16.94,157.51,-86.26,170.47
2072,53.09006,-1.76915,331.45,18.02,4,328.93,18 / 20,1680414,2019-11-06 13:10:22:122,4.1892,-1.1941,9.103,-0.0156,-0.0067,9.8066,-0.0344,-0.2126,0.1736,5.0,-43.37,-16.5,154.73,-86.17,167.95
2073,53.09006,-1.76915,331.45,18.02,4,328.93,19 / 19,1680514,2019-11-06 13:10:22:222,0.237,-3.0363,10.4956,0.0107,0.0132,9.8066,0.1478,0.0594,-0.1151,4.63,-43.62,-16.56,158.23,-86.19,171.15
2074,53.09006,-1.76915,331.45,18.02,4,328.93,19 / 19,1680614,2019-11-06 13:10:22:322,1.2492,-0.8037,9.7116,-0.0388,-0.0001,9.8065,0.1241,-0.1959,-0.0132,5.13,-43.19,-16.44,157.21,-86.29,170.92
2075,53.09006,-1.76915,331.45,18.02,4,328.93,19 / 19,1680714,2019-11-06 13:10:22:422,1.9965,-1.7926,10.1338,-0.0126,0.0273,9.8065,-0.0418,-0.0777,0.0276,4.69,-42.75,-17.19,159.69,-86.39,173.08
2076,53.09006,-1.76915,331.45,18.02,4,328.93,19 / 19,1680814,2019-11-06 13:10:22:522,0.3658,-1.9367,9.5265,0.0288,-0.019,9.8065,-0.1277,-0.0228,0.0753,4.56,-43.62,-16.19,159.08,-86.23,172.94
2077,53.09006,-1.76915,331.45,18.02,4,328.93,19 / 19,1680914,2019-11-06 13:10:22:622,1.2882,-2.2811,10.1476,0.041,-0.0258,9.8064,-0.0292,0.0003,0.0634,4.44,-43.06,-16.94,163.68,-86.1,174.26
2078,53.09006,-1.76915,331.45,18.02,4,328.93,19 / 19,1681014,2019-11-06 13:10:22:722,-0.322,-1.026,9.8333,-0.0192,0.045,9.8065,-0.0778,-0.1516,0.0485,4.88,-42.44,-17.19,159.55,-85.71,172.44
2079,53.09006,-1.76915,331.45,18.02,4,328.93,19 / 19,1681114,2019-11-06 13:10:22:822,1.8551,-2.6748,9.73,-0.0026,0.0144,9.8066,0.1685,-0.2025,0.0204,4.25,-43.31,-16.37,162.35,-85.76,173.08
2080,53.09006,-1.76915,331.45,18.02,4,328.93,19 / 19,1681215,2019-11-06 13:10:22:923,0.2174,-3.1429,9.2273,0.0054,0.0102,9.8066,0.0906,0.0048,-0.1613,4.81,-42.44,-16.94,160.0,-85.89,173.1
2081,53.09006,-1.76915,331.45,18.02,4,328.93,19 / 19,1681315,2019-11-06 13:10:23:023,1.0011,-2.4082,9.2248,-0.0149,-0.0066,9.8065,0.0009,-0.2259,0.1703,4.69,-42.75,-16.87,159.42,-86.0,172.44
2082,53.09006,-1.76915,331.45,18.02,4,328.93,19 / 19,1681415,2019-11-06 13:10:23:123,-2.8095,-2.1874,9.0414,0.0221,0.0171,9.8066,-0.0202,0.12,-0.1343,4.88,-42.75,-16.75,157.79,-85.86,170.43
2083,53.09006,-1.76915,331.45,18.02,4,328.93,19 / 19,1681514,2019-11-06 13:10:23:222,3.8229,-4.1737,10.2571,-0.0196,-0.0069,9.8066,0.0636,-0.3243,0.1123,4.38,-43.06,-16.75,158.8,-85.59,168.17
2084,53.09006,-1.76915,331.45,18.02,4,328.93,19 / 19,1681614,2019-11-06 13:10:23:322,3.1074,-3.9642,10.4383,0.0425,0.0156,9.8065,-0.0184,0.37,-0.2318,4.56,-42.0,-17.12,158.21,-85.57,170.76
2085,53.09006,-1.76915,331.45,18.02,4,328.93,19 / 19,1681714,2019-11-06 13:10:23:422,5.9784,-4.0142,9.4582,-0.0504,-0.0113,9.8065,-0.0223,-0.13,-0.0382,4.19,-41.5,-16.87,159.96,-85.55,169.68
2086,53.09006,-1.76915,331.45,18.02,4,328.93,19 / 19,1681815,2019-11-06 13:10:23:523,3.1631,-4.2825,9.9544,0.0236,-0.0193,9.8066,-0.1114,0.5623,-0.3001,5.94,-39.0,-17.37,155.17,-85.72,170.78
2087,53.09006,-1.76915,331.45,18.02,4,328.93,19 / 19,1681915,2019-11-06 13:10:23:623,-1.7973,-5.2217,9.0897,-0.0439,-0.029,9.8065,-0.025,0.2771,-0.2272,5.06,-40.56,-15.94,154.51,-85.64,167.34
2088,53.09006,-1.76915,331.45,18.02,4,328.93,19 / 19,1682015,2019-11-06 13:10:23:723,-1.5941,-4.0575,8.0931,-0.0472,-0.0217,9.8064,-0.0646,0.0828,-0.1725,4.38,-42.31,-17.19,153.79,-85.65,162.47
2089,53.09006,-1.76915,331.45,18.02,4,328.93,19 / 19,1682114,2019-11-06 13:10:23:822,0.0197,-4.982,9.82,0.0316,0.0067,9.8065,0.0273,0.1829,0.0113,3.19,-43.56,-17.94,162.06,-85.88,168.5
2090,53.09006,-1.76915,331.45,18.02,4,328.93,19 / 19,1682214,2019-11-06 13:10:23:922,5.8493,-4.2023,10.2553,-0.0649,-0.033,9.8063,0.0632,0.2099,-0.3698,3.5,-43.87,-16.69,156.57,-86.08,165.92
2091,53.09006,-1.76915,331.45,18.02,4,328.93,19 / 19,1682314,2019-11-06 13:10:24:022,-1.6814,-3.5016,8.1247,-0.0457,0.0452,9.8064,0.0555,0.4303,-0.0799,4.5,-43.31,-16.12,152.64,-85.99,165.32
2092,53.09006,-1.76915,331.45,18.02,4,328.93,19 / 19,1682414,2019-11-06 13:10:24:122,5.3415,-3.2487,11.3303,-0.0399,-0.0228,9.8065,-0.097,0.1116,-0.0461,4.44,-42.87,-16.62,154.1,-85.44,162.5
2093,53.09006,-1.76915,331.45,18.02,4,328.93,19 / 20,1682514,2019-11-06 13:10:24:222,-1.0808,-4.2138,8.8128,-0.0215,-0.049,9.8064,-0.1677,0.4283,-0.1911,4.38,-43.0,-16.31,154.27,-85.39,163.15
2094,53.09006,-1.76915,331.45,18.02,4,328.93,19 / 20,1682614,2019-11-06 13:10:24:322,2.9325,-4.375,9.843,-0.0224,-0.0214,9.8066,0.0385,-0.105,0.1319,4.25,-42.5,-16.87,150.57,-85.82,158.92
2095,53.09006,-1.76915,331.45,18.02,4,328.93,19 / 20,1682714,2019-11-06 13:10:24:422,-1.7241,-4.9177,9.6632,-0.0052,0.0169,9.8066,-0.0338,0.2903,-0.1825,4.25,-42.69,-17.19,153.67,-85.73,162.31
2096,53.09006,-1.76915,331.45,18.02,4,328.93,19 / 20,1682814,2019-11-06 13:10:24:522,0.348,-4.7454,9.59,-0.0147,0.0119,9.8065,0.0465,-0.1311,0.185,4.63,-42.81,-17.12,152.74,-85.51,164.2
2097,53.09006,-1.76915,331.45,18.02,4,328.93,19 / 20,1682914,2019-11-06 13:10:24:622,-2.0756,-5.3959,9.5399,0.0077,0.0124,9.8066,0.035,0.1938,-0.164,4.75,-43.31,-16.12,153.96,-85.39,166.19
2098,53.09006,-1.76915,331.45,18.02,4,328.93,19 / 20,1683014,2019-11-06 13:10:24:722,-0.166,-2.713,9.4272,-0.0288,-0.0156,9.8065,0.0036,-0.1946,0.118,5.25,-43.75,-16.5,152.75,-85.42,164.66
2099,53.09006,-1.76915,331.45,18.02,4,328.93,19 / 20,1683114,2019-11-06 13:10:24:822,2.6195,-4.0043,9.5419,0.0343,-0.0025,9.8065,-0.0598,0.0408,0.0613,4.81,-43.19,-16.44,151.37,-85.55,163.33
2100,53.09006,-1.76915,331.45,18.02,4,328.93,19 / 20,1683214,2019-11-06 13:10:24:922,0.6267,-3.4225,9.1634,0.0004,-0.0024,9.8066,0.0098,-0.1208,0.1307,4.75,-43.25,-16.31,150.59,-85.68,162.56
2101,53.09006,-1.76915,331.45,18.02,4,328.93,19 / 20,1683314,2019-11-06 13:10:25:022,0.8598,-3.7153,9.9718,0.0258,0.0122,9.8065,0.0771,-0.0187,0.0648,5.88,-42.37,-16.44,149.78,-85.67,165.05
2102,53.09006,-1.76915,331.45,18.02,4,328.93,19 / 20,1683415,2019-11-06 13:10:25:123,-1.7328,-4.3814,9.3059,0.0171,0.0157,9.8066,0.0273,-0.0144,0.0497,5.69,-42.25,-16.87,150.95,-85.66,165.54
2103,53.091194,-1.769871,332.39,7.03,3,342.37,18 / 20,1683514,2019-11-06 13:10:25:222,0.6957,-2.9573,9.3632,0.0154,-0.0081,9.8066,0.0008,0.2446,-0.0128,5.5,-43.0,-15.75,150.07,-85.8,165.41
2104,53.091194,-1.769871,332.39,7.03,3,342.37,18 / 20,1683614,2019-11-06 13:10:25:322,-2.9306,-3.2533,9.6751,0.0368,-0.01,9.8066,-0.0086,0.4299,-0.1599,6.19,-43.06,-16.06,150.46,-85.93,166.02
2105,53.091194,-1.769871,332.39,7.03,3,342.37,18 / 20,1683714,2019-11-06 13:10:25:422,-1.1425,-3.6742,9.6472,0.0054,-0.0063,9.8066,-0.0005,0.1546,0.0416,6.31,-43.31,-16.12,149.34,-85.99,164.81
2106,53.091194,-1.769871,332.39,7.03,3,342.37,18 / 20,1683814,2019-11-06 13:10:25:522,-2.4153,-2.7326,9.3858,0.0148,-0.0027,9.8066,0.0221,0.2903,-0.0125,6.63,-43.0,-15.06,146.3,-86.17,165.84
2107,53.091194,-1.769871,332.39,7.03,3,342.37,18 / 20,1683914,2019-11-06 13:10:25:622,-1.0768,-2.5869,9.831,0.0118,-0.0105,9.8065,0.0095,0.2208,0.0643,7.19,-43.44,-14.37,146.93,-86.23,167.89
2108,53.091194,-1.769871,332.39,7.03,3,342.37,18 / 20,1684014,2019-11-06 13:10:25:722,-0.2715,-2.4522,9.7019,0.0057,0.0068,9.8066,-0.0169,0.3357,0.0357,7.56,-43.0,-14.37,146.31,-86.38,170.74
2109,53.091194,-1.769871,332.39,7.03,3,342.37,18 / 20,1684114,2019-11-06 13:10:25:822,-0.5998,-2.8124,9.645,-0.0091,-0.0057,9.8066,-0.0007,0.2706,0.037,7.38,-43.56,-14.25,150.85,-86.45,172.6
2110,53.091194,-1.769871,332.39,7.03,3,342.37,18 / 20,1684214,2019-11-06 13:10:25:922,-1.0822,-2.4773,9.9309,0.001,-0.0123,9.8066,0.059,0.3623,0.0132,9.19,-42.56,-13.31,142.55,-86.54,171.56
2111,53.091194,-1.769871,332.39,7.03,3,342.37,18 / 20,1684314,2019-11-06 13:10:26:022,-2.5926,-2.5459,9.271,0.007,-0.0123,9.8066,0.0005,0.4744,0.0043,9.56,-43.0,-12.69,140.65,-86.61,172.62
2112,53.091194,-1.769871,332.39,7.03,3,342.37,18 / 20,1684414,2019-11-06 13:10:26:122,-0.2756,-2.4268,10.3393,0.0249,0.0051,9.8065,-0.036,0.3743,0.1219,9.69,-43.06,-12.31,142.48,-86.78,176.93
2113,53.091194,-1.769871,332.39,7.03,3,342.37,18 / 18,1684514,2019-11-06 13:10:26:222,-0.8661,-2.7059,10.1429,-0.0097,-0.012,9.8066,-0.0525,0.3961,0.0313,10.88,-42.75,-12.0,142.04,-87.0,179.71
2114,53.091194,-1.769871,332.39,7.03,3,342.37,18 / 18,1684614,2019-11-06 13:10:26:322,-0.6896,-1.8878,9.7406,-0.0079,-0.0272,9.8066,0.0049,0.4927,-0.0328,11.31,-42.62,-11.62,140.22,-87.19,178.01
2115,53.091194,-1.769871,332.39,7.03,3,342.37,18 / 18,1684714,2019-11-06 13:10:26:422,-1.5364,-3.1773,9.8189,0.0023,-0.0291,9.8066,0.0238,0.5187,-0.1375,12.38,-42.19,-11.19,131.65,-87.32,173.99
2116,53.091194,-1.769871,332.39,7.03,3,342.37,18 / 18,1684814,2019-11-06 13:10:26:522,0.4618,-0.5201,9.5883,-0.022,-0.0353,9.8065,-0.0178,0.3956,0.0111,13.31,-42.31,-10.81,119.46,-87.4,163.65
2117,53.091194,-1.769871,332.39,7.03,3,342.37,18 / 18,1684914,2019-11-06 13:10:26:622,-0.0877,-2.4188,10.5413,-0.0211,-0.0129,9.8066,-0.0364,0.602,-0.1343,14.25,-41.87,-9.12,103.59,-87.26,154.12
2118,53.091194,-1.769871,332.39,7.03,3,342.37,18 / 18,1685014,2019-11-06 13:10:26:722,0.8447,-2.4564,9.9914,-0.0263,-0.0007,9.8065,0.1291,0.4245,-0.0393,14.81,-41.75,-8.25,95.55,-86.89,149.8
2119,53.091194,-1.769871,332.39,7.03,3,342.37,18 / 18,1685115,2019-11-06 13:10:26:823,-1.0715,-4.7825,10.2362,-0.0346,0.0197,9.8065,0.0873,0.4759,-0.0186,15.56,-42.37,-6.81,95.2,-86.2,152.44
2120,53.091194,-1.769871,332.39,7.03,3,342.37,18 / 18,1685215,2019-11-06 13:10:26:923,1.1068,-2.0534,9.5178,-0.0413,-0.0164,9.8065,0.0258,0.2846,0.0824,15.38,-42.37,-6.06,97.3,-85.88,154.81
2121,53.091194,-1.769871,332.39,7.03,3,342.37,18 / 18,1685315,2019-11-06 13:10:27:023,0.4189,-2.3016,9.8441,-0.0269,0.0009,9.8065,0.1014,0.6693,-0.1541,15.94,-41.56,-4.94,93.18,-85.68,154.93
2122,53.091194,-1.769871,332.39,7.03,3,342.37,18 / 18,1685415,2019-11-06 13:10:27:123,0.1651,-2.6026,10.07,-0.0596,-0.0045,9.8064,0.1507,0.5569,-0.1708,17.69,-41.62,-3.25,85.62,-84.76,153.98
2123,53.091194,-1.769871,332.39,7.03,3,342.37,17 / 19,1685515,2019-11-06 13:10:27:223,-1.344,-0.7463,10.2256,-0.0376,0.0222,9.8065,0.0807,0.6811,-0.144,17.56,-41.87,-1.81,84.1,-83.98,153.65
2124,53.091194,-1.769871,332.39,7.03,3,342.37,17 / 19,1685615,2019-11-06 13:10:27:323,0.3098,-2.4697,9.9059,-0.0393,0.0249,9.8065,0.0386,0.6667,-0.1302,17.56,-41.06,-0.81,85.05,-83.3,156.39
2125,53.091194,-1.769871,332.39,7.03,3,342.37,17 / 19,1685715,2019-11-06 13:10:27:423,-1.8306,-0.429,9.9318,-0.0015,0.0126,9.8066,-0.0346,0.5689,-0.101,18.5,-40.12,0.31,81.72,-83.12,157.1
2126,53.091194,-1.769871,332.39,7.03,3,342.37,17 / 19,1685815,2019-11-06 13:10:27:523,1.7087,-1.9765,9.6563,0.0004,0.0015,9.8066,-0.0778,0.6061,-0.0531,18.13,-40.19,1.5,75.03,-83.13,156.39
2127,53.091194,-1.769871,332.39,7.03,3,342.37,17 / 19,1685914,2019-11-06 13:10:27:622,0.9489,-1.6607,10.0898,0.0187,0.0027,9.8066,-0.0489,0.5682,-0.1016,18.88,-40.19,2.94,70.17,-83.26,155.66
2128,53.091194,-1.769871,332.39,7.03,3,342.37,17 / 19,1686014,2019-11-06 13:10:27:722,-1.0933,-3.1904,9.8125,0.0234,0.0074,9.8065,-0.0847,0.6529,-0.0807,18.69,-40.69,3.44,68.17,-83.57,154.14
2129,53.091194,-1.769871,332.39,7.03,3,342.37,17 / 19,1686114,2019-11-06 13:10:27:822,2.2215,-0.0405,11.1546,0.0593,0.0254,9.8064,-0.1455,0.5041,-0.045,18.63,-40.37,4.19,62.72,-83.97,153.35
2130,53.091194,-1.769871,332.39,7.03,3,342.37,17 / 19,1686215,2019-11-06 13:10:27:923,3.1535,-1.2459,11.122,0.0231,-0.016,9.8066,-0.1459,0.6092,-0.1529,18.88,-40.12,5.69,50.12,-84.64,149.23
2131,53.091194,-1.769871,332.39,7.03,3,342.37,17 / 19,1686315,2019-11-06 13:10:28:023,-4.9593,-2.0681,9.3631,0.0123,-0.0296,9.8066,-0.0619,0.4265,-0.0271,19.31,-39.62,7.63,35.37,-84.64,142.06
2132,53.091194,-1.769871,332.39,7.03,3,342.37,17 / 19,1686415,2019-11-06 13:10:28:123,1.8373,-0.1907,9.3154,0.0224,-0.0137,9.8065,-0.0376,0.5211,-0.1971,19.25,-39.87,8.31,31.43,-84.54,138.62
2133,53.091194,-1.769871,332.39,7.03,3,342.37,19 / 19,1686515,2019-11-06 13:10:28:223,0.2687,-1.4543,9.3284,0.0231,-0.0319,9.8065,-0.0609,0.2757,0.0222,18.88,-39.44,9.06,23.45,-84.33,134.51
2134,53.091194,-1.769871,332.39,7.03,3,342.37,19 / 19,1686614,2019-11-06 13:10:28:322,1.0081,-2.5816,10.0331,0.0068,0.0053,9.8066,-0.0382,0.4824,-0.0236,18.31,-39.44,9.81,15.17,-84.35,131.36
2135,53.091194,-1.769871,332.39,7.03,3,342.37,19 / 19,1686714,2019-11-06 13:10:28:422,-3.4707,-2.6894,10.4845,0.0027,0.0114,9.8066,-0.0104,0.2149,0.1431,18.75,-39.75,10.75,15.93,-84.58,133.22
2136,53.091194,-1.769871,332.39,7.03,3,342.37,19 / 19,1686814,2019-11-06 13:10:28:522,0.6167,-0.3295,10.1942,-0.0136,0.0372,9.8065,-0.0877,0.4221,-0.0854,18.13,-40.37,10.5,16.84,-84.9,135.41
2137,53.091194,-1.769871,332.39,7.03,3,342.37,19 / 19,1686914,2019-11-06 13:10:28:622,-1.2234,1.1263,9.485,0.0359,-0.0321,9.8065,-0.0133,0.0003,0.0546,18.0,-39.37,11.38,9.87,-84.95,129.66
2138,53.091194,-1.769871,332.39,7.03,3,342.37,19 / 19,1687014,2019-11-06 13:10:28:722,-3.2246,-0.4969,9.7941,-0.0009,-0.0289,9.8065,0.02,0.1981,-0.093,17.94,-40.0,11.94,5.83,-84.64,128.49
2139,53.091194,-1.769871,332.39,7.03,3,342.37,19 / 19,1687114,2019-11-06 13:10:28:822,-2.8249,-0.6668,9.1618,0.0265,-0.0457,9.8065,0.0063,-0.1597,0.1883,18.56,-40.19,11.88,5.81,-84.32,127.04
2140,53.091194,-1.769871,332.39,7.03,3,342.37,19 / 19,1687214,2019-11-06 13:10:28:922,-1.0819,-1.4491,10.4928,0.0114,0.0082,9.8066,0.0255,0.0729,-0.0019,18.19,-39.0,11.81,2.27,-84.17,125.54
2141,53.091194,-1.769871,332.39,7.03,3,342.37,19 / 19,1687314,2019-11-06 13:10:29:022,-0.5251,-2.6373,9.7679,0.011,-0.0024,9.8066,0.0326,-0.1728,0.1348,17.75,-40.25,12.13,3.29,-84.22,126.35
2142,53.091194,-1.769871,332.39,7.03,3,342.37,19 / 19,1687415,2019-11-06 13:10:29:123,-0.9768,-1.335,9.5353,0.0051,-0.0073,9.8066,-0.0237,-0.0197,0.1096,18.06,-40.19,12.25,3.78,-84.27,126.76
2143,53.091194,-1.769871,332.39,7.03,3,342.37,19 / 19,1687515,2019-11-06 13:10:29:223,-0.9453,-0.9353,9.5552,0.0048,-0.02,9.8066,-0.0536,-0.0129,0.0745,17.5,-39.94,13.25,1.2,-84.25,126.82
2144,53.091194,-1.769871,332.39,7.03,3,342.37,19 / 19,1687614,2019-11-06 13:10:29:322,-1.8875,-0.3938,11.0335,0.01,-0.0065,9.8066,0.0795,-0.0205,0.0485,17.75,-40.75,13.0,1.37,-84.32,126.95
2145,53.091194,-1.769871,332.39,7.03,3,342.37,19 / 19,1687714,2019-11-06 13:10:29:422,-0.1909,-1.6096,9.5676,0.0069,-0.0136,9.8065,0.0486,-0.0035,0.0356,18.38,-39.56,13.25,2.26,-84.27,127.68
2146,53.091194,-1.769871,332.39,7.03,3,342.37,19 / 19,1687814,2019-11-06 13:10:29:522,-2.0494,-0.5264,9.3607,0.005,-0.0094,9.8066,0.0467,-0.093,0.0909,17.19,-39.81,13.5,358.36,-84.13,128.14
2147,53.091194,-1.769871,332.39,7.03,3,342.37,19 / 19,1687914,2019-11-06 13:10:29:622,-1.1517,-2.0555,10.4111,0.0108,0.0061,9.8066,0.051,0.0202,0.0328,17.44,-40.31,13.56,359.57,-84.14,129.13
2148,53.091194,-1.769871,332.39,7.03,3,342.37,19 / 19,1688015,2019-11-06 13:10:29:723,-1.4786,-0.3809,9.1469,-0.0018,-0.0146,9.8066,-0.0908,0.0591,0.0783,17.88,-40.19,13.25,4.03,-84.2,129.11
2149,53.091194,-1.769871,332.39,7.03,3,342.37,19 / 19,1688114,2019-11-06 13:10:29:822,-0.4727,-0.4888,9.3961,0.0102,-0.0108,9.8066,-0.0352,-0.0554,0.0602,17.44,-40.44,13.75,358.69,-84.34,128.4
2150,53.091194,-1.769871,332.39,7.03,3,342.37,19 / 19,1688214,2019-11-06 13:10:29:922,-1.9138,-0.343,9.8928,0.0146,0.0052,9.8066,0.0753,-0.0587,0.098,16.94,-40.69,13.63,358.51,-84.45,128.26
2151,53.091194,-1.769871,332.39,7.03,3,342.37,19 / 19,1688314,2019-11-06 13:10:30:022,-2.9079,0.6189,10.2251,-0.0121,0.0117,9.8066,-0.097,0.1705,-0.044,16.88,-40.5,12.94,2.2,-84.57,129.21
2152,53.091194,-1.769871,332.39,7.03,3,342.37,19 / 19,1688415,2019-11-06 13:10:30:123,-1.106,-1.5226,9.9547,-0.0224,0.0133,9.8065,-0.1002,0.244,-0.0714,16.31,-40.62,13.5,358.23,-84.73,129.74
2153,53.091194,-1.769871,332.39,7.03,3,342.37,18 / 19,1688514,2019-11-06 13:10:30:222,-2.9546,1.1106,9.3064,-0.0086,-0.0042,9.8066,-0.0781,0.0596,0.0229,16.94,-40.56,13.25,2.67,-84.73,129.59
2154,53.091194,-1.769871,332.39,7.03,3,342.37,18 / 19,1688614,2019-11-06 13:10:30:322,-2.2082,-0.9487,10.0358,-0.0118,0.0267,9.8065,0.0139,0.0648,-0.123,16.88,-40.0,12.69,2.47,-84.75,129.45
2155,53.091194,-1.769871,332.39,7.03,3,342.37,18 / 19,1688714,2019-11-06 13:10:30:422,-2.2809,-0.2039,10.5007,0.029,0.0123,9.8065,0.01,-0.0024,0.0287,16.88,-39.94,12.56,357.32,-84.71,125.19
2156,53.091194,-1.769871,332.39,7.03,3,342.37,18 / 19,1688814,2019-11-06 13:10:30:522,-1.4973,0.2288,9.0635,0.0169,-0.0014,9.8066,-0.1102,-0.1059,-0.0621,17.06,-41.19,12.19,356.52,-84.76,122.38
2157,53.091194,-1.769871,332.39,7.03,3,342.37,18 / 19,1688915,2019-11-06 13:10:30:623,0.3603,-1.0954,9.6305,0.0346,-0.0108,9.8066,-0.0805,-0.0889,0.1329,16.81,-40.75,12.69,347.58,-84.82,117.16
2158,53.091194,-1.769871,332.39,7.03,3,342.37,18 / 19,1689015,2019-11-06 13:10:30:723,-1.2971,0.6503,9.6832,0.04,0.0074,9.8065,0.0713,-0.2655,-0.0075,17.75,-40.75,11.63,347.26,-84.84,113.15
2159,53.091194,-1.769871,332.39,7.03,3,342.37,18 / 19,1689115,2019-11-06 13:10:30:823,0.9017,-1.6509,9.2949,0.0087,0.0145,9.8066,0.0753,0.0197,-0.035,17.19,-40.25,12.25,344.21,-84.72,112.25
2160,53.091194,-1.769871,332.39,7.03,3,342.37,18 / 19,1689215,2019-11-06 13:10:30:923,-1.6329,-1.4426,9.5877,0.0183,-0.0419,9.8065,-0.0169,-0.2601,0.0705,17.0,-40.56,11.88,344.96,-84.63,112.98
2161,53.091194,-1.769871,332.39,7.03,3,342.37,18 / 19,1689315,2019-11-06 13:10:31:023,0.0615,-1.2997,10.1714,-0.0037,0.015,9.8066,-0.0752,0.2171,-0.0217,17.38,-40.12,11.81,343.48,-84.73,111.64
2162,53.091194,-1.769871,332.39,7.03,3,342.37,18 / 19,1689415,2019-11-06 13:10:31:123,0.5459,0.0136,9.8359,0.0164,0.0152,9.8066,-0.0621,0.006,-0.0465,17.25,-41.56,11.31,343.01,-84.87,109.09
2163,53.091194,-1.769871,332.39,7.03,3,342.37,18 / 19,1689514,2019-11-06 13:10:31:222,-1.9946,-0.3972,9.5046,-0.0266,0.026,9.8065,-0.0596,0.1215,0.0036,17.0,-40.87,11.69,339.02,-84.93,107.88
2164,53.091194,-1.769871,332.39,7.03,3,342.37,18 / 19,1689614,2019-11-06 13:10:31:322,-0.9201,-0.7544,9.6867,-0.0051,0.0244,9.8066,-0.0461,0.1316,-0.0062,16.75,-41.0,11.06,342.72,-85.42,108.43
2165,53.091194,-1.769871,332.39,7.03,3,342.37,18 / 19,1689714,2019-11-06 13:10:31:422,-1.782,-0.5573,9.0908,-0.0087,0.0234,9.8065,-0.0731,-0.0134,0.0547,17.0,-41.12,11.56,339.76,-85.54,108.08
2166,53.091194,-1.769871,332.39,7.03,3,342.37,18 / 19,1689814,2019-11-06 13:10:31:522,-1.372,-0.2458,9.3598,0.0121,0.0289,9.8065,-0.0504,0.0183,0.01,16.31,-41.06,11.44,337.93,-85.94,105.71
2167,53.091194,-1.769871,332.39,7.03,3,342.37,18 / 19,1689914,2019-11-06 13:10:31:622,-0.852,-1.9496,9.2539,0.0081,0.03,9.8065,-0.0514,0.0737,-0.0297,16.31,-40.94,10.88,333.09,-86.2,101.29
2168,53.091194,-1.769871,332.39,7.03,3,342.37,18 / 19,1690014,2019-11-06 13:10:31:722,-0.9458,1.6415,9.9329,0.0075,0.01,9.8066,-0.044,-0.0449,0.1247,16.25,-42.12,11.19,329.88,-86.35,98.4
2169,53.091194,-1.769871,332.39,7.03,3,342.37,18 / 19,1690115,2019-11-06 13:10:31:823,-1.3381,0.2159,9.6763,-0.0117,0.0081,9.8065,-0.0257,0.1361,-0.0132,15.75,-41.75,10.56,329.15,-86.5,97.59
2170,53.091194,-1.769871,332.39,7.03,3,342.37,18 / 19,1690214,2019-11-06 13:10:31:922,-1.9369,1.9584,10.0852,-0.0032,0.0244,9.8065,0.0263,-0.0155,-0.0224,15.69,-41.44,10.69,329.69,-86.75,97.7
2171,53.091194,-1.769871,332.39,7.03,3,342.37,18 / 19,1690314,2019-11-06 13:10:32:022,-1.0103,-0.2184,9.8269,-0.0085,0.0124,9.8066,-0.0606,0.1857,-0.0877,15.44,-41.56,10.06,331.4,-86.72,98.79
2172,53.091194,-1.769871,332.39,7.03,3,342.37,18 / 19,1690414,2019-11-06 13:10:32:122,0.2567,-1.1363,10.1782,0.0041,-0.0037,9.8066,-0.0579,0.0013,0.0559,15.5,-41.94,10.81,329.22,-86.79,97.33
2173,53.091194,-1.769871,332.39,7.03,3,342.37,18 / 19,1690514,2019-11-06 13:10:32:222,0.0614,-0.0564,10.107,-0.0409,0.0069,9.8065,-0.0288,0.258,-0.116,15.75,-41.62,10.44,335.63,-87.15,100.29
2174,53.091194,-1.769871,332.39,7.03,3,342.37,18 / 19,1690614,2019-11-06 13:10:32:322,-0.325,-0.1857,9.4941,-0.035,-0.0104,9.8066,0.0295,0.1319,-0.0925,15.25,-41.25,10.81,335.87,-87.03,104.82
2175,53.091194,-1.769871,332.39,7.03,3,342.37,18 / 19,1690714,2019-11-06 13:10:32:422,-3.2613,1.7517,9.0883,-0.0303,0.0205,9.8066,-0.0664,0.2398,-0.1995,15.56,-41.31,10.75,341.5,-86.77,108.2
2176,53.091194,-1.769871,332.39,7.03,3,342.37,18 / 19,1690814,2019-11-06 13:10:32:522,-1.3362,0.3263,9.5612,0.0087,0.0251,9.8066,-0.0502,0.1792,-0.053,15.38,-41.81,10.75,337.79,-86.8,106.81
2177,53.091194,-1.769871,332.39,7.03,3,342.37,18 / 19,1690915,2019-11-06 13:10:32:623,-3.3254,2.9797,9.5166,0.0138,0.0518,9.8065,-0.142,0.2051,-0.1173,15.31,-41.94,9.56,333.3,-87.09,100.06
2178,53.091194,-1.769871,332.39,7.03,3,342.37,18 / 19,1691015,2019-11-06 13:10:32:723,0.5215,-0.6238,9.2027,0.0089,0.0394,9.8065,-0.0301,0.3512,-0.2661,15.31,-41.5,9.44,321.94,-87.13,87.1
2179,53.091194,-1.769871,332.39,7.03,3,342.37,18 / 19,1691114,2019-11-06 13:10:32:822,-0.9096,1.1077,10.8708,-0.0313,0.0176,9.8065,0.0242,0.1336,-0.0964,15.38,-41.94,8.94,326.51,-86.92,91.6
2180,53.091194,-1.769871,332.39,7.03,3,342.37,18 / 19,1691214,2019-11-06 13:10:32:922,0.2868,-3.1906,9.3675,-0.0411,0.0205,9.8065,-0.0505,0.3761,-0.1524,15.31,-41.69,10.0,326.86,-86.9,94.54
2181,53.091194,-1.769871,332.39,7.03,3,342.37,18 / 19,1691315,2019-11-06 13:10:33:023,-3.3021,0.253,9.8828,-0.0315,0.0016,9.8065,-0.0807,-0.0755,-0.0392,15.69,-41.69,10.0,331.8,-86.95,97.05
