,GPS LATITUDE (degrees),GPS LONGITUDE (degrees), GPS ALTITUDE (m),GPS SPEED (Kmh),GPS ACCURACY (m),GPS ORIENTATION (Â°), SATELLITES IN RANGE, TIME SINCE START (ms), DATE (YYYY-MO-DD HH-MI-SS_SSS),ACCELEROMETER X (m/s²) , ACCELEROMETER Y (m/s²), ACCELEROMETER Z (m/s²), GRAVITY X (m/s²), GRAVITY Y (m/s²), GRAVITY Z (m/s²), GYROSCOPE Yaw (rad/s), GYROSCOPE Pitch (rad/s), GYROSCOPE Roll (rad/s)
11085,47.358208,-2.031972,52.41,25.75,3.216,98.8,18 / 22,1108510,2019-08-09 20:32:37:248,0.081,0.3826,10.0092,-0.8936,-0.112,9.7652,-0.0174,0.0057,-0.022
11086,47.358208,-2.031972,52.41,25.75,3.216,98.8,18 / 20,1108610,2019-08-09 20:32:37:348,-1.346,-0.3399,9.4047,-0.8877,-0.1174,9.7657,0.0096,0.0051,-0.0036
11087,47.358208,-2.031972,52.41,25.75,3.216,98.8,18 / 20,1108710,2019-08-09 20:32:37:448,-0.2746,0.2521,10.19,-0.903,-0.0961,9.7645,0.0095,0.0203,-0.004
11088,47.358208,-2.031972,52.41,25.75,3.216,98.8,18 / 20,1108810,2019-08-09 20:32:37:548,-1.1137,0.054,9.3562,-0.9029,-0.0873,9.7646,-0.0045,-0.0338,0.0095
11089,47.358208,-2.031972,52.41,25.75,3.216,98.8,18 / 20,1108910,2019-08-09 20:32:37:648,-0.7869,-0.0029,9.7746,-0.9047,-0.0866,9.7644,0.0099,-0.0173,0.0388
11090,47.358208,-2.031972,52.41,25.75,3.216,98.8,18 / 20,1109011,2019-08-09 20:32:37:749,-1.3214,0.0366,9.7758,-0.894,-0.0819,9.7655,-0.0032,-0.0155,0.0246
11091,47.358208,-2.031972,52.41,25.75,3.216,98.8,18 / 20,1109111,2019-08-09 20:32:37:849,-0.5505,-0.1046,9.461,-0.8879,-0.079,9.766,-0.0008,-0.0128,-0.0168
11092,47.358208,-2.031972,52.41,25.75,3.216,98.8,18 / 20,1109210,2019-08-09 20:32:37:948,-0.8258,0.2677,9.7189,-0.8849,-0.0761,9.7663,-0.0008,0.0026,-0.0095
11093,47.358208,-2.031972,52.41,25.75,3.216,98.8,18 / 20,1109310,2019-08-09 20:32:38:048,-1.0192,0.2006,10.2498,-0.8808,-0.0725,9.7667,0.0031,0.0474,-0.0099
11094,47.358208,-2.031972,52.41,25.75,3.216,98.8,18 / 20,1109410,2019-08-09 20:32:38:148,-1.5776,-0.4015,9.8518,-0.8876,-0.0707,9.7661,0.003,-0.0146,0.025
11095,47.358208,-2.031972,52.41,25.75,3.216,98.8,18 / 20,1109510,2019-08-09 20:32:38:248,-1.0096,-0.4662,9.7405,-0.892,-0.0699,9.7657,0.0075,-0.0063,0.0118
11096,47.358208,-2.031972,52.41,25.75,3.216,98.8,18 / 22,1109611,2019-08-09 20:32:38:349,-0.0789,0.5346,10.5952,-0.8802,-0.0695,9.7668,-0.0207,-0.0128,-0.0178
11097,47.358208,-2.031972,52.41,25.75,3.216,98.8,18 / 22,1109711,2019-08-09 20:32:38:449,-1.4214,-0.1507,9.4987,-0.8813,-0.0853,9.7666,-0.0172,0.0199,0.0095
11098,47.358208,-2.031972,52.41,25.75,3.216,98.8,18 / 22,1109811,2019-08-09 20:32:38:549,-1.3825,-0.1136,9.5549,-0.8875,-0.0967,9.7659,-0.0013,-0.0021,0.0103
11099,47.358208,-2.031972,52.41,25.75,3.216,98.8,18 / 22,1109911,2019-08-09 20:32:38:649,-1.3849,-0.1513,9.2551,-0.8595,-0.0973,9.7684,0.0128,-0.0491,-0.008
11100,47.358208,-2.031972,52.41,25.75,3.216,98.8,18 / 22,1110011,2019-08-09 20:32:38:749,-0.9779,0.4442,9.9548,-0.8745,-0.0841,9.7672,0.02,0.0366,-0.0047
11101,47.358208,-2.031972,52.41,25.75,3.216,98.8,18 / 22,1110110,2019-08-09 20:32:38:848,-0.4679,0.1234,9.2281,-0.8357,-0.09,9.7706,-0.0194,-0.0461,-0.0125
11102,47.358208,-2.031972,52.41,25.75,3.216,98.8,18 / 22,1110211,2019-08-09 20:32:38:949,-1.0347,0.2258,10.0805,-0.8413,-0.0915,9.7701,0.0048,0.0211,-0.0149
11103,47.358208,-2.031972,52.41,25.75,3.216,98.8,18 / 22,1110311,2019-08-09 20:32:39:049,-0.4446,0.1348,9.6932,-0.8458,-0.0835,9.7698,-0.0011,-0.0087,0.0134
11104,47.358208,-2.031972,52.41,25.75,3.216,98.8,18 / 22,1110411,2019-08-09 20:32:39:149,-0.2237,-0.1346,9.0444,-0.8395,-0.0811,9.7703,0.0115,-0.0237,-0.008
11105,47.358208,-2.031972,52.41,25.75,3.216,98.8,18 / 22,1110510,2019-08-09 20:32:39:248,-0.7145,-0.0897,9.7112,-0.8325,-0.0705,9.771,-0.0063,-0.009,0.0113
11106,47.358208,-2.031972,52.41,25.75,3.216,98.8,18 / 22,1110610,2019-08-09 20:32:39:348,-0.5756,-0.2136,9.674,-0.8291,-0.0751,9.7712,0.0015,-0.0013,-0.0014
11107,47.358208,-2.031972,52.41,25.75,3.216,98.8,18 / 22,1110710,2019-08-09 20:32:39:448,-0.772,-0.0975,9.4376,-0.8231,-0.0658,9.7718,0.0114,-0.0135,0.0059
11108,47.358208,-2.031972,52.41,25.75,3.216,98.8,18 / 22,1110810,2019-08-09 20:32:39:548,-0.3883,-0.201,9.4825,-0.829,-0.0657,9.7713,0.0008,-0.0098,-0.0007
11109,47.358208,-2.031972,52.41,25.75,3.216,98.8,18 / 22,1110910,2019-08-09 20:32:39:648,0.5101,0.0719,10.0894,-0.8345,-0.0645,9.7709,-0.0128,0.0317,0.007
11110,47.358208,-2.031972,52.41,25.75,3.216,98.8,18 / 22,1111010,2019-08-09 20:32:39:748,-0.6786,-0.4811,9.0947,-0.8108,-0.0726,9.7728,-0.0035,-0.0432,0.017
11111,47.358208,-2.031972,52.41,25.75,3.216,98.8,18 / 22,1111111,2019-08-09 20:32:39:849,-0.7163,0.0737,9.8488,-0.8176,-0.0691,9.7723,0.0031,0.0041,0.0016
11112,47.358208,-2.031972,52.41,25.75,3.216,98.8,18 / 22,1111211,2019-08-09 20:32:39:949,-0.6564,0.3988,9.9703,-0.8233,-0.0768,9.7717,-0.0184,0.0135,-0.0061
11113,47.358208,-2.031972,52.41,25.75,3.216,98.8,18 / 22,1111310,2019-08-09 20:32:40:048,-0.6134,-0.6643,8.6439,-0.804,-0.0906,9.7732,0.0025,0.0326,-0.0142
11114,47.358208,-2.031972,52.41,25.75,3.216,98.8,18 / 22,1111410,2019-08-09 20:32:40:148,-0.1638,-0.0292,9.2766,-0.7899,-0.0836,9.7744,-0.0042,0.068,-0.0232
11115,47.358208,-2.031972,52.41,25.75,3.216,98.8,18 / 22,1111511,2019-08-09 20:32:40:249,0.1013,0.0175,10.4683,-0.766,-0.0858,9.7763,0.002,-0.0813,0.0456
11116,47.358208,-2.031972,52.41,25.75,3.216,98.8,18 / 22,1111610,2019-08-09 20:32:40:348,-0.9252,-0.1591,9.4562,-0.7885,-0.0847,9.7745,0.0119,0.023,-0.0178
11117,47.358208,-2.031972,52.41,25.75,3.216,98.8,18 / 22,1111710,2019-08-09 20:32:40:448,-0.8037,-0.4135,10.0966,-0.7795,-0.07,9.7754,0.0029,0.0402,0.0242
11118,47.358208,-2.031972,52.41,25.75,3.216,98.8,18 / 22,1111810,2019-08-09 20:32:40:548,-0.9779,-0.5386,9.288,-0.7602,-0.0761,9.7768,-0.0008,-0.0335,0.0079
11119,47.358208,-2.031972,52.41,25.75,3.216,98.8,18 / 22,1111910,2019-08-09 20:32:40:648,-0.5535,-0.2064,9.5304,-0.7923,-0.0778,9.7743,0.0039,-0.0427,0.0201
11120,47.358208,-2.031972,52.41,25.75,3.216,98.8,18 / 22,1112011,2019-08-09 20:32:40:749,-0.9683,-0.204,9.5286,-0.8164,-0.0749,9.7723,0.0083,-0.0665,0.0147
11121,47.358208,-2.031972,52.41,25.75,3.216,98.8,18 / 22,1112111,2019-08-09 20:32:40:849,-0.924,0.2228,9.8566,-0.776,-0.0681,9.7757,-0.0131,-0.0115,-0.0266
11122,47.358208,-2.031972,52.41,25.75,3.216,98.8,18 / 22,1112210,2019-08-09 20:32:40:948,-0.1926,0.1557,9.9087,-0.7887,-0.0677,9.7746,-0.0141,-0.0096,0.0257
11123,47.358208,-2.031972,52.41,25.75,3.216,98.8,18 / 22,1112311,2019-08-09 20:32:41:049,-0.2165,-0.3093,9.0845,-0.774,-0.0782,9.7757,-0.0056,-0.035,0.0017
11124,47.358208,-2.031972,52.41,25.75,3.216,98.8,18 / 22,1112410,2019-08-09 20:32:41:148,-0.6098,0.3485,10.12,-0.7791,-0.0668,9.7754,0.0024,0.025,-0.026
11125,47.358208,-2.031972,52.41,25.75,3.216,98.8,18 / 22,1112510,2019-08-09 20:32:41:248,-0.9875,-0.3033,9.6148,-0.7726,-0.062,9.776,-0.0041,-0.0195,0.0196
11126,47.357872,-2.028778,54.49,28.23,3.216,98.6,16 / 19,1112610,2019-08-09 20:32:41:348,-1.1987,-0.4069,9.0563,-0.7546,-0.0701,9.7773,0.0051,-0.0431,0.0044
11127,47.357872,-2.028778,54.49,28.23,3.216,98.6,16 / 19,1112710,2019-08-09 20:32:41:448,-0.0435,-0.0657,9.5495,-0.7541,-0.0733,9.7773,-0.0085,-0.0062,0.0085
11128,47.357872,-2.028778,54.49,28.23,3.216,98.6,16 / 19,1112811,2019-08-09 20:32:41:549,-1.6985,0.2623,10.2074,-0.7603,-0.0843,9.7768,-0.02,0.0056,-0.0004
11129,47.357872,-2.028778,54.49,28.23,3.216,98.6,16 / 19,1112910,2019-08-09 20:32:41:648,-1.1969,-0.2567,9.9709,-0.7565,-0.0957,9.777,-0.0085,-0.0368,0.0353
11130,47.357872,-2.028778,54.49,28.23,3.216,98.6,16 / 19,1113011,2019-08-09 20:32:41:749,-0.7666,0.2695,10.3845,-0.7911,-0.1065,9.7741,0.0106,0.0626,-0.026
11131,47.357872,-2.028778,54.49,28.23,3.216,98.6,16 / 19,1113111,2019-08-09 20:32:41:849,-0.9779,-0.1962,9.7967,-0.7777,-0.1013,9.7752,-0.0026,-0.0172,-0.0038
11132,47.357872,-2.028778,54.49,28.23,3.216,98.6,16 / 19,1113210,2019-08-09 20:32:41:948,-0.2949,0.2336,9.5442,-0.7582,-0.0973,9.7768,0.024,-0.0128,-0.0125
11133,47.357872,-2.028778,54.49,28.23,3.216,98.6,16 / 19,1113310,2019-08-09 20:32:42:048,-0.8647,0.1504,9.039,-0.7587,-0.0806,9.7769,0.0019,-0.0278,-0.0171
11134,47.357872,-2.028778,54.49,28.23,3.216,98.6,16 / 19,1113411,2019-08-09 20:32:42:149,-1.27,-0.2543,9.8087,-0.7388,-0.0734,9.7785,0.0101,-0.012,0.0042
11135,47.357872,-2.028778,54.49,28.23,3.216,98.6,16 / 19,1113510,2019-08-09 20:32:42:248,-0.6912,0.6352,10.2624,-0.7635,-0.0749,9.7766,-0.0189,-0.0249,0.0046
11136,47.357872,-2.028778,54.49,28.23,3.216,98.6,17 / 20,1113610,2019-08-09 20:32:42:348,-0.5691,-0.0945,9.7369,-0.7397,-0.0777,9.7784,0.0165,-0.0001,-0.0059
11137,47.357872,-2.028778,54.49,28.23,3.216,98.6,17 / 20,1113710,2019-08-09 20:32:42:448,-0.6169,0.1701,9.4909,-0.7314,-0.0698,9.7791,0.0101,0.0194,-0.0061
11138,47.357872,-2.028778,54.49,28.23,3.216,98.6,17 / 20,1113810,2019-08-09 20:32:42:548,-0.4883,-0.1004,9.3365,-0.7213,-0.0662,9.7799,-0.0033,-0.0066,0.0157
11139,47.357872,-2.028778,54.49,28.23,3.216,98.6,17 / 20,1113910,2019-08-09 20:32:42:648,-0.9815,-0.2297,8.8768,-0.7153,-0.0672,9.7803,0.0181,-0.0387,0.0034
11140,47.357872,-2.028778,54.49,28.23,3.216,98.6,17 / 20,1114010,2019-08-09 20:32:42:748,0.5251,-0.0364,9.8063,-0.722,-0.049,9.7799,-0.0076,-0.0246,-0.0185
11141,47.357872,-2.028778,54.49,28.23,3.216,98.6,17 / 20,1114111,2019-08-09 20:32:42:849,0.3294,0.0833,8.9025,-0.6642,-0.0426,9.784,-0.0122,-0.0059,-0.0012
11142,47.357872,-2.028778,54.49,28.23,3.216,98.6,17 / 20,1114210,2019-08-09 20:32:42:948,-0.0268,-0.0125,10.1397,-0.6793,-0.064,9.7829,-0.0194,0.0717,-0.0118
11143,47.357872,-2.028778,54.49,28.23,3.216,98.6,17 / 20,1114311,2019-08-09 20:32:43:049,-0.0262,-0.3476,9.7614,-0.695,-0.0737,9.7817,-0.0148,-0.0307,0.0179
11144,47.357872,-2.028778,54.49,28.23,3.216,98.6,17 / 20,1114410,2019-08-09 20:32:43:148,-0.1249,-0.599,9.0587,-0.6752,-0.0981,9.7829,-0.0095,-0.0268,-0.0093
11145,47.357872,-2.028778,54.49,28.23,3.216,98.6,17 / 20,1114510,2019-08-09 20:32:43:248,-0.5445,-0.2351,9.2395,-0.6827,-0.1022,9.7823,-0.0031,0.0019,-0.0195
11146,47.357872,-2.028778,54.49,28.23,3.216,98.6,17 / 20,1114610,2019-08-09 20:32:43:348,-0.3733,0.1683,9.9242,-0.6794,-0.111,9.7825,-0.0174,-0.0258,0.0068
11147,47.357872,-2.028778,54.49,28.23,3.216,98.6,17 / 20,1114710,2019-08-09 20:32:43:448,-0.183,-0.177,9.9601,-0.6753,-0.1321,9.7825,-0.0315,0.0104,-0.0002
11148,47.357872,-2.028778,54.49,28.23,3.216,98.6,17 / 20,1114811,2019-08-09 20:32:43:549,-0.2297,0.0169,10.2062,-0.6903,-0.1568,9.7811,-0.0085,0.0476,-0.0271
11149,47.357872,-2.028778,54.49,28.23,3.216,98.6,17 / 20,1114911,2019-08-09 20:32:43:649,-0.4763,-0.5577,8.9935,-0.6601,-0.1538,9.7832,0.0059,-0.0572,0.0275
11150,47.357872,-2.028778,54.49,28.23,3.216,98.6,17 / 20,1115010,2019-08-09 20:32:43:748,0.1061,-0.2615,9.3101,-0.6525,-0.14,9.7839,0.0157,-0.046,0.0229
11151,47.357872,-2.028778,54.49,28.23,3.216,98.6,17 / 20,1115110,2019-08-09 20:32:43:848,-0.0818,0.1456,9.9566,-0.6826,-0.1361,9.7819,0.0011,-0.0396,0.0224
11152,47.357872,-2.028778,54.49,28.23,3.216,98.6,17 / 20,1115210,2019-08-09 20:32:43:948,0.4114,0.0193,9.847,-0.6551,-0.1303,9.7839,0.0046,0.0049,0.0357
11153,47.357872,-2.028778,54.49,28.23,3.216,98.6,17 / 20,1115311,2019-08-09 20:32:44:049,-0.1405,0.139,10.4851,-0.7034,-0.1285,9.7805,-0.0151,0.0391,-0.0475
11154,47.357872,-2.028778,54.49,28.23,3.216,98.6,17 / 20,1115411,2019-08-09 20:32:44:149,-0.578,-0.374,9.8159,-0.7336,-0.1276,9.7783,-0.0055,0.0182,0.0275
11155,47.357872,-2.028778,54.49,28.23,3.216,98.6,17 / 20,1115511,2019-08-09 20:32:44:249,-0.1237,0.5598,10.7018,-0.7781,-0.1354,9.7748,0.0089,-0.0532,0.0481
11156,47.357872,-2.028778,54.49,28.23,3.216,98.6,17 / 21,1115610,2019-08-09 20:32:44:348,-1.3454,0.5478,10.1044,-0.7082,-0.1325,9.7801,-0.0072,0.0539,-0.052
11157,47.357872,-2.028778,54.49,28.23,3.216,98.6,17 / 21,1115710,2019-08-09 20:32:44:448,-0.8001,0.1719,10.6862,-0.7183,-0.1263,9.7795,0.0013,0.0709,-0.013
11158,47.357872,-2.028778,54.49,28.23,3.216,98.6,17 / 21,1115810,2019-08-09 20:32:44:548,-1.4256,-0.2495,7.6366,-0.7061,-0.1206,9.7805,0.002,-0.0792,-0.0157
11159,47.357872,-2.028778,54.49,28.23,3.216,98.6,17 / 21,1115910,2019-08-09 20:32:44:648,-1.2305,-0.2495,9.3341,-0.6558,-0.1149,9.784,0.0083,-0.0103,0.0267
11160,47.357872,-2.028778,54.49,28.23,3.216,98.6,17 / 21,1116011,2019-08-09 20:32:44:749,-2.6173,0.1288,10.4917,-0.6669,-0.119,9.7832,-0.0216,-0.0344,0.0264
11161,47.357872,-2.028778,54.49,28.23,3.216,98.6,17 / 21,1116112,2019-08-09 20:32:44:850,-2.6484,-0.1842,9.5579,-0.6425,-0.1391,9.7846,-0.0022,0.0181,-0.0028
11162,47.357872,-2.028778,54.49,28.23,3.216,98.6,17 / 21,1116210,2019-08-09 20:32:44:948,0.3707,-0.3602,8.5775,-0.6279,-0.1376,9.7856,0.0133,-0.0928,0.0087
11163,47.357872,-2.028778,54.49,28.23,3.216,98.6,17 / 21,1116311,2019-08-09 20:32:45:049,-0.2578,-0.2136,9.0575,-0.5952,-0.134,9.7877,-0.0156,-0.0558,0.0007
11164,47.357872,-2.028778,54.49,28.23,3.216,98.6,17 / 21,1116411,2019-08-09 20:32:45:149,-0.7367,-0.2429,9.3173,-0.5776,-0.1432,9.7886,0.0148,0.0064,-0.0008
11165,47.357872,-2.028778,54.49,28.23,3.216,98.6,17 / 21,1116510,2019-08-09 20:32:45:248,-1.4304,0.1976,10.3025,-0.6077,-0.1322,9.7869,0.0091,0.0449,-0.0198
11166,47.357872,-2.028778,54.49,28.23,3.216,98.6,18 / 22,1116610,2019-08-09 20:32:45:348,-1.1508,0.1809,11.7636,-0.6212,-0.1274,9.7861,-0.0208,0.0896,-0.0011
11167,47.357872,-2.028778,54.49,28.23,3.216,98.6,18 / 22,1116710,2019-08-09 20:32:45:448,-1.2125,-0.3866,11.3159,-0.7128,-0.1532,9.7795,-0.0052,0.0047,0.0114
11168,47.357872,-2.028778,54.49,28.23,3.216,98.6,18 / 22,1116810,2019-08-09 20:32:45:548,-0.9276,-0.359,9.6238,-0.7097,-0.1588,9.7797,0.006,-0.0555,0.0287
11169,47.357872,-2.028778,54.49,28.23,3.216,98.6,18 / 22,1116910,2019-08-09 20:32:45:648,-0.8205,-0.4105,8.7409,-0.6735,-0.1615,9.7822,-0.0029,-0.0427,0.0247
11170,47.357872,-2.028778,54.49,28.23,3.216,98.6,18 / 22,1117010,2019-08-09 20:32:45:748,-0.7474,-0.6302,8.5751,-0.6606,-0.1714,9.7829,-0.0085,-0.0383,0.0258
11171,47.357872,-2.028778,54.49,28.23,3.216,98.6,18 / 22,1117111,2019-08-09 20:32:45:849,-0.2506,-0.5356,9.3436,-0.6249,-0.1888,9.7849,0.0048,-0.0066,0.0223
11172,47.357872,-2.028778,54.49,28.23,3.216,98.6,18 / 22,1117211,2019-08-09 20:32:45:949,-0.9653,-0.4674,10.4007,-0.6275,-0.1929,9.7847,-0.0013,0.0504,0.0032
11173,47.357872,-2.028778,54.49,28.23,3.216,98.6,18 / 22,1117310,2019-08-09 20:32:46:048,-0.5218,-0.1591,10.694,-0.6677,-0.2064,9.7817,-0.0011,0.0731,-0.0235
11174,47.357872,-2.028778,54.49,28.23,3.216,98.6,18 / 22,1117410,2019-08-09 20:32:46:148,-0.4284,-0.8145,10.0846,-0.6714,-0.2002,9.7816,0.0206,-0.0338,0.0324
11175,47.357872,-2.028778,54.49,28.23,3.216,98.6,18 / 22,1117510,2019-08-09 20:32:46:248,-0.6487,-0.5948,9.7578,-0.6706,-0.1939,9.7818,0.0095,-0.0646,0.0508
11176,47.357872,-2.028778,54.49,28.23,3.216,98.6,15 / 18,1117610,2019-08-09 20:32:46:348,-1.0671,-0.4201,9.9859,-0.6849,-0.2042,9.7806,-0.0113,-0.0548,0.023
11177,47.357872,-2.028778,54.49,28.23,3.216,98.6,15 / 18,1117711,2019-08-09 20:32:46:449,0.2396,-0.8654,9.0061,-0.6706,-0.2167,9.7813,-0.0126,0.0043,0.0125
11178,47.357872,-2.028778,54.49,28.23,3.216,98.6,15 / 18,1117811,2019-08-09 20:32:46:549,0.1648,-0.6864,8.7966,-0.6452,-0.2282,9.7827,-0.0112,-0.0671,0.04
11179,47.357872,-2.028778,54.49,28.23,3.216,98.6,15 / 18,1117910,2019-08-09 20:32:46:648,0.0271,-0.6284,9.3945,-0.6232,-0.2607,9.7834,-0.008,-0.0204,0.0066
11180,47.357872,-2.028778,54.49,28.23,3.216,98.6,15 / 18,1118011,2019-08-09 20:32:46:749,-0.1609,-0.8307,9.1413,-0.6118,-0.2636,9.784,0.0022,-0.0177,0.0231
11181,47.357872,-2.028778,54.49,28.23,3.216,98.6,15 / 18,1118111,2019-08-09 20:32:46:849,0.0427,-0.2794,9.0456,-0.5902,-0.2848,9.7847,-0.0121,-0.0354,0.0094
11182,47.357872,-2.028778,54.49,28.23,3.216,98.6,15 / 18,1118211,2019-08-09 20:32:46:949,0.2043,-0.6691,9.6274,-0.579,-0.2947,9.7851,0.0052,0.0121,0.0338
11183,47.357872,-2.028778,54.49,28.23,3.216,98.6,15 / 18,1118310,2019-08-09 20:32:47:048,-0.5685,-0.6062,9.9039,-0.5978,-0.3062,9.7836,-0.0128,0.0141,-0.0053
11184,47.357872,-2.028778,54.49,28.23,3.216,98.6,15 / 18,1118410,2019-08-09 20:32:47:148,-0.6068,-0.5057,9.6184,-0.5876,-0.3163,9.7839,0.0128,0.005,0.0174
11185,47.357872,-2.028778,54.49,28.23,3.216,98.6,15 / 18,1118510,2019-08-09 20:32:47:248,-1.3083,-0.2525,10.1595,-0.6218,-0.302,9.7823,0.0025,0.0296,-0.003
11186,47.357872,-2.028778,54.49,28.23,3.216,98.6,16 / 21,1118610,2019-08-09 20:32:47:348,-1.6022,-0.1878,10.2558,-0.6174,-0.303,9.7825,0.0078,-0.0088,0.047
11187,47.357872,-2.028778,54.49,28.23,3.216,98.6,16 / 21,1118710,2019-08-09 20:32:47:448,-0.5535,-0.0837,10.6096,-0.621,-0.3058,9.7822,-0.0104,0.0273,-0.0157
11188,47.357872,-2.028778,54.49,28.23,3.216,98.6,16 / 21,1118810,2019-08-09 20:32:47:548,-0.8223,-0.2639,10.1792,-0.6237,-0.3132,9.7818,-0.0034,0.0348,0.0052
11189,47.357872,-2.028778,54.49,28.23,3.216,98.6,16 / 21,1118910,2019-08-09 20:32:47:648,-0.9192,0.1222,10.6581,-0.6403,-0.3161,9.7806,-0.0317,0.0438,-0.0274
11190,47.357872,-2.028778,54.49,28.23,3.216,98.6,16 / 21,1119010,2019-08-09 20:32:47:748,-0.5338,-0.1387,9.258,-0.6225,-0.3466,9.7807,-0.0011,-0.0161,-0.0325
11191,47.357872,-2.028778,54.49,28.23,3.216,98.6,16 / 21,1119111,2019-08-09 20:32:47:849,0.4263,0.0079,9.9847,-0.6109,-0.3342,9.7819,0.0085,0.0345,-0.0112
11192,47.357872,-2.028778,54.49,28.23,3.216,98.6,16 / 21,1119210,2019-08-09 20:32:47:948,-1.5555,-0.0939,10.1403,-0.6321,-0.3257,9.7808,-0.0126,-0.0087,0.0287
11193,47.357872,-2.028778,54.49,28.23,3.216,98.6,16 / 21,1119311,2019-08-09 20:32:48:049,-0.7792,-0.7355,9.2377,-0.6341,-0.3341,9.7804,-0.0005,-0.0162,0.0182
11194,47.357872,-2.028778,54.49,28.23,3.216,98.6,16 / 21,1119410,2019-08-09 20:32:48:148,0.2043,-0.1316,9.6663,-0.6276,-0.3254,9.7811,0.0048,-0.025,-0.0025
11195,47.357872,-2.028778,54.49,28.23,3.216,98.6,16 / 21,1119511,2019-08-09 20:32:48:249,-0.8372,-0.3955,8.9899,-0.6094,-0.3257,9.7823,-0.0055,-0.0361,0.0239
11196,47.357872,-2.028778,54.49,28.23,3.216,98.6,17 / 22,1119610,2019-08-09 20:32:48:348,0.3838,-0.2519,9.2814,-0.6003,-0.3311,9.7827,0.0055,0.0135,-0.0249
11197,47.357872,-2.028778,54.49,28.23,3.216,98.6,17 / 22,1119710,2019-08-09 20:32:48:448,0.2013,-0.1968,10.0715,-0.6087,-0.324,9.7824,-0.011,0.0317,0.0034
11198,47.357872,-2.028778,54.49,28.23,3.216,98.6,17 / 22,1119810,2019-08-09 20:32:48:548,-0.5924,-0.7971,8.9743,-0.6272,-0.3307,9.781,0.0171,-0.0278,-0.0048
11199,47.357872,-2.028778,54.49,28.23,3.216,98.6,17 / 22,1119911,2019-08-09 20:32:48:649,-0.5116,-0.0741,10.0751,-0.6137,-0.3258,9.782,0.0036,0.0551,-0.0382
11200,47.357872,-2.028778,54.49,28.23,3.216,98.6,17 / 22,1120010,2019-08-09 20:32:48:748,-0.4631,-0.4267,9.5076,-0.6108,-0.3064,9.7828,0.0186,-0.0573,0.0605
11201,47.357872,-2.028778,54.49,28.23,3.216,98.6,17 / 22,1120111,2019-08-09 20:32:48:849,-2.895,0.5328,10.6389,-0.6117,-0.2965,9.7831,0.013,0.0011,-0.0356
11202,47.357872,-2.028778,54.49,28.23,3.216,98.6,17 / 22,1120211,2019-08-09 20:32:48:949,0.0403,-0.7565,8.7768,-0.5934,-0.2935,9.7843,-0.0126,0.1177,-0.0489
11203,47.357872,-2.028778,54.49,28.23,3.216,98.6,17 / 22,1120311,2019-08-09 20:32:49:049,-0.8659,-0.7175,8.1998,-0.6112,-0.2902,9.7833,0.004,-0.1451,0.0484
11204,47.357872,-2.028778,54.49,28.23,3.216,98.6,17 / 22,1120410,2019-08-09 20:32:49:148,-1.246,-0.304,9.0539,-0.5868,-0.2913,9.7847,0.0037,-0.0711,0.0192
11205,47.357872,-2.028778,54.49,28.23,3.216,98.6,17 / 22,1120510,2019-08-09 20:32:49:248,-0.1674,-0.6846,8.4141,-0.5415,-0.2846,9.7876,0.0177,0.0226,-0.0117
11206,47.357872,-2.028778,54.49,28.23,3.216,98.6,15 / 20,1120610,2019-08-09 20:32:49:348,-0.8624,-0.3518,9.862,-0.5581,-0.2737,9.7869,-0.0068,0.0607,-0.0122
11207,47.357872,-2.028778,54.49,28.23,3.216,98.6,15 / 20,1120710,2019-08-09 20:32:49:448,-0.6582,-0.3189,10.1325,-0.5854,-0.2762,9.7853,-0.0052,0.0341,-0.0081
11208,47.357872,-2.028778,54.49,28.23,3.216,98.6,15 / 20,1120810,2019-08-09 20:32:49:548,-0.4494,-0.2752,10.1445,-0.6019,-0.2782,9.7842,0.0115,-0.0301,0.016
11209,47.357872,-2.028778,54.49,28.23,3.216,98.6,15 / 20,1120910,2019-08-09 20:32:49:648,-0.2237,-0.1663,10.1307,-0.6076,-0.2729,9.784,0.0078,0.0194,-0.007
11210,47.357872,-2.028778,54.49,28.23,3.216,98.6,15 / 20,1121010,2019-08-09 20:32:49:748,0.2665,-0.2692,10.3331,-0.6126,-0.2671,9.7839,-0.0076,0.0359,0.0149
11211,47.357872,-2.028778,54.49,28.23,3.216,98.6,15 / 20,1121110,2019-08-09 20:32:49:848,-0.2961,-0.8361,8.7169,-0.5711,-0.2711,9.7863,0.002,-0.0582,0.0344
11212,47.357872,-2.028778,54.49,28.23,3.216,98.6,15 / 20,1121210,2019-08-09 20:32:49:948,-0.1201,-0.6158,8.9241,-0.5621,-0.2635,9.787,0.0126,-0.0165,0.034
11213,47.357872,-2.028778,54.49,28.23,3.216,98.6,15 / 20,1121310,2019-08-09 20:32:50:048,-1.7452,-0.7008,8.9151,-0.5816,-0.2666,9.7858,-0.0022,-0.0022,0.015
11214,47.357872,-2.028778,54.49,28.23,3.216,98.6,15 / 20,1121410,2019-08-09 20:32:50:148,0.2827,-0.4673,9.5795,-0.5475,-0.268,9.7877,0.0114,-0.0243,0.0081
11215,47.357872,-2.028778,54.49,28.23,3.216,98.6,15 / 20,1121510,2019-08-09 20:32:50:248,0.2174,-0.1675,10.2235,-0.5531,-0.2689,9.7873,-0.0169,-0.0104,0.0137
11216,47.357536,-2.025344,51.67,29.95,3.216,96.1,17 / 21,1121610,2019-08-09 20:32:50:348,-0.2596,-0.5823,9.6693,-0.5557,-0.2868,9.7867,-0.0038,0.0045,0.0308
11217,47.357536,-2.025344,51.67,29.95,3.216,96.1,17 / 21,1121710,2019-08-09 20:32:50:448,-0.6391,-0.4931,9.4657,-0.5464,-0.2858,9.7872,0.0087,-0.0105,0.0021
11218,47.357536,-2.025344,51.67,29.95,3.216,96.1,17 / 21,1121810,2019-08-09 20:32:50:548,-0.2632,-0.4446,10.3941,-0.5765,-0.2919,9.7853,-0.0097,-0.0295,0.0179
11219,47.357536,-2.025344,51.67,29.95,3.216,96.1,17 / 21,1121910,2019-08-09 20:32:50:648,0.6574,-0.6062,9.4352,-0.5661,-0.3021,9.7856,0.0003,0.009,0.022
11220,47.357536,-2.025344,51.67,29.95,3.216,96.1,17 / 21,1122010,2019-08-09 20:32:50:748,-1.0742,-0.5176,9.2934,-0.5601,-0.3019,9.786,0.0116,-0.0182,-0.0024
11221,47.357536,-2.025344,51.67,29.95,3.216,96.1,17 / 21,1122110,2019-08-09 20:32:50:848,-0.3697,-0.3213,9.7135,-0.5721,-0.3007,9.7853,-0.0071,-0.0564,0.0485
11222,47.357536,-2.025344,51.67,29.95,3.216,96.1,17 / 21,1122210,2019-08-09 20:32:50:948,-0.1088,-0.4392,9.127,-0.5511,-0.3085,9.7863,0.015,-0.0429,0.0203
11223,47.357536,-2.025344,51.67,29.95,3.216,96.1,17 / 21,1122311,2019-08-09 20:32:51:049,-0.8372,-0.1687,9.6477,-0.5681,-0.3005,9.7856,-0.0085,0.0608,-0.0338
11224,47.357536,-2.025344,51.67,29.95,3.216,96.1,17 / 21,1122410,2019-08-09 20:32:51:148,-1.0455,-0.4213,9.297,-0.5563,-0.3002,9.7863,-0.0141,-0.0419,0.0315
11225,47.357536,-2.025344,51.67,29.95,3.216,96.1,17 / 21,1122511,2019-08-09 20:32:51:249,-1.416,-0.0627,10.2145,-0.5518,-0.3077,9.7863,0.0076,0.037,-0.0142
11226,47.357536,-2.025344,51.67,29.95,3.216,96.1,17 / 21,1122611,2019-08-09 20:32:51:349,-0.3793,0.1552,10.0278,-0.5774,-0.2968,9.7851,-0.0044,0.0034,-0.0098
11227,47.357536,-2.025344,51.67,29.95,3.216,96.1,17 / 21,1122711,2019-08-09 20:32:51:449,-0.3979,0.0552,10.0972,-0.5908,-0.2946,9.7844,0.002,0.0273,-0.0298
11228,47.357536,-2.025344,51.67,29.95,3.216,96.1,17 / 21,1122810,2019-08-09 20:32:51:548,-0.034,0.1749,10.0822,-0.6112,-0.2827,9.7835,-0.0019,0.0761,-0.0388
11229,47.357536,-2.025344,51.67,29.95,3.216,96.1,17 / 21,1122910,2019-08-09 20:32:51:648,-1.1485,-0.1705,9.9584,-0.6106,-0.2737,9.7838,0.0029,-0.0666,0.0378
11230,47.357536,-2.025344,51.67,29.95,3.216,96.1,17 / 21,1123010,2019-08-09 20:32:51:748,-0.6965,-0.1447,9.7465,-0.6467,-0.272,9.7815,0.0015,-0.0237,0.02
11231,47.357536,-2.025344,51.67,29.95,3.216,96.1,17 / 21,1123110,2019-08-09 20:32:51:848,-0.9366,0.0833,10.2756,-0.6572,-0.2739,9.7808,-0.0176,0.0414,-0.0141
11232,47.357536,-2.025344,51.67,29.95,3.216,96.1,17 / 21,1123210,2019-08-09 20:32:51:948,-0.3967,-0.6002,9.3796,-0.6418,-0.2797,9.7816,0.0014,0.0169,0.0079
11233,47.357536,-2.025344,51.67,29.95,3.216,96.1,17 / 21,1123310,2019-08-09 20:32:52:048,-0.6672,-0.4386,9.2802,-0.6371,-0.2782,9.782,0.0122,0.0264,-0.0006
11234,47.357536,-2.025344,51.67,29.95,3.216,96.1,17 / 21,1123411,2019-08-09 20:32:52:149,-0.4458,-0.2285,9.9781,-0.6595,-0.2728,9.7806,-0.0086,0.0063,-0.0031
11235,47.357536,-2.025344,51.67,29.95,3.216,96.1,17 / 21,1123511,2019-08-09 20:32:52:249,-0.7833,-0.9282,9.2592,-0.6427,-0.287,9.7814,-0.0023,0.0119,-0.0029
11236,47.357536,-2.025344,51.67,29.95,3.216,96.1,16 / 20,1123610,2019-08-09 20:32:52:348,-0.8193,-0.699,9.4705,-0.6575,-0.2918,9.7802,0.0132,-0.0033,0.0305
11237,47.357536,-2.025344,51.67,29.95,3.216,96.1,16 / 20,1123710,2019-08-09 20:32:52:448,-0.7911,-0.0484,10.6108,-0.6748,-0.2931,9.779,-0.0166,-0.0171,0.0196
11238,47.357536,-2.025344,51.67,29.95,3.216,96.1,16 / 20,1123810,2019-08-09 20:32:52:548,-1.1185,-0.444,10.017,-0.6751,-0.3081,9.7785,-0.0163,0.0026,0.0259
11239,47.357536,-2.025344,51.67,29.95,3.216,96.1,16 / 20,1123911,2019-08-09 20:32:52:649,-0.6397,-0.1334,10.494,-0.7091,-0.3201,9.7757,0.0101,-0.0172,0.0429
11240,47.357536,-2.025344,51.67,29.95,3.216,96.1,16 / 20,1124010,2019-08-09 20:32:52:748,-1.17,-0.9576,9.1455,-0.6806,-0.3107,9.7781,0.0232,0.0372,-0.0193
11241,47.357536,-2.025344,51.67,29.95,3.216,96.1,16 / 20,1124111,2019-08-09 20:32:52:849,-0.4356,-0.3884,10.2337,-0.7119,-0.299,9.7762,-0.0157,0.0191,-0.0119
11242,47.357536,-2.025344,51.67,29.95,3.216,96.1,16 / 20,1124210,2019-08-09 20:32:52:948,-0.5493,-0.6421,9.6693,-0.743,-0.3046,9.7737,0.0151,0.0052,0.0255
11243,47.357536,-2.025344,51.67,29.95,3.216,96.1,16 / 20,1124311,2019-08-09 20:32:53:049,-0.1932,-0.7499,10.032,-0.7439,-0.3019,9.7737,0.0059,-0.0064,-0.0216
11244,47.357536,-2.025344,51.67,29.95,3.216,96.1,16 / 20,1124410,2019-08-09 20:32:53:148,-0.7905,-0.7499,9.9572,-0.7472,-0.2974,9.7736,0.005,0.0021,0.0294
11245,47.357536,-2.025344,51.67,29.95,3.216,96.1,16 / 20,1124511,2019-08-09 20:32:53:249,-0.927,-0.7624,9.5843,-0.7268,-0.2889,9.7754,0.0276,-0.0062,0.0012
11246,47.357536,-2.025344,51.67,29.95,3.216,96.1,16 / 20,1124610,2019-08-09 20:32:53:348,-1.2101,-0.5703,9.3903,-0.7185,-0.2748,9.7764,0.0258,-0.0061,0.0247
11247,47.357536,-2.025344,51.67,29.95,3.216,96.1,16 / 20,1124710,2019-08-09 20:32:53:448,-0.0274,-0.2824,10.181,-0.7104,-0.2904,9.7766,-0.0211,-0.025,0.034
11248,47.357536,-2.025344,51.67,29.95,3.216,96.1,16 / 20,1124810,2019-08-09 20:32:53:548,-0.1848,-0.2932,9.6519,-0.7095,-0.2964,9.7765,0.0037,0.0109,-0.008
11249,47.357536,-2.025344,51.67,29.95,3.216,96.1,16 / 20,1124910,2019-08-09 20:32:53:648,-0.3506,-0.1423,10.0314,-0.7337,-0.3067,9.7744,-0.02,0.019,0.0073
11250,47.357536,-2.025344,51.67,29.95,3.216,96.1,16 / 20,1125010,2019-08-09 20:32:53:748,-0.1908,-0.4733,9.8746,-0.7378,-0.3221,9.7735,0.0094,-0.0027,0.0384
11251,47.357536,-2.025344,51.67,29.95,3.216,96.1,16 / 20,1125110,2019-08-09 20:32:53:848,-0.6307,0.1611,10.5138,-0.7635,-0.3186,9.7717,0.0128,-0.0489,0.0509
11252,47.357536,-2.025344,51.67,29.95,3.216,96.1,16 / 20,1125210,2019-08-09 20:32:53:948,-1.914,-0.9612,9.1276,-0.7428,-0.3173,9.7733,0.0031,0.0275,-0.0112
11253,47.357536,-2.025344,51.67,29.95,3.216,96.1,16 / 20,1125311,2019-08-09 20:32:54:049,-0.5649,-0.0939,9.7549,-0.7468,-0.3126,9.7732,-0.0061,-0.0381,0.017
11254,47.357536,-2.025344,51.67,29.95,3.216,96.1,16 / 20,1125411,2019-08-09 20:32:54:149,-1.0425,-0.1459,10.2014,-0.7397,-0.3254,9.7733,-0.0334,0.0931,-0.006
11255,47.357536,-2.025344,51.67,29.95,3.216,96.1,16 / 20,1125510,2019-08-09 20:32:54:248,-0.4745,-1.1928,10.5779,-0.7693,-0.3362,9.7706,-0.0202,-0.0616,0.0525
11256,47.357536,-2.025344,51.67,29.95,3.216,96.1,18 / 22,1125610,2019-08-09 20:32:54:348,-1.6249,-1.2137,9.039,-0.7419,-0.3585,9.772,0.0107,-0.015,-0.0186
11257,47.357536,-2.025344,51.67,29.95,3.216,96.1,18 / 22,1125710,2019-08-09 20:32:54:448,-1.2179,-0.7708,9.2006,-0.7663,-0.349,9.7704,0.0008,0.0341,0.0102
11258,47.357536,-2.025344,51.67,29.95,3.216,96.1,18 / 22,1125810,2019-08-09 20:32:54:548,-0.9593,-0.4745,9.78,-0.7483,-0.3514,9.7717,0.0029,-0.011,0.0176
11259,47.357536,-2.025344,51.67,29.95,3.216,96.1,18 / 22,1125911,2019-08-09 20:32:54:649,-0.3225,-0.3441,10.597,-0.7627,-0.3562,9.7705,-0.004,0.0422,0.0088
11260,47.357536,-2.025344,51.67,29.95,3.216,96.1,18 / 22,1126010,2019-08-09 20:32:54:748,-0.4583,-0.3746,10.1098,-0.7875,-0.3745,9.7678,-0.0052,0.0302,-0.0148
11261,47.357536,-2.025344,51.67,29.95,3.216,96.1,18 / 22,1126110,2019-08-09 20:32:54:848,-0.7462,-0.7271,10.1642,-0.8094,-0.3755,9.766,0.0006,0.0166,0.0229
11262,47.357536,-2.025344,51.67,29.95,3.216,96.1,18 / 22,1126211,2019-08-09 20:32:54:949,0.0672,-0.4117,10.5928,-0.8401,-0.3859,9.763,-0.0091,0.0303,0.0065
11263,47.357536,-2.025344,51.67,29.95,3.216,96.1,18 / 22,1126311,2019-08-09 20:32:55:049,-1.1209,-0.7217,9.7405,-0.847,-0.3921,9.7621,0.0064,-0.0414,0.0418
11264,47.357536,-2.025344,51.67,29.95,3.216,96.1,18 / 22,1126410,2019-08-09 20:32:55:148,-1.1203,-0.0963,10.0284,-0.8433,-0.3906,9.7625,-0.0041,0.0021,0.0041
11265,47.357536,-2.025344,51.67,29.95,3.216,96.1,18 / 22,1126511,2019-08-09 20:32:55:249,-1.6291,-0.4697,9.8362,-0.8407,-0.3872,9.7629,-0.0033,-0.0553,0.0404
11266,47.357536,-2.025344,51.67,29.95,3.216,96.1,16 / 21,1126610,2019-08-09 20:32:55:348,-1.1461,-0.7971,9.0336,-0.7878,-0.3943,9.767,0.0022,-0.0134,0.0124
11267,47.357536,-2.025344,51.67,29.95,3.216,96.1,16 / 21,1126710,2019-08-09 20:32:55:448,-0.6858,-0.5152,9.2305,-0.7816,-0.394,9.7675,0.0079,-0.0287,0.0067
11268,47.357536,-2.025344,51.67,29.95,3.216,96.1,16 / 21,1126810,2019-08-09 20:32:55:548,0.5077,-0.374,10.1607,-0.7805,-0.4072,9.7671,-0.0221,0.0162,0.0136
11269,47.357536,-2.025344,51.67,29.95,3.216,96.1,16 / 21,1126910,2019-08-09 20:32:55:648,-0.2201,-0.9055,9.622,-0.7914,-0.419,9.7657,-0.0004,0.0016,0.0234
11270,47.357536,-2.025344,51.67,29.95,3.216,96.1,16 / 21,1127010,2019-08-09 20:32:55:748,-0.3398,-0.2052,10.6114,-0.826,-0.4179,9.7629,0.0022,0.053,-0.0064
11271,47.357536,-2.025344,51.67,29.95,3.216,96.1,16 / 21,1127110,2019-08-09 20:32:55:848,-1.3693,-0.3069,10.5378,-0.8421,-0.4125,9.7617,0.0009,0.0151,0.0161
11272,47.357536,-2.025344,51.67,29.95,3.216,96.1,16 / 21,1127211,2019-08-09 20:32:55:949,-1.7117,-0.3704,9.7806,-0.8413,-0.4049,9.7621,0.0121,0.0063,0.0125
11273,47.357536,-2.025344,51.67,29.95,3.216,96.1,16 / 21,1127310,2019-08-09 20:32:56:048,-0.359,0.2006,10.3767,-0.8476,-0.3989,9.7618,-0.0139,-0.039,0.0361
11274,47.357536,-2.025344,51.67,29.95,3.216,96.1,16 / 21,1127411,2019-08-09 20:32:56:149,-0.3805,-0.4147,9.4747,-0.8459,-0.4009,9.7619,-0.0007,-0.0027,0.0063
11275,47.357536,-2.025344,51.67,29.95,3.216,96.1,16 / 21,1127511,2019-08-09 20:32:56:249,-0.7845,-0.4153,9.4753,-0.8262,-0.3952,9.7638,0.0156,-0.0061,0.0074
11276,47.357536,-2.025344,51.67,29.95,3.216,96.1,13 / 18,1127610,2019-08-09 20:32:56:348,-0.9994,-0.0968,9.4203,-0.8094,-0.384,9.7656,-0.0031,-0.024,-0.0051
11277,47.357536,-2.025344,51.67,29.95,3.216,96.1,13 / 18,1127710,2019-08-09 20:32:56:448,-1.0796,-0.5996,9.3371,-0.7913,-0.3788,9.7673,0.0101,-0.0204,0.0352
11278,47.357536,-2.025344,51.67,29.95,3.216,96.1,13 / 18,1127811,2019-08-09 20:32:56:549,-0.8468,-0.1507,9.9883,-0.7903,-0.3749,9.7676,-0.0066,0.0156,-0.0064
11279,47.357536,-2.025344,51.67,29.95,3.216,96.1,13 / 18,1127911,2019-08-09 20:32:56:649,0.0301,-0.6062,9.5759,-0.7747,-0.3788,9.7687,-0.0083,-0.0018,-0.011
11280,47.357536,-2.025344,51.67,29.95,3.216,96.1,13 / 18,1128011,2019-08-09 20:32:56:749,-0.8743,-0.2656,9.9027,-0.7848,-0.3885,9.7675,-0.011,0.0184,0.0067
11281,47.357536,-2.025344,51.67,29.95,3.216,96.1,13 / 18,1128111,2019-08-09 20:32:56:849,-1.1371,-0.4949,10.0266,-0.7963,-0.3963,9.7662,-0.0113,-0.0048,0.0048
11282,47.357536,-2.025344,51.67,29.95,3.216,96.1,13 / 18,1128210,2019-08-09 20:32:56:948,-1.4088,-0.7535,9.6082,-0.7849,-0.3992,9.767,-0.0005,0.0024,0.0207
11283,47.357536,-2.025344,51.67,29.95,3.216,96.1,13 / 18,1128310,2019-08-09 20:32:57:048,-0.0381,-0.025,9.8351,-0.7889,-0.3933,9.767,0.019,-0.0123,-0.006
11284,47.357536,-2.025344,51.67,29.95,3.216,96.1,13 / 18,1128411,2019-08-09 20:32:57:149,-0.6271,0.1474,9.8704,-0.7802,-0.3697,9.7686,0.0104,-0.0505,0.0184
11285,47.357536,-2.025344,51.67,29.95,3.216,96.1,13 / 18,1128511,2019-08-09 20:32:57:249,-0.5242,-0.2321,8.8947,-0.7539,-0.3648,9.7708,0.0257,-0.0121,0.0025
11286,47.357536,-2.025344,51.67,29.95,3.216,96.1,16 / 21,1128610,2019-08-09 20:32:57:348,-0.6714,0.2264,9.8626,-0.7515,-0.3341,9.7721,-0.0116,0.0001,0.0016
11287,47.357536,-2.025344,51.67,29.95,3.216,96.1,16 / 21,1128710,2019-08-09 20:32:57:448,-1.5998,0.0175,9.9296,-0.761,-0.3372,9.7713,-0.0105,-0.0036,0.0176
11288,47.357536,-2.025344,51.67,29.95,3.216,96.1,16 / 21,1128810,2019-08-09 20:32:57:548,-1.3645,0.1324,10.3845,-0.7579,-0.3375,9.7715,0.0027,0.0467,-0.0231
11289,47.357536,-2.025344,51.67,29.95,3.216,96.1,16 / 21,1128910,2019-08-09 20:32:57:648,-0.6289,-0.2812,9.5525,-0.7764,-0.3178,9.7707,0.0042,-0.0137,0.0131
11290,47.357536,-2.025344,51.67,29.95,3.216,96.1,16 / 21,1129010,2019-08-09 20:32:57:748,-0.584,-0.0819,9.6292,-0.7698,-0.3129,9.7714,0.0089,0.0005,-0.0136
11291,47.357536,-2.025344,51.67,29.95,3.216,96.1,16 / 21,1129111,2019-08-09 20:32:57:849,-0.5739,0.3305,10.834,-0.7825,-0.2848,9.7712,-0.0035,0.0669,-0.0079
11292,47.357536,-2.025344,51.67,29.95,3.216,96.1,16 / 21,1129210,2019-08-09 20:32:57:948,-1.1754,-0.4883,9.6154,-0.7801,-0.2859,9.7714,-0.0058,-0.0159,0.0161
11293,47.357536,-2.025344,51.67,29.95,3.216,96.1,16 / 21,1129310,2019-08-09 20:32:58:048,-0.7456,-0.2315,9.1635,-0.7587,-0.2875,9.773,0.0058,-0.0059,0.0052
11294,47.357536,-2.025344,51.67,29.95,3.216,96.1,16 / 21,1129411,2019-08-09 20:32:58:149,-0.4781,0.1689,9.8764,-0.7767,-0.282,9.7718,-0.0085,0.0112,-0.0011
11295,47.357536,-2.025344,51.67,29.95,3.216,96.1,16 / 21,1129515,2019-08-09 20:32:58:253,-0.2237,-0.2555,9.604,-0.776,-0.2823,9.7718,-0.0069,0.0771,-0.0051
11296,47.357536,-2.025344,51.67,29.95,3.216,96.1,17 / 22,1129611,2019-08-09 20:32:58:349,-1.1389,-0.0885,10.9897,-0.7991,-0.2847,9.7699,-0.0069,0.0771,-0.0051
11297,47.357536,-2.025344,51.67,29.95,3.216,96.1,17 / 22,1129711,2019-08-09 20:32:58:449,-1.7871,-0.7541,9.27,-0.7959,-0.2916,9.7699,0.0074,-0.0013,0.0442
11298,47.357536,-2.025344,51.67,29.95,3.216,96.1,17 / 22,1129810,2019-08-09 20:32:58:548,-1.0024,0.4227,9.9212,-0.7876,-0.2788,9.771,0.0031,-0.007,-0.0239
11299,47.357536,-2.025344,51.67,29.95,3.216,96.1,17 / 22,1129911,2019-08-09 20:32:58:649,-1.2789,-0.7612,8.4722,-0.7341,-0.2807,9.7751,-0.0064,-0.0827,0.0604
11300,47.357536,-2.025344,51.67,29.95,3.216,96.1,17 / 22,1130012,2019-08-09 20:32:58:750,-0.4978,-0.3524,9.6597,-0.7341,-0.2943,9.7747,-0.0134,0.0114,0.0161
11301,47.357536,-2.025344,51.67,29.95,3.216,96.1,17 / 22,1130110,2019-08-09 20:32:58:848,-1.0718,-0.5398,10.096,-0.7554,-0.3214,9.7722,-0.0162,-0.0005,0.0141
11302,47.357536,-2.025344,51.67,29.95,3.216,96.1,17 / 22,1130211,2019-08-09 20:32:58:949,-0.1519,-0.7098,9.9081,-0.7472,-0.3277,9.7727,0.0051,0.024,0.0099
11303,47.357536,-2.025344,51.67,29.95,3.216,96.1,17 / 22,1130310,2019-08-09 20:32:59:048,-0.5846,-0.3285,10.1307,-0.7702,-0.3265,9.7709,0.0004,0.0285,0.0136
11304,47.357536,-2.025344,51.67,29.95,3.216,96.1,17 / 22,1130410,2019-08-09 20:32:59:148,-1.1736,-0.8678,9.3766,-0.7689,-0.3295,9.7709,-0.0013,-0.0305,0.0196
11305,47.357536,-2.025344,51.67,29.95,3.216,96.1,17 / 22,1130511,2019-08-09 20:32:59:249,0.488,-0.5093,9.7147,-0.7501,-0.3234,9.7726,0.0068,0.0113,-0.0201
11306,47.357353,-2.021649,50.07,31.59,3.216,92.3,18 / 22,1130610,2019-08-09 20:32:59:348,0.1672,-0.5727,9.9577,-0.7599,-0.3171,9.772,0.0039,-0.0044,0.0405
11307,47.357353,-2.021649,50.07,31.59,3.216,92.3,18 / 22,1130710,2019-08-09 20:32:59:448,-0.4158,-0.435,10.2666,-0.7512,-0.3225,9.7725,-0.0022,0.0389,-0.002
11308,47.357353,-2.021649,50.07,31.59,3.216,92.3,18 / 22,1130810,2019-08-09 20:32:59:548,-1.1479,-0.6074,9.6124,-0.7476,-0.3265,9.7727,-0.0089,-0.0576,0.0393
11309,47.357353,-2.021649,50.07,31.59,3.216,92.3,18 / 22,1130910,2019-08-09 20:32:59:648,-0.5978,-0.3039,10.1218,-0.7343,-0.3334,9.7734,0.0012,0.048,-0.0249
11310,47.357353,-2.021649,50.07,31.59,3.216,92.3,18 / 22,1131010,2019-08-09 20:32:59:748,0.3449,-0.2405,9.434,-0.7348,-0.3307,9.7735,-0.0108,-0.0486,0.0233
11311,47.357353,-2.021649,50.07,31.59,3.216,92.3,18 / 22,1131111,2019-08-09 20:32:59:849,-0.6822,-0.6541,9.1946,-0.7164,-0.345,9.7744,0.0042,0.0056,-0.0088
11312,47.357353,-2.021649,50.07,31.59,3.216,92.3,18 / 22,1131211,2019-08-09 20:32:59:949,-0.669,-0.1663,10.0745,-0.7051,-0.3354,9.7755,0.0124,0.0005,0.0016
11313,47.357353,-2.021649,50.07,31.59,3.216,92.3,18 / 22,1131311,2019-08-09 20:33:00:049,-1.0443,-0.6517,9.5741,-0.6957,-0.3323,9.7763,0.0014,-0.0329,0.0445
11314,47.357353,-2.021649,50.07,31.59,3.216,92.3,18 / 22,1131410,2019-08-09 20:33:00:148,-1.0198,-0.4237,9.5675,-0.6983,-0.3237,9.7764,0.0124,0.0037,-0.0053
11315,47.357353,-2.021649,50.07,31.59,3.216,92.3,18 / 22,1131510,2019-08-09 20:33:00:248,-0.2177,0.0546,9.8153,-0.7095,-0.3111,9.776,0.0012,0.0116,0.0018
11316,47.357353,-2.021649,50.07,31.59,3.216,92.3,16 / 20,1131610,2019-08-09 20:33:00:348,-0.4081,-0.6595,9.1557,-0.7018,-0.317,9.7764,-0.0135,-0.0211,0.019
11317,47.357353,-2.021649,50.07,31.59,3.216,92.3,16 / 20,1131711,2019-08-09 20:33:00:449,-0.0274,-0.2016,9.677,-0.6836,-0.3271,9.7773,0.0047,0.0183,0.0071
11318,47.357353,-2.021649,50.07,31.59,3.216,92.3,16 / 20,1131810,2019-08-09 20:33:00:548,-1.0922,-0.3153,10.0421,-0.7001,-0.3244,9.7762,-0.0114,-0.0073,0.0195
11319,47.357353,-2.021649,50.07,31.59,3.216,92.3,16 / 20,1131910,2019-08-09 20:33:00:648,-1.2454,-0.5583,9.4071,-0.6697,-0.3398,9.7779,-0.0049,-0.0263,0.0138
11320,47.357353,-2.021649,50.07,31.59,3.216,92.3,16 / 20,1132010,2019-08-09 20:33:00:748,-0.1172,-0.0747,10.1295,-0.6641,-0.3406,9.7782,-0.0109,0.0367,-0.0168
11321,47.357353,-2.021649,50.07,31.59,3.216,92.3,16 / 20,1132111,2019-08-09 20:33:00:849,-0.0591,-0.6176,9.6561,-0.6735,-0.3579,9.7769,-0.0143,-0.0033,0.0045
11322,47.357353,-2.021649,50.07,31.59,3.216,92.3,16 / 20,1132210,2019-08-09 20:33:00:948,-0.4069,-0.7642,8.8953,-0.6363,-0.357,9.7795,0.0124,-0.0188,0.0081
11323,47.357353,-2.021649,50.07,31.59,3.216,92.3,16 / 20,1132310,2019-08-09 20:33:01:048,0.0109,0.1049,10.3307,-0.6505,-0.3507,9.7788,0.0021,0.0449,-0.0232
11324,47.357353,-2.021649,50.07,31.59,3.216,92.3,16 / 20,1132410,2019-08-09 20:33:01:148,-0.3692,-0.6804,10.1858,-0.6482,-0.3351,9.7795,0.0057,-0.0482,0.0382
11325,47.357353,-2.021649,50.07,31.59,3.216,92.3,16 / 20,1132510,2019-08-09 20:33:01:248,0.7088,-0.1884,10.2205,-0.6459,-0.3323,9.7797,0.0015,-0.0048,-0.0341
11326,47.357353,-2.021649,50.07,31.59,3.216,92.3,16 / 20,1132610,2019-08-09 20:33:01:348,0.1295,-0.9648,9.2832,-0.655,-0.326,9.7793,-0.0087,-0.027,-0.0099
11327,47.357353,-2.021649,50.07,31.59,3.216,92.3,16 / 20,1132711,2019-08-09 20:33:01:449,-1.2897,-0.2746,9.3658,-0.6232,-0.3387,9.781,-0.0087,-0.027,-0.0099
11328,47.357353,-2.021649,50.07,31.59,3.216,92.3,16 / 20,1132810,2019-08-09 20:33:01:548,-0.7893,-0.5093,9.1743,-0.612,-0.3363,9.7818,0.0029,-0.0132,0.0174
11329,47.357353,-2.021649,50.07,31.59,3.216,92.3,16 / 20,1132910,2019-08-09 20:33:01:648,0.7005,0.1504,10.3869,-0.5896,-0.3277,9.7834,0.003,0.0266,-0.0207
11330,47.357353,-2.021649,50.07,31.59,3.216,92.3,16 / 20,1133010,2019-08-09 20:33:01:748,-2.1642,-0.3836,9.6106,-0.6097,-0.3291,9.7821,-0.0121,0.0095,0.0265
11331,47.357353,-2.021649,50.07,31.59,3.216,92.3,16 / 20,1133111,2019-08-09 20:33:01:849,-2.0134,-0.5308,9.8446,-0.6077,-0.3347,9.7821,0.0092,0.0161,0.0147
11332,47.357353,-2.021649,50.07,31.59,3.216,92.3,16 / 20,1133211,2019-08-09 20:33:01:949,-0.9258,-0.8139,9.6734,-0.6392,-0.3266,9.7803,0.0161,-0.0408,0.0151
11333,47.357353,-2.021649,50.07,31.59,3.216,92.3,16 / 20,1133310,2019-08-09 20:33:02:048,-0.189,-0.1346,9.4095,-0.6224,-0.3201,9.7816,0.0124,-0.0219,0.0217
11334,47.357353,-2.021649,50.07,31.59,3.216,92.3,16 / 20,1133413,2019-08-09 20:33:02:151,-0.3446,-0.4195,9.5076,-0.5933,-0.3094,9.7838,-0.0055,-0.0174,0.0116
11335,47.357353,-2.021649,50.07,31.59,3.216,92.3,16 / 20,1133511,2019-08-09 20:33:02:249,-0.0926,-0.2896,9.6824,-0.595,-0.3136,9.7836,-0.0212,0.011,0.004
11336,47.357353,-2.021649,50.07,31.59,3.216,92.3,18 / 22,1133611,2019-08-09 20:33:02:349,-0.365,-0.3566,9.9159,-0.5915,-0.3336,9.7831,-0.0114,-0.0025,0.0083
11337,47.357353,-2.021649,50.07,31.59,3.216,92.3,18 / 22,1133711,2019-08-09 20:33:02:449,-0.5798,-0.353,10.1439,-0.5819,-0.3354,9.7836,0.0057,0.0439,-0.0003
11338,47.357353,-2.021649,50.07,31.59,3.216,92.3,18 / 22,1133810,2019-08-09 20:33:02:548,-0.9767,-0.614,9.7417,-0.5945,-0.3383,9.7828,-0.0122,-0.0185,0.0277
11339,47.357353,-2.021649,50.07,31.59,3.216,92.3,18 / 22,1133911,2019-08-09 20:33:02:649,-0.2728,-0.6607,9.6285,-0.5977,-0.3492,9.7822,-0.0033,0.0119,0.0127
11340,47.357353,-2.021649,50.07,31.59,3.216,92.3,18 / 22,1134010,2019-08-09 20:33:02:748,-1.4046,-0.2142,9.7423,-0.5957,-0.3373,9.7827,0.0098,0.013,0.0004
11341,47.357353,-2.021649,50.07,31.59,3.216,92.3,18 / 22,1134111,2019-08-09 20:33:02:849,-1.2257,-0.5703,9.5651,-0.6054,-0.3353,9.7822,-0.0047,-0.0217,0.0061
11342,47.357353,-2.021649,50.07,31.59,3.216,92.3,18 / 22,1134210,2019-08-09 20:33:02:948,-0.9258,-0.6786,9.601,-0.5878,-0.334,9.7833,0.0142,0.0217,0.0048
11343,47.357353,-2.021649,50.07,31.59,3.216,92.3,18 / 22,1134311,2019-08-09 20:33:03:049,-0.9988,-0.6224,9.9188,-0.5906,-0.3336,9.7832,0.0021,0.0152,0.0215
11344,47.357353,-2.021649,50.07,31.59,3.216,92.3,18 / 22,1134410,2019-08-09 20:33:03:148,-0.5751,-0.8863,9.5561,-0.5805,-0.3293,9.7839,0.0108,-0.0016,0.0327
11345,47.357353,-2.021649,50.07,31.59,3.216,92.3,18 / 22,1134510,2019-08-09 20:33:03:248,0.8202,0.1096,10.333,-0.5894,-0.3304,9.7833,-0.0024,0.0458,-0.0318
11346,47.357353,-2.021649,50.07,31.59,3.216,92.3,16 / 21,1134610,2019-08-09 20:33:03:348,0.6927,-0.6852,9.6154,-0.5909,-0.3374,9.783,-0.0063,-0.0024,0.0211
11347,47.357353,-2.021649,50.07,31.59,3.216,92.3,16 / 21,1134711,2019-08-09 20:33:03:449,-0.0519,-0.183,9.7135,-0.5891,-0.3364,9.7832,0.0039,0.0127,0.0022
11348,47.357353,-2.021649,50.07,31.59,3.216,92.3,16 / 21,1134810,2019-08-09 20:33:03:548,-0.584,-0.4584,9.9039,-0.5975,-0.3452,9.7823,-0.0172,0.0159,-0.0125
11349,47.357353,-2.021649,50.07,31.59,3.216,92.3,16 / 21,1134911,2019-08-09 20:33:03:649,-0.0531,-0.5284,9.2431,-0.5721,-0.356,9.7835,0.0009,-0.0063,-0.0077
11350,47.357353,-2.021649,50.07,31.59,3.216,92.3,16 / 21,1135010,2019-08-09 20:33:03:748,0.3192,0.2264,10.345,-0.5976,-0.3525,9.7821,-0.0178,0.0013,0.0094
11351,47.357353,-2.021649,50.07,31.59,3.216,92.3,16 / 21,1135110,2019-08-09 20:33:03:848,-0.9449,-0.21,9.9003,-0.5947,-0.3561,9.7821,-0.0149,0.016,0.0062
11352,47.357353,-2.021649,50.07,31.59,3.216,92.3,16 / 21,1135211,2019-08-09 20:33:03:949,-0.8354,-0.8265,9.9859,-0.6027,-0.3605,9.7815,0.008,0.0087,-0.0399
11353,47.357353,-2.021649,50.07,31.59,3.216,92.3,16 / 21,1135311,2019-08-09 20:33:04:049,-0.5086,-0.2621,9.8925,-0.624,-0.3563,9.7803,0.0076,-0.0244,0.0329
11354,47.357353,-2.021649,50.07,31.59,3.216,92.3,16 / 21,1135411,2019-08-09 20:33:04:149,-1.5746,-0.708,8.3782,-0.5927,-0.3392,9.7828,0.0243,0.0027,0.0085
11355,47.357353,-2.021649,50.07,31.59,3.216,92.3,16 / 21,1135511,2019-08-09 20:33:04:249,-0.8127,0.4209,9.3424,-0.5682,-0.3301,9.7846,-0.0017,0.0154,-0.0175
11356,47.357353,-2.021649,50.07,31.59,3.216,92.3,18 / 22,1135611,2019-08-09 20:33:04:349,-0.5631,-0.3967,9.5992,-0.5813,-0.3285,9.7839,-0.0123,-0.0015,0.0132
11357,47.357353,-2.021649,50.07,31.59,3.216,92.3,18 / 22,1135710,2019-08-09 20:33:04:448,-0.4619,-0.7642,9.1545,-0.5711,-0.3423,9.784,0.0008,0.0286,-0.0224
11358,47.357353,-2.021649,50.07,31.59,3.216,92.3,18 / 22,1135810,2019-08-09 20:33:04:548,-0.8941,-0.0657,10.0942,-0.5773,-0.3412,9.7837,0.0008,0.0286,-0.0224
11359,47.357353,-2.021649,50.07,31.59,3.216,92.3,18 / 22,1135910,2019-08-09 20:33:04:648,-0.7486,-0.3608,10.3642,-0.5793,-0.3373,9.7837,-0.0071,0.0419,0.0141
11360,47.357353,-2.021649,50.07,31.59,3.216,92.3,18 / 22,1136011,2019-08-09 20:33:04:749,0.1887,-0.0484,10.0613,-0.5894,-0.3421,9.7829,0.0002,0.0054,0.0052
11361,47.357353,-2.021649,50.07,31.59,3.216,92.3,18 / 22,1136111,2019-08-09 20:33:04:849,-1.0754,-0.3123,9.6639,-0.5996,-0.333,9.7826,0.0074,0.0003,0.0043
11362,47.357353,-2.021649,50.07,31.59,3.216,92.3,18 / 22,1136211,2019-08-09 20:33:04:949,-0.5194,-0.2148,10.1684,-0.6309,-0.3294,9.7808,0.0054,0.0039,0.0198
11363,47.357353,-2.021649,50.07,31.59,3.216,92.3,18 / 22,1136311,2019-08-09 20:33:05:049,-0.9581,-0.204,10.0583,-0.6526,-0.3151,9.7798,0.0045,-0.0217,0.0137
11364,47.357353,-2.021649,50.07,31.59,3.216,92.3,18 / 22,1136411,2019-08-09 20:33:05:149,-0.6642,-0.4578,9.2551,-0.6398,-0.3115,9.7808,0.0063,-0.023,0.0086
11365,47.357353,-2.021649,50.07,31.59,3.216,92.3,18 / 22,1136511,2019-08-09 20:33:05:249,-1.5722,-0.2986,9.1677,-0.6103,-0.3074,9.7828,-0.0049,-0.043,0.0203
11366,47.357353,-2.021649,50.07,31.59,3.216,92.3,18 / 22,1136611,2019-08-09 20:33:05:349,-0.9964,-0.7403,8.6547,-0.5778,-0.3103,9.7847,-0.0034,-0.0468,0.0275
11367,47.357353,-2.021649,50.07,31.59,3.216,92.3,18 / 22,1136710,2019-08-09 20:33:05:448,0.0247,-0.4781,8.9803,-0.538,-0.3152,9.7868,-0.0041,0.0417,-0.0032
11368,47.357353,-2.021649,50.07,31.59,3.216,92.3,18 / 22,1136810,2019-08-09 20:33:05:548,0.0379,-0.6337,10.1379,-0.5582,-0.3184,9.7856,-0.0061,0.0193,0.0261
11369,47.357353,-2.021649,50.07,31.59,3.216,92.3,18 / 22,1136910,2019-08-09 20:33:05:648,-0.6708,-0.5374,10.7826,-0.6121,-0.3238,9.7822,0.0119,0.0359,0.0025
11370,47.357353,-2.021649,50.07,31.59,3.216,92.3,18 / 22,1137010,2019-08-09 20:33:05:748,-0.5493,-0.3423,9.9416,-0.612,-0.3151,9.7825,0.0124,0.0026,0.0068
11371,47.357353,-2.021649,50.07,31.59,3.216,92.3,18 / 22,1137110,2019-08-09 20:33:05:848,-0.2578,-0.283,9.3155,-0.5988,-0.3085,9.7835,0.0015,0.0077,-0.0025
11372,47.357353,-2.021649,50.07,31.59,3.216,92.3,18 / 22,1137210,2019-08-09 20:33:05:948,-0.3081,-0.2046,9.3161,-0.5827,-0.3026,9.7846,0.0124,0.0036,0.0061
11373,47.357353,-2.021649,50.07,31.59,3.216,92.3,18 / 22,1137311,2019-08-09 20:33:06:049,-0.007,0.1671,9.8494,-0.5839,-0.2931,9.7849,-0.0108,0.0237,-0.0183
11374,47.357353,-2.021649,50.07,31.59,3.216,92.3,18 / 22,1137411,2019-08-09 20:33:06:149,-0.578,-0.3297,9.6639,-0.5854,-0.296,9.7847,-0.0145,-0.0014,0.0275
11375,47.357353,-2.021649,50.07,31.59,3.216,92.3,18 / 22,1137511,2019-08-09 20:33:06:249,-1.0635,-0.2507,9.6836,-0.5831,-0.2886,9.785,0.0224,0.0261,-0.0059
11376,47.357353,-2.021649,50.07,31.59,3.216,92.3,14 / 18,1137610,2019-08-09 20:33:06:348,-0.3745,0.4963,10.6581,-0.6103,-0.2806,9.7836,0.0021,0.0471,-0.0284
11377,47.357353,-2.021649,50.07,31.59,3.216,92.3,14 / 18,1137711,2019-08-09 20:33:06:449,-1.1808,-0.1926,10.196,-0.6082,-0.282,9.7837,-0.0103,-0.0101,0.02
11378,47.357353,-2.021649,50.07,31.59,3.216,92.3,14 / 18,1137810,2019-08-09 20:33:06:548,-0.4099,0.1534,9.9673,-0.603,-0.2827,9.784,-0.0054,-0.0077,-0.0326
11379,47.357353,-2.021649,50.07,31.59,3.216,92.3,14 / 18,1137910,2019-08-09 20:33:06:648,-1.0024,-0.2878,9.7219,-0.5903,-0.2769,9.7849,-0.0037,-0.0148,0.0381
11380,47.357353,-2.021649,50.07,31.59,3.216,92.3,14 / 18,1138010,2019-08-09 20:33:06:748,-1.2849,-0.1777,10.0002,-0.5596,-0.2761,9.7868,0.0054,0.0458,-0.0068
11381,47.357353,-2.021649,50.07,31.59,3.216,92.3,14 / 18,1138110,2019-08-09 20:33:06:848,-1.6171,-0.4751,9.9368,-0.5817,-0.265,9.7858,0.0089,-0.0019,0.0111
11382,47.357353,-2.021649,50.07,31.59,3.216,92.3,14 / 18,1138211,2019-08-09 20:33:06:949,1.7575,-0.0831,9.9189,-0.5955,-0.2607,9.7851,0.0029,0.0539,-0.0182
11383,47.357353,-2.021649,50.07,31.59,3.216,92.3,14 / 18,1138311,2019-08-09 20:33:07:049,0.2713,-0.1794,9.0905,-0.5721,-0.2488,9.7868,-0.0051,0.0202,-0.0064
11384,47.357353,-2.021649,50.07,31.59,3.216,92.3,14 / 18,1138411,2019-08-09 20:33:07:149,-0.1782,0.2168,9.7878,-0.555,-0.2498,9.7877,-0.0141,-0.0037,-0.0059
11385,47.357353,-2.021649,50.07,31.59,3.216,92.3,14 / 18,1138510,2019-08-09 20:33:07:248,-0.3638,-0.4709,9.674,-0.5587,-0.2543,9.7874,-0.0081,0.0234,-0.0036
11386,47.357353,-2.021649,50.07,31.59,3.216,92.3,17 / 21,1138611,2019-08-09 20:33:07:349,-1.1365,-0.052,10.2313,-0.5797,-0.2605,9.786,0.0053,-0.0204,0.0156
11387,47.357353,-2.021649,50.07,31.59,3.216,92.3,17 / 21,1138710,2019-08-09 20:33:07:448,-1.2155,0.0576,9.8369,-0.6031,-0.241,9.7851,0.0059,0.027,-0.0122
11388,47.357353,-2.021649,50.07,31.59,3.216,92.3,17 / 21,1138810,2019-08-09 20:33:07:548,-0.9462,-0.3165,9.7471,-0.5917,-0.2363,9.7859,-0.0022,-0.0115,0.0099
11389,47.357353,-2.021649,50.07,31.59,3.216,92.3,17 / 21,1138910,2019-08-09 20:33:07:648,-0.0076,-0.1836,9.1515,-0.5956,-0.2326,9.7858,0.0127,0.0238,-0.0228
11390,47.357353,-2.021649,50.07,31.59,3.216,92.3,17 / 21,1139011,2019-08-09 20:33:07:749,-0.0645,0.1581,9.9362,-0.5875,-0.2072,9.7868,0.004,-0.0082,0.0038
11391,47.357353,-2.021649,50.07,31.59,3.216,92.3,17 / 21,1139111,2019-08-09 20:33:07:849,-0.6152,0.0414,9.8452,-0.5884,-0.2033,9.7869,-0.01,0.0078,-0.0158
11392,47.357353,-2.021649,50.07,31.59,3.216,92.3,17 / 21,1139211,2019-08-09 20:33:07:949,-0.9898,0.0115,9.5513,-0.5786,-0.2078,9.7874,-0.0007,-0.0149,0.0189
11393,47.357353,-2.021649,50.07,31.59,3.216,92.3,17 / 21,1139311,2019-08-09 20:33:08:049,-0.5272,0.1953,9.6262,-0.5728,-0.2038,9.7878,-0.0008,0.0191,0.0048
11394,47.357353,-2.021649,50.07,31.59,3.216,92.3,17 / 21,1139410,2019-08-09 20:33:08:148,-0.201,-0.3393,9.9733,-0.5705,-0.2058,9.7879,-0.01,-0.0267,0.012
11395,47.357353,-2.021649,50.07,31.59,3.216,92.3,17 / 21,1139510,2019-08-09 20:33:08:248,-0.3344,-0.2393,8.7373,-0.5551,-0.2136,9.7886,0.0109,0.0096,0.0389
11396,47.357346,-2.017903,49.86,31.13,3.216,88.9,17 / 21,1139610,2019-08-09 20:33:08:348,-0.4188,0.2324,9.8339,-0.5669,-0.2146,9.7879,-0.0092,0.0114,-0.0461
11397,47.357346,-2.017903,49.86,31.13,3.216,88.9,17 / 21,1139710,2019-08-09 20:33:08:448,-0.2027,-0.2142,9.7088,-0.5662,-0.2181,9.7879,-0.013,0.0162,-0.0043
11398,47.357346,-2.017903,49.86,31.13,3.216,88.9,17 / 21,1139810,2019-08-09 20:33:08:548,-1.261,-0.2854,10.2205,-0.5771,-0.2297,9.787,-0.0048,-0.0061,0.0107
11399,47.357346,-2.017903,49.86,31.13,3.216,88.9,17 / 21,1139910,2019-08-09 20:33:08:648,-1.1688,-0.3195,9.9793,-0.5934,-0.2293,9.786,0.0083,-0.0236,0.0199
11400,47.357346,-2.017903,49.86,31.13,3.216,88.9,17 / 21,1140010,2019-08-09 20:33:08:748,-0.5529,-0.1783,9.4113,-0.5685,-0.2122,9.7879,0.0145,-0.0069,-0.0089
11401,47.357346,-2.017903,49.86,31.13,3.216,88.9,17 / 21,1140110,2019-08-09 20:33:08:848,-0.0244,0.3024,9.6357,-0.5593,-0.2028,9.7886,-0.001,0.0025,-0.0212
11402,47.357346,-2.017903,49.86,31.13,3.216,88.9,17 / 21,1140210,2019-08-09 20:33:08:948,-0.2357,0.1958,9.7279,-0.5449,-0.2006,9.7894,-0.0114,0.039,0.0034
11403,47.357346,-2.017903,49.86,31.13,3.216,88.9,17 / 21,1140310,2019-08-09 20:33:09:048,-0.9192,-0.1866,9.9572,-0.553,-0.2038,9.7889,-0.0033,0.0072,0.0118
11404,47.357346,-2.017903,49.86,31.13,3.216,88.9,17 / 21,1140410,2019-08-09 20:33:09:148,-0.174,0.039,10.111,-0.5512,-0.2029,9.789,-0.0097,-0.038,0.0
11405,47.357346,-2.017903,49.86,31.13,3.216,88.9,17 / 21,1140510,2019-08-09 20:33:09:248,0.7861,-0.6649,9.3616,-0.5389,-0.2023,9.7897,0.0179,-0.0187,0.0402
11406,47.357346,-2.017903,49.86,31.13,3.216,88.9,15 / 19,1140610,2019-08-09 20:33:09:348,0.5598,0.1384,10.1343,-0.5396,-0.183,9.7901,0.0016,-0.0164,0.0081
11407,47.357346,-2.017903,49.86,31.13,3.216,88.9,15 / 19,1140710,2019-08-09 20:33:09:448,-0.3356,-0.0699,10.0936,-0.5393,-0.1834,9.7901,-0.0062,0.0406,0.0038
11408,47.357346,-2.017903,49.86,31.13,3.216,88.9,15 / 19,1140810,2019-08-09 20:33:09:548,-0.3985,-0.0567,9.8548,-0.545,-0.1803,9.7898,0.0021,0.0204,-0.0061
11409,47.357346,-2.017903,49.86,31.13,3.216,88.9,15 / 19,1140911,2019-08-09 20:33:09:649,0.0684,0.1917,9.68,-0.5263,-0.1761,9.7909,0.0056,0.0249,0.0065
11410,47.357346,-2.017903,49.86,31.13,3.216,88.9,15 / 19,1141011,2019-08-09 20:33:09:749,-1.0844,0.0444,9.8404,-0.5321,-0.1652,9.7908,0.0038,-0.0082,-0.0094
11411,47.357346,-2.017903,49.86,31.13,3.216,88.9,15 / 19,1141111,2019-08-09 20:33:09:849,-1.5363,0.2826,9.6866,-0.5391,-0.1671,9.7904,-0.0129,0.0129,-0.0175
11412,47.357346,-2.017903,49.86,31.13,3.216,88.9,15 / 19,1141210,2019-08-09 20:33:09:948,-0.6116,-0.3716,9.4394,-0.508,-0.1651,9.7921,0.01,0.0023,0.0211
11413,47.357346,-2.017903,49.86,31.13,3.216,88.9,15 / 19,1141310,2019-08-09 20:33:10:048,-0.9114,0.3203,9.6393,-0.5118,-0.159,9.792,0.0053,0.0049,-0.0292
11414,47.357346,-2.017903,49.86,31.13,3.216,88.9,15 / 19,1141410,2019-08-09 20:33:10:148,-0.4871,-0.0885,10.4174,-0.5099,-0.1591,9.7921,-0.0054,-0.0171,-0.0062
11415,47.357346,-2.017903,49.86,31.13,3.216,88.9,15 / 19,1141511,2019-08-09 20:33:10:249,-0.4278,-0.5422,9.6806,-0.5067,-0.1644,9.7922,0.0155,0.0019,0.0195
11416,47.357346,-2.017903,49.86,31.13,3.216,88.9,18 / 22,1141611,2019-08-09 20:33:10:349,-0.5517,-0.2369,10.0799,-0.5087,-0.1455,9.7924,-0.0002,0.0415,-0.0193
11417,47.357346,-2.017903,49.86,31.13,3.216,88.9,18 / 22,1141711,2019-08-09 20:33:10:449,-1.0485,0.3174,10.4587,-0.5262,-0.1468,9.7914,-0.0047,-0.0318,0.0314
11418,47.357346,-2.017903,49.86,31.13,3.216,88.9,18 / 22,1141811,2019-08-09 20:33:10:549,-1.161,-0.1286,9.7243,-0.4997,-0.1416,9.7929,0.0119,-0.0024,0.0007
11419,47.357346,-2.017903,49.86,31.13,3.216,88.9,18 / 22,1141910,2019-08-09 20:33:10:648,-0.9342,0.115,9.9649,-0.5098,-0.1416,9.7924,-0.0098,0.0088,0.0052
11420,47.357346,-2.017903,49.86,31.13,3.216,88.9,18 / 22,1142010,2019-08-09 20:33:10:748,-0.5649,0.1988,9.8518,-0.5004,-0.1442,9.7928,0.0119,-0.0439,0.0406
11421,47.357346,-2.017903,49.86,31.13,3.216,88.9,18 / 22,1142111,2019-08-09 20:33:10:849,0.1989,0.0289,9.5537,-0.487,-0.143,9.7935,0.0088,0.0233,-0.0125
11422,47.357346,-2.017903,49.86,31.13,3.216,88.9,18 / 22,1142211,2019-08-09 20:33:10:949,-0.1178,-0.2172,9.5579,-0.4622,-0.1335,9.7948,0.0148,0.0406,0.0065
11423,47.357346,-2.017903,49.86,31.13,3.216,88.9,18 / 22,1142310,2019-08-09 20:33:11:048,-0.7253,0.3174,10.0876,-0.4852,-0.1186,9.7939,-0.0035,0.0179,-0.0262
11424,47.357346,-2.017903,49.86,31.13,3.216,88.9,18 / 22,1142410,2019-08-09 20:33:11:148,-0.8282,0.1575,10.0134,-0.4827,-0.1127,9.7941,0.0002,0.0115,0.0057
11425,47.357346,-2.017903,49.86,31.13,3.216,88.9,18 / 22,1142510,2019-08-09 20:33:11:248,-0.0471,0.0564,9.4089,-0.4755,-0.1061,9.7945,0.0214,0.0221,-0.014
11426,47.357346,-2.017903,49.86,31.13,3.216,88.9,14 / 18,1142610,2019-08-09 20:33:11:348,-0.8139,0.5011,9.9212,-0.4894,-0.0876,9.794,-0.0052,0.0092,-0.0082
11427,47.357346,-2.017903,49.86,31.13,3.216,88.9,14 / 18,1142710,2019-08-09 20:33:11:448,-0.7289,0.0576,9.7291,-0.4967,-0.0843,9.7937,-0.0223,-0.0154,0.0029
11428,47.357346,-2.017903,49.86,31.13,3.216,88.9,14 / 18,1142810,2019-08-09 20:33:11:548,-0.4948,0.4658,10.269,-0.4731,-0.0887,9.7948,0.0064,0.0505,-0.0227
11429,47.357346,-2.017903,49.86,31.13,3.216,88.9,14 / 18,1142911,2019-08-09 20:33:11:649,-0.5164,0.555,10.1152,-0.5067,-0.0805,9.7932,-0.0122,-0.0021,-0.0021
11430,47.357346,-2.017903,49.86,31.13,3.216,88.9,14 / 18,1143010,2019-08-09 20:33:11:748,-0.3464,0.054,9.1485,-0.4908,-0.0845,9.794,0.0066,-0.013,0.0012
11431,47.357346,-2.017903,49.86,31.13,3.216,88.9,14 / 18,1143110,2019-08-09 20:33:11:848,-1.0892,0.3569,10.2133,-0.4998,-0.0709,9.7937,-0.0035,0.0424,0.0143
11432,47.357346,-2.017903,49.86,31.13,3.216,88.9,14 / 18,1143210,2019-08-09 20:33:11:948,0.2725,0.3604,10.0888,-0.5051,-0.0702,9.7934,-0.0157,-0.0375,0.0042
11433,47.357346,-2.017903,49.86,31.13,3.216,88.9,14 / 18,1143310,2019-08-09 20:33:12:048,-0.6193,-0.1687,9.589,-0.506,-0.0623,9.7934,0.0287,0.0372,-0.0108
11434,47.357346,-2.017903,49.86,31.13,3.216,88.9,14 / 18,1143410,2019-08-09 20:33:12:148,0.0882,0.3341,10.0272,-0.5215,-0.0483,9.7927,0.0082,-0.01,-0.014
11435,47.357346,-2.017903,49.86,31.13,3.216,88.9,14 / 18,1143511,2019-08-09 20:33:12:249,-1.3819,0.2072,10.3528,-0.5273,-0.0417,9.7924,-0.0077,-0.0043,-0.0013
11436,47.357346,-2.017903,49.86,31.13,3.216,88.9,17 / 22,1143611,2019-08-09 20:33:12:349,-1.3065,0.1402,9.8225,-0.5541,-0.0469,9.7909,-0.0109,-0.0135,-0.0013
11437,47.357346,-2.017903,49.86,31.13,3.216,88.9,17 / 22,1143710,2019-08-09 20:33:12:448,0.0277,-0.0992,9.9619,-0.5379,-0.0581,9.7917,-0.0029,-0.0355,0.008
11438,47.357346,-2.017903,49.86,31.13,3.216,88.9,17 / 22,1143810,2019-08-09 20:33:12:548,0.0379,-0.0675,9.7106,-0.5268,-0.0591,9.7923,-0.0034,-0.0343,0.022
11439,47.357346,-2.017903,49.86,31.13,3.216,88.9,17 / 22,1143911,2019-08-09 20:33:12:649,-0.0322,-0.4207,9.5052,-0.5358,-0.0658,9.7918,-0.0002,0.0095,0.0007
11440,47.357346,-2.017903,49.86,31.13,3.216,88.9,17 / 22,1144011,2019-08-09 20:33:12:749,-0.2021,-0.0957,10.0098,-0.5334,-0.0647,9.7919,0.006,0.0159,0.004
11441,47.357346,-2.017903,49.86,31.13,3.216,88.9,17 / 22,1144110,2019-08-09 20:33:12:848,-0.6283,-0.1579,9.7746,-0.5385,-0.079,9.7915,-0.0197,-0.0057,0.0114
11442,47.357346,-2.017903,49.86,31.13,3.216,88.9,17 / 22,1144210,2019-08-09 20:33:12:948,-0.1136,-0.1711,9.7824,-0.5465,-0.0904,9.791,-0.0108,-0.0024,0.0089
11443,47.357346,-2.017903,49.86,31.13,3.216,88.9,17 / 22,1144310,2019-08-09 20:33:13:048,-0.4422,0.1683,9.8722,-0.5493,-0.101,9.7907,-0.0164,0.0007,-0.0103
11444,47.357346,-2.017903,49.86,31.13,3.216,88.9,17 / 22,1144411,2019-08-09 20:33:13:149,-0.1399,-0.0675,9.7985,-0.5541,-0.1161,9.7903,-0.0148,-0.0488,0.0267
11445,47.357346,-2.017903,49.86,31.13,3.216,88.9,17 / 22,1144511,2019-08-09 20:33:13:249,-1.8308,-0.8259,8.8013,-0.5332,-0.1284,9.7913,0.0077,0.0013,-0.0218
11446,47.357346,-2.017903,49.86,31.13,3.216,88.9,15 / 20,1144611,2019-08-09 20:33:13:349,-0.5439,-0.1657,9.8752,-0.5369,-0.1199,9.7912,-0.0168,-0.003,-0.0294
11447,47.357346,-2.017903,49.86,31.13,3.216,88.9,15 / 20,1144711,2019-08-09 20:33:13:449,-0.6211,-0.3806,9.3795,-0.5259,-0.1344,9.7916,0.0161,-0.0311,0.0275
11448,47.357346,-2.017903,49.86,31.13,3.216,88.9,15 / 20,1144811,2019-08-09 20:33:13:549,-0.5451,-0.79,8.9169,-0.5114,-0.1289,9.7925,0.0233,-0.0005,-0.0193
11449,47.357346,-2.017903,49.86,31.13,3.216,88.9,15 / 20,1144911,2019-08-09 20:33:13:649,-0.1632,0.3431,9.9212,-0.5205,-0.113,9.7922,-0.0104,-0.0087,0.0236
11450,47.357346,-2.017903,49.86,31.13,3.216,88.9,15 / 20,1145011,2019-08-09 20:33:13:749,-0.1333,0.0875,10.1619,-0.5208,-0.1193,9.7921,-0.0164,0.0065,0.0061
11451,47.357346,-2.017903,49.86,31.13,3.216,88.9,15 / 20,1145110,2019-08-09 20:33:13:848,-1.3609,-0.3853,9.273,-0.5149,-0.1283,9.7923,0.0113,0.0289,-0.0171
11452,47.357346,-2.017903,49.86,31.13,3.216,88.9,15 / 20,1145211,2019-08-09 20:33:13:949,-1.0078,0.5053,10.4988,-0.5445,-0.1269,9.7907,-0.0106,0.0099,0.0029
11453,47.357346,-2.017903,49.86,31.13,3.216,88.9,15 / 20,1145310,2019-08-09 20:33:14:048,-0.9048,-0.4344,9.0713,-0.5101,-0.134,9.7925,0.0113,0.0184,-0.0116
11454,47.357346,-2.017903,49.86,31.13,3.216,88.9,15 / 20,1145410,2019-08-09 20:33:14:148,-0.3578,-0.2668,9.5076,-0.5086,-0.1263,9.7926,-0.0076,0.0276,-0.0076
11455,47.357346,-2.017903,49.86,31.13,3.216,88.9,15 / 20,1145511,2019-08-09 20:33:14:249,0.087,-0.1609,10.038,-0.5135,-0.1299,9.7923,-0.0068,0.0014,0.0157
11456,47.357346,-2.017903,49.86,31.13,3.216,88.9,16 / 20,1145611,2019-08-09 20:33:14:349,-0.4709,-0.2369,9.3622,-0.516,-0.1334,9.7922,0.0045,-0.0216,-0.0086
11457,47.357346,-2.017903,49.86,31.13,3.216,88.9,16 / 20,1145711,2019-08-09 20:33:14:449,-1.5447,0.5777,10.4959,-0.5141,-0.124,9.7924,-0.004,0.0149,-0.0312
11458,47.357346,-2.017903,49.86,31.13,3.216,88.9,16 / 20,1145811,2019-08-09 20:33:14:549,-0.5158,0.0205,10.1218,-0.5402,-0.1229,9.791,-0.0199,-0.022,0.0152
11459,47.357346,-2.017903,49.86,31.13,3.216,88.9,16 / 20,1145911,2019-08-09 20:33:14:649,-0.9007,0.1061,9.5825,-0.5241,-0.1291,9.7918,-0.0016,0.0054,-0.0266
11460,47.357346,-2.017903,49.86,31.13,3.216,88.9,16 / 20,1146010,2019-08-09 20:33:14:748,-0.5565,-0.2345,9.2389,-0.4982,-0.121,9.7932,0.005,0.0367,-0.0244
11461,47.357346,-2.017903,49.86,31.13,3.216,88.9,16 / 20,1146110,2019-08-09 20:33:14:848,-0.2782,-0.1944,9.9009,-0.5112,-0.1209,9.7926,0.0077,0.0006,-0.0252
11462,47.357346,-2.017903,49.86,31.13,3.216,88.9,16 / 20,1146210,2019-08-09 20:33:14:948,-0.7109,-0.0801,9.44,-0.5172,-0.1051,9.7924,-0.0007,-0.021,-0.0027
11463,47.357346,-2.017903,49.86,31.13,3.216,88.9,16 / 20,1146310,2019-08-09 20:33:15:048,-0.2345,0.0378,9.5753,-0.5109,-0.1062,9.7928,0.0063,0.003,-0.0088
11464,47.357346,-2.017903,49.86,31.13,3.216,88.9,16 / 20,1146410,2019-08-09 20:33:15:148,-0.5284,0.2778,9.4358,-0.5111,-0.0906,9.7929,-0.0017,0.0222,-0.0141
11465,47.357346,-2.017903,49.86,31.13,3.216,88.9,16 / 20,1146510,2019-08-09 20:33:15:248,-1.0808,0.0576,9.8027,-0.5207,-0.0875,9.7924,-0.0062,-0.0167,0.0098
