,GPS LATITUDE (degrees),GPS LONGITUDE (degrees), GPS ALTITUDE (m),GPS SPEED (Kmh),GPS ACCURACY (m),GPS ORIENTATION (Â°), SATELLITES IN RANGE, TIME SINCE START (ms), DATE (YYYY-MO-DD HH-MI-SS_SSS),ACCELEROMETER X (m/s²) , ACCELEROMETER Y (m/s²), ACCELEROMETER Z (m/s²), GRAVITY X (m/s²), GRAVITY Y (m/s²), GRAVITY Z (m/s²), GYROSCOPE Yaw (rad/s), GYROSCOPE Pitch (rad/s), GYROSCOPE Roll (rad/s)
14609,46.40429,-0.589167,89.5,37.49,6.432,70.0,0 / 18,1460845,2019-08-18 22:44:10:378,-0.6059,0.7856,10.0887,-0.5014,0.6571,9.7718,-0.0121,0.0013,0.0053
14610,46.40429,-0.589167,89.5,37.49,6.432,70.0,0 / 18,1460945,2019-08-18 22:44:10:478,-0.7483,0.4995,10.0648,-0.4976,0.6493,9.7725,-0.0057,-0.0094,0.0053
14611,46.40429,-0.589167,89.5,37.49,6.432,70.0,0 / 18,1461046,2019-08-18 22:44:10:579,-1.0709,0.7939,9.611,-0.5017,0.6354,9.7732,-0.0078,0.0045,0.0053
14612,46.40429,-0.589167,89.5,37.49,6.432,70.0,0 / 18,1461145,2019-08-18 22:44:10:678,-0.1013,0.2941,9.8128,-0.5015,0.6331,9.7733,0.006,0.0023,0.0064
14613,46.40429,-0.589167,89.5,37.49,6.432,70.0,0 / 18,1461246,2019-08-18 22:44:10:779,-0.394,0.5731,9.7912,-0.5002,0.6363,9.7732,0.0071,-0.0041,0.0096
14614,46.40429,-0.589167,89.5,37.49,6.432,70.0,0 / 18,1461345,2019-08-18 22:44:10:878,-0.3694,0.7275,9.7655,-0.4991,0.638,9.7731,-0.0036,-0.003,0.0085
14615,46.40429,-0.589167,89.5,37.49,6.432,70.0,0 / 18,1461446,2019-08-18 22:44:10:979,-0.7327,0.8646,9.7523,-0.5045,0.6325,9.7732,-0.0089,0.0098,0.0053
14616,46.40429,-0.589167,89.5,37.49,6.432,70.0,0 / 18,1461545,2019-08-18 22:44:11:078,-0.7166,0.6072,9.626,-0.5043,0.6302,9.7734,0.0028,0.0045,0.0064
14617,46.40429,-0.589167,89.5,37.49,6.432,70.0,0 / 18,1461646,2019-08-18 22:44:11:179,-0.3215,0.6706,10.1252,-0.5011,0.6252,9.7739,-0.0057,0.0013,0.0075
14618,46.40429,-0.589167,89.5,37.49,6.432,70.0,0 / 18,1461745,2019-08-18 22:44:11:278,-0.1402,0.6299,9.7583,-0.4984,0.6254,9.774,0.0071,-0.003,0.0096
14619,46.40429,-0.589167,89.5,37.49,6.432,70.0,0 / 18,1461845,2019-08-18 22:44:11:378,-0.4239,0.5677,10.3491,-0.4959,0.6327,9.7737,0.0071,0.0045,0.0117
14620,46.40429,-0.589167,89.5,37.49,6.432,70.0,0 / 18,1461946,2019-08-18 22:44:11:479,-0.7549,0.7562,9.9103,-0.4879,0.6305,9.7742,-0.0046,-0.0062,0.0096
14621,46.40429,-0.589167,89.5,37.49,6.432,70.0,0 / 18,1462045,2019-08-18 22:44:11:578,-0.2581,0.5078,9.7942,-0.485,0.6354,9.774,0.006,0.0013,0.0107
14622,46.40429,-0.589167,89.5,37.49,6.432,70.0,0 / 18,1462145,2019-08-18 22:44:11:678,-0.3593,0.667,9.6649,-0.4861,0.6377,9.7738,-0.0036,0.0055,0.0085
14623,46.40429,-0.589167,89.5,37.49,6.432,70.0,0 / 18,1462246,2019-08-18 22:44:11:779,-0.4035,0.6718,9.4686,-0.4905,0.6351,9.7738,-0.0046,0.0034,0.0075
14624,46.40429,-0.589167,89.5,37.49,6.432,70.0,0 / 18,1462345,2019-08-18 22:44:11:878,-0.7339,0.8155,9.9031,-0.4746,0.635,9.7746,-0.0046,0.0034,0.0085
14625,46.40429,-0.589167,89.5,37.49,6.432,70.0,13 / 17,1462446,2019-08-18 22:44:11:979,-0.7238,0.6862,10.215,-0.4613,0.6319,9.7754,-0.0068,0.0013,0.0085
14626,46.40429,-0.589167,89.5,37.49,6.432,70.0,13 / 17,1462545,2019-08-18 22:44:12:078,-0.3706,0.2427,9.8457,-0.4648,0.6312,9.7753,0.0007,0.0002,0.0075
14627,46.40429,-0.589167,89.5,37.49,6.432,70.0,13 / 17,1462646,2019-08-18 22:44:12:179,-0.4173,0.7903,9.7146,-0.4606,0.6313,9.7755,-0.0025,-0.0083,0.0075
14628,46.40429,-0.589167,89.5,37.49,6.432,70.0,13 / 17,1462746,2019-08-18 22:44:12:279,-0.4197,0.6234,9.5183,-0.4575,0.6296,9.7757,0.0039,0.0013,0.0064
14629,46.40429,-0.589167,89.5,37.49,6.432,70.0,13 / 17,1462845,2019-08-18 22:44:12:378,-0.8393,0.7263,9.474,-0.4518,0.6115,9.7771,-0.0036,0.0013,0.0075
14630,46.40429,-0.589167,89.5,37.49,6.432,70.0,13 / 17,1462946,2019-08-18 22:44:12:479,-0.4825,0.4833,9.7032,-0.4434,0.6093,9.7777,0.0028,0.0034,0.0064
14631,46.40429,-0.589167,89.5,37.49,6.432,70.0,13 / 17,1463046,2019-08-18 22:44:12:579,-0.1671,0.4354,9.5416,-0.4294,0.6029,9.7787,0.0028,-0.003,0.0032
14632,46.40429,-0.589167,89.5,37.49,6.432,70.0,13 / 17,1463145,2019-08-18 22:44:12:678,-0.3808,0.6904,9.298,-0.4219,0.6075,9.7787,-0.0036,-0.003,0.0032
14633,46.40429,-0.589167,89.5,37.49,6.432,70.0,13 / 17,1463245,2019-08-18 22:44:12:778,-0.5658,0.7012,10.4047,-0.4162,0.6009,9.7794,-0.0057,-0.0009,0.0043
14634,46.40429,-0.589167,89.5,37.49,6.432,70.0,13 / 17,1463345,2019-08-18 22:44:12:878,-0.5256,0.5946,10.1892,-0.4144,0.5809,9.7807,0.0028,0.0108,0.0043
14635,46.405434,-0.585139,95.7,37.0,11.792,65.6,0 / 18,1463446,2019-08-18 22:44:12:979,-0.4814,0.3552,9.9911,-0.4141,0.58,9.7807,-0.0014,-0.0009,0.0064
14636,46.405434,-0.585139,95.7,37.0,11.792,65.6,0 / 18,1463545,2019-08-18 22:44:13:078,-0.303,0.4109,9.4315,-0.4132,0.5749,9.7811,0.0039,0.0034,0.0053
14637,46.405434,-0.585139,95.7,37.0,11.792,65.6,0 / 18,1463647,2019-08-18 22:44:13:180,-0.637,0.8053,9.1059,-0.4027,0.5694,9.7818,-0.0121,0.0002,0.0075
14638,46.405434,-0.585139,95.7,37.0,11.792,65.6,0 / 18,1463745,2019-08-18 22:44:13:278,-0.3437,0.9053,10.5789,-0.3956,0.5674,9.7822,0.0028,0.0034,0.0075
14639,46.405434,-0.585139,95.7,37.0,11.792,65.6,0 / 18,1463846,2019-08-18 22:44:13:379,-0.4005,0.4516,9.9415,-0.387,0.571,9.7824,0.0092,-0.0019,0.0107
14640,46.405434,-0.585139,95.7,37.0,11.792,65.6,0 / 18,1463946,2019-08-18 22:44:13:479,0.0621,0.369,9.1274,-0.3765,0.6043,9.7808,0.0007,0.0002,0.0128
14641,46.405434,-0.585139,95.7,37.0,11.792,65.6,0 / 18,1464046,2019-08-18 22:44:13:579,-0.0193,0.7377,9.7302,-0.3785,0.6068,9.7805,-0.0036,0.0002,0.0107
14642,46.405434,-0.585139,95.7,37.0,11.792,65.6,0 / 18,1464145,2019-08-18 22:44:13:678,-0.6561,1.0866,9.9307,-0.3811,0.6192,9.7797,0.006,0.0023,0.0085
14643,46.405434,-0.585139,95.7,37.0,11.792,65.6,0 / 18,1464245,2019-08-18 22:44:13:778,-0.3419,0.4552,10.0582,-0.3761,0.6482,9.778,0.0081,0.0023,0.0096
14644,46.405434,-0.585139,95.7,37.0,11.792,65.6,0 / 18,1464346,2019-08-18 22:44:13:879,-0.3066,0.3349,9.9067,-0.3719,0.6607,9.7773,0.0039,0.0013,0.0107
14645,46.405434,-0.585139,95.7,37.0,11.792,65.6,0 / 18,1464445,2019-08-18 22:44:13:978,-0.5819,0.9885,9.3956,-0.3775,0.6687,9.7765,-0.0057,-0.003,0.0128
14646,46.405434,-0.585139,95.7,37.0,11.792,65.6,0 / 18,1464545,2019-08-18 22:44:14:078,-0.364,1.1058,9.4925,-0.3755,0.6688,9.7766,-0.0025,0.0055,0.0139
14647,46.405434,-0.585139,95.7,37.0,11.792,65.6,0 / 18,1464645,2019-08-18 22:44:14:178,-0.2892,0.7484,10.2305,-0.3745,0.6879,9.7753,-0.0025,0.0023,0.0128
14648,46.405434,-0.585139,95.7,37.0,11.792,65.6,0 / 18,1464746,2019-08-18 22:44:14:279,-0.0648,0.3109,9.6655,-0.3606,0.7283,9.7729,-0.0057,0.0023,0.0107
14649,46.405434,-0.585139,95.7,37.0,11.792,65.6,0 / 18,1464845,2019-08-18 22:44:14:378,-0.4191,0.9352,10.3114,-0.3486,0.7681,9.7703,0.0049,-0.0073,0.0149
14650,46.405434,-0.585139,95.7,37.0,11.792,65.6,0 / 18,1464946,2019-08-18 22:44:14:479,-0.604,0.7682,10.0121,-0.351,0.7903,9.7685,0.0007,0.0034,0.0171
14651,46.405434,-0.585139,95.7,37.0,11.792,65.6,0 / 18,1465045,2019-08-18 22:44:14:578,-0.1186,1.0226,10.0528,-0.3452,0.836,9.7648,0.0092,0.0013,0.0181
14652,46.405434,-0.585139,95.7,37.0,11.792,65.6,0 / 18,1465146,2019-08-18 22:44:14:679,-0.285,1.1734,9.9151,-0.3498,0.8629,9.7623,-0.0046,0.0034,0.0192
14653,46.405434,-0.585139,95.7,37.0,11.792,65.6,0 / 18,1465246,2019-08-18 22:44:14:779,-0.4418,1.001,9.2669,-0.3572,0.8818,9.7604,-0.0014,0.0098,0.0181
14654,46.405434,-0.585139,95.7,37.0,11.792,65.6,0 / 18,1465346,2019-08-18 22:44:14:879,-0.3192,0.8957,9.6607,-0.3548,0.8829,9.7604,-0.01,-0.0019,0.0149
14655,46.405434,-0.585139,95.7,37.0,11.792,65.6,0 / 18,1465446,2019-08-18 22:44:14:979,-0.4012,0.9328,10.1174,-0.3454,0.8779,9.7612,-0.0089,-0.0073,0.0117
14656,46.405434,-0.585139,95.7,37.0,11.792,65.6,0 / 18,1465545,2019-08-18 22:44:15:078,-0.0923,0.8699,10.6202,-0.3416,0.8707,9.7619,-0.0057,0.0002,0.0085
14657,46.405434,-0.585139,95.7,37.0,11.792,65.6,0 / 18,1465646,2019-08-18 22:44:15:179,-0.467,0.5054,9.6811,-0.3364,0.8653,9.7626,0.0007,-0.003,0.0096
14658,46.405434,-0.585139,95.7,37.0,11.792,65.6,0 / 18,1465746,2019-08-18 22:44:15:279,-0.476,0.6928,9.6817,-0.3214,0.8662,9.763,-0.0068,0.0034,0.0075
14659,46.405434,-0.585139,95.7,37.0,11.792,65.6,0 / 18,1465846,2019-08-18 22:44:15:379,-0.4784,0.9759,10.3544,-0.2981,0.8257,9.7673,-0.0004,-0.0009,0.0064
14660,46.405434,-0.585139,95.7,37.0,11.792,65.6,0 / 18,1465946,2019-08-18 22:44:15:479,-0.1025,0.5342,9.6278,-0.2834,0.8073,9.7693,0.0124,0.0076,0.0075
14661,46.405434,-0.585139,95.7,37.0,11.792,65.6,0 / 18,1466045,2019-08-18 22:44:15:578,-0.0701,0.621,9.3483,-0.2684,0.788,9.7713,-0.0068,0.0023,0.0075
14662,46.405434,-0.585139,95.7,37.0,11.792,65.6,0 / 18,1466145,2019-08-18 22:44:15:678,0.0268,0.5898,9.1687,-0.2609,0.7738,9.7726,-0.0014,-0.0009,0.0064
14663,46.405434,-0.585139,95.7,37.0,11.792,65.6,0 / 18,1466245,2019-08-18 22:44:15:778,-0.2862,0.9735,9.632,-0.2524,0.7637,9.7736,-0.0068,-0.0073,0.0085
14664,46.405434,-0.585139,95.7,37.0,11.792,65.6,0 / 18,1466345,2019-08-18 22:44:15:878,0.2291,0.6503,10.0294,-0.2452,0.76,9.7741,0.0039,-0.0019,0.0096
14665,46.405434,-0.585139,95.7,37.0,11.792,65.6,0 / 18,1466446,2019-08-18 22:44:15:979,0.4398,0.4366,9.1274,-0.2502,0.7627,9.7737,0.006,0.0045,0.0117
14666,46.405434,-0.585139,95.7,37.0,11.792,65.6,0 / 18,1466546,2019-08-18 22:44:16:079,0.028,0.84,9.3776,-0.2539,0.7621,9.7737,-0.0014,0.0045,0.0096
14667,46.405434,-0.585139,95.7,37.0,11.792,65.6,0 / 18,1466646,2019-08-18 22:44:16:179,-0.7435,0.9615,9.702,-0.2706,0.7636,9.7731,-0.0004,-0.0041,0.0075
14668,46.405434,-0.585139,95.7,37.0,11.792,65.6,0 / 18,1466746,2019-08-18 22:44:16:279,-0.6358,0.8705,10.2982,-0.2811,0.7667,9.7726,-0.0068,-0.0019,0.0064
14669,46.405434,-0.585139,95.7,37.0,11.792,65.6,0 / 18,1466845,2019-08-18 22:44:16:378,0.0532,0.266,10.1078,-0.2686,0.7426,9.7748,0.0039,0.0013,0.0107
14670,46.405434,-0.585139,95.7,37.0,11.792,65.6,0 / 18,1466946,2019-08-18 22:44:16:479,-0.5526,0.752,9.4417,-0.2678,0.7441,9.7747,0.006,-0.0073,0.0107
14671,46.405434,-0.585139,95.7,37.0,11.792,65.6,0 / 18,1467046,2019-08-18 22:44:16:579,-0.2461,0.7347,9.5889,-0.253,0.7311,9.7761,-0.0004,0.0108,0.0085
14672,46.405434,-0.585139,95.7,37.0,11.792,65.6,0 / 18,1467145,2019-08-18 22:44:16:678,-0.2563,0.5006,9.7439,-0.2521,0.73,9.7762,-0.0025,-0.0009,0.0096
14673,46.405434,-0.585139,95.7,37.0,11.792,65.6,0 / 18,1467246,2019-08-18 22:44:16:779,0.1992,0.6,9.942,-0.2425,0.7261,9.7767,-0.0004,-0.0073,0.0085
14674,46.405434,-0.585139,95.7,37.0,11.792,65.6,0 / 18,1467345,2019-08-18 22:44:16:878,-0.1426,0.828,9.4429,-0.2465,0.7254,9.7767,-0.0004,0.0098,0.0075
14675,46.405434,-0.585139,95.7,37.0,11.792,65.6,0 / 18,1467446,2019-08-18 22:44:16:979,-0.1665,0.9933,10.9033,-0.243,0.7167,9.7774,-0.0121,-0.0019,0.0085
14676,46.405434,-0.585139,95.7,37.0,11.792,65.6,0 / 18,1467546,2019-08-18 22:44:17:079,-0.1563,0.281,9.8666,-0.2417,0.7234,9.7769,0.0103,0.0034,0.0107
14677,46.405434,-0.585139,95.7,37.0,11.792,65.6,0 / 18,1467645,2019-08-18 22:44:17:178,0.0166,0.4617,9.6069,-0.2408,0.7222,9.7771,-0.0057,0.0013,0.0117
14678,46.405434,-0.585139,95.7,37.0,11.792,65.6,0 / 18,1467746,2019-08-18 22:44:17:279,-0.613,0.8921,9.5542,-0.2474,0.7178,9.7772,-0.0068,0.0087,0.0064
14679,46.405434,-0.585139,95.7,37.0,11.792,65.6,0 / 18,1467846,2019-08-18 22:44:17:379,-0.3958,0.7257,10.1593,-0.2427,0.708,9.778,-0.0057,-0.003,0.0075
14680,46.405434,-0.585139,95.7,37.0,11.792,65.6,0 / 18,1467946,2019-08-18 22:44:17:479,0.1998,0.3331,9.5261,-0.2382,0.7186,9.7774,0.0103,0.0034,0.0085
14681,46.405434,-0.585139,95.7,37.0,11.792,65.6,0 / 18,1468045,2019-08-18 22:44:17:578,0.1777,0.7742,9.6482,-0.2316,0.7035,9.7786,-0.0068,-0.0041,0.0107
14682,46.405434,-0.585139,95.7,37.0,11.792,65.6,0 / 18,1468145,2019-08-18 22:44:17:678,-0.388,0.8759,9.8211,-0.2353,0.7113,9.778,-0.0078,0.0013,0.0096
14683,46.405434,-0.585139,95.7,37.0,11.792,65.6,0 / 18,1468246,2019-08-18 22:44:17:779,-0.4873,0.6994,9.3788,-0.2179,0.7078,9.7786,-0.0057,0.0002,0.0085
14684,46.405434,-0.585139,95.7,37.0,11.792,65.6,0 / 18,1468345,2019-08-18 22:44:17:878,-0.2072,0.521,9.705,-0.2278,0.7106,9.7782,0.0039,0.0034,0.0096
14685,46.405434,-0.585139,95.7,37.0,11.792,65.6,0 / 18,1468446,2019-08-18 22:44:17:979,-0.1875,0.5749,9.6942,-0.2471,0.7197,9.7771,-0.0046,0.0076,0.0096
14686,46.405434,-0.585139,95.7,37.0,11.792,65.6,0 / 18,1468546,2019-08-18 22:44:18:079,-0.4197,0.7269,9.1538,-0.2671,0.7089,9.7773,-0.0036,-0.0009,0.0107
14687,46.405434,-0.585139,95.7,37.0,11.792,65.6,0 / 18,1468646,2019-08-18 22:44:18:179,0.1423,0.8963,9.313,-0.2623,0.7228,9.7765,0.0081,0.0013,0.0085
14688,46.405434,-0.585139,95.7,37.0,11.792,65.6,0 / 18,1468745,2019-08-18 22:44:18:278,-0.0354,0.5635,10.0647,-0.2631,0.7268,9.7761,-0.0004,-0.0019,0.0075
14689,46.405434,-0.585139,95.7,37.0,11.792,65.6,0 / 18,1468846,2019-08-18 22:44:18:379,-0.3168,0.785,9.7254,-0.2652,0.7272,9.7761,0.0007,0.0034,0.0075
14690,46.405434,-0.585139,95.7,37.0,11.792,65.6,0 / 18,1468945,2019-08-18 22:44:18:478,-0.458,0.682,9.6966,-0.2708,0.7234,9.7762,0.0018,0.0066,0.0075
14691,46.405434,-0.585139,95.7,37.0,11.792,65.6,0 / 18,1469045,2019-08-18 22:44:18:578,0.0268,0.527,10.3299,-0.2708,0.7154,9.7768,-0.0046,0.0023,0.0075
14692,46.405434,-0.585139,95.7,37.0,11.792,65.6,0 / 18,1469146,2019-08-18 22:44:18:679,-0.5562,0.8939,9.9863,-0.2652,0.7076,9.7775,-0.0036,-0.0137,0.0085
14693,46.405434,-0.585139,95.7,37.0,11.792,65.6,0 / 18,1469245,2019-08-18 22:44:18:778,-0.4155,0.7868,10.4538,-0.2592,0.7033,9.778,-0.0057,-0.0083,0.0064
14694,46.405434,-0.585139,95.7,37.0,11.792,65.6,0 / 18,1469346,2019-08-18 22:44:18:879,-0.3545,0.7502,9.8618,-0.2627,0.6953,9.7784,-0.0036,0.0108,0.0096
14695,46.405434,-0.585139,95.7,37.0,11.792,65.6,0 / 18,1469446,2019-08-18 22:44:18:979,-0.0929,0.6617,8.8024,-0.2674,0.6962,9.7783,0.0018,0.0066,0.0107
14696,46.405434,-0.585139,95.7,37.0,11.792,65.6,0 / 18,1469546,2019-08-18 22:44:19:079,0.0274,0.7329,9.2148,-0.2788,0.699,9.7777,-0.0036,-0.0009,0.0085
14697,46.405434,-0.585139,95.7,37.0,11.792,65.6,0 / 18,1469646,2019-08-18 22:44:19:179,-0.1695,0.5761,10.3927,-0.2763,0.6974,9.7779,0.0028,0.0002,0.0053
14698,46.405434,-0.585139,95.7,37.0,11.792,65.6,0 / 18,1469746,2019-08-18 22:44:19:279,-0.464,0.3905,10.3664,-0.2705,0.6997,9.7779,0.0039,-0.0073,0.0032
14699,46.405434,-0.585139,95.7,37.0,11.792,65.6,0 / 18,1469846,2019-08-18 22:44:19:379,-0.4843,0.7802,9.1759,-0.2655,0.6754,9.7798,-0.0089,-0.0041,0.0043
14700,46.405434,-0.585139,95.7,37.0,11.792,65.6,0 / 18,1469945,2019-08-18 22:44:19:478,-0.2665,0.3354,9.7481,-0.2671,0.6589,9.7808,-0.0089,0.0055,0.0032
14701,46.405434,-0.585139,95.7,37.0,11.792,65.6,0 / 18,1470045,2019-08-18 22:44:19:578,-0.364,0.3396,9.8128,-0.2695,0.6491,9.7814,0.0007,0.0013,0.0022
14702,46.405434,-0.585139,95.7,37.0,11.792,65.6,0 / 18,1470145,2019-08-18 22:44:19:678,-0.142,0.4581,9.817,-0.2687,0.639,9.7821,-0.0046,-0.0009,0.0043
14703,46.405434,-0.585139,95.7,37.0,11.792,65.6,0 / 18,1470246,2019-08-18 22:44:19:779,-0.4269,0.6796,10.0384,-0.2744,0.6356,9.7822,0.0018,0.0045,0.0053
14704,46.405434,-0.585139,95.7,37.0,11.792,65.6,0 / 18,1470346,2019-08-18 22:44:19:879,-0.6232,0.4713,9.7158,-0.2811,0.6302,9.7823,0.0049,0.0055,0.0064
14705,46.405434,-0.585139,95.7,37.0,11.792,65.6,0 / 18,1470446,2019-08-18 22:44:19:979,-0.3844,0.5952,9.8708,-0.2884,0.6309,9.7821,0.006,0.0034,0.0075
14706,46.405434,-0.585139,95.7,37.0,11.792,65.6,0 / 18,1470545,2019-08-18 22:44:20:078,-0.3958,0.7808,9.6667,-0.3077,0.6146,9.7825,0.006,-0.003,0.0064
14707,46.405434,-0.585139,95.7,37.0,11.792,65.6,0 / 18,1470646,2019-08-18 22:44:20:179,-0.2114,0.518,10.0235,-0.3155,0.6191,9.782,0.0092,-0.0094,0.0085
14708,46.405434,-0.585139,95.7,37.0,11.792,65.6,0 / 18,1470745,2019-08-18 22:44:20:278,-0.2623,0.3678,10.1605,-0.3008,0.6327,9.7816,0.0049,-0.003,0.0128
14709,46.405434,-0.585139,95.7,37.0,11.792,65.6,0 / 18,1470845,2019-08-18 22:44:20:378,-0.2677,0.9035,9.5027,-0.2993,0.6342,9.7815,-0.0025,0.0045,0.0139
14710,46.405434,-0.585139,95.7,37.0,11.792,65.6,0 / 18,1470945,2019-08-18 22:44:20:478,-0.3922,1.0148,10.2258,-0.3075,0.6568,9.7798,0.0092,0.0045,0.0149
14711,46.405434,-0.585139,95.7,37.0,11.792,65.6,0 / 18,1471045,2019-08-18 22:44:20:578,-0.3575,0.758,10.036,-0.3068,0.6681,9.7791,0.0049,-0.0009,0.0128
14712,46.405434,-0.585139,95.7,37.0,11.792,65.6,0 / 18,1471146,2019-08-18 22:44:20:679,-0.1671,0.7951,10.2174,-0.2791,0.7239,9.7759,-0.0014,0.0013,0.0096
14713,46.405434,-0.585139,95.7,37.0,11.792,65.6,0 / 18,1471245,2019-08-18 22:44:20:778,-0.6154,0.9364,9.6553,-0.2767,0.7264,9.7758,-0.0036,-0.0051,0.0117
14714,46.405434,-0.585139,95.7,37.0,11.792,65.6,0 / 18,1471346,2019-08-18 22:44:20:879,-0.2455,1.1255,9.7744,-0.2749,0.7228,9.7761,-0.0004,0.0002,0.0107
14715,46.405434,-0.585139,95.7,37.0,11.792,65.6,Aug-18,1471445,2019-08-18 22:44:20:978,-0.1653,0.4749,9.6799,-0.2729,0.7213,9.7763,-0.0089,0.0023,0.0117
14716,46.405434,-0.585139,95.7,37.0,11.792,65.6,Aug-18,1471546,2019-08-18 22:44:21:079,0.0873,0.4857,10.1037,-0.2714,0.7357,9.7753,0.0145,0.0045,0.0107
14717,46.405434,-0.585139,95.7,37.0,11.792,65.6,Aug-18,1471646,2019-08-18 22:44:21:179,-0.4053,0.8227,10.3245,-0.2692,0.7521,9.7741,0.0092,0.0034,0.0085
14718,46.405434,-0.585139,95.7,37.0,11.792,65.6,Aug-18,1471745,2019-08-18 22:44:21:278,-0.297,0.6814,9.9343,-0.2776,0.7522,9.7738,-0.0014,0.0087,0.0075
14719,46.405434,-0.585139,95.7,37.0,11.792,65.6,Aug-18,1471845,2019-08-18 22:44:21:378,-0.2066,1.0615,9.8822,-0.2877,0.7544,9.7734,0.0028,0.0045,0.0117
14720,46.405434,-0.585139,95.7,37.0,11.792,65.6,Aug-18,1471946,2019-08-18 22:44:21:479,-0.4466,0.7293,9.8086,-0.2916,0.76,9.7728,0.006,-0.0051,0.0139
14721,46.405434,-0.585139,95.7,37.0,11.792,65.6,Aug-18,1472046,2019-08-18 22:44:21:579,-0.1982,0.7664,10.6429,-0.2865,0.76,9.773,-0.01,-0.0094,0.0139
14722,46.405434,-0.585139,95.7,37.0,11.792,65.6,Aug-18,1472145,2019-08-18 22:44:21:678,-0.4029,0.8101,9.9289,-0.2912,0.7664,9.7723,0.0007,0.0055,0.0128
14723,46.405434,-0.585139,95.7,37.0,11.792,65.6,Aug-18,1472245,2019-08-18 22:44:21:778,-0.6136,1.338,10.3682,-0.2996,0.7717,9.7716,-0.0057,0.0013,0.0149
14724,46.405434,-0.585139,95.7,37.0,11.792,65.6,Aug-18,1472346,2019-08-18 22:44:21:879,-0.4574,0.8334,10.3407,-0.295,0.7661,9.7722,-0.011,-0.0083,0.0117
14725,46.4068,-0.581366,88.0,38.46,8.576,60.8,0 / 18,1472445,2019-08-18 22:44:21:978,-0.0654,0.8969,10.2868,-0.2926,0.7771,9.7714,0.006,-0.003,0.0128
14726,46.4068,-0.581366,88.0,38.46,8.576,60.8,0 / 18,1472545,2019-08-18 22:44:22:078,-0.9674,0.9107,9.4016,-0.297,0.779,9.7711,-0.0046,0.0023,0.0107
14727,46.4068,-0.581366,88.0,38.46,8.576,60.8,0 / 18,1472645,2019-08-18 22:44:22:178,-0.5849,0.8149,9.0215,-0.2982,0.7732,9.7716,-0.0089,0.0013,0.0107
14728,46.4068,-0.581366,88.0,38.46,8.576,60.8,0 / 18,1472745,2019-08-18 22:44:22:278,0.1579,0.2989,9.3094,-0.3069,0.7767,9.771,0.0081,0.0151,0.0096
14729,46.4068,-0.581366,88.0,38.46,8.576,60.8,0 / 18,1472845,2019-08-18 22:44:22:378,-0.54,0.8664,9.705,-0.314,0.7869,9.77,0.0028,-0.0051,0.0117
14730,46.4068,-0.581366,88.0,38.46,8.576,60.8,0 / 18,1472945,2019-08-18 22:44:22:478,-0.5358,0.9376,10.6555,-0.3095,0.7857,9.7702,-0.0014,-0.0062,0.0096
14731,46.4068,-0.581366,88.0,38.46,8.576,60.8,0 / 18,1473045,2019-08-18 22:44:22:578,-0.2611,0.7323,10.3066,-0.3019,0.7859,9.7704,-0.0068,-0.0051,0.0107
14732,46.4068,-0.581366,88.0,38.46,8.576,60.8,0 / 18,1473145,2019-08-18 22:44:22:678,-0.5711,1.3368,9.5428,-0.3091,0.7905,9.7698,0.006,0.0098,0.0117
14733,46.4068,-0.581366,88.0,38.46,8.576,60.8,0 / 18,1473246,2019-08-18 22:44:22:779,-0.643,0.8831,10.1797,-0.3426,0.7844,9.7692,-0.0014,0.0076,0.0128
14734,46.4068,-0.581366,88.0,38.46,8.576,60.8,0 / 18,1473345,2019-08-18 22:44:22:878,-0.1037,0.2678,9.1316,-0.3497,0.7887,9.7686,0.0039,0.0055,0.0096
14735,46.4068,-0.581366,88.0,38.46,8.576,60.8,0 / 18,1473446,2019-08-18 22:44:22:979,-0.3988,0.7868,8.8832,-0.3475,0.7921,9.7684,-0.0046,-0.0115,0.0085
14736,46.4068,-0.581366,88.0,38.46,8.576,60.8,0 / 18,1473545,2019-08-18 22:44:23:078,-0.7399,1.2722,9.6721,-0.3416,0.7864,9.7691,-0.0057,-0.0105,0.0096
14737,46.4068,-0.581366,88.0,38.46,8.576,60.8,0 / 18,1473646,2019-08-18 22:44:23:179,-0.3263,0.3319,9.7332,-0.351,0.7841,9.7689,0.0028,0.014,0.0107
14738,46.4068,-0.581366,88.0,38.46,8.576,60.8,0 / 18,1473746,2019-08-18 22:44:23:279,-0.0923,0.7892,9.465,-0.3648,0.7911,9.7679,0.0092,0.0162,0.0107
14739,46.4068,-0.581366,88.0,38.46,8.576,60.8,0 / 18,1473846,2019-08-18 22:44:23:379,-0.7244,0.9609,9.6015,-0.3684,0.7855,9.7682,-0.0014,-0.0094,0.0085
14740,46.4068,-0.581366,88.0,38.46,8.576,60.8,0 / 18,1473946,2019-08-18 22:44:23:479,-0.1426,0.5994,10.7291,-0.3629,0.7902,9.768,0.0113,-0.0051,0.0107
14741,46.4068,-0.581366,88.0,38.46,8.576,60.8,0 / 18,1474046,2019-08-18 22:44:23:579,-0.2198,0.9867,10.1031,-0.3664,0.7995,9.7671,0.0124,-0.003,0.0096
14742,46.4068,-0.581366,88.0,38.46,8.576,60.8,0 / 18,1474145,2019-08-18 22:44:23:678,-0.7196,1.1339,10.6274,-0.3678,0.7968,9.7673,-0.0068,-0.0009,0.0085
14743,46.4068,-0.581366,88.0,38.46,8.576,60.8,0 / 18,1474246,2019-08-18 22:44:23:779,-0.6298,0.6048,9.7158,-0.3772,0.7895,9.7675,-0.0089,0.0045,0.0075
14744,46.4068,-0.581366,88.0,38.46,8.576,60.8,0 / 18,1474346,2019-08-18 22:44:23:879,-0.3946,0.6449,9.9049,-0.3756,0.7834,9.7681,-0.0004,0.0013,0.0085
14745,46.4068,-0.581366,88.0,38.46,8.576,60.8,0 / 18,1474445,2019-08-18 22:44:23:978,-0.7238,0.8322,9.319,-0.381,0.7877,9.7675,0.0071,-0.0051,0.0107
14746,46.4068,-0.581366,88.0,38.46,8.576,60.8,0 / 18,1474546,2019-08-18 22:44:24:079,-0.4957,0.9071,9.8606,-0.3832,0.7918,9.7671,0.0028,0.0076,0.0096
14747,46.4068,-0.581366,88.0,38.46,8.576,60.8,0 / 18,1474645,2019-08-18 22:44:24:178,-0.4604,0.9226,9.8768,-0.3827,0.7973,9.7667,0.006,-0.0051,0.0075
14748,46.4068,-0.581366,88.0,38.46,8.576,60.8,0 / 18,1474746,2019-08-18 22:44:24:279,-0.4293,0.767,9.8565,-0.3802,0.7932,9.7671,-0.0078,-0.0051,0.0096
14749,46.4068,-0.581366,88.0,38.46,8.576,60.8,0 / 18,1474846,2019-08-18 22:44:24:379,-0.5969,1.0405,9.5536,-0.3816,0.7827,9.7679,-0.0153,0.0002,0.0096
14750,46.4068,-0.581366,88.0,38.46,8.576,60.8,0 / 18,1474945,2019-08-18 22:44:24:478,-0.2778,0.7909,9.7068,-0.3795,0.7696,9.769,-0.0121,-0.0062,0.0107
14751,46.4068,-0.581366,88.0,38.46,8.576,60.8,0 / 18,1475045,2019-08-18 22:44:24:578,-0.1354,0.7347,9.4111,-0.3871,0.7734,9.7684,0.006,0.014,0.0117
14752,46.4068,-0.581366,88.0,38.46,8.576,60.8,0 / 18,1475146,2019-08-18 22:44:24:679,-0.6651,0.6503,9.4453,-0.3934,0.7743,9.7681,0.0049,0.0055,0.0096
14753,46.4068,-0.581366,88.0,38.46,8.576,60.8,0 / 18,1475246,2019-08-18 22:44:24:779,-0.4538,0.7879,9.392,-0.3872,0.7842,9.7676,0.0039,-0.0073,0.0107
14754,46.4068,-0.581366,88.0,38.46,8.576,60.8,0 / 18,1475346,2019-08-18 22:44:24:879,-0.0624,1.1788,9.9295,-0.3812,0.7856,9.7677,-0.0025,-0.0073,0.0085
14755,46.4068,-0.581366,88.0,38.46,8.576,60.8,0 / 18,1475445,2019-08-18 22:44:24:978,-0.792,0.7802,10.4203,-0.379,0.7597,9.7698,-0.027,0.0023,0.0085
14756,46.4068,-0.581366,88.0,38.46,8.576,60.8,0 / 18,1475546,2019-08-18 22:44:25:079,-0.4257,0.3336,9.8589,-0.3891,0.766,9.7689,0.0167,0.0045,0.0128
14757,46.4068,-0.581366,88.0,38.46,8.576,60.8,0 / 18,1475646,2019-08-18 22:44:25:179,-0.5628,1.1046,9.4872,-0.3993,0.7739,9.7679,0.006,0.013,0.0139
14758,46.4068,-0.581366,88.0,38.46,8.576,60.8,0 / 18,1475747,2019-08-18 22:44:25:280,-0.6268,0.7275,9.8517,-0.4027,0.7706,9.768,-0.011,-0.0041,0.0107
14759,46.4068,-0.581366,88.0,38.46,8.576,60.8,0 / 18,1475846,2019-08-18 22:44:25:379,-0.7639,0.9226,9.3375,-0.404,0.7879,9.7666,0.0199,-0.003,0.0117
14760,46.4068,-0.581366,88.0,38.46,8.576,60.8,0 / 18,1475946,2019-08-18 22:44:25:479,-0.4221,0.9106,9.4171,-0.3968,0.7888,9.7668,-0.0121,-0.0041,0.0085
14761,46.4068,-0.581366,88.0,38.46,8.576,60.8,0 / 18,1476046,2019-08-18 22:44:25:579,-0.5412,0.6862,9.4656,-0.3989,0.7797,9.7675,-0.011,-0.0009,0.0075
14762,46.4068,-0.581366,88.0,38.46,8.576,60.8,0 / 18,1476146,2019-08-18 22:44:25:679,-0.3144,0.3779,9.5835,-0.394,0.7574,9.7694,0.0018,0.0023,0.0075
14763,46.4068,-0.581366,88.0,38.46,8.576,60.8,0 / 18,1476246,2019-08-18 22:44:25:779,-0.5813,0.8221,9.6434,-0.4059,0.7713,9.7678,0.0135,0.0034,0.0096
14764,46.4068,-0.581366,88.0,38.46,8.576,60.8,0 / 18,1476345,2019-08-18 22:44:25:878,-0.2437,0.8322,9.4806,-0.4152,0.7689,9.7676,-0.0014,0.0151,0.0107
14765,46.4068,-0.581366,88.0,38.46,8.576,60.8,0 / 18,1476445,2019-08-18 22:44:25:978,-0.8842,0.6886,9.5554,-0.4252,0.7723,9.7669,0.0135,-0.0041,0.0075
14766,46.4068,-0.581366,88.0,38.46,8.576,60.8,0 / 18,1476546,2019-08-18 22:44:26:079,-0.8884,0.9448,9.7733,-0.4474,0.7714,9.766,-0.0014,0.0023,0.0043
14767,46.4068,-0.581366,88.0,38.46,8.576,60.8,0 / 18,1476645,2019-08-18 22:44:26:178,-0.8381,0.518,9.8092,-0.4687,0.7626,9.7657,-0.0046,0.013,0.0022
14768,46.4068,-0.581366,88.0,38.46,8.576,60.8,0 / 18,1476745,2019-08-18 22:44:26:278,-0.8686,0.6802,9.8702,-0.4863,0.745,9.7662,-0.0132,0.0002,0.0043
14769,46.4068,-0.581366,88.0,38.46,8.576,60.8,0 / 18,1476845,2019-08-18 22:44:26:378,-0.895,0.5491,9.7481,-0.5905,0.7037,9.7635,-0.0142,-0.0041,0.0032
14770,46.4068,-0.581366,88.0,38.46,8.576,60.8,0 / 18,1476946,2019-08-18 22:44:26:479,-0.9153,0.7754,9.9456,-0.5978,0.6905,9.764,-0.01,-0.0062,0.0053
14771,46.4068,-0.581366,88.0,38.46,8.576,60.8,0 / 18,1477046,2019-08-18 22:44:26:579,-0.9093,0.3851,9.4273,-0.6174,0.6912,9.7628,0.0071,-0.0009,0.0139
14772,46.4068,-0.581366,88.0,38.46,8.576,60.8,0 / 18,1477146,2019-08-18 22:44:26:679,-1.2732,0.7113,8.9131,-0.6441,0.7104,9.7597,0.0145,0.0034,0.0181
14773,46.4068,-0.581366,88.0,38.46,8.576,60.8,0 / 18,1477246,2019-08-18 22:44:26:779,-1.4402,1.2722,9.6709,-0.6674,0.7222,9.7572,0.0071,0.014,0.0171
14774,46.4068,-0.581366,88.0,38.46,8.576,60.8,0 / 18,1477345,2019-08-18 22:44:26:878,-0.9925,0.7712,10.4418,-0.6851,0.7194,9.7562,-0.0142,-0.003,0.0117
14775,46.4068,-0.581366,88.0,38.46,8.576,60.8,0 / 18,1477446,2019-08-18 22:44:26:979,-1.2726,1.0298,9.6422,-0.7704,0.7293,9.7491,-0.011,0.0034,0.0096
14776,46.4068,-0.581366,88.0,38.46,8.576,60.8,0 / 18,1477546,2019-08-18 22:44:27:079,-1.0799,0.9711,9.7266,-0.8233,0.7484,9.7433,0.0039,-0.0009,0.0117
14777,46.4068,-0.581366,88.0,38.46,8.576,60.8,0 / 18,1477646,2019-08-18 22:44:27:179,-1.0685,0.8364,9.9522,-0.8336,0.755,9.7419,0.0081,-0.0009,0.0128
14778,46.4068,-0.581366,88.0,38.46,8.576,60.8,0 / 18,1477746,2019-08-18 22:44:27:279,-1.0057,0.4055,9.2088,-0.8755,0.7696,9.7371,0.0156,-0.003,0.0107
14779,46.4068,-0.581366,88.0,38.46,8.576,60.8,0 / 18,1477845,2019-08-18 22:44:27:378,-0.9542,0.7113,9.1544,-0.9285,0.7762,9.7317,-0.0078,0.0034,0.0096
14780,46.4068,-0.581366,88.0,38.46,8.576,60.8,0 / 18,1477946,2019-08-18 22:44:27:479,-1.1188,1.0184,9.5278,-0.9733,0.7533,9.7291,-0.01,0.0013,0.0085
14781,46.4068,-0.581366,88.0,38.46,8.576,60.8,0 / 18,1478045,2019-08-18 22:44:27:578,-0.9698,0.588,9.7828,-1.0035,0.7373,9.7273,-0.0078,-0.0105,0.0096
14782,46.4068,-0.581366,88.0,38.46,8.576,60.8,0 / 18,1478145,2019-08-18 22:44:27:678,-1.053,0.1816,9.4201,-1.0325,0.727,9.725,-0.0121,-0.0009,0.0117
14783,46.4068,-0.581366,88.0,38.46,8.576,60.8,0 / 18,1478245,2019-08-18 22:44:27:778,-1.0757,0.5006,9.5596,-1.0439,0.7273,9.7238,0.0028,0.0013,0.0139
14784,46.4068,-0.581366,88.0,38.46,8.576,60.8,0 / 18,1478346,2019-08-18 22:44:27:879,-1.2385,1.0866,9.6194,-1.0635,0.7329,9.7212,0.0028,0.0098,0.0139
14785,46.4068,-0.581366,88.0,38.46,8.576,60.8,0 / 18,1478446,2019-08-18 22:44:27:979,-0.9716,0.7012,9.723,-1.0709,0.7367,9.7201,0.0103,0.0034,0.0117
14786,46.4068,-0.581366,88.0,38.46,8.576,60.8,0 / 18,1478546,2019-08-18 22:44:28:079,-1.3588,0.3857,9.4339,-1.0752,0.7525,9.7184,0.0018,0.0034,0.0085
14787,46.4068,-0.581366,88.0,38.46,8.576,60.8,0 / 18,1478646,2019-08-18 22:44:28:179,-1.144,1.0058,10.1755,-1.0764,0.7461,9.7188,-0.0046,-0.0019,0.0053
14788,46.4068,-0.581366,88.0,38.46,8.576,60.8,0 / 18,1478745,2019-08-18 22:44:28:278,-1.1535,0.5432,10.3269,-1.0718,0.7352,9.7201,0.0007,0.0013,0.0085
14789,46.4068,-0.581366,88.0,38.46,8.576,60.8,0 / 18,1478846,2019-08-18 22:44:28:379,-1.0997,0.6293,9.122,-1.0686,0.7262,9.7212,-0.0121,-0.0094,0.0117
14790,46.4068,-0.581366,88.0,38.46,8.576,60.8,0 / 18,1478945,2019-08-18 22:44:28:478,-0.9973,0.8873,9.6595,-1.0676,0.7151,9.7221,0.0028,-0.0051,0.0128
14791,46.4068,-0.581366,88.0,38.46,8.576,60.8,0 / 18,1479045,2019-08-18 22:44:28:578,-1.2349,0.9214,9.4423,-1.0735,0.7169,9.7213,-0.0004,0.0034,0.016
14792,46.4068,-0.581366,88.0,38.46,8.576,60.8,0 / 18,1479146,2019-08-18 22:44:28:679,-1.2427,0.442,9.705,-1.0782,0.7452,9.7187,0.0167,0.0034,0.0128
14793,46.4068,-0.581366,88.0,38.46,8.576,60.8,0 / 18,1479245,2019-08-18 22:44:28:778,-1.029,0.5288,9.8253,-1.0658,0.7621,9.7187,0.0081,0.0076,0.0117
14794,46.4068,-0.581366,88.0,38.46,8.576,60.8,0 / 18,1479346,2019-08-18 22:44:28:879,-0.9392,0.6347,9.5464,-1.0903,0.7763,9.7149,-0.0014,0.0076,0.0117
14795,46.4068,-0.581366,88.0,38.46,8.576,60.8,0 / 18,1479446,2019-08-18 22:44:28:979,-1.381,1.083,9.2471,-1.0937,0.7847,9.7138,0.0113,0.0023,0.0128
14796,46.4068,-0.581366,88.0,38.46,8.576,60.8,0 / 18,1479545,2019-08-18 22:44:29:078,-1.1577,0.9831,10.1186,-1.0977,0.7838,9.7134,-0.0068,0.0045,0.0117
14797,46.4068,-0.581366,88.0,38.46,8.576,60.8,0 / 18,1479645,2019-08-18 22:44:29:178,-1.0117,0.4612,9.981,-1.0893,0.7838,9.7144,0.0081,-0.0158,0.0117
14798,46.4068,-0.581366,88.0,38.46,8.576,60.8,0 / 18,1479746,2019-08-18 22:44:29:279,-0.8979,0.5491,9.6607,-1.0769,0.7829,9.7159,-0.01,-0.019,0.0107
14799,46.4068,-0.581366,88.0,38.46,8.576,60.8,0 / 18,1479846,2019-08-18 22:44:29:379,-1.1392,0.9298,9.0658,-1.0807,0.7674,9.7167,-0.01,0.0098,0.0107
14800,46.4068,-0.581366,88.0,38.46,8.576,60.8,0 / 18,1479946,2019-08-18 22:44:29:479,-0.9261,0.8155,9.8553,-1.0895,0.766,9.7158,-0.0014,0.014,0.0139
14801,46.4068,-0.581366,88.0,38.46,8.576,60.8,0 / 18,1480045,2019-08-18 22:44:29:578,-1.0769,0.7113,10.461,-1.0955,0.7647,9.7152,0.0028,0.0034,0.0171
14802,46.4068,-0.581366,88.0,38.46,8.576,60.8,0 / 18,1480146,2019-08-18 22:44:29:679,-1.0177,0.9166,9.2028,-1.1034,0.7744,9.7136,0.0039,0.0087,0.0139
14803,46.4068,-0.581366,88.0,38.46,8.576,60.8,0 / 18,1480245,2019-08-18 22:44:29:778,-1.199,1.0322,9.9965,-1.0999,0.7902,9.7127,0.0007,-0.0083,0.0096
14804,46.4068,-0.581366,88.0,38.46,8.576,60.8,0 / 18,1480345,2019-08-18 22:44:29:878,-1.4959,0.9573,9.2794,-1.0983,0.797,9.7123,-0.0025,0.0002,0.0085
14805,46.4068,-0.581366,88.0,38.46,8.576,60.8,13 / 18,1480445,2019-08-18 22:44:29:978,-1.3846,0.5791,10.0857,-1.0896,0.7879,9.714,-0.0068,0.0023,0.0075
14806,46.4068,-0.581366,88.0,38.46,8.576,60.8,13 / 18,1480545,2019-08-18 22:44:30:078,-1.2212,0.7347,9.8475,-1.0921,0.7857,9.7139,-0.0014,-0.0019,0.0107
14807,46.4068,-0.581366,88.0,38.46,8.576,60.8,13 / 18,1480646,2019-08-18 22:44:30:179,-0.8722,0.673,9.7499,-1.0795,0.771,9.7165,-0.0185,-0.0115,0.0107
14808,46.4068,-0.581366,88.0,38.46,8.576,60.8,13 / 18,1480746,2019-08-18 22:44:30:279,-1.0488,0.7305,9.5207,-1.0857,0.7581,9.7168,-0.0014,0.0076,0.0117
14809,46.4068,-0.581366,88.0,38.46,8.576,60.8,13 / 18,1480845,2019-08-18 22:44:30:378,-1.5091,1.022,9.7888,-1.0966,0.7667,9.7149,0.0177,0.0023,0.0139
14810,46.4068,-0.581366,88.0,38.46,8.576,60.8,13 / 18,1480945,2019-08-18 22:44:30:478,-1.5839,0.4641,9.1915,-1.0898,0.7684,9.7156,0.0018,-0.0126,0.0128
14811,46.4068,-0.581366,88.0,38.46,8.576,60.8,13 / 18,1481046,2019-08-18 22:44:30:579,-1.123,0.6826,10.0115,-1.0774,0.7699,9.7168,0.0018,-0.0051,0.0107
14812,46.4068,-0.581366,88.0,38.46,8.576,60.8,13 / 18,1481146,2019-08-18 22:44:30:679,-1.0224,0.8975,9.5925,-1.0875,0.7609,9.7164,-0.0121,0.0076,0.0085
14813,46.4068,-0.581366,88.0,38.46,8.576,60.8,13 / 18,1481245,2019-08-18 22:44:30:778,-0.7501,0.7239,10.1444,-1.0834,0.7544,9.7174,-0.01,-0.0041,0.0085
14814,46.4068,-0.581366,88.0,38.46,8.576,60.8,13 / 18,1481345,2019-08-18 22:44:30:878,-0.9746,0.7419,9.0329,-1.0821,0.747,9.7181,0.0007,0.0002,0.0107
14815,46.4068,-0.581366,88.0,38.46,8.576,60.8,13 / 18,1481446,2019-08-18 22:44:30:979,-1.2427,0.8729,9.9432,-1.0845,0.7462,9.7179,0.0007,0.0002,0.0117
14816,46.4068,-0.581366,88.0,38.46,8.576,60.8,13 / 18,1481546,2019-08-18 22:44:31:079,-1.1709,0.767,9.8307,-1.0754,0.735,9.7198,-0.0217,-0.0062,0.0096
14817,46.4068,-0.581366,88.0,38.46,8.576,60.8,13 / 18,1481645,2019-08-18 22:44:31:178,-0.9626,0.3295,9.8487,-1.0573,0.7129,9.7234,0.0007,-0.0126,0.0064
14818,46.4068,-0.581366,88.0,38.46,8.576,60.8,13 / 18,1481746,2019-08-18 22:44:31:279,-0.6902,0.5491,9.963,-1.0541,0.7094,9.724,-0.0036,0.0023,0.0064
14819,46.4068,-0.581366,88.0,38.46,8.576,60.8,13 / 18,1481846,2019-08-18 22:44:31:379,-1.1422,0.606,9.292,-1.0657,0.6974,9.7236,-0.0025,0.0108,0.0085
14820,46.4068,-0.581366,88.0,38.46,8.576,60.8,13 / 18,1481945,2019-08-18 22:44:31:478,-1.1409,0.5096,9.7403,-1.0659,0.6922,9.7239,-0.0014,-0.003,0.0117
14821,46.4068,-0.581366,88.0,38.46,8.576,60.8,13 / 18,1482046,2019-08-18 22:44:31:579,-1.2726,0.9657,10.2,-1.0688,0.6691,9.7252,-0.0004,-0.0009,0.0096
14822,46.4068,-0.581366,88.0,38.46,8.576,60.8,13 / 18,1482145,2019-08-18 22:44:31:678,-1.4648,0.451,10.5364,-1.068,0.6501,9.7266,-0.0046,-0.0126,0.0085
14823,46.4068,-0.581366,88.0,38.46,8.576,60.8,13 / 18,1482246,2019-08-18 22:44:31:779,-1.2714,0.5785,9.6188,-1.05,0.6408,9.7292,-0.0014,0.0013,0.0085
14824,46.4068,-0.581366,88.0,38.46,8.576,60.8,13 / 18,1482345,2019-08-18 22:44:31:878,-0.8632,0.5216,8.7234,-1.0479,0.6337,9.7299,-0.01,-0.0009,0.0085
14825,46.4068,-0.581366,88.0,38.46,8.576,60.8,13 / 18,1482446,2019-08-18 22:44:31:979,-0.704,0.4486,9.9091,-1.0442,0.6288,9.7306,-0.0068,0.0034,0.0117
14826,46.4068,-0.581366,88.0,38.46,8.576,60.8,13 / 18,1482545,2019-08-18 22:44:32:078,-0.4478,0.7227,9.3471,-1.0403,0.6232,9.7314,-0.0142,0.0002,0.0117
14827,46.4068,-0.581366,88.0,38.46,8.576,60.8,13 / 18,1482645,2019-08-18 22:44:32:178,-0.8417,0.6664,9.7403,-1.0224,0.6302,9.7328,-0.0004,-0.0051,0.0128
14828,46.4068,-0.581366,88.0,38.46,8.576,60.8,13 / 18,1482746,2019-08-18 22:44:32:279,-0.7423,0.7927,9.7535,-1.0197,0.6357,9.7328,0.0103,0.0045,0.0128
14829,46.4068,-0.581366,88.0,38.46,8.576,60.8,13 / 18,1482846,2019-08-18 22:44:32:379,-0.9859,0.8508,10.5705,-1.0132,0.6427,9.733,-0.0014,-0.0041,0.0139
14830,46.4068,-0.581366,88.0,38.46,8.576,60.8,13 / 18,1482946,2019-08-18 22:44:32:479,-1.1673,0.454,10.0654,-1.0077,0.6425,9.7336,-0.0014,0.0002,0.0128
14831,46.4068,-0.581366,88.0,38.46,8.576,60.8,13 / 18,1483045,2019-08-18 22:44:32:578,-1.3714,0.4803,9.3309,-1.0104,0.6522,9.7326,0.0039,0.0002,0.0117
14832,46.4068,-0.581366,88.0,38.46,8.576,60.8,13 / 18,1483146,2019-08-18 22:44:32:679,-0.546,0.7646,9.2082,-1.001,0.6474,9.7339,-0.0089,-0.0009,0.0096
14833,46.4068,-0.581366,88.0,38.46,8.576,60.8,13 / 18,1483246,2019-08-18 22:44:32:779,-0.6771,0.5515,10.0636,-0.984,0.6448,9.7358,0.0018,-0.0073,0.0107
14834,46.4068,-0.581366,88.0,38.46,8.576,60.8,13 / 18,1483345,2019-08-18 22:44:32:878,-0.728,0.582,10.0324,-0.9816,0.6542,9.7354,0.0177,0.0108,0.0107
14835,46.4068,-0.581366,88.0,38.46,8.576,60.8,13 / 18,1483446,2019-08-18 22:44:32:979,-1.0643,0.7646,10.1384,-0.9826,0.6561,9.7352,-0.0068,0.0034,0.0085
14836,46.4068,-0.581366,88.0,38.46,8.576,60.8,13 / 18,1483545,2019-08-18 22:44:33:078,-0.877,0.679,10.0839,-0.9692,0.6503,9.7369,0.0007,-0.003,0.0085
14837,46.4068,-0.581366,88.0,38.46,8.576,60.8,13 / 18,1483645,2019-08-18 22:44:33:178,-0.7226,0.3522,10.2425,-0.9574,0.6511,9.7381,0.0007,-0.0073,0.0107
14838,46.4068,-0.581366,88.0,38.46,8.576,60.8,13 / 18,1483745,2019-08-18 22:44:33:278,-0.8447,0.4923,10.0564,-0.9462,0.6564,9.7388,0.0092,0.0002,0.0075
14839,46.4068,-0.581366,88.0,38.46,8.576,60.8,13 / 18,1483846,2019-08-18 22:44:33:379,-0.5927,0.7885,9.5572,-0.9059,0.656,9.7427,-0.0004,-0.003,0.0085
14840,46.4068,-0.581366,88.0,38.46,8.576,60.8,13 / 18,1483946,2019-08-18 22:44:33:479,-0.4802,0.6593,9.6152,-0.8457,0.6405,9.7491,0.0007,-0.0009,0.0075
14841,46.4068,-0.581366,88.0,38.46,8.576,60.8,13 / 18,1484046,2019-08-18 22:44:33:579,-0.3976,0.7808,9.8283,-0.77,0.6317,9.7559,0.0028,0.0045,0.0085
14842,46.4068,-0.581366,88.0,38.46,8.576,60.8,13 / 18,1484145,2019-08-18 22:44:33:678,-0.5226,0.7562,9.9343,-0.6834,0.6165,9.7634,0.0007,-0.003,0.0085
14843,46.4068,-0.581366,88.0,38.46,8.576,60.8,13 / 18,1484245,2019-08-18 22:44:33:778,0.0514,0.5108,10.1659,-0.6257,0.624,9.7668,0.0092,-0.0105,0.0107
14844,46.4068,-0.581366,88.0,38.46,8.576,60.8,13 / 18,1484345,2019-08-18 22:44:33:878,-0.1839,0.503,10.0755,-0.5722,0.6183,9.7704,0.006,-0.003,0.0064
14845,46.4068,-0.581366,88.0,38.46,8.576,60.8,13 / 18,1484445,2019-08-18 22:44:33:978,-0.0791,0.4587,10.1809,-0.5076,0.6013,9.775,-0.0036,0.0023,-0.0011
14846,46.4068,-0.581366,88.0,38.46,8.576,60.8,13 / 18,1484545,2019-08-18 22:44:34:078,-0.4185,0.3504,9.4943,-0.4357,0.5719,9.7803,-0.0014,-0.0083,-0.0011
14847,46.4068,-0.581366,88.0,38.46,8.576,60.8,13 / 18,1484646,2019-08-18 22:44:34:179,-0.3024,0.2738,9.5296,-0.3912,0.5334,9.7843,-0.0025,-0.0019,-0.0011
14848,46.4068,-0.581366,88.0,38.46,8.576,60.8,13 / 18,1484746,2019-08-18 22:44:34:279,-0.2773,0.4276,9.8792,-0.3721,0.5105,9.7863,0.0007,-0.0019,0.0
14849,46.4068,-0.581366,88.0,38.46,8.576,60.8,13 / 18,1484845,2019-08-18 22:44:34:378,-0.1869,0.4839,10.6771,-0.3362,0.4883,9.7887,-0.0153,-0.003,0.0011
14850,46.4068,-0.581366,88.0,38.46,8.576,60.8,13 / 18,1484945,2019-08-18 22:44:34:478,-0.2731,0.5162,10.145,-0.3309,0.4777,9.7894,-0.0046,0.0013,-0.0021
14851,46.4068,-0.581366,88.0,38.46,8.576,60.8,13 / 18,1485046,2019-08-18 22:44:34:579,-0.0935,0.2145,9.5877,-0.3279,0.4775,9.7895,0.0113,0.0002,-0.0011
14852,46.4068,-0.581366,88.0,38.46,8.576,60.8,13 / 18,1485146,2019-08-18 22:44:34:679,0.268,0.0685,10.3209,-0.318,0.4636,9.7905,-0.011,-0.0062,-0.0032
14853,46.4068,-0.581366,88.0,38.46,8.576,60.8,13 / 18,1485246,2019-08-18 22:44:34:779,0.034,0.2534,10.5173,-0.3119,0.4529,9.7912,-0.0025,0.0002,-0.0064
14854,46.4068,-0.581366,88.0,38.46,8.576,60.8,13 / 18,1485346,2019-08-18 22:44:34:879,-0.2078,0.1248,9.5015,-0.3032,0.4412,9.792,-0.0068,0.0013,-0.0032
14855,46.4068,-0.581366,88.0,38.46,8.576,60.8,13 / 18,1485445,2019-08-18 22:44:34:978,-0.3192,0.4432,9.9474,-0.2995,0.4279,9.7927,-0.0068,0.0023,-0.0042
14856,46.4068,-0.581366,88.0,38.46,8.576,60.8,13 / 18,1485545,2019-08-18 22:44:35:078,-0.5831,0.5348,9.9127,-0.2962,0.4205,9.7932,0.0018,-0.0009,-0.0021
14857,46.4068,-0.581366,88.0,38.46,8.576,60.8,13 / 18,1485646,2019-08-18 22:44:35:179,-0.5394,0.3378,9.7445,-0.2912,0.3931,9.7944,0.0007,0.0076,0.0011
14858,46.4068,-0.581366,88.0,38.46,8.576,60.8,13 / 18,1485746,2019-08-18 22:44:35:279,-0.5286,0.4953,10.276,-0.3142,0.3788,9.7943,0.0145,0.0055,0.0053
14859,46.4068,-0.581366,88.0,38.46,8.576,60.8,13 / 18,1485846,2019-08-18 22:44:35:379,-0.2545,0.3648,9.9433,-0.3199,0.3872,9.7938,0.0039,-0.0009,0.0085
14860,46.4068,-0.581366,88.0,38.46,8.576,60.8,13 / 18,1485946,2019-08-18 22:44:35:479,-0.4053,0.2505,10.2108,-0.3256,0.3873,9.7936,-0.0068,0.0013,0.0053
14861,46.4068,-0.581366,88.0,38.46,8.576,60.8,13 / 18,1486046,2019-08-18 22:44:35:579,-0.5556,0.5455,9.3208,-0.3377,0.3949,9.7929,0.0018,0.0045,0.0053
14862,46.4068,-0.581366,88.0,38.46,8.576,60.8,13 / 18,1486146,2019-08-18 22:44:35:679,-0.3736,0.5414,9.559,-0.3947,0.4374,9.7889,-0.0004,-0.003,0.0075
14863,46.4068,-0.581366,88.0,38.46,8.576,60.8,13 / 18,1486246,2019-08-18 22:44:35:779,-0.6861,0.773,9.6296,-0.4097,0.4511,9.7877,0.0039,-0.0062,0.0075
14864,46.4068,-0.581366,88.0,38.46,8.576,60.8,13 / 18,1486346,2019-08-18 22:44:35:879,-0.4849,0.7095,9.802,-0.4192,0.4548,9.7871,-0.0014,0.0013,0.0064
14865,46.4068,-0.581366,88.0,38.46,8.576,60.8,13 / 18,1486446,2019-08-18 22:44:35:979,-0.5562,0.685,10.6837,-0.4182,0.4592,9.787,-0.0014,-0.0083,0.0085
14866,46.4068,-0.581366,88.0,38.46,8.576,60.8,13 / 18,1486546,2019-08-18 22:44:36:079,-0.306,0.2899,10.4819,-0.4212,0.4682,9.7864,0.0081,-0.0009,0.0075
14867,46.4068,-0.581366,88.0,38.46,8.576,60.8,13 / 18,1486646,2019-08-18 22:44:36:179,-0.391,0.4677,10.2018,-0.4332,0.4962,9.7845,0.0049,-0.0051,0.0064
14868,46.4068,-0.581366,88.0,38.46,8.576,60.8,13 / 18,1486746,2019-08-18 22:44:36:279,-0.5083,0.2229,10.1701,-0.4263,0.494,9.7849,-0.01,-0.0009,0.0043
14869,46.4068,-0.581366,88.0,38.46,8.576,60.8,13 / 18,1486846,2019-08-18 22:44:36:379,-0.3114,0.4522,9.4674,-0.4294,0.4912,9.7849,-0.0068,0.0045,0.0032
14870,46.4068,-0.581366,88.0,38.46,8.576,60.8,13 / 18,1486945,2019-08-18 22:44:36:478,-0.364,0.8867,9.6499,-0.4342,0.483,9.7851,-0.0057,0.0055,0.0053
14871,46.4068,-0.581366,88.0,38.46,8.576,60.8,13 / 18,1487046,2019-08-18 22:44:36:579,-0.5903,0.8717,10.2467,-0.4315,0.4864,9.7851,-0.0014,-0.003,0.0075
14872,46.4068,-0.581366,88.0,38.46,8.576,60.8,13 / 18,1487145,2019-08-18 22:44:36:678,-0.6088,0.4923,9.4201,-0.4264,0.488,9.7852,-0.0036,0.0055,0.0075
14873,46.4068,-0.581366,88.0,38.46,8.576,60.8,13 / 18,1487245,2019-08-18 22:44:36:778,-0.3257,0.4971,9.6966,-0.4201,0.4853,9.7856,-0.0057,-0.0062,0.0064
14874,46.4068,-0.581366,88.0,38.46,8.576,60.8,13 / 18,1487346,2019-08-18 22:44:36:879,-0.2348,0.3552,10.4251,-0.4214,0.4871,9.7855,-0.0025,0.0076,0.0043
14875,46.4068,-0.581366,88.0,38.46,8.576,60.8,13 / 18,1487446,2019-08-18 22:44:36:979,-0.2928,0.4228,9.3878,-0.418,0.4948,9.7852,0.0071,-0.0041,0.0085
14876,46.4068,-0.581366,88.0,38.46,8.576,60.8,13 / 18,1487546,2019-08-18 22:44:37:079,-0.0438,0.4797,9.8277,-0.4064,0.5035,9.7853,-0.0004,-0.0009,0.0107
14877,46.4068,-0.581366,88.0,38.46,8.576,60.8,13 / 18,1487645,2019-08-18 22:44:37:178,-0.3323,0.8652,9.7385,-0.4028,0.5107,9.7851,-0.0004,0.0002,0.0107
14878,46.4068,-0.581366,88.0,38.46,8.576,60.8,13 / 18,1487745,2019-08-18 22:44:37:278,-0.4137,0.8747,9.6326,-0.4032,0.5213,9.7845,0.0049,0.0045,0.0085
14879,46.4068,-0.581366,88.0,38.46,8.576,60.8,13 / 18,1487845,2019-08-18 22:44:37:378,-0.5921,1.001,10.0953,-0.4009,0.547,9.7832,-0.0004,0.0002,0.0075
14880,46.4068,-0.581366,88.0,38.46,8.576,60.8,13 / 18,1487946,2019-08-18 22:44:37:479,-0.476,0.4809,9.5566,-0.3829,0.5434,9.7841,-0.0046,-0.0041,0.0075
14881,46.4068,-0.581366,88.0,38.46,8.576,60.8,13 / 18,1488045,2019-08-18 22:44:37:578,-0.2186,0.4043,9.8732,-0.3931,0.567,9.7824,-0.0078,0.0066,0.0085
14882,46.4068,-0.581366,88.0,38.46,8.576,60.8,13 / 18,1488146,2019-08-18 22:44:37:679,-0.1605,0.5419,9.6356,-0.4027,0.5638,9.7821,-0.0036,0.0098,0.0096
14883,46.4068,-0.581366,88.0,38.46,8.576,60.8,13 / 18,1488245,2019-08-18 22:44:37:778,-0.3604,0.4097,10.051,-0.4126,0.5957,9.7798,0.0167,-0.003,0.0085
14884,46.4068,-0.581366,88.0,38.46,8.576,60.8,13 / 18,1488345,2019-08-18 22:44:37:878,-0.279,0.7257,9.9289,-0.4041,0.6008,9.7799,0.0039,-0.0126,0.0085
14885,46.4068,-0.581366,88.0,38.46,8.576,60.8,13 / 18,1488445,2019-08-18 22:44:37:978,-0.3245,0.6754,9.7523,-0.3929,0.5992,9.7804,-0.0057,-0.0073,0.0053
14886,46.4068,-0.581366,88.0,38.46,8.576,60.8,13 / 18,1488545,2019-08-18 22:44:38:078,-0.3036,0.8712,9.9301,-0.3867,0.6047,9.7803,-0.0057,-0.0051,0.0053
14887,46.4068,-0.581366,88.0,38.46,8.576,60.8,13 / 18,1488646,2019-08-18 22:44:38:179,-0.3688,0.6892,9.6601,-0.3607,0.5743,9.7832,-0.0068,-0.0083,0.0053
14888,46.4068,-0.581366,88.0,38.46,8.576,60.8,13 / 18,1488746,2019-08-18 22:44:38:279,-0.294,-0.0303,9.8385,-0.3543,0.5649,9.784,0.0028,0.0066,0.0064
14889,46.4068,-0.581366,88.0,38.46,8.576,60.8,13 / 18,1488845,2019-08-18 22:44:38:378,-0.1701,0.3043,9.3369,-0.3496,0.5601,9.7844,-0.01,-0.0009,0.0053
14890,46.4068,-0.581366,88.0,38.46,8.576,60.8,13 / 18,1488945,2019-08-18 22:44:38:478,-0.133,0.506,9.3381,-0.3337,0.5578,9.7851,-0.0068,0.0013,0.0022
14891,46.4068,-0.581366,88.0,38.46,8.576,60.8,13 / 18,1489045,2019-08-18 22:44:38:578,-0.0199,0.457,10.4376,-0.3072,0.5248,9.7878,0.0007,-0.0019,0.0022
14892,46.4068,-0.581366,88.0,38.46,8.576,60.8,13 / 18,1489145,2019-08-18 22:44:38:678,-0.4029,0.6467,10.1426,-0.3067,0.5309,9.7875,0.006,-0.0009,0.0032
14893,46.4068,-0.581366,88.0,38.46,8.576,60.8,13 / 18,1489246,2019-08-18 22:44:38:779,-0.3958,0.6096,9.893,-0.2967,0.5405,9.7872,0.0124,0.0045,0.0107
14894,46.4068,-0.581366,88.0,38.46,8.576,60.8,13 / 18,1489345,2019-08-18 22:44:38:878,-0.5233,0.6024,9.6577,-0.2939,0.5608,9.7862,0.0135,0.0066,0.016
14895,46.41011,-0.57477,91.73,35.04,5.36,51.9,Dec-18,1489446,2019-08-18 22:44:38:979,-0.4173,1.0549,10.1994,-0.294,0.5799,9.7851,0.0028,0.0023,0.0213
14896,46.41011,-0.57477,91.73,35.04,5.36,51.9,Dec-18,1489545,2019-08-18 22:44:39:078,-0.5011,0.8598,9.8858,-0.2936,0.6015,9.7838,0.0167,-0.0019,0.0213
14897,46.41011,-0.57477,91.73,35.04,5.36,51.9,Dec-18,1489645,2019-08-18 22:44:39:178,-0.5035,1.1734,9.0155,-0.2935,0.636,9.7816,0.0103,-0.0041,0.0213
14898,46.41011,-0.57477,91.73,35.04,5.36,51.9,Dec-18,1489746,2019-08-18 22:44:39:279,-0.3646,0.9095,9.5703,-0.2882,0.6521,9.7807,-0.0025,-0.0083,0.0203
14899,46.41011,-0.57477,91.73,35.04,5.36,51.9,Dec-18,1489846,2019-08-18 22:44:39:379,-0.3562,1.2105,9.4488,-0.3106,0.7284,9.7746,-0.0078,0.013,0.0171
14900,46.41011,-0.57477,91.73,35.04,5.36,51.9,Dec-18,1489945,2019-08-18 22:44:39:478,-0.303,1.0393,9.8253,-0.3161,0.7312,9.7742,-0.0036,0.0034,0.016
14901,46.41011,-0.57477,91.73,35.04,5.36,51.9,Dec-18,1490046,2019-08-18 22:44:39:579,-0.379,0.831,10.227,-0.3147,0.7599,9.7721,0.0028,-0.0147,0.0128
14902,46.41011,-0.57477,91.73,35.04,5.36,51.9,Dec-18,1490145,2019-08-18 22:44:39:678,-0.1695,0.5354,10.4706,-0.3132,0.7612,9.772,0.0018,0.0013,0.0075
14903,46.41011,-0.57477,91.73,35.04,5.36,51.9,Dec-18,1490246,2019-08-18 22:44:39:779,-0.4418,0.6132,9.2747,-0.3233,0.7518,9.7724,-0.0132,0.014,0.0064
14904,46.41011,-0.57477,91.73,35.04,5.36,51.9,Dec-18,1490346,2019-08-18 22:44:39:879,-0.2491,0.4863,9.0424,-0.3261,0.7337,9.7737,-0.0238,0.0002,0.0043
14905,46.41011,-0.57477,91.73,35.04,5.36,51.9,Dec-18,1490446,2019-08-18 22:44:39:979,-0.2701,0.7622,9.3776,-0.3267,0.7251,9.7744,0.006,-0.0009,0.0064
14906,46.41011,-0.57477,91.73,35.04,5.36,51.9,Dec-18,1490546,2019-08-18 22:44:40:079,-0.6513,0.7359,9.9971,-0.3258,0.7238,9.7745,0.006,-0.0073,0.0075
14907,46.41011,-0.57477,91.73,35.04,5.36,51.9,Dec-18,1490646,2019-08-18 22:44:40:179,-0.3766,0.5994,10.1509,-0.3293,0.7209,9.7746,0.006,-0.0062,0.0085
14908,46.41011,-0.57477,91.73,35.04,5.36,51.9,Dec-18,1490746,2019-08-18 22:44:40:279,-0.6088,0.5791,10.221,-0.3361,0.7276,9.7738,0.0156,0.0076,0.0075
14909,46.41011,-0.57477,91.73,35.04,5.36,51.9,Dec-18,1490846,2019-08-18 22:44:40:379,-0.3359,0.4905,9.5344,-0.3564,0.7376,9.7724,0.0145,0.0108,0.0096
14910,46.41011,-0.57477,91.73,35.04,5.36,51.9,Dec-18,1490946,2019-08-18 22:44:40:479,-0.4772,0.6228,9.0047,-0.367,0.7484,9.7712,0.0156,0.0119,0.0107
14911,46.41011,-0.57477,91.73,35.04,5.36,51.9,Dec-18,1491045,2019-08-18 22:44:40:578,-0.4305,0.8789,9.9552,-0.3702,0.7557,9.7705,0.0018,-0.0126,0.0096
14912,46.41011,-0.57477,91.73,35.04,5.36,51.9,Dec-18,1491145,2019-08-18 22:44:40:678,-0.6723,0.8855,10.2844,-0.3652,0.7537,9.7708,-0.0036,-0.0105,0.0085
14913,46.41011,-0.57477,91.73,35.04,5.36,51.9,Dec-18,1491245,2019-08-18 22:44:40:778,-0.6902,0.7951,10.1677,-0.3658,0.733,9.7724,-0.0174,-0.0073,0.0085
14914,46.41011,-0.57477,91.73,35.04,5.36,51.9,Dec-18,1491345,2019-08-18 22:44:40:878,-0.5687,0.8873,10.0959,-0.3822,0.7213,9.7726,-0.0132,0.0066,0.0085
14915,46.41011,-0.57477,91.73,35.04,5.36,51.9,Dec-18,1491445,2019-08-18 22:44:40:978,-0.5215,0.442,9.7254,-0.3933,0.7148,9.7727,0.0007,0.0055,0.0085
14916,46.41011,-0.57477,91.73,35.04,5.36,51.9,Dec-18,1491546,2019-08-18 22:44:41:079,-0.8303,0.5425,9.5721,-0.4005,0.7047,9.7731,-0.0164,0.0034,0.0085
14917,46.41011,-0.57477,91.73,35.04,5.36,51.9,Dec-18,1491645,2019-08-18 22:44:41:178,-0.7064,0.6168,9.5476,-0.4469,0.6857,9.7724,-0.0025,0.0002,0.0053
14918,46.41011,-0.57477,91.73,35.04,5.36,51.9,Dec-18,1491745,2019-08-18 22:44:41:278,-0.4772,0.5731,10.0546,-0.4407,0.6793,9.7732,-0.0025,-0.0105,0.0053
14919,46.41011,-0.57477,91.73,35.04,5.36,51.9,Dec-18,1491846,2019-08-18 22:44:41:379,-0.7525,0.5282,10.2036,-0.4344,0.6734,9.7739,0.0007,-0.0041,0.0032
14920,46.41011,-0.57477,91.73,35.04,5.36,51.9,Dec-18,1491946,2019-08-18 22:44:41:479,-0.5669,0.1601,9.8702,-0.4394,0.6493,9.7753,-0.0078,0.0055,-0.0011
14921,46.41011,-0.57477,91.73,35.04,5.36,51.9,Dec-18,1492046,2019-08-18 22:44:41:579,-0.5747,0.4043,9.7966,-0.4408,0.6296,9.7765,-0.011,0.0013,-0.0021
14922,46.41011,-0.57477,91.73,35.04,5.36,51.9,Dec-18,1492145,2019-08-18 22:44:41:678,-0.4616,0.3845,9.7852,-0.4305,0.6043,9.7785,-0.0046,-0.0179,-0.0021
14923,46.41011,-0.57477,91.73,35.04,5.36,51.9,Dec-18,1492245,2019-08-18 22:44:41:778,-0.3796,0.2642,9.4979,-0.422,0.5962,9.7794,0.0007,-0.0062,0.0
14924,46.41011,-0.57477,91.73,35.04,5.36,51.9,Dec-18,1492345,2019-08-18 22:44:41:878,-0.4275,0.108,9.3573,-0.4246,0.5848,9.78,0.0028,0.0098,-0.0011
14925,46.41011,-0.57477,91.73,35.04,5.36,51.9,Dec-18,1492446,2019-08-18 22:44:41:979,-0.5035,0.4557,9.7894,-0.4282,0.5625,9.7811,-0.0089,0.0023,-0.0011
14926,46.41011,-0.57477,91.73,35.04,5.36,51.9,Dec-18,1492546,2019-08-18 22:44:42:079,-0.452,0.4198,9.571,-0.4274,0.5444,9.7822,-0.0057,0.0013,0.0022
14927,46.41011,-0.57477,91.73,35.04,5.36,51.9,Dec-18,1492646,2019-08-18 22:44:42:179,-0.4197,0.442,9.7511,-0.4231,0.5251,9.7834,-0.0004,0.0066,0.0032
14928,46.41011,-0.57477,91.73,35.04,5.36,51.9,Dec-18,1492746,2019-08-18 22:44:42:279,-0.3275,0.5162,10.0528,-0.4347,0.5013,9.7842,-0.0046,0.0023,0.0064
14929,46.41011,-0.57477,91.73,35.04,5.36,51.9,Dec-18,1492846,2019-08-18 22:44:42:379,-0.3269,0.5449,9.6942,-0.4509,0.4803,9.7845,0.0007,0.0045,0.0064
14930,46.41011,-0.57477,91.73,35.04,5.36,51.9,Dec-18,1492945,2019-08-18 22:44:42:478,-0.297,0.3917,10.051,-0.4477,0.4867,9.7843,0.0092,-0.0105,0.0064
14931,46.41011,-0.57477,91.73,35.04,5.36,51.9,Dec-18,1493046,2019-08-18 22:44:42:579,-0.522,0.6096,9.5835,-0.452,0.4916,9.7839,0.0028,0.0087,0.0032
14932,46.41011,-0.57477,91.73,35.04,5.36,51.9,Dec-18,1493145,2019-08-18 22:44:42:678,-0.6047,0.6461,10.0426,-0.4636,0.4886,9.7835,-0.0046,0.0002,0.0032
14933,46.41011,-0.57477,91.73,35.04,5.36,51.9,Dec-18,1493245,2019-08-18 22:44:42:778,-0.6478,0.667,10.1252,-0.4671,0.4842,9.7835,-0.0068,0.0023,0.0032
14934,46.41011,-0.57477,91.73,35.04,5.36,51.9,Dec-18,1493345,2019-08-18 22:44:42:878,-0.604,0.3486,9.6727,-0.4867,0.4567,9.7839,-0.0025,0.0055,0.0043
14935,46.41011,-0.57477,91.73,35.04,5.36,51.9,Dec-18,1493446,2019-08-18 22:44:42:979,-0.5556,-0.0039,10.0839,-0.4865,0.4585,9.7838,0.0071,-0.0062,0.0064
14936,46.41011,-0.57477,91.73,35.04,5.36,51.9,Dec-18,1493546,2019-08-18 22:44:43:079,-0.4323,0.3977,10.0935,-0.4819,0.4614,9.7839,0.0039,-0.003,0.0043
14937,46.41011,-0.57477,91.73,35.04,5.36,51.9,Dec-18,1493645,2019-08-18 22:44:43:178,-0.5071,0.4061,9.8134,-0.4816,0.4608,9.784,-0.0132,-0.0019,0.0022
14938,46.41011,-0.57477,91.73,35.04,5.36,51.9,Dec-18,1493745,2019-08-18 22:44:43:278,-0.6304,0.6252,9.7367,-0.4863,0.4583,9.7839,-0.0068,0.0013,0.0011
14939,46.41011,-0.57477,91.73,35.04,5.36,51.9,Dec-18,1493846,2019-08-18 22:44:43:379,-0.6681,0.5461,9.146,-0.4889,0.4513,9.7841,-0.0025,-0.003,0.0011
14940,46.41011,-0.57477,91.73,35.04,5.36,51.9,Dec-18,1493946,2019-08-18 22:44:43:479,-0.4766,0.4971,9.9049,-0.4575,0.4392,9.7861,0.0028,0.0013,0.0022
14941,46.41011,-0.57477,91.73,35.04,5.36,51.9,Dec-18,1494046,2019-08-18 22:44:43:579,-0.3533,0.3528,9.9025,-0.4631,0.4437,9.7857,0.0135,0.0087,0.0011
14942,46.41011,-0.57477,91.73,35.04,5.36,51.9,Dec-18,1494146,2019-08-18 22:44:43:679,-0.2581,0.2409,9.781,-0.4613,0.4414,9.7858,-0.0089,-0.0009,0.0011
14943,46.41011,-0.57477,91.73,35.04,5.36,51.9,Dec-18,1494245,2019-08-18 22:44:43:778,-0.4083,0.1966,9.2645,-0.4565,0.4314,9.7865,-0.0132,-0.003,-0.0011
14944,46.41011,-0.57477,91.73,35.04,5.36,51.9,Dec-18,1494345,2019-08-18 22:44:43:878,-0.3736,0.0912,9.9031,-0.4375,0.4088,9.7884,-0.0057,-0.0105,0.0
14945,46.41011,-0.57477,91.73,35.04,5.36,51.9,Dec-18,1494446,2019-08-18 22:44:43:979,-0.1863,0.4372,9.7002,-0.434,0.3991,9.7889,-0.0057,0.0002,0.0
14946,46.41011,-0.57477,91.73,35.04,5.36,51.9,Dec-18,1494546,2019-08-18 22:44:44:079,-0.4484,0.5533,9.7846,-0.4321,0.3907,9.7893,0.0092,0.0087,0.0011
14947,46.41011,-0.57477,91.73,35.04,5.36,51.9,Dec-18,1494646,2019-08-18 22:44:44:179,-0.4442,0.436,10.0665,-0.4339,0.3952,9.7891,0.0071,0.0023,0.0011
14948,46.41011,-0.57477,91.73,35.04,5.36,51.9,Dec-18,1494745,2019-08-18 22:44:44:278,-0.5622,0.3079,10.3664,-0.408,0.3382,9.7923,0.0007,-0.0073,0.0
14949,46.41011,-0.57477,91.73,35.04,5.36,51.9,Dec-18,1494845,2019-08-18 22:44:44:378,-0.2455,0.3606,9.6793,-0.4077,0.3394,9.7923,-0.0068,0.0034,0.0011
14950,46.41011,-0.57477,91.73,35.04,5.36,51.9,Dec-18,1494945,2019-08-18 22:44:44:478,-0.3461,0.1397,9.6823,-0.4077,0.3338,9.7925,-0.0036,0.0023,0.0011
14951,46.41011,-0.57477,91.73,35.04,5.36,51.9,Dec-18,1495046,2019-08-18 22:44:44:579,-0.3748,0.1792,10.0486,-0.4044,0.3314,9.7927,-0.0036,-0.0041,0.0022
14952,46.41011,-0.57477,91.73,35.04,5.36,51.9,Dec-18,1495145,2019-08-18 22:44:44:678,-0.4808,0.369,9.9067,-0.3915,0.3417,9.7929,0.0007,-0.003,0.0022
14953,46.41011,-0.57477,91.73,35.04,5.36,51.9,Dec-18,1495246,2019-08-18 22:44:44:779,-0.4664,0.8143,8.8694,-0.3919,0.3427,9.7928,-0.0004,0.0002,0.0022
14954,46.41011,-0.57477,91.73,35.04,5.36,51.9,Dec-18,1495345,2019-08-18 22:44:44:878,-0.2701,0.7748,9.7385,-0.3882,0.348,9.7928,0.006,-0.003,0.0032
14955,46.41011,-0.57477,91.73,35.04,5.36,51.9,Dec-18,1495446,2019-08-18 22:44:44:979,-0.4891,0.3318,9.6589,-0.3918,0.3526,9.7925,0.006,0.0098,0.0032
14956,46.41011,-0.57477,91.73,35.04,5.36,51.9,Dec-18,1495546,2019-08-18 22:44:45:079,-0.5526,0.4617,10.2497,-0.3943,0.3544,9.7923,-0.0046,-0.0062,0.0043
14957,46.41011,-0.57477,91.73,35.04,5.36,51.9,Dec-18,1495646,2019-08-18 22:44:45:179,-0.2485,0.2552,9.6601,-0.3879,0.3807,9.7916,0.0081,0.0066,0.0053
14958,46.41011,-0.57477,91.73,35.04,5.36,51.9,Dec-18,1495745,2019-08-18 22:44:45:278,-0.1049,0.4498,9.9672,-0.3766,0.4065,9.791,0.0018,0.0034,0.0053
14959,46.41011,-0.57477,91.73,35.04,5.36,51.9,Dec-18,1495845,2019-08-18 22:44:45:378,-0.3323,0.2469,9.8852,-0.3772,0.4089,9.7909,-0.0068,0.0002,0.0043
14960,46.41011,-0.57477,91.73,35.04,5.36,51.9,Dec-18,1495945,2019-08-18 22:44:45:478,-0.5454,1.1387,9.5063,-0.3819,0.4121,9.7905,0.0081,0.0023,0.0022
14961,46.41011,-0.57477,91.73,35.04,5.36,51.9,Dec-18,1496045,2019-08-18 22:44:45:578,-0.373,0.5336,9.5488,-0.3827,0.419,9.7902,0.0071,0.0034,0.0032
14962,46.41011,-0.57477,91.73,35.04,5.36,51.9,Dec-18,1496145,2019-08-18 22:44:45:678,-0.4107,0.4139,10.464,-0.3865,0.4131,9.7903,-0.0036,-0.0041,0.0043
14963,46.41011,-0.57477,91.73,35.04,5.36,51.9,Dec-18,1496245,2019-08-18 22:44:45:778,-0.7842,0.4899,10.3353,-0.4032,0.4178,9.7894,0.0028,0.0002,0.0022
14964,46.41011,-0.57477,91.73,35.04,5.36,51.9,Dec-18,1496346,2019-08-18 22:44:45:879,-0.5699,0.427,9.9067,-0.4005,0.416,9.7896,-0.0025,-0.003,0.0043
14965,46.41011,-0.57477,91.73,35.04,5.36,51.9,Dec-18,1496445,2019-08-18 22:44:45:978,-0.1958,0.3564,9.6703,-0.4016,0.4292,9.789,0.0135,-0.0009,0.0053
14966,46.41011,-0.57477,91.73,35.04,5.36,51.9,Dec-18,1496545,2019-08-18 22:44:46:078,-0.1953,0.5222,9.4207,-0.4112,0.4426,9.788,-0.0057,0.0076,0.0032
14967,46.41011,-0.57477,91.73,35.04,5.36,51.9,Dec-18,1496645,2019-08-18 22:44:46:178,-0.5107,0.606,9.8553,-0.4111,0.4393,9.7882,-0.0078,-0.003,0.0032
14968,46.41011,-0.57477,91.73,35.04,5.36,51.9,Dec-18,1496745,2019-08-18 22:44:46:278,-0.5867,0.5898,9.4536,-0.4115,0.4353,9.7883,-0.0014,0.0013,0.0
14969,46.41011,-0.57477,91.73,35.04,5.36,51.9,Dec-18,1496846,2019-08-18 22:44:46:379,-0.4389,0.5659,9.0616,-0.4133,0.4319,9.7884,0.0018,0.0023,0.0011
14970,46.41011,-0.57477,91.73,35.04,5.36,51.9,Dec-18,1496945,2019-08-18 22:44:46:478,-0.4532,0.3468,9.8565,-0.4133,0.4276,9.7886,-0.0025,-0.0041,0.0022
14971,46.41011,-0.57477,91.73,35.04,5.36,51.9,Dec-18,1497045,2019-08-18 22:44:46:578,-0.2282,0.4743,10.3772,-0.4087,0.4317,9.7886,0.0071,-0.0083,0.0032
14972,46.41011,-0.57477,91.73,35.04,5.36,51.9,Dec-18,1497146,2019-08-18 22:44:46:679,-0.3144,0.1595,9.6901,-0.4173,0.4349,9.7881,0.0018,0.0151,0.0011
14973,46.41011,-0.57477,91.73,35.04,5.36,51.9,Dec-18,1497245,2019-08-18 22:44:46:778,-0.315,0.1475,9.6978,-0.4213,0.4325,9.788,-0.0057,-0.0009,0.0022
14974,46.41011,-0.57477,91.73,35.04,5.36,51.9,Dec-18,1497345,2019-08-18 22:44:46:878,-0.3718,0.2319,10.2952,-0.4268,0.4183,9.7884,-0.01,-0.0051,0.0011
14975,46.41011,-0.57477,91.73,35.04,5.36,51.9,Dec-18,1497445,2019-08-18 22:44:46:978,-0.6124,0.615,10.3371,-0.4211,0.4123,9.7889,0.006,-0.0051,0.0022
14976,46.41011,-0.57477,91.73,35.04,5.36,51.9,Dec-18,1497546,2019-08-18 22:44:47:079,-1.0512,0.1978,10.4299,-0.4263,0.4134,9.7887,0.0018,0.0055,0.0022
14977,46.41011,-0.57477,91.73,35.04,5.36,51.9,Dec-18,1497646,2019-08-18 22:44:47:179,-0.5466,0.1684,9.6308,-0.4283,0.4112,9.7887,0.0071,-0.0009,-0.0011
14978,46.41011,-0.57477,91.73,35.04,5.36,51.9,Dec-18,1497745,2019-08-18 22:44:47:278,-0.4855,0.539,9.9857,-0.4238,0.4149,9.7887,0.0103,-0.0062,0.0011
14979,46.41011,-0.57477,91.73,35.04,5.36,51.9,Dec-18,1497846,2019-08-18 22:44:47:379,-0.4071,0.0667,9.7194,-0.4228,0.4054,9.7891,-0.0132,0.0013,0.0011
14980,46.41011,-0.57477,91.73,35.04,5.36,51.9,Dec-18,1497945,2019-08-18 22:44:47:478,-0.2737,0.4594,9.2747,-0.4231,0.3951,9.7895,-0.0132,0.0002,-0.0011
14981,46.41011,-0.57477,91.73,35.04,5.36,51.9,Dec-18,1498046,2019-08-18 22:44:47:579,-0.2904,0.2552,9.5751,-0.4305,0.3907,9.7894,0.0018,0.0108,-0.0011
14982,46.41011,-0.57477,91.73,35.04,5.36,51.9,Dec-18,1498145,2019-08-18 22:44:47:678,-0.4347,0.5066,9.2543,-0.4344,0.3855,9.7894,-0.0014,0.0002,0.0
14983,46.41011,-0.57477,91.73,35.04,5.36,51.9,Dec-18,1498246,2019-08-18 22:44:47:779,-0.4598,0.3007,9.7122,-0.4263,0.3802,9.79,0.0049,-0.0083,0.0011
14984,46.41011,-0.57477,91.73,35.04,5.36,51.9,Dec-18,1498345,2019-08-18 22:44:47:878,-0.4496,0.2858,9.216,-0.4208,0.3779,9.7903,0.0018,-0.0073,0.0022
14985,46.412,-0.57167,89.24,34.98,7.504,49.5,Dec-18,1498445,2019-08-18 22:44:47:978,-0.1659,0.2882,9.9504,-0.4255,0.3668,9.7905,-0.0121,0.0076,-0.0021
14986,46.412,-0.57167,89.24,34.98,7.504,49.5,Dec-18,1498545,2019-08-18 22:44:48:078,-0.3904,0.524,9.7356,-0.438,0.3517,9.7905,0.0049,0.0034,-0.0032
14987,46.412,-0.57167,89.24,34.98,7.504,49.5,Dec-18,1498645,2019-08-18 22:44:48:178,-0.1503,-0.1051,9.3232,-0.4368,0.3441,9.7909,0.006,-0.0019,0.0
14988,46.412,-0.57167,89.24,34.98,7.504,49.5,Dec-18,1498745,2019-08-18 22:44:48:278,-0.0013,0.1116,9.6553,-0.44,0.3391,9.7909,0.0092,0.0002,0.0
14989,46.412,-0.57167,89.24,34.98,7.504,49.5,Dec-18,1498846,2019-08-18 22:44:48:379,-0.4867,0.4953,10.2946,-0.4499,0.3146,9.7913,0.006,-0.0019,0.0
14990,46.412,-0.57167,89.24,34.98,7.504,49.5,Dec-18,1498945,2019-08-18 22:44:48:478,-0.771,0.266,9.6655,-0.4545,0.3119,9.7911,-0.0057,0.0066,0.0
14991,46.412,-0.57167,89.24,34.98,7.504,49.5,Dec-18,1499045,2019-08-18 22:44:48:578,-0.6178,0.3516,9.6494,-0.4613,0.2935,9.7914,0.0028,0.0045,-0.0021
14992,46.412,-0.57167,89.24,34.98,7.504,49.5,Dec-18,1499145,2019-08-18 22:44:48:678,-0.6765,0.3779,9.708,-0.4663,0.2952,9.7911,0.0007,-0.0019,-0.0021
14993,46.412,-0.57167,89.24,34.98,7.504,49.5,Dec-18,1499246,2019-08-18 22:44:48:779,-0.3293,0.1487,9.8714,-0.4634,0.288,9.7915,-0.01,-0.0041,0.0011
14994,46.412,-0.57167,89.24,34.98,7.504,49.5,Dec-18,1499346,2019-08-18 22:44:48:879,-0.5119,0.2726,9.617,-0.4635,0.286,9.7915,-0.0025,0.0023,-0.0011
14995,46.412,-0.57167,89.24,34.98,7.504,49.5,Dec-18,1499445,2019-08-18 22:44:48:978,0.1633,-0.1081,9.7745,-0.4585,0.2965,9.7914,0.0028,0.0045,0.0
14996,46.412,-0.57167,89.24,34.98,7.504,49.5,Dec-18,1499546,2019-08-18 22:44:49:079,-0.5634,0.3031,9.4231,-0.4615,0.2972,9.7913,0.0007,0.0023,-0.0011
14997,46.412,-0.57167,89.24,34.98,7.504,49.5,Dec-18,1499646,2019-08-18 22:44:49:179,-0.3551,0.5204,9.8588,-0.4633,0.2843,9.7916,0.0018,0.0034,-0.0011
14998,46.412,-0.57167,89.24,34.98,7.504,49.5,Dec-18,1499745,2019-08-18 22:44:49:278,-0.5556,0.7329,9.1825,-0.4659,0.2875,9.7914,-0.0036,-0.0051,0.0
14999,46.412,-0.57167,89.24,34.98,7.504,49.5,Dec-18,1499845,2019-08-18 22:44:49:378,-0.5238,0.1523,10.2701,-0.4641,0.2851,9.7915,-0.0068,-0.0019,0.0011
15000,46.412,-0.57167,89.24,34.98,7.504,49.5,Dec-18,1499945,2019-08-18 22:44:49:478,-0.2862,0.09,10.1515,-0.4688,0.2957,9.791,0.0103,-0.003,0.0011
15001,46.412,-0.57167,89.24,34.98,7.504,49.5,Dec-18,1500045,2019-08-18 22:44:49:578,-0.4269,0.1319,9.7188,-0.4635,0.3092,9.7908,0.0081,0.0034,0.0032
15002,46.412,-0.57167,89.24,34.98,7.504,49.5,Dec-18,1500146,2019-08-18 22:44:49:679,-0.4688,0.67,9.2579,-0.4874,0.3281,9.789,-0.0046,0.0045,0.0043
