,GPS LATITUDE (degrees), GPS LONGITUDE (degrees), GPS ALTITUDE (m), GPS SPEED (Kmh), GPS ACCURACY (m), GPS ORIENTATION (Â°),GPS SATELLITES IN RANGE, TIME SINCE START (ms), DATE (YYYY-MO-DD HH-MI-SS_SSS), ACCELEROMETER X (m/s²) , ACCELEROMETER Y (m/s²), ACCELEROMETER Z (m/s²), GRAVITY X (m/s²), GRAVITY Y (m/s²), GRAVITY Z (m/s²), GYROSCOPE Yaw (rad/s), GYROSCOPE Pitch (rad/s), GYROSCOPE Roll (rad/s), MAGNETIC FIELD X (Î¼T), MAGNETIC FIELD Y (Î¼T), MAGNETIC FIELD Z (Î¼T), ORIENTATION (Yaw) (Â°), ORIENTATION (Pitch) (Â°), ORIENTATION (Roll ) (Â°)
91742,52.472767,-1.381605,175.4,20.42,3.0,96.98,22 / 23,4752875,2019-09-07 11:46:26:029,-1.7968,0.6392,9.7994,-0.0047,-0.0085,9.8066,-0.0127,-0.0315,-0.0267,-42.12,-27.37,13.63,324.58,-82.86,-141.13
91743,52.472767,-1.381605,175.4,20.42,3.0,96.98,22 / 23,4752975,2019-09-07 11:46:26:129,-0.8317,1.1723,10.0878,-0.0033,-0.0007,9.8066,-0.0225,-0.0153,-0.0097,-42.87,-27.69,13.94,324.54,-82.86,-140.72
91744,52.472767,-1.381605,175.4,20.42,3.0,96.98,22 / 23,4753076,2019-09-07 11:46:26:230,-1.7402,-0.1378,9.9364,-0.007,-0.0115,9.8066,-0.0151,-0.005,0.0042,-42.81,-28.12,13.88,325.74,-82.84,-139.59
91745,52.472767,-1.381605,175.4,20.42,3.0,96.98,22 / 23,4753175,2019-09-07 11:46:26:329,-0.9569,1.2934,8.3747,0.005,0.0013,9.8066,-0.0078,0.0045,-0.0198,-42.31,-28.06,14.19,326.21,-82.91,-139.53
91746,52.472767,-1.381605,175.4,20.42,3.0,96.98,22 / 23,4753275,2019-09-07 11:46:26:429,-1.1618,0.5821,10.3654,-0.0084,-0.0034,9.8066,-0.0546,-0.0577,-0.0708,-42.5,-27.25,13.69,326.66,-82.97,-139.22
91747,52.472767,-1.381605,175.4,20.42,3.0,96.98,22 / 23,4753375,2019-09-07 11:46:26:529,-1.0451,0.39,10.6876,-0.0078,0.0144,9.8065,-0.01,-0.0025,-0.0424,-42.69,-28.12,13.5,326.86,-83.22,-138.69
91748,52.472767,-1.381605,175.4,20.42,3.0,96.98,22 / 23,4753476,2019-09-07 11:46:26:630,-0.9446,1.1817,9.403,0.0036,0.0053,9.8066,0.0026,0.001,-0.0036,-42.0,-27.56,13.81,326.62,-83.27,-139.29
91749,52.472767,-1.381605,175.4,20.42,3.0,96.98,22 / 23,4753576,2019-09-07 11:46:26:730,-1.1627,1.2927,8.7188,0.0052,-0.0035,9.8066,0.0085,0.0428,0.0261,-42.0,-27.75,13.81,326.45,-83.25,-139.44
91750,52.472767,-1.381605,175.4,20.42,3.0,96.98,22 / 23,4753676,2019-09-07 11:46:26:830,-1.0797,0.5682,10.5082,0.0013,-0.0186,9.8066,-0.0038,-0.0106,0.0173,-42.87,-27.31,13.69,326.56,-83.11,-139.02
91751,52.472767,-1.381605,175.4,20.42,3.0,96.98,22 / 23,4753775,2019-09-07 11:46:26:929,-1.4725,0.5024,9.8606,0.0086,-0.0112,9.8066,0.0408,0.0306,0.0299,-42.75,-27.69,13.38,326.27,-82.96,-137.91
91752,52.472767,-1.381605,175.4,20.42,3.0,96.98,22 / 23,4753875,2019-09-07 11:46:27:029,-1.0552,-0.0547,11.2678,0.0047,-0.0184,9.8066,0.0343,0.0395,0.0662,-42.75,-27.19,14.13,327.9,-82.65,-137.59
91753,52.472767,-1.381605,175.4,20.42,3.0,96.98,22 / 23,4753975,2019-09-07 11:46:27:129,-0.9127,0.0102,9.7324,-0.0056,-0.0072,9.8066,-0.0323,-0.0314,-0.0246,-42.94,-26.69,14.06,328.88,-82.46,-136.61
91754,52.472767,-1.381605,175.4,20.42,3.0,96.98,22 / 23,4754075,2019-09-07 11:46:27:229,-1.2914,0.9009,9.3444,-0.0167,0.0018,9.8066,-0.0167,0.0167,0.0147,-42.94,-27.5,13.81,330.15,-82.53,-135.46
91755,52.472767,-1.381605,175.4,20.42,3.0,96.98,22 / 23,4754175,2019-09-07 11:46:27:329,-1.0547,0.1106,9.4189,-0.0165,-0.0155,9.8065,-0.0281,-0.0109,0.0104,-43.44,-28.12,14.19,332.03,-82.58,-133.66
91756,52.472626,-1.379249,175.98,12.62,4.0,94.98,22 / 23,4754276,2019-09-07 11:46:27:430,-1.2148,0.7011,8.8893,-0.0114,-0.0173,9.8066,-0.0151,-0.0141,0.0282,-44.19,-27.25,13.94,333.65,-82.51,-131.86
91757,52.472626,-1.379249,175.98,12.62,4.0,94.98,22 / 23,4754375,2019-09-07 11:46:27:529,-1.5634,0.3866,9.7357,-0.0106,-0.0211,9.8066,0.0018,-0.0123,0.0065,-44.06,-27.87,13.38,335.04,-82.25,-129.23
91758,52.472626,-1.379249,175.98,12.62,4.0,94.98,22 / 23,4754476,2019-09-07 11:46:27:630,-0.9638,0.2388,10.2616,-0.0004,-0.0014,9.8066,0.0208,0.0357,0.0245,-43.5,-27.81,14.44,338.01,-82.09,-128.01
91759,52.472626,-1.379249,175.98,12.62,4.0,94.98,22 / 23,4754576,2019-09-07 11:46:27:730,-0.5146,0.587,9.22,0.0208,0.0053,9.8066,0.0209,-0.0422,-0.0754,-43.56,-26.69,14.25,336.58,-82.05,-129.02
91760,52.472626,-1.379249,175.98,12.62,4.0,94.98,22 / 23,4754676,2019-09-07 11:46:27:830,-1.2919,0.604,9.4086,0.012,0.0191,9.8066,0.0142,0.0068,-0.052,-43.25,-27.31,13.25,333.1,-82.14,-131.37
91761,52.472626,-1.379249,175.98,12.62,4.0,94.98,22 / 23,4754775,2019-09-07 11:46:27:929,-0.7311,1.4625,9.794,-0.0027,0.0165,9.8065,-0.0086,0.0212,-0.0389,-43.19,-27.06,13.94,333.33,-82.38,-132.47
91762,52.472626,-1.379249,175.98,12.62,4.0,94.98,22 / 23,4754876,2019-09-07 11:46:28:030,-1.158,1.0311,9.576,-0.0057,0.0194,9.8066,-0.0243,-0.0093,-0.0419,-43.37,-27.56,14.13,332.82,-82.62,-132.93
91763,52.472626,-1.379249,175.98,12.62,4.0,94.98,22 / 23,4754975,2019-09-07 11:46:28:129,-1.2741,1.017,10.4731,-0.0029,0.0062,9.8066,0.0084,-0.0031,-0.003,-43.25,-27.87,14.06,333.0,-82.71,-132.8
91764,52.472626,-1.379249,175.98,12.62,4.0,94.98,22 / 23,4755076,2019-09-07 11:46:28:230,-1.6214,1.3627,8.9826,-0.0038,-0.0063,9.8065,0.009,0.0516,0.0471,-43.25,-28.25,14.0,333.41,-82.76,-132.43
91765,52.472626,-1.379249,175.98,12.62,4.0,94.98,22 / 23,4755175,2019-09-07 11:46:28:329,-1.5497,-0.264,9.7,-0.0126,-0.005,9.8066,-0.0318,-0.0294,-0.0164,-43.19,-27.81,13.38,333.46,-82.77,-131.17
91766,52.472626,-1.379249,175.98,12.62,4.0,94.98,22 / 23,4755276,2019-09-07 11:46:28:430,-1.8464,0.5218,9.076,-0.0119,-0.0015,9.8066,-0.029,0.0113,0.0269,-43.25,-27.81,14.0,336.72,-82.83,-129.4
91767,52.472626,-1.379249,175.98,12.62,4.0,94.98,22 / 23,4755375,2019-09-07 11:46:28:529,-0.7932,0.4347,9.6279,-0.0183,-0.0072,9.8065,-0.0321,0.0285,0.065,-43.94,-27.37,13.5,337.87,-82.82,-128.04
91768,52.472626,-1.379249,175.98,12.62,4.0,94.98,22 / 23,4755475,2019-09-07 11:46:28:629,-1.6215,0.2984,9.9747,-0.0147,-0.0146,9.8066,-0.0138,-0.0213,0.0107,-43.87,-27.44,12.63,339.42,-82.75,-125.39
91769,52.472626,-1.379249,175.98,12.62,4.0,94.98,22 / 23,4755575,2019-09-07 11:46:28:729,-1.4319,1.8303,9.9504,0.0033,-0.0405,9.8066,0.0647,0.0833,0.1416,-43.81,-27.19,14.13,341.67,-82.48,-124.46
91770,52.472626,-1.379249,175.98,12.62,4.0,94.98,22 / 23,4755676,2019-09-07 11:46:28:830,-1.6095,0.5097,10.2074,0.0199,-0.0255,9.8066,0.07,0.0023,0.0139,-44.12,-26.31,13.44,340.33,-81.91,-124.41
91771,52.472626,-1.379249,175.98,12.62,4.0,94.98,22 / 23,4755775,2019-09-07 11:46:28:929,-1.7334,0.5016,10.4963,0.0095,-0.0166,9.8066,0.0228,-0.0005,0.0009,-43.94,-27.25,14.06,340.03,-81.63,-125.76
91772,52.472626,-1.379249,175.98,12.62,4.0,94.98,22 / 23,4755876,2019-09-07 11:46:29:030,-2.3881,0.186,10.1747,0.0033,-0.0002,9.8066,0.0199,0.0329,-0.0251,-44.12,-26.87,13.56,339.72,-81.57,-126.03
91773,52.472626,-1.379249,175.98,12.62,4.0,94.98,22 / 23,4755975,2019-09-07 11:46:29:129,-1.099,0.4508,9.6263,-0.0021,0.0165,9.8066,-0.0178,-0.0062,-0.0482,-44.69,-26.94,14.13,338.72,-81.72,-126.64
91774,52.472626,-1.379249,175.98,12.62,4.0,94.98,22 / 23,4756076,2019-09-07 11:46:29:230,-1.6566,0.7613,9.2244,-0.0073,0.0104,9.8066,-0.0373,-0.009,-0.0375,-44.19,-27.37,14.0,339.04,-81.95,-126.74
91775,52.472626,-1.379249,175.98,12.62,4.0,94.98,22 / 23,4756175,2019-09-07 11:46:29:329,-1.1047,0.8325,9.7774,-0.016,0.0022,9.8065,-0.0304,0.0469,0.0162,-43.56,-26.19,13.88,339.84,-82.1,-126.1
91776,52.472626,-1.379249,175.98,12.62,4.0,94.98,21 / 23,4756275,2019-09-07 11:46:29:429,-1.3388,0.2418,9.7337,-0.0141,-0.0054,9.8065,-0.0152,0.0133,0.0245,-43.94,-26.62,13.81,341.88,-82.17,-124.19
91777,52.472626,-1.379249,175.98,12.62,4.0,94.98,21 / 23,4756376,2019-09-07 11:46:29:530,-0.9765,1.0621,9.47,-0.004,-0.0067,9.8066,0.0014,0.0181,0.007,-44.56,-26.87,13.81,342.93,-82.18,-122.89
91778,52.472626,-1.379249,175.98,12.62,4.0,94.98,21 / 23,4756475,2019-09-07 11:46:29:629,-1.3956,-0.0128,9.2163,-0.0083,-0.0177,9.8065,-0.0071,0.0162,0.0238,-44.25,-26.19,13.13,343.12,-82.05,-121.88
91779,52.472626,-1.379249,175.98,12.62,4.0,94.98,21 / 23,4756576,2019-09-07 11:46:29:730,-0.4705,0.2582,9.3466,-0.0036,0.0178,9.8066,-0.0138,0.0081,-0.0476,-44.69,-26.75,13.19,343.41,-82.07,-121.25
91780,52.472626,-1.379249,175.98,12.62,4.0,94.98,21 / 23,4756675,2019-09-07 11:46:29:829,-0.9862,0.5688,10.408,-0.0045,0.0159,9.8065,-0.0012,0.006,-0.0317,-44.0,-26.94,13.69,345.03,-82.38,-121.34
91781,52.472626,-1.379249,175.98,12.62,4.0,94.98,21 / 23,4756775,2019-09-07 11:46:29:929,-1.0173,0.3759,10.4791,0.0041,-0.0014,9.8066,0.0173,0.0273,0.0231,-44.25,-27.06,13.63,344.67,-82.52,-121.7
91782,52.472626,-1.379249,175.98,12.62,4.0,94.98,21 / 23,4756875,2019-09-07 11:46:30:029,-0.4507,0.3473,10.91,0.0209,0.0164,9.8065,-0.0227,-0.0557,-0.1045,-43.56,-27.12,13.75,342.74,-82.7,-123.51
91783,52.472626,-1.379249,175.98,12.62,4.0,94.98,21 / 23,4756975,2019-09-07 11:46:30:129,-0.1481,0.598,8.752,-0.0059,0.0241,9.8066,-0.0293,0.0184,-0.0585,-43.5,-27.0,13.44,340.54,-83.04,-124.76
91784,52.472626,-1.379249,175.98,12.62,4.0,94.98,21 / 23,4757076,2019-09-07 11:46:30:230,-1.5109,0.1623,9.6218,-0.0236,0.02,9.8066,-0.0379,-0.0121,-0.051,-43.62,-27.06,12.81,341.6,-83.37,-123.52
91785,52.472626,-1.379249,175.98,12.62,4.0,94.98,21 / 23,4757175,2019-09-07 11:46:30:329,-1.7957,1.2491,9.634,-0.0059,0.0107,9.8066,-0.0015,0.0213,-0.0012,-43.19,-27.12,12.94,342.78,-83.67,-122.82
91786,52.472626,-1.379249,175.98,12.62,4.0,94.98,22 / 23,4757275,2019-09-07 11:46:30:429,-1.2268,0.6607,9.3068,-0.0138,-0.0257,9.8066,0.0293,0.0612,0.1216,-43.37,-27.5,13.25,344.55,-83.57,-121.15
91787,52.472626,-1.379249,175.98,12.62,4.0,94.98,22 / 23,4757375,2019-09-07 11:46:30:529,-1.4111,-0.4085,10.9715,-0.0018,-0.0141,9.8065,-0.0122,-0.0723,-0.0059,-43.62,-27.31,13.56,346.94,-83.39,-119.76
91788,52.472626,-1.379249,175.98,12.62,4.0,94.98,22 / 23,4757475,2019-09-07 11:46:30:629,-1.0374,-0.547,10.3277,-0.0003,-0.0048,9.8066,0.0001,-0.0308,-0.019,-43.62,-28.0,13.88,347.68,-83.23,-119.01
91789,52.472626,-1.379249,175.98,12.62,4.0,94.98,22 / 23,4757576,2019-09-07 11:46:30:730,-1.7026,1.2127,8.9425,0.0151,-0.0015,9.8066,0.0713,0.0372,0.0503,-43.69,-27.87,13.5,346.53,-83.24,-120.08
91790,52.472626,-1.379249,175.98,12.62,4.0,94.98,22 / 23,4757675,2019-09-07 11:46:30:829,-1.2516,0.2571,9.8286,0.0084,-0.0004,9.8066,0.0041,-0.0789,-0.0308,-43.75,-26.94,13.75,345.55,-83.2,-121.01
91791,52.472626,-1.379249,175.98,12.62,4.0,94.98,22 / 23,4757775,2019-09-07 11:46:30:929,-1.199,-0.2185,9.4356,-0.0026,0.0025,9.8066,-0.0115,-0.0298,-0.0156,-43.69,-27.12,13.63,345.08,-83.17,-121.45
91792,52.472626,-1.379249,175.98,12.62,4.0,94.98,22 / 23,4757875,2019-09-07 11:46:31:029,-1.364,0.6915,10.1655,0.0028,0.0113,9.8066,-0.0253,-0.0828,-0.062,-43.75,-27.37,14.06,344.89,-83.27,-121.64
91793,52.472626,-1.379249,175.98,12.62,4.0,94.98,22 / 23,4757975,2019-09-07 11:46:31:129,-2.0035,0.2058,9.2896,0.0012,-0.0013,9.8066,0.0063,-0.0305,-0.002,-43.87,-27.06,14.31,344.38,-83.33,-122.12
91794,52.472626,-1.379249,175.98,12.62,4.0,94.98,22 / 23,4758075,2019-09-07 11:46:31:229,-1.6035,0.7337,9.7162,0.0047,0.0052,9.8066,0.014,-0.0249,-0.0016,-43.56,-26.62,14.13,343.9,-83.35,-122.57
91795,52.472626,-1.379249,175.98,12.62,4.0,94.98,22 / 23,4758178,2019-09-07 11:46:31:332,-1.2599,0.0569,9.6624,0.0054,0.0082,9.8066,0.0045,-0.0458,-0.0272,-43.62,-27.25,14.25,342.86,-83.37,-123.54
91796,52.472626,-1.379249,175.98,12.62,4.0,94.98,22 / 23,4758276,2019-09-07 11:46:31:430,-1.4359,0.2086,9.9429,-0.009,-0.0033,9.8066,-0.0262,-0.03,0.0038,-43.25,-27.37,14.94,345.11,-83.38,-123.02
91797,52.472626,-1.379249,175.98,12.62,4.0,94.98,22 / 23,4758375,2019-09-07 11:46:31:529,-1.0239,1.2465,10.0602,-0.0177,-0.0075,9.8066,-0.0186,0.0352,0.0693,-43.94,-27.56,14.63,345.82,-83.43,-121.95
91798,52.472626,-1.379249,175.98,12.62,4.0,94.98,22 / 23,4758476,2019-09-07 11:46:31:630,-1.3956,0.1397,10.34,-0.0165,-0.0154,9.8065,-0.0224,-0.0355,0.0247,-43.62,-27.5,14.63,348.92,-83.31,-119.08
91799,52.472626,-1.379249,175.98,12.62,4.0,94.98,22 / 23,4758576,2019-09-07 11:46:31:730,-1.0936,-0.4369,10.5707,-0.0075,0.0019,9.8066,-0.004,-0.0231,0.0283,-43.81,-26.25,14.56,350.92,-83.24,-117.25
91800,52.472626,-1.379249,175.98,12.62,4.0,94.98,22 / 23,4758675,2019-09-07 11:46:31:829,-1.4552,-0.3638,10.2554,-0.0021,0.0063,9.8066,-0.006,-0.0495,-0.0397,-43.81,-27.25,14.19,350.04,-83.28,-116.87
91801,52.472626,-1.379249,175.98,12.62,4.0,94.98,22 / 23,4758775,2019-09-07 11:46:31:929,-1.2009,0.221,10.1043,0.0115,0.0184,9.8065,0.0296,-0.0182,-0.0387,-43.25,-27.62,14.31,349.89,-83.41,-117.36
91802,52.472626,-1.379249,175.98,12.62,4.0,94.98,22 / 23,4758875,2019-09-07 11:46:32:029,-0.4942,0.8972,9.9444,0.0079,0.0065,9.8066,0.0147,-0.048,0.01,-43.44,-27.12,15.13,348.86,-83.61,-119.58
91803,52.472626,-1.379249,175.98,12.62,4.0,94.98,22 / 23,4758975,2019-09-07 11:46:32:129,-1.278,0.9561,9.4707,-0.0076,-0.0072,9.8065,-0.0114,-0.0332,0.0298,-43.94,-27.31,15.0,348.24,-83.56,-119.75
91804,52.472626,-1.379249,175.98,12.62,4.0,94.98,22 / 23,4759075,2019-09-07 11:46:32:229,-0.8726,0.0785,10.4251,-0.0119,-0.0096,9.8066,-0.0056,-0.0208,0.0341,-43.56,-27.62,15.06,350.32,-83.47,-117.78
91805,52.472626,-1.379249,175.98,12.62,4.0,94.98,22 / 23,4759175,2019-09-07 11:46:32:329,-1.5826,-0.442,9.9653,-0.0013,0.0039,9.8066,0.0203,0.0151,0.0321,-43.25,-27.19,14.44,350.64,-83.4,-116.69
91806,52.472626,-1.379249,175.98,12.62,4.0,94.98,22 / 22,4759275,2019-09-07 11:46:32:429,-0.8225,-0.0419,10.3972,-0.0005,0.0137,9.8066,-0.0284,-0.0839,-0.0592,-43.81,-27.5,15.31,351.41,-83.53,-116.8
91807,52.472626,-1.379249,175.98,12.62,4.0,94.98,22 / 22,4759375,2019-09-07 11:46:32:529,-0.8051,0.7341,10.1369,-0.0018,0.0087,9.8065,0.006,-0.016,-0.0075,-43.19,-27.44,15.38,351.88,-83.64,-116.77
91808,52.472626,-1.379249,175.98,12.62,4.0,94.98,22 / 22,4759475,2019-09-07 11:46:32:629,-0.9726,0.5688,10.2346,-0.0016,0.0087,9.8066,0.0005,-0.0484,-0.0203,-43.25,-27.37,15.13,351.94,-83.82,-116.73
91809,52.472626,-1.379249,175.98,12.62,4.0,94.98,22 / 22,4759576,2019-09-07 11:46:32:730,-1.1205,0.4141,10.3068,0.0013,-0.0093,9.8066,0.0187,-0.0148,0.0294,-43.0,-28.0,15.38,351.57,-83.84,-117.06
91810,52.472626,-1.379249,175.98,12.62,4.0,94.98,22 / 22,4759675,2019-09-07 11:46:32:829,-0.8303,0.2014,9.6206,-0.0014,-0.0083,9.8066,-0.0003,-0.0415,0.0229,-43.12,-27.06,15.5,353.04,-83.67,-116.88
91811,52.472626,-1.379249,175.98,12.62,4.0,94.98,22 / 22,4759775,2019-09-07 11:46:32:929,-1.1136,-0.0421,9.9972,-0.0035,-0.0071,9.8066,-0.0124,-0.068,-0.0019,-43.44,-27.81,15.81,354.07,-83.52,-115.89
91812,52.472626,-1.379249,175.98,12.62,4.0,94.98,22 / 22,4759875,2019-09-07 11:46:33:029,-1.04,0.0418,10.0127,-0.0037,0.0039,9.8066,0.0021,-0.0394,-0.009,-44.06,-27.5,16.0,354.19,-83.51,-115.38
91813,52.472626,-1.379249,175.98,12.62,4.0,94.98,22 / 22,4759975,2019-09-07 11:46:33:129,-0.6503,0.2497,10.0868,0.0035,0.0027,9.8066,0.0172,-0.0289,0.0032,-43.62,-27.75,16.0,354.15,-83.55,-115.41
91814,52.472626,-1.379249,175.98,12.62,4.0,94.98,22 / 22,4760075,2019-09-07 11:46:33:229,-0.5811,0.487,9.5544,0.0026,0.0035,9.8066,0.0066,-0.032,-0.0009,-43.69,-26.94,15.75,353.46,-83.6,-116.06
91815,52.472626,-1.379249,175.98,12.62,4.0,94.98,22 / 22,4760175,2019-09-07 11:46:33:329,-0.753,0.4529,9.9829,-0.0026,-0.0002,9.8066,-0.0072,-0.0386,0.0069,-43.12,-27.06,16.38,353.71,-83.66,-116.25
91816,52.472626,-1.379249,175.98,12.62,4.0,94.98,22 / 23,4760276,2019-09-07 11:46:33:430,-0.8088,0.1181,10.0642,-0.0067,-0.0011,9.8066,0.0009,-0.0338,0.0098,-43.31,-26.37,16.25,354.78,-83.66,-115.27
91817,52.472626,-1.379249,175.98,12.62,4.0,94.98,22 / 23,4760376,2019-09-07 11:46:33:530,-0.9704,0.3504,9.6884,-0.0029,-0.0031,9.8066,-0.004,-0.0441,0.0012,-43.5,-26.81,16.38,355.38,-83.62,-114.7
91818,52.472626,-1.379249,175.98,12.62,4.0,94.98,22 / 23,4760475,2019-09-07 11:46:33:629,-1.0021,0.1364,10.1766,-0.0048,-0.0047,9.8066,0.0011,-0.0349,0.011,-43.31,-27.25,16.25,355.88,-83.57,-114.24
91819,52.472626,-1.379249,175.98,12.62,4.0,94.98,22 / 23,4760575,2019-09-07 11:46:33:729,-0.978,0.1235,10.2328,-0.0032,-0.0003,9.8066,0.0053,-0.0286,0.0147,-43.87,-27.56,16.06,355.75,-83.55,-113.92
91820,52.472626,-1.379249,175.98,12.62,4.0,94.98,22 / 23,4760675,2019-09-07 11:46:33:829,-0.8675,0.2213,9.9603,-0.0037,0.003,9.8066,0.0017,-0.0557,-0.0173,-43.12,-27.75,16.5,357.88,-83.59,-113.54
91821,52.472626,-1.379249,175.98,12.62,4.0,94.98,22 / 23,4760775,2019-09-07 11:46:33:929,-0.5365,0.3751,9.6814,0.0025,0.0027,9.8066,0.0054,-0.0545,-0.0108,-43.31,-27.44,17.0,357.66,-83.63,-113.75
91822,52.472626,-1.379249,175.98,12.62,4.0,94.98,22 / 23,4760875,2019-09-07 11:46:34:029,-0.7507,0.434,9.9908,-0.0029,0.0012,9.8066,-0.0127,-0.052,-0.0026,-43.19,-26.69,17.13,357.77,-83.65,-113.65
91823,52.472626,-1.379249,175.98,12.62,4.0,94.98,22 / 23,4760975,2019-09-07 11:46:34:129,-0.8838,0.4187,9.9131,-0.0056,0.0033,9.8066,-0.0153,-0.0427,-0.006,-42.94,-26.62,17.25,358.59,-83.67,-112.88
91824,52.472626,-1.379249,175.98,12.62,4.0,94.98,22 / 23,4761076,2019-09-07 11:46:34:230,-0.6526,0.5222,9.7275,-0.0022,0.0005,9.8066,0.0106,-0.0216,0.0205,-42.69,-26.62,17.19,358.91,-83.68,-112.58
91825,52.472626,-1.379249,175.98,12.62,4.0,94.98,22 / 23,4761175,2019-09-07 11:46:34:329,-0.8948,0.3122,9.6338,-0.0013,0.0008,9.8066,0.0027,-0.0464,-0.0013,-43.56,-26.75,17.19,358.5,-83.66,-112.52
91826,52.472626,-1.379249,175.98,12.62,4.0,94.98,22 / 23,4761276,2019-09-07 11:46:34:430,-0.822,0.3731,9.6757,-0.0023,-0.0015,9.8066,-0.0044,-0.0412,0.014,-42.87,-27.12,16.94,359.21,-83.65,-112.3
91827,52.472626,-1.379249,175.98,12.62,4.0,94.98,22 / 23,4761375,2019-09-07 11:46:34:529,-0.6684,0.278,10.1138,-0.0047,0.0012,9.8066,-0.0067,-0.0458,0.0023,-43.25,-27.37,16.88,0.13,-83.64,-111.45
91828,52.472626,-1.379249,175.98,12.62,4.0,94.98,22 / 23,4761475,2019-09-07 11:46:34:629,0.2855,0.0689,9.8205,-0.0028,-0.0004,9.8066,0.0154,-0.042,0.013,-43.37,-27.12,17.06,0.48,-83.64,-111.13
91829,52.472626,-1.379249,175.98,12.62,4.0,94.98,22 / 23,4761575,2019-09-07 11:46:34:729,0.4497,-0.27,9.9364,0.0043,-0.0064,9.8066,0.0138,-0.0557,0.0068,-42.75,-27.31,17.19,0.12,-83.59,-111.46
91830,52.472626,-1.379249,175.98,12.62,4.0,94.98,22 / 23,4761675,2019-09-07 11:46:34:829,0.3426,-0.256,9.7598,0.0004,-0.003,9.8066,0.0024,-0.0308,0.0091,-42.81,-26.69,17.63,0.91,-83.5,-111.87
91831,52.472626,-1.379249,175.98,12.62,4.0,94.98,22 / 23,4761776,2019-09-07 11:46:34:930,0.4439,-0.0966,9.8758,-0.0036,0.0001,9.8066,0.001,-0.0243,0.0179,-42.62,-26.56,17.56,1.25,-83.5,-111.56
91832,52.472626,-1.379249,175.98,12.62,4.0,94.98,22 / 23,4761875,2019-09-07 11:46:35:029,0.575,-0.1697,9.6891,-0.0008,-0.0014,9.8066,-0.0061,-0.0618,0.0006,-42.69,-26.12,17.88,1.58,-83.49,-111.25
91833,52.472626,-1.379249,175.98,12.62,4.0,94.98,22 / 23,4761975,2019-09-07 11:46:35:129,0.5784,-0.1119,10.0554,-0.0012,-0.003,9.8066,0.007,-0.0422,0.0204,-43.06,-26.06,17.38,0.66,-83.45,-110.96
91834,52.472626,-1.379249,175.98,12.62,4.0,94.98,22 / 23,4762076,2019-09-07 11:46:35:230,0.5568,-0.2717,9.6482,-0.0038,-0.002,9.8065,0.0091,-0.0348,0.0176,-42.94,-27.0,18.56,3.49,-83.44,-110.6
91835,52.472626,-1.379249,175.98,12.62,4.0,94.98,22 / 23,4762175,2019-09-07 11:46:35:329,1.2166,-0.5562,9.9075,0.0011,-0.0059,9.8066,0.0126,-0.0452,0.0125,-42.94,-26.81,18.44,2.38,-83.41,-110.5
91836,52.472626,-1.379249,175.98,12.62,4.0,94.98,22 / 23,4762275,2019-09-07 11:46:35:429,1.7198,-1.0512,9.7644,0.003,-0.0058,9.8066,0.0255,-0.0651,0.0006,-42.94,-26.75,18.75,3.23,-83.33,-110.85
91837,52.472626,-1.379249,175.98,12.62,4.0,94.98,22 / 23,4762376,2019-09-07 11:46:35:530,2.4905,-1.3105,10.0067,0.016,-0.0097,9.8066,0.0517,-0.059,0.0067,-43.12,-27.19,18.69,2.2,-83.23,-111.81
91838,52.472626,-1.379249,175.98,12.62,4.0,94.98,22 / 23,4762475,2019-09-07 11:46:35:629,3.2039,-1.7186,10.8945,0.0186,-0.008,9.8066,0.035,-0.0715,0.0128,-42.69,-26.37,18.69,359.66,-83.08,-114.15
91839,52.472626,-1.379249,175.98,12.62,4.0,94.98,22 / 23,4762575,2019-09-07 11:46:35:729,3.2565,-1.8844,9.6455,0.0016,-0.0067,9.8066,-0.0014,-0.0878,0.0233,-42.5,-26.87,18.94,358.83,-82.88,-115.42
91840,52.472626,-1.379249,175.98,12.62,4.0,94.98,22 / 23,4762676,2019-09-07 11:46:35:830,2.9726,-1.8977,9.5217,0.0036,-0.0087,9.8066,-0.0303,-0.1167,0.0235,-42.69,-25.94,19.81,359.09,-82.74,-115.79
91841,52.472626,-1.379249,175.98,12.62,4.0,94.98,22 / 23,4762776,2019-09-07 11:46:35:930,1.8462,-1.9689,10.3988,-0.0127,-0.0044,9.8066,-0.0338,-0.0915,0.0453,-42.06,-26.31,20.13,0.64,-82.68,-114.87
91842,52.472626,-1.379249,175.98,12.62,4.0,94.98,22 / 23,4762875,2019-09-07 11:46:36:029,0.9632,-1.229,9.7919,-0.0101,-0.0042,9.8066,-0.0384,-0.1495,0.0161,-42.56,-26.69,20.63,2.98,-82.61,-113.29
91843,52.472626,-1.379249,175.98,12.62,4.0,94.98,22 / 23,4762976,2019-09-07 11:46:36:130,0.6158,-0.8961,10.5461,-0.0038,-0.0018,9.8066,-0.0282,-0.1688,0.0093,-42.62,-26.0,20.81,3.92,-82.62,-112.42
91844,52.472626,-1.379249,175.98,12.62,4.0,94.98,22 / 23,4763075,2019-09-07 11:46:36:229,0.4372,-0.7127,9.8327,-0.0008,-0.0071,9.8066,-0.0032,-0.1562,0.0427,-42.87,-26.5,21.06,4.18,-82.55,-112.18
91845,52.472626,-1.379249,175.98,12.62,4.0,94.98,22 / 23,4763175,2019-09-07 11:46:36:329,0.5567,-1.1817,10.3062,0.0012,-0.0113,9.8066,-0.0088,-0.2097,0.0297,-42.62,-25.75,21.69,4.79,-82.34,-112.69
91846,52.47258,-1.378485,175.14,2.84,4.0,113.88,22 / 22,4763275,2019-09-07 11:46:36:429,0.2976,-1.1588,10.2651,0.005,-0.0179,9.8066,-0.0074,-0.1875,0.0713,-42.19,-26.0,22.81,5.95,-82.17,-113.25
91847,52.47258,-1.378485,175.14,2.84,4.0,113.88,22 / 22,4763376,2019-09-07 11:46:36:530,0.5726,-1.6409,10.2281,-0.0035,-0.0086,9.8066,-0.0267,-0.2307,0.054,-41.87,-26.37,22.44,4.77,-81.98,-113.28
91848,52.47258,-1.378485,175.14,2.84,4.0,113.88,22 / 22,4763476,2019-09-07 11:46:36:630,0.0675,-1.3755,10.0324,-0.0036,-0.0056,9.8066,-0.0229,-0.2833,0.0313,-41.81,-25.75,23.63,7.53,-81.83,-112.87
91849,52.47258,-1.378485,175.14,2.84,4.0,113.88,22 / 22,4763575,2019-09-07 11:46:36:729,-0.107,-1.6406,10.3953,0.0174,-0.0146,9.8065,-0.0014,-0.353,-0.0176,-42.06,-25.81,23.88,6.18,-81.7,-114.11
91850,52.47258,-1.378485,175.14,2.84,4.0,113.88,22 / 22,4763675,2019-09-07 11:46:36:829,0.913,-1.9088,9.0618,0.021,-0.014,9.8066,-0.0013,-0.4017,0.0336,-41.69,-26.75,24.38,4.33,-81.58,-115.82
91851,52.47258,-1.378485,175.14,2.84,4.0,113.88,22 / 22,4763776,2019-09-07 11:46:36:930,1.1355,-2.5437,9.7299,0.0114,-0.0231,9.8066,0.0027,-0.3878,0.0595,-41.31,-26.06,25.38,4.7,-81.24,-117.12
91852,52.47258,-1.378485,175.14,2.84,4.0,113.88,22 / 22,4763875,2019-09-07 11:46:37:029,1.1852,-3.03,9.5493,0.0065,-0.0204,9.8066,-0.0317,-0.4137,0.0832,-40.31,-25.69,26.5,6.28,-80.88,-118.36
91853,52.47258,-1.378485,175.14,2.84,4.0,113.88,22 / 22,4763975,2019-09-07 11:46:37:129,0.7079,-2.9502,9.6007,0.0012,-0.0178,9.8066,-0.0598,-0.4803,0.0453,-40.31,-26.12,26.63,6.13,-80.63,-118.5
91854,52.47258,-1.378485,175.14,2.84,4.0,113.88,22 / 22,4764075,2019-09-07 11:46:37:229,0.1996,-2.4373,8.9949,0.0101,-0.019,9.8066,-0.0322,-0.4914,0.0533,-39.87,-25.5,26.81,5.4,-80.33,-119.17
91855,52.47258,-1.378485,175.14,2.84,4.0,113.88,22 / 22,4764175,2019-09-07 11:46:37:329,0.451,-3.3101,9.6693,0.0017,-0.0166,9.8066,-0.0311,-0.4619,0.0769,-39.44,-25.37,28.25,6.52,-80.05,-119.84
91856,52.47258,-1.378485,175.14,2.84,4.0,113.88,22 / 22,4764276,2019-09-07 11:46:37:430,-0.0377,-3.0203,10.8867,0.0108,-0.022,9.8065,-0.0209,-0.5149,0.0813,-38.06,-25.5,29.38,7.49,-79.86,-120.66
91857,52.47258,-1.378485,175.14,2.84,4.0,113.88,22 / 22,4764375,2019-09-07 11:46:37:529,-0.225,-2.0838,10.4499,0.0092,-0.0321,9.8065,-0.0123,-0.5252,0.1193,-38.0,-25.06,29.75,7.51,-79.69,-121.59
91858,52.47258,-1.378485,175.14,2.84,4.0,113.88,22 / 22,4764476,2019-09-07 11:46:37:630,-0.802,-2.5127,11.2637,0.0019,-0.0311,9.8065,-0.0204,-0.5498,0.1361,-36.94,-25.5,30.63,8.46,-79.16,-122.47
91859,52.47258,-1.378485,175.14,2.84,4.0,113.88,22 / 22,4764576,2019-09-07 11:46:37:730,-0.2406,-2.7816,11.0136,0.0015,-0.0429,9.8065,-0.022,-0.5936,0.1535,-36.12,-25.25,31.31,8.68,-78.76,-123.1
91860,52.47258,-1.378485,175.14,2.84,4.0,113.88,22 / 22,4764675,2019-09-07 11:46:37:829,-1.4905,-4.1955,8.5646,0.0063,-0.0405,9.8065,0.0027,-0.6131,0.0291,-35.0,-25.5,32.94,10.89,-77.97,-123.83
91861,52.47258,-1.378485,175.14,2.84,4.0,113.88,22 / 22,4764776,2019-09-07 11:46:37:930,-2.4277,-3.1841,11.0281,0.0425,0.0043,9.8065,-0.0346,-0.6023,0.013,-33.69,-25.5,33.13,7.97,-77.86,-127.23
91862,52.47258,-1.378485,175.14,2.84,4.0,113.88,22 / 22,4764875,2019-09-07 11:46:38:029,-1.4392,-1.9083,9.6791,0.0461,0.0104,9.8065,0.0249,-0.5748,0.0405,-32.81,-25.31,33.75,7.1,-78.06,-129.68
91863,52.47258,-1.378485,175.14,2.84,4.0,113.88,22 / 22,4764975,2019-09-07 11:46:38:129,-1.2078,-1.8191,10.1509,0.0433,-0.0346,9.8065,0.0409,-0.6724,0.0576,-31.19,-24.69,35.06,6.92,-77.94,-132.47
91864,52.47258,-1.378485,175.14,2.84,4.0,113.88,22 / 22,4765075,2019-09-07 11:46:38:229,-1.1424,-3.4084,10.9276,0.0143,-0.0538,9.8065,0.0395,-0.574,0.2035,-30.44,-25.06,35.38,4.7,-77.16,-135.38
91865,52.47258,-1.378485,175.14,2.84,4.0,113.88,22 / 22,4765175,2019-09-07 11:46:38:329,-2.2358,-3.7995,10.1996,0.0194,-0.0411,9.8065,0.0272,-0.5367,0.1984,-30.0,-24.69,35.94,4.85,-76.64,-136.07
91866,52.47258,-1.378485,175.14,2.84,4.0,113.88,22 / 22,4765275,2019-09-07 11:46:38:429,-2.0062,-3.3432,9.5409,0.0481,-0.0151,9.8065,0.0068,-0.5882,0.0301,-28.31,-24.75,37.44,4.88,-76.19,-138.77
91867,52.47258,-1.378485,175.14,2.84,4.0,113.88,22 / 22,4765376,2019-09-07 11:46:38:530,-2.5331,-2.4245,10.6943,0.0346,0.0053,9.8065,-0.0902,-0.7154,0.0091,-26.69,-26.31,37.13,2.22,-76.18,-142.03
91868,52.47258,-1.378485,175.14,2.84,4.0,113.88,22 / 22,4765475,2019-09-07 11:46:38:629,-2.3368,-2.0202,10.299,0.0234,-0.0033,9.8066,-0.0769,-0.7147,0.093,-25.12,-25.06,36.75,3.29,-76.16,-143.2
91869,52.47258,-1.378485,175.14,2.84,4.0,113.88,22 / 22,4765576,2019-09-07 11:46:38:730,-2.1605,-2.6151,10.8627,0.0215,-0.0078,9.8066,-0.054,-0.6527,0.0937,-24.37,-24.94,36.88,3.37,-76.08,-144.22
91870,52.47258,-1.378485,175.14,2.84,4.0,113.88,22 / 22,4765675,2019-09-07 11:46:38:829,-2.602,-2.7072,9.6584,0.0247,-0.0087,9.8066,-0.0214,-0.62,0.1065,-23.31,-25.25,36.0,1.78,-75.97,-145.96
91871,52.47258,-1.378485,175.14,2.84,4.0,113.88,22 / 22,4765775,2019-09-07 11:46:38:929,-2.044,-2.6954,10.1663,0.0341,-0.0134,9.8065,-0.0175,-0.6314,0.0609,-21.75,-24.25,36.19,1.69,-75.81,-147.17
91872,52.47258,-1.378485,175.14,2.84,4.0,113.88,22 / 22,4765876,2019-09-07 11:46:39:030,-2.6713,-2.1151,9.5463,0.0191,-0.0115,9.8066,-0.011,-0.6254,0.0777,-20.75,-25.19,36.81,1.51,-75.6,-149.18
91873,52.47258,-1.378485,175.14,2.84,4.0,113.88,22 / 22,4765975,2019-09-07 11:46:39:129,-3.3443,-1.8597,9.9319,0.034,-0.0056,9.8065,0.0087,-0.4621,0.1407,-19.12,-26.0,35.88,0.92,-75.46,-151.43
91874,52.47258,-1.378485,175.14,2.84,4.0,113.88,22 / 22,4766076,2019-09-07 11:46:39:230,-2.8216,-2.279,9.5859,0.0345,-0.0089,9.8065,-0.0298,-0.6117,-0.0178,-18.06,-26.37,35.56,0.0,-75.46,-153.43
91875,52.47258,-1.378485,175.14,2.84,4.0,113.88,22 / 22,4766175,2019-09-07 11:46:39:329,-2.2619,-2.4688,10.0646,0.0404,0.0057,9.8065,-0.0375,-0.5665,-0.0146,-17.56,-26.25,35.38,356.68,-75.43,-155.44
91876,52.47258,-1.378485,175.14,2.84,4.0,113.88,22 / 23,4766276,2019-09-07 11:46:39:430,-2.1295,-2.1924,10.9059,0.0243,0.0031,9.8066,-0.0556,-0.4958,0.027,-16.06,-26.06,34.88,356.5,-75.54,-158.23
91877,52.47258,-1.378485,175.14,2.84,4.0,113.88,22 / 23,4766376,2019-09-07 11:46:39:530,-2.2171,-1.7824,9.9071,0.0243,0.0124,9.8066,-0.0444,-0.4711,0.0324,-15.62,-25.5,34.31,354.41,-75.62,-159.29
91878,52.47258,-1.378485,175.14,2.84,4.0,113.88,22 / 23,4766475,2019-09-07 11:46:39:629,-2.1335,-2.4185,9.1533,0.0189,0.007,9.8066,-0.022,-0.3519,0.0745,-14.87,-26.37,32.94,353.64,-75.72,-160.59
91879,52.47258,-1.378485,175.14,2.84,4.0,113.88,22 / 23,4766575,2019-09-07 11:46:39:729,-0.8387,-1.6173,10.3046,0.0191,0.0092,9.8065,-0.0622,-0.4435,-0.033,-13.87,-26.06,32.5,354.06,-75.79,-161.72
91880,52.47258,-1.378485,175.14,2.84,4.0,113.88,22 / 23,4766676,2019-09-07 11:46:39:830,-1.0061,-2.0153,9.7327,0.0291,0.0111,9.8066,-0.023,-0.2984,0.0139,-12.62,-26.06,32.0,353.86,-75.85,-162.71
91881,52.47258,-1.378485,175.14,2.84,4.0,113.88,22 / 23,4766775,2019-09-07 11:46:39:929,-0.3313,-1.5543,10.2518,0.022,0.0117,9.8066,-0.0226,-0.2306,0.0702,-13.37,-26.44,31.81,351.29,-76.02,-164.77
91882,52.47258,-1.378485,175.14,2.84,4.0,113.88,22 / 23,4766876,2019-09-07 11:46:40:030,-0.5795,-1.0328,9.9202,0.0106,0.008,9.8066,-0.0184,-0.2329,0.0577,-12.19,-27.25,31.5,352.0,-76.15,-165.71
91883,52.47258,-1.378485,175.14,2.84,4.0,113.88,22 / 23,4766976,2019-09-07 11:46:40:130,-1.117,-1.8121,10.6426,0.002,-0.0016,9.8066,-0.0304,-0.2774,0.0025,-12.44,-26.94,31.19,351.13,-76.14,-165.73
91884,52.47258,-1.378485,175.14,2.84,4.0,113.88,22 / 23,4767075,2019-09-07 11:46:40:229,-1.085,-2.139,9.1678,0.0133,0.0068,9.8066,0.014,-0.0995,0.0718,-11.81,-26.69,30.63,350.41,-76.15,-166.3
91885,52.47258,-1.378485,175.14,2.84,4.0,113.88,22 / 23,4767176,2019-09-07 11:46:40:330,0.5605,-3.1949,9.4823,0.0003,-0.0028,9.8066,-0.0307,-0.1995,-0.0377,-11.87,-27.37,30.19,349.13,-76.11,-166.59
91886,52.47258,-1.378485,175.14,2.84,4.0,113.88,22 / 23,4767276,2019-09-07 11:46:40:430,0.8948,-0.2879,9.3771,0.0231,-0.003,9.8065,0.0333,-0.1036,-0.0233,-11.31,-26.56,29.44,349.89,-76.19,-166.96
91887,52.47258,-1.378485,175.14,2.84,4.0,113.88,22 / 23,4767375,2019-09-07 11:46:40:529,-0.3881,-1.8638,9.0312,0.0134,-0.015,9.8066,0.0112,-0.077,-0.0297,-11.12,-26.94,29.38,348.04,-75.99,-168.33
91888,52.47258,-1.378485,175.14,2.84,4.0,113.88,22 / 23,4767475,2019-09-07 11:46:40:629,0.6648,0.0013,11.0393,-0.0021,-0.0013,9.8065,-0.0661,-0.0744,-0.026,-11.19,-26.5,29.63,347.83,-76.04,-169.31
91889,52.47258,-1.378485,175.14,2.84,4.0,113.88,22 / 23,4767575,2019-09-07 11:46:40:729,1.6004,-1.3773,9.9136,-0.0023,0.0123,9.8066,-0.0209,-0.012,0.056,-10.69,-26.31,29.5,347.52,-76.31,-169.61
91890,52.47258,-1.378485,175.14,2.84,4.0,113.88,22 / 23,4767675,2019-09-07 11:46:40:829,-0.0752,-1.7704,10.0855,0.0114,-0.0112,9.8066,0.058,-0.0023,0.0317,-10.69,-26.81,29.25,346.8,-76.22,-169.34
91891,52.47258,-1.378485,175.14,2.84,4.0,113.88,22 / 23,4767775,2019-09-07 11:46:40:929,0.7069,-1.9074,11.8938,0.0148,-0.0118,9.8066,0.0375,0.016,0.0519,-10.19,-27.19,30.31,348.94,-75.95,-170.02
91892,52.47258,-1.378485,175.14,2.84,4.0,113.88,22 / 23,4767875,2019-09-07 11:46:41:029,-0.4177,-1.3936,10.7246,0.0046,-0.0028,9.8066,-0.046,-0.1857,-0.1102,-10.37,-27.0,29.31,348.11,-75.79,-169.96
91893,52.47258,-1.378485,175.14,2.84,4.0,113.88,22 / 23,4767975,2019-09-07 11:46:41:129,0.6239,-1.2968,9.2499,0.0208,-0.0022,9.8066,0.0512,0.0114,0.0307,-9.87,-27.25,29.38,346.75,-75.72,-170.97
91894,52.47258,-1.378485,175.14,2.84,4.0,113.88,22 / 23,4768075,2019-09-07 11:46:41:229,1.093,-1.2275,9.2354,-0.0058,-0.0105,9.8066,-0.0871,-0.151,-0.0972,-9.87,-26.5,29.19,346.63,-75.62,-171.14
91895,52.47258,-1.378485,175.14,2.84,4.0,113.88,22 / 23,4768175,2019-09-07 11:46:41:329,-0.1771,-0.4803,10.5618,0.018,0.0183,9.8066,0.0051,0.0902,0.0786,-10.19,-26.62,28.75,345.08,-75.83,-172.28
91896,52.47258,-1.378485,175.14,2.84,4.0,113.88,22 / 22,4768275,2019-09-07 11:46:41:429,0.6167,-1.0331,11.2953,-0.0043,0.008,9.8066,-0.045,-0.1068,-0.0677,-10.44,-27.0,28.81,345.48,-75.88,-171.98
91897,52.47258,-1.378485,175.14,2.84,4.0,113.88,22 / 22,4768376,2019-09-07 11:46:41:530,0.2602,-0.8918,11.1506,0.0039,0.0022,9.8066,-0.004,-0.0049,0.0253,-9.81,-27.0,29.38,344.95,-75.98,-172.42
91898,52.47258,-1.378485,175.14,2.84,4.0,113.88,22 / 22,4768475,2019-09-07 11:46:41:629,1.0047,-1.5135,11.2344,0.0056,-0.0021,9.8066,-0.0179,-0.0256,0.0214,-10.75,-26.69,29.19,343.11,-75.97,-172.12
91899,52.47258,-1.378485,175.14,2.84,4.0,113.88,22 / 22,4768575,2019-09-07 11:46:41:729,0.3778,-1.8113,11.9093,-0.002,-0.0125,9.8066,0.027,0.0068,0.0316,-10.19,-26.94,28.81,345.22,-75.88,-172.18
91900,52.47258,-1.378485,175.14,2.84,4.0,113.88,22 / 22,4768675,2019-09-07 11:46:41:829,0.9905,-1.8025,10.3531,-0.0001,-0.0053,9.8066,-0.0378,-0.1454,-0.0946,-9.62,-26.94,29.25,345.37,-75.75,-172.03
91901,52.47258,-1.378485,175.14,2.84,4.0,113.88,22 / 22,4768775,2019-09-07 11:46:41:929,0.333,-1.7304,11.1242,0.0021,-0.0019,9.8066,-0.0255,-0.1301,-0.0773,-9.81,-26.75,29.63,345.78,-75.74,-172.39
91902,52.47258,-1.378485,175.14,2.84,4.0,113.88,22 / 22,4768875,2019-09-07 11:46:42:029,1.0872,-1.7218,9.8454,-0.0058,-0.021,9.8066,-0.044,-0.151,-0.1027,-9.62,-26.75,28.81,344.28,-75.73,-172.86
91903,52.47258,-1.378485,175.14,2.84,4.0,113.88,22 / 22,4768975,2019-09-07 11:46:42:129,0.6178,-0.4892,9.4537,0.0018,0.0065,9.8065,-0.0218,-0.0312,0.0036,-9.5,-26.62,28.88,346.63,-75.66,-172.8
91904,52.47258,-1.378485,175.14,2.84,4.0,113.88,22 / 22,4769075,2019-09-07 11:46:42:229,-0.1433,-0.4703,10.3678,-0.0013,-0.0117,9.8066,0.01,-0.016,-0.0028,-9.56,-27.19,28.88,344.3,-75.68,-172.83
91905,52.47258,-1.378485,175.14,2.84,4.0,113.88,22 / 22,4769176,2019-09-07 11:46:42:330,0.7056,-1.111,9.0135,-0.0081,0.0019,9.8066,-0.0201,-0.0613,-0.0093,-9.56,-27.5,29.13,344.76,-75.59,-172.45
91906,52.47258,-1.378485,175.14,2.84,4.0,113.88,23 / 23,4769278,2019-09-07 11:46:42:432,0.3263,-1.4839,8.897,-0.0015,0.0106,9.8066,-0.0296,-0.0179,0.0034,-9.75,-27.0,28.31,343.9,-75.67,-172.38
91907,52.47258,-1.378485,175.14,2.84,4.0,113.88,23 / 23,4769375,2019-09-07 11:46:42:529,0.4399,-1.1656,11.3994,0.005,0.0027,9.8066,0.0397,0.0957,0.1078,-10.12,-26.31,28.44,343.95,-75.7,-172.49
91908,52.47258,-1.378485,175.14,2.84,4.0,113.88,23 / 23,4769475,2019-09-07 11:46:42:629,1.2988,-2.1929,10.911,0.0029,-0.0017,9.8066,0.035,0.0931,0.0863,-9.94,-27.19,28.38,344.5,-75.61,-171.92
91909,52.47258,-1.378485,175.14,2.84,4.0,113.88,23 / 23,4769575,2019-09-07 11:46:42:729,0.1524,-0.28,9.354,0.0018,-0.0035,9.8066,-0.0172,-0.026,0.0172,-9.75,-26.44,28.63,346.16,-75.48,-171.47
91910,52.47258,-1.378485,175.14,2.84,4.0,113.88,23 / 23,4769675,2019-09-07 11:46:42:829,1.9428,-2.2263,11.3235,-0.0032,-0.0037,9.8066,-0.0341,-0.0963,-0.0569,-10.06,-27.25,28.88,346.54,-75.51,-171.08
91911,52.47258,-1.378485,175.14,2.84,4.0,113.88,23 / 23,4769775,2019-09-07 11:46:42:929,0.1527,-1.6942,10.3208,-0.0096,-0.0041,9.8066,-0.0052,-0.0685,-0.0092,-9.81,-27.12,28.38,345.62,-75.54,-171.05
91912,52.47258,-1.378485,175.14,2.84,4.0,113.88,23 / 23,4769875,2019-09-07 11:46:43:029,0.5755,-0.9294,10.8649,0.0087,-0.0035,9.8066,0.0205,0.0541,0.0868,-9.87,-27.19,27.88,346.03,-75.47,-170.73
91913,52.47258,-1.378485,175.14,2.84,4.0,113.88,23 / 23,4769975,2019-09-07 11:46:43:129,-1.4052,0.5142,8.7781,-0.007,-0.0056,9.8065,-0.0266,-0.0325,0.0132,-10.37,-27.5,28.13,346.29,-75.4,-170.51
91914,52.47258,-1.378485,175.14,2.84,4.0,113.88,23 / 23,4770075,2019-09-07 11:46:43:229,0.3724,0.7552,10.1204,0.0047,0.0288,9.8065,-0.0558,0.0115,0.0697,-10.0,-27.37,27.94,346.63,-75.54,-170.3
91915,52.47258,-1.378485,175.14,2.84,4.0,113.88,23 / 23,4770175,2019-09-07 11:46:43:329,-0.4219,-0.2958,10.1802,-0.0239,0.0001,9.8066,-0.0347,-0.1547,-0.0748,-9.75,-27.81,27.63,347.49,-75.87,-169.63
91916,52.47258,-1.378485,175.14,2.84,4.0,113.88,23 / 23,4770276,2019-09-07 11:46:43:430,-1.081,-0.4677,10.7217,0.0098,-0.0118,9.8066,0.0548,-0.0061,0.0186,-9.94,-27.25,28.19,347.34,-75.71,-169.81
91917,52.47258,-1.378485,175.14,2.84,4.0,113.88,23 / 23,4770376,2019-09-07 11:46:43:530,-0.0743,-0.7418,9.3956,0.0006,-0.0074,9.8066,0.0021,-0.0618,-0.0115,-9.25,-27.37,27.5,349.5,-75.56,-169.96
91918,52.47258,-1.378485,175.14,2.84,4.0,113.88,23 / 23,4770475,2019-09-07 11:46:43:629,0.2303,-1.4334,9.5293,0.0104,-0.0006,9.8065,0.0261,-0.0372,-0.0057,-10.0,-27.06,27.69,346.77,-75.44,-170.16
91919,52.47258,-1.378485,175.14,2.84,4.0,113.88,23 / 23,4770576,2019-09-07 11:46:43:730,-0.0978,-1.3338,10.5398,0.0109,-0.0041,9.8065,0.0308,0.0373,0.0587,-9.81,-27.19,28.06,345.83,-75.3,-170.83
91920,52.47258,-1.378485,175.14,2.84,4.0,113.88,23 / 23,4770676,2019-09-07 11:46:43:830,-0.139,-0.5935,9.6904,0.001,0.0084,9.8066,-0.0316,-0.0263,0.0166,-9.56,-26.69,28.06,345.75,-75.32,-170.9
91921,52.47258,-1.378485,175.14,2.84,4.0,113.88,23 / 23,4770776,2019-09-07 11:46:43:930,-0.3668,-0.6832,11.4913,-0.0017,0.0008,9.8066,-0.0336,-0.0783,-0.0393,-9.87,-27.69,27.75,345.48,-75.44,-171.01
91922,52.47258,-1.378485,175.14,2.84,4.0,113.88,23 / 23,4770875,2019-09-07 11:46:44:029,0.8815,-0.688,8.8284,0.0124,0.0123,9.8066,-0.0027,-0.0284,0.0139,-9.87,-28.0,27.38,343.39,-75.5,-171.78
91923,52.47258,-1.378485,175.14,2.84,4.0,113.88,23 / 23,4770975,2019-09-07 11:46:44:129,-0.5957,-0.4372,11.586,0.0059,0.0071,9.8066,0.0181,0.0226,0.0377,-9.56,-27.56,27.38,342.64,-75.57,-172.36
91924,52.47258,-1.378485,175.14,2.84,4.0,113.88,23 / 23,4771075,2019-09-07 11:46:44:229,-0.3092,-0.6838,10.8713,0.0099,-0.0033,9.8066,-0.0111,-0.1038,-0.0724,-9.0,-27.06,27.63,345.62,-75.52,-172.85
91925,52.47258,-1.378485,175.14,2.84,4.0,113.88,23 / 23,4771182,2019-09-07 11:46:44:336,0.2883,-1.1263,9.4495,0.0152,0.0014,9.8065,0.0249,0.0008,0.0201,-8.75,-27.12,27.44,343.23,-75.46,-173.87
91926,52.47258,-1.378485,175.14,2.84,4.0,113.88,23 / 23,4771276,2019-09-07 11:46:44:430,0.7105,-1.0138,11.2627,0.0006,-0.0054,9.8065,-0.0113,-0.0593,-0.0094,-9.37,-27.37,27.31,342.36,-75.44,-174.51
91927,52.47258,-1.378485,175.14,2.84,4.0,113.88,23 / 23,4771375,2019-09-07 11:46:44:529,-0.0281,-0.8183,8.1766,0.003,-0.0135,9.8066,0.0274,-0.0068,0.0136,-8.87,-27.19,27.63,343.31,-75.31,-174.51
91928,52.47258,-1.378485,175.14,2.84,4.0,113.88,23 / 23,4771476,2019-09-07 11:46:44:630,0.5819,-1.5327,8.1168,-0.0022,0.009,9.8066,-0.0342,-0.0127,0.0125,-9.25,-27.37,27.31,342.11,-75.33,-174.66
91929,52.47258,-1.378485,175.14,2.84,4.0,113.88,23 / 23,4771575,2019-09-07 11:46:44:729,-0.5287,-0.5037,9.5979,-0.0068,0.0121,9.8065,-0.0729,-0.0934,-0.0642,-9.31,-27.94,26.75,341.98,-75.49,-174.66
91930,52.47258,-1.378485,175.14,2.84,4.0,113.88,23 / 23,4771675,2019-09-07 11:46:44:829,-0.5901,-0.6398,11.914,0.0085,0.0086,9.8066,-0.0453,0.0117,0.0131,-8.44,-27.5,26.94,344.11,-75.61,-175.16
91931,52.47258,-1.378485,175.14,2.84,4.0,113.88,23 / 23,4771776,2019-09-07 11:46:44:930,0.819,-0.4214,9.6876,-0.006,-0.0011,9.8066,-0.0189,-0.051,-0.0408,-9.19,-27.69,26.38,339.79,-75.76,-175.56
91932,52.47258,-1.378485,175.14,2.84,4.0,113.88,23 / 23,4771875,2019-09-07 11:46:45:029,0.6453,0.0814,9.806,0.0077,-0.0176,9.8066,0.0552,-0.0011,-0.0162,-9.19,-27.5,26.75,340.68,-75.65,-175.85
91933,52.47258,-1.378485,175.14,2.84,4.0,113.88,23 / 23,4771975,2019-09-07 11:46:45:129,2.0575,-2.8414,10.5864,0.0142,-0.0262,9.8065,0.0283,0.0523,0.0264,-8.75,-27.19,26.75,339.91,-75.22,-176.25
91934,52.47258,-1.378485,175.14,2.84,4.0,113.88,23 / 23,4772075,2019-09-07 11:46:45:229,0.7561,-0.8782,8.0818,-0.0037,0.0077,9.8066,0.0327,0.0312,0.0217,-9.0,-27.44,26.88,340.33,-75.23,-175.95
91935,52.47258,-1.378485,175.14,2.84,4.0,113.88,23 / 23,4772178,2019-09-07 11:46:45:332,-0.231,1.0759,9.2361,-0.012,-0.0065,9.8066,-0.0368,0.0386,0.0435,-8.69,-27.12,27.0,340.81,-75.16,-175.57
91936,52.47198,-1.379331,173.53,19.3,4.0,235.6,22 / 23,4772276,2019-09-07 11:46:45:430,0.1367,-0.4238,10.0726,-0.0092,-0.0276,9.8065,0.0341,-0.0304,0.024,-8.56,-26.94,26.63,341.69,-75.21,-174.93
91937,52.47198,-1.379331,173.53,19.3,4.0,235.6,22 / 23,4772375,2019-09-07 11:46:45:529,-0.0591,-1.1452,9.3869,-0.0261,-0.0087,9.8066,-0.0547,-0.1022,-0.0178,-8.5,-27.56,27.25,345.92,-74.93,-173.5
91938,52.47198,-1.379331,173.53,19.3,4.0,235.6,22 / 23,4772475,2019-09-07 11:46:45:629,-0.1673,-0.4767,9.5129,-0.0195,-0.0055,9.8066,-0.0081,0.0224,0.0424,-9.56,-27.62,27.38,341.81,-75.01,-172.77
91939,52.47198,-1.379331,173.53,19.3,4.0,235.6,22 / 23,4772576,2019-09-07 11:46:45:730,-0.2448,-0.6754,10.32,-0.0153,-0.0024,9.8066,-0.0208,-0.0149,0.0292,-9.62,-27.94,26.69,343.57,-75.03,-171.49
91940,52.47198,-1.379331,173.53,19.3,4.0,235.6,22 / 23,4772676,2019-09-07 11:46:45:830,-0.2287,-1.1432,11.4762,-0.0103,-0.0114,9.8066,-0.0284,-0.0719,-0.0176,-9.62,-27.31,26.25,343.49,-75.05,-170.86
91941,52.47198,-1.379331,173.53,19.3,4.0,235.6,22 / 23,4772776,2019-09-07 11:46:45:930,0.375,-1.3411,10.8246,0.0005,0.0006,9.8066,0.0024,0.0073,0.0334,-9.75,-27.94,26.19,343.9,-74.97,-170.38
91942,52.47198,-1.379331,173.53,19.3,4.0,235.6,22 / 23,4772875,2019-09-07 11:46:46:029,-0.536,-0.0387,10.1592,-0.0123,-0.0081,9.8065,-0.0093,0.0086,0.0386,-9.62,-27.75,26.38,344.38,-74.94,-170.03
91943,52.47198,-1.379331,173.53,19.3,4.0,235.6,22 / 23,4772975,2019-09-07 11:46:46:129,-0.2843,-0.4247,9.377,-0.0084,-0.0039,9.8066,-0.0071,-0.0433,0.0079,-10.0,-28.06,26.5,346.12,-74.94,-169.61
91944,52.47198,-1.379331,173.53,19.3,4.0,235.6,22 / 23,4773075,2019-09-07 11:46:46:229,0.0624,-0.7123,9.7476,-0.0085,-0.003,9.8066,-0.0158,-0.0197,0.026,-9.69,-28.12,26.5,346.66,-74.88,-169.21
91945,52.47198,-1.379331,173.53,19.3,4.0,235.6,22 / 23,4773175,2019-09-07 11:46:46:329,0.2813,-0.4561,9.599,-0.0147,0.0011,9.8066,-0.0471,-0.0251,0.0381,-10.0,-28.37,26.06,346.54,-74.93,-168.48
91946,52.47198,-1.379331,173.53,19.3,4.0,235.6,22 / 23,4773276,2019-09-07 11:46:46:430,-0.7631,0.1946,9.8867,-0.0099,0.0065,9.8065,-0.0129,0.0044,0.0282,-10.06,-28.12,25.94,347.22,-75.01,-168.02
91947,52.47198,-1.379331,173.53,19.3,4.0,235.6,22 / 23,4773376,2019-09-07 11:46:46:530,-0.8762,0.6026,10.5263,0.0026,0.0059,9.8066,-0.0023,0.0443,0.0508,-10.12,-28.12,26.44,347.39,-75.12,-167.93
91948,52.47198,-1.379331,173.53,19.3,4.0,235.6,22 / 23,4773475,2019-09-07 11:46:46:629,0.5724,0.1575,9.4217,0.011,0.002,9.8066,-0.0025,0.0477,0.0413,-10.25,-28.12,26.06,346.75,-75.17,-168.4
91949,52.47198,-1.379331,173.53,19.3,4.0,235.6,22 / 23,4773576,2019-09-07 11:46:46:730,-0.5245,0.8157,10.7144,0.0005,-0.0031,9.8066,-0.0214,-0.0415,-0.028,-9.56,-27.69,26.19,346.88,-75.18,-168.31
91950,52.47198,-1.379331,173.53,19.3,4.0,235.6,22 / 23,4773675,2019-09-07 11:46:46:829,-1.0816,1.1558,9.4699,-0.0014,-0.0002,9.8066,-0.0087,0.0052,0.0219,-10.44,-28.56,26.13,346.56,-75.21,-168.42
91951,52.47198,-1.379331,173.53,19.3,4.0,235.6,22 / 23,4773776,2019-09-07 11:46:46:930,-0.8575,0.7082,10.0707,-0.0175,0.0029,9.8066,-0.0336,-0.0529,0.0114,-9.87,-28.5,26.25,347.59,-75.26,-167.82
91952,52.47198,-1.379331,173.53,19.3,4.0,235.6,22 / 23,4773876,2019-09-07 11:46:47:030,-0.9732,1.8387,9.43,-0.0116,-0.0018,9.8066,-0.0131,-0.0214,0.0138,-10.06,-28.31,25.38,347.01,-75.32,-167.38
91953,52.47198,-1.379331,173.53,19.3,4.0,235.6,22 / 23,4773976,2019-09-07 11:46:47:130,-0.2046,0.8927,9.6185,-0.0141,-0.0053,9.8066,0.0016,-0.0314,0.0338,-9.69,-27.87,25.19,348.23,-75.28,-166.5
91954,52.47198,-1.379331,173.53,19.3,4.0,235.6,22 / 23,4774076,2019-09-07 11:46:47:230,-1.3198,1.5177,9.3922,-0.0167,-0.0115,9.8066,0.0151,0.0406,0.0705,-10.62,-28.62,25.44,346.71,-75.15,-165.52
91955,52.47198,-1.379331,173.53,19.3,4.0,235.6,22 / 23,4774176,2019-09-07 11:46:47:330,-0.8103,1.0552,10.3761,-0.0147,-0.0143,9.8066,-0.0171,-0.013,0.0239,-10.56,-28.44,25.19,347.94,-75.02,-164.73
91956,52.47198,-1.379331,173.53,19.3,4.0,235.6,22 / 23,4774276,2019-09-07 11:46:47:430,-0.5086,1.548,10.3491,-0.0148,-0.007,9.8066,0.0065,0.0556,0.0668,-10.69,-28.5,25.44,348.81,-74.99,-164.11
91957,52.47198,-1.379331,173.53,19.3,4.0,235.6,22 / 23,4774376,2019-09-07 11:46:47:530,0.2843,0.9621,9.3305,-0.0013,-0.0046,9.8066,-0.0009,-0.028,-0.0121,-10.44,-28.94,25.38,352.35,-74.88,-163.45
91958,52.47198,-1.379331,173.53,19.3,4.0,235.6,22 / 23,4774475,2019-09-07 11:46:47:629,0.0985,1.2818,9.4151,-0.0038,-0.0216,9.8065,0.0447,0.0487,0.0397,-10.62,-28.31,26.0,351.46,-74.8,-163.1
91959,52.47198,-1.379331,173.53,19.3,4.0,235.6,22 / 23,4774575,2019-09-07 11:46:47:729,-0.3396,1.2208,10.4113,-0.0038,-0.0061,9.8066,0.0323,0.0398,0.0402,-10.87,-28.69,26.19,351.7,-74.59,-162.81
91960,52.47198,-1.379331,173.53,19.3,4.0,235.6,22 / 23,4774675,2019-09-07 11:46:47:829,0.0835,0.8667,9.7782,-0.0013,-0.0101,9.8066,0.0224,0.0042,0.0091,-11.0,-28.69,25.13,350.82,-74.48,-162.5
91961,52.47198,-1.379331,173.53,19.3,4.0,235.6,22 / 23,4774775,2019-09-07 11:46:47:929,-0.298,0.9358,9.6369,-0.0156,0.0037,9.8066,-0.0159,-0.0037,0.0253,-11.06,-28.75,25.56,353.01,-74.49,-161.89
91962,52.47198,-1.379331,173.53,19.3,4.0,235.6,22 / 23,4774876,2019-09-07 11:46:48:030,0.1979,1.0578,9.8052,-0.0198,-0.0023,9.8066,-0.0103,0.044,0.0717,-11.19,-28.44,25.31,352.62,-74.51,-161.35
91963,52.47198,-1.379331,173.53,19.3,4.0,235.6,22 / 23,4774975,2019-09-07 11:46:48:129,-1.2227,1.6819,10.0199,-0.0081,0.0001,9.8066,-0.0267,0.0451,0.0692,-12.0,-28.06,25.44,351.35,-74.5,-160.37
91964,52.47198,-1.379331,173.53,19.3,4.0,235.6,22 / 23,4775075,2019-09-07 11:46:48:229,0.6431,1.6025,8.7017,-0.0073,0.0031,9.8065,-0.0276,0.0058,0.0118,-11.62,-28.75,24.81,351.74,-74.59,-160.04
91965,52.47198,-1.379331,173.53,19.3,4.0,235.6,22 / 23,4775176,2019-09-07 11:46:48:330,0.2498,0.8535,8.8141,-0.0101,0.0016,9.8066,0.0095,0.0574,0.0559,-11.06,-29.0,25.19,355.33,-74.62,-159.44
91966,52.47198,-1.379331,173.53,19.3,4.0,235.6,22 / 23,4775276,2019-09-07 11:46:48:430,-0.9847,0.1184,9.1558,0.0045,0.015,9.8066,-0.0158,0.0036,0.0203,-11.87,-28.94,25.13,353.0,-74.73,-159.19
91967,52.47198,-1.379331,173.53,19.3,4.0,235.6,22 / 23,4775375,2019-09-07 11:46:48:529,0.9749,0.5864,8.4598,-0.0175,-0.011,9.8066,0.0882,0.2228,0.1807,-11.81,-29.12,25.25,353.88,-74.68,-158.58
91968,52.47198,-1.379331,173.53,19.3,4.0,235.6,22 / 23,4775475,2019-09-07 11:46:48:629,-1.05,1.717,8.5329,-0.0034,0.0101,9.8065,-0.0116,0.0491,0.0533,-12.12,-29.5,25.13,354.35,-74.7,-158.25
91969,52.47198,-1.379331,173.53,19.3,4.0,235.6,22 / 23,4775575,2019-09-07 11:46:48:729,0.3777,0.7203,9.1962,-0.0117,-0.0008,9.8066,0.0394,0.0332,0.0538,-11.69,-29.0,24.63,355.1,-74.75,-157.74
91970,52.47198,-1.379331,173.53,19.3,4.0,235.6,22 / 23,4775675,2019-09-07 11:46:48:829,0.1305,1.8772,9.9987,0.0018,-0.0063,9.8066,0.0116,-0.0172,0.0118,-12.12,-29.25,25.13,355.44,-74.66,-157.5
91971,52.47198,-1.379331,173.53,19.3,4.0,235.6,22 / 23,4775775,2019-09-07 11:46:48:929,0.0899,0.5115,9.9109,-0.0158,-0.005,9.8066,-0.0186,-0.0124,0.0196,-12.06,-29.0,24.88,355.88,-74.63,-157.19
91972,52.47198,-1.379331,173.53,19.3,4.0,235.6,22 / 23,4775875,2019-09-07 11:46:49:029,0.8363,0.6707,10.5637,-0.0039,-0.0068,9.8066,0.0311,0.103,0.0981,-11.87,-29.12,24.94,356.66,-74.54,-156.65
91973,52.47198,-1.379331,173.53,19.3,4.0,235.6,22 / 23,4775975,2019-09-07 11:46:49:129,-0.6869,1.6507,9.9499,0.0062,0.0029,9.8066,-0.0368,-0.0225,-0.0233,-11.81,-29.25,24.38,354.85,-74.58,-156.92
91974,52.47198,-1.379331,173.53,19.3,4.0,235.6,22 / 23,4776075,2019-09-07 11:46:49:229,-0.0171,1.1025,8.671,-0.0046,0.0075,9.8066,-0.0245,-0.0013,-0.0136,-11.87,-29.69,24.5,356.45,-74.66,-156.77
91975,52.47198,-1.379331,173.53,19.3,4.0,235.6,22 / 23,4776178,2019-09-07 11:46:49:332,-0.1917,1.8026,10.1206,0.0058,0.0114,9.8066,-0.0093,-0.0311,-0.0478,-12.0,-29.31,24.63,356.31,-74.82,-156.91
91976,52.47198,-1.379331,173.53,19.3,4.0,235.6,22 / 23,4776276,2019-09-07 11:46:49:430,0.2052,1.8157,9.7651,0.0089,0.0005,9.8066,0.018,0.0134,-0.0196,-11.87,-29.69,24.94,355.88,-74.85,-157.17
91977,52.47198,-1.379331,173.53,19.3,4.0,235.6,22 / 23,4776375,2019-09-07 11:46:49:529,-0.2916,1.5196,9.1315,-0.0005,-0.004,9.8066,0.0227,0.0292,0.0075,-12.06,-29.25,25.0,355.36,-74.84,-157.57
91978,52.47198,-1.379331,173.53,19.3,4.0,235.6,22 / 23,4776476,2019-09-07 11:46:49:630,0.0792,1.1472,9.8348,0.0071,0.0146,9.8066,-0.0281,-0.0214,-0.0277,-12.19,-29.44,25.0,355.35,-74.88,-157.58
91979,52.47198,-1.379331,173.53,19.3,4.0,235.6,22 / 23,4776575,2019-09-07 11:46:49:729,-0.2632,1.4044,9.0169,0.0007,0.0038,9.8066,0.0164,0.0713,0.0252,-11.56,-29.44,24.63,355.28,-74.92,-157.63
91980,52.47198,-1.379331,173.53,19.3,4.0,235.6,22 / 23,4776675,2019-09-07 11:46:49:829,0.8929,1.2127,8.9855,0.0165,0.0119,9.8066,-0.0124,0.0091,-0.057,-11.69,-29.25,25.06,354.48,-75.0,-158.2
91981,52.47198,-1.379331,173.53,19.3,4.0,235.6,22 / 23,4776775,2019-09-07 11:46:49:929,0.0611,1.3449,10.2243,0.0143,-0.0005,9.8066,0.0078,0.051,-0.0062,-11.25,-29.25,24.75,355.82,-75.07,-159.15
91982,52.47198,-1.379331,173.53,19.3,4.0,235.6,22 / 23,4776875,2019-09-07 11:46:50:029,-0.5065,1.3217,10.8268,0.0159,0.0145,9.8065,-0.0033,0.0448,-0.0094,-11.19,-28.87,24.44,353.98,-75.14,-159.5
91983,52.47198,-1.379331,173.53,19.3,4.0,235.6,22 / 23,4776975,2019-09-07 11:46:50:129,0.567,1.1669,10.7155,0.0102,0.0051,9.8066,-0.0002,0.0325,0.0098,-11.0,-29.56,24.75,353.97,-75.34,-160.41
91984,52.47198,-1.379331,173.53,19.3,4.0,235.6,22 / 23,4777075,2019-09-07 11:46:50:229,-0.4073,1.2046,9.9103,0.0021,-0.0027,9.8066,0.0333,0.0434,0.023,-11.06,-28.81,24.44,352.8,-75.34,-160.34
91985,52.47198,-1.379331,173.53,19.3,4.0,235.6,22 / 23,4777175,2019-09-07 11:46:50:329,0.4751,1.9816,10.0329,-0.0015,0.0105,9.8066,-0.0117,0.0025,0.005,-11.06,-29.06,24.81,354.17,-75.34,-160.32
91986,52.47198,-1.379331,173.53,19.3,4.0,235.6,23 / 23,4777277,2019-09-07 11:46:50:431,0.6265,1.6974,10.4731,-0.003,-0.0127,9.8065,0.0335,0.0528,0.023,-11.5,-29.06,24.94,354.45,-75.36,-160.13
91987,52.47198,-1.379331,173.53,19.3,4.0,235.6,23 / 23,4777375,2019-09-07 11:46:50:529,0.0854,1.1349,9.6791,-0.0056,0.0067,9.8066,-0.039,-0.0485,-0.0134,-11.25,-29.12,25.0,355.51,-75.29,-159.38
91988,52.47198,-1.379331,173.53,19.3,4.0,235.6,23 / 23,4777476,2019-09-07 11:46:50:630,0.0115,1.0114,8.381,-0.0065,0.0013,9.8066,-0.0104,0.0361,0.0353,-11.69,-29.12,24.5,353.35,-75.33,-159.04
91989,52.47198,-1.379331,173.53,19.3,4.0,235.6,23 / 23,4777575,2019-09-07 11:46:50:729,-1.162,1.8,10.3152,-0.0022,0.0127,9.8066,-0.0138,-0.0046,-0.018,-12.0,-29.0,24.5,353.75,-75.45,-158.77
91990,52.47198,-1.379331,173.53,19.3,4.0,235.6,23 / 23,4777675,2019-09-07 11:46:50:829,-0.9447,1.0628,10.6137,0.0017,0.0012,9.8066,0.0396,0.0591,0.0313,-11.5,-29.62,24.44,354.77,-75.56,-158.96
91991,52.47198,-1.379331,173.53,19.3,4.0,235.6,23 / 23,4777775,2019-09-07 11:46:50:929,-0.6391,1.8658,11.025,-0.004,-0.0102,9.8066,-0.0131,-0.0584,-0.0633,-11.69,-29.19,24.44,351.65,-75.55,-159.28
91992,52.47198,-1.379331,173.53,19.3,4.0,235.6,23 / 23,4777875,2019-09-07 11:46:51:029,-1.1058,1.2785,9.7195,0.0044,0.0024,9.8066,-0.0213,-0.028,-0.0366,-11.5,-29.44,24.44,354.14,-75.48,-159.44
91993,52.47198,-1.379331,173.53,19.3,4.0,235.6,23 / 23,4777976,2019-09-07 11:46:51:130,-0.6963,1.0754,10.2512,-0.0046,0.0017,9.8066,-0.0204,-0.0069,0.0125,-11.19,-29.06,24.25,354.0,-75.6,-159.55
91994,52.47198,-1.379331,173.53,19.3,4.0,235.6,23 / 23,4778076,2019-09-07 11:46:51:230,-1.429,2.7767,8.9207,-0.007,-0.0038,9.8066,-0.0202,-0.0789,-0.0606,-11.25,-28.94,24.44,354.39,-75.62,-159.29
91995,52.47198,-1.379331,173.53,19.3,4.0,235.6,23 / 23,4778176,2019-09-07 11:46:51:330,-0.1949,1.0277,9.3621,0.0013,-0.0065,9.8065,0.0176,-0.0296,-0.0268,-11.5,-28.56,24.44,354.25,-75.61,-159.38
91996,52.47198,-1.379331,173.53,19.3,4.0,235.6,23 / 23,4778277,2019-09-07 11:46:51:431,0.0921,0.0751,10.2193,0.0033,-0.0106,9.8066,-0.0019,-0.0162,-0.0141,-11.44,-29.06,24.56,355.25,-75.46,-159.58
91997,52.47198,-1.379331,173.53,19.3,4.0,235.6,23 / 23,4778376,2019-09-07 11:46:51:530,-0.3279,0.7363,9.883,0.0007,0.0067,9.8066,-0.0519,-0.0297,-0.0502,-12.19,-29.0,24.56,352.47,-75.52,-159.69
91998,52.47198,-1.379331,173.53,19.3,4.0,235.6,23 / 23,4778475,2019-09-07 11:46:51:629,-0.4115,0.8338,9.8478,0.0026,0.0178,9.8066,-0.0627,-0.0799,-0.069,-10.87,-29.19,24.31,353.62,-75.77,-159.84
91999,52.47198,-1.379331,173.53,19.3,4.0,235.6,23 / 23,4778576,2019-09-07 11:46:51:730,0.0852,1.19,8.4446,0.0225,0.0005,9.8065,0.0241,0.0404,-0.0416,-10.62,-29.06,24.44,351.54,-75.95,-161.34
92000,52.47198,-1.379331,173.53,19.3,4.0,235.6,23 / 23,4778675,2019-09-07 11:46:51:829,0.1077,0.9593,9.4248,0.0132,0.0119,9.8066,-0.0068,-0.0052,-0.0545,-10.37,-29.0,24.13,353.15,-76.02,-162.19
92001,52.47198,-1.379331,173.53,19.3,4.0,235.6,23 / 23,4778776,2019-09-07 11:46:51:930,0.4648,1.4404,9.999,-0.0011,0.0025,9.8066,-0.028,-0.0692,-0.0573,-11.12,-28.5,24.56,350.95,-76.07,-162.81
92002,52.47198,-1.379331,173.53,19.3,4.0,235.6,23 / 23,4778875,2019-09-07 11:46:52:029,0.0042,0.1382,9.9618,-0.0083,0.0006,9.8066,-0.0557,-0.0575,-0.0079,-10.87,-29.0,24.44,349.73,-76.13,-162.66
92003,52.47198,-1.379331,173.53,19.3,4.0,235.6,23 / 23,4778976,2019-09-07 11:46:52:130,-0.1002,1.6846,10.9749,-0.017,-0.0031,9.8065,-0.0019,0.0351,0.0603,-11.0,-29.06,24.19,350.41,-76.25,-162.2
92004,52.47198,-1.379331,173.53,19.3,4.0,235.6,23 / 23,4779075,2019-09-07 11:46:52:229,-0.2647,0.8761,8.8197,-0.0124,-0.0126,9.8066,0.0083,-0.0069,0.0227,-10.75,-28.69,24.06,351.96,-76.18,-161.08
92005,52.47198,-1.379331,173.53,19.3,4.0,235.6,23 / 23,4779175,2019-09-07 11:46:52:329,-0.7238,1.0424,9.7325,-0.0049,0.0023,9.8065,-0.0282,-0.0555,-0.0413,-10.56,-29.06,24.25,352.36,-76.14,-160.79
92006,52.47198,-1.379331,173.53,19.3,4.0,235.6,23 / 23,4779276,2019-09-07 11:46:52:430,-0.7119,0.6628,10.2455,-0.0059,-0.0019,9.8066,0.0004,0.0316,0.0081,-11.06,-29.0,24.63,353.31,-76.24,-161.06
92007,52.47198,-1.379331,173.53,19.3,4.0,235.6,23 / 23,4779375,2019-09-07 11:46:52:529,-0.2609,1.3767,9.264,0.0089,0.0023,9.8066,0.0095,0.0572,0.0156,-11.19,-29.69,24.25,351.66,-76.29,-161.24
92008,52.47198,-1.379331,173.53,19.3,4.0,235.6,23 / 23,4779476,2019-09-07 11:46:52:630,-0.4322,1.1159,10.3011,0.006,-0.0035,9.8066,0.0228,-0.0137,-0.0181,-10.81,-28.94,24.5,352.91,-76.31,-161.36
92009,52.47198,-1.379331,173.53,19.3,4.0,235.6,23 / 23,4779575,2019-09-07 11:46:52:729,0.288,1.0274,10.7008,0.0,-0.0122,9.8066,0.0096,-0.0408,-0.016,-11.37,-28.81,24.19,351.29,-76.11,-161.55
92010,52.47198,-1.379331,173.53,19.3,4.0,235.6,23 / 23,4779675,2019-09-07 11:46:52:829,0.4954,1.1517,8.903,-0.0135,-0.009,9.8066,0.0397,0.0497,0.0715,-11.37,-29.0,24.5,352.79,-76.0,-161.4
92011,52.47198,-1.379331,173.53,19.3,4.0,235.6,23 / 23,4779776,2019-09-07 11:46:52:930,-0.5237,1.7147,9.7216,-0.0173,-0.0086,9.8066,-0.0006,-0.0104,0.0313,-11.25,-29.56,24.5,354.34,-75.84,-160.22
92012,52.47198,-1.379331,173.53,19.3,4.0,235.6,23 / 23,4779876,2019-09-07 11:46:53:030,-0.5359,1.6409,10.0504,-0.0139,0.0005,9.8065,0.0076,0.0075,0.0241,-11.0,-28.69,24.44,354.33,-75.84,-159.35
92013,52.47198,-1.379331,173.53,19.3,4.0,235.6,23 / 23,4779975,2019-09-07 11:46:53:129,-0.0265,1.4767,8.4609,-0.01,0.0058,9.8066,-0.0409,0.024,0.0374,-11.81,-29.44,23.75,352.26,-75.87,-158.9
92014,52.47198,-1.379331,173.53,19.3,4.0,235.6,23 / 23,4780075,2019-09-07 11:46:53:229,-0.0529,1.1879,8.4594,-0.013,0.0122,9.8066,0.0004,0.0285,0.0019,-11.31,-29.62,24.44,356.04,-76.02,-158.13
92015,52.47198,-1.379331,173.53,19.3,4.0,235.6,23 / 23,4780175,2019-09-07 11:46:53:329,-0.4084,0.6763,9.4289,-0.0021,0.0121,9.8066,-0.0328,-0.0059,-0.0181,-11.37,-29.69,24.19,356.77,-76.19,-157.64
92016,52.47198,-1.379331,173.53,19.3,4.0,235.6,23 / 23,4780276,2019-09-07 11:46:53:430,0.8241,0.2392,9.466,-0.0046,-0.0012,9.8066,-0.0187,-0.0279,-0.0057,-11.75,-29.06,24.25,354.44,-76.3,-157.42
92017,52.47198,-1.379331,173.53,19.3,4.0,235.6,23 / 23,4780375,2019-09-07 11:46:53:529,0.3636,1.8273,10.9784,-0.0013,-0.0033,9.8065,0.0222,-0.0101,-0.0258,-11.25,-29.25,24.38,357.31,-76.29,-157.29
92018,52.47198,-1.379331,173.53,19.3,4.0,235.6,23 / 23,4780476,2019-09-07 11:46:53:630,-0.6165,1.1076,9.0972,-0.0064,0.0118,9.8066,-0.037,0.0065,-0.0258,-11.44,-29.31,24.19,357.72,-76.44,-157.0
92019,52.47198,-1.379331,173.53,19.3,4.0,235.6,23 / 23,4780576,2019-09-07 11:46:53:730,-0.695,1.4299,9.615,-0.0107,0.0119,9.8066,-0.0562,-0.0471,-0.0471,-11.62,-29.5,24.06,355.9,-76.58,-156.4
92020,52.47198,-1.379331,173.53,19.3,4.0,235.6,23 / 23,4780676,2019-09-07 11:46:53:830,0.3657,0.6156,10.8009,0.0035,0.0075,9.8066,0.0469,0.0944,0.0476,-11.81,-29.31,24.13,355.75,-76.7,-156.51
92021,52.47198,-1.379331,173.53,19.3,4.0,235.6,23 / 23,4780776,2019-09-07 11:46:53:930,0.319,1.095,11.627,0.0037,-0.0063,9.8066,0.0575,0.0774,0.0545,-11.25,-29.37,23.69,358.04,-76.68,-156.79
92022,52.47198,-1.379331,173.53,19.3,4.0,235.6,23 / 23,4780876,2019-09-07 11:46:54:030,0.68,1.0248,9.5397,-0.0036,-0.0199,9.8065,0.0344,0.0009,0.0282,-11.56,-29.0,24.25,355.38,-76.49,-156.76
92023,52.47198,-1.379331,173.53,19.3,4.0,235.6,23 / 23,4780976,2019-09-07 11:46:54:130,-0.3333,1.7985,10.8754,-0.0066,-0.0021,9.8066,0.0208,0.0604,0.0632,-11.75,-29.25,24.13,355.74,-76.35,-156.49
92024,52.47198,-1.379331,173.53,19.3,4.0,235.6,23 / 23,4781076,2019-09-07 11:46:54:230,-0.4747,1.014,9.6943,0.0038,0.0079,9.8066,0.0208,0.0566,0.0391,-11.81,-29.37,24.56,357.72,-76.32,-156.01
92025,52.47198,-1.379331,173.53,19.3,4.0,235.6,23 / 23,4781176,2019-09-07 11:46:54:330,-0.5238,1.1675,10.0831,0.0006,0.0064,9.8066,-0.0114,0.0007,-0.0155,-12.19,-29.0,24.25,356.7,-76.34,-155.8
92026,52.471,-1.381722,174.08,22.0,4.0,236.36,23 / 23,4781276,2019-09-07 11:46:54:430,-0.5795,1.0207,9.3571,0.0019,0.0156,9.8066,-0.0018,0.0931,0.0471,-11.94,-29.19,24.44,356.52,-76.47,-155.94
92027,52.471,-1.381722,174.08,22.0,4.0,236.36,23 / 23,4781375,2019-09-07 11:46:54:529,-0.2025,1.4541,10.3939,0.0083,0.0123,9.8066,-0.022,-0.003,-0.0229,-12.25,-29.19,25.19,357.88,-76.61,-155.91
92028,52.471,-1.381722,174.08,22.0,4.0,236.36,23 / 23,4781475,2019-09-07 11:46:54:629,0.071,1.1602,9.8484,-0.0014,0.0012,9.8066,0.0126,0.0155,-0.0008,-11.62,-29.06,24.56,357.58,-76.7,-156.13
92029,52.471,-1.381722,174.08,22.0,4.0,236.36,23 / 23,4781576,2019-09-07 11:46:54:730,-0.5322,1.8135,10.8978,0.003,-0.0165,9.8066,0.0243,0.0163,0.019,-11.62,-29.0,23.81,356.36,-76.56,-156.06
92030,52.471,-1.381722,174.08,22.0,4.0,236.36,23 / 23,4781675,2019-09-07 11:46:54:829,-0.6023,1.5277,8.8491,-0.0076,-0.0136,9.8065,0.001,-0.0291,0.0008,-12.44,-29.56,25.0,358.11,-76.34,-155.71
92031,52.471,-1.381722,174.08,22.0,4.0,236.36,23 / 23,4781775,2019-09-07 11:46:54:929,0.6345,0.8088,9.1294,-0.0066,-0.0024,9.8066,-0.0046,-0.0065,0.0081,-12.12,-29.62,25.0,358.69,-76.31,-155.29
92032,52.471,-1.381722,174.08,22.0,4.0,236.36,23 / 23,4781875,2019-09-07 11:46:55:029,-0.4645,0.2131,8.8618,-0.0016,0.0065,9.8065,0.007,0.0619,0.033,-12.31,-29.31,24.81,359.2,-76.36,-154.94
92033,52.471,-1.381722,174.08,22.0,4.0,236.36,23 / 23,4781975,2019-09-07 11:46:55:129,-1.389,1.4724,9.703,-0.0163,-0.0062,9.8066,-0.0499,-0.0729,-0.0719,-11.81,-29.5,24.94,0.13,-76.41,-154.26
92034,52.471,-1.381722,174.08,22.0,4.0,236.36,23 / 23,4782075,2019-09-07 11:46:55:229,-0.2799,1.313,8.902,-0.0077,0.0087,9.8066,-0.0083,-0.0291,-0.0564,-12.06,-29.44,25.44,359.71,-76.56,-154.57
92035,52.471,-1.381722,174.08,22.0,4.0,236.36,23 / 23,4782176,2019-09-07 11:46:55:330,-0.0137,1.1496,8.5657,0.0007,0.0033,9.8066,-0.0206,0.0224,0.025,-12.12,-29.31,24.75,359.52,-76.66,-154.71
92036,52.471,-1.381722,174.08,22.0,4.0,236.36,22 / 23,4782275,2019-09-07 11:46:55:429,0.227,1.1971,10.5792,0.0027,0.0067,9.8066,0.0196,0.0413,0.0206,-11.87,-29.06,24.25,358.38,-76.76,-154.61
92037,52.471,-1.381722,174.08,22.0,4.0,236.36,22 / 23,4782376,2019-09-07 11:46:55:530,-0.0402,0.7965,10.0332,0.0008,-0.0012,9.8066,-0.0106,0.0299,0.013,-11.87,-29.31,24.69,359.82,-76.79,-154.49
92038,52.471,-1.381722,174.08,22.0,4.0,236.36,22 / 23,4782475,2019-09-07 11:46:55:629,-0.0448,0.9179,10.5367,-0.001,0.0088,9.8066,0.0046,0.0125,0.0142,-11.56,-29.94,24.5,359.84,-76.88,-154.48
92039,52.471,-1.381722,174.08,22.0,4.0,236.36,22 / 23,4782575,2019-09-07 11:46:55:729,-0.5311,1.2332,10.1034,0.0036,0.0089,9.8066,-0.0019,-0.0124,-0.013,-11.75,-29.56,24.25,358.31,-77.01,-154.66
92040,52.471,-1.381722,174.08,22.0,4.0,236.36,22 / 23,4782675,2019-09-07 11:46:55:829,-0.1691,1.5203,10.5311,-0.0003,-0.0052,9.8066,-0.0021,-0.0551,-0.0154,-11.94,-29.44,24.56,359.45,-76.99,-154.77
92041,52.471,-1.381722,174.08,22.0,4.0,236.36,22 / 23,4782775,2019-09-07 11:46:55:929,-0.9244,1.5026,10.8486,-0.0005,-0.0032,9.8066,0.0175,0.0224,0.0365,-12.12,-29.56,24.75,359.43,-76.92,-154.77
92042,52.471,-1.381722,174.08,22.0,4.0,236.36,22 / 23,4782875,2019-09-07 11:46:56:029,0.2578,0.6493,10.4298,-0.0064,-0.0072,9.8066,-0.0108,-0.0548,-0.0371,-11.94,-29.37,23.88,358.8,-76.81,-154.31
92043,52.471,-1.381722,174.08,22.0,4.0,236.36,22 / 23,4782975,2019-09-07 11:46:56:129,-0.5989,0.9574,10.5234,-0.0068,-0.0061,9.8066,-0.0352,-0.0459,-0.0414,-12.69,-29.75,24.94,357.73,-76.81,-154.18
92044,52.471,-1.381722,174.08,22.0,4.0,236.36,22 / 23,4783075,2019-09-07 11:46:56:229,-0.0582,1.0158,8.6192,0.0033,0.0042,9.8066,-0.0086,-0.0048,-0.017,-11.94,-29.87,24.63,0.52,-76.85,-153.98
92045,52.471,-1.381722,174.08,22.0,4.0,236.36,22 / 23,4783175,2019-09-07 11:46:56:329,-0.0824,1.7977,9.3113,-0.0038,-0.0094,9.8066,-0.0154,-0.0165,-0.0033,-12.37,-29.12,24.5,0.69,-76.87,-153.85
