,GPS LATITUDE (degrees), GPS LONGITUDE (degrees), GPS ALTITUDE (m), GPS SPEED (Kmh), GPS ACCURACY (m), GPS ORIENTATION (Â°),GPS SATELLITES IN RANGE, TIME SINCE START (ms), DATE (YYYY-MO-DD HH-MI-SS_SSS), ACCELEROMETER X (m/s²) , ACCELEROMETER Y (m/s²), ACCELEROMETER Z (m/s²), GRAVITY X (m/s²), GRAVITY Y (m/s²), GRAVITY Z (m/s²), GYROSCOPE Yaw (rad/s), GYROSCOPE Pitch (rad/s), GYROSCOPE Roll (rad/s), MAGNETIC FIELD X (Î¼T), MAGNETIC FIELD Y (Î¼T), MAGNETIC FIELD Z (Î¼T), ORIENTATION (Yaw) (Â°), ORIENTATION (Pitch) (Â°), ORIENTATION (Roll ) (Â°)
1854,51.7722,-1.100624,113,32.39,8,196.5,Aug-19,927017,2019-02-27 10:31:18:537,-0.7359,-0.1153,10.385,-0.0703,-0.0207,9.8064,-0.0224,0.0245,0.0266,-26.16,-0.05,-14.69,179.04,3.35,1.72
1855,51.7722,-1.100624,113,32.39,8,196.5,Aug-19,927518,2019-02-27 10:31:19:038,-0.1603,0.0119,9.1388,-0.0329,0.0104,9.8066,-0.032,-0.0383,0.0234,-26.16,-0.05,-14.69,179.08,2.75,1.64
1856,51.7722,-1.100624,113,32.39,8,196.5,Aug-19,928017,2019-02-27 10:31:19:537,-0.6769,0.3972,9.9069,-0.0548,0.0132,9.8065,-0.0352,-0.0447,0.0245,-26.03,-0.05,-14.92,179.13,2.62,1.55
1857,51.7722,-1.100624,113,32.39,8,196.5,Aug-19,928518,2019-02-27 10:31:20:038,0.2324,-0.217,8.6446,0.0325,-0.0048,9.8066,0.0192,-0.0575,0.016,-26.03,-0.05,-14.92,179.27,2.08,1.3
1858,51.7722,-1.100624,113,32.39,8,196.5,Aug-19,929018,2019-02-27 10:31:20:538,-0.3028,0.1798,10.7576,-0.0368,-0.0358,9.8065,-0.0266,-0.0053,0.0096,-26.22,-0.04,-14.57,179.4,2.06,1.06
1859,51.7722,-1.100624,113,32.39,8,196.5,Aug-19,929517,2019-02-27 10:31:21:037,-0.2736,0.0719,9.9815,0.0037,-0.0246,9.8066,-0.0021,0.0171,0.0043,-26.38,-0.05,-14.29,179.37,2.11,1.19
1860,51.7722,-1.100624,113,32.39,8,196.5,Aug-19,930017,2019-02-27 10:31:21:537,-0.4167,-0.2175,9.8401,0.0001,-0.0305,9.8066,-0.016,-0.1023,0.0192,-26.96,-1.49,-13.07,177.51,2.14,0.87
1861,51.7722,-1.100624,113,32.39,8,196.5,Aug-19,930517,2019-02-27 10:31:22:037,-0.6128,-0.2434,9.2744,-0.0075,-0.1383,9.8057,-0.0032,-0.0564,0.0096,-26.44,-1.49,-14.1,177.3,2.17,1.02
1862,51.7722,-1.100624,113,32.39,8,196.5,Aug-19,931017,2019-02-27 10:31:22:537,-0.2481,-0.2328,9.6397,-0.0879,-0.0602,9.8061,0.0117,-0.0618,0.0064,-26.31,-2.15,-14.25,175.57,2.17,0.22
1863,51.7722,-1.100624,113,32.39,8,196.5,Aug-19,931518,2019-02-27 10:31:23:038,-0.4342,0.0864,9.0666,-0.1748,-0.092,9.8047,0.0021,0.0554,0.0032,-26.62,-1.11,-13.79,178.27,0.58,-0.74
1864,51.7722,-1.100624,113,32.39,8,196.5,Aug-19,932018,2019-02-27 10:31:23:538,-1.5604,-0.2291,9.9704,-0.3645,-0.1016,9.7993,0.0064,-0.0809,0.0138,-26.27,-1.04,-14.46,178.53,-1.53,-1.4
1865,51.7722,-1.100624,113,32.39,8,196.5,Aug-19,932518,2019-02-27 10:31:24:038,-0.2943,0.27,10.0527,-0.1187,0.0326,9.8059,-0.0096,0.0053,-0.0021,-26.59,-1.59,-13.8,176.44,-2.45,-1.46
1866,51.7722,-1.100624,113,32.39,8,196.5,Aug-19,933018,2019-02-27 10:31:24:538,-1.2844,0.498,10.4974,-0.1291,0.0167,9.8058,0.0213,-0.0106,0.0021,-26.69,-1.02,-13.66,178.57,-3.21,-1.41
1867,51.7722,-1.100624,113,32.39,8,196.5,Aug-19,933517,2019-02-27 10:31:25:037,0.2792,0.3964,8.8531,-0.0326,0.0506,9.8065,-0.0277,-0.0564,0.0075,-26.55,-0.59,-13.95,178.45,-3.28,-1.19
1868,51.7722,-1.100624,113,32.39,8,196.5,Aug-19,934017,2019-02-27 10:31:25:537,0.0228,0.4565,9.9795,-0.0163,0.1197,9.8059,-0.0064,0.0224,0.0352,-26.42,-1.15,-14.17,177.99,-3.57,-0.48
1869,51.7722,-1.100624,113,32.39,8,196.5,Aug-19,934517,2019-02-27 10:31:26:037,0.052,0.5089,10.3512,-0.0317,0.1132,9.8059,0.0735,0.0341,0.017,-26.78,-2.19,-13.34,175.51,-3.69,0.21
1870,51.7722,-1.100624,113,32.39,8,196.5,Aug-19,935020,2019-02-27 10:31:26:540,-0.1566,0.9162,10.0069,0.0468,0.2064,9.8044,0.0138,-0.0074,0.0288,-26.57,-2.17,-13.77,174.5,-3.75,2.09
1871,51.7722,-1.100624,113,32.39,8,196.5,Aug-19,935518,2019-02-27 10:31:27:038,-0.4307,0.9225,8.5273,-0.0016,0.1113,9.806,-0.0309,-0.1342,0.0458,-26.57,-2.09,-13.77,174.15,-3.83,2.73
1872,51.7722,-1.100624,113,32.39,8,196.5,Aug-19,936017,2019-02-27 10:31:27:537,0.645,-0.1602,11.062,0.0877,0.0994,9.8058,0.0682,-0.0064,0.0224,-26.55,-3.1,-13.62,171.87,-3.39,3.02
1873,51.7722,-1.100624,113,32.39,8,196.5,Aug-19,936518,2019-02-27 10:31:28:038,0.2852,0.2241,8.1011,0.0486,-0.0041,9.8065,-0.0266,-0.1587,0.032,-26.53,-2.17,-13.83,173.72,-2.68,3.68
1874,51.7722,-1.100624,113,32.39,8,196.5,Aug-19,937017,2019-02-27 10:31:28:537,1.4907,-0.6293,9.3275,0.1694,-0.0244,9.8052,-0.0256,0.032,0.0224,-26.12,-0.04,-14.76,177.61,-1.46,4.09
1875,51.7722,-1.100624,113,32.39,8,196.5,Aug-19,937518,2019-02-27 10:31:29:038,0.2199,-0.5862,8.6469,0.0714,-0.1018,9.8059,0.0298,-0.0373,0.0245,-26.38,-0.56,-14.27,175.94,0.03,3.47
1876,51.7722,-1.100624,113,32.39,8,196.5,Aug-19,938017,2019-02-27 10:31:29:537,-0.196,-0.6426,9.6751,-0.0004,-0.1312,9.8058,0.0234,-0.0447,0.0149,-26.05,-3.92,-14.36,169.53,0.59,3.43
1877,51.7722,-1.100624,113,32.39,8,196.5,Aug-19,938518,2019-02-27 10:31:30:038,0.3307,-0.3258,9.1551,0.0682,-0.0171,9.8064,0.0628,0.0032,0.0043,-25.94,-2.53,-14.86,172.02,1.07,2.63
1878,51.7722,-1.100624,113,32.39,8,196.5,Aug-19,939017,2019-02-27 10:31:30:537,-0.4517,-0.1218,8.4678,-0.0453,-0.1219,9.8058,0.0064,-0.017,0.0181,-25.54,-4.14,-15.18,170.35,1.37,1.83
1879,51.7722,-1.100624,113,32.39,8,196.5,Aug-19,939518,2019-02-27 10:31:31:038,0.0473,-0.2451,10.7286,0.0054,-0.0131,9.8066,0.0053,0.0512,0.0064,-25.65,-4.08,-15.02,170.33,2.0,1.99
1880,51.7722,-1.100624,113,32.39,8,196.5,Aug-19,940017,2019-02-27 10:31:31:537,-0.7768,0.0046,9.5394,-0.0702,-0.0162,9.8064,0.0181,-0.1076,0.0096,-25.2,-4.01,-15.77,170.01,1.66,1.74
1881,51.7722,-1.100624,113,32.39,8,196.5,Aug-19,940517,2019-02-27 10:31:32:037,0.0174,0.1588,11.0182,-0.0319,-0.0479,9.8065,-0.049,-0.0106,0.0128,-24.95,-4.88,-15.93,167.84,2.02,1.81
1882,51.7722,-1.100624,113,32.39,8,196.5,Aug-19,941017,2019-02-27 10:31:32:537,-0.237,0.2388,9.4864,0.014,0.0086,9.8066,-0.0032,-0.0234,0.0192,-25.05,-4.06,-15.99,170.18,1.9,1.5
1883,51.7722,-1.100624,113,32.39,8,196.5,Aug-19,941517,2019-02-27 10:31:33:037,0.3938,-0.2315,7.9772,-0.0648,-0.0144,9.8064,0.0085,-0.0394,0.0202,-25.25,-4.61,-15.52,168.03,1.67,1.42
1884,51.7722,-1.100624,113,32.39,8,196.5,Aug-19,942018,2019-02-27 10:31:33:538,-0.6964,1.1883,9.8131,-0.0278,0.1688,9.8052,-0.0117,-0.082,0.049,-25.65,-4.59,-14.86,167.97,1.3,2.35
1885,51.7722,-1.100624,113,32.39,8,196.5,Aug-19,942518,2019-02-27 10:31:34:038,0.252,0.8364,10.9995,0.0048,0.1856,9.8049,-0.0586,0.0117,0.033,-25.91,-5.26,-14.17,166.88,1.07,4.66
1886,51.7722,-1.100624,113,32.39,8,196.5,Aug-19,943017,2019-02-27 10:31:34:537,0.4651,-0.0618,10.1352,-0.0205,0.0333,9.8066,0.0288,-0.1353,0.0298,-25.38,-5.58,-15.0,164.35,1.07,4.18
1887,51.7722,-1.100624,113,32.39,8,196.5,Aug-19,943517,2019-02-27 10:31:35:037,-1.0149,-0.7334,12.3278,-0.0593,-0.1945,9.8045,0.0075,-0.0724,0.0426,-25.16,-7.22,-14.66,162.17,0.9,4.34
1888,51.7722,-1.100624,113,32.39,8,196.5,Aug-19,944017,2019-02-27 10:31:35:537,0.1232,-0.08,10.8359,-0.016,-0.0319,9.8066,0.0533,0.1151,0.0096,-24.97,-7.52,-14.84,160.82,0.66,2.91
1889,51.7722,-1.100624,113,32.39,8,196.5,Aug-19,944518,2019-02-27 10:31:36:038,0.3114,-0.6053,6.9603,0.013,-0.132,9.8058,0.0,0.0394,0.0096,-25.01,-6.89,-15.07,162.98,0.63,2.71
1890,51.7722,-1.100624,113,32.39,8,196.5,Aug-19,945018,2019-02-27 10:31:36:538,-0.1339,-0.2294,8.5971,-0.023,-0.1545,9.8054,0.0458,0.0256,0.0117,-24.86,-6.98,-15.28,163.92,1.06,1.09
1891,51.7722,-1.100624,113,32.39,8,196.5,Aug-19,945517,2019-02-27 10:31:37:037,-0.8794,-0.4929,11.2652,-0.0352,-0.0976,9.8061,0.0043,-0.1001,-0.0021,-24.46,-7.22,-15.79,163.63,1.02,0.48
1892,51.7722,-1.100624,113,32.39,8,196.5,Aug-19,946018,2019-02-27 10:31:37:538,0.3314,-0.3782,10.0286,-0.039,-0.0672,9.8063,0.0032,0.0011,0.0043,-25.14,-6.16,-15.16,166.62,1.19,0.07
1893,51.7722,-1.100624,113,32.39,8,196.5,Aug-19,946517,2019-02-27 10:31:38:037,0.0487,-0.135,10.1197,-0.0191,-0.0962,9.8062,0.0021,0.0533,-0.0149,-24.76,-7.46,-15.22,165.04,1.1,-0.93
1894,51.7722,-1.100624,113,32.39,8,196.5,0 / 19,947017,2019-02-27 10:31:38:537,-0.547,0.7617,8.4905,0.0196,-0.0035,9.8066,-0.0154,0.0032,0.0064,-24.6,-7.26,-15.56,165.16,1.0,-1.08
1895,51.7722,-1.100624,113,32.39,8,196.5,0 / 19,947518,2019-02-27 10:31:39:038,0.3693,-0.4273,8.9912,0.046,-0.0101,9.8065,0.007,0.0831,0.0181,-24.65,-7.43,-15.4,165.15,1.39,-1.06
1896,51.7722,-1.100624,113,32.39,8,196.5,0 / 19,948018,2019-02-27 10:31:39:538,0.2121,0.074,10.6326,-0.0107,0.088,9.8062,-0.1145,-0.0714,0.0277,-24.05,-7.55,-16.26,162.31,1.21,-0.85
1897,51.7722,-1.100624,113,32.39,8,196.5,Sep-19,948518,2019-02-27 10:31:40:038,0.106,0.4376,10.0713,0.0409,-0.0068,9.8066,0.0016,-0.0362,0.017,-24.61,-7.42,-15.46,165.02,1.02,-0.92
1898,51.7722,-1.100624,113,32.39,8,196.5,Sep-19,949017,2019-02-27 10:31:40:537,-0.0004,-0.045,10.6614,-0.0299,-0.0236,9.8066,0.0368,0.0352,0.0032,-24.6,-7.49,-15.45,165.13,1.13,-1.08
1899,51.7722,-1.100624,113,32.39,8,196.5,Sep-19,949518,2019-02-27 10:31:41:038,-0.1587,0.1174,9.4464,-0.0135,-0.0248,9.8066,-0.0623,-0.0564,0.0202,-24.7,-7.02,-15.52,164.96,1.13,-0.71
1900,51.7722,-1.100624,113,32.39,8,196.5,Sep-19,950017,2019-02-27 10:31:41:537,0.2401,0.2828,10.2861,0.0025,0.0304,9.8066,-0.0303,-0.082,0.0405,-24.09,-7.91,-16.03,162.19,1.05,-0.69
1901,51.7722,-1.100624,113,32.39,8,196.5,Sep-19,950517,2019-02-27 10:31:42:037,0.0086,-0.2533,11.1273,-0.0368,0.03,9.8065,0.0624,0.0021,0.0021,-24.02,-7.72,-16.23,162.18,1.24,-0.63
1902,51.7722,-1.100624,113,32.39,8,196.5,Sep-19,951018,2019-02-27 10:31:42:538,0.1106,-0.5039,11.2049,0.0275,0.0266,9.8066,-0.0452,0.0352,0.0075,-24.45,-7.52,-15.68,162.07,0.98,-0.53
1903,51.7722,-1.100624,113,32.39,8,196.5,Sep-19,951517,2019-02-27 10:31:43:037,-0.1458,0.0342,10.0767,-0.0419,-0.0167,9.8065,-0.0751,0.0906,0.0181,-24.38,-8.0,-15.55,162.03,0.87,-0.49
1904,51.7722,-1.100624,113,32.39,8,196.5,Sep-19,952017,2019-02-27 10:31:43:537,0.221,0.1991,9.9187,-0.0094,-0.0616,9.8065,-0.042,-0.1097,0.0021,-24.19,-8.27,-15.69,162.26,0.93,-0.85
1905,51.7722,-1.100624,113,32.39,8,196.5,Sep-19,952517,2019-02-27 10:31:44:037,-0.1672,0.8154,8.7663,-0.0031,0.014,9.8066,0.0112,0.0959,0.0,-24.59,-8.07,-15.17,162.71,0.78,-0.59
1906,51.7722,-1.100624,113,32.39,8,196.5,Sep-19,953018,2019-02-27 10:31:44:538,-0.4646,0.2285,10.2426,-0.0358,-0.0234,9.8066,0.024,-0.0085,-0.0011,-24.09,-7.91,-16.03,161.99,0.81,-0.45
1907,51.7722,-1.100624,113,32.39,8,196.5,Sep-19,953517,2019-02-27 10:31:45:037,0.2821,-0.4197,10.5457,0.022,0.0166,9.8066,0.0315,-0.0437,0.0032,-24.33,-8.32,-15.45,162.05,0.66,-0.64
1908,51.7722,-1.100624,113,32.39,8,196.5,Sep-19,954017,2019-02-27 10:31:45:537,0.5907,-1.0348,9.9329,0.028,-0.0073,9.8066,0.0027,0.0362,0.0043,-24.0,-7.96,-16.14,161.82,0.59,-0.24
1909,51.7722,-1.100624,113,32.39,8,196.5,Sep-19,954517,2019-02-27 10:31:46:037,0.4961,-0.7994,10.3721,-0.0464,-0.0842,9.8062,-0.0016,0.0714,0.0011,-24.28,-8.38,-15.5,161.83,0.76,-0.23
1910,51.7722,-1.100624,113,32.39,8,196.5,Sep-19,955018,2019-02-27 10:31:46:538,0.49,-0.3543,10.7352,-0.0062,0.0199,9.8066,0.0027,0.049,-0.0064,-24.49,-7.46,-15.64,164.26,0.58,-0.68
1911,51.7722,-1.100624,113,32.39,8,196.5,Sep-19,955517,2019-02-27 10:31:47:037,0.045,0.0874,10.6317,0.0213,0.032,9.8066,-0.0378,0.082,0.0075,-24.22,-8.03,-15.78,161.97,0.65,-0.47
1912,51.7722,-1.100624,113,32.39,8,196.5,Sep-19,956018,2019-02-27 10:31:47:538,-0.6173,-0.0048,9.5849,0.0242,0.0394,9.8065,-0.0325,-0.0746,0.0213,-23.89,-8.42,-16.07,161.9,0.56,-0.38
1913,51.7722,-1.100624,113,32.39,8,196.5,Sep-19,956517,2019-02-27 10:31:48:037,-0.0431,-0.3254,10.4025,-0.0175,-0.004,9.8066,-0.0122,-0.0362,0.0043,-23.96,-8.63,-15.86,159.66,0.53,-0.17
1914,51.7722,-1.100624,113,32.39,8,196.5,Sep-19,957017,2019-02-27 10:31:48:537,0.2305,0.4721,8.8825,-0.0425,-0.0204,9.8065,-0.0239,0.0213,-0.0075,-23.59,-8.99,-16.2,159.69,0.54,-0.22
1915,51.7722,-1.100624,113,32.39,8,196.5,Sep-19,957518,2019-02-27 10:31:49:038,-0.3075,0.8543,9.6954,-0.0004,0.0362,9.8066,-0.0378,-0.0586,0.016,-24.05,-10.1,-14.82,157.73,0.4,-0.49
1916,51.7722,-1.100624,113,32.39,8,196.5,Sep-19,958017,2019-02-27 10:31:49:537,0.0065,0.8494,10.031,0.0152,0.013,9.8066,-0.0218,0.0501,0.0128,-24.37,-8.96,-15.03,159.67,0.32,-0.29
1917,51.7722,-1.100624,113,32.39,8,196.5,Sep-19,958517,2019-02-27 10:31:50:037,-0.0822,0.1184,10.313,-0.0003,0.0497,9.8065,-0.0697,-0.1108,0.0266,-24.26,-8.3,-15.57,161.91,0.42,-0.43
1918,51.7722,-1.100624,113,32.39,8,196.5,Sep-19,959017,2019-02-27 10:31:50:537,-0.3194,0.6702,10.1484,0.0064,0.0433,9.8066,-0.0186,-0.0564,0.0075,-24.34,-8.49,-15.35,161.56,0.29,0.1
1919,51.7722,-1.100624,113,32.39,8,196.5,Sep-19,959518,2019-02-27 10:31:51:038,0.4223,-0.0594,8.8933,-0.028,-0.0725,9.8063,0.04,0.1129,-0.0128,-23.75,-8.05,-16.47,161.43,0.37,0.35
1920,51.7722,-1.100624,113,32.39,8,196.5,Sep-19,960017,2019-02-27 10:31:51:537,0.0386,0.5597,9.1297,0.0044,0.0339,9.8066,0.0751,0.0352,0.0032,-23.3,-8.8,-16.73,158.65,0.3,0.09
1921,51.7722,-1.100624,113,32.39,8,196.5,Sep-19,960517,2019-02-27 10:31:52:037,0.5517,-0.7716,9.9359,0.0039,-0.0113,9.8066,-0.0602,-0.0564,0.0192,-23.01,-9.17,-16.92,158.82,0.39,-0.14
1922,51.7722,-1.100624,113,32.39,8,196.5,Sep-19,961018,2019-02-27 10:31:52:538,0.4164,-0.3713,10.2025,0.0103,0.0419,9.8066,0.0506,0.0607,0.0011,-23.09,-9.49,-16.63,158.69,0.4,0.05
1923,51.7722,-1.100624,113,32.39,8,196.5,Sep-19,961518,2019-02-27 10:31:53:038,0.5591,-0.1437,10.5119,-0.021,-0.0257,9.8066,-0.0452,-0.1193,0.0107,-22.81,-9.29,-17.13,158.8,0.34,-0.13
1924,51.7722,-1.100624,113,32.39,8,196.5,Sep-19,962020,2019-02-27 10:31:53:540,0.5369,0.0867,9.4709,0.0489,0.0055,9.8065,-0.0271,-0.0586,0.0309,-23.01,-9.17,-16.92,158.96,0.34,-0.38
1925,51.7722,-1.100624,113,32.39,8,196.5,Sep-19,962517,2019-02-27 10:31:54:037,-0.9873,0.0126,8.5803,-0.058,-0.0145,9.8065,-0.0026,0.1215,-0.0107,-23.56,-8.71,-16.4,159.78,0.31,-0.45
1926,51.7722,-1.100624,113,32.39,8,196.5,Sep-19,963017,2019-02-27 10:31:54:537,-0.3737,0.517,9.3594,0.0,0.014,9.8066,0.0347,0.032,0.0075,-23.87,-9.13,-15.72,159.73,0.49,-0.31
1927,51.7722,-1.100624,113,32.39,8,196.5,Sep-19,963517,2019-02-27 10:31:55:037,-0.4405,0.6903,9.681,0.0297,-0.0371,9.8065,0.0879,-0.0213,-0.0021,-23.73,-8.46,-16.29,161.79,0.46,-0.23
1928,51.7722,-1.100624,113,32.39,8,196.5,Sep-19,964018,2019-02-27 10:31:55:538,-0.4063,0.2752,9.6413,0.0488,-0.0077,9.8065,-0.0783,-0.0064,0.0085,-22.89,-9.74,-16.77,156.8,0.59,-0.22
1929,51.7722,-1.100624,113,32.39,8,196.5,Sep-19,964517,2019-02-27 10:31:56:037,0.2116,-0.5308,10.8634,-0.0161,-0.0537,9.8065,-0.0026,-0.001,0.0085,-22.24,-10.97,-16.88,153.79,0.87,-0.15
1930,51.7722,-1.100624,113,32.39,8,196.5,Sep-19,965018,2019-02-27 10:31:56:538,0.5313,-1.1253,8.9229,0.0251,-0.0029,9.8066,0.007,-0.0692,0.0138,-22.94,-10.51,-16.22,154.96,1.07,-0.43
1931,51.7722,-1.100624,113,32.39,8,196.5,Sep-19,965517,2019-02-27 10:31:57:037,0.3984,-0.172,9.6674,0.0053,-0.0124,9.8066,0.0165,0.0788,0.0,-22.94,-10.51,-16.22,155.01,1.12,-0.48
1932,51.7722,-1.100624,113,32.39,8,196.5,Sep-19,966019,2019-02-27 10:31:57:539,0.1821,0.0666,11.9399,-0.0333,0.0602,9.8064,-0.042,-0.1662,0.0117,-22.61,-9.96,-17.02,156.93,0.87,-0.33
1933,51.7722,-1.100624,113,32.39,8,196.5,Sep-19,966518,2019-02-27 10:31:58:038,-0.5015,0.4138,10.4616,-0.0142,0.03,9.8066,0.0112,-0.0138,0.0202,-23.28,-10.26,-15.89,156.91,0.91,-0.31
1934,51.7722,-1.100624,113,32.39,8,196.5,Sep-19,967019,2019-02-27 10:31:58:539,-0.1515,0.2032,9.1183,-0.0339,0.0602,9.8064,0.0155,0.0117,0.0128,-22.84,-10.07,-16.64,156.82,0.77,-0.18
1935,51.7722,-1.100624,113,32.39,8,196.5,Sep-19,967518,2019-02-27 10:31:59:038,-0.0862,-0.994,8.9043,-0.0475,-0.0189,9.8065,-0.0335,-0.1481,0.0021,-23.56,-10.58,-15.27,155.52,0.5,-0.05
1936,51.7722,-1.100624,113,32.39,8,196.5,Sep-19,968017,2019-02-27 10:31:59:537,-0.2292,-0.4378,10.8904,0.0102,0.0153,9.8066,-0.0112,0.0203,0.0213,-23.46,-11.01,-15.12,154.65,0.29,-0.26
1937,51.7722,-1.100624,113,32.39,8,196.5,Sep-19,968518,2019-02-27 10:32:00:038,-0.5665,0.5869,10.7532,0.0424,0.0652,9.8063,-0.0165,-0.0394,0.017,-19.6,-11.46,-21.64,151.23,0.36,0.15
1938,51.7722,-1.100624,113,32.39,8,196.5,Sep-19,969017,2019-02-27 10:32:00:537,0.0004,0.1876,10.7395,-0.0205,-0.0411,9.8065,-0.0037,-0.0575,-0.0011,-23.53,-10.24,-15.55,157.53,0.37,-0.12
1939,51.7722,-1.100624,113,32.39,8,196.5,Sep-19,969518,2019-02-27 10:32:01:038,-0.4096,0.0964,9.8798,-0.0134,-0.0069,9.8066,0.0006,0.0352,0.0149,-23.5,-10.06,-15.71,156.53,0.27,0.07
1940,51.7722,-1.100624,113,32.39,8,196.5,Sep-19,970017,2019-02-27 10:32:01:537,-0.2432,0.6554,11.3641,0.0707,0.0002,9.8064,0.1103,0.0565,0.0032,-22.42,-10.01,-17.24,155.61,0.59,0.18
1941,51.7722,-1.100624,113,32.39,8,196.5,Sep-19,970517,2019-02-27 10:32:02:037,0.069,-0.1681,7.0947,-0.005,-0.0129,9.8066,0.024,-0.0362,0.0053,-22.9,-10.23,-16.46,156.22,0.32,0.61
1942,51.7722,-1.100624,113,32.39,8,196.5,Sep-19,971018,2019-02-27 10:32:02:538,0.1775,0.0283,11.3346,-0.0691,-0.0409,9.8063,0.0442,0.065,0.0096,-22.76,-10.89,-16.22,154.38,0.07,0.14
1943,51.7722,-1.100624,113,32.39,8,196.5,Sep-19,971517,2019-02-27 10:32:03:037,-0.1591,0.0798,7.2857,-0.0042,-0.074,9.8064,-0.0942,-0.0841,-0.0149,-23.63,-10.83,-14.97,155.57,0.23,-0.26
1944,51.7722,-1.100624,113,32.39,8,196.5,Sep-19,972017,2019-02-27 10:32:03:537,-0.2615,0.2182,8.3903,0.0348,0.0695,9.8063,-0.0367,0.0011,0.0021,-24.77,-11.5,-12.42,154.83,0.44,-0.99
1945,51.7722,-1.100624,113,32.39,8,196.5,Sep-19,972517,2019-02-27 10:32:04:037,0.2839,0.0189,9.3699,-0.0007,-0.0348,9.8066,-0.0602,-0.0607,0.0011,-19.74,-12.21,-19.0,149.74,0.64,-0.62
1946,51.7722,-1.100624,113,32.39,8,196.5,Sep-19,973017,2019-02-27 10:32:04:537,0.2376,0.5278,7.3226,0.0174,0.0006,9.8066,-0.0016,-0.0905,-0.0128,-13.41,-15.53,-25.7,130.31,0.65,-0.72
1947,51.7722,-1.100624,113,32.39,8,196.5,Sep-19,973517,2019-02-27 10:32:05:037,0.4227,-0.2657,11.4345,-0.0084,-0.0155,9.8066,-0.0048,0.0362,0.0181,-23.26,-10.77,-15.6,155.05,0.71,-0.74
1948,51.7722,-1.100624,113,32.39,8,196.5,Sep-19,974018,2019-02-27 10:32:05:538,-0.2088,-0.2927,9.8131,0.0018,-0.03,9.8066,0.0229,-0.0064,0.0064,-22.51,-11.27,-16.32,154.75,0.36,-0.37
1949,51.7722,-1.100624,113,32.39,8,196.5,Sep-19,974517,2019-02-27 10:32:06:037,0.1603,-0.5298,10.8994,0.0382,-0.0155,9.8066,-0.0154,-0.0618,0.0,-22.5,-11.5,-16.17,151.82,0.44,-0.53
1950,51.7722,-1.100624,113,32.39,8,196.5,Sep-19,975018,2019-02-27 10:32:06:538,0.3044,-0.0011,9.8642,-0.0392,0.0376,9.8065,-0.0367,-0.0128,0.0085,-21.85,-11.42,-17.1,153.8,0.38,-0.41
1951,51.7722,-1.100624,113,32.39,8,196.5,Sep-19,975518,2019-02-27 10:32:07:038,-0.4797,0.7975,9.492,0.0315,-0.0053,9.8066,0.0655,-0.1086,0.0085,-21.99,-12.46,-16.16,151.98,0.49,-0.78
1952,51.7722,-1.100624,113,32.39,8,196.5,Sep-19,976017,2019-02-27 10:32:07:537,0.0247,-0.4227,10.2861,0.0008,0.0205,9.8066,-0.0367,0.0127,0.0096,-21.71,-11.82,-16.99,151.95,0.61,-0.61
1953,51.7722,-1.100624,113,32.39,8,196.5,Sep-19,976518,2019-02-27 10:32:08:038,-0.3939,0.2919,10.6921,-0.021,-0.01,9.8066,0.0368,-0.015,0.0181,-21.94,-11.95,-16.61,151.99,0.61,-0.68
1954,51.7722,-1.100624,113,32.39,8,196.5,Sep-19,977017,2019-02-27 10:32:08:537,-0.1786,-0.1078,9.456,0.0282,0.0359,9.8065,0.0027,0.0383,-0.0021,-22.2,-10.87,-17.0,153.94,0.57,-0.53
1955,51.7722,-1.100624,113,32.39,8,196.5,Sep-19,977518,2019-02-27 10:32:09:038,-0.1602,0.4438,11.2887,-0.0055,-0.0299,9.8066,-0.0101,0.0159,0.0021,-21.65,-11.57,-17.24,151.91,0.48,-0.61
1956,51.7722,-1.100624,113,32.39,8,196.5,Sep-19,978018,2019-02-27 10:32:09:538,-0.1014,0.5003,8.7629,0.0092,-0.0199,9.8066,-0.0463,0.0191,0.0021,-22.22,-11.12,-16.81,154.09,0.54,-0.78
1957,51.7722,-1.100624,113,32.39,8,196.5,Sep-19,978518,2019-02-27 10:32:10:038,-0.057,-0.1426,9.6094,0.0182,0.0613,9.8064,0.0538,0.0169,-0.0053,-22.03,-11.27,-16.96,153.92,0.56,-0.5
1958,51.7722,-1.100624,113,32.39,8,196.5,Sep-19,979017,2019-02-27 10:32:10:537,0.2368,-0.8117,9.2123,0.0264,0.0141,9.8066,0.0943,0.0681,0.0085,-21.71,-12.09,-16.8,151.82,0.67,-0.36
1959,51.7722,-1.100624,113,32.39,8,196.5,Sep-19,979518,2019-02-27 10:32:11:038,0.1809,-0.1268,9.8478,0.0507,0.0142,9.8065,-0.008,0.0074,0.0138,-21.57,-12.5,-16.69,151.49,0.61,0.16
1960,51.7722,-1.100624,113,32.39,8,196.5,Sep-19,980018,2019-02-27 10:32:11:538,0.0481,-0.2378,9.5399,-0.033,-0.0666,9.8064,-0.0367,-0.0938,0.0128,-21.94,-11.95,-16.61,151.44,0.63,0.26
1961,51.7722,-1.100624,113,32.39,8,196.5,Sep-19,980518,2019-02-27 10:32:12:038,0.127,0.3375,10.1893,-0.0019,0.1048,9.8061,0.0315,0.0755,-0.0075,-22.39,-11.93,-16.02,151.29,0.35,0.36
1962,51.7722,-1.100624,113,32.39,8,196.5,Sep-19,981018,2019-02-27 10:32:12:538,0.5298,-0.1917,8.0671,0.0594,0.0752,9.8062,-0.0037,-0.0768,0.0224,-22.53,-11.52,-16.12,152.55,0.24,-0.06
1963,51.7722,-1.100624,113,32.39,8,196.5,Sep-19,981517,2019-02-27 10:32:13:037,-0.3525,0.3557,10.8074,-0.0107,-0.0542,9.8065,-0.0165,-0.1013,0.0053,-21.65,-11.57,-17.24,151.21,0.35,0.49
1964,51.7722,-1.100624,113,32.39,8,196.5,Sep-19,982017,2019-02-27 10:32:13:537,0.048,0.0902,9.3964,-0.0673,0.0236,9.8064,0.0283,0.0851,0.0075,-22.17,-12.07,-16.21,151.34,0.03,0.11
1965,51.7722,-1.100624,113,32.39,8,196.5,Sep-19,982518,2019-02-27 10:32:14:038,-0.1882,-0.0041,11.4514,0.0024,-0.0425,9.8066,0.0176,-0.0139,0.0021,-21.83,-12.37,-16.44,151.5,0.17,-0.11
1966,51.7722,-1.100624,113,32.39,8,196.5,Sep-19,983018,2019-02-27 10:32:14:538,0.0633,0.5735,9.2374,-0.0213,0.0387,9.8066,0.0325,0.0436,-0.0181,-21.48,-12.85,-16.54,148.31,0.23,0.02
1967,51.7722,-1.100624,113,32.39,8,196.5,Sep-19,983518,2019-02-27 10:32:15:038,0.4077,0.3465,9.1284,0.0182,-0.0347,9.8066,0.0602,0.0244,0.0064,-21.24,-13.0,-16.73,148.3,0.2,0.02
1968,51.7722,-1.100624,113,32.39,8,196.5,Sep-19,984018,2019-02-27 10:32:15:538,-0.0048,-0.546,8.8574,0.023,-0.0319,9.8066,0.0176,-0.0139,-0.0138,-21.38,-12.38,-17.02,150.4,0.09,-0.19
1969,51.7722,-1.100624,113,32.39,8,196.5,Sep-19,984517,2019-02-27 10:32:16:037,-0.6323,0.6572,8.3784,0.0067,0.0546,9.8065,-0.0058,-0.0491,0.0117,-22.02,-12.76,-15.88,149.98,0.23,-0.89
1970,51.7722,-1.100624,113,32.39,8,196.5,Sep-19,985018,2019-02-27 10:32:16:538,-0.1554,-0.1097,10.2933,0.0153,-0.0029,9.8066,0.0272,-0.0299,0.0117,-21.24,-13.0,-16.73,148.63,0.11,-0.59
1971,51.7722,-1.100624,113,32.39,8,196.5,Sep-19,985517,2019-02-27 10:32:17:037,0.3354,0.0291,9.0573,-0.0268,0.0042,9.8066,-0.041,-0.0757,0.0202,-21.38,-12.38,-17.02,150.51,0.1,-0.36
1972,51.7722,-1.100624,113,32.39,8,196.5,Sep-19,986018,2019-02-27 10:32:17:538,0.2822,0.3252,9.7964,-0.0112,-0.022,9.8066,-0.0932,-0.0363,0.0021,-21.52,-13.35,-16.09,149.71,-0.04,-0.56
1973,51.7722,-1.100624,113,32.39,8,196.5,Sep-19,986518,2019-02-27 10:32:18:038,-0.418,0.5214,10.7906,-0.0055,-0.0119,9.8066,0.0261,0.018,0.0053,-21.12,-13.89,-16.15,146.45,-0.13,-0.36
1974,51.7722,-1.100624,113,32.39,8,196.5,Sep-19,987017,2019-02-27 10:32:18:537,-0.2325,-0.1202,11.2239,-0.0098,0.0173,9.8066,0.0197,-0.0214,0.0,-21.33,-13.24,-16.43,148.37,-0.22,-0.38
1975,51.7722,-1.100624,113,32.39,8,196.5,Sep-19,987518,2019-02-27 10:32:19:038,0.0428,0.6239,10.7381,0.0368,0.0167,9.8066,-0.0048,0.018,0.0117,-20.34,-13.06,-17.77,147.04,-0.47,-0.41
1976,51.7722,-1.100624,113,32.39,8,196.5,Sep-19,988017,2019-02-27 10:32:19:537,0.077,-0.0607,8.9141,0.0006,0.0062,9.8066,0.0741,0.0148,0.0064,-20.77,-13.33,-17.06,148.24,-0.34,-0.21
1977,51.7722,-1.100624,113,32.39,8,196.5,Sep-19,988518,2019-02-27 10:32:20:038,-0.03,0.6184,9.8048,0.0805,0.0764,9.806,-0.0303,-0.0001,0.0149,-21.45,-13.18,-16.32,148.03,-0.31,0.18
1978,51.7722,-1.100624,113,32.39,8,196.5,Sep-19,989017,2019-02-27 10:32:20:537,0.4173,-1.1993,9.8734,-0.0565,-0.0377,9.8064,0.008,-0.0448,-0.0011,-20.4,-12.81,-17.88,146.82,-0.22,0.1
1979,51.7722,-1.100624,113,32.39,8,196.5,Sep-19,989517,2019-02-27 10:32:21:037,0.2734,-0.3777,9.1956,-0.0144,-0.0069,9.8066,-0.0005,0.0521,0.016,-22.1,-12.91,-15.65,149.47,-0.43,-0.34
1980,51.7722,-1.100624,113,32.39,8,196.5,Sep-19,990017,2019-02-27 10:32:21:537,0.4543,0.0664,8.9909,-0.0166,-0.0259,9.8066,-0.0101,0.0169,0.0043,-21.22,-13.32,-16.5,148.44,-0.55,-0.68
1981,51.7722,-1.100624,113,32.39,8,196.5,Sep-19,990518,2019-02-27 10:32:22:038,-0.2091,0.8463,11.0638,-0.0194,0.002,9.8066,0.0794,0.0564,-0.0011,-20.56,-13.19,-17.42,148.54,-0.66,-0.91
1982,51.7722,-1.100624,113,32.39,8,196.5,Sep-19,991018,2019-02-27 10:32:22:538,-0.5916,0.7889,10.3594,-0.0528,0.0309,9.8065,0.0815,-0.0001,0.0075,-20.62,-13.7,-16.94,146.39,-0.36,-0.38
1983,51.7722,-1.100624,113,32.39,8,196.5,Sep-19,991517,2019-02-27 10:32:23:037,0.3074,0.4456,10.0925,0.0247,-0.0262,9.8066,0.0485,0.0052,0.0107,-20.59,-13.21,-17.37,148.21,-0.72,-0.4
1984,51.7722,-1.100624,113,32.39,8,196.5,Sep-19,992018,2019-02-27 10:32:23:538,-0.3811,0.7711,9.3647,0.0087,0.044,9.8065,0.0187,0.0212,0.0,-20.31,-13.33,-17.6,146.85,-0.62,-0.21
1985,51.7722,-1.100624,113,32.39,8,196.5,Sep-19,992517,2019-02-27 10:32:24:037,0.2275,-0.0893,9.2552,0.0279,-0.015,9.8066,0.0176,0.0883,0.0096,-20.67,-13.1,-17.36,148.2,-0.44,-0.2
1986,51.7722,-1.100624,113,32.39,8,196.5,Sep-19,993018,2019-02-27 10:32:24:538,0.1844,-0.7533,9.7197,0.0142,0.0146,9.8066,-0.0548,0.0393,0.0202,-19.99,-13.58,-17.78,144.79,-0.6,-0.06
1987,51.7722,-1.100624,113,32.39,8,196.5,Sep-19,993518,2019-02-27 10:32:25:038,0.3593,0.0415,9.3648,0.0113,0.0682,9.8064,-0.0197,0.0052,0.0202,-20.42,-13.56,-17.3,144.84,-0.52,-0.07
1988,51.7722,-1.100624,113,32.39,8,196.5,Sep-19,994017,2019-02-27 10:32:25:537,-0.0854,0.2334,10.383,0.0249,0.0282,9.8066,0.0229,-0.0374,0.016,-20.24,-13.44,-17.6,146.5,-0.69,0.29
1989,51.7722,-1.100624,113,32.39,8,196.5,Sep-19,994518,2019-02-27 10:32:26:038,0.4329,-0.2767,10.3336,0.0591,0.0637,9.8063,-0.0175,-0.1226,0.0224,-20.52,-13.48,-17.24,147.44,-0.6,1.01
1990,51.7722,-1.100624,113,32.39,8,196.5,Sep-19,995017,2019-02-27 10:32:26:537,-0.1857,-0.0887,10.3917,0.0443,0.0736,9.8063,-0.0239,-0.0289,0.0234,-20.38,-13.85,-17.12,144.18,-0.61,1.05
1991,51.7722,-1.100624,113,32.39,8,196.5,Sep-19,995518,2019-02-27 10:32:27:038,0.1817,-0.2644,10.3505,0.0234,-0.01,9.8066,0.0453,-0.0118,0.0138,-20.44,-14.36,-16.62,143.88,-0.65,1.55
1992,51.7722,-1.100624,113,32.39,8,196.5,Sep-19,996017,2019-02-27 10:32:27:537,-0.6864,0.195,8.0677,-0.0172,0.0723,9.8064,-0.0612,0.0798,0.0096,-20.44,-14.36,-16.62,143.64,-0.83,1.86
1993,51.7722,-1.100624,113,32.39,8,196.5,Sep-19,996518,2019-02-27 10:32:28:038,-0.4199,-0.7993,9.8436,-0.0444,-0.0165,9.8065,0.0197,0.1118,0.0298,-20.22,-14.48,-16.77,143.8,-0.5,1.81
1994,51.7722,-1.100624,113,32.39,8,196.5,Sep-19,997018,2019-02-27 10:32:28:538,0.4612,-0.9476,10.7081,0.0309,0.0306,9.8066,0.0016,-0.0491,0.0277,-19.78,-14.51,-17.27,141.92,-0.61,1.83
1995,51.7722,-1.100624,113,32.39,8,196.5,Sep-19,997517,2019-02-27 10:32:29:037,-0.4312,0.1869,10.1391,-0.015,0.0176,9.8066,-0.0239,-0.0076,0.0234,-19.81,-15.0,-16.82,141.88,-0.69,1.84
1996,51.7722,-1.100624,113,32.39,8,196.5,Sep-19,998017,2019-02-27 10:32:29:537,0.1891,-0.0799,9.9798,0.0118,-0.0456,9.8065,0.0474,-0.0214,0.0107,-20.01,-15.15,-16.43,141.89,-0.82,1.87
1997,51.7722,-1.100624,113,32.39,8,196.5,Sep-19,998517,2019-02-27 10:32:30:037,0.0408,-0.385,8.9234,-0.0172,-0.0363,9.8066,0.0229,-0.0353,0.0234,-20.11,-15.34,-16.13,141.98,-0.85,1.65
1998,51.7722,-1.100624,113,32.39,8,196.5,Sep-19,999018,2019-02-27 10:32:30:538,0.4106,0.098,9.5241,0.0446,0.0386,9.8065,-0.0271,-0.0661,0.0352,-20.07,-14.84,-16.64,141.76,-0.78,1.98
1999,51.7722,-1.100624,113,32.39,8,196.5,Sep-19,999517,2019-02-27 10:32:31:037,-0.3788,1.0696,8.4206,-0.0206,0.0418,9.8065,0.0059,0.1618,0.0138,-19.87,-14.69,-17.01,141.79,-0.96,1.79
2000,51.7722,-1.100624,113,32.39,8,196.5,Sep-19,1000017,2019-02-27 10:32:31:537,-0.1247,-0.9482,8.2256,-0.0772,-0.0569,9.8062,-0.0516,0.051,0.016,-19.96,-14.64,-16.95,141.79,-0.7,1.99
2001,51.7722,-1.100624,113,32.39,8,196.5,Sep-19,1000517,2019-02-27 10:32:32:037,-0.2546,-0.5274,9.8454,-0.0335,-0.0101,9.8066,-0.0175,0.0659,0.0085,-19.18,-15.35,-17.23,140.56,-0.85,1.45
2002,51.7722,-1.100624,113,32.39,8,196.5,Sep-19,1001018,2019-02-27 10:32:32:538,-0.8216,0.2193,10.2494,0.0028,0.0927,9.8062,-0.1102,-0.0779,0.0277,-19.51,-14.66,-17.45,142.03,-0.69,1.54
2003,51.7722,-1.100624,113,32.39,8,196.5,Sep-19,1001517,2019-02-27 10:32:33:037,0.9677,-0.5086,9.5949,0.0087,-0.0188,9.8066,-0.0325,0.0659,0.0096,-19.16,-15.13,-17.44,140.21,-1.01,1.98
2004,51.7722,-1.100624,113,32.39,8,196.5,Sep-19,1002017,2019-02-27 10:32:33:537,-0.2205,-0.0295,11.0058,-0.0061,0.0057,9.8066,0.0336,-0.0906,0.0224,-19.49,-16.61,-15.63,137.01,-0.89,1.77
2005,51.7722,-1.100624,113,32.39,8,196.5,Sep-19,1002517,2019-02-27 10:32:34:037,0.4442,0.0954,10.3638,0.0166,0.0189,9.8066,0.0506,-0.0022,0.0021,-19.28,-16.29,-16.22,138.62,-0.9,1.92
2006,51.7722,-1.100624,113,32.39,8,196.5,Sep-19,1003017,2019-02-27 10:32:34:537,-0.2034,0.6711,10.0874,-0.0138,0.0067,9.8066,-0.0229,0.0628,0.016,-18.79,-15.81,-17.23,138.68,-0.81,1.7
2007,51.7722,-1.100624,113,32.39,8,196.5,Sep-19,1003519,2019-02-27 10:32:35:039,0.4192,-0.9886,9.2616,0.0083,-0.0098,9.8066,0.056,-0.0054,0.0138,-19.05,-15.63,-17.11,138.8,-0.93,1.35
2008,51.7722,-1.100624,113,32.39,8,196.5,Sep-19,1004017,2019-02-27 10:32:35:537,-0.1139,0.0033,9.6123,-0.0139,-0.0152,9.8066,-0.0889,-0.0225,0.0192,-18.89,-15.5,-17.4,140.61,-0.86,1.34
2009,51.7722,-1.100624,113,32.39,8,196.5,Sep-19,1004517,2019-02-27 10:32:36:037,0.011,-0.2564,9.3373,0.0252,0.0216,9.8066,-0.0655,-0.0044,0.0224,-18.47,-15.94,-17.45,137.51,-0.78,0.95
2010,51.7722,-1.100624,113,32.39,8,196.5,Sep-19,1005017,2019-02-27 10:32:36:537,0.2512,-0.5343,9.8064,0.0226,-0.0046,9.8066,0.0219,0.0351,0.0213,-18.54,-15.59,-17.7,139.04,-0.66,1.01
2011,51.7722,-1.100624,113,32.39,8,196.5,Sep-19,1005517,2019-02-27 10:32:37:037,-0.366,0.9528,9.9858,-0.0021,-0.0248,9.8066,0.0347,0.0159,0.0181,-20.35,-13.46,-17.45,146.11,-0.76,0.96
2012,51.7722,-1.100624,113,32.39,8,196.5,Sep-19,1006017,2019-02-27 10:32:37:537,0.4864,0.3136,10.6536,0.0663,0.0084,9.8064,0.0624,0.1086,0.0043,-20.1,-13.56,-17.67,144.09,-0.46,1.21
2013,51.7722,-1.100624,113,32.39,8,196.5,Sep-19,1006518,2019-02-27 10:32:38:038,-0.117,0.106,10.0683,0.0206,0.027,9.8066,0.0368,-0.0193,0.0138,-18.55,-14.99,-18.2,140.78,-0.67,1.08
2014,51.7722,-1.100624,113,32.39,8,196.5,Sep-19,1007019,2019-02-27 10:32:38:539,-0.2259,-0.3237,9.2061,0.002,0.0103,9.8066,-0.0293,0.0329,0.0149,-16.8,-18.14,-16.99,132.4,-0.71,1.33
2015,51.7722,-1.100624,113,32.39,8,196.5,Sep-19,1007518,2019-02-27 10:32:39:038,-0.028,-0.5207,10.4594,-0.0016,-0.0142,9.8066,0.008,0.0191,0.017,-17.31,-19.08,-15.38,130.94,-0.61,1.64
2016,51.7722,-1.100624,113,32.39,8,196.5,Sep-19,1008017,2019-02-27 10:32:39:537,-0.0087,0.0893,10.1224,-0.0028,0.0204,9.8066,-0.0154,0.0361,0.017,-17.83,-18.12,-15.93,134.14,-0.48,1.51
2017,51.7722,-1.100624,113,32.39,8,196.5,Sep-19,1008518,2019-02-27 10:32:40:038,0.1018,0.0549,9.6006,0.0422,0.0826,9.8062,-0.0048,0.0031,0.0256,-17.67,-17.51,-16.77,133.78,-0.65,2.02
2018,51.7722,-1.100624,113,32.39,8,196.5,Sep-19,1009017,2019-02-27 10:32:40:537,0.018,0.1234,9.6172,-0.0267,-0.0021,9.8066,0.0038,-0.0598,0.017,-17.34,-17.18,-17.43,133.55,-0.72,2.28
2019,51.7722,-1.100624,113,32.39,8,196.5,Sep-19,1009518,2019-02-27 10:32:41:038,-0.604,0.5547,10.2628,-0.0147,0.0216,9.8066,0.0389,0.0116,0.0064,-17.03,-16.87,-18.04,133.38,-0.97,2.19
2020,51.7722,-1.100624,113,32.39,8,196.5,Sep-19,1010017,2019-02-27 10:32:41:537,-0.2729,-0.0059,9.9413,-0.0103,0.0094,9.8066,0.0006,0.0191,0.0128,-17.21,-17.52,-17.23,132.06,-0.82,1.99
2021,51.7722,-1.100624,113,32.39,8,196.5,Sep-19,1010517,2019-02-27 10:32:42:037,-0.679,-0.299,9.9992,-0.0666,-0.0341,9.8064,-0.0144,0.0265,0.0213,-16.44,-17.14,-18.33,131.91,-1.0,1.56
2022,51.7722,-1.100624,113,32.39,8,196.5,Sep-19,1011017,2019-02-27 10:32:42:537,-0.584,-0.5106,10.8004,-0.0556,-0.0615,9.8063,0.0197,-0.0086,0.0128,-16.62,-17.33,-17.98,133.5,-0.92,1.99
2023,51.7722,-1.100624,113,32.39,8,196.5,Sep-19,1011518,2019-02-27 10:32:43:038,0.23,0.3589,8.5843,-0.0765,-0.0636,9.8061,-0.0239,0.0063,0.0053,-16.95,-17.18,-17.82,133.77,-0.96,1.41
2024,51.7722,-1.100624,113,32.39,8,196.5,Sep-19,1012017,2019-02-27 10:32:43:537,0.3146,0.1701,10.3319,0.0417,0.0727,9.8063,-0.0207,-0.0214,0.0096,-16.47,-17.61,-17.85,130.38,-0.93,1.53
2025,51.7722,-1.100624,113,32.39,8,196.5,Sep-19,1012518,2019-02-27 10:32:44:038,0.1879,-0.0971,10.1242,0.0394,-0.0186,9.8066,0.0112,-0.0512,0.0043,-15.96,-17.6,-18.32,130.44,-1.04,1.28
2026,51.7722,-1.100624,113,32.39,8,196.5,Sep-19,1013017,2019-02-27 10:32:44:537,-0.3737,0.8471,10.136,-0.0296,0.0142,9.8066,0.0016,-0.0022,-0.0011,-16.32,-17.94,-17.65,130.46,-0.98,1.31
2027,51.7722,-1.100624,113,32.39,8,196.5,Sep-19,1013518,2019-02-27 10:32:45:038,0.6251,-0.1777,8.9846,0.0465,0.0066,9.8065,0.0229,0.0169,0.0085,-15.67,-17.73,-18.44,130.43,-0.93,1.43
2028,51.7722,-1.100624,113,32.39,8,196.5,Sep-19,1014018,2019-02-27 10:32:45:538,-0.0608,0.2397,9.7449,0.0074,0.0154,9.8066,-0.0101,-0.0438,0.0192,-15.84,-18.39,-17.63,130.41,-0.78,1.66
2029,51.7722,-1.100624,113,32.39,8,196.5,Sep-19,1014517,2019-02-27 10:32:46:037,-0.1764,-0.1414,8.8923,-0.0268,0.0238,9.8066,0.0038,0.0585,0.0234,-15.13,-18.19,-18.45,128.63,-0.76,1.54
2030,51.7722,-1.100624,113,32.39,8,196.5,Sep-19,1015018,2019-02-27 10:32:46:538,-0.3494,0.546,8.8333,-0.0196,0.0298,9.8066,-0.0122,0.0798,0.0096,-15.65,-18.24,-17.95,130.35,-0.96,1.56
2031,51.7722,-1.100624,113,32.39,8,196.5,Sep-19,1015517,2019-02-27 10:32:47:037,0.0414,0.565,9.9715,-0.0034,0.007,9.8066,-0.0037,0.0169,0.0128,-15.13,-18.19,-18.45,128.68,-0.88,1.29
2032,51.7722,-1.100624,113,32.39,8,196.5,Sep-19,1016017,2019-02-27 10:32:47:537,0.5837,0.0208,9.1907,0.0351,0.013,9.8066,-0.0314,0.0137,0.0043,-15.52,-18.49,-17.81,130.47,-0.81,1.49
2033,51.7722,-1.100624,113,32.39,8,196.5,Sep-19,1016518,2019-02-27 10:32:48:038,0.1451,0.1347,10.828,0.0107,-0.0161,9.8066,-0.0069,-0.0864,0.0181,-15.36,-18.29,-18.16,128.59,-0.95,1.4
2034,51.7722,-1.100624,113,32.39,8,196.5,Sep-19,1017017,2019-02-27 10:32:48:537,0.3006,0.0054,9.0166,-0.0129,0.0108,9.8066,0.0293,0.0191,0.0192,-14.51,-18.86,-18.26,127.14,-0.79,1.57
2035,51.7722,-1.100624,113,32.39,8,196.5,Sep-19,1017517,2019-02-27 10:32:49:037,0.121,0.3954,9.7808,-0.007,-0.0205,9.8066,0.0602,0.0446,0.016,-14.51,-18.86,-18.26,127.09,-0.89,1.55
2036,51.7722,-1.100624,113,32.39,8,196.5,Sep-19,1018017,2019-02-27 10:32:49:537,-0.2426,0.2784,9.2511,0.0421,0.0281,9.8065,-0.0165,-0.0214,0.0117,-14.15,-19.01,-18.4,125.2,-0.79,1.63
2037,51.7722,-1.100624,113,32.39,8,196.5,Sep-19,1018517,2019-02-27 10:32:50:037,-0.3184,0.3155,11.3789,-0.0328,-0.0368,9.8065,-0.0484,-0.0086,0.0107,-14.16,-19.5,-17.87,125.35,-0.73,1.35
2038,51.7722,-1.100624,113,32.39,8,196.5,Sep-19,1019017,2019-02-27 10:32:50:537,0.352,0.3577,8.7249,-0.0074,-0.0097,9.8066,-0.0175,0.1235,0.0107,-14.51,-18.86,-18.26,127.18,-0.79,1.47
2039,51.7722,-1.100624,113,32.39,8,196.5,Sep-19,1019517,2019-02-27 10:32:51:037,0.275,-0.4747,10.8867,0.0038,-0.0226,9.8066,-0.0271,-0.0672,0.0309,-14.67,-19.07,-17.91,127.31,-0.66,1.34
2040,51.7722,-1.100624,113,32.39,8,196.5,Sep-19,1020018,2019-02-27 10:32:51:538,0.3347,-1.2079,9.9358,-0.0099,-0.0434,9.8066,0.007,-0.1428,0.0266,-13.88,-19.1,-18.51,125.25,-0.76,1.41
2041,51.7722,-1.100624,113,32.39,8,196.5,Sep-19,1020518,2019-02-27 10:32:52:038,-0.2952,-0.218,10.2004,0.0219,-0.0452,9.8065,0.0208,-0.0012,0.0138,-13.36,-19.02,-18.97,123.17,-0.79,1.51
2042,51.7722,-1.100624,113,32.39,8,196.5,Sep-19,1021017,2019-02-27 10:32:52:537,-0.4103,-0.021,11.7115,-0.0274,-0.0145,9.8066,-0.0697,-0.0672,0.0288,-13.36,-19.02,-18.97,123.24,-0.81,1.33
2043,51.7722,-1.100624,113,32.39,8,196.5,Sep-19,1021518,2019-02-27 10:32:53:038,-0.2897,-0.5631,11.0135,0.0,-0.0336,9.8066,-0.0602,-0.0566,0.0288,-13.26,-19.32,-18.74,123.1,-0.83,1.62
2044,51.7722,-1.100624,113,32.39,8,196.5,Sep-19,1022018,2019-02-27 10:32:53:538,0.0354,-0.3612,9.9592,0.0291,0.0499,9.8065,-0.0261,-0.0448,0.0245,-13.53,-19.71,-18.12,123.78,-0.82,1.82
2045,51.7722,-1.100624,113,32.39,8,196.5,Sep-19,1022519,2019-02-27 10:32:54:039,-0.4612,0.0966,8.2138,-0.0143,0.0267,9.8066,0.0091,-0.0118,0.016,-13.5,-20.74,-16.96,122.81,-0.73,1.33
2046,51.7722,-1.100624,113,32.39,8,196.5,Sep-19,1023018,2019-02-27 10:32:54:538,-0.2069,-1.1422,10.9885,0.0011,-0.015,9.8066,-0.0612,-0.0821,0.0192,-13.02,-16.78,-21.19,126.01,-0.83,1.31
2047,51.7722,-1.100624,113,32.39,8,196.5,Sep-19,1023518,2019-02-27 10:32:55:038,-0.0241,0.1195,8.5588,-0.0453,-0.0077,9.8065,-0.0442,0.0191,0.0096,-12.71,-18.02,-20.34,124.72,-0.86,0.95
2048,51.7722,-1.100624,113,32.39,8,196.5,Sep-19,1024017,2019-02-27 10:32:55:537,0.3291,-0.3519,10.767,0.0047,-0.0388,9.8066,-0.0399,0.0319,0.0213,-10.92,-21.27,-18.12,116.75,-0.98,0.7
2049,51.7722,-1.100624,113,32.39,8,196.5,Sep-19,1024517,2019-02-27 10:32:56:037,-0.1136,-0.1503,10.1198,0.0076,0.0222,9.8066,-0.0431,-0.0566,0.0202,-12.95,-20.34,-17.85,122.15,-0.91,0.74
2050,51.7722,-1.100624,113,32.39,8,196.5,Sep-19,1025017,2019-02-27 10:32:56:537,0.5154,-0.0149,8.7826,0.0351,-0.0044,9.8066,0.1124,-0.0193,0.0277,-12.19,-20.6,-18.08,118.92,-0.78,0.9
2051,51.7722,-1.100624,113,32.39,8,196.5,Sep-19,1025518,2019-02-27 10:32:57:038,0.0686,0.3702,9.727,0.0484,0.0396,9.8065,-0.0239,0.0223,0.016,-12.18,-20.13,-18.61,119.86,-0.84,1.29
2052,51.7722,-1.100624,113,32.39,8,196.5,Sep-19,1026018,2019-02-27 10:32:57:538,0.1776,-0.1185,9.2665,0.0193,-0.0145,9.8066,-0.0346,0.001,0.0181,-11.55,-19.83,-19.33,119.92,-0.72,1.36
2053,51.7722,-1.100624,113,32.39,8,196.5,Sep-19,1026517,2019-02-27 10:32:58:037,-0.2933,0.2057,9.5062,-0.006,0.0552,9.8065,0.0006,0.0287,0.0053,-12.33,-19.9,-18.76,119.99,-0.59,1.41
2054,51.7722,-1.100624,113,32.39,8,196.5,Sep-19,1027017,2019-02-27 10:32:58:537,-0.3297,0.4716,9.7993,-0.0016,-0.031,9.8066,-0.0112,0.0532,0.0128,-11.16,-19.94,-19.44,117.73,-0.73,1.45
2055,51.7722,-1.100624,113,32.39,8,196.5,Sep-19,1027517,2019-02-27 10:32:59:037,-0.091,-0.3636,9.977,-0.0622,-0.0233,9.8064,-0.0325,-0.0001,0.0128,-11.29,-20.66,-18.6,116.72,-0.78,1.06
2056,51.7722,-1.100624,113,32.39,8,196.5,Sep-19,1028018,2019-02-27 10:32:59:538,-0.227,-0.2219,9.5567,-0.0126,-0.0215,9.8066,-0.0016,0.0638,0.0085,-10.65,-20.31,-19.35,117.9,-0.71,1.03
2057,51.7722,-1.100624,113,32.39,8,196.5,Sep-19,1028517,2019-02-27 10:33:00:037,-0.2578,-0.457,7.9292,-0.0084,0.0147,9.8066,-0.0378,-0.0182,0.0053,-11.4,-20.37,-18.84,117.83,-0.81,1.03
2058,51.7722,-1.100624,113,32.39,8,196.5,Sep-19,1029017,2019-02-27 10:33:00:537,-0.0343,-0.3364,9.3966,-0.0497,0.006,9.8065,0.0144,-0.0523,0.0341,-11.16,-20.86,-18.45,116.97,-0.73,0.56
2059,51.7722,-1.100624,113,32.39,8,196.5,Sep-19,1029518,2019-02-27 10:33:01:038,0.421,-0.2005,8.8479,-0.0441,-0.0571,9.8064,0.0187,-0.0619,-0.0021,-11.27,-20.14,-19.17,117.89,-1.01,0.46
2060,51.7722,-1.100624,113,32.39,8,196.5,Sep-19,1030017,2019-02-27 10:33:01:537,-0.169,0.4649,10.6847,-0.0669,-0.0291,9.8064,0.0379,0.0532,-0.0043,-11.0,-20.03,-19.44,118.17,-0.83,0.07
2061,51.7722,-1.100624,113,32.39,8,196.5,Sep-19,1030517,2019-02-27 10:33:02:037,-0.2406,0.4391,10.2154,-0.0137,-0.0201,9.8066,-0.041,-0.0374,-0.0021,-10.65,-20.31,-19.35,118.12,-0.9,0.07
2062,51.7722,-1.100624,113,32.39,8,196.5,Sep-19,1031018,2019-02-27 10:33:02:538,0.3547,0.6995,9.758,-0.0262,-0.0106,9.8066,-0.0282,-0.0619,-0.0075,-11.0,-20.03,-19.44,118.21,-0.84,-0.05
2063,51.7722,-1.100624,113,32.39,8,196.5,Sep-19,1031518,2019-02-27 10:33:03:038,-0.7825,-0.6021,11.3189,-0.0153,-0.0324,9.8066,0.0112,0.0276,0.0043,-11.29,-19.72,-19.59,118.74,-0.79,-1.29
2064,51.7722,-1.100624,113,32.39,8,196.5,Sep-19,1032017,2019-02-27 10:33:03:537,0.2717,0.0548,9.264,0.058,0.0624,9.8063,0.0325,0.0052,-0.0064,-10.7,-19.4,-20.23,119.68,-0.94,-0.82
2065,51.7722,-1.100624,113,32.39,8,196.5,Sep-19,1032518,2019-02-27 10:33:04:038,0.3129,-0.045,9.2516,0.057,-0.0083,9.8065,0.007,-0.0736,-0.0064,-11.92,-19.53,-19.4,120.64,-1.06,-1.04
2066,51.7722,-1.100624,113,32.39,8,196.5,Sep-19,1033018,2019-02-27 10:33:04:538,-0.1664,0.423,10.1262,0.0027,0.0507,9.8065,0.0677,0.0798,-0.0224,-10.53,-18.63,-21.02,119.43,-1.1,-0.62
2067,51.7722,-1.100624,113,32.39,8,196.5,Sep-19,1033517,2019-02-27 10:33:05:037,0.031,0.5519,10.1752,-0.0003,0.0604,9.8065,0.0464,0.0723,-0.0011,-11.61,-18.85,-20.24,121.81,-0.77,-0.26
2068,51.7722,-1.100624,113,32.39,8,196.5,Sep-19,1034018,2019-02-27 10:33:05:538,-0.0418,0.8805,9.0816,0.027,0.0017,9.8066,-0.0559,-0.0044,0.0085,-11.19,-18.47,-20.82,120.54,-1.07,-0.07
2069,51.7722,-1.100624,113,32.39,8,196.5,Sep-19,1034518,2019-02-27 10:33:06:038,0.8903,0.6298,8.2239,0.0245,0.0299,9.8066,-0.0037,-0.0193,0.0032,-11.61,-18.85,-20.24,121.33,-1.08,0.28
2070,51.7722,-1.100624,113,32.39,8,196.5,Sep-19,1035017,2019-02-27 10:33:06:537,-0.2873,-0.2861,8.8357,-0.0659,-0.0328,9.8064,-0.0112,-0.0704,-0.0096,-11.61,-18.85,-20.24,121.41,-0.86,0.48
2071,51.7722,-1.100624,113,32.39,8,196.5,Sep-19,1035517,2019-02-27 10:33:07:037,-1.2453,1.7093,8.1167,-0.0644,-0.0111,9.8064,-0.0644,-0.0438,-0.0053,-11.19,-18.47,-20.82,120.69,-1.03,-0.31
2072,51.7722,-1.100624,113,32.39,8,196.5,Sep-19,1036018,2019-02-27 10:33:07:538,-0.1278,-0.7129,8.2725,-0.1371,-0.0526,9.8056,0.0336,0.0063,-0.016,-11.03,-18.28,-21.07,120.93,-0.72,-0.24
2073,51.7722,-1.100624,113,32.39,8,196.5,Sep-19,1036518,2019-02-27 10:33:08:038,-0.232,-0.6483,9.9167,0.0455,-0.0231,9.8065,-0.0602,-0.0715,-0.0053,-11.49,-18.65,-20.49,119.99,-0.62,-0.92
2074,51.7722,-1.100624,113,32.39,8,196.5,Sep-19,1037017,2019-02-27 10:33:08:537,0.1813,-0.0297,9.8817,-0.0119,0.0206,9.8066,-0.0175,-0.0427,-0.0277,-11.83,-18.31,-20.61,123.9,-0.63,-1.35
2075,51.7722,-1.100624,113,32.39,8,196.5,Sep-19,1037517,2019-02-27 10:33:09:037,0.054,0.43,10.4579,-0.1197,-0.0721,9.8057,0.0197,0.0383,-0.0352,-11.7,-18.11,-20.86,123.78,-0.77,-1.34
2076,51.7722,-1.100624,113,32.39,8,196.5,Sep-19,1038017,2019-02-27 10:33:09:537,-0.0904,0.2351,10.3327,-0.1041,-0.08,9.8058,0.0453,-0.0022,-0.0266,-11.98,-18.55,-20.31,123.13,-0.77,-2.92
2077,51.7722,-1.100624,113,32.39,8,196.5,Sep-19,1038517,2019-02-27 10:33:10:037,-0.0369,0.1396,9.3968,0.0069,-0.0114,9.8066,-0.0346,-0.0022,-0.0075,-11.57,-19.18,-19.96,123.19,-0.69,-2.92
2078,51.7722,-1.100624,113,32.39,8,196.5,Sep-19,1039017,2019-02-27 10:33:10:537,-0.2629,0.1011,8.4664,-0.0446,-0.0243,9.8065,-0.0751,0.0532,-0.0181,-12.25,-18.69,-20.01,123.45,-0.74,-3.49
2079,51.7722,-1.100624,113,32.39,8,196.5,Sep-19,1039517,2019-02-27 10:33:11:037,0.3762,0.1158,11.4679,-0.0717,-0.0582,9.8062,-0.1219,0.0191,-0.0288,-12.47,-18.05,-20.46,124.86,-0.68,-3.15
2080,51.7722,-1.100624,113,32.39,8,196.5,Sep-19,1040018,2019-02-27 10:33:11:538,-0.1322,-0.8068,9.5262,-0.0162,-0.0891,9.8062,0.0229,-0.1365,-0.0181,-12.99,-18.09,-20.1,127.96,-0.26,-4.06
2081,51.7722,-1.100624,113,32.39,8,196.5,Sep-19,1040517,2019-02-27 10:33:12:037,-0.0244,-0.4542,8.4191,-0.0216,-0.0739,9.8063,-0.0676,-0.0118,-0.0213,-12.5,-17.68,-20.76,127.04,-0.7,-3.02
2082,51.7722,-1.100624,113,32.39,8,196.5,Sep-19,1041017,2019-02-27 10:33:12:537,0.3214,0.4785,10.7729,-0.0047,0.0498,9.8065,-0.0293,-0.0139,-0.017,-13.42,-17.6,-20.25,127.41,-0.44,-3.38
2083,51.7722,-1.100624,113,32.39,8,196.5,Sep-19,1041518,2019-02-27 10:33:13:038,0.2497,-0.929,10.2105,0.0039,0.023,9.8066,-0.0239,-0.0502,-0.0064,-13.15,-17.1,-20.85,128.86,-0.46,-2.89
2084,51.7722,-1.100624,113,32.39,8,196.5,Sep-19,1042019,2019-02-27 10:33:13:539,0.22,0.1427,8.3231,0.0765,0.042,9.8063,0.0474,0.1288,-0.0085,-12.66,-16.34,-21.74,130.46,-0.37,-2.39
2085,51.7722,-1.100624,113,32.39,8,196.5,Sep-19,1042518,2019-02-27 10:33:14:038,0.362,-0.1272,8.4146,0.0434,0.0114,9.8065,-0.0112,0.0393,-0.0149,-13.3,-17.52,-20.39,126.98,-0.32,-2.5
2086,51.7722,-1.100624,113,32.39,8,196.5,Sep-19,1043017,2019-02-27 10:33:14:537,0.1686,-0.4385,9.6268,-0.0771,-0.0875,9.806,0.0048,-0.0139,-0.0181,-12.79,-17.96,-20.34,127.4,-0.1,-2.93
2087,51.7722,-1.100624,113,32.39,8,196.5,Sep-19,1043517,2019-02-27 10:33:15:037,-0.6743,-0.6112,9.9548,-0.1155,-0.0892,9.8056,-0.0207,0.0265,-0.0352,-12.5,-18.25,-20.26,124.95,-0.07,-2.44
2088,51.7722,-1.100624,113,32.39,8,196.5,Sep-19,1044018,2019-02-27 10:33:15:538,0.1518,-0.1778,9.4916,0.0476,0.0568,9.8064,-0.0186,-0.0374,-0.0234,-14.33,-17.1,-20.06,131.14,-0.11,-2.86
2089,51.7722,-1.100624,113,32.39,8,196.5,Sep-19,1044519,2019-02-27 10:33:16:039,0.1469,0.2169,11.0711,0.0319,0.0541,9.8065,-0.0303,-0.0353,-0.0138,-14.12,-16.36,-20.81,133.26,0.28,-2.7
2090,51.7722,-1.100624,113,32.39,8,196.5,Sep-19,1045018,2019-02-27 10:33:16:538,-0.0439,0.1276,10.3427,0.0028,0.0401,9.8066,0.0187,0.0106,-0.017,-14.12,-16.36,-20.81,132.72,0.05,-2.2
2091,51.7722,-1.100624,113,32.39,8,196.5,Sep-19,1045517,2019-02-27 10:33:17:037,-0.213,-0.2621,10.0313,-0.0134,-0.0021,9.8066,-0.0058,0.0297,-0.0245,-13.75,-17.34,-20.26,130.62,-0.15,-2.09
2092,51.7722,-1.100624,113,32.39,8,196.5,Sep-19,1046017,2019-02-27 10:33:17:537,-0.1669,0.1745,10.3017,0.0394,0.0193,9.8066,0.007,-0.0342,-0.017,-14.39,-16.6,-20.43,130.97,-0.1,-2.58
2093,51.7722,-1.100624,113,32.39,8,196.5,Sep-19,1046518,2019-02-27 10:33:18:038,0.1351,-0.2293,9.5004,0.0161,-0.0006,9.8066,0.0208,0.0212,-0.0213,-14.24,-16.42,-20.68,132.75,0.04,-2.26
2094,51.7722,-1.100624,113,32.39,8,196.5,Sep-19,1047017,2019-02-27 10:33:18:537,0.0029,-0.5191,9.5446,0.0187,-0.0575,9.8065,0.0368,-0.0022,-0.0213,-14.2,-16.45,-20.68,132.7,-0.2,-2.44
2095,51.7722,-1.100624,113,32.39,8,196.5,Sep-19,1047518,2019-02-27 10:33:19:038,0.3289,-0.2819,10.258,-0.0199,-0.008,9.8066,0.0229,0.0723,-0.0245,-14.76,-16.5,-20.24,134.93,0.12,-2.59
2096,51.7722,-1.100624,113,32.39,8,196.5,Jan-19,1048017,2019-02-27 10:33:19:537,0.3859,0.2142,9.9494,0.0364,0.0159,9.8066,-0.041,-0.015,-0.0181,-14.59,-15.48,-21.15,136.94,0.16,-2.49
2097,51.7722,-1.100624,113,32.39,8,196.5,Jan-19,1048518,2019-02-27 10:33:20:038,-0.2267,0.3572,10.3133,-0.0112,-0.0221,9.8066,0.0123,-0.031,-0.0128,-15.06,-16.43,-20.08,135.01,0.2,-2.63
2098,51.73093,-1.072219,172,32.65,19,122.7,Sep-19,1049017,2019-02-27 10:33:20:537,-0.0009,0.3086,8.7424,0.0423,-0.0182,9.8065,-0.025,-0.0363,-0.0053,-14.92,-16.19,-20.38,135.03,0.27,-2.58
2099,51.73093,-1.072219,172,32.65,19,122.7,Sep-19,1049518,2019-02-27 10:33:21:038,0.1811,-0.4438,8.7889,0.004,-0.0081,9.8066,0.0165,0.0414,-0.0107,-14.62,-15.83,-20.87,134.91,0.2,-2.35
2100,51.73093,-1.072219,172,32.65,19,122.7,Sep-19,1050018,2019-02-27 10:33:21:538,-0.0974,0.0603,10.3214,0.015,0.0038,9.8066,0.0134,0.0329,-0.0107,-14.89,-16.58,-20.08,133.02,0.3,-2.29
2101,51.73093,-1.072219,172,32.65,19,122.7,Sep-19,1050517,2019-02-27 10:33:22:037,0.0093,-0.2654,9.9092,-0.0249,-0.0103,9.8066,-0.0207,-0.047,-0.0064,-14.93,-16.58,-20.06,132.96,0.33,-2.16
2102,51.73093,-1.072219,172,32.65,19,122.7,Sep-19,1051018,2019-02-27 10:33:22:538,-0.0986,0.3056,9.9967,0.0201,0.0036,9.8066,-0.0282,-0.0022,-0.0032,-15.1,-16.77,-19.76,133.02,0.27,-2.31
2103,51.73093,-1.072219,172,32.65,19,122.7,Sep-19,1051518,2019-02-27 10:33:23:038,-0.1638,-0.1499,9.8537,-0.1028,-0.0901,9.8057,-0.0367,0.0095,-0.016,-15.04,-17.53,-19.15,131.2,0.34,-2.17
2104,51.73093,-1.072219,172,32.65,19,122.7,Sep-19,1052017,2019-02-27 10:33:23:537,-0.4322,-1.0955,10.6854,-0.2663,-0.1886,9.8012,-0.0261,0.0106,-0.0043,-15.04,-17.53,-19.15,132.19,0.14,-4.07
2105,51.73093,-1.072219,172,32.65,19,122.7,Sep-19,1052518,2019-02-27 10:33:24:038,0.1911,0.7685,10.4368,-0.0188,-0.008,9.8066,0.0155,0.066,-0.0149,-15.04,-17.53,-19.15,132.2,0.25,-3.99
2106,51.73093,-1.072219,172,32.65,19,122.7,Sep-19,1053017,2019-02-27 10:33:24:537,0.1656,0.3742,10.2489,0.0473,0.0247,9.8065,0.0133,0.0095,-0.0032,-15.54,-17.59,-18.68,133.9,0.32,-3.68
2107,51.73093,-1.072219,172,32.65,19,122.7,Sep-19,1053517,2019-02-27 10:33:25:037,0.2155,0.1527,9.8338,0.0248,0.0508,9.8065,-0.0442,-0.0448,0.0053,-15.04,-17.53,-19.15,131.87,0.36,-3.3
2108,51.73093,-1.072219,172,32.65,19,122.7,Sep-19,1054017,2019-02-27 10:33:25:537,0.3028,-0.0177,9.054,0.0278,0.0591,9.8064,-0.0229,-0.0214,0.0053,-15.07,-18.02,-18.66,131.5,0.5,-2.51
2109,51.73093,-1.072219,172,32.65,19,122.7,Sep-19,1054517,2019-02-27 10:33:26:037,0.1541,0.0585,10.3744,0.0559,0.0179,9.8065,-0.0037,-0.0086,0.0085,-14.93,-17.85,-18.93,131.2,0.35,-2.16
2110,51.73093,-1.072219,172,32.65,19,122.7,Sep-19,1055018,2019-02-27 10:33:26:538,-0.1883,0.2764,10.8023,-0.0288,0.0233,9.8066,0.0251,0.051,-0.0043,-15.21,-17.73,-18.83,131.05,0.25,-2.0
2111,51.73093,-1.072219,172,32.65,19,122.7,Sep-19,1055518,2019-02-27 10:33:27:038,-0.0771,0.0509,8.733,0.037,-0.0144,9.8066,0.0347,-0.0065,-0.0032,-15.57,-18.08,-18.18,132.87,0.46,-1.89
2112,51.73093,-1.072219,172,32.65,19,122.7,Sep-19,1056017,2019-02-27 10:33:27:537,-0.0169,-0.1353,10.2215,0.0415,0.0426,9.8065,0.0421,0.0169,-0.0032,-15.23,-17.76,-18.78,131.04,0.45,-1.77
2113,51.73093,-1.072219,172,32.65,19,122.7,Sep-19,1056517,2019-02-27 10:33:28:037,-0.2217,-0.5197,9.2735,-0.0436,-0.0131,9.8065,0.0389,0.0936,0.0021,-14.72,-17.69,-19.25,130.9,0.31,-1.66
2114,51.73093,-1.072219,172,32.65,19,122.7,Sep-19,1057017,2019-02-27 10:33:28:537,-0.1231,0.0663,9.9253,0.0284,0.0146,9.8066,-0.0048,0.0042,-0.0021,-16.12,-16.4,-19.27,136.0,0.32,-1.33
2115,51.73093,-1.072219,172,32.65,19,122.7,Sep-19,1057517,2019-02-27 10:33:29:037,0.3816,-0.8157,8.9522,-0.0101,-0.0195,9.8066,0.0016,0.0723,0.0011,-15.12,-18.08,-18.56,130.66,0.38,-1.16
2116,51.73093,-1.072219,172,32.65,19,122.7,Sep-19,1058017,2019-02-27 10:33:29:537,0.1105,-0.5686,9.7928,-0.0145,-0.0148,9.8066,0.0112,0.0084,-0.0043,-15.2,-17.26,-19.27,132.36,0.36,-1.25
2117,51.73093,-1.072219,172,32.65,19,122.7,Sep-19,1058517,2019-02-27 10:33:30:037,-0.2514,0.2608,11.3755,-0.0348,-0.0371,9.8065,-0.0122,0.0201,-0.0064,-14.57,-17.52,-19.51,130.93,0.38,-1.55
2118,51.73093,-1.072219,172,32.65,19,122.7,Sep-19,1059018,2019-02-27 10:33:30:538,-0.0475,0.1759,10.0933,0.0066,-0.0042,9.8066,-0.0165,-0.0534,0.0128,-15.2,-17.26,-19.27,132.68,0.42,-1.72
2119,51.73093,-1.072219,172,32.65,19,122.7,Sep-19,1059518,2019-02-27 10:33:31:038,-0.3859,0.1137,10.0423,0.0022,-0.0246,9.8066,0.0112,-0.0342,0.0011,-14.45,-17.81,-19.34,129.08,0.37,-1.8
2120,51.73093,-1.072219,172,32.65,19,122.7,Sep-19,1060017,2019-02-27 10:33:31:537,-0.1921,-0.0627,9.7775,-0.0341,-0.0211,9.8066,-0.0357,0.0255,-0.0032,-14.91,-17.92,-18.88,131.13,0.49,-1.88
2121,51.73093,-1.072219,172,32.65,19,122.7,Sep-19,1060519,2019-02-27 10:33:32:039,0.0711,0.1456,10.2865,-0.0287,0.0112,9.8066,-0.0058,0.0436,-0.0085,-14.98,-17.91,-18.84,131.23,0.47,-2.08
2122,51.73093,-1.072219,172,32.65,19,122.7,Sep-19,1061018,2019-02-27 10:33:32:538,0.0257,0.5139,9.6173,0.0048,-0.0355,9.8066,0.0187,0.0478,-0.0085,-15.24,-17.31,-19.18,132.87,0.31,-2.16
2123,51.73093,-1.072219,172,32.65,19,122.7,Sep-19,1061518,2019-02-27 10:33:33:038,0.1146,0.1518,10.1791,0.0322,-0.0164,9.8066,0.0293,0.0063,-0.0032,-15.41,-16.98,-19.34,133.05,0.36,-2.41
2124,51.73093,-1.072219,172,32.65,19,122.7,Sep-19,1062017,2019-02-27 10:33:33:537,0.1745,0.2024,9.5424,0.0551,-0.0114,9.8065,-0.0005,0.0393,0.0085,-14.94,-17.42,-19.32,133.11,0.63,-2.22
2125,51.73093,-1.072219,172,32.65,19,122.7,Sep-19,1062518,2019-02-27 10:33:34:038,0.0926,0.7493,10.1671,-0.0119,0.0056,9.8066,0.0059,0.0244,0.0,-15.31,-17.77,-18.7,131.2,0.54,-1.95
2126,51.73093,-1.072219,172,32.65,19,122.7,Sep-19,1063017,2019-02-27 10:33:34:537,0.1141,-0.0432,9.5228,0.0489,0.032,9.8065,-0.0026,-0.0374,0.0075,-14.77,-17.75,-19.16,131.04,0.58,-1.61
2127,51.73093,-1.072219,172,32.65,19,122.7,Sep-19,1063518,2019-02-27 10:33:35:038,-0.3395,0.4131,10.4239,-0.0445,-0.0351,9.8065,-0.0303,0.0659,-0.0064,-14.93,-17.95,-18.83,130.93,0.68,-1.31
2128,51.73093,-1.072219,172,32.65,19,122.7,Sep-19,1064017,2019-02-27 10:33:35:537,-0.0126,0.0346,9.4072,0.012,-0.0076,9.8066,-0.0293,-0.0566,0.0075,-15.11,-17.61,-19.01,131.11,0.58,-1.74
2129,51.73093,-1.072219,172,32.65,19,122.7,Sep-19,1064517,2019-02-27 10:33:36:037,0.269,-0.211,8.4822,-0.0103,-0.024,9.8066,0.0059,-0.0598,-0.0053,-14.01,-18.29,-19.21,129.23,0.66,-1.72
2130,51.73093,-1.072219,172,32.65,19,122.7,Sep-19,1065018,2019-02-27 10:33:36:538,0.1273,0.0829,9.5494,-0.0145,-0.0095,9.8066,-0.0293,0.0297,-0.0053,-14.79,-17.78,-19.11,131.32,0.72,-1.95
2131,51.73093,-1.072219,172,32.65,19,122.7,Sep-19,1065518,2019-02-27 10:33:37:038,-0.0564,-0.0569,10.3061,0.0,-0.0008,9.8067,0.0336,0.0169,0.0,-14.93,-17.95,-18.83,131.32,0.73,-1.95
2132,51.73093,-1.072219,172,32.65,19,122.7,Sep-19,1066018,2019-02-27 10:33:37:538,-0.0653,-0.207,9.8291,0.0092,-0.0059,9.8066,0.0379,0.0404,-0.0075,-14.79,-17.78,-19.11,131.31,0.7,-1.96
2133,51.73093,-1.072219,172,32.65,19,122.7,Sep-19,1066518,2019-02-27 10:33:38:038,0.0957,-0.3683,9.6927,-0.0101,-0.0013,9.8066,0.0112,0.0244,-0.0021,-13.91,-17.83,-19.71,129.51,0.73,-2.0
2134,51.73093,-1.072219,172,32.65,19,122.7,Sep-19,1067018,2019-02-27 10:33:38:538,-0.0464,-0.2335,10.0108,0.0023,-0.0064,9.8066,0.0208,0.0628,-0.0075,-14.62,-17.58,-19.42,131.34,0.74,-1.97
2135,51.73093,-1.072219,172,32.65,19,122.7,Sep-19,1067518,2019-02-27 10:33:39:038,0.1547,-0.2297,9.406,0.0284,0.0105,9.8066,0.0176,0.0052,0.0021,-14.93,-17.95,-18.83,131.49,0.79,-2.18
2136,51.73093,-1.072219,172,32.65,19,122.7,Sep-19,1068017,2019-02-27 10:33:39:537,0.3066,-0.235,9.621,0.0017,-0.0078,9.8066,-0.0282,-0.0001,0.0032,-14.65,-17.6,-19.38,131.44,0.85,-2.02
2137,51.73093,-1.072219,172,32.65,19,122.7,Sep-19,1068518,2019-02-27 10:33:40:038,0.074,0.2102,10.1878,0.0068,0.0223,9.8066,-0.0314,-0.0427,0.0032,-15.06,-17.16,-19.46,133.13,0.81,-2.05
2138,51.73093,-1.072219,172,32.65,19,122.7,Sep-19,1069017,2019-02-27 10:33:40:537,-0.2461,0.1808,10.3255,0.0063,-0.0267,9.8066,-0.025,-0.0225,-0.0096,-14.25,-19.12,-18.2,127.89,0.89,-2.01
2139,51.73093,-1.072219,172,32.65,19,122.7,Sep-19,1069518,2019-02-27 10:33:41:038,0.0329,0.055,10.0579,0.0095,0.0023,9.8066,0.0048,0.0287,-0.0011,-14.85,-20.02,-16.69,128.29,0.83,-2.22
2140,51.73093,-1.072219,172,32.65,19,122.7,Sep-19,1070018,2019-02-27 10:33:41:538,0.2441,-0.5435,8.934,0.0203,0.0033,9.8066,0.0517,0.0372,0.0032,-14.68,-18.56,-18.44,129.83,0.91,-2.07
2141,51.73093,-1.072219,172,32.65,19,122.7,Sep-19,1070518,2019-02-27 10:33:42:038,-0.0936,0.1156,10.5981,0.0086,0.0146,9.8066,-0.0112,0.0148,0.0043,-15.81,-17.83,-18.23,133.11,0.94,-1.83
2142,51.73093,-1.072219,172,32.65,19,122.7,Sep-19,1071017,2019-02-27 10:33:42:537,0.2111,-0.3437,9.8511,0.0094,0.0189,9.8066,0.007,0.0223,-0.0085,-15.14,-18.11,-18.52,131.32,0.92,-1.74
2143,51.73093,-1.072219,172,32.65,19,122.7,Sep-19,1071517,2019-02-27 10:33:43:037,-0.0977,-0.1903,8.1226,-0.0344,-0.0336,9.8065,0.0027,-0.1077,0.0011,-14.65,-17.6,-19.38,131.4,0.89,-1.91
2144,51.73093,-1.072219,172,32.65,19,122.7,Sep-19,1072017,2019-02-27 10:33:43:537,0.0676,0.3868,9.9181,-0.0088,0.0084,9.8066,-0.0335,-0.0821,0.0107,-14.74,-17.82,-19.11,131.35,0.81,-1.91
2145,51.73093,-1.072219,172,32.65,19,122.7,Sep-19,1072517,2019-02-27 10:33:44:037,0.0597,0.1443,10.1778,-0.0287,-0.0205,9.8066,-0.0463,-0.0257,0.0021,-14.38,-17.73,-19.47,129.54,0.9,-2.0
2146,51.73093,-1.072219,172,32.65,19,122.7,Sep-19,1073017,2019-02-27 10:33:44:537,-0.0347,-0.1649,9.3273,-0.0033,-0.048,9.8065,-0.0069,-0.0214,-0.0107,-14.82,-18.27,-18.61,131.48,0.89,-2.05
2147,51.73093,-1.072219,172,32.65,19,122.7,Sep-19,1073517,2019-02-27 10:33:45:037,0.1821,0.0846,10.0495,-0.0318,0.0086,9.8066,0.0059,0.0137,-0.0032,-15.13,-18.18,-18.45,131.62,1.09,-2.25
2148,51.73093,-1.072219,172,32.65,19,122.7,Sep-19,1074017,2019-02-27 10:33:45:537,0.0022,0.4056,10.232,0.0293,0.028,9.8066,0.0102,-0.0246,0.0043,-14.76,-16.97,-19.85,133.68,1.0,-2.57
2149,51.73093,-1.072219,172,32.65,19,122.7,Sep-19,1074517,2019-02-27 10:33:46:037,0.1536,-0.5165,8.9141,-0.0183,-0.0374,9.8066,0.0112,0.0702,0.0032,-14.25,-17.68,-19.61,129.9,1.0,-2.33
2150,51.73093,-1.072219,172,32.65,19,122.7,Sep-19,1075017,2019-02-27 10:33:46:537,0.1878,-0.1021,9.8722,0.0397,0.0047,9.8066,0.0144,0.0169,0.0032,-14.4,-18.32,-18.89,129.74,0.95,-2.28
2151,51.73093,-1.072219,172,32.65,19,122.7,Sep-19,1075517,2019-02-27 10:33:47:037,0.3166,0.0581,10.3977,0.0923,0.0207,9.8062,0.0496,0.0532,-0.0053,-14.53,-15.33,-21.3,137.13,1.2,-1.79
2152,51.73093,-1.072219,172,32.65,19,122.7,Sep-19,1076018,2019-02-27 10:33:47:538,-0.0339,-0.0463,9.8865,0.0202,0.0064,9.8066,-0.0037,-0.0129,0.0011,-14.31,-17.37,-19.84,131.0,1.04,-1.33
2153,51.73093,-1.072219,172,32.65,19,122.7,Sep-19,1076517,2019-02-27 10:33:48:037,0.2111,-0.2127,9.5267,0.013,0.0217,9.8066,-0.0048,-0.0012,0.0053,-14.34,-17.79,-19.43,129.16,1.0,-1.19
2154,51.73093,-1.072219,172,32.65,19,122.7,Sep-19,1077017,2019-02-27 10:33:48:537,-0.1926,0.0039,10.5427,-0.0139,-0.0081,9.8066,-0.0314,-0.0235,0.0043,-14.34,-17.79,-19.43,128.99,0.98,-0.9
2155,51.73093,-1.072219,172,32.65,19,122.7,Sep-19,1077518,2019-02-27 10:33:49:038,0.2928,-0.5,9.0212,-0.0103,0.0099,9.8066,-0.0154,0.0042,0.0,-14.15,-18.13,-19.26,129.18,1.06,-1.17
2156,51.73093,-1.072219,172,32.65,19,122.7,Sep-19,1078017,2019-02-27 10:33:49:537,-0.182,-0.1296,9.4161,-0.031,-0.0267,9.8066,-0.0016,0.0468,0.0021,-14.56,-17.96,-19.12,131.04,0.97,-1.18
2157,51.73093,-1.072219,172,32.65,19,122.7,Sep-19,1078518,2019-02-27 10:33:50:038,-0.0594,0.204,9.0003,0.0187,-0.005,9.8066,0.0379,0.0361,0.0032,-14.8,-17.41,-19.44,132.99,0.95,-1.68
2158,51.73093,-1.072219,172,32.65,19,122.7,Sep-19,1079018,2019-02-27 10:33:50:538,-0.0585,0.1998,9.4418,-0.0054,0.0162,9.8066,-0.0154,0.0383,0.0032,-14.2,-17.62,-19.7,129.42,0.95,-1.58
2159,51.73093,-1.072219,172,32.65,19,122.7,Sep-19,1079517,2019-02-27 10:33:51:037,0.4532,-0.4743,8.5356,0.0472,0.0341,9.8065,0.0165,-0.0129,0.0128,-13.72,-18.04,-19.66,129.28,0.95,-1.34
2160,51.73093,-1.072219,172,32.65,19,122.7,Sep-19,1080017,2019-02-27 10:33:51:537,0.0325,-0.0463,10.0928,0.0195,0.0586,9.8065,0.0027,-0.0139,0.017,-14.75,-18.19,-18.75,130.66,0.78,-0.7
2161,51.73093,-1.072219,172,32.65,19,122.7,Sep-19,1080517,2019-02-27 10:33:52:037,0.2529,-0.4474,9.492,0.039,0.0056,9.8066,0.0038,0.0351,0.0075,-14.4,-18.32,-18.89,128.72,0.81,-0.61
2162,51.73093,-1.072219,172,32.65,19,122.7,Sep-19,1081018,2019-02-27 10:33:52:538,-0.0665,0.2655,9.4808,0.0301,0.0596,9.8064,-0.009,-0.0416,0.0107,-13.46,-18.2,-19.69,126.43,0.78,-0.05
2163,51.73093,-1.072219,172,32.65,19,122.7,Sep-19,1081518,2019-02-27 10:33:53:038,0.1112,0.0468,8.5689,0.0167,-0.0023,9.8066,-0.0048,-0.0693,0.0128,-14.24,-18.12,-19.21,128.37,0.82,0.07
2164,51.73093,-1.072219,172,32.65,19,122.7,Sep-19,1082018,2019-02-27 10:33:53:538,-0.2403,0.2286,10.2691,-0.0008,-0.0193,9.8066,-0.0452,-0.0374,0.0043,-13.79,-19.05,-18.62,126.82,0.85,0.21
2165,51.73093,-1.072219,172,32.65,19,122.7,Sep-19,1082517,2019-02-27 10:33:54:037,0.4109,-0.3679,8.9253,0.0095,0.0107,9.8066,-0.0037,-0.0054,0.0032,-14.25,-17.68,-19.61,128.28,0.83,0.3
2166,51.73093,-1.072219,172,32.65,19,122.7,Sep-19,1083018,2019-02-27 10:33:54:538,0.0682,-0.5272,9.4936,0.0162,-0.0098,9.8066,0.0197,0.0276,0.0096,-14.06,-18.49,-18.99,128.18,0.71,0.29
2167,51.73093,-1.072219,172,32.65,19,122.7,Sep-19,1083517,2019-02-27 10:33:55:037,0.1818,-0.4216,9.8954,-0.0292,0.0159,9.8066,0.0208,0.0276,0.016,-13.07,-18.29,-19.86,126.16,0.63,0.26
2168,51.73093,-1.072219,172,32.65,19,122.7,Sep-19,1084017,2019-02-27 10:33:55:537,0.2671,-0.763,8.8892,0.0467,0.0143,9.8065,0.0251,0.0606,0.0085,-14.5,-18.33,-18.81,128.02,0.6,0.47
2169,51.73093,-1.072219,172,32.65,19,122.7,Sep-19,1084517,2019-02-27 10:33:56:037,-0.271,-0.0943,10.7968,0.0035,0.0404,9.8066,0.0283,0.0042,0.017,-13.25,-18.54,-19.51,124.32,0.53,0.89
2170,51.73093,-1.072219,172,32.65,19,122.7,Sep-19,1085017,2019-02-27 10:33:56:537,0.0404,-0.1083,9.6816,-0.01,0.0089,9.8066,0.0123,0.0052,0.0202,-13.43,-19.18,-18.75,124.23,0.55,1.12
2171,51.73093,-1.072219,172,32.65,19,122.7,Sep-19,1085517,2019-02-27 10:33:57:037,-0.3183,0.8619,9.9005,-0.0169,0.017,9.8066,0.0336,-0.0342,0.017,-14.1,-19.47,-17.95,126.15,0.41,1.09
2172,51.73093,-1.072219,172,32.65,19,122.7,Sep-19,1086017,2019-02-27 10:33:57:537,0.4317,-0.4559,8.6383,-0.0007,0.0409,9.8066,-0.041,-0.064,0.0192,-9.4,-19.11,-21.13,115.16,0.41,1.31
2173,51.73093,-1.072219,172,32.65,19,122.7,Sep-19,1086518,2019-02-27 10:33:58:038,-0.112,-0.1616,10.0916,-0.0181,-0.0394,9.8066,-0.0282,0.0148,0.0085,-11.88,-22.17,-16.35,118.41,0.25,1.14
2174,51.73093,-1.072219,172,32.65,19,122.7,Sep-19,1087017,2019-02-27 10:33:58:537,-0.039,-0.4042,9.6996,-0.0316,-0.0209,9.8066,0.0091,-0.015,0.017,-14.34,-19.55,-17.67,124.84,0.41,0.94
2175,51.73093,-1.072219,172,32.65,19,122.7,Sep-19,1087518,2019-02-27 10:33:59:038,-0.1442,-0.1404,9.9568,-0.0102,-0.0257,9.8066,0.0315,0.0308,0.0128,-13.58,-18.94,-18.89,126.23,0.21,0.61
2176,51.73093,-1.072219,172,32.65,19,122.7,Sep-19,1088017,2019-02-27 10:33:59:537,0.0264,0.5592,9.4827,0.0204,0.0059,9.8066,-0.0197,-0.0875,0.0138,-13.25,-18.54,-19.51,124.36,0.3,0.47
