,GPS LATITUDE (degrees), GPS LONGITUDE (degrees), GPS ALTITUDE (m), GPS SPEED (Kmh), GPS ACCURACY (m), GPS ORIENTATION (Â°),GPS SATELLITES IN RANGE, TIME SINCE START (ms), DATE (YYYY-MO-DD HH-MI-SS_SSS), ACCELEROMETER X (m/s²) , ACCELEROMETER Y (m/s²), ACCELEROMETER Z (m/s²), GRAVITY X (m/s²), GRAVITY Y (m/s²), GRAVITY Z (m/s²), GYROSCOPE Yaw (rad/s), GYROSCOPE Pitch (rad/s), GYROSCOPE Roll (rad/s), MAGNETIC FIELD X (Î¼T), MAGNETIC FIELD Y (Î¼T), MAGNETIC FIELD Z (Î¼T), ORIENTATION (Yaw) (Â°), ORIENTATION (Pitch) (Â°), ORIENTATION (Roll ) (Â°)
63862,52.4757,-1.416248,151,6.27,9.0,336.2,14 / 26,6386240,2019-08-31 11:36:46:319,-0.083,-0.2658,10.1192,0.0091,-0.0415,9.8066,0.0085,0.1018,-0.0943,16.8,7.63,-23.66,324.81,8.28,-3.58
63863,52.4757,-1.416248,151,6.27,9.0,336.2,14 / 26,6386342,2019-08-31 11:36:46:421,0.2092,-1.2915,10.4668,0.0181,-0.0698,9.8064,0.032,-0.1539,-0.0539,17.08,7.27,-23.57,328.34,7.95,-3.3
63864,52.4757,-1.416248,151,6.27,9.0,336.2,14 / 26,6386442,2019-08-31 11:36:46:521,0.106,-0.5511,9.9258,-0.0524,0.0028,9.8065,-0.0341,0.0698,-0.0645,17.08,7.27,-23.57,328.34,7.95,-3.3
63865,52.4757,-1.416248,151,6.27,9.0,336.2,14 / 26,6386541,2019-08-31 11:36:46:620,0.349,-1.091,9.727,-0.039,-0.0182,9.8066,-0.0341,0.0698,-0.0645,17.56,7.47,-23.15,330.66,8.09,-3.09
63866,52.4757,-1.416248,151,6.27,9.0,336.2,14 / 26,6386642,2019-08-31 11:36:46:721,0.2695,-0.4521,9.4801,0.0996,-0.0831,9.8058,-0.017,0.0677,-0.0602,16.6,7.21,-23.92,329.28,7.35,-2.95
63867,52.4757,-1.416248,151,6.27,9.0,336.2,14 / 26,6386741,2019-08-31 11:36:46:820,0.6301,-0.9356,10.1876,0.0645,-0.0754,9.8061,0.0192,0.1167,-0.0837,16.6,7.21,-23.92,329.28,7.35,-2.95
63868,52.4757,-1.416248,151,6.27,9.0,336.2,14 / 26,6386843,2019-08-31 11:36:46:922,0.2434,-0.398,8.5929,0.1275,-0.132,9.8049,-0.0096,-0.0239,-0.0656,15.82,6.19,-24.73,330.96,6.8,-2.76
63869,52.4757,-1.416248,151,6.27,9.0,336.2,14 / 26,6386941,2019-08-31 11:36:47:020,1.0816,-0.9474,9.8732,0.1731,-0.1856,9.8034,0.0064,0.04,-0.0613,16.12,6.12,-24.55,330.96,6.8,-2.76
63870,52.475742,-1.416275,151,5.56,9.0,340.8,14 / 26,6387041,2019-08-31 11:36:47:120,0.5144,-0.3667,8.9123,0.0438,-0.006,9.8066,-0.017,-0.0112,-0.0773,15.82,6.19,-24.73,332.78,5.39,-2.3
63871,52.475742,-1.416275,151,5.56,9.0,340.8,14 / 26,6387141,2019-08-31 11:36:47:220,1.0888,-0.9034,10.8589,0.0359,-0.0242,9.8066,0.0053,-0.0197,-0.0592,16.32,5.98,-24.45,333.13,5.14,-2.39
63872,52.475742,-1.416275,151,5.56,9.0,340.8,14 / 26,6387241,2019-08-31 11:36:47:320,0.3244,-0.6124,9.3134,0.0499,-0.0658,9.8063,0.0501,-0.0431,-0.0879,17.43,6.43,-23.56,335.26,4.71,-2.18
63873,52.475742,-1.416275,151,5.56,9.0,340.8,14 / 26,6387341,2019-08-31 11:36:47:420,0.4417,-0.8295,10.4402,0.0394,-0.0539,9.8064,0.0501,-0.0431,-0.0879,17.43,6.43,-23.56,335.26,4.71,-2.18
63874,52.475742,-1.416275,151,5.56,9.0,340.8,14 / 26,6387443,2019-08-31 11:36:47:522,0.215,-0.8885,9.0579,0.0268,-0.0278,9.8066,0.0043,-0.0058,-0.0485,16.78,6.02,-24.13,335.72,4.37,-1.99
63875,52.475742,-1.416275,151,5.56,9.0,340.8,14 / 26,6387542,2019-08-31 11:36:47:621,0.3174,-0.9351,10.1804,0.0368,-0.1106,9.806,0.0501,0.0133,-0.0421,16.95,6.25,-23.95,336.65,3.91,-1.49
63876,52.475742,-1.416275,151,5.56,9.0,340.8,14 / 26,6387642,2019-08-31 11:36:47:721,0.6536,-0.671,9.297,0.0185,-0.0785,9.8063,-0.0096,0.0805,-0.0347,16.78,6.02,-24.13,336.65,3.91,-1.49
63877,52.475742,-1.416275,151,5.56,9.0,340.8,14 / 26,6387740,2019-08-31 11:36:47:819,0.7761,-0.4449,9.1521,0.0827,-0.1292,9.8055,0.0138,0.0048,-0.0283,16.78,6.02,-24.13,336.65,3.91,-1.49
63878,52.475742,-1.416275,151,5.56,9.0,340.8,14 / 26,6387841,2019-08-31 11:36:47:920,0.5882,-0.934,10.6761,0.1369,-0.197,9.8037,0.0852,-0.0239,-0.0262,17.11,6.8,-23.69,335.23,2.72,-0.75
63879,52.475742,-1.416275,151,5.56,9.0,340.8,14 / 26,6387941,2019-08-31 11:36:48:020,-0.1514,-1.2729,10.2858,-0.0725,-0.2576,9.803,0.0021,-0.1156,0.0601,17.36,7.19,-23.38,335.23,2.72,-0.75
63880,52.47578,-1.416295,151,4.89,10.0,343.6,14 / 26,6388041,2019-08-31 11:36:48:120,-0.2133,-0.5188,9.8597,-0.003,-0.0984,9.8062,-0.0128,-0.0112,0.0505,16.16,7.29,-24.2,335.97,2.47,0.8
63881,52.47578,-1.416295,151,4.89,10.0,343.6,14 / 26,6388141,2019-08-31 11:36:48:220,0.0771,-0.443,9.5853,0.0087,-0.141,9.8056,-0.0128,-0.0112,0.0505,16.64,6.61,-24.07,335.97,2.47,0.8
63882,52.47578,-1.416295,151,4.89,10.0,343.6,14 / 26,6388241,2019-08-31 11:36:48:320,-0.208,-0.9333,10.2134,0.0113,-0.1879,9.8048,-0.0224,0.0208,0.0463,16.56,6.77,-24.08,338.85,1.96,1.78
63883,52.47578,-1.416295,151,4.89,10.0,343.6,14 / 26,6388342,2019-08-31 11:36:48:421,-0.0254,-0.279,8.8799,-0.0063,-0.0739,9.8064,0.033,0.0165,0.058,16.56,6.77,-24.08,338.85,1.96,1.78
63884,52.47578,-1.416295,151,4.89,10.0,343.6,14 / 26,6388441,2019-08-31 11:36:48:520,-0.1198,-0.2607,9.3595,-0.0062,-0.0954,9.8062,0.1023,0.0389,0.0644,16.89,7.89,-23.5,336.42,1.84,2.19
63885,52.47578,-1.416295,151,4.89,10.0,343.6,14 / 26,6388541,2019-08-31 11:36:48:620,-0.2809,-0.9513,9.8739,-0.0196,-0.2551,9.8033,0.0884,0.0261,0.1145,16.89,7.89,-23.5,336.42,1.84,2.19
63886,52.47578,-1.416295,151,4.89,10.0,343.6,14 / 26,6388642,2019-08-31 11:36:48:721,-0.6227,-1.2592,9.7822,-0.0275,-0.164,9.8052,0.0032,0.0101,0.1528,16.16,8.75,-23.72,334.14,1.35,3.6
63887,52.47578,-1.416295,151,4.89,10.0,343.6,14 / 26,6388741,2019-08-31 11:36:48:820,0.2471,-2.6897,9.808,-0.0514,-0.3322,9.8009,0.0437,-0.1422,0.14,16.55,8.92,-23.38,334.14,1.35,3.6
63888,52.47578,-1.416295,151,4.89,10.0,343.6,14 / 26,6388841,2019-08-31 11:36:48:920,-0.2992,-0.8209,10.0573,-0.1187,-0.4134,9.7972,-0.0661,-0.1337,0.2125,15.62,9.31,-23.86,337.67,0.92,6.08
63889,52.47578,-1.416295,151,4.89,10.0,343.6,14 / 26,6388941,2019-08-31 11:36:49:020,-0.2752,-0.023,10.6267,-0.0465,-0.0714,9.8063,0.0724,-0.0495,0.2231,15.73,9.85,-23.57,335.2,1.01,6.57
63890,52.475815,-1.416316,151,4.62,10.0,337.6,14 / 26,6389041,2019-08-31 11:36:49:120,-0.7622,-0.7841,8.3574,-0.0696,-0.0816,9.8061,0.0724,-0.0495,0.2231,15.73,9.85,-23.57,335.2,1.01,6.57
63891,52.475815,-1.416316,151,4.62,10.0,337.6,14 / 26,6389140,2019-08-31 11:36:49:219,-0.7269,-0.7799,9.901,-0.065,-0.1306,9.8056,0.0437,-0.0442,0.2593,16.11,11.54,-22.52,330.42,1.45,7.89
63892,52.475815,-1.416316,151,4.62,10.0,337.6,14 / 26,6389240,2019-08-31 11:36:49:319,-0.4193,-1.4102,10.2705,-0.0117,-0.1723,9.8051,0.0224,-0.0474,0.3776,15.76,11.64,-22.72,331.48,1.41,8.75
63893,52.475815,-1.416316,151,4.62,10.0,337.6,14 / 26,6389341,2019-08-31 11:36:49:420,0.07,-1.6218,9.8253,-0.0011,-0.1513,9.8055,0.0234,-0.0527,0.3755,15.37,12.31,-22.63,331.33,0.99,9.66
63894,52.475815,-1.416316,151,4.62,10.0,337.6,14 / 26,6389442,2019-08-31 11:36:49:521,-0.7756,0.2025,11.3966,0.0124,-0.265,9.8031,0.0277,0.0986,0.3339,15.37,12.31,-22.63,331.33,0.99,9.66
63895,52.475815,-1.416316,151,4.62,10.0,337.6,14 / 26,6389541,2019-08-31 11:36:49:620,-0.0248,-0.4851,9.9632,0.0398,-0.1417,9.8055,0.0277,0.0165,0.3712,14.08,13.32,-22.9,328.96,0.18,10.99
63896,52.475815,-1.416316,151,4.62,10.0,337.6,14 / 26,6389641,2019-08-31 11:36:49:720,0.2448,-1.1447,10.3857,0.113,-0.2609,9.8025,0.0277,0.0165,0.3712,13.51,14.17,-22.73,328.96,0.18,10.99
63897,52.475815,-1.416316,151,4.62,10.0,337.6,14 / 26,6389741,2019-08-31 11:36:49:820,0.6412,-0.9518,10.2313,0.1805,-0.361,9.7983,-0.0298,0.0144,0.352,12.94,15.69,-22.06,321.48,-1.81,12.25
63898,52.475815,-1.416316,151,4.62,10.0,337.6,14 / 26,6389841,2019-08-31 11:36:49:920,-0.2441,-0.2713,10.5186,0.0489,-0.0865,9.8061,0.0107,-0.0101,0.3968,12.94,15.69,-22.06,321.48,-1.81,12.25
63899,52.475815,-1.416316,151,4.62,10.0,337.6,14 / 26,6389941,2019-08-31 11:36:50:020,0.2512,0.1749,8.7544,-0.0043,-0.1588,9.8054,0.065,-0.0783,0.3563,12.3,16.52,-21.82,318.29,-2.37,12.99
63900,52.475845,-1.416355,151,4.45,10.0,318.5,14 / 26,6390043,2019-08-31 11:36:50:122,0.2345,-0.6301,9.0804,0.0049,-0.0607,9.8065,-0.0384,0.057,0.3478,11.05,17.44,-21.77,316.55,-2.63,13.24
63901,52.475845,-1.416355,151,4.45,10.0,318.5,15 / 26,6390141,2019-08-31 11:36:50:220,-0.0357,-0.1889,9.6682,0.1085,-0.1005,9.8055,0.0373,0.0293,0.3893,11.05,17.44,-21.77,316.55,-2.63,13.24
63902,52.475845,-1.416355,151,4.45,10.0,318.5,15 / 26,6390241,2019-08-31 11:36:50:320,0.5652,-0.2603,10.2338,0.1933,-0.2168,9.8023,0.0053,-0.0357,0.352,9.47,18.34,-21.77,311.27,-4.32,13.38
63903,52.475845,-1.416355,151,4.45,10.0,318.5,15 / 26,6390341,2019-08-31 11:36:50:420,0.5796,-0.6273,9.0804,0.1064,-0.0885,9.8057,0.0554,-0.0346,0.3179,9.66,19.13,-20.99,311.27,-4.32,13.38
63904,52.475845,-1.416355,151,4.45,10.0,318.5,15 / 26,6390441,2019-08-31 11:36:50:520,0.1105,-0.0036,9.7724,0.1296,-0.1712,9.8043,0.0554,-0.0346,0.3179,8.51,19.93,-20.74,311.27,-4.32,13.38
63905,52.475845,-1.416355,151,4.45,10.0,318.5,15 / 26,6390541,2019-08-31 11:36:50:620,-0.142,0.0416,10.114,0.0121,-0.0668,9.8064,0.0501,-0.0176,0.3094,8.51,19.93,-20.74,308.05,-5.57,13.47
63906,52.475845,-1.416355,151,4.45,10.0,318.5,15 / 26,6390641,2019-08-31 11:36:50:720,-0.1261,0.4063,9.563,0.0295,0.0049,9.8066,-0.0437,-0.0527,0.2977,6.98,20.74,-20.52,301.8,-5.92,13.66
63907,52.475845,-1.416355,151,4.45,10.0,318.5,15 / 26,6390741,2019-08-31 11:36:50:820,0.5129,0.7441,9.1896,0.0909,0.0392,9.8061,-0.0234,-0.0453,0.2743,6.98,20.74,-20.52,301.8,-5.92,13.66
63908,52.475845,-1.416355,151,4.45,10.0,318.5,15 / 26,6390841,2019-08-31 11:36:50:920,0.5643,0.7877,9.2388,0.0788,-0.0138,9.8063,-0.0213,0.0016,0.2402,6.17,19.75,-21.72,300.91,-6.01,13.08
63909,52.475845,-1.416355,151,4.45,10.0,318.5,15 / 26,6390941,2019-08-31 11:36:51:020,0.8704,0.9352,9.7448,0.1728,-0.0048,9.8051,-0.0011,0.0336,0.2071,5.36,20.49,-21.25,297.29,-6.55,12.23
63910,52.47587,-1.416417,151,4.72,10.0,301.1,15 / 26,6391042,2019-08-31 11:36:51:121,0.9107,0.2969,10.1352,0.089,-0.0046,9.8062,0.032,0.0304,0.1826,5.36,20.49,-21.25,297.29,-6.55,12.23
63911,52.47587,-1.416417,151,4.72,10.0,301.1,15 / 26,6391141,2019-08-31 11:36:51:220,0.8388,0.2281,9.6916,0.077,-0.0223,9.8063,0.032,0.0304,0.1826,4.62,21.18,-20.74,295.93,-6.81,11.77
63912,52.47587,-1.416417,151,4.72,10.0,301.1,15 / 26,6391241,2019-08-31 11:36:51:320,0.6274,0.4422,9.2784,0.1456,-0.0218,9.8055,-0.0053,-0.0239,0.1454,4.14,21.53,-20.48,295.93,-6.81,11.77
63913,52.47587,-1.416417,151,4.72,10.0,301.1,15 / 26,6391341,2019-08-31 11:36:51:420,1.0297,0.7726,9.8214,0.0642,0.0149,9.8064,0.0213,0.0091,0.1304,3.61,21.53,-20.57,292.12,-7.45,10.84
63914,52.47587,-1.416417,151,4.72,10.0,301.1,15 / 26,6391442,2019-08-31 11:36:51:521,0.694,0.8562,10.4463,0.1161,0.0817,9.8056,-0.033,-0.0271,0.0793,3.52,22.03,-20.06,292.12,-7.45,10.84
63915,52.47587,-1.416417,151,4.72,10.0,301.1,15 / 26,6391541,2019-08-31 11:36:51:620,0.7511,0.4673,8.8092,0.0777,0.0422,9.8063,-0.0224,-0.0229,0.0846,3.57,22.33,-19.72,290.9,-7.27,10.02
63916,52.47587,-1.416417,151,4.72,10.0,301.1,15 / 26,6391641,2019-08-31 11:36:51:720,1.1375,0.3704,9.4723,0.1895,0.0365,9.8048,-0.0064,0.0325,0.075,2.63,22.23,-19.97,290.9,-7.27,10.02
63917,52.47587,-1.416417,151,4.72,10.0,301.1,15 / 26,6391741,2019-08-31 11:36:51:820,1.0585,0.3686,9.8157,0.246,0.0457,9.8035,0.0352,-0.0218,0.0292,2.63,22.23,-19.97,290.9,-7.27,10.02
63918,52.47587,-1.416417,151,4.72,10.0,301.1,15 / 26,6391841,2019-08-31 11:36:51:920,0.5897,-0.1997,9.4419,0.0226,0.0137,9.8066,-0.0064,0.024,0.0154,3.09,22.67,-19.4,286.46,-7.53,8.57
63919,52.47587,-1.416417,151,4.72,10.0,301.1,15 / 26,6391941,2019-08-31 11:36:52:020,0.9349,0.2174,9.788,0.0861,0.0144,9.8063,-0.0064,0.024,0.0154,3.61,21.53,-20.57,290.7,-7.59,8.06
63920,52.475887,-1.4165,151,5.51,10.0,295.6,15 / 26,6392040,2019-08-31 11:36:52:119,0.7279,0.1332,10.0879,0.0675,0.0163,9.8064,-0.0128,0.0005,0.025,3.0,21.53,-20.68,290.7,-7.59,8.06
63921,52.475887,-1.4165,151,5.51,10.0,295.6,15 / 26,6392141,2019-08-31 11:36:52:220,0.6031,0.0749,9.8478,0.1351,0.0238,9.8057,-0.0192,-0.0069,0.0463,3.0,21.53,-20.68,290.7,-7.59,8.06
63922,52.475887,-1.4165,151,5.51,10.0,295.6,15 / 26,6392241,2019-08-31 11:36:52:320,0.6114,0.016,9.5574,0.0589,0.0004,9.8065,-0.0234,-0.0058,0.0047,1.95,20.78,-21.55,286.14,-7.71,7.02
63923,52.475887,-1.4165,151,5.51,10.0,295.6,15 / 26,6392341,2019-08-31 11:36:52:420,0.3388,-0.0499,9.8851,0.1179,-0.0063,9.8059,0.0011,0.0133,0.0058,2.39,20.72,-21.56,286.14,-7.71,7.02
63924,52.475887,-1.4165,151,5.51,10.0,295.6,15 / 26,6392441,2019-08-31 11:36:52:520,0.1429,0.054,10.1514,0.0392,0.0217,9.8065,-0.0107,-0.0069,0.025,2.45,20.71,-21.57,286.1,-7.93,6.36
63925,52.475887,-1.4165,151,5.51,10.0,295.6,15 / 26,6392542,2019-08-31 11:36:52:621,0.3835,-0.1864,9.784,0.0766,0.0139,9.8063,-0.0064,0.0378,0.0037,2.52,20.74,-21.53,286.1,-7.93,6.36
63926,52.475887,-1.4165,151,5.51,10.0,295.6,15 / 26,6392641,2019-08-31 11:36:52:720,0.1913,-0.0943,9.7409,0.1168,-0.002,9.806,-0.033,-0.0037,0.0303,2.52,20.74,-21.53,286.1,-7.93,6.36
63927,52.475887,-1.4165,151,5.51,10.0,295.6,15 / 26,6392742,2019-08-31 11:36:52:821,0.535,0.119,10.4481,0.0567,0.0194,9.8065,-0.033,-0.0037,0.0303,2.95,20.11,-22.06,289.71,-8.13,5.7
63928,52.475887,-1.4165,151,5.51,10.0,295.6,15 / 26,6392841,2019-08-31 11:36:52:920,0.5646,0.3085,10.2799,0.0982,0.055,9.806,0.0011,-0.0133,0.0037,2.48,20.4,-21.86,286.37,-8.02,5.05
63929,52.475887,-1.4165,151,5.51,10.0,295.6,15 / 26,6392941,2019-08-31 11:36:53:020,0.2893,0.7202,10.1392,0.0386,0.036,9.8065,-0.0192,-0.0122,-0.0006,2.99,20.93,-21.28,286.37,-8.02,5.05
63930,52.475925,-1.416588,152,6.35,10.0,295.1,15 / 26,6393041,2019-08-31 11:36:53:120,0.6992,0.4447,8.6375,0.0826,0.0307,9.8063,0.0192,0.0261,-0.0059,2.99,20.93,-21.28,286.37,-8.02,5.05
63931,52.475925,-1.416588,152,6.35,10.0,295.1,15 / 26,6393142,2019-08-31 11:36:53:221,0.2612,-0.0165,10.2979,0.0232,-0.0144,9.8066,0.0096,0.0027,-0.0091,2.42,20.42,-21.85,286.08,-7.99,4.53
63932,52.475925,-1.416588,152,6.35,10.0,295.1,15 / 26,6393242,2019-08-31 11:36:53:321,0.0055,0.4816,9.2993,0.03,-0.0096,9.8066,0.017,0.0261,-0.0134,2.45,20.67,-21.61,285.36,-8.09,4.37
63933,52.475925,-1.416588,152,6.35,10.0,295.1,15 / 26,6393341,2019-08-31 11:36:53:420,0.0382,-0.145,9.2585,0.0303,-0.0208,9.8066,0.0085,0.0623,-0.0081,2.45,20.67,-21.61,285.32,-8.08,4.3
63934,52.475925,-1.416588,152,6.35,10.0,295.1,15 / 26,6393441,2019-08-31 11:36:53:520,0.4102,0.3074,10.0875,0.0558,-0.0527,9.8064,0.0266,0.0517,-0.0145,2.45,20.67,-21.61,285.32,-8.08,4.3
63935,52.475925,-1.416588,152,6.35,10.0,295.1,15 / 26,6393542,2019-08-31 11:36:53:621,0.048,0.3031,10.6573,0.006,0.0178,9.8066,0.017,0.0251,-0.0081,1.92,20.91,-21.42,285.18,-8.46,4.06
63936,52.475925,-1.416588,152,6.35,10.0,295.1,15 / 26,6393641,2019-08-31 11:36:53:720,0.1163,-0.0589,9.4303,0.0095,0.0476,9.8065,0.017,0.0251,-0.0081,1.95,21.75,-20.57,284.2,-8.21,3.94
63937,52.475925,-1.416588,152,6.35,10.0,295.1,15 / 26,6393741,2019-08-31 11:36:53:820,0.1899,0.1518,10.0086,0.0074,0.0026,9.8066,-0.0021,0.0251,-0.0081,1.95,21.75,-20.57,284.2,-8.21,3.94
63938,52.475925,-1.416588,152,6.35,10.0,295.1,15 / 26,6393841,2019-08-31 11:36:53:920,-0.2542,0.694,9.359,0.0072,0.045,9.8065,0.0107,0.0325,-0.0081,1.88,20.92,-21.42,284.84,-8.21,3.89
63939,52.475925,-1.416588,152,6.35,10.0,295.1,15 / 26,6393941,2019-08-31 11:36:54:020,0.1999,1.0696,9.5149,0.0019,0.0564,9.8065,-0.0149,-0.0037,-0.0113,2.45,21.22,-21.06,284.54,-7.96,3.78
63940,52.475952,-1.416699,153,6.96,9.0,295.7,15 / 26,6394044,2019-08-31 11:36:54:123,-0.4399,0.8828,9.3817,0.0011,0.1403,9.8056,-0.0138,0.008,-0.0027,2.89,21.11,-21.12,286.32,-7.17,3.57
63941,52.475952,-1.416699,153,6.96,9.0,295.7,15 / 26,6394140,2019-08-31 11:36:54:219,0.2873,1.334,9.5717,-0.0192,0.0805,9.8063,-0.0671,-0.0271,0.0111,2.89,21.11,-21.12,286.32,-7.17,3.57
63942,52.475952,-1.416699,153,6.96,9.0,295.7,15 / 26,6394242,2019-08-31 11:36:54:321,-0.0587,0.4823,10.4684,0.0343,0.0467,9.8065,-0.0085,0.0229,-0.0027,3.34,20.83,-21.33,285.39,-6.35,3.35
63943,52.475952,-1.416699,153,6.96,9.0,295.7,15 / 26,6394341,2019-08-31 11:36:54:420,0.0198,0.6618,9.6739,0.0339,0.095,9.8061,0.0107,0.0069,-0.023,2.89,21.64,-20.57,285.39,-6.35,3.35
63944,52.475952,-1.416699,153,6.96,9.0,295.7,15 / 26,6394441,2019-08-31 11:36:54:520,0.0258,0.8584,9.5703,-0.0059,0.041,9.8066,0.0107,0.0069,-0.023,2.96,21.19,-21.03,284.77,-5.86,3.01
63945,52.475952,-1.416699,153,6.96,9.0,295.7,15 / 26,6394541,2019-08-31 11:36:54:620,-0.1275,0.709,9.7122,-0.0047,0.0751,9.8064,-0.016,0.0133,-0.0017,2.43,21.43,-20.85,284.77,-5.86,3.01
63946,52.475952,-1.416699,153,6.96,9.0,295.7,15 / 26,6394642,2019-08-31 11:36:54:721,-0.4386,0.4692,10.0197,0.0091,0.1049,9.8061,-0.0096,0.0037,-0.0176,2.43,21.43,-20.85,284.77,-5.86,3.01
63947,52.475952,-1.416699,153,6.96,9.0,295.7,15 / 26,6394741,2019-08-31 11:36:54:820,0.1515,0.8796,9.4341,0.0119,0.0618,9.8064,-0.0149,-0.0367,0.0026,2.43,21.43,-20.85,281.39,-5.28,2.8
63948,52.475952,-1.416699,153,6.96,9.0,295.7,15 / 26,6394841,2019-08-31 11:36:54:920,-0.2564,0.3887,9.2205,0.0094,0.1328,9.8057,-0.0309,-0.0069,0.026,2.45,20.67,-21.61,280.78,-4.53,2.59
63949,52.475952,-1.416699,153,6.96,9.0,295.7,15 / 26,6394942,2019-08-31 11:36:55:021,-0.123,0.2852,9.6364,-0.0086,0.0447,9.8065,-0.0021,-0.009,-0.0049,2.45,20.67,-21.61,280.78,-4.53,2.59
63950,52.47598,-1.416813,153,7.4,9.0,296.1,15 / 26,6395041,2019-08-31 11:36:55:120,-0.3129,0.5479,9.927,-0.0029,0.0561,9.8065,-0.0138,-0.0165,0.0047,2.99,20.41,-21.79,283.89,-4.27,2.59
63951,52.47598,-1.416813,153,7.4,9.0,296.1,15 / 26,6395141,2019-08-31 11:36:55:220,-0.0155,0.9124,10.2302,-0.0248,0.0551,9.8065,-0.0075,0.0112,0.0132,2.42,20.42,-21.85,280.19,-3.55,2.56
63952,52.47598,-1.416813,153,7.4,9.0,296.1,15 / 26,6395241,2019-08-31 11:36:55:320,-0.3745,0.2125,10.4994,0.0083,0.0355,9.8066,-0.0075,-0.0176,-0.0017,2.95,20.11,-22.06,282.71,-3.21,2.65
63953,52.47598,-1.416813,153,7.4,9.0,296.1,15 / 26,6395341,2019-08-31 11:36:55:420,0.6079,0.6554,10.1188,0.0187,0.0444,9.8065,-0.0075,-0.0176,-0.0017,2.95,20.11,-22.06,282.71,-3.21,2.65
63954,52.47598,-1.416813,153,7.4,9.0,296.1,15 / 26,6395441,2019-08-31 11:36:55:520,-0.125,0.0013,10.14,0.0248,0.0155,9.8066,-0.0202,0.0666,0.0047,2.99,20.41,-21.79,282.4,-2.98,2.48
63955,52.47598,-1.416813,153,7.4,9.0,296.1,15 / 26,6395541,2019-08-31 11:36:55:620,-0.153,0.0014,9.4984,0.0242,0.0117,9.8066,-0.0149,0.0623,0.0186,3.03,20.7,-21.5,282.4,-2.98,2.48
63956,52.47598,-1.416813,153,7.4,9.0,296.1,15 / 26,6395642,2019-08-31 11:36:55:721,-0.1189,-0.3321,9.5068,0.0109,-0.0061,9.8066,-0.0064,-0.0176,-0.0027,2.99,20.41,-21.79,282.31,-2.94,2.33
63957,52.47598,-1.416813,153,7.4,9.0,296.1,15 / 26,6395741,2019-08-31 11:36:55:820,-0.0676,-0.1596,10.1922,0.011,-0.0248,9.8066,0.0181,0.0144,-0.0038,2.96,20.68,-21.53,282.31,-2.94,2.33
63958,52.47598,-1.416813,153,7.4,9.0,296.1,15 / 26,6395841,2019-08-31 11:36:55:920,0.2417,-0.044,9.8633,-0.0005,-0.0233,9.8066,0.0011,-0.0293,-0.0027,2.88,20.14,-22.05,282.47,-3.08,2.36
63959,52.47598,-1.416813,153,7.4,9.0,296.1,15 / 26,6395941,2019-08-31 11:36:56:020,0.1169,-0.3774,9.8992,0.0034,-0.0033,9.8066,0.0288,-0.0069,0.0026,2.88,20.14,-22.05,282.47,-3.08,2.36
63960,52.476,-1.4169,152,7.33,9.0,296.2,15 / 26,6396041,2019-08-31 11:36:56:120,0.0647,-0.3082,10.2228,-0.0005,0.016,9.8066,0.0288,-0.0069,0.0026,2.91,20.39,-21.82,282.36,-2.98,2.34
63961,52.476,-1.4169,152,7.33,9.0,296.2,15 / 25,6396141,2019-08-31 11:36:56:220,-0.1451,-0.8123,9.4582,-0.0301,-0.0305,9.8066,0.017,0.057,-0.0155,2.47,19.86,-22.35,279.68,-3.12,2.55
63962,52.476,-1.4169,152,7.33,9.0,296.2,15 / 25,6396241,2019-08-31 11:36:56:320,0.4231,0.1309,9.1263,0.0018,0.0179,9.8066,-0.0075,0.0059,0.0122,2.91,20.39,-21.82,282.94,-3.45,2.51
63963,52.476,-1.4169,152,7.33,9.0,296.2,15 / 25,6396341,2019-08-31 11:36:56:420,0.187,-0.0491,8.566,-0.034,0.0303,9.8065,0.0511,-0.0335,0.0047,2.91,20.39,-21.82,282.94,-3.45,2.51
63964,52.476,-1.4169,152,7.33,9.0,296.2,15 / 25,6396441,2019-08-31 11:36:56:520,-0.283,0.013,9.968,-0.0042,-0.0326,9.8066,0.016,0.0485,-0.0113,3.41,20.35,-21.78,282.75,-3.23,2.67
63965,52.476,-1.4169,152,7.33,9.0,296.2,15 / 25,6396541,2019-08-31 11:36:56:620,-0.6191,-1.2602,10.479,-0.0027,-0.0594,9.8065,0.0373,0.041,-0.0102,2.39,20.68,-21.6,279.76,-3.57,2.76
63966,52.476,-1.4169,152,7.33,9.0,296.2,15 / 25,6396641,2019-08-31 11:36:56:720,-0.0382,-0.0978,9.4671,-0.0006,0.0516,9.8065,-0.017,-0.0602,0.0079,3.46,20.64,-21.49,279.76,-3.57,2.76
63967,52.476,-1.4169,152,7.33,9.0,296.2,15 / 25,6396741,2019-08-31 11:36:56:820,-0.0711,-0.3452,9.1156,0.015,0.0795,9.8063,-0.017,-0.0602,0.0079,3.46,20.64,-21.49,279.76,-3.57,2.76
63968,52.476,-1.4169,152,7.33,9.0,296.2,15 / 25,6396842,2019-08-31 11:36:56:921,0.2486,0.162,8.9604,0.0178,-0.0039,9.8066,0.0117,-0.0016,-0.023,3.9,20.31,-21.73,285.44,-3.13,2.6
63969,52.476,-1.4169,152,7.33,9.0,296.2,15 / 25,6396943,2019-08-31 11:36:57:022,0.1842,0.1789,8.8967,0.0264,-0.0107,9.8066,-0.0107,0.0336,0.0015,3.95,20.03,-21.98,285.5,-3.23,2.46
63970,52.476,-1.4169,152,7.33,9.0,296.2,15 / 25,6397041,2019-08-31 11:36:57:120,-0.1266,-0.3408,10.7749,0.0067,0.0013,9.8066,-0.0245,0.0112,-0.007,3.95,20.03,-21.98,285.5,-3.23,2.46
63971,52.476017,-1.417002,153,7.62,9.0,296.2,15 / 26,6397141,2019-08-31 11:36:57:220,-0.0977,-0.7465,9.5738,0.0095,-0.0139,9.8066,-0.0181,0.0037,0.0132,3.46,20.64,-21.49,281.88,-3.23,2.42
63972,52.476017,-1.417002,153,7.62,9.0,296.2,15 / 26,6397241,2019-08-31 11:36:57:320,-0.1866,0.0889,10.01,0.0179,-0.0533,9.8065,0.0181,0.0623,0.0005,3.03,20.12,-22.04,281.88,-3.23,2.42
63973,52.476017,-1.417002,153,7.62,9.0,296.2,15 / 26,6397340,2019-08-31 11:36:57:419,-0.5536,-0.865,10.7538,-0.0049,-0.0136,9.8066,0.0096,0.0208,-0.0102,3.46,20.12,-21.99,283.02,-3.56,2.39
63974,52.476017,-1.417002,153,7.62,9.0,296.2,15 / 26,6397441,2019-08-31 11:36:57:520,-0.3712,-0.4184,9.7031,0.0138,0.0088,9.8066,-0.017,0.0357,-0.0017,2.95,20.11,-22.06,283.13,-3.63,2.47
63975,52.476017,-1.417002,153,7.62,9.0,296.2,15 / 26,6397541,2019-08-31 11:36:57:620,0.2203,0.0115,9.2303,0.0032,0.0004,9.8066,-0.017,0.0357,-0.0017,3.95,20.03,-21.98,285.88,-3.6,2.38
63976,52.476017,-1.417002,153,7.62,9.0,296.2,15 / 26,6397641,2019-08-31 11:36:57:720,0.124,0.1783,10.3953,-0.0068,0.0265,9.8066,0.0117,-0.0005,0.0132,3.95,20.03,-21.98,285.88,-3.6,2.38
63977,52.476017,-1.417002,153,7.62,9.0,296.2,15 / 26,6397740,2019-08-31 11:36:57:819,-0.2813,-0.4392,10.7081,-0.0421,0.0151,9.8065,0.0138,0.0187,0.0282,3.8,19.79,-22.23,285.7,-3.44,2.38
63978,52.476017,-1.417002,153,7.62,9.0,296.2,15 / 26,6397841,2019-08-31 11:36:57:920,0.1411,0.0458,10.5301,-0.0007,0.0029,9.8066,-0.0032,-0.025,0.0015,3.36,19.55,-22.51,282.98,-3.29,2.59
63979,52.476017,-1.417002,153,7.62,9.0,296.2,15 / 26,6397941,2019-08-31 11:36:58:020,0.6546,0.1731,9.8844,0.0138,-0.0169,9.8066,-0.0075,0.0783,0.0037,2.91,19.86,-22.29,282.89,-3.4,2.54
63980,52.476017,-1.417002,153,7.62,9.0,296.2,15 / 26,6398041,2019-08-31 11:36:58:120,-0.2019,-1.2511,11.7176,0.0502,-0.0203,9.8065,-0.0171,0.0091,-0.0049,2.91,19.86,-22.29,282.89,-3.4,2.54
63981,52.476044,-1.417119,154,8.01,9.0,296.2,15 / 26,6398141,2019-08-31 11:36:58:220,0.7406,-0.695,7.1916,0.0607,-0.0841,9.8061,0.0202,0.089,-0.0326,2.42,20.46,-21.81,280.14,-3.58,2.28
63982,52.476044,-1.417119,154,8.01,9.0,296.2,15 / 26,6398240,2019-08-31 11:36:58:319,-0.7996,-1.5285,7.8407,0.0447,-0.046,9.8064,-0.0096,-0.0676,0.0303,2.45,20.18,-22.06,280.69,-4.13,2.01
63983,52.476044,-1.417119,154,8.01,9.0,296.2,15 / 26,6398340,2019-08-31 11:36:58:419,0.1693,-0.6812,10.4367,0.0842,-0.0612,9.8061,0.0,0.0474,-0.0081,2.91,19.86,-22.29,283.88,-4.57,1.6
63984,52.476044,-1.417119,154,8.01,9.0,296.2,15 / 26,6398441,2019-08-31 11:36:58:520,0.5151,0.8321,9.8462,-0.0135,0.0303,9.8066,0.0,0.0474,-0.0081,2.91,19.86,-22.29,283.88,-4.57,1.6
63985,52.476044,-1.417119,154,8.01,9.0,296.2,15 / 26,6398541,2019-08-31 11:36:58:620,-0.0471,-0.5482,9.7382,-0.0212,0.0891,9.8062,-0.0405,-0.0751,0.0111,3.48,19.25,-22.75,284.21,-4.03,1.59
63986,52.476044,-1.417119,154,8.01,9.0,296.2,15 / 26,6398641,2019-08-31 11:36:58:720,0.2762,-0.0458,9.5772,0.0068,0.0617,9.8065,-0.0053,-0.0325,-0.0091,3.54,20.09,-22.0,284.21,-4.03,1.59
63987,52.476044,-1.417119,154,8.01,9.0,296.2,15 / 26,6398741,2019-08-31 11:36:58:820,-0.2212,0.1637,10.9386,-0.0163,0.043,9.8065,-0.0234,-0.0399,0.0314,2.98,19.28,-22.79,283.43,-3.43,1.42
63988,52.476044,-1.417119,154,8.01,9.0,296.2,15 / 26,6398841,2019-08-31 11:36:58:920,-0.2155,0.3795,9.0862,-0.0275,0.0825,9.8063,0.0117,-0.0527,0.0122,2.98,19.28,-22.79,283.43,-3.43,1.42
63989,52.476044,-1.417119,154,8.01,9.0,296.2,15 / 26,6398941,2019-08-31 11:36:59:020,-0.1333,0.0389,8.5087,0.0056,-0.0493,9.8065,-0.0107,0.0645,0.0175,4.31,19.79,-22.13,284.82,-2.92,1.46
63990,52.476044,-1.417119,154,8.01,9.0,296.2,15 / 26,6399041,2019-08-31 11:36:59:120,-0.1686,0.2307,10.4,-0.0014,-0.0555,9.8065,-0.0096,0.0208,0.0111,3.94,19.5,-22.45,284.82,-2.92,1.46
63991,52.47608,-1.417239,154,8.36,9.0,296.2,15 / 26,6399141,2019-08-31 11:36:59:220,-0.1695,0.2987,10.2352,-0.0136,0.0222,9.8066,-0.0181,0.0272,0.0058,3.49,19.29,-22.71,283.24,-3.24,1.55
63992,52.47608,-1.417239,154,8.36,9.0,296.2,15 / 26,6399241,2019-08-31 11:36:59:320,-0.4357,-0.0071,10.0222,0.0133,0.0171,9.8066,-0.0181,0.0272,0.0058,3.02,19.02,-23.0,283.08,-3.09,1.6
63993,52.47608,-1.417239,154,8.36,9.0,296.2,15 / 26,6399340,2019-08-31 11:36:59:419,-0.0939,0.5875,9.7165,0.0181,0.0311,9.8066,-0.0256,-0.009,0.0122,4.04,19.5,-22.44,283.08,-3.09,1.6
63994,52.47608,-1.417239,154,8.36,9.0,296.2,15 / 26,6399441,2019-08-31 11:36:59:520,-0.3537,0.7606,9.7126,0.0015,0.0842,9.8063,-0.0021,-0.0463,0.0111,3.48,19.25,-22.75,282.47,-2.61,1.48
63995,52.47608,-1.417239,154,8.36,9.0,296.2,15 / 26,6399541,2019-08-31 11:36:59:620,-0.5068,0.4879,9.5393,-0.0283,0.0866,9.8062,0.0032,-0.0548,-0.0038,3.48,19.25,-22.75,282.47,-2.61,1.48
63996,52.47608,-1.417239,154,8.36,9.0,296.2,15 / 26,6399641,2019-08-31 11:36:59:720,-0.3314,0.1188,9.7073,-0.021,0.0461,9.8065,-0.0181,0.0261,0.009,4.04,18.94,-22.91,284.79,-2.08,1.53
63997,52.47608,-1.417239,154,8.36,9.0,296.2,15 / 26,6399741,2019-08-31 11:36:59:820,-0.1561,0.5127,9.9945,-0.0139,0.0422,9.8066,-0.0021,0.056,0.0079,3.47,18.69,-23.21,281.53,-1.82,1.55
63998,52.47608,-1.417239,154,8.36,9.0,296.2,15 / 26,6399841,2019-08-31 11:36:59:920,-0.2067,-0.0143,9.5663,-0.0151,0.0129,9.8066,0.0298,0.0304,0.0036,3.47,18.69,-23.21,281.53,-1.82,1.55
63999,52.47608,-1.417239,154,8.36,9.0,296.2,15 / 26,6399941,2019-08-31 11:37:00:020,-0.1065,0.2262,9.6874,-0.0066,0.0018,9.8066,-0.0043,0.0069,0.0143,3.53,18.98,-22.96,284.4,-1.73,1.62
64000,52.47608,-1.417239,154,8.36,9.0,296.2,15 / 26,6400041,2019-08-31 11:37:00:120,-0.0053,0.1903,9.9281,-0.002,-0.0052,9.8066,-0.0043,0.0069,0.0143,3.53,18.98,-22.96,284.39,-1.71,1.66
64001,52.47612,-1.41736,154,8.38,9.0,296.1,15 / 26,6400141,2019-08-31 11:37:00:220,-0.1619,0.1633,10.3007,-0.0145,-0.001,9.8066,0.0011,0.0283,0.0143,3.0,18.46,-23.45,284.39,-1.71,1.66
64002,52.47612,-1.41736,154,8.38,9.0,296.1,15 / 26,6400241,2019-08-31 11:37:00:320,-0.2011,0.1285,9.8187,-0.0375,0.0323,9.8065,0.0234,-0.008,-0.0006,3.74,20.11,-21.95,283.36,-1.48,1.82
64003,52.47612,-1.41736,154,8.38,9.0,296.1,15 / 26,6400342,2019-08-31 11:37:00:421,-0.2009,0.0512,9.6169,-0.0026,0.0294,9.8066,-0.0202,-0.0048,0.0122,3.74,20.11,-21.95,283.36,-1.48,1.82
64004,52.47612,-1.41736,154,8.38,9.0,296.1,15 / 26,6400440,2019-08-31 11:37:00:519,-0.0272,0.1174,9.5712,0.0001,-0.0029,9.8067,-0.0202,0.0101,0.0154,3.53,19.54,-22.49,283.16,-1.3,1.8
64005,52.47612,-1.41736,154,8.38,9.0,296.1,15 / 26,6400541,2019-08-31 11:37:00:620,0.0131,0.0628,10.1999,0.0036,0.0103,9.8066,0.0053,-0.0271,0.0111,3.11,20.14,-22.02,280.25,-1.25,1.76
64006,52.47612,-1.41736,154,8.38,9.0,296.1,15 / 26,6400641,2019-08-31 11:37:00:720,-0.314,0.0721,9.4623,-0.015,0.0303,9.8066,-0.017,-0.0186,0.0068,3.12,20.18,-21.98,280.05,-1.06,1.82
64007,52.47612,-1.41736,154,8.38,9.0,296.1,15 / 26,6400741,2019-08-31 11:37:00:820,-0.2094,0.1726,9.4906,-0.0085,0.0455,9.8065,-0.017,0.0272,0.009,3.12,20.18,-21.98,280.05,-1.06,1.82
64008,52.47612,-1.41736,154,8.38,9.0,296.1,15 / 26,6400841,2019-08-31 11:37:00:920,-0.16,0.5425,9.5338,-0.0157,0.1242,9.8059,-0.017,0.0272,0.009,3.13,19.32,-22.74,280.05,-1.06,1.82
64009,52.47612,-1.41736,154,8.38,9.0,296.1,15 / 26,6400941,2019-08-31 11:37:01:020,-0.1106,0.5175,9.595,-0.0126,0.0525,9.8065,-0.0011,-0.0069,0.0154,3.72,19.54,-22.46,282.08,-0.33,1.78
64010,52.47612,-1.41736,154,8.38,9.0,296.1,15 / 26,6401041,2019-08-31 11:37:01:120,-0.1028,0.3874,10.2153,-0.0302,0.0907,9.8062,0.0,-0.009,0.009,3.15,19.88,-22.24,282.08,-0.33,1.78
64011,52.476154,-1.417465,154,8.31,9.0,295.9,15 / 26,6401141,2019-08-31 11:37:01:220,-0.0897,0.3795,9.7337,-0.035,0.1313,9.8057,0.0096,0.0304,0.0047,3.15,19.88,-22.24,282.08,-0.33,1.78
64012,52.476154,-1.417465,154,8.31,9.0,295.9,15 / 26,6401240,2019-08-31 11:37:01:319,-0.1152,0.3375,9.4807,-0.0002,0.025,9.8066,-0.0032,0.0165,0.0154,3.57,19.24,-22.74,281.78,0.46,1.82
64013,52.476154,-1.417465,154,8.31,9.0,295.9,15 / 26,6401341,2019-08-31 11:37:01:420,-0.2103,0.3323,9.5724,-0.0132,0.0312,9.8066,-0.0266,-0.0367,0.0239,3.63,19.54,-22.48,281.02,0.61,1.79
64014,52.476154,-1.417465,154,8.31,9.0,295.9,15 / 26,6401441,2019-08-31 11:37:01:520,0.2949,0.2804,9.9158,-0.0132,0.0639,9.8064,-0.032,0.0304,0.026,3.62,19.59,-22.43,281.02,0.61,1.79
64015,52.476154,-1.417465,154,8.31,9.0,295.9,15 / 26,6401541,2019-08-31 11:37:01:620,0.0125,0.1937,10.5301,0.0013,0.073,9.8064,-0.032,0.0304,0.026,3.1,19.63,-22.48,277.65,1.02,1.7
64016,52.476154,-1.417465,154,8.31,9.0,295.9,15 / 26,6401641,2019-08-31 11:37:01:720,0.2305,0.5146,9.1525,0.0202,0.0129,9.8066,-0.0192,0.04,0.0122,3.1,19.63,-22.48,277.65,1.02,1.7
64017,52.476154,-1.417465,154,8.31,9.0,295.9,15 / 26,6401742,2019-08-31 11:37:01:821,-0.1229,-0.4008,9.6963,0.0036,0.0249,9.8066,-0.0075,0.0251,0.0111,3.67,19.28,-22.69,280.88,1.16,1.66
64018,52.476154,-1.417465,154,8.31,9.0,295.9,15 / 26,6401841,2019-08-31 11:37:01:920,0.1903,-0.1882,9.9365,0.0059,-0.0461,9.8065,0.0085,0.0741,0.0207,2.54,19.4,-22.74,278.0,1.03,1.59
64019,52.476154,-1.417465,154,8.31,9.0,295.9,15 / 26,6401941,2019-08-31 11:37:02:020,-0.2993,-0.487,10.6533,0.0282,-0.0336,9.8066,-0.017,0.0208,0.0122,2.54,19.4,-22.74,278.0,1.03,1.59
64020,52.476154,-1.417465,154,8.31,9.0,295.9,15 / 26,6402040,2019-08-31 11:37:02:119,0.1539,-0.7575,10.5726,0.0091,0.0071,9.8066,0.0096,-0.0506,0.0143,3.04,18.76,-23.21,278.25,0.81,1.46
64021,52.47619,-1.417568,154,7.99,9.0,295.4,14 / 26,6402141,2019-08-31 11:37:02:220,0.0773,-0.415,10.5685,0.0155,0.0218,9.8066,-0.0011,0.0165,0.0132,3.01,19.07,-22.96,278.25,0.81,1.46
64022,52.47619,-1.417568,154,7.99,9.0,295.4,14 / 26,6402242,2019-08-31 11:37:02:321,-0.388,-0.4999,9.8436,0.0342,0.034,9.8065,-0.0234,0.0048,0.0068,2.99,17.89,-23.89,278.41,0.98,1.23
64023,52.47619,-1.417568,154,7.99,9.0,295.4,14 / 26,6402341,2019-08-31 11:37:02:420,0.0027,-0.3162,9.8613,0.0225,-0.0046,9.8066,-0.0149,0.0251,0.0196,2.99,17.89,-23.89,278.41,0.98,1.23
64024,52.47619,-1.417568,154,7.99,9.0,295.4,14 / 26,6402443,2019-08-31 11:37:02:522,-0.2927,-0.4417,10.2666,0.0168,-0.014,9.8066,-0.0149,0.0251,0.0196,3.08,18.43,-23.47,278.49,0.93,1.1
64025,52.47619,-1.417568,154,7.99,9.0,295.4,14 / 26,6402541,2019-08-31 11:37:02:620,0.1843,-0.2025,9.2171,0.0559,-0.035,9.8064,-0.0405,0.0677,0.0207,3.08,18.43,-23.47,278.76,0.68,0.81
64026,52.47619,-1.417568,154,7.99,9.0,295.4,14 / 26,6402640,2019-08-31 11:37:02:719,0.2733,-0.2052,9.7515,0.0312,-0.0366,9.8065,-0.032,0.04,0.0196,3.08,18.43,-23.47,278.76,0.68,0.81
64027,52.47619,-1.417568,154,7.99,9.0,295.4,14 / 26,6402741,2019-08-31 11:37:02:820,0.1517,-0.1336,8.9554,0.0705,-0.0544,9.8062,-0.0234,0.0261,0.0313,2.46,17.3,-24.38,276.35,0.3,0.45
64028,52.47619,-1.417568,154,7.99,9.0,295.4,14 / 26,6402841,2019-08-31 11:37:02:920,0.5069,-0.1146,8.5827,0.0338,-0.0134,9.8066,-0.0064,-0.0048,0.0132,2.46,17.3,-24.38,276.35,0.3,0.45
64029,52.47619,-1.417568,154,7.99,9.0,295.4,14 / 26,6402941,2019-08-31 11:37:03:020,0.0373,-0.0044,10.927,0.0107,-0.0012,9.8066,-0.0447,-0.0314,0.0154,3.08,18.43,-23.47,279.26,0.2,0.26
64030,52.476223,-1.41767,154,7.7,10.0,294.8,14 / 26,6403041,2019-08-31 11:37:03:120,0.4167,-0.2221,9.294,0.0499,-0.0228,9.8065,-0.0469,0.024,0.0132,2.01,17.26,-24.45,276.48,0.17,0.05
64031,52.476223,-1.41767,154,7.7,10.0,294.8,14 / 26,6403141,2019-08-31 11:37:03:220,0.162,-0.9109,10.3989,0.0804,-0.0767,9.806,-0.0085,0.0293,0.0313,2.01,17.26,-24.45,276.48,0.17,0.05
64032,52.476223,-1.41767,154,7.7,10.0,294.8,14 / 26,6403241,2019-08-31 11:37:03:320,0.4884,-0.7376,10.2529,0.0249,-0.0638,9.8064,-0.0085,0.0293,0.0313,2.6,17.17,-24.46,280.37,-0.33,-0.37
64033,52.476223,-1.41767,154,7.7,10.0,294.8,14 / 26,6403341,2019-08-31 11:37:03:420,0.3189,-0.6947,9.0999,0.01,-0.0572,9.8065,-0.0021,0.0187,0.0271,2.02,16.86,-24.73,277.66,-0.72,-0.44
64034,52.476223,-1.41767,154,7.7,10.0,294.8,14 / 26,6403441,2019-08-31 11:37:03:520,-0.1218,-0.7189,10.4027,0.0094,-0.1216,9.8059,0.0064,0.0208,0.0249,2.66,17.06,-24.53,281.91,-1.43,-0.4
64035,52.476223,-1.41767,154,7.7,10.0,294.8,14 / 26,6403543,2019-08-31 11:37:03:622,0.1838,-0.3597,9.0916,0.0195,-0.0549,9.8065,-0.0288,0.007,0.0015,1.98,16.57,-24.93,281.91,-1.43,-0.4
64036,52.476223,-1.41767,154,7.7,10.0,294.8,14 / 26,6403641,2019-08-31 11:37:03:720,0.4942,-0.419,10.085,0.0921,-0.1016,9.8057,-0.0234,-0.0101,-0.007,1.98,16.57,-24.93,279.54,-2.13,-0.81
64037,52.476223,-1.41767,154,7.7,10.0,294.8,14 / 26,6403741,2019-08-31 11:37:03:820,0.7398,0.2192,9.6841,0.0469,-0.0134,9.8065,0.0149,-0.0474,-0.039,1.98,16.57,-24.93,279.54,-2.13,-0.81
64038,52.476223,-1.41767,154,7.7,10.0,294.8,14 / 26,6403841,2019-08-31 11:37:03:920,0.6657,-0.1928,8.7433,0.0362,0.0153,9.8066,-0.0139,0.0144,-0.0496,1.44,16.59,-24.96,276.43,-2.25,-1.07
64039,52.476223,-1.41767,154,7.7,10.0,294.8,14 / 26,6403941,2019-08-31 11:37:04:020,0.6005,-0.1485,10.153,0.0905,-0.0138,9.8062,-0.0139,0.0144,-0.0496,1.47,16.88,-24.76,276.52,-2.39,-1.58
64040,52.47622,-1.417722,153,6.91,10.0,294.9,16 / 26,6404041,2019-08-31 11:37:04:120,0.7659,-0.1618,9.8655,0.0392,-0.014,9.8066,0.0202,0.0048,-0.0635,2.03,17.54,-24.26,279.31,-2.63,-1.83
64041,52.47622,-1.417722,153,6.91,10.0,294.9,16 / 26,6404141,2019-08-31 11:37:04:220,0.5453,-0.1267,10.4292,0.0857,-0.0224,9.8063,0.0234,-0.0197,-0.0869,2.03,17.54,-24.26,279.31,-2.63,-1.83
64042,52.47622,-1.417722,153,6.91,10.0,294.9,16 / 26,6404241,2019-08-31 11:37:04:320,0.8151,-0.0253,9.9299,0.0434,-0.0269,9.8065,0.0085,0.0006,-0.0944,1.98,17.59,-24.22,279.44,-2.85,-2.31
64043,52.47622,-1.417722,153,6.91,10.0,294.9,16 / 26,6404341,2019-08-31 11:37:04:420,0.5422,-0.0627,9.4786,0.0769,-0.0611,9.8062,0.0256,-0.0122,-0.0869,2.54,17.21,-24.44,279.44,-2.85,-2.31
64044,52.47622,-1.417722,153,6.91,10.0,294.9,16 / 26,6404441,2019-08-31 11:37:04:520,0.6267,0.1337,10.4055,0.0286,-0.0138,9.8066,-0.0011,-0.0495,-0.104,3.1,17.84,-23.92,282.73,-3.27,-2.69
64045,52.47622,-1.417722,153,6.91,10.0,294.9,16 / 26,6404541,2019-08-31 11:37:04:620,0.7187,0.3653,8.8796,0.0512,-0.0192,9.8065,0.016,-0.041,-0.1103,2.55,17.83,-23.99,282.84,-3.45,-2.96
64046,52.47622,-1.417722,153,6.91,10.0,294.9,16 / 26,6404642,2019-08-31 11:37:04:721,-0.0093,-0.3303,9.727,0.0038,-0.0137,9.8066,0.0373,-0.0143,-0.088,3.6,18.15,-23.61,282.84,-3.45,-2.96
64047,52.47622,-1.417722,153,6.91,10.0,294.9,16 / 26,6404741,2019-08-31 11:37:04:820,0.0963,-0.4911,9.6594,-0.0113,-0.0394,9.8066,0.0352,0.0538,-0.1008,3.6,18.15,-23.61,282.84,-3.45,-2.96
64048,52.47622,-1.417722,153,6.91,10.0,294.9,16 / 26,6404841,2019-08-31 11:37:04:920,0.4834,0.0968,9.8586,-0.0185,-0.081,9.8063,0.0352,0.0538,-0.1008,3.65,18.41,-23.4,286.05,-3.88,-2.75
64049,52.47622,-1.417722,153,6.91,10.0,294.9,16 / 26,6404941,2019-08-31 11:37:05:020,0.4662,-0.256,9.3548,0.0069,-0.0285,9.8066,0.0192,0.0283,-0.0901,3.65,18.41,-23.4,286.05,-3.88,-2.75
64050,52.47622,-1.417722,153,6.91,10.0,294.9,16 / 26,6405043,2019-08-31 11:37:05:122,0.3307,0.0524,9.9935,0.0009,-0.035,9.8066,0.0543,0.0474,-0.0901,4.21,19.01,-22.82,285.45,-4.06,-2.74
64051,52.476257,-1.417836,153,7.41,10.0,300.5,15 / 26,6405141,2019-08-31 11:37:05:220,0.2208,0.0978,10.4103,-0.0173,-0.0689,9.8064,0.0224,0.0155,-0.0986,4.11,19.07,-22.79,285.89,-4.42,-2.54
64052,52.476257,-1.417836,153,7.41,10.0,300.5,15 / 26,6405241,2019-08-31 11:37:05:320,-0.1525,0.1051,10.1359,-0.0032,0.0023,9.8066,0.0,-0.0229,-0.0837,4.55,19.03,-22.74,288.68,-4.55,-2.39
64053,52.476257,-1.417836,153,7.41,10.0,300.5,15 / 26,6405342,2019-08-31 11:37:05:421,-0.0819,0.3977,9.5291,-0.0093,0.0289,9.8066,0.0138,-0.0229,-0.0922,4.61,18.4,-23.24,288.68,-4.55,-2.39
64054,52.476257,-1.417836,153,7.41,10.0,300.5,15 / 26,6405441,2019-08-31 11:37:05:520,0.1231,0.4482,9.6585,-0.0179,0.0648,9.8064,0.0362,0.0123,-0.1061,4.61,18.4,-23.24,288.68,-4.55,-2.39
64055,52.476257,-1.417836,153,7.41,10.0,300.5,15 / 26,6405541,2019-08-31 11:37:05:620,-0.3863,0.1569,9.5968,-0.0446,0.04,9.8065,0.0362,0.0123,-0.1061,5.72,18.85,-22.63,290.83,-4.15,-2.41
64056,52.476257,-1.417836,153,7.41,10.0,300.5,15 / 26,6405641,2019-08-31 11:37:05:720,-0.3344,0.1159,8.8967,-0.0832,0.0689,9.8061,0.0149,-0.0346,-0.0795,6.08,18.81,-22.56,290.44,-3.6,-2.1
64057,52.476257,-1.417836,153,7.41,10.0,300.5,15 / 26,6405741,2019-08-31 11:37:05:820,-0.2302,0.1356,9.8409,-0.039,0.0152,9.8066,0.0213,0.0549,-0.0635,6.08,18.81,-22.56,290.44,-3.6,-2.1
64058,52.476257,-1.417836,153,7.41,10.0,300.5,15 / 26,6405841,2019-08-31 11:37:05:920,-0.3907,0.1206,10.398,-0.0233,0.0044,9.8066,0.017,0.024,-0.0645,6.59,18.74,-22.48,292.74,-3.44,-1.92
64059,52.476257,-1.417836,153,7.41,10.0,300.5,15 / 26,6405941,2019-08-31 11:37:06:020,-0.5537,0.2254,9.8405,-0.0606,0.0181,9.8064,0.0149,0.0038,-0.0741,6.67,18.46,-22.69,292.74,-3.44,-1.92
64060,52.476257,-1.417836,153,7.41,10.0,300.5,15 / 26,6406041,2019-08-31 11:37:06:120,-0.2502,0.0587,8.8961,-0.0291,-0.0071,9.8066,-0.0117,0.0272,-0.0486,7.66,18.26,-22.54,296.37,-3.21,-1.63
64061,52.47628,-1.417913,153,7.51,9.0,305.3,13 / 26,6406141,2019-08-31 11:37:06:220,-0.2359,0.2398,10.0005,-0.0416,-0.0003,9.8066,0.0075,-0.0495,-0.0464,7.02,19.03,-22.11,292.65,-3.1,-1.42
64062,52.47628,-1.417913,153,7.51,9.0,305.3,13 / 26,6406241,2019-08-31 11:37:06:320,-0.658,-0.3245,9.5323,-0.048,0.0138,9.8065,-0.0043,-0.0218,-0.0411,7.4,18.67,-22.29,292.65,-3.1,-1.42
64063,52.47628,-1.417913,153,7.51,9.0,305.3,13 / 26,6406341,2019-08-31 11:37:06:420,-0.5678,0.0038,9.5731,-0.0863,0.0307,9.8062,0.0,0.0048,-0.0336,7.4,18.67,-22.29,292.65,-3.1,-1.42
64064,52.47628,-1.417913,153,7.51,9.0,305.3,13 / 26,6406440,2019-08-31 11:37:06:519,-0.5563,-0.0598,9.825,-0.0226,0.0129,9.8066,0.0,0.0048,-0.0336,7.96,18.27,-22.42,296.09,-2.59,-0.85
64065,52.47628,-1.417913,153,7.51,9.0,305.3,13 / 26,6406541,2019-08-31 11:37:06:620,-0.0964,0.2161,9.7327,-0.0303,-0.0058,9.8066,0.0011,0.0421,-0.0251,7.98,18.82,-21.96,294.94,-2.54,-0.68
64066,52.47628,-1.417913,153,7.51,9.0,305.3,13 / 26,6406641,2019-08-31 11:37:06:720,-0.2646,-0.2635,9.7382,-0.0029,-0.0281,9.8066,-0.016,0.0208,-0.0155,7.98,18.82,-21.96,294.94,-2.54,-0.68
64067,52.47628,-1.417913,153,7.51,9.0,305.3,13 / 26,6406740,2019-08-31 11:37:06:819,-0.3732,-0.7832,9.6421,-0.0299,-0.0856,9.8062,0.016,0.0442,-0.0091,6.79,19.33,-21.91,292.63,-2.68,-0.59
64068,52.47628,-1.417913,153,7.51,9.0,305.3,13 / 26,6406841,2019-08-31 11:37:06:920,-0.6543,-1.0686,9.4329,-0.0295,-0.0745,9.8063,0.0043,0.0155,0.0004,6.03,19.17,-22.27,290.58,-3.08,-0.24
64069,52.47628,-1.417913,153,7.51,9.0,305.3,13 / 26,6406941,2019-08-31 11:37:07:020,-0.2811,-0.3867,9.7565,-0.0378,-0.1331,9.8057,-0.0298,-0.0016,0.0026,7.19,18.96,-22.11,294.01,-3.73,0.24
64070,52.476322,-1.417996,154,7.6,9.0,307.3,13 / 26,6407041,2019-08-31 11:37:07:120,-0.2311,-0.9743,9.0703,-0.0044,-0.0226,9.8066,0.0213,0.007,-0.0166,6.6,18.78,-22.44,294.01,-3.73,0.24
64071,52.476322,-1.417996,154,7.6,9.0,307.3,13 / 26,6407141,2019-08-31 11:37:07:220,0.0447,-0.2467,10.0133,-0.0358,-0.0478,9.8065,-0.0053,-0.041,0.0047,6.6,18.78,-22.44,294.01,-3.73,0.24
64072,52.476322,-1.417996,154,7.6,9.0,307.3,13 / 26,6407241,2019-08-31 11:37:07:320,-0.1931,-0.5085,9.4831,-0.0267,-0.0034,9.8066,-0.0053,-0.041,0.0047,7.21,19.0,-22.07,294.32,-3.9,0.55
64073,52.476322,-1.417996,154,7.6,9.0,307.3,13 / 26,6407341,2019-08-31 11:37:07:420,-0.4692,-0.0874,9.7136,-0.0358,-0.0167,9.8066,-0.0469,-0.0484,0.0239,7.9,18.84,-21.97,294.32,-3.9,0.55
64074,52.476322,-1.417996,154,7.6,9.0,307.3,13 / 26,6407442,2019-08-31 11:37:07:521,-0.1566,-0.7114,9.1764,-0.0539,-0.005,9.8065,-0.0213,-0.0314,0.0132,8.19,18.78,-21.91,296.86,-3.8,0.85
64075,52.476322,-1.417996,154,7.6,9.0,307.3,13 / 26,6407542,2019-08-31 11:37:07:621,-0.3071,-0.0661,9.7613,0.0043,-0.0213,9.8066,-0.0234,0.0485,0.0079,8.15,18.18,-22.43,296.86,-3.8,0.85
64076,52.476322,-1.417996,154,7.6,9.0,307.3,13 / 26,6407641,2019-08-31 11:37:07:720,-0.2639,-0.7056,8.4118,0.0104,-0.0478,9.8065,-0.0139,-0.0239,0.0175,8.15,18.18,-22.43,296.86,-3.8,0.85
64077,52.476322,-1.417996,154,7.6,9.0,307.3,13 / 26,6407741,2019-08-31 11:37:07:820,0.0703,0.1211,10.0028,0.0149,-0.0457,9.8065,-0.0064,0.0656,0.01,8.54,19.03,-21.56,299.53,-4.07,0.92
64078,52.476322,-1.417996,154,7.6,9.0,307.3,13 / 26,6407842,2019-08-31 11:37:07:921,-0.1065,-0.0044,9.5701,0.0164,-0.046,9.8065,-0.0245,-0.0399,0.0154,7.58,18.59,-22.29,299.53,-4.07,0.92
64079,52.476322,-1.417996,154,7.6,9.0,307.3,13 / 26,6407942,2019-08-31 11:37:08:021,-0.0144,-0.1475,8.6412,0.0042,-0.0487,9.8065,-0.0245,-0.0399,0.0154,7.28,18.63,-22.36,294.99,-4.33,1.04
64080,52.476368,-1.418093,154,8.0,10.0,307.1,13 / 26,6408041,2019-08-31 11:37:08:120,-0.3144,0.3959,9.7329,-0.037,0.0059,9.8066,0.0479,0.0432,0.0111,7.28,18.63,-22.36,294.99,-4.33,1.04
64081,52.476368,-1.418093,154,8.0,10.0,307.1,13 / 26,6408141,2019-08-31 11:37:08:220,-0.295,0.1434,9.8285,-0.0402,0.0071,9.8066,-0.0107,-0.0154,0.0271,7.68,18.3,-22.5,298.76,-4.21,1.22
64082,52.476368,-1.418093,154,8.0,10.0,307.1,13 / 26,6408241,2019-08-31 11:37:08:320,-0.2518,0.1893,9.1126,-0.0687,0.0199,9.8064,-0.0394,0.0038,0.0068,7.36,18.29,-22.61,296.28,-3.91,1.52
64083,52.476368,-1.418093,154,8.0,10.0,307.1,13 / 26,6408341,2019-08-31 11:37:08:420,-0.2144,-0.2424,9.0738,0.0054,0.0161,9.8066,-0.0341,0.0613,0.026,7.16,18.34,-22.63,296.17,-3.84,1.45
64084,52.476368,-1.418093,154,8.0,10.0,307.1,13 / 26,6408441,2019-08-31 11:37:08:520,-0.2249,0.0518,9.4503,0.0194,-0.0166,9.8066,0.0021,-0.0026,-0.0081,7.36,18.29,-22.61,296.17,-3.84,1.45
64085,52.476368,-1.418093,154,8.0,10.0,307.1,13 / 26,6408541,2019-08-31 11:37:08:620,-0.3432,-0.3894,9.1756,0.027,-0.0114,9.8066,-0.0437,-0.0346,0.0271,7.36,18.29,-22.61,296.17,-3.84,1.45
64086,52.476368,-1.418093,154,8.0,10.0,307.1,13 / 26,6408642,2019-08-31 11:37:08:721,-0.0698,-0.1364,9.9513,0.0129,-0.0347,9.8066,-0.0011,0.0528,0.0249,7.28,18.63,-22.36,294.79,-3.97,1.33
64087,52.476368,-1.418093,154,8.0,10.0,307.1,13 / 26,6408741,2019-08-31 11:37:08:820,-0.0072,0.3985,9.2434,0.0139,-0.0614,9.8064,-0.0011,0.0528,0.0249,7.36,18.29,-22.61,296.66,-4.33,1.41
64088,52.476368,-1.418093,154,8.0,10.0,307.1,13 / 26,6408841,2019-08-31 11:37:08:920,-0.7963,0.0472,9.9731,-0.05,-0.0033,9.8065,0.0597,0.0357,-0.0198,7.82,17.57,-23.02,296.66,-4.33,1.41
64089,52.476368,-1.418093,154,8.0,10.0,307.1,13 / 26,6408941,2019-08-31 11:37:09:020,-0.0303,-0.5292,9.1342,-0.0833,0.0393,9.8062,-0.0053,-0.0367,0.0164,7.82,17.57,-23.02,296.66,-4.33,1.41
64090,52.476418,-1.41819,154,8.08,10.0,306.8,13 / 26,6409042,2019-08-31 11:37:09:121,-0.2935,0.0556,10.6635,-0.1005,0.0652,9.8059,-0.0405,0.0293,0.0409,7.84,17.61,-22.98,298.83,-3.73,1.77
64091,52.476418,-1.41819,154,8.08,10.0,306.8,13 / 26,6409146,2019-08-31 11:37:09:225,0.2649,0.8943,9.7383,0.007,0.0332,9.8066,-0.0075,-0.0165,0.0303,7.76,17.96,-22.74,298.83,-3.73,1.77
64092,52.476418,-1.41819,154,8.08,10.0,306.8,13 / 26,6409241,2019-08-31 11:37:09:320,-0.068,0.1799,8.2616,-0.0136,0.0588,9.8065,0.0213,-0.0005,0.0228,7.76,17.96,-22.74,298.83,-3.73,1.77
64093,52.476418,-1.41819,154,8.08,10.0,306.8,13 / 26,6409341,2019-08-31 11:37:09:420,0.0061,0.0943,9.5187,-0.0436,-0.0146,9.8065,0.0213,0.0155,-0.006,7.9,18.84,-21.97,296.92,-3.39,1.67
64094,52.476418,-1.41819,154,8.08,10.0,306.8,13 / 26,6409441,2019-08-31 11:37:09:520,-0.1009,0.1161,9.2602,-0.0084,-0.0172,9.8066,0.0213,0.0155,-0.006,6.63,19.94,-21.41,293.18,-3.35,1.94
64095,52.476418,-1.41819,154,8.08,10.0,306.8,13 / 26,6409541,2019-08-31 11:37:09:620,0.1872,-0.3428,8.7614,-0.0219,-0.0175,9.8066,0.0011,0.0464,0.0143,5.84,19.79,-21.78,290.92,-3.42,2.02
64096,52.476418,-1.41819,154,8.08,10.0,306.8,13 / 26,6409641,2019-08-31 11:37:09:720,0.2777,0.8051,10.3717,-0.0183,0.0139,9.8066,0.0,-0.0506,0.0132,5.84,19.79,-21.78,290.92,-3.42,2.02
64097,52.476418,-1.41819,154,8.08,10.0,306.8,13 / 26,6409741,2019-08-31 11:37:09:820,0.1436,0.4338,9.2961,-0.016,0.0585,9.8065,0.0,-0.0133,-0.0166,4.93,20.23,-21.6,288.19,-3.31,2.09
64098,52.476418,-1.41819,154,8.08,10.0,306.8,13 / 26,6409842,2019-08-31 11:37:09:921,-0.037,0.3397,10.2438,-0.0182,0.0583,9.8065,0.0138,0.0123,0.009,5.34,18.89,-22.69,288.19,-3.31,2.09
64099,52.476418,-1.41819,154,8.08,10.0,306.8,13 / 26,6409940,2019-08-31 11:37:10:019,-0.2057,0.5669,11.2197,-0.06,0.0785,9.8062,0.0021,-0.0048,0.0026,5.24,17.97,-23.45,289.77,-2.76,2.28
64100,52.476456,-1.418287,154,8.13,10.0,306.5,13 / 26,6410041,2019-08-31 11:37:10:120,-0.4267,-0.0398,10.3793,-0.0363,0.0481,9.8065,-0.0256,0.0016,0.0047,5.24,17.97,-23.45,289.77,-2.76,2.28
64101,52.476456,-1.418287,154,8.13,10.0,306.5,13 / 26,6410142,2019-08-31 11:37:10:221,-0.2526,0.3694,9.5069,-0.0563,0.0878,9.8061,-0.0309,0.024,0.0196,6.86,18.41,-22.67,294.89,-2.17,2.42
64102,52.476456,-1.418287,154,8.13,10.0,306.5,13 / 26,6410241,2019-08-31 11:37:10:320,-0.0667,0.2761,9.8086,0.0092,0.0047,9.8066,-0.0021,0.0485,0.0121,7.1,18.71,-22.35,293.49,-2.17,2.36
64103,52.476456,-1.418287,154,8.13,10.0,306.5,13 / 26,6410342,2019-08-31 11:37:10:421,0.1548,0.3614,9.8063,0.0087,-0.0004,9.8066,-0.0021,0.0485,0.0121,7.76,17.96,-22.74,297.48,-2.11,2.33
64104,52.476456,-1.418287,154,8.13,10.0,306.5,13 / 26,6410441,2019-08-31 11:37:10:520,-0.0252,0.2108,10.6842,0.0164,-0.0103,9.8066,-0.0128,0.0474,0.0164,7.76,17.96,-22.74,297.48,-2.11,2.33
64105,52.476456,-1.418287,154,8.13,10.0,306.5,13 / 26,6410541,2019-08-31 11:37:10:620,0.0367,0.2665,10.0802,-0.0057,0.0115,9.8066,-0.0309,0.0016,0.0335,8.17,18.22,-22.39,297.4,-2.21,2.27
64106,52.476456,-1.418287,154,8.13,10.0,306.5,13 / 26,6410641,2019-08-31 11:37:10:720,-0.2224,-0.2006,8.8519,-0.0102,0.0196,9.8066,-0.0362,-0.009,0.0239,7.76,17.96,-22.74,297.41,-2.08,2.27
64107,52.476456,-1.418287,154,8.13,10.0,306.5,13 / 26,6410742,2019-08-31 11:37:10:821,-0.0812,0.413,9.7962,-0.0024,0.0495,9.8065,-0.0117,-0.0122,-0.0092,7.76,17.96,-22.74,297.41,-2.08,2.27
64108,52.476456,-1.418287,154,8.13,10.0,306.5,13 / 26,6410841,2019-08-31 11:37:10:920,0.1114,0.495,10.1603,-0.0016,0.0389,9.8066,-0.0117,-0.0037,0.0217,7.12,17.17,-23.55,295.8,-1.82,2.15
64109,52.476456,-1.418287,154,8.13,10.0,306.5,13 / 26,6410941,2019-08-31 11:37:11:020,-0.063,0.0566,9.8831,0.0087,0.0278,9.8066,0.0479,-0.009,-0.0038,7.23,17.45,-23.31,295.44,-1.7,2.03
64110,52.476456,-1.418287,154,8.13,10.0,306.5,13 / 26,6411041,2019-08-31 11:37:11:120,-0.5293,-0.1751,9.833,-0.0196,0.0322,9.8066,0.0075,-0.0399,0.0239,7.23,17.45,-23.31,295.44,-1.7,2.03
64111,52.47651,-1.418383,154,8.08,10.0,306.4,13 / 26,6411141,2019-08-31 11:37:11:220,0.1194,-0.1949,9.2399,-0.0506,0.0478,9.8064,-0.0181,-0.0271,0.0175,7.41,17.34,-23.34,295.08,-1.32,2.18
64112,52.47651,-1.418383,154,8.08,10.0,306.4,13 / 26,6411241,2019-08-31 11:37:11:320,-0.0743,0.3163,10.225,-0.0024,0.0066,9.8066,-0.0181,-0.0271,0.0175,7.54,17.63,-23.08,295.08,-1.32,2.18
64113,52.47651,-1.418383,154,8.08,10.0,306.4,13 / 26,6411344,2019-08-31 11:37:11:423,0.1691,0.4831,10.6131,0.0011,0.0085,9.8066,0.0107,0.0165,0.0058,7.07,17.29,-23.47,295.01,-1.27,2.15
64114,52.47651,-1.418383,154,8.08,10.0,306.4,13 / 26,6411441,2019-08-31 11:37:11:520,-0.1457,0.3959,9.6779,-0.0044,-0.0152,9.8066,-0.0011,-0.0591,0.0292,7.07,17.29,-23.47,295.01,-1.27,2.15
64115,52.47651,-1.418383,154,8.08,10.0,306.4,13 / 26,6411542,2019-08-31 11:37:11:621,-0.3155,0.2304,9.2245,-0.0295,-0.0045,9.8066,-0.0075,0.0474,0.0132,7.54,17.63,-23.08,296.58,-1.34,2.21
64116,52.47651,-1.418383,154,8.08,10.0,306.4,13 / 26,6411641,2019-08-31 11:37:11:720,-0.2567,0.1571,9.735,-0.0307,-0.0151,9.8066,0.0043,0.0751,0.0143,7.54,17.63,-23.08,296.58,-1.34,2.21
64117,52.47651,-1.418383,154,8.08,10.0,306.4,13 / 26,6411741,2019-08-31 11:37:11:820,-0.5916,-0.0191,9.9862,-0.0347,-0.0028,9.8066,0.0362,-0.0623,0.0281,7.54,17.63,-23.08,296.58,-1.34,2.21
64118,52.47651,-1.418383,154,8.08,10.0,306.4,13 / 26,6411842,2019-08-31 11:37:11:921,-0.243,0.0438,10.4238,-0.0277,0.0314,9.8066,-0.0107,0.1273,0.0303,7.53,19.85,-21.2,293.94,-1.27,2.4
64119,52.47651,-1.418383,154,8.08,10.0,306.4,13 / 26,6411942,2019-08-31 11:37:12:021,0.7355,0.0624,10.1424,-0.0396,0.0527,9.8064,-0.0107,0.1273,0.0303,7.72,19.47,-21.47,294.77,-0.89,2.49
64120,52.47655,-1.418481,154,8.08,10.0,305.9,13 / 26,6412041,2019-08-31 11:37:12:120,0.7844,-1.2525,8.3057,0.0013,0.0095,9.8066,-0.0245,-0.0644,0.0452,7.51,19.22,-21.77,294.8,-0.85,2.46
64121,52.47655,-1.418481,154,8.08,10.0,305.9,13 / 26,6412141,2019-08-31 11:37:12:220,0.6154,0.4877,9.3364,-0.0141,-0.0019,9.8066,-0.0501,0.0368,0.0473,7.51,19.22,-21.77,294.8,-0.85,2.46
64122,52.47655,-1.418481,154,8.08,10.0,305.9,13 / 26,6412241,2019-08-31 11:37:12:320,-0.4503,0.1641,10.5341,-0.0353,0.024,9.8066,0.0277,-0.0559,0.0153,8.02,19.13,-21.67,294.64,-0.63,2.59
64123,52.47655,-1.418481,154,8.08,10.0,305.9,13 / 26,6412341,2019-08-31 11:37:12:420,0.1696,-0.4714,11.0832,-0.0099,-0.0002,9.8066,-0.033,-0.0793,0.0249,8.55,19.61,-21.04,295.86,-0.52,2.73
64124,52.47655,-1.418481,154,8.08,10.0,305.9,13 / 26,6412442,2019-08-31 11:37:12:521,0.5955,0.169,10.0054,-0.0024,0.0251,9.8066,-0.017,0.0879,0.0409,9.53,18.8,-21.35,295.86,-0.52,2.73
64125,52.47655,-1.418481,154,8.08,10.0,305.9,13 / 26,6412541,2019-08-31 11:37:12:620,0.5792,-0.0038,12.7593,0.0126,-0.043,9.8065,-0.0288,-0.0058,0.0367,9.53,18.8,-21.35,295.86,-0.52,2.73
64126,52.47655,-1.418481,154,8.08,10.0,305.9,13 / 26,6412641,2019-08-31 11:37:12:720,-0.1709,-0.7085,5.9653,0.0569,-0.1339,9.8056,-0.0288,-0.0058,0.0367,8.57,18.66,-21.87,297.46,-0.77,2.78
64127,52.47655,-1.418481,154,8.08,10.0,305.9,13 / 26,6412741,2019-08-31 11:37:12:820,0.356,-1.4941,8.0622,0.1313,-0.2871,9.8016,0.0256,0.2403,0.0196,5.1,20.16,-21.62,287.75,-2.62,2.87
64128,52.47655,-1.418481,154,8.08,10.0,305.9,13 / 26,6412841,2019-08-31 11:37:12:920,0.7148,-0.4513,9.5587,0.0321,-0.0777,9.8063,-0.0032,-0.0154,0.0335,5.1,20.16,-21.62,287.75,-2.62,2.87
64129,52.47655,-1.418481,154,8.08,10.0,305.9,13 / 26,6412941,2019-08-31 11:37:13:020,0.26,-0.6156,9.0409,0.0072,0.0103,9.8066,-0.0565,-0.1816,0.0697,2.99,20.82,-21.39,281.86,-3.11,2.83
64130,52.476585,-1.418589,154,7.61,10.0,304.9,13 / 26,6413040,2019-08-31 11:37:13:119,0.6605,-0.2588,10.6772,-0.0166,0.0804,9.8063,0.0213,-0.1837,0.0036,2.99,20.82,-21.39,281.86,-3.11,2.83
64131,52.476585,-1.418589,154,7.61,10.0,304.9,14 / 26,6413141,2019-08-31 11:37:13:220,-0.0501,0.2673,7.657,-0.093,0.1818,9.8045,0.033,-0.2828,0.009,5.95,19.34,-22.15,291.49,-2.63,2.83
64132,52.476585,-1.418589,154,7.61,10.0,304.9,14 / 26,6413241,2019-08-31 11:37:13:320,0.1385,-0.2677,10.0029,-0.192,0.4431,9.7948,0.0341,-0.1603,0.0036,8.54,18.06,-22.38,297.89,0.2,2.92
64133,52.476585,-1.418589,154,7.61,10.0,304.9,14 / 26,6413341,2019-08-31 11:37:13:420,-0.2945,-0.4802,12.7948,-0.238,0.3443,9.7977,-0.0501,-0.0527,0.0335,8.54,18.06,-22.38,297.89,0.2,2.92
64134,52.476585,-1.418589,154,7.61,10.0,304.9,14 / 26,6413441,2019-08-31 11:37:13:520,0.0295,-0.0606,9.7971,0.052,-0.0475,9.8064,-0.0075,0.1348,0.0313,9.94,17.78,-22.02,298.1,2.62,3.21
64135,52.476585,-1.418589,154,7.61,10.0,304.9,14 / 26,6413541,2019-08-31 11:37:13:620,-0.1175,-0.0686,8.5956,0.0872,-0.157,9.805,-0.0075,0.1348,0.0313,8.63,17.73,-22.61,295.71,2.24,3.07
64136,52.476585,-1.418589,154,7.61,10.0,304.9,14 / 26,6413641,2019-08-31 11:37:13:720,-0.0128,-0.088,8.2955,0.1746,-0.3109,9.8002,-0.0149,0.2989,0.0398,8.63,17.73,-22.61,295.71,2.24,3.07
64137,52.476585,-1.418589,154,7.61,10.0,304.9,14 / 26,6413741,2019-08-31 11:37:13:820,0.4889,-2.3115,8.8011,0.0753,-0.1801,9.8047,0.0053,0.2573,0.0409,6.2,18.11,-23.1,289.46,0.16,2.94
64138,52.476585,-1.418589,154,7.61,10.0,304.9,14 / 26,6413842,2019-08-31 11:37:13:921,0.6076,-1.8192,10.3115,0.1448,-0.4293,9.7962,0.0021,0.1444,0.0239,4.75,18.2,-23.37,289.78,-2.49,2.98
64139,52.476585,-1.418589,154,7.61,10.0,304.9,14 / 26,6413941,2019-08-31 11:37:14:020,0.7326,-0.9585,12.1537,0.0641,-0.154,9.8052,0.0234,-0.057,-0.0049,4.75,18.2,-23.37,289.78,-2.49,2.98
64140,52.476616,-1.418681,154,7.37,10.0,303.4,14 / 26,6414044,2019-08-31 11:37:14:123,0.2579,0.7034,9.5326,-0.0133,0.048,9.8065,-0.0213,-0.2413,0.0313,5.16,18.23,-23.26,290.96,-3.46,2.93
64141,52.476616,-1.418681,154,7.37,10.0,303.4,14 / 26,6414141,2019-08-31 11:37:14:220,-0.8042,1.5095,7.3875,-0.0788,0.2085,9.8041,0.0586,-0.2583,-0.0006,6.14,18.44,-22.85,290.96,-3.46,2.93
64142,52.476616,-1.418681,154,7.37,10.0,303.4,14 / 26,6414241,2019-08-31 11:37:14:320,-0.4189,0.4595,9.7542,-0.2058,0.4774,9.7929,-0.0064,0.0357,0.0143,7.58,18.49,-22.37,295.93,-0.43,3.06
64143,52.476616,-1.418681,154,7.37,10.0,303.4,14 / 26,6414341,2019-08-31 11:37:14:420,-0.5512,0.7282,12.7843,0.0059,-0.0083,9.8066,-0.0064,0.0357,0.0143,7.58,18.49,-22.37,295.93,-0.43,3.06
64144,52.476616,-1.418681,154,7.37,10.0,303.4,14 / 26,6414441,2019-08-31 11:37:14:520,-0.149,0.0273,10.8029,-0.0571,0.1154,9.8058,-0.0202,0.0634,0.0271,7.94,18.14,-22.54,295.25,0.26,3.1
64145,52.476616,-1.418681,154,7.37,10.0,303.4,14 / 26,6414541,2019-08-31 11:37:14:620,0.3079,0.4117,7.6149,0.0586,-0.0787,9.8062,-0.0426,0.0102,0.0324,8.37,18.66,-21.95,293.13,1.01,3.11
64146,52.476616,-1.418681,154,7.37,10.0,303.4,14 / 26,6414641,2019-08-31 11:37:14:720,0.287,-0.445,10.037,0.1788,-0.3236,9.7997,0.0053,0.3159,0.0249,8.37,18.66,-21.95,293.13,1.01,3.11
64147,52.476616,-1.418681,154,7.37,10.0,303.4,14 / 26,6414741,2019-08-31 11:37:14:820,0.2759,-0.8873,11.1088,0.0884,-0.1753,9.8047,0.0021,0.1582,0.0164,5.83,18.47,-22.91,291.06,-1.14,2.89
64148,52.476616,-1.418681,154,7.37,10.0,303.4,14 / 26,6414841,2019-08-31 11:37:14:920,0.5718,-0.3649,9.939,0.1171,-0.2115,9.8037,-0.0032,-0.0367,0.0004,4.8,18.89,-22.81,291.06,-1.14,2.89
64149,52.476616,-1.418681,154,7.37,10.0,303.4,14 / 26,6414941,2019-08-31 11:37:15:020,0.4708,-0.1871,8.0732,0.1129,-0.1568,9.8047,-0.0138,-0.0953,-0.0006,4.32,19.52,-22.36,284.44,-2.23,2.61
64150,52.476616,-1.418681,154,7.37,10.0,303.4,14 / 26,6415041,2019-08-31 11:37:15:120,0.1133,0.3719,9.1984,0.0146,0.0343,9.8066,-0.017,-0.0143,-0.0017,4.3,18.94,-22.87,284.44,-2.23,2.61
64151,52.476643,-1.418768,154,7.46,10.0,302.7,14 / 26,6415141,2019-08-31 11:37:15:220,0.9347,-0.6139,10.4581,0.0311,0.0448,9.8065,-0.017,-0.0143,-0.0017,4.32,19.52,-22.36,284.13,-2.02,2.37
64152,52.476643,-1.418768,154,7.46,10.0,302.7,14 / 26,6415241,2019-08-31 11:37:15:320,0.6846,0.2648,9.902,0.0178,0.0466,9.8065,-0.0447,-0.0218,0.0175,4.32,19.52,-22.36,284.13,-2.02,2.37
64153,52.476643,-1.418768,154,7.46,10.0,302.7,14 / 26,6415341,2019-08-31 11:37:15:420,0.0545,-0.1983,9.0749,0.0611,0.1425,9.8054,-0.0288,-0.0644,-0.0262,4.92,18.87,-22.8,284.13,-2.02,2.37
64154,52.476643,-1.418768,154,7.46,10.0,302.7,14 / 26,6415441,2019-08-31 11:37:15:520,0.8878,-0.1335,10.7343,0.12,-0.1249,9.8051,-0.0575,0.0932,-0.0049,5.49,18.59,-22.9,286.86,-1.3,1.82
64155,52.476643,-1.418768,154,7.46,10.0,302.7,14 / 26,6415542,2019-08-31 11:37:15:621,0.4052,-0.6467,10.1535,0.202,-0.2315,9.8018,-0.0341,0.106,-0.0283,4.58,18.62,-23.07,286.86,-1.3,1.82
64156,52.476643,-1.418768,154,7.46,10.0,302.7,14 / 26,6415641,2019-08-31 11:37:15:720,0.7861,-0.2231,10.191,0.0545,-0.0583,9.8063,-0.0394,0.0059,0.0132,4.2,18.25,-23.44,286.47,-2.94,1.08
64157,52.476643,-1.418768,154,7.46,10.0,302.7,14 / 26,6415741,2019-08-31 11:37:15:820,0.2373,-0.705,9.9801,0.1044,-0.1109,9.8055,-0.032,0.0016,-0.0315,4.2,18.25,-23.44,286.47,-2.94,1.08
64158,52.476643,-1.418768,154,7.46,10.0,302.7,14 / 26,6415842,2019-08-31 11:37:15:921,0.7274,-0.7135,9.2218,0.0713,-0.0519,9.8063,0.0128,0.0176,-0.039,4.18,18.33,-23.38,287.25,-3.73,0.68
64159,52.476643,-1.418768,154,7.46,10.0,302.7,14 / 26,6415941,2019-08-31 11:37:16:020,0.7153,-0.4344,9.4138,0.0314,-0.0469,9.8065,0.0128,0.0176,-0.039,4.77,18.86,-22.84,289.46,-4.15,0.37
64160,52.476643,-1.418768,154,7.46,10.0,302.7,14 / 26,6416042,2019-08-31 11:37:16:121,-0.2777,-0.0935,9.533,0.0087,-0.0255,9.8066,0.0224,-0.0474,-0.0187,5.8,19.11,-22.39,292.07,-4.31,0.37
64161,52.47669,-1.418851,153,7.52,10.0,304.3,14 / 26,6416141,2019-08-31 11:37:16:220,0.1567,-0.0725,10.2562,-0.0233,0.0691,9.8064,-0.0245,-0.0357,-0.0294,5.8,19.11,-22.39,292.07,-4.31,0.37
64162,52.47669,-1.418851,153,7.52,10.0,304.3,14 / 26,6416241,2019-08-31 11:37:16:320,0.5514,-0.7022,10.511,0.0171,0.0517,9.8065,0.0117,0.0261,-0.0486,5.6,18.04,-23.31,293.01,-4.06,0.16
64163,52.47669,-1.418851,153,7.52,10.0,304.3,14 / 26,6416341,2019-08-31 11:37:16:420,0.3722,0.5728,10.9275,0.0158,-0.0224,9.8066,0.017,-0.0303,-0.0262,8.11,17.09,-23.29,299.86,-4.37,0.12
64164,52.47669,-1.418851,153,7.52,10.0,304.3,14 / 26,6416441,2019-08-31 11:37:16:520,0.132,-0.6289,9.1812,0.0173,-0.0492,9.8065,-0.0373,-0.0793,-0.0113,8.11,17.09,-23.29,299.86,-4.37,0.12
64165,52.47669,-1.418851,153,7.52,10.0,304.3,14 / 26,6416541,2019-08-31 11:37:16:620,-0.1616,-1.1304,9.3576,0.0306,-0.054,9.8065,-0.0021,0.0932,-0.0326,7.22,17.96,-22.92,296.28,-4.67,0.17
64166,52.47669,-1.418851,153,7.52,10.0,304.3,14 / 26,6416640,2019-08-31 11:37:16:719,0.3629,-0.4391,10.0065,0.0756,-0.1098,9.8057,-0.0138,0.0858,-0.0145,6.82,18.33,-22.75,296.98,-5.44,0.06
64167,52.47669,-1.418851,153,7.52,10.0,304.3,14 / 26,6416741,2019-08-31 11:37:16:820,-0.0677,-0.3781,9.3691,0.0306,-0.034,9.8065,-0.0202,-0.0591,-0.0294,6.82,18.33,-22.75,296.98,-5.44,0.06
64168,52.47669,-1.418851,153,7.52,10.0,304.3,14 / 26,6416842,2019-08-31 11:37:16:921,-0.1193,-0.0347,9.2571,-0.0201,-0.0102,9.8066,-0.0202,-0.0591,-0.0294,7.34,18.25,-22.65,297.19,-5.7,-0.01
64169,52.47669,-1.418851,153,7.52,10.0,304.3,14 / 26,6416941,2019-08-31 11:37:17:020,-0.2586,-0.8513,9.197,-0.0493,-0.0239,9.8065,0.0447,0.0176,-0.0028,6.79,17.69,-23.26,297.38,-5.69,0.31
64170,52.47672,-1.418951,154,8.01,10.0,305.7,14 / 26,6417041,2019-08-31 11:37:17:120,-0.2876,0.0339,10.1039,-0.0142,-0.0308,9.8066,-0.0149,-0.0527,0.01,6.82,18.33,-22.75,297.59,-5.81,0.47
64171,52.47672,-1.418951,154,8.01,10.0,305.7,14 / 26,6417141,2019-08-31 11:37:17:220,-0.3997,-0.2956,9.5125,-0.0184,-0.0198,9.8066,0.0394,0.0048,0.0175,6.82,18.33,-22.75,297.59,-5.81,0.47
64172,52.47672,-1.418951,154,8.01,10.0,305.7,14 / 26,6417241,2019-08-31 11:37:17:320,-0.5793,-0.2039,10.0805,-0.0681,-0.032,9.8064,0.0533,-0.0335,0.0036,6.23,18.74,-22.58,294.07,-5.79,0.91
64173,52.47672,-1.418951,154,8.01,10.0,305.7,14 / 26,6417341,2019-08-31 11:37:17:420,-0.5457,0.3796,9.1949,-0.1052,-0.0416,9.806,0.0352,0.0059,0.0303,6.23,18.74,-22.58,294.07,-5.79,0.91
64174,52.47672,-1.418951,154,8.01,10.0,305.7,14 / 26,6417441,2019-08-31 11:37:17:520,-0.5643,-0.4736,9.3245,-0.0344,-0.0466,9.8065,0.0117,0.0421,0.0462,6.16,19.06,-22.33,294.11,-5.76,1.57
64175,52.47672,-1.418951,154,8.01,10.0,305.7,14 / 26,6417541,2019-08-31 11:37:17:620,-0.3427,-0.0312,11.3065,-0.0523,-0.0384,9.8064,0.0117,0.0421,0.0462,5.97,19.93,-21.62,293.32,-5.93,1.87
64176,52.47672,-1.418951,154,8.01,10.0,305.7,14 / 26,6417640,2019-08-31 11:37:17:719,-0.5674,-0.1845,10.455,-0.1105,-0.0672,9.8058,0.0202,-0.0048,0.0707,5.97,19.93,-21.62,293.32,-5.93,1.87
64177,52.47672,-1.418951,154,8.01,10.0,305.7,14 / 26,6417741,2019-08-31 11:37:17:820,-0.5726,-0.7266,12.2743,-0.052,-0.0582,9.8063,0.0575,-0.025,0.0665,6.65,20.97,-20.4,294.55,-6.03,2.62
64178,52.47672,-1.418951,154,8.01,10.0,305.7,14 / 26,6417841,2019-08-31 11:37:17:920,-0.6574,-0.3942,10.5103,-0.0788,-0.118,9.8056,0.0,0.0474,0.0931,6.73,20.69,-20.65,295.59,-6.47,3.33
64179,52.47672,-1.418951,154,8.01,10.0,305.7,14 / 26,6417941,2019-08-31 11:37:18:020,-0.7072,-0.1986,8.7482,-0.0208,-0.0111,9.8066,0.0288,0.0112,0.0644,6.73,20.69,-20.65,295.59,-6.47,3.33
64180,52.47677,-1.419054,154,8.47,10.0,303.0,14 / 26,6418043,2019-08-31 11:37:18:122,-0.2209,0.5968,7.4728,-0.0291,0.0018,9.8066,0.0362,-0.0026,0.075,4.96,20.05,-21.75,292.14,-6.48,3.47
