,GPS LATITUDE (degrees),GPS LONGITUDE (degrees), GPS ALTITUDE (m),GPS SPEED (Kmh),GPS ACCURACY (m),GPS ORIENTATION (Â°), SATELLITES IN RANGE, TIME SINCE START (ms), DATE (YYYY-MO-DD HH-MI-SS_SSS),ACCELEROMETER X (m/s²) , ACCELEROMETER Y (m/s²), ACCELEROMETER Z (m/s²), GRAVITY X (m/s²), GRAVITY Y (m/s²), GRAVITY Z (m/s²), GYROSCOPE Yaw (rad/s), GYROSCOPE Pitch (rad/s), GYROSCOPE Roll (rad/s)
32470,47.16162,-1.513113,59.8,0.0,30.0,183.2,16 / 21,3247011,2019-08-09 21:08:15:749,-0.4176,0.121,9.762,-0.4169,0.126,9.797,-0.0002,0.0004,-0.0004
32471,47.16162,-1.513113,59.8,0.0,30.0,183.2,16 / 21,3247110,2019-08-09 21:08:15:848,-0.4236,0.1294,9.7381,-0.4171,0.1255,9.797,0.0001,-0.0003,-0.0001
32472,47.16162,-1.513113,59.8,0.0,30.0,183.2,16 / 21,3247210,2019-08-09 21:08:15:948,-0.414,0.1222,9.7405,-0.4191,0.1248,9.7969,0.0,0.0006,0.0
32473,47.16162,-1.513113,59.8,0.0,30.0,183.2,16 / 21,3247311,2019-08-09 21:08:16:049,-0.4152,0.1282,9.7477,-0.4184,0.1245,9.7969,0.0,0.0,0.0006
32474,47.16162,-1.513113,59.8,0.0,30.0,183.2,16 / 21,3247411,2019-08-09 21:08:16:149,-0.4248,0.1234,9.7489,-0.4195,0.1238,9.7969,-0.0002,-0.0001,0.0001
32475,47.16162,-1.513113,59.8,0.0,30.0,183.2,16 / 21,3247510,2019-08-09 21:08:16:248,-0.4152,0.1234,9.7393,-0.4196,0.1243,9.7969,0.0,-0.0005,-0.0006
32476,47.16162,-1.513113,59.8,0.0,30.0,183.2,14 / 20,3247610,2019-08-09 21:08:16:348,-0.4176,0.1138,9.7524,-0.4201,0.1228,9.7969,-0.0002,-0.0002,0.0005
32477,47.16162,-1.513113,59.8,0.0,30.0,183.2,14 / 20,3247710,2019-08-09 21:08:16:448,-0.3925,0.1426,9.75,-0.4197,0.123,9.7969,-0.0003,0.0001,0.0001
32478,47.16162,-1.513113,59.8,0.0,30.0,183.2,14 / 20,3247810,2019-08-09 21:08:16:548,-0.3985,0.1115,9.7393,-0.4189,0.1246,9.7969,0.0001,0.0001,0.0004
32479,47.16162,-1.513113,59.8,0.0,30.0,183.2,14 / 20,3247910,2019-08-09 21:08:16:648,-0.4128,0.1186,9.7441,-0.4189,0.1245,9.7969,0.0,-0.0004,0.0007
32480,47.16162,-1.513113,59.8,0.0,30.0,183.2,14 / 20,3248010,2019-08-09 21:08:16:748,-0.3913,0.1198,9.7489,-0.4197,0.1237,9.7969,-0.0005,0.0005,-0.0001
32481,47.16162,-1.513113,59.8,0.0,30.0,183.2,14 / 20,3248110,2019-08-09 21:08:16:848,-0.4284,0.1222,9.7489,-0.4191,0.1228,9.7969,-0.0003,0.0,0.0005
32482,47.16162,-1.513113,59.8,0.0,30.0,183.2,14 / 20,3248211,2019-08-09 21:08:16:949,-0.4116,0.1162,9.7441,-0.4184,0.1231,9.7969,-0.0002,0.0003,-0.0002
32483,47.16162,-1.513113,59.8,0.0,30.0,183.2,14 / 20,3248311,2019-08-09 21:08:17:049,-0.4224,0.1282,9.7608,-0.4185,0.1226,9.7969,0.0,-0.0001,0.0002
32484,47.16162,-1.513113,59.8,0.0,30.0,183.2,14 / 20,3248411,2019-08-09 21:08:17:149,-0.3937,0.1198,9.7489,-0.4177,0.1222,9.797,-0.0002,-0.0007,0.0
32485,47.16162,-1.513113,59.8,0.0,30.0,183.2,14 / 20,3248512,2019-08-09 21:08:17:250,-0.4152,0.1031,9.756,-0.4182,0.1217,9.797,0.0002,0.0005,0.0006
32486,47.16162,-1.513113,59.8,0.0,30.0,183.2,15 / 21,3248610,2019-08-09 21:08:17:348,-0.4033,0.1126,9.7477,-0.4178,0.1211,9.797,0.0001,-0.0006,-0.0007
32487,47.16162,-1.513113,59.8,0.0,30.0,183.2,15 / 21,3248710,2019-08-09 21:08:17:448,-0.4128,0.127,9.7381,-0.4181,0.1211,9.797,-0.0001,0.0002,0.0
32488,47.16162,-1.513113,59.8,0.0,30.0,183.2,15 / 21,3248810,2019-08-09 21:08:17:548,-0.4021,0.1126,9.7536,-0.4179,0.1209,9.797,0.0004,0.0006,-0.0003
32489,47.16162,-1.513113,59.8,0.0,30.0,183.2,15 / 21,3248911,2019-08-09 21:08:17:649,-0.4021,0.1186,9.7477,-0.4184,0.1211,9.797,-0.0002,-0.0007,-0.0001
32490,47.16162,-1.513113,59.8,0.0,30.0,183.2,15 / 21,3249010,2019-08-09 21:08:17:748,-0.4248,0.1234,9.7441,-0.4181,0.1213,9.797,-0.0002,0.0009,-0.0006
32491,47.16162,-1.513113,59.8,0.0,30.0,183.2,15 / 21,3249111,2019-08-09 21:08:17:849,-0.4248,0.1234,9.7453,-0.419,0.122,9.7969,-0.0001,-0.0003,-0.0002
32492,47.16162,-1.513113,59.8,0.0,30.0,183.2,15 / 21,3249210,2019-08-09 21:08:17:948,-0.4188,0.1234,9.7465,-0.4186,0.1216,9.797,-0.0002,0.0001,0.0003
32493,47.16162,-1.513113,59.8,0.0,30.0,183.2,15 / 21,3249312,2019-08-09 21:08:18:050,-0.4152,0.1198,9.7489,-0.4184,0.122,9.797,-0.0005,0.0001,0.0002
32494,47.16162,-1.513113,59.8,0.0,30.0,183.2,15 / 21,3249410,2019-08-09 21:08:18:148,-0.4212,0.1091,9.7489,-0.4192,0.1216,9.7969,-0.0002,0.0001,0.0007
32495,47.16162,-1.513113,59.8,0.0,30.0,183.2,15 / 21,3249511,2019-08-09 21:08:18:249,-0.4152,0.1198,9.7513,-0.4181,0.1213,9.797,0.0001,-0.0002,0.0003
32496,47.16162,-1.513113,59.8,0.0,30.0,183.2,14 / 21,3249610,2019-08-09 21:08:18:348,-0.4332,0.1282,9.75,-0.4185,0.1228,9.7969,-0.0002,0.0001,-0.0001
32497,47.16162,-1.513113,59.8,0.0,30.0,183.2,14 / 21,3249710,2019-08-09 21:08:18:448,-0.414,0.1186,9.7381,-0.4191,0.1236,9.7969,-0.0002,-0.0004,-0.0001
32498,47.16162,-1.513113,59.8,0.0,30.0,183.2,14 / 21,3249810,2019-08-09 21:08:18:548,-0.4284,0.1126,9.7333,-0.4184,0.122,9.797,-0.0002,-0.0005,0.0001
32499,47.16162,-1.513113,59.8,0.0,30.0,183.2,14 / 21,3249910,2019-08-09 21:08:18:648,-0.4248,0.1246,9.7548,-0.4188,0.1213,9.797,0.0004,-0.0001,-0.0007
32500,47.16162,-1.513113,59.8,0.0,30.0,183.2,14 / 21,3250010,2019-08-09 21:08:18:748,-0.414,0.1342,9.7309,-0.419,0.122,9.7969,-0.0002,-0.0002,-0.0004
32501,47.16162,-1.513113,59.8,0.0,30.0,183.2,14 / 21,3250110,2019-08-09 21:08:18:848,-0.4021,0.1222,9.7465,-0.4179,0.1232,9.797,0.0004,-0.0009,-0.0008
32502,47.16162,-1.513113,59.8,0.0,30.0,183.2,14 / 21,3250211,2019-08-09 21:08:18:949,-0.432,0.0971,9.7477,-0.4181,0.1226,9.797,-0.0006,-0.0002,0.0002
32503,47.16162,-1.513113,59.8,0.0,30.0,183.2,14 / 21,3250310,2019-08-09 21:08:19:048,-0.4176,0.1222,9.7429,-0.4205,0.1195,9.7969,0.0004,0.0,0.0001
32504,47.16162,-1.513113,59.8,0.0,30.0,183.2,14 / 21,3250410,2019-08-09 21:08:19:148,-0.3853,0.1378,9.7429,-0.42,0.1196,9.7969,-0.0005,0.0014,0.0016
32505,47.16162,-1.513113,59.8,0.0,30.0,183.2,14 / 21,3250511,2019-08-09 21:08:19:249,-0.4344,0.1222,9.7548,-0.4219,0.1212,9.7968,-0.0006,-0.0004,-0.0006
32506,47.16162,-1.513113,59.8,0.0,30.0,183.2,15 / 21,3250611,2019-08-09 21:08:19:349,-0.4176,0.0923,9.75,-0.4213,0.1202,9.7969,-0.0002,-0.0001,-0.0005
32507,47.16162,-1.513113,59.8,0.0,30.0,183.2,15 / 21,3250710,2019-08-09 21:08:19:448,-0.4332,0.1222,9.7441,-0.4218,0.1173,9.7969,0.0002,0.0005,-0.0001
32508,47.16162,-1.513113,59.8,0.0,30.0,183.2,15 / 21,3250810,2019-08-09 21:08:19:548,-0.4356,0.1534,9.7261,-0.4232,0.1183,9.7968,0.0003,-0.0004,-0.0004
32509,47.16162,-1.513113,59.8,0.0,30.0,183.2,15 / 21,3250910,2019-08-09 21:08:19:648,-0.4308,0.1102,9.7548,-0.4238,0.1217,9.7967,-0.0002,0.0005,-0.0001
32510,47.16162,-1.513113,59.8,0.0,30.0,183.2,15 / 21,3251010,2019-08-09 21:08:19:748,-0.4248,0.0935,9.75,-0.4237,0.1206,9.7967,-0.0004,0.0003,0.0002
32511,47.16162,-1.513113,59.8,0.0,30.0,183.2,15 / 21,3251110,2019-08-09 21:08:19:848,-0.4188,0.0935,9.7477,-0.4243,0.1162,9.7968,0.0012,-0.0007,-0.0011
32512,47.16162,-1.513113,59.8,0.0,30.0,183.2,15 / 21,3251210,2019-08-09 21:08:19:948,-0.426,0.1306,9.7453,-0.4245,0.1175,9.7968,0.0004,-0.0007,-0.0007
32513,47.16162,-1.513113,59.8,0.0,30.0,183.2,15 / 21,3251310,2019-08-09 21:08:20:048,-0.4224,0.1342,9.7441,-0.4254,0.1202,9.7967,-0.0005,0.0003,0.0003
32514,47.16162,-1.513113,59.8,0.0,30.0,183.2,15 / 21,3251410,2019-08-09 21:08:20:148,-0.4236,0.121,9.7477,-0.4249,0.1205,9.7967,-0.0002,-0.0008,0.0012
32515,47.16162,-1.513113,59.8,0.0,30.0,183.2,15 / 21,3251510,2019-08-09 21:08:20:248,-0.4236,0.1126,9.75,-0.4256,0.1186,9.7967,0.0001,-0.0003,-0.0007
32516,47.16162,-1.513113,59.8,0.0,30.0,183.2,15 / 21,3251611,2019-08-09 21:08:20:349,-0.438,0.1294,9.7441,-0.426,0.1174,9.7967,-0.0001,0.0003,-0.0011
32517,47.16162,-1.513113,59.8,0.0,30.0,183.2,15 / 21,3251711,2019-08-09 21:08:20:449,-0.4188,0.1402,9.7513,-0.4254,0.121,9.7967,-0.0004,-0.0009,0.0002
32518,47.16162,-1.513113,59.8,0.0,30.0,183.2,15 / 21,3251811,2019-08-09 21:08:20:549,-0.4308,0.1246,9.75,-0.4258,0.1211,9.7967,-0.0003,0.0002,-0.0005
32519,47.16162,-1.513113,59.8,0.0,30.0,183.2,15 / 21,3251911,2019-08-09 21:08:20:649,-0.4188,0.0995,9.75,-0.4261,0.1201,9.7967,0.0,-0.0004,0.0
32520,47.16162,-1.513113,59.8,0.0,30.0,183.2,15 / 21,3252011,2019-08-09 21:08:20:749,-0.4104,0.1079,9.7453,-0.4254,0.1181,9.7967,0.0,0.0006,0.0003
32521,47.16162,-1.513113,59.8,0.0,30.0,183.2,15 / 21,3252110,2019-08-09 21:08:20:848,-0.414,0.1174,9.7632,-0.4249,0.117,9.7967,0.0003,0.0006,-0.0001
32522,47.16162,-1.513113,59.8,0.0,30.0,183.2,15 / 21,3252210,2019-08-09 21:08:20:948,-0.4823,0.23,9.7141,-0.4253,0.1169,9.7967,-0.0015,-0.0009,-0.0071
32523,47.16162,-1.513113,59.8,0.0,30.0,183.2,15 / 21,3252310,2019-08-09 21:08:21:048,-0.3386,0.1234,9.8015,-0.4343,0.1253,9.7962,-0.0003,-0.0059,-0.002
32524,47.16162,-1.513113,59.8,0.0,30.0,183.2,15 / 21,3252411,2019-08-09 21:08:21:149,-0.4356,0.127,9.8087,-0.4311,0.1211,9.7964,0.0004,0.0009,0.0031
32525,47.16162,-1.513113,59.8,0.0,30.0,183.2,15 / 21,3252511,2019-08-09 21:08:21:249,-0.3853,0.0432,9.762,-0.427,0.1153,9.7967,0.0013,0.0008,-0.0011
32526,47.16162,-1.513113,59.8,0.0,30.0,183.2,14 / 20,3252611,2019-08-09 21:08:21:349,-0.4356,0.1653,9.7285,-0.4254,0.1149,9.7967,0.0012,-0.0004,-0.001
32527,47.16162,-1.513113,59.8,0.0,30.0,183.2,14 / 20,3252710,2019-08-09 21:08:21:448,-0.4092,0.1737,9.7237,-0.4275,0.1204,9.7966,-0.001,0.0009,0.0005
32528,47.16162,-1.513113,59.8,0.0,30.0,183.2,14 / 20,3252810,2019-08-09 21:08:21:548,-0.4092,0.0887,9.7441,-0.4275,0.1295,9.7965,-0.0022,-0.0002,0.0017
32529,47.16162,-1.513113,59.8,0.0,30.0,183.2,14 / 20,3252910,2019-08-09 21:08:21:648,-0.4248,0.0372,9.7524,-0.4258,0.1254,9.7966,0.0015,0.0003,-0.0011
32530,47.16162,-1.513113,59.8,0.0,30.0,183.2,14 / 20,3253010,2019-08-09 21:08:21:748,-0.4272,0.1115,9.7477,-0.4241,0.1139,9.7968,0.0009,-0.0004,-0.0015
32531,47.16162,-1.513113,59.8,0.0,30.0,183.2,14 / 20,3253110,2019-08-09 21:08:21:848,-0.4392,0.2132,9.7548,-0.4252,0.1163,9.7967,-0.0011,-0.0001,-0.0011
32532,47.16162,-1.513113,59.8,0.0,30.0,183.2,14 / 20,3253211,2019-08-09 21:08:21:949,-0.414,0.1929,9.7548,-0.4275,0.1333,9.7964,-0.0012,0.0005,0.0005
32533,47.16162,-1.513113,59.8,0.0,30.0,183.2,14 / 20,3253311,2019-08-09 21:08:22:049,-0.4188,0.0276,9.75,-0.4263,0.1306,9.7965,-0.0006,0.0004,0.0017
32534,47.16162,-1.513113,59.8,0.0,30.0,183.2,14 / 20,3253410,2019-08-09 21:08:22:148,-0.4152,0.0875,9.7453,-0.4251,0.1153,9.7968,0.0011,0.0005,-0.0007
32535,47.16162,-1.513113,59.8,0.0,30.0,183.2,14 / 20,3253511,2019-08-09 21:08:22:249,-0.438,0.139,9.7393,-0.4254,0.1143,9.7968,0.0013,0.0003,-0.0014
32536,47.16162,-1.513113,59.8,0.0,30.0,183.2,13 / 20,3253610,2019-08-09 21:08:22:348,-0.4248,0.1976,9.7357,-0.4279,0.1278,9.7965,-0.0005,-0.0005,-0.0004
32537,47.16162,-1.513113,59.8,0.0,30.0,183.2,13 / 20,3253710,2019-08-09 21:08:22:448,-0.4236,0.1091,9.7656,-0.427,0.1315,9.7965,-0.0008,-0.0001,0.0013
32538,47.16162,-1.513113,59.8,0.0,30.0,183.2,13 / 20,3253810,2019-08-09 21:08:22:548,-0.42,0.0672,9.7465,-0.4253,0.1222,9.7967,-0.0007,-0.0001,0.0013
32539,47.16162,-1.513113,59.8,0.0,30.0,183.2,13 / 20,3253910,2019-08-09 21:08:22:648,-0.4224,0.1426,9.7429,-0.4262,0.1178,9.7967,0.0005,0.0006,-0.0018
32540,47.16162,-1.513113,59.8,0.0,30.0,183.2,13 / 20,3254010,2019-08-09 21:08:22:748,-0.4296,0.1809,9.7465,-0.4275,0.1257,9.7965,-0.0001,-0.0003,-0.0008
32541,47.16162,-1.513113,59.8,0.0,30.0,183.2,13 / 20,3254110,2019-08-09 21:08:22:848,-0.4152,0.1653,9.7489,-0.427,0.1305,9.7965,-0.0005,0.0,0.0021
32542,47.16162,-1.513113,59.8,0.0,30.0,183.2,13 / 20,3254210,2019-08-09 21:08:22:948,-0.4128,0.0612,9.7357,-0.4253,0.1264,9.7966,0.0004,-0.0003,0.0006
32543,47.16162,-1.513113,59.8,0.0,30.0,183.2,13 / 20,3254312,2019-08-09 21:08:23:050,-0.4284,0.1138,9.75,-0.4262,0.1209,9.7966,0.0009,0.0005,-0.0006
32544,47.16162,-1.513113,59.8,0.0,30.0,183.2,13 / 20,3254410,2019-08-09 21:08:23:148,-0.4236,0.1534,9.7536,-0.4266,0.1229,9.7966,0.0002,-0.0006,-0.0013
32545,47.16162,-1.513113,59.8,0.0,30.0,183.2,13 / 20,3254510,2019-08-09 21:08:23:248,-0.4212,0.1653,9.7453,-0.4264,0.129,9.7965,-0.0002,-0.0005,0.0011
32546,47.16162,-1.513113,59.8,0.0,30.0,183.2,14 / 20,3254611,2019-08-09 21:08:23:349,-0.4344,0.0947,9.7477,-0.4264,0.1309,9.7965,-0.0005,-0.0001,0.0015
32547,47.16162,-1.513113,59.8,0.0,30.0,183.2,14 / 20,3254711,2019-08-09 21:08:23:449,-0.4068,0.0743,9.7453,-0.4261,0.1254,9.7966,0.0011,0.0001,-0.001
32548,47.16162,-1.513113,59.8,0.0,30.0,183.2,14 / 20,3254810,2019-08-09 21:08:23:548,-0.4404,0.1545,9.7357,-0.4258,0.121,9.7967,0.0006,0.0002,-0.0025
32549,47.16162,-1.513113,59.8,0.0,30.0,183.2,14 / 20,3254910,2019-08-09 21:08:23:648,-0.4284,0.1617,9.7429,-0.4272,0.1258,9.7965,-0.0002,-0.0001,-0.0001
32550,47.16162,-1.513113,59.8,0.0,30.0,183.2,14 / 20,3255012,2019-08-09 21:08:23:750,-0.4128,0.1294,9.7572,-0.427,0.1312,9.7965,-0.0006,-0.0004,0.0011
32551,47.16162,-1.513113,59.8,0.0,30.0,183.2,14 / 20,3255110,2019-08-09 21:08:23:848,-0.4092,0.0959,9.7417,-0.4251,0.1281,9.7966,-0.0001,-0.0004,0.0002
32552,47.16162,-1.513113,59.8,0.0,30.0,183.2,14 / 20,3255211,2019-08-09 21:08:23:949,-0.4236,0.115,9.7465,-0.4255,0.1221,9.7967,-0.0001,-0.0004,-0.0016
32553,47.16162,-1.513113,59.8,0.0,30.0,183.2,14 / 20,3255310,2019-08-09 21:08:24:048,-0.4224,0.1569,9.7393,-0.4258,0.1227,9.7966,0.0004,0.0,-0.0013
32554,47.16162,-1.513113,59.8,0.0,30.0,183.2,14 / 20,3255410,2019-08-09 21:08:24:148,-0.4356,0.1629,9.75,-0.4265,0.1318,9.7965,-0.0011,-0.0002,0.0002
32555,47.16162,-1.513113,59.8,0.0,30.0,183.2,14 / 20,3255511,2019-08-09 21:08:24:249,-0.4188,0.0947,9.7524,-0.4252,0.1306,9.7966,-0.0006,-0.0005,0.0018
32556,47.16162,-1.513113,59.8,0.0,30.0,183.2,15 / 20,3255610,2019-08-09 21:08:24:348,-0.432,0.0839,9.75,-0.4245,0.1226,9.7967,0.0004,0.0003,-0.0007
32557,47.16162,-1.513113,59.8,0.0,30.0,183.2,15 / 20,3255710,2019-08-09 21:08:24:448,-0.426,0.1545,9.7393,-0.4245,0.1225,9.7967,0.0004,-0.0003,-0.002
32558,47.16162,-1.513113,59.8,0.0,30.0,183.2,15 / 20,3255810,2019-08-09 21:08:24:548,-0.4428,0.1294,9.7405,-0.4261,0.1296,9.7965,-0.0006,-0.0004,0.001
32559,47.16162,-1.513113,59.8,0.0,30.0,183.2,15 / 20,3255910,2019-08-09 21:08:24:648,-0.4368,0.1234,9.7513,-0.4275,0.1298,9.7965,-0.0005,-0.0002,-0.0001
32560,47.16162,-1.513113,59.8,0.0,30.0,183.2,15 / 20,3256010,2019-08-09 21:08:24:748,-0.4176,0.1007,9.7429,-0.4248,0.1257,9.7966,0.0002,0.0013,-0.0003
32561,47.16162,-1.513113,59.8,0.0,30.0,183.2,15 / 20,3256111,2019-08-09 21:08:24:849,-0.4368,0.1366,9.7417,-0.4241,0.124,9.7967,0.0003,-0.0004,-0.0009
32562,47.16162,-1.513113,59.8,0.0,30.0,183.2,15 / 20,3256211,2019-08-09 21:08:24:949,-0.4332,0.133,9.7429,-0.4257,0.1263,9.7966,-0.0003,0.0002,-0.0002
32563,47.16162,-1.513113,59.8,0.0,30.0,183.2,15 / 20,3256310,2019-08-09 21:08:25:048,-0.4033,0.1342,9.7465,-0.4271,0.1288,9.7965,-0.001,-0.0005,0.0009
32564,47.16162,-1.513113,59.8,0.0,30.0,183.2,15 / 20,3256411,2019-08-09 21:08:25:149,-0.42,0.1091,9.7596,-0.4246,0.1285,9.7966,0.0003,0.0005,-0.0002
32565,47.16162,-1.513113,59.8,0.0,30.0,183.2,15 / 20,3256510,2019-08-09 21:08:25:248,-0.4344,0.1306,9.7596,-0.4236,0.1253,9.7967,-0.0002,-0.0009,0.0002
32566,47.16162,-1.513113,59.8,0.0,30.0,183.2,15 / 21,3256610,2019-08-09 21:08:25:348,-0.4284,0.1617,9.7417,-0.4239,0.1234,9.7967,0.0,0.0,-0.0028
32567,47.16162,-1.513113,59.8,0.0,30.0,183.2,15 / 21,3256711,2019-08-09 21:08:25:449,-0.4284,0.1737,9.7596,-0.4247,0.1313,9.7966,-0.0051,-0.0162,-0.013
32568,47.16162,-1.513113,59.8,0.0,30.0,183.2,15 / 21,3256810,2019-08-09 21:08:25:548,-0.0429,0.3257,9.4424,-0.4249,0.1362,9.7965,-0.0051,-0.0162,-0.013
32569,47.16162,-1.513113,59.8,0.0,30.0,183.2,15 / 21,3256911,2019-08-09 21:08:25:649,-0.3841,0.0588,9.5549,-0.4204,0.1421,9.7966,-0.0005,-0.0151,-0.0095
32570,47.16162,-1.513113,59.8,0.0,30.0,183.2,15 / 21,3257011,2019-08-09 21:08:25:749,-0.1118,0.3652,9.8315,-0.4267,0.1426,9.7963,0.005,-0.0104,0.0011
32571,47.16162,-1.513113,59.8,0.0,30.0,183.2,15 / 21,3257111,2019-08-09 21:08:25:849,-0.5732,0.3048,9.768,-0.4242,0.1476,9.7964,-0.0023,-0.0004,-0.006
32572,47.16162,-1.513113,59.8,0.0,30.0,183.2,15 / 21,3257211,2019-08-09 21:08:25:949,-0.3871,0.1468,9.7686,-0.4253,0.1484,9.7963,-0.0021,-0.0018,0.0
32573,47.16162,-1.513113,59.8,0.0,30.0,183.2,15 / 21,3257311,2019-08-09 21:08:26:049,-0.4182,-0.0705,9.7351,-0.4227,0.1342,9.7966,0.0013,-0.0022,0.0002
32574,47.16162,-1.513113,59.8,0.0,30.0,183.2,15 / 21,3257410,2019-08-09 21:08:26:148,-0.4434,0.0779,9.7411,-0.421,0.1197,9.7969,0.0021,0.0031,-0.0043
32575,47.16162,-1.513113,59.8,0.0,30.0,183.2,15 / 21,3257510,2019-08-09 21:08:26:248,-0.432,0.2533,9.7285,-0.4213,0.1347,9.7967,0.0007,0.0014,-0.0029
32576,47.16162,-1.513113,59.8,0.0,30.0,183.2,14 / 19,3257610,2019-08-09 21:08:26:348,-0.4356,0.1683,9.7495,-0.4217,0.1457,9.7965,-0.0014,-0.0001,0.0015
32577,47.16162,-1.513113,59.8,0.0,30.0,183.2,14 / 19,3257710,2019-08-09 21:08:26:448,-0.4033,0.0336,9.7291,-0.4199,0.138,9.7967,-0.0011,0.0004,0.0019
32578,47.16162,-1.513113,59.8,0.0,30.0,183.2,14 / 19,3257810,2019-08-09 21:08:26:548,-0.4057,0.0301,9.7554,-0.4202,0.1257,9.7968,0.0001,-0.0003,-0.0004
32579,47.16162,-1.513113,59.8,0.0,30.0,183.2,14 / 19,3257910,2019-08-09 21:08:26:648,-0.4236,0.218,9.7542,-0.4191,0.1194,9.797,0.0018,0.0004,-0.0047
32580,47.16162,-1.513113,59.8,0.0,30.0,183.2,14 / 19,3258010,2019-08-09 21:08:26:748,-0.4314,0.2359,9.7518,-0.4198,0.1309,9.7968,-0.0002,-0.0007,0.0001
32581,47.16162,-1.513113,59.8,0.0,30.0,183.2,14 / 19,3258112,2019-08-09 21:08:26:850,-0.4134,0.127,9.7542,-0.421,0.1391,9.7966,-0.0012,0.0004,0.0029
32582,47.16162,-1.513113,59.8,0.0,30.0,183.2,14 / 19,3258211,2019-08-09 21:08:26:949,-0.414,0.0055,9.7489,-0.4202,0.1316,9.7968,0.0006,-0.0005,-0.0007
32583,47.16162,-1.513113,59.8,0.0,30.0,183.2,14 / 19,3258311,2019-08-09 21:08:27:049,-0.4308,0.1695,9.7459,-0.4186,0.1149,9.797,0.0012,0.0015,-0.0033
32584,47.16162,-1.513113,59.8,0.0,30.0,183.2,14 / 19,3258412,2019-08-09 21:08:27:150,-0.4206,0.2,9.7495,-0.4197,0.1231,9.7969,0.001,-0.0007,-0.0021
32585,47.16162,-1.513113,59.8,0.0,30.0,183.2,14 / 19,3258511,2019-08-09 21:08:27:249,-0.4116,0.1366,9.7483,-0.4202,0.1373,9.7967,-0.0014,-0.0003,0.0011
32586,47.16162,-1.513113,59.8,0.0,30.0,183.2,15 / 20,3258611,2019-08-09 21:08:27:349,-0.4146,0.0534,9.7477,-0.4198,0.132,9.7968,-0.0003,0.0,0.0015
32587,47.16162,-1.513113,59.8,0.0,30.0,183.2,15 / 20,3258711,2019-08-09 21:08:27:449,-0.4128,0.054,9.7435,-0.4185,0.1159,9.797,0.0002,0.0,-0.0006
32588,47.16162,-1.513113,59.8,0.0,30.0,183.2,15 / 20,3258811,2019-08-09 21:08:27:549,-0.4134,0.1797,9.7459,-0.4192,0.1154,9.797,0.0006,0.0006,-0.0029
32589,47.16162,-1.513113,59.8,0.0,30.0,183.2,15 / 20,3258911,2019-08-09 21:08:27:649,-0.4146,0.1623,9.7489,-0.4202,0.1296,9.7968,-0.0016,-0.0004,0.0019
32590,47.16162,-1.513113,59.8,0.0,30.0,183.2,15 / 20,3259010,2019-08-09 21:08:27:748,-0.4164,0.0833,9.7441,-0.42,0.1295,9.7968,-0.0012,0.0,0.0011
32591,47.16162,-1.513113,59.8,0.0,30.0,183.2,15 / 20,3259111,2019-08-09 21:08:27:849,-0.4206,0.06,9.7417,-0.4188,0.1157,9.797,0.0008,0.0007,-0.0006
32592,47.16162,-1.513113,59.8,0.0,30.0,183.2,15 / 20,3259211,2019-08-09 21:08:27:949,-0.4362,0.1528,9.7489,-0.4198,0.1128,9.797,0.0013,0.0005,-0.0024
32593,47.16162,-1.513113,59.8,0.0,30.0,183.2,15 / 20,3259310,2019-08-09 21:08:28:048,-0.4398,0.1719,9.7465,-0.4217,0.1233,9.7968,-0.0003,0.0,-0.0002
32594,47.16162,-1.513113,59.8,0.0,30.0,183.2,15 / 20,3259411,2019-08-09 21:08:28:149,-0.3949,0.127,9.7566,-0.4222,0.1277,9.7967,-0.0006,0.0002,0.0013
32595,47.16162,-1.513113,59.8,0.0,30.0,183.2,15 / 20,3259510,2019-08-09 21:08:28:248,-0.4212,0.0684,9.7387,-0.4214,0.1211,9.7968,-0.0002,-0.0002,0.0005
32596,47.16162,-1.513113,59.8,0.0,30.0,183.2,15 / 20,3259611,2019-08-09 21:08:28:349,-0.4081,0.0947,9.7435,-0.4219,0.1157,9.7969,0.0004,0.0008,-0.001
32597,47.16162,-1.513113,59.8,0.0,30.0,183.2,15 / 20,3259710,2019-08-09 21:08:28:448,-0.42,0.1486,9.7381,-0.4224,0.1154,9.7969,-0.0001,0.0003,-0.002
32598,47.16162,-1.513113,59.8,0.0,30.0,183.2,15 / 20,3259810,2019-08-09 21:08:28:548,-0.4117,0.1707,9.756,-0.4234,0.125,9.7967,0.0,0.0002,0.0008
32599,47.16162,-1.513113,59.8,0.0,30.0,183.2,15 / 20,3259910,2019-08-09 21:08:28:648,-0.4152,0.0935,9.7489,-0.4227,0.1258,9.7967,-0.0004,0.0002,0.0012
32600,47.16162,-1.513113,59.8,0.0,30.0,183.2,15 / 20,3260010,2019-08-09 21:08:28:748,-0.4296,0.0684,9.7381,-0.4214,0.1164,9.7969,0.0004,0.0003,0.0001
32601,47.16162,-1.513113,59.8,0.0,30.0,183.2,15 / 20,3260111,2019-08-09 21:08:28:849,-0.4212,0.1414,9.7477,-0.4213,0.114,9.7969,0.0008,0.0,-0.0014
32602,47.16162,-1.513113,59.8,0.0,30.0,183.2,15 / 20,3260210,2019-08-09 21:08:28:948,-0.4021,0.1545,9.7429,-0.4223,0.1198,9.7968,-0.0002,-0.0001,0.0002
32603,47.16162,-1.513113,59.8,0.0,30.0,183.2,15 / 20,3260310,2019-08-09 21:08:29:048,-0.4188,0.139,9.7477,-0.4215,0.1228,9.7968,-0.0008,0.0003,0.0003
32604,47.16162,-1.513113,59.8,0.0,30.0,183.2,15 / 20,3260411,2019-08-09 21:08:29:149,-0.4021,0.0899,9.7465,-0.4215,0.1198,9.7969,0.0004,0.0005,0.0006
32605,47.16162,-1.513113,59.8,0.0,30.0,183.2,15 / 20,3260510,2019-08-09 21:08:29:248,-0.4308,0.1246,9.7524,-0.4213,0.1161,9.7969,0.0001,-0.0003,-0.0009
32606,47.16162,-1.513113,59.8,0.0,30.0,183.2,15 / 20,3260610,2019-08-09 21:08:29:348,-0.4248,0.1534,9.7417,-0.4209,0.1185,9.7969,0.0006,0.0006,-0.0011
32607,47.16162,-1.513113,59.8,0.0,30.0,183.2,15 / 20,3260710,2019-08-09 21:08:29:448,-0.432,0.1378,9.7465,-0.4215,0.1221,9.7968,-0.0001,-0.0004,-0.0001
32608,47.16162,-1.513113,59.8,0.0,30.0,183.2,15 / 20,3260811,2019-08-09 21:08:29:549,-0.42,0.0983,9.7489,-0.4213,0.1217,9.7968,0.0,-0.0004,0.0003
32609,47.16162,-1.513113,59.8,0.0,30.0,183.2,15 / 20,3260911,2019-08-09 21:08:29:649,-0.4152,0.0887,9.7453,-0.4216,0.1195,9.7969,0.0,0.0,0.0
32610,47.16162,-1.513113,59.8,0.0,30.0,183.2,15 / 20,3261010,2019-08-09 21:08:29:748,-0.4068,0.1318,9.75,-0.4202,0.1162,9.797,0.0,0.0002,-0.001
32611,47.16162,-1.513113,59.8,0.0,30.0,183.2,15 / 20,3261110,2019-08-09 21:08:29:848,-0.4296,0.1354,9.7524,-0.4212,0.1188,9.7969,0.0001,0.0,-0.0001
32612,47.16162,-1.513113,59.8,0.0,30.0,183.2,15 / 20,3261210,2019-08-09 21:08:29:948,-0.432,0.1378,9.7441,-0.4228,0.1222,9.7968,-0.0004,-0.0004,0.0005
32613,47.16162,-1.513113,59.8,0.0,30.0,183.2,15 / 20,3261310,2019-08-09 21:08:30:048,-0.4033,0.0851,9.75,-0.4216,0.1198,9.7968,-0.0008,0.0003,0.0007
32614,47.16162,-1.513113,59.8,0.0,30.0,183.2,15 / 20,3261412,2019-08-09 21:08:30:150,-0.4236,0.121,9.7453,-0.4213,0.1156,9.7969,0.0001,-0.0005,-0.0009
32615,47.16162,-1.513113,59.8,0.0,30.0,183.2,15 / 20,3261511,2019-08-09 21:08:30:249,-0.4152,0.1354,9.7477,-0.4213,0.1177,9.7969,0.0,0.0,-0.0008
32616,47.16162,-1.513113,59.8,0.0,30.0,183.2,14 / 19,3261610,2019-08-09 21:08:30:348,-0.414,0.1198,9.756,-0.4213,0.1212,9.7968,0.0003,-0.0003,0.0006
32617,47.16162,-1.513113,59.8,0.0,30.0,183.2,14 / 19,3261710,2019-08-09 21:08:30:448,-0.4164,0.0803,9.7465,-0.4214,0.12,9.7969,-0.0006,-0.0001,0.0014
32618,47.16162,-1.513113,59.8,0.0,30.0,183.2,14 / 19,3261811,2019-08-09 21:08:30:549,-0.4164,0.0911,9.7441,-0.4206,0.1133,9.797,0.0003,0.0,-0.0011
32619,47.16162,-1.513113,59.8,0.0,30.0,183.2,14 / 19,3261911,2019-08-09 21:08:30:649,-0.4272,0.1438,9.7453,-0.4225,0.1156,9.7969,-0.0003,0.0,-0.0007
32620,47.16162,-1.513113,59.8,0.0,30.0,183.2,14 / 19,3262010,2019-08-09 21:08:30:748,-0.4057,0.1294,9.7405,-0.4206,0.1209,9.7969,-0.0005,-0.0002,0.0009
32621,47.16162,-1.513113,59.8,0.0,30.0,183.2,14 / 19,3262110,2019-08-09 21:08:30:848,-0.4344,0.0875,9.7477,-0.4221,0.1181,9.7969,-0.0006,-0.0003,0.0005
32622,47.16162,-1.513113,59.8,0.0,30.0,183.2,14 / 19,3262210,2019-08-09 21:08:30:948,-0.4021,0.1091,9.75,-0.4217,0.114,9.7969,-0.0001,-0.0003,-0.0015
32623,47.16162,-1.513113,59.8,0.0,30.0,183.2,14 / 19,3262310,2019-08-09 21:08:31:048,-0.3949,0.1378,9.7477,-0.4182,0.1152,9.7971,-0.0002,-0.0003,-0.0005
32624,47.16162,-1.513113,59.8,0.0,30.0,183.2,14 / 19,3262411,2019-08-09 21:08:31:149,-0.4296,0.1258,9.75,-0.4182,0.1196,9.797,0.0,-0.0007,0.0007
32625,47.16162,-1.513113,59.8,0.0,30.0,183.2,14 / 19,3262510,2019-08-09 21:08:31:248,-0.444,0.0995,9.7453,-0.4208,0.1202,9.7969,0.0002,-0.001,0.0006
32626,47.16162,-1.513113,59.8,0.0,30.0,183.2,16 / 21,3262610,2019-08-09 21:08:31:348,-0.4188,0.0863,9.7548,-0.4207,0.1137,9.797,0.0,0.0008,-0.0005
32627,47.16162,-1.513113,59.8,0.0,30.0,183.2,16 / 21,3262710,2019-08-09 21:08:31:448,-0.4176,0.1354,9.7632,-0.42,0.114,9.797,0.0003,0.0007,-0.0014
32628,47.16162,-1.513113,59.8,0.0,30.0,183.2,16 / 21,3262811,2019-08-09 21:08:31:549,-0.4452,0.1629,9.7285,-0.4203,0.1213,9.7969,-0.0009,-0.0004,0.0011
32629,47.16162,-1.513113,59.8,0.0,30.0,183.2,16 / 21,3262910,2019-08-09 21:08:31:648,-0.4224,0.0911,9.7333,-0.4211,0.1228,9.7968,-0.0002,0.0002,0.0024
32630,47.16162,-1.513113,59.8,0.0,30.0,183.2,16 / 21,3263010,2019-08-09 21:08:31:748,-0.3973,0.1067,9.7656,-0.4231,0.1189,9.7968,-0.0011,-0.0004,-0.0004
32631,47.16162,-1.513113,59.8,0.0,30.0,183.2,16 / 21,3263112,2019-08-09 21:08:31:850,-0.4033,0.1067,9.7297,-0.4192,0.1149,9.797,0.0005,-0.0012,-0.0005
32632,47.16162,-1.513113,59.8,0.0,30.0,183.2,16 / 21,3263211,2019-08-09 21:08:31:949,-0.4236,0.1414,9.756,-0.4203,0.1161,9.797,0.0,0.0004,-0.0002
32633,47.16162,-1.513113,59.8,0.0,30.0,183.2,16 / 21,3263310,2019-08-09 21:08:32:048,-0.4164,0.127,9.7489,-0.4232,0.1199,9.7968,-0.0001,-0.0006,0.0
32634,47.16162,-1.513113,59.8,0.0,30.0,183.2,16 / 21,3263410,2019-08-09 21:08:32:148,-0.4092,0.1102,9.7405,-0.4219,0.1197,9.7968,-0.0001,-0.0004,0.0013
32635,47.16162,-1.513113,59.8,0.0,30.0,183.2,16 / 21,3263511,2019-08-09 21:08:32:249,-0.4104,0.1138,9.7513,-0.4194,0.1143,9.797,0.0007,0.0009,-0.0002
32636,47.16162,-1.513113,59.8,0.0,30.0,183.2,14 / 20,3263611,2019-08-09 21:08:32:349,-0.4128,0.1318,9.7357,-0.42,0.1155,9.797,0.0003,-0.0015,-0.0005
32637,47.16162,-1.513113,59.8,0.0,30.0,183.2,14 / 20,3263710,2019-08-09 21:08:32:448,-0.4332,0.1354,9.7429,-0.4207,0.1192,9.7969,0.0003,-0.0002,-0.0007
32638,47.16162,-1.513113,59.8,0.0,30.0,183.2,14 / 20,3263810,2019-08-09 21:08:32:548,-0.4212,0.0959,9.7584,-0.421,0.1213,9.7969,-0.0005,-0.0003,0.001
32639,47.16162,-1.513113,59.8,0.0,30.0,183.2,14 / 20,3263910,2019-08-09 21:08:32:648,-0.4057,0.1007,9.7381,-0.42,0.1181,9.7969,-0.0002,-0.0006,0.0006
32640,47.16162,-1.513113,59.8,0.0,30.0,183.2,14 / 20,3264011,2019-08-09 21:08:32:749,-0.4296,0.0935,9.75,-0.4198,0.117,9.797,0.0009,0.0013,-0.0004
32641,47.16162,-1.513113,59.8,0.0,30.0,183.2,14 / 20,3264112,2019-08-09 21:08:32:850,-0.414,0.1521,9.7536,-0.422,0.1187,9.7968,-0.0005,-0.0008,0.0005
32642,47.16162,-1.513113,59.8,0.0,30.0,183.2,14 / 20,3264211,2019-08-09 21:08:32:949,-0.4248,0.1079,9.7345,-0.4206,0.1204,9.7969,-0.0011,-0.0001,0.0008
32643,47.16162,-1.513113,59.8,0.0,30.0,183.2,14 / 20,3264311,2019-08-09 21:08:33:049,-0.4188,0.1162,9.7405,-0.4219,0.1195,9.7968,0.0002,-0.0002,0.0006
32644,47.16162,-1.513113,59.8,0.0,30.0,183.2,14 / 20,3264412,2019-08-09 21:08:33:150,-0.414,0.121,9.7441,-0.4228,0.1162,9.7968,0.0002,0.0002,-0.0001
32645,47.16162,-1.513113,59.8,0.0,30.0,183.2,14 / 20,3264512,2019-08-09 21:08:33:250,-0.4164,0.1186,9.7381,-0.4209,0.1178,9.7969,-0.0001,-0.0006,-0.0011
32646,47.16162,-1.513113,59.8,0.0,30.0,183.2,14 / 20,3264610,2019-08-09 21:08:33:348,-0.426,0.1354,9.7489,-0.4212,0.1193,9.7969,0.0,0.0009,-0.0003
32647,47.16162,-1.513113,59.8,0.0,30.0,183.2,14 / 20,3264710,2019-08-09 21:08:33:448,-0.4176,0.0971,9.7225,-0.4212,0.1203,9.7969,-0.0008,-0.0004,0.0013
32648,47.16162,-1.513113,59.8,0.0,30.0,183.2,14 / 20,3264810,2019-08-09 21:08:33:548,-0.4236,0.1055,9.7465,-0.4213,0.1172,9.7969,-0.0004,-0.0002,-0.0007
32649,47.16162,-1.513113,59.8,0.0,30.0,183.2,14 / 20,3264910,2019-08-09 21:08:33:648,-0.432,0.0995,9.75,-0.4214,0.114,9.7969,0.0006,-0.0002,0.0
32650,47.16162,-1.513113,59.8,0.0,30.0,183.2,14 / 20,3265012,2019-08-09 21:08:33:750,-0.438,0.1462,9.7417,-0.4216,0.1157,9.7969,-0.0001,-0.0001,0.0009
32651,47.16162,-1.513113,59.8,0.0,30.0,183.2,14 / 20,3265111,2019-08-09 21:08:33:849,-0.4272,0.1222,9.7369,-0.4238,0.1178,9.7968,-0.0002,0.0005,0.0011
32652,47.16162,-1.513113,59.8,0.0,30.0,183.2,14 / 20,3265210,2019-08-09 21:08:33:948,-0.4188,0.1138,9.7596,-0.4241,0.1176,9.7968,0.0006,-0.0002,0.0009
32653,47.16162,-1.513113,59.8,0.0,30.0,183.2,14 / 20,3265310,2019-08-09 21:08:34:048,-0.432,0.115,9.7405,-0.4234,0.1143,9.7968,0.0004,0.0004,-0.0006
32654,47.16162,-1.513113,59.8,0.0,30.0,183.2,14 / 20,3265413,2019-08-09 21:08:34:151,-0.4248,0.127,9.75,-0.4241,0.1152,9.7968,0.0001,0.0008,-0.0007
32655,47.16162,-1.513113,59.8,0.0,30.0,183.2,14 / 20,3265511,2019-08-09 21:08:34:249,-0.4236,0.1318,9.756,-0.4242,0.1179,9.7968,0.0003,0.0003,0.0002
32656,47.16162,-1.513113,59.8,0.0,30.0,183.2,Dec-18,3265611,2019-08-09 21:08:34:349,-0.4308,0.1102,9.7513,-0.4241,0.1175,9.7968,-0.0003,-0.0003,-0.0002
32657,47.16162,-1.513113,59.8,0.0,30.0,183.2,Dec-18,3265710,2019-08-09 21:08:34:448,-0.4248,0.1162,9.7572,-0.4251,0.1161,9.7967,0.0005,0.0001,0.0001
32658,47.16162,-1.513113,59.8,0.0,30.0,183.2,Dec-18,3265810,2019-08-09 21:08:34:548,-0.4116,0.1067,9.7381,-0.4246,0.1165,9.7968,-0.0001,-0.0004,-0.0004
32659,47.16162,-1.513113,59.8,0.0,30.0,183.2,Dec-18,3265910,2019-08-09 21:08:34:648,-0.4212,0.1174,9.7513,-0.4238,0.1166,9.7968,0.0002,-0.0001,0.0005
32660,47.16162,-1.513113,59.8,0.0,30.0,183.2,Dec-18,3266010,2019-08-09 21:08:34:748,-0.42,0.1174,9.7345,-0.4234,0.1167,9.7968,0.0002,-0.0002,0.0002
32661,47.16162,-1.513113,59.8,0.0,30.0,183.2,Dec-18,3266111,2019-08-09 21:08:34:849,-0.42,0.1282,9.7429,-0.4239,0.1174,9.7968,-0.0001,-0.0001,0.0007
32662,47.16162,-1.513113,59.8,0.0,30.0,183.2,Dec-18,3266212,2019-08-09 21:08:34:950,-0.4188,0.1126,9.7536,-0.4237,0.1177,9.7968,-0.0002,-0.0002,0.0001
32663,47.16162,-1.513113,59.8,0.0,30.0,183.2,Dec-18,3266311,2019-08-09 21:08:35:049,-0.426,0.1115,9.7477,-0.4252,0.1167,9.7967,-0.0002,-0.0002,0.0001
32664,47.16162,-1.513113,59.8,0.0,30.0,183.2,Dec-18,3266410,2019-08-09 21:08:35:148,-0.4128,0.1246,9.7417,-0.4255,0.117,9.7967,0.0008,0.0004,0.0
32665,47.16162,-1.513113,59.8,0.0,30.0,183.2,Dec-18,3266510,2019-08-09 21:08:35:248,-0.4212,0.1234,9.7417,-0.425,0.1186,9.7967,0.0002,0.0001,-0.0001
32666,47.16162,-1.513113,59.8,0.0,30.0,183.2,15 / 21,3266610,2019-08-09 21:08:35:348,-0.4176,0.1162,9.7417,-0.4245,0.1192,9.7967,-0.0002,0.0001,0.0003
32667,47.16162,-1.513113,59.8,0.0,30.0,183.2,15 / 21,3266711,2019-08-09 21:08:35:449,-0.4404,0.0995,9.7333,-0.4233,0.1185,9.7968,0.0001,-0.0009,0.0002
32668,47.16162,-1.513113,59.8,0.0,30.0,183.2,15 / 21,3266810,2019-08-09 21:08:35:548,-0.4236,0.1174,9.7453,-0.4234,0.1171,9.7968,0.0001,-0.0004,0.0002
32669,47.16162,-1.513113,59.8,0.0,30.0,183.2,15 / 21,3266910,2019-08-09 21:08:35:648,-0.4152,0.1174,9.7524,-0.4235,0.1176,9.7968,0.0005,-0.0007,-0.0001
32670,47.16162,-1.513113,59.8,0.0,30.0,183.2,15 / 21,3267010,2019-08-09 21:08:35:748,-0.432,0.121,9.7513,-0.4231,0.1193,9.7968,0.0,0.0,0.0004
32671,47.16162,-1.513113,59.8,0.0,30.0,183.2,15 / 21,3267112,2019-08-09 21:08:35:850,-0.4128,0.0995,9.7369,-0.4225,0.1195,9.7968,0.0,-0.0003,0.0001
32672,47.16162,-1.513113,59.8,0.0,30.0,183.2,15 / 21,3267210,2019-08-09 21:08:35:948,-0.4176,0.1174,9.7405,-0.4225,0.118,9.7968,-0.0002,-0.0005,-0.0002
32673,47.16162,-1.513113,59.8,0.0,30.0,183.2,15 / 21,3267311,2019-08-09 21:08:36:049,-0.4104,0.1186,9.7524,-0.4222,0.119,9.7968,0.0005,0.0004,0.0001
32674,47.16162,-1.513113,59.8,0.0,30.0,183.2,15 / 21,3267411,2019-08-09 21:08:36:149,-0.4224,0.1246,9.7417,-0.4219,0.1203,9.7968,-0.0002,0.0004,0.0005
32675,47.16162,-1.513113,59.8,0.0,30.0,183.2,15 / 21,3267510,2019-08-09 21:08:36:248,-0.4152,0.1198,9.7465,-0.4222,0.1197,9.7968,0.0001,0.0004,-0.0007
32676,47.16162,-1.513113,59.8,0.0,30.0,183.2,15 / 21,3267610,2019-08-09 21:08:36:348,-0.4081,0.1067,9.7524,-0.4218,0.1187,9.7969,0.0002,-0.0002,0.0
32677,47.16162,-1.513113,59.8,0.0,30.0,183.2,15 / 21,3267710,2019-08-09 21:08:36:448,-0.42,0.121,9.7357,-0.4226,0.1189,9.7968,0.0001,0.0001,-0.0005
32678,47.16162,-1.513113,59.8,0.0,30.0,183.2,15 / 21,3267811,2019-08-09 21:08:36:549,-0.4272,0.1186,9.7548,-0.4231,0.1204,9.7968,-0.0002,-0.0002,-0.0004
32679,47.16162,-1.513113,59.8,0.0,30.0,183.2,15 / 21,3267910,2019-08-09 21:08:36:648,-0.4128,0.1198,9.7465,-0.4231,0.1206,9.7968,-0.0002,-0.0006,0.0002
32680,47.16162,-1.513113,59.8,0.0,30.0,183.2,15 / 21,3268011,2019-08-09 21:08:36:749,-0.4176,0.121,9.7453,-0.4224,0.12,9.7968,0.0,0.0004,0.0002
32681,47.16162,-1.513113,59.8,0.0,30.0,183.2,15 / 21,3268112,2019-08-09 21:08:36:850,-0.4296,0.1079,9.7417,-0.4228,0.1198,9.7968,-0.0002,-0.0006,-0.0008
32682,47.16162,-1.513113,59.8,0.0,30.0,183.2,15 / 21,3268210,2019-08-09 21:08:36:948,-0.432,0.1246,9.7441,-0.4239,0.1202,9.7967,0.0,-0.0007,-0.0004
32683,47.16162,-1.513113,59.8,0.0,30.0,183.2,15 / 21,3268310,2019-08-09 21:08:37:048,-0.4212,0.115,9.7572,-0.4244,0.1195,9.7967,-0.0001,0.0003,-0.0004
32684,47.16162,-1.513113,59.8,0.0,30.0,183.2,15 / 21,3268411,2019-08-09 21:08:37:149,-0.3997,0.1091,9.7489,-0.424,0.1196,9.7968,0.0001,-0.0003,0.0001
32685,47.16162,-1.513113,59.8,0.0,30.0,183.2,15 / 21,3268510,2019-08-09 21:08:37:248,-0.4152,0.1282,9.7465,-0.4234,0.119,9.7968,-0.0002,-0.0006,0.0001
32686,47.16162,-1.513113,59.8,0.0,30.0,183.2,15 / 20,3268611,2019-08-09 21:08:37:349,-0.414,0.127,9.75,-0.4212,0.1186,9.7969,-0.0001,-0.0002,0.0004
32687,47.16162,-1.513113,59.8,0.0,30.0,183.2,15 / 20,3268710,2019-08-09 21:08:37:448,-0.426,0.1354,9.7345,-0.4217,0.1188,9.7969,0.0003,0.0,-0.0008
32688,47.16162,-1.513113,59.8,0.0,30.0,183.2,15 / 20,3268810,2019-08-09 21:08:37:548,-0.426,0.0995,9.7429,-0.4219,0.1185,9.7969,0.0002,-0.0004,0.0005
32689,47.16162,-1.513113,59.8,0.0,30.0,183.2,15 / 20,3268911,2019-08-09 21:08:37:649,-0.4332,0.0995,9.7453,-0.4216,0.118,9.7969,0.0,-0.0002,0.0001
32690,47.16162,-1.513113,59.8,0.0,30.0,183.2,15 / 20,3269010,2019-08-09 21:08:37:748,-0.4188,0.1282,9.7429,-0.4223,0.1166,9.7969,-0.0001,-0.0005,0.0001
32691,47.16162,-1.513113,59.8,0.0,30.0,183.2,15 / 20,3269110,2019-08-09 21:08:37:848,-0.4188,0.1258,9.7429,-0.422,0.1178,9.7969,-0.0003,0.0005,0.0005
32692,47.16162,-1.513113,59.8,0.0,30.0,183.2,15 / 20,3269211,2019-08-09 21:08:37:949,-0.4308,0.1186,9.75,-0.4225,0.1182,9.7968,0.0001,0.0002,0.0004
32693,47.16162,-1.513113,59.8,0.0,30.0,183.2,15 / 20,3269311,2019-08-09 21:08:38:049,-0.4236,0.1174,9.7333,-0.4216,0.1185,9.7969,0.0,0.0004,0.0
32694,47.16162,-1.513113,59.8,0.0,30.0,183.2,15 / 20,3269411,2019-08-09 21:08:38:149,-0.414,0.1115,9.7393,-0.421,0.1168,9.7969,0.0,0.0003,-0.0001
32695,47.16162,-1.513113,59.8,0.0,30.0,183.2,15 / 20,3269512,2019-08-09 21:08:38:250,-0.4284,0.127,9.7536,-0.4218,0.1171,9.7969,0.0004,-0.0004,-0.0001
32696,47.16162,-1.513113,59.8,0.0,30.0,183.2,15 / 20,3269610,2019-08-09 21:08:38:348,-0.4248,0.1102,9.7513,-0.4231,0.1174,9.7968,-0.0003,0.0003,0.0001
32697,47.16162,-1.513113,59.8,0.0,30.0,183.2,15 / 20,3269710,2019-08-09 21:08:38:448,-0.4152,0.1126,9.7548,-0.4222,0.1174,9.7969,0.0006,-0.0001,0.0006
32698,47.16162,-1.513113,59.8,0.0,30.0,183.2,15 / 20,3269810,2019-08-09 21:08:38:548,-0.4332,0.1067,9.7465,-0.4235,0.1162,9.7968,0.0002,-0.0003,0.0
32699,47.16162,-1.513113,59.8,0.0,30.0,183.2,15 / 20,3269912,2019-08-09 21:08:38:650,-0.4296,0.1402,9.7513,-0.4245,0.1154,9.7968,0.0004,0.0004,-0.0007
32700,47.16162,-1.513113,59.8,0.0,30.0,183.2,15 / 20,3270011,2019-08-09 21:08:38:749,-0.426,0.121,9.7441,-0.4249,0.118,9.7967,0.0003,-0.0003,0.0001
32701,47.16162,-1.513113,59.8,0.0,30.0,183.2,15 / 20,3270111,2019-08-09 21:08:38:849,-0.4272,0.115,9.7429,-0.4245,0.1178,9.7967,-0.0001,-0.0002,0.0002
32702,47.16162,-1.513113,59.8,0.0,30.0,183.2,15 / 20,3270210,2019-08-09 21:08:38:948,-0.4045,0.1091,9.7572,-0.4256,0.1179,9.7967,0.0002,0.0002,0.0002
32703,47.16162,-1.513113,59.8,0.0,30.0,183.2,15 / 20,3270310,2019-08-09 21:08:39:048,-0.4284,0.1198,9.7572,-0.4247,0.117,9.7968,0.0002,0.0002,0.0001
32704,47.16162,-1.513113,59.8,0.0,30.0,183.2,15 / 20,3270410,2019-08-09 21:08:39:148,-0.4224,0.1222,9.7572,-0.4245,0.1166,9.7968,-0.0001,0.0,-0.0004
32705,47.16162,-1.513113,59.8,0.0,30.0,183.2,15 / 20,3270510,2019-08-09 21:08:39:248,-0.4224,0.1246,9.7345,-0.4244,0.1182,9.7967,0.0003,0.0003,0.0002
32706,47.16162,-1.513113,59.8,0.0,30.0,183.2,15 / 21,3270610,2019-08-09 21:08:39:348,-0.4116,0.1126,9.7477,-0.4251,0.1183,9.7967,-0.0007,0.0004,-0.0004
32707,47.16162,-1.513113,59.8,0.0,30.0,183.2,15 / 21,3270710,2019-08-09 21:08:39:448,-0.4236,0.115,9.756,-0.4249,0.1175,9.7967,0.0001,-0.0003,0.0001
32708,47.16162,-1.513113,59.8,0.0,30.0,183.2,15 / 21,3270810,2019-08-09 21:08:39:548,-0.4224,0.121,9.7477,-0.4247,0.118,9.7967,0.0,0.0003,-0.0002
32709,47.16162,-1.513113,59.8,0.0,30.0,183.2,15 / 21,3270910,2019-08-09 21:08:39:648,-0.4081,0.1234,9.7441,-0.4261,0.1184,9.7967,-0.0004,-0.0009,-0.0006
32710,47.16162,-1.513113,59.8,0.0,30.0,183.2,15 / 21,3271011,2019-08-09 21:08:39:749,-0.4212,0.1198,9.7656,-0.4244,0.119,9.7967,0.0004,-0.0009,-0.0002
32711,47.16162,-1.513113,59.8,0.0,30.0,183.2,15 / 21,3271111,2019-08-09 21:08:39:849,-0.4164,0.121,9.7453,-0.4237,0.1193,9.7968,-0.0007,-0.0002,-0.0001
32712,47.16162,-1.513113,59.8,0.0,30.0,183.2,15 / 21,3271210,2019-08-09 21:08:39:948,-0.4284,0.1138,9.7548,-0.423,0.1182,9.7968,-0.0002,0.0,-0.0002
32713,47.16162,-1.513113,59.8,0.0,30.0,183.2,15 / 21,3271310,2019-08-09 21:08:40:048,-0.4224,0.1234,9.7453,-0.4228,0.1174,9.7968,-0.0007,-0.0002,0.0003
32714,47.16162,-1.513113,59.8,0.0,30.0,183.2,15 / 21,3271410,2019-08-09 21:08:40:148,-0.4164,0.1198,9.7429,-0.422,0.1177,9.7969,0.0001,-0.0002,-0.0003
32715,47.16162,-1.513113,59.8,0.0,30.0,183.2,15 / 21,3271511,2019-08-09 21:08:40:249,-0.414,0.115,9.7393,-0.4228,0.1181,9.7968,0.0002,-0.0001,-0.0001
32716,47.16162,-1.513113,59.8,0.0,30.0,183.2,15 / 20,3271611,2019-08-09 21:08:40:349,-0.4212,0.1115,9.756,-0.4232,0.1179,9.7968,-0.0004,-0.0002,0.0
32717,47.16162,-1.513113,59.8,0.0,30.0,183.2,15 / 20,3271711,2019-08-09 21:08:40:449,-0.4248,0.1222,9.7393,-0.423,0.1182,9.7968,-0.0002,-0.0001,0.0004
32718,47.16162,-1.513113,59.8,0.0,30.0,183.2,15 / 20,3271810,2019-08-09 21:08:40:548,-0.4224,0.1102,9.75,-0.4236,0.1197,9.7968,0.0003,-0.0002,0.0004
32719,47.16162,-1.513113,59.8,0.0,30.0,183.2,15 / 20,3271910,2019-08-09 21:08:40:648,-0.414,0.1067,9.7465,-0.4232,0.1177,9.7968,-0.0002,0.0004,-0.0002
32720,47.16162,-1.513113,59.8,0.0,30.0,183.2,15 / 20,3272010,2019-08-09 21:08:40:748,-0.4212,0.1174,9.7441,-0.4232,0.1177,9.7968,0.0,-0.0004,-0.0002
32721,47.16162,-1.513113,59.8,0.0,30.0,183.2,15 / 20,3272111,2019-08-09 21:08:40:849,-0.414,0.1222,9.7453,-0.4212,0.118,9.7969,-0.0003,0.0004,0.0004
32722,47.16162,-1.513113,59.8,0.0,30.0,183.2,15 / 20,3272210,2019-08-09 21:08:40:948,-0.4188,0.1138,9.7513,-0.4216,0.1179,9.7969,-0.0005,-0.0002,0.0002
32723,47.16162,-1.513113,59.8,0.0,30.0,183.2,15 / 20,3272311,2019-08-09 21:08:41:049,-0.42,0.1138,9.7417,-0.4211,0.1168,9.7969,-0.0004,-0.0001,0.0004
32724,47.16162,-1.513113,59.8,0.0,30.0,183.2,15 / 20,3272411,2019-08-09 21:08:41:149,-0.4128,0.0983,9.7536,-0.4205,0.1169,9.7969,0.0002,-0.0003,0.0002
32725,47.16162,-1.513113,59.8,0.0,30.0,183.2,15 / 20,3272512,2019-08-09 21:08:41:250,-0.4272,0.1222,9.75,-0.4207,0.1169,9.7969,0.0,0.0003,0.0006
32726,47.16162,-1.513113,59.8,0.0,30.0,183.2,16 / 21,3272610,2019-08-09 21:08:41:348,-0.4152,0.1198,9.7524,-0.4209,0.1166,9.7969,-0.0002,-0.0002,-0.0001
32727,47.16162,-1.513113,59.8,0.0,30.0,183.2,16 / 21,3272710,2019-08-09 21:08:41:448,-0.4248,0.1079,9.7477,-0.4207,0.1164,9.7969,0.0004,-0.0002,-0.0005
32728,47.16162,-1.513113,59.8,0.0,30.0,183.2,16 / 21,3272810,2019-08-09 21:08:41:548,-0.4116,0.1198,9.7393,-0.4217,0.1164,9.7969,0.0,-0.0006,-0.0003
32729,47.16162,-1.513113,59.8,0.0,30.0,183.2,16 / 21,3272910,2019-08-09 21:08:41:648,-0.414,0.115,9.75,-0.4202,0.1161,9.797,0.0002,-0.0002,-0.0004
32730,47.16162,-1.513113,59.8,0.0,30.0,183.2,16 / 21,3273011,2019-08-09 21:08:41:749,-0.4188,0.1198,9.7608,-0.4205,0.1171,9.7969,-0.0002,0.0004,0.0002
32731,47.16162,-1.513113,59.8,0.0,30.0,183.2,16 / 21,3273111,2019-08-09 21:08:41:849,-0.4188,0.121,9.7465,-0.4212,0.1174,9.7969,0.0002,0.0001,0.0002
32732,47.16162,-1.513113,59.8,0.0,30.0,183.2,16 / 21,3273212,2019-08-09 21:08:41:950,-0.4296,0.1102,9.75,-0.4212,0.1176,9.7969,-0.0001,-0.0006,0.0002
32733,47.16162,-1.513113,59.8,0.0,30.0,183.2,16 / 21,3273311,2019-08-09 21:08:42:049,-0.4284,0.1282,9.7441,-0.421,0.1173,9.7969,-0.0001,0.0,-0.0001
32734,47.16162,-1.513113,59.8,0.0,30.0,183.2,16 / 21,3273411,2019-08-09 21:08:42:149,-0.4248,0.1091,9.7524,-0.4215,0.1175,9.7969,0.0006,0.0003,0.0002
32735,47.16162,-1.513113,59.8,0.0,30.0,183.2,16 / 21,3273511,2019-08-09 21:08:42:249,-0.4188,0.115,9.7489,-0.421,0.1175,9.7969,-0.0008,-0.0002,0.0004
32736,47.16162,-1.513113,59.8,0.0,30.0,183.2,15 / 20,3273610,2019-08-09 21:08:42:348,-0.4164,0.1067,9.7524,-0.4223,0.1169,9.7969,-0.0001,-0.0001,0.0002
32737,47.16162,-1.513113,59.8,0.0,30.0,183.2,15 / 20,3273710,2019-08-09 21:08:42:448,-0.4068,0.1162,9.7548,-0.4227,0.1154,9.7969,-0.0007,-0.0005,-0.0006
32738,47.16162,-1.513113,59.8,0.0,30.0,183.2,15 / 20,3273811,2019-08-09 21:08:42:549,-0.4224,0.1115,9.7453,-0.4228,0.1162,9.7968,-0.0002,-0.0003,0.0009
32739,47.16162,-1.513113,59.8,0.0,30.0,183.2,15 / 20,3273911,2019-08-09 21:08:42:649,-0.432,0.1318,9.7477,-0.4229,0.1169,9.7968,-0.0001,-0.0002,0.0011
32740,47.16162,-1.513113,59.8,0.0,30.0,183.2,15 / 20,3274010,2019-08-09 21:08:42:748,-0.4236,0.1115,9.7465,-0.4223,0.1173,9.7969,-0.0007,0.0006,-0.0003
32741,47.16162,-1.513113,59.8,0.0,30.0,183.2,15 / 20,3274111,2019-08-09 21:08:42:849,-0.4224,0.1102,9.7441,-0.4234,0.1173,9.7968,0.0002,-0.0002,0.0002
32742,47.16162,-1.513113,59.8,0.0,30.0,183.2,15 / 20,3274212,2019-08-09 21:08:42:950,-0.4296,0.1174,9.7572,-0.4219,0.1163,9.7969,-0.0002,-0.0004,-0.0001
32743,47.16162,-1.513113,59.8,0.0,30.0,183.2,15 / 20,3274311,2019-08-09 21:08:43:049,-0.4104,0.1186,9.7513,-0.4223,0.117,9.7969,0.0002,0.0002,0.0002
32744,47.16162,-1.513113,59.8,0.0,30.0,183.2,15 / 20,3274410,2019-08-09 21:08:43:148,-0.4104,0.1174,9.7429,-0.421,0.1168,9.7969,-0.0007,0.0,0.0002
32745,47.16162,-1.513113,59.8,0.0,30.0,183.2,15 / 20,3274510,2019-08-09 21:08:43:248,-0.4344,0.1067,9.7465,-0.4215,0.1165,9.7969,0.0,-0.0005,-0.0005
32746,47.16162,-1.513113,59.8,0.0,30.0,183.2,15 / 21,3274610,2019-08-09 21:08:43:348,-0.4128,0.1055,9.7477,-0.4235,0.1154,9.7968,-0.0004,0.0001,0.0005
32747,47.16162,-1.513113,59.8,0.0,30.0,183.2,15 / 21,3274710,2019-08-09 21:08:43:448,-0.4128,0.1162,9.7453,-0.4231,0.115,9.7968,0.0002,-0.0002,-0.0003
32748,47.16162,-1.513113,59.8,0.0,30.0,183.2,15 / 21,3274810,2019-08-09 21:08:43:548,-0.4224,0.1091,9.7429,-0.4232,0.1161,9.7968,-0.0005,-0.0002,-0.0001
32749,47.16162,-1.513113,59.8,0.0,30.0,183.2,15 / 21,3274911,2019-08-09 21:08:43:649,-0.4308,0.1138,9.7572,-0.4226,0.1149,9.7969,0.0003,0.0,-0.0004
32750,47.16162,-1.513113,59.8,0.0,30.0,183.2,15 / 21,3275010,2019-08-09 21:08:43:748,-0.4368,0.115,9.7333,-0.4237,0.1151,9.7968,-0.0002,-0.0005,0.0009
32751,47.16162,-1.513113,59.8,0.0,30.0,183.2,15 / 21,3275111,2019-08-09 21:08:43:849,-0.4176,0.1366,9.7441,-0.4242,0.1154,9.7968,0.0,0.0002,-0.0005
32752,47.16162,-1.513113,59.8,0.0,30.0,183.2,15 / 21,3275210,2019-08-09 21:08:43:948,-0.4104,0.1138,9.7405,-0.424,0.1177,9.7968,0.0002,0.0,-0.0001
32753,47.16162,-1.513113,59.8,0.0,30.0,183.2,15 / 21,3275311,2019-08-09 21:08:44:049,-0.4152,0.1031,9.7393,-0.4227,0.1172,9.7968,-0.0005,0.0005,0.0002
32754,47.16162,-1.513113,59.8,0.0,30.0,183.2,15 / 21,3275410,2019-08-09 21:08:44:148,-0.4164,0.1115,9.7477,-0.4226,0.116,9.7969,-0.0004,-0.0001,0.0
32755,47.16162,-1.513113,59.8,0.0,30.0,183.2,15 / 21,3275510,2019-08-09 21:08:44:248,-0.4296,0.1138,9.762,-0.4224,0.1156,9.7969,0.0002,0.0001,-0.0009
32756,47.16162,-1.513113,59.8,0.0,30.0,183.2,15 / 21,3275611,2019-08-09 21:08:44:349,-0.4164,0.1138,9.7345,-0.4225,0.116,9.7969,0.0005,0.0006,0.0004
32757,47.16162,-1.513113,59.8,0.0,30.0,183.2,15 / 21,3275710,2019-08-09 21:08:44:448,-0.4045,0.1138,9.7548,-0.4234,0.1154,9.7968,0.0001,0.0012,0.0004
32758,47.16162,-1.513113,59.8,0.0,30.0,183.2,15 / 21,3275811,2019-08-09 21:08:44:549,-0.432,0.1079,9.7357,-0.4237,0.1158,9.7968,0.0002,0.0006,-0.0003
32759,47.16162,-1.513113,59.8,0.0,30.0,183.2,15 / 21,3275910,2019-08-09 21:08:44:648,-0.4224,0.1043,9.7513,-0.4225,0.115,9.7969,0.0004,-0.0006,-0.0007
32760,47.16162,-1.513113,59.8,0.0,30.0,183.2,15 / 21,3276011,2019-08-09 21:08:44:749,-0.4224,0.1102,9.7417,-0.4228,0.1157,9.7968,0.0004,0.0001,0.0003
32761,47.16162,-1.513113,59.8,0.0,30.0,183.2,15 / 21,3276110,2019-08-09 21:08:44:848,-0.4344,0.1258,9.7596,-0.4227,0.1167,9.7968,0.0,0.0006,-0.0004
32762,47.16162,-1.513113,59.8,0.0,30.0,183.2,15 / 21,3276212,2019-08-09 21:08:44:950,-0.4057,0.1055,9.75,-0.4224,0.1157,9.7969,0.0012,0.0002,-0.0003
32763,47.16162,-1.513113,59.8,0.0,30.0,183.2,15 / 21,3276310,2019-08-09 21:08:45:048,-0.42,0.1067,9.7453,-0.4235,0.1162,9.7968,-0.0004,-0.0006,-0.0002
32764,47.16162,-1.513113,59.8,0.0,30.0,183.2,15 / 21,3276410,2019-08-09 21:08:45:148,-0.4116,0.1162,9.7441,-0.423,0.1153,9.7968,0.0006,0.0006,-0.001
32765,47.16162,-1.513113,59.8,0.0,30.0,183.2,15 / 21,3276511,2019-08-09 21:08:45:249,-0.4152,0.1318,9.7381,-0.4236,0.1174,9.7968,-0.0003,-0.0005,-0.0004
32766,47.16162,-1.513113,59.8,0.0,30.0,183.2,15 / 21,3276610,2019-08-09 21:08:45:348,-0.4188,0.1031,9.7513,-0.4236,0.1161,9.7968,0.0002,0.0004,-0.0002
32767,47.16162,-1.513113,59.8,0.0,30.0,183.2,15 / 21,3276710,2019-08-09 21:08:45:448,-0.4284,0.1246,9.7536,-0.4238,0.116,9.7968,0.0,-0.0004,-0.0004
32768,47.16162,-1.513113,59.8,0.0,30.0,183.2,15 / 21,3276810,2019-08-09 21:08:45:548,-0.42,0.1234,9.7381,-0.4235,0.1154,9.7968,0.0007,0.0002,-0.001
32769,47.16162,-1.513113,59.8,0.0,30.0,183.2,15 / 21,3276911,2019-08-09 21:08:45:649,-0.4296,0.1055,9.7417,-0.4239,0.1188,9.7968,0.0,-0.0002,0.0011
32770,47.16162,-1.513113,59.8,0.0,30.0,183.2,15 / 21,3277010,2019-08-09 21:08:45:748,-0.4081,0.127,9.7477,-0.4236,0.1175,9.7968,0.0004,0.0001,-0.0004
32771,47.16162,-1.513113,59.8,0.0,30.0,183.2,15 / 21,3277110,2019-08-09 21:08:45:848,-0.4284,0.1031,9.7441,-0.4239,0.1177,9.7968,0.0,0.0002,0.0001
32772,47.16162,-1.513113,59.8,0.0,30.0,183.2,15 / 21,3277211,2019-08-09 21:08:45:949,-0.4152,0.1079,9.762,-0.4244,0.1169,9.7968,0.0005,0.0009,-0.0003
32773,47.16162,-1.513113,59.8,0.0,30.0,183.2,15 / 21,3277312,2019-08-09 21:08:46:050,-0.4284,0.1258,9.7596,-0.423,0.1181,9.7968,0.0002,-0.0007,0.0002
32774,47.16162,-1.513113,59.8,0.0,30.0,183.2,15 / 21,3277411,2019-08-09 21:08:46:149,-0.4092,0.127,9.7453,-0.4231,0.1184,9.7968,0.0007,0.0007,0.0001
32775,47.16162,-1.513113,59.8,0.0,30.0,183.2,15 / 21,3277511,2019-08-09 21:08:46:249,-0.4104,0.1138,9.7513,-0.4238,0.12,9.7968,-0.0002,-0.0002,-0.0001
32776,47.16162,-1.513113,59.8,0.0,30.0,183.2,14 / 21,3277611,2019-08-09 21:08:46:349,-0.4236,0.1102,9.7417,-0.4233,0.1191,9.7968,0.0004,0.0001,-0.0004
32777,47.16162,-1.513113,59.8,0.0,30.0,183.2,14 / 21,3277711,2019-08-09 21:08:46:449,-0.4308,0.1234,9.7381,-0.4232,0.1194,9.7968,-0.0001,-0.0005,0.0004
32778,47.16162,-1.513113,59.8,0.0,30.0,183.2,14 / 21,3277810,2019-08-09 21:08:46:548,-0.4272,0.1222,9.7513,-0.4235,0.1189,9.7968,0.0003,0.0,-0.0004
32779,47.16162,-1.513113,59.8,0.0,30.0,183.2,14 / 21,3277911,2019-08-09 21:08:46:649,-0.4176,0.127,9.7608,-0.4229,0.1195,9.7968,0.0002,-0.0008,0.0005
32780,47.16162,-1.513113,59.8,0.0,30.0,183.2,14 / 21,3278010,2019-08-09 21:08:46:748,-0.4164,0.1102,9.7453,-0.4227,0.1186,9.7968,0.0005,0.0005,0.0
32781,47.16162,-1.513113,59.8,0.0,30.0,183.2,14 / 21,3278110,2019-08-09 21:08:46:848,-0.4176,0.1031,9.7596,-0.4236,0.1198,9.7968,0.0007,0.0003,0.0007
32782,47.16162,-1.513113,59.8,0.0,30.0,183.2,14 / 21,3278211,2019-08-09 21:08:46:949,-0.4104,0.1079,9.7465,-0.4238,0.1196,9.7968,0.0004,-0.0001,-0.0007
32783,47.16162,-1.513113,59.8,0.0,30.0,183.2,14 / 21,3278310,2019-08-09 21:08:47:048,-0.42,0.121,9.7429,-0.4225,0.1191,9.7968,-0.0002,-0.0004,0.0006
32784,47.16162,-1.513113,59.8,0.0,30.0,183.2,14 / 21,3278410,2019-08-09 21:08:47:148,-0.4368,0.1174,9.756,-0.4218,0.1184,9.7969,0.0011,0.0003,0.0005
32785,47.16162,-1.513113,59.8,0.0,30.0,183.2,14 / 21,3278510,2019-08-09 21:08:47:248,-0.4272,0.1402,9.7477,-0.4224,0.1174,9.7968,0.0002,-0.0006,-0.0004
32786,47.16162,-1.513113,59.8,0.0,30.0,183.2,15 / 21,3278611,2019-08-09 21:08:47:349,-0.4236,0.1091,9.7429,-0.4223,0.1183,9.7968,0.0002,0.0003,0.0002
32787,47.16162,-1.513113,59.8,0.0,30.0,183.2,15 / 21,3278711,2019-08-09 21:08:47:449,-0.4272,0.1162,9.7477,-0.4227,0.1185,9.7968,0.0005,0.0004,-0.0009
32788,47.16162,-1.513113,59.8,0.0,30.0,183.2,15 / 21,3278810,2019-08-09 21:08:47:548,-0.4128,0.1162,9.7369,-0.4235,0.1185,9.7968,-0.0002,-0.0005,-0.0001
32789,47.16162,-1.513113,59.8,0.0,30.0,183.2,15 / 21,3278910,2019-08-09 21:08:47:648,-0.432,0.1222,9.7536,-0.4233,0.119,9.7968,0.0006,0.0003,0.0002
32790,47.16162,-1.513113,59.8,0.0,30.0,183.2,15 / 21,3279010,2019-08-09 21:08:47:748,-0.4212,0.1126,9.7489,-0.4236,0.1201,9.7968,0.0002,0.0001,-0.0005
32791,47.16162,-1.513113,59.8,0.0,30.0,183.2,15 / 21,3279111,2019-08-09 21:08:47:849,-0.42,0.1126,9.7536,-0.4236,0.1191,9.7968,0.0003,-0.0004,0.0011
32792,47.16162,-1.513113,59.8,0.0,30.0,183.2,15 / 21,3279210,2019-08-09 21:08:47:948,-0.4152,0.1115,9.7441,-0.4226,0.119,9.7968,0.0003,-0.0004,0.0002
32793,47.16162,-1.513113,59.8,0.0,30.0,183.2,15 / 21,3279311,2019-08-09 21:08:48:049,-0.42,0.115,9.7608,-0.4228,0.1185,9.7968,0.0,-0.0001,-0.0002
32794,47.16162,-1.513113,59.8,0.0,30.0,183.2,15 / 21,3279410,2019-08-09 21:08:48:148,-0.414,0.1007,9.7405,-0.4237,0.1183,9.7968,0.0002,0.0006,0.0002
32795,47.16162,-1.513113,59.8,0.0,30.0,183.2,15 / 21,3279511,2019-08-09 21:08:48:249,-0.42,0.1306,9.7524,-0.4242,0.1183,9.7968,0.0,-0.0005,0.0004
32796,47.16162,-1.513113,59.8,0.0,30.0,183.2,13 / 19,3279610,2019-08-09 21:08:48:348,-0.4188,0.0947,9.7405,-0.424,0.1179,9.7968,-0.0001,-0.0001,0.0007
32797,47.16162,-1.513113,59.8,0.0,30.0,183.2,13 / 19,3279711,2019-08-09 21:08:48:449,-0.4176,0.1079,9.7441,-0.425,0.1167,9.7967,0.0004,0.0005,0.001
32798,47.16162,-1.513113,59.8,0.0,30.0,183.2,13 / 19,3279811,2019-08-09 21:08:48:549,-0.4368,0.1079,9.7453,-0.4255,0.1163,9.7967,-0.0002,-0.0001,0.0004
32799,47.16162,-1.513113,59.8,0.0,30.0,183.2,13 / 19,3279910,2019-08-09 21:08:48:648,-0.414,0.1138,9.7465,-0.4254,0.1167,9.7967,-0.0001,0.0008,0.0003
32800,47.16162,-1.513113,59.8,0.0,30.0,183.2,13 / 19,3280011,2019-08-09 21:08:48:749,-0.4212,0.1126,9.7441,-0.4246,0.1179,9.7967,0.0,-0.0002,-0.0001
32801,47.16162,-1.513113,59.8,0.0,30.0,183.2,13 / 19,3280110,2019-08-09 21:08:48:848,-0.4081,0.1126,9.7369,-0.4232,0.1167,9.7968,-0.0002,-0.0001,-0.0004
32802,47.16162,-1.513113,59.8,0.0,30.0,183.2,13 / 19,3280212,2019-08-09 21:08:48:950,-0.4176,0.1222,9.7548,-0.4231,0.117,9.7968,0.0001,-0.0007,0.0003
32803,47.16162,-1.513113,59.8,0.0,30.0,183.2,13 / 19,3280311,2019-08-09 21:08:49:049,-0.4176,0.1198,9.7393,-0.4223,0.1178,9.7968,-0.0005,0.0003,0.0007
32804,47.16162,-1.513113,59.8,0.0,30.0,183.2,13 / 19,3280411,2019-08-09 21:08:49:149,-0.414,0.1079,9.7489,-0.4224,0.1173,9.7968,0.0003,-0.0002,0.0
32805,47.16162,-1.513113,59.8,0.0,30.0,183.2,13 / 19,3280511,2019-08-09 21:08:49:249,-0.4152,0.121,9.7513,-0.4221,0.1163,9.7969,0.0002,-0.0002,-0.0002
32806,47.16162,-1.513113,59.8,0.0,30.0,183.2,15 / 21,3280611,2019-08-09 21:08:49:349,-0.4284,0.1138,9.7429,-0.4224,0.1159,9.7969,0.0001,-0.0002,0.0002
32807,47.16162,-1.513113,59.8,0.0,30.0,183.2,15 / 21,3280710,2019-08-09 21:08:49:448,-0.4188,0.127,9.7489,-0.4224,0.1159,9.7969,-0.0002,-0.0005,-0.0007
32808,47.16162,-1.513113,59.8,0.0,30.0,183.2,15 / 21,3280810,2019-08-09 21:08:49:548,-0.4081,0.1138,9.7309,-0.4223,0.1168,9.7969,-0.0001,-0.0005,0.0001
32809,47.16162,-1.513113,59.8,0.0,30.0,183.2,15 / 21,3280910,2019-08-09 21:08:49:648,-0.4236,0.1294,9.7441,-0.4212,0.1166,9.7969,-0.0002,0.0004,-0.0002
32810,47.16162,-1.513113,59.8,0.0,30.0,183.2,15 / 21,3281010,2019-08-09 21:08:49:748,-0.4164,0.1126,9.7405,-0.4216,0.1164,9.7969,0.0,-0.0001,0.0003
32811,47.16162,-1.513113,59.8,0.0,30.0,183.2,15 / 21,3281111,2019-08-09 21:08:49:849,-0.4224,0.1246,9.7393,-0.4217,0.1165,9.7969,0.0001,0.0,0.0002
32812,47.16162,-1.513113,59.8,0.0,30.0,183.2,15 / 21,3281211,2019-08-09 21:08:49:949,-0.4212,0.1294,9.7572,-0.4222,0.1183,9.7968,0.0002,0.0001,-0.0001
32813,47.16162,-1.513113,59.8,0.0,30.0,183.2,15 / 21,3281312,2019-08-09 21:08:50:050,-0.4332,0.1246,9.7489,-0.4229,0.1181,9.7968,-0.0002,-0.0005,0.0004
32814,47.16162,-1.513113,59.8,0.0,30.0,183.2,15 / 21,3281410,2019-08-09 21:08:50:148,-0.4152,0.121,9.7477,-0.4233,0.1177,9.7968,0.0003,0.0001,-0.0011
32815,47.16162,-1.513113,59.8,0.0,30.0,183.2,15 / 21,3281511,2019-08-09 21:08:50:249,-0.438,0.1282,9.7477,-0.4231,0.1178,9.7968,0.0001,-0.0002,0.0
32816,47.16162,-1.513113,59.8,0.0,30.0,183.2,15 / 21,3281610,2019-08-09 21:08:50:348,-0.4296,0.1258,9.7596,-0.4237,0.1187,9.7968,0.0005,0.0003,0.0002
32817,47.16162,-1.513113,59.8,0.0,30.0,183.2,15 / 21,3281710,2019-08-09 21:08:50:448,-0.426,0.1174,9.7489,-0.4221,0.1193,9.7968,0.0002,-0.0001,0.0001
32818,47.16162,-1.513113,59.8,0.0,30.0,183.2,15 / 21,3281811,2019-08-09 21:08:50:549,-0.414,0.1102,9.7596,-0.423,0.1175,9.7968,-0.0007,-0.0002,0.0006
32819,47.16162,-1.513113,59.8,0.0,30.0,183.2,15 / 21,3281910,2019-08-09 21:08:50:648,-0.4248,0.121,9.7465,-0.4228,0.1169,9.7968,-0.0002,-0.0002,0.0002
32820,47.16162,-1.513113,59.8,0.0,30.0,183.2,15 / 21,3282010,2019-08-09 21:08:50:748,-0.4045,0.1198,9.7513,-0.4245,0.1173,9.7968,-0.0006,-0.0001,-0.0002
32821,47.16162,-1.513113,59.8,0.0,30.0,183.2,15 / 21,3282110,2019-08-09 21:08:50:848,-0.4236,0.1222,9.7477,-0.4244,0.1167,9.7968,-0.0003,-0.0003,-0.0005
32822,47.16162,-1.513113,59.8,0.0,30.0,183.2,15 / 21,3282211,2019-08-09 21:08:50:949,-0.4212,0.121,9.7513,-0.4233,0.1172,9.7968,0.0004,-0.0002,0.0001
32823,47.16162,-1.513113,59.8,0.0,30.0,183.2,15 / 21,3282310,2019-08-09 21:08:51:048,-0.42,0.115,9.7489,-0.4229,0.1179,9.7968,0.0005,0.0004,-0.0002
32824,47.16162,-1.513113,59.8,0.0,30.0,183.2,15 / 21,3282410,2019-08-09 21:08:51:148,-0.432,0.127,9.7441,-0.4221,0.117,9.7969,0.0005,0.0002,-0.0004
32825,47.16162,-1.513113,59.8,0.0,30.0,183.2,15 / 21,3282511,2019-08-09 21:08:51:249,-0.4152,0.121,9.7465,-0.4226,0.1179,9.7968,0.0007,0.0005,0.0003
32826,47.16162,-1.513113,59.8,0.0,30.0,183.2,15 / 21,3282610,2019-08-09 21:08:51:348,-0.4152,0.1186,9.7381,-0.424,0.1192,9.7968,-0.0002,0.0002,0.0
32827,47.16162,-1.513113,59.8,0.0,30.0,183.2,15 / 21,3282711,2019-08-09 21:08:51:449,-0.4224,0.1258,9.7405,-0.4236,0.1201,9.7968,-0.0005,-0.0003,-0.0007
32828,47.16162,-1.513113,59.8,0.0,30.0,183.2,15 / 21,3282810,2019-08-09 21:08:51:548,-0.4188,0.1138,9.7465,-0.4234,0.1188,9.7968,0.0001,-0.0002,0.0002
32829,47.16162,-1.513113,59.8,0.0,30.0,183.2,15 / 21,3282910,2019-08-09 21:08:51:648,-0.4248,0.127,9.7536,-0.4231,0.1191,9.7968,0.0002,-0.0003,-0.0009
32830,47.16162,-1.513113,59.8,0.0,30.0,183.2,15 / 21,3283010,2019-08-09 21:08:51:748,-0.4068,0.1055,9.75,-0.423,0.1191,9.7968,-0.0002,0.0002,0.0001
32831,47.16162,-1.513113,59.8,0.0,30.0,183.2,15 / 21,3283111,2019-08-09 21:08:51:849,-0.4404,0.1067,9.7417,-0.4222,0.1179,9.7969,0.0,-0.0001,0.0002
32832,47.16162,-1.513113,59.8,0.0,30.0,183.2,15 / 21,3283210,2019-08-09 21:08:51:948,-0.4284,0.1126,9.7477,-0.4235,0.1164,9.7968,-0.0002,0.0005,0.0002
32833,47.16162,-1.513113,59.8,0.0,30.0,183.2,15 / 21,3283310,2019-08-09 21:08:52:048,-0.4224,0.1102,9.7393,-0.4232,0.1166,9.7968,0.0004,0.0002,-0.0008
32834,47.16162,-1.513113,59.8,0.0,30.0,183.2,15 / 21,3283410,2019-08-09 21:08:52:148,-0.4116,0.1294,9.7405,-0.4241,0.1179,9.7968,-0.0003,0.0,0.0005
32835,47.16162,-1.513113,59.8,0.0,30.0,183.2,15 / 21,3283511,2019-08-09 21:08:52:249,-0.4092,0.1198,9.7477,-0.4243,0.1171,9.7968,-0.0004,0.0004,0.0
32836,47.16162,-1.513113,59.8,0.0,30.0,183.2,15 / 20,3283611,2019-08-09 21:08:52:349,-0.4188,0.1031,9.7524,-0.4244,0.1166,9.7968,0.0002,-0.0007,-0.0003
32837,47.16162,-1.513113,59.8,0.0,30.0,183.2,15 / 20,3283710,2019-08-09 21:08:52:448,-0.426,0.1067,9.7477,-0.4236,0.1162,9.7968,0.0003,0.0004,0.0
32838,47.16162,-1.513113,59.8,0.0,30.0,183.2,15 / 20,3283810,2019-08-09 21:08:52:548,-0.4272,0.1198,9.7429,-0.4246,0.1166,9.7968,-0.0001,-0.0007,0.0001
32839,47.16162,-1.513113,59.8,0.0,30.0,183.2,15 / 20,3283910,2019-08-09 21:08:52:648,-0.4248,0.1186,9.7441,-0.4236,0.1166,9.7968,-0.0002,0.0004,0.0002
32840,47.16162,-1.513113,59.8,0.0,30.0,183.2,15 / 20,3284011,2019-08-09 21:08:52:749,-0.4308,0.1091,9.7477,-0.4248,0.116,9.7968,0.0004,0.0002,0.0001
32841,47.16162,-1.513113,59.8,0.0,30.0,183.2,15 / 20,3284110,2019-08-09 21:08:52:848,-0.4392,0.1091,9.7536,-0.4243,0.1153,9.7968,-0.0003,0.0007,0.0
32842,47.16162,-1.513113,59.8,0.0,30.0,183.2,15 / 20,3284210,2019-08-09 21:08:52:948,-0.4116,0.121,9.7405,-0.4265,0.1168,9.7967,0.0003,-0.0002,0.0005
32843,47.16162,-1.513113,59.8,0.0,30.0,183.2,15 / 20,3284311,2019-08-09 21:08:53:049,-0.4236,0.1138,9.7345,-0.4255,0.1166,9.7967,-0.0005,-0.0001,0.0
32844,47.16162,-1.513113,59.8,0.0,30.0,183.2,15 / 20,3284410,2019-08-09 21:08:53:148,-0.4104,0.1126,9.7405,-0.4253,0.117,9.7967,0.0,0.0005,-0.0005
32845,47.16162,-1.513113,59.8,0.0,30.0,183.2,15 / 20,3284510,2019-08-09 21:08:53:248,-0.4284,0.1138,9.7477,-0.4242,0.1155,9.7968,0.0002,0.0002,0.0001
32846,47.16162,-1.513113,59.8,0.0,30.0,183.2,16 / 21,3284610,2019-08-09 21:08:53:348,-0.4104,0.1067,9.7333,-0.4239,0.1155,9.7968,0.0001,-0.0001,0.0002
32847,47.16162,-1.513113,59.8,0.0,30.0,183.2,16 / 21,3284711,2019-08-09 21:08:53:449,-0.4428,0.1186,9.75,-0.4251,0.1163,9.7967,-0.0002,0.0003,0.0001
32848,47.16162,-1.513113,59.8,0.0,30.0,183.2,16 / 21,3284811,2019-08-09 21:08:53:549,-0.4164,0.1079,9.7513,-0.4262,0.1164,9.7967,0.0,-0.0002,0.0
32849,47.16162,-1.513113,59.8,0.0,30.0,183.2,16 / 21,3284910,2019-08-09 21:08:53:648,-0.4212,0.0995,9.7513,-0.4251,0.114,9.7968,-0.0005,0.0001,0.0
32850,47.16162,-1.513113,59.8,0.0,30.0,183.2,16 / 21,3285010,2019-08-09 21:08:53:748,-0.4068,0.115,9.7441,-0.4241,0.1142,9.7968,-0.0003,0.0002,-0.0009
32851,47.16162,-1.513113,59.8,0.0,30.0,183.2,16 / 21,3285110,2019-08-09 21:08:53:848,-0.4212,0.1126,9.7345,-0.4238,0.1163,9.7968,-0.0002,-0.0004,0.0002
32852,47.16162,-1.513113,59.8,0.0,30.0,183.2,16 / 21,3285210,2019-08-09 21:08:53:948,-0.4224,0.1258,9.7405,-0.4231,0.1164,9.7968,0.0007,0.0004,0.0002
32853,47.16162,-1.513113,59.8,0.0,30.0,183.2,16 / 21,3285310,2019-08-09 21:08:54:048,-0.4368,0.0983,9.75,-0.4235,0.1167,9.7968,-0.0005,-0.0002,-0.0004
32854,47.16162,-1.513113,59.8,0.0,30.0,183.2,16 / 21,3285410,2019-08-09 21:08:54:148,-0.4236,0.1162,9.7465,-0.4236,0.1163,9.7968,0.0001,0.0006,-0.0004
32855,47.16162,-1.513113,59.8,0.0,30.0,183.2,16 / 21,3285511,2019-08-09 21:08:54:249,-0.42,0.121,9.756,-0.4243,0.1171,9.7968,0.0001,0.0001,-0.0005
32856,47.16162,-1.513113,59.8,0.0,30.0,183.2,14 / 20,3285611,2019-08-09 21:08:54:349,-0.4248,0.1246,9.7477,-0.4247,0.1182,9.7967,-0.0002,-0.0002,0.0001
32857,47.16162,-1.513113,59.8,0.0,30.0,183.2,14 / 20,3285710,2019-08-09 21:08:54:448,-0.4236,0.1115,9.7417,-0.4253,0.1189,9.7967,0.0001,0.0008,0.0005
32858,47.16162,-1.513113,59.8,0.0,30.0,183.2,14 / 20,3285810,2019-08-09 21:08:54:548,-0.4272,0.1138,9.7548,-0.4259,0.1185,9.7967,0.0006,0.0006,-0.0002
32859,47.16162,-1.513113,59.8,0.0,30.0,183.2,14 / 20,3285910,2019-08-09 21:08:54:648,-0.4236,0.1354,9.7429,-0.4267,0.1189,9.7966,0.0,0.0004,-0.0004
32860,47.16162,-1.513113,59.8,0.0,30.0,183.2,14 / 20,3286010,2019-08-09 21:08:54:748,-0.432,0.1342,9.7453,-0.4275,0.1198,9.7966,0.0004,0.0007,0.0
32861,47.16162,-1.513113,59.8,0.0,30.0,183.2,14 / 20,3286110,2019-08-09 21:08:54:848,-0.4296,0.121,9.7441,-0.4282,0.1199,9.7966,0.0003,0.0002,-0.0001
32862,47.16162,-1.513113,59.8,0.0,30.0,183.2,14 / 20,3286211,2019-08-09 21:08:54:949,-0.432,0.1091,9.7345,-0.4274,0.1202,9.7966,0.0003,0.0,0.0005
32863,47.16162,-1.513113,59.8,0.0,30.0,183.2,14 / 20,3286310,2019-08-09 21:08:55:048,-0.4224,0.1186,9.7524,-0.4273,0.1195,9.7966,0.0006,0.0001,0.0004
32864,47.16162,-1.513113,59.8,0.0,30.0,183.2,14 / 20,3286411,2019-08-09 21:08:55:149,-0.432,0.1091,9.7405,-0.4275,0.1183,9.7966,0.0004,0.0003,0.0004
32865,47.16162,-1.513113,59.8,0.0,30.0,183.2,14 / 20,3286510,2019-08-09 21:08:55:248,-0.4284,0.1198,9.7441,-0.4283,0.1175,9.7966,0.0001,0.0001,0.0001
32866,47.16162,-1.513113,59.8,0.0,30.0,183.2,15 / 21,3286610,2019-08-09 21:08:55:348,-0.4511,0.1162,9.7465,-0.4284,0.1189,9.7966,0.0002,0.0,-0.001
