,GPS LATITUDE (degrees), GPS LONGITUDE (degrees), GPS ALTITUDE (m), GPS SPEED (Kmh), GPS ACCURACY (m), GPS ORIENTATION (Â°),GPS SATELLITES IN RANGE, TIME SINCE START (ms), DATE (YYYY-MO-DD HH-MI-SS_SSS), ACCELEROMETER X (m/s²) , ACCELEROMETER Y (m/s²), ACCELEROMETER Z (m/s²), GRAVITY X (m/s²), GRAVITY Y (m/s²), GRAVITY Z (m/s²), GYROSCOPE Yaw (rad/s), GYROSCOPE Pitch (rad/s), GYROSCOPE Roll (rad/s), MAGNETIC FIELD X (Î¼T), MAGNETIC FIELD Y (Î¼T), MAGNETIC FIELD Z (Î¼T), ORIENTATION (Yaw) (Â°), ORIENTATION (Pitch) (Â°), ORIENTATION (Roll ) (Â°)
37180,52.403774,-1.515533,137.69,1.78,3,140.8,27 / 27,3531610,2019-09-08 13:05:50:849,0.062,-0.2514,9.8633,-0.0021,0.0018,9.8066,0.0085,-0.0128,0.0013,-23.31,-30.56,28.31,328.08,-80.46,-167.85
37181,52.403774,-1.515533,137.69,1.78,3,140.8,26 / 27,3531710,2019-09-08 13:05:50:949,-0.1579,0.0458,9.884,-0.0006,0.0009,9.8066,0.0197,0.0091,-0.0037,-23.06,-30.25,27.81,328.23,-80.49,-167.87
37182,52.403774,-1.515533,137.69,1.78,3,140.8,26 / 27,3531810,2019-09-08 13:05:51:049,-0.0337,-0.2533,9.9338,-0.0013,-0.001,9.8066,-0.0004,-0.0056,0.0006,-23.31,-30.44,27.63,328.29,-80.49,-167.82
37183,52.403774,-1.515533,137.69,1.78,3,140.8,26 / 27,3531909,2019-09-08 13:05:51:148,0.1165,-0.207,9.8049,-0.0016,0.0015,9.8066,0.0116,0.0023,-0.0035,-22.94,-30.12,27.5,328.28,-80.51,-167.83
37184,52.403774,-1.515533,137.69,1.78,3,140.8,26 / 27,3532010,2019-09-08 13:05:51:249,0.1411,-0.1698,9.8795,0.0012,0.0012,9.8066,-0.0236,0.0024,-0.0121,-22.87,-30.62,27.44,326.84,-80.51,-167.83
37185,52.403774,-1.515533,137.69,1.78,3,140.8,26 / 27,3532110,2019-09-08 13:05:51:349,-0.1674,0.0697,9.9599,0.0,0.0004,9.8066,-0.0172,-0.0154,0.006,-22.87,-30.56,27.5,328.03,-80.53,-167.93
37186,52.403774,-1.515533,137.69,1.78,3,140.8,26 / 27,3532210,2019-09-08 13:05:51:449,-0.1218,0.0157,9.9118,0.0006,-0.0012,9.8066,0.0208,0.0017,0.0094,-22.62,-30.44,27.63,328.29,-80.55,-167.85
37187,52.403774,-1.515533,137.69,1.78,3,140.8,26 / 27,3532310,2019-09-08 13:05:51:549,-0.1936,0.1136,9.942,0.0023,0.0002,9.8066,0.0195,-0.0072,0.0205,-23.0,-30.25,27.25,327.0,-80.54,-167.86
37188,52.403774,-1.515533,137.69,1.78,3,140.8,26 / 27,3532410,2019-09-08 13:05:51:649,-0.2906,0.2508,9.9491,0.0009,0.0023,9.8066,0.0165,-0.0021,0.0359,-22.69,-30.12,26.88,327.0,-80.56,-167.87
37189,52.403774,-1.515533,137.69,1.78,3,140.8,26 / 27,3532510,2019-09-08 13:05:51:749,0.023,-0.3392,9.7033,-0.0009,-0.0017,9.8066,0.0169,-0.004,0.0154,-22.37,-29.87,27.44,328.42,-80.54,-167.79
37190,52.403774,-1.515533,137.69,1.78,3,140.8,26 / 27,3532610,2019-09-08 13:05:51:849,0.2436,-0.3106,9.8188,0.0002,-0.0026,9.8066,0.0085,0.0113,-0.0073,-22.19,-29.81,27.13,328.42,-80.53,-167.78
37191,52.403774,-1.515533,137.69,1.78,3,140.8,26 / 26,3532710,2019-09-08 13:05:51:949,0.1144,-0.1071,9.9572,0.0041,-0.0037,9.8066,0.0046,-0.0044,0.0064,-22.06,-30.06,27.56,329.67,-80.51,-167.79
37192,52.403774,-1.515533,137.69,1.78,3,140.8,26 / 26,3532810,2019-09-08 13:05:52:049,0.0543,-0.0438,9.8756,-0.0032,-0.0005,9.8066,0.0136,-0.0109,0.0193,-22.0,-30.25,27.69,329.66,-80.51,-167.81
37193,52.403774,-1.515533,137.69,1.78,3,140.8,26 / 26,3532910,2019-09-08 13:05:52:149,0.2025,-0.134,9.9018,-0.0024,0.0026,9.8066,0.02,-0.0114,0.0119,-21.25,-30.37,27.56,331.29,-80.51,-167.61
37194,52.403774,-1.515533,137.69,1.78,3,140.8,26 / 26,3533011,2019-09-08 13:05:52:250,0.214,-0.5871,9.6872,0.0044,-0.0036,9.8066,-0.0105,-0.0052,-0.006,-22.0,-30.62,27.75,329.72,-80.46,-167.59
37195,52.403774,-1.515533,137.69,1.78,3,140.8,26 / 26,3533110,2019-09-08 13:05:52:349,0.0159,-0.1112,9.8107,0.0011,-0.0026,9.8066,-0.0187,-0.0084,-0.006,-21.62,-30.94,26.88,328.46,-80.46,-167.57
37196,52.403774,-1.515533,137.69,1.78,3,140.8,26 / 26,3533211,2019-09-08 13:05:52:450,-0.0813,0.2124,9.8492,-0.0057,0.0026,9.8066,0.0071,-0.0243,-0.0263,-21.87,-30.75,26.69,328.47,-80.46,-167.56
37197,52.403774,-1.515533,137.69,1.78,3,140.8,26 / 26,3533310,2019-09-08 13:05:52:549,0.0819,-0.2761,9.9156,-0.0024,0.0048,9.8066,0.0167,-0.0317,-0.0063,-22.06,-30.87,27.06,328.57,-80.47,-167.48
37198,52.403774,-1.515533,137.69,1.78,3,140.8,26 / 26,3533410,2019-09-08 13:05:52:649,0.2892,-0.491,9.917,0.0057,-0.0057,9.8066,-0.0278,-0.0116,0.0146,-21.19,-30.31,27.06,330.2,-80.47,-167.43
37199,52.403774,-1.515533,137.69,1.78,3,140.8,26 / 26,3533510,2019-09-08 13:05:52:749,0.0103,-0.2631,9.8976,0.0008,-0.0022,9.8065,0.0046,-0.0014,0.0059,-21.12,-30.87,26.75,330.03,-80.45,-167.43
37200,52.403774,-1.515533,137.69,1.78,3,140.8,26 / 26,3533610,2019-09-08 13:05:52:849,0.2617,-0.1619,9.7879,-0.0046,0.0,9.8066,0.027,0.0057,-0.0012,-21.5,-30.87,27.44,329.97,-80.46,-167.48
37201,52.403774,-1.515533,137.69,1.78,3,140.8,26 / 26,3533711,2019-09-08 13:05:52:950,0.2223,-0.4948,9.7452,-0.0035,0.0037,9.8066,0.0327,-0.0161,0.0079,-21.25,-30.44,27.13,330.15,-80.44,-167.46
37202,52.403774,-1.515533,137.69,1.78,3,140.8,26 / 26,3533810,2019-09-08 13:05:53:049,0.0371,-0.5095,9.7778,0.0012,-0.0039,9.8066,0.0001,-0.0142,0.0146,-21.75,-30.25,27.06,328.9,-80.42,-167.31
37203,52.403774,-1.515533,137.69,1.78,3,140.8,26 / 26,3533909,2019-09-08 13:05:53:148,0.0269,-0.0814,9.8479,0.0005,-0.0029,9.8066,-0.0111,0.0042,0.0044,-20.94,-30.37,26.94,330.48,-80.38,-167.15
37204,52.403774,-1.515533,137.69,1.78,3,140.8,26 / 26,3534009,2019-09-08 13:05:53:248,-0.0351,-0.1053,9.8934,-0.0031,-0.0005,9.8066,0.0141,-0.0068,0.0062,-20.69,-30.06,26.81,330.52,-80.37,-167.11
37205,52.403774,-1.515533,137.69,1.78,3,140.8,26 / 26,3534109,2019-09-08 13:05:53:348,0.0377,-0.2686,9.9724,0.0009,0.0,9.8066,0.005,-0.0033,0.0054,-21.06,-30.5,26.69,330.61,-80.37,-167.02
37206,52.403774,-1.515533,137.69,1.78,3,140.8,26 / 26,3534210,2019-09-08 13:05:53:449,0.1787,-0.2481,9.8431,-0.0016,0.0017,9.8066,0.0031,-0.0118,0.0017,-20.62,-30.06,27.38,330.7,-80.37,-166.95
37207,52.403774,-1.515533,137.69,1.78,3,140.8,26 / 26,3534310,2019-09-08 13:05:53:549,0.1487,-0.3169,9.8316,-0.0009,-0.0005,9.8066,-0.0056,-0.0027,-0.0032,-20.56,-29.94,27.25,330.82,-80.36,-166.84
37208,52.403774,-1.515533,137.69,1.78,3,140.8,26 / 26,3534410,2019-09-08 13:05:53:649,-0.1068,-0.2417,10.1477,-0.0004,0.0004,9.8066,0.0068,-0.0002,0.0113,-20.69,-30.94,27.31,330.68,-80.33,-166.81
37209,52.403774,-1.515533,137.69,1.78,3,140.8,26 / 26,3534510,2019-09-08 13:05:53:749,0.2147,-0.4864,9.944,-0.0074,0.0028,9.8066,0.0223,0.0012,0.005,-20.94,-30.87,26.63,330.84,-80.35,-166.69
37210,52.403774,-1.515533,137.69,1.78,3,140.8,26 / 26,3534610,2019-09-08 13:05:53:849,0.2953,-0.4868,9.7511,0.0017,-0.0038,9.8066,-0.0416,-0.02,-0.0067,-20.75,-30.75,26.5,330.97,-80.36,-166.57
37211,52.403774,-1.515533,137.69,1.78,3,140.8,26 / 26,3534710,2019-09-08 13:05:53:949,-0.112,-0.1569,9.9515,0.0026,0.0007,9.8066,-0.0115,-0.0066,0.0049,-20.5,-31.19,26.5,332.47,-80.36,-166.56
37212,52.403774,-1.515533,137.69,1.78,3,140.8,27 / 27,3534810,2019-09-08 13:05:54:049,0.1661,-0.3874,9.8579,0.0014,0.0028,9.8066,-0.002,-0.0214,-0.006,-21.19,-30.44,26.81,331.23,-80.35,-166.48
37213,52.403774,-1.515533,137.69,1.78,3,140.8,27 / 27,3534910,2019-09-08 13:05:54:149,0.0955,-0.1784,9.8503,-0.003,0.0009,9.8066,-0.0015,-0.0121,-0.0203,-21.31,-29.94,26.88,331.26,-80.36,-166.46
37214,52.403774,-1.515533,137.69,1.78,3,140.8,27 / 27,3535010,2019-09-08 13:05:54:249,-0.0491,-0.2124,9.8003,-0.0003,0.0002,9.8066,-0.0081,-0.0052,0.0057,-20.81,-30.25,26.81,331.21,-80.38,-166.51
37215,52.403774,-1.515533,137.69,1.78,3,140.8,27 / 27,3535110,2019-09-08 13:05:54:349,0.3108,-0.0961,9.9004,-0.0035,-0.0014,9.8066,-0.0038,0.0112,-0.018,-20.5,-30.37,27.06,332.86,-80.38,-166.37
37216,52.403774,-1.515533,137.69,1.78,3,140.8,27 / 27,3535210,2019-09-08 13:05:54:449,-0.0347,-0.5714,9.8212,-0.004,-0.0008,9.8066,0.0027,0.0123,-0.016,-20.69,-30.25,27.44,331.66,-80.38,-166.12
37217,52.403774,-1.515533,137.69,1.78,3,140.8,27 / 27,3535310,2019-09-08 13:05:54:549,-0.0749,-0.2809,9.7509,-0.0005,0.0027,9.8066,-0.0003,-0.0095,0.0204,-20.62,-30.75,26.88,331.5,-80.39,-166.13
37218,52.403774,-1.515533,137.69,1.78,3,140.8,27 / 27,3535410,2019-09-08 13:05:54:649,0.2673,-0.2802,9.7892,-0.0018,0.0011,9.8066,-0.0058,-0.009,0.0182,-21.06,-30.69,27.38,331.63,-80.38,-166.02
37219,52.403774,-1.515533,137.69,1.78,3,140.8,27 / 27,3535510,2019-09-08 13:05:54:749,-0.1848,-0.1589,9.9021,-0.0023,0.0011,9.8066,-0.0106,-0.0168,0.0186,-20.56,-30.75,27.0,331.78,-80.4,-165.9
37220,52.403774,-1.515533,137.69,1.78,3,140.8,27 / 27,3535610,2019-09-08 13:05:54:849,0.0793,-0.2866,9.8565,0.0008,-0.0048,9.8066,0.0011,-0.0073,0.0042,-20.87,-31.0,27.25,331.88,-80.41,-165.82
37221,52.403694,-1.515423,137.92,1.77,3,140.17,27 / 27,3535710,2019-09-08 13:05:54:949,-0.0276,-0.2581,9.8666,-0.0015,-0.001,9.8066,0.0108,-0.0041,-0.0063,-20.69,-30.94,26.5,332.04,-80.39,-165.67
37222,52.403694,-1.515423,137.92,1.77,3,140.17,27 / 27,3535809,2019-09-08 13:05:55:048,0.2819,-0.5644,9.9645,-0.0037,0.0015,9.8066,-0.0033,-0.0065,0.0134,-21.19,-31.56,26.38,330.57,-80.4,-165.64
37223,52.403694,-1.515423,137.92,1.77,3,140.17,27 / 27,3535910,2019-09-08 13:05:55:149,0.2021,-0.5301,9.7894,-0.0038,0.0031,9.8066,0.0206,-0.0059,-0.0101,-20.94,-30.37,26.88,332.22,-80.39,-165.65
37224,52.403694,-1.515423,137.92,1.77,3,140.17,27 / 27,3536010,2019-09-08 13:05:55:249,0.1324,-0.3025,9.9223,-0.0039,0.0015,9.8066,0.0021,-0.011,-0.0134,-20.75,-30.5,26.75,332.28,-80.42,-165.61
37225,52.403694,-1.515423,137.92,1.77,3,140.17,27 / 27,3536110,2019-09-08 13:05:55:349,0.2693,-0.2676,10.0708,0.0004,-0.0037,9.8066,0.0304,-0.0067,-0.0107,-21.44,-30.75,26.69,332.12,-80.43,-165.62
37226,52.403694,-1.515423,137.92,1.77,3,140.17,27 / 27,3536210,2019-09-08 13:05:55:449,0.0199,-0.5754,9.9961,0.0029,0.0006,9.8066,0.0323,-0.0266,0.0249,-21.19,-29.94,27.13,332.22,-80.41,-165.66
37227,52.403694,-1.515423,137.92,1.77,3,140.17,27 / 27,3536310,2019-09-08 13:05:55:549,0.0442,-0.1901,9.7712,-0.0002,-0.0002,9.8066,-0.0024,-0.0112,0.004,-21.25,-30.12,27.0,332.32,-80.42,-165.57
37228,52.403694,-1.515423,137.92,1.77,3,140.17,27 / 27,3536410,2019-09-08 13:05:55:649,0.0661,-0.1773,9.855,-0.0003,-0.0001,9.8066,-0.0153,-0.0022,-0.0068,-20.62,-30.62,27.69,333.47,-80.41,-165.55
37229,52.403694,-1.515423,137.92,1.77,3,140.17,27 / 27,3536510,2019-09-08 13:05:55:749,-0.2128,0.05,9.7309,-0.0022,0.0016,9.8066,0.0158,0.0062,-0.0054,-21.0,-30.81,26.75,332.05,-80.4,-165.67
37230,52.403694,-1.515423,137.92,1.77,3,140.17,27 / 27,3536610,2019-09-08 13:05:55:849,-0.2083,-0.1052,9.8897,-0.0017,0.0027,9.8066,0.0076,-0.0261,0.0101,-20.75,-31.0,26.88,332.11,-80.41,-165.62
37231,52.403694,-1.515423,137.92,1.77,3,140.17,27 / 27,3536710,2019-09-08 13:05:55:949,0.0131,-0.1025,9.8956,0.0026,0.0002,9.8066,-0.0265,-0.0358,-0.0151,-21.25,-31.37,26.31,330.92,-80.43,-165.5
37232,52.403694,-1.515423,137.92,1.77,3,140.17,27 / 27,3536809,2019-09-08 13:05:56:048,-0.0294,0.1154,9.9931,-0.0001,-0.0025,9.8066,-0.0132,-0.0131,-0.0169,-21.56,-30.94,26.25,329.48,-80.42,-165.5
37233,52.403694,-1.515423,137.92,1.77,3,140.17,27 / 27,3536910,2019-09-08 13:05:56:149,-0.0216,0.0425,9.739,-0.0002,0.0019,9.8066,0.0029,0.0018,-0.0167,-21.69,-31.37,26.44,329.45,-80.42,-165.53
37234,52.403694,-1.515423,137.92,1.77,3,140.17,27 / 27,3537010,2019-09-08 13:05:56:249,-0.17,-0.1233,9.7491,-0.0014,-0.0001,9.8066,0.003,-0.0152,0.0103,-21.31,-30.37,26.31,330.98,-80.42,-165.59
37235,52.403694,-1.515423,137.92,1.77,3,140.17,27 / 27,3537110,2019-09-08 13:05:56:349,-0.0329,0.1091,9.8145,-0.001,0.0036,9.8066,0.0178,-0.0171,0.0113,-21.19,-30.44,26.81,332.46,-80.4,-165.44
37236,52.403694,-1.515423,137.92,1.77,3,140.17,27 / 27,3537210,2019-09-08 13:05:56:449,0.0621,-0.1631,9.9255,-0.0026,0.0037,9.8066,0.0255,-0.0125,0.0135,-20.87,-30.37,26.88,332.32,-80.42,-165.58
37237,52.403694,-1.515423,137.92,1.77,3,140.17,27 / 27,3537310,2019-09-08 13:05:56:549,-0.0843,0.0897,10.0581,0.0032,-0.0055,9.8066,-0.0222,-0.0123,0.0002,-21.12,-30.37,27.25,332.47,-80.41,-165.44
37238,52.403694,-1.515423,137.92,1.77,3,140.17,27 / 27,3537409,2019-09-08 13:05:56:648,-0.1345,-0.1534,9.8432,0.0069,-0.0081,9.8066,-0.0187,-0.0207,0.0223,-21.62,-31.0,27.19,330.88,-80.35,-165.43
37239,52.403694,-1.515423,137.92,1.77,3,140.17,27 / 27,3537509,2019-09-08 13:05:56:748,-0.0991,-0.1619,9.8103,-0.0053,0.0068,9.8066,0.0444,-0.0188,-0.0015,-21.37,-31.0,27.69,333.87,-80.38,-165.19
37240,52.403694,-1.515423,137.92,1.77,3,140.17,27 / 27,3537610,2019-09-08 13:05:56:849,0.0618,-0.1033,9.8248,-0.003,0.0043,9.8066,0.0479,-0.0045,0.0083,-21.56,-31.56,26.94,330.9,-80.37,-165.28
37241,52.403694,-1.515423,137.92,1.77,3,140.17,27 / 27,3537710,2019-09-08 13:05:56:949,-0.2097,0.0548,9.9551,0.0034,-0.0045,9.8066,-0.0139,-0.0021,-0.0102,-21.5,-31.69,26.88,332.3,-80.34,-165.29
37242,52.403694,-1.515423,137.92,1.77,3,140.17,27 / 27,3537810,2019-09-08 13:05:57:049,-0.4734,0.461,9.867,0.0039,-0.0037,9.8066,-0.0087,-0.0035,0.0047,-21.56,-31.06,26.38,329.58,-80.31,-165.36
37243,52.403694,-1.515423,137.92,1.77,3,140.17,27 / 27,3537910,2019-09-08 13:05:57:149,-0.2181,0.3354,9.8096,-0.0027,0.0046,9.8066,0.0491,0.0011,0.0153,-21.44,-31.25,26.44,330.95,-80.31,-165.42
37244,52.403694,-1.515423,137.92,1.77,3,140.17,27 / 27,3538010,2019-09-08 13:05:57:249,-0.1158,-0.1851,9.7198,-0.0022,0.0034,9.8066,0.0409,-0.0086,0.0117,-22.0,-31.06,26.13,329.46,-80.33,-165.48
37245,52.403694,-1.515423,137.92,1.77,3,140.17,27 / 27,3538110,2019-09-08 13:05:57:349,-0.1053,-0.1382,9.8183,0.0063,-0.0033,9.8066,-0.0061,-0.0119,0.0112,-21.75,-30.87,26.88,330.61,-80.29,-165.62
37246,52.403694,-1.515423,137.92,1.77,3,140.17,27 / 27,3538210,2019-09-08 13:05:57:449,0.0774,0.2783,9.8366,0.0052,-0.0084,9.8066,-0.0068,0.0174,-0.0006,-21.31,-31.25,26.13,330.59,-80.29,-165.71
37247,52.403694,-1.515423,137.92,1.77,3,140.17,27 / 27,3538310,2019-09-08 13:05:57:549,-0.2883,0.3863,9.8319,-0.0093,0.0034,9.8066,0.0463,0.0031,0.0197,-21.56,-31.0,27.06,330.57,-80.27,-165.65
37248,52.403694,-1.515423,137.92,1.77,3,140.17,27 / 27,3538410,2019-09-08 13:05:57:649,-0.3217,0.082,9.8704,-0.0027,0.0034,9.8066,0.0407,-0.0133,0.0481,-21.12,-30.5,26.31,331.19,-80.29,-165.34
37249,52.403694,-1.515423,137.92,1.77,3,140.17,27 / 27,3538510,2019-09-08 13:05:57:749,-0.0761,0.2237,9.9546,0.0022,-0.0036,9.8066,0.0122,-0.0095,0.0211,-21.44,-31.25,26.5,332.67,-80.27,-165.07
37250,52.403694,-1.515423,137.92,1.77,3,140.17,27 / 27,3538610,2019-09-08 13:05:57:849,0.4182,-0.4428,9.8671,0.0026,0.0004,9.8066,0.0225,-0.0117,0.0088,-21.31,-30.69,26.75,332.66,-80.25,-165.07
37251,52.403694,-1.515423,137.92,1.77,3,140.17,27 / 27,3538710,2019-09-08 13:05:57:949,0.0851,-0.0856,10.0068,0.0012,-0.0034,9.8066,0.0182,-0.0017,0.0109,-21.62,-31.12,26.81,331.09,-80.24,-165.19
37252,52.403694,-1.515423,137.92,1.77,3,140.17,27 / 27,3538810,2019-09-08 13:05:58:049,0.0492,-0.0897,9.8763,-0.0029,-0.0011,9.8066,0.0211,0.0077,0.0038,-21.75,-31.37,26.44,329.9,-80.22,-165.04
37253,52.403694,-1.515423,137.92,1.77,3,140.17,27 / 27,3538910,2019-09-08 13:05:58:149,0.0289,-0.142,9.8071,-0.0017,-0.0053,9.8066,-0.0225,-0.0046,-0.0125,-21.62,-31.19,26.19,330.06,-80.22,-164.9
37254,52.403694,-1.515423,137.92,1.77,3,140.17,27 / 27,3539010,2019-09-08 13:05:58:249,-0.1508,-0.0214,9.909,0.004,-0.0032,9.8066,-0.0289,-0.0163,-0.0003,-21.56,-31.12,25.81,330.2,-80.17,-164.76
37255,52.403694,-1.515423,137.92,1.77,3,140.17,27 / 27,3539110,2019-09-08 13:05:58:349,0.563,-0.3218,9.8452,-0.0059,0.0053,9.8066,0.0257,0.0002,-0.0151,-21.56,-30.56,26.31,330.37,-80.21,-164.63
37256,52.403694,-1.515423,137.92,1.77,3,140.17,27 / 27,3539210,2019-09-08 13:05:58:449,0.2261,-0.3473,9.8831,-0.0018,0.0046,9.8066,0.0189,-0.0322,0.0013,-21.25,-30.62,26.31,331.8,-80.23,-164.64
37257,52.403694,-1.515423,137.92,1.77,3,140.17,27 / 27,3539310,2019-09-08 13:05:58:549,0.1782,0.1318,9.8903,0.0033,-0.0032,9.8066,-0.0013,-0.0058,0.0194,-21.56,-30.56,26.75,331.62,-80.23,-164.72
37258,52.403694,-1.515423,137.92,1.77,3,140.17,27 / 27,3539410,2019-09-08 13:05:58:649,0.1087,-0.2871,9.7103,0.0022,-0.0044,9.8066,-0.0133,-0.0099,0.0168,-21.69,-30.75,27.13,331.71,-80.2,-164.64
37259,52.403694,-1.515423,137.92,1.77,3,140.17,27 / 27,3539510,2019-09-08 13:05:58:749,0.3175,-0.3126,9.788,-0.0069,0.0028,9.8066,-0.0017,-0.0088,-0.0046,-21.19,-31.0,25.94,331.88,-80.2,-164.56
37260,52.403694,-1.515423,137.92,1.77,3,140.17,27 / 27,3539610,2019-09-08 13:05:58:849,-0.0306,-0.0125,9.9428,-0.0024,0.0068,9.8066,-0.0031,-0.0136,0.0058,-21.87,-31.31,26.31,330.6,-80.22,-164.44
37261,52.403694,-1.515423,137.92,1.77,3,140.17,27 / 27,3539711,2019-09-08 13:05:58:950,0.1796,-0.2474,10.0009,0.0027,-0.0037,9.8066,-0.0112,-0.0066,0.014,-21.87,-31.12,27.06,332.0,-80.2,-164.39
37262,52.403694,-1.515423,137.92,1.77,3,140.17,27 / 27,3539810,2019-09-08 13:05:59:049,-0.1045,-0.1539,9.7774,0.0012,-0.0026,9.8066,-0.0188,-0.0067,0.0108,-21.44,-31.44,26.94,333.61,-80.22,-164.24
37263,52.403694,-1.515423,137.92,1.77,3,140.17,27 / 27,3539910,2019-09-08 13:05:59:149,0.3685,-0.2799,9.6661,-0.0021,0.0037,9.8066,0.0097,-0.0298,0.0143,-21.5,-31.31,26.44,332.38,-80.23,-164.15
37264,52.403694,-1.515423,137.92,1.77,3,140.17,27 / 27,3540010,2019-09-08 13:05:59:249,-0.0552,-0.1312,9.8559,-0.0033,0.0027,9.8066,0.0166,-0.0025,-0.006,-21.75,-31.06,25.5,331.0,-80.24,-164.11
37265,52.403694,-1.515423,137.92,1.77,3,140.17,27 / 27,3540110,2019-09-08 13:05:59:349,0.0087,0.0951,9.9322,0.0053,-0.0005,9.8066,-0.0211,-0.0287,0.0051,-21.75,-31.19,26.06,330.86,-80.22,-164.22
37266,52.403694,-1.515423,137.92,1.77,3,140.17,27 / 27,3540210,2019-09-08 13:05:59:449,-0.376,0.5643,9.9948,0.0024,-0.004,9.8066,-0.0336,-0.0077,-0.0182,-21.81,-30.94,26.38,330.71,-80.22,-164.34
37267,52.403694,-1.515423,137.92,1.77,3,140.17,27 / 27,3540310,2019-09-08 13:05:59:549,-0.3024,0.5466,9.7606,-0.0083,0.0071,9.8066,0.01,-0.0174,-0.0046,-21.25,-31.25,26.0,332.36,-80.33,-164.22
37268,52.403694,-1.515423,137.92,1.77,3,140.17,27 / 27,3540410,2019-09-08 13:05:59:649,-0.2849,0.2422,9.7986,-0.0055,0.0058,9.8066,0.0164,-0.0112,0.0109,-22.0,-31.37,25.56,330.99,-80.32,-164.16
37269,52.403694,-1.515423,137.92,1.77,3,140.17,27 / 27,3540510,2019-09-08 13:05:59:749,-0.2926,0.3106,10.012,0.0006,-0.0026,9.8066,0.0094,-0.0197,0.0,-21.37,-30.44,26.13,332.65,-80.3,-164.09
37270,52.403694,-1.515423,137.92,1.77,3,140.17,27 / 27,3540610,2019-09-08 13:05:59:849,-0.2879,0.2501,9.9095,0.0,-0.001,9.8066,0.0166,-0.0175,0.0062,-21.69,-30.87,26.63,332.46,-80.27,-164.03
37271,52.403694,-1.515423,137.92,1.77,3,140.17,27 / 27,3540710,2019-09-08 13:05:59:949,-0.3065,0.5231,9.6982,0.0012,0.001,9.8066,-0.0033,-0.0079,0.0166,-21.31,-31.31,26.38,332.65,-80.26,-163.94
37272,52.403694,-1.515423,137.92,1.77,3,140.17,27 / 27,3540809,2019-09-08 13:06:00:048,-0.1284,0.1555,9.6555,-0.0026,-0.0012,9.8066,0.0065,0.0014,0.0131,-21.62,-31.19,25.88,331.26,-80.25,-163.89
37273,52.403694,-1.515423,137.92,1.77,3,140.17,27 / 27,3540910,2019-09-08 13:06:00:149,0.0559,-0.0143,9.8819,0.0009,-0.0024,9.8066,0.0295,-0.0011,0.0052,-22.06,-31.44,26.0,331.3,-80.22,-163.84
37274,52.403694,-1.515423,137.92,1.77,3,140.17,27 / 27,3541010,2019-09-08 13:06:00:249,-0.2565,0.3278,9.9121,0.0035,-0.0037,9.8066,0.0212,0.004,-0.0048,-21.44,-31.19,25.88,332.74,-80.21,-163.84
37275,52.403694,-1.515423,137.92,1.77,3,140.17,27 / 27,3541110,2019-09-08 13:06:00:349,-0.0956,0.3384,9.7903,0.0035,0.0033,9.8066,0.0089,-0.0016,0.0048,-21.56,-31.37,25.88,331.13,-80.22,-163.98
37276,52.403694,-1.515423,137.92,1.77,3,140.17,27 / 27,3541210,2019-09-08 13:06:00:449,-0.1774,0.2642,9.8,0.0025,0.0008,9.8066,-0.0076,-0.0198,0.0161,-21.75,-30.81,26.25,330.81,-80.23,-164.26
37277,52.403694,-1.515423,137.92,1.77,3,140.17,27 / 27,3541310,2019-09-08 13:06:00:549,-0.1013,0.4113,10.0539,0.0024,0.0011,9.8066,0.0205,-0.0214,0.0124,-21.37,-30.75,26.06,332.17,-80.22,-164.32
37278,52.403694,-1.515423,137.92,1.77,3,140.17,27 / 27,3541410,2019-09-08 13:06:00:649,-0.0674,0.2137,9.9866,0.0009,0.0004,9.8066,0.0223,0.0001,-0.006,-21.37,-30.75,26.63,333.38,-80.21,-164.44
37279,52.403694,-1.515423,137.92,1.77,3,140.17,27 / 27,3541510,2019-09-08 13:06:00:749,-0.3396,0.4472,9.8272,0.0013,-0.0022,9.8066,-0.0282,-0.0032,-0.006,-21.94,-30.5,25.81,330.75,-80.2,-164.44
37280,52.403694,-1.515423,137.92,1.77,3,140.17,27 / 27,3541610,2019-09-08 13:06:00:849,-0.3636,0.4731,9.635,0.0019,-0.0009,9.8066,-0.0264,-0.009,0.0002,-21.62,-30.56,26.44,330.48,-80.19,-164.53
37281,52.403694,-1.515423,137.92,1.77,3,140.17,27 / 27,3541710,2019-09-08 13:06:00:949,-0.1795,0.2985,9.7477,0.0,0.0031,9.8066,0.0162,-0.0003,0.0022,-22.06,-30.75,26.63,331.78,-80.17,-164.56
37282,52.403694,-1.515423,137.92,1.77,3,140.17,27 / 27,3541810,2019-09-08 13:06:01:049,-0.2335,0.2217,9.9516,-0.0028,0.0002,9.8066,0.0171,-0.0131,-0.0043,-21.81,-30.5,26.13,330.57,-80.18,-164.59
37283,52.403694,-1.515423,137.92,1.77,3,140.17,27 / 27,3541910,2019-09-08 13:06:01:149,-0.1908,0.2458,9.8197,0.0053,-0.0027,9.8066,-0.0115,-0.009,0.0021,-21.19,-31.44,26.13,331.91,-80.19,-164.54
37284,52.403694,-1.515423,137.92,1.77,3,140.17,27 / 27,3542010,2019-09-08 13:06:01:249,-0.0883,0.5331,9.7038,0.002,-0.0058,9.8066,0.001,-0.0101,-0.0247,-21.87,-31.56,26.63,331.55,-80.15,-164.61
37285,52.403694,-1.515423,137.92,1.77,3,140.17,27 / 27,3542110,2019-09-08 13:06:01:349,0.1168,-0.29,9.92,-0.0005,0.0024,9.8066,0.0407,0.0002,0.0152,-21.81,-31.44,25.94,330.24,-80.12,-164.69
37286,52.403694,-1.515423,137.92,1.77,3,140.17,27 / 27,3542210,2019-09-08 13:06:01:449,-0.041,0.0764,9.9828,0.0013,-0.0001,9.8066,0.0259,-0.0088,0.016,-22.0,-31.94,26.19,330.01,-80.09,-164.73
37287,52.403694,-1.515423,137.92,1.77,3,140.17,27 / 27,3542310,2019-09-08 13:06:01:549,-0.1772,0.2704,9.9288,0.0045,-0.0027,9.8066,-0.0053,0.0042,0.0157,-22.31,-30.75,26.25,330.09,-80.11,-164.81
37288,52.403694,-1.515423,137.92,1.77,3,140.17,27 / 27,3542410,2019-09-08 13:06:01:649,-0.1963,0.1301,9.9265,0.0024,-0.0019,9.8066,0.0048,-0.0014,-0.0014,-22.25,-31.0,25.75,329.96,-80.1,-164.92
37289,52.403694,-1.515423,137.92,1.77,3,140.17,27 / 27,3542510,2019-09-08 13:06:01:749,-0.2201,0.1545,9.958,0.0001,0.0043,9.8066,0.0345,0.0036,-0.0175,-22.12,-30.94,26.06,329.64,-80.1,-165.19
37290,52.403694,-1.515423,137.92,1.77,3,140.17,27 / 27,3542610,2019-09-08 13:06:01:849,-0.0898,-0.0146,10.0968,0.0009,0.0049,9.8066,0.0312,-0.006,-0.0051,-22.06,-31.44,25.88,329.08,-80.08,-165.67
37291,52.403694,-1.515423,137.92,1.77,3,140.17,26 / 26,3542711,2019-09-08 13:06:01:950,0.1236,-0.098,9.8197,0.0115,-0.0045,9.8066,0.0416,-0.0071,-0.0103,-22.5,-30.81,26.56,329.93,-80.01,-166.07
37292,52.403694,-1.515423,137.92,1.77,3,140.17,26 / 26,3542810,2019-09-08 13:06:02:049,-0.1246,0.1199,9.6221,0.0125,-0.0062,9.8066,0.0021,-0.0062,0.0096,-22.06,-30.87,25.94,327.85,-79.91,-166.62
37293,52.403694,-1.515423,137.92,1.77,3,140.17,26 / 26,3542910,2019-09-08 13:06:02:149,-0.0775,0.2435,9.7971,-0.0018,0.0033,9.8066,0.0035,0.02,0.0048,-22.5,-31.0,26.5,328.84,-79.9,-166.93
37294,52.403694,-1.515423,137.92,1.77,3,140.17,26 / 26,3543010,2019-09-08 13:06:02:249,-0.0736,0.2116,9.9625,-0.0046,0.0034,9.8066,0.0402,0.0156,0.0216,-21.19,-30.87,26.0,328.82,-79.88,-166.99
37295,52.403694,-1.515423,137.92,1.77,3,140.17,26 / 26,3543110,2019-09-08 13:06:02:349,-0.101,0.1304,9.8304,0.005,-0.0053,9.8065,0.0327,0.0231,0.0032,-21.19,-30.69,26.0,328.78,-79.78,-166.98
37296,52.403694,-1.515423,137.92,1.77,3,140.17,26 / 26,3543209,2019-09-08 13:06:02:448,0.1297,0.1536,9.7912,0.004,-0.0104,9.8066,0.0053,-0.001,0.0162,-21.5,-31.25,25.56,328.91,-79.74,-166.84
37297,52.403694,-1.515423,137.92,1.77,3,140.17,26 / 26,3543310,2019-09-08 13:06:02:549,0.2534,-0.2414,9.7891,-0.0058,-0.0028,9.8066,0.0122,0.015,-0.0083,-21.56,-31.37,26.06,327.45,-79.76,-166.88
37298,52.403694,-1.515423,137.92,1.77,3,140.17,26 / 26,3543410,2019-09-08 13:06:02:649,0.1795,-0.2073,9.7232,-0.0006,-0.0042,9.8066,-0.0228,0.0315,0.0193,-21.69,-31.19,25.94,327.97,-79.72,-166.42
37299,52.403694,-1.515423,137.92,1.77,3,140.17,26 / 26,3543510,2019-09-08 13:06:02:749,0.1934,0.0156,9.8588,-0.0071,0.0018,9.8066,-0.0272,0.0115,0.0164,-21.94,-31.62,25.44,326.64,-79.71,-166.14
37300,52.403694,-1.515423,137.92,1.77,3,140.17,26 / 26,3543610,2019-09-08 13:06:02:849,0.1411,0.1385,9.7237,-0.0033,0.0005,9.8066,0.034,0.0132,0.0141,-21.5,-31.25,25.44,328.72,-79.71,-165.76
37301,52.403694,-1.515423,137.92,1.77,3,140.17,26 / 26,3543710,2019-09-08 13:06:02:949,0.1639,-0.7581,9.7317,0.0019,-0.0017,9.8066,0.0091,0.0032,-0.0019,-22.44,-31.56,25.44,326.85,-79.69,-165.95
37302,52.403694,-1.515423,137.92,1.77,3,140.17,27 / 27,3543810,2019-09-08 13:06:03:049,-0.0046,0.2589,9.7286,0.0034,0.0017,9.8066,-0.0342,0.0122,-0.0239,-22.5,-31.81,25.25,326.62,-79.73,-166.17
37303,52.403694,-1.515423,137.92,1.77,3,140.17,27 / 27,3543910,2019-09-08 13:06:03:149,0.1535,0.192,9.7027,-0.0047,0.0043,9.8066,-0.0298,0.0168,-0.0151,-22.75,-31.37,24.88,325.66,-79.78,-166.04
37304,52.403694,-1.515423,137.92,1.77,3,140.17,27 / 27,3544010,2019-09-08 13:06:03:249,0.158,-0.1519,9.8129,-0.0102,-0.0029,9.8066,-0.0427,0.0203,0.0096,-22.12,-31.94,24.75,327.65,-79.87,-165.38
37305,52.403694,-1.515423,137.92,1.77,3,140.17,27 / 27,3544110,2019-09-08 13:06:03:349,-0.5469,0.2302,10.0485,-0.012,-0.0047,9.8066,-0.0452,0.0106,0.0232,-22.56,-31.56,25.19,327.28,-79.89,-164.55
37306,52.403694,-1.515423,137.92,1.77,3,140.17,27 / 27,3544210,2019-09-08 13:06:03:449,-0.5813,0.1791,9.7735,-0.0069,-0.0006,9.8066,-0.0061,0.0113,0.0006,-22.5,-31.06,25.13,329.93,-79.93,-163.64
37307,52.403694,-1.515423,137.92,1.77,3,140.17,27 / 27,3544309,2019-09-08 13:06:03:548,-0.7987,0.4143,9.7985,-0.0001,0.0025,9.8066,-0.0011,-0.0064,-0.0093,-22.56,-31.81,25.31,328.56,-79.97,-163.51
37308,52.403694,-1.515423,137.92,1.77,3,140.17,27 / 27,3544410,2019-09-08 13:06:03:649,-0.46,0.5347,9.7701,0.0034,0.003,9.8066,-0.0284,-0.0045,-0.0155,-22.19,-31.44,24.69,329.74,-80.01,-163.85
37309,52.403694,-1.515423,137.92,1.77,3,140.17,27 / 27,3544510,2019-09-08 13:06:03:749,-0.4918,0.7485,9.9318,0.0057,0.0023,9.8066,-0.0147,0.0082,-0.0065,-22.5,-30.87,24.94,328.91,-80.01,-164.55
37310,52.403694,-1.515423,137.92,1.77,3,140.17,27 / 27,3544610,2019-09-08 13:06:03:849,-0.7974,0.8697,9.9363,0.0007,0.0038,9.8066,0.0112,0.007,-0.006,-22.06,-30.94,25.13,328.7,-80.07,-164.77
37311,52.403595,-1.515287,138.19,1.13,3,137.27,27 / 27,3544710,2019-09-08 13:06:03:949,-0.62,0.7749,9.8865,-0.0006,0.0013,9.8066,0.0166,0.0066,-0.0005,-22.75,-31.31,24.81,327.55,-80.13,-164.61
37312,52.403595,-1.515287,138.19,1.13,3,137.27,27 / 27,3544810,2019-09-08 13:06:04:049,-0.7706,0.6701,9.6789,-0.0011,0.001,9.8066,-0.0192,0.0149,-0.0088,-22.12,-31.5,24.19,327.52,-80.16,-164.55
37313,52.403595,-1.515287,138.19,1.13,3,137.27,27 / 27,3544910,2019-09-08 13:06:04:149,-0.7234,0.6838,9.801,-0.0001,0.0028,9.8066,-0.0016,-0.0055,0.0007,-22.0,-31.62,24.06,327.27,-80.21,-164.63
37314,52.403595,-1.515287,138.19,1.13,3,137.27,27 / 27,3545010,2019-09-08 13:06:04:249,-0.5787,0.7946,9.9682,-0.0019,0.0032,9.8066,-0.0113,0.0091,0.0012,-22.25,-31.62,24.38,327.23,-80.24,-164.69
37315,52.403595,-1.515287,138.19,1.13,3,137.27,27 / 27,3545110,2019-09-08 13:06:04:349,-0.5548,0.4303,9.9238,0.0004,-0.0016,9.8066,-0.0031,-0.0107,0.0091,-22.25,-32.12,24.38,327.17,-80.26,-164.74
37316,52.403595,-1.515287,138.19,1.13,3,137.27,27 / 27,3545210,2019-09-08 13:06:04:449,-0.3871,0.3906,9.7729,-0.0014,0.0015,9.8066,0.0071,-0.0023,0.011,-22.62,-32.06,24.0,325.83,-80.27,-164.73
37317,52.403595,-1.515287,138.19,1.13,3,137.27,27 / 27,3545310,2019-09-08 13:06:04:549,-0.3639,0.2014,9.9156,0.0005,-0.0017,9.8065,0.0165,-0.0007,0.0074,-22.31,-31.37,24.25,327.57,-80.28,-164.57
37318,52.403595,-1.515287,138.19,1.13,3,137.27,27 / 27,3545410,2019-09-08 13:06:04:649,-0.5134,0.4205,9.8257,0.0,0.0021,9.8066,0.0077,0.0077,0.0001,-22.19,-31.12,23.75,327.61,-80.3,-164.56
37319,52.403595,-1.515287,138.19,1.13,3,137.27,27 / 27,3545511,2019-09-08 13:06:04:750,-0.3525,0.3063,9.7614,-0.0025,0.0018,9.8066,0.0063,-0.0058,0.0114,-22.69,-32.06,24.0,326.1,-80.31,-164.53
37320,52.403595,-1.515287,138.19,1.13,3,137.27,27 / 27,3545610,2019-09-08 13:06:04:849,-0.2287,0.2543,9.9932,-0.0038,0.0009,9.8066,0.0126,-0.0096,0.0036,-21.94,-31.75,23.63,327.51,-80.3,-164.48
37321,52.403595,-1.515287,138.19,1.13,3,137.27,27 / 27,3545710,2019-09-08 13:06:04:949,-0.5068,0.3757,9.9065,0.0045,-0.0046,9.8066,0.005,-0.0008,0.0067,-22.31,-32.06,23.94,327.51,-80.31,-164.49
37322,52.403595,-1.515287,138.19,1.13,3,137.27,27 / 27,3545810,2019-09-08 13:06:05:049,-0.3444,0.2428,9.8234,0.0028,-0.0019,9.8066,-0.0073,-0.0086,-0.005,-22.37,-31.94,24.19,327.48,-80.3,-164.51
37323,52.403595,-1.515287,138.19,1.13,3,137.27,27 / 27,3545910,2019-09-08 13:06:05:149,-0.4228,0.4381,9.8419,-0.002,0.0009,9.8066,0.0132,0.0002,0.0144,-22.44,-31.62,23.94,327.53,-80.32,-164.47
37324,52.403595,-1.515287,138.19,1.13,3,137.27,27 / 27,3546010,2019-09-08 13:06:05:249,-0.3709,0.4223,9.8341,-0.0016,0.0014,9.8066,0.0035,-0.0187,-0.0036,-22.12,-31.94,23.63,327.53,-80.32,-164.48
37325,52.403595,-1.515287,138.19,1.13,3,137.27,27 / 27,3546110,2019-09-08 13:06:05:349,-0.2533,0.354,9.861,0.0005,-0.0002,9.8066,0.0045,0.0012,0.0006,-22.62,-31.94,23.38,324.61,-80.32,-164.48
37326,52.403595,-1.515287,138.19,1.13,3,137.27,27 / 27,3546210,2019-09-08 13:06:05:449,-0.3605,0.3167,9.8717,-0.0015,0.0011,9.8066,0.0001,-0.0127,0.0016,-22.19,-32.25,23.69,327.57,-80.34,-164.46
37327,52.403595,-1.515287,138.19,1.13,3,137.27,27 / 27,3546310,2019-09-08 13:06:05:549,-0.436,0.4081,9.8504,0.0004,0.0003,9.8065,0.0148,-0.0047,0.0131,-22.06,-31.75,23.88,327.61,-80.34,-164.43
37328,52.403595,-1.515287,138.19,1.13,3,137.27,27 / 27,3546410,2019-09-08 13:06:05:649,-0.3428,0.3758,9.8423,-0.0006,0.0023,9.8066,0.0106,-0.013,0.0011,-22.25,-32.37,23.56,327.59,-80.36,-164.45
37329,52.403595,-1.515287,138.19,1.13,3,137.27,27 / 27,3546510,2019-09-08 13:06:05:749,-0.1496,0.0822,9.84,0.0004,0.0015,9.8066,-0.0034,0.0003,-0.0025,-22.0,-31.69,24.0,327.49,-80.38,-164.55
37330,52.403595,-1.515287,138.19,1.13,3,137.27,27 / 27,3546610,2019-09-08 13:06:05:849,0.2143,-0.3038,9.8228,-0.0002,-0.0008,9.8066,0.0173,-0.0109,0.0068,-22.37,-31.69,23.94,327.45,-80.37,-164.57
37331,52.403595,-1.515287,138.19,1.13,3,137.27,27 / 27,3546710,2019-09-08 13:06:05:949,0.2348,-0.3402,9.8862,0.0033,-0.0047,9.8066,0.022,-0.0077,0.0114,-22.56,-31.81,24.13,326.14,-80.33,-164.51
37332,52.403595,-1.515287,138.19,1.13,3,137.27,27 / 27,3546810,2019-09-08 13:06:06:049,-0.1085,0.14,9.7739,0.0012,-0.0006,9.8066,0.0159,-0.0174,-0.0013,-22.56,-31.94,23.88,326.14,-80.29,-164.49
37333,52.403595,-1.515287,138.19,1.13,3,137.27,27 / 27,3546910,2019-09-08 13:06:06:149,-0.069,0.0629,9.9532,-0.001,0.0022,9.8066,-0.0054,-0.0101,-0.0025,-22.25,-31.5,23.88,327.7,-80.31,-164.49
37334,52.403595,-1.515287,138.19,1.13,3,137.27,27 / 27,3547010,2019-09-08 13:06:06:249,0.0889,-0.0128,9.8475,0.0008,-0.0012,9.8066,0.0174,-0.0137,0.0122,-22.31,-31.75,23.5,327.5,-80.31,-164.5
37335,52.403595,-1.515287,138.19,1.13,3,137.27,27 / 27,3547110,2019-09-08 13:06:06:349,0.0174,-0.0408,9.8157,0.0004,0.0006,9.8066,0.0169,-0.0177,0.0023,-22.19,-31.25,24.5,329.21,-80.31,-164.46
37336,52.403595,-1.515287,138.19,1.13,3,137.27,27 / 27,3547210,2019-09-08 13:06:06:449,-0.0025,-0.0437,9.9142,-0.0002,0.0006,9.8066,-0.0178,-0.0033,-0.0109,-22.44,-31.81,23.69,327.53,-80.33,-164.48
37337,52.403595,-1.515287,138.19,1.13,3,137.27,27 / 27,3547310,2019-09-08 13:06:06:549,-0.0588,-0.0231,9.9048,0.0,-0.0003,9.8066,-0.0069,-0.0213,0.0009,-22.25,-32.31,24.13,327.52,-80.33,-164.5
37338,52.403595,-1.515287,138.19,1.13,3,137.27,27 / 27,3547410,2019-09-08 13:06:06:649,-0.0346,0.0371,9.8043,-0.0004,0.0005,9.8066,0.0036,-0.0102,0.0059,-22.19,-31.69,24.13,327.55,-80.33,-164.46
37339,52.403595,-1.515287,138.19,1.13,3,137.27,27 / 27,3547510,2019-09-08 13:06:06:749,-0.0651,0.1812,9.9937,-0.0028,0.0011,9.8065,-0.0069,0.0156,0.0035,-22.94,-31.56,24.13,326.24,-80.35,-164.43
37340,52.403595,-1.515287,138.19,1.13,3,137.27,27 / 27,3547610,2019-09-08 13:06:06:849,0.0656,-0.0708,9.8215,0.0,0.0004,9.8066,-0.0109,-0.0084,0.0047,-22.25,-31.75,23.38,326.1,-80.36,-164.39
37341,52.403595,-1.515287,138.19,1.13,3,137.27,27 / 27,3547710,2019-09-08 13:06:06:949,-0.0967,0.0153,9.9482,-0.0012,0.0007,9.8066,-0.0112,-0.0075,-0.0072,-22.06,-32.12,23.75,327.66,-80.38,-164.4
37342,52.403595,-1.515287,138.19,1.13,3,137.27,27 / 27,3547810,2019-09-08 13:06:07:049,-0.0567,0.1551,10.0012,-0.0006,0.0001,9.8066,0.0335,-0.029,0.0063,-22.37,-31.19,23.69,327.87,-80.37,-164.38
37343,52.403595,-1.515287,138.19,1.13,3,137.27,27 / 27,3547909,2019-09-08 13:06:07:148,0.0233,-0.018,9.8017,0.0002,0.0007,9.8066,0.0126,-0.0084,-0.0049,-21.94,-31.12,23.38,326.26,-80.37,-164.43
37344,52.403595,-1.515287,138.19,1.13,3,137.27,27 / 27,3548010,2019-09-08 13:06:07:249,0.1182,-0.1448,9.8208,0.0009,-0.0015,9.8066,0.029,-0.0089,0.0152,-22.31,-31.5,23.94,327.82,-80.38,-164.42
37345,52.403595,-1.515287,138.19,1.13,3,137.27,27 / 27,3548110,2019-09-08 13:06:07:349,-0.0736,0.155,10.0291,0.0,0.0007,9.8065,-0.0006,0.0071,0.0046,-22.37,-31.94,24.69,329.06,-80.38,-164.48
37346,52.403595,-1.515287,138.19,1.13,3,137.27,27 / 27,3548210,2019-09-08 13:06:07:449,0.121,-0.1118,9.7894,0.0009,-0.0012,9.8066,-0.0342,-0.0074,0.0086,-22.31,-31.69,23.94,327.57,-80.39,-164.48
37347,52.403595,-1.515287,138.19,1.13,3,137.27,27 / 27,3548310,2019-09-08 13:06:07:549,0.0031,-0.1032,9.7328,-0.004,0.0024,9.8066,-0.0376,-0.0006,-0.0082,-22.25,-31.56,24.0,327.65,-80.42,-164.44
37348,52.403595,-1.515287,138.19,1.13,3,137.27,27 / 27,3548410,2019-09-08 13:06:07:649,-0.0425,0.0928,10.0379,-0.0036,0.0034,9.8066,0.0229,-0.0318,-0.0057,-22.75,-32.19,23.81,326.25,-80.41,-164.47
37349,52.403595,-1.515287,138.19,1.13,3,137.27,27 / 27,3548510,2019-09-08 13:06:07:749,0.0313,-0.0418,9.8748,0.0037,-0.0036,9.8066,0.0289,-0.0254,-0.0112,-21.94,-32.06,23.88,327.47,-80.41,-164.58
37350,52.403595,-1.515287,138.19,1.13,3,137.27,27 / 27,3548610,2019-09-08 13:06:07:849,-0.016,0.0337,9.7157,0.0035,-0.0032,9.8066,0.0085,-0.0208,-0.0007,-22.5,-31.87,23.94,327.46,-80.37,-164.57
37351,52.403595,-1.515287,138.19,1.13,3,137.27,26 / 26,3548710,2019-09-08 13:06:07:949,0.0828,-0.124,9.8319,-0.0022,0.0013,9.8066,0.023,-0.0138,0.0041,-22.5,-31.31,24.13,327.69,-80.38,-164.54
37352,52.403595,-1.515287,138.19,1.13,3,137.27,26 / 26,3548810,2019-09-08 13:06:08:049,-0.089,0.0309,9.9884,-0.0015,0.0026,9.8066,0.0084,0.0085,0.0135,-22.56,-32.25,23.94,326.21,-80.4,-164.49
37353,52.403595,-1.515287,138.19,1.13,3,137.27,26 / 26,3548909,2019-09-08 13:06:08:148,-0.1297,0.2656,9.9472,0.0008,-0.0007,9.8066,0.0161,0.0051,0.0207,-22.25,-31.87,24.06,327.58,-80.4,-164.48
37354,52.403595,-1.515287,138.19,1.13,3,137.27,26 / 26,3549010,2019-09-08 13:06:08:249,0.1028,-0.1782,9.625,-0.0009,0.0008,9.8066,0.0142,0.019,0.0159,-22.5,-31.81,23.56,327.66,-80.42,-164.43
37355,52.403595,-1.515287,138.19,1.13,3,137.27,26 / 26,3549110,2019-09-08 13:06:08:349,0.1522,-0.3315,9.8197,0.0013,-0.0008,9.8066,0.0254,-0.0034,0.0289,-22.75,-31.94,24.31,326.32,-80.41,-164.4
37356,52.403595,-1.515287,138.19,1.13,3,137.27,26 / 26,3549210,2019-09-08 13:06:08:449,0.0685,-0.36,9.8019,0.0025,-0.0011,9.8066,-0.0208,0.0148,0.0289,-22.44,-31.25,24.19,327.82,-80.4,-164.44
37357,52.403595,-1.515287,138.19,1.13,3,137.27,26 / 26,3549310,2019-09-08 13:06:08:549,-0.4205,0.4839,10.1091,-0.0027,0.0026,9.8065,-0.0224,0.0157,0.0295,-22.0,-31.87,23.88,327.67,-80.39,-164.41
37358,52.403595,-1.515287,138.19,1.13,3,137.27,26 / 26,3549410,2019-09-08 13:06:08:649,0.0123,0.0995,9.713,-0.0013,-0.0002,9.8066,0.0097,0.0118,0.0216,-22.12,-31.81,23.56,327.73,-80.41,-164.36
37359,52.403595,-1.515287,138.19,1.13,3,137.27,26 / 26,3549510,2019-09-08 13:06:08:749,0.0157,0.0012,9.8384,0.0038,-0.0026,9.8066,0.0023,0.0157,0.0181,-22.31,-31.5,23.94,327.86,-80.39,-164.4
37360,52.403595,-1.515287,138.19,1.13,3,137.27,26 / 26,3549610,2019-09-08 13:06:08:849,0.2983,-0.4257,9.5536,0.0024,-0.0042,9.8065,-0.046,0.0103,0.0139,-22.31,-32.06,24.06,327.73,-80.39,-164.35
37361,52.403595,-1.515287,138.19,1.13,3,137.27,27 / 27,3549710,2019-09-08 13:06:08:949,-0.0715,0.0032,9.9374,-0.0018,0.0004,9.8066,-0.0478,0.019,0.006,-22.44,-31.75,24.13,327.68,-80.4,-164.4
37362,52.403595,-1.515287,138.19,1.13,3,137.27,27 / 27,3549810,2019-09-08 13:06:09:049,-0.0532,0.0913,10.0998,-0.0039,0.0031,9.8066,-0.0213,0.0038,0.0001,-22.12,-32.0,24.06,327.77,-80.42,-164.33
37363,52.403595,-1.515287,138.19,1.13,3,137.27,27 / 27,3549910,2019-09-08 13:06:09:149,-0.202,0.3838,10.1377,0.0053,-0.005,9.8066,-0.0156,0.0037,0.0033,-22.94,-31.5,24.38,326.59,-80.41,-164.33
37364,52.403595,-1.515287,138.19,1.13,3,137.27,27 / 27,3550010,2019-09-08 13:06:09:249,0.2015,-0.3666,9.6287,0.0037,-0.002,9.8066,-0.0636,0.0114,-0.0092,-22.44,-31.94,24.31,327.66,-80.38,-164.41
37365,52.403595,-1.515287,138.19,1.13,3,137.27,27 / 27,3550110,2019-09-08 13:06:09:349,0.2562,-0.3375,9.5351,-0.0024,0.0028,9.8066,-0.0568,-0.0014,-0.0084,-22.25,-32.19,23.88,327.7,-80.4,-164.38
37366,52.403595,-1.515287,138.19,1.13,3,137.27,27 / 27,3550210,2019-09-08 13:06:09:449,0.1251,-0.3498,9.8617,-0.0031,0.002,9.8066,-0.0269,-0.0256,-0.0051,-22.25,-31.5,23.88,327.92,-80.41,-164.36
37367,52.403595,-1.515287,138.19,1.13,3,137.27,27 / 27,3550310,2019-09-08 13:06:09:549,-0.3175,0.5105,10.2204,0.0023,0.0002,9.8066,-0.0557,-0.013,-0.0278,-22.12,-31.56,24.0,327.74,-80.41,-164.35
37368,52.403595,-1.515287,138.19,1.13,3,137.27,27 / 27,3550410,2019-09-08 13:06:09:649,-0.3158,0.3859,10.0559,0.0012,-0.0008,9.8066,-0.0182,-0.0428,-0.0307,-22.31,-31.62,23.88,327.57,-80.4,-164.49
37369,52.403595,-1.515287,138.19,1.13,3,137.27,27 / 27,3550510,2019-09-08 13:06:09:749,0.0524,0.1699,9.7822,-0.0015,0.0009,9.8066,-0.0384,-0.0243,-0.0433,-22.44,-31.44,24.06,327.6,-80.39,-164.62
37370,52.403595,-1.515287,138.19,1.13,3,137.27,27 / 27,3550610,2019-09-08 13:06:09:849,0.0053,0.0844,9.9046,-0.0024,-0.0015,9.8066,0.0174,-0.0118,0.01,-22.37,-31.06,24.0,327.78,-80.38,-164.46
37371,52.403595,-1.515287,138.19,1.13,3,137.27,27 / 27,3550710,2019-09-08 13:06:09:949,0.0758,-0.1266,9.9152,0.0024,-0.0035,9.8066,-0.009,0.0107,0.012,-22.12,-31.12,24.5,329.34,-80.35,-164.37
37372,52.403595,-1.515287,138.19,1.13,3,137.27,27 / 27,3550810,2019-09-08 13:06:10:049,0.3171,-0.2533,9.8552,0.0057,-0.0044,9.8066,-0.0001,-0.0181,-0.0086,-22.75,-31.12,24.13,326.37,-80.33,-164.48
37373,52.403595,-1.515287,138.19,1.13,3,137.27,27 / 27,3550910,2019-09-08 13:06:10:149,-0.056,0.1915,9.8552,-0.0007,0.0006,9.8066,-0.0049,-0.0288,-0.0161,-22.19,-31.5,23.75,327.67,-80.33,-164.52
37374,52.403595,-1.515287,138.19,1.13,3,137.27,27 / 27,3551010,2019-09-08 13:06:10:249,0.273,-0.3458,9.9418,-0.0011,-0.0015,9.8066,-0.0064,0.0019,0.0027,-21.87,-31.12,24.0,327.75,-80.31,-164.44
37375,52.403595,-1.515287,138.19,1.13,3,137.27,27 / 27,3551110,2019-09-08 13:06:10:349,0.3558,-0.2605,9.9382,-0.001,-0.0006,9.8066,-0.0056,-0.0021,0.0005,-22.5,-31.69,23.94,327.55,-80.28,-164.44
37376,52.403595,-1.515287,138.19,1.13,3,137.27,27 / 27,3551210,2019-09-08 13:06:10:449,0.2641,-0.4119,9.8216,0.0011,0.001,9.8066,0.0215,-0.013,-0.0043,-21.62,-31.31,24.06,327.8,-80.28,-164.38
37377,52.403595,-1.515287,138.19,1.13,3,137.27,27 / 27,3551310,2019-09-08 13:06:10:549,0.3831,-0.385,9.9327,0.002,-0.0011,9.8066,0.0271,0.0046,0.0056,-22.56,-31.25,24.0,326.38,-80.24,-164.41
37378,52.403595,-1.515287,138.19,1.13,3,137.27,27 / 27,3551410,2019-09-08 13:06:10:649,0.3896,-0.391,9.9398,0.0022,-0.0031,9.8066,-0.0035,0.0011,0.0031,-22.25,-31.87,24.13,327.52,-80.21,-164.42
37379,52.403595,-1.515287,138.19,1.13,3,137.27,27 / 27,3551510,2019-09-08 13:06:10:749,0.5441,-0.5653,9.8853,0.0001,-0.0018,9.8066,0.0075,-0.0014,0.0118,-22.37,-31.12,24.56,329.19,-80.2,-164.42
37380,52.403595,-1.515287,138.19,1.13,3,137.27,27 / 27,3551609,2019-09-08 13:06:10:848,0.5749,-0.6119,9.8161,-0.0011,-0.0018,9.8066,0.0195,-0.0127,0.0144,-22.06,-31.19,24.44,327.64,-80.18,-164.46
37381,52.403595,-1.515287,138.19,1.13,3,137.27,27 / 27,3551710,2019-09-08 13:06:10:949,0.4693,-0.4552,9.8586,-0.0015,-0.0009,9.8066,0.0079,-0.0002,0.0041,-22.75,-31.44,24.56,327.82,-80.16,-164.4
37382,52.403595,-1.515287,138.19,1.13,3,137.27,27 / 27,3551809,2019-09-08 13:06:11:048,0.3586,-0.5724,9.9,0.0003,0.0021,9.8065,0.0053,0.003,-0.0008,-22.25,-30.87,24.38,327.62,-80.16,-164.47
37383,52.403595,-1.515287,138.19,1.13,3,137.27,27 / 27,3551910,2019-09-08 13:06:11:149,0.3558,-0.5553,9.9022,0.0022,-0.0003,9.8066,-0.0011,0.007,0.0047,-22.5,-31.19,24.69,329.19,-80.17,-164.4
37384,52.403595,-1.515287,138.19,1.13,3,137.27,27 / 27,3552010,2019-09-08 13:06:11:249,0.4825,-0.4082,9.8925,0.0018,-0.003,9.8066,-0.0104,-0.0204,0.0177,-22.25,-31.62,24.19,327.43,-80.16,-164.47
37385,52.403595,-1.515287,138.19,1.13,3,137.27,27 / 27,3552110,2019-09-08 13:06:11:349,0.2636,-0.3107,9.7948,-0.0046,0.0057,9.8066,-0.019,0.0088,-0.0016,-22.5,-31.31,24.38,327.65,-80.13,-164.43
37386,52.403595,-1.515287,138.19,1.13,3,137.27,27 / 27,3552210,2019-09-08 13:06:11:449,0.7129,-0.6359,9.8754,-0.0022,0.0021,9.8066,0.0305,0.0047,0.0035,-22.56,-31.56,24.13,326.13,-80.18,-164.42
37387,52.403595,-1.515287,138.19,1.13,3,137.27,27 / 27,3552310,2019-09-08 13:06:11:549,0.4169,-0.4495,9.9201,0.0007,0.0021,9.8066,0.0129,-0.0129,0.0104,-22.19,-31.37,24.19,327.64,-80.17,-164.46
37388,52.403595,-1.515287,138.19,1.13,3,137.27,27 / 27,3552410,2019-09-08 13:06:11:649,0.2975,-0.2544,9.8758,0.0,-0.0015,9.8066,0.0238,0.005,0.009,-22.31,-30.81,24.38,327.54,-80.15,-164.53
37389,52.403595,-1.515287,138.19,1.13,3,137.27,27 / 27,3552510,2019-09-08 13:06:11:749,0.5644,-0.4083,9.8716,0.0032,-0.0036,9.8066,0.0214,0.0091,0.019,-22.25,-30.62,23.94,327.48,-80.13,-164.57
37390,52.403595,-1.515287,138.19,1.13,3,137.27,27 / 27,3552610,2019-09-08 13:06:11:849,0.454,-0.3227,9.9192,0.002,-0.0046,9.8066,0.0052,-0.0025,0.012,-21.75,-30.87,24.56,328.98,-80.06,-164.52
37391,52.403595,-1.515287,138.19,1.13,3,137.27,27 / 27,3552710,2019-09-08 13:06:11:949,0.3393,-0.2201,9.7795,-0.0032,-0.0044,9.8065,0.0021,0.0012,0.0121,-21.5,-31.25,24.0,329.09,-80.01,-164.35
37392,52.403595,-1.515287,138.19,1.13,3,137.27,27 / 27,3552810,2019-09-08 13:06:12:049,0.2092,-0.1549,9.8956,-0.0012,-0.0075,9.8066,-0.0035,0.0028,-0.0026,-22.0,-31.31,24.44,328.21,-79.94,-163.83
37393,52.403595,-1.515287,138.19,1.13,3,137.27,27 / 27,3552910,2019-09-08 13:06:12:149,0.0496,-0.4196,9.9826,-0.0018,-0.0015,9.8066,-0.0027,-0.0147,0.012,-21.62,-31.25,23.94,328.62,-79.93,-163.49
37394,52.403595,-1.515287,138.19,1.13,3,137.27,27 / 27,3553010,2019-09-08 13:06:12:249,0.2657,-0.2375,10.0352,-0.0017,0.0014,9.8065,0.0082,-0.0106,0.0119,-21.56,-31.37,24.69,330.26,-79.96,-163.38
37395,52.403595,-1.515287,138.19,1.13,3,137.27,27 / 27,3553110,2019-09-08 13:06:12:349,0.2412,-0.0355,9.9715,0.0016,0.0007,9.8065,0.0215,0.0062,-0.0048,-21.62,-31.5,24.88,330.22,-79.98,-163.42
37396,52.403595,-1.515287,138.19,1.13,3,137.27,27 / 27,3553210,2019-09-08 13:06:12:449,0.2216,-0.0268,9.7336,-0.0001,0.0024,9.8066,0.0233,0.0179,0.0049,-22.06,-31.44,24.38,328.62,-79.99,-163.51
37397,52.403595,-1.515287,138.19,1.13,3,137.27,27 / 27,3553310,2019-09-08 13:06:12:549,0.1676,-0.1565,9.7675,-0.0014,-0.0006,9.8066,0.0142,-0.0079,0.0099,-21.87,-31.69,23.94,328.5,-79.98,-163.45
37398,52.403595,-1.515287,138.19,1.13,3,137.27,27 / 27,3553410,2019-09-08 13:06:12:649,-0.18,-0.0008,9.9198,-0.0009,-0.001,9.8066,-0.0122,-0.0036,-0.0098,-22.25,-31.62,23.88,328.75,-79.98,-163.24
37399,52.403595,-1.515287,138.19,1.13,3,137.27,27 / 27,3553510,2019-09-08 13:06:12:749,0.2542,-0.1054,9.9419,0.0035,-0.0001,9.8065,0.0075,0.0176,-0.0185,-22.37,-31.44,23.75,328.86,-79.97,-163.3
37400,52.403595,-1.515287,138.19,1.13,3,137.27,27 / 27,3553610,2019-09-08 13:06:12:849,-0.4408,1.1217,9.9316,0.0085,0.0027,9.8066,0.0975,-0.0332,0.0299,-22.0,-31.25,23.19,326.88,-79.94,-163.63
37401,52.403595,-1.515287,138.19,1.13,3,137.27,27 / 27,3553710,2019-09-08 13:06:12:949,-0.1636,0.0291,9.8114,0.006,-0.0042,9.8065,0.0548,0.0094,-0.0094,-21.87,-30.69,23.81,327.68,-79.87,-164.24
37402,52.403595,-1.515287,138.19,1.13,3,137.27,27 / 27,3553810,2019-09-08 13:06:13:049,0.2572,0.1467,9.7137,-0.0024,0.0059,9.8066,0.1766,0.0056,0.0127,-21.62,-31.37,24.38,327.53,-79.77,-164.32
37403,52.403595,-1.515287,138.19,1.13,3,137.27,27 / 27,3553910,2019-09-08 13:06:13:149,0.4198,-0.603,9.7046,0.0167,-0.0218,9.8066,0.1787,-0.0088,0.0108,-22.0,-31.12,24.13,327.71,-79.67,-164.1
37404,52.403595,-1.515287,138.19,1.13,3,137.27,27 / 27,3554010,2019-09-08 13:06:13:249,-0.2103,-0.3179,10.2898,0.0114,-0.0226,9.8066,-0.1156,0.0148,-0.0002,-22.0,-30.87,24.81,329.59,-79.5,-163.69
37405,52.403595,-1.515287,138.19,1.13,3,137.27,27 / 27,3554109,2019-09-08 13:06:13:348,-0.3151,0.0767,10.0849,-0.0132,0.01,9.8066,-0.0853,0.0057,0.0058,-22.06,-31.25,25.0,329.99,-79.49,-163.35
37406,52.403595,-1.515287,138.19,1.13,3,137.27,27 / 27,3554210,2019-09-08 13:06:13:449,-0.4551,0.5201,9.9057,-0.0103,0.0089,9.8065,0.084,-0.0119,0.008,-21.37,-31.19,24.44,330.41,-79.56,-162.99
37407,52.403595,-1.515287,138.19,1.13,3,137.27,27 / 27,3554309,2019-09-08 13:06:13:548,-0.3629,0.7704,10.0554,0.0122,-0.0014,9.8066,0.0538,-0.0028,-0.0323,-21.94,-31.12,24.5,330.02,-79.6,-163.39
37408,52.403595,-1.515287,138.19,1.13,3,137.27,27 / 27,3554410,2019-09-08 13:06:13:649,-0.4562,0.5954,9.6603,0.0097,-0.0009,9.8065,-0.0607,-0.0209,-0.0192,-21.56,-31.25,24.81,329.27,-79.62,-164.03
37409,52.403595,-1.515287,138.19,1.13,3,137.27,27 / 27,3554510,2019-09-08 13:06:13:749,-0.6877,0.8903,9.6024,-0.0098,0.0139,9.8066,-0.0818,-0.0065,-0.0206,-21.75,-31.31,24.81,329.05,-79.76,-164.3
37410,52.403595,-1.515287,138.19,1.13,3,137.27,27 / 27,3554610,2019-09-08 13:06:13:849,-0.4416,0.9185,9.7676,-0.0122,0.0057,9.8066,0.0362,-0.0245,0.0242,-22.0,-31.56,24.5,329.05,-79.77,-164.14
37411,52.403595,-1.515287,138.19,1.13,3,137.27,27 / 27,3554710,2019-09-08 13:06:13:949,-0.4907,0.6275,9.9732,0.0041,-0.0076,9.8065,0.0501,0.0022,0.0118,-21.69,-31.56,24.69,329.22,-79.79,-164.01
37412,52.403595,-1.515287,138.19,1.13,3,137.27,27 / 27,3554810,2019-09-08 13:06:14:049,-0.861,0.8247,9.905,0.0042,-0.0077,9.8066,-0.0169,0.0053,-0.008,-21.44,-31.06,24.63,331.07,-79.75,-163.8
37413,52.403595,-1.515287,138.19,1.13,3,137.27,27 / 27,3554910,2019-09-08 13:06:14:149,-0.8631,0.9637,9.7656,0.0021,0.0019,9.8066,-0.0167,-0.0017,-0.0156,-22.12,-31.87,24.38,327.83,-79.76,-163.89
37414,52.403595,-1.515287,138.19,1.13,3,137.27,27 / 27,3555010,2019-09-08 13:06:14:249,-0.6695,0.8304,9.8075,0.0018,0.0012,9.8066,0.0157,-0.0094,-0.0029,-21.5,-32.31,24.63,330.5,-79.75,-164.13
37415,52.403595,-1.515287,138.19,1.13,3,137.27,27 / 27,3555110,2019-09-08 13:06:14:349,-0.6702,0.7875,9.9205,0.0014,-0.0003,9.8066,0.0338,-0.0048,-0.0017,-21.94,-31.94,24.19,327.38,-79.74,-164.26
37416,52.403595,-1.515287,138.19,1.13,3,137.27,27 / 27,3555210,2019-09-08 13:06:14:449,-0.4541,0.6696,9.9775,0.0008,0.0003,9.8066,-0.0071,-0.0075,0.0147,-22.19,-32.0,23.88,327.26,-79.72,-164.34
37417,52.403595,-1.515287,138.19,1.13,3,137.27,27 / 27,3555310,2019-09-08 13:06:14:549,-0.4317,0.3986,9.6349,0.0026,-0.0012,9.8066,-0.019,0.0173,-0.0147,-22.44,-31.19,23.94,327.51,-79.68,-164.28
37418,52.403595,-1.515287,138.19,1.13,3,137.27,27 / 27,3555410,2019-09-08 13:06:14:649,-0.492,0.3783,9.727,0.0022,-0.0045,9.8066,0.0319,-0.0096,0.0094,-22.12,-32.0,23.81,327.24,-79.63,-164.3
37419,52.403595,-1.515287,138.19,1.13,3,137.27,27 / 27,3555510,2019-09-08 13:06:14:749,-0.1683,0.3754,9.8539,-0.0001,0.0008,9.8066,0.0243,0.0041,0.0003,-21.56,-31.25,24.38,327.45,-79.6,-164.28
37420,52.403595,-1.515287,138.19,1.13,3,137.27,27 / 27,3555609,2019-09-08 13:06:14:848,-0.3082,0.3319,9.8457,0.0004,-0.0006,9.8066,-0.0112,-0.0135,-0.0014,-22.44,-31.69,23.94,327.18,-79.58,-164.32
37421,52.403595,-1.515287,138.19,1.13,3,137.27,27 / 27,3555709,2019-09-08 13:06:14:948,-0.1371,-0.0199,9.8494,0.0026,-0.0043,9.8066,0.0076,-0.0231,0.0087,-22.31,-31.75,23.63,327.2,-79.54,-164.28
37422,52.403595,-1.515287,138.19,1.13,3,137.27,27 / 27,3555810,2019-09-08 13:06:15:049,-0.1845,0.254,9.7456,0.0037,-0.0027,9.8066,0.0183,0.0047,0.0008,-21.94,-31.06,24.19,327.4,-79.5,-164.26
37423,52.403595,-1.515287,138.19,1.13,3,137.27,27 / 27,3555910,2019-09-08 13:06:15:149,-0.1481,0.0858,9.7893,0.0013,0.0004,9.8066,0.0121,-0.0106,0.002,-22.06,-31.69,23.81,327.11,-79.5,-164.33
37424,52.403595,-1.515287,138.19,1.13,3,137.27,27 / 27,3556010,2019-09-08 13:06:15:249,-0.2113,0.2371,9.8592,-0.0024,0.0017,9.8066,0.0166,-0.0201,0.0075,-22.12,-31.56,23.81,327.06,-79.49,-164.37
37425,52.403595,-1.515287,138.19,1.13,3,137.27,27 / 27,3556110,2019-09-08 13:06:15:349,-0.2175,0.2816,9.9585,0.0009,-0.0022,9.8066,0.0146,0.0104,0.0055,-22.0,-31.37,24.31,327.29,-79.47,-164.33
37426,52.403595,-1.515287,138.19,1.13,3,137.27,27 / 27,3556210,2019-09-08 13:06:15:449,-0.2364,0.2115,9.8944,0.0021,-0.0009,9.8066,-0.0067,-0.0154,-0.0005,-22.19,-31.06,24.38,327.29,-79.47,-164.34
37427,52.403595,-1.515287,138.19,1.13,3,137.27,27 / 27,3556310,2019-09-08 13:06:15:549,-0.2871,0.3277,9.8334,0.0017,-0.0011,9.8066,0.0025,-0.0147,0.006,-22.25,-31.25,24.0,327.32,-79.47,-164.31
37428,52.403595,-1.515287,138.19,1.13,3,137.27,27 / 27,3556410,2019-09-08 13:06:15:649,-0.204,0.2077,9.7782,0.0007,0.0007,9.8066,0.001,-0.0013,-0.0043,-22.25,-31.62,23.94,327.07,-79.46,-164.34
37429,52.403595,-1.515287,138.19,1.13,3,137.27,27 / 27,3556510,2019-09-08 13:06:15:749,-0.4472,0.4292,9.86,0.0006,-0.0009,9.8066,0.0032,-0.0194,-0.0046,-22.06,-31.25,24.19,327.22,-79.46,-164.39
37430,52.403595,-1.515287,138.19,1.13,3,137.27,27 / 27,3556610,2019-09-08 13:06:15:849,-0.1647,0.0929,9.8083,-0.001,-0.0013,9.8066,0.0122,-0.0037,0.0192,-22.37,-31.5,24.19,327.31,-79.44,-164.3
37431,52.403595,-1.515287,138.19,1.13,3,137.27,27 / 27,3556710,2019-09-08 13:06:15:949,-0.4786,0.5328,9.8765,-0.0005,0.0028,9.8066,-0.0032,-0.0033,-0.0036,-22.12,-31.69,24.31,327.07,-79.45,-164.33
37432,52.403595,-1.515287,138.19,1.13,3,137.27,27 / 27,3556810,2019-09-08 13:06:16:049,-0.1072,0.1383,9.9462,0.0007,-0.002,9.8065,0.0145,-0.0086,0.0066,-22.19,-31.0,24.56,328.71,-79.44,-164.4
37433,52.403595,-1.515287,138.19,1.13,3,137.27,27 / 27,3556909,2019-09-08 13:06:16:148,-0.0129,0.0639,9.8465,0.0008,-0.001,9.8065,0.0207,-0.0034,0.0175,-22.31,-31.31,24.19,327.19,-79.4,-164.38
37434,52.403595,-1.515287,138.19,1.13,3,137.27,27 / 27,3557010,2019-09-08 13:06:16:249,-0.0005,-0.0618,9.9126,0.001,-0.001,9.8066,0.0095,-0.0097,0.001,-22.69,-31.62,24.56,327.07,-79.37,-164.42
37435,52.403595,-1.515287,138.19,1.13,3,137.27,27 / 27,3557110,2019-09-08 13:06:16:349,-0.0313,-0.0515,9.8177,-0.0003,-0.0017,9.8065,0.0085,-0.0036,0.0098,-22.44,-31.25,24.25,327.16,-79.36,-164.39
37436,52.403595,-1.515287,138.19,1.13,3,137.27,27 / 27,3557210,2019-09-08 13:06:16:449,-0.2321,0.2476,9.8797,0.0009,0.0001,9.8066,-0.0025,-0.0119,0.0001,-22.37,-31.19,24.06,327.19,-79.36,-164.36
37437,52.403595,-1.515287,138.19,1.13,3,137.27,27 / 27,3557310,2019-09-08 13:06:16:549,-0.0578,0.0604,9.8857,0.0011,-0.0002,9.8066,-0.0005,-0.0154,-0.0061,-22.37,-31.0,24.56,328.61,-79.35,-164.44
37438,52.403595,-1.515287,138.19,1.13,3,137.27,27 / 27,3557410,2019-09-08 13:06:16:649,-0.0204,0.0407,9.7842,-0.0013,0.0013,9.8066,-0.0029,-0.0072,0.0071,-22.12,-31.19,24.06,327.15,-79.36,-164.39
37439,52.403595,-1.515287,138.19,1.13,3,137.27,27 / 27,3557510,2019-09-08 13:06:16:749,-0.0821,0.1861,9.8891,0.0008,-0.0003,9.8066,0.0137,-0.0193,0.0082,-21.87,-30.62,23.88,327.12,-79.35,-164.41
37440,52.403595,-1.515287,138.19,1.13,3,137.27,27 / 27,3557610,2019-09-08 13:06:16:849,-0.0092,0.0333,9.8535,-0.0014,0.0002,9.8066,-0.0096,0.0006,0.0066,-22.44,-30.81,24.13,327.11,-79.36,-164.42
37441,52.403595,-1.515287,138.19,1.13,3,137.27,27 / 27,3557709,2019-09-08 13:06:16:948,-0.1376,0.1342,9.8464,0.0005,0.0001,9.8066,-0.0055,-0.0134,-0.0049,-22.5,-30.87,24.38,327.08,-79.36,-164.45
37442,52.403595,-1.515287,138.19,1.13,3,137.27,27 / 27,3557810,2019-09-08 13:06:17:049,0.0106,-0.0406,9.8354,-0.0015,0.0002,9.8066,0.017,-0.0093,0.0089,-22.25,-31.25,24.63,328.64,-79.36,-164.42
37443,52.403595,-1.515287,138.19,1.13,3,137.27,27 / 27,3557910,2019-09-08 13:06:17:149,-0.0747,0.0477,9.8788,0.0017,-0.0014,9.8066,0.0068,-0.0103,0.0037,-22.06,-31.37,24.88,328.58,-79.34,-164.46
37444,52.403595,-1.515287,138.19,1.13,3,137.27,27 / 27,3558010,2019-09-08 13:06:17:249,-0.0519,-0.0061,9.9193,0.0018,-0.0015,9.8065,-0.0025,-0.0051,-0.0023,-22.37,-31.31,23.94,327.0,-79.34,-164.5
37445,52.403595,-1.515287,138.19,1.13,3,137.27,27 / 27,3558110,2019-09-08 13:06:17:349,-0.1967,0.2145,9.8238,-0.0003,0.0012,9.8066,0.0086,-0.0069,0.0122,-22.19,-31.31,24.63,328.6,-79.33,-164.43
37446,52.403595,-1.515287,138.19,1.13,3,137.27,27 / 27,3558210,2019-09-08 13:06:17:449,-0.1162,0.3002,9.9636,-0.0028,0.0025,9.8066,0.0154,-0.0121,0.0031,-22.44,-32.0,24.5,328.41,-79.35,-164.43
37447,52.403595,-1.515287,138.19,1.13,3,137.27,27 / 27,3558310,2019-09-08 13:06:17:549,-0.0487,0.088,9.8914,0.0024,-0.0031,9.8066,0.01,-0.0123,-0.0032,-22.19,-30.69,24.63,328.53,-79.34,-164.5
37448,52.403595,-1.515287,138.19,1.13,3,137.27,27 / 27,3558410,2019-09-08 13:06:17:649,-0.1456,0.0964,9.8618,0.0034,-0.0036,9.8066,0.0011,-0.0049,0.0087,-22.06,-31.31,24.56,328.5,-79.31,-164.51
37449,52.403595,-1.515287,138.19,1.13,3,137.27,27 / 27,3558510,2019-09-08 13:06:17:749,-0.0517,0.0365,9.7756,0.0003,0.0019,9.8066,0.0034,-0.014,-0.0054,-22.19,-31.31,24.75,328.47,-79.33,-164.54
37450,52.403595,-1.515287,138.19,1.13,3,137.27,27 / 27,3558609,2019-09-08 13:06:17:848,-0.2144,0.1577,10.0043,-0.0004,-0.001,9.8066,0.0045,-0.0125,0.0048,-22.5,-30.87,24.44,326.93,-79.32,-164.55
37451,52.403595,-1.515287,138.19,1.13,3,137.27,27 / 27,3558710,2019-09-08 13:06:17:949,-0.0329,-0.0411,9.7458,-0.0019,0.001,9.8066,0.0164,-0.0147,-0.0043,-22.25,-31.31,24.38,327.0,-79.32,-164.49
37452,52.403595,-1.515287,138.19,1.13,3,137.27,27 / 27,3558810,2019-09-08 13:06:18:049,-0.0388,0.0264,9.8838,0.0017,0.001,9.8066,0.0273,-0.0193,0.0109,-22.06,-31.69,24.75,328.25,-79.33,-164.56
37453,52.403595,-1.515287,138.19,1.13,3,137.27,27 / 27,3558910,2019-09-08 13:06:18:149,-0.1421,0.0454,9.8217,-0.002,0.0016,9.8066,-0.0046,0.0069,-0.0021,-21.87,-31.5,24.56,328.39,-79.31,-164.6
37454,52.403595,-1.515287,138.19,1.13,3,137.27,27 / 27,3559010,2019-09-08 13:06:18:249,-0.0878,0.0619,9.8186,-0.0037,0.0023,9.8066,0.0063,-0.0141,0.0114,-22.25,-31.06,24.0,326.94,-79.33,-164.54
37455,52.403595,-1.515287,138.19,1.13,3,137.27,27 / 27,3559110,2019-09-08 13:06:18:349,-0.2013,0.1682,9.9664,0.0025,-0.0029,9.8066,-0.0082,-0.0201,-0.0112,-22.31,-30.87,24.75,328.48,-79.33,-164.53
37456,52.403595,-1.515287,138.19,1.13,3,137.27,27 / 27,3559210,2019-09-08 13:06:18:449,-0.0575,0.0313,9.7424,0.0011,0.0004,9.8066,0.0107,-0.0163,0.0028,-22.31,-31.62,24.5,328.16,-79.32,-164.62
37457,52.403595,-1.515287,138.19,1.13,3,137.27,27 / 27,3559310,2019-09-08 13:06:18:549,-0.0338,0.0467,9.7938,0.0009,-0.002,9.8066,0.0175,-0.0085,0.0007,-22.12,-31.81,24.06,326.62,-79.32,-164.63
37458,52.403595,-1.515287,138.19,1.13,3,137.27,27 / 27,3559410,2019-09-08 13:06:18:649,-0.1507,0.0926,9.9395,0.002,-0.0007,9.8066,0.0161,0.0034,0.0154,-22.5,-31.69,24.25,326.55,-79.31,-164.68
37459,52.403595,-1.515287,138.19,1.13,3,137.27,27 / 27,3559510,2019-09-08 13:06:18:749,-0.2495,0.2205,9.8254,-0.0045,0.0026,9.8066,0.0117,0.0056,0.0103,-22.12,-31.0,24.19,326.68,-79.28,-164.74
37460,52.403595,-1.515287,138.19,1.13,3,137.27,27 / 27,3559610,2019-09-08 13:06:18:849,-0.0236,0.0878,9.845,-0.002,0.0039,9.8066,-0.0029,0.0043,0.0161,-21.75,-31.0,24.63,328.26,-79.31,-164.71
37461,52.403595,-1.515287,138.19,1.13,3,137.27,27 / 27,3559709,2019-09-08 13:06:18:948,-0.0426,-0.0993,9.8507,0.0001,-0.0009,9.8066,-0.0043,-0.0079,0.0007,-22.5,-30.56,24.25,326.76,-79.3,-164.68
37462,52.403595,-1.515287,138.19,1.13,3,137.27,27 / 27,3559810,2019-09-08 13:06:19:049,-0.057,-0.1105,9.7654,-0.0014,0.0003,9.8066,0.0085,-0.0137,0.0181,-21.81,-30.75,24.88,328.33,-79.31,-164.65
37463,52.403595,-1.515287,138.19,1.13,3,137.27,27 / 27,3559910,2019-09-08 13:06:19:149,-0.0379,0.0225,9.9193,-0.0003,-0.0008,9.8066,0.0077,-0.0002,0.0143,-22.12,-31.31,24.69,328.41,-79.3,-164.57
37464,52.403595,-1.515287,138.19,1.13,3,137.27,27 / 27,3560010,2019-09-08 13:06:19:249,-0.0899,0.0455,10.0289,0.0016,0.0018,9.8066,0.0232,0.0062,0.0127,-22.37,-31.12,24.19,326.85,-79.3,-164.6
37465,52.403595,-1.515287,138.19,1.13,3,137.27,27 / 27,3560110,2019-09-08 13:06:19:349,0.0623,-0.2605,9.7602,-0.0029,0.0,9.8066,-0.0268,-0.0085,-0.019,-22.12,-31.37,24.69,328.38,-79.28,-164.59
37466,52.403595,-1.515287,138.19,1.13,3,137.27,27 / 27,3560210,2019-09-08 13:06:19:449,0.3406,-0.4574,9.8601,-0.0034,0.0024,9.8066,-0.0223,-0.0303,-0.0292,-21.44,-31.31,24.94,329.96,-79.28,-164.48
37467,52.403595,-1.515287,138.19,1.13,3,137.27,27 / 27,3560310,2019-09-08 13:06:19:549,-0.0563,-0.0661,9.9158,0.0034,-0.003,9.8066,-0.0053,-0.0072,-0.0005,-22.75,-30.94,24.25,325.57,-79.28,-164.52
37468,52.403595,-1.515287,138.19,1.13,3,137.27,27 / 27,3560410,2019-09-08 13:06:19:649,0.1711,-0.0625,9.9225,0.0026,-0.0023,9.8066,-0.0081,0.0063,0.0001,-22.12,-31.12,24.75,328.41,-79.25,-164.55
37469,52.403595,-1.515287,138.19,1.13,3,137.27,27 / 27,3560510,2019-09-08 13:06:19:749,0.0218,-0.1152,9.8814,-0.0016,0.0025,9.8065,0.0019,-0.0137,0.004,-21.94,-30.87,24.94,328.51,-79.26,-164.47
37470,52.403595,-1.515287,138.19,1.13,3,137.27,27 / 27,3560613,2019-09-08 13:06:19:852,0.2091,-0.2591,9.743,-0.0002,-0.0007,9.8065,0.0198,0.006,0.0051,-21.56,-31.0,24.44,326.96,-79.25,-164.48
37471,52.403595,-1.515287,138.19,1.13,3,137.27,26 / 26,3560710,2019-09-08 13:06:19:949,0.419,-0.4694,10.0512,0.0026,-0.0041,9.8066,0.0181,-0.0205,0.0057,-21.25,-30.62,24.69,329.89,-79.24,-164.51
37472,52.403595,-1.515287,138.19,1.13,3,137.27,26 / 26,3560810,2019-09-08 13:06:20:049,0.495,-0.4874,9.9529,0.002,-0.0034,9.8066,0.0194,0.0077,-0.0002,-22.06,-30.69,24.94,328.43,-79.18,-164.49
37473,52.403595,-1.515287,138.19,1.13,3,137.27,26 / 26,3560910,2019-09-08 13:06:20:149,0.4499,-0.4347,9.7819,0.0009,-0.0031,9.8066,0.0125,-0.0024,-0.0036,-21.94,-31.12,25.44,328.36,-79.16,-164.53
37474,52.403595,-1.515287,138.19,1.13,3,137.27,26 / 26,3561010,2019-09-08 13:06:20:249,0.6595,-0.9557,9.9758,-0.0006,0.0011,9.8066,0.008,-0.0242,0.0146,-22.31,-30.94,24.75,328.32,-79.13,-164.56
37475,52.403595,-1.515287,138.19,1.13,3,137.27,26 / 26,3561110,2019-09-08 13:06:20:349,0.2042,-0.1758,9.939,0.0026,0.0021,9.8066,-0.0006,-0.0027,0.0046,-22.25,-31.06,24.81,328.28,-79.12,-164.58
37476,52.403595,-1.515287,138.19,1.13,3,137.27,26 / 26,3561210,2019-09-08 13:06:20:449,0.5723,-0.7151,9.9651,0.0014,-0.0004,9.8066,0.0116,-0.0167,0.012,-22.12,-30.94,24.63,328.3,-79.13,-164.57
37477,52.403595,-1.515287,138.19,1.13,3,137.27,26 / 26,3561310,2019-09-08 13:06:20:549,0.3292,-0.4575,9.85,-0.0027,0.0039,9.8066,0.014,-0.0067,0.0206,-21.94,-31.0,24.88,328.35,-79.11,-164.52
37478,52.403595,-1.515287,138.19,1.13,3,137.27,26 / 26,3561410,2019-09-08 13:06:20:649,0.3427,-0.4878,9.7334,-0.0045,0.0029,9.8066,0.0051,-0.0013,0.0052,-21.56,-30.81,24.56,328.48,-79.12,-164.42
37479,52.403595,-1.515287,138.19,1.13,3,137.27,26 / 26,3561510,2019-09-08 13:06:20:749,0.5997,-0.8046,9.9732,0.0034,-0.001,9.8066,0.0091,0.0045,0.0067,-22.25,-30.62,25.06,328.52,-79.1,-164.37
37480,52.403595,-1.515287,138.19,1.13,3,137.27,26 / 26,3561610,2019-09-08 13:06:20:849,0.8298,-1.0017,10.2478,0.0004,-0.003,9.8066,0.0156,-0.0063,-0.0143,-22.12,-30.94,24.63,328.47,-79.08,-164.4
37481,52.403595,-1.515287,138.19,1.13,3,137.27,27 / 27,3561709,2019-09-08 13:06:20:948,0.2057,-0.1698,10.26,0.0011,0.0036,9.8066,-0.0041,0.0006,0.0082,-22.0,-30.5,25.13,328.55,-79.2,-164.57
37482,52.403595,-1.515287,138.19,1.13,3,137.27,27 / 27,3561810,2019-09-08 13:06:21:049,0.4811,0.0303,9.7461,-0.0093,0.0207,9.8065,-0.0283,-0.0279,0.0448,-21.87,-30.94,25.06,328.53,-79.44,-164.55
37483,52.403595,-1.515287,138.19,1.13,3,137.27,27 / 27,3561910,2019-09-08 13:06:21:149,0.5725,-0.6251,9.6182,-0.0123,0.0072,9.8065,-0.029,0.0167,0.0293,-22.25,-31.0,24.88,329.2,-79.59,-164.08
37484,52.403595,-1.515287,138.19,1.13,3,137.27,27 / 27,3562010,2019-09-08 13:06:21:249,-0.0561,-0.4008,9.5965,-0.0136,0.0033,9.8066,-0.0035,-0.0081,0.0453,-22.44,-31.06,24.75,330.04,-79.73,-163.44
37485,52.403595,-1.515287,138.19,1.13,3,137.27,27 / 27,3562110,2019-09-08 13:06:21:349,0.328,-0.6465,10.0361,0.0087,-0.0064,9.8066,0.0072,-0.0047,0.0354,-22.19,-31.75,24.44,328.9,-79.73,-162.96
