,GPS LATITUDE (degrees),GPS LONGITUDE (degrees), GPS ALTITUDE (m),GPS SPEED (Kmh),GPS ACCURACY (m),GPS ORIENTATION (Â°), SATELLITES IN RANGE, TIME SINCE START (ms), DATE (YYYY-MO-DD HH-MI-SS_SSS),ACCELEROMETER X (m/s²) , ACCELEROMETER Y (m/s²), ACCELEROMETER Z (m/s²), GRAVITY X (m/s²), GRAVITY Y (m/s²), GRAVITY Z (m/s²), GYROSCOPE Yaw (rad/s), GYROSCOPE Pitch (rad/s), GYROSCOPE Roll (rad/s)
42345,47.9363,-1.674236,124.11,29.39,4.288,165.0,Dec-21,4235243,2019-08-18 16:24:17:780,-1.1773,-0.7751,10.4946,-0.3086,-0.3668,9.7949,-0.0058,-0.0167,-0.0024
42346,47.9363,-1.674236,124.11,29.39,4.288,165.0,Dec-21,4235343,2019-08-18 16:24:17:880,-0.8481,-0.2059,9.9811,-0.3036,-0.3709,9.7949,-0.0013,-0.0097,-0.0032
42347,47.9363,-1.674236,124.11,29.39,4.288,165.0,Dec-21,4235444,2019-08-18 16:24:17:981,-0.6979,-0.6279,9.7542,-0.3063,-0.378,9.7946,-0.0058,-0.0054,-0.0023
42348,47.9363,-1.674236,124.11,29.39,4.288,165.0,Dec-21,4235543,2019-08-18 16:24:18:080,-0.55,-0.5632,9.7776,-0.3111,-0.3855,9.7941,-0.0127,-0.0092,-0.0075
42349,47.9363,-1.674236,124.11,29.39,4.288,165.0,Dec-21,4235643,2019-08-18 16:24:18:180,-0.7811,-0.9571,10.2307,-0.3115,-0.4072,9.7932,-0.015,-0.0132,-0.0101
42350,47.9363,-1.674236,124.11,29.39,4.288,165.0,Dec-21,4235743,2019-08-18 16:24:18:280,-0.6314,-0.5201,10.3324,-0.3052,-0.4177,9.793,-0.0066,-0.0202,-0.0134
42351,47.9363,-1.674236,124.11,29.39,4.288,165.0,Dec-21,4235843,2019-08-18 16:24:18:380,-0.7062,-0.5806,10.1433,-0.278,-0.4224,9.7936,0.0054,-0.0285,-0.0109
42352,47.9363,-1.674236,124.11,29.39,4.288,165.0,Dec-21,4235946,2019-08-18 16:24:18:483,-0.538,-0.6027,10.3761,-0.2662,-0.4187,9.7941,0.0129,-0.0185,-0.0028
42353,47.9363,-1.674236,124.11,29.39,4.288,165.0,Dec-21,4236044,2019-08-18 16:24:18:581,-0.7619,-0.7207,10.345,-0.2653,-0.4084,9.7945,0.0079,0.0011,0.0017
42354,47.93408,-1.673354,115.21,28.38,6.432,164.8,13 / 22,4236143,2019-08-18 16:24:18:680,-0.6207,-0.2849,9.5274,-0.2723,-0.4036,9.7946,0.0078,0.0059,0.0031
42355,47.93408,-1.673354,115.21,28.38,6.432,164.8,13 / 22,4236244,2019-08-18 16:24:18:781,-0.6171,0.1119,9.3831,-0.2832,-0.3954,9.7946,0.0014,-0.0004,0.0058
42356,47.93408,-1.673354,115.21,28.38,6.432,164.8,13 / 22,4236343,2019-08-18 16:24:18:880,-0.5751,0.2155,10.6922,-0.2904,-0.3891,9.7946,0.0096,-0.0093,0.0106
42357,47.93408,-1.673354,115.21,28.38,6.432,164.8,13 / 22,4236443,2019-08-18 16:24:18:980,-0.7014,0.0275,10.0164,-0.2869,-0.3627,9.7957,-0.0008,-0.0094,0.0143
42358,47.93408,-1.673354,115.21,28.38,6.432,164.8,13 / 22,4236544,2019-08-18 16:24:19:081,-0.5398,0.0515,9.7668,-0.2851,-0.3583,9.796,-0.0149,-0.0111,0.0124
42359,47.93408,-1.673354,115.21,28.38,6.432,164.8,13 / 22,4236644,2019-08-18 16:24:19:181,-0.6608,0.2945,9.9308,-0.2832,-0.3573,9.796,-0.0046,-0.0009,0.0115
42360,47.93408,-1.673354,115.21,28.38,6.432,164.8,13 / 22,4236744,2019-08-18 16:24:19:281,-0.313,0.1125,10.0302,-0.2845,-0.3494,9.7963,-0.0033,-0.0048,0.0116
42361,47.93408,-1.673354,115.21,28.38,6.432,164.8,13 / 22,4236843,2019-08-18 16:24:19:380,-0.2471,0.2388,9.9015,-0.2793,-0.3286,9.7972,0.0076,-0.0041,0.0106
42362,47.93408,-1.673354,115.21,28.38,6.432,164.8,13 / 22,4236943,2019-08-18 16:24:19:480,-0.2226,0.2616,10.3115,-0.2761,-0.3103,9.7979,0.0054,-0.0215,0.0115
42363,47.93408,-1.673354,115.21,28.38,6.432,164.8,13 / 22,4237044,2019-08-18 16:24:19:581,-0.2489,0.7243,9.9206,-0.2599,-0.2892,9.7989,0.0071,-0.016,0.0118
42364,47.93408,-1.673354,115.21,28.38,6.432,164.8,Nov-20,4237144,2019-08-18 16:24:19:681,-0.2807,0.3579,10.3193,-0.2511,-0.2712,9.7997,0.0043,-0.0075,0.0137
42365,47.93408,-1.673354,115.21,28.38,6.432,164.8,Nov-20,4237244,2019-08-18 16:24:19:781,0.0066,0.2113,10.3336,-0.2514,-0.2517,9.8002,0.0016,0.0023,0.0119
42366,47.93408,-1.673354,115.21,28.38,6.432,164.8,Nov-20,4237344,2019-08-18 16:24:19:881,-0.3992,0.2676,10.3181,-0.2511,-0.2452,9.8004,-0.0041,-0.0039,0.0106
42367,47.93408,-1.673354,115.21,28.38,6.432,164.8,Nov-20,4237443,2019-08-18 16:24:19:980,-0.222,0.2125,9.662,-0.2332,-0.2366,9.801,-0.0024,-0.0167,0.0115
42368,47.93408,-1.673354,115.21,28.38,6.432,164.8,Nov-20,4237543,2019-08-18 16:24:20:080,-0.6697,-0.158,10.5665,-0.2252,-0.2268,9.8014,0.003,-0.0313,0.0101
42369,47.93408,-1.673354,115.21,28.38,6.432,164.8,Nov-20,4237643,2019-08-18 16:24:20:180,-0.6625,0.1688,10.4713,-0.2026,-0.2138,9.8022,0.0069,-0.0387,0.0095
42370,47.93408,-1.673354,115.21,28.38,6.432,164.8,Nov-20,4237743,2019-08-18 16:24:20:280,-0.2645,0.3107,9.6201,-0.1775,-0.1959,9.8031,-0.0051,0.0029,0.0091
42371,47.93408,-1.673354,115.21,28.38,6.432,164.8,Nov-20,4237844,2019-08-18 16:24:20:381,-0.0826,0.0581,9.7393,-0.1854,-0.1912,9.803,-0.004,0.015,0.0076
42372,47.93408,-1.673354,115.21,28.38,6.432,164.8,Nov-20,4237943,2019-08-18 16:24:20:480,0.0827,0.2693,9.8913,-0.1978,-0.1886,9.8028,-0.0025,0.0006,0.0072
42373,47.93408,-1.673354,115.21,28.38,6.432,164.8,Nov-20,4238043,2019-08-18 16:24:20:580,-0.2489,0.3615,9.8015,-0.1978,-0.1782,9.803,0.0216,0.0109,0.0072
42374,47.93408,-1.673354,115.21,28.38,6.432,164.8,13 / 22,4238144,2019-08-18 16:24:20:681,0.0049,0.0545,9.9218,-0.2057,-0.1354,9.8036,0.0207,0.0029,0.0071
42375,47.93408,-1.673354,115.21,28.38,6.432,164.8,13 / 22,4238243,2019-08-18 16:24:20:780,-0.1125,0.158,9.9069,-0.2053,-0.1208,9.8038,0.0136,-0.005,0.0056
42376,47.93408,-1.673354,115.21,28.38,6.432,164.8,13 / 22,4238344,2019-08-18 16:24:20:881,-0.2741,-0.1897,10.7754,-0.1932,-0.098,9.8043,-0.0003,-0.0104,0.0026
42377,47.93408,-1.673354,115.21,28.38,6.432,164.8,13 / 22,4238443,2019-08-18 16:24:20:980,-0.5734,0.0485,9.5711,-0.1852,-0.099,9.8044,-0.0068,-0.003,0.0016
42378,47.93408,-1.673354,115.21,28.38,6.432,164.8,13 / 22,4238543,2019-08-18 16:24:21:080,-0.0496,-0.419,9.507,-0.1845,-0.096,9.8044,-0.0014,0.0101,0.0006
42379,47.93408,-1.673354,115.21,28.38,6.432,164.8,13 / 22,4238644,2019-08-18 16:24:21:181,-0.3435,0.4082,9.6231,-0.1817,-0.0982,9.8045,-0.005,-0.0121,-0.004
42380,47.93408,-1.673354,115.21,28.38,6.432,164.8,13 / 22,4238743,2019-08-18 16:24:21:280,0.3293,0.009,10.2199,-0.1624,-0.1059,9.8047,-0.0152,-0.0189,-0.005
42381,47.93408,-1.673354,115.21,28.38,6.432,164.8,13 / 22,4238844,2019-08-18 16:24:21:381,0.291,-0.0197,10.1798,-0.1445,-0.1132,9.8049,-0.0092,-0.0212,-0.0086
42382,47.93408,-1.673354,115.21,28.38,6.432,164.8,13 / 22,4238944,2019-08-18 16:24:21:481,0.2024,-0.237,9.9021,-0.1182,-0.1278,9.8051,-0.0098,-0.0117,-0.0158
42383,47.93408,-1.673354,115.21,28.38,6.432,164.8,13 / 22,4239043,2019-08-18 16:24:21:580,0.5136,-0.4836,10.0338,-0.115,-0.133,9.8051,0.0025,0.0043,-0.0182
42384,47.93408,-1.673354,115.21,28.38,6.432,164.8,13 / 22,4239143,2019-08-18 16:24:21:680,0.4286,-0.5273,10.5305,-0.1072,-0.1348,9.8051,0.0003,-0.0071,-0.0158
42385,47.93408,-1.673354,115.21,28.38,6.432,164.8,13 / 22,4239244,2019-08-18 16:24:21:781,0.0192,-0.5195,9.7985,-0.0984,-0.1409,9.8051,0.0151,0.0067,-0.0176
42386,47.93408,-1.673354,115.21,28.38,6.432,164.8,13 / 22,4239343,2019-08-18 16:24:21:880,-0.1771,-0.5477,9.4352,-0.0943,-0.1414,9.8052,-0.009,0.0037,-0.0151
42387,47.93408,-1.673354,115.21,28.38,6.432,164.8,13 / 22,4239444,2019-08-18 16:24:21:981,-0.0017,-0.2867,9.6716,-0.09,-0.1501,9.8051,-0.0215,-0.006,-0.0162
42388,47.93408,-1.673354,115.21,28.38,6.432,164.8,13 / 22,4239543,2019-08-18 16:24:22:080,0.2485,-0.237,10.1014,-0.0758,-0.1702,9.8049,-0.0027,-0.0102,-0.0169
42389,47.93408,-1.673354,115.21,28.38,6.432,164.8,13 / 22,4239643,2019-08-18 16:24:22:180,0.1246,-0.3065,10.4216,-0.0652,-0.1737,9.8049,-0.0003,-0.0222,-0.0174
42390,47.93408,-1.673354,115.21,28.38,6.432,164.8,13 / 22,4239744,2019-08-18 16:24:22:281,0.619,-0.659,10.2726,-0.0313,-0.1908,9.8047,-0.0057,-0.0013,-0.0312
42391,47.93408,-1.673354,115.21,28.38,6.432,164.8,13 / 22,4239844,2019-08-18 16:24:22:381,0.3921,-0.5567,9.6704,-0.028,-0.2007,9.8046,-0.0098,-0.0046,-0.0388
42392,47.93408,-1.673354,115.21,28.38,6.432,164.8,13 / 22,4239943,2019-08-18 16:24:22:480,0.5004,-1.1863,10.0457,-0.0077,-0.2336,9.8039,-0.0071,-0.0006,-0.0499
42393,47.93408,-1.673354,115.21,28.38,6.432,164.8,13 / 22,4240044,2019-08-18 16:24:22:581,0.7943,-1.2055,9.9661,0.0053,-0.2485,9.8035,-0.0024,-0.0138,-0.0535
42394,47.93408,-1.673354,115.21,28.38,6.432,164.8,Nov-20,4240143,2019-08-18 16:24:22:680,0.6686,-1.0361,10.3217,0.029,-0.264,9.8031,0.0143,-0.0103,-0.0526
42395,47.93408,-1.673354,115.21,28.38,6.432,164.8,Nov-20,4240243,2019-08-18 16:24:22:780,0.6357,-1.5179,10.3157,0.0513,-0.2701,9.8028,0.013,-0.0035,-0.0507
42396,47.93408,-1.673354,115.21,28.38,6.432,164.8,Nov-20,4240344,2019-08-18 16:24:22:881,0.291,-1.0223,9.6417,0.0775,-0.2892,9.8021,0.0025,0.0051,-0.0462
42397,47.93408,-1.673354,115.21,28.38,6.432,164.8,Nov-20,4240443,2019-08-18 16:24:22:980,0.1886,-0.6925,9.5256,0.0843,-0.3065,9.8015,-0.0003,0.0116,-0.0455
42398,47.93408,-1.673354,115.21,28.38,6.432,164.8,Nov-20,4240544,2019-08-18 16:24:23:081,0.3155,-0.5417,9.2664,0.0941,-0.3416,9.8002,-0.0192,0.0083,-0.0482
42399,47.93408,-1.673354,115.21,28.38,6.432,164.8,Nov-20,4240643,2019-08-18 16:24:23:180,0.6962,-0.9595,10.2522,0.1154,-0.3725,9.7989,-0.0189,-0.0427,-0.0526
42400,47.93408,-1.673354,115.21,28.38,6.432,164.8,Nov-20,4240744,2019-08-18 16:24:23:281,0.8015,-1.0995,10.7939,0.1444,-0.3915,9.7978,0.0001,-0.033,-0.0498
42401,47.93408,-1.673354,115.21,28.38,6.432,164.8,Nov-20,4240843,2019-08-18 16:24:23:380,0.7351,-1.3312,9.7919,0.1835,-0.4116,9.7963,0.0078,0.0061,-0.0438
42402,47.93408,-1.673354,115.21,28.38,6.432,164.8,Nov-20,4240943,2019-08-18 16:24:23:480,0.5585,-1.2641,9.1353,0.1697,-0.4182,9.7963,-0.0052,0.0359,-0.0462
42403,47.93408,-1.673354,115.21,28.38,6.432,164.8,Nov-20,4241044,2019-08-18 16:24:23:581,0.5334,-1.3551,9.2688,0.1598,-0.4529,9.7949,-0.0254,-0.0148,-0.0632
42404,47.93408,-1.673354,115.21,28.38,6.432,164.8,Dec-21,4241143,2019-08-18 16:24:23:680,0.5142,-1.3348,10.2486,0.1727,-0.4701,9.7939,-0.0269,-0.0344,-0.0667
42405,47.93408,-1.673354,115.21,28.38,6.432,164.8,Dec-21,4241243,2019-08-18 16:24:23:780,0.5543,-1.385,10.8627,0.246,-0.528,9.7893,-0.0014,-0.0175,-0.0576
42406,47.93408,-1.673354,115.21,28.38,6.432,164.8,Dec-21,4241344,2019-08-18 16:24:23:881,1.1846,-1.6113,10.1499,0.2642,-0.5399,9.7882,0.0166,0.0013,-0.0574
42407,47.93408,-1.673354,115.21,28.38,6.432,164.8,Dec-21,4241443,2019-08-18 16:24:23:980,1.0433,-1.0283,9.9111,0.2824,-0.5466,9.7873,0.0131,0.0085,-0.0634
42408,47.93408,-1.673354,115.21,28.38,6.432,164.8,Dec-21,4241543,2019-08-18 16:24:24:080,0.8823,-1.3018,9.3059,0.2906,-0.556,9.7866,0.0087,0.0101,-0.0666
42409,47.93408,-1.673354,115.21,28.38,6.432,164.8,Dec-21,4241643,2019-08-18 16:24:24:180,0.592,-1.4527,9.1168,0.3072,-0.5796,9.7847,-0.0029,0.0039,-0.0679
42410,47.93408,-1.673354,115.21,28.38,6.432,164.8,Dec-21,4241743,2019-08-18 16:24:24:280,0.6698,-1.7412,9.5334,0.3161,-0.5934,9.7836,-0.0003,0.0065,-0.0702
42411,47.93408,-1.673354,115.21,28.38,6.432,164.8,Dec-21,4241843,2019-08-18 16:24:24:380,1.0272,-1.5072,9.1509,0.3245,-0.6173,9.7818,0.0084,0.011,-0.0655
42412,47.93408,-1.673354,115.21,28.38,6.432,164.8,Dec-21,4241943,2019-08-18 16:24:24:480,0.9919,-1.3785,10.6215,0.3258,-0.6246,9.7813,0.0086,0.005,-0.0606
42413,47.93408,-1.673354,115.21,28.38,6.432,164.8,Dec-21,4242043,2019-08-18 16:24:24:580,0.9003,-1.1175,10.4467,0.3427,-0.6358,9.78,0.0099,-0.001,-0.0581
42414,47.93408,-1.673354,115.21,28.38,6.432,164.8,15 / 21,4242144,2019-08-18 16:24:24:681,0.7734,-1.0086,10.1564,0.3489,-0.6396,9.7796,0.0005,-0.0022,-0.0493
42415,47.93408,-1.673354,115.21,28.38,6.432,164.8,15 / 21,4242244,2019-08-18 16:24:24:781,0.5124,-0.6776,9.3855,0.3649,-0.6527,9.7781,-0.0008,-0.0113,-0.0457
42416,47.93408,-1.673354,115.21,28.38,6.432,164.8,15 / 21,4242343,2019-08-18 16:24:24:880,0.091,-0.7985,9.6046,0.3763,-0.6563,9.7774,-0.0008,-0.0113,-0.0457
42417,47.93408,-1.673354,115.21,28.38,6.432,164.8,15 / 21,4242443,2019-08-18 16:24:24:980,0.4071,-1.1007,9.8554,0.4001,-0.6666,9.7758,-0.0004,-0.01,-0.0434
42418,47.93408,-1.673354,115.21,28.38,6.432,164.8,15 / 21,4242543,2019-08-18 16:24:25:080,0.2694,-1.0828,10.0236,0.4072,-0.6687,9.7753,-0.0048,-0.0031,-0.0403
42419,47.93408,-1.673354,115.21,28.38,6.432,164.8,15 / 21,4242643,2019-08-18 16:24:25:180,0.3113,-0.7338,9.7488,0.4135,-0.6732,9.7748,0.0002,-0.0031,-0.033
42420,47.93408,-1.673354,115.21,28.38,6.432,164.8,15 / 21,4242743,2019-08-18 16:24:25:280,0.5298,-0.5267,9.9033,0.4148,-0.6734,9.7747,-0.0024,-0.0023,-0.0298
42421,47.93408,-1.673354,115.21,28.38,6.432,164.8,15 / 21,4242843,2019-08-18 16:24:25:380,0.3412,-0.7727,9.7878,0.4195,-0.6702,9.7747,0.0121,0.0052,-0.0254
42422,47.93408,-1.673354,115.21,28.38,6.432,164.8,15 / 21,4242944,2019-08-18 16:24:25:481,0.2048,-0.568,9.8476,0.4149,-0.6602,9.7756,0.0039,0.0057,-0.0226
42423,47.93408,-1.673354,115.21,28.38,6.432,164.8,15 / 21,4243043,2019-08-18 16:24:25:580,0.1718,-0.8308,10.19,0.4069,-0.6465,9.7769,0.0074,0.0076,-0.0252
42424,47.93408,-1.673354,115.21,28.38,6.432,164.8,15 / 22,4243143,2019-08-18 16:24:25:680,0.0162,-0.1449,9.674,0.404,-0.6415,9.7773,-0.0013,-0.0044,-0.0248
42425,47.93408,-1.673354,115.21,28.38,6.432,164.8,15 / 22,4243243,2019-08-18 16:24:25:780,-0.1466,-0.1879,9.6656,0.405,-0.6351,9.7777,-0.007,-0.01,-0.0258
42426,47.93408,-1.673354,115.21,28.38,6.432,164.8,15 / 22,4243343,2019-08-18 16:24:25:880,0.2533,-0.492,9.9775,0.414,-0.6363,9.7772,-0.0094,-0.0102,-0.027
42427,47.93408,-1.673354,115.21,28.38,6.432,164.8,15 / 22,4243443,2019-08-18 16:24:25:980,0.3724,-0.5183,9.9625,0.4177,-0.6506,9.7761,-0.0143,0.0038,-0.0351
42428,47.93408,-1.673354,115.21,28.38,6.432,164.8,15 / 22,4243543,2019-08-18 16:24:26:080,0.5836,-0.914,10.1158,0.4193,-0.6591,9.7755,-0.0211,-0.0035,-0.0396
42429,47.93408,-1.673354,115.21,28.38,6.432,164.8,15 / 22,4243644,2019-08-18 16:24:26:181,0.197,-0.5064,9.4113,0.4376,-0.6712,9.7739,-0.0015,-0.0139,-0.0397
42430,47.93408,-1.673354,115.21,28.38,6.432,164.8,15 / 22,4243744,2019-08-18 16:24:26:281,0.3765,-0.7949,10.6012,0.4499,-0.6726,9.7732,-0.0118,-0.0172,-0.0408
42431,47.93408,-1.673354,115.21,28.38,6.432,164.8,15 / 22,4243844,2019-08-18 16:24:26:381,0.3909,-0.5632,10.0463,0.4754,-0.6882,9.7709,-0.0084,-0.0078,-0.0413
42432,47.93408,-1.673354,115.21,28.38,6.432,164.8,15 / 22,4243944,2019-08-18 16:24:26:481,0.4741,-0.6895,9.9332,0.4827,-0.6927,9.7702,-0.002,-0.0057,-0.0392
42433,47.93408,-1.673354,115.21,28.38,6.432,164.8,15 / 22,4244043,2019-08-18 16:24:26:580,1.029,-1.1366,10.0744,0.4955,-0.7069,9.7686,-0.0122,-0.0057,-0.0472
42434,47.93408,-1.673354,115.21,28.38,6.432,164.8,16 / 22,4244143,2019-08-18 16:24:26:680,0.7716,-0.8727,9.5765,0.4999,-0.7211,9.7673,-0.0114,0.0012,-0.05
42435,47.93408,-1.673354,115.21,28.38,6.432,164.8,16 / 22,4244244,2019-08-18 16:24:26:781,0.4208,-1.1516,9.7381,0.5075,-0.7322,9.7661,-0.001,-0.0064,-0.0523
42436,47.93408,-1.673354,115.21,28.38,6.432,164.8,16 / 22,4244344,2019-08-18 16:24:26:881,0.2491,-1.1139,9.9009,0.5257,-0.7451,9.7642,-0.0065,-0.0078,-0.0511
42437,47.93408,-1.673354,115.21,28.38,6.432,164.8,16 / 22,4244444,2019-08-18 16:24:26:981,0.5435,-1.3048,10.4258,0.5355,-0.7532,9.763,-0.0106,-0.0148,-0.0519
42438,47.93408,-1.673354,115.21,28.38,6.432,164.8,16 / 22,4244543,2019-08-18 16:24:27:080,0.944,-1.09,9.7824,0.5576,-0.7754,9.76,-0.0011,0.005,-0.0491
42439,47.93408,-1.673354,115.21,28.38,6.432,164.8,16 / 22,4244643,2019-08-18 16:24:27:180,0.8476,-0.7416,9.8739,0.56,-0.7771,9.7598,0.0015,0.006,-0.0481
42440,47.93408,-1.673354,115.21,28.38,6.432,164.8,16 / 22,4244743,2019-08-18 16:24:27:280,0.598,-0.8912,9.5148,0.569,-0.7816,9.7589,0.0025,-0.0124,-0.0495
42441,47.93408,-1.673354,115.21,28.38,6.432,164.8,16 / 22,4244843,2019-08-18 16:24:27:380,0.3239,-1.3779,10.1451,0.5796,-0.7804,9.7584,0.006,-0.0092,-0.0484
42442,47.93408,-1.673354,115.21,28.38,6.432,164.8,16 / 22,4244944,2019-08-18 16:24:27:481,-0.0502,-0.6231,10.1379,0.5895,-0.7781,9.7579,0.0061,0.0039,-0.0421
42443,47.93408,-1.673354,115.21,28.38,6.432,164.8,16 / 22,4245043,2019-08-18 16:24:27:580,0.4753,-0.9499,9.9799,0.5873,-0.7782,9.7581,0.0,0.0036,-0.0418
42444,47.931984,-1.672753,124.45,28.46,5.36,178.6,14 / 19,4245143,2019-08-18 16:24:27:680,0.7052,-0.8003,9.0821,0.5784,-0.7806,9.7584,0.0006,0.0034,-0.0407
42445,47.931984,-1.672753,124.45,28.46,5.36,178.6,14 / 19,4245244,2019-08-18 16:24:27:781,0.613,-0.9038,9.1329,0.579,-0.7797,9.7584,-0.0079,-0.0089,-0.0439
42446,47.931984,-1.672753,124.45,28.46,5.36,178.6,14 / 19,4245343,2019-08-18 16:24:27:880,0.4813,-1.0475,10.1457,0.5877,-0.7957,9.7566,-0.0105,-0.0112,-0.0477
42447,47.931984,-1.672753,124.45,28.46,5.36,178.6,14 / 19,4245443,2019-08-18 16:24:27:980,0.2832,-1.0846,10.5653,0.5906,-0.8005,9.7561,-0.0105,-0.0112,-0.0477
42448,47.931984,-1.672753,124.45,28.46,5.36,178.6,14 / 19,4245544,2019-08-18 16:24:28:081,0.6034,-1.3635,9.9338,0.613,-0.8118,9.7537,0.0016,-0.0141,-0.0469
42449,47.931984,-1.672753,124.45,28.46,5.36,178.6,14 / 19,4245643,2019-08-18 16:24:28:180,0.7057,-0.7889,9.6812,0.6142,-0.8125,9.7536,0.0001,0.0059,-0.0475
42450,47.931984,-1.672753,124.45,28.46,5.36,178.6,14 / 19,4245743,2019-08-18 16:24:28:280,0.7291,-1.0313,9.3658,0.6162,-0.8227,9.7526,-0.0033,0.0047,-0.0495
42451,47.931984,-1.672753,124.45,28.46,5.36,178.6,14 / 19,4245843,2019-08-18 16:24:28:380,0.5148,-1.1989,9.78,0.6193,-0.8319,9.7517,-0.0195,-0.0071,-0.0553
42452,47.931984,-1.672753,124.45,28.46,5.36,178.6,14 / 19,4245943,2019-08-18 16:24:28:480,0.2413,-1.3066,10.3234,0.641,-0.8576,9.748,0.0015,-0.0085,-0.0537
42453,47.931984,-1.672753,124.45,28.46,5.36,178.6,14 / 19,4246044,2019-08-18 16:24:28:581,0.8177,-1.4545,10.3121,0.6482,-0.8617,9.7472,0.0062,-0.0005,-0.0519
42454,47.931984,-1.672753,124.45,28.46,5.36,178.6,14 / 19,4246143,2019-08-18 16:24:28:680,0.8195,-0.9673,9.4771,0.652,-0.8626,9.7469,-0.0011,0.0046,-0.0485
42455,47.931984,-1.672753,124.45,28.46,5.36,178.6,14 / 19,4246243,2019-08-18 16:24:28:780,0.7177,-0.9182,9.4795,0.6518,-0.8671,9.7465,-0.0025,0.007,-0.0488
42456,47.931984,-1.672753,124.45,28.46,5.36,178.6,14 / 19,4246344,2019-08-18 16:24:28:881,0.6507,-1.2959,9.3879,0.6486,-0.8745,9.746,-0.0056,0.0028,-0.0514
42457,47.931984,-1.672753,124.45,28.46,5.36,178.6,14 / 19,4246444,2019-08-18 16:24:28:981,0.7554,-1.503,9.9691,0.6534,-0.8839,9.7449,-0.0109,-0.0003,-0.0523
42458,47.931984,-1.672753,124.45,28.46,5.36,178.6,14 / 19,4246543,2019-08-18 16:24:29:080,0.5076,-1.1965,10.0326,0.669,-0.9019,9.7422,-0.0085,-0.0144,-0.053
42459,47.931984,-1.672753,124.45,28.46,5.36,178.6,14 / 19,4246644,2019-08-18 16:24:29:181,0.531,-1.16,10.3791,0.6795,-0.907,9.741,-0.0046,-0.0148,-0.0513
42460,47.931984,-1.672753,124.45,28.46,5.36,178.6,14 / 19,4246743,2019-08-18 16:24:29:280,0.7764,-1.0846,10.436,0.7084,-0.9153,9.7381,-0.0007,-0.0139,-0.0495
42461,47.931984,-1.672753,124.45,28.46,5.36,178.6,14 / 19,4246843,2019-08-18 16:24:29:380,0.3795,-1.1833,9.7788,0.7108,-0.9153,9.7379,0.0056,0.0136,-0.048
42462,47.931984,-1.672753,124.45,28.46,5.36,178.6,14 / 19,4246943,2019-08-18 16:24:29:480,0.7267,-1.2647,10.0493,0.6962,-0.9118,9.7393,0.0025,0.0029,-0.0467
42463,47.931984,-1.672753,124.45,28.46,5.36,178.6,14 / 19,4247043,2019-08-18 16:24:29:580,0.0288,-1.8112,10.6467,0.7018,-0.9166,9.7385,-0.0048,-0.0117,-0.0487
42464,47.931984,-1.672753,124.45,28.46,5.36,178.6,15 / 21,4247143,2019-08-18 16:24:29:680,-0.0568,-1.2737,9.7129,0.6977,-0.9291,9.7376,0.0008,-0.0085,-0.0463
42465,47.931984,-1.672753,124.45,28.46,5.36,178.6,15 / 21,4247243,2019-08-18 16:24:29:780,-0.3681,-1.5401,9.3712,0.6869,-0.9369,9.7376,-0.0013,0.006,-0.0469
42466,47.931984,-1.672753,124.45,28.46,5.36,178.6,15 / 21,4247344,2019-08-18 16:24:29:881,-0.4854,-1.6825,9.5609,0.639,-0.9569,9.7389,-0.0055,0.0136,-0.0507
42467,47.931984,-1.672753,124.45,28.46,5.36,178.6,15 / 21,4247443,2019-08-18 16:24:29:980,-0.1232,-1.8495,9.1419,0.6213,-0.9779,9.738,-0.0191,0.0106,-0.0562
42468,47.931984,-1.672753,124.45,28.46,5.36,178.6,15 / 21,4247543,2019-08-18 16:24:30:080,-0.1059,-1.9267,9.4125,0.6114,-0.9982,9.7365,-0.0019,0.0086,-0.0537
42469,47.931984,-1.672753,124.45,28.46,5.36,178.6,15 / 21,4247643,2019-08-18 16:24:30:180,0.2748,-1.8459,9.4639,0.586,-1.0299,9.7348,-0.0011,-0.0031,-0.0531
42470,47.931984,-1.672753,124.45,28.46,5.36,178.6,15 / 21,4247744,2019-08-18 16:24:30:281,-0.2789,-1.6993,9.9823,0.5819,-1.0406,9.7339,-0.001,-0.0082,-0.0549
42471,47.931984,-1.672753,124.45,28.46,5.36,178.6,15 / 21,4247843,2019-08-18 16:24:30:380,-0.2406,-1.3401,9.6519,0.5748,-1.0634,9.7319,-0.003,0.0049,-0.051
42472,47.931984,-1.672753,124.45,28.46,5.36,178.6,15 / 21,4247944,2019-08-18 16:24:30:481,-0.0101,-1.4994,9.5765,0.555,-1.0688,9.7324,-0.0034,0.0171,-0.052
42473,47.931984,-1.672753,124.45,28.46,5.36,178.6,15 / 21,4248043,2019-08-18 16:24:30:580,0.0222,-1.5736,9.5818,0.5212,-1.095,9.7314,0.002,0.0191,-0.0535
42474,47.931984,-1.672753,124.45,28.46,5.36,178.6,14 / 20,4248143,2019-08-18 16:24:30:680,0.3538,-1.4234,9.6758,0.5076,-1.0981,9.7317,-0.0005,0.004,-0.0511
42475,47.931984,-1.672753,124.45,28.46,5.36,178.6,14 / 20,4248243,2019-08-18 16:24:30:780,-0.3268,-1.3856,9.6507,0.5039,-1.1,9.7317,0.0061,-0.0157,-0.0484
42476,47.931984,-1.672753,124.45,28.46,5.36,178.6,14 / 20,4248343,2019-08-18 16:24:30:880,0.0779,-1.552,10.3516,0.5059,-1.0975,9.7319,0.0105,-0.0025,-0.0429
42477,47.931984,-1.672753,124.45,28.46,5.36,178.6,14 / 20,4248443,2019-08-18 16:24:30:980,-0.0963,-1.3779,10.5078,0.4998,-1.0876,9.7333,0.013,0.0031,-0.0403
42478,47.931984,-1.672753,124.45,28.46,5.36,178.6,14 / 20,4248543,2019-08-18 16:24:31:080,0.2479,-1.3713,9.4765,0.4932,-1.0823,9.7343,0.0054,0.0034,-0.0414
42479,47.931984,-1.672753,124.45,28.46,5.36,178.6,14 / 20,4248643,2019-08-18 16:24:31:180,0.0025,-0.7422,9.4196,0.4857,-1.083,9.7346,-0.0109,-0.0029,-0.0456
42480,47.931984,-1.672753,124.45,28.46,5.36,178.6,14 / 20,4248744,2019-08-18 16:24:31:281,0.0761,-1.2109,9.7596,0.489,-1.0885,9.7338,-0.0113,-0.0038,-0.0471
42481,47.931984,-1.672753,124.45,28.46,5.36,178.6,14 / 20,4248844,2019-08-18 16:24:31:381,0.2682,-1.2474,9.5597,0.4875,-1.1006,9.7325,-0.0098,0.0058,-0.0436
42482,47.931984,-1.672753,124.45,28.46,5.36,178.6,14 / 20,4248943,2019-08-18 16:24:31:480,0.6543,-0.9158,9.9793,0.4914,-1.1049,9.7318,-0.0088,-0.0112,-0.0466
42483,47.931984,-1.672753,124.45,28.46,5.36,178.6,14 / 20,4249044,2019-08-18 16:24:31:581,0.252,-1.0205,9.8662,0.5098,-1.1185,9.7293,-0.0162,-0.0059,-0.0466
42484,47.931984,-1.672753,124.45,28.46,5.36,178.6,14 / 20,4249143,2019-08-18 16:24:31:680,0.3736,-0.987,9.2197,0.5152,-1.1276,9.728,-0.0127,-0.0017,-0.0418
42485,47.931984,-1.672753,124.45,28.46,5.36,178.6,14 / 20,4249243,2019-08-18 16:24:31:780,0.4346,-0.9577,10.0415,0.5171,-1.1353,9.727,-0.0074,0.0022,-0.041
42486,47.931984,-1.672753,124.45,28.46,5.36,178.6,14 / 20,4249344,2019-08-18 16:24:31:881,0.61,-0.6812,10.1062,0.5179,-1.135,9.727,-0.0018,0.0006,-0.0415
42487,47.931984,-1.672753,124.45,28.46,5.36,178.6,14 / 20,4249443,2019-08-18 16:24:31:980,0.5986,-0.9248,9.7446,0.5189,-1.1255,9.728,0.0128,0.0008,-0.0407
42488,47.931984,-1.672753,124.45,28.46,5.36,178.6,14 / 20,4249544,2019-08-18 16:24:32:081,0.349,-1.1953,9.9027,0.5216,-1.1151,9.7291,0.0183,-0.0026,-0.0428
42489,47.931984,-1.672753,124.45,28.46,5.36,178.6,14 / 20,4249643,2019-08-18 16:24:32:180,0.0342,-1.1618,9.5926,0.5264,-1.086,9.7321,0.008,0.0005,-0.0416
42490,47.931984,-1.672753,124.45,28.46,5.36,178.6,14 / 20,4249743,2019-08-18 16:24:32:280,0.2622,-1.0828,9.9104,0.5257,-1.0765,9.7332,-0.0025,0.0031,-0.0407
42491,47.931984,-1.672753,124.45,28.46,5.36,178.6,14 / 20,4249843,2019-08-18 16:24:32:380,0.3323,-0.6961,9.4975,0.5153,-1.0769,9.7337,-0.0057,0.0119,-0.0392
42492,47.931984,-1.672753,124.45,28.46,5.36,178.6,14 / 20,4249943,2019-08-18 16:24:32:480,0.4747,-1.0349,9.4957,0.5072,-1.0736,9.7345,-0.014,-0.0044,-0.0434
42493,47.931984,-1.672753,124.45,28.46,5.36,178.6,14 / 20,4250044,2019-08-18 16:24:32:581,0.3137,-0.7578,9.3101,0.5143,-1.0795,9.7335,-0.0078,-0.0103,-0.043
42494,47.931984,-1.672753,124.45,28.46,5.36,178.6,15 / 21,4250143,2019-08-18 16:24:32:680,0.7536,-0.9715,9.9045,0.5219,-1.0809,9.7329,-0.0111,-0.0053,-0.0462
42495,47.931984,-1.672753,124.45,28.46,5.36,178.6,15 / 21,4250245,2019-08-18 16:24:32:782,0.5172,-1.0403,9.8823,0.5272,-1.084,9.7323,-0.0074,0.003,-0.0495
42496,47.931984,-1.672753,124.45,28.46,5.36,178.6,15 / 21,4250343,2019-08-18 16:24:32:880,0.7297,-0.8871,9.7919,0.5358,-1.0942,9.7307,-0.0208,-0.0099,-0.0522
42497,47.931984,-1.672753,124.45,28.46,5.36,178.6,15 / 21,4250443,2019-08-18 16:24:32:980,0.4765,-1.4138,9.8434,0.5556,-1.1121,9.7275,-0.0127,-0.0061,-0.0529
42498,47.931984,-1.672753,124.45,28.46,5.36,178.6,15 / 21,4250543,2019-08-18 16:24:33:080,0.7387,-1.2743,9.862,0.5596,-1.1182,9.7266,-0.0054,0.005,-0.0513
42499,47.931984,-1.672753,124.45,28.46,5.36,178.6,15 / 21,4250643,2019-08-18 16:24:33:180,0.4358,-1.3803,9.6776,0.5621,-1.1215,9.7261,-0.0023,-0.0013,-0.0502
42500,47.931984,-1.672753,124.45,28.46,5.36,178.6,15 / 21,4250743,2019-08-18 16:24:33:280,0.4741,-1.3803,9.8656,0.5697,-1.1181,9.726,0.0048,0.0004,-0.0504
42501,47.931984,-1.672753,124.45,28.46,5.36,178.6,15 / 21,4250843,2019-08-18 16:24:33:380,0.5651,-1.2324,9.8506,0.5747,-1.1201,9.7255,-0.0014,0.0011,-0.0516
42502,47.931984,-1.672753,124.45,28.46,5.36,178.6,15 / 21,4250943,2019-08-18 16:24:33:480,0.6549,-1.139,10.0338,0.5806,-1.1299,9.724,-0.0062,-0.0064,-0.0485
42503,47.931984,-1.672753,124.45,28.46,5.36,178.6,15 / 21,4251043,2019-08-18 16:24:33:580,0.6824,-1.2366,10.0786,0.5857,-1.1311,9.7236,0.0041,-0.004,-0.0454
42504,47.931984,-1.672753,124.45,28.46,5.36,178.6,14 / 21,4251143,2019-08-18 16:24:33:680,0.3203,-1.0056,9.8668,0.5931,-1.1171,9.7247,0.0038,-0.0035,-0.0416
42505,47.931984,-1.672753,124.45,28.46,5.36,178.6,14 / 21,4251243,2019-08-18 16:24:33:780,0.0743,-1.1702,9.7464,0.5915,-1.1115,9.7255,-0.0054,0.0142,-0.0379
42506,47.931984,-1.672753,124.45,28.46,5.36,178.6,14 / 21,4251343,2019-08-18 16:24:33:880,0.012,-1.011,9.5932,0.5686,-1.1117,9.7268,-0.0089,0.02,-0.0364
42507,47.931984,-1.672753,124.45,28.46,5.36,178.6,14 / 21,4251443,2019-08-18 16:24:33:980,-0.0377,-0.9469,9.5292,0.5517,-1.1132,9.7276,-0.0156,0.0142,-0.0365
42508,47.931984,-1.672753,124.45,28.46,5.36,178.6,14 / 21,4251544,2019-08-18 16:24:34:081,-0.5237,-1.0241,9.2269,0.516,-1.1315,9.7275,-0.0139,0.0172,-0.0348
42509,47.931984,-1.672753,124.45,28.46,5.36,178.6,14 / 21,4251643,2019-08-18 16:24:34:180,-0.6027,-1.3228,9.7464,0.4945,-1.1351,9.7282,-0.002,0.0146,-0.0343
42510,47.931984,-1.672753,124.45,28.46,5.36,178.6,14 / 21,4251743,2019-08-18 16:24:34:280,-0.4417,-1.2043,10.035,0.4686,-1.1401,9.7289,-0.0029,-0.0064,-0.0323
42511,47.931984,-1.672753,124.45,28.46,5.36,178.6,14 / 21,4251843,2019-08-18 16:24:34:380,-0.3782,-1.1289,9.7931,0.4611,-1.1421,9.729,-0.003,0.0071,-0.0296
42512,47.931984,-1.672753,124.45,28.46,5.36,178.6,14 / 21,4251944,2019-08-18 16:24:34:481,-0.3471,-1.0876,9.7255,0.4215,-1.1444,9.7305,-0.0081,0.021,-0.028
42513,47.931984,-1.672753,124.45,28.46,5.36,178.6,14 / 21,4252043,2019-08-18 16:24:34:580,-0.6608,-1.0564,8.7894,0.3914,-1.149,9.7312,-0.0081,0.0153,-0.0282
42514,47.931984,-1.672753,124.45,28.46,5.36,178.6,14 / 20,4252143,2019-08-18 16:24:34:680,-0.2938,-1.066,9.8428,0.3554,-1.155,9.7319,-0.0038,0.0108,-0.0289
42515,47.931984,-1.672753,124.45,28.46,5.36,178.6,14 / 20,4252244,2019-08-18 16:24:34:781,-0.5075,-1.2091,10.7712,0.3453,-1.1509,9.7328,0.0113,-0.0198,-0.0294
42516,47.931984,-1.672753,124.45,28.46,5.36,178.6,14 / 20,4252344,2019-08-18 16:24:34:881,-0.5554,-1.0792,10.6808,0.3478,-1.1354,9.7345,0.0139,-0.0247,-0.0266
42517,47.931984,-1.672753,124.45,28.46,5.36,178.6,14 / 20,4252443,2019-08-18 16:24:34:980,-0.3423,-0.6273,9.8165,0.3522,-1.1158,9.7366,0.0145,-0.0146,-0.0239
42518,47.931984,-1.672753,124.45,28.46,5.36,178.6,14 / 20,4252543,2019-08-18 16:24:35:080,-0.3034,-0.8583,9.2562,0.3389,-1.094,9.7395,-0.0041,0.0101,-0.0235
42519,47.931984,-1.672753,124.45,28.46,5.36,178.6,14 / 20,4252644,2019-08-18 16:24:35:181,-0.0131,-0.826,9.0701,0.328,-1.0942,9.7399,-0.0138,0.0093,-0.0274
42520,47.931984,-1.672753,124.45,28.46,5.36,178.6,14 / 20,4252743,2019-08-18 16:24:35:280,-0.0317,-0.656,9.3143,0.3073,-1.1041,9.7395,-0.0206,-0.0059,-0.0312
42521,47.931984,-1.672753,124.45,28.46,5.36,178.6,14 / 20,4252844,2019-08-18 16:24:35:381,-0.0706,-0.8003,9.4705,0.3095,-1.1108,9.7386,-0.0156,-0.0137,-0.0316
42522,47.931984,-1.672753,124.45,28.46,5.36,178.6,14 / 20,4252943,2019-08-18 16:24:35:480,0.2419,-0.8326,9.7488,0.3133,-1.1192,9.7375,-0.0166,0.0052,-0.0303
42523,47.931984,-1.672753,124.45,28.46,5.36,178.6,14 / 20,4253043,2019-08-18 16:24:35:580,-0.0131,-0.7476,10.0535,0.3054,-1.121,9.7376,-0.0056,0.0125,-0.0298
42524,47.931984,-1.672753,124.45,28.46,5.36,178.6,Aug-14,4253143,2019-08-18 16:24:35:680,0.2419,-0.7877,10.5808,0.3062,-1.1062,9.7392,0.003,-0.021,-0.0298
42525,47.931984,-1.672753,124.45,28.46,5.36,178.6,Aug-14,4253243,2019-08-18 16:24:35:780,0.2221,-0.7141,10.0188,0.3156,-1.0991,9.7397,0.0012,-0.0035,-0.03
42526,47.931984,-1.672753,124.45,28.46,5.36,178.6,Aug-14,4253343,2019-08-18 16:24:35:880,0.2975,-0.4944,9.7728,0.3252,-1.0814,9.7414,0.0011,0.0151,-0.0271
42527,47.931984,-1.672753,124.45,28.46,5.36,178.6,Aug-14,4253443,2019-08-18 16:24:35:980,0.2754,-0.7374,9.431,0.3126,-1.074,9.7426,0.0023,0.0178,-0.027
42528,47.931984,-1.672753,124.45,28.46,5.36,178.6,Aug-14,4253544,2019-08-18 16:24:36:081,0.1838,-0.7069,9.586,0.2965,-1.052,9.7455,0.0075,0.0067,-0.0285
42529,47.931984,-1.672753,124.45,28.46,5.36,178.6,Aug-14,4253643,2019-08-18 16:24:36:180,0.0162,-0.3112,9.7004,0.2994,-1.0406,9.7467,-0.0047,-0.0015,-0.0291
42530,47.931984,-1.672753,124.45,28.46,5.36,178.6,Aug-14,4253743,2019-08-18 16:24:36:280,0.2646,-0.6057,9.6435,0.2993,-1.0317,9.7476,-0.0038,0.0034,-0.0289
42531,47.931984,-1.672753,124.45,28.46,5.36,178.6,Aug-14,4253843,2019-08-18 16:24:36:380,0.3161,-0.5201,9.8847,0.2997,-1.0307,9.7477,-0.0147,-0.0059,-0.0322
42532,47.931984,-1.672753,124.45,28.46,5.36,178.6,Aug-14,4253943,2019-08-18 16:24:36:480,0.3203,-0.5201,9.5699,0.3068,-1.035,9.747,-0.013,-0.0018,-0.033
42533,47.931984,-1.672753,124.45,28.46,5.36,178.6,Aug-14,4254043,2019-08-18 16:24:36:580,0.1814,-0.8272,9.4849,0.3075,-1.034,9.7471,-0.0052,0.0079,-0.0343
42534,47.92972,-1.673344,131.98,27.73,4.288,197.3,Aug-14,4254143,2019-08-18 16:24:36:680,0.1048,-0.9008,9.6633,0.3052,-1.0329,9.7473,-0.0052,0.0023,-0.0342
42535,47.92972,-1.673344,131.98,27.73,4.288,197.3,Aug-14,4254243,2019-08-18 16:24:36:780,0.5902,-0.3807,9.8775,0.3116,-1.0275,9.7477,0.0029,-0.0016,-0.0331
42536,47.92972,-1.673344,131.98,27.73,4.288,197.3,Aug-14,4254343,2019-08-18 16:24:36:880,0.7231,-0.6003,9.5735,0.3146,-1.0208,9.7483,-0.0051,-0.0097,-0.0326
42537,47.92972,-1.673344,131.98,27.73,4.288,197.3,Aug-14,4254443,2019-08-18 16:24:36:980,0.428,-0.6213,10.0385,0.3184,-1.0078,9.7495,-0.0085,-0.0117,-0.0321
42538,47.92972,-1.673344,131.98,27.73,4.288,197.3,Aug-14,4254543,2019-08-18 16:24:37:080,0.2042,-0.8416,9.5525,0.3344,-1.0095,9.7488,-0.0048,0.0021,-0.0315
42539,47.92972,-1.673344,131.98,27.73,4.288,197.3,Aug-14,4254643,2019-08-18 16:24:37:180,0.3736,-0.6788,9.279,0.3356,-1.0067,9.7491,-0.0083,0.0122,-0.0331
42540,47.92972,-1.673344,131.98,27.73,4.288,197.3,Aug-14,4254743,2019-08-18 16:24:37:280,0.033,-1.2204,9.7919,0.3307,-1.0095,9.749,-0.0063,-0.0041,-0.0484
42541,47.92972,-1.673344,131.98,27.73,4.288,197.3,Aug-14,4254844,2019-08-18 16:24:37:381,0.5914,-1.3635,9.6219,0.3482,-1.0148,9.7478,-0.0053,-0.0085,-0.0547
42542,47.92972,-1.673344,131.98,27.73,4.288,197.3,Aug-14,4254943,2019-08-18 16:24:37:480,0.534,-0.7871,9.8787,0.3576,-1.0216,9.7467,-0.0181,0.0086,-0.0546
42543,47.92972,-1.673344,131.98,27.73,4.288,197.3,Aug-14,4255043,2019-08-18 16:24:37:580,0.1617,-1.5784,9.9003,0.3712,-1.046,9.7436,-0.0125,0.0005,-0.0553
42544,47.92972,-1.673344,131.98,27.73,4.288,197.3,15 / 21,4255143,2019-08-18 16:24:37:680,0.7327,-1.2821,10.0739,0.3777,-1.0468,9.7433,0.0022,-0.0002,-0.051
42545,47.92972,-1.673344,131.98,27.73,4.288,197.3,15 / 21,4255244,2019-08-18 16:24:37:781,0.8554,-1.0594,9.7746,0.3899,-1.0471,9.7428,-0.0002,0.0062,-0.0472
42546,47.92972,-1.673344,131.98,27.73,4.288,197.3,15 / 21,4255344,2019-08-18 16:24:37:881,0.8632,-0.8368,9.7536,0.395,-1.0491,9.7424,0.0011,0.013,-0.0457
42547,47.92972,-1.673344,131.98,27.73,4.288,197.3,15 / 21,4255443,2019-08-18 16:24:37:980,0.5034,-0.893,9.7758,0.3888,-1.0467,9.7429,0.0007,0.0123,-0.0456
42548,47.92972,-1.673344,131.98,27.73,4.288,197.3,15 / 21,4255544,2019-08-18 16:24:38:081,0.7255,-1.1624,9.9727,0.3925,-1.0475,9.7426,-0.0121,-0.0086,-0.0458
42549,47.92972,-1.673344,131.98,27.73,4.288,197.3,15 / 21,4255643,2019-08-18 16:24:38:180,0.1617,-1.2468,10.0882,0.4092,-1.0592,9.7407,-0.0124,-0.0023,-0.0445
42550,47.92972,-1.673344,131.98,27.73,4.288,197.3,15 / 21,4255743,2019-08-18 16:24:38:280,0.1994,-0.9146,9.7967,0.417,-1.0647,9.7398,-0.0024,-0.0008,-0.0401
42551,47.92972,-1.673344,131.98,27.73,4.288,197.3,15 / 21,4255844,2019-08-18 16:24:38:381,0.0916,-1.0355,9.3233,0.4085,-1.0685,9.7397,-0.0078,0.0124,-0.0352
42552,47.92972,-1.673344,131.98,27.73,4.288,197.3,15 / 21,4255943,2019-08-18 16:24:38:480,0.1264,-1.1797,9.8787,0.3993,-1.0723,9.7397,-0.0083,0.0001,-0.0376
42553,47.92972,-1.673344,131.98,27.73,4.288,197.3,15 / 21,4256043,2019-08-18 16:24:38:580,0.0791,-0.6806,10.2845,0.3892,-1.0691,9.7404,0.0055,0.0078,-0.037
42554,47.92972,-1.673344,131.98,27.73,4.288,197.3,16 / 22,4256143,2019-08-18 16:24:38:680,0.1341,-0.9685,9.7285,0.385,-1.0648,9.7411,0.0013,0.0012,-0.0367
42555,47.92972,-1.673344,131.98,27.73,4.288,197.3,16 / 22,4256243,2019-08-18 16:24:38:780,0.0354,-1.0918,9.8153,0.3847,-1.0688,9.7406,-0.0028,-0.004,-0.0376
42556,47.92972,-1.673344,131.98,27.73,4.288,197.3,16 / 22,4256343,2019-08-18 16:24:38:880,-0.1639,-1.0289,9.838,0.3832,-1.0709,9.7405,-0.0107,0.001,-0.037
42557,47.92972,-1.673344,131.98,27.73,4.288,197.3,16 / 22,4256444,2019-08-18 16:24:38:981,-0.0383,-1.139,9.4352,0.3743,-1.0853,9.7392,-0.017,-0.0052,-0.0409
42558,47.92972,-1.673344,131.98,27.73,4.288,197.3,16 / 22,4256543,2019-08-18 16:24:39:080,0.2473,-1.2294,9.9296,0.3749,-1.0942,9.7382,-0.0101,-0.0058,-0.0425
42559,47.92972,-1.673344,131.98,27.73,4.288,197.3,16 / 22,4256643,2019-08-18 16:24:39:180,0.4137,-1.1833,9.8817,0.3749,-1.1027,9.7372,-0.0007,0.0042,-0.0462
42560,47.92972,-1.673344,131.98,27.73,4.288,197.3,16 / 22,4256744,2019-08-18 16:24:39:281,0.0408,-1.421,10.1768,0.372,-1.1067,9.7369,-0.005,0.0004,-0.0465
42561,47.92972,-1.673344,131.98,27.73,4.288,197.3,16 / 22,4256843,2019-08-18 16:24:39:380,-0.1987,-0.9619,9.5364,0.3729,-1.1215,9.7352,-0.0053,-0.0026,-0.0468
42562,47.92972,-1.673344,131.98,27.73,4.288,197.3,16 / 22,4256943,2019-08-18 16:24:39:480,0.1144,-1.5538,9.5968,0.3757,-1.1295,9.7341,-0.0108,-0.0002,-0.043
42563,47.92972,-1.673344,131.98,27.73,4.288,197.3,16 / 22,4257043,2019-08-18 16:24:39:580,-0.1532,-1.0199,9.0683,0.372,-1.1355,9.7336,-0.0077,0.0133,-0.043
42564,47.92972,-1.673344,131.98,27.73,4.288,197.3,13 / 19,4257143,2019-08-18 16:24:39:680,0.0072,-1.011,9.7303,0.3549,-1.1558,9.7318,-0.0122,0.0066,-0.0452
42565,47.92972,-1.673344,131.98,27.73,4.288,197.3,13 / 19,4257243,2019-08-18 16:24:39:780,0.1539,-1.5544,9.3376,0.349,-1.1646,9.731,-0.0092,-0.003,-0.0468
42566,47.92972,-1.673344,131.98,27.73,4.288,197.3,13 / 19,4257343,2019-08-18 16:24:39:880,0.0701,-1.1031,9.8566,0.346,-1.1814,9.7291,-0.0047,0.0072,-0.0446
42567,47.92972,-1.673344,131.98,27.73,4.288,197.3,13 / 19,4257443,2019-08-18 16:24:39:980,-0.2352,-1.2049,9.7387,0.3409,-1.186,9.7287,-0.0025,-0.0047,-0.0439
42568,47.92972,-1.673344,131.98,27.73,4.288,197.3,13 / 19,4257543,2019-08-18 16:24:40:080,-0.1969,-1.3976,9.7518,0.3438,-1.1899,9.7281,0.0001,-0.0026,-0.0406
42569,47.92972,-1.673344,131.98,27.73,4.288,197.3,13 / 19,4257643,2019-08-18 16:24:40:180,-0.1179,-1.3443,9.5082,0.3358,-1.1887,9.7286,0.0048,-0.0058,-0.0394
42570,47.92972,-1.673344,131.98,27.73,4.288,197.3,13 / 19,4257744,2019-08-18 16:24:40:281,-0.0933,-1.2905,9.8099,0.3313,-1.1865,9.729,-0.001,0.0056,-0.0386
42571,47.92972,-1.673344,131.98,27.73,4.288,197.3,13 / 19,4257843,2019-08-18 16:24:40:380,-0.0796,-1.2444,10.0062,0.3231,-1.1874,9.7291,0.0072,-0.019,-0.038
42572,47.92972,-1.673344,131.98,27.73,4.288,197.3,13 / 19,4257943,2019-08-18 16:24:40:480,-0.2412,-1.2845,10.19,0.334,-1.1821,9.7294,0.0015,-0.0197,-0.0371
42573,47.92972,-1.673344,131.98,27.73,4.288,197.3,13 / 19,4258043,2019-08-18 16:24:40:580,-0.2376,-1.0367,10.6856,0.3385,-1.1793,9.7296,-0.0098,-0.0199,-0.0325
42574,47.92972,-1.673344,131.98,27.73,4.288,197.3,16 / 22,4258144,2019-08-18 16:24:40:681,-0.1574,-1.3288,10.0451,0.3467,-1.1847,9.7287,-0.0136,-0.0256,-0.0326
42575,47.92972,-1.673344,131.98,27.73,4.288,197.3,16 / 22,4258243,2019-08-18 16:24:40:780,-0.0634,-0.7853,9.3191,0.3546,-1.1953,9.7271,-0.0385,-0.0039,-0.031
42576,47.92972,-1.673344,131.98,27.73,4.288,197.3,16 / 22,4258343,2019-08-18 16:24:40:880,-0.1963,-1.0828,8.8211,0.3361,-1.2434,9.7217,-0.0447,0.0074,-0.0334
42577,47.92972,-1.673344,131.98,27.73,4.288,197.3,16 / 22,4258443,2019-08-18 16:24:40:980,-0.4944,-1.2737,8.8588,0.3198,-1.2699,9.7188,-0.0363,0.0164,-0.0343
42578,47.92972,-1.673344,131.98,27.73,4.288,197.3,16 / 22,4258544,2019-08-18 16:24:41:081,-0.1562,-1.2372,9.9362,0.2919,-1.3177,9.7133,-0.0251,-0.0141,-0.0343
42579,47.92972,-1.673344,131.98,27.73,4.288,197.3,16 / 22,4258643,2019-08-18 16:24:41:180,-0.5674,-1.0894,10.2552,0.293,-1.3332,9.7112,-0.0177,-0.0166,-0.0296
42580,47.92972,-1.673344,131.98,27.73,4.288,197.3,16 / 22,4258743,2019-08-18 16:24:41:280,-0.7739,-1.4287,10.1924,0.2912,-1.3436,9.7098,-0.0036,-0.0153,-0.022
42581,47.92972,-1.673344,131.98,27.73,4.288,197.3,16 / 22,4258844,2019-08-18 16:24:41:381,-0.9205,-1.1366,9.4412,0.2824,-1.336,9.7111,-0.007,0.0058,-0.0118
42582,47.92972,-1.673344,131.98,27.73,4.288,197.3,16 / 22,4258943,2019-08-18 16:24:41:480,-0.8481,-0.7793,9.3754,0.2425,-1.3416,9.7114,-0.0199,0.0105,-0.0121
42583,47.92972,-1.673344,131.98,27.73,4.288,197.3,16 / 22,4259043,2019-08-18 16:24:41:580,-0.7643,-0.7308,9.4765,0.2282,-1.3503,9.7106,-0.0268,-0.013,-0.015
42584,47.92972,-1.673344,131.98,27.73,4.288,197.3,Nov-18,4259144,2019-08-18 16:24:41:681,-0.4818,-0.6518,9.4089,0.2244,-1.3694,9.708,-0.0265,-0.0148,-0.014
42585,47.92972,-1.673344,131.98,27.73,4.288,197.3,Nov-18,4259243,2019-08-18 16:24:41:780,-0.0107,-0.9457,8.7355,0.2188,-1.3772,9.707,-0.0205,-0.0121,-0.0086
42586,47.92972,-1.673344,131.98,27.73,4.288,197.3,Nov-18,4259343,2019-08-18 16:24:41:880,-0.2226,-0.9062,10.4467,0.2113,-1.3828,9.7064,-0.008,-0.008,-0.0033
42587,47.92972,-1.673344,131.98,27.73,4.288,197.3,Nov-18,4259443,2019-08-18 16:24:41:980,-0.4429,-0.2963,9.7034,0.195,-1.369,9.7087,0.0074,0.0069,-0.0035
42588,47.92972,-1.673344,131.98,27.73,4.288,197.3,Nov-18,4259543,2019-08-18 16:24:42:080,-0.5632,-0.4352,9.4813,0.1562,-1.3511,9.7119,-0.0156,0.0131,-0.0013
42589,47.92972,-1.673344,131.98,27.73,4.288,197.3,Nov-18,4259643,2019-08-18 16:24:42:180,-0.6883,-0.7308,9.5226,0.1359,-1.347,9.7128,-0.0266,-0.0114,-0.0067
42590,47.92972,-1.673344,131.98,27.73,4.288,197.3,Nov-18,4259743,2019-08-18 16:24:42:280,-0.7086,-0.6171,9.683,0.1191,-1.3512,9.7124,-0.0156,-0.0038,-0.0069
42591,47.92972,-1.673344,131.98,27.73,4.288,197.3,Nov-18,4259843,2019-08-18 16:24:42:380,-0.4046,-0.5854,10.0427,0.1127,-1.3499,9.7126,-0.0277,-0.0111,-0.0049
42592,47.92972,-1.673344,131.98,27.73,4.288,197.3,Nov-18,4259943,2019-08-18 16:24:42:480,-0.96,-0.8966,10.02,0.1077,-1.3587,9.7115,-0.0277,-0.0182,-0.0053
42593,47.92972,-1.673344,131.98,27.73,4.288,197.3,Nov-18,4260043,2019-08-18 16:24:42:580,-0.3926,-0.75,9.6932,0.1008,-1.3558,9.712,-0.0125,-0.0077,-0.003
42594,47.92972,-1.673344,131.98,27.73,4.288,197.3,13 / 20,4260143,2019-08-18 16:24:42:680,-0.5542,-0.5351,9.686,0.083,-1.3483,9.7132,-0.0117,0.002,-0.0043
42595,47.92972,-1.673344,131.98,27.73,4.288,197.3,13 / 20,4260243,2019-08-18 16:24:42:780,-0.3878,-0.9505,9.2784,0.0744,-1.3484,9.7132,-0.0167,-0.0046,-0.0086
42596,47.92972,-1.673344,131.98,27.73,4.288,197.3,13 / 20,4260343,2019-08-18 16:24:42:880,-0.4315,-0.9894,9.8895,0.0589,-1.3644,9.7111,-0.0181,0.0039,-0.0199
42597,47.92972,-1.673344,131.98,27.73,4.288,197.3,13 / 20,4260443,2019-08-18 16:24:42:980,-0.6242,-1.0092,9.9326,0.0507,-1.3704,9.7103,-0.0148,0.0,-0.0199
42598,47.92972,-1.673344,131.98,27.73,4.288,197.3,13 / 20,4260544,2019-08-18 16:24:43:081,-0.4938,-1.2605,9.8799,0.0504,-1.3739,9.7098,-0.0107,-0.0096,-0.0204
42599,47.92972,-1.673344,131.98,27.73,4.288,197.3,13 / 20,4260644,2019-08-18 16:24:43:181,-0.4135,-1.4551,9.4777,0.0373,-1.3779,9.7093,-0.0039,0.0103,-0.0164
42600,47.92972,-1.673344,131.98,27.73,4.288,197.3,13 / 20,4260744,2019-08-18 16:24:43:281,-0.4776,-0.9822,9.7979,0.0262,-1.3793,9.7091,-0.0104,0.0005,-0.0147
42601,47.92972,-1.673344,131.98,27.73,4.288,197.3,13 / 20,4260843,2019-08-18 16:24:43:380,-0.4943,-1.0026,9.7171,0.0042,-1.3803,9.709,-0.0114,0.0005,-0.0127
42602,47.92972,-1.673344,131.98,27.73,4.288,197.3,13 / 20,4260943,2019-08-18 16:24:43:480,-0.7044,-1.2725,9.853,-0.0028,-1.383,9.7086,-0.0112,-0.0054,-0.0132
42603,47.92972,-1.673344,131.98,27.73,4.288,197.3,13 / 20,4261043,2019-08-18 16:24:43:580,-0.7781,-0.8637,10.093,-0.0162,-1.3928,9.7072,-0.0125,0.0031,-0.0117
42604,47.92972,-1.673344,131.98,27.73,4.288,197.3,15 / 22,4261143,2019-08-18 16:24:43:680,-0.5722,-1.0858,9.4825,-0.0254,-1.3957,9.7068,-0.017,-0.0065,-0.0108
42605,47.92972,-1.673344,131.98,27.73,4.288,197.3,15 / 22,4261243,2019-08-18 16:24:43:780,-0.4896,-0.9212,9.7518,-0.0384,-1.4025,9.7058,-0.0125,-0.0067,-0.0096
42606,47.92972,-1.673344,131.98,27.73,4.288,197.3,15 / 22,4261343,2019-08-18 16:24:43:880,-0.4758,-1.2492,9.7165,-0.0418,-1.4009,9.706,-0.0019,-0.0021,-0.0067
42607,47.92972,-1.673344,131.98,27.73,4.288,197.3,15 / 22,4261443,2019-08-18 16:24:43:980,-0.4884,-0.8439,9.583,-0.0563,-1.392,9.7072,-0.0056,-0.001,-0.0042
42608,47.92972,-1.673344,131.98,27.73,4.288,197.3,15 / 22,4261544,2019-08-18 16:24:44:081,-0.9929,-0.7673,9.8015,-0.0637,-1.3855,9.7081,-0.0115,-0.0101,-0.0031
42609,47.92972,-1.673344,131.98,27.73,4.288,197.3,15 / 22,4261643,2019-08-18 16:24:44:180,-0.5033,-0.7967,9.0952,-0.0671,-1.3821,9.7085,-0.0129,-0.003,-0.0008
42610,47.92972,-1.673344,131.98,27.73,4.288,197.3,15 / 22,4261743,2019-08-18 16:24:44:280,-0.6883,-0.5537,10.0984,-0.0792,-1.3812,9.7086,-0.0148,0.0023,-0.0014
42611,47.92972,-1.673344,131.98,27.73,4.288,197.3,15 / 22,4261843,2019-08-18 16:24:44:380,-0.5518,-1.0409,9.8476,-0.0971,-1.3667,9.7105,-0.0005,0.0018,0.0028
42612,47.92972,-1.673344,131.98,27.73,4.288,197.3,15 / 22,4261943,2019-08-18 16:24:44:480,-0.7721,-0.3705,9.1246,-0.1106,-1.3568,9.7117,-0.0018,0.0133,0.0046
42613,47.92972,-1.673344,131.98,27.73,4.288,197.3,15 / 22,4262043,2019-08-18 16:24:44:580,-0.6524,-0.826,9.1958,-0.14,-1.3405,9.7136,-0.0083,0.0038,0.0054
42614,47.92972,-1.673344,131.98,27.73,4.288,197.3,16 / 21,4262143,2019-08-18 16:24:44:680,-0.6272,-0.589,9.2257,-0.1489,-1.3321,9.7146,-0.0072,-0.0016,0.0037
42615,47.92972,-1.673344,131.98,27.73,4.288,197.3,16 / 21,4262243,2019-08-18 16:24:44:780,-0.6326,-0.6464,9.8159,-0.1713,-1.3227,9.7155,-0.0121,0.0068,0.0014
42616,47.92972,-1.673344,131.98,27.73,4.288,197.3,16 / 21,4262343,2019-08-18 16:24:44:880,-0.6889,-0.9134,10.1343,-0.185,-1.3198,9.7157,-0.006,0.0087,0.0013
42617,47.92972,-1.673344,131.98,27.73,4.288,197.3,16 / 21,4262444,2019-08-18 16:24:44:981,-0.8116,-0.6799,9.8099,-0.2073,-1.3006,9.7178,0.0005,-0.0062,0.0026
42618,47.92972,-1.673344,131.98,27.73,4.288,197.3,16 / 21,4262543,2019-08-18 16:24:45:080,-0.8421,-0.8033,9.9146,-0.2096,-1.2934,9.7187,0.0041,-0.0099,0.0041
42619,47.92972,-1.673344,131.98,27.73,4.288,197.3,16 / 21,4262643,2019-08-18 16:24:45:180,-1.1779,-0.8679,9.1461,-0.2219,-1.2749,9.7209,-0.0173,0.0056,0.006
42620,47.92972,-1.673344,131.98,27.73,4.288,197.3,16 / 21,4262743,2019-08-18 16:24:45:280,-1.0474,-0.3896,10.1876,-0.2416,-1.279,9.7199,-0.0198,0.0103,0.0079
42621,47.92972,-1.673344,131.98,27.73,4.288,197.3,16 / 21,4262844,2019-08-18 16:24:45:381,-1.1246,-0.6404,9.6824,-0.2653,-1.2648,9.7211,0.0046,0.0042,0.0135
42622,47.92972,-1.673344,131.98,27.73,4.288,197.3,16 / 21,4262943,2019-08-18 16:24:45:480,-1.1647,-0.3364,9.7159,-0.2854,-1.2469,9.7229,-0.0013,0.0012,0.0164
42623,47.92972,-1.673344,131.98,27.73,4.288,197.3,16 / 21,4263043,2019-08-18 16:24:45:580,-1.2258,-0.4717,9.6315,-0.3118,-1.235,9.7236,-0.0091,0.0053,0.0213
42624,47.92773,-1.675068,137.71,28.72,3.216,212.7,16 / 21,4263144,2019-08-18 16:24:45:681,-0.8571,-0.4393,9.7189,-0.3336,-1.2275,9.7238,-0.0201,0.0063,0.0231
42625,47.92773,-1.675068,137.71,28.72,3.216,212.7,16 / 21,4263243,2019-08-18 16:24:45:780,-1.2641,-0.1838,9.8392,-0.3561,-1.2276,9.723,-0.0302,-0.0129,0.0229
42626,47.92773,-1.675068,137.71,28.72,3.216,212.7,16 / 21,4263343,2019-08-18 16:24:45:880,-0.9474,-0.173,10.1134,-0.3625,-1.2207,9.7236,-0.0132,-0.0128,0.025
42627,47.92773,-1.675068,137.71,28.72,3.216,212.7,16 / 21,4263443,2019-08-18 16:24:45:980,-0.5452,0.1562,10.105,-0.3632,-1.1925,9.7271,-0.0094,-0.0258,0.0279
42628,47.92773,-1.675068,137.71,28.72,3.216,212.7,16 / 21,4263543,2019-08-18 16:24:46:080,-1.036,0.267,10.1972,-0.3604,-1.1852,9.7281,-0.0265,-0.0226,0.0281
42629,47.92773,-1.675068,137.71,28.72,3.216,212.7,16 / 21,4263644,2019-08-18 16:24:46:181,-1.0594,0.0413,9.9326,-0.3673,-1.1767,9.7289,-0.0332,-0.0119,0.0265
42630,47.92773,-1.675068,137.71,28.72,3.216,212.7,16 / 21,4263743,2019-08-18 16:24:46:280,-1.0857,0.0443,9.4262,-0.3838,-1.1829,9.7275,-0.0249,-0.0084,0.0277
42631,47.92773,-1.675068,137.71,28.72,3.216,212.7,16 / 21,4263843,2019-08-18 16:24:46:380,-1.066,-0.0293,10.0535,-0.3902,-1.179,9.7277,-0.0019,-0.0156,0.0295
42632,47.92773,-1.675068,137.71,28.72,3.216,212.7,16 / 21,4263943,2019-08-18 16:24:46:480,-0.9588,-0.1616,10.4659,-0.3893,-1.1432,9.732,-0.0066,-0.0148,0.0297
42633,47.92773,-1.675068,137.71,28.72,3.216,212.7,16 / 21,4264043,2019-08-18 16:24:46:580,-1.2276,-0.2927,8.8983,-0.3912,-1.1281,9.7337,-0.0263,-0.013,0.0283
42634,47.92773,-1.675068,137.71,28.72,3.216,212.7,14 / 18,4264144,2019-08-18 16:24:46:681,-0.9427,-0.1293,9.0761,-0.4073,-1.1274,9.7331,-0.0253,0.0012,0.0277
42635,47.92773,-1.675068,137.71,28.72,3.216,212.7,14 / 18,4264244,2019-08-18 16:24:46:781,-0.9864,0.1873,9.276,-0.4186,-1.1275,9.7326,-0.0167,-0.0037,0.0283
42636,47.92773,-1.675068,137.71,28.72,3.216,212.7,14 / 18,4264343,2019-08-18 16:24:46:880,-0.9678,-0.2975,9.4669,-0.4354,-1.1157,9.7333,-0.0182,-0.0176,0.0297
42637,47.92773,-1.675068,137.71,28.72,3.216,212.7,14 / 18,4264443,2019-08-18 16:24:46:980,-0.8984,0.0856,8.9737,-0.4357,-1.1064,9.7343,-0.0113,-0.0148,0.0303
42638,47.92773,-1.675068,137.71,28.72,3.216,212.7,14 / 18,4264543,2019-08-18 16:24:47:080,-0.8607,-0.1604,9.9871,-0.4515,-1.0881,9.7356,-0.0253,0.0066,0.0299
42639,47.92773,-1.675068,137.71,28.72,3.216,212.7,14 / 18,4264643,2019-08-18 16:24:47:180,-1.0749,-0.2113,9.6519,-0.4617,-1.0894,9.735,-0.0272,-0.0082,0.0301
42640,47.92773,-1.675068,137.71,28.72,3.216,212.7,14 / 18,4264743,2019-08-18 16:24:47:280,-1.0318,-0.2215,9.671,-0.4782,-1.0838,9.7348,-0.0099,-0.0026,0.0309
42641,47.92773,-1.675068,137.71,28.72,3.216,212.7,14 / 18,4264844,2019-08-18 16:24:47:381,-0.9133,-0.2083,9.5717,-0.4866,-1.0745,9.7355,-0.0233,0.0009,0.0319
42642,47.92773,-1.675068,137.71,28.72,3.216,212.7,14 / 18,4264943,2019-08-18 16:24:47:480,-1.1186,-0.0904,9.5789,-0.5171,-1.068,9.7346,-0.0195,0.0068,0.0338
42643,47.92773,-1.675068,137.71,28.72,3.216,212.7,14 / 18,4265043,2019-08-18 16:24:47:580,-1.118,0.0359,9.6812,-0.5351,-1.0553,9.735,-0.0202,-0.0121,0.0407
42644,47.92773,-1.675068,137.71,28.72,3.216,212.7,15 / 19,4265144,2019-08-18 16:24:47:681,-1.0049,-0.167,9.3939,-0.5471,-1.0426,9.7357,-0.0169,-0.0125,0.0424
42645,47.92773,-1.675068,137.71,28.72,3.216,212.7,15 / 19,4265243,2019-08-18 16:24:47:780,-1.4047,-0.1718,10.2498,-0.554,-1.033,9.7363,-0.0153,-0.008,0.0418
42646,47.92773,-1.675068,137.71,28.72,3.216,212.7,15 / 19,4265343,2019-08-18 16:24:47:880,-1.3054,0.2239,9.2407,-0.5719,-1.0164,9.7371,0.0007,0.0046,0.0427
42647,47.92773,-1.675068,137.71,28.72,3.216,212.7,15 / 19,4265443,2019-08-18 16:24:47:980,-1.306,0.0856,9.2113,-0.597,-0.997,9.7376,-0.0019,0.0251,0.0389
42648,47.92773,-1.675068,137.71,28.72,3.216,212.7,15 / 19,4265543,2019-08-18 16:24:48:080,-0.9247,-0.0886,9.8578,-0.6513,-0.9682,9.737,-0.0005,0.0038,0.0419
42649,47.92773,-1.675068,137.71,28.72,3.216,212.7,15 / 19,4265644,2019-08-18 16:24:48:181,-1.3138,0.1299,9.3047,-0.6645,-0.953,9.7376,-0.0078,0.0025,0.0406
42650,47.92773,-1.675068,137.71,28.72,3.216,212.7,15 / 19,4265743,2019-08-18 16:24:48:280,-1.0127,-0.0904,10.2582,-0.6928,-0.9371,9.7372,-0.0181,-0.0019,0.0393
42651,47.92773,-1.675068,137.71,28.72,3.216,212.7,15 / 19,4265844,2019-08-18 16:24:48:381,-1.1516,-0.2484,9.5046,-0.7009,-0.9266,9.7376,-0.0003,-0.0019,0.0419
42652,47.92773,-1.675068,137.71,28.72,3.216,212.7,15 / 19,4265943,2019-08-18 16:24:48:480,-1.121,0.2508,10.0619,-0.738,-0.8799,9.7392,0.0118,0.0036,0.0496
42653,47.92773,-1.675068,137.71,28.72,3.216,212.7,15 / 19,4266043,2019-08-18 16:24:48:580,-1.3162,0.3795,10.6149,-0.7487,-0.8568,9.7404,-0.0051,-0.0152,0.0513
42654,47.92773,-1.675068,137.71,28.72,3.216,212.7,15 / 20,4266143,2019-08-18 16:24:48:680,-1.5676,0.571,10.7634,-0.7555,-0.8121,9.7437,-0.003,-0.0117,0.0474
42655,47.92773,-1.675068,137.71,28.72,3.216,212.7,15 / 20,4266244,2019-08-18 16:24:48:781,-1.2437,0.24,9.5848,-0.756,-0.7951,9.7451,-0.0128,-0.0117,0.0471
42656,47.92773,-1.675068,137.71,28.72,3.216,212.7,15 / 20,4266343,2019-08-18 16:24:48:880,-0.899,0.0946,9.455,-0.7632,-0.7682,9.7467,-0.014,0.0012,0.0478
42657,47.92773,-1.675068,137.71,28.72,3.216,212.7,15 / 20,4266443,2019-08-18 16:24:48:980,-1.3443,0.079,9.1467,-0.782,-0.7553,9.7462,-0.0187,0.0073,0.0505
42658,47.92773,-1.675068,137.71,28.72,3.216,212.7,15 / 20,4266543,2019-08-18 16:24:49:080,-0.9157,0.2586,9.4532,-0.7987,-0.7351,9.7464,-0.0116,-0.0046,0.0467
42659,47.92773,-1.675068,137.71,28.72,3.216,212.7,15 / 20,4266643,2019-08-18 16:24:49:180,-1.0863,0.0964,9.665,-0.8083,-0.7259,9.7463,-0.0141,0.0029,0.0428
42660,47.92773,-1.675068,137.71,28.72,3.216,212.7,15 / 20,4266743,2019-08-18 16:24:49:280,-0.9636,-0.0311,9.8392,-0.8114,-0.7048,9.7476,-0.0016,-0.0068,0.0301
42661,47.92773,-1.675068,137.71,28.72,3.216,212.7,15 / 20,4266844,2019-08-18 16:24:49:381,-0.8038,-0.1837,10.1684,-0.8091,-0.6927,9.7486,0.0019,-0.0118,0.027
42662,47.92773,-1.675068,137.71,28.72,3.216,212.7,15 / 20,4266943,2019-08-18 16:24:49:480,-0.8289,-0.2705,10.2444,-0.8034,-0.6824,9.7498,-0.004,-0.0093,0.0255
42663,47.92773,-1.675068,137.71,28.72,3.216,212.7,15 / 20,4267043,2019-08-18 16:24:49:580,-1.1994,-0.1688,9.7907,-0.8022,-0.6672,9.751,-0.0111,-0.0003,0.0268
42664,47.92773,-1.675068,137.71,28.72,3.216,212.7,16 / 20,4267144,2019-08-18 16:24:49:681,-0.738,-0.1897,9.3376,-0.8086,-0.6616,9.7508,-0.009,-0.0011,0.0273
42665,47.92773,-1.675068,137.71,28.72,3.216,212.7,16 / 20,4267244,2019-08-18 16:24:49:781,-0.723,-0.1742,9.3795,-0.8136,-0.6548,9.7509,-0.0143,-0.0065,0.0258
42666,47.92773,-1.675068,137.71,28.72,3.216,212.7,16 / 20,4267343,2019-08-18 16:24:49:880,-0.7577,0.1239,10.1217,-0.8111,-0.6574,9.7509,-0.0338,-0.0061,0.0247
42667,47.92773,-1.675068,137.71,28.72,3.216,212.7,16 / 20,4267443,2019-08-18 16:24:49:980,-1.376,-0.6512,9.7267,-0.807,-0.6649,9.7508,-0.0031,-0.0213,0.0263
42668,47.92773,-1.675068,137.71,28.72,3.216,212.7,16 / 20,4267544,2019-08-18 16:24:50:081,-1.2563,-0.1772,9.9308,-0.7963,-0.6549,9.7523,-0.0055,-0.0163,0.0265
42669,47.92773,-1.675068,137.71,28.72,3.216,212.7,16 / 20,4267643,2019-08-18 16:24:50:180,-1.1635,-0.258,9.5082,-0.7942,-0.6529,9.7526,-0.0172,0.0049,0.0247
42670,47.92773,-1.675068,137.71,28.72,3.216,212.7,16 / 20,4267743,2019-08-18 16:24:50:280,-0.8636,-0.1317,9.5926,-0.7975,-0.6592,9.7519,-0.0147,-0.0054,0.025
42671,47.92773,-1.675068,137.71,28.72,3.216,212.7,16 / 20,4267843,2019-08-18 16:24:50:380,-1.0558,-0.3274,10.3097,-0.8056,-0.661,9.7511,-0.0079,-0.0126,0.0235
42672,47.92773,-1.675068,137.71,28.72,3.216,212.7,16 / 20,4267944,2019-08-18 16:24:50:481,-1.3515,-0.5124,10.0146,-0.7967,-0.6596,9.7519,-0.002,-0.0164,0.0238
42673,47.92773,-1.675068,137.71,28.72,3.216,212.7,16 / 20,4268043,2019-08-18 16:24:50:580,-1.1869,-0.7428,10.3773,-0.7879,-0.6458,9.7536,0.0049,-0.0036,0.0247
42674,47.92773,-1.675068,137.71,28.72,3.216,212.7,17 / 21,4268144,2019-08-18 16:24:50:681,-1.1354,-0.3777,9.665,-0.7925,-0.6418,9.7535,0.0,0.0024,0.024
42675,47.92773,-1.675068,137.71,28.72,3.216,212.7,17 / 21,4268244,2019-08-18 16:24:50:781,-1.0636,-0.3639,10.0828,-0.8028,-0.6319,9.7533,-0.0041,-0.0047,0.0241
42676,47.92773,-1.675068,137.71,28.72,3.216,212.7,17 / 21,4268343,2019-08-18 16:24:50:880,-1.1096,-0.7392,9.835,-0.8058,-0.6294,9.7532,-0.0027,-0.0073,0.0218
42677,47.92773,-1.675068,137.71,28.72,3.216,212.7,17 / 21,4268443,2019-08-18 16:24:50:980,-1.1749,-0.2616,9.8907,-0.8134,-0.6173,9.7533,0.0094,0.0035,0.0226
42678,47.92773,-1.675068,137.71,28.72,3.216,212.7,17 / 21,4268543,2019-08-18 16:24:51:080,-1.2503,-0.7027,9.7883,-0.8175,-0.6144,9.7532,-0.0038,-0.0043,0.0248
42679,47.92773,-1.675068,137.71,28.72,3.216,212.7,17 / 21,4268644,2019-08-18 16:24:51:181,-1.1761,-0.4465,9.7644,-0.8248,-0.6053,9.7531,0.0098,0.0038,0.0232
42680,47.92773,-1.675068,137.71,28.72,3.216,212.7,17 / 21,4268743,2019-08-18 16:24:51:280,-0.9295,-0.4298,9.6076,-0.8404,-0.5929,9.7526,0.0081,0.0076,0.0249
42681,47.92773,-1.675068,137.71,28.72,3.216,212.7,17 / 21,4268843,2019-08-18 16:24:51:380,-1.0019,-0.3352,9.9937,-0.8506,-0.5796,9.7525,0.0018,0.0057,0.0222
42682,47.92773,-1.675068,137.71,28.72,3.216,212.7,17 / 21,4268943,2019-08-18 16:24:51:480,-0.9636,-0.3765,10.0768,-0.8591,-0.5728,9.7521,0.0039,0.0072,0.0214
42683,47.92773,-1.675068,137.71,28.72,3.216,212.7,17 / 21,4269043,2019-08-18 16:24:51:580,-1.0708,-0.4776,9.5046,-0.8706,-0.5516,9.7523,0.0102,-0.0001,0.0233
42684,47.92773,-1.675068,137.71,28.72,3.216,212.7,18 / 21,4269143,2019-08-18 16:24:51:680,-0.811,-0.3873,9.6992,-0.877,-0.5402,9.7524,0.0032,0.0099,0.0238
42685,47.92773,-1.675068,137.71,28.72,3.216,212.7,18 / 21,4269243,2019-08-18 16:24:51:780,-0.7852,-0.1401,9.6956,-0.8891,-0.524,9.7522,0.0069,0.0038,0.0239
42686,47.92773,-1.675068,137.71,28.72,3.216,212.7,18 / 21,4269343,2019-08-18 16:24:51:880,-1.0594,0.0712,9.5651,-0.8918,-0.5167,9.7523,0.0036,0.0032,0.0243
42687,47.92773,-1.675068,137.71,28.72,3.216,212.7,18 / 21,4269443,2019-08-18 16:24:51:980,-0.9822,-0.2334,9.2119,-0.9098,-0.4952,9.7518,0.009,0.017,0.027
42688,47.92773,-1.675068,137.71,28.72,3.216,212.7,18 / 21,4269543,2019-08-18 16:24:52:080,-1.1552,-0.0084,8.769,-0.9229,-0.4842,9.7511,-0.0074,0.0273,0.0278
42689,47.92773,-1.675068,137.71,28.72,3.216,212.7,18 / 21,4269643,2019-08-18 16:24:52:180,-0.8529,0.021,9.1287,-0.9662,-0.4735,9.7474,-0.0024,0.0199,0.0282
42690,47.92773,-1.675068,137.71,28.72,3.216,212.7,18 / 21,4269743,2019-08-18 16:24:52:280,-0.9738,0.0449,9.6333,-0.976,-0.4658,9.7468,0.0004,0.0101,0.0272
42691,47.92773,-1.675068,137.71,28.72,3.216,212.7,18 / 21,4269843,2019-08-18 16:24:52:380,-1.1085,-0.3352,10.1002,-0.9786,-0.4468,9.7475,0.0078,-0.0051,0.0257
42692,47.92773,-1.675068,137.71,28.72,3.216,212.7,18 / 21,4269943,2019-08-18 16:24:52:480,-1.0522,0.0886,10.3127,-0.9775,-0.4283,9.7484,0.0097,-0.0029,0.0263
42693,47.92773,-1.675068,137.71,28.72,3.216,212.7,18 / 21,4270043,2019-08-18 16:24:52:580,-1.0522,-0.1323,10.3193,-0.9753,-0.4195,9.749,0.0012,-0.0088,0.0266
42694,47.92773,-1.675068,137.71,28.72,3.216,212.7,17 / 20,4270143,2019-08-18 16:24:52:680,-1.0714,0.1125,9.8189,-0.9677,-0.3989,9.7506,-0.0017,-0.0153,0.025
42695,47.92773,-1.675068,137.71,28.72,3.216,212.7,17 / 20,4270244,2019-08-18 16:24:52:781,-0.7577,-0.1999,10.0685,-0.9583,-0.3932,9.7518,0.0055,-0.0075,0.0242
42696,47.92773,-1.675068,137.71,28.72,3.216,212.7,17 / 20,4270343,2019-08-18 16:24:52:880,-0.8451,-0.3232,9.9649,-0.9454,-0.3733,9.7538,0.0021,-0.0105,0.0185
42697,47.92773,-1.675068,137.71,28.72,3.216,212.7,17 / 20,4270443,2019-08-18 16:24:52:980,-0.9995,-0.4471,9.8045,-0.9389,-0.3687,9.7546,-0.0057,-0.0146,0.0164
42698,47.92773,-1.675068,137.71,28.72,3.216,212.7,17 / 20,4270544,2019-08-18 16:24:53:081,-0.9516,-0.1963,9.4957,-0.9312,-0.3708,9.7553,-0.0163,0.0051,0.0137
42699,47.92773,-1.675068,137.71,28.72,3.216,212.7,17 / 20,4270643,2019-08-18 16:24:53:180,-1.2144,-0.5411,9.8823,-0.9385,-0.3792,9.7543,-0.0202,0.0004,0.012
42700,47.92773,-1.675068,137.71,28.72,3.216,212.7,17 / 20,4270743,2019-08-18 16:24:53:280,-1.1306,-0.1634,9.3849,-0.9437,-0.4027,9.7528,-0.0051,-0.0067,0.0151
42701,47.92773,-1.675068,137.71,28.72,3.216,212.7,17 / 20,4270843,2019-08-18 16:24:53:380,-1.0486,-0.4184,10.0026,-0.9417,-0.4015,9.7531,0.0054,0.0077,0.0165
42702,47.92773,-1.675068,137.71,28.72,3.216,212.7,17 / 20,4270943,2019-08-18 16:24:53:480,-0.884,-0.5704,9.9087,-0.9542,-0.3937,9.7522,0.0017,0.0139,0.0162
42703,47.92773,-1.675068,137.71,28.72,3.216,212.7,17 / 20,4271044,2019-08-18 16:24:53:581,-1.0696,-0.3412,9.674,-0.9689,-0.395,9.7507,-0.0008,0.0086,0.0123
42704,47.92773,-1.675068,137.71,28.72,3.216,212.7,19 / 22,4271143,2019-08-18 16:24:53:680,-1.1252,-0.6327,9.37,-0.9699,-0.3934,9.7506,-0.0039,-0.0074,0.008
42705,47.92773,-1.675068,137.71,28.72,3.216,212.7,19 / 22,4271244,2019-08-18 16:24:53:781,-1.1929,-0.3986,9.6531,-0.9671,-0.3981,9.7507,-0.0043,-0.0112,0.0085
42706,47.92773,-1.675068,137.71,28.72,3.216,212.7,19 / 22,4271344,2019-08-18 16:24:53:881,-1.0474,-0.404,9.7913,-0.9612,-0.3982,9.7513,0.0007,0.0007,0.0104
42707,47.92773,-1.675068,137.71,28.72,3.216,212.7,19 / 22,4271443,2019-08-18 16:24:53:980,-0.8259,-0.6297,9.2742,-0.9665,-0.3959,9.7509,0.0121,0.013,0.0136
42708,47.92773,-1.675068,137.71,28.72,3.216,212.7,19 / 22,4271543,2019-08-18 16:24:54:080,-1.1994,-0.3112,9.2377,-0.9972,-0.3755,9.7486,0.0112,0.0161,0.0129
42709,47.92773,-1.675068,137.71,28.72,3.216,212.7,19 / 22,4271643,2019-08-18 16:24:54:180,-0.9732,-0.6375,9.7985,-1.0071,-0.3739,9.7476,0.0043,0.0062,0.0075
42710,47.92773,-1.675068,137.71,28.72,3.216,212.7,19 / 22,4271744,2019-08-18 16:24:54:281,-1.2048,-0.5537,9.5926,-1.0191,-0.3679,9.7466,0.0165,0.005,0.008
42711,47.92773,-1.675068,137.71,28.72,3.216,212.7,19 / 22,4271844,2019-08-18 16:24:54:381,-0.9451,-0.3382,9.7692,-1.0246,-0.3523,9.7466,0.0175,-0.0005,0.0095
42712,47.92773,-1.675068,137.71,28.72,3.216,212.7,19 / 22,4271943,2019-08-18 16:24:54:480,-1.0737,-0.0629,10.1451,-1.0223,-0.3388,9.7473,0.0048,-0.0072,0.0058
42713,47.92773,-1.675068,137.71,28.72,3.216,212.7,19 / 22,4272044,2019-08-18 16:24:54:581,-1.0923,-0.6027,9.8644,-1.0167,-0.3375,9.748,0.0067,-0.0074,0.0027
42714,47.925644,-1.676446,133.88,29.05,6.432,198.7,17 / 20,4272143,2019-08-18 16:24:54:680,-0.9971,-0.3059,9.0126,-1.0222,-0.3424,9.7472,-0.0051,0.0095,0.0021
42715,47.925644,-1.676446,133.88,29.05,6.432,198.7,17 / 20,4272243,2019-08-18 16:24:54:780,-0.8385,-0.6129,9.5244,-1.0275,-0.3502,9.7464,-0.0059,0.0095,0.002
42716,47.925644,-1.676446,133.88,29.05,6.432,198.7,17 / 20,4272343,2019-08-18 16:24:54:880,-0.5967,-0.2945,9.9122,-1.0266,-0.359,9.7462,0.0007,-0.0113,0.0005
42717,47.925644,-1.676446,133.88,29.05,6.432,198.7,17 / 20,4272443,2019-08-18 16:24:54:980,-1.0229,-0.4214,10.4725,-1.0156,-0.3593,9.7473,0.0068,-0.0145,0.0011
42718,47.925644,-1.676446,133.88,29.05,6.432,198.7,17 / 20,4272544,2019-08-18 16:24:55:081,-0.9893,-0.7697,9.8847,-0.9909,-0.3477,9.7503,0.0132,-0.0091,0.0042
42719,47.925644,-1.676446,133.88,29.05,6.432,198.7,17 / 20,4272643,2019-08-18 16:24:55:180,-1.0732,-0.5034,10.0128,-0.9856,-0.3443,9.7509,0.0077,-0.0095,0.0026
42720,47.925644,-1.676446,133.88,29.05,6.432,198.7,17 / 20,4272744,2019-08-18 16:24:55:281,-1.0719,-0.3454,9.9966,-0.9543,-0.3649,9.7533,-0.0286,-0.0267,-0.0009
42721,47.925644,-1.676446,133.88,29.05,6.432,198.7,17 / 20,4272843,2019-08-18 16:24:55:380,-0.7661,-0.325,9.7674,-0.9442,-0.3823,9.7536,-0.0125,-0.0031,0.0035
42722,47.925644,-1.676446,133.88,29.05,6.432,198.7,17 / 20,4272943,2019-08-18 16:24:55:480,-0.72,-0.413,9.9224,-0.9306,-0.4141,9.7536,-0.0198,-0.0114,0.0015
42723,47.925644,-1.676446,133.88,29.05,6.432,198.7,17 / 20,4273043,2019-08-18 16:24:55:580,-0.4848,-0.507,10.0535,-0.9252,-0.416,9.754,0.007,-0.0131,0.0058
