,GPS LATITUDE (degrees), GPS LONGITUDE (degrees), GPS ALTITUDE (m), GPS SPEED (Kmh), GPS ACCURACY (m), GPS ORIENTATION (Â°),GPS SATELLITES IN RANGE, TIME SINCE START (ms), DATE (YYYY-MO-DD HH-MI-SS_SSS), ACCELEROMETER X (m/s²) , ACCELEROMETER Y (m/s²), ACCELEROMETER Z (m/s²), GRAVITY X (m/s²), GRAVITY Y (m/s²), GRAVITY Z (m/s²), GYROSCOPE Yaw (rad/s), GYROSCOPE Pitch (rad/s), GYROSCOPE Roll (rad/s), MAGNETIC FIELD X (Î¼T), MAGNETIC FIELD Y (Î¼T), MAGNETIC FIELD Z (Î¼T), ORIENTATION (Yaw) (Â°), ORIENTATION (Pitch) (Â°), ORIENTATION (Roll ) (Â°)
0,52.15681,-1.884516,71,0.0,44,244.0,Aug-21,21,2020-03-21 11:11:08:098,0.0729,0.0412,9.6925,0.0009,0.0004,9.8067,-0.0013,0.0009,-0.0001,3.84,-17.58,-46.56,60.81,-13.11,8.52
1,52.15681,-1.884516,71,0.0,44,244.0,Aug-21,521,2020-03-21 11:11:08:598,0.0821,0.0628,9.6985,0.0002,0.0008,9.8067,-0.0007,-0.0011,0.0,4.16,-17.58,-47.0,60.79,-13.17,8.57
2,52.15681,-1.884516,71,0.0,44,244.0,Aug-21,1021,2020-03-21 11:11:09:098,0.0629,0.0194,9.6884,0.0009,0.0001,9.8067,0.0006,0.0003,-0.0009,3.78,-17.96,-47.37,60.75,-13.21,8.6
3,52.15681,-1.884516,71,0.0,44,244.0,Aug-21,1522,2020-03-21 11:11:09:599,0.0115,0.2434,9.7729,0.0027,0.0142,9.8066,-0.0219,0.0206,0.0066,3.78,-18.27,-47.37,60.34,-13.48,8.52
4,52.15681,-1.884516,71,0.0,44,244.0,Aug-21,2020,2020-03-21 11:11:10:097,0.0415,0.0581,9.6817,-0.0003,0.0011,9.8067,0.0004,0.0014,0.0002,3.78,-18.64,-47.37,60.77,-13.9,8.45
5,52.15681,-1.884516,71,0.0,44,244.0,Aug-21,2521,2020-03-21 11:11:10:598,-0.0254,0.0661,9.6659,0.0015,-0.0008,9.8067,0.0036,-0.005,-0.0019,3.47,-18.64,-47.37,62.41,-13.95,8.48
6,52.15681,-1.884516,71,0.0,44,244.0,Aug-21,3021,2020-03-21 11:11:11:098,-0.1791,0.4488,9.9905,0.0006,0.011,9.8066,-0.0309,0.0298,-0.0256,3.09,-19.02,-47.81,62.38,-13.93,8.72
7,52.15681,-1.884516,71,0.0,44,244.0,Aug-21,3520,2020-03-21 11:11:11:597,0.031,0.0391,9.64,0.0002,0.0012,9.8067,-0.0021,-0.0011,0.0021,3.09,-18.64,-48.25,62.23,-14.03,8.71
8,52.15681,-1.884516,71,0.0,44,244.0,Aug-21,4020,2020-03-21 11:11:12:097,-0.0072,0.0245,9.6228,-0.0002,0.0012,9.8067,-0.0011,0.0032,0.0043,3.09,-18.64,-48.25,62.1,-14.11,8.69
9,52.15681,-1.884516,71,0.0,44,244.0,Aug-21,4521,2020-03-21 11:11:12:598,0.0216,0.0583,9.6933,-0.0045,0.0314,9.8066,-0.0032,0.0074,0.0053,3.09,-18.64,-46.94,61.56,-14.56,8.39
10,52.15681,-1.884516,71,0.0,44,244.0,Aug-21,5021,2020-03-21 11:11:13:098,0.0188,0.0347,9.7065,-0.0007,0.0084,9.8066,-0.0426,0.0618,0.0543,2.34,-19.02,-47.81,62.76,-14.67,8.34
11,52.15681,-1.884516,71,0.0,44,244.0,Aug-21,5521,2020-03-21 11:11:13:598,0.0347,0.0001,9.6633,0.0004,0.0005,9.8067,0.0,0.001,0.0,2.72,-19.39,-47.81,60.04,-15.26,8.02
12,52.15681,-1.884516,71,0.0,44,244.0,Aug-21,6020,2020-03-21 11:11:14:097,-0.043,0.0167,9.6742,-0.0015,0.0,9.8066,0.0004,-0.0013,-0.0001,3.09,-19.39,-47.37,60.28,-15.3,8.0
13,52.15681,-1.884516,71,0.0,44,244.0,Jan-21,6521,2020-03-21 11:11:14:598,-0.0122,0.0065,9.6695,-0.0002,0.0004,9.8067,0.0015,-0.0002,-0.0001,3.47,-19.77,-47.81,60.93,-15.32,7.98
14,52.15681,-1.884516,71,0.0,44,244.0,Jan-21,7020,2020-03-21 11:11:15:097,-0.0031,-0.0157,9.6521,0.0001,-0.0002,9.8066,-0.0006,-0.001,-0.0009,3.47,-19.02,-48.69,59.6,-15.34,7.98
15,52.15681,-1.884516,71,0.0,44,244.0,May-21,7520,2020-03-21 11:11:15:597,0.003,0.0329,9.6846,0.0004,0.0011,9.8067,-0.0004,0.0001,-0.001,3.47,-19.02,-47.81,59.87,-15.35,7.97
16,52.15681,-1.884516,71,0.0,44,244.0,May-21,8021,2020-03-21 11:11:16:098,0.0115,0.0183,9.7013,0.0007,0.001,9.8067,0.0017,-0.0008,0.0002,3.47,-18.64,-47.37,60.17,-15.36,7.97
17,52.15681,-1.884516,71,0.0,44,244.0,May-21,8520,2020-03-21 11:11:16:597,-0.0133,0.0091,9.6514,-0.0007,-0.0004,9.8067,-0.0004,-0.0008,0.0013,3.47,-19.02,-48.69,59.55,-15.37,7.97
18,52.15681,-1.884516,71,0.0,44,244.0,May-21,9021,2020-03-21 11:11:17:098,-0.0116,0.0037,9.6797,-0.0001,0.0003,9.8067,-0.0007,-0.0007,-0.001,3.47,-19.02,-48.69,59.53,-15.38,7.96
19,52.15681,-1.884516,71,0.0,44,244.0,Jun-21,9521,2020-03-21 11:11:17:598,-0.0056,0.0133,9.6716,0.0002,0.0003,9.8067,0.0005,0.0015,0.0,3.78,-19.39,-48.25,58.22,-15.38,7.95
20,52.15681,-1.884516,71,0.0,44,244.0,Jun-21,10021,2020-03-21 11:11:18:098,-0.0134,-0.0094,9.6779,-0.0003,0.0,9.8067,0.0005,-0.0007,-0.0001,3.09,-19.02,-48.69,59.48,-15.4,7.94
21,52.15681,-1.884516,71,0.0,44,244.0,Jun-21,10520,2020-03-21 11:11:18:597,-0.0136,-0.0005,9.6907,-0.0001,0.0001,9.8066,0.0005,0.0025,0.0011,3.78,-19.02,-47.37,58.47,-15.41,7.94
22,52.15681,-1.884516,71,0.0,44,244.0,Jun-21,11021,2020-03-21 11:11:19:098,0.0021,-0.0151,9.6633,-0.0002,-0.0001,9.8067,-0.0005,0.0003,-0.0011,3.78,-18.64,-47.81,58.16,-15.42,7.93
23,52.15681,-1.884516,71,0.0,44,244.0,Jun-21,11520,2020-03-21 11:11:19:597,-0.0109,0.0076,9.6655,-0.0002,-0.0001,9.8067,-0.0005,-0.0018,0.0,3.47,-18.64,-48.25,59.75,-15.42,7.93
24,52.15681,-1.884516,71,0.0,44,244.0,Jun-21,12020,2020-03-21 11:11:20:097,-0.0514,0.0191,9.677,-0.0003,0.0005,9.8067,-0.0037,0.0003,0.0,3.78,-19.02,-47.37,58.43,-15.42,7.92
25,52.15681,-1.884516,71,0.0,44,244.0,Jun-21,12520,2020-03-21 11:11:20:597,-0.0184,0.0177,9.6586,-0.0007,0.0003,9.8067,0.0016,-0.0018,0.0,3.09,-19.02,-46.94,60.05,-15.42,7.92
26,52.15681,-1.884516,71,0.0,44,244.0,Jun-21,13020,2020-03-21 11:11:21:097,-0.012,0.0202,9.6724,-0.0004,0.0006,9.8067,-0.0027,-0.0005,0.0003,3.47,-19.39,-47.81,59.73,-15.43,7.92
27,52.15681,-1.884516,71,0.0,44,244.0,Jun-21,13521,2020-03-21 11:11:21:598,0.0287,0.0169,9.673,-0.0009,0.0013,9.8067,-0.0005,-0.0005,-0.0008,3.09,-19.02,-47.81,59.71,-15.43,7.91
28,52.15681,-1.884516,71,0.0,44,244.0,Jun-21,14020,2020-03-21 11:11:22:097,-0.004,0.0212,9.662,-0.0004,0.0012,9.8067,0.0005,-0.0005,-0.0008,3.47,-19.39,-47.37,60.0,-15.44,7.89
29,52.15681,-1.884516,71,0.0,44,244.0,Aug-21,14521,2020-03-21 11:11:22:598,-0.0131,-0.0027,9.6555,-0.0005,-0.0002,9.8067,-0.0007,0.0003,-0.0018,3.47,-18.27,-47.37,58.94,-15.45,7.91
30,52.15681,-1.884516,71,0.0,44,244.0,Aug-21,15020,2020-03-21 11:11:23:097,0.0036,-0.0051,9.6517,-0.0004,0.0003,9.8067,0.0005,0.0014,-0.0019,3.47,-18.64,-47.37,60.0,-15.44,7.89
31,52.15681,-1.884516,71,0.0,44,244.0,Sep-21,15521,2020-03-21 11:11:23:598,-0.0313,0.0575,9.6655,0.001,-0.0003,9.8067,0.0005,-0.0018,0.0002,3.47,-17.96,-47.37,58.92,-15.46,7.9
32,52.15681,-1.884516,71,0.0,44,244.0,Sep-21,16020,2020-03-21 11:11:24:097,-0.0174,-0.0031,9.673,-0.0005,-0.0011,9.8066,-0.0007,0.0004,0.0003,3.47,-18.27,-46.94,58.91,-15.46,7.89
33,52.15681,-1.884516,71,0.0,44,244.0,Sep-21,16520,2020-03-21 11:11:24:597,0.0065,-0.0289,9.6658,0.0001,-0.0006,9.8067,0.0025,-0.0007,0.0014,3.78,-18.27,-46.94,57.28,-15.45,7.89
34,52.15681,-1.884516,71,0.0,44,244.0,Sep-21,17021,2020-03-21 11:11:25:098,-0.0018,-0.0031,9.6725,-0.0002,0.0007,9.8066,0.0025,-0.0017,0.0003,3.47,-19.02,-47.37,59.98,-15.46,7.9
35,52.15681,-1.884516,71,0.0,44,244.0,Sep-21,17521,2020-03-21 11:11:25:598,-0.0144,-0.0001,9.6812,-0.0012,0.0,9.8067,-0.0003,-0.0018,-0.0008,3.78,-18.64,-47.37,58.35,-15.48,7.89
36,52.15681,-1.884516,71,0.0,44,244.0,Sep-21,18020,2020-03-21 11:11:26:097,0.0037,-0.0008,9.6844,-0.0001,-0.0001,9.8067,-0.0005,-0.0006,0.0003,4.16,-18.27,-46.94,57.25,-15.47,7.88
37,52.15681,-1.884516,71,0.0,44,244.0,Sep-21,18521,2020-03-21 11:11:26:598,0.0039,-0.0265,9.6834,0.0006,-0.0007,9.8067,-0.0005,0.0004,0.0003,3.78,-18.27,-46.94,57.27,-15.46,7.89
38,52.15681,-1.884516,71,0.0,44,244.0,Sep-21,19021,2020-03-21 11:11:27:098,-0.0158,0.0032,9.6968,0.0003,0.0,9.8067,-0.0005,0.0004,-0.0018,3.78,-18.27,-47.37,57.25,-15.47,7.88
39,52.15681,-1.884516,71,0.0,44,244.0,Sep-21,19521,2020-03-21 11:11:27:598,-0.0096,0.0106,9.6711,-0.0008,0.0,9.8067,0.0005,0.0005,0.0013,3.78,-18.64,-47.37,58.33,-15.47,7.87
40,52.15681,-1.884516,71,0.0,44,244.0,Sep-21,20020,2020-03-21 11:11:28:097,-0.0138,0.0054,9.6911,-0.0003,0.0,9.8066,0.0006,0.0005,0.0002,4.53,-18.27,-46.06,55.93,-15.47,7.87
41,52.15681,-1.884516,71,0.0,44,244.0,Sep-21,20520,2020-03-21 11:11:28:597,-0.0167,-0.0253,9.6828,-0.0003,-0.0004,9.8067,-0.0006,0.0006,0.0002,4.16,-18.64,-46.5,58.62,-15.48,7.87
42,52.15681,-1.884516,71,0.0,44,244.0,Sep-21,21021,2020-03-21 11:11:29:098,-0.0217,0.0117,9.6432,-0.0007,0.0002,9.8067,-0.0006,-0.0005,0.0002,3.78,-18.27,-46.12,57.51,-15.49,7.87
43,52.15681,-1.884516,71,0.0,44,244.0,Sep-21,21521,2020-03-21 11:11:29:598,-0.0128,0.0295,9.7059,-0.0002,0.0,9.8067,0.0005,0.0005,0.0002,3.78,-19.39,-46.94,58.29,-15.49,7.86
44,52.15681,-1.884516,71,0.0,44,244.0,Sep-21,22021,2020-03-21 11:11:30:098,-0.0054,0.009,9.6688,0.0003,-0.0002,9.8067,-0.0006,0.0005,-0.0009,4.53,-18.27,-46.5,55.89,-15.5,7.86
45,52.15681,-1.884516,71,0.0,44,244.0,0 / 21,22520,2020-03-21 11:11:30:597,0.0043,-0.0118,9.6816,0.0003,-0.0002,9.8066,-0.0006,0.0005,0.0012,3.78,-18.27,-46.5,57.48,-15.51,7.86
46,52.15681,-1.884516,71,0.0,44,244.0,0 / 21,23020,2020-03-21 11:11:31:097,0.0128,-0.001,9.6773,-0.0007,0.0,9.8067,0.0004,0.0005,0.0002,3.78,-18.64,-46.5,58.57,-15.51,7.86
47,52.15681,-1.884516,71,0.0,44,244.0,Jun-21,23520,2020-03-21 11:11:31:597,0.0033,-0.0204,9.6916,-0.0004,0.0002,9.8067,-0.0017,-0.0006,-0.0009,4.16,-19.02,-46.94,58.27,-15.51,7.86
48,52.15681,-1.884516,71,0.0,44,244.0,Jun-21,24021,2020-03-21 11:11:32:098,-0.0515,-0.0053,9.656,-0.0001,0.0,9.8067,-0.0017,0.0005,-0.0009,4.53,-19.39,-46.5,56.98,-15.52,7.85
49,52.15681,-1.884516,71,0.0,44,244.0,Jul-22,24521,2020-03-21 11:11:32:598,0.0036,-0.0048,9.6498,0.0,0.0001,9.8067,0.0015,-0.0027,-0.0009,3.78,-19.39,-48.25,57.95,-15.53,7.86
50,52.15681,-1.884516,71,0.0,44,244.0,Jul-22,25020,2020-03-21 11:11:33:097,-0.0292,-0.0486,9.6782,-0.0001,-0.0006,9.8067,-0.0005,-0.0008,0.0002,3.78,-19.02,-47.37,58.23,-15.54,7.85
51,52.15681,-1.884516,71,0.0,44,244.0,Jul-22,25520,2020-03-21 11:11:33:597,-0.0033,-0.0108,9.6551,0.0,-0.0003,9.8066,0.0005,0.0002,0.0,3.47,-19.39,-47.81,59.51,-15.55,7.85
52,52.15681,-1.884516,71,0.0,44,244.0,Jul-22,26021,2020-03-21 11:11:34:098,-0.0174,-0.0059,9.6708,0.0002,-0.0001,9.8067,0.0005,0.0002,0.0001,3.47,-19.02,-47.81,59.52,-15.55,7.86
53,52.15681,-1.884516,71,0.0,44,244.0,Jul-22,26520,2020-03-21 11:11:34:597,0.0048,-0.0046,9.6597,-0.0005,-0.0003,9.8067,0.0005,-0.0008,0.0001,3.47,-18.64,-46.94,59.84,-15.54,7.86
54,52.15681,-1.884516,71,0.0,44,244.0,Jul-22,27022,2020-03-21 11:11:35:099,-0.0106,-0.0188,9.6693,-0.0002,-0.0003,9.8067,0.0002,-0.0005,0.0,3.41,-18.64,-47.81,59.52,-15.55,7.85
55,52.15681,-1.884516,71,0.0,44,244.0,Jul-22,27521,2020-03-21 11:11:35:598,0.0046,0.0117,9.6722,0.0001,0.0001,9.8067,-0.0006,-0.0007,0.0002,3.78,-19.02,-46.5,58.51,-15.56,7.85
56,52.15681,-1.884516,71,0.0,44,244.0,Jul-22,28021,2020-03-21 11:11:36:098,-0.0216,0.0108,9.6721,-0.0002,0.0,9.8067,0.0005,0.0005,0.0002,3.47,-19.02,-46.94,59.81,-15.56,7.84
57,52.15681,-1.884516,71,0.0,44,244.0,Jul-22,28521,2020-03-21 11:11:36:598,0.0238,-0.0033,9.6878,0.0,0.0009,9.8067,-0.0016,0.0004,0.0013,4.16,-19.02,-46.94,58.19,-15.56,7.84
58,52.15681,-1.884516,71,0.0,44,244.0,Jul-22,29020,2020-03-21 11:11:37:097,-0.0085,-0.0093,9.6882,-0.0004,-0.0001,9.8066,-0.0005,-0.0017,0.0002,3.47,-19.02,-47.37,59.78,-15.57,7.84
59,52.15681,-1.884516,71,0.0,44,244.0,Jul-22,29521,2020-03-21 11:11:37:598,0.0023,-0.0056,9.6558,0.0,-0.0002,9.8067,0.0005,0.0004,0.0002,3.09,-19.02,-47.81,59.45,-15.58,7.83
60,52.15681,-1.884516,71,0.0,44,244.0,Jul-22,30021,2020-03-21 11:11:38:098,0.0209,-0.02,9.6624,0.0002,-0.0006,9.8066,-0.0005,-0.0007,-0.0009,3.78,-19.39,-47.37,58.18,-15.57,7.83
61,52.15681,-1.884516,71,0.0,44,244.0,0 / 22,30521,2020-03-21 11:11:38:598,0.0016,0.0098,9.6776,-0.0002,0.0001,9.8067,-0.0005,-0.0007,0.0012,3.47,-19.02,-46.94,59.78,-15.57,7.83
62,52.15681,-1.884516,71,0.0,44,244.0,0 / 22,31020,2020-03-21 11:11:39:097,-0.0034,-0.0046,9.6716,-0.0002,0.0002,9.8067,-0.0005,0.0015,-0.0009,3.78,-19.02,-46.5,58.47,-15.57,7.83
63,52.15681,-1.884516,71,0.0,44,244.0,Aug-22,31520,2020-03-21 11:11:39:597,-0.0063,0.0083,9.6901,0.0,-0.0001,9.8067,-0.0005,-0.0006,0.0001,3.78,-18.64,-46.5,58.46,-15.58,7.82
64,52.15681,-1.884516,71,0.0,44,244.0,Aug-22,32021,2020-03-21 11:11:40:098,-0.0083,-0.0076,9.6708,0.0006,0.0001,9.8066,0.0006,-0.0006,0.0002,3.78,-18.64,-46.5,58.45,-15.58,7.82
65,52.15681,-1.884516,71,0.0,44,244.0,Oct-22,32521,2020-03-21 11:11:40:598,0.0055,0.004,9.6654,0.0002,0.0004,9.8067,-0.0005,0.0015,0.0002,3.78,-18.64,-46.5,58.45,-15.58,7.82
66,52.15681,-1.884516,71,0.0,44,244.0,Oct-22,33021,2020-03-21 11:11:41:098,-0.0076,0.0065,9.6868,-0.0002,0.0001,9.8067,0.0006,-0.0006,-0.0009,3.78,-19.02,-46.94,58.14,-15.58,7.81
67,52.15681,-1.884516,71,0.0,44,244.0,Oct-22,33520,2020-03-21 11:11:41:597,0.0008,-0.0068,9.671,0.0007,0.0005,9.8067,-0.0005,0.0004,-0.0009,3.47,-19.02,-46.5,60.06,-15.59,7.81
68,52.15681,-1.884516,71,0.0,44,244.0,Oct-22,34020,2020-03-21 11:11:42:097,0.0193,0.0104,9.6792,0.0008,0.0,9.8067,-0.0005,0.0004,0.0012,3.78,-19.02,-46.94,58.14,-15.59,7.82
69,52.15681,-1.884516,71,0.0,44,244.0,Oct-22,34520,2020-03-21 11:11:42:597,0.0022,-0.0041,9.6835,-0.0009,-0.0003,9.8067,-0.0005,-0.0006,-0.0009,3.78,-18.64,-46.5,58.44,-15.59,7.82
70,52.15681,-1.884516,71,0.0,44,244.0,Oct-22,35021,2020-03-21 11:11:43:098,0.0161,0.0237,9.6608,0.0001,0.0004,9.8067,0.0017,0.0015,0.0001,4.16,-19.02,-45.69,58.43,-15.6,7.82
71,52.15681,-1.884516,71,0.0,44,244.0,Oct-22,35520,2020-03-21 11:11:43:597,-0.0022,0.0013,9.6898,-0.0001,-0.0002,9.8066,-0.0005,-0.0017,0.0012,3.78,-19.02,-46.5,58.42,-15.6,7.81
72,52.15681,-1.884516,71,0.0,44,244.0,Oct-22,36020,2020-03-21 11:11:44:097,0.0031,0.0133,9.6571,0.0004,0.0001,9.8067,-0.0015,0.0004,0.0012,3.78,-18.64,-46.12,58.41,-15.61,7.81
73,52.15681,-1.884516,71,0.0,44,244.0,Oct-22,36521,2020-03-21 11:11:44:598,-0.003,0.0038,9.6724,0.0001,0.0005,9.8067,0.0017,-0.0006,0.0001,3.78,-18.64,-46.94,58.11,-15.6,7.81
74,52.15681,-1.884516,71,0.0,44,244.0,Oct-22,37021,2020-03-21 11:11:45:098,0.0032,0.0194,9.6528,0.0005,0.0006,9.8067,0.0005,-0.0007,-0.0009,3.78,-19.02,-46.94,58.11,-15.6,7.81
75,52.15681,-1.884516,71,0.0,44,244.0,Oct-22,37521,2020-03-21 11:11:45:598,-0.0034,0.0075,9.6862,-0.0005,0.0017,9.8067,0.0005,0.0024,0.0002,3.47,-19.02,-47.37,59.66,-15.64,7.79
76,52.15681,-1.884516,71,0.0,44,244.0,Oct-22,38020,2020-03-21 11:11:46:097,0.0037,-0.0349,9.6856,0.001,-0.0005,9.8067,0.0005,0.0003,0.0012,3.78,-19.02,-46.5,58.36,-15.63,7.79
77,52.15681,-1.884516,71,0.0,44,244.0,Oct-22,38521,2020-03-21 11:11:46:598,0.0152,0.0043,9.6587,0.0001,0.0007,9.8067,-0.0011,-0.0021,-0.0011,3.47,-18.64,-46.5,59.98,-15.64,7.79
78,52.15681,-1.884516,71,0.0,44,244.0,Oct-22,39021,2020-03-21 11:11:47:098,-0.1039,0.0857,9.6767,-0.0028,0.0023,9.8067,-0.0011,0.0,-0.0011,3.78,-18.64,-46.5,58.33,-15.65,7.78
79,52.15681,-1.884516,71,0.0,44,244.0,Aug-22,39520,2020-03-21 11:11:47:597,0.0086,0.019,9.6966,0.0001,-0.0001,9.8067,0.0032,-0.0011,-0.0011,3.78,-19.02,-47.37,58.0,-15.66,7.76
80,52.15681,-1.884516,71,0.0,44,244.0,Aug-22,40020,2020-03-21 11:11:48:097,0.0107,-0.0299,9.6704,0.0006,-0.0004,9.8067,-0.0011,0.0,0.0,4.16,-19.02,-46.5,58.31,-15.66,7.77
81,52.15681,-1.884516,71,0.0,44,244.0,Oct-22,40521,2020-03-21 11:11:48:598,0.0051,0.013,9.6619,0.0004,0.0005,9.8067,0.0005,0.0026,0.0,3.47,-18.64,-47.37,59.62,-15.66,7.78
82,52.15681,-1.884516,71,0.0,44,244.0,Oct-22,41020,2020-03-21 11:11:49:097,-0.0003,-0.0034,9.6474,-0.0002,-0.0002,9.8067,-0.0006,-0.0007,0.0001,3.47,-19.02,-46.56,59.59,-15.68,7.78
83,52.15681,-1.884516,71,0.0,44,244.0,Oct-22,41521,2020-03-21 11:11:49:598,-0.0061,-0.0088,9.6547,0.0009,0.0004,9.8066,0.0004,0.0014,-0.0009,3.47,-18.64,-46.56,59.6,-15.68,7.78
84,52.15681,-1.884516,71,0.0,44,244.0,Oct-22,42020,2020-03-21 11:11:50:097,0.012,0.0002,9.6647,0.0,-0.0003,9.8067,-0.0017,0.0004,-0.0009,4.16,-18.64,-47.0,58.01,-15.67,7.78
85,52.15681,-1.884516,71,0.0,44,244.0,Oct-22,42520,2020-03-21 11:11:50:597,0.0089,-0.0103,9.6677,0.0003,-0.0003,9.8067,-0.0007,-0.0007,0.0002,3.84,-18.71,-46.56,58.01,-15.68,7.78
86,52.15681,-1.884516,71,0.0,44,244.0,Oct-22,43020,2020-03-21 11:11:51:097,-0.0177,-0.0104,9.6614,-0.0003,0.0001,9.8066,-0.0007,0.0004,0.0002,3.84,-18.71,-46.19,58.3,-15.68,7.78
87,52.15681,-1.884516,71,0.0,44,244.0,Oct-22,43520,2020-03-21 11:11:51:597,-0.0117,0.0027,9.674,-0.0004,0.0001,9.8067,0.0004,-0.0007,0.0002,3.47,-18.71,-47.06,59.59,-15.68,7.77
88,52.15681,-1.884516,71,0.0,44,244.0,Oct-22,44020,2020-03-21 11:11:52:097,0.0001,0.0009,9.664,0.0003,0.0004,9.8067,0.0004,0.0004,0.0002,3.84,-18.33,-47.5,56.87,-15.68,7.76
89,52.15681,-1.884516,71,0.0,44,244.0,Oct-22,44521,2020-03-21 11:11:52:598,-0.0019,0.0063,9.6881,-0.0004,0.0001,9.8067,-0.0006,-0.0007,0.0002,3.47,-18.33,-46.25,58.81,-15.69,7.75
90,52.15681,-1.884516,71,0.0,44,244.0,Oct-22,45021,2020-03-21 11:11:53:098,-0.004,-0.0065,9.6592,0.0002,-0.0001,9.8067,0.0004,-0.0006,-0.0009,3.84,-18.33,-47.12,56.87,-15.68,7.76
91,52.15681,-1.884516,71,0.0,44,244.0,Oct-22,45520,2020-03-21 11:11:53:597,-0.0077,-0.1905,9.6301,-0.0043,-0.002,9.8066,0.0036,-0.0017,0.0012,1.28,-17.96,-47.06,61.96,-15.68,7.78
92,52.15681,-1.884516,71,0.0,44,244.0,Oct-22,46021,2020-03-21 11:11:54:098,0.0849,0.3697,9.7302,0.0014,0.0032,9.8067,0.0217,-0.0102,0.0034,2.72,-18.71,-45.81,59.93,-15.66,7.77
93,52.15681,-1.884516,71,0.0,44,244.0,Oct-22,46521,2020-03-21 11:11:54:598,0.1083,0.0124,9.6515,0.0,-0.0002,9.8067,0.0111,-0.0017,0.0012,3.84,-17.96,-45.81,57.2,-15.66,7.76
94,52.15681,-1.884516,71,0.0,44,244.0,Oct-22,47021,2020-03-21 11:11:55:098,-0.2047,-0.165,9.7696,0.0005,-0.0001,9.8066,-0.017,0.0053,-0.0075,4.97,-17.58,-44.06,56.16,-15.67,7.74
95,52.15681,-1.884516,71,0.0,44,244.0,Jun-22,47520,2020-03-21 11:11:55:597,0.1468,0.191,9.533,0.0001,-0.0007,9.8067,0.0149,-0.0053,0.0043,4.59,-18.71,-45.37,57.0,-15.68,7.76
96,52.15681,-1.884516,71,0.0,44,244.0,Jun-22,48020,2020-03-21 11:11:56:097,-0.2133,0.0096,9.7924,0.0006,0.002,9.8067,-0.017,0.0074,-0.0053,4.91,-17.96,-44.06,56.16,-15.68,7.75
97,52.15681,-1.884516,71,0.0,44,244.0,Aug-22,48520,2020-03-21 11:11:56:597,-0.1854,-0.1181,9.8189,-0.0004,0.0012,9.8066,-0.0117,0.0,-0.0053,4.91,-17.96,-44.06,56.14,-15.69,7.75
98,52.15681,-1.884516,71,0.0,44,244.0,Aug-22,49020,2020-03-21 11:11:57:097,-0.0399,-0.3053,9.5844,0.0009,-0.0009,9.8067,0.0,-0.0075,-0.0021,4.59,-18.33,-44.94,55.86,-15.67,7.74
99,52.15681,-1.884516,71,0.0,44,244.0,Sep-22,49521,2020-03-21 11:11:57:598,0.1057,0.0319,9.793,0.0025,0.0003,9.8067,-0.0085,0.0064,0.0043,4.91,-18.33,-44.5,56.14,-15.68,7.74
100,52.15681,-1.884516,71,0.0,44,244.0,Sep-22,50020,2020-03-21 11:11:58:097,-0.2398,-0.1947,9.7606,0.0005,0.0011,9.8067,-0.0117,0.0011,-0.0064,4.91,-18.71,-44.06,57.28,-15.68,7.75
101,52.15681,-1.884516,71,0.0,44,244.0,Sep-22,50521,2020-03-21 11:11:58:598,-0.2461,-0.1197,9.7648,0.0002,0.0005,9.8067,-0.0149,-0.0011,-0.0075,4.91,-18.33,-44.5,56.15,-15.68,7.74
102,52.15681,-1.884516,71,0.0,44,244.0,Sep-22,51020,2020-03-21 11:11:59:097,-0.2542,-0.1077,9.7216,0.0002,0.0013,9.8067,-0.0138,0.0011,-0.0053,4.59,-18.33,-44.5,56.14,-15.68,7.74
103,52.15681,-1.884516,71,0.0,44,244.0,Sep-22,51521,2020-03-21 11:11:59:598,0.2806,-0.0066,9.7399,0.0018,-0.0017,9.8066,0.0053,0.0011,0.0053,5.28,-18.33,-44.06,56.12,-15.7,7.74
104,52.15681,-1.884516,71,0.0,44,244.0,Sep-22,52021,2020-03-21 11:12:00:098,0.3031,0.0965,9.682,0.0009,-0.0008,9.8067,0.0117,0.0,0.0064,4.91,-18.71,-44.44,57.26,-15.7,7.75
105,52.15681,-1.884516,71,0.0,44,244.0,Sep-22,52521,2020-03-21 11:12:00:598,0.2729,0.1315,9.6635,0.0015,-0.001,9.8067,0.017,-0.0043,0.0053,4.91,-18.71,-44.06,57.28,-15.7,7.76
106,52.15681,-1.884516,71,0.0,44,244.0,Sep-22,53020,2020-03-21 11:12:01:097,0.1618,0.0517,9.741,0.0,0.0019,9.8066,0.0011,0.0032,0.0032,5.28,-18.33,-44.87,55.85,-15.68,7.75
107,52.15681,-1.884516,71,0.0,44,244.0,Sep-22,53521,2020-03-21 11:12:01:598,-0.0099,-0.1872,9.5237,-0.0005,-0.0004,9.8066,0.0085,-0.0075,-0.0011,4.91,-19.02,-44.06,57.29,-15.68,7.75
108,52.15681,-1.884516,71,0.0,44,244.0,Sep-22,54020,2020-03-21 11:12:02:097,0.2371,0.1114,9.6691,0.0005,-0.001,9.8066,0.0117,0.0,0.0064,5.28,-18.33,-44.06,56.14,-15.69,7.75
109,52.15681,-1.884516,71,0.0,44,244.0,Sep-22,54521,2020-03-21 11:12:02:598,0.1591,0.1832,9.5363,0.0005,0.0034,9.8067,0.0021,-0.0064,-0.0021,5.28,-18.33,-44.44,56.13,-15.69,7.73
110,52.15681,-1.884516,71,0.0,44,244.0,Sep-22,55021,2020-03-21 11:12:03:098,0.0836,0.0675,9.7098,-0.0003,-0.0007,9.8067,0.0202,-0.0085,0.0032,5.28,-18.71,-44.44,57.29,-15.68,7.76
111,52.15681,-1.884516,71,0.0,44,244.0,Jul-22,55520,2020-03-21 11:12:03:597,0.0368,0.1986,9.4057,-0.0011,-0.001,9.8067,0.0192,-0.0096,0.0021,4.53,-18.71,-44.44,57.3,-15.67,7.76
112,52.15681,-1.884516,71,0.0,44,244.0,Jul-22,56021,2020-03-21 11:12:04:098,-0.1603,-0.2827,9.5995,-0.0004,-0.002,9.8066,-0.0032,-0.0021,-0.0043,5.28,-17.96,-44.44,56.18,-15.66,7.75
113,52.15681,-1.884516,71,0.0,44,244.0,Aug-22,56520,2020-03-21 11:12:04:597,-0.2571,-0.227,9.7341,-0.0014,0.0009,9.8066,-0.0107,0.0011,-0.0053,4.91,-18.71,-44.0,57.31,-15.66,7.75
114,52.15681,-1.884516,71,0.0,44,244.0,Aug-22,57021,2020-03-21 11:12:05:098,0.0069,0.0462,9.7731,-0.0009,0.0015,9.8067,-0.0117,0.0074,-0.0011,5.28,-18.71,-43.56,57.31,-15.67,7.76
115,52.15681,-1.884516,71,0.0,44,244.0,Aug-22,57520,2020-03-21 11:12:05:597,-0.2305,0.0891,9.7845,0.002,0.003,9.8067,-0.0192,0.0074,-0.0043,5.28,-18.33,-44.0,56.16,-15.67,7.74
116,52.15681,-1.884516,71,0.0,44,244.0,Aug-22,58021,2020-03-21 11:12:06:098,0.2409,0.1412,9.6404,-0.0015,0.0,9.8067,0.016,-0.0043,0.0053,4.91,-18.33,-43.56,56.18,-15.66,7.76
117,52.15681,-1.884516,71,0.0,44,244.0,Aug-22,58521,2020-03-21 11:12:06:598,0.2106,0.0143,9.7423,0.0016,-0.0021,9.8067,0.0,0.0043,0.0043,5.28,-17.96,-44.0,56.15,-15.67,7.74
118,52.15681,-1.884516,71,0.0,44,244.0,Aug-22,59020,2020-03-21 11:12:07:097,0.2576,0.1062,9.6475,-0.0004,-0.0006,9.8067,0.0107,-0.0032,0.0075,4.91,-17.96,-43.56,56.18,-15.66,7.75
119,52.15681,-1.884516,71,0.0,44,244.0,Aug-22,59520,2020-03-21 11:12:07:597,0.173,0.1828,9.5713,-0.0016,0.0005,9.8067,0.0192,-0.0053,0.0043,5.28,-17.96,-44.0,56.16,-15.66,7.74
120,52.15681,-1.884516,71,0.0,44,244.0,Aug-22,60021,2020-03-21 11:12:08:098,0.0987,0.1057,9.513,-0.0004,-0.0011,9.8067,0.0202,-0.0085,0.0,5.28,-17.96,-44.0,56.15,-15.66,7.73
121,52.15681,-1.884516,71,0.0,44,244.0,Aug-22,60521,2020-03-21 11:12:08:598,0.0308,-0.1235,9.4903,-0.0004,-0.0008,9.8067,0.0117,-0.0075,0.0,4.91,-17.96,-43.56,56.16,-15.66,7.74
122,52.15681,-1.884516,71,0.0,44,244.0,Aug-22,61021,2020-03-21 11:12:09:098,0.1803,0.1716,9.6063,-0.0004,0.0016,9.8067,0.0128,-0.0021,0.0064,4.91,-18.33,-44.0,56.16,-15.67,7.75
123,52.15681,-1.884516,71,0.0,44,244.0,Aug-22,61521,2020-03-21 11:12:09:598,0.1761,0.2235,9.4859,-0.0011,-0.0001,9.8066,0.0,-0.0043,-0.0032,4.91,-18.64,-44.44,57.3,-15.66,7.74
124,52.15681,-1.884516,71,0.0,44,244.0,Aug-22,62020,2020-03-21 11:12:10:097,0.0814,0.1285,9.4031,-0.0022,-0.0006,9.8067,0.0181,-0.0096,0.0021,4.91,-18.64,-44.44,57.29,-15.67,7.74
125,52.15681,-1.884516,71,0.0,44,244.0,Aug-22,62520,2020-03-21 11:12:10:597,0.0365,0.16,9.5103,-0.0033,0.0009,9.8067,0.0192,-0.0075,0.0021,5.28,-18.33,-44.0,56.16,-15.68,7.75
126,52.15681,-1.884516,71,0.0,44,244.0,Aug-22,63021,2020-03-21 11:12:11:098,-0.0494,0.1179,9.8019,0.0007,0.0011,9.8067,0.0181,-0.0043,0.0075,5.28,-17.96,-44.44,56.12,-15.67,7.71
127,52.15681,-1.884516,71,0.0,44,244.0,0 / 22,63521,2020-03-21 11:12:11:598,-0.0316,0.0728,9.7742,0.0027,0.001,9.8066,0.0192,-0.0075,0.0021,4.91,-18.33,-44.0,56.12,-15.67,7.71
128,52.15681,-1.884516,71,0.0,44,244.0,0 / 22,64020,2020-03-21 11:12:12:097,0.2973,-0.1057,9.7222,0.0041,-0.0038,9.8066,0.0181,-0.0064,0.0011,4.91,-17.96,-43.56,56.1,-15.68,7.7
129,52.15681,-1.884516,71,0.0,44,244.0,Jul-22,64521,2020-03-21 11:12:12:598,-0.2073,0.1055,9.7975,0.0011,0.0014,9.8066,0.0043,-0.0043,-0.0011,5.28,-18.33,-44.44,56.12,-15.67,7.71
130,52.15681,-1.884516,71,0.0,44,244.0,Jul-22,65020,2020-03-21 11:12:13:097,0.0706,0.0458,9.7376,0.0025,-0.0016,9.8066,-0.0138,0.0021,-0.0032,4.91,-18.33,-44.44,56.09,-15.69,7.7
131,52.15681,-1.884516,71,0.0,44,244.0,Aug-22,65520,2020-03-21 11:12:13:597,-0.182,-0.1684,9.8061,-0.0013,0.0009,9.8066,-0.0107,0.0021,-0.0043,4.53,-18.33,-44.44,56.12,-15.67,7.7
132,52.15681,-1.884516,71,0.0,44,244.0,Aug-22,66020,2020-03-21 11:12:14:097,-0.226,0.1793,9.7729,0.0003,0.001,9.8066,-0.0181,0.0064,-0.0043,5.28,-18.33,-44.0,56.11,-15.68,7.71
133,52.15681,-1.884516,71,0.0,44,244.0,Aug-22,66521,2020-03-21 11:12:14:598,0.1399,0.0158,9.7089,0.0019,-0.0015,9.8067,-0.0032,0.0043,0.0043,5.28,-18.33,-44.0,56.11,-15.69,7.72
134,52.15681,-1.884516,71,0.0,44,244.0,Aug-22,67021,2020-03-21 11:12:15:098,0.2215,0.0184,9.7047,0.0029,-0.0025,9.8067,0.0064,0.0011,0.0064,6.41,-18.64,-41.44,56.58,-15.68,7.74
135,52.15681,-1.884516,71,0.0,44,244.0,Aug-22,67521,2020-03-21 11:12:15:598,0.0778,0.1364,9.3957,-0.003,0.0006,9.8066,0.017,-0.0085,0.0,5.66,-18.33,-43.12,54.86,-15.68,7.75
136,52.15681,-1.884516,71,0.0,44,244.0,Aug-22,68020,2020-03-21 11:12:16:097,-0.0047,-0.291,9.5867,-0.0015,-0.0008,9.8067,0.0043,-0.0075,-0.0011,5.66,-17.96,-43.12,54.84,-15.68,7.73
137,52.15681,-1.884516,71,0.0,44,244.0,Aug-22,68520,2020-03-21 11:12:16:597,0.2552,0.1432,9.6749,-0.0009,-0.0002,9.8067,0.0181,-0.0032,0.0043,5.66,-18.33,-43.56,54.56,-15.7,7.75
138,52.15681,-1.884516,71,0.0,44,244.0,Aug-22,69021,2020-03-21 11:12:17:098,0.0929,0.1723,9.5427,-0.0025,0.0004,9.8066,0.017,-0.0075,0.0043,4.91,-18.33,-44.0,56.15,-15.67,7.74
139,52.15681,-1.884516,71,0.0,44,244.0,Aug-22,69521,2020-03-21 11:12:17:598,0.1574,0.1264,9.567,-0.0012,0.0003,9.8066,-0.0011,-0.0021,-0.0021,4.91,-17.96,-44.0,56.1,-15.7,7.72
140,52.15681,-1.884516,71,0.0,44,244.0,Aug-22,70021,2020-03-21 11:12:18:098,0.2037,-0.0261,9.6857,0.0002,-0.0015,9.8067,0.0117,-0.0064,0.0,5.28,-17.96,-43.56,56.09,-15.7,7.72
141,52.15681,-1.884516,71,0.0,44,244.0,Aug-22,70520,2020-03-21 11:12:18:597,0.2102,0.0346,9.6427,0.0016,-0.0006,9.8067,0.0,-0.0011,-0.0021,5.28,-17.96,-43.56,56.09,-15.7,7.71
142,52.15681,-1.884516,71,0.0,44,244.0,Aug-22,71021,2020-03-21 11:12:19:098,0.0857,0.0734,9.5347,-0.002,-0.0011,9.8067,-0.0064,-0.0021,-0.0021,5.28,-18.33,-43.56,56.1,-15.69,7.71
143,52.15681,-1.884516,71,0.0,44,244.0,0 / 22,71521,2020-03-21 11:12:19:598,-0.0135,-0.0564,9.53,-0.002,-0.0004,9.8067,-0.0117,0.0021,-0.0053,4.91,-17.96,-43.12,56.4,-15.69,7.71
144,52.15681,-1.884516,71,0.0,44,244.0,0 / 22,72020,2020-03-21 11:12:20:097,-0.0007,-0.1894,9.5584,-0.0008,-0.0012,9.8067,-0.0117,0.0064,0.0,4.91,-18.33,-43.56,56.11,-15.68,7.71
145,52.15681,-1.884516,71,0.0,44,244.0,Jun-22,72520,2020-03-21 11:12:20:597,-0.162,0.221,9.8136,-0.0009,0.0021,9.8066,-0.0107,0.0021,-0.0032,5.66,-18.33,-43.56,54.53,-15.67,7.69
146,52.15681,-1.884516,71,0.0,44,244.0,Jun-22,73020,2020-03-21 11:12:21:097,-0.374,-0.5188,9.6487,-0.0116,-0.0181,9.8066,-0.0053,-0.0053,-0.0053,4.91,-18.33,-44.06,56.76,-15.08,7.68
147,52.15681,-1.884516,71,0.0,44,244.0,Oct-22,73521,2020-03-21 11:12:21:598,-0.3739,-0.0947,9.8998,-0.0017,-0.0052,9.8066,-0.0309,0.0128,-0.0053,5.28,-18.33,-43.56,57.52,-14.42,7.69
148,52.15681,-1.884516,71,0.0,44,244.0,Oct-22,74020,2020-03-21 11:12:22:097,-0.4247,-0.6695,9.811,-0.0128,-0.0228,9.8066,0.0032,-0.0085,-0.0085,5.28,-19.02,-42.31,61.33,-12.57,7.73
149,52.15681,-1.884516,71,0.0,44,244.0,Oct-22,74521,2020-03-21 11:12:22:598,-0.4701,-0.4828,10.0382,-0.0071,-0.0148,9.8066,0.0149,0.0128,-0.0075,6.03,-19.39,-42.31,62.55,-10.13,7.87
150,52.15681,-1.884516,71,0.0,44,244.0,Oct-22,75021,2020-03-21 11:12:23:098,-0.2394,0.0267,9.834,-0.0076,-0.013,9.8066,-0.017,0.0021,-0.0192,5.66,-20.14,-41.0,65.41,-8.7,7.93
151,52.15681,-1.884516,71,0.0,44,244.0,Oct-22,75521,2020-03-21 11:12:23:598,0.0362,-0.4839,9.8288,-0.0015,-0.0189,9.8066,0.016,-0.0107,-0.0277,6.78,-18.71,-41.87,63.93,-7.46,7.83
152,52.15681,-1.884516,71,0.0,44,244.0,Oct-22,76020,2020-03-21 11:12:24:097,-0.4149,0.8917,9.8837,-0.0045,0.0142,9.8066,-0.0096,0.0053,-0.0192,5.28,-20.14,-38.44,69.86,-7.06,8.14
153,52.15681,-1.884516,71,0.0,44,244.0,Oct-22,76520,2020-03-21 11:12:24:597,0.5521,0.1079,9.8927,0.0094,-0.0124,9.8066,-0.0011,-0.0064,-0.0266,4.53,-20.52,-39.31,70.41,-7.18,8.33
154,52.15681,-1.884516,71,0.0,44,244.0,Oct-22,77020,2020-03-21 11:12:25:097,-0.134,0.265,10.0919,0.0131,0.0041,9.8066,-0.0117,0.0138,-0.0352,4.91,-20.89,-38.44,70.65,-7.06,8.25
155,52.15681,-1.884516,71,0.0,44,244.0,Oct-22,77521,2020-03-21 11:12:25:598,0.063,0.4839,9.8833,-0.0046,-0.001,9.8066,0.0107,-0.0234,-0.0032,3.09,-22.71,-41.44,74.67,-7.52,8.25
156,52.15681,-1.884516,71,0.0,44,244.0,Oct-22,78021,2020-03-21 11:12:26:098,0.8951,-0.3049,10.2172,0.001,0.0057,9.8067,0.0458,-0.0171,0.0139,2.72,-24.21,-41.87,74.68,-7.83,8.28
157,52.15681,-1.884516,71,0.0,44,244.0,Oct-22,78521,2020-03-21 11:12:26:598,-0.0035,0.2546,9.9302,-0.0022,0.0013,9.8067,-0.0256,0.0277,-0.0021,4.53,-23.83,-41.0,71.57,-7.6,8.22
158,52.15681,-1.884516,71,0.0,44,244.0,Oct-22,79021,2020-03-21 11:12:27:098,-0.191,-0.4906,9.8046,-0.0109,-0.0122,9.8066,0.0032,-0.0799,0.016,5.28,-26.08,-41.87,71.61,-8.47,8.12
159,52.15681,-1.884516,71,0.0,44,244.0,Oct-22,79520,2020-03-21 11:12:27:597,0.1525,-0.1256,10.1683,-0.0075,-0.0125,9.8066,-0.0075,-0.0181,0.0277,6.03,-26.39,-42.75,71.02,-7.35,8.06
160,52.15681,-1.884516,71,0.0,44,244.0,Oct-22,80020,2020-03-21 11:12:28:097,-0.4523,0.1875,10.465,-0.0103,0.0271,9.8066,-0.0501,0.0788,0.017,-3.16,-23.08,-44.87,87.1,-6.18,7.94
161,52.15681,-1.884516,71,0.0,44,244.0,Jul-22,80521,2020-03-21 11:12:28:598,0.0022,0.6605,9.9085,0.0074,0.0078,9.8066,-0.0352,0.0458,0.0011,3.09,-22.33,-44.87,75.37,-5.83,7.49
162,52.15681,-1.884516,71,0.0,44,244.0,Jul-22,81021,2020-03-21 11:12:29:098,-0.2797,0.7103,10.4571,0.0009,0.0155,9.8066,-0.0309,0.0405,0.0192,3.09,-22.02,-43.56,75.13,-6.07,7.41
163,52.15681,-1.884516,71,0.0,44,244.0,Jul-22,81521,2020-03-21 11:12:29:598,0.5867,0.2596,9.406,0.0121,0.0063,9.8066,0.0032,0.0117,-0.0021,0.84,-20.89,-44.44,77.13,-7.09,7.38
164,52.15681,-1.884516,71,0.0,44,244.0,Jul-22,82020,2020-03-21 11:12:30:097,0.6607,0.1554,9.1622,0.0095,0.0433,9.8066,-0.0373,0.0437,0.0075,4.16,-22.02,-43.12,70.9,-8.02,7.53
165,52.15681,-1.884516,71,0.0,44,244.0,Jul-22,82520,2020-03-21 11:12:30:597,0.5618,0.5596,9.7167,0.0179,0.0081,9.8066,0.0426,-0.0139,-0.0341,1.59,-20.14,-46.12,70.99,-9.67,8.39
166,52.15681,-1.884516,71,0.0,44,244.0,Jul-22,83020,2020-03-21 11:12:31:097,0.8869,0.5148,10.4607,0.0198,0.0288,9.8066,-0.0213,0.0948,-0.0618,-7.59,-25.71,-45.69,90.39,-10.68,9.3
167,52.15681,-1.884516,71,0.0,44,244.0,Jul-22,83521,2020-03-21 11:12:31:598,-1.1019,-0.0516,9.2465,0.0159,0.0009,9.8066,-0.0224,0.0117,-0.0703,1.97,-25.71,-41.44,74.69,-11.59,10.72
168,52.15681,-1.884516,71,0.0,44,244.0,Jul-22,84020,2020-03-21 11:12:32:097,-1.4218,0.7448,10.093,0.0083,0.0055,9.8066,0.0415,0.0074,-0.0383,2.72,-24.89,-40.87,73.51,-10.89,11.23
169,52.15681,-1.884516,71,0.0,44,244.0,Jul-22,84521,2020-03-21 11:12:32:598,-0.7002,0.4225,9.947,0.0007,-0.0116,9.8066,-0.0341,-0.0426,-0.0447,4.53,-20.46,-39.12,67.05,-11.38,11.67
170,52.15681,-1.884516,71,0.0,44,244.0,0 / 22,85020,2020-03-21 11:12:33:097,-1.7764,0.9688,9.9648,0.0071,-0.0204,9.8066,-0.0692,0.0032,-0.081,-0.97,-23.83,-37.94,80.09,-11.74,12.41
171,52.15681,-1.884516,71,0.0,44,244.0,Jun-22,85520,2020-03-21 11:12:33:597,0.2196,-0.167,9.5931,0.0031,0.003,9.8067,-0.0352,0.0085,-0.0373,3.19,-31.38,-33.98,77.9,-11.41,13.0
172,52.15681,-1.884516,71,0.0,44,244.0,Jun-22,86021,2020-03-21 11:12:34:098,0.0812,-0.2723,10.5927,-0.0496,0.037,9.8065,-0.1427,0.066,0.0043,2.82,-25.13,-40.85,72.93,-11.7,11.64
173,52.156754,-1.884803,64,12.1,12,246.5,Jun-22,86521,2020-03-21 11:12:34:598,-1.2013,-0.0286,9.879,-0.0433,0.0018,9.8066,-0.1129,-0.0181,0.0661,3.19,-25.51,-40.48,71.43,-11.61,6.95
174,52.156754,-1.884803,64,12.1,12,246.5,Jun-22,87021,2020-03-21 11:12:35:098,-0.1519,-0.6743,10.0148,-0.0317,-0.003,9.8066,0.0394,-0.0501,0.0437,1.0,-26.95,-40.92,73.07,-11.49,2.97
175,52.156754,-1.884803,64,12.1,12,246.5,Jun-22,87521,2020-03-21 11:12:35:598,-0.219,-0.4225,9.0307,-0.0104,0.0068,9.8066,0.0192,0.0181,0.0373,2.07,-26.26,-42.17,70.49,-10.76,1.73
176,52.156754,-1.884803,64,12.1,12,246.5,Jun-22,88020,2020-03-21 11:12:36:097,-0.7632,-0.0366,9.9705,-0.0071,0.0003,9.8066,0.0149,-0.0011,0.0213,2.44,-25.51,-41.29,71.16,-10.11,0.92
177,52.156754,-1.884803,64,12.1,12,246.5,Jun-22,88521,2020-03-21 11:12:36:598,-0.2965,-0.2729,9.6134,-0.0062,-0.0019,9.8066,0.0011,0.0011,0.0288,2.82,-25.13,-41.73,68.62,-9.75,0.78
178,52.156754,-1.884803,64,12.1,12,246.5,Jun-22,89021,2020-03-21 11:12:37:098,0.6644,-0.4377,10.0847,0.0155,-0.0125,9.8066,0.0064,-0.0032,0.0,3.19,-25.13,-41.29,69.75,-9.15,0.77
179,52.156754,-1.884803,64,12.1,12,246.5,Jun-22,89520,2020-03-21 11:12:37:597,-0.1722,-0.1574,9.3591,0.0112,-0.0001,9.8066,0.0192,-0.0053,-0.0085,3.19,-25.13,-40.85,70.69,-8.91,1.74
180,52.156754,-1.884803,64,12.1,12,246.5,Jun-22,90022,2020-03-21 11:12:38:099,0.4415,-0.0416,10.4351,0.0018,-0.007,9.8066,-0.0511,0.0074,0.0043,3.57,-25.13,-40.85,69.51,-8.72,2.49
181,52.156754,-1.884803,64,12.1,12,246.5,Jun-22,90520,2020-03-21 11:12:38:597,0.2765,0.0904,10.2179,0.0098,-0.0038,9.8066,0.017,-0.0021,-0.0043,3.19,-24.38,-41.73,71.13,-8.62,3.38
182,52.156754,-1.884803,64,12.1,12,246.5,Jun-22,91020,2020-03-21 11:12:39:097,-0.3371,0.3918,10.1114,0.0034,-0.0029,9.8066,0.0064,-0.0256,-0.0075,2.44,-24.76,-41.29,73.4,-9.27,3.99
183,52.156754,-1.884803,64,12.1,12,246.5,Jun-22,91520,2020-03-21 11:12:39:597,0.4398,0.1719,10.2722,0.0141,0.003,9.8066,0.0053,0.0138,-0.0117,2.82,-24.01,-41.73,70.44,-9.75,4.67
184,52.156754,-1.884803,64,12.1,12,246.5,Jun-22,92021,2020-03-21 11:12:40:098,-0.0053,0.265,9.163,0.0089,0.0054,9.8066,0.0415,-0.0277,-0.0064,2.82,-24.01,-42.6,69.26,-10.67,5.05
185,52.156754,-1.884803,64,12.1,12,246.5,Jun-22,92521,2020-03-21 11:12:40:598,0.1147,-0.1205,9.3629,0.0138,0.002,9.8066,0.0245,-0.0021,-0.0149,2.44,-23.26,-41.73,70.06,-11.67,6.08
186,52.156754,-1.884803,64,12.1,12,246.5,Jun-22,93021,2020-03-21 11:12:41:098,0.2827,-0.0835,9.357,0.0115,-0.0016,9.8066,0.0245,-0.0096,-0.0053,2.44,-22.57,-42.17,70.19,-11.98,6.89
187,52.156754,-1.884803,64,12.1,12,246.5,Jun-22,93520,2020-03-21 11:12:41:597,-0.6019,0.2196,9.6288,-0.0066,0.0032,9.8066,-0.0107,-0.0266,-0.0032,2.44,-21.82,-41.73,69.24,-12.53,7.54
188,52.156754,-1.884803,64,12.1,12,246.5,Jun-22,94021,2020-03-21 11:12:42:098,-0.224,0.1894,9.5108,-0.0039,0.0057,9.8066,-0.0053,-0.0043,0.0213,3.19,-22.2,-40.85,67.3,-13.08,7.78
189,52.156754,-1.884803,64,12.1,12,246.5,Jun-22,94520,2020-03-21 11:12:42:597,0.5273,-0.1415,9.9132,0.0119,0.0066,9.8066,0.0224,0.0288,0.0021,3.57,-22.51,-40.85,65.64,-13.54,7.39
190,52.156754,-1.884803,64,12.1,12,246.5,Jun-22,95020,2020-03-21 11:12:43:097,-0.0915,-0.5838,9.5038,0.0045,0.004,9.8066,-0.0149,0.0149,0.0053,2.82,-22.2,-41.29,66.24,-13.87,7.52
191,52.156754,-1.884803,64,12.1,12,246.5,Apr-22,95521,2020-03-21 11:12:43:598,-0.0484,-0.3221,10.4238,-0.0075,-0.0112,9.8066,0.0043,-0.0192,0.0011,2.44,-22.2,-41.73,67.55,-13.79,7.26
192,52.156754,-1.884803,64,12.1,12,246.5,Apr-22,96020,2020-03-21 11:12:44:097,-0.966,0.0499,9.3515,0.0045,0.0009,9.8066,-0.0064,0.0245,0.0064,2.82,-22.2,-42.6,66.05,-13.57,7.66
193,52.156754,-1.884803,64,12.1,12,246.5,Aug-22,96520,2020-03-21 11:12:44:597,-0.5693,0.5922,9.8812,-0.0079,0.0045,9.8066,0.0,0.0266,0.0085,2.44,-21.45,-42.6,67.19,-13.22,7.39
194,52.156754,-1.884803,64,12.1,12,246.5,Aug-22,97021,2020-03-21 11:12:45:098,-0.3841,0.1349,10.6859,-0.0089,-0.0058,9.8066,-0.032,-0.0075,0.0128,2.44,-21.45,-42.6,67.35,-13.16,7.49
195,52.155575,-1.887823,44,20.98,15,235.9,Oct-22,97521,2020-03-21 11:12:45:598,0.1483,0.3125,10.3087,-0.0065,-0.0033,9.8066,0.0437,-0.0266,0.0085,2.44,-21.45,-43.48,66.9,-12.91,6.48
196,52.155575,-1.887823,44,20.98,15,235.9,Oct-22,98021,2020-03-21 11:12:46:098,0.3102,0.1916,9.8726,-0.0043,-0.0014,9.8066,0.0629,-0.0245,0.0192,3.19,-20.7,-43.04,65.07,-12.83,6.31
197,52.155575,-1.887823,44,20.98,15,235.9,Oct-22,98521,2020-03-21 11:12:46:598,0.0474,0.1275,10.3047,-0.0088,-0.0058,9.8066,0.0266,-0.033,0.0181,2.82,-21.82,-43.48,66.03,-12.54,5.98
198,52.155575,-1.887823,44,20.98,15,235.9,Oct-22,99021,2020-03-21 11:12:47:098,-0.4248,-0.3716,9.7088,0.0023,-0.0023,9.8066,-0.0149,-0.0011,0.0128,3.19,-20.7,-42.17,65.51,-12.62,6.16
199,52.155575,-1.887823,44,20.98,15,235.9,Oct-22,99520,2020-03-21 11:12:47:597,-0.0082,0.0035,10.1345,0.0033,-0.0043,9.8067,0.0043,-0.0117,0.0096,3.19,-21.07,-43.48,65.12,-12.74,6.23
200,52.155575,-1.887823,44,20.98,15,235.9,Oct-22,100021,2020-03-21 11:12:48:098,-0.8394,0.3929,9.1978,-0.0093,-0.0001,9.8066,0.0426,-0.0203,0.0075,2.82,-21.45,-43.04,65.04,-12.61,5.94
201,52.155575,-1.887823,44,20.98,15,235.9,Oct-22,100520,2020-03-21 11:12:48:597,0.0645,-0.4467,9.8266,-0.005,0.0092,9.8066,0.0064,-0.0011,0.0202,3.57,-21.07,-42.6,63.36,-12.6,6.05
202,52.155575,-1.887823,44,20.98,15,235.9,Oct-22,101020,2020-03-21 11:12:49:097,-0.2023,-0.089,10.2661,-0.0018,0.0006,9.8067,0.0245,-0.0203,0.0266,3.94,-21.07,-43.04,63.0,-12.47,5.43
203,52.155575,-1.887823,44,20.98,15,235.9,Oct-22,101521,2020-03-21 11:12:49:598,-0.341,-0.1007,10.2255,-0.0048,0.0126,9.8066,-0.0064,0.0011,0.0149,3.94,-21.07,-43.48,62.81,-12.56,5.31
204,52.155575,-1.887823,44,20.98,15,235.9,Oct-22,102020,2020-03-21 11:12:50:097,0.0582,0.0523,10.2244,0.0034,0.0012,9.8066,-0.0298,0.0138,0.0234,3.94,-20.7,-42.6,62.33,-12.96,5.34
205,52.155575,-1.887823,44,20.98,15,235.9,Oct-22,102520,2020-03-21 11:12:50:597,-0.067,-0.1127,9.5569,-0.0052,0.0123,9.8066,-0.0064,-0.0043,0.0234,3.94,-20.7,-42.17,62.08,-13.21,5.03
206,52.155575,-1.887823,44,20.98,15,235.9,Oct-22,103021,2020-03-21 11:12:51:098,-0.0197,0.5913,8.6716,0.0061,0.0077,9.8066,0.065,0.0043,0.0288,4.69,-20.32,-42.6,58.74,-13.41,5.05
207,52.155575,-1.887823,44,20.98,15,235.9,Jun-22,103520,2020-03-21 11:12:51:597,0.264,0.1578,9.9206,-0.0022,0.007,9.8066,0.0181,0.0032,0.0245,4.69,-20.32,-42.6,58.55,-13.46,4.9
208,52.155575,-1.887823,44,20.98,15,235.9,Jun-22,104021,2020-03-21 11:12:52:098,-0.6667,0.3078,9.5842,0.0052,0.0143,9.8066,-0.032,0.0202,0.0181,5.07,-19.57,-43.04,58.77,-13.51,5.21
209,52.155575,-1.887823,44,20.98,15,235.9,Jun-22,104521,2020-03-21 11:12:52:598,0.4482,0.3821,10.2105,-0.0029,0.0036,9.8067,0.0192,-0.0075,0.0288,4.32,-19.95,-43.04,59.87,-13.87,5.0
210,52.155575,-1.887823,44,20.98,15,235.9,Jun-22,105021,2020-03-21 11:12:53:098,0.3376,-0.1217,9.4987,-0.0014,0.0013,9.8066,0.0618,-0.0597,0.0224,4.69,-19.57,-43.04,57.76,-14.04,4.8
211,52.155575,-1.887823,44,20.98,15,235.9,Jun-22,105522,2020-03-21 11:12:53:599,-0.7508,0.0759,9.4266,-0.0148,0.0171,9.8066,0.0309,-0.0011,0.0352,5.58,-19.63,-43.39,56.22,-14.13,5.03
212,52.155575,-1.887823,44,20.98,15,235.9,Jun-22,106020,2020-03-21 11:12:54:097,-0.134,-0.0568,9.8485,0.0031,-0.0016,9.8067,0.0394,-0.0107,0.0288,6.27,-19.26,-42.52,54.88,-14.29,5.05
213,52.155575,-1.887823,44,20.98,15,235.9,Jun-22,106520,2020-03-21 11:12:54:597,-0.3786,-0.3319,9.573,-0.003,0.004,9.8066,0.0415,-0.0064,0.0288,6.64,-18.95,-42.52,52.86,-14.33,4.69
214,52.155575,-1.887823,44,20.98,15,235.9,Jun-22,107021,2020-03-21 11:12:55:098,-0.1654,-0.1349,9.0336,0.0024,0.0014,9.8067,0.0128,0.0298,0.0192,6.64,-18.95,-42.08,53.34,-14.35,4.88
215,52.155575,-1.887823,44,20.98,15,235.9,Jun-22,107520,2020-03-21 11:12:55:597,0.0877,0.3032,9.0056,-0.0002,0.006,9.8066,0.0128,0.0213,0.0128,6.64,-18.95,-42.96,52.25,-14.88,4.67
216,52.155575,-1.887823,44,20.98,15,235.9,Jun-22,108020,2020-03-21 11:12:56:097,-0.2283,0.2381,9.6109,-0.0057,0.006,9.8066,0.0234,-0.0107,0.0245,7.39,-18.57,-43.39,51.95,-15.21,4.71
217,52.155575,-1.887823,44,20.98,15,235.9,Jun-22,108521,2020-03-21 11:12:56:598,0.2186,-0.2753,9.4403,0.0034,-0.0121,9.8066,0.0245,-0.0085,0.0107,6.64,-18.2,-42.52,50.52,-15.35,4.73
218,52.155575,-1.887823,44,20.98,15,235.9,Jun-22,109021,2020-03-21 11:12:57:098,-0.0821,0.1904,9.2233,0.0077,-0.0012,9.8066,-0.0075,0.0245,0.017,6.64,-18.2,-42.96,50.75,-15.49,5.09
219,52.155575,-1.887823,44,20.98,15,235.9,Jun-22,109520,2020-03-21 11:12:57:597,0.6022,-0.2619,9.1893,-0.0024,0.0155,9.8066,0.0011,0.0074,0.0416,7.02,-18.2,-43.83,50.37,-15.56,5.07
220,52.155575,-1.887823,44,20.98,15,235.9,Jun-22,110020,2020-03-21 11:12:58:097,-0.1262,0.2123,8.7784,0.014,0.0095,9.8066,0.0533,-0.0139,0.016,7.02,-17.82,-42.96,50.82,-15.47,5.13
221,52.155575,-1.887823,44,20.98,15,235.9,May-22,110521,2020-03-21 11:12:58:598,0.4818,-0.0763,9.3163,0.0033,0.0008,9.8066,0.0075,0.0394,0.0202,7.02,-17.82,-42.96,50.85,-15.44,5.12
222,52.155575,-1.887823,44,20.98,15,235.9,May-22,111021,2020-03-21 11:12:59:098,0.0751,0.1212,10.3616,-0.0092,0.0037,9.8066,-0.0021,0.0,0.0213,7.39,-17.82,-43.39,50.65,-15.46,4.95
223,52.15349,-1.892085,90,25.45,10,223.0,Jun-22,111521,2020-03-21 11:12:59:598,-0.4521,-0.0918,8.9646,-0.0183,0.0166,9.8066,-0.0245,0.0043,0.0458,7.77,-17.45,-42.58,47.59,-15.31,4.66
224,52.15349,-1.892085,90,25.45,10,223.0,Jun-22,112020,2020-03-21 11:13:00:097,0.3748,0.1469,9.8645,0.0021,-0.0001,9.8067,0.0426,-0.0117,0.033,7.77,-17.45,-42.96,46.89,-15.4,4.14
225,52.15349,-1.892085,90,25.45,10,223.0,Jun-22,112520,2020-03-21 11:13:00:597,-0.4222,-0.298,8.6244,0.0038,-0.0014,9.8067,-0.0053,0.017,0.0181,7.77,-17.82,-43.39,48.33,-15.29,4.07
226,52.15349,-1.892085,90,25.45,10,223.0,Jun-22,113021,2020-03-21 11:13:01:098,-0.4937,0.1997,10.478,-0.0223,0.0055,9.8066,-0.0447,0.0053,0.0298,8.14,-17.45,-43.83,47.28,-15.08,4.44
227,52.15349,-1.892085,90,25.45,10,223.0,Jun-22,113521,2020-03-21 11:13:01:598,-0.2364,0.1016,10.5375,0.0025,-0.0048,9.8067,-0.0245,-0.0117,0.0139,7.39,-17.07,-42.96,49.45,-15.15,4.82
228,52.15349,-1.892085,90,25.45,10,223.0,Jun-22,114021,2020-03-21 11:13:02:098,-0.1642,-0.2158,9.2239,0.0005,0.0006,9.8067,0.016,-0.032,0.0202,8.52,-17.07,-43.39,46.44,-15.17,4.79
229,52.15349,-1.892085,90,25.45,10,223.0,Jun-22,114521,2020-03-21 11:13:02:598,0.2263,-0.005,10.0618,0.0198,-0.0047,9.8066,0.0224,0.0245,0.0,8.52,-16.32,-42.96,45.18,-15.17,4.96
230,52.15349,-1.892085,90,25.45,10,223.0,Jun-22,115021,2020-03-21 11:13:03:098,-0.8113,0.7719,10.788,-0.0193,0.0122,9.8066,-0.0565,0.0064,0.017,9.55,-16.38,-43.02,43.39,-15.05,4.52
231,52.15349,-1.892085,90,25.45,10,223.0,Jun-22,115521,2020-03-21 11:13:03:598,-0.038,0.5089,10.3712,-0.0197,0.0034,9.8066,0.0053,-0.0277,0.033,9.17,-16.38,-43.02,44.89,-15.34,4.86
232,52.15349,-1.892085,90,25.45,10,223.0,Jun-22,116020,2020-03-21 11:13:04:097,0.3662,0.0855,9.6948,-0.0124,0.0101,9.8066,0.0234,-0.0394,0.0618,9.55,-15.63,-43.02,43.33,-15.54,4.85
233,52.15349,-1.892085,90,25.45,10,223.0,Jun-22,116521,2020-03-21 11:13:04:598,0.3182,-0.354,9.7161,0.0052,-0.0053,9.8066,0.0181,0.0181,0.0213,9.55,-16.38,-43.46,42.24,-15.84,4.16
234,52.15349,-1.892085,90,25.45,10,223.0,Jun-22,117020,2020-03-21 11:13:05:097,0.7273,-0.3132,8.7421,0.015,0.0098,9.8066,0.0362,0.0341,0.0426,9.92,-16.01,-43.46,43.15,-15.33,4.54
235,52.15349,-1.892085,90,25.45,10,223.0,Jun-22,117520,2020-03-21 11:13:05:597,0.1783,0.3119,10.9974,0.011,-0.0039,9.8066,0.0181,0.0138,0.0128,9.92,-16.01,-44.34,42.42,-15.94,4.6
236,52.15349,-1.892085,90,25.45,10,223.0,Jun-22,118020,2020-03-21 11:13:06:097,-0.0047,0.402,9.0234,-0.0134,0.0028,9.8066,0.0043,-0.0128,0.0288,9.92,-15.32,-43.46,41.1,-15.88,4.52
237,52.15349,-1.892085,90,25.45,10,223.0,Jul-22,118520,2020-03-21 11:13:06:597,-0.1226,-0.25,9.9764,0.01,-0.0072,9.8066,0.0139,0.0064,0.0,9.92,-14.94,-43.46,41.56,-16.13,5.07
238,52.15349,-1.892085,90,25.45,10,223.0,Jul-22,119021,2020-03-21 11:13:07:098,-0.1072,0.1928,9.4982,-0.0005,0.0039,9.8067,-0.0469,0.017,0.0117,10.3,-15.32,-43.02,42.45,-15.83,5.58
239,52.15349,-1.892085,90,25.45,10,223.0,Jul-22,119520,2020-03-21 11:13:07:597,-0.3705,0.3618,9.8347,-0.0121,-0.0107,9.8066,0.0437,-0.0586,0.0021,10.3,-14.94,-43.02,42.0,-16.11,5.42
240,52.15349,-1.892085,90,25.45,10,223.0,Jul-22,120021,2020-03-21 11:13:08:098,0.1692,0.1637,9.1356,-0.0011,0.0011,9.8067,0.0288,-0.0085,0.033,10.3,-14.94,-43.02,41.98,-15.8,5.17
241,52.15349,-1.892085,90,25.45,10,223.0,Jul-22,120521,2020-03-21 11:13:08:598,0.3249,0.1246,9.2852,0.0044,-0.0039,9.8066,0.0788,-0.0117,0.017,10.3,-14.19,-42.59,40.38,-16.01,5.3
242,52.15349,-1.892085,90,25.45,10,223.0,Jul-22,121020,2020-03-21 11:13:09:097,-0.0992,-0.0922,10.4788,-0.015,-0.0012,9.8066,0.017,-0.0565,0.0341,10.98,-13.82,-43.46,39.27,-15.83,5.3
243,52.15349,-1.892085,90,25.45,10,223.0,Jul-22,121520,2020-03-21 11:13:09:597,0.1742,-0.1722,9.6602,-0.0032,-0.001,9.8066,-0.0213,-0.0021,0.0064,10.61,-14.19,-43.46,39.01,-15.76,5.05
244,52.15349,-1.892085,90,25.45,10,223.0,Jul-22,122020,2020-03-21 11:13:10:097,-0.1193,0.0615,8.9585,0.0065,-0.0017,9.8066,0.0373,-0.0149,0.0075,10.98,-14.19,-42.59,38.59,-15.86,4.78
245,52.15349,-1.892085,90,25.45,10,223.0,Jul-22,122521,2020-03-21 11:13:10:598,0.1978,-0.0112,12.2663,-0.0238,-0.0085,9.8066,-0.0096,-0.1087,0.0352,10.98,-13.82,-42.15,39.63,-15.84,5.44
246,52.15349,-1.892085,90,25.45,10,223.0,Jul-22,123021,2020-03-21 11:13:11:098,0.0851,-0.5781,10.1364,-0.0058,-0.0093,9.8066,0.0043,-0.033,0.0107,11.73,-13.07,-42.59,36.47,-15.42,5.06
247,52.15349,-1.892085,90,25.45,10,223.0,Jul-22,123520,2020-03-21 11:13:11:597,-0.4856,-0.7789,8.7899,-0.0084,-0.0193,9.8066,0.0096,-0.0117,0.0011,11.73,-13.82,-42.15,39.62,-14.24,5.38
248,52.15349,-1.892085,90,25.45,10,223.0,Jul-22,124020,2020-03-21 11:13:12:097,-0.1585,-0.166,10.4006,-0.006,-0.0102,9.8066,0.0053,0.0074,0.016,12.48,-13.07,-41.71,39.58,-12.59,5.53
249,52.15349,-1.892085,90,25.45,10,223.0,Jul-22,124521,2020-03-21 11:13:12:598,-0.1397,-0.3922,9.7361,-0.0004,-0.007,9.8066,-0.0895,0.066,0.0298,11.73,-13.44,-42.59,41.39,-11.11,5.98
250,52.15349,-1.892085,90,25.45,10,223.0,Jul-22,125021,2020-03-21 11:13:13:098,-0.0411,0.5265,9.6311,0.0116,0.0115,9.8066,-0.0149,0.0554,0.0245,12.46,-14.69,-42.45,45.17,-10.61,6.01
251,52.15349,-1.892085,90,25.45,10,223.0,Jul-22,125520,2020-03-21 11:13:13:597,0.5284,-0.0479,10.0739,0.0176,0.0155,9.8066,-0.0554,0.0319,0.0139,12.46,-14.31,-43.32,42.95,-11.15,5.97
252,52.15349,-1.892085,90,25.45,10,223.0,Jul-22,126020,2020-03-21 11:13:14:097,-0.1688,0.7898,9.6651,0.0099,0.0083,9.8066,0.017,0.0181,0.0075,11.71,-13.94,-43.76,41.05,-12.12,5.28
253,52.15349,-1.892085,90,25.45,10,223.0,0 / 22,126520,2020-03-21 11:13:14:597,0.3735,0.4153,9.6689,0.0059,0.0187,9.8066,0.0053,-0.0011,0.016,12.08,-13.94,-42.89,40.34,-12.99,5.23
254,52.15349,-1.892085,90,25.45,10,223.0,0 / 22,127021,2020-03-21 11:13:15:098,0.148,-0.2182,9.6149,0.0042,0.0101,9.8066,-0.0053,-0.0075,0.017,12.08,-13.94,-43.76,39.4,-13.87,5.22
255,52.15349,-1.892085,90,25.45,10,223.0,Oct-22,127520,2020-03-21 11:13:15:597,0.2213,0.261,9.1585,0.0192,0.0044,9.8066,-0.0245,0.0032,0.0011,11.71,-14.31,-44.14,39.02,-14.6,5.41
256,52.15349,-1.892085,90,25.45,10,223.0,Oct-22,128020,2020-03-21 11:13:16:097,0.7534,-0.7695,9.5945,0.015,-0.0187,9.8066,-0.033,0.0213,0.0064,11.71,-13.94,-43.32,40.28,-14.92,6.54
257,52.149956,-1.895337,97,27.31,8,200.4,Oct-22,128520,2020-03-21 11:13:16:597,-0.2604,-0.1285,10.409,-0.0008,0.0117,9.8066,-0.0075,-0.0224,0.0139,11.71,-15.44,-44.57,40.08,-15.18,5.57
258,52.149956,-1.895337,97,27.31,8,200.4,Oct-22,129021,2020-03-21 11:13:17:098,0.3381,0.1685,9.7921,-0.0008,0.0041,9.8066,-0.0011,-0.0053,0.0096,12.08,-15.06,-43.7,40.17,-15.27,5.55
259,52.149956,-1.895337,97,27.31,8,200.4,Oct-22,129521,2020-03-21 11:13:17:598,0.0247,-0.4593,9.9617,0.0,0.0039,9.8066,-0.0234,-0.0043,0.0075,12.08,-16.13,-44.57,41.06,-15.42,5.34
260,52.149956,-1.895337,97,27.31,8,200.4,Oct-22,130021,2020-03-21 11:13:18:098,0.4541,0.1277,10.527,0.0033,0.006,9.8066,-0.0778,0.0319,-0.0032,12.08,-16.13,-44.14,41.6,-15.54,5.71
261,52.149956,-1.895337,97,27.31,8,200.4,Oct-22,130521,2020-03-21 11:13:18:598,0.0283,-0.0692,11.637,-0.0011,-0.011,9.8066,0.0096,-0.0597,-0.0096,11.71,-15.44,-42.45,40.88,-15.68,6.12
262,52.149956,-1.895337,97,27.31,8,200.4,Oct-22,131021,2020-03-21 11:13:19:098,0.5002,-0.6122,8.8288,0.0049,-0.0049,9.8066,-0.0565,0.0298,-0.016,11.33,-16.13,-41.57,44.08,-15.77,6.64
263,52.149956,-1.895337,97,27.31,8,200.4,Oct-22,131523,2020-03-21 11:13:19:600,0.7349,-0.4704,8.8244,0.0161,0.0001,9.8066,0.0341,0.0,-0.0128,8.77,-18.38,-39.45,50.46,-16.0,7.07
264,52.149956,-1.895337,97,27.31,8,200.4,Oct-22,132020,2020-03-21 11:13:20:097,0.2634,-0.5519,8.5768,0.017,0.0075,9.8066,-0.033,0.0426,-0.0192,12.46,-10.63,-38.14,36.58,-15.69,7.47
265,52.149956,-1.895337,97,27.31,8,200.4,Oct-22,132521,2020-03-21 11:13:20:598,-0.0532,-0.0295,10.0163,0.0054,-0.0129,9.8066,0.0458,-0.0203,-0.0373,17.65,-13.19,-40.76,33.26,-15.62,7.51
266,52.149956,-1.895337,97,27.31,8,200.4,Oct-22,133021,2020-03-21 11:13:21:098,-0.488,1.0394,12.4428,-0.0176,0.0086,9.8066,0.0043,-0.0831,-0.0277,13.21,-16.13,-42.45,42.28,-15.81,7.28
267,52.149956,-1.895337,97,27.31,8,200.4,Oct-22,133521,2020-03-21 11:13:21:598,-0.3605,0.2243,9.9159,-0.0279,-0.0253,9.8066,0.0096,-0.0938,-0.0224,12.08,-16.88,-43.32,44.93,-15.95,7.64
268,52.149956,-1.895337,97,27.31,8,200.4,Oct-22,134020,2020-03-21 11:13:22:097,0.3519,-0.146,9.4929,-0.007,-0.005,9.8066,0.0128,-0.0469,-0.0149,12.08,-16.5,-42.89,45.08,-16.08,7.9
269,52.149956,-1.895337,97,27.31,8,200.4,0 / 22,134520,2020-03-21 11:13:22:597,-0.3607,0.5161,10.3683,-0.0005,0.0047,9.8066,-0.0607,0.0,-0.032,11.71,-16.88,-42.89,44.84,-15.82,7.46
270,52.149956,-1.895337,97,27.31,8,200.4,0 / 22,135020,2020-03-21 11:13:23:097,-0.0792,0.0506,9.5173,0.0022,-0.0082,9.8066,0.0085,0.0043,-0.0181,11.71,-16.5,-42.45,44.63,-15.99,7.22
271,52.149956,-1.895337,97,27.31,8,200.4,May-22,135520,2020-03-21 11:13:23:597,0.5537,-0.1829,9.7666,0.0016,0.006,9.8066,-0.0117,0.0181,0.0075,11.33,-16.88,-43.32,45.41,-15.89,6.87
272,52.149956,-1.895337,97,27.31,8,200.4,May-22,136021,2020-03-21 11:13:24:098,-0.3783,0.2419,8.7557,0.0003,0.0034,9.8066,0.0,0.0181,0.0043,11.33,-16.88,-42.89,45.4,-15.88,6.86
273,52.149956,-1.895337,97,27.31,8,200.4,May-22,136520,2020-03-21 11:13:24:597,-0.6492,0.5858,9.1221,-0.0052,0.0092,9.8066,0.0128,-0.0171,0.0032,11.71,-16.88,-42.89,43.82,-15.67,6.39
274,52.149956,-1.895337,97,27.31,8,200.4,May-22,137020,2020-03-21 11:13:25:097,-0.2134,0.3072,10.9268,-0.0197,0.0015,9.8066,-0.0746,0.0245,-0.0021,11.71,-16.88,-43.32,43.17,-15.79,5.87
275,52.14788,-1.896903,94,28.69,23,206.2,May-22,137521,2020-03-21 11:13:25:598,-0.6295,0.02,9.3529,0.0044,-0.0043,9.8066,0.0096,-0.0032,-0.0192,11.71,-17.25,-42.89,42.73,-15.76,5.45
276,52.14788,-1.896903,94,28.69,23,206.2,May-22,138021,2020-03-21 11:13:26:098,0.2597,0.0908,10.2193,-0.0007,0.0006,9.8067,0.0,0.0043,-0.0256,11.71,-16.88,-42.89,42.56,-15.96,5.43
277,52.14788,-1.896903,94,28.69,23,206.2,May-22,138520,2020-03-21 11:13:26:597,-0.2133,0.5534,9.186,-0.0062,-0.0038,9.8066,-0.0064,0.0011,-0.0138,12.08,-16.88,-43.7,42.92,-15.92,5.92
278,52.14788,-1.896903,94,28.69,23,206.2,May-22,139020,2020-03-21 11:13:27:097,0.4775,-0.2878,9.8199,0.0143,-0.0073,9.8066,0.0245,0.0011,-0.0085,11.33,-17.25,-43.32,44.64,-16.16,6.36
279,52.14788,-1.896903,94,28.69,23,206.2,May-22,139521,2020-03-21 11:13:27:598,0.124,0.0604,9.7865,0.0058,-0.0027,9.8066,0.0309,-0.0085,-0.0256,11.33,-17.63,-43.76,46.0,-16.19,6.63
280,52.14788,-1.896903,94,28.69,23,206.2,May-22,140021,2020-03-21 11:13:28:098,0.472,-0.4444,9.7193,-0.0042,0.0003,9.8066,-0.0213,-0.0032,-0.0096,11.02,-17.63,-42.45,46.87,-16.37,7.2
281,52.14788,-1.896903,94,28.69,23,206.2,May-22,140520,2020-03-21 11:13:28:597,0.3549,-0.0292,9.4993,0.0024,0.0065,9.8066,-0.0213,0.0192,-0.0117,11.33,-17.63,-42.45,47.38,-16.36,7.7
282,52.14788,-1.896903,94,28.69,23,206.2,May-22,141020,2020-03-21 11:13:29:097,0.7669,-0.2642,9.9712,-0.0067,0.0014,9.8066,-0.0256,-0.0181,-0.0075,10.65,-18.38,-43.32,47.0,-16.48,7.62
283,52.14788,-1.896903,94,28.69,23,206.2,May-22,141521,2020-03-21 11:13:29:598,0.1053,0.3033,9.0886,0.0067,0.0025,9.8066,0.0096,0.0085,-0.017,11.02,-19.13,-43.76,47.64,-16.64,7.38
284,52.14788,-1.896903,94,28.69,23,206.2,May-22,142021,2020-03-21 11:13:30:098,0.1268,-0.1266,8.7206,0.0051,0.0018,9.8067,-0.0085,0.0383,-0.0192,11.02,-18.38,-43.76,46.34,-16.55,7.24
285,52.14788,-1.896903,94,28.69,23,206.2,Mar-22,142521,2020-03-21 11:13:30:598,-0.1741,0.4776,10.7184,0.003,0.0053,9.8066,-0.0383,0.0106,-0.0096,10.65,-18.75,-43.32,47.56,-16.67,7.11
286,52.14788,-1.896903,94,28.69,23,206.2,Mar-22,143021,2020-03-21 11:13:31:098,0.1965,-0.2901,8.6714,0.0047,-0.0058,9.8066,-0.0117,0.0202,-0.0213,10.27,-18.38,-43.32,47.51,-16.89,7.22
287,52.14788,-1.896903,94,28.69,23,206.2,May-22,143521,2020-03-21 11:13:31:598,-0.0443,0.1277,10.1246,-0.011,0.0109,9.8066,0.0096,-0.0384,0.0053,11.02,-18.0,-43.76,46.21,-17.12,7.56
288,52.14788,-1.896903,94,28.69,23,206.2,May-22,144020,2020-03-21 11:13:32:097,0.0641,-0.0403,9.4278,-0.0012,0.0051,9.8067,-0.0075,0.0074,-0.0096,10.27,-19.13,-43.76,48.17,-17.35,7.26
289,52.14788,-1.896903,94,28.69,23,206.2,0 / 22,144520,2020-03-21 11:13:32:597,0.5645,-0.121,9.4936,-0.0046,0.0058,9.8066,0.0096,-0.0011,-0.0032,9.9,-18.75,-42.45,48.57,-17.22,7.07
290,52.14788,-1.896903,94,28.69,23,206.2,0 / 22,145020,2020-03-21 11:13:33:097,-0.5295,0.2919,10.1487,-0.0014,0.0096,9.8066,-0.0607,0.0245,-0.0128,10.65,-18.75,-42.51,47.01,-17.25,7.01
291,52.14788,-1.896903,94,28.69,23,206.2,May-22,145520,2020-03-21 11:13:33:597,0.1643,-0.4847,9.6457,0.0007,-0.0016,9.8067,-0.0266,0.0213,-0.0075,10.65,-18.75,-42.95,46.94,-17.33,7.01
292,52.14788,-1.896903,94,28.69,23,206.2,May-22,146022,2020-03-21 11:13:34:099,0.2714,0.3459,9.5948,0.0122,-0.0039,9.8066,0.0149,0.0426,-0.0224,9.52,-19.5,-42.51,49.38,-17.25,6.95
293,52.145836,-1.89858,86,27.27,19,211.7,May-22,146521,2020-03-21 11:13:34:598,-0.2633,-0.3005,9.3369,-0.0192,0.0198,9.8066,-0.0202,0.0213,-0.0117,10.27,-19.13,-42.95,48.18,-17.21,6.91
294,52.145836,-1.89858,86,27.27,19,211.7,May-22,147023,2020-03-21 11:13:35:100,0.0607,-0.3589,9.9377,-0.0043,0.0041,9.8066,-0.0128,-0.0107,-0.0096,9.9,-19.13,-43.39,47.88,-17.31,6.69
295,52.145836,-1.89858,86,27.27,19,211.7,May-22,147520,2020-03-21 11:13:35:597,0.1271,-0.2098,10.7359,-0.0241,0.0044,9.8066,-0.0597,0.0,-0.0138,9.52,-19.13,-42.95,47.95,-17.3,6.75
296,52.145836,-1.89858,86,27.27,19,211.7,May-22,148021,2020-03-21 11:13:36:098,-0.0002,-0.3494,9.8635,-0.0021,-0.0133,9.8066,-0.0117,-0.0096,-0.0106,9.9,-20.19,-43.82,48.65,-17.29,6.49
297,52.145836,-1.89858,86,27.27,19,211.7,May-22,148521,2020-03-21 11:13:36:598,0.2783,0.0765,10.2438,-0.0146,0.0007,9.8066,-0.0032,-0.0458,-0.016,9.52,-19.5,-43.32,48.17,-17.48,5.91
298,52.145836,-1.89858,86,27.27,19,211.7,May-22,149021,2020-03-21 11:13:37:098,-0.3812,0.225,10.4772,-0.0071,0.0002,9.8066,0.0021,-0.0416,-0.0053,9.52,-20.19,-43.32,47.74,-17.58,5.56
299,52.145836,-1.89858,86,27.27,19,211.7,May-22,149521,2020-03-21 11:13:37:598,-0.0603,-0.4379,9.1654,0.002,-0.0034,9.8066,-0.0064,-0.0064,-0.0181,9.52,-20.19,-43.39,48.03,-17.62,5.88
300,52.145836,-1.89858,86,27.27,19,211.7,May-22,150021,2020-03-21 11:13:38:098,0.133,-0.2985,9.121,0.0049,0.0043,9.8066,-0.0288,0.0351,-0.0192,10.61,-19.59,-43.57,46.71,-17.68,6.08
301,52.145836,-1.89858,86,27.27,19,211.7,May-22,150521,2020-03-21 11:13:38:598,0.3989,-0.615,9.273,0.0039,-0.011,9.8066,-0.0011,0.0053,-0.0096,10.24,-20.65,-43.57,49.12,-17.39,5.88
302,52.145836,-1.89858,86,27.27,19,211.7,May-22,151020,2020-03-21 11:13:39:097,0.1567,-0.128,9.8029,-0.0087,-0.0047,9.8066,0.0213,-0.0405,-0.0064,10.24,-20.65,-42.76,49.55,-17.49,6.12
303,52.145836,-1.89858,86,27.27,19,211.7,May-22,151520,2020-03-21 11:13:39:597,-0.0405,-0.3333,9.1205,0.0111,-0.0164,9.8066,0.0213,-0.0128,-0.0181,10.24,-21.02,-42.7,49.94,-17.22,6.3
304,52.145836,-1.89858,86,27.27,19,211.7,May-22,152020,2020-03-21 11:13:40:097,0.1321,-0.4591,9.5588,0.0073,-0.0047,9.8066,-0.0373,0.0234,-0.0224,9.49,-20.27,-43.13,50.42,-17.25,6.7
305,52.145836,-1.89858,86,27.27,19,211.7,May-22,152521,2020-03-21 11:13:40:598,0.7924,-1.5194,9.0162,-0.0013,0.0053,9.8066,0.032,-0.0266,-0.0224,9.86,-20.65,-43.13,50.72,-16.98,6.92
306,52.145836,-1.89858,86,27.27,19,211.7,May-22,153020,2020-03-21 11:13:41:097,0.171,-0.2343,9.3398,-0.0054,-0.0033,9.8066,-0.0266,0.0064,-0.0075,9.86,-20.27,-41.88,49.56,-16.86,6.54
307,52.145836,-1.89858,86,27.27,19,211.7,May-22,153521,2020-03-21 11:13:41:598,-0.7263,0.503,9.7337,0.0012,-0.0028,9.8066,-0.0746,0.0351,-0.0149,9.86,-19.9,-42.32,49.76,-16.78,6.68
308,52.145836,-1.89858,86,27.27,19,211.7,May-22,154020,2020-03-21 11:13:42:097,-0.3189,-0.1004,9.496,0.0057,-0.0046,9.8066,0.0586,0.0213,-0.0213,9.86,-21.02,-43.13,51.14,-16.33,6.79
309,52.145836,-1.89858,86,27.27,19,211.7,May-22,154523,2020-03-21 11:13:42:600,-0.4906,-0.6368,9.2009,-0.0058,-0.0094,9.8066,-0.0011,0.0469,-0.0288,9.49,-20.65,-43.13,53.91,-15.28,7.39
310,52.145836,-1.89858,86,27.27,19,211.7,May-22,155020,2020-03-21 11:13:43:097,-0.0002,-0.229,9.3462,-0.0068,-0.0091,9.8066,-0.0075,0.0032,-0.0266,9.86,-21.02,-43.57,54.34,-13.77,8.12
311,52.145836,-1.89858,86,27.27,19,211.7,Jan-22,155521,2020-03-21 11:13:43:598,-0.0769,-0.2269,10.3448,-0.0017,-0.0152,9.8066,0.0245,-0.0277,-0.0277,9.49,-21.4,-42.32,58.43,-11.99,8.92
312,52.145836,-1.89858,86,27.27,19,211.7,Jan-22,156023,2020-03-21 11:13:44:100,-0.1532,-0.021,9.6985,-0.0114,-0.0236,9.8066,-0.0309,0.033,-0.0352,9.86,-21.77,-42.7,59.14,-10.76,9.21
313,52.145836,-1.89858,86,27.27,19,211.7,Aug-22,156521,2020-03-21 11:13:44:598,-0.5097,-0.0268,9.0808,-0.0172,-0.0019,9.8066,-0.0948,0.0341,-0.0394,9.11,-21.02,-43.57,60.41,-9.9,9.18
314,52.145836,-1.89858,86,27.27,19,211.7,Aug-22,157021,2020-03-21 11:13:45:098,0.0433,0.5226,9.7871,0.0059,0.0038,9.8066,0.0256,-0.0032,-0.0277,8.43,-22.15,-42.7,62.83,-9.62,8.55
315,52.145836,-1.89858,86,27.27,19,211.7,Aug-22,157520,2020-03-21 11:13:45:597,0.2283,1.1137,9.5317,-0.0041,0.0423,9.8066,0.0,0.0479,-0.0043,9.11,-22.15,-42.7,59.95,-10.41,7.86
316,52.145836,-1.89858,86,27.27,19,211.7,Aug-22,158022,2020-03-21 11:13:46:099,-0.1313,0.7072,9.5105,-0.0019,0.0203,9.8066,0.033,0.0,0.0096,8.74,-21.77,-41.88,57.88,-11.75,6.68
317,52.14364,-1.901237,87,28.24,26,224.0,Aug-22,158522,2020-03-21 11:13:46:599,-0.2291,0.5197,9.3013,-0.0074,0.0433,9.8066,0.0021,0.0309,0.0064,8.74,-21.77,-42.26,55.59,-12.89,5.28
318,52.14364,-1.901237,87,28.24,26,224.0,Aug-22,159021,2020-03-21 11:13:47:098,0.4431,0.0167,10.0383,0.0057,0.001,9.8066,-0.017,-0.0032,-0.0096,9.11,-22.15,-42.26,53.89,-13.78,4.34
319,52.14364,-1.901237,87,28.24,26,224.0,Aug-22,159520,2020-03-21 11:13:47:597,-0.046,0.2784,9.2619,0.0008,-0.0019,9.8067,0.0884,-0.0735,-0.0043,8.36,-22.15,-42.26,54.62,-14.22,4.0
320,52.14364,-1.901237,87,28.24,26,224.0,Aug-22,160020,2020-03-21 11:13:48:097,0.3778,-0.3395,12.7039,0.0217,-0.0142,9.8066,0.0756,-0.0511,0.0011,8.36,-19.9,-42.7,52.8,-15.0,5.61
321,52.14364,-1.901237,87,28.24,26,224.0,Aug-22,160521,2020-03-21 11:13:48:598,0.4532,-0.045,10.4301,0.0064,-0.0232,9.8066,-0.0192,-0.0362,-0.0117,8.43,-19.59,-42.7,53.22,-15.26,6.3
322,52.14364,-1.901237,87,28.24,26,224.0,Aug-22,161020,2020-03-21 11:13:49:097,-0.0672,-0.0352,10.0636,0.0053,-0.0179,9.8066,-0.0085,-0.0554,0.0149,8.36,-18.84,-43.57,52.76,-15.59,7.62
323,52.14364,-1.901237,87,28.24,26,224.0,Aug-22,161520,2020-03-21 11:13:49:597,-0.1219,0.2491,10.1213,0.006,-0.0005,9.8066,-0.0405,0.0245,-0.017,8.74,-19.52,-43.13,52.45,-15.68,7.38
324,52.14364,-1.901237,87,28.24,26,224.0,Aug-22,162021,2020-03-21 11:13:50:098,-0.359,-0.0674,9.4571,0.0002,-0.0046,9.8066,-0.0192,0.0096,-0.0043,8.36,-19.52,-43.57,53.44,-15.78,7.33
325,52.14364,-1.901237,87,28.24,26,224.0,Aug-22,162520,2020-03-21 11:13:50:597,-0.1693,-0.0518,10.2725,-0.0167,0.0077,9.8066,-0.0085,-0.0224,-0.0064,8.74,-19.9,-42.26,52.37,-15.7,7.05
326,52.14364,-1.901237,87,28.24,26,224.0,Aug-22,163021,2020-03-21 11:13:51:098,0.1071,-0.6494,8.731,-0.0044,0.0003,9.8066,-0.0149,-0.0171,0.0298,8.74,-20.27,-43.13,52.05,-15.81,7.08
327,52.14364,-1.901237,87,28.24,26,224.0,Aug-22,163521,2020-03-21 11:13:51:598,-0.4108,0.1546,10.0602,-0.0053,0.0083,9.8066,-0.0842,0.0415,0.0011,8.74,-19.52,-43.13,52.0,-15.67,6.9
328,52.14364,-1.901237,87,28.24,26,224.0,0 / 22,164021,2020-03-21 11:13:52:098,0.1724,-0.5628,9.7437,-0.0041,0.0076,9.8066,-0.033,-0.0181,0.016,8.74,-19.21,-43.13,50.93,-15.86,7.18
329,52.14364,-1.901237,87,28.24,26,224.0,Jun-22,164521,2020-03-21 11:13:52:598,0.1556,-0.4836,9.7907,0.0039,-0.0039,9.8066,-0.0245,0.0149,0.0181,9.11,-19.9,-42.7,52.01,-15.81,7.04
330,52.14364,-1.901237,87,28.24,26,224.0,Jun-22,165021,2020-03-21 11:13:53:098,0.3316,-0.4601,10.0516,-0.0031,-0.0047,9.8066,-0.0064,-0.0085,0.0064,9.11,-19.52,-42.7,52.19,-15.73,7.15
331,52.14364,-1.901237,87,28.24,26,224.0,Jun-22,165520,2020-03-21 11:13:53:597,0.6872,-0.5988,9.6,0.0075,0.005,9.8066,-0.0298,0.0362,-0.0106,9.11,-20.65,-42.26,53.49,-15.81,7.16
