,GPS LATITUDE (degrees), GPS LONGITUDE (degrees), GPS ALTITUDE (m), GPS SPEED (Kmh), GPS ACCURACY (m), GPS ORIENTATION (Â°),GPS SATELLITES IN RANGE, TIME SINCE START (ms), DATE (YYYY-MO-DD HH-MI-SS_SSS), ACCELEROMETER X (m/s²) , ACCELEROMETER Y (m/s²), ACCELEROMETER Z (m/s²), GRAVITY X (m/s²), GRAVITY Y (m/s²), GRAVITY Z (m/s²), GYROSCOPE Yaw (rad/s), GYROSCOPE Pitch (rad/s), GYROSCOPE Roll (rad/s), MAGNETIC FIELD X (Î¼T), MAGNETIC FIELD Y (Î¼T), MAGNETIC FIELD Z (Î¼T), ORIENTATION (Yaw) (Â°), ORIENTATION (Pitch) (Â°), ORIENTATION (Roll ) (Â°)
0,52.43164,-1.525722,0,0.0,19.017,0.0,0 / 20,98,2020-03-21 10:22:54:746,1.1598,0.6037,10.2782,-0.1022,0.035,9.8061,-0.2386,-0.2259,0.3974,19.06,-28.94,12.0,65.22,-20.36,3.57
1,52.43164,-1.525722,0,0.0,19.017,0.0,0 / 20,599,2020-03-21 10:22:55:247,0.4827,1.4476,6.7352,0.2644,0.8118,9.7694,-0.9066,0.8543,2.6505,29.02,3.83,-6.57,350.49,-27.46,-6.91
2,52.43164,-1.525722,0,0.0,19.017,0.0,0 / 20,1100,2020-03-21 10:22:55:748,1.5289,-0.5179,10.2478,-0.0288,-0.2958,9.8021,1.9282,-0.0671,1.9399,25.77,-0.74,-15.35,359.97,-11.66,-3.87
3,52.43164,-1.525722,0,0.0,19.017,0.0,0 / 20,1599,2020-03-21 10:22:56:247,-0.2372,2.8845,10.2656,-0.033,0.0577,9.8064,-0.4996,0.2642,0.7276,20.15,1.11,-28.26,345.83,-3.53,-9.21
4,52.43164,-1.525722,0,0.0,19.017,0.0,0 / 20,2099,2020-03-21 10:22:56:747,3.1334,1.3136,9.1403,0.1717,0.5967,9.787,-0.7201,-0.0054,1.5351,20.83,4.42,-30.76,351.67,-2.9,1.29
5,52.43164,-1.525722,0,0.0,19.017,0.0,0 / 20,2598,2020-03-21 10:22:57:246,0.2883,-2.6042,11.0661,-0.0381,-0.0668,9.8063,0.1619,-0.2237,-0.1928,23.49,16.39,-27.99,356.12,1.59,27.08
6,52.43164,-1.525722,0,0.0,19.017,0.0,0 / 20,3099,2020-03-21 10:22:57:747,0.0114,-0.4548,9.9711,0.1369,-0.0554,9.8055,0.0362,-0.0096,-0.1353,21.3,16.01,-28.36,1.88,-3.28,31.08
7,52.43164,-1.525722,0,0.0,19.017,0.0,0 / 20,3598,2020-03-21 10:22:58:246,-0.0631,-0.3233,10.0476,-0.0066,0.0006,9.8066,0.0,0.0032,0.0,21.99,16.39,-28.8,2.22,-1.19,30.41
8,52.43164,-1.525722,0,0.0,19.017,0.0,0 / 20,4098,2020-03-21 10:22:58:746,0.1483,-0.0409,9.4408,-0.003,0.0001,9.8067,0.0064,-0.0075,-0.0224,21.68,16.01,-29.99,3.29,-1.01,30.26
9,52.43164,-1.525722,0,0.0,19.017,0.0,0 / 20,4599,2020-03-21 10:22:59:247,0.1955,-0.1324,9.6328,-0.0038,0.0002,9.8067,-0.0064,-0.0171,0.0,21.68,16.01,-29.61,3.21,-0.81,30.2
10,52.43164,-1.525722,0,0.0,19.017,0.0,0 / 20,5098,2020-03-21 10:22:59:746,0.1199,0.0798,9.7362,0.0546,0.0034,9.8065,-0.0032,0.0309,0.0533,20.55,16.39,-29.18,2.04,-1.62,30.24
11,52.43164,-1.525722,0,0.0,19.017,0.0,0 / 20,5599,2020-03-21 10:23:00:247,0.295,-0.1526,9.5551,0.0186,0.0024,9.8066,0.0011,-0.0085,0.0053,20.18,16.01,-29.99,3.53,-2.9,30.33
12,52.43164,-1.525722,0,0.0,19.017,0.0,0 / 20,6101,2020-03-21 10:23:00:749,0.2611,0.098,9.5698,0.0,-0.001,9.8067,0.0032,0.0096,-0.0011,18.79,15.56,-29.47,2.0,-2.75,30.13
13,52.43164,-1.525722,0,0.0,19.017,0.0,0 / 20,6599,2020-03-21 10:23:01:247,0.0841,-0.0933,9.7923,0.0063,0.0018,9.8066,-0.0085,0.0394,-0.0075,18.41,14.87,-30.72,7.18,-3.48,30.03
14,52.43164,-1.525722,0,0.0,19.017,0.0,0 / 20,7099,2020-03-21 10:23:01:747,0.1863,-0.3237,9.875,0.0015,-0.0019,9.8067,0.0,-0.0107,0.0171,18.41,14.5,-31.6,11.01,-3.62,30.08
15,52.43164,-1.525722,0,0.0,19.017,0.0,0 / 20,7599,2020-03-21 10:23:02:247,0.0119,0.0425,9.7759,-0.0041,-0.0005,9.8066,-0.0011,-0.0022,0.0043,18.41,14.5,-30.35,8.4,-3.33,30.1
16,52.43164,-1.525722,0,0.0,19.017,0.0,0 / 20,8099,2020-03-21 10:23:02:747,0.2568,0.2471,9.5704,0.0314,0.0055,9.8066,-0.0128,0.065,-0.0501,18.79,14.12,-29.97,7.82,-4.26,30.11
17,52.43164,-1.525722,0,0.0,19.017,0.0,0 / 20,8599,2020-03-21 10:23:03:247,0.1151,-0.0268,9.6683,-0.0012,-0.0002,9.8067,-0.0011,-0.0117,-0.0043,18.41,14.5,-29.1,6.62,-5.36,30.09
18,52.43164,-1.525722,0,0.0,19.017,0.0,0 / 20,9098,2020-03-21 10:23:03:746,0.1093,-0.0382,9.9378,0.0173,0.0121,9.8066,-0.0224,0.0362,0.0298,17.73,14.5,-28.29,3.16,-8.28,28.82
19,52.43164,-1.525722,0,0.0,19.017,0.0,0 / 20,9598,2020-03-21 10:23:04:246,-0.4273,-0.0975,9.0686,0.0724,0.0766,9.8061,-0.0352,0.0735,0.0874,15.48,13.0,-29.54,2.66,-11.76,25.17
20,52.43164,-1.525722,0,0.0,19.017,0.0,0 / 20,10099,2020-03-21 10:23:04:747,-0.0371,0.116,9.5786,0.0041,-0.0041,9.8066,0.0,0.0032,-0.0138,13.06,9.19,-29.04,5.88,-13.6,21.09
21,52.43164,-1.525722,0,0.0,19.017,0.0,0 / 20,10598,2020-03-21 10:23:05:246,-0.0093,0.1786,9.7525,0.0021,0.0003,9.8067,-0.0032,0.0042,0.0,13.44,9.57,-29.04,3.38,-13.74,21.22
22,52.43164,-1.525722,0,0.0,19.017,0.0,0 / 20,11099,2020-03-21 10:23:05:747,0.0214,-0.0735,9.8347,0.0004,-0.0009,9.8066,-0.0011,-0.0022,0.0107,12.69,8.88,-30.22,7.1,-13.85,21.28
23,52.43164,-1.525722,0,0.0,19.017,0.0,0 / 20,11599,2020-03-21 10:23:06:247,-0.184,0.2853,9.506,0.0002,0.0026,9.8067,-0.0064,0.0128,0.0011,13.06,9.19,-29.85,7.1,-13.88,21.28
24,52.43164,-1.525722,0,0.0,19.017,0.0,0 / 20,12098,2020-03-21 10:23:06:746,-0.3849,0.165,9.8109,-0.0005,-0.0022,9.8067,-0.0053,0.0128,-0.016,13.44,9.19,-29.85,7.09,-13.9,21.28
25,52.43164,-1.525722,0,0.0,19.017,0.0,0 / 20,12598,2020-03-21 10:23:07:246,0.0946,-0.0256,9.6188,-0.0004,0.0,9.8067,0.0,-0.0032,-0.0053,13.06,9.19,-29.41,6.14,-13.9,21.28
26,52.43164,-1.525722,0,0.0,19.017,0.0,0 / 20,13099,2020-03-21 10:23:07:747,-0.2242,0.1983,9.5672,0.0002,0.0008,9.8067,-0.0011,0.0042,-0.0138,13.06,9.57,-28.6,3.39,-13.88,21.24
27,52.43164,-1.525722,0,0.0,19.017,0.0,0 / 20,13599,2020-03-21 10:23:08:247,0.0142,-0.2246,9.7654,-0.0003,0.0008,9.8067,0.0032,-0.0064,0.0171,13.44,9.57,-28.97,3.35,-13.84,21.21
28,52.43164,-1.525722,0,0.0,19.017,0.0,0 / 20,14099,2020-03-21 10:23:08:747,-0.2193,0.3281,9.6291,0.0002,0.0002,9.8066,-0.0043,0.0128,-0.0202,12.69,10.32,-28.16,2.26,-13.82,21.16
29,52.43164,-1.525722,0,0.0,19.017,0.0,0 / 20,14603,2020-03-21 10:23:09:251,-0.0014,0.0606,9.5638,-0.0006,0.0018,9.8066,0.0053,0.0,-0.0064,15.62,11.82,-28.6,358.17,-13.8,21.14
30,52.43164,-1.525722,0,0.0,19.017,0.0,0 / 20,15098,2020-03-21 10:23:09:746,-0.3176,0.6807,9.6733,0.0026,0.003,9.8066,-0.0149,0.033,-0.049,13.44,9.57,-28.97,3.17,-13.79,21.09
31,52.43164,-1.525722,0,0.0,19.017,0.0,0 / 20,15598,2020-03-21 10:23:10:246,-0.0083,-0.3286,9.7711,-0.0004,-0.0015,9.8067,0.0053,-0.0096,0.0181,13.81,9.19,-30.22,6.46,-13.67,21.05
32,52.43164,-1.525722,0,0.0,19.017,0.0,0 / 20,16099,2020-03-21 10:23:10:747,0.0192,-0.1694,9.8616,0.0012,0.0009,9.8067,-0.0064,0.0128,-0.016,13.06,8.88,-31.04,7.65,-13.61,21.01
33,52.43164,-1.525722,0,0.0,19.017,0.0,0 / 20,16599,2020-03-21 10:23:11:247,0.1231,-0.0442,9.5421,-0.0009,-0.0005,9.8067,0.0021,0.001,-0.017,13.81,9.19,-29.79,6.33,-13.6,20.95
34,52.43164,-1.525722,0,0.0,19.017,0.0,0 / 20,17098,2020-03-21 10:23:11:746,0.0915,-0.1326,9.6207,0.0004,-0.0008,9.8067,-0.0043,0.0106,-0.0128,13.81,9.57,-28.6,2.82,-13.57,20.94
35,52.43164,-1.525722,0,0.0,19.017,0.0,0 / 20,17599,2020-03-21 10:23:12:247,0.021,0.08,9.7664,0.0009,-0.0009,9.8067,-0.0021,0.0074,0.0021,13.81,9.57,-27.72,1.84,-13.61,20.93
36,52.43164,-1.525722,0,0.0,19.017,0.0,0 / 20,18099,2020-03-21 10:23:12:747,0.1192,0.1288,9.5206,0.0,0.0022,9.8067,0.0053,-0.0043,-0.0064,13.44,9.57,-29.41,2.89,-13.58,20.9
37,52.43164,-1.525722,0,0.0,19.017,0.0,0 / 20,18599,2020-03-21 10:23:13:247,0.0142,-0.0739,9.7728,0.0004,0.0009,9.8067,-0.0021,0.0,0.0075,13.44,9.57,-30.22,3.84,-13.57,20.88
38,52.43164,-1.525722,0,0.0,19.017,0.0,0 / 20,19099,2020-03-21 10:23:13:747,0.1208,-0.2074,9.66,-0.0004,-0.0003,9.8066,0.0043,-0.0149,0.0171,13.44,9.57,-29.35,2.82,-13.55,20.85
39,52.43164,-1.525722,0,0.0,19.017,0.0,0 / 20,19598,2020-03-21 10:23:14:246,0.064,-0.1358,9.5796,0.0004,0.0001,9.8066,0.0032,-0.0053,0.0,13.81,9.25,-29.35,5.24,-13.53,20.83
40,52.43164,-1.525722,0,0.0,19.017,0.0,0 / 20,20098,2020-03-21 10:23:14:746,-0.1833,0.2554,9.5255,0.0,0.0006,9.8067,-0.0011,0.0064,-0.0149,13.44,9.25,-29.79,6.44,-13.51,20.82
41,52.43164,-1.525722,0,0.0,19.017,0.0,0 / 20,20598,2020-03-21 10:23:15:246,0.1674,-0.2198,9.5552,0.0003,0.0016,9.8067,0.0053,-0.0203,0.0181,14.12,9.57,-28.91,2.67,-13.5,20.83
42,52.43164,-1.525722,0,0.0,19.017,0.0,0 / 20,21099,2020-03-21 10:23:15:747,0.1648,-0.0307,9.5261,-0.0002,-0.0002,9.8067,0.0053,-0.0096,0.0011,13.06,9.57,-29.72,3.74,-13.48,20.81
43,52.43164,-1.525722,0,0.0,19.017,0.0,Jan-20,21598,2020-03-21 10:23:16:246,0.1325,0.1094,9.7199,0.0003,0.0009,9.8067,-0.0021,0.0138,-0.017,13.44,9.57,-29.72,3.71,-13.46,20.79
44,52.43164,-1.525722,0,0.0,19.017,0.0,Jan-20,22099,2020-03-21 10:23:16:747,-0.009,0.1324,9.8244,0.0011,-0.0002,9.8067,-0.0064,0.0117,-0.0032,13.37,8.88,-28.85,5.45,-13.45,20.79
45,52.43164,-1.525722,0,0.0,19.017,0.0,Jan-20,22598,2020-03-21 10:23:17:246,-0.0991,0.2672,9.6346,-0.0007,0.002,9.8067,-0.0032,0.0096,-0.0128,13.37,9.25,-28.85,5.43,-13.47,20.78
46,52.43164,-1.525722,0,0.0,19.017,0.0,Jan-20,23098,2020-03-21 10:23:17:746,0.1627,-0.2061,9.619,0.0005,0.0013,9.8067,0.0064,-0.0181,0.0181,13.75,9.25,-28.85,5.2,-13.46,20.79
47,52.43164,-1.525722,0,0.0,19.017,0.0,Jan-20,23598,2020-03-21 10:23:18:246,-0.1243,0.0327,9.6208,0.0025,-0.003,9.8066,0.0011,0.0064,-0.0053,13.75,9.25,-28.85,5.15,-13.44,20.76
48,52.43164,-1.525722,0,0.0,19.017,0.0,Jan-20,24099,2020-03-21 10:23:18:747,0.1247,-0.3385,9.5562,-0.0006,-0.0002,9.8067,0.0075,-0.0235,0.0181,13.37,9.25,-28.85,5.44,-13.44,20.78
49,52.43164,-1.525722,0,0.0,19.017,0.0,Jan-20,24598,2020-03-21 10:23:19:246,0.2072,0.1767,9.7972,0.0019,-0.0002,9.8067,0.0064,-0.0245,0.0171,14.12,9.57,-28.41,1.58,-13.4,20.75
50,52.43164,-1.525722,0,0.0,19.017,0.0,Jan-20,25099,2020-03-21 10:23:19:747,0.0634,-0.2509,9.7107,-0.0002,0.0006,9.8067,0.0043,-0.0075,-0.0032,15.71,7.8,-24.34,2.73,-13.39,20.75
51,52.43164,-1.525722,0,0.0,19.017,0.0,Feb-20,25599,2020-03-21 10:23:20:247,-0.1329,0.0647,9.8758,0.0003,-0.0007,9.8067,0.0043,-0.0107,0.0128,13.75,8.88,-27.6,4.19,-13.38,20.74
52,52.43164,-1.525722,0,0.0,19.017,0.0,Feb-20,26098,2020-03-21 10:23:20:746,-0.4191,0.1086,9.8229,-0.0208,0.0058,9.8066,-0.0021,0.0053,0.0096,13.75,9.63,-28.35,1.02,-12.49,20.34
53,52.43164,-1.525722,0,0.0,19.017,0.0,Feb-20,26599,2020-03-21 10:23:21:247,0.1407,-0.0646,9.8579,0.0147,-0.0121,9.8066,0.0032,0.0266,-0.0192,13.75,8.88,-27.97,3.64,-12.05,20.28
54,52.43164,-1.525722,0,0.0,19.017,0.0,Feb-20,27098,2020-03-21 10:23:21:746,-0.0049,0.165,9.6513,0.0,-0.0023,9.8067,0.0011,0.0234,-0.0394,13.75,8.88,-28.35,4.01,-12.24,20.54
55,52.43164,-1.525722,0,0.0,19.017,0.0,Feb-20,27598,2020-03-21 10:23:22:246,0.2514,-0.0518,9.664,0.0111,-0.0018,9.8066,-0.0107,0.0181,-0.0181,14.12,9.25,-29.16,5.34,-12.95,20.85
56,52.43164,-1.525722,0,0.0,19.017,0.0,Feb-20,28099,2020-03-21 10:23:22:747,0.0043,0.1358,9.5264,-0.0005,-0.0037,9.8067,-0.0021,0.0277,-0.0479,14.5,9.25,-28.79,5.4,-12.38,20.84
57,52.43164,-1.525722,0,0.0,19.017,0.0,Mar-20,28598,2020-03-21 10:23:23:246,-0.281,0.14,9.6179,-0.0026,0.0005,9.8067,-0.0277,0.0341,-0.0788,14.87,9.63,-29.16,2.9,-12.29,21.03
58,52.43164,-1.525722,0,0.0,19.017,0.0,Mar-20,29098,2020-03-21 10:23:23:746,-0.2362,0.0672,9.8534,-0.0198,0.0205,9.8066,-0.0288,0.0362,-0.0852,15.56,8.88,-28.79,5.06,-11.48,20.87
59,52.43164,-1.525722,0,0.0,19.017,0.0,Jul-20,29598,2020-03-21 10:23:24:246,-0.0808,-0.3006,9.3163,-0.003,-0.0024,9.8066,-0.0639,0.0841,-0.1321,17.06,9.25,-28.72,5.64,-10.26,21.37
60,52.43164,-1.525722,0,0.0,19.017,0.0,Jul-20,30098,2020-03-21 10:23:24:746,-0.0741,-0.6389,9.6214,-0.0196,-0.0467,9.8065,0.0692,-0.033,-0.2322,15.1,7.06,-30.6,10.2,-12.16,19.65
61,52.43164,-1.525722,0,0.0,19.017,0.0,Jul-20,30599,2020-03-21 10:23:25:247,0.1755,0.3578,9.408,-0.0048,-0.002,9.8066,0.0117,0.0287,-0.1364,17.66,7.81,-30.6,9.01,-11.36,21.27
62,52.43164,-1.525722,0,0.0,19.017,0.0,Jul-20,31099,2020-03-21 10:23:25:747,-0.5621,-0.871,8.3988,-0.0633,0.0462,9.8063,-0.1928,-0.0533,-0.0245,20.6,6.37,-30.22,12.25,-9.76,21.85
63,52.43164,-1.525722,0,0.0,19.017,0.0,Aug-20,31598,2020-03-21 10:23:26:246,-0.1281,-1.5864,9.9259,0.0069,-0.0972,9.8062,0.1406,-0.0245,-0.0362,21.28,7.03,-28.28,10.22,-9.37,23.15
64,52.43164,-1.525722,0,0.0,19.017,0.0,Aug-20,32099,2020-03-21 10:23:26:747,0.3163,0.4151,9.579,0.0054,-0.0333,9.8066,0.1044,-0.0181,0.0192,21.28,7.03,-29.09,10.41,-8.48,22.47
65,52.43164,-1.525722,0,0.0,19.017,0.0,Aug-20,32598,2020-03-21 10:23:27:246,0.3312,1.2765,8.7341,-0.0271,0.0529,9.8065,0.0415,-0.146,0.1097,20.97,7.78,-28.72,8.14,-8.62,22.31
66,52.43164,-1.525722,0,0.0,19.017,0.0,Aug-20,33099,2020-03-21 10:23:27:747,0.7654,0.7953,8.7544,0.0789,0.0949,9.8059,-0.0735,0.0309,0.2035,21.28,9.28,-26.28,6.17,-6.91,24.53
67,52.431602,-1.525507,157,1.85,29.0,102.4,Oct-20,33599,2020-03-21 10:23:28:247,-0.2418,-0.1909,10.2127,-0.0014,-0.0008,9.8067,0.0053,-0.0288,0.1587,18.08,9.02,-25.01,4.63,-7.31,23.51
68,52.431602,-1.525507,157,1.85,29.0,102.4,Oct-20,34099,2020-03-21 10:23:28:747,-0.2582,0.0099,9.5901,-0.0086,0.0019,9.8066,0.0501,-0.0842,0.1268,15.89,10.45,-25.45,0.9,-7.81,22.45
69,52.431602,-1.525507,157,1.85,29.0,102.4,Oct-20,34598,2020-03-21 10:23:29:246,-0.1847,-0.0896,9.6488,-0.0057,-0.0002,9.8066,0.0021,-0.0299,0.049,14.83,10.45,-25.83,2.08,-7.65,22.42
70,52.431602,-1.525507,157,1.85,29.0,102.4,Oct-20,35099,2020-03-21 10:23:29:747,0.3561,0.2042,9.5549,0.0053,0.0065,9.8066,-0.0053,-0.0256,0.0053,14.83,11.2,-25.01,358.16,-7.56,22.5
71,52.431602,-1.525507,157,1.85,29.0,102.4,Oct-20,35599,2020-03-21 10:23:30:247,0.0471,-0.0193,9.708,0.0085,0.0167,9.8066,-0.0554,0.0096,0.0341,14.08,10.83,-25.45,358.56,-7.66,22.83
72,52.431602,-1.525507,157,1.85,29.0,102.4,Oct-20,36098,2020-03-21 10:23:30:746,0.0661,-0.2977,9.6719,-0.0002,-0.0027,9.8066,-0.0107,-0.0267,0.0213,14.46,10.83,-25.39,358.84,-7.78,23.0
73,52.431602,-1.525507,157,1.85,29.0,102.4,Nov-20,36599,2020-03-21 10:23:31:247,0.5082,-0.5782,9.4709,0.0155,-0.027,9.8066,0.0511,-0.0256,0.0128,14.46,10.83,-25.01,358.75,-8.44,22.93
74,52.431602,-1.525507,157,1.85,29.0,102.4,Nov-20,37100,2020-03-21 10:23:31:748,0.5792,-0.3226,10.1601,0.0403,0.0023,9.8066,-0.0266,0.0149,0.0416,14.77,10.45,-24.58,2.88,-9.92,23.88
75,52.431602,-1.525507,157,1.85,29.0,102.4,Nov-20,37599,2020-03-21 10:23:32:247,0.0156,-0.5222,10.1726,0.022,-0.0296,9.8066,0.0373,-0.033,0.0437,13.56,10.3,-24.7,3.68,-11.59,24.42
76,52.431602,-1.525507,157,1.85,29.0,102.4,Nov-20,38099,2020-03-21 10:23:32:747,0.4673,0.3232,9.2375,0.014,-0.0039,9.8066,0.081,-0.0352,0.0533,12.65,11.31,-24.74,1.05,-12.57,24.47
77,52.431602,-1.525507,157,1.85,29.0,102.4,Nov-20,38598,2020-03-21 10:23:33:246,-0.1548,0.3904,9.4946,0.0105,0.0035,9.8066,0.0213,-0.0426,0.0554,12.27,13.57,-23.78,352.81,-13.81,25.5
78,52.431602,-1.525507,157,1.85,29.0,102.4,Nov-20,39098,2020-03-21 10:23:33:746,-0.5269,0.7792,10.0676,-0.0458,0.0363,9.8065,0.0128,-0.0703,0.081,11.85,13.11,-24.24,354.66,-12.92,24.95
79,52.431602,-1.525507,157,1.85,29.0,102.4,Nov-20,39598,2020-03-21 10:23:34:246,-0.1946,0.3068,9.2175,-0.012,0.0151,9.8066,0.0256,-0.0746,0.1161,10.77,13.68,-24.43,348.07,-11.58,23.13
80,52.431602,-1.525507,157,1.85,29.0,102.4,Nov-20,40098,2020-03-21 10:23:34:746,-0.348,-0.0033,10.5773,0.0111,0.0121,9.8066,-0.0075,-0.0032,0.1545,8.6,14.95,-24.54,343.04,-11.22,22.28
81,52.431602,-1.525507,157,1.85,29.0,102.4,Nov-20,40598,2020-03-21 10:23:35:246,-0.2359,-0.4008,10.3385,-0.0023,0.0088,9.8066,0.0021,-0.1129,0.1438,7.48,14.01,-25.45,338.78,-9.75,20.13
82,52.431602,-1.525507,157,1.85,29.0,102.4,Nov-20,41099,2020-03-21 10:23:35:747,-0.1634,-0.4534,9.7487,-0.0295,-0.0182,9.8066,0.0469,-0.0767,0.0756,5.35,14.12,-25.92,335.83,-10.67,19.28
83,52.431602,-1.525507,157,1.85,29.0,102.4,Nov-20,41598,2020-03-21 10:23:36:246,-0.8759,-1.0993,10.1532,-0.0035,-0.041,9.8066,0.0149,0.0831,-0.0192,4.22,13.94,-26.23,336.96,-10.48,20.64
84,52.431602,-1.525507,157,1.85,29.0,102.4,Nov-20,42099,2020-03-21 10:23:36:747,-0.0222,-0.87,10.2472,-0.0166,-0.0227,9.8066,-0.0969,0.0745,-0.1268,5.21,13.76,-26.14,345.22,-9.92,23.18
85,52.431602,-1.525507,157,1.85,29.0,102.4,Nov-20,42598,2020-03-21 10:23:37:246,-0.4053,-1.0675,10.5389,-0.0158,-0.0237,9.8066,-0.0469,0.0916,-0.1886,7.37,12.28,-26.36,359.92,-8.82,24.74
86,52.431602,-1.525507,157,1.85,29.0,102.4,Nov-20,43099,2020-03-21 10:23:37:747,-0.9362,-1.5083,10.1952,-0.0267,-0.0321,9.8066,-0.0511,0.1694,-0.3164,10.12,12.75,-25.2,1.32,-7.81,28.12
87,52.431602,-1.525507,157,1.85,29.0,102.4,0 / 20,43599,2020-03-21 10:23:38:247,0.5714,0.2747,9.2948,-0.0229,-0.0553,9.8065,-0.0256,0.1161,-0.2471,11.86,12.21,-24.71,6.91,-5.91,29.35
88,52.431602,-1.525507,157,1.85,29.0,102.4,0 / 20,44098,2020-03-21 10:23:38:746,-0.0729,-0.3557,10.2835,-0.0165,-0.011,9.8066,-0.0479,0.1161,-0.2152,13.13,11.59,-25.91,10.37,-5.39,30.5
89,52.431602,-1.525507,157,1.85,29.0,102.4,0 / 20,44598,2020-03-21 10:23:39:246,0.2174,0.2174,10.0072,0.0003,0.0057,9.8066,-0.0128,0.0788,-0.1555,14.42,11.15,-25.45,10.73,-5.44,30.33
90,52.431602,-1.525507,157,1.85,29.0,102.4,0 / 20,45099,2020-03-21 10:23:39:747,0.2137,0.4329,9.9983,-0.015,0.0196,9.8066,-0.0394,0.0106,-0.1055,15.55,10.09,-25.02,11.7,-5.38,29.95
91,52.431602,-1.525507,157,1.85,29.0,102.4,0 / 20,45599,2020-03-21 10:23:40:247,0.6225,0.4997,9.5099,0.0112,0.0287,9.8066,-0.0234,0.001,-0.0373,16.99,9.71,-26.27,10.81,-5.66,28.78
92,52.431602,-1.525507,157,1.85,29.0,102.4,0 / 20,46099,2020-03-21 10:23:40:747,0.0937,0.0154,9.7996,0.0135,0.0193,9.8066,-0.049,0.0213,0.0192,17.74,9.34,-25.52,11.17,-6.64,27.77
93,52.431602,-1.525507,157,1.85,29.0,102.4,Feb-20,46599,2020-03-21 10:23:41:247,0.3957,0.8747,10.1298,0.0258,0.0379,9.8065,-0.032,0.0799,0.0352,17.74,8.59,-25.89,8.18,-7.5,25.52
94,52.431602,-1.525507,157,1.85,29.0,102.4,Feb-20,47099,2020-03-21 10:23:41:747,0.0659,0.3283,9.8194,0.0079,0.0172,9.8066,-0.0064,0.0234,0.0117,16.67,8.21,-28.02,11.62,-8.84,24.56
95,52.431602,-1.525507,157,1.85,29.0,102.4,May-20,47599,2020-03-21 10:23:42:247,0.1113,0.9668,8.8345,0.0091,0.0086,9.8066,0.0,-0.0554,0.0352,16.3,8.96,-26.33,6.77,-9.85,24.16
96,52.431602,-1.525507,157,1.85,29.0,102.4,May-20,48099,2020-03-21 10:23:42:747,-0.1827,-0.0023,9.3933,0.0,0.002,9.8067,-0.0043,0.016,0.0128,15.55,9.34,-28.39,8.38,-10.19,23.84
97,52.431602,-1.525507,157,1.85,29.0,102.4,Aug-20,48599,2020-03-21 10:23:43:247,0.1848,0.4603,10.0442,0.014,0.0272,9.8066,-0.0117,0.0042,0.0256,16.3,9.34,-26.33,5.45,-10.8,23.24
98,52.431602,-1.525507,157,1.85,29.0,102.4,Aug-20,49098,2020-03-21 10:23:43:746,0.0039,0.0869,9.9155,0.0071,0.0006,9.8066,-0.016,0.0202,0.0437,15.55,9.34,-25.95,4.3,-11.26,22.39
99,52.431664,-1.524118,174,7.3,14.0,114.4,Sep-20,49599,2020-03-21 10:23:44:247,0.2308,-0.2031,9.5525,0.0195,-0.0096,9.8066,0.0149,-0.0139,0.0447,15.55,10.09,-26.39,1.99,-12.15,22.57
100,52.431664,-1.524118,174,7.3,14.0,114.4,Sep-20,50099,2020-03-21 10:23:44:747,0.3341,-0.1918,9.5034,-0.0006,-0.0032,9.8066,0.0085,-0.0512,0.032,14.86,10.77,-25.14,359.59,-13.28,23.44
101,52.431664,-1.524118,174,7.3,14.0,114.4,Sep-20,50598,2020-03-21 10:23:45:246,0.0052,-0.0013,9.894,0.0022,-0.0047,9.8066,0.0021,-0.0128,0.0192,15.17,11.15,-24.7,0.2,-13.22,23.9
102,52.431664,-1.524118,174,7.3,14.0,114.4,Sep-20,51098,2020-03-21 10:23:45:746,-0.0147,-0.661,9.6783,0.0058,-0.0192,9.8066,0.0341,-0.0341,0.0192,15.55,11.15,-25.58,2.17,-13.19,24.62
103,52.431664,-1.524118,174,7.3,14.0,114.4,0 / 20,51598,2020-03-21 10:23:46:246,0.1647,-0.051,9.7119,0.0029,-0.0068,9.8066,0.0096,-0.0022,0.033,15.24,11.52,-25.14,359.36,-12.81,25.16
104,52.431664,-1.524118,174,7.3,14.0,114.4,0 / 20,52099,2020-03-21 10:23:46:747,0.2433,0.0703,9.7648,-0.0058,0.0117,9.8066,-0.017,-0.0235,-0.0011,14.86,11.9,-24.7,359.72,-13.25,25.43
105,52.431664,-1.524118,174,7.3,14.0,114.4,0 / 20,52599,2020-03-21 10:23:47:247,-0.0766,-0.1385,9.6605,0.0037,0.0005,9.8066,-0.0053,-0.0053,0.0288,14.86,11.52,-24.7,359.11,-13.06,24.97
106,52.431664,-1.524118,174,7.3,14.0,114.4,0 / 20,53098,2020-03-21 10:23:47:746,-0.2945,-0.2782,9.6601,0.0057,-0.0019,9.8066,-0.0107,0.0096,0.0171,14.11,11.15,-25.14,1.87,-13.22,25.11
107,52.431664,-1.524118,174,7.3,14.0,114.4,Apr-20,53599,2020-03-21 10:23:48:247,-0.1828,0.2511,9.7364,0.0116,-0.0014,9.8066,0.0117,0.033,0.0011,15.17,10.09,-23.89,3.2,-13.17,25.15
108,52.431664,-1.524118,174,7.3,14.0,114.4,Apr-20,54098,2020-03-21 10:23:48:746,0.2374,0.8072,9.1713,-0.0062,0.0057,9.8066,0.0373,-0.0096,-0.0043,13.74,10.77,-24.7,2.03,-13.3,25.23
109,52.431664,-1.524118,174,7.3,14.0,114.4,Sep-20,54599,2020-03-21 10:23:49:247,-0.2151,0.5777,9.5046,-0.0142,0.0456,9.8065,-0.0543,-0.016,0.0288,14.28,12.42,-23.28,355.34,-12.61,24.07
110,52.431664,-1.524118,174,7.3,14.0,114.4,Sep-20,55099,2020-03-21 10:23:49:747,0.0412,0.4712,9.6862,-0.0167,0.0199,9.8066,-0.0096,-0.0309,0.0096,13.49,10.88,-24.49,357.21,-12.66,22.67
111,52.431664,-1.524118,174,7.3,14.0,114.4,Sep-20,55599,2020-03-21 10:23:50:247,0.3672,0.4516,9.1194,0.0014,0.0035,9.8067,0.0096,-0.0267,0.0139,13.36,9.71,-25.08,1.57,-11.95,22.87
112,52.431664,-1.524118,174,7.3,14.0,114.4,Sep-20,56098,2020-03-21 10:23:50:746,-0.0854,0.0004,9.7528,-0.0039,-0.0046,9.8066,0.0224,-0.0096,-0.0011,13.39,12.66,-23.67,352.0,-11.46,23.09
113,52.431664,-1.524118,174,7.3,14.0,114.4,Sep-20,56600,2020-03-21 10:23:51:248,0.2944,-0.2287,9.4625,0.0061,-0.0051,9.8066,0.0149,0.0138,0.0011,14.05,11.15,-25.02,0.2,-11.38,23.89
114,52.431664,-1.524118,174,7.3,14.0,114.4,Sep-20,57099,2020-03-21 10:23:51:747,0.084,-0.3296,9.5824,0.0104,-0.0066,9.8066,-0.0309,0.0309,0.0202,12.76,9.83,-25.31,4.26,-11.89,24.7
115,52.431664,-1.524118,174,7.3,14.0,114.4,Sep-20,57599,2020-03-21 10:23:52:247,-0.0336,-0.2161,9.9862,0.0062,0.009,9.8066,-0.0138,-0.0011,0.0171,12.61,10.77,-25.39,0.97,-12.61,24.41
116,52.431664,-1.524118,174,7.3,14.0,114.4,Sep-20,58099,2020-03-21 10:23:52:747,-0.0643,-0.1247,9.3922,-0.004,0.0002,9.8066,-0.0043,0.0223,-0.0053,12.63,10.79,-24.98,0.88,-12.93,24.35
117,52.431664,-1.524118,174,7.3,14.0,114.4,Sep-20,58599,2020-03-21 10:23:53:247,-0.1833,0.4556,9.6012,-0.0007,0.0068,9.8066,0.0064,-0.0053,-0.0043,11.94,11.23,-25.13,0.98,-13.22,24.39
118,52.431664,-1.524118,174,7.3,14.0,114.4,Sep-20,59099,2020-03-21 10:23:53:747,0.4207,0.3741,9.8357,0.0045,0.0137,9.8066,-0.0096,-0.0075,0.0043,12.05,10.62,-25.34,0.83,-13.44,24.3
119,52.431664,-1.524118,174,7.3,14.0,114.4,0 / 20,59598,2020-03-21 10:23:54:246,1.0435,1.1302,9.0116,0.0042,-0.0014,9.8066,0.0266,-0.0064,-0.0213,11.95,11.99,-24.77,357.45,-13.3,23.98
120,52.431664,-1.524118,174,7.3,14.0,114.4,0 / 20,60098,2020-03-21 10:23:54:746,0.5795,0.7166,9.6204,-0.0021,0.0075,9.8066,0.0245,-0.0682,0.016,15.55,13.34,-23.33,353.78,-13.31,24.36
121,52.431664,-1.524118,174,7.3,14.0,114.4,0 / 20,60598,2020-03-21 10:23:55:246,-0.1221,0.0359,9.7392,0.0056,-0.0043,9.8066,0.0075,-0.0022,0.0021,12.03,11.67,-24.88,358.07,-13.6,24.38
122,52.431664,-1.524118,174,7.3,14.0,114.4,0 / 20,61098,2020-03-21 10:23:55:746,1.4694,0.9299,8.7136,0.0094,0.0052,9.8066,0.0021,-0.0117,0.0075,11.86,10.74,-25.38,0.4,-13.33,24.01
123,52.431664,-1.524118,174,7.3,14.0,114.4,Mar-20,61598,2020-03-21 10:23:56:246,-0.2655,-0.3169,10.0965,-0.014,-0.0079,9.8066,-0.0021,-0.0022,0.0085,11.48,11.13,-25.39,0.74,-13.32,24.21
124,52.431664,-1.524118,174,7.3,14.0,114.4,Mar-20,62098,2020-03-21 10:23:56:746,0.5998,0.1672,9.5235,0.0045,-0.01,9.8066,0.0,-0.0256,-0.016,11.17,11.52,-25.45,358.0,-13.28,24.41
125,52.431664,-1.524118,174,7.3,14.0,114.4,Jun-20,62598,2020-03-21 10:23:57:246,0.6559,-0.4511,9.6538,0.0188,-0.0047,9.8066,-0.0138,-0.0096,-0.0011,11.9,12.33,-24.62,359.72,-14.75,25.45
126,52.431664,-1.524118,174,7.3,14.0,114.4,Jun-20,63099,2020-03-21 10:23:57:747,0.8434,0.4164,9.7861,0.0105,-0.0085,9.8066,0.0362,-0.0213,-0.0277,13.74,10.77,-25.02,3.33,-16.42,26.33
127,52.431664,-1.524118,174,7.3,14.0,114.4,Jun-20,63598,2020-03-21 10:23:58:246,0.4075,-0.2647,9.1738,0.0228,-0.0114,9.8066,-0.0011,-0.0373,0.0256,11.76,12.18,-24.77,2.6,-17.56,27.5
128,52.431664,-1.524118,174,7.3,14.0,114.4,Jun-20,64099,2020-03-21 10:23:58:747,-0.1371,-0.5308,9.5905,0.0022,-0.0078,9.8066,-0.0405,-0.0256,0.0128,12.2,11.47,-24.89,5.61,-17.97,27.84
129,52.431416,-1.522402,176,7.66,12.0,97.9,Sep-20,64598,2020-03-21 10:23:59:246,0.2091,-0.1695,9.2826,0.0203,-0.0093,9.8066,-0.0181,-0.0128,0.0075,11.17,12.27,-25.02,4.52,-19.85,28.87
130,52.431416,-1.522402,176,7.66,12.0,97.9,Sep-20,65098,2020-03-21 10:23:59:746,-0.0576,0.1067,10.4915,0.023,-0.0064,9.8066,0.0181,0.0639,0.0117,11.49,11.9,-25.02,4.09,-19.7,28.55
131,52.431416,-1.522402,176,7.66,12.0,97.9,Sep-20,65598,2020-03-21 10:24:00:246,0.043,0.2916,9.5849,0.006,0.0018,9.8066,-0.0011,-0.0022,-0.0075,11.49,12.27,-25.83,5.97,-20.39,29.01
132,52.431416,-1.522402,176,7.66,12.0,97.9,Sep-20,66099,2020-03-21 10:24:00:747,-0.0364,-0.0448,9.6577,0.0087,-0.0242,9.8066,0.0405,-0.0117,-0.0117,11.51,11.92,-25.01,5.33,-21.0,29.71
133,52.431416,-1.522402,176,7.66,12.0,97.9,0 / 20,66598,2020-03-21 10:24:01:246,0.0029,0.0911,9.4344,0.001,-0.0011,9.8067,0.0117,0.0,-0.0117,11.95,11.99,-24.77,5.49,-21.0,29.83
134,52.431416,-1.522402,176,7.66,12.0,97.9,0 / 20,67099,2020-03-21 10:24:01:747,-0.466,0.2254,9.7352,0.0015,0.0009,9.8066,-0.016,0.0202,-0.0064,11.13,12.3,-25.0,6.48,-20.9,30.37
135,52.431416,-1.522402,176,7.66,12.0,97.9,0 / 20,67598,2020-03-21 10:24:02:246,-0.1693,-0.0502,9.9986,-0.0106,-0.0009,9.8066,-0.0053,-0.0085,0.0032,11.49,13.02,-25.39,4.14,-20.65,30.45
136,52.431416,-1.522402,176,7.66,12.0,97.9,0 / 20,68098,2020-03-21 10:24:02:746,-0.5698,0.3683,9.6361,-0.0194,0.0032,9.8066,-0.0011,0.0042,-0.0106,11.97,12.77,-24.36,2.36,-19.93,30.23
137,52.431416,-1.522402,176,7.66,12.0,97.9,May-20,68598,2020-03-21 10:24:03:246,-0.2576,0.0234,9.7305,-0.0134,0.007,9.8066,-0.0011,-0.0075,0.0096,11.59,12.39,-24.74,5.69,-19.04,29.84
138,52.431416,-1.522402,176,7.66,12.0,97.9,May-20,69098,2020-03-21 10:24:03:746,-0.5902,0.2893,9.8156,-0.0091,-0.0001,9.8066,-0.0064,0.0191,-0.0138,11.59,12.39,-24.74,5.25,-18.15,29.45
139,52.431416,-1.522402,176,7.66,12.0,97.9,Jun-20,69599,2020-03-21 10:24:04:247,-0.0945,-0.1777,9.6499,-0.007,0.0002,9.8066,0.0107,-0.0192,0.0171,11.99,12.79,-24.34,0.93,-17.41,29.11
140,52.431416,-1.522402,176,7.66,12.0,97.9,Jun-20,70098,2020-03-21 10:24:04:746,-0.0698,-0.0527,9.534,-0.0048,0.0018,9.8066,0.0043,-0.0139,0.0107,11.74,12.54,-24.6,2.03,-16.97,28.89
141,52.431416,-1.522402,176,7.66,12.0,97.9,Sep-20,70599,2020-03-21 10:24:05:247,-0.0824,0.0599,9.7442,-0.0143,0.0069,9.8066,-0.0032,-0.0064,0.0117,11.94,13.15,-24.18,0.04,-16.23,28.47
142,52.431416,-1.522402,176,7.66,12.0,97.9,Sep-20,71099,2020-03-21 10:24:05:747,-0.8671,0.6262,9.8446,-0.0447,0.0196,9.8065,-0.0085,0.033,-0.0053,11.91,12.33,-24.62,2.41,-13.83,27.23
143,52.431416,-1.522402,176,7.66,12.0,97.9,Sep-20,71599,2020-03-21 10:24:06:247,0.0334,0.0854,9.641,0.0016,-0.0003,9.8067,0.0032,0.0213,-0.0181,11.86,13.02,-24.52,358.42,-12.26,26.48
144,52.431416,-1.522402,176,7.66,12.0,97.9,Sep-20,72099,2020-03-21 10:24:06:747,0.1013,0.1197,9.6069,0.0017,-0.0007,9.8067,-0.0011,0.0181,-0.0245,11.91,13.07,-24.23,357.16,-12.44,26.61
145,52.431416,-1.522402,176,7.66,12.0,97.9,Sep-20,72599,2020-03-21 10:24:07:247,0.5628,-0.6935,9.5797,0.0181,-0.0154,9.8066,0.0032,0.0138,-0.016,12.04,12.45,-24.49,0.63,-13.05,26.98
146,52.431416,-1.522402,176,7.66,12.0,97.9,Sep-20,73099,2020-03-21 10:24:07:747,0.2583,-0.1841,9.802,-0.0013,0.0,9.8067,-0.0075,0.0244,-0.0213,11.86,12.65,-24.95,358.86,-12.66,26.75
147,52.431416,-1.522402,176,7.66,12.0,97.9,Sep-20,73598,2020-03-21 10:24:08:246,-0.4233,-0.0292,9.8836,-0.0203,0.0127,9.8066,-0.0032,-0.0096,0.0213,11.86,12.65,-25.02,358.17,-11.82,26.33
148,52.431416,-1.522402,176,7.66,12.0,97.9,Sep-20,74099,2020-03-21 10:24:08:747,-0.96,0.5161,9.6135,-0.0318,0.0174,9.8066,0.0,-0.0224,-0.0128,12.99,12.64,-23.91,355.35,-10.07,25.44
149,52.431416,-1.522402,176,7.66,12.0,97.9,0 / 20,74599,2020-03-21 10:24:09:247,-1.1436,0.5259,9.8934,-0.0543,0.0355,9.8064,-0.0021,0.0074,-0.0032,12.83,12.48,-24.07,355.43,-6.86,23.81
150,52.431416,-1.522402,176,7.66,12.0,97.9,0 / 20,75098,2020-03-21 10:24:09:746,0.1126,0.2581,9.4937,-0.0162,0.0153,9.8066,-0.0043,-0.0054,0.0107,12.99,13.02,-24.14,349.74,-4.38,22.72
151,52.431416,-1.522402,176,7.66,12.0,97.9,Feb-20,75598,2020-03-21 10:24:10:246,0.5713,-0.1742,9.6886,0.0008,-0.0097,9.8066,0.0096,0.0234,-0.0064,12.41,12.83,-24.11,348.09,-3.63,22.37
152,52.431416,-1.522402,176,7.66,12.0,97.9,Feb-20,76099,2020-03-21 10:24:10:747,0.2753,0.352,9.6516,-0.0076,0.0165,9.8066,-0.0032,-0.0118,0.0032,12.35,12.39,-24.37,351.63,-3.62,22.27
153,52.431416,-1.522402,176,7.66,12.0,97.9,Oct-20,76599,2020-03-21 10:24:11:247,0.8144,-1.0021,9.7517,0.044,-0.0427,9.8065,-0.0043,-0.0192,-0.0085,12.37,13.16,-23.95,349.46,-4.99,22.84
154,52.431416,-1.522402,176,7.66,12.0,97.9,Oct-20,77098,2020-03-21 10:24:11:746,0.9154,-0.323,9.5029,0.0266,-0.027,9.8066,0.0139,-0.0118,0.0053,11.59,13.14,-24.35,351.31,-7.07,23.54
155,52.43131,-1.521888,175,3.94,8.0,98.0,Oct-20,77598,2020-03-21 10:24:12:246,-0.3122,-0.6794,9.5562,0.0035,-0.0021,9.8066,-0.0202,0.0308,-0.0149,12.24,13.02,-24.14,352.94,-8.19,24.34
156,52.43131,-1.521888,175,3.94,8.0,98.0,Oct-20,78099,2020-03-21 10:24:12:747,-0.2093,-0.0315,9.9336,-0.0007,-0.0047,9.8066,-0.0032,0.0319,-0.0149,12.61,12.27,-24.52,357.57,-8.1,24.17
157,52.43131,-1.521888,175,3.94,8.0,98.0,Oct-20,78599,2020-03-21 10:24:13:247,0.3328,-0.3892,9.7881,0.014,-0.005,9.8066,-0.0032,-0.0107,-0.0128,13.54,12.49,-23.68,356.17,-8.6,24.01
158,52.43131,-1.521888,175,3.94,8.0,98.0,Oct-20,79099,2020-03-21 10:24:13:747,0.6896,-0.3228,9.8624,0.0226,-0.0069,9.8066,0.0096,0.0063,-0.0181,13.21,11.78,-24.22,356.22,-10.4,24.08
159,52.43131,-1.521888,175,3.94,8.0,98.0,Oct-20,79598,2020-03-21 10:24:14:246,0.5357,-0.1514,9.9774,0.025,0.0035,9.8066,-0.0352,0.0458,-0.0149,11.49,10.77,-25.7,1.66,-12.05,23.91
160,52.43131,-1.521888,175,3.94,8.0,98.0,Oct-20,80099,2020-03-21 10:24:14:747,0.8922,-0.0013,9.7214,0.024,-0.0035,9.8066,-0.0202,0.0266,-0.0117,11.15,10.5,-25.8,5.36,-14.68,24.45
161,52.43131,-1.521888,175,3.94,8.0,98.0,Oct-20,80598,2020-03-21 10:24:15:246,0.836,-0.2796,9.5076,0.0634,-0.0104,9.8064,-0.0202,0.0298,0.0043,11.6,10.56,-25.57,4.27,-17.5,25.95
162,52.43131,-1.521888,175,3.94,8.0,98.0,Oct-20,81099,2020-03-21 10:24:15:747,0.3075,-0.2975,9.4891,0.0157,-0.0099,9.8066,0.0181,0.001,-0.0117,11.32,10.28,-25.81,8.24,-19.63,26.9
163,52.43131,-1.521888,175,3.94,8.0,98.0,Oct-20,81599,2020-03-21 10:24:16:247,-1.471,0.3968,10.0172,-0.0219,0.0113,9.8066,-0.0213,0.0181,-0.0202,10.8,11.59,-25.48,2.87,-19.89,27.69
164,52.43131,-1.521888,175,3.94,8.0,98.0,Oct-20,82099,2020-03-21 10:24:16:747,-1.1902,0.6875,9.5057,-0.0291,0.0146,9.8066,-0.0394,0.0063,-0.0426,11.49,10.77,-26.52,6.02,-18.46,26.24
165,52.43131,-1.521888,175,3.94,8.0,98.0,0 / 20,82599,2020-03-21 10:24:17:247,-1.5501,-0.5194,9.6025,-0.0823,-0.026,9.8063,-0.0085,-0.0171,-0.1033,12.61,10.09,-25.33,5.04,-14.69,25.44
166,52.43131,-1.521888,175,3.94,8.0,98.0,0 / 20,83099,2020-03-21 10:24:17:747,-0.5353,0.2484,10.3836,-0.0321,0.003,9.8066,-0.0575,0.0543,-0.2471,15.17,9.71,-25.77,6.32,-11.2,25.62
167,52.43131,-1.521888,175,3.94,8.0,98.0,0 / 20,83599,2020-03-21 10:24:18:247,-0.5287,-0.8152,9.9248,-0.0314,-0.0027,9.8066,-0.1577,0.1395,-0.326,15.77,7.83,-27.4,15.41,-7.6,27.52
168,52.43131,-1.521888,175,3.94,8.0,98.0,0 / 20,84098,2020-03-21 10:24:18:746,0.0329,-0.6808,10.3799,-0.0173,-0.0411,9.8065,-0.0224,0.1534,-0.4005,17.48,6.14,-27.57,21.99,-5.49,28.11
169,52.43131,-1.521888,175,3.94,8.0,98.0,0 / 20,84599,2020-03-21 10:24:19:247,0.1171,-0.7419,10.302,-0.0651,-0.0351,9.8064,-0.1161,0.0958,-0.3963,20.9,1.75,-29.57,30.46,-1.49,28.94
170,52.43131,-1.521888,175,3.94,8.0,98.0,0 / 20,85099,2020-03-21 10:24:19:747,0.1703,0.2852,9.4226,-0.0088,0.0156,9.8066,-0.0884,0.1086,-0.2248,19.46,-1.56,-29.57,39.2,-1.24,28.21
171,52.43131,-1.521888,175,3.94,8.0,98.0,Apr-20,85599,2020-03-21 10:24:20:247,0.0703,0.5853,10.5797,0.0045,0.0292,9.8066,-0.0618,0.0905,-0.1715,18.19,-2.97,-30.02,41.67,-1.3,27.53
172,52.43131,-1.521888,175,3.94,8.0,98.0,Apr-20,86099,2020-03-21 10:24:20:747,0.3659,0.6404,9.7309,0.014,0.0131,9.8066,0.0107,0.0777,-0.0905,18.94,-2.97,-30.02,39.23,-1.33,26.33
173,52.43131,-1.521888,175,3.94,8.0,98.0,Jul-20,86598,2020-03-21 10:24:21:246,0.2671,1.1454,9.9934,0.0052,0.0205,9.8066,-0.033,0.0202,-0.0596,18.56,-2.97,-30.46,37.98,-2.37,25.56
174,52.43131,-1.521888,175,3.94,8.0,98.0,Jul-20,87099,2020-03-21 10:24:21:747,-0.0672,0.5459,9.8213,-0.0293,0.0083,9.8066,-0.0511,-0.0618,-0.0319,18.94,-3.72,-31.27,38.83,-3.76,24.84
175,52.43113,-1.521479,178,7.77,10.0,166.0,Oct-20,87599,2020-03-21 10:24:22:247,-0.0016,0.2784,9.9704,0.0057,0.0159,9.8066,0.0,0.0372,0.0181,18.19,-4.1,-30.9,38.64,-4.74,23.68
176,52.43113,-1.521479,178,7.77,10.0,166.0,Oct-20,88098,2020-03-21 10:24:22:746,0.2073,0.5901,9.3011,-0.0039,0.0049,9.8066,0.0192,-0.0192,0.0043,18.94,-4.47,-31.71,36.93,-5.19,22.87
177,52.43113,-1.521479,178,7.77,10.0,166.0,Oct-20,88598,2020-03-21 10:24:23:246,-0.1853,-0.6029,10.622,-0.0044,0.0119,9.8066,-0.016,0.0223,-0.0192,17.88,-5.16,-31.77,38.63,-6.61,22.43
178,52.43113,-1.521479,178,7.77,10.0,166.0,Oct-20,89098,2020-03-21 10:24:23:746,0.2866,-0.0615,10.0125,0.0093,-0.0064,9.8066,0.0202,0.0298,0.0022,17.33,-4.98,-30.5,38.79,-7.17,22.01
179,52.43113,-1.521479,178,7.77,10.0,166.0,Oct-20,89598,2020-03-21 10:24:24:246,-0.0394,-0.3942,10.1063,0.0288,0.0097,9.8066,0.0128,0.0255,-0.0053,17.64,-4.67,-30.88,37.64,-7.07,22.16
180,52.43113,-1.521479,178,7.77,10.0,166.0,Oct-20,90099,2020-03-21 10:24:24:747,0.0833,0.1548,10.114,0.0322,0.004,9.8066,0.0128,0.0404,-0.0277,17.7,-4.67,-30.94,37.93,-7.47,22.77
181,52.43113,-1.521479,178,7.77,10.0,166.0,0 / 20,90598,2020-03-21 10:24:25:246,-0.1773,0.5538,9.5127,0.0041,0.0,9.8066,-0.0117,0.0159,-0.0298,18.39,-4.29,-32.19,37.24,-7.65,23.38
182,52.43113,-1.521479,178,7.77,10.0,166.0,0 / 20,91099,2020-03-21 10:24:25:747,0.1565,-0.0272,9.7641,0.0375,0.0034,9.8066,0.0064,0.05,-0.065,16.95,-4.98,-31.31,39.65,-8.92,24.24
183,52.43113,-1.521479,178,7.77,10.0,166.0,Mar-20,91598,2020-03-21 10:24:26:246,0.2108,-0.5732,10.059,0.0105,-0.0161,9.8066,0.0021,0.0415,-0.0469,17.7,-4.29,-30.94,37.21,-9.03,24.84
184,52.43113,-1.521479,178,7.77,10.0,166.0,Mar-20,92099,2020-03-21 10:24:26:747,0.4123,1.289,9.21,0.0098,0.0032,9.8066,-0.0128,0.0319,-0.0767,17.33,-4.67,-32.63,41.29,-9.26,25.35
185,52.43113,-1.521479,178,7.77,10.0,166.0,Jul-20,92598,2020-03-21 10:24:27:246,-0.4261,-1.2529,10.1058,0.0154,-0.0138,9.8066,0.033,-0.0075,0.0,18.39,-4.67,-32.63,40.23,-9.55,25.83
186,52.43113,-1.521479,178,7.77,10.0,166.0,Jul-20,93099,2020-03-21 10:24:27:747,-0.1216,-0.9531,10.6458,-0.0003,-0.0138,9.8066,-0.0107,0.0213,-0.0373,18.08,-6.85,-32.19,42.98,-9.39,26.27
187,52.43113,-1.521479,178,7.77,10.0,166.0,Aug-20,93599,2020-03-21 10:24:28:247,-0.2104,-0.3076,9.7927,0.0067,0.0152,9.8066,-0.0426,0.0308,-0.0522,16.95,-6.85,-31.75,44.72,-9.37,26.87
188,52.43113,-1.521479,178,7.77,10.0,166.0,Aug-20,94099,2020-03-21 10:24:28:747,0.0651,-0.2834,9.5879,-0.0019,0.0032,9.8066,-0.0426,0.0213,-0.0405,16.58,-7.6,-31.75,45.82,-9.75,26.84
189,52.43113,-1.521479,178,7.77,10.0,166.0,Aug-20,94599,2020-03-21 10:24:29:247,-0.0118,-0.0628,9.7099,0.0006,-0.0072,9.8066,-0.0064,-0.0032,-0.0437,15.2,-5.03,-30.93,43.75,-10.01,26.65
190,52.43113,-1.521479,178,7.77,10.0,166.0,Aug-20,95098,2020-03-21 10:24:29:746,-0.1599,-0.1584,9.647,-0.0011,-0.0037,9.8067,0.0021,-0.0288,-0.0373,16.32,-5.78,-31.36,44.12,-9.96,27.08
191,52.43113,-1.521479,178,7.77,10.0,166.0,Aug-20,95599,2020-03-21 10:24:30:247,1.3062,1.8717,8.0063,0.0022,0.0317,9.8066,-0.0501,-0.0746,-0.0671,15.95,-6.84,-31.74,45.62,-10.44,27.0
192,52.43113,-1.521479,178,7.77,10.0,166.0,Aug-20,96098,2020-03-21 10:24:30:746,-0.1372,0.3463,9.4481,-0.0005,0.0081,9.8066,-0.0202,-0.0064,-0.016,15.95,-8.34,-31.74,46.72,-10.56,26.78
193,52.43113,-1.521479,178,7.77,10.0,166.0,Aug-20,96599,2020-03-21 10:24:31:247,-0.0831,0.394,9.4809,0.0034,0.0079,9.8066,-0.0053,-0.0043,-0.0245,15.95,-8.34,-31.68,46.5,-10.9,26.73
194,52.43113,-1.521479,178,7.77,10.0,166.0,Aug-20,97098,2020-03-21 10:24:31:746,0.3009,-0.8615,9.8032,0.0015,0.0031,9.8067,0.017,0.0053,0.0011,14.82,-9.09,-31.68,49.1,-11.06,26.72
195,52.43113,-1.521479,178,7.77,10.0,166.0,Aug-20,97599,2020-03-21 10:24:32:247,0.0795,0.0342,9.6851,0.0017,0.0047,9.8067,-0.0085,0.0085,-0.0117,14.45,-7.97,-29.61,48.26,-11.19,26.31
196,52.43113,-1.521479,178,7.77,10.0,166.0,Aug-20,98099,2020-03-21 10:24:32:747,-0.0487,0.9758,10.0859,0.003,0.0147,9.8066,-0.0138,0.0692,-0.0298,14.82,-7.97,-32.49,47.07,-11.45,25.94
197,52.43113,-1.521479,178,7.77,10.0,166.0,0 / 20,98598,2020-03-21 10:24:33:246,-0.1971,-1.4227,10.2598,-0.004,-0.0108,9.8066,0.0043,-0.0288,0.0032,14.45,-8.34,-31.68,48.34,-11.45,25.69
198,52.43113,-1.521479,178,7.77,10.0,166.0,0 / 20,99099,2020-03-21 10:24:33:747,0.3935,0.234,9.8525,0.0021,-0.002,9.8067,0.0277,-0.0203,-0.0117,15.95,-8.72,-31.61,46.59,-11.57,25.44
199,52.43113,-1.521479,178,7.77,10.0,166.0,Feb-20,99599,2020-03-21 10:24:34:247,0.3182,0.5033,9.5728,-0.009,-0.0006,9.8066,0.0085,-0.0448,0.0053,14.82,-10.16,-31.61,49.48,-11.28,25.56
200,52.43113,-1.521479,178,7.77,10.0,166.0,Feb-20,100099,2020-03-21 10:24:34:747,-0.0219,-0.2521,8.8809,-0.0057,-0.0012,9.8066,0.0021,-0.0608,-0.0042,14.45,-7.59,-30.43,47.7,-11.6,25.82
201,52.43113,-1.521479,178,7.77,10.0,166.0,May-20,100598,2020-03-21 10:24:35:246,-0.2887,0.5096,9.8123,0.0021,0.0097,9.8066,-0.017,0.0276,0.0192,14.82,-8.34,-30.8,46.28,-11.42,25.27
202,52.43113,-1.521479,178,7.77,10.0,166.0,May-20,101098,2020-03-21 10:24:35:746,0.1335,-0.2591,10.1511,0.0109,-0.0007,9.8066,-0.0053,0.0543,-0.0074,13.7,-9.41,-31.24,49.05,-11.24,25.05
203,52.43113,-1.521479,178,7.77,10.0,166.0,Jun-20,101599,2020-03-21 10:24:36:247,-0.3281,0.2455,9.6666,0.0007,0.0058,9.8067,-0.016,0.0372,-0.0181,14.45,-8.34,-32.11,48.11,-10.96,24.97
204,52.43113,-1.521479,178,7.77,10.0,166.0,Jun-20,102099,2020-03-21 10:24:36:747,0.2997,0.1902,9.3153,0.0046,0.0047,9.8066,0.0053,0.0053,-0.0192,14.82,-7.97,-31.3,45.96,-11.19,24.64
205,52.43113,-1.521479,178,7.77,10.0,166.0,Oct-20,102598,2020-03-21 10:24:37:246,-0.0915,0.2973,10.066,0.0079,0.0057,9.8066,0.0213,0.0031,0.0,14.45,-9.09,-32.11,48.63,-11.32,24.09
206,52.43113,-1.521479,178,7.77,10.0,166.0,Oct-20,103099,2020-03-21 10:24:37:747,0.3406,1.4157,8.9893,-0.0012,0.0108,9.8066,-0.0096,0.0106,0.0064,14.07,-8.72,-32.11,48.18,-11.7,23.78
207,52.42945,-1.521662,175,12.27,8.0,192.4,Nov-20,103599,2020-03-21 10:24:38:247,0.0302,-0.0941,10.1039,0.0145,0.007,9.8066,0.0096,0.0564,0.0011,14.45,-9.78,-32.18,49.13,-11.92,23.41
208,52.42945,-1.521662,175,12.27,8.0,192.4,Nov-20,104099,2020-03-21 10:24:38:747,-0.1155,-0.2892,8.7512,-0.005,-0.0087,9.8066,-0.0149,-0.0277,-0.0234,14.14,-8.72,-31.3,47.53,-12.26,23.68
209,52.42945,-1.521662,175,12.27,8.0,192.4,Nov-20,104599,2020-03-21 10:24:39:247,0.189,0.8611,8.8624,0.0015,0.0266,9.8066,-0.017,0.0127,0.0203,14.82,-8.72,-32.11,46.81,-11.48,23.71
210,52.42945,-1.521662,175,12.27,8.0,192.4,Nov-20,105098,2020-03-21 10:24:39:746,-0.5786,0.2958,10.1942,-0.0135,0.0047,9.8066,-0.0373,0.0159,-0.0223,14.45,-9.09,-32.55,48.3,-11.6,23.5
211,52.42945,-1.521662,175,12.27,8.0,192.4,Nov-20,105599,2020-03-21 10:24:40:247,0.4145,-0.9385,9.5296,-0.0031,-0.0049,9.8066,0.0053,-0.0075,0.0565,13.76,-9.78,-32.11,49.26,-11.52,23.27
212,52.42945,-1.521662,175,12.27,8.0,192.4,Nov-20,106099,2020-03-21 10:24:40:747,-0.5285,-1.4899,11.0354,-0.0053,-0.0036,9.8066,0.0107,0.0266,0.0117,14.45,-9.41,-31.68,47.51,-11.63,22.79
213,52.42945,-1.521662,175,12.27,8.0,192.4,Nov-20,106599,2020-03-21 10:24:41:247,-0.5548,-0.6709,10.0572,0.0009,0.0001,9.8067,0.0117,0.017,0.0245,14.45,-8.72,-32.11,47.63,-11.5,22.85
214,52.42945,-1.521662,175,12.27,8.0,192.4,Feb-20,107098,2020-03-21 10:24:41:746,-0.1832,-0.0101,10.1094,0.0012,0.0025,9.8066,0.0021,0.0394,-0.0415,14.07,-8.72,-32.11,47.48,-11.74,22.85
215,52.42945,-1.521662,175,12.27,8.0,192.4,Feb-20,107598,2020-03-21 10:24:42:246,-0.2134,-0.7343,9.8642,-0.0007,-0.0088,9.8066,0.0117,-0.0139,-0.0064,14.07,-9.03,-32.05,47.12,-12.07,22.62
216,52.42945,-1.521662,175,12.27,8.0,192.4,Sep-20,108099,2020-03-21 10:24:42:747,-0.3022,0.5661,9.3344,0.0097,0.0181,9.8066,0.0085,-0.0128,0.0128,14.07,-9.41,-31.68,46.82,-12.04,22.19
217,52.42945,-1.521662,175,12.27,8.0,192.4,Sep-20,108598,2020-03-21 10:24:43:246,0.373,1.2873,9.0182,0.0085,-0.0006,9.8066,0.0405,0.0138,0.0053,14.45,-10.16,-30.43,47.52,-12.08,21.88
218,52.42945,-1.521662,175,12.27,8.0,192.4,Oct-20,109098,2020-03-21 10:24:43:746,-0.232,-0.3838,11.061,-0.0279,-0.0057,9.8066,-0.0234,-0.0256,0.0043,15.2,-8.34,-31.24,43.31,-11.71,21.5
219,52.42945,-1.521662,175,12.27,8.0,192.4,Oct-20,109599,2020-03-21 10:24:44:247,0.0669,-0.2286,9.9292,-0.0025,-0.0034,9.8066,-0.0011,0.0031,0.048,15.95,-8.72,-31.24,44.11,-11.31,22.15
220,52.42945,-1.521662,175,12.27,8.0,192.4,Oct-20,110098,2020-03-21 10:24:44:746,-0.1266,-0.9387,10.1963,-0.0002,-0.0025,9.8067,0.0245,-0.016,0.0192,15.89,-7.59,-31.61,42.87,-11.28,22.01
221,52.42945,-1.521662,175,12.27,8.0,192.4,Oct-20,110599,2020-03-21 10:24:45:247,0.7997,0.7889,9.121,-0.0058,-0.0019,9.8066,0.0181,0.0031,0.0235,16.26,-7.97,-31.18,42.63,-11.26,22.07
222,52.42945,-1.521662,175,12.27,8.0,192.4,Oct-20,111099,2020-03-21 10:24:45:747,0.4215,0.8782,9.8872,-0.0009,0.0064,9.8067,-0.0053,-0.0043,0.0011,15.89,-6.84,-31.18,40.76,-11.34,21.7
223,52.42945,-1.521662,175,12.27,8.0,192.4,Oct-20,111598,2020-03-21 10:24:46:246,-0.3833,0.0188,9.8917,-0.0011,0.0058,9.8066,0.0021,-0.0395,0.0639,16.64,-6.84,-30.8,39.14,-11.45,21.36
224,52.42945,-1.521662,175,12.27,8.0,192.4,Oct-20,112099,2020-03-21 10:24:46:747,0.088,0.0277,10.3235,0.0008,0.0122,9.8066,-0.017,-0.0032,0.0213,17.01,-6.47,-31.24,37.05,-12.0,21.09
225,52.42945,-1.521662,175,12.27,8.0,192.4,Oct-20,112598,2020-03-21 10:24:47:246,0.2089,0.0596,9.9243,-0.009,-0.0065,9.8066,0.0043,-0.0235,0.0256,16.64,-6.47,-31.24,36.76,-12.29,20.91
226,52.42945,-1.521662,175,12.27,8.0,192.4,Oct-20,113098,2020-03-21 10:24:47:746,1.0224,1.0702,9.0487,0.003,0.0054,9.8066,0.0053,-0.0267,0.0203,17.01,-5.78,-31.24,36.75,-12.3,20.91
227,52.42945,-1.521662,175,12.27,8.0,192.4,Oct-20,113599,2020-03-21 10:24:48:247,0.3521,0.0137,9.3556,-0.0018,-0.0091,9.8066,0.0181,-0.0523,0.0405,18.14,-5.03,-30.43,33.79,-12.19,21.12
228,52.42945,-1.521662,175,12.27,8.0,192.4,Oct-20,114098,2020-03-21 10:24:48:746,0.1003,-0.2166,9.343,0.0031,0.0035,9.8066,-0.0064,-0.0032,0.0522,17.76,-6.16,-30.49,35.54,-12.1,21.19
229,52.42945,-1.521662,175,12.27,8.0,192.4,Oct-20,114598,2020-03-21 10:24:49:246,0.204,0.094,9.3447,-0.0024,-0.0051,9.8066,0.0426,-0.0789,0.0469,16.32,-6.16,-30.86,38.22,-12.37,21.22
230,52.42945,-1.521662,175,12.27,8.0,192.4,0 / 20,115098,2020-03-21 10:24:49:746,-0.0041,-0.1971,9.4083,0.0025,-0.0044,9.8067,0.0362,-0.0363,0.0394,18.14,-1.72,-29.68,28.86,-12.35,21.57
231,52.42945,-1.521662,175,12.27,8.0,192.4,0 / 20,115598,2020-03-21 10:24:50:246,-0.0595,0.0902,9.6117,0.0014,-0.0005,9.8066,0.0032,-0.0171,0.0416,18.89,-4.28,-31.3,31.97,-12.28,21.78
232,52.42812,-1.521769,171,12.69,9.0,177.0,Aug-20,116098,2020-03-21 10:24:50:746,-0.1885,0.401,9.1191,-0.0081,-0.0003,9.8066,-0.0277,0.0106,0.0288,16.64,-3.91,-30.05,33.94,-12.27,21.99
233,52.42812,-1.521769,171,12.69,9.0,177.0,Aug-20,116599,2020-03-21 10:24:51:247,-0.1755,0.0809,9.6412,-0.0082,0.0113,9.8066,-0.0021,-0.0363,0.0501,17.01,-2.84,-30.86,32.06,-12.5,21.51
234,52.42812,-1.521769,171,12.69,9.0,177.0,Aug-20,117099,2020-03-21 10:24:51:747,-0.8093,-0.4783,10.5313,-0.0085,0.0112,9.8066,0.0554,-0.13,0.1513,17.39,-2.47,-31.3,29.38,-12.81,20.77
235,52.42812,-1.521769,171,12.69,9.0,177.0,Aug-20,117598,2020-03-21 10:24:52:246,0.0573,-0.246,9.557,0.0026,0.0055,9.8066,0.0149,-0.0043,0.0714,17.76,-2.84,-31.24,29.58,-12.86,20.17
236,52.42812,-1.521769,171,12.69,9.0,177.0,Aug-20,118098,2020-03-21 10:24:52:746,0.1938,-0.0295,9.7201,0.0106,-0.0047,9.8066,0.0309,-0.0288,0.049,16.35,-1.36,-30.01,26.88,-13.13,19.82
237,52.42812,-1.521769,171,12.69,9.0,177.0,Aug-20,118599,2020-03-21 10:24:53:247,-0.3022,-0.2276,9.3807,0.008,-0.0128,9.8066,0.0256,0.0085,0.0426,17.1,-1.74,-29.57,28.09,-12.89,19.97
238,52.42812,-1.521769,171,12.69,9.0,177.0,Aug-20,119098,2020-03-21 10:24:53:746,0.1771,-0.1427,9.7033,-0.0029,-0.0043,9.8066,0.0096,-0.0586,0.0607,17.1,-1.74,-28.32,27.66,-12.43,20.29
239,52.42812,-1.521769,171,12.69,9.0,177.0,Aug-20,119599,2020-03-21 10:24:54:247,0.0124,0.1175,9.6293,-0.0017,-0.0081,9.8066,0.0181,-0.0384,0.0277,17.1,-1.36,-28.76,26.87,-12.46,21.01
240,52.42812,-1.521769,171,12.69,9.0,177.0,Aug-20,120098,2020-03-21 10:24:54:746,-0.3713,-0.5235,9.8356,-0.0028,-0.0234,9.8066,0.0181,0.0181,-0.0447,16.72,-1.36,-29.57,28.91,-11.95,22.31
241,52.42812,-1.521769,171,12.69,9.0,177.0,Aug-20,120598,2020-03-21 10:24:55:246,0.3892,0.1066,9.9017,-0.0046,-0.0202,9.8066,-0.0043,0.0021,-0.0223,17.1,-0.99,-28.7,30.02,-11.2,23.7
242,52.42812,-1.521769,171,12.69,9.0,177.0,Aug-20,121099,2020-03-21 10:24:55:747,-0.2222,-0.3576,9.3327,-0.0067,-0.0045,9.8066,-0.0437,-0.0043,0.0,17.1,-0.99,-28.32,30.27,-10.88,24.46
243,52.42812,-1.521769,171,12.69,9.0,177.0,Aug-20,121598,2020-03-21 10:24:56:246,0.0685,-0.2462,9.0191,0.0209,-0.0168,9.8066,0.0543,0.0766,-0.0351,16.35,-0.99,-30.38,33.83,-10.64,25.53
244,52.42812,-1.521769,171,12.69,9.0,177.0,Aug-20,122098,2020-03-21 10:24:56:746,0.2162,-0.7394,9.8338,0.0002,-0.0183,9.8066,-0.0032,-0.0064,-0.033,17.1,0.82,-30.38,31.03,-9.94,27.34
245,52.42812,-1.521769,171,12.69,9.0,177.0,Aug-20,122599,2020-03-21 10:24:57:247,-0.5874,-0.5721,9.4137,-0.0098,-0.0263,9.8066,0.0085,0.0202,-0.0991,16.35,-2.8,-29.13,39.49,-9.53,28.08
246,52.42812,-1.521769,171,12.69,9.0,177.0,0 / 21,123098,2020-03-21 10:24:57:746,0.0846,0.3938,8.7084,-0.0189,-0.0039,9.8066,-0.0586,-0.0693,-0.0255,16.35,-0.99,-29.95,38.16,-9.06,29.38
247,52.42812,-1.521769,171,12.69,9.0,177.0,0 / 21,123599,2020-03-21 10:24:58:247,0.3374,0.8796,8.7815,-0.0071,0.012,9.8066,-0.0362,0.0319,-0.0192,16.72,-2.11,-29.57,37.85,-9.21,28.77
248,52.42812,-1.521769,171,12.69,9.0,177.0,Oct-21,124098,2020-03-21 10:24:58:746,0.5827,1.0625,8.853,0.0031,0.011,9.8066,-0.017,-0.0309,0.0085,17.1,-2.11,-30.01,37.59,-9.08,28.38
249,52.42812,-1.521769,171,12.69,9.0,177.0,Oct-21,124599,2020-03-21 10:24:59:247,-0.0959,0.5965,10.0512,-0.0034,-0.0239,9.8066,0.0085,0.0394,-0.0351,15.97,-3.55,-28.82,41.39,-9.11,28.19
250,52.427197,-1.521519,170,11.99,7.0,170.9,Oct-21,125098,2020-03-21 10:24:59:746,-0.1756,0.6401,9.831,-0.0026,0.019,9.8066,-0.0149,0.034,-0.0341,15.97,-3.55,-30.88,42.54,-9.03,28.17
251,52.427197,-1.521519,170,11.99,7.0,170.9,Oct-21,125599,2020-03-21 10:25:00:247,0.12,-0.1285,10.0372,-0.002,-0.0051,9.8066,0.0011,0.0213,-0.0437,16.03,-4.3,-32.13,42.52,-9.29,27.67
252,52.427197,-1.521519,170,11.99,7.0,170.9,Oct-21,126099,2020-03-21 10:25:00:747,0.0066,0.0709,9.8181,0.005,0.0029,9.8066,0.0021,0.0521,-0.0298,12.52,-2.53,-27.14,42.96,-9.29,27.98
253,52.427197,-1.521519,170,11.99,7.0,170.9,Oct-21,126598,2020-03-21 10:25:01:246,0.0789,-0.2702,10.0012,0.0019,0.0059,9.8066,-0.0032,0.05,-0.0458,16.72,-4.68,-29.63,41.37,-9.66,27.63
254,52.427197,-1.521519,170,11.99,7.0,170.9,Oct-21,127099,2020-03-21 10:25:01:747,-0.0957,-0.0605,9.9639,-0.0016,-0.0005,9.8066,-0.0032,0.0383,-0.0426,15.97,-5.05,-30.07,42.7,-9.53,27.46
255,52.427197,-1.521519,170,11.99,7.0,170.9,Oct-21,127599,2020-03-21 10:25:02:247,0.6136,0.5739,9.923,0.0043,0.0028,9.8066,-0.0032,0.017,-0.0671,15.66,-5.74,-30.07,44.04,-9.68,27.41
256,52.427197,-1.521519,170,11.99,7.0,170.9,Oct-21,128098,2020-03-21 10:25:02:746,0.3865,0.7459,9.5201,-0.0029,0.0036,9.8066,-0.0085,-0.0192,-0.0394,14.63,-4.47,-30.25,42.45,-9.68,27.36
257,52.427197,-1.521519,170,11.99,7.0,170.9,Oct-21,128599,2020-03-21 10:25:03:247,0.0778,-0.3962,9.9047,0.0108,-0.0068,9.8066,-0.0107,0.0159,-0.0234,15.69,-3.34,-31.5,40.09,-9.61,27.45
258,52.427197,-1.521519,170,11.99,7.0,170.9,Oct-21,129099,2020-03-21 10:25:03:747,0.1993,0.786,9.5644,0.0099,0.0167,9.8066,-0.0128,0.0255,-0.0266,14.94,-5.53,-31.87,46.25,-9.91,27.39
259,52.427197,-1.521519,170,11.99,7.0,170.9,Oct-21,129598,2020-03-21 10:25:04:246,-0.0099,0.0069,9.7356,-0.003,0.0037,9.8066,-0.0138,-0.0203,-0.0287,14.25,-5.16,-31.44,45.88,-10.05,27.5
260,52.427197,-1.521519,170,11.99,7.0,170.9,Oct-21,130099,2020-03-21 10:25:04:747,-0.1766,0.4899,9.8014,-0.0037,0.003,9.8066,-0.0213,0.0468,-0.0586,13.88,-5.53,-31.0,47.62,-9.94,27.82
261,52.427197,-1.521519,170,11.99,7.0,170.9,Oct-21,130599,2020-03-21 10:25:05:247,0.0492,0.3483,9.8932,-0.0028,0.0046,9.8066,-0.0128,0.0255,-0.0575,14.63,-5.16,-31.06,44.39,-10.13,27.59
262,52.427197,-1.521519,170,11.99,7.0,170.9,Oct-21,131098,2020-03-21 10:25:05:746,-0.0942,-0.1054,9.3269,0.0065,0.001,9.8066,0.0192,0.0063,-0.0287,13.88,-5.53,-31.44,47.58,-10.16,27.94
263,52.427197,-1.521519,170,11.99,7.0,170.9,Oct-21,131599,2020-03-21 10:25:06:247,-0.0679,-0.2915,9.9574,0.0004,-0.0003,9.8066,-0.0021,0.0213,-0.0394,13.88,-6.28,-31.0,47.42,-9.98,27.56
264,52.427197,-1.521519,170,11.99,7.0,170.9,Sep-21,132099,2020-03-21 10:25:06:747,-0.0908,0.2976,10.0872,0.0009,0.0017,9.8066,-0.0032,0.0308,-0.0309,13.13,-6.66,-32.25,50.69,-10.02,27.48
265,52.427197,-1.521519,170,11.99,7.0,170.9,Sep-21,132599,2020-03-21 10:25:07:247,0.246,-0.1251,9.8138,0.0106,-0.0071,9.8066,0.017,0.0245,-0.0703,13.88,-6.28,-30.19,47.03,-9.94,27.6
266,52.427197,-1.521519,170,11.99,7.0,170.9,Nov-21,133099,2020-03-21 10:25:07:747,1.5351,0.4715,11.9358,0.0279,0.0181,9.8066,0.0064,0.0255,-0.0341,13.13,-7.03,-30.62,50.1,-10.05,27.2
267,52.427197,-1.521519,170,11.99,7.0,170.9,Nov-21,133599,2020-03-21 10:25:08:247,-0.0682,0.3453,9.5001,-0.0008,-0.0105,9.8066,0.0011,0.0287,-0.0522,12.75,-7.72,-31.0,51.49,-10.04,27.29
268,52.42605,-1.521524,172,13.62,16.0,190.8,Nov-21,134098,2020-03-21 10:25:08:746,0.0561,0.1735,9.7658,-0.0024,-0.0001,9.8067,-0.0064,0.0074,-0.0277,13.5,-7.03,-30.19,48.65,-9.73,27.72
269,52.42605,-1.521524,172,13.62,16.0,190.8,Nov-21,134598,2020-03-21 10:25:09:246,0.2608,0.2995,9.0358,0.0032,0.0007,9.8067,-0.0085,0.0149,-0.0277,12.3,-6.16,-30.85,51.09,-9.55,27.72
270,52.42605,-1.521524,172,13.62,16.0,190.8,Nov-21,135099,2020-03-21 10:25:09:747,-0.0321,0.729,9.1473,0.0041,0.0014,9.8066,0.0107,0.001,-0.0479,11.92,-6.16,-30.91,50.97,-9.65,27.64
271,52.42605,-1.521524,172,13.62,16.0,190.8,Nov-21,135599,2020-03-21 10:25:10:247,-0.1108,-0.5289,9.7779,0.0125,-0.0104,9.8066,0.0245,0.0383,-0.0437,11.99,-7.59,-31.73,52.42,-9.4,27.62
272,52.42605,-1.521524,172,13.62,16.0,190.8,Nov-21,136099,2020-03-21 10:25:10:747,0.1002,0.5344,9.6875,-0.0044,0.0028,9.8067,-0.0181,-0.0139,-0.0128,11.24,-7.97,-31.35,55.75,-9.39,27.95
273,52.42605,-1.521524,172,13.62,16.0,190.8,Nov-21,136599,2020-03-21 10:25:11:247,0.1588,0.6625,9.898,-0.0099,0.0001,9.8066,-0.0415,0.0308,-0.0405,11.24,-7.97,-31.35,55.34,-9.53,27.46
274,52.42605,-1.521524,172,13.62,16.0,190.8,Nov-21,137099,2020-03-21 10:25:11:747,0.5839,-1.3674,8.8119,0.0042,-0.0135,9.8066,0.0479,-0.1023,-0.0085,10.86,-7.97,-32.6,55.86,-9.67,27.48
275,52.42605,-1.521524,172,13.62,16.0,190.8,Nov-21,137599,2020-03-21 10:25:12:247,0.2051,0.1827,9.208,0.0057,0.0068,9.8066,0.0085,0.0202,-0.0319,10.49,-7.59,-32.16,57.25,-9.7,27.36
276,52.42605,-1.521524,172,13.62,16.0,190.8,Nov-21,138099,2020-03-21 10:25:12:747,-0.0051,-0.2424,10.2024,0.0013,-0.0028,9.8067,0.0,0.0266,-0.0245,10.86,-7.97,-31.73,55.65,-9.63,27.57
277,52.42605,-1.521524,172,13.62,16.0,190.8,Nov-21,138598,2020-03-21 10:25:13:246,-0.0375,0.39,9.0459,-0.0005,0.0003,9.8067,-0.0043,0.0106,-0.0149,10.11,-8.72,-31.73,58.77,-9.51,27.7
278,52.42605,-1.521524,172,13.62,16.0,190.8,Nov-21,139099,2020-03-21 10:25:13:747,-0.3083,0.1545,9.6049,0.003,0.0042,9.8066,-0.0021,0.0181,-0.0373,9.74,-7.97,-32.54,58.17,-9.42,28.05
279,52.42605,-1.521524,172,13.62,16.0,190.8,Nov-21,139599,2020-03-21 10:25:14:247,0.0752,0.0209,9.9149,-0.0068,-0.0138,9.8066,0.0075,-0.0299,-0.0532,10.11,-8.34,-32.1,57.73,-9.44,27.82
280,52.42605,-1.521524,172,13.62,16.0,190.8,May-21,140099,2020-03-21 10:25:14:747,-0.1491,0.3337,9.3976,-0.0012,0.0067,9.8066,-0.0138,0.033,-0.0298,9.05,-8.72,-31.73,60.64,-9.47,27.69
281,52.42605,-1.521524,172,13.62,16.0,190.8,May-21,140599,2020-03-21 10:25:15:247,0.3292,-1.4128,9.6202,0.0092,-0.0003,9.8066,0.017,0.049,0.033,7.81,-7.33,-33.53,61.3,-9.41,28.44
282,52.42605,-1.521524,172,13.62,16.0,190.8,Jul-21,141099,2020-03-21 10:25:15:747,0.046,0.442,9.7301,-0.0264,0.0255,9.8066,-0.0064,0.034,-0.0064,7.43,-8.46,-33.97,63.4,-9.7,27.32
283,52.42605,-1.521524,172,13.62,16.0,190.8,Jul-21,141598,2020-03-21 10:25:16:246,-0.3772,0.8851,9.5335,-0.0058,0.0272,9.8066,-0.0202,-0.0086,-0.0074,7.43,-8.77,-33.09,62.82,-10.98,26.62
284,52.42605,-1.521524,172,13.62,16.0,190.8,Aug-21,142099,2020-03-21 10:25:16:747,-0.0773,0.0239,9.2955,-0.0033,0.0108,9.8066,-0.0053,-0.0096,-0.0234,7.43,-8.77,-33.09,61.9,-11.67,26.04
285,52.42605,-1.521524,172,13.62,16.0,190.8,Aug-21,142599,2020-03-21 10:25:17:247,0.378,-0.2585,10.1803,0.0032,0.0002,9.8067,0.016,-0.0001,0.0043,6.31,-9.14,-33.09,63.49,-11.94,25.8
286,52.42605,-1.521524,172,13.62,16.0,190.8,Aug-21,143099,2020-03-21 10:25:17:747,0.3243,-0.1869,9.9341,-0.0013,0.0003,9.8067,-0.0096,0.0191,-0.0096,6.68,-9.14,-33.09,61.31,-11.95,25.47
287,52.42605,-1.521524,172,13.62,16.0,190.8,Aug-21,143598,2020-03-21 10:25:18:246,0.3093,0.3936,9.7035,0.0109,-0.0036,9.8066,-0.0032,0.0319,-0.0437,7.06,-9.89,-32.28,62.53,-12.17,26.04
288,52.42605,-1.521524,172,13.62,16.0,190.8,Aug-21,144099,2020-03-21 10:25:18:747,0.7056,-0.1648,10.2836,-0.003,0.0035,9.8066,-0.032,0.0053,-0.0181,5.93,-10.27,-33.09,65.34,-11.46,26.48
289,52.42605,-1.521524,172,13.62,16.0,190.8,Aug-21,144599,2020-03-21 10:25:19:247,-0.1844,0.5421,9.4381,-0.0029,-0.0057,9.8067,-0.0192,-0.0043,-0.0213,5.93,-9.89,-32.28,65.26,-11.43,26.37
290,52.42605,-1.521524,172,13.62,16.0,190.8,Aug-21,145098,2020-03-21 10:25:19:746,0.4187,0.2682,9.5885,0.0096,0.0061,9.8066,-0.0341,0.034,-0.0266,5.93,-9.89,-33.47,65.46,-11.39,26.59
291,52.42605,-1.521524,172,13.62,16.0,190.8,Aug-21,145599,2020-03-21 10:25:20:247,0.5395,1.0167,9.7998,0.0326,0.0512,9.8065,-0.0181,0.0223,-0.017,5.56,-10.27,-34.28,64.36,-13.28,27.23
292,52.42605,-1.521524,172,13.62,16.0,190.8,Aug-21,146098,2020-03-21 10:25:20:746,0.4611,0.0078,9.8921,0.0141,0.0093,9.8066,0.017,-0.0001,-0.0138,6.31,-10.64,-33.09,64.22,-15.1,27.58
293,52.42605,-1.521524,172,13.62,16.0,190.8,Aug-21,146599,2020-03-21 10:25:21:247,-0.0494,0.5617,9.7821,0.0132,0.0177,9.8066,0.0021,0.0202,-0.0149,5.25,-10.96,-33.03,65.25,-16.76,28.25
294,52.42605,-1.521524,172,13.62,16.0,190.8,Aug-21,147099,2020-03-21 10:25:21:747,-0.1355,0.4026,9.4622,0.0122,0.0121,9.8066,0.0277,0.0223,-0.0032,5.25,-10.64,-32.22,64.5,-17.83,28.09
295,52.42605,-1.521524,172,13.62,16.0,190.8,Aug-21,147599,2020-03-21 10:25:22:247,0.0574,-0.1425,9.8179,-0.0141,0.0113,9.8066,-0.049,-0.0373,0.0192,4.87,-10.27,-33.09,62.11,-19.5,28.0
296,52.42605,-1.521524,172,13.62,16.0,190.8,0 / 21,148099,2020-03-21 10:25:22:747,-0.0362,-0.5575,9.7312,-0.0152,0.0112,9.8066,-0.0096,-0.0288,0.0373,5.56,-10.64,-31.4,60.8,-20.01,27.1
297,52.42605,-1.521524,172,13.62,16.0,190.8,0 / 21,148599,2020-03-21 10:25:23:247,-0.5757,-0.7205,9.8895,-0.0221,-0.0076,9.8066,-0.0064,-0.0128,0.016,4.87,-10.27,-29.78,60.66,-19.94,25.88
298,52.42605,-1.521524,172,13.62,16.0,190.8,Aug-21,149099,2020-03-21 10:25:23:747,-0.5575,0.7369,9.1376,-0.0037,0.0149,9.8066,0.0202,0.0234,0.0213,5.93,-10.64,-33.53,59.63,-19.41,25.22
299,52.42605,-1.521524,172,13.62,16.0,190.8,Aug-21,149599,2020-03-21 10:25:24:247,-0.1263,-0.0659,9.6315,0.0083,-0.0119,9.8066,0.0309,0.0074,0.0085,6.68,-9.14,-33.53,55.47,-19.0,24.8
300,52.42605,-1.521524,172,13.62,16.0,190.8,Sep-21,150098,2020-03-21 10:25:24:746,-0.0956,0.3547,9.9485,-0.0085,-0.0025,9.8066,-0.016,-0.0001,-0.0032,6.68,-9.89,-32.72,57.3,-18.79,25.3
301,52.42605,-1.521524,172,13.62,16.0,190.8,Sep-21,150599,2020-03-21 10:25:25:247,-0.3491,-0.6544,10.3733,-0.0059,-0.008,9.8066,-0.0032,-0.0022,0.0075,7.06,-10.64,-31.9,59.05,-17.52,24.78
302,52.42425,-1.522905,165,11.57,20.0,204.9,Sep-21,151098,2020-03-21 10:25:25:746,-0.1784,-0.2955,9.5615,-0.0015,-0.0101,9.8066,0.0128,-0.0054,-0.0042,7.06,-11.02,-33.59,59.83,-16.7,25.21
303,52.42425,-1.522905,165,11.57,20.0,204.9,Sep-21,151599,2020-03-21 10:25:26:247,0.0298,-0.3356,9.5924,0.0074,0.0055,9.8066,-0.017,0.0564,0.0096,6.0,-9.52,-33.59,61.1,-16.49,25.98
304,52.42425,-1.522905,165,11.57,20.0,204.9,Sep-21,152098,2020-03-21 10:25:26:746,0.4531,-0.4862,9.41,-0.002,-0.0078,9.8066,-0.032,0.0053,0.0022,7.06,-10.27,-32.78,59.56,-16.32,26.11
305,52.42425,-1.522905,165,11.57,20.0,204.9,Sep-21,152599,2020-03-21 10:25:27:247,-0.0216,-0.0087,9.9725,0.0022,-0.0032,9.8066,-0.0149,-0.0182,-0.001,7.06,-10.27,-32.34,59.2,-16.57,25.84
306,52.42425,-1.522905,165,11.57,20.0,204.9,Sep-21,153098,2020-03-21 10:25:27:746,-0.1801,-0.318,9.9561,0.0123,-0.0074,9.8066,0.0202,0.0063,0.0075,6.31,-10.27,-33.59,61.21,-16.69,26.37
307,52.42425,-1.522905,165,11.57,20.0,204.9,Sep-21,153599,2020-03-21 10:25:28:247,0.1432,-0.1982,9.6772,-0.0046,-0.0354,9.8066,0.0128,-0.0608,-0.0138,6.31,-10.27,-33.97,61.41,-16.81,26.8
308,52.42425,-1.522905,165,11.57,20.0,204.9,Sep-21,154098,2020-03-21 10:25:28:746,-0.413,-0.0318,9.4356,-0.0058,-0.0083,9.8066,0.0085,-0.0139,-0.017,6.68,-9.89,-33.15,59.7,-16.57,26.56
309,52.42425,-1.522905,165,11.57,20.0,204.9,Sep-21,154598,2020-03-21 10:25:29:246,0.1016,0.3031,9.6526,-0.0044,0.0142,9.8066,-0.0021,-0.0128,0.0203,7.43,-10.27,-33.53,59.74,-16.46,26.5
310,52.42425,-1.522905,165,11.57,20.0,204.9,Sep-21,155099,2020-03-21 10:25:29:747,-0.0624,0.0638,9.5339,-0.005,-0.0019,9.8066,0.0096,-0.0182,0.0245,7.43,-10.27,-32.72,59.65,-16.3,26.21
311,52.42425,-1.522905,165,11.57,20.0,204.9,Sep-21,155599,2020-03-21 10:25:30:247,-0.0308,-0.0683,9.6642,-0.0018,0.0005,9.8067,0.0011,-0.0299,0.0352,8.18,-10.27,-33.15,57.93,-16.09,25.99
312,52.42425,-1.522905,165,11.57,20.0,204.9,0 / 21,156098,2020-03-21 10:25:30:746,-0.0084,0.1452,9.6066,-0.0017,0.0056,9.8067,0.0043,-0.0096,0.048,7.81,-10.64,-31.9,58.76,-16.24,25.65
313,52.42425,-1.522905,165,11.57,20.0,204.9,0 / 21,156599,2020-03-21 10:25:31:247,-0.2701,-0.1355,9.8052,0.0023,-0.0041,9.8066,0.0021,0.0085,0.0267,8.18,-10.64,-32.28,58.87,-16.14,25.71
314,52.42425,-1.522905,165,11.57,20.0,204.9,Mar-21,157099,2020-03-21 10:25:31:747,0.3509,0.033,9.7039,0.0068,-0.0024,9.8066,0.016,-0.0192,0.033,8.5,-11.33,-32.72,58.95,-16.18,25.85
315,52.42425,-1.522905,165,11.57,20.0,204.9,Mar-21,157598,2020-03-21 10:25:32:246,-0.2078,-0.0473,9.7993,-0.0012,-0.0037,9.8067,-0.0053,0.0117,0.0117,8.18,-11.02,-32.72,59.19,-15.86,25.89
316,52.42425,-1.522905,165,11.57,20.0,204.9,May-21,158098,2020-03-21 10:25:32:746,0.0838,-0.1726,9.7651,-0.0081,-0.008,9.8066,0.0,-0.0086,0.0203,8.87,-10.64,-32.28,57.69,-15.37,25.73
317,52.42425,-1.522905,165,11.57,20.0,204.9,May-21,158598,2020-03-21 10:25:33:246,0.179,-0.1031,9.4139,-0.0102,-0.0074,9.8066,0.0117,-0.0352,0.016,8.87,-10.64,-31.47,57.81,-14.86,25.53
318,52.42425,-1.522905,165,11.57,20.0,204.9,Jun-21,159098,2020-03-21 10:25:33:746,-0.2035,-0.0728,9.391,-0.0225,-0.0136,9.8066,0.0075,-0.016,-0.0053,9.25,-11.33,-30.59,58.15,-13.84,25.05
319,52.42425,-1.522905,165,11.57,20.0,204.9,Jun-21,159599,2020-03-21 10:25:34:247,-0.0792,-0.0961,9.7815,-0.0073,-0.0035,9.8066,0.0032,-0.0128,-0.0064,8.87,-10.96,-31.03,58.55,-12.69,24.48
320,52.42376,-1.523603,164,8.68,42.0,213.6,Jul-21,160099,2020-03-21 10:25:34:747,0.0053,-0.1321,9.4875,-0.0121,-0.0082,9.8066,0.0075,-0.0192,-0.0032,9.62,-10.27,-31.4,55.81,-11.96,24.11
321,52.42376,-1.523603,164,8.68,42.0,213.6,Jul-21,160598,2020-03-21 10:25:35:246,-0.034,-0.1937,9.497,-0.0079,-0.006,9.8066,0.0064,-0.0182,-0.0064,9.62,-10.64,-31.03,57.19,-11.55,23.9
322,52.42376,-1.523603,164,8.68,42.0,213.6,Jul-21,161099,2020-03-21 10:25:35:747,-0.2673,-0.0071,9.8689,-0.0022,-0.0015,9.8067,-0.0064,0.0276,-0.0138,8.87,-10.64,-31.03,59.11,-11.22,23.73
323,52.42376,-1.523603,164,8.68,42.0,213.6,Jul-21,161599,2020-03-21 10:25:36:247,0.0012,-0.1857,9.55,-0.0023,0.0004,9.8067,0.0053,-0.0096,-0.0064,9.25,-10.96,-31.4,59.2,-11.01,23.64
324,52.42376,-1.523603,164,8.68,42.0,213.6,Jul-21,162098,2020-03-21 10:25:36:746,-0.176,0.3097,9.9247,-0.0014,0.0039,9.8066,-0.0085,0.0266,-0.0117,9.25,-10.64,-32.28,59.34,-10.93,23.57
325,52.42376,-1.523603,164,8.68,42.0,213.6,Jul-21,162599,2020-03-21 10:25:37:247,0.3868,-0.0084,9.4309,-0.0022,-0.0005,9.8067,0.0107,-0.0277,0.0128,9.62,-10.96,-30.59,57.43,-10.89,23.57
