,GPS LATITUDE (degrees),GPS LONGITUDE (degrees), GPS ALTITUDE (m),GPS SPEED (Kmh),GPS ACCURACY (m),GPS ORIENTATION (Â°), SATELLITES IN RANGE, TIME SINCE START (ms), DATE (YYYY-MO-DD HH-MI-SS_SSS),ACCELEROMETER X (m/s²) , ACCELEROMETER Y (m/s²), ACCELEROMETER Z (m/s²), GRAVITY X (m/s²), GRAVITY Y (m/s²), GRAVITY Z (m/s²), GYROSCOPE Yaw (rad/s), GYROSCOPE Pitch (rad/s), GYROSCOPE Roll (rad/s)
61536,47.590836,-1.627477,84.54,30.16,5.36,178.4,Nov-21,6154797,2019-08-18 16:56:17:334,-0.7523,-0.1053,10.4701,-0.5356,-0.2136,9.7897,0.003,-0.0135,0.0
61537,47.590836,-1.627477,84.54,30.16,5.36,178.4,Nov-21,6154898,2019-08-18 16:56:17:435,-0.456,-0.2771,10.1708,-0.524,-0.2121,9.7903,-0.0025,-0.0086,-0.0009
61538,47.590836,-1.627477,84.54,30.16,5.36,178.4,Nov-21,6154997,2019-08-18 16:56:17:534,-0.4052,0.0353,9.2999,-0.5235,-0.217,9.7903,-0.0101,0.0104,-0.0012
61539,47.590836,-1.627477,84.54,30.16,5.36,178.4,Nov-21,6155096,2019-08-18 16:56:17:633,-0.6302,-0.1233,9.1671,-0.5383,-0.2315,9.7891,-0.0123,0.0129,-0.0017
61540,47.590836,-1.627477,84.54,30.16,5.36,178.4,13 / 19,6155197,2019-08-18 16:56:17:734,-0.2926,-0.4004,9.039,-0.5432,-0.2387,9.7887,-0.0106,0.0069,-0.0007
61541,47.590836,-1.627477,84.54,30.16,5.36,178.4,13 / 19,6155297,2019-08-18 16:56:17:834,-0.3776,-0.3388,10.1277,-0.5452,-0.2444,9.7884,0.0031,-0.0107,-0.0006
61542,47.590836,-1.627477,84.54,30.16,5.36,178.4,13 / 19,6155397,2019-08-18 16:56:17:934,-0.5566,-0.1652,10.4156,-0.536,-0.2423,9.789,0.0093,-0.0077,0.0001
61543,47.590836,-1.627477,84.54,30.16,5.36,178.4,13 / 19,6155497,2019-08-18 16:56:18:034,-0.3273,-0.4322,10.6347,-0.5288,-0.2369,9.7895,0.0092,-0.0048,0.0
61544,47.590836,-1.627477,84.54,30.16,5.36,178.4,13 / 19,6155598,2019-08-18 16:56:18:135,-0.6488,-0.0838,10.0146,-0.5241,-0.2269,9.79,0.0057,0.009,0.0001
61545,47.590836,-1.627477,84.54,30.16,5.36,178.4,13 / 19,6155697,2019-08-18 16:56:18:234,-0.7302,0.2095,9.4747,-0.5345,-0.2249,9.7895,-0.0102,0.0051,-0.0021
61546,47.590836,-1.627477,84.54,30.16,5.36,178.4,13 / 19,6155797,2019-08-18 16:56:18:334,-0.5883,-0.3011,9.5986,-0.5424,-0.235,9.7888,-0.0099,-0.003,-0.0024
61547,47.590836,-1.627477,84.54,30.16,5.36,178.4,13 / 19,6155897,2019-08-18 16:56:18:434,-0.5434,-0.313,9.5848,-0.5392,-0.2434,9.7888,0.0048,0.0014,-0.0012
61548,47.590836,-1.627477,84.54,30.16,5.36,178.4,13 / 19,6155997,2019-08-18 16:56:18:534,-0.7164,-0.1095,9.4639,-0.5425,-0.2413,9.7887,0.0017,0.0043,-0.0007
61549,47.590836,-1.627477,84.54,30.16,5.36,178.4,16 / 22,6156098,2019-08-18 16:56:18:635,-0.5327,-0.2837,10.1241,-0.5439,-0.2467,9.7884,-0.0088,-0.0049,-0.0016
61550,47.590836,-1.627477,84.54,30.16,5.36,178.4,16 / 22,6156197,2019-08-18 16:56:18:734,-0.6099,-0.1311,9.2281,-0.5438,-0.2587,9.7881,-0.0042,0.0033,-0.0019
61551,47.590836,-1.627477,84.54,30.16,5.36,178.4,16 / 22,6156299,2019-08-18 16:56:18:836,-0.7302,-0.3501,9.8374,-0.5522,-0.264,9.7875,-0.0019,0.0082,0.0006
61552,47.590836,-1.627477,84.54,30.16,5.36,178.4,16 / 22,6156398,2019-08-18 16:56:18:935,-0.7559,0.0018,10.1451,-0.5647,-0.2627,9.7869,0.0029,-0.0105,0.002
61553,47.590836,-1.627477,84.54,30.16,5.36,178.4,16 / 22,6156497,2019-08-18 16:56:19:034,-0.4267,-0.2933,10.2786,-0.5594,-0.2613,9.7872,0.0021,-0.0167,0.0005
61554,47.590836,-1.627477,84.54,30.16,5.36,178.4,16 / 22,6156597,2019-08-18 16:56:19:134,-0.3705,-0.5962,9.8698,-0.5405,-0.2614,9.7883,0.0002,-0.0067,-0.0032
61555,47.590836,-1.627477,84.54,30.16,5.36,178.4,16 / 22,6156697,2019-08-18 16:56:19:234,-0.7625,-0.3124,10.1211,-0.5363,-0.262,9.7885,-0.0023,-0.0071,-0.0036
61556,47.590836,-1.627477,84.54,30.16,5.36,178.4,16 / 22,6156797,2019-08-18 16:56:19:334,-0.4321,-0.3765,10.5,-0.5317,-0.2689,9.7885,0.0002,0.0025,-0.0022
61557,47.590836,-1.627477,84.54,30.16,5.36,178.4,16 / 22,6156897,2019-08-18 16:56:19:434,-0.4501,-0.2167,10.3947,-0.5324,-0.2698,9.7885,0.0009,-0.0062,0.0005
61558,47.590836,-1.627477,84.54,30.16,5.36,178.4,16 / 22,6156997,2019-08-18 16:56:19:534,-0.4656,-0.2406,9.6567,-0.5255,-0.2631,9.789,0.0143,-0.008,0.0024
61559,47.590836,-1.627477,84.54,30.16,5.36,178.4,16 / 22,6157097,2019-08-18 16:56:19:634,-0.4794,-0.1855,9.8584,-0.5219,-0.254,9.7895,0.0154,0.0011,0.0026
61560,47.588417,-1.627413,88.73,29.48,7.504,179.2,17 / 23,6157197,2019-08-18 16:56:19:734,-0.5883,-0.161,9.7075,-0.5295,-0.2422,9.7894,-0.0001,0.0067,-0.0005
61561,47.588417,-1.627413,88.73,29.48,7.504,179.2,17 / 23,6157297,2019-08-18 16:56:19:834,-0.5811,-0.3268,9.8763,-0.5313,-0.2422,9.7892,-0.0051,-0.0069,-0.0024
61562,47.588417,-1.627413,88.73,29.48,7.504,179.2,17 / 23,6157397,2019-08-18 16:56:19:934,-0.5033,-0.5279,9.6549,-0.5182,-0.2438,9.7899,0.0063,-0.0045,-0.004
61563,47.588417,-1.627413,88.73,29.48,7.504,179.2,17 / 23,6157497,2019-08-18 16:56:20:034,-0.477,-0.5722,10.4025,-0.5161,-0.2413,9.7901,0.0013,-0.0065,-0.0037
61564,47.588417,-1.627413,88.73,29.48,7.504,179.2,17 / 23,6157597,2019-08-18 16:56:20:134,-0.5722,-0.2424,10.2277,-0.5059,-0.243,9.7906,0.0006,-0.0084,-0.0026
61565,47.588417,-1.627413,88.73,29.48,7.504,179.2,17 / 23,6157697,2019-08-18 16:56:20:234,-0.5907,-0.1024,9.7375,-0.501,-0.2431,9.7908,-0.0002,0.0042,-0.0022
61566,47.588417,-1.627413,88.73,29.48,7.504,179.2,17 / 23,6157797,2019-08-18 16:56:20:334,-0.4644,-0.2251,9.2514,-0.5036,-0.2497,9.7905,-0.0059,0.0057,-0.0024
61567,47.588417,-1.627413,88.73,29.48,7.504,179.2,17 / 23,6157897,2019-08-18 16:56:20:434,-0.65,-0.2436,9.8925,-0.5058,-0.2497,9.7904,-0.0002,-0.0127,-0.0024
61568,47.588417,-1.627413,88.73,29.48,7.504,179.2,17 / 23,6157997,2019-08-18 16:56:20:534,-0.4752,0.0718,9.3927,-0.4918,-0.2516,9.7911,0.0006,-0.0036,-0.0023
61569,47.588417,-1.627413,88.73,29.48,7.504,179.2,Dec-17,6158097,2019-08-18 16:56:20:634,-0.4914,-0.3914,9.4095,-0.4965,-0.2516,9.7908,0.0004,0.0112,-0.0021
61570,47.588417,-1.627413,88.73,29.48,7.504,179.2,Dec-17,6158197,2019-08-18 16:56:20:734,-0.4686,-0.103,9.2,-0.5136,-0.25,9.79,-0.0007,0.0192,-0.0001
61571,47.588417,-1.627413,88.73,29.48,7.504,179.2,Dec-17,6158297,2019-08-18 16:56:20:834,-0.5464,-0.1862,10.0308,-0.5226,-0.2551,9.7894,-0.0041,-0.0059,-0.0017
61572,47.588417,-1.627413,88.73,29.48,7.504,179.2,Dec-17,6158397,2019-08-18 16:56:20:934,-0.2555,-0.1796,10.0918,-0.5122,-0.2522,9.79,0.0049,-0.0086,-0.0022
61573,47.588417,-1.627413,88.73,29.48,7.504,179.2,Dec-17,6158497,2019-08-18 16:56:21:034,-0.4106,-0.2035,10.4916,-0.5037,-0.2478,9.7906,0.0116,-0.0028,-0.0013
61574,47.588417,-1.627413,88.73,29.48,7.504,179.2,Dec-17,6158598,2019-08-18 16:56:21:135,-0.3417,-0.1694,9.9565,-0.4939,-0.2347,9.7914,0.0067,-0.0137,-0.0022
61575,47.588417,-1.627413,88.73,29.48,7.504,179.2,Dec-17,6158697,2019-08-18 16:56:21:234,-0.1807,-0.1604,9.9086,-0.4858,-0.232,9.7919,-0.0001,-0.0047,-0.001
61576,47.588417,-1.627413,88.73,29.48,7.504,179.2,Dec-17,6158797,2019-08-18 16:56:21:334,-0.4453,-0.2424,9.78,-0.483,-0.2334,9.792,0.0201,0.0029,-0.0018
61577,47.588417,-1.627413,88.73,29.48,7.504,179.2,Dec-17,6158897,2019-08-18 16:56:21:434,0.091,0.0437,9.865,-0.4819,-0.215,9.7924,0.0033,-0.003,-0.0011
61578,47.588417,-1.627413,88.73,29.48,7.504,179.2,Dec-17,6158997,2019-08-18 16:56:21:534,-0.1699,-0.0371,10.1337,-0.4818,-0.2178,9.7924,-0.0004,0.0055,-0.0016
61579,47.588417,-1.627413,88.73,29.48,7.504,179.2,17 / 23,6159097,2019-08-18 16:56:21:634,-0.1987,0.173,10.6508,-0.4822,-0.2229,9.7923,0.0102,-0.0017,-0.0026
61580,47.588417,-1.627413,88.73,29.48,7.504,179.2,17 / 23,6159197,2019-08-18 16:56:21:734,-1.3215,-0.9565,9.0952,-0.4727,-0.2126,9.7929,0.0005,-0.0202,-0.0004
61581,47.588417,-1.627413,88.73,29.48,7.504,179.2,17 / 23,6159296,2019-08-18 16:56:21:833,0.288,0.3783,12.3106,-0.4809,-0.2034,9.7927,0.0006,-0.0032,-0.0037
61582,47.588417,-1.627413,88.73,29.48,7.504,179.2,17 / 23,6159397,2019-08-18 16:56:21:934,-0.8319,-0.5339,10.4886,-0.4514,-0.2095,9.794,-0.0075,-0.0362,-0.0039
61583,47.588417,-1.627413,88.73,29.48,7.504,179.2,17 / 23,6159497,2019-08-18 16:56:22:034,-0.3058,-0.2981,9.3837,-0.4071,-0.2108,9.7959,0.0068,0.0045,-0.0008
61584,47.588417,-1.627413,88.73,29.48,7.504,179.2,17 / 23,6159597,2019-08-18 16:56:22:134,-0.5746,0.1628,9.534,-0.4047,-0.2064,9.7961,0.0068,0.0045,-0.0008
61585,47.588417,-1.627413,88.73,29.48,7.504,179.2,17 / 23,6159697,2019-08-18 16:56:22:234,-0.2184,-0.2675,9.2042,-0.4085,-0.1983,9.7961,0.0096,0.0034,0.0005
61586,47.588417,-1.627413,88.73,29.48,7.504,179.2,17 / 23,6159797,2019-08-18 16:56:22:334,-0.3681,0.0736,10.0361,-0.4124,-0.1923,9.7961,0.0158,0.0165,0.0005
61587,47.588417,-1.627413,88.73,29.48,7.504,179.2,17 / 23,6159897,2019-08-18 16:56:22:434,-0.134,-0.3107,10.2498,-0.4183,-0.1713,9.7962,0.015,-0.0054,0.0013
61588,47.588417,-1.627413,88.73,29.48,7.504,179.2,17 / 23,6159997,2019-08-18 16:56:22:534,-0.4459,0.0072,10.4144,-0.4099,-0.1639,9.7967,0.0016,-0.0054,-0.0017
61589,47.588417,-1.627413,88.73,29.48,7.504,179.2,15 / 21,6160097,2019-08-18 16:56:22:634,-0.3507,0.0994,10.1535,-0.4038,-0.1599,9.797,0.0063,0.0026,-0.0005
61590,47.588417,-1.627413,88.73,29.48,7.504,179.2,15 / 21,6160197,2019-08-18 16:56:22:734,-0.3764,0.0676,9.8153,-0.4049,-0.1555,9.7971,0.0025,-0.0043,-0.0008
61591,47.588417,-1.627413,88.73,29.48,7.504,179.2,15 / 21,6160297,2019-08-18 16:56:22:834,-0.3555,-0.1317,10.0038,-0.3912,-0.1496,9.7977,-0.0002,-0.0052,-0.0017
61592,47.588417,-1.627413,88.73,29.48,7.504,179.2,15 / 21,6160397,2019-08-18 16:56:22:934,-0.401,-0.267,9.9523,-0.3851,-0.1505,9.7979,-0.0042,-0.0092,-0.0023
61593,47.588417,-1.627413,88.73,29.48,7.504,179.2,15 / 21,6160496,2019-08-18 16:56:23:033,-0.3076,-0.082,9.7351,-0.3777,-0.1514,9.7982,-0.0008,-0.0017,-0.0008
61594,47.588417,-1.627413,88.73,29.48,7.504,179.2,15 / 21,6160597,2019-08-18 16:56:23:134,-0.1939,-0.0916,9.9236,-0.3757,-0.1504,9.7983,0.0034,0.0,-0.0005
61595,47.588417,-1.627413,88.73,29.48,7.504,179.2,15 / 21,6160697,2019-08-18 16:56:23:234,-0.3226,-0.2209,9.7901,-0.368,-0.1487,9.7986,-0.0023,-0.0068,-0.0033
61596,47.588417,-1.627413,88.73,29.48,7.504,179.2,15 / 21,6160797,2019-08-18 16:56:23:334,-0.1131,-0.3053,9.601,-0.3592,-0.1566,9.7988,-0.0091,0.0128,-0.0077
61597,47.588417,-1.627413,88.73,29.48,7.504,179.2,15 / 21,6160896,2019-08-18 16:56:23:433,-0.0885,-0.3412,9.9182,-0.3619,-0.174,9.7984,-0.0105,-0.0022,-0.0081
61598,47.588417,-1.627413,88.73,29.48,7.504,179.2,15 / 21,6160997,2019-08-18 16:56:23:534,-0.0789,-0.3017,9.8572,-0.3575,-0.1759,9.7986,0.0079,0.0128,-0.0067
61599,47.588417,-1.627413,88.73,29.48,7.504,179.2,17 / 23,6161097,2019-08-18 16:56:23:634,-0.1268,0.0317,9.8243,-0.3654,-0.1688,9.7984,0.0115,0.0098,-0.0044
61600,47.588417,-1.627413,88.73,29.48,7.504,179.2,17 / 23,6161197,2019-08-18 16:56:23:734,-0.2382,-0.1329,9.9452,-0.3653,-0.1642,9.7985,0.0025,-0.0076,-0.0072
61601,47.588417,-1.627413,88.73,29.48,7.504,179.2,17 / 23,6161297,2019-08-18 16:56:23:834,-0.2765,-0.1443,9.674,-0.3561,-0.1589,9.7989,0.0058,0.0028,-0.0074
61602,47.588417,-1.627413,88.73,29.48,7.504,179.2,17 / 23,6161397,2019-08-18 16:56:23:934,-0.4243,-0.4393,10.2971,-0.3517,-0.1594,9.799,0.0108,-0.0033,-0.0077
61603,47.588417,-1.627413,88.73,29.48,7.504,179.2,17 / 23,6161497,2019-08-18 16:56:24:034,-0.1646,-0.3466,10.5623,-0.3332,-0.154,9.7998,0.0047,-0.0122,-0.008
61604,47.588417,-1.627413,88.73,29.48,7.504,179.2,17 / 23,6161597,2019-08-18 16:56:24:134,-0.2346,-0.1832,10.0649,-0.3297,-0.152,9.7999,0.0058,-0.0158,-0.0078
61605,47.588417,-1.627413,88.73,29.48,7.504,179.2,17 / 23,6161697,2019-08-18 16:56:24:234,-0.1274,-0.1281,9.8668,-0.3025,-0.1498,9.8008,-0.0013,-0.011,-0.0107
61606,47.588417,-1.627413,88.73,29.48,7.504,179.2,17 / 23,6161797,2019-08-18 16:56:24:334,-0.3244,-0.2161,10.0224,-0.2886,-0.154,9.8012,-0.0106,-0.0192,-0.0099
61607,47.588417,-1.627413,88.73,29.48,7.504,179.2,17 / 23,6161897,2019-08-18 16:56:24:434,-0.0867,-0.2274,9.8745,-0.2763,-0.161,9.8014,0.0002,-0.0085,-0.0085
61608,47.588417,-1.627413,88.73,29.48,7.504,179.2,17 / 23,6161997,2019-08-18 16:56:24:534,-0.2094,-0.2286,9.7375,-0.2584,-0.1656,9.8018,0.0075,-0.0074,-0.0095
61609,47.588417,-1.627413,88.73,29.48,7.504,179.2,17 / 23,6162097,2019-08-18 16:56:24:634,0.0521,-0.076,10.1918,-0.2535,-0.1645,9.802,0.0039,0.0053,-0.0112
61610,47.588417,-1.627413,88.73,29.48,7.504,179.2,14 / 21,6162197,2019-08-18 16:56:24:734,0.1521,-0.17,9.7704,-0.252,-0.1699,9.8019,0.0043,0.0073,-0.0124
61611,47.588417,-1.627413,88.73,29.48,7.504,179.2,14 / 21,6162297,2019-08-18 16:56:24:834,-0.1909,-0.4555,8.8875,-0.256,-0.1718,9.8018,-0.0055,0.0215,-0.0119
61612,47.588417,-1.627413,88.73,29.48,7.504,179.2,14 / 21,6162397,2019-08-18 16:56:24:934,-0.1496,-0.3454,9.2311,-0.2753,-0.1833,9.8011,-0.0026,0.0268,-0.0115
61613,47.588417,-1.627413,88.73,29.48,7.504,179.2,14 / 21,6162498,2019-08-18 16:56:25:035,-0.1478,-0.5034,10.2672,-0.2856,-0.1852,9.8007,0.0072,-0.0048,-0.0136
61614,47.588417,-1.627413,88.73,29.48,7.504,179.2,14 / 21,6162598,2019-08-18 16:56:25:135,-0.0502,-0.4046,10.6969,-0.271,-0.1823,9.8012,0.0113,-0.0134,-0.014
61615,47.588417,-1.627413,88.73,29.48,7.504,179.2,14 / 21,6162698,2019-08-18 16:56:25:235,-0.0077,-0.2292,10.7077,-0.2521,-0.1755,9.8018,0.0113,-0.0216,-0.0127
61616,47.588417,-1.627413,88.73,29.48,7.504,179.2,14 / 21,6162797,2019-08-18 16:56:25:334,0.115,-0.5758,10.6317,-0.2231,-0.171,9.8026,0.0,-0.006,-0.0145
61617,47.588417,-1.627413,88.73,29.48,7.504,179.2,14 / 21,6162897,2019-08-18 16:56:25:434,0.1383,-0.2933,9.9913,-0.2147,-0.1724,9.8028,-0.0033,-0.0166,-0.0144
61618,47.588417,-1.627413,88.73,29.48,7.504,179.2,14 / 21,6162997,2019-08-18 16:56:25:534,-0.1286,-0.3843,9.7524,-0.189,-0.1814,9.8032,-0.0028,-0.0072,-0.0126
61619,47.588417,-1.627413,88.73,29.48,7.504,179.2,16 / 23,6163097,2019-08-18 16:56:25:634,0.0856,-0.3029,9.531,-0.1824,-0.1845,9.8032,0.0008,-0.0012,-0.0092
61620,47.588417,-1.627413,88.73,29.48,7.504,179.2,16 / 23,6163197,2019-08-18 16:56:25:734,-0.134,0.2155,9.6896,-0.1779,-0.1812,9.8034,0.0073,0.0041,-0.0036
61621,47.588417,-1.627413,88.73,29.48,7.504,179.2,16 / 23,6163296,2019-08-18 16:56:25:833,0.0731,0.179,9.8428,-0.1781,-0.1766,9.8034,-0.0021,-0.0014,-0.0017
61622,47.588417,-1.627413,88.73,29.48,7.504,179.2,16 / 23,6163397,2019-08-18 16:56:25:934,-0.0963,0.073,10.2169,-0.1772,-0.1705,9.8036,0.0097,0.0072,-0.0004
61623,47.588417,-1.627413,88.73,29.48,7.504,179.2,16 / 23,6163497,2019-08-18 16:56:26:034,-0.1418,0.24,9.9529,-0.1803,-0.1624,9.8036,0.0173,0.0064,-0.0003
61624,47.588417,-1.627413,88.73,29.48,7.504,179.2,16 / 23,6163597,2019-08-18 16:56:26:134,0.0276,-0.0347,9.9254,-0.1791,-0.1425,9.804,-0.0001,-0.0007,-0.0013
61625,47.588417,-1.627413,88.73,29.48,7.504,179.2,16 / 23,6163697,2019-08-18 16:56:26:234,-0.1819,0.0234,9.6686,-0.1788,-0.141,9.804,0.0028,-0.0013,-0.0009
61626,47.588417,-1.627413,88.73,29.48,7.504,179.2,16 / 23,6163797,2019-08-18 16:56:26:334,-0.2041,-0.1024,9.8841,-0.183,-0.1344,9.804,-0.0035,0.0084,0.0014
61627,47.588417,-1.627413,88.73,29.48,7.504,179.2,16 / 23,6163897,2019-08-18 16:56:26:434,-0.2861,-0.0126,9.5567,-0.1871,-0.1385,9.8039,-0.0115,0.0027,-0.0017
61628,47.588417,-1.627413,88.73,29.48,7.504,179.2,16 / 23,6163996,2019-08-18 16:56:26:533,-0.3758,-0.2693,9.2113,-0.1896,-0.1496,9.8037,-0.0105,0.0008,-0.0041
61629,47.588417,-1.627413,88.73,29.48,7.504,179.2,Dec-21,6164098,2019-08-18 16:56:26:635,-0.3004,-0.1023,9.8548,-0.1901,-0.153,9.8036,-0.007,0.0048,-0.0034
61630,47.588417,-1.627413,88.73,29.48,7.504,179.2,Dec-21,6164197,2019-08-18 16:56:26:734,-0.1167,0.0233,10.4485,-0.1918,-0.1543,9.8036,0.005,-0.0048,-0.0026
61631,47.588417,-1.627413,88.73,29.48,7.504,179.2,Dec-21,6164298,2019-08-18 16:56:26:835,0.1545,0.0299,10.3438,-0.1851,-0.1462,9.8038,0.0072,-0.0106,-0.0009
61632,47.588417,-1.627413,88.73,29.48,7.504,179.2,Dec-21,6164397,2019-08-18 16:56:26:934,-0.2118,0.0868,10.157,-0.1764,-0.1416,9.804,-0.0006,-0.0079,-0.0022
61633,47.588417,-1.627413,88.73,29.48,7.504,179.2,Dec-21,6164497,2019-08-18 16:56:27:034,-0.3106,-0.325,9.9817,-0.1735,-0.1326,9.8042,0.0075,-0.0105,-0.003
61634,47.588417,-1.627413,88.73,29.48,7.504,179.2,Dec-21,6164597,2019-08-18 16:56:27:134,-0.0682,0.1676,9.8566,-0.1606,-0.1197,9.8046,0.0054,-0.0047,-0.002
61635,47.588417,-1.627413,88.73,29.48,7.504,179.2,Dec-21,6164697,2019-08-18 16:56:27:234,0.0994,0.0359,10.3241,-0.1599,-0.1187,9.8046,0.0076,-0.0042,-0.0001
61636,47.588417,-1.627413,88.73,29.48,7.504,179.2,Dec-21,6164797,2019-08-18 16:56:27:334,0.0785,0.0383,9.8692,-0.1512,-0.1079,9.8049,0.0026,-0.0058,-0.0009
61637,47.588417,-1.627413,88.73,29.48,7.504,179.2,Dec-21,6164897,2019-08-18 16:56:27:434,-0.2777,0.0658,9.9733,-0.1525,-0.1048,9.8049,0.0025,0.0025,-0.0011
61638,47.588417,-1.627413,88.73,29.48,7.504,179.2,Dec-21,6164997,2019-08-18 16:56:27:534,-0.3262,-0.1203,9.7279,-0.1543,-0.0911,9.805,0.009,-0.0024,-0.0012
61639,47.588417,-1.627413,88.73,29.48,7.504,179.2,13 / 22,6165097,2019-08-18 16:56:27:634,-0.0023,0.2412,9.7895,-0.1524,-0.0841,9.8051,0.0042,0.0052,-0.0018
61640,47.588417,-1.627413,88.73,29.48,7.504,179.2,13 / 22,6165196,2019-08-18 16:56:27:733,-0.1735,-0.0832,9.4975,-0.1561,-0.0813,9.8051,-0.0013,0.0042,-0.0033
61641,47.588417,-1.627413,88.73,29.48,7.504,179.2,13 / 22,6165297,2019-08-18 16:56:27:834,-0.2519,-0.1514,10.2355,-0.1576,-0.0792,9.8051,-0.0011,0.01,-0.002
61642,47.588417,-1.627413,88.73,29.48,7.504,179.2,13 / 22,6165397,2019-08-18 16:56:27:934,-0.1268,0.0479,10.2397,-0.1627,-0.0755,9.805,0.0088,-0.0079,-0.0025
61643,47.588417,-1.627413,88.73,29.48,7.504,179.2,13 / 22,6165497,2019-08-18 16:56:28:034,-0.2489,-0.1449,9.7973,-0.1537,-0.061,9.8053,0.0103,-0.0148,-0.0011
61644,47.588417,-1.627413,88.73,29.48,7.504,179.2,13 / 22,6165597,2019-08-18 16:56:28:134,0.0749,0.1191,9.6034,-0.1434,-0.0558,9.8054,-0.0103,-0.0022,-0.0027
61645,47.588417,-1.627413,88.73,29.48,7.504,179.2,13 / 22,6165697,2019-08-18 16:56:28:234,-0.2519,0.009,9.8249,-0.1387,-0.0645,9.8055,-0.0085,-0.0045,-0.0026
61646,47.588417,-1.627413,88.73,29.48,7.504,179.2,13 / 22,6165797,2019-08-18 16:56:28:334,0.042,0.3059,9.7069,-0.1365,-0.0659,9.8055,0.004,0.0003,-0.0008
61647,47.588417,-1.627413,88.73,29.48,7.504,179.2,13 / 22,6165897,2019-08-18 16:56:28:434,-0.1484,-0.0634,9.8045,-0.1328,-0.0624,9.8056,0.0028,-0.0016,-0.0021
61648,47.588417,-1.627413,88.73,29.48,7.504,179.2,13 / 22,6165997,2019-08-18 16:56:28:534,-0.1693,0.0778,9.5148,-0.1325,-0.0596,9.8056,0.0043,-0.0064,-0.0035
61649,47.588417,-1.627413,88.73,29.48,7.504,179.2,13 / 23,6166097,2019-08-18 16:56:28:634,-0.1867,-0.4178,10.1283,-0.1235,-0.0516,9.8057,0.0007,-0.0014,-0.0037
61650,47.586082,-1.627328,97.07,29.24,5.36,179.4,13 / 23,6166197,2019-08-18 16:56:28:734,0.1665,0.0389,9.6908,-0.1216,-0.0506,9.8058,-0.0014,-0.0096,-0.0039
61651,47.586082,-1.627328,97.07,29.24,5.36,179.4,13 / 23,6166297,2019-08-18 16:56:28:834,-0.052,-0.2568,9.9272,-0.1142,-0.0485,9.8059,0.0022,0.0101,-0.0054
61652,47.586082,-1.627328,97.07,29.24,5.36,179.4,13 / 23,6166397,2019-08-18 16:56:28:934,0.0653,0.0156,9.7429,-0.1198,-0.0496,9.8058,0.0076,0.0021,-0.0063
61653,47.586082,-1.627328,97.07,29.24,5.36,179.4,13 / 23,6166497,2019-08-18 16:56:29:034,-0.0484,-0.2711,10.1235,-0.1213,-0.045,9.8058,0.0082,-0.0018,-0.006
61654,47.586082,-1.627328,97.07,29.24,5.36,179.4,13 / 23,6166597,2019-08-18 16:56:29:134,0.1874,0.1724,9.598,-0.1188,-0.0398,9.8059,0.0002,-0.0051,-0.0111
61655,47.586082,-1.627328,97.07,29.24,5.36,179.4,13 / 23,6166697,2019-08-18 16:56:29:234,0.0043,-0.3244,9.8183,-0.1096,-0.0478,9.8059,-0.0035,-0.0014,-0.0122
61656,47.586082,-1.627328,97.07,29.24,5.36,179.4,13 / 23,6166797,2019-08-18 16:56:29:334,0.045,-0.0347,9.3197,-0.1057,-0.0526,9.8059,-0.0085,0.0016,-0.0128
61657,47.586082,-1.627328,97.07,29.24,5.36,179.4,13 / 23,6166897,2019-08-18 16:56:29:434,0.0922,-0.4621,10.0703,-0.1059,-0.0612,9.8059,0.0062,0.0079,-0.0135
61658,47.586082,-1.627328,97.07,29.24,5.36,179.4,13 / 23,6166997,2019-08-18 16:56:29:534,0.1503,-0.5806,9.8261,-0.1078,-0.0617,9.8059,-0.0008,0.0061,-0.0157
61659,47.586082,-1.627328,97.07,29.24,5.36,179.4,Oct-19,6167097,2019-08-18 16:56:29:634,0.0294,-0.6524,9.9607,-0.1035,-0.0797,9.8058,-0.0088,0.006,-0.0221
61660,47.586082,-1.627328,97.07,29.24,5.36,179.4,Oct-19,6167197,2019-08-18 16:56:29:734,0.3568,-0.392,9.7728,-0.1018,-0.0896,9.8057,-0.0038,0.0069,-0.0219
61661,47.586082,-1.627328,97.07,29.24,5.36,179.4,Oct-19,6167297,2019-08-18 16:56:29:834,0.1042,-0.659,9.6219,-0.091,-0.1071,9.8056,-0.0056,-0.0009,-0.0216
61662,47.586082,-1.627328,97.07,29.24,5.36,179.4,Oct-19,6167397,2019-08-18 16:56:29:934,0.1671,-0.3669,9.8093,-0.0858,-0.1182,9.8056,-0.016,-0.0118,-0.0211
61663,47.586082,-1.627328,97.07,29.24,5.36,179.4,Oct-19,6167497,2019-08-18 16:56:30:034,0.4412,-0.395,9.8895,-0.0649,-0.1478,9.8053,-0.0137,-0.0056,-0.0199
61664,47.586082,-1.627328,97.07,29.24,5.36,179.4,Oct-19,6167597,2019-08-18 16:56:30:134,-0.0353,-0.574,9.8542,-0.0591,-0.163,9.8051,-0.0041,-0.0002,-0.0193
61665,47.586082,-1.627328,97.07,29.24,5.36,179.4,Oct-19,6167696,2019-08-18 16:56:30:233,0.1736,-0.5094,9.9284,-0.0529,-0.1777,9.8049,-0.0083,0.0081,-0.0194
61666,47.586082,-1.627328,97.07,29.24,5.36,179.4,Oct-19,6167797,2019-08-18 16:56:30:334,0.3448,-0.5273,10.245,-0.0485,-0.1894,9.8047,-0.0031,-0.0066,-0.019
61667,47.586082,-1.627328,97.07,29.24,5.36,179.4,Oct-19,6167897,2019-08-18 16:56:30:434,0.2179,-0.501,9.5902,-0.0374,-0.1996,9.8045,0.0025,0.0035,-0.019
61668,47.586082,-1.627328,97.07,29.24,5.36,179.4,Oct-19,6167997,2019-08-18 16:56:30:534,0.2556,-0.337,9.9571,-0.0348,-0.1967,9.8046,0.0081,0.0049,-0.0177
61669,47.586082,-1.627328,97.07,29.24,5.36,179.4,Oct-19,6168097,2019-08-18 16:56:30:634,-0.0239,-0.5716,10.026,-0.0274,-0.1889,9.8048,0.0143,-0.0043,-0.0172
61670,47.586082,-1.627328,97.07,29.24,5.36,179.4,Oct-19,6168197,2019-08-18 16:56:30:734,0.3269,-0.2269,10.2869,-0.0231,-0.1771,9.805,0.0204,0.0014,-0.0165
61671,47.586082,-1.627328,97.07,29.24,5.36,179.4,Oct-19,6168297,2019-08-18 16:56:30:834,0.0114,-0.5501,9.6728,-0.0139,-0.1651,9.8053,0.0037,-0.0031,-0.0192
61672,47.586082,-1.627328,97.07,29.24,5.36,179.4,Oct-19,6168397,2019-08-18 16:56:30:934,-0.0796,-0.3938,9.9146,-0.0095,-0.1664,9.8052,-0.011,0.0021,-0.0194
61673,47.586082,-1.627328,97.07,29.24,5.36,179.4,Oct-19,6168497,2019-08-18 16:56:31:034,0.2113,-0.571,9.3346,-0.0084,-0.1816,9.805,-0.0171,0.0033,-0.0209
61674,47.586082,-1.627328,97.07,29.24,5.36,179.4,Oct-19,6168597,2019-08-18 16:56:31:134,0.3005,-0.3765,9.3293,-0.0109,-0.2061,9.8045,-0.0169,0.0127,-0.016
61675,47.586082,-1.627328,97.07,29.24,5.36,179.4,Oct-19,6168697,2019-08-18 16:56:31:234,0.4262,-0.0204,9.5166,-0.0168,-0.2187,9.8042,-0.0097,0.007,-0.013
61676,47.586082,-1.627328,97.07,29.24,5.36,179.4,Oct-19,6168797,2019-08-18 16:56:31:334,0.0084,-0.1772,9.6148,-0.0186,-0.2269,9.804,-0.0009,0.0,-0.0076
61677,47.586082,-1.627328,97.07,29.24,5.36,179.4,Oct-19,6168897,2019-08-18 16:56:31:434,-0.0987,-0.1754,10.0631,-0.0171,-0.2252,9.804,0.0041,-0.0016,-0.0054
61678,47.586082,-1.627328,97.07,29.24,5.36,179.4,Oct-19,6168997,2019-08-18 16:56:31:534,-0.3405,-0.1957,10.3827,-0.0051,-0.2217,9.8041,-0.0007,-0.0154,-0.0062
61679,47.586082,-1.627328,97.07,29.24,5.36,179.4,Nov-21,6169097,2019-08-18 16:56:31:634,0.1,-0.0629,9.9877,0.0024,-0.2212,9.8042,-0.0096,0.0036,-0.0073
61680,47.586082,-1.627328,97.07,29.24,5.36,179.4,Nov-21,6169197,2019-08-18 16:56:31:734,0.3532,-0.4028,9.917,-0.0028,-0.2284,9.804,-0.0073,0.01,-0.0072
61681,47.586082,-1.627328,97.07,29.24,5.36,179.4,Nov-21,6169297,2019-08-18 16:56:31:834,-0.14,-0.2149,9.5244,-0.0097,-0.2289,9.804,-0.0073,0.01,-0.0072
61682,47.586082,-1.627328,97.07,29.24,5.36,179.4,Nov-21,6169397,2019-08-18 16:56:31:934,-0.1801,-0.2203,9.5094,-0.016,-0.2328,9.8039,0.0028,0.0046,-0.0055
61683,47.586082,-1.627328,97.07,29.24,5.36,179.4,Nov-21,6169497,2019-08-18 16:56:32:034,0.0426,-0.0551,9.5376,-0.0175,-0.2303,9.8039,-0.0022,0.0034,-0.0066
61684,47.586082,-1.627328,97.07,29.24,5.36,179.4,Nov-21,6169598,2019-08-18 16:56:32:135,-0.2908,0.0072,9.4627,-0.0231,-0.2258,9.804,0.0024,0.0093,-0.0065
61685,47.586082,-1.627328,97.07,29.24,5.36,179.4,Nov-21,6169697,2019-08-18 16:56:32:234,0.1928,0.1987,9.5824,-0.0292,-0.2231,9.8041,-0.0032,0.0071,-0.0084
61686,47.586082,-1.627328,97.07,29.24,5.36,179.4,Nov-21,6169797,2019-08-18 16:56:32:334,0.115,-0.2765,9.7764,-0.0284,-0.2268,9.804,-0.0074,-0.0001,-0.0099
61687,47.586082,-1.627328,97.07,29.24,5.36,179.4,Nov-21,6169897,2019-08-18 16:56:32:434,0.2365,-0.1766,9.2892,-0.0297,-0.2314,9.8039,-0.0105,-0.0006,-0.0096
61688,47.586082,-1.627328,97.07,29.24,5.36,179.4,Nov-21,6169997,2019-08-18 16:56:32:534,0.0827,0.1275,9.607,-0.0281,-0.2339,9.8038,-0.0023,0.0033,-0.0082
61689,47.586082,-1.627328,97.07,29.24,5.36,179.4,13 / 23,6170097,2019-08-18 16:56:32:634,0.1946,-0.2514,9.7333,-0.0293,-0.2377,9.8037,-0.0074,-0.0019,-0.0085
61690,47.586082,-1.627328,97.07,29.24,5.36,179.4,13 / 23,6170197,2019-08-18 16:56:32:734,0.1293,0.0455,9.4597,-0.0228,-0.2432,9.8036,-0.0018,-0.0067,-0.01
61691,47.586082,-1.627328,97.07,29.24,5.36,179.4,13 / 23,6170298,2019-08-18 16:56:32:835,0.2694,-0.2526,9.9799,-0.0198,-0.2426,9.8036,-0.0042,-0.0056,-0.0113
61692,47.586082,-1.627328,97.07,29.24,5.36,179.4,13 / 23,6170397,2019-08-18 16:56:32:934,0.0216,-0.5561,9.7542,-0.007,-0.2475,9.8035,-0.0009,-0.0028,-0.0098
61693,47.586082,-1.627328,97.07,29.24,5.36,179.4,13 / 23,6170496,2019-08-18 16:56:33:033,0.1946,-0.4076,10.0188,-0.0086,-0.2492,9.8035,0.0015,0.0034,-0.0122
61694,47.586082,-1.627328,97.07,29.24,5.36,179.4,13 / 23,6170597,2019-08-18 16:56:33:134,-0.0281,-0.3968,9.6746,-0.0038,-0.2536,9.8034,0.0031,0.0009,-0.0142
61695,47.586082,-1.627328,97.07,29.24,5.36,179.4,13 / 23,6170697,2019-08-18 16:56:33:234,0.3053,0.003,9.5381,-0.0048,-0.251,9.8034,-0.0024,0.0014,-0.0167
61696,47.586082,-1.627328,97.07,29.24,5.36,179.4,13 / 23,6170797,2019-08-18 16:56:33:334,0.1557,-0.5273,10.0523,-0.0019,-0.2596,9.8032,-0.0083,0.0029,-0.0167
61697,47.586082,-1.627328,97.07,29.24,5.36,179.4,13 / 23,6170897,2019-08-18 16:56:33:434,0.367,0.1873,10.2804,0.0009,-0.2638,9.8031,0.0068,0.0029,-0.0162
61698,47.586082,-1.627328,97.07,29.24,5.36,179.4,13 / 23,6170997,2019-08-18 16:56:33:534,-0.0454,-0.638,10.2905,0.0091,-0.2643,9.8031,0.0041,-0.0086,-0.0161
61699,47.586082,-1.627328,97.07,29.24,5.36,179.4,13 / 22,6171097,2019-08-18 16:56:33:634,0.3316,-0.419,10.0427,0.0174,-0.2651,9.8031,-0.0019,-0.0058,-0.0167
61700,47.586082,-1.627328,97.07,29.24,5.36,179.4,13 / 22,6171197,2019-08-18 16:56:33:734,0.1635,-0.841,10.3977,0.0273,-0.2783,9.8027,-0.0108,-0.0026,-0.0184
61701,47.586082,-1.627328,97.07,29.24,5.36,179.4,13 / 22,6171297,2019-08-18 16:56:33:834,0.291,-0.4148,9.7201,0.0312,-0.2829,9.8025,-0.0084,-0.0122,-0.022
61702,47.586082,-1.627328,97.07,29.24,5.36,179.4,13 / 22,6171398,2019-08-18 16:56:33:935,0.2497,-0.814,10.2408,0.0508,-0.299,9.802,-0.0044,-0.0062,-0.0257
61703,47.586082,-1.627328,97.07,29.24,5.36,179.4,13 / 22,6171497,2019-08-18 16:56:34:034,0.3664,-0.2993,10.0134,0.0567,-0.2978,9.802,-0.0002,-0.0098,-0.0239
61704,47.586082,-1.627328,97.07,29.24,5.36,179.4,13 / 22,6171598,2019-08-18 16:56:34:135,0.2706,-0.6895,10.1547,0.0707,-0.3085,9.8015,-0.0029,0.0076,-0.0224
61705,47.586082,-1.627328,97.07,29.24,5.36,179.4,13 / 22,6171697,2019-08-18 16:56:34:234,0.2538,-0.5914,9.6782,0.0723,-0.316,9.8013,-0.0045,0.0078,-0.0227
61706,47.586082,-1.627328,97.07,29.24,5.36,179.4,13 / 22,6171797,2019-08-18 16:56:34:334,0.6794,-0.8487,9.1443,0.0703,-0.322,9.8011,0.0058,0.0199,-0.0257
61707,47.586082,-1.627328,97.07,29.24,5.36,179.4,13 / 22,6171897,2019-08-18 16:56:34:434,0.2239,-0.7763,9.9727,0.059,-0.331,9.8009,0.0045,0.0039,-0.024
61708,47.586082,-1.627328,97.07,29.24,5.36,179.4,13 / 22,6171997,2019-08-18 16:56:34:534,0.2221,-0.6045,9.2461,0.0629,-0.3325,9.8008,-0.0031,0.0051,-0.0237
61709,47.586082,-1.627328,97.07,29.24,5.36,179.4,13 / 22,6172097,2019-08-18 16:56:34:634,0.3233,-0.5004,9.191,0.0647,-0.3426,9.8005,-0.0027,0.0177,-0.0219
61710,47.586082,-1.627328,97.07,29.24,5.36,179.4,13 / 22,6172197,2019-08-18 16:56:34:734,0.4095,-0.2005,9.8775,0.0546,-0.3506,9.8002,-0.0001,0.0049,-0.0241
61711,47.586082,-1.627328,97.07,29.24,5.36,179.4,13 / 22,6172297,2019-08-18 16:56:34:834,-0.0353,-0.9649,9.4178,0.0537,-0.356,9.8,0.0129,0.0143,-0.0202
61712,47.586082,-1.627328,97.07,29.24,5.36,179.4,13 / 22,6172397,2019-08-18 16:56:34:934,-0.1167,-0.4136,9.6626,0.0462,-0.351,9.8003,0.0085,-0.0072,-0.0129
61713,47.586082,-1.627328,97.07,29.24,5.36,179.4,13 / 22,6172497,2019-08-18 16:56:35:034,0.0695,0.0234,9.7848,0.0577,-0.3427,9.8005,-0.0027,-0.0057,-0.0124
61714,47.586082,-1.627328,97.07,29.24,5.36,179.4,13 / 22,6172597,2019-08-18 16:56:35:134,-0.046,-0.5255,10.105,0.0576,-0.3432,9.8005,-0.0089,0.0055,-0.0103
61715,47.586082,-1.627328,97.07,29.24,5.36,179.4,13 / 22,6172698,2019-08-18 16:56:35:235,-0.5255,-0.3172,9.0934,0.0481,-0.357,9.8,-0.0174,0.026,-0.0103
61716,47.586082,-1.627328,97.07,29.24,5.36,179.4,13 / 22,6172797,2019-08-18 16:56:35:334,-1.1605,-1.1019,9.3933,0.0265,-0.3674,9.7997,-0.0086,0.0348,-0.0087
61717,47.586082,-1.627328,97.07,29.24,5.36,179.4,13 / 22,6172897,2019-08-18 16:56:35:434,-0.5021,-0.5716,9.2263,-0.0293,-0.3846,9.7991,-0.0016,0.0228,-0.0089
61718,47.586082,-1.627328,97.07,29.24,5.36,179.4,13 / 22,6172997,2019-08-18 16:56:35:534,-0.7098,-0.8799,9.4083,-0.0424,-0.3979,9.7985,-0.0166,-0.011,-0.0167
61719,47.586082,-1.627328,97.07,29.24,5.36,179.4,Oct-21,6173096,2019-08-18 16:56:35:633,-0.6404,-0.8751,9.8781,-0.0516,-0.4298,9.7971,-0.0031,-0.006,-0.0141
61720,47.586082,-1.627328,97.07,29.24,5.36,179.4,Oct-21,6173197,2019-08-18 16:56:35:734,-0.7667,-0.8272,9.8428,-0.0536,-0.4361,9.7968,0.0092,0.0094,-0.0098
61721,47.586082,-1.627328,97.07,29.24,5.36,179.4,Oct-21,6173297,2019-08-18 16:56:35:834,-0.5057,-0.9511,10.0439,-0.0869,-0.4394,9.7964,0.0076,0.0042,-0.0096
61722,47.586082,-1.627328,97.07,29.24,5.36,179.4,Oct-21,6173397,2019-08-18 16:56:35:934,-0.6865,-0.7619,10.3809,-0.1036,-0.4403,9.7962,0.0035,0.0027,-0.0119
61723,47.586082,-1.627328,97.07,29.24,5.36,179.4,Oct-21,6173497,2019-08-18 16:56:36:034,-0.5566,-0.5327,9.7399,-0.1116,-0.4521,9.7956,-0.0082,-0.0078,-0.0157
61724,47.586082,-1.627328,97.07,29.24,5.36,179.4,Oct-21,6173597,2019-08-18 16:56:36:134,-0.489,-0.6452,9.7512,-0.1175,-0.4647,9.7949,-0.007,-0.0009,-0.0153
61725,47.586082,-1.627328,97.07,29.24,5.36,179.4,Oct-21,6173698,2019-08-18 16:56:36:235,-0.5027,-0.662,9.4376,-0.1335,-0.479,9.794,-0.0002,0.0038,-0.0133
61726,47.586082,-1.627328,97.07,29.24,5.36,179.4,Oct-21,6173797,2019-08-18 16:56:36:334,-0.5626,-0.7805,9.7955,-0.1422,-0.4839,9.7937,0.0085,0.0066,-0.0125
61727,47.586082,-1.627328,97.07,29.24,5.36,179.4,Oct-21,6173897,2019-08-18 16:56:36:434,-0.5488,-0.7063,9.4747,-0.1586,-0.4721,9.794,0.0112,0.0062,-0.0107
61728,47.586082,-1.627328,97.07,29.24,5.36,179.4,Oct-21,6173997,2019-08-18 16:56:36:534,-0.3208,-0.7871,9.7369,-0.1647,-0.473,9.7939,-0.0038,0.0,-0.0139
61729,47.586082,-1.627328,97.07,29.24,5.36,179.4,Oct-21,6174097,2019-08-18 16:56:36:634,-0.2813,-0.6734,9.8159,-0.1687,-0.4873,9.7931,-0.0119,-0.0008,-0.0145
61730,47.586082,-1.627328,97.07,29.24,5.36,179.4,Oct-21,6174197,2019-08-18 16:56:36:734,-0.2394,-0.507,9.9679,-0.1661,-0.4905,9.793,-0.003,-0.0097,-0.0139
61731,47.586082,-1.627328,97.07,29.24,5.36,179.4,Oct-21,6174297,2019-08-18 16:56:36:834,0.1694,-0.1808,9.5573,-0.1558,-0.5056,9.7924,-0.015,0.0022,-0.0134
61732,47.586082,-1.627328,97.07,29.24,5.36,179.4,Oct-21,6174397,2019-08-18 16:56:36:934,0.0031,-0.2502,9.6926,-0.1592,-0.5108,9.792,-0.0058,0.0076,-0.0111
61733,47.586082,-1.627328,97.07,29.24,5.36,179.4,Oct-21,6174497,2019-08-18 16:56:37:034,-0.2609,-0.2987,9.3981,-0.1469,-0.508,9.7924,0.0009,-0.009,-0.0112
61734,47.586082,-1.627328,97.07,29.24,5.36,179.4,Oct-21,6174597,2019-08-18 16:56:37:134,0.0354,-0.2203,9.8009,-0.1402,-0.5022,9.7928,0.0032,0.0005,-0.012
61735,47.586082,-1.627328,97.07,29.24,5.36,179.4,Oct-21,6174697,2019-08-18 16:56:37:234,0.0623,-0.4848,9.3586,-0.1407,-0.5039,9.7927,-0.0113,0.007,-0.0117
61736,47.586082,-1.627328,97.07,29.24,5.36,179.4,Oct-21,6174797,2019-08-18 16:56:37:334,-0.2298,-0.4453,9.6992,-0.1494,-0.5115,9.7922,-0.0043,0.0124,-0.0137
61737,47.586082,-1.627328,97.07,29.24,5.36,179.4,Oct-21,6174897,2019-08-18 16:56:37:434,0.1048,-0.7123,9.8584,-0.1495,-0.514,9.792,-0.0023,-0.0008,-0.0159
61738,47.586082,-1.627328,97.07,29.24,5.36,179.4,Oct-21,6174997,2019-08-18 16:56:37:534,0.3287,-0.3729,10.2319,-0.1408,-0.5171,9.792,-0.0029,-0.0131,-0.0175
61739,47.586082,-1.627328,97.07,29.24,5.36,179.4,Dec-22,6175097,2019-08-18 16:56:37:634,0.0731,-0.6985,9.8716,-0.1311,-0.5183,9.7921,-0.0016,-0.0154,-0.0188
61740,47.583706,-1.62756,100.53,29.37,4.288,187.5,Dec-22,6175197,2019-08-18 16:56:37:734,0.0791,-0.6153,10.1852,-0.1068,-0.5204,9.7923,-0.0006,-0.0108,-0.0219
61741,47.583706,-1.62756,100.53,29.37,4.288,187.5,Dec-22,6175297,2019-08-18 16:56:37:834,0.1347,-0.7135,10.1403,-0.0968,-0.5213,9.7923,0.0019,-0.0063,-0.0236
61742,47.583706,-1.62756,100.53,29.37,4.288,187.5,Dec-22,6175397,2019-08-18 16:56:37:934,0.3317,-0.7356,9.6327,-0.0791,-0.5215,9.7925,0.0024,0.0009,-0.0234
61743,47.583706,-1.62756,100.53,29.37,4.288,187.5,Dec-22,6175497,2019-08-18 16:56:38:034,0.2784,-0.8248,9.6417,-0.0762,-0.5249,9.7923,0.0015,0.0055,-0.0236
61744,47.583706,-1.62756,100.53,29.37,4.288,187.5,Dec-22,6175597,2019-08-18 16:56:38:134,0.2257,-0.7374,9.8009,-0.0716,-0.5268,9.7922,0.0011,0.0056,-0.0222
61745,47.583706,-1.62756,100.53,29.37,4.288,187.5,Dec-22,6175697,2019-08-18 16:56:38:234,0.5789,-0.4513,9.9535,-0.0676,-0.529,9.7921,0.0035,0.0055,-0.0219
61746,47.583706,-1.62756,100.53,29.37,4.288,187.5,Dec-22,6175796,2019-08-18 16:56:38:333,0.3287,-0.5602,9.7393,-0.0631,-0.5317,9.792,-0.009,0.0033,-0.0221
61747,47.583706,-1.62756,100.53,29.37,4.288,187.5,Dec-22,6175897,2019-08-18 16:56:38:434,-0.0341,-0.6566,9.8009,-0.061,-0.5394,9.7916,-0.0012,0.0089,-0.0211
61748,47.583706,-1.62756,100.53,29.37,4.288,187.5,Dec-22,6175997,2019-08-18 16:56:38:534,0.0318,-0.5297,9.6662,-0.0608,-0.5428,9.7914,-0.001,0.0051,-0.0199
61749,47.583706,-1.62756,100.53,29.37,4.288,187.5,Dec-22,6176097,2019-08-18 16:56:38:634,0.3556,-0.583,9.9595,-0.0574,-0.5455,9.7913,0.0031,0.0034,-0.0185
61750,47.583706,-1.62756,100.53,29.37,4.288,187.5,14 / 22,6176197,2019-08-18 16:56:38:734,0.1168,-0.5614,9.7057,-0.0475,-0.5386,9.7917,0.0101,0.001,-0.0162
61751,47.583706,-1.62756,100.53,29.37,4.288,187.5,14 / 22,6176297,2019-08-18 16:56:38:834,0.0294,-0.6464,9.9128,-0.0456,-0.5362,9.7919,-0.0056,0.0042,-0.0148
61752,47.583706,-1.62756,100.53,29.37,4.288,187.5,14 / 22,6176397,2019-08-18 16:56:38:934,0.1192,-0.665,9.8847,-0.0475,-0.5455,9.7914,-0.0014,0.0051,-0.0145
61753,47.583706,-1.62756,100.53,29.37,4.288,187.5,14 / 22,6176497,2019-08-18 16:56:39:034,0.1982,-0.5064,9.683,-0.0472,-0.5455,9.7914,0.0061,0.0138,-0.0114
61754,47.583706,-1.62756,100.53,29.37,4.288,187.5,14 / 22,6176597,2019-08-18 16:56:39:134,0.0755,-0.5333,9.4466,-0.0652,-0.5381,9.7917,-0.0025,0.0114,-0.0112
61755,47.583706,-1.62756,100.53,29.37,4.288,187.5,14 / 22,6176697,2019-08-18 16:56:39:234,-0.0999,-0.2107,9.4693,-0.0713,-0.5368,9.7917,-0.0065,0.0099,-0.0121
61756,47.583706,-1.62756,100.53,29.37,4.288,187.5,14 / 22,6176797,2019-08-18 16:56:39:334,-0.1717,-0.3927,9.677,-0.0789,-0.5429,9.7913,-0.0027,-0.0009,-0.0146
61757,47.583706,-1.62756,100.53,29.37,4.288,187.5,14 / 22,6176897,2019-08-18 16:56:39:434,-0.0173,-0.2753,9.7405,-0.0698,-0.5427,9.7914,0.0045,-0.0092,-0.0139
61758,47.583706,-1.62756,100.53,29.37,4.288,187.5,14 / 22,6176997,2019-08-18 16:56:39:534,-0.2837,-0.5495,9.7836,-0.0623,-0.5323,9.792,0.0059,-0.0062,-0.0134
61759,47.583706,-1.62756,100.53,29.37,4.288,187.5,14 / 22,6177097,2019-08-18 16:56:39:634,0.0839,-0.3705,9.8273,-0.0574,-0.5246,9.7924,0.0076,0.001,-0.0121
61760,47.583706,-1.62756,100.53,29.37,4.288,187.5,Dec-20,6177197,2019-08-18 16:56:39:734,0.264,-0.6979,9.7417,-0.0548,-0.5175,9.7928,0.0049,0.008,-0.0119
61761,47.583706,-1.62756,100.53,29.37,4.288,187.5,Dec-20,6177297,2019-08-18 16:56:39:834,0.1084,-0.6536,9.7752,-0.059,-0.5113,9.7931,0.0021,0.0087,-0.0117
61762,47.583706,-1.62756,100.53,29.37,4.288,187.5,Dec-20,6177397,2019-08-18 16:56:39:934,0.3119,-0.2604,9.592,-0.066,-0.5046,9.7934,0.0061,0.0076,-0.013
61763,47.583706,-1.62756,100.53,29.37,4.288,187.5,Dec-20,6177499,2019-08-18 16:56:40:036,0.2898,-0.2316,9.6429,-0.0666,-0.5011,9.7936,0.0004,0.0016,-0.0122
61764,47.583706,-1.62756,100.53,29.37,4.288,187.5,Dec-20,6177597,2019-08-18 16:56:40:134,-0.0652,-0.2496,9.6806,-0.0646,-0.5025,9.7936,0.0004,-0.0031,-0.0148
61765,47.583706,-1.62756,100.53,29.37,4.288,187.5,Dec-20,6177697,2019-08-18 16:56:40:234,-0.2597,-0.5644,9.9398,-0.0646,-0.5015,9.7936,-0.0056,0.0033,-0.0133
61766,47.583706,-1.62756,100.53,29.37,4.288,187.5,Dec-20,6177797,2019-08-18 16:56:40:334,-0.1801,-0.3974,9.8955,-0.067,-0.5073,9.7933,-0.0043,0.0032,-0.0142
61767,47.583706,-1.62756,100.53,29.37,4.288,187.5,Dec-20,6177897,2019-08-18 16:56:40:434,-0.0143,-0.507,9.2179,-0.0687,-0.5113,9.7931,-0.0097,0.0118,-0.0142
61768,47.583706,-1.62756,100.53,29.37,4.288,187.5,Dec-20,6177996,2019-08-18 16:56:40:533,-0.0257,-0.6123,9.9416,-0.077,-0.5193,9.7926,-0.006,0.0108,-0.0146
61769,47.583706,-1.62756,100.53,29.37,4.288,187.5,Dec-20,6178097,2019-08-18 16:56:40:634,0.0031,-0.5399,9.9033,-0.0838,-0.5216,9.7924,0.0044,0.0004,-0.0154
61770,47.583706,-1.62756,100.53,29.37,4.288,187.5,14 / 22,6178196,2019-08-18 16:56:40:733,0.1288,-0.3394,9.9613,-0.0852,-0.5188,9.7925,0.0029,-0.0052,-0.0147
61771,47.583706,-1.62756,100.53,29.37,4.288,187.5,14 / 22,6178297,2019-08-18 16:56:40:834,-0.1119,-0.2586,9.3801,-0.0776,-0.5243,9.7923,-0.0075,0.003,-0.015
61772,47.583706,-1.62756,100.53,29.37,4.288,187.5,14 / 22,6178397,2019-08-18 16:56:40:934,-0.1125,-0.4561,10.0164,-0.0822,-0.5286,9.792,-0.0033,0.0041,-0.0145
61773,47.583706,-1.62756,100.53,29.37,4.288,187.5,14 / 22,6178497,2019-08-18 16:56:41:034,-0.2735,-0.6177,9.5136,-0.0876,-0.5356,9.7916,0.0037,0.0023,-0.0158
61774,47.583706,-1.62756,100.53,29.37,4.288,187.5,14 / 22,6178597,2019-08-18 16:56:41:134,-0.0754,-0.9008,9.8243,-0.0886,-0.5352,9.7916,0.0097,0.003,-0.0151
61775,47.583706,-1.62756,100.53,29.37,4.288,187.5,14 / 22,6178697,2019-08-18 16:56:41:234,-0.1741,-0.8936,9.692,-0.094,-0.5284,9.792,0.0065,0.0097,-0.0176
61776,47.583706,-1.62756,100.53,29.37,4.288,187.5,14 / 22,6178797,2019-08-18 16:56:41:334,0.0336,-0.8338,9.3658,-0.0987,-0.5294,9.7919,-0.0006,0.0117,-0.0201
61777,47.583706,-1.62756,100.53,29.37,4.288,187.5,14 / 22,6178897,2019-08-18 16:56:41:434,-0.1574,-0.817,10.2109,-0.1119,-0.5376,9.7913,0.0013,0.0112,-0.0178
61778,47.583706,-1.62756,100.53,29.37,4.288,187.5,14 / 22,6178997,2019-08-18 16:56:41:534,-0.0784,-0.7231,9.8949,-0.1176,-0.5379,9.7912,-0.0008,0.0009,-0.019
61779,47.583706,-1.62756,100.53,29.37,4.288,187.5,14 / 22,6179097,2019-08-18 16:56:41:634,0.1838,-0.5303,9.9733,-0.1202,-0.5443,9.7908,0.0011,-0.002,-0.0173
61780,47.583706,-1.62756,100.53,29.37,4.288,187.5,14 / 22,6179197,2019-08-18 16:56:41:734,0.0773,-0.3585,9.601,-0.1229,-0.5454,9.7907,0.0034,0.0066,-0.0167
61781,47.583706,-1.62756,100.53,29.37,4.288,187.5,14 / 22,6179297,2019-08-18 16:56:41:834,-0.2412,-0.3873,10.2133,-0.1232,-0.5469,9.7906,0.0044,-0.0006,-0.0175
61782,47.583706,-1.62756,100.53,29.37,4.288,187.5,14 / 22,6179397,2019-08-18 16:56:41:934,-0.21,-0.7099,9.6387,-0.1232,-0.5435,9.7908,0.0035,0.0072,-0.0181
61783,47.583706,-1.62756,100.53,29.37,4.288,187.5,14 / 22,6179497,2019-08-18 16:56:42:034,-0.2094,-0.5584,9.7381,-0.1206,-0.5473,9.7906,-0.0038,-0.0043,-0.0183
61784,47.583706,-1.62756,100.53,29.37,4.288,187.5,14 / 22,6179597,2019-08-18 16:56:42:134,-0.1729,-0.6327,9.5962,-0.1153,-0.5454,9.7908,0.0008,-0.0159,-0.0181
61785,47.583706,-1.62756,100.53,29.37,4.288,187.5,14 / 22,6179697,2019-08-18 16:56:42:234,0.0312,-0.972,10.4138,-0.0997,-0.5478,9.7908,0.0013,-0.0013,-0.0198
61786,47.583706,-1.62756,100.53,29.37,4.288,187.5,14 / 22,6179797,2019-08-18 16:56:42:334,-0.1089,-0.7931,9.7147,-0.1004,-0.5478,9.7908,0.0007,0.0085,-0.0175
61787,47.583706,-1.62756,100.53,29.37,4.288,187.5,14 / 22,6179897,2019-08-18 16:56:42:434,-0.0813,-0.665,10.0194,-0.107,-0.5583,9.7902,-0.0065,0.0069,-0.0136
61788,47.583706,-1.62756,100.53,29.37,4.288,187.5,14 / 22,6179997,2019-08-18 16:56:42:534,0.1066,-0.6794,9.9697,-0.1097,-0.5598,9.79,-0.0081,0.0021,-0.0129
61789,47.583706,-1.62756,100.53,29.37,4.288,187.5,15 / 23,6180097,2019-08-18 16:56:42:634,0.0036,-0.4788,9.8117,-0.1149,-0.5593,9.79,0.0072,0.0028,-0.01
61790,47.583706,-1.62756,100.53,29.37,4.288,187.5,15 / 23,6180197,2019-08-18 16:56:42:734,-0.2029,-0.3795,10.0445,-0.1092,-0.5584,9.7901,-0.0169,0.0011,-0.0104
61791,47.583706,-1.62756,100.53,29.37,4.288,187.5,15 / 23,6180297,2019-08-18 16:56:42:834,0.0647,0.2897,9.6148,-0.1096,-0.5808,9.7888,-0.0112,-0.0041,-0.012
61792,47.583706,-1.62756,100.53,29.37,4.288,187.5,15 / 23,6180397,2019-08-18 16:56:42:934,-0.0933,-0.3567,10.096,-0.1038,-0.5825,9.7888,0.0053,-0.0061,-0.0108
61793,47.583706,-1.62756,100.53,29.37,4.288,187.5,15 / 23,6180497,2019-08-18 16:56:43:034,-0.2388,-0.4782,9.7213,-0.0977,-0.5717,9.7895,0.0059,0.0072,-0.0093
61794,47.583706,-1.62756,100.53,29.37,4.288,187.5,15 / 23,6180597,2019-08-18 16:56:43:134,-0.2944,-0.674,9.4292,-0.1102,-0.5674,9.7896,0.0024,0.0154,-0.013
61795,47.583706,-1.62756,100.53,29.37,4.288,187.5,15 / 23,6180697,2019-08-18 16:56:43:234,-0.4297,-0.6925,10.0601,-0.1286,-0.5672,9.7894,0.0024,0.0154,-0.013
61796,47.583706,-1.62756,100.53,29.37,4.288,187.5,15 / 23,6180797,2019-08-18 16:56:43:334,-0.3519,-0.7937,9.4627,-0.1318,-0.5702,9.7892,-0.0042,0.0049,-0.0161
61797,47.583706,-1.62756,100.53,29.37,4.288,187.5,15 / 23,6180897,2019-08-18 16:56:43:434,-0.0383,-0.5716,9.34,-0.1346,-0.5805,9.7885,-0.0051,0.0038,-0.0158
61798,47.583706,-1.62756,100.53,29.37,4.288,187.5,15 / 23,6180997,2019-08-18 16:56:43:534,-0.1197,-0.7434,9.8392,-0.1393,-0.5855,9.7882,-0.0059,0.0076,-0.0148
61799,47.583706,-1.62756,100.53,29.37,4.288,187.5,15 / 23,6181097,2019-08-18 16:56:43:634,-0.137,-0.8033,10.4156,-0.1376,-0.6052,9.787,-0.0115,-0.0091,-0.0162
61800,47.583706,-1.62756,100.53,29.37,4.288,187.5,14 / 21,6181197,2019-08-18 16:56:43:734,-0.2633,-0.4776,10.0972,-0.1369,-0.6103,9.7867,0.0053,-0.0009,-0.0152
61801,47.583706,-1.62756,100.53,29.37,4.288,187.5,14 / 21,6181297,2019-08-18 16:56:43:834,-0.0299,-0.5429,10.193,-0.1382,-0.6062,9.7869,0.0094,0.0042,-0.0151
61802,47.583706,-1.62756,100.53,29.37,4.288,187.5,14 / 21,6181397,2019-08-18 16:56:43:934,-0.2471,-0.6201,9.5585,-0.1426,-0.6017,9.7871,0.0038,0.0152,-0.0179
61803,47.583706,-1.62756,100.53,29.37,4.288,187.5,14 / 21,6181497,2019-08-18 16:56:44:034,-0.2058,-0.4405,9.4574,-0.1522,-0.6037,9.7869,-0.0077,0.0121,-0.0202
61804,47.583706,-1.62756,100.53,29.37,4.288,187.5,14 / 21,6181597,2019-08-18 16:56:44:134,-0.2172,-0.8236,9.4358,-0.1572,-0.6218,9.7857,-0.0142,-0.0088,-0.0253
61805,47.583706,-1.62756,100.53,29.37,4.288,187.5,14 / 21,6181697,2019-08-18 16:56:44:234,-0.1831,-0.8541,9.9452,-0.1463,-0.6344,9.785,-0.008,-0.0147,-0.0235
61806,47.583706,-1.62756,100.53,29.37,4.288,187.5,14 / 21,6181798,2019-08-18 16:56:44:335,-0.1197,-0.902,10.1852,-0.1203,-0.6424,9.7848,0.0031,-0.0089,-0.0194
61807,47.583706,-1.62756,100.53,29.37,4.288,187.5,14 / 21,6181898,2019-08-18 16:56:44:435,-0.0855,-0.8715,9.9057,-0.1143,-0.6422,9.7849,0.0029,-0.0031,-0.0177
61808,47.583706,-1.62756,100.53,29.37,4.288,187.5,14 / 21,6181997,2019-08-18 16:56:44:534,-0.0335,-0.8733,9.8153,-0.1216,-0.6465,9.7846,-0.002,0.0131,-0.0183
61809,47.583706,-1.62756,100.53,29.37,4.288,187.5,14 / 21,6182097,2019-08-18 16:56:44:634,0.0839,-1.0624,9.7973,-0.1292,-0.6494,9.7843,-0.0067,0.0097,-0.0194
61810,47.583706,-1.62756,100.53,29.37,4.288,187.5,14 / 22,6182197,2019-08-18 16:56:44:734,-0.0167,-0.759,9.6626,-0.1406,-0.6646,9.7831,-0.0061,0.0078,-0.0203
61811,47.583706,-1.62756,100.53,29.37,4.288,187.5,14 / 22,6182297,2019-08-18 16:56:44:834,-0.158,-0.5195,9.8632,-0.1409,-0.6686,9.7828,-0.0004,-0.0006,-0.0201
61812,47.583706,-1.62756,100.53,29.37,4.288,187.5,14 / 22,6182397,2019-08-18 16:56:44:934,-0.0742,-0.5094,9.5471,-0.1521,-0.6536,9.7837,0.0181,0.0078,-0.0105
61813,47.583706,-1.62756,100.53,29.37,4.288,187.5,14 / 22,6182497,2019-08-18 16:56:45:034,-0.3501,-0.3837,9.34,-0.1609,-0.6433,9.7842,0.0087,0.0309,-0.0029
61814,47.583706,-1.62756,100.53,29.37,4.288,187.5,14 / 22,6182597,2019-08-18 16:56:45:134,-0.5907,-0.4262,9.2221,-0.2146,-0.6334,9.7838,-0.0023,0.0349,-0.0026
61815,47.583706,-1.62756,100.53,29.37,4.288,187.5,14 / 22,6182697,2019-08-18 16:56:45:234,-1.1785,-1.1025,9.7674,-0.237,-0.6454,9.7825,-0.0154,-0.001,-0.0058
61816,47.583706,-1.62756,100.53,29.37,4.288,187.5,14 / 22,6182797,2019-08-18 16:56:45:334,-1.1528,-0.8218,9.6082,-0.2516,-0.6596,9.7812,-0.0114,-0.0073,-0.0074
61817,47.583706,-1.62756,100.53,29.37,4.288,187.5,14 / 22,6182897,2019-08-18 16:56:45:434,-0.9636,-0.6979,9.9799,-0.257,-0.6598,9.7811,0.0054,-0.0111,-0.0033
61818,47.583706,-1.62756,100.53,29.37,4.288,187.5,14 / 22,6182997,2019-08-18 16:56:45:534,-0.9433,-0.8206,9.8189,-0.2666,-0.6507,9.7814,-0.0041,0.0058,-0.004
61819,47.583706,-1.62756,100.53,29.37,4.288,187.5,14 / 22,6183097,2019-08-18 16:56:45:634,-0.8619,-0.7021,9.7034,-0.2822,-0.6547,9.7807,-0.0063,0.0078,-0.0053
61820,47.583706,-1.62756,100.53,29.37,4.288,187.5,13 / 21,6183197,2019-08-18 16:56:45:734,-1.218,-0.8338,9.5872,-0.3104,-0.6624,9.7793,-0.0007,0.0042,-0.0046
61821,47.583706,-1.62756,100.53,29.37,4.288,187.5,13 / 21,6183297,2019-08-18 16:56:45:834,-0.9283,-0.7242,9.4029,-0.3223,-0.6604,9.7791,0.0081,0.0069,-0.0038
61822,47.583706,-1.62756,100.53,29.37,4.288,187.5,13 / 21,6183397,2019-08-18 16:56:45:934,-1.127,-0.7955,9.5789,-0.3425,-0.6539,9.7788,0.0005,-0.0022,-0.0039
61823,47.583706,-1.62756,100.53,29.37,4.288,187.5,13 / 21,6183497,2019-08-18 16:56:46:034,-1.1557,-0.6285,9.6968,-0.3499,-0.655,9.7785,-0.0047,0.0037,-0.0047
61824,47.583706,-1.62756,100.53,29.37,4.288,187.5,13 / 21,6183597,2019-08-18 16:56:46:134,-0.9492,-0.7751,9.6255,-0.3808,-0.6544,9.7774,0.0006,0.0131,-0.004
61825,47.583706,-1.62756,100.53,29.37,4.288,187.5,13 / 21,6183697,2019-08-18 16:56:46:234,-0.7475,-0.8631,9.2736,-0.3972,-0.656,9.7766,-0.002,0.0082,-0.0042
61826,47.583706,-1.62756,100.53,29.37,4.288,187.5,13 / 21,6183797,2019-08-18 16:56:46:334,-0.7882,-0.5848,9.7285,-0.4238,-0.6636,9.775,-0.0055,0.0113,-0.0063
61827,47.583706,-1.62756,100.53,29.37,4.288,187.5,13 / 21,6183897,2019-08-18 16:56:46:434,-0.7691,-0.6614,9.6549,-0.4361,-0.664,9.7744,0.0017,0.0042,-0.0042
61828,47.583706,-1.62756,100.53,29.37,4.288,187.5,13 / 21,6183997,2019-08-18 16:56:46:534,-0.7565,-0.4633,9.8865,-0.4538,-0.6623,9.7737,-0.0042,0.0019,-0.0037
61829,47.583706,-1.62756,100.53,29.37,4.288,187.5,13 / 21,6184097,2019-08-18 16:56:46:634,-0.9433,-0.6039,9.5782,-0.4576,-0.6607,9.7737,0.0004,-0.0021,-0.004
61830,47.58133,-1.628316,106.76,29.98,5.36,195.2,13 / 21,6184197,2019-08-18 16:56:46:734,-0.8774,-0.7685,9.7016,-0.4676,-0.6595,9.7733,-0.0019,-0.0044,-0.0029
61831,47.58133,-1.628316,106.76,29.98,5.36,195.2,13 / 21,6184297,2019-08-18 16:56:46:834,-1.5137,-0.923,10.2013,-0.4659,-0.6555,9.7736,0.0004,-0.007,-0.0045
61832,47.58133,-1.628316,106.76,29.98,5.36,195.2,13 / 21,6184398,2019-08-18 16:56:46:935,-0.8289,-0.7637,10.1038,-0.4675,-0.6499,9.7739,0.0096,-0.0053,-0.0037
61833,47.58133,-1.628316,106.76,29.98,5.36,195.2,13 / 21,6184498,2019-08-18 16:56:47:035,-1.0719,-0.7877,10.4432,-0.4732,-0.6332,9.7747,0.0108,-0.0043,-0.0021
61834,47.58133,-1.628316,106.76,29.98,5.36,195.2,13 / 21,6184597,2019-08-18 16:56:47:134,-0.3758,-0.4417,10.0559,-0.4753,-0.625,9.7752,-0.0072,-0.0009,-0.0035
61835,47.58133,-1.628316,106.76,29.98,5.36,195.2,13 / 21,6184697,2019-08-18 16:56:47:234,-0.6033,-0.2891,9.5543,-0.4844,-0.6232,9.7748,-0.0141,-0.0131,-0.0054
61836,47.58133,-1.628316,106.76,29.98,5.36,195.2,13 / 21,6184797,2019-08-18 16:56:47:334,-0.653,-0.3184,9.6196,-0.4795,-0.629,9.7747,-0.0115,-0.004,-0.0051
61837,47.58133,-1.628316,106.76,29.98,5.36,195.2,13 / 21,6184897,2019-08-18 16:56:47:434,-0.7457,-0.4483,9.3933,-0.4847,-0.633,9.7742,0.0029,-0.0047,-0.0029
61838,47.58133,-1.628316,106.76,29.98,5.36,195.2,13 / 21,6184997,2019-08-18 16:56:47:534,-0.6625,-0.5656,9.583,-0.4837,-0.6271,9.7746,0.0064,-0.0046,-0.0026
61839,47.58133,-1.628316,106.76,29.98,5.36,195.2,13 / 21,6185096,2019-08-18 16:56:47:633,-0.9229,-0.6231,10.2031,-0.482,-0.6165,9.7754,-0.0014,0.002,-0.004
61840,47.58133,-1.628316,106.76,29.98,5.36,195.2,14 / 23,6185197,2019-08-18 16:56:47:734,-0.5578,-0.6027,9.58,-0.4866,-0.6148,9.7753,-0.0025,0.0036,-0.005
61841,47.58133,-1.628316,106.76,29.98,5.36,195.2,14 / 23,6185297,2019-08-18 16:56:47:834,-0.1568,-0.7853,9.9571,-0.4878,-0.6142,9.7752,-0.0032,-0.0067,-0.0055
61842,47.58133,-1.628316,106.76,29.98,5.36,195.2,14 / 23,6185397,2019-08-18 16:56:47:934,-0.295,-0.4136,10.0254,-0.4842,-0.6168,9.7753,-0.0065,-0.0009,-0.006
61843,47.58133,-1.628316,106.76,29.98,5.36,195.2,14 / 23,6185497,2019-08-18 16:56:48:034,-0.2448,-0.3789,9.7512,-0.4873,-0.6154,9.7752,0.0005,0.0064,-0.0058
61844,47.58133,-1.628316,106.76,29.98,5.36,195.2,14 / 23,6185597,2019-08-18 16:56:48:134,-0.5267,-0.4591,9.8901,-0.4942,-0.6141,9.7749,-0.0007,0.0032,-0.0063
61845,47.58133,-1.628316,106.76,29.98,5.36,195.2,14 / 23,6185697,2019-08-18 16:56:48:234,-0.5057,-0.5417,9.44,-0.4925,-0.6116,9.7752,0.0001,0.0009,-0.0058
61846,47.58133,-1.628316,106.76,29.98,5.36,195.2,14 / 23,6185797,2019-08-18 16:56:48:334,-0.5321,-0.0964,9.2814,-0.4946,-0.6092,9.7752,-0.0011,0.0125,-0.0052
61847,47.58133,-1.628316,106.76,29.98,5.36,195.2,14 / 23,6185897,2019-08-18 16:56:48:434,-0.0305,-0.5052,9.5393,-0.5122,-0.6031,9.7747,0.0031,0.023,-0.0044
61848,47.58133,-1.628316,106.76,29.98,5.36,195.2,14 / 23,6185998,2019-08-18 16:56:48:535,-0.2454,-0.2921,9.0653,-0.5193,-0.6051,9.7742,-0.0086,0.0169,-0.0066
61849,47.58133,-1.628316,106.76,29.98,5.36,195.2,13 / 21,6186097,2019-08-18 16:56:48:634,-0.4189,-0.176,9.6525,-0.5231,-0.6166,9.7733,-0.0145,-0.0004,-0.009
61850,47.58133,-1.628316,106.76,29.98,5.36,195.2,13 / 21,6186197,2019-08-18 16:56:48:734,-0.2962,-0.4998,10.2277,-0.5184,-0.6181,9.7734,-0.0005,0.0034,-0.0047
61851,47.58133,-1.628316,106.76,29.98,5.36,195.2,13 / 21,6186297,2019-08-18 16:56:48:834,-0.5608,-0.1879,10.1265,-0.5136,-0.6074,9.7743,0.0057,-0.0045,-0.0026
61852,47.58133,-1.628316,106.76,29.98,5.36,195.2,13 / 21,6186397,2019-08-18 16:56:48:934,-0.7589,-0.3729,9.8895,-0.5067,-0.599,9.7752,0.0026,-0.0054,-0.0033
61853,47.58133,-1.628316,106.76,29.98,5.36,195.2,13 / 21,6186497,2019-08-18 16:56:49:034,-0.3118,-0.4112,9.5896,-0.5021,-0.5888,9.7761,0.0002,0.0025,-0.0053
61854,47.58133,-1.628316,106.76,29.98,5.36,195.2,13 / 21,6186597,2019-08-18 16:56:49:134,-0.3788,-0.6464,9.2544,-0.5023,-0.5873,9.7762,-0.0034,0.0075,-0.0042
61855,47.58133,-1.628316,106.76,29.98,5.36,195.2,13 / 21,6186697,2019-08-18 16:56:49:234,-0.2849,-0.3555,9.9817,-0.5056,-0.5833,9.7762,-0.0074,0.0,-0.0067
61856,47.58133,-1.628316,106.76,29.98,5.36,195.2,13 / 21,6186797,2019-08-18 16:56:49:334,-0.4321,-0.2047,9.8883,-0.5057,-0.5828,9.7762,-0.0022,-0.0052,-0.0078
61857,47.58133,-1.628316,106.76,29.98,5.36,195.2,13 / 21,6186897,2019-08-18 16:56:49:434,-0.1071,-0.4076,9.9248,-0.4903,-0.5793,9.7772,-0.0001,-0.0022,-0.0076
61858,47.58133,-1.628316,106.76,29.98,5.36,195.2,13 / 21,6186997,2019-08-18 16:56:49:534,-0.2172,-0.4675,10.1074,-0.4897,-0.5763,9.7775,0.0024,-0.0035,-0.0042
61859,47.58133,-1.628316,106.76,29.98,5.36,195.2,14 / 22,6187097,2019-08-18 16:56:49:634,-0.6619,-0.2927,9.7087,-0.4756,-0.5717,9.7784,0.0036,-0.0078,-0.0047
61860,47.58133,-1.628316,106.76,29.98,5.36,195.2,14 / 22,6187197,2019-08-18 16:56:49:734,-0.1753,-0.3609,9.4053,-0.4738,-0.5677,9.7787,-0.0098,0.0071,-0.0072
61861,47.58133,-1.628316,106.76,29.98,5.36,195.2,14 / 22,6187297,2019-08-18 16:56:49:834,-0.4626,-0.4142,9.768,-0.4811,-0.577,9.7778,-0.0128,0.0106,-0.0085
61862,47.58133,-1.628316,106.76,29.98,5.36,195.2,14 / 22,6187397,2019-08-18 16:56:49:934,-0.3489,-0.2663,9.4346,-0.4868,-0.581,9.7773,-0.0094,0.0119,-0.0072
61863,47.58133,-1.628316,106.76,29.98,5.36,195.2,14 / 22,6187496,2019-08-18 16:56:50:033,-0.5123,-0.5513,10.2025,-0.491,-0.5739,9.7775,0.0079,-0.0003,-0.0054
61864,47.58133,-1.628316,106.76,29.98,5.36,195.2,14 / 22,6187597,2019-08-18 16:56:50:134,-0.6326,-0.3873,9.3981,-0.4851,-0.5701,9.778,-0.0007,-0.0047,-0.0063
61865,47.58133,-1.628316,106.76,29.98,5.36,195.2,14 / 22,6187698,2019-08-18 16:56:50:235,-0.5339,-0.4459,9.7746,-0.4823,-0.5662,9.7784,-0.0002,-0.0031,-0.0071
61866,47.58133,-1.628316,106.76,29.98,5.36,195.2,14 / 22,6187797,2019-08-18 16:56:50:334,-0.404,-0.4441,9.78,-0.4841,-0.5696,9.7781,-0.0047,0.0173,-0.0061
61867,47.58133,-1.628316,106.76,29.98,5.36,195.2,14 / 22,6187896,2019-08-18 16:56:50:433,-0.1975,-0.5656,9.8799,-0.4939,-0.5708,9.7776,-0.0001,0.0184,-0.0058
61868,47.58133,-1.628316,106.76,29.98,5.36,195.2,14 / 22,6187997,2019-08-18 16:56:50:534,-0.4303,-0.4968,9.7979,-0.5071,-0.5657,9.7772,0.0057,0.0105,-0.0038
61869,47.58133,-1.628316,106.76,29.98,5.36,195.2,Dec-21,6188097,2019-08-18 16:56:50:634,-0.3501,-0.34,9.8584,-0.5097,-0.5615,9.7773,0.0004,0.0044,-0.0037
61870,47.58133,-1.628316,106.76,29.98,5.36,195.2,Dec-21,6188197,2019-08-18 16:56:50:734,-0.4698,-0.5166,9.6788,-0.5194,-0.5557,9.7771,0.0,0.0018,-0.0054
61871,47.58133,-1.628316,106.76,29.98,5.36,195.2,Dec-21,6188297,2019-08-18 16:56:50:834,-0.3878,-0.2191,9.8249,-0.5176,-0.5527,9.7774,-0.0069,-0.0081,-0.0032
61872,47.58133,-1.628316,106.76,29.98,5.36,195.2,Dec-21,6188397,2019-08-18 16:56:50:934,-0.4931,-0.2125,9.5567,-0.5041,-0.5603,9.7776,-0.0081,-0.0028,-0.0042
61873,47.58133,-1.628316,106.76,29.98,5.36,195.2,Dec-21,6188497,2019-08-18 16:56:51:034,-0.5416,-0.4818,9.6591,-0.5026,-0.5613,9.7777,-0.0029,0.0014,-0.0052
61874,47.58133,-1.628316,106.76,29.98,5.36,195.2,Dec-21,6188597,2019-08-18 16:56:51:134,-0.62,-0.3903,9.7189,-0.498,-0.5541,9.7783,-0.0005,-0.0058,-0.0032
61875,47.58133,-1.628316,106.76,29.98,5.36,195.2,Dec-21,6188697,2019-08-18 16:56:51:234,-0.1556,-0.3639,9.6746,-0.4967,-0.5482,9.7787,0.0093,0.0033,-0.0016
61876,47.58133,-1.628316,106.76,29.98,5.36,195.2,Dec-21,6188797,2019-08-18 16:56:51:334,-0.1622,-0.3388,10.2289,-0.493,-0.5346,9.7797,0.0132,0.001,0.0001
61877,47.58133,-1.628316,106.76,29.98,5.36,195.2,Dec-21,6188897,2019-08-18 16:56:51:434,-0.5279,-0.2412,9.6243,-0.4912,-0.5215,9.7805,0.0044,-0.0039,0.0023
61878,47.58133,-1.628316,106.76,29.98,5.36,195.2,Dec-21,6188997,2019-08-18 16:56:51:534,-0.4788,0.2203,9.9889,-0.4968,-0.5043,9.7811,0.0019,0.0061,0.001
61879,47.58133,-1.628316,106.76,29.98,5.36,195.2,14 / 23,6189097,2019-08-18 16:56:51:634,-0.2675,-0.1736,9.844,-0.4994,-0.4967,9.7813,0.0078,0.0092,0.0039
61880,47.58133,-1.628316,106.76,29.98,5.36,195.2,14 / 23,6189197,2019-08-18 16:56:51:734,-0.4764,-0.3041,9.531,-0.5147,-0.4677,9.782,0.013,0.0085,0.0061
61881,47.58133,-1.628316,106.76,29.98,5.36,195.2,14 / 23,6189297,2019-08-18 16:56:51:834,-0.574,0.0024,9.3855,-0.5216,-0.4601,9.782,0.0003,0.0037,0.0046
61882,47.58133,-1.628316,106.76,29.98,5.36,195.2,14 / 23,6189397,2019-08-18 16:56:51:934,-0.6625,0.0676,9.6674,-0.5226,-0.4458,9.7826,0.0005,0.0018,0.0062
61883,47.58133,-1.628316,106.76,29.98,5.36,195.2,14 / 23,6189497,2019-08-18 16:56:52:034,-0.6458,0.1532,9.6118,-0.5223,-0.4389,9.7829,0.0083,0.005,0.0074
61884,47.58133,-1.628316,106.76,29.98,5.36,195.2,14 / 23,6189597,2019-08-18 16:56:52:134,-0.2352,-0.0048,10.5036,-0.5282,-0.4147,9.7836,0.0037,0.0039,0.0071
61885,47.58133,-1.628316,106.76,29.98,5.36,195.2,14 / 23,6189697,2019-08-18 16:56:52:234,-0.3375,-0.0886,10.1247,-0.5313,-0.4058,9.7838,0.0037,-0.0027,0.0068
61886,47.58133,-1.628316,106.76,29.98,5.36,195.2,14 / 23,6189797,2019-08-18 16:56:52:334,-0.4447,0.2239,9.8266,-0.5318,-0.3881,9.7845,-0.0072,-0.0011,0.0052
61887,47.58133,-1.628316,106.76,29.98,5.36,195.2,14 / 23,6189897,2019-08-18 16:56:52:434,-0.5775,0.2532,9.7758,-0.5328,-0.3877,9.7845,-0.0095,0.0065,0.0049
61888,47.58133,-1.628316,106.76,29.98,5.36,195.2,14 / 23,6189997,2019-08-18 16:56:52:534,-0.3878,-0.3011,9.0222,-0.5541,-0.3884,9.7833,-0.0104,0.0273,0.0065
61889,47.58133,-1.628316,106.76,29.98,5.36,195.2,14 / 21,6190097,2019-08-18 16:56:52:634,-0.4931,-0.0132,9.6968,-0.5714,-0.3895,9.7822,-0.0058,0.0113,0.0058
61890,47.58133,-1.628316,106.76,29.98,5.36,195.2,14 / 21,6190196,2019-08-18 16:56:52:733,-0.9241,-0.17,9.938,-0.5699,-0.3796,9.7827,0.0134,-0.0148,0.0005
61891,47.58133,-1.628316,106.76,29.98,5.36,195.2,14 / 21,6190297,2019-08-18 16:56:52:834,-0.7194,-0.1969,9.8165,-0.5569,-0.3656,9.784,0.0034,-0.007,-0.0027
61892,47.58133,-1.628316,106.76,29.98,5.36,195.2,14 / 21,6190397,2019-08-18 16:56:52:934,-0.6853,-0.2939,9.7871,-0.5507,-0.3603,9.7845,0.0004,0.0039,-0.0038
61893,47.58133,-1.628316,106.76,29.98,5.36,195.2,14 / 21,6190497,2019-08-18 16:56:53:034,-0.4225,-0.568,9.8608,-0.5594,-0.3648,9.7839,-0.0092,0.011,-0.0052
61894,47.58133,-1.628316,106.76,29.98,5.36,195.2,14 / 21,6190597,2019-08-18 16:56:53:134,-0.6506,-0.5902,9.5872,-0.5833,-0.3864,9.7817,-0.0129,0.0199,-0.0055
61895,47.58133,-1.628316,106.76,29.98,5.36,195.2,14 / 21,6190697,2019-08-18 16:56:53:234,-0.6553,-0.5363,9.665,-0.5984,-0.3968,9.7803,-0.0114,0.0187,-0.0049
61896,47.58133,-1.628316,106.76,29.98,5.36,195.2,14 / 21,6190797,2019-08-18 16:56:53:334,-0.6344,-0.5034,9.7943,-0.6181,-0.399,9.779,0.0108,0.0146,-0.004
61897,47.58133,-1.628316,106.76,29.98,5.36,195.2,14 / 21,6190897,2019-08-18 16:56:53:434,-0.6434,-0.5369,9.6477,-0.6361,-0.3985,9.7779,-0.0042,-0.0064,-0.0081
61898,47.58133,-1.628316,106.76,29.98,5.36,195.2,14 / 21,6190998,2019-08-18 16:56:53:535,-0.8301,-0.4208,9.3616,-0.6365,-0.4064,9.7775,-0.0083,0.0012,-0.0093
61899,47.58133,-1.628316,106.76,29.98,5.36,195.2,14 / 21,6191097,2019-08-18 16:56:53:634,-0.9648,-0.4812,9.3382,-0.6502,-0.4269,9.7758,-0.0131,0.0046,-0.0064
61900,47.58133,-1.628316,106.76,29.98,5.36,195.2,15 / 22,6191197,2019-08-18 16:56:53:734,-1.2042,-1.0624,9.8362,-0.6612,-0.4412,9.7744,-0.0085,-0.0002,-0.0066
61901,47.58133,-1.628316,106.76,29.98,5.36,195.2,15 / 22,6191297,2019-08-18 16:56:53:834,-1.2306,-0.422,9.5208,-0.6626,-0.4531,9.7737,-0.0012,-0.0048,-0.0039
61902,47.58133,-1.628316,106.76,29.98,5.36,195.2,15 / 22,6191397,2019-08-18 16:56:53:934,-1.145,-0.8745,9.4047,-0.6651,-0.4545,9.7735,0.0059,0.0019,-0.0027
61903,47.58133,-1.628316,106.76,29.98,5.36,195.2,15 / 22,6191497,2019-08-18 16:56:54:034,-0.8026,-0.674,9.6872,-0.6894,-0.454,9.7718,0.0067,0.0088,-0.0026
61904,47.58133,-1.628316,106.76,29.98,5.36,195.2,15 / 22,6191597,2019-08-18 16:56:54:134,-0.8128,-0.7871,10.0739,-0.6952,-0.4533,9.7715,0.0056,-0.0013,-0.0031
61905,47.58133,-1.628316,106.76,29.98,5.36,195.2,15 / 22,6191696,2019-08-18 16:56:54:233,-0.7559,-0.6267,10.1978,-0.6962,-0.4449,9.7718,0.0078,-0.0091,-0.0031
61906,47.58133,-1.628316,106.76,29.98,5.36,195.2,15 / 22,6191797,2019-08-18 16:56:54:334,-0.623,-0.3855,10.0128,-0.697,-0.4417,9.7719,-0.0075,0.0037,-0.002
61907,47.58133,-1.628316,106.76,29.98,5.36,195.2,15 / 22,6191897,2019-08-18 16:56:54:434,-0.8391,-0.5387,9.5998,-0.7097,-0.4447,9.7708,0.0032,0.0104,-0.0009
61908,47.58133,-1.628316,106.76,29.98,5.36,195.2,15 / 22,6191997,2019-08-18 16:56:54:534,-0.9421,-0.6147,9.8572,-0.7144,-0.4457,9.7704,-0.0083,-0.0038,-0.0025
61909,47.58133,-1.628316,106.76,29.98,5.36,195.2,15 / 22,6192097,2019-08-18 16:56:54:634,-1.0917,-0.5626,9.7279,-0.7173,-0.4598,9.7696,-0.0187,-0.0072,-0.0004
61910,47.58133,-1.628316,106.76,29.98,5.36,195.2,15 / 22,6192197,2019-08-18 16:56:54:734,-0.8858,-0.2263,9.762,-0.7262,-0.4624,9.7688,-0.0039,0.0069,0.0012
61911,47.58133,-1.628316,106.76,29.98,5.36,195.2,15 / 22,6192297,2019-08-18 16:56:54:834,-0.6123,-0.2652,9.4729,-0.7343,-0.4613,9.7682,0.0011,0.0105,0.0062
61912,47.58133,-1.628316,106.76,29.98,5.36,195.2,15 / 22,6192397,2019-08-18 16:56:54:934,-0.9941,-0.1897,9.7674,-0.7524,-0.4538,9.7672,0.0093,0.0214,0.0084
61913,47.58133,-1.628316,106.76,29.98,5.36,195.2,15 / 22,6192497,2019-08-18 16:56:55:034,-1.1198,-0.3041,9.5884,-0.7725,-0.4453,9.766,-0.0011,0.0043,0.0067
61914,47.58133,-1.628316,106.76,29.98,5.36,195.2,15 / 22,6192597,2019-08-18 16:56:55:134,-1.0767,-0.1556,9.7117,-0.7735,-0.439,9.7662,0.004,-0.0019,0.0061
