,GPS LATITUDE (degrees),GPS LONGITUDE (degrees), GPS ALTITUDE (m),GPS SPEED (Kmh),GPS ACCURACY (m),GPS ORIENTATION (Â°), SATELLITES IN RANGE, TIME SINCE START (ms), DATE (YYYY-MO-DD HH-MI-SS_SSS),ACCELEROMETER X (m/s²) , ACCELEROMETER Y (m/s²), ACCELEROMETER Z (m/s²), GRAVITY X (m/s²), GRAVITY Y (m/s²), GRAVITY Z (m/s²), GYROSCOPE Yaw (rad/s), GYROSCOPE Pitch (rad/s), GYROSCOPE Roll (rad/s)
5514,48.476967,-2.594284,126.25,29.3,3.216,90.2,15 / 20,551412,2019-08-18 15:22:53:949,-1.0893,-0.6883,9.7273,-0.4248,-0.6382,9.7766,-0.0125,-0.0144,-0.0146
5515,48.476967,-2.594284,126.25,29.3,3.216,90.2,15 / 20,551515,2019-08-18 15:22:54:052,-0.1568,0.2508,7.7694,-0.422,-0.6469,9.7762,-0.0055,0.0135,-0.009
5516,48.476967,-2.594284,126.25,29.3,3.216,90.2,15 / 20,551612,2019-08-18 15:22:54:149,-0.5476,0.1281,9.859,-0.4278,-0.642,9.7763,0.0094,0.0029,-0.0081
5517,48.476967,-2.594284,126.25,29.3,3.216,90.2,15 / 20,551712,2019-08-18 15:22:54:249,-0.2861,-0.34,10.4474,-0.4381,-0.6198,9.7772,0.0101,-0.0158,-0.0062
5518,48.476967,-2.594284,126.25,29.3,3.216,90.2,15 / 20,551811,2019-08-18 15:22:54:348,-0.7433,-0.2454,10.1858,-0.4302,-0.6068,9.7784,0.001,-0.0088,-0.0091
5519,48.476967,-2.594284,126.25,29.3,3.216,90.2,15 / 20,551911,2019-08-18 15:22:54:448,-0.474,-0.3526,10.2498,-0.4226,-0.6053,9.7788,-0.0147,-0.0111,-0.0136
5520,48.476967,-2.594284,126.25,29.3,3.216,90.2,15 / 20,552011,2019-08-18 15:22:54:548,-0.4022,-0.3783,9.5172,-0.4207,-0.6094,9.7787,-0.0193,-0.0069,-0.0144
5521,48.476967,-2.594284,126.25,29.3,3.216,90.2,15 / 20,552111,2019-08-18 15:22:54:648,-0.1424,0.1329,10.846,-0.4222,-0.6406,9.7766,-0.0423,-0.0145,-0.0127
5522,48.476967,-2.594284,126.25,29.3,3.216,90.2,16 / 20,552211,2019-08-18 15:22:54:748,-0.1921,0.5351,6.23,-0.4057,-0.655,9.7763,0.002,0.0693,-0.0142
5523,48.476967,-2.594284,126.25,29.3,3.216,90.2,16 / 20,552311,2019-08-18 15:22:54:848,-0.2184,0.3208,10.3205,-0.4264,-0.6317,9.777,0.0139,-0.0395,-0.0014
5524,48.476967,-2.594284,126.25,29.3,3.216,90.2,16 / 20,552411,2019-08-18 15:22:54:948,-1.0342,0.0377,8.0442,-0.4417,-0.6153,9.7774,-0.0197,-0.0242,-0.003
5525,48.476967,-2.594284,126.25,29.3,3.216,90.2,16 / 20,552511,2019-08-18 15:22:55:048,-1.5915,-0.5902,10.5826,-0.4455,-0.6197,9.7769,-0.0364,-0.0378,-0.0127
5526,48.476967,-2.594284,126.25,29.3,3.216,90.2,16 / 20,552611,2019-08-18 15:22:55:148,-0.8601,-1.4305,8.2291,-0.4256,-0.6419,9.7764,-0.0214,0.0078,-0.0086
5527,48.476967,-2.594284,126.25,29.3,3.216,90.2,16 / 20,552711,2019-08-18 15:22:55:248,-0.6542,0.498,10.8185,-0.425,-0.6174,9.778,-0.0023,0.0238,-0.0012
5528,48.476967,-2.594284,126.25,29.3,3.216,90.2,16 / 20,552811,2019-08-18 15:22:55:348,0.8865,-0.4166,7.2295,-0.4489,-0.5875,9.7787,-0.0338,-0.0517,-0.0164
5529,48.476967,-2.594284,126.25,29.3,3.216,90.2,16 / 20,552911,2019-08-18 15:22:55:448,0.4987,-0.3639,8.3674,-0.4275,-0.6133,9.7781,-0.0354,0.0259,-0.0028
5530,48.476967,-2.594284,126.25,29.3,3.216,90.2,16 / 20,553011,2019-08-18 15:22:55:548,-0.7685,0.4148,10.4833,-0.4374,-0.6016,9.7784,0.0196,0.0234,0.0101
5531,48.476967,-2.594284,126.25,29.3,3.216,90.2,16 / 20,553111,2019-08-18 15:22:55:648,-0.9498,0.319,10.3678,-0.4508,-0.5818,9.779,0.0065,-0.0054,-0.001
5532,48.476967,-2.594284,126.25,29.3,3.216,90.2,15 / 20,553211,2019-08-18 15:22:55:748,-0.9193,0.0311,10.1158,-0.4477,-0.5548,9.7807,-0.0125,-0.0101,-0.0058
5533,48.476967,-2.594284,126.25,29.3,3.216,90.2,15 / 20,553311,2019-08-18 15:22:55:848,-0.6895,-0.0347,9.7375,-0.4477,-0.5551,9.7807,-0.0189,-0.0053,-0.008
5534,48.476967,-2.594284,126.25,29.3,3.216,90.2,15 / 20,553411,2019-08-18 15:22:55:948,-0.7793,-0.0228,9.7494,-0.4533,-0.5607,9.7801,-0.0063,-0.0121,-0.0055
5535,48.476967,-2.594284,126.25,29.3,3.216,90.2,15 / 20,553511,2019-08-18 15:22:56:048,-0.7882,-0.4561,10.1337,-0.4462,-0.5556,9.7807,0.0059,-0.0107,-0.0053
5536,48.476967,-2.594284,126.25,29.3,3.216,90.2,15 / 20,553611,2019-08-18 15:22:56:148,-0.5823,-0.3639,10.1229,-0.4416,-0.5373,9.782,0.003,-0.0031,-0.0066
5537,48.476967,-2.594284,126.25,29.3,3.216,90.2,15 / 20,553711,2019-08-18 15:22:56:248,-0.981,-0.3023,10.2768,-0.4417,-0.5358,9.782,-0.0334,-0.0286,-0.0097
5538,48.476967,-2.594284,126.25,29.3,3.216,90.2,15 / 20,553811,2019-08-18 15:22:56:348,-0.2968,-1.0151,8.3405,-0.4638,-0.5523,9.7801,-0.0229,-0.0013,-0.0119
5539,48.476967,-2.594284,126.25,29.3,3.216,90.2,15 / 20,553911,2019-08-18 15:22:56:448,0.4119,-0.7147,9.4645,-0.475,-0.5678,9.7787,-0.0115,0.0728,-0.019
5540,48.476967,-2.594284,126.25,29.3,3.216,90.2,15 / 20,554011,2019-08-18 15:22:56:548,-0.7559,-1.1911,10.4264,-0.452,-0.5902,9.7784,-0.0057,-0.019,-0.0061
5541,48.476967,-2.594284,126.25,29.3,3.216,90.2,15 / 20,554111,2019-08-18 15:22:56:648,-0.623,0.1012,10.2379,-0.4508,-0.5776,9.7792,0.0011,-0.0148,-0.0054
5542,48.476967,-2.594284,126.25,29.3,3.216,90.2,17 / 20,554211,2019-08-18 15:22:56:748,-0.6105,-0.5297,10.3594,-0.4422,-0.5727,9.7799,-0.0027,-0.0089,-0.0044
5543,48.476967,-2.594284,126.25,29.3,3.216,90.2,17 / 20,554311,2019-08-18 15:22:56:848,-0.7457,0.0778,9.3807,-0.4464,-0.5702,9.7799,-0.0087,-0.0071,-0.0065
5544,48.476967,-2.594284,126.25,29.3,3.216,90.2,17 / 20,554411,2019-08-18 15:22:56:948,-0.8116,-0.2532,9.2299,-0.4528,-0.5743,9.7793,-0.0071,0.0077,-0.008
5545,48.476967,-2.594284,126.25,29.3,3.216,90.2,17 / 20,554511,2019-08-18 15:22:57:048,-0.6697,-0.4339,8.857,-0.4599,-0.5743,9.779,-0.0012,0.0109,-0.0076
5546,48.476967,-2.594284,126.25,29.3,3.216,90.2,17 / 20,554611,2019-08-18 15:22:57:148,-0.8619,-0.4082,9.5232,-0.4799,-0.5647,9.7786,0.0061,0.0013,-0.0076
5547,48.476967,-2.594284,126.25,29.3,3.216,90.2,17 / 20,554711,2019-08-18 15:22:57:248,-0.7092,-0.5704,10.1523,-0.4826,-0.559,9.7788,-0.0001,-0.0032,-0.009
5548,48.476967,-2.594284,126.25,29.3,3.216,90.2,17 / 20,554811,2019-08-18 15:22:57:348,-0.6446,-0.2903,10.3665,-0.4864,-0.5588,9.7786,0.0002,0.0125,-0.0095
5549,48.476967,-2.594284,126.25,29.3,3.216,90.2,17 / 20,554911,2019-08-18 15:22:57:448,-0.796,-0.2556,9.455,-0.4982,-0.5552,9.7782,0.0063,0.0118,-0.0084
5550,48.476967,-2.594284,126.25,29.3,3.216,90.2,17 / 20,555011,2019-08-18 15:22:57:548,-0.2166,-0.5932,10.8011,-0.5098,-0.5448,9.7782,0.0009,-0.0037,-0.008
5551,48.476967,-2.594284,126.25,29.3,3.216,90.2,17 / 20,555111,2019-08-18 15:22:57:648,-1.5628,-0.6572,8.9564,-0.51,-0.5366,9.7787,0.0015,0.0017,-0.0069
5552,48.476734,-2.590648,124.49,30.93,3.216,98.8,17 / 20,555211,2019-08-18 15:22:57:748,-0.8475,-0.1221,10.4336,-0.5122,-0.5274,9.7791,0.0066,0.0079,-0.0004
5553,48.476734,-2.590648,124.49,30.93,3.216,98.8,17 / 20,555311,2019-08-18 15:22:57:848,-0.6057,-0.0892,9.3065,-0.5229,-0.5275,9.7785,-0.0068,0.016,0.0009
5554,48.476734,-2.590648,124.49,30.93,3.216,98.8,17 / 20,555411,2019-08-18 15:22:57:948,-0.4345,0.1239,10.3618,-0.5376,-0.5128,9.7785,-0.0011,-0.0099,0.0028
5555,48.476734,-2.590648,124.49,30.93,3.216,98.8,17 / 20,555511,2019-08-18 15:22:58:048,-0.963,0.0934,9.9428,-0.5272,-0.5156,9.7789,-0.0168,-0.0257,0.0024
5556,48.476734,-2.590648,124.49,30.93,3.216,98.8,17 / 20,555611,2019-08-18 15:22:58:148,-0.9726,0.0144,9.3011,-0.5274,-0.5197,9.7787,-0.0179,-0.004,0.001
5557,48.476734,-2.590648,124.49,30.93,3.216,98.8,17 / 20,555711,2019-08-18 15:22:58:248,-0.7571,-0.185,9.3885,-0.5396,-0.5237,9.7778,-0.0034,0.0017,0.0039
5558,48.476734,-2.590648,124.49,30.93,3.216,98.8,17 / 20,555811,2019-08-18 15:22:58:348,-0.8397,-0.3112,9.8207,-0.5462,-0.5203,9.7776,0.0027,0.0035,0.0042
5559,48.476734,-2.590648,124.49,30.93,3.216,98.8,17 / 20,555911,2019-08-18 15:22:58:448,-1.2623,-0.267,9.756,-0.5606,-0.5003,9.7778,0.01,-0.001,0.0056
5560,48.476734,-2.590648,124.49,30.93,3.216,98.8,17 / 20,556012,2019-08-18 15:22:58:549,-1.2784,-0.1544,9.8901,-0.5684,-0.4852,9.7781,-0.0138,-0.0112,0.003
5561,48.476734,-2.590648,124.49,30.93,3.216,98.8,17 / 20,556111,2019-08-18 15:22:58:648,-1.4083,-0.2448,9.95,-0.5724,-0.4859,9.7779,-0.0166,0.0036,0.0016
5562,48.476734,-2.590648,124.49,30.93,3.216,98.8,17 / 20,556211,2019-08-18 15:22:58:748,-1.1994,-0.5135,9.7961,-0.5832,-0.4928,9.7769,-0.0192,0.0002,0.0011
5563,48.476734,-2.590648,124.49,30.93,3.216,98.8,17 / 20,556311,2019-08-18 15:22:58:848,-1.3377,-0.261,9.9966,-0.5971,-0.4945,9.776,-0.0013,-0.0063,0.0029
5564,48.476734,-2.590648,124.49,30.93,3.216,98.8,17 / 20,556412,2019-08-18 15:22:58:949,-1.0815,-0.4202,10.1421,-0.6081,-0.4853,9.7757,0.0132,0.0132,0.0035
5565,48.476734,-2.590648,124.49,30.93,3.216,98.8,17 / 20,556511,2019-08-18 15:22:59:048,-0.9696,-0.3071,10.0457,-0.6381,-0.4628,9.7749,-0.0015,-0.004,0.0025
5566,48.476734,-2.590648,124.49,30.93,3.216,98.8,17 / 20,556611,2019-08-18 15:22:59:148,-0.9858,-0.4064,10.5162,-0.6403,-0.4642,9.7747,-0.0059,-0.0043,-0.0013
5567,48.476734,-2.590648,124.49,30.93,3.216,98.8,17 / 20,556712,2019-08-18 15:22:59:249,-1.2,0.0126,10.43,-0.6484,-0.4668,9.7741,-0.0044,-0.0065,-0.0018
5568,48.476734,-2.590648,124.49,30.93,3.216,98.8,17 / 20,556811,2019-08-18 15:22:59:348,-1.2814,-0.4782,9.7375,-0.6549,-0.4679,9.7736,-0.0074,-0.014,-0.0005
5569,48.476734,-2.590648,124.49,30.93,3.216,98.8,17 / 20,556911,2019-08-18 15:22:59:448,-1.3377,-0.3944,9.7943,-0.6659,-0.4717,9.7726,-0.0009,-0.005,0.0001
5570,48.476734,-2.590648,124.49,30.93,3.216,98.8,17 / 20,557011,2019-08-18 15:22:59:548,-1.3437,-0.4417,9.2945,-0.6792,-0.4722,9.7717,-0.0034,0.0021,0.0032
5571,48.476734,-2.590648,124.49,30.93,3.216,98.8,17 / 20,557112,2019-08-18 15:22:59:649,-1.6633,-0.6542,9.4939,-0.7178,-0.4775,9.7687,-0.0079,0.0047,0.003
5572,48.476734,-2.590648,124.49,30.93,3.216,98.8,16 / 20,557211,2019-08-18 15:22:59:748,-1.8656,-0.6542,9.3346,-0.7297,-0.4874,9.7673,-0.0042,-0.0041,0.0007
5573,48.476734,-2.590648,124.49,30.93,3.216,98.8,16 / 20,557311,2019-08-18 15:22:59:848,-1.8279,-0.7997,9.5172,-0.7595,-0.4916,9.7648,-0.0033,-0.0044,0.0019
5574,48.476734,-2.590648,124.49,30.93,3.216,98.8,16 / 20,557411,2019-08-18 15:22:59:948,-1.8237,-0.5668,9.9338,-0.7821,-0.5039,9.7624,-0.0187,-0.0031,0.0004
5575,48.476734,-2.590648,124.49,30.93,3.216,98.8,16 / 20,557511,2019-08-18 15:23:00:048,-1.9051,-0.899,10.1253,-0.8103,-0.527,9.7589,-0.0032,-0.0007,0.0008
5576,48.476734,-2.590648,124.49,30.93,3.216,98.8,16 / 20,557611,2019-08-18 15:23:00:148,-1.7573,-0.7326,10.3983,-0.8257,-0.5304,9.7574,-0.0081,-0.0094,-0.0003
5577,48.476734,-2.590648,124.49,30.93,3.216,98.8,16 / 20,557712,2019-08-18 15:23:00:249,-1.8495,-0.8876,10.108,-0.8557,-0.544,9.7541,-0.001,-0.0022,-0.0003
5578,48.476734,-2.590648,124.49,30.93,3.216,98.8,16 / 20,557811,2019-08-18 15:23:00:348,-1.2084,-0.419,9.3604,-0.8649,-0.5453,9.7532,0.0052,-0.0054,-0.0008
5579,48.476734,-2.590648,124.49,30.93,3.216,98.8,16 / 20,557911,2019-08-18 15:23:00:448,-1.1929,-0.164,9.4657,-0.8766,-0.5356,9.7527,0.0039,-0.0072,-0.0003
5580,48.476734,-2.590648,124.49,30.93,3.216,98.8,16 / 20,558011,2019-08-18 15:23:00:548,-1.0719,-0.2634,9.6082,-0.8762,-0.5327,9.7529,0.0033,-0.0096,0.0013
5581,48.476734,-2.590648,124.49,30.93,3.216,98.8,16 / 20,558111,2019-08-18 15:23:00:648,-1.1659,-0.513,9.5765,-0.8877,-0.5204,9.7525,0.004,0.0099,0.0021
5582,48.476734,-2.590648,124.49,30.93,3.216,98.8,15 / 20,558211,2019-08-18 15:23:00:748,-1.1378,-0.4064,9.434,-0.8956,-0.5187,9.7519,-0.0082,0.0028,0.0014
5583,48.476734,-2.590648,124.49,30.93,3.216,98.8,15 / 20,558313,2019-08-18 15:23:00:850,-1.4041,-0.486,9.7099,-0.8982,-0.5309,9.751,-0.0156,-0.0163,-0.0023
5584,48.476734,-2.590648,124.49,30.93,3.216,98.8,15 / 20,558411,2019-08-18 15:23:00:948,-1.2288,-0.4226,10.4414,-0.8896,-0.5373,9.7514,-0.0101,-0.0166,-0.0035
5585,48.476734,-2.590648,124.49,30.93,3.216,98.8,15 / 20,558511,2019-08-18 15:23:01:048,-1.2719,-0.3944,10.0409,-0.8888,-0.5368,9.7515,-0.0091,0.0048,-0.0014
5586,48.476734,-2.590648,124.49,30.93,3.216,98.8,15 / 20,558611,2019-08-18 15:23:01:148,-1.1492,-0.3244,10.0338,-0.906,-0.5491,9.7493,-0.0183,0.0016,-0.0014
5587,48.476734,-2.590648,124.49,30.93,3.216,98.8,15 / 20,558711,2019-08-18 15:23:01:248,-1.1839,-0.7823,9.8129,-0.906,-0.5538,9.749,-0.0015,-0.0048,0.0004
5588,48.476734,-2.590648,124.49,30.93,3.216,98.8,15 / 20,558811,2019-08-18 15:23:01:348,-1.288,-0.2412,9.6555,-0.9079,-0.549,9.7491,-0.0061,-0.0054,0.0026
5589,48.476734,-2.590648,124.49,30.93,3.216,98.8,15 / 20,558912,2019-08-18 15:23:01:449,-1.2749,-0.495,10.2881,-0.9103,-0.5489,9.7489,-0.0155,-0.019,-0.0009
5590,48.476734,-2.590648,124.49,30.93,3.216,98.8,15 / 20,559011,2019-08-18 15:23:01:548,-1.2084,-0.5357,10.1062,-0.898,-0.559,9.7494,-0.017,-0.0094,0.0011
5591,48.476734,-2.590648,124.49,30.93,3.216,98.8,15 / 20,559111,2019-08-18 15:23:01:648,-1.145,-0.6596,10.1523,-0.8984,-0.5653,9.749,-0.0136,-0.0062,0.0006
5592,48.476734,-2.590648,124.49,30.93,3.216,98.8,15 / 20,559211,2019-08-18 15:23:01:748,-1.0636,-0.3268,9.7141,-0.9025,-0.5752,9.7481,-0.0156,-0.0034,0.0003
5593,48.476734,-2.590648,124.49,30.93,3.216,98.8,15 / 20,559312,2019-08-18 15:23:01:849,-1.2425,-0.2771,9.8979,-0.9062,-0.5839,9.7472,-0.0085,0.0025,0.0015
5594,48.476734,-2.590648,124.49,30.93,3.216,98.8,15 / 20,559411,2019-08-18 15:23:01:948,-1.0163,-0.6973,9.2862,-0.9117,-0.5768,9.7471,0.0056,0.0035,0.0011
5595,48.476734,-2.590648,124.49,30.93,3.216,98.8,15 / 20,559511,2019-08-18 15:23:02:048,-1.3443,-0.5333,9.5729,-0.9282,-0.5674,9.7461,0.0065,0.0134,0.0015
5596,48.476734,-2.590648,124.49,30.93,3.216,98.8,15 / 20,559611,2019-08-18 15:23:02:148,-1.1707,-0.5483,9.6016,-0.9364,-0.5611,9.7457,-0.0041,0.0061,-0.0003
5597,48.476734,-2.590648,124.49,30.93,3.216,98.8,15 / 20,559712,2019-08-18 15:23:02:249,-1.1749,-0.7548,10.0577,-0.9489,-0.5635,9.7444,0.0007,0.0044,0.0003
5598,48.476734,-2.590648,124.49,30.93,3.216,98.8,15 / 20,559811,2019-08-18 15:23:02:348,-1.0624,-0.5201,9.9547,-0.9646,-0.5604,9.743,-0.002,-0.0008,0.0007
5599,48.476734,-2.590648,124.49,30.93,3.216,98.8,15 / 20,559911,2019-08-18 15:23:02:448,-1.2683,-0.1431,9.6734,-0.9645,-0.5615,9.7429,-0.0111,-0.0099,-0.0009
5600,48.476734,-2.590648,124.49,30.93,3.216,98.8,15 / 20,560011,2019-08-18 15:23:02:548,-1.2509,-0.2855,9.7482,-0.9513,-0.5777,9.7433,-0.0196,-0.0231,-0.0003
5601,48.476734,-2.590648,124.49,30.93,3.216,98.8,15 / 20,560111,2019-08-18 15:23:02:648,-1.0486,-0.7147,10.1301,-0.9398,-0.5852,9.744,-0.014,-0.024,-0.0015
5602,48.476734,-2.590648,124.49,30.93,3.216,98.8,15 / 20,560212,2019-08-18 15:23:02:749,-1.4712,-0.5453,9.7794,-0.9327,-0.5965,9.744,-0.0174,-0.006,0.0007
5603,48.476734,-2.590648,124.49,30.93,3.216,98.8,15 / 20,560311,2019-08-18 15:23:02:848,-1.306,-0.4417,9.8674,-0.9369,-0.606,9.743,-0.0151,-0.0065,0.0006
5604,48.476734,-2.590648,124.49,30.93,3.216,98.8,15 / 20,560411,2019-08-18 15:23:02:948,-1.1803,-0.5441,10.0421,-0.9343,-0.6198,9.7423,-0.0107,-0.009,0.0018
5605,48.476734,-2.590648,124.49,30.93,3.216,98.8,15 / 20,560512,2019-08-18 15:23:03:049,-1.1432,-0.2867,9.8871,-0.9331,-0.6215,9.7424,-0.0173,-0.0138,0.0024
5606,48.476734,-2.590648,124.49,30.93,3.216,98.8,15 / 20,560611,2019-08-18 15:23:03:148,-1.1049,-0.155,9.4113,-0.9302,-0.627,9.7423,-0.0027,-0.0026,0.0012
5607,48.476734,-2.590648,124.49,30.93,3.216,98.8,15 / 20,560711,2019-08-18 15:23:03:248,-1.0396,-0.5495,9.9913,-0.928,-0.615,9.7432,0.0084,-0.004,0.001
5608,48.476734,-2.590648,124.49,30.93,3.216,98.8,15 / 20,560811,2019-08-18 15:23:03:348,-1.2413,-0.5938,9.6531,-0.9282,-0.5804,9.7454,0.0252,0.0015,-0.0008
5609,48.476734,-2.590648,124.49,30.93,3.216,98.8,15 / 20,560911,2019-08-18 15:23:03:448,-1.1378,-0.2759,10.1343,-0.9278,-0.5618,9.7465,0.0061,-0.0062,-0.0041
5610,48.476734,-2.590648,124.49,30.93,3.216,98.8,15 / 20,561011,2019-08-18 15:23:03:548,-0.9079,-0.7991,10.4282,-0.9294,-0.5523,9.7469,0.0026,0.0092,-0.0065
5611,48.476734,-2.590648,124.49,30.93,3.216,98.8,15 / 20,561111,2019-08-18 15:23:03:648,-0.8295,-0.3962,10.1505,-0.9346,-0.5524,9.7464,-0.0011,0.0065,-0.0062
5612,48.476734,-2.590648,124.49,30.93,3.216,98.8,15 / 20,561211,2019-08-18 15:23:03:748,-1.1575,-0.3424,9.6555,-0.9388,-0.5588,9.7456,-0.0041,-0.0035,-0.0059
5613,48.476734,-2.590648,124.49,30.93,3.216,98.8,15 / 20,561311,2019-08-18 15:23:03:848,-1.0187,-0.6357,9.4579,-0.9405,-0.5617,9.7453,-0.0047,0.0031,-0.0028
5614,48.476734,-2.590648,124.49,30.93,3.216,98.8,15 / 20,561411,2019-08-18 15:23:03:948,-1.2479,-0.483,9.4789,-0.9415,-0.5727,9.7445,-0.0121,-0.0089,-0.0035
5615,48.476734,-2.590648,124.49,30.93,3.216,98.8,15 / 20,561512,2019-08-18 15:23:04:049,-1.5304,-0.644,10.1068,-0.9428,-0.5757,9.7442,-0.0011,-0.0053,-0.0049
5616,48.476734,-2.590648,124.49,30.93,3.216,98.8,15 / 20,561611,2019-08-18 15:23:04:148,-1.151,-0.9254,10.114,-0.9358,-0.5784,9.7447,-0.0096,-0.0144,-0.0035
5617,48.476734,-2.590648,124.49,30.93,3.216,98.8,15 / 20,561711,2019-08-18 15:23:04:248,-1.0594,-0.6009,10.3133,-0.9379,-0.5868,9.744,-0.0174,-0.0059,-0.0049
5618,48.476734,-2.590648,124.49,30.93,3.216,98.8,15 / 20,561811,2019-08-18 15:23:04:348,-1.3317,-0.6015,10.1918,-0.9341,-0.5991,9.7437,-0.0028,-0.0142,-0.0039
5619,48.476734,-2.590648,124.49,30.93,3.216,98.8,15 / 20,561911,2019-08-18 15:23:04:448,-1.6005,-0.5734,9.9368,-0.9223,-0.6001,9.7447,0.0066,-0.0084,-0.0018
5620,48.476734,-2.590648,124.49,30.93,3.216,98.8,15 / 20,562011,2019-08-18 15:23:04:548,-1.4233,-0.7655,9.9069,-0.9216,-0.5964,9.745,0.0012,-0.0006,-0.0011
5621,48.476734,-2.590648,124.49,30.93,3.216,98.8,15 / 20,562111,2019-08-18 15:23:04:648,-1.3712,-0.7003,10.2331,-0.9327,-0.5955,9.744,0.0056,-0.0094,0.0002
5622,48.476734,-2.590648,124.49,30.93,3.216,98.8,15 / 20,562211,2019-08-18 15:23:04:748,-1.2515,-0.5297,10.1038,-0.9331,-0.5913,9.7442,0.0074,0.0003,0.0002
5623,48.476734,-2.590648,124.49,30.93,3.216,98.8,15 / 20,562311,2019-08-18 15:23:04:848,-1.4119,-0.3843,9.5896,-0.9432,-0.5842,9.7437,0.0021,-0.0048,0.0011
5624,48.476734,-2.590648,124.49,30.93,3.216,98.8,15 / 20,562411,2019-08-18 15:23:04:948,-1.5454,-0.489,9.9266,-0.9479,-0.5825,9.7433,-0.0034,-0.0026,0.0018
5625,48.476734,-2.590648,124.49,30.93,3.216,98.8,15 / 20,562511,2019-08-18 15:23:05:048,-1.4041,-0.5716,9.4897,-0.9573,-0.5837,9.7423,0.0011,-0.0082,0.0022
5626,48.476734,-2.590648,124.49,30.93,3.216,98.8,15 / 20,562611,2019-08-18 15:23:05:148,-1.4023,-0.7033,9.9482,-0.9618,-0.5802,9.7421,0.0012,-0.0023,0.0025
5627,48.476734,-2.590648,124.49,30.93,3.216,98.8,15 / 20,562711,2019-08-18 15:23:05:248,-1.2844,-0.4561,9.9763,-0.9813,-0.5752,9.7405,0.0066,0.0047,0.0038
5628,48.476734,-2.590648,124.49,30.93,3.216,98.8,15 / 20,562811,2019-08-18 15:23:05:348,-1.5586,-0.4172,9.3987,-0.9957,-0.565,9.7396,0.0076,-0.0041,0.0058
5629,48.476734,-2.590648,124.49,30.93,3.216,98.8,15 / 20,562911,2019-08-18 15:23:05:448,-1.6166,-0.3885,9.6309,-1.0081,-0.5525,9.739,0.0056,-0.0008,0.0054
5630,48.476734,-2.590648,124.49,30.93,3.216,98.8,15 / 20,563011,2019-08-18 15:23:05:548,-1.4951,-0.422,10.0804,-1.0156,-0.5453,9.7387,0.0085,-0.0023,0.0056
5631,48.476734,-2.590648,124.49,30.93,3.216,98.8,15 / 20,563111,2019-08-18 15:23:05:648,-1.0953,-0.3136,10.4827,-1.0053,-0.5336,9.7404,0.0066,-0.0165,0.0047
5632,48.476734,-2.590648,124.49,30.93,3.216,98.8,15 / 20,563211,2019-08-18 15:23:05:748,-1.1474,-0.0736,9.9757,-0.9999,-0.5215,9.7416,0.0086,-0.0138,0.0035
5633,48.476734,-2.590648,124.49,30.93,3.216,98.8,15 / 20,563311,2019-08-18 15:23:05:848,-1.3168,-0.0509,9.8889,-0.9887,-0.5099,9.7433,-0.0023,-0.0093,0.0024
5634,48.476734,-2.590648,124.49,30.93,3.216,98.8,15 / 20,563411,2019-08-18 15:23:05:948,-1.1635,-0.4226,9.8141,-0.9842,-0.5044,9.7441,-0.0049,-0.0083,0.003
5635,48.476734,-2.590648,124.49,30.93,3.216,98.8,15 / 20,563512,2019-08-18 15:23:06:049,-0.9576,-0.4016,9.2808,-0.98,-0.5045,9.7445,-0.0102,-0.0017,0.0028
5636,48.476734,-2.590648,124.49,30.93,3.216,98.8,15 / 20,563611,2019-08-18 15:23:06:148,-1.0271,-0.2191,9.9655,-0.9747,-0.5028,9.7451,-0.0052,-0.0152,0.0029
5637,48.476734,-2.590648,124.49,30.93,3.216,98.8,15 / 20,563711,2019-08-18 15:23:06:248,-1.3515,0.0922,10.1307,-0.9622,-0.4944,9.7468,0.0007,-0.0135,0.0042
5638,48.476734,-2.590648,124.49,30.93,3.216,98.8,15 / 20,563811,2019-08-18 15:23:06:348,-1.2018,-0.1826,9.6585,-0.9574,-0.4889,9.7475,-0.0034,-0.0097,0.0051
5639,48.476734,-2.590648,124.49,30.93,3.216,98.8,15 / 20,563911,2019-08-18 15:23:06:448,-0.89,-0.2316,10.1265,-0.9494,-0.485,9.7485,-0.005,-0.0052,0.0028
5640,48.476734,-2.590648,124.49,30.93,3.216,98.8,15 / 20,564011,2019-08-18 15:23:06:548,-0.9953,-0.0233,9.5866,-0.9445,-0.4823,9.7491,0.0001,0.0012,0.0034
5641,48.476734,-2.590648,124.49,30.93,3.216,98.8,15 / 20,564111,2019-08-18 15:23:06:648,-0.9259,-0.6015,9.7919,-0.9459,-0.4758,9.7493,0.0012,-0.0071,0.0018
5642,48.47637,-2.587073,121.42,28.04,3.216,98.8,15 / 20,564211,2019-08-18 15:23:06:748,-0.9498,0.0575,9.9883,-0.9377,-0.4703,9.7504,-0.0103,-0.0156,0.0017
5643,48.47637,-2.587073,121.42,28.04,3.216,98.8,15 / 20,564310,2019-08-18 15:23:06:847,-0.6703,-0.24,10.1876,-0.9155,-0.4741,9.7523,-0.0094,-0.0103,-0.0001
5644,48.47637,-2.587073,121.42,28.04,3.216,98.8,15 / 20,564411,2019-08-18 15:23:06:948,-0.9355,0.0473,9.507,-0.9093,-0.4749,9.7528,-0.0136,0.0006,0.001
5645,48.47637,-2.587073,121.42,28.04,3.216,98.8,15 / 20,564512,2019-08-18 15:23:07:049,-0.9917,-0.0168,10.0032,-0.9087,-0.4783,9.7527,0.0048,-0.0166,0.0024
5646,48.47637,-2.587073,121.42,28.04,3.216,98.8,15 / 20,564611,2019-08-18 15:23:07:148,-0.9253,-0.2969,10.3636,-0.8906,-0.4607,9.7553,0.0089,-0.0221,0.0022
5647,48.47637,-2.587073,121.42,28.04,3.216,98.8,15 / 20,564711,2019-08-18 15:23:07:248,-0.6548,-0.4657,10.0631,-0.8802,-0.4556,9.7564,-0.0061,-0.0076,-0.0004
5648,48.47637,-2.587073,121.42,28.04,3.216,98.8,15 / 20,564811,2019-08-18 15:23:07:348,-0.8756,-0.2598,10.1846,-0.8604,-0.449,9.7585,-0.0027,-0.0014,0.0019
5649,48.47637,-2.587073,121.42,28.04,3.216,98.8,15 / 20,564911,2019-08-18 15:23:07:448,-0.8433,-0.1269,10.1732,-0.8615,-0.4397,9.7588,0.0059,-0.011,0.0006
5650,48.47637,-2.587073,121.42,28.04,3.216,98.8,15 / 20,565011,2019-08-18 15:23:07:548,-0.9696,-0.0455,10.3037,-0.8449,-0.4235,9.761,0.0111,-0.011,0.0009
5651,48.47637,-2.587073,121.42,28.04,3.216,98.8,15 / 20,565111,2019-08-18 15:23:07:648,-0.9073,-0.1353,10.1612,-0.8367,-0.413,9.7622,0.0058,-0.0113,0.0018
5652,48.47637,-2.587073,121.42,28.04,3.216,98.8,15 / 20,565211,2019-08-18 15:23:07:748,-0.8032,-0.1071,9.9224,-0.8177,-0.4034,9.7642,-0.0051,-0.0026,-0.0012
5653,48.47637,-2.587073,121.42,28.04,3.216,98.8,15 / 20,565312,2019-08-18 15:23:07:849,-1.0133,-0.1915,10.0044,-0.8154,-0.4045,9.7643,0.0016,-0.0022,0.0001
5654,48.47637,-2.587073,121.42,28.04,3.216,98.8,15 / 20,565411,2019-08-18 15:23:07:948,-0.8786,0.3262,9.4699,-0.8106,-0.3948,9.7651,-0.0025,0.0004,-0.0001
5655,48.47637,-2.587073,121.42,28.04,3.216,98.8,15 / 20,565511,2019-08-18 15:23:08:048,-0.8463,-0.2502,10.172,-0.806,-0.3945,9.7655,-0.0183,-0.0119,-0.0007
5656,48.47637,-2.587073,121.42,28.04,3.216,98.8,15 / 20,565611,2019-08-18 15:23:08:148,-0.8361,-0.2975,10.8502,-0.7977,-0.4012,9.7659,0.0043,-0.0116,0.0015
5657,48.47637,-2.587073,121.42,28.04,3.216,98.8,15 / 20,565711,2019-08-18 15:23:08:248,-1.0474,0.167,9.8183,-0.7885,-0.3967,9.7668,-0.0018,-0.0181,0.0012
5658,48.47637,-2.587073,121.42,28.04,3.216,98.8,15 / 20,565811,2019-08-18 15:23:08:348,-0.6853,-0.4908,9.8219,-0.7765,-0.3911,9.768,-0.0065,-0.0053,0.0005
5659,48.47637,-2.587073,121.42,28.04,3.216,98.8,15 / 20,565911,2019-08-18 15:23:08:448,-0.7751,-0.1933,10.1475,-0.7757,-0.3901,9.7681,0.0031,0.0042,0.0017
5660,48.47637,-2.587073,121.42,28.04,3.216,98.8,15 / 20,566011,2019-08-18 15:23:08:548,-0.8636,-0.4788,10.2504,-0.7748,-0.3824,9.7685,-0.0075,-0.006,0.0016
5661,48.47637,-2.587073,121.42,28.04,3.216,98.8,15 / 20,566111,2019-08-18 15:23:08:648,-0.8966,0.0449,10.0242,-0.7748,-0.3793,9.7686,0.0048,0.0017,0.0008
5662,48.47637,-2.587073,121.42,28.04,3.216,98.8,17 / 20,566211,2019-08-18 15:23:08:748,-0.8475,-0.2227,10.1433,-0.7615,-0.3621,9.7703,0.0102,-0.0181,0.0002
5663,48.47637,-2.587073,121.42,28.04,3.216,98.8,17 / 20,566311,2019-08-18 15:23:08:848,-0.8858,-0.2616,10.3187,-0.7501,-0.3505,9.7716,0.003,-0.0082,-0.0013
5664,48.47637,-2.587073,121.42,28.04,3.216,98.8,17 / 20,566411,2019-08-18 15:23:08:948,-0.8415,0.0479,10.202,-0.7399,-0.3431,9.7727,-0.0019,-0.0087,-0.0014
5665,48.47637,-2.587073,121.42,28.04,3.216,98.8,17 / 20,566511,2019-08-18 15:23:09:048,-0.8601,-0.3938,10.2193,-0.7348,-0.3424,9.7731,-0.0016,-0.0118,-0.002
5666,48.47637,-2.587073,121.42,28.04,3.216,98.8,17 / 20,566612,2019-08-18 15:23:09:149,-0.7559,-0.0228,9.8913,-0.7246,-0.3396,9.7739,0.0032,-0.0096,-0.0017
5667,48.47637,-2.587073,121.42,28.04,3.216,98.8,17 / 20,566711,2019-08-18 15:23:09:248,-0.8032,-0.3124,9.8009,-0.7197,-0.3355,9.7744,-0.0028,-0.001,-0.0012
5668,48.47637,-2.587073,121.42,28.04,3.216,98.8,17 / 20,566812,2019-08-18 15:23:09:349,-0.8122,-0.3418,9.4585,-0.7228,-0.3302,9.7744,0.003,0.0011,-0.0008
5669,48.47637,-2.587073,121.42,28.04,3.216,98.8,17 / 20,566911,2019-08-18 15:23:09:448,-0.8295,-0.3855,9.8302,-0.7221,-0.3247,9.7746,0.0031,0.0027,-0.0013
5670,48.47637,-2.587073,121.42,28.04,3.216,98.8,17 / 20,567011,2019-08-18 15:23:09:548,-0.802,-0.2011,9.5495,-0.726,-0.3218,9.7744,-0.0069,-0.0009,-0.002
5671,48.47637,-2.587073,121.42,28.04,3.216,98.8,17 / 20,567111,2019-08-18 15:23:09:648,-0.8828,-0.1347,9.9625,-0.7254,-0.323,9.7744,-0.0009,-0.0048,-0.0004
5672,48.47637,-2.587073,121.42,28.04,3.216,98.8,17 / 20,567211,2019-08-18 15:23:09:748,-0.6811,-0.556,10.0332,-0.7167,-0.3172,9.7753,0.0031,-0.011,-0.0026
5673,48.47637,-2.587073,121.42,28.04,3.216,98.8,17 / 20,567311,2019-08-18 15:23:09:848,-0.6685,-0.2592,9.9649,-0.7108,-0.3146,9.7758,-0.0004,-0.016,-0.0018
5674,48.47637,-2.587073,121.42,28.04,3.216,98.8,17 / 20,567412,2019-08-18 15:23:09:949,-0.7799,-0.2945,9.8847,-0.7046,-0.3091,9.7764,-0.004,0.002,-0.0001
5675,48.47637,-2.587073,121.42,28.04,3.216,98.8,17 / 20,567511,2019-08-18 15:23:10:048,-0.8224,-0.1436,10.5395,-0.7079,-0.3081,9.7762,-0.0059,-0.0074,-0.0002
5676,48.47637,-2.587073,121.42,28.04,3.216,98.8,17 / 20,567612,2019-08-18 15:23:10:149,-0.8032,-0.1748,10.6598,-0.6877,-0.301,9.7779,0.0034,-0.0298,-0.0009
5677,48.47637,-2.587073,121.42,28.04,3.216,98.8,17 / 20,567712,2019-08-18 15:23:10:249,-0.8984,-0.1467,10.2546,-0.6759,-0.2993,9.7788,-0.0024,-0.0244,-0.0014
5678,48.47637,-2.587073,121.42,28.04,3.216,98.8,17 / 20,567811,2019-08-18 15:23:10:348,-0.9421,-0.0078,9.9051,-0.6506,-0.3026,9.7804,-0.0076,-0.0135,-0.0006
5679,48.47637,-2.587073,121.42,28.04,3.216,98.8,17 / 20,567911,2019-08-18 15:23:10:448,-0.7697,-0.176,9.5747,-0.6483,-0.3027,9.7805,-0.0103,-0.0093,-0.0004
5680,48.47637,-2.587073,121.42,28.04,3.216,98.8,17 / 20,568012,2019-08-18 15:23:10:549,-0.7541,-0.0916,9.6938,-0.6361,-0.3134,9.781,-0.017,-0.0075,-0.0017
5681,48.47637,-2.587073,121.42,28.04,3.216,98.8,17 / 20,568111,2019-08-18 15:23:10:648,-0.7487,-0.1059,10.029,-0.6418,-0.3172,9.7805,0.005,-0.0094,0.001
5682,48.47637,-2.587073,121.42,28.04,3.216,98.8,17 / 20,568212,2019-08-18 15:23:10:749,-0.8038,0.0246,10.1948,-0.6311,-0.3076,9.7815,-0.0006,-0.0202,-0.0011
5683,48.47637,-2.587073,121.42,28.04,3.216,98.8,17 / 20,568311,2019-08-18 15:23:10:848,-0.6943,0.0222,10.2833,-0.6205,-0.3063,9.7822,-0.0004,-0.0163,-0.0007
5684,48.47637,-2.587073,121.42,28.04,3.216,98.8,17 / 20,568411,2019-08-18 15:23:10:948,-0.5584,-0.1574,9.7195,-0.6122,-0.3036,9.7828,-0.0061,-0.0007,0.0007
5685,48.47637,-2.587073,121.42,28.04,3.216,98.8,17 / 20,568511,2019-08-18 15:23:11:048,-0.6901,-0.0569,9.6914,-0.6161,-0.3011,9.7826,0.0011,0.0088,0.0009
5686,48.47637,-2.587073,121.42,28.04,3.216,98.8,17 / 20,568611,2019-08-18 15:23:11:148,-0.6386,0.182,9.5148,-0.6204,-0.2995,9.7824,-0.0088,0.0001,-0.0006
5687,48.47637,-2.587073,121.42,28.04,3.216,98.8,17 / 20,568712,2019-08-18 15:23:11:249,-0.7912,-0.2472,10.351,-0.6226,-0.2892,9.7826,0.0015,-0.0161,-0.0006
5688,48.47637,-2.587073,121.42,28.04,3.216,98.8,17 / 20,568811,2019-08-18 15:23:11:348,-0.5704,-0.1502,10.3294,-0.6089,-0.283,9.7836,0.0116,-0.0254,-0.001
5689,48.47637,-2.587073,121.42,28.04,3.216,98.8,17 / 20,568911,2019-08-18 15:23:11:448,-0.2477,-0.0485,10.1343,-0.5794,-0.2634,9.786,0.0047,-0.0126,0.0002
5690,48.47637,-2.587073,121.42,28.04,3.216,98.8,17 / 20,569011,2019-08-18 15:23:11:548,-0.5799,-0.006,10.1505,-0.5731,-0.2524,9.7866,0.0132,0.0058,0.0006
5691,48.47637,-2.587073,121.42,28.04,3.216,98.8,17 / 20,569111,2019-08-18 15:23:11:648,-0.5847,-0.2316,10.1349,-0.5665,-0.2345,9.7875,0.0108,-0.0113,-0.0002
5692,48.47637,-2.587073,121.42,28.04,3.216,98.8,18 / 20,569212,2019-08-18 15:23:11:749,-0.3549,0.0186,10.5904,-0.5582,-0.2233,9.7882,0.0086,-0.0139,-0.0011
5693,48.47637,-2.587073,121.42,28.04,3.216,98.8,18 / 20,569311,2019-08-18 15:23:11:848,-0.4596,0.3956,9.8326,-0.5345,-0.2082,9.7899,-0.0034,-0.0139,-0.0009
5694,48.47637,-2.587073,121.42,28.04,3.216,98.8,18 / 20,569411,2019-08-18 15:23:11:948,-0.4375,0.0365,9.8434,-0.5269,-0.2068,9.7903,-0.0054,-0.0096,-0.0008
5695,48.47637,-2.587073,121.42,28.04,3.216,98.8,18 / 20,569511,2019-08-18 15:23:12:048,-0.5015,0.2059,9.6633,-0.5131,-0.2073,9.791,-0.0103,-0.004,0.0012
5696,48.47637,-2.587073,121.42,28.04,3.216,98.8,18 / 20,569611,2019-08-18 15:23:12:148,-0.1651,0.1562,9.3047,-0.5136,-0.2115,9.7909,-0.0217,0.0038,-0.0007
5697,48.47637,-2.587073,121.42,28.04,3.216,98.8,18 / 20,569711,2019-08-18 15:23:12:248,-0.2819,0.4932,9.8105,-0.5207,-0.228,9.7902,-0.0224,0.008,0.0003
5698,48.47637,-2.587073,121.42,28.04,3.216,98.8,18 / 20,569811,2019-08-18 15:23:12:348,-0.3639,0.3388,10.2199,-0.5273,-0.2335,9.7897,0.0025,-0.0117,-0.0016
5699,48.47637,-2.587073,121.42,28.04,3.216,98.8,18 / 20,569911,2019-08-18 15:23:12:448,-0.3567,0.0539,10.7436,-0.5041,-0.2273,9.7911,0.0099,-0.0308,-0.0004
5700,48.47637,-2.587073,121.42,28.04,3.216,98.8,18 / 20,570011,2019-08-18 15:23:12:548,-0.5398,0.3011,10.849,-0.4685,-0.2157,9.7931,-0.0013,-0.0346,-0.0023
5701,48.47637,-2.587073,121.42,28.04,3.216,98.8,18 / 20,570111,2019-08-18 15:23:12:648,-0.2076,0.2382,10.2768,-0.4408,-0.2048,9.7946,0.0031,-0.013,-0.0012
5702,48.47637,-2.587073,121.42,28.04,3.216,98.8,18 / 20,570211,2019-08-18 15:23:12:748,-0.486,-0.1017,9.8201,-0.4358,-0.2036,9.7948,-0.0066,0.0077,-0.0013
5703,48.47637,-2.587073,121.42,28.04,3.216,98.8,18 / 20,570311,2019-08-18 15:23:12:848,-0.5895,0.27,9.4131,-0.4401,-0.198,9.7948,0.0052,0.0027,0.0001
5704,48.47637,-2.587073,121.42,28.04,3.216,98.8,18 / 20,570411,2019-08-18 15:23:12:948,-0.2962,0.3753,10.193,-0.4443,-0.1856,9.7948,0.0082,-0.0057,0.002
5705,48.47637,-2.587073,121.42,28.04,3.216,98.8,18 / 20,570511,2019-08-18 15:23:13:048,-0.3657,0.1359,10.3097,-0.4321,-0.1683,9.7957,0.0054,-0.0098,0.0009
5706,48.47637,-2.587073,121.42,28.04,3.216,98.8,18 / 20,570611,2019-08-18 15:23:13:148,-0.6123,-0.1239,9.8572,-0.4242,-0.1618,9.7961,-0.0039,-0.0118,0.0
5707,48.47637,-2.587073,121.42,28.04,3.216,98.8,18 / 20,570711,2019-08-18 15:23:13:248,-0.4183,0.1287,9.8165,-0.4173,-0.1615,9.7964,-0.0061,0.0041,0.0001
5708,48.47637,-2.587073,121.42,28.04,3.216,98.8,18 / 20,570811,2019-08-18 15:23:13:348,-0.5781,-0.0066,10.1122,-0.4197,-0.1614,9.7963,-0.0046,0.0002,0.0004
5709,48.47637,-2.587073,121.42,28.04,3.216,98.8,18 / 20,570911,2019-08-18 15:23:13:448,-0.6649,-0.1903,9.9805,-0.4096,-0.1579,9.7968,-0.0018,-0.0203,0.0004
5710,48.47637,-2.587073,121.42,28.04,3.216,98.8,18 / 20,571011,2019-08-18 15:23:13:548,-0.374,0.2502,10.1092,-0.3987,-0.1567,9.7973,-0.0024,-0.0144,0.0003
5711,48.47637,-2.587073,121.42,28.04,3.216,98.8,18 / 20,571111,2019-08-18 15:23:13:648,-0.7649,0.0144,9.4867,-0.398,-0.1612,9.7972,-0.0164,0.0063,0.0025
5712,48.47637,-2.587073,121.42,28.04,3.216,98.8,18 / 20,571211,2019-08-18 15:23:13:748,-0.5207,-0.1185,10.0948,-0.4028,-0.1657,9.797,-0.0061,-0.0028,0.0024
5713,48.47637,-2.587073,121.42,28.04,3.216,98.8,18 / 20,571311,2019-08-18 15:23:13:848,-0.6973,0.3142,9.6345,-0.3943,-0.1579,9.7974,-0.0013,-0.0143,0.003
5714,48.47637,-2.587073,121.42,28.04,3.216,98.8,18 / 20,571411,2019-08-18 15:23:13:948,-0.6272,-0.1772,9.6585,-0.3926,-0.1551,9.7976,-0.0008,0.0056,0.0032
5715,48.47637,-2.587073,121.42,28.04,3.216,98.8,18 / 20,571512,2019-08-18 15:23:14:049,-0.5488,0.2131,9.996,-0.4048,-0.1456,9.7972,0.003,0.0028,0.0052
5716,48.47637,-2.587073,121.42,28.04,3.216,98.8,18 / 20,571611,2019-08-18 15:23:14:148,-0.5991,0.0006,9.7949,-0.4091,-0.1378,9.7971,0.0012,0.0056,0.0042
5717,48.47637,-2.587073,121.42,28.04,3.216,98.8,18 / 20,571711,2019-08-18 15:23:14:248,-0.6811,-0.1215,9.4137,-0.4199,-0.1308,9.7968,-0.001,0.0114,0.0036
5718,48.47637,-2.587073,121.42,28.04,3.216,98.8,18 / 20,571812,2019-08-18 15:23:14:349,-0.717,0.3274,9.5346,-0.4304,-0.129,9.7964,-0.0064,0.01,0.0038
5719,48.47637,-2.587073,121.42,28.04,3.216,98.8,18 / 20,571912,2019-08-18 15:23:14:449,-0.7068,0.1048,9.9793,-0.4422,-0.1288,9.7958,-0.0052,-0.0012,0.0032
5720,48.47637,-2.587073,121.42,28.04,3.216,98.8,18 / 20,572011,2019-08-18 15:23:14:548,-0.8613,0.1377,10.4246,-0.4384,-0.1221,9.7961,0.0007,-0.0267,0.0004
5721,48.47637,-2.587073,121.42,28.04,3.216,98.8,18 / 20,572112,2019-08-18 15:23:14:649,-0.732,-0.085,10.4641,-0.4247,-0.1197,9.7967,0.0003,-0.0242,0.0008
5722,48.47637,-2.587073,121.42,28.04,3.216,98.8,18 / 20,572212,2019-08-18 15:23:14:749,-0.5632,0.0102,10.0972,-0.4053,-0.1115,9.7976,-0.0065,-0.0056,0.0017
5723,48.47637,-2.587073,121.42,28.04,3.216,98.8,18 / 20,572311,2019-08-18 15:23:14:848,-0.6536,0.1712,9.1269,-0.4037,-0.1129,9.7977,-0.0024,0.0043,0.0029
5724,48.47637,-2.587073,121.42,28.04,3.216,98.8,18 / 20,572412,2019-08-18 15:23:14:949,-0.5907,0.346,9.4687,-0.4175,-0.105,9.7972,0.0114,0.0079,0.0045
5725,48.47637,-2.587073,121.42,28.04,3.216,98.8,18 / 20,572511,2019-08-18 15:23:15:048,-0.4866,0.0856,10.2013,-0.4249,-0.0946,9.797,-0.0056,-0.0099,0.0025
5726,48.47637,-2.587073,121.42,28.04,3.216,98.8,18 / 20,572611,2019-08-18 15:23:15:148,-0.5159,0.0928,9.3101,-0.4207,-0.09,9.7972,-0.0025,0.0002,0.002
5727,48.47637,-2.587073,121.42,28.04,3.216,98.8,18 / 20,572711,2019-08-18 15:23:15:248,-0.7715,0.0311,9.8446,-0.4224,-0.0865,9.7972,0.0035,0.0034,0.0046
5728,48.47637,-2.587073,121.42,28.04,3.216,98.8,18 / 20,572811,2019-08-18 15:23:15:348,-0.6961,-0.0431,9.5824,-0.4333,-0.0792,9.7968,-0.0041,0.0074,0.0042
5729,48.47637,-2.587073,121.42,28.04,3.216,98.8,18 / 20,572911,2019-08-18 15:23:15:448,-0.8319,-0.0545,10.0433,-0.4434,-0.0844,9.7963,-0.0102,0.0162,0.0029
5730,48.47637,-2.587073,121.42,28.04,3.216,98.8,18 / 20,573012,2019-08-18 15:23:15:549,-0.7679,0.0228,9.7872,-0.4656,-0.0882,9.7952,0.0018,0.0005,0.0043
5731,48.47637,-2.587073,121.42,28.04,3.216,98.8,18 / 20,573111,2019-08-18 15:23:15:648,-0.5967,-0.0353,9.6585,-0.4725,-0.0808,9.7949,-0.0001,-0.0084,0.0032
5732,48.47604,-2.583784,122.7,27.03,3.216,98.4,18 / 20,573211,2019-08-18 15:23:15:748,-0.7517,0.1347,9.8578,-0.4749,-0.0821,9.7948,-0.0149,-0.0018,0.0029
5733,48.47604,-2.583784,122.7,27.03,3.216,98.4,18 / 20,573311,2019-08-18 15:23:15:848,-0.9445,0.0503,9.5998,-0.4806,-0.09,9.7945,-0.0164,0.001,0.0011
5734,48.47604,-2.583784,122.7,27.03,3.216,98.4,18 / 20,573411,2019-08-18 15:23:15:948,-0.8098,0.0748,9.7435,-0.4843,-0.1064,9.7941,-0.0105,-0.0121,0.002
5735,48.47604,-2.583784,122.7,27.03,3.216,98.4,18 / 20,573512,2019-08-18 15:23:16:049,-0.5973,-0.0108,9.5902,-0.4833,-0.1101,9.7941,-0.01,-0.0101,0.0024
5736,48.47604,-2.583784,122.7,27.03,3.216,98.4,18 / 20,573611,2019-08-18 15:23:16:148,-0.6805,0.006,9.2706,-0.5076,-0.1237,9.7927,-0.0074,0.0244,0.0042
5737,48.47604,-2.583784,122.7,27.03,3.216,98.4,18 / 20,573711,2019-08-18 15:23:16:248,-0.8373,-0.1353,9.2335,-0.524,-0.1259,9.7918,-0.007,0.0077,0.0015
5738,48.47604,-2.583784,122.7,27.03,3.216,98.4,18 / 20,573811,2019-08-18 15:23:16:348,-0.796,0.1658,9.6046,-0.5429,-0.128,9.7908,-0.0026,0.0058,0.0025
5739,48.47604,-2.583784,122.7,27.03,3.216,98.4,18 / 20,573911,2019-08-18 15:23:16:448,-0.7829,-0.2065,10.2145,-0.5467,-0.1281,9.7906,-0.0058,-0.0074,0.002
5740,48.47604,-2.583784,122.7,27.03,3.216,98.4,18 / 20,574011,2019-08-18 15:23:16:548,-0.8277,-0.1131,10.3803,-0.5454,-0.124,9.7907,0.0052,-0.0028,0.004
5741,48.47604,-2.583784,122.7,27.03,3.216,98.4,18 / 20,574111,2019-08-18 15:23:16:648,-0.7092,0.0694,10.1642,-0.5467,-0.119,9.7907,-0.0035,-0.0134,0.0028
5742,48.47604,-2.583784,122.7,27.03,3.216,98.4,18 / 20,574211,2019-08-18 15:23:16:748,-0.6631,0.1479,9.7782,-0.5341,-0.1188,9.7914,-0.0126,-0.014,0.0016
5743,48.47604,-2.583784,122.7,27.03,3.216,98.4,18 / 20,574311,2019-08-18 15:23:16:848,-0.5494,0.1233,9.6555,-0.5265,-0.126,9.7917,-0.0188,0.0014,0.0002
5744,48.47604,-2.583784,122.7,27.03,3.216,98.4,18 / 20,574411,2019-08-18 15:23:16:948,-0.6129,-0.0329,9.5549,-0.5394,-0.1426,9.7908,-0.0061,0.0128,0.0021
5745,48.47604,-2.583784,122.7,27.03,3.216,98.4,18 / 20,574511,2019-08-18 15:23:17:048,-0.5518,0.152,9.7333,-0.5462,-0.1434,9.7904,-0.0114,-0.0022,0.0024
5746,48.47604,-2.583784,122.7,27.03,3.216,98.4,18 / 20,574611,2019-08-18 15:23:17:148,-0.477,0.1257,9.9254,-0.5315,-0.1423,9.7912,0.0001,-0.0118,0.0009
5747,48.47604,-2.583784,122.7,27.03,3.216,98.4,18 / 20,574711,2019-08-18 15:23:17:248,-0.5662,0.1239,10.1708,-0.5239,-0.14,9.7916,-0.003,-0.0135,-0.0007
5748,48.47604,-2.583784,122.7,27.03,3.216,98.4,18 / 20,574812,2019-08-18 15:23:17:349,-0.4602,0.249,9.9021,-0.5073,-0.135,9.7926,0.001,-0.0113,0.0006
5749,48.47604,-2.583784,122.7,27.03,3.216,98.4,18 / 20,574911,2019-08-18 15:23:17:448,-0.5087,0.0623,9.3646,-0.5049,-0.1331,9.7927,-0.009,0.0111,-0.0013
5750,48.47604,-2.583784,122.7,27.03,3.216,98.4,18 / 20,575011,2019-08-18 15:23:17:548,-0.474,-0.0605,9.6902,-0.5183,-0.1397,9.7919,-0.0121,0.0088,-0.0026
5751,48.47604,-2.583784,122.7,27.03,3.216,98.4,18 / 20,575111,2019-08-18 15:23:17:648,-0.3453,-0.1993,9.3065,-0.5243,-0.1443,9.7916,-0.0065,0.0108,-0.0037
5752,48.47604,-2.583784,122.7,27.03,3.216,98.4,18 / 20,575211,2019-08-18 15:23:17:748,-0.3417,-0.0862,9.5334,-0.5331,-0.1496,9.791,-0.0052,0.0083,-0.003
5753,48.47604,-2.583784,122.7,27.03,3.216,98.4,18 / 20,575311,2019-08-18 15:23:17:848,-0.3776,0.1425,9.8356,-0.5353,-0.15,9.7909,-0.0032,-0.0022,-0.0023
5754,48.47604,-2.583784,122.7,27.03,3.216,98.4,18 / 20,575411,2019-08-18 15:23:17:948,-0.7212,0.0443,9.4568,-0.5328,-0.1515,9.791,-0.0075,-0.002,-0.0018
5755,48.47604,-2.583784,122.7,27.03,3.216,98.4,18 / 20,575511,2019-08-18 15:23:18:048,-0.4854,-0.0419,9.692,-0.5302,-0.1559,9.7911,-0.0066,-0.0017,-0.0044
5756,48.47604,-2.583784,122.7,27.03,3.216,98.4,18 / 20,575611,2019-08-18 15:23:18:148,-0.4165,0.0862,9.6686,-0.5254,-0.1588,9.7913,-0.0078,0.0067,-0.0035
5757,48.47604,-2.583784,122.7,27.03,3.216,98.4,18 / 20,575711,2019-08-18 15:23:18:248,-0.5787,-0.0401,9.589,-0.5279,-0.1624,9.7911,-0.0092,-0.0034,-0.0032
5758,48.47604,-2.583784,122.7,27.03,3.216,98.4,18 / 20,575811,2019-08-18 15:23:18:348,-0.3836,-0.2017,9.8931,-0.5258,-0.1647,9.7912,-0.0124,-0.0076,-0.0042
5759,48.47604,-2.583784,122.7,27.03,3.216,98.4,18 / 20,575911,2019-08-18 15:23:18:448,-0.4195,0.0353,10.2223,-0.5109,-0.1769,9.7917,-0.0109,-0.0057,-0.004
5760,48.47604,-2.583784,122.7,27.03,3.216,98.4,18 / 20,576011,2019-08-18 15:23:18:548,-0.5386,-0.085,9.9691,-0.5081,-0.179,9.7918,0.0017,-0.014,-0.0025
5761,48.47604,-2.583784,122.7,27.03,3.216,98.4,18 / 20,576111,2019-08-18 15:23:18:648,-0.3423,-0.1909,9.8979,-0.4855,-0.1802,9.793,-0.007,-0.0072,-0.0047
5762,48.47604,-2.583784,122.7,27.03,3.216,98.4,18 / 20,576211,2019-08-18 15:23:18:748,-0.3567,0.0581,9.504,-0.4816,-0.1838,9.7931,-0.0157,0.007,-0.004
5763,48.47604,-2.583784,122.7,27.03,3.216,98.4,18 / 20,576311,2019-08-18 15:23:18:848,-0.2657,0.1413,9.4561,-0.485,-0.1996,9.7926,-0.0183,0.005,-0.0041
5764,48.47604,-2.583784,122.7,27.03,3.216,98.4,18 / 20,576411,2019-08-18 15:23:18:948,-0.371,-0.1197,9.4149,-0.4865,-0.2098,9.7923,-0.018,0.001,-0.0038
5765,48.47604,-2.583784,122.7,27.03,3.216,98.4,18 / 20,576511,2019-08-18 15:23:19:048,-0.3028,-0.0245,9.9727,-0.4814,-0.2272,9.7922,-0.0187,-0.0117,-0.0028
5766,48.47604,-2.583784,122.7,27.03,3.216,98.4,18 / 20,576611,2019-08-18 15:23:19:148,-0.4291,-0.2322,9.6321,-0.4711,-0.2323,9.7926,-0.0077,-0.0067,-0.0047
5767,48.47604,-2.583784,122.7,27.03,3.216,98.4,18 / 20,576711,2019-08-18 15:23:19:248,-0.301,-0.1191,9.8075,-0.4593,-0.2389,9.793,-0.0091,0.0051,-0.0032
5768,48.47604,-2.583784,122.7,27.03,3.216,98.4,18 / 20,576811,2019-08-18 15:23:19:348,-0.3363,-0.0916,10.0326,-0.4674,-0.2418,9.7925,0.0025,0.0032,-0.0013
5769,48.47604,-2.583784,122.7,27.03,3.216,98.4,18 / 20,576911,2019-08-18 15:23:19:448,-0.5135,-0.1203,9.7309,-0.4667,-0.2297,9.7928,0.0117,-0.0038,-0.0013
5770,48.47604,-2.583784,122.7,27.03,3.216,98.4,18 / 20,577012,2019-08-18 15:23:19:549,-0.4076,-0.1155,10.0499,-0.4658,-0.2186,9.7931,0.0065,-0.002,-0.0003
5771,48.47604,-2.583784,122.7,27.03,3.216,98.4,18 / 20,577112,2019-08-18 15:23:19:649,-0.6458,-0.2071,9.4699,-0.4607,-0.208,9.7936,-0.0024,0.0006,-0.0022
5772,48.47604,-2.583784,122.7,27.03,3.216,98.4,17 / 20,577212,2019-08-18 15:23:19:749,-0.4674,-0.0599,9.7782,-0.4573,-0.2073,9.7938,-0.0083,-0.0043,-0.0036
5773,48.47604,-2.583784,122.7,27.03,3.216,98.4,17 / 20,577311,2019-08-18 15:23:19:848,-0.6039,-0.0084,9.4178,-0.4562,-0.2142,9.7937,-0.0193,0.0136,-0.0061
5774,48.47604,-2.583784,122.7,27.03,3.216,98.4,17 / 20,577411,2019-08-18 15:23:19:948,-0.5548,0.0844,9.6327,-0.4633,-0.2251,9.7931,-0.0215,0.0137,-0.0042
5775,48.47604,-2.583784,122.7,27.03,3.216,98.4,17 / 20,577511,2019-08-18 15:23:20:048,-0.4471,-0.3047,9.4561,-0.4848,-0.2416,9.7917,-0.008,0.0126,-0.0041
5776,48.47604,-2.583784,122.7,27.03,3.216,98.4,17 / 20,577611,2019-08-18 15:23:20:148,-0.553,-0.1802,9.8638,-0.4933,-0.2458,9.7912,-0.0067,0.0105,-0.0032
5777,48.47604,-2.583784,122.7,27.03,3.216,98.4,17 / 20,577711,2019-08-18 15:23:20:248,-0.7685,0.0898,10.005,-0.498,-0.2513,9.7908,-0.0049,-0.0112,-0.0018
5778,48.47604,-2.583784,122.7,27.03,3.216,98.4,17 / 20,577814,2019-08-18 15:23:20:351,-0.635,-0.4561,10.1098,-0.4975,-0.2503,9.7908,-0.0009,-0.0053,-0.0027
5779,48.47604,-2.583784,122.7,27.03,3.216,98.4,17 / 20,577911,2019-08-18 15:23:20:448,-0.6464,-0.0479,9.8039,-0.497,-0.2528,9.7908,-0.0053,0.0087,0.0005
5780,48.47604,-2.583784,122.7,27.03,3.216,98.4,17 / 20,578012,2019-08-18 15:23:20:549,-0.6081,0.0563,9.6399,-0.508,-0.2532,9.7902,-0.0077,0.0037,0.0024
5781,48.47604,-2.583784,122.7,27.03,3.216,98.4,17 / 20,578112,2019-08-18 15:23:20:649,-0.7457,0.0168,9.6279,-0.5196,-0.2542,9.7896,-0.0054,-0.0007,0.0021
5782,48.47604,-2.583784,122.7,27.03,3.216,98.4,18 / 20,578211,2019-08-18 15:23:20:748,-0.6368,0.1054,9.3466,-0.5215,-0.2546,9.7895,-0.0059,0.0039,0.0019
5783,48.47604,-2.583784,122.7,27.03,3.216,98.4,18 / 20,578312,2019-08-18 15:23:20:849,-0.4608,0.085,9.6824,-0.5404,-0.252,9.7885,-0.0043,0.0072,0.0019
5784,48.47604,-2.583784,122.7,27.03,3.216,98.4,18 / 20,578411,2019-08-18 15:23:20:948,-0.5841,-0.0862,9.859,-0.5425,-0.25,9.7884,-0.0028,-0.0013,0.0029
5785,48.47604,-2.583784,122.7,27.03,3.216,98.4,18 / 20,578511,2019-08-18 15:23:21:048,-0.8972,0.1078,9.6465,-0.5431,-0.2362,9.7888,-0.0024,-0.0024,0.0072
5786,48.47604,-2.583784,122.7,27.03,3.216,98.4,18 / 20,578612,2019-08-18 15:23:21:149,-0.5363,0.4597,9.8153,-0.5446,-0.2344,9.7887,-0.0108,0.0027,0.0102
5787,48.47604,-2.583784,122.7,27.03,3.216,98.4,18 / 20,578712,2019-08-18 15:23:21:249,-0.4375,0.2676,9.7638,-0.5529,-0.2297,9.7884,-0.0098,0.0073,0.0096
5788,48.47604,-2.583784,122.7,27.03,3.216,98.4,18 / 20,578811,2019-08-18 15:23:21:348,-0.6727,0.0222,9.8117,-0.5505,-0.2285,9.7885,-0.0007,-0.0005,0.0078
5789,48.47604,-2.583784,122.7,27.03,3.216,98.4,18 / 20,578912,2019-08-18 15:23:21:449,-0.5105,0.334,9.9727,-0.5414,-0.2095,9.7895,0.003,-0.0138,0.0079
5790,48.47604,-2.583784,122.7,27.03,3.216,98.4,18 / 20,579013,2019-08-18 15:23:21:550,-0.3794,0.2454,10.2834,-0.5299,-0.2006,9.7903,0.0049,-0.0139,0.0068
5791,48.47604,-2.583784,122.7,27.03,3.216,98.4,18 / 20,579111,2019-08-18 15:23:21:648,-0.4291,0.1538,9.4663,-0.5253,-0.1921,9.7907,-0.0061,0.0097,0.0058
5792,48.47604,-2.583784,122.7,27.03,3.216,98.4,17 / 20,579211,2019-08-18 15:23:21:748,-0.5285,0.2328,9.7423,-0.5269,-0.1879,9.7907,-0.0087,-0.003,0.0042
5793,48.47604,-2.583784,122.7,27.03,3.216,98.4,17 / 20,579311,2019-08-18 15:23:21:848,-0.2448,0.1443,9.9045,-0.5227,-0.1858,9.7909,-0.0067,-0.0058,0.0023
5794,48.47604,-2.583784,122.7,27.03,3.216,98.4,17 / 20,579411,2019-08-18 15:23:21:948,-0.2286,0.3178,9.8757,-0.5096,-0.1803,9.7917,-0.0025,-0.0012,-0.0013
5795,48.47604,-2.583784,122.7,27.03,3.216,98.4,17 / 20,579511,2019-08-18 15:23:22:048,-0.1077,0.0491,9.8656,-0.5039,-0.1777,9.7921,-0.0075,-0.0042,-0.0007
5796,48.47604,-2.583784,122.7,27.03,3.216,98.4,17 / 20,579611,2019-08-18 15:23:22:148,-0.1071,0.3436,9.5417,-0.4934,-0.176,9.7927,-0.0132,0.0097,-0.0017
5797,48.47604,-2.583784,122.7,27.03,3.216,98.4,17 / 20,579711,2019-08-18 15:23:22:248,0.1874,0.3346,9.5663,-0.4968,-0.1799,9.7924,-0.0134,0.0148,-0.0013
5798,48.47604,-2.583784,122.7,27.03,3.216,98.4,17 / 20,579811,2019-08-18 15:23:22:348,-0.2034,0.1844,9.9853,-0.505,-0.1789,9.792,-0.0015,-0.0035,-0.0001
5799,48.47604,-2.583784,122.7,27.03,3.216,98.4,17 / 20,579911,2019-08-18 15:23:22:448,-0.2896,-0.0814,9.8739,-0.4892,-0.1731,9.7929,-0.0006,-0.0139,0.0002
5800,48.47604,-2.583784,122.7,27.03,3.216,98.4,17 / 20,580011,2019-08-18 15:23:22:548,-0.3525,-0.0856,9.8925,-0.4751,-0.1625,9.7938,0.0029,-0.0022,-0.0014
5801,48.47604,-2.583784,122.7,27.03,3.216,98.4,17 / 20,580112,2019-08-18 15:23:22:649,-0.3525,0.1365,9.6339,-0.4724,-0.1582,9.794,-0.0027,0.0118,-0.0006
5802,48.47604,-2.583784,122.7,27.03,3.216,98.4,17 / 20,580211,2019-08-18 15:23:22:748,-0.5039,0.0706,9.4089,-0.4851,-0.1564,9.7934,-0.0079,0.0192,-0.0001
5803,48.47604,-2.583784,122.7,27.03,3.216,98.4,17 / 20,580311,2019-08-18 15:23:22:848,-0.6057,0.0958,9.3748,-0.494,-0.1573,9.7929,-0.009,0.0001,-0.0013
5804,48.47604,-2.583784,122.7,27.03,3.216,98.4,17 / 20,580412,2019-08-18 15:23:22:949,-0.1723,0.1323,9.6872,-0.4826,-0.1565,9.7935,-0.0038,-0.0085,-0.0016
5805,48.47604,-2.583784,122.7,27.03,3.216,98.4,17 / 20,580511,2019-08-18 15:23:23:048,-0.2256,0.3777,9.7273,-0.479,-0.1547,9.7937,-0.0042,-0.0035,-0.001
5806,48.47604,-2.583784,122.7,27.03,3.216,98.4,17 / 20,580611,2019-08-18 15:23:23:148,-0.4668,0.1209,10.0146,-0.4878,-0.1574,9.7932,-0.0017,-0.0008,-0.0007
5807,48.47604,-2.583784,122.7,27.03,3.216,98.4,17 / 20,580711,2019-08-18 15:23:23:248,-0.471,0.2305,9.8733,-0.4847,-0.1557,9.7934,0.0,-0.0059,-0.0009
5808,48.47604,-2.583784,122.7,27.03,3.216,98.4,17 / 20,580811,2019-08-18 15:23:23:348,-0.4285,0.1562,9.9679,-0.4754,-0.152,9.7939,-0.0044,0.0026,-0.0007
5809,48.47604,-2.583784,122.7,27.03,3.216,98.4,17 / 20,580911,2019-08-18 15:23:23:448,-0.3088,0.0287,9.5364,-0.4785,-0.1512,9.7938,-0.0076,0.0029,-0.0006
5810,48.47604,-2.583784,122.7,27.03,3.216,98.4,17 / 20,581012,2019-08-18 15:23:23:549,-0.5841,0.1712,9.6219,-0.4803,-0.1497,9.7937,0.0039,0.0087,-0.0002
5811,48.47604,-2.583784,122.7,27.03,3.216,98.4,17 / 20,581111,2019-08-18 15:23:23:648,-0.3268,-0.0533,9.0605,-0.4866,-0.1442,9.7935,-0.0034,0.0226,-0.0016
5812,48.47604,-2.583784,122.7,27.03,3.216,98.4,17 / 20,581211,2019-08-18 15:23:23:748,-0.3262,-0.0563,9.2712,-0.5056,-0.142,9.7926,-0.0097,0.0145,-0.0019
5813,48.47604,-2.583784,122.7,27.03,3.216,98.4,17 / 20,581311,2019-08-18 15:23:23:848,-0.2543,0.082,10.0828,-0.5105,-0.1468,9.7923,-0.01,0.0019,-0.0033
5814,48.47604,-2.583784,122.7,27.03,3.216,98.4,17 / 20,581411,2019-08-18 15:23:23:948,-0.5871,0.1485,10.2786,-0.4998,-0.1455,9.7928,0.0089,-0.0021,-0.0028
5815,48.47604,-2.583784,122.7,27.03,3.216,98.4,17 / 20,581512,2019-08-18 15:23:24:049,-0.4908,-0.2921,10.2025,-0.4916,-0.1375,9.7934,0.0038,-0.0114,-0.0016
5816,48.47604,-2.583784,122.7,27.03,3.216,98.4,17 / 20,581611,2019-08-18 15:23:24:148,-0.2142,0.2442,10.029,-0.4644,-0.1467,9.7946,-0.0201,-0.0224,-0.0057
5817,48.47604,-2.583784,122.7,27.03,3.216,98.4,17 / 20,581712,2019-08-18 15:23:24:249,-0.2908,-0.1119,9.1605,-0.4664,-0.155,9.7943,-0.0126,0.0251,-0.0033
5818,48.47604,-2.583784,122.7,27.03,3.216,98.4,17 / 20,581811,2019-08-18 15:23:24:348,-0.3944,-0.0066,8.8947,-0.4978,-0.1599,9.7927,0.0001,0.033,-0.0013
5819,48.47604,-2.583784,122.7,27.03,3.216,98.4,17 / 20,581911,2019-08-18 15:23:24:448,-0.6739,-0.3579,8.8349,-0.503,-0.1566,9.7925,0.0153,0.0029,-0.0012
5820,48.47604,-2.583784,122.7,27.03,3.216,98.4,17 / 20,582012,2019-08-18 15:23:24:549,-0.3597,0.2035,9.8901,-0.5038,-0.1438,9.7926,0.0197,0.0066,-0.0019
5821,48.47604,-2.583784,122.7,27.03,3.216,98.4,17 / 20,582113,2019-08-18 15:23:24:650,-0.3399,-0.0658,10.5766,-0.5116,-0.1175,9.7926,0.0186,0.0095,-0.0023
5822,48.475727,-2.580544,123.71,27.69,3.216,98.3,17 / 20,582212,2019-08-18 15:23:24:749,-0.5315,0.258,10.4186,-0.5187,-0.1056,9.7924,0.0124,0.0124,-0.0034
5823,48.475727,-2.580544,123.71,27.69,3.216,98.3,17 / 20,582311,2019-08-18 15:23:24:848,-0.5626,-0.1808,9.4927,-0.514,-0.1057,9.7926,-0.0161,0.0024,-0.0073
5824,48.475727,-2.580544,123.71,27.69,3.216,98.3,17 / 20,582411,2019-08-18 15:23:24:948,-0.6242,-0.085,9.2059,-0.512,-0.1173,9.7926,-0.0138,0.0014,-0.0056
5825,48.475727,-2.580544,123.71,27.69,3.216,98.3,17 / 20,582511,2019-08-18 15:23:25:048,0.1503,-0.076,8.5134,-0.5185,-0.1159,9.7922,0.0058,0.0039,-0.004
5826,48.475727,-2.580544,123.71,27.69,3.216,98.3,17 / 20,582612,2019-08-18 15:23:25:149,-0.3405,0.2586,9.8524,-0.5236,-0.1092,9.7921,-0.0093,-0.0098,-0.0056
5827,48.475727,-2.580544,123.71,27.69,3.216,98.3,17 / 20,582712,2019-08-18 15:23:25:249,-0.6416,-0.0371,10.2738,-0.5201,-0.1208,9.7921,-0.0061,0.0042,-0.0054
5828,48.475727,-2.580544,123.71,27.69,3.216,98.3,17 / 20,582811,2019-08-18 15:23:25:348,-0.5045,-0.1688,10.081,-0.5223,-0.1204,9.792,-0.004,-0.0043,-0.0044
5829,48.475727,-2.580544,123.71,27.69,3.216,98.3,17 / 20,582912,2019-08-18 15:23:25:449,-0.6171,0.1425,10.1181,-0.5114,-0.1281,9.7925,-0.009,-0.0147,-0.0051
5830,48.475727,-2.580544,123.71,27.69,3.216,98.3,17 / 20,583011,2019-08-18 15:23:25:548,-0.3962,-0.1257,10.1588,-0.502,-0.1319,9.7929,-0.0064,-0.0173,-0.0046
5831,48.475727,-2.580544,123.71,27.69,3.216,98.3,17 / 20,583112,2019-08-18 15:23:25:649,-0.5997,0.0802,9.9057,-0.4934,-0.1341,9.7933,-0.0064,-0.0041,-0.0045
5832,48.475727,-2.580544,123.71,27.69,3.216,98.3,17 / 20,583211,2019-08-18 15:23:25:748,-0.5847,-0.0563,9.8231,-0.4912,-0.1365,9.7934,-0.0098,-0.004,-0.0048
5833,48.475727,-2.580544,123.71,27.69,3.216,98.3,17 / 20,583312,2019-08-18 15:23:25:849,-0.6356,-0.0934,9.7901,-0.49,-0.146,9.7933,-0.0099,0.0049,-0.0044
5834,48.475727,-2.580544,123.71,27.69,3.216,98.3,17 / 20,583411,2019-08-18 15:23:25:948,-0.4722,-0.1712,9.106,-0.4959,-0.1528,9.7929,-0.0111,0.0074,-0.0051
5835,48.475727,-2.580544,123.71,27.69,3.216,98.3,17 / 20,583511,2019-08-18 15:23:26:048,-0.5626,-0.0102,9.8081,-0.5041,-0.1573,9.7924,-0.0025,0.0049,-0.0032
5836,48.475727,-2.580544,123.71,27.69,3.216,98.3,17 / 20,583611,2019-08-18 15:23:26:148,-0.653,-0.0527,10.3749,-0.5033,-0.1561,9.7925,0.0031,-0.0064,-0.004
5837,48.475727,-2.580544,123.71,27.69,3.216,98.3,17 / 20,583711,2019-08-18 15:23:26:248,-0.6338,-0.2041,10.512,-0.4924,-0.1515,9.7931,-0.0006,-0.005,-0.0036
5838,48.475727,-2.580544,123.71,27.69,3.216,98.3,17 / 20,583812,2019-08-18 15:23:26:349,-0.6673,-0.0126,9.446,-0.4924,-0.1516,9.7931,-0.009,-0.0019,-0.0037
5839,48.475727,-2.580544,123.71,27.69,3.216,98.3,17 / 20,583911,2019-08-18 15:23:26:448,-0.5572,-0.1377,9.6399,-0.498,-0.1685,9.7925,-0.0217,0.0077,-0.0053
5840,48.475727,-2.580544,123.71,27.69,3.216,98.3,17 / 20,584011,2019-08-18 15:23:26:548,-0.6099,-0.1137,9.5034,-0.5031,-0.179,9.7921,-0.016,-0.0113,-0.0056
5841,48.475727,-2.580544,123.71,27.69,3.216,98.3,17 / 20,584111,2019-08-18 15:23:26:648,-0.7559,-0.0138,10.5264,-0.4848,-0.1853,9.7929,-0.0022,-0.0205,-0.0026
5842,48.475727,-2.580544,123.71,27.69,3.216,98.3,18 / 20,584211,2019-08-18 15:23:26:748,-0.7703,-0.3651,9.9919,-0.4799,-0.1855,9.7931,-0.0048,-0.0096,-0.001
5843,48.475727,-2.580544,123.71,27.69,3.216,98.3,18 / 20,584312,2019-08-18 15:23:26:849,-0.9642,-0.0233,9.8207,-0.482,-0.1887,9.793,-0.0034,-0.0036,0.0022
5844,48.475727,-2.580544,123.71,27.69,3.216,98.3,18 / 20,584411,2019-08-18 15:23:26:948,-0.8792,-0.1844,9.6231,-0.4864,-0.1875,9.7928,-0.0032,-0.0023,0.004
5845,48.475727,-2.580544,123.71,27.69,3.216,98.3,18 / 20,584511,2019-08-18 15:23:27:048,-0.9558,0.1107,9.6435,-0.4963,-0.1894,9.7923,-0.0116,0.0075,0.0056
5846,48.475727,-2.580544,123.71,27.69,3.216,98.3,18 / 20,584611,2019-08-18 15:23:27:148,-0.9822,0.0796,9.7818,-0.5123,-0.1943,9.7913,-0.0144,0.0063,0.0065
5847,48.475727,-2.580544,123.71,27.69,3.216,98.3,18 / 20,584711,2019-08-18 15:23:27:248,-0.9211,0.1078,9.3807,-0.5205,-0.2011,9.7908,-0.0112,-0.0012,0.0074
5848,48.475727,-2.580544,123.71,27.69,3.216,98.3,18 / 20,584811,2019-08-18 15:23:27:348,-1.0217,0.0084,9.7135,-0.5303,-0.205,9.7902,-0.0098,-0.0001,0.0089
5849,48.475727,-2.580544,123.71,27.69,3.216,98.3,18 / 20,584911,2019-08-18 15:23:27:448,-1.0588,-0.1173,10.2085,-0.5378,-0.2064,9.7897,-0.0018,-0.0158,0.009
5850,48.475727,-2.580544,123.71,27.69,3.216,98.3,18 / 20,585011,2019-08-18 15:23:27:548,-0.7787,0.1766,10.3181,-0.5255,-0.1979,9.7906,-0.0045,-0.0286,0.0084
5851,48.475727,-2.580544,123.71,27.69,3.216,98.3,18 / 20,585112,2019-08-18 15:23:27:649,-0.7086,0.2466,9.8033,-0.5169,-0.1953,9.7911,-0.0115,-0.005,0.0084
5852,48.475727,-2.580544,123.71,27.69,3.216,98.3,18 / 20,585212,2019-08-18 15:23:27:749,-0.8894,0.1838,9.5154,-0.5312,-0.1958,9.7903,-0.0056,0.0128,0.0106
5853,48.475727,-2.580544,123.71,27.69,3.216,98.3,18 / 20,585312,2019-08-18 15:23:27:849,-0.9923,0.1191,9.8261,-0.5385,-0.1944,9.7899,-0.0027,-0.0038,0.0121
5854,48.475727,-2.580544,123.71,27.69,3.216,98.3,18 / 20,585411,2019-08-18 15:23:27:948,-0.8804,0.3382,9.6088,-0.5526,-0.1806,9.7894,-0.0076,0.0036,0.0117
5855,48.475727,-2.580544,123.71,27.69,3.216,98.3,18 / 20,585511,2019-08-18 15:23:28:048,-1.0672,0.3651,8.9971,-0.562,-0.1809,9.7889,0.0024,0.0173,0.0071
5856,48.475727,-2.580544,123.71,27.69,3.216,98.3,18 / 20,585611,2019-08-18 15:23:28:148,-1.1958,0.1796,9.7231,-0.5969,-0.1736,9.7869,0.0149,0.0296,0.0101
5857,48.475727,-2.580544,123.71,27.69,3.216,98.3,18 / 20,585711,2019-08-18 15:23:28:248,-1.057,-0.1652,9.9284,-0.6172,-0.1537,9.786,0.0173,-0.007,0.0144
5858,48.475727,-2.580544,123.71,27.69,3.216,98.3,18 / 20,585811,2019-08-18 15:23:28:348,-1.121,0.4513,9.8907,-0.6269,-0.1165,9.7859,-0.0027,-0.0204,0.0087
5859,48.475727,-2.580544,123.71,27.69,3.216,98.3,18 / 20,585911,2019-08-18 15:23:28:448,-1.1617,-0.0928,10.0272,-0.6272,-0.1179,9.7859,-0.0238,-0.014,0.0038
5860,48.475727,-2.580544,123.71,27.69,3.216,98.3,18 / 20,586011,2019-08-18 15:23:28:548,-0.9097,-0.067,9.8302,-0.6251,-0.1338,9.7858,-0.0113,-0.0028,0.0069
5861,48.475727,-2.580544,123.71,27.69,3.216,98.3,18 / 20,586111,2019-08-18 15:23:28:648,-0.881,0.185,9.8404,-0.6312,-0.1305,9.7854,0.0046,-0.0052,0.009
5862,48.475727,-2.580544,123.71,27.69,3.216,98.3,18 / 20,586211,2019-08-18 15:23:28:748,-1.0558,-0.0353,9.9619,-0.6341,-0.1151,9.7855,0.002,-0.0118,0.0098
5863,48.475727,-2.580544,123.71,27.69,3.216,98.3,18 / 20,586311,2019-08-18 15:23:28:848,-0.9211,0.1149,9.9368,-0.6369,-0.1066,9.7854,0.0028,-0.0071,0.0051
5864,48.475727,-2.580544,123.71,27.69,3.216,98.3,18 / 20,586411,2019-08-18 15:23:28:948,-1.0989,0.1293,9.7662,-0.6336,-0.1026,9.7856,-0.0099,-0.0154,0.0008
5865,48.475727,-2.580544,123.71,27.69,3.216,98.3,18 / 20,586511,2019-08-18 15:23:29:048,-0.9582,0.2179,10.0619,-0.628,-0.1064,9.7859,-0.0155,-0.0081,0.0001
5866,48.475727,-2.580544,123.71,27.69,3.216,98.3,18 / 20,586611,2019-08-18 15:23:29:148,-0.8667,-0.1018,10.4773,-0.6263,-0.1179,9.7859,0.0053,-0.0181,0.0031
5867,48.475727,-2.580544,123.71,27.69,3.216,98.3,18 / 20,586711,2019-08-18 15:23:29:248,-0.9181,-0.064,10.8514,-0.6209,-0.1133,9.7863,0.0064,-0.0312,0.0038
5868,48.475727,-2.580544,123.71,27.69,3.216,98.3,18 / 20,586812,2019-08-18 15:23:29:349,-0.9337,0.009,10.3085,-0.5929,-0.1026,9.7882,0.0025,-0.0283,0.0031
5869,48.475727,-2.580544,123.71,27.69,3.216,98.3,18 / 20,586911,2019-08-18 15:23:29:448,-0.7457,0.419,10.108,-0.5887,-0.1039,9.7884,-0.0115,0.0019,0.0029
5870,48.475727,-2.580544,123.71,27.69,3.216,98.3,18 / 20,587011,2019-08-18 15:23:29:548,-0.6542,0.1676,10.1277,-0.5914,-0.1165,9.7881,-0.0147,-0.0085,0.0038
5871,48.475727,-2.580544,123.71,27.69,3.216,98.3,18 / 20,587111,2019-08-18 15:23:29:648,-0.9283,0.0934,10.263,-0.582,-0.1198,9.7886,-0.008,-0.0218,0.0044
5872,48.475727,-2.580544,123.71,27.69,3.216,98.3,18 / 20,587211,2019-08-18 15:23:29:748,-0.635,-0.079,9.6644,-0.558,-0.1195,9.79,0.0013,-0.0252,0.0035
5873,48.475727,-2.580544,123.71,27.69,3.216,98.3,18 / 20,587311,2019-08-18 15:23:29:848,-0.9103,0.0467,9.7399,-0.5414,-0.115,9.791,-0.0035,-0.0181,0.0052
5874,48.475727,-2.580544,123.71,27.69,3.216,98.3,18 / 20,587411,2019-08-18 15:23:29:948,-0.6548,0.0647,10.2426,-0.5321,-0.1126,9.7916,0.001,-0.0052,0.0046
5875,48.475727,-2.580544,123.71,27.69,3.216,98.3,18 / 20,587511,2019-08-18 15:23:30:048,-0.8696,0.1389,9.8123,-0.5303,-0.1096,9.7917,-0.0008,-0.0157,0.0041
5876,48.475727,-2.580544,123.71,27.69,3.216,98.3,18 / 20,587611,2019-08-18 15:23:30:148,-0.5446,0.2424,9.9853,-0.5204,-0.0939,9.7924,0.0093,0.0047,0.0034
5877,48.475727,-2.580544,123.71,27.69,3.216,98.3,18 / 20,587711,2019-08-18 15:23:30:248,-0.729,0.085,9.5064,-0.5256,-0.0861,9.7922,0.0072,0.0065,0.0056
5878,48.475727,-2.580544,123.71,27.69,3.216,98.3,18 / 20,587811,2019-08-18 15:23:30:348,-0.6428,0.0916,9.9607,-0.5425,-0.0739,9.7914,0.0005,0.0114,0.0056
5879,48.475727,-2.580544,123.71,27.69,3.216,98.3,18 / 20,587911,2019-08-18 15:23:30:448,-0.9056,0.1472,9.8709,-0.5504,-0.0683,9.791,0.0125,-0.0004,0.0057
5880,48.475727,-2.580544,123.71,27.69,3.216,98.3,18 / 20,588011,2019-08-18 15:23:30:548,-0.635,0.0359,10.7843,-0.5488,-0.0494,9.7912,0.0034,-0.0153,0.0038
5881,48.475727,-2.580544,123.71,27.69,3.216,98.3,18 / 20,588111,2019-08-18 15:23:30:648,-0.8589,0.0299,11.1069,-0.5379,-0.047,9.7918,-0.0043,-0.0228,-0.0019
5882,48.475727,-2.580544,123.71,27.69,3.216,98.3,18 / 20,588211,2019-08-18 15:23:30:748,-0.4387,0.1383,10.7412,-0.5081,-0.0492,9.7934,-0.0016,-0.029,-0.0001
5883,48.475727,-2.580544,123.71,27.69,3.216,98.3,18 / 20,588311,2019-08-18 15:23:30:848,-0.4441,-0.1221,10.0709,-0.4934,-0.0487,9.7941,-0.0051,-0.0154,-0.0035
5884,48.475727,-2.580544,123.71,27.69,3.216,98.3,18 / 20,588411,2019-08-18 15:23:30:948,-0.6063,0.1748,9.9937,-0.4779,-0.0573,9.7948,-0.013,-0.0098,-0.0045
5885,48.475727,-2.580544,123.71,27.69,3.216,98.3,18 / 20,588511,2019-08-18 15:23:31:048,-0.5117,-0.2622,9.6746,-0.4714,-0.0679,9.7951,-0.0121,-0.0104,-0.0049
5886,48.475727,-2.580544,123.71,27.69,3.216,98.3,18 / 20,588611,2019-08-18 15:23:31:148,-0.4022,-0.0455,9.6555,-0.4608,-0.081,9.7955,-0.0106,-0.0076,-0.0044
5887,48.475727,-2.580544,123.71,27.69,3.216,98.3,18 / 20,588711,2019-08-18 15:23:31:248,-0.7074,-0.2358,9.9559,-0.4618,-0.0838,9.7954,0.0004,0.0011,-0.0026
5888,48.475727,-2.580544,123.71,27.69,3.216,98.3,18 / 20,588811,2019-08-18 15:23:31:348,-0.3459,0.0784,10.1169,-0.4612,-0.0836,9.7954,-0.0031,-0.0146,-0.0053
5889,48.475727,-2.580544,123.71,27.69,3.216,98.3,18 / 20,588911,2019-08-18 15:23:31:448,-0.6889,0.0216,9.7303,-0.4472,-0.0863,9.7961,-0.0011,-0.0048,-0.0074
5890,48.475727,-2.580544,123.71,27.69,3.216,98.3,18 / 20,589011,2019-08-18 15:23:31:548,-0.8343,0.0527,10.9759,-0.4461,-0.0865,9.7961,0.0023,0.0006,-0.0079
5891,48.475727,-2.580544,123.71,27.69,3.216,98.3,18 / 20,589111,2019-08-18 15:23:31:648,-0.043,-1.0086,9.8727,-0.4459,-0.0857,9.7961,-0.0004,0.0047,-0.0071
5892,48.475727,-2.580544,123.71,27.69,3.216,98.3,18 / 20,589211,2019-08-18 15:23:31:748,0.0019,-0.0838,10.6616,-0.4425,-0.0946,9.7962,-0.0011,0.0058,-0.0075
5893,48.475727,-2.580544,123.71,27.69,3.216,98.3,18 / 20,589313,2019-08-18 15:23:31:850,-0.6404,-0.1532,10.2642,-0.4281,-0.0956,9.7968,0.0002,-0.0162,-0.0031
5894,48.475727,-2.580544,123.71,27.69,3.216,98.3,18 / 20,589411,2019-08-18 15:23:31:948,-0.5261,-0.0718,9.9541,-0.4247,-0.0976,9.797,-0.0047,-0.0027,-0.0039
5895,48.475727,-2.580544,123.71,27.69,3.216,98.3,18 / 20,589511,2019-08-18 15:23:32:048,-0.8649,-0.2688,9.9087,-0.4299,-0.1061,9.7966,-0.0003,0.0027,-0.0033
5896,48.475727,-2.580544,123.71,27.69,3.216,98.3,18 / 20,589611,2019-08-18 15:23:32:148,-0.3088,-0.1077,9.4837,-0.4359,-0.103,9.7964,0.0012,0.0072,-0.0026
5897,48.475727,-2.580544,123.71,27.69,3.216,98.3,18 / 20,589711,2019-08-18 15:23:32:248,-0.3932,-0.1718,10.1158,-0.4476,-0.1005,9.7959,0.0029,0.0053,-0.0032
