,GPS LATITUDE (degrees), GPS LONGITUDE (degrees), GPS ALTITUDE (m), GPS SPEED (Kmh), GPS ACCURACY (m), GPS ORIENTATION (Â°),GPS SATELLITES IN RANGE, TIME SINCE START (ms), DATE (YYYY-MO-DD HH-MI-SS_SSS), ACCELEROMETER X (m/s²) , ACCELEROMETER Y (m/s²), ACCELEROMETER Z (m/s²), GRAVITY X (m/s²), GRAVITY Y (m/s²), GRAVITY Z (m/s²), GYROSCOPE Yaw (rad/s), GYROSCOPE Pitch (rad/s), GYROSCOPE Roll (rad/s), MAGNETIC FIELD X (Î¼T), MAGNETIC FIELD Y (Î¼T), MAGNETIC FIELD Z (Î¼T), ORIENTATION (Yaw) (Â°), ORIENTATION (Pitch) (Â°), ORIENTATION (Roll ) (Â°)
31582,51.5228,-2.62696,101,2.98,10,239.8,14 / 22,3158222,2019-08-16 13:41:52:002,0.3106,-0.3892,9.4459,-0.0035,-0.0015,9.8066,0.0106,-0.0006,-0.0048,-8.17,28.31,-5.65,252.4,8.49,0.77
31583,51.5228,-2.62696,101,2.98,10,239.8,14 / 22,3158323,2019-08-16 13:41:52:103,-0.0511,0.1608,10.2116,0.0096,-0.0028,9.8066,-0.0096,0.0005,-0.0016,-8.17,28.31,-5.65,252.4,8.49,0.77
31584,51.5228,-2.62696,101,2.98,10,239.8,14 / 22,3158423,2019-08-16 13:41:52:203,-0.0958,0.3152,9.8797,-0.0046,-0.0089,9.8066,0.0011,0.0538,0.0027,-7.8,28.73,-3.75,253.53,8.49,0.71
31585,51.5228,-2.62696,101,2.98,10,239.8,14 / 22,3158523,2019-08-16 13:41:52:303,-0.0282,-0.3072,9.2272,-0.0089,-0.0159,9.8066,-0.0117,0.0431,-0.0027,-8.9,28.18,-5.14,250.88,8.38,0.73
31586,51.5228,-2.62696,101,2.98,10,239.8,14 / 22,3158623,2019-08-16 13:41:52:403,-0.2413,-0.0935,9.4944,-0.009,0.0008,9.8066,-0.0298,-0.0517,0.0069,-8.9,28.18,-5.14,250.88,8.38,0.73
31587,51.5228,-2.62696,101,2.98,10,239.8,14 / 22,3158723,2019-08-16 13:41:52:503,0.2278,-0.3948,10.3569,0.0082,0.0054,9.8066,-0.0011,0.025,-0.0016,-8.41,28.2,-5.84,252.42,8.37,0.78
31588,51.522785,-2.627001,100,3.1,10,239.8,14 / 22,3158823,2019-08-16 13:41:52:603,-0.1931,-0.0228,10.0227,-0.0068,-0.0062,9.8066,0.0256,-0.0006,-0.0027,-8.11,28.33,-5.63,252.41,8.43,0.78
31589,51.522785,-2.627001,100,3.1,10,239.8,14 / 22,3158923,2019-08-16 13:41:52:703,0.5788,-0.0688,9.5069,0.0164,-0.0064,9.8066,0.0021,0.0037,-0.0112,-8.11,28.33,-5.63,252.41,8.39,0.81
31590,51.522785,-2.627001,100,3.1,10,239.8,14 / 22,3159023,2019-08-16 13:41:52:803,0.1626,-0.0113,9.8004,0.0149,-0.0049,9.8066,-0.0085,-0.0613,0.0122,-8.11,28.33,-5.63,252.41,8.39,0.81
31591,51.522785,-2.627001,100,3.1,10,239.8,14 / 22,3159123,2019-08-16 13:41:52:903,-0.2418,0.3409,10.6701,-0.0031,0.0115,9.8066,-0.0085,-0.0613,0.0122,-7.43,28.53,-5.56,254.81,8.38,0.72
31592,51.522785,-2.627001,100,3.1,10,239.8,14 / 22,3159223,2019-08-16 13:41:53:003,0.077,0.4498,10.1188,0.0021,0.0271,9.8066,0.0,0.0463,0.0048,-7.33,28.67,-4.92,255.06,8.54,0.75
31593,51.522785,-2.627001,100,3.1,10,239.8,14 / 22,3159323,2019-08-16 13:41:53:103,-0.0292,-0.2311,9.763,-0.0009,0.0155,9.8066,0.0149,-0.0176,0.0016,-7.33,28.67,-4.92,255.06,8.54,0.75
31594,51.522785,-2.627001,100,3.1,10,239.8,14 / 22,3159423,2019-08-16 13:41:53:203,-0.0829,-0.1998,9.9345,-0.001,0.0138,9.8066,-0.0096,-0.024,0.0005,-6.54,28.8,-5.3,255.04,8.63,0.77
31595,51.522785,-2.627001,100,3.1,10,239.8,14 / 22,3159523,2019-08-16 13:41:53:303,0.2201,0.3676,9.9956,0.0134,0.0213,9.8066,-0.0053,0.0005,0.0005,-6.79,29.08,-2.83,255.61,8.77,0.73
31596,51.522785,-2.627001,100,3.1,10,239.8,14 / 22,3159623,2019-08-16 13:41:53:403,-0.1348,-0.0634,8.994,0.0026,0.0099,9.8066,-0.0043,0.0389,-0.0027,-5.17,29.22,-4.42,255.61,8.77,0.73
31597,51.522785,-2.627001,100,3.1,10,239.8,14 / 22,3159723,2019-08-16 13:41:53:503,0.0393,-0.2243,9.1819,0.0109,0.0214,9.8066,0.0053,-0.0016,0.0027,-5.17,29.22,-4.42,255.61,8.77,0.73
31598,51.522766,-2.627044,100,3.15,10,239.8,14 / 22,3159823,2019-08-16 13:41:53:603,-0.2102,-0.1344,9.7172,-0.0064,0.0062,9.8066,0.0053,-0.0016,0.0027,-4.76,29.49,-2.75,259.33,8.9,0.7
31599,51.522766,-2.627044,100,3.15,10,239.8,14 / 22,3159924,2019-08-16 13:41:53:704,-0.2035,0.2937,10.3408,0.0003,0.0276,9.8066,-0.0064,-0.0485,-0.008,-5.33,29.25,-3.98,259.33,8.9,0.7
31600,51.522766,-2.627044,100,3.15,10,239.8,14 / 22,3160023,2019-08-16 13:41:53:803,0.1747,0.0245,10.1245,0.0061,0.0398,9.8066,0.0202,-0.0059,-0.008,-4.24,29.44,-3.94,260.89,9.14,0.71
31601,51.522766,-2.627044,100,3.15,10,239.8,14 / 22,3160123,2019-08-16 13:41:53:903,0.131,0.2127,9.6005,-0.0004,0.0032,9.8067,-0.0128,0.0367,0.0016,-4.24,29.44,-3.94,260.89,9.14,0.71
31602,51.522766,-2.627044,100,3.15,10,239.8,14 / 22,3160223,2019-08-16 13:41:54:003,0.0493,0.4699,10.135,0.0045,0.0039,9.8066,0.0032,-0.0208,-0.0005,-3.81,29.56,-3.41,261.48,9.16,0.71
31603,51.522766,-2.627044,100,3.15,10,239.8,14 / 22,3160323,2019-08-16 13:41:54:103,0.1678,-0.4427,9.4213,0.0093,0.0047,9.8066,-0.0043,-0.0123,0.0016,-4.45,29.38,-4.13,261.48,9.16,0.71
31604,51.522766,-2.627044,100,3.15,10,239.8,14 / 22,3160423,2019-08-16 13:41:54:203,0.1007,-0.1191,9.285,0.0132,0.0099,9.8066,0.0053,0.0666,0.0027,-4.16,29.48,-3.72,260.89,9.23,0.64
31605,51.522766,-2.627044,100,3.15,10,239.8,14 / 22,3160523,2019-08-16 13:41:54:303,-0.1065,0.1577,9.9416,0.0031,0.0079,9.8066,0.0021,-0.041,-0.0005,-4.14,29.39,-4.38,260.88,9.3,0.64
31606,51.522766,-2.627044,100,3.15,10,239.8,14 / 22,3160623,2019-08-16 13:41:54:403,-0.368,0.4093,10.5485,-0.0027,0.0031,9.8067,0.0021,-0.041,-0.0005,-4.14,29.39,-4.38,260.88,9.3,0.64
31607,51.522766,-2.627044,100,3.15,10,239.8,14 / 22,3160723,2019-08-16 13:41:54:503,0.1522,0.1218,9.9687,-0.008,0.0004,9.8066,0.0341,-0.0432,-0.0101,-4.21,29.26,-5.12,260.88,9.3,0.64
31608,51.522755,-2.627085,101,2.96,10,239.8,14 / 22,3160822,2019-08-16 13:41:54:602,0.1388,-0.3583,9.7841,0.011,0.013,9.8066,-0.0192,0.0474,-0.0005,-4.29,29.25,-5.12,260.56,9.29,0.69
31609,51.522755,-2.627085,101,2.96,10,239.8,14 / 22,3160923,2019-08-16 13:41:54:703,-0.1932,0.055,10.0955,0.0139,0.0035,9.8066,-0.0245,0.008,0.0059,-5.25,29.21,-4.35,258.98,9.38,0.64
31610,51.522755,-2.627085,101,2.96,10,239.8,14 / 22,3161023,2019-08-16 13:41:54:803,0.3062,0.0246,9.6845,0.0152,-0.0017,9.8066,0.0117,0.0303,-0.0027,-4.73,29.47,-3.05,258.98,9.38,0.64
31611,51.522755,-2.627085,101,2.96,10,239.8,14 / 22,3161124,2019-08-16 13:41:54:904,-0.0759,0.2462,10.2316,0.0079,0.0089,9.8066,-0.0085,0.0144,0.0091,-4.73,29.47,-3.05,258.98,9.38,0.64
31612,51.522755,-2.627085,101,2.96,10,239.8,14 / 22,3161222,2019-08-16 13:41:55:002,-0.1779,-0.2207,9.7704,0.0034,0.012,9.8066,0.0042,-0.0336,0.0016,-4.8,29.37,-3.78,258.98,9.44,0.6
31613,51.522755,-2.627085,101,2.96,10,239.8,14 / 22,3161323,2019-08-16 13:41:55:103,0.0668,0.1214,9.5268,-0.0015,0.005,9.8066,0.0149,-0.008,-0.0027,-4.8,29.36,-3.88,258.98,9.47,0.62
31614,51.522755,-2.627085,101,2.96,10,239.8,14 / 22,3161423,2019-08-16 13:41:55:203,0.0287,0.5877,10.1857,-0.0022,0.0155,9.8066,-0.0117,0.0314,-0.0027,-4.8,29.36,-3.88,258.98,9.47,0.62
31615,51.522755,-2.627085,101,2.96,10,239.8,14 / 22,3161522,2019-08-16 13:41:55:302,-0.0366,0.3148,10.0614,0.0008,-0.0007,9.8067,-0.0117,0.0314,-0.0027,-4.88,29.25,-4.53,258.64,9.55,0.65
31616,51.522755,-2.627085,101,2.96,10,239.8,14 / 22,3161623,2019-08-16 13:41:55:403,-0.2224,0.047,10.2947,0.0002,-0.0166,9.8066,-0.0096,0.0367,0.0101,-4.3,29.34,-4.55,258.64,9.55,0.65
31617,51.522755,-2.627085,101,2.96,10,239.8,14 / 22,3161723,2019-08-16 13:41:55:503,0.0752,-0.1242,9.979,-0.0018,-0.0126,9.8066,0.0042,0.0037,-0.0059,-3.81,29.49,-3.95,260.86,9.48,0.64
31618,51.522743,-2.627123,101,2.96,9,239.9,14 / 22,3161823,2019-08-16 13:41:55:603,0.3098,-0.3114,9.6429,0.0005,0.014,9.8066,0.0192,-0.0666,-0.0059,-3.81,29.49,-3.95,260.86,9.48,0.64
31619,51.522743,-2.627123,101,2.96,9,239.9,14 / 22,3161924,2019-08-16 13:41:55:704,-0.2499,-0.0855,10.2389,-0.0022,0.0019,9.8067,0.0138,0.0037,-0.0027,-3.44,29.61,-3.39,263.31,9.56,0.65
31620,51.522743,-2.627123,101,2.96,9,239.9,14 / 22,3162023,2019-08-16 13:41:55:803,-0.243,0.1542,10.2182,-0.0098,-0.0024,9.8066,0.0096,0.0122,0.0059,-3.48,29.26,-5.66,263.31,9.56,0.65
31621,51.522743,-2.627123,101,2.96,9,239.9,14 / 22,3162125,2019-08-16 13:41:55:905,-0.0477,0.1717,9.629,-0.0035,-0.0092,9.8066,0.0085,-0.0655,-0.0027,-4.12,29.41,-4.28,260.85,9.5,0.67
31622,51.522743,-2.627123,101,2.96,9,239.9,14 / 22,3162223,2019-08-16 13:41:56:003,0.0413,0.0279,9.2854,-0.0011,0.004,9.8066,0.0053,-0.0187,-0.0059,-5.29,29.25,-4.06,258.96,9.53,0.68
31623,51.522743,-2.627123,101,2.96,9,239.9,14 / 22,3162323,2019-08-16 13:41:56:103,-0.0829,-0.4056,9.3692,-0.0071,0.0158,9.8066,0.0053,-0.0187,-0.0059,-5.29,29.25,-4.06,258.96,9.53,0.68
31624,51.522743,-2.627123,101,2.96,9,239.9,14 / 22,3162423,2019-08-16 13:41:56:203,-0.1146,-0.1446,10.415,0.0054,-0.0097,9.8066,-0.0213,0.0271,-0.0016,-5.0,29.35,-3.67,258.94,9.61,0.74
31625,51.522743,-2.627123,101,2.96,9,239.9,14 / 22,3162524,2019-08-16 13:41:56:304,0.1094,0.0471,9.7479,0.0064,-0.0067,9.8066,0.0,-0.0016,-0.0027,-6.46,29.06,-3.72,258.94,9.61,0.74
31626,51.522743,-2.627123,101,2.96,9,239.9,14 / 22,3162623,2019-08-16 13:41:56:403,0.1226,0.0344,9.7539,0.0057,0.0047,9.8066,-0.0117,0.0069,-0.0037,-7.77,28.74,-3.68,253.43,9.58,0.69
31627,51.522743,-2.627123,101,2.96,9,239.9,14 / 22,3162723,2019-08-16 13:41:56:503,-0.0823,0.2256,10.0113,-0.0017,0.0056,9.8066,0.0192,0.0016,-0.0048,-7.77,28.74,-3.68,253.43,9.58,0.69
31628,51.52273,-2.627162,100,2.87,9,239.9,14 / 22,3162823,2019-08-16 13:41:56:603,-0.1242,0.1319,9.9184,-0.0025,-0.0014,9.8066,-0.0139,0.0144,0.0027,-7.06,28.68,-5.28,254.92,9.61,0.71
31629,51.52273,-2.627162,100,2.87,9,239.9,14 / 22,3162923,2019-08-16 13:41:56:703,0.0541,-0.5004,9.6941,0.0008,-0.0083,9.8066,0.0,0.0186,0.0005,-8.02,28.24,-6.17,252.25,9.56,0.69
31630,51.52273,-2.627162,100,2.87,9,239.9,14 / 22,3163023,2019-08-16 13:41:56:803,-0.224,-0.2626,9.9991,-0.0061,-0.0016,9.8066,0.0085,0.0176,-0.0027,-7.88,28.45,-5.36,252.56,9.54,0.72
31631,51.52273,-2.627162,100,2.87,9,239.9,14 / 22,3163123,2019-08-16 13:41:56:903,-0.1461,0.2185,9.732,-0.0022,-0.0001,9.8067,0.0085,0.0176,-0.0027,-7.88,28.45,-5.36,252.56,9.54,0.72
31632,51.52273,-2.627162,100,2.87,9,239.9,14 / 22,3163223,2019-08-16 13:41:57:003,-0.1187,-0.2951,10.3697,0.0024,-0.0001,9.8066,-0.0075,-0.0229,-0.0037,-9.31,27.86,-6.09,250.42,9.54,0.74
31633,51.52273,-2.627162,100,2.87,9,239.9,14 / 22,3163324,2019-08-16 13:41:57:104,0.1959,-0.4747,9.0157,0.0004,0.0023,9.8066,-0.0085,0.0516,0.0101,-9.35,27.99,-5.41,250.42,9.54,0.74
31634,51.52273,-2.627162,100,2.87,9,239.9,14 / 22,3163423,2019-08-16 13:41:57:203,0.1094,-0.1693,9.4404,-0.0066,-0.0021,9.8066,-0.0043,-0.0133,0.0048,-8.26,28.07,-6.63,251.92,9.56,0.74
31635,51.52273,-2.627162,100,2.87,9,239.9,14 / 22,3163524,2019-08-16 13:41:57:304,-0.0633,0.1698,9.8044,-0.0031,-0.0032,9.8066,0.0042,-0.0261,-0.0069,-8.26,28.07,-6.63,251.92,9.56,0.74
31636,51.52273,-2.627162,100,2.87,9,239.9,14 / 22,3163623,2019-08-16 13:41:57:403,-0.0589,0.133,10.2101,0.003,-0.003,9.8066,-0.0043,0.0346,0.0027,-8.52,28.06,-6.32,250.42,9.53,0.75
31637,51.52273,-2.627162,100,2.87,9,239.9,14 / 22,3163723,2019-08-16 13:41:57:503,0.0243,0.102,9.9245,0.0077,-0.0093,9.8066,0.0138,-0.041,-0.0005,-8.93,27.97,-6.16,250.42,9.53,0.75
31638,51.522717,-2.627199,100,2.84,9,239.8,14 / 22,3163823,2019-08-16 13:41:57:603,0.0736,0.1133,9.7417,0.003,-0.0042,9.8066,0.0138,-0.041,-0.0005,-8.93,27.97,-6.16,250.44,9.5,0.69
31639,51.522717,-2.627199,100,2.84,9,239.8,14 / 22,3163922,2019-08-16 13:41:57:702,-0.2655,-0.0771,9.618,0.0092,0.0047,9.8066,-0.0075,0.0048,0.0005,-8.97,28.1,-5.45,250.75,9.54,0.65
31640,51.522717,-2.627199,100,2.84,9,239.8,14 / 22,3164023,2019-08-16 13:41:57:803,0.2029,-0.0342,9.8831,-0.0001,0.0003,9.8067,-0.0203,0.0037,0.0112,-8.97,28.1,-5.45,250.75,9.54,0.65
31641,51.522717,-2.627199,100,2.84,9,239.8,14 / 22,3164123,2019-08-16 13:41:57:903,-0.032,0.0433,9.8206,-0.0029,0.0044,9.8066,0.0032,0.0314,0.0069,-9.22,27.91,-6.01,250.44,9.54,0.65
31642,51.522717,-2.627199,100,2.84,9,239.8,14 / 22,3164223,2019-08-16 13:41:58:003,0.0346,-0.4021,9.3557,-0.0051,0.0071,9.8066,0.0074,0.0037,0.0048,-8.93,27.97,-6.16,250.43,9.57,0.69
31643,51.522717,-2.627199,100,2.84,9,239.8,14 / 22,3164323,2019-08-16 13:41:58:103,0.1921,0.2233,10.4709,-0.0037,-0.0023,9.8066,-0.0064,-0.0293,0.0016,-8.93,27.97,-6.16,250.43,9.57,0.69
31644,51.522717,-2.627199,100,2.84,9,239.8,14 / 22,3164423,2019-08-16 13:41:58:203,-0.026,0.2638,10.1636,-0.0015,-0.0005,9.8066,-0.0181,0.0495,0.0027,-8.36,28.16,-6.1,252.24,9.57,0.7
31645,51.522717,-2.627199,100,2.84,9,239.8,14 / 22,3164523,2019-08-16 13:41:58:303,0.2005,0.0339,9.4225,-0.0042,-0.01,9.8066,0.0011,0.0644,0.0005,-8.35,28.14,-6.2,252.26,9.55,0.65
31646,51.522717,-2.627199,100,2.84,9,239.8,14 / 22,3164623,2019-08-16 13:41:58:403,0.522,-0.1086,9.7919,-0.0098,-0.0055,9.8066,0.0011,0.0644,0.0005,-8.35,28.14,-6.2,252.26,9.55,0.65
31647,51.522717,-2.627199,100,2.84,9,239.8,14 / 22,3164723,2019-08-16 13:41:58:503,0.2161,0.2651,9.8344,0.008,0.0064,9.8066,-0.0171,-0.0442,0.0122,-8.32,28.01,-6.79,251.94,9.51,0.69
31648,51.522705,-2.627234,101,2.83,9,239.6,14 / 22,3164823,2019-08-16 13:41:58:603,-0.3453,-0.244,9.4399,0.0129,0.0077,9.8066,0.0256,-0.0144,-0.0005,-7.69,28.01,-7.52,251.94,9.51,0.69
31649,51.522705,-2.627234,101,2.83,9,239.6,14 / 22,3164923,2019-08-16 13:41:58:703,0.1417,0.2534,10.2015,-0.0036,0.0026,9.8066,-0.0128,0.0357,0.0112,-8.79,27.87,-6.76,250.13,9.57,0.64
31650,51.522705,-2.627234,101,2.83,9,239.6,14 / 22,3165024,2019-08-16 13:41:58:804,0.0776,0.027,10.1929,0.0,0.0077,9.8066,-0.0181,0.0101,0.0154,-8.7,28.21,-5.35,250.74,9.61,0.65
31651,51.522705,-2.627234,101,2.83,9,239.6,14 / 22,3165123,2019-08-16 13:41:58:903,0.037,-0.1358,9.4169,0.0036,0.0065,9.8066,0.0085,-0.024,0.0016,-8.7,28.21,-5.35,250.74,9.61,0.65
31652,51.522705,-2.627234,101,2.83,9,239.6,14 / 22,3165223,2019-08-16 13:41:59:003,-0.0775,-0.1213,9.957,-0.0002,-0.0042,9.8066,-0.0064,0.008,-0.0037,-8.63,28.25,-5.25,250.74,9.66,0.64
31653,51.522705,-2.627234,101,2.83,9,239.6,14 / 22,3165323,2019-08-16 13:41:59:103,-0.0569,0.556,10.0193,-0.0036,-0.0112,9.8066,-0.0064,0.008,-0.0037,-9.63,27.93,-5.19,248.97,9.59,0.64
31654,51.522705,-2.627234,101,2.83,9,239.6,14 / 22,3165423,2019-08-16 13:41:59:203,-0.0345,-0.4113,9.2577,0.0041,0.0026,9.8066,-0.0075,0.0612,0.0059,-9.63,27.93,-5.19,248.97,9.59,0.64
31655,51.522705,-2.627234,101,2.83,9,239.6,14 / 22,3165523,2019-08-16 13:41:59:303,0.1318,-0.0878,9.8435,0.0003,0.0012,9.8066,-0.0053,0.0101,-0.0037,-8.63,28.25,-5.25,250.75,9.61,0.62
31656,51.522705,-2.627234,101,2.83,9,239.6,14 / 22,3165623,2019-08-16 13:41:59:403,-0.1517,0.1096,9.7648,0.0015,-0.0003,9.8067,0.0138,-0.0144,0.0005,-8.2,28.23,-5.98,252.25,9.61,0.62
31657,51.522705,-2.627234,101,2.83,9,239.6,14 / 22,3165724,2019-08-16 13:41:59:504,-0.1982,0.0171,9.7836,-0.0027,-0.0046,9.8066,-0.0032,-0.024,0.0048,-8.2,28.23,-5.98,252.25,9.61,0.62
31658,51.52269,-2.62727,101,2.82,9,239.5,14 / 22,3165822,2019-08-16 13:41:59:602,0.1732,-0.045,10.0193,0.0005,0.0024,9.8067,-0.0128,-0.0016,0.0048,-8.39,28.27,-5.49,252.57,9.58,0.62
31659,51.52269,-2.62727,101,2.82,9,239.5,14 / 22,3165923,2019-08-16 13:41:59:703,0.2095,0.0179,10.0336,0.0085,-0.0006,9.8066,0.0106,0.0271,0.0016,-7.77,28.32,-6.13,252.57,9.58,0.62
31660,51.52269,-2.62727,101,2.82,9,239.5,14 / 22,3166023,2019-08-16 13:41:59:803,-0.1797,-0.0106,9.2013,0.0014,-0.0057,9.8066,0.0138,0.0378,0.0069,-7.07,28.66,-5.34,254.95,9.55,0.6
31661,51.52269,-2.62727,101,2.82,9,239.5,14 / 22,3166123,2019-08-16 13:41:59:903,-0.1355,0.3255,10.0485,-0.002,-0.0031,9.8067,-0.0107,0.0048,0.0091,-8.5,28.65,-2.67,251.98,9.53,0.61
31662,51.52269,-2.62727,101,2.82,9,239.5,14 / 22,3166223,2019-08-16 13:42:00:003,-0.0336,-0.1506,9.7963,0.0011,-0.0019,9.8067,-0.0107,0.0048,0.0091,-8.5,28.65,-2.67,251.98,9.53,0.61
31663,51.52269,-2.62727,101,2.82,9,239.5,14 / 22,3166323,2019-08-16 13:42:00:103,-0.2074,-0.336,9.9896,-0.0116,-0.0093,9.8066,0.0309,0.0154,-0.0112,-7.59,28.91,-2.58,253.76,9.52,0.6
31664,51.52269,-2.62727,101,2.82,9,239.5,14 / 22,3166424,2019-08-16 13:42:00:204,-0.0147,0.0508,10.2548,0.007,-0.0044,9.8066,-0.0021,-0.0219,-0.0048,-9.01,28.45,-3.09,251.38,9.47,0.64
31665,51.52269,-2.62727,101,2.82,9,239.5,14 / 22,3166523,2019-08-16 13:42:00:303,0.1829,-0.2391,9.6394,-0.0032,-0.0032,9.8066,-0.0075,-0.0037,0.008,-8.66,28.67,-1.74,251.38,9.47,0.64
31666,51.52269,-2.62727,101,2.82,9,239.5,14 / 22,3166623,2019-08-16 13:42:00:403,0.0479,-0.0172,9.3394,-0.0092,0.0034,9.8066,0.0181,0.0346,-0.0016,-8.66,28.67,-1.74,251.38,9.47,0.64
31667,51.52269,-2.62727,101,2.82,9,239.5,14 / 22,3166723,2019-08-16 13:42:00:503,-0.1628,0.0314,9.7082,0.0037,0.0042,9.8066,0.0106,-0.0133,-0.0059,-8.0,28.75,-3.12,253.75,9.47,0.7
31668,51.522675,-2.627304,101,2.66,9,239.4,14 / 22,3166823,2019-08-16 13:42:00:603,-0.0423,0.33,10.3968,-0.0026,0.0068,9.8066,-0.0256,-0.0016,0.0144,-8.64,28.62,-2.46,252.27,9.5,0.68
31669,51.522675,-2.627304,101,2.66,9,239.4,14 / 22,3166923,2019-08-16 13:42:00:703,0.1103,0.2413,10.3582,0.006,0.0136,9.8066,-0.0075,0.0442,-0.0016,-9.37,28.34,-3.01,251.37,9.59,0.67
31670,51.522675,-2.627304,101,2.66,9,239.4,14 / 22,3167023,2019-08-16 13:42:00:803,0.0326,0.0618,9.7428,0.0134,0.0114,9.8066,-0.0075,0.0442,-0.0016,-9.7,28.13,-3.82,249.27,9.67,0.62
31671,51.522675,-2.627304,101,2.66,9,239.4,14 / 22,3167123,2019-08-16 13:42:00:903,0.0313,-0.1099,9.8724,0.0064,0.0054,9.8066,-0.0021,0.0367,0.0059,-9.7,28.13,-3.82,249.27,9.67,0.62
31672,51.522675,-2.627304,101,2.66,9,239.4,14 / 22,3167223,2019-08-16 13:42:01:003,-0.0485,-0.0848,9.774,-0.0016,0.0041,9.8066,0.0117,-0.0197,0.0037,-8.13,28.61,-3.89,253.44,9.72,0.59
31673,51.522675,-2.627304,101,2.66,9,239.4,14 / 22,3167323,2019-08-16 13:42:01:103,-0.1751,-0.1424,9.6973,-0.0064,0.0109,9.8066,0.0202,-0.0187,-0.008,-8.95,28.35,-4.02,251.04,9.77,0.65
31674,51.522675,-2.627304,101,2.66,9,239.4,14 / 22,3167423,2019-08-16 13:42:01:203,-0.148,0.2438,10.0154,0.0087,0.0059,9.8066,-0.0224,0.0474,0.0101,-8.79,28.5,-3.23,251.34,9.93,0.72
31675,51.522675,-2.627304,101,2.66,9,239.4,14 / 22,3167523,2019-08-16 13:42:01:303,-0.0714,-0.3511,9.0921,0.0134,0.0182,9.8066,0.0096,-0.0464,0.0005,-8.66,28.36,-4.56,251.34,9.93,0.72
31676,51.522675,-2.627304,101,2.66,9,239.4,14 / 22,3167623,2019-08-16 13:42:01:403,0.114,0.4828,10.0022,0.018,0.0302,9.8066,-0.0011,0.0122,0.0122,-8.66,28.36,-4.56,251.34,9.93,0.72
31677,51.522675,-2.627304,101,2.66,9,239.4,14 / 22,3167722,2019-08-16 13:42:01:502,0.2015,0.1622,10.2179,0.0066,0.0113,9.8066,-0.0011,0.0122,0.0122,-9.16,28.32,-3.74,251.01,10.13,0.68
31678,51.522663,-2.627336,102,2.51,9,239.3,14 / 22,3167823,2019-08-16 13:42:01:603,-0.0131,-0.0924,9.4458,0.0029,0.0143,9.8066,0.0053,0.0208,-0.0027,-8.26,28.52,-4.3,251.01,10.13,0.68
31679,51.522663,-2.627336,102,2.51,9,239.3,14 / 22,3167922,2019-08-16 13:42:01:702,-0.3877,-0.4165,9.8753,0.0059,0.0154,9.8066,0.0138,-0.04,-0.0059,-8.28,28.59,-3.72,253.38,10.22,0.67
31680,51.522663,-2.627336,102,2.51,9,239.3,14 / 22,3168023,2019-08-16 13:42:01:803,-0.1217,0.2234,10.3408,0.01,-0.0004,9.8066,-0.0288,0.0389,0.0069,-8.28,28.59,-3.72,253.38,10.22,0.67
31681,51.522663,-2.627336,102,2.51,9,239.3,14 / 22,3168124,2019-08-16 13:42:01:904,0.2468,-0.1378,9.5773,0.0003,-0.0058,9.8066,-0.0085,-0.024,0.0059,-8.84,28.51,-3.03,251.94,10.24,0.61
31682,51.522663,-2.627336,102,2.51,9,239.3,14 / 22,3168223,2019-08-16 13:42:02:003,-0.0173,0.1579,9.5724,0.006,-0.0049,9.8066,0.016,0.0485,0.0037,-9.18,28.39,-3.14,251.94,10.24,0.61
31683,51.522663,-2.627336,102,2.51,9,239.3,14 / 22,3168323,2019-08-16 13:42:02:103,-0.0319,0.3974,10.5344,0.0112,-0.0001,9.8066,-0.0117,0.0548,0.0059,-8.26,28.52,-4.3,253.4,10.26,0.55
31684,51.522663,-2.627336,102,2.51,9,239.3,14 / 22,3168423,2019-08-16 13:42:02:203,0.0561,-0.0625,9.6186,-0.0031,0.0074,9.8066,-0.0117,0.0548,0.0059,-8.41,28.46,-4.38,253.4,10.26,0.55
31685,51.522663,-2.627336,102,2.51,9,239.3,14 / 22,3168523,2019-08-16 13:42:02:303,0.0772,0.0636,9.5797,-0.0042,0.0118,9.8066,-0.0075,0.009,-0.0005,-8.41,28.46,-4.38,253.4,10.26,0.55
31686,51.522663,-2.627336,102,2.51,9,239.3,14 / 22,3168623,2019-08-16 13:42:02:403,-0.0317,0.0713,10.1203,-0.0002,0.0012,9.8067,0.0138,-0.0293,-0.0133,-8.15,28.7,-3.18,253.72,10.32,0.6
31687,51.522663,-2.627336,102,2.51,9,239.3,14 / 22,3168723,2019-08-16 13:42:02:503,0.1501,0.0584,10.1406,0.003,-0.0017,9.8067,0.0106,-0.0155,0.0016,-7.58,28.85,-3.2,253.72,10.32,0.6
31688,51.522655,-2.627364,102,2.37,9,239.3,14 / 22,3168823,2019-08-16 13:42:02:603,-0.0656,-0.2368,9.7907,-0.0019,-0.0037,9.8067,-0.0043,0.009,0.0005,-7.58,28.85,-3.2,253.72,10.32,0.6
31689,51.522655,-2.627364,102,2.37,9,239.3,14 / 22,3168924,2019-08-16 13:42:02:704,-0.1058,0.0297,9.8896,-0.0063,-0.0023,9.8066,-0.0011,0.0303,0.0101,-8.13,28.63,-3.78,253.38,10.3,0.6
31690,51.522655,-2.627364,102,2.37,9,239.3,14 / 22,3169023,2019-08-16 13:42:02:803,-0.1391,-0.3132,9.401,-0.0095,-0.0055,9.8066,-0.0011,-0.0378,-0.0016,-7.51,28.58,-5.21,253.38,10.3,0.6
31691,51.522655,-2.627364,102,2.37,9,239.3,14 / 22,3169125,2019-08-16 13:42:02:905,-0.0405,-0.0086,10.0282,0.0077,0.0095,9.8066,0.0149,-0.0485,-0.0133,-8.11,28.53,-4.49,253.38,10.25,0.65
31692,51.522655,-2.627364,102,2.37,9,239.3,14 / 22,3169225,2019-08-16 13:42:03:005,0.0311,0.1254,10.3104,0.018,0.0146,9.8066,-0.0128,0.0538,0.0016,-8.0,28.75,-3.12,253.72,10.36,0.57
31693,51.522655,-2.627364,102,2.37,9,239.3,14 / 22,3169323,2019-08-16 13:42:03:103,-0.0689,-0.1612,9.6763,0.0001,-0.0017,9.8066,-0.0128,0.0538,0.0016,-8.01,28.8,-2.52,253.72,10.36,0.57
31694,51.522655,-2.627364,102,2.37,9,239.3,14 / 22,3169423,2019-08-16 13:42:03:203,-0.0151,-0.1403,9.7398,0.0006,-0.006,9.8066,-0.0053,0.0208,0.0059,-8.46,28.61,-3.1,253.72,10.33,0.56
31695,51.522655,-2.627364,102,2.37,9,239.3,14 / 22,3169523,2019-08-16 13:42:03:303,-0.1945,-0.1943,9.5726,-0.0014,0.0001,9.8067,-0.0043,-0.0219,-0.0048,-8.46,28.61,-3.1,253.72,10.33,0.56
31696,51.522655,-2.627364,102,2.37,9,239.3,14 / 22,3169623,2019-08-16 13:42:03:403,0.1672,0.1769,9.9486,0.0078,0.01,9.8066,-0.0064,0.0282,0.0005,-8.44,28.54,-3.79,253.39,10.34,0.57
31697,51.522655,-2.627364,102,2.37,9,239.3,14 / 22,3169724,2019-08-16 13:42:03:504,0.0885,0.0583,9.7172,0.0052,0.0002,9.8066,-0.0139,0.0293,0.0005,-9.1,28.12,-5.12,250.67,10.4,0.54
31698,51.522644,-2.627391,102,2.12,9,239.2,14 / 22,3169823,2019-08-16 13:42:03:603,-0.0858,-0.0744,9.7712,0.01,0.0104,9.8066,0.0,0.0293,-0.0005,-9.1,28.12,-5.12,250.67,10.4,0.54
31699,51.522644,-2.627391,102,2.12,9,239.2,14 / 22,3169923,2019-08-16 13:42:03:703,-0.103,0.1908,10.078,-0.0016,0.0152,9.8066,0.0106,-0.0208,-0.0005,-7.69,28.63,-4.6,253.05,10.48,0.5
31700,51.522644,-2.627391,102,2.12,9,239.2,14 / 22,3170023,2019-08-16 13:42:03:803,-0.0107,-0.1111,9.7317,-0.0024,0.0319,9.8066,0.0,-0.0048,-0.0027,-7.73,28.8,-3.26,253.7,10.66,0.57
31701,51.522644,-2.627391,102,2.12,9,239.2,14 / 22,3170123,2019-08-16 13:42:03:903,0.0521,-0.0106,9.9232,0.0053,0.0187,9.8066,0.0,-0.0048,-0.0027,-7.73,28.8,-3.26,253.7,10.66,0.57
31702,51.522644,-2.627391,102,2.12,9,239.2,14 / 22,3170223,2019-08-16 13:42:04:003,0.0119,-0.017,9.6914,0.0101,0.0216,9.8066,-0.0117,0.0165,0.0122,-7.69,28.63,-4.6,253.01,10.79,0.55
31703,51.522644,-2.627391,102,2.12,9,239.2,14 / 22,3170323,2019-08-16 13:42:04:103,-0.0901,0.2075,10.3953,0.0039,0.0105,9.8066,0.0032,-0.0282,0.0016,-7.81,28.45,-5.42,252.43,10.86,0.55
31704,51.522644,-2.627391,102,2.12,9,239.2,14 / 22,3170423,2019-08-16 13:42:04:203,0.0254,0.1959,9.5817,0.0007,-0.0028,9.8067,-0.0011,0.009,0.0016,-7.81,28.45,-5.42,252.43,10.86,0.55
31705,51.522644,-2.627391,102,2.12,9,239.2,14 / 22,3170523,2019-08-16 13:42:04:303,0.1347,0.2013,9.9909,0.0077,0.0133,9.8066,-0.0021,0.0676,0.0048,-7.92,28.49,-5.08,252.42,10.9,0.56
31706,51.522644,-2.627391,102,2.12,9,239.2,14 / 22,3170622,2019-08-16 13:42:04:402,0.1892,-0.0024,9.5354,0.0104,0.0151,9.8066,0.0074,-0.0538,-0.0037,-7.92,28.49,-5.08,252.42,10.9,0.56
31707,51.522644,-2.627391,102,2.12,9,239.2,14 / 22,3170722,2019-08-16 13:42:04:502,0.006,0.0915,9.8145,0.0042,0.0141,9.8066,-0.0075,-0.0048,0.0005,-8.11,28.53,-4.49,253.34,11.01,0.53
31708,51.522633,-2.627413,103,1.87,9,239.2,14 / 22,3170823,2019-08-16 13:42:04:603,0.0796,-0.0982,9.5182,0.0014,0.0061,9.8066,0.0043,0.0016,0.0005,-8.58,28.4,-4.46,250.96,11.09,0.53
31709,51.522633,-2.627413,103,1.87,9,239.2,14 / 22,3170924,2019-08-16 13:42:04:704,0.0689,0.1934,9.5732,0.0039,0.0202,9.8066,0.0043,0.0016,0.0005,-8.58,28.4,-4.46,250.96,11.09,0.53
31710,51.522633,-2.627413,103,1.87,9,239.2,14 / 22,3171024,2019-08-16 13:42:04:804,-0.0006,0.2425,10.1399,0.003,0.0111,9.8066,0.0,-0.0176,0.0005,-8.26,28.46,-4.68,252.39,11.21,0.55
31711,51.522633,-2.627413,103,1.87,9,239.2,14 / 22,3171123,2019-08-16 13:42:04:903,0.0605,-0.1026,9.3038,0.0083,0.0199,9.8066,-0.0064,0.009,0.0059,-8.15,28.7,-3.18,252.39,11.21,0.55
31712,51.522633,-2.627413,103,1.87,9,239.2,14 / 22,3171224,2019-08-16 13:42:05:004,0.0105,0.3223,10.2196,0.014,0.037,9.8066,0.0074,0.009,-0.0048,-8.58,28.4,-4.46,250.93,11.44,0.53
31713,51.522633,-2.627413,103,1.87,9,239.2,14 / 22,3171323,2019-08-16 13:42:05:103,0.037,0.0619,9.766,0.0068,0.0117,9.8066,0.0106,-0.0357,-0.0037,-8.43,28.41,-4.67,250.93,11.44,0.53
31714,51.522633,-2.627413,103,1.87,9,239.2,14 / 22,3171423,2019-08-16 13:42:05:203,-0.0506,-0.023,10.0171,0.0106,0.0256,9.8066,-0.0011,0.0122,0.0016,-8.43,28.41,-4.67,250.93,11.44,0.53
31715,51.522633,-2.627413,103,1.87,9,239.2,14 / 22,3171523,2019-08-16 13:42:05:303,0.093,-0.0543,9.9232,0.0031,-0.0029,9.8066,-0.0107,0.0431,0.0016,-8.01,28.51,-4.79,252.92,11.6,0.52
31716,51.522633,-2.627413,103,1.87,9,239.2,14 / 22,3171622,2019-08-16 13:42:05:402,0.0856,-0.2924,9.6602,0.0025,0.0069,9.8066,0.0064,-0.041,-0.0048,-7.84,28.57,-4.69,252.93,11.59,0.5
31717,51.522633,-2.627413,103,1.87,9,239.2,14 / 22,3171723,2019-08-16 13:42:05:503,0.1934,0.1668,9.9824,0.0019,0.0158,9.8066,0.0064,-0.041,-0.0048,-7.66,28.52,-5.31,252.91,11.69,0.52
31718,51.52263,-2.627433,104,1.42,9,239.2,14 / 22,3171823,2019-08-16 13:42:05:603,-0.0155,0.3831,10.609,0.0028,-0.007,9.8066,0.0117,0.0112,-0.0048,-7.66,28.52,-5.31,252.91,11.69,0.52
31719,51.52263,-2.627433,104,1.42,9,239.2,14 / 22,3171923,2019-08-16 13:42:05:703,-0.1282,0.0569,9.8861,-0.0025,-0.0058,9.8066,-0.0021,0.024,0.0048,-8.04,28.3,-5.86,251.97,11.65,0.49
31720,51.52263,-2.627433,104,1.42,9,239.2,14 / 22,3172022,2019-08-16 13:42:05:802,-0.0482,-0.2887,9.8329,-0.0082,-0.0109,9.8066,-0.0149,-0.0165,0.0048,-8.13,28.63,-3.78,251.97,11.65,0.49
31721,51.52263,-2.627433,104,1.42,9,239.2,14 / 22,3172124,2019-08-16 13:42:05:904,0.0813,-0.2958,9.7394,-0.0113,-0.0294,9.8066,0.0149,0.008,-0.0037,-7.74,28.81,-3.16,253.67,11.47,0.5
31722,51.52263,-2.627433,104,1.42,9,239.2,14 / 22,3172223,2019-08-16 13:42:06:003,-0.1382,-0.3666,9.3961,-0.0101,-0.0097,9.8066,-0.0011,-0.0016,0.0037,-8.11,28.53,-4.49,253.67,11.47,0.5
31723,51.52263,-2.627433,104,1.42,9,239.2,14 / 22,3172323,2019-08-16 13:42:06:103,-0.195,-0.317,10.0535,-0.0026,-0.0162,9.8066,-0.0011,-0.0112,0.0016,-8.99,28.39,-3.67,250.94,11.26,0.55
31724,51.52263,-2.627433,104,1.42,9,239.2,14 / 22,3172423,2019-08-16 13:42:06:203,-0.1027,-0.347,9.7417,-0.006,-0.033,9.8066,-0.0021,-0.0037,-0.0016,-8.99,28.39,-3.67,250.94,11.26,0.55
31725,51.52263,-2.627433,104,1.42,9,239.2,14 / 22,3172522,2019-08-16 13:42:06:302,-0.1834,-0.1264,10.0999,-0.0092,-0.05,9.8065,-0.0021,-0.0037,-0.0016,-8.93,28.2,-5.03,250.94,11.26,0.55
31726,51.52263,-2.627433,104,1.42,9,239.2,14 / 22,3172623,2019-08-16 13:42:06:403,-0.1773,0.0426,10.2686,-0.0023,-0.0026,9.8067,-0.0075,0.0293,0.0005,-7.62,28.39,-6.01,252.07,10.97,0.51
31727,51.52263,-2.627433,104,1.42,9,239.2,14 / 22,3172722,2019-08-16 13:42:06:502,-0.0318,0.0796,9.7717,0.0002,-0.0115,9.8066,0.0032,-0.0336,0.0005,-7.62,28.39,-6.01,252.07,10.97,0.51
31728,51.522625,-2.627447,104,1.05,9,239.3,14 / 22,3172823,2019-08-16 13:42:06:603,0.1074,-0.0037,9.9675,0.0008,-0.0068,9.8066,0.0096,0.0218,0.0016,-7.68,28.62,-4.7,253.01,10.91,0.49
31729,51.522625,-2.627447,104,1.05,9,239.3,14 / 22,3172923,2019-08-16 13:42:06:703,-0.0399,-0.1532,9.5791,-0.0035,-0.0107,9.8066,0.0021,-0.008,-0.0016,-8.43,28.39,-4.77,252.45,10.84,0.49
31730,51.522625,-2.627447,104,1.05,9,239.3,14 / 22,3173023,2019-08-16 13:42:06:803,-0.0865,-0.1065,9.8405,-0.0004,-0.0019,9.8067,-0.0075,0.0186,-0.0016,-8.43,28.39,-4.77,252.45,10.84,0.49
31731,51.522625,-2.627447,104,1.05,9,239.3,14 / 22,3173123,2019-08-16 13:42:06:903,0.1748,0.0731,9.8612,-0.0011,0.0048,9.8066,-0.0075,0.0186,-0.0016,-8.4,28.29,-5.39,252.44,10.86,0.5
31732,51.522625,-2.627447,104,1.05,9,239.3,14 / 22,3173223,2019-08-16 13:42:07:003,-0.0723,-0.2173,9.5121,-0.0008,-0.0002,9.8067,0.0085,-0.0251,-0.0005,-7.54,28.69,-4.51,253.01,10.86,0.51
31733,51.522625,-2.627447,104,1.05,9,239.3,14 / 22,3173324,2019-08-16 13:42:07:104,-0.0819,0.1052,9.9631,0.0085,0.0012,9.8066,0.0011,-0.0272,-0.0016,-7.54,28.69,-4.51,253.01,10.86,0.51
31734,51.522625,-2.627447,104,1.05,9,239.3,14 / 22,3173423,2019-08-16 13:42:07:203,0.2524,0.0259,9.9295,-0.0033,0.0026,9.8066,-0.0245,0.0357,0.0069,-8.74,28.33,-4.55,250.64,10.88,0.46
31735,51.522625,-2.627447,104,1.05,9,239.3,14 / 22,3173523,2019-08-16 13:42:07:303,-0.1239,-0.0612,9.4645,0.0051,-0.0023,9.8067,0.0064,-0.0229,-0.0016,-8.74,28.33,-4.55,250.63,10.89,0.48
31736,51.522625,-2.627447,104,1.05,9,239.3,14 / 22,3173623,2019-08-16 13:42:07:403,0.0609,-0.1989,9.746,0.0081,0.0094,9.8066,0.0021,-0.0304,0.0016,-8.6,28.48,-3.87,250.98,10.96,0.46
31737,51.522625,-2.627447,104,1.05,9,239.3,14 / 22,3173723,2019-08-16 13:42:07:503,-0.0077,0.2861,10.1835,0.0014,0.0077,9.8066,-0.0149,0.0612,0.0027,-8.6,28.48,-3.87,250.98,10.96,0.46
31738,51.52262,-2.627459,104,0.98,9,239.3,14 / 22,3173823,2019-08-16 13:42:07:603,0.09,-0.0933,9.5274,0.0057,0.006,9.8066,0.0,0.0005,-0.0005,-9.13,28.23,-4.44,250.98,11.0,0.46
31739,51.52262,-2.627459,104,0.98,9,239.3,14 / 22,3173924,2019-08-16 13:42:07:704,0.175,0.2383,10.0257,0.0132,0.0233,9.8066,0.0043,-0.0421,-0.0005,-8.71,28.22,-5.25,250.98,11.0,0.46
31740,51.52262,-2.627459,104,0.98,9,239.3,14 / 22,3174023,2019-08-16 13:42:07:803,0.0749,0.2485,9.9011,0.0224,0.041,9.8065,0.0043,-0.0421,-0.0005,-8.91,28.25,-4.74,250.61,11.27,0.42
31741,51.52262,-2.627459,104,0.98,9,239.3,14 / 22,3174123,2019-08-16 13:42:07:903,-0.0105,0.2534,10.0034,0.006,0.0211,9.8066,0.0085,-0.0293,-0.0037,-8.91,28.25,-4.74,250.61,11.27,0.42
31742,51.52262,-2.627459,104,0.98,9,239.3,14 / 22,3174223,2019-08-16 13:42:08:003,0.0678,0.1275,10.0375,0.0037,0.0072,9.8066,-0.0075,0.0346,0.0048,-8.4,28.29,-5.39,252.38,11.51,0.43
31743,51.52262,-2.627459,104,0.98,9,239.3,14 / 22,3174323,2019-08-16 13:42:08:103,-0.016,-0.01,9.5456,0.0075,0.0241,9.8066,0.0011,-0.0325,-0.0005,-8.4,28.29,-5.39,252.38,11.51,0.43
31744,51.52262,-2.627459,104,0.98,9,239.3,14 / 22,3174423,2019-08-16 13:42:08:203,-0.0527,0.2187,10.1181,0.0065,0.019,9.8066,0.0,0.024,-0.0037,-8.89,28.17,-5.26,250.56,11.66,0.44
31745,51.52262,-2.627459,104,0.98,9,239.3,14 / 22,3174523,2019-08-16 13:42:08:303,0.0413,0.1065,9.6075,0.0072,0.014,9.8066,0.0117,-0.0314,0.0016,-8.68,28.12,-5.85,250.17,11.77,0.44
31746,51.52262,-2.627459,104,0.98,9,239.3,14 / 22,3174623,2019-08-16 13:42:08:403,0.0296,0.056,10.0279,0.0134,0.0345,9.8066,0.0,-0.024,-0.0005,-8.24,28.38,-5.18,252.33,11.99,0.43
31747,51.52262,-2.627459,104,0.98,9,239.3,14 / 22,3174723,2019-08-16 13:42:08:503,0.0345,0.2253,9.5799,0.0066,0.0139,9.8066,0.0,-0.024,-0.0005,-8.24,28.38,-5.18,252.33,11.99,0.43
31748,51.52262,-2.627459,104,0.98,9,239.3,14 / 22,3174823,2019-08-16 13:42:08:603,-0.0548,-0.0511,9.8306,0.0025,0.016,9.8066,-0.0117,0.0389,0.0069,-8.13,28.63,-3.78,253.28,12.08,0.42
31749,51.52262,-2.627459,104,0.98,9,239.3,14 / 22,3174923,2019-08-16 13:42:08:703,-0.2467,-0.7434,9.7094,-0.0089,-0.0123,9.8066,0.0074,-0.024,0.0037,-8.6,28.49,-3.77,250.91,12.0,0.45
31750,51.52262,-2.627459,104,0.98,9,239.3,14 / 22,3175024,2019-08-16 13:42:08:804,-0.4018,-0.5627,10.118,-0.019,-0.0554,9.8065,0.0021,0.0005,-0.0005,-8.77,28.43,-3.84,250.93,11.65,0.45
31751,51.52262,-2.627459,104,0.98,9,239.3,14 / 22,3175124,2019-08-16 13:42:08:904,-0.0285,-0.3753,9.8437,-0.0291,-0.077,9.8063,-0.0021,0.0431,0.0016,-8.77,28.43,-3.84,250.93,11.65,0.45
31752,51.52262,-2.627459,104,0.98,9,239.3,14 / 22,3175223,2019-08-16 13:42:09:003,-0.0784,-0.2784,9.2436,-0.0066,-0.0172,9.8066,-0.0096,0.0048,0.0048,-8.55,28.31,-5.06,250.61,11.17,0.46
31753,51.52262,-2.627459,104,0.98,9,239.3,14 / 22,3175323,2019-08-16 13:42:09:103,-0.1264,-0.1135,10.0624,-0.0098,-0.0276,9.8066,0.0,-0.0133,-0.0016,-7.84,28.57,-4.69,253.0,11.0,0.46
31754,51.52262,-2.627459,104,0.98,9,239.3,14 / 22,3175423,2019-08-16 13:42:09:203,-0.0053,-0.4196,10.0896,-0.0064,-0.0315,9.8066,0.0032,0.0453,-0.0027,-7.84,28.57,-4.69,253.0,11.0,0.46
31755,51.52262,-2.627459,104,0.98,9,239.3,14 / 22,3175523,2019-08-16 13:42:09:303,-0.152,-0.3969,9.6419,-0.0129,-0.0311,9.8066,-0.0096,0.0431,0.008,-8.75,28.16,-5.5,250.3,10.82,0.44
31756,51.52262,-2.627459,104,0.98,9,239.3,14 / 22,3175623,2019-08-16 13:42:09:403,-0.1684,-0.1764,10.0718,-0.0237,-0.0545,9.8065,-0.0096,0.0431,0.008,-7.98,28.41,-5.42,252.5,10.47,0.47
31757,51.52262,-2.627459,104,0.98,9,239.3,14 / 22,3175723,2019-08-16 13:42:09:503,-0.1141,-0.2812,9.6606,-0.0077,-0.0183,9.8066,0.0042,-0.0464,-0.0048,-7.98,28.41,-5.42,252.5,10.47,0.47
31758,51.522625,-2.627461,103,0.0,9,239.3,14 / 22,3175824,2019-08-16 13:42:09:604,-0.0562,0.0016,10.2984,-0.011,-0.0245,9.8066,0.016,-0.0528,0.0027,-9.02,27.94,-6.19,250.36,10.31,0.49
31759,51.522625,-2.627461,103,0.0,9,239.3,14 / 22,3175924,2019-08-16 13:42:09:704,-0.1153,-0.0324,9.928,-0.0042,-0.0203,9.8066,0.0,-0.0006,0.0027,-8.74,28.33,-4.55,250.7,10.22,0.5
31760,51.522625,-2.627461,103,0.0,9,239.3,14 / 22,3176023,2019-08-16 13:42:09:803,-0.1182,-0.2678,10.088,-0.0103,-0.0361,9.8066,-0.0021,-0.0325,0.0027,-8.74,28.33,-4.55,250.7,10.22,0.5
31761,51.522625,-2.627461,103,0.0,9,239.3,14 / 22,3176124,2019-08-16 13:42:09:904,-0.2033,-0.2853,9.801,-0.0169,-0.0581,9.8065,-0.0032,0.0357,0.0016,-8.55,28.31,-5.06,250.7,10.22,0.5
31762,51.522625,-2.627461,103,0.0,9,239.3,14 / 22,3176223,2019-08-16 13:42:10:003,-0.0928,0.0776,10.1696,-0.0055,-0.009,9.8066,0.0106,-0.0293,-0.0027,-8.68,28.12,5.84,254.31,9.86,0.48
31763,51.522625,-2.627461,103,0.0,9,239.3,14 / 22,3176323,2019-08-16 13:42:10:103,0.0629,-0.2061,9.3903,-0.0028,-0.013,9.8066,0.0106,-0.0293,-0.0027,-9.4,28.44,-1.77,251.71,9.8,0.5
31764,51.522625,-2.627461,103,0.0,9,239.3,14 / 22,3176422,2019-08-16 13:42:10:202,-0.1092,-0.028,9.8456,-0.0068,-0.0262,9.8066,0.0032,0.0239,-0.0005,-9.4,28.44,-1.77,251.71,9.8,0.5
31765,51.522625,-2.627461,103,0.0,9,239.3,14 / 22,3176524,2019-08-16 13:42:10:304,-0.0418,-0.2413,9.4494,-0.0014,-0.0043,9.8066,-0.0075,0.0367,0.0048,-9.16,28.32,-3.74,251.08,9.65,0.49
31766,51.522625,-2.627461,103,0.0,9,239.3,14 / 22,3176623,2019-08-16 13:42:10:403,-0.0368,-0.0553,9.8576,-0.0055,-0.0198,9.8066,0.0032,-0.008,0.0037,-9.86,27.98,-4.49,249.31,9.53,0.48
31767,51.522625,-2.627461,103,0.0,9,239.3,14 / 22,3176723,2019-08-16 13:42:10:503,-0.0236,-0.0854,9.6779,-0.0068,-0.009,9.8066,-0.0021,0.008,-0.0016,-9.86,27.98,-4.49,249.31,9.53,0.48
31768,51.522625,-2.627461,103,0.0,9,239.3,14 / 22,3176823,2019-08-16 13:42:10:603,0.0224,0.0823,10.1047,-0.0029,-0.0058,9.8066,-0.0128,0.0069,0.0069,-8.95,28.36,-3.92,251.1,9.46,0.5
31769,51.522625,-2.627461,103,0.0,9,239.3,14 / 22,3176923,2019-08-16 13:42:10:703,0.043,-0.3025,9.5543,-0.0044,-0.0201,9.8066,0.0053,0.008,-0.0016,-9.6,28.42,-0.32,251.1,9.46,0.5
31770,51.522625,-2.627461,103,0.0,9,239.3,14 / 22,3177023,2019-08-16 13:42:10:803,0.1231,-0.1775,9.9917,-0.0076,-0.0121,9.8066,0.0053,0.008,-0.0016,-10.08,27.99,3.86,251.7,9.19,0.49
31771,51.522625,-2.627461,103,0.0,9,239.3,14 / 22,3177124,2019-08-16 13:42:10:904,-0.0042,-0.0558,9.708,-0.0029,-0.0117,9.8066,0.0021,0.0239,-0.0037,-9.46,27.99,-5.22,250.83,9.11,0.51
31772,51.522625,-2.627461,103,0.0,9,239.3,14 / 22,3177223,2019-08-16 13:42:11:003,-0.12,0.2142,9.747,-0.0011,-0.0089,9.8066,0.0021,-0.0037,0.0027,-9.46,27.99,-5.22,250.83,9.11,0.51
31773,51.522625,-2.627461,103,0.0,9,239.3,14 / 22,3177323,2019-08-16 13:42:11:103,0.0788,0.2561,10.3212,-0.0038,-0.0059,9.8066,0.0074,-0.0346,-0.0037,-8.63,27.98,-6.54,250.26,9.06,0.5
31774,51.522625,-2.627461,103,0.0,9,239.3,14 / 22,3177424,2019-08-16 13:42:11:204,-0.0714,-0.1883,9.729,-0.0058,-0.018,9.8066,0.0011,0.0101,-0.0027,-9.31,28.17,-4.42,251.15,8.95,0.49
31775,51.522625,-2.627461,103,0.0,9,239.3,14 / 22,3177523,2019-08-16 13:42:11:303,0.0978,0.0981,9.8703,-0.0013,0.0003,9.8067,-0.0011,0.0485,0.0037,-9.31,28.17,-4.42,251.15,8.95,0.49
31776,51.522625,-2.627461,103,0.0,9,239.3,14 / 22,3177623,2019-08-16 13:42:11:403,-0.0308,-0.0232,9.7624,-0.0055,-0.001,9.8066,0.0011,-0.0219,0.0016,-8.77,28.43,-3.84,251.14,8.93,0.52
31777,51.522625,-2.627461,103,0.0,9,239.3,14 / 22,3177723,2019-08-16 13:42:11:503,-0.0731,0.1053,9.7978,-0.0009,-0.0013,9.8067,-0.0011,0.0016,-0.0027,-8.8,27.9,-6.66,251.14,8.93,0.52
31778,51.522633,-2.627454,102,0.0,9,239.3,14 / 22,3177822,2019-08-16 13:42:11:602,-0.0669,0.2401,10.2019,0.0019,0.0009,9.8066,-0.0171,0.0474,0.0048,-8.8,27.9,-6.66,250.27,8.94,0.51
31779,51.522633,-2.627454,102,0.0,9,239.3,14 / 22,3177922,2019-08-16 13:42:11:702,-0.0201,-0.1479,9.633,0.0007,-0.0193,9.8066,0.0074,-0.0187,0.0016,-8.8,27.9,-6.66,250.27,8.94,0.51
31780,51.522633,-2.627454,102,0.0,9,239.3,14 / 22,3178023,2019-08-16 13:42:11:803,0.0403,0.1747,10.0319,0.0031,-0.0031,9.8066,0.0074,-0.0187,0.0016,-8.61,27.72,-7.58,250.02,8.83,0.47
31781,51.522633,-2.627454,102,0.0,9,239.3,14 / 22,3178123,2019-08-16 13:42:11:903,0.0421,-0.0062,9.8994,-0.0032,-0.0104,9.8066,0.0074,-0.0293,0.0005,-8.32,28.03,-6.7,250.02,8.83,0.47
31782,51.522633,-2.627454,102,0.0,9,239.3,14 / 22,3178223,2019-08-16 13:42:12:003,-0.1043,-0.1677,9.8268,-0.0097,-0.0013,9.8066,0.0138,0.0165,-0.0005,-9.21,27.87,-6.21,250.6,8.77,0.47
31783,51.522633,-2.627454,102,0.0,9,239.3,14 / 22,3178323,2019-08-16 13:42:12:103,-0.0239,0.2456,9.7453,-0.0154,0.0062,9.8066,-0.0021,0.0239,0.0037,-8.37,28.18,-5.99,250.6,8.77,0.47
31784,51.522633,-2.627454,102,0.0,9,239.3,14 / 22,3178423,2019-08-16 13:42:12:203,-0.0347,0.1138,10.0676,-0.0129,0.0025,9.8066,-0.0117,-0.0144,0.0016,-8.53,28.1,-6.12,250.58,8.76,0.54
31785,51.522633,-2.627454,102,0.0,9,239.3,14 / 22,3178523,2019-08-16 13:42:12:303,0.1547,-0.2864,9.3272,0.0048,-0.0063,9.8066,-0.0021,0.0303,-0.0048,-8.53,28.1,-6.12,250.58,8.76,0.54
31786,51.522633,-2.627454,102,0.0,9,239.3,14 / 22,3178624,2019-08-16 13:42:12:404,0.0394,-0.0679,9.6352,0.0016,-0.0023,9.8067,-0.0075,0.0303,0.0048,-9.37,27.72,-6.62,250.31,8.73,0.5
31787,51.522633,-2.627454,102,0.0,9,239.3,14 / 22,3178724,2019-08-16 13:42:12:504,0.0044,-0.0556,9.5409,-0.0004,-0.0081,9.8066,0.0,-0.0069,0.0016,-9.46,27.99,-5.22,250.89,8.69,0.49
31788,51.522633,-2.627454,102,0.0,9,239.3,14 / 22,3178823,2019-08-16 13:42:12:603,-0.0451,0.0825,9.7565,-0.0049,0.0052,9.8066,0.0021,0.0261,-0.0037,-9.46,27.99,-5.22,250.89,8.69,0.49
31789,51.522633,-2.627454,102,0.0,9,239.3,14 / 22,3178923,2019-08-16 13:42:12:703,0.141,-0.0829,9.9048,-0.0008,-0.0038,9.8067,0.0021,0.0261,-0.0037,-8.85,28.06,-5.86,250.59,8.71,0.53
31790,51.522633,-2.627454,102,0.0,9,239.3,14 / 22,3179023,2019-08-16 13:42:12:803,0.058,-0.0612,10.0727,-0.0017,-0.0079,9.8066,-0.0117,0.0399,0.0059,-9.31,28.16,-4.52,250.88,8.69,0.53
31791,51.522633,-2.627454,102,0.0,9,239.3,14 / 22,3179123,2019-08-16 13:42:12:903,0.1446,-0.0931,9.4135,-0.0019,-0.005,9.8066,-0.0075,0.0154,0.0048,-9.31,28.16,-4.52,250.88,8.69,0.53
31792,51.522633,-2.627454,102,0.0,9,239.3,14 / 22,3179224,2019-08-16 13:42:13:004,0.1411,0.1589,9.9329,0.0031,-0.002,9.8066,0.016,-0.0517,-0.0027,-9.06,28.02,-5.71,250.6,8.65,0.53
31793,51.522633,-2.627454,102,0.0,9,239.3,14 / 22,3179323,2019-08-16 13:42:13:103,0.1178,-0.1112,9.6537,0.0017,0.0016,9.8066,-0.0096,0.0378,0.0027,-9.24,27.94,-5.81,250.6,8.67,0.52
31794,51.522633,-2.627454,102,0.0,9,239.3,14 / 22,3179423,2019-08-16 13:42:13:203,-0.0677,0.1271,9.8406,0.0002,0.0017,9.8067,-0.0128,0.041,0.0059,-9.24,27.94,-5.81,250.6,8.67,0.52
31795,51.522633,-2.627454,102,0.0,9,239.3,14 / 22,3179523,2019-08-16 13:42:13:303,0.1661,-0.0615,9.6189,0.0001,-0.0077,9.8066,0.0192,-0.0293,-0.008,-9.02,27.96,-6.08,250.6,8.68,0.52
31796,51.522633,-2.627454,102,0.0,9,239.3,14 / 22,3179623,2019-08-16 13:42:13:403,0.0354,0.1506,9.8414,-0.0007,-0.0038,9.8066,-0.0085,0.0218,0.0037,-9.68,28.02,-4.6,250.6,8.68,0.52
31797,51.522633,-2.627454,102,0.0,9,239.3,14 / 22,3179723,2019-08-16 13:42:13:503,-0.0433,0.2361,10.0411,-0.0004,-0.0001,9.8067,-0.0085,0.0218,0.0037,-9.02,27.96,-6.08,250.6,8.65,0.52
31798,51.522633,-2.627454,102,0.0,9,239.3,14 / 22,3179823,2019-08-16 13:42:13:603,0.0914,-0.0874,9.9711,0.0016,0.0035,9.8066,-0.0075,0.0058,0.0059,-9.46,27.99,-5.22,250.6,8.65,0.52
31799,51.522633,-2.627454,102,0.0,9,239.3,14 / 22,3179923,2019-08-16 13:42:13:703,-0.0767,-0.0784,9.6379,0.0004,-0.004,9.8067,0.0064,0.0069,-0.0059,-9.46,27.99,-5.22,250.6,8.65,0.52
31800,51.522633,-2.627454,102,0.0,9,239.3,14 / 22,3180023,2019-08-16 13:42:13:803,-0.0666,0.286,10.1698,-0.0017,0.0046,9.8066,-0.0096,0.0303,0.0027,-9.6,27.85,-5.67,248.83,8.63,0.51
31801,51.522633,-2.627454,102,0.0,9,239.3,14 / 22,3180123,2019-08-16 13:42:13:903,0.0066,0.0844,9.653,0.0007,0.0054,9.8066,-0.0021,0.0176,0.0037,-8.99,28.39,-3.67,248.83,8.63,0.51
31802,51.522633,-2.627454,102,0.0,9,239.3,14 / 22,3180223,2019-08-16 13:42:14:003,0.007,0.0344,10.1101,0.0011,0.0028,9.8066,0.0117,-0.0112,-0.0059,-8.99,28.39,-3.67,248.83,8.63,0.51
31803,51.522633,-2.627454,102,0.0,9,239.3,14 / 22,3180323,2019-08-16 13:42:14:103,0.0146,-0.0365,9.4746,0.0017,0.0058,9.8066,-0.0053,0.0218,-0.0005,-9.18,28.4,-3.04,251.45,8.65,0.51
31804,51.522633,-2.627454,102,0.0,9,239.3,14 / 22,3180423,2019-08-16 13:42:14:203,0.0114,-0.0137,10.014,0.0011,0.0007,9.8067,0.0032,-0.0144,0.0037,-8.41,28.46,-4.38,251.45,8.65,0.51
31805,51.522633,-2.627454,102,0.0,9,239.3,14 / 22,3180523,2019-08-16 13:42:14:303,-0.0559,-0.0541,9.6041,-0.0013,0.0044,9.8066,0.0032,-0.0144,0.0037,-9.7,28.14,-3.72,249.37,8.67,0.53
31806,51.522633,-2.627454,102,0.0,9,239.3,14 / 22,3180623,2019-08-16 13:42:14:403,0.0534,0.106,9.8674,0.0018,0.0012,9.8066,0.0064,-0.0304,-0.0016,-9.56,27.72,-6.34,249.37,8.67,0.53
31807,51.522633,-2.627454,102,0.0,9,239.3,14 / 22,3180723,2019-08-16 13:42:14:503,0.1077,-0.0804,9.5062,0.0019,0.0035,9.8067,-0.0107,0.0303,0.0048,-9.56,27.72,-6.34,249.37,8.67,0.53
31808,51.522633,-2.627454,102,0.0,9,239.3,14 / 22,3180823,2019-08-16 13:42:14:603,-0.0009,0.2388,9.8274,0.0004,-0.0027,9.8067,0.0043,-0.0389,-0.0005,-8.4,28.31,-5.28,252.71,8.69,0.52
31809,51.522633,-2.627454,102,0.0,9,239.3,14 / 22,3180923,2019-08-16 13:42:14:703,-0.0109,0.294,10.3864,-0.0006,-0.001,9.8067,-0.0117,0.0591,0.0037,-9.78,27.75,-5.87,248.82,8.68,0.52
31810,51.522633,-2.627454,102,0.0,9,239.3,14 / 22,3181023,2019-08-16 13:42:14:803,0.0068,0.0243,9.5558,0.0009,0.0055,9.8066,0.0138,-0.0368,-0.0069,-9.78,27.75,-5.87,248.82,8.68,0.52
31811,51.522633,-2.627454,102,0.0,9,239.3,14 / 22,3181123,2019-08-16 13:42:14:903,-0.0745,0.2167,9.8572,0.0008,-0.0057,9.8066,0.0064,-0.0187,-0.0016,-8.7,28.21,-5.35,250.88,8.71,0.52
31812,51.522633,-2.627454,102,0.0,9,239.3,14 / 22,3181223,2019-08-16 13:42:15:003,-0.105,0.3273,10.1425,0.0002,-0.0054,9.8066,0.0064,-0.0187,-0.0016,-9.26,28.03,-5.32,250.88,8.71,0.52
31813,51.522633,-2.627454,102,0.0,9,239.3,14 / 22,3181323,2019-08-16 13:42:15:103,-0.0242,-0.0453,9.8356,0.0021,0.0033,9.8066,-0.0011,0.0431,0.0027,-9.13,28.22,-4.54,250.88,8.68,0.51
31814,51.522633,-2.627454,102,0.0,9,239.3,14 / 22,3181423,2019-08-16 13:42:15:203,-0.0826,-0.0603,9.6088,0.0025,0.0008,9.8067,0.0085,-0.0219,-0.0048,-9.55,28.19,-3.76,249.37,8.69,0.5
31815,51.522633,-2.627454,102,0.0,9,239.3,14 / 22,3181523,2019-08-16 13:42:15:303,-0.0461,0.1105,10.1136,0.0003,0.0033,9.8067,0.0021,0.0165,-0.0016,-9.55,28.19,-3.76,249.37,8.69,0.5
31816,51.522633,-2.627454,102,0.0,9,239.3,14 / 22,3181623,2019-08-16 13:42:15:403,0.0215,-0.1234,9.5734,-0.0014,-0.002,9.8067,-0.0128,0.0293,0.0059,-9.16,28.31,-3.84,251.16,8.71,0.5
31817,51.522633,-2.627454,102,0.0,9,239.3,14 / 22,3181723,2019-08-16 13:42:15:503,-0.0021,0.1012,9.7191,-0.0009,0.0044,9.8067,0.0043,-0.0187,-0.0005,-9.03,28.43,-3.19,251.44,8.73,0.52
31818,51.522633,-2.627454,102,0.0,9,239.3,14 / 22,3181823,2019-08-16 13:42:15:603,0.1177,-0.1442,9.9068,0.0009,-0.0027,9.8067,0.0011,0.0144,-0.0016,-9.34,28.16,-4.45,251.44,8.73,0.52
31819,51.522633,-2.627454,102,0.0,9,239.3,14 / 22,3181923,2019-08-16 13:42:15:703,0.1326,-0.1422,9.4629,0.0,0.0003,9.8067,-0.0096,0.041,0.0027,-9.34,28.16,-4.45,251.44,8.73,0.52
31820,51.522633,-2.627454,102,0.0,9,239.3,14 / 22,3182023,2019-08-16 13:42:15:803,0.0527,0.2887,10.0859,0.001,0.0008,9.8067,-0.0096,0.041,0.0027,-7.82,28.61,-4.52,253.26,8.73,0.52
31821,51.522633,-2.627454,102,0.0,9,239.3,14 / 22,3182123,2019-08-16 13:42:15:903,-0.0631,0.0125,9.7451,0.0005,-0.0027,9.8066,0.0,-0.008,0.0037,-8.13,28.6,-3.99,253.55,8.72,0.51
31822,51.522633,-2.627454,102,0.0,9,239.3,14 / 22,3182223,2019-08-16 13:42:16:003,-0.0717,0.0612,10.1515,0.0009,0.0057,9.8066,-0.0011,-0.0293,0.0027,-8.13,28.6,-3.99,253.55,8.72,0.51
31823,51.522633,-2.627454,102,0.0,9,239.3,14 / 22,3182323,2019-08-16 13:42:16:103,0.0227,-0.1424,9.4339,0.0003,-0.0012,9.8067,0.0117,-0.0133,-0.0059,-8.26,28.44,-4.78,252.7,8.75,0.52
31824,51.522633,-2.627454,102,0.0,9,239.3,14 / 22,3182423,2019-08-16 13:42:16:203,-0.0453,0.1186,9.7562,0.0012,0.0037,9.8067,-0.0053,0.0122,0.0059,-7.68,28.6,-4.8,253.26,8.76,0.53
31825,51.522633,-2.627454,102,0.0,9,239.3,14 / 22,3182524,2019-08-16 13:42:16:304,-0.0555,-0.1455,9.5608,0.0009,-0.0016,9.8067,0.0053,-0.0219,-0.0037,-8.26,28.44,-4.78,253.26,8.76,0.53
31826,51.522633,-2.627454,102,0.0,9,239.3,14 / 22,3182623,2019-08-16 13:42:16:403,0.0572,0.0495,10.1364,-0.0001,0.0042,9.8066,0.0,0.0378,-0.0016,-8.07,28.39,-5.38,252.7,8.75,0.52
31827,51.522633,-2.627454,102,0.0,9,239.3,14 / 22,3182723,2019-08-16 13:42:16:503,0.0467,-0.035,10.049,0.0017,0.0056,9.8066,-0.0117,0.0271,0.0069,-8.07,28.39,-5.38,252.7,8.75,0.52
31828,51.522633,-2.627454,102,0.0,9,239.3,14 / 22,3182823,2019-08-16 13:42:16:603,-0.0108,-0.1414,9.4545,-0.0001,-0.0052,9.8066,0.0011,-0.0006,0.0048,-7.87,28.78,-3.17,253.82,8.78,0.52
31829,51.522633,-2.627454,102,0.0,9,239.3,14 / 22,3182925,2019-08-16 13:42:16:705,-0.1548,0.1443,9.969,0.0002,0.0036,9.8066,0.0011,-0.0006,0.0048,-8.15,28.68,-3.28,253.83,8.75,0.51
31830,51.522633,-2.627454,102,0.0,9,239.3,14 / 22,3183023,2019-08-16 13:42:16:803,0.0027,-0.0996,9.9101,0.0019,0.0021,9.8067,0.0064,-0.0496,-0.0016,-8.07,28.41,-5.28,252.7,8.77,0.5
31831,51.522633,-2.627454,102,0.0,9,239.3,14 / 22,3183124,2019-08-16 13:42:16:904,0.0096,-0.0628,9.6623,0.0003,0.0008,9.8067,-0.0096,0.0293,0.0059,-7.68,28.6,-4.8,252.7,8.77,0.5
31832,51.522633,-2.627454,102,0.0,9,239.3,14 / 22,3183223,2019-08-16 13:42:17:003,0.0061,0.0679,9.994,0.0024,0.0073,9.8066,-0.0021,0.0208,0.0027,-6.95,28.8,-4.73,255.07,8.81,0.5
31833,51.522633,-2.627454,102,0.0,9,239.3,14 / 22,3183323,2019-08-16 13:42:17:103,0.0931,-0.1194,9.3989,-0.0015,-0.0031,9.8066,0.0064,-0.0357,0.0005,-6.95,28.8,-4.73,255.07,8.81,0.5
31834,51.522633,-2.627454,102,0.0,9,239.3,14 / 22,3183423,2019-08-16 13:42:17:203,-0.0277,0.085,10.1578,0.0007,0.0023,9.8067,0.0043,-0.0208,-0.0027,-8.0,28.5,-4.9,252.7,8.79,0.51
31835,51.522633,-2.627454,102,0.0,9,239.3,14 / 22,3183523,2019-08-16 13:42:17:303,0.0347,0.1655,9.748,0.0002,-0.0016,9.8067,-0.0032,0.0378,0.0027,-7.84,28.56,-4.8,253.26,8.78,0.5
31836,51.522633,-2.627454,102,0.0,9,239.3,14 / 22,3183623,2019-08-16 13:42:17:403,0.0927,0.0139,9.9514,-0.0014,0.0046,9.8067,-0.0043,-0.0155,0.0037,-7.84,28.56,-4.8,253.26,8.78,0.5
31837,51.522633,-2.627454,102,0.0,9,239.3,14 / 22,3183723,2019-08-16 13:42:17:503,-0.0308,0.099,9.7873,0.0001,-0.0039,9.8066,-0.0043,-0.0155,0.0037,-7.54,28.58,-5.14,253.25,8.81,0.52
31838,51.522636,-2.627452,101,0.0,9,239.3,14 / 22,3183823,2019-08-16 13:42:17:603,-0.0833,0.3118,10.2024,-0.0007,-0.004,9.8066,-0.0096,0.0186,-0.0016,-7.96,28.37,-5.63,252.41,8.78,0.52
31839,51.522636,-2.627452,101,0.0,9,239.3,14 / 22,3183923,2019-08-16 13:42:17:703,0.0098,-0.1289,9.6281,0.0023,0.0061,9.8066,0.0,-0.0069,0.0048,-7.96,28.37,-5.63,252.41,8.78,0.52
31840,51.522636,-2.627452,101,0.0,9,239.3,14 / 22,3184023,2019-08-16 13:42:17:803,-0.0705,0.0348,9.779,0.0026,0.0005,9.8067,0.0053,0.0293,-0.0027,-8.63,28.25,-5.25,250.87,8.79,0.5
31841,51.522636,-2.627452,101,0.0,9,239.3,14 / 22,3184123,2019-08-16 13:42:17:903,-0.0852,-0.0244,10.1147,-0.0011,0.0037,9.8066,-0.0011,-0.024,0.0005,-8.63,28.25,-5.25,250.87,8.79,0.5
31842,51.522636,-2.627452,101,0.0,9,239.3,14 / 22,3184222,2019-08-16 13:42:18:002,-0.0369,-0.0617,9.5528,-0.0021,-0.0006,9.8067,0.0074,-0.0336,-0.0016,-8.83,28.29,-4.65,250.87,8.81,0.52
31843,51.522636,-2.627452,101,0.0,9,239.3,14 / 22,3184323,2019-08-16 13:42:18:103,0.0099,0.1632,9.9804,0.0021,0.0067,9.8066,-0.0107,0.057,0.0037,-9.19,28.15,-4.84,250.87,8.8,0.53
31844,51.522636,-2.627452,101,0.0,9,239.3,14 / 22,3184423,2019-08-16 13:42:18:203,0.0589,-0.1801,9.393,0.0015,0.0032,9.8067,-0.0107,0.057,0.0037,-9.19,28.15,-4.84,250.87,8.8,0.53
31845,51.522636,-2.627452,101,0.0,9,239.3,14 / 22,3184523,2019-08-16 13:42:18:303,0.128,0.151,10.0972,-0.0026,-0.0006,9.8067,-0.0053,-0.0027,0.0037,-8.46,28.48,-4.15,252.98,8.82,0.52
31846,51.522636,-2.627452,101,0.0,9,239.3,14 / 22,3184623,2019-08-16 13:42:18:403,0.0095,-0.0062,9.7441,-0.0002,0.0,9.8067,0.0064,-0.0336,0.0005,-9.0,28.2,-4.84,250.86,8.82,0.53
31847,51.522636,-2.627452,101,0.0,9,239.3,14 / 22,3184723,2019-08-16 13:42:18:503,0.0759,-0.0429,9.9533,-0.0005,-0.0034,9.8067,0.0128,-0.0304,-0.0059,-9.01,28.22,-4.74,250.86,8.82,0.53
31848,51.522636,-2.627452,101,0.0,9,239.3,14 / 22,3184823,2019-08-16 13:42:18:603,0.0257,-0.0231,9.6671,-0.0006,0.0021,9.8067,-0.0096,0.0239,0.0005,-9.01,28.22,-4.74,250.86,8.82,0.53
31849,51.522636,-2.627452,101,0.0,9,239.3,14 / 22,3184923,2019-08-16 13:42:18:703,0.1207,0.067,10.1579,0.003,0.0028,9.8066,0.0,-0.0048,0.0027,-8.63,28.42,-4.23,251.15,8.83,0.53
31850,51.522636,-2.627452,101,0.0,9,239.3,14 / 22,3185023,2019-08-16 13:42:18:803,0.1206,-0.127,9.7617,0.0027,0.0022,9.8067,0.0138,-0.0453,-0.0037,-8.17,28.43,-5.0,251.15,8.83,0.53
31851,51.522636,-2.627452,101,0.0,9,239.3,14 / 22,3185123,2019-08-16 13:42:18:903,0.1163,-0.0362,9.4582,0.0007,0.0003,9.8067,-0.0117,0.0367,0.0059,-8.6,28.33,-4.87,250.86,8.83,0.53
31852,51.522636,-2.627452,101,0.0,9,239.3,14 / 22,3185223,2019-08-16 13:42:19:003,0.0725,0.3235,10.0581,-0.0007,-0.0005,9.8067,-0.0032,0.0282,0.0048,-8.6,28.33,-4.87,250.86,8.83,0.53
31853,51.522636,-2.627452,101,0.0,9,239.3,14 / 22,3185323,2019-08-16 13:42:19:103,0.1593,-0.029,9.8006,0.0019,-0.0014,9.8066,-0.0032,0.0282,0.0048,-8.43,28.39,-4.77,252.69,8.83,0.53
31854,51.522636,-2.627452,101,0.0,9,239.3,14 / 22,3185423,2019-08-16 13:42:19:203,-0.0034,0.0329,9.7214,0.0024,0.0068,9.8066,0.0117,-0.0091,-0.0048,-9.89,28.06,-3.89,249.36,8.83,0.52
31855,51.522636,-2.627452,101,0.0,9,239.3,14 / 22,3185523,2019-08-16 13:42:19:303,0.1141,-0.0125,9.6706,0.001,0.0038,9.8066,-0.0085,0.0239,0.0016,-9.55,28.25,-3.27,249.36,8.83,0.52
31856,51.522636,-2.627452,101,0.0,9,239.3,14 / 22,3185623,2019-08-16 13:42:19:403,-0.0014,0.0974,9.7905,-0.0007,0.0048,9.8066,0.0011,0.0303,0.0027,-9.04,28.32,-4.02,251.15,8.85,0.53
31857,51.522636,-2.627452,101,0.0,9,239.3,14 / 22,3185723,2019-08-16 13:42:19:503,-0.0118,-0.0043,10.2074,0.0011,0.0039,9.8067,0.0128,-0.0229,-0.0059,-9.04,28.32,-4.02,251.15,8.85,0.53
31858,51.522636,-2.627452,101,0.0,9,239.3,14 / 22,3185823,2019-08-16 13:42:19:603,-0.1141,0.1334,9.9105,-0.0008,-0.0042,9.8066,-0.0053,0.0058,0.0005,-9.01,28.22,-4.74,250.86,8.88,0.53
31859,51.522636,-2.627452,101,0.0,9,239.3,14 / 22,3185924,2019-08-16 13:42:19:704,-0.0106,-0.0528,9.5977,-0.0008,-0.0006,9.8067,0.0021,0.0378,0.0016,-8.63,28.25,-5.25,250.86,8.88,0.53
31860,51.522636,-2.627452,101,0.0,9,239.3,14 / 22,3186023,2019-08-16 13:42:19:803,-0.0296,0.2025,10.0573,-0.0002,-0.0021,9.8067,0.0128,-0.0368,-0.0016,-8.93,27.97,-6.16,250.57,8.86,0.53
31861,51.522636,-2.627452,101,0.0,9,239.3,14 / 22,3186124,2019-08-16 13:42:19:904,0.0582,-0.1289,9.7089,0.0019,-0.0016,9.8067,-0.0011,-0.0048,-0.0005,-8.78,28.25,-4.97,250.86,8.86,0.51
31862,51.522636,-2.627452,101,0.0,9,239.3,14 / 22,3186223,2019-08-16 13:42:20:003,-0.0998,0.0384,9.7624,0.0003,0.0055,9.8067,-0.0011,-0.0048,-0.0005,-8.78,28.25,-4.97,250.86,8.86,0.51
31863,51.522636,-2.627452,101,0.0,9,239.3,14 / 22,3186323,2019-08-16 13:42:20:103,0.0217,0.0637,10.1266,0.0005,0.0013,9.8067,-0.0053,0.0207,0.0037,-8.74,28.12,-5.71,250.86,8.86,0.51
31864,51.522636,-2.627452,101,0.0,9,239.3,14 / 22,3186423,2019-08-16 13:42:20:203,0.0748,-0.1594,9.4955,0.0004,0.0035,9.8067,0.0085,-0.0368,-0.0005,-7.96,28.37,-5.63,252.39,8.87,0.51
31865,51.522636,-2.627452,101,0.0,9,239.3,14 / 22,3186523,2019-08-16 13:42:20:303,0.0341,-0.1108,10.0238,-0.0001,-0.0008,9.8067,-0.0021,-0.0187,-0.0005,-9.01,28.22,-4.74,250.86,8.89,0.52
31866,51.522636,-2.627452,101,0.0,9,239.3,14 / 22,3186623,2019-08-16 13:42:20:403,0.0872,0.3444,9.906,-0.0021,-0.0042,9.8066,-0.0021,0.0399,0.0059,-8.97,28.1,-5.45,250.86,8.86,0.52
31867,51.522636,-2.627452,101,0.0,9,239.3,14 / 22,3186723,2019-08-16 13:42:20:503,0.0931,-0.0497,9.8549,0.002,0.0053,9.8066,0.016,-0.0368,-0.0059,-8.97,28.1,-5.45,250.86,8.86,0.52
31868,51.522636,-2.627452,101,0.0,9,239.3,14 / 22,3186823,2019-08-16 13:42:20:603,-0.0082,-0.0204,9.6336,-0.0001,-0.003,9.8067,-0.0021,0.0122,-0.0016,-8.26,28.46,-4.68,252.68,8.89,0.52
31869,51.522636,-2.627452,101,0.0,9,239.3,14 / 22,3186923,2019-08-16 13:42:20:703,0.0224,0.2241,10.1018,-0.0022,-0.0038,9.8067,-0.0032,0.0463,0.0027,-9.52,28.17,-4.0,249.35,8.87,0.53
31870,51.522636,-2.627452,101,0.0,9,239.3,14 / 22,3187023,2019-08-16 13:42:20:803,-0.0455,0.0888,9.8372,0.0034,0.0022,9.8066,-0.0032,0.0463,0.0027,-9.52,28.17,-4.0,249.35,8.87,0.53
31871,51.522636,-2.627452,101,0.0,9,239.3,14 / 22,3187123,2019-08-16 13:42:20:903,-0.1206,0.1245,9.9868,-0.0003,0.0058,9.8066,-0.0075,0.0058,0.008,-8.83,28.29,-4.65,250.86,8.87,0.51
31872,51.522636,-2.627452,101,0.0,9,239.3,14 / 22,3187222,2019-08-16 13:42:21:002,-0.09,0.2119,9.8605,0.0012,0.0014,9.8067,0.0032,-0.0069,-0.0016,-8.74,28.32,-4.65,250.85,8.9,0.53
31873,51.522636,-2.627452,101,0.0,9,239.3,14 / 22,3187323,2019-08-16 13:42:21:103,-0.0019,0.0546,9.6592,-0.0002,-0.0022,9.8066,-0.0043,0.0207,0.0027,-8.74,28.32,-4.65,250.85,8.9,0.53
31874,51.522636,-2.627452,101,0.0,9,239.3,14 / 22,3187423,2019-08-16 13:42:21:203,-0.0753,0.2024,9.8944,-0.0012,-0.0001,9.8067,0.0106,-0.008,-0.0048,-8.36,28.16,-6.1,252.39,8.89,0.52
31875,51.522636,-2.627452,101,0.0,9,239.3,14 / 22,3187523,2019-08-16 13:42:21:303,-0.0287,-0.0851,9.9141,0.0,0.0007,9.8067,-0.0096,0.0207,0.0016,-8.57,28.22,-5.49,250.86,8.89,0.52
31876,51.522636,-2.627452,101,0.0,9,239.3,14 / 22,3187623,2019-08-16 13:42:21:403,-0.1152,-0.0998,9.7274,0.0009,0.0029,9.8067,0.0,0.0271,0.0005,-8.57,28.22,-5.49,250.86,8.89,0.52
31877,51.522636,-2.627452,101,0.0,9,239.3,14 / 22,3187723,2019-08-16 13:42:21:503,-0.0847,0.0925,10.0597,-0.001,0.0008,9.8066,-0.0011,-0.0155,0.0048,-8.65,27.84,-7.07,250.28,8.91,0.52
31878,51.522636,-2.627452,101,0.0,9,239.3,14 / 22,3187823,2019-08-16 13:42:21:603,-0.017,-0.0131,9.5794,0.0011,-0.0035,9.8066,-0.0011,-0.0155,0.0048,-8.52,28.06,-6.32,250.28,8.91,0.52
31879,51.522636,-2.627452,101,0.0,9,239.3,14 / 22,3187923,2019-08-16 13:42:21:703,0.1033,-0.0498,9.5989,-0.0016,0.0016,9.8066,-0.0085,0.0239,0.0005,-8.32,28.01,-6.79,252.1,8.89,0.51
31880,51.522636,-2.627452,101,0.0,9,239.3,14 / 22,3188023,2019-08-16 13:42:21:803,0.0023,0.1195,9.8033,0.001,0.0064,9.8066,0.0011,0.0399,0.0005,-8.6,28.48,-3.87,252.1,8.89,0.51
31881,51.522636,-2.627452,101,0.0,9,239.3,14 / 22,3188122,2019-08-16 13:42:21:902,0.0218,-0.2494,9.373,0.0019,0.0066,9.8066,0.0106,-0.0464,-0.0037,-9.7,28.13,-3.82,249.35,8.93,0.51
31882,51.522636,-2.627452,101,0.0,9,239.3,14 / 22,3188223,2019-08-16 13:42:22:003,-0.0253,0.0151,10.1905,-0.0006,-0.002,9.8067,-0.0117,0.0378,0.0048,-9.7,28.13,-3.82,249.35,8.93,0.51
31883,51.522636,-2.627452,101,0.0,9,239.3,14 / 22,3188323,2019-08-16 13:42:22:103,-0.0279,-0.1688,9.4939,-0.0019,-0.0031,9.8066,0.0032,-0.04,-0.0005,-8.89,28.47,-3.22,251.43,8.92,0.51
31884,51.522636,-2.627452,101,0.0,9,239.3,14 / 22,3188423,2019-08-16 13:42:22:203,-0.0921,0.0278,9.9013,-0.0007,-0.0013,9.8066,0.0032,-0.04,-0.0005,-8.74,28.32,-4.65,250.85,8.91,0.51
31885,51.522636,-2.627452,101,0.0,9,239.3,14 / 22,3188523,2019-08-16 13:42:22:303,0.1428,-0.2537,9.6584,0.0024,-0.0042,9.8067,-0.0107,0.0538,0.0037,-8.67,28.1,-5.95,250.85,8.91,0.51
31886,51.522636,-2.627452,101,0.0,9,239.3,14 / 22,3188623,2019-08-16 13:42:22:403,0.0146,0.1598,10.1783,0.0028,0.0035,9.8067,-0.0075,0.0165,0.0048,-8.67,28.1,-5.95,250.85,8.91,0.51
31887,51.522636,-2.627452,101,0.0,9,239.3,14 / 22,3188723,2019-08-16 13:42:22:503,0.1171,-0.0243,9.5959,-0.0013,-0.0047,9.8066,-0.0032,-0.0229,0.0016,-8.4,28.29,-5.39,252.68,8.93,0.5
31888,51.522636,-2.627452,101,0.0,9,239.3,14 / 22,3188822,2019-08-16 13:42:22:602,0.0172,0.1172,9.8074,-0.0001,0.0045,9.8067,0.0181,-0.0357,-0.0059,-8.53,28.08,-6.22,250.57,8.91,0.5
31889,51.522636,-2.627452,101,0.0,9,239.3,14 / 22,3188923,2019-08-16 13:42:22:703,0.0182,-0.0964,10.0333,-0.0004,0.0026,9.8067,0.0,0.0058,-0.0027,-8.53,28.08,-6.22,250.57,8.91,0.5
31890,51.522636,-2.627452,101,0.0,9,239.3,14 / 22,3189023,2019-08-16 13:42:22:803,-0.0327,-0.041,9.6265,-0.0021,0.0009,9.8066,0.0011,0.0421,0.0016,-8.71,28.22,-5.25,250.85,8.92,0.51
31891,51.522636,-2.627452,101,0.0,9,239.3,14 / 22,3189123,2019-08-16 13:42:22:903,-0.034,0.2251,10.1589,-0.0006,0.0047,9.8066,0.0074,-0.0336,-0.0027,-8.71,28.22,-5.25,250.85,8.94,0.52
31892,51.522636,-2.627452,101,0.0,9,239.3,14 / 22,3189224,2019-08-16 13:42:23:004,0.0123,-0.0889,9.7714,0.0001,-0.006,9.8066,0.0,-0.0101,-0.0037,-8.74,28.33,-4.55,250.86,8.91,0.51
31893,51.522636,-2.627452,101,0.0,9,239.3,14 / 22,3189323,2019-08-16 13:42:23:103,-0.0492,-0.1182,9.6303,-0.001,0.0014,9.8066,0.0,-0.0101,-0.0037,-8.74,28.33,-4.55,250.86,8.91,0.51
31894,51.522636,-2.627452,101,0.0,9,239.3,14 / 22,3189422,2019-08-16 13:42:23:202,-0.0024,-0.0001,9.9484,0.0001,0.0038,9.8066,-0.0043,0.0239,0.0037,-9.27,28.05,-5.22,250.85,8.93,0.52
31895,51.522636,-2.627452,101,0.0,9,239.3,14 / 22,3189523,2019-08-16 13:42:23:303,-0.0037,0.256,9.9129,0.0019,0.0048,9.8066,-0.0011,-0.0229,0.0027,-9.45,27.97,-5.32,250.85,8.92,0.51
31896,51.522636,-2.627452,101,0.0,9,239.3,14 / 22,3189623,2019-08-16 13:42:23:403,0.0551,-0.0731,9.965,0.0024,0.0004,9.8067,0.0,-0.0027,-0.0016,-8.71,28.22,-5.25,250.85,8.92,0.51
31897,51.522636,-2.627452,101,0.0,9,239.3,14 / 22,3189723,2019-08-16 13:42:23:503,-0.0235,-0.1003,9.5607,0.0014,0.0022,9.8066,-0.0171,0.0271,0.0059,-8.71,28.22,-5.25,250.85,8.92,0.51
31898,51.522636,-2.627452,101,0.0,9,239.3,14 / 22,3189823,2019-08-16 13:42:23:603,0.0456,0.0543,10.0111,0.0002,0.0056,9.8067,0.0149,-0.0229,-0.0037,-8.84,28.02,-6.06,250.56,8.94,0.51
31899,51.522636,-2.627452,101,0.0,9,239.3,14 / 22,3189923,2019-08-16 13:42:23:703,-0.0453,0.002,9.6803,-0.0004,-0.005,9.8067,-0.0117,0.0293,0.0059,-9.24,27.99,-5.58,250.56,8.97,0.52
31900,51.522636,-2.627452,101,0.0,9,239.3,14 / 22,3190023,2019-08-16 13:42:23:803,-0.015,0.1489,10.0715,-0.0016,-0.0036,9.8067,-0.0032,-0.0144,0.0016,-8.4,28.29,-5.39,252.67,8.95,0.52
31901,51.522636,-2.627452,101,0.0,9,239.3,14 / 22,3190123,2019-08-16 13:42:23:903,0.0501,-0.1459,9.64,-0.0002,-0.0008,9.8067,-0.0032,-0.0144,0.0016,-8.4,28.29,-5.39,252.67,8.95,0.52
31902,51.522636,-2.627452,101,0.0,9,239.3,14 / 22,3190223,2019-08-16 13:42:24:003,-0.1393,0.1524,9.8373,-0.0018,-0.0044,9.8066,0.0075,0.025,-0.0005,-8.43,28.41,-4.67,252.67,8.95,0.52
31903,51.522636,-2.627452,101,0.0,9,239.3,14 / 22,3190323,2019-08-16 13:42:24:103,-0.011,-0.0615,9.5367,-0.0002,0.001,9.8067,-0.0139,0.0357,0.0027,-8.43,28.41,-4.67,252.67,8.95,0.53
31904,51.522636,-2.627452,101,0.0,9,239.3,14 / 22,3190423,2019-08-16 13:42:24:203,-0.0185,0.042,9.8505,0.0011,-0.0033,9.8067,-0.0011,0.0197,0.0016,-9.31,28.16,-4.52,250.85,8.93,0.51
31905,51.522636,-2.627452,101,0.0,9,239.3,14 / 22,3190522,2019-08-16 13:42:24:302,0.144,-0.2669,9.7075,-0.0001,0.0008,9.8067,0.0053,-0.0474,0.0005,-9.31,28.16,-4.52,250.85,8.93,0.51
31906,51.522636,-2.627452,101,0.0,9,239.3,14 / 22,3190623,2019-08-16 13:42:24:403,0.059,-0.1059,9.5708,0.0004,-0.0008,9.8066,-0.0107,0.0346,0.0027,-8.79,28.5,-3.23,251.43,8.94,0.52
