,GPS LATITUDE (degrees), GPS LONGITUDE (degrees), GPS ALTITUDE (m), GPS SPEED (Kmh), GPS ACCURACY (m), GPS ORIENTATION (Â°),GPS SATELLITES IN RANGE, TIME SINCE START (ms), DATE (YYYY-MO-DD HH-MI-SS_SSS), ACCELEROMETER X (m/s²) , ACCELEROMETER Y (m/s²), ACCELEROMETER Z (m/s²), GRAVITY X (m/s²), GRAVITY Y (m/s²), GRAVITY Z (m/s²), GYROSCOPE Yaw (rad/s), GYROSCOPE Pitch (rad/s), GYROSCOPE Roll (rad/s), MAGNETIC FIELD X (Î¼T), MAGNETIC FIELD Y (Î¼T), MAGNETIC FIELD Z (Î¼T), ORIENTATION (Yaw) (Â°), ORIENTATION (Pitch) (Â°), ORIENTATION (Roll ) (Â°)
0,52.404877,-1.500284,166.93,3.09,3,149.05,17 / 18,31321,2019-09-04 19:21:51:494,-0.1024,-0.1738,9.4654,0.0004,-0.0171,9.8065,0.0394,-0.0128,0.0025,-14.0,-27.75,19.56,93.89,-85.78,-55.95
1,52.404877,-1.500284,166.93,3.09,3,149.05,17 / 18,31421,2019-09-04 19:21:51:594,0.9414,0.0092,9.8911,-0.0067,-0.0158,9.8065,0.013,0.0098,0.0799,-14.19,-28.12,19.56,90.23,-85.77,-59.64
2,52.404877,-1.500284,166.93,3.09,3,149.05,17 / 18,31521,2019-09-04 19:21:51:694,-0.271,-0.2862,9.9067,-0.0001,-0.0187,9.8066,0.0367,-0.0068,0.0036,-14.12,-27.81,19.88,87.47,-85.55,-62.66
3,52.404877,-1.500284,166.93,3.09,3,149.05,17 / 18,31620,2019-09-04 19:21:51:793,-0.3615,-0.369,10.0899,0.0091,-0.0196,9.8066,0.0549,0.0164,0.0044,-14.56,-27.5,20.75,83.83,-85.56,-65.28
4,52.404877,-1.500284,166.93,3.09,3,149.05,17 / 18,31721,2019-09-04 19:21:51:894,0.2582,-0.3386,9.58,0.0011,-0.0152,9.8066,0.0251,0.0001,0.0222,-14.62,-27.69,20.94,78.78,-85.69,-70.32
5,52.404877,-1.500284,166.93,3.09,3,149.05,17 / 18,31821,2019-09-04 19:21:51:994,0.0198,-0.1429,9.7369,-0.0019,-0.0059,9.8066,-0.0093,-0.0176,-0.005,-15.37,-27.87,20.81,76.29,-85.62,-72.84
6,52.404877,-1.500284,166.93,3.09,3,149.05,17 / 18,31920,2019-09-04 19:21:52:093,-0.229,0.3322,10.5569,-0.0003,-0.0073,9.8066,0.0238,-0.0166,0.0053,-14.69,-27.37,21.5,77.29,-85.61,-72.81
7,52.404877,-1.500284,166.93,3.09,3,149.05,17 / 18,32021,2019-09-04 19:21:52:194,0.0646,0.3206,9.9508,-0.0006,-0.0129,9.8066,0.0278,-0.0072,0.0191,-14.5,-26.75,22.0,76.81,-85.55,-75.26
8,52.404877,-1.500284,166.93,3.09,3,149.05,17 / 18,32120,2019-09-04 19:21:52:293,-0.3026,-0.0967,10.3803,-0.0073,-0.0083,9.8066,0.0009,-0.0094,0.0039,-15.06,-27.44,22.06,72.46,-85.44,-77.73
9,52.404877,-1.500284,166.93,3.09,3,149.05,17 / 18,32222,2019-09-04 19:21:52:395,-0.3783,0.3385,9.6944,0.0025,0.0035,9.8066,-0.0127,-0.0036,0.0,-15.62,-27.5,21.63,70.16,-85.38,-78.2
10,52.404877,-1.500284,166.93,3.09,3,149.05,17 / 18,32321,2019-09-04 19:21:52:494,-0.5634,1.6198,9.4449,0.0035,0.0103,9.8066,-0.0248,-0.0075,0.0,-14.81,-27.75,22.06,73.46,-85.43,-76.92
11,52.404877,-1.500284,166.93,3.09,3,149.05,17 / 18,32420,2019-09-04 19:21:52:593,-0.569,1.5243,10.0184,-0.0045,-0.0006,9.8066,0.0028,-0.019,0.0103,-14.56,-27.87,21.69,74.69,-85.42,-75.73
12,52.404877,-1.500284,166.93,3.09,3,149.05,17 / 18,32521,2019-09-04 19:21:52:694,-0.5805,1.2232,9.927,-0.0015,-0.0089,9.8066,0.0189,-0.0284,-0.0061,-15.06,-27.62,22.0,73.79,-85.39,-76.65
13,52.404877,-1.500284,166.93,3.09,3,149.05,17 / 18,32621,2019-09-04 19:21:52:794,-0.7564,1.033,10.1886,-0.0089,-0.0054,9.8066,-0.0025,-0.0082,0.0083,-15.25,-27.19,21.94,72.4,-85.27,-77.96
14,52.404877,-1.500284,166.93,3.09,3,149.05,17 / 18,32721,2019-09-04 19:21:52:894,-0.5578,1.0224,9.887,-0.0054,0.005,9.8066,-0.0224,-0.0084,0.0013,-15.44,-28.25,22.13,72.7,-85.24,-77.86
15,52.404877,-1.500284,166.93,3.09,3,149.05,17 / 18,32821,2019-09-04 19:21:52:994,-0.523,1.2499,9.8092,0.0008,0.0037,9.8066,-0.0118,0.0059,0.0043,-15.06,-28.56,21.25,72.72,-85.21,-76.96
16,52.404877,-1.500284,166.93,3.09,3,149.05,17 / 18,32920,2019-09-04 19:21:53:093,-0.4928,1.1655,9.9117,0.006,0.0004,9.8066,0.0081,0.0029,-0.0125,-15.0,-27.69,21.38,72.91,-85.24,-76.56
17,52.404877,-1.500284,166.93,3.09,3,149.05,17 / 18,33021,2019-09-04 19:21:53:194,-0.3825,0.7642,9.8633,0.0015,-0.0008,9.8066,0.0175,-0.018,-0.0196,-14.69,-27.94,21.19,72.41,-85.29,-76.99
18,52.404877,-1.500284,166.93,3.09,3,149.05,17 / 18,33120,2019-09-04 19:21:53:293,-0.2976,0.7517,10.1347,0.0003,-0.0055,9.8066,0.0025,0.004,0.0002,-14.75,-27.94,21.19,71.61,-85.32,-77.74
19,52.404877,-1.500284,166.93,3.09,3,149.05,17 / 18,33220,2019-09-04 19:21:53:393,-0.2696,0.7362,9.9777,0.0032,-0.0034,9.8066,0.0042,0.0015,-0.0031,-15.5,-27.62,21.69,72.04,-85.32,-78.42
20,52.404877,-1.500284,166.93,3.09,3,149.05,17 / 18,33320,2019-09-04 19:21:53:493,-0.3335,1.0268,9.8276,0.0,-0.0077,9.8066,0.0146,-0.001,0.0025,-15.44,-28.81,21.94,71.25,-85.28,-79.4
21,52.404877,-1.500284,166.93,3.09,3,149.05,17 / 18,33421,2019-09-04 19:21:53:594,-0.2226,0.9011,9.7727,-0.0021,-0.0069,9.8066,0.0032,-0.0054,-0.0138,-15.19,-28.62,22.0,70.32,-85.24,-80.36
22,52.404877,-1.500284,166.93,3.09,3,149.05,17 / 18,33520,2019-09-04 19:21:53:693,-0.3706,0.9239,9.9415,-0.0024,-0.0026,9.8066,0.0043,-0.0093,-0.0089,-14.75,-29.12,21.56,69.66,-85.21,-81.02
23,52.404877,-1.500284,166.93,3.09,3,149.05,17 / 18,33620,2019-09-04 19:21:53:793,-0.4226,0.7789,9.9626,0.0007,-0.0039,9.8066,0.0198,-0.0072,-0.0223,-14.87,-28.69,22.0,69.11,-85.22,-81.56
24,52.404877,-1.500284,166.93,3.09,3,149.05,17 / 18,33721,2019-09-04 19:21:53:894,-0.3567,0.6492,10.1702,0.0063,-0.0071,9.8065,0.0211,0.0048,-0.0133,-14.69,-29.12,21.63,68.13,-85.23,-82.49
25,52.404877,-1.500284,166.93,3.09,3,149.05,17 / 18,33820,2019-09-04 19:21:53:993,0.0859,0.6738,9.7136,0.0043,-0.0081,9.8066,0.0145,0.0078,0.0012,-14.5,-28.5,21.38,66.75,-85.28,-84.46
26,52.404877,-1.500284,166.93,3.09,3,149.05,17 / 18,33921,2019-09-04 19:21:54:094,-0.2411,0.7439,9.9822,-0.0012,-0.0012,9.8066,-0.0064,0.0404,0.0112,-14.62,-28.56,22.13,65.07,-85.22,-85.45
27,52.404877,-1.500284,166.93,3.09,3,149.05,17 / 18,34020,2019-09-04 19:21:54:193,-0.3281,0.9295,9.9195,-0.0025,0.0006,9.8066,0.0047,0.0319,0.005,-15.19,-28.31,22.5,66.21,-85.21,-85.24
28,52.404877,-1.500284,166.93,3.09,3,149.05,17 / 18,34120,2019-09-04 19:21:54:293,-0.4193,0.6787,9.8294,0.0007,-0.004,9.8066,0.0137,0.0341,0.002,-15.87,-28.25,22.88,63.93,-85.17,-85.67
29,52.404877,-1.500284,166.93,3.09,3,149.05,17 / 18,34221,2019-09-04 19:21:54:394,-0.1754,0.9391,9.641,0.006,-0.0007,9.8066,0.0167,0.0399,-0.0206,-15.87,-28.19,23.13,63.03,-85.2,-86.51
30,52.404877,-1.500284,166.93,3.09,3,149.05,17 / 18,34320,2019-09-04 19:21:54:493,-0.2299,1.2315,10.0474,0.0059,0.002,9.8066,0.0102,0.0416,-0.0364,-15.87,-28.06,23.44,62.4,-85.27,-87.06
31,52.404877,-1.500284,166.93,3.09,3,149.05,17 / 18,34421,2019-09-04 19:21:54:594,0.0543,1.2362,9.443,0.0046,0.0053,9.8066,0.002,0.0582,-0.0296,-16.12,-28.25,23.13,62.18,-85.4,-87.15
32,52.404877,-1.500284,166.93,3.09,3,149.05,17 / 18,34520,2019-09-04 19:21:54:693,0.2383,0.8494,9.684,-0.0046,0.0033,9.8066,-0.0116,0.0668,-0.0127,-16.12,-26.62,23.38,62.79,-85.44,-86.37
33,52.404877,-1.500284,166.93,3.09,3,149.05,17 / 18,34621,2019-09-04 19:21:54:794,-0.0932,0.8193,10.1583,-0.0087,0.005,9.8066,-0.0008,0.1024,-0.0114,-15.87,-27.81,23.31,64.29,-85.41,-85.1
34,52.404877,-1.500284,166.93,3.09,3,149.05,17 / 18,34721,2019-09-04 19:21:54:894,-0.2327,0.5098,9.9883,0.0027,0.001,9.8066,0.0136,0.1194,-0.0168,-15.81,-28.56,22.06,64.22,-85.41,-84.25
35,52.404877,-1.500284,166.93,3.09,3,149.05,17 / 18,34820,2019-09-04 19:21:54:993,0.2841,0.2255,9.5496,-0.0038,0.0021,9.8066,-0.0047,0.1114,0.0042,-15.19,-28.19,21.94,65.74,-85.46,-84.4
36,52.404877,-1.500284,166.93,3.09,3,149.05,17 / 18,34921,2019-09-04 19:21:55:094,0.1739,0.2087,9.3763,-0.0105,0.0077,9.8066,-0.0286,0.1108,-0.004,-15.81,-28.12,21.19,63.47,-85.42,-83.65
37,52.404877,-1.500284,166.93,3.09,3,149.05,17 / 18,35021,2019-09-04 19:21:55:194,0.0964,0.3188,9.7633,-0.0103,0.0224,9.8066,-0.0528,0.1367,-0.0188,-16.0,-27.87,20.88,67.1,-85.37,-80.2
38,52.404877,-1.500284,166.93,3.09,3,149.05,17 / 18,35121,2019-09-04 19:21:55:294,0.2,0.282,9.6674,-0.0102,0.0246,9.8065,-0.0572,0.1246,-0.0196,-16.5,-27.87,20.0,71.57,-85.35,-74.66
39,52.404877,-1.500284,166.93,3.09,3,149.05,17 / 18,35221,2019-09-04 19:21:55:394,0.084,0.3735,9.8801,-0.0093,0.0242,9.8065,-0.0519,0.1365,-0.0094,-16.44,-27.87,20.63,76.65,-85.32,-70.94
40,52.404877,-1.500284,166.93,3.09,3,149.05,17 / 18,35320,2019-09-04 19:21:55:493,0.0128,0.7436,10.0692,-0.0095,0.0227,9.8066,-0.0454,0.1408,-0.0051,-16.75,-27.75,20.63,80.14,-85.24,-65.77
41,52.404877,-1.500284,166.93,3.09,3,149.05,17 / 18,35420,2019-09-04 19:21:55:593,-0.2429,0.7833,10.1288,-0.0076,0.0184,9.8066,-0.0317,0.1694,0.0193,-17.0,-28.5,20.44,81.85,-85.17,-62.93
42,52.404877,-1.500284,166.93,3.09,3,149.05,17 / 18,35521,2019-09-04 19:21:55:694,-0.2895,0.8128,9.9071,-0.0098,0.011,9.8065,-0.0243,0.1448,0.0168,-17.44,-28.62,20.38,84.19,-85.13,-60.84
43,52.404877,-1.500284,166.93,3.09,3,149.05,17 / 18,35620,2019-09-04 19:21:55:793,-0.4557,0.8545,9.7917,-0.0115,0.0109,9.8066,-0.0369,0.1334,0.0248,-17.37,-28.19,19.63,86.43,-84.96,-58.61
44,52.404877,-1.500284,166.93,3.09,3,149.05,17 / 18,35721,2019-09-04 19:21:55:894,-0.7157,0.8772,9.8833,-0.014,0.0141,9.8066,-0.0371,0.1356,0.0097,-17.94,-28.81,19.13,86.38,-84.75,-56.01
45,52.404877,-1.500284,166.93,3.09,3,149.05,17 / 18,35820,2019-09-04 19:21:55:993,-0.7874,0.8804,10.0578,-0.0116,0.0133,9.8065,-0.0316,0.1226,0.0166,-17.87,-28.87,18.63,88.35,-84.61,-54.2
46,52.404877,-1.500284,166.93,3.09,3,149.05,17 / 18,35921,2019-09-04 19:21:56:094,-0.4625,0.4414,10.1497,-0.0067,0.0103,9.8065,-0.0182,0.1062,0.0046,-18.0,-29.06,18.31,89.12,-84.45,-52.24
47,52.404877,-1.500284,166.93,3.09,3,149.05,17 / 18,36020,2019-09-04 19:21:56:193,0.1999,0.0163,10.0678,-0.0005,0.0091,9.8066,-0.0091,0.1202,0.0022,-18.0,-29.37,18.56,91.62,-84.43,-51.12
48,52.404877,-1.500284,166.93,3.09,3,149.05,17 / 18,36121,2019-09-04 19:21:56:294,0.5329,0.0863,9.819,0.0009,0.0084,9.8066,-0.0006,0.1091,-0.0161,-18.31,-28.56,18.13,91.35,-84.43,-50.02
49,52.404877,-1.500284,166.93,3.09,3,149.05,17 / 18,36220,2019-09-04 19:21:56:393,0.4843,0.0054,9.6939,-0.002,0.0084,9.8066,-0.0142,0.1246,0.0081,-17.81,-28.75,17.31,91.43,-84.42,-48.49
50,52.404877,-1.500284,166.93,3.09,3,149.05,17 / 18,36321,2019-09-04 19:21:56:494,0.3952,-0.1184,9.731,-0.0056,0.0097,9.8066,-0.0128,0.1261,-0.0096,-18.31,-28.56,17.0,92.98,-84.35,-47.02
51,52.404877,-1.500284,166.93,3.09,3,149.05,17 / 18,36420,2019-09-04 19:21:56:593,0.5331,-0.3572,9.9575,-0.003,0.0127,9.8066,-0.0113,0.1368,-0.0235,-18.12,-28.31,17.19,93.44,-84.33,-46.34
52,52.404877,-1.500284,166.93,3.09,3,149.05,17 / 18,36521,2019-09-04 19:21:56:694,0.5689,-0.3499,9.9433,0.0021,0.0073,9.8066,-0.012,0.1463,-0.0065,-18.06,-28.19,17.19,94.19,-84.31,-45.61
53,52.404877,-1.500284,166.93,3.09,3,149.05,17 / 18,36620,2019-09-04 19:21:56:793,0.9179,-0.3013,9.8062,0.0035,0.0097,9.8065,-0.0059,0.1894,0.0089,-18.19,-28.69,17.19,97.77,-84.34,-42.15
54,52.404877,-1.500284,166.93,3.09,3,149.05,17 / 18,36721,2019-09-04 19:21:56:894,1.0764,-0.2449,9.6984,0.0008,0.0116,9.8066,-0.0117,0.1887,-0.0043,-18.44,-28.81,16.56,99.04,-84.4,-40.79
55,52.404877,-1.500284,166.93,3.09,3,149.05,17 / 18,36821,2019-09-04 19:21:56:994,0.9956,-0.234,9.7328,-0.0021,0.0153,9.8066,-0.0191,0.2079,0.007,-18.75,-27.81,16.38,97.91,-84.33,-38.51
56,52.404877,-1.500284,166.93,3.09,3,149.05,17 / 18,36920,2019-09-04 19:21:57:093,0.958,0.1846,10.0294,-0.0035,0.0064,9.8066,0.0073,0.2124,0.0036,-18.94,-27.94,16.19,99.73,-84.25,-36.74
57,52.404877,-1.500284,166.93,3.09,3,149.05,17 / 18,37021,2019-09-04 19:21:57:194,0.9611,-0.3855,9.7076,0.0016,0.0006,9.8066,0.0361,0.2361,-0.0352,-19.12,-27.75,16.0,100.08,-84.27,-36.37
58,52.404877,-1.500284,166.93,3.09,3,149.05,17 / 18,37121,2019-09-04 19:21:57:294,1.809,-0.7489,9.3408,0.0287,0.027,9.8065,0.0008,0.3344,-0.0635,-19.31,-27.5,15.19,101.01,-84.53,-33.26
59,52.404877,-1.500284,166.93,3.09,3,149.05,17 / 18,37220,2019-09-04 19:21:57:393,1.5519,0.1782,9.6882,0.0186,0.0194,9.8065,0.0324,0.2814,-0.0375,-18.75,-28.12,15.31,105.35,-84.75,-28.77
60,52.404877,-1.500284,166.93,3.09,3,149.05,17 / 18,37320,2019-09-04 19:21:57:493,1.8301,0.2296,10.0735,0.0271,0.0078,9.8065,0.0684,0.3096,-0.042,-18.62,-28.94,15.06,107.8,-84.92,-26.24
61,52.404877,-1.500284,166.93,3.09,3,149.05,17 / 18,37421,2019-09-04 19:21:57:594,2.6475,0.2137,10.2742,0.0322,-0.0046,9.8066,0.0738,0.3983,0.0162,-19.37,-28.75,13.63,108.38,-85.38,-23.35
62,52.404877,-1.500284,166.93,3.09,3,149.05,17 / 18,37520,2019-09-04 19:21:57:693,2.9564,0.4286,9.2284,0.0123,-0.0208,9.8065,0.0692,0.395,0.0472,-20.0,-28.56,13.44,103.12,-85.8,-24.86
63,52.404877,-1.500284,166.93,3.09,3,149.05,17 / 18,37620,2019-09-04 19:21:57:793,1.5246,-0.1098,9.4064,0.0079,-0.018,9.8066,0.0719,0.4303,0.0042,-20.0,-27.44,13.5,100.83,-85.94,-28.56
64,52.404877,-1.500284,166.93,3.09,3,149.05,17 / 18,37721,2019-09-04 19:21:57:894,1.5972,-0.2445,10.3513,0.0256,-0.0043,9.8066,0.0757,0.476,-0.0058,-21.69,-27.5,12.75,93.76,-86.29,-30.73
65,52.404877,-1.500284,166.93,3.09,3,149.05,17 / 18,37820,2019-09-04 19:21:57:993,1.3848,0.4873,10.0624,0.0252,0.0026,9.8065,0.0528,0.4904,-0.0378,-21.0,-27.19,12.31,93.25,-86.6,-30.29
66,52.404877,-1.500284,166.93,3.09,3,149.05,17 / 18,37921,2019-09-04 19:21:58:094,1.9736,1.0753,9.348,0.0296,0.0158,9.8065,0.0448,0.5145,-0.0334,-20.69,-27.0,11.94,95.36,-86.89,-27.84
67,52.404877,-1.500284,166.93,3.09,3,149.05,17 / 18,38020,2019-09-04 19:21:58:193,1.6459,1.3994,9.8585,0.016,0.0014,9.8066,0.0475,0.5338,-0.0123,-21.06,-28.06,10.31,96.18,-87.3,-22.51
68,52.404877,-1.500284,166.93,3.09,3,149.05,17 / 18,38121,2019-09-04 19:21:58:294,3.4017,0.9401,9.5928,0.0361,0.0048,9.8065,0.0974,0.5639,-0.0404,-21.56,-28.81,8.88,94.79,-87.72,-20.23
69,52.404877,-1.500284,166.93,3.09,3,149.05,17 / 18,38220,2019-09-04 19:21:58:393,3.7843,1.3345,9.5938,0.0536,0.0014,9.8065,0.0784,0.6314,0.0017,-21.87,-28.19,9.38,96.96,-88.28,-17.29
70,52.404877,-1.500284,166.93,3.09,3,149.05,17 / 18,38321,2019-09-04 19:21:58:494,2.1003,1.4439,9.4565,0.0039,-0.0074,9.8066,-0.0279,0.6125,0.0411,-22.0,-27.81,7.69,91.71,-88.73,-19.8
71,52.404877,-1.500284,166.93,3.09,3,149.05,17 / 18,38420,2019-09-04 19:21:58:593,1.8035,1.847,9.5096,-0.0299,0.0146,9.8066,-0.0735,0.6191,0.0202,-22.25,-27.69,6.06,87.67,-88.43,-19.51
72,52.404877,-1.500284,166.93,3.09,3,149.05,17 / 18,38521,2019-09-04 19:21:58:694,1.516,1.2771,9.8533,-0.0162,0.0026,9.8065,-0.0379,0.5999,0.0236,-21.56,-28.06,4.88,90.44,-88.11,-14.7
73,52.404877,-1.500284,166.93,3.09,3,149.05,17 / 18,38621,2019-09-04 19:21:58:794,1.5015,1.815,9.4741,0.0036,0.0091,9.8065,0.012,0.613,0.0079,-22.62,-28.56,3.5,90.35,-87.9,-12.13
74,52.404877,-1.500284,166.93,3.09,3,149.05,17 / 18,38720,2019-09-04 19:21:58:893,2.106,1.7568,9.6685,0.0177,0.0138,9.8066,0.0091,0.5649,-0.0103,-22.44,-27.81,2.56,93.68,-88.11,-6.46
75,52.404877,-1.500284,166.93,3.09,3,149.05,17 / 18,38821,2019-09-04 19:21:58:994,1.7557,1.8998,10.049,-0.0156,-0.001,9.8066,-0.0447,0.5616,0.019,-21.75,-27.25,1.69,94.54,-88.14,-2.92
76,52.404877,-1.500284,166.93,3.09,3,149.05,17 / 18,38920,2019-09-04 19:21:59:093,1.4614,2.0654,8.9765,-0.0152,0.0064,9.8065,-0.0347,0.5048,0.026,-21.44,-27.5,0.31,90.61,-87.84,-2.17
77,52.404877,-1.500284,166.93,3.09,3,149.05,17 / 18,39021,2019-09-04 19:21:59:194,0.9417,0.5817,10.2988,-0.0034,0.0076,9.8066,0.0007,0.4121,-0.0467,-22.37,-28.06,-0.12,91.24,-87.72,-1.67
78,52.404877,-1.500284,166.93,3.09,3,149.05,17 / 18,39120,2019-09-04 19:21:59:293,2.0452,0.622,9.6975,0.0169,0.0018,9.8066,0.0507,0.4029,-0.0063,-21.62,-27.94,-0.69,89.68,-87.73,-0.61
79,52.404877,-1.500284,166.93,3.09,3,149.05,17 / 18,39221,2019-09-04 19:21:59:394,2.2848,0.4133,9.6973,0.0224,0.0058,9.8066,0.0326,0.3538,0.017,-21.0,-28.0,-1.75,89.47,-88.08,2.35
80,52.404877,-1.500284,166.93,3.09,3,149.05,17 / 18,39321,2019-09-04 19:21:59:494,2.1367,0.6229,9.2895,0.0116,0.0003,9.8066,0.0036,0.2669,0.0296,-20.87,-27.44,-1.62,89.18,-88.31,2.46
81,52.404877,-1.500284,166.93,3.09,3,149.05,17 / 18,39421,2019-09-04 19:21:59:594,1.7589,0.3796,8.804,-0.0013,0.0027,9.8066,-0.0092,0.2346,0.0173,-21.06,-28.0,-2.0,89.41,-88.34,2.64
82,52.404877,-1.500284,166.93,3.09,3,149.05,17 / 18,39520,2019-09-04 19:21:59:693,1.6292,0.7183,10.3868,-0.0168,0.001,9.8066,-0.0485,0.2213,0.0486,-20.75,-28.0,-2.69,87.28,-88.25,3.11
83,52.404877,-1.500284,166.93,3.09,3,149.05,17 / 18,39621,2019-09-04 19:21:59:794,1.6116,0.9595,9.7017,-0.0003,0.0078,9.8066,-0.0118,0.1863,0.022,-20.56,-27.62,-3.06,88.54,-88.06,4.11
84,52.404877,-1.500284,166.93,3.09,3,149.05,17 / 18,39720,2019-09-04 19:21:59:893,1.8138,-2.1712,9.1692,-0.002,-0.0107,9.8065,-0.0296,0.11,-0.0593,-20.56,-28.12,-3.5,87.47,-88.07,3.06
85,52.404877,-1.500284,166.93,3.09,3,149.05,17 / 18,39821,2019-09-04 19:21:59:994,1.1864,0.6858,10.5489,-0.004,0.0315,9.8065,0.0155,0.0816,-0.0781,-20.12,-27.56,-3.5,96.84,-88.0,12.63
86,52.404877,-1.500284,166.93,3.09,3,149.05,17 / 18,39920,2019-09-04 19:22:00:093,0.9493,0.0669,10.0078,0.009,0.0088,9.8066,0.005,0.0889,-0.0275,-20.25,-28.25,-3.94,100.39,-88.08,19.12
87,52.404877,-1.500284,166.93,3.09,3,149.05,17 / 18,40021,2019-09-04 19:22:00:194,0.9657,0.9959,10.2965,0.0001,-0.0078,9.8066,0.0024,0.045,0.0067,-20.31,-28.37,-4.19,105.64,-88.09,24.43
88,52.404877,-1.500284,166.93,3.09,3,149.05,17 / 18,40120,2019-09-04 19:22:00:293,1.2464,-1.1934,10.4704,0.0216,0.0095,9.8066,0.0859,-0.0433,-0.1366,-19.87,-27.37,-4.19,100.51,-88.16,19.44
89,52.404877,-1.500284,166.93,3.09,3,149.05,16 / 17,40220,2019-09-04 19:22:00:393,1.1615,-0.4185,9.77,0.0185,0.0125,9.8066,0.0346,-0.0005,-0.0893,-20.12,-27.94,-3.62,107.59,-88.51,26.96
90,52.404785,-1.500063,161.85,6.07,3,63.52,16 / 17,40321,2019-09-04 19:22:00:494,1.3033,0.5099,9.5088,0.0033,0.0275,9.8065,0.0064,0.0092,-0.0949,-19.94,-28.0,-4.25,120.41,-88.48,39.92
91,52.404785,-1.500063,161.85,6.07,3,63.52,16 / 17,40420,2019-09-04 19:22:00:593,1.3058,1.6172,9.2615,-0.0134,-0.0073,9.8066,-0.0564,-0.0438,-0.0694,-19.44,-27.44,-4.0,125.7,-88.36,45.75
92,52.404785,-1.500063,161.85,6.07,3,63.52,16 / 17,40521,2019-09-04 19:22:00:694,0.7652,0.6212,9.6202,-0.0182,0.0019,9.8066,-0.0467,0.0169,-0.0309,-19.75,-27.75,-4.5,121.38,-88.21,40.61
93,52.404785,-1.500063,161.85,6.07,3,63.52,16 / 17,40621,2019-09-04 19:22:00:794,0.9455,-0.3852,9.7624,-0.0079,-0.0091,9.8066,-0.0044,0.0517,-0.0064,-19.69,-27.87,-5.0,114.92,-88.0,36.51
94,52.404785,-1.500063,161.85,6.07,3,63.52,16 / 17,40721,2019-09-04 19:22:00:894,1.2808,-0.0676,9.5149,0.0032,0.014,9.8066,0.0077,0.0365,-0.0401,-19.31,-27.87,-4.87,118.26,-87.95,40.45
95,52.404785,-1.500063,161.85,6.07,3,63.52,16 / 17,40821,2019-09-04 19:22:00:994,0.8272,-0.0459,9.9417,0.0027,0.0101,9.8066,-0.0032,0.0549,-0.0058,-19.31,-28.25,-5.44,123.24,-87.92,45.52
96,52.404785,-1.500063,161.85,6.07,3,63.52,16 / 17,40921,2019-09-04 19:22:01:094,1.3272,0.1079,10.2793,-0.0005,0.0017,9.8066,-0.0082,0.0365,0.0171,-19.31,-27.69,-5.19,126.45,-87.86,48.76
97,52.404785,-1.500063,161.85,6.07,3,63.52,16 / 17,41020,2019-09-04 19:22:01:193,1.112,0.4803,10.0265,-0.0046,0.0083,9.8066,-0.0143,0.0265,0.002,-19.25,-28.19,-4.75,127.34,-87.81,49.61
98,52.404785,-1.500063,161.85,6.07,3,63.52,16 / 17,41121,2019-09-04 19:22:01:294,0.8466,-0.2224,10.1973,0.0018,-0.0011,9.8066,0.0051,-0.0165,-0.042,-19.69,-27.44,-5.19,127.22,-87.75,48.93
99,52.404785,-1.500063,161.85,6.07,3,63.52,16 / 17,41221,2019-09-04 19:22:01:394,1.3682,0.7086,9.7216,0.0109,0.01,9.8066,0.0277,0.0163,-0.0047,-19.37,-27.81,-5.37,129.25,-87.72,51.5
100,52.404785,-1.500063,161.85,6.07,3,63.52,16 / 18,41320,2019-09-04 19:22:01:493,0.5977,0.2375,9.5004,0.0052,0.0002,9.8066,-0.0112,0.0292,0.0204,-19.06,-27.69,-4.75,133.47,-87.78,55.93
101,52.404785,-1.500063,161.85,6.07,3,63.52,16 / 18,41421,2019-09-04 19:22:01:594,0.9754,-0.364,10.1228,-0.0003,0.0024,9.8066,-0.0067,0.037,0.0123,-20.06,-28.19,-5.12,134.65,-87.81,56.59
102,52.404785,-1.500063,161.85,6.07,3,63.52,16 / 18,41520,2019-09-04 19:22:01:693,1.139,0.0193,9.4418,0.0,0.0008,9.8066,-0.0228,0.0314,0.023,-19.81,-27.81,-5.69,133.25,-87.77,57.79
103,52.404785,-1.500063,161.85,6.07,3,63.52,16 / 18,41620,2019-09-04 19:22:01:793,0.4835,-0.5794,10.0793,-0.0032,0.0079,9.8066,-0.0257,0.0466,-0.0006,-19.94,-28.19,-4.75,135.27,-87.75,57.18
104,52.404785,-1.500063,161.85,6.07,3,63.52,16 / 18,41721,2019-09-04 19:22:01:894,0.5236,0.3822,9.6927,-0.0044,0.0009,9.8066,-0.0177,-0.0155,-0.0125,-19.31,-27.75,-5.5,135.37,-87.64,57.77
105,52.404785,-1.500063,161.85,6.07,3,63.52,16 / 18,41820,2019-09-04 19:22:01:993,0.8925,-0.8585,9.5811,-0.0026,-0.0085,9.8066,0.0033,0.0271,0.0109,-20.19,-27.94,-5.5,133.44,-87.63,55.16
106,52.404785,-1.500063,161.85,6.07,3,63.52,16 / 18,41921,2019-09-04 19:22:02:094,0.9938,-0.2196,9.8704,0.0072,0.005,9.8066,-0.0039,0.0421,0.0406,-19.87,-27.81,-5.69,131.9,-87.68,56.3
107,52.404785,-1.500063,161.85,6.07,3,63.52,16 / 18,42021,2019-09-04 19:22:02:194,0.9143,-0.9682,9.6069,0.0119,0.0001,9.8066,0.0154,0.0184,0.0066,-20.12,-27.5,-5.0,135.37,-87.74,57.35
108,52.404785,-1.500063,161.85,6.07,3,63.52,16 / 18,42120,2019-09-04 19:22:02:293,1.0838,-0.3025,9.8987,0.0087,0.0024,9.8066,0.0028,0.0426,0.0426,-20.06,-27.75,-5.0,138.5,-87.85,60.62
109,52.404785,-1.500063,161.85,6.07,3,63.52,16 / 18,42221,2019-09-04 19:22:02:394,0.8724,-0.8862,9.4866,0.0019,-0.0005,9.8066,-0.0097,-0.0169,-0.0134,-20.56,-27.94,-4.81,139.19,-87.99,60.89
110,52.404785,-1.500063,161.85,6.07,3,63.52,16 / 18,42321,2019-09-04 19:22:02:494,0.802,0.306,9.8562,-0.0024,0.0054,9.8066,-0.0122,-0.0036,-0.0187,-20.56,-27.75,-5.75,136.35,-88.01,60.55
111,52.404785,-1.500063,161.85,6.07,3,63.52,16 / 18,42420,2019-09-04 19:22:02:593,0.9777,-0.4918,9.4676,0.0002,0.0014,9.8066,-0.014,0.0022,0.0086,-20.69,-28.19,-6.06,135.8,-88.01,59.99
112,52.404785,-1.500063,161.85,6.07,3,63.52,16 / 18,42521,2019-09-04 19:22:02:694,0.7383,-0.0732,10.5295,0.0057,-0.005,9.8066,0.0151,0.0005,0.0156,-20.44,-28.06,-5.19,137.41,-88.08,59.7
113,52.404785,-1.500063,161.85,6.07,3,63.52,16 / 18,42621,2019-09-04 19:22:02:794,0.7712,-0.2517,9.3714,0.0071,0.0012,9.8066,-0.007,0.0278,0.0079,-20.87,-27.69,-5.12,139.74,-88.15,61.59
114,52.404785,-1.500063,161.85,6.07,3,63.52,16 / 18,42721,2019-09-04 19:22:02:894,0.6555,-0.1851,9.5991,0.0001,-0.0032,9.8066,-0.0161,-0.0012,0.0093,-20.31,-27.5,-5.19,140.05,-88.2,62.58
115,52.404785,-1.500063,161.85,6.07,3,63.52,16 / 18,42820,2019-09-04 19:22:02:993,0.3882,-0.8454,9.6294,-0.0099,-0.0077,9.8066,-0.0364,0.0262,0.0355,-20.69,-27.87,-5.44,136.74,-88.23,58.57
116,52.404785,-1.500063,161.85,6.07,3,63.52,16 / 18,42921,2019-09-04 19:22:03:094,0.5286,-0.2263,9.9696,-0.0061,-0.0072,9.8065,-0.021,0.0309,0.0565,-21.12,-27.37,-5.44,132.81,-88.22,54.58
117,52.404785,-1.500063,161.85,6.07,3,63.52,16 / 18,43021,2019-09-04 19:22:03:194,0.5201,0.2733,10.2681,0.0047,-0.0067,9.8066,0.0098,-0.0298,-0.0059,-21.19,-27.75,-5.31,129.08,-88.27,50.74
118,52.404785,-1.500063,161.85,6.07,3,63.52,16 / 18,43121,2019-09-04 19:22:03:294,0.6451,-0.0561,9.6177,0.0105,-0.0088,9.8066,0.0173,-0.0191,0.009,-21.37,-27.81,-5.19,129.39,-88.36,51.15
119,52.404785,-1.500063,161.85,6.07,3,63.52,16 / 18,43221,2019-09-04 19:22:03:394,0.9104,-0.1074,9.7333,0.0116,-0.007,9.8066,0.0256,-0.0465,-0.0122,-20.87,-28.19,-4.5,133.4,-88.55,52.82
120,52.404785,-1.500063,161.85,6.07,3,63.52,16 / 17,43320,2019-09-04 19:22:03:493,0.5637,-0.4072,10.0864,-0.0026,-0.0109,9.8066,-0.0168,-0.0156,0.0079,-21.25,-26.94,-4.56,130.76,-88.68,52.91
121,52.404785,-1.500063,161.85,6.07,3,63.52,16 / 17,43421,2019-09-04 19:22:03:594,-0.0447,-0.4415,10.5343,-0.0035,-0.007,9.8066,-0.0036,-0.0241,0.0193,-20.56,-26.87,-3.69,126.84,-88.74,46.35
122,52.404785,-1.500063,161.85,6.07,3,63.52,16 / 17,43521,2019-09-04 19:22:03:694,0.5939,-1.3,9.7675,0.0114,0.017,9.8066,0.0063,0.0651,-0.0204,-20.25,-27.19,-3.75,130.53,-88.84,50.68
123,52.404785,-1.500063,161.85,6.07,3,63.52,16 / 17,43621,2019-09-04 19:22:03:794,0.7679,0.6696,9.7684,0.0205,-0.0118,9.8066,0.0362,0.0252,0.0698,-19.87,-27.31,-4.19,140.33,-88.79,60.62
124,52.404785,-1.500063,161.85,6.07,3,63.52,16 / 17,43721,2019-09-04 19:22:03:894,0.05,-1.0114,9.0088,0.0001,-0.0247,9.8065,-0.046,0.0463,0.0542,-21.06,-27.44,-4.81,133.11,-89.2,55.78
125,52.404785,-1.500063,161.85,6.07,3,63.52,16 / 17,43821,2019-09-04 19:22:03:994,1.0028,0.2554,11.5545,-0.0125,-0.0026,9.8065,-0.0585,0.0522,0.0303,-20.81,-27.12,-5.06,127.83,-89.17,50.41
126,52.404785,-1.500063,161.85,6.07,3,63.52,16 / 17,43921,2019-09-04 19:22:04:094,0.2699,0.663,10.1985,-0.0043,-0.0029,9.8066,0.0361,-0.0672,-0.0457,-21.06,-27.94,-4.81,122.75,-89.02,45.07
127,52.404785,-1.500063,161.85,6.07,3,63.52,16 / 17,44021,2019-09-04 19:22:04:194,0.4678,-1.1291,10.1054,0.0182,0.0021,9.8066,0.0423,-0.029,-0.0258,-21.5,-27.56,-4.5,124.87,-89.18,44.77
128,52.404785,-1.500063,161.85,6.07,3,63.52,16 / 17,44121,2019-09-04 19:22:04:294,0.5575,-0.6144,9.4045,0.014,0.0159,9.8066,0.0378,0.0001,-0.0426,-21.25,-28.31,-4.37,146.03,-89.25,66.27
129,52.404785,-1.500063,161.85,6.07,3,63.52,15 / 17,44221,2019-09-04 19:22:04:394,0.5719,0.1895,9.0547,0.0082,0.0124,9.8066,-0.0057,-0.0199,-0.0149,-21.31,-28.75,-3.94,159.58,-89.16,79.97
130,52.404785,-1.500063,161.85,6.07,3,63.52,15 / 17,44321,2019-09-04 19:22:04:494,0.2758,0.6859,9.1522,-0.0077,-0.009,9.8066,-0.0546,-0.0109,0.0176,-21.37,-28.06,-3.37,158.54,-89.22,76.3
131,52.404785,-1.500063,161.85,6.07,3,63.52,15 / 17,44420,2019-09-04 19:22:04:593,-0.0816,0.2575,9.044,-0.0213,-0.0153,9.8065,-0.0708,0.0362,0.0351,-20.69,-27.69,-4.44,134.68,-89.23,54.76
132,52.404785,-1.500063,161.85,6.07,3,63.52,15 / 17,44521,2019-09-04 19:22:04:694,-0.1634,0.0445,9.7289,-0.01,-0.0058,9.8066,-0.022,0.055,0.0447,-21.19,-27.5,-4.44,111.06,-89.1,30.78
133,52.404785,-1.500063,161.85,6.07,3,63.52,15 / 17,44620,2019-09-04 19:22:04:793,-0.2496,-0.8169,10.4621,0.007,-0.0175,9.8066,0.0456,0.0132,0.0155,-21.19,-27.19,-4.37,98.35,-89.15,18.07
134,52.404785,-1.500063,161.85,6.07,3,63.52,15 / 17,44721,2019-09-04 19:22:04:894,0.2779,0.4101,10.1401,0.0243,0.0074,9.8065,0.0434,0.0394,0.0042,-21.12,-27.37,-3.75,96.02,-89.51,16.19
135,52.404785,-1.500063,161.85,6.07,3,63.52,15 / 17,44821,2019-09-04 19:22:04:994,0.2046,-0.3442,10.005,0.0046,-0.0071,9.8066,-0.0221,-0.0098,-0.0193,-20.94,-26.75,-4.0,84.25,-89.69,4.65
136,52.404785,-1.500063,161.85,6.07,3,63.52,15 / 17,44920,2019-09-04 19:22:05:093,-0.1065,0.2379,10.7799,-0.0045,0.0026,9.8066,-0.0023,-0.0529,-0.1007,-21.31,-27.75,-4.75,81.55,-89.68,4.54
137,52.404785,-1.500063,161.85,6.07,3,63.52,15 / 17,45021,2019-09-04 19:22:05:194,0.0212,-0.5276,9.6851,0.0004,-0.001,9.8066,0.0082,-0.0037,-0.0239,-20.62,-27.75,-4.62,98.28,-89.63,21.2
138,52.404785,-1.500063,161.85,6.07,3,63.52,15 / 17,45121,2019-09-04 19:22:05:294,-0.5489,0.6164,8.3367,-0.0038,0.0074,9.8066,-0.0253,0.0195,0.0073,-20.44,-27.37,-3.81,112.68,-89.6,33.5
139,52.404785,-1.500063,161.85,6.07,3,63.52,15 / 17,45221,2019-09-04 19:22:05:394,0.1868,0.1376,9.8791,-0.0112,-0.0058,9.8065,-0.039,0.0083,0.0271,-21.31,-28.12,-4.94,96.13,-89.51,18.89
140,52.404785,-1.500063,161.85,6.07,3,63.52,16 / 16,45320,2019-09-04 19:22:05:493,-0.2615,-0.6332,9.8902,-0.0078,-0.0143,9.8066,0.0065,-0.0358,-0.0216,-21.37,-28.12,-4.37,76.66,-89.32,-3.42
141,52.404785,-1.500063,161.85,6.07,3,63.52,16 / 16,45420,2019-09-04 19:22:05:593,0.2314,-0.0673,9.855,0.0114,-0.0061,9.8066,0.0318,-0.0212,-0.0288,-20.94,-27.87,-4.0,70.56,-89.41,-9.39
142,52.404785,-1.500063,161.85,6.07,3,63.52,16 / 16,45521,2019-09-04 19:22:05:694,0.0774,-0.7308,10.4893,0.0076,0.0169,9.8066,0.0014,0.0037,-0.0407,-21.06,-27.69,-3.87,77.48,-89.61,-2.23
143,52.404785,-1.500063,161.85,6.07,3,63.52,16 / 16,45620,2019-09-04 19:22:05:793,-0.017,0.2844,10.1498,0.0215,-0.0012,9.8066,0.0512,-0.0311,-0.0241,-20.81,-27.31,-3.69,71.01,-89.75,-8.5
144,52.404785,-1.500063,161.85,6.07,3,63.52,16 / 16,45721,2019-09-04 19:22:05:894,0.4909,-0.7376,10.1117,0.0192,0.0115,9.8066,0.0574,-0.0355,-0.0578,-20.75,-27.5,-3.87,267.43,-89.88,-171.63
145,52.404785,-1.500063,161.85,6.07,3,63.52,16 / 16,45821,2019-09-04 19:22:05:994,-0.0762,-1.7254,9.5836,-0.0096,0.0084,9.8066,-0.0503,0.0509,0.0501,-20.62,-27.5,-4.31,248.02,-89.71,169.14
146,52.404785,-1.500063,161.85,6.07,3,63.52,16 / 16,45920,2019-09-04 19:22:06:093,-0.1275,-0.8484,9.6552,-0.0093,-0.0104,9.8066,-0.0312,0.0,0.0138,-20.62,-28.06,-3.87,241.04,-89.85,161.99
147,52.404785,-1.500063,161.85,6.07,3,63.52,16 / 16,46020,2019-09-04 19:22:06:193,-1.5991,-1.2705,8.3584,0.0022,0.0134,9.8066,0.0012,0.0355,-0.0075,-20.94,-28.44,-4.44,185.4,-89.94,106.19
148,52.404785,-1.500063,161.85,6.07,3,63.52,16 / 16,46121,2019-09-04 19:22:06:294,-0.1691,-0.2064,9.4688,0.0032,0.0097,9.8066,0.002,-0.003,-0.0142,-20.81,-28.31,-3.75,193.01,-89.75,113.87
149,52.404785,-1.500063,161.85,6.07,3,63.52,16 / 16,46220,2019-09-04 19:22:06:393,-0.3331,-0.2216,8.8145,-0.0054,0.0028,9.8066,-0.0295,0.0,0.0015,-20.69,-28.25,-3.94,184.81,-89.67,105.63
150,52.404785,-1.500063,161.85,6.07,3,63.52,16 / 16,46321,2019-09-04 19:22:06:494,-0.3524,0.045,10.008,-0.0088,0.0107,9.8066,-0.0197,0.0141,-0.0178,-20.25,-28.62,-3.94,162.7,-89.58,83.83
151,52.404785,-1.500063,161.85,6.07,3,63.52,16 / 16,46421,2019-09-04 19:22:06:594,-0.556,0.3544,9.7204,-0.0085,0.0035,9.8066,-0.0238,-0.0233,-0.0259,-19.75,-28.12,-3.81,159.26,-89.45,80.3
152,52.404785,-1.500063,161.85,6.07,3,63.52,16 / 16,46520,2019-09-04 19:22:06:693,-0.2333,-0.0547,10.0983,-0.0058,-0.0085,9.8066,0.002,-0.0449,-0.0329,-19.75,-28.31,-4.75,149.53,-89.37,73.13
153,52.404785,-1.500063,161.85,6.07,3,63.52,16 / 16,46621,2019-09-04 19:22:06:794,-0.2245,0.4601,10.2538,0.0162,0.0165,9.8065,0.0468,0.0383,0.0066,-20.06,-28.87,-4.44,150.99,-89.38,71.87
154,52.404785,-1.500063,161.85,6.07,3,63.52,16 / 16,46721,2019-09-04 19:22:06:894,-0.9083,0.8821,9.053,0.0139,-0.0037,9.8066,-0.0005,0.097,0.1144,-19.56,-28.62,-4.0,177.21,-89.37,98.47
155,52.404785,-1.500063,161.85,6.07,3,63.52,16 / 16,46821,2019-09-04 19:22:06:994,-0.83,-0.5201,10.3417,-0.0037,-0.004,9.8066,-0.0178,0.052,0.0423,-19.94,-28.19,-4.0,182.73,-89.51,104.07
156,52.404785,-1.500063,161.85,6.07,3,63.52,16 / 16,46921,2019-09-04 19:22:07:094,-0.5009,-0.2372,9.4958,0.005,0.0125,9.8066,0.0283,0.0316,-0.0267,-19.87,-28.25,-3.69,182.6,-89.47,103.94
157,52.404785,-1.500063,161.85,6.07,3,63.52,16 / 16,47021,2019-09-04 19:22:07:194,-0.2019,-0.5178,9.3688,0.0089,0.0064,9.8066,-0.0048,0.0172,-0.0088,-19.75,-28.0,-4.12,194.16,-89.31,115.7
158,52.404785,-1.500063,161.85,6.07,3,63.52,16 / 16,47121,2019-09-04 19:22:07:294,-0.1489,-1.1136,10.8517,-0.0076,0.0175,9.8065,-0.0014,-0.0137,-0.0965,-19.69,-28.25,-4.06,197.69,-89.29,119.3
159,52.404785,-1.500063,161.85,6.07,3,63.52,16 / 16,47221,2019-09-04 19:22:07:394,-0.671,-1.3852,9.5009,0.0031,0.0273,9.8066,0.0226,0.0049,-0.0928,-19.81,-29.06,-4.44,186.86,-88.92,108.36
160,52.404785,-1.500063,161.85,6.07,3,63.52,17 / 17,47320,2019-09-04 19:22:07:493,1.9111,-0.2064,10.972,0.0143,0.0315,9.8065,0.009,-0.0156,-0.0793,-19.31,-28.56,-4.56,186.4,-88.41,111.41
161,52.404785,-1.500063,161.85,6.07,3,63.52,17 / 17,47420,2019-09-04 19:22:07:593,-0.4476,-1.3965,11.2038,-0.0052,0.0074,9.8066,-0.0318,0.0464,0.0089,-19.37,-29.19,-4.06,187.57,-88.29,109.79
162,52.404785,-1.500063,161.85,6.07,3,63.52,17 / 17,47521,2019-09-04 19:22:07:694,-1.1759,-0.443,10.1144,-0.011,-0.0052,9.8066,-0.0281,0.0034,0.0188,-19.5,-29.06,-4.19,181.33,-88.32,103.27
163,52.404785,-1.500063,161.85,6.07,3,63.52,17 / 17,47620,2019-09-04 19:22:07:793,-0.9098,-1.619,10.7616,0.0053,0.014,9.8066,-0.0064,0.0883,0.0593,-19.12,-28.94,-4.12,179.81,-88.33,101.69
164,52.404785,-1.500063,161.85,6.07,3,63.52,17 / 17,47721,2019-09-04 19:22:07:894,-0.2097,0.4361,8.6062,0.0112,0.0013,9.8066,0.0136,0.0293,0.0643,-19.62,-29.12,-4.06,182.54,-88.24,103.96
165,52.404785,-1.500063,161.85,6.07,3,63.52,17 / 17,47820,2019-09-04 19:22:07:993,-0.4781,-0.2757,10.233,0.0038,-0.0146,9.8066,-0.0357,0.0321,0.0133,-19.69,-28.0,-4.44,187.48,-88.39,109.07
166,52.404785,-1.500063,161.85,6.07,3,63.52,17 / 17,47921,2019-09-04 19:22:08:094,-1.8724,0.2369,8.856,-0.0166,0.0096,9.8066,-0.016,0.0548,0.0005,-19.0,-28.75,-4.81,178.16,-88.4,102.83
167,52.404785,-1.500063,161.85,6.07,3,63.52,17 / 17,48021,2019-09-04 19:22:08:194,-1.2526,0.0187,10.117,0.0004,0.007,9.8066,0.0159,-0.014,-0.0243,-19.5,-28.12,-4.56,176.72,-88.29,101.33
168,52.404785,-1.500063,161.85,6.07,3,63.52,17 / 17,48120,2019-09-04 19:22:08:293,-1.0361,-0.4002,9.9249,0.0139,-0.0051,9.8066,0.0286,0.0117,0.0206,-19.75,-27.44,-5.19,181.6,-88.26,105.7
169,52.404785,-1.500063,161.85,6.07,3,63.52,17 / 17,48221,2019-09-04 19:22:08:394,0.1328,0.013,9.8267,0.0134,0.0034,9.8066,0.0036,-0.0353,-0.0716,-20.06,-28.12,-4.75,186.56,-88.24,110.86
170,52.404785,-1.500063,161.85,6.07,3,63.52,17 / 17,48323,2019-09-04 19:22:08:496,-0.4788,-0.4063,10.7843,-0.0148,0.0041,9.8066,-0.0396,-0.0224,-0.0427,-19.94,-28.06,-3.81,188.6,-88.13,110.29
171,52.404785,-1.500063,161.85,6.07,3,63.52,17 / 17,48420,2019-09-04 19:22:08:593,-1.1247,0.4861,10.0031,-0.007,0.0078,9.8065,-0.0078,0.0421,0.017,-19.94,-29.06,-4.31,180.19,-88.03,101.51
172,52.404785,-1.500063,161.85,6.07,3,63.52,17 / 17,48521,2019-09-04 19:22:08:694,-0.8542,0.0857,9.9066,0.0135,0.0117,9.8065,0.0354,0.0721,-0.0107,-19.12,-29.62,-4.06,181.19,-87.89,103.14
173,52.404785,-1.500063,161.85,6.07,3,63.52,17 / 17,48620,2019-09-04 19:22:08:793,-1.0814,0.2435,10.02,0.0133,0.0011,9.8066,0.0211,0.0434,0.0106,-18.56,-29.31,-4.87,182.48,-87.83,107.36
174,52.404785,-1.500063,161.85,6.07,3,63.52,17 / 17,48720,2019-09-04 19:22:08:893,-0.6162,-0.0193,9.8852,0.0043,-0.0097,9.8066,0.0042,0.0161,-0.0102,-18.5,-29.19,-5.5,186.2,-87.95,112.07
175,52.404785,-1.500063,161.85,6.07,3,63.52,17 / 17,48820,2019-09-04 19:22:08:993,-0.8615,-0.3938,10.0137,0.0054,0.0048,9.8066,0.0273,0.0383,-0.0628,-19.25,-29.31,-4.81,187.87,-88.02,113.01
176,52.404785,-1.500063,161.85,6.07,3,63.52,17 / 17,48920,2019-09-04 19:22:09:093,-1.2374,0.525,9.9701,0.0096,0.0096,9.8066,0.0499,0.0056,-0.079,-18.81,-29.56,-5.69,186.52,-87.88,114.41
177,52.404785,-1.500063,161.85,6.07,3,63.52,17 / 17,49021,2019-09-04 19:22:09:194,-0.5754,1.384,10.0111,0.0014,0.0364,9.8065,-0.0065,0.1193,-0.0758,-18.81,-31.19,-5.62,190.29,-87.6,118.48
178,52.404785,-1.500063,161.85,6.07,3,63.52,17 / 17,49121,2019-09-04 19:22:09:294,-1.863,1.1447,9.7536,-0.0025,0.0213,9.8066,-0.0282,0.1857,0.0594,-18.81,-30.94,-4.69,190.17,-87.16,115.69
179,52.404785,-1.500063,161.85,6.07,3,63.52,18 / 18,49221,2019-09-04 19:22:09:394,-1.15,0.8035,9.3972,-0.0001,0.0218,9.8066,-0.0022,0.169,0.0061,-19.44,-31.5,-4.31,190.88,-87.07,113.64
180,52.405193,-1.49877,145.95,11.31,3,62.57,18 / 18,49320,2019-09-04 19:22:09:493,-1.3804,0.5171,8.6534,-0.0027,0.0095,9.8066,-0.0197,0.0977,-0.0138,-19.12,-30.62,-3.12,193.32,-86.95,113.41
181,52.405193,-1.49877,145.95,11.31,3,62.57,18 / 18,49421,2019-09-04 19:22:09:594,-1.135,1.2417,10.0219,-0.0033,-0.0211,9.8066,-0.0127,0.1141,0.0272,-17.94,-30.25,-3.0,191.84,-87.02,112.29
182,52.405193,-1.49877,145.95,11.31,3,62.57,18 / 18,49520,2019-09-04 19:22:09:693,-1.3003,1.7923,10.1705,0.0073,-0.0012,9.8066,0.0086,0.1821,0.0685,-17.37,-30.75,-4.69,186.59,-87.2,113.53
183,52.405193,-1.49877,145.95,11.31,3,62.57,18 / 18,49620,2019-09-04 19:22:09:793,-1.718,0.4102,11.0763,0.0171,-0.013,9.8066,0.0244,0.1273,0.0537,-18.37,-29.56,-4.06,194.04,-87.35,117.6
184,52.405193,-1.49877,145.95,11.31,3,62.57,18 / 18,49721,2019-09-04 19:22:09:894,-1.0155,0.5763,9.8392,0.0159,-0.0151,9.8065,0.0124,0.1383,0.0922,-17.75,-29.94,-5.19,198.52,-87.48,125.31
185,52.405193,-1.49877,145.95,11.31,3,62.57,18 / 18,49820,2019-09-04 19:22:09:993,-1.1427,-0.5221,10.0038,0.0123,-0.0181,9.8066,-0.0117,0.143,0.1056,-17.94,-29.56,-4.87,203.98,-87.65,131.02
186,52.405193,-1.49877,145.95,11.31,3,62.57,18 / 18,49920,2019-09-04 19:22:10:093,-1.674,-0.3509,9.4478,0.0096,-0.024,9.8065,-0.0028,0.0798,0.1015,-17.69,-29.0,-5.56,205.97,-87.82,135.85
187,52.405193,-1.49877,145.95,11.31,3,62.57,18 / 18,50020,2019-09-04 19:22:10:193,-0.9722,-0.0559,10.1969,0.016,-0.0239,9.8065,0.0202,0.0306,0.0792,-18.62,-29.0,-6.75,215.16,-88.09,146.95
188,52.405193,-1.49877,145.95,11.31,3,62.57,18 / 18,50120,2019-09-04 19:22:10:293,-0.8053,-0.7364,9.2262,0.0181,-0.0343,9.8065,0.0201,-0.0227,0.0564,-19.12,-29.31,-6.0,235.51,-88.23,165.14
189,52.405193,-1.49877,145.95,11.31,3,62.57,18 / 18,50221,2019-09-04 19:22:10:394,-0.5464,-0.8088,9.7169,0.0074,-0.0276,9.8065,0.0033,-0.0345,0.0253,-19.06,-29.5,-6.19,246.68,-88.27,176.51
190,52.405193,-1.49877,145.95,11.31,3,62.57,18 / 18,50320,2019-09-04 19:22:10:493,-1.0352,-0.6484,9.8027,0.0002,-0.029,9.8065,-0.0166,-0.0228,0.0183,-19.19,-29.25,-5.06,264.76,-88.35,-168.08
191,52.405193,-1.49877,145.95,11.31,3,62.57,18 / 18,50420,2019-09-04 19:22:10:593,-1.1786,-1.3213,9.6543,0.0063,-0.0189,9.8066,0.0173,0.0102,0.0538,-20.12,-28.94,-4.75,272.11,-88.37,-161.56
192,52.405193,-1.49877,145.95,11.31,3,62.57,18 / 18,50521,2019-09-04 19:22:10:694,-0.9468,-0.8792,10.4016,0.0156,-0.0022,9.8066,0.0285,0.0328,0.0711,-19.12,-28.12,-4.56,277.55,-88.25,-155.23
193,52.405193,-1.49877,145.95,11.31,3,62.57,18 / 18,50620,2019-09-04 19:22:10:793,0.1694,-0.1859,9.334,0.0202,-0.0088,9.8066,0.0194,-0.0671,0.0879,-19.75,-28.25,-4.06,281.25,-87.93,-154.65
194,52.405193,-1.49877,145.95,11.31,3,62.57,18 / 18,50721,2019-09-04 19:22:10:894,-0.3822,-1.9918,9.7684,0.0108,-0.0474,9.8065,-0.0226,-0.1124,0.09,-20.12,-28.06,-5.0,290.47,-87.52,-142.31
195,52.405193,-1.49877,145.95,11.31,3,62.57,18 / 18,50820,2019-09-04 19:22:10:993,-0.2206,-1.6745,9.6249,-0.008,-0.0282,9.8066,-0.0356,-0.1096,0.0903,-20.5,-27.87,-4.0,301.06,-87.37,-134.5
196,52.405193,-1.49877,145.95,11.31,3,62.57,18 / 18,50920,2019-09-04 19:22:11:093,-0.9989,-1.1532,10.2282,0.0065,-0.0314,9.8065,-0.0149,-0.0846,0.1467,-21.25,-27.25,-4.87,308.63,-87.05,-125.05
197,52.405193,-1.49877,145.95,11.31,3,62.57,18 / 18,51021,2019-09-04 19:22:11:194,-0.9067,-2.5592,10.0065,0.0137,-0.0168,9.8066,0.0224,-0.1108,0.039,-20.81,-27.69,-4.0,314.97,-86.67,-121.11
198,52.405193,-1.49877,145.95,11.31,3,62.57,18 / 18,51121,2019-09-04 19:22:11:294,-0.9519,-2.1778,10.3854,0.0167,-0.005,9.8065,0.0321,-0.1326,0.0084,-21.56,-27.19,-4.37,315.06,-86.47,-121.57
199,52.405193,-1.49877,145.95,11.31,3,62.57,18 / 18,51220,2019-09-04 19:22:11:393,-0.5241,-1.0466,9.7762,0.0096,0.0147,9.8066,0.018,-0.1284,-0.0365,-21.81,-26.56,-3.56,311.05,-86.3,-125.21
200,52.405193,-1.49877,145.95,11.31,3,62.57,18 / 18,51321,2019-09-04 19:22:11:494,-0.2098,-1.2981,9.4479,0.0036,0.0011,9.8066,-0.002,-0.1419,-0.0287,-22.12,-25.87,-2.25,313.68,-86.29,-127.9
201,52.405193,-1.49877,145.95,11.31,3,62.57,18 / 18,51420,2019-09-04 19:22:11:593,-1.0958,-0.1862,9.6116,-0.0072,0.0149,9.8066,-0.0127,-0.1293,-0.0337,-21.81,-26.94,-3.19,309.98,-86.41,-128.85
202,52.405193,-1.49877,145.95,11.31,3,62.57,18 / 18,51520,2019-09-04 19:22:11:693,-1.2404,-1.6443,9.3454,-0.006,-0.0005,9.8066,-0.0006,-0.0923,-0.0056,-21.5,-27.25,-3.06,310.2,-86.52,-128.23
203,52.405193,-1.49877,145.95,11.31,3,62.57,18 / 18,51621,2019-09-04 19:22:11:794,0.2425,-0.8257,10.498,0.0061,0.0126,9.8066,0.0502,-0.033,-0.0082,-21.0,-26.94,-3.5,308.45,-86.57,-129.95
204,52.405193,-1.49877,145.95,11.31,3,62.57,18 / 18,51720,2019-09-04 19:22:11:893,-0.942,-0.6588,9.0571,0.0178,0.0039,9.8066,0.0368,-0.0606,0.0046,-21.75,-27.31,-1.94,307.27,-86.53,-134.1
205,52.405193,-1.49877,145.95,11.31,3,62.57,18 / 18,51820,2019-09-04 19:22:11:993,0.1238,-1.4637,9.7283,0.0111,0.0023,9.8066,0.0177,-0.0449,-0.0576,-21.5,-27.44,-2.44,303.36,-86.35,-137.24
206,52.405193,-1.49877,145.95,11.31,3,62.57,18 / 18,51921,2019-09-04 19:22:12:094,-0.137,-0.0256,9.9364,0.0,0.0226,9.8066,0.0153,-0.0383,-0.0664,-21.31,-27.94,-1.56,299.1,-86.48,-141.33
207,52.405193,-1.49877,145.95,11.31,3,62.57,18 / 18,52020,2019-09-04 19:22:12:193,0.1409,0.3807,9.3149,-0.0011,0.0109,9.8066,-0.0027,0.0131,-0.0024,-21.06,-27.5,-1.87,295.95,-86.54,-144.58
208,52.405193,-1.49877,145.95,11.31,3,62.57,18 / 18,52120,2019-09-04 19:22:12:293,-0.198,0.4245,9.5757,0.0019,0.0146,9.8065,-0.0003,0.0533,-0.0025,-20.56,-28.12,-2.44,292.07,-86.63,-148.3
209,52.405193,-1.49877,145.95,11.31,3,62.57,18 / 18,52221,2019-09-04 19:22:12:394,0.3316,-0.6901,10.4545,0.0025,0.0007,9.8066,0.0,0.0346,-0.0086,-20.87,-27.5,-1.25,293.67,-86.64,-149.61
210,52.405193,-1.49877,145.95,11.31,3,62.57,18 / 18,52321,2019-09-04 19:22:12:494,1.0381,0.2483,9.5975,-0.0027,0.0171,9.8065,0.0091,0.0204,-0.0109,-20.5,-27.69,-2.44,288.08,-86.7,-151.8
211,52.405193,-1.49877,145.95,11.31,3,62.57,18 / 18,52420,2019-09-04 19:22:12:593,-0.029,0.1291,8.5497,-0.0013,-0.0054,9.8066,-0.0143,-0.0205,-0.0142,-20.44,-27.87,-2.19,286.14,-86.73,-153.74
212,52.405193,-1.49877,145.95,11.31,3,62.57,18 / 18,52520,2019-09-04 19:22:12:693,1.2415,-0.1483,9.7209,-0.0036,0.0097,9.8066,-0.0102,0.0587,0.0143,-20.62,-27.12,-1.75,286.51,-86.8,-154.09
213,52.405193,-1.49877,145.95,11.31,3,62.57,18 / 18,52621,2019-09-04 19:22:12:794,0.8793,1.1751,11.4031,0.0017,0.0004,9.8066,0.035,-0.0044,0.0144,-20.12,-27.69,-2.56,281.27,-86.91,-155.97
214,52.405193,-1.49877,145.95,11.31,3,62.57,18 / 18,52720,2019-09-04 19:22:12:893,-0.4615,-0.6611,9.5927,0.0185,0.0021,9.8066,0.0265,0.0474,0.0257,-20.87,-27.31,-2.5,285.18,-86.8,-155.4
215,52.405193,-1.49877,145.95,11.31,3,62.57,18 / 18,52821,2019-09-04 19:22:12:994,1.032,0.5998,10.2008,0.0115,-0.0043,9.8066,0.0117,0.0074,0.0164,-20.94,-28.06,-2.94,279.16,-86.55,-158.19
216,52.405193,-1.49877,145.95,11.31,3,62.57,18 / 18,52921,2019-09-04 19:22:13:094,0.3218,-0.8897,9.1233,-0.0073,-0.0106,9.8066,-0.0223,-0.0529,-0.0529,-21.31,-28.44,-3.37,281.2,-86.47,-156.07
217,52.405193,-1.49877,145.95,11.31,3,62.57,18 / 18,53021,2019-09-04 19:22:13:194,0.7973,0.3713,9.7912,-0.0153,-0.0042,9.8066,-0.0262,-0.0351,-0.0427,-21.44,-29.62,-3.81,279.03,-86.55,-155.38
218,52.405193,-1.49877,145.95,11.31,3,62.57,18 / 18,53120,2019-09-04 19:22:13:293,-0.0456,-0.1021,10.6247,-0.0222,-0.0176,9.8065,0.035,0.009,0.0041,-21.31,-29.81,-4.19,279.71,-86.64,-154.83
219,52.405193,-1.49877,145.95,11.31,3,62.57,18 / 18,53221,2019-09-04 19:22:13:394,-0.1477,-0.0053,10.003,0.0172,-0.0122,9.8066,0.0517,-0.0076,0.0141,-22.5,-33.5,-2.62,285.32,-86.66,-152.08
220,52.405193,-1.49877,145.95,11.31,3,62.57,18 / 18,53320,2019-09-04 19:22:13:493,0.6098,0.4386,9.0506,0.0,-0.0012,9.8066,0.0069,-0.0464,-0.0331,-20.25,-31.06,2.38,299.13,-86.33,-151.58
221,52.405193,-1.49877,145.95,11.31,3,62.57,18 / 18,53420,2019-09-04 19:22:13:593,-0.1349,0.1405,8.7943,-0.019,-0.0157,9.8065,-0.0528,-0.0285,0.0226,-19.31,-26.37,3.38,306.03,-86.38,-148.93
222,52.405193,-1.49877,145.95,11.31,3,62.57,18 / 18,53521,2019-09-04 19:22:13:694,0.5354,0.104,9.4227,-0.0314,-0.014,9.8065,-0.0803,0.0549,0.0841,-19.25,-23.31,-0.5,302.38,-86.54,-144.02
223,52.405193,-1.49877,145.95,11.31,3,62.57,18 / 18,53621,2019-09-04 19:22:13:794,0.1048,-0.3324,9.7778,-0.0144,-0.0175,9.8065,-0.0456,-0.0695,-0.0319,-19.5,-23.62,-1.12,301.39,-86.55,-141.83
224,52.405193,-1.49877,145.95,11.31,3,62.57,18 / 18,53720,2019-09-04 19:22:13:893,-0.4588,-0.0288,10.0893,0.0155,-0.0022,9.8066,0.0645,-0.0587,-0.0477,-20.62,-26.19,-3.0,299.94,-86.62,-138.29
225,52.405193,-1.49877,145.95,11.31,3,62.57,18 / 18,53820,2019-09-04 19:22:13:993,0.8875,-0.2753,9.6318,0.0207,0.0069,9.8066,0.0509,-0.0355,-0.0333,-20.69,-26.5,-3.12,297.77,-86.43,-140.17
226,52.405193,-1.49877,145.95,11.31,3,62.57,18 / 18,53920,2019-09-04 19:22:14:093,-0.1677,0.0454,10.1921,0.0099,0.0013,9.8066,0.0253,-0.0149,-0.0272,-21.25,-27.5,-2.06,296.09,-86.23,-144.08
227,52.405193,-1.49877,145.95,11.31,3,62.57,18 / 18,54020,2019-09-04 19:22:14:193,0.4775,0.0399,9.7212,0.0064,0.0097,9.8065,0.0032,-0.0005,-0.017,-21.37,-27.94,-2.62,290.96,-86.16,-146.12
228,52.405193,-1.49877,145.95,11.31,3,62.57,18 / 18,54121,2019-09-04 19:22:14:294,0.3669,-0.2641,9.5873,0.0064,0.0097,9.8065,0.0032,-0.0005,-0.017,-21.37,-27.94,-2.62,290.96,-86.16,-146.12
229,52.405193,-1.49877,145.95,11.31,3,62.57,18 / 18,54220,2019-09-04 19:22:14:393,-0.0514,0.025,9.7211,0.0033,0.0049,9.8066,-0.0094,0.015,0.0042,-21.44,-28.31,-2.5,293.72,-86.16,-146.12
230,52.405193,-1.49877,145.95,11.31,3,62.57,18 / 18,54321,2019-09-04 19:22:14:494,0.3088,0.3273,9.3653,-0.0188,0.0032,9.8066,-0.0314,-0.0285,-0.0201,-21.56,-27.94,-1.5,297.43,-86.27,-145.7
231,52.405193,-1.49877,145.95,11.31,3,62.57,18 / 18,54421,2019-09-04 19:22:14:594,-0.2904,-0.1784,10.0725,-0.0093,-0.0007,9.8066,-0.0037,-0.0018,0.0224,-20.75,-26.87,-2.37,301.38,-86.77,-139.61
232,52.405193,-1.49877,145.95,11.31,3,62.57,18 / 18,54520,2019-09-04 19:22:14:693,-0.0645,-0.8057,10.5123,0.0229,-0.0041,9.8066,0.0811,-0.0239,-0.0332,-21.0,-27.5,-1.94,302.63,-86.57,-138.18
233,52.405193,-1.49877,145.95,11.31,3,62.57,18 / 18,54622,2019-09-04 19:22:14:795,0.9058,0.7653,10.8963,0.0196,0.0057,9.8065,0.0305,-0.0168,-0.0048,-21.25,-27.12,-0.94,302.63,-86.31,-140.6
234,52.405193,-1.49877,145.95,11.31,3,62.57,18 / 18,54720,2019-09-04 19:22:14:893,0.4125,-0.3105,10.0127,-0.0109,-0.0106,9.8066,-0.0384,0.0215,0.0384,-21.0,-27.12,-2.31,297.95,-86.21,-142.26
235,52.405193,-1.49877,145.95,11.31,3,62.57,18 / 18,54821,2019-09-04 19:22:14:994,0.4134,-0.1835,10.3055,-0.0047,0.0018,9.8066,-0.0338,0.0299,0.0042,-21.62,-27.06,-1.94,301.57,-86.29,-139.31
236,52.405193,-1.49877,145.95,11.31,3,62.57,18 / 18,54920,2019-09-04 19:22:15:093,-0.3087,0.2549,9.7795,0.0011,-0.0048,9.8066,0.0198,-0.0505,-0.055,-21.12,-26.94,-2.06,301.3,-86.32,-139.18
237,52.405193,-1.49877,145.95,11.31,3,62.57,18 / 18,55021,2019-09-04 19:22:15:194,0.2111,0.2983,9.4901,0.005,0.0139,9.8066,0.0064,-0.0254,-0.0439,-20.56,-26.87,-2.25,299.58,-86.31,-140.82
238,52.405193,-1.49877,145.95,11.31,3,62.57,18 / 18,55120,2019-09-04 19:22:15:293,-0.1865,0.0925,10.4482,-0.0033,-0.0085,9.8066,-0.0102,0.0241,0.0498,-21.5,-27.19,-1.75,299.33,-86.35,-141.1
239,52.405193,-1.49877,145.95,11.31,3,62.57,18 / 18,55220,2019-09-04 19:22:15:393,-0.4906,-0.2693,10.1582,0.0035,-0.0113,9.8066,0.0324,-0.0062,0.0133,-21.12,-26.62,-2.0,301.11,-86.31,-139.35
240,52.405193,-1.49877,145.95,11.31,3,62.57,18 / 18,55320,2019-09-04 19:22:15:493,-0.1284,0.0743,10.1285,0.0087,-0.0031,9.8066,0.0089,0.0006,0.011,-20.44,-27.0,-1.94,300.48,-86.13,-139.26
241,52.405193,-1.49877,145.95,11.31,3,62.57,18 / 18,55420,2019-09-04 19:22:15:593,-0.3184,0.0704,10.1504,0.0027,-0.0057,9.8065,0.0083,0.0056,0.0137,-20.94,-27.81,-1.75,300.6,-86.04,-139.36
242,52.405193,-1.49877,145.95,11.31,3,62.57,18 / 18,55521,2019-09-04 19:22:15:694,0.1869,-0.2629,9.5343,0.001,-0.002,9.8065,-0.0023,0.0163,-0.0109,-21.25,-26.81,-2.19,300.97,-86.01,-139.15
243,52.405193,-1.49877,145.95,11.31,3,62.57,18 / 18,55620,2019-09-04 19:22:15:793,0.0466,0.3358,9.3435,-0.0234,0.0221,9.8065,-0.0704,0.0556,-0.0117,-21.06,-27.5,-2.94,296.83,-86.25,-140.73
244,52.405193,-1.49877,145.95,11.31,3,62.57,18 / 18,55720,2019-09-04 19:22:15:893,-0.5389,0.3074,9.9859,-0.0205,0.0131,9.8066,-0.0325,-0.0084,-0.0558,-20.75,-27.5,-2.37,299.93,-86.58,-140.79
245,52.405193,-1.49877,145.95,11.31,3,62.57,18 / 18,55821,2019-09-04 19:22:15:994,-0.9403,-0.1617,10.3503,-0.0009,0.0204,9.8066,0.0191,0.0333,-0.0225,-21.0,-27.19,-2.25,298.73,-86.85,-142.25
246,52.405193,-1.49877,145.95,11.31,3,62.57,18 / 18,55920,2019-09-04 19:22:16:093,0.709,0.903,10.4465,0.0253,0.0076,9.8066,0.0652,0.0089,0.0294,-20.56,-27.5,-2.19,292.2,-86.84,-148.58
247,52.405193,-1.49877,145.95,11.31,3,62.57,18 / 18,56020,2019-09-04 19:22:16:193,0.0522,-0.0953,10.4085,0.0277,-0.0074,9.8065,0.0348,0.0277,0.0542,-20.87,-28.44,-2.0,288.56,-86.41,-151.44
248,52.405193,-1.49877,145.95,11.31,3,62.57,18 / 18,56120,2019-09-04 19:22:16:293,0.418,-0.1449,9.622,0.0098,-0.0108,9.8066,-0.0515,-0.006,0.0293,-21.5,-27.37,-1.19,292.44,-86.23,-150.31
249,52.405193,-1.49877,145.95,11.31,3,62.57,18 / 18,56221,2019-09-04 19:22:16:394,0.0554,-0.1689,9.8423,-0.0209,-0.007,9.8066,-0.0614,0.0147,0.0396,-21.12,-27.12,-1.19,297.13,-86.41,-145.98
250,52.405193,-1.49877,145.95,11.31,3,62.57,18 / 18,56321,2019-09-04 19:22:16:494,-0.419,-0.824,10.1161,-0.0104,-0.0054,9.8066,0.0046,0.0047,-0.0092,-21.31,-26.75,-1.5,301.37,-86.55,-142.07
251,52.405193,-1.49877,145.95,11.31,3,62.57,18 / 18,56420,2019-09-04 19:22:16:593,-0.4465,-0.0989,9.8413,0.0095,0.0075,9.8066,0.0265,-0.014,-0.0327,-20.44,-26.5,-2.0,296.75,-86.54,-143.49
252,52.405193,-1.49877,145.95,11.31,3,62.57,18 / 18,56521,2019-09-04 19:22:16:694,-0.5476,0.7328,9.7624,0.0126,0.0029,9.8066,0.0247,0.0179,0.0683,-19.81,-26.5,-2.19,293.67,-86.41,-146.32
253,52.405193,-1.49877,145.95,11.31,3,62.57,18 / 18,56620,2019-09-04 19:22:16:793,-0.1607,-0.8117,9.8916,0.0097,-0.0151,9.8066,0.0156,-0.021,-0.0026,-19.94,-27.44,-2.19,294.87,-86.21,-144.75
254,52.405193,-1.49877,145.95,11.31,3,62.57,18 / 18,56720,2019-09-04 19:22:16:893,-0.2817,-0.431,9.8305,-0.003,-0.0021,9.8066,-0.0089,-0.0212,-0.0035,-19.69,-27.44,-2.37,294.54,-86.19,-145.03
255,52.405193,-1.49877,145.95,11.31,3,62.57,18 / 18,56820,2019-09-04 19:22:16:993,-0.2176,0.0877,9.9715,-0.006,0.0001,9.8066,0.0229,0.0186,0.0063,-19.31,-29.5,-2.94,291.88,-86.23,-143.81
256,52.405193,-1.49877,145.95,11.31,3,62.57,18 / 18,56920,2019-09-04 19:22:17:093,-0.4102,-0.3675,9.5553,0.0006,0.0082,9.8065,0.0118,0.0172,-0.0131,-19.62,-30.81,-1.31,296.41,-86.19,-145.38
257,52.405193,-1.49877,145.95,11.31,3,62.57,18 / 18,57020,2019-09-04 19:22:17:193,-0.6087,-0.2412,9.5425,-0.0022,-0.0005,9.8066,-0.0222,0.0052,0.006,-19.19,-30.12,0.25,299.0,-86.19,-145.68
258,52.405193,-1.49877,145.95,11.31,3,62.57,18 / 18,57121,2019-09-04 19:22:17:294,-0.0795,0.3521,9.183,-0.0063,0.0029,9.8066,-0.0102,0.0121,0.0305,-19.31,-28.56,0.75,302.74,-86.26,-145.41
259,52.405193,-1.49877,145.95,11.31,3,62.57,18 / 18,57221,2019-09-04 19:22:17:394,-0.4101,-0.4777,9.1785,-0.0071,-0.005,9.8066,-0.0274,-0.0234,-0.0181,-19.94,-26.44,1.81,308.34,-86.31,-143.57
260,52.405193,-1.49877,145.95,11.31,3,62.57,17 / 18,57320,2019-09-04 19:22:17:493,-1.0118,-0.0111,10.1147,-0.0095,-0.006,9.8066,-0.0102,-0.0359,-0.0177,-20.62,-25.0,1.38,307.58,-86.44,-141.74
261,52.405193,-1.49877,145.95,11.31,3,62.57,17 / 18,57421,2019-09-04 19:22:17:594,-0.2716,0.5414,10.0409,0.0006,0.0108,9.8066,0.0042,0.005,-0.0257,-20.44,-23.81,0.63,308.38,-86.52,-141.16
262,52.405193,-1.49877,145.95,11.31,3,62.57,17 / 18,57520,2019-09-04 19:22:17:693,-0.4887,-0.8624,10.1825,0.0063,0.0096,9.8066,0.006,-0.013,-0.0681,-21.12,-23.12,-0.69,300.85,-86.59,-143.17
263,52.405193,-1.49877,145.95,11.31,3,62.57,17 / 18,57624,2019-09-04 19:22:17:797,-0.293,0.5435,7.6519,-0.0081,-0.0011,9.8066,-0.0357,-0.0133,0.0115,-20.75,-23.44,-0.87,296.28,-86.68,-147.7
264,52.405193,-1.49877,145.95,11.31,3,62.57,17 / 18,57720,2019-09-04 19:22:17:893,-0.5369,0.4041,9.3383,-0.0272,0.0007,9.8066,-0.0762,-0.0456,-0.0429,-20.31,-24.37,-0.94,300.96,-86.94,-142.99
265,52.405193,-1.49877,145.95,11.31,3,62.57,17 / 18,57820,2019-09-04 19:22:17:993,-1.1744,0.5884,9.358,-0.0309,-0.0116,9.8066,-0.0434,0.0287,0.0982,-20.25,-24.0,-0.94,306.36,-87.19,-138.02
266,52.405193,-1.49877,145.95,11.31,3,62.57,17 / 18,57921,2019-09-04 19:22:18:094,-0.1946,-0.4334,10.3583,0.0004,-0.0225,9.8065,-0.0005,0.0372,0.1033,-20.31,-23.56,-0.75,313.62,-87.0,-130.88
267,52.405193,-1.49877,145.95,11.31,3,62.57,17 / 18,58020,2019-09-04 19:22:18:193,-0.1163,-0.7789,10.9419,0.0143,0.0014,9.8066,0.0318,0.0287,0.0272,-20.12,-23.44,-1.06,315.94,-86.77,-128.57
268,52.405193,-1.49877,145.95,11.31,3,62.57,17 / 18,58121,2019-09-04 19:22:18:294,-0.3517,-0.435,9.8896,0.0209,0.0046,9.8065,0.0254,0.0356,0.044,-20.31,-23.06,-0.44,316.61,-86.65,-130.69
269,52.405193,-1.49877,145.95,11.31,3,62.57,16 / 18,58220,2019-09-04 19:22:18:393,0.2732,-1.5894,9.7079,0.0143,-0.0139,9.8065,0.0072,-0.0107,0.0197,-19.94,-23.25,-0.75,310.28,-86.42,-133.66
270,52.40563,-1.497423,138.64,11.93,3,65.32,16 / 18,58321,2019-09-04 19:22:18:494,-0.3555,-0.3303,9.7225,-0.0002,0.0073,9.8066,-0.0072,0.0522,0.0446,-19.44,-23.62,-0.69,307.98,-86.4,-135.37
271,52.40563,-1.497423,138.64,11.93,3,65.32,16 / 18,58421,2019-09-04 19:22:18:594,-0.607,-1.1498,9.1557,-0.0094,-0.0112,9.8065,-0.0227,-0.0522,-0.0002,-19.44,-23.0,-0.75,310.47,-86.41,-133.16
272,52.40563,-1.497423,138.64,11.93,3,65.32,16 / 18,58520,2019-09-04 19:22:18:693,-0.6159,0.2651,8.9388,-0.0183,0.0012,9.8066,-0.0509,-0.0257,0.008,-19.31,-23.19,-0.56,312.45,-86.54,-131.4
273,52.40563,-1.497423,138.64,11.93,3,65.32,16 / 18,58620,2019-09-04 19:22:18:793,-1.0152,-0.7963,10.4468,-0.0077,-0.014,9.8066,-0.0007,-0.0419,0.0118,-19.12,-22.87,-0.87,318.67,-86.58,-125.54
274,52.40563,-1.497423,138.64,11.93,3,65.32,16 / 18,58720,2019-09-04 19:22:18:893,-0.8578,-0.1891,10.5222,0.0152,-0.003,9.8066,0.0771,-0.0245,-0.0039,-18.87,-22.31,-0.94,317.96,-86.46,-126.23
275,52.40563,-1.497423,138.64,11.93,3,65.32,16 / 18,58820,2019-09-04 19:22:18:993,0.1064,0.1536,9.7415,0.0292,-0.0101,9.8066,0.0497,-0.0121,0.0569,-18.62,-22.37,-1.44,315.17,-86.18,-128.64
276,52.40563,-1.497423,138.64,11.93,3,65.32,16 / 18,58921,2019-09-04 19:22:19:094,-0.3294,-0.2105,9.4822,-0.0014,-0.0066,9.8065,-0.0181,-0.0257,0.0013,-18.81,-22.37,-2.0,310.69,-85.81,-129.56
277,52.40563,-1.497423,138.64,11.93,3,65.32,16 / 18,59021,2019-09-04 19:22:19:194,-0.6677,-0.6796,9.9968,-0.0118,-0.0128,9.8066,-0.0396,-0.0171,0.025,-18.62,-22.37,-1.69,313.65,-85.79,-126.76
278,52.40563,-1.497423,138.64,11.93,3,65.32,16 / 18,59120,2019-09-04 19:22:19:293,0.0811,-0.2991,9.5691,-0.0108,0.0014,9.8066,-0.028,-0.0044,0.0022,-19.31,-21.62,-2.56,312.25,-85.87,-125.2
279,52.40563,-1.497423,138.64,11.93,3,65.32,16 / 18,59221,2019-09-04 19:22:19:394,-0.7154,-0.208,10.5168,-0.0008,0.0074,9.8066,0.0121,0.0135,-0.0085,-19.19,-23.56,-2.94,312.49,-85.94,-124.73
280,52.40563,-1.497423,138.64,11.93,3,65.32,17 / 17,59320,2019-09-04 19:22:19:493,-0.2144,-0.4488,10.5048,0.0082,0.009,9.8066,0.0391,0.0114,0.0058,-19.56,-23.0,-2.62,311.04,-85.97,-126.9
281,52.40563,-1.497423,138.64,11.93,3,65.32,17 / 17,59421,2019-09-04 19:22:19:594,-0.4339,0.0026,9.8373,0.0136,0.006,9.8066,0.0213,-0.0171,-0.0027,-20.31,-22.94,-2.69,307.62,-85.88,-130.07
282,52.40563,-1.497423,138.64,11.93,3,65.32,17 / 17,59520,2019-09-04 19:22:19:693,-0.341,-0.3115,9.6325,0.001,-0.0013,9.8066,-0.0112,0.0128,0.0427,-20.81,-23.25,-2.75,308.03,-85.83,-130.2
283,52.40563,-1.497423,138.64,11.93,3,65.32,17 / 17,59621,2019-09-04 19:22:19:794,-0.6092,-0.5312,9.6331,-0.0154,-0.0187,9.8066,-0.0388,-0.0419,0.0299,-22.25,-23.12,-2.87,312.02,-85.83,-126.92
284,52.40563,-1.497423,138.64,11.93,3,65.32,17 / 17,59721,2019-09-04 19:22:19:894,-1.4578,-0.9566,10.4216,-0.0051,-0.0101,9.8066,0.0317,-0.0233,0.0162,-22.06,-23.37,-3.19,314.45,-85.79,-124.59
285,52.40563,-1.497423,138.64,11.93,3,65.32,17 / 17,59821,2019-09-04 19:22:19:994,-0.3167,-0.5909,9.0748,0.0223,0.0056,9.8066,0.0464,0.0029,0.0391,-22.56,-23.37,-2.31,316.45,-85.67,-125.53
286,52.40563,-1.497423,138.64,11.93,3,65.32,17 / 17,59921,2019-09-04 19:22:20:094,0.6042,-0.3281,9.6841,-0.0008,-0.001,9.8066,-0.0358,-0.0426,-0.0042,-23.5,-23.5,-1.44,315.09,-85.52,-129.17
287,52.40563,-1.497423,138.64,11.93,3,65.32,17 / 17,60020,2019-09-04 19:22:20:193,-0.9553,-0.9602,9.8459,-0.0181,0.0049,9.8066,-0.0466,-0.0309,-0.006,-23.37,-23.31,-2.12,313.61,-85.69,-128.23
288,52.40563,-1.497423,138.64,11.93,3,65.32,17 / 17,60121,2019-09-04 19:22:20:294,-0.5433,-1.2271,8.7464,-0.0099,0.0046,9.8066,-0.0094,-0.0848,-0.0781,-23.81,-23.06,-2.12,315.06,-85.83,-127.29
289,52.40563,-1.497423,138.64,11.93,3,65.32,17 / 17,60220,2019-09-04 19:22:20:393,-0.1003,0.1898,9.6045,-0.0034,0.0137,9.8066,0.0066,-0.031,-0.0073,-23.56,-22.62,-1.5,316.55,-86.07,-128.41
290,52.40563,-1.497423,138.64,11.93,3,65.32,18 / 18,60320,2019-09-04 19:22:20:493,-0.7857,-0.9118,10.1995,0.0006,-0.0041,9.8066,0.0227,-0.0834,-0.045,-23.37,-22.87,-1.31,316.34,-86.05,-128.38
291,52.40563,-1.497423,138.64,11.93,3,65.32,18 / 18,60420,2019-09-04 19:22:20:593,0.3897,-0.9268,10.241,0.0101,0.0071,9.8066,0.0265,-0.0489,-0.0175,-23.62,-22.81,-0.5,316.41,-85.99,-130.87
292,52.40563,-1.497423,138.64,11.93,3,65.32,18 / 18,60520,2019-09-04 19:22:20:693,0.5212,0.526,10.2209,0.0109,0.0074,9.8065,-0.0006,-0.0301,0.0007,-23.44,-22.5,0.5,316.88,-85.96,-132.9
293,52.40563,-1.497423,138.64,11.93,3,65.32,18 / 18,60621,2019-09-04 19:22:20:794,-0.3051,-1.3969,10.0623,0.0029,-0.0039,9.8066,0.0073,-0.014,0.0018,-23.56,-23.0,0.63,316.74,-85.86,-132.86
294,52.40563,-1.497423,138.64,11.93,3,65.32,18 / 18,60721,2019-09-04 19:22:20:894,-0.5773,0.6336,10.0731,-0.0058,0.0059,9.8066,0.0091,-0.1088,-0.0926,-23.5,-22.87,0.31,312.45,-85.93,-134.48
295,52.40563,-1.497423,138.64,11.93,3,65.32,18 / 18,60820,2019-09-04 19:22:20:993,-0.5907,0.2453,8.7942,-0.0028,0.0235,9.8066,-0.0383,-0.0005,-0.0266,-23.25,-23.69,1.31,314.32,-86.02,-135.13
296,52.40563,-1.497423,138.64,11.93,3,65.32,18 / 18,60921,2019-09-04 19:22:21:094,-0.2984,0.7852,10.3887,-0.0148,-0.0016,9.8066,-0.0263,-0.0543,-0.0372,-22.87,-23.25,1.75,316.16,-86.34,-136.22
297,52.40563,-1.497423,138.64,11.93,3,65.32,18 / 18,61020,2019-09-04 19:22:21:193,-0.9712,-0.5259,10.3057,-0.0018,0.0015,9.8066,0.0171,-0.0204,-0.0251,-22.31,-22.94,1.56,318.65,-86.44,-134.04
298,52.40563,-1.497423,138.64,11.93,3,65.32,18 / 18,61121,2019-09-04 19:22:21:294,0.1677,0.1373,9.7805,0.0146,-0.0002,9.8066,0.0423,-0.026,0.0006,-22.75,-23.37,1.19,314.94,-86.32,-134.89
299,52.40563,-1.497423,138.64,11.93,3,65.32,18 / 18,61222,2019-09-04 19:22:21:395,-0.232,0.9369,9.7149,0.0054,-0.0217,9.8066,-0.0028,-0.053,0.0098,-21.94,-22.87,1.19,313.7,-86.18,-135.95
300,52.40563,-1.497423,138.64,11.93,3,65.32,18 / 18,61320,2019-09-04 19:22:21:493,-0.2057,-0.2241,10.1833,0.0009,-0.0223,9.8066,0.0079,-0.0203,0.0473,-22.0,-23.19,0.19,315.28,-85.96,-131.68
301,52.40563,-1.497423,138.64,11.93,3,65.32,18 / 18,61421,2019-09-04 19:22:21:594,-0.5575,-0.1436,10.8798,0.0145,-0.0126,9.8066,0.0627,-0.0122,0.0164,-22.0,-24.62,0.75,319.48,-85.64,-129.82
302,52.40563,-1.497423,138.64,11.93,3,65.32,18 / 18,61520,2019-09-04 19:22:21:693,0.2419,-0.0312,9.0489,0.0164,-0.0213,9.8066,0.0504,-0.1124,-0.0612,-21.44,-24.56,0.75,317.8,-85.36,-131.12
303,52.40563,-1.497423,138.64,11.93,3,65.32,18 / 18,61621,2019-09-04 19:22:21:794,1.0409,-0.093,8.6152,-0.0227,-0.0069,9.8066,-0.1017,0.013,0.0169,-21.62,-25.44,0.56,320.55,-85.18,-128.47
304,52.40563,-1.497423,138.64,11.93,3,65.32,18 / 18,61721,2019-09-04 19:22:21:894,-0.8338,-0.7306,10.3034,-0.053,-0.0017,9.8065,-0.133,-0.005,-0.0119,-22.5,-25.06,0.0,323.46,-85.45,-123.37
305,52.40563,-1.497423,138.64,11.93,3,65.32,18 / 18,61820,2019-09-04 19:22:21:993,0.0784,0.0938,9.8544,-0.0121,0.0027,9.8066,0.0094,0.0269,0.0497,-22.19,-25.75,0.0,329.7,-85.75,-117.69
306,52.40563,-1.497423,138.64,11.93,3,65.32,18 / 18,61921,2019-09-04 19:22:22:094,0.2289,0.0026,10.3071,0.02,0.0107,9.8066,0.0469,0.0134,-0.0165,-23.0,-25.62,0.38,329.27,-85.66,-118.15
307,52.40563,-1.497423,138.64,11.93,3,65.32,18 / 18,62020,2019-09-04 19:22:22:193,0.1414,-0.2661,10.3418,0.0179,0.0003,9.8066,0.0102,0.0142,0.0151,-22.75,-24.81,0.44,324.2,-85.61,-122.93
308,52.40563,-1.497423,138.64,11.93,3,65.32,18 / 18,62120,2019-09-04 19:22:22:293,-0.7227,-0.3039,11.3903,0.0135,0.006,9.8066,0.044,0.0073,-0.0157,-22.37,-24.69,0.38,322.93,-85.56,-123.95
309,52.40563,-1.497423,138.64,11.93,3,65.32,18 / 18,62220,2019-09-04 19:22:22:393,0.7439,0.2543,9.4036,0.0132,-0.0055,9.8066,0.0082,-0.0547,-0.0102,-22.75,-24.75,0.31,319.82,-85.41,-126.87
310,52.40563,-1.497423,138.64,11.93,3,65.32,18 / 18,62320,2019-09-04 19:22:22:493,0.6184,-0.2229,11.0312,-0.0103,-0.0105,9.8066,-0.0597,0.0686,0.1106,-22.94,-24.25,0.5,323.58,-85.25,-125.87
311,52.40563,-1.497423,138.64,11.93,3,65.32,18 / 18,62421,2019-09-04 19:22:22:594,-1.4122,-0.342,9.0894,-0.0145,0.0061,9.8066,-0.0054,0.0925,0.1032,-23.25,-24.94,0.06,323.69,-85.26,-123.16
312,52.40563,-1.497423,138.64,11.93,3,65.32,18 / 18,62521,2019-09-04 19:22:22:694,-0.1503,-0.044,10.3741,0.0041,0.0088,9.8066,-0.0143,0.1682,0.1296,-23.44,-25.12,0.38,324.72,-85.31,-122.25
313,52.40563,-1.497423,138.64,11.93,3,65.32,18 / 18,62620,2019-09-04 19:22:22:793,0.0331,0.6049,10.4219,0.0016,0.0175,9.8066,0.01,-0.0201,-0.0503,-23.12,-25.0,0.81,324.45,-85.52,-125.13
314,52.40563,-1.497423,138.64,11.93,3,65.32,18 / 18,62721,2019-09-04 19:22:22:894,-0.6107,0.0373,9.5739,-0.0001,0.01,9.8066,0.0015,0.0094,-0.0259,-22.56,-25.75,1.19,323.75,-85.6,-125.72
315,52.40563,-1.497423,138.64,11.93,3,65.32,18 / 18,62820,2019-09-04 19:22:22:993,0.0549,-0.1234,9.7975,0.0039,0.0103,9.8066,0.0233,-0.0253,-0.0511,-22.0,-26.06,1.63,324.93,-85.71,-127.29
