,GPS LATITUDE (degrees),GPS LONGITUDE (degrees), GPS ALTITUDE (m),GPS SPEED (Kmh),GPS ACCURACY (m),GPS ORIENTATION (Â°), SATELLITES IN RANGE, TIME SINCE START (ms), DATE (YYYY-MO-DD HH-MI-SS_SSS),ACCELEROMETER X (m/s²) , ACCELEROMETER Y (m/s²), ACCELEROMETER Z (m/s²), GRAVITY X (m/s²), GRAVITY Y (m/s²), GRAVITY Z (m/s²), GYROSCOPE Yaw (rad/s), GYROSCOPE Pitch (rad/s), GYROSCOPE Roll (rad/s)
67611,45.71161,0.076729,163.49,22.84,20.368,155.7,0 / 17,6761046,2019-08-19 00:12:30:579,-0.9135,0.612,9.2429,-1.3381,0.0638,9.7147,-0.0206,0.0162,0.0458
67612,45.71161,0.076729,163.49,22.84,20.368,155.7,0 / 17,6761146,2019-08-19 00:12:30:679,-0.7675,0.8676,9.2423,-1.2322,0.2591,9.7255,-0.0174,0.0162,0.0511
67613,45.71161,0.076729,163.49,22.84,20.368,155.7,0 / 17,6761246,2019-08-19 00:12:30:779,-0.9572,0.8634,10.0636,-1.2196,0.2707,9.7268,-0.0153,-0.0051,0.0533
67614,45.71161,0.076729,163.49,22.84,20.368,155.7,0 / 17,6761346,2019-08-19 00:12:30:879,-0.7986,0.7544,10.1432,-1.1798,0.2877,9.7312,-0.0153,-0.0179,0.0533
67615,45.71161,0.076729,163.49,22.84,20.368,155.7,0 / 17,6761445,2019-08-19 00:12:30:978,-0.8513,0.6485,9.5243,-1.1426,0.3559,9.7334,-0.0174,0.0108,0.0544
67616,45.71161,0.076729,163.49,22.84,20.368,155.7,0 / 17,6761546,2019-08-19 00:12:31:079,-0.8614,0.8352,9.5392,-1.0789,0.4475,9.7368,-0.0345,0.013,0.0565
67617,45.71161,0.076729,163.49,22.84,20.368,155.7,0 / 17,6761646,2019-08-19 00:12:31:179,-0.5215,1.1112,9.532,-1.0625,0.4406,9.739,-0.0281,0.0013,0.0597
67618,45.71161,0.076729,163.49,22.84,20.368,155.7,0 / 17,6761745,2019-08-19 00:12:31:278,-0.7489,0.864,9.5674,-1.0512,0.438,9.7403,-0.0302,0.0108,0.0618
67619,45.71161,0.076729,163.49,22.84,20.368,155.7,0 / 17,6761846,2019-08-19 00:12:31:379,-0.7064,0.7933,9.3489,-0.9971,0.5289,9.7415,-0.0387,0.0215,0.0629
67620,45.71161,0.076729,163.49,22.84,20.368,155.7,0 / 17,6761946,2019-08-19 00:12:31:479,-0.7459,0.8227,9.4506,-0.958,0.5574,9.7438,-0.0217,-0.0147,0.0639
67621,45.71161,0.076729,163.49,22.84,20.368,155.7,0 / 17,6762046,2019-08-19 00:12:31:579,-0.5346,0.8251,10.3616,-0.9207,0.5618,9.7472,-0.01,-0.0339,0.0639
67622,45.71161,0.076729,163.49,22.84,20.368,155.7,0 / 17,6762146,2019-08-19 00:12:31:679,-0.6196,0.8729,9.9528,-0.8788,0.5814,9.7499,0.0049,-0.0009,0.0629
67623,45.71161,0.076729,163.49,22.84,20.368,155.7,0 / 17,6762246,2019-08-19 00:12:31:779,-0.4173,0.7083,9.7361,-0.8672,0.5902,9.7504,-0.0132,0.0076,0.0629
67624,45.71161,0.076729,163.49,22.84,20.368,155.7,0 / 17,6762345,2019-08-19 00:12:31:878,-0.534,0.9633,9.7589,-0.7463,0.6845,9.7542,-0.0068,-0.0051,0.0629
67625,45.71161,0.076729,163.49,22.84,20.368,155.7,0 / 17,6762445,2019-08-19 00:12:31:978,-0.4837,0.9861,9.9091,-0.674,0.7192,9.757,-0.0174,-0.0147,0.0639
67626,45.71161,0.076729,163.49,22.84,20.368,155.7,0 / 17,6762545,2019-08-19 00:12:32:078,-0.4796,0.9926,9.4584,-0.6374,0.7329,9.7584,-0.0185,0.0194,0.0629
67627,45.71161,0.076729,163.49,22.84,20.368,155.7,0 / 17,6762646,2019-08-19 00:12:32:179,-0.3916,0.7897,9.3962,-0.6347,0.7339,9.7585,-0.011,0.0066,0.0639
67628,45.71161,0.076729,163.49,22.84,20.368,155.7,0 / 17,6762746,2019-08-19 00:12:32:279,-0.3748,1.2805,9.4872,-0.6142,0.7409,9.7593,-0.0068,0.0023,0.0682
67629,45.71161,0.076729,163.49,22.84,20.368,155.7,0 / 17,6762845,2019-08-19 00:12:32:378,-0.637,1.2572,9.3836,-0.6046,0.7469,9.7595,-0.0068,-0.0051,0.065
67630,45.71161,0.076729,163.49,22.84,20.368,155.7,0 / 17,6762945,2019-08-19 00:12:32:478,-0.5328,0.9376,9.9576,-0.5816,0.7453,9.761,-0.01,-0.0019,0.0671
67631,45.71161,0.076729,163.49,22.84,20.368,155.7,0 / 17,6763045,2019-08-19 00:12:32:578,-0.5586,0.7766,9.6499,-0.5669,0.7836,9.7588,0.0028,0.0076,0.0682
67632,45.71161,0.076729,163.49,22.84,20.368,155.7,0 / 17,6763146,2019-08-19 00:12:32:679,-0.5233,0.8849,9.4291,-0.5784,0.7857,9.758,-0.0025,0.0172,0.0703
67633,45.71161,0.076729,163.49,22.84,20.368,155.7,0 / 17,6763245,2019-08-19 00:12:32:778,-0.6855,1.0591,9.7224,-0.5756,0.7896,9.7579,-0.0121,-0.0073,0.0693
67634,45.71161,0.076729,163.49,22.84,20.368,155.7,0 / 17,6763345,2019-08-19 00:12:32:878,-0.6328,1.1297,9.893,-0.5332,0.7763,9.7613,-0.0334,-0.0392,0.0682
67635,45.71161,0.076729,163.49,22.84,20.368,155.7,Aug-17,6763445,2019-08-19 00:12:32:978,-0.7453,0.8484,10.1952,-0.5125,0.7695,9.763,-0.0195,-0.0222,0.065
67636,45.71161,0.076729,163.49,22.84,20.368,155.7,Aug-17,6763546,2019-08-19 00:12:33:079,-0.6208,0.7359,10.0791,-0.4934,0.7539,9.7652,-0.0153,-0.0158,0.0693
67637,45.71161,0.076729,163.49,22.84,20.368,155.7,Aug-17,6763646,2019-08-19 00:12:33:179,-0.7088,0.828,10.0761,-0.4954,0.7521,9.7652,-0.0068,0.0013,0.0693
67638,45.71161,0.076729,163.49,22.84,20.368,155.7,Aug-17,6763746,2019-08-19 00:12:33:279,-0.7088,0.6263,9.4165,-0.4996,0.7655,9.764,0.006,0.0013,0.0639
67639,45.71161,0.076729,163.49,22.84,20.368,155.7,Aug-17,6763846,2019-08-19 00:12:33:379,-0.5634,0.6132,9.4117,-0.5091,0.772,9.763,0.0103,0.0087,0.0607
67640,45.71161,0.076729,163.49,22.84,20.368,155.7,Aug-17,6763945,2019-08-19 00:12:33:478,-0.8967,0.8825,9.7296,-0.5248,0.7701,9.7623,-0.0089,0.0055,0.0597
67641,45.71161,0.076729,163.49,22.84,20.368,155.7,Aug-17,6764045,2019-08-19 00:12:33:578,-0.6938,0.4594,8.9856,-0.548,0.7673,9.7612,-0.0259,0.0002,0.0586
67642,45.71161,0.076729,163.49,22.84,20.368,155.7,Aug-17,6764145,2019-08-19 00:12:33:678,-0.713,0.6832,9.3166,-0.5356,0.7477,9.7634,-0.0185,-0.0137,0.0522
67643,45.71161,0.076729,163.49,22.84,20.368,155.7,Aug-17,6764245,2019-08-19 00:12:33:778,-0.3257,0.7502,9.62,-0.5263,0.7343,9.765,-0.0036,-0.003,0.049
67644,45.71161,0.076729,163.49,22.84,20.368,155.7,Aug-17,6764345,2019-08-19 00:12:33:878,-0.6807,0.4689,9.972,-0.5219,0.723,9.766,-0.01,-0.0147,0.0501
67645,45.710075,0.077788,167.51,20.61,8.576,147.9,0 / 17,6764445,2019-08-19 00:12:33:978,-0.4335,0.448,10.6088,-0.4991,0.7171,9.7677,0.0049,-0.0232,0.0511
67646,45.710075,0.077788,167.51,20.61,8.576,147.9,0 / 17,6764545,2019-08-19 00:12:34:078,-0.704,0.9316,10.1545,-0.4995,0.7049,9.7685,-0.0004,-0.003,0.0554
67647,45.710075,0.077788,167.51,20.61,8.576,147.9,0 / 17,6764646,2019-08-19 00:12:34:179,-0.4652,0.7071,10.288,-0.5087,0.7158,9.7673,0.0156,0.0108,0.0629
67648,45.710075,0.077788,167.51,20.61,8.576,147.9,0 / 17,6764745,2019-08-19 00:12:34:278,-0.8979,0.6593,9.6452,-0.5178,0.7461,9.7645,0.0049,-0.0083,0.0661
67649,45.710075,0.077788,167.51,20.61,8.576,147.9,0 / 17,6764847,2019-08-19 00:12:34:380,-0.7124,0.9657,10.2545,-0.4939,0.7529,9.7652,0.0007,-0.0232,0.0661
67650,45.710075,0.077788,167.51,20.61,8.576,147.9,0 / 17,6764946,2019-08-19 00:12:34:479,-0.7603,0.8969,9.8882,-0.5004,0.7655,9.7639,0.0007,0.0076,0.065
67651,45.710075,0.077788,167.51,20.61,8.576,147.9,0 / 17,6765046,2019-08-19 00:12:34:579,-0.7196,1.0615,9.6236,-0.5201,0.7932,9.7607,0.022,0.013,0.0757
67652,45.710075,0.077788,167.51,20.61,8.576,147.9,0 / 17,6765146,2019-08-19 00:12:34:679,-0.6998,1.0812,9.6206,-0.529,0.8055,9.7592,-0.011,0.0002,0.0778
67653,45.710075,0.077788,167.51,20.61,8.576,147.9,0 / 17,6765246,2019-08-19 00:12:34:779,-0.7262,1.1327,9.6547,-0.5596,0.8533,9.7534,0.0007,-0.0041,0.0746
67654,45.710075,0.077788,167.51,20.61,8.576,147.9,0 / 17,6765346,2019-08-19 00:12:34:879,-0.7884,1.1495,9.2591,-0.6437,0.9474,9.7395,-0.0206,0.013,0.0735
67655,45.710075,0.077788,167.51,20.61,8.576,147.9,0 / 17,6765445,2019-08-19 00:12:34:978,-1.02,1.1237,9.7475,-0.7065,0.9854,9.7314,-0.011,-0.0051,0.0757
67656,45.710075,0.077788,167.51,20.61,8.576,147.9,0 / 17,6765545,2019-08-19 00:12:35:078,-0.9123,1.2189,9.9486,-0.6974,0.9876,9.7318,-0.0014,-0.0137,0.0767
67657,45.710075,0.077788,167.51,20.61,8.576,147.9,0 / 17,6765646,2019-08-19 00:12:35:179,-0.8016,1.1543,10.0558,-0.6846,1.0045,9.731,-0.0025,-0.0083,0.0788
67658,45.710075,0.077788,167.51,20.61,8.576,147.9,0 / 17,6765746,2019-08-19 00:12:35:279,-0.9428,1.444,9.7972,-0.7075,1.0319,9.7265,-0.0004,-0.0041,0.0799
67659,45.710075,0.077788,167.51,20.61,8.576,147.9,0 / 17,6765845,2019-08-19 00:12:35:378,-1.0422,1.2291,10.0169,-0.7424,1.0692,9.7199,0.0007,-0.0158,0.0799
67660,45.710075,0.077788,167.51,20.61,8.576,147.9,0 / 17,6765945,2019-08-19 00:12:35:478,-0.9823,1.189,9.9307,-0.7385,1.0863,9.7183,-0.0068,-0.0243,0.081
67661,45.710075,0.077788,167.51,20.61,8.576,147.9,0 / 17,6766045,2019-08-19 00:12:35:578,-1.1194,1.1842,9.7966,-0.7603,1.1291,9.7117,-0.0132,0.0023,0.0788
67662,45.710075,0.077788,167.51,20.61,8.576,147.9,0 / 17,6766145,2019-08-19 00:12:35:678,-0.7268,1.4116,9.9959,-0.7687,1.123,9.7118,-0.0281,0.013,0.081
67663,45.710075,0.077788,167.51,20.61,8.576,147.9,0 / 17,6766246,2019-08-19 00:12:35:779,-0.8698,1.3242,9.4147,-0.7729,1.1105,9.7129,-0.0238,0.0023,0.082
67664,45.710075,0.077788,167.51,20.61,8.576,147.9,0 / 17,6766346,2019-08-19 00:12:35:879,-0.9949,1.3823,9.635,-0.8022,1.1528,9.7056,-0.0142,-0.0051,0.0863
67665,45.710075,0.077788,167.51,20.61,8.576,147.9,0 / 17,6766445,2019-08-19 00:12:35:978,-0.9009,1.3392,10.0989,-0.8003,1.1685,9.7038,-0.0228,-0.0222,0.0906
67666,45.710075,0.077788,167.51,20.61,8.576,147.9,0 / 17,6766546,2019-08-19 00:12:36:079,-1.1481,1.3805,9.4458,-0.7871,1.1673,9.7051,-0.0132,0.0066,0.0895
67667,45.710075,0.077788,167.51,20.61,8.576,147.9,0 / 17,6766646,2019-08-19 00:12:36:179,-0.8866,1.4458,9.6865,-0.8028,1.1852,9.7016,0.0092,0.0098,0.0938
67668,45.710075,0.077788,167.51,20.61,8.576,147.9,0 / 17,6766746,2019-08-19 00:12:36:279,-1.2206,1.4068,9.8936,-0.7902,1.1975,9.7011,-0.0014,-0.0158,0.0938
67669,45.710075,0.077788,167.51,20.61,8.576,147.9,0 / 17,6766845,2019-08-19 00:12:36:378,-1.2511,1.2123,9.8056,-0.7749,1.2098,9.7008,-0.0078,-0.0147,0.0884
67670,45.710075,0.077788,167.51,20.61,8.576,147.9,0 / 17,6766945,2019-08-19 00:12:36:478,-1.3864,1.3135,9.7188,-0.7874,1.2246,9.698,0.0145,0.0098,0.0884
67671,45.710075,0.077788,167.51,20.61,8.576,147.9,0 / 17,6767045,2019-08-19 00:12:36:578,-1.3606,1.3638,9.7529,-0.8541,1.2385,9.6906,0.0018,-0.003,0.0916
67672,45.710075,0.077788,167.51,20.61,8.576,147.9,0 / 17,6767145,2019-08-19 00:12:36:678,-1.1182,1.4338,9.9468,-0.9515,1.2524,9.6797,-0.0121,-0.0083,0.0884
67673,45.710075,0.077788,167.51,20.61,8.576,147.9,0 / 17,6767245,2019-08-19 00:12:36:778,-1.4971,1.3117,9.5243,-1.0528,1.2445,9.6702,-0.0217,0.0034,0.0778
67674,45.710075,0.077788,167.51,20.61,8.576,147.9,0 / 17,6767346,2019-08-19 00:12:36:879,-0.9769,1.0052,9.6104,-1.0531,1.2244,9.6728,-0.0291,-0.0041,0.0693
67675,45.710075,0.077788,167.51,20.61,8.576,147.9,0 / 17,6767446,2019-08-19 00:12:36:979,-0.8656,0.7036,9.9492,-1.0186,1.1843,9.6814,-0.0153,-0.0211,0.0565
67676,45.710075,0.077788,167.51,20.61,8.576,147.9,0 / 17,6767545,2019-08-19 00:12:37:078,-0.8967,0.5048,9.9139,-1.0076,1.1686,9.6845,0.0028,0.0013,0.0554
67677,45.710075,0.077788,167.51,20.61,8.576,147.9,0 / 17,6767646,2019-08-19 00:12:37:179,-0.8064,0.5455,9.7745,-0.9957,1.1069,9.693,0.0199,0.0013,0.0586
67678,45.710075,0.077788,167.51,20.61,8.576,147.9,0 / 17,6767746,2019-08-19 00:12:37:279,-1.0021,0.6383,9.7882,-0.9712,1.0249,9.7045,0.0348,0.0055,0.0575
67679,45.710075,0.077788,167.51,20.61,8.576,147.9,0 / 17,6767846,2019-08-19 00:12:37:379,-0.7752,0.682,9.9834,-0.9589,0.949,9.7134,0.0081,-0.0019,0.0554
67680,45.710075,0.077788,167.51,20.61,8.576,147.9,0 / 17,6767946,2019-08-19 00:12:37:479,-0.9135,0.7227,9.3758,-0.9463,0.9446,9.7151,-0.0014,-0.0062,0.0533
67681,45.710075,0.077788,167.51,20.61,8.576,147.9,0 / 17,6768046,2019-08-19 00:12:37:579,-0.9344,0.7341,9.9379,-0.9427,0.947,9.7152,0.006,0.0055,0.0533
67682,45.710075,0.077788,167.51,20.61,8.576,147.9,0 / 17,6768146,2019-08-19 00:12:37:679,-0.6687,0.6904,10.1731,-0.9061,0.8701,9.7259,-0.0078,-0.019,0.0554
67683,45.710075,0.077788,167.51,20.61,8.576,147.9,0 / 17,6768246,2019-08-19 00:12:37:779,-0.9147,0.7419,9.562,-0.8552,0.8449,9.7327,0.0039,-0.0137,0.0544
67684,45.710075,0.077788,167.51,20.61,8.576,147.9,0 / 17,6768345,2019-08-19 00:12:37:878,-0.6441,0.5707,9.9516,-0.8369,0.8329,9.7353,0.0092,0.0045,0.0565
67685,45.710075,0.077788,167.51,20.61,8.576,147.9,0 / 17,6768446,2019-08-19 00:12:37:979,-0.8159,0.5497,9.7314,-0.8242,0.8607,9.734,0.0273,0.0023,0.0639
67686,45.710075,0.077788,167.51,20.61,8.576,147.9,0 / 17,6768545,2019-08-19 00:12:38:078,-0.8943,0.7963,9.8014,-0.7993,0.8983,9.7327,0.0231,-0.0201,0.0682
67687,45.710075,0.077788,167.51,20.61,8.576,147.9,0 / 17,6768645,2019-08-19 00:12:38:178,-0.4113,0.9933,10.0282,-0.7749,0.92,9.7326,0.0135,-0.0158,0.065
67688,45.710075,0.077788,167.51,20.61,8.576,147.9,0 / 17,6768745,2019-08-19 00:12:38:278,-0.5735,0.84,9.8205,-0.7399,0.9482,9.7326,0.0028,-0.0147,0.065
67689,45.710075,0.077788,167.51,20.61,8.576,147.9,0 / 17,6768845,2019-08-19 00:12:38:378,-0.2449,1.1674,10.024,-0.7043,0.9601,9.7341,-0.0014,-0.0339,0.0661
67690,45.710075,0.077788,167.51,20.61,8.576,147.9,0 / 17,6768946,2019-08-19 00:12:38:479,-0.4083,1.0681,10.4149,-0.6415,0.9725,9.7372,0.0028,-0.0147,0.065
67691,45.710075,0.077788,167.51,20.61,8.576,147.9,0 / 17,6769045,2019-08-19 00:12:38:578,-0.1964,1.3925,10.024,-0.6112,0.98,9.7384,-0.0068,-0.0137,0.065
67692,45.710075,0.077788,167.51,20.61,8.576,147.9,0 / 17,6769146,2019-08-19 00:12:38:679,-0.3239,1.2231,9.948,-0.5142,1.0025,9.7417,-0.0121,-0.0158,0.065
67693,45.710075,0.077788,167.51,20.61,8.576,147.9,0 / 17,6769246,2019-08-19 00:12:38:779,-0.2437,1.1453,9.805,-0.4956,1.0065,9.7423,-0.0036,-0.003,0.0661
67694,45.710075,0.077788,167.51,20.61,8.576,147.9,0 / 17,6769346,2019-08-19 00:12:38:879,-0.212,1.0423,9.6781,-0.4727,1.016,9.7424,0.0007,-0.0009,0.0618
67695,45.710075,0.077788,167.51,20.61,8.576,147.9,0 / 17,6769445,2019-08-19 00:12:38:978,-0.0749,1.2458,9.298,-0.3935,1.0275,9.7447,-0.0046,-0.003,0.0597
67696,45.710075,0.077788,167.51,20.61,8.576,147.9,0 / 17,6769546,2019-08-19 00:12:39:079,-0.0049,0.8909,9.6703,-0.3508,1.0207,9.7471,-0.0142,0.0066,0.0554
67697,45.710075,0.077788,167.51,20.61,8.576,147.9,0 / 17,6769645,2019-08-19 00:12:39:178,-0.0719,0.8209,9.3962,-0.3381,1.0091,9.7487,-0.0174,0.0076,0.0511
67698,45.710075,0.077788,167.51,20.61,8.576,147.9,0 / 17,6769746,2019-08-19 00:12:39:279,0.0005,1.0022,9.7846,-0.2995,1.0116,9.7497,0.0177,-0.0296,0.0522
67699,45.710075,0.077788,167.51,20.61,8.576,147.9,0 / 17,6769846,2019-08-19 00:12:39:379,-0.0043,1.0561,10.2455,-0.2833,1.0159,9.7498,0.0081,0.0076,0.0554
67700,45.710075,0.077788,167.51,20.61,8.576,147.9,0 / 17,6769946,2019-08-19 00:12:39:479,-0.112,0.8191,9.7804,-0.2772,1.047,9.7467,0.0273,0.0055,0.0511
67701,45.710075,0.077788,167.51,20.61,8.576,147.9,0 / 17,6770045,2019-08-19 00:12:39:578,0.043,1.0232,9.7343,-0.2811,1.058,9.7454,0.0167,0.0226,0.0522
67702,45.710075,0.077788,167.51,20.61,8.576,147.9,0 / 17,6770145,2019-08-19 00:12:39:678,-0.558,0.7263,9.4482,-0.2835,1.0724,9.7437,0.0241,0.0098,0.0511
67703,45.710075,0.077788,167.51,20.61,8.576,147.9,0 / 17,6770245,2019-08-19 00:12:39:778,-0.5233,1.0651,10.0079,-0.2811,1.0922,9.7416,0.0422,-0.0009,0.0522
67704,45.710075,0.077788,167.51,20.61,8.576,147.9,0 / 17,6770346,2019-08-19 00:12:39:879,-0.6029,0.9603,9.052,-0.3241,1.1439,9.7343,0.0571,0.0492,0.0533
67705,45.710075,0.077788,167.51,20.61,8.576,147.9,0 / 17,6770446,2019-08-19 00:12:39:979,-0.6376,0.9849,9.9115,-0.3413,1.1792,9.7295,0.0369,0.0034,0.0544
67706,45.710075,0.077788,167.51,20.61,8.576,147.9,0 / 17,6770546,2019-08-19 00:12:40:079,-0.5963,1.2847,10.5603,-0.3128,1.2143,9.7262,0.0422,-0.0318,0.0458
67707,45.710075,0.077788,167.51,20.61,8.576,147.9,0 / 17,6770645,2019-08-19 00:12:40:178,-0.4999,1.1088,10.5819,-0.3061,1.2275,9.7247,0.0177,-0.0115,0.0458
67708,45.710075,0.077788,167.51,20.61,8.576,147.9,0 / 17,6770745,2019-08-19 00:12:40:278,-0.6591,1.0591,10.0073,-0.3233,1.2455,9.7219,0.0039,0.0087,0.0437
67709,45.710075,0.077788,167.51,20.61,8.576,147.9,0 / 17,6770846,2019-08-19 00:12:40:379,-0.6902,0.7802,10.5873,-0.3153,1.2412,9.7227,0.0145,-0.0179,0.0384
67710,45.710075,0.077788,167.51,20.61,8.576,147.9,0 / 17,6770945,2019-08-19 00:12:40:478,-0.4077,0.8807,10.0306,-0.3032,1.2503,9.7219,0.0294,-0.0094,0.0256
67711,45.710075,0.077788,167.51,20.61,8.576,147.9,0 / 17,6771045,2019-08-19 00:12:40:578,-0.5807,0.3151,9.8283,-0.307,1.2603,9.7205,0.0497,0.0066,0.0256
67712,45.710075,0.077788,167.51,20.61,8.576,147.9,0 / 17,6771146,2019-08-19 00:12:40:679,-0.3575,0.6682,10.0528,-0.3226,1.2943,9.7155,0.071,0.0087,0.0213
67713,45.710075,0.077788,167.51,20.61,8.576,147.9,0 / 17,6771245,2019-08-19 00:12:40:778,-0.6591,0.7227,9.7786,-0.3419,1.1891,9.7283,0.0263,-0.0041,0.0213
67714,45.710075,0.077788,167.51,20.61,8.576,147.9,0 / 17,6771345,2019-08-19 00:12:40:878,-0.2802,0.8969,10.3072,-0.3348,1.1321,9.7353,-0.011,-0.0147,0.0171
67715,45.710075,0.077788,167.51,20.61,8.576,147.9,0 / 17,6771446,2019-08-19 00:12:40:979,-0.5502,0.5348,9.1873,-0.3323,1.115,9.7374,-0.0036,-0.003,0.0139
67716,45.710075,0.077788,167.51,20.61,8.576,147.9,0 / 17,6771545,2019-08-19 00:12:41:078,-0.4197,0.6024,9.9265,-0.3399,1.0834,9.7407,-0.0025,0.013,0.016
67717,45.710075,0.077788,167.51,20.61,8.576,147.9,0 / 17,6771645,2019-08-19 00:12:41:178,-0.6118,0.4659,10.1731,-0.3457,1.0688,9.7421,0.0071,0.0066,0.0192
67718,45.710075,0.077788,167.51,20.61,8.576,147.9,0 / 17,6771745,2019-08-19 00:12:41:278,-0.1701,0.6473,9.9145,-0.333,1.0562,9.7439,0.0028,-0.0115,0.016
67719,45.710075,0.077788,167.51,20.61,8.576,147.9,0 / 17,6771846,2019-08-19 00:12:41:379,-0.4927,0.6563,9.6164,-0.3267,0.9929,9.7508,-0.0057,-0.0019,0.0149
67720,45.710075,0.077788,167.51,20.61,8.576,147.9,0 / 17,6771946,2019-08-19 00:12:41:479,-0.2509,0.7089,9.5967,-0.3307,0.9008,9.7596,0.0071,0.0045,0.0075
67721,45.710075,0.077788,167.51,20.61,8.576,147.9,0 / 17,6772046,2019-08-19 00:12:41:579,-0.2054,0.3827,10.1731,-0.3409,0.8794,9.7612,-0.0132,0.014,0.0085
67722,45.710075,0.077788,167.51,20.61,8.576,147.9,0 / 17,6772145,2019-08-19 00:12:41:678,-0.1162,-0.1069,8.1871,-0.3578,0.8762,9.7609,0.0422,0.0289,-0.0032
67723,45.710075,0.077788,167.51,20.61,8.576,147.9,0 / 17,6772246,2019-08-19 00:12:41:779,-0.9776,0.0014,9.2346,-0.3721,0.8792,9.7601,0.0263,-0.0254,-0.0021
67724,45.710075,0.077788,167.51,20.61,8.576,147.9,0 / 17,6772345,2019-08-19 00:12:41:878,-0.218,0.606,10.045,-0.3584,0.8536,9.7629,-0.0142,-0.0286,-0.0085
67725,45.710075,0.077788,167.51,20.61,8.576,147.9,Sep-17,6772446,2019-08-19 00:12:41:979,-0.9147,0.3803,9.6087,-0.3594,0.8086,9.7666,-0.0153,0.0087,-0.0096
67726,45.710075,0.077788,167.51,20.61,8.576,147.9,Sep-17,6772545,2019-08-19 00:12:42:078,-0.2581,0.2014,9.6889,-0.3774,0.7771,9.7685,-0.0185,0.0098,-0.0096
67727,45.710075,0.077788,167.51,20.61,8.576,147.9,Sep-17,6772645,2019-08-19 00:12:42:178,-0.7549,0.3935,9.5249,-0.3884,0.7404,9.7709,-0.0259,0.0066,-0.0085
67728,45.710075,0.077788,167.51,20.61,8.576,147.9,Sep-17,6772745,2019-08-19 00:12:42:278,-0.6561,0.0853,10.2084,-0.394,0.6857,9.7747,-0.0153,-0.019,-0.0074
67729,45.710075,0.077788,167.51,20.61,8.576,147.9,Sep-17,6772845,2019-08-19 00:12:42:378,-0.8513,-0.0039,9.9995,-0.3937,0.6364,9.7781,-0.0238,-0.0083,-0.0042
67730,45.710075,0.077788,167.51,20.61,8.576,147.9,Sep-17,6772945,2019-08-19 00:12:42:478,-0.6448,0.1236,10.5328,-0.465,0.5131,9.7822,0.0028,-0.0201,-0.0042
67731,45.710075,0.077788,167.51,20.61,8.576,147.9,Sep-17,6773046,2019-08-19 00:12:42:579,-0.7627,-0.0632,10.8776,-0.4937,0.4507,9.7838,0.0294,-0.0051,-0.0032
67732,45.710075,0.077788,167.51,20.61,8.576,147.9,Sep-17,6773145,2019-08-19 00:12:42:678,-0.446,-0.1027,9.7942,-0.5101,0.4599,9.7826,0.0252,0.0194,-0.0032
67733,45.710075,0.077788,167.51,20.61,8.576,147.9,Sep-17,6773245,2019-08-19 00:12:42:778,-0.5915,0.0847,9.2136,-0.5314,0.459,9.7815,0.0103,0.0226,-0.0042
67734,45.710075,0.077788,167.51,20.61,8.576,147.9,Sep-17,6773346,2019-08-19 00:12:42:879,-0.6633,0.3013,9.7463,-0.5571,0.455,9.7802,0.0039,0.0066,-0.0064
67735,45.708942,0.079717,159.44,22.81,6.432,118.8,0 / 17,6773446,2019-08-19 00:12:42:979,-0.604,-0.1404,9.1376,-0.6338,0.394,9.7782,-0.0036,0.014,-0.0042
67736,45.708942,0.079717,159.44,22.81,6.432,118.8,0 / 17,6773545,2019-08-19 00:12:43:078,-0.5645,0.248,9.5093,-0.6874,0.3399,9.7766,0.0007,0.0226,-0.0053
67737,45.708942,0.079717,159.44,22.81,6.432,118.8,0 / 17,6773646,2019-08-19 00:12:43:179,-0.7836,0.2684,9.5524,-0.7461,0.2886,9.774,0.0018,0.0098,-0.0032
67738,45.708942,0.079717,159.44,22.81,6.432,118.8,0 / 17,6773745,2019-08-19 00:12:43:278,-0.4508,0.2337,10.3227,-0.753,0.2877,9.7735,0.0039,0.0013,-0.0053
67739,45.708942,0.079717,159.44,22.81,6.432,118.8,0 / 17,6773845,2019-08-19 00:12:43:378,-0.7244,0.0613,9.5374,-0.7582,0.2694,9.7736,0.0007,0.0066,-0.0032
67740,45.708942,0.079717,159.44,22.81,6.432,118.8,0 / 17,6773946,2019-08-19 00:12:43:479,-0.5723,0.248,9.386,-0.7828,0.2485,9.7722,0.0081,-0.0073,-0.0032
67741,45.708942,0.079717,159.44,22.81,6.432,118.8,0 / 17,6774045,2019-08-19 00:12:43:578,-0.9572,0.2744,10.2054,-0.7658,0.2384,9.7738,-0.01,-0.0126,-0.0074
67742,45.708942,0.079717,159.44,22.81,6.432,118.8,0 / 17,6774145,2019-08-19 00:12:43:678,-0.7285,0.0912,10.5101,-0.766,0.2204,9.7742,-0.0228,-0.0115,-0.0117
67743,45.708942,0.079717,159.44,22.81,6.432,118.8,0 / 17,6774245,2019-08-19 00:12:43:778,-0.9674,-0.1213,9.8014,-0.7629,0.2106,9.7747,0.0188,0.0002,-0.0138
67744,45.708942,0.079717,159.44,22.81,6.432,118.8,0 / 17,6774346,2019-08-19 00:12:43:879,-0.7046,0.0637,9.9839,-0.7628,0.2008,9.7749,0.0007,-0.0073,-0.0106
67745,45.708942,0.079717,159.44,22.81,6.432,118.8,0 / 17,6774446,2019-08-19 00:12:43:979,-0.8315,0.0356,9.8391,-0.7477,0.1902,9.7763,-0.0078,-0.0201,-0.0117
67746,45.708942,0.079717,159.44,22.81,6.432,118.8,0 / 17,6774546,2019-08-19 00:12:44:079,-1.1637,0.1685,10.0983,-0.7391,0.1738,9.7772,-0.0132,-0.0147,-0.0128
67747,45.708942,0.079717,159.44,22.81,6.432,118.8,0 / 17,6774645,2019-08-19 00:12:44:178,-0.7112,-0.0069,9.8487,-0.7427,0.1391,9.7775,0.0007,-0.0051,-0.0117
67748,45.708942,0.079717,159.44,22.81,6.432,118.8,0 / 17,6774746,2019-08-19 00:12:44:279,-0.8339,-0.3307,9.8181,-0.7713,0.0955,9.7758,0.0124,-0.0051,-0.0117
67749,45.708942,0.079717,159.44,22.81,6.432,118.8,0 / 17,6774846,2019-08-19 00:12:44:379,-0.616,-0.1769,10.1078,-0.7911,0.097,9.7742,0.0422,0.0002,-0.0096
67750,45.708942,0.079717,159.44,22.81,6.432,118.8,0 / 17,6774945,2019-08-19 00:12:44:478,-0.7262,0.1828,9.7738,-0.7946,0.1213,9.7737,0.0412,0.0013,-0.0085
67751,45.708942,0.079717,159.44,22.81,6.432,118.8,0 / 17,6775045,2019-08-19 00:12:44:578,-0.698,0.2576,10.1665,-0.791,0.1606,9.7734,0.0316,-0.0094,-0.0085
67752,45.708942,0.079717,159.44,22.81,6.432,118.8,0 / 17,6775145,2019-08-19 00:12:44:678,-0.6681,0.0128,10.0857,-0.7862,0.1684,9.7736,0.0081,-0.0019,-0.0117
67753,45.708942,0.079717,159.44,22.81,6.432,118.8,0 / 17,6775245,2019-08-19 00:12:44:778,-0.5645,0.2834,9.5296,-0.7622,0.1552,9.7758,-0.0132,-0.0051,-0.0138
67754,45.708942,0.079717,159.44,22.81,6.432,118.8,0 / 17,6775346,2019-08-19 00:12:44:879,-0.6238,0.2989,9.875,-0.7495,0.1719,9.7765,-0.0132,-0.0051,-0.0117
67755,45.708942,0.079717,159.44,22.81,6.432,118.8,0 / 17,6775446,2019-08-19 00:12:44:979,-0.5747,0.6036,9.9959,-0.7442,0.1515,9.7772,-0.0164,-0.0041,-0.0064
67756,45.708942,0.079717,159.44,22.81,6.432,118.8,0 / 17,6775546,2019-08-19 00:12:45:079,-0.6825,0.3127,9.9738,-0.7338,0.1415,9.7781,-0.0195,-0.0083,-0.0032
67757,45.708942,0.079717,159.44,22.81,6.432,118.8,0 / 17,6775646,2019-08-19 00:12:45:179,-0.5574,0.4049,9.8499,-0.724,0.1432,9.7788,-0.0068,-0.0073,0.0
67758,45.708942,0.079717,159.44,22.81,6.432,118.8,0 / 17,6775745,2019-08-19 00:12:45:278,-0.798,0.6509,9.8708,-0.719,0.1606,9.7789,0.0177,-0.0019,0.0022
67759,45.708942,0.079717,159.44,22.81,6.432,118.8,0 / 17,6775845,2019-08-19 00:12:45:378,-0.8578,0.3606,9.6434,-0.6895,0.2199,9.7799,0.0007,0.0002,0.0096
67760,45.708942,0.079717,159.44,22.81,6.432,118.8,0 / 17,6775945,2019-08-19 00:12:45:478,-0.7046,0.5539,9.9259,-0.6896,0.2381,9.7795,0.0092,-0.0009,0.0107
67761,45.708942,0.079717,159.44,22.81,6.432,118.8,0 / 17,6776046,2019-08-19 00:12:45:579,-0.4083,1.0154,9.6003,-0.6868,0.2585,9.7792,-0.0014,0.0045,0.0139
67762,45.708942,0.079717,159.44,22.81,6.432,118.8,0 / 17,6776146,2019-08-19 00:12:45:679,-0.5029,0.7706,9.7703,-0.6891,0.2672,9.7788,-0.0132,0.0076,0.0181
67763,45.708942,0.079717,159.44,22.81,6.432,118.8,0 / 17,6776246,2019-08-19 00:12:45:779,-0.476,0.9274,9.2364,-0.6976,0.2944,9.7774,-0.01,0.0087,0.0181
67764,45.708942,0.079717,159.44,22.81,6.432,118.8,0 / 17,6776346,2019-08-19 00:12:45:879,-0.8872,0.8568,9.4231,-0.6904,0.3488,9.7761,-0.0025,0.0013,0.0171
67765,45.708942,0.079717,159.44,22.81,6.432,118.8,0 / 17,6776446,2019-08-19 00:12:45:979,-0.7363,0.5533,9.9833,-0.6802,0.3639,9.7763,0.006,-0.0051,0.0139
67766,45.708942,0.079717,159.44,22.81,6.432,118.8,0 / 17,6776546,2019-08-19 00:12:46:079,-0.7112,0.3815,9.8158,-0.6922,0.3844,9.7746,0.0049,0.0162,0.0139
67767,45.708942,0.079717,159.44,22.81,6.432,118.8,0 / 17,6776646,2019-08-19 00:12:46:179,-0.813,0.5964,9.2388,-0.7107,0.3907,9.7731,-0.0036,0.0236,0.0128
67768,45.708942,0.079717,159.44,22.81,6.432,118.8,0 / 17,6776746,2019-08-19 00:12:46:279,-0.8076,0.4025,9.8259,-0.7247,0.4482,9.7696,0.0188,-0.0062,0.0096
67769,45.708942,0.079717,159.44,22.81,6.432,118.8,0 / 17,6776846,2019-08-19 00:12:46:379,-0.8261,0.3851,10.7585,-0.7172,0.4751,9.7688,0.0337,-0.0147,0.0117
67770,45.708942,0.079717,159.44,22.81,6.432,118.8,0 / 17,6776946,2019-08-19 00:12:46:479,-1.0105,0.6042,10.3688,-0.7052,0.4974,9.7686,0.0284,-0.019,0.0107
67771,45.708942,0.079717,159.44,22.81,6.432,118.8,0 / 17,6777045,2019-08-19 00:12:46:578,-0.8249,0.5916,9.8774,-0.6999,0.5293,9.7673,0.0156,0.0034,0.0043
67772,45.708942,0.079717,159.44,22.81,6.432,118.8,0 / 17,6777146,2019-08-19 00:12:46:679,-0.7603,0.4671,9.2118,-0.7108,0.5394,9.766,-0.0046,0.0002,0.0011
67773,45.708942,0.079717,159.44,22.81,6.432,118.8,0 / 17,6777245,2019-08-19 00:12:46:778,-0.8764,0.7389,9.5949,-0.7117,0.5221,9.7668,-0.0259,-0.0105,0.0011
67774,45.708942,0.079717,159.44,22.81,6.432,118.8,0 / 17,6777345,2019-08-19 00:12:46:878,-0.777,0.4031,9.957,-0.7535,0.515,9.7641,-0.0078,0.0002,-0.0021
67775,45.708942,0.079717,159.44,22.81,6.432,118.8,0 / 17,6777445,2019-08-19 00:12:46:978,-0.8261,0.3007,9.796,-0.7758,0.4824,9.764,0.0103,0.0023,-0.0011
67776,45.708942,0.079717,159.44,22.81,6.432,118.8,0 / 17,6777545,2019-08-19 00:12:47:078,-0.8189,0.4899,9.9025,-0.7793,0.4756,9.7641,0.0231,-0.0094,0.0022
67777,45.708942,0.079717,159.44,22.81,6.432,118.8,0 / 17,6777645,2019-08-19 00:12:47:178,-0.9027,0.2403,10.2365,-0.7659,0.4982,9.764,0.0294,-0.0126,0.0022
67778,45.708942,0.079717,159.44,22.81,6.432,118.8,0 / 17,6777745,2019-08-19 00:12:47:278,-0.8967,0.3408,10.3556,-0.7607,0.5184,9.7633,0.0199,-0.0019,0.0
67779,45.708942,0.079717,159.44,22.81,6.432,118.8,0 / 17,6777845,2019-08-19 00:12:47:378,-0.8129,0.3157,9.5602,-0.7683,0.5238,9.7625,0.0113,0.0087,-0.0021
67780,45.708942,0.079717,159.44,22.81,6.432,118.8,0 / 17,6777945,2019-08-19 00:12:47:478,-0.6064,0.776,9.3417,-0.7874,0.5208,9.7611,-0.0025,0.0119,-0.0011
67781,45.708942,0.079717,159.44,22.81,6.432,118.8,0 / 17,6778045,2019-08-19 00:12:47:578,-0.9273,0.7018,9.0634,-0.8089,0.5082,9.76,-0.0121,0.0098,0.0
67782,45.708942,0.079717,159.44,22.81,6.432,118.8,0 / 17,6778145,2019-08-19 00:12:47:678,-0.9943,0.5533,9.2214,-0.8335,0.5015,9.7583,-0.0068,0.0098,-0.0011
67783,45.708942,0.079717,159.44,22.81,6.432,118.8,0 / 17,6778245,2019-08-19 00:12:47:778,-0.7788,0.8161,9.3297,-0.8495,0.4858,9.7577,-0.0238,0.0023,-0.0011
67784,45.708942,0.079717,159.44,22.81,6.432,118.8,0 / 17,6778346,2019-08-19 00:12:47:879,-0.9728,0.4456,9.8499,-0.8484,0.4603,9.759,-0.0164,-0.0051,0.0
67785,45.708942,0.079717,159.44,22.81,6.432,118.8,0 / 17,6778445,2019-08-19 00:12:47:978,-0.7824,0.3654,10.2545,-0.8464,0.4501,9.7597,-0.0078,-0.0083,0.0011
67786,45.708942,0.079717,159.44,22.81,6.432,118.8,0 / 17,6778545,2019-08-19 00:12:48:078,-0.9315,0.199,10.4915,-0.8325,0.4516,9.7608,0.0156,-0.0115,0.0022
67787,45.708942,0.079717,159.44,22.81,6.432,118.8,0 / 17,6778645,2019-08-19 00:12:48:178,-0.6753,0.5988,9.9223,-0.8318,0.4423,9.7613,0.006,-0.0094,0.0011
67788,45.708942,0.079717,159.44,22.81,6.432,118.8,0 / 17,6778746,2019-08-19 00:12:48:279,-1.0105,0.5437,9.474,-0.8406,0.4346,9.7609,-0.0004,0.0023,0.0011
67789,45.708942,0.079717,159.44,22.81,6.432,118.8,0 / 17,6778846,2019-08-19 00:12:48:379,-0.7268,0.3576,9.8002,-0.8466,0.4329,9.7604,-0.0014,0.0066,-0.0011
67790,45.708942,0.079717,159.44,22.81,6.432,118.8,0 / 17,6778945,2019-08-19 00:12:48:478,-1.0153,0.3336,9.459,-0.8525,0.4332,9.7599,-0.0046,0.0045,0.0
67791,45.708942,0.079717,159.44,22.81,6.432,118.8,0 / 17,6779045,2019-08-19 00:12:48:578,-0.8548,0.3025,9.5183,-0.8601,0.4323,9.7593,0.0071,0.0108,-0.0021
67792,45.708942,0.079717,159.44,22.81,6.432,118.8,0 / 17,6779145,2019-08-19 00:12:48:678,-0.8393,0.4773,9.4357,-0.8624,0.4439,9.7586,0.0018,-0.003,-0.0021
67793,45.708942,0.079717,159.44,22.81,6.432,118.8,0 / 17,6779245,2019-08-19 00:12:48:778,-0.7872,0.436,10.303,-0.8575,0.4631,9.7581,0.039,-0.0094,-0.0011
67794,45.708942,0.079717,159.44,22.81,6.432,118.8,0 / 17,6779345,2019-08-19 00:12:48:878,-0.7369,0.0224,10.4179,-0.8589,0.4902,9.7567,0.0358,0.0066,0.0
67795,45.708942,0.079717,159.44,22.81,6.432,118.8,0 / 17,6779446,2019-08-19 00:12:48:979,-0.4317,0.2828,9.9821,-0.8554,0.5113,9.7559,0.0188,-0.0019,-0.0042
67796,45.708942,0.079717,159.44,22.81,6.432,118.8,0 / 17,6779546,2019-08-19 00:12:49:079,-0.6256,0.3342,9.8678,-0.8682,0.5393,9.7532,0.0337,0.0183,-0.0074
67797,45.708942,0.079717,159.44,22.81,6.432,118.8,0 / 17,6779646,2019-08-19 00:12:49:179,-0.8004,0.184,9.4315,-0.8778,0.5437,9.7521,0.0252,0.0236,-0.0064
67798,45.708942,0.079717,159.44,22.81,6.432,118.8,0 / 17,6779746,2019-08-19 00:12:49:279,-0.807,0.521,9.9019,-0.876,0.5485,9.752,-0.01,-0.0211,-0.0064
67799,45.708942,0.079717,159.44,22.81,6.432,118.8,0 / 17,6779846,2019-08-19 00:12:49:379,-0.7459,0.5396,10.1408,-0.8604,0.5301,9.7544,-0.0249,-0.0222,-0.0064
67800,45.708942,0.079717,159.44,22.81,6.432,118.8,0 / 17,6779945,2019-08-19 00:12:49:478,-0.795,0.1259,10.3479,-0.8466,0.4914,9.7577,-0.0259,-0.0073,-0.0085
67801,45.708942,0.079717,159.44,22.81,6.432,118.8,0 / 17,6780046,2019-08-19 00:12:49:579,-0.7866,0.5258,9.7116,-0.8449,0.4577,9.7595,-0.0142,-0.003,-0.0074
67802,45.708942,0.079717,159.44,22.81,6.432,118.8,0 / 17,6780146,2019-08-19 00:12:49:679,-0.9153,0.4468,9.8666,-0.85,0.438,9.7599,-0.0036,0.0087,-0.0042
67803,45.708942,0.079717,159.44,22.81,6.432,118.8,0 / 17,6780245,2019-08-19 00:12:49:778,-0.7884,0.4174,9.4195,-0.862,0.4284,9.7593,-0.0174,0.014,-0.0032
67804,45.708942,0.079717,159.44,22.81,6.432,118.8,0 / 17,6780345,2019-08-19 00:12:49:878,-0.7615,0.4342,8.6576,-0.8825,0.4117,9.7582,-0.0174,0.0194,-0.0053
67805,45.708942,0.079717,159.44,22.81,6.432,118.8,0 / 17,6780446,2019-08-19 00:12:49:979,-0.9237,0.3905,9.4542,-0.8843,0.3877,9.759,-0.0068,0.0055,-0.0042
67806,45.708942,0.079717,159.44,22.81,6.432,118.8,0 / 17,6780545,2019-08-19 00:12:50:078,-0.8369,0.3923,10.1593,-0.8792,0.387,9.7595,0.0103,-0.0094,-0.0032
67807,45.708942,0.079717,159.44,22.81,6.432,118.8,0 / 17,6780645,2019-08-19 00:12:50:178,-1.1152,0.178,10.3455,-0.8641,0.3887,9.7608,0.0081,-0.0232,-0.0011
67808,45.708942,0.079717,159.44,22.81,6.432,118.8,0 / 17,6780746,2019-08-19 00:12:50:279,-0.9638,0.6078,10.1174,-0.848,0.3878,9.7622,-0.0174,-0.003,-0.0042
67809,45.708942,0.079717,159.44,22.81,6.432,118.8,0 / 17,6780845,2019-08-19 00:12:50:378,-1.0093,0.375,9.6188,-0.8545,0.3763,9.7621,-0.0153,0.014,-0.0064
67810,45.708942,0.079717,159.44,22.81,6.432,118.8,0 / 17,6780946,2019-08-19 00:12:50:479,-0.7357,0.2379,9.5368,-0.8684,0.3584,9.7615,-0.0046,0.0076,-0.0064
67811,45.708942,0.079717,159.44,22.81,6.432,118.8,0 / 17,6781045,2019-08-19 00:12:50:578,-1.0314,0.2295,10.0049,-0.856,0.368,9.7623,0.022,-0.0179,-0.0011
67812,45.708942,0.079717,159.44,22.81,6.432,118.8,0 / 17,6781146,2019-08-19 00:12:50:679,-0.8034,0.4216,10.0522,-0.8375,0.3826,9.7633,0.0241,-0.0243,0.0043
67813,45.708942,0.079717,159.44,22.81,6.432,118.8,0 / 17,6781246,2019-08-19 00:12:50:779,-0.953,0.5982,10.0486,-0.8197,0.4071,9.7639,0.0188,-0.0201,0.0085
67814,45.708942,0.079717,159.44,22.81,6.432,118.8,0 / 17,6781346,2019-08-19 00:12:50:879,-0.452,0.6168,10.0085,-0.8301,0.4456,9.7613,0.0252,0.0162,0.0085
67815,45.708942,0.079717,159.44,22.81,6.432,118.8,Dec-17,6781446,2019-08-19 00:12:50:979,-0.9943,0.6718,9.5548,-0.842,0.4686,9.7592,0.0103,0.0066,0.0107
67816,45.708942,0.079717,159.44,22.81,6.432,118.8,Dec-17,6781545,2019-08-19 00:12:51:078,-0.8674,0.6365,9.7547,-0.8454,0.4815,9.7583,-0.0014,-0.003,0.0085
67817,45.708942,0.079717,159.44,22.81,6.432,118.8,Dec-17,6781645,2019-08-19 00:12:51:178,-0.9979,0.6174,9.8068,-0.8281,0.577,9.7546,-0.0121,-0.0051,0.0096
67818,45.708942,0.079717,159.44,22.81,6.432,118.8,Dec-17,6781745,2019-08-19 00:12:51:278,-0.786,0.8113,9.8283,-0.8202,0.5761,9.7553,-0.0153,-0.0105,0.0085
67819,45.708942,0.079717,159.44,22.81,6.432,118.8,Dec-17,6781846,2019-08-19 00:12:51:379,-1.0069,0.7778,10.2186,-0.8144,0.5776,9.7557,0.0007,-0.003,0.0085
67820,45.708942,0.079717,159.44,22.81,6.432,118.8,Dec-17,6781946,2019-08-19 00:12:51:479,-0.5227,0.5186,10.5897,-0.8068,0.6079,9.7545,0.022,0.0045,0.0107
67821,45.708942,0.079717,159.44,22.81,6.432,118.8,Dec-17,6782045,2019-08-19 00:12:51:578,-0.7549,0.3408,9.8888,-0.8414,0.6854,9.7464,0.0614,0.0353,0.0107
67822,45.708942,0.079717,159.44,22.81,6.432,118.8,Dec-17,6782145,2019-08-19 00:12:51:678,-0.2144,0.7491,9.0873,-0.8346,0.7252,9.7441,0.0529,-0.0137,0.0117
67823,45.708942,0.079717,159.44,22.81,6.432,118.8,Dec-17,6782246,2019-08-19 00:12:51:779,-0.7112,0.8197,10.7453,-0.8046,0.758,9.7441,0.0263,-0.0222,-0.0011
67824,45.708942,0.079717,159.44,22.81,6.432,118.8,Dec-17,6782346,2019-08-19 00:12:51:879,-0.4065,0.8185,10.3359,-0.7792,0.7673,9.7455,0.0028,-0.0286,-0.0011
67825,45.70804,0.081912,148.96,21.87,8.576,119.9,0 / 17,6782446,2019-08-19 00:12:51:979,-0.8734,0.5886,10.6471,-0.7556,0.7842,9.746,0.0199,-0.0158,0.0043
67826,45.70804,0.081912,148.96,21.87,8.576,119.9,0 / 17,6782546,2019-08-19 00:12:52:079,-0.7351,0.4857,9.3034,-0.7475,0.7895,9.7462,-0.0036,-0.0094,0.0053
67827,45.70804,0.081912,148.96,21.87,8.576,119.9,0 / 17,6782645,2019-08-19 00:12:52:178,-0.6561,0.5545,8.6336,-0.7536,0.8222,9.743,0.0422,0.0183,0.0022
67828,45.70804,0.081912,148.96,21.87,8.576,119.9,0 / 17,6782746,2019-08-19 00:12:52:279,-0.9135,1.0705,9.4219,-0.755,0.8396,9.7414,0.0316,0.0002,0.0053
67829,45.70804,0.081912,148.96,21.87,8.576,119.9,0 / 17,6782846,2019-08-19 00:12:52:379,-0.7447,0.9448,9.6416,-0.7391,0.8543,9.7414,-0.0153,-0.0126,0.0053
67830,45.70804,0.081912,148.96,21.87,8.576,119.9,0 / 17,6782945,2019-08-19 00:12:52:478,-0.9692,1.3536,9.6924,-0.7335,0.8349,9.7435,-0.0409,-0.0051,0.0
67831,45.70804,0.081912,148.96,21.87,8.576,119.9,0 / 17,6783045,2019-08-19 00:12:52:578,-0.646,1.0058,9.8277,-0.735,0.7868,9.7474,-0.0451,0.0023,0.0
67832,45.70804,0.081912,148.96,21.87,8.576,119.9,0 / 17,6783146,2019-08-19 00:12:52:679,-0.7818,0.8173,9.6613,-0.7316,0.7579,9.7499,-0.0398,-0.0041,0.0011
67833,45.70804,0.081912,148.96,21.87,8.576,119.9,0 / 17,6783245,2019-08-19 00:12:52:778,-0.5035,0.9897,9.7391,-0.7316,0.7173,9.753,-0.0345,0.0002,0.0032
67834,45.70804,0.081912,148.96,21.87,8.576,119.9,0 / 17,6783345,2019-08-19 00:12:52:878,-0.9003,1.0226,9.7661,-0.7277,0.6954,9.7549,-0.0302,-0.0083,0.0022
67835,45.70804,0.081912,148.96,21.87,8.576,119.9,0 / 17,6783446,2019-08-19 00:12:52:979,-1.0763,0.6587,9.8996,-0.7266,0.6653,9.757,-0.0451,-0.0051,0.0011
67836,45.70804,0.081912,148.96,21.87,8.576,119.9,0 / 17,6783546,2019-08-19 00:12:53:079,-0.7968,0.4893,9.8696,-0.7281,0.638,9.7588,-0.0345,-0.0073,0.0022
67837,45.70804,0.081912,148.96,21.87,8.576,119.9,0 / 17,6783645,2019-08-19 00:12:53:178,-0.938,0.3139,9.5326,-0.7334,0.6061,9.7604,-0.0164,0.0023,0.0022
67838,45.70804,0.081912,148.96,21.87,8.576,119.9,0 / 17,6783745,2019-08-19 00:12:53:278,-0.5244,0.5587,9.6284,-0.7351,0.5979,9.7608,0.0028,-0.0019,0.0032
67839,45.70804,0.081912,148.96,21.87,8.576,119.9,0 / 17,6783845,2019-08-19 00:12:53:378,-1.0153,0.4456,9.6003,-0.7484,0.5882,9.7603,0.0103,0.0066,0.0043
67840,45.70804,0.081912,148.96,21.87,8.576,119.9,0 / 17,6783945,2019-08-19 00:12:53:478,-0.7932,0.7293,9.2884,-0.7576,0.5935,9.7593,-0.0025,0.0034,0.0032
67841,45.70804,0.081912,148.96,21.87,8.576,119.9,0 / 17,6784046,2019-08-19 00:12:53:579,-0.7351,0.7706,9.2322,-0.7711,0.5811,9.759,-0.0068,-0.003,0.0011
67842,45.70804,0.081912,148.96,21.87,8.576,119.9,0 / 17,6784146,2019-08-19 00:12:53:679,-0.7507,0.5545,10.1515,-0.775,0.5695,9.7594,-0.0089,0.0013,0.0011
67843,45.70804,0.081912,148.96,21.87,8.576,119.9,0 / 17,6784247,2019-08-19 00:12:53:780,-0.8722,0.6084,10.0115,-0.7822,0.5559,9.7596,0.0007,-0.0051,0.0022
67844,45.70804,0.081912,148.96,21.87,8.576,119.9,0 / 17,6784345,2019-08-19 00:12:53:878,-0.8848,0.3845,9.7296,-0.7754,0.5564,9.7601,0.0039,-0.0137,0.0022
67845,45.70804,0.081912,148.96,21.87,8.576,119.9,0 / 17,6784445,2019-08-19 00:12:53:978,-0.8758,0.3079,9.9337,-0.794,0.542,9.7594,-0.0153,0.0034,0.0011
67846,45.70804,0.081912,148.96,21.87,8.576,119.9,0 / 17,6784546,2019-08-19 00:12:54:079,-0.9686,0.6072,9.6733,-0.8041,0.5265,9.7594,-0.0323,-0.0062,0.0
67847,45.70804,0.081912,148.96,21.87,8.576,119.9,0 / 17,6784646,2019-08-19 00:12:54:179,-0.6771,0.7712,9.7786,-0.8178,0.5168,9.7588,-0.0398,-0.0009,0.0011
67848,45.70804,0.081912,148.96,21.87,8.576,119.9,0 / 17,6784746,2019-08-19 00:12:54:279,-0.8231,0.2678,9.4147,-0.8109,0.4689,9.7618,-0.0174,-0.0009,-0.0021
67849,45.70804,0.081912,148.96,21.87,8.576,119.9,0 / 17,6784845,2019-08-19 00:12:54:378,-0.5747,0.2846,9.5213,-0.8211,0.4477,9.762,-0.0185,0.014,-0.0032
67850,45.70804,0.081912,148.96,21.87,8.576,119.9,0 / 17,6784945,2019-08-19 00:12:54:478,-0.9602,0.3408,9.3345,-0.8406,0.4255,9.7613,-0.0228,0.0247,-0.0053
67851,45.70804,0.081912,148.96,21.87,8.576,119.9,0 / 17,6785045,2019-08-19 00:12:54:578,-0.6053,0.1044,9.6559,-0.8422,0.4112,9.7618,0.0007,-0.0137,-0.0053
67852,45.70804,0.081912,148.96,21.87,8.576,119.9,0 / 17,6785146,2019-08-19 00:12:54:679,-0.6926,0.1236,10.1952,-0.827,0.4285,9.7623,0.0273,-0.0115,-0.0032
67853,45.70804,0.081912,148.96,21.87,8.576,119.9,0 / 17,6785246,2019-08-19 00:12:54:779,-1.0153,0.0757,9.9019,-0.8206,0.4449,9.7621,0.0358,-0.0019,-0.0032
67854,45.70804,0.081912,148.96,21.87,8.576,119.9,0 / 17,6785346,2019-08-19 00:12:54:879,-0.7848,0.1702,9.5973,-0.8314,0.4578,9.7606,0.0252,0.0183,-0.0053
67855,45.70804,0.081912,148.96,21.87,8.576,119.9,0 / 17,6785445,2019-08-19 00:12:54:978,-0.8351,0.336,9.4997,-0.843,0.4528,9.7599,-0.0046,0.0023,-0.0096
67856,45.70804,0.081912,148.96,21.87,8.576,119.9,0 / 17,6785546,2019-08-19 00:12:55:079,-0.6136,0.3109,9.6499,-0.848,0.4466,9.7597,0.0071,0.0076,-0.0106
67857,45.70804,0.081912,148.96,21.87,8.576,119.9,0 / 17,6785646,2019-08-19 00:12:55:179,-0.8752,0.0637,9.3668,-0.8351,0.4263,9.7617,0.0081,0.0119,-0.0085
67858,45.70804,0.081912,148.96,21.87,8.576,119.9,0 / 17,6785745,2019-08-19 00:12:55:278,-0.5298,0.1553,9.4046,-0.8339,0.4296,9.7617,0.0124,-0.003,-0.0053
67859,45.70804,0.081912,148.96,21.87,8.576,119.9,0 / 17,6785845,2019-08-19 00:12:55:378,-0.5161,0.1541,10.024,-0.8279,0.4295,9.7622,0.006,0.0002,-0.0074
67860,45.70804,0.081912,148.96,21.87,8.576,119.9,0 / 17,6785946,2019-08-19 00:12:55:479,-0.704,0.5294,9.3818,-0.8226,0.4134,9.7633,-0.0089,-0.0009,-0.0085
67861,45.70804,0.081912,148.96,21.87,8.576,119.9,0 / 17,6786046,2019-08-19 00:12:55:579,-0.5562,0.6521,10.1521,-0.812,0.4002,9.7648,-0.0132,-0.0126,-0.0053
67862,45.70804,0.081912,148.96,21.87,8.576,119.9,0 / 17,6786146,2019-08-19 00:12:55:679,-0.8471,0.3498,9.5129,-0.8065,0.3944,9.7655,0.0007,-0.0009,-0.0053
67863,45.70804,0.081912,148.96,21.87,8.576,119.9,0 / 17,6786246,2019-08-19 00:12:55:779,-0.6597,0.5306,9.4494,-0.8047,0.3898,9.7658,-0.0004,0.0076,-0.0042
67864,45.70804,0.081912,148.96,21.87,8.576,119.9,0 / 17,6786346,2019-08-19 00:12:55:879,-0.868,0.5557,9.4919,-0.7818,0.3742,9.7683,-0.011,0.0087,-0.0032
67865,45.70804,0.081912,148.96,21.87,8.576,119.9,0 / 17,6786445,2019-08-19 00:12:55:978,-0.9357,0.6239,9.9594,-0.7592,0.349,9.771,-0.0121,-0.0062,-0.0053
67866,45.70804,0.081912,148.96,21.87,8.576,119.9,0 / 17,6786546,2019-08-19 00:12:56:079,-0.5041,0.4887,9.699,-0.734,0.3268,9.7737,-0.0217,-0.0137,-0.0042
67867,45.70804,0.081912,148.96,21.87,8.576,119.9,0 / 17,6786646,2019-08-19 00:12:56:179,-0.6897,0.3654,10.0791,-0.7187,0.3224,9.775,-0.0014,-0.0147,-0.0042
67868,45.70804,0.081912,148.96,21.87,8.576,119.9,0 / 17,6786746,2019-08-19 00:12:56:279,-0.5119,0.363,9.878,-0.7049,0.3294,9.7757,0.0071,0.0076,-0.0021
67869,45.70804,0.081912,148.96,21.87,8.576,119.9,0 / 17,6786846,2019-08-19 00:12:56:379,-0.7675,0.366,10.0558,-0.7113,0.3424,9.7748,0.0273,0.0108,0.0
67870,45.70804,0.081912,148.96,21.87,8.576,119.9,0 / 17,6786945,2019-08-19 00:12:56:478,-0.3754,0.3444,9.9558,-0.7,0.3548,9.7752,0.0103,0.0002,-0.0021
67871,45.70804,0.081912,148.96,21.87,8.576,119.9,0 / 17,6787045,2019-08-19 00:12:56:578,-0.6861,0.4103,8.7994,-0.7097,0.359,9.7743,-0.0089,0.0268,-0.0021
67872,45.70804,0.081912,148.96,21.87,8.576,119.9,0 / 17,6787145,2019-08-19 00:12:56:678,-0.6364,0.4659,9.2022,-0.7226,0.3455,9.7739,-0.0164,0.0045,-0.0011
67873,45.70804,0.081912,148.96,21.87,8.576,119.9,0 / 17,6787245,2019-08-19 00:12:56:778,-0.5705,0.5731,9.8553,-0.7162,0.3497,9.7742,0.0049,-0.0051,0.0022
67874,45.70804,0.081912,148.96,21.87,8.576,119.9,0 / 17,6787346,2019-08-19 00:12:56:879,-0.6531,0.4707,10.0468,-0.7048,0.3538,9.7749,0.0018,-0.0019,0.0064
67875,45.70804,0.081912,148.96,21.87,8.576,119.9,0 / 17,6787446,2019-08-19 00:12:56:979,-0.3646,0.4133,9.8714,-0.6955,0.3643,9.7752,0.0103,-0.0062,0.0043
67876,45.70804,0.081912,148.96,21.87,8.576,119.9,0 / 17,6787546,2019-08-19 00:12:57:079,-0.7441,0.1714,9.7511,-0.6954,0.3839,9.7744,0.0049,0.014,0.0022
67877,45.70804,0.081912,148.96,21.87,8.576,119.9,0 / 17,6787646,2019-08-19 00:12:57:179,-0.3233,0.5988,9.2986,-0.7087,0.3927,9.7731,0.0049,0.0194,0.0032
67878,45.70804,0.081912,148.96,21.87,8.576,119.9,0 / 17,6787745,2019-08-19 00:12:57:278,-0.7483,0.4755,9.6972,-0.7019,0.4072,9.773,-0.0046,-0.0126,0.0032
67879,45.70804,0.081912,148.96,21.87,8.576,119.9,0 / 17,6787845,2019-08-19 00:12:57:378,-0.5621,0.4863,10.4957,-0.6815,0.4151,9.7741,0.006,-0.0307,0.0043
67880,45.70804,0.081912,148.96,21.87,8.576,119.9,0 / 17,6787946,2019-08-19 00:12:57:479,-0.5915,0.3995,10.0851,-0.6502,0.4305,9.7756,0.0103,-0.0073,0.0032
67881,45.70804,0.081912,148.96,21.87,8.576,119.9,0 / 17,6788046,2019-08-19 00:12:57:579,-0.9386,0.5228,9.2627,-0.6528,0.4507,9.7745,0.0241,0.0119,0.0043
67882,45.70804,0.081912,148.96,21.87,8.576,119.9,0 / 17,6788146,2019-08-19 00:12:57:679,-0.4945,0.5066,10.0779,-0.6702,0.455,9.7731,-0.0057,0.0183,0.0032
67883,45.70804,0.081912,148.96,21.87,8.576,119.9,0 / 17,6788246,2019-08-19 00:12:57:779,-0.9686,0.5108,9.2082,-0.6752,0.4441,9.7733,-0.0323,0.0066,0.0011
67884,45.70804,0.081912,148.96,21.87,8.576,119.9,0 / 17,6788345,2019-08-19 00:12:57:878,-0.6501,0.6509,9.6751,-0.6753,0.4196,9.7744,-0.027,-0.0009,0.0022
67885,45.70804,0.081912,148.96,21.87,8.576,119.9,0 / 17,6788445,2019-08-19 00:12:57:978,-1.0123,0.3708,9.9085,-0.6823,0.4183,9.7739,0.006,0.0098,0.0043
67886,45.70804,0.081912,148.96,21.87,8.576,119.9,0 / 17,6788545,2019-08-19 00:12:58:078,-0.8004,0.3462,9.9391,-0.6865,0.4279,9.7732,0.0113,0.0034,0.0043
67887,45.70804,0.081912,148.96,21.87,8.576,119.9,0 / 17,6788645,2019-08-19 00:12:58:178,-0.5143,0.2912,10.2042,-0.6767,0.4416,9.7733,0.0167,-0.0158,0.0053
67888,45.70804,0.081912,148.96,21.87,8.576,119.9,0 / 17,6788745,2019-08-19 00:12:58:278,-0.8004,0.7018,10.3257,-0.6538,0.463,9.7739,0.0199,-0.0222,0.0043
67889,45.70804,0.081912,148.96,21.87,8.576,119.9,0 / 17,6788845,2019-08-19 00:12:58:378,-0.4861,0.6413,10.0707,-0.6467,0.4836,9.7734,0.0135,0.0023,0.0043
67890,45.70804,0.081912,148.96,21.87,8.576,119.9,0 / 17,6788945,2019-08-19 00:12:58:478,-0.7782,0.5928,8.9688,-0.6572,0.4948,9.7721,0.0092,0.0194,0.0022
67891,45.70804,0.081912,148.96,21.87,8.576,119.9,0 / 17,6789045,2019-08-19 00:12:58:578,-0.5197,0.6401,9.4034,-0.6756,0.5059,9.7703,0.0081,0.0098,0.0053
67892,45.70804,0.081912,148.96,21.87,8.576,119.9,0 / 17,6789145,2019-08-19 00:12:58:678,-0.5472,0.4773,9.7242,-0.6839,0.4996,9.77,-0.0142,0.014,0.0043
67893,45.70804,0.081912,148.96,21.87,8.576,119.9,0 / 17,6789246,2019-08-19 00:12:58:779,-0.692,0.7077,9.9373,-0.6889,0.4996,9.7697,-0.0036,0.0013,0.0
67894,45.70804,0.081912,148.96,21.87,8.576,119.9,0 / 17,6789346,2019-08-19 00:12:58:879,-0.7441,0.4552,9.9821,-0.6732,0.5061,9.7704,0.0092,-0.0201,0.0043
67895,45.70804,0.081912,148.96,21.87,8.576,119.9,0 / 17,6789445,2019-08-19 00:12:58:978,-0.7878,0.457,9.7858,-0.6725,0.512,9.7702,0.0039,0.0162,0.0043
67896,45.70804,0.081912,148.96,21.87,8.576,119.9,0 / 17,6789545,2019-08-19 00:12:59:078,-0.7226,0.688,9.9181,-0.6973,0.5208,9.768,-0.0046,-0.0051,0.0032
67897,45.70804,0.081912,148.96,21.87,8.576,119.9,0 / 17,6789646,2019-08-19 00:12:59:179,-0.8638,0.6078,9.6188,-0.6708,0.5437,9.7686,-0.0014,-0.0094,0.0043
67898,45.70804,0.081912,148.96,21.87,8.576,119.9,0 / 17,6789746,2019-08-19 00:12:59:279,-0.6465,0.5383,9.9792,-0.6752,0.5491,9.768,0.0145,-0.0009,0.0053
67899,45.70804,0.081912,148.96,21.87,8.576,119.9,0 / 17,6789845,2019-08-19 00:12:59:378,-0.6633,0.6329,9.5051,-0.6741,0.5564,9.7676,0.0081,0.0087,0.0053
67900,45.70804,0.081912,148.96,21.87,8.576,119.9,0 / 17,6789945,2019-08-19 00:12:59:478,-0.637,0.527,9.5877,-0.6928,0.5575,9.7662,-0.0004,-0.0009,0.0022
67901,45.70804,0.081912,148.96,21.87,8.576,119.9,0 / 17,6790045,2019-08-19 00:12:59:578,-0.534,0.834,9.4321,-0.6818,0.5348,9.7683,-0.0132,0.0076,-0.0053
67902,45.70804,0.081912,148.96,21.87,8.576,119.9,0 / 17,6790146,2019-08-19 00:12:59:679,-0.7052,0.0942,9.8002,-0.702,0.5542,9.7658,0.0369,0.0322,-0.0096
67903,45.70804,0.081912,148.96,21.87,8.576,119.9,0 / 17,6790246,2019-08-19 00:12:59:779,-0.5729,0.19,9.6901,-0.6904,0.5365,9.7676,-0.0228,-0.0254,-0.0053
67904,45.70804,0.081912,148.96,21.87,8.576,119.9,0 / 17,6790345,2019-08-19 00:12:59:878,-0.5472,0.2798,10.0318,-0.6796,0.5237,9.7691,-0.0014,-0.0019,-0.0117
67905,45.70804,0.081912,148.96,21.87,8.576,119.9,Nov-17,6790445,2019-08-19 00:12:59:978,-0.6292,0.0721,9.2771,-0.7169,0.5122,9.767,0.0145,0.0481,-0.0138
67906,45.70804,0.081912,148.96,21.87,8.576,119.9,Nov-17,6790546,2019-08-19 00:13:00:079,-0.4263,0.1547,9.5159,-0.7227,0.5091,9.7667,0.0007,-0.0051,-0.0106
67907,45.70804,0.081912,148.96,21.87,8.576,119.9,Nov-17,6790646,2019-08-19 00:13:00:179,-0.5143,0.3384,9.6296,-0.7058,0.5038,9.7682,0.006,-0.0105,-0.0106
67908,45.70804,0.081912,148.96,21.87,8.576,119.9,Nov-17,6790745,2019-08-19 00:13:00:278,-0.5322,0.1397,9.8223,-0.6886,0.4985,9.7697,0.0007,-0.0222,-0.0106
67909,45.70804,0.081912,148.96,21.87,8.576,119.9,Nov-17,6790846,2019-08-19 00:13:00:379,-0.5693,0.3654,9.7655,-0.6738,0.4598,9.7727,-0.0281,-0.0051,-0.0117
67910,45.70804,0.081912,148.96,21.87,8.576,119.9,Nov-17,6790946,2019-08-19 00:13:00:479,-0.4161,0.1607,10.3927,-0.666,0.4207,9.775,-0.0568,-0.0105,-0.0149
67911,45.70804,0.081912,148.96,21.87,8.576,119.9,Nov-17,6791045,2019-08-19 00:13:00:578,-0.4239,0.5228,9.8768,-0.669,0.3602,9.7772,-0.0494,0.0066,-0.0128
67912,45.70804,0.081912,148.96,21.87,8.576,119.9,Nov-17,6791145,2019-08-19 00:13:00:678,-0.6831,0.5072,10.2359,-0.646,0.3344,9.7796,-0.0206,-0.0382,-0.0064
67913,45.70804,0.081912,148.96,21.87,8.576,119.9,Nov-17,6791245,2019-08-19 00:13:00:778,-0.5238,0.1182,10.47,-0.6236,0.3242,9.7814,0.0018,-0.0009,-0.0021
67914,45.70804,0.081912,148.96,21.87,8.576,119.9,Nov-17,6791345,2019-08-19 00:13:00:878,-0.6268,0.193,9.6757,-0.6298,0.3132,9.7814,-0.0164,0.0183,-0.0032
67915,45.707184,0.084027,144.56,21.2,15.008,120.3,0 / 17,6791446,2019-08-19 00:13:00:979,-0.531,0.5294,9.6446,-0.6389,0.3065,9.781,0.0007,0.0013,-0.0064
67916,45.707184,0.084027,144.56,21.2,15.008,120.3,0 / 17,6791546,2019-08-19 00:13:01:079,-0.4389,0.2361,9.4447,-0.6364,0.3097,9.7811,0.0113,0.0076,-0.0042
67917,45.707184,0.084027,144.56,21.2,15.008,120.3,0 / 17,6791646,2019-08-19 00:13:01:179,-0.4245,0.2026,10.1025,-0.6279,0.3461,9.7804,0.0465,-0.0062,-0.0011
67918,45.707184,0.084027,144.56,21.2,15.008,120.3,0 / 17,6791745,2019-08-19 00:13:01:278,-0.3844,0.1882,10.373,-0.6297,0.3775,9.7791,0.0465,0.0151,-0.0021
67919,45.707184,0.084027,144.56,21.2,15.008,120.3,0 / 17,6791845,2019-08-19 00:13:01:378,-0.2282,0.2684,9.2711,-0.6297,0.4186,9.7775,0.0284,0.013,-0.0042
67920,45.707184,0.084027,144.56,21.2,15.008,120.3,0 / 17,6791946,2019-08-19 00:13:01:479,-0.4496,0.4629,9.8541,-0.6317,0.4314,9.7768,0.0145,0.0098,-0.0053
67921,45.707184,0.084027,144.56,21.2,15.008,120.3,0 / 17,6792046,2019-08-19 00:13:01:579,-0.388,0.3073,9.2471,-0.6135,0.4422,9.7774,0.0049,-0.003,-0.0042
67922,45.707184,0.084027,144.56,21.2,15.008,120.3,0 / 17,6792145,2019-08-19 00:13:01:678,-0.5556,0.4809,10.1713,-0.5858,0.4475,9.7789,0.0049,0.0013,-0.0053
67923,45.707184,0.084027,144.56,21.2,15.008,120.3,0 / 17,6792245,2019-08-19 00:13:01:778,-0.4185,0.4689,10.2425,-0.5375,0.4553,9.7813,0.0018,-0.0201,-0.0011
67924,45.707184,0.084027,144.56,21.2,15.008,120.3,0 / 17,6792345,2019-08-19 00:13:01:878,-0.3575,0.7239,9.7062,-0.528,0.4521,9.782,-0.011,0.0066,0.0
67925,45.707184,0.084027,144.56,21.2,15.008,120.3,0 / 17,6792445,2019-08-19 00:13:01:978,-0.2306,0.2355,10.0043,-0.5319,0.4492,9.7819,-0.0089,-0.0009,-0.0011
67926,45.707184,0.084027,144.56,21.2,15.008,120.3,0 / 17,6792545,2019-08-19 00:13:02:078,-0.3587,0.3025,9.7194,-0.4994,0.451,9.7835,-0.0004,-0.0019,0.0011
67927,45.707184,0.084027,144.56,21.2,15.008,120.3,0 / 17,6792645,2019-08-19 00:13:02:178,-0.4041,0.6221,9.79,-0.4591,0.4574,9.7852,-0.0004,0.0002,0.0011
67928,45.707184,0.084027,144.56,21.2,15.008,120.3,0 / 17,6792745,2019-08-19 00:13:02:278,-0.3209,0.533,10.1599,-0.4326,0.4661,9.786,0.0135,-0.0041,0.0
67929,45.707184,0.084027,144.56,21.2,15.008,120.3,0 / 17,6792845,2019-08-19 00:13:02:378,-0.4077,0.5024,10.0815,-0.399,0.484,9.7866,0.0124,0.0002,0.0
67930,45.707184,0.084027,144.56,21.2,15.008,120.3,0 / 17,6792945,2019-08-19 00:13:02:478,-0.44,0.5336,9.735,-0.3856,0.4954,9.7865,0.0103,0.0002,-0.0021
67931,45.707184,0.084027,144.56,21.2,15.008,120.3,0 / 17,6793045,2019-08-19 00:13:02:578,-0.3838,0.5509,9.7721,-0.3552,0.5214,9.7863,-0.0025,0.0076,-0.0021
67932,45.707184,0.084027,144.56,21.2,15.008,120.3,0 / 17,6793146,2019-08-19 00:13:02:679,-0.3221,0.5228,9.5596,-0.3471,0.5186,9.7868,-0.0281,-0.0041,-0.0032
67933,45.707184,0.084027,144.56,21.2,15.008,120.3,0 / 17,6793246,2019-08-19 00:13:02:779,-0.2425,0.5527,10.194,-0.3267,0.5134,9.7878,-0.027,-0.0169,-0.0042
67934,45.707184,0.084027,144.56,21.2,15.008,120.3,0 / 17,6793346,2019-08-19 00:13:02:879,-0.2389,0.3576,9.7529,-0.3145,0.5064,9.7885,0.0039,0.0013,-0.0021
67935,45.707184,0.084027,144.56,21.2,15.008,120.3,0 / 17,6793445,2019-08-19 00:13:02:978,-0.1785,0.3301,10.1252,-0.321,0.5183,9.7877,0.022,0.0076,-0.0011
67936,45.707184,0.084027,144.56,21.2,15.008,120.3,0 / 17,6793546,2019-08-19 00:13:03:079,-0.2814,0.3241,9.6182,-0.3236,0.5296,9.787,0.0231,0.0087,0.0
67937,45.707184,0.084027,144.56,21.2,15.008,120.3,0 / 17,6793645,2019-08-19 00:13:03:178,-0.2952,0.6958,9.7649,-0.3401,0.5423,9.7857,0.0103,0.0066,-0.0042
67938,45.707184,0.084027,144.56,21.2,15.008,120.3,0 / 17,6793745,2019-08-19 00:13:03:278,-0.3592,0.6629,9.9181,-0.3262,0.5412,9.7863,0.0007,-0.0169,-0.0042
67939,45.707184,0.084027,144.56,21.2,15.008,120.3,0 / 17,6793845,2019-08-19 00:13:03:378,-0.2587,0.3085,9.8535,-0.3129,0.5354,9.787,-0.0132,-0.0201,-0.0032
67940,45.707184,0.084027,144.56,21.2,15.008,120.3,0 / 17,6793945,2019-08-19 00:13:03:478,-0.4568,0.5665,9.8559,-0.3072,0.5205,9.788,-0.0089,0.0013,-0.0032
67941,45.707184,0.084027,144.56,21.2,15.008,120.3,0 / 17,6794045,2019-08-19 00:13:03:578,-0.2198,0.4342,9.5973,-0.3149,0.5074,9.7885,-0.0164,0.0119,-0.0042
67942,45.707184,0.084027,144.56,21.2,15.008,120.3,0 / 17,6794145,2019-08-19 00:13:03:678,-0.3742,0.3318,9.9205,-0.3231,0.5039,9.7884,0.006,0.0045,-0.0032
67943,45.707184,0.084027,144.56,21.2,15.008,120.3,0 / 17,6794245,2019-08-19 00:13:03:778,-0.2934,0.4216,9.6847,-0.3242,0.4929,9.7889,-0.0068,-0.0009,-0.0032
67944,45.707184,0.084027,144.56,21.2,15.008,120.3,0 / 17,6794345,2019-08-19 00:13:03:878,-0.4395,0.5749,9.7194,-0.3454,0.4669,9.7894,0.0049,-0.0041,-0.0021
67945,45.707184,0.084027,144.56,21.2,15.008,120.3,0 / 17,6794445,2019-08-19 00:13:03:978,-0.4652,0.5791,10.0013,-0.3356,0.4749,9.7894,0.0135,-0.0158,-0.0021
67946,45.707184,0.084027,144.56,21.2,15.008,120.3,0 / 17,6794545,2019-08-19 00:13:04:078,-0.3958,0.4863,9.9893,-0.3133,0.4889,9.7894,0.0081,-0.0201,-0.0021
67947,45.707184,0.084027,144.56,21.2,15.008,120.3,0 / 17,6794645,2019-08-19 00:13:04:178,-0.4652,0.4402,9.9181,-0.3077,0.4938,9.7894,0.0081,-0.003,-0.0032
67948,45.707184,0.084027,144.56,21.2,15.008,120.3,0 / 17,6794746,2019-08-19 00:13:04:279,-0.2054,0.3893,9.4997,-0.3294,0.4735,9.7897,-0.0291,0.0279,-0.0032
67949,45.707184,0.084027,144.56,21.2,15.008,120.3,0 / 17,6794846,2019-08-19 00:13:04:379,-0.4107,0.4869,9.2747,-0.3421,0.4489,9.7904,-0.0387,0.0108,-0.0042
67950,45.707184,0.084027,144.56,21.2,15.008,120.3,0 / 17,6794945,2019-08-19 00:13:04:478,-0.2563,0.5898,9.7745,-0.3437,0.4369,9.7909,-0.0057,-0.0009,-0.0011
67951,45.707184,0.084027,144.56,21.2,15.008,120.3,0 / 17,6795046,2019-08-19 00:13:04:579,-0.376,0.2756,9.3495,-0.3356,0.4375,9.7911,0.0049,-0.0062,0.0
67952,45.707184,0.084027,144.56,21.2,15.008,120.3,0 / 17,6795146,2019-08-19 00:13:04:679,-0.2713,0.3678,9.4261,-0.3473,0.4427,9.7905,-0.0004,0.014,0.0011
67953,45.707184,0.084027,144.56,21.2,15.008,120.3,0 / 17,6795246,2019-08-19 00:13:04:779,-0.3772,0.4749,9.4794,-0.3483,0.4712,9.7891,-0.0025,0.0162,0.0032
67954,45.707184,0.084027,144.56,21.2,15.008,120.3,0 / 17,6795346,2019-08-19 00:13:04:879,-0.212,0.5306,9.3339,-0.3557,0.5232,9.7862,0.0081,0.0045,0.0085
67955,45.707184,0.084027,144.56,21.2,15.008,120.3,0 / 17,6795446,2019-08-19 00:13:04:979,-0.1593,0.9705,9.3668,-0.3734,0.5377,9.7848,0.0188,0.0322,0.0096
67956,45.707184,0.084027,144.56,21.2,15.008,120.3,0 / 17,6795546,2019-08-19 00:13:05:079,-0.1414,0.7885,8.6797,-0.3913,0.5531,9.7832,0.0049,0.0204,0.0096
67957,45.707184,0.084027,144.56,21.2,15.008,120.3,0 / 17,6795645,2019-08-19 00:13:05:178,-0.3586,0.8556,9.3052,-0.3992,0.5633,9.7823,-0.011,0.0098,0.0096
67958,45.707184,0.084027,144.56,21.2,15.008,120.3,0 / 17,6795746,2019-08-19 00:13:05:279,-0.6376,0.864,9.6781,-0.3977,0.5696,9.782,-0.0046,-0.0105,0.0107
67959,45.707184,0.084027,144.56,21.2,15.008,120.3,0 / 17,6795846,2019-08-19 00:13:05:379,-0.6112,0.7425,10.2413,-0.3863,0.571,9.7824,-0.0046,-0.0147,0.0117
67960,45.707184,0.084027,144.56,21.2,15.008,120.3,0 / 17,6795946,2019-08-19 00:13:05:479,-0.54,0.5964,10.1617,-0.3769,0.573,9.7826,-0.0068,-0.0062,0.0107
67961,45.707184,0.084027,144.56,21.2,15.008,120.3,0 / 17,6796045,2019-08-19 00:13:05:578,-0.3437,0.7191,9.9959,-0.3765,0.5954,9.7813,0.0081,-0.0115,0.0117
67962,45.707184,0.084027,144.56,21.2,15.008,120.3,0 / 17,6796145,2019-08-19 00:13:05:678,-0.3664,0.6443,10.2641,-0.3902,0.6375,9.7781,0.0337,-0.0126,0.0128
67963,45.707184,0.084027,144.56,21.2,15.008,120.3,0 / 17,6796245,2019-08-19 00:13:05:778,-0.3593,0.9148,10.0133,-0.3837,0.654,9.7773,0.0049,-0.0062,0.0139
67964,45.707184,0.084027,144.56,21.2,15.008,120.3,0 / 17,6796346,2019-08-19 00:13:05:879,-0.5879,1.0992,9.9474,-0.38,0.6732,9.7761,0.0135,-0.0115,0.0107
67965,45.707184,0.084027,144.56,21.2,15.008,120.3,0 / 17,6796446,2019-08-19 00:13:05:979,-0.361,0.773,9.7332,-0.4081,0.7181,9.7718,0.0156,0.013,0.0117
67966,45.707184,0.084027,144.56,21.2,15.008,120.3,0 / 17,6796546,2019-08-19 00:13:06:079,-0.6064,0.9334,9.3938,-0.4243,0.7442,9.7692,0.0263,0.0172,0.0128
67967,45.707184,0.084027,144.56,21.2,15.008,120.3,0 / 17,6796645,2019-08-19 00:13:06:178,-0.3862,0.9328,9.6075,-0.4369,0.7704,9.7666,0.0358,0.0055,0.0128
67968,45.707184,0.084027,144.56,21.2,15.008,120.3,0 / 17,6796745,2019-08-19 00:13:06:278,-0.5807,0.834,9.4297,-0.4653,0.8087,9.7622,0.0039,0.014,0.0096
67969,45.707184,0.084027,144.56,21.2,15.008,120.3,0 / 17,6796846,2019-08-19 00:13:06:379,-0.3251,0.8508,9.7738,-0.4732,0.843,9.7589,0.0071,0.0034,0.0075
67970,45.707184,0.084027,144.56,21.2,15.008,120.3,0 / 17,6796946,2019-08-19 00:13:06:479,-0.5921,0.9927,9.4231,-0.4718,0.8523,9.7581,0.0113,-0.0009,0.0085
67971,45.707184,0.084027,144.56,21.2,15.008,120.3,0 / 17,6797045,2019-08-19 00:13:06:578,-0.4825,0.7562,9.9929,-0.4617,0.8722,9.7569,0.0263,-0.0051,0.0085
67972,45.707184,0.084027,144.56,21.2,15.008,120.3,0 / 17,6797145,2019-08-19 00:13:06:678,-0.61,1.107,9.8445,-0.4423,0.8787,9.7572,0.0135,-0.0169,0.0064
67973,45.707184,0.084027,144.56,21.2,15.008,120.3,0 / 17,6797245,2019-08-19 00:13:06:778,-0.048,0.6018,9.7858,-0.4441,0.8773,9.7572,0.006,0.0151,-0.0021
67974,45.707184,0.084027,144.56,21.2,15.008,120.3,0 / 17,6797345,2019-08-19 00:13:06:878,-0.3227,0.5635,9.1412,-0.4653,0.8728,9.7566,0.0103,0.0204,-0.0064
67975,45.707184,0.084027,144.56,21.2,15.008,120.3,0 / 17,6797445,2019-08-19 00:13:06:978,-0.2491,0.4977,9.2417,-0.4698,0.8666,9.757,0.0049,0.0002,-0.0042
67976,45.707184,0.084027,144.56,21.2,15.008,120.3,0 / 17,6797545,2019-08-19 00:13:07:078,-0.5394,0.8418,9.6009,-0.4615,0.8557,9.7583,-0.0004,-0.0094,-0.0042
67977,45.707184,0.084027,144.56,21.2,15.008,120.3,0 / 17,6797646,2019-08-19 00:13:07:179,-0.5669,0.7706,9.7409,-0.4733,0.8213,9.7607,-0.0259,0.014,-0.0085
67978,45.707184,0.084027,144.56,21.2,15.008,120.3,0 / 17,6797746,2019-08-19 00:13:07:279,-0.8872,0.4677,9.7092,-0.4913,0.8013,9.7615,-0.0142,0.0108,-0.0074
67979,45.707184,0.084027,144.56,21.2,15.008,120.3,0 / 17,6797846,2019-08-19 00:13:07:379,-0.4867,0.5192,10.1886,-0.4974,0.7767,9.7632,-0.0164,-0.0073,-0.0085
67980,45.707184,0.084027,144.56,21.2,15.008,120.3,0 / 17,6797946,2019-08-19 00:13:07:479,-0.8596,0.2947,9.4758,-0.5154,0.7261,9.7661,0.0071,-0.0126,-0.0074
67981,45.707184,0.084027,144.56,21.2,15.008,120.3,0 / 17,6798045,2019-08-19 00:13:07:578,-0.461,0.5934,10.4532,-0.5692,0.6389,9.7693,0.0167,-0.0137,-0.0074
67982,45.707184,0.084027,144.56,21.2,15.008,120.3,0 / 17,6798145,2019-08-19 00:13:07:678,-0.7004,0.4581,10.1731,-0.5896,0.595,9.7708,0.0103,-0.0211,-0.0074
67983,45.707184,0.084027,144.56,21.2,15.008,120.3,0 / 17,6798245,2019-08-19 00:13:07:778,-0.792,0.4145,10.0474,-0.6317,0.5489,9.7709,-0.011,0.0034,-0.0074
67984,45.707184,0.084027,144.56,21.2,15.008,120.3,0 / 17,6798346,2019-08-19 00:13:07:879,-0.7184,0.6287,9.5703,-0.6538,0.5213,9.7709,-0.0302,-0.0073,-0.0085
67985,45.707184,0.084027,144.56,21.2,15.008,120.3,0 / 17,6798446,2019-08-19 00:13:07:979,-0.7345,0.667,9.5991,-0.6695,0.4814,9.7719,-0.0387,0.014,-0.0085
67986,45.707184,0.084027,144.56,21.2,15.008,120.3,0 / 17,6798546,2019-08-19 00:13:08:079,-0.8249,0.5838,9.0592,-0.6876,0.4597,9.7717,-0.0195,0.0204,-0.0074
67987,45.707184,0.084027,144.56,21.2,15.008,120.3,0 / 17,6798645,2019-08-19 00:13:08:178,-0.6358,0.2971,9.1681,-0.7136,0.4381,9.7708,-0.011,0.0183,-0.0042
67988,45.707184,0.084027,144.56,21.2,15.008,120.3,0 / 17,6798746,2019-08-19 00:13:08:279,-0.5676,0.3486,9.468,-0.7161,0.422,9.7714,-0.0195,0.0013,-0.0053
67989,45.707184,0.084027,144.56,21.2,15.008,120.3,0 / 17,6798846,2019-08-19 00:13:08:379,-0.4975,0.3504,10.218,-0.6994,0.3863,9.774,-0.0377,-0.0179,-0.0064
67990,45.707184,0.084027,144.56,21.2,15.008,120.3,0 / 17,6798946,2019-08-19 00:13:08:479,-0.7477,0.4935,10.0821,-0.6858,0.3606,9.776,-0.0355,-0.0169,-0.0053
67991,45.707184,0.084027,144.56,21.2,15.008,120.3,0 / 17,6799045,2019-08-19 00:13:08:578,-0.5352,0.5108,9.8535,-0.6796,0.3381,9.7772,-0.0185,0.0098,0.0011
67992,45.707184,0.084027,144.56,21.2,15.008,120.3,0 / 17,6799145,2019-08-19 00:13:08:678,-0.6262,0.5461,9.3429,-0.6921,0.3341,9.7765,-0.0025,0.0215,0.0032
67993,45.707184,0.084027,144.56,21.2,15.008,120.3,0 / 17,6799246,2019-08-19 00:13:08:779,-0.4203,0.357,9.8451,-0.7005,0.3504,9.7753,0.0145,0.0066,0.0022
67994,45.707184,0.084027,144.56,21.2,15.008,120.3,0 / 17,6799346,2019-08-19 00:13:08:879,-0.6897,0.5072,9.2501,-0.6946,0.3552,9.7756,-0.0036,-0.0009,0.0032
67995,45.707184,0.084027,144.56,21.2,15.008,120.3,Sep-17,6799445,2019-08-19 00:13:08:978,-0.385,0.4576,9.8517,-0.6793,0.3527,9.7767,-0.0142,-0.0083,0.0011
