,GPS LATITUDE (degrees),GPS LONGITUDE (degrees), GPS ALTITUDE (m),GPS SPEED (Kmh),GPS ACCURACY (m),GPS ORIENTATION (Â°), SATELLITES IN RANGE, TIME SINCE START (ms), DATE (YYYY-MO-DD HH-MI-SS_SSS),ACCELEROMETER X (m/s²) , ACCELEROMETER Y (m/s²), ACCELEROMETER Z (m/s²), GRAVITY X (m/s²), GRAVITY Y (m/s²), GRAVITY Z (m/s²), GYROSCOPE Yaw (rad/s), GYROSCOPE Pitch (rad/s), GYROSCOPE Roll (rad/s)
26373,47.131374,-1.506871,76.27,29.83,18.224,149.5,0 / 18,2637314,2019-08-18 21:35:06:426,2.3606,-0.5953,9.3315,2.6016,-0.865,9.4156,-0.0098,0.0011,0.0068
26374,47.131374,-1.506871,76.27,29.83,18.224,149.5,0 / 18,2637414,2019-08-18 21:35:06:526,2.4785,-1.0251,9.5608,2.5997,-0.8601,9.4166,0.0137,-0.0032,0.0015
26375,47.131374,-1.506871,76.27,29.83,18.224,149.5,0 / 18,2637514,2019-08-18 21:35:06:626,2.4935,-0.8904,9.4518,2.5968,-0.854,9.4179,0.0105,0.0032,0.0058
26376,47.131374,-1.506871,76.27,29.83,18.224,149.5,0 / 18,2637614,2019-08-18 21:35:06:726,2.4162,-1.0065,9.6314,2.5706,-0.8331,9.427,0.003,0.0086,0.0058
26377,47.131374,-1.506871,76.27,29.83,18.224,149.5,0 / 18,2637715,2019-08-18 21:35:06:827,2.4198,-1.0765,9.8319,2.5507,-0.832,9.4325,-0.0055,-0.0032,0.0047
26378,47.131374,-1.506871,76.27,29.83,18.224,149.5,0 / 18,2637815,2019-08-18 21:35:06:927,2.8161,-0.8647,9.7499,2.5309,-0.8342,9.4376,-0.0076,-0.0181,0.0026
26379,47.131374,-1.506871,76.27,29.83,18.224,149.5,0 / 18,2637914,2019-08-18 21:35:07:026,2.6754,-0.982,9.7816,2.5379,-0.8346,9.4357,0.003,-0.0085,0.0026
26380,47.131374,-1.506871,76.27,29.83,18.224,149.5,0 / 18,2638014,2019-08-18 21:35:07:126,2.4677,-0.6671,9.2974,2.5235,-0.8363,9.4394,-0.0002,0.016,0.0079
26381,47.131374,-1.506871,76.27,29.83,18.224,149.5,0 / 18,2638114,2019-08-18 21:35:07:226,2.3247,-0.7635,9.0329,2.5113,-0.8414,9.4422,-0.0023,0.0128,0.0068
26382,47.131374,-1.506871,76.27,29.83,18.224,149.5,0 / 18,2638215,2019-08-18 21:35:07:327,2.2642,-0.818,9.3004,2.493,-0.8482,9.4465,0.003,0.0022,0.0026
26383,47.131374,-1.506871,76.27,29.83,18.224,149.5,0 / 18,2638315,2019-08-18 21:35:07:427,2.3295,-1.046,9.5632,2.4727,-0.871,9.4497,0.0062,0.0043,-0.0006
26384,47.131374,-1.506871,76.27,29.83,18.224,149.5,0 / 18,2638415,2019-08-18 21:35:07:527,2.5222,-1.1585,9.4943,2.4585,-0.894,9.4513,-0.0034,0.0032,0.0015
26385,47.131374,-1.506871,76.27,29.83,18.224,149.5,0 / 18,2638514,2019-08-18 21:35:07:626,2.5162,-1.0436,9.5446,2.4383,-0.9208,9.454,-0.0002,0.0086,-0.0017
26386,47.131374,-1.506871,76.27,29.83,18.224,149.5,0 / 18,2638615,2019-08-18 21:35:07:727,2.4384,-0.9239,9.3034,2.411,-0.9577,9.4573,0.0009,0.0043,-0.0017
26387,47.131374,-1.506871,76.27,29.83,18.224,149.5,0 / 18,2638714,2019-08-18 21:35:07:826,2.4899,-0.9347,9.9492,2.4061,-0.9785,9.4564,-0.0034,-0.0127,-0.0028
26388,47.131374,-1.506871,76.27,29.83,18.224,149.5,0 / 18,2638814,2019-08-18 21:35:07:926,2.2235,-0.9634,9.6158,2.4073,-0.9781,9.4561,0.0051,0.0011,-0.0028
26389,47.131374,-1.506871,76.27,29.83,18.224,149.5,0 / 18,2638914,2019-08-18 21:35:08:026,2.3372,-0.903,9.2465,2.394,-0.9904,9.4582,-0.013,0.0118,0.0047
26390,47.131374,-1.506871,76.27,29.83,18.224,149.5,0 / 18,2639014,2019-08-18 21:35:08:126,2.445,-1.067,9.316,2.4057,-1.0,9.4543,-0.0087,-0.0181,-0.0028
26391,47.131374,-1.506871,76.27,29.83,18.224,149.5,0 / 18,2639114,2019-08-18 21:35:08:226,2.6539,-1.2579,9.7523,2.4209,-1.0049,9.4499,-0.0045,-0.0096,-0.0006
26392,47.131374,-1.506871,76.27,29.83,18.224,149.5,0 / 18,2639214,2019-08-18 21:35:08:326,2.907,-1.2669,10.0785,2.4524,-1.0161,9.4405,0.0115,-0.0074,-0.0049
26393,47.131374,-1.506871,76.27,29.83,18.224,149.5,0 / 18,2639314,2019-08-18 21:35:08:426,2.5252,-0.809,8.9233,2.4623,-1.0165,9.4379,0.0041,0.0182,0.0026
26394,47.131374,-1.506871,76.27,29.83,18.224,149.5,0 / 18,2639415,2019-08-18 21:35:08:527,2.3749,-0.6228,8.8216,2.4597,-1.0208,9.4381,-0.0108,0.0086,0.0036
26395,47.131374,-1.506871,76.27,29.83,18.224,149.5,0 / 18,2639515,2019-08-18 21:35:08:627,2.4725,-1.052,9.3477,2.4626,-1.0335,9.436,-0.0098,0.0011,0.0004
26396,47.131374,-1.506871,76.27,29.83,18.224,149.5,0 / 18,2639614,2019-08-18 21:35:08:726,2.6772,-1.213,10.0163,2.4728,-1.0328,9.4334,0.0009,-0.0117,-0.0028
26397,47.131374,-1.506871,76.27,29.83,18.224,149.5,0 / 18,2639714,2019-08-18 21:35:08:826,2.7634,-1.3357,10.1336,2.4971,-1.0228,9.4281,0.0126,-0.0096,-0.0028
26398,47.131374,-1.506871,76.27,29.83,18.224,149.5,0 / 18,2639814,2019-08-18 21:35:08:926,2.7975,-0.879,9.3196,2.4997,-1.0129,9.4285,0.0094,0.0096,0.0004
26399,47.131374,-1.506871,76.27,29.83,18.224,149.5,0 / 18,2639914,2019-08-18 21:35:09:026,2.8604,-0.8473,9.7493,2.5052,-1.0097,9.4273,-0.0119,-0.0063,0.0068
26400,47.131374,-1.506871,76.27,29.83,18.224,149.5,0 / 18,2640014,2019-08-18 21:35:09:126,2.7029,-0.6133,9.5608,2.5167,-1.0116,9.4241,-0.0098,-0.0149,0.0036
26401,47.131374,-1.506871,76.27,29.83,18.224,149.5,0 / 18,2640115,2019-08-18 21:35:09:227,2.5282,-0.8144,9.465,2.5169,-1.0043,9.4248,0.0051,0.0075,0.0047
26402,47.131374,-1.506871,76.27,29.83,18.224,149.5,0 / 18,2640214,2019-08-18 21:35:09:326,2.2445,-0.7455,9.0436,2.5012,-1.0014,9.4293,-0.0023,0.0213,0.009
26403,47.131374,-1.506871,76.27,29.83,18.224,149.5,0 / 18,2640314,2019-08-18 21:35:09:426,2.202,-0.8323,8.7449,2.4807,-0.9952,9.4354,0.0041,0.0107,0.0036
26404,47.131374,-1.506871,76.27,29.83,18.224,149.5,0 / 18,2640414,2019-08-18 21:35:09:526,2.4629,-1.1065,9.5721,2.4814,-0.9912,9.4356,0.0073,-0.0096,0.0004
26405,47.131374,-1.506871,76.27,29.83,18.224,149.5,0 / 18,2640514,2019-08-18 21:35:09:626,2.7939,-1.0963,10.1485,2.4946,-0.9826,9.433,0.0062,-0.0127,0.0015
26406,47.131374,-1.506871,76.27,29.83,18.224,149.5,0 / 18,2640614,2019-08-18 21:35:09:726,2.7245,-1.0963,9.7128,2.494,-0.9737,9.4341,0.0073,0.0043,0.0036
26407,47.131374,-1.506871,76.27,29.83,18.224,149.5,0 / 18,2640714,2019-08-18 21:35:09:826,2.7035,-0.8665,9.319,2.485,-0.9731,9.4365,-0.0076,0.0032,0.009
26408,47.131374,-1.506871,76.27,29.83,18.224,149.5,0 / 18,2640815,2019-08-18 21:35:09:927,2.4695,-0.5618,9.5386,2.4931,-0.9752,9.4342,-0.0087,-0.0159,0.0047
26409,47.131374,-1.506871,76.27,29.83,18.224,149.5,0 / 18,2640915,2019-08-18 21:35:10:027,2.5096,-0.7856,9.5841,2.505,-0.9647,9.4321,0.0051,-0.0021,0.0026
26410,47.131374,-1.506871,76.27,29.83,18.224,149.5,0 / 18,2641014,2019-08-18 21:35:10:126,2.3678,-0.8802,9.3561,2.5004,-0.9607,9.4337,-0.0002,0.0118,0.0068
26411,47.131374,-1.506871,76.27,29.83,18.224,149.5,0 / 18,2641114,2019-08-18 21:35:10:226,2.4935,-0.9868,8.9024,2.4817,-0.9617,9.4386,-0.0034,0.0192,0.0079
26412,47.131374,-1.506871,76.27,29.83,18.224,149.5,0 / 18,2641214,2019-08-18 21:35:10:326,2.6652,-0.9598,9.2926,2.4791,-0.9599,9.4394,0.0019,0.0064,0.0058
26413,47.131374,-1.506871,76.27,29.83,18.224,149.5,0 / 18,2641315,2019-08-18 21:35:10:427,2.588,-0.988,9.4584,2.4875,-0.9518,9.4381,0.0073,-0.0138,0.0015
26414,47.131374,-1.506871,76.27,29.83,18.224,149.5,0 / 18,2641415,2019-08-18 21:35:10:527,2.7544,-0.8072,9.5679,2.5029,-0.9407,9.4351,0.0094,-0.0159,-0.0017
26415,47.131374,-1.506871,76.27,29.83,18.224,149.5,0 / 18,2641514,2019-08-18 21:35:10:626,2.7377,-0.7461,9.7493,2.5113,-0.9305,9.4339,0.0073,0.0032,0.0036
26416,47.131374,-1.506871,76.27,29.83,18.224,149.5,0 / 18,2641614,2019-08-18 21:35:10:726,2.4875,-0.7144,9.128,2.504,-0.9322,9.4356,-0.0066,0.016,0.0068
26417,47.131374,-1.506871,76.27,29.83,18.224,149.5,0 / 18,2641715,2019-08-18 21:35:10:827,2.4396,-1.0197,8.9299,2.5004,-0.9629,9.4335,-0.0268,-0.0021,-0.0028
26418,47.131374,-1.506871,76.27,29.83,18.224,149.5,0 / 18,2641814,2019-08-18 21:35:10:926,2.5898,-1.2878,9.5105,2.5107,-0.9759,9.4294,-0.0066,-0.0074,-0.0145
26419,47.131374,-1.506871,76.27,29.83,18.224,149.5,0 / 18,2641914,2019-08-18 21:35:11:026,2.6838,-1.7314,9.6093,2.5234,-0.9913,9.4244,0.0019,-0.001,-0.0145
26420,47.131374,-1.506871,76.27,29.83,18.224,149.5,0 / 18,2642014,2019-08-18 21:35:11:126,2.6724,-1.5243,9.3842,2.5222,-1.0081,9.423,-0.0087,0.0096,-0.0102
26421,47.131374,-1.506871,76.27,29.83,18.224,149.5,0 / 18,2642114,2019-08-18 21:35:11:226,2.7718,-1.4243,9.2375,2.5203,-1.0384,9.4202,-0.0119,0.0086,-0.0102
26422,47.131374,-1.506871,76.27,29.83,18.224,149.5,0 / 18,2642214,2019-08-18 21:35:11:326,2.8221,-1.5153,9.2705,2.557,-1.1114,9.402,0.003,0.0,-0.0134
26423,47.131374,-1.506871,76.27,29.83,18.224,149.5,0 / 18,2642315,2019-08-18 21:35:11:427,2.4396,-1.1741,8.9808,2.5957,-1.1697,9.3843,0.0222,0.0086,-0.0145
26424,47.131374,-1.506871,76.27,29.83,18.224,149.5,0 / 18,2642415,2019-08-18 21:35:11:527,2.6485,-1.2358,9.5578,2.6144,-1.185,9.3772,0.0222,0.0,-0.0113
26425,47.131374,-1.506871,76.27,29.83,18.224,149.5,0 / 18,2642515,2019-08-18 21:35:11:627,2.4671,-1.1256,9.5679,2.6259,-1.1626,9.3767,0.0062,-0.0117,-0.0038
26426,47.131374,-1.506871,76.27,29.83,18.224,149.5,0 / 18,2642615,2019-08-18 21:35:11:727,2.7071,-1.0532,9.8337,2.6365,-1.1538,9.3749,-0.0013,-0.0181,0.0004
26427,47.131374,-1.506871,76.27,29.83,18.224,149.5,0 / 18,2642714,2019-08-18 21:35:11:826,2.761,-1.1274,9.9798,2.6455,-1.1536,9.3723,-0.014,-0.0085,0.009
26428,47.131374,-1.506871,76.27,29.83,18.224,149.5,0 / 18,2642814,2019-08-18 21:35:11:926,2.8137,-0.8329,9.5057,2.6462,-1.1538,9.3721,-0.0194,0.0,0.0121
26429,47.131374,-1.506871,76.27,29.83,18.224,149.5,0 / 18,2642915,2019-08-18 21:35:12:027,2.5527,-0.6396,9.052,2.6269,-1.1508,9.3779,-0.0002,0.0224,0.01
26430,47.131374,-1.506871,76.27,29.83,18.224,149.5,0 / 18,2643014,2019-08-18 21:35:12:126,2.3133,-0.7216,8.636,2.5905,-1.1141,9.3925,0.0286,0.0171,0.0015
26431,47.131374,-1.506871,76.27,29.83,18.224,149.5,0 / 18,2643114,2019-08-18 21:35:12:226,2.1361,-0.7408,9.1544,2.5867,-1.1006,9.3951,0.003,-0.0085,0.0026
26432,47.131374,-1.506871,76.27,29.83,18.224,149.5,0 / 18,2643214,2019-08-18 21:35:12:326,2.369,-0.8419,9.462,2.576,-1.1024,9.3978,-0.0162,0.0,0.0036
26433,47.131374,-1.506871,76.27,29.83,18.224,149.5,0 / 18,2643314,2019-08-18 21:35:12:426,2.3438,-1.1316,9.6871,2.5653,-1.1118,9.3996,-0.0183,0.0022,0.0068
26434,47.131374,-1.506871,76.27,29.83,18.224,149.5,0 / 18,2643414,2019-08-18 21:35:12:526,2.4336,-1.1298,9.7098,2.5467,-1.1178,9.404,-0.0002,0.0086,0.0036
26435,47.131374,-1.506871,76.27,29.83,18.224,149.5,0 / 18,2643514,2019-08-18 21:35:12:626,2.4982,-1.2842,9.7631,2.5406,-1.109,9.4067,0.0137,-0.0063,-0.0017
26436,47.131374,-1.506871,76.27,29.83,18.224,149.5,0 / 18,2643614,2019-08-18 21:35:12:726,2.4264,-1.0334,9.705,2.5079,-1.0683,9.4202,0.0126,-0.0042,0.0004
26437,47.131374,-1.506871,76.27,29.83,18.224,149.5,0 / 18,2643715,2019-08-18 21:35:12:827,2.5162,-0.8048,9.8469,2.4717,-1.042,9.4327,0.0083,0.0128,0.0036
26438,47.131374,-1.506871,76.27,29.83,18.224,149.5,0 / 18,2643815,2019-08-18 21:35:12:927,2.439,-0.6779,9.8535,2.4522,-1.0048,9.4418,-0.0055,-0.0159,0.0015
26439,47.131374,-1.506871,76.27,29.83,18.224,149.5,0 / 18,2643915,2019-08-18 21:35:13:027,2.5473,-0.8736,9.4596,2.4709,-1.012,9.4361,-0.0204,-0.0234,0.0015
26440,47.131374,-1.506871,76.27,29.83,18.224,149.5,0 / 18,2644014,2019-08-18 21:35:13:126,2.5916,-1.0323,9.3351,2.4668,-1.0254,9.4358,-0.0034,0.0171,-0.0028
26441,47.131374,-1.506871,76.27,29.83,18.224,149.5,0 / 18,2644114,2019-08-18 21:35:13:226,2.5515,-1.3477,9.316,2.4634,-1.0294,9.4362,0.0019,0.0064,-0.0006
26442,47.131374,-1.506871,76.27,29.83,18.224,149.5,0 / 18,2644214,2019-08-18 21:35:13:326,2.5479,-1.319,9.3285,2.4835,-1.0325,9.4306,0.0126,0.0043,-0.006
26443,47.131374,-1.506871,76.27,29.83,18.224,149.5,Nov-18,2644314,2019-08-18 21:35:13:426,2.7185,-1.1268,9.6314,2.4943,-1.0211,9.429,0.036,0.0118,-0.0113
26444,47.131374,-1.506871,76.27,29.83,18.224,149.5,Nov-18,2644414,2019-08-18 21:35:13:526,2.9017,-1.3267,9.9863,2.5305,-1.0159,9.4199,0.019,-0.0032,-0.006
26445,47.131374,-1.506871,76.27,29.83,18.224,149.5,Nov-18,2644514,2019-08-18 21:35:13:626,2.7413,-0.7689,9.2741,2.5317,-1.0061,9.4207,0.0051,0.0054,-0.0028
26446,47.131374,-1.506871,76.27,29.83,18.224,149.5,Nov-18,2644614,2019-08-18 21:35:13:726,2.7203,-0.6857,9.1987,2.526,-0.9999,9.4228,0.0019,0.0054,-0.0006
26447,47.131374,-1.506871,76.27,29.83,18.224,149.5,Nov-18,2644715,2019-08-18 21:35:13:827,2.5581,-0.8611,9.3782,2.5423,-0.9941,9.4191,0.003,0.0,-0.0017
26448,47.131374,-1.506871,76.27,29.83,18.224,149.5,Nov-18,2644814,2019-08-18 21:35:13:926,2.6545,-1.1801,9.6254,2.5857,-0.9804,9.4087,0.0115,-0.0106,-0.0038
26449,47.131374,-1.506871,76.27,29.83,18.224,149.5,Nov-18,2644915,2019-08-18 21:35:14:027,2.5401,-0.9957,9.5859,2.6023,-0.9656,9.4056,0.0105,-0.0085,-0.0017
26450,47.131374,-1.506871,76.27,29.83,18.224,149.5,Nov-18,2645014,2019-08-18 21:35:14:126,2.7101,-1.1131,9.8606,2.6201,-0.9541,9.4019,0.003,0.0064,-0.0006
26451,47.131374,-1.506871,76.27,29.83,18.224,149.5,Nov-18,2645114,2019-08-18 21:35:14:226,2.5419,-1.0514,9.7248,2.6183,-0.9466,9.4031,-0.0076,-0.0096,0.0015
26452,47.131374,-1.506871,76.27,29.83,18.224,149.5,Nov-18,2645214,2019-08-18 21:35:14:326,2.7604,-0.9874,9.6039,2.6225,-0.9259,9.404,-0.0002,0.0043,0.0004
26453,47.12931,-1.505069,78.48,30.06,13.936001,149.4,0 / 18,2645314,2019-08-18 21:35:14:426,2.7323,-0.8509,9.471,2.6198,-0.9301,9.4044,-0.0183,-0.0021,0.0079
26454,47.12931,-1.505069,78.48,30.06,13.936001,149.4,0 / 18,2645414,2019-08-18 21:35:14:526,2.2444,-0.7042,8.7132,2.609,-0.9257,9.4078,-0.0066,0.0192,0.0036
26455,47.12931,-1.505069,78.48,30.06,13.936001,149.4,0 / 18,2645514,2019-08-18 21:35:14:626,2.4138,-0.8048,8.7683,2.5976,-0.9256,9.411,0.0019,0.0096,0.0026
26456,47.12931,-1.505069,78.48,30.06,13.936001,149.4,0 / 18,2645614,2019-08-18 21:35:14:726,2.6317,-1.0604,9.5153,2.6066,-0.9236,9.4087,0.0041,-0.0085,-0.0028
26457,47.12931,-1.505069,78.48,30.06,13.936001,149.4,0 / 18,2645714,2019-08-18 21:35:14:826,2.7233,-1.1454,9.9115,2.6125,-0.9217,9.4072,0.0009,-0.0085,-0.0017
26458,47.12931,-1.505069,78.48,30.06,13.936001,149.4,0 / 18,2645815,2019-08-18 21:35:14:927,2.6706,-0.9922,9.7367,2.6181,-0.9279,9.405,-0.0119,0.0022,0.0047
26459,47.12931,-1.505069,78.48,30.06,13.936001,149.4,0 / 18,2645915,2019-08-18 21:35:15:027,2.8711,-1.049,9.5853,2.6101,-0.9384,9.4062,-0.0108,0.0139,0.0058
26460,47.12931,-1.505069,78.48,30.06,13.936001,149.4,0 / 18,2646014,2019-08-18 21:35:15:126,2.7287,-1.0897,9.4518,2.6085,-0.9512,9.4054,-0.0045,-0.0032,0.0015
26461,47.12931,-1.505069,78.48,30.06,13.936001,149.4,0 / 18,2646114,2019-08-18 21:35:15:226,2.8286,-0.8275,9.3579,2.6137,-0.9467,9.4044,0.0126,0.0064,-0.0028
26462,47.12931,-1.505069,78.48,30.06,13.936001,149.4,0 / 18,2646214,2019-08-18 21:35:15:326,2.576,-0.6881,9.3573,2.6341,-0.9449,9.3989,0.0083,-0.0106,-0.0028
26463,47.12931,-1.505069,78.48,30.06,13.936001,149.4,0 / 18,2646314,2019-08-18 21:35:15:426,2.5641,-0.7994,9.5817,2.6399,-0.9461,9.3971,-0.0066,-0.0085,0.0015
26464,47.12931,-1.505069,78.48,30.06,13.936001,149.4,0 / 18,2646414,2019-08-18 21:35:15:526,2.7335,-1.1687,9.9181,2.655,-0.9561,9.3919,-0.0172,-0.0191,0.0015
26465,47.12931,-1.505069,78.48,30.06,13.936001,149.4,0 / 18,2646515,2019-08-18 21:35:15:627,2.5258,-1.0472,9.4608,2.6546,-0.9639,9.3912,-0.0045,0.0075,-0.0006
26466,47.12931,-1.505069,78.48,30.06,13.936001,149.4,0 / 18,2646615,2019-08-18 21:35:15:727,2.3995,-1.1508,9.0807,2.6327,-0.9614,9.3976,0.0115,0.0182,-0.0017
26467,47.12931,-1.505069,78.48,30.06,13.936001,149.4,0 / 18,2646715,2019-08-18 21:35:15:827,2.4647,-1.0293,9.2567,2.623,-0.9629,9.4002,-0.0045,0.0118,0.0026
26468,47.12931,-1.505069,78.48,30.06,13.936001,149.4,0 / 18,2646814,2019-08-18 21:35:15:926,2.5946,-1.2298,9.2375,2.6026,-0.9764,9.4044,-0.0066,0.0022,-0.0006
26469,47.12931,-1.505069,78.48,30.06,13.936001,149.4,0 / 18,2646914,2019-08-18 21:35:16:026,2.8053,-1.0005,9.7816,2.6044,-0.979,9.4037,-0.0023,-0.0063,-0.0006
26470,47.12931,-1.505069,78.48,30.06,13.936001,149.4,0 / 18,2647014,2019-08-18 21:35:16:126,2.6682,-0.9323,9.884,2.6077,-0.9715,9.4035,0.0073,-0.0063,-0.0006
26471,47.12931,-1.505069,78.48,30.06,13.936001,149.4,0 / 18,2647114,2019-08-18 21:35:16:226,2.5725,-0.8066,9.3345,2.6044,-0.9726,9.4043,-0.0023,0.0064,0.0036
26472,47.12931,-1.505069,78.48,30.06,13.936001,149.4,0 / 18,2647214,2019-08-18 21:35:16:326,2.5371,-0.7641,9.3459,2.5922,-0.9711,9.4079,0.0009,0.016,0.0036
26473,47.12931,-1.505069,78.48,30.06,13.936001,149.4,0 / 18,2647314,2019-08-18 21:35:16:426,2.4372,-1.2226,9.6936,2.5765,-0.9699,9.4123,0.0019,-0.0096,-0.0006
26474,47.12931,-1.505069,78.48,30.06,13.936001,149.4,0 / 18,2647414,2019-08-18 21:35:16:526,2.3205,-0.9149,9.2956,2.5678,-0.9624,9.4154,0.0115,-0.0032,-0.0038
26475,47.12931,-1.505069,78.48,30.06,13.936001,149.4,0 / 18,2647515,2019-08-18 21:35:16:627,2.3941,-0.958,9.4931,2.5559,-0.9634,9.4186,-0.0087,-0.0021,0.0036
26476,47.12931,-1.505069,78.48,30.06,13.936001,149.4,0 / 18,2647614,2019-08-18 21:35:16:726,2.6066,-0.9131,9.2603,2.5417,-0.9697,9.4218,-0.0194,0.0043,0.009
26477,47.12931,-1.505069,78.48,30.06,13.936001,149.4,0 / 18,2647714,2019-08-18 21:35:16:826,2.6874,-1.1867,9.565,2.5294,-0.9643,9.4256,0.0009,0.0064,0.0015
26478,47.12931,-1.505069,78.48,30.06,13.936001,149.4,0 / 18,2647814,2019-08-18 21:35:16:926,2.773,-1.1502,9.8128,2.5183,-0.9662,9.4284,0.0201,0.0022,-0.0028
26479,47.12931,-1.505069,78.48,30.06,13.936001,149.4,0 / 18,2647915,2019-08-18 21:35:17:027,2.5629,-0.7629,9.5249,2.5114,-0.9668,9.4302,-0.0023,-0.001,0.0026
26480,47.12931,-1.505069,78.48,30.06,13.936001,149.4,0 / 18,2648015,2019-08-18 21:35:17:127,2.4797,-0.6426,9.2316,2.5117,-0.967,9.4301,-0.0194,-0.0106,0.0068
26481,47.12931,-1.505069,78.48,30.06,13.936001,149.4,0 / 18,2648115,2019-08-18 21:35:17:227,2.5312,-0.8233,9.3656,2.515,-0.9539,9.4306,-0.0087,-0.0042,0.0036
26482,47.12931,-1.505069,78.48,30.06,13.936001,149.4,0 / 18,2648215,2019-08-18 21:35:17:327,2.4312,-1.0275,9.6655,2.5233,-0.9597,9.4277,0.003,-0.0085,0.0004
26483,47.12931,-1.505069,78.48,30.06,13.936001,149.4,0 / 18,2648314,2019-08-18 21:35:17:426,2.3714,-0.8204,9.2663,2.5331,-0.9618,9.4249,0.0062,0.0107,0.0047
26484,47.12931,-1.505069,78.48,30.06,13.936001,149.4,0 / 18,2648414,2019-08-18 21:35:17:526,2.527,-1.0167,9.2711,2.5286,-0.9608,9.4262,0.0009,0.0043,0.0036
26485,47.12931,-1.505069,78.48,30.06,13.936001,149.4,0 / 18,2648514,2019-08-18 21:35:17:626,2.6928,-1.1801,9.5542,2.5403,-0.9504,9.4241,0.0094,0.0043,-0.0006
26486,47.12931,-1.505069,78.48,30.06,13.936001,149.4,0 / 18,2648614,2019-08-18 21:35:17:726,2.7347,-1.1974,9.5099,2.5555,-0.949,9.4202,0.0041,-0.0053,-0.0006
26487,47.12931,-1.505069,78.48,30.06,13.936001,149.4,0 / 18,2648714,2019-08-18 21:35:17:826,2.8448,-0.9658,9.5356,2.5885,-0.948,9.4112,-0.0045,-0.0053,0.0004
26488,47.12931,-1.505069,78.48,30.06,13.936001,149.4,0 / 18,2648814,2019-08-18 21:35:17:926,2.7508,-0.9257,9.3698,2.6115,-0.9538,9.4043,-0.0076,-0.0063,0.0015
26489,47.12931,-1.505069,78.48,30.06,13.936001,149.4,0 / 18,2648914,2019-08-18 21:35:18:026,2.7131,-0.7557,9.207,2.6147,-0.9633,9.4024,-0.0002,0.0128,-0.0038
26490,47.12931,-1.505069,78.48,30.06,13.936001,149.4,0 / 18,2649014,2019-08-18 21:35:18:126,2.612,-0.9311,9.0053,2.6144,-0.9616,9.4027,0.0062,0.0064,-0.007
26491,47.12931,-1.505069,78.48,30.06,13.936001,149.4,0 / 18,2649114,2019-08-18 21:35:18:226,2.5952,-1.1035,9.4704,2.6266,-0.9586,9.3996,0.0083,-0.0085,-0.0102
26492,47.12931,-1.505069,78.48,30.06,13.936001,149.4,0 / 18,2649214,2019-08-18 21:35:18:326,2.6401,-1.3363,9.547,2.6342,-0.9747,9.3958,0.0083,0.0011,-0.0081
26493,47.12931,-1.505069,78.48,30.06,13.936001,149.4,0 / 18,2649314,2019-08-18 21:35:18:426,2.509,-1.0239,8.9694,2.6518,-1.0134,9.3868,-0.0055,0.0075,-0.0006
26494,47.12931,-1.505069,78.48,30.06,13.936001,149.4,0 / 18,2649414,2019-08-18 21:35:18:526,2.6539,-1.2022,9.4261,2.6603,-1.0206,9.3836,0.003,0.0086,-0.0028
26495,47.12931,-1.505069,78.48,30.06,13.936001,149.4,0 / 18,2649514,2019-08-18 21:35:18:626,2.7071,-1.0933,9.7936,2.6701,-1.0336,9.3794,-0.013,-0.0042,0.0004
26496,47.12931,-1.505069,78.48,30.06,13.936001,149.4,0 / 18,2649614,2019-08-18 21:35:18:726,2.8693,-0.982,9.6087,2.6873,-1.0306,9.3748,-0.0045,-0.0085,-0.0028
26497,47.12931,-1.505069,78.48,30.06,13.936001,149.4,0 / 18,2649714,2019-08-18 21:35:18:826,2.9112,-1.0185,9.2549,2.7003,-1.018,9.3724,0.0041,0.0054,-0.0017
26498,47.12931,-1.505069,78.48,30.06,13.936001,149.4,0 / 18,2649814,2019-08-18 21:35:18:926,2.8484,-1.0137,9.3339,2.697,-1.0212,9.373,-0.0023,0.0118,0.0015
26499,47.12931,-1.505069,78.48,30.06,13.936001,149.4,0 / 18,2649914,2019-08-18 21:35:19:026,2.6766,-0.6594,9.0873,2.7011,-1.0175,9.3722,0.0009,0.0086,-0.0006
26500,47.12931,-1.505069,78.48,30.06,13.936001,149.4,0 / 18,2650015,2019-08-18 21:35:19:127,2.6826,-0.8347,9.6745,2.6941,-1.0076,9.3753,-0.0023,-0.0032,-0.0006
26501,47.12931,-1.505069,78.48,30.06,13.936001,149.4,0 / 18,2650115,2019-08-18 21:35:19:227,2.6162,-0.8024,9.0897,2.6953,-1.0031,9.3755,0.0051,0.0011,-0.0017
26502,47.12931,-1.505069,78.48,30.06,13.936001,149.4,0 / 18,2650215,2019-08-18 21:35:19:327,2.5695,-0.9856,9.65,2.6963,-0.9916,9.3764,-0.0002,-0.0053,0.0015
26503,47.12931,-1.505069,78.48,30.06,13.936001,149.4,0 / 18,2650314,2019-08-18 21:35:19:426,2.4976,-0.8712,9.4393,2.693,-0.9744,9.3792,0.0083,-0.0021,-0.0017
26504,47.12931,-1.505069,78.48,30.06,13.936001,149.4,0 / 18,2650414,2019-08-18 21:35:19:526,2.5545,-1.0406,9.3561,2.6983,-0.9633,9.3788,-0.0023,0.0011,0.0004
26505,47.12931,-1.505069,78.48,30.06,13.936001,149.4,0 / 18,2650514,2019-08-18 21:35:19:626,2.688,-1.1717,9.8415,2.689,-0.9613,9.3817,0.0073,-0.0032,-0.0028
26506,47.12931,-1.505069,78.48,30.06,13.936001,149.4,0 / 18,2650614,2019-08-18 21:35:19:726,2.9047,-1.2232,9.571,2.7007,-0.9727,9.3771,-0.0076,0.0022,0.0015
26507,47.12931,-1.505069,78.48,30.06,13.936001,149.4,0 / 18,2650714,2019-08-18 21:35:19:826,2.7957,-1.14,9.4997,2.7051,-0.9678,9.3764,0.003,-0.0032,-0.0017
26508,47.12931,-1.505069,78.48,30.06,13.936001,149.4,0 / 18,2650814,2019-08-18 21:35:19:926,2.9304,-1.0454,9.7876,2.6972,-0.9704,9.3784,-0.0076,0.0064,0.0026
26509,47.12931,-1.505069,78.48,30.06,13.936001,149.4,0 / 18,2650915,2019-08-18 21:35:20:027,2.5102,-0.87,9.3136,2.6791,-0.996,9.3809,-0.0172,0.0118,0.0079
26510,47.12931,-1.505069,78.48,30.06,13.936001,149.4,0 / 18,2651014,2019-08-18 21:35:20:126,2.3983,-0.6623,9.1316,2.6597,-1.0005,9.3859,-0.0013,0.0182,0.0036
26511,47.12931,-1.505069,78.48,30.06,13.936001,149.4,0 / 18,2651114,2019-08-18 21:35:20:226,2.1954,-0.8066,9.155,2.6427,-1.0026,9.3905,0.003,-0.0042,0.0004
26512,47.12931,-1.505069,78.48,30.06,13.936001,149.4,0 / 18,2651214,2019-08-18 21:35:20:326,2.4312,-1.1723,9.6942,2.6417,-0.9975,9.3913,0.0094,-0.0106,-0.0028
26513,47.12931,-1.505069,78.48,30.06,13.936001,149.4,0 / 18,2651314,2019-08-18 21:35:20:426,2.2935,-1.067,9.4812,2.6386,-0.9867,9.3933,0.0094,-0.001,-0.0006
26514,47.12931,-1.505069,78.48,30.06,13.936001,149.4,0 / 18,2651414,2019-08-18 21:35:20:526,2.4174,-0.9874,9.4566,2.5939,-0.9796,9.4065,0.0051,0.0139,0.0015
26515,47.12931,-1.505069,78.48,30.06,13.936001,149.4,0 / 18,2651514,2019-08-18 21:35:20:626,2.2594,-0.9945,9.4087,2.5874,-0.9795,9.4083,-0.0045,0.0011,0.0026
26516,47.12931,-1.505069,78.48,30.06,13.936001,149.4,0 / 18,2651614,2019-08-18 21:35:20:726,2.4192,-1.1095,9.6051,2.5781,-0.9769,9.4111,0.0073,-0.0021,-0.0028
26517,47.12931,-1.505069,78.48,30.06,13.936001,149.4,0 / 18,2651714,2019-08-18 21:35:20:826,2.6874,-1.3417,9.9115,2.5762,-0.9702,9.4123,0.0051,-0.0053,-0.0006
26518,47.12931,-1.505069,78.48,30.06,13.936001,149.4,0 / 18,2651814,2019-08-18 21:35:20:926,2.8244,-1.1136,9.8678,2.5861,-0.9625,9.4104,0.0083,-0.0032,-0.0017
26519,47.12931,-1.505069,78.48,30.06,13.936001,149.4,0 / 18,2651914,2019-08-18 21:35:21:026,2.8005,-0.812,9.5404,2.5808,-0.9648,9.4116,-0.0076,0.0107,0.0058
26520,47.12931,-1.505069,78.48,30.06,13.936001,149.4,0 / 18,2652015,2019-08-18 21:35:21:127,2.8209,-0.739,9.4243,2.5741,-0.9592,9.414,0.0062,0.0032,-0.0006
26521,47.12931,-1.505069,78.48,30.06,13.936001,149.4,0 / 18,2652115,2019-08-18 21:35:21:227,2.858,-0.6845,9.4123,2.5922,-0.9525,9.4098,-0.0055,-0.0042,0.0036
26522,47.12931,-1.505069,78.48,30.06,13.936001,149.4,0 / 18,2652214,2019-08-18 21:35:21:326,2.6449,-0.6875,9.1897,2.608,-0.9429,9.4064,-0.0002,-0.0032,0.0015
26523,47.12931,-1.505069,78.48,30.06,13.936001,149.4,0 / 18,2652314,2019-08-18 21:35:21:426,2.7113,-0.9347,9.3597,2.6205,-0.9361,9.4036,0.0009,0.0043,0.0026
26524,47.12931,-1.505069,78.48,30.06,13.936001,149.4,0 / 18,2652415,2019-08-18 21:35:21:527,2.4917,-0.9119,9.4465,2.6243,-0.9303,9.4031,-0.0119,0.0032,0.0047
26525,47.12931,-1.505069,78.48,30.06,13.936001,149.4,0 / 18,2652514,2019-08-18 21:35:21:626,2.5359,-1.0538,9.4327,2.6259,-0.9382,9.4019,-0.0023,0.0107,0.0036
26526,47.12931,-1.505069,78.48,30.06,13.936001,149.4,0 / 18,2652614,2019-08-18 21:35:21:726,2.5856,-1.0514,9.6158,2.6387,-0.94,9.3981,0.0137,-0.0138,-0.0028
26527,47.12931,-1.505069,78.48,30.06,13.936001,149.4,0 / 18,2652714,2019-08-18 21:35:21:826,2.5922,-1.064,9.4662,2.6463,-0.9325,9.3967,0.0073,-0.0063,0.0015
26528,47.12931,-1.505069,78.48,30.06,13.936001,149.4,0 / 18,2652815,2019-08-18 21:35:21:927,2.615,-0.9796,9.3172,2.6422,-0.9304,9.3981,-0.0002,0.0032,0.0026
26529,47.12931,-1.505069,78.48,30.06,13.936001,149.4,0 / 18,2652914,2019-08-18 21:35:22:026,2.6706,-0.9467,9.4776,2.6425,-0.9328,9.3977,-0.0066,0.0011,0.0036
26530,47.12931,-1.505069,78.48,30.06,13.936001,149.4,0 / 18,2653014,2019-08-18 21:35:22:126,2.7849,-1.1047,10.1228,2.6481,-0.9389,9.3956,-0.0023,-0.0149,0.0026
26531,47.12931,-1.505069,78.48,30.06,13.936001,149.4,0 / 18,2653115,2019-08-18 21:35:22:227,2.8981,-0.9562,9.447,2.6517,-0.9356,9.3949,-0.0087,-0.0074,0.0047
26532,47.12931,-1.505069,78.48,30.06,13.936001,149.4,0 / 18,2653215,2019-08-18 21:35:22:327,2.8939,-0.8305,9.3273,2.6367,-0.9409,9.3986,-0.0002,0.0224,0.0047
26533,47.12931,-1.505069,78.48,30.06,13.936001,149.4,Oct-18,2653314,2019-08-18 21:35:22:426,2.6227,-0.7497,8.7503,2.618,-0.9361,9.4043,0.0105,0.0267,0.0036
26534,47.12931,-1.505069,78.48,30.06,13.936001,149.4,Oct-18,2653414,2019-08-18 21:35:22:526,2.6191,-0.7426,9.2687,2.6077,-0.9265,9.4081,0.0041,0.0,0.0026
26535,47.12931,-1.505069,78.48,30.06,13.936001,149.4,Oct-18,2653515,2019-08-18 21:35:22:627,2.4731,-0.6007,9.2645,2.6108,-0.9201,9.4079,0.0094,-0.0053,-0.0017
26536,47.12931,-1.505069,78.48,30.06,13.936001,149.4,Oct-18,2653614,2019-08-18 21:35:22:726,2.5378,-0.7402,9.5093,2.6197,-0.9111,9.4062,-0.0013,-0.0127,0.0004
26537,47.12931,-1.505069,78.48,30.06,13.936001,149.4,Oct-18,2653714,2019-08-18 21:35:22:826,2.5461,-1.0095,9.5721,2.6279,-0.9111,9.404,0.0019,-0.0085,-0.0006
26538,47.12931,-1.505069,78.48,30.06,13.936001,149.4,Oct-18,2653814,2019-08-18 21:35:22:926,2.6078,-1.1005,9.5919,2.6157,-0.9018,9.4083,0.0083,0.0139,0.0015
26539,47.12931,-1.505069,78.48,30.06,13.936001,149.4,Oct-18,2653914,2019-08-18 21:35:23:026,2.2846,-1.1735,9.708,2.6075,-0.9048,9.4102,-0.0002,-0.0021,0.0004
26540,47.12931,-1.505069,78.48,30.06,13.936001,149.4,Oct-18,2654015,2019-08-18 21:35:23:127,2.1744,-0.9407,8.9598,2.5813,-0.9133,9.4166,-0.0055,0.0171,0.0036
26541,47.12931,-1.505069,78.48,30.06,13.936001,149.4,Oct-18,2654114,2019-08-18 21:35:23:226,2.1517,-1.0233,9.4045,2.5579,-0.9144,9.4229,0.0062,0.0139,0.0004
26542,47.12931,-1.505069,78.48,30.06,13.936001,149.4,Oct-18,2654214,2019-08-18 21:35:23:326,2.0966,-1.0113,9.802,2.5245,-0.9198,9.4314,0.0019,0.0032,0.0004
26543,47.1272,-1.50328,79.53,30.2,13.936001,148.6,0 / 18,2654314,2019-08-18 21:35:23:426,2.2989,-1.1418,9.9582,2.5147,-0.9255,9.4334,-0.0013,-0.0106,-0.0006
26544,47.1272,-1.50328,79.53,30.2,13.936001,148.6,0 / 18,2654415,2019-08-18 21:35:23:527,2.4264,-1.1346,9.5823,2.4949,-0.9318,9.4381,-0.0023,0.0096,0.0015
26545,47.1272,-1.50328,79.53,30.2,13.936001,148.6,0 / 18,2654515,2019-08-18 21:35:23:627,2.4085,-1.0478,9.7739,2.4341,-0.9476,9.4524,-0.0066,0.0118,0.0036
26546,47.1272,-1.50328,79.53,30.2,13.936001,148.6,0 / 18,2654614,2019-08-18 21:35:23:726,2.0074,-1.1436,9.623,2.4117,-0.9545,9.4574,0.0051,0.0011,-0.0028
26547,47.1272,-1.50328,79.53,30.2,13.936001,148.6,0 / 18,2654715,2019-08-18 21:35:23:827,2.2026,-0.8311,9.6996,2.4032,-0.9548,9.4596,0.0083,-0.0063,-0.0028
26548,47.1272,-1.50328,79.53,30.2,13.936001,148.6,0 / 18,2654814,2019-08-18 21:35:23:926,2.0966,-0.8952,9.6607,2.3575,-0.9615,9.4704,0.0105,-0.001,-0.0017
26549,47.1272,-1.50328,79.53,30.2,13.936001,148.6,0 / 18,2654915,2019-08-18 21:35:24:027,1.9117,-0.979,9.3022,2.3447,-0.9661,9.4731,-0.0066,0.0064,0.0036
26550,47.1272,-1.50328,79.53,30.2,13.936001,148.6,0 / 18,2655014,2019-08-18 21:35:24:126,1.8961,-1.0113,9.2777,2.3361,-0.9822,9.4736,-0.0108,-0.0085,-0.0006
26551,47.1272,-1.50328,79.53,30.2,13.936001,148.6,0 / 18,2655115,2019-08-18 21:35:24:227,1.5513,-1.0161,9.5697,2.3369,-0.9869,9.4729,-0.0034,-0.0085,-0.0017
26552,47.1272,-1.50328,79.53,30.2,13.936001,148.6,0 / 18,2655214,2019-08-18 21:35:24:326,2.2271,-0.9197,9.3261,2.3294,-0.9864,9.4748,0.0041,0.0064,-0.0017
26553,47.1272,-1.50328,79.53,30.2,13.936001,148.6,0 / 18,2655315,2019-08-18 21:35:24:427,2.1289,-1.0496,9.5225,2.3167,-0.9923,9.4773,-0.0002,0.0118,0.0004
26554,47.1272,-1.50328,79.53,30.2,13.936001,148.6,0 / 18,2655414,2019-08-18 21:35:24:526,2.3737,-1.3746,9.6272,2.3121,-0.9889,9.4787,0.0062,-0.0032,-0.0028
26555,47.1272,-1.50328,79.53,30.2,13.936001,148.6,0 / 18,2655515,2019-08-18 21:35:24:627,2.1954,-1.2004,9.4303,2.2727,-1.0023,9.4869,-0.0023,0.0043,0.0026
26556,47.1272,-1.50328,79.53,30.2,13.936001,148.6,0 / 18,2655614,2019-08-18 21:35:24:726,2.4168,-1.1729,9.7068,2.2669,-1.0172,9.4867,0.0094,0.0022,-0.0017
26557,47.1272,-1.50328,79.53,30.2,13.936001,148.6,0 / 18,2655714,2019-08-18 21:35:24:826,2.1858,-1.0634,9.3698,2.2406,-1.0108,9.4936,-0.0002,-0.001,0.0015
26558,47.1272,-1.50328,79.53,30.2,13.936001,148.6,0 / 18,2655815,2019-08-18 21:35:24:927,2.2067,-0.8317,9.5626,2.2436,-1.0104,9.4929,0.0009,-0.0042,0.0004
26559,47.1272,-1.50328,79.53,30.2,13.936001,148.6,0 / 18,2655914,2019-08-18 21:35:25:026,2.1403,-0.8976,9.2417,2.2417,-1.0104,9.4934,-0.0023,0.0064,0.0026
26560,47.1272,-1.50328,79.53,30.2,13.936001,148.6,0 / 18,2656015,2019-08-18 21:35:25:127,2.1415,-0.9419,9.5554,2.2343,-1.0088,9.4953,0.0019,0.0075,-0.0006
26561,47.1272,-1.50328,79.53,30.2,13.936001,148.6,0 / 18,2656114,2019-08-18 21:35:25:226,2.0104,-0.9281,9.2908,2.2329,-1.0104,9.4955,-0.0098,0.0043,0.0036
26562,47.1272,-1.50328,79.53,30.2,13.936001,148.6,0 / 18,2656214,2019-08-18 21:35:25:326,2.2516,-1.0179,9.7721,2.2391,-1.0164,9.4933,-0.0087,-0.0117,0.0026
26563,47.1272,-1.50328,79.53,30.2,13.936001,148.6,0 / 18,2656314,2019-08-18 21:35:25:426,2.2881,-1.0825,9.5165,2.2551,-1.0182,9.4894,-0.0002,-0.0106,0.0004
26564,47.1272,-1.50328,79.53,30.2,13.936001,148.6,0 / 18,2656414,2019-08-18 21:35:25:526,2.5084,-1.0909,9.9355,2.2642,-1.0111,9.488,0.003,0.0032,0.0015
26565,47.1272,-1.50328,79.53,30.2,13.936001,148.6,0 / 18,2656514,2019-08-18 21:35:25:626,2.5186,-0.9329,9.4099,2.263,-0.9961,9.4899,0.0115,0.015,0.0015
26566,47.1272,-1.50328,79.53,30.2,13.936001,148.6,0 / 18,2656614,2019-08-18 21:35:25:726,2.4701,-0.9826,9.0191,2.2591,-0.993,9.4911,0.0041,0.0118,0.0015
26567,47.1272,-1.50328,79.53,30.2,13.936001,148.6,0 / 18,2656715,2019-08-18 21:35:25:827,2.4617,-0.8808,9.0484,2.2962,-0.9829,9.4832,-0.0045,-0.0085,0.0004
26568,47.1272,-1.50328,79.53,30.2,13.936001,148.6,0 / 18,2656814,2019-08-18 21:35:25:926,2.6042,-1.0424,9.9929,2.3136,-0.977,9.4796,0.0083,-0.0127,-0.006
26569,47.1272,-1.50328,79.53,30.2,13.936001,148.6,0 / 18,2656914,2019-08-18 21:35:26:026,2.3851,-0.9054,9.4686,2.3382,-0.9655,9.4748,0.0126,-0.0063,-0.0038
26570,47.1272,-1.50328,79.53,30.2,13.936001,148.6,0 / 18,2657014,2019-08-18 21:35:26:126,2.5503,-1.0478,9.2268,2.3428,-0.9625,9.4739,0.003,0.0075,0.0004
26571,47.1272,-1.50328,79.53,30.2,13.936001,148.6,0 / 18,2657115,2019-08-18 21:35:26:227,2.5742,-1.1214,9.6111,2.3765,-0.9695,9.4648,-0.0055,-0.0021,-0.0006
26572,47.1272,-1.50328,79.53,30.2,13.936001,148.6,0 / 18,2657215,2019-08-18 21:35:26:327,2.5814,-0.9862,9.3118,2.3992,-0.9732,9.4587,-0.0087,0.0054,0.0036
26573,47.1272,-1.50328,79.53,30.2,13.936001,148.6,0 / 18,2657314,2019-08-18 21:35:26:426,2.8221,-1.0376,9.6673,2.4652,-0.9738,9.4416,0.019,0.0043,-0.0038
26574,47.1272,-1.50328,79.53,30.2,13.936001,148.6,0 / 18,2657415,2019-08-18 21:35:26:527,2.6634,-0.9886,8.9868,2.4931,-0.9593,9.4358,0.0083,0.0139,0.0015
26575,47.1272,-1.50328,79.53,30.2,13.936001,148.6,0 / 18,2657514,2019-08-18 21:35:26:626,2.6162,-0.7623,8.9233,2.4941,-0.9662,9.4348,-0.0204,-0.0021,0.0047
26576,47.1272,-1.50328,79.53,30.2,13.936001,148.6,0 / 18,2657615,2019-08-18 21:35:26:727,2.4779,-0.408,9.2723,2.5064,-0.9742,9.4308,-0.013,-0.0117,0.0015
26577,47.1272,-1.50328,79.53,30.2,13.936001,148.6,0 / 18,2657714,2019-08-18 21:35:26:826,2.7023,-0.7312,9.9438,2.5222,-0.9661,9.4274,0.0126,-0.0106,-0.0028
26578,47.1272,-1.50328,79.53,30.2,13.936001,148.6,0 / 18,2657815,2019-08-18 21:35:26:927,2.5258,-1.1077,9.6506,2.5299,-0.9575,9.4262,0.0094,-0.001,-0.0006
26579,47.1272,-1.50328,79.53,30.2,13.936001,148.6,0 / 18,2657914,2019-08-18 21:35:27:026,2.4468,-0.9922,9.2435,2.5277,-0.9529,9.4272,-0.0034,0.0043,0.0026
26580,47.1272,-1.50328,79.53,30.2,13.936001,148.6,0 / 18,2658014,2019-08-18 21:35:27:126,2.3863,-0.8623,9.228,2.5231,-0.9598,9.4278,-0.013,0.0086,0.0058
26581,47.1272,-1.50328,79.53,30.2,13.936001,148.6,0 / 18,2658115,2019-08-18 21:35:27:227,2.4557,-1.067,9.152,2.5146,-0.975,9.4285,-0.013,0.0086,0.0047
26582,47.1272,-1.50328,79.53,30.2,13.936001,148.6,0 / 18,2658214,2019-08-18 21:35:27:326,2.4557,-1.0185,9.1478,2.5126,-0.9763,9.4289,-0.0055,0.0075,0.0036
26583,47.1272,-1.50328,79.53,30.2,13.936001,148.6,0 / 18,2658314,2019-08-18 21:35:27:426,2.9549,-1.0658,9.5608,2.5118,-0.9801,9.4287,-0.0087,-0.001,0.0047
26584,47.1272,-1.50328,79.53,30.2,13.936001,148.6,0 / 18,2658414,2019-08-18 21:35:27:526,2.8328,-0.979,9.7122,2.5177,-0.9831,9.4268,-0.0055,-0.0074,0.0015
26585,47.1272,-1.50328,79.53,30.2,13.936001,148.6,0 / 18,2658515,2019-08-18 21:35:27:627,2.7227,-0.815,9.6464,2.5184,-0.9852,9.4264,0.003,0.0022,0.0004
26586,47.1272,-1.50328,79.53,30.2,13.936001,148.6,0 / 18,2658614,2019-08-18 21:35:27:726,2.4133,-0.8407,9.2932,2.5136,-0.98,9.4283,0.0137,0.0043,-0.0017
26587,47.1272,-1.50328,79.53,30.2,13.936001,148.6,0 / 18,2658715,2019-08-18 21:35:27:827,2.1918,-0.8766,9.0095,2.4998,-0.9916,9.4307,-0.0108,0.0086,0.0058
26588,47.1272,-1.50328,79.53,30.2,13.936001,148.6,0 / 18,2658815,2019-08-18 21:35:27:927,2.1876,-1.046,9.1023,2.4952,-1.0003,9.431,-0.0119,0.0,0.0026
26589,47.1272,-1.50328,79.53,30.2,13.936001,148.6,0 / 18,2658914,2019-08-18 21:35:28:026,2.0787,-0.8467,9.3615,2.4689,-1.0052,9.4374,-0.0119,0.0064,0.0047
26590,47.1272,-1.50328,79.53,30.2,13.936001,148.6,0 / 18,2659014,2019-08-18 21:35:28:126,2.2002,-0.9054,9.6978,2.4532,-1.0078,9.4412,0.0009,-0.0032,-0.0006
26591,47.1272,-1.50328,79.53,30.2,13.936001,148.6,0 / 18,2659114,2019-08-18 21:35:28:226,2.5623,-1.1699,9.4285,2.4499,-0.9979,9.4431,0.0105,0.0032,0.0004
26592,47.1272,-1.50328,79.53,30.2,13.936001,148.6,0 / 18,2659215,2019-08-18 21:35:28:327,2.6515,-1.1597,9.8888,2.4393,-0.9984,9.4458,0.0009,0.0118,0.0047
26593,47.1272,-1.50328,79.53,30.2,13.936001,148.6,0 / 18,2659314,2019-08-18 21:35:28:426,2.4737,-1.1532,9.6332,2.4293,-0.9982,9.4484,0.003,-0.0032,-0.0006
26594,47.1272,-1.50328,79.53,30.2,13.936001,148.6,0 / 18,2659415,2019-08-18 21:35:28:527,2.5461,-0.8473,9.4399,2.4011,-1.008,9.4546,0.0073,0.0022,-0.0006
26595,47.1272,-1.50328,79.53,30.2,13.936001,148.6,0 / 18,2659514,2019-08-18 21:35:28:626,2.0709,-0.8503,9.1615,2.3529,-1.0164,9.4658,-0.0002,0.0054,0.0015
26596,47.1272,-1.50328,79.53,30.2,13.936001,148.6,0 / 18,2659614,2019-08-18 21:35:28:726,2.1547,-0.9652,9.3249,2.3319,-1.0191,9.4707,-0.0162,0.0107,0.0058
26597,47.1272,-1.50328,79.53,30.2,13.936001,148.6,0 / 18,2659714,2019-08-18 21:35:28:826,1.9805,-1.0867,9.1172,2.2916,-1.0378,9.4785,-0.0098,0.0043,0.0036
26598,47.1272,-1.50328,79.53,30.2,13.936001,148.6,0 / 18,2659815,2019-08-18 21:35:28:927,2.0026,-1.0813,9.5644,2.2693,-1.0573,9.4817,-0.0013,-0.0053,0.0004
26599,47.1272,-1.50328,79.53,30.2,13.936001,148.6,0 / 18,2659914,2019-08-18 21:35:29:026,2.0242,-1.1687,9.6302,2.2727,-1.0581,9.4808,0.003,-0.0074,-0.0006
26600,47.1272,-1.50328,79.53,30.2,13.936001,148.6,0 / 18,2660014,2019-08-18 21:35:29:126,2.2091,-1.1861,9.6039,2.2664,-1.0681,9.4812,-0.0045,0.0011,0.0026
26601,47.1272,-1.50328,79.53,30.2,13.936001,148.6,0 / 18,2660114,2019-08-18 21:35:29:226,2.5126,-1.3046,9.8499,2.2566,-1.0624,9.4842,0.0062,0.0,-0.0006
26602,47.1272,-1.50328,79.53,30.2,13.936001,148.6,0 / 18,2660215,2019-08-18 21:35:29:327,2.3552,-0.9742,9.5656,2.2433,-1.0609,9.4875,0.0126,0.0118,-0.0006
26603,47.1272,-1.50328,79.53,30.2,13.936001,148.6,0 / 18,2660314,2019-08-18 21:35:29:426,2.1463,-0.9939,9.3214,2.2358,-1.0656,9.4887,0.0094,0.0107,-0.0017
26604,47.1272,-1.50328,79.53,30.2,13.936001,148.6,0 / 18,2660414,2019-08-18 21:35:29:526,2.3606,-0.9024,9.304,2.2418,-1.0572,9.4883,0.0051,-0.0074,-0.0017
26605,47.1272,-1.50328,79.53,30.2,13.936001,148.6,0 / 18,2660514,2019-08-18 21:35:29:626,2.0924,-0.9491,9.2358,2.2496,-1.0439,9.4879,-0.0002,0.0011,0.0026
26606,47.1272,-1.50328,79.53,30.2,13.936001,148.6,0 / 18,2660615,2019-08-18 21:35:29:727,2.2193,-1.0215,9.4488,2.266,-1.0354,9.4849,-0.0002,0.0043,0.0015
26607,47.1272,-1.50328,79.53,30.2,13.936001,148.6,0 / 18,2660714,2019-08-18 21:35:29:826,1.9817,-1.0209,9.0334,2.279,-1.0361,9.4817,-0.0066,0.0096,0.0036
26608,47.1272,-1.50328,79.53,30.2,13.936001,148.6,0 / 18,2660814,2019-08-18 21:35:29:926,2.5449,-1.1053,9.3351,2.3005,-1.041,9.476,-0.0002,-0.0063,0.0004
26609,47.1272,-1.50328,79.53,30.2,13.936001,148.6,0 / 18,2660914,2019-08-18 21:35:30:026,2.5198,-1.2124,9.5326,2.3041,-1.044,9.4748,-0.0034,0.0064,0.0036
26610,47.1272,-1.50328,79.53,30.2,13.936001,148.6,0 / 18,2661014,2019-08-18 21:35:30:126,2.6832,-0.9323,9.3112,2.3121,-1.0422,9.4731,-0.0013,0.0011,0.0015
26611,47.1272,-1.50328,79.53,30.2,13.936001,148.6,0 / 18,2661114,2019-08-18 21:35:30:226,2.7861,-0.7821,9.5045,2.3714,-1.0364,9.459,-0.0045,0.0022,0.0026
26612,47.1272,-1.50328,79.53,30.2,13.936001,148.6,0 / 18,2661214,2019-08-18 21:35:30:326,2.5952,-0.7132,9.5913,2.3876,-1.0296,9.4557,0.0062,-0.0106,-0.0006
26613,47.1272,-1.50328,79.53,30.2,13.936001,148.6,0 / 18,2661315,2019-08-18 21:35:30:427,2.4545,-0.8353,9.3208,2.3945,-1.0239,9.4545,0.0062,0.0032,0.0015
26614,47.1272,-1.50328,79.53,30.2,13.936001,148.6,0 / 18,2661414,2019-08-18 21:35:30:526,2.2301,-0.9646,9.137,2.3928,-1.018,9.4556,0.0051,0.0064,0.0015
26615,47.1272,-1.50328,79.53,30.2,13.936001,148.6,0 / 18,2661514,2019-08-18 21:35:30:626,2.1948,-1.0197,9.125,2.3854,-1.0145,9.4579,0.003,0.0118,0.0026
26616,47.1272,-1.50328,79.53,30.2,13.936001,148.6,0 / 18,2661614,2019-08-18 21:35:30:726,2.096,-1.0897,9.7984,2.3718,-1.012,9.4615,0.0041,0.0022,0.0026
26617,47.1272,-1.50328,79.53,30.2,13.936001,148.6,0 / 18,2661714,2019-08-18 21:35:30:826,2.1295,-1.073,9.3004,2.3371,-1.0243,9.4688,-0.0013,0.0064,0.0036
26618,47.1272,-1.50328,79.53,30.2,13.936001,148.6,0 / 18,2661814,2019-08-18 21:35:30:926,2.3612,-1.1406,9.4842,2.2788,-1.043,9.481,-0.0023,0.0043,0.0015
26619,47.1272,-1.50328,79.53,30.2,13.936001,148.6,0 / 18,2661914,2019-08-18 21:35:31:026,2.2265,-1.1196,9.4638,2.2712,-1.047,9.4824,-0.0023,0.0,0.0015
26620,47.1272,-1.50328,79.53,30.2,13.936001,148.6,0 / 18,2662014,2019-08-18 21:35:31:126,2.1678,-1.1125,9.8367,2.2454,-1.057,9.4874,0.0019,-0.0032,-0.0028
26621,47.1272,-1.50328,79.53,30.2,13.936001,148.6,0 / 18,2662115,2019-08-18 21:35:31:227,2.0619,-0.8946,9.316,2.2055,-1.0673,9.4956,-0.0002,0.0032,0.0004
26622,47.1272,-1.50328,79.53,30.2,13.936001,148.6,0 / 18,2662214,2019-08-18 21:35:31:326,1.9404,-1.0801,9.3177,2.1865,-1.081,9.4985,-0.0119,0.0118,0.0047
26623,47.1272,-1.50328,79.53,30.2,13.936001,148.6,Oct-18,2662314,2019-08-18 21:35:31:426,1.8584,-1.398,9.6081,2.1819,-1.0845,9.4991,0.0009,-0.0085,-0.0017
26624,47.1272,-1.50328,79.53,30.2,13.936001,148.6,Oct-18,2662415,2019-08-18 21:35:31:527,1.8566,-1.0059,9.8409,2.1789,-1.0795,9.5004,0.0073,0.0011,-0.0006
26625,47.1272,-1.50328,79.53,30.2,13.936001,148.6,Oct-18,2662514,2019-08-18 21:35:31:626,2.078,-1.2872,9.7996,2.1494,-1.0864,9.5063,-0.0013,0.0118,0.0036
26626,47.1272,-1.50328,79.53,30.2,13.936001,148.6,Oct-18,2662614,2019-08-18 21:35:31:726,2.333,-1.1358,9.3896,2.1107,-1.0941,9.5141,-0.0045,0.0096,0.0015
26627,47.1272,-1.50328,79.53,30.2,13.936001,148.6,Oct-18,2662714,2019-08-18 21:35:31:826,2.3312,-1.2441,9.5997,2.102,-1.0928,9.5162,0.0051,-0.0053,-0.0038
26628,47.1272,-1.50328,79.53,30.2,13.936001,148.6,Oct-18,2662815,2019-08-18 21:35:31:927,2.0984,-0.9592,9.2836,2.1108,-1.1106,9.5122,-0.0023,0.0,0.0026
26629,47.1272,-1.50328,79.53,30.2,13.936001,148.6,Oct-18,2662914,2019-08-18 21:35:32:026,1.7764,-1.2208,9.6116,2.1396,-1.0887,9.5083,0.0009,0.0,0.0026
26630,47.1272,-1.50328,79.53,30.2,13.936001,148.6,Oct-18,2663014,2019-08-18 21:35:32:126,1.7961,-1.3764,9.638,2.1413,-1.0758,9.5093,0.0094,-0.0021,0.0015
26631,47.1272,-1.50328,79.53,30.2,13.936001,148.6,Oct-18,2663114,2019-08-18 21:35:32:226,2.0188,-0.8395,9.119,2.1342,-1.0718,9.5114,0.003,0.015,0.0058
26632,47.1272,-1.50328,79.53,30.2,13.936001,148.6,Oct-18,2663214,2019-08-18 21:35:32:326,2.4988,-1.052,9.5727,2.1349,-1.0718,9.5112,-0.0034,-0.0042,0.0047
26633,47.125126,-1.5015,90.97,29.79,15.008,148.5,0 / 18,2663314,2019-08-18 21:35:32:426,2.6581,-1.2226,9.5781,2.1464,-1.0692,9.509,-0.0045,-0.0053,0.0036
26634,47.125126,-1.5015,90.97,29.79,15.008,148.5,0 / 18,2663414,2019-08-18 21:35:32:526,2.6742,-0.8353,9.5243,2.172,-1.0597,9.5042,0.0105,-0.0149,-0.0006
26635,47.125126,-1.5015,90.97,29.79,15.008,148.5,0 / 18,2663515,2019-08-18 21:35:32:627,2.524,-0.7431,9.3734,2.186,-1.049,9.5022,0.0094,0.0054,0.0036
26636,47.125126,-1.5015,90.97,29.79,15.008,148.5,0 / 18,2663614,2019-08-18 21:35:32:726,2.3528,-0.9437,9.2914,2.1931,-1.0398,9.5016,-0.0055,0.0054,0.0079
26637,47.125126,-1.5015,90.97,29.79,15.008,148.5,0 / 18,2663714,2019-08-18 21:35:32:826,2.439,-0.9874,9.4686,2.2486,-1.0403,9.4885,-0.0183,0.0,0.0026
26638,47.125126,-1.5015,90.97,29.79,15.008,148.5,0 / 18,2663815,2019-08-18 21:35:32:927,2.5024,-1.1903,9.38,2.3029,-1.045,9.475,-0.0002,0.0,-0.0081
26639,47.125126,-1.5015,90.97,29.79,15.008,148.5,0 / 18,2663914,2019-08-18 21:35:33:026,2.7041,-1.5314,9.7188,2.3221,-1.0461,9.4676,-0.0002,-0.0042,-0.007
26640,47.125126,-1.5015,90.97,29.79,15.008,148.5,0 / 18,2664015,2019-08-18 21:35:33:127,2.8257,-1.4584,9.477,2.347,-1.0558,9.463,-0.0045,-0.0032,-0.007
26641,47.125126,-1.5015,90.97,29.79,15.008,148.5,0 / 18,2664115,2019-08-18 21:35:33:227,2.9651,-0.9389,9.1532,2.4797,-1.1197,9.4217,-0.0023,0.0118,-0.0081
26642,47.125126,-1.5015,90.97,29.79,15.008,148.5,0 / 18,2664215,2019-08-18 21:35:33:327,2.67,-1.2597,9.1627,2.5421,-1.1441,9.4021,0.0062,0.0086,-0.0113
26643,47.125126,-1.5015,90.97,29.79,15.008,148.5,0 / 18,2664314,2019-08-18 21:35:33:426,2.7646,-1.2645,9.037,2.6091,-1.1742,9.38,-0.0098,0.0032,-0.0049
26644,47.125126,-1.5015,90.97,29.79,15.008,148.5,0 / 18,2664414,2019-08-18 21:35:33:526,2.6527,-1.1053,9.3333,2.6411,-1.173,9.3712,-0.0098,0.0043,-0.007
26645,47.125126,-1.5015,90.97,29.79,15.008,148.5,0 / 18,2664514,2019-08-18 21:35:33:626,2.6389,-1.152,9.5368,2.6569,-1.1686,9.3673,0.0041,-0.0042,-0.006
26646,47.125126,-1.5015,90.97,29.79,15.008,148.5,0 / 18,2664614,2019-08-18 21:35:33:726,2.6539,-1.1352,9.1526,2.6621,-1.1671,9.366,-0.0002,0.0011,-0.0006
26647,47.125126,-1.5015,90.97,29.79,15.008,148.5,0 / 18,2664714,2019-08-18 21:35:33:826,2.9388,-1.1454,9.8205,2.6806,-1.1355,9.3646,0.0062,-0.0042,-0.0028
26648,47.125126,-1.5015,90.97,29.79,15.008,148.5,0 / 18,2664814,2019-08-18 21:35:33:926,2.9615,-0.8288,9.2328,2.6864,-1.1291,9.3637,-0.0013,-0.001,0.0026
26649,47.125126,-1.5015,90.97,29.79,15.008,148.5,0 / 18,2664914,2019-08-18 21:35:34:026,2.9962,-0.642,9.0394,2.6821,-1.117,9.3664,0.0019,0.0139,0.0026
26650,47.125126,-1.5015,90.97,29.79,15.008,148.5,0 / 18,2665014,2019-08-18 21:35:34:126,2.7825,-0.873,9.4686,2.6822,-1.1057,9.3677,0.0073,0.0022,0.0026
26651,47.125126,-1.5015,90.97,29.79,15.008,148.5,0 / 18,2665114,2019-08-18 21:35:34:226,2.7347,-0.7551,9.5213,2.7143,-1.0495,9.3649,0.003,-0.001,0.0026
26652,47.125126,-1.5015,90.97,29.79,15.008,148.5,0 / 18,2665214,2019-08-18 21:35:34:326,2.6269,-0.8485,9.3124,2.735,-1.0063,9.3636,-0.0002,-0.0021,0.0036
26653,47.125126,-1.5015,90.97,29.79,15.008,148.5,0 / 18,2665314,2019-08-18 21:35:34:426,2.8693,-1.07,9.3483,2.7559,-0.9769,9.3606,-0.0119,0.0054,0.0068
26654,47.125126,-1.5015,90.97,29.79,15.008,148.5,0 / 18,2665414,2019-08-18 21:35:34:526,2.7335,-1.1274,9.6721,2.7642,-0.9378,9.3622,-0.0023,-0.0096,0.0015
26655,47.125126,-1.5015,90.97,29.79,15.008,148.5,0 / 18,2665514,2019-08-18 21:35:34:626,2.7293,-1.0352,9.3537,2.7597,-0.9396,9.3633,-0.0045,0.0107,0.0079
26656,47.125126,-1.5015,90.97,29.79,15.008,148.5,0 / 18,2665614,2019-08-18 21:35:34:726,2.676,-0.8928,9.7649,2.7427,-0.942,9.3681,0.0073,-0.001,0.0026
26657,47.125126,-1.5015,90.97,29.79,15.008,148.5,0 / 18,2665714,2019-08-18 21:35:34:826,2.8065,-1.1059,9.2776,2.7075,-0.9469,9.3778,0.0009,0.0118,0.0036
26658,47.125126,-1.5015,90.97,29.79,15.008,148.5,0 / 18,2665815,2019-08-18 21:35:34:927,2.6329,-1.149,9.3848,2.6631,-0.9542,9.3898,-0.0013,0.0096,0.0004
26659,47.125126,-1.5015,90.97,29.79,15.008,148.5,0 / 18,2665914,2019-08-18 21:35:35:026,2.6024,-0.8293,9.2393,2.6345,-0.9782,9.3954,-0.0034,0.0096,-0.0017
26660,47.125126,-1.5015,90.97,29.79,15.008,148.5,0 / 18,2666014,2019-08-18 21:35:35:126,2.5814,-0.9251,9.7607,2.6058,-1.0086,9.4002,0.0009,-0.0063,-0.0049
26661,47.125126,-1.5015,90.97,29.79,15.008,148.5,0 / 18,2666114,2019-08-18 21:35:35:226,2.4318,-0.9305,9.647,2.6077,-1.0104,9.3994,0.0041,-0.0021,-0.0038
26662,47.125126,-1.5015,90.97,29.79,15.008,148.5,0 / 18,2666214,2019-08-18 21:35:35:326,2.3713,-1.0532,9.3644,2.5997,-1.01,9.4017,0.0073,0.0043,-0.0038
26663,47.125126,-1.5015,90.97,29.79,15.008,148.5,0 / 18,2666315,2019-08-18 21:35:35:427,2.1391,-0.9945,9.0981,2.5825,-1.0186,9.4055,-0.0045,0.0128,0.0004
26664,47.125126,-1.5015,90.97,29.79,15.008,148.5,0 / 18,2666414,2019-08-18 21:35:35:526,2.3791,-1.1561,9.3064,2.5716,-1.0261,9.4077,-0.0045,0.0075,0.0004
26665,47.125126,-1.5015,90.97,29.79,15.008,148.5,0 / 18,2666514,2019-08-18 21:35:35:626,2.3875,-1.143,9.4219,2.5539,-1.0656,9.4081,0.0051,0.0011,-0.0038
26666,47.125126,-1.5015,90.97,29.79,15.008,148.5,0 / 18,2666614,2019-08-18 21:35:35:726,2.7089,-1.2238,9.5165,2.5507,-1.0819,9.4071,0.0041,-0.0042,-0.0017
26667,47.125126,-1.5015,90.97,29.79,15.008,148.5,0 / 18,2666714,2019-08-18 21:35:35:826,2.749,-1.1921,9.5344,2.5591,-1.0606,9.4073,-0.0034,0.0054,0.0004
26668,47.125126,-1.5015,90.97,29.79,15.008,148.5,0 / 18,2666814,2019-08-18 21:35:35:926,2.837,-1.0161,9.5422,2.5654,-1.0607,9.4055,0.0073,0.0011,-0.0038
26669,47.125126,-1.5015,90.97,29.79,15.008,148.5,0 / 18,2666914,2019-08-18 21:35:36:026,2.5042,-0.6624,9.0634,2.572,-1.065,9.4033,0.003,0.0075,-0.0006
26670,47.125126,-1.5015,90.97,29.79,15.008,148.5,0 / 18,2667014,2019-08-18 21:35:36:126,2.4144,-0.6947,9.1077,2.5755,-1.0538,9.4035,0.0041,0.0011,-0.0017
26671,47.125126,-1.5015,90.97,29.79,15.008,148.5,0 / 18,2667114,2019-08-18 21:35:36:226,2.6796,-0.9461,9.4321,2.5924,-1.0316,9.4014,-0.0055,0.0011,0.0026
26672,47.125126,-1.5015,90.97,29.79,15.008,148.5,0 / 18,2667214,2019-08-18 21:35:36:326,2.3731,-1.0927,9.4476,2.6031,-1.0222,9.3994,-0.0023,-0.0032,0.0015
26673,47.125126,-1.5015,90.97,29.79,15.008,148.5,0 / 18,2667314,2019-08-18 21:35:36:426,2.4516,-1.198,9.453,2.6101,-1.0096,9.3988,0.0041,-0.0042,0.0015
26674,47.125126,-1.5015,90.97,29.79,15.008,148.5,0 / 18,2667414,2019-08-18 21:35:36:526,2.2888,-1.1172,9.0724,2.5987,-1.0114,9.4018,-0.0034,0.0171,0.0068
26675,47.125126,-1.5015,90.97,29.79,15.008,148.5,0 / 18,2667514,2019-08-18 21:35:36:626,2.3869,-1.1873,9.5446,2.5813,-1.0187,9.4058,-0.0066,0.0022,0.0026
26676,47.125126,-1.5015,90.97,29.79,15.008,148.5,0 / 18,2667614,2019-08-18 21:35:36:726,2.5102,-1.0652,9.5997,2.5619,-1.0209,9.4109,0.0019,-0.0021,-0.0006
26677,47.125126,-1.5015,90.97,29.79,15.008,148.5,0 / 18,2667714,2019-08-18 21:35:36:826,2.6706,-1.4464,9.6332,2.5183,-1.0103,9.4238,0.0051,0.0064,-0.0006
26678,47.125126,-1.5015,90.97,29.79,15.008,148.5,0 / 18,2667814,2019-08-18 21:35:36:926,2.6946,-1.0412,9.6727,2.4963,-1.0238,9.4282,-0.0055,-0.0096,0.0015
26679,47.125126,-1.5015,90.97,29.79,15.008,148.5,0 / 18,2667914,2019-08-18 21:35:37:026,2.7484,-0.8437,9.6757,2.4848,-1.0484,9.4285,-0.0023,0.0011,0.0026
26680,47.125126,-1.5015,90.97,29.79,15.008,148.5,0 / 18,2668014,2019-08-18 21:35:37:126,2.6209,-0.7084,9.6362,2.4713,-1.0396,9.4351,0.003,0.0043,0.0015
26681,47.125126,-1.5015,90.97,29.79,15.008,148.5,0 / 18,2668114,2019-08-18 21:35:37:226,2.6329,-1.0478,9.7104,2.4615,-1.0307,9.4366,0.0147,0.0011,-0.0028
26682,47.125126,-1.5015,90.97,29.79,15.008,148.5,0 / 18,2668214,2019-08-18 21:35:37:326,2.421,-0.9167,9.4213,2.4609,-1.0313,9.4367,0.0094,0.0011,-0.0006
26683,47.125126,-1.5015,90.97,29.79,15.008,148.5,0 / 18,2668314,2019-08-18 21:35:37:426,2.2355,-0.8958,9.2417,2.4571,-1.0156,9.4394,-0.0034,0.0022,0.0026
26684,47.125126,-1.5015,90.97,29.79,15.008,148.5,0 / 18,2668414,2019-08-18 21:35:37:526,2.2977,-1.0502,9.5709,2.46,-1.0101,9.4392,0.0062,-0.0032,-0.0006
26685,47.125126,-1.5015,90.97,29.79,15.008,148.5,0 / 18,2668514,2019-08-18 21:35:37:626,2.1289,-1.1172,9.4722,2.46,-1.0117,9.439,0.0073,0.0054,0.0004
26686,47.125126,-1.5015,90.97,29.79,15.008,148.5,0 / 18,2668614,2019-08-18 21:35:37:726,2.1038,-1.0598,9.3848,2.4257,-1.0151,9.4475,-0.0023,-0.0053,0.0026
26687,47.125126,-1.5015,90.97,29.79,15.008,148.5,0 / 18,2668714,2019-08-18 21:35:37:826,2.3073,-1.1137,9.4147,2.3869,-1.0144,9.4575,-0.0098,0.0096,0.0058
26688,47.125126,-1.5015,90.97,29.79,15.008,148.5,0 / 18,2668814,2019-08-18 21:35:37:926,2.2247,-1.2082,9.9109,2.3537,-1.0323,9.4639,-0.014,-0.0053,0.0015
26689,47.125126,-1.5015,90.97,29.79,15.008,148.5,0 / 18,2668914,2019-08-18 21:35:38:026,2.3504,-1.307,10.13,2.347,-1.0408,9.4646,-0.0034,-0.0021,-0.0017
26690,47.125126,-1.5015,90.97,29.79,15.008,148.5,0 / 18,2669014,2019-08-18 21:35:38:126,2.5587,-1.2968,9.9079,2.3147,-1.0563,9.4708,0.0201,0.0096,-0.007
26691,47.125126,-1.5015,90.97,29.79,15.008,148.5,0 / 18,2669114,2019-08-18 21:35:38:226,2.123,-1.0514,9.0634,2.2924,-1.0556,9.4763,0.003,0.0235,0.0015
26692,47.125126,-1.5015,90.97,29.79,15.008,148.5,0 / 18,2669214,2019-08-18 21:35:38:326,2.0457,-1.0502,9.0909,2.2721,-1.0573,9.481,-0.0013,0.0011,-0.0017
26693,47.125126,-1.5015,90.97,29.79,15.008,148.5,0 / 18,2669314,2019-08-18 21:35:38:426,1.9721,-1.1442,9.7224,2.2656,-1.0595,9.4823,0.0041,-0.0042,-0.0028
26694,47.125126,-1.5015,90.97,29.79,15.008,148.5,0 / 18,2669414,2019-08-18 21:35:38:526,1.932,-1.21,9.8098,2.264,-1.0552,9.4832,0.0126,-0.0063,-0.0038
26695,47.125126,-1.5015,90.97,29.79,15.008,148.5,0 / 18,2669514,2019-08-18 21:35:38:626,1.8362,-1.1891,9.6541,2.2593,-1.0484,9.4851,0.0094,0.0,-0.0017
26696,47.125126,-1.5015,90.97,29.79,15.008,148.5,0 / 18,2669615,2019-08-18 21:35:38:727,1.7183,-1.2136,9.4201,2.2527,-1.0525,9.4862,-0.0045,0.0,-0.0006
26697,47.125126,-1.5015,90.97,29.79,15.008,148.5,0 / 18,2669714,2019-08-18 21:35:38:826,2.1319,-1.1532,9.4494,2.2468,-1.0543,9.4874,-0.0013,0.0043,-0.0017
26698,47.125126,-1.5015,90.97,29.79,15.008,148.5,0 / 18,2669815,2019-08-18 21:35:38:927,2.2642,-1.2184,9.8259,2.2216,-1.0754,9.491,0.0051,0.0,-0.0038
26699,47.125126,-1.5015,90.97,29.79,15.008,148.5,0 / 18,2669914,2019-08-18 21:35:39:026,2.5623,-1.3573,9.4848,2.2197,-1.0783,9.4911,0.0158,-0.0053,-0.0049
26700,47.125126,-1.5015,90.97,29.79,15.008,148.5,0 / 18,2670014,2019-08-18 21:35:39:126,2.2852,-1.0586,9.6111,2.2159,-1.0835,9.4914,-0.0108,0.0043,0.0015
26701,47.125126,-1.5015,90.97,29.79,15.008,148.5,0 / 18,2670115,2019-08-18 21:35:39:227,2.5749,-1.125,9.6098,2.2161,-1.0869,9.4909,-0.0055,-0.0032,-0.0017
26702,47.125126,-1.5015,90.97,29.79,15.008,148.5,0 / 18,2670214,2019-08-18 21:35:39:326,2.3444,-1.04,9.802,2.219,-1.0912,9.4898,0.0019,-0.001,-0.0006
26703,47.125126,-1.5015,90.97,29.79,15.008,148.5,0 / 18,2670314,2019-08-18 21:35:39:426,2.1768,-0.9904,9.3674,2.2151,-1.0859,9.4913,0.0126,0.0086,-0.0038
26704,47.125126,-1.5015,90.97,29.79,15.008,148.5,0 / 18,2670415,2019-08-18 21:35:39:527,2.1385,-0.9257,9.3429,2.2036,-1.0847,9.4941,0.0019,0.0096,0.0004
26705,47.125126,-1.5015,90.97,29.79,15.008,148.5,0 / 18,2670514,2019-08-18 21:35:39:626,2.0176,-0.9766,9.2741,2.1954,-1.0785,9.4967,0.0137,0.0032,-0.0017
26706,47.125126,-1.5015,90.97,29.79,15.008,148.5,0 / 18,2670614,2019-08-18 21:35:39:726,2.0368,-0.9784,9.4482,2.1906,-1.0501,9.501,-0.0013,-0.0032,0.0068
26707,47.125126,-1.5015,90.97,29.79,15.008,148.5,0 / 18,2670714,2019-08-18 21:35:39:826,2.0804,-0.8299,9.7164,2.1914,-1.022,9.5039,0.0105,-0.0117,0.0026
26708,47.125126,-1.5015,90.97,29.79,15.008,148.5,0 / 18,2670814,2019-08-18 21:35:39:926,2.424,-0.8036,9.568,2.1952,-1.0112,9.5042,-0.0034,0.0086,0.0079
26709,47.125126,-1.5015,90.97,29.79,15.008,148.5,0 / 18,2670915,2019-08-18 21:35:40:027,2.418,-0.8958,9.5871,2.1819,-1.0111,9.5072,-0.0055,0.0128,0.0068
26710,47.125126,-1.5015,90.97,29.79,15.008,148.5,0 / 18,2671014,2019-08-18 21:35:40:126,2.3013,-0.9377,9.4177,2.181,-1.0054,9.508,0.0051,-0.0021,0.0047
26711,47.125126,-1.5015,90.97,29.79,15.008,148.5,0 / 18,2671114,2019-08-18 21:35:40:226,2.166,-0.7138,9.4039,2.1794,-0.9985,9.5091,0.0083,0.0032,0.0058
26712,47.125126,-1.5015,90.97,29.79,15.008,148.5,0 / 18,2671214,2019-08-18 21:35:40:326,2.1888,-0.7443,9.535,2.1859,-0.9663,9.511,0.0083,-0.0063,0.0058
26713,47.125126,-1.5015,90.97,29.79,15.008,148.5,Oct-18,2671314,2019-08-18 21:35:40:426,2.1421,-0.7617,9.5213,2.1821,-0.9413,9.5144,0.0009,0.0075,0.009
26714,47.125126,-1.5015,90.97,29.79,15.008,148.5,Oct-18,2671414,2019-08-18 21:35:40:526,2.0188,-1.0334,9.7457,2.1812,-0.9469,9.514,-0.013,-0.0053,0.01
26715,47.125126,-1.5015,90.97,29.79,15.008,148.5,Oct-18,2671515,2019-08-18 21:35:40:627,1.9631,-0.6025,9.395,2.1857,-0.9475,9.5129,-0.0013,-0.0074,0.0058
26716,47.125126,-1.5015,90.97,29.79,15.008,148.5,Oct-18,2671614,2019-08-18 21:35:40:726,1.9416,-0.8527,9.5757,2.1785,-0.94,9.5153,0.0105,0.0064,0.0058
26717,47.125126,-1.5015,90.97,29.79,15.008,148.5,Oct-18,2671714,2019-08-18 21:35:40:826,2.002,-0.9544,9.4506,2.145,-0.939,9.523,-0.0055,0.0128,0.0111
26718,47.125126,-1.5015,90.97,29.79,15.008,148.5,Oct-18,2671815,2019-08-18 21:35:40:927,2.2869,-1.2154,9.9343,2.1336,-0.9417,9.5253,-0.0002,-0.0042,0.0036
26719,47.125126,-1.5015,90.97,29.79,15.008,148.5,Oct-18,2671914,2019-08-18 21:35:41:026,2.2876,-1.0185,9.6781,2.1307,-0.9384,9.5263,0.0041,-0.001,0.0036
26720,47.125126,-1.5015,90.97,29.79,15.008,148.5,Oct-18,2672014,2019-08-18 21:35:41:126,1.9434,-0.9928,9.8451,2.128,-0.941,9.5266,0.0041,-0.0063,-0.0017
26721,47.125126,-1.5015,90.97,29.79,15.008,148.5,Oct-18,2672114,2019-08-18 21:35:41:226,2.0056,-0.9868,9.0945,2.1208,-0.9528,9.5271,0.0009,0.0054,-0.0028
26722,47.125126,-1.5015,90.97,29.79,15.008,148.5,Oct-18,2672215,2019-08-18 21:35:41:327,1.8763,-1.1897,9.1514,2.1093,-0.9899,9.5258,-0.0076,-0.001,-0.0017
26723,47.125126,-1.5015,90.97,29.79,15.008,148.5,0 / 18,2672315,2019-08-18 21:35:41:427,1.9679,-1.1136,9.7679,2.0958,-1.0355,9.524,-0.0066,-0.0063,-0.0038
26724,47.12314,-1.499686,100.1,30.25,10.72,148.8,0 / 18,2672414,2019-08-18 21:35:41:526,1.8793,-0.97,9.4788,2.0834,-1.0906,9.5205,0.0041,0.0032,-0.0038
26725,47.12314,-1.499686,100.1,30.25,10.72,148.8,0 / 18,2672514,2019-08-18 21:35:41:626,1.8961,-1.3633,9.4596,2.0856,-1.1084,9.518,0.0019,-0.0042,-0.0049
26726,47.12314,-1.499686,100.1,30.25,10.72,148.8,0 / 18,2672614,2019-08-18 21:35:41:726,2.2905,-1.3627,9.9139,2.0842,-1.1108,9.518,0.0009,0.0054,-0.0038
26727,47.12314,-1.499686,100.1,30.25,10.72,148.8,0 / 18,2672715,2019-08-18 21:35:41:827,2.2714,-1.2142,9.7583,2.0886,-1.1136,9.5167,-0.0002,0.0,-0.0038
26728,47.12314,-1.499686,100.1,30.25,10.72,148.8,0 / 18,2672814,2019-08-18 21:35:41:926,2.4288,-1.0658,9.635,2.1116,-1.1214,9.5107,0.0062,-0.0021,-0.0038
26729,47.12314,-1.499686,100.1,30.25,10.72,148.8,0 / 18,2672914,2019-08-18 21:35:42:026,2.2313,-1.0281,9.6057,2.1467,-1.1373,9.501,0.0009,0.0043,-0.0006
26730,47.12314,-1.499686,100.1,30.25,10.72,148.8,0 / 18,2673014,2019-08-18 21:35:42:126,2.0314,-1.1998,9.2286,2.157,-1.1363,9.4988,-0.0108,0.0043,0.0026
26731,47.12314,-1.499686,100.1,30.25,10.72,148.8,0 / 18,2673114,2019-08-18 21:35:42:226,2.2935,-1.1376,9.8301,2.171,-1.1318,9.4961,-0.0023,-0.0149,-0.0006
26732,47.12314,-1.499686,100.1,30.25,10.72,148.8,0 / 18,2673214,2019-08-18 21:35:42:326,2.1505,-0.961,9.2334,2.1775,-1.125,9.4954,0.0073,-0.001,-0.0006
26733,47.12314,-1.499686,100.1,30.25,10.72,148.8,0 / 18,2673314,2019-08-18 21:35:42:426,2.3755,-1.2154,9.3758,2.1735,-1.115,9.4975,0.0094,0.0107,0.0015
26734,47.12314,-1.499686,100.1,30.25,10.72,148.8,0 / 18,2673414,2019-08-18 21:35:42:526,2.3378,-0.8784,9.2555,2.1663,-1.1074,9.5001,0.0062,0.0139,0.0047
26735,47.12314,-1.499686,100.1,30.25,10.72,148.8,0 / 18,2673515,2019-08-18 21:35:42:627,2.351,-0.9269,9.4273,2.1962,-1.0554,9.4991,-0.0002,0.0043,0.0036
26736,47.12314,-1.499686,100.1,30.25,10.72,148.8,0 / 18,2673615,2019-08-18 21:35:42:727,2.0787,-1.0849,9.4399,2.2083,-1.0433,9.4976,-0.0119,0.0011,0.0058
26737,47.12314,-1.499686,100.1,30.25,10.72,148.8,0 / 18,2673714,2019-08-18 21:35:42:826,2.2528,-0.8916,9.5422,2.2304,-1.0362,9.4933,0.0009,-0.0202,-0.0017
26738,47.12314,-1.499686,100.1,30.25,10.72,148.8,0 / 18,2673814,2019-08-18 21:35:42:926,2.2762,-1.0909,9.7086,2.2421,-1.0282,9.4914,0.0105,-0.0085,-0.0017
26739,47.12314,-1.499686,100.1,30.25,10.72,148.8,0 / 18,2673914,2019-08-18 21:35:43:026,2.1517,-1.0502,9.4931,2.2347,-1.0252,9.4934,-0.0013,0.015,0.0058
26740,47.12314,-1.499686,100.1,30.25,10.72,148.8,0 / 18,2674015,2019-08-18 21:35:43:127,2.3366,-1.134,9.5769,2.2254,-1.0248,9.4957,-0.0023,0.0128,0.0047
26741,47.12314,-1.499686,100.1,30.25,10.72,148.8,0 / 18,2674116,2019-08-18 21:35:43:228,2.3378,-1.0526,9.6517,2.2311,-1.0289,9.4939,-0.0045,-0.0053,0.0004
26742,47.12314,-1.499686,100.1,30.25,10.72,148.8,0 / 18,2674214,2019-08-18 21:35:43:326,2.6012,-0.9724,9.7206,2.2411,-1.0293,9.4915,-0.0066,-0.0063,0.0015
26743,47.12314,-1.499686,100.1,30.25,10.72,148.8,0 / 18,2674315,2019-08-18 21:35:43:427,2.3516,-1.0227,9.4584,2.2574,-1.04,9.4865,0.0062,0.0,-0.0006
26744,47.12314,-1.499686,100.1,30.25,10.72,148.8,0 / 18,2674415,2019-08-18 21:35:43:527,2.1427,-0.8772,9.3603,2.2568,-1.0393,9.4867,-0.0013,0.0107,0.0036
26745,47.12314,-1.499686,100.1,30.25,10.72,148.8,0 / 18,2674514,2019-08-18 21:35:43:626,1.9063,-1.0215,9.4716,2.2226,-1.0575,9.4928,0.0019,0.0,0.0015
26746,47.12314,-1.499686,100.1,30.25,10.72,148.8,0 / 18,2674614,2019-08-18 21:35:43:726,1.9039,-1.064,9.6595,2.1908,-1.0606,9.4998,0.0041,-0.001,0.0004
26747,47.12314,-1.499686,100.1,30.25,10.72,148.8,0 / 18,2674714,2019-08-18 21:35:43:826,1.9931,-1.0616,9.614,2.1699,-1.0705,9.5035,-0.0045,0.0043,0.0015
26748,47.12314,-1.499686,100.1,30.25,10.72,148.8,0 / 18,2674814,2019-08-18 21:35:43:926,2.1439,-1.1532,9.3405,2.1556,-1.0747,9.5062,-0.0013,0.0139,-0.0006
26749,47.12314,-1.499686,100.1,30.25,10.72,148.8,0 / 18,2674914,2019-08-18 21:35:44:026,2.3348,-1.231,9.793,2.1488,-1.083,9.5069,-0.0076,-0.0096,-0.0017
26750,47.12314,-1.499686,100.1,30.25,10.72,148.8,0 / 18,2675014,2019-08-18 21:35:44:126,2.2409,-1.2352,10.1426,2.1559,-1.09,9.5044,-0.0055,-0.0127,-0.0006
26751,47.12314,-1.499686,100.1,30.25,10.72,148.8,0 / 18,2675114,2019-08-18 21:35:44:226,2.2564,-1.1454,9.729,2.1574,-1.0857,9.5046,0.0137,-0.001,-0.0017
26752,47.12314,-1.499686,100.1,30.25,10.72,148.8,0 / 18,2675214,2019-08-18 21:35:44:326,1.7291,-1.0975,9.1825,2.1472,-1.0789,9.5077,0.0051,0.016,0.0036
26753,47.12314,-1.499686,100.1,30.25,10.72,148.8,0 / 18,2675315,2019-08-18 21:35:44:427,1.8291,-1.0514,9.386,2.1363,-1.0834,9.5096,-0.0045,0.0,0.0004
26754,47.12314,-1.499686,100.1,30.25,10.72,148.8,0 / 18,2675414,2019-08-18 21:35:44:526,2.5779,-1.1795,9.6446,2.141,-1.0892,9.5079,-0.0055,-0.0074,-0.0006
26755,47.12314,-1.499686,100.1,30.25,10.72,148.8,0 / 18,2675514,2019-08-18 21:35:44:626,1.85,-1.2645,9.7218,2.1495,-1.089,9.506,0.0009,0.0032,-0.0006
26756,47.12314,-1.499686,100.1,30.25,10.72,148.8,0 / 18,2675615,2019-08-18 21:35:44:727,1.8752,-0.9951,9.3525,2.1487,-1.0903,9.506,-0.0034,0.0032,0.0015
