,GPS LATITUDE (degrees), GPS LONGITUDE (degrees), GPS ALTITUDE (m), GPS SPEED (Kmh), GPS ACCURACY (m), GPS ORIENTATION (Â°),GPS SATELLITES IN RANGE, TIME SINCE START (ms), DATE (YYYY-MO-DD HH-MI-SS_SSS), ACCELEROMETER X (m/s²) , ACCELEROMETER Y (m/s²), ACCELEROMETER Z (m/s²), GRAVITY X (m/s²), GRAVITY Y (m/s²), GRAVITY Z (m/s²), GYROSCOPE Yaw (rad/s), GYROSCOPE Pitch (rad/s), GYROSCOPE Roll (rad/s), MAGNETIC FIELD X (Î¼T), MAGNETIC FIELD Y (Î¼T), MAGNETIC FIELD Z (Î¼T), ORIENTATION (Yaw) (Â°), ORIENTATION (Pitch) (Â°), ORIENTATION (Roll ) (Â°)
1967,52.206066,-2.179348,108.94,5.52,2,70.19,22 / 23,14208610,2020-01-08 16:12:12:204,3.2118,1.7202,9.8632,0.0148,0.0339,9.8065,0.0989,0.2655,-0.1128,-15.81,-33.62,18.81,342.44,-82.81,-154.37
1968,52.206066,-2.179348,108.94,5.52,2,70.19,22 / 23,14208710,2020-01-08 16:12:12:304,0.2408,-1.5956,9.8793,0.0142,0.0004,9.8066,-0.1235,0.4754,-0.2573,-16.44,-34.19,18.75,342.94,-82.82,-153.95
1969,52.206066,-2.179348,108.94,5.52,2,70.19,22 / 23,14208810,2020-01-08 16:12:12:404,2.577,0.944,10.2829,-0.011,0.0517,9.8064,0.0049,0.3388,-0.031,-15.81,-33.81,18.69,344.46,-82.9,-152.73
1970,52.206066,-2.179348,108.94,5.52,2,70.19,22 / 23,14208910,2020-01-08 16:12:12:504,1.4935,0.042,9.8971,-0.018,0.0177,9.8065,-0.0639,0.1348,0.1941,-17.06,-34.12,18.0,340.92,-83.35,-152.62
1971,52.206066,-2.179348,108.94,5.52,2,70.19,22 / 23,14209009,2020-01-08 16:12:12:603,1.7691,2.148,9.6947,-0.0248,-0.0092,9.8065,-0.0215,0.5265,-0.2733,-16.94,-34.25,17.19,341.61,-83.37,-150.32
1972,52.206066,-2.179348,108.94,5.52,2,70.19,22 / 23,14209110,2020-01-08 16:12:12:704,0.9957,-1.1854,10.6101,0.0437,0.0544,9.8064,0.0043,0.2391,-0.0627,-16.87,-33.5,17.25,340.28,-83.36,-151.53
1973,52.206066,-2.179348,108.94,5.52,2,70.19,22 / 23,14209210,2020-01-08 16:12:12:804,5.095,3.6957,9.0865,0.0101,0.0058,9.8066,-0.0252,0.6815,-0.2666,-17.37,-34.0,16.5,340.89,-83.18,-150.82
1974,52.206066,-2.179348,108.94,5.52,2,70.19,21 / 22,14209310,2020-01-08 16:12:12:904,1.6427,1.241,9.2021,0.0346,0.0365,9.8064,0.0031,0.0356,0.0946,-17.0,-34.31,16.56,339.61,-83.2,-151.91
1975,52.206066,-2.179348,108.94,5.52,2,70.19,21 / 22,14209411,2020-01-08 16:12:13:005,6.2297,3.0226,10.5524,0.0118,-0.0311,9.8066,0.1886,0.5078,-0.2293,-17.12,-33.19,15.38,337.69,-83.18,-149.82
1976,52.206066,-2.179348,108.94,5.52,2,70.19,21 / 22,14209510,2020-01-08 16:12:13:104,-1.9846,-0.8368,5.5956,0.1133,-0.0235,9.8059,-0.0244,-0.2503,0.4634,-17.31,-33.94,16.13,337.68,-82.9,-151.5
1977,52.206066,-2.179348,108.94,5.52,2,70.19,21 / 22,14209610,2020-01-08 16:12:13:204,0.3131,-1.0117,10.452,-0.0395,-0.0634,9.8064,0.2962,0.4496,-0.3134,-18.12,-33.94,16.5,343.32,-82.71,-147.05
1978,52.206066,-2.179348,108.94,5.52,2,70.19,21 / 22,14209710,2020-01-08 16:12:13:304,0.3796,0.4576,7.6958,0.0782,0.0031,9.8063,-0.2179,-0.4929,0.0286,-18.37,-34.19,15.25,337.39,-82.64,-148.15
1979,52.206066,-2.179348,108.94,5.52,2,70.19,21 / 22,14209810,2020-01-08 16:12:13:404,-2.0786,-2.2791,12.5115,-0.0713,-0.0238,9.8063,0.0223,-0.219,0.5314,-18.5,-33.31,14.75,337.64,-82.52,-147.99
1980,52.206066,-2.179348,108.94,5.52,2,70.19,21 / 22,14209910,2020-01-08 16:12:13:504,8.2187,3.0141,13.4585,-0.039,-0.1174,9.8059,-0.4709,-0.0666,0.303,-18.56,-33.81,14.88,336.97,-82.19,-146.84
1981,52.206066,-2.179348,108.94,5.52,2,70.19,21 / 22,14210010,2020-01-08 16:12:13:604,-1.2231,-0.4068,10.3623,-0.138,0.0123,9.8056,-0.3547,-0.4307,0.4664,-18.0,-33.25,14.81,335.86,-82.03,-149.15
1982,52.206066,-2.179348,108.94,5.52,2,70.19,21 / 22,14210110,2020-01-08 16:12:13:704,4.8424,3.2698,11.8651,-0.1216,-0.0097,9.8059,-0.1305,0.3356,-0.0404,-18.87,-33.0,14.88,341.22,-82.54,-143.65
1983,52.206066,-2.179348,108.94,5.52,2,70.19,21 / 22,14210209,2020-01-08 16:12:13:803,3.4512,1.267,7.2211,-0.0435,0.0468,9.8063,-0.386,-0.1611,0.1734,-19.19,-33.62,13.31,339.39,-82.99,-141.21
1984,52.206066,-2.179348,108.94,5.52,2,70.19,21 / 22,14210310,2020-01-08 16:12:13:904,7.1305,5.7379,11.5271,-0.1673,-0.0092,9.8051,0.0907,0.478,-0.2491,-19.12,-34.06,13.38,346.09,-82.95,-135.69
1985,52.206066,-2.179348,108.94,5.52,2,70.19,21 / 22,14210410,2020-01-08 16:12:14:004,0.3894,-3.4919,10.3932,0.0585,-0.0269,9.8064,0.0001,-0.3464,0.3583,-20.37,-33.12,12.94,343.48,-82.57,-136.49
1986,52.206066,-2.179348,108.94,5.52,2,70.19,21 / 22,14210509,2020-01-08 16:12:14:103,-0.5576,-0.8845,8.0256,0.0392,-0.11,9.8059,0.2109,0.7202,-0.3143,-20.12,-33.0,13.31,341.49,-81.85,-137.78
1987,52.206066,-2.179348,108.94,5.52,2,70.19,21 / 22,14210610,2020-01-08 16:12:14:204,-0.1393,-4.8068,12.6028,0.016,0.0509,9.8064,0.1108,-0.0278,0.0534,-20.62,-33.5,12.75,340.21,-81.9,-137.71
1988,52.206066,-2.179348,108.94,5.52,2,70.19,21 / 22,14210710,2020-01-08 16:12:14:304,1.7554,0.1335,10.3418,0.0117,-0.0206,9.8066,-0.1119,0.9071,-0.434,-20.69,-33.31,12.06,339.69,-81.68,-135.93
1989,52.206066,-2.179348,108.94,5.52,2,70.19,21 / 22,14210810,2020-01-08 16:12:14:404,0.8457,4.2071,9.4482,0.0216,0.0736,9.8063,0.0131,0.4323,-0.1412,-20.5,-33.25,12.0,341.16,-81.55,-135.76
1990,52.206066,-2.179348,108.94,5.52,2,70.19,21 / 22,14210910,2020-01-08 16:12:14:504,-0.4121,-1.1937,11.7539,-0.0078,0.0164,9.8066,-0.1628,0.6417,-0.1931,-20.69,-33.06,12.25,337.23,-81.59,-137.86
1991,52.206066,-2.179348,108.94,5.52,2,70.19,21 / 22,14211010,2020-01-08 16:12:14:604,1.7134,1.6322,9.6881,-0.0548,0.0672,9.8062,-0.2848,0.5086,-0.2249,-20.81,-33.25,11.25,334.62,-81.3,-137.58
1992,52.206066,-2.179348,108.94,5.52,2,70.19,21 / 22,14211110,2020-01-08 16:12:14:704,3.4231,-0.5781,11.7654,-0.0657,0.0476,9.8062,-0.0494,0.2512,-0.1266,-20.5,-33.12,12.0,342.37,-81.74,-134.89
1993,52.206066,-2.179348,108.94,5.52,2,70.19,21 / 22,14211210,2020-01-08 16:12:14:804,3.0021,1.4451,8.9936,-0.0063,0.0001,9.8066,-0.1318,0.3597,-0.022,-20.56,-33.62,10.81,338.56,-81.69,-134.53
1994,52.206066,-2.179348,108.94,5.52,2,70.19,22 / 23,14211310,2020-01-08 16:12:14:904,-0.2391,1.5047,11.2443,-0.0584,0.0311,9.8064,0.0162,-0.0685,-0.005,-21.31,-33.25,10.5,339.04,-81.71,-134.28
1995,52.206066,-2.179348,108.94,5.52,2,70.19,22 / 23,14211410,2020-01-08 16:12:15:004,1.7324,0.3523,9.0021,0.0073,-0.0351,9.8065,-0.084,0.1179,0.0972,-21.62,-33.06,10.56,338.83,-81.65,-133.49
1996,52.206066,-2.179348,108.94,5.52,2,70.19,22 / 23,14211509,2020-01-08 16:12:15:103,3.2836,2.3784,9.3633,-0.0225,-0.0204,9.8065,0.1271,-0.1933,0.1529,-21.06,-33.5,10.56,340.44,-81.33,-132.97
1997,52.206066,-2.179348,108.94,5.52,2,70.19,22 / 23,14211610,2020-01-08 16:12:15:204,2.2524,0.975,8.7399,0.0296,-0.0525,9.8064,0.0612,-0.0506,0.1462,-21.62,-33.0,10.5,338.77,-80.85,-133.11
1998,52.206066,-2.179348,108.94,5.52,2,70.19,22 / 23,14211710,2020-01-08 16:12:15:304,1.1117,2.685,8.9273,0.0051,-0.029,9.8065,0.2246,-0.2293,0.2094,-21.94,-33.37,10.06,336.31,-80.95,-132.91
1999,52.206066,-2.179348,108.94,5.52,2,70.19,22 / 23,14211810,2020-01-08 16:12:15:404,0.3735,-1.4783,12.018,0.0417,-0.0543,9.8064,0.1621,-0.2662,0.0773,-21.19,-32.75,10.44,336.52,-81.16,-133.7
2000,52.206066,-2.179348,108.94,5.52,2,70.19,22 / 23,14211910,2020-01-08 16:12:15:504,2.1499,1.1463,10.2336,0.0208,-0.0301,9.8065,0.2011,-0.0138,0.0784,-21.37,-33.06,9.56,335.88,-80.85,-134.01
2001,52.206066,-2.179348,108.94,5.52,2,70.19,22 / 23,14212010,2020-01-08 16:12:15:604,1.1874,0.0476,10.5828,0.0425,-0.0227,9.8065,0.0911,-0.0188,0.0417,-22.44,-33.19,10.31,333.66,-80.88,-134.97
2002,52.206066,-2.179348,108.94,5.52,2,70.19,22 / 23,14212110,2020-01-08 16:12:15:704,-1.0536,1.6346,7.6317,0.02,-0.0056,9.8065,0.2402,0.1122,-0.009,-21.5,-32.62,9.75,333.72,-80.89,-135.73
2003,52.206066,-2.179348,108.94,5.52,2,70.19,22 / 23,14212210,2020-01-08 16:12:15:804,0.4392,1.0537,9.0719,0.0795,0.0143,9.8062,0.1656,0.1544,-0.1796,-20.81,-33.19,9.25,328.56,-80.98,-137.51
2004,52.20571,-2.178318,106.73,13.39,2,98.53,21 / 23,14212310,2020-01-08 16:12:15:904,0.7029,0.5354,9.528,0.0409,0.0151,9.8065,0.0341,0.2576,-0.1731,-21.0,-33.0,10.31,331.64,-81.07,-137.51
2005,52.20571,-2.178318,106.73,13.39,2,98.53,21 / 23,14212410,2020-01-08 16:12:16:004,1.1637,2.6542,9.6352,0.007,0.0393,9.8065,0.0276,-0.0276,0.0164,-21.94,-33.0,10.06,329.72,-81.1,-138.29
2006,52.20571,-2.178318,106.73,13.39,2,98.53,21 / 23,14212509,2020-01-08 16:12:16:103,1.7497,2.0804,9.3038,0.0153,0.0167,9.8066,0.068,0.0835,-0.0101,-21.62,-33.5,9.44,324.18,-81.3,-140.67
2007,52.20571,-2.178318,106.73,13.39,2,98.53,21 / 23,14212610,2020-01-08 16:12:16:204,1.6006,1.4322,8.7345,-0.0234,0.0179,9.8066,-0.0172,0.063,0.0022,-20.94,-33.5,9.13,325.01,-81.51,-140.84
2008,52.20571,-2.178318,106.73,13.39,2,98.53,21 / 23,14212709,2020-01-08 16:12:16:303,1.1566,1.1445,9.5966,-0.0233,0.0065,9.8066,0.0771,0.0896,-0.0462,-21.37,-33.5,8.75,324.75,-81.54,-141.09
2009,52.20571,-2.178318,106.73,13.39,2,98.53,21 / 23,14212809,2020-01-08 16:12:16:403,-0.0857,0.9052,8.9754,0.0326,0.0007,9.8066,-0.1414,0.1836,0.0078,-21.19,-33.62,8.31,320.97,-81.61,-141.55
2010,52.20571,-2.178318,106.73,13.39,2,98.53,21 / 23,14212910,2020-01-08 16:12:16:504,1.0834,2.4817,8.9238,0.0198,-0.0151,9.8065,-0.1354,0.2448,-0.131,-21.0,-33.19,8.25,319.81,-81.49,-142.63
2011,52.20571,-2.178318,106.73,13.39,2,98.53,21 / 23,14213010,2020-01-08 16:12:16:604,1.7329,-1.5192,12.1219,0.0555,-0.0431,9.8064,-0.148,0.3227,-0.2534,-21.37,-33.25,8.25,319.93,-81.79,-142.84
2012,52.20571,-2.178318,106.73,13.39,2,98.53,21 / 23,14213110,2020-01-08 16:12:16:704,1.1023,0.6227,10.5888,0.0238,-0.0006,9.8066,-0.1333,0.1462,-0.0493,-21.25,-33.94,8.06,317.51,-81.63,-144.44
2013,52.20571,-2.178318,106.73,13.39,2,98.53,21 / 23,14213210,2020-01-08 16:12:16:804,0.9102,1.9644,9.9978,0.0259,0.0126,9.8065,0.0535,0.0695,-0.162,-21.0,-33.81,7.94,318.45,-81.85,-143.9
2014,52.20571,-2.178318,106.73,13.39,2,98.53,20 / 21,14213311,2020-01-08 16:12:16:905,1.3788,-0.4914,9.2889,0.021,0.0136,9.8066,0.0995,0.2205,-0.2524,-20.81,-33.87,7.38,314.04,-81.79,-144.98
2015,52.20571,-2.178318,106.73,13.39,2,98.53,20 / 21,14213410,2020-01-08 16:12:17:004,-0.1879,-1.4384,10.0994,0.0127,0.0369,9.8065,0.0391,-0.0538,0.1067,-20.19,-33.87,7.56,318.93,-81.88,-144.13
2016,52.20571,-2.178318,106.73,13.39,2,98.53,20 / 21,14213510,2020-01-08 16:12:17:104,0.0293,3.1859,8.3209,0.0088,-0.0283,9.8065,-0.0352,0.2056,0.0095,-20.75,-34.31,7.44,314.42,-82.05,-144.97
2017,52.20571,-2.178318,106.73,13.39,2,98.53,20 / 21,14213611,2020-01-08 16:12:17:205,0.5881,1.7927,9.6021,-0.0265,0.0099,9.8065,0.0764,0.044,-0.0288,-20.81,-34.62,7.0,312.47,-82.2,-146.55
2018,52.20571,-2.178318,106.73,13.39,2,98.53,20 / 21,14213710,2020-01-08 16:12:17:304,-1.1347,1.4643,7.4868,0.0381,0.0181,9.8065,-0.3047,0.1538,-0.0572,-20.75,-34.25,6.56,310.68,-82.14,-148.28
2019,52.20571,-2.178318,106.73,13.39,2,98.53,20 / 21,14213810,2020-01-08 16:12:17:404,1.3186,0.9291,9.1064,-0.0459,0.0146,9.8065,-0.0544,0.0827,0.0092,-21.06,-33.69,6.31,308.58,-82.3,-147.68
2020,52.20571,-2.178318,106.73,13.39,2,98.53,20 / 21,14213909,2020-01-08 16:12:17:503,-0.5006,0.3001,9.7449,-0.0252,0.0187,9.8065,0.064,0.073,-0.0951,-21.0,-33.75,6.69,312.45,-82.67,-147.4
2021,52.20571,-2.178318,106.73,13.39,2,98.53,20 / 21,14214009,2020-01-08 16:12:17:603,-0.3738,0.348,10.4163,0.0511,0.0029,9.8065,0.1024,-0.0877,0.0485,-20.62,-33.87,6.81,312.99,-82.74,-147.01
2022,52.20571,-2.178318,106.73,13.39,2,98.53,20 / 21,14214110,2020-01-08 16:12:17:704,-0.236,2.1145,9.1256,0.0325,-0.045,9.8064,0.0451,0.0702,0.0831,-20.56,-34.31,6.38,307.65,-82.34,-148.54
2023,52.20571,-2.178318,106.73,13.39,2,98.53,20 / 21,14214210,2020-01-08 16:12:17:804,1.3512,2.3976,10.4306,0.0016,-0.0064,9.8066,0.0569,0.2489,-0.1758,-20.56,-33.87,6.44,305.56,-82.44,-150.5
2024,52.20571,-2.178318,106.73,13.39,2,98.53,22 / 22,14214309,2020-01-08 16:12:17:903,-1.8549,0.4715,8.4996,0.0307,0.0556,9.8064,-0.1591,0.1174,-0.1839,-20.31,-34.31,6.0,304.63,-82.43,-151.6
2025,52.20571,-2.178318,106.73,13.39,2,98.53,22 / 22,14214409,2020-01-08 16:12:18:003,0.3663,2.7389,11.324,0.0042,0.0324,9.8066,0.1981,0.3124,-0.0927,-19.87,-34.62,5.81,305.23,-82.41,-150.75
2026,52.20571,-2.178318,106.73,13.39,2,98.53,22 / 22,14214510,2020-01-08 16:12:18:104,0.6017,1.0938,8.9981,0.0356,0.023,9.8065,-0.0082,0.0005,0.1375,-20.44,-34.75,6.06,302.77,-82.55,-153.12
2027,52.20571,-2.178318,106.73,13.39,2,98.53,22 / 22,14214610,2020-01-08 16:12:18:204,-0.2191,3.6484,10.8342,-0.0219,0.005,9.8066,0.0465,0.1344,-0.241,-20.56,-34.5,5.5,303.94,-82.92,-152.59
2028,52.20571,-2.178318,106.73,13.39,2,98.53,22 / 22,14214710,2020-01-08 16:12:18:304,0.4984,0.9973,10.2214,0.0151,0.0211,9.8065,-0.1257,-0.2113,0.0531,-20.37,-34.25,5.5,304.02,-82.92,-152.84
2029,52.20571,-2.178318,106.73,13.39,2,98.53,22 / 22,14214810,2020-01-08 16:12:18:404,-0.8236,-3.3782,9.3846,-0.0274,-0.0532,9.8064,-0.0852,-0.1509,0.2317,-20.19,-34.69,5.94,302.31,-82.98,-154.17
2030,52.20571,-2.178318,106.73,13.39,2,98.53,22 / 22,14214909,2020-01-08 16:12:18:503,-0.0836,0.2487,10.4727,-0.0158,-0.0194,9.8065,-0.042,-0.1099,0.2026,-19.94,-34.94,5.38,300.38,-83.05,-153.21
2031,52.20571,-2.178318,106.73,13.39,2,98.53,22 / 22,14215010,2020-01-08 16:12:18:604,-0.7653,0.1814,9.5438,0.0101,0.0214,9.8066,-0.0416,-0.1289,-0.1169,-19.62,-34.44,4.94,301.16,-83.08,-152.85
2032,52.20571,-2.178318,106.73,13.39,2,98.53,22 / 22,14215110,2020-01-08 16:12:18:704,-0.355,0.5866,8.7779,-0.007,-0.0003,9.8066,0.1596,-0.0028,-0.0851,-20.31,-34.69,5.19,300.35,-83.11,-153.33
2033,52.20571,-2.178318,106.73,13.39,2,98.53,22 / 22,14215210,2020-01-08 16:12:18:804,0.0506,-0.6002,8.7098,0.0423,-0.0025,9.8065,0.0179,-0.0975,0.0638,-20.06,-34.62,5.13,298.52,-83.2,-155.12
2034,52.20571,-2.178318,106.73,13.39,2,98.53,22 / 22,14215311,2020-01-08 16:12:18:905,0.406,2.2854,8.9531,0.0231,-0.003,9.8065,0.128,-0.0099,-0.1231,-20.06,-35.12,5.13,297.52,-83.25,-156.1
2035,52.20571,-2.178318,106.73,13.39,2,98.53,22 / 22,14215410,2020-01-08 16:12:19:004,-1.275,0.1584,9.7582,0.0193,-0.0043,9.8066,0.0071,-0.2037,0.1905,-19.69,-34.87,4.88,296.85,-83.39,-156.93
2036,52.20571,-2.178318,106.73,13.39,2,98.53,22 / 22,14215509,2020-01-08 16:12:19:103,-0.2751,-0.1685,9.6013,-0.0111,-0.031,9.8065,0.0509,0.1116,0.0345,-19.56,-35.5,4.69,297.36,-83.35,-156.42
2037,52.20571,-2.178318,106.73,13.39,2,98.53,22 / 22,14215610,2020-01-08 16:12:19:204,0.312,-0.5222,9.5865,-0.0031,0.0123,9.8066,-0.0494,0.0681,-0.0587,-19.87,-35.25,5.19,297.57,-83.4,-156.29
2038,52.20571,-2.178318,106.73,13.39,2,98.53,22 / 22,14215710,2020-01-08 16:12:19:304,0.4807,0.9431,9.6164,0.0,0.0003,9.8066,0.0703,-0.0958,-0.0829,-20.12,-35.06,4.44,294.79,-83.38,-155.96
2039,52.20571,-2.178318,106.73,13.39,2,98.53,22 / 22,14215810,2020-01-08 16:12:19:404,-0.2329,-0.6333,10.1106,0.0189,-0.005,9.8065,0.0355,-0.0964,0.1586,-19.69,-34.81,4.69,297.26,-83.32,-156.44
2040,52.20571,-2.178318,106.73,13.39,2,98.53,22 / 22,14215911,2020-01-08 16:12:19:505,0.6892,2.9895,9.4073,0.0111,-0.0106,9.8066,-0.052,0.3629,-0.197,-19.75,-34.87,5.25,295.43,-83.28,-158.05
2041,52.20571,-2.178318,106.73,13.39,2,98.53,22 / 22,14216010,2020-01-08 16:12:19:604,-2.2789,1.1209,8.6299,-0.0324,0.0522,9.8064,-0.1242,0.1391,-0.0465,-19.25,-35.25,5.06,294.48,-83.08,-158.77
2042,52.20571,-2.178318,106.73,13.39,2,98.53,22 / 22,14216110,2020-01-08 16:12:19:704,-0.8794,1.8733,10.9433,-0.0354,-0.0127,9.8065,-0.1241,0.1271,0.0253,-19.5,-35.12,4.69,292.89,-83.17,-160.39
2043,52.20571,-2.178318,106.73,13.39,2,98.53,22 / 22,14216210,2020-01-08 16:12:19:804,0.3151,1.4287,10.8282,-0.0227,-0.0109,9.8066,-0.0602,0.1331,0.0639,-19.56,-35.19,4.69,290.5,-82.99,-162.14
2044,52.20571,-2.178318,106.73,13.39,2,98.53,22 / 22,14216310,2020-01-08 16:12:19:904,-0.701,-0.0674,9.5903,0.0236,0.0015,9.8066,-0.0742,0.0412,0.1317,-19.69,-35.19,4.56,290.15,-82.89,-162.28
2045,52.20571,-2.178318,106.73,13.39,2,98.53,22 / 22,14216410,2020-01-08 16:12:20:004,-0.3889,0.2429,9.1214,-0.0138,-0.0138,9.8066,0.013,0.1063,-0.0706,-20.0,-34.81,4.19,288.3,-82.92,-161.21
2046,52.20571,-2.178318,106.73,13.39,2,98.53,22 / 22,14216510,2020-01-08 16:12:20:104,-0.4387,-1.3747,7.91,-0.0162,0.0077,9.8066,-0.2559,-0.1465,0.0658,-20.06,-35.06,4.5,291.89,-82.95,-160.77
2047,52.20571,-2.178318,106.73,13.39,2,98.53,22 / 22,14216610,2020-01-08 16:12:20:204,1.3811,0.7562,10.2892,-0.0348,-0.0465,9.8064,-0.0032,0.1407,0.1067,-19.75,-35.06,3.44,284.66,-82.97,-161.86
2048,52.20571,-2.178318,106.73,13.39,2,98.53,22 / 22,14216710,2020-01-08 16:12:20:304,0.163,1.8806,9.1489,0.037,0.0221,9.8065,-0.0091,-0.2762,0.2322,-19.94,-34.37,3.69,287.94,-83.05,-162.11
2049,52.20571,-2.178318,106.73,13.39,2,98.53,22 / 22,14216810,2020-01-08 16:12:20:404,1.6107,1.9069,10.7482,-0.0024,-0.0006,9.8065,0.0415,-0.0952,-0.1216,-20.06,-35.62,4.13,288.88,-83.17,-160.78
2050,52.20571,-2.178318,106.73,13.39,2,98.53,22 / 22,14216909,2020-01-08 16:12:20:503,2.2824,2.3142,10.2413,0.0075,-0.038,9.8065,-0.2212,-0.2576,0.242,-20.19,-34.75,4.0,290.35,-82.91,-159.28
2051,52.20571,-2.178318,106.73,13.39,2,98.53,22 / 22,14217010,2020-01-08 16:12:20:604,0.8583,-3.6203,8.4775,-0.0253,-0.0682,9.8063,-0.149,-0.259,0.2437,-19.44,-35.37,3.88,293.1,-82.99,-156.89
2052,52.20571,-2.178318,106.73,13.39,2,98.53,22 / 22,14217110,2020-01-08 16:12:20:704,0.9623,0.5977,9.0697,-0.0189,-0.0321,9.8065,0.0593,-0.161,0.1511,-20.5,-34.75,3.94,292.17,-82.89,-157.56
2053,52.20571,-2.178318,106.73,13.39,2,98.53,22 / 22,14217210,2020-01-08 16:12:20:804,-0.1472,0.9382,9.8005,-0.0374,-0.0214,9.8065,-0.2313,0.0404,-0.0243,-20.56,-34.31,4.13,292.77,-82.89,-157.34
2054,52.20571,-2.178318,106.73,13.39,2,98.53,22 / 22,14217310,2020-01-08 16:12:20:904,0.0312,1.9901,12.337,-0.0631,0.0069,9.8064,-0.0458,-0.276,0.0117,-20.69,-33.62,3.31,292.04,-83.13,-155.64
2055,52.20571,-2.178318,106.73,13.39,2,98.53,22 / 22,14217409,2020-01-08 16:12:21:003,-1.4543,-2.5495,11.2501,0.0301,-0.0326,9.8065,-0.0801,-0.0869,0.2464,-20.19,-34.31,3.81,293.33,-83.19,-157.31
2056,52.20571,-2.178318,106.73,13.39,2,98.53,22 / 22,14217510,2020-01-08 16:12:21:104,3.1451,-0.4252,11.5706,0.0106,-0.0175,9.8066,0.1667,-0.2232,0.0979,-19.75,-33.81,4.06,292.08,-82.86,-157.94
2057,52.20571,-2.178318,106.73,13.39,2,98.53,22 / 22,14217610,2020-01-08 16:12:21:204,-0.4188,-3.4416,10.3094,0.0254,-0.0096,9.8065,-0.0133,-0.3153,0.1997,-20.0,-34.37,4.06,293.03,-82.6,-156.63
2058,52.20571,-2.178318,106.73,13.39,2,98.53,22 / 22,14217709,2020-01-08 16:12:21:303,1.9889,1.8407,9.6383,0.0175,-0.0477,9.8065,-0.0994,-0.2206,0.1863,-20.44,-34.81,3.94,293.45,-82.58,-155.86
2059,52.20571,-2.178318,106.73,13.39,2,98.53,22 / 22,14217810,2020-01-08 16:12:21:404,0.2981,-0.4564,10.9442,-0.0104,-0.0506,9.8064,0.1429,-0.3603,0.2623,-20.25,-34.94,3.94,291.18,-82.63,-158.04
2060,52.20571,-2.178318,106.73,13.39,2,98.53,22 / 22,14217910,2020-01-08 16:12:21:504,1.0272,2.1306,8.8443,0.0257,-0.0228,9.8066,-0.1502,-0.2629,0.1735,-19.94,-34.37,4.13,292.33,-82.67,-157.38
2061,52.20571,-2.178318,106.73,13.39,2,98.53,22 / 22,14218010,2020-01-08 16:12:21:604,1.3963,-1.269,10.4271,0.02,-0.014,9.8065,0.1838,-0.317,0.1082,-20.56,-34.31,4.56,296.09,-82.88,-156.96
2062,52.20571,-2.178318,106.73,13.39,2,98.53,22 / 22,14218110,2020-01-08 16:12:21:704,-2.0837,1.7153,9.3647,0.0345,-0.0095,9.8066,0.0675,0.1996,-0.0512,-20.37,-34.5,4.69,295.49,-82.69,-157.37
2063,52.20571,-2.178318,106.73,13.39,2,98.53,22 / 22,14218210,2020-01-08 16:12:21:804,-1.6534,0.4923,10.4555,0.0333,0.034,9.8065,0.1368,0.008,-0.0973,-20.75,-34.69,4.5,294.57,-82.74,-157.83
2064,52.20571,-2.178318,106.73,13.39,2,98.53,21 / 22,14218310,2020-01-08 16:12:21:904,-0.2623,-0.3588,8.9959,0.0168,-0.0119,9.8066,-0.0596,0.1053,0.0002,-20.19,-34.25,4.75,296.67,-82.6,-156.16
2065,52.20571,-2.178318,106.73,13.39,2,98.53,21 / 22,14218410,2020-01-08 16:12:22:004,1.1293,0.1934,10.1411,0.0198,-0.0029,9.8066,0.0235,0.0598,-0.0761,-20.12,-34.06,3.88,293.4,-82.81,-156.63
2066,52.20571,-2.178318,106.73,13.39,2,98.53,21 / 22,14218510,2020-01-08 16:12:22:104,-1.8717,1.9148,8.4369,0.0206,0.0184,9.8066,-0.0112,0.0099,-0.1782,-19.56,-33.81,4.13,291.91,-82.59,-157.65
2067,52.20571,-2.178318,106.73,13.39,2,98.53,21 / 22,14218609,2020-01-08 16:12:22:203,0.399,-1.5728,10.8881,-0.0106,-0.0041,9.8066,0.128,-0.0972,0.2138,-19.25,-33.5,4.31,293.36,-82.72,-156.87
2068,52.20571,-2.178318,106.73,13.39,2,98.53,21 / 22,14218713,2020-01-08 16:12:22:307,0.3013,0.5341,10.5857,0.0006,-0.0144,9.8066,-0.0745,0.1639,0.0339,-20.0,-33.5,3.81,292.6,-82.75,-157.61
2069,52.20571,-2.178318,106.73,13.39,2,98.53,21 / 22,14218810,2020-01-08 16:12:22:404,-1.4628,-1.9456,8.9113,-0.0196,0.0364,9.8065,-0.0264,-0.0727,-0.0825,-20.44,-33.69,3.31,289.54,-83.05,-157.74
2070,52.20571,-2.178318,106.73,13.39,2,98.53,21 / 22,14218910,2020-01-08 16:12:22:504,-2.4584,-0.227,10.3582,0.0013,-0.0048,9.8066,0.2787,0.1561,-0.1432,-19.69,-34.0,3.5,293.69,-83.02,-156.7
2071,52.20571,-2.178318,106.73,13.39,2,98.53,21 / 22,14219010,2020-01-08 16:12:22:604,-0.8797,0.9375,11.7676,0.0562,0.0164,9.8065,0.108,0.0155,-0.0225,-20.31,-34.5,4.0,294.44,-83.1,-156.15
2072,52.20571,-2.178318,106.73,13.39,2,98.53,21 / 22,14219109,2020-01-08 16:12:22:703,1.5178,-0.1494,8.7499,0.0333,-0.0153,9.8065,0.1409,0.1875,-0.2012,-21.12,-34.5,3.75,293.02,-82.74,-156.86
2073,52.20571,-2.178318,106.73,13.39,2,98.53,21 / 22,14219210,2020-01-08 16:12:22:804,-0.4087,-3.7115,10.1559,0.0487,0.0398,9.8064,0.2099,-0.1383,0.0662,-20.62,-34.37,4.5,297.68,-82.78,-155.37
2074,52.20571,-2.178318,106.73,13.39,2,98.53,21 / 21,14219309,2020-01-08 16:12:22:903,-0.5072,-0.2614,9.1632,0.0467,-0.0212,9.8065,0.0671,0.3308,-0.2518,-20.69,-34.25,4.13,293.35,-82.57,-156.3
2075,52.20571,-2.178318,106.73,13.39,2,98.53,21 / 21,14219410,2020-01-08 16:12:23:004,-0.241,3.6884,10.4203,0.0111,0.0528,9.8065,-0.0423,-0.4926,0.16,-20.31,-34.44,4.06,295.23,-82.84,-155.0
2076,52.20571,-2.178318,106.73,13.39,2,98.53,21 / 21,14219510,2020-01-08 16:12:23:104,-3.6675,2.623,8.6093,0.0423,0.0589,9.8063,-0.5326,-0.1044,0.1614,-19.81,-34.62,4.31,289.54,-82.75,-159.76
2077,52.20571,-2.178318,106.73,13.39,2,98.53,21 / 21,14219609,2020-01-08 16:12:23:203,-1.9741,1.9087,13.813,0.06,0.0255,9.8064,0.0139,-0.0264,0.0007,-20.12,-34.75,4.5,295.54,-83.16,-157.76
2078,52.20571,-2.178318,106.73,13.39,2,98.53,21 / 21,14219710,2020-01-08 16:12:23:304,0.4708,1.4539,13.4118,0.0595,0.0449,9.8063,0.0497,0.0107,0.0927,-20.25,-34.5,4.19,289.82,-83.15,-160.51
2079,52.20571,-2.178318,106.73,13.39,2,98.53,21 / 21,14219810,2020-01-08 16:12:23:404,-0.7025,-3.443,10.98,-0.0606,0.0662,9.8061,0.2657,-0.5161,0.3334,-20.69,-34.87,4.38,290.46,-83.48,-160.11
2080,52.20571,-2.178318,106.73,13.39,2,98.53,21 / 21,14219910,2020-01-08 16:12:23:504,1.5301,-5.3196,13.4467,-0.0681,0.0049,9.8064,0.3831,-0.648,0.1429,-20.31,-35.06,4.5,294.9,-83.43,-158.79
2081,52.20571,-2.178318,106.73,13.39,2,98.53,21 / 21,14220010,2020-01-08 16:12:23:604,0.0654,1.0887,10.8136,0.0199,-0.0086,9.8066,-0.4033,0.0925,-0.2307,-20.06,-34.87,3.63,289.75,-83.32,-160.54
2082,52.20571,-2.178318,106.73,13.39,2,98.53,21 / 21,14220110,2020-01-08 16:12:23:704,2.628,-3.2441,13.6492,-0.0465,0.0798,9.8061,-0.1361,-0.2015,0.3643,-20.06,-35.12,3.81,289.3,-83.62,-161.47
2083,52.20571,-2.178318,106.73,13.39,2,98.53,21 / 21,14220210,2020-01-08 16:12:23:804,1.8808,0.1715,12.5266,0.1475,0.0127,9.8054,-0.4171,0.2201,0.0704,-20.87,-34.5,3.69,294.5,-83.79,-157.11
2084,52.20571,-2.178318,106.73,13.39,2,98.53,20 / 20,14220311,2020-01-08 16:12:23:905,0.3331,0.0018,9.4997,0.1035,0.0004,9.8061,-0.1251,-0.0633,-0.0586,-20.25,-35.0,3.31,287.92,-83.12,-159.03
2085,52.20571,-2.178318,106.73,13.39,2,98.53,20 / 20,14220410,2020-01-08 16:12:24:004,0.2334,0.6173,12.5299,-0.0334,-0.0248,9.8065,0.174,-0.0128,0.2003,-20.37,-34.56,3.19,288.83,-83.2,-158.32
2086,52.20571,-2.178318,106.73,13.39,2,98.53,20 / 20,14220510,2020-01-08 16:12:24:104,0.1079,0.0591,12.3615,-0.0075,-0.0262,9.8066,-0.226,-0.4136,0.453,-20.25,-34.44,3.5,293.49,-83.25,-157.26
2087,52.20571,-2.178318,106.73,13.39,2,98.53,20 / 20,14220609,2020-01-08 16:12:24:203,-1.1691,-4.15,9.6873,-0.0157,-0.0488,9.8064,-0.2962,-0.4472,0.1508,-20.94,-34.56,3.75,292.12,-83.22,-158.15
2088,52.20571,-2.178318,106.73,13.39,2,98.53,20 / 20,14220709,2020-01-08 16:12:24:303,-0.7617,5.2102,9.6867,0.0001,-0.0566,9.8064,0.1045,0.022,-0.0662,-20.12,-34.25,3.56,295.1,-82.97,-155.34
2089,52.20571,-2.178318,106.73,13.39,2,98.53,20 / 20,14220810,2020-01-08 16:12:24:404,-0.033,-2.1215,9.1514,0.0278,0.0344,9.8065,-0.0043,-0.2846,0.0768,-20.56,-34.56,4.19,291.44,-83.13,-158.64
2090,52.20571,-2.178318,106.73,13.39,2,98.53,20 / 20,14220910,2020-01-08 16:12:24:504,-1.8732,-5.9486,8.7485,-0.0279,-0.0015,9.8065,0.1911,0.3779,-0.537,-20.19,-34.75,3.63,293.64,-83.23,-156.78
2091,52.20571,-2.178318,106.73,13.39,2,98.53,20 / 20,14221010,2020-01-08 16:12:24:604,0.119,0.4749,10.963,0.0353,0.0269,9.8065,0.2471,0.3314,0.0088,-20.75,-34.06,4.06,294.87,-83.35,-156.1
2092,52.20571,-2.178318,106.73,13.39,2,98.53,20 / 20,14221109,2020-01-08 16:12:24:703,-0.884,-4.1026,9.2503,0.0444,0.0454,9.8064,-0.0318,0.1151,0.0361,-20.12,-34.44,4.0,291.62,-83.35,-159.17
2093,52.20571,-2.178318,106.73,13.39,2,98.53,20 / 20,14221209,2020-01-08 16:12:24:803,-0.1454,0.8821,9.3841,-0.0056,0.0293,9.8065,0.1179,0.2193,-0.3119,-20.5,-34.06,3.38,290.04,-83.22,-157.54
2094,52.20578,-2.176321,105.67,15.72,3,84.72,21 / 21,14221311,2020-01-08 16:12:24:905,-0.9047,-2.7135,9.0167,0.008,0.0172,9.8066,-0.1281,-0.1288,0.172,-19.87,-34.31,3.31,289.11,-83.14,-158.29
2095,52.20578,-2.176321,105.67,15.72,3,84.72,21 / 21,14221410,2020-01-08 16:12:25:004,-1.654,2.2319,8.3364,-0.0057,-0.0117,9.8066,-0.1417,0.2362,-0.1704,-18.31,-34.44,4.81,298.43,-83.27,-156.06
2096,52.20578,-2.176321,105.67,15.72,3,84.72,21 / 21,14221510,2020-01-08 16:12:25:104,-0.4256,1.7478,10.4347,0.0104,0.0027,9.8066,-0.0684,-0.3277,0.0776,-19.62,-34.31,4.63,298.46,-83.66,-156.18
2097,52.20578,-2.176321,105.67,15.72,3,84.72,21 / 21,14221610,2020-01-08 16:12:25:204,-1.388,0.8069,9.3898,0.0115,0.0124,9.8066,-0.085,-0.0706,0.2138,-20.56,-34.56,4.31,295.32,-83.69,-155.92
2098,52.20578,-2.176321,105.67,15.72,3,84.72,21 / 21,14221710,2020-01-08 16:12:25:304,-0.8773,1.1564,9.4864,-0.0126,0.0393,9.8065,0.0954,-0.2161,0.1527,-20.62,-34.5,4.0,295.9,-83.76,-155.75
2099,52.20578,-2.176321,105.67,15.72,3,84.72,21 / 21,14221810,2020-01-08 16:12:25:404,0.2635,-1.2446,10.3004,-0.0124,0.0058,9.8066,0.0248,-0.1462,0.0698,-20.25,-34.69,3.94,295.79,-83.66,-155.51
2100,52.20578,-2.176321,105.67,15.72,3,84.72,21 / 21,14221910,2020-01-08 16:12:25:504,0.8619,0.7574,10.4507,0.003,-0.0012,9.8066,0.0036,0.0443,-0.0648,-20.81,-34.31,4.25,296.71,-83.77,-155.02
2101,52.20578,-2.176321,105.67,15.72,3,84.72,21 / 21,14222010,2020-01-08 16:12:25:604,-1.2814,-1.7553,8.081,0.0219,0.0161,9.8066,-0.2247,-0.1979,0.0858,-20.87,-34.75,3.75,295.54,-83.83,-155.94
2102,52.20578,-2.176321,105.67,15.72,3,84.72,21 / 21,14222110,2020-01-08 16:12:25:704,0.1492,-0.0075,10.2319,0.0045,0.0153,9.8065,0.0843,0.0447,0.0346,-19.94,-35.25,3.94,296.67,-84.02,-155.29
2103,52.20578,-2.176321,105.67,15.72,3,84.72,21 / 21,14222210,2020-01-08 16:12:25:804,-0.7424,0.0213,9.1458,0.0323,0.0173,9.8065,0.013,-0.0524,0.0337,-20.87,-35.37,4.19,296.0,-83.82,-155.5
2104,52.20578,-2.176321,105.67,15.72,3,84.72,20 / 21,14222311,2020-01-08 16:12:25:905,-0.1998,-0.6512,10.1682,-0.0396,0.0006,9.8065,0.1699,0.0216,-0.0202,-20.87,-34.87,4.06,296.12,-83.84,-155.42
2105,52.20578,-2.176321,105.67,15.72,3,84.72,20 / 21,14222410,2020-01-08 16:12:26:004,-0.9953,-0.1856,9.121,0.0112,-0.0214,9.8066,-0.0365,-0.078,-0.0826,-20.62,-34.62,4.44,295.33,-83.8,-156.07
2106,52.20578,-2.176321,105.67,15.72,3,84.72,20 / 21,14222510,2020-01-08 16:12:26:104,-0.3663,1.0622,10.3429,0.0076,0.0147,9.8066,-0.0696,-0.1226,0.0962,-20.44,-35.0,4.81,297.72,-83.94,-157.02
2107,52.20578,-2.176321,105.67,15.72,3,84.72,20 / 21,14222610,2020-01-08 16:12:26:204,-1.401,0.6978,10.1573,-0.0004,0.0169,9.8066,-0.0919,-0.1186,0.1251,-20.12,-35.0,4.25,297.07,-84.06,-154.98
2108,52.20578,-2.176321,105.67,15.72,3,84.72,20 / 21,14222709,2020-01-08 16:12:26:303,0.2593,2.1777,10.2646,0.0371,0.0238,9.8064,-0.1021,-0.2024,0.0564,-20.31,-35.0,4.5,301.22,-84.08,-154.03
2109,52.20578,-2.176321,105.67,15.72,3,84.72,20 / 21,14222811,2020-01-08 16:12:26:405,-1.6418,-2.6888,9.9125,-0.0014,0.0374,9.8065,-0.057,-0.2715,0.2258,-20.31,-35.25,4.13,295.9,-84.12,-156.15
2110,52.20578,-2.176321,105.67,15.72,3,84.72,20 / 21,14222910,2020-01-08 16:12:26:504,-0.8587,0.8447,9.92,0.0155,0.0352,9.8066,-0.0295,0.0295,0.1665,-20.75,-34.69,4.56,300.81,-83.99,-154.03
2111,52.20578,-2.176321,105.67,15.72,3,84.72,20 / 21,14223010,2020-01-08 16:12:26:604,-1.5433,-0.3822,10.1877,0.0095,-0.0075,9.8066,-0.0518,-0.031,-0.0479,-19.94,-34.94,4.44,296.87,-83.9,-154.9
2112,52.20578,-2.176321,105.67,15.72,3,84.72,20 / 21,14223110,2020-01-08 16:12:26:704,1.9035,-0.2042,10.5421,0.0237,-0.0074,9.8065,-0.1041,-0.0609,-0.0112,-20.44,-34.25,4.31,297.19,-84.0,-155.03
2113,52.20578,-2.176321,105.67,15.72,3,84.72,20 / 21,14223210,2020-01-08 16:12:26:804,-0.4664,-0.4573,9.3952,0.0091,0.0031,9.8066,-0.0851,0.111,0.0191,-20.06,-34.75,4.25,297.97,-84.12,-154.24
2114,52.20578,-2.176321,105.67,15.72,3,84.72,21 / 21,14223310,2020-01-08 16:12:26:904,-2.4729,1.6395,9.736,-0.0052,-0.0017,9.8066,-0.1015,0.1002,-0.109,-20.37,-34.31,4.44,298.84,-84.26,-153.92
2115,52.20578,-2.176321,105.67,15.72,3,84.72,21 / 21,14223410,2020-01-08 16:12:27:004,-1.8089,-1.4256,10.7155,-0.0058,0.0162,9.8066,0.1171,-0.1008,0.0525,-20.37,-34.56,4.25,297.72,-84.44,-154.98
2116,52.20578,-2.176321,105.67,15.72,3,84.72,21 / 21,14223510,2020-01-08 16:12:27:104,-1.5443,-1.7469,9.3788,-0.0136,-0.0079,9.8066,-0.0125,0.3196,-0.0198,-19.94,-34.94,4.25,297.35,-84.3,-155.1
2117,52.20578,-2.176321,105.67,15.72,3,84.72,21 / 21,14223610,2020-01-08 16:12:27:204,0.2662,0.1322,11.1053,-0.0185,-0.035,9.8066,0.0708,0.1491,-0.2321,-19.81,-34.31,3.88,299.42,-84.33,-153.49
2118,52.20578,-2.176321,105.67,15.72,3,84.72,21 / 21,14223710,2020-01-08 16:12:27:304,1.1823,-1.404,10.5389,0.0351,-0.0326,9.8065,-0.1168,0.1007,-0.1325,-20.0,-34.5,4.31,296.92,-84.38,-155.87
2119,52.20578,-2.176321,105.67,15.72,3,84.72,21 / 21,14223810,2020-01-08 16:12:27:404,-0.9893,-0.201,7.6194,0.0296,-0.0035,9.8066,-0.2039,0.197,0.0671,-20.62,-34.31,4.31,296.0,-84.14,-156.23
2120,52.20578,-2.176321,105.67,15.72,3,84.72,21 / 21,14223910,2020-01-08 16:12:27:504,0.8232,-2.3281,10.5856,0.0454,0.0356,9.8064,-0.0902,-0.1329,0.2471,-20.81,-34.62,4.25,299.26,-84.26,-153.15
2121,52.20578,-2.176321,105.67,15.72,3,84.72,21 / 21,14224010,2020-01-08 16:12:27:604,-0.3122,-0.083,9.1956,0.034,-0.0198,9.8065,-0.0732,-0.0651,-0.0592,-20.62,-34.62,4.19,297.7,-84.06,-154.3
2122,52.20578,-2.176321,105.67,15.72,3,84.72,21 / 21,14224110,2020-01-08 16:12:27:704,0.5036,2.1822,9.6727,0.0054,0.0353,9.8066,0.0337,-0.2148,0.1624,-20.81,-34.69,4.38,295.3,-84.08,-156.56
2123,52.20578,-2.176321,105.67,15.72,3,84.72,21 / 21,14224209,2020-01-08 16:12:27:803,-2.9516,-1.188,9.0908,-0.0093,0.0099,9.8066,0.129,-0.1355,0.0631,-19.75,-34.81,4.63,299.14,-84.01,-155.83
2124,52.20578,-2.176321,105.67,15.72,3,84.72,21 / 21,14224310,2020-01-08 16:12:27:904,-1.2701,-1.8317,8.7345,0.0253,0.0189,9.8066,-0.1902,-0.0221,0.1744,-20.37,-35.37,4.63,300.14,-84.04,-154.96
2125,52.20578,-2.176321,105.67,15.72,3,84.72,21 / 21,14224410,2020-01-08 16:12:28:004,0.9537,-0.2567,9.0507,-0.0156,-0.028,9.8065,-0.0891,-0.07,-0.1186,-20.06,-34.31,5.06,301.13,-84.06,-154.34
2126,52.20578,-2.176321,105.67,15.72,3,84.72,21 / 21,14224510,2020-01-08 16:12:28:104,1.4093,-0.0064,10.8725,0.0381,-0.0191,9.8065,-0.0136,-0.1612,-0.087,-19.94,-34.06,4.19,297.57,-84.18,-154.97
2127,52.20578,-2.176321,105.67,15.72,3,84.72,21 / 21,14224609,2020-01-08 16:12:28:203,1.923,-0.6763,9.2748,0.0194,0.0492,9.8065,0.0151,-0.1653,0.3346,-20.81,-34.5,4.94,298.74,-83.93,-156.09
2128,52.20578,-2.176321,105.67,15.72,3,84.72,21 / 21,14224709,2020-01-08 16:12:28:303,1.2356,-0.1884,10.6913,-0.0357,0.055,9.8064,0.1576,-0.1518,0.2408,-20.44,-34.19,4.88,300.98,-84.03,-154.42
2129,52.20578,-2.176321,105.67,15.72,3,84.72,21 / 21,14224810,2020-01-08 16:12:28:404,0.5716,-0.6149,11.0339,0.0157,-0.038,9.8065,0.0209,-0.1481,-0.1829,-19.75,-34.12,5.0,302.75,-83.8,-152.48
2130,52.20578,-2.176321,105.67,15.72,3,84.72,21 / 21,14224910,2020-01-08 16:12:28:504,-0.0498,1.4262,9.3114,-0.034,-0.0203,9.8065,-0.0275,-0.0715,-0.1312,-20.81,-34.31,4.75,300.74,-83.94,-154.26
2131,52.20578,-2.176321,105.67,15.72,3,84.72,21 / 21,14225010,2020-01-08 16:12:28:604,-0.706,-3.7551,9.9826,0.0025,0.0645,9.8064,-0.0701,-0.3226,0.3051,-20.69,-33.87,4.56,301.25,-84.2,-154.16
2132,52.20578,-2.176321,105.67,15.72,3,84.72,21 / 21,14225109,2020-01-08 16:12:28:703,0.1045,-0.8291,10.2884,0.0384,0.0095,9.8065,-0.0192,0.0927,0.0489,-20.37,-34.81,4.69,303.53,-84.13,-152.01
2133,52.20578,-2.176321,105.67,15.72,3,84.72,21 / 21,14225210,2020-01-08 16:12:28:804,0.6755,-1.9662,9.5081,0.0139,0.0019,9.8066,0.0056,-0.2094,-0.0081,-20.56,-34.19,4.81,301.86,-83.93,-153.22
2134,52.20578,-2.176321,105.67,15.72,3,84.72,21 / 22,14225310,2020-01-08 16:12:28:904,0.9739,1.4817,10.2718,0.0004,-0.0015,9.8066,0.0029,0.1167,-0.0111,-20.12,-34.5,6.13,305.15,-83.87,-153.2
2135,52.20578,-2.176321,105.67,15.72,3,84.72,21 / 22,14225411,2020-01-08 16:12:29:005,0.9981,0.8221,9.0162,-0.0375,-0.0055,9.8065,-0.2049,-0.1762,0.0632,-20.81,-33.87,5.19,301.27,-83.77,-153.53
2136,52.20578,-2.176321,105.67,15.72,3,84.72,21 / 22,14225512,2020-01-08 16:12:29:106,-0.0057,1.657,9.6616,-0.0319,-0.0215,9.8065,-0.0383,0.0066,-0.1802,-20.44,-34.62,6.0,307.38,-83.78,-150.82
2137,52.20578,-2.176321,105.67,15.72,3,84.72,21 / 22,14225610,2020-01-08 16:12:29:204,0.4391,-0.619,11.0373,0.0049,-0.0269,9.8065,0.1172,0.0441,0.1376,-20.69,-34.37,5.88,305.32,-83.54,-152.2
2138,52.20578,-2.176321,105.67,15.72,3,84.72,21 / 22,14225710,2020-01-08 16:12:29:304,0.7191,-2.8126,10.7723,0.0266,0.0415,9.8064,-0.0822,0.2342,-0.2402,-20.0,-34.5,5.25,300.02,-83.67,-154.77
2139,52.20578,-2.176321,105.67,15.72,3,84.72,21 / 22,14225810,2020-01-08 16:12:29:404,0.1967,-2.6288,10.4611,-0.0308,0.0654,9.8063,-0.084,0.1109,-0.0165,-20.44,-34.19,5.25,302.85,-83.43,-151.85
2140,52.20578,-2.176321,105.67,15.72,3,84.72,21 / 22,14225910,2020-01-08 16:12:29:504,0.982,-4.6518,10.9046,-0.0171,-0.0138,9.8066,0.0408,0.2611,0.0073,-20.12,-33.94,5.25,301.22,-83.69,-153.7
2141,52.20578,-2.176321,105.67,15.72,3,84.72,21 / 22,14226010,2020-01-08 16:12:29:604,1.6836,0.2171,8.344,-0.0126,0.0043,9.8066,-0.2429,0.1892,-0.2466,-20.5,-34.87,5.56,300.29,-83.72,-157.1
2142,52.20578,-2.176321,105.67,15.72,3,84.72,21 / 22,14226109,2020-01-08 16:12:29:703,-1.5668,1.4036,8.8841,-0.0786,0.0014,9.8062,-0.004,-0.3033,-0.0502,-19.94,-34.69,5.94,305.17,-83.99,-153.1
2143,52.20578,-2.176321,105.67,15.72,3,84.72,21 / 22,14226210,2020-01-08 16:12:29:804,0.1204,-0.3377,10.1247,-0.0078,-0.0561,9.8065,0.003,0.0644,0.1902,-20.56,-34.31,5.56,305.86,-83.95,-152.26
2144,52.20578,-2.176321,105.67,15.72,3,84.72,22 / 22,14226310,2020-01-08 16:12:29:904,1.4072,1.4175,10.6721,0.0219,0.0279,9.8065,-0.0366,-0.3207,0.236,-20.31,-34.94,6.06,301.12,-83.93,-156.66
2145,52.20578,-2.176321,105.67,15.72,3,84.72,22 / 22,14226410,2020-01-08 16:12:30:004,-1.947,1.4259,10.103,-0.0212,-0.0149,9.8066,-0.0133,0.0177,-0.1349,-19.94,-34.81,5.38,296.83,-83.63,-157.34
2146,52.20578,-2.176321,105.67,15.72,3,84.72,22 / 22,14226510,2020-01-08 16:12:30:104,0.3491,0.5648,9.5005,-0.0018,0.0118,9.8066,0.0421,-0.2561,-0.0457,-20.5,-34.81,4.81,298.58,-83.82,-156.04
2147,52.20578,-2.176321,105.67,15.72,3,84.72,22 / 22,14226610,2020-01-08 16:12:30:204,-0.9289,-1.9631,11.287,0.0284,-0.0106,9.8065,0.0603,-0.1825,0.1718,-20.37,-34.75,5.38,299.53,-84.02,-155.48
2148,52.20578,-2.176321,105.67,15.72,3,84.72,22 / 22,14226710,2020-01-08 16:12:30:304,-1.9745,-2.1937,10.1313,0.0131,-0.0327,9.8065,0.0869,-0.3028,0.2972,-21.62,-34.56,5.5,301.28,-83.9,-155.78
2149,52.20578,-2.176321,105.67,15.72,3,84.72,22 / 22,14226810,2020-01-08 16:12:30:404,-1.2736,-0.9048,10.5639,0.0265,-0.0387,9.8064,0.1475,-0.201,-0.0169,-21.62,-34.56,5.94,301.98,-83.8,-155.0
2150,52.20578,-2.176321,105.67,15.72,3,84.72,22 / 22,14226910,2020-01-08 16:12:30:504,-0.6459,-0.0711,10.4523,0.0084,-0.0058,9.8066,-0.1062,-0.1706,-0.0633,-21.12,-34.44,6.56,305.84,-83.84,-154.72
2151,52.20578,-2.176321,105.67,15.72,3,84.72,22 / 22,14227010,2020-01-08 16:12:30:604,1.0869,-1.4334,8.8504,-0.0441,-0.0096,9.8065,-0.1852,-0.21,0.2285,-20.62,-34.56,7.0,306.2,-83.87,-154.22
2152,52.20578,-2.176321,105.67,15.72,3,84.72,22 / 22,14227110,2020-01-08 16:12:30:704,1.5325,0.162,9.5702,-0.0244,-0.041,9.8065,-0.0812,-0.0926,0.1548,-20.5,-33.69,6.44,305.48,-83.98,-153.04
2153,52.20578,-2.176321,105.67,15.72,3,84.72,22 / 22,14227210,2020-01-08 16:12:30:804,-3.4272,-2.6212,8.7668,-0.0155,-0.0128,9.8066,-0.0996,-0.3629,0.1552,-21.12,-34.06,6.56,306.11,-83.75,-154.37
2154,52.20578,-2.176321,105.67,15.72,3,84.72,22 / 22,14227310,2020-01-08 16:12:30:904,-0.0585,2.6922,10.229,-0.0256,-0.0497,9.8064,-0.0075,-0.0932,0.0328,-20.19,-34.25,6.25,305.83,-83.63,-152.24
2155,52.20578,-2.176321,105.67,15.72,3,84.72,22 / 22,14227409,2020-01-08 16:12:31:003,-1.5173,-3.7457,10.1363,0.0103,0.0526,9.8064,0.0005,-0.3677,0.248,-20.69,-34.31,6.88,306.15,-83.75,-154.33
2156,52.20578,-2.176321,105.67,15.72,3,84.72,22 / 22,14227510,2020-01-08 16:12:31:104,-1.1561,-0.9772,8.8655,-0.026,-0.0017,9.8066,0.0813,0.191,-0.2048,-20.25,-34.0,6.31,305.17,-83.76,-153.01
2157,52.20578,-2.176321,105.67,15.72,3,84.72,22 / 22,14227610,2020-01-08 16:12:31:204,-1.6829,-3.9806,9.583,-0.0312,0.0428,9.8065,0.1338,-0.0987,0.1216,-20.44,-33.87,6.94,307.2,-83.95,-154.16
2158,52.20578,-2.176321,105.67,15.72,3,84.72,22 / 22,14227710,2020-01-08 16:12:31:304,-0.6433,-2.1584,9.8858,-0.035,-0.0344,9.8065,0.093,0.277,-0.1643,-20.06,-33.94,6.13,305.58,-83.98,-152.97
2159,52.20578,-2.176321,105.67,15.72,3,84.72,22 / 22,14227810,2020-01-08 16:12:31:404,0.6753,1.5135,8.9046,0.0181,-0.0152,9.8065,-0.0456,-0.0747,-0.1171,-20.37,-34.19,6.5,309.29,-83.94,-152.29
2160,52.20578,-2.176321,105.67,15.72,3,84.72,22 / 22,14227910,2020-01-08 16:12:31:504,0.2063,0.4286,9.9205,-0.0014,-0.0105,9.8065,0.0017,0.0572,-0.0282,-19.75,-34.12,6.81,308.01,-83.9,-153.38
2161,52.20578,-2.176321,105.67,15.72,3,84.72,22 / 22,14228010,2020-01-08 16:12:31:604,-0.7273,1.8128,9.9186,0.0103,0.0032,9.8066,0.0157,0.1995,-0.0779,-20.37,-34.25,6.63,309.59,-83.82,-151.86
2162,52.20578,-2.176321,105.67,15.72,3,84.72,22 / 22,14228109,2020-01-08 16:12:31:703,-2.9395,-3.3855,10.7543,-0.0047,-0.0482,9.8064,-0.0616,0.144,-0.2162,-20.62,-34.37,6.63,308.38,-83.93,-152.55
2163,52.20578,-2.176321,105.67,15.72,3,84.72,22 / 22,14228210,2020-01-08 16:12:31:804,0.6125,-0.933,10.0177,0.0247,-0.0392,9.8065,-0.1247,0.2103,-0.0955,-20.37,-34.25,6.25,306.48,-83.87,-152.0
2164,52.20578,-2.176321,105.67,15.72,3,84.72,21 / 22,14228310,2020-01-08 16:12:31:904,2.855,-0.8183,14.2368,-0.0162,0.0092,9.8066,0.6164,0.0638,0.0073,-20.5,-33.81,6.56,311.1,-84.06,-150.83
2165,52.20578,-2.176321,105.67,15.72,3,84.72,21 / 22,14228410,2020-01-08 16:12:32:004,1.331,0.8546,12.0972,-0.0134,-0.0294,9.8066,0.2588,-0.0209,-0.2236,-20.94,-33.81,6.19,306.75,-83.8,-151.26
2166,52.20578,-2.176321,105.67,15.72,3,84.72,21 / 22,14228509,2020-01-08 16:12:32:103,-2.5971,-4.4687,8.606,-0.0561,-0.0576,9.8063,0.2598,0.4372,-0.2949,-20.69,-33.62,6.56,308.56,-83.93,-152.39
2167,52.20578,-2.176321,105.67,15.72,3,84.72,21 / 22,14228610,2020-01-08 16:12:32:204,-1.0594,-2.297,8.6388,-0.004,-0.0421,9.8065,0.1335,0.2458,-0.2843,-20.0,-34.06,6.88,310.85,-83.67,-150.55
2168,52.20578,-2.176321,105.67,15.72,3,84.72,21 / 22,14228710,2020-01-08 16:12:32:304,-2.8979,-3.1707,8.5455,-0.083,-0.0746,9.806,0.2749,0.4352,-0.3142,-21.06,-34.06,6.63,306.7,-83.57,-153.6
2169,52.20578,-2.176321,105.67,15.72,3,84.72,21 / 22,14228810,2020-01-08 16:12:32:404,2.3392,4.3421,11.9787,-0.0521,-0.0427,9.8064,0.2879,0.3825,-0.3401,-20.69,-33.81,7.31,311.74,-83.57,-149.12
2170,52.20578,-2.176321,105.67,15.72,3,84.72,21 / 22,14228910,2020-01-08 16:12:32:504,-1.3543,-1.0547,9.2987,-0.0681,-0.0754,9.806,0.124,0.3334,-0.3699,-20.75,-34.12,7.56,317.2,-83.56,-146.83
2171,52.20578,-2.176321,105.67,15.72,3,84.72,21 / 22,14229010,2020-01-08 16:12:32:604,1.2197,3.3013,10.952,-0.0503,-0.0504,9.8063,0.1983,0.5065,-0.2784,-19.81,-34.44,6.81,312.8,-83.63,-148.78
2172,52.20578,-2.176321,105.67,15.72,3,84.72,21 / 22,14229110,2020-01-08 16:12:32:704,-2.0112,-3.9633,9.37,-0.0231,-0.0296,9.8065,0.0109,0.1928,-0.0279,-21.12,-33.87,7.81,314.14,-83.69,-149.67
2173,52.20578,-2.176321,105.67,15.72,3,84.72,21 / 22,14229209,2020-01-08 16:12:32:803,-0.2394,0.5771,9.0149,-0.0243,-0.0652,9.8063,0.0079,0.1569,-0.4282,-20.44,-34.0,7.75,316.85,-83.75,-148.01
2174,52.20578,-2.176321,105.67,15.72,3,84.72,21 / 21,14229310,2020-01-08 16:12:32:904,-1.0623,-0.2132,10.7379,-0.0069,-0.0332,9.8065,0.0798,-0.1283,-0.0719,-20.19,-34.19,8.13,314.57,-83.76,-150.02
2175,52.20578,-2.176321,105.67,15.72,3,84.72,21 / 21,14229410,2020-01-08 16:12:33:004,0.2841,-1.3963,10.0099,0.0662,0.003,9.8064,-0.2324,0.3314,0.1146,-20.19,-34.0,8.13,313.55,-83.54,-150.65
2176,52.20578,-2.176321,105.67,15.72,3,84.72,21 / 21,14229509,2020-01-08 16:12:33:103,0.2781,-2.9608,13.0056,-0.0246,-0.0042,9.8066,0.3228,-0.1753,-0.0016,-19.62,-33.5,8.0,315.06,-83.49,-149.49
2177,52.20578,-2.176321,105.67,15.72,3,84.72,21 / 21,14229610,2020-01-08 16:12:33:204,0.2313,-0.0863,10.6027,-0.0003,-0.037,9.8065,0.084,0.0037,-0.1123,-20.69,-33.81,7.56,313.71,-83.45,-149.76
2178,52.20578,-2.176321,105.67,15.72,3,84.72,21 / 21,14229709,2020-01-08 16:12:33:303,0.7781,0.7215,9.1164,-0.0222,0.0179,9.8066,0.0307,-0.374,0.1223,-20.81,-34.37,8.63,316.23,-83.47,-150.04
2179,52.20578,-2.176321,105.67,15.72,3,84.72,21 / 21,14229810,2020-01-08 16:12:33:404,-0.9515,2.0165,10.0846,-0.0115,0.0253,9.8066,-0.0401,-0.199,0.2049,-20.75,-33.44,7.94,315.26,-83.72,-148.91
2180,52.20578,-2.176321,105.67,15.72,3,84.72,21 / 21,14229910,2020-01-08 16:12:33:504,-1.7581,0.0705,10.5059,0.0224,0.0406,9.8065,0.1121,-0.0785,0.1777,-20.62,-34.25,7.69,314.98,-83.76,-149.0
2181,52.20578,-2.176321,105.67,15.72,3,84.72,21 / 21,14230010,2020-01-08 16:12:33:604,0.3869,-0.4606,9.6979,0.0162,-0.0344,9.8066,-0.0549,-0.1637,-0.0645,-20.31,-34.06,8.63,318.22,-83.55,-149.14
2182,52.20578,-2.176321,105.67,15.72,3,84.72,21 / 21,14230110,2020-01-08 16:12:33:704,-1.0914,0.6905,10.4901,-0.017,0.0089,9.8065,-0.0206,0.0772,0.0286,-20.56,-33.94,8.19,316.09,-83.79,-148.06
2183,52.20578,-2.176321,105.67,15.72,3,84.72,21 / 21,14230210,2020-01-08 16:12:33:804,-1.8593,-2.3716,9.4465,0.0303,0.0036,9.8065,-0.0377,-0.367,0.0317,-20.56,-34.31,8.31,316.76,-83.9,-147.59
2184,52.20583,-2.174358,104.86,14.18,3,97.01,20 / 22,14230310,2020-01-08 16:12:33:904,1.5749,1.2947,10.032,0.0162,0.0148,9.8065,0.0128,-0.0931,0.085,-20.19,-34.19,8.19,316.04,-83.7,-148.66
2185,52.20583,-2.174358,104.86,14.18,3,97.01,20 / 22,14230410,2020-01-08 16:12:34:004,0.0098,-0.8865,8.4475,0.0219,0.0342,9.8065,-0.0208,-0.1822,0.1884,-20.37,-34.87,8.81,318.82,-83.61,-148.5
2186,52.20583,-2.174358,104.86,14.18,3,97.01,20 / 22,14230509,2020-01-08 16:12:34:103,-1.1011,0.1602,10.4177,-0.0247,0.0052,9.8065,0.1687,-0.0528,-0.0313,-20.06,-34.06,8.75,320.28,-83.67,-147.49
2187,52.20583,-2.174358,104.86,14.18,3,97.01,20 / 22,14230610,2020-01-08 16:12:34:204,0.7485,0.1009,11.2693,-0.0167,0.0037,9.8065,0.1068,-0.1717,-0.0045,-20.31,-34.44,8.25,317.0,-83.71,-147.84
2188,52.20583,-2.174358,104.86,14.18,3,97.01,20 / 22,14230710,2020-01-08 16:12:34:304,1.5624,1.7827,8.6764,-0.0315,-0.0125,9.8066,0.0428,0.0909,-0.112,-19.94,-34.62,8.38,316.29,-83.64,-148.17
2189,52.20583,-2.174358,104.86,14.18,3,97.01,20 / 22,14230810,2020-01-08 16:12:34:404,-1.0013,-0.6357,10.9754,-0.0393,0.0374,9.8065,0.1226,-0.1369,0.0867,-20.12,-34.25,8.25,318.97,-83.85,-146.28
2190,52.20583,-2.174358,104.86,14.18,3,97.01,20 / 22,14230910,2020-01-08 16:12:34:504,-2.2045,-0.6417,10.5255,-0.0001,-0.0122,9.8066,-0.1449,-0.0186,0.0492,-20.12,-34.19,8.75,322.89,-83.85,-145.42
2191,52.20583,-2.174358,104.86,14.18,3,97.01,20 / 22,14231010,2020-01-08 16:12:34:604,1.3997,0.7822,10.4659,-0.0003,-0.0274,9.8066,0.1289,0.2521,-0.1027,-19.94,-34.75,8.5,323.56,-83.64,-144.45
2192,52.20583,-2.174358,104.86,14.18,3,97.01,20 / 22,14231109,2020-01-08 16:12:34:703,-0.297,-2.8751,10.3698,0.0053,-0.0308,9.8065,-0.0281,0.1017,-0.13,-20.81,-34.5,8.19,319.48,-83.39,-144.67
2193,52.20583,-2.174358,104.86,14.18,3,97.01,20 / 22,14231210,2020-01-08 16:12:34:804,0.4938,2.2422,9.409,-0.0051,-0.0469,9.8065,0.033,0.2973,-0.2615,-20.75,-34.69,9.13,321.94,-83.4,-144.83
2194,52.20583,-2.174358,104.86,14.18,3,97.01,21 / 22,14231310,2020-01-08 16:12:34:904,-0.8839,-3.044,9.7218,-0.0292,-0.0345,9.8065,0.0845,0.1866,-0.125,-20.31,-34.19,9.44,321.08,-83.4,-146.52
2195,52.20583,-2.174358,104.86,14.18,3,97.01,21 / 22,14231410,2020-01-08 16:12:35:004,0.3378,-0.4855,10.4051,0.019,-0.044,9.8065,-0.1405,0.2792,-0.2175,-21.12,-34.19,9.5,324.75,-83.59,-145.13
2196,52.20583,-2.174358,104.86,14.18,3,97.01,21 / 22,14231510,2020-01-08 16:12:35:104,-0.5322,-2.212,10.8117,-0.0047,-0.0083,9.8066,0.0132,-0.121,0.0265,-20.81,-33.5,9.0,322.3,-83.43,-144.9
2197,52.20583,-2.174358,104.86,14.18,3,97.01,21 / 22,14231609,2020-01-08 16:12:35:203,1.5926,0.9748,9.9236,0.0125,-0.0263,9.8066,0.0299,0.1626,-0.1166,-20.62,-34.25,9.31,322.21,-83.38,-144.75
2198,52.20583,-2.174358,104.86,14.18,3,97.01,21 / 22,14231710,2020-01-08 16:12:35:304,-2.6152,-0.8937,9.0304,-0.052,0.0074,9.8064,0.0987,-0.0434,-0.0381,-20.0,-33.5,8.56,322.48,-83.45,-145.55
2199,52.20583,-2.174358,104.86,14.18,3,97.01,21 / 22,14231810,2020-01-08 16:12:35:404,1.0412,0.9478,9.0662,0.0155,-0.0387,9.8065,0.0531,0.1341,-0.141,-20.06,-34.44,9.19,322.61,-83.5,-145.3
2200,52.20583,-2.174358,104.86,14.18,3,97.01,21 / 22,14231910,2020-01-08 16:12:35:504,-1.3638,-0.3976,8.5956,-0.0497,-0.0008,9.8065,0.0749,-0.1798,-0.0143,-19.81,-34.62,9.38,321.56,-83.5,-146.03
2201,52.20583,-2.174358,104.86,14.18,3,97.01,21 / 22,14232010,2020-01-08 16:12:35:604,-0.3237,-0.5977,11.0052,-0.0338,0.0153,9.8065,0.0709,-0.0345,0.0722,-20.5,-33.81,9.38,324.82,-83.78,-143.68
2202,52.20583,-2.174358,104.86,14.18,3,97.01,21 / 22,14232110,2020-01-08 16:12:35:704,-0.7803,-0.7276,10.1204,0.001,0.023,9.8066,0.0067,-0.1166,0.1385,-20.12,-33.5,9.19,325.79,-83.75,-142.99
2203,52.20583,-2.174358,104.86,14.18,3,97.01,21 / 22,14232209,2020-01-08 16:12:35:803,-1.1696,0.0413,9.5982,-0.0062,-0.0065,9.8066,-0.0216,-0.0543,-0.0129,-19.75,-34.5,9.19,326.36,-83.62,-142.22
2204,52.20583,-2.174358,104.86,14.18,3,97.01,22 / 22,14232311,2020-01-08 16:12:35:905,2.4478,-0.0353,10.8037,0.0314,0.0138,9.8065,-0.1106,-0.1967,0.0716,-20.12,-33.5,9.94,328.3,-83.58,-143.12
2205,52.20583,-2.174358,104.86,14.18,3,97.01,22 / 22,14232410,2020-01-08 16:12:36:004,-1.1633,0.571,10.4155,-0.0114,0.019,9.8066,-0.0597,-0.0271,-0.0134,-20.44,-34.06,10.06,326.61,-83.73,-144.54
2206,52.20583,-2.174358,104.86,14.18,3,97.01,22 / 22,14232510,2020-01-08 16:12:36:104,-0.8041,-2.2839,9.7383,0.0077,-0.0146,9.8066,-0.138,0.1571,-0.0199,-20.56,-34.12,9.81,327.23,-83.89,-143.25
2207,52.20583,-2.174358,104.86,14.18,3,97.01,22 / 22,14232610,2020-01-08 16:12:36:204,1.0415,0.1929,8.5028,-0.0143,-0.0368,9.8065,0.031,0.0035,-0.1214,-19.69,-34.44,10.19,328.29,-83.82,-143.18
2208,52.20583,-2.174358,104.86,14.18,3,97.01,22 / 22,14232709,2020-01-08 16:12:36:303,-0.2404,0.731,9.4606,-0.0385,-0.0126,9.8065,0.1027,0.1502,-0.04,-20.0,-34.37,10.06,330.05,-83.84,-141.69
2209,52.20583,-2.174358,104.86,14.18,3,97.01,22 / 22,14232810,2020-01-08 16:12:36:404,0.2793,1.1924,11.2698,-0.0686,0.0111,9.8063,0.0979,0.0511,-0.1432,-20.0,-33.94,10.25,331.6,-83.9,-140.41
2210,52.20583,-2.174358,104.86,14.18,3,97.01,22 / 22,14232910,2020-01-08 16:12:36:504,-1.09,-2.3599,12.9717,0.0824,-0.0639,9.806,-0.2816,0.1531,-0.0717,-20.31,-33.56,9.81,333.05,-84.18,-139.39
2211,52.20583,-2.174358,104.86,14.18,3,97.01,22 / 22,14233010,2020-01-08 16:12:36:604,-2.023,-0.3562,9.2909,0.0491,-0.0119,9.8064,-0.0279,-0.1513,-0.0039,-20.25,-33.87,9.94,329.85,-83.87,-141.89
2212,52.20583,-2.174358,104.86,14.18,3,97.01,22 / 22,14233111,2020-01-08 16:12:36:705,-1.0642,2.1976,9.7175,0.0098,-0.0069,9.8066,-0.0359,-0.1243,-0.0371,-20.37,-34.75,9.25,325.22,-83.83,-143.22
2213,52.20583,-2.174358,104.86,14.18,3,97.01,22 / 22,14233210,2020-01-08 16:12:36:804,-0.3933,-1.1371,9.6461,0.0133,0.0247,9.8065,-0.0479,-0.033,0.1961,-19.94,-34.0,10.94,330.94,-83.7,-143.16
2214,52.20583,-2.174358,104.86,14.18,3,97.01,23 / 23,14233311,2020-01-08 16:12:36:905,1.5892,1.9388,11.5611,0.0716,0.0186,9.8064,-0.3034,-0.2838,0.0929,-20.12,-34.56,10.06,325.33,-83.6,-145.36
2215,52.20583,-2.174358,104.86,14.18,3,97.01,23 / 23,14233410,2020-01-08 16:12:37:004,-1.798,0.2042,10.3321,0.0059,0.0516,9.8064,-0.1739,-0.3126,0.2439,-20.06,-34.62,10.31,327.67,-84.05,-143.78
2216,52.20583,-2.174358,104.86,14.18,3,97.01,23 / 23,14233510,2020-01-08 16:12:37:104,1.3402,2.7846,10.8599,0.0623,0.0477,9.8063,-0.1765,-0.273,0.2937,-20.06,-35.56,10.13,331.32,-83.97,-140.45
2217,52.20583,-2.174358,104.86,14.18,3,97.01,23 / 23,14233609,2020-01-08 16:12:37:203,-1.9086,-2.8993,9.007,0.0551,0.0215,9.8064,-0.1693,-0.3555,0.2807,-20.75,-35.06,10.25,327.3,-83.96,-143.1
2218,52.20583,-2.174358,104.86,14.18,3,97.01,23 / 23,14233709,2020-01-08 16:12:37:303,0.8434,1.3395,10.6946,0.0175,0.039,9.8065,0.0332,-0.1561,0.0775,-21.06,-35.06,10.75,331.41,-83.82,-141.72
2219,52.20583,-2.174358,104.86,14.18,3,97.01,23 / 23,14233810,2020-01-08 16:12:37:404,-0.5089,-2.6901,9.3688,0.0356,0.0497,9.8064,-0.0558,-0.381,0.2301,-19.94,-34.56,10.75,329.9,-84.07,-144.21
2220,52.20583,-2.174358,104.86,14.18,3,97.01,23 / 23,14233910,2020-01-08 16:12:37:504,-0.0972,0.7986,9.4638,0.0141,0.0133,9.8066,0.0615,0.0402,0.012,-20.06,-34.31,10.25,327.82,-84.01,-143.75
2221,52.20583,-2.174358,104.86,14.18,3,97.01,23 / 23,14234010,2020-01-08 16:12:37:604,-1.9044,-1.2902,10.0173,0.0066,0.014,9.8066,-0.099,-0.113,0.084,-19.75,-34.31,10.56,330.96,-83.95,-143.34
2222,52.20583,-2.174358,104.86,14.18,3,97.01,23 / 23,14234110,2020-01-08 16:12:37:704,-0.1474,1.3189,10.3165,0.0316,-0.0222,9.8066,-0.1323,0.0261,-0.045,-19.69,-34.06,10.25,329.91,-84.09,-142.02
2223,52.20583,-2.174358,104.86,14.18,3,97.01,23 / 23,14234210,2020-01-08 16:12:37:804,-2.288,1.0168,8.3517,0.0132,0.0268,9.8065,-0.1218,-0.0795,0.1108,-19.81,-34.0,10.56,331.04,-83.93,-143.26
2224,52.20583,-2.174358,104.86,14.18,3,97.01,23 / 23,14234310,2020-01-08 16:12:37:904,0.5991,-0.3381,10.3881,0.0361,0.0019,9.8066,-0.0151,-0.0323,0.0566,-19.31,-34.5,10.81,334.21,-83.91,-141.62
2225,52.20583,-2.174358,104.86,14.18,3,97.01,23 / 23,14234410,2020-01-08 16:12:38:004,-0.2708,0.0042,10.6564,-0.0039,-0.0007,9.8066,0.0557,-0.0312,-0.0263,-19.87,-34.12,10.19,328.65,-83.84,-142.89
2226,52.20583,-2.174358,104.86,14.18,3,97.01,23 / 23,14234510,2020-01-08 16:12:38:104,-3.1622,-1.1825,8.0731,-0.0127,-0.015,9.8066,-0.0674,0.027,-0.0049,-19.69,-34.75,10.5,332.01,-83.76,-142.17
2227,52.20583,-2.174358,104.86,14.18,3,97.01,23 / 23,14234610,2020-01-08 16:12:38:204,-0.1541,1.3243,10.2094,-0.0705,-0.0004,9.8064,0.2157,0.1958,-0.1209,-20.31,-34.37,11.38,333.6,-83.82,-140.98
2228,52.20583,-2.174358,104.86,14.18,3,97.01,23 / 23,14234710,2020-01-08 16:12:38:304,-1.8748,-1.118,8.3898,0.0256,-0.0298,9.8065,-0.2292,0.1392,-0.0871,-19.44,-33.37,10.31,331.19,-83.59,-141.12
2229,52.20583,-2.174358,104.86,14.18,3,97.01,23 / 23,14234810,2020-01-08 16:12:38:404,0.6065,2.5388,9.3814,-0.0174,-0.051,9.8064,-0.1058,0.3898,-0.1545,-19.81,-33.62,10.63,334.55,-83.73,-140.12
2230,52.20583,-2.174358,104.86,14.18,3,97.01,23 / 23,14234910,2020-01-08 16:12:38:504,-3.9438,-0.009,10.621,0.0176,0.0061,9.8065,-0.0826,0.1217,0.1505,-19.56,-33.37,11.0,336.29,-83.92,-138.86
2231,52.20583,-2.174358,104.86,14.18,3,97.01,23 / 23,14235009,2020-01-08 16:12:38:603,1.2189,0.4229,9.5564,0.0086,-0.0922,9.8061,-0.1444,0.221,-0.4183,-20.12,-33.31,9.88,333.13,-83.69,-139.08
2232,52.20583,-2.174358,104.86,14.18,3,97.01,23 / 23,14235110,2020-01-08 16:12:38:704,0.0327,-1.1097,10.6309,-0.0133,-0.0574,9.8064,-0.0644,-0.025,-0.2599,-19.25,-33.69,10.75,337.0,-83.74,-139.16
2233,52.20583,-2.174358,104.86,14.18,3,97.01,23 / 23,14235210,2020-01-08 16:12:38:804,-1.6715,-1.8067,9.2197,0.0321,0.0106,9.8066,-0.0526,-0.0376,0.2295,-19.31,-33.25,10.94,334.99,-83.83,-141.03
2234,52.20583,-2.174358,104.86,14.18,3,97.01,22 / 23,14235310,2020-01-08 16:12:38:904,0.1245,1.6248,10.5243,0.0711,0.0388,9.8063,-0.2466,-0.446,0.285,-19.56,-33.81,11.38,335.73,-83.64,-139.05
2235,52.20583,-2.174358,104.86,14.18,3,97.01,22 / 23,14235410,2020-01-08 16:12:39:004,0.1855,-0.4279,10.1163,0.0772,0.0108,9.8063,-0.3857,-0.4281,0.3441,-19.75,-34.0,10.5,331.7,-83.59,-142.43
2236,52.20583,-2.174358,104.86,14.18,3,97.01,22 / 23,14235510,2020-01-08 16:12:39:104,1.683,3.0038,10.1979,0.0946,0.0439,9.806,-0.2562,-0.3507,0.3073,-20.0,-33.44,10.81,338.34,-83.71,-137.0
2237,52.20583,-2.174358,104.86,14.18,3,97.01,22 / 23,14235610,2020-01-08 16:12:39:204,-1.2457,-4.2179,8.4988,0.0376,0.0204,9.8065,-0.1304,-0.4326,0.2626,-19.62,-33.69,10.75,334.05,-83.57,-140.43
2238,52.20583,-2.174358,104.86,14.18,3,97.01,22 / 23,14235709,2020-01-08 16:12:39:303,0.3304,2.9765,10.9441,0.0226,0.0023,9.8066,-0.0487,-0.1313,-0.0409,-18.87,-33.94,12.5,341.43,-83.58,-139.82
2239,52.20583,-2.174358,104.86,14.18,3,97.01,22 / 23,14235810,2020-01-08 16:12:39:404,-3.5384,-4.437,8.4618,0.071,0.0496,9.8062,-0.1144,-0.6474,0.3183,-19.75,-33.69,11.44,332.92,-83.71,-141.48
2240,52.20583,-2.174358,104.86,14.18,3,97.01,22 / 23,14235910,2020-01-08 16:12:39:504,-0.995,-0.3657,9.4709,-0.0401,0.006,9.8065,0.0711,0.2123,-0.2649,-20.0,-33.62,11.81,337.86,-83.69,-139.51
2241,52.20583,-2.174358,104.86,14.18,3,97.01,22 / 23,14236010,2020-01-08 16:12:39:604,-3.9395,-5.0223,10.2429,0.0329,0.0836,9.8062,0.0051,-0.4846,0.4135,-19.5,-33.56,11.44,336.82,-83.96,-139.46
2242,52.20583,-2.174358,104.86,14.18,3,97.01,22 / 23,14236110,2020-01-08 16:12:39:704,3.4631,1.2114,10.8923,0.0128,-0.0166,9.8066,-0.0151,0.2942,-0.1958,-19.5,-33.81,11.94,340.7,-83.74,-138.34
2243,52.20583,-2.174358,104.86,14.18,3,97.01,22 / 23,14236209,2020-01-08 16:12:39:803,0.8975,-0.0187,8.2151,0.0788,0.0365,9.8062,-0.1811,-0.3495,0.2156,-20.62,-33.62,12.19,334.24,-83.75,-141.56
2244,52.20583,-2.174358,104.86,14.18,3,97.01,22 / 22,14236310,2020-01-08 16:12:39:904,0.669,0.671,9.836,0.0179,0.0307,9.8066,0.072,-0.0307,0.0875,-21.5,-33.25,13.06,336.45,-83.82,-141.89
2245,52.20583,-2.174358,104.86,14.18,3,97.01,22 / 22,14236410,2020-01-08 16:12:40:004,0.0992,0.3462,7.252,0.0696,0.0018,9.8063,-0.1188,-0.0892,0.0659,-20.06,-33.44,12.06,334.62,-83.6,-142.32
2246,52.20583,-2.174358,104.86,14.18,3,97.01,22 / 22,14236509,2020-01-08 16:12:40:103,-0.2247,-2.7695,10.4271,-0.0406,-0.006,9.8066,0.1298,-0.11,-0.0294,-20.19,-33.37,11.88,334.88,-83.69,-142.16
2247,52.20583,-2.174358,104.86,14.18,3,97.01,22 / 22,14236609,2020-01-08 16:12:40:203,0.695,-0.2125,10.8992,-0.0178,-0.0382,9.8065,0.1889,0.0514,-0.1157,-19.12,-33.44,12.69,340.83,-83.63,-140.44
2248,52.20583,-2.174358,104.86,14.18,3,97.01,22 / 22,14236710,2020-01-08 16:12:40:304,-2.122,-2.923,10.1082,0.0096,0.0251,9.8066,0.0946,-0.3585,0.2844,-18.81,-34.0,12.69,339.78,-83.4,-141.11
2249,52.20583,-2.174358,104.86,14.18,3,97.01,22 / 22,14236810,2020-01-08 16:12:40:404,2.0988,-0.2703,9.6896,-0.0106,-0.0328,9.8065,-0.001,0.0635,-0.0045,-18.87,-34.44,13.0,340.59,-83.14,-140.3
2250,52.20583,-2.174358,104.86,14.18,3,97.01,22 / 22,14236910,2020-01-08 16:12:40:504,2.7185,1.5598,10.3625,0.0415,0.0352,9.8064,-0.0846,-0.5425,0.2798,-19.25,-33.44,13.06,338.81,-83.3,-141.97
2251,52.20583,-2.174358,104.86,14.18,3,97.01,22 / 22,14237010,2020-01-08 16:12:40:604,2.7886,4.8746,7.7415,0.0124,-0.0494,9.8064,-0.0502,0.2286,-0.0013,-18.75,-33.5,11.69,338.24,-83.18,-140.18
2252,52.20583,-2.174358,104.86,14.18,3,97.01,22 / 22,14237110,2020-01-08 16:12:40:704,0.6834,0.4199,9.3208,-0.0137,0.0719,9.8063,0.181,-0.5744,0.2848,-18.94,-34.25,12.75,341.0,-83.12,-139.95
2253,52.20583,-2.174358,104.86,14.18,3,97.01,22 / 22,14237211,2020-01-08 16:12:40:805,-0.2428,-1.3221,9.9556,-0.0161,-0.0023,9.8065,0.0528,-0.2703,0.009,-19.0,-33.56,12.81,340.03,-83.25,-140.82
2254,52.20583,-2.174358,104.86,14.18,3,97.01,22 / 22,14237310,2020-01-08 16:12:40:904,1.8325,2.5165,9.6292,-0.002,0.0413,9.8065,0.1074,-0.3632,0.207,-19.0,-33.81,13.25,339.84,-83.21,-140.95
2255,52.20583,-2.174358,104.86,14.18,3,97.01,22 / 22,14237410,2020-01-08 16:12:41:004,-1.8421,2.4534,7.6394,0.0554,-0.0058,9.8064,-0.1576,-0.1973,0.2066,-19.25,-34.0,13.13,339.41,-83.17,-141.29
2256,52.20583,-2.174358,104.86,14.18,3,97.01,22 / 22,14237509,2020-01-08 16:12:41:103,0.9829,1.0737,9.6543,0.028,0.0359,9.8064,-0.0801,-0.1617,0.1733,-19.31,-33.56,13.0,342.18,-83.12,-138.97
2257,52.20583,-2.174358,104.86,14.18,3,97.01,22 / 22,14237610,2020-01-08 16:12:41:204,-2.0699,-0.5155,8.5961,-0.0045,-0.0113,9.8065,-0.1013,-0.0689,0.0477,-19.12,-33.87,12.75,341.87,-83.15,-139.24
2258,52.20583,-2.174358,104.86,14.18,3,97.01,22 / 22,14237710,2020-01-08 16:12:41:304,-0.7234,0.7425,7.633,0.0398,0.0025,9.8065,-0.2121,-0.0855,0.0754,-18.87,-33.81,12.88,344.56,-83.33,-137.1
2259,52.20583,-2.174358,104.86,14.18,3,97.01,22 / 22,14237809,2020-01-08 16:12:41:403,0.6933,1.2208,9.6524,-0.0138,0.011,9.8066,-0.0635,0.1671,0.0452,-19.19,-33.56,13.44,344.02,-83.32,-137.55
2260,52.20583,-2.174358,104.86,14.18,3,97.01,22 / 22,14237910,2020-01-08 16:12:41:504,-0.0018,-0.1052,9.4672,0.0076,0.0053,9.8066,0.0972,-0.2088,0.0511,-18.81,-33.25,12.88,345.5,-83.33,-136.39
2261,52.20583,-2.174358,104.86,14.18,3,97.01,22 / 22,14238010,2020-01-08 16:12:41:604,0.4275,0.1674,9.2253,0.0215,-0.0452,9.8065,-0.1257,0.0156,-0.0945,-18.94,-33.56,12.56,343.18,-83.14,-138.16
2262,52.20583,-2.174358,104.86,14.18,3,97.01,22 / 22,14238110,2020-01-08 16:12:41:704,-0.7056,-1.1301,10.4203,0.0025,0.0117,9.8066,0.052,-0.0516,0.1403,-19.0,-33.75,13.25,342.99,-83.27,-138.38
2263,52.20583,-2.174358,104.86,14.18,3,97.01,22 / 22,14238211,2020-01-08 16:12:41:805,0.1446,0.5092,10.3809,-0.0199,-0.0166,9.8066,0.0675,0.1364,-0.1663,-19.0,-33.37,13.25,343.97,-83.24,-137.63
2264,52.20583,-2.174358,104.86,14.18,3,97.01,22 / 22,14238310,2020-01-08 16:12:41:904,-0.5458,-0.9008,9.0614,-0.021,-0.0066,9.8066,0.0047,-0.0485,-0.1018,-19.06,-33.44,13.81,343.64,-83.2,-139.96
2265,52.20583,-2.174358,104.86,14.18,3,97.01,22 / 22,14238410,2020-01-08 16:12:42:004,1.9486,-0.6563,11.0388,-0.0502,0.0188,9.8064,0.289,0.0368,0.0243,-18.69,-33.62,13.19,341.53,-83.25,-139.58
2266,52.20583,-2.174358,104.86,14.18,3,97.01,22 / 22,14238510,2020-01-08 16:12:42:104,-1.428,-1.8878,9.1463,-0.0003,0.0133,9.8066,-0.0751,-0.1181,0.2089,-18.94,-33.94,13.31,340.87,-83.02,-140.01
2267,52.20583,-2.174358,104.86,14.18,3,97.01,22 / 22,14238610,2020-01-08 16:12:42:204,-2.6872,1.4965,8.7571,-0.0611,-0.0275,9.8063,0.0008,0.1949,-0.1925,-19.87,-34.0,13.0,342.93,-83.02,-137.06
2268,52.20583,-2.174358,104.86,14.18,3,97.01,22 / 22,14238710,2020-01-08 16:12:42:304,2.2368,0.3332,11.3694,-0.0887,0.012,9.8062,0.4172,0.0684,-0.2037,-19.81,-33.75,12.69,338.6,-82.76,-140.51
2269,52.20583,-2.174358,104.86,14.18,3,97.01,22 / 22,14238809,2020-01-08 16:12:42:403,-1.2164,-0.8616,12.7509,-0.0807,0.0263,9.8063,0.4019,-0.1741,-0.1234,-20.81,-33.31,13.31,339.96,-83.06,-138.49
2270,52.20583,-2.174358,104.86,14.18,3,97.01,22 / 22,14238909,2020-01-08 16:12:42:503,1.0455,-2.0569,7.9323,-0.0456,0.0156,9.8065,0.1432,0.1984,0.0282,-20.19,-32.75,14.0,339.75,-82.72,-141.69
2271,52.20583,-2.174358,104.86,14.18,3,97.01,22 / 22,14239009,2020-01-08 16:12:42:603,-1.2856,-1.7783,11.1645,-0.0703,0.0332,9.8063,0.1912,-0.176,-0.131,-19.94,-32.44,15.13,345.71,-82.9,-138.81
2272,52.20583,-2.174358,104.86,14.18,3,97.01,22 / 22,14239110,2020-01-08 16:12:42:704,-0.1511,0.6233,8.4145,-0.008,-0.0494,9.8064,-0.1442,0.0962,-0.3217,-19.31,-32.87,14.69,346.02,-82.78,-139.79
2273,52.20583,-2.174358,104.86,14.18,3,97.01,22 / 22,14239209,2020-01-08 16:12:42:803,0.4321,-0.843,10.1116,-0.011,0.0658,9.8064,0.1049,-0.1099,0.2455,-18.62,-33.94,14.56,344.7,-83.13,-140.94
2274,52.205544,-2.172574,103.92,14.01,3,113.8,22 / 22,14239310,2020-01-08 16:12:42:904,1.1143,-2.0593,10.3798,0.0289,-0.006,9.8066,-0.0374,0.1923,0.0065,-18.5,-33.19,14.25,346.26,-83.06,-139.14
