,GPS LATITUDE (degrees), GPS LONGITUDE (degrees), GPS ALTITUDE (m), GPS SPEED (Kmh), GPS ACCURACY (m), GPS ORIENTATION (Â°),GPS SATELLITES IN RANGE, TIME SINCE START (ms), DATE (YYYY-MO-DD HH-MI-SS_SSS), ACCELEROMETER X (m/s²) , ACCELEROMETER Y (m/s²), ACCELEROMETER Z (m/s²), GRAVITY X (m/s²), GRAVITY Y (m/s²), GRAVITY Z (m/s²), GYROSCOPE Yaw (rad/s), GYROSCOPE Pitch (rad/s), GYROSCOPE Roll (rad/s), MAGNETIC FIELD X (Î¼T), MAGNETIC FIELD Y (Î¼T), MAGNETIC FIELD Z (Î¼T), ORIENTATION (Yaw) (Â°), ORIENTATION (Pitch) (Â°), ORIENTATION (Roll ) (Â°)
2431,48.88858,2.29281,92.98,15.78,32,243.54,07-Aug,243120,2020-01-04 11:41:59:370,1.1438,0.0906,9.8592,0.008,0.0056,9.8066,0.001,-0.011,0.0315,-31.87,-102.87,76.94,161.24,-11.33,-5.49
2432,48.88858,2.29281,92.98,15.78,32,243.54,07-Aug,243221,2020-01-04 11:41:59:471,0.8518,-0.0749,9.7302,-0.0041,0.0157,9.8066,-0.0314,0.0125,0.0312,-33.37,-103.06,77.13,160.79,-11.19,-5.47
2433,48.88858,2.29281,92.98,15.78,32,243.54,07-Aug,243321,2020-01-04 11:41:59:571,0.8544,-0.3178,9.0654,0.0106,0.017,9.8066,-0.0036,0.0412,0.0181,-34.44,-103.31,78.0,160.38,-11.12,-5.37
2434,48.88858,2.29281,92.98,15.78,32,243.54,Oct-13,243421,2020-01-04 11:41:59:671,1.1036,0.0253,10.2139,-0.0117,-0.0065,9.8066,-0.0045,0.0278,0.0253,-35.31,-103.12,78.25,159.98,-11.16,-5.31
2435,48.88858,2.29281,92.98,15.78,32,243.54,Oct-13,243521,2020-01-04 11:41:59:771,1.0816,0.2988,9.826,0.0136,-0.0025,9.8066,0.021,0.0189,0.022,-33.37,-103.44,77.25,160.88,-11.22,-5.31
2436,48.88858,2.29281,92.98,15.78,32,243.54,Oct-13,243621,2020-01-04 11:41:59:871,0.8297,-0.1479,8.5698,0.01,0.0042,9.8066,0.0138,0.013,0.0244,-32.69,-103.31,76.88,160.96,-11.38,-5.21
2437,48.88858,2.29281,92.98,15.78,32,243.54,Oct-13,243721,2020-01-04 11:41:59:971,1.0494,-0.595,9.4154,-0.0067,0.0015,9.8066,-0.0289,-0.0073,0.0332,-32.69,-103.56,76.94,161.12,-11.36,-5.19
2438,48.88858,2.29281,92.98,15.78,32,243.54,Oct-13,243821,2020-01-04 11:42:00:071,0.9841,0.0192,8.8512,-0.0208,0.0002,9.8065,-0.0064,-0.0111,0.0287,-32.69,-103.37,76.5,160.87,-11.23,-5.33
2439,48.88858,2.29281,92.98,15.78,32,243.54,Oct-13,243920,2020-01-04 11:42:00:170,1.0044,-0.5278,9.3271,0.0031,0.0007,9.8066,-0.0001,0.0035,0.0141,-35.0,-103.75,77.63,160.04,-11.17,-5.48
2440,48.88858,2.29281,92.98,15.78,32,243.54,Oct-13,244022,2020-01-04 11:42:00:272,0.4809,-0.1717,9.7135,0.0024,0.0016,9.8066,0.0123,0.0096,0.0204,-36.19,-104.12,77.63,159.6,-11.16,-5.48
2441,48.88858,2.29281,92.98,15.78,32,243.54,Oct-13,244121,2020-01-04 11:42:00:371,1.0081,-0.4444,10.4863,0.0068,-0.0074,9.8066,0.0192,0.0027,0.0146,-36.06,-103.81,77.56,159.65,-11.25,-5.42
2442,48.88858,2.29281,92.98,15.78,32,243.54,Oct-13,244221,2020-01-04 11:42:00:471,0.9319,-0.4755,9.6276,-0.0007,-0.007,9.8066,0.0057,-0.0112,0.0221,-35.44,-104.0,77.38,160.14,-11.31,-5.36
2443,48.88858,2.29281,92.98,15.78,32,243.54,Oct-13,244320,2020-01-04 11:42:00:570,1.344,-0.8338,9.535,-0.004,0.0037,9.8065,-0.0015,-0.0178,0.0262,-33.12,-103.19,76.31,160.86,-11.35,-5.39
2444,48.88858,2.29281,92.98,15.78,32,243.54,Oct-13,244421,2020-01-04 11:42:00:671,0.771,-0.6592,9.376,0.0034,0.017,9.8066,-0.0271,0.0102,0.0223,-33.19,-102.75,76.31,160.81,-11.25,-5.45
2445,48.88858,2.29281,92.98,15.78,32,243.54,Oct-13,244521,2020-01-04 11:42:00:771,1.2228,-0.7768,8.8447,0.0048,0.0121,9.8066,-0.0115,0.0344,0.024,-33.06,-103.31,75.88,160.87,-11.03,-5.3
2446,48.88858,2.29281,92.98,15.78,32,243.54,Oct-13,244621,2020-01-04 11:42:00:871,0.9534,-0.0481,9.7648,0.0104,-0.0036,9.8066,0.0301,-0.0089,0.0331,-34.12,-103.37,76.81,160.49,-10.99,-5.17
2447,48.88858,2.29281,92.98,15.78,32,243.54,Oct-13,244721,2020-01-04 11:42:00:971,1.4541,-0.3162,9.3063,-0.0025,-0.0091,9.8066,0.0193,-0.0051,0.0425,-35.25,-103.69,77.63,160.22,-11.13,-5.16
2448,48.88858,2.29281,92.98,15.78,32,243.54,Oct-13,244821,2020-01-04 11:42:01:071,1.4325,-0.2721,10.4465,0.0007,0.0021,9.8066,-0.0175,0.0145,0.0417,-36.12,-104.06,77.88,159.77,-11.23,-5.21
2449,48.88858,2.29281,92.98,15.78,32,243.54,Oct-13,244921,2020-01-04 11:42:01:171,1.3007,-0.1379,10.2426,0.0006,0.0061,9.8066,-0.0036,0.0253,0.0474,-35.87,-103.87,77.63,159.77,-11.16,-5.19
2450,48.88858,2.29281,92.98,15.78,32,243.54,Oct-13,245020,2020-01-04 11:42:01:270,1.8705,-0.0431,9.3729,-0.0041,0.0069,9.8066,-0.0225,0.0081,0.0592,-34.81,-104.0,77.75,160.25,-11.12,-5.1
2451,48.88858,2.29281,92.98,15.78,32,243.54,Oct-13,245121,2020-01-04 11:42:01:371,1.367,-0.1983,9.3113,-0.0006,-0.0033,9.8066,0.0186,-0.0082,0.0584,-33.62,-103.56,76.75,160.68,-11.03,-5.12
2452,48.88858,2.29281,92.98,15.78,32,243.54,Oct-13,245220,2020-01-04 11:42:01:470,1.3586,-0.1328,10.0406,-0.0018,-0.0033,9.8066,0.0132,0.0035,0.0548,-34.19,-104.25,77.5,160.69,-11.1,-5.1
2453,48.88858,2.29281,92.98,15.78,32,243.54,Oct-13,245321,2020-01-04 11:42:01:571,1.4489,-0.3686,9.9887,-0.005,-0.0054,9.8066,0.0015,-0.0041,0.055,-33.56,-103.75,76.31,160.67,-11.16,-5.17
2454,48.88858,2.29281,92.98,15.78,32,243.54,Oct-13,245422,2020-01-04 11:42:01:672,1.0592,-0.1936,9.9776,-0.0084,0.0048,9.8066,-0.0206,0.0136,0.0397,-34.56,-104.12,77.13,160.19,-11.11,-5.22
2455,48.88858,2.29281,92.98,15.78,32,243.54,Nov-16,245521,2020-01-04 11:42:01:771,1.224,0.0225,9.518,0.0027,-0.0001,9.8066,0.0024,0.0081,0.0378,-35.19,-104.56,77.75,160.31,-11.0,-5.23
2456,48.88858,2.29281,92.98,15.78,32,243.54,Nov-16,245621,2020-01-04 11:42:01:871,1.1902,-0.3019,9.1232,0.0042,0.0086,9.8066,-0.0221,0.0267,0.0328,-35.5,-104.37,77.38,160.22,-10.92,-5.12
2457,48.88858,2.29281,92.98,15.78,32,243.54,Nov-16,245720,2020-01-04 11:42:01:970,1.2028,-0.5019,9.2842,0.0035,0.0045,9.8066,-0.009,0.0105,0.0363,-36.44,-104.62,77.44,159.96,-10.86,-5.08
2458,48.88858,2.29281,92.98,15.78,32,243.54,Nov-16,245820,2020-01-04 11:42:02:070,1.2003,-0.3469,9.7454,0.0034,0.0092,9.8066,0.0064,0.0084,0.0381,-36.0,-104.69,76.81,159.98,-10.8,-5.02
2459,48.88858,2.29281,92.98,15.78,32,243.54,Nov-16,245921,2020-01-04 11:42:02:171,1.0619,0.0594,9.2958,0.0034,-0.0093,9.8066,0.03,0.0236,0.0325,-36.25,-104.12,77.63,159.86,-10.83,-4.95
2460,48.88858,2.29281,92.98,15.78,32,243.54,Nov-16,246021,2020-01-04 11:42:02:271,1.1999,-0.0688,9.7629,-0.003,0.0101,9.8066,-0.0094,0.0014,0.0326,-34.75,-103.44,77.0,160.18,-10.82,-4.91
2461,48.88858,2.29281,92.98,15.78,32,243.54,Nov-16,246121,2020-01-04 11:42:02:371,1.0719,-0.2941,9.5266,-0.0034,0.004,9.8066,-0.0183,-0.0052,0.039,-34.75,-103.56,76.88,160.32,-10.76,-4.91
2462,48.88858,2.29281,92.98,15.78,32,243.54,Nov-16,246221,2020-01-04 11:42:02:471,0.8718,-0.1102,9.2841,0.0038,0.0048,9.8066,-0.0015,0.0238,0.0293,-34.31,-104.0,76.5,160.75,-10.65,-4.91
2463,48.88858,2.29281,92.98,15.78,32,243.54,Nov-16,246321,2020-01-04 11:42:02:571,1.156,-0.1475,10.041,0.0107,0.0023,9.8066,0.0086,0.0391,0.0208,-34.69,-103.56,76.25,160.39,-10.63,-4.77
2464,48.88858,2.29281,92.98,15.78,32,243.54,Nov-16,246421,2020-01-04 11:42:02:671,0.9968,0.3949,9.942,0.0132,0.0042,9.8066,0.0053,0.0297,0.0221,-35.06,-104.31,76.94,160.51,-10.65,-4.56
2465,48.88858,2.29281,92.98,15.78,32,243.54,15 / 20,246521,2020-01-04 11:42:02:771,0.9885,0.7268,10.7201,0.0063,-0.0072,9.8065,0.0225,0.0133,0.0287,-36.37,-103.81,77.25,160.14,-10.74,-4.46
2466,48.88858,2.29281,92.98,15.78,32,243.54,15 / 20,246620,2020-01-04 11:42:02:870,1.0242,-0.1421,9.5883,0.0031,0.0077,9.8065,-0.0163,0.0341,0.0246,-36.5,-103.94,76.0,160.2,-10.76,-4.37
2467,48.88858,2.29281,92.98,15.78,32,243.54,15 / 20,246721,2020-01-04 11:42:02:971,0.872,-0.0663,9.5509,-0.0016,0.0047,9.8066,-0.0079,0.0163,0.0385,-36.87,-106.06,76.94,160.08,-10.67,-4.34
2468,48.88858,2.29281,92.98,15.78,32,243.54,15 / 20,246820,2020-01-04 11:42:03:070,1.3173,0.0255,9.9752,0.0073,0.0122,9.8066,-0.0163,0.0137,0.0456,-36.06,-105.12,77.94,160.38,-10.59,-4.27
2469,48.88858,2.29281,92.98,15.78,32,243.54,15 / 20,246921,2020-01-04 11:42:03:171,1.3156,0.0434,8.8511,-0.0114,0.0062,9.8066,-0.0223,-0.0111,0.0508,-36.56,-104.81,78.19,160.0,-10.53,-4.17
2470,48.88858,2.29281,92.98,15.78,32,243.54,15 / 20,247021,2020-01-04 11:42:03:271,1.3882,1.1807,9.4948,0.0123,0.017,9.8066,-0.0088,-0.0021,0.048,-36.19,-104.94,78.5,160.42,-10.36,-4.14
2471,48.88858,2.29281,92.98,15.78,32,243.54,15 / 20,247121,2020-01-04 11:42:03:371,1.1149,0.3183,10.217,-0.0108,-0.0339,9.8066,0.0959,-0.0148,0.0409,-34.87,-104.5,78.19,160.67,-10.34,-4.21
2472,48.88858,2.29281,92.98,15.78,32,243.54,15 / 20,247221,2020-01-04 11:42:03:471,1.2105,-0.4014,10.3958,0.0138,0.0052,9.8066,-0.0865,-0.0395,0.0521,-34.75,-104.62,76.81,160.75,-10.64,-4.41
2473,48.88858,2.29281,92.98,15.78,32,243.54,15 / 20,247321,2020-01-04 11:42:03:571,0.9253,0.1051,9.1392,-0.0357,0.0139,9.8066,-0.0621,-0.0358,0.0359,-34.62,-104.62,76.63,160.62,-10.26,-4.54
2474,48.88858,2.29281,92.98,15.78,32,243.54,15 / 20,247421,2020-01-04 11:42:03:671,1.4011,0.2848,9.4041,-0.003,0.0006,9.8065,0.1102,-0.0099,0.0269,-35.12,-104.81,76.88,160.45,-9.96,-4.75
2475,48.88858,2.29281,92.98,15.78,32,243.54,16 / 18,247521,2020-01-04 11:42:03:771,1.5578,-0.0609,11.1609,-0.0016,-0.0278,9.8065,0.0707,-0.0021,0.0283,-35.56,-104.81,78.75,160.02,-10.32,-4.8
2476,48.88858,2.29281,92.98,15.78,32,243.54,16 / 18,247620,2020-01-04 11:42:03:870,0.9646,-0.3503,10.3805,-0.0034,-0.0195,9.8065,0.0027,-0.0046,0.0238,-36.56,-105.5,78.94,159.52,-10.63,-5.0
2477,48.88858,2.29281,92.98,15.78,32,243.54,16 / 18,247721,2020-01-04 11:42:03:971,0.8448,-0.0149,9.9991,-0.0077,0.0105,9.8066,-0.0314,-0.0009,0.0248,-35.94,-105.37,78.44,159.91,-10.76,-5.12
2478,48.88858,2.29281,92.98,15.78,32,243.54,16 / 18,247821,2020-01-04 11:42:04:071,0.8679,-0.1391,8.8867,-0.0048,0.0024,9.8066,-0.0262,-0.0111,0.0361,-36.75,-105.25,78.56,159.41,-10.61,-5.18
2479,48.88858,2.29281,92.98,15.78,32,243.54,16 / 18,247921,2020-01-04 11:42:04:171,0.9793,-0.014,8.6083,-0.0001,0.0105,9.8066,-0.0174,0.0038,0.0379,-36.37,-104.87,77.69,159.78,-10.45,-5.25
2480,48.88858,2.29281,92.98,15.78,32,243.54,16 / 18,248021,2020-01-04 11:42:04:271,1.3132,-0.1285,9.1832,-0.0028,0.0076,9.8066,-0.0161,0.0094,0.0402,-36.94,-104.81,78.44,159.35,-10.33,-5.23
2481,48.88858,2.29281,92.98,15.78,32,243.54,16 / 18,248120,2020-01-04 11:42:04:370,1.1421,0.0264,9.6119,0.0054,0.0028,9.8065,-0.0009,0.0229,0.0384,-36.12,-105.0,76.81,159.79,-10.24,-5.22
2482,48.88858,2.29281,92.98,15.78,32,243.54,16 / 18,248221,2020-01-04 11:42:04:471,1.0138,-0.6723,9.1895,0.0079,-0.0061,9.8065,0.0136,0.0057,0.0372,-35.5,-105.25,76.31,160.28,-10.28,-5.14
2483,48.88858,2.29281,92.98,15.78,32,243.54,16 / 18,248321,2020-01-04 11:42:04:571,1.4786,-0.189,10.4521,0.0105,0.0005,9.8066,0.0156,0.0364,0.0313,-36.12,-105.12,77.0,159.9,-10.37,-5.06
2484,48.88858,2.29281,92.98,15.78,32,243.54,16 / 18,248421,2020-01-04 11:42:04:671,1.418,-0.1928,10.469,0.0068,0.005,9.8066,0.0176,-0.0087,0.0421,-35.87,-105.5,76.5,160.0,-10.36,-4.87
2485,48.88858,2.29281,92.98,15.78,32,243.54,14 / 19,248522,2020-01-04 11:42:04:772,1.2354,-0.5143,10.0255,0.0087,0.0069,9.8066,-0.0028,0.0184,0.0433,-36.06,-106.12,77.25,160.2,-10.35,-4.8
2486,48.88858,2.29281,92.98,15.78,32,243.54,14 / 19,248621,2020-01-04 11:42:04:871,1.3708,-0.3419,9.7712,0.0022,0.0008,9.8066,0.0347,0.0245,0.0395,-35.56,-106.44,77.13,160.24,-10.34,-4.72
2487,48.88858,2.29281,92.98,15.78,32,243.54,14 / 19,248721,2020-01-04 11:42:04:971,1.1978,-0.6707,9.5744,-0.0003,-0.0054,9.8066,0.0177,-0.0086,0.0485,-36.62,-106.37,77.38,159.88,-10.43,-4.62
2488,48.88858,2.29281,92.98,15.78,32,243.54,14 / 19,248820,2020-01-04 11:42:05:070,1.6525,-0.7437,9.7112,-0.0017,0.0006,9.8066,-0.0088,0.0117,0.0446,-37.25,-107.12,77.06,160.0,-10.47,-4.69
2489,48.88858,2.29281,92.98,15.78,32,243.54,14 / 19,248921,2020-01-04 11:42:05:171,1.4099,-0.8175,10.0926,-0.0021,0.0011,9.8066,-0.0094,0.0089,0.0432,-36.94,-106.5,78.19,159.85,-10.49,-4.68
2490,48.88858,2.29281,92.98,15.78,32,243.54,14 / 19,249021,2020-01-04 11:42:05:271,1.4078,-0.4406,10.0933,0.0039,-0.0029,9.8066,0.0207,-0.0069,0.0446,-36.75,-106.81,78.44,160.01,-10.46,-4.66
2491,48.88858,2.29281,92.98,15.78,32,243.54,14 / 19,249121,2020-01-04 11:42:05:371,1.4778,-1.0004,9.3639,-0.0061,-0.0072,9.8066,0.0198,-0.0122,0.0491,-37.0,-106.94,78.06,159.98,-10.51,-4.72
2492,48.88858,2.29281,92.98,15.78,32,243.54,14 / 19,249221,2020-01-04 11:42:05:471,1.0233,-0.5624,8.9472,0.0089,0.0057,9.8066,-0.0307,0.0205,0.0398,-36.19,-106.75,77.81,160.4,-10.54,-4.75
2493,48.88858,2.29281,92.98,15.78,32,243.54,14 / 19,249320,2020-01-04 11:42:05:570,1.4567,-0.0457,9.8964,0.0114,-0.0003,9.8066,0.0081,0.0353,0.04,-36.81,-106.44,78.13,159.89,-10.46,-4.61
2494,48.88858,2.29281,92.98,15.78,32,243.54,14 / 19,249421,2020-01-04 11:42:05:671,1.0952,-0.2558,9.9353,0.0065,0.0023,9.8066,-0.005,0.0235,0.0396,-36.12,-106.31,77.06,160.41,-10.54,-4.48
2495,48.88858,2.29281,92.98,15.78,32,243.54,16 / 19,249521,2020-01-04 11:42:05:771,1.2234,-0.3137,8.6903,-0.0017,-0.0064,9.8066,-0.0082,0.0358,0.0289,-36.81,-106.56,77.88,160.19,-10.59,-4.38
2496,48.88858,2.29281,92.98,15.78,32,243.54,16 / 19,249620,2020-01-04 11:42:05:870,1.003,0.2361,10.4621,0.0118,-0.0002,9.8066,-0.0171,0.0211,0.0291,-36.31,-105.87,75.75,160.56,-10.46,-4.21
2497,48.88858,2.29281,92.98,15.78,32,243.54,16 / 19,249721,2020-01-04 11:42:05:971,0.8911,-0.2553,10.9118,-0.0094,0.0125,9.8066,-0.0177,-0.013,0.0376,-36.44,-107.75,75.31,160.9,-10.43,-4.12
2498,48.88858,2.29281,92.98,15.78,32,243.54,16 / 19,249821,2020-01-04 11:42:06:071,1.0541,-0.5883,9.4947,-0.0057,-0.0113,9.8066,0.0224,-0.0099,0.0296,-35.62,-107.12,77.13,160.71,-10.26,-4.14
2499,48.88858,2.29281,92.98,15.78,32,243.54,16 / 19,249921,2020-01-04 11:42:06:171,1.0903,0.0683,9.947,-0.0015,-0.0151,9.8066,0.0468,-0.0197,0.0307,-36.37,-107.44,76.81,160.66,-10.44,-4.27
2500,48.88858,2.29281,92.98,15.78,32,243.54,16 / 19,250020,2020-01-04 11:42:06:270,0.6145,-0.0642,10.4692,0.004,-0.0098,9.8066,0.0144,0.027,0.022,-35.87,-106.56,76.94,160.66,-10.6,-4.33
2501,48.88858,2.29281,92.98,15.78,32,243.54,16 / 19,250121,2020-01-04 11:42:06:371,0.9787,-0.4989,9.6059,0.0,-0.0048,9.8066,0.0124,-0.0074,0.0185,-36.25,-107.69,76.25,160.83,-10.69,-4.3
2502,48.88858,2.29281,92.98,15.78,32,243.54,16 / 19,250221,2020-01-04 11:42:06:471,1.0284,-0.6872,9.0855,-0.008,0.0065,9.8066,-0.0214,-0.0049,0.0157,-35.75,-107.37,77.0,160.68,-10.72,-4.31
2503,48.88858,2.29281,92.98,15.78,32,243.54,16 / 19,250321,2020-01-04 11:42:06:571,0.6397,0.031,9.7663,-0.0019,0.009,9.8065,-0.0258,0.0248,0.0127,-36.75,-107.62,78.31,160.37,-10.62,-4.34
2504,48.88858,2.29281,92.98,15.78,32,243.54,16 / 19,250421,2020-01-04 11:42:06:671,0.8201,0.0726,9.524,0.0005,0.0003,9.8066,-0.0019,0.0027,0.0121,-37.0,-107.31,77.88,160.2,-10.47,-4.33
2505,48.88858,2.29281,92.98,15.78,32,243.54,13 / 18,250521,2020-01-04 11:42:06:771,0.2936,-0.0239,10.2124,0.0112,-0.0057,9.8066,0.0315,0.021,0.0072,-36.37,-106.69,78.06,160.66,-10.46,-4.28
2506,48.88858,2.29281,92.98,15.78,32,243.54,13 / 18,250621,2020-01-04 11:42:06:871,0.6475,-0.5342,9.8899,0.0074,-0.0034,9.8066,0.0173,-0.0036,0.0118,-36.37,-107.12,76.63,160.77,-10.6,-4.13
2507,48.88858,2.29281,92.98,15.78,32,243.54,13 / 18,250722,2020-01-04 11:42:06:972,0.3542,0.1569,10.4337,0.0082,0.0013,9.8066,-0.0136,0.0147,0.009,-36.0,-106.75,77.88,160.82,-10.64,-4.05
2508,48.88858,2.29281,92.98,15.78,32,243.54,13 / 18,250823,2020-01-04 11:42:07:073,1.2936,-0.4495,9.1866,-0.0002,0.004,9.8066,-0.0235,0.0039,0.0135,-35.31,-106.56,77.31,161.32,-10.63,-3.94
2509,48.88858,2.29281,92.98,15.78,32,243.54,13 / 18,250921,2020-01-04 11:42:07:171,0.8912,-0.1727,9.9391,0.0097,-0.0032,9.8066,0.0095,-0.0071,0.0175,-35.87,-106.94,77.44,160.93,-10.63,-3.87
2510,48.88858,2.29281,92.98,15.78,32,243.54,13 / 18,251021,2020-01-04 11:42:07:271,0.5974,0.3514,10.4838,0.0014,-0.0068,9.8066,0.0139,-0.0119,0.0226,-35.5,-106.25,76.94,161.18,-10.7,-3.93
2511,48.88858,2.29281,92.98,15.78,32,243.54,13 / 18,251121,2020-01-04 11:42:07:371,0.7113,0.0199,9.7821,0.0054,0.0052,9.8065,-0.0249,0.0218,0.0211,-35.87,-107.31,77.5,160.9,-10.77,-3.95
2512,48.88858,2.29281,92.98,15.78,32,243.54,13 / 18,251220,2020-01-04 11:42:07:470,0.6161,-0.1054,10.0074,-0.0031,0.0113,9.8066,-0.0185,0.0075,0.0214,-36.19,-108.06,77.44,161.1,-10.65,-3.82
2513,48.88858,2.29281,92.98,15.78,32,243.54,13 / 18,251320,2020-01-04 11:42:07:570,0.9311,0.1493,9.9489,0.0094,0.0043,9.8065,-0.0014,-0.0046,0.0227,-36.06,-108.0,77.88,161.13,-10.54,-3.74
2514,48.88858,2.29281,92.98,15.78,32,243.54,13 / 18,251421,2020-01-04 11:42:07:671,0.7842,-0.2849,9.5268,0.0092,0.0003,9.8066,0.0219,0.0196,0.0154,-35.31,-107.44,77.69,161.46,-10.55,-3.68
2515,48.88772,2.2911,79.18,19.1,8,226.62,Nov-14,251521,2020-01-04 11:42:07:771,0.3725,0.4991,9.8867,0.0069,-0.0055,9.8066,0.015,0.0193,0.0122,-35.94,-107.56,78.56,161.27,-10.69,-3.54
2516,48.88772,2.2911,79.18,19.1,8,226.62,Nov-14,251621,2020-01-04 11:42:07:871,0.746,-0.364,9.8357,0.0065,0.0005,9.8066,0.0091,0.0144,0.0032,-35.94,-108.0,77.69,161.29,-10.75,-3.51
2517,48.88772,2.2911,79.18,19.1,8,226.62,Nov-14,251721,2020-01-04 11:42:07:971,0.2339,0.1617,9.6567,0.0052,-0.0004,9.8066,-0.0097,0.017,-0.0014,-35.25,-107.69,76.56,161.76,-10.77,-3.45
2518,48.88772,2.2911,79.18,19.1,8,226.62,Nov-14,251822,2020-01-04 11:42:08:072,0.7842,0.2457,9.6406,0.0036,0.0023,9.8066,0.0032,-0.0191,-0.0005,-36.0,-107.31,78.0,161.27,-10.76,-3.31
2519,48.88772,2.2911,79.18,19.1,8,226.62,Nov-14,251920,2020-01-04 11:42:08:170,0.0692,0.1943,9.9831,0.0089,-0.0058,9.8065,0.0195,0.0157,0.0016,-35.19,-107.12,77.38,161.76,-10.83,-3.23
2520,48.88772,2.2911,79.18,19.1,8,226.62,Nov-14,252021,2020-01-04 11:42:08:271,-0.1129,0.3294,10.4113,0.0112,-0.0015,9.8066,0.0066,0.0149,-0.003,-35.69,-107.12,76.88,161.4,-10.92,-3.12
2521,48.88772,2.2911,79.18,19.1,8,226.62,Nov-14,252120,2020-01-04 11:42:08:370,0.3234,0.2842,9.2338,0.0046,0.0011,9.8066,-0.0074,0.0153,0.0093,-35.69,-107.31,77.19,161.49,-10.98,-2.99
2522,48.88772,2.2911,79.18,19.1,8,226.62,Nov-14,252221,2020-01-04 11:42:08:471,-0.029,0.7339,9.8541,0.005,0.0117,9.8066,-0.0221,0.0339,-0.0031,-35.12,-107.06,76.63,161.99,-10.96,-2.87
2523,48.88772,2.2911,79.18,19.1,8,226.62,Nov-14,252322,2020-01-04 11:42:08:572,0.2,0.6123,9.5246,0.0049,0.0007,9.8066,0.0046,-0.0105,0.0011,-35.19,-107.56,75.94,162.19,-10.88,-2.72
2524,48.88772,2.2911,79.18,19.1,8,226.62,Nov-14,252420,2020-01-04 11:42:08:670,0.1819,0.4925,9.4101,0.0065,0.0006,9.8066,0.0206,-0.0046,0.0002,-35.62,-106.62,77.0,161.65,-10.86,-2.67
2525,48.88772,2.2911,79.18,19.1,8,226.62,14 / 19,252520,2020-01-04 11:42:08:770,0.003,0.6502,9.9679,0.0034,-0.0013,9.8066,-0.0111,0.0411,-0.0038,-35.56,-106.75,76.19,161.69,-10.94,-2.61
2526,48.88772,2.2911,79.18,19.1,8,226.62,14 / 19,252621,2020-01-04 11:42:08:871,0.2188,0.7433,10.3199,0.0057,0.0042,9.8066,-0.0163,0.0059,0.0073,-35.87,-107.06,76.56,161.79,-10.92,-2.45
2527,48.88772,2.2911,79.18,19.1,8,226.62,14 / 19,252721,2020-01-04 11:42:08:971,0.0675,1.1699,10.19,0.0072,-0.0036,9.8066,0.03,0.0211,0.003,-35.37,-107.12,76.56,162.29,-10.91,-2.33
2528,48.88772,2.2911,79.18,19.1,8,226.62,14 / 19,252821,2020-01-04 11:42:09:071,0.0764,0.0335,9.6106,0.0049,-0.0041,9.8065,0.0124,0.0162,-0.0008,-35.31,-107.5,76.69,162.37,-10.97,-2.22
2529,48.88772,2.2911,79.18,19.1,8,226.62,14 / 19,252920,2020-01-04 11:42:09:170,0.5379,-0.0315,10.2048,0.011,0.0051,9.8065,-0.0092,-0.0017,0.0075,-35.94,-108.06,77.63,162.12,-11.03,-2.17
2530,48.88772,2.2911,79.18,19.1,8,226.62,14 / 19,253021,2020-01-04 11:42:09:271,0.2789,0.3576,10.1243,0.0094,0.0047,9.8066,0.0014,0.0223,0.0046,-35.87,-108.19,76.69,162.17,-11.02,-2.06
2531,48.88772,2.2911,79.18,19.1,8,226.62,14 / 19,253120,2020-01-04 11:42:09:370,0.1284,0.2299,10.0177,0.0048,-0.0018,9.8066,-0.0031,0.0078,-0.0027,-35.69,-107.75,77.69,162.25,-11.06,-1.95
2532,48.88772,2.2911,79.18,19.1,8,226.62,14 / 19,253221,2020-01-04 11:42:09:471,0.1253,0.1362,9.864,0.0114,0.0059,9.8066,-0.0107,0.0125,0.0003,-35.25,-107.81,78.25,162.74,-11.0,-1.84
2533,48.88772,2.2911,79.18,19.1,8,226.62,14 / 19,253320,2020-01-04 11:42:09:570,0.1139,0.6289,10.2573,0.0062,0.004,9.8066,0.0029,0.0124,0.0026,-35.87,-108.0,78.56,162.41,-10.96,-1.69
2534,48.88772,2.2911,79.18,19.1,8,226.62,14 / 19,253421,2020-01-04 11:42:09:671,-0.0126,-0.1616,9.689,0.012,-0.005,9.8066,0.012,0.0172,-0.0015,-35.81,-107.75,79.19,162.47,-11.0,-1.6
2535,48.88772,2.2911,79.18,19.1,8,226.62,Nov-16,253521,2020-01-04 11:42:09:771,-0.0275,-0.3236,10.2524,0.0082,0.0047,9.8066,-0.0101,0.0178,0.0058,-35.87,-107.31,78.5,162.4,-11.07,-1.51
2536,48.88772,2.2911,79.18,19.1,8,226.62,Nov-16,253621,2020-01-04 11:42:09:871,0.2625,0.2065,10.1427,-0.003,-0.0094,9.8066,0.0146,-0.0064,0.0032,-35.06,-106.81,79.0,162.88,-11.06,-1.43
2537,48.88772,2.2911,79.18,19.1,8,226.62,Nov-16,253721,2020-01-04 11:42:09:971,0.1648,0.0639,9.9073,0.004,-0.0061,9.8066,0.02,0.0083,0.0051,-34.87,-106.81,77.56,162.86,-11.19,-1.47
2538,48.88772,2.2911,79.18,19.1,8,226.62,Nov-16,253821,2020-01-04 11:42:10:071,-0.0889,-0.3182,9.6385,0.0051,-0.0056,9.8066,0.0032,0.0113,-0.0029,-35.06,-106.37,76.88,162.74,-11.29,-1.44
2539,48.88772,2.2911,79.18,19.1,8,226.62,Nov-16,253921,2020-01-04 11:42:10:171,0.0229,-0.0264,10.1689,0.0016,0.0005,9.8066,-0.0055,-0.0057,0.001,-35.44,-107.0,77.88,162.92,-11.34,-1.39
2540,48.88772,2.2911,79.18,19.1,8,226.62,Nov-16,254021,2020-01-04 11:42:10:271,0.3345,-0.0836,9.8571,0.0028,0.0037,9.8066,0.0016,-0.0026,-0.0012,-35.12,-108.5,77.31,163.08,-11.33,-1.32
2541,48.88772,2.2911,79.18,19.1,8,226.62,Nov-16,254121,2020-01-04 11:42:10:371,0.0094,-0.0558,9.8687,0.001,-0.0017,9.8066,-0.0057,-0.0039,0.0017,-35.56,-108.44,77.88,162.68,-11.3,-1.29
2542,48.88772,2.2911,79.18,19.1,8,226.62,Nov-16,254220,2020-01-04 11:42:10:470,0.1024,-0.0512,10.2055,-0.002,-0.0089,9.8066,0.0103,-0.0165,0.0006,-35.25,-107.81,77.63,163.16,-11.38,-1.23
2543,48.88772,2.2911,79.18,19.1,8,226.62,Nov-16,254321,2020-01-04 11:42:10:571,0.0304,-0.1354,9.7391,0.0069,0.0009,9.8066,-0.0061,0.013,-0.0016,-35.44,-107.81,77.75,163.17,-11.44,-1.22
2544,48.88772,2.2911,79.18,19.1,8,226.62,Nov-16,254421,2020-01-04 11:42:10:671,0.1268,-0.1042,9.934,-0.0023,-0.0013,9.8066,-0.0139,0.0035,-0.0055,-36.06,-108.25,79.38,162.8,-11.4,-1.14
2545,48.88772,2.2911,79.18,19.1,8,226.62,Dec-17,254520,2020-01-04 11:42:10:770,-0.3986,-0.482,9.8491,0.0102,0.0179,9.8066,-0.033,0.0212,-0.011,-36.19,-108.31,78.75,162.85,-11.29,-1.03
2546,48.88772,2.2911,79.18,19.1,8,226.62,Dec-17,254621,2020-01-04 11:42:10:871,-0.0946,-0.0513,9.6611,0.0023,0.0007,9.8066,0.0031,0.0051,-0.0128,-36.12,-108.25,79.75,162.92,-11.2,-0.93
2547,48.88772,2.2911,79.18,19.1,8,226.62,Dec-17,254721,2020-01-04 11:42:10:971,-0.1357,-0.1778,9.5712,0.0051,0.0038,9.8066,-0.0023,0.0238,-0.0129,-35.37,-107.87,79.31,163.35,-11.2,-0.9
2548,48.88772,2.2911,79.18,19.1,8,226.62,Dec-17,254821,2020-01-04 11:42:11:071,-0.1379,-0.2059,9.5507,0.0063,0.0042,9.8066,-0.0159,0.0268,-0.0179,-35.37,-107.81,79.31,163.42,-11.18,-0.79
2549,48.88772,2.2911,79.18,19.1,8,226.62,Dec-17,254920,2020-01-04 11:42:11:170,0.0685,0.0868,10.1086,0.0069,0.0062,9.8066,-0.0037,0.0215,-0.0134,-35.19,-107.5,79.13,163.38,-11.1,-0.63
2550,48.88772,2.2911,79.18,19.1,8,226.62,Dec-17,255021,2020-01-04 11:42:11:271,-0.0458,-0.164,10.3482,0.0062,0.0033,9.8065,-0.0025,0.0177,-0.0087,-34.87,-107.06,78.5,163.43,-11.11,-0.55
2551,48.88772,2.2911,79.18,19.1,8,226.62,Dec-17,255120,2020-01-04 11:42:11:370,-0.3539,-0.4725,9.6537,0.007,0.0058,9.8066,-0.0068,0.0178,-0.011,-34.75,-107.12,78.81,163.51,-11.07,-0.41
2552,48.88772,2.2911,79.18,19.1,8,226.62,Dec-17,255221,2020-01-04 11:42:11:471,-0.3475,0.1325,10.5417,0.0039,0.0013,9.8066,0.0038,0.009,-0.012,-35.12,-107.19,78.44,163.52,-11.06,-0.35
2553,48.88772,2.2911,79.18,19.1,8,226.62,Dec-17,255321,2020-01-04 11:42:11:571,-0.1766,-0.3664,9.6744,-0.0007,-0.0002,9.8066,0.0076,0.0021,-0.0087,-35.25,-107.5,77.81,163.56,-11.08,-0.29
2554,48.88772,2.2911,79.18,19.1,8,226.62,Dec-17,255421,2020-01-04 11:42:11:671,0.019,0.0108,9.7728,0.0043,0.0022,9.8065,0.0014,0.0218,-0.0104,-35.12,-106.94,78.13,163.57,-11.06,-0.26
2555,48.88772,2.2911,79.18,19.1,8,226.62,13 / 17,255520,2020-01-04 11:42:11:770,0.0203,-0.0263,9.9215,0.0081,-0.0024,9.8066,0.012,0.0167,-0.0031,-35.56,-107.75,78.63,163.38,-11.09,-0.13
2556,48.88772,2.2911,79.18,19.1,8,226.62,13 / 17,255621,2020-01-04 11:42:11:871,-0.5089,0.1398,10.1665,0.0033,0.0035,9.8065,0.0131,-0.0028,0.0041,-35.31,-107.37,80.13,163.77,-11.11,-0.03
2557,48.88772,2.2911,79.18,19.1,8,226.62,13 / 17,255721,2020-01-04 11:42:11:971,0.2692,0.3245,9.544,0.0015,-0.0026,9.8066,0.0032,0.0053,0.0011,-36.12,-107.87,79.0,163.46,-11.15,-0.01
2558,48.88772,2.2911,79.18,19.1,8,226.62,13 / 17,255820,2020-01-04 11:42:12:070,0.242,-0.4517,10.4638,0.0143,-0.0077,9.8065,0.0111,0.0103,-0.0013,-34.94,-108.37,80.56,163.96,-11.19,0.02
2559,48.88772,2.2911,79.18,19.1,8,226.62,13 / 17,255921,2020-01-04 11:42:12:171,0.1726,-0.0345,9.7975,0.0025,-0.008,9.8066,0.026,-0.0082,-0.001,-34.5,-108.0,81.31,164.48,-11.29,0.12
2560,48.88772,2.2911,79.18,19.1,8,226.62,13 / 17,256021,2020-01-04 11:42:12:271,0.3333,-0.5446,10.4361,0.0012,0.0005,9.8066,-0.0106,-0.0104,0.0014,-34.37,-108.12,80.63,164.47,-11.36,0.1
2561,48.88772,2.2911,79.18,19.1,8,226.62,13 / 17,256121,2020-01-04 11:42:12:371,0.2573,-0.5199,9.6474,-0.007,-0.0047,9.8066,-0.0006,-0.0066,0.0033,-34.12,-107.69,81.13,164.42,-11.35,0.02
2562,48.88772,2.2911,79.18,19.1,8,226.62,13 / 17,256221,2020-01-04 11:42:12:471,-0.0035,-0.121,10.4939,0.0072,-0.0056,9.8065,0.033,0.0137,-0.0031,-34.87,-107.62,80.06,163.99,-11.38,0.06
2563,48.88772,2.2911,79.18,19.1,8,226.62,13 / 17,256322,2020-01-04 11:42:12:572,-0.6355,-0.5786,10.6286,0.0046,-0.0046,9.8066,0.0289,-0.022,0.0069,-34.25,-107.0,81.25,164.4,-11.53,0.14
2564,48.88772,2.2911,79.18,19.1,8,226.62,13 / 17,256421,2020-01-04 11:42:12:671,0.2215,-0.4544,9.7788,0.0007,-0.0061,9.8066,-0.0135,0.0432,-0.0057,-34.25,-107.0,80.0,164.36,-11.64,0.1
2565,48.88772,2.2911,79.18,19.1,8,226.62,Nov-16,256521,2020-01-04 11:42:12:771,0.1465,-0.8422,9.4492,0.0144,0.0071,9.8066,-0.012,0.017,0.0,-34.12,-106.81,80.06,164.43,-11.65,0.21
2566,48.88772,2.2911,79.18,19.1,8,226.62,Nov-16,256622,2020-01-04 11:42:12:872,0.1431,-0.7146,9.284,0.0033,-0.0075,9.8066,0.0078,0.0197,-0.0071,-34.62,-106.25,80.0,163.96,-11.64,0.36
2567,48.88772,2.2911,79.18,19.1,8,226.62,Nov-16,256721,2020-01-04 11:42:12:971,0.1149,-0.8259,9.4102,0.0044,0.0118,9.8066,-0.0084,-0.0209,0.0042,-34.56,-106.94,79.38,164.12,-11.61,0.47
2568,48.88772,2.2911,79.18,19.1,8,226.62,Nov-16,256821,2020-01-04 11:42:13:071,0.311,-0.356,9.6422,-0.0059,-0.0063,9.8066,-0.0013,-0.0205,0.0068,-34.19,-107.87,79.56,164.66,-11.67,0.39
2569,48.88772,2.2911,79.18,19.1,8,226.62,Nov-16,256921,2020-01-04 11:42:13:171,0.254,-0.3065,9.4332,0.0004,-0.0092,9.8066,0.0215,-0.0299,0.0092,-34.19,-107.75,79.56,164.62,-11.73,0.3
2570,48.88772,2.2911,79.18,19.1,8,226.62,Nov-16,257021,2020-01-04 11:42:13:271,0.7042,0.1151,8.946,-0.0063,-0.0015,9.8065,0.0079,-0.0095,0.0037,-34.06,-107.81,80.0,164.58,-11.77,0.23
2571,48.88772,2.2911,79.18,19.1,8,226.62,Nov-16,257121,2020-01-04 11:42:13:371,0.3346,0.0585,9.524,-0.0019,-0.0022,9.8066,-0.0058,-0.0273,0.0032,-33.94,-108.56,80.38,164.66,-11.8,0.17
2572,48.88772,2.2911,79.18,19.1,8,226.62,Nov-16,257221,2020-01-04 11:42:13:471,0.1671,0.7264,9.7241,-0.0013,0.0011,9.8065,-0.0032,-0.0303,0.0086,-35.31,-107.81,79.44,164.04,-11.82,0.11
2573,48.88772,2.2911,79.18,19.1,8,226.62,Nov-16,257320,2020-01-04 11:42:13:570,0.3453,0.0263,9.8196,-0.0039,-0.0018,9.8066,-0.0014,-0.012,0.0079,-34.75,-107.0,79.88,163.9,-11.81,0.03
2574,48.88772,2.2911,79.18,19.1,8,226.62,Nov-16,257421,2020-01-04 11:42:13:671,-0.2572,-0.513,9.4611,-0.0009,-0.0073,9.8066,0.0169,0.0271,-0.0107,-34.0,-105.31,78.94,164.03,-11.86,-0.03
2575,48.88772,2.2911,79.18,19.1,8,226.62,Dec-14,257521,2020-01-04 11:42:13:771,-0.2835,0.0874,10.2321,0.0037,-0.0024,9.8066,0.0128,0.0139,0.0003,-34.25,-104.62,80.44,164.11,-11.9,0.04
2576,48.88772,2.2911,79.18,19.1,8,226.62,Dec-14,257620,2020-01-04 11:42:13:870,-0.0035,-0.078,10.1916,0.0074,-0.0025,9.8066,0.0244,0.0023,-0.004,-34.19,-104.19,80.19,164.03,-11.98,0.09
2577,48.88772,2.2911,79.18,19.1,8,226.62,Dec-14,257721,2020-01-04 11:42:13:971,0.1023,-0.2751,9.4572,0.0008,0.0031,9.8066,-0.006,0.0057,0.0037,-34.56,-103.12,80.63,163.5,-12.11,0.09
2578,48.88772,2.2911,79.18,19.1,8,226.62,Dec-14,257821,2020-01-04 11:42:14:071,0.042,-0.6188,9.5619,0.0053,0.0011,9.8066,-0.0088,0.0408,0.0008,-34.0,-104.12,81.75,164.13,-12.09,0.15
2579,48.88772,2.2911,79.18,19.1,8,226.62,Dec-14,257921,2020-01-04 11:42:14:171,0.1564,0.1546,9.2947,-0.0045,0.0096,9.8066,-0.0239,-0.0034,0.0069,-34.06,-104.19,81.0,164.12,-12.0,0.19
2580,48.88772,2.2911,79.18,19.1,8,226.62,Dec-14,258021,2020-01-04 11:42:14:271,-0.2208,0.1149,9.869,-0.003,-0.0087,9.8066,0.0132,0.0015,0.0009,-34.25,-104.87,81.44,164.21,-11.93,0.15
2581,48.88772,2.2911,79.18,19.1,8,226.62,Dec-14,258120,2020-01-04 11:42:14:370,0.0959,-0.0296,9.8308,-0.0005,-0.0081,9.8066,0.041,-0.0125,-0.0023,-34.37,-104.87,82.13,164.2,-12.04,0.07
2582,48.88772,2.2911,79.18,19.1,8,226.62,Dec-14,258220,2020-01-04 11:42:14:470,0.0811,-0.3964,9.7448,-0.0047,-0.0047,9.8066,0.0098,-0.0174,0.0043,-34.69,-105.62,82.06,163.86,-12.18,0.0
2583,48.88772,2.2911,79.18,19.1,8,226.62,Dec-14,258320,2020-01-04 11:42:14:570,0.4912,-0.3082,10.7262,0.0057,-0.0045,9.8066,0.0147,0.0068,-0.0003,-34.19,-106.25,83.19,164.34,-12.18,0.02
2584,48.88772,2.2911,79.18,19.1,8,226.62,0 / 12,258421,2020-01-04 11:42:14:671,0.0874,0.4525,10.2218,-0.0001,-0.0079,9.8066,0.0254,-0.0028,0.0011,-33.81,-106.56,82.56,164.48,-12.3,0.04
2585,48.88772,2.2911,79.18,19.1,8,226.62,0 / 12,258521,2020-01-04 11:42:14:771,0.3026,-0.2366,10.017,-0.0042,0.004,9.8066,-0.0111,0.0078,-0.0014,-33.62,-107.31,83.81,164.5,-12.33,0.02
2586,48.88772,2.2911,79.18,19.1,8,226.62,0 / 12,258620,2020-01-04 11:42:14:870,0.342,-0.1345,9.719,0.0023,0.0105,9.8066,-0.0125,0.0216,-0.0026,-32.69,-107.56,84.94,165.08,-12.26,0.04
2587,48.88772,2.2911,79.18,19.1,8,226.62,0 / 12,258721,2020-01-04 11:42:14:971,0.1872,0.1404,9.8634,-0.002,0.0014,9.8066,-0.0156,-0.0075,0.0015,-32.62,-107.81,83.88,165.09,-12.19,0.11
2588,48.88772,2.2911,79.18,19.1,8,226.62,0 / 12,258820,2020-01-04 11:42:15:070,0.1032,-0.3379,9.4512,0.0131,0.0079,9.8066,-0.0257,0.032,-0.004,-31.81,-107.56,84.44,165.56,-12.14,0.18
2589,48.88772,2.2911,79.18,19.1,8,226.62,0 / 12,258921,2020-01-04 11:42:15:171,-0.0153,0.0951,9.7919,-0.0018,-0.0123,9.8066,0.0166,-0.002,-0.0041,-31.19,-107.62,83.75,166.06,-12.12,0.27
2590,48.88772,2.2911,79.18,19.1,8,226.62,0 / 12,259021,2020-01-04 11:42:15:271,-0.0334,-0.3992,9.9623,0.0013,0.0019,9.8066,-0.0063,-0.0008,-0.0027,-30.81,-107.56,84.06,166.06,-12.21,0.25
2591,48.88772,2.2911,79.18,19.1,8,226.62,0 / 12,259121,2020-01-04 11:42:15:371,0.0053,0.1729,9.4792,-0.004,0.0041,9.8066,-0.0062,-0.014,-0.0018,-31.81,-106.75,82.75,165.44,-12.18,0.19
2592,48.88772,2.2911,79.18,19.1,8,226.62,0 / 12,259221,2020-01-04 11:42:15:471,0.0092,-0.0443,9.5535,-0.0015,-0.0059,9.8066,0.0117,-0.0074,0.0025,-31.75,-107.5,81.81,165.39,-12.16,0.15
2593,48.88772,2.2911,79.18,19.1,8,226.62,0 / 12,259321,2020-01-04 11:42:15:571,0.0079,0.0789,9.4639,-0.0034,-0.0019,9.8066,0.0039,0.0132,-0.0011,-32.75,-106.94,82.81,164.93,-12.21,0.08
2594,48.88772,2.2911,79.18,19.1,8,226.62,0 / 12,259428,2020-01-04 11:42:15:678,0.4965,0.0134,9.8865,-0.0015,-0.0037,9.8066,0.002,-0.0026,0.001,-33.44,-108.19,83.69,165.08,-12.23,0.09
2595,48.88772,2.2911,79.18,19.1,8,226.62,0 / 13,259521,2020-01-04 11:42:15:771,0.1263,-0.1714,9.9993,-0.0019,0.0052,9.8066,-0.0141,0.005,-0.0027,-33.37,-108.0,83.25,165.04,-12.26,0.06
2596,48.88772,2.2911,79.18,19.1,8,226.62,0 / 13,259621,2020-01-04 11:42:15:871,0.1516,-0.1559,9.7678,0.0024,-0.0005,9.8066,0.0067,-0.0067,0.004,-33.5,-107.12,82.56,164.94,-12.21,0.09
2597,48.88772,2.2911,79.18,19.1,8,226.62,0 / 13,259721,2020-01-04 11:42:15:971,0.19,-0.2083,9.6844,-0.0123,-0.0002,9.8066,-0.011,-0.017,0.0029,-34.37,-107.19,83.94,164.51,-12.26,0.05
2598,48.88772,2.2911,79.18,19.1,8,226.62,0 / 13,259821,2020-01-04 11:42:16:071,0.385,0.2362,9.8695,-0.0043,0.0064,9.8066,-0.0126,0.0143,-0.0029,-34.62,-107.87,85.94,164.15,-12.17,-0.08
2599,48.88772,2.2911,79.18,19.1,8,226.62,0 / 13,259920,2020-01-04 11:42:16:170,0.172,0.0948,10.1136,-0.0034,0.0016,9.8066,-0.0097,0.0045,-0.0039,-35.44,-106.81,86.44,164.04,-12.13,-0.06
2600,48.88772,2.2911,79.18,19.1,8,226.62,0 / 13,260021,2020-01-04 11:42:16:271,0.1035,0.2204,9.7248,0.0044,0.0006,9.8065,-0.0037,-0.0012,-0.0036,-34.06,-102.56,81.63,163.88,-12.1,-0.05
2601,48.88772,2.2911,79.18,19.1,8,226.62,0 / 13,260121,2020-01-04 11:42:16:371,-0.1851,0.1869,9.7599,0.0007,-0.0022,9.8066,-0.0054,0.0003,-0.0053,-30.75,-103.81,78.44,165.26,-12.08,-0.03
2602,48.88772,2.2911,79.18,19.1,8,226.62,0 / 13,260220,2020-01-04 11:42:16:470,-0.06,-0.0402,10.2473,-0.0046,0.0011,9.8066,-0.0156,-0.0205,-0.0002,-31.06,-109.94,74.56,165.87,-12.08,-0.02
2603,48.88772,2.2911,79.18,19.1,8,226.62,0 / 13,260321,2020-01-04 11:42:16:571,0.1976,0.083,9.4449,0.0038,0.0048,9.8066,-0.0043,0.014,-0.0019,-28.75,-108.69,84.75,166.79,-12.01,-0.12
2604,48.88772,2.2911,79.18,19.1,8,226.62,0 / 7,260421,2020-01-04 11:42:16:671,0.1647,0.3188,9.9921,-0.0017,-0.0091,9.8066,0.0118,-0.006,-0.0001,-29.12,-102.75,79.81,166.05,-12.05,-0.11
2605,48.88772,2.2911,79.18,19.1,8,226.62,0 / 7,260521,2020-01-04 11:42:16:771,-0.2143,0.3266,9.8663,-0.0007,0.005,9.8066,-0.0017,0.0082,-0.0036,-29.94,-109.31,76.31,166.17,-12.04,-0.11
2606,48.88772,2.2911,79.18,19.1,8,226.62,0 / 7,260620,2020-01-04 11:42:16:870,-0.3365,0.2594,10.673,-0.0095,-0.0086,9.8066,0.0225,-0.0131,-0.0002,-29.5,-102.69,82.63,166.08,-12.03,-0.17
2607,48.88772,2.2911,79.18,19.1,8,226.62,0 / 7,260721,2020-01-04 11:42:16:971,0.0643,-0.0462,9.1573,-0.0034,0.004,9.8066,-0.0042,0.0241,-0.0063,-30.0,-103.0,72.56,165.36,-12.07,-0.22
2608,48.88772,2.2911,79.18,19.1,8,226.62,0 / 7,260821,2020-01-04 11:42:17:071,0.087,0.2853,9.644,0.0006,0.0042,9.8066,0.0066,0.0051,0.0014,-31.37,-113.75,76.88,166.24,-12.04,-0.17
2609,48.88772,2.2911,79.18,19.1,8,226.62,0 / 7,260921,2020-01-04 11:42:17:171,0.1441,0.1717,9.6811,-0.0017,0.0041,9.8066,-0.016,-0.0049,0.0078,-31.06,-106.25,78.5,165.43,-11.97,-0.14
2610,48.88772,2.2911,79.18,19.1,8,226.62,0 / 7,261021,2020-01-04 11:42:17:271,0.2797,0.7691,10.2283,-0.0004,-0.0044,9.8066,-0.0007,-0.009,0.0095,-31.75,-110.69,75.81,165.47,-11.93,-0.16
2611,48.88772,2.2911,79.18,19.1,8,226.62,0 / 7,261120,2020-01-04 11:42:17:370,0.3568,0.2947,10.1168,-0.0069,-0.0023,9.8066,0.0056,0.0054,0.0012,-31.62,-110.37,83.94,165.45,-11.98,-0.31
2612,48.88772,2.2911,79.18,19.1,8,226.62,0 / 7,261221,2020-01-04 11:42:17:471,0.0996,0.3835,10.8235,0.0042,-0.0053,9.8066,0.0221,-0.0039,0.0008,-31.69,-104.5,77.19,164.56,-11.98,-0.37
2613,48.88772,2.2911,79.18,19.1,8,226.62,0 / 7,261321,2020-01-04 11:42:17:571,0.2024,0.2647,9.4886,-0.003,0.0068,9.8066,-0.0205,0.0124,-0.0019,-34.25,-111.75,79.13,164.68,-12.03,-0.37
2614,48.88772,2.2911,79.18,19.1,8,226.62,0 / 6,261421,2020-01-04 11:42:17:671,0.3097,-0.1117,9.979,0.0044,0.01,9.8066,-0.0028,0.0193,-0.0006,-33.69,-106.87,80.81,164.16,-11.88,-0.31
2615,48.88772,2.2911,79.18,19.1,8,226.62,0 / 6,261521,2020-01-04 11:42:17:771,0.5668,0.1914,9.1951,-0.0054,0.0007,9.8065,-0.0082,-0.0139,0.001,-33.5,-108.37,75.06,164.57,-11.86,-0.32
2616,48.88772,2.2911,79.18,19.1,8,226.62,0 / 6,261621,2020-01-04 11:42:17:871,-0.0104,0.4179,10.0026,-0.0085,0.0039,9.8066,-0.0078,0.003,0.0039,-32.81,-110.75,83.63,165.02,-11.78,-0.44
2617,48.88772,2.2911,79.18,19.1,8,226.62,0 / 6,261722,2020-01-04 11:42:17:972,-0.0376,0.023,9.4561,0.0038,-0.0008,9.8066,-0.0077,0.0261,-0.0071,-33.12,-101.19,82.38,163.79,-11.79,-0.42
2618,48.88772,2.2911,79.18,19.1,8,226.62,0 / 6,261821,2020-01-04 11:42:18:071,0.3248,0.0962,9.6804,-0.0052,-0.0038,9.8066,0.0219,-0.0273,0.0001,-32.06,-103.25,75.31,164.37,-11.8,-0.37
2619,48.88772,2.2911,79.18,19.1,8,226.62,0 / 6,261921,2020-01-04 11:42:18:171,0.1592,0.284,10.5107,0.0051,0.0015,9.8066,-0.0085,0.0097,0.0002,-32.69,-103.81,76.19,164.01,-11.77,-0.46
2620,48.88772,2.2911,79.18,19.1,8,226.62,0 / 6,262021,2020-01-04 11:42:18:271,0.0388,0.3759,9.4939,0.0119,-0.0021,9.8066,0.0164,0.0106,-0.0043,-32.37,-109.44,72.5,165.08,-11.79,-0.31
2621,48.88772,2.2911,79.18,19.1,8,226.62,0 / 6,262120,2020-01-04 11:42:18:370,-0.2486,0.5971,10.5803,0.0092,0.0133,9.8066,-0.0297,0.0332,-0.0136,-32.87,-112.19,76.75,165.12,-11.82,-0.22
2622,48.88772,2.2911,79.18,19.1,8,226.62,0 / 6,262221,2020-01-04 11:42:18:471,-0.1167,0.6567,10.2257,-0.0012,0.0062,9.8066,-0.0043,-0.0051,-0.0016,-30.25,-104.81,85.31,165.92,-11.65,-0.07
2623,48.88772,2.2911,79.18,19.1,8,226.62,0 / 6,262321,2020-01-04 11:42:18:571,0.2263,0.3121,8.8874,0.0073,-0.0075,9.8066,0.0143,-0.001,-0.0016,-30.0,-106.31,75.06,165.79,-11.65,-0.09
2624,48.88772,2.2911,79.18,19.1,8,226.62,0 / 6,262421,2020-01-04 11:42:18:671,0.0375,0.38,9.7594,-0.0064,-0.0079,9.8066,0.0255,-0.0095,-0.0099,-31.25,-113.44,77.94,166.2,-11.74,-0.06
2625,48.88772,2.2911,79.18,19.1,8,226.62,0 / 6,262521,2020-01-04 11:42:18:771,-0.1212,0.2606,9.6466,-0.0084,0.0021,9.8066,-0.009,-0.0011,-0.0074,-29.81,-102.56,82.19,165.6,-11.89,-0.15
2626,48.88772,2.2911,79.18,19.1,8,226.62,0 / 6,262621,2020-01-04 11:42:18:871,0.2812,0.0791,9.296,-0.0053,0.0049,9.8066,-0.0186,0.0153,-0.0039,-31.0,-109.06,75.19,165.61,-11.81,-0.24
2627,48.88772,2.2911,79.18,19.1,8,226.62,0 / 6,262721,2020-01-04 11:42:18:971,-0.0557,0.7772,10.0524,0.007,0.0101,9.8065,-0.0224,0.0303,-0.0072,-30.37,-114.37,82.63,166.77,-11.67,-0.14
2628,48.88772,2.2911,79.18,19.1,8,226.62,0 / 6,262821,2020-01-04 11:42:19:071,0.1249,0.394,9.9034,0.0011,0.0075,9.8066,-0.0044,-0.0142,0.0023,-28.75,-105.44,80.19,166.29,-11.52,0.0
2629,48.88772,2.2911,79.18,19.1,8,226.62,0 / 6,262921,2020-01-04 11:42:19:171,-0.1364,0.574,9.4032,-0.0064,-0.0057,9.8066,-0.0039,-0.0034,-0.0013,-27.19,-109.69,77.81,167.58,-11.54,-0.12
2630,48.88772,2.2911,79.18,19.1,8,226.62,0 / 6,263021,2020-01-04 11:42:19:271,-0.1214,-0.1302,9.595,-0.0058,0.0015,9.8065,0.0102,-0.0193,-0.0062,-28.87,-110.31,81.88,166.73,-11.55,-0.2
2631,48.88772,2.2911,79.18,19.1,8,226.62,0 / 6,263121,2020-01-04 11:42:19:371,-0.0834,0.8499,10.4042,-0.023,0.0153,9.8066,-0.0122,-0.0207,-0.0028,-27.81,-105.44,92.0,166.72,-11.43,-0.37
2632,48.88772,2.2911,79.18,19.1,8,226.62,0 / 6,263221,2020-01-04 11:42:19:471,-0.2457,0.1836,10.0022,0.0063,0.0044,9.8066,-0.0104,0.032,-0.0056,-28.62,-97.25,84.13,165.13,-11.39,-0.44
2633,48.88772,2.2911,79.18,19.1,8,226.62,0 / 6,263329,2020-01-04 11:42:19:579,-0.6405,0.2174,9.4143,0.0048,-0.0049,9.8066,-0.0039,0.0398,-0.0038,-29.25,-102.19,72.06,165.56,-11.37,-0.32
2634,48.88772,2.2911,79.18,19.1,8,226.62,0 / 5,263421,2020-01-04 11:42:19:671,-0.1556,0.2345,10.1394,0.0048,0.0002,9.8066,0.0132,0.0118,-0.0054,-28.62,-108.44,70.69,166.26,-11.37,-0.25
2635,48.88772,2.2911,79.18,19.1,8,226.62,0 / 5,263521,2020-01-04 11:42:19:771,0.1071,0.1223,10.0069,0.0103,0.0081,9.8066,-0.0156,0.0211,-0.0076,-31.56,-110.31,81.44,165.48,-11.39,-0.05
2636,48.88772,2.2911,79.18,19.1,8,226.62,0 / 5,263621,2020-01-04 11:42:19:871,0.1153,0.9847,10.1073,-0.0019,-0.0121,9.8066,0.0336,0.0082,-0.0053,-29.62,-104.25,82.25,165.73,-11.4,-0.04
2637,48.88772,2.2911,79.18,19.1,8,226.62,0 / 5,263721,2020-01-04 11:42:19:971,-0.102,-0.1228,9.7545,0.0107,-0.0021,9.8065,0.0025,0.0415,-0.0046,-29.56,-108.62,70.5,166.08,-11.56,0.01
2638,48.88772,2.2911,79.18,19.1,8,226.62,0 / 5,263820,2020-01-04 11:42:20:070,-0.2417,0.2742,9.1006,-0.001,-0.0118,9.8066,0.0016,0.0102,0.0014,-27.81,-117.5,80.13,167.92,-11.59,0.03
2639,48.88772,2.2911,79.18,19.1,8,226.62,0 / 5,263921,2020-01-04 11:42:20:171,0.3106,0.0887,9.8906,-0.0065,-0.0044,9.8066,0.0119,-0.0116,0.0106,-27.0,-103.56,85.75,167.24,-11.65,0.0
2640,48.88772,2.2911,79.18,19.1,8,226.62,0 / 5,264020,2020-01-04 11:42:20:270,0.4709,0.3222,9.9032,-0.0137,0.0053,9.8066,0.0282,-0.0134,0.0112,-26.37,-110.56,74.13,168.05,-11.64,-0.12
2641,48.88772,2.2911,79.18,19.1,8,226.62,0 / 5,264121,2020-01-04 11:42:20:371,0.4115,0.5704,10.802,-0.0022,0.002,9.8065,-0.0074,-0.0049,0.0114,-26.94,-116.75,80.94,168.19,-11.63,-0.26
2642,48.88772,2.2911,79.18,19.1,8,226.62,0 / 5,264220,2020-01-04 11:42:20:470,0.4438,0.109,10.2936,-0.0072,-0.0005,9.8066,-0.0001,-0.0016,0.0051,-29.5,-110.25,83.38,166.66,-11.58,-0.34
2643,48.88772,2.2911,79.18,19.1,8,226.62,0 / 5,264321,2020-01-04 11:42:20:571,0.1447,0.3715,9.2243,0.0136,-0.0005,9.8066,-0.0044,0.0163,0.001,-28.25,-106.44,82.81,166.71,-11.58,-0.31
2644,48.88772,2.2911,79.18,19.1,8,226.62,0 / 4,264421,2020-01-04 11:42:20:671,-0.5307,0.757,10.1017,0.0025,-0.0039,9.8066,-0.0007,0.022,-0.002,-29.56,-103.81,79.06,165.47,-11.62,-0.37
2645,48.88772,2.2911,79.18,19.1,8,226.62,0 / 4,264520,2020-01-04 11:42:20:770,0.268,0.1246,9.679,0.0058,-0.0054,9.8066,0.0063,0.0064,0.0074,-29.44,-107.44,75.19,166.22,-11.64,-0.31
2646,48.88772,2.2911,79.18,19.1,8,226.62,0 / 4,264621,2020-01-04 11:42:20:871,-0.1083,0.8359,9.9061,0.0007,0.0007,9.8066,-0.0023,0.0067,0.0009,-33.0,-116.5,79.75,165.55,-11.7,-0.31
2647,48.88772,2.2911,79.18,19.1,8,226.62,0 / 4,264721,2020-01-04 11:42:20:971,0.2483,0.998,10.5776,0.0017,-0.0023,9.8066,0.0045,0.019,-0.0043,-32.31,-113.12,82.69,165.72,-11.68,-0.29
2648,48.88772,2.2911,79.18,19.1,8,226.62,0 / 4,264821,2020-01-04 11:42:21:071,0.1658,0.936,9.7384,0.0032,0.0089,9.8066,-0.0198,0.0135,-0.0018,-32.19,-111.5,80.06,165.48,-11.71,-0.26
2649,48.88772,2.2911,79.18,19.1,8,226.62,0 / 4,264920,2020-01-04 11:42:21:170,-0.2593,-0.0299,10.3493,-0.0019,0.0101,9.8066,-0.0342,-0.0023,-0.0022,-28.5,-115.5,80.81,167.61,-11.59,-0.23
2650,48.88772,2.2911,79.18,19.1,8,226.62,0 / 4,265021,2020-01-04 11:42:21:271,0.2384,0.2122,9.8317,-0.0036,0.0068,9.8066,-0.0177,0.0107,0.0009,-26.75,-114.06,86.69,167.98,-11.38,-0.3
2651,48.88772,2.2911,79.18,19.1,8,226.62,0 / 4,265121,2020-01-04 11:42:21:371,0.2424,0.1901,9.4907,-0.0116,-0.0042,9.8066,0.0014,-0.0009,0.0038,-26.12,-104.31,87.13,167.37,-11.33,-0.44
2652,48.88772,2.2911,79.18,19.1,8,226.62,0 / 4,265220,2020-01-04 11:42:21:470,0.3517,0.3157,10.1366,-0.0016,-0.004,9.8066,0.0112,-0.0075,0.0031,-26.37,-103.19,78.56,167.12,-11.35,-0.46
2653,48.88772,2.2911,79.18,19.1,8,226.62,0 / 4,265321,2020-01-04 11:42:21:571,0.0726,0.3756,9.8885,-0.0055,-0.0146,9.8066,-0.0051,0.0014,-0.0006,-27.37,-107.31,81.06,167.07,-11.52,-0.55
2654,48.88772,2.2911,79.18,19.1,8,226.62,0 / 3,265421,2020-01-04 11:42:21:671,0.1878,-0.1254,10.8811,-0.0035,-0.0088,9.8066,0.0157,-0.0023,-0.0021,-27.94,-103.31,80.88,166.16,-11.54,-0.59
2655,48.88772,2.2911,79.18,19.1,8,226.62,0 / 3,265521,2020-01-04 11:42:21:771,0.0238,0.237,9.8945,-0.0092,-0.0051,9.8066,0.0043,-0.0158,0.0011,-24.94,-105.94,80.56,167.82,-11.58,-0.65
2656,48.88772,2.2911,79.18,19.1,8,226.62,0 / 3,265621,2020-01-04 11:42:21:871,0.1526,0.3869,10.081,0.002,0.0043,9.8066,-0.012,0.0305,-0.0104,-27.25,-106.75,85.06,167.02,-11.6,-0.74
2657,48.88772,2.2911,79.18,19.1,8,226.62,0 / 3,265720,2020-01-04 11:42:21:970,0.3591,-0.1721,9.6498,0.0075,0.0009,9.8066,0.0044,0.0169,-0.0077,-27.44,-99.19,82.75,166.2,-11.55,-0.62
2658,48.88772,2.2911,79.18,19.1,8,226.62,0 / 3,265821,2020-01-04 11:42:22:071,0.0724,0.445,10.2581,-0.0079,-0.002,9.8066,0.0161,-0.0097,-0.0045,-26.87,-101.69,77.88,166.47,-11.53,-0.58
2659,48.88772,2.2911,79.18,19.1,8,226.62,0 / 3,265921,2020-01-04 11:42:22:171,-0.0602,0.3359,10.1506,0.0005,0.0029,9.8066,0.008,0.0219,-0.0081,-26.75,-106.75,80.38,166.97,-11.55,-0.68
2660,48.88772,2.2911,79.18,19.1,8,226.62,0 / 3,266021,2020-01-04 11:42:22:271,0.0415,0.0633,10.4977,0.0006,0.0039,9.8066,-0.001,0.015,0.0002,-27.12,-101.37,84.56,166.44,-11.52,-0.64
2661,48.88772,2.2911,79.18,19.1,8,226.62,0 / 3,266120,2020-01-04 11:42:22:370,0.3098,0.0715,9.917,0.0018,0.0022,9.8066,0.0003,-0.0126,0.0038,-24.25,-101.06,78.94,167.79,-11.47,-0.58
2662,48.88772,2.2911,79.18,19.1,8,226.62,0 / 3,266221,2020-01-04 11:42:22:471,0.1817,0.1694,9.6752,-0.0034,-0.0041,9.8066,0.0053,-0.017,0.0011,-26.31,-104.75,78.38,167.22,-11.47,-0.62
2663,48.88772,2.2911,79.18,19.1,8,226.62,0 / 3,266321,2020-01-04 11:42:22:571,0.1739,-0.2499,9.7787,-0.008,0.0077,9.8066,-0.0241,-0.0177,0.0072,-27.87,-104.69,79.0,166.26,-11.43,-0.72
2664,48.88772,2.2911,79.18,19.1,8,226.62,0 / 1,266420,2020-01-04 11:42:22:670,0.4254,-0.099,10.4787,-0.0059,0.0056,9.8066,-0.0137,-0.0029,-0.0003,-26.19,-107.5,82.63,167.39,-11.39,-0.78
2665,48.88772,2.2911,79.18,19.1,8,226.62,0 / 1,266521,2020-01-04 11:42:22:771,0.3081,-0.213,10.0309,-0.0068,0.0027,9.8066,-0.0164,0.0148,-0.0038,-26.62,-107.31,85.56,166.92,-11.35,-0.86
2666,48.88772,2.2911,79.18,19.1,8,226.62,0 / 1,266621,2020-01-04 11:42:22:871,0.0795,-0.1788,10.2014,0.0004,-0.0024,9.8066,0.0121,-0.0035,-0.0062,-29.19,-102.5,83.31,165.44,-11.3,-0.82
2667,48.88772,2.2911,79.18,19.1,8,226.62,0 / 1,266721,2020-01-04 11:42:22:971,0.033,-0.2161,10.8231,-0.0053,0.0003,9.8065,0.016,-0.0092,-0.0022,-27.12,-104.12,78.5,166.49,-11.31,-0.88
2668,48.88772,2.2911,79.18,19.1,8,226.62,0 / 1,266821,2020-01-04 11:42:23:071,0.4468,-0.2431,9.7559,-0.0055,0.0011,9.8066,-0.0068,-0.0008,0.0016,-27.31,-109.31,80.38,166.94,-11.35,-1.02
2669,48.88772,2.2911,79.18,19.1,8,226.62,0 / 1,266921,2020-01-04 11:42:23:171,0.4131,-0.555,9.6048,-0.0032,0.0047,9.8066,-0.0075,-0.0026,-0.0032,-28.56,-107.06,84.19,165.86,-11.31,-1.07
2670,48.88772,2.2911,79.18,19.1,8,226.62,0 / 1,267021,2020-01-04 11:42:23:271,0.1243,0.5766,10.2242,-0.0023,0.0169,9.8066,-0.0515,-0.0037,0.0093,-26.44,-109.25,79.13,167.31,-11.27,-1.11
2671,48.88772,2.2911,79.18,19.1,8,226.62,0 / 1,267121,2020-01-04 11:42:23:371,0.3804,-0.2871,10.7847,-0.0174,-0.0102,9.8066,0.0019,0.0016,-0.0051,-24.75,-111.62,84.75,167.98,-11.15,-1.27
2672,48.88772,2.2911,79.18,19.1,8,226.62,0 / 1,267221,2020-01-04 11:42:23:471,0.4367,-0.2235,9.6059,0.0062,0.0076,9.8065,-0.0216,0.027,-0.0031,-26.56,-107.56,88.63,166.74,-11.16,-1.29
2673,48.88772,2.2911,79.18,19.1,8,226.62,0 / 1,267321,2020-01-04 11:42:23:571,0.5142,-1.0963,9.5045,-0.0119,-0.0073,9.8066,-0.0069,0.0302,-0.0048,-23.62,-105.94,87.56,167.89,-11.1,-1.26
2674,48.88772,2.2911,79.18,19.1,8,226.62,0 / 1,267421,2020-01-04 11:42:23:671,0.4952,0.1233,8.949,0.0075,0.0059,9.8066,-0.015,0.0091,-0.0042,-23.06,-109.5,85.75,168.61,-11.1,-1.24
2675,48.88772,2.2911,79.18,19.1,8,226.62,0 / 1,267521,2020-01-04 11:42:23:771,0.1434,0.1432,9.7923,-0.0013,-0.0072,9.8065,0.0137,-0.0066,0.0012,-26.25,-103.81,90.44,166.86,-11.08,-1.17
2676,48.88772,2.2911,79.18,19.1,8,226.62,0 / 1,267621,2020-01-04 11:42:23:871,0.3106,0.1035,9.1147,-0.0017,-0.0014,9.8066,0.0026,-0.0117,-0.003,-26.87,-102.69,85.0,166.22,-11.1,-1.2
2677,48.88772,2.2911,79.18,19.1,8,226.62,0 / 1,267721,2020-01-04 11:42:23:971,0.3491,-0.2576,9.6591,-0.009,0.0014,9.8066,-0.0198,0.0031,-0.0016,-25.19,-105.44,86.38,167.32,-11.14,-1.26
2678,48.88772,2.2911,79.18,19.1,8,226.62,0 / 1,267821,2020-01-04 11:42:24:071,0.3024,-0.3035,9.8622,-0.0016,0.006,9.8066,-0.0119,0.0146,0.0012,-28.56,-103.31,89.06,165.25,-11.01,-1.33
2679,48.88772,2.2911,79.18,19.1,8,226.62,0 / 1,267921,2020-01-04 11:42:24:171,0.4669,-0.1758,9.6527,-0.0014,0.0,9.8066,-0.0083,-0.0042,0.0043,-24.69,-102.94,83.63,167.02,-10.95,-1.35
2680,48.88772,2.2911,79.18,19.1,8,226.62,0 / 1,268020,2020-01-04 11:42:24:270,0.3379,-0.141,9.6924,-0.0002,-0.0003,9.8066,-0.0021,0.0028,-0.0075,-22.5,-105.06,82.56,168.6,-10.93,-1.34
2681,48.88772,2.2911,79.18,19.1,8,226.62,0 / 1,268121,2020-01-04 11:42:24:371,0.3967,-0.9178,9.3457,-0.0013,-0.0016,9.8066,0.0404,-0.0032,-0.0041,-26.0,-104.06,80.56,166.64,-10.96,-1.33
2682,48.88772,2.2911,79.18,19.1,8,226.62,0 / 1,268221,2020-01-04 11:42:24:471,0.4056,-0.459,9.61,0.0046,0.0007,9.8066,0.0015,0.0063,0.0077,-26.19,-108.87,80.75,167.15,-11.09,-1.36
2683,48.88772,2.2911,79.18,19.1,8,226.62,0 / 1,268321,2020-01-04 11:42:24:571,0.2443,-0.0941,9.389,-0.003,0.0043,9.8066,-0.0101,-0.0031,-0.0058,-27.56,-109.94,84.56,166.43,-11.05,-1.32
2684,48.88772,2.2911,79.18,19.1,8,226.62,0 / 3,268421,2020-01-04 11:42:24:671,0.3765,-0.7349,9.9789,-0.0025,0.0117,9.8065,-0.0394,-0.0007,0.0004,-29.37,-107.94,86.94,165.77,-10.91,-1.34
2685,48.88772,2.2911,79.18,19.1,8,226.62,0 / 3,268521,2020-01-04 11:42:24:771,0.2392,-0.4418,9.6797,0.0085,0.0043,9.8065,-0.0147,0.0183,-0.0019,-27.37,-104.69,83.25,166.31,-10.71,-1.29
2686,48.88772,2.2911,79.18,19.1,8,226.62,0 / 3,268621,2020-01-04 11:42:24:871,0.6689,-0.5663,10.2692,-0.007,-0.0093,9.8065,0.0011,0.0089,0.0009,-25.87,-110.56,85.31,167.42,-10.74,-1.26
2687,48.88772,2.2911,79.18,19.1,8,226.62,0 / 3,268721,2020-01-04 11:42:24:971,0.5318,-0.6323,10.4954,-0.0022,0.0016,9.8066,-0.0075,0.0002,0.0027,-25.44,-112.69,91.31,168.02,-10.77,-1.35
2688,48.88772,2.2911,79.18,19.1,8,226.62,0 / 3,268821,2020-01-04 11:42:25:071,0.3478,-0.5629,9.5335,0.0032,0.0147,9.8066,-0.0289,0.009,-0.0013,-26.75,-105.69,88.56,166.47,-10.63,-1.29
2689,48.88772,2.2911,79.18,19.1,8,226.62,0 / 3,268921,2020-01-04 11:42:25:171,0.3562,-0.3688,9.9992,-0.0048,0.0095,9.8066,-0.0229,-0.0051,-0.0029,-26.25,-109.44,85.63,167.16,-10.61,-1.34
2690,48.88772,2.2911,79.18,19.1,8,226.62,0 / 3,269021,2020-01-04 11:42:25:271,0.1269,-0.2507,10.1837,-0.0052,0.002,9.8065,-0.021,-0.0036,-0.0073,-27.31,-111.69,88.94,166.98,-10.57,-1.42
2691,48.88772,2.2911,79.18,19.1,8,226.62,0 / 3,269121,2020-01-04 11:42:25:371,0.6572,-0.9641,9.4213,0.0049,0.0064,9.8066,0.0238,-0.0019,-0.0019,-26.06,-108.25,88.31,167.02,-10.44,-1.38
2692,48.88772,2.2911,79.18,19.1,8,226.62,0 / 3,269221,2020-01-04 11:42:25:471,0.1878,-0.1138,10.0275,0.0038,-0.0058,9.8066,0.0129,0.008,-0.004,-22.44,-107.31,91.19,168.8,-10.46,-1.31
2693,48.88772,2.2911,79.18,19.1,8,226.62,0 / 3,269320,2020-01-04 11:42:25:570,0.2251,-0.0765,9.3956,-0.0007,0.0003,9.8066,-0.0089,0.0346,-0.0041,-24.81,-105.25,86.19,167.19,-10.52,-1.35
2694,48.885887,2.288052,83.27,17.78,32,224.74,06-Jul,269420,2020-01-04 11:42:25:670,0.8363,-0.6376,9.4172,-0.0032,0.0015,9.8066,-0.022,-0.0146,0.0028,-26.62,-105.5,86.75,166.26,-10.52,-1.38
2695,48.885887,2.288052,83.27,17.78,32,224.74,06-Jul,269521,2020-01-04 11:42:25:771,0.3178,-0.63,9.7077,0.0002,0.0049,9.8066,-0.0353,-0.0214,0.0038,-26.5,-109.62,85.63,167.15,-10.38,-1.46
2696,48.885887,2.288052,83.27,17.78,32,224.74,06-Jul,269621,2020-01-04 11:42:25:871,0.7514,-0.1208,9.4081,-0.0101,0.0075,9.8066,0.0127,-0.0001,-0.0063,-26.87,-109.37,88.06,166.53,-10.25,-1.58
2697,48.885887,2.288052,83.27,17.78,32,224.74,06-Jul,269721,2020-01-04 11:42:25:971,0.1857,-0.524,10.9127,-0.0015,-0.0025,9.8066,0.0054,0.009,0.0014,-26.87,-105.75,85.94,166.15,-10.31,-1.66
2698,48.885887,2.288052,83.27,17.78,32,224.74,06-Jul,269821,2020-01-04 11:42:26:071,0.6948,-0.7841,9.2577,-0.0042,-0.0089,9.8066,0.0081,-0.0216,0.0055,-25.69,-108.87,83.88,166.87,-10.37,-1.72
2699,48.885887,2.288052,83.27,17.78,32,224.74,06-Jul,269921,2020-01-04 11:42:26:171,0.3105,-0.8661,10.3665,-0.007,-0.0012,9.8066,0.007,-0.0169,0.0039,-28.06,-109.31,85.13,165.9,-10.53,-1.89
2700,48.885887,2.288052,83.27,17.78,32,224.74,06-Jul,270021,2020-01-04 11:42:26:271,0.5501,-0.5721,10.2893,-0.0062,0.0095,9.8066,0.0091,0.0047,-0.0044,-28.12,-107.81,87.75,165.75,-10.47,-1.95
2701,48.885887,2.288052,83.27,17.78,32,224.74,06-Jul,270122,2020-01-04 11:42:26:372,0.5937,-0.3781,9.7636,0.0015,0.0067,9.8066,-0.0209,0.0002,-0.0012,-23.25,-109.5,90.63,168.11,-10.34,-1.89
2702,48.885887,2.288052,83.27,17.78,32,224.74,06-Jul,270221,2020-01-04 11:42:26:471,0.1771,-0.5936,9.8304,0.0018,0.0004,9.8066,0.0057,0.0086,-0.0055,-24.87,-107.06,87.69,167.03,-10.31,-1.86
2703,48.885887,2.288052,83.27,17.78,32,224.74,06-Jul,270321,2020-01-04 11:42:26:571,0.5283,-0.2638,10.2206,-0.001,-0.0015,9.8066,-0.0061,0.0023,-0.0001,-27.06,-104.75,83.94,165.91,-10.35,-1.83
2704,48.885887,2.288052,83.27,17.78,32,224.74,07-Aug,270421,2020-01-04 11:42:26:671,0.4474,-1.1311,9.3179,-0.0014,-0.0037,9.8066,-0.0149,-0.0005,-0.0083,-25.75,-108.31,85.06,166.68,-10.38,-1.86
2705,48.885887,2.288052,83.27,17.78,32,224.74,07-Aug,270521,2020-01-04 11:42:26:771,0.1768,-0.2362,10.504,0.0026,-0.0029,9.8066,-0.0135,0.005,0.0015,-26.37,-107.87,87.88,166.69,-10.43,-1.87
2706,48.885887,2.288052,83.27,17.78,32,224.74,07-Aug,270621,2020-01-04 11:42:26:871,0.2291,-0.3826,10.1863,0.0005,0.002,9.8066,0.0082,-0.009,-0.001,-28.25,-104.12,86.69,165.38,-10.43,-1.82
2707,48.885887,2.288052,83.27,17.78,32,224.74,07-Aug,270721,2020-01-04 11:42:26:971,0.8686,-0.0027,9.7041,0.009,0.003,9.8066,-0.001,0.0185,-0.0053,-25.62,-104.31,87.06,166.35,-10.48,-1.75
2708,48.885887,2.288052,83.27,17.78,32,224.74,07-Aug,270821,2020-01-04 11:42:27:071,0.6933,-0.6486,9.8846,0.0024,0.0003,9.8065,-0.0161,-0.0054,0.0031,-28.56,-103.31,80.06,164.87,-10.45,-1.64
2709,48.885887,2.288052,83.27,17.78,32,224.74,07-Aug,270921,2020-01-04 11:42:27:171,0.9106,-0.6336,9.3342,-0.0007,0.0103,9.8066,-0.0157,-0.0199,0.0017,-30.81,-109.06,77.19,164.64,-10.42,-1.66
2710,48.885887,2.288052,83.27,17.78,32,224.74,07-Aug,271021,2020-01-04 11:42:27:271,0.1053,-0.344,10.0734,0.0041,0.0053,9.8066,-0.0193,-0.0051,0.0031,-30.19,-111.87,82.0,165.47,-10.3,-1.62
2711,48.885887,2.288052,83.27,17.78,32,224.74,07-Aug,271121,2020-01-04 11:42:27:371,0.5292,-0.8263,9.5321,-0.0021,-0.0054,9.8066,0.0087,-0.0039,0.0027,-30.44,-110.31,84.88,165.24,-10.33,-1.68
2712,48.885887,2.288052,83.27,17.78,32,224.74,07-Aug,271220,2020-01-04 11:42:27:470,0.4082,-0.4047,10.0155,0.007,0.0008,9.8066,0.0141,-0.0098,0.006,-27.44,-111.25,85.0,166.7,-10.42,-1.63
2713,48.885887,2.288052,83.27,17.78,32,224.74,07-Aug,271321,2020-01-04 11:42:27:571,0.5635,-0.5627,10.0122,-0.0044,-0.0055,9.8066,-0.0172,-0.0191,0.0025,-24.0,-110.44,86.94,167.91,-10.55,-1.68
2714,48.885887,2.288052,83.27,17.78,32,224.74,10-Oct,271421,2020-01-04 11:42:27:671,0.5384,-0.3836,9.8776,-0.0078,-0.009,9.8066,0.0011,-0.0255,-0.0031,-25.56,-108.62,86.19,166.85,-10.63,-1.8
2715,48.885887,2.288052,83.27,17.78,32,224.74,10-Oct,271521,2020-01-04 11:42:27:771,0.2838,-0.4067,10.066,-0.0004,-0.0092,9.8066,-0.0107,0.0034,-0.0029,-25.81,-107.56,83.88,166.71,-10.66,-1.85
2716,48.885887,2.288052,83.27,17.78,32,224.74,10-Oct,271621,2020-01-04 11:42:27:871,-0.033,-0.6717,9.7794,0.0027,-0.0035,9.8066,0.0002,0.0076,-0.004,-24.0,-107.94,87.75,167.62,-10.72,-1.87
2717,48.885887,2.288052,83.27,17.78,32,224.74,10-Oct,271721,2020-01-04 11:42:27:971,0.5142,-1.1703,9.0274,0.0002,-0.0138,9.8066,-0.0298,-0.0088,0.0068,-27.19,-104.37,85.19,165.82,-10.79,-1.9
2718,48.885887,2.288052,83.27,17.78,32,224.74,10-Oct,271821,2020-01-04 11:42:28:071,0.6521,-0.2532,9.0154,-0.0093,-0.0109,9.8065,0.0365,-0.0185,0.0019,-26.62,-103.31,81.38,165.64,-10.98,-1.99
2719,48.885887,2.288052,83.27,17.78,32,224.74,10-Oct,271921,2020-01-04 11:42:28:171,0.5725,-0.2932,9.1847,-0.0024,-0.0077,9.8066,-0.0186,0.0014,0.0027,-26.19,-107.0,79.75,166.49,-11.11,-2.08
2720,48.885887,2.288052,83.27,17.78,32,224.74,10-Oct,272020,2020-01-04 11:42:28:270,0.9829,-0.5418,9.8016,-0.0001,-0.0059,9.8066,0.0086,-0.0242,-0.0053,-28.56,-105.19,81.75,164.9,-11.21,-2.14
2721,48.885887,2.288052,83.27,17.78,32,224.74,10-Oct,272121,2020-01-04 11:42:28:371,0.6792,-0.6891,10.3352,-0.003,-0.012,9.8066,-0.0067,0.0023,0.0023,-28.87,-107.62,77.56,165.17,-11.3,-2.24
2722,48.885887,2.288052,83.27,17.78,32,224.74,10-Oct,272221,2020-01-04 11:42:28:471,0.9175,-1.2024,10.2999,-0.0019,-0.0088,9.8066,0.0296,0.0047,-0.0046,-28.69,-113.0,81.94,165.72,-11.39,-2.29
2723,48.885887,2.288052,83.27,17.78,32,224.74,10-Oct,272321,2020-01-04 11:42:28:571,0.2116,-0.2171,9.9833,0.0034,0.0053,9.8066,-0.0102,0.0171,-0.0068,-30.56,-105.5,85.19,163.92,-11.49,-2.35
2724,48.885887,2.288052,83.27,17.78,32,224.74,10-Oct,272424,2020-01-04 11:42:28:674,0.6808,-1.2989,9.6336,0.0088,0.0179,9.8066,0.006,0.0065,-0.0065,-25.87,-107.87,81.56,166.53,-11.32,-2.24
2725,48.885887,2.288052,83.27,17.78,32,224.74,13 / 15,272521,2020-01-04 11:42:28:771,0.4424,-0.5566,9.9402,0.0077,0.0103,9.8066,-0.0112,0.0164,0.0038,-25.69,-110.94,85.19,166.92,-11.19,-2.1
2726,48.885887,2.288052,83.27,17.78,32,224.74,13 / 15,272620,2020-01-04 11:42:28:870,0.9023,-1.5335,9.1227,-0.0056,-0.0021,9.8066,-0.0083,-0.0505,0.0049,-26.81,-102.69,86.13,165.67,-11.09,-2.01
2727,48.885887,2.288052,83.27,17.78,32,224.74,13 / 15,272721,2020-01-04 11:42:28:971,0.7833,-0.189,9.9478,-0.0093,-0.0135,9.8066,0.0393,-0.0602,0.0018,-24.5,-96.75,80.31,166.33,-11.18,-2.07
2728,48.885887,2.288052,83.27,17.78,32,224.74,13 / 15,272821,2020-01-04 11:42:29:071,0.5334,-0.6131,10.0812,-0.0004,-0.0041,9.8066,0.0087,-0.0364,0.0075,-28.94,-95.94,72.13,163.6,-11.37,-2.26
2729,48.885887,2.288052,83.27,17.78,32,224.74,13 / 15,272920,2020-01-04 11:42:29:170,0.0154,-0.544,9.8077,0.0015,0.0002,9.8066,0.0015,0.0166,0.0022,-27.69,-103.25,66.0,164.92,-11.36,-2.31
2730,48.885887,2.288052,83.27,17.78,32,224.74,13 / 15,273021,2020-01-04 11:42:29:271,0.2595,-0.4363,9.4248,-0.0021,0.0015,9.8065,-0.0168,0.0066,0.0022,-30.31,-117.0,76.0,165.68,-11.35,-2.31
2731,48.885887,2.288052,83.27,17.78,32,224.74,13 / 15,273121,2020-01-04 11:42:29:371,0.6561,-0.1463,10.4705,-0.0027,-0.0178,9.8066,0.0345,0.0064,-0.0004,-32.31,-112.37,78.75,164.28,-11.46,-2.37
2732,48.885887,2.288052,83.27,17.78,32,224.74,13 / 15,273220,2020-01-04 11:42:29:470,0.5771,-0.0835,9.7953,-0.0055,-0.0052,9.8066,-0.0064,-0.0072,0.0057,-34.25,-112.06,79.5,163.42,-11.58,-2.42
2733,48.885887,2.288052,83.27,17.78,32,224.74,13 / 15,273320,2020-01-04 11:42:29:570,0.3339,0.1141,9.6152,0.0074,0.0135,9.8066,-0.0102,0.0153,-0.0019,-35.87,-110.12,80.31,162.34,-11.57,-2.39
2734,48.885887,2.288052,83.27,17.78,32,224.74,Dec-17,273424,2020-01-04 11:42:29:674,0.7803,0.1761,9.272,0.0058,0.0033,9.8065,0.0017,0.0135,-0.0034,-36.25,-109.19,79.31,162.27,-11.46,-2.25
2735,48.885887,2.288052,83.27,17.78,32,224.74,Dec-17,273521,2020-01-04 11:42:29:771,0.6978,0.832,10.2455,0.0022,-0.0033,9.8065,-0.017,0.0206,-0.0049,-35.44,-108.37,79.38,162.65,-11.42,-2.11
2736,48.885887,2.288052,83.27,17.78,32,224.74,Dec-17,273621,2020-01-04 11:42:29:871,-0.5847,1.4959,10.5372,-0.0025,0.0025,9.8066,0.0045,-0.0179,-0.0004,-35.81,-108.25,79.5,162.24,-11.4,-2.08
2737,48.885887,2.288052,83.27,17.78,32,224.74,Dec-17,273721,2020-01-04 11:42:29:971,0.6419,0.0939,9.6406,-0.0059,0.0003,9.8066,-0.0048,-0.032,0.0106,-34.62,-107.19,81.5,162.45,-11.38,-2.26
2738,48.885887,2.288052,83.27,17.78,32,224.74,Dec-17,273820,2020-01-04 11:42:30:070,0.4678,-0.6858,9.8786,-0.0012,-0.0086,9.8066,-0.0121,0.0262,-0.0038,-34.19,-105.5,81.63,162.57,-11.39,-2.34
2739,48.885887,2.288052,83.27,17.78,32,224.74,Dec-17,273921,2020-01-04 11:42:30:171,0.5107,-0.197,9.8923,-0.001,-0.0065,9.8066,0.0064,-0.0026,0.0019,-33.75,-105.19,80.13,162.57,-11.41,-2.3
2740,48.885887,2.288052,83.27,17.78,32,224.74,Dec-17,274020,2020-01-04 11:42:30:270,0.778,-0.3885,9.8364,0.0002,-0.0117,9.8066,0.0283,0.0023,-0.0049,-34.12,-105.69,77.5,162.66,-11.56,-2.38
2741,48.885887,2.288052,83.27,17.78,32,224.74,Dec-17,274121,2020-01-04 11:42:30:371,0.3165,0.1119,10.1345,0.0087,-0.0003,9.8066,0.0091,0.0188,-0.002,-34.44,-106.5,76.13,162.67,-11.65,-2.35
2742,48.885887,2.288052,83.27,17.78,32,224.74,Dec-17,274221,2020-01-04 11:42:30:471,0.2072,-0.081,9.9599,0.0076,0.0066,9.8066,0.0043,0.0233,-0.0031,-33.94,-107.0,77.0,162.91,-11.65,-2.19
2743,48.885887,2.288052,83.27,17.78,32,224.74,Dec-17,274321,2020-01-04 11:42:30:571,0.5016,-0.5903,9.4139,0.0114,0.0057,9.8066,0.0003,0.0294,-0.0053,-33.31,-107.12,77.63,163.43,-11.65,-2.07
2744,48.885887,2.288052,83.27,17.78,32,224.74,Dec-17,274421,2020-01-04 11:42:30:671,0.7581,-0.078,9.831,0.0137,0.0027,9.8066,-0.0092,0.0129,-0.0064,-33.31,-107.62,79.44,163.64,-11.64,-1.95
2745,48.885887,2.288052,83.27,17.78,32,224.74,13 / 17,274520,2020-01-04 11:42:30:770,0.771,-0.4161,9.9049,0.0095,0.0059,9.8065,-0.0173,0.0179,-0.0021,-33.06,-107.0,79.63,163.64,-11.63,-1.75
2746,48.885887,2.288052,83.27,17.78,32,224.74,13 / 17,274622,2020-01-04 11:42:30:872,1.1435,-1.2005,9.524,-0.0061,-0.0056,9.8066,-0.0167,0.0003,-0.0017,-32.37,-106.87,80.19,164.1,-11.65,-1.73
2747,48.885887,2.288052,83.27,17.78,32,224.74,13 / 17,274720,2020-01-04 11:42:30:970,0.5634,-0.692,9.5525,0.0054,-0.0028,9.8066,0.0037,0.0134,0.0011,-31.87,-105.5,79.25,163.78,-11.71,-1.83
2748,48.885887,2.288052,83.27,17.78,32,224.74,13 / 17,274820,2020-01-04 11:42:31:070,0.4369,-0.5146,10.9616,-0.003,-0.0077,9.8066,0.0306,-0.0261,-0.0011,-31.56,-106.06,79.31,163.9,-11.82,-1.87
