,GPS LATITUDE (degrees),GPS LONGITUDE (degrees), GPS ALTITUDE (m),GPS SPEED (Kmh),GPS ACCURACY (m),GPS ORIENTATION (Â°), SATELLITES IN RANGE, TIME SINCE START (ms), DATE (YYYY-MO-DD HH-MI-SS_SSS),ACCELEROMETER X (m/s²) , ACCELEROMETER Y (m/s²), ACCELEROMETER Z (m/s²), GRAVITY X (m/s²), GRAVITY Y (m/s²), GRAVITY Z (m/s²), GYROSCOPE Yaw (rad/s), GYROSCOPE Pitch (rad/s), GYROSCOPE Roll (rad/s)
44726,45.942642,-0.490102,89.0,22.04,9.648001,308.0,Oct-17,2214362,2019-08-12 11:01:36:852,0.1163,0.0008,9.9753,0.0975,0.0748,9.8059,0.0018,0.0014,0.0036
44727,45.942642,-0.490102,89.0,22.04,9.648001,308.0,Oct-17,2214362,2019-08-12 11:01:36:852,0.1163,0.0008,9.9753,0.0975,0.0748,9.8059,0.0018,0.0014,0.0036
44728,45.942642,-0.490102,89.0,22.04,9.648001,308.0,Oct-17,2214363,2019-08-12 11:01:36:853,0.1163,0.0008,9.9753,0.0975,0.0748,9.8059,0.0018,0.0014,0.0036
44729,45.942642,-0.490102,89.0,22.04,9.648001,308.0,Oct-17,2214363,2019-08-12 11:01:36:853,0.1163,0.0008,9.9753,0.0975,0.0748,9.8059,0.0018,0.0014,0.0036
44730,45.942642,-0.490102,89.0,22.04,9.648001,308.0,Oct-17,2214365,2019-08-12 11:01:36:855,0.1163,0.0008,9.9753,0.0975,0.0748,9.8059,0.0018,0.0014,0.0036
44731,45.942642,-0.490102,89.0,22.04,9.648001,308.0,Oct-17,2214366,2019-08-12 11:01:36:856,0.1163,0.0008,9.9753,0.0975,0.0748,9.8059,0.0018,0.0014,0.0036
44732,45.942642,-0.490102,89.0,22.04,9.648001,308.0,Oct-17,2214367,2019-08-12 11:01:36:857,0.1163,0.0008,9.9753,0.0975,0.0748,9.8059,0.0018,0.0014,0.0036
44733,45.942642,-0.490102,89.0,22.04,9.648001,308.0,Oct-17,2214368,2019-08-12 11:01:36:858,0.1163,0.0008,9.9753,0.0975,0.0748,9.8059,0.0018,0.0014,0.0036
44734,45.942642,-0.490102,89.0,22.04,9.648001,308.0,Oct-17,2214368,2019-08-12 11:01:36:858,0.1163,0.0008,9.9753,0.0975,0.0748,9.8059,0.0018,0.0014,0.0036
44735,45.942642,-0.490102,89.0,22.04,9.648001,308.0,Oct-17,2214368,2019-08-12 11:01:36:858,0.1163,0.0008,9.9753,0.0975,0.0748,9.8059,0.0018,0.0014,0.0036
44736,45.942642,-0.490102,89.0,22.04,9.648001,308.0,Oct-17,2214368,2019-08-12 11:01:36:858,0.1163,0.0008,9.9753,0.0975,0.0748,9.8059,0.0018,0.0014,0.0036
44737,45.942642,-0.490102,89.0,22.04,9.648001,308.0,Oct-17,2214369,2019-08-12 11:01:36:859,0.1163,0.0008,9.9753,0.0975,0.0748,9.8059,0.0018,0.0014,0.0036
44738,45.942642,-0.490102,89.0,22.04,9.648001,308.0,Oct-17,2214369,2019-08-12 11:01:36:859,0.1163,0.0008,9.9753,0.0975,0.0748,9.8059,0.0018,0.0014,0.0036
44739,45.942642,-0.490102,89.0,22.04,9.648001,308.0,Oct-17,2214370,2019-08-12 11:01:36:860,0.1163,0.0008,9.9753,0.0975,0.0748,9.8059,0.0018,0.0014,0.0036
44740,45.942642,-0.490102,89.0,22.04,9.648001,308.0,Oct-17,2214370,2019-08-12 11:01:36:860,0.1163,0.0008,9.9753,0.0975,0.0748,9.8059,0.0018,0.0014,0.0036
44741,45.942642,-0.490102,89.0,22.04,9.648001,308.0,Oct-17,2214371,2019-08-12 11:01:36:861,0.1163,0.0008,9.9753,0.0975,0.0748,9.8059,0.0018,0.0014,0.0036
44742,45.942642,-0.490102,89.0,22.04,9.648001,308.0,Oct-17,2214371,2019-08-12 11:01:36:861,0.1163,0.0008,9.9753,0.0975,0.0748,9.8059,0.0018,0.0014,0.0036
44743,45.942642,-0.490102,89.0,22.04,9.648001,308.0,Oct-17,2214374,2019-08-12 11:01:36:864,0.1163,0.0008,9.9753,0.0975,0.0748,9.8059,0.0018,0.0014,0.0036
44744,45.942642,-0.490102,89.0,22.04,9.648001,308.0,Oct-17,2214375,2019-08-12 11:01:36:865,0.1163,0.0008,9.9753,0.0975,0.0748,9.8059,0.0018,0.0014,0.0036
44745,45.942642,-0.490102,89.0,22.04,9.648001,308.0,Oct-17,2214376,2019-08-12 11:01:36:866,0.1163,0.0008,9.9753,0.0975,0.0748,9.8059,0.0018,0.0014,0.0036
44746,45.942642,-0.490102,89.0,22.04,9.648001,308.0,Oct-17,2214442,2019-08-12 11:01:36:932,0.1163,0.0008,9.9753,0.0975,0.0748,9.8059,0.0018,0.0014,0.0036
44747,45.942642,-0.490102,89.0,22.04,9.648001,308.0,Nov-18,2214837,2019-08-12 11:01:37:327,0.1163,0.0008,9.9753,0.0975,0.0748,9.8059,0.0018,0.0014,0.0036
44748,45.942642,-0.490102,89.0,22.04,9.648001,308.0,Nov-18,2214838,2019-08-12 11:01:37:328,0.1163,0.0008,9.9753,0.0975,0.0748,9.8059,0.0018,0.0014,0.0036
44749,45.942642,-0.490102,89.0,22.04,9.648001,308.0,Nov-18,2214841,2019-08-12 11:01:37:331,0.1163,0.0008,9.9753,0.0975,0.0748,9.8059,0.0018,0.0014,0.0036
44750,45.942642,-0.490102,89.0,22.04,9.648001,308.0,Nov-18,2214841,2019-08-12 11:01:37:331,0.1163,0.0008,9.9753,0.0975,0.0748,9.8059,0.0018,0.0014,0.0036
44751,45.942642,-0.490102,89.0,22.04,9.648001,308.0,Nov-18,2214842,2019-08-12 11:01:37:332,0.1163,0.0008,9.9753,0.0975,0.0748,9.8059,0.0018,0.0014,0.0036
44752,45.942642,-0.490102,89.0,22.04,9.648001,308.0,Nov-18,2214842,2019-08-12 11:01:37:332,0.1163,0.0008,9.9753,0.0975,0.0748,9.8059,0.0018,0.0014,0.0036
44753,45.942642,-0.490102,89.0,22.04,9.648001,308.0,Nov-18,2214843,2019-08-12 11:01:37:333,0.1163,0.0008,9.9753,0.0975,0.0748,9.8059,0.0018,0.0014,0.0036
44754,45.942642,-0.490102,89.0,22.04,9.648001,308.0,Nov-18,2214843,2019-08-12 11:01:37:333,0.1163,0.0008,9.9753,0.0975,0.0748,9.8059,0.0018,0.0014,0.0036
44755,45.942642,-0.490102,89.0,22.04,9.648001,308.0,Nov-18,2214844,2019-08-12 11:01:37:334,0.1163,0.0008,9.9753,0.0975,0.0748,9.8059,0.0018,0.0014,0.0036
44756,45.943535,-0.492082,95.7,20.97,7.504,306.8,Nov-18,2214905,2019-08-12 11:01:37:395,0.1163,0.0008,9.9753,0.0975,0.0748,9.8059,0.0018,0.0014,0.0036
44757,45.943535,-0.492082,95.7,20.97,7.504,306.8,Nov-18,2215292,2019-08-12 11:01:37:782,0.1163,0.0008,9.9753,0.0975,0.0748,9.8059,0.0018,0.0014,0.0036
44758,45.943535,-0.492082,95.7,20.97,7.504,306.8,Nov-18,2215293,2019-08-12 11:01:37:783,0.1163,0.0008,9.9753,0.0975,0.0748,9.8059,0.0018,0.0014,0.0036
44759,45.943535,-0.492082,95.7,20.97,7.504,306.8,Nov-18,2215293,2019-08-12 11:01:37:783,0.1163,0.0008,9.9753,0.0975,0.0748,9.8059,0.0018,0.0014,0.0036
44760,45.943535,-0.492082,95.7,20.97,7.504,306.8,Nov-18,2215294,2019-08-12 11:01:37:784,0.1163,0.0008,9.9753,0.0975,0.0748,9.8059,0.0018,0.0014,0.0036
44761,45.943535,-0.492082,95.7,20.97,7.504,306.8,Nov-18,2215294,2019-08-12 11:01:37:784,0.1163,0.0008,9.9753,0.0975,0.0748,9.8059,0.0018,0.0014,0.0036
44762,45.943535,-0.492082,95.7,20.97,7.504,306.8,Nov-18,2215295,2019-08-12 11:01:37:785,0.1163,0.0008,9.9753,0.0975,0.0748,9.8059,0.0018,0.0014,0.0036
44763,45.943535,-0.492082,95.7,20.97,7.504,306.8,Nov-18,2215295,2019-08-12 11:01:37:785,0.1163,0.0008,9.9753,0.0975,0.0748,9.8059,0.0018,0.0014,0.0036
44764,45.943535,-0.492082,95.7,20.97,7.504,306.8,Nov-18,2215296,2019-08-12 11:01:37:786,0.1163,0.0008,9.9753,0.0975,0.0748,9.8059,0.0018,0.0014,0.0036
44765,45.943535,-0.492082,95.7,20.97,7.504,306.8,Nov-18,2215296,2019-08-12 11:01:37:786,0.1163,0.0008,9.9753,0.0975,0.0748,9.8059,0.0018,0.0014,0.0036
44766,45.943535,-0.492082,95.7,20.97,7.504,306.8,Nov-18,2215297,2019-08-12 11:01:37:787,0.1163,0.0008,9.9753,0.0975,0.0748,9.8059,0.0018,0.0014,0.0036
44767,45.943535,-0.492082,95.7,20.97,7.504,306.8,Nov-18,2215297,2019-08-12 11:01:37:787,0.1163,0.0008,9.9753,0.0975,0.0748,9.8059,0.0018,0.0014,0.0036
44768,45.943535,-0.492082,95.7,20.97,7.504,306.8,Nov-18,2215297,2019-08-12 11:01:37:787,0.1163,0.0008,9.9753,0.0975,0.0748,9.8059,0.0018,0.0014,0.0036
44769,45.943535,-0.492082,95.7,20.97,7.504,306.8,Nov-18,2215298,2019-08-12 11:01:37:788,0.1163,0.0008,9.9753,0.0975,0.0748,9.8059,0.0018,0.0014,0.0036
44770,45.943535,-0.492082,95.7,20.97,7.504,306.8,Nov-18,2215298,2019-08-12 11:01:37:788,0.1163,0.0008,9.9753,0.0975,0.0748,9.8059,0.0018,0.0014,0.0036
44771,45.943535,-0.492082,95.7,20.97,7.504,306.8,Nov-18,2215299,2019-08-12 11:01:37:789,0.1163,0.0008,9.9753,0.0975,0.0748,9.8059,0.0018,0.0014,0.0036
44772,45.943535,-0.492082,95.7,20.97,7.504,306.8,Nov-18,2215299,2019-08-12 11:01:37:789,0.1163,0.0008,9.9753,0.0975,0.0748,9.8059,0.0018,0.0014,0.0036
44773,45.943535,-0.492082,95.7,20.97,7.504,306.8,Nov-18,2215300,2019-08-12 11:01:37:790,0.1163,0.0008,9.9753,0.0975,0.0748,9.8059,0.0018,0.0014,0.0036
44774,45.943535,-0.492082,95.7,20.97,7.504,306.8,Nov-18,2215300,2019-08-12 11:01:37:790,0.1163,0.0008,9.9753,0.0975,0.0748,9.8059,0.0018,0.0014,0.0036
44775,45.943535,-0.492082,95.7,20.97,7.504,306.8,Nov-18,2215300,2019-08-12 11:01:37:790,0.1163,0.0008,9.9753,0.0975,0.0748,9.8059,0.0018,0.0014,0.0036
44776,45.943535,-0.492082,95.7,20.97,7.504,306.8,Nov-18,2215301,2019-08-12 11:01:37:791,0.1163,0.0008,9.9753,0.0975,0.0748,9.8059,0.0018,0.0014,0.0036
44777,45.943535,-0.492082,95.7,20.97,7.504,306.8,Nov-18,2215301,2019-08-12 11:01:37:791,0.1163,0.0008,9.9753,0.0975,0.0748,9.8059,0.0018,0.0014,0.0036
44778,45.943535,-0.492082,95.7,20.97,7.504,306.8,Nov-18,2215303,2019-08-12 11:01:37:793,0.1163,0.0008,9.9753,0.0975,0.0748,9.8059,0.0018,0.0014,0.0036
44779,45.943535,-0.492082,95.7,20.97,7.504,306.8,Nov-18,2215303,2019-08-12 11:01:37:793,0.1163,0.0008,9.9753,0.0975,0.0748,9.8059,0.0018,0.0014,0.0036
44780,45.943535,-0.492082,95.7,20.97,7.504,306.8,Nov-18,2215304,2019-08-12 11:01:37:794,0.1163,0.0008,9.9753,0.0975,0.0748,9.8059,0.0018,0.0014,0.0036
44781,45.943535,-0.492082,95.7,20.97,7.504,306.8,Nov-18,2215304,2019-08-12 11:01:37:794,0.1163,0.0008,9.9753,0.0975,0.0748,9.8059,0.0018,0.0014,0.0036
44782,45.943535,-0.492082,95.7,20.97,7.504,306.8,Nov-18,2215304,2019-08-12 11:01:37:794,0.1163,0.0008,9.9753,0.0975,0.0748,9.8059,0.0018,0.0014,0.0036
44783,45.943535,-0.492082,95.7,20.97,7.504,306.8,Nov-18,2215305,2019-08-12 11:01:37:795,0.1163,0.0008,9.9753,0.0975,0.0748,9.8059,0.0018,0.0014,0.0036
44784,45.943535,-0.492082,95.7,20.97,7.504,306.8,Nov-18,2215308,2019-08-12 11:01:37:798,0.1163,0.0008,9.9753,0.0975,0.0748,9.8059,0.0018,0.0014,0.0036
44785,45.943535,-0.492082,95.7,20.97,7.504,306.8,Nov-18,2215308,2019-08-12 11:01:37:798,0.1163,0.0008,9.9753,0.0975,0.0748,9.8059,0.0018,0.0014,0.0036
44786,45.943535,-0.492082,95.7,20.97,7.504,306.8,Nov-18,2215309,2019-08-12 11:01:37:799,0.1163,0.0008,9.9753,0.0975,0.0748,9.8059,0.0018,0.0014,0.0036
44787,45.943535,-0.492082,95.7,20.97,7.504,306.8,Nov-18,2215310,2019-08-12 11:01:37:800,0.1163,0.0008,9.9753,0.0975,0.0748,9.8059,0.0018,0.0014,0.0036
44788,45.943535,-0.492082,95.7,20.97,7.504,306.8,Nov-18,2215310,2019-08-12 11:01:37:800,0.1163,0.0008,9.9753,0.0975,0.0748,9.8059,0.0018,0.0014,0.0036
44789,45.943535,-0.492082,95.7,20.97,7.504,306.8,Nov-18,2215310,2019-08-12 11:01:37:800,0.1163,0.0008,9.9753,0.0975,0.0748,9.8059,0.0018,0.0014,0.0036
44790,45.943535,-0.492082,95.7,20.97,7.504,306.8,Nov-18,2215311,2019-08-12 11:01:37:801,0.1163,0.0008,9.9753,0.0975,0.0748,9.8059,0.0018,0.0014,0.0036
44791,45.943535,-0.492082,95.7,20.97,7.504,306.8,Nov-18,2215311,2019-08-12 11:01:37:801,0.1163,0.0008,9.9753,0.0975,0.0748,9.8059,0.0018,0.0014,0.0036
44792,45.943535,-0.492082,95.7,20.97,7.504,306.8,Nov-18,2215314,2019-08-12 11:01:37:804,0.1163,0.0008,9.9753,0.0975,0.0748,9.8059,0.0018,0.0014,0.0036
44793,45.943535,-0.492082,95.7,20.97,7.504,306.8,Nov-18,2215315,2019-08-12 11:01:37:805,0.1163,0.0008,9.9753,0.0975,0.0748,9.8059,0.0018,0.0014,0.0036
44794,45.943535,-0.492082,95.7,20.97,7.504,306.8,Nov-18,2215316,2019-08-12 11:01:37:806,0.1163,0.0008,9.9753,0.0975,0.0748,9.8059,0.0018,0.0014,0.0036
44795,45.943535,-0.492082,95.7,20.97,7.504,306.8,Nov-18,2215409,2019-08-12 11:01:37:899,0.1163,0.0008,9.9753,0.0975,0.0748,9.8059,0.0018,0.0014,0.0036
44796,45.943535,-0.492082,95.7,20.97,7.504,306.8,Nov-18,2215509,2019-08-12 11:01:37:999,0.181,0.2175,9.9741,-0.1547,-0.0713,9.8052,-0.0004,0.0003,0.0036
44797,45.943535,-0.492082,95.7,20.97,7.504,306.8,Nov-18,2215608,2019-08-12 11:01:38:098,0.1151,-0.0626,9.9771,-0.1547,-0.0713,9.8052,-0.0004,0.0003,0.0036
44798,45.943535,-0.492082,95.7,20.97,7.504,306.8,Nov-18,2215708,2019-08-12 11:01:38:198,-0.1973,0.084,10.0232,-0.1352,-0.0646,9.8055,-0.0174,-0.0029,0.0036
44799,45.943535,-0.492082,95.7,20.97,7.504,306.8,Nov-18,2215809,2019-08-12 11:01:38:299,-0.1159,-0.0914,10.3811,-0.1337,-0.056,9.8056,0.0145,-0.0018,0.0025
44800,45.943535,-0.492082,95.7,20.97,7.504,306.8,Nov-18,2215909,2019-08-12 11:01:38:399,-0.247,-0.0189,9.612,-0.14,-0.0562,9.8055,-0.0142,0.0099,0.0047
44801,45.943535,-0.492082,95.7,20.97,7.504,306.8,Nov-18,2216009,2019-08-12 11:01:38:499,-0.074,0.2241,9.6311,-0.1477,-0.0521,9.8054,-0.0025,0.0078,0.0047
44802,45.943535,-0.492082,95.7,20.97,7.504,306.8,Nov-18,2216109,2019-08-12 11:01:38:599,-0.1602,-0.0171,9.6192,-0.1528,-0.0488,9.8053,-0.0004,0.0067,0.0036
44803,45.943535,-0.492082,95.7,20.97,7.504,306.8,Nov-18,2216209,2019-08-12 11:01:38:699,-0.1548,0.1169,9.6228,-0.1562,-0.037,9.8053,-0.0014,0.0078,0.0057
44804,45.943535,-0.492082,95.7,20.97,7.504,306.8,Nov-18,2216309,2019-08-12 11:01:38:799,-0.0567,0.175,9.7419,-0.1538,-0.0101,9.8054,-0.0014,0.0024,0.0047
44805,45.943535,-0.492082,95.7,20.97,7.504,306.8,Nov-18,2216409,2019-08-12 11:01:38:899,-0.1105,-0.1608,9.585,-0.145,-0.0052,9.8056,-0.0046,0.0088,0.0015
44806,45.943535,-0.492082,95.7,20.97,7.504,306.8,Nov-18,2216509,2019-08-12 11:01:38:999,-0.0184,-0.0213,9.6371,-0.1454,0.0104,9.8056,0.0007,0.0173,0.0036
44807,45.943535,-0.492082,95.7,20.97,7.504,306.8,Nov-18,2216609,2019-08-12 11:01:39:099,-0.0657,0.1517,9.9837,-0.145,0.0097,9.8056,0.0018,-0.0082,0.0036
44808,45.943535,-0.492082,95.7,20.97,7.504,306.8,Nov-18,2216708,2019-08-12 11:01:39:198,-0.1985,0.1445,9.8963,-0.138,0.0146,9.8057,0.006,-0.0072,0.0047
44809,45.943535,-0.492082,95.7,20.97,7.504,306.8,Nov-18,2216809,2019-08-12 11:01:39:299,-0.1369,0.0972,9.8041,-0.1208,0.0231,9.8059,0.0082,-0.0061,0.0057
44810,45.943535,-0.492082,95.7,20.97,7.504,306.8,Nov-18,2216909,2019-08-12 11:01:39:399,-0.1525,-0.0375,9.4851,-0.1129,0.0232,9.806,0.0007,0.012,0.0036
44811,45.943535,-0.492082,95.7,20.97,7.504,306.8,Nov-18,2217009,2019-08-12 11:01:39:499,-0.1261,-0.0243,10.2183,-0.1126,0.0368,9.8059,0.006,0.0088,0.0036
44812,45.943535,-0.492082,95.7,20.97,7.504,306.8,Nov-18,2217109,2019-08-12 11:01:39:599,-0.1788,0.1726,9.6886,-0.1208,0.0372,9.8058,-0.0089,0.0109,0.0036
44813,45.943535,-0.492082,95.7,20.97,7.504,306.8,Nov-18,2217209,2019-08-12 11:01:39:699,-0.1878,0.0266,9.2002,-0.1245,0.0372,9.8058,-0.0057,0.0024,0.0057
44814,45.943535,-0.492082,95.7,20.97,7.504,306.8,Nov-18,2217309,2019-08-12 11:01:39:799,-0.1525,-0.1291,9.6425,-0.1217,0.0386,9.8058,0.0071,0.0035,0.0036
44815,45.943535,-0.492082,95.7,20.97,7.504,306.8,Nov-18,2217409,2019-08-12 11:01:39:899,0.0744,0.1391,9.6072,-0.1065,0.0368,9.806,-0.0121,0.0088,0.0057
44816,45.943535,-0.492082,95.7,20.97,7.504,306.8,Nov-18,2217509,2019-08-12 11:01:39:999,-0.1692,0.2289,9.2355,-0.1019,0.0497,9.806,-0.0068,0.0046,0.0047
44817,45.943535,-0.492082,95.7,20.97,7.504,306.8,Nov-18,2217610,2019-08-12 11:01:40:100,-0.2231,-0.162,9.4899,-0.1026,0.0283,9.8061,-0.0163,0.0088,0.0047
44818,45.943535,-0.492082,95.7,20.97,7.504,306.8,Nov-18,2217710,2019-08-12 11:01:40:200,-0.5451,0.0098,9.7981,-0.091,0.0372,9.8062,0.005,-0.0199,0.0015
44819,45.943535,-0.492082,95.7,20.97,7.504,306.8,Nov-18,2217810,2019-08-12 11:01:40:300,-0.1141,0.081,9.6964,-0.0811,0.0605,9.8061,0.0167,0.0014,0.0036
44820,45.943535,-0.492082,95.7,20.97,7.504,306.8,Nov-18,2217910,2019-08-12 11:01:40:400,-0.1489,-0.2278,9.7293,-0.0678,0.0569,9.8063,-0.0014,-0.0157,0.0047
44821,45.943535,-0.492082,95.7,20.97,7.504,306.8,Nov-18,2218009,2019-08-12 11:01:40:499,0.1217,-0.0034,10.0705,-0.0562,0.0521,9.8064,-0.0036,-0.005,-0.0007
44822,45.943535,-0.492082,95.7,20.97,7.504,306.8,Nov-18,2218109,2019-08-12 11:01:40:599,-0.177,-0.3475,9.6826,-0.0628,0.0485,9.8063,0.0028,0.012,-0.0028
44823,45.943535,-0.492082,95.7,20.97,7.504,306.8,Nov-18,2218209,2019-08-12 11:01:40:699,-0.0501,0.1169,9.4677,-0.0685,0.0414,9.8063,-0.0068,0.0141,-0.0028
44824,45.943535,-0.492082,95.7,20.97,7.504,306.8,Nov-18,2218310,2019-08-12 11:01:40:800,0.1935,-0.2781,9.7209,-0.0409,-0.0022,9.8066,-0.0004,-0.005,0.0004
44825,45.943535,-0.492082,95.7,20.97,7.504,306.8,Nov-18,2218409,2019-08-12 11:01:40:899,0.1343,-0.2129,10.1369,-0.0283,-0.0222,9.8066,-0.0004,0.0024,-0.0028
44826,45.943535,-0.492082,95.7,20.97,7.504,306.8,Nov-18,2218509,2019-08-12 11:01:40:999,-0.0214,-0.0794,9.3953,-0.0102,-0.0349,9.8066,0.0039,0.0046,-0.0028
44827,45.943535,-0.492082,95.7,20.97,7.504,306.8,Nov-18,2218608,2019-08-12 11:01:41:098,0.0295,-0.1554,9.621,-0.0184,-0.0474,9.8065,-0.0163,0.0152,-0.0017
44828,45.943535,-0.492082,95.7,20.97,7.504,306.8,Nov-18,2218709,2019-08-12 11:01:41:199,0.0331,-0.1913,9.6221,-0.0165,-0.0341,9.8066,0.0209,-0.004,-0.0028
44829,45.943535,-0.492082,95.7,20.97,7.504,306.8,Nov-18,2218809,2019-08-12 11:01:41:299,0.1606,-0.0962,10.159,-0.0139,-0.0333,9.8066,0.0092,0.0003,-0.0007
44830,45.943535,-0.492082,95.7,20.97,7.504,306.8,Nov-18,2218908,2019-08-12 11:01:41:398,-0.1201,0.105,9.6341,-0.0386,-0.0463,9.8065,-0.0025,-0.0018,-0.0017
44831,45.943535,-0.492082,95.7,20.97,7.504,306.8,Nov-18,2219009,2019-08-12 11:01:41:499,-0.0567,0.1606,10.265,-0.0618,-0.0431,9.8064,-0.0142,0.0067,-0.0017
44832,45.943535,-0.492082,95.7,20.97,7.504,306.8,Nov-18,2219109,2019-08-12 11:01:41:599,-0.3338,-0.2626,9.8406,-0.1072,-0.0514,9.8059,-0.0121,-0.0008,-0.0049
44833,45.943535,-0.492082,95.7,20.97,7.504,306.8,Nov-18,2219209,2019-08-12 11:01:41:699,-0.2003,0.0391,9.7,-0.1359,-0.0603,9.8055,-0.0195,0.0141,-0.0028
44834,45.943535,-0.492082,95.7,20.97,7.504,306.8,Nov-18,2219308,2019-08-12 11:01:41:798,-0.435,-0.3392,9.8987,-0.1751,-0.0916,9.8047,-0.0142,0.0014,-0.0007
44835,45.943535,-0.492082,95.7,20.97,7.504,306.8,Nov-18,2219409,2019-08-12 11:01:41:899,-0.3973,-0.0285,10.1734,-0.1775,-0.0951,9.8046,-0.0057,0.0003,-0.0017
44836,45.943535,-0.492082,95.7,20.97,7.504,306.8,Nov-18,2219510,2019-08-12 11:01:42:000,-0.1058,-0.2661,10.0226,-0.1629,-0.1024,9.8048,0.0007,-0.021,-0.0028
44837,45.943535,-0.492082,95.7,20.97,7.504,306.8,Nov-18,2219609,2019-08-12 11:01:42:099,-0.0651,-0.2296,9.8089,-0.1639,-0.1039,9.8047,0.0018,0.0024,-0.0007
44838,45.943535,-0.492082,95.7,20.97,7.504,306.8,Nov-18,2219709,2019-08-12 11:01:42:199,-0.1135,-0.3206,9.7999,-0.1706,-0.0995,9.8047,0.0028,0.0056,-0.0017
44839,45.943535,-0.492082,95.7,20.97,7.504,306.8,Nov-18,2219809,2019-08-12 11:01:42:299,-0.2153,0.0128,9.9891,-0.1707,-0.0972,9.8047,0.0028,-0.0029,-0.0007
44840,45.943535,-0.492082,95.7,20.97,7.504,306.8,Nov-18,2219909,2019-08-12 11:01:42:399,-0.0208,-0.2931,9.4809,-0.1812,-0.0949,9.8045,0.0082,0.0195,-0.0017
44841,45.943535,-0.492082,95.7,20.97,7.504,306.8,Nov-18,2220351,2019-08-12 11:01:42:841,0.0074,0.1445,9.6802,-0.1904,-0.0919,9.8044,0.0007,0.012,0.0004
44842,45.943535,-0.492082,95.7,20.97,7.504,306.8,Nov-18,2220351,2019-08-12 11:01:42:841,0.0074,0.1445,9.6802,-0.1904,-0.0919,9.8044,0.0007,0.012,0.0004
44843,45.943535,-0.492082,95.7,20.97,7.504,306.8,Nov-18,2220352,2019-08-12 11:01:42:842,0.0074,0.1445,9.6802,-0.1904,-0.0919,9.8044,0.0007,0.012,0.0004
44844,45.943535,-0.492082,95.7,20.97,7.504,306.8,Nov-18,2220353,2019-08-12 11:01:42:843,0.0074,0.1445,9.6802,-0.1904,-0.0919,9.8044,0.0007,0.012,0.0004
44845,45.943535,-0.492082,95.7,20.97,7.504,306.8,Nov-18,2220353,2019-08-12 11:01:42:843,0.0074,0.1445,9.6802,-0.1904,-0.0919,9.8044,0.0007,0.012,0.0004
44846,45.944687,-0.494074,74.83,21.1,9.648001,308.7,Dec-17,2220418,2019-08-12 11:01:42:908,0.0074,0.1445,9.6802,-0.1904,-0.0919,9.8044,0.0007,0.012,0.0004
44847,45.944687,-0.494074,74.83,21.1,9.648001,308.7,Dec-17,2220518,2019-08-12 11:01:43:008,0.0074,0.1445,9.6802,-0.1904,-0.0919,9.8044,0.0007,0.012,0.0004
44848,45.944687,-0.494074,74.83,21.1,9.648001,308.7,Dec-17,2220618,2019-08-12 11:01:43:108,-0.0405,0.011,9.4516,-0.1182,-0.0804,9.8056,0.0018,-0.0104,0.0025
44849,45.944687,-0.494074,74.83,21.1,9.648001,308.7,Dec-17,2220718,2019-08-12 11:01:43:208,-0.0788,-0.0159,10.1567,-0.1101,-0.0767,9.8057,0.0039,-0.0093,0.0015
44850,45.944687,-0.494074,74.83,21.1,9.648001,308.7,Dec-17,2220818,2019-08-12 11:01:43:308,-0.0788,-0.0159,10.1567,-0.1101,-0.0767,9.8057,0.0039,-0.0093,0.0015
44851,45.944687,-0.494074,74.83,21.1,9.648001,308.7,Dec-17,2220918,2019-08-12 11:01:43:408,-0.0788,-0.0159,10.1567,-0.1101,-0.0767,9.8057,0.0039,-0.0093,0.0015
44852,45.944687,-0.494074,74.83,21.1,9.648001,308.7,Dec-17,2221327,2019-08-12 11:01:43:817,-0.0136,0.108,9.7353,-0.1213,-0.0582,9.8057,-0.0163,0.0109,0.0004
44853,45.944687,-0.494074,74.83,21.1,9.648001,308.7,Dec-17,2221327,2019-08-12 11:01:43:817,-0.0136,0.108,9.7353,-0.1213,-0.0582,9.8057,-0.0163,0.0109,0.0004
44854,45.944687,-0.494074,74.83,21.1,9.648001,308.7,Dec-17,2221328,2019-08-12 11:01:43:818,-0.0136,0.108,9.7353,-0.1213,-0.0582,9.8057,-0.0163,0.0109,0.0004
44855,45.944687,-0.494074,74.83,21.1,9.648001,308.7,Dec-17,2221328,2019-08-12 11:01:43:818,-0.0136,0.108,9.7353,-0.1213,-0.0582,9.8057,-0.0163,0.0109,0.0004
44856,45.944687,-0.494074,74.83,21.1,9.648001,308.7,Dec-17,2221417,2019-08-12 11:01:43:907,-0.0136,0.108,9.7353,-0.1213,-0.0582,9.8057,-0.0163,0.0109,0.0004
44857,45.944687,-0.494074,74.83,21.1,9.648001,308.7,Dec-17,2221517,2019-08-12 11:01:44:007,-0.0136,0.108,9.7353,-0.1213,-0.0582,9.8057,-0.0163,0.0109,0.0004
44858,45.944687,-0.494074,74.83,21.1,9.648001,308.7,Dec-17,2221618,2019-08-12 11:01:44:108,-0.013,-0.2045,9.6114,-0.1099,-0.1196,9.8053,0.005,-0.0008,-0.0092
44859,45.944687,-0.494074,74.83,21.1,9.648001,308.7,Dec-17,2221717,2019-08-12 11:01:44:207,-0.0866,0.2013,9.7598,-0.0986,-0.1181,9.8054,-0.0036,-0.005,0.0004
44860,45.944687,-0.494074,74.83,21.1,9.648001,308.7,Dec-17,2221817,2019-08-12 11:01:44:307,-0.1393,0.1199,9.7437,-0.0961,-0.1182,9.8055,-0.0046,0.0003,0.0025
44861,45.944687,-0.494074,74.83,21.1,9.648001,308.7,Dec-17,2221917,2019-08-12 11:01:44:407,-0.2518,0.1211,9.5,-0.1102,-0.1129,9.8054,0.0039,0.0195,0.0036
44862,45.944687,-0.494074,74.83,21.1,9.648001,308.7,Dec-17,2222017,2019-08-12 11:01:44:507,-0.0423,-0.1045,10.1591,-0.1048,-0.0962,9.8056,0.0007,0.0109,0.0025
44863,45.944687,-0.494074,74.83,21.1,9.648001,308.7,Dec-17,2222117,2019-08-12 11:01:44:607,-0.1094,-0.2224,9.7951,-0.0945,-0.066,9.806,0.0103,-0.0018,0.0036
44864,45.944687,-0.494074,74.83,21.1,9.648001,308.7,Dec-17,2222217,2019-08-12 11:01:44:707,-0.1836,0.0864,9.6365,-0.0823,-0.0478,9.8062,-0.0025,-0.0082,0.0047
44865,45.944687,-0.494074,74.83,21.1,9.648001,308.7,Dec-17,2222317,2019-08-12 11:01:44:807,-0.174,-0.144,9.752,-0.0686,-0.0041,9.8064,0.0167,-0.004,0.0036
44866,45.944687,-0.494074,74.83,21.1,9.648001,308.7,Dec-17,2222417,2019-08-12 11:01:44:907,-0.2787,-0.1434,9.5611,-0.063,-0.0116,9.8064,-0.0163,0.0099,0.0047
44867,45.944687,-0.494074,74.83,21.1,9.648001,308.7,Dec-17,2222517,2019-08-12 11:01:45:007,-0.1201,0.105,9.7574,-0.0731,0.0032,9.8064,0.005,0.0056,0.0047
44868,45.944687,-0.494074,74.83,21.1,9.648001,308.7,Dec-17,2222617,2019-08-12 11:01:45:107,0.0139,0.1684,9.6856,-0.077,-0.003,9.8063,-0.0121,0.0131,0.0047
44869,45.944687,-0.494074,74.83,21.1,9.648001,308.7,Dec-17,2222717,2019-08-12 11:01:45:207,-0.1393,-0.0064,9.8293,-0.0756,-0.0081,9.8064,-0.0142,-0.0082,0.0047
44870,45.944687,-0.494074,74.83,21.1,9.648001,308.7,Dec-17,2222817,2019-08-12 11:01:45:307,-0.1537,-0.0608,9.2121,-0.0669,-0.012,9.8064,0.0007,-0.0082,0.0047
44871,45.944687,-0.494074,74.83,21.1,9.648001,308.7,Dec-17,2222917,2019-08-12 11:01:45:407,0.0193,-0.1907,9.8915,-0.0652,-0.0176,9.8064,0.0007,-0.0104,0.0015
44872,45.944687,-0.494074,74.83,21.1,9.648001,308.7,Dec-17,2223018,2019-08-12 11:01:45:508,-0.1285,-0.1099,9.5108,-0.0634,-0.0117,9.8064,0.0135,-0.0008,0.0004
44873,45.944687,-0.494074,74.83,21.1,9.648001,308.7,Dec-17,2223117,2019-08-12 11:01:45:607,-0.2758,-0.2907,9.6006,-0.089,-0.0102,9.8062,0.006,0.0216,-0.0028
44874,45.944687,-0.494074,74.83,21.1,9.648001,308.7,Dec-17,2223217,2019-08-12 11:01:45:707,-0.4218,-0.4014,9.4061,-0.0916,-0.0131,9.8062,0.0028,-0.0008,-0.0038
44875,45.944687,-0.494074,74.83,21.1,9.648001,308.7,Dec-17,2223317,2019-08-12 11:01:45:807,-0.1321,-0.2614,9.9137,-0.0928,-0.0196,9.8062,-0.0121,-0.0008,-0.0038
44876,45.944687,-0.494074,74.83,21.1,9.648001,308.7,Dec-17,2223417,2019-08-12 11:01:45:907,-0.0303,-0.3446,9.8029,-0.0895,-0.0376,9.8062,-0.0163,-0.0061,-0.0038
44877,45.944687,-0.494074,74.83,21.1,9.648001,308.7,Dec-17,2223517,2019-08-12 11:01:46:007,0.1612,0.0547,9.6724,-0.0881,-0.0426,9.8062,-0.0025,-0.0061,-0.0049
44878,45.944687,-0.494074,74.83,21.1,9.648001,308.7,Dec-17,2223618,2019-08-12 11:01:46:108,-0.1225,-0.4523,10.0663,-0.0993,-0.0568,9.806,-0.0121,0.0163,-0.0017
44879,45.944687,-0.494074,74.83,21.1,9.648001,308.7,Dec-17,2223717,2019-08-12 11:01:46:207,-0.3075,-0.2171,9.8179,-0.0926,-0.0683,9.806,-0.0004,-0.0189,-0.0038
44880,45.944687,-0.494074,74.83,21.1,9.648001,308.7,Dec-17,2223818,2019-08-12 11:01:46:308,-0.1327,0.0421,9.6054,-0.0861,-0.0685,9.806,0.0007,-0.0029,-0.0028
44881,45.944687,-0.494074,74.83,21.1,9.648001,308.7,Dec-17,2223917,2019-08-12 11:01:46:407,-0.177,-0.1883,9.685,-0.0947,-0.0878,9.8058,0.0007,0.0067,-0.0038
44882,45.944687,-0.494074,74.83,21.1,9.648001,308.7,Dec-17,2224018,2019-08-12 11:01:46:508,-0.0782,-0.311,10.2255,-0.0989,-0.0843,9.8058,0.0103,0.0035,-0.0028
44883,45.944687,-0.494074,74.83,21.1,9.648001,308.7,Dec-17,2224117,2019-08-12 11:01:46:607,-0.1716,-0.3906,9.5533,-0.0969,-0.0932,9.8057,0.0114,0.0035,-0.006
44884,45.944687,-0.494074,74.83,21.1,9.648001,308.7,Dec-17,2224218,2019-08-12 11:01:46:708,-0.0806,-0.1566,9.7885,-0.0877,-0.1048,9.8057,-0.0014,0.012,-0.006
44885,45.944687,-0.494074,74.83,21.1,9.648001,308.7,Dec-17,2224318,2019-08-12 11:01:46:808,-0.2368,-0.226,9.2983,-0.0959,-0.1268,9.8054,0.0007,-0.0029,-0.0038
44886,45.944687,-0.494074,74.83,21.1,9.648001,308.7,Dec-17,2224418,2019-08-12 11:01:46:908,-0.2422,0.1636,9.6545,-0.0912,-0.1265,9.8054,-0.0078,-0.005,-0.0038
44887,45.944687,-0.494074,74.83,21.1,9.648001,308.7,Dec-17,2224517,2019-08-12 11:01:47:007,0.0325,0.011,9.536,-0.0891,-0.143,9.8052,-0.0174,0.0024,0.0004
44888,45.944687,-0.494074,74.83,21.1,9.648001,308.7,Dec-17,2224617,2019-08-12 11:01:47:107,-0.2063,-0.0872,9.591,-0.0904,-0.1432,9.8052,0.0071,0.0024,-0.0017
44889,45.944687,-0.494074,74.83,21.1,9.648001,308.7,Dec-17,2224718,2019-08-12 11:01:47:208,-0.244,-0.1907,9.7975,-0.0921,-0.1383,9.8052,0.0092,0.0056,-0.0007
44890,45.944687,-0.494074,74.83,21.1,9.648001,308.7,Dec-17,2224817,2019-08-12 11:01:47:307,-0.2722,-0.4313,9.8705,-0.1018,-0.1263,9.8053,0.0209,0.0141,-0.0007
44891,45.944687,-0.494074,74.83,21.1,9.648001,308.7,Dec-17,2224917,2019-08-12 11:01:47:407,-0.095,-0.3003,9.6976,-0.1052,-0.1177,9.8054,0.0007,-0.005,-0.0007
44892,45.944687,-0.494074,74.83,21.1,9.648001,308.7,Dec-17,2225018,2019-08-12 11:01:47:508,-0.256,-0.2404,10.0543,-0.0877,-0.1095,9.8056,0.0167,-0.0359,-0.0028
44893,45.944687,-0.494074,74.83,21.1,9.648001,308.7,Dec-17,2225117,2019-08-12 11:01:47:607,-0.153,-0.2362,9.7987,-0.0598,-0.1205,9.8057,-0.0142,-0.0072,-0.0028
44894,45.944687,-0.494074,74.83,21.1,9.648001,308.7,Dec-17,2225219,2019-08-12 11:01:47:709,-0.1614,0.0439,9.1433,-0.0744,-0.1323,9.8055,-0.0238,0.0269,0.0004
44895,45.944687,-0.494074,74.83,21.1,9.648001,308.7,Dec-17,2225319,2019-08-12 11:01:47:809,0.084,0.005,9.2139,-0.1057,-0.1336,9.8052,0.0039,0.028,-0.0028
44896,45.944687,-0.494074,74.83,21.1,9.648001,308.7,Dec-17,2225419,2019-08-12 11:01:47:909,-0.2644,-0.1776,9.5234,-0.1239,-0.1443,9.8048,-0.0153,0.0216,-0.0017
44897,45.944687,-0.494074,74.83,21.1,9.648001,308.7,Dec-17,2225520,2019-08-12 11:01:48:010,-0.2518,0.1427,9.4001,-0.1166,-0.1463,9.8049,0.0039,-0.0135,-0.0038
44898,45.944687,-0.494074,74.83,21.1,9.648001,308.7,Dec-17,2225617,2019-08-12 11:01:48:107,-0.004,-0.317,10.2428,-0.1056,-0.1427,9.805,0.0135,-0.0135,-0.0049
44899,45.944687,-0.494074,74.83,21.1,9.648001,308.7,Dec-17,2225717,2019-08-12 11:01:48:207,-0.1441,-0.3206,10.0663,-0.0922,-0.1384,9.8052,0.0135,-0.0104,-0.0124
44900,45.944687,-0.494074,74.83,21.1,9.648001,308.7,Dec-17,2225818,2019-08-12 11:01:48:308,0.0571,-0.3619,10.3117,-0.0809,-0.1441,9.8053,-0.0025,-0.0135,-0.0177
44901,45.944687,-0.494074,74.83,21.1,9.648001,308.7,Dec-17,2226247,2019-08-12 11:01:48:737,-0.0884,-0.5433,9.7143,-0.0739,-0.1613,9.805,0.0007,-0.0061,-0.0188
44902,45.944687,-0.494074,74.83,21.1,9.648001,308.7,Dec-17,2226247,2019-08-12 11:01:48:737,-0.0884,-0.5433,9.7143,-0.0739,-0.1613,9.805,0.0007,-0.0061,-0.0188
44903,45.944687,-0.494074,74.83,21.1,9.648001,308.7,Dec-17,2226248,2019-08-12 11:01:48:738,-0.0884,-0.5433,9.7143,-0.0739,-0.1613,9.805,0.0007,-0.0061,-0.0188
44904,45.944687,-0.494074,74.83,21.1,9.648001,308.7,Dec-17,2226248,2019-08-12 11:01:48:738,-0.0884,-0.5433,9.7143,-0.0739,-0.1613,9.805,0.0007,-0.0061,-0.0188
44905,45.944687,-0.494074,74.83,21.1,9.648001,308.7,Dec-17,2226249,2019-08-12 11:01:48:739,-0.0884,-0.5433,9.7143,-0.0739,-0.1613,9.805,0.0007,-0.0061,-0.0188
44906,45.944687,-0.494074,74.83,21.1,9.648001,308.7,Dec-17,2226249,2019-08-12 11:01:48:739,-0.0884,-0.5433,9.7143,-0.0739,-0.1613,9.805,0.0007,-0.0061,-0.0188
44907,45.944687,-0.494074,74.83,21.1,9.648001,308.7,Dec-17,2226250,2019-08-12 11:01:48:740,-0.0884,-0.5433,9.7143,-0.0739,-0.1613,9.805,0.0007,-0.0061,-0.0188
44908,45.944687,-0.494074,74.83,21.1,9.648001,308.7,Dec-17,2226250,2019-08-12 11:01:48:740,-0.0884,-0.5433,9.7143,-0.0739,-0.1613,9.805,0.0007,-0.0061,-0.0188
44909,45.944687,-0.494074,74.83,21.1,9.648001,308.7,Dec-17,2226251,2019-08-12 11:01:48:741,-0.0884,-0.5433,9.7143,-0.0739,-0.1613,9.805,0.0007,-0.0061,-0.0188
44910,45.944687,-0.494074,74.83,21.1,9.648001,308.7,Dec-17,2226251,2019-08-12 11:01:48:741,-0.0884,-0.5433,9.7143,-0.0739,-0.1613,9.805,0.0007,-0.0061,-0.0188
44911,45.944687,-0.494074,74.83,21.1,9.648001,308.7,Dec-17,2226252,2019-08-12 11:01:48:742,-0.0884,-0.5433,9.7143,-0.0739,-0.1613,9.805,0.0007,-0.0061,-0.0188
44912,45.944687,-0.494074,74.83,21.1,9.648001,308.7,Dec-17,2226252,2019-08-12 11:01:48:742,-0.0884,-0.5433,9.7143,-0.0739,-0.1613,9.805,0.0007,-0.0061,-0.0188
44913,45.944687,-0.494074,74.83,21.1,9.648001,308.7,Dec-17,2226253,2019-08-12 11:01:48:743,-0.0884,-0.5433,9.7143,-0.0739,-0.1613,9.805,0.0007,-0.0061,-0.0188
44914,45.944687,-0.494074,74.83,21.1,9.648001,308.7,Dec-17,2226253,2019-08-12 11:01:48:743,-0.0884,-0.5433,9.7143,-0.0739,-0.1613,9.805,0.0007,-0.0061,-0.0188
44915,45.944687,-0.494074,74.83,21.1,9.648001,308.7,Dec-17,2226254,2019-08-12 11:01:48:744,-0.0884,-0.5433,9.7143,-0.0739,-0.1613,9.805,0.0007,-0.0061,-0.0188
44916,45.944687,-0.494074,74.83,21.1,9.648001,308.7,Dec-17,2226254,2019-08-12 11:01:48:744,-0.0884,-0.5433,9.7143,-0.0739,-0.1613,9.805,0.0007,-0.0061,-0.0188
44917,45.944687,-0.494074,74.83,21.1,9.648001,308.7,Dec-17,2226255,2019-08-12 11:01:48:745,-0.0884,-0.5433,9.7143,-0.0739,-0.1613,9.805,0.0007,-0.0061,-0.0188
44918,45.944687,-0.494074,74.83,21.1,9.648001,308.7,Dec-17,2226255,2019-08-12 11:01:48:745,-0.0884,-0.5433,9.7143,-0.0739,-0.1613,9.805,0.0007,-0.0061,-0.0188
44919,45.944687,-0.494074,74.83,21.1,9.648001,308.7,Dec-17,2226256,2019-08-12 11:01:48:746,-0.0884,-0.5433,9.7143,-0.0739,-0.1613,9.805,0.0007,-0.0061,-0.0188
44920,45.944687,-0.494074,74.83,21.1,9.648001,308.7,Dec-17,2226256,2019-08-12 11:01:48:746,-0.0884,-0.5433,9.7143,-0.0739,-0.1613,9.805,0.0007,-0.0061,-0.0188
44921,45.944687,-0.494074,74.83,21.1,9.648001,308.7,Dec-17,2226257,2019-08-12 11:01:48:747,-0.0884,-0.5433,9.7143,-0.0739,-0.1613,9.805,0.0007,-0.0061,-0.0188
44922,45.944687,-0.494074,74.83,21.1,9.648001,308.7,Dec-17,2226258,2019-08-12 11:01:48:748,-0.0884,-0.5433,9.7143,-0.0739,-0.1613,9.805,0.0007,-0.0061,-0.0188
44923,45.944687,-0.494074,74.83,21.1,9.648001,308.7,Dec-17,2226259,2019-08-12 11:01:48:749,-0.0884,-0.5433,9.7143,-0.0739,-0.1613,9.805,0.0007,-0.0061,-0.0188
44924,45.944687,-0.494074,74.83,21.1,9.648001,308.7,Dec-17,2226260,2019-08-12 11:01:48:750,-0.0884,-0.5433,9.7143,-0.0739,-0.1613,9.805,0.0007,-0.0061,-0.0188
44925,45.944687,-0.494074,74.83,21.1,9.648001,308.7,Dec-17,2226261,2019-08-12 11:01:48:751,-0.0884,-0.5433,9.7143,-0.0739,-0.1613,9.805,0.0007,-0.0061,-0.0188
44926,45.944687,-0.494074,74.83,21.1,9.648001,308.7,Dec-17,2226335,2019-08-12 11:01:48:825,-0.0884,-0.5433,9.7143,-0.0739,-0.1613,9.805,0.0007,-0.0061,-0.0188
44927,45.944687,-0.494074,74.83,21.1,9.648001,308.7,Oct-17,2226704,2019-08-12 11:01:49:194,-0.0884,-0.5433,9.7143,-0.0739,-0.1613,9.805,0.0007,-0.0061,-0.0188
44928,45.944687,-0.494074,74.83,21.1,9.648001,308.7,Oct-17,2226705,2019-08-12 11:01:49:195,-0.0884,-0.5433,9.7143,-0.0739,-0.1613,9.805,0.0007,-0.0061,-0.0188
44929,45.944687,-0.494074,74.83,21.1,9.648001,308.7,Oct-17,2226706,2019-08-12 11:01:49:196,-0.0884,-0.5433,9.7143,-0.0739,-0.1613,9.805,0.0007,-0.0061,-0.0188
44930,45.944687,-0.494074,74.83,21.1,9.648001,308.7,Oct-17,2226706,2019-08-12 11:01:49:196,-0.0884,-0.5433,9.7143,-0.0739,-0.1613,9.805,0.0007,-0.0061,-0.0188
44931,45.944687,-0.494074,74.83,21.1,9.648001,308.7,Oct-17,2226707,2019-08-12 11:01:49:197,-0.0884,-0.5433,9.7143,-0.0739,-0.1613,9.805,0.0007,-0.0061,-0.0188
44932,45.944687,-0.494074,74.83,21.1,9.648001,308.7,Oct-17,2226707,2019-08-12 11:01:49:197,-0.0884,-0.5433,9.7143,-0.0739,-0.1613,9.805,0.0007,-0.0061,-0.0188
44933,45.944687,-0.494074,74.83,21.1,9.648001,308.7,Oct-17,2226708,2019-08-12 11:01:49:198,-0.0884,-0.5433,9.7143,-0.0739,-0.1613,9.805,0.0007,-0.0061,-0.0188
44934,45.944687,-0.494074,74.83,21.1,9.648001,308.7,Oct-17,2226710,2019-08-12 11:01:49:200,-0.0884,-0.5433,9.7143,-0.0739,-0.1613,9.805,0.0007,-0.0061,-0.0188
44935,45.944687,-0.494074,74.83,21.1,9.648001,308.7,Oct-17,2226711,2019-08-12 11:01:49:201,-0.0884,-0.5433,9.7143,-0.0739,-0.1613,9.805,0.0007,-0.0061,-0.0188
44936,45.94572,-0.496032,79.39,22.14,6.432,311.0,Oct-17,2226786,2019-08-12 11:01:49:276,-0.0884,-0.5433,9.7143,-0.0739,-0.1613,9.805,0.0007,-0.0061,-0.0188
44937,45.94572,-0.496032,79.39,22.14,6.432,311.0,Oct-17,2227163,2019-08-12 11:01:49:653,-0.0884,-0.5433,9.7143,-0.0739,-0.1613,9.805,0.0007,-0.0061,-0.0188
44938,45.94572,-0.496032,79.39,22.14,6.432,311.0,Oct-17,2227164,2019-08-12 11:01:49:654,-0.0884,-0.5433,9.7143,-0.0739,-0.1613,9.805,0.0007,-0.0061,-0.0188
44939,45.94572,-0.496032,79.39,22.14,6.432,311.0,Oct-17,2227165,2019-08-12 11:01:49:655,-0.0884,-0.5433,9.7143,-0.0739,-0.1613,9.805,0.0007,-0.0061,-0.0188
44940,45.94572,-0.496032,79.39,22.14,6.432,311.0,Oct-17,2227186,2019-08-12 11:01:49:676,-0.0884,-0.5433,9.7143,-0.0739,-0.1613,9.805,0.0007,-0.0061,-0.0188
44941,45.94572,-0.496032,79.39,22.14,6.432,311.0,Oct-17,2227286,2019-08-12 11:01:49:776,-0.0884,-0.5433,9.7143,-0.0739,-0.1613,9.805,0.0007,-0.0061,-0.0188
44942,45.94572,-0.496032,79.39,22.14,6.432,311.0,Oct-17,2227386,2019-08-12 11:01:49:876,-0.0998,-0.2177,9.77,-0.3772,-0.3285,9.7939,-0.0121,-0.0135,-0.0188
44943,45.94572,-0.496032,79.39,22.14,6.432,311.0,Oct-17,2227722,2019-08-12 11:01:50:212,-0.0998,-0.2177,9.77,-0.3889,-0.3076,9.7941,-0.0121,-0.0135,-0.0188
44944,45.94572,-0.496032,79.39,22.14,6.432,311.0,Oct-17,2227723,2019-08-12 11:01:50:213,-0.0998,-0.2177,9.77,-0.3889,-0.3076,9.7941,-0.0121,-0.0135,-0.0188
44945,45.94572,-0.496032,79.39,22.14,6.432,311.0,Oct-17,2227723,2019-08-12 11:01:50:213,-0.0998,-0.2177,9.77,-0.3889,-0.3076,9.7941,-0.0121,-0.0135,-0.0188
44946,45.94572,-0.496032,79.39,22.14,6.432,311.0,Oct-17,2227724,2019-08-12 11:01:50:214,-0.0998,-0.2177,9.77,-0.3889,-0.3076,9.7941,-0.0121,-0.0135,-0.0188
44947,45.94572,-0.496032,79.39,22.14,6.432,311.0,Oct-17,2227724,2019-08-12 11:01:50:214,-0.0998,-0.2177,9.77,-0.3889,-0.3076,9.7941,-0.0121,-0.0135,-0.0188
44948,45.94572,-0.496032,79.39,22.14,6.432,311.0,Oct-17,2227725,2019-08-12 11:01:50:215,-0.0998,-0.2177,9.77,-0.3889,-0.3076,9.7941,-0.0121,-0.0135,-0.0188
44949,45.94572,-0.496032,79.39,22.14,6.432,311.0,Oct-17,2227726,2019-08-12 11:01:50:216,-0.0998,-0.2177,9.77,-0.3889,-0.3076,9.7941,-0.0121,-0.0135,-0.0188
44950,45.94572,-0.496032,79.39,22.14,6.432,311.0,Oct-17,2227727,2019-08-12 11:01:50:217,-0.0998,-0.2177,9.77,-0.3889,-0.3076,9.7941,-0.0121,-0.0135,-0.0188
44951,45.94572,-0.496032,79.39,22.14,6.432,311.0,Oct-17,2227727,2019-08-12 11:01:50:217,-0.0998,-0.2177,9.77,-0.3889,-0.3076,9.7941,-0.0121,-0.0135,-0.0188
44952,45.94572,-0.496032,79.39,22.14,6.432,311.0,Oct-17,2227739,2019-08-12 11:01:50:229,-0.0998,-0.2177,9.77,-0.3889,-0.3076,9.7941,-0.0121,-0.0135,-0.0188
44953,45.94572,-0.496032,79.39,22.14,6.432,311.0,Oct-17,2227740,2019-08-12 11:01:50:230,-0.0998,-0.2177,9.77,-0.3889,-0.3076,9.7941,-0.0121,-0.0135,-0.0188
44954,45.94572,-0.496032,79.39,22.14,6.432,311.0,Oct-17,2227791,2019-08-12 11:01:50:281,-0.0998,-0.2177,9.77,-0.3889,-0.3076,9.7941,-0.0121,-0.0135,-0.0188
44955,45.94572,-0.496032,79.39,22.14,6.432,311.0,Oct-17,2227890,2019-08-12 11:01:50:380,-0.0998,-0.2177,9.77,-0.3889,-0.3076,9.7941,-0.0121,-0.0135,-0.0188
44956,45.94572,-0.496032,79.39,22.14,6.432,311.0,Oct-17,2228266,2019-08-12 11:01:50:756,-0.517,-0.1171,9.8837,-0.4803,-0.4568,9.7842,0.0039,-0.0125,-0.007
44957,45.94572,-0.496032,79.39,22.14,6.432,311.0,Oct-17,2228267,2019-08-12 11:01:50:757,-0.517,-0.1171,9.8837,-0.4803,-0.4568,9.7842,0.0039,-0.0125,-0.007
44958,45.94572,-0.496032,79.39,22.14,6.432,311.0,Oct-17,2228268,2019-08-12 11:01:50:758,-0.517,-0.1171,9.8837,-0.4803,-0.4568,9.7842,0.0039,-0.0125,-0.007
44959,45.94572,-0.496032,79.39,22.14,6.432,311.0,Oct-17,2228268,2019-08-12 11:01:50:758,-0.517,-0.1171,9.8837,-0.4803,-0.4568,9.7842,0.0039,-0.0125,-0.007
44960,45.94572,-0.496032,79.39,22.14,6.432,311.0,Oct-17,2228268,2019-08-12 11:01:50:758,-0.517,-0.1171,9.8837,-0.4803,-0.4568,9.7842,0.0039,-0.0125,-0.007
44961,45.94572,-0.496032,79.39,22.14,6.432,311.0,Oct-17,2228269,2019-08-12 11:01:50:759,-0.517,-0.1171,9.8837,-0.4803,-0.4568,9.7842,0.0039,-0.0125,-0.007
44962,45.94572,-0.496032,79.39,22.14,6.432,311.0,Oct-17,2228269,2019-08-12 11:01:50:759,-0.517,-0.1171,9.8837,-0.4803,-0.4568,9.7842,0.0039,-0.0125,-0.007
44963,45.94572,-0.496032,79.39,22.14,6.432,311.0,Oct-17,2228271,2019-08-12 11:01:50:761,-0.517,-0.1171,9.8837,-0.4803,-0.4568,9.7842,0.0039,-0.0125,-0.007
44964,45.94572,-0.496032,79.39,22.14,6.432,311.0,Oct-17,2228271,2019-08-12 11:01:50:761,-0.517,-0.1171,9.8837,-0.4803,-0.4568,9.7842,0.0039,-0.0125,-0.007
44965,45.94572,-0.496032,79.39,22.14,6.432,311.0,Oct-17,2228272,2019-08-12 11:01:50:762,-0.517,-0.1171,9.8837,-0.4803,-0.4568,9.7842,0.0039,-0.0125,-0.007
44966,45.94572,-0.496032,79.39,22.14,6.432,311.0,Oct-17,2228275,2019-08-12 11:01:50:765,-0.517,-0.1171,9.8837,-0.4803,-0.4568,9.7842,0.0039,-0.0125,-0.007
44967,45.94572,-0.496032,79.39,22.14,6.432,311.0,Oct-17,2228276,2019-08-12 11:01:50:766,-0.517,-0.1171,9.8837,-0.4803,-0.4568,9.7842,0.0039,-0.0125,-0.007
44968,45.94572,-0.496032,79.39,22.14,6.432,311.0,Oct-17,2228276,2019-08-12 11:01:50:766,-0.517,-0.1171,9.8837,-0.4803,-0.4568,9.7842,0.0039,-0.0125,-0.007
44969,45.94572,-0.496032,79.39,22.14,6.432,311.0,Oct-17,2228277,2019-08-12 11:01:50:767,-0.517,-0.1171,9.8837,-0.4803,-0.4568,9.7842,0.0039,-0.0125,-0.007
44970,45.94572,-0.496032,79.39,22.14,6.432,311.0,Oct-17,2228278,2019-08-12 11:01:50:768,-0.517,-0.1171,9.8837,-0.4803,-0.4568,9.7842,0.0039,-0.0125,-0.007
44971,45.94572,-0.496032,79.39,22.14,6.432,311.0,Oct-17,2228281,2019-08-12 11:01:50:771,-0.517,-0.1171,9.8837,-0.4803,-0.4568,9.7842,0.0039,-0.0125,-0.007
44972,45.94572,-0.496032,79.39,22.14,6.432,311.0,Oct-17,2228282,2019-08-12 11:01:50:772,-0.517,-0.1171,9.8837,-0.4803,-0.4568,9.7842,0.0039,-0.0125,-0.007
44973,45.94572,-0.496032,79.39,22.14,6.432,311.0,Oct-17,2228284,2019-08-12 11:01:50:774,-0.517,-0.1171,9.8837,-0.4803,-0.4568,9.7842,0.0039,-0.0125,-0.007
44974,45.94572,-0.496032,79.39,22.14,6.432,311.0,Oct-17,2228285,2019-08-12 11:01:50:775,-0.517,-0.1171,9.8837,-0.4803,-0.4568,9.7842,0.0039,-0.0125,-0.007
44975,45.94572,-0.496032,79.39,22.14,6.432,311.0,Oct-17,2228286,2019-08-12 11:01:50:776,-0.517,-0.1171,9.8837,-0.4803,-0.4568,9.7842,0.0039,-0.0125,-0.007
44976,45.94572,-0.496032,79.39,22.14,6.432,311.0,Oct-17,2228287,2019-08-12 11:01:50:777,-0.517,-0.1171,9.8837,-0.4803,-0.4568,9.7842,0.0039,-0.0125,-0.007
44977,45.94572,-0.496032,79.39,22.14,6.432,311.0,Oct-17,2228288,2019-08-12 11:01:50:778,-0.517,-0.1171,9.8837,-0.4803,-0.4568,9.7842,0.0039,-0.0125,-0.007
44978,45.94572,-0.496032,79.39,22.14,6.432,311.0,Oct-17,2228288,2019-08-12 11:01:50:778,-0.517,-0.1171,9.8837,-0.4803,-0.4568,9.7842,0.0039,-0.0125,-0.007
44979,45.94572,-0.496032,79.39,22.14,6.432,311.0,Oct-17,2228289,2019-08-12 11:01:50:779,-0.517,-0.1171,9.8837,-0.4803,-0.4568,9.7842,0.0039,-0.0125,-0.007
44980,45.94572,-0.496032,79.39,22.14,6.432,311.0,Oct-17,2228291,2019-08-12 11:01:50:781,-0.517,-0.1171,9.8837,-0.4803,-0.4568,9.7842,0.0039,-0.0125,-0.007
44981,45.94572,-0.496032,79.39,22.14,6.432,311.0,Oct-17,2228292,2019-08-12 11:01:50:782,-0.517,-0.1171,9.8837,-0.4803,-0.4568,9.7842,0.0039,-0.0125,-0.007
44982,45.94572,-0.496032,79.39,22.14,6.432,311.0,Oct-17,2228293,2019-08-12 11:01:50:783,-0.517,-0.1171,9.8837,-0.4803,-0.4568,9.7842,0.0039,-0.0125,-0.007
44983,45.94572,-0.496032,79.39,22.14,6.432,311.0,Oct-17,2228294,2019-08-12 11:01:50:784,-0.517,-0.1171,9.8837,-0.4803,-0.4568,9.7842,0.0039,-0.0125,-0.007
44984,45.94572,-0.496032,79.39,22.14,6.432,311.0,Oct-17,2228295,2019-08-12 11:01:50:785,-0.517,-0.1171,9.8837,-0.4803,-0.4568,9.7842,0.0039,-0.0125,-0.007
44985,45.94572,-0.496032,79.39,22.14,6.432,311.0,Oct-17,2228295,2019-08-12 11:01:50:785,-0.517,-0.1171,9.8837,-0.4803,-0.4568,9.7842,0.0039,-0.0125,-0.007
44986,45.94572,-0.496032,79.39,22.14,6.432,311.0,Oct-17,2228296,2019-08-12 11:01:50:786,-0.517,-0.1171,9.8837,-0.4803,-0.4568,9.7842,0.0039,-0.0125,-0.007
44987,45.94572,-0.496032,79.39,22.14,6.432,311.0,Oct-17,2228296,2019-08-12 11:01:50:786,-0.517,-0.1171,9.8837,-0.4803,-0.4568,9.7842,0.0039,-0.0125,-0.007
44988,45.94572,-0.496032,79.39,22.14,6.432,311.0,Oct-17,2228296,2019-08-12 11:01:50:786,-0.517,-0.1171,9.8837,-0.4803,-0.4568,9.7842,0.0039,-0.0125,-0.007
44989,45.94572,-0.496032,79.39,22.14,6.432,311.0,Oct-17,2228297,2019-08-12 11:01:50:787,-0.517,-0.1171,9.8837,-0.4803,-0.4568,9.7842,0.0039,-0.0125,-0.007
44990,45.94572,-0.496032,79.39,22.14,6.432,311.0,Oct-17,2228297,2019-08-12 11:01:50:787,-0.517,-0.1171,9.8837,-0.4803,-0.4568,9.7842,0.0039,-0.0125,-0.007
44991,45.94572,-0.496032,79.39,22.14,6.432,311.0,Oct-17,2228297,2019-08-12 11:01:50:787,-0.517,-0.1171,9.8837,-0.4803,-0.4568,9.7842,0.0039,-0.0125,-0.007
44992,45.94572,-0.496032,79.39,22.14,6.432,311.0,Oct-17,2228298,2019-08-12 11:01:50:788,-0.517,-0.1171,9.8837,-0.4803,-0.4568,9.7842,0.0039,-0.0125,-0.007
44993,45.94572,-0.496032,79.39,22.14,6.432,311.0,Oct-17,2228298,2019-08-12 11:01:50:788,-0.517,-0.1171,9.8837,-0.4803,-0.4568,9.7842,0.0039,-0.0125,-0.007
44994,45.94572,-0.496032,79.39,22.14,6.432,311.0,Oct-17,2228298,2019-08-12 11:01:50:788,-0.517,-0.1171,9.8837,-0.4803,-0.4568,9.7842,0.0039,-0.0125,-0.007
44995,45.94572,-0.496032,79.39,22.14,6.432,311.0,Oct-17,2228314,2019-08-12 11:01:50:804,-0.517,-0.1171,9.8837,-0.4803,-0.4568,9.7842,0.0039,-0.0125,-0.007
44996,45.94572,-0.496032,79.39,22.14,6.432,311.0,Oct-17,2228414,2019-08-12 11:01:50:904,-0.517,-0.1171,9.8837,-0.4803,-0.4568,9.7842,0.0039,-0.0125,-0.007
44997,45.94572,-0.496032,79.39,22.14,6.432,311.0,Oct-17,2228514,2019-08-12 11:01:51:004,-0.5876,-0.5151,9.4432,-0.0425,-0.502,9.7937,-0.0195,-0.0135,-0.0241
44998,45.94572,-0.496032,79.39,22.14,6.432,311.0,Oct-17,2228615,2019-08-12 11:01:51:105,0.1522,-0.6355,9.9687,-0.0203,-0.4995,9.7939,0.0028,-0.004,-0.0188
44999,45.94572,-0.496032,79.39,22.14,6.432,311.0,Oct-17,2228715,2019-08-12 11:01:51:205,0.3126,-0.3972,10.3063,0.0049,-0.5026,9.7938,0.0007,-0.0104,-0.0177
45000,45.94572,-0.496032,79.39,22.14,6.432,311.0,Oct-17,2228815,2019-08-12 11:01:51:305,-0.0854,-0.5535,10.0645,0.0274,-0.4966,9.794,0.0018,-0.0189,-0.0188
45001,45.94572,-0.496032,79.39,22.14,6.432,311.0,Oct-17,2228916,2019-08-12 11:01:51:406,0.1959,-0.557,9.688,0.0361,-0.4954,9.7941,-0.0004,-0.0061,-0.0188
45002,45.94572,-0.496032,79.39,22.14,6.432,311.0,Oct-17,2229015,2019-08-12 11:01:51:505,0.0624,-0.5331,10.0028,0.0356,-0.5152,9.793,-0.0185,0.0088,-0.0188
45003,45.94572,-0.496032,79.39,22.14,6.432,311.0,Oct-17,2229115,2019-08-12 11:01:51:605,0.1259,-0.4792,9.9124,0.0396,-0.5031,9.7937,-0.0036,-0.0029,-0.0198
45004,45.94572,-0.496032,79.39,22.14,6.432,311.0,Oct-17,2229216,2019-08-12 11:01:51:706,0.1881,-0.3128,9.7239,0.0358,-0.5105,9.7933,-0.0057,0.0131,-0.0177
45005,45.94572,-0.496032,79.39,22.14,6.432,311.0,Oct-17,2229315,2019-08-12 11:01:51:805,0.1797,-0.5199,9.8382,0.0302,-0.5126,9.7932,-0.0078,0.0099,-0.0177
45006,45.94572,-0.496032,79.39,22.14,6.432,311.0,Oct-17,2229416,2019-08-12 11:01:51:906,0.3007,-0.4553,9.9992,0.0438,-0.4923,9.7942,0.0092,-0.0018,-0.0177
45007,45.94572,-0.496032,79.39,22.14,6.432,311.0,Oct-17,2229515,2019-08-12 11:01:52:005,0.0594,-0.6235,9.9579,0.0543,-0.4953,9.794,0.005,-0.0104,-0.0177
45008,45.94572,-0.496032,79.39,22.14,6.432,311.0,Oct-17,2229615,2019-08-12 11:01:52:105,0.0181,-0.332,9.8412,0.0746,-0.507,9.7932,-0.0153,-0.0146,-0.0177
45009,45.94572,-0.496032,79.39,22.14,6.432,311.0,Oct-17,2229716,2019-08-12 11:01:52:206,0.0241,-0.6774,10.6379,0.0845,-0.5091,9.7931,-0.0089,-0.0146,-0.0188
45010,45.94572,-0.496032,79.39,22.14,6.432,311.0,Oct-17,2229815,2019-08-12 11:01:52:305,0.0648,-0.5535,10.2572,0.0851,-0.5168,9.7927,-0.0004,0.0056,-0.0188
45011,45.94572,-0.496032,79.39,22.14,6.432,311.0,Oct-17,2229915,2019-08-12 11:01:52:405,-0.0764,-0.6001,9.9328,0.0716,-0.5141,9.7929,0.0082,0.0152,-0.0188
45012,45.94572,-0.496032,79.39,22.14,6.432,311.0,Oct-17,2230015,2019-08-12 11:01:52:505,0.0146,-0.6384,9.2899,0.051,-0.5101,9.7932,0.005,0.012,-0.0198
45013,45.94572,-0.496032,79.39,22.14,6.432,311.0,Oct-17,2230115,2019-08-12 11:01:52:605,0.151,-0.4146,10.1381,0.0547,-0.5087,9.7933,-0.0014,-0.0093,-0.0209
45014,45.94572,-0.496032,79.39,22.14,6.432,311.0,Oct-17,2230215,2019-08-12 11:01:52:705,0.1827,-0.5995,10.0172,0.0699,-0.5065,9.7933,0.005,-0.0157,-0.0166
45015,45.94572,-0.496032,79.39,22.14,6.432,311.0,Oct-17,2230315,2019-08-12 11:01:52:805,0.0331,-0.3679,10.0753,0.0752,-0.5099,9.7931,-0.0163,0.0024,-0.0177
45016,45.94572,-0.496032,79.39,22.14,6.432,311.0,Oct-17,2230414,2019-08-12 11:01:52:904,-0.0884,-0.6013,10.028,0.0649,-0.517,9.7928,-0.0078,0.0078,-0.0209
45017,45.94572,-0.496032,79.39,22.14,6.432,311.0,Oct-17,2230515,2019-08-12 11:01:53:005,0.0044,-0.5253,9.7155,0.051,-0.5239,9.7925,-0.0014,0.0088,-0.0198
45018,45.94572,-0.496032,79.39,22.14,6.432,311.0,Oct-17,2230615,2019-08-12 11:01:53:105,-0.0531,-0.7845,9.6156,0.0422,-0.5167,9.7929,0.0124,0.0046,-0.0188
45019,45.94572,-0.496032,79.39,22.14,6.432,311.0,Oct-17,2230714,2019-08-12 11:01:53:204,-0.1872,-0.3823,9.6982,0.0362,-0.5053,9.7936,0.0188,-0.0072,-0.0198
45020,45.94572,-0.496032,79.39,22.14,6.432,311.0,Oct-17,2230814,2019-08-12 11:01:53:304,0.0122,-0.2452,10.4631,0.0027,-0.5168,9.793,0.0007,-0.0168,-0.0209
45021,45.94572,-0.496032,79.39,22.14,6.432,311.0,Oct-17,2230914,2019-08-12 11:01:53:404,-0.1189,-0.4236,10.0178,0.009,-0.5171,9.793,0.0018,-0.0061,-0.0188
45022,45.94572,-0.496032,79.39,22.14,6.432,311.0,Oct-17,2231015,2019-08-12 11:01:53:505,-0.1913,-0.4176,10.013,-0.0273,-0.5006,9.7938,0.0018,0.0056,-0.0177
45023,45.94572,-0.496032,79.39,22.14,6.432,311.0,Oct-17,2231115,2019-08-12 11:01:53:605,-0.1183,-0.6522,10.0639,-0.0759,-0.5054,9.7933,0.0103,0.0035,-0.0188
45024,45.94572,-0.496032,79.39,22.14,6.432,311.0,Oct-17,2231215,2019-08-12 11:01:53:705,-0.2111,-0.4924,10.52,-0.1079,-0.4994,9.7933,0.0103,0.0024,-0.0198
45025,45.947098,-0.497777,66.87,21.79,5.36,321.1,13 / 17,2231315,2019-08-12 11:01:53:805,-0.2404,-0.2847,9.3887,-0.1267,-0.5057,9.7928,-0.0142,0.0195,-0.0209
45026,45.947098,-0.497777,66.87,21.79,5.36,321.1,13 / 17,2231415,2019-08-12 11:01:53:905,-0.3075,-0.2919,10.1884,-0.1299,-0.5181,9.7921,-0.0185,-0.0082,-0.022
45027,45.947098,-0.497777,66.87,21.79,5.36,321.1,13 / 17,2231515,2019-08-12 11:01:54:005,-0.3093,-0.4385,9.9412,-0.1146,-0.5315,9.7916,-0.0142,-0.021,-0.0209
45028,45.947098,-0.497777,66.87,21.79,5.36,321.1,13 / 17,2231615,2019-08-12 11:01:54:105,-0.2476,-0.4104,9.3438,-0.1236,-0.5369,9.7912,-0.0142,0.0078,-0.0188
45029,45.947098,-0.497777,66.87,21.79,5.36,321.1,13 / 17,2231715,2019-08-12 11:01:54:205,-0.2213,-0.4134,10.1142,-0.1758,-0.5483,9.7897,-0.0068,0.0056,-0.0198
45030,45.947098,-0.497777,66.87,21.79,5.36,321.1,13 / 17,2231814,2019-08-12 11:01:54:304,-0.265,-0.7683,9.6982,-0.2303,-0.5635,9.7877,-0.0089,0.0014,-0.0209
45031,45.947098,-0.497777,66.87,21.79,5.36,321.1,13 / 17,2231915,2019-08-12 11:01:54:405,-0.1339,-0.2823,9.5449,-0.2298,-0.5572,9.7881,-0.0004,-0.0018,-0.0166
45032,45.947098,-0.497777,66.87,21.79,5.36,321.1,13 / 17,2232015,2019-08-12 11:01:54:505,-0.3236,-0.4601,9.5018,-0.2339,-0.5513,9.7884,0.0145,-0.0029,-0.0177
45033,45.947098,-0.497777,66.87,21.79,5.36,321.1,13 / 17,2232115,2019-08-12 11:01:54:605,-0.3212,-0.6438,10.1082,-0.2304,-0.5315,9.7895,0.0156,-0.0082,-0.0177
45034,45.947098,-0.497777,66.87,21.79,5.36,321.1,13 / 17,2232215,2019-08-12 11:01:54:705,-0.2303,-0.7384,9.8083,-0.2343,-0.5234,9.7899,0.0167,0.0056,-0.0198
45035,45.947098,-0.497777,66.87,21.79,5.36,321.1,13 / 17,2232315,2019-08-12 11:01:54:805,-0.3015,-0.3296,9.5605,-0.2579,-0.5165,9.7896,0.0018,0.0141,-0.023
45036,45.947098,-0.497777,66.87,21.79,5.36,321.1,13 / 17,2232415,2019-08-12 11:01:54:905,-0.5182,-0.4188,9.5485,-0.2589,-0.5198,9.7894,-0.0121,-0.0093,-0.0241
45037,45.947098,-0.497777,66.87,21.79,5.36,321.1,13 / 17,2232515,2019-08-12 11:01:55:005,-0.4793,-0.6803,10.2805,-0.2351,-0.5306,9.7895,-0.0078,-0.0242,-0.0241
45038,45.947098,-0.497777,66.87,21.79,5.36,321.1,13 / 17,2232615,2019-08-12 11:01:55:105,-0.2967,-0.4014,9.9202,-0.228,-0.5331,9.7895,-0.0025,-0.0061,-0.0188
45039,45.947098,-0.497777,66.87,21.79,5.36,321.1,13 / 17,2232715,2019-08-12 11:01:55:205,-0.1812,-0.5768,9.8059,-0.2487,-0.5497,9.7881,0.006,0.0078,-0.0188
45040,45.947098,-0.497777,66.87,21.79,5.36,321.1,13 / 17,2232815,2019-08-12 11:01:55:305,-0.2512,-0.4277,9.7119,-0.2667,-0.5351,9.7884,0.0092,0.0173,-0.0188
45041,45.947098,-0.497777,66.87,21.79,5.36,321.1,13 / 17,2233184,2019-08-12 11:01:55:674,-0.2512,-0.4277,9.7119,-0.2748,-0.5339,9.7883,0.0007,0.0195,-0.0198
45042,45.947098,-0.497777,66.87,21.79,5.36,321.1,13 / 17,2233185,2019-08-12 11:01:55:675,-0.2512,-0.4277,9.7119,-0.2748,-0.5339,9.7883,0.0007,0.0195,-0.0198
45043,45.947098,-0.497777,66.87,21.79,5.36,321.1,13 / 17,2233186,2019-08-12 11:01:55:676,-0.2512,-0.4277,9.7119,-0.2748,-0.5339,9.7883,0.0007,0.0195,-0.0198
45044,45.947098,-0.497777,66.87,21.79,5.36,321.1,13 / 17,2233186,2019-08-12 11:01:55:676,-0.2512,-0.4277,9.7119,-0.2748,-0.5339,9.7883,0.0007,0.0195,-0.0198
45045,45.947098,-0.497777,66.87,21.79,5.36,321.1,13 / 17,2233186,2019-08-12 11:01:55:676,-0.2512,-0.4277,9.7119,-0.2748,-0.5339,9.7883,0.0007,0.0195,-0.0198
45046,45.947098,-0.497777,66.87,21.79,5.36,321.1,13 / 17,2233187,2019-08-12 11:01:55:677,-0.2512,-0.4277,9.7119,-0.2748,-0.5339,9.7883,0.0007,0.0195,-0.0198
45047,45.947098,-0.497777,66.87,21.79,5.36,321.1,13 / 17,2233227,2019-08-12 11:01:55:717,-0.2512,-0.4277,9.7119,-0.2748,-0.5339,9.7883,0.0007,0.0195,-0.0198
45048,45.947098,-0.497777,66.87,21.79,5.36,321.1,13 / 17,2233328,2019-08-12 11:01:55:818,-0.2512,-0.4277,9.7119,-0.2748,-0.5339,9.7883,0.0007,0.0195,-0.0198
45049,45.947098,-0.497777,66.87,21.79,5.36,321.1,13 / 17,2233427,2019-08-12 11:01:55:917,-0.3212,-0.6013,9.5773,-0.2429,-0.5249,9.7896,-0.0036,0.0184,-0.0198
45050,45.947098,-0.497777,66.87,21.79,5.36,321.1,13 / 17,2233528,2019-08-12 11:01:56:018,-0.2554,-0.5828,9.6383,-0.2592,-0.5272,9.789,0.0071,0.0056,-0.0177
45051,45.947098,-0.497777,66.87,21.79,5.36,321.1,13 / 17,2233628,2019-08-12 11:01:56:118,-0.0681,-0.2709,9.5419,-0.2289,-0.5071,9.7909,-0.0025,-0.004,-0.0177
45052,45.947098,-0.497777,66.87,21.79,5.36,321.1,13 / 17,2233728,2019-08-12 11:01:56:218,-0.0621,-0.5923,9.9328,-0.2204,-0.5081,9.791,-0.0004,-0.0093,-0.0166
45053,45.947098,-0.497777,66.87,21.79,5.36,321.1,13 / 17,2233828,2019-08-12 11:01:56:318,-0.0303,-0.6486,10.0435,-0.1975,-0.5025,9.7918,0.0039,-0.0135,-0.0177
45054,45.947098,-0.497777,66.87,21.79,5.36,321.1,13 / 17,2233928,2019-08-12 11:01:56:418,-0.1034,-0.5936,9.8682,-0.1823,-0.4843,9.793,0.0188,0.0067,-0.0166
45055,45.947098,-0.497777,66.87,21.79,5.36,321.1,13 / 17,2234028,2019-08-12 11:01:56:518,-0.0782,-0.508,10.0735,-0.166,-0.4729,9.7938,0.0039,0.0056,-0.0177
45056,45.947098,-0.497777,66.87,21.79,5.36,321.1,13 / 17,2234128,2019-08-12 11:01:56:618,-0.3476,-0.3344,10.1632,-0.1423,-0.4466,9.7954,0.0039,-0.0189,-0.0156
45057,45.947098,-0.497777,66.87,21.79,5.36,321.1,13 / 17,2234228,2019-08-12 11:01:56:718,-0.2057,-0.1584,9.9023,-0.1092,-0.4179,9.7971,-0.0014,-0.021,-0.0156
45058,45.947098,-0.497777,66.87,21.79,5.36,321.1,13 / 17,2234328,2019-08-12 11:01:56:818,-0.0274,-0.3098,9.8813,-0.0882,-0.4123,9.7976,-0.0025,0.0003,-0.0124
45059,45.947098,-0.497777,66.87,21.79,5.36,321.1,13 / 17,2234428,2019-08-12 11:01:56:918,0.0289,-0.1608,9.9891,-0.0921,-0.4201,9.7972,-0.0153,0.0088,-0.0102
45060,45.947098,-0.497777,66.87,21.79,5.36,321.1,13 / 17,2234528,2019-08-12 11:01:57:018,-0.1405,-0.3086,9.8562,-0.0982,-0.4245,9.797,-0.0185,0.012,-0.0092
45061,45.947098,-0.497777,66.87,21.79,5.36,321.1,13 / 17,2234628,2019-08-12 11:01:57:118,-0.0986,-0.0794,9.7514,-0.0914,-0.4067,9.7978,-0.0036,0.0024,-0.0092
45062,45.947098,-0.497777,66.87,21.79,5.36,321.1,13 / 17,2234728,2019-08-12 11:01:57:218,-0.2105,-0.5044,9.5491,-0.0976,-0.4038,9.7978,0.0007,0.0184,-0.0081
45063,45.947098,-0.497777,66.87,21.79,5.36,321.1,13 / 17,2234828,2019-08-12 11:01:57:318,-0.1237,-0.2733,10.0759,-0.0913,-0.392,9.7984,-0.0036,0.0173,-0.007
45064,45.947098,-0.497777,66.87,21.79,5.36,321.1,13 / 17,2234928,2019-08-12 11:01:57:418,-0.2033,-0.426,10.1243,-0.0814,-0.391,9.7985,-0.0057,-0.0157,-0.0049
45065,45.947098,-0.497777,66.87,21.79,5.36,321.1,13 / 17,2235027,2019-08-12 11:01:57:517,-0.3404,-0.2452,10.3961,-0.0732,-0.3827,9.7989,0.0028,-0.0072,-0.006
45066,45.947098,-0.497777,66.87,21.79,5.36,321.1,13 / 17,2235127,2019-08-12 11:01:57:617,-0.1818,0.1259,9.8843,-0.0775,-0.3421,9.8004,0.0039,0.0088,-0.0028
45067,45.947098,-0.497777,66.87,21.79,5.36,321.1,13 / 17,2235228,2019-08-12 11:01:57:718,-0.1273,-0.2572,9.4995,-0.0872,-0.326,9.8008,-0.0174,0.012,-0.0038
45068,45.947098,-0.497777,66.87,21.79,5.36,321.1,13 / 17,2235328,2019-08-12 11:01:57:818,-0.1956,-0.0602,9.7245,-0.1014,-0.3227,9.8008,-0.0014,0.0056,-0.006
45069,45.947098,-0.497777,66.87,21.79,5.36,321.1,13 / 17,2235428,2019-08-12 11:01:57:918,-0.2829,-0.3278,9.834,-0.1054,-0.327,9.8006,-0.0078,-0.0008,-0.0092
45070,45.947098,-0.497777,66.87,21.79,5.36,321.1,13 / 17,2235527,2019-08-12 11:01:58:017,-0.1345,-0.2105,9.5306,-0.1106,-0.315,9.801,0.0156,0.0056,-0.007
45071,45.947098,-0.497777,66.87,21.79,5.36,321.1,13 / 17,2235628,2019-08-12 11:01:58:118,-0.2165,-0.3541,9.6473,-0.1098,-0.307,9.8012,0.005,-0.0061,-0.006
45072,45.947098,-0.497777,66.87,21.79,5.36,321.1,13 / 17,2235728,2019-08-12 11:01:58:218,-0.2536,-0.2614,9.8807,-0.11,-0.3082,9.8012,-0.0036,-0.0029,-0.0081
45073,45.947098,-0.497777,66.87,21.79,5.36,321.1,13 / 17,2235828,2019-08-12 11:01:58:318,-0.071,-0.059,9.9807,-0.1046,-0.3018,9.8014,0.0028,-0.0125,-0.006
45074,45.947098,-0.497777,66.87,21.79,5.36,321.1,13 / 17,2235928,2019-08-12 11:01:58:418,-0.2069,-0.159,9.609,-0.1408,-0.2492,9.8025,0.006,0.0131,0.0004
45075,45.947098,-0.497777,66.87,21.79,5.36,321.1,13 / 17,2236027,2019-08-12 11:01:58:517,-0.1722,-0.156,10.3614,-0.1608,-0.2068,9.8032,0.0039,0.0099,0.0015
45076,45.947098,-0.497777,66.87,21.79,5.36,321.1,13 / 17,2236128,2019-08-12 11:01:58:618,-0.4637,0.0906,9.6042,-0.1939,-0.1598,9.8034,0.0007,-0.005,0.0015
45077,45.947098,-0.497777,66.87,21.79,5.36,321.1,13 / 17,2236228,2019-08-12 11:01:58:718,-0.2422,0.0912,9.8694,-0.2146,-0.142,9.8033,0.0028,-0.004,0.0004
45078,45.947098,-0.497777,66.87,21.79,5.36,321.1,13 / 17,2236328,2019-08-12 11:01:58:818,-0.3087,-0.001,9.998,-0.2535,-0.113,9.8027,-0.0025,0.0046,0.0004
45079,45.947098,-0.497777,66.87,21.79,5.36,321.1,13 / 17,2236428,2019-08-12 11:01:58:918,-0.4278,0.0194,10.0788,-0.2776,-0.0959,9.8023,-0.0046,-0.0061,0.0004
45080,45.947098,-0.497777,66.87,21.79,5.36,321.1,13 / 17,2236528,2019-08-12 11:01:59:018,-0.3931,0.0074,9.4857,-0.2897,-0.085,9.802,-0.0004,0.0184,-0.0007
45081,45.947098,-0.497777,66.87,21.79,5.36,321.1,13 / 17,2236628,2019-08-12 11:01:59:118,-0.6756,-0.0758,9.4941,-0.3151,-0.0778,9.8013,0.0135,0.0301,0.0015
45082,45.947098,-0.497777,66.87,21.79,5.36,321.1,13 / 17,2236728,2019-08-12 11:01:59:218,-0.4876,-0.0213,10.2255,-0.3399,-0.0369,9.8007,0.0454,0.0024,0.0025
45083,45.947098,-0.497777,66.87,21.79,5.36,321.1,13 / 17,2236828,2019-08-12 11:01:59:318,-0.7157,-0.0997,9.2924,-0.3348,-0.0389,9.8009,0.0092,-0.021,-0.0017
45084,45.947098,-0.497777,66.87,21.79,5.36,321.1,13 / 17,2236928,2019-08-12 11:01:59:418,0.1259,0.0679,9.6377,-0.3127,-0.0488,9.8015,-0.0174,-0.0135,-0.007
45085,45.947098,-0.497777,66.87,21.79,5.36,321.1,13 / 17,2237028,2019-08-12 11:01:59:518,-0.2243,0.0726,10.4589,-0.2972,-0.0479,9.802,0.0007,-0.0199,-0.0038
45086,45.947098,-0.497777,66.87,21.79,5.36,321.1,13 / 17,2237128,2019-08-12 11:01:59:618,-0.2853,-0.1859,9.9136,-0.2915,-0.0468,9.8022,0.006,0.0088,0.0025
45087,45.947098,-0.497777,66.87,21.79,5.36,321.1,13 / 17,2237230,2019-08-12 11:01:59:720,-0.4392,-0.0112,9.7814,-0.3024,-0.0438,9.8019,0.005,0.0141,0.0015
45088,45.947098,-0.497777,66.87,21.79,5.36,321.1,13 / 17,2237329,2019-08-12 11:01:59:819,-0.2787,-0.0644,9.6317,-0.305,-0.0502,9.8018,-0.0174,0.0014,-0.0007
45089,45.947098,-0.497777,66.87,21.79,5.36,321.1,13 / 17,2237428,2019-08-12 11:01:59:918,-0.4427,0.0026,9.5994,-0.3076,-0.0362,9.8018,-0.0099,0.0046,-0.0007
45090,45.947098,-0.497777,66.87,21.79,5.36,321.1,13 / 17,2237528,2019-08-12 11:02:00:018,-0.3524,-0.0884,10.1046,-0.301,-0.0291,9.802,0.0092,-0.0135,0.0004
45091,45.947098,-0.497777,66.87,21.79,5.36,321.1,13 / 17,2237628,2019-08-12 11:02:00:118,-0.2255,-0.007,9.9968,-0.2932,-0.0292,9.8022,-0.0014,-0.0114,0.0004
45092,45.947098,-0.497777,66.87,21.79,5.36,321.1,13 / 17,2237727,2019-08-12 11:02:00:217,-0.2871,-0.1782,9.8095,-0.2862,-0.0323,9.8024,0.0071,0.0003,-0.0017
45093,45.947098,-0.497777,66.87,21.79,5.36,321.1,13 / 17,2238092,2019-08-12 11:02:00:582,-0.2871,-0.1782,9.8095,-0.2862,-0.0323,9.8024,0.0071,0.0003,-0.0017
45094,45.947098,-0.497777,66.87,21.79,5.36,321.1,13 / 17,2238092,2019-08-12 11:02:00:582,-0.2871,-0.1782,9.8095,-0.2862,-0.0323,9.8024,0.0071,0.0003,-0.0017
45095,45.947098,-0.497777,66.87,21.79,5.36,321.1,13 / 17,2238093,2019-08-12 11:02:00:583,-0.2871,-0.1782,9.8095,-0.2862,-0.0323,9.8024,0.0071,0.0003,-0.0017
45096,45.947098,-0.497777,66.87,21.79,5.36,321.1,13 / 17,2238093,2019-08-12 11:02:00:583,-0.2871,-0.1782,9.8095,-0.2862,-0.0323,9.8024,0.0071,0.0003,-0.0017
45097,45.947098,-0.497777,66.87,21.79,5.36,321.1,13 / 17,2238094,2019-08-12 11:02:00:584,-0.2871,-0.1782,9.8095,-0.2862,-0.0323,9.8024,0.0071,0.0003,-0.0017
45098,45.947098,-0.497777,66.87,21.79,5.36,321.1,13 / 17,2238094,2019-08-12 11:02:00:584,-0.2871,-0.1782,9.8095,-0.2862,-0.0323,9.8024,0.0071,0.0003,-0.0017
45099,45.947098,-0.497777,66.87,21.79,5.36,321.1,13 / 17,2238095,2019-08-12 11:02:00:585,-0.2871,-0.1782,9.8095,-0.2862,-0.0323,9.8024,0.0071,0.0003,-0.0017
45100,45.947098,-0.497777,66.87,21.79,5.36,321.1,13 / 17,2238105,2019-08-12 11:02:00:595,-0.2871,-0.1782,9.8095,-0.2862,-0.0323,9.8024,0.0071,0.0003,-0.0017
45101,45.947098,-0.497777,66.87,21.79,5.36,321.1,13 / 17,2238107,2019-08-12 11:02:00:597,-0.2871,-0.1782,9.8095,-0.2862,-0.0323,9.8024,0.0071,0.0003,-0.0017
45102,45.947098,-0.497777,66.87,21.79,5.36,321.1,13 / 17,2238107,2019-08-12 11:02:00:597,-0.2871,-0.1782,9.8095,-0.2862,-0.0323,9.8024,0.0071,0.0003,-0.0017
45103,45.947098,-0.497777,66.87,21.79,5.36,321.1,13 / 17,2238108,2019-08-12 11:02:00:598,-0.2871,-0.1782,9.8095,-0.2862,-0.0323,9.8024,0.0071,0.0003,-0.0017
45104,45.947098,-0.497777,66.87,21.79,5.36,321.1,13 / 17,2238109,2019-08-12 11:02:00:599,-0.2871,-0.1782,9.8095,-0.2862,-0.0323,9.8024,0.0071,0.0003,-0.0017
45105,45.947098,-0.497777,66.87,21.79,5.36,321.1,13 / 17,2238110,2019-08-12 11:02:00:600,-0.2871,-0.1782,9.8095,-0.2862,-0.0323,9.8024,0.0071,0.0003,-0.0017
45106,45.947098,-0.497777,66.87,21.79,5.36,321.1,13 / 17,2238172,2019-08-12 11:02:00:662,-0.2871,-0.1782,9.8095,-0.2862,-0.0323,9.8024,0.0071,0.0003,-0.0017
45107,45.947098,-0.497777,66.87,21.79,5.36,321.1,13 / 17,2238554,2019-08-12 11:02:01:044,-0.2871,-0.1782,9.8095,-0.2862,-0.0323,9.8024,0.0071,0.0003,-0.0017
