,GPS LATITUDE (degrees),GPS LONGITUDE (degrees), GPS ALTITUDE (m),GPS SPEED (Kmh),GPS ACCURACY (m),GPS ORIENTATION (Â°), SATELLITES IN RANGE, TIME SINCE START (ms), DATE (YYYY-MO-DD HH-MI-SS_SSS),ACCELEROMETER X (m/s²) , ACCELEROMETER Y (m/s²), ACCELEROMETER Z (m/s²), GRAVITY X (m/s²), GRAVITY Y (m/s²), GRAVITY Z (m/s²), GYROSCOPE Yaw (rad/s), GYROSCOPE Pitch (rad/s), GYROSCOPE Roll (rad/s)
32886,45.87278,-0.342282,96.73,16.8,4.288,112.2,13 / 15,3288610,2019-08-09 23:30:05:837,0.0785,-1.3089,9.5298,0.4262,-0.8692,9.7587,-0.0063,0.0152,0.0573
32887,45.87278,-0.342282,96.73,16.8,4.288,112.2,13 / 15,3288711,2019-08-09 23:30:05:938,0.2407,-1.0874,10.0224,0.4331,-0.8663,9.7587,-0.0027,0.0083,0.0621
32888,45.87278,-0.342282,96.73,16.8,4.288,112.2,13 / 15,3288811,2019-08-09 23:30:06:038,0.3096,-0.7558,10.108,0.4384,-0.8598,9.759,0.0147,0.0038,0.0309
32889,45.87278,-0.342282,96.73,16.8,4.288,112.2,13 / 15,3288911,2019-08-09 23:30:06:138,0.5089,-0.8582,9.6728,0.4563,-0.8493,9.7591,0.0202,0.0264,0.0209
32890,45.87278,-0.342282,96.73,16.8,4.288,112.2,13 / 15,3289011,2019-08-09 23:30:06:238,-0.1872,-0.6828,9.5956,0.4798,-0.8667,9.7565,-0.0359,0.0135,0.0561
32891,45.87278,-0.342282,96.73,16.8,4.288,112.2,13 / 15,3289110,2019-08-09 23:30:06:337,0.0666,-1.0168,9.4699,0.4798,-0.8493,9.758,0.0485,0.0273,0.044
32892,45.87278,-0.342282,96.73,16.8,4.288,112.2,13 / 15,3289210,2019-08-09 23:30:06:437,0.3557,-1.4184,10.2403,0.5067,-0.8592,9.7558,0.028,0.0056,0.0539
32893,45.87278,-0.342282,96.73,16.8,4.288,112.2,13 / 15,3289310,2019-08-09 23:30:06:537,0.5005,-0.8019,9.9326,0.5088,-0.8677,9.7549,0.0159,0.0093,0.0706
32894,45.87278,-0.342282,96.73,16.8,4.288,112.2,13 / 15,3289410,2019-08-09 23:30:06:637,-0.3782,-0.4739,9.3987,0.5265,-0.8705,9.7537,0.0293,0.0385,0.0563
32895,45.87278,-0.342282,96.73,16.8,4.288,112.2,13 / 15,3289510,2019-08-09 23:30:06:737,0.479,-1.337,8.5751,0.5418,-0.8889,9.7512,-0.0603,0.0423,0.0394
32896,45.87278,-0.342282,96.73,16.8,4.288,112.2,15 / 17,3289610,2019-08-09 23:30:06:837,-0.0017,-1.3316,9.1796,0.5845,-0.8622,9.7512,0.0033,0.0078,0.0178
32897,45.87278,-0.342282,96.73,16.8,4.288,112.2,15 / 17,3289710,2019-08-09 23:30:06:937,-0.116,-0.8091,10.1128,0.6061,-0.8243,9.7531,-0.003,0.0331,0.0848
32898,45.87278,-0.342282,96.73,16.8,4.288,112.2,15 / 17,3289811,2019-08-09 23:30:07:038,0.3622,-0.9162,11.3781,0.6404,-0.902,9.7441,0.0968,0.0523,0.0455
32899,45.87278,-0.342282,96.73,16.8,4.288,112.2,15 / 17,3289910,2019-08-09 23:30:07:137,0.3778,-1.5627,10.6413,0.6802,-0.9629,9.7355,0.0788,0.0533,0.0462
32900,45.87278,-0.342282,96.73,16.8,4.288,112.2,15 / 17,3290011,2019-08-09 23:30:07:238,0.4185,-2.1163,9.4879,0.7372,-1.0114,9.7265,0.0339,0.0419,0.0596
32901,45.87278,-0.342282,96.73,16.8,4.288,112.2,15 / 17,3290110,2019-08-09 23:30:07:337,0.4035,-2.157,9.0821,0.7579,-1.0005,9.726,-0.0084,0.0146,0.098
32902,45.87278,-0.342282,96.73,16.8,4.288,112.2,15 / 17,3290210,2019-08-09 23:30:07:437,0.3688,-0.4847,9.4131,0.7549,-0.946,9.7317,-0.0285,-0.0148,0.0686
32903,45.87278,-0.342282,96.73,16.8,4.288,112.2,15 / 17,3290310,2019-08-09 23:30:07:537,-0.2722,0.048,9.9937,0.75,-0.9141,9.7351,-0.0204,-0.0004,0.1124
32904,45.87278,-0.342282,96.73,16.8,4.288,112.2,15 / 17,3290410,2019-08-09 23:30:07:637,-0.1088,0.1582,9.4819,0.7284,-0.9108,9.7371,-0.0182,-0.0002,0.1131
32905,45.87278,-0.342282,96.73,16.8,4.288,112.2,15 / 17,3290512,2019-08-09 23:30:07:739,-0.2178,-3.0626,9.9063,0.7358,-0.9543,9.7323,0.0344,0.0317,0.0826
32906,45.87278,-0.342282,96.73,16.8,4.288,112.2,14 / 17,3290610,2019-08-09 23:30:07:837,0.0139,-3.241,10.1475,0.7623,-0.965,9.7292,0.0239,0.0241,0.0938
32907,45.87278,-0.342282,96.73,16.8,4.288,112.2,14 / 17,3290710,2019-08-09 23:30:07:937,0.4317,-3.3733,9.3203,0.7728,-0.951,9.7298,0.041,0.0182,0.0458
32908,45.87278,-0.342282,96.73,16.8,4.288,112.2,14 / 17,3290810,2019-08-09 23:30:08:037,0.2617,0.5053,9.4244,0.7862,-0.9745,9.7264,-0.0807,0.005,0.0426
32909,45.87278,-0.342282,96.73,16.8,4.288,112.2,14 / 17,3290910,2019-08-09 23:30:08:137,0.4981,1.5354,10.1325,0.7845,-0.9589,9.7281,0.0257,0.006,0.1008
32910,45.87278,-0.342282,96.73,16.8,4.288,112.2,14 / 17,3291011,2019-08-09 23:30:08:238,0.2324,0.2097,9.9308,0.7815,-0.9579,9.7284,-0.0117,0.0092,0.0954
32911,45.87278,-0.342282,96.73,16.8,4.288,112.2,14 / 17,3291110,2019-08-09 23:30:08:337,-0.1788,-0.7905,10.1194,0.7824,-0.9725,9.7269,-0.0082,-0.0148,0.0503
32912,45.87278,-0.342282,96.73,16.8,4.288,112.2,14 / 17,3291210,2019-08-09 23:30:08:437,0.2964,-1.1969,9.8045,0.7704,-0.9646,9.7286,0.0202,0.0034,0.0829
32913,45.87278,-0.342282,96.73,16.8,4.288,112.2,14 / 17,3291311,2019-08-09 23:30:08:538,-0.1675,-1.431,9.9542,0.7508,-0.9699,9.7296,0.0354,-0.0067,0.0904
32914,45.87278,-0.342282,96.73,16.8,4.288,112.2,14 / 17,3291411,2019-08-09 23:30:08:638,0.8076,-1.3071,9.9159,0.732,-0.9952,9.7285,-0.0169,-0.0324,0.0769
32915,45.87278,-0.342282,96.73,16.8,4.288,112.2,14 / 17,3291511,2019-08-09 23:30:08:738,0.7208,-2.5473,10.2995,0.688,-1.0263,9.7285,0.0144,-0.0398,0.0972
32916,45.87278,-0.342282,96.73,16.8,4.288,112.2,14 / 17,3291610,2019-08-09 23:30:08:837,0.2778,-1.8775,10.1218,0.6641,-1.0176,9.7311,0.0237,-0.0448,0.0871
32917,45.87278,-0.342282,96.73,16.8,4.288,112.2,14 / 17,3291713,2019-08-09 23:30:08:940,-0.3387,-0.6834,9.6136,0.5987,-1.0381,9.7332,0.0032,-0.0355,0.0913
32918,45.87278,-0.342282,96.73,16.8,4.288,112.2,14 / 17,3291811,2019-08-09 23:30:09:038,0.2868,-1.0934,10.0769,0.5744,-1.0469,9.7337,0.0245,-0.0262,0.0812
32919,45.87278,-0.342282,96.73,16.8,4.288,112.2,14 / 17,3291911,2019-08-09 23:30:09:138,0.1851,-1.2867,10.2756,0.513,-1.0655,9.7351,0.0203,-0.0461,0.0766
32920,45.87278,-0.342282,96.73,16.8,4.288,112.2,14 / 17,3292010,2019-08-09 23:30:09:237,-0.3213,-1.5273,10.1678,0.4836,-1.0749,9.7356,0.0275,-0.0392,0.1057
32921,45.87278,-0.342282,96.73,16.8,4.288,112.2,14 / 17,3292111,2019-08-09 23:30:09:338,-0.7966,-1.8458,9.3969,0.4371,-1.1029,9.7346,-0.0022,-0.0117,0.1325
32922,45.87278,-0.342282,96.73,16.8,4.288,112.2,14 / 17,3292211,2019-08-09 23:30:09:438,-0.0268,-1.0036,10.3935,0.4161,-1.1283,9.7326,0.0196,-0.0251,0.0976
32923,45.87278,-0.342282,96.73,16.8,4.288,112.2,14 / 17,3292310,2019-08-09 23:30:09:537,-0.3171,-1.2424,9.5669,0.3801,-1.134,9.7334,-0.0184,-0.0256,0.1009
32924,45.87278,-0.342282,96.73,16.8,4.288,112.2,14 / 17,3292411,2019-08-09 23:30:09:638,0.0905,-1.495,9.8057,0.3666,-1.1479,9.7323,-0.0277,-0.0064,0.0947
32925,45.87278,-0.342282,96.73,16.8,4.288,112.2,14 / 17,3292511,2019-08-09 23:30:09:738,-0.0196,-0.3578,9.7046,0.3566,-1.1255,9.7353,-0.0036,0.0017,0.0873
32926,45.87278,-0.342282,96.73,16.8,4.288,112.2,14 / 15,3292610,2019-08-09 23:30:09:837,-0.1801,-0.2991,10.2905,0.3556,-1.1449,9.7331,0.0087,-0.0121,0.0758
32927,45.87278,-0.342282,96.73,16.8,4.288,112.2,14 / 15,3292710,2019-08-09 23:30:09:937,-0.2339,-2.0517,10.2319,0.3408,-1.1752,9.73,0.065,-0.0123,0.0875
32928,45.87278,-0.342282,96.73,16.8,4.288,112.2,14 / 15,3292811,2019-08-09 23:30:10:038,-0.034,-0.7223,9.7058,0.3252,-1.1767,9.7304,0.0205,-0.0217,0.0867
32929,45.87278,-0.342282,96.73,16.8,4.288,112.2,14 / 15,3292910,2019-08-09 23:30:10:137,0.2778,-1.0473,10.6688,0.2828,-1.219,9.7265,0.0382,-0.0524,0.0696
32930,45.87278,-0.342282,96.73,16.8,4.288,112.2,14 / 15,3293010,2019-08-09 23:30:10:237,-0.8941,-0.7642,9.8686,0.2587,-1.208,9.7285,-0.0017,-0.0269,0.1412
32931,45.87278,-0.342282,96.73,16.8,4.288,112.2,14 / 15,3293110,2019-08-09 23:30:10:337,-0.5685,-1.0252,9.5771,0.2266,-1.2139,9.7286,-0.009,-0.0004,0.1017
32932,45.87278,-0.342282,96.73,16.8,4.288,112.2,14 / 15,3293210,2019-08-09 23:30:10:437,-0.5164,-1.0958,9.5843,0.2155,-1.2229,9.7277,0.0106,-0.0266,0.0709
32933,45.87278,-0.342282,96.73,16.8,4.288,112.2,14 / 15,3293311,2019-08-09 23:30:10:538,-0.0035,-1.8817,9.8638,0.1845,-1.2137,9.7295,-0.0316,-0.0247,0.1223
32934,45.87278,-0.342282,96.73,16.8,4.288,112.2,14 / 15,3293410,2019-08-09 23:30:10:637,0.066,-1.4268,9.9512,0.1672,-1.2087,9.7304,0.0357,-0.0359,0.0628
32935,45.87278,-0.342282,96.73,16.8,4.288,112.2,14 / 15,3293510,2019-08-09 23:30:10:737,-0.3405,-1.176,9.7668,0.1183,-1.2329,9.7281,0.0137,-0.0379,0.0745
32936,45.87278,-0.342282,96.73,16.8,4.288,112.2,15 / 18,3293610,2019-08-09 23:30:10:837,-0.5691,-1.3981,9.7465,0.1056,-1.2397,9.7274,0.0263,-0.0239,0.0939
32937,45.87278,-0.342282,96.73,16.8,4.288,112.2,15 / 18,3293710,2019-08-09 23:30:10:937,-0.5206,-1.5525,9.6178,0.0676,-1.2535,9.726,-0.0044,-0.0263,0.0813
32938,45.87278,-0.342282,96.73,16.8,4.288,112.2,15 / 18,3293810,2019-08-09 23:30:11:037,-0.3231,-1.173,9.6363,0.0558,-1.2632,9.7248,0.02,-0.0226,0.0669
32939,45.87278,-0.342282,96.73,16.8,4.288,112.2,15 / 18,3293910,2019-08-09 23:30:11:137,-0.5105,-0.7762,10.2295,0.0315,-1.2816,9.7225,-0.0023,-0.0154,0.0931
32940,45.87278,-0.342282,96.73,16.8,4.288,112.2,15 / 18,3294010,2019-08-09 23:30:11:237,-0.4177,-0.93,9.6178,0.02,-1.2768,9.7232,-0.0001,-0.0117,0.0681
32941,45.87278,-0.342282,96.73,16.8,4.288,112.2,15 / 18,3294110,2019-08-09 23:30:11:337,-0.2423,-0.6289,9.5172,0.0113,-1.281,9.7226,-0.004,-0.0117,0.085
32942,45.87278,-0.342282,96.73,16.8,4.288,112.2,15 / 18,3294211,2019-08-09 23:30:11:438,-0.0208,-0.9779,9.6962,-0.0018,-1.278,9.723,0.007,-0.0233,0.0583
32943,45.87278,-0.342282,96.73,16.8,4.288,112.2,15 / 18,3294310,2019-08-09 23:30:11:537,-0.1058,-0.4128,10.0032,-0.0206,-1.2793,9.7228,0.0094,-0.0286,0.0764
32944,45.87278,-0.342282,96.73,16.8,4.288,112.2,15 / 18,3294410,2019-08-09 23:30:11:637,0.1432,-1.4166,9.7441,-0.0369,-1.2812,9.7225,0.0195,-0.0209,0.0705
32945,45.87278,-0.342282,96.73,16.8,4.288,112.2,15 / 18,3294510,2019-08-09 23:30:11:737,-0.04,-1.4729,9.6651,-0.0589,-1.2959,9.7205,-0.0043,-0.0243,0.0756
32946,45.87278,-0.342282,96.73,16.8,4.288,112.2,13 / 16,3294610,2019-08-09 23:30:11:837,-0.2112,-1.355,9.6956,-0.0692,-1.2933,9.7208,0.0091,-0.0184,0.0506
32947,45.87278,-0.342282,96.73,16.8,4.288,112.2,13 / 16,3294710,2019-08-09 23:30:11:937,0.1635,-0.4386,9.7285,-0.0793,-1.3022,9.7195,0.0055,-0.0052,0.0729
32948,45.87278,-0.342282,96.73,16.8,4.288,112.2,13 / 16,3294810,2019-08-09 23:30:12:037,0.5418,-0.9503,10.1307,-0.0784,-1.2816,9.7222,0.0229,-0.0224,0.0186
32949,45.87278,-0.342282,96.73,16.8,4.288,112.2,13 / 16,3294910,2019-08-09 23:30:12:137,-0.0885,-0.8145,10.1397,-0.0829,-1.2786,9.7226,0.014,-0.0081,0.0444
32950,45.87278,-0.342282,96.73,16.8,4.288,112.2,13 / 16,3295010,2019-08-09 23:30:12:237,-0.1944,-0.66,9.7327,-0.0762,-1.2824,9.7221,0.0142,0.009,0.057
32951,45.87278,-0.342282,96.73,16.8,4.288,112.2,13 / 16,3295110,2019-08-09 23:30:12:337,0.5993,-0.7863,9.762,-0.0575,-1.2795,9.7227,0.0132,-0.0081,0.031
32952,45.87278,-0.342282,96.73,16.8,4.288,112.2,13 / 16,3295210,2019-08-09 23:30:12:437,-0.0514,-0.7498,10.0655,-0.0459,-1.2812,9.7225,0.0086,-0.0064,0.0384
32953,45.87278,-0.342282,96.73,16.8,4.288,112.2,13 / 16,3295310,2019-08-09 23:30:12:537,-0.2315,-1.3107,9.4059,-0.0479,-1.2736,9.7235,0.0393,-0.0228,0.01
32954,45.87278,-0.342282,96.73,16.8,4.288,112.2,13 / 16,3295410,2019-08-09 23:30:12:637,-0.8043,-1.7871,8.3554,-0.0522,-1.2605,9.7252,0.0812,-0.0203,-0.0821
32955,45.87278,-0.342282,96.73,16.8,4.288,112.2,13 / 16,3295510,2019-08-09 23:30:12:737,1.2499,-1.422,10.4635,-0.0561,-1.2723,9.7236,0.0812,-0.0203,-0.0821
32956,45.87278,-0.342282,96.73,16.8,4.288,112.2,13 / 16,3295610,2019-08-09 23:30:12:837,0.9159,-2.1091,9.7848,-0.0419,-1.2337,9.7287,0.0529,-0.0139,-0.0197
32957,45.87278,-0.342282,96.73,16.8,4.288,112.2,13 / 16,3295710,2019-08-09 23:30:12:937,0.4999,-1.2388,10.3067,-0.0288,-1.2104,9.7316,0.0362,-0.0047,0.0327
32958,45.87278,-0.342282,96.73,16.8,4.288,112.2,13 / 16,3295811,2019-08-09 23:30:13:038,1.3193,-0.8276,9.8123,-0.0223,-1.2306,9.7291,0.0243,-0.0279,-0.0311
32959,45.87278,-0.342282,96.73,16.8,4.288,112.2,13 / 16,3295911,2019-08-09 23:30:13:138,1.1033,-0.511,9.8087,-0.0159,-1.2309,9.7291,0.048,-0.0279,-0.005
32960,45.87278,-0.342282,96.73,16.8,4.288,112.2,13 / 16,3296010,2019-08-09 23:30:13:237,1.0584,-1.5154,9.5513,-0.0275,-1.2213,9.7303,0.0329,-0.0129,0.0558
32961,45.87278,-0.342282,96.73,16.8,4.288,112.2,13 / 16,3296111,2019-08-09 23:30:13:338,0.0402,-1.1281,9.762,-0.0182,-1.2356,9.7285,0.0121,-0.02,-0.054
32962,45.87278,-0.342282,96.73,16.8,4.288,112.2,13 / 16,3296210,2019-08-09 23:30:13:437,0.4448,-3.7887,9.2102,-0.0152,-1.2387,9.7281,-0.0129,-0.0085,0.0056
32963,45.87278,-0.342282,96.73,16.8,4.288,112.2,13 / 16,3296311,2019-08-09 23:30:13:538,0.4712,-0.192,9.4388,-0.0113,-1.2359,9.7285,-0.0422,0.003,0.015
32964,45.87278,-0.342282,96.73,16.8,4.288,112.2,13 / 16,3296411,2019-08-09 23:30:13:638,0.6483,-0.4104,9.5717,0.0143,-1.211,9.7316,0.0032,-0.0271,-0.0209
32965,45.87278,-0.342282,96.73,16.8,4.288,112.2,13 / 16,3296510,2019-08-09 23:30:13:737,0.6867,0.06,9.7165,0.0111,-1.2128,9.7314,-0.0008,-0.0241,0.0172
32966,45.872726,-0.340321,95.77,18.18,3.216,80.1,15 / 18,3296610,2019-08-09 23:30:13:837,0.531,0.3473,9.109,0.0164,-1.201,9.7328,-0.0077,-0.0022,-0.0092
32967,45.872726,-0.340321,95.77,18.18,3.216,80.1,15 / 18,3296710,2019-08-09 23:30:13:937,0.5586,-1.5148,9.343,0.0282,-1.1899,9.7342,-0.0205,0.0005,0.0132
32968,45.872726,-0.340321,95.77,18.18,3.216,80.1,15 / 18,3296810,2019-08-09 23:30:14:037,0.8207,-0.0429,10.5365,0.027,-1.1757,9.7359,-0.0376,-0.0238,0.0798
32969,45.872726,-0.340321,95.77,18.18,3.216,80.1,15 / 18,3296911,2019-08-09 23:30:14:138,0.5903,-0.3877,10.1678,0.0088,-1.1451,9.7396,-0.0381,-0.0136,0.01
32970,45.872726,-0.340321,95.77,18.18,3.216,80.1,15 / 18,3297010,2019-08-09 23:30:14:237,0.6723,-0.0405,9.294,0.0204,-1.1417,9.7399,0.0177,-0.0101,0.0053
32971,45.872726,-0.340321,95.77,18.18,3.216,80.1,15 / 18,3297110,2019-08-09 23:30:14:337,0.7681,-0.83,9.4448,0.0208,-1.1281,9.7415,-0.0144,-0.0167,-0.0023
32972,45.872726,-0.340321,95.77,18.18,3.216,80.1,15 / 18,3297211,2019-08-09 23:30:14:438,0.6897,-1.1521,9.6884,0.0113,-1.0912,9.7457,-0.0042,-0.0294,0.0006
32973,45.872726,-0.340321,95.77,18.18,3.216,80.1,15 / 18,3297310,2019-08-09 23:30:14:537,0.7148,-0.5786,9.5005,0.0058,-1.066,9.7485,-0.0163,-0.0283,-0.0161
32974,45.872726,-0.340321,95.77,18.18,3.216,80.1,15 / 18,3297410,2019-08-09 23:30:14:637,0.4035,-1.003,9.5789,-0.0208,-1.0709,9.748,0.0159,-0.042,0.0067
32975,45.872726,-0.340321,95.77,18.18,3.216,80.1,15 / 18,3297510,2019-08-09 23:30:14:737,0.5867,-0.6032,9.6076,-0.0245,-1.0831,9.7466,0.0361,-0.0178,-0.0177
32976,45.872726,-0.340321,95.77,18.18,3.216,80.1,13 / 15,3297610,2019-08-09 23:30:14:837,0.2665,-1.1544,10.1768,-0.0255,-1.1143,9.7431,0.031,-0.0075,0.0057
32977,45.872726,-0.340321,95.77,18.18,3.216,80.1,13 / 15,3297711,2019-08-09 23:30:14:938,0.1929,-0.6648,10.0002,-0.0193,-1.1124,9.7433,0.0081,-0.0041,0.0005
32978,45.872726,-0.340321,95.77,18.18,3.216,80.1,13 / 15,3297810,2019-08-09 23:30:15:037,0.6478,-0.4583,9.6531,0.002,-1.1142,9.7431,0.0141,0.0121,-0.0027
32979,45.872726,-0.340321,95.77,18.18,3.216,80.1,13 / 15,3297911,2019-08-09 23:30:15:138,0.6926,-0.8803,9.8392,0.0234,-1.1161,9.7429,-0.0137,0.0034,0.0066
32980,45.872726,-0.340321,95.77,18.18,3.216,80.1,13 / 15,3298010,2019-08-09 23:30:15:237,0.2946,-1.2963,9.2024,0.0489,-1.0938,9.7453,0.0181,0.0001,-0.0297
32981,45.872726,-0.340321,95.77,18.18,3.216,80.1,13 / 15,3298111,2019-08-09 23:30:15:338,0.54,-0.7654,9.5322,0.0641,-1.0944,9.7452,-0.0157,0.0021,0.0111
32982,45.872726,-0.340321,95.77,18.18,3.216,80.1,13 / 15,3298210,2019-08-09 23:30:15:437,0.9776,-1.1221,10.0876,0.0792,-1.0628,9.7486,-0.0103,0.0003,0.0033
32983,45.872726,-0.340321,95.77,18.18,3.216,80.1,13 / 15,3298310,2019-08-09 23:30:15:537,1.062,-0.8444,9.5466,0.0785,-1.0792,9.7468,0.0287,0.0093,0.0235
32984,45.872726,-0.340321,95.77,18.18,3.216,80.1,13 / 15,3298411,2019-08-09 23:30:15:638,1.3229,-1.7261,10.2259,0.1093,-1.0907,9.7452,-0.0073,-0.0035,0.0183
32985,45.872726,-0.340321,95.77,18.18,3.216,80.1,13 / 15,3298510,2019-08-09 23:30:15:737,0.2838,-0.9671,9.1066,0.1154,-1.0596,9.7486,-0.0208,0.0042,-0.0062
32986,45.872726,-0.340321,95.77,18.18,3.216,80.1,15 / 18,3298610,2019-08-09 23:30:15:837,1.0105,-1.3885,9.3909,0.1427,-1.0606,9.7481,0.0203,-0.0075,-0.0167
32987,45.872726,-0.340321,95.77,18.18,3.216,80.1,15 / 18,3298711,2019-08-09 23:30:15:938,0.7441,-0.0142,9.686,0.1495,-1.055,9.7486,-0.0353,-0.0174,0.0005
32988,45.872726,-0.340321,95.77,18.18,3.216,80.1,15 / 18,3298810,2019-08-09 23:30:16:037,0.6705,-0.7953,9.3951,0.1646,-1.0383,9.7501,0.0066,0.0076,-0.0092
32989,45.872726,-0.340321,95.77,18.18,3.216,80.1,15 / 18,3298911,2019-08-09 23:30:16:138,0.8626,-0.8839,9.6842,0.1751,-1.0397,9.7498,0.0154,-0.0015,-0.0163
32990,45.872726,-0.340321,95.77,18.18,3.216,80.1,15 / 18,3299011,2019-08-09 23:30:16:238,0.8752,-0.6983,9.8823,0.1817,-1.0274,9.751,0.0378,-0.0118,-0.0164
32991,45.872726,-0.340321,95.77,18.18,3.216,80.1,15 / 18,3299110,2019-08-09 23:30:16:337,0.6801,-1.3322,9.2425,0.1893,-1.0182,9.7518,0.0314,0.0099,-0.009
32992,45.872726,-0.340321,95.77,18.18,3.216,80.1,15 / 18,3299211,2019-08-09 23:30:16:438,0.1929,-1.1892,9.4646,0.2042,-1.024,9.7509,-0.0115,0.0161,-0.0261
32993,45.872726,-0.340321,95.77,18.18,3.216,80.1,15 / 18,3299310,2019-08-09 23:30:16:537,0.634,-1.1179,10.0781,0.2334,-1.022,9.7505,-0.0095,-0.0099,-0.0048
32994,45.872726,-0.340321,95.77,18.18,3.216,80.1,15 / 18,3299410,2019-08-09 23:30:16:637,0.6214,-0.4661,9.6028,0.2327,-1.0163,9.7511,-0.0087,0.0012,0.0017
32995,45.872726,-0.340321,95.77,18.18,3.216,80.1,15 / 18,3299510,2019-08-09 23:30:16:737,0.7357,-1.2658,9.4532,0.2526,-1.0034,9.7519,0.0046,0.0092,-0.0095
32996,45.872726,-0.340321,95.77,18.18,3.216,80.1,13 / 16,3299610,2019-08-09 23:30:16:837,0.9788,-0.5864,10.2193,0.2562,-1.0004,9.7521,0.0206,0.002,0.0048
32997,45.872726,-0.340321,95.77,18.18,3.216,80.1,13 / 16,3299710,2019-08-09 23:30:16:937,0.613,-0.8486,10.2492,0.2716,-1.0106,9.7507,0.0196,0.0039,0.0173
32998,45.872726,-0.340321,95.77,18.18,3.216,80.1,13 / 16,3299810,2019-08-09 23:30:17:037,0.698,-1.0216,9.6184,0.281,-1.0068,9.7508,0.0173,-0.0047,-0.0353
32999,45.872726,-0.340321,95.77,18.18,3.216,80.1,13 / 16,3299911,2019-08-09 23:30:17:138,0.4431,-0.3787,9.8422,0.296,-1.0162,9.7494,0.0128,0.0078,-0.0314
33000,45.872726,-0.340321,95.77,18.18,3.216,80.1,13 / 16,3300010,2019-08-09 23:30:17:237,0.0612,-1.4777,9.7668,0.3064,-1.0258,9.748,-0.0361,-0.0007,0.0201
33001,45.872726,-0.340321,95.77,18.18,3.216,80.1,13 / 16,3300110,2019-08-09 23:30:17:337,0.9416,-1.0311,9.8015,0.3255,-1.0224,9.7478,-0.0077,0.0029,0.003
33002,45.872726,-0.340321,95.77,18.18,3.216,80.1,13 / 16,3300211,2019-08-09 23:30:17:438,0.6747,0.0654,9.513,0.3361,-1.0136,9.7483,-0.0262,0.0023,0.0077
33003,45.872726,-0.340321,95.77,18.18,3.216,80.1,13 / 16,3300310,2019-08-09 23:30:17:537,1.0476,-0.4613,9.6728,0.3524,-1.0022,9.7489,0.0012,0.0048,-0.0356
33004,45.872726,-0.340321,95.77,18.18,3.216,80.1,13 / 16,3300410,2019-08-09 23:30:17:637,0.385,-1.0689,10.1098,0.3655,-1.0191,9.7467,-0.0068,0.0106,0.0399
33005,45.872726,-0.340321,95.77,18.18,3.216,80.1,13 / 16,3300511,2019-08-09 23:30:17:738,0.3688,-1.3185,9.3281,0.3803,-0.9906,9.7491,-0.0515,0.0107,0.0287
33006,45.872726,-0.340321,95.77,18.18,3.216,80.1,14 / 18,3300611,2019-08-09 23:30:17:838,0.37,-1.671,9.5094,0.3793,-1.0186,9.7462,-0.009,-0.0039,0.0082
33007,45.872726,-0.340321,95.77,18.18,3.216,80.1,14 / 18,3300710,2019-08-09 23:30:17:937,0.2306,-0.1543,9.2155,0.3844,-0.9907,9.7489,-0.0427,-0.0072,0.0124
33008,45.872726,-0.340321,95.77,18.18,3.216,80.1,14 / 18,3300811,2019-08-09 23:30:18:038,0.4808,-0.66,9.3466,0.3801,-0.9617,9.752,-0.0427,-0.0072,0.0124
33009,45.872726,-0.340321,95.77,18.18,3.216,80.1,14 / 18,3300910,2019-08-09 23:30:18:137,0.2024,0.0145,9.3843,0.3937,-0.9319,9.7543,-0.0428,0.0073,0.0235
33010,45.872726,-0.340321,95.77,18.18,3.216,80.1,14 / 18,3301011,2019-08-09 23:30:18:238,0.8411,-0.7971,10.2139,0.3973,-0.9354,9.7538,0.0182,0.0038,-0.0054
33011,45.872726,-0.340321,95.77,18.18,3.216,80.1,14 / 18,3301110,2019-08-09 23:30:18:337,1.1583,-0.0124,10.2576,0.4083,-0.9438,9.7526,-0.0199,0.0099,0.0372
33012,45.872726,-0.340321,95.77,18.18,3.216,80.1,14 / 18,3301210,2019-08-09 23:30:18:437,0.7573,-0.4434,9.5453,0.4162,-0.9287,9.7537,0.0256,0.0081,-0.0186
33013,45.872726,-0.340321,95.77,18.18,3.216,80.1,14 / 18,3301311,2019-08-09 23:30:18:538,1.0189,-1.6578,10.1182,0.4283,-0.938,9.7523,0.0363,-0.0111,0.0065
33014,45.872726,-0.340321,95.77,18.18,3.216,80.1,14 / 18,3301410,2019-08-09 23:30:18:637,0.7806,-0.6493,10.1391,0.4253,-0.9514,9.7511,-0.0189,-0.0267,0.0001
33015,45.872726,-0.340321,95.77,18.18,3.216,80.1,14 / 18,3301510,2019-08-09 23:30:18:737,0.2755,-1.6399,9.4616,0.4153,-0.9449,9.7522,-0.0004,-0.007,-0.0425
33016,45.872726,-0.340321,95.77,18.18,3.216,80.1,15 / 18,3301610,2019-08-09 23:30:18:837,0.4006,-2.5179,9.0575,0.4232,-0.9313,9.7531,-0.0305,0.0018,0.0427
33017,45.872726,-0.340321,95.77,18.18,3.216,80.1,15 / 18,3301710,2019-08-09 23:30:18:937,0.8566,0.4586,10.0679,0.4186,-0.9236,9.7541,-0.0148,-0.0137,0.0097
33018,45.872726,-0.340321,95.77,18.18,3.216,80.1,15 / 18,3301811,2019-08-09 23:30:19:038,0.0767,-1.1538,10.0811,0.4096,-0.9124,9.7555,0.019,-0.0104,0.0265
33019,45.872726,-0.340321,95.77,18.18,3.216,80.1,15 / 18,3301911,2019-08-09 23:30:19:138,-0.2615,1.2122,8.8175,0.4284,-0.8808,9.7576,0.036,0.0338,0.0363
33020,45.872726,-0.340321,95.77,18.18,3.216,80.1,15 / 18,3302010,2019-08-09 23:30:19:237,1.226,0.5873,10.2828,0.4257,-0.9356,9.7526,0.0751,-0.0005,-0.029
33021,45.872726,-0.340321,95.77,18.18,3.216,80.1,15 / 18,3302111,2019-08-09 23:30:19:338,1.4001,-4.2783,9.7596,0.4453,-0.9334,9.752,0.1007,0.0008,-0.028
33022,45.872726,-0.340321,95.77,18.18,3.216,80.1,15 / 18,3302210,2019-08-09 23:30:19:437,1.0685,-0.2877,9.604,0.4647,-0.9383,9.7506,0.0445,0.0111,-0.019
33023,45.872726,-0.340321,95.77,18.18,3.216,80.1,15 / 18,3302311,2019-08-09 23:30:19:538,0.8429,-0.9605,9.7123,0.4779,-0.9506,9.7488,-0.0451,-0.0017,0.0164
33024,45.872726,-0.340321,95.77,18.18,3.216,80.1,15 / 18,3302410,2019-08-09 23:30:19:637,0.7687,-1.0826,9.3867,0.4817,-0.9146,9.752,0.0032,-0.0057,-0.0112
33025,45.872726,-0.340321,95.77,18.18,3.216,80.1,15 / 18,3302511,2019-08-09 23:30:19:738,1.2732,-0.5445,9.7447,0.4856,-0.9113,9.7521,0.0,-0.0118,-0.0282
33026,45.872726,-0.340321,95.77,18.18,3.216,80.1,14 / 17,3302610,2019-08-09 23:30:19:837,0.1785,0.1091,9.8829,0.4849,-0.9023,9.753,0.0101,-0.0081,0.0376
33027,45.872726,-0.340321,95.77,18.18,3.216,80.1,14 / 17,3302710,2019-08-09 23:30:19:937,0.5065,0.4952,9.0677,0.4806,-0.8949,9.7539,-0.0114,0.0063,0.0146
33028,45.872726,-0.340321,95.77,18.18,3.216,80.1,14 / 17,3302811,2019-08-09 23:30:20:038,0.5412,-1.7715,9.4646,0.4931,-0.8654,9.7559,-0.0397,0.0013,0.0311
33029,45.872726,-0.340321,95.77,18.18,3.216,80.1,14 / 17,3302910,2019-08-09 23:30:20:137,0.5747,-1.44,9.5699,0.4895,-0.8625,9.7564,0.0341,0.002,0.0061
33030,45.872726,-0.340321,95.77,18.18,3.216,80.1,14 / 17,3303010,2019-08-09 23:30:20:237,1.1248,-0.5128,9.8368,0.5004,-0.8589,9.7561,-0.0129,-0.0126,-0.0027
33031,45.872726,-0.340321,95.77,18.18,3.216,80.1,14 / 17,3303111,2019-08-09 23:30:20:338,0.7914,-0.7181,9.9667,0.5009,-0.836,9.7581,0.0165,-0.0071,-0.018
33032,45.872726,-0.340321,95.77,18.18,3.216,80.1,14 / 17,3303211,2019-08-09 23:30:20:438,1.2876,-0.3207,9.4789,0.5034,-0.8367,9.7579,-0.0068,-0.0122,-0.0077
33033,45.872726,-0.340321,95.77,18.18,3.216,80.1,14 / 17,3303311,2019-08-09 23:30:20:538,0.6603,-1.738,9.5047,0.5086,-0.8302,9.7582,0.0142,0.0056,-0.0076
33034,45.872726,-0.340321,95.77,18.18,3.216,80.1,14 / 17,3303410,2019-08-09 23:30:20:637,0.9189,-1.5764,10.023,0.5214,-0.8256,9.7579,0.0088,-0.0059,-0.0139
33035,45.872726,-0.340321,95.77,18.18,3.216,80.1,14 / 17,3303511,2019-08-09 23:30:20:738,0.7298,-0.4218,9.8476,0.5278,-0.8206,9.758,0.0038,0.0112,-0.0232
33036,45.872726,-0.340321,95.77,18.18,3.216,80.1,15 / 18,3303610,2019-08-09 23:30:20:837,0.8285,0.3575,9.9685,0.5525,-0.8345,9.7555,-0.0017,0.0144,-0.014
33037,45.872726,-0.340321,95.77,18.18,3.216,80.1,15 / 18,3303713,2019-08-09 23:30:20:940,0.9494,-0.6259,9.4885,0.5707,-0.8411,9.7538,-0.005,0.0018,-0.0431
33038,45.872726,-0.340321,95.77,18.18,3.216,80.1,15 / 18,3303811,2019-08-09 23:30:21:038,1.0308,-1.2771,10.6006,0.6018,-0.8708,9.7494,0.0338,0.021,0.0019
33039,45.872726,-0.340321,95.77,18.18,3.216,80.1,15 / 18,3303910,2019-08-09 23:30:21:137,1.217,-0.9731,10.5647,0.6149,-0.8685,9.7487,0.029,0.011,-0.041
33040,45.872726,-0.340321,95.77,18.18,3.216,80.1,15 / 18,3304010,2019-08-09 23:30:21:237,1.2307,-0.5744,9.5322,0.6487,-0.8689,9.7465,0.0272,0.0156,-0.0499
33041,45.872726,-0.340321,95.77,18.18,3.216,80.1,15 / 18,3304110,2019-08-09 23:30:21:337,1.2613,-0.739,9.3095,0.6628,-0.8541,9.7469,-0.0086,0.0061,-0.0223
33042,45.872726,-0.340321,95.77,18.18,3.216,80.1,15 / 18,3304210,2019-08-09 23:30:21:437,1.1469,-0.918,9.5825,0.6831,-0.8409,9.7466,-0.013,0.0005,-0.0249
33043,45.872726,-0.340321,95.77,18.18,3.216,80.1,15 / 18,3304310,2019-08-09 23:30:21:537,1.0596,-1.4884,9.3718,0.6924,-0.8309,9.7468,-0.0013,0.0014,-0.0334
33044,45.872726,-0.340321,95.77,18.18,3.216,80.1,15 / 18,3304411,2019-08-09 23:30:21:638,1.199,-0.8312,9.8111,0.702,-0.8248,9.7467,0.0237,-0.013,-0.0269
33045,45.872726,-0.340321,95.77,18.18,3.216,80.1,15 / 18,3304510,2019-08-09 23:30:21:737,1.1769,-0.8887,9.9398,0.6992,-0.8288,9.7465,-0.0275,-0.008,-0.0118
33046,45.872726,-0.340321,95.77,18.18,3.216,80.1,Nov-13,3304610,2019-08-09 23:30:21:837,0.9668,-0.4523,9.6459,0.7018,-0.8208,9.747,-0.0148,0.0035,-0.009
33047,45.872726,-0.340321,95.77,18.18,3.216,80.1,Nov-13,3304710,2019-08-09 23:30:21:937,1.3738,-0.2021,9.7489,0.7074,-0.8108,9.7474,0.0013,0.0032,-0.0358
33048,45.872726,-0.340321,95.77,18.18,3.216,80.1,Nov-13,3304810,2019-08-09 23:30:22:037,1.1978,-0.3919,9.8692,0.7248,-0.8046,9.7467,-0.0059,0.0083,-0.0243
33049,45.872726,-0.340321,95.77,18.18,3.216,80.1,Nov-13,3304911,2019-08-09 23:30:22:138,1.0248,-0.6026,9.5657,0.7357,-0.7932,9.7468,-0.0126,0.0051,-0.0293
33050,45.872726,-0.340321,95.77,18.18,3.216,80.1,Nov-13,3305010,2019-08-09 23:30:22:237,1.044,-0.2243,9.3071,0.754,-0.782,9.7463,0.0116,0.0025,-0.0449
33051,45.872726,-0.340321,95.77,18.18,3.216,80.1,Nov-13,3305110,2019-08-09 23:30:22:337,1.2265,0.2635,9.7698,0.764,-0.7729,9.7462,-0.0172,-0.0048,-0.0213
33052,45.872726,-0.340321,95.77,18.18,3.216,80.1,Nov-13,3305210,2019-08-09 23:30:22:437,1.1859,0.2701,9.4598,0.7687,-0.754,9.7474,-0.0132,-0.0035,-0.0318
33053,45.872726,-0.340321,95.77,18.18,3.216,80.1,Nov-13,3305311,2019-08-09 23:30:22:538,0.9698,-0.4763,9.4897,0.7706,-0.7474,9.7477,-0.0027,0.0022,-0.005
33054,45.872726,-0.340321,95.77,18.18,3.216,80.1,Nov-13,3305411,2019-08-09 23:30:22:638,1.3157,-0.9863,9.8686,0.7809,-0.7439,9.7472,0.0033,-0.0033,-0.0226
33055,45.872726,-0.340321,95.77,18.18,3.216,80.1,Nov-13,3305510,2019-08-09 23:30:22:737,0.8926,-0.7061,9.5747,0.782,-0.7421,9.7472,-0.0129,0.0188,-0.0136
33056,45.87296,-0.338278,95.93,16.89,3.216,83.3,15 / 18,3305610,2019-08-09 23:30:22:837,0.8991,-0.6864,9.5346,0.7934,-0.7357,9.7468,0.0323,0.0211,-0.0392
33057,45.87296,-0.338278,95.93,16.89,3.216,83.3,15 / 18,3305710,2019-08-09 23:30:22:937,1.0805,-0.5697,9.9057,0.8208,-0.7391,9.7442,-0.0125,0.0052,-0.0256
33058,45.87296,-0.338278,95.93,16.89,3.216,83.3,15 / 18,3305811,2019-08-09 23:30:23:038,1.2349,-0.7833,9.3149,0.8296,-0.7226,9.7447,-0.0125,0.0129,-0.0378
33059,45.87296,-0.338278,95.93,16.89,3.216,83.3,15 / 18,3305911,2019-08-09 23:30:23:138,0.8399,-0.3332,9.3867,0.8514,-0.711,9.7437,-0.0174,0.0151,-0.0072
33060,45.87296,-0.338278,95.93,16.89,3.216,83.3,15 / 18,3306010,2019-08-09 23:30:23:237,0.9608,0.0175,9.8698,0.8545,-0.705,9.7439,-0.0095,-0.0035,-0.0464
33061,45.87296,-0.338278,95.93,16.89,3.216,83.3,15 / 18,3306110,2019-08-09 23:30:23:337,0.6017,-0.4368,9.458,0.8471,-0.6942,9.7453,-0.0315,-0.004,0.0041
33062,45.87296,-0.338278,95.93,16.89,3.216,83.3,15 / 18,3306210,2019-08-09 23:30:23:437,1.1601,-0.5325,9.8506,0.8412,-0.677,9.747,0.0462,-0.0029,-0.0349
33063,45.87296,-0.338278,95.93,16.89,3.216,83.3,15 / 18,3306311,2019-08-09 23:30:23:538,1.1631,-0.6271,9.9799,0.8328,-0.698,9.7463,0.0128,-0.0201,-0.0157
33064,45.87296,-0.338278,95.93,16.89,3.216,83.3,15 / 18,3306411,2019-08-09 23:30:23:638,1.4791,0.0121,10.354,0.83,-0.7026,9.7462,0.0082,-0.0138,-0.0086
33065,45.87296,-0.338278,95.93,16.89,3.216,83.3,15 / 18,3306511,2019-08-09 23:30:23:738,0.6184,-0.7115,9.5298,0.8146,-0.6972,9.7479,-0.174,-0.0369,-0.0611
33066,45.87296,-0.338278,95.93,16.89,3.216,83.3,13 / 16,3306610,2019-08-09 23:30:23:837,1.0518,0.5233,12.3669,0.8069,-0.741,9.7453,0.2731,0.0047,0.0262
33067,45.87296,-0.338278,95.93,16.89,3.216,83.3,13 / 16,3306710,2019-08-09 23:30:23:937,0.3874,-3.6558,10.4444,0.7767,-0.7298,9.7486,0.1021,-0.0235,0.0178
33068,45.87296,-0.338278,95.93,16.89,3.216,83.3,13 / 16,3306810,2019-08-09 23:30:24:037,0.6693,-0.1854,9.5136,0.7681,-0.7622,9.7468,-0.0037,-0.0077,-0.0194
33069,45.87296,-0.338278,95.93,16.89,3.216,83.3,13 / 16,3306910,2019-08-09 23:30:24:137,0.8513,-0.7594,9.024,0.7557,-0.7342,9.7499,-0.0487,-0.0072,-0.0236
33070,45.87296,-0.338278,95.93,16.89,3.216,83.3,13 / 16,3307011,2019-08-09 23:30:24:238,0.9213,-0.7151,9.4903,0.7633,-0.7085,9.7512,-0.0253,-0.0002,-0.0024
33071,45.87296,-0.338278,95.93,16.89,3.216,83.3,13 / 16,3307110,2019-08-09 23:30:24:337,0.6801,-0.0513,9.7566,0.7563,-0.6707,9.7544,-0.0091,-0.0062,0.0004
33072,45.87296,-0.338278,95.93,16.89,3.216,83.3,13 / 16,3307210,2019-08-09 23:30:24:437,0.774,-0.608,9.622,0.7507,-0.6604,9.7555,-0.0099,-0.0026,-0.0074
33073,45.87296,-0.338278,95.93,16.89,3.216,83.3,13 / 16,3307310,2019-08-09 23:30:24:537,0.5957,-0.7618,9.8698,0.7471,-0.6583,9.756,0.018,0.0028,-0.0022
33074,45.87296,-0.338278,95.93,16.89,3.216,83.3,13 / 16,3307411,2019-08-09 23:30:24:638,0.7232,-0.1267,9.5376,0.7476,-0.6391,9.7572,-0.0287,0.0042,-0.0112
33075,45.87296,-0.338278,95.93,16.89,3.216,83.3,13 / 16,3307511,2019-08-09 23:30:24:738,0.883,0.4916,9.7177,0.7522,-0.6161,9.7583,-0.0149,0.0025,-0.0231
33076,45.87296,-0.338278,95.93,16.89,3.216,83.3,15 / 18,3307610,2019-08-09 23:30:24:837,0.5759,-0.5373,9.5112,0.7506,-0.6089,9.7589,0.0023,-0.0016,0.0
33077,45.87296,-0.338278,95.93,16.89,3.216,83.3,15 / 18,3307710,2019-08-09 23:30:24:937,0.883,-0.7235,9.6794,0.7405,-0.5773,9.7616,-0.0189,-0.0109,-0.001
33078,45.87296,-0.338278,95.93,16.89,3.216,83.3,15 / 18,3307810,2019-08-09 23:30:25:037,0.6639,0.2306,9.8045,0.7331,-0.5751,9.7623,-0.0266,0.0026,0.0145
33079,45.87296,-0.338278,95.93,16.89,3.216,83.3,15 / 18,3307911,2019-08-09 23:30:25:138,1.0195,-0.4667,10.0559,0.7221,-0.5535,9.7644,0.0116,-0.0046,0.0549
33080,45.87296,-0.338278,95.93,16.89,3.216,83.3,15 / 18,3308011,2019-08-09 23:30:25:238,0.4556,-0.3464,10.4438,0.7131,-0.5589,9.7647,0.0032,-0.0128,-0.0395
33081,45.87296,-0.338278,95.93,16.89,3.216,83.3,15 / 18,3308111,2019-08-09 23:30:25:338,0.9446,-1.8314,9.5711,0.7063,-0.5618,9.765,-0.0076,-0.0004,0.0236
33082,45.87296,-0.338278,95.93,16.89,3.216,83.3,15 / 18,3308210,2019-08-09 23:30:25:437,0.5927,0.4144,9.4615,0.7072,-0.5625,9.7649,-0.0111,0.0106,-0.0217
33083,45.87296,-0.338278,95.93,16.89,3.216,83.3,15 / 18,3308311,2019-08-09 23:30:25:538,-0.347,1.2224,9.4633,0.7081,-0.5593,9.7651,-0.0275,0.0039,0.0681
33084,45.87296,-0.338278,95.93,16.89,3.216,83.3,15 / 18,3308411,2019-08-09 23:30:25:638,0.877,-0.5762,9.6226,0.7012,-0.5414,9.7666,0.0145,-0.0009,-0.0561
33085,45.87296,-0.338278,95.93,16.89,3.216,83.3,15 / 18,3308510,2019-08-09 23:30:25:737,0.8004,0.0804,10.2959,0.6976,-0.5542,9.7661,0.0235,-0.0196,-0.0071
33086,45.87296,-0.338278,95.93,16.89,3.216,83.3,15 / 18,3308610,2019-08-09 23:30:25:837,0.7914,-0.6062,9.8009,0.6888,-0.5291,9.7681,0.0299,0.005,-0.0324
33087,45.87296,-0.338278,95.93,16.89,3.216,83.3,15 / 18,3308710,2019-08-09 23:30:25:937,0.4544,0.634,9.4915,0.6848,-0.5496,9.7673,-0.0335,0.0075,-0.0058
33088,45.87296,-0.338278,95.93,16.89,3.216,83.3,15 / 18,3308810,2019-08-09 23:30:26:037,0.9135,-0.0196,10.1277,0.691,-0.5555,9.7665,0.0338,-0.0001,-0.0203
33089,45.87296,-0.338278,95.93,16.89,3.216,83.3,15 / 18,3308910,2019-08-09 23:30:26:137,0.3431,-1.0467,9.507,0.6929,-0.5423,9.7671,-0.0006,0.0033,0.0007
33090,45.87296,-0.338278,95.93,16.89,3.216,83.3,15 / 18,3309011,2019-08-09 23:30:26:238,0.9279,-0.2584,9.4376,0.6937,-0.5346,9.7675,-0.0103,0.011,-0.0255
33091,45.87296,-0.338278,95.93,16.89,3.216,83.3,15 / 18,3309110,2019-08-09 23:30:26:337,0.2132,-0.4045,9.9434,0.7003,-0.5486,9.7662,-0.0058,0.0051,0.021
33092,45.87296,-0.338278,95.93,16.89,3.216,83.3,15 / 18,3309210,2019-08-09 23:30:26:437,0.1575,-0.0771,9.5795,0.6952,-0.5352,9.7673,-0.0037,0.0015,0.0159
33093,45.87296,-0.338278,95.93,16.89,3.216,83.3,15 / 18,3309311,2019-08-09 23:30:26:538,0.7142,-0.2506,9.7399,0.6909,-0.5263,9.7681,-0.0048,-0.0059,0.0021
33094,45.87296,-0.338278,95.93,16.89,3.216,83.3,15 / 18,3309411,2019-08-09 23:30:26:638,0.8513,1.0129,10.3133,0.6783,-0.5103,9.7698,-0.0187,-0.0088,0.0166
33095,45.87296,-0.338278,95.93,16.89,3.216,83.3,15 / 18,3309510,2019-08-09 23:30:26:737,0.1743,1.4259,9.4047,0.6703,-0.4776,9.7721,-0.0171,0.007,-0.0023
33096,45.87296,-0.338278,95.93,16.89,3.216,83.3,15 / 18,3309610,2019-08-09 23:30:26:837,0.7028,-0.7498,9.4424,0.6667,-0.4383,9.7741,-0.0036,0.0054,0.0032
33097,45.87296,-0.338278,95.93,16.89,3.216,83.3,15 / 18,3309710,2019-08-09 23:30:26:937,0.6274,0.8393,10.3761,0.6642,-0.4122,9.7754,-0.0075,0.0032,0.0167
33098,45.87296,-0.338278,95.93,16.89,3.216,83.3,15 / 18,3309810,2019-08-09 23:30:27:037,0.6412,1.0566,9.9967,0.6567,-0.3702,9.7776,0.0155,-0.0021,-0.0084
33099,45.87296,-0.338278,95.93,16.89,3.216,83.3,15 / 18,3309910,2019-08-09 23:30:27:137,0.47,0.4862,10.1008,0.657,-0.3655,9.7778,0.0213,0.0061,0.0132
33100,45.87296,-0.338278,95.93,16.89,3.216,83.3,15 / 18,3310010,2019-08-09 23:30:27:237,0.1815,0.6215,9.452,0.6543,-0.3204,9.7795,-0.0091,-0.0015,0.0253
33101,45.87296,-0.338278,95.93,16.89,3.216,83.3,15 / 18,3310110,2019-08-09 23:30:27:337,0.8788,0.1678,10.0793,0.6454,-0.3133,9.7804,0.0269,-0.0129,-0.0243
33102,45.87296,-0.338278,95.93,16.89,3.216,83.3,15 / 18,3310210,2019-08-09 23:30:27:437,0.3892,-0.192,9.6489,0.631,-0.2858,9.7822,-0.0045,-0.0065,0.0147
33103,45.87296,-0.338278,95.93,16.89,3.216,83.3,15 / 18,3310311,2019-08-09 23:30:27:538,0.2258,0.813,9.5567,0.6254,-0.2878,9.7825,0.0072,0.001,0.0002
33104,45.87296,-0.338278,95.93,16.89,3.216,83.3,15 / 18,3310410,2019-08-09 23:30:27:637,0.4149,0.148,9.8231,0.6215,-0.27,9.7832,-0.0066,0.0045,0.0186
33105,45.87296,-0.338278,95.93,16.89,3.216,83.3,15 / 18,3310511,2019-08-09 23:30:27:738,0.4317,0.7729,9.8518,0.6225,-0.2518,9.7836,0.0032,0.0075,-0.0098
33106,45.87296,-0.338278,95.93,16.89,3.216,83.3,15 / 18,3310611,2019-08-09 23:30:27:838,0.3341,-0.2016,9.5519,0.6304,-0.2356,9.7835,-0.0106,0.0044,0.0207
33107,45.87296,-0.338278,95.93,16.89,3.216,83.3,15 / 18,3310710,2019-08-09 23:30:27:937,0.5867,0.2647,9.5304,0.634,-0.2232,9.7836,-0.0154,0.0169,0.0087
33108,45.87296,-0.338278,95.93,16.89,3.216,83.3,15 / 18,3310811,2019-08-09 23:30:28:038,1.0572,0.8848,9.683,0.6368,-0.2127,9.7836,-0.028,-0.0032,-0.0254
33109,45.87296,-0.338278,95.93,16.89,3.216,83.3,15 / 18,3310911,2019-08-09 23:30:28:138,0.6579,0.5029,9.4987,0.6399,-0.2027,9.7836,0.0023,0.0062,0.0445
33110,45.87296,-0.338278,95.93,16.89,3.216,83.3,15 / 18,3311010,2019-08-09 23:30:28:237,0.7908,0.907,9.8003,0.6333,-0.1982,9.7842,0.004,-0.0055,0.0261
33111,45.87296,-0.338278,95.93,16.89,3.216,83.3,15 / 18,3311110,2019-08-09 23:30:28:337,0.209,1.0021,9.8979,0.6287,-0.1945,9.7845,-0.0135,0.0005,-0.0104
33112,45.87296,-0.338278,95.93,16.89,3.216,83.3,15 / 18,3311210,2019-08-09 23:30:28:437,0.3413,2.45,9.6968,0.624,-0.1604,9.7855,-0.0177,0.0047,0.0127
33113,45.87296,-0.338278,95.93,16.89,3.216,83.3,15 / 18,3311311,2019-08-09 23:30:28:538,0.6406,-0.9264,10.0637,0.6224,-0.1895,9.785,0.0379,0.0052,-0.0127
33114,45.87296,-0.338278,95.93,16.89,3.216,83.3,15 / 18,3311410,2019-08-09 23:30:28:637,-0.7373,0.8028,9.7566,0.6101,-0.1308,9.7868,-0.0929,-0.0258,-0.033
33115,45.87296,-0.338278,95.93,16.89,3.216,83.3,15 / 18,3311510,2019-08-09 23:30:28:737,-0.1298,0.324,9.4466,0.5997,-0.2373,9.7854,0.0839,0.0167,0.0681
33116,45.87296,-0.338278,95.93,16.89,3.216,83.3,14 / 17,3311610,2019-08-09 23:30:28:837,1.5881,-1.604,9.7722,0.6019,-0.1679,9.7867,-0.1147,0.0092,0.0709
33117,45.87296,-0.338278,95.93,16.89,3.216,83.3,14 / 17,3311710,2019-08-09 23:30:28:937,0.9261,1.5624,11.4332,0.5825,-0.1158,9.7887,0.1148,-0.0063,-0.011
33118,45.87296,-0.338278,95.93,16.89,3.216,83.3,14 / 17,3311810,2019-08-09 23:30:29:037,0.1929,0.5532,10.3785,0.592,-0.0868,9.7884,0.065,0.0288,0.0302
33119,45.87296,-0.338278,95.93,16.89,3.216,83.3,14 / 17,3311910,2019-08-09 23:30:29:137,0.5909,1.4505,8.7361,0.5976,-0.0318,9.7884,-0.0201,0.0212,-0.0229
33120,45.87296,-0.338278,95.93,16.89,3.216,83.3,14 / 17,3312011,2019-08-09 23:30:29:238,0.4329,1.396,9.3963,0.6328,-0.0129,9.7862,0.0353,0.032,-0.0163
33121,45.87296,-0.338278,95.93,16.89,3.216,83.3,14 / 17,3312111,2019-08-09 23:30:29:338,0.6663,1.715,9.0007,0.6542,0.0381,9.7847,0.077,0.0173,0.0128
33122,45.87296,-0.338278,95.93,16.89,3.216,83.3,14 / 17,3312210,2019-08-09 23:30:29:437,0.8225,1.7605,9.4292,0.6636,0.0288,9.7841,-0.0408,0.0066,-0.0191
33123,45.87296,-0.338278,95.93,16.89,3.216,83.3,14 / 17,3312310,2019-08-09 23:30:29:537,0.2826,1.7485,10.0056,0.6777,0.0829,9.7829,0.0368,0.0126,0.0268
33124,45.87296,-0.338278,95.93,16.89,3.216,83.3,14 / 17,3312410,2019-08-09 23:30:29:637,0.8542,2.0598,9.9967,0.6761,0.1092,9.7827,-0.0141,-0.0134,0.0083
33125,45.87296,-0.338278,95.93,16.89,3.216,83.3,14 / 17,3312510,2019-08-09 23:30:29:737,0.6478,1.6976,10.0547,0.6572,0.169,9.7831,-0.0238,-0.0159,0.0133
33126,45.87296,-0.338278,95.93,16.89,3.216,83.3,13 / 18,3312611,2019-08-09 23:30:29:838,0.6693,1.6031,9.6537,0.6507,0.2139,9.7827,0.0008,-0.0141,-0.0165
33127,45.87296,-0.338278,95.93,16.89,3.216,83.3,13 / 18,3312711,2019-08-09 23:30:29:938,0.6705,2.3315,10.0499,0.6343,0.2761,9.7822,0.0365,-0.0049,-0.0159
33128,45.87296,-0.338278,95.93,16.89,3.216,83.3,13 / 18,3312811,2019-08-09 23:30:30:038,0.643,1.3248,10.196,0.6333,0.3049,9.7814,-0.0026,0.0022,-0.0084
33129,45.87296,-0.338278,95.93,16.89,3.216,83.3,13 / 18,3312911,2019-08-09 23:30:30:138,0.731,2.787,10.351,0.6368,0.3684,9.779,-0.0037,0.0006,-0.0078
33130,45.87296,-0.338278,95.93,16.89,3.216,83.3,13 / 18,3313010,2019-08-09 23:30:30:237,0.7244,1.7797,10.1906,0.6383,0.4101,9.7773,0.004,-0.0018,-0.0063
33131,45.87296,-0.338278,95.93,16.89,3.216,83.3,13 / 18,3313110,2019-08-09 23:30:30:337,0.6466,1.7168,9.8931,0.636,0.4628,9.7751,0.0275,0.0054,-0.0066
33132,45.87296,-0.338278,95.93,16.89,3.216,83.3,13 / 18,3313210,2019-08-09 23:30:30:437,0.9237,2.9708,9.7147,0.6372,0.4767,9.7743,-0.0284,-0.0038,-0.0177
33133,45.87296,-0.338278,95.93,16.89,3.216,83.3,13 / 18,3313311,2019-08-09 23:30:30:538,0.2072,2.0017,9.7261,0.6265,0.5419,9.7716,-0.0181,-0.0058,0.0058
33134,45.87296,-0.338278,95.93,16.89,3.216,83.3,13 / 18,3313410,2019-08-09 23:30:30:637,0.5107,1.7431,10.2834,0.6195,0.5466,9.7718,0.0332,-0.0072,-0.0309
33135,45.87296,-0.338278,95.93,16.89,3.216,83.3,13 / 18,3313510,2019-08-09 23:30:30:737,0.6376,0.3605,9.5088,0.6156,0.5777,9.7702,-0.0285,0.0029,0.0141
33136,45.87296,-0.338278,95.93,16.89,3.216,83.3,13 / 18,3313610,2019-08-09 23:30:30:837,0.9452,0.4425,9.3221,0.6165,0.5369,9.7725,-0.0143,0.0059,0.0288
33137,45.87296,-0.338278,95.93,16.89,3.216,83.3,13 / 18,3313710,2019-08-09 23:30:30:937,1.0021,0.3246,9.7602,0.6178,0.5219,9.7732,0.0127,-0.0044,-0.055
33138,45.87296,-0.338278,95.93,16.89,3.216,83.3,13 / 18,3313810,2019-08-09 23:30:31:037,0.6885,-0.5206,9.944,0.6278,0.5199,9.7727,-0.0052,0.0124,0.0189
33139,45.87296,-0.338278,95.93,16.89,3.216,83.3,13 / 18,3313910,2019-08-09 23:30:31:137,0.4191,0.9734,9.0725,0.634,0.5438,9.771,-0.0584,0.0136,0.0058
33140,45.87296,-0.338278,95.93,16.89,3.216,83.3,13 / 18,3314011,2019-08-09 23:30:31:238,0.5951,-0.1357,9.2006,0.6476,0.5113,9.7719,-0.0284,0.0182,-0.0127
33141,45.87296,-0.338278,95.93,16.89,3.216,83.3,13 / 18,3314111,2019-08-09 23:30:31:338,0.9195,-0.66,10.348,0.6729,0.4979,9.7709,-0.0029,0.0007,-0.0085
33142,45.87296,-0.338278,95.93,16.89,3.216,83.3,13 / 18,3314210,2019-08-09 23:30:31:437,0.5873,-0.268,9.689,0.6803,0.4792,9.7713,-0.0443,0.0056,-0.0154
33143,45.87296,-0.338278,95.93,16.89,3.216,83.3,13 / 18,3314310,2019-08-09 23:30:31:537,0.6933,-0.3883,9.6687,0.6925,0.4795,9.7704,-0.02,0.0092,-0.0162
33144,45.87296,-0.338278,95.93,16.89,3.216,83.3,13 / 18,3314410,2019-08-09 23:30:31:637,0.7902,0.3509,10.0266,0.7005,0.475,9.7701,-0.0013,0.0138,-0.0411
33145,45.87296,-0.338278,95.93,16.89,3.216,83.3,13 / 18,3314511,2019-08-09 23:30:31:738,1.4199,0.6011,9.8255,0.7377,0.4735,9.7674,-0.008,0.0243,-0.0582
33146,45.873047,-0.336799,96.33,6.65,3.216,86.0,Dec-17,3314611,2019-08-09 23:30:31:838,1.5617,1.0099,10.1337,0.7727,0.4851,9.7641,0.0005,0.0184,-0.061
33147,45.873047,-0.336799,96.33,6.65,3.216,86.0,Dec-17,3314711,2019-08-09 23:30:31:938,1.6138,0.3814,9.6327,0.8112,0.4701,9.7617,0.0091,-0.0026,-0.0604
33148,45.873047,-0.336799,96.33,6.65,3.216,86.0,Dec-17,3314811,2019-08-09 23:30:32:038,1.515,0.2833,9.6028,0.8155,0.4689,9.7614,-0.0155,-0.014,-0.0833
33149,45.873047,-0.336799,96.33,6.65,3.216,86.0,Dec-17,3314911,2019-08-09 23:30:32:138,1.2493,-0.1806,10.2307,0.8284,0.413,9.7629,0.011,-0.0109,-0.1004
33150,45.873047,-0.336799,96.33,6.65,3.216,86.0,Dec-17,3315010,2019-08-09 23:30:32:237,1.3277,-0.9713,9.4179,0.8389,0.3802,9.7633,0.0242,0.0014,-0.1091
33151,45.873047,-0.336799,96.33,6.65,3.216,86.0,Dec-17,3315110,2019-08-09 23:30:32:337,1.5348,-0.4793,9.2485,0.8699,0.3369,9.7622,-0.0321,0.0065,-0.1274
33152,45.873047,-0.336799,96.33,6.65,3.216,86.0,Dec-17,3315210,2019-08-09 23:30:32:437,1.5384,-0.1615,9.6196,0.8897,0.3335,9.7605,-0.0031,0.0127,-0.1207
33153,45.873047,-0.336799,96.33,6.65,3.216,86.0,Dec-17,3315311,2019-08-09 23:30:32:538,1.2804,-1.8763,10.002,0.9198,0.2725,9.7596,0.0223,-0.0001,-0.1152
33154,45.873047,-0.336799,96.33,6.65,3.216,86.0,Dec-17,3315411,2019-08-09 23:30:32:638,1.369,-1.2939,9.6411,0.9313,0.2237,9.7598,-0.014,0.0101,-0.1557
33155,45.873047,-0.336799,96.33,6.65,3.216,86.0,Dec-17,3315510,2019-08-09 23:30:32:737,1.6019,-1.5728,9.437,0.9529,0.1838,9.7585,-0.0299,0.0274,-0.1272
33156,45.873047,-0.336799,96.33,6.65,3.216,86.0,13 / 17,3315610,2019-08-09 23:30:32:837,1.7575,-1.355,9.6525,1.0267,0.1442,9.7517,-0.0148,0.0403,-0.1729
33157,45.873047,-0.336799,96.33,6.65,3.216,86.0,13 / 17,3315710,2019-08-09 23:30:32:937,2.2632,-1.6728,9.8985,1.0693,0.1249,9.7474,0.0144,0.0332,-0.1901
33158,45.873047,-0.336799,96.33,6.65,3.216,86.0,13 / 17,3315810,2019-08-09 23:30:33:037,2.4638,-1.6345,9.5807,1.1507,0.0293,9.7389,-0.0089,0.0289,-0.1953
33159,45.873047,-0.336799,96.33,6.65,3.216,86.0,13 / 17,3315910,2019-08-09 23:30:33:137,2.0801,-1.5632,9.1713,1.185,0.0083,9.7348,-0.0345,0.0399,-0.2148
33160,45.873047,-0.336799,96.33,6.65,3.216,86.0,13 / 17,3316010,2019-08-09 23:30:33:237,2.1435,-1.5345,9.522,1.2747,-0.0542,9.7233,-0.0014,0.0504,-0.232
33161,45.873047,-0.336799,96.33,6.65,3.216,86.0,13 / 17,3316110,2019-08-09 23:30:33:337,2.769,-1.7596,9.3879,1.3175,-0.0991,9.7172,0.0018,0.0343,-0.2614
33162,45.873047,-0.336799,96.33,6.65,3.216,86.0,13 / 17,3316210,2019-08-09 23:30:33:437,2.4027,-1.5357,9.5064,1.415,-0.186,9.7022,-0.0054,0.0423,-0.2609
33163,45.873047,-0.336799,96.33,6.65,3.216,86.0,13 / 17,3316311,2019-08-09 23:30:33:538,2.3225,-0.9096,9.0689,1.446,-0.2396,9.6965,-0.0395,0.0291,-0.2577
33164,45.873047,-0.336799,96.33,6.65,3.216,86.0,13 / 17,3316411,2019-08-09 23:30:33:638,2.0196,-1.267,9.2042,1.5055,-0.3138,9.6853,-0.0437,0.0277,-0.22
33165,45.873047,-0.336799,96.33,6.65,3.216,86.0,13 / 17,3316510,2019-08-09 23:30:33:737,3.0126,-2.4671,10.0421,1.5277,-0.3763,9.6796,0.0273,0.0119,-0.3195
33166,45.873047,-0.336799,96.33,6.65,3.216,86.0,13 / 15,3316610,2019-08-09 23:30:33:837,2.1758,-2.1361,9.8692,1.5474,-0.4634,9.6727,-0.0079,-0.007,-0.2332
33167,45.873047,-0.336799,96.33,6.65,3.216,86.0,13 / 15,3316711,2019-08-09 23:30:33:938,2.2028,-2.1373,9.3825,1.564,-0.5029,9.6681,-0.0041,0.0926,-0.3232
33168,45.873047,-0.336799,96.33,6.65,3.216,86.0,13 / 15,3316811,2019-08-09 23:30:34:038,2.9079,-2.0547,9.2179,1.6794,-0.6377,9.6407,0.0244,0.0744,-0.3027
33169,45.873047,-0.336799,96.33,6.65,3.216,86.0,13 / 15,3316911,2019-08-09 23:30:34:138,3.0952,-2.5509,8.5739,1.6917,-0.6884,9.6351,-0.0377,-0.0093,-0.2618
33170,45.873047,-0.336799,96.33,6.65,3.216,86.0,13 / 15,3317010,2019-08-09 23:30:34:237,3.3179,-1.0736,9.5208,1.7052,-0.7671,9.6267,-0.021,-0.0329,-0.2818
33171,45.873047,-0.336799,96.33,6.65,3.216,86.0,13 / 15,3317110,2019-08-09 23:30:34:337,2.3722,-0.9725,9.8901,1.697,-0.7944,9.626,-0.021,-0.0329,-0.2818
33172,45.873047,-0.336799,96.33,6.65,3.216,86.0,13 / 15,3317210,2019-08-09 23:30:34:437,2.5709,-0.5122,10.4695,1.6912,-0.7733,9.6287,-0.0042,0.0173,-0.3428
33173,45.873047,-0.336799,96.33,6.65,3.216,86.0,13 / 15,3317310,2019-08-09 23:30:34:537,2.4045,-0.8564,9.5639,1.7065,-0.7468,9.6281,0.0065,0.0239,-0.2767
33174,45.873047,-0.336799,96.33,6.65,3.216,86.0,13 / 15,3317411,2019-08-09 23:30:34:638,1.9268,-1.3167,9.209,1.7371,-0.7921,9.619,0.0013,0.0138,-0.2592
33175,45.873047,-0.336799,96.33,6.65,3.216,86.0,13 / 15,3317510,2019-08-09 23:30:34:737,1.7868,-0.5427,9.6758,1.7442,-0.8197,9.6154,0.0017,0.0095,-0.1848
33176,45.873047,-0.336799,96.33,6.65,3.216,86.0,Nov-15,3317611,2019-08-09 23:30:34:838,1.4289,0.0648,9.3041,1.7397,-0.8364,9.6148,-0.038,0.0156,-0.1755
33177,45.873047,-0.336799,96.33,6.65,3.216,86.0,Nov-15,3317710,2019-08-09 23:30:34:937,1.2804,-1.2341,9.4873,1.7314,-0.8364,9.6163,-0.0331,0.0022,-0.1714
33178,45.873047,-0.336799,96.33,6.65,3.216,86.0,Nov-15,3317810,2019-08-09 23:30:35:037,1.1296,-0.6068,9.3472,1.694,-0.8342,9.6231,-0.0221,-0.0057,-0.1025
33179,45.873047,-0.336799,96.33,6.65,3.216,86.0,Nov-15,3317910,2019-08-09 23:30:35:137,0.5262,-1.4166,9.3939,1.6665,-0.8372,9.6277,-0.0069,-0.0053,-0.1057
33180,45.873047,-0.336799,96.33,6.65,3.216,86.0,Nov-15,3318011,2019-08-09 23:30:35:238,0.7836,-2.4114,9.7046,1.6297,-0.8248,9.6351,-0.0421,0.0053,-0.0553
33181,45.873047,-0.336799,96.33,6.65,3.216,86.0,Nov-15,3318111,2019-08-09 23:30:35:338,1.1541,-1.6572,10.1637,1.6061,-0.8475,9.6371,0.0189,-0.0081,-0.1003
33182,45.873047,-0.336799,96.33,6.65,3.216,86.0,Nov-15,3318210,2019-08-09 23:30:35:437,0.8596,-0.6906,9.4675,1.5577,-0.8352,9.6461,-0.0369,-0.0206,-0.0408
33183,45.873047,-0.336799,96.33,6.65,3.216,86.0,Nov-15,3318310,2019-08-09 23:30:35:537,-0.2561,-2.2127,9.3137,1.5349,-0.8454,9.6488,0.0017,-0.0113,0.0332
33184,45.873047,-0.336799,96.33,6.65,3.216,86.0,Nov-15,3318410,2019-08-09 23:30:35:637,-0.8798,-1.6159,9.4753,1.4512,-0.8625,9.6603,0.0137,-0.0153,0.1295
33185,45.873047,-0.336799,96.33,6.65,3.216,86.0,Nov-15,3318511,2019-08-09 23:30:35:738,-0.7391,-1.2945,9.8404,1.4017,-0.8663,9.6672,-0.0544,-0.0085,0.128
33186,45.873047,-0.336799,96.33,6.65,3.216,86.0,14 / 18,3318611,2019-08-09 23:30:35:838,-0.9989,-1.5285,9.519,1.3254,-0.8355,9.6807,-0.0064,-0.0055,0.114
33187,45.873047,-0.336799,96.33,6.65,3.216,86.0,14 / 18,3318710,2019-08-09 23:30:35:937,-0.5517,-0.8624,10.1864,1.2732,-0.8258,9.6885,-0.0153,-0.0492,0.0681
33188,45.873047,-0.336799,96.33,6.65,3.216,86.0,14 / 18,3318810,2019-08-09 23:30:36:037,-1.953,0.4533,10.1241,1.1801,-0.779,9.7042,-0.0108,0.0087,0.2228
33189,45.873047,-0.336799,96.33,6.65,3.216,86.0,14 / 18,3318910,2019-08-09 23:30:36:137,-0.8546,-0.8713,10.1936,1.135,-0.8002,9.7078,0.0615,-0.0246,0.1221
33190,45.873047,-0.336799,96.33,6.65,3.216,86.0,14 / 18,3319011,2019-08-09 23:30:36:238,-1.4981,-0.9713,9.7698,1.0752,-0.7654,9.7174,0.0716,-0.0583,0.1929
33191,45.873047,-0.336799,96.33,6.65,3.216,86.0,14 / 18,3319111,2019-08-09 23:30:36:338,-2.6539,-0.1417,9.9559,0.9353,-0.7796,9.7308,0.0426,-0.0352,0.2794
33192,45.873047,-0.336799,96.33,6.65,3.216,86.0,14 / 18,3319210,2019-08-09 23:30:36:437,-2.2486,-0.8546,10.0924,0.8783,-0.7701,9.7368,-0.0235,-0.0294,0.3097
33193,45.873047,-0.336799,96.33,6.65,3.216,86.0,14 / 18,3319310,2019-08-09 23:30:36:537,-2.4282,0.0941,9.5789,0.7528,-0.7097,9.7519,-0.0248,-0.0245,0.3425
33194,45.873047,-0.336799,96.33,6.65,3.216,86.0,14 / 18,3319410,2019-08-09 23:30:36:637,-1.9715,0.1217,10.0134,0.7126,-0.7162,9.7545,0.0516,0.0048,0.3254
33195,45.873047,-0.336799,96.33,6.65,3.216,86.0,14 / 18,3319510,2019-08-09 23:30:36:737,-2.2355,-1.1,9.7932,0.6355,-0.6972,9.7612,-0.0151,-0.013,0.3609
33196,45.873047,-0.336799,96.33,6.65,3.216,86.0,14 / 18,3319610,2019-08-09 23:30:36:837,-1.9871,-0.8073,10.0852,0.5958,-0.7065,9.763,0.0653,-0.0212,0.3213
33197,45.873047,-0.336799,96.33,6.65,3.216,86.0,14 / 18,3319710,2019-08-09 23:30:36:937,-2.6982,-0.748,10.0332,0.4876,-0.7063,9.769,0.0028,-0.0351,0.3826
33198,45.873047,-0.336799,96.33,6.65,3.216,86.0,14 / 18,3319810,2019-08-09 23:30:37:037,-2.6173,-0.6319,9.5424,0.4452,-0.6791,9.773,0.0114,-0.0204,0.3654
33199,45.873047,-0.336799,96.33,6.65,3.216,86.0,14 / 18,3319911,2019-08-09 23:30:37:138,-2.4958,-0.1315,10.2684,0.3574,-0.7049,9.7748,0.0745,-0.0164,0.3254
33200,45.873047,-0.336799,96.33,6.65,3.216,86.0,14 / 18,3320010,2019-08-09 23:30:37:237,-2.7311,-0.9898,9.8632,0.305,-0.7258,9.775,0.0659,-0.0276,0.3715
33201,45.873047,-0.336799,96.33,6.65,3.216,86.0,14 / 18,3320110,2019-08-09 23:30:37:337,-2.4444,-0.833,9.7417,0.2278,-0.7858,9.7725,0.0023,-0.0283,0.3988
33202,45.873047,-0.336799,96.33,6.65,3.216,86.0,14 / 18,3320210,2019-08-09 23:30:37:437,-2.1277,-0.7361,9.0468,0.1813,-0.7989,9.7724,0.0023,-0.0283,0.3988
33203,45.873047,-0.336799,96.33,6.65,3.216,86.0,14 / 18,3320310,2019-08-09 23:30:37:537,-2.2133,-1.3568,9.7153,0.0863,-0.8619,9.7683,0.028,-0.0443,0.3718
33204,45.873047,-0.336799,96.33,6.65,3.216,86.0,14 / 18,3320410,2019-08-09 23:30:37:637,-2.8167,-0.7462,9.2634,0.039,-0.9022,9.765,-0.0196,-0.0281,0.4033
33205,45.873047,-0.336799,96.33,6.65,3.216,86.0,14 / 18,3320511,2019-08-09 23:30:37:738,-2.5312,-0.745,9.9637,-0.0445,-0.9227,9.763,0.0453,-0.0197,0.388
33206,45.873047,-0.336799,96.33,6.65,3.216,86.0,13 / 16,3320611,2019-08-09 23:30:37:838,-2.8789,-1.3202,10.1236,-0.0734,-0.9218,9.763,0.0584,-0.0321,0.3903
33207,45.873047,-0.336799,96.33,6.65,3.216,86.0,13 / 16,3320711,2019-08-09 23:30:37:938,-3.0878,-0.5481,9.8925,-0.1542,-0.9699,9.7573,0.0018,-0.0298,0.3945
33208,45.873047,-0.336799,96.33,6.65,3.216,86.0,13 / 16,3320810,2019-08-09 23:30:38:037,-2.3791,-0.7552,9.7848,-0.1974,-0.9689,9.7567,0.0209,-0.0202,0.4131
33209,45.873047,-0.336799,96.33,6.65,3.216,86.0,13 / 16,3320911,2019-08-09 23:30:38:138,-2.8556,-0.657,9.9087,-0.2534,-1.0187,9.7503,0.0335,-0.0311,0.3669
33210,45.873047,-0.336799,96.33,6.65,3.216,86.0,13 / 16,3321011,2019-08-09 23:30:38:238,-3.1381,-1.2652,9.9901,-0.2951,-1.0557,9.7452,0.0449,-0.0711,0.3842
33211,45.873047,-0.336799,96.33,6.65,3.216,86.0,13 / 16,3321110,2019-08-09 23:30:38:337,-2.5431,-0.4308,8.5775,-0.3802,-1.0717,9.7405,0.1303,-0.0554,0.3266
33212,45.873047,-0.336799,96.33,6.65,3.216,86.0,13 / 16,3321210,2019-08-09 23:30:38:437,-3.2823,-0.174,10.0098,-0.4097,-1.101,9.736,-0.0357,-0.028,0.4833
33213,45.873047,-0.336799,96.33,6.65,3.216,86.0,13 / 16,3321310,2019-08-09 23:30:38:537,-1.7075,-1.5986,10.3241,-0.4681,-1.1377,9.7292,0.0338,-0.0428,0.3399
33214,45.873047,-0.336799,96.33,6.65,3.216,86.0,13 / 16,3321411,2019-08-09 23:30:38:638,-2.8496,-0.6535,8.9606,-0.4884,-1.1231,9.7299,-0.0588,-0.0303,0.4405
33215,45.873047,-0.336799,96.33,6.65,3.216,86.0,13 / 16,3321511,2019-08-09 23:30:38:738,-2.0607,-0.8228,10.0577,-0.556,-1.1929,9.7179,-0.0191,-0.0236,0.4471
33216,45.873047,-0.336799,96.33,6.65,3.216,86.0,13 / 16,3321611,2019-08-09 23:30:38:838,-1.7943,-0.7349,10.2953,-0.5802,-1.2067,9.7148,-0.0073,-0.0228,0.3797
33217,45.873047,-0.336799,96.33,6.65,3.216,86.0,13 / 16,3321710,2019-08-09 23:30:38:937,-2.2762,-0.994,9.3646,-0.6027,-1.2492,9.7081,0.0164,-0.0187,0.362
33218,45.873047,-0.336799,96.33,6.65,3.216,86.0,13 / 16,3321810,2019-08-09 23:30:39:037,-1.3712,-1.1137,10.4623,-0.6277,-1.2845,9.7019,0.0511,-0.0556,0.2709
33219,45.873047,-0.336799,96.33,6.65,3.216,86.0,13 / 16,3321910,2019-08-09 23:30:39:137,-1.5076,-0.9108,10.2852,-0.6574,-1.34,9.6924,0.0441,-0.0357,0.2542
33220,45.873047,-0.336799,96.33,6.65,3.216,86.0,13 / 16,3322010,2019-08-09 23:30:39:237,-2.2397,-1.1054,9.3299,-0.6452,-1.3421,9.6929,-0.0172,0.0059,0.3613
33221,45.873047,-0.336799,96.33,6.65,3.216,86.0,13 / 16,3322110,2019-08-09 23:30:39:337,-1.4274,-1.9481,9.2622,-0.6547,-1.4226,9.6808,-0.0092,-0.0302,0.3192
33222,45.873047,-0.336799,96.33,6.65,3.216,86.0,13 / 16,3322210,2019-08-09 23:30:39:437,-1.1724,-1.3825,9.3418,-0.6591,-1.4671,9.6739,-0.0013,-0.0291,0.2777
33223,45.873047,-0.336799,96.33,6.65,3.216,86.0,13 / 16,3322310,2019-08-09 23:30:39:537,-1.498,-2.0481,9.0073,-0.6601,-1.4812,9.6716,0.0395,-0.001,0.2827
33224,45.873047,-0.336799,96.33,6.65,3.216,86.0,13 / 16,3322410,2019-08-09 23:30:39:637,-0.8498,-1.5124,10.1272,-0.6587,-1.5083,9.6675,0.0067,-0.0505,0.1644
33225,45.873047,-0.336799,96.33,6.65,3.216,86.0,13 / 16,3322511,2019-08-09 23:30:39:738,-1.0222,-1.3083,9.7004,-0.658,-1.509,9.6675,-0.0412,-0.0164,0.2931
33226,45.873047,-0.336799,96.33,6.65,3.216,86.0,14 / 16,3322610,2019-08-09 23:30:39:837,-1.0833,-0.8821,10.1391,-0.6692,-1.5363,9.6624,-0.0408,-0.0122,0.2272
33227,45.873047,-0.336799,96.33,6.65,3.216,86.0,14 / 16,3322710,2019-08-09 23:30:39:937,-0.3411,-2.7508,9.7656,-0.6525,-1.5563,9.6604,0.0894,0.0134,0.1495
33228,45.873047,-0.336799,96.33,6.65,3.216,86.0,14 / 16,3322811,2019-08-09 23:30:40:038,0.0313,-2.3156,9.133,-0.5754,-1.616,9.6555,-0.0208,0.0378,0.1004
33229,45.873047,-0.336799,96.33,6.65,3.216,86.0,14 / 16,3322910,2019-08-09 23:30:40:137,1.615,-2.7669,9.3335,-0.5704,-1.5978,9.6588,0.0141,0.0072,0.0502
33230,45.873047,-0.336799,96.33,6.65,3.216,86.0,14 / 16,3323010,2019-08-09 23:30:40:237,1.1356,-2.2899,9.4209,-0.4933,-1.5976,9.6631,-0.0367,0.0167,0.0502
33231,45.873047,-0.336799,96.33,6.65,3.216,86.0,14 / 16,3323110,2019-08-09 23:30:40:337,1.8532,-2.3306,10.7544,-0.4588,-1.5573,9.6713,-0.0906,-0.0462,-0.0475
33232,45.873047,-0.336799,96.33,6.65,3.216,86.0,14 / 16,3323211,2019-08-09 23:30:40:438,1.5384,-0.499,9.859,-0.4294,-1.5348,9.6763,0.0065,-0.0298,0.0401
33233,45.873047,-0.336799,96.33,6.65,3.216,86.0,14 / 16,3323311,2019-08-09 23:30:40:538,1.1589,-0.8707,9.3532,-0.4196,-1.4965,9.6827,-0.0279,0.0086,-0.0458
33234,45.873047,-0.336799,96.33,6.65,3.216,86.0,14 / 16,3323410,2019-08-09 23:30:40:637,2.4554,-2.4503,10.3486,-0.3326,-1.5783,9.6731,0.0729,0.0188,-0.1311
33235,45.873047,-0.336799,96.33,6.65,3.216,86.0,14 / 16,3323510,2019-08-09 23:30:40:737,1.7102,-1.2795,9.3897,-0.3046,-1.5658,9.676,-0.0471,0.0013,-0.086
33236,45.873062,-0.336009,96.46,9.21,3.216,49.6,13 / 16,3323610,2019-08-09 23:30:40:837,2.1268,-0.496,9.1527,-0.2208,-1.5493,9.681,-0.0295,0.0287,-0.1279
33237,45.873062,-0.336009,96.46,9.21,3.216,49.6,13 / 16,3323710,2019-08-09 23:30:40:937,1.7527,-1.106,9.3119,-0.1801,-1.5665,9.6791,-0.0068,0.0423,-0.128
33238,45.873062,-0.336009,96.46,9.21,3.216,49.6,13 / 16,3323810,2019-08-09 23:30:41:037,2.8253,-2.0206,10.0894,-0.1007,-1.5797,9.6781,0.0041,0.0063,-0.1788
33239,45.873062,-0.336009,96.46,9.21,3.216,49.6,13 / 16,3323911,2019-08-09 23:30:41:138,2.7888,-1.2299,10.0296,-0.0579,-1.5485,9.6834,0.037,0.0191,-0.1727
33240,45.873062,-0.336009,96.46,9.21,3.216,49.6,13 / 16,3324010,2019-08-09 23:30:41:237,2.1118,-1.8925,9.1994,0.0114,-1.5225,9.6877,-0.0114,0.0032,-0.1937
33241,45.873062,-0.336009,96.46,9.21,3.216,49.6,13 / 16,3324111,2019-08-09 23:30:41:338,2.2513,-1.3292,9.0941,0.042,-1.5136,9.6891,0.0001,0.0323,-0.1061
33242,45.873062,-0.336009,96.46,9.21,3.216,49.6,13 / 16,3324211,2019-08-09 23:30:41:438,2.4267,-1.3382,9.8027,0.0873,-1.5134,9.6888,-0.0402,0.065,-0.0815
33243,45.873062,-0.336009,96.46,9.21,3.216,49.6,13 / 16,3324310,2019-08-09 23:30:41:537,3.3269,-1.6207,10.248,0.1351,-1.4874,9.6922,0.0606,0.0057,-0.2482
33244,45.873062,-0.336009,96.46,9.21,3.216,49.6,13 / 16,3324410,2019-08-09 23:30:41:637,2.2495,-0.8438,9.9182,0.198,-1.5327,9.6841,0.0771,0.0136,-0.1534
33245,45.873062,-0.336009,96.46,9.21,3.216,49.6,13 / 16,3324510,2019-08-09 23:30:41:737,1.8652,-2.9274,9.2365,0.2289,-1.5433,9.6817,-0.0217,0.0374,-0.1589
33246,45.873062,-0.336009,96.46,9.21,3.216,49.6,15 / 17,3324610,2019-08-09 23:30:41:837,2.0807,-2.5443,9.4939,0.2868,-1.5762,9.6749,-0.0056,0.0046,-0.1202
33247,45.873062,-0.336009,96.46,9.21,3.216,49.6,15 / 17,3324710,2019-08-09 23:30:41:937,2.2614,-1.6381,9.4095,0.2923,-1.587,9.673,-0.037,0.001,-0.1698
33248,45.873062,-0.336009,96.46,9.21,3.216,49.6,15 / 17,3324810,2019-08-09 23:30:42:037,2.5577,-1.9332,9.425,0.3301,-1.5775,9.6733,0.002,-0.0065,-0.1588
33249,45.873062,-0.336009,96.46,9.21,3.216,49.6,15 / 17,3324910,2019-08-09 23:30:42:137,2.763,-2.5724,9.8841,0.3506,-1.5787,9.6724,0.0197,0.01,-0.1778
33250,45.873062,-0.336009,96.46,9.21,3.216,49.6,15 / 17,3325010,2019-08-09 23:30:42:237,2.4626,-1.7883,9.3478,0.3846,-1.5661,9.6732,-0.0059,0.0078,-0.1808
33251,45.873062,-0.336009,96.46,9.21,3.216,49.6,15 / 17,3325110,2019-08-09 23:30:42:337,2.192,-1.1209,9.7578,0.4041,-1.5783,9.6704,-0.0061,0.0192,-0.1557
33252,45.873062,-0.336009,96.46,9.21,3.216,49.6,15 / 17,3325210,2019-08-09 23:30:42:437,2.3045,-1.3741,9.701,0.4473,-1.5675,9.6702,-0.027,0.0097,-0.1557
33253,45.873062,-0.336009,96.46,9.21,3.216,49.6,15 / 17,3325310,2019-08-09 23:30:42:537,2.8815,-1.7572,10.2546,0.469,-1.5622,9.6701,0.045,0.0146,-0.2045
33254,45.873062,-0.336009,96.46,9.21,3.216,49.6,15 / 17,3325411,2019-08-09 23:30:42:638,2.2758,-1.2622,9.5621,0.4912,-1.5771,9.6665,0.0036,-0.019,-0.168
33255,45.873062,-0.336009,96.46,9.21,3.216,49.6,15 / 17,3325511,2019-08-09 23:30:42:738,1.8951,-1.2179,9.1066,0.5013,-1.5806,9.6654,-0.0089,0.0074,-0.1579
33256,45.873062,-0.336009,96.46,9.21,3.216,49.6,14 / 17,3325611,2019-08-09 23:30:42:838,1.9819,-2.1911,9.3317,0.5261,-1.5769,9.6647,-0.0164,0.0127,-0.15
33257,45.873062,-0.336009,96.46,9.21,3.216,49.6,14 / 17,3325711,2019-08-09 23:30:42:938,2.0328,-1.3322,9.7932,0.5398,-1.5548,9.6675,-0.0425,0.004,-0.1148
33258,45.873062,-0.336009,96.46,9.21,3.216,49.6,14 / 17,3325811,2019-08-09 23:30:43:038,1.4881,-0.4775,9.6681,0.5616,-1.5224,9.6715,-0.0086,0.0172,-0.1186
33259,45.873062,-0.336009,96.46,9.21,3.216,49.6,14 / 17,3325911,2019-08-09 23:30:43:138,1.6934,-2.1804,9.8476,0.5791,-1.5193,9.6709,-0.0229,0.0033,-0.0985
33260,45.873062,-0.336009,96.46,9.21,3.216,49.6,14 / 17,3326011,2019-08-09 23:30:43:238,1.3247,-1.5381,9.6782,0.5969,-1.5228,9.6693,0.022,0.0212,-0.0892
33261,45.873062,-0.336009,96.46,9.21,3.216,49.6,14 / 17,3326111,2019-08-09 23:30:43:338,1.0913,-1.4813,9.1611,0.6237,-1.5125,9.6692,-0.0265,0.0322,-0.0809
33262,45.873062,-0.336009,96.46,9.21,3.216,49.6,14 / 17,3326211,2019-08-09 23:30:43:438,0.9417,-0.9665,9.9182,0.6648,-1.5235,9.6648,0.0074,0.0236,-0.0985
33263,45.873062,-0.336009,96.46,9.21,3.216,49.6,14 / 17,3326311,2019-08-09 23:30:43:538,1.6402,-1.1808,10.1673,0.6781,-1.5412,9.661,-0.0055,-0.0013,-0.0535
33264,45.873062,-0.336009,96.46,9.21,3.216,49.6,14 / 17,3326410,2019-08-09 23:30:43:637,0.7651,-1.5435,9.2736,0.6841,-1.5228,9.6635,-0.0163,0.0106,-0.0303
33265,45.873062,-0.336009,96.46,9.21,3.216,49.6,14 / 17,3326510,2019-08-09 23:30:43:737,0.5316,-1.5238,8.6565,0.689,-1.5023,9.6664,-0.0263,0.0219,-0.0269
33266,45.873062,-0.336009,96.46,9.21,3.216,49.6,15 / 18,3326610,2019-08-09 23:30:43:837,0.8082,-1.5944,9.1036,0.714,-1.4628,9.6706,-0.0387,0.0209,-0.0251
33267,45.873062,-0.336009,96.46,9.21,3.216,49.6,15 / 18,3326711,2019-08-09 23:30:43:938,0.9752,-1.6836,9.6393,0.7265,-1.4733,9.6681,-0.0185,0.0346,-0.0367
33268,45.873062,-0.336009,96.46,9.21,3.216,49.6,15 / 18,3326810,2019-08-09 23:30:44:037,1.3594,-1.2562,10.0798,0.7568,-1.4538,9.6687,-0.0012,0.0317,-0.0309
33269,45.873062,-0.336009,96.46,9.21,3.216,49.6,15 / 18,3326910,2019-08-09 23:30:44:137,1.2852,-1.9864,10.0188,0.7993,-1.4844,9.6606,0.0609,0.0379,-0.063
33270,45.873062,-0.336009,96.46,9.21,3.216,49.6,15 / 18,3327011,2019-08-09 23:30:44:238,1.0787,-2.0618,9.3071,0.8316,-1.5059,9.6546,0.0035,0.0341,-0.0301
33271,45.873062,-0.336009,96.46,9.21,3.216,49.6,15 / 18,3327111,2019-08-09 23:30:44:338,1.7162,-1.2724,9.7842,0.8693,-1.5409,9.6457,0.0214,0.0131,-0.0728
