,GPS LATITUDE (degrees), GPS LONGITUDE (degrees), GPS ALTITUDE (m), GPS SPEED (Kmh), GPS ACCURACY (m), GPS ORIENTATION (Â°),GPS SATELLITES IN RANGE, TIME SINCE START (ms), DATE (YYYY-MO-DD HH-MI-SS_SSS), ACCELEROMETER X (m/s²) , ACCELEROMETER Y (m/s²), ACCELEROMETER Z (m/s²), GRAVITY X (m/s²), GRAVITY Y (m/s²), GRAVITY Z (m/s²), GYROSCOPE Yaw (rad/s), GYROSCOPE Pitch (rad/s), GYROSCOPE Roll (rad/s), MAGNETIC FIELD X (Î¼T), MAGNETIC FIELD Y (Î¼T), MAGNETIC FIELD Z (Î¼T), ORIENTATION (Yaw) (Â°), ORIENTATION (Pitch) (Â°), ORIENTATION (Roll ) (Â°),Unnamed: 24
2382,52.15188,-1.893683,67,23.73,11.0,207.3,,17 / 24,238245,2019-08-16 11:33:22:614,-0.0795,0.2581,9.7293,0.0722,0.0539,9.8062,-0.0214,-0.0789,0.0128,-27.49,11.81,-2.27,203.9,1.71,1.25
2383,52.15188,-1.893683,67,23.73,11.0,207.3,,17 / 24,238345,2019-08-16 11:33:22:714,0.6642,0.3406,10.3182,0.1931,0.0478,9.8046,-0.0533,-0.0661,0.0362,-27.16,12.34,-3.17,203.76,2.85,1.05
2384,52.15188,-1.893683,67,23.73,11.0,207.3,,17 / 24,238446,2019-08-16 11:33:22:815,-0.1436,0.075,9.4524,0.0143,-0.0126,9.8066,0.0159,0.1022,0.0192,-27.16,12.34,-3.17,203.76,2.85,1.05
2385,52.15188,-1.893683,67,23.73,11.0,207.3,,17 / 24,238545,2019-08-16 11:33:22:914,-0.3806,-0.2755,10.8563,-0.0965,-0.0545,9.806,0.0159,0.1022,0.0192,-27.57,11.4,-3.12,201.27,2.9,0.95
2386,52.15188,-1.893683,67,23.73,11.0,207.3,,17 / 24,238645,2019-08-16 11:33:23:014,-0.1292,-0.2535,10.6258,-0.1695,-0.0855,9.8048,0.0191,0.099,0.017,-27.8,11.18,-1.41,201.4,1.8,0.84
2387,52.15188,-1.893683,67,23.73,11.0,207.3,,17 / 24,238746,2019-08-16 11:33:23:115,-0.197,0.026,10.3437,-0.0059,0.0173,9.8066,0.0106,-0.0608,0.0384,-27.68,11.57,0.37,201.4,1.8,0.95
2388,52.15188,-1.893683,67,23.73,11.0,207.3,,17 / 24,238845,2019-08-16 11:33:23:214,-0.015,-0.0841,9.0454,0.0277,0.0273,9.8066,0.0181,-0.0448,0.0128,-27.68,11.57,0.37,203.2,1.8,0.95
2389,52.15188,-1.893683,67,23.73,11.0,207.3,,17 / 24,238945,2019-08-16 11:33:23:314,-0.1939,-0.0176,9.6491,-0.0216,-0.0086,9.8066,-0.0086,0.0915,-0.0043,-27.3,12.35,-1.38,203.91,2.05,1.06
2390,52.15188,-1.893683,67,23.73,11.0,207.3,,17 / 24,239045,2019-08-16 11:33:23:414,-0.0638,0.1795,10.8589,0.0255,0.0125,9.8066,0.017,-0.0534,0.0277,-27.3,12.35,-1.38,203.91,2.05,1.06
2391,52.15188,-1.893683,67,23.73,11.0,207.3,,17 / 24,239146,2019-08-16 11:33:23:515,0.0378,0.3916,9.2117,0.0611,0.0561,9.8063,0.0436,-0.0896,-0.0107,-27.28,12.4,-1.46,203.9,2.22,1.06
2392,52.15171,-1.893865,68,23.78,11.0,206.4,,15 / 24,239245,2019-08-16 11:33:23:614,-0.2985,0.2027,10.0978,0.046,0.0737,9.8063,0.0436,-0.0896,-0.0107,-27.14,12.7,-1.5,203.9,2.22,1.06
2393,52.15171,-1.893865,68,23.78,11.0,206.4,,15 / 24,239345,2019-08-16 11:33:23:714,0.385,0.0407,8.3248,-0.0294,-0.0327,9.8066,-0.0288,0.0873,0.033,-27.71,11.28,-2.17,201.31,2.64,1.35
2394,52.15171,-1.893865,68,23.78,11.0,206.4,,15 / 24,239445,2019-08-16 11:33:23:814,-0.4085,0.0927,11.6266,-0.0327,-0.0475,9.8065,-0.0459,0.034,0.0245,-28.39,9.59,-1.4,201.31,2.64,1.35
2395,52.15171,-1.893865,68,23.78,11.0,206.4,,15 / 24,239545,2019-08-16 11:33:23:914,0.0415,0.2308,7.9194,-0.0172,-0.0452,9.8065,-0.0256,0.0127,0.0234,-28.12,10.33,-1.64,199.53,2.45,1.14
2396,52.15171,-1.893865,68,23.78,11.0,206.4,,15 / 24,239645,2019-08-16 11:33:24:014,0.0656,-0.3564,8.349,0.0205,-0.0078,9.8066,0.0085,-0.031,0.0149,-28.12,10.33,-1.64,199.53,2.45,1.14
2397,52.15171,-1.893865,68,23.78,11.0,206.4,,15 / 24,239745,2019-08-16 11:33:24:114,0.2459,-0.078,10.1239,-0.018,-0.0063,9.8066,-0.0192,0.0351,0.0213,-28.3,9.82,-1.56,199.54,2.55,1.06
2398,52.15171,-1.893865,68,23.78,11.0,206.4,,15 / 24,239845,2019-08-16 11:33:24:214,0.0361,0.1435,9.7512,-0.0028,0.0072,9.8066,-0.0203,0.0265,0.0373,-27.68,11.13,-3.18,199.54,2.55,1.06
2399,52.15171,-1.893865,68,23.78,11.0,206.4,,15 / 24,239945,2019-08-16 11:33:24:314,-0.0069,-0.0564,9.9446,-0.0144,0.0066,9.8066,0.0138,0.0106,0.0181,-27.96,10.34,-3.34,199.46,2.75,1.16
2400,52.15171,-1.893865,68,23.78,11.0,206.4,,15 / 24,240049,2019-08-16 11:33:24:418,-0.0068,-0.0052,9.5026,-0.0614,-0.0098,9.8065,0.0138,0.0106,0.0181,-27.96,10.34,-3.34,199.46,2.75,1.16
2401,52.15171,-1.893865,68,23.78,11.0,206.4,,15 / 24,240145,2019-08-16 11:33:24:514,-0.0021,-0.052,10.5012,-0.0443,-0.0106,9.8065,-0.015,0.0447,0.0373,-27.96,10.07,-4.12,199.4,2.39,1.22
2402,52.151524,-1.89402,67,23.81,11.0,205.1,,15 / 24,240245,2019-08-16 11:33:24:614,-0.3105,0.0012,10.3287,-0.0571,0.0061,9.8065,0.017,0.0628,0.033,-28.42,9.47,-1.65,197.69,2.09,1.37
2403,52.151524,-1.89402,67,23.81,11.0,205.1,,15 / 24,240346,2019-08-16 11:33:24:715,0.1261,0.0394,8.8769,0.016,0.0283,9.8066,0.0213,-0.0118,0.0224,-28.42,9.47,-1.65,197.69,2.09,1.37
2404,52.151524,-1.89402,67,23.81,11.0,205.1,,15 / 24,240445,2019-08-16 11:33:24:814,-0.0771,-0.0785,10.0121,0.0223,0.0317,9.8066,-0.0128,-0.0107,0.0245,-27.8,10.75,-3.35,201.23,2.23,1.5
2405,52.151524,-1.89402,67,23.81,11.0,205.1,,15 / 24,240545,2019-08-16 11:33:24:914,0.1314,0.3218,10.2794,0.0317,0.032,9.8065,-0.0107,-0.0235,0.016,-28.18,10.15,-1.64,201.23,2.23,1.5
2406,52.151524,-1.89402,67,23.81,11.0,205.1,,15 / 24,240646,2019-08-16 11:33:25:015,0.3991,0.0983,9.6829,0.0543,0.031,9.8065,-0.0054,0.0319,0.0384,-28.12,10.4,-0.91,199.58,2.59,1.55
2407,52.151524,-1.89402,67,23.81,11.0,205.1,,15 / 24,240747,2019-08-16 11:33:25:116,-0.0397,-0.1217,10.2733,-0.0032,-0.0048,9.8066,0.0213,0.0202,0.0309,-28.52,9.12,-1.79,197.1,2.56,1.53
2408,52.151524,-1.89402,67,23.81,11.0,205.1,,15 / 24,240845,2019-08-16 11:33:25:214,0.2315,-0.1272,9.7111,-0.0344,-0.0126,9.8066,0.0213,0.0202,0.0309,-28.52,9.12,-1.79,197.1,2.56,1.53
2409,52.151524,-1.89402,67,23.81,11.0,205.1,,15 / 24,240945,2019-08-16 11:33:25:314,0.0418,-0.087,9.683,-0.0042,0.0287,9.8066,0.0181,-0.0235,0.0394,-27.99,10.5,-2.49,201.29,2.12,1.66
2410,52.151524,-1.89402,67,23.81,11.0,205.1,,15 / 24,241045,2019-08-16 11:33:25:414,0.2228,0.0494,8.5287,0.037,0.047,9.8065,0.0127,-0.0651,0.0266,-28.13,10.1,-2.57,201.29,2.12,1.66
2411,52.151524,-1.89402,67,23.81,11.0,205.1,,15 / 24,241145,2019-08-16 11:33:25:514,0.458,0.0442,8.4166,0.0492,0.0064,9.8065,0.0074,-0.015,0.0128,-28.27,9.42,-3.44,197.56,2.42,1.84
2412,52.15132,-1.894164,67,23.88,11.0,203.6,,15 / 24,241245,2019-08-16 11:33:25:614,0.0132,0.0919,9.9191,0.0696,-0.0195,9.8064,-0.0214,-0.0427,0.0053,-28.27,9.42,-3.44,197.56,2.42,1.84
2413,52.15132,-1.894164,67,23.88,11.0,203.6,,15 / 24,241345,2019-08-16 11:33:25:714,-0.3827,0.1254,10.4926,0.0153,-0.0032,9.8066,0.0063,-0.0587,-0.0064,-28.19,9.64,-3.52,199.33,2.78,1.61
2414,52.15132,-1.894164,67,23.88,11.0,203.6,,15 / 24,241445,2019-08-16 11:33:25:814,0.5824,-0.0003,7.9948,0.0387,-0.0141,9.8066,-0.0363,0.0553,0.0192,-27.96,10.31,-3.49,199.43,2.96,1.45
2415,52.15132,-1.894164,67,23.88,11.0,203.6,,15 / 24,241546,2019-08-16 11:33:25:915,0.1452,-0.1212,10.9747,0.0163,-0.0387,9.8066,-0.0363,0.0553,0.0192,-27.96,10.31,-3.49,199.43,2.96,1.45
2416,52.15132,-1.894164,67,23.88,11.0,203.6,,15 / 24,241645,2019-08-16 11:33:26:014,0.2406,-0.1799,11.2891,0.0185,-0.0416,9.8065,-0.0523,0.001,0.017,-28.18,9.9,-2.84,199.45,2.98,1.21
2417,52.15132,-1.894164,67,23.88,11.0,203.6,,15 / 24,241745,2019-08-16 11:33:26:114,0.1962,-0.4498,11.2581,-0.0349,-0.0814,9.8063,0.0383,0.1139,0.0298,-28.41,9.2,-2.87,197.67,2.63,0.83
2418,52.15132,-1.894164,67,23.88,11.0,203.6,,15 / 24,241845,2019-08-16 11:33:26:214,-0.6272,-0.0823,11.4621,-0.2352,-0.006,9.8038,0.0479,0.1086,0.0426,-28.23,10.14,-0.26,197.67,2.63,0.83
2419,52.15132,-1.894164,67,23.88,11.0,203.6,,15 / 24,241946,2019-08-16 11:33:26:315,-0.1821,-0.1965,9.2948,-0.2072,0.0147,9.8045,-0.0256,0.0084,0.0362,-28.23,10.14,-0.26,197.67,2.63,0.83
2420,52.15132,-1.894164,67,23.88,11.0,203.6,,15 / 24,242045,2019-08-16 11:33:26:414,0.9333,-0.121,7.8989,0.1277,0.0277,9.8058,-0.0246,-0.1886,0.0447,-28.31,9.91,0.58,199.71,1.5,1.28
2421,52.15132,-1.894164,67,23.88,11.0,203.6,,15 / 24,242145,2019-08-16 11:33:26:514,0.3318,0.0023,8.2191,0.0746,0.0215,9.8063,-0.0075,0.0084,0.0256,-28.66,8.8,-1.13,197.19,2.26,1.18
2422,52.15112,-1.894314,67,23.89,11.0,202.0,,15 / 24,242245,2019-08-16 11:33:26:614,0.4702,0.0354,9.7647,0.1116,0.0324,9.806,-0.0075,0.0084,0.0256,-28.49,8.98,-2.8,197.19,2.26,1.18
2423,52.15112,-1.894314,67,23.89,11.0,202.0,,15 / 24,242345,2019-08-16 11:33:26:714,0.2479,0.1578,11.265,0.0984,0.0477,9.806,0.0383,0.0436,0.0064,-28.49,8.98,-2.8,197.19,2.26,1.18
2424,52.15112,-1.894314,67,23.89,11.0,202.0,,15 / 24,242445,2019-08-16 11:33:26:814,-0.0749,-0.0493,10.6141,-0.0663,-0.018,9.8064,0.0042,0.0159,0.0202,-28.17,9.38,-4.28,197.55,2.89,1.27
2425,52.15112,-1.894314,67,23.89,11.0,202.0,,15 / 24,242545,2019-08-16 11:33:26:914,-0.1935,-0.4649,11.1745,-0.0935,-0.0554,9.806,-0.0064,0.1064,0.0234,-28.45,8.52,-4.21,197.56,2.49,1.29
2426,52.15112,-1.894314,67,23.89,11.0,202.0,,15 / 24,242645,2019-08-16 11:33:27:014,-0.4709,0.079,10.6328,-0.1513,-0.0633,9.8053,0.017,0.0724,0.0075,-28.47,8.15,-4.83,195.67,1.53,1.2
2427,52.15112,-1.894314,67,23.89,11.0,202.0,,15 / 24,242745,2019-08-16 11:33:27:114,0.0184,0.2143,8.6797,-0.0071,0.0095,9.8066,-0.0309,-0.047,0.0149,-28.47,8.15,-4.83,195.67,1.53,1.2
2428,52.15112,-1.894314,67,23.89,11.0,202.0,,15 / 24,242845,2019-08-16 11:33:27:214,0.391,0.0196,8.4692,0.0634,0.0028,9.8064,-0.0235,-0.0693,0.0362,-28.75,8.4,-1.79,195.32,1.89,1.12
2429,52.15112,-1.894314,67,23.89,11.0,202.0,,15 / 24,242945,2019-08-16 11:33:27:314,0.1417,0.0876,8.3441,0.0557,0.0166,9.8065,-0.0235,-0.0693,0.0362,-28.41,9.46,-1.86,197.72,2.41,0.96
2430,52.15112,-1.894314,67,23.89,11.0,202.0,,15 / 24,243046,2019-08-16 11:33:27:415,0.4226,-0.0401,9.5821,0.1048,0.0399,9.806,0.0266,-0.0544,0.0202,-28.41,9.46,-1.86,197.72,2.41,0.96
2431,52.15112,-1.894314,67,23.89,11.0,202.0,,15 / 24,243145,2019-08-16 11:33:27:514,0.2744,-0.1038,10.0906,0.0094,0.0068,9.8066,0.0298,-0.0523,0.0192,-28.62,8.79,-1.87,197.14,3.06,1.0
2432,52.150944,-1.894486,69,23.68,12.0,201.3,,17 / 24,243245,2019-08-16 11:33:27:614,0.1644,-0.2304,10.6813,-0.0312,-0.0275,9.8066,-0.0075,0.0233,0.0384,-28.49,8.98,-2.8,197.64,3.13,1.02
2433,52.150944,-1.894486,69,23.68,12.0,201.3,,17 / 24,243345,2019-08-16 11:33:27:714,-0.4212,-0.215,11.4152,-0.1262,-0.0517,9.8057,0.0127,0.0841,0.0224,-28.49,8.98,-2.8,197.64,3.13,1.02
2434,52.150944,-1.894486,69,23.68,12.0,201.3,,17 / 24,243446,2019-08-16 11:33:27:815,-0.4311,0.2392,10.6435,-0.0924,-0.0151,9.8062,0.017,0.0905,0.017,-28.51,9.26,-1.1,197.2,2.33,0.95
2435,52.150944,-1.894486,69,23.68,12.0,201.3,,17 / 24,243545,2019-08-16 11:33:27:914,0.1848,0.1371,8.745,-0.1089,-0.0027,9.806,0.0074,-0.0704,0.0202,-28.53,9.26,-0.26,197.2,2.33,0.95
2436,52.150944,-1.894486,69,23.68,12.0,201.3,,17 / 24,243645,2019-08-16 11:33:28:014,0.2405,0.0602,9.6262,-0.0496,0.0247,9.8065,-0.0235,-0.0459,0.0341,-28.94,7.86,-0.97,195.37,2.1,1.18
2437,52.150944,-1.894486,69,23.68,12.0,201.3,,17 / 24,243745,2019-08-16 11:33:28:114,0.447,0.007,9.7561,0.0798,0.0075,9.8063,-0.0235,-0.0459,0.0341,-28.94,7.86,-0.97,195.37,2.1,1.18
2438,52.150944,-1.894486,69,23.68,12.0,201.3,,17 / 24,243845,2019-08-16 11:33:28:214,-0.0216,-0.4306,10.81,0.0255,-0.0005,9.8066,-0.0043,0.0415,0.0011,-28.45,9.48,-1.0,197.77,2.71,1.03
2439,52.150944,-1.894486,69,23.68,12.0,201.3,,17 / 24,243945,2019-08-16 11:33:28:314,0.3169,-0.4802,8.5063,0.0196,0.0054,9.8066,0.0053,0.001,0.0032,-28.08,9.6,-4.38,199.42,2.85,0.98
2440,52.150944,-1.894486,69,23.68,12.0,201.3,,17 / 24,244045,2019-08-16 11:33:28:414,-0.1746,-0.2033,10.4739,0.0569,0.0096,9.8065,0.0202,-0.0427,0.0202,-27.71,9.95,-5.77,199.42,2.85,0.98
2441,52.150944,-1.894486,69,23.68,12.0,201.3,,17 / 24,244146,2019-08-16 11:33:28:515,0.4572,-0.1521,8.5781,0.0774,0.0078,9.8063,0.0095,-0.064,0.0234,-28.38,8.72,-4.31,197.59,3.3,0.87
2442,52.15077,-1.894633,68,23.27,12.0,200.7,,17 / 24,244245,2019-08-16 11:33:28:614,-0.2566,-0.0991,10.437,-0.0411,-0.0161,9.8066,0.0021,0.0947,0.0192,-28.38,8.72,-4.31,197.59,3.3,0.87
2443,52.15077,-1.894633,68,23.27,12.0,200.7,,17 / 24,244345,2019-08-16 11:33:28:714,-0.4692,-0.0709,10.7608,-0.0806,-0.015,9.8063,0.0532,0.0851,0.0373,-28.25,9.17,-4.18,197.6,3.04,0.86
2444,52.15077,-1.894633,68,23.27,12.0,200.7,,17 / 24,244446,2019-08-16 11:33:28:815,-0.3222,0.1219,9.6991,-0.1555,-0.0056,9.8054,0.0532,0.0851,0.0373,-28.04,10.52,-1.79,201.33,2.16,1.1
2445,52.15077,-1.894633,68,23.27,12.0,200.7,,17 / 24,244545,2019-08-16 11:33:28:914,-0.0853,0.1516,9.669,-0.0231,0.0287,9.8066,0.0202,-0.0768,0.0352,-28.04,10.52,-1.79,201.33,2.16,1.1
2446,52.15077,-1.894633,68,23.27,12.0,200.7,,17 / 24,244645,2019-08-16 11:33:29:014,0.246,-0.019,8.3322,0.0154,0.0622,9.8064,-0.016,-0.0193,0.0181,-28.49,9.25,-1.7,197.68,2.38,1.41
2447,52.15077,-1.894633,68,23.27,12.0,200.7,,17 / 24,244745,2019-08-16 11:33:29:114,0.2706,-0.1718,9.3568,0.0482,-0.0112,9.8065,-0.0416,-0.047,0.0298,-28.45,8.52,-4.21,197.54,2.7,1.37
2448,52.15077,-1.894633,68,23.27,12.0,200.7,,17 / 24,244845,2019-08-16 11:33:29:214,0.5069,-0.4342,9.529,0.1071,-0.0291,9.806,-0.0171,-0.1194,0.0107,-28.45,8.52,-4.21,197.54,2.7,1.37
2449,52.15077,-1.894633,68,23.27,12.0,200.7,,17 / 24,244945,2019-08-16 11:33:29:314,0.3625,-0.6462,10.3059,0.0853,-0.0785,9.806,-0.0064,0.0457,-0.0234,-28.43,8.3,-4.81,197.54,2.7,1.37
2450,52.15077,-1.894633,68,23.27,12.0,200.7,,17 / 24,245045,2019-08-16 11:33:29:414,-0.1239,-0.5064,9.9284,-0.0098,-0.0508,9.8065,0.0223,0.1,-0.0021,-28.15,9.14,-4.88,197.56,3.04,0.78
2451,52.15077,-1.894633,68,23.27,12.0,200.7,,17 / 24,245145,2019-08-16 11:33:29:514,-0.2766,-0.1445,10.2596,-0.0543,-0.0439,9.8064,0.017,-0.0097,0.0341,-28.25,9.17,-4.18,197.65,2.89,0.51
2452,52.150593,-1.894852,67,23.82,12.0,200.7,,17 / 24,245245,2019-08-16 11:33:29:614,-0.1876,-0.339,9.5357,-0.0629,-0.0548,9.8063,0.017,-0.0097,0.0341,-28.25,9.17,-4.18,197.65,2.89,0.51
2453,52.150593,-1.894852,67,23.82,12.0,200.7,,17 / 24,245345,2019-08-16 11:33:29:714,-0.1546,0.0912,9.533,-0.0008,0.025,9.8066,0.0255,-0.031,0.0298,-28.56,8.86,-2.43,197.19,2.45,0.32
2454,52.150593,-1.894852,67,23.82,12.0,200.7,,17 / 24,245445,2019-08-16 11:33:29:814,0.1579,0.1475,9.9986,0.0297,0.0284,9.8066,0.0511,0.0276,0.0011,-28.14,9.61,-3.95,199.5,2.49,0.46
2455,52.150593,-1.894852,67,23.82,12.0,200.7,,17 / 24,245545,2019-08-16 11:33:29:914,0.1716,-0.11,9.8686,0.0608,0.0485,9.8063,0.0085,-0.0704,0.0138,-28.06,9.82,-4.04,199.47,2.92,0.61
2456,52.150593,-1.894852,67,23.82,12.0,200.7,,17 / 24,245646,2019-08-16 11:33:30:015,0.1223,-0.0185,9.6837,0.0304,-0.001,9.8066,0.001,-0.0363,0.0234,-27.75,11.12,-2.47,201.36,3.08,0.54
2457,52.150593,-1.894852,67,23.82,12.0,200.7,,17 / 24,245745,2019-08-16 11:33:30:114,-0.316,0.0278,10.701,-0.0259,-0.0202,9.8066,0.0191,-0.015,0.016,-27.75,11.12,-2.47,201.36,3.08,0.54
2458,52.150593,-1.894852,67,23.82,12.0,200.7,,17 / 24,245845,2019-08-16 11:33:30:214,0.5411,0.0382,8.6094,-0.0063,-0.0188,9.8066,0.0191,-0.015,0.016,-28.14,9.85,-3.34,199.53,3.01,0.45
2459,52.150593,-1.894852,67,23.82,12.0,200.7,,17 / 24,245946,2019-08-16 11:33:30:315,-0.2062,0.0415,10.5455,-0.0502,-0.0227,9.8065,-0.0182,0.0127,-0.017,-28.22,9.88,-2.51,199.54,3.09,0.38
2460,52.150593,-1.894852,67,23.82,12.0,200.7,,17 / 24,246046,2019-08-16 11:33:30:415,-0.6704,0.2972,10.8477,-0.1221,-0.0422,9.8058,-0.0064,0.0724,0.0021,-28.22,9.88,-2.51,199.54,3.09,0.38
2461,52.150593,-1.894852,67,23.82,12.0,200.7,,17 / 24,246146,2019-08-16 11:33:30:515,-0.0879,0.1464,9.1112,-0.0242,-0.02,9.8066,0.0404,0.0287,-0.0245,-28.01,10.25,-3.24,199.55,2.34,0.38
2462,52.150383,-1.894985,67,23.91,13.0,200.4,,17 / 24,246246,2019-08-16 11:33:30:615,0.5268,0.2002,9.4766,0.0415,-0.0172,9.8065,0.0117,-0.0097,0.0,-28.08,10.28,-2.44,199.55,2.34,0.38
2463,52.150383,-1.894985,67,23.91,13.0,200.4,,17 / 24,246345,2019-08-16 11:33:30:714,0.0726,0.1327,9.3498,0.0772,-0.0281,9.8063,-0.032,0.0159,-0.0107,-28.13,10.3,-1.64,199.61,2.71,0.08
2464,52.150383,-1.894985,67,23.91,13.0,200.4,,17 / 24,246446,2019-08-16 11:33:30:815,0.3997,-0.1017,8.2796,0.0011,-0.0366,9.8066,-0.0022,-0.0502,0.0032,-28.13,10.3,-1.64,199.61,2.71,0.08
2465,52.150383,-1.894985,67,23.91,13.0,200.4,,17 / 24,246545,2019-08-16 11:33:30:914,0.133,0.3431,10.0745,0.0188,-0.0471,9.8065,0.0255,-0.032,0.0117,-28.26,9.89,-1.8,199.63,2.72,-0.22
2466,52.150383,-1.894985,67,23.91,13.0,200.4,,17 / 24,246645,2019-08-16 11:33:31:014,-0.1645,0.2578,9.1807,0.0477,0.0231,9.8065,0.0255,-0.032,0.0117,-28.14,9.85,-3.34,199.6,3.03,-0.19
2467,52.150383,-1.894985,67,23.91,13.0,200.4,,17 / 24,246746,2019-08-16 11:33:31:115,0.0324,0.2972,9.553,-0.0003,0.0163,9.8066,-0.0118,0.0521,0.0107,-28.3,9.66,-2.46,199.6,3.03,-0.19
2468,52.150383,-1.894985,67,23.91,13.0,200.4,,17 / 24,246845,2019-08-16 11:33:31:214,-0.0666,0.084,9.5828,-0.0465,0.0296,9.8065,0.0458,0.0436,0.0053,-28.3,9.66,-2.46,199.6,3.03,-0.19
2469,52.150383,-1.894985,67,23.91,13.0,200.4,,17 / 24,246945,2019-08-16 11:33:31:314,0.167,-0.0697,10.0198,0.0193,0.0023,9.8066,-0.0139,-0.0565,0.016,-28.01,10.25,-3.24,199.57,2.83,0.07
2470,52.150383,-1.894985,67,23.91,13.0,200.4,,17 / 24,247045,2019-08-16 11:33:31:414,-0.1097,0.035,9.9407,0.0304,-0.0024,9.8066,0.0021,0.0361,0.0043,-27.99,10.5,-2.49,199.57,2.83,0.07
2471,52.150383,-1.894985,67,23.91,13.0,200.4,,17 / 24,247145,2019-08-16 11:33:31:514,-0.2942,0.0279,10.2991,0.0037,-0.0201,9.8066,-0.0054,0.0553,-0.017,-27.99,10.5,-2.49,199.57,2.83,0.07
2472,52.15019,-1.895128,68,23.73,13.0,200.5,,17 / 24,247245,2019-08-16 11:33:31:614,0.113,-0.0916,9.087,-0.0182,-0.0199,9.8066,0.0042,-0.0523,0.0085,-28.13,10.3,-1.64,199.62,2.81,-0.05
2473,52.15019,-1.895128,68,23.73,13.0,200.5,,17 / 24,247345,2019-08-16 11:33:31:714,-0.2324,0.2094,10.7028,0.0155,-0.015,9.8066,0.0351,-0.1343,-0.0043,-28.07,9.83,-3.92,199.57,2.87,-0.16
2474,52.15019,-1.895128,68,23.73,13.0,200.5,,17 / 24,247446,2019-08-16 11:33:31:815,-0.0771,0.1893,10.0597,0.0484,0.0344,9.8065,0.0351,-0.1343,-0.0043,-28.07,9.83,-3.92,199.57,2.87,-0.16
2475,52.15019,-1.895128,68,23.73,13.0,200.5,,17 / 24,247545,2019-08-16 11:33:31:914,0.2131,-0.031,8.7251,0.0231,0.0011,9.8066,0.017,0.0031,-0.0011,-27.9,10.74,-2.43,201.41,3.2,-0.07
2476,52.15019,-1.895128,68,23.73,13.0,200.5,,17 / 24,247645,2019-08-16 11:33:32:014,0.1213,-0.0698,10.0103,-0.0113,-0.0102,9.8066,0.0063,-0.0193,-0.0128,-27.93,10.48,-3.19,199.58,3.33,-0.11
2477,52.15019,-1.895128,68,23.73,13.0,200.5,,17 / 24,247746,2019-08-16 11:33:32:115,0.1882,0.1398,9.4183,-0.0188,-0.0174,9.8066,-0.0629,-0.0384,0.0053,-28.06,10.08,-3.29,199.59,3.19,-0.17
2478,52.15019,-1.895128,68,23.73,13.0,200.5,,17 / 24,247845,2019-08-16 11:33:32:214,0.2095,-0.1994,9.6954,0.0006,-0.0546,9.8065,-0.0309,0.0329,-0.0043,-28.06,10.08,-3.29,199.59,3.19,-0.17
2479,52.15019,-1.895128,68,23.73,13.0,200.5,,17 / 24,247945,2019-08-16 11:33:32:314,0.007,-0.413,11.5368,-0.0483,-0.0497,9.8064,0.0276,0.115,-0.0447,-28.54,8.66,-3.26,197.22,3.09,-0.47
2480,52.15019,-1.895128,68,23.73,13.0,200.5,,17 / 24,248045,2019-08-16 11:33:32:414,0.1282,-0.5403,9.0914,-0.0429,-0.0217,9.8065,-0.0032,0.0297,0.0043,-28.35,9.21,-3.36,197.82,2.73,-0.67
2481,52.15019,-1.895128,68,23.73,13.0,200.5,,17 / 24,248145,2019-08-16 11:33:32:514,0.0382,0.3119,9.0855,-0.0483,0.0069,9.8065,0.0532,-0.1077,0.0021,-28.09,10.28,-2.33,199.65,2.48,-0.54
2482,52.14997,-1.895282,66,24.12,13.0,200.7,,17 / 24,248246,2019-08-16 11:33:32:615,0.1706,0.2825,9.1988,0.0568,0.0514,9.8064,0.0532,-0.1077,0.0021,-28.09,10.28,-2.33,199.65,2.48,-0.54
2483,52.14997,-1.895282,66,24.12,13.0,200.7,,17 / 24,248345,2019-08-16 11:33:32:714,0.2485,0.1717,9.177,0.047,0.0583,9.8064,0.0447,-0.0299,0.0181,-28.06,9.82,-4.04,199.6,2.89,-0.37
2484,52.14997,-1.895282,66,24.12,13.0,200.7,,17 / 24,248445,2019-08-16 11:33:32:814,0.0363,0.1421,10.5811,0.0581,0.1125,9.8058,0.0692,0.002,0.0309,-27.62,10.63,-4.91,199.6,2.89,-0.37
2485,52.14997,-1.895282,66,24.12,13.0,200.7,,17 / 24,248545,2019-08-16 11:33:32:914,-0.3002,-0.074,10.3806,0.0135,0.1716,9.8051,0.0745,0.0361,-0.0053,-27.47,11.59,-3.31,203.81,3.3,0.55
2486,52.14997,-1.895282,66,24.12,13.0,200.7,,17 / 24,248645,2019-08-16 11:33:33:014,0.2174,0.1412,9.3971,-0.0546,0.0359,9.8064,0.0042,-0.0012,-0.0202,-27.63,11.47,-2.29,201.34,3.09,0.87
2487,52.14997,-1.895282,66,24.12,13.0,200.7,,17 / 24,248745,2019-08-16 11:33:33:114,-0.0521,0.1219,11.0204,-0.024,-0.0178,9.8066,-0.0235,-0.0139,0.0085,-27.63,11.47,-2.29,201.34,3.09,0.87
2488,52.14997,-1.895282,66,24.12,13.0,200.7,,17 / 24,248845,2019-08-16 11:33:33:214,0.2435,-0.3132,7.7583,-0.0075,-0.0095,9.8066,-0.0171,0.0585,0.0138,-27.11,12.23,-3.9,203.72,2.92,0.82
2489,52.14997,-1.895282,66,24.12,13.0,200.7,,17 / 24,248945,2019-08-16 11:33:33:314,-0.421,-0.0432,10.4405,-0.0617,-0.0026,9.8065,0.0596,0.067,-0.0213,-27.07,12.53,-3.18,205.53,2.86,0.79
2490,52.14997,-1.895282,66,24.12,13.0,200.7,,17 / 24,249046,2019-08-16 11:33:33:415,-0.2984,0.3286,10.0255,-0.075,0.0338,9.8063,0.0351,-0.0384,-0.0032,-27.07,12.53,-3.18,205.53,2.86,0.79
2491,52.14997,-1.895282,66,24.12,13.0,200.7,,17 / 24,249145,2019-08-16 11:33:33:514,-0.2589,0.084,9.5143,-0.0074,0.0307,9.8066,0.0351,-0.0384,-0.0032,-27.05,12.88,-1.61,205.57,2.55,1.16
2492,52.149773,-1.895426,65,23.99,13.0,201.0,,17 / 24,249245,2019-08-16 11:33:33:614,-0.2015,-0.0046,8.7853,-0.0108,0.0521,9.8065,0.033,-0.0395,0.0181,-27.05,12.88,-1.61,205.55,2.63,1.46
2493,52.149773,-1.895426,65,23.99,13.0,201.0,,17 / 24,249345,2019-08-16 11:33:33:714,-0.0683,-0.1323,9.3107,-0.0138,0.0011,9.8066,-0.0043,0.0287,0.0234,-27.05,12.88,-1.61,205.55,2.63,1.46
2494,52.149773,-1.895426,65,23.99,13.0,201.0,,17 / 24,249445,2019-08-16 11:33:33:814,0.1309,-0.2163,9.2039,-0.0109,0.013,9.8066,-0.0107,0.0191,0.0096,-27.52,11.72,-2.34,203.05,2.56,1.5
2495,52.149773,-1.895426,65,23.99,13.0,201.0,,17 / 24,249546,2019-08-16 11:33:33:915,-0.1243,0.1538,10.5107,-0.0112,0.0481,9.8065,0.0149,0.0148,0.0011,-27.45,11.69,-3.14,203.05,2.56,1.5
2496,52.149773,-1.895426,65,23.99,13.0,201.0,,17 / 24,249645,2019-08-16 11:33:34:014,-0.2568,-0.1801,10.3245,-0.0297,0.0123,9.8066,0.0276,0.0873,0.0053,-27.86,10.88,-2.31,201.27,2.61,1.79
2497,52.149773,-1.895426,65,23.99,13.0,201.0,,17 / 24,249746,2019-08-16 11:33:34:115,-0.2978,0.0249,10.5449,-0.0662,0.0105,9.8064,0.017,-0.0054,0.0,-27.86,10.88,-2.31,201.27,2.61,1.79
2498,52.149773,-1.895426,65,23.99,13.0,201.0,,17 / 24,249845,2019-08-16 11:33:34:214,0.112,0.0958,10.1028,0.0088,0.018,9.8066,-0.0128,0.0159,-0.016,-27.27,12.3,-2.31,203.77,2.27,1.98
2499,52.149773,-1.895426,65,23.99,13.0,201.0,,17 / 24,249945,2019-08-16 11:33:34:314,0.1859,0.0921,8.6173,0.0357,0.039,9.8065,0.0159,-0.0715,-0.0064,-26.92,12.91,-2.94,205.4,2.55,2.11
2500,52.149773,-1.895426,65,23.99,13.0,201.0,,17 / 24,250045,2019-08-16 11:33:34:414,0.2385,-0.0213,8.3077,0.0058,-0.003,9.8066,0.0159,-0.0715,-0.0064,-26.92,12.91,-2.94,205.4,2.55,2.11
2501,52.149773,-1.895426,65,23.99,13.0,201.0,,17 / 24,250145,2019-08-16 11:33:34:514,0.055,0.2993,9.7765,0.0045,-0.0072,9.8066,0.0127,0.0148,0.0138,-27.07,12.58,-3.02,205.4,2.57,2.08
2502,52.149593,-1.895534,64,23.34,13.0,201.0,,17 / 24,250246,2019-08-16 11:33:34:615,0.3193,-0.0951,9.4241,0.0237,-0.0056,9.8066,-0.0182,0.0308,-0.0032,-27.0,12.86,-2.29,205.51,2.68,1.99
2503,52.149593,-1.895534,64,23.34,13.0,201.0,,17 / 24,250345,2019-08-16 11:33:34:714,0.0325,-0.263,10.2356,0.0023,-0.0273,9.8066,0.0276,-0.0193,-0.0213,-27.0,12.86,-2.29,205.51,2.68,1.99
2504,52.149593,-1.895534,64,23.34,13.0,201.0,,17 / 24,250445,2019-08-16 11:33:34:814,0.0533,-0.0132,9.9855,-0.0405,-0.0471,9.8065,0.0149,0.0617,0.0,-26.78,13.43,-1.48,205.61,2.35,1.84
2505,52.149593,-1.895534,64,23.34,13.0,201.0,,17 / 24,250546,2019-08-16 11:33:34:915,-0.2578,0.1148,10.3261,-0.044,-0.004,9.8066,0.0308,-0.0448,-0.017,-27.02,12.95,-1.43,205.61,2.11,1.93
2506,52.149593,-1.895534,64,23.34,13.0,201.0,,17 / 24,250645,2019-08-16 11:33:35:014,-0.2578,0.1148,10.3261,-0.044,-0.004,9.8066,0.0308,-0.0448,-0.017,-27.02,12.95,-1.43,205.61,2.11,1.93
2507,52.149593,-1.895534,64,23.34,13.0,201.0,,17 / 24,250745,2019-08-16 11:33:35:114,-0.2937,0.0201,8.1846,-0.0018,0.0036,9.8067,-0.0171,0.0031,-0.032,-26.95,13.18,-0.02,205.7,2.11,1.96
2508,52.149593,-1.895534,64,23.34,13.0,201.0,,17 / 24,250845,2019-08-16 11:33:35:214,0.5484,-0.0033,9.2094,0.1848,0.0111,9.8049,-0.0128,-0.0054,-0.0138,-27.22,12.59,-0.84,205.63,3.11,1.55
2509,52.149593,-1.895534,64,23.34,13.0,201.0,,17 / 24,250945,2019-08-16 11:33:35:314,0.2558,0.0397,10.1657,0.0302,-0.0157,9.8066,-0.0182,0.0596,0.0,-27.23,12.6,-0.02,205.72,3.23,1.39
2510,52.149593,-1.895534,64,23.34,13.0,201.0,,17 / 24,251045,2019-08-16 11:33:35:414,-0.2268,-0.3144,11.389,-0.1017,-0.068,9.8059,-0.0043,0.0393,-0.0053,-27.23,12.6,-0.02,205.72,3.23,1.39
2511,52.149593,-1.895534,64,23.34,13.0,201.0,,17 / 24,251145,2019-08-16 11:33:35:514,-0.2923,-0.2786,10.4788,-0.1508,-0.129,9.8046,-0.0309,0.0532,-0.017,-26.92,13.16,1.49,205.72,3.23,1.39
2512,52.14935,-1.895697,64,24.15,13.0,201.5,,17 / 24,251245,2019-08-16 11:33:35:614,-0.0391,-0.3529,10.1652,-0.0193,-0.0608,9.8064,-0.0064,0.0265,-0.0341,-27.01,12.86,2.26,205.84,2.11,1.09
2513,52.14935,-1.895697,64,24.15,13.0,201.5,,17 / 24,251345,2019-08-16 11:33:35:714,0.0117,-0.2564,9.2238,-0.0178,-0.0316,9.8066,-0.0064,0.0265,-0.0341,-26.95,12.84,2.93,205.87,1.85,0.82
2514,52.14935,-1.895697,64,24.15,13.0,201.5,,17 / 24,251445,2019-08-16 11:33:35:814,0.227,-0.1893,8.3545,0.0088,-0.0429,9.8066,-0.0086,0.0095,-0.0234,-26.95,12.84,2.93,205.87,1.85,0.82
2515,52.14935,-1.895697,64,24.15,13.0,201.5,,17 / 24,251545,2019-08-16 11:33:35:914,0.4904,-0.01,8.2918,0.0679,0.0183,9.8064,-0.0128,-0.0736,0.0,-27.1,12.87,-0.02,205.72,1.79,0.57
2516,52.14935,-1.895697,64,24.15,13.0,201.5,,17 / 24,251646,2019-08-16 11:33:36:015,0.0281,-0.0988,9.6027,0.1345,0.0297,9.8057,0.0127,-0.0949,0.0043,-27.09,12.87,0.82,205.78,2.57,0.39
2517,52.14935,-1.895697,64,24.15,13.0,201.5,,17 / 24,251745,2019-08-16 11:33:36:114,0.0561,0.3197,10.046,0.0466,0.0165,9.8065,0.0202,-0.0012,-0.0043,-27.09,12.87,0.82,205.78,2.57,0.39
2518,52.14935,-1.895697,64,24.15,13.0,201.5,,17 / 24,251845,2019-08-16 11:33:36:214,-0.1723,0.0811,11.0446,-0.0412,-0.0235,9.8065,0.0213,0.0393,-0.0298,-25.77,14.8,4.08,210.24,2.89,0.34
2519,52.14935,-1.895697,64,24.15,13.0,201.5,,17 / 24,251945,2019-08-16 11:33:36:314,-0.42,-0.0712,11.2285,-0.0493,-0.0504,9.8064,-0.0139,0.0404,-0.0138,-24.62,16.39,5.02,212.93,2.61,0.35
2520,52.14935,-1.895697,64,24.15,13.0,201.5,,17 / 24,252046,2019-08-16 11:33:36:415,-0.6651,-0.2247,9.2901,-0.1038,-0.1103,9.8055,-0.0139,0.0404,-0.0138,-23.61,17.62,5.68,212.93,2.61,0.35
2521,52.14935,-1.895697,64,24.15,13.0,201.5,,17 / 24,252145,2019-08-16 11:33:36:514,0.1766,-0.2067,8.9824,-0.0735,-0.1126,9.8057,-0.0118,0.0084,0.0011,-23.61,17.62,5.68,212.93,2.61,0.35
2522,52.149185,-1.895775,63,23.11,12.0,202.1,,17 / 24,252245,2019-08-16 11:33:36:614,-0.1838,0.2247,9.3434,0.0257,0.0405,9.8065,0.033,-0.0289,-0.0224,-22.31,19.05,6.28,221.09,1.89,0.03
2523,52.149185,-1.895775,63,23.11,12.0,202.1,,17 / 24,252345,2019-08-16 11:33:36:714,-0.0335,0.2389,9.1441,0.0616,0.07,9.8062,0.001,-0.0107,-0.0266,-21.41,19.7,7.33,221.09,1.89,0.03
2524,52.149185,-1.895775,63,23.11,12.0,202.1,,17 / 24,252445,2019-08-16 11:33:36:814,-0.1871,0.133,10.1935,0.0013,-0.0123,9.8066,-0.0224,-0.0054,-0.0085,-21.59,18.92,8.71,221.36,2.43,0.1
2525,52.149185,-1.895775,63,23.11,12.0,202.1,,17 / 24,252545,2019-08-16 11:33:36:914,-0.0679,0.0845,10.032,-0.0144,-0.0357,9.8066,0.0074,0.0777,-0.0245,-25.94,7.78,12.91,197.43,2.23,0.0
2526,52.149185,-1.895775,63,23.11,12.0,202.1,,17 / 24,252646,2019-08-16 11:33:37:015,-0.3236,0.2502,9.5262,-0.0322,-0.0056,9.8066,-0.0054,0.0702,-0.0288,-25.94,7.78,12.91,197.43,2.23,0.0
2527,52.149185,-1.895775,63,23.11,12.0,202.1,,17 / 24,252745,2019-08-16 11:33:37:114,-0.3337,0.1785,9.4055,-0.0497,-0.0014,9.8065,-0.0107,-0.032,-0.0107,-28.74,3.69,7.77,187.94,2.04,0.02
2528,52.149185,-1.895775,63,23.11,12.0,202.1,,17 / 24,252845,2019-08-16 11:33:37:214,-0.2978,-0.0894,9.7267,0.0147,-0.0072,9.8066,0.0021,-0.0374,0.0075,-28.86,3.78,7.27,187.93,1.75,0.06
2529,52.149185,-1.895775,63,23.11,12.0,202.1,,17 / 24,252946,2019-08-16 11:33:37:315,0.0338,-0.1106,9.2739,0.0595,0.0004,9.8065,0.0021,-0.0374,0.0075,-28.67,3.2,8.22,185.97,2.1,0.01
2530,52.149185,-1.895775,63,23.11,12.0,202.1,,17 / 24,253045,2019-08-16 11:33:37:414,0.4326,-0.1118,8.9895,0.0369,0.0227,9.8066,0.0149,-0.0502,-0.017,-28.67,3.2,8.22,185.97,2.1,0.01
2531,52.149185,-1.895775,63,23.11,12.0,202.1,,17 / 24,253145,2019-08-16 11:33:37:514,0.0961,-0.1944,10.1616,-0.0256,-0.0028,9.8066,-0.0032,0.0436,-0.0138,-29.17,1.78,6.78,184.02,2.32,0.12
2532,52.14898,-1.895965,62,23.63,13.0,203.2,,17 / 24,253246,2019-08-16 11:33:37:615,0.1601,0.0296,10.5148,-0.0525,-0.0297,9.8065,-0.0182,-0.0203,-0.0096,-29.17,1.78,6.78,184.02,2.32,0.12
2533,52.14898,-1.895965,62,23.63,13.0,203.2,,17 / 24,253346,2019-08-16 11:33:37:715,-0.1418,0.0624,11.5276,0.0034,-0.0223,9.8066,-0.0224,0.0926,-0.0309,-29.54,3.82,3.62,187.63,2.01,-0.03
2534,52.14898,-1.895965,62,23.63,13.0,203.2,,17 / 24,253445,2019-08-16 11:33:37:814,0.0484,-0.2264,8.4675,-0.0253,-0.0353,9.8066,-0.0011,0.0106,-0.0373,-29.17,6.27,3.12,191.71,1.83,-0.22
2535,52.14898,-1.895965,62,23.63,13.0,203.2,,17 / 24,253546,2019-08-16 11:33:37:915,-0.5196,0.0462,8.3934,-0.0555,-0.0183,9.8065,0.0085,-0.0374,0.0011,-29.17,6.27,3.12,191.71,1.83,-0.22
2536,52.14898,-1.895965,62,23.63,13.0,203.2,,17 / 24,253645,2019-08-16 11:33:38:014,0.3412,0.1645,9.1499,0.0376,0.0122,9.8066,0.0085,-0.0374,0.0011,-28.91,7.77,1.98,195.44,1.49,-0.26
2537,52.14898,-1.895965,62,23.63,13.0,203.2,,17 / 24,253745,2019-08-16 11:33:38:114,0.424,0.1955,9.7513,0.1008,0.0646,9.8059,0.0138,-0.1279,-0.0043,-28.17,10.29,0.74,199.69,2.36,-0.18
2538,52.14898,-1.895965,62,23.63,13.0,203.2,,17 / 24,253846,2019-08-16 11:33:38:215,0.0195,0.0678,10.3131,-0.0074,0.033,9.8066,0.0383,-0.0139,0.0,-27.97,10.86,-0.02,201.48,3.04,-0.02
2539,52.14898,-1.895965,62,23.63,13.0,203.2,,17 / 24,253948,2019-08-16 11:33:38:317,0.0917,0.0837,11.7292,-0.0631,0.0404,9.8064,0.0511,0.0851,-0.0011,-27.97,10.86,-0.02,201.48,3.04,-0.02
2540,52.14898,-1.895965,62,23.63,13.0,203.2,,17 / 24,254045,2019-08-16 11:33:38:414,-0.0115,0.5394,13.212,-0.0431,0.0197,9.8065,-0.0267,0.0276,0.0096,-27.68,11.0,-3.61,201.29,2.78,0.33
2541,52.14898,-1.895965,62,23.63,13.0,203.2,,17 / 24,254146,2019-08-16 11:33:38:515,-0.8613,0.4123,11.9134,-0.1666,-0.0241,9.8052,-0.032,0.1704,-0.0096,-27.62,11.36,-2.88,201.34,1.82,0.56
2542,52.14883,-1.896064,62,22.66,12.0,203.8,,17 / 24,254246,2019-08-16 11:33:38:615,-0.5367,0.1122,8.9664,-0.1265,-0.0646,9.8056,-0.0554,-0.0555,-0.0032,-27.64,11.48,-2.05,201.34,1.82,0.56
2543,52.14883,-1.896064,62,22.66,12.0,203.8,,17 / 24,254345,2019-08-16 11:33:38:714,0.0413,0.1132,9.3877,-0.0691,-0.0916,9.806,0.0362,-0.1386,0.0064,-27.59,11.71,-1.36,203.18,1.25,0.21
2544,52.14883,-1.896064,62,22.66,12.0,203.8,,17 / 24,254445,2019-08-16 11:33:38:814,0.569,0.1477,8.3456,0.1292,0.0906,9.8054,0.0362,-0.1386,0.0064,-27.59,11.71,-1.36,203.18,1.25,0.21
2545,52.14883,-1.896064,62,22.66,12.0,203.8,,17 / 24,254545,2019-08-16 11:33:38:914,0.4239,0.4366,10.2849,0.1319,0.125,9.805,0.0319,-0.0672,0.0085,-26.78,13.43,-1.48,205.68,2.16,0.4
2546,52.14883,-1.896064,62,22.66,12.0,203.8,,17 / 24,254645,2019-08-16 11:33:39:014,-0.501,0.0941,10.7761,0.1224,0.1068,9.8053,-0.0384,0.1373,-0.0383,-26.64,13.71,-1.51,207.3,3.07,0.65
2547,52.14883,-1.896064,62,22.66,12.0,203.8,,17 / 24,254746,2019-08-16 11:33:39:115,-0.0869,0.0581,10.8261,-0.0702,-0.0684,9.8062,-0.016,0.1001,0.0043,-26.92,13.17,-1.45,205.68,2.52,0.48
2548,52.14883,-1.896064,62,22.66,12.0,203.8,,17 / 24,254845,2019-08-16 11:33:39:214,-0.2499,0.1269,10.3051,-0.0452,-0.0363,9.8065,-0.0064,-0.0225,0.0202,-26.92,13.17,-1.45,205.68,2.52,0.48
2549,52.14883,-1.896064,62,22.66,12.0,203.8,,17 / 24,254945,2019-08-16 11:33:39:314,0.2454,0.2782,8.2785,-0.0384,0.0016,9.8066,0.0383,0.0393,-0.0128,-26.65,13.7,-1.44,207.37,2.33,0.59
2550,52.14883,-1.896064,62,22.66,12.0,203.8,,17 / 24,255045,2019-08-16 11:33:39:414,-0.075,0.4358,8.4006,-0.0119,0.0011,9.8066,-0.0139,0.0553,0.017,-26.94,13.17,-0.83,205.66,2.49,0.8
2551,52.14883,-1.896064,62,22.66,12.0,203.8,,17 / 24,255145,2019-08-16 11:33:39:514,-0.0259,0.2771,9.4177,-0.0106,-0.0024,9.8066,-0.0139,0.0553,0.017,-26.94,13.17,-0.83,205.66,2.49,0.8
2552,52.14865,-1.896204,61,23.37,12.0,204.2,,17 / 24,255245,2019-08-16 11:33:39:614,0.1072,0.621,9.6098,0.0881,0.053,9.8061,-0.015,-0.1279,0.0085,-26.51,13.97,-1.47,207.36,2.43,0.82
2553,52.14865,-1.896204,61,23.37,12.0,204.2,,17 / 24,255345,2019-08-16 11:33:39:714,0.04,0.3191,9.579,0.0017,0.0302,9.8066,-0.0064,-0.0001,-0.0085,-26.52,14.01,-0.72,207.36,3.03,0.86
2554,52.14865,-1.896204,61,23.37,12.0,204.2,,17 / 24,255445,2019-08-16 11:33:39:814,0.3281,0.3396,10.1522,0.0162,0.0565,9.8065,0.0042,0.0233,-0.016,-26.52,14.01,-0.72,207.36,3.03,0.86
2555,52.14865,-1.896204,61,23.37,12.0,204.2,,17 / 24,255545,2019-08-16 11:33:39:914,0.2387,0.287,10.0031,0.0168,0.018,9.8066,-0.0214,-0.0203,-0.0149,-27.1,12.87,-0.02,205.73,3.26,1.11
2556,52.14865,-1.896204,61,23.37,12.0,204.2,,17 / 24,255645,2019-08-16 11:33:40:014,0.6035,-0.0364,9.6453,0.0663,0.041,9.8063,0.0159,0.0052,-0.0256,-26.63,13.72,-1.6,207.26,3.72,1.15
2557,52.14865,-1.896204,61,23.37,12.0,204.2,,17 / 24,255746,2019-08-16 11:33:40:115,0.5026,0.0456,10.1161,0.02,-0.0051,9.8066,0.0042,0.0969,-0.0021,-26.63,13.72,-1.6,207.26,3.72,1.15
2558,52.14865,-1.896204,61,23.37,12.0,204.2,,17 / 24,255845,2019-08-16 11:33:40:214,-0.2342,0.0833,10.8116,-0.0071,-0.0268,9.8066,0.0042,0.0969,-0.0021,-27.11,12.84,0.11,205.74,3.61,1.03
2559,52.14865,-1.896204,61,23.37,12.0,204.2,,17 / 24,255945,2019-08-16 11:33:40:314,0.2248,-0.1667,10.1983,0.006,0.0077,9.8066,0.0127,-0.0118,-0.0192,-27.36,12.27,-0.87,203.91,3.42,1.06
2560,52.14865,-1.896204,61,23.37,12.0,204.2,,17 / 24,256045,2019-08-16 11:33:40:414,-0.0713,0.1237,8.8191,0.0427,0.0499,9.8064,0.0266,-0.0565,-0.0043,-27.36,12.27,-0.87,203.91,3.42,1.06
2561,52.14865,-1.896204,61,23.37,12.0,204.2,,17 / 24,256145,2019-08-16 11:33:40:514,-0.0404,0.1467,9.2592,0.0333,0.0095,9.8066,0.0149,0.0116,-0.0138,-27.1,12.87,-0.02,205.74,3.77,1.22
2562,52.148457,-1.896344,61,23.54,11.0,204.5,,17 / 24,256245,2019-08-16 11:33:40:614,0.2868,0.1962,9.5258,0.0419,0.0043,9.8066,0.001,-0.0534,-0.0341,-26.92,13.14,-1.61,205.56,3.97,1.19
2563,52.148457,-1.896344,61,23.54,11.0,204.5,,17 / 24,256345,2019-08-16 11:33:40:714,-0.0009,-0.0017,10.1283,0.0769,0.0206,9.8063,-0.0235,-0.0257,-0.0053,-26.53,14.01,-0.02,207.46,4.43,1.1
2564,52.148457,-1.896344,61,23.54,11.0,204.5,,17 / 24,256445,2019-08-16 11:33:40:814,0.0556,-0.2928,9.8672,0.0016,0.007,9.8066,0.0255,-0.0001,-0.0128,-26.53,14.01,-0.02,207.46,4.43,1.1
2565,52.148457,-1.896344,61,23.54,11.0,204.5,,17 / 24,256545,2019-08-16 11:33:40:914,0.3807,-0.2907,10.1741,-0.0134,-0.0161,9.8066,0.0074,0.05,-0.0288,-26.78,13.43,-1.56,205.56,4.45,1.13
2566,52.148457,-1.896344,61,23.54,11.0,204.5,,17 / 24,256645,2019-08-16 11:33:41:014,0.0642,-0.2778,10.301,-0.0256,-0.034,9.8066,0.0074,0.05,-0.0288,-26.8,13.45,-0.85,205.56,4.45,1.13
2567,52.148457,-1.896344,61,23.54,11.0,204.5,,17 / 24,256745,2019-08-16 11:33:41:114,-0.1831,-0.1494,10.1066,-0.0417,-0.0539,9.8064,-0.0043,0.0372,-0.0064,-26.54,13.98,-0.02,207.45,4.1,0.95
2568,52.148457,-1.896344,61,23.54,11.0,204.5,,17 / 24,256845,2019-08-16 11:33:41:214,-0.4143,-0.2039,10.5891,-0.0553,-0.0551,9.8063,-0.0086,-0.0022,-0.0149,-26.8,13.45,-0.85,207.45,4.1,0.95
2569,52.148457,-1.896344,61,23.54,11.0,204.5,,17 / 24,256945,2019-08-16 11:33:41:314,0.0039,-0.0298,9.9671,-0.0475,-0.0515,9.8064,-0.0022,-0.0246,-0.0011,-26.8,13.45,-0.85,207.45,4.1,0.95
2570,52.148457,-1.896344,61,23.54,11.0,204.5,,17 / 24,257045,2019-08-16 11:33:41:414,-0.4721,0.1636,10.0699,0.0207,0.0299,9.8066,0.0319,-0.0193,-0.0224,-26.78,13.43,-1.48,205.67,3.71,0.81
2571,52.148457,-1.896344,61,23.54,11.0,204.5,,17 / 24,257145,2019-08-16 11:33:41:514,0.1752,-0.0426,9.5792,0.0222,0.0385,9.8066,-0.0001,0.001,-0.0288,-26.49,14.0,-1.55,208.16,3.9,0.92
2572,52.148273,-1.896514,61,23.39,11.0,205.2,,17 / 24,257246,2019-08-16 11:33:41:615,-0.1244,0.1631,9.3188,0.0215,0.0383,9.8066,-0.0299,-0.0139,-0.0053,-26.49,14.0,-1.55,208.16,3.9,0.92
2573,52.148273,-1.896514,61,23.39,11.0,205.2,,17 / 24,257345,2019-08-16 11:33:41:714,-0.4256,-0.013,10.9749,-0.0065,-0.0235,9.8066,-0.0299,-0.0139,-0.0053,-26.49,14.0,-1.55,208.15,4.11,1.06
2574,52.148273,-1.896514,61,23.39,11.0,205.2,,17 / 24,257445,2019-08-16 11:33:41:814,-0.3425,-0.1422,9.526,-0.0246,-0.0482,9.8065,-0.0246,0.0106,-0.016,-26.52,14.01,0.69,207.53,3.85,0.88
2575,52.148273,-1.896514,61,23.39,11.0,205.2,,17 / 24,257545,2019-08-16 11:33:41:914,-0.3779,-0.0508,9.3326,-0.0259,-0.0113,9.8066,0.0287,-0.0033,-0.0096,-26.52,14.01,0.69,207.53,3.85,0.88
2576,52.148273,-1.896514,61,23.39,11.0,205.2,,17 / 24,257646,2019-08-16 11:33:42:015,-0.5187,-0.0686,9.4903,-0.0143,-0.0115,9.8066,-0.0139,-0.0161,0.0021,-26.8,13.45,-0.85,205.66,3.69,0.89
2577,52.148273,-1.896514,61,23.39,11.0,205.2,,17 / 24,257745,2019-08-16 11:33:42:114,0.0647,-0.1665,8.946,0.018,-0.0149,9.8066,0.0117,-0.0534,-0.032,-26.66,13.72,-0.82,205.66,3.69,0.89
2578,52.148273,-1.896514,61,23.39,11.0,205.2,,17 / 24,257846,2019-08-16 11:33:42:215,0.0183,-0.3774,9.5779,-0.0051,-0.0304,9.8066,-0.0171,0.0681,0.0192,-26.66,13.72,-0.82,207.37,3.75,0.76
2579,52.148273,-1.896514,61,23.39,11.0,205.2,,17 / 24,257945,2019-08-16 11:33:42:314,-0.7281,-0.2499,11.705,-0.0415,-0.0734,9.8063,0.0085,-0.0043,-0.0224,-26.22,14.55,-0.83,207.37,3.75,0.76
2580,52.148273,-1.896514,61,23.39,11.0,205.2,,17 / 24,258045,2019-08-16 11:33:42:414,-0.1751,0.0348,9.0751,-0.0839,-0.0708,9.806,0.0085,-0.0043,-0.0224,-26.82,13.45,-0.02,205.74,3.12,0.62
2581,52.148273,-1.896514,61,23.39,11.0,205.2,,17 / 24,258145,2019-08-16 11:33:42:514,-0.5556,0.2311,10.973,-0.0331,0.0293,9.8065,0.0383,0.0297,-0.0202,-26.44,14.18,-0.02,208.32,3.02,0.86
2582,52.148083,-1.896653,61,23.25,11.0,205.7,,17 / 24,258245,2019-08-16 11:33:42:614,-0.0433,0.2448,8.6995,-0.0117,0.0287,9.8066,0.0223,-0.0651,-0.0149,-26.44,14.18,-0.02,208.32,3.02,0.86
2583,52.148083,-1.896653,61,23.25,11.0,205.7,,17 / 24,258345,2019-08-16 11:33:42:714,-0.0199,-0.0379,8.6343,-0.0068,-0.0076,9.8066,-0.0182,0.0276,0.0021,-26.28,14.4,-1.46,208.24,3.04,1.04
2584,52.148083,-1.896653,61,23.25,11.0,205.7,,17 / 24,258445,2019-08-16 11:33:42:814,-0.0578,-0.2826,8.9453,0.0094,-0.0214,9.8066,-0.0139,-0.047,-0.0075,-26.12,14.68,-1.48,209.92,3.03,0.91
2585,52.148083,-1.896653,61,23.25,11.0,205.7,,17 / 24,258545,2019-08-16 11:33:42:914,0.2246,-0.0577,9.3762,0.0521,0.0153,9.8065,0.0053,-0.0832,-0.0202,-26.12,14.68,-1.48,209.92,3.03,0.91
2586,52.148083,-1.896653,61,23.25,11.0,205.7,,17 / 24,258645,2019-08-16 11:33:43:014,-0.1937,-0.0327,10.4269,0.0969,0.0216,9.8061,0.0159,-0.0097,-0.0032,-25.98,14.81,-2.39,209.86,3.58,0.73
2587,52.148083,-1.896653,61,23.25,11.0,205.7,,17 / 24,258745,2019-08-16 11:33:43:114,-0.2685,-0.1142,10.6655,-0.0589,-0.0098,9.8065,0.0159,0.0574,-0.0053,-26.52,14.01,-0.84,207.37,3.65,0.74
2588,52.148083,-1.896653,61,23.25,11.0,205.7,,17 / 24,258845,2019-08-16 11:33:43:214,-0.2339,-0.0816,10.8444,-0.1142,-0.0136,9.806,0.0159,0.0574,-0.0053,-26.52,14.01,-0.84,207.37,3.65,0.74
2589,52.148083,-1.896653,61,23.25,11.0,205.7,,17 / 24,258945,2019-08-16 11:33:43:314,-0.3468,-0.1371,10.0102,-0.0721,-0.0009,9.8064,0.033,0.0894,-0.0064,-26.53,13.98,-0.8,207.35,3.02,0.98
2590,52.148083,-1.896653,61,23.25,11.0,205.7,,17 / 24,259045,2019-08-16 11:33:43:414,-0.2555,0.2094,9.5849,-0.0972,0.0237,9.8061,0.0191,-0.0534,0.0021,-26.53,13.98,-0.8,207.35,3.02,0.98
2591,52.148083,-1.896653,61,23.25,11.0,205.7,,17 / 24,259145,2019-08-16 11:33:43:514,-0.4079,0.2694,10.6636,0.0007,0.0105,9.8066,-0.0224,-0.0491,-0.0032,-26.54,13.98,-0.02,207.41,2.58,1.36
2592,52.14789,-1.896789,62,23.26,11.0,206.0,,17 / 24,259245,2019-08-16 11:33:43:614,0.1233,0.2942,8.8371,0.0199,0.0131,9.8066,-0.0096,0.0223,-0.0053,-25.5,15.66,2.19,207.41,2.58,1.36
2593,52.14789,-1.896789,62,23.26,11.0,206.0,,17 / 24,259345,2019-08-16 11:33:43:714,-0.1497,0.2674,9.9847,0.0477,0.0167,9.8065,-0.0363,-0.032,0.0043,-25.68,15.51,-0.02,211.61,2.87,1.32
2594,52.14789,-1.896789,62,23.26,11.0,206.0,,17 / 24,259445,2019-08-16 11:33:43:814,0.2114,0.1609,9.1322,0.0297,0.0005,9.8066,-0.0373,-0.0278,0.0138,-25.98,15.0,-0.02,211.61,2.87,1.32
2595,52.14789,-1.896789,62,23.26,11.0,206.0,,17 / 24,259546,2019-08-16 11:33:43:915,-0.2536,-0.0003,10.9616,0.0521,-0.0099,9.8065,-0.0182,-0.0118,-0.0075,-25.98,15.0,-0.02,211.61,2.87,1.32
2596,52.14789,-1.896789,62,23.26,11.0,206.0,,17 / 24,259645,2019-08-16 11:33:44:014,-0.3048,-0.0247,10.5451,-0.0115,0.0153,9.8066,-0.0182,-0.0118,-0.0075,-26.23,14.56,-0.02,210.0,3.1,1.11
2597,52.14789,-1.896789,62,23.26,11.0,206.0,,17 / 24,259747,2019-08-16 11:33:44:116,0.3304,0.0106,9.0659,-0.0354,0.0113,9.8066,0.0287,0.066,0.0085,-26.22,14.55,-0.83,209.91,3.09,1.22
2598,52.14789,-1.896789,62,23.26,11.0,206.0,,17 / 24,259845,2019-08-16 11:33:44:214,-0.0479,0.1193,9.8024,-0.0207,0.0228,9.8066,0.0362,-0.0352,-0.0117,-26.11,14.68,-1.6,209.81,2.94,1.38
2599,52.14789,-1.896789,62,23.26,11.0,206.0,,17 / 24,259945,2019-08-16 11:33:44:314,0.1946,0.2215,10.6217,-0.0147,0.0308,9.8066,-0.0331,-0.0736,0.0064,-26.24,14.45,-1.65,209.81,2.94,1.38
2600,52.14789,-1.896789,62,23.26,11.0,206.0,,17 / 24,260045,2019-08-16 11:33:44:414,-0.142,0.043,9.7889,-0.0258,-0.0006,9.8066,-0.0107,-0.0086,-0.0138,-26.24,14.45,-1.65,209.81,2.94,1.38
2601,52.14789,-1.896789,62,23.26,11.0,206.0,,17 / 24,260146,2019-08-16 11:33:44:515,0.0874,-0.0114,9.8016,-0.0137,-0.0391,9.8066,-0.016,-0.015,-0.0064,-26.14,14.69,-0.92,209.9,2.81,1.45
2602,52.1477,-1.896955,62,23.21,10.0,206.1,,17 / 24,260245,2019-08-16 11:33:44:614,0.5595,-0.3848,9.7767,-0.0087,-0.0388,9.8066,0.033,0.0084,-0.0288,-26.35,14.13,-2.52,209.9,2.81,1.45
2603,52.1477,-1.896955,62,23.21,10.0,206.1,,17 / 24,260345,2019-08-16 11:33:44:714,0.3745,-0.1503,9.0358,0.0076,-0.0087,9.8066,-0.0139,0.0265,-0.0181,-26.53,13.9,-1.78,207.25,2.82,1.39
2604,52.1477,-1.896955,62,23.21,10.0,206.1,,17 / 24,260445,2019-08-16 11:33:44:814,0.2727,-0.2613,9.5794,0.0094,0.0139,9.8066,-0.0032,0.0202,-0.0096,-26.53,13.9,-1.78,207.25,2.82,1.39
2605,52.1477,-1.896955,62,23.21,10.0,206.1,,17 / 24,260546,2019-08-16 11:33:44:915,0.3367,-0.2819,9.9383,-0.021,-0.0329,9.8066,-0.0032,0.0202,-0.0096,-26.37,14.19,-1.82,208.13,2.91,1.43
2606,52.1477,-1.896955,62,23.21,10.0,206.1,,17 / 24,260645,2019-08-16 11:33:45:014,0.0335,-0.3498,9.8088,-0.0072,-0.021,9.8066,0.0213,0.0883,-0.0117,-25.93,14.97,-1.86,209.82,2.71,1.32
2607,52.1477,-1.896955,62,23.21,10.0,206.1,,17 / 24,260745,2019-08-16 11:33:45:114,0.078,-0.607,9.3223,-0.0077,-0.0323,9.8066,-0.0246,0.0031,-0.0138,-26.18,14.41,-2.69,208.08,2.58,1.18
2608,52.1477,-1.896955,62,23.21,10.0,206.1,,17 / 24,260845,2019-08-16 11:33:45:214,0.2094,-0.3214,9.899,0.0215,-0.0101,9.8066,-0.0203,-0.0448,0.0,-25.97,14.99,-1.05,208.08,2.58,1.18
2609,52.1477,-1.896955,62,23.21,10.0,206.1,,17 / 24,260945,2019-08-16 11:33:45:314,0.2688,-0.3223,9.2331,0.0406,-0.0111,9.8066,0.0191,-0.0331,-0.0043,-25.97,14.99,-1.05,208.08,2.58,1.18
2610,52.1477,-1.896955,62,23.21,10.0,206.1,,17 / 24,261046,2019-08-16 11:33:45:415,0.1592,-0.375,9.979,0.0155,-0.0264,9.8066,0.001,-0.0342,-0.016,-25.8,15.3,-0.37,209.99,2.75,0.98
2611,52.1477,-1.896955,62,23.21,10.0,206.1,,17 / 24,261145,2019-08-16 11:33:45:514,0.3456,-0.2685,9.4147,0.0236,-0.0513,9.8065,-0.0075,-0.0203,-0.0266,-25.78,15.29,-1.19,209.94,2.72,0.65
2612,52.14751,-1.897092,63,23.17,10.0,206.6,,17 / 24,261245,2019-08-16 11:33:45:614,0.0412,-0.0804,10.0621,0.0058,-0.0063,9.8066,0.0095,-0.0257,-0.0192,-25.78,15.29,-1.19,209.94,2.72,0.65
2613,52.14751,-1.897092,63,23.17,10.0,206.6,,17 / 24,261345,2019-08-16 11:33:45:714,-0.597,-0.1067,10.3924,-0.0062,-0.0047,9.8066,0.0095,-0.0257,-0.0192,-26.1,14.37,-3.49,208.14,2.73,0.6
2614,52.14751,-1.897092,63,23.17,10.0,206.6,,17 / 24,261445,2019-08-16 11:33:45:814,-0.3628,-0.0962,10.4331,-0.0145,-0.0124,9.8066,0.0031,0.0191,0.0128,-25.96,14.98,-1.17,209.94,2.69,0.59
2615,52.14751,-1.897092,63,23.17,10.0,206.6,,17 / 24,261545,2019-08-16 11:33:45:914,-0.3105,0.0293,10.304,-0.0097,-0.0066,9.8066,0.0191,0.018,-0.0234,-25.66,15.49,-1.16,209.94,2.69,0.59
2616,52.14751,-1.897092,63,23.17,10.0,206.6,,17 / 24,261645,2019-08-16 11:33:46:014,-0.5197,0.2335,10.8581,-0.0037,0.0082,9.8066,-0.0128,0.0521,-0.0096,-25.68,15.5,-0.36,211.63,2.69,0.64
2617,52.14751,-1.897092,63,23.17,10.0,206.6,,17 / 24,261745,2019-08-16 11:33:46:114,0.0256,0.0021,9.3434,-0.0055,-0.0043,9.8066,-0.032,-0.0608,0.0192,-25.68,15.5,-0.36,211.63,2.69,0.64
2618,52.14751,-1.897092,63,23.17,10.0,206.6,,17 / 24,261845,2019-08-16 11:33:46:214,0.1425,-0.1293,10.1669,0.0083,-0.0241,9.8066,0.0159,-0.0214,-0.0298,-25.96,14.98,-1.17,209.94,2.65,0.64
2619,52.14751,-1.897092,63,23.17,10.0,206.6,,17 / 24,261945,2019-08-16 11:33:46:314,0.2463,-0.1711,10.2368,0.0246,-0.0324,9.8066,-0.0437,-0.0097,0.0149,-26.17,14.4,-2.8,208.17,2.58,0.34
2620,52.14751,-1.897092,63,23.17,10.0,206.6,,17 / 24,262046,2019-08-16 11:33:46:415,0.2762,-0.1007,9.9895,0.0262,-0.0136,9.8066,-0.0075,0.0606,-0.0096,-25.99,14.7,-2.86,209.87,2.61,0.11
2621,52.14751,-1.897092,63,23.17,10.0,206.6,,17 / 24,262145,2019-08-16 11:33:46:514,0.1794,-0.0944,9.8436,0.028,-0.0239,9.8066,-0.0075,0.0606,-0.0096,-25.99,14.7,-2.86,209.87,2.61,0.11
2622,52.14735,-1.897291,61,23.17,10.0,207.8,,17 / 24,262246,2019-08-16 11:33:46:615,0.3891,-0.2062,9.6136,-0.0223,0.0085,9.8066,0.05,0.0031,-0.0064,-25.56,15.58,-2.05,211.55,2.69,-0.09
2623,52.14735,-1.897291,61,23.17,10.0,207.8,,17 / 24,262345,2019-08-16 11:33:46:714,0.1352,-0.1482,9.1542,-0.0384,0.0243,9.8065,0.0521,-0.0161,-0.016,-25.47,15.8,-1.29,211.55,2.69,-0.09
2624,52.14735,-1.897291,61,23.17,10.0,207.8,,17 / 24,262445,2019-08-16 11:33:46:814,0.1579,0.2358,9.6883,-0.0057,0.0218,9.8066,0.0223,0.0116,-0.0117,-25.18,16.3,-0.48,212.64,2.57,0.14
2625,52.14735,-1.897291,61,23.17,10.0,207.8,,17 / 24,262545,2019-08-16 11:33:46:914,-0.0903,0.0893,10.7367,-0.0197,0.0368,9.8066,-0.0214,-0.0289,-0.0149,-25.23,16.22,0.33,212.64,2.59,0.39
2626,52.14735,-1.897291,61,23.17,10.0,207.8,,17 / 24,262646,2019-08-16 11:33:47:015,-0.0568,0.0801,9.3177,-0.0082,-0.0178,9.8066,-0.0107,0.0148,-0.0064,-25.23,16.22,0.33,212.64,2.59,0.39
2627,52.14735,-1.897291,61,23.17,10.0,207.8,,17 / 24,262745,2019-08-16 11:33:47:114,0.1892,-0.1266,10.7818,-0.0073,-0.0076,9.8066,0.0244,-0.048,-0.0128,-25.37,15.88,-2.04,212.53,2.49,0.33
2628,52.14735,-1.897291,61,23.17,10.0,207.8,,17 / 24,262845,2019-08-16 11:33:47:214,0.2541,-0.0085,9.5566,0.0027,-0.0046,9.8066,-0.0011,0.018,-0.0383,-25.96,14.98,-1.28,209.95,2.49,0.29
2629,52.14735,-1.897291,61,23.17,10.0,207.8,,17 / 24,262945,2019-08-16 11:33:47:314,0.2012,-0.0973,10.0252,-0.0066,0.0069,9.8066,-0.0011,0.018,-0.0383,-25.68,15.5,0.32,211.63,2.58,0.29
2630,52.14735,-1.897291,61,23.17,10.0,207.8,,17 / 24,263045,2019-08-16 11:33:47:414,0.005,-0.0877,9.4913,-0.0245,0.0136,9.8066,0.0117,0.0564,-0.0341,-25.68,15.5,0.32,211.63,2.58,0.29
2631,52.14735,-1.897291,61,23.17,10.0,207.8,,17 / 24,263145,2019-08-16 11:33:47:514,0.4794,-0.2609,9.5547,0.0089,0.0052,9.8066,-0.0288,-0.0203,0.0202,-25.61,15.62,-0.46,211.63,2.5,0.44
2632,52.147156,-1.897464,62,23.26,10.0,208.6,,17 / 24,263245,2019-08-16 11:33:47:614,0.4473,-0.4162,9.1809,0.0517,0.0167,9.8065,0.0117,-0.0459,-0.0138,-25.44,15.78,-1.99,211.63,2.5,0.44
2633,52.147156,-1.897464,62,23.26,10.0,208.6,,17 / 24,263346,2019-08-16 11:33:47:715,-0.1271,-0.3094,9.9536,0.002,-0.0046,9.8066,-0.0309,-0.0118,-0.0149,-25.83,14.61,-4.37,209.78,2.81,0.36
2634,52.147156,-1.897464,62,23.26,10.0,208.6,,17 / 24,263445,2019-08-16 11:33:47:814,0.6131,-0.3145,8.9499,-0.0032,-0.0328,9.8066,-0.0096,0.0734,-0.0011,-25.83,14.61,-4.37,209.78,2.81,0.36
2635,52.147156,-1.897464,62,23.26,10.0,208.6,,17 / 24,263545,2019-08-16 11:33:47:914,-0.4714,0.0026,11.075,-0.0098,-0.0169,9.8066,0.0372,-0.0715,-0.0021,-25.34,15.45,-4.41,210.78,2.7,0.2
2636,52.147156,-1.897464,62,23.26,10.0,208.6,,17 / 24,263645,2019-08-16 11:33:48:014,-0.1008,0.3414,10.2842,-0.0121,-0.0087,9.8066,0.0255,0.0042,-0.033,-25.38,15.74,-2.79,212.48,2.61,0.2
2637,52.147156,-1.897464,62,23.26,10.0,208.6,,17 / 24,263745,2019-08-16 11:33:48:114,-0.0634,-0.0482,9.3586,-0.0664,-0.0297,9.8064,0.0255,0.0042,-0.033,-25.38,15.74,-2.79,212.48,2.61,0.2
2638,52.147156,-1.897464,62,23.26,10.0,208.6,,17 / 24,263845,2019-08-16 11:33:48:214,0.5602,-0.0892,10.1467,0.013,-0.0105,9.8066,-0.0054,0.0255,-0.0192,-24.9,16.69,-1.27,214.18,2.19,0.26
2639,52.147156,-1.897464,62,23.26,10.0,208.6,,17 / 24,263945,2019-08-16 11:33:48:314,0.2532,-0.0696,8.8781,0.0224,-0.0104,9.8066,-0.0086,-0.0086,-0.016,-25.36,15.98,-1.25,214.18,2.19,0.26
2640,52.147156,-1.897464,62,23.26,10.0,208.6,,17 / 24,264045,2019-08-16 11:33:48:414,0.2913,0.0832,7.7551,0.0521,0.0265,9.8065,-0.0128,-0.0725,-0.0064,-25.13,16.16,-2.77,212.5,2.26,0.14
2641,52.147156,-1.897464,62,23.26,10.0,208.6,,17 / 24,264146,2019-08-16 11:33:48:515,0.2913,0.0832,7.7551,0.0521,0.0265,9.8065,-0.0128,-0.0725,-0.0064,-25.13,16.16,-2.77,212.5,2.26,0.14
2642,52.146976,-1.897622,62,23.19,10.0,209.4,,17 / 24,264245,2019-08-16 11:33:48:614,0.2106,0.0181,10.3225,0.0787,0.0433,9.8062,0.0213,-0.0693,-0.0096,-25.24,16.09,-2.03,212.54,2.79,0.1
2643,52.146976,-1.897622,62,23.19,10.0,209.4,,17 / 24,264345,2019-08-16 11:33:48:714,0.5278,-0.0186,9.0313,0.0346,0.018,9.8066,-0.0246,0.0404,0.0234,-25.18,16.06,-2.85,212.48,3.01,0.08
2644,52.146976,-1.897622,62,23.19,10.0,209.4,,17 / 24,264445,2019-08-16 11:33:48:814,0.0606,-0.1907,11.1552,-0.0032,-0.0142,9.8066,0.017,0.0713,-0.0458,-25.18,16.06,-2.85,212.48,3.01,0.08
2645,52.146976,-1.897622,62,23.19,10.0,209.4,,17 / 24,264545,2019-08-16 11:33:48:914,-0.1132,0.0449,10.7049,-0.0536,-0.0426,9.8064,-0.0128,0.0553,-0.0096,-25.5,15.54,-2.89,212.51,2.62,-0.04
2646,52.146976,-1.897622,62,23.19,10.0,209.4,,17 / 24,264646,2019-08-16 11:33:49:015,-0.1337,-0.1855,10.2612,-0.0432,-0.0482,9.8064,-0.0214,0.0521,-0.0117,-25.47,15.8,-1.18,212.6,2.22,-0.08
2647,52.146976,-1.897622,62,23.19,10.0,209.4,,17 / 24,264745,2019-08-16 11:33:49:114,0.0902,-0.0045,9.2768,-0.0539,-0.0478,9.8064,-0.0214,0.0521,-0.0117,-25.36,15.99,-1.14,212.6,2.22,-0.08
2648,52.146976,-1.897622,62,23.19,10.0,209.4,,17 / 24,264845,2019-08-16 11:33:49:214,-0.0856,-0.0295,8.8363,-0.04,-0.0154,9.8066,0.0149,0.0106,0.0021,-25.36,15.99,-1.14,212.6,2.22,-0.08
2649,52.146976,-1.897622,62,23.19,10.0,209.4,,17 / 24,264945,2019-08-16 11:33:49:314,0.435,-0.0031,7.2493,0.0398,0.053,9.8064,-0.016,0.0127,-0.0021,-25.36,15.99,-1.14,212.6,1.98,-0.03
2650,52.146976,-1.897622,62,23.19,10.0,209.4,,17 / 24,265045,2019-08-16 11:33:49:414,0.0008,0.2191,9.4723,0.0739,0.0938,9.8059,0.0042,-0.0693,-0.0128,-24.92,16.59,-2.0,214.13,2.64,0.19
2651,52.146976,-1.897622,62,23.19,10.0,209.4,,17 / 24,265145,2019-08-16 11:33:49:514,0.3131,0.0634,10.3701,0.025,0.0185,9.8066,-0.0128,-0.0672,-0.0096,-24.92,16.59,-2.0,214.13,2.64,0.19
2652,52.146793,-1.897799,62,23.35,10.0,210.3,,17 / 23,265245,2019-08-16 11:33:49:614,0.1364,0.0175,11.005,0.0503,0.0239,9.8065,-0.0352,0.0692,-0.0362,-24.69,16.92,-2.04,214.13,2.96,0.15
2653,52.146793,-1.897799,62,23.35,10.0,210.3,,17 / 23,265347,2019-08-16 11:33:49:716,-0.2679,-0.1601,10.2361,-0.0213,-0.0414,9.8065,0.0021,0.0297,-0.0085,-24.69,16.92,-2.04,214.13,2.96,0.15
2654,52.146793,-1.897799,62,23.35,10.0,210.3,,17 / 23,265447,2019-08-16 11:33:49:816,0.2039,-0.2917,10.384,-0.0978,-0.0595,9.806,0.0021,0.0297,-0.0085,-24.92,16.59,-2.0,214.14,2.72,0.01
2655,52.146793,-1.897799,62,23.35,10.0,210.3,,17 / 23,265545,2019-08-16 11:33:49:914,-0.2094,0.0023,10.8476,-0.008,0.0106,9.8066,0.0202,0.0148,0.016,-25.44,15.78,-1.99,212.56,2.05,0.05
2656,52.146793,-1.897799,62,23.35,10.0,210.3,,17 / 23,265646,2019-08-16 11:33:50:015,0.0313,0.1112,9.282,-0.0126,0.0325,9.8066,0.0159,0.0489,-0.0256,-25.44,15.78,-1.99,212.56,2.05,0.05
2657,52.146793,-1.897799,62,23.35,10.0,210.3,,17 / 23,265745,2019-08-16 11:33:50:114,0.4117,0.2538,9.1785,0.0128,0.0129,9.8066,0.0053,-0.0693,-0.0032,-24.6,17.16,-0.47,214.23,2.09,0.25
2658,52.146793,-1.897799,62,23.35,10.0,210.3,,17 / 23,265845,2019-08-16 11:33:50:214,0.4762,-0.0012,9.5398,0.03,0.0042,9.8066,-0.0011,-0.0725,0.0128,-24.92,16.59,-1.89,214.14,2.25,0.17
2659,52.146793,-1.897799,62,23.35,10.0,210.3,,17 / 23,265945,2019-08-16 11:33:50:314,0.1375,0.2481,9.5939,0.0713,0.0499,9.8063,0.0202,-0.0352,-0.0309,-24.92,16.59,-1.89,214.14,2.25,0.17
2660,52.146793,-1.897799,62,23.35,10.0,210.3,,17 / 23,266045,2019-08-16 11:33:50:414,-0.0098,0.1484,9.5932,0.0118,0.0279,9.8066,-0.0043,0.0596,-0.0138,-25.06,16.44,-1.23,212.59,2.76,0.18
2661,52.146793,-1.897799,62,23.35,10.0,210.3,,17 / 23,266145,2019-08-16 11:33:50:514,-0.1113,0.0528,10.8983,-0.0097,0.0174,9.8066,-0.0043,0.0596,-0.0138,-24.97,16.62,-0.37,214.24,2.77,0.29
2662,52.146618,-1.897986,62,23.4,10.0,211.3,,17 / 24,266245,2019-08-16 11:33:50:614,-0.0771,0.3069,10.1834,-0.0304,-0.0282,9.8066,-0.0235,0.0116,-0.0064,-24.97,16.62,-0.37,214.24,2.77,0.29
2663,52.146618,-1.897986,62,23.4,10.0,211.3,,17 / 24,266345,2019-08-16 11:33:50:714,0.0236,-0.0045,8.7942,-0.0296,0.0136,9.8066,-0.0086,-0.0331,0.0192,-24.73,16.94,-1.21,214.18,2.43,0.29
2664,52.146618,-1.897986,62,23.4,10.0,211.3,,17 / 24,266445,2019-08-16 11:33:50:814,-0.2161,0.4572,9.4592,-0.0388,0.03,9.8065,0.0266,0.034,-0.017,-25.38,16.0,-0.36,212.63,2.33,0.45
2665,52.146618,-1.897986,62,23.4,10.0,211.3,,17 / 24,266545,2019-08-16 11:33:50:914,-0.0481,0.1332,9.4593,-0.0699,0.049,9.8063,0.033,0.0329,-0.0128,-25.38,16.0,-0.36,212.63,2.33,0.45
2666,52.146618,-1.897986,62,23.4,10.0,211.3,,17 / 24,266645,2019-08-16 11:33:51:014,-0.3797,0.1145,10.2828,-0.0083,0.0302,9.8066,-0.0139,-0.0225,0.0021,-24.92,16.7,-0.36,214.22,2.14,0.92
2667,52.146618,-1.897986,62,23.4,10.0,211.3,,17 / 24,266745,2019-08-16 11:33:51:114,0.0594,0.0956,9.8042,0.0009,0.0629,9.8065,0.0138,-0.0512,0.0085,-25.38,16.0,0.32,212.62,2.35,1.22
2668,52.146618,-1.897986,62,23.4,10.0,211.3,,17 / 24,266845,2019-08-16 11:33:51:214,0.0824,0.1793,9.4167,0.0143,0.0073,9.8066,0.0042,0.0031,0.0032,-25.12,16.39,-0.35,212.62,2.35,1.22
2669,52.146618,-1.897986,62,23.4,10.0,211.3,,17 / 24,266945,2019-08-16 11:33:51:314,-0.2096,0.1356,10.4563,0.0146,0.0135,9.8066,0.0042,0.0031,0.0032,-25.12,16.39,-0.35,212.62,2.35,1.22
2670,52.146618,-1.897986,62,23.4,10.0,211.3,,17 / 24,267046,2019-08-16 11:33:51:415,-0.0255,0.1982,9.4242,0.001,0.0387,9.8066,0.0127,-0.0012,0.0011,-24.86,16.78,-0.36,214.21,2.48,1.4
2671,52.146618,-1.897986,62,23.4,10.0,211.3,,17 / 24,267145,2019-08-16 11:33:51:514,0.065,0.0048,9.7935,-0.024,0.0147,9.8066,0.0202,-0.0384,-0.0128,-24.59,17.15,1.1,214.21,2.48,1.4
2672,52.14644,-1.898161,62,23.38,10.0,211.4,,17 / 24,267245,2019-08-16 11:33:51:614,0.0578,-0.1771,9.8239,-0.0421,0.0057,9.8066,0.0042,0.0106,-0.0128,-24.59,17.15,1.1,214.21,2.48,1.4
2673,52.14644,-1.898161,62,23.38,10.0,211.4,,17 / 24,267345,2019-08-16 11:33:51:714,0.2076,-0.3666,9.7907,-0.0102,-0.0145,9.8066,-0.0448,-0.0171,-0.0107,-24.6,17.17,-0.35,214.21,2.3,1.57
2674,52.14644,-1.898161,62,23.38,10.0,211.4,,17 / 24,267445,2019-08-16 11:33:51:814,0.4451,-0.2246,10.1526,-0.0154,-0.0164,9.8066,-0.0373,-0.0267,0.0192,-24.05,17.93,-0.36,216.86,2.2,1.53
2675,52.14644,-1.898161,62,23.38,10.0,211.4,,17 / 24,267545,2019-08-16 11:33:51:914,0.1819,-0.1802,9.7504,-0.017,-0.0243,9.8066,0.017,-0.0512,-0.0117,-24.37,17.49,-0.36,216.86,2.2,1.53
2676,52.14644,-1.898161,62,23.38,10.0,211.4,,17 / 24,267646,2019-08-16 11:33:52:015,0.0462,0.0721,9.9374,-0.0037,-0.0009,9.8066,0.017,-0.0512,-0.0117,-24.36,17.47,-1.16,215.22,2.18,1.54
2677,52.14644,-1.898161,62,23.38,10.0,211.4,,17 / 24,267745,2019-08-16 11:33:52:114,0.1893,0.1058,9.2533,-0.0063,0.0126,9.8066,0.0063,0.0457,-0.016,-24.36,17.47,-1.16,215.22,2.18,1.54
2678,52.14644,-1.898161,62,23.38,10.0,211.4,,17 / 24,267845,2019-08-16 11:33:52:214,0.0512,-0.1499,10.4394,0.0132,-0.0105,9.8066,0.0021,0.0074,-0.0405,-24.6,17.17,-0.35,214.2,2.19,1.62
2679,52.14644,-1.898161,62,23.38,10.0,211.4,,17 / 24,267946,2019-08-16 11:33:52:315,0.1483,-0.1036,9.4028,0.0605,-0.0086,9.8065,-0.0203,-0.0395,-0.0383,-23.79,18.25,-1.05,216.78,2.46,1.38
2680,52.14644,-1.898161,62,23.38,10.0,211.4,,17 / 24,268045,2019-08-16 11:33:52:414,0.1988,-0.1436,9.6009,0.0203,-0.0077,9.8066,-0.0064,0.001,-0.0256,-23.79,18.25,-1.05,216.78,2.46,1.38
2681,52.14644,-1.898161,62,23.38,10.0,211.4,,17 / 24,268145,2019-08-16 11:33:52:514,0.8763,-0.3786,9.1562,0.0251,-0.0143,9.8066,-0.0128,0.067,-0.0149,-24.37,17.49,-0.36,215.31,2.49,1.14
2682,52.14626,-1.898339,63,23.46,10.0,212.0,,17 / 24,268245,2019-08-16 11:33:52:614,0.0574,-0.3236,10.0854,-0.0003,-0.0095,9.8066,0.0106,-0.047,-0.0085,-24.63,17.09,-1.17,214.15,2.56,0.99
2683,52.14626,-1.898339,63,23.46,10.0,212.0,,17 / 24,268345,2019-08-16 11:33:52:714,-0.1429,-0.1582,9.7662,-0.0192,-0.0043,9.8066,0.0159,-0.0225,-0.0202,-24.12,17.8,-1.18,216.8,2.53,0.94
2684,52.14626,-1.898339,63,23.46,10.0,212.0,,17 / 24,268445,2019-08-16 11:33:52:814,0.0137,-0.0128,9.3828,-0.0266,-0.0042,9.8066,0.0159,-0.0225,-0.0202,-24.12,17.8,-1.18,216.8,2.53,0.94
2685,52.14626,-1.898339,63,23.46,10.0,212.0,,17 / 24,268545,2019-08-16 11:33:52:914,-0.2121,-0.1569,10.4244,0.0166,-0.0157,9.8066,-0.0309,0.0159,-0.0096,-24.59,17.15,-1.14,214.15,2.39,1.01
2686,52.14626,-1.898339,63,23.46,10.0,212.0,,17 / 24,268645,2019-08-16 11:33:53:014,0.2795,0.0455,9.0687,0.0685,-0.0164,9.8064,0.0031,0.0297,-0.0256,-24.09,17.78,-1.88,214.15,2.39,1.01
2687,52.14626,-1.898339,63,23.46,10.0,212.0,,17 / 24,268746,2019-08-16 11:33:53:115,-0.2413,-0.2253,10.6738,0.0084,-0.0204,9.8066,0.0063,0.0319,0.0085,-24.15,17.76,-1.1,216.81,2.67,0.71
2688,52.14626,-1.898339,63,23.46,10.0,212.0,,17 / 24,268845,2019-08-16 11:33:53:214,-0.0638,0.1324,9.9805,0.0111,-0.0095,9.8066,0.0383,0.0404,-0.0138,-24.4,17.42,-1.19,215.26,2.69,0.63
2689,52.14626,-1.898339,63,23.46,10.0,212.0,,17 / 24,268945,2019-08-16 11:33:53:314,0.2812,0.1196,9.4145,-0.0054,0.0143,9.8066,0.0223,-0.0246,-0.0021,-24.4,17.42,-1.19,215.26,2.69,0.63
2690,52.14626,-1.898339,63,23.46,10.0,212.0,,17 / 24,269045,2019-08-16 11:33:53:414,-0.6124,-0.0012,11.0191,-0.0003,0.0304,9.8066,-0.0224,-0.0107,-0.0437,-24.4,17.42,-1.08,215.25,2.79,0.77
2691,52.14626,-1.898339,63,23.46,10.0,212.0,,17 / 24,269145,2019-08-16 11:33:53:514,0.0771,-0.0023,8.5761,-0.0088,-0.0019,9.8066,-0.0054,0.0564,-0.0053,-23.86,18.14,-1.2,215.25,2.79,0.77
2692,52.14609,-1.898532,61,23.46,10.0,213.0,,17 / 24,269245,2019-08-16 11:33:53:614,-0.3987,-0.1178,11.507,-0.0172,-0.0108,9.8066,-0.0054,0.0564,-0.0053,-24.36,17.48,-1.05,215.25,2.54,0.77
2693,52.14609,-1.898532,61,23.46,10.0,213.0,,17 / 24,269345,2019-08-16 11:33:53:714,-0.041,0.1377,9.6212,0.0107,0.0015,9.8066,-0.0064,-0.0512,0.0181,-24.36,17.48,-1.05,215.25,2.54,0.77
2694,52.14609,-1.898532,61,23.46,10.0,213.0,,17 / 24,269445,2019-08-16 11:33:53:814,0.0785,-0.0422,9.63,0.0414,0.0036,9.8066,-0.032,-0.0129,-0.0138,-24.13,17.81,0.45,216.88,2.59,0.74
2695,52.14609,-1.898532,61,23.46,10.0,213.0,,17 / 24,269545,2019-08-16 11:33:53:914,0.2486,-0.0728,8.5824,0.0588,-0.0108,9.8065,-0.015,-0.0054,-0.0405,-23.66,18.4,-1.14,216.88,2.59,0.74
2696,52.14609,-1.898532,61,23.46,10.0,213.0,,17 / 24,269645,2019-08-16 11:33:54:014,0.1727,-0.0735,10.1136,0.0263,-0.0071,9.8066,-0.0022,-0.0075,-0.0096,-23.5,18.28,-3.72,217.78,2.83,0.49
2697,52.14609,-1.898532,61,23.46,10.0,213.0,,17 / 24,269745,2019-08-16 11:33:54:114,0.1211,0.0704,10.5033,0.0119,0.0167,9.8066,0.0276,-0.0395,-0.0149,-24.6,17.07,-1.86,214.12,2.93,0.36
2698,52.14609,-1.898532,61,23.46,10.0,213.0,,17 / 24,269846,2019-08-16 11:33:54:215,-0.1479,-0.0368,9.7347,-0.0062,0.0307,9.8066,0.0053,0.0447,-0.0117,-24.32,17.56,-0.36,214.12,2.93,0.36
2699,52.14609,-1.898532,61,23.46,10.0,213.0,,17 / 24,269945,2019-08-16 11:33:54:314,-0.1746,-0.0285,10.0059,-0.044,0.0037,9.8066,0.0159,0.0372,-0.0011,-24.29,17.61,-0.35,216.89,2.72,0.52
2700,52.14609,-1.898532,61,23.46,10.0,213.0,,17 / 24,270045,2019-08-16 11:33:54:414,0.0066,-0.0803,10.5369,-0.0176,-0.0053,9.8066,0.0159,0.0372,-0.0011,-23.73,18.35,-0.35,216.89,2.72,0.52
2701,52.14609,-1.898532,61,23.46,10.0,213.0,,17 / 24,270145,2019-08-16 11:33:54:514,-0.075,0.3254,9.6529,0.0004,0.0289,9.8066,0.0159,-0.0118,-0.016,-23.73,18.35,-0.35,216.89,2.72,0.52
