,GPS LATITUDE (degrees), GPS LONGITUDE (degrees), GPS ALTITUDE (m), GPS SPEED (Kmh), GPS ACCURACY (m), GPS ORIENTATION (Â°),GPS SATELLITES IN RANGE, TIME SINCE START (ms), DATE (YYYY-MO-DD HH-MI-SS_SSS), ACCELEROMETER X (m/s²) , ACCELEROMETER Y (m/s²), ACCELEROMETER Z (m/s²), GRAVITY X (m/s²), GRAVITY Y (m/s²), GRAVITY Z (m/s²), GYROSCOPE Yaw (rad/s), GYROSCOPE Pitch (rad/s), GYROSCOPE Roll (rad/s), MAGNETIC FIELD X (Î¼T), MAGNETIC FIELD Y (Î¼T), MAGNETIC FIELD Z (Î¼T), ORIENTATION (Yaw) (Â°), ORIENTATION (Pitch) (Â°), ORIENTATION (Roll ) (Â°)
9903,52.387516,-1.522788,141.29,10.71,4,295.69,21 / 21,998728,2019-09-06 18:32:45:410,0.1203,-0.3485,9.6911,-0.0057,0.0151,9.8066,-0.0032,0.0759,0.0762,4.13,-31.87,14.88,63.96,-82.3,-145.66
9904,52.387516,-1.522788,141.29,10.71,4,295.69,21 / 21,998829,2019-09-06 18:32:45:511,0.1439,-0.6397,9.5371,-0.0114,0.0009,9.8066,0.0282,0.0626,0.0049,3.63,-31.62,15.31,64.48,-82.18,-145.44
9905,52.387516,-1.522788,141.29,10.71,4,295.69,21 / 21,998928,2019-09-06 18:32:45:610,0.4979,-0.5298,10.0745,0.0046,0.0109,9.8066,0.15,0.0481,-0.0114,3.5,-31.87,14.75,64.12,-82.3,-145.52
9906,52.387516,-1.522788,141.29,10.71,4,295.69,21 / 21,999029,2019-09-06 18:32:45:711,0.28,-0.6897,10.68,0.0171,0.0184,9.8066,-0.1214,0.051,-0.0256,3.75,-31.69,14.88,63.7,-82.29,-145.91
9907,52.387516,-1.522788,141.29,10.71,4,295.69,21 / 21,999129,2019-09-06 18:32:45:811,-0.6892,-0.4381,10.7103,-0.0292,-0.0348,9.8065,0.0354,-0.0085,0.0629,3.0,-32.0,14.94,59.84,-82.22,-145.98
9908,52.387516,-1.522788,141.29,10.71,4,295.69,21 / 21,999230,2019-09-06 18:32:45:912,0.2235,-0.1575,10.7521,-0.0259,-0.035,9.8065,0.0227,0.0204,0.0292,3.81,-31.62,16.0,61.55,-81.71,-147.11
9909,52.387516,-1.522788,141.29,10.71,4,295.69,21 / 21,999329,2019-09-06 18:32:46:011,-0.7257,-0.5216,10.1191,0.0055,0.0108,9.8066,0.0892,-0.0746,0.0187,3.31,-32.56,15.63,57.37,-81.72,-147.88
9910,52.387516,-1.522788,141.29,10.71,4,295.69,21 / 21,999429,2019-09-06 18:32:46:111,-0.6146,0.0786,10.8078,0.0084,0.0313,9.8066,0.0073,-0.04,-0.0056,3.44,-32.44,15.75,57.51,-81.62,-147.48
9911,52.387516,-1.522788,141.29,10.71,4,295.69,21 / 21,999528,2019-09-06 18:32:46:210,0.9681,0.3388,10.0787,0.0013,0.0046,9.8066,0.0967,0.0163,0.0299,3.44,-32.69,15.63,58.13,-81.6,-147.45
9912,52.387516,-1.522788,141.29,10.71,4,295.69,21 / 21,999628,2019-09-06 18:32:46:310,0.3014,-0.3397,10.2002,0.0139,-0.0115,9.8066,0.0598,0.0049,-0.0005,4.56,-32.19,15.88,63.67,-81.47,-148.77
9913,52.387516,-1.522788,141.29,10.71,4,295.69,21 / 21,999729,2019-09-06 18:32:46:411,-0.0401,-0.3362,10.0305,-0.015,-0.0162,9.8066,0.0066,-0.0239,0.0179,3.88,-30.87,16.31,58.8,-81.22,-149.86
9914,52.387516,-1.522788,141.29,10.71,4,295.69,21 / 21,999830,2019-09-06 18:32:46:512,1.1424,0.4033,9.9373,-0.0055,-0.0207,9.8066,-0.0436,0.0453,-0.0313,3.19,-31.94,16.81,53.27,-81.03,-150.58
9915,52.387516,-1.522788,141.29,10.71,4,295.69,21 / 21,999929,2019-09-06 18:32:46:611,-0.5092,0.4507,10.6266,-0.0045,0.0077,9.8065,0.0266,-0.079,0.0378,3.19,-31.81,17.13,53.44,-80.98,-150.51
9916,52.387516,-1.522788,141.29,10.71,4,295.69,21 / 21,1000029,2019-09-06 18:32:46:711,0.7537,-0.5171,9.5435,0.0075,0.0085,9.8066,-0.0388,-0.0265,0.0219,3.44,-32.19,16.56,53.14,-80.89,-150.9
9917,52.387516,-1.522788,141.29,10.71,4,295.69,21 / 21,1000128,2019-09-06 18:32:46:810,0.7646,0.6128,10.3453,-0.0069,-0.0166,9.8065,-0.031,-0.018,-0.0418,3.25,-32.25,17.44,52.67,-81.03,-151.08
9918,52.387516,-1.522788,141.29,10.71,4,295.69,21 / 21,1000229,2019-09-06 18:32:46:911,0.1307,0.6248,9.5819,0.0194,-0.0155,9.8065,-0.0751,-0.0059,-0.0332,3.69,-32.31,17.19,54.97,-81.1,-152.13
9919,52.387516,-1.522788,141.29,10.71,4,295.69,21 / 21,1000329,2019-09-06 18:32:47:011,-0.087,-0.0004,9.9054,0.0074,-0.0082,9.8066,0.0098,0.0612,-0.0175,3.63,-32.31,16.88,53.51,-81.11,-153.33
9920,52.387516,-1.522788,141.29,10.71,4,295.69,20 / 20,1000429,2019-09-06 18:32:47:111,-0.5268,0.1461,9.2584,0.0097,-0.0032,9.8066,0.0069,-0.0576,0.026,4.0,-32.06,17.38,52.46,-81.24,-153.98
9921,52.387516,-1.522788,141.29,10.71,4,295.69,20 / 20,1000528,2019-09-06 18:32:47:210,0.2562,-0.4108,9.7517,0.009,0.0047,9.8066,-0.1592,-0.0603,0.0284,3.38,-32.12,16.63,48.65,-81.37,-153.81
9922,52.387516,-1.522788,141.29,10.71,4,295.69,20 / 20,1000628,2019-09-06 18:32:47:310,0.9794,1.3657,10.1639,-0.0285,-0.0056,9.8066,-0.0874,0.0438,-0.0188,2.94,-32.87,16.25,52.37,-81.45,-152.47
9923,52.387516,-1.522788,141.29,10.71,4,295.69,20 / 20,1000729,2019-09-06 18:32:47:411,-0.2222,0.303,9.849,0.0121,-0.0065,9.8065,0.0982,-0.0107,0.08,3.38,-32.0,16.69,49.27,-81.44,-153.2
9924,52.387516,-1.522788,141.29,10.71,4,295.69,20 / 20,1000828,2019-09-06 18:32:47:510,0.2517,0.6161,10.2072,-0.0063,0.0151,9.8066,0.0658,-0.0223,-0.0004,3.5,-32.87,16.63,53.94,-81.41,-152.89
9925,52.387516,-1.522788,141.29,10.71,4,295.69,20 / 20,1000928,2019-09-06 18:32:47:610,0.6817,1.8188,10.421,0.0076,0.0003,9.8066,0.0637,0.0083,-0.0482,3.38,-32.56,16.75,49.83,-81.4,-153.2
9926,52.387516,-1.522788,141.29,10.71,4,295.69,20 / 20,1001028,2019-09-06 18:32:47:710,0.7648,-0.4885,9.6639,0.0281,0.0253,9.8065,0.1852,-0.0036,0.0106,2.63,-32.44,16.56,48.2,-81.52,-153.95
9927,52.387516,-1.522788,141.29,10.71,4,295.69,20 / 20,1001129,2019-09-06 18:32:47:811,0.0442,-1.0675,9.8356,-0.0218,-0.0497,9.8064,-0.1241,-0.0259,0.0791,3.13,-32.31,16.94,48.1,-81.33,-154.32
9928,52.387516,-1.522788,141.29,10.71,4,295.69,20 / 20,1001228,2019-09-06 18:32:47:910,1.504,0.743,9.4789,-0.007,-0.0324,9.8065,-0.1433,0.0798,-0.045,3.5,-32.0,16.31,53.46,-81.09,-154.99
9929,52.387516,-1.522788,141.29,10.71,4,295.69,20 / 20,1001330,2019-09-06 18:32:48:012,1.495,2.2697,9.922,0.0034,0.0223,9.8066,-0.0411,0.0331,-0.0418,3.25,-32.94,17.0,48.49,-81.38,-154.31
9930,52.387764,-1.524157,140.73,10.25,4,273.4,21 / 21,1001429,2019-09-06 18:32:48:111,1.1845,1.3223,9.3126,0.0071,0.0111,9.8066,-0.0517,-0.0238,-0.0045,3.44,-31.62,16.5,47.42,-81.37,-154.8
9931,52.387764,-1.524157,140.73,10.25,4,273.4,21 / 21,1001528,2019-09-06 18:32:48:210,0.1786,0.4487,9.4781,0.0204,0.0032,9.8066,0.0464,-0.0077,-0.0097,3.63,-31.87,17.06,49.92,-81.38,-155.86
9932,52.387764,-1.524157,140.73,10.25,4,273.4,21 / 21,1001629,2019-09-06 18:32:48:311,0.9857,1.5585,9.7931,0.0269,0.0146,9.8065,-0.0585,-0.0177,-0.0038,3.81,-32.25,17.0,48.37,-81.51,-156.91
9933,52.387764,-1.524157,140.73,10.25,4,273.4,21 / 21,1001729,2019-09-06 18:32:48:411,0.7888,0.7728,9.7931,0.0126,-0.0026,9.8066,0.0512,-0.0637,-0.0397,3.81,-32.0,15.88,49.04,-81.67,-157.62
9934,52.387764,-1.524157,140.73,10.25,4,273.4,21 / 21,1001828,2019-09-06 18:32:48:510,1.6616,-0.1598,9.4977,0.0125,0.0013,9.8066,0.0695,0.0531,-0.0041,4.25,-31.75,16.81,46.28,-81.74,-158.29
9935,52.387764,-1.524157,140.73,10.25,4,273.4,21 / 21,1001929,2019-09-06 18:32:48:611,-0.8378,0.6394,10.1493,-0.0213,-0.0166,9.8066,-0.1028,0.0318,-0.0236,3.94,-31.87,16.56,46.56,-81.8,-157.97
9936,52.387764,-1.524157,140.73,10.25,4,273.4,21 / 21,1002029,2019-09-06 18:32:48:711,0.6912,1.5615,9.6759,-0.0078,-0.0023,9.8066,-0.1402,0.0127,0.0344,3.63,-31.87,17.0,47.1,-81.74,-157.61
9937,52.387764,-1.524157,140.73,10.25,4,273.4,21 / 21,1002129,2019-09-06 18:32:48:811,-0.2458,0.3597,9.2606,0.0055,0.018,9.8065,0.1204,0.0271,-0.0213,3.81,-32.12,16.19,50.49,-81.81,-156.22
9938,52.387764,-1.524157,140.73,10.25,4,273.4,21 / 21,1002228,2019-09-06 18:32:48:910,-0.6141,-1.2168,10.0046,0.015,0.0242,9.8065,0.1288,0.0635,-0.0598,3.25,-32.5,16.38,45.81,-81.91,-156.59
9939,52.387764,-1.524157,140.73,10.25,4,273.4,21 / 21,1002328,2019-09-06 18:32:49:010,1.6751,-0.2641,10.6757,0.008,-0.0161,9.8066,-0.0054,-0.0696,0.0868,2.81,-30.75,15.5,42.68,-82.13,-158.43
9940,52.387764,-1.524157,140.73,10.25,4,273.4,21 / 21,1002428,2019-09-06 18:32:49:110,-0.3765,0.3521,10.4324,-0.0291,-0.0343,9.8065,0.0782,0.0237,-0.0817,2.94,-31.25,16.81,42.44,-82.02,-157.57
9941,52.387764,-1.524157,140.73,10.25,4,273.4,21 / 21,1002529,2019-09-06 18:32:49:211,1.141,0.6372,8.9172,0.0119,-0.0045,9.8066,-0.0584,-0.0037,0.026,3.31,-32.31,17.06,42.08,-81.88,-158.37
9942,52.387764,-1.524157,140.73,10.25,4,273.4,21 / 21,1002628,2019-09-06 18:32:49:310,1.3602,1.1651,9.7518,-0.0169,-0.0085,9.8066,-0.1062,-0.0115,0.032,3.5,-32.12,17.31,45.67,-81.62,-158.96
9943,52.387764,-1.524157,140.73,10.25,4,273.4,21 / 21,1002728,2019-09-06 18:32:49:410,-0.1966,-0.1989,9.5117,-0.0062,0.0316,9.8066,-0.1218,0.0187,-0.0407,2.94,-32.81,17.13,44.23,-81.64,-157.33
9944,52.387764,-1.524157,140.73,10.25,4,273.4,21 / 21,1002828,2019-09-06 18:32:49:510,-0.4295,-0.6521,9.2327,0.0155,0.0397,9.8065,0.0007,0.0341,-0.0398,2.81,-32.56,17.06,44.97,-81.98,-156.23
9945,52.387764,-1.524157,140.73,10.25,4,273.4,21 / 21,1002929,2019-09-06 18:32:49:611,1.3257,1.4879,9.9448,0.0337,0.0085,9.8065,-0.0126,0.0574,-0.095,3.44,-32.56,16.38,42.36,-82.53,-158.77
9946,52.387764,-1.524157,140.73,10.25,4,273.4,21 / 21,1003028,2019-09-06 18:32:49:710,0.8793,-1.5352,10.0308,0.0214,0.0011,9.8066,-0.0305,-0.0468,-0.0371,4.06,-32.44,16.38,43.91,-82.73,-160.2
9947,52.387764,-1.524157,140.73,10.25,4,273.4,21 / 21,1003129,2019-09-06 18:32:49:811,-0.6038,0.9138,9.7769,0.0004,-0.0456,9.8065,-0.0915,0.0465,-0.204,3.88,-32.06,16.44,42.12,-82.78,-161.6
9948,52.387764,-1.524157,140.73,10.25,4,273.4,21 / 21,1003228,2019-09-06 18:32:49:910,1.1604,1.2087,8.311,-0.0238,-0.0421,9.8064,-0.192,0.025,0.2448,3.69,-32.5,17.19,37.19,-82.37,-164.78
9949,52.387764,-1.524157,140.73,10.25,4,273.4,21 / 21,1003328,2019-09-06 18:32:50:010,-2.3414,0.2015,13.3536,0.023,0.1458,9.8055,0.7526,0.1218,-0.0253,3.44,-32.37,16.94,40.57,-82.03,-159.37
9950,52.387764,-1.524157,140.73,10.25,4,273.4,21 / 21,1003428,2019-09-06 18:32:50:110,-7.8585,-1.6344,12.1304,0.0918,0.1693,9.8047,0.4543,-0.5026,0.1849,3.13,-32.06,18.06,36.62,-81.74,-161.8
9951,52.387764,-1.524157,140.73,10.25,4,273.4,21 / 21,1003529,2019-09-06 18:32:50:211,-0.6353,-4.264,6.7762,-0.0042,-0.097,9.8061,0.0753,-0.0284,0.2169,3.5,-32.31,17.69,41.49,-80.96,-161.85
9952,52.387764,-1.524157,140.73,10.25,4,273.4,21 / 21,1003628,2019-09-06 18:32:50:310,-1.9679,2.0024,7.5403,0.0261,0.1555,9.8053,-0.0527,0.2723,-0.1492,4.06,-33.19,16.5,46.82,-82.45,-157.16
9953,52.387764,-1.524157,140.73,10.25,4,273.4,21 / 21,1003728,2019-09-06 18:32:50:410,6.2064,-1.8006,7.4653,0.1285,0.0873,9.8053,-0.4651,-0.28,-0.0496,4.5,-32.19,15.5,49.12,-83.58,-157.73
9954,52.387764,-1.524157,140.73,10.25,4,273.4,21 / 21,1003829,2019-09-06 18:32:50:511,1.5018,1.6676,10.8294,0.109,0.0682,9.8057,0.0716,-0.0241,-0.1471,4.56,-32.06,15.19,44.94,-85.45,-160.1
9955,52.387764,-1.524157,140.73,10.25,4,273.4,21 / 21,1003928,2019-09-06 18:32:50:610,0.8065,-4.8558,12.1827,-0.042,-0.1226,9.8057,0.5156,0.09,-0.3638,5.0,-31.69,15.25,35.18,-84.17,-170.21
9956,52.387764,-1.524157,140.73,10.25,4,273.4,21 / 21,1004029,2019-09-06 18:32:50:711,-1.4476,-4.7186,9.7244,0.0033,-0.0262,9.8066,-0.2598,-0.0334,0.2992,4.63,-31.12,17.06,28.55,-83.31,-173.6
9957,52.387764,-1.524157,140.73,10.25,4,273.4,21 / 21,1004129,2019-09-06 18:32:50:811,-3.2876,-2.0949,9.5782,-0.1016,-0.084,9.8057,-0.482,-0.1596,-0.0763,4.38,-31.5,16.69,32.31,-81.97,-168.82
9958,52.387764,-1.524157,140.73,10.25,4,273.4,21 / 21,1004228,2019-09-06 18:32:50:910,1.1204,0.5659,9.6355,0.0257,0.0185,9.8065,0.0059,0.1705,-0.1449,4.13,-32.12,16.25,34.89,-82.97,-167.17
9959,52.387764,-1.524157,140.73,10.25,4,273.4,21 / 21,1004329,2019-09-06 18:32:51:011,1.3714,-1.4361,8.3695,0.0207,0.0469,9.8065,-0.1287,-0.1698,0.1255,4.88,-32.19,15.75,37.18,-83.53,-167.83
9960,52.387764,-1.524157,140.73,10.25,4,273.4,21 / 21,1004429,2019-09-06 18:32:51:111,-0.1798,-1.5605,7.8887,-0.0636,-0.0433,9.8063,-0.1401,0.1954,-0.095,4.56,-32.31,15.69,42.02,-83.34,-164.07
9961,52.387764,-1.524157,140.73,10.25,4,273.4,21 / 21,1004529,2019-09-06 18:32:51:211,-0.8006,1.4569,10.017,-0.026,-0.0135,9.8065,-0.1036,0.0432,-0.0752,4.38,-31.69,16.5,37.03,-83.09,-164.06
9962,52.387764,-1.524157,140.73,10.25,4,273.4,21 / 21,1004628,2019-09-06 18:32:51:310,-0.1136,-1.4746,9.9568,0.0074,-0.0391,9.8065,-0.0401,0.0658,-0.1061,4.81,-31.75,16.38,39.0,-82.91,-167.12
9963,52.387764,-1.524157,140.73,10.25,4,273.4,21 / 21,1004728,2019-09-06 18:32:51:410,-0.1065,-1.5742,10.6684,0.0132,0.0544,9.8064,-0.0211,0.0335,-0.0086,4.38,-31.56,16.94,32.68,-83.19,-167.5
9964,52.387764,-1.524157,140.73,10.25,4,273.4,21 / 21,1004828,2019-09-06 18:32:51:510,-2.4539,-0.8395,10.0303,0.046,0.0557,9.8064,-0.0154,0.0863,-0.1305,5.31,-31.87,16.38,36.83,-83.52,-168.14
9965,52.387764,-1.524157,140.73,10.25,4,273.4,21 / 21,1004929,2019-09-06 18:32:51:611,0.3541,-0.3841,9.6712,0.025,0.0175,9.8065,0.107,-0.0006,-0.124,4.75,-31.37,15.69,35.19,-83.71,-169.04
9966,52.387764,-1.524157,140.73,10.25,4,273.4,21 / 21,1005029,2019-09-06 18:32:51:711,-0.3752,-0.921,9.55,0.0227,0.0082,9.8066,0.15,-0.0397,0.0375,5.38,-31.19,15.5,32.06,-83.92,-171.42
9967,52.387764,-1.524157,140.73,10.25,4,273.4,21 / 21,1005128,2019-09-06 18:32:51:810,-1.3322,-1.296,10.3415,-0.0222,-0.0323,9.8065,-0.0312,-0.0461,0.0679,5.69,-31.12,15.19,38.14,-83.52,-171.54
9968,52.387764,-1.524157,140.73,10.25,4,273.4,21 / 21,1005228,2019-09-06 18:32:51:910,0.1554,-0.5435,10.1359,-0.0134,-0.0218,9.8066,-0.0457,0.0226,-0.042,4.88,-31.37,15.31,34.93,-83.43,-171.08
9969,52.387764,-1.524157,140.73,10.25,4,273.4,21 / 21,1005329,2019-09-06 18:32:52:011,-0.0965,0.704,10.1301,-0.0078,0.0108,9.8066,0.0222,-0.0192,0.0373,5.13,-31.62,15.25,36.44,-83.44,-170.09
9970,52.387764,-1.524157,140.73,10.25,4,273.4,20 / 21,1005428,2019-09-06 18:32:52:110,-0.0456,-0.2693,9.3135,-0.0035,0.0182,9.8066,-0.07,-0.0113,0.0296,4.94,-31.5,15.88,35.24,-83.44,-169.31
9971,52.387764,-1.524157,140.73,10.25,4,273.4,20 / 21,1005528,2019-09-06 18:32:52:210,-0.1314,-0.781,9.7449,0.0075,0.0186,9.8065,0.0297,0.0067,-0.0331,4.44,-32.06,15.44,34.49,-83.56,-168.16
9972,52.387764,-1.524157,140.73,10.25,4,273.4,20 / 21,1005629,2019-09-06 18:32:52:311,-0.5124,-0.056,10.0113,0.0196,0.0205,9.8066,0.0198,-0.0697,0.0177,4.31,-31.87,15.81,32.18,-83.68,-168.56
9973,52.387764,-1.524157,140.73,10.25,4,273.4,20 / 21,1005728,2019-09-06 18:32:52:410,-0.0338,-1.2369,9.8414,-0.0074,-0.0388,9.8065,-0.0006,-0.0519,0.0657,4.13,-31.31,15.44,33.11,-83.46,-169.14
9974,52.387764,-1.524157,140.73,10.25,4,273.4,20 / 21,1005828,2019-09-06 18:32:52:510,-0.9163,-2.1449,10.125,-0.0141,-0.0188,9.8066,-0.0197,0.0453,-0.0084,4.5,-31.62,15.75,35.78,-83.38,-169.17
9975,52.387764,-1.524157,140.73,10.25,4,273.4,20 / 21,1005928,2019-09-06 18:32:52:610,-0.2541,-0.9331,9.3283,-0.0133,0.0041,9.8066,-0.048,0.0524,-0.0373,4.25,-31.69,15.63,32.28,-83.48,-168.7
9976,52.387764,-1.524157,140.73,10.25,4,273.4,20 / 21,1006028,2019-09-06 18:32:52:710,-0.9633,-0.0633,9.8204,0.0086,0.0017,9.8066,-0.1214,-0.0075,-0.0075,4.31,-31.69,15.06,34.76,-83.59,-167.89
9977,52.387764,-1.524157,140.73,10.25,4,273.4,20 / 21,1006129,2019-09-06 18:32:52:811,0.3361,0.6414,10.2135,0.0205,0.0255,9.8065,0.0867,0.048,-0.0575,4.19,-31.44,15.88,30.42,-84.04,-169.44
9978,52.387764,-1.524157,140.73,10.25,4,273.4,20 / 21,1006229,2019-09-06 18:32:52:911,-0.0272,-0.638,9.509,0.0117,0.0148,9.8066,0.1016,-0.0055,-0.0063,4.56,-31.5,15.31,34.48,-83.94,-170.85
9979,52.387764,-1.524157,140.73,10.25,4,273.4,20 / 21,1006329,2019-09-06 18:32:53:011,-0.6461,-0.8793,9.9383,-0.0344,-0.0379,9.8065,-0.0799,0.0254,0.0182,4.38,-32.19,15.81,30.47,-83.39,-170.24
9980,52.387764,-1.524157,140.73,10.25,4,273.4,20 / 20,1006430,2019-09-06 18:32:53:112,0.4525,-0.4802,9.2564,-0.0203,-0.0384,9.8065,0.0271,0.0426,0.0771,4.88,-31.5,15.75,34.99,-83.38,-169.58
9981,52.387764,-1.524157,140.73,10.25,4,273.4,20 / 20,1006528,2019-09-06 18:32:53:210,-0.0199,0.4312,10.4467,-0.0036,0.0436,9.8065,-0.0315,-0.1123,0.1158,4.94,-32.0,15.25,39.32,-83.56,-167.59
9982,52.387764,-1.524157,140.73,10.25,4,273.4,20 / 20,1006629,2019-09-06 18:32:53:311,-0.1988,0.5957,10.7565,-0.0254,0.0038,9.8065,0.0218,0.0978,-0.1382,4.63,-31.87,16.06,42.29,-83.51,-163.62
9983,52.387764,-1.524157,140.73,10.25,4,273.4,20 / 20,1006729,2019-09-06 18:32:53:411,-1.1618,-0.9688,10.9335,0.0003,-0.0335,9.8066,-0.0492,-0.002,-0.0262,4.88,-31.5,15.44,39.48,-83.27,-167.57
9984,52.387764,-1.524157,140.73,10.25,4,273.4,20 / 20,1006829,2019-09-06 18:32:53:511,-0.9005,-0.572,9.5084,0.015,-0.0126,9.8065,0.0204,-0.06,-0.0216,5.06,-31.81,16.5,35.23,-83.11,-168.55
9985,52.387764,-1.524157,140.73,10.25,4,273.4,20 / 20,1006929,2019-09-06 18:32:53:611,1.0413,0.526,8.9561,0.0366,-0.0176,9.8065,-0.0638,0.045,-0.0612,5.44,-30.94,16.13,30.47,-83.26,-173.39
9986,52.387764,-1.524157,140.73,10.25,4,273.4,20 / 20,1007028,2019-09-06 18:32:53:710,0.7735,-0.9286,9.5945,0.0092,-0.0232,9.8066,-0.1541,0.0398,-0.1412,6.19,-30.87,15.88,31.19,-83.36,-175.79
9987,52.387764,-1.524157,140.73,10.25,4,273.4,20 / 20,1007128,2019-09-06 18:32:53:810,-0.1357,-1.5305,9.2647,-0.0014,0.0021,9.8066,0.0119,0.0477,-0.0183,5.5,-30.94,15.69,28.16,-83.61,-178.02
9988,52.387764,-1.524157,140.73,10.25,4,273.4,20 / 20,1007228,2019-09-06 18:32:53:910,-0.5713,1.1408,10.6164,-0.014,-0.0365,9.8065,-0.0412,-0.0925,0.0859,5.75,-30.94,15.88,28.09,-83.49,-178.18
9989,52.387764,-1.524157,140.73,10.25,4,273.4,20 / 20,1007328,2019-09-06 18:32:54:010,1.2263,-1.7029,10.6306,-0.012,-0.0188,9.8065,0.0459,-0.1338,0.0971,5.44,-31.56,15.56,26.27,-83.26,-176.94
9990,52.387764,-1.524157,140.73,10.25,4,273.4,20 / 20,1007429,2019-09-06 18:32:54:111,-0.4964,-0.8689,10.0641,-0.0266,-0.0139,9.8065,0.0583,0.0415,-0.0013,5.19,-30.25,15.94,29.14,-83.04,-174.47
9991,52.387764,-1.524157,140.73,10.25,4,273.4,20 / 20,1007529,2019-09-06 18:32:54:211,0.7945,0.2601,10.3324,-0.0083,0.0073,9.8066,-0.2398,-0.0113,0.0213,5.19,-31.12,15.44,32.42,-83.21,-173.35
9992,52.387764,-1.524157,140.73,10.25,4,273.4,20 / 20,1007628,2019-09-06 18:32:54:310,-1.2795,-0.5025,10.226,0.0087,-0.0021,9.8066,-0.0861,-0.0526,0.0261,4.94,-31.37,15.5,30.97,-83.42,-172.82
9993,52.387764,-1.524157,140.73,10.25,4,273.4,20 / 20,1007728,2019-09-06 18:32:54:410,0.391,0.5323,8.9592,-0.0074,-0.0118,9.8066,-0.0795,-0.1101,0.0779,5.0,-31.06,15.75,30.05,-83.57,-173.42
9994,52.387764,-1.524157,140.73,10.25,4,273.4,20 / 20,1007828,2019-09-06 18:32:54:510,-1.5788,-2.438,9.3002,-0.0248,-0.0165,9.8066,-0.0893,0.0402,-0.0316,4.75,-31.44,15.63,31.3,-83.25,-172.73
9995,52.387764,-1.524157,140.73,10.25,4,273.4,20 / 20,1007929,2019-09-06 18:32:54:611,0.2068,0.1467,10.1327,0.0161,0.0437,9.8065,0.1221,-0.1758,0.1304,4.19,-32.31,15.38,30.58,-83.31,-171.56
9996,52.387764,-1.524157,140.73,10.25,4,273.4,20 / 20,1008028,2019-09-06 18:32:54:710,-1.4732,0.5099,11.1121,-0.0335,0.0133,9.8065,-0.0498,0.0464,-0.0381,4.06,-31.62,15.81,32.64,-83.13,-168.79
9997,52.387764,-1.524157,140.73,10.25,4,273.4,20 / 20,1008129,2019-09-06 18:32:54:811,0.2849,1.0051,9.8826,-0.0248,-0.0497,9.8064,-0.1776,-0.1282,-0.0112,4.69,-31.87,15.38,38.92,-83.1,-168.53
9998,52.387764,-1.524157,140.73,10.25,4,273.4,20 / 20,1008228,2019-09-06 18:32:54:910,-0.6388,1.3916,10.9013,-0.0274,-0.0357,9.8065,0.0779,-0.0567,0.0322,4.06,-31.69,15.06,36.52,-83.15,-167.04
9999,52.387764,-1.524157,140.73,10.25,4,273.4,20 / 20,1008330,2019-09-06 18:32:55:012,-0.4123,1.4894,10.6229,-0.0116,-0.0351,9.8065,-0.0542,-0.0497,0.0426,4.44,-32.0,15.88,33.88,-83.32,-167.59
10000,52.387764,-1.524157,140.73,10.25,4,273.4,20 / 21,1008429,2019-09-06 18:32:55:111,1.5344,0.5619,10.7135,0.0099,0.0218,9.8066,0.0908,0.0226,-0.0373,4.19,-32.06,15.38,35.43,-83.22,-167.82
10001,52.387764,-1.524157,140.73,10.25,4,273.4,20 / 21,1008529,2019-09-06 18:32:55:211,-0.0066,0.0725,11.0685,-0.0189,-0.0373,9.8065,0.0072,-0.0351,-0.0552,4.25,-31.81,16.06,33.28,-82.97,-168.46
10002,52.387764,-1.524157,140.73,10.25,4,273.4,20 / 21,1008629,2019-09-06 18:32:55:311,-0.2226,0.2436,9.8636,0.0021,-0.0046,9.8066,0.1066,0.0361,-0.0116,4.13,-31.94,15.94,32.81,-83.06,-168.74
10003,52.387764,-1.524157,140.73,10.25,4,273.4,20 / 21,1008729,2019-09-06 18:32:55:411,0.4064,0.1624,9.9192,-0.014,-0.0111,9.8066,-0.1084,0.0071,-0.0302,4.0,-31.81,15.44,34.69,-82.91,-168.79
10004,52.387764,-1.524157,140.73,10.25,4,273.4,20 / 21,1008829,2019-09-06 18:32:55:511,-0.0281,-0.4515,9.455,-0.0065,0.0019,9.8066,-0.0314,0.0057,0.073,4.19,-31.81,15.69,33.51,-83.04,-168.19
10005,52.387764,-1.524157,140.73,10.25,4,273.4,20 / 21,1008929,2019-09-06 18:32:55:611,-0.4261,0.0556,9.5396,-0.0036,0.0416,9.8065,-0.0086,-0.0296,-0.0022,4.25,-31.0,15.69,34.72,-83.04,-166.99
10006,52.387764,-1.524157,140.73,10.25,4,273.4,20 / 21,1009028,2019-09-06 18:32:55:710,-0.3489,0.4654,9.7753,0.0127,0.0125,9.8066,-0.0227,-0.0096,-0.0135,4.19,-31.62,15.5,36.53,-83.16,-165.63
10007,52.387764,-1.524157,140.73,10.25,4,273.4,20 / 21,1009128,2019-09-06 18:32:55:810,0.4417,0.8835,10.9476,-0.0062,0.0085,9.8066,0.1017,0.0033,0.102,4.06,-31.5,15.75,36.03,-83.04,-165.93
10008,52.387764,-1.524157,140.73,10.25,4,273.4,20 / 21,1009229,2019-09-06 18:32:55:911,-0.0728,-0.3859,9.7658,-0.016,0.0022,9.8066,0.0093,-0.0928,-0.0355,4.63,-31.69,15.5,41.68,-82.8,-165.09
10009,52.387764,-1.524157,140.73,10.25,4,273.4,20 / 21,1009328,2019-09-06 18:32:56:010,0.5376,0.6869,10.3009,-0.0209,0.0006,9.8065,0.0583,0.0403,0.0091,3.88,-31.56,15.75,39.35,-82.6,-164.07
10010,52.387764,-1.524157,140.73,10.25,4,273.4,21 / 21,1009429,2019-09-06 18:32:56:111,-0.2198,0.5074,9.9188,-0.017,0.0209,9.8065,0.072,-0.0115,0.1271,3.5,-32.06,16.0,41.36,-82.53,-162.54
10011,52.387764,-1.524157,140.73,10.25,4,273.4,21 / 21,1009529,2019-09-06 18:32:56:211,-0.0368,0.6962,9.6643,-0.0149,-0.0266,9.8065,-0.1629,-0.0491,0.1106,3.0,-31.81,15.63,39.36,-82.19,-161.31
10012,52.387764,-1.524157,140.73,10.25,4,273.4,21 / 21,1009628,2019-09-06 18:32:56:310,-0.3876,2.8054,10.1693,-0.0325,-0.0132,9.8066,-0.1246,-0.007,0.0335,3.5,-32.37,15.94,45.43,-82.23,-159.69
10013,52.387764,-1.524157,140.73,10.25,4,273.4,21 / 21,1009729,2019-09-06 18:32:56:411,0.202,2.8715,10.4588,0.0105,0.0443,9.8065,0.2555,0.0301,-0.0016,3.25,-32.12,16.0,44.81,-82.28,-156.84
10014,52.387764,-1.524157,140.73,10.25,4,273.4,21 / 21,1009828,2019-09-06 18:32:56:510,-0.6264,-1.4605,9.775,0.0201,0.0301,9.8065,0.1384,-0.0381,0.1174,2.88,-32.19,15.69,44.26,-82.16,-157.47
10015,52.387764,-1.524157,140.73,10.25,4,273.4,21 / 21,1009928,2019-09-06 18:32:56:610,1.4838,1.9172,10.5447,-0.0179,-0.0033,9.8066,-0.0091,0.1174,-0.0924,3.69,-31.94,15.88,49.82,-81.96,-156.53
10016,52.387764,-1.524157,140.73,10.25,4,273.4,21 / 21,1010029,2019-09-06 18:32:56:711,-0.7647,-0.838,10.5392,0.0145,0.0414,9.8065,0.2261,0.0275,0.0393,3.13,-31.62,16.06,46.25,-82.07,-156.0
10017,52.387764,-1.524157,140.73,10.25,4,273.4,21 / 21,1010128,2019-09-06 18:32:56:810,0.6311,-0.1816,9.8585,-0.0148,-0.0591,9.8065,-0.045,-0.0704,0.1008,3.25,-32.25,15.69,45.6,-81.72,-157.05
10018,52.387764,-1.524157,140.73,10.25,4,273.4,21 / 21,1010228,2019-09-06 18:32:56:910,1.6423,3.2568,11.0008,-0.0219,-0.0301,9.8065,-0.063,0.0199,-0.0119,2.94,-32.25,16.0,45.88,-81.64,-156.95
10019,52.387764,-1.524157,140.73,10.25,4,273.4,21 / 21,1010328,2019-09-06 18:32:57:010,0.6283,0.1369,9.583,0.0086,0.0255,9.8065,0.2005,0.0392,0.0199,3.13,-31.69,16.0,46.59,-81.76,-156.21
10020,52.387844,-1.52556,140.82,10.78,4,276.79,20 / 20,1010429,2019-09-06 18:32:57:111,0.4203,1.0291,10.1829,-0.0138,-0.0178,9.8065,0.0564,-0.0361,-0.0286,3.63,-31.81,16.38,50.34,-81.65,-156.6
10021,52.387844,-1.52556,140.82,10.78,4,276.79,20 / 20,1010529,2019-09-06 18:32:57:211,0.8345,0.2114,8.8802,0.0014,-0.0038,9.8066,-0.0606,-0.0754,0.0318,3.19,-32.12,15.13,48.08,-81.7,-156.59
10022,52.387844,-1.52556,140.82,10.78,4,276.79,20 / 20,1010628,2019-09-06 18:32:57:310,-0.3935,-0.3171,9.6319,0.0077,0.0043,9.8066,-0.1795,0.0311,-0.012,2.75,-32.0,14.5,48.16,-82.07,-155.9
10023,52.387844,-1.52556,140.82,10.78,4,276.79,20 / 20,1010729,2019-09-06 18:32:57:411,-0.2494,1.6117,10.1759,0.0053,0.0149,9.8066,0.0503,0.0443,-0.0214,2.38,-32.87,14.94,44.35,-82.37,-155.23
10024,52.387844,-1.52556,140.82,10.78,4,276.79,20 / 20,1010829,2019-09-06 18:32:57:511,0.7197,-0.085,10.0354,-0.0097,-0.016,9.8066,0.0673,-0.0128,-0.0002,2.63,-32.94,15.31,48.68,-82.3,-155.5
10025,52.387844,-1.52556,140.82,10.78,4,276.79,20 / 20,1010929,2019-09-06 18:32:57:611,0.7628,0.9302,9.9758,0.0064,-0.003,9.8066,0.0487,-0.0177,0.0245,2.81,-32.75,15.25,48.31,-82.02,-156.27
10026,52.387844,-1.52556,140.82,10.78,4,276.79,20 / 20,1011028,2019-09-06 18:32:57:710,-0.1099,0.9422,9.7578,-0.0138,-0.009,9.8066,0.0206,-0.0537,0.0511,2.44,-33.19,16.13,42.26,-81.79,-156.55
10027,52.387844,-1.52556,140.82,10.78,4,276.79,20 / 20,1011128,2019-09-06 18:32:57:810,0.6067,2.426,9.8027,-0.011,-0.0108,9.8066,-0.1618,-0.0432,-0.052,2.5,-33.19,15.88,47.32,-81.63,-156.2
10028,52.387844,-1.52556,140.82,10.78,4,276.79,20 / 20,1011228,2019-09-06 18:32:57:910,-0.3239,1.2939,9.9851,0.0022,0.0192,9.8065,0.1298,0.0576,-0.0472,2.69,-32.5,15.81,47.36,-81.89,-155.38
10029,52.387844,-1.52556,140.82,10.78,4,276.79,20 / 20,1011329,2019-09-06 18:32:58:011,-0.2194,1.061,9.4406,0.0172,0.0311,9.8066,-0.1098,0.0654,-0.0104,2.69,-32.37,16.0,47.31,-82.03,-155.21
10030,52.387844,-1.52556,140.82,10.78,4,276.79,20 / 20,1011428,2019-09-06 18:32:58:110,0.0304,2.5085,10.3696,0.0118,-0.0168,9.8066,-0.011,-0.1049,0.0523,2.63,-33.44,15.75,49.19,-82.02,-154.08
10031,52.387844,-1.52556,140.82,10.78,4,276.79,20 / 20,1011529,2019-09-06 18:32:58:211,0.9928,0.3958,9.7599,-0.0048,-0.0064,9.8066,0.0357,0.0289,-0.026,3.0,-32.06,16.19,47.38,-82.0,-155.2
10032,52.387844,-1.52556,140.82,10.78,4,276.79,20 / 20,1011628,2019-09-06 18:32:58:310,0.7757,1.7604,9.2854,-0.0145,-0.011,9.8066,-0.0348,0.0008,-0.016,2.94,-32.37,15.75,48.29,-81.73,-154.89
10033,52.387844,-1.52556,140.82,10.78,4,276.79,20 / 20,1011728,2019-09-06 18:32:58:410,0.569,1.0808,9.3978,-0.009,-0.0035,9.8066,-0.0776,0.0368,0.0494,3.06,-32.31,15.38,50.58,-81.68,-154.64
10034,52.387844,-1.52556,140.82,10.78,4,276.79,20 / 20,1011829,2019-09-06 18:32:58:511,0.6293,3.1715,9.6261,0.0138,0.0521,9.8065,0.2675,0.0281,-0.0332,2.31,-32.0,15.63,46.87,-81.97,-152.27
10035,52.387844,-1.52556,140.82,10.78,4,276.79,20 / 20,1011928,2019-09-06 18:32:58:610,-0.382,-0.0311,11.2897,0.0392,0.0946,9.8061,0.2533,-0.0818,0.029,2.81,-32.37,15.44,53.05,-82.05,-151.97
10036,52.387844,-1.52556,140.82,10.78,4,276.79,20 / 20,1012028,2019-09-06 18:32:58:710,-0.4978,-1.407,10.5879,-0.0246,-0.0755,9.8063,0.0646,-0.0763,-0.0028,2.94,-32.06,14.94,52.44,-81.85,-152.84
10037,52.387844,-1.52556,140.82,10.78,4,276.79,20 / 20,1012129,2019-09-06 18:32:58:811,0.3014,-1.0105,9.452,-0.0168,-0.0343,9.8065,0.0682,-0.005,-0.0802,2.94,-32.69,15.75,49.58,-81.31,-154.95
10038,52.387844,-1.52556,140.82,10.78,4,276.79,20 / 20,1012228,2019-09-06 18:32:58:910,0.878,1.6167,8.8738,0.0095,0.0052,9.8066,-0.1971,-0.022,-0.0217,2.81,-31.81,14.69,50.54,-81.49,-154.99
10039,52.387844,-1.52556,140.82,10.78,4,276.79,20 / 20,1012328,2019-09-06 18:32:59:010,0.9392,1.2644,9.4792,-0.0029,-0.0133,9.8065,-0.1652,-0.0492,-0.0101,2.88,-32.56,15.63,49.04,-81.63,-154.84
10040,52.387844,-1.52556,140.82,10.78,4,276.79,20 / 21,1012429,2019-09-06 18:32:59:111,1.1508,2.4015,9.3687,0.0153,0.0383,9.8065,0.1193,-0.0077,0.0107,3.0,-32.56,15.06,52.5,-81.9,-153.14
10041,52.387844,-1.52556,140.82,10.78,4,276.79,20 / 21,1012529,2019-09-06 18:32:59:211,0.8885,0.9112,10.0191,0.0052,0.0245,9.8065,0.0022,-0.0404,0.0497,2.69,-32.56,14.88,52.85,-81.8,-153.04
10042,52.387844,-1.52556,140.82,10.78,4,276.79,20 / 21,1012628,2019-09-06 18:32:59:310,-0.6358,0.4663,9.8878,-0.0154,-0.0133,9.8066,-0.0125,-0.0255,0.035,2.25,-32.94,15.44,49.44,-81.66,-152.44
10043,52.387844,-1.52556,140.82,10.78,4,276.79,20 / 21,1012729,2019-09-06 18:32:59:411,0.8756,0.8447,10.3488,-0.0009,-0.0023,9.8066,0.0,-0.0406,0.0191,2.56,-32.37,15.44,53.93,-81.52,-152.23
10044,52.387844,-1.52556,140.82,10.78,4,276.79,20 / 21,1012828,2019-09-06 18:32:59:510,0.9179,1.5772,10.0614,-0.0063,-0.0051,9.8066,-0.0142,0.0366,-0.0603,2.38,-32.5,15.56,47.94,-81.38,-152.35
10045,52.387844,-1.52556,140.82,10.78,4,276.79,20 / 21,1012929,2019-09-06 18:32:59:611,-0.4679,1.5734,9.7045,0.0009,-0.0002,9.8066,0.0326,-0.0906,0.0638,2.25,-33.06,15.81,47.88,-81.33,-152.89
10046,52.387844,-1.52556,140.82,10.78,4,276.79,20 / 21,1013029,2019-09-06 18:32:59:711,0.6874,0.7537,9.3481,0.0125,0.0286,9.8065,0.094,-0.0033,0.0186,2.69,-32.12,16.13,52.12,-81.33,-152.45
10047,52.387844,-1.52556,140.82,10.78,4,276.79,20 / 21,1013128,2019-09-06 18:32:59:810,0.4737,0.3338,10.3181,0.0186,0.0351,9.8065,0.0681,-0.0186,0.0049,2.5,-32.94,15.81,52.84,-81.39,-152.19
10048,52.387844,-1.52556,140.82,10.78,4,276.79,20 / 21,1013229,2019-09-06 18:32:59:911,0.3842,0.5589,10.4893,-0.0202,-0.0255,9.8065,0.0505,-0.1061,0.0746,2.56,-32.37,16.0,52.48,-81.38,-152.06
10049,52.387844,-1.52556,140.82,10.78,4,276.79,20 / 21,1013329,2019-09-06 18:33:00:011,-0.095,0.48,9.6791,-0.0095,0.0031,9.8066,0.0996,-0.0137,0.0058,2.31,-32.94,16.44,50.17,-81.14,-151.4
10050,52.387844,-1.52556,140.82,10.78,4,276.79,20 / 21,1013429,2019-09-06 18:33:00:111,0.5059,-0.0774,10.0684,-0.0065,-0.0094,9.8066,0.0413,0.0238,-0.0394,2.19,-32.06,16.56,48.07,-81.0,-151.65
10051,52.387844,-1.52556,140.82,10.78,4,276.79,20 / 21,1013528,2019-09-06 18:33:00:210,-1.0742,0.832,10.0076,0.0154,0.0331,9.8065,0.2137,-0.121,0.0764,2.38,-32.37,15.88,50.04,-81.19,-150.99
10052,52.387844,-1.52556,140.82,10.78,4,276.79,20 / 21,1013629,2019-09-06 18:33:00:311,1.0601,1.2196,10.1604,0.0028,0.0071,9.8066,0.0056,-0.06,0.0766,2.19,-32.62,16.06,51.9,-81.16,-149.99
10053,52.387844,-1.52556,140.82,10.78,4,276.79,20 / 21,1013729,2019-09-06 18:33:00:411,-0.642,0.7503,10.5688,-0.0159,0.0044,9.8066,-0.0017,0.0598,-0.0519,1.81,-32.37,15.81,52.59,-81.09,-149.11
10054,52.387844,-1.52556,140.82,10.78,4,276.79,20 / 21,1013828,2019-09-06 18:33:00:510,-0.5216,-0.3066,10.5332,-0.0261,-0.0471,9.8065,0.0849,-0.0385,0.0015,2.25,-32.06,15.88,52.31,-81.19,-149.18
10055,52.387844,-1.52556,140.82,10.78,4,276.79,20 / 21,1013928,2019-09-06 18:33:00:610,0.2041,0.3327,10.0665,0.007,-0.0042,9.8066,0.1137,0.0032,-0.0443,1.94,-32.56,16.13,52.46,-81.01,-149.8
10056,52.387844,-1.52556,140.82,10.78,4,276.79,20 / 21,1014029,2019-09-06 18:33:00:711,0.5124,0.3327,9.5634,-0.0004,-0.0254,9.8066,-0.1411,-0.0189,-0.0221,2.19,-32.5,15.75,50.22,-81.01,-151.15
10057,52.387844,-1.52556,140.82,10.78,4,276.79,20 / 21,1014129,2019-09-06 18:33:00:811,-0.9892,0.0688,10.6369,-0.0107,-0.0307,9.8065,-0.0283,-0.0253,0.0619,2.69,-32.62,16.44,55.04,-81.05,-151.01
10058,52.387844,-1.52556,140.82,10.78,4,276.79,20 / 21,1014229,2019-09-06 18:33:00:911,0.3885,1.4492,10.3862,-0.0047,-0.0053,9.8066,0.0723,-0.0077,0.0378,2.13,-32.19,16.31,49.49,-81.09,-151.59
10059,52.387844,-1.52556,140.82,10.78,4,276.79,20 / 21,1014328,2019-09-06 18:33:01:010,1.0651,1.392,12.7389,0.0153,0.006,9.8066,-0.0676,-0.0545,-0.0585,2.13,-32.56,16.81,47.85,-81.06,-152.13
10060,52.387844,-1.52556,140.82,10.78,4,276.79,21 / 21,1014429,2019-09-06 18:33:01:111,-1.0112,0.3782,13.0613,0.0415,0.0757,9.8062,0.6126,0.0219,-0.103,2.5,-32.31,16.69,50.09,-80.81,-153.51
10061,52.387844,-1.52556,140.82,10.78,4,276.79,21 / 21,1014528,2019-09-06 18:33:01:210,1.4572,-0.7671,11.1436,-0.0372,-0.0937,9.8061,0.3916,0.0699,-0.0117,2.56,-31.81,18.13,46.49,-79.75,-156.62
10062,52.387844,-1.52556,140.82,10.78,4,276.79,21 / 21,1014628,2019-09-06 18:33:01:310,-0.2858,-2.9157,11.2605,-0.0134,-0.0177,9.8066,-0.2532,-0.06,-0.025,2.63,-32.62,18.44,48.54,-79.39,-156.01
10063,52.387844,-1.52556,140.82,10.78,4,276.79,21 / 21,1014729,2019-09-06 18:33:01:411,-1.3091,-0.4589,7.021,0.0148,0.0952,9.8061,-0.1556,-0.1344,0.0423,2.5,-31.87,17.19,47.63,-79.83,-156.94
10064,52.387844,-1.52556,140.82,10.78,4,276.79,21 / 21,1014829,2019-09-06 18:33:01:511,-1.519,-2.1193,7.4404,0.0909,0.1269,9.8054,-0.3031,-0.1089,-0.0722,3.25,-33.06,15.5,52.43,-81.68,-152.03
10065,52.387844,-1.52556,140.82,10.78,4,276.79,21 / 21,1014929,2019-09-06 18:33:01:611,1.7517,1.3361,9.9519,0.0684,0.0877,9.8059,-0.401,-0.0621,-0.133,3.31,-33.12,13.38,59.08,-83.67,-147.65
10066,52.387844,-1.52556,140.82,10.78,4,276.79,21 / 21,1015029,2019-09-06 18:33:01:711,-0.3063,3.4763,12.3006,-0.0047,-0.0077,9.8066,0.0883,0.0284,0.0395,2.56,-32.94,13.81,58.01,-84.06,-145.93
10067,52.387844,-1.52556,140.82,10.78,4,276.79,21 / 21,1015128,2019-09-06 18:33:01:810,0.459,2.0332,11.9045,-0.0018,-0.0465,9.8065,0.2203,0.0817,0.029,2.69,-32.12,14.81,51.08,-83.09,-151.79
10068,52.387844,-1.52556,140.82,10.78,4,276.79,21 / 21,1015229,2019-09-06 18:33:01:911,0.0413,-3.3463,9.1072,-0.0401,-0.1772,9.8049,0.2602,0.073,-0.0626,3.0,-31.37,17.19,40.47,-81.15,-160.26
10069,52.387844,-1.52556,140.82,10.78,4,276.79,21 / 21,1015329,2019-09-06 18:33:02:011,-1.7269,-1.0804,9.0725,-0.008,0.0043,9.8066,-0.127,-0.0688,0.0938,3.38,-32.06,16.88,40.46,-79.87,-162.29
10070,52.387844,-1.52556,140.82,10.78,4,276.79,21 / 21,1015429,2019-09-06 18:33:02:111,0.401,1.5325,9.2475,0.0185,0.0688,9.8063,0.033,-0.0013,-0.0541,3.0,-31.81,17.13,41.53,-80.22,-161.02
10071,52.387844,-1.52556,140.82,10.78,4,276.79,21 / 21,1015528,2019-09-06 18:33:02:210,0.3765,-1.2968,9.7288,0.0248,0.0603,9.8064,-0.0378,-0.0737,0.0365,3.75,-32.06,16.19,47.14,-81.42,-159.55
10072,52.387844,-1.52556,140.82,10.78,4,276.79,21 / 21,1015628,2019-09-06 18:33:02:310,-0.0493,1.6088,9.473,0.0366,0.0253,9.8065,0.1652,-0.026,-0.0405,3.56,-31.44,16.5,43.58,-81.79,-160.07
10073,52.387844,-1.52556,140.82,10.78,4,276.79,21 / 21,1015729,2019-09-06 18:33:02:411,-0.811,-1.8624,9.7834,-0.0072,-0.0465,9.8065,0.1091,0.0571,-0.073,3.25,-31.94,16.0,39.69,-81.41,-162.1
10074,52.387844,-1.52556,140.82,10.78,4,276.79,21 / 21,1015828,2019-09-06 18:33:02:510,0.0209,-2.7482,10.2528,-0.0102,-0.0452,9.8065,0.1107,-0.0138,-0.0098,3.63,-31.37,16.75,40.17,-81.08,-163.69
10075,52.387844,-1.52556,140.82,10.78,4,276.79,21 / 21,1015928,2019-09-06 18:33:02:610,-1.2018,0.5755,10.2332,0.0133,0.0172,9.8066,-0.1093,-0.1275,-0.0086,4.0,-32.0,16.75,39.98,-80.89,-164.42
10076,52.387844,-1.52556,140.82,10.78,4,276.79,21 / 21,1016028,2019-09-06 18:33:02:710,0.3929,-0.9188,9.9974,0.0173,0.0282,9.8066,0.0046,-0.0345,0.0675,3.75,-31.31,16.38,40.13,-81.21,-164.96
10077,52.387844,-1.52556,140.82,10.78,4,276.79,21 / 21,1016128,2019-09-06 18:33:02:810,0.4328,-0.4929,10.4528,0.02,0.0283,9.8066,-0.1525,0.0772,-0.0001,3.63,-32.0,16.63,38.48,-81.58,-164.71
10078,52.387844,-1.52556,140.82,10.78,4,276.79,21 / 21,1016228,2019-09-06 18:33:02:910,-0.2357,-1.5068,9.8605,0.0129,0.0115,9.8066,0.0661,-0.0007,-0.1212,3.88,-31.87,16.25,40.07,-81.49,-164.98
10079,52.387844,-1.52556,140.82,10.78,4,276.79,21 / 21,1016328,2019-09-06 18:33:03:010,-0.077,-1.1981,9.3559,-0.0242,-0.0304,9.8065,0.0171,0.0406,-0.0003,3.69,-31.69,16.69,38.92,-81.02,-165.07
10080,52.387844,-1.52556,140.82,10.78,4,276.79,21 / 21,1016428,2019-09-06 18:33:03:110,1.6691,-1.1497,9.479,-0.0056,-0.0315,9.8065,0.0098,0.1372,-0.1432,3.75,-32.06,16.44,41.2,-80.83,-165.02
10081,52.387844,-1.52556,140.82,10.78,4,276.79,21 / 21,1016529,2019-09-06 18:33:03:211,-0.9105,-0.2351,10.6688,0.0084,0.0421,9.8065,0.1057,0.0893,-0.0081,3.63,-32.25,17.19,39.14,-80.89,-165.06
10082,52.387844,-1.52556,140.82,10.78,4,276.79,21 / 21,1016628,2019-09-06 18:33:03:310,-0.6119,0.6333,9.0573,0.0288,0.0505,9.8064,0.0523,0.0377,-0.0198,4.31,-31.75,16.94,39.71,-81.27,-164.15
10083,52.387844,-1.52556,140.82,10.78,4,276.79,21 / 21,1016729,2019-09-06 18:33:03:411,-1.2267,-1.075,10.3594,0.0167,-0.0346,9.8065,0.0451,-0.0531,-0.0378,4.13,-31.56,16.5,37.37,-81.29,-165.92
10084,52.387844,-1.52556,140.82,10.78,4,276.79,21 / 21,1016829,2019-09-06 18:33:03:511,0.9758,-0.059,9.3229,0.0103,-0.0217,9.8065,-0.1374,-0.0628,0.0213,4.56,-31.62,16.5,38.97,-81.35,-167.62
10085,52.387844,-1.52556,140.82,10.78,4,276.79,21 / 21,1016928,2019-09-06 18:33:03:610,-2.0955,-1.4316,9.8745,0.0015,-0.0168,9.8066,-0.1621,0.0218,-0.1472,4.63,-31.69,16.88,36.27,-81.45,-169.6
10086,52.387844,-1.52556,140.82,10.78,4,276.79,21 / 21,1017028,2019-09-06 18:33:03:710,1.1287,-1.2791,10.0513,0.0269,-0.0017,9.8066,-0.0567,-0.0661,-0.0334,4.44,-31.5,16.19,31.22,-81.66,-171.23
10087,52.387844,-1.52556,140.82,10.78,4,276.79,21 / 21,1017128,2019-09-06 18:33:03:810,-1.177,0.334,10.612,0.0013,-0.0164,9.8066,0.0377,0.0939,-0.1392,4.63,-31.69,16.38,34.19,-81.72,-172.37
10088,52.387844,-1.52556,140.82,10.78,4,276.79,21 / 21,1017229,2019-09-06 18:33:03:911,0.5332,-1.763,10.1416,0.0238,-0.0228,9.8066,0.0643,-0.0256,-0.0088,4.88,-30.69,16.06,30.08,-81.62,-175.32
10089,52.387844,-1.52556,140.82,10.78,4,276.79,21 / 21,1017329,2019-09-06 18:33:04:011,-1.7405,-1.5467,10.0057,0.0182,-0.0135,9.8065,0.0074,-0.0361,-0.0127,4.81,-31.62,15.88,27.7,-81.61,-177.36
10090,52.387844,-1.52556,140.82,10.78,4,276.79,21 / 21,1017429,2019-09-06 18:33:04:111,0.4253,-0.0906,9.5351,0.0224,-0.0205,9.8065,-0.0374,-0.0179,0.0243,5.5,-30.5,16.06,29.76,-81.67,-178.33
10091,52.387844,-1.52556,140.82,10.78,4,276.79,21 / 21,1017528,2019-09-06 18:33:04:210,0.0497,-0.5732,8.742,0.0187,0.0041,9.8066,-0.1489,-0.0568,-0.0107,4.69,-31.12,16.0,23.12,-81.71,179.53
10092,52.387844,-1.52556,140.82,10.78,4,276.79,21 / 21,1017629,2019-09-06 18:33:04:311,1.4045,-0.4234,9.5763,-0.0166,-0.0215,9.8066,-0.2161,0.0877,-0.1674,5.0,-30.87,16.38,22.84,-81.81,179.39
10093,52.387844,-1.52556,140.82,10.78,4,276.79,21 / 21,1017728,2019-09-06 18:33:04:410,-1.2573,-2.0581,9.6242,0.0245,0.0077,9.8066,-0.0238,-0.0722,0.1285,4.5,-30.31,15.63,20.08,-82.2,177.77
10094,52.387844,-1.52556,140.82,10.78,4,276.79,21 / 21,1017829,2019-09-06 18:33:04:511,0.2609,-2.2257,9.1827,-0.014,0.0203,9.8066,-0.1035,-0.0911,-0.0272,4.19,-29.81,15.94,18.29,-82.52,179.85
10095,52.387844,-1.52556,140.82,10.78,4,276.79,21 / 21,1017929,2019-09-06 18:33:04:611,1.282,-0.0013,10.0662,-0.0052,0.0021,9.8066,0.0469,-0.0001,0.0115,4.31,-30.62,15.25,21.88,-82.46,-178.83
10096,52.387844,-1.52556,140.82,10.78,4,276.79,21 / 21,1018029,2019-09-06 18:33:04:711,-2.342,-1.3019,8.9189,-0.051,-0.0386,9.8064,-0.1666,0.0177,0.0985,4.06,-30.5,16.0,21.96,-82.45,-177.38
10097,52.387844,-1.52556,140.82,10.78,4,276.79,21 / 21,1018129,2019-09-06 18:33:04:811,0.8935,0.0757,10.4023,-0.0281,-0.018,9.8066,-0.2119,0.0194,0.0154,4.06,-30.19,15.94,25.76,-82.18,-174.67
10098,52.387844,-1.52556,140.82,10.78,4,276.79,21 / 21,1018230,2019-09-06 18:33:04:912,-1.5182,0.4958,10.8326,0.0174,0.0365,9.8065,0.0079,-0.1009,0.0381,4.38,-30.81,16.06,27.08,-82.51,-173.57
10099,52.387844,-1.52556,140.82,10.78,4,276.79,21 / 21,1018328,2019-09-06 18:33:05:010,0.5175,1.0975,9.9169,0.0179,-0.0005,9.8066,-0.0411,0.0186,-0.0668,4.31,-30.62,16.31,26.57,-82.43,-174.04
10100,52.387844,-1.52556,140.82,10.78,4,276.79,21 / 21,1018429,2019-09-06 18:33:05:111,-0.5592,0.1407,9.9873,0.0212,-0.0002,9.8066,0.1604,-0.0241,-0.0363,5.13,-30.81,16.75,25.83,-82.29,-176.64
10101,52.387844,-1.52556,140.82,10.78,4,276.79,21 / 21,1018528,2019-09-06 18:33:05:210,0.0062,-3.0471,10.4846,0.0362,0.0354,9.8065,0.2469,0.0831,-0.0695,5.38,-30.94,17.06,23.28,-82.23,-178.67
10102,52.387844,-1.52556,140.82,10.78,4,276.79,21 / 21,1018629,2019-09-06 18:33:05:311,-1.4629,-0.8705,9.9308,-0.0077,-0.0413,9.8065,-0.0499,-0.0712,0.092,5.88,-31.31,16.19,27.39,-82.2,-179.9
10103,52.387844,-1.52556,140.82,10.78,4,276.79,21 / 21,1018729,2019-09-06 18:33:05:411,1.6309,-0.3103,9.4132,-0.0176,-0.0137,9.8066,-0.1237,0.0235,-0.0979,5.44,-31.31,16.44,23.44,-82.09,-179.94
10104,52.387844,-1.52556,140.82,10.78,4,276.79,21 / 21,1018828,2019-09-06 18:33:05:510,-0.1848,0.8377,9.2736,-0.006,0.0426,9.8065,0.0554,0.0623,0.128,5.06,-30.62,16.06,25.51,-82.51,-178.0
10105,52.387844,-1.52556,140.82,10.78,4,276.79,21 / 21,1018928,2019-09-06 18:33:05:610,-0.5098,1.8712,10.1001,-0.0203,0.0197,9.8065,-0.143,0.0208,0.0759,5.06,-31.69,16.06,28.07,-82.49,-176.24
10106,52.387844,-1.52556,140.82,10.78,4,276.79,21 / 21,1019029,2019-09-06 18:33:05:711,1.3863,-1.43,9.4243,-0.0011,0.0162,9.8065,0.0473,-0.0779,0.0568,4.69,-31.0,16.06,29.85,-82.7,-174.44
10107,52.387844,-1.52556,140.82,10.78,4,276.79,21 / 21,1019128,2019-09-06 18:33:05:810,-3.1725,-0.2789,11.1881,-0.0064,0.015,9.8066,0.2181,-0.1586,0.0855,4.88,-31.06,16.13,32.23,-82.68,-172.57
10108,52.387844,-1.52556,140.82,10.78,4,276.79,21 / 21,1019229,2019-09-06 18:33:05:911,-1.8955,0.6257,10.5987,-0.0121,-0.061,9.8064,-0.101,-0.0902,0.036,4.81,-31.69,16.19,32.96,-82.49,-172.44
10109,52.387844,-1.52556,140.82,10.78,4,276.79,21 / 21,1019329,2019-09-06 18:33:06:011,-0.1789,0.3433,9.9127,-0.0075,-0.0152,9.8066,-0.0326,-0.0284,-0.0611,5.06,-31.69,15.63,31.34,-82.27,-173.95
10110,52.387924,-1.526766,142.04,9.61,4,278.0,21 / 21,1019430,2019-09-06 18:33:06:112,-1.5412,-0.8987,8.4316,0.0007,0.0085,9.8066,-0.1445,0.0121,0.075,4.19,-31.87,15.75,26.73,-82.5,-174.06
10111,52.387924,-1.526766,142.04,9.61,4,278.0,21 / 21,1019529,2019-09-06 18:33:06:211,0.2102,-0.1294,10.6751,0.0256,0.0354,9.8065,-0.1411,0.0232,0.0242,4.81,-31.44,16.06,31.28,-82.94,-173.07
10112,52.387924,-1.526766,142.04,9.61,4,278.0,21 / 21,1019628,2019-09-06 18:33:06:310,0.1268,0.7369,9.3196,-0.0049,0.0053,9.8066,0.0118,-0.0256,-0.0023,4.88,-32.0,15.69,30.75,-83.08,-173.55
10113,52.387924,-1.526766,142.04,9.61,4,278.0,21 / 21,1019729,2019-09-06 18:33:06:411,1.3774,0.4867,9.0484,-0.0012,-0.0104,9.8066,-0.0004,-0.1437,0.0305,4.5,-31.75,14.94,33.28,-83.04,-173.1
10114,52.387924,-1.526766,142.04,9.61,4,278.0,21 / 21,1019829,2019-09-06 18:33:06:511,-0.9877,-1.6685,10.4306,0.0146,0.0279,9.8065,0.0249,-0.0405,0.0307,4.81,-31.06,15.13,32.23,-83.2,-173.51
10115,52.387924,-1.526766,142.04,9.61,4,278.0,21 / 21,1019929,2019-09-06 18:33:06:611,-1.0857,1.3752,10.5619,-0.0205,-0.0105,9.8066,-0.0686,-0.0964,0.0665,4.38,-31.62,15.13,29.74,-83.17,-172.37
10116,52.387924,-1.526766,142.04,9.61,4,278.0,21 / 21,1020028,2019-09-06 18:33:06:710,0.513,-0.0597,9.2192,0.0016,0.0166,9.8066,-0.0091,-0.0424,0.012,4.5,-31.75,14.94,36.04,-83.41,-170.45
10117,52.387924,-1.526766,142.04,9.61,4,278.0,21 / 21,1020129,2019-09-06 18:33:06:811,0.0829,0.5448,9.9135,-0.0038,0.0103,9.8065,-0.0383,0.0072,0.0555,4.31,-32.0,15.19,33.17,-83.41,-169.39
10118,52.387924,-1.526766,142.04,9.61,4,278.0,21 / 21,1020229,2019-09-06 18:33:06:911,-0.4811,1.6599,10.2743,-0.0035,0.0047,9.8066,0.1447,0.05,0.0064,3.81,-31.69,15.06,34.57,-83.46,-168.21
10119,52.387924,-1.526766,142.04,9.61,4,278.0,21 / 21,1020329,2019-09-06 18:33:07:011,1.5162,1.596,9.7657,0.0082,0.0195,9.8066,0.0715,0.0076,0.0011,4.5,-31.56,14.13,41.21,-83.53,-167.85
10120,52.387924,-1.526766,142.04,9.61,4,278.0,21 / 21,1020429,2019-09-06 18:33:07:111,-0.7169,1.7204,9.8043,-0.0044,-0.0096,9.8066,-0.0495,-0.149,0.0559,4.13,-31.94,14.75,35.45,-83.47,-167.5
10121,52.387924,-1.526766,142.04,9.61,4,278.0,21 / 21,1020528,2019-09-06 18:33:07:210,1.2343,0.6565,9.0984,-0.0017,0.0015,9.8066,0.0226,-0.0777,0.0329,4.31,-31.94,14.06,38.32,-83.51,-166.69
10122,52.387924,-1.526766,142.04,9.61,4,278.0,21 / 21,1020629,2019-09-06 18:33:07:311,0.1781,0.8194,9.9348,0.0045,0.0213,9.8065,0.0368,-0.0008,-0.0053,4.31,-32.12,14.38,38.32,-83.62,-166.52
10123,52.387924,-1.526766,142.04,9.61,4,278.0,21 / 21,1020729,2019-09-06 18:33:07:411,0.4879,0.4669,9.6207,0.0122,0.0209,9.8066,0.0927,-0.0246,0.0237,3.94,-31.75,14.75,36.63,-83.82,-166.08
10124,52.387924,-1.526766,142.04,9.61,4,278.0,21 / 21,1020829,2019-09-06 18:33:07:511,-0.5324,-0.3744,9.5507,-0.0179,-0.0254,9.8066,-0.0925,0.0087,-0.0083,4.44,-32.0,13.81,39.37,-83.56,-165.78
10125,52.387924,-1.526766,142.04,9.61,4,278.0,21 / 21,1020929,2019-09-06 18:33:07:611,0.2679,0.8714,9.7645,-0.0144,-0.0171,9.8066,0.0294,-0.056,0.0611,4.31,-31.56,14.31,39.86,-83.59,-165.34
10126,52.387924,-1.526766,142.04,9.61,4,278.0,21 / 21,1021028,2019-09-06 18:33:07:710,0.4106,1.437,9.6467,0.0007,0.0204,9.8066,-0.0604,-0.0066,-0.0256,3.5,-31.94,14.63,38.62,-83.56,-164.8
10127,52.387924,-1.526766,142.04,9.61,4,278.0,21 / 21,1021129,2019-09-06 18:33:07:811,0.6765,0.5993,9.5516,0.0121,-0.0006,9.8066,-0.0906,-0.0034,-0.0121,4.31,-31.19,14.94,37.89,-83.7,-164.95
10128,52.387924,-1.526766,142.04,9.61,4,278.0,21 / 21,1021229,2019-09-06 18:33:07:911,0.9487,0.575,9.7704,0.0131,0.0232,9.8066,0.0811,0.0247,0.0092,4.56,-30.5,14.63,41.43,-83.86,-164.9
10129,52.387924,-1.526766,142.04,9.61,4,278.0,21 / 21,1021328,2019-09-06 18:33:08:010,-0.7894,1.31,10.398,0.0053,0.0255,9.8065,0.0951,-0.0215,0.0117,4.69,-29.87,14.63,41.8,-83.9,-164.54
10130,52.387924,-1.526766,142.04,9.61,4,278.0,21 / 21,1021428,2019-09-06 18:33:08:110,0.2745,0.9454,9.9265,-0.0056,-0.0253,9.8066,-0.033,0.0018,-0.0088,4.75,-29.94,14.13,43.47,-83.87,-164.9
10131,52.387924,-1.526766,142.04,9.61,4,278.0,21 / 21,1021529,2019-09-06 18:33:08:211,0.3626,1.5378,9.8332,-0.0104,-0.0268,9.8065,-0.0031,-0.0021,-0.0235,4.25,-30.44,14.69,36.31,-83.72,-165.99
10132,52.387924,-1.526766,142.04,9.61,4,278.0,21 / 21,1021629,2019-09-06 18:33:08:311,-0.5149,-0.0507,9.323,0.0144,0.0059,9.8066,-0.0015,-0.0056,0.0003,5.31,-30.5,13.56,42.22,-83.73,-166.14
10133,52.387924,-1.526766,142.04,9.61,4,278.0,21 / 21,1021729,2019-09-06 18:33:08:411,0.0206,1.1425,9.5735,-0.0007,0.0027,9.8066,-0.0487,-0.0404,0.0366,4.44,-31.12,13.31,40.12,-83.75,-166.39
10134,52.387924,-1.526766,142.04,9.61,4,278.0,21 / 21,1021829,2019-09-06 18:33:08:511,-0.2522,0.7599,9.5996,0.0022,0.0021,9.8066,0.0058,-0.0254,0.0218,4.06,-31.31,12.94,41.23,-83.76,-165.46
10135,52.387924,-1.526766,142.04,9.61,4,278.0,21 / 21,1021929,2019-09-06 18:33:08:611,0.2449,2.2951,10.1675,-0.0044,0.0047,9.8066,-0.0573,0.0124,-0.0323,3.75,-31.94,12.81,41.95,-83.86,-165.03
10136,52.387924,-1.526766,142.04,9.61,4,278.0,21 / 21,1022029,2019-09-06 18:33:08:711,-0.4914,0.1232,10.2815,-0.0083,-0.0244,9.8066,0.0237,-0.0165,0.0101,4.44,-31.75,12.56,41.22,-83.89,-165.56
10137,52.387924,-1.526766,142.04,9.61,4,278.0,21 / 21,1022129,2019-09-06 18:33:08:811,0.2176,0.2998,9.6961,-0.0162,-0.0204,9.8066,0.052,-0.0275,0.0338,3.94,-31.62,13.63,38.38,-83.68,-166.39
10138,52.387924,-1.526766,142.04,9.61,4,278.0,21 / 21,1022229,2019-09-06 18:33:08:911,0.079,1.4979,9.1093,0.0004,0.0037,9.8066,-0.0955,-0.0438,-0.0326,3.44,-31.75,13.75,35.34,-83.63,-165.19
10139,52.387924,-1.526766,142.04,9.61,4,278.0,21 / 21,1022329,2019-09-06 18:33:09:011,0.3728,0.6524,9.8052,0.0087,-0.0004,9.8065,-0.0899,0.0219,0.0084,4.19,-32.0,14.0,39.04,-83.77,-165.73
10140,52.387924,-1.526766,142.04,9.61,4,278.0,21 / 21,1022429,2019-09-06 18:33:09:111,0.412,1.2288,8.9599,-0.0032,0.0221,9.8066,-0.0301,-0.0157,-0.0214,4.25,-32.19,13.31,41.34,-84.19,-164.98
10141,52.387924,-1.526766,142.04,9.61,4,278.0,21 / 21,1022529,2019-09-06 18:33:09:211,0.2957,0.8249,9.9633,0.0062,0.0266,9.8065,-0.0346,-0.0505,0.018,3.31,-32.31,14.0,36.2,-84.34,-163.53
10142,52.387924,-1.526766,142.04,9.61,4,278.0,21 / 21,1022629,2019-09-06 18:33:09:311,-0.0632,0.4669,9.7474,0.0102,0.0058,9.8066,-0.0173,0.0393,-0.0231,3.88,-32.5,12.63,42.85,-84.51,-163.2
10143,52.387924,-1.526766,142.04,9.61,4,278.0,21 / 21,1022729,2019-09-06 18:33:09:411,0.0798,0.2344,10.0112,-0.0021,-0.0163,9.8066,0.0201,-0.04,0.0466,3.56,-32.62,13.56,39.61,-84.58,-164.32
10144,52.387924,-1.526766,142.04,9.61,4,278.0,21 / 21,1022828,2019-09-06 18:33:09:510,0.1267,0.5696,9.7332,-0.002,0.0063,9.8066,0.025,-0.0169,0.0039,3.94,-32.19,13.75,40.13,-84.54,-163.7
10145,52.387924,-1.526766,142.04,9.61,4,278.0,21 / 21,1022929,2019-09-06 18:33:09:611,0.3242,0.3108,9.7906,-0.0012,0.0081,9.8065,-0.0573,-0.0446,0.0038,3.81,-32.62,13.38,43.19,-84.54,-163.15
10146,52.387924,-1.526766,142.04,9.61,4,278.0,21 / 21,1023028,2019-09-06 18:33:09:710,-0.0242,0.3891,9.9439,0.0052,0.0044,9.8066,-0.0671,-0.0134,-0.0228,3.69,-32.44,12.88,42.96,-84.67,-162.85
10147,52.387924,-1.526766,142.04,9.61,4,278.0,21 / 21,1023129,2019-09-06 18:33:09:811,0.5188,0.6961,9.7501,0.011,0.0043,9.8066,-0.0109,0.0138,-0.0171,4.19,-31.94,13.5,40.21,-84.84,-163.19
10148,52.387924,-1.526766,142.04,9.61,4,278.0,21 / 21,1023229,2019-09-06 18:33:09:911,1.1881,-0.1479,9.8993,0.0049,0.002,9.8066,0.015,0.0077,0.0372,3.81,-32.62,13.13,41.89,-84.97,-163.5
10149,52.387924,-1.526766,142.04,9.61,4,278.0,21 / 21,1023328,2019-09-06 18:33:10:010,0.732,0.3641,9.6186,-0.0079,0.0006,9.8066,0.0596,-0.003,0.0482,3.75,-31.44,13.06,42.41,-84.99,-162.53
10150,52.387924,-1.526766,142.04,9.61,4,278.0,21 / 21,1023428,2019-09-06 18:33:10:110,0.5293,0.7103,9.422,-0.0074,0.0051,9.8066,-0.0406,0.0383,-0.0101,4.31,-32.12,12.81,46.08,-84.85,-159.91
10151,52.387924,-1.526766,142.04,9.61,4,278.0,21 / 21,1023529,2019-09-06 18:33:10:211,0.5831,-0.3159,9.2914,-0.0054,0.0029,9.8066,0.0534,0.0189,0.0557,3.69,-31.56,13.25,46.64,-84.83,-159.46
10152,52.387924,-1.526766,142.04,9.61,4,278.0,21 / 21,1023628,2019-09-06 18:33:10:310,0.8135,0.128,10.162,-0.0118,0.0306,9.8066,0.0397,-0.0334,0.0884,3.0,-32.19,13.81,42.62,-84.78,-157.52
10153,52.387924,-1.526766,142.04,9.61,4,278.0,21 / 21,1023728,2019-09-06 18:33:10:410,0.3704,0.8196,9.986,-0.0226,0.0215,9.8065,-0.0039,-0.0173,0.0427,3.06,-31.75,12.75,50.71,-84.72,-152.27
10154,52.387924,-1.526766,142.04,9.61,4,278.0,21 / 21,1023828,2019-09-06 18:33:10:510,0.1877,0.886,10.2934,-0.0219,-0.0065,9.8065,0.0761,-0.032,0.0649,2.88,-32.75,12.94,54.71,-84.46,-149.68
10155,52.387924,-1.526766,142.04,9.61,4,278.0,21 / 21,1023928,2019-09-06 18:33:10:610,-0.2874,0.8974,10.287,-0.0128,-0.0118,9.8066,0.0194,-0.0584,0.0437,2.81,-33.25,13.06,55.77,-84.26,-149.19
10156,52.387924,-1.526766,142.04,9.61,4,278.0,21 / 21,1024028,2019-09-06 18:33:10:710,0.8911,0.3443,10.038,-0.0119,0.0074,9.8065,0.0835,0.0745,0.0023,2.69,-33.0,13.5,55.03,-84.11,-148.42
10157,52.387924,-1.526766,142.04,9.61,4,278.0,21 / 21,1024128,2019-09-06 18:33:10:810,0.4495,0.5651,10.3419,0.0025,0.0219,9.8066,0.1313,-0.0132,0.0195,3.06,-32.94,12.81,57.94,-84.06,-147.77
10158,52.387924,-1.526766,142.04,9.61,4,278.0,21 / 21,1024229,2019-09-06 18:33:10:911,0.0668,1.5526,10.0086,-0.0114,-0.0223,9.8066,-0.0058,0.0179,0.0256,2.44,-32.5,13.25,54.06,-83.83,-147.11
10159,52.387924,-1.526766,142.04,9.61,4,278.0,21 / 21,1024328,2019-09-06 18:33:11:010,-0.3656,1.7849,10.065,-0.0059,0.0028,9.8065,0.1027,0.0656,-0.0718,3.19,-32.56,13.56,57.41,-83.71,-147.17
10160,52.387924,-1.526766,142.04,9.61,4,278.0,21 / 21,1024429,2019-09-06 18:33:11:111,0.8412,-0.3207,9.4965,0.0579,0.0021,9.8064,0.1327,-0.1054,0.1023,3.19,-31.69,13.44,53.6,-83.99,-151.25
10161,52.387924,-1.526766,142.04,9.61,4,278.0,21 / 21,1024529,2019-09-06 18:33:11:211,-1.9128,1.582,9.086,-0.0084,0.0002,9.8066,-0.1176,0.0405,-0.0216,3.13,-32.31,13.81,51.69,-83.91,-151.32
10162,52.387924,-1.526766,142.04,9.61,4,278.0,21 / 21,1024628,2019-09-06 18:33:11:310,0.148,5.2175,12.9308,-0.0418,-0.0541,9.8064,-0.0234,-0.0298,0.0055,3.94,-31.87,13.69,56.6,-83.82,-150.93
10163,52.387924,-1.526766,142.04,9.61,4,278.0,21 / 21,1024729,2019-09-06 18:33:11:411,5.388,-0.1395,12.333,-0.0934,-0.1615,9.8048,-0.1449,0.3863,-0.3431,3.88,-31.62,14.13,54.2,-82.87,-154.81
10164,52.387924,-1.526766,142.04,9.61,4,278.0,21 / 21,1024829,2019-09-06 18:33:11:511,-2.0365,-1.1278,7.277,-0.0322,-0.098,9.806,-0.0067,0.1097,-0.1165,4.13,-31.75,14.5,45.29,-82.44,-161.05
10165,52.387924,-1.526766,142.04,9.61,4,278.0,21 / 21,1024928,2019-09-06 18:33:11:610,-0.6317,-0.8365,8.4522,-0.0373,-0.0954,9.806,0.039,0.1284,-0.0249,4.0,-31.44,16.0,38.66,-81.04,-166.3
10166,52.387924,-1.526766,142.04,9.61,4,278.0,21 / 21,1025029,2019-09-06 18:33:11:711,-1.7223,-0.5668,8.2578,0.0279,0.1454,9.8055,-0.3468,0.0311,0.0481,3.69,-31.69,14.69,45.15,-81.96,-161.93
10167,52.387924,-1.526766,142.04,9.61,4,278.0,21 / 21,1025128,2019-09-06 18:33:11:810,-0.0154,2.4126,9.8156,0.0546,0.1589,9.8052,-0.4501,0.0687,-0.1249,3.63,-32.06,13.0,55.16,-83.57,-154.65
10168,52.387924,-1.526766,142.04,9.61,4,278.0,21 / 21,1025228,2019-09-06 18:33:11:910,1.979,1.8087,11.5605,0.0868,0.0618,9.8061,-0.0522,-0.0204,-0.053,4.06,-31.12,11.56,57.6,-85.74,-149.75
10169,52.387924,-1.526766,142.04,9.61,4,278.0,21 / 21,1025329,2019-09-06 18:33:12:011,1.8132,0.6247,9.0901,0.0231,0.0258,9.8065,0.2591,-0.0452,0.0701,3.5,-32.31,11.5,56.4,-85.88,-150.83
10170,52.387924,-1.526766,142.04,9.61,4,278.0,21 / 21,1025429,2019-09-06 18:33:12:111,0.9344,-1.3728,6.5833,-0.0114,0.0322,9.8065,0.099,-0.0713,0.0714,3.63,-32.12,11.69,56.6,-85.35,-151.8
10171,52.387924,-1.526766,142.04,9.61,4,278.0,21 / 21,1025528,2019-09-06 18:33:12:210,-0.5676,1.1964,12.1029,0.0016,0.034,9.8066,-0.0419,-0.0272,-0.0517,3.0,-32.5,11.38,57.92,-84.98,-149.47
10172,52.387924,-1.526766,142.04,9.61,4,278.0,21 / 21,1025629,2019-09-06 18:33:12:311,1.79,2.6712,14.6049,0.0446,-0.0107,9.8064,0.0334,-0.0082,-0.1572,3.94,-32.06,11.0,58.23,-85.71,-151.86
10173,52.387924,-1.526766,142.04,9.61,4,278.0,21 / 21,1025729,2019-09-06 18:33:12:411,2.0969,1.1956,10.909,0.0264,0.0161,9.8066,0.0639,-0.0582,-0.0147,3.63,-32.19,11.31,53.25,-85.95,-155.72
10174,52.387924,-1.526766,142.04,9.61,4,278.0,21 / 21,1025828,2019-09-06 18:33:12:510,-0.5493,2.3879,11.5851,-0.1018,-0.1341,9.8051,0.3433,0.011,0.0335,3.88,-33.19,12.75,44.39,-85.01,-161.32
10175,52.387924,-1.526766,142.04,9.61,4,278.0,21 / 21,1025929,2019-09-06 18:33:12:611,-5.6426,-0.1952,8.6022,0.0294,0.0236,9.8065,0.5601,0.3574,-0.1415,3.13,-32.75,14.56,37.02,-82.87,-163.8
10176,52.387924,-1.526766,142.04,9.61,4,278.0,21 / 21,1026029,2019-09-06 18:33:12:711,-1.9152,-1.6309,10.0286,0.0395,0.0564,9.8064,-0.1263,-0.1053,0.2187,3.38,-32.5,15.31,38.78,-82.19,-163.08
10177,52.387924,-1.526766,142.04,9.61,4,278.0,21 / 21,1026129,2019-09-06 18:33:12:811,1.8899,-1.1494,9.6406,0.0779,0.1543,9.8051,-0.0674,0.0524,-0.0122,3.31,-33.06,13.88,39.92,-83.16,-162.55
10178,52.387924,-1.526766,142.04,9.61,4,278.0,21 / 21,1026229,2019-09-06 18:33:12:911,5.0147,-4.9871,9.8365,0.0128,-0.0196,9.8066,-0.0161,0.4539,-0.2835,3.31,-32.94,13.75,41.34,-83.7,-160.57
10179,52.387924,-1.526766,142.04,9.61,4,278.0,21 / 21,1026329,2019-09-06 18:33:13:011,-2.7907,0.3636,10.034,-0.0092,-0.0433,9.8065,-0.1043,0.1464,-0.0494,3.13,-32.75,13.38,48.25,-83.8,-156.45
10180,52.387924,-1.526766,142.04,9.61,4,278.0,21 / 21,1026428,2019-09-06 18:33:13:110,-0.1339,0.4915,10.2204,0.0016,-0.0129,9.8066,0.0156,-0.0543,-0.0405,3.38,-32.94,13.88,45.25,-83.61,-157.56
10181,52.387924,-1.526766,142.04,9.61,4,278.0,21 / 21,1026529,2019-09-06 18:33:13:211,-0.5774,-1.4643,10.0556,-0.0149,-0.0136,9.8066,0.0528,-0.0713,0.0471,3.69,-32.37,13.88,47.94,-83.17,-159.44
10182,52.387924,-1.526766,142.04,9.61,4,278.0,21 / 21,1026628,2019-09-06 18:33:13:310,-0.5827,-1.2964,9.6878,0.0011,0.0183,9.8066,0.0207,0.0397,0.0575,3.0,-32.69,14.06,44.35,-83.12,-159.12
10183,52.387924,-1.526766,142.04,9.61,4,278.0,21 / 21,1026729,2019-09-06 18:33:13:411,-0.9426,-2.4043,10.4697,0.0058,0.0124,9.8066,-0.0161,0.0003,-0.0135,3.31,-32.87,14.25,44.9,-83.2,-158.54
10184,52.387924,-1.526766,142.04,9.61,4,278.0,21 / 21,1026829,2019-09-06 18:33:13:511,-0.1864,-0.3642,9.42,-0.003,-0.022,9.8066,-0.0176,-0.0454,-0.0305,3.38,-32.5,14.19,43.98,-83.19,-158.95
10185,52.387924,-1.526766,142.04,9.61,4,278.0,21 / 21,1026930,2019-09-06 18:33:13:612,-0.0752,-0.4826,9.47,0.0066,-0.0253,9.8066,0.0114,-0.0058,-0.0137,3.19,-32.37,14.06,42.48,-83.24,-160.07
10186,52.387924,-1.526766,142.04,9.61,4,278.0,21 / 21,1027028,2019-09-06 18:33:13:710,0.1889,-0.4035,10.2226,0.0082,0.0121,9.8066,-0.0005,0.0406,-0.0117,3.94,-32.31,14.38,46.54,-83.12,-160.67
10187,52.387924,-1.526766,142.04,9.61,4,278.0,21 / 21,1027129,2019-09-06 18:33:13:811,-0.8243,-0.9523,10.0882,0.0048,-0.0089,9.8066,-0.0085,-0.0242,-0.0008,3.5,-32.06,14.75,43.94,-83.17,-161.02
10188,52.387924,-1.526766,142.04,9.61,4,278.0,21 / 21,1027229,2019-09-06 18:33:13:911,0.0715,0.477,10.251,0.0129,0.0217,9.8066,0.0201,-0.002,-0.0411,3.06,-32.87,14.5,38.82,-83.33,-161.73
10189,52.387924,-1.526766,142.04,9.61,4,278.0,21 / 21,1027328,2019-09-06 18:33:14:010,0.8666,0.7322,10.1884,0.0131,0.0181,9.8066,0.1177,-0.0312,0.0463,3.88,-32.06,14.63,42.33,-83.38,-162.03
10190,52.387924,-1.526766,142.04,9.61,4,278.0,21 / 21,1027428,2019-09-06 18:33:14:110,-0.9844,0.42,10.015,0.006,-0.001,9.8066,0.011,-0.0452,-0.0446,3.63,-32.62,13.81,43.52,-83.42,-162.95
10191,52.387924,-1.526766,142.04,9.61,4,278.0,21 / 21,1027529,2019-09-06 18:33:14:211,0.4036,0.8778,10.3469,-0.0163,0.007,9.8066,0.0733,-0.0173,0.0441,4.25,-31.87,13.69,44.96,-83.37,-161.53
10192,52.387924,-1.526766,142.04,9.61,4,278.0,21 / 21,1027628,2019-09-06 18:33:14:310,-0.1327,0.4447,10.1797,-0.0098,-0.0283,9.8065,0.0823,-0.0285,0.0266,3.69,-31.94,14.31,44.98,-83.37,-161.53
10193,52.387924,-1.526766,142.04,9.61,4,278.0,21 / 21,1027729,2019-09-06 18:33:14:411,0.0148,-0.0407,9.5734,-0.0113,-0.0257,9.8065,-0.0116,-0.0246,-0.0145,3.63,-32.87,14.06,44.73,-83.22,-162.31
10194,52.387924,-1.526766,142.04,9.61,4,278.0,21 / 21,1027829,2019-09-06 18:33:14:511,-0.1941,0.7769,9.8145,-0.0095,0.0165,9.8066,-0.0211,-0.0435,0.0561,3.31,-31.87,14.13,42.05,-83.16,-160.55
10195,52.387924,-1.526766,142.04,9.61,4,278.0,21 / 21,1027929,2019-09-06 18:33:14:611,0.032,0.5675,9.6127,0.0045,0.0208,9.8066,-0.0024,-0.0356,0.0125,3.69,-32.5,14.0,47.49,-83.19,-159.77
10196,52.387924,-1.526766,142.04,9.61,4,278.0,21 / 21,1028029,2019-09-06 18:33:14:711,-0.1804,-0.1005,9.7637,-0.0038,0.0015,9.8066,-0.0141,-0.065,0.032,4.13,-32.12,13.81,48.52,-83.21,-158.9
10197,52.387924,-1.526766,142.04,9.61,4,278.0,21 / 21,1028129,2019-09-06 18:33:14:811,-0.2747,0.5069,10.0083,-0.0146,0.0044,9.8066,0.016,-0.0332,0.0593,3.81,-32.5,13.69,50.02,-83.19,-157.7
10198,52.387924,-1.526766,142.04,9.61,4,278.0,21 / 21,1028229,2019-09-06 18:33:14:911,0.1283,0.1698,9.8477,-0.0016,0.0071,9.8066,-0.0008,-0.0008,0.0188,3.44,-31.94,13.19,49.01,-83.12,-156.76
10199,52.387924,-1.526766,142.04,9.61,4,278.0,21 / 21,1028328,2019-09-06 18:33:15:010,0.1541,0.2077,9.9512,-0.0032,0.0111,9.8066,0.0523,0.0031,-0.0084,4.13,-32.37,13.69,52.43,-83.09,-155.87
10200,52.388023,-1.527928,143.24,7.6,4,281.64,21 / 21,1028429,2019-09-06 18:33:15:111,0.1736,0.298,9.7436,0.0058,0.0054,9.8066,0.0543,-0.0232,0.0095,4.94,-32.69,12.94,60.34,-83.09,-155.3
10201,52.388023,-1.527928,143.24,7.6,4,281.64,21 / 21,1028529,2019-09-06 18:33:15:211,0.3558,1.0799,9.9961,-0.006,0.001,9.8066,-0.0774,-0.0445,0.037,4.13,-32.0,14.44,53.66,-83.14,-154.75
10202,52.388023,-1.527928,143.24,7.6,4,281.64,21 / 21,1028628,2019-09-06 18:33:15:310,0.8227,1.1745,9.7592,0.0051,0.0136,9.8065,-0.055,-0.0062,-0.006,4.81,-31.62,14.25,58.14,-83.18,-154.3
10203,52.388023,-1.527928,143.24,7.6,4,281.64,21 / 21,1028729,2019-09-06 18:33:15:411,0.9028,0.9758,9.3632,0.0184,0.026,9.8066,0.1194,-0.0284,0.0408,3.5,-31.19,14.13,54.03,-83.35,-153.67
10204,52.388023,-1.527928,143.24,7.6,4,281.64,21 / 21,1028829,2019-09-06 18:33:15:511,-0.1579,-1.3676,9.2979,-0.0238,-0.0142,9.8065,0.1327,-0.0254,0.0455,2.88,-31.94,13.38,53.92,-83.1,-152.81
10205,52.388023,-1.527928,143.24,7.6,4,281.64,21 / 21,1028928,2019-09-06 18:33:15:610,0.4322,1.5346,11.1339,-0.0328,0.0053,9.8065,0.0526,0.0882,-0.0249,3.56,-31.44,13.0,61.3,-83.05,-150.06
10206,52.388023,-1.527928,143.24,7.6,4,281.64,21 / 21,1029028,2019-09-06 18:33:15:710,1.2169,2.6784,12.2985,-0.0021,0.0361,9.8066,-0.1063,-0.0984,0.0604,2.81,-31.81,12.81,61.77,-82.83,-146.8
10207,52.388023,-1.527928,143.24,7.6,4,281.64,21 / 21,1029128,2019-09-06 18:33:15:810,-1.2788,-0.9285,10.2612,0.0084,0.0536,9.8065,0.3238,-0.0158,0.065,2.88,-31.81,13.44,62.41,-82.41,-147.2
10208,52.388023,-1.527928,143.24,7.6,4,281.64,21 / 21,1029229,2019-09-06 18:33:15:911,-2.5979,0.4233,9.1686,-0.0306,-0.0513,9.8064,0.2118,-0.1448,0.0006,2.13,-32.62,14.25,56.6,-82.02,-147.59
10209,52.388023,-1.527928,143.24,7.6,4,281.64,21 / 21,1029329,2019-09-06 18:33:16:011,0.8666,-2.557,5.7172,0.0254,0.0181,9.8065,-0.4691,-0.2327,0.169,2.81,-32.94,12.69,61.94,-81.92,-149.3
10210,52.388023,-1.527928,143.24,7.6,4,281.64,21 / 21,1029429,2019-09-06 18:33:16:111,0.2436,1.2879,9.4467,0.0356,0.0986,9.806,-0.3958,0.0127,-0.0659,1.25,-33.06,11.5,59.96,-83.36,-140.98
10211,52.388023,-1.527928,143.24,7.6,4,281.64,21 / 21,1029529,2019-09-06 18:33:16:211,0.1277,2.8566,12.9358,0.0079,0.0613,9.8064,-0.1381,-0.1221,-0.0281,2.69,-32.69,10.75,81.2,-84.02,-131.52
10212,52.388023,-1.527928,143.24,7.6,4,281.64,21 / 21,1029629,2019-09-06 18:33:16:311,0.9648,1.0315,12.5618,0.0185,-0.0535,9.8064,0.0976,0.0224,-0.1869,2.63,-31.87,11.19,79.11,-84.59,-131.32
10213,52.388023,-1.527928,143.24,7.6,4,281.64,21 / 21,1029729,2019-09-06 18:33:16:411,-0.54,0.0153,9.7524,-0.0329,-0.1178,9.8058,0.2985,-0.0292,0.0256,2.69,-32.44,11.88,68.04,-84.09,-140.46
