,GPS LATITUDE (degrees), GPS LONGITUDE (degrees), GPS ALTITUDE (m), GPS SPEED (Kmh), GPS ACCURACY (m), GPS ORIENTATION (Â°),GPS SATELLITES IN RANGE, TIME SINCE START (ms), DATE (YYYY-MO-DD HH-MI-SS_SSS), ACCELEROMETER X (m/s²) , ACCELEROMETER Y (m/s²), ACCELEROMETER Z (m/s²), GRAVITY X (m/s²), GRAVITY Y (m/s²), GRAVITY Z (m/s²), GYROSCOPE Yaw (rad/s), GYROSCOPE Pitch (rad/s), GYROSCOPE Roll (rad/s), MAGNETIC FIELD X (Î¼T), MAGNETIC FIELD Y (Î¼T), MAGNETIC FIELD Z (Î¼T), ORIENTATION (Yaw) (Â°), ORIENTATION (Pitch) (Â°), ORIENTATION (Roll ) (Â°)
1582,48.86447,2.306368,91.43,7.55,8,88.17,Dec-16,169106,2020-01-04 11:55:29:535,-0.9886,-0.9103,9.2137,0.0368,0.0147,9.8065,0.0301,0.0695,-0.0006,-69.06,-93.31,76.81,148.93,-11.26,3.28
1583,48.86447,2.306368,91.43,7.55,8,88.17,Dec-16,169205,2020-01-04 11:55:29:634,3.9577,2.8849,11.3314,-0.0323,0.0056,9.8066,-0.0131,-0.0661,-0.1308,-63.5,-92.37,74.31,150.88,-11.2,3.29
1584,48.86447,2.306368,91.43,7.55,8,88.17,Dec-16,169305,2020-01-04 11:55:29:734,-1.0998,-0.4179,12.8558,-0.0439,0.013,9.8065,-0.0649,-0.0833,-0.0325,-69.44,-93.19,76.88,148.7,-11.19,2.94
1585,48.86447,2.306368,91.43,7.55,8,88.17,Dec-16,169405,2020-01-04 11:55:29:834,2.0353,0.1739,9.128,0.0216,0.0395,9.8064,-0.0526,-0.078,0.0012,-64.06,-92.06,74.0,149.99,-10.74,2.66
1586,48.86447,2.306368,91.43,7.55,8,88.17,Dec-16,169505,2020-01-04 11:55:29:934,-1.2565,-0.2373,9.783,-0.0273,-0.0051,9.8066,0.0528,-0.0678,-0.0127,-67.94,-92.75,75.94,148.5,-10.63,2.3
1587,48.86447,2.306368,91.43,7.55,8,88.17,Dec-16,169605,2020-01-04 11:55:30:034,0.8961,-1.4163,10.4414,0.0027,-0.0161,9.8066,-0.0269,-0.0068,0.0539,-67.19,-92.69,76.81,148.96,-10.87,2.21
1588,48.86447,2.306368,91.43,7.55,8,88.17,Nov-16,169706,2020-01-04 11:55:30:135,0.1486,-0.2703,11.4794,-0.0024,0.0005,9.8066,0.0372,-0.046,-0.0137,-65.37,-92.12,75.25,149.38,-10.91,2.16
1589,48.86447,2.306368,91.43,7.55,8,88.17,Nov-16,169805,2020-01-04 11:55:30:234,-1.0453,-0.0959,10.8023,0.0237,0.0209,9.8065,-0.0099,0.0433,-0.0079,-68.5,-92.94,76.75,148.64,-10.94,2.3
1590,48.86447,2.306368,91.43,7.55,8,88.17,Nov-16,169905,2020-01-04 11:55:30:334,0.9509,0.6873,7.4817,-0.0052,-0.0033,9.8066,-0.0613,0.0845,0.0018,-64.19,-92.44,73.38,149.64,-10.84,2.15
1591,48.86447,2.306368,91.43,7.55,8,88.17,Nov-16,170006,2020-01-04 11:55:30:435,0.1961,-0.9586,9.0114,0.0061,0.0133,9.8066,-0.0151,-0.0097,-0.0162,-68.69,-93.0,75.94,148.08,-10.67,2.22
1592,48.86447,2.306368,91.43,7.55,8,88.17,Nov-16,170106,2020-01-04 11:55:30:535,1.087,0.4019,10.0167,-0.0425,-0.0291,9.8065,0.0008,-0.0138,0.0249,-66.19,-91.56,76.19,148.7,-10.51,1.74
1593,48.86447,2.306368,91.43,7.55,8,88.17,Nov-16,170205,2020-01-04 11:55:30:634,0.1379,-0.987,10.3522,0.0305,-0.028,9.8065,0.0111,0.0423,-0.0132,-65.12,-92.12,74.31,149.05,-10.84,1.71
1594,48.86447,2.306368,91.43,7.55,8,88.17,Nov-16,170306,2020-01-04 11:55:30:735,0.5573,-0.936,12.0851,-0.0227,-0.0289,9.8065,0.0342,-0.0401,-0.0459,-68.56,-92.94,76.56,148.03,-11.04,1.88
1595,48.86447,2.306368,91.43,7.55,8,88.17,Nov-16,170405,2020-01-04 11:55:30:834,-1.3399,-2.6919,12.8665,-0.0241,-0.0056,9.8065,-0.0194,-0.0269,0.0097,-63.87,-92.44,74.5,149.45,-11.13,1.51
1596,48.86447,2.306368,91.43,7.55,8,88.17,Nov-16,170506,2020-01-04 11:55:30:935,0.5092,-0.8657,8.1875,0.0011,0.0375,9.8065,-0.1727,-0.0337,0.0256,-69.44,-93.62,76.25,147.91,-10.6,1.55
1597,48.86447,2.306368,91.43,7.55,8,88.17,Nov-16,170606,2020-01-04 11:55:31:035,-0.3276,0.3347,10.172,-0.0087,0.0586,9.8064,-0.1306,-0.1218,0.0248,-65.37,-91.94,74.44,148.76,-9.94,1.61
1598,48.86447,2.306368,91.43,7.55,8,88.17,Nov-18,170706,2020-01-04 11:55:31:135,-1.1744,-0.9806,7.5712,0.0513,-0.0301,9.8064,0.148,-0.0715,0.0026,-66.44,-91.62,75.88,148.43,-10.03,1.51
1599,48.86447,2.306368,91.43,7.55,8,88.17,Nov-18,170805,2020-01-04 11:55:31:234,1.5896,0.4128,6.9175,0.0318,-0.0932,9.8061,0.1622,0.3662,-0.0536,-70.31,-92.56,77.81,147.52,-11.21,1.5
1600,48.86447,2.306368,91.43,7.55,8,88.17,Nov-18,170905,2020-01-04 11:55:31:334,0.8457,1.1084,17.038,0.0585,0.0263,9.8063,-0.0839,-0.1072,-0.0902,-64.12,-92.62,74.13,149.99,-11.51,1.98
1601,48.86447,2.306368,91.43,7.55,8,88.17,Nov-18,171005,2020-01-04 11:55:31:434,0.7181,-1.001,8.4675,0.0162,0.0539,9.8064,-0.0751,-0.0953,-0.0156,-69.19,-93.06,76.38,148.0,-11.09,1.9
1602,48.86447,2.306368,91.43,7.55,8,88.17,Nov-18,171105,2020-01-04 11:55:31:534,-0.4928,-1.2537,8.5994,0.0214,0.0412,9.8065,-0.0723,-0.0237,-0.0121,-63.94,-92.56,74.0,149.66,-10.77,1.7
1603,48.86447,2.306368,91.43,7.55,8,88.17,Nov-18,171205,2020-01-04 11:55:31:634,-0.9216,-0.136,12.3227,-0.0108,-0.0032,9.8066,-0.0138,-0.0102,-0.0082,-66.25,-92.31,74.94,148.73,-10.41,1.94
1604,48.86447,2.306368,91.43,7.55,8,88.17,Nov-18,171305,2020-01-04 11:55:31:734,-0.3362,-1.2458,10.511,0.036,-0.0305,9.8065,0.0058,-0.0339,0.0238,-67.81,-92.44,76.19,147.8,-10.42,1.6
1605,48.86447,2.306368,91.43,7.55,8,88.17,Nov-18,171406,2020-01-04 11:55:31:835,0.2916,-1.3967,8.6855,-0.0151,-0.0028,9.8066,-0.0617,-0.0856,0.0369,-64.06,-91.5,73.81,149.06,-10.59,1.57
1606,48.86447,2.306368,91.43,7.55,8,88.17,Nov-18,171506,2020-01-04 11:55:31:935,1.562,0.0784,8.7618,-0.0139,0.0143,9.8066,-0.0889,-0.0003,0.0161,-67.0,-92.25,75.06,147.85,-10.16,1.22
1607,48.86447,2.306368,91.43,7.55,8,88.17,Nov-18,171605,2020-01-04 11:55:32:034,2.106,0.9684,8.5917,-0.045,0.0102,9.8065,-0.0527,-0.2241,0.0602,-66.25,-92.19,75.31,147.99,-9.78,0.95
1608,48.86447,2.306368,91.43,7.55,8,88.17,Nov-15,171705,2020-01-04 11:55:32:134,0.9718,0.605,11.6298,0.0163,0.0221,9.8066,0.0651,0.026,-0.0318,-64.69,-91.87,74.56,148.39,-9.84,0.91
1609,48.86447,2.306368,91.43,7.55,8,88.17,Nov-15,171806,2020-01-04 11:55:32:235,1.3703,0.0677,9.648,0.0144,-0.0106,9.8066,0.0104,0.0872,-0.0009,-68.75,-92.25,76.88,147.04,-10.21,0.97
1610,48.86447,2.306368,91.43,7.55,8,88.17,Nov-15,171905,2020-01-04 11:55:32:334,-0.22,-0.6642,9.3773,-0.0548,0.0,9.8065,-0.1363,0.173,-0.0896,-63.0,-91.37,74.13,148.78,-9.77,0.73
1611,48.86447,2.306368,91.43,7.55,8,88.17,Nov-15,172006,2020-01-04 11:55:32:435,0.3435,-0.1188,7.7843,0.0504,0.0455,9.8063,-0.015,0.1676,-0.033,-66.94,-92.5,75.63,147.35,-9.32,0.65
1612,48.86447,2.306368,91.43,7.55,8,88.17,Nov-15,172105,2020-01-04 11:55:32:534,-0.3613,-1.0063,12.0874,-0.0338,0.0157,9.8066,0.1019,-0.1603,0.0886,-67.75,-93.12,77.31,147.44,-8.97,1.13
1613,48.86447,2.306368,91.43,7.55,8,88.17,Nov-15,172206,2020-01-04 11:55:32:635,-0.468,-1.4393,8.9595,-0.0425,-0.0376,9.8065,0.0157,-0.0259,0.0068,-62.19,-91.69,73.44,149.27,-9.23,0.77
1614,48.86447,2.306368,91.43,7.55,8,88.17,Nov-15,172306,2020-01-04 11:55:32:735,-0.2981,0.4682,7.1771,0.018,-0.0018,9.8066,0.078,-0.1554,0.0045,-68.62,-92.87,77.13,146.9,-9.44,0.65
1615,48.86447,2.306368,91.43,7.55,8,88.17,Nov-15,172406,2020-01-04 11:55:32:835,1.6235,-0.5917,8.6528,0.0106,0.0036,9.8066,-0.0289,0.0393,0.0221,-66.37,-92.19,76.31,147.72,-9.63,0.47
1616,48.86447,2.306368,91.43,7.55,8,88.17,Nov-15,172505,2020-01-04 11:55:32:934,1.0652,1.1502,8.7643,-0.0407,-0.0157,9.8065,-0.0407,-0.0056,0.0156,-63.81,-91.81,73.69,148.29,-9.5,0.27
1617,48.86447,2.306368,91.43,7.55,8,88.17,Nov-15,172605,2020-01-04 11:55:33:034,-0.1468,-0.8287,10.0109,-0.0228,0.009,9.8066,-0.0598,-0.0602,0.0317,-68.5,-92.12,77.44,146.71,-9.31,0.14
1618,48.864464,2.307655,92.29,11.85,8,92.56,Nov-15,172705,2020-01-04 11:55:33:134,0.7267,-0.5783,9.3482,0.0436,0.0208,9.8064,-0.0069,0.0272,-0.0054,-63.37,-91.37,73.69,148.59,-9.45,0.55
1619,48.864464,2.307655,92.29,11.85,8,92.56,Nov-15,172806,2020-01-04 11:55:33:235,-0.3603,-0.5791,12.1041,0.0318,0.0201,9.8065,-0.0671,0.1028,-0.0229,-66.37,-92.56,74.88,148.17,-9.56,0.94
1620,48.864464,2.307655,92.29,11.85,8,92.56,Nov-15,172905,2020-01-04 11:55:33:334,1.8366,0.7079,9.6669,0.0491,-0.0216,9.8065,-0.0314,-0.2286,0.0582,-65.75,-91.87,76.13,148.11,-9.88,1.02
1621,48.864464,2.307655,92.29,11.85,8,92.56,Nov-15,173007,2020-01-04 11:55:33:436,0.1329,-1.0115,7.4989,0.009,-0.0104,9.8066,0.0362,-0.0671,0.0817,-65.44,-92.5,74.25,147.98,-9.95,0.24
1622,48.864464,2.307655,92.29,11.85,8,92.56,Nov-15,173105,2020-01-04 11:55:33:534,1.3778,0.956,6.4579,-0.004,-0.0116,9.8066,-0.0056,0.0521,-0.0142,-69.25,-92.94,76.44,146.85,-9.94,0.42
1623,48.864464,2.307655,92.29,11.85,8,92.56,Nov-15,173206,2020-01-04 11:55:33:635,0.7438,0.1366,8.7525,0.0216,0.0048,9.8066,0.0295,0.0475,-0.0222,-64.62,-91.87,74.75,148.12,-9.86,0.44
1624,48.864464,2.307655,92.29,11.85,8,92.56,Nov-15,173305,2020-01-04 11:55:33:734,-0.4751,0.4964,10.5447,0.0581,0.0291,9.8064,-0.0805,-0.0918,0.0024,-67.25,-92.94,75.0,147.89,-9.88,1.0
1625,48.864464,2.307655,92.29,11.85,8,92.56,Nov-15,173406,2020-01-04 11:55:33:835,-1.013,0.2528,6.888,-0.0016,0.0033,9.8066,-0.0021,-0.0406,-0.0484,-65.62,-91.25,75.25,147.63,-9.65,0.81
1626,48.864464,2.307655,92.29,11.85,8,92.56,Nov-15,173506,2020-01-04 11:55:33:935,-0.2698,-1.0156,5.0718,-0.0067,0.0025,9.8066,-0.0114,-0.0909,-0.0078,-64.56,-91.87,73.94,148.08,-9.58,0.58
1627,48.864464,2.307655,92.29,11.85,8,92.56,Nov-15,173606,2020-01-04 11:55:34:035,3.076,0.0617,5.5245,0.0573,-0.0111,9.8065,0.1279,0.1825,-0.0433,-68.87,-92.31,77.25,146.5,-9.66,0.28
1628,48.864464,2.307655,92.29,11.85,8,92.56,Dec-16,173706,2020-01-04 11:55:34:135,0.4002,0.8732,7.773,-0.0338,-0.0166,9.8065,-0.0033,-0.0316,-0.0137,-63.5,-91.37,73.56,148.63,-10.15,0.31
1629,48.864464,2.307655,92.29,11.85,8,92.56,Dec-16,173805,2020-01-04 11:55:34:234,0.9641,-0.2548,7.7602,-0.0101,0.0041,9.8066,0.019,0.0241,-0.0068,-68.69,-92.37,76.13,146.38,-9.83,0.07
1630,48.864464,2.307655,92.29,11.85,8,92.56,Dec-16,173906,2020-01-04 11:55:34:335,0.5574,0.5999,8.8322,-0.0278,-0.0168,9.8065,-0.0182,0.066,-0.0029,-67.0,-91.94,75.56,147.04,-9.53,0.0
1631,48.864464,2.307655,92.29,11.85,8,92.56,Dec-16,174006,2020-01-04 11:55:34:435,0.8175,0.9425,11.934,0.02,-0.0245,9.8065,0.0951,-0.0366,0.0048,-64.62,-91.56,73.69,147.86,-9.57,0.19
1632,48.864464,2.307655,92.29,11.85,8,92.56,Dec-16,174105,2020-01-04 11:55:34:534,0.5242,0.0568,9.3118,0.0078,-0.0199,9.8066,0.0444,-0.0387,0.012,-68.81,-93.06,77.13,146.97,-10.08,0.47
1633,48.864464,2.307655,92.29,11.85,8,92.56,Dec-16,174206,2020-01-04 11:55:34:635,0.0654,-0.5249,9.3553,-0.009,-0.0191,9.8066,0.0488,-0.0678,0.0057,-63.62,-91.31,73.5,148.3,-10.26,0.39
1634,48.864464,2.307655,92.29,11.85,8,92.56,Dec-16,174306,2020-01-04 11:55:34:735,1.643,0.9911,8.7323,-0.0161,0.0274,9.8066,-0.0229,-0.0364,0.0181,-68.87,-92.25,76.0,146.69,-10.04,0.51
1635,48.864464,2.307655,92.29,11.85,8,92.56,Dec-16,174405,2020-01-04 11:55:34:834,0.4245,0.9619,11.571,-0.0216,-0.0211,9.8066,0.0235,-0.074,0.0161,-67.31,-91.5,76.5,147.08,-9.99,0.23
1636,48.864464,2.307655,92.29,11.85,8,92.56,Dec-16,174505,2020-01-04 11:55:34:934,-0.567,0.6094,8.1617,-0.0536,-0.0536,9.8063,0.0884,-0.0143,0.0046,-64.31,-91.37,74.31,147.93,-10.04,-0.17
1637,48.864464,2.307655,92.29,11.85,8,92.56,Dec-16,174606,2020-01-04 11:55:35:035,-0.2827,-0.2192,10.6645,-0.0186,-0.005,9.8065,-0.0176,-0.0199,0.0212,-68.44,-91.94,77.56,146.73,-10.26,-0.35
1638,48.864464,2.307655,92.29,11.85,8,92.56,Dec-16,174705,2020-01-04 11:55:35:134,-1.7126,-0.2602,10.3367,0.0051,0.0434,9.8064,-0.043,0.0202,-0.0143,-64.94,-91.56,72.69,147.56,-10.1,-0.5
1639,48.864464,2.307655,92.29,11.85,8,92.56,Dec-16,174806,2020-01-04 11:55:35:235,-0.2221,-0.1418,8.6644,0.0046,-0.0049,9.8066,-0.0045,0.0926,-0.0323,-68.69,-93.75,76.81,146.78,-10.02,-0.26
1640,48.864464,2.307655,92.29,11.85,8,92.56,Dec-16,174905,2020-01-04 11:55:35:334,-1.7365,-0.7552,6.4245,0.0318,-0.0366,9.8064,0.1562,-0.0832,0.034,-64.62,-91.94,75.25,147.8,-10.41,-0.36
1641,48.864464,2.307655,92.29,11.85,8,92.56,Dec-16,175006,2020-01-04 11:55:35:435,-0.2131,0.3851,15.7409,0.0304,-0.0275,9.8065,0.0762,0.0098,-0.013,-67.5,-93.5,75.75,147.41,-10.9,-0.39
1642,48.864464,2.307655,92.29,11.85,8,92.56,Dec-16,175105,2020-01-04 11:55:35:534,0.7955,-0.9166,10.3556,0.0027,0.0352,9.8066,0.0675,-0.0813,0.0118,-68.06,-93.25,76.88,147.17,-11.08,-0.29
1643,48.864464,2.307655,92.29,11.85,8,92.56,Dec-16,175206,2020-01-04 11:55:35:635,-0.0559,-0.1729,13.2808,-0.0761,-0.0067,9.8063,-0.0729,-0.1078,-0.0393,-64.19,-92.94,73.06,148.56,-11.0,-0.23
1644,48.864464,2.307655,92.29,11.85,8,92.56,Dec-16,175305,2020-01-04 11:55:35:734,1.6308,0.6455,10.0462,0.0156,0.0385,9.8065,-0.0288,-0.0758,-0.0045,-69.0,-93.44,76.31,146.64,-10.43,-0.19
1645,48.864464,2.307655,92.29,11.85,8,92.56,Dec-16,175405,2020-01-04 11:55:35:834,1.3528,0.8127,10.1887,-0.0141,-0.0193,9.8066,0.0052,0.0856,-0.0284,-63.56,-91.06,74.19,147.87,-10.28,-0.37
1646,48.864464,2.307655,92.29,11.85,8,92.56,Dec-16,175505,2020-01-04 11:55:35:934,1.8084,0.018,6.3035,-0.0346,-0.0173,9.8065,0.1126,0.1204,-0.0217,-68.06,-92.5,76.75,146.72,-10.32,-0.31
1647,48.864464,2.307655,92.29,11.85,8,92.56,Dec-16,175605,2020-01-04 11:55:36:034,1.1063,-1.0327,12.5457,-0.0025,-0.0253,9.8066,0.04,-0.0566,0.0297,-66.75,-92.19,76.69,147.28,-10.82,-0.23
1648,48.864464,2.307655,92.29,11.85,8,92.56,Dec-16,175705,2020-01-04 11:55:36:134,0.0062,-0.5772,9.128,-0.03,-0.0532,9.8064,0.0098,0.0088,-0.0108,-64.31,-92.69,73.94,148.37,-10.96,-0.64
1649,48.864464,2.307655,92.29,11.85,8,92.56,Dec-16,175806,2020-01-04 11:55:36:235,-0.0499,-0.296,11.4808,-0.0121,0.0341,9.8066,-0.0738,0.0561,0.0176,-68.5,-92.81,77.25,146.93,-10.87,-0.62
1650,48.864464,2.307655,92.29,11.85,8,92.56,Dec-16,175905,2020-01-04 11:55:36:334,1.9886,0.686,8.4125,0.0109,-0.0048,9.8066,-0.0702,-0.0681,0.0073,-63.81,-92.56,73.63,148.34,-10.69,-0.58
1651,48.864464,2.307655,92.29,11.85,8,92.56,Dec-16,176006,2020-01-04 11:55:36:435,-0.7823,-0.1689,10.6686,0.0111,0.0038,9.8066,-0.0057,-0.0097,0.0598,-68.94,-93.12,77.0,146.49,-10.45,-0.54
1652,48.864464,2.307655,92.29,11.85,8,92.56,Dec-16,176106,2020-01-04 11:55:36:535,0.5456,0.1661,6.6526,0.0124,0.0062,9.8066,0.0427,0.0303,0.0093,-64.69,-91.94,74.19,147.86,-10.54,-0.24
1653,48.864464,2.307655,92.29,11.85,8,92.56,Dec-16,176205,2020-01-04 11:55:36:634,-0.6578,-0.8803,7.7444,-0.0062,-0.0061,9.8066,-0.036,-0.0321,0.0089,-66.0,-92.5,74.19,147.56,-10.75,-0.15
1654,48.864464,2.307655,92.29,11.85,8,92.56,Dec-16,176306,2020-01-04 11:55:36:735,2.1671,-0.3956,8.9586,0.0339,0.0108,9.8065,0.0,0.0073,0.0554,-67.56,-92.69,76.13,147.19,-10.85,-0.08
1655,48.864464,2.307655,92.29,11.85,8,92.56,Dec-16,176405,2020-01-04 11:55:36:834,-0.2373,-2.0331,9.7643,0.0049,0.0416,9.8065,-0.1145,0.1342,0.0043,-65.19,-92.12,73.31,147.98,-10.99,-0.12
1656,48.864464,2.307655,92.29,11.85,8,92.56,Dec-16,176505,2020-01-04 11:55:36:934,-0.4454,-1.102,10.4577,-0.004,0.0087,9.8066,-0.0626,-0.1345,0.0286,-68.87,-93.37,77.69,146.95,-10.73,0.07
1657,48.864464,2.307655,92.29,11.85,8,92.56,Dec-16,176605,2020-01-04 11:55:37:034,0.2609,1.0448,8.088,0.01,0.0153,9.8066,-0.0543,0.0625,-0.0077,-63.62,-91.69,73.75,148.28,-10.57,-0.2
1658,48.864464,2.307655,92.29,11.85,8,92.56,Dec-16,176705,2020-01-04 11:55:37:134,-0.0139,0.6997,10.4613,-0.0157,0.0067,9.8066,0.0272,0.0937,-0.0233,-69.37,-93.81,77.13,146.89,-10.39,-0.24
1659,48.864464,2.307655,92.29,11.85,8,92.56,Dec-16,176805,2020-01-04 11:55:37:234,0.2729,0.16,13.4405,-0.0077,-0.0108,9.8066,0.0264,-0.1077,-0.009,-66.44,-91.25,76.56,147.37,-10.54,-0.2
1660,48.864464,2.307655,92.29,11.85,8,92.56,Dec-16,176906,2020-01-04 11:55:37:335,-0.0187,0.4334,4.1365,-0.0187,-0.0663,9.8063,0.0792,0.3099,0.0057,-65.87,-92.56,75.0,147.56,-10.92,-0.75
1661,48.864464,2.307655,92.29,11.85,8,92.56,Dec-16,177005,2020-01-04 11:55:37:434,0.7084,0.9686,9.0124,-0.0141,-0.0018,9.8066,0.0493,-0.1452,0.059,-68.25,-92.81,76.94,146.97,-11.35,-0.76
1662,48.864464,2.307655,92.29,11.85,8,92.56,Dec-16,177107,2020-01-04 11:55:37:536,2.0992,0.1767,11.6095,0.0204,0.03,9.8066,-0.1193,0.0351,0.0018,-64.19,-92.25,73.44,148.25,-11.16,-0.42
1663,48.864464,2.307655,92.29,11.85,8,92.56,Dec-16,177206,2020-01-04 11:55:37:635,0.4616,0.5994,8.4157,0.0047,0.0372,9.8066,-0.0628,0.085,-0.0523,-69.31,-93.44,77.19,146.69,-10.54,-0.23
1664,48.864464,2.307655,92.29,11.85,8,92.56,Dec-16,177305,2020-01-04 11:55:37:734,-1.5073,-0.1748,10.8255,-0.0184,0.009,9.8066,-0.0055,-0.0916,0.0158,-63.87,-91.5,73.44,147.82,-10.37,-0.43
1665,48.864464,2.307655,92.29,11.85,8,92.56,Dec-16,177406,2020-01-04 11:55:37:835,0.3096,-0.8704,9.1961,0.0056,-0.0256,9.8065,0.0463,-0.0377,0.0159,-67.37,-92.87,75.88,147.31,-10.61,-0.44
1666,48.864464,2.307655,92.29,11.85,8,92.56,Dec-16,177506,2020-01-04 11:55:37:935,-0.6576,0.3406,12.2866,0.0707,-0.0332,9.8063,0.0887,0.0557,-0.0395,-66.62,-92.37,76.5,147.42,-11.27,-0.19
1667,48.864464,2.307655,92.29,11.85,8,92.56,Dec-16,177606,2020-01-04 11:55:38:035,1.0621,0.5621,11.4303,0.0123,0.0269,9.8065,-0.0733,0.0652,0.0041,-66.12,-93.25,74.25,148.2,-11.49,0.24
1668,48.864464,2.307655,92.29,11.85,8,92.56,Dec-16,177705,2020-01-04 11:55:38:134,1.7593,0.2059,8.7212,0.0,0.0375,9.8066,-0.1171,-0.0198,-0.0328,-67.94,-93.31,76.88,147.65,-11.4,0.41
1669,48.864464,2.307655,92.29,11.85,8,92.56,Dec-16,177806,2020-01-04 11:55:38:235,-0.7304,-1.0457,9.4255,-0.0396,0.0117,9.8065,-0.0804,-0.115,0.0797,-63.75,-91.94,73.19,148.54,-10.77,0.25
1670,48.864464,2.307655,92.29,11.85,8,92.56,Dec-16,177905,2020-01-04 11:55:38:334,-0.055,0.339,9.758,0.0465,0.021,9.8064,-0.0003,0.0584,-0.0386,-69.06,-92.87,77.06,147.33,-10.76,0.79
1671,48.864464,2.307655,92.29,11.85,8,92.56,Dec-16,178005,2020-01-04 11:55:38:434,-0.2185,-0.3443,5.4794,-0.0388,-0.0278,9.8064,0.0176,-0.1107,0.0767,-63.06,-91.75,74.5,149.19,-10.78,0.51
1672,48.864464,2.307655,92.29,11.85,8,92.56,Dec-16,178106,2020-01-04 11:55:38:535,-0.5671,1.7779,12.4393,0.0495,0.0135,9.8065,0.0514,-0.0694,0.0681,-67.37,-93.5,75.06,148.16,-11.2,0.89
1673,48.864464,2.307655,92.29,11.85,8,92.56,Dec-16,178206,2020-01-04 11:55:38:635,2.1822,4.322,14.4028,0.0531,0.0149,9.8064,-0.1026,-0.0751,-0.2226,-65.25,-92.31,75.63,148.82,-11.38,0.91
1674,48.864464,2.307655,92.29,11.85,8,92.56,Dec-16,178305,2020-01-04 11:55:38:734,-0.962,1.6743,10.7864,-0.0458,-0.0637,9.8063,-0.0112,-0.0442,0.0312,-67.31,-93.44,75.44,148.04,-11.2,0.69
1675,48.864464,2.307655,92.29,11.85,8,92.56,Dec-16,178406,2020-01-04 11:55:38:835,2.6002,0.8079,7.5723,-0.0335,0.0083,9.8066,-0.0459,0.2281,-0.1101,-66.5,-92.87,76.75,148.07,-11.22,-0.12
1676,48.864464,2.307655,92.29,11.85,8,92.56,Dec-16,178505,2020-01-04 11:55:38:934,-1.5811,1.7864,13.7851,0.0438,0.0324,9.8064,-0.1581,-0.0183,0.0727,-65.44,-92.69,73.81,148.33,-11.1,-0.06
1677,48.864464,2.307655,92.29,11.85,8,92.56,Dec-16,178606,2020-01-04 11:55:39:035,0.7928,0.3428,5.3994,-0.0065,-0.0087,9.8066,-0.0892,0.2156,-0.0167,-67.87,-92.94,76.94,147.15,-10.76,-0.18
1678,48.864464,2.307655,92.29,11.85,8,92.56,Dec-13,178705,2020-01-04 11:55:39:134,0.5217,-0.8422,9.9133,0.0001,-0.0041,9.8066,0.0609,-0.1119,0.0445,-63.87,-91.94,73.25,148.0,-10.35,-0.53
1679,48.864464,2.307655,92.29,11.85,8,92.56,Dec-13,178805,2020-01-04 11:55:39:234,0.7685,0.4275,10.5453,-0.0417,0.0007,9.8065,-0.0549,-0.1171,-0.0381,-69.19,-93.19,78.06,146.28,-10.3,-0.92
1680,48.864464,2.307655,92.29,11.85,8,92.56,Dec-13,178906,2020-01-04 11:55:39:335,-0.5018,-1.9177,11.6307,-0.0086,-0.0025,9.8066,-0.004,0.1763,-0.0314,-65.37,-92.44,74.94,147.27,-10.43,-1.31
1681,48.864464,2.307655,92.29,11.85,8,92.56,Dec-13,179006,2020-01-04 11:55:39:435,2.4936,0.5772,7.1342,0.0246,0.0441,9.8065,-0.0139,-0.0482,0.061,-68.25,-93.75,75.75,146.94,-10.25,-0.69
1682,48.864464,2.307655,92.29,11.85,8,92.56,Dec-13,179105,2020-01-04 11:55:39:534,1.8017,-0.2432,10.3853,-0.0576,0.0073,9.8064,-0.1021,0.0801,-0.0017,-65.81,-91.94,74.0,147.09,-9.85,-0.6
1683,48.864464,2.307655,92.29,11.85,8,92.56,Dec-13,179206,2020-01-04 11:55:39:635,1.2933,1.873,10.8269,-0.0378,-0.0237,9.8065,0.0267,0.1095,-0.0628,-65.62,-93.31,74.06,146.51,-9.47,-1.12
1684,48.864464,2.307655,92.29,11.85,8,92.56,Dec-13,179305,2020-01-04 11:55:39:734,-0.3231,0.6718,12.0887,-0.0207,-0.0147,9.8066,-0.0308,0.024,-0.0081,-66.62,-92.56,76.31,146.67,-9.6,-1.14
1685,48.864464,2.307655,92.29,11.85,8,92.56,Dec-13,179405,2020-01-04 11:55:39:834,-0.6555,0.1102,10.8527,-0.0113,0.0018,9.8066,-0.0183,0.2341,-0.0965,-66.19,-93.94,73.88,147.2,-9.44,-1.13
1686,48.864464,2.307655,92.29,11.85,8,92.56,Dec-13,179505,2020-01-04 11:55:39:934,-0.1674,1.627,8.0649,0.0035,0.063,9.8064,-0.0791,-0.0948,-0.0357,-68.0,-93.19,77.06,146.38,-8.93,-0.7
1687,48.864464,2.307655,92.29,11.85,8,92.56,Dec-13,179605,2020-01-04 11:55:40:034,0.9538,-0.3009,4.4085,0.0348,0.0538,9.8064,-0.1298,-0.5221,0.0435,-64.12,-92.0,73.13,147.55,-8.62,-0.57
1688,48.864464,2.307655,92.29,11.85,8,92.56,Dec-15,179706,2020-01-04 11:55:40:135,-0.4569,2.3625,9.762,-0.0065,-0.0589,9.8064,0.027,0.1925,-0.0083,-68.12,-91.69,77.0,145.61,-8.45,-1.4
1689,48.864464,2.307655,92.29,11.85,8,92.56,Dec-15,179806,2020-01-04 11:55:40:235,0.8367,-0.3752,9.841,0.0066,-0.0552,9.8064,0.1458,0.1591,-0.0311,-63.62,-91.5,73.13,146.88,-9.21,-1.62
1690,48.864464,2.307655,92.29,11.85,8,92.56,Dec-15,179905,2020-01-04 11:55:40:334,-1.168,-0.6096,8.6149,-0.0209,-0.074,9.8063,0.0484,0.137,-0.0654,-67.5,-92.25,77.38,146.3,-9.77,-1.49
1691,48.864464,2.307655,92.29,11.85,8,92.56,Dec-15,180005,2020-01-04 11:55:40:434,-2.0087,-1.3119,15.7613,-0.0411,-0.0171,9.8065,-0.1293,0.0851,-0.0114,-63.94,-92.37,72.69,147.23,-10.09,-1.83
1692,48.864464,2.307655,92.29,11.85,8,92.56,Dec-15,180106,2020-01-04 11:55:40:535,1.4884,1.1235,7.4049,-0.02,0.0424,9.8065,-0.0041,-0.0599,-0.0487,-68.87,-93.94,76.63,145.96,-9.73,-1.63
1693,48.864464,2.307655,92.29,11.85,8,92.56,Dec-15,180205,2020-01-04 11:55:40:634,1.9929,0.8035,3.3226,-0.0629,-0.0154,9.8064,-0.0323,0.4006,-0.0498,-64.0,-92.56,72.25,147.37,-9.17,-1.58
1694,48.864464,2.307655,92.29,11.85,8,92.56,Dec-15,180306,2020-01-04 11:55:40:735,1.6749,3.385,12.8257,0.0079,0.0279,9.8066,-0.1281,-0.0598,-0.0746,-68.87,-93.5,76.5,145.71,-8.71,-1.12
1695,48.864464,2.307655,92.29,11.85,8,92.56,Dec-15,180406,2020-01-04 11:55:40:835,-0.7503,0.7995,11.0454,-0.0621,-0.0076,9.8064,-0.0426,0.1846,-0.0616,-63.87,-91.44,72.75,146.58,-8.31,-1.74
1696,48.864464,2.307655,92.29,11.85,8,92.56,Dec-15,180506,2020-01-04 11:55:40:935,-1.8493,0.0195,9.623,0.018,-0.0053,9.8066,0.0841,0.5495,0.007,-69.19,-92.12,77.0,144.96,-8.3,-1.81
1697,48.864464,2.307655,92.29,11.85,8,92.56,Dec-15,180606,2020-01-04 11:55:41:035,0.5295,1.027,14.6331,0.0652,-0.0196,9.8064,0.2974,-0.2589,-0.0316,-63.87,-91.19,73.31,147.11,-8.99,-1.1
1698,48.864464,2.307655,92.29,11.85,8,92.56,13 / 16,180706,2020-01-04 11:55:41:135,-0.9329,-0.1818,18.4518,-0.1136,-0.1099,9.8053,-0.0396,0.3952,0.0339,-70.31,-92.81,78.06,144.8,-9.8,-2.71
1699,48.864464,2.307655,92.29,11.85,8,92.56,13 / 16,180805,2020-01-04 11:55:41:234,-0.3552,1.6965,8.0474,0.0609,0.032,9.8064,0.0333,0.326,-0.0215,-65.06,-92.69,72.25,146.89,-9.87,-2.06
1700,48.864464,2.307655,92.29,11.85,8,92.56,13 / 16,180905,2020-01-04 11:55:41:334,1.3599,1.2811,3.8088,-0.0762,-0.0569,9.8061,-0.0425,0.358,-0.0491,-70.0,-92.87,77.13,145.25,-9.63,-1.72
1701,48.864464,2.307655,92.29,11.85,8,92.56,13 / 16,181005,2020-01-04 11:55:41:434,0.0383,1.2854,10.0518,-0.0431,0.0026,9.8065,-0.0161,-0.2546,0.1485,-64.87,-91.5,72.56,146.48,-9.31,-1.68
1702,48.864464,2.307655,92.29,11.85,8,92.56,13 / 16,181106,2020-01-04 11:55:41:535,-0.1327,-0.1957,10.6539,0.0759,0.0825,9.806,0.0049,0.1219,-0.0302,-69.81,-92.06,77.19,144.94,-9.08,-1.55
1703,48.864464,2.307655,92.29,11.85,8,92.56,13 / 16,181205,2020-01-04 11:55:41:634,0.3828,1.9026,9.4949,0.0353,-0.023,9.8065,0.1332,0.0081,-0.0284,-67.12,-91.75,74.0,146.57,-9.25,-0.57
1704,48.864464,2.307655,92.29,11.85,8,92.56,13 / 16,181307,2020-01-04 11:55:41:736,-1.2809,-1.8643,8.9695,0.0503,-0.0396,9.8064,0.2028,0.064,0.0201,-69.19,-92.12,77.69,146.17,-10.2,-0.63
1705,48.864464,2.307655,92.29,11.85,8,92.56,13 / 16,181405,2020-01-04 11:55:41:834,1.3237,1.6631,12.2872,0.0226,0.0457,9.8064,-0.0787,0.3396,-0.0253,-67.5,-93.56,73.63,147.73,-10.41,0.12
1706,48.864464,2.307655,92.29,11.85,8,92.56,13 / 16,181505,2020-01-04 11:55:41:934,3.0345,-0.5203,7.2807,-0.0601,0.0083,9.8064,-0.1248,-0.0517,-0.0732,-65.5,-92.12,73.88,148.01,-10.04,0.25
1707,48.864464,2.307655,92.29,11.85,8,92.56,13 / 16,181605,2020-01-04 11:55:42:034,-0.9448,-0.8702,9.9864,-0.0592,0.0145,9.8064,-0.116,-0.0498,-0.0062,-69.69,-93.62,75.81,145.99,-9.31,-0.62
1708,48.864494,2.308995,91.48,9.15,6,89.03,Nov-16,181706,2020-01-04 11:55:42:135,1.652,-0.7533,4.0104,-0.0509,-0.0026,9.8065,-0.0683,-0.0319,-0.1017,-64.87,-91.0,71.5,147.18,-8.97,-0.16
1709,48.864494,2.308995,91.48,9.15,6,89.03,Nov-16,181805,2020-01-04 11:55:42:234,-0.5632,-2.2095,8.9717,0.0567,0.0112,9.8064,0.0064,0.2083,-0.0448,-70.44,-93.69,77.38,146.22,-9.0,-0.1
1710,48.864494,2.308995,91.48,9.15,6,89.03,Nov-16,181905,2020-01-04 11:55:42:334,1.8367,3.3103,14.0069,-0.0478,0.0206,9.8064,0.0327,-0.3173,0.1029,-65.0,-91.0,73.06,147.19,-8.74,-0.09
1711,48.864494,2.308995,91.48,9.15,6,89.03,Nov-16,182005,2020-01-04 11:55:42:434,-0.8578,-2.1765,13.453,0.0722,0.0304,9.8063,0.006,-0.0078,0.0838,-70.56,-93.81,77.06,145.94,-8.87,0.12
1712,48.864494,2.308995,91.48,9.15,6,89.03,Nov-16,182106,2020-01-04 11:55:42:535,-0.1066,-1.2172,12.3529,0.0773,0.028,9.8063,0.1435,-0.2002,0.0327,-64.12,-91.56,71.81,148.39,-9.09,0.8
1713,48.864494,2.308995,91.48,9.15,6,89.03,Nov-16,182205,2020-01-04 11:55:42:634,1.0482,-0.949,4.4584,-0.0256,-0.0483,9.8065,0.0046,-0.0937,0.0001,-69.75,-93.44,77.88,146.42,-9.56,0.34
1714,48.864494,2.308995,91.48,9.15,6,89.03,Nov-16,182306,2020-01-04 11:55:42:735,-0.2747,0.2074,14.6511,-0.0317,0.0284,9.8065,0.0271,-0.0421,-0.0212,-64.19,-92.62,71.56,148.41,-9.41,0.25
1715,48.864494,2.308995,91.48,9.15,6,89.03,Nov-16,182405,2020-01-04 11:55:42:834,1.4808,0.8074,12.2361,0.0119,0.0405,9.8065,-0.1406,0.0948,0.058,-68.19,-92.69,76.0,147.18,-9.24,0.63
1716,48.864494,2.308995,91.48,9.15,6,89.03,Nov-16,182505,2020-01-04 11:55:42:934,0.8751,-0.3612,7.1296,-0.013,0.013,9.8066,-0.015,-0.0754,0.0089,-67.62,-93.19,74.31,147.07,-8.97,0.73
1717,48.864494,2.308995,91.48,9.15,6,89.03,Nov-16,182605,2020-01-04 11:55:43:034,0.0965,-0.23,8.1877,-0.0109,-0.045,9.8065,0.0838,0.0224,0.0011,-64.12,-91.62,73.31,148.23,-9.04,0.45
1718,48.864494,2.308995,91.48,9.15,6,89.03,Nov-16,182705,2020-01-04 11:55:43:134,-0.191,-0.2867,8.9303,-0.023,-0.031,9.8065,0.108,0.0474,-0.0042,-70.06,-94.06,77.69,146.44,-9.17,0.13
1719,48.864494,2.308995,91.48,9.15,6,89.03,Nov-16,182806,2020-01-04 11:55:43:235,1.0424,0.8577,6.2066,-0.0137,-0.0084,9.8066,0.0047,-0.0662,-0.0272,-63.81,-91.81,71.88,148.16,-9.42,0.24
1720,48.864494,2.308995,91.48,9.15,6,89.03,Nov-16,182906,2020-01-04 11:55:43:335,1.4966,2.0818,11.5275,-0.0632,-0.0479,9.8063,-0.0179,-0.0976,0.0192,-70.19,-94.19,77.38,146.42,-9.34,0.09
1721,48.864494,2.308995,91.48,9.15,6,89.03,Nov-16,183006,2020-01-04 11:55:43:435,0.1705,0.7731,10.6216,-0.0161,0.0105,9.8066,-0.0576,0.0557,0.0088,-64.19,-92.25,72.19,147.71,-9.11,-0.44
1722,48.864494,2.308995,91.48,9.15,6,89.03,Nov-16,183105,2020-01-04 11:55:43:534,1.321,-1.3634,8.1074,-0.0096,-0.0109,9.8066,0.0234,0.0821,-0.0258,-68.62,-93.5,76.56,146.14,-9.13,-0.55
1723,48.864494,2.308995,91.48,9.15,6,89.03,Nov-16,183205,2020-01-04 11:55:43:634,0.6775,-1.0951,11.2308,0.0039,0.0046,9.8066,0.023,0.058,-0.0622,-68.0,-93.37,74.63,146.51,-8.93,-0.35
1724,48.864494,2.308995,91.48,9.15,6,89.03,Nov-16,183306,2020-01-04 11:55:43:735,-1.0473,-0.3845,9.6486,0.012,0.0319,9.8065,0.0351,0.0262,-0.0306,-63.75,-91.62,73.38,147.94,-8.71,0.08
1725,48.864494,2.308995,91.48,9.15,6,89.03,Nov-16,183406,2020-01-04 11:55:43:835,0.4683,1.626,10.1791,0.0412,0.0383,9.8065,-0.0513,0.1173,-0.0091,-69.31,-93.5,77.31,146.43,-8.76,0.15
1726,48.864494,2.308995,91.48,9.15,6,89.03,Nov-16,183505,2020-01-04 11:55:43:934,-0.2837,0.3469,10.1875,0.031,-0.0206,9.8065,0.0925,-0.2014,0.0793,-62.69,-91.31,71.38,148.28,-8.93,0.46
1727,48.864494,2.308995,91.48,9.15,6,89.03,Nov-16,183606,2020-01-04 11:55:44:035,0.8484,0.4003,9.6307,0.0339,-0.0362,9.8065,0.0842,0.0606,-0.0132,-68.81,-94.06,77.13,146.98,-9.38,0.39
1728,48.864494,2.308995,91.48,9.15,6,89.03,Nov-16,183706,2020-01-04 11:55:44:135,0.797,1.5486,10.5672,0.0374,-0.0258,9.8065,-0.0672,0.1272,0.0121,-65.75,-94.37,73.5,148.26,-9.69,0.7
1729,48.864494,2.308995,91.48,9.15,6,89.03,Nov-16,183805,2020-01-04 11:55:44:234,0.4356,0.2609,13.3455,0.0484,0.0023,9.8064,0.0194,0.3,-0.0535,-65.69,-92.94,76.38,148.33,-9.77,1.03
1730,48.864494,2.308995,91.48,9.15,6,89.03,Nov-16,183906,2020-01-04 11:55:44:335,1.4303,2.7775,8.3575,-0.0792,-0.0147,9.8063,-0.0233,-0.0085,0.0185,-67.94,-94.94,76.69,147.72,-9.42,0.57
1731,48.864494,2.308995,91.48,9.15,6,89.03,Nov-16,184005,2020-01-04 11:55:44:434,1.401,1.59,7.8951,-0.0549,0.0185,9.8064,-0.1304,-0.0559,0.0377,-62.69,-91.81,72.25,148.61,-8.97,0.51
1732,48.864494,2.308995,91.48,9.15,6,89.03,Nov-16,184106,2020-01-04 11:55:44:535,0.391,1.118,8.3432,-0.0128,0.0489,9.8064,-0.046,0.0272,0.0121,-68.75,-93.37,78.25,146.49,-8.15,0.49
1733,48.864494,2.308995,91.48,9.15,6,89.03,Nov-16,184206,2020-01-04 11:55:44:635,1.9549,-1.2773,7.4025,-0.0032,-0.0045,9.8066,0.067,-0.127,0.0113,-65.94,-92.44,72.63,147.17,-7.9,0.53
1734,48.864494,2.308995,91.48,9.15,6,89.03,Nov-16,184305,2020-01-04 11:55:44:734,1.5726,-1.2742,10.4189,0.0129,0.002,9.8065,0.0424,0.0942,0.0143,-64.62,-90.44,75.5,147.31,-7.96,0.74
1735,48.864494,2.308995,91.48,9.15,6,89.03,Nov-16,184406,2020-01-04 11:55:44:835,-0.2628,0.4516,7.7696,0.0658,-0.042,9.8063,0.1776,-0.1109,-0.016,-68.62,-92.94,78.44,147.14,-9.04,1.17
1736,48.864494,2.308995,91.48,9.15,6,89.03,Nov-16,184506,2020-01-04 11:55:44:935,4.1051,2.7177,15.9401,0.0786,-0.0177,9.8063,0.0133,0.0744,-0.0726,-63.19,-91.75,72.56,149.34,-9.83,1.34
1737,48.864494,2.308995,91.48,9.15,6,89.03,Nov-16,184606,2020-01-04 11:55:45:035,-3.2077,-0.4244,13.3701,-0.0485,-0.0472,9.8063,0.0019,-0.0943,-0.0295,-64.94,-93.12,75.94,148.89,-9.99,1.21
1738,48.864494,2.308995,91.48,9.15,6,89.03,Nov-17,184706,2020-01-04 11:55:45:135,-2.1412,-0.9875,12.091,0.0099,0.0639,9.8064,-0.0926,0.0169,-0.0319,-68.69,-94.31,76.0,147.26,-9.56,0.88
1739,48.864494,2.308995,91.48,9.15,6,89.03,Nov-17,184806,2020-01-04 11:55:45:235,-0.3364,1.8673,11.1754,-0.0692,0.0421,9.8062,-0.0809,-0.0176,-0.0438,-62.25,-91.5,72.06,149.01,-8.56,1.11
1740,48.864494,2.308995,91.48,9.15,6,89.03,Nov-17,184905,2020-01-04 11:55:45:334,-0.6978,-1.935,12.5981,-0.0315,-0.0149,9.8065,-0.0098,0.14,0.0171,-68.12,-92.5,77.56,146.83,-7.79,1.02
1741,48.864494,2.308995,91.48,9.15,6,89.03,Nov-17,185006,2020-01-04 11:55:45:435,1.0332,1.9335,11.8371,-0.0191,-0.0252,9.8066,0.118,0.1606,0.0128,-66.25,-92.0,73.81,147.22,-7.69,0.66
1742,48.864494,2.308995,91.48,9.15,6,89.03,Nov-17,185106,2020-01-04 11:55:45:535,0.4842,0.5841,9.2628,-0.0073,-0.067,9.8063,0.1409,-0.0773,-0.005,-65.19,-91.56,75.25,147.85,-8.64,0.53
1743,48.864494,2.308995,91.48,9.15,6,89.03,Nov-17,185206,2020-01-04 11:55:45:635,-0.3083,2.2172,11.4511,-0.0011,-0.0239,9.8066,-0.0417,0.0373,0.0189,-69.69,-93.5,77.63,146.45,-8.96,0.69
1744,48.864494,2.308995,91.48,9.15,6,89.03,Nov-17,185305,2020-01-04 11:55:45:734,-0.2924,0.0026,10.3682,-0.0481,0.0036,9.8065,-0.0252,-0.1385,-0.0212,-65.12,-92.19,71.94,147.97,-8.7,0.93
1745,48.864494,2.308995,91.48,9.15,6,89.03,Nov-17,185406,2020-01-04 11:55:45:835,0.5452,-0.3828,7.9327,-0.0687,0.0044,9.8064,-0.0672,-0.0047,-0.036,-64.87,-91.0,74.81,147.31,-8.12,0.28
1746,48.864494,2.308995,91.48,9.15,6,89.03,Nov-17,185505,2020-01-04 11:55:45:934,0.0272,-0.6482,5.4712,-0.0131,-0.0199,9.8065,-0.0025,0.0483,-0.0099,-69.56,-93.44,78.44,145.77,-7.89,0.04
1747,48.864494,2.308995,91.48,9.15,6,89.03,Nov-17,185605,2020-01-04 11:55:46:034,-1.8217,0.9597,11.4021,0.0152,-0.0219,9.8065,0.0313,-0.0259,0.0255,-64.44,-91.19,71.5,147.39,-8.02,-0.06
1748,48.864494,2.308995,91.48,9.15,6,89.03,13 / 17,185705,2020-01-04 11:55:46:134,0.1429,-0.2166,11.5627,0.0617,0.0402,9.8063,-0.0465,0.2738,-0.0981,-66.12,-91.62,75.63,147.27,-8.22,0.35
1749,48.864494,2.308995,91.48,9.15,6,89.03,13 / 17,185806,2020-01-04 11:55:46:235,0.4871,-0.8768,7.4012,-0.0568,-0.0514,9.8063,0.083,-0.0443,0.0386,-69.06,-93.56,76.44,146.53,-8.22,0.21
1750,48.864494,2.308995,91.48,9.15,6,89.03,13 / 17,185906,2020-01-04 11:55:46:335,0.7623,0.1856,6.912,0.0139,-0.0127,9.8066,0.0895,-0.0211,-0.0052,-63.94,-91.5,71.38,147.58,-8.34,0.21
1751,48.864494,2.308995,91.48,9.15,6,89.03,13 / 17,186005,2020-01-04 11:55:46:434,-1.098,-0.4659,8.5176,0.0138,-0.0054,9.8066,0.0404,-0.0697,-0.0425,-66.44,-91.81,77.0,147.25,-8.58,0.07
1752,48.864494,2.308995,91.48,9.15,6,89.03,13 / 17,186105,2020-01-04 11:55:46:534,-0.3688,-0.2908,12.7602,0.0403,0.0277,9.8065,-0.0258,0.1824,-0.0131,-69.62,-94.5,76.06,146.2,-8.81,-0.13
1753,48.864494,2.308995,91.48,9.15,6,89.03,13 / 17,186206,2020-01-04 11:55:46:635,-0.2458,1.4208,13.6184,0.0541,0.0359,9.8064,-0.0951,-0.0663,-0.1087,-63.94,-92.31,71.31,148.18,-8.89,0.59
1754,48.864494,2.308995,91.48,9.15,6,89.03,13 / 17,186306,2020-01-04 11:55:46:735,-2.5007,0.5984,9.2178,0.0479,0.0353,9.8064,-0.0574,0.237,-0.037,-65.62,-91.87,75.69,147.59,-8.65,0.7
1755,48.864494,2.308995,91.48,9.15,6,89.03,13 / 17,186405,2020-01-04 11:55:46:834,1.2512,-0.9304,10.2312,-0.0076,-0.0097,9.8066,0.0452,0.0054,0.0219,-69.94,-94.31,77.13,146.71,-8.62,0.96
1756,48.864494,2.308995,91.48,9.15,6,89.03,13 / 17,186505,2020-01-04 11:55:46:934,0.7112,0.3146,9.2556,0.0171,-0.0189,9.8066,0.0569,0.1161,-0.0404,-65.12,-92.37,71.81,148.08,-8.91,1.03
1757,48.864494,2.308995,91.48,9.15,6,89.03,13 / 17,186606,2020-01-04 11:55:47:035,0.262,1.4234,9.5329,0.0608,0.0114,9.8064,-0.0101,0.1696,-0.0362,-65.44,-91.62,74.31,148.51,-9.23,1.49
1758,48.864494,2.308995,91.48,9.15,6,89.03,14 / 17,186705,2020-01-04 11:55:47:134,-0.3978,1.614,8.5524,-0.0074,0.01,9.8066,-0.0215,-0.093,0.0247,-70.31,-94.69,78.0,147.64,-9.23,1.77
1759,48.864494,2.308995,91.48,9.15,6,89.03,14 / 17,186806,2020-01-04 11:55:47:235,-0.7705,0.1233,8.0907,0.0143,0.0089,9.8066,-0.157,0.135,-0.0091,-65.81,-94.37,72.44,148.63,-9.21,1.73
1760,48.864494,2.308995,91.48,9.15,6,89.03,14 / 17,186905,2020-01-04 11:55:47:334,0.2634,-0.3988,10.7801,-0.0062,0.016,9.8066,-0.045,0.0346,0.0016,-63.81,-91.75,72.31,148.79,-8.94,1.58
1761,48.864494,2.308995,91.48,9.15,6,89.03,14 / 17,187006,2020-01-04 11:55:47:435,0.9,0.7428,10.5906,-0.0082,0.0129,9.8066,-0.0089,0.0117,-0.0131,-68.87,-92.44,77.5,146.89,-8.72,1.33
1762,48.864494,2.308995,91.48,9.15,6,89.03,14 / 17,187105,2020-01-04 11:55:47:534,-0.7726,-0.3773,11.8366,0.0045,-0.0209,9.8065,0.0611,-0.0268,-0.0038,-70.12,-94.5,75.69,146.86,-8.87,1.18
1763,48.864494,2.308995,91.48,9.15,6,89.03,14 / 17,187205,2020-01-04 11:55:47:634,0.2119,1.1401,11.073,0.0152,-0.016,9.8066,0.0316,0.082,-0.0376,-65.25,-91.75,71.63,148.1,-9.09,1.0
1764,48.864494,2.308995,91.48,9.15,6,89.03,14 / 17,187305,2020-01-04 11:55:47:734,0.0184,0.6383,8.26,0.0305,0.0156,9.8066,0.0399,0.0473,-0.0024,-65.94,-91.5,75.0,147.87,-9.15,1.46
1765,48.864494,2.308995,91.48,9.15,6,89.03,14 / 17,187405,2020-01-04 11:55:47:834,-0.143,-0.1243,10.0875,0.0359,0.0089,9.8065,0.0506,-0.0521,0.0087,-70.75,-93.94,79.44,147.2,-9.36,1.92
1766,48.864494,2.308995,91.48,9.15,6,89.03,14 / 17,187506,2020-01-04 11:55:47:935,-1.2427,0.4345,8.3677,-0.0161,-0.0382,9.8065,0.0396,-0.038,0.0262,-67.81,-93.81,74.06,147.96,-9.65,1.56
1767,48.864494,2.308995,91.48,9.15,6,89.03,14 / 17,187605,2020-01-04 11:55:48:034,-0.0275,-0.1554,9.5801,-0.022,-0.0041,9.8066,-0.0155,-0.0238,0.0045,-64.12,-92.5,71.19,148.78,-9.7,1.31
1768,48.864494,2.308995,91.48,9.15,6,89.03,14 / 19,187706,2020-01-04 11:55:48:135,0.3076,1.5482,8.6542,-0.0006,0.0037,9.8066,0.0242,-0.0078,-0.0024,-68.81,-93.56,77.06,147.5,-9.61,1.2
1769,48.864494,2.308995,91.48,9.15,6,89.03,14 / 19,187806,2020-01-04 11:55:48:235,-2.0523,1.9485,11.3497,0.0142,0.0166,9.8066,0.0377,0.0394,-0.0331,-71.19,-94.44,78.88,147.03,-9.53,1.56
1770,48.864494,2.308995,91.48,9.15,6,89.03,14 / 19,187906,2020-01-04 11:55:48:335,0.1597,1.4914,8.2593,0.0101,0.0191,9.8066,-0.035,0.0814,-0.0108,-69.12,-94.81,74.69,147.94,-9.58,1.74
1771,48.864494,2.308995,91.48,9.15,6,89.03,14 / 19,188005,2020-01-04 11:55:48:434,0.141,1.011,9.8101,0.0041,0.002,9.8066,-0.0051,-0.0899,-0.0031,-65.06,-92.87,71.75,148.95,-9.47,1.9
1772,48.864494,2.308995,91.48,9.15,6,89.03,14 / 19,188105,2020-01-04 11:55:48:534,-1.6497,1.1126,9.6489,-0.0212,-0.0102,9.8065,0.0097,-0.0855,0.0163,-64.69,-91.87,74.31,148.54,-9.43,1.45
1773,48.864494,2.308995,91.48,9.15,6,89.03,14 / 19,188205,2020-01-04 11:55:48:634,-0.4855,-0.0216,10.2231,-0.0002,0.0016,9.8066,0.0355,0.0059,-0.0168,-70.25,-93.25,78.31,146.97,-9.51,1.32
1774,48.864494,2.308995,91.48,9.15,6,89.03,14 / 19,188306,2020-01-04 11:55:48:735,-1.2652,1.6298,9.6725,0.0017,-0.0057,9.8066,0.0073,0.0123,-0.0023,-72.0,-94.81,78.44,146.67,-9.59,1.22
1775,48.864494,2.308995,91.48,9.15,6,89.03,14 / 19,188405,2020-01-04 11:55:48:834,0.3628,1.7935,9.0381,-0.0136,0.0024,9.8066,-0.0453,-0.0576,-0.0089,-69.44,-94.81,75.31,147.65,-9.48,1.26
1776,48.864494,2.308995,91.48,9.15,6,89.03,14 / 19,188505,2020-01-04 11:55:48:934,-0.2757,0.9988,10.1309,-0.0022,0.0034,9.8066,-0.0048,0.0014,-0.0151,-65.25,-92.69,71.19,148.38,-9.32,1.04
1777,48.864494,2.308995,91.48,9.15,6,89.03,14 / 19,188605,2020-01-04 11:55:49:034,-0.9411,1.7835,10.6793,0.0025,0.0167,9.8065,-0.0304,-0.0626,0.0286,-63.94,-91.37,71.56,148.34,-9.23,1.08
1778,48.864494,2.308995,91.48,9.15,6,89.03,14 / 17,188706,2020-01-04 11:55:49:135,0.6382,1.0536,8.7101,0.0062,-0.0009,9.8066,0.0065,0.0187,-0.0101,-66.56,-92.19,75.56,147.46,-9.24,0.88
1779,48.864494,2.308995,91.48,9.15,6,89.03,14 / 17,188806,2020-01-04 11:55:49:235,0.1975,0.3298,9.6813,-0.0186,-0.0129,9.8065,0.0248,-0.0136,0.0016,-70.69,-93.5,78.5,146.19,-9.28,0.66
1780,48.864494,2.308995,91.48,9.15,6,89.03,14 / 17,188906,2020-01-04 11:55:49:335,-0.7077,-0.1998,10.2721,0.0094,-0.0032,9.8065,0.0187,0.0126,0.0101,-72.31,-94.69,79.56,146.35,-9.44,0.57
1781,48.864494,2.308995,91.48,9.15,6,89.03,14 / 17,189006,2020-01-04 11:55:49:435,0.6459,0.5855,10.0427,0.0085,0.001,9.8066,-0.0195,-0.0115,-0.0121,-70.87,-94.37,76.69,146.38,-9.49,0.61
1782,48.864494,2.308995,91.48,9.15,6,89.03,14 / 17,189105,2020-01-04 11:55:49:534,0.5419,0.3308,9.3487,0.0037,0.0126,9.8066,-0.0121,0.0268,-0.019,-69.25,-94.5,73.31,146.92,-9.43,0.58
1783,48.864494,2.308995,91.48,9.15,6,89.03,14 / 17,189206,2020-01-04 11:55:49:635,0.1134,-0.0362,9.7945,-0.0022,-0.0074,9.8066,-0.0103,0.0099,0.0216,-65.5,-92.44,71.44,147.88,-9.44,0.52
1784,48.864494,2.308995,91.48,9.15,6,89.03,14 / 17,189305,2020-01-04 11:55:49:734,0.4529,-0.2685,9.5078,-0.0171,-0.0208,9.8066,0.0119,-0.0321,0.009,-64.5,-91.69,72.44,148.2,-9.49,0.27
1785,48.864494,2.308995,91.48,9.15,6,89.03,14 / 17,189405,2020-01-04 11:55:49:834,0.3051,0.4561,10.4561,-0.0019,-0.0025,9.8066,0.0064,0.0617,0.004,-66.0,-91.69,74.0,147.53,-9.49,0.35
1786,48.864494,2.308995,91.48,9.15,6,89.03,14 / 17,189506,2020-01-04 11:55:49:935,0.4227,0.2996,9.5429,0.0068,0.0034,9.8066,-0.0176,0.0301,0.0105,-69.44,-92.81,77.69,146.84,-9.55,0.42
1787,48.864494,2.308995,91.48,9.15,6,89.03,14 / 17,189605,2020-01-04 11:55:50:034,0.3899,0.532,9.7809,0.0021,-0.0025,9.8066,-0.0043,0.0129,-0.0013,-71.37,-94.06,79.5,146.43,-9.54,0.45
1788,48.864494,2.308995,91.48,9.15,6,89.03,14 / 18,189705,2020-01-04 11:55:50:134,0.1453,-0.3187,9.7555,-0.0065,-0.0088,9.8066,0.0136,-0.0072,-0.0005,-71.81,-94.87,79.75,146.3,-9.54,0.43
1789,48.864494,2.308995,91.48,9.15,6,89.03,14 / 18,189806,2020-01-04 11:55:50:235,0.7937,0.7027,9.6432,0.0047,0.0059,9.8066,-0.0099,-0.0073,0.0013,-70.87,-95.0,77.06,146.58,-9.55,0.51
1790,48.864494,2.308995,91.48,9.15,6,89.03,14 / 18,189905,2020-01-04 11:55:50:334,-0.1715,0.3028,10.088,-0.0042,0.0097,9.8066,-0.0275,-0.0223,-0.0032,-69.69,-94.25,74.5,146.59,-9.46,0.48
1791,48.864494,2.308995,91.48,9.15,6,89.03,14 / 18,190006,2020-01-04 11:55:50:435,-0.4948,-0.5056,9.8937,-0.016,0.0099,9.8066,-0.0119,-0.0582,0.0232,-67.5,-92.87,71.81,147.3,-9.32,0.44
1792,48.864494,2.308995,91.48,9.15,6,89.03,14 / 18,190105,2020-01-04 11:55:50:534,-0.0106,0.2306,8.8679,-0.0019,0.0153,9.8066,0.0157,-0.0254,-0.0002,-65.25,-91.56,71.69,147.74,-9.12,0.33
1793,48.864494,2.308995,91.48,9.15,6,89.03,14 / 18,190206,2020-01-04 11:55:50:635,-0.077,0.2981,10.1536,0.0133,0.0058,9.8065,-0.0066,0.0461,-0.0015,-64.31,-91.12,72.75,147.98,-9.18,0.39
1794,48.864494,2.308995,91.48,9.15,6,89.03,14 / 18,190305,2020-01-04 11:55:50:734,0.075,-0.0699,10.468,0.0142,0.0004,9.8066,-0.0073,0.0782,-0.0142,-66.0,-91.5,74.69,147.35,-9.25,0.5
1795,48.864494,2.308995,91.48,9.15,6,89.03,14 / 18,190405,2020-01-04 11:55:50:834,0.0748,0.5171,10.4569,0.0036,0.0101,9.8066,-0.0264,0.0059,0.007,-67.94,-92.19,75.69,146.94,-9.27,0.64
1796,48.864494,2.308995,91.48,9.15,6,89.03,14 / 18,190506,2020-01-04 11:55:50:935,0.0067,0.4875,9.8107,-0.0079,0.0063,9.8066,-0.0189,0.0065,0.0029,-70.81,-92.5,78.94,145.9,-9.11,0.68
1797,48.864494,2.308995,91.48,9.15,6,89.03,14 / 18,190605,2020-01-04 11:55:51:034,-0.3584,0.6858,10.136,-0.0074,0.0053,9.8066,-0.0173,-0.009,0.0037,-71.37,-93.62,79.38,146.36,-8.99,0.66
1798,48.864525,2.30972,91.08,1.64,8,87.95,14 / 17,190706,2020-01-04 11:55:51:135,-0.1155,0.6218,10.1436,-0.009,-0.0033,9.8066,-0.011,-0.0124,0.0064,-72.62,-94.37,79.63,145.55,-8.91,0.51
1799,48.864525,2.30972,91.08,1.64,8,87.95,14 / 17,190805,2020-01-04 11:55:51:234,-0.4095,-0.0397,9.5945,-0.0051,0.0,9.8066,0.0089,-0.0316,0.0118,-72.0,-93.81,78.81,145.76,-8.88,0.33
1800,48.864525,2.30972,91.08,1.64,8,87.95,14 / 17,190906,2020-01-04 11:55:51:335,-0.1022,0.5363,9.9605,-0.0051,-0.0024,9.8065,-0.0016,-0.0114,0.0056,-71.62,-94.69,77.44,145.89,-8.87,0.26
1801,48.864525,2.30972,91.08,1.64,8,87.95,14 / 17,191006,2020-01-04 11:55:51:435,-0.3991,0.6769,10.391,0.0037,0.0063,9.8066,0.0078,0.0075,-0.0025,-70.69,-94.31,76.13,145.96,-8.83,0.25
1802,48.864525,2.30972,91.08,1.64,8,87.95,14 / 17,191106,2020-01-04 11:55:51:535,-0.2081,0.2897,10.1515,0.0144,0.0067,9.8065,0.0162,0.0213,-0.0032,-69.06,-93.62,73.75,146.73,-8.84,0.41
1803,48.864525,2.30972,91.08,1.64,8,87.95,14 / 17,191205,2020-01-04 11:55:51:634,-0.0451,0.837,9.9284,0.0038,0.0019,9.8066,0.0002,0.007,-0.0046,-68.5,-92.81,72.06,146.84,-8.89,0.51
1804,48.864525,2.30972,91.08,1.64,8,87.95,14 / 17,191305,2020-01-04 11:55:51:734,-0.0442,0.4389,9.7984,0.0014,0.0068,9.8066,-0.0051,-0.0002,-0.0102,-67.44,-92.5,71.44,146.96,-8.84,0.57
1805,48.864525,2.30972,91.08,1.64,8,87.95,14 / 17,191406,2020-01-04 11:55:51:835,-0.07,0.4123,9.7704,-0.006,-0.003,9.8066,0.0007,-0.022,0.0128,-66.25,-92.12,71.63,147.38,-8.83,0.53
1806,48.864525,2.30972,91.08,1.64,8,87.95,14 / 17,191506,2020-01-04 11:55:51:935,-0.2093,0.2972,10.0365,-0.0013,-0.0024,9.8066,0.0038,0.0024,0.012,-65.81,-91.19,71.06,147.03,-8.83,0.44
1807,48.864525,2.30972,91.08,1.64,8,87.95,14 / 17,191605,2020-01-04 11:55:52:034,-0.1187,0.5964,9.9998,-0.0047,0.0019,9.8066,-0.0085,-0.0097,-0.0012,-65.37,-91.62,70.25,147.63,-8.79,0.43
1808,48.864525,2.30972,91.08,1.64,8,87.95,15 / 18,191706,2020-01-04 11:55:52:135,-0.2515,0.4484,9.841,-0.0008,0.0044,9.8065,0.0033,0.0076,-0.0135,-65.37,-91.5,71.0,147.4,-8.74,0.42
1809,48.864525,2.30972,91.08,1.64,8,87.95,15 / 18,191805,2020-01-04 11:55:52:234,-0.0937,0.5688,9.8482,0.0018,0.0022,9.8066,0.0055,-0.0031,0.0067,-64.25,-91.69,71.06,148.07,-8.72,0.47
1810,48.864525,2.30972,91.08,1.64,8,87.95,15 / 18,191906,2020-01-04 11:55:52:335,-0.0505,0.6493,9.9942,0.0001,0.0033,9.8066,-0.0037,-0.0069,0.0075,-65.12,-91.62,71.31,147.67,-8.7,0.48
1811,48.864525,2.30972,91.08,1.64,8,87.95,15 / 18,192005,2020-01-04 11:55:52:434,0.5288,-0.6064,9.8834,-0.0006,-0.0028,9.8066,0.018,-0.0091,-0.0074,-65.06,-91.5,70.88,147.4,-8.67,0.46
1812,48.864525,2.30972,91.08,1.64,8,87.95,15 / 18,192105,2020-01-04 11:55:52:534,0.8453,-1.0147,9.7986,0.0047,-0.0009,9.8066,0.0193,0.0033,0.0007,-64.56,-91.06,71.69,147.46,-8.72,0.48
1813,48.864525,2.30972,91.08,1.64,8,87.95,15 / 18,192206,2020-01-04 11:55:52:635,0.5183,-0.4326,9.8356,0.0034,0.0005,9.8066,0.0108,0.0037,-0.0006,-64.81,-91.75,71.56,147.76,-8.78,0.53
1814,48.864525,2.30972,91.08,1.64,8,87.95,15 / 18,192305,2020-01-04 11:55:52:734,0.4796,-0.3497,9.7652,0.0038,-0.0018,9.8066,-0.0038,-0.0048,-0.0019,-64.5,-91.37,71.13,147.89,-8.8,0.55
1815,48.864525,2.30972,91.08,1.64,8,87.95,15 / 18,192405,2020-01-04 11:55:52:834,0.5865,-0.6759,9.9106,0.0002,0.0023,9.8066,-0.0035,0.0076,0.0027,-64.81,-91.56,71.44,147.73,-8.77,0.55
1816,48.864525,2.30972,91.08,1.64,8,87.95,15 / 18,192505,2020-01-04 11:55:52:934,0.4714,-0.4585,9.9156,-0.0006,0.0012,9.8066,0.0031,-0.0084,-0.002,-64.81,-91.75,71.88,147.77,-8.73,0.57
1817,48.864525,2.30972,91.08,1.64,8,87.95,15 / 18,192606,2020-01-04 11:55:53:035,0.4785,-0.5057,9.7751,-0.0016,0.0021,9.8066,-0.0019,0.002,-0.0003,-64.81,-92.12,72.0,147.78,-8.75,0.57
1818,48.864525,2.30972,91.08,1.64,8,87.95,14 / 18,192705,2020-01-04 11:55:53:134,0.6254,-0.5438,9.8233,0.0049,-0.0037,9.8066,0.0035,-0.0005,0.0027,-65.0,-91.75,71.0,147.77,-8.81,0.6
1819,48.864525,2.30972,91.08,1.64,8,87.95,14 / 18,192805,2020-01-04 11:55:53:234,0.4646,-0.5342,9.8212,-0.0008,0.0034,9.8066,-0.0041,-0.0043,0.0032,-64.81,-91.62,70.81,147.77,-8.76,0.63
1820,48.864525,2.30972,91.08,1.64,8,87.95,14 / 18,192906,2020-01-04 11:55:53:335,0.5002,-0.5656,9.7856,-0.0007,0.0026,9.8066,-0.0033,0.0025,0.0014,-64.56,-91.87,71.25,147.76,-8.73,0.63
1821,48.864525,2.30972,91.08,1.64,8,87.95,14 / 18,193006,2020-01-04 11:55:53:435,0.5281,-0.5186,9.9017,0.008,-0.008,9.8066,0.001,-0.0023,-0.0004,-64.31,-91.62,70.44,148.16,-8.81,0.66
1822,48.864525,2.30972,91.08,1.64,8,87.95,14 / 18,193106,2020-01-04 11:55:53:535,0.5506,-0.548,9.8038,0.0002,0.0025,9.8066,-0.0006,0.0022,-0.0006,-64.5,-91.81,70.63,148.22,-8.83,0.68
1823,48.864525,2.30972,91.08,1.64,8,87.95,14 / 18,193205,2020-01-04 11:55:53:634,0.4968,-0.4685,9.8377,0.0052,-0.0022,9.8066,-0.0001,0.0003,0.0055,-64.75,-91.94,70.69,147.86,-8.93,0.72
1824,48.864525,2.30972,91.08,1.64,8,87.95,14 / 18,193306,2020-01-04 11:55:53:735,0.4782,-0.5094,9.8462,0.0027,-0.0031,9.8066,-0.005,0.0056,-0.0038,-64.31,-92.87,70.75,148.52,-8.94,0.73
1825,48.864525,2.30972,91.08,1.64,8,87.95,14 / 18,193405,2020-01-04 11:55:53:834,0.503,-0.4845,9.8111,0.0085,-0.0062,9.8066,0.0001,0.0053,-0.0002,-64.75,-91.75,70.75,147.93,-9.07,0.78
1826,48.864525,2.30972,91.08,1.64,8,87.95,14 / 18,193506,2020-01-04 11:55:53:935,0.4272,-0.5002,9.8585,0.0078,-0.0072,9.8066,-0.0013,0.0026,-0.0009,-64.5,-91.94,70.69,148.37,-9.14,0.81
1827,48.864525,2.30972,91.08,1.64,8,87.95,14 / 18,193605,2020-01-04 11:55:54:034,0.4512,-0.5115,9.8268,0.0063,-0.0079,9.8066,-0.0001,-0.0008,0.0007,-64.37,-91.62,70.88,148.39,-9.2,0.82
1828,48.864525,2.30972,91.08,1.64,8,87.95,14 / 18,193705,2020-01-04 11:55:54:134,0.4313,-0.4774,9.8359,0.0031,-0.0039,9.8065,-0.0002,0.0012,0.0018,-64.19,-91.31,70.63,148.16,-9.27,0.83
1829,48.864525,2.30972,91.08,1.64,8,87.95,14 / 18,193805,2020-01-04 11:55:54:234,0.4886,-0.4831,9.8436,-0.0011,0.0029,9.8066,-0.0023,0.0023,0.0037,-64.19,-91.81,70.81,148.41,-9.29,0.83
1830,48.864525,2.30972,91.08,1.64,8,87.95,14 / 18,193906,2020-01-04 11:55:54:335,0.4548,-0.5055,9.8555,-0.0016,0.0008,9.8066,0.0023,-0.002,0.0016,-64.69,-92.31,71.13,148.0,-9.24,0.83
1831,48.864525,2.30972,91.08,1.64,8,87.95,14 / 18,194005,2020-01-04 11:55:54:434,0.4351,-0.5167,9.8259,-0.0001,0.0022,9.8066,0.0034,-0.0052,0.0026,-63.81,-91.62,71.19,148.4,-9.22,0.84
1832,48.864525,2.30972,91.08,1.64,8,87.95,14 / 18,194106,2020-01-04 11:55:54:535,0.4262,-0.5226,9.8426,-0.001,0.0029,9.8066,0.0028,-0.0078,-0.0001,-64.44,-91.87,71.13,148.39,-9.18,0.84
1833,48.864525,2.30972,91.08,1.64,8,87.95,14 / 18,194205,2020-01-04 11:55:54:634,0.3942,-0.4824,9.8273,0.0027,-0.0045,9.8066,-0.0008,0.0017,-0.0008,-63.94,-91.75,71.38,148.4,-9.22,0.83
1834,48.864525,2.30972,91.08,1.64,8,87.95,14 / 18,194306,2020-01-04 11:55:54:735,0.49,-0.5131,9.8365,0.0045,-0.0048,9.8066,-0.0002,0.0006,-0.0043,-64.69,-91.75,71.63,148.08,-9.36,0.85
1835,48.864525,2.30972,91.08,1.64,8,87.95,14 / 18,194405,2020-01-04 11:55:54:834,0.4098,-0.4887,9.8204,-0.0019,0.0013,9.8066,-0.0013,0.001,0.0016,-64.19,-92.0,71.19,148.44,-9.35,0.85
1836,48.864525,2.30972,91.08,1.64,8,87.95,14 / 18,194506,2020-01-04 11:55:54:935,0.4702,-0.4843,9.8381,-0.0012,0.0003,9.8066,-0.0011,0.0034,-0.0028,-64.37,-92.0,71.13,148.43,-9.33,0.84
1837,48.864525,2.30972,91.08,1.64,8,87.95,14 / 18,194605,2020-01-04 11:55:55:034,0.452,-0.4931,9.837,0.0042,-0.0009,9.8066,0.0021,0.0015,0.0001,-64.5,-91.75,70.94,148.47,-9.41,0.89
1838,48.864525,2.30972,91.08,1.64,8,87.95,Dec-16,194705,2020-01-04 11:55:55:134,0.4171,-0.47,9.8783,-0.0021,0.0001,9.8066,0.0006,-0.0037,-0.0023,-64.94,-91.81,71.69,148.14,-9.49,0.89
1839,48.864525,2.30972,91.08,1.64,8,87.95,Dec-16,194805,2020-01-04 11:55:55:234,0.4103,-0.5205,9.8482,-0.0005,0.0032,9.8066,0.0025,-0.0039,-0.0022,-64.75,-91.75,71.31,148.08,-9.47,0.87
1840,48.864525,2.30972,91.08,1.64,8,87.95,Dec-16,194905,2020-01-04 11:55:55:334,0.4302,-0.4823,9.8305,0.0017,-0.0039,9.8065,-0.0014,0.0011,-0.0003,-63.94,-91.75,71.38,148.48,-9.47,0.88
1841,48.864525,2.30972,91.08,1.64,8,87.95,Dec-16,195006,2020-01-04 11:55:55:435,0.4316,-0.4584,9.8149,-0.001,0.0015,9.8065,-0.0038,-0.0008,-0.001,-63.87,-91.69,71.13,148.49,-9.46,0.88
1842,48.864525,2.30972,91.08,1.64,8,87.95,Dec-16,195105,2020-01-04 11:55:55:534,0.418,-0.4377,9.7984,0.0043,-0.0043,9.8066,-0.0038,0.0047,-0.001,-64.37,-92.0,71.38,148.5,-9.52,0.89
1843,48.864525,2.30972,91.08,1.64,8,87.95,Dec-16,195206,2020-01-04 11:55:55:635,0.4779,-0.4763,9.8061,0.0063,-0.006,9.8066,-0.0005,-0.002,-0.0024,-64.25,-92.19,71.31,148.53,-9.53,0.93
1844,48.864525,2.30972,91.08,1.64,8,87.95,Dec-16,195305,2020-01-04 11:55:55:734,0.4012,-0.496,9.8426,-0.0002,0.0012,9.8066,0.0012,0.0066,-0.0005,-64.44,-92.69,70.75,148.78,-9.55,0.93
1845,48.864525,2.30972,91.08,1.64,8,87.95,Dec-16,195406,2020-01-04 11:55:55:835,0.4168,-0.4545,9.7944,0.0043,-0.0034,9.8066,0.0013,-0.0029,-0.0015,-64.12,-91.87,70.63,148.54,-9.58,0.93
1846,48.864525,2.30972,91.08,1.64,8,87.95,Dec-16,195506,2020-01-04 11:55:55:935,0.3867,-0.4822,9.8571,-0.0011,0.0,9.8066,0.001,-0.007,-0.0002,-64.44,-91.81,71.38,148.54,-9.6,0.93
1847,48.864525,2.30972,91.08,1.64,8,87.95,Dec-16,195605,2020-01-04 11:55:56:034,0.4022,-0.4602,9.8608,-0.0012,-0.0011,9.8066,-0.0024,-0.0029,0.0005,-64.19,-92.44,71.06,148.55,-9.63,0.93
1848,48.864525,2.30972,91.08,1.64,8,87.95,13 / 18,195705,2020-01-04 11:55:56:134,0.3934,-0.4311,9.8495,0.0,-0.0002,9.8066,-0.0002,0.0041,-0.0004,-64.69,-92.25,71.38,148.15,-9.64,0.93
1849,48.864525,2.30972,91.08,1.64,8,87.95,13 / 18,195805,2020-01-04 11:55:56:234,0.3665,-0.4062,9.8602,-0.0033,-0.0023,9.8066,-0.0007,0.0046,-0.0017,-65.06,-92.06,71.0,148.16,-9.7,0.92
1850,48.864525,2.30972,91.08,1.64,8,87.95,13 / 18,195905,2020-01-04 11:55:56:334,0.411,-0.4351,9.8086,0.0023,-0.0008,9.8066,-0.0031,0.003,0.0001,-64.94,-92.06,71.31,148.17,-9.73,0.93
1851,48.864525,2.30972,91.08,1.64,8,87.95,13 / 18,196005,2020-01-04 11:55:56:434,0.4125,-0.4553,9.8386,-0.0002,-0.0004,9.8066,0.002,-0.0014,0.0005,-64.69,-91.81,70.94,148.18,-9.74,0.94
1852,48.864525,2.30972,91.08,1.64,8,87.95,13 / 18,196106,2020-01-04 11:55:56:535,0.3642,-0.3862,9.807,0.0054,-0.0062,9.8066,0.0004,-0.0023,-0.0006,-64.81,-91.5,71.25,147.96,-9.83,0.94
1853,48.864525,2.30972,91.08,1.64,8,87.95,13 / 18,196205,2020-01-04 11:55:56:634,0.3694,-0.4043,9.8634,-0.0008,-0.0004,9.8066,0.0004,-0.0008,-0.001,-64.94,-91.81,70.88,148.21,-9.86,0.95
1854,48.864525,2.30972,91.08,1.64,8,87.95,13 / 18,196305,2020-01-04 11:55:56:734,0.3178,-0.4141,9.8394,0.0026,-0.0004,9.8066,0.0033,-0.0041,-0.0013,-64.12,-91.56,71.06,148.63,-9.88,0.96
1855,48.864525,2.30972,91.08,1.64,8,87.95,13 / 18,196405,2020-01-04 11:55:56:834,0.4014,-0.4033,9.8364,-0.0008,-0.0011,9.8066,0.0025,0.004,0.0009,-64.81,-91.69,71.13,148.22,-9.89,0.95
1856,48.864525,2.30972,91.08,1.64,8,87.95,13 / 18,196506,2020-01-04 11:55:56:935,0.365,-0.4043,9.7942,0.0029,-0.0057,9.8066,-0.0035,-0.0001,-0.0008,-64.44,-91.56,71.25,148.64,-9.96,0.95
1857,48.864525,2.30972,91.08,1.64,8,87.95,13 / 18,196606,2020-01-04 11:55:57:035,0.45,-0.3877,9.8481,0.0018,-0.0019,9.8066,0.0014,-0.0063,-0.0061,-64.44,-92.25,71.38,148.65,-9.97,0.97
1858,48.864525,2.30972,91.08,1.64,8,87.95,14 / 17,196705,2020-01-04 11:55:57:134,0.362,-0.3588,9.8201,0.0002,-0.0001,9.8066,0.0038,-0.005,0.0013,-64.62,-91.69,70.31,148.21,-9.99,0.96
1859,48.864525,2.30972,91.08,1.64,8,87.95,14 / 17,196806,2020-01-04 11:55:57:235,0.3328,-0.3931,9.8789,0.0019,-0.0038,9.8066,0.0009,-0.0046,-0.003,-64.81,-92.0,71.13,148.26,-10.03,0.96
1860,48.864525,2.30972,91.08,1.64,8,87.95,14 / 17,196905,2020-01-04 11:55:57:334,0.381,-0.3842,9.8381,0.0018,-0.0045,9.8066,0.0013,-0.0042,0.0034,-64.25,-91.62,70.88,148.67,-10.09,0.94
1861,48.864525,2.30972,91.08,1.64,8,87.95,14 / 17,197006,2020-01-04 11:55:57:435,0.3571,-0.3945,9.8214,0.0022,-0.0033,9.8066,0.0013,-0.0008,0.003,-65.0,-91.56,70.88,148.27,-10.13,0.93
1862,48.864525,2.30972,91.08,1.64,8,87.95,14 / 17,197105,2020-01-04 11:55:57:534,0.3611,-0.3401,9.8438,0.0002,-0.0009,9.8066,0.0012,0.0058,0.0024,-64.75,-91.75,70.56,148.27,-10.14,0.92
1863,48.864525,2.30972,91.08,1.64,8,87.95,14 / 17,197205,2020-01-04 11:55:57:634,0.3784,-0.3766,9.8717,0.0012,-0.0003,9.8066,0.0,-0.0003,0.0029,-64.87,-91.56,70.94,148.28,-10.17,0.93
1864,48.864525,2.30972,91.08,1.64,8,87.95,14 / 17,197305,2020-01-04 11:55:57:734,0.373,-0.3732,9.8877,-0.0003,-0.0029,9.8066,-0.0068,0.001,0.002,-64.5,-91.75,71.38,148.68,-10.2,0.92
1865,48.864525,2.30972,91.08,1.64,8,87.95,14 / 17,197406,2020-01-04 11:55:57:835,0.3569,-0.3204,9.8518,0.0015,0.0004,9.8066,0.0009,0.0043,0.0016,-64.69,-91.44,71.25,148.03,-10.21,0.91
1866,48.864525,2.30972,91.08,1.64,8,87.95,14 / 17,197505,2020-01-04 11:55:57:934,0.3868,-0.3698,9.8261,0.0012,-0.0008,9.8066,0.0001,-0.0008,-0.0012,-64.31,-91.25,71.0,148.44,-10.23,0.92
1867,48.864525,2.30972,91.08,1.64,8,87.95,14 / 17,197605,2020-01-04 11:55:58:034,0.3092,-0.339,9.8166,0.0005,0.0008,9.8066,-0.0022,0.0025,0.0048,-64.19,-91.81,71.13,148.69,-10.27,0.91
1868,48.864525,2.30972,91.08,1.64,8,87.95,14 / 18,197707,2020-01-04 11:55:58:136,0.282,-0.3312,9.8037,0.0014,-0.0027,9.8066,0.0013,0.0013,-0.0001,-64.5,-91.5,71.31,148.45,-10.29,0.91
1869,48.864525,2.30972,91.08,1.64,8,87.95,14 / 18,197806,2020-01-04 11:55:58:235,0.3545,-0.3614,9.8429,-0.0006,-0.0029,9.8066,0.0015,-0.0042,0.0005,-64.69,-91.75,71.19,148.3,-10.35,0.89
1870,48.864525,2.30972,91.08,1.64,8,87.95,14 / 18,197905,2020-01-04 11:55:58:334,0.3527,-0.344,9.7926,0.0018,-0.0037,9.8066,0.0005,-0.0028,0.0027,-64.44,-91.19,71.13,148.46,-10.38,0.88
1871,48.864525,2.30972,91.08,1.64,8,87.95,14 / 18,198006,2020-01-04 11:55:58:435,0.3721,-0.3556,9.8704,0.0006,-0.0002,9.8066,-0.0019,0.0033,-0.0024,-64.56,-92.06,70.81,148.3,-10.41,0.87
1872,48.864525,2.30972,91.08,1.64,8,87.95,14 / 18,198106,2020-01-04 11:55:58:535,0.3387,-0.279,9.9055,0.0024,0.0011,9.8065,0.0007,0.003,-0.0029,-65.12,-91.87,71.19,148.32,-10.43,0.89
1873,48.864525,2.30972,91.08,1.64,8,87.95,14 / 18,198205,2020-01-04 11:55:58:634,0.3199,-0.3339,9.8354,-0.0007,-0.0023,9.8066,0.0025,-0.0012,-0.0008,-64.87,-92.37,70.88,148.33,-10.45,0.9
1874,48.864525,2.30972,91.08,1.64,8,87.95,14 / 18,198305,2020-01-04 11:55:58:734,0.3441,-0.3405,9.8783,0.0017,-0.0048,9.8066,-0.0015,-0.001,-0.0016,-64.62,-92.06,71.19,148.33,-10.5,0.89
1875,48.864525,2.30972,91.08,1.64,8,87.95,14 / 18,198406,2020-01-04 11:55:58:835,0.2751,-0.305,9.817,-0.0002,-0.0036,9.8066,-0.0014,0.0042,0.0025,-64.37,-91.94,71.5,148.79,-10.52,0.89
1876,48.864525,2.30972,91.08,1.64,8,87.95,14 / 18,198506,2020-01-04 11:55:58:935,0.3199,-0.3001,9.8457,0.001,-0.0024,9.8066,0.0004,0.0036,0.0002,-64.5,-91.56,71.13,148.74,-10.55,0.88
1877,48.864525,2.30972,91.08,1.64,8,87.95,14 / 18,198605,2020-01-04 11:55:59:034,0.3161,-0.3079,9.9045,0.0015,-0.0009,9.8066,-0.0005,-0.0008,-0.0014,-64.5,-92.06,71.56,148.79,-10.57,0.87
1878,48.864525,2.30972,91.08,1.64,8,87.95,14 / 18,198706,2020-01-04 11:55:59:135,0.2752,-0.2881,9.8573,0.002,-0.0001,9.8066,0.0002,0.0017,0.0001,-64.44,-92.12,71.19,148.76,-10.6,0.89
1879,48.864525,2.30972,91.08,1.64,8,87.95,14 / 18,198806,2020-01-04 11:55:59:235,0.3252,-0.2992,9.8915,0.0021,-0.0011,9.8065,-0.0007,-0.0013,0.0001,-63.75,-91.75,71.56,148.83,-10.66,0.9
1880,48.864525,2.30972,91.08,1.64,8,87.95,14 / 18,198905,2020-01-04 11:55:59:334,0.3304,-0.3018,9.8396,0.0006,-0.0021,9.8066,0.002,-0.0068,0.0032,-64.0,-92.06,71.06,148.77,-10.68,0.88
1881,48.864525,2.30972,91.08,1.64,8,87.95,14 / 18,199006,2020-01-04 11:55:59:435,0.2835,-0.2906,9.8013,0.0018,-0.0034,9.8066,-0.0007,0.0011,-0.0013,-64.75,-92.0,71.19,148.38,-10.71,0.88
1882,48.864525,2.30972,91.08,1.64,8,87.95,14 / 18,199105,2020-01-04 11:55:59:534,0.3098,-0.2494,9.8782,-0.0002,-0.0013,9.8066,-0.0007,-0.0023,-0.0006,-64.19,-91.62,71.5,148.84,-10.75,0.88
1883,48.864525,2.30972,91.08,1.64,8,87.95,14 / 18,199206,2020-01-04 11:55:59:635,0.2756,-0.2411,9.8342,0.0022,-0.0042,9.8066,-0.0014,0.0005,0.0021,-64.56,-91.75,71.31,148.39,-10.8,0.87
1884,48.864525,2.30972,91.08,1.64,8,87.95,14 / 18,199305,2020-01-04 11:55:59:734,0.285,-0.2799,9.8769,0.0026,-0.0014,9.8066,0.0026,-0.0071,-0.0023,-63.69,-91.81,71.5,148.86,-10.84,0.88
1885,48.864525,2.30972,91.08,1.64,8,87.95,14 / 18,199407,2020-01-04 11:55:59:836,0.2803,-0.2338,9.8625,0.0014,-0.003,9.8066,0.0005,-0.0014,-0.0021,-64.69,-92.06,71.06,148.41,-10.88,0.88
1886,48.864525,2.30972,91.08,1.64,8,87.95,14 / 18,199506,2020-01-04 11:55:59:935,0.301,-0.2426,9.8582,0.0028,-0.0014,9.8066,0.0002,0.0022,0.0014,-65.06,-92.25,71.25,148.43,-10.93,0.88
1887,48.864525,2.30972,91.08,1.64,8,87.95,14 / 18,199606,2020-01-04 11:56:00:035,0.2527,-0.2037,9.8517,0.0041,0.0,9.8066,-0.0038,0.0065,0.0001,-64.94,-92.0,71.5,148.51,-10.98,0.92
1888,48.864525,2.30972,91.08,1.64,8,87.95,14 / 16,199706,2020-01-04 11:56:00:135,0.2692,-0.2838,9.852,0.0029,-0.0002,9.8066,-0.0008,-0.0025,-0.0021,-64.81,-91.81,70.88,148.48,-11.0,0.95
1889,48.864525,2.30972,91.08,1.64,8,87.95,14 / 16,199805,2020-01-04 11:56:00:234,0.2481,-0.2284,9.8284,0.0028,-0.0027,9.8066,-0.0011,-0.001,0.0011,-64.94,-92.31,71.31,148.5,-11.05,0.96
1890,48.864525,2.30972,91.08,1.64,8,87.95,14 / 16,199906,2020-01-04 11:56:00:335,0.2624,-0.2101,9.8752,0.0031,-0.0018,9.8066,-0.0064,0.0015,-0.0014,-64.19,-92.44,71.31,148.92,-11.09,0.97
1891,48.864525,2.30972,91.08,1.64,8,87.95,14 / 16,200005,2020-01-04 11:56:00:434,0.2377,-0.2375,9.8718,0.0039,-0.0032,9.8066,0.0,-0.0007,-0.0007,-64.81,-92.0,71.44,148.52,-11.11,0.97
1892,48.864525,2.30972,91.08,1.64,8,87.95,14 / 16,200106,2020-01-04 11:56:00:535,0.2747,-0.2181,9.8384,0.0021,-0.0021,9.8066,-0.0021,0.0019,0.0029,-64.19,-91.19,72.13,148.75,-11.17,0.98
1893,48.864525,2.30972,91.08,1.64,8,87.95,14 / 16,200205,2020-01-04 11:56:00:634,0.2415,-0.1863,9.8663,0.0005,-0.0017,9.8066,-0.0001,0.004,-0.0001,-64.62,-91.5,71.25,148.31,-11.21,0.99
1894,48.864525,2.30972,91.08,1.64,8,87.95,14 / 16,200306,2020-01-04 11:56:00:735,0.242,-0.2229,9.8532,0.0039,-0.0039,9.8066,0.0023,-0.0076,-0.002,-64.81,-92.25,71.0,148.57,-11.26,1.01
1895,48.864525,2.30972,91.08,1.64,8,87.95,14 / 16,200405,2020-01-04 11:56:00:834,0.2458,-0.2313,9.8508,0.0033,-0.0029,9.8066,0.0007,-0.0017,-0.0012,-64.5,-92.06,71.31,148.98,-11.29,1.01
1896,48.864525,2.30972,91.08,1.64,8,87.95,14 / 16,200506,2020-01-04 11:56:00:935,0.2266,-0.2344,9.8688,0.0023,-0.0009,9.8066,0.0021,0.0003,-0.0011,-64.5,-92.0,70.94,149.0,-11.33,1.03
1897,48.864525,2.30972,91.08,1.64,8,87.95,14 / 16,200605,2020-01-04 11:56:01:034,0.2446,-0.1968,9.8203,0.0019,-0.0036,9.8066,-0.0021,-0.0018,-0.0012,-64.19,-91.69,71.38,149.02,-11.39,1.04
1898,48.864525,2.30972,91.08,1.64,8,87.95,13 / 16,200705,2020-01-04 11:56:01:134,0.2181,-0.1874,9.8107,0.0049,-0.0014,9.8066,-0.0008,0.004,0.0008,-65.12,-91.44,72.0,148.46,-11.43,1.06
1899,48.864525,2.30972,91.08,1.64,8,87.95,13 / 16,200806,2020-01-04 11:56:01:235,0.246,-0.1874,9.8701,0.0009,-0.0026,9.8066,-0.0014,0.0002,-0.0004,-64.62,-92.31,71.5,148.71,-11.47,1.06
1900,48.864525,2.30972,91.08,1.64,8,87.95,13 / 16,200905,2020-01-04 11:56:01:334,0.2424,-0.2105,9.8241,0.0022,-0.0009,9.8066,0.0026,0.0004,-0.0006,-64.44,-91.69,71.56,149.12,-11.5,1.08
1901,48.864525,2.30972,91.08,1.64,8,87.95,13 / 16,201005,2020-01-04 11:56:01:434,0.2079,-0.1434,9.8222,0.0016,-0.0001,9.8066,-0.0021,0.0062,-0.0019,-64.75,-91.81,70.88,148.68,-11.54,1.09
1902,48.864525,2.30972,91.08,1.64,8,87.95,13 / 16,201106,2020-01-04 11:56:01:535,0.1605,-0.1552,9.8921,0.0017,-0.0033,9.8065,-0.0008,0.0012,0.0011,-64.81,-91.62,70.63,148.7,-11.57,1.1
