,GPS LATITUDE (degrees), GPS LONGITUDE (degrees), GPS ALTITUDE (m), GPS SPEED (Kmh), GPS ACCURACY (m), GPS ORIENTATION (Â°),GPS SATELLITES IN RANGE, TIME SINCE START (ms), DATE (YYYY-MO-DD HH-MI-SS_SSS), ACCELEROMETER X (m/s²) , ACCELEROMETER Y (m/s²), ACCELEROMETER Z (m/s²), GRAVITY X (m/s²), GRAVITY Y (m/s²), GRAVITY Z (m/s²), GYROSCOPE Yaw (rad/s), GYROSCOPE Pitch (rad/s), GYROSCOPE Roll (rad/s), MAGNETIC FIELD X (Î¼T), MAGNETIC FIELD Y (Î¼T), MAGNETIC FIELD Z (Î¼T), ORIENTATION (Yaw) (Â°), ORIENTATION (Pitch) (Â°), ORIENTATION (Roll ) (Â°)
49984,52.301495,-1.581802,112,23.41,9.0,54.6,17 / 24,4998442,2019-08-31 11:13:38:521,-0.6671,-0.4266,9.2158,0.0272,0.0261,9.8066,0.0223,0.058,0.0004,8.5,-20.08,-20.61,65.05,-1.94,2.24
49985,52.301495,-1.581802,112,23.41,9.0,54.6,17 / 24,4998541,2019-08-31 11:13:38:620,0.5089,0.3466,9.2988,0.0026,-0.0256,9.8066,0.0223,0.058,0.0004,8.71,-20.07,-20.53,64.92,-2.15,2.32
49986,52.301495,-1.581802,112,23.41,9.0,54.6,17 / 24,4998641,2019-08-31 11:13:38:720,0.1564,-0.3622,10.241,-0.0008,-0.0236,9.8066,0.0138,0.0016,0.0047,8.89,-20.07,-20.45,64.92,-2.15,2.32
49987,52.301495,-1.581802,112,23.41,9.0,54.6,17 / 24,4998742,2019-08-31 11:13:38:821,-0.1502,-0.2671,8.6465,0.0099,-0.0101,9.8066,0.0063,0.0133,0.0111,9.56,-19.38,-20.81,61.66,-2.02,2.38
49988,52.301495,-1.581802,112,23.41,9.0,54.6,17 / 24,4998841,2019-08-31 11:13:38:920,0.0933,-0.1627,9.7583,0.0071,0.0028,9.8066,0.0202,0.0186,0.0058,9.56,-19.38,-20.81,61.66,-2.02,2.38
49989,52.301495,-1.581802,112,23.41,9.0,54.6,17 / 24,4998941,2019-08-31 11:13:39:020,0.0563,-0.3103,10.3612,0.0032,0.01,9.8066,-0.0033,0.0357,0.0004,8.49,-20.04,-20.65,67.32,-2.06,2.4
49990,52.301605,-1.581522,110,23.39,9.0,54.1,17 / 24,4999041,2019-08-31 11:13:39:120,-0.0315,-0.2997,10.2776,0.0148,0.0424,9.8065,-0.0054,0.0346,0.0121,8.69,-20.03,-20.57,64.82,-2.32,2.39
49991,52.301605,-1.581522,110,23.39,9.0,54.1,17 / 24,4999141,2019-08-31 11:13:39:220,0.256,-0.0678,8.9791,-0.0005,0.0213,9.8066,-0.0064,0.0069,0.0058,8.69,-20.03,-20.57,64.82,-2.32,2.39
49992,52.301605,-1.581522,110,23.39,9.0,54.1,17 / 24,4999241,2019-08-31 11:13:39:320,-0.2387,-0.0795,9.5186,-0.0209,0.0001,9.8066,-0.0064,0.0069,0.0058,8.77,-19.8,-20.76,64.71,-2.43,2.33
49993,52.301605,-1.581522,110,23.39,9.0,54.1,17 / 24,4999341,2019-08-31 11:13:39:420,0.1299,0.2015,9.3676,-0.0189,0.0087,9.8066,0.0021,-0.0368,0.009,9.15,-19.97,-20.43,64.71,-2.43,2.33
49994,52.301605,-1.581522,110,23.39,9.0,54.1,17 / 24,4999441,2019-08-31 11:13:39:520,-0.2847,-0.191,9.9337,-0.0163,-0.002,9.8066,0.0053,-0.0038,0.0143,9.1,-19.45,-20.95,63.61,-2.38,2.25
49995,52.301605,-1.581522,110,23.39,9.0,54.1,17 / 24,4999542,2019-08-31 11:13:39:621,-0.0278,-0.1066,7.9535,0.0062,-0.0175,9.8066,0.0202,0.0229,0.0058,8.67,-19.58,-21.01,64.79,-2.3,2.28
49996,52.301605,-1.581522,110,23.39,9.0,54.1,17 / 24,4999641,2019-08-31 11:13:39:720,-0.0122,-0.3407,10.6194,0.005,-0.0179,9.8066,0.0138,0.0303,0.0196,8.67,-19.58,-21.01,64.79,-2.3,2.28
49997,52.301605,-1.581522,110,23.39,9.0,54.1,17 / 24,4999741,2019-08-31 11:13:39:820,-0.4478,-0.0902,10.6257,0.0043,0.0335,9.8066,-0.0288,0.058,0.0249,9.37,-19.89,-20.41,64.93,-2.21,2.35
49998,52.301605,-1.581522,110,23.39,9.0,54.1,17 / 24,4999841,2019-08-31 11:13:39:920,0.0328,0.252,12.1836,0.0409,0.0307,9.8065,0.0809,0.0708,0.0271,8.67,-19.58,-21.01,64.73,-2.48,2.49
49999,52.301605,-1.581522,110,23.39,9.0,54.1,17 / 24,4999941,2019-08-31 11:13:40:020,0.0321,0.8989,9.9724,0.0578,-0.0003,9.8065,-0.0246,0.0303,0.0356,8.67,-19.58,-21.01,64.73,-2.48,2.49
50000,52.301727,-1.581244,110,23.46,9.0,53.4,17 / 24,5000041,2019-08-31 11:13:40:120,-0.1282,-0.0832,8.7391,0.0125,0.0201,9.8066,-0.0246,0.0303,0.0356,9.12,-19.48,-20.91,63.65,-2.62,2.8
50001,52.301727,-1.581244,110,23.46,9.0,53.4,17 / 24,5000141,2019-08-31 11:13:40:220,0.3395,-0.4206,8.7108,0.0122,0.007,9.8066,-0.0182,-0.0581,0.0686,9.34,-19.46,-20.84,63.62,-2.69,2.85
50002,52.301727,-1.581244,110,23.46,9.0,53.4,17 / 24,5000240,2019-08-31 11:13:40:319,-0.4534,-0.5621,9.5276,-0.0056,-0.0478,9.8065,0.0106,-0.0229,0.0004,9.68,-19.64,-20.51,63.62,-2.69,2.85
50003,52.301727,-1.581244,110,23.46,9.0,53.4,17 / 24,5000341,2019-08-31 11:13:40:420,0.2549,0.1256,10.059,-0.0436,-0.076,9.8063,-0.0341,0.0165,0.0164,9.79,-19.35,-20.73,61.74,-2.18,2.81
50004,52.301727,-1.581244,110,23.46,9.0,53.4,17 / 24,5000441,2019-08-31 11:13:40:520,-0.2738,-0.1291,9.0636,-0.0206,0.0125,9.8066,-0.0182,-0.0421,0.0132,9.79,-19.35,-20.73,61.74,-2.18,2.81
50005,52.301727,-1.581244,110,23.46,9.0,53.4,17 / 24,5000542,2019-08-31 11:13:40:621,0.1916,0.1507,8.7631,-0.0094,-0.0071,9.8066,-0.0203,0.0175,0.0143,9.56,-19.38,-20.81,61.67,-2.19,2.67
50006,52.301727,-1.581244,110,23.46,9.0,53.4,17 / 24,5000641,2019-08-31 11:13:40:720,-0.3103,-0.1321,9.6753,-0.0112,0.0262,9.8066,0.0298,0.0484,0.0207,9.56,-19.38,-20.81,61.67,-2.19,2.67
50007,52.301727,-1.581244,110,23.46,9.0,53.4,17 / 24,5000741,2019-08-31 11:13:40:820,0.0783,0.1965,11.5306,0.0327,0.0358,9.8065,0.0287,0.0229,0.0121,9.56,-19.38,-20.81,61.54,-2.29,2.54
50008,52.301727,-1.581244,110,23.46,9.0,53.4,17 / 24,5000841,2019-08-31 11:13:40:920,0.1492,0.0626,10.9583,0.0456,0.0324,9.8065,0.0287,0.0229,0.0121,9.21,-19.2,-21.13,63.61,-2.56,2.61
50009,52.301727,-1.581244,110,23.46,9.0,53.4,17 / 24,5000942,2019-08-31 11:13:41:021,0.1537,-0.0031,8.3938,0.0408,0.0159,9.8066,-0.016,-0.0911,0.0207,9.34,-19.46,-20.84,63.61,-2.56,2.61
50010,52.301853,-1.581,109,23.53,9.0,52.8,17 / 24,5001041,2019-08-31 11:13:41:120,0.5192,0.0789,9.2719,0.0043,-0.0297,9.8066,-0.048,-0.0986,0.0143,9.34,-19.46,-20.84,63.61,-2.56,2.61
50011,52.301853,-1.581,109,23.53,9.0,52.8,17 / 24,5001141,2019-08-31 11:13:41:220,0.4912,0.1871,10.2331,-0.0231,-0.0299,9.8066,0.0308,-0.0166,0.009,9.21,-19.2,-21.13,63.77,-2.42,2.71
50012,52.301853,-1.581,109,23.53,9.0,52.8,17 / 24,5001241,2019-08-31 11:13:41:320,0.0056,0.0561,10.2141,-0.0109,-0.0332,9.8066,-0.0171,-0.0144,0.0217,9.34,-19.46,-20.84,63.77,-2.42,2.71
50013,52.301853,-1.581,109,23.53,9.0,52.8,17 / 24,5001341,2019-08-31 11:13:41:420,0.2234,0.1943,10.5706,0.0125,0.003,9.8066,-0.0001,0.0175,0.0239,10.26,-19.25,-20.6,61.5,-2.47,2.77
50014,52.301853,-1.581,109,23.53,9.0,52.8,17 / 24,5001441,2019-08-31 11:13:41:520,-1.1448,-0.2241,8.3353,0.0128,-0.0309,9.8066,0.0564,0.0836,-0.0443,10.14,-19.02,-20.87,61.5,-2.47,2.77
50015,52.301853,-1.581,109,23.53,9.0,52.8,17 / 24,5001541,2019-08-31 11:13:41:620,0.2819,-0.8118,9.3739,0.0245,-0.0096,9.8066,0.0021,0.0889,0.0548,10.14,-19.02,-20.87,61.5,-2.47,2.77
50016,52.301853,-1.581,109,23.53,9.0,52.8,17 / 24,5001642,2019-08-31 11:13:41:721,-0.402,-0.4905,9.8875,0.0311,0.0156,9.8066,0.0021,0.0889,0.0548,9.68,-19.66,-20.49,62.75,-2.49,2.92
50017,52.301853,-1.581,109,23.53,9.0,52.8,17 / 24,5001741,2019-08-31 11:13:41:820,-0.2497,-0.2321,10.177,0.0548,-0.0014,9.8065,0.0394,-0.0219,0.0271,10.01,-19.28,-20.69,61.58,-2.63,3.21
50018,52.301853,-1.581,109,23.53,9.0,52.8,17 / 24,5001841,2019-08-31 11:13:41:920,-0.3991,-0.1846,8.7235,-0.0036,-0.0197,9.8066,-0.0352,-0.0027,0.0217,10.71,-19.13,-20.48,59.55,-2.52,3.25
50019,52.301853,-1.581,109,23.53,9.0,52.8,17 / 24,5001941,2019-08-31 11:13:42:020,-0.4964,-0.4925,9.2703,-0.0105,0.0096,9.8066,0.0244,0.0175,0.0196,10.71,-19.13,-20.48,59.55,-2.52,3.25
50020,52.301983,-1.580724,108,23.72,10.0,52.2,17 / 24,5002041,2019-08-31 11:13:42:120,0.0821,0.0997,9.2695,0.0148,-0.0066,9.8066,0.0212,-0.0134,-0.0092,10.14,-19.55,-20.37,62.81,-2.53,3.17
50021,52.301983,-1.580724,108,23.72,10.0,52.2,17 / 24,5002142,2019-08-31 11:13:42:221,-0.1041,-0.3763,8.814,0.0161,-0.018,9.8066,-0.0171,-0.024,0.0356,9.87,-19.02,-20.99,62.81,-2.53,3.17
50022,52.301983,-1.580724,108,23.72,10.0,52.2,17 / 24,5002242,2019-08-31 11:13:42:321,-0.5784,-0.0607,9.5743,0.0092,-0.0054,9.8066,0.0191,0.0676,0.0036,10.31,-18.92,-20.88,61.66,-2.53,3.23
50023,52.301983,-1.580724,108,23.72,10.0,52.2,17 / 24,5002341,2019-08-31 11:13:42:420,-0.1052,-0.0029,8.7568,-0.0029,0.0248,9.8066,-0.0022,0.0026,0.0121,9.74,-18.76,-21.29,61.54,-2.65,3.14
50024,52.301983,-1.580724,108,23.72,10.0,52.2,17 / 24,5002441,2019-08-31 11:13:42:520,0.0606,0.3323,10.5077,-0.0148,-0.0056,9.8066,-0.0022,0.0026,0.0121,9.74,-18.76,-21.29,61.54,-2.65,3.14
50025,52.301983,-1.580724,108,23.72,10.0,52.2,17 / 24,5002541,2019-08-31 11:13:42:620,0.6736,-0.2426,10.1663,-0.0296,-0.0036,9.8066,-0.0182,-0.0624,0.0164,10.29,-18.88,-20.92,61.56,-2.58,3.08
50026,52.301983,-1.580724,108,23.72,10.0,52.2,17 / 24,5002640,2019-08-31 11:13:42:719,0.2623,0.0503,10.2528,-0.0055,0.0079,9.8066,-0.0533,0.0431,0.0207,9.53,-19.35,-20.85,61.57,-2.48,2.94
50027,52.301983,-1.580724,108,23.72,10.0,52.2,17 / 24,5002741,2019-08-31 11:13:42:820,0.6724,0.3381,10.5502,-0.0321,0.0374,9.8065,0.0489,0.0388,-0.0092,9.53,-19.35,-20.85,61.57,-2.48,2.94
50028,52.301983,-1.580724,108,23.72,10.0,52.2,17 / 24,5002841,2019-08-31 11:13:42:920,-0.5033,-0.2291,11.721,0.0193,0.0165,9.8066,-0.0086,-0.0283,0.0207,9.75,-19.28,-20.81,61.37,-2.58,2.67
50029,52.301983,-1.580724,108,23.72,10.0,52.2,17 / 24,5002941,2019-08-31 11:13:43:020,-1.0106,-0.2949,9.2152,0.0204,0.0317,9.8066,0.0255,0.0506,-0.0145,9.86,-19.5,-20.55,62.38,-2.8,2.69
50030,52.302116,-1.58045,108,23.84,10.0,51.3,17 / 24,5003042,2019-08-31 11:13:43:121,0.3027,-0.0882,8.3881,-0.0011,0.0207,9.8066,-0.0171,0.0197,0.0473,9.97,-19.21,-20.78,61.11,-2.9,2.63
50031,52.302116,-1.58045,108,23.84,10.0,51.3,17 / 24,5003141,2019-08-31 11:13:43:220,-0.0219,-0.1384,10.0854,0.0056,0.0021,9.8066,-0.0246,-0.0911,0.0164,9.97,-19.21,-20.78,61.11,-2.9,2.63
50032,52.302116,-1.58045,108,23.84,10.0,51.3,17 / 24,5003241,2019-08-31 11:13:43:320,-0.2731,-0.2762,9.4671,-0.0062,-0.0197,9.8066,-0.0246,-0.0911,0.0164,9.83,-18.95,-21.08,61.1,-2.93,2.65
50033,52.302116,-1.58045,108,23.84,10.0,51.3,17 / 24,5003341,2019-08-31 11:13:43:420,-0.1385,-0.2567,9.6913,-0.0115,-0.0574,9.8065,0.0053,-0.0421,0.0036,10.41,-19.1,-20.66,61.1,-2.93,2.65
50034,52.302116,-1.58045,108,23.84,10.0,51.3,17 / 24,5003441,2019-08-31 11:13:43:520,-0.1243,-0.3805,9.5251,-0.0051,0.0112,9.8066,-0.0118,0.0442,0.0185,9.52,-19.31,-20.89,61.39,-2.6,2.75
50035,52.302116,-1.58045,108,23.84,10.0,51.3,17 / 24,5003541,2019-08-31 11:13:43:620,0.1401,0.2722,9.6187,-0.0031,0.0196,9.8066,-0.0064,0.0101,0.0217,9.52,-19.31,-20.89,61.39,-2.6,2.75
50036,52.302116,-1.58045,108,23.84,10.0,51.3,17 / 24,5003641,2019-08-31 11:13:43:720,-0.5018,-0.5159,9.3837,0.0167,0.0047,9.8066,0.0181,-0.0112,0.0068,10.27,-18.84,-20.96,61.29,-2.7,2.68
50037,52.302116,-1.58045,108,23.84,10.0,51.3,17 / 24,5003741,2019-08-31 11:13:43:820,-0.194,0.2794,9.3228,0.0223,0.0136,9.8066,0.0298,0.0165,0.0036,9.97,-19.21,-20.78,61.22,-2.83,2.76
50038,52.302116,-1.58045,108,23.84,10.0,51.3,17 / 24,5003840,2019-08-31 11:13:43:919,0.2891,0.0148,11.2874,0.0017,0.0006,9.8067,0.0053,-0.0283,-0.0006,10.08,-19.43,-20.51,61.22,-2.83,2.76
50039,52.302116,-1.58045,108,23.84,10.0,51.3,17 / 24,5003941,2019-08-31 11:13:44:020,-0.8581,-0.4568,9.8189,0.0108,-0.0029,9.8066,-0.0256,-0.1178,0.0494,10.08,-19.43,-20.51,61.22,-2.83,2.76
50040,52.302242,-1.580185,107,23.8,10.0,50.5,17 / 24,5004042,2019-08-31 11:13:44:121,-0.173,0.0579,11.313,-0.0176,-0.0194,9.8066,-0.0256,-0.1178,0.0494,10.08,-18.9,-21.0,61.24,-2.84,2.82
50041,52.302242,-1.580185,107,23.8,10.0,50.5,18 / 24,5004140,2019-08-31 11:13:44:219,0.4388,-0.3801,7.8616,-0.0119,0.0056,9.8066,-0.031,0.0804,0.0185,10.26,-18.32,-21.43,59.95,-2.84,2.74
50042,52.302242,-1.580185,107,23.8,10.0,50.5,18 / 24,5004241,2019-08-31 11:13:44:320,-0.0711,-0.251,10.5987,-0.0131,0.0042,9.8066,-0.0459,0.0058,0.0249,10.26,-18.32,-21.43,59.95,-2.84,2.74
50043,52.302242,-1.580185,107,23.8,10.0,50.5,18 / 24,5004341,2019-08-31 11:13:44:420,-0.9181,-0.4414,10.2009,0.0095,0.002,9.8066,0.0255,0.0346,0.0207,10.41,-19.1,-20.66,61.19,-2.82,2.67
50044,52.302242,-1.580185,107,23.8,10.0,50.5,18 / 24,5004441,2019-08-31 11:13:44:520,0.0261,-0.2493,9.1958,0.0209,0.0055,9.8066,0.0223,-0.008,-0.0049,10.1,-19.71,-20.24,61.19,-2.82,2.67
50045,52.302242,-1.580185,107,23.8,10.0,50.5,18 / 24,5004541,2019-08-31 11:13:44:620,-0.4348,-0.6575,10.5121,0.0255,0.0297,9.8066,-0.031,0.0367,0.0143,10.55,-19.05,-20.63,58.89,-3.05,2.71
50046,52.302242,-1.580185,107,23.8,10.0,50.5,18 / 24,5004641,2019-08-31 11:13:44:720,-0.7309,0.2271,7.6578,-0.0369,-0.0238,9.8066,-0.0182,0.0964,0.0281,10.32,-19.64,-20.19,62.39,-2.82,2.6
50047,52.302242,-1.580185,107,23.8,10.0,50.5,18 / 24,5004741,2019-08-31 11:13:44:820,0.9564,0.5054,8.3461,-0.001,0.0173,9.8066,0.0149,0.0857,-0.0145,10.32,-19.64,-20.19,62.39,-2.82,2.6
50048,52.302242,-1.580185,107,23.8,10.0,50.5,18 / 24,5004841,2019-08-31 11:13:44:920,0.2762,-0.1101,11.5117,0.0083,0.0363,9.8066,0.0149,0.0857,-0.0145,10.64,-19.81,-19.85,60.11,-3.03,2.54
50049,52.302242,-1.580185,107,23.8,10.0,50.5,18 / 24,5004941,2019-08-31 11:13:45:020,0.4248,0.3737,8.6842,0.0111,0.0013,9.8066,0.0106,0.0261,0.0281,10.64,-19.81,-19.85,60.11,-3.03,2.54
50050,52.30237,-1.579909,106,24.09,10.0,49.7,17 / 24,5005041,2019-08-31 11:13:45:120,0.6142,0.0299,9.3914,0.0074,-0.0155,9.8066,-0.0064,0.0442,0.0121,10.32,-20.15,-19.69,62.29,-2.97,2.63
50051,52.30237,-1.579909,106,24.09,10.0,49.7,17 / 24,5005141,2019-08-31 11:13:45:220,0.0244,0.1717,9.0418,-0.0073,-0.004,9.8066,-0.0437,0.0058,0.0398,10.32,-20.15,-19.69,62.29,-2.97,2.63
50052,52.30237,-1.579909,106,24.09,10.0,49.7,17 / 24,5005241,2019-08-31 11:13:45:320,-0.6528,-0.1883,9.7353,-0.0218,0.0055,9.8066,-0.016,-0.0688,0.0271,10.34,-20.18,-19.64,62.45,-2.75,2.64
50053,52.30237,-1.579909,106,24.09,10.0,49.7,17 / 24,5005341,2019-08-31 11:13:45:420,0.0873,-0.0526,9.3886,-0.013,0.0069,9.8066,-0.0384,-0.0112,0.0111,10.64,-19.81,-19.85,60.31,-2.72,2.52
50054,52.30237,-1.579909,106,24.09,10.0,49.7,17 / 24,5005442,2019-08-31 11:13:45:521,-0.7425,-0.1502,9.3139,-0.0317,0.0121,9.8066,-0.0118,0.0506,0.009,11.49,-19.57,-19.62,60.31,-2.72,2.52
50055,52.30237,-1.579909,106,24.09,10.0,49.7,17 / 24,5005541,2019-08-31 11:13:45:620,0.0561,-0.2771,9.9149,-0.045,0.0117,9.8065,0.0085,0.0037,0.0377,11.47,-19.81,-19.39,60.29,-2.65,2.25
50056,52.30237,-1.579909,106,24.09,10.0,49.7,17 / 24,5005641,2019-08-31 11:13:45:720,0.3223,0.5546,9.8233,0.0275,0.0149,9.8066,0.0085,0.0037,0.0377,11.47,-19.81,-19.39,60.29,-2.65,2.25
50057,52.30237,-1.579909,106,24.09,10.0,49.7,17 / 24,5005741,2019-08-31 11:13:45:820,1.2184,-0.3424,10.925,0.0319,0.0307,9.8066,0.0191,0.1294,0.0153,9.79,-20.92,-19.14,63.45,-2.81,2.35
50058,52.30237,-1.579909,106,24.09,10.0,49.7,17 / 24,5005841,2019-08-31 11:13:45:920,-0.5705,-0.262,10.3688,0.0329,0.0139,9.8066,0.0671,0.0452,-0.007,7.37,-21.08,-20.04,69.86,-3.05,2.44
50059,52.30237,-1.579909,106,24.09,10.0,49.7,17 / 24,5005940,2019-08-31 11:13:46:019,0.3388,-0.0076,8.7557,0.0272,0.0024,9.8066,0.0149,-0.0038,-0.0219,-5.49,-25.68,-14.51,99.04,-3.12,2.58
50060,52.302513,-1.579641,105,24.07,9.0,49.0,17 / 24,5006041,2019-08-31 11:13:46:120,-0.2003,-0.7055,9.2797,-0.0048,-0.0157,9.8066,0.0266,-0.0059,0.0377,-5.49,-25.68,-14.51,99.04,-3.12,2.58
50061,52.302513,-1.579641,105,24.07,9.0,49.0,17 / 24,5006141,2019-08-31 11:13:46:220,0.0462,0.0419,9.3482,0.0173,-0.0046,9.8066,-0.0011,-0.0283,0.009,4.22,-16.73,24.54,80.18,-2.8,2.67
50062,52.302513,-1.579641,105,24.07,9.0,49.0,17 / 24,5006241,2019-08-31 11:13:46:320,0.1964,-0.0075,8.961,-0.0022,0.0028,9.8067,-0.0682,0.0442,0.0207,24.79,-13.66,9.94,80.18,-2.8,2.67
50063,52.302513,-1.579641,105,24.07,9.0,49.0,17 / 24,5006341,2019-08-31 11:13:46:420,-0.3099,-0.2142,8.4769,-0.0628,0.0142,9.8064,-0.0395,-0.0016,0.0026,21.64,-13.92,-15.43,32.92,-2.81,2.65
50064,52.302513,-1.579641,105,24.07,9.0,49.0,17 / 24,5006441,2019-08-31 11:13:46:520,0.2263,-0.0464,9.0068,-0.1279,0.0145,9.8058,-0.0395,-0.0016,0.0026,14.05,-17.2,-20.17,50.28,-2.23,2.17
50065,52.302513,-1.579641,105,24.07,9.0,49.0,17 / 24,5006541,2019-08-31 11:13:46:620,-0.6322,0.0655,10.8781,0.0172,0.0268,9.8066,0.0138,0.0591,0.0111,12.9,-17.86,-20.36,53.63,-2.41,2.15
50066,52.302513,-1.579641,105,24.07,9.0,49.0,17 / 24,5006641,2019-08-31 11:13:46:720,0.2399,0.2163,10.4612,0.0685,0.0536,9.8063,0.0521,0.1081,0.0026,12.9,-17.86,-20.36,53.63,-2.41,2.15
50067,52.302513,-1.579641,105,24.07,9.0,49.0,17 / 24,5006741,2019-08-31 11:13:46:820,-0.5647,-0.8146,11.6421,0.1137,0.0766,9.8057,0.05,0.0985,-0.0028,11.42,-18.29,-20.86,57.33,-3.17,2.42
50068,52.302513,-1.579641,105,24.07,9.0,49.0,17 / 24,5006841,2019-08-31 11:13:46:920,0.2606,0.0116,10.2602,-0.0379,-0.0508,9.8064,-0.0022,-0.023,-0.0305,11.3,-18.6,-20.65,58.92,-2.8,2.39
50069,52.302513,-1.579641,105,24.07,9.0,49.0,17 / 24,5006941,2019-08-31 11:13:47:020,-0.2435,-0.0639,9.5122,-0.0225,-0.0223,9.8066,0.0063,0.0527,0.0335,11.3,-18.6,-20.65,58.92,-2.8,2.39
50070,52.302643,-1.579372,104,24.11,9.0,48.5,17 / 24,5007042,2019-08-31 11:13:47:121,0.1671,-0.1144,7.4857,-0.0119,-0.0183,9.8066,0.0234,0.0452,0.0239,11.14,-19.19,-20.18,59.05,-2.67,2.39
50071,52.302643,-1.579372,104,24.11,9.0,48.5,17 / 24,5007142,2019-08-31 11:13:47:221,-0.1095,-0.4883,10.5385,0.0265,0.0092,9.8066,-0.0352,-0.106,0.059,11.02,-18.97,-20.46,59.05,-2.67,2.39
50072,52.302643,-1.579372,104,24.11,9.0,48.5,17 / 24,5007241,2019-08-31 11:13:47:320,0.0963,-0.201,8.4681,-0.0107,-0.0365,9.8066,-0.0352,-0.106,0.059,11.02,-18.97,-20.46,59.3,-2.54,2.74
50073,52.302643,-1.579372,104,24.11,9.0,48.5,17 / 24,5007341,2019-08-31 11:13:47:420,0.2888,-0.2494,10.5453,-0.0144,-0.0368,9.8066,-0.0192,-0.0272,0.026,11.02,-18.97,-20.46,59.3,-2.54,2.74
50074,52.302643,-1.579372,104,24.11,9.0,48.5,17 / 24,5007442,2019-08-31 11:13:47:521,0.2309,0.1566,8.5315,0.0019,0.0205,9.8066,-0.0448,-0.0219,0.0324,11.28,-18.08,-21.12,58.14,-2.31,2.77
50075,52.302643,-1.579372,104,24.11,9.0,48.5,17 / 24,5007542,2019-08-31 11:13:47:621,0.4685,-0.2219,10.7682,0.0089,-0.0161,9.8066,0.0372,0.0431,0.0079,10.61,-18.77,-20.86,59.35,-2.42,2.72
50076,52.302643,-1.579372,104,24.11,9.0,48.5,17 / 24,5007641,2019-08-31 11:13:47:720,0.1733,-0.2312,11.6305,0.0432,-0.0442,9.8065,0.0426,0.0292,0.0185,10.61,-18.77,-20.86,59.35,-2.42,2.72
50077,52.302643,-1.579372,104,24.11,9.0,48.5,17 / 24,5007741,2019-08-31 11:13:47:820,0.5278,0.2288,8.6172,0.0271,0.026,9.8066,-0.0246,0.0026,0.0239,10.87,-18.72,-20.77,59.58,-2.33,3.07
50078,52.302643,-1.579372,104,24.11,9.0,48.5,17 / 24,5007842,2019-08-31 11:13:47:921,0.7117,0.2511,8.881,0.0126,0.0466,9.8065,0.0298,0.0399,-0.0209,10.85,-18.19,-21.25,58.16,-2.54,3.13
50079,52.302643,-1.579372,104,24.11,9.0,48.5,17 / 24,5007941,2019-08-31 11:13:48:020,-0.8433,-0.3049,9.2019,0.0051,0.0606,9.8065,0.0298,0.0399,-0.0209,10.46,-19.39,-20.36,61.35,-2.86,2.97
50080,52.302784,-1.579113,103,24.31,9.0,47.6,17 / 24,5008041,2019-08-31 11:13:48:120,-0.0829,0.06,9.4339,-0.047,-0.0712,9.8063,0.0319,-0.0144,-0.0081,10.46,-19.39,-20.36,61.35,-2.86,2.97
50081,52.302784,-1.579113,103,24.31,9.0,47.6,17 / 24,5008141,2019-08-31 11:13:48:220,-0.2235,-0.2279,9.1871,0.0185,0.0232,9.8066,0.0447,0.0388,0.0036,11.28,-18.08,-21.12,58.39,-2.04,2.86
50082,52.302784,-1.579113,103,24.31,9.0,47.6,17 / 24,5008241,2019-08-31 11:13:48:320,-0.2452,-0.1527,9.4648,-0.0082,0.0166,9.8066,-0.0086,0.0761,0.0271,11.71,-17.96,-20.98,56.15,-2.22,2.88
50083,52.302784,-1.579113,103,24.31,9.0,47.6,17 / 24,5008341,2019-08-31 11:13:48:420,0.1115,-0.2872,10.094,-0.0222,0.0163,9.8066,-0.0427,-0.0624,0.0047,11.17,-18.39,-20.9,58.19,-2.22,2.72
50084,52.302784,-1.579113,103,24.31,9.0,47.6,17 / 24,5008441,2019-08-31 11:13:48:520,-0.186,0.1645,7.9808,-0.0412,-0.0176,9.8065,-0.0128,-0.007,0.043,11.17,-18.39,-20.9,58.19,-2.22,2.72
50085,52.302784,-1.579113,103,24.31,9.0,47.6,17 / 24,5008541,2019-08-31 11:13:48:620,0.4436,0.2807,10.1108,0.0225,0.0351,9.8066,0.0319,0.0644,0.009,10.72,-18.47,-21.07,58.27,-2.01,2.57
50086,52.302784,-1.579113,103,24.31,9.0,47.6,17 / 24,5008641,2019-08-31 11:13:48:720,-0.1116,0.2649,10.9963,0.0465,0.0169,9.8065,0.0095,-0.0421,0.0281,10.85,-18.19,-21.25,58.09,-2.25,2.58
50087,52.302784,-1.579113,103,24.31,9.0,47.6,17 / 24,5008741,2019-08-31 11:13:48:820,-0.5729,-0.1241,10.0418,0.0698,-0.0301,9.8064,0.0095,-0.0421,0.0281,10.74,-18.5,-21.03,59.56,-2.32,3.01
50088,52.302784,-1.579113,103,24.31,9.0,47.6,17 / 24,5008841,2019-08-31 11:13:48:920,-0.0264,0.3156,8.8933,-0.0547,-0.0061,9.8065,-0.016,0.0207,-0.0081,10.74,-18.5,-21.03,59.56,-2.32,3.01
50089,52.302784,-1.579113,103,24.31,9.0,47.6,17 / 24,5008941,2019-08-31 11:13:49:020,-0.4604,-0.0061,9.0569,-0.0905,0.0194,9.8062,-0.0235,0.0207,0.0132,11.28,-18.08,-21.12,58.13,-2.15,2.5
50090,52.30294,-1.57885,103,24.31,9.0,46.7,17 / 24,5009042,2019-08-31 11:13:49:121,0.0632,0.3524,8.6527,-0.0017,-0.0265,9.8066,0.0319,0.0261,0.0345,11.42,-18.29,-20.86,58.1,-2.12,2.39
50091,52.30294,-1.57885,103,24.31,9.0,46.7,17 / 24,5009141,2019-08-31 11:13:49:220,-0.4466,-0.2859,11.5942,-0.0286,-0.0151,9.8066,-0.0001,0.0463,0.0058,11.42,-18.29,-20.86,58.1,-2.12,2.39
50092,52.30294,-1.57885,103,24.31,9.0,46.7,17 / 24,5009241,2019-08-31 11:13:49:320,-0.1129,-0.0511,9.7057,-0.0105,-0.0115,9.8066,0.0415,0.0005,-0.0102,10.96,-17.87,-21.46,58.17,-1.95,2.3
50093,52.30294,-1.57885,103,24.31,9.0,46.7,17 / 24,5009341,2019-08-31 11:13:49:420,0.0254,-0.1877,10.1289,0.0034,0.0098,9.8066,0.0181,0.0346,0.0292,11.32,-18.64,-20.6,58.17,-1.95,2.3
50094,52.30294,-1.57885,103,24.31,9.0,46.7,17 / 24,5009441,2019-08-31 11:13:49:520,-0.1691,-0.2116,8.8658,0.0248,0.0111,9.8066,0.0181,0.0346,0.0292,11.3,-18.6,-20.65,59.44,-2.01,2.28
50095,52.30294,-1.57885,103,24.31,9.0,46.7,17 / 24,5009541,2019-08-31 11:13:49:620,0.0248,-0.3528,9.211,0.0333,0.0021,9.8066,0.017,-0.0038,0.0196,10.74,-18.5,-21.03,59.43,-2.12,2.44
50096,52.30294,-1.57885,103,24.31,9.0,46.7,17 / 24,5009642,2019-08-31 11:13:49:721,-0.0688,-0.1424,10.1662,-0.0117,-0.009,9.8066,0.0042,-0.0602,0.0015,10.74,-18.5,-21.03,59.43,-2.12,2.44
50097,52.30294,-1.57885,103,24.31,9.0,46.7,17 / 24,5009741,2019-08-31 11:13:49:820,0.4876,0.4406,10.4169,-0.0203,-0.0164,9.8066,0.0553,0.0335,0.0345,11.17,-18.39,-20.9,58.17,-2.04,2.41
50098,52.30294,-1.57885,103,24.31,9.0,46.7,17 / 24,5009841,2019-08-31 11:13:49:920,0.3683,0.0219,10.7556,0.0171,-0.0183,9.8066,0.0436,0.14,-0.0134,10.85,-18.19,-21.25,58.17,-2.04,2.41
50099,52.30294,-1.57885,103,24.31,9.0,46.7,17 / 24,5009942,2019-08-31 11:13:50:021,1.1119,0.0531,10.0278,0.0809,-0.0071,9.8063,-0.0395,-0.0389,0.026,11.49,-17.48,-21.51,56.8,-2.26,2.84
50100,52.30294,-1.57885,103,24.31,9.0,46.7,17 / 24,5010041,2019-08-31 11:13:50:120,-0.1947,-0.2239,8.4881,-0.0551,-0.0088,9.8065,0.0266,0.0324,0.0324,10.83,-17.65,-21.71,56.8,-2.26,2.84
50101,52.303097,-1.578594,104,24.27,9.0,46.4,18 / 24,5010141,2019-08-31 11:13:50:220,0.3373,0.0828,9.0778,-0.0409,-0.0234,9.8065,0.0266,0.0324,0.0324,10.83,-17.65,-21.71,56.8,-2.26,2.84
50102,52.303097,-1.578594,104,24.27,9.0,46.4,18 / 24,5010240,2019-08-31 11:13:50:319,0.2896,0.1151,9.1964,0.0125,-0.0211,9.8066,0.0404,-0.0368,0.0121,11.49,-17.48,-21.51,56.93,-2.01,2.71
50103,52.303097,-1.578594,104,24.27,9.0,46.4,18 / 24,5010341,2019-08-31 11:13:50:420,0.2723,-0.3191,9.2042,0.0093,-0.0495,9.8065,-0.0075,-0.0453,0.0377,11.4,-17.75,-21.33,56.93,-2.01,2.71
50104,52.303097,-1.578594,104,24.27,9.0,46.4,18 / 24,5010441,2019-08-31 11:13:50:520,-0.2368,-0.2709,9.9417,-0.0111,-0.0576,9.8065,0.0149,0.0388,0.0015,11.28,-18.08,-21.12,58.64,-1.69,2.84
50105,52.303097,-1.578594,104,24.27,9.0,46.4,18 / 24,5010540,2019-08-31 11:13:50:619,-0.2291,0.3251,9.5441,0.0016,0.0417,9.8066,-0.0118,-0.0261,0.0153,11.28,-18.08,-21.12,58.64,-1.69,2.84
50106,52.303097,-1.578594,104,24.27,9.0,46.4,18 / 24,5010641,2019-08-31 11:13:50:720,0.1854,-0.2,10.1795,-0.0031,0.0223,9.8066,0.0085,0.0388,0.0068,11.44,-18.33,-20.82,58.42,-1.91,2.72
50107,52.303097,-1.578594,104,24.27,9.0,46.4,18 / 24,5010740,2019-08-31 11:13:50:819,-0.6445,0.0761,10.4638,-0.0106,0.0351,9.8066,-0.0523,-0.0155,0.0281,11.87,-18.21,-20.68,56.1,-2.05,2.56
50108,52.303097,-1.578594,104,24.27,9.0,46.4,18 / 24,5010841,2019-08-31 11:13:50:920,0.2865,0.0915,10.9926,-0.0187,-0.006,9.8066,0.0053,0.0079,0.0335,11.28,-18.08,-21.12,58.27,-1.96,2.49
50109,52.303097,-1.578594,104,24.27,9.0,46.4,18 / 24,5010941,2019-08-31 11:13:51:020,-0.1685,0.1362,10.0684,0.0229,0.0156,9.8066,0.0053,0.0079,0.0335,11.28,-18.08,-21.12,58.27,-1.96,2.49
50110,52.303097,-1.578594,104,24.27,9.0,46.4,18 / 24,5011041,2019-08-31 11:13:51:120,-0.018,-0.224,8.9897,0.0225,0.0023,9.8066,0.0372,0.0495,0.0153,11.69,-17.43,-21.44,54.6,-2.11,2.55
50111,52.30325,-1.57834,104,24.21,9.0,45.6,18 / 24,5011140,2019-08-31 11:13:51:219,0.1332,-0.0451,10.2444,0.019,-0.0177,9.8066,0.0149,-0.0368,0.0036,11.35,-17.27,-21.75,56.86,-2.09,2.7
50112,52.30325,-1.57834,104,24.21,9.0,45.6,18 / 24,5011242,2019-08-31 11:13:51:321,-0.1501,-0.0742,9.4118,-0.0172,-0.0106,9.8066,-0.0022,0.0047,0.009,11.35,-17.27,-21.75,56.86,-2.09,2.7
50113,52.30325,-1.57834,104,24.21,9.0,45.6,18 / 24,5011342,2019-08-31 11:13:51:421,0.1103,0.007,8.2932,-0.0197,-0.0164,9.8066,0.0244,0.0079,0.0185,11.56,-18.0,-21.03,56.86,-2.09,2.7
50114,52.30325,-1.57834,104,24.21,9.0,45.6,18 / 24,5011442,2019-08-31 11:13:51:521,0.7779,0.3153,7.6907,0.0056,-0.0269,9.8066,0.0106,-0.0517,0.0143,12.04,-17.02,-21.57,54.84,-1.97,2.82
50115,52.30325,-1.57834,104,24.21,9.0,45.6,18 / 24,5011541,2019-08-31 11:13:51:620,-0.2007,-0.2801,10.2767,0.0109,-0.012,9.8066,-0.0043,0.0069,0.0164,12.04,-17.02,-21.57,54.84,-1.97,2.82
50116,52.30325,-1.57834,104,24.21,9.0,45.6,18 / 24,5011641,2019-08-31 11:13:51:720,0.2524,0.237,10.5163,-0.0097,0.0022,9.8066,-0.0491,0.0079,0.0292,11.92,-17.36,-21.36,54.91,-1.95,2.91
50117,52.30325,-1.57834,104,24.21,9.0,45.6,18 / 24,5011742,2019-08-31 11:13:51:821,-0.1727,-0.4186,10.4785,-0.0165,0.015,9.8066,-0.0491,0.0079,0.0292,12.01,-18.42,-20.41,56.28,-1.97,2.78
50118,52.30325,-1.57834,104,24.21,9.0,45.6,18 / 24,5011841,2019-08-31 11:13:51:920,0.0655,0.4317,10.0823,0.0007,0.0004,9.8067,-0.0043,0.0356,0.0047,12.34,-17.78,-20.77,56.27,-1.97,2.78
50119,52.30325,-1.57834,104,24.21,9.0,45.6,18 / 24,5011941,2019-08-31 11:13:52:020,-0.0454,0.0627,9.8308,0.0345,0.0237,9.8066,-0.0054,0.0058,0.0388,12.34,-17.78,-20.77,56.27,-1.97,2.78
50120,52.30325,-1.57834,104,24.21,9.0,45.6,18 / 24,5012042,2019-08-31 11:13:52:121,0.8735,0.3989,8.0915,0.017,0.0118,9.8066,-0.0256,0.1187,0.0121,11.15,-17.87,-21.36,58.28,-2.2,2.87
50121,52.303406,-1.578093,104,24.22,9.0,45.0,18 / 24,5012141,2019-08-31 11:13:52:220,0.3898,0.1458,10.2908,-0.0515,-0.0362,9.8064,-0.0533,-0.0144,0.0239,11.26,-17.54,-21.57,58.2,-2.31,2.92
50122,52.303406,-1.578093,104,24.22,9.0,45.0,18 / 24,5012240,2019-08-31 11:13:52:319,-0.4932,-0.1391,9.9061,-0.106,-0.0729,9.8058,0.0138,-0.0357,0.026,11.83,-17.64,-21.19,56.44,-1.62,2.62
50123,52.303406,-1.578093,104,24.22,9.0,45.0,18 / 24,5012341,2019-08-31 11:13:52:420,0.617,0.2824,10.87,0.0237,0.016,9.8066,0.0543,0.1123,0.0111,11.99,-17.88,-20.89,56.44,-1.62,2.62
50124,52.303406,-1.578093,104,24.22,9.0,45.0,18 / 24,5012441,2019-08-31 11:13:52:520,-0.1262,-0.0699,10.6479,0.0902,0.0659,9.806,0.0287,0.0026,0.01,11.99,-17.88,-20.89,56.44,-1.62,2.62
50125,52.303406,-1.578093,104,24.22,9.0,45.0,18 / 24,5012541,2019-08-31 11:13:52:620,0.0325,-0.1133,10.8542,0.0433,0.0033,9.8066,0.034,0.0623,0.0004,11.72,-18.26,-20.72,56.12,-2.23,2.85
50126,52.303406,-1.578093,104,24.22,9.0,45.0,18 / 24,5012641,2019-08-31 11:13:52:720,1.1534,0.3729,9.8087,0.0566,0.0061,9.8065,0.034,0.0623,0.0004,12.26,-17.85,-20.76,56.1,-2.45,3.1
50127,52.303406,-1.578093,104,24.22,9.0,45.0,18 / 24,5012740,2019-08-31 11:13:52:819,-0.7791,-0.2707,10.103,-0.0006,0.0018,9.8067,-0.0416,-0.0783,0.0313,11.61,-17.14,-21.72,56.1,-2.45,3.1
50128,52.303406,-1.578093,104,24.22,9.0,45.0,18 / 24,5012841,2019-08-31 11:13:52:920,0.4196,0.0356,7.895,0.0036,-0.0376,9.8066,-0.0278,-0.1092,0.0313,11.61,-17.14,-21.72,56.1,-2.45,3.1
50129,52.303406,-1.578093,104,24.22,9.0,45.0,18 / 24,5012942,2019-08-31 11:13:53:021,-0.7281,-0.4329,9.9923,-0.0485,-0.0501,9.8064,-0.0054,0.025,0.0153,12.34,-17.78,-20.77,56.29,-2.28,3.24
50130,52.303562,-1.577847,104,23.99,9.0,44.0,18 / 24,5013041,2019-08-31 11:13:53:120,-0.3471,0.2561,10.4939,-0.0169,-0.03,9.8066,-0.0682,0.0207,0.0729,12.27,-17.26,-21.24,55.1,-1.88,3.17
50131,52.303562,-1.577847,104,23.99,9.0,44.0,18 / 24,5013141,2019-08-31 11:13:53:220,-1.0827,-0.2696,10.0389,0.0126,0.0021,9.8066,0.0607,0.1113,-0.0038,12.03,-17.34,-21.32,55.1,-1.88,3.17
50132,52.303562,-1.577847,104,23.99,9.0,44.0,18 / 24,5013241,2019-08-31 11:13:53:320,-0.6971,-0.0342,11.0419,0.0263,0.0239,9.8066,0.0127,-0.0059,0.0281,12.06,-17.86,-20.87,56.41,-2.08,3.22
50133,52.303562,-1.577847,104,23.99,9.0,44.0,18 / 24,5013342,2019-08-31 11:13:53:421,-0.0478,0.5237,10.915,0.0025,0.0475,9.8065,0.0127,-0.0059,0.0281,12.59,-17.42,-20.93,56.41,-2.08,3.22
50134,52.303562,-1.577847,104,23.99,9.0,44.0,18 / 24,5013441,2019-08-31 11:13:53:520,0.4348,0.7113,10.1341,0.0261,0.0795,9.8063,0.0074,0.0282,-0.0006,12.59,-17.42,-20.93,56.41,-2.08,3.22
50135,52.303562,-1.577847,104,23.99,9.0,44.0,18 / 24,5013541,2019-08-31 11:13:53:620,-0.3668,0.1946,9.5929,0.0201,0.1079,9.806,-0.0139,-0.0411,0.0281,11.92,-17.36,-21.36,54.42,-2.67,2.96
50136,52.303562,-1.577847,104,23.99,9.0,44.0,18 / 24,5013641,2019-08-31 11:13:53:720,0.0181,0.1312,10.5112,-0.0435,-0.0595,9.8064,0.0063,-0.0485,0.0111,11.85,-17.67,-21.15,54.42,-2.67,2.96
50137,52.303562,-1.577847,104,23.99,9.0,44.0,18 / 24,5013741,2019-08-31 11:13:53:820,-0.2847,-0.138,9.7582,-0.0536,-0.0655,9.8063,-0.0246,-0.0229,0.0558,11.85,-17.67,-21.15,54.42,-2.67,2.96
50138,52.303562,-1.577847,104,23.99,9.0,44.0,18 / 24,5013841,2019-08-31 11:13:53:920,0.4745,0.1883,8.9707,0.0278,0.0036,9.8066,0.0149,0.0069,0.0452,11.59,-18.28,-20.77,56.2,-2.18,2.93
50139,52.303562,-1.577847,104,23.99,9.0,44.0,18 / 24,5013941,2019-08-31 11:13:54:020,-0.0551,-0.3235,10.7093,0.0491,-0.0176,9.8065,0.0415,0.0378,0.0313,12.63,-17.98,-20.42,54.17,-2.28,3.06
50140,52.303562,-1.577847,104,23.99,9.0,44.0,18 / 24,5014041,2019-08-31 11:13:54:120,0.3948,-0.0294,8.8924,0.0705,-0.0478,9.8063,-0.0054,0.0122,0.0335,12.63,-17.98,-20.42,54.17,-2.28,3.06
50141,52.303734,-1.577603,105,24.12,9.0,43.4,18 / 24,5014141,2019-08-31 11:13:54:220,0.9484,0.3044,8.8652,0.0182,-0.0021,9.8066,-0.0054,0.0122,0.0335,11.99,-17.88,-20.89,56.43,-2.3,3.55
50142,52.303734,-1.577603,105,24.12,9.0,43.4,18 / 24,5014241,2019-08-31 11:13:54:320,0.1284,0.0296,9.969,0.0799,0.0034,9.8063,0.0585,0.0783,0.0345,11.72,-18.26,-20.72,56.43,-2.57,3.93
50143,52.303734,-1.577603,105,24.12,9.0,43.4,18 / 24,5014340,2019-08-31 11:13:54:419,0.7613,0.2261,9.6778,0.0292,-0.0077,9.8066,0.0127,0.0314,0.0143,11.72,-18.26,-20.72,56.43,-2.57,3.93
50144,52.303734,-1.577603,105,24.12,9.0,43.4,18 / 24,5014441,2019-08-31 11:13:54:520,0.1228,0.0434,10.4975,0.0194,-0.0227,9.8066,-0.0075,-0.0166,0.0068,12.28,-17.8,-20.79,56.55,-2.53,4.1
50145,52.303734,-1.577603,105,24.12,9.0,43.4,18 / 24,5014541,2019-08-31 11:13:54:620,0.1356,0.4643,8.6886,-0.0173,0.004,9.8066,0.0031,0.0559,0.0047,12.39,-16.92,-21.45,56.55,-2.53,4.1
50146,52.303734,-1.577603,105,24.12,9.0,43.4,18 / 24,5014641,2019-08-31 11:13:54:720,-0.7417,-0.059,10.2461,-0.0188,0.0063,9.8066,-0.0033,0.0069,0.0281,12.81,-16.8,-21.3,53.07,-2.49,4.0
50147,52.303734,-1.577603,105,24.12,9.0,43.4,18 / 24,5014741,2019-08-31 11:13:54:820,-0.0165,-0.0807,9.7237,-0.0101,0.0009,9.8066,0.0181,0.0175,0.0217,12.81,-16.8,-21.3,53.07,-2.49,4.0
50148,52.303734,-1.577603,105,24.12,9.0,43.4,18 / 24,5014841,2019-08-31 11:13:54:920,0.4633,0.3922,9.7783,-0.0067,0.0001,9.8066,0.0181,0.0175,0.0217,13.29,-17.2,-20.68,53.07,-2.46,3.95
50149,52.303734,-1.577603,105,24.12,9.0,43.4,18 / 24,5014941,2019-08-31 11:13:55:020,-0.4824,-0.1362,9.5545,-0.0203,0.0297,9.8066,-0.0437,0.0122,0.0356,13.06,-17.56,-20.52,53.07,-2.46,3.95
50150,52.3039,-1.577366,105,24.38,9.0,41.8,18 / 24,5015041,2019-08-31 11:13:55:120,0.2364,0.3341,9.3262,-0.0115,0.0588,9.8065,-0.0182,-0.0421,0.0356,12.34,-17.78,-20.77,56.23,-2.69,3.69
50151,52.3039,-1.577366,105,24.38,9.0,41.8,18 / 24,5015141,2019-08-31 11:13:55:220,-0.2346,-0.1685,11.029,0.0091,-0.0179,9.8066,0.0362,0.0335,0.0249,12.34,-17.78,-20.77,56.23,-2.69,3.69
50152,52.3039,-1.577366,105,24.38,9.0,41.8,18 / 24,5015242,2019-08-31 11:13:55:321,-0.5671,-0.1694,9.1687,0.0223,-0.0499,9.8065,0.0149,-0.0134,0.0185,12.85,-16.78,-21.29,53.03,-2.52,3.96
50153,52.3039,-1.577366,105,24.38,9.0,41.8,18 / 24,5015342,2019-08-31 11:13:55:421,-0.1547,-0.0427,9.9618,0.025,-0.005,9.8066,-0.0086,-0.072,0.0377,12.66,-16.61,-21.54,53.08,-2.59,4.1
50154,52.3039,-1.577366,105,24.38,9.0,41.8,18 / 24,5015441,2019-08-31 11:13:55:520,0.6984,0.2943,9.6306,0.0147,-0.0179,9.8066,0.0308,0.0303,0.0239,12.66,-16.61,-21.54,53.08,-2.59,4.1
50155,52.3039,-1.577366,105,24.38,9.0,41.8,18 / 24,5015542,2019-08-31 11:13:55:621,-0.1345,-0.0706,10.2736,0.0321,-0.038,9.8065,0.0031,-0.0027,0.0303,13.24,-17.8,-20.19,53.08,-2.59,4.1
50156,52.3039,-1.577366,105,24.38,9.0,41.8,18 / 24,5015641,2019-08-31 11:13:55:720,0.2573,0.257,9.6745,0.0012,0.0006,9.8067,-0.0182,-0.0048,0.0249,12.99,-17.04,-21.0,53.26,-2.52,4.38
50157,52.3039,-1.577366,105,24.38,9.0,41.8,18 / 24,5015742,2019-08-31 11:13:55:821,0.4811,0.2253,10.545,0.0097,0.0171,9.8066,-0.0182,-0.0048,0.0249,12.93,-17.57,-20.6,54.69,-2.53,4.38
50158,52.3039,-1.577366,105,24.38,9.0,41.8,18 / 24,5015841,2019-08-31 11:13:55:920,0.1895,0.3053,9.5636,-0.0038,0.0237,9.8066,-0.016,0.0399,0.0217,12.93,-17.57,-20.6,54.69,-2.53,4.38
50159,52.3039,-1.577366,105,24.38,9.0,41.8,18 / 24,5015941,2019-08-31 11:13:56:020,-0.5403,-0.0925,10.499,0.002,0.0145,9.8066,0.0031,-0.0176,0.0249,13.01,-17.25,-20.82,53.13,-2.63,4.28
50160,52.30406,-1.577124,104,24.41,9.0,40.7,18 / 24,5016041,2019-08-31 11:13:56:120,0.7132,0.6357,9.621,0.0126,0.0282,9.8066,-0.0075,0.0814,0.0228,13.14,-16.9,-21.02,53.13,-2.63,4.28
50161,52.30406,-1.577124,104,24.41,9.0,40.7,18 / 24,5016141,2019-08-31 11:13:56:220,-0.2951,-0.0743,9.6861,0.0201,0.0443,9.8065,-0.0075,-0.0549,0.0228,13.06,-17.22,-20.8,52.92,-2.91,4.22
50162,52.30406,-1.577124,104,24.41,9.0,40.7,18 / 24,5016241,2019-08-31 11:13:56:320,0.1185,0.1977,8.0858,-0.0115,0.0001,9.8066,0.0234,-0.0347,0.0388,13.16,-16.93,-20.98,52.92,-2.87,4.17
50163,52.30406,-1.577124,104,24.41,9.0,40.7,18 / 24,5016341,2019-08-31 11:13:56:420,-0.5417,-0.199,8.7007,-0.0493,-0.0288,9.8065,-0.0086,0.0047,0.0185,13.16,-16.93,-20.98,52.92,-2.87,4.17
50164,52.30406,-1.577124,104,24.41,9.0,40.7,18 / 24,5016441,2019-08-31 11:13:56:520,-0.0004,-0.0453,8.9131,-0.0124,-0.0102,9.8066,-0.0086,0.0047,0.0185,13.58,-16.8,-20.82,51.12,-2.56,4.04
50165,52.30406,-1.577124,104,24.41,9.0,40.7,18 / 24,5016541,2019-08-31 11:13:56:620,0.3917,0.2285,9.4414,0.01,0.0173,9.8066,0.0042,0.0516,0.0121,13.69,-16.73,-20.8,51.17,-2.47,4.02
50166,52.30406,-1.577124,104,24.41,9.0,40.7,18 / 24,5016641,2019-08-31 11:13:56:720,0.1828,0.2655,10.3982,0.0011,0.0772,9.8063,-0.0373,0.0207,0.026,13.69,-16.73,-20.8,51.17,-2.47,4.02
50167,52.30406,-1.577124,104,24.41,9.0,40.7,18 / 24,5016741,2019-08-31 11:13:56:820,-0.1991,0.0647,8.8175,-0.0099,0.026,9.8066,-0.0001,-0.008,0.042,13.45,-17.15,-20.61,52.71,-2.82,3.74
50168,52.30406,-1.577124,104,24.41,9.0,40.7,18 / 24,5016841,2019-08-31 11:13:56:920,-0.0349,0.1034,9.6123,0.0063,0.0082,9.8066,0.0383,-0.0507,0.0239,13.16,-17.2,-20.76,52.71,-2.82,3.74
50169,52.30406,-1.577124,104,24.41,9.0,40.7,18 / 24,5016941,2019-08-31 11:13:57:020,0.2435,0.0137,8.8856,0.0237,-0.0074,9.8066,0.0181,0.0005,0.0366,13.39,-16.57,-21.12,52.75,-2.87,3.88
50170,52.304237,-1.576899,104,24.49,9.0,39.3,18 / 24,5017041,2019-08-31 11:13:57:120,0.5093,-0.0041,10.0957,0.0119,0.0065,9.8066,-0.0256,-0.024,0.0324,13.39,-16.57,-21.12,52.75,-2.87,3.88
50171,52.304237,-1.576899,104,24.49,9.0,39.3,18 / 24,5017141,2019-08-31 11:13:57:220,-0.2073,0.0951,10.5356,0.0096,-0.0027,9.8066,-0.0256,-0.024,0.0324,13.58,-16.8,-20.82,50.85,-2.89,3.94
50172,52.304237,-1.576899,104,24.49,9.0,39.3,18 / 24,5017241,2019-08-31 11:13:57:320,0.1952,0.0778,9.7056,-0.0251,0.0144,9.8066,-0.0331,-0.0251,0.0196,13.29,-16.86,-20.96,52.7,-2.87,3.77
50173,52.304237,-1.576899,104,24.49,9.0,39.3,18 / 24,5017341,2019-08-31 11:13:57:420,-0.1442,0.0962,9.5687,-0.0047,0.0279,9.8066,-0.0267,0.041,0.0366,13.58,-16.8,-20.82,50.64,-2.98,3.65
50174,52.304237,-1.576899,104,24.49,9.0,39.3,18 / 24,5017441,2019-08-31 11:13:57:520,0.0087,0.2789,11.3112,0.0157,0.0848,9.8063,-0.0256,-0.0166,0.0324,13.58,-16.8,-20.82,50.64,-2.98,3.65
50175,52.304237,-1.576899,104,24.49,9.0,39.3,18 / 24,5017541,2019-08-31 11:13:57:620,-0.3971,-0.196,9.3591,-0.0063,0.0038,9.8066,0.0244,0.0218,0.0079,13.23,-16.37,-21.37,50.55,-3.42,3.4
50176,52.304237,-1.576899,104,24.49,9.0,39.3,18 / 24,5017641,2019-08-31 11:13:57:720,0.1141,0.4184,9.2199,-0.0138,0.0104,9.8066,-0.0064,-0.0219,0.0175,13.42,-17.12,-20.66,52.11,-3.41,3.36
50177,52.304237,-1.576899,104,24.49,9.0,39.3,18 / 24,5017741,2019-08-31 11:13:57:820,-0.1888,0.2105,10.0787,-0.0056,0.0377,9.8066,0.0095,-0.0059,0.026,13.99,-16.67,-20.65,50.01,-3.57,3.2
50178,52.304237,-1.576899,104,24.49,9.0,39.3,18 / 24,5017840,2019-08-31 11:13:57:919,-0.0092,0.1322,10.1514,0.0087,-0.016,9.8066,-0.0128,-0.0709,0.0345,13.99,-16.67,-20.65,50.01,-3.57,3.2
50179,52.304237,-1.576899,104,24.49,9.0,39.3,18 / 24,5017941,2019-08-31 11:13:58:020,0.3442,-0.3523,9.0071,0.0034,0.0006,9.8067,-0.0128,-0.0709,0.0345,13.58,-16.8,-20.82,50.09,-3.53,3.3
50180,52.30441,-1.576675,105,24.73,9.0,38.5,18 / 24,5018046,2019-08-31 11:13:58:125,0.4793,-0.0009,10.4267,0.016,0.0141,9.8066,0.0106,0.0548,0.0356,13.8,-16.44,-20.96,48.42,-3.65,3.32
50181,52.30441,-1.576675,105,24.73,9.0,38.5,18 / 24,5018141,2019-08-31 11:13:58:220,-0.0518,-0.2983,8.7981,0.0436,0.011,9.8065,0.0106,0.0548,0.0356,13.8,-16.44,-20.96,48.42,-3.65,3.32
50182,52.30441,-1.576675,105,24.73,9.0,38.5,18 / 24,5018241,2019-08-31 11:13:58:320,0.3426,-0.4602,9.7858,-0.0071,-0.016,9.8066,-0.0288,-0.0656,0.0196,13.69,-16.73,-20.8,49.98,-3.87,3.47
50183,52.30441,-1.576675,105,24.73,9.0,38.5,18 / 24,5018341,2019-08-31 11:13:58:420,-0.2843,-0.1044,8.473,-0.0259,-0.0065,9.8066,-0.016,0.0356,0.0345,13.99,-16.67,-20.65,50.06,-3.77,3.49
50184,52.30441,-1.576675,105,24.73,9.0,38.5,18 / 24,5018441,2019-08-31 11:13:58:520,0.1329,0.287,10.3933,-0.0086,0.0203,9.8066,-0.0043,0.0751,0.0377,13.39,-16.57,-21.12,51.85,-3.83,3.38
50185,52.30441,-1.576675,105,24.73,9.0,38.5,18 / 24,5018541,2019-08-31 11:13:58:620,0.3256,0.4549,10.4357,0.0659,0.0519,9.8063,0.0383,0.0474,0.0153,13.39,-16.57,-21.12,51.85,-3.83,3.38
50186,52.30441,-1.576675,105,24.73,9.0,38.5,18 / 24,5018641,2019-08-31 11:13:58:720,0.0035,0.103,10.3646,-0.0179,-0.0173,9.8066,-0.0182,-0.0293,0.0079,13.27,-16.92,-20.92,51.61,-4.31,3.49
50187,52.30441,-1.576675,105,24.73,9.0,38.5,18 / 24,5018741,2019-08-31 11:13:58:820,0.0866,-0.0003,9.8874,-0.0427,0.005,9.8066,0.0106,-0.0368,0.0271,13.52,-16.21,-21.32,48.21,-4.16,3.48
50188,52.30441,-1.576675,105,24.73,9.0,38.5,18 / 24,5018841,2019-08-31 11:13:58:920,-0.12,0.1767,9.2762,-0.0494,0.0158,9.8065,0.0106,-0.0368,0.0271,14.55,-16.73,-20.21,47.97,-4.04,3.2
50189,52.30441,-1.576675,105,24.73,9.0,38.5,18 / 24,5018941,2019-08-31 11:13:59:020,-0.219,-0.1217,11.5944,-0.0009,-0.0052,9.8066,0.0191,0.0016,0.0313,14.55,-16.73,-20.21,47.97,-4.04,3.2
50190,52.304592,-1.576461,105,24.81,9.0,37.8,18 / 24,5019041,2019-08-31 11:13:59:120,0.3238,-0.2622,10.1,0.0265,-0.0262,9.8066,0.0458,-0.0368,0.0409,13.71,-16.44,-21.02,48.14,-4.01,3.21
50191,52.304592,-1.576461,105,24.81,9.0,37.8,18 / 24,5019141,2019-08-31 11:13:59:220,-0.2801,0.1544,10.5616,0.0673,-0.0228,9.8064,0.0095,0.0761,0.01,14.25,-15.94,-21.04,48.14,-4.01,3.21
50192,52.304592,-1.576461,105,24.81,9.0,37.8,18 / 24,5019242,2019-08-31 11:13:59:321,0.5825,0.3613,9.4906,0.0205,0.0232,9.8066,0.0095,0.0495,0.0121,14.12,-16.31,-20.85,48.27,-4.18,3.6
50193,52.304592,-1.576461,105,24.81,9.0,37.8,18 / 24,5019341,2019-08-31 11:13:59:420,0.6871,0.1947,10.0645,0.0444,0.0335,9.8065,-0.015,-0.0826,0.0377,13.92,-16.08,-21.15,48.12,-4.49,3.66
50194,52.304592,-1.576461,105,24.81,9.0,37.8,18 / 24,5019441,2019-08-31 11:13:59:520,-0.4674,-0.146,7.8185,-0.0146,-0.0367,9.8066,-0.0118,0.009,0.0217,13.92,-16.08,-21.15,48.12,-4.49,3.66
50195,52.304592,-1.576461,105,24.81,9.0,37.8,18 / 24,5019541,2019-08-31 11:13:59:620,0.059,0.1942,10.7071,-0.0365,-0.0538,9.8064,-0.0118,0.009,0.0217,14.32,-15.96,-20.99,48.38,-4.12,3.71
50196,52.304592,-1.576461,105,24.81,9.0,37.8,18 / 24,5019641,2019-08-31 11:13:59:720,0.3552,-0.1688,9.9088,-0.0023,0.001,9.8067,0.0106,0.0154,0.0356,14.32,-15.96,-20.99,48.38,-4.12,3.71
50197,52.304592,-1.576461,105,24.81,9.0,37.8,18 / 24,5019741,2019-08-31 11:13:59:820,-0.2231,-0.3265,10.122,0.0205,0.0019,9.8066,-0.0214,0.0133,0.0196,14.29,-16.51,-20.57,49.97,-4.11,3.7
50198,52.304592,-1.576461,105,24.81,9.0,37.8,18 / 24,5019842,2019-08-31 11:13:59:921,0.0619,-0.19,9.235,-0.0159,0.0186,9.8066,-0.0033,0.0346,0.0217,14.45,-15.59,-21.17,48.37,-4.2,3.78
50199,52.304592,-1.576461,105,24.81,9.0,37.8,18 / 24,5019941,2019-08-31 11:14:00:020,-0.1382,-0.0579,11.328,0.0074,0.0204,9.8066,-0.0107,0.0101,0.0377,14.25,-15.94,-21.04,48.27,-4.22,3.64
50200,52.30477,-1.576249,104,25.04,9.0,36.3,18 / 24,5020041,2019-08-31 11:14:00:120,-0.2367,0.0168,9.1898,0.0239,0.0286,9.8066,0.0244,0.042,0.0217,14.25,-15.94,-21.04,48.27,-4.22,3.64
50201,52.30477,-1.576249,104,25.04,9.0,36.3,18 / 24,5020140,2019-08-31 11:14:00:219,0.3429,-0.2131,9.3009,0.0002,-0.0308,9.8066,0.0053,-0.0464,0.0196,14.65,-15.81,-20.87,46.36,-4.44,3.63
50202,52.30477,-1.576249,104,25.04,9.0,36.3,18 / 24,5020241,2019-08-31 11:14:00:320,-0.2557,-0.1175,9.458,-0.0193,-0.0635,9.8064,0.001,0.0538,0.0175,14.38,-15.56,-21.24,46.36,-4.44,3.63
50203,52.30477,-1.576249,104,25.04,9.0,36.3,18 / 24,5020340,2019-08-31 11:14:00:419,-0.3536,-0.3122,10.5579,-0.0375,-0.0692,9.8063,0.001,0.0538,0.0175,14.05,-15.71,-21.35,48.48,-3.99,3.75
50204,52.30477,-1.576249,104,25.04,9.0,36.3,18 / 24,5020441,2019-08-31 11:14:00:520,0.3216,0.0063,10.7358,0.0103,0.0152,9.8066,-0.0309,0.0016,0.0153,14.38,-15.56,-21.24,48.48,-3.99,3.75
50205,52.30477,-1.576249,104,25.04,9.0,36.3,18 / 24,5020541,2019-08-31 11:14:00:620,-0.322,-0.1099,8.7755,0.0137,0.0072,9.8066,-0.0299,0.0325,0.026,14.38,-15.56,-21.24,48.48,-3.99,3.75
50206,52.30477,-1.576249,104,25.04,9.0,36.3,18 / 24,5020641,2019-08-31 11:14:00:720,0.1054,-0.141,9.5868,-0.0126,0.0013,9.8066,-0.0043,-0.007,0.0356,14.65,-15.81,-20.87,46.66,-4.08,3.79
50207,52.30477,-1.576249,104,25.04,9.0,36.3,18 / 24,5020741,2019-08-31 11:14:00:820,-0.0842,-0.0498,10.3875,-0.0225,0.0093,9.8066,-0.0203,-0.0144,0.0356,15.39,-15.51,-20.56,46.6,-4.03,3.65
50208,52.30477,-1.576249,104,25.04,9.0,36.3,18 / 24,5020841,2019-08-31 11:14:00:920,-0.922,-0.1063,10.1549,-0.0162,0.0004,9.8066,-0.0352,-0.0453,0.0633,14.65,-15.81,-20.87,46.58,-4.04,3.63
50209,52.30477,-1.576249,104,25.04,9.0,36.3,18 / 24,5020941,2019-08-31 11:14:01:020,0.658,0.1851,8.7799,-0.0039,0.0015,9.8066,0.0106,0.0506,0.0249,14.65,-15.81,-20.87,46.58,-4.04,3.63
50210,52.30477,-1.576249,104,25.04,9.0,36.3,18 / 24,5021042,2019-08-31 11:14:01:121,0.07,0.0057,10.3186,-0.0075,-0.0101,9.8066,0.0085,-0.0016,0.0132,14.57,-15.21,-21.36,44.86,-4.03,3.6
50211,52.304962,-1.576037,103,25.25,9.0,35.2,18 / 24,5021141,2019-08-31 11:14:01:220,-0.3936,-0.1835,9.9316,-0.0025,-0.0147,9.8066,0.0085,-0.0016,0.0132,15.04,-15.67,-20.69,46.65,-3.96,3.65
50212,52.304962,-1.576037,103,25.25,9.0,35.2,18 / 24,5021241,2019-08-31 11:14:01:320,-0.1243,-0.0125,9.9542,-0.0138,-0.0162,9.8066,-0.0139,-0.0272,0.0164,14.57,-15.21,-21.36,45.01,-3.83,3.66
50213,52.304962,-1.576037,103,25.25,9.0,35.2,18 / 24,5021342,2019-08-31 11:14:01:421,0.1498,-0.2268,9.3778,-0.013,-0.0257,9.8066,0.0053,-0.0038,0.0324,14.57,-15.21,-21.36,45.01,-3.83,3.66
50214,52.304962,-1.576037,103,25.25,9.0,35.2,18 / 24,5021441,2019-08-31 11:14:01:520,-0.0762,-0.3419,9.9209,-0.0031,-0.0255,9.8066,0.0351,0.0048,0.0196,14.65,-15.81,-20.87,46.85,-3.67,3.71
50215,52.304962,-1.576037,103,25.25,9.0,35.2,18 / 24,5021541,2019-08-31 11:14:01:620,0.0276,-0.1221,10.329,0.0054,-0.0332,9.8066,-0.0224,-0.008,0.0271,14.78,-15.43,-21.06,45.31,-3.55,3.87
50216,52.304962,-1.576037,103,25.25,9.0,35.2,18 / 24,5021641,2019-08-31 11:14:01:720,0.2676,-0.2604,11.3239,0.0036,0.0065,9.8066,-0.0096,-0.008,0.0249,14.6,-15.24,-21.32,45.28,-3.59,3.86
50217,52.304962,-1.576037,103,25.25,9.0,35.2,18 / 24,5021741,2019-08-31 11:14:01:820,-0.1914,-0.5101,9.4288,0.0047,-0.0119,9.8066,-0.0182,0.025,0.0303,14.6,-15.24,-21.32,45.28,-3.59,3.86
50218,52.304962,-1.576037,103,25.25,9.0,35.2,18 / 24,5021841,2019-08-31 11:14:01:920,-0.0154,0.167,9.2796,-0.0088,0.0085,9.8066,-0.0182,0.025,0.0303,15.39,-15.51,-20.56,47.04,-3.56,3.93
50219,52.304962,-1.576037,103,25.25,9.0,35.2,18 / 24,5021941,2019-08-31 11:14:02:020,-0.4025,0.1849,8.9755,0.0035,0.0259,9.8066,0.0074,0.0016,0.0111,15.18,-15.84,-20.46,47.04,-3.56,3.93
50220,52.304962,-1.576037,103,25.25,9.0,35.2,18 / 24,5022042,2019-08-31 11:14:02:121,0.4458,0.1518,9.6752,0.0024,-0.0399,9.8066,0.0479,-0.0304,0.0377,15.7,-15.27,-20.51,43.5,-3.69,3.84
50221,52.305164,-1.575828,104,25.54,9.0,34.0,18 / 24,5022141,2019-08-31 11:14:02:220,0.1994,0.1302,9.7188,-0.0048,-0.0867,9.8063,0.0521,-0.0144,0.0143,15.7,-15.27,-20.51,43.5,-3.69,3.84
50222,52.305164,-1.575828,104,25.54,9.0,34.0,18 / 24,5022241,2019-08-31 11:14:02:320,-0.0071,0.1068,9.5293,-0.0031,-0.0102,9.8066,0.0106,0.0165,0.0153,15.67,-14.72,-20.93,43.93,-3.32,4.19
50223,52.305164,-1.575828,104,25.54,9.0,34.0,18 / 24,5022342,2019-08-31 11:14:02:421,-0.0533,-0.0011,10.1604,0.0026,-0.0074,9.8066,0.0085,0.0314,0.0153,16.05,-14.58,-20.73,43.96,-3.3,4.23
50224,52.305164,-1.575828,104,25.54,9.0,34.0,18 / 24,5022441,2019-08-31 11:14:02:520,0.3378,-0.2373,9.1082,0.0036,-0.0118,9.8066,0.0074,-0.0038,0.0452,16.05,-14.58,-20.73,43.96,-3.3,4.23
50225,52.305164,-1.575828,104,25.54,9.0,34.0,18 / 24,5022541,2019-08-31 11:14:02:620,-0.3714,-0.234,10.0871,0.007,-0.0294,9.8066,0.0319,0.0175,0.0356,16.08,-13.55,-21.39,42.24,-3.27,4.29
50226,52.305164,-1.575828,104,25.54,9.0,34.0,18 / 24,5022641,2019-08-31 11:14:02:720,0.0594,-0.0631,10.2915,0.0034,-0.0296,9.8066,0.0319,0.0175,0.0356,15.52,-14.14,-21.43,42.39,-3.16,4.43
50227,52.305164,-1.575828,104,25.54,9.0,34.0,18 / 24,5022741,2019-08-31 11:14:02:820,0.0576,-0.3667,10.2927,0.0365,0.0135,9.8066,0.0127,0.0165,0.0313,15.44,-14.51,-21.24,45.82,-3.38,4.52
50228,52.305164,-1.575828,104,25.54,9.0,34.0,18 / 24,5022841,2019-08-31 11:14:02:920,-0.2369,-0.0123,9.2313,-0.01,-0.0154,9.8066,-0.0043,0.0069,0.0228,15.44,-14.51,-21.24,45.82,-3.38,4.52
50229,52.305164,-1.575828,104,25.54,9.0,34.0,18 / 24,5022941,2019-08-31 11:14:03:020,0.605,0.2101,9.8483,0.0126,-0.0122,9.8066,0.0095,0.0367,0.0281,15.52,-14.14,-21.43,42.4,-3.27,4.54
50230,52.30536,-1.57563,104,25.57,9.0,32.7,18 / 24,5023041,2019-08-31 11:14:03:120,-0.1182,-0.1699,9.4877,-0.0169,-0.0269,9.8066,-0.032,-0.0368,0.0324,15.79,-14.35,-21.09,42.46,-3.28,4.64
50231,52.30536,-1.57563,104,25.57,9.0,32.7,18 / 24,5023141,2019-08-31 11:14:03:220,0.0188,-0.2452,9.3044,-0.064,-0.0297,9.8064,-0.0043,0.0165,0.0196,15.6,-14.17,-21.35,42.6,-2.88,4.52
50232,52.30536,-1.57563,104,25.57,9.0,32.7,18 / 24,5023241,2019-08-31 11:14:03:320,-0.2727,0.161,8.9534,-0.0226,-0.015,9.8066,-0.0043,0.0218,0.0271,15.6,-14.17,-21.35,42.6,-2.88,4.52
50233,52.30536,-1.57563,104,25.57,9.0,32.7,18 / 24,5023341,2019-08-31 11:14:03:420,-0.3637,0.2002,9.5795,-0.0103,0.0052,9.8066,-0.0043,0.0218,0.0271,15.66,-14.74,-20.91,44.45,-2.73,4.49
50234,52.30536,-1.57563,104,25.57,9.0,32.7,18 / 24,5023441,2019-08-31 11:14:03:520,0.8633,0.3156,9.7321,0.0333,0.0459,9.8065,-0.0214,0.0431,0.0452,15.74,-14.38,-21.11,42.45,-3.05,4.44
50235,52.30536,-1.57563,104,25.57,9.0,32.7,18 / 24,5023541,2019-08-31 11:14:03:620,-0.6734,0.1395,10.7146,0.0105,0.012,9.8066,-0.0096,-0.0272,0.0569,15.64,-13.78,-21.58,42.45,-3.05,4.44
50236,52.30536,-1.57563,104,25.57,9.0,32.7,18 / 24,5023641,2019-08-31 11:14:03:720,0.0218,0.6032,8.9808,-0.0335,-0.0053,9.8066,-0.0736,-0.0165,0.0473,15.64,-13.78,-21.58,42.45,-3.05,4.44
50237,52.30536,-1.57563,104,25.57,9.0,32.7,18 / 24,5023741,2019-08-31 11:14:03:820,-0.5761,0.2305,9.6133,-0.0321,0.0324,9.8065,0.0266,0.0154,0.0217,15.74,-14.38,-21.11,42.47,-2.89,4.33
50238,52.30536,-1.57563,104,25.57,9.0,32.7,18 / 24,5023841,2019-08-31 11:14:03:920,-0.1594,-0.1086,7.9623,0.0145,-0.0146,9.8066,0.0457,0.0133,0.0185,15.87,-13.98,-21.28,42.3,-2.88,4.06
50239,52.30536,-1.57563,104,25.57,9.0,32.7,18 / 24,5023941,2019-08-31 11:14:04:020,-0.1949,-0.3826,10.8041,-0.007,-0.0676,9.8064,0.017,-0.0549,0.0058,15.96,-14.59,-20.79,42.3,-2.88,4.06
50240,52.30536,-1.57563,104,25.57,9.0,32.7,18 / 24,5024044,2019-08-31 11:14:04:123,-0.3699,-0.0413,9.1591,-0.0534,-0.029,9.8065,-0.0341,0.0122,0.0047,16.54,-13.74,-20.92,41.01,-2.58,4.33
50241,52.305565,-1.575433,104,25.94,9.0,31.0,18 / 24,5024141,2019-08-31 11:14:04:220,0.1205,-0.001,10.0534,-0.0694,0.0151,9.8064,-0.0171,0.0591,0.0324,16.54,-13.74,-20.92,41.01,-2.58,4.33
50242,52.305565,-1.575433,104,25.94,9.0,31.0,18 / 24,5024241,2019-08-31 11:14:04:320,-0.1147,0.2685,10.5634,0.0222,0.0569,9.8065,-0.0171,0.0591,0.0324,15.64,-13.78,-21.58,42.62,-2.33,3.99
50243,52.305565,-1.575433,104,25.94,9.0,31.0,18 / 24,5024342,2019-08-31 11:14:04:421,0.5649,0.3625,10.8375,0.0274,0.0852,9.8062,0.0053,0.0186,0.01,15.52,-14.18,-21.41,42.13,-2.79,3.74
50244,52.305565,-1.575433,104,25.94,9.0,31.0,18 / 24,5024441,2019-08-31 11:14:04:520,0.2,0.2416,10.3529,0.0045,0.0303,9.8066,-0.0203,0.0165,0.043,15.48,-14.11,-21.48,43.71,-2.93,3.62
50245,52.305565,-1.575433,104,25.94,9.0,31.0,18 / 24,5024542,2019-08-31 11:14:04:621,-0.0347,0.2161,8.721,-0.0114,0.0217,9.8066,-0.0405,-0.0144,0.01,15.48,-14.11,-21.48,43.71,-2.93,3.62
50246,52.305565,-1.575433,104,25.94,9.0,31.0,18 / 24,5024641,2019-08-31 11:14:04:720,0.2551,-0.1249,9.596,-0.025,0.0205,9.8066,-0.0011,0.0048,0.0185,15.64,-13.78,-21.58,41.89,-2.97,3.48
50247,52.305565,-1.575433,104,25.94,9.0,31.0,18 / 24,5024742,2019-08-31 11:14:04:821,-0.2099,-0.1202,8.6082,-0.0868,-0.0265,9.8062,-0.0001,-0.0272,0.0303,16.11,-14.34,-20.85,41.89,-2.97,3.48
50248,52.305565,-1.575433,104,25.94,9.0,31.0,18 / 24,5024841,2019-08-31 11:14:04:920,0.102,0.2643,11.0839,0.0248,0.006,9.8066,0.0074,0.0825,0.0111,15.91,-14.16,-21.13,41.98,-2.48,3.26
50249,52.305565,-1.575433,104,25.94,9.0,31.0,18 / 24,5024941,2019-08-31 11:14:05:020,-0.0267,0.1694,11.0551,0.063,0.02,9.8064,0.0351,0.0825,0.0271,15.91,-14.16,-21.13,41.98,-2.48,3.26
50250,52.30576,-1.575246,103,25.78,9.0,30.2,18 / 24,5025041,2019-08-31 11:14:05:120,0.2415,0.202,10.3824,0.0328,0.016,9.8066,0.0351,0.0825,0.0271,15.68,-13.96,-21.43,41.89,-2.84,3.42
50251,52.30576,-1.575246,103,25.78,9.0,30.2,18 / 24,5025141,2019-08-31 11:14:05:220,0.4877,-0.2007,9.6776,0.0538,0.0041,9.8065,-0.0001,0.0197,0.0452,15.3,-14.08,-21.62,43.63,-3.09,3.61
50252,52.30576,-1.575246,103,25.78,9.0,30.2,18 / 24,5025241,2019-08-31 11:14:05:320,-0.4606,-0.6216,9.7793,-0.0042,-0.0439,9.8066,0.0255,-0.0379,0.0441,15.3,-14.08,-21.62,43.63,-3.09,3.61
50253,52.30576,-1.575246,103,25.78,9.0,30.2,18 / 24,5025341,2019-08-31 11:14:05:420,-0.2063,-0.3497,9.8996,-0.0053,-0.0322,9.8066,-0.0299,-0.0421,0.0505,15.88,-14.13,-21.17,42.11,-2.89,3.78
50254,52.30576,-1.575246,103,25.78,9.0,30.2,18 / 24,5025441,2019-08-31 11:14:05:520,0.2295,-0.373,10.5059,0.0073,-0.0449,9.8065,-0.016,0.0037,0.0494,15.53,-14.29,-21.32,42.34,-2.75,4.01
50255,52.30576,-1.575246,103,25.78,9.0,30.2,18 / 24,5025540,2019-08-31 11:14:05:619,0.3028,-0.1866,10.6092,0.0093,-0.0021,9.8066,0.0244,-0.024,0.0292,15.53,-14.29,-21.32,42.34,-2.75,4.01
50256,52.30576,-1.575246,103,25.78,9.0,30.2,18 / 24,5025641,2019-08-31 11:14:05:720,-0.0214,-0.0286,9.6923,-0.0154,0.0047,9.8066,-0.0182,-0.0187,0.0228,16.09,-14.45,-20.79,42.41,-2.73,4.1
50257,52.30576,-1.575246,103,25.78,9.0,30.2,18 / 24,5025741,2019-08-31 11:14:05:820,0.4767,0.1124,9.8787,-0.028,0.025,9.8066,-0.016,0.0463,0.0079,16.65,-14.49,-20.32,40.7,-2.69,4.02
50258,52.30576,-1.575246,103,25.78,9.0,30.2,18 / 24,5025842,2019-08-31 11:14:05:921,-0.1081,0.166,10.0521,-0.041,0.0577,9.8064,-0.016,0.0463,0.0079,16.2,-14.96,-20.34,43.86,-2.72,3.61
50259,52.30576,-1.575246,103,25.78,9.0,30.2,18 / 24,5025941,2019-08-31 11:14:06:020,0.4677,0.3113,9.8611,-0.0125,0.0179,9.8066,-0.0086,0.0303,0.0313,15.65,-14.96,-20.77,43.86,-2.72,3.61
50260,52.30576,-1.575246,103,25.78,9.0,30.2,18 / 24,5026041,2019-08-31 11:14:06:120,0.1225,0.0099,8.7792,-0.0053,0.0175,9.8066,-0.0139,-0.0315,0.0516,15.62,-14.91,-20.82,43.81,-2.77,3.51
50261,52.30597,-1.575075,102,25.8,9.0,28.9,18 / 24,5026141,2019-08-31 11:14:06:220,0.2614,0.1781,9.2252,0.0254,-0.0123,9.8066,0.0489,-0.0133,0.0239,15.62,-14.91,-20.82,43.81,-2.77,3.51
50262,52.30597,-1.575075,102,25.8,9.0,28.9,18 / 24,5026240,2019-08-31 11:14:06:319,0.3602,0.0818,10.8827,0.0147,-0.0221,9.8066,0.0063,-0.0091,0.0164,15.91,-14.16,-21.13,42.06,-2.83,3.67
50263,52.30597,-1.575075,102,25.8,9.0,28.9,18 / 24,5026341,2019-08-31 11:14:06:420,0.0293,0.2936,8.7985,0.0096,-0.0115,9.8066,-0.0118,-0.0133,0.0121,15.91,-14.16,-21.13,42.06,-2.83,3.67
50264,52.30597,-1.575075,102,25.8,9.0,28.9,18 / 24,5026442,2019-08-31 11:14:06:521,0.1101,0.211,9.3216,-0.0071,0.0125,9.8066,-0.0203,0.0122,0.0292,16.0,-13.85,-21.27,42.12,-2.83,3.76
50265,52.30597,-1.575075,102,25.8,9.0,28.9,18 / 24,5026541,2019-08-31 11:14:06:620,-0.2472,0.2488,9.8572,-0.0208,0.0264,9.8066,-0.0033,0.0101,0.0121,15.72,-13.98,-21.39,41.99,-2.84,3.56
50266,52.30597,-1.575075,102,25.8,9.0,28.9,18 / 24,5026643,2019-08-31 11:14:06:722,0.0564,0.0336,10.0282,-0.0005,-0.0217,9.8066,0.0127,-0.0176,0.0452,16.03,-13.88,-21.22,41.99,-2.84,3.56
50267,52.30597,-1.575075,102,25.8,9.0,28.9,18 / 24,5026741,2019-08-31 11:14:06:820,0.1659,0.089,8.9671,0.0082,-0.023,9.8066,0.0127,-0.0176,0.0452,16.03,-13.88,-21.22,41.99,-2.84,3.56
50268,52.30597,-1.575075,102,25.8,9.0,28.9,18 / 24,5026841,2019-08-31 11:14:06:920,0.0943,0.2001,10.8448,0.0168,0.0083,9.8066,-0.0022,0.0218,0.0239,16.05,-13.74,-21.3,42.1,-2.78,3.69
50269,52.30597,-1.575075,102,25.8,9.0,28.9,18 / 24,5026942,2019-08-31 11:14:07:021,-0.5531,-0.1401,8.8578,-0.0013,0.009,9.8066,0.0095,0.0186,0.0228,15.43,-13.67,-21.8,43.83,-2.89,3.72
50270,52.306175,-1.574907,102,25.78,9.0,27.7,18 / 24,5027040,2019-08-31 11:14:07:119,1.1282,-0.1523,8.5725,-0.0001,0.0043,9.8066,0.0404,0.0666,-0.0028,15.43,-13.67,-21.8,43.83,-2.89,3.72
50271,52.306175,-1.574907,102,25.78,9.0,27.7,18 / 24,5027141,2019-08-31 11:14:07:220,-0.3321,-0.2877,9.3441,-0.0287,-0.0112,9.8066,-0.016,0.0026,0.0281,15.97,-13.15,-21.73,40.17,-2.91,3.7
50272,52.306175,-1.574907,102,25.78,9.0,27.7,18 / 24,5027241,2019-08-31 11:14:07:320,-0.7156,-0.2773,9.3291,-0.0753,0.002,9.8064,-0.0192,0.0495,0.0153,15.81,-13.54,-21.6,40.17,-2.91,3.7
50273,52.306175,-1.574907,102,25.78,9.0,27.7,18 / 24,5027342,2019-08-31 11:14:07:421,0.0875,0.277,11.0034,-0.0072,0.0213,9.8066,0.0202,0.0442,0.0335,16.6,-13.83,-20.81,40.4,-2.58,3.41
50274,52.306175,-1.574907,102,25.78,9.0,27.7,18 / 24,5027441,2019-08-31 11:14:07:520,0.6358,-0.0338,10.3818,0.0126,0.025,9.8066,-0.0065,0.0218,0.0505,16.21,-13.34,-21.43,39.97,-2.73,3.35
50275,52.306175,-1.574907,102,25.78,9.0,27.7,18 / 24,5027541,2019-08-31 11:14:07:620,-0.294,-0.1978,11.0044,0.0231,-0.0006,9.8066,0.0298,0.0069,0.0143,16.61,-12.89,-21.4,38.38,-2.83,3.44
50276,52.306175,-1.574907,102,25.78,9.0,27.7,18 / 24,5027641,2019-08-31 11:14:07:720,0.3748,-0.0448,8.7248,-0.017,-0.0075,9.8066,-0.0405,0.008,0.0228,16.61,-12.89,-21.4,38.38,-2.83,3.44
50277,52.306175,-1.574907,102,25.78,9.0,27.7,18 / 24,5027741,2019-08-31 11:14:07:820,0.2369,0.3421,10.4728,-0.0199,0.0337,9.8066,-0.0405,0.008,0.0228,16.86,-13.08,-21.09,38.41,-2.73,3.41
50278,52.306175,-1.574907,102,25.78,9.0,27.7,18 / 24,5027841,2019-08-31 11:14:07:920,0.7887,-0.2301,8.5135,-0.0242,0.0484,9.8065,0.0106,0.0591,-0.0102,16.15,-14.37,-20.81,41.7,-2.79,3.1
50279,52.306175,-1.574907,102,25.78,9.0,27.7,18 / 24,5027941,2019-08-31 11:14:08:020,0.3213,0.2849,10.3829,0.0098,-0.0041,9.8066,0.0319,-0.0805,0.0036,16.15,-14.37,-20.81,41.72,-2.82,3.15
50280,52.30638,-1.574735,102,25.88,9.0,26.5,18 / 24,5028042,2019-08-31 11:14:08:121,-0.3864,0.0715,9.1751,-0.0199,-0.0129,9.8066,0.0053,-0.041,0.0441,16.15,-14.37,-20.81,41.72,-2.82,3.15
50281,52.30638,-1.574735,102,25.88,9.0,26.5,18 / 24,5028141,2019-08-31 11:14:08:220,-0.0837,-0.0246,10.9796,0.0086,-0.0043,9.8066,0.0575,0.0548,0.0026,16.83,-14.11,-20.44,40.13,-2.68,3.13
50282,52.30638,-1.574735,102,25.88,9.0,26.5,18 / 24,5028241,2019-08-31 11:14:08:320,-0.0275,-0.1074,9.2771,0.0187,-0.014,9.8066,-0.015,-0.0091,0.0292,16.7,-14.46,-20.31,40.2,-2.71,3.27
50283,52.30638,-1.574735,102,25.88,9.0,26.5,18 / 24,5028341,2019-08-31 11:14:08:420,0.4602,0.0741,9.0849,-0.0073,0.0032,9.8066,-0.0033,0.0122,0.0228,16.7,-14.46,-20.31,40.2,-2.71,3.27
50284,52.30638,-1.574735,102,25.88,9.0,26.5,18 / 24,5028442,2019-08-31 11:14:08:521,-0.111,-0.116,11.0382,-0.0204,0.0029,9.8066,-0.0033,0.0122,0.0228,16.89,-13.11,-21.05,40.2,-2.71,3.27
50285,52.30638,-1.574735,102,25.88,9.0,26.5,18 / 24,5028541,2019-08-31 11:14:08:620,-0.1128,0.1333,9.2886,-0.0114,-0.0108,9.8066,0.0159,-0.0112,0.0335,16.86,-13.08,-21.09,38.3,-2.63,3.18
50286,52.30638,-1.574735,102,25.88,9.0,26.5,18 / 24,5028641,2019-08-31 11:14:08:720,0.3237,0.0346,9.9939,0.0207,-0.0006,9.8066,0.0063,0.0474,0.0345,15.82,-13.47,-21.64,39.94,-2.64,3.18
50287,52.30638,-1.574735,102,25.88,9.0,26.5,18 / 24,5028741,2019-08-31 11:14:08:820,0.1878,0.1608,9.2161,0.0133,0.0048,9.8066,-0.0043,-0.0037,0.026,15.82,-13.47,-21.64,39.94,-2.64,3.18
50288,52.30638,-1.574735,102,25.88,9.0,26.5,18 / 24,5028841,2019-08-31 11:14:08:920,0.257,0.2077,10.0702,0.0015,0.0084,9.8066,-0.0001,0.0218,0.0185,16.41,-12.61,-21.72,39.91,-2.72,3.21
50289,52.30638,-1.574735,102,25.88,9.0,26.5,18 / 24,5028941,2019-08-31 11:14:09:020,-0.7562,0.1345,9.4718,0.0001,0.0068,9.8066,-0.0192,-0.0623,0.0207,15.95,-14.19,-21.08,41.77,-2.75,3.17
50290,52.30638,-1.574735,102,25.74,9.0,25.5,18 / 24,5029041,2019-08-31 11:14:09:120,0.3404,-0.1799,10.3096,-0.0091,0.021,9.8066,-0.0001,-0.0229,0.0377,15.95,-14.19,-21.08,41.77,-2.75,3.17
50291,52.306587,-1.574573,102,25.74,9.0,25.5,18 / 24,5029141,2019-08-31 11:14:09:220,-0.1483,-0.1942,9.856,-0.0143,-0.0087,9.8066,-0.0001,-0.0229,0.0377,16.32,-14.06,-20.88,41.66,-2.8,3.05
50292,52.306587,-1.574573,102,25.74,9.0,25.5,18 / 24,5029241,2019-08-31 11:14:09:320,-0.2778,-0.1986,9.4519,-0.0224,-0.019,9.8066,0.0351,0.0399,0.0111,16.49,-13.21,-21.3,39.81,-2.62,3.04
50293,52.306587,-1.574573,102,25.74,9.0,25.5,18 / 24,5029341,2019-08-31 11:14:09:420,0.2646,-0.0314,9.5812,0.019,0.0,9.8066,0.0223,0.0303,0.0175,16.89,-13.11,-21.05,39.81,-2.62,3.04
50294,52.306587,-1.574573,102,25.74,9.0,25.5,18 / 24,5029441,2019-08-31 11:14:09:520,0.0888,0.0509,11.2171,0.0348,-0.0065,9.8066,0.0255,0.0335,0.0089,16.89,-13.11,-21.05,39.81,-2.62,3.04
50295,52.306587,-1.574573,102,25.74,9.0,25.5,18 / 24,5029540,2019-08-31 11:14:09:619,0.0507,0.3214,9.3613,0.0338,0.0003,9.8066,0.0351,0.0176,0.0185,16.73,-13.4,-20.98,38.25,-2.76,3.2
50296,52.306587,-1.574573,102,25.74,9.0,25.5,18 / 24,5029641,2019-08-31 11:14:09:720,0.6548,0.2121,10.5741,0.069,-0.0043,9.8064,0.05,0.0112,0.0153,17.0,-12.52,-21.32,38.28,-3.06,3.47
50297,52.306587,-1.574573,102,25.74,9.0,25.5,18 / 24,5029740,2019-08-31 11:14:09:819,-0.2114,0.1761,9.3024,0.0242,-0.0107,9.8066,0.0138,-0.0282,0.042,16.34,-13.02,-21.52,39.97,-3.13,3.61
50298,52.306587,-1.574573,102,25.74,9.0,25.5,18 / 24,5029841,2019-08-31 11:14:09:920,0.684,-0.3069,8.5256,0.018,-0.0604,9.8065,0.001,-0.0123,-0.0049,16.34,-13.02,-21.52,39.97,-3.13,3.61
50299,52.306587,-1.574573,102,25.74,9.0,25.5,18 / 24,5029941,2019-08-31 11:14:10:020,-0.2346,0.1752,9.8394,-0.0551,0.0041,9.8065,0.001,-0.0123,-0.0049,16.68,-12.63,-21.5,38.71,-2.98,3.95
50300,52.306793,-1.574417,103,25.45,9.0,24.8,18 / 24,5030041,2019-08-31 11:14:10:120,0.2628,-0.3731,8.8129,-0.0974,0.0142,9.8062,-0.0565,-0.0804,0.0356,16.46,-12.46,-21.76,38.2,-2.59,3.53
50301,52.306793,-1.574417,103,25.45,9.0,24.8,18 / 24,5030141,2019-08-31 11:14:10:220,-0.3845,-0.2368,8.4331,-0.022,0.0083,9.8066,-0.0555,-0.0027,0.0324,16.46,-12.46,-21.76,38.2,-2.59,3.53
50302,52.306793,-1.574417,103,25.45,9.0,24.8,18 / 24,5030242,2019-08-31 11:14:10:321,-0.6347,0.2985,12.1657,-0.017,0.009,9.8066,0.0436,0.0293,-0.0124,16.59,-13.21,-21.22,38.52,-2.52,3.41
