,GPS LATITUDE (degrees), GPS LONGITUDE (degrees), GPS ALTITUDE (m), GPS SPEED (Kmh), GPS ACCURACY (m), GPS ORIENTATION (Â°),GPS SATELLITES IN RANGE, TIME SINCE START (ms), DATE (YYYY-MO-DD HH-MI-SS_SSS), ACCELEROMETER X (m/s²) , ACCELEROMETER Y (m/s²), ACCELEROMETER Z (m/s²), GRAVITY X (m/s²), GRAVITY Y (m/s²), GRAVITY Z (m/s²), GYROSCOPE Yaw (rad/s), GYROSCOPE Pitch (rad/s), GYROSCOPE Roll (rad/s), MAGNETIC FIELD X (Î¼T), MAGNETIC FIELD Y (Î¼T), MAGNETIC FIELD Z (Î¼T), ORIENTATION (Yaw) (Â°), ORIENTATION (Pitch) (Â°), ORIENTATION (Roll ) (Â°)
34370,50.738976,-3.972871,288,26.14,12.0,249.0,Oct-18,3437139,2019-08-17 08:17:46:506,0.7147,-0.2909,10.0661,-0.0153,-0.025,9.8066,0.001,-0.0628,-0.0075,-11.57,22.4,-21.08,240.56,4.49,1.53
34371,50.738976,-3.972871,288,26.14,12.0,249.0,Oct-18,3437239,2019-08-17 08:17:46:606,0.7096,0.0676,9.3209,0.0183,-0.0023,9.8066,0.001,-0.0628,-0.0075,-11.2,22.03,-21.08,239.56,4.32,1.54
34372,50.738976,-3.972871,288,26.14,12.0,249.0,Oct-18,3437339,2019-08-17 08:17:46:706,0.266,0.1712,9.3476,0.044,0.0057,9.8066,-0.016,-0.0691,-0.0011,-11.57,22.4,-21.52,237.43,4.48,1.33
34373,50.738976,-3.972871,288,26.14,12.0,249.0,Oct-18,3437440,2019-08-17 08:17:46:807,0.5918,0.272,9.7509,0.0225,0.0178,9.8066,-0.0416,-0.0042,0.0341,-11.2,22.03,-20.7,237.43,4.48,1.33
34374,50.738876,-3.973236,288,26.2,12.0,247.7,Oct-18,3437539,2019-08-17 08:17:46:906,0.3387,-0.1333,11.0585,0.0317,0.0111,9.8066,-0.0213,-0.0137,0.0415,-11.57,22.03,-21.95,237.39,4.63,1.21
34375,50.738876,-3.973236,288,26.2,12.0,247.7,Oct-18,3437639,2019-08-17 08:17:47:006,0.3194,0.269,10.9608,-0.0222,-0.0095,9.8066,0.0202,-0.002,0.0192,-11.57,22.03,-21.95,237.39,4.63,1.21
34376,50.738876,-3.973236,288,26.2,12.0,247.7,Oct-18,3437739,2019-08-17 08:17:47:106,0.9486,-0.474,11.2208,-0.0285,-0.0176,9.8066,0.0607,0.0683,-0.0107,-11.57,22.4,-21.08,237.61,4.51,1.29
34377,50.738876,-3.973236,288,26.2,12.0,247.7,Oct-18,3437840,2019-08-17 08:17:47:207,-0.1176,-0.2844,11.2394,-0.0221,-0.013,9.8066,-0.0075,0.0054,0.0319,-11.57,22.4,-20.27,237.86,4.34,1.38
34378,50.738876,-3.973236,288,26.2,12.0,247.7,Oct-18,3437939,2019-08-17 08:17:47:306,-0.2704,0.4607,9.7475,-0.002,-0.0215,9.8066,0.0085,-0.0308,0.0074,-11.95,22.03,-20.27,237.96,4.23,1.32
34379,50.738876,-3.973236,288,26.2,12.0,247.7,Oct-18,3438040,2019-08-17 08:17:47:407,-0.2397,0.1053,8.5068,0.0188,0.0211,9.8066,0.0085,-0.0308,0.0074,-11.95,22.03,-20.27,237.96,4.23,1.32
34380,50.738876,-3.973236,288,26.2,12.0,247.7,Oct-18,3438140,2019-08-17 08:17:47:507,0.0611,0.017,9.4588,0.0038,-0.0069,9.8066,-0.0384,0.0342,0.0032,-11.95,22.03,-20.27,237.86,4.39,1.29
34381,50.738876,-3.973236,288,26.2,12.0,247.7,Oct-18,3438239,2019-08-17 08:17:47:606,0.0829,0.0024,9.9683,0.0187,-0.0037,9.8066,-0.0021,-0.0169,0.0255,-11.95,22.4,-20.64,237.73,4.37,1.25
34382,50.738876,-3.973236,288,26.2,12.0,247.7,Oct-18,3438339,2019-08-17 08:17:47:706,0.4092,0.2613,10.0223,0.0502,0.0077,9.8065,0.0213,-0.0329,0.0341,-11.57,22.03,-20.27,237.88,4.56,1.03
34383,50.738876,-3.973236,288,26.2,12.0,247.7,Oct-18,3438440,2019-08-17 08:17:47:807,-0.1549,-0.1247,10.4053,0.014,0.0135,9.8066,-0.0362,-0.0212,0.0138,-11.57,22.03,-20.27,237.88,4.56,1.03
34384,50.7388,-3.973598,286,26.35,12.0,246.7,Oct-18,3438540,2019-08-17 08:17:47:907,0.3325,-0.1549,9.0817,0.0084,-0.0122,9.8066,-0.033,0.0299,0.0202,-11.57,22.03,-20.7,237.77,4.53,0.95
34385,50.7388,-3.973598,286,26.35,12.0,246.7,Oct-18,3438639,2019-08-17 08:17:48:006,0.09,-0.041,10.2747,-0.0158,-0.0482,9.8065,0.0096,-0.0393,0.0437,-12.32,22.03,-21.52,237.77,4.53,0.95
34386,50.7388,-3.973598,286,26.35,12.0,246.7,Oct-18,3438740,2019-08-17 08:17:48:107,0.2556,-0.4953,10.6788,-0.0445,-0.0439,9.8065,0.0096,-0.0393,0.0437,-12.32,22.03,-21.52,237.77,4.53,0.95
34387,50.7388,-3.973598,286,26.35,12.0,246.7,Oct-18,3438840,2019-08-17 08:17:48:207,-0.1265,0.2223,10.2455,-0.0309,0.01,9.8066,0.0618,-0.0553,0.0266,-11.95,22.4,-20.7,237.97,4.17,1.03
34388,50.7388,-3.973598,286,26.35,12.0,246.7,Oct-18,3438939,2019-08-17 08:17:48:306,-0.6254,0.0126,9.9191,-0.0156,0.0014,9.8066,-0.0213,0.1301,0.0373,-12.32,22.4,-20.27,238.07,4.13,1.22
34389,50.7388,-3.973598,286,26.35,12.0,246.7,Oct-18,3439040,2019-08-17 08:17:48:407,-0.2516,0.0468,9.9967,-0.0177,0.0309,9.8066,-0.0224,-0.018,0.0096,-12.32,22.4,-20.27,238.07,4.13,1.22
34390,50.7388,-3.973598,286,26.35,12.0,246.7,Oct-18,3439139,2019-08-17 08:17:48:506,0.4876,0.0992,8.3554,0.0046,0.0364,9.8066,-0.0149,-0.0404,0.0458,-11.95,21.65,-19.89,237.92,4.22,1.4
34391,50.7388,-3.973598,286,26.35,12.0,246.7,Oct-18,3439239,2019-08-17 08:17:48:606,0.0667,0.078,10.966,0.0056,0.0319,9.8066,-0.0213,0.0395,0.0319,-11.95,21.65,-20.64,237.59,4.4,1.47
34392,50.7388,-3.973598,286,26.35,12.0,246.7,Oct-18,3439340,2019-08-17 08:17:48:707,-0.4232,-0.0158,10.9931,-0.0081,-0.0202,9.8066,-0.0309,-0.0031,0.0415,-11.95,21.65,-20.64,237.59,4.4,1.47
34393,50.7388,-3.973598,286,26.35,12.0,246.7,Oct-18,3439440,2019-08-17 08:17:48:807,-0.2587,-0.0831,10.1158,-0.0217,-0.0125,9.8066,0.0202,0.0832,0.0224,-11.95,21.72,-19.83,237.86,4.27,1.45
34394,50.738693,-3.973963,285,26.71,12.0,245.6,Oct-18,3439540,2019-08-17 08:17:48:907,-0.3173,-0.0206,9.2626,-0.0435,-0.0366,9.8065,0.0202,0.0832,0.0224,-11.95,21.34,-20.27,236.79,3.96,1.55
34395,50.738693,-3.973963,285,26.71,12.0,245.6,Oct-18,3439639,2019-08-17 08:17:49:006,-0.1892,-0.2116,9.9562,0.0089,0.002,9.8066,-0.0245,0.0651,0.0255,-12.32,21.34,-20.64,236.67,3.9,1.53
34396,50.738693,-3.973963,285,26.71,12.0,245.6,Oct-18,3439740,2019-08-17 08:17:49:107,0.1285,0.0559,9.0513,0.0238,0.0193,9.8066,-0.0011,-0.1203,0.0213,-12.7,21.65,-20.7,236.67,3.9,1.53
34397,50.738693,-3.973963,285,26.71,12.0,245.6,Oct-18,3439839,2019-08-17 08:17:49:206,0.465,-0.0686,9.9933,0.0356,0.0421,9.8065,0.0074,-0.0329,0.033,-11.95,21.65,-20.64,237.71,4.22,1.49
34398,50.738693,-3.973963,285,26.71,12.0,245.6,Oct-18,3439939,2019-08-17 08:17:49:306,0.2205,-0.1745,9.1738,-0.0074,-0.0092,9.8066,-0.0053,0.0661,0.033,-11.95,21.65,-20.64,237.71,4.22,1.49
34399,50.738693,-3.973963,285,26.71,12.0,245.6,Oct-18,3440040,2019-08-17 08:17:49:407,-0.1533,-0.1279,10.6796,0.0006,0.0,9.8066,-0.0277,0.0022,0.049,-12.7,21.65,-20.27,236.05,4.15,1.49
34400,50.738693,-3.973963,285,26.71,12.0,245.6,Oct-18,3440141,2019-08-17 08:17:49:508,-0.4917,-0.0844,10.6941,0.0023,-0.0081,9.8066,-0.0437,0.0108,0.0437,-13.07,21.34,-20.64,236.05,4.15,1.49
34401,50.738693,-3.973963,285,26.71,12.0,245.6,Oct-18,3440240,2019-08-17 08:17:49:607,0.0673,-0.0077,10.5903,0.0181,-0.0122,9.8066,-0.0437,0.0108,0.0437,-12.32,21.65,-21.08,237.82,4.15,1.37
34402,50.738693,-3.973963,285,26.71,12.0,245.6,Oct-18,3440340,2019-08-17 08:17:49:707,0.0827,-0.0649,10.7241,0.0076,-0.0184,9.8066,0.0042,-0.0159,0.0128,-12.32,21.65,-21.08,237.82,4.15,1.37
34403,50.738693,-3.973963,285,26.71,12.0,245.6,Oct-18,3440440,2019-08-17 08:17:49:807,0.4967,-0.1369,10.3987,0.009,-0.0273,9.8066,-0.016,-0.0372,0.033,-13.07,21.34,-20.64,234.82,4.04,1.24
34404,50.738586,-3.974287,286,26.14,11.0,243.9,Oct-18,3440540,2019-08-17 08:17:49:907,-0.2527,-0.4069,12.079,0.003,-0.0063,9.8066,0.0266,0.0267,0.0277,-12.7,21.34,-20.7,234.82,4.04,1.24
34405,50.738586,-3.974287,286,26.14,11.0,243.9,Nov-18,3440640,2019-08-17 08:17:50:007,0.3681,-0.2133,9.8882,0.0045,0.0138,9.8066,-0.0064,-0.0191,0.0437,-12.7,21.34,-20.7,234.75,4.12,1.26
34406,50.738586,-3.974287,286,26.14,11.0,243.9,Nov-18,3440739,2019-08-17 08:17:50:106,-0.1265,-0.1412,10.2965,-0.0059,0.022,9.8066,0.0085,-0.0287,0.0543,-13.07,21.34,-20.7,234.75,4.12,1.26
34407,50.738586,-3.974287,286,26.14,11.0,243.9,Nov-18,3440840,2019-08-17 08:17:50:207,-0.1763,0.0207,10.1856,-0.0145,0.0289,9.8066,0.0469,-0.0223,0.0181,-12.7,21.34,-20.27,234.77,4.21,1.43
34408,50.738586,-3.974287,286,26.14,11.0,243.9,Nov-18,3440939,2019-08-17 08:17:50:306,-0.357,-0.0897,10.5421,-0.0135,0.0009,9.8066,0.0596,-0.018,0.0245,-12.7,21.34,-20.27,234.77,4.21,1.43
34409,50.738586,-3.974287,286,26.14,11.0,243.9,Nov-18,3441040,2019-08-17 08:17:50:407,-0.0877,0.137,9.2108,-0.0292,0.0222,9.8066,0.0596,-0.018,0.0245,-12.7,21.65,-21.08,234.77,4.21,1.43
34410,50.738586,-3.974287,286,26.14,11.0,243.9,Nov-18,3441140,2019-08-17 08:17:50:507,-0.0653,0.0797,8.409,-0.0161,0.0071,9.8066,0.016,-0.0031,0.033,-12.7,21.34,-20.27,234.66,4.22,1.64
34411,50.738586,-3.974287,286,26.14,11.0,243.9,Nov-18,3441240,2019-08-17 08:17:50:607,-0.1135,0.3509,9.2322,-0.0213,0.0103,9.8066,-0.0096,-0.0862,0.0351,-13.07,21.65,-20.7,234.66,4.22,1.64
34412,50.738586,-3.974287,286,26.14,11.0,243.9,Nov-18,3441340,2019-08-17 08:17:50:707,-0.0863,0.0267,10.58,0.0055,0.0037,9.8066,0.0181,-0.0819,0.0255,-13.45,21.34,-20.7,234.42,4.2,1.78
34413,50.738586,-3.974287,286,26.14,11.0,243.9,Nov-18,3441440,2019-08-17 08:17:50:807,0.1586,0.368,9.1866,-0.0065,0.0171,9.8066,0.0149,0.0289,0.0341,-12.7,21.34,-20.64,234.33,4.26,1.87
34414,50.738506,-3.974503,282,26.0,11.0,242.8,Nov-18,3441539,2019-08-17 08:17:50:906,0.1674,0.0912,8.8761,0.003,-0.012,9.8066,-0.0085,0.0715,0.0192,-12.7,21.34,-20.64,234.33,4.26,1.87
34415,50.738506,-3.974503,282,26.0,11.0,242.8,Nov-18,3441639,2019-08-17 08:17:51:006,-0.1149,0.0173,9.7585,0.0126,-0.0051,9.8066,-0.0235,-0.0425,0.0319,-12.7,21.34,-21.08,234.41,4.19,1.8
34416,50.738506,-3.974503,282,26.0,11.0,242.8,Nov-18,3441739,2019-08-17 08:17:51:106,0.2464,-0.0584,10.0224,-0.0037,0.0058,9.8066,0.017,0.0416,0.0458,-13.07,21.34,-20.64,234.44,4.21,1.73
34417,50.738506,-3.974503,282,26.0,11.0,242.8,Nov-18,3441839,2019-08-17 08:17:51:206,-0.2548,-0.0152,9.9428,-0.0262,0.0007,9.8066,-0.0011,0.0416,0.0458,-13.07,21.34,-21.08,234.41,4.23,1.76
34418,50.738506,-3.974503,282,26.0,11.0,242.8,Nov-18,3441940,2019-08-17 08:17:51:307,-0.0145,-0.1439,9.5282,-0.0307,-0.0023,9.8066,-0.0011,0.0353,0.0458,-13.07,21.34,-21.08,234.41,4.23,1.76
34419,50.738506,-3.974503,282,26.0,11.0,242.8,Nov-18,3442040,2019-08-17 08:17:51:407,0.5247,0.2577,7.0931,0.0163,0.0308,9.8066,-0.0298,-0.0052,0.033,-13.45,21.65,-20.64,235.7,4.11,1.9
34420,50.738506,-3.974503,282,26.0,11.0,242.8,Nov-18,3442140,2019-08-17 08:17:51:507,-0.0652,0.0046,9.8643,0.0094,0.0284,9.8066,0.0053,-0.181,0.0266,-13.07,21.34,-20.64,234.26,4.31,1.92
34421,50.738506,-3.974503,282,26.0,11.0,242.8,Nov-18,3442239,2019-08-17 08:17:51:606,-0.7642,0.1967,9.7245,-0.006,0.056,9.8065,0.0319,-0.0052,0.0255,-13.07,20.97,-20.2,234.17,4.56,2.14
34422,50.738506,-3.974503,282,26.0,11.0,242.8,Nov-18,3442339,2019-08-17 08:17:51:706,-0.1511,0.1603,11.0088,-0.0261,0.0064,9.8066,-0.0032,0.0523,0.0064,-13.07,20.97,-20.2,234.17,4.56,2.14
34423,50.738506,-3.974503,282,26.0,11.0,242.8,Nov-18,3442441,2019-08-17 08:17:51:808,-0.0446,-0.1555,10.944,-0.0271,-0.0125,9.8066,-0.0586,-0.0052,0.0309,-13.76,21.65,-21.08,233.54,4.41,2.23
34424,50.73839,-3.974844,281,25.98,10.0,241.4,Nov-18,3442540,2019-08-17 08:17:51:907,0.2699,-0.1649,9.823,0.0305,-0.0501,9.8065,-0.0171,0.0182,0.0383,-13.76,21.34,-20.64,233.54,4.41,2.23
34425,50.73839,-3.974844,281,25.98,10.0,241.4,Nov-18,3442640,2019-08-17 08:17:52:007,0.1388,-0.5355,10.681,0.0165,-0.0642,9.8064,-0.0171,0.0182,0.0383,-13.45,20.59,-21.45,234.36,4.16,1.93
34426,50.73839,-3.974844,281,25.98,10.0,241.4,Nov-18,3442740,2019-08-17 08:17:52:107,0.0547,-0.1419,10.5421,0.0013,0.0194,9.8066,0.0213,0.0044,0.0511,-13.45,21.34,-21.08,234.36,4.16,1.93
34427,50.73839,-3.974844,281,25.98,10.0,241.4,Nov-18,3442839,2019-08-17 08:17:52:206,0.0771,-0.1334,10.8655,0.005,0.039,9.8066,0.0319,-0.0446,0.0277,-13.45,21.34,-21.08,234.36,4.16,1.93
34428,50.73839,-3.974844,281,25.98,10.0,241.4,Nov-18,3442940,2019-08-17 08:17:52:307,-0.0658,0.1911,9.2054,0.0169,0.0079,9.8066,-0.0266,-0.0308,0.001,-13.45,21.34,-20.2,234.35,4.37,2.04
34429,50.73839,-3.974844,281,25.98,10.0,241.4,Nov-18,3443040,2019-08-17 08:17:52:407,-0.0896,-0.1078,10.4962,0.0298,0.0103,9.8066,-0.0203,-0.0308,0.0277,-13.76,21.34,-20.64,232.32,4.52,1.93
34430,50.73839,-3.974844,281,25.98,10.0,241.4,Nov-18,3443140,2019-08-17 08:17:52:507,0.2808,0.1155,10.0081,0.0194,0.0113,9.8066,0.0362,-0.0276,0.0287,-13.76,21.34,-20.64,232.32,4.52,1.93
34431,50.73839,-3.974844,281,25.98,10.0,241.4,Nov-18,3443240,2019-08-17 08:17:52:607,0.2011,-0.0142,9.9354,-0.0047,0.0216,9.8066,0.0117,-0.0329,0.0469,-13.76,20.59,-21.08,232.27,4.64,1.88
34432,50.73839,-3.974844,281,25.98,10.0,241.4,Nov-18,3443340,2019-08-17 08:17:52:707,-0.045,-0.1688,10.4058,-0.0267,0.0174,9.8066,0.0042,0.0534,0.0319,-13.45,20.97,-20.64,232.27,4.64,1.88
34433,50.73839,-3.974844,281,25.98,10.0,241.4,Nov-18,3443439,2019-08-17 08:17:52:806,0.2071,0.0667,10.8531,-0.0138,-0.0037,9.8066,-0.0149,-0.0319,0.0117,-13.45,21.34,-21.08,233.96,4.56,2.17
34434,50.738274,-3.975171,280,25.93,10.0,239.8,Nov-18,3443539,2019-08-17 08:17:52:906,0.4668,0.651,8.6994,-0.0103,-0.0136,9.8066,-0.0149,-0.0319,0.0117,-13.45,21.34,-21.08,233.96,4.56,2.17
34435,50.738274,-3.975171,280,25.93,10.0,239.8,Nov-18,3443640,2019-08-17 08:17:53:007,0.4008,-0.2452,9.2828,0.0212,-0.0276,9.8066,-0.0405,0.0672,0.0351,-14.14,20.97,-20.64,232.22,4.46,2.17
34436,50.738274,-3.975171,280,25.93,10.0,239.8,Nov-18,3443740,2019-08-17 08:17:53:107,-0.1504,-0.0766,10.4081,0.006,-0.0117,9.8066,-0.0341,0.0171,0.0415,-14.14,20.97,-21.08,232.36,4.41,1.97
34437,50.738274,-3.975171,280,25.93,10.0,239.8,Nov-18,3443840,2019-08-17 08:17:53:207,0.5336,-0.2359,9.891,0.0179,-0.0102,9.8066,-0.0171,0.0065,0.0373,-14.14,20.59,-21.89,232.24,4.42,1.85
34438,50.738274,-3.975171,280,25.93,10.0,239.8,Nov-18,3443939,2019-08-17 08:17:53:306,0.4023,0.0801,8.607,-0.0077,0.0174,9.8066,-0.0298,-0.0159,0.05,-14.14,20.59,-21.89,232.24,4.42,1.85
34439,50.738274,-3.975171,280,25.93,10.0,239.8,Nov-18,3444039,2019-08-17 08:17:53:406,0.2009,0.5699,9.0425,-0.0164,0.0103,9.8066,-0.0139,-0.0766,0.0074,-14.07,20.28,-21.72,230.74,4.48,1.95
34440,50.738274,-3.975171,280,25.93,10.0,239.8,Nov-18,3444140,2019-08-17 08:17:53:507,0.382,-0.4752,11.4886,-0.0369,-0.0133,9.8066,-0.0032,-0.0361,0.0692,-14.07,20.28,-21.28,230.98,4.28,2.07
34441,50.738274,-3.975171,280,25.93,10.0,239.8,Nov-18,3444239,2019-08-17 08:17:53:606,-0.3893,-0.0002,10.7268,0.0107,-0.0023,9.8066,-0.0149,0.0161,0.0351,-14.82,19.91,-21.28,229.25,4.31,2.01
34442,50.738274,-3.975171,280,25.93,10.0,239.8,Nov-18,3444339,2019-08-17 08:17:53:706,-0.4305,0.6002,9.2581,-0.036,0.0181,9.8066,0.0778,0.0118,0.0202,-14.82,19.91,-21.28,229.25,4.31,2.01
34443,50.738274,-3.975171,280,25.93,10.0,239.8,Nov-18,3444439,2019-08-17 08:17:53:806,1.0804,-0.2499,9.5771,-0.0091,0.0126,9.8066,0.0778,0.0118,0.0202,-14.45,20.66,-21.28,232.31,4.25,2.24
34444,50.738274,-3.975171,280,25.93,10.0,239.8,Nov-18,3444540,2019-08-17 08:17:53:907,-0.1051,-0.0832,9.933,0.0089,0.0177,9.8066,0.065,-0.0457,0.05,-14.45,20.66,-22.16,232.06,4.28,2.33
34445,50.738148,-3.975489,280,25.99,10.0,238.3,Nov-18,3444639,2019-08-17 08:17:54:006,0.0324,-0.5343,11.6998,0.0296,0.0189,9.8066,-0.0298,0.0054,0.0458,-14.82,21.41,-22.16,230.25,4.47,2.26
34446,50.738148,-3.975489,280,25.99,10.0,238.3,Nov-18,3444739,2019-08-17 08:17:54:106,-0.0165,0.1122,10.2153,-0.004,-0.0097,9.8066,0.0128,-0.0532,0.0181,-14.82,21.41,-22.16,230.25,4.47,2.26
34447,50.738148,-3.975489,280,25.99,10.0,238.3,Nov-18,3444839,2019-08-17 08:17:54:206,0.2703,-0.1099,9.9041,-0.0152,-0.0288,9.8066,-0.0075,0.0598,0.0479,-14.07,20.28,-20.91,230.89,4.28,2.22
34448,50.738148,-3.975489,280,25.99,10.0,238.3,Nov-18,3444939,2019-08-17 08:17:54:306,0.1072,0.4302,8.1881,0.0016,0.0008,9.8067,-0.0341,-0.0468,0.0341,-14.07,20.28,-20.91,230.89,4.28,2.22
34449,50.738148,-3.975489,280,25.99,10.0,238.3,Nov-18,3445039,2019-08-17 08:17:54:406,-0.3918,-0.1378,9.7789,-0.0051,-0.0069,9.8066,0.0,0.0779,-0.0032,-14.45,20.28,-20.47,231.08,4.29,2.22
34450,50.738148,-3.975489,280,25.99,10.0,238.3,Nov-18,3445140,2019-08-17 08:17:54:507,-0.0961,-0.4151,9.8199,-0.0063,-0.0162,9.8066,-0.0181,-0.0095,0.017,-14.45,20.28,-20.47,231.15,4.2,2.19
34451,50.738148,-3.975489,280,25.99,10.0,238.3,Nov-18,3445240,2019-08-17 08:17:54:607,0.0125,-0.0823,9.4556,0.003,0.0097,9.8066,-0.0181,-0.0095,0.017,-14.82,20.66,-20.53,230.74,4.19,2.03
34452,50.738148,-3.975489,280,25.99,10.0,238.3,Nov-18,3445339,2019-08-17 08:17:54:706,-0.3188,0.2266,8.6012,0.0067,0.0278,9.8066,0.0234,-0.0542,0.0351,-14.82,20.66,-20.53,230.74,4.19,2.03
34453,50.738148,-3.975489,280,25.99,10.0,238.3,Nov-18,3445440,2019-08-17 08:17:54:807,-0.5228,0.3786,9.2875,0.0166,0.0158,9.8066,0.0639,0.0108,0.0085,-14.45,20.66,-21.35,232.33,4.34,2.1
34454,50.73802,-3.975807,278,26.14,10.0,236.7,Oct-18,3445539,2019-08-17 08:17:54:906,0.7228,0.0909,9.2395,0.0297,0.0057,9.8066,-0.0597,0.0054,0.0532,-14.82,20.66,-21.35,230.54,4.47,2.08
34455,50.73802,-3.975807,278,26.14,10.0,236.7,Oct-18,3445639,2019-08-17 08:17:55:006,0.1121,0.116,9.9749,0.0208,-0.0099,9.8066,-0.0266,0.0161,0.0426,-14.45,21.03,-20.91,232.31,4.5,1.95
34456,50.73802,-3.975807,278,26.14,10.0,236.7,Oct-18,3445739,2019-08-17 08:17:55:106,-0.0824,0.0984,9.4731,-0.0045,-0.0317,9.8066,0.0351,-0.0084,0.0202,-14.45,20.28,-20.91,231.07,4.34,1.86
34457,50.73802,-3.975807,278,26.14,10.0,236.7,Oct-18,3445840,2019-08-17 08:17:55:207,-0.0772,0.3181,10.2311,0.0006,0.0021,9.8067,0.0426,-0.0436,0.0383,-14.45,20.28,-20.91,231.07,4.34,1.86
34458,50.73802,-3.975807,278,26.14,10.0,236.7,Oct-18,3445939,2019-08-17 08:17:55:306,0.2121,-0.3183,9.8434,-0.0024,0.0099,9.8066,0.0426,-0.0436,0.0383,-14.82,19.91,-20.47,229.49,4.35,1.86
34459,50.73802,-3.975807,278,26.14,10.0,236.7,Oct-18,3446039,2019-08-17 08:17:55:406,0.1906,-0.0203,8.5062,-0.0004,0.0227,9.8066,0.0138,-0.0383,0.0128,-14.82,20.28,-21.78,229.02,4.45,1.95
34460,50.73802,-3.975807,278,26.14,10.0,236.7,Oct-18,3446140,2019-08-17 08:17:55:507,-0.064,0.0493,9.7112,0.0097,-0.0076,9.8066,-0.0128,-0.0223,0.0213,-15.2,20.28,-21.78,229.02,4.45,1.95
34461,50.73802,-3.975807,278,26.14,10.0,236.7,Oct-18,3446239,2019-08-17 08:17:55:606,-0.3062,-0.2158,10.8388,0.0509,0.0019,9.8065,-0.0139,0.0139,0.0224,-15.2,20.28,-21.78,229.02,4.45,1.95
34462,50.73802,-3.975807,278,26.14,10.0,236.7,Oct-18,3446340,2019-08-17 08:17:55:707,-0.3281,-0.1311,10.0273,-0.0038,-0.0349,9.8066,0.0032,0.0086,0.0277,-14.82,19.91,-21.78,229.03,4.65,1.73
34463,50.73802,-3.975807,278,26.14,10.0,236.7,Oct-18,3446439,2019-08-17 08:17:55:806,-0.059,-0.0381,9.8578,-0.0213,-0.0629,9.8064,0.0149,-0.0063,0.0138,-15.2,19.91,-21.35,229.51,4.3,1.59
34464,50.737896,-3.976128,276,26.1,10.0,235.5,Oct-18,3446544,2019-08-17 08:17:55:911,-0.1586,0.1097,10.5198,-0.0029,-0.0171,9.8066,0.0458,-0.0042,0.0042,-15.2,20.28,-21.41,229.6,4.21,1.53
34465,50.737896,-3.976128,276,26.1,10.0,235.5,Oct-18,3446639,2019-08-17 08:17:56:006,0.3516,-0.0436,9.5716,0.014,0.0183,9.8066,0.0458,-0.0042,0.0042,-15.2,20.28,-21.41,229.6,4.21,1.53
34466,50.737896,-3.976128,276,26.1,10.0,235.5,Oct-18,3446739,2019-08-17 08:17:56:106,-0.007,-0.2774,10.295,-0.0008,0.005,9.8066,-0.0352,-0.0127,0.0255,-15.2,19.91,-21.78,229.34,4.34,1.54
34467,50.737896,-3.976128,276,26.1,10.0,235.5,Oct-18,3446840,2019-08-17 08:17:56:207,0.2178,0.0398,9.5061,0.0023,0.0067,9.8066,-0.0032,-0.0265,0.0149,-15.2,19.53,-21.41,229.34,4.34,1.54
34468,50.737896,-3.976128,276,26.1,10.0,235.5,Oct-18,3446939,2019-08-17 08:17:56:306,-0.0765,-0.0106,10.2031,0.009,0.0395,9.8066,0.017,-0.018,0.0053,-15.57,19.91,-21.41,227.67,4.55,1.65
34469,50.737896,-3.976128,276,26.1,10.0,235.5,Oct-18,3447040,2019-08-17 08:17:56:407,-0.0081,-0.0058,9.8885,0.0285,0.0135,9.8066,-0.0096,0.0086,0.0234,-15.57,19.91,-21.41,227.67,4.55,1.65
34470,50.737896,-3.976128,276,26.1,10.0,235.5,Oct-18,3447139,2019-08-17 08:17:56:506,0.1242,0.0029,8.7063,-0.0128,-0.0387,9.8066,0.016,0.0374,0.0277,-15.2,19.53,-22.28,229.08,4.72,1.58
34471,50.737896,-3.976128,276,26.1,10.0,235.5,Oct-18,3447239,2019-08-17 08:17:56:606,-0.1097,-0.2985,10.5672,-0.0121,-0.0232,9.8066,0.0277,-0.0095,0.0202,-15.2,19.91,-21.03,229.44,4.5,1.49
34472,50.737896,-3.976128,276,26.1,10.0,235.5,Oct-18,3447340,2019-08-17 08:17:56:707,-0.0043,-0.5545,10.0315,-0.0012,-0.004,9.8067,-0.0213,0.064,0.0255,-15.57,19.53,-21.47,227.9,4.35,1.46
34473,50.737896,-3.976128,276,26.1,10.0,235.5,Oct-18,3447440,2019-08-17 08:17:56:807,0.096,0.1868,9.0281,-0.0127,-0.0127,9.8066,-0.0117,0.0001,0.0245,-15.57,19.53,-21.47,227.9,4.35,1.46
34474,50.737755,-3.976427,276,26.16,10.0,234.0,Nov-18,3447539,2019-08-17 08:17:56:906,0.3157,-0.4074,9.9178,-0.0138,-0.0066,9.8066,-0.0117,0.0001,0.0245,-15.57,19.91,-21.03,227.95,4.25,1.46
34475,50.737755,-3.976427,276,26.16,10.0,234.0,Nov-18,3447639,2019-08-17 08:17:57:006,0.0257,-0.1086,9.9832,-0.0037,-0.0061,9.8066,0.0277,-0.0052,0.0362,-15.95,19.53,-21.85,227.95,4.25,1.46
34476,50.737755,-3.976427,276,26.16,10.0,234.0,Nov-18,3447740,2019-08-17 08:17:57:107,0.083,0.0458,9.9602,0.0144,0.0156,9.8066,-0.0352,-0.0159,0.0287,-15.95,19.91,-21.47,227.98,4.21,1.45
34477,50.737755,-3.976427,276,26.16,10.0,234.0,Nov-18,3447840,2019-08-17 08:17:57:207,0.2603,-0.1116,8.879,0.022,0.0237,9.8066,0.0266,-0.0361,0.0117,-15.95,19.91,-21.47,227.88,4.4,1.45
34478,50.737755,-3.976427,276,26.16,10.0,234.0,Nov-18,3447939,2019-08-17 08:17:57:306,0.0407,0.2512,9.9646,-0.0096,-0.0104,9.8066,-0.0448,-0.001,0.0362,-15.57,19.91,-21.47,227.92,4.31,1.45
34479,50.737755,-3.976427,276,26.16,10.0,234.0,Nov-18,3448041,2019-08-17 08:17:57:408,-0.1783,0.1142,10.2272,0.008,-0.0002,9.8066,0.0447,0.015,0.0096,-15.57,19.91,-21.47,227.92,4.31,1.45
34480,50.737755,-3.976427,276,26.16,10.0,234.0,Nov-18,3448140,2019-08-17 08:17:57:507,0.6623,-0.1042,8.4584,0.0136,-0.0134,9.8066,-0.0362,0.0161,0.0511,-15.57,19.91,-21.03,227.93,4.34,1.41
34481,50.737755,-3.976427,276,26.16,10.0,234.0,Nov-18,3448240,2019-08-17 08:17:57:607,-0.1407,0.0904,11.0847,0.0015,-0.0269,9.8066,0.0106,0.1066,0.016,-15.95,19.91,-21.03,228.06,4.23,1.3
34482,50.737755,-3.976427,276,26.16,10.0,234.0,Nov-18,3448339,2019-08-17 08:17:57:706,-0.0259,-0.0764,10.0565,-0.0137,-0.0143,9.8066,0.0106,0.1066,0.016,-15.95,19.91,-21.03,228.06,4.23,1.3
34483,50.737755,-3.976427,276,26.16,10.0,234.0,Nov-18,3448440,2019-08-17 08:17:57:807,-0.3122,0.1021,10.7936,0.0031,0.0186,9.8066,0.0373,-0.0319,0.0287,-15.95,19.53,-21.1,228.12,4.12,1.31
34484,50.737617,-3.97673,274,26.19,10.0,232.8,Oct-18,3448540,2019-08-17 08:17:57:907,0.7734,-0.0441,9.6726,0.0094,0.0375,9.8066,0.0011,-0.0137,0.0575,-15.95,19.91,-21.47,228.12,4.12,1.31
34485,50.737617,-3.97673,274,26.19,10.0,232.8,Oct-18,3448640,2019-08-17 08:17:58:007,0.2343,-0.0207,9.4338,-0.0092,0.042,9.8066,0.017,-0.0074,0.0298,-16.32,19.91,-21.03,227.91,4.26,1.51
34486,50.737617,-3.97673,274,26.19,10.0,232.8,Oct-18,3448739,2019-08-17 08:17:58:106,0.5222,0.1202,10.0297,-0.018,-0.0103,9.8066,-0.0437,-0.0713,0.0245,-16.32,19.91,-21.03,227.91,4.26,1.51
34487,50.737617,-3.97673,274,26.19,10.0,232.8,Oct-18,3448839,2019-08-17 08:17:58:206,-0.2011,-0.1387,10.6146,0.0044,0.0059,9.8066,0.0074,-0.0287,0.0117,-15.95,19.53,-21.03,227.89,4.31,1.51
34488,50.737617,-3.97673,274,26.19,10.0,232.8,Oct-18,3448939,2019-08-17 08:17:58:306,-0.4693,-0.8672,13.4155,0.0367,-0.0081,9.8066,0.0064,-0.1256,0.0138,-15.95,19.53,-21.03,227.89,4.31,1.51
34489,50.737617,-3.97673,274,26.19,10.0,232.8,Oct-18,3449039,2019-08-17 08:17:58:406,-0.0163,0.3219,10.5264,-0.0614,-0.0105,9.8065,-0.0554,0.2014,0.0202,-15.95,19.16,-21.47,226.44,4.42,1.32
34490,50.737617,-3.97673,274,26.19,10.0,232.8,Oct-18,3449140,2019-08-17 08:17:58:507,0.303,0.0893,10.0334,-0.0092,-0.0153,9.8066,0.0128,0.0512,0.0437,-16.32,19.53,-21.91,227.82,4.12,1.54
34491,50.737617,-3.97673,274,26.19,10.0,232.8,Oct-18,3449240,2019-08-17 08:17:58:607,-0.6365,-0.1821,12.1807,0.005,0.0195,9.8066,0.0128,0.0512,0.0437,-16.32,19.53,-21.91,227.82,4.12,1.54
34492,50.737617,-3.97673,274,26.19,10.0,232.8,Oct-18,3449339,2019-08-17 08:17:58:706,-0.6733,0.0293,11.8397,0.0128,0.0051,9.8066,0.0287,-0.0393,0.0373,-16.32,19.53,-21.47,227.88,4.23,1.6
34493,50.737617,-3.97673,274,26.19,10.0,232.8,Oct-18,3449439,2019-08-17 08:17:58:806,0.5781,-0.0448,9.0004,0.0001,0.0049,9.8066,0.0415,0.0374,0.0181,-16.32,19.53,-21.47,227.86,4.25,1.62
34494,50.737465,-3.977013,274,26.03,10.0,231.3,Oct-18,3449539,2019-08-17 08:17:58:906,0.0094,0.0171,11.0521,-0.0309,-0.022,9.8066,0.0096,0.0214,0.0202,-16.32,19.53,-21.47,227.86,4.25,1.62
34495,50.737465,-3.977013,274,26.03,10.0,231.3,Oct-18,3449639,2019-08-17 08:17:59:006,0.4677,-0.1835,9.0283,0.0091,0.009,9.8066,-0.0426,-0.0659,0.033,-17.01,19.91,-21.47,226.37,4.03,1.66
34496,50.737465,-3.977013,274,26.03,10.0,231.3,Oct-18,3449739,2019-08-17 08:17:59:106,0.2027,0.0207,8.5217,-0.0245,-0.0097,9.8066,0.0501,0.064,0.0138,-16.32,19.53,-22.28,227.63,4.31,1.66
34497,50.737465,-3.977013,274,26.03,10.0,231.3,Oct-18,3449839,2019-08-17 08:17:59:206,-0.0561,0.0357,10.1126,-0.043,-0.0057,9.8066,0.016,0.0289,0.0479,-16.32,19.53,-22.28,227.63,4.31,1.66
34498,50.737465,-3.977013,274,26.03,10.0,231.3,Oct-18,3449940,2019-08-17 08:17:59:307,0.0421,0.1962,9.4873,0.0119,0.0271,9.8066,0.016,0.0289,0.0479,-17.01,19.53,-21.47,226.23,4.12,1.82
34499,50.737465,-3.977013,274,26.03,10.0,231.3,Oct-18,3450039,2019-08-17 08:17:59:406,-0.1755,0.3408,9.4853,0.0212,0.029,9.8066,0.0021,-0.0201,0.0298,-16.32,19.16,-21.47,226.17,4.28,1.88
34500,50.737465,-3.977013,274,26.03,10.0,231.3,Oct-18,3450139,2019-08-17 08:17:59:506,0.0353,-0.0387,9.5272,0.0325,0.0135,9.8066,-0.0309,0.0129,0.0437,-16.32,19.53,-21.03,227.62,4.47,1.8
34501,50.737465,-3.977013,274,26.03,10.0,231.3,Oct-18,3450239,2019-08-17 08:17:59:606,0.3104,0.3442,8.6851,0.0,-0.0111,9.8066,-0.0213,0.0896,0.0351,-16.32,19.53,-21.03,227.62,4.47,1.8
34502,50.737465,-3.977013,274,26.03,10.0,231.3,Oct-18,3450340,2019-08-17 08:17:59:707,-0.175,0.0191,10.5188,-0.0156,0.0014,9.8066,0.0319,0.0044,0.0298,-16.7,19.16,-22.28,224.42,4.42,1.76
34503,50.737465,-3.977013,274,26.03,10.0,231.3,Oct-18,3450439,2019-08-17 08:17:59:806,-0.451,-0.1555,10.9045,-0.0376,0.0065,9.8066,-0.0426,0.0171,0.0213,-17.01,19.16,-20.66,224.55,4.29,1.94
34504,50.73731,-3.977303,274,26.04,9.0,230.0,Oct-18,3450539,2019-08-17 08:17:59:906,-0.0921,-0.3803,10.1614,-0.0014,-0.0283,9.8066,-0.0458,-0.0084,0.0309,-17.01,19.16,-20.66,224.55,4.29,1.94
34505,50.73731,-3.977303,274,26.04,9.0,230.0,Oct-18,3450640,2019-08-17 08:18:00:007,-0.0454,0.1723,9.0404,0.0081,-0.0474,9.8065,-0.0266,-0.0489,0.05,-17.39,19.16,-21.47,224.78,4.13,1.71
34506,50.73731,-3.977303,274,26.04,9.0,230.0,Oct-18,3450739,2019-08-17 08:18:00:106,0.1265,0.0848,8.511,0.0944,0.0487,9.8061,-0.0266,-0.0489,0.05,-16.32,19.16,-21.03,224.78,4.13,1.71
34507,50.73731,-3.977303,274,26.04,9.0,230.0,Oct-18,3450840,2019-08-17 08:18:00:207,0.0699,0.1484,9.8373,0.0081,-0.0084,9.8066,-0.0021,-0.0244,0.0458,-17.01,18.78,-20.22,224.74,4.72,1.52
34508,50.73731,-3.977303,274,26.04,9.0,230.0,Oct-18,3450940,2019-08-17 08:18:00:307,-0.0324,-0.1256,10.5928,-0.003,-0.0508,9.8065,-0.0181,0.0928,0.0522,-17.01,18.78,-21.03,224.74,4.72,1.52
34509,50.73731,-3.977303,274,26.04,9.0,230.0,Oct-18,3451040,2019-08-17 08:18:00:407,0.0966,0.0464,10.2375,-0.0179,-0.0747,9.8064,-0.0117,0.0363,0.0287,-17.01,18.78,-21.03,224.74,4.72,1.52
34510,50.73731,-3.977303,274,26.04,9.0,230.0,Oct-18,3451140,2019-08-17 08:18:00:507,-0.5415,-0.0968,11.3702,-0.0035,-0.0217,9.8066,-0.0181,-0.0106,0.0234,-16.7,19.16,-21.03,224.93,4.34,1.28
34511,50.73731,-3.977303,274,26.04,9.0,230.0,Oct-18,3451240,2019-08-17 08:18:00:607,-0.0791,-0.2665,9.9349,-0.0186,-0.0234,9.8066,0.0309,0.08,0.0202,-17.01,18.78,-21.03,224.93,4.34,1.28
34512,50.73731,-3.977303,274,26.04,9.0,230.0,Oct-18,3451340,2019-08-17 08:18:00:707,0.078,-0.3767,10.6131,-0.0309,-0.0247,9.8066,-0.0277,-0.0617,0.0351,-17.01,18.78,-21.47,225.04,4.11,1.31
34513,50.73731,-3.977303,274,26.04,9.0,230.0,Oct-18,3451440,2019-08-17 08:18:00:807,-0.142,0.262,9.4592,-0.002,0.0195,9.8066,0.0128,0.0054,0.0319,-17.01,18.78,-21.47,225.04,4.11,1.31
34514,50.73731,-3.977303,274,26.04,9.0,230.0,Oct-18,3451539,2019-08-17 08:18:00:906,0.5119,0.028,8.7049,-0.0091,0.024,9.8066,0.0128,0.0054,0.0319,-17.01,18.78,-21.85,224.79,4.19,1.4
34515,50.737152,-3.977581,274,25.92,9.0,228.5,Oct-18,3451643,2019-08-17 08:18:01:010,0.0386,0.1083,10.2863,-0.0224,0.0535,9.8065,-0.0416,-0.0116,0.0607,-17.39,18.78,-21.85,224.79,4.19,1.4
34516,50.737152,-3.977581,274,25.92,9.0,228.5,Oct-18,3451739,2019-08-17 08:18:01:106,0.2161,-0.2951,9.6741,0.0151,0.0056,9.8066,-0.0458,-0.0425,0.0362,-17.31,18.83,-21.26,224.68,4.31,1.71
34517,50.737152,-3.977581,274,25.92,9.0,228.5,Oct-18,3451840,2019-08-17 08:18:01:207,0.2299,-0.2114,9.2731,0.0248,-0.0028,9.8066,0.0117,-0.0223,0.0362,-17.31,19.21,-21.69,224.68,4.31,1.71
34518,50.737152,-3.977581,274,25.92,9.0,228.5,Oct-18,3451939,2019-08-17 08:18:01:306,-0.2519,0.2597,10.3731,0.0258,-0.016,9.8066,-0.0096,0.0118,0.0351,-17.31,19.21,-21.69,224.68,4.31,1.71
34519,50.737152,-3.977581,274,25.92,9.0,228.5,Oct-18,3452040,2019-08-17 08:18:01:407,0.0008,-0.3688,10.5219,-0.0119,0.0135,9.8066,-0.0085,0.0118,0.0319,-17.31,19.21,-21.63,224.6,4.35,1.54
34520,50.737152,-3.977581,274,25.92,9.0,228.5,Oct-18,3452139,2019-08-17 08:18:01:506,-0.2603,0.2158,9.9072,-0.0108,-0.0043,9.8066,-0.0799,0.0598,0.0224,-17.31,18.46,-22.07,224.6,4.35,1.54
34521,50.737152,-3.977581,274,25.92,9.0,228.5,Oct-18,3452240,2019-08-17 08:18:01:607,-0.3922,-0.0923,9.9252,0.001,-0.0261,9.8066,-0.0799,0.0598,0.0224,-17.31,19.21,-21.63,224.62,4.29,1.56
34522,50.737152,-3.977581,274,25.92,9.0,228.5,Oct-18,3452339,2019-08-17 08:18:01:706,0.0742,-0.298,10.3395,0.0042,-0.0574,9.8065,-0.0053,-0.001,0.0042,-17.69,18.46,-22.07,221.83,4.07,1.31
34523,50.737152,-3.977581,274,25.92,9.0,228.5,Oct-18,3452440,2019-08-17 08:18:01:807,0.1793,-0.0839,10.1974,0.0139,0.0024,9.8066,0.0202,-0.0638,0.0373,-17.69,18.46,-22.07,221.83,4.07,1.31
34524,50.736988,-3.977859,273,26.07,9.0,227.4,Oct-18,3452540,2019-08-17 08:18:01:907,0.148,-0.3656,9.7459,-0.027,-0.0163,9.8066,-0.0384,0.015,0.0458,-17.69,18.46,-21.26,221.86,4.25,1.34
34525,50.736988,-3.977859,273,26.07,9.0,227.4,Oct-18,3452639,2019-08-17 08:18:02:006,0.0464,0.3348,8.5697,-0.0223,-0.0222,9.8066,0.0064,0.0928,0.0362,-18.06,18.46,-22.07,221.86,4.25,1.34
34526,50.736988,-3.977859,273,26.07,9.0,227.4,Oct-18,3452739,2019-08-17 08:18:02:106,-0.2564,-0.0296,10.2553,0.0034,-0.0079,9.8066,-0.0053,-0.0596,0.0373,-17.69,18.83,-20.82,223.48,4.23,1.29
34527,50.736988,-3.977859,273,26.07,9.0,227.4,Oct-18,3452839,2019-08-17 08:18:02:206,-0.7248,-0.4513,11.1842,-0.0023,0.03,9.8066,-0.0011,0.0651,0.0692,-17.69,18.83,-20.82,223.48,4.23,1.29
34528,50.736988,-3.977859,273,26.07,9.0,227.4,Oct-18,3452939,2019-08-17 08:18:02:306,0.0869,0.3245,8.9751,-0.0174,0.0004,9.8066,0.0074,-0.034,0.05,-17.69,18.83,-21.63,223.19,4.35,1.43
34529,50.736988,-3.977859,273,26.07,9.0,227.4,Oct-18,3453039,2019-08-17 08:18:02:406,-0.1218,0.3973,10.5947,-0.0635,-0.0007,9.8064,0.0074,-0.034,0.05,-17.69,18.83,-22.07,223.19,4.35,1.43
34530,50.736988,-3.977859,273,26.07,9.0,227.4,Oct-18,3453140,2019-08-17 08:18:02:507,-0.5141,-0.0471,10.5268,-0.0773,0.0197,9.8063,0.0,-0.0244,0.0394,-18.06,18.83,-22.07,223.07,4.09,1.82
34531,50.736988,-3.977859,273,26.07,9.0,227.4,Oct-18,3453239,2019-08-17 08:18:02:606,-0.5577,0.3719,9.8437,0.0195,-0.0034,9.8066,-0.0224,0.0768,0.0362,-18.06,18.83,-22.07,223.07,4.09,1.82
34532,50.736988,-3.977859,273,26.07,9.0,227.4,Oct-18,3453340,2019-08-17 08:18:02:707,-0.5173,0.2549,9.2076,0.0007,-0.0241,9.8066,-0.0469,0.0001,0.0746,-18.06,18.83,-21.26,223.24,4.16,1.73
34533,50.736988,-3.977859,273,26.07,9.0,227.4,Oct-18,3453439,2019-08-17 08:18:02:806,-0.0959,0.2471,9.7337,-0.0107,-0.025,9.8066,0.0213,-0.0063,0.0117,-18.06,18.83,-21.63,223.21,4.02,1.67
34534,50.73683,-3.978127,273,25.93,9.0,226.8,Oct-18,3453540,2019-08-17 08:18:02:907,-0.0959,0.2471,9.7337,0.0117,0.0169,9.8066,0.0426,-0.0446,0.0021,-18.06,18.15,-21.26,221.69,4.14,1.69
34535,50.73683,-3.978127,273,25.93,9.0,226.8,Oct-18,3453639,2019-08-17 08:18:03:006,0.4626,-0.2754,8.961,0.0218,0.0286,9.8066,-0.0245,0.0033,0.0383,-18.06,18.15,-21.26,221.69,4.14,1.69
34536,50.73683,-3.978127,273,25.93,9.0,226.8,Oct-18,3453740,2019-08-17 08:18:03:107,0.607,0.0275,10.3694,0.0132,-0.0141,9.8066,0.0192,0.0161,0.0149,-18.06,18.46,-21.63,221.4,4.34,1.73
34537,50.73683,-3.978127,273,25.93,9.0,226.8,Oct-18,3453839,2019-08-17 08:18:03:206,0.4154,-0.4961,10.0292,0.0093,-0.0213,9.8066,0.0192,0.0161,0.0149,-17.69,18.46,-22.88,221.32,4.35,1.62
34538,50.73683,-3.978127,273,25.93,9.0,226.8,Oct-18,3453939,2019-08-17 08:18:03:306,-0.0899,0.3463,8.8588,-0.0196,-0.0225,9.8066,-0.0128,0.0267,0.0405,-16.56,18.15,-24.13,221.32,4.35,1.62
34539,50.73683,-3.978127,273,25.93,9.0,226.8,Oct-18,3454040,2019-08-17 08:18:03:407,-0.2158,0.001,10.4445,-0.0383,-0.0394,9.8065,0.0501,0.0843,0.0117,-16.56,18.15,-24.13,221.32,4.35,1.62
34540,50.73683,-3.978127,273,25.93,9.0,226.8,Oct-18,3454139,2019-08-17 08:18:03:506,-0.2441,-0.1923,9.9189,-0.0034,0.0055,9.8067,0.0,-0.05,0.033,-21.0,18.15,-23.26,217.52,4.03,1.59
34541,50.73683,-3.978127,273,25.93,9.0,226.8,Oct-18,3454240,2019-08-17 08:18:03:607,-0.2847,0.9968,8.9961,0.0187,0.0274,9.8066,-0.0533,-0.05,0.0767,-19.5,18.15,-22.01,217.52,4.03,1.59
34542,50.73683,-3.978127,273,25.93,9.0,226.8,Oct-18,3454340,2019-08-17 08:18:03:707,0.1312,0.2365,10.1247,0.0643,0.0285,9.8064,0.0,-0.0106,0.0522,-19.19,18.15,-21.63,220.11,4.43,1.5
34543,50.73683,-3.978127,273,25.93,9.0,226.8,Oct-18,3454439,2019-08-17 08:18:03:806,0.6322,-0.0878,9.6241,0.0153,0.0078,9.8066,0.0138,-0.0212,0.0405,-18.81,18.83,-21.63,221.66,4.52,1.47
34544,50.736706,-3.97841,273,25.35,10.0,228.1,Oct-18,3454540,2019-08-17 08:18:03:907,-0.223,-0.2823,11.8454,-0.0265,-0.0109,9.8066,0.0298,-0.0393,0.0149,-18.44,18.15,-21.57,221.61,4.35,1.42
34545,50.736706,-3.97841,273,25.35,10.0,228.1,Oct-18,3454640,2019-08-17 08:18:04:007,-0.3532,0.0245,10.0758,-0.0297,-0.0287,9.8066,0.0032,0.047,0.016,-18.44,18.15,-21.57,221.61,4.35,1.42
34546,50.736706,-3.97841,273,25.35,10.0,228.1,Oct-18,3454739,2019-08-17 08:18:04:106,0.5205,-0.4194,9.8263,0.0267,-0.0167,9.8066,0.0032,0.047,0.016,-19.19,18.46,-21.63,220.33,4.11,1.41
34547,50.736706,-3.97841,273,25.35,10.0,228.1,Oct-18,3454839,2019-08-17 08:18:04:206,0.8094,-0.3395,8.8007,0.0523,-0.0333,9.8065,-0.0288,-0.051,0.0245,-18.81,18.15,-22.01,220.51,4.21,1.06
34548,50.736706,-3.97841,273,25.35,10.0,228.1,Oct-18,3454940,2019-08-17 08:18:04:307,-0.0779,-0.1581,11.0733,0.0079,0.0091,9.8066,-0.0053,-0.0308,0.0138,-18.81,18.15,-22.01,220.51,4.21,1.06
34549,50.736706,-3.97841,273,25.35,10.0,228.1,Oct-18,3455040,2019-08-17 08:18:04:407,-0.5204,0.2365,9.8714,0.0102,0.0287,9.8066,0.0362,-0.0159,0.0426,-18.81,17.77,-21.63,220.51,4.21,1.06
34550,50.736706,-3.97841,273,25.35,10.0,228.1,Oct-18,3455140,2019-08-17 08:18:04:507,-0.092,0.2143,9.2842,0.0136,0.0116,9.8066,-0.032,0.0012,0.0224,-19.19,18.15,-21.63,220.37,4.37,1.15
34551,50.736706,-3.97841,273,25.35,10.0,228.1,Oct-18,3455239,2019-08-17 08:18:04:606,-0.006,-0.0156,10.4727,0.0166,-0.0064,9.8066,0.0074,0.0406,0.0255,-18.81,18.08,-21.26,220.54,4.42,1.06
34552,50.736706,-3.97841,273,25.35,10.0,228.1,Oct-18,3455340,2019-08-17 08:18:04:707,0.403,0.0038,9.8339,-0.0056,-0.0192,9.8066,-0.0075,-0.0265,0.0596,-19.5,17.77,-21.63,220.5,4.32,0.99
34553,50.736706,-3.97841,273,25.35,10.0,228.1,Oct-18,3455440,2019-08-17 08:18:04:807,-0.1231,0.5023,9.3704,-0.0371,0.0047,9.8066,0.0192,0.0747,0.0405,-19.5,17.77,-21.63,220.5,4.32,0.99
34554,50.736534,-3.978675,274,25.69,11.0,226.7,Oct-18,3455540,2019-08-17 08:18:04:907,0.1209,-0.2436,8.5126,-0.006,0.0243,9.8066,0.0192,0.0747,0.0405,-19.5,17.77,-21.26,220.6,4.17,1.16
34555,50.736534,-3.978675,274,25.69,11.0,226.7,Oct-18,3455640,2019-08-17 08:18:05:007,-0.0491,0.2611,9.8838,-0.0173,-0.0044,9.8066,-0.0064,0.0427,0.0351,-19.5,17.77,-21.63,220.35,4.24,1.29
34556,50.736534,-3.978675,274,25.69,11.0,226.7,Oct-18,3455740,2019-08-17 08:18:05:107,-0.3757,-0.1631,11.1264,-0.0375,0.0186,9.8066,0.0021,0.0321,0.0415,-20.25,17.77,-20.82,219.05,4.14,1.51
34557,50.736534,-3.978675,274,25.69,11.0,226.7,Oct-18,3455840,2019-08-17 08:18:05:207,0.4864,-0.2176,10.4678,-0.0166,0.0075,9.8066,0.0447,0.0278,0.0287,-20.25,17.77,-20.82,219.05,4.14,1.51
34558,50.736534,-3.978675,274,25.69,11.0,226.7,Oct-18,3455940,2019-08-17 08:18:05:307,-0.0921,-0.1933,10.2087,-0.0117,-0.0077,9.8066,0.0149,-0.0329,0.0298,-19.5,18.15,-20.76,220.35,4.1,1.61
34559,50.736534,-3.978675,274,25.69,11.0,226.7,Oct-18,3456040,2019-08-17 08:18:05:407,-0.397,-0.0525,9.9846,-0.0132,0.0106,9.8066,0.017,-0.0329,0.0138,-19.5,17.77,-21.19,220.3,4.08,1.7
34560,50.736534,-3.978675,274,25.69,11.0,226.7,Oct-18,3456139,2019-08-17 08:18:05:506,-0.2296,0.2828,9.6631,0.0052,0.0084,9.8066,0.017,-0.0329,0.0138,-19.5,17.77,-20.76,220.3,4.08,1.7
34561,50.736534,-3.978675,274,25.69,11.0,226.7,Oct-18,3456239,2019-08-17 08:18:05:606,-0.0229,0.1896,10.2604,0.0125,-0.0193,9.8066,-0.0501,0.0289,0.0532,-19.5,17.4,-20.76,218.73,4.06,1.57
34562,50.736534,-3.978675,274,25.69,11.0,226.7,Oct-18,3456339,2019-08-17 08:18:05:706,-0.1238,-0.1208,10.8948,-0.0036,-0.0025,9.8067,-0.0149,-0.0191,0.0266,-19.5,17.4,-20.76,218.73,4.06,1.57
34563,50.736534,-3.978675,274,25.69,11.0,226.7,Oct-18,3456439,2019-08-17 08:18:05:806,0.0453,0.0119,10.0842,-0.0276,-0.0234,9.8066,0.0362,0.0491,0.016,-19.5,17.4,-20.76,218.83,3.85,1.56
34564,50.736362,-3.978911,273,25.59,12.0,225.1,Oct-18,3456539,2019-08-17 08:18:05:906,-0.5436,-0.205,9.8509,-0.0595,-0.0031,9.8065,0.0522,-0.0265,0.0213,-19.5,18.15,-20.38,220.64,3.57,1.77
34565,50.736362,-3.978911,273,25.59,12.0,225.1,Sep-18,3456639,2019-08-17 08:18:06:006,0.1814,0.1938,8.1861,-0.0121,0.0083,9.8066,0.033,0.0086,-0.0032,-20.25,18.15,-19.94,219.17,3.39,2.09
34566,50.736362,-3.978911,273,25.59,12.0,225.1,Sep-18,3456740,2019-08-17 08:18:06:107,-0.5362,0.5301,8.3508,0.0492,-0.0032,9.8065,-0.0735,0.0289,-0.0512,-25.75,18.46,-8.38,219.17,3.39,2.09
34567,50.736362,-3.978911,273,25.59,12.0,225.1,Sep-18,3456839,2019-08-17 08:18:06:206,-0.2442,-0.3614,7.0981,0.0546,-0.0157,9.8065,-0.0842,0.0001,0.0192,-25.75,18.46,-8.38,219.17,3.39,2.09
34568,50.736362,-3.978911,273,25.59,12.0,225.1,Sep-18,3456939,2019-08-17 08:18:06:306,0.4826,0.0027,7.2162,0.0261,0.0069,9.8066,0.0373,-0.0574,-0.0043,-23.19,23.65,-4.19,225.74,3.58,1.82
34569,50.736362,-3.978911,273,25.59,12.0,225.1,Sep-18,3457039,2019-08-17 08:18:06:406,0.9345,0.0688,8.5417,0.014,0.0353,9.8066,0.0373,-0.0574,-0.0043,-22.81,22.15,-2.51,223.36,3.72,1.73
34570,50.736362,-3.978911,273,25.59,12.0,225.1,Sep-18,3457140,2019-08-17 08:18:06:507,-0.1169,0.5572,7.4696,0.0373,0.0882,9.8062,-0.0373,-0.1086,0.0437,-22.81,22.15,-2.51,223.36,3.72,1.73
34571,50.736362,-3.978911,273,25.59,12.0,225.1,Sep-18,3457240,2019-08-17 08:18:06:607,0.175,-0.5457,8.5403,-0.0263,-0.0408,9.8065,0.0234,0.0864,0.0181,-15.1,16.37,-20.1,222.9,4.23,1.96
34572,50.736362,-3.978911,273,25.59,12.0,225.1,Sep-18,3457340,2019-08-17 08:18:06:707,-0.3253,-1.018,11.3053,-0.0652,-0.0647,9.8062,0.0735,0.0374,0.0383,-20.62,15.9,-21.19,222.9,4.23,1.96
34573,50.736362,-3.978911,273,25.59,12.0,225.1,Sep-18,3457440,2019-08-17 08:18:06:807,0.4712,-0.0981,9.742,-0.1011,-0.0367,9.8061,0.0447,-0.1064,0.0607,-21.0,18.15,-21.19,217.56,3.65,2.21
34574,50.73617,-3.979124,272,25.61,11.0,221.7,Oct-17,3457539,2019-08-17 08:18:06:906,-0.5084,0.1474,10.4923,-0.0253,0.094,9.8062,0.0586,0.0321,0.0042,-21.0,18.15,-21.19,217.56,3.65,2.21
34575,50.73617,-3.979124,272,25.61,11.0,221.7,Oct-17,3457639,2019-08-17 08:18:07:006,-0.2182,-0.3055,9.1751,-0.0775,-0.0849,9.806,-0.0117,0.0331,0.0106,-20.62,18.52,-21.19,218.71,3.87,2.73
34576,50.73617,-3.979124,272,25.61,11.0,221.7,Oct-17,3457739,2019-08-17 08:18:07:106,-0.0325,0.1886,9.3198,-0.0082,-0.0671,9.8064,-0.0117,0.0331,0.0106,-20.62,18.83,-20.38,219.22,3.2,2.63
34577,50.73617,-3.979124,272,25.61,11.0,221.7,Oct-17,3457839,2019-08-17 08:18:07:206,-0.4223,0.2642,9.3213,0.027,0.0532,9.8065,0.0011,-0.099,0.0554,-20.25,18.52,-20.38,220.81,2.92,2.35
34578,50.73617,-3.979124,272,25.61,11.0,221.7,Oct-17,3457941,2019-08-17 08:18:07:308,-0.4373,0.5762,9.0767,0.0556,0.0662,9.8063,0.0362,-0.067,-0.0117,-20.25,18.52,-20.38,220.81,2.92,2.35
34579,50.73617,-3.979124,272,25.61,11.0,221.7,Oct-17,3458039,2019-08-17 08:18:07:406,0.4558,-0.1126,9.0527,0.0024,-0.0381,9.8066,-0.0693,0.0427,0.0245,-20.25,18.83,-19.94,220.54,3.42,2.43
34580,50.73617,-3.979124,272,25.61,11.0,221.7,Oct-17,3458139,2019-08-17 08:18:07:506,0.1933,0.0289,8.9143,0.0064,-0.0389,9.8066,-0.0075,-0.0084,0.0298,-20.25,18.52,-20.32,220.7,3.28,2.26
34581,50.73617,-3.979124,272,25.61,11.0,221.7,Oct-17,3458239,2019-08-17 08:18:07:606,0.0652,-0.2069,9.2716,0.0406,-0.0312,9.8065,0.0415,-0.0425,0.0074,-20.62,18.15,-20.38,217.98,3.34,1.96
34582,50.73617,-3.979124,272,25.61,11.0,221.7,Oct-17,3458340,2019-08-17 08:18:07:707,-0.0282,0.1149,9.7335,0.0137,0.0188,9.8066,0.033,0.0044,0.0096,-20.62,18.15,-20.38,217.98,3.34,1.96
34583,50.73617,-3.979124,272,25.61,11.0,221.7,Oct-17,3458440,2019-08-17 08:18:07:807,0.6523,-0.4768,9.4559,0.0076,-0.002,9.8066,0.0586,0.031,0.0,-20.62,18.15,-19.94,217.99,3.37,1.93
34584,50.73599,-3.979322,273,25.63,10.0,219.1,Oct-18,3458540,2019-08-17 08:18:07:907,0.3788,-0.2173,10.3938,-0.0188,-0.0321,9.8066,0.0085,-0.0297,0.0149,-20.62,18.15,-19.94,217.99,3.37,1.93
34585,50.73599,-3.979322,273,25.63,10.0,219.1,Oct-18,3458639,2019-08-17 08:18:08:006,0.4122,-0.0461,9.6381,0.0304,-0.0044,9.8066,0.0085,-0.0297,0.0149,-21.0,17.4,-19.51,216.49,3.17,1.85
34586,50.73599,-3.979322,273,25.63,10.0,219.1,Oct-18,3458739,2019-08-17 08:18:08:106,-0.0188,0.2632,9.6235,0.0365,-0.0228,9.8066,0.0628,-0.0084,-0.0043,-21.0,17.4,-20.32,216.59,3.26,1.61
34587,50.73599,-3.979322,273,25.63,10.0,219.1,Oct-18,3458840,2019-08-17 08:18:08:207,-0.2474,-0.0215,9.9633,0.0055,-0.0193,9.8066,0.0149,0.0736,0.0106,-21.0,17.4,-20.32,216.59,3.26,1.61
34588,50.73599,-3.979322,273,25.63,10.0,219.1,Oct-18,3458939,2019-08-17 08:18:08:306,-0.1414,0.2893,9.9882,0.0083,-0.0096,9.8066,-0.0298,-0.018,0.0341,-21.0,18.15,-19.94,218.3,3.22,1.5
34589,50.73599,-3.979322,273,25.63,10.0,219.1,Oct-18,3459039,2019-08-17 08:18:08:406,-0.1406,-0.2892,10.3533,0.0206,0.0007,9.8066,0.0106,0.0044,0.0128,-21.0,17.4,-19.88,216.68,3.32,1.43
34590,50.73599,-3.979322,273,25.63,10.0,219.1,Oct-18,3459139,2019-08-17 08:18:08:506,-0.0941,-0.108,9.659,0.0025,-0.006,9.8067,0.0394,0.0342,-0.0128,-21.0,17.4,-19.88,216.68,3.32,1.43
34591,50.73599,-3.979322,273,25.63,10.0,219.1,Oct-18,3459240,2019-08-17 08:18:08:607,0.1425,-0.2196,10.1484,-0.0136,-0.0222,9.8066,0.0437,0.0086,0.0,-21.75,17.77,-19.51,216.68,3.32,1.43
34592,50.73599,-3.979322,273,25.63,10.0,219.1,Oct-18,3459340,2019-08-17 08:18:08:707,-0.2338,0.2848,9.9436,-0.0145,-0.0217,9.8066,0.0437,0.0086,0.0,-21.37,18.52,-20.32,219.95,3.17,1.38
34593,50.73599,-3.979322,273,25.63,10.0,219.1,Oct-18,3459439,2019-08-17 08:18:08:806,0.1583,0.1331,9.0309,0.0175,0.0063,9.8066,0.016,-0.0372,0.0106,-21.37,18.52,-20.32,219.95,3.17,1.38
34594,50.735798,-3.979558,272,25.66,10.0,218.7,Oct-18,3459539,2019-08-17 08:18:08:906,-0.1665,-0.0557,10.6668,-0.0303,0.0082,9.8066,0.0234,-0.0148,0.016,-21.0,17.77,-19.51,218.38,3.28,1.34
34595,50.735798,-3.979558,272,25.66,10.0,218.7,Oct-18,3459640,2019-08-17 08:18:09:007,0.5034,-0.6003,10.8388,-0.0024,-0.0056,9.8066,-0.0469,0.0352,0.0298,-21.0,18.52,-19.94,219.89,3.17,1.49
34596,50.735798,-3.979558,272,25.66,10.0,218.7,Oct-18,3459739,2019-08-17 08:18:09:106,0.0491,-0.2529,9.597,0.0233,-0.0007,9.8066,0.0767,0.0022,-0.0064,-21.0,18.15,-19.51,219.89,3.17,1.49
34597,50.735798,-3.979558,272,25.66,10.0,218.7,Oct-18,3459840,2019-08-17 08:18:09:207,0.5245,-0.161,9.8342,0.0449,0.0014,9.8065,-0.0021,-0.067,-0.0086,-21.0,18.15,-19.51,219.89,3.17,1.49
34598,50.735798,-3.979558,272,25.66,10.0,218.7,Oct-18,3459940,2019-08-17 08:18:09:307,0.724,-0.3166,9.3174,0.0019,-0.0287,9.8066,0.0234,0.0086,0.0106,-21.0,18.15,-19.51,218.34,3.37,1.33
34599,50.735798,-3.979558,272,25.66,10.0,218.7,Oct-18,3460040,2019-08-17 08:18:09:407,0.8553,-0.5369,8.9208,-0.0021,-0.0468,9.8065,0.0501,0.0001,0.0149,-21.37,18.52,-19.94,220.09,3.19,1.12
34600,50.735798,-3.979558,272,25.66,10.0,218.7,Oct-18,3460139,2019-08-17 08:18:09:506,0.6868,0.0197,9.5741,0.0188,0.0056,9.8066,-0.0735,-0.017,0.0309,-21.37,18.52,-19.94,220.09,3.19,1.12
34601,50.735798,-3.979558,272,25.66,10.0,218.7,Oct-18,3460239,2019-08-17 08:18:09:606,-0.1509,-0.2723,10.2808,0.0294,-0.005,9.8066,-0.0735,-0.017,0.0309,-21.37,18.52,-19.94,220.09,3.19,1.12
34602,50.735798,-3.979558,272,25.66,10.0,218.7,Oct-18,3460339,2019-08-17 08:18:09:706,-0.0915,-0.2577,10.2962,0.032,-0.0291,9.8066,0.0011,0.0395,0.0277,-21.37,18.15,-19.94,218.67,3.23,0.87
34603,50.735798,-3.979558,272,25.66,10.0,218.7,Oct-18,3460439,2019-08-17 08:18:09:806,0.0961,0.1954,8.6755,0.0079,-0.01,9.8066,0.0415,-0.0383,-0.0181,-21.0,18.15,-19.51,218.73,3.14,0.83
34604,50.735607,-3.979776,271,25.49,10.0,218.2,Aug-18,3460539,2019-08-17 08:18:09:906,-0.4013,0.1654,9.7523,0.0145,-0.0144,9.8066,-0.0469,-0.1043,0.0138,-21.0,18.52,-19.94,220.32,3.14,0.76
34605,50.735607,-3.979776,271,25.49,10.0,218.2,Aug-18,3460639,2019-08-17 08:18:10:006,-0.4982,0.0214,11.3431,0.024,-0.0356,9.8066,0.0351,0.0715,-0.0096,-21.0,18.52,-19.94,220.32,3.14,0.76
34606,50.735607,-3.979776,271,25.49,10.0,218.2,Aug-18,3460740,2019-08-17 08:18:10:107,0.3716,-0.1208,9.3975,0.0095,-0.03,9.8066,0.0106,0.015,0.0117,-21.37,18.15,-19.94,218.93,3.11,0.51
34607,50.735607,-3.979776,271,25.49,10.0,218.2,Aug-18,3460840,2019-08-17 08:18:10:207,-0.6762,-0.0445,11.0622,0.0106,-0.0374,9.8066,0.0628,0.015,-0.0139,-21.0,18.52,-19.94,218.93,3.11,0.51
34608,50.735607,-3.979776,271,25.49,10.0,218.2,Aug-18,3460940,2019-08-17 08:18:10:307,0.0753,-0.545,9.0414,0.0155,-0.0237,9.8066,-0.0096,0.0161,-0.0086,-21.37,18.15,-19.94,219.09,3.02,0.3
34609,50.735607,-3.979776,271,25.49,10.0,218.2,Aug-18,3461040,2019-08-17 08:18:10:407,0.1307,-0.2233,10.4968,0.0461,-0.0534,9.8064,-0.0096,0.0161,-0.0086,-21.37,17.77,-19.88,219.09,3.02,0.3
34610,50.735607,-3.979776,271,25.49,10.0,218.2,Aug-18,3461140,2019-08-17 08:18:10:507,0.2786,-0.3855,8.9911,0.0719,-0.0918,9.806,-0.048,0.0086,-0.0203,-21.37,17.77,-19.88,219.09,3.02,0.3
34611,50.735607,-3.979776,271,25.49,10.0,218.2,Aug-18,3461239,2019-08-17 08:18:10:606,0.0731,-0.4508,9.9515,0.0303,-0.0169,9.8066,-0.0362,-0.0329,0.0032,-21.0,18.15,-19.51,219.48,3.01,-0.39
34612,50.735607,-3.979776,271,25.49,10.0,218.2,Aug-18,3461339,2019-08-17 08:18:10:706,0.1366,-0.012,10.4661,-0.0335,-0.0064,9.8066,0.0692,0.063,-0.0139,-21.0,18.15,-19.51,219.61,3.05,-0.66
34613,50.735607,-3.979776,271,25.49,10.0,218.2,Aug-18,3461440,2019-08-17 08:18:10:807,0.1288,-0.4471,9.068,-0.0689,-0.0196,9.8064,0.0042,0.0384,0.0106,-21.0,18.15,-19.51,219.61,3.05,-0.66
34614,50.735424,-3.980002,270,25.43,10.0,218.6,Aug-18,3461540,2019-08-17 08:18:10:907,0.4552,-0.1238,9.6282,0.004,0.0143,9.8066,0.0522,-0.0351,-0.0331,-21.37,18.15,-19.94,219.68,2.66,-0.49
34615,50.735424,-3.980002,270,25.43,10.0,218.6,Aug-18,3461640,2019-08-17 08:18:11:007,-0.218,0.2564,10.4922,0.0263,0.0237,9.8066,-0.0213,0.0001,0.0085,-21.75,19.21,-19.07,219.68,2.66,-0.49
34616,50.735424,-3.980002,270,25.43,10.0,218.6,Aug-18,3461739,2019-08-17 08:18:11:106,0.3191,-0.3462,8.3892,0.0116,0.0002,9.8066,-0.0213,0.0001,0.0085,-21.0,18.9,-19.07,221.25,2.72,-0.53
34617,50.735424,-3.980002,270,25.43,10.0,218.6,Aug-18,3461839,2019-08-17 08:18:11:206,-0.149,-0.0468,11.6038,-0.0162,-0.05,9.8065,-0.0298,0.0054,0.001,-21.37,18.15,-18.63,221.25,2.72,-0.53
34618,50.735424,-3.980002,270,25.43,10.0,218.6,Aug-18,3461940,2019-08-17 08:18:11:307,0.0793,-0.0466,8.4933,-0.0582,-0.0671,9.8062,0.0682,0.0438,-0.0735,-21.37,18.15,-18.63,221.25,2.72,-0.53
34619,50.735424,-3.980002,270,25.43,10.0,218.6,Aug-18,3462040,2019-08-17 08:18:11:407,-0.3661,0.1623,10.9845,0.021,0.0023,9.8066,-0.0373,-0.0478,-0.0096,-21.37,16.65,-16.57,218.45,2.2,-0.6
34620,50.735424,-3.980002,270,25.43,10.0,218.6,Aug-18,3462140,2019-08-17 08:18:11:507,0.0485,0.4041,7.4724,0.0677,0.0136,9.8064,0.0373,-0.0446,-0.016,-20.43,12.51,-18.06,212.52,2.56,-0.78
34621,50.735424,-3.980002,270,25.43,10.0,218.6,Aug-18,3462240,2019-08-17 08:18:11:607,0.5615,0.0933,7.6123,-0.0113,-0.0207,9.8066,0.0266,-0.0638,-0.0448,-29.72,-3.2,2.52,174.18,2.77,-0.78
34622,50.735424,-3.980002,270,25.43,10.0,218.6,Aug-18,3462340,2019-08-17 08:18:11:707,-0.1806,0.3832,11.1278,0.005,-0.0066,9.8066,-0.0586,-0.0521,-0.0171,-29.63,4.7,0.49,189.47,2.72,-0.91
34623,50.735424,-3.980002,270,25.43,10.0,218.6,Aug-18,3462440,2019-08-17 08:18:11:807,0.1734,0.4996,11.4421,-0.0159,0.0129,9.8066,0.0181,0.0768,0.001,-29.63,4.7,0.49,189.47,2.72,-0.91
34624,50.735245,-3.980234,269,25.34,10.0,219.1,Aug-18,3462540,2019-08-17 08:18:11:907,-0.2378,0.4075,10.2444,-0.0488,0.0238,9.8065,0.0181,0.0768,0.001,-21.95,-2.36,20.31,173.81,2.64,-0.82
34625,50.735245,-3.980234,269,25.34,10.0,219.1,Aug-18,3462639,2019-08-17 08:18:12:006,-0.283,0.0375,11.0878,-0.0949,0.0438,9.8061,0.0373,0.0076,0.0138,-18.28,23.43,-4.11,231.81,2.06,-0.62
34626,50.735245,-3.980234,269,25.34,10.0,219.1,Aug-18,3462739,2019-08-17 08:18:12:106,-0.7221,0.2046,10.7662,0.0116,0.0184,9.8066,0.065,-0.0766,-0.0086,-18.28,23.43,-4.11,231.81,2.06,-0.62
34627,50.735245,-3.980234,269,25.34,10.0,219.1,Aug-18,3462839,2019-08-17 08:18:12:206,-0.225,0.1088,10.8441,0.008,0.0484,9.8065,0.0671,-0.0489,-0.0288,-26.58,5.04,12.97,190.47,2.31,-0.49
34628,50.735245,-3.980234,269,25.34,10.0,219.1,Aug-18,3462940,2019-08-17 08:18:12:307,-0.2099,-0.2805,9.9929,-0.0267,0.027,9.8066,-0.0149,0.0406,0.0277,-39.75,9.71,19.49,194.16,2.19,-0.3
34629,50.735245,-3.980234,269,25.34,10.0,219.1,Aug-18,3463041,2019-08-17 08:18:12:408,0.3989,-0.122,10.8403,-0.0609,-0.0109,9.8065,0.0128,0.0118,0.0234,-39.75,9.71,19.49,194.16,2.19,-0.3
34630,50.735245,-3.980234,269,25.34,10.0,219.1,Aug-18,3463139,2019-08-17 08:18:12:506,0.4699,-0.569,7.222,-0.0031,0.0375,9.8066,0.0586,0.0033,-0.0107,-20.53,17.93,12.52,221.1,1.75,-0.17
34631,50.735245,-3.980234,269,25.34,10.0,219.1,Aug-18,3463240,2019-08-17 08:18:12:607,-0.1443,-0.4004,10.0883,0.0152,0.0627,9.8064,0.0032,-0.0244,0.0458,-22.08,11.31,16.87,221.1,1.75,-0.17
34632,50.735245,-3.980234,269,25.34,10.0,219.1,Aug-18,3463340,2019-08-17 08:18:12:707,-0.0334,-0.0247,10.7743,0.0034,0.0763,9.8064,-0.0085,-0.0223,0.0287,-22.08,11.31,16.87,221.1,1.75,-0.17
34633,50.735245,-3.980234,269,25.34,10.0,219.1,Aug-18,3463443,2019-08-17 08:18:12:810,0.1582,0.1511,9.8664,-0.0234,0.007,9.8066,-0.0085,-0.0223,0.0287,-27.62,24.71,32.37,223.07,2.06,0.15
34634,50.735073,-3.980463,269,25.24,10.0,219.8,Aug-18,3463543,2019-08-17 08:18:12:910,-0.3731,0.1008,11.6059,-0.0421,0.027,9.8065,0.0735,0.0246,-0.0032,-17.31,26.21,15.81,237.81,1.99,0.43
34635,50.735073,-3.980463,269,25.24,10.0,219.8,Aug-18,3463639,2019-08-17 08:18:13:006,0.0377,0.3587,8.9936,-0.037,-0.0079,9.8066,-0.0341,0.031,-0.016,-17.31,26.21,15.81,237.81,1.99,0.43
34636,50.735073,-3.980463,269,25.24,10.0,219.8,Aug-18,3463740,2019-08-17 08:18:13:107,-0.4046,0.0503,9.4512,-0.0242,-0.0378,9.8065,0.0256,0.0086,0.0021,-15.5,34.65,6.68,247.15,1.83,0.59
34637,50.735073,-3.980463,269,25.24,10.0,219.8,Aug-18,3463840,2019-08-17 08:18:13:207,-0.1885,0.2082,8.8319,-0.0552,-0.0535,9.8063,0.0596,-0.0106,-0.0192,-34.19,34.65,2.12,225.89,1.42,0.77
34638,50.735073,-3.980463,269,25.24,10.0,219.8,Aug-18,3463939,2019-08-17 08:18:13:306,-0.0037,0.4731,9.3156,-0.0162,0.0383,9.8066,-0.0224,-0.0542,0.0223,-34.19,34.65,2.12,225.89,1.42,0.77
34639,50.735073,-3.980463,269,25.24,10.0,219.8,Aug-18,3464039,2019-08-17 08:18:13:406,-0.2641,0.5581,10.1481,-0.0217,0.0297,9.8066,0.0426,0.0299,-0.0086,-19.19,29.15,23.68,238.26,1.79,1.25
34640,50.735073,-3.980463,269,25.24,10.0,219.8,Aug-18,3464139,2019-08-17 08:18:13:506,-0.5462,0.2577,9.3663,-0.0446,0.0157,9.8065,0.0426,0.0299,-0.0086,-14.37,35.02,-0.01,238.26,1.79,1.25
34641,50.735073,-3.980463,269,25.24,10.0,219.8,Aug-18,3464240,2019-08-17 08:18:13:607,-0.2949,0.3245,10.8787,-0.0136,0.0006,9.8066,-0.0107,-0.0255,0.0277,-25.06,37.58,8.31,237.03,1.73,1.52
34642,50.735073,-3.980463,269,25.24,10.0,219.8,Aug-18,3464339,2019-08-17 08:18:13:706,-0.284,0.053,8.8555,0.0006,-0.0065,9.8066,-0.0128,0.0129,-0.0256,-24.69,34.27,13.74,237.03,1.73,1.52
34643,50.735073,-3.980463,269,25.24,10.0,219.8,Aug-18,3464439,2019-08-17 08:18:13:806,-0.5671,-0.0979,11.8164,0.004,-0.0169,9.8066,0.0479,-0.0745,-0.0128,-28.69,31.71,27.37,229.17,1.66,1.44
34644,50.734882,-3.980694,269,25.46,10.0,220.1,Oct-18,3464540,2019-08-17 08:18:13:907,0.2884,-0.1606,9.0534,0.0009,-0.0332,9.8066,-0.033,-0.0319,-0.0139,-28.69,31.71,27.37,229.17,1.66,1.44
34645,50.734882,-3.980694,269,25.46,10.0,220.1,Oct-18,3464639,2019-08-17 08:18:14:006,0.3225,0.1064,9.7319,0.0289,-0.0185,9.8066,-0.0085,-0.0287,-0.0256,-1.56,36.83,16.62,267.59,1.52,1.31
34646,50.734882,-3.980694,269,25.46,10.0,220.1,Oct-18,3464740,2019-08-17 08:18:14:107,1.0117,0.2178,9.3683,0.0608,0.0127,9.8065,0.0224,-0.0042,-0.048,-10.37,47.52,-4.57,258.03,1.61,0.96
34647,50.734882,-3.980694,269,25.46,10.0,220.1,Oct-18,3464839,2019-08-17 08:18:14:206,0.3136,-0.4533,10.1787,0.007,0.0055,9.8066,-0.0437,-0.0276,-0.0096,-10.37,47.52,-4.57,258.03,1.61,0.96
34648,50.734882,-3.980694,269,25.46,10.0,220.1,Oct-18,3464939,2019-08-17 08:18:14:306,0.463,0.0006,10.5141,0.0224,0.0176,9.8066,0.0074,0.0033,-0.0235,-32.72,50.29,0.4,236.56,1.57,0.9
34649,50.734882,-3.980694,269,25.46,10.0,220.1,Oct-18,3465039,2019-08-17 08:18:14:406,0.3499,-0.0222,9.8117,0.0397,0.0147,9.8066,0.0074,0.0033,-0.0235,-32.72,50.29,0.4,236.56,1.57,0.9
34650,50.734882,-3.980694,269,25.46,10.0,220.1,Oct-18,3465140,2019-08-17 08:18:14:507,-0.1428,-0.2793,11.3617,-0.0031,-0.0211,9.8066,0.0287,-0.001,-0.0245,-23.94,48.21,13.31,243.89,1.77,0.75
34651,50.734882,-3.980694,269,25.46,10.0,220.1,Oct-18,3465239,2019-08-17 08:18:14:606,0.6046,-0.2287,11.3977,0.0022,-0.0493,9.8065,-0.016,-0.0074,-0.0096,-17.69,38.71,28.24,246.39,1.65,0.71
34652,50.734882,-3.980694,269,25.46,10.0,220.1,Oct-18,3465340,2019-08-17 08:18:14:707,0.6232,-0.4346,10.7862,-0.0129,-0.1036,9.8061,0.0138,-0.0138,-0.0064,-17.69,38.71,28.24,246.39,1.65,0.71
34653,50.734882,-3.980694,269,25.46,10.0,220.1,Oct-18,3465440,2019-08-17 08:18:14:807,-0.3149,-0.076,10.9233,0.0057,-0.0038,9.8066,-0.0458,0.0917,-0.0533,-4.5,48.21,7.49,265.39,1.07,0.54
34654,50.73471,-3.980916,269,25.19,10.0,220.6,Oct-18,3465540,2019-08-17 08:18:14:907,0.0944,-0.0599,9.2713,0.0334,-0.0106,9.8066,0.0021,-0.0063,-0.0203,-12.94,43.46,1.24,253.2,1.05,0.51
34655,50.73471,-3.980916,269,25.19,10.0,220.6,Oct-18,3465639,2019-08-17 08:18:15:006,0.7023,0.3627,8.0064,0.0826,0.0251,9.8063,0.017,-0.1522,-0.0448,-11.44,32.83,-29.07,250.5,1.33,0.09
34656,50.73471,-3.980916,269,25.19,10.0,220.6,Oct-18,3465739,2019-08-17 08:18:15:106,0.1687,0.2823,9.0335,0.0294,0.0604,9.8064,0.017,-0.1522,-0.0448,-11.44,32.83,-29.07,250.5,1.33,0.09
34657,50.73471,-3.980916,269,25.19,10.0,220.6,Oct-18,3465839,2019-08-17 08:18:15:206,-0.3116,-0.0677,10.88,-0.0023,-0.0067,9.8066,-0.0107,-0.066,-0.0064,-32.37,17.02,-25.69,207.4,1.72,0.04
34658,50.73471,-3.980916,269,25.19,10.0,220.6,Oct-18,3465940,2019-08-17 08:18:15:307,-0.4034,0.1216,10.784,-0.0641,-0.0455,9.8063,0.0224,0.047,0.0,-27.94,17.77,-22.38,207.4,1.72,0.04
34659,50.73471,-3.980916,269,25.19,10.0,220.6,Oct-18,3466040,2019-08-17 08:18:15:407,-0.6834,-0.2152,13.2591,-0.0363,-0.0474,9.8065,0.0682,0.0076,-0.0735,-26.12,19.21,-20.76,215.7,1.26,-0.02
34660,50.73471,-3.980916,269,25.19,10.0,220.6,Oct-18,3466140,2019-08-17 08:18:15:507,0.286,0.121,9.2689,0.0455,-0.0086,9.8065,-0.048,-0.164,0.0128,-23.94,20.71,-19.88,220.87,0.93,-0.12
34661,50.73471,-3.980916,269,25.19,10.0,220.6,Oct-18,3466240,2019-08-17 08:18:15:607,0.3409,-0.319,9.7364,0.0659,-0.0305,9.8064,0.0618,0.0299,-0.0362,-22.44,20.71,-19.88,220.87,0.93,-0.12
34662,50.73471,-3.980916,269,25.19,10.0,220.6,Oct-18,3466339,2019-08-17 08:18:15:706,0.2819,-0.2559,8.9963,0.0273,-0.0465,9.8065,-0.0245,-0.0457,-0.0181,-22.44,20.71,-19.88,220.87,0.93,-0.12
34663,50.73471,-3.980916,269,25.19,10.0,220.6,Oct-18,3466440,2019-08-17 08:18:15:807,0.1238,-0.488,9.448,0.0014,-0.0187,9.8066,-0.0256,0.0747,-0.0362,-22.12,20.71,-19.51,223.49,0.87,-0.43
34664,50.73454,-3.981151,269,25.24,10.0,222.0,Oct-18,3466540,2019-08-17 08:18:15:907,0.1238,-0.488,9.448,0.0016,-0.0323,9.8066,-0.0256,0.0747,-0.0362,-21.75,21.08,-19.51,223.61,0.75,-0.58
34665,50.73454,-3.981151,269,25.24,10.0,222.0,Oct-18,3466640,2019-08-17 08:18:16:007,-0.6118,-0.2704,10.7559,0.0384,0.021,9.8066,0.0213,-0.067,-0.0373,-21.0,20.71,-20.32,224.84,0.99,-0.64
34666,50.73454,-3.981151,269,25.24,10.0,222.0,Oct-18,3466739,2019-08-17 08:18:16:106,0.0524,0.0784,10.134,0.0434,-0.0395,9.8065,-0.0266,-0.0713,-0.0288,-21.0,20.71,-20.32,224.84,0.99,-0.64
34667,50.73454,-3.981151,269,25.24,10.0,222.0,Oct-18,3466839,2019-08-17 08:18:16:206,-0.0674,0.1366,10.4267,-0.0033,-0.014,9.8066,0.0064,-0.0074,-0.0352,-21.37,21.46,-19.51,225.0,1.01,-0.98
34668,50.73454,-3.981151,269,25.24,10.0,222.0,Oct-18,3466940,2019-08-17 08:18:16:307,-0.4111,-0.1513,11.1614,-0.0255,-0.0537,9.8065,0.0053,0.0843,-0.0554,-21.37,22.15,-18.26,226.49,0.68,-1.1
34669,50.73454,-3.981151,269,25.24,10.0,222.0,Oct-18,3467040,2019-08-17 08:18:16:407,0.2156,-0.1827,10.1148,0.0158,-0.0249,9.8066,-0.0373,0.0278,-0.0032,-20.62,22.15,-18.26,226.49,0.68,-1.1
34670,50.73454,-3.981151,269,25.24,10.0,222.0,Oct-18,3467139,2019-08-17 08:18:16:506,-0.0268,-0.0888,9.3894,0.0442,-0.034,9.8065,0.0362,-0.0255,-0.0352,-20.62,21.46,-18.26,225.3,0.72,-1.43
34671,50.73454,-3.981151,269,25.24,10.0,222.0,Oct-18,3467239,2019-08-17 08:18:16:606,-0.0402,0.2071,9.5535,0.0092,0.0187,9.8066,-0.0043,-0.002,-0.0107,-20.62,21.46,-18.26,225.3,0.72,-1.43
34672,50.73454,-3.981151,269,25.24,10.0,222.0,Oct-18,3467339,2019-08-17 08:18:16:706,-0.1875,-0.1097,10.1245,0.0142,0.0114,9.8066,-0.0043,-0.002,-0.0107,-20.25,22.15,-18.63,227.96,0.82,-1.44
34673,50.73454,-3.981151,269,25.24,10.0,222.0,Oct-18,3467440,2019-08-17 08:18:16:807,0.3336,0.0705,10.2981,0.0133,-0.018,9.8066,-0.0362,0.0182,-0.0107,-20.25,21.83,-18.63,228.02,0.8,-1.57
34674,50.734375,-3.981386,268,25.37,9.0,223.6,Oct-18,3467539,2019-08-17 08:18:16:906,0.3393,0.0749,9.9544,-0.0118,-0.0064,9.8066,-0.0011,0.014,-0.0267,-20.25,21.83,-18.63,228.02,0.8,-1.57
34675,50.734375,-3.981386,268,25.37,9.0,223.6,Oct-18,3467639,2019-08-17 08:18:17:006,0.0501,-0.1115,9.8543,-0.0192,-0.0063,9.8066,0.0138,0.0331,-0.0128,-20.25,21.46,-19.94,226.76,0.72,-1.54
34676,50.734375,-3.981386,268,25.37,9.0,223.6,Oct-18,3467740,2019-08-17 08:18:17:107,-0.4057,-0.2825,10.3895,-0.0792,-0.0265,9.8063,0.0501,0.096,-0.0405,-20.62,21.77,-19.13,226.76,0.72,-1.54
34677,50.734375,-3.981386,268,25.37,9.0,223.6,Oct-18,3467840,2019-08-17 08:18:17:207,0.1456,0.2913,8.8478,0.0133,0.0149,9.8066,0.0,-0.0798,-0.0086,-20.25,21.77,-19.51,228.16,0.29,-1.31
34678,50.734375,-3.981386,268,25.37,9.0,223.6,Oct-18,3467939,2019-08-17 08:18:17:306,0.232,0.3166,8.1125,0.0326,0.0296,9.8066,0.0426,-0.0191,-0.0565,-20.25,21.77,-19.13,228.09,0.41,-1.31
34679,50.734375,-3.981386,268,25.37,9.0,223.6,Oct-18,3468039,2019-08-17 08:18:17:406,-0.6229,0.22,10.7053,0.0559,0.0241,9.8065,0.0426,-0.0191,-0.0565,-20.25,21.77,-19.13,228.09,0.41,-1.31
34680,50.734375,-3.981386,268,25.37,9.0,223.6,Oct-18,3468140,2019-08-17 08:18:17:507,-0.0908,0.058,9.5565,0.015,-0.0315,9.8066,-0.0213,0.0065,-0.0544,-19.87,21.4,-19.13,226.7,0.73,-1.46
34681,50.734375,-3.981386,268,25.37,9.0,223.6,Oct-18,3468239,2019-08-17 08:18:17:606,0.1455,-0.1732,10.4141,0.0267,-0.0094,9.8066,-0.0373,-0.05,-0.0341,-19.87,21.77,-19.13,228.12,0.66,-1.65
34682,50.734375,-3.981386,268,25.37,9.0,223.6,Oct-18,3468339,2019-08-17 08:18:17:706,-0.0856,0.1049,11.0475,0.0382,-0.0237,9.8065,0.0373,0.014,-0.0352,-19.87,22.15,-19.57,228.23,0.71,-1.91
34683,50.734375,-3.981386,268,25.37,9.0,223.6,Oct-18,3468440,2019-08-17 08:18:17:807,-0.1309,-0.133,11.8871,-0.0303,-0.0314,9.8066,0.0245,0.0491,-0.0171,-19.87,22.15,-19.57,228.23,0.71,-1.91
34684,50.734215,-3.981623,269,24.53,9.0,223.4,Oct-18,3468540,2019-08-17 08:18:17:907,-0.0941,-0.3927,9.5171,-0.0714,-0.0661,9.8062,-0.0266,0.048,-0.0363,-19.5,21.4,-19.57,228.64,0.14,-1.85
34685,50.734215,-3.981623,269,24.53,9.0,223.4,Oct-18,3468639,2019-08-17 08:18:18:006,0.3816,0.2843,10.2735,0.0037,-0.0031,9.8067,-0.0213,-0.0031,-0.016,-19.87,22.15,-19.63,228.64,0.14,-1.85
34686,50.734215,-3.981623,269,24.53,9.0,223.4,Oct-18,3468743,2019-08-17 08:18:18:110,0.5311,0.1816,9.9766,0.0352,0.0355,9.8065,-0.0064,-0.0457,-0.0235,-20.62,22.52,-20.01,228.33,0.14,-1.88
