,GPS LATITUDE (degrees), GPS LONGITUDE (degrees), GPS ALTITUDE (m), GPS SPEED (Kmh), GPS ACCURACY (m), GPS ORIENTATION (Â°),GPS SATELLITES IN RANGE, TIME SINCE START (ms), DATE (YYYY-MO-DD HH-MI-SS_SSS), ACCELEROMETER X (m/s²) , ACCELEROMETER Y (m/s²), ACCELEROMETER Z (m/s²), GRAVITY X (m/s²), GRAVITY Y (m/s²), GRAVITY Z (m/s²), GYROSCOPE Yaw (rad/s), GYROSCOPE Pitch (rad/s), GYROSCOPE Roll (rad/s), MAGNETIC FIELD X (Î¼T), MAGNETIC FIELD Y (Î¼T), MAGNETIC FIELD Z (Î¼T), ORIENTATION (Yaw) (Â°), ORIENTATION (Pitch) (Â°), ORIENTATION (Roll ) (Â°)
22978,52.351196,-1.158192,161.6,18.05,6,104.25,20 / 20,2297810,2020-01-08 10:54:04:484,0.5017,2.7912,11.1852,-0.1005,-0.021,9.8061,0.2194,0.3204,-0.1903,-28.81,-32.06,17.0,295.11,-86.16,178.1
22979,52.351196,-1.158192,161.6,18.05,6,104.25,20 / 20,2297911,2020-01-08 10:54:04:585,-0.5685,3.7418,10.2066,0.0032,0.0262,9.8065,-0.1411,-0.1839,0.0621,-29.12,-32.87,17.19,292.41,-86.21,175.52
22980,52.351196,-1.158192,161.6,18.05,6,104.25,20 / 20,2298011,2020-01-08 10:54:04:685,-1.888,1.192,10.9028,-0.008,0.0426,9.8065,0.0957,0.2285,-0.1495,-28.94,-32.31,17.06,290.62,-86.31,173.58
22981,52.351196,-1.158192,161.6,18.05,6,104.25,20 / 20,2298110,2020-01-08 10:54:04:784,-0.1862,2.986,10.3593,0.0253,0.0068,9.8065,0.0324,0.4653,-0.0615,-28.94,-32.56,16.94,294.08,-86.1,177.25
22982,52.351196,-1.158192,161.6,18.05,6,104.25,20 / 20,2298211,2020-01-08 10:54:04:885,-0.4331,2.3909,9.8994,0.0142,0.0267,9.8066,0.0316,-0.0444,0.0958,-28.69,-32.25,16.44,291.17,-85.9,176.04
22983,52.35096,-1.156078,162.26,11.8,8,90.65,20 / 20,2298311,2020-01-08 10:54:04:985,-0.6131,1.75,10.0197,-0.0139,-0.0091,9.8066,-0.0131,0.122,-0.0301,-29.06,-32.19,16.06,289.81,-85.82,174.78
22984,52.35096,-1.156078,162.26,11.8,8,90.65,20 / 20,2298411,2020-01-08 10:54:05:085,1.4435,4.7325,9.4406,-0.0211,-0.0043,9.8066,0.0375,-0.2974,0.2687,-29.0,-33.0,15.56,288.38,-85.86,173.47
22985,52.35096,-1.156078,162.26,11.8,8,90.65,20 / 20,2298511,2020-01-08 10:54:05:185,-0.7938,-0.6264,10.4163,0.0006,-0.0405,9.8065,0.1309,-0.3018,0.137,-29.12,-32.62,15.88,288.15,-85.71,173.39
22986,52.35096,-1.156078,162.26,11.8,8,90.65,20 / 20,2298611,2020-01-08 10:54:05:285,2.2406,6.2965,8.3534,0.0232,-0.0488,9.8065,-0.0199,0.3428,-0.1812,-28.75,-32.5,15.06,286.04,-85.52,172.97
22987,52.35096,-1.156078,162.26,11.8,8,90.65,20 / 20,2298710,2020-01-08 10:54:05:384,-0.8304,0.1206,9.2559,0.0063,0.0257,9.8065,0.0181,0.0012,0.1075,-28.25,-32.75,15.0,283.96,-85.47,170.41
22988,52.35096,-1.156078,162.26,11.8,8,90.65,20 / 20,2298811,2020-01-08 10:54:05:485,-0.5667,-1.8692,10.5687,-0.0341,-0.0184,9.8065,-0.0349,0.7319,-0.4876,-28.81,-33.31,15.13,283.1,-85.62,170.1
22989,52.35096,-1.156078,162.26,11.8,8,90.65,20 / 20,2298911,2020-01-08 10:54:05:585,2.7077,6.3059,10.7394,0.0132,0.0768,9.8063,-0.2248,0.304,0.031,-28.81,-32.81,14.44,276.71,-85.76,165.29
22990,52.35096,-1.156078,162.26,11.8,8,90.65,20 / 20,2299011,2020-01-08 10:54:05:685,3.3084,5.9294,12.7362,-0.0869,0.0244,9.8061,0.1737,0.9626,-0.5851,-28.56,-33.12,14.0,276.86,-86.08,165.1
22991,52.35096,-1.156078,162.26,11.8,8,90.65,20 / 20,2299110,2020-01-08 10:54:05:784,0.96,4.8922,9.2177,0.086,0.123,9.8055,-0.1129,0.537,-0.2826,-29.0,-33.44,13.13,276.61,-85.9,166.72
22992,52.35096,-1.156078,162.26,11.8,8,90.65,20 / 20,2299211,2020-01-08 10:54:05:885,-3.5231,-0.5777,7.9594,-0.0152,0.0087,9.8066,0.2209,0.7482,-0.1983,-28.06,-33.19,12.75,269.31,-85.57,159.15
22993,52.35096,-1.156078,162.26,11.8,8,90.65,20 / 20,2299310,2020-01-08 10:54:05:984,2.0158,7.763,9.6069,0.0711,0.0018,9.8064,0.1736,0.9949,-0.4727,-27.69,-33.69,12.31,264.99,-85.08,157.27
22994,52.35096,-1.156078,162.26,11.8,8,90.65,20 / 20,2299411,2020-01-08 10:54:06:085,-3.1086,-1.4017,9.247,0.0814,0.0895,9.8058,0.1173,0.1678,-0.1046,-27.75,-33.19,11.06,262.48,-85.14,156.3
22995,52.35096,-1.156078,162.26,11.8,8,90.65,20 / 20,2299511,2020-01-08 10:54:06:185,1.3588,4.3119,9.5575,0.0178,0.0153,9.8066,0.1405,0.7417,-0.2362,-27.69,-33.62,10.88,265.93,-85.21,159.88
22996,52.35096,-1.156078,162.26,11.8,8,90.65,20 / 20,2299611,2020-01-08 10:54:06:285,-0.5847,-1.6671,10.0158,-0.0054,-0.0415,9.8065,-0.06,0.0824,0.2252,-28.31,-33.12,12.0,266.07,-84.91,158.38
22997,52.35096,-1.156078,162.26,11.8,8,90.65,20 / 20,2299711,2020-01-08 10:54:06:385,0.3125,6.3021,9.2063,-0.0153,-0.0674,9.8064,-0.1052,0.7299,-0.3035,-27.62,-33.06,10.88,269.6,-85.05,163.61
22998,52.35096,-1.156078,162.26,11.8,8,90.65,20 / 20,2299811,2020-01-08 10:54:06:485,0.8217,4.2072,10.4208,0.0442,0.0712,9.8062,-0.1758,-0.2981,0.3048,-26.56,-33.31,9.69,260.77,-84.74,156.39
22999,52.35096,-1.156078,162.26,11.8,8,90.65,20 / 20,2299911,2020-01-08 10:54:06:585,-3.1256,-2.6483,8.7371,-0.0078,0.0156,9.8066,-0.0272,-0.0541,0.2618,-26.5,-33.75,8.69,260.63,-85.04,157.58
23000,52.35096,-1.156078,162.26,11.8,8,90.65,20 / 20,2300011,2020-01-08 10:54:06:685,-1.4415,3.3375,8.1002,0.0717,0.0797,9.806,-0.2942,-0.063,0.3066,-26.87,-33.81,7.63,255.78,-84.69,155.46
23001,52.35096,-1.156078,162.26,11.8,8,90.65,20 / 20,2300110,2020-01-08 10:54:06:784,1.3671,3.5325,10.7346,-0.0064,0.0476,9.8065,-0.0397,0.0245,0.2106,-26.5,-34.5,7.94,257.13,-84.99,156.11
23002,52.35096,-1.156078,162.26,11.8,8,90.65,20 / 20,2300211,2020-01-08 10:54:06:885,0.7107,6.1499,9.1579,0.0326,0.05,9.8064,-0.1029,0.0599,0.1352,-26.19,-34.12,6.69,256.7,-85.06,157.67
23003,52.35096,-1.156078,162.26,11.8,8,90.65,20 / 20,2300310,2020-01-08 10:54:06:984,-0.1397,1.0694,9.3527,-0.0101,0.0455,9.8065,0.0207,0.0342,0.2097,-25.44,-33.87,5.88,252.05,-84.94,154.88
23004,52.35096,-1.156078,162.26,11.8,8,90.65,20 / 20,2300411,2020-01-08 10:54:07:085,-0.4814,4.3286,9.29,-0.0047,0.0053,9.8066,-0.1017,0.4911,-0.0319,-24.87,-33.94,4.88,252.21,-85.08,157.12
23005,52.35096,-1.156078,162.26,11.8,8,90.65,20 / 20,2300511,2020-01-08 10:54:07:185,-0.8144,4.683,8.764,0.0088,-0.0114,9.8066,-0.0889,0.3618,-0.1027,-25.44,-34.19,4.63,252.84,-85.12,157.71
23006,52.35096,-1.156078,162.26,11.8,8,90.65,20 / 20,2300611,2020-01-08 10:54:07:285,1.3801,0.6301,11.279,0.0592,-0.0198,9.8064,-0.1222,0.2764,-0.0983,-24.56,-33.81,4.44,251.83,-84.72,159.45
23007,52.35096,-1.156078,162.26,11.8,8,90.65,20 / 20,2300711,2020-01-08 10:54:07:385,0.0509,4.655,8.9912,0.0423,0.0274,9.8064,-0.0791,0.2092,0.1786,-24.75,-34.12,3.56,250.17,-84.57,157.89
23008,52.35096,-1.156078,162.26,11.8,8,90.65,20 / 20,2300811,2020-01-08 10:54:07:485,-0.3964,6.2987,8.8944,-0.0152,0.0699,9.8063,0.1732,-0.2275,0.3901,-24.31,-34.62,3.56,251.9,-84.45,159.99
23009,52.35096,-1.156078,162.26,11.8,8,90.65,20 / 20,2300911,2020-01-08 10:54:07:585,1.5297,0.4693,10.2601,0.0119,-0.0042,9.8066,-0.0221,0.186,0.0142,-23.87,-34.19,3.44,248.5,-84.38,158.67
23010,52.35096,-1.156078,162.26,11.8,8,90.65,20 / 20,2301011,2020-01-08 10:54:07:685,-0.3315,2.8862,10.2433,-0.0053,-0.0055,9.8066,-0.0191,0.0373,-0.0766,-24.12,-34.62,2.75,249.01,-84.52,159.24
23011,52.35096,-1.156078,162.26,11.8,8,90.65,20 / 20,2301111,2020-01-08 10:54:07:785,-0.1773,-1.3386,9.1121,0.0217,0.0543,9.8064,-0.1239,-0.0186,0.299,-23.75,-34.12,2.5,247.85,-84.46,157.88
23012,52.35096,-1.156078,162.26,11.8,8,90.65,20 / 20,2301210,2020-01-08 10:54:07:884,0.0993,2.0793,10.1565,0.0111,0.0218,9.8066,0.1259,0.2763,-0.0075,-23.31,-34.5,2.94,250.92,-84.56,160.98
23013,52.35096,-1.156078,162.26,11.8,8,90.65,20 / 20,2301311,2020-01-08 10:54:07:985,-0.7883,-4.7726,8.2277,0.0488,0.0256,9.8064,-0.1467,-0.3117,0.1132,-23.69,-33.31,2.31,248.01,-84.2,160.56
23014,52.35096,-1.156078,162.26,11.8,8,90.65,20 / 20,2301410,2020-01-08 10:54:08:084,0.4778,4.1113,9.7931,-0.0246,-0.0082,9.8066,0.1093,0.4557,-0.1439,-23.37,-33.94,1.75,246.93,-84.32,159.6
23015,52.35096,-1.156078,162.26,11.8,8,90.65,20 / 20,2301510,2020-01-08 10:54:08:184,1.0669,1.6904,11.0898,0.0038,0.0471,9.8065,0.0241,-0.0048,0.0434,-23.44,-33.81,1.94,246.67,-84.34,159.3
23016,52.35096,-1.156078,162.26,11.8,8,90.65,20 / 20,2301611,2020-01-08 10:54:08:285,1.2304,2.9227,10.1963,0.0054,-0.0606,9.8064,0.0758,0.4187,-0.3633,-23.37,-34.12,2.0,249.38,-84.4,162.08
23017,52.35096,-1.156078,162.26,11.8,8,90.65,20 / 20,2301711,2020-01-08 10:54:08:385,1.4175,-0.2194,9.6309,0.0084,0.0182,9.8066,0.0303,0.1763,-0.0158,-23.19,-34.0,2.25,247.17,-84.15,160.08
23018,52.35096,-1.156078,162.26,11.8,8,90.65,20 / 20,2301811,2020-01-08 10:54:08:485,-0.4513,-5.1066,8.9126,-0.0286,-0.0604,9.8064,0.1878,0.4589,-0.3069,-23.56,-33.69,2.25,246.67,-84.02,159.59
23019,52.35096,-1.156078,162.26,11.8,8,90.65,20 / 20,2301910,2020-01-08 10:54:08:584,-0.1781,-1.0251,9.1235,0.0124,-0.0268,9.8066,0.0393,0.2689,-0.2031,-23.31,-33.44,1.5,247.92,-84.1,160.71
23020,52.35096,-1.156078,162.26,11.8,8,90.65,20 / 20,2302011,2020-01-08 10:54:08:685,0.1196,-3.1664,9.6368,-0.0433,-0.0184,9.8065,0.1967,0.0627,0.0107,-22.81,-33.94,2.5,249.1,-83.96,159.89
23021,52.35096,-1.156078,162.26,11.8,8,90.65,20 / 20,2302111,2020-01-08 10:54:08:785,1.2997,0.3113,9.8069,-0.02,-0.0423,9.8065,0.0829,0.1406,-0.1477,-23.62,-33.56,2.19,248.63,-84.11,161.56
23022,52.35096,-1.156078,162.26,11.8,8,90.65,20 / 20,2302211,2020-01-08 10:54:08:885,1.0722,-1.3797,9.0976,-0.0061,0.0096,9.8066,-0.0242,-0.2367,0.1576,-23.19,-34.44,2.06,248.48,-84.05,161.61
23023,52.35096,-1.156078,162.26,11.8,8,90.65,20 / 20,2302310,2020-01-08 10:54:08:984,0.3509,-4.0248,9.1619,-0.0231,-0.0333,9.8065,-0.0831,-0.0317,-0.0874,-23.75,-33.87,3.31,251.64,-84.33,162.04
23024,52.35096,-1.156078,162.26,11.8,8,90.65,20 / 20,2302411,2020-01-08 10:54:09:085,0.7819,1.1132,9.1667,-0.0269,0.0482,9.8064,0.0863,-0.5517,0.3303,-23.87,-33.62,3.06,248.12,-84.6,157.99
23025,52.35096,-1.156078,162.26,11.8,8,90.65,20 / 20,2302510,2020-01-08 10:54:09:184,0.413,-2.145,8.8309,-0.0055,0.0044,9.8066,0.0931,-0.4871,0.1277,-24.06,-33.25,2.69,250.84,-84.6,160.63
23026,52.35096,-1.156078,162.26,11.8,8,90.65,20 / 20,2302611,2020-01-08 10:54:09:285,-0.093,1.7787,9.2512,-0.0152,0.0551,9.8064,0.0382,-0.4846,0.1451,-23.81,-33.37,3.31,251.26,-84.46,161.26
23027,52.35096,-1.156078,162.26,11.8,8,90.65,20 / 20,2302711,2020-01-08 10:54:09:385,0.7118,-7.0357,9.158,-0.0097,0.0686,9.8064,-0.0092,-0.6921,0.335,-24.25,-33.44,4.19,250.19,-84.41,157.81
23028,52.35096,-1.156078,162.26,11.8,8,90.65,20 / 20,2302810,2020-01-08 10:54:09:484,-0.6247,-1.6069,9.0459,0.0154,0.0715,9.8063,-0.1577,-0.4034,0.216,-24.06,-34.12,3.25,248.73,-84.54,158.71
23029,52.35096,-1.156078,162.26,11.8,8,90.65,20 / 20,2302911,2020-01-08 10:54:09:585,-1.0578,-8.6747,8.9348,0.0228,0.0717,9.8063,-0.1028,-0.8167,0.2844,-24.75,-33.31,4.56,248.86,-84.35,154.3
23030,52.35096,-1.156078,162.26,11.8,8,90.65,20 / 20,2303011,2020-01-08 10:54:09:685,1.9961,-1.5522,10.9911,0.0523,0.0551,9.8063,-0.191,-0.1137,0.0575,-24.69,-33.5,4.44,245.72,-84.38,153.23
23031,52.35096,-1.156078,162.26,11.8,8,90.65,20 / 20,2303111,2020-01-08 10:54:09:785,-1.1139,-8.1686,9.1888,0.0318,0.0783,9.8063,-0.2902,-0.7023,0.1127,-25.12,-33.81,4.56,243.25,-84.09,148.89
23032,52.35096,-1.156078,162.26,11.8,8,90.65,20 / 20,2303211,2020-01-08 10:54:09:885,0.4652,-2.452,10.7737,0.0233,-0.0444,9.8065,-0.1397,0.2971,-0.2329,-24.94,-33.69,5.56,241.51,-84.29,144.57
23033,52.35096,-1.156078,162.26,11.8,8,90.65,20 / 20,2303311,2020-01-08 10:54:09:985,-0.4643,0.4938,8.868,0.0238,0.0162,9.8066,-0.1691,-0.0698,-0.1072,-25.44,-33.06,6.25,242.76,-84.36,145.62
23034,52.35096,-1.156078,162.26,11.8,8,90.65,20 / 20,2303411,2020-01-08 10:54:10:085,0.9612,-2.8672,10.7853,0.0106,-0.0531,9.8065,-0.0178,0.0985,-0.1838,-24.69,-34.19,6.75,242.9,-84.33,143.78
23035,52.35096,-1.156078,162.26,11.8,8,90.65,20 / 20,2303512,2020-01-08 10:54:10:186,-0.8542,-1.2526,8.3037,0.0439,-0.0282,9.8065,-0.1623,0.0405,-0.0819,-26.19,-34.0,6.88,245.36,-84.32,146.74
23036,52.35096,-1.156078,162.26,11.8,8,90.65,20 / 20,2303610,2020-01-08 10:54:10:284,-1.4286,-4.2378,8.8774,-0.0277,-0.0159,9.8065,0.184,-0.2478,0.0324,-25.87,-33.19,6.88,246.09,-84.58,147.02
23037,52.35096,-1.156078,162.26,11.8,8,90.65,20 / 20,2303711,2020-01-08 10:54:10:385,1.2409,-4.4934,11.1033,0.0038,-0.0118,9.8066,0.0604,-0.4047,-0.0333,-25.69,-33.5,7.75,248.31,-84.53,147.3
23038,52.35096,-1.156078,162.26,11.8,8,90.65,20 / 20,2303811,2020-01-08 10:54:10:485,0.3314,-1.8838,10.2625,-0.0861,0.0058,9.8062,0.1745,-0.1828,-0.0646,-26.37,-33.5,7.63,245.14,-84.96,143.52
23039,52.35096,-1.156078,162.26,11.8,8,90.65,20 / 20,2303911,2020-01-08 10:54:10:585,-1.3713,-5.7971,11.1097,-0.0304,0.0442,9.8064,0.1556,-0.5161,0.1676,-26.06,-33.37,8.06,243.74,-84.9,142.11
23040,52.35096,-1.156078,162.26,11.8,8,90.65,20 / 20,2304011,2020-01-08 10:54:10:685,1.0723,-4.1341,10.1279,0.0199,-0.0167,9.8065,-0.1696,-0.082,0.0173,-26.44,-33.12,8.25,244.63,-84.97,142.98
23041,52.35096,-1.156078,162.26,11.8,8,90.65,20 / 20,2304111,2020-01-08 10:54:10:785,-0.5803,-6.0137,11.2465,-0.0267,0.0097,9.8065,-0.0678,-0.2704,0.0032,-27.25,-32.75,9.06,247.19,-85.08,143.96
23042,52.35096,-1.156078,162.26,11.8,8,90.65,20 / 20,2304211,2020-01-08 10:54:10:885,-0.6227,-4.187,10.6975,0.0277,-0.0614,9.8064,-0.2073,-0.0256,-0.157,-26.81,-33.56,9.5,246.92,-85.28,141.67
23043,52.35096,-1.156078,162.26,11.8,8,90.65,20 / 20,2304310,2020-01-08 10:54:10:984,0.7388,-1.6573,8.7049,0.0246,0.0089,9.8066,-0.0679,-0.1635,-0.0064,-27.25,-33.25,9.94,249.72,-85.29,144.41
23044,52.35096,-1.156078,162.26,11.8,8,90.65,20 / 20,2304411,2020-01-08 10:54:11:085,-0.1275,-2.2822,9.3911,-0.0052,-0.0339,9.8066,0.0476,-0.2243,-0.008,-27.56,-33.06,10.56,252.49,-85.4,145.82
23045,52.35096,-1.156078,162.26,11.8,8,90.65,20 / 20,2304511,2020-01-08 10:54:11:185,-1.6956,-3.9891,9.2914,-0.0055,0.0191,9.8066,0.0525,-0.2047,-0.0052,-27.75,-33.31,11.0,249.99,-85.68,142.95
23046,52.35096,-1.156078,162.26,11.8,8,90.65,20 / 20,2304611,2020-01-08 10:54:11:285,0.0195,-2.4019,9.6573,0.011,0.0306,9.8065,-0.0361,-0.2188,-0.0388,-27.44,-33.44,11.69,251.2,-85.86,141.57
23047,52.35096,-1.156078,162.26,11.8,8,90.65,20 / 20,2304711,2020-01-08 10:54:11:385,0.8035,-3.3008,10.598,-0.0121,0.0179,9.8066,0.0327,-0.043,-0.0909,-27.81,-32.44,11.94,249.54,-85.99,140.25
23048,52.35096,-1.156078,162.26,11.8,8,90.65,20 / 20,2304811,2020-01-08 10:54:11:485,-0.2996,-3.1976,9.6783,0.01,0.0133,9.8066,-0.0495,-0.0678,-0.0354,-28.31,-32.75,12.44,251.55,-86.04,142.38
23049,52.35096,-1.156078,162.26,11.8,8,90.65,20 / 20,2304911,2020-01-08 10:54:11:585,-0.857,-5.9849,10.1995,0.009,0.04,9.8066,-0.0435,-0.0226,-0.094,-28.56,-32.94,12.25,249.18,-85.87,140.72
23050,52.35096,-1.156078,162.26,11.8,8,90.65,20 / 20,2305010,2020-01-08 10:54:11:684,1.0163,-2.6587,9.9663,-0.0075,0.0134,9.8066,-0.0083,0.073,-0.1627,-28.31,-32.87,13.38,253.11,-85.89,142.38
23051,52.35096,-1.156078,162.26,11.8,8,90.65,20 / 20,2305111,2020-01-08 10:54:11:785,-1.7804,-4.3164,9.3137,0.0047,0.0228,9.8065,-0.0273,-0.2953,0.0019,-28.5,-32.94,14.25,254.09,-86.04,141.52
23052,52.35096,-1.156078,162.26,11.8,8,90.65,20 / 20,2305211,2020-01-08 10:54:11:885,-0.9411,-4.6898,10.6541,0.0098,-0.0229,9.8066,0.0861,-0.1872,-0.0249,-28.62,-32.62,14.25,253.7,-86.16,141.68
23053,52.35096,-1.156078,162.26,11.8,8,90.65,18 / 20,2305311,2020-01-08 10:54:11:985,-0.794,-4.904,9.5739,0.0285,0.0018,9.8066,0.1159,-0.4334,0.081,-28.87,-32.31,14.75,254.71,-86.12,141.0
23054,52.35096,-1.156078,162.26,11.8,8,90.65,18 / 20,2305411,2020-01-08 10:54:12:085,-1.7282,-5.0574,10.2915,0.0117,-0.015,9.8066,-0.0504,0.0164,-0.1073,-28.87,-32.62,15.44,254.8,-86.19,141.14
23055,52.35096,-1.156078,162.26,11.8,8,90.65,18 / 20,2305511,2020-01-08 10:54:12:185,1.1219,-0.926,9.5288,-0.0027,-0.02,9.8065,-0.0491,0.1599,-0.255,-29.0,-32.0,15.75,255.79,-86.12,140.51
23056,52.35096,-1.156078,162.26,11.8,8,90.65,18 / 20,2305611,2020-01-08 10:54:12:285,-2.0901,-5.7878,8.7004,-0.0509,-0.0234,9.8064,0.1891,-0.1222,-0.1187,-29.31,-31.87,15.94,253.16,-85.86,138.07
23057,52.35096,-1.156078,162.26,11.8,8,90.65,18 / 20,2305710,2020-01-08 10:54:12:384,0.5999,-3.4153,8.154,-0.0274,-0.0379,9.8065,0.1854,0.0199,-0.2509,-29.0,-31.94,16.25,251.81,-85.73,136.8
23058,52.35096,-1.156078,162.26,11.8,8,90.65,18 / 20,2305811,2020-01-08 10:54:12:485,-3.2001,-4.507,5.8205,-0.0716,-0.023,9.8063,-0.053,-0.0862,-0.0931,-29.5,-31.12,16.5,253.71,-86.24,136.63
23059,52.35096,-1.156078,162.26,11.8,8,90.65,18 / 20,2305911,2020-01-08 10:54:12:585,1.8662,-0.3151,11.7941,-0.1605,-0.0058,9.8053,0.1096,-0.0652,-0.3138,-29.87,-31.5,17.63,252.06,-86.72,133.84
23060,52.35096,-1.156078,162.26,11.8,8,90.65,18 / 20,2306011,2020-01-08 10:54:12:685,-1.0188,-3.0801,9.8956,0.0147,0.0001,9.8066,-0.214,-0.4388,0.5056,-30.25,-31.31,17.75,256.1,-86.7,137.96
23061,52.35096,-1.156078,162.26,11.8,8,90.65,18 / 20,2306111,2020-01-08 10:54:12:785,2.6534,-1.6377,12.6571,-0.0771,-0.0504,9.8061,0.1948,0.1345,-0.0103,-29.94,-31.87,18.0,257.25,-86.67,139.24
23062,52.35096,-1.156078,162.26,11.8,8,90.65,18 / 20,2306211,2020-01-08 10:54:12:885,-1.0978,-3.2738,8.486,0.057,0.0615,9.8063,-0.1704,-0.3534,-0.1267,-31.5,-32.0,18.88,255.67,-86.08,137.49
23063,52.35096,-1.156078,162.26,11.8,8,90.65,19 / 19,2306311,2020-01-08 10:54:12:985,0.8112,-0.8393,10.0023,-0.0606,-0.039,9.8064,0.1868,0.2144,-0.3177,-31.56,-32.31,17.88,258.78,-86.53,142.37
23064,52.35096,-1.156078,162.26,11.8,8,90.65,19 / 19,2306411,2020-01-08 10:54:13:085,1.6329,-1.1559,10.3249,0.0433,-0.0032,9.8065,-0.0478,-0.0484,0.1142,-31.06,-32.0,18.69,257.43,-86.35,139.04
23065,52.35096,-1.156078,162.26,11.8,8,90.65,19 / 19,2306510,2020-01-08 10:54:13:184,2.2304,-0.4409,10.1608,-0.0229,0.0357,9.8065,-0.0647,0.2175,-0.2912,-31.25,-32.5,17.75,253.63,-86.13,136.78
23066,52.35096,-1.156078,162.26,11.8,8,90.65,19 / 19,2306611,2020-01-08 10:54:13:285,-0.9665,-0.8551,8.3742,-0.004,0.0563,9.8064,-0.194,-0.0082,0.0209,-29.25,-30.94,17.56,250.4,-85.98,131.98
23067,52.35096,-1.156078,162.26,11.8,8,90.65,19 / 19,2306710,2020-01-08 10:54:13:384,0.9951,-1.8309,11.3949,-0.0515,0.0086,9.8065,-0.1285,0.126,-0.0611,-28.44,-31.0,16.75,249.03,-86.0,131.27
23068,52.35096,-1.156078,162.26,11.8,8,90.65,19 / 19,2306811,2020-01-08 10:54:13:485,0.4392,0.2408,9.3849,-0.0105,0.0258,9.8066,-0.24,0.1203,-0.0538,-27.75,-31.25,16.56,248.74,-85.93,131.03
23069,52.35096,-1.156078,162.26,11.8,8,90.65,19 / 19,2306910,2020-01-08 10:54:13:584,-0.1043,-1.6218,10.5317,-0.0181,0.0089,9.8066,0.0256,-0.0541,0.0275,-27.31,-29.94,17.13,249.19,-85.94,130.52
23070,52.35096,-1.156078,162.26,11.8,8,90.65,19 / 19,2307011,2020-01-08 10:54:13:685,-0.8634,-0.1465,10.0206,0.0071,-0.0234,9.8066,0.0193,0.0279,-0.0212,-26.69,-29.31,17.81,253.08,-85.89,132.87
23071,52.35096,-1.156078,162.26,11.8,8,90.65,19 / 19,2307111,2020-01-08 10:54:13:785,0.2198,-0.4518,10.0295,-0.0041,0.0012,9.8066,-0.0313,-0.1559,0.1002,-25.81,-29.25,18.31,256.51,-85.97,135.38
23072,52.35096,-1.156078,162.26,11.8,8,90.65,19 / 19,2307211,2020-01-08 10:54:13:885,-0.9491,-0.0284,10.2807,-0.0406,0.0057,9.8065,-0.1372,-0.0248,-0.0094,-25.5,-29.44,19.31,259.19,-86.15,135.44
23073,52.351284,-1.154633,162.67,14.22,6,97.32,19 / 19,2307311,2020-01-08 10:54:13:985,-1.8371,-1.8652,9.4823,-0.0131,0.0139,9.8066,0.0966,-0.1669,0.009,-23.75,-28.87,19.5,261.76,-86.09,135.53
23074,52.351284,-1.154633,162.67,14.22,6,97.32,19 / 19,2307410,2020-01-08 10:54:14:084,2.5426,0.6431,11.4233,-0.0522,0.0,9.8065,0.2867,0.2611,-0.2172,-23.25,-30.12,20.06,263.7,-86.17,136.43
23075,52.351284,-1.154633,162.67,14.22,6,97.32,19 / 19,2307511,2020-01-08 10:54:14:185,-0.0818,-0.4132,9.7448,0.0097,-0.0067,9.8065,0.0073,-0.018,-0.0827,-22.81,-30.62,19.5,264.35,-85.92,137.47
23076,52.351284,-1.154633,162.67,14.22,6,97.32,19 / 19,2307611,2020-01-08 10:54:14:285,-3.2467,-0.6944,8.5926,-0.0646,0.0,9.8064,0.1582,0.2275,-0.1774,-21.69,-30.75,19.63,264.74,-85.84,136.78
23077,52.351284,-1.154633,162.67,14.22,6,97.32,19 / 19,2307711,2020-01-08 10:54:14:385,0.042,1.1689,10.8634,0.0331,-0.0055,9.8065,-0.0321,0.0941,-0.0201,-21.25,-30.69,18.13,262.97,-85.97,136.84
23078,52.351284,-1.154633,162.67,14.22,6,97.32,19 / 19,2307811,2020-01-08 10:54:14:485,-1.4158,0.2988,9.1917,-0.0251,-0.014,9.8065,-0.0861,0.3103,-0.1488,-21.0,-31.56,16.75,261.5,-86.16,137.01
23079,52.351284,-1.154633,162.67,14.22,6,97.32,19 / 19,2307911,2020-01-08 10:54:14:585,0.0575,1.8767,10.1239,-0.04,-0.0168,9.8065,-0.0582,0.2029,-0.2285,-20.94,-30.44,17.0,259.42,-86.18,134.59
23080,52.351284,-1.154633,162.67,14.22,6,97.32,19 / 19,2308011,2020-01-08 10:54:14:685,-3.6179,-0.5852,10.8706,-0.0218,-0.0382,9.8065,-0.0263,0.1959,-0.0664,-21.12,-31.56,17.88,260.92,-86.28,134.55
23081,52.351284,-1.154633,162.67,14.22,6,97.32,19 / 19,2308111,2020-01-08 10:54:14:785,-1.465,0.9855,9.8614,-0.0236,-0.0396,9.8065,0.0029,0.2624,-0.2368,-21.25,-31.69,18.44,263.57,-86.32,137.21
23082,52.351284,-1.154633,162.67,14.22,6,97.32,19 / 19,2308211,2020-01-08 10:54:14:885,-0.3052,-0.6941,10.6029,-0.0357,-0.0526,9.8064,0.0929,0.185,-0.1935,-21.62,-32.37,18.81,264.47,-86.11,137.91
23083,52.351284,-1.154633,162.67,14.22,6,97.32,19 / 19,2308312,2020-01-08 10:54:14:986,-0.1579,1.6289,10.7473,-0.0094,-0.021,9.8065,-0.0576,0.2653,-0.1396,-22.69,-34.37,18.0,265.22,-86.26,141.51
23084,52.351284,-1.154633,162.67,14.22,6,97.32,19 / 19,2308411,2020-01-08 10:54:15:085,-2.0174,-0.9137,9.0295,-0.031,-0.0018,9.8066,0.2278,0.0886,-0.0865,-23.75,-34.0,18.56,264.1,-86.27,139.85
23085,52.351284,-1.154633,162.67,14.22,6,97.32,19 / 19,2308510,2020-01-08 10:54:15:184,-0.8214,1.7171,9.1,-0.0111,-0.0381,9.8066,0.0912,0.2647,-0.2217,-25.0,-33.94,18.81,265.08,-86.22,141.92
23086,52.351284,-1.154633,162.67,14.22,6,97.32,19 / 19,2308611,2020-01-08 10:54:15:285,-2.5905,-1.7958,8.6305,-0.0808,-0.0127,9.8062,0.1777,0.0983,-0.1823,-25.94,-33.19,18.81,265.8,-86.42,143.31
23087,52.351284,-1.154633,162.67,14.22,6,97.32,19 / 19,2308711,2020-01-08 10:54:15:385,1.152,1.1984,12.3614,-0.0537,-0.0187,9.8064,0.279,0.2414,-0.1843,-26.06,-33.0,18.75,266.22,-86.32,143.82
23088,52.351284,-1.154633,162.67,14.22,6,97.32,19 / 19,2308811,2020-01-08 10:54:15:485,-3.7529,-0.4632,7.7223,-0.073,0.0075,9.8063,0.1398,-0.0377,-0.0041,-26.56,-32.62,18.06,264.51,-86.53,144.33
23089,52.351284,-1.154633,162.67,14.22,6,97.32,19 / 19,2308911,2020-01-08 10:54:15:585,-0.5087,-0.5874,11.9992,-0.1005,-0.0305,9.806,0.3571,0.2627,-0.2967,-26.75,-32.44,18.25,266.81,-86.65,146.42
23090,52.351284,-1.154633,162.67,14.22,6,97.32,19 / 19,2309010,2020-01-08 10:54:15:684,-2.0169,-0.0734,8.9739,-0.022,0.0059,9.8066,-0.0291,-0.074,-0.003,-26.19,-32.87,18.69,268.39,-86.37,145.95
23091,52.351284,-1.154633,162.67,14.22,6,97.32,19 / 19,2309111,2020-01-08 10:54:15:785,-1.539,0.2419,9.8751,-0.0869,-0.0009,9.8062,0.2311,0.1503,-0.1982,-26.31,-31.87,19.19,268.32,-86.57,145.57
23092,52.351284,-1.154633,162.67,14.22,6,97.32,19 / 20,2309211,2020-01-08 10:54:15:885,-3.358,0.2696,8.5977,0.0353,-0.032,9.8064,-0.2279,0.0083,0.0201,-27.12,-32.62,20.0,270.42,-86.13,147.7
23093,52.351284,-1.154633,162.67,14.22,6,97.32,19 / 20,2309311,2020-01-08 10:54:15:985,0.9893,0.9505,9.5618,-0.0285,-0.0361,9.8065,-0.0555,0.2952,-0.0788,-26.19,-33.56,19.5,273.24,-86.33,149.48
23094,52.351284,-1.154633,162.67,14.22,6,97.32,19 / 20,2309411,2020-01-08 10:54:16:085,-0.1077,-0.1643,9.4876,0.0106,0.0024,9.8066,-0.0139,-0.3607,0.2113,-27.62,-32.5,19.75,274.58,-86.4,152.4
23095,52.351284,-1.154633,162.67,14.22,6,97.32,19 / 20,2309511,2020-01-08 10:54:16:185,0.5908,0.8838,10.5364,-0.0274,-0.0289,9.8065,-0.0007,-0.0322,-0.0092,-26.69,-33.31,20.31,278.42,-86.45,155.36
23096,52.351284,-1.154633,162.67,14.22,6,97.32,19 / 20,2309611,2020-01-08 10:54:16:285,0.5353,1.9774,11.0986,0.0542,0.0471,9.8063,-0.1064,-0.4421,0.3204,-26.81,-32.5,19.94,279.11,-86.52,155.88
23097,52.351284,-1.154633,162.67,14.22,6,97.32,19 / 20,2309711,2020-01-08 10:54:16:385,0.1221,0.4107,10.073,0.001,0.0012,9.8066,0.031,-0.2211,0.0072,-26.94,-32.69,19.75,276.5,-86.31,153.59
23098,52.351284,-1.154633,162.67,14.22,6,97.32,19 / 20,2309810,2020-01-08 10:54:16:484,0.0871,0.6374,8.9192,0.0259,0.0279,9.8065,-0.0044,-0.3563,0.219,-26.37,-32.5,20.38,278.68,-86.18,154.82
23099,52.351284,-1.154633,162.67,14.22,6,97.32,19 / 20,2309911,2020-01-08 10:54:16:585,-1.5489,-3.8921,10.6802,-0.0182,0.0199,9.8066,0.1336,-0.2709,0.1352,-26.31,-32.5,20.63,281.11,-86.18,155.8
23100,52.351284,-1.154633,162.67,14.22,6,97.32,19 / 20,2310011,2020-01-08 10:54:16:685,-0.8063,-1.1908,9.1309,-0.0027,0.0067,9.8066,-0.0231,-0.1642,0.0528,-27.31,-32.31,20.13,281.83,-86.18,158.89
23101,52.351284,-1.154633,162.67,14.22,6,97.32,19 / 20,2310111,2020-01-08 10:54:16:785,-2.0868,-3.0363,10.8257,-0.0116,0.0155,9.8065,0.0817,-0.3037,0.1082,-26.37,-32.87,20.56,284.74,-86.24,159.44
23102,52.351284,-1.154633,162.67,14.22,6,97.32,20 / 20,2310210,2020-01-08 10:54:16:884,-1.127,-0.4675,9.6526,0.0122,-0.0031,9.8066,-0.058,-0.1444,0.1533,-26.62,-32.12,21.0,286.65,-86.21,162.21
23103,52.351284,-1.154633,162.67,14.22,6,97.32,20 / 20,2310311,2020-01-08 10:54:16:985,-1.1109,-1.3052,8.8503,-0.0058,-0.009,9.8066,-0.069,-0.1776,-0.0395,-27.31,-32.37,21.44,291.04,-86.24,166.5
23104,52.351284,-1.154633,162.67,14.22,6,97.32,20 / 20,2310411,2020-01-08 10:54:17:085,-1.0485,-0.4723,9.8268,-0.0143,-0.0277,9.8066,-0.1446,-0.1277,-0.0943,-26.75,-32.31,22.06,294.12,-86.43,167.99
23105,52.351284,-1.154633,162.67,14.22,6,97.32,20 / 20,2310510,2020-01-08 10:54:17:184,-1.8984,-1.8908,9.5056,0.0214,0.0087,9.8066,-0.1011,-0.1331,0.1415,-27.62,-31.5,21.38,291.61,-86.6,167.58
23106,52.351284,-1.154633,162.67,14.22,6,97.32,20 / 20,2310611,2020-01-08 10:54:17:285,-0.6772,-2.1847,10.2259,0.0292,-0.0126,9.8065,-0.0203,-0.2592,0.0813,-26.37,-31.87,21.69,298.47,-86.53,171.14
23107,52.351284,-1.154633,162.67,14.22,6,97.32,20 / 20,2310711,2020-01-08 10:54:17:385,0.6773,1.0444,10.1913,-0.0086,-0.0328,9.8066,-0.0302,-0.015,0.0494,-26.62,-32.12,22.63,300.94,-86.37,173.38
23108,52.351284,-1.154633,162.67,14.22,6,97.32,20 / 20,2310811,2020-01-08 10:54:17:485,-1.8981,-1.3496,9.4659,0.0223,0.0532,9.8065,0.0088,-0.6349,0.3616,-27.12,-32.37,23.06,306.1,-86.43,178.33
23109,52.351284,-1.154633,162.67,14.22,6,97.32,20 / 20,2310911,2020-01-08 10:54:17:585,-3.9363,-4.1125,10.4167,-0.0288,0.0008,9.8066,0.0907,-0.4703,0.1037,-26.12,-31.94,22.94,306.89,-86.61,177.94
23110,52.351284,-1.154633,162.67,14.22,6,97.32,20 / 20,2311011,2020-01-08 10:54:17:685,-0.3796,-0.7288,8.7645,0.0212,0.0158,9.8065,-0.0909,-0.3207,0.0542,-27.12,-31.0,22.63,304.76,-86.56,176.85
23111,52.351284,-1.154633,162.67,14.22,6,97.32,20 / 20,2311111,2020-01-08 10:54:17:785,-3.5966,-2.2973,10.0415,0.0244,0.0317,9.8065,-0.0364,-0.354,0.181,-26.31,-32.0,23.88,306.76,-86.54,176.61
23112,52.351284,-1.154633,162.67,14.22,6,97.32,20 / 20,2311211,2020-01-08 10:54:17:885,0.4891,-0.3272,10.4331,0.0343,-0.0035,9.8066,-0.0463,-0.3615,0.0903,-25.94,-31.75,24.38,308.76,-86.44,178.62
23113,52.351284,-1.154633,162.67,14.22,6,97.32,20 / 20,2311310,2020-01-08 10:54:17:984,-2.324,-2.3602,10.1054,0.0386,0.0151,9.8065,-0.1273,-0.4308,0.2782,-25.94,-31.56,25.06,309.43,-86.27,178.17
23114,52.351284,-1.154633,162.67,14.22,6,97.32,20 / 20,2311411,2020-01-08 10:54:18:085,0.1417,0.9389,10.3783,0.0517,0.0088,9.8065,-0.1303,-0.2223,0.1478,-25.37,-31.37,25.5,316.52,-86.32,-177.37
23115,52.351284,-1.154633,162.67,14.22,6,97.32,20 / 20,2311511,2020-01-08 10:54:18:185,-1.7438,-1.3533,7.7088,0.044,0.0067,9.8065,-0.1767,-0.3878,0.1422,-25.06,-31.87,25.31,312.38,-86.13,-179.97
23116,52.351284,-1.154633,162.67,14.22,6,97.32,20 / 20,2311610,2020-01-08 10:54:18:284,-0.2227,-0.3249,10.6761,0.023,-0.03,9.8065,-0.0881,-0.093,0.0044,-24.75,-31.81,26.63,319.29,-85.94,-175.54
23117,52.351284,-1.154633,162.67,14.22,6,97.32,20 / 20,2311711,2020-01-08 10:54:18:385,-2.1046,-1.3666,8.6319,0.0709,0.0039,9.8064,-0.2177,-0.2258,0.1441,-24.87,-31.06,25.63,317.44,-85.95,-176.25
23118,52.351284,-1.154633,162.67,14.22,6,97.32,20 / 20,2311811,2020-01-08 10:54:18:485,0.0006,-0.5436,9.478,0.0017,-0.0361,9.8066,-0.1103,-0.1166,-0.0183,-24.75,-31.0,26.56,320.88,-86.04,-174.15
23119,52.351284,-1.154633,162.67,14.22,6,97.32,20 / 20,2311911,2020-01-08 10:54:18:585,-1.8916,-2.7389,10.442,-0.0012,0.0133,9.8065,-0.043,-0.2269,0.1129,-25.25,-31.25,26.75,325.12,-86.1,-170.14
23120,52.351284,-1.154633,162.67,14.22,6,97.32,20 / 20,2312010,2020-01-08 10:54:18:684,-0.4431,-0.3667,8.7955,0.0122,-0.0068,9.8066,-0.148,-0.0933,-0.0229,-24.94,-31.37,26.5,327.25,-86.23,-168.17
23121,52.351284,-1.154633,162.67,14.22,6,97.32,20 / 20,2312110,2020-01-08 10:54:18:784,-1.4636,-2.5674,10.6085,0.0081,-0.0029,9.8065,0.0289,-0.2761,0.0589,-25.25,-31.06,26.44,326.39,-86.18,-167.86
23122,52.351284,-1.154633,162.67,14.22,6,97.32,20 / 20,2312211,2020-01-08 10:54:18:885,-3.5988,-3.1508,10.6183,0.0061,-0.0383,9.8066,-0.0211,0.3092,-0.1778,-24.06,-31.19,26.69,328.37,-86.05,-168.16
23123,52.351284,-1.154633,162.67,14.22,6,97.32,20 / 20,2312311,2020-01-08 10:54:18:985,-0.9946,-2.4723,10.4074,-0.012,-0.0378,9.8065,-0.0618,0.0747,-0.1404,-24.19,-31.0,27.56,329.15,-85.73,-168.34
23124,52.351284,-1.154633,162.67,14.22,6,97.32,20 / 20,2312411,2020-01-08 10:54:19:085,-2.2913,-3.4086,10.9189,-0.0012,-0.0156,9.8066,-0.0818,-0.1621,0.0492,-24.31,-31.44,27.81,330.62,-85.81,-166.99
23125,52.351284,-1.154633,162.67,14.22,6,97.32,20 / 20,2312510,2020-01-08 10:54:19:184,-3.0262,-0.787,11.0,0.0042,-0.0166,9.8066,-0.0005,-0.0791,-0.1174,-23.94,-31.56,27.69,331.01,-85.94,-166.62
23126,52.351284,-1.154633,162.67,14.22,6,97.32,20 / 20,2312610,2020-01-08 10:54:19:284,-1.0755,-1.0346,8.7179,-0.0161,-0.0517,9.8064,-0.0243,0.0761,-0.1394,-23.94,-30.69,27.63,326.85,-86.03,-170.66
23127,52.351284,-1.154633,162.67,14.22,6,97.32,20 / 20,2312711,2020-01-08 10:54:19:385,1.2191,-0.2295,9.4794,-0.0367,-0.023,9.8065,0.0319,0.1167,-0.1642,-23.75,-31.87,28.5,330.6,-85.73,-167.94
23128,52.351284,-1.154633,162.67,14.22,6,97.32,20 / 20,2312811,2020-01-08 10:54:19:485,-1.2502,-1.4727,9.1792,-0.0228,0.0125,9.8066,0.0676,-0.2446,0.1653,-23.19,-31.62,28.88,333.49,-85.83,-166.42
23129,52.351284,-1.154633,162.67,14.22,6,97.32,20 / 20,2312911,2020-01-08 10:54:19:585,1.8411,0.7708,9.374,-0.0455,-0.0364,9.8065,-0.0114,0.0727,-0.2014,-22.81,-31.37,28.13,336.69,-85.75,-162.42
23130,52.351284,-1.154633,162.67,14.22,6,97.32,20 / 20,2313010,2020-01-08 10:54:19:684,-1.3319,-1.3539,8.8395,-0.0015,0.0026,9.8066,-0.1148,-0.3876,0.1546,-23.37,-31.62,28.56,338.92,-85.83,-161.31
23131,52.351284,-1.154633,162.67,14.22,6,97.32,20 / 20,2313111,2020-01-08 10:54:19:785,-1.563,-1.4361,10.1609,-0.0157,0.0132,9.8065,-0.0335,-0.1486,0.1107,-23.37,-31.5,29.13,342.03,-85.9,-158.45
23132,52.351284,-1.154633,162.67,14.22,6,97.32,20 / 20,2313211,2020-01-08 10:54:19:885,1.263,0.8452,10.5788,0.0704,0.0241,9.8063,-0.1071,-0.5846,0.2498,-22.19,-31.31,28.94,347.14,-85.9,-154.87
23133,52.351284,-1.154633,162.67,14.22,6,97.32,19 / 20,2313311,2020-01-08 10:54:19:985,0.2743,-0.9009,10.6579,0.02,0.0002,9.8066,0.0748,0.2364,-0.249,-22.44,-31.31,29.38,341.7,-85.93,-159.99
23134,52.351284,-1.154633,162.67,14.22,6,97.32,19 / 20,2313410,2020-01-08 10:54:20:084,0.1151,-0.0002,9.1747,0.0543,0.0153,9.8064,-0.0575,0.0937,-0.121,-22.81,-31.62,29.75,341.62,-85.78,-159.73
23135,52.351284,-1.154633,162.67,14.22,6,97.32,19 / 20,2313511,2020-01-08 10:54:20:185,-2.9112,-1.4438,10.1867,0.0006,0.0071,9.8065,0.1029,-0.0575,0.0087,-21.81,-31.81,30.13,338.77,-85.6,-163.55
23136,52.351284,-1.154633,162.67,14.22,6,97.32,19 / 20,2313611,2020-01-08 10:54:20:285,0.6677,0.1169,10.565,0.0286,-0.0049,9.8065,0.0201,0.0439,-0.2094,-21.5,-31.94,29.75,341.28,-85.57,-162.43
23137,52.351284,-1.154633,162.67,14.22,6,97.32,19 / 20,2313711,2020-01-08 10:54:20:385,-2.8421,-1.2839,10.3906,0.0208,0.0105,9.8066,0.1086,-0.0819,0.0118,-21.75,-31.44,30.81,341.66,-85.5,-161.77
23138,52.351284,-1.154633,162.67,14.22,6,97.32,19 / 20,2313811,2020-01-08 10:54:20:485,0.8445,1.1058,10.2606,0.0161,-0.0293,9.8066,0.0551,0.1248,-0.1822,-21.5,-31.75,31.06,343.75,-85.32,-160.97
23139,52.351284,-1.154633,162.67,14.22,6,97.32,19 / 20,2313910,2020-01-08 10:54:20:584,-3.711,-2.294,10.0321,0.0279,0.0068,9.8065,0.1121,-0.117,-0.0745,-21.62,-30.81,30.88,344.11,-85.27,-159.42
23140,52.351284,-1.154633,162.67,14.22,6,97.32,19 / 20,2314011,2020-01-08 10:54:20:685,-0.2155,-1.929,10.3414,0.0192,-0.0382,9.8065,0.1011,-0.0254,-0.0271,-21.5,-31.12,30.75,347.96,-84.71,-156.96
23141,52.351284,-1.154633,162.67,14.22,6,97.32,19 / 20,2314111,2020-01-08 10:54:20:785,-2.3389,-1.2774,9.732,0.0053,-0.017,9.8066,0.0138,-0.2755,0.1069,-21.12,-30.62,31.13,349.16,-84.51,-155.82
23142,52.351284,-1.154633,162.67,14.22,6,97.32,19 / 20,2314211,2020-01-08 10:54:20:885,-1.2718,-1.8924,9.8263,-0.0135,-0.0037,9.8066,-0.0157,-0.2304,0.0353,-21.19,-31.0,31.5,352.12,-84.61,-153.97
23143,52.351284,-1.154633,162.67,14.22,6,97.32,19 / 19,2314310,2020-01-08 10:54:20:984,-2.317,-0.6078,8.9584,-0.0051,-0.0033,9.8066,0.1128,-0.1558,0.0037,-21.25,-31.12,31.81,354.59,-84.71,-151.71
23144,52.351284,-1.154633,162.67,14.22,6,97.32,19 / 19,2314411,2020-01-08 10:54:21:085,-3.005,-0.4757,9.0266,0.0161,-0.0119,9.8066,-0.0323,-0.2565,-0.0256,-20.81,-30.81,32.06,354.41,-84.67,-151.87
23145,52.351284,-1.154633,162.67,14.22,6,97.32,19 / 19,2314511,2020-01-08 10:54:21:185,-0.6147,-0.3878,10.2815,-0.0215,0.0054,9.8066,-0.0166,-0.1586,-0.0272,-19.94,-31.87,32.06,357.36,-84.74,-150.42
23146,52.351284,-1.154633,162.67,14.22,6,97.32,19 / 19,2314610,2020-01-08 10:54:21:284,-2.6939,-0.9832,8.9952,-0.0023,0.017,9.8066,-0.1387,-0.2984,0.0481,-19.94,-30.87,32.25,356.74,-84.79,-151.0
23147,52.351284,-1.154633,162.67,14.22,6,97.32,19 / 19,2314710,2020-01-08 10:54:21:384,-0.7363,-1.0627,11.0205,-0.037,0.0105,9.8065,-0.0251,-0.1063,-0.0803,-19.12,-31.5,32.88,0.49,-84.85,-149.62
23148,52.351284,-1.154633,162.67,14.22,6,97.32,19 / 19,2314811,2020-01-08 10:54:21:485,-3.0549,-0.4993,9.5051,0.0014,-0.0032,9.8066,-0.0925,-0.2572,0.1132,-18.75,-32.0,32.31,358.65,-84.66,-150.53
23149,52.351284,-1.154633,162.67,14.22,6,97.32,19 / 19,2314912,2020-01-08 10:54:21:586,-1.087,-0.0484,10.4798,0.0135,-0.018,9.8066,-0.0698,-0.3034,0.093,-18.62,-31.5,32.44,357.78,-84.55,-151.34
23150,52.351284,-1.154633,162.67,14.22,6,97.32,19 / 19,2315012,2020-01-08 10:54:21:686,-2.0215,-0.6619,9.5812,0.0143,-0.0058,9.8066,-0.1097,-0.2774,0.1079,-18.19,-31.19,33.25,1.17,-84.49,-150.32
23151,52.351284,-1.154633,162.67,14.22,6,97.32,19 / 19,2315111,2020-01-08 10:54:21:785,-2.7148,-0.1308,9.3319,-0.0132,-0.0132,9.8065,-0.0441,-0.1756,-0.0095,-17.81,-31.62,33.13,2.8,-84.39,-148.83
23152,52.351284,-1.154633,162.67,14.22,6,97.32,19 / 19,2315211,2020-01-08 10:54:21:885,0.3827,-0.427,9.9701,-0.0111,-0.0142,9.8065,-0.0294,-0.4244,0.1875,-17.31,-30.87,33.38,4.07,-84.3,-149.03
23153,52.351284,-1.154633,162.67,14.22,6,97.32,19 / 20,2315310,2020-01-08 10:54:21:984,-2.8611,-1.5052,9.4446,-0.0276,-0.0144,9.8066,-0.0278,-0.3216,0.0523,-17.81,-31.31,32.81,2.2,-84.12,-149.39
23154,52.351284,-1.154633,162.67,14.22,6,97.32,19 / 20,2315411,2020-01-08 10:54:22:085,-1.4244,-0.6594,10.0291,-0.0091,-0.007,9.8066,-0.0448,-0.1736,0.006,-16.94,-31.06,33.44,5.49,-83.95,-147.76
23155,52.351284,-1.154633,162.67,14.22,6,97.32,19 / 20,2315511,2020-01-08 10:54:22:185,-1.9904,-0.5522,9.8661,0.0015,0.0022,9.8066,-0.0202,-0.2517,0.0209,-17.19,-31.62,33.44,5.11,-83.86,-148.14
23156,52.351284,-1.154633,162.67,14.22,6,97.32,19 / 20,2315611,2020-01-08 10:54:22:285,-2.3883,-0.8803,9.8333,-0.002,-0.0182,9.8066,-0.044,-0.1102,-0.0617,-16.37,-31.56,33.63,7.73,-83.71,-147.83
23157,52.351284,-1.154633,162.67,14.22,6,97.32,19 / 20,2315710,2020-01-08 10:54:22:384,-2.7236,-1.0469,10.1385,0.0135,0.0037,9.8066,0.079,-0.1723,-0.0388,-16.25,-31.25,34.75,7.2,-83.68,-148.91
23158,52.351284,-1.154633,162.67,14.22,6,97.32,19 / 20,2315811,2020-01-08 10:54:22:485,-2.9182,-0.9732,9.9026,0.0131,-0.0052,9.8066,-0.1488,-0.0469,-0.1667,-15.5,-31.81,33.75,8.22,-83.6,-148.81
23159,52.351284,-1.154633,162.67,14.22,6,97.32,19 / 20,2315911,2020-01-08 10:54:22:585,-1.3325,1.1433,8.784,0.0041,0.0499,9.8064,-0.1238,-0.112,0.0172,-15.44,-31.44,34.38,8.15,-83.9,-148.81
23160,52.351284,-1.154633,162.67,14.22,6,97.32,19 / 20,2316011,2020-01-08 10:54:22:685,-1.6499,-0.1812,10.566,-0.0157,0.0215,9.8066,-0.1045,-0.0753,0.0362,-14.81,-30.94,33.75,7.86,-83.96,-149.07
23161,52.351284,-1.154633,162.67,14.22,6,97.32,19 / 20,2316110,2020-01-08 10:54:22:784,-1.7631,0.8689,8.8928,0.0088,0.0241,9.8066,-0.1873,-0.1068,-0.0738,-14.44,-31.19,35.25,10.88,-83.83,-148.34
23162,52.351284,-1.154633,162.67,14.22,6,97.32,19 / 20,2316211,2020-01-08 10:54:22:885,-0.2462,-0.9787,11.091,-0.0112,0.0102,9.8066,0.0934,-0.2092,0.0388,-14.06,-31.31,34.63,10.35,-83.78,-148.83
23163,52.351284,-1.154633,162.67,14.22,6,97.32,20 / 20,2316312,2020-01-08 10:54:22:986,-2.2091,-0.9589,9.8232,0.0312,-0.0514,9.8064,-0.1327,-0.2763,0.099,-13.62,-30.81,34.44,8.77,-83.45,-149.74
23164,52.35093,-1.153407,164.75,9.47,4,165.28,20 / 20,2316411,2020-01-08 10:54:23:085,-1.0862,-1.2641,10.5828,0.0005,-0.0043,9.8066,0.0673,-0.282,0.0464,-13.44,-31.75,34.69,11.37,-83.35,-149.45
23165,52.35093,-1.153407,164.75,9.47,4,165.28,20 / 20,2316511,2020-01-08 10:54:23:185,-2.9268,-0.1857,9.5509,0.0236,-0.0145,9.8065,-0.0344,-0.3676,0.0994,-13.06,-31.12,34.5,10.75,-83.17,-150.0
23166,52.35093,-1.153407,164.75,9.47,4,165.28,20 / 20,2316611,2020-01-08 10:54:23:285,-0.8373,-1.0867,10.5748,0.0071,-0.0058,9.8066,0.0868,-0.3024,-0.0296,-12.94,-31.5,34.81,10.54,-83.11,-150.2
23167,52.35093,-1.153407,164.75,9.47,4,165.28,20 / 20,2316711,2020-01-08 10:54:23:385,-6.0316,0.0153,9.0505,0.0617,-0.0489,9.8063,-0.117,-0.572,0.3006,-12.62,-31.25,34.75,7.1,-82.83,-153.32
23168,52.35093,-1.153407,164.75,9.47,4,165.28,20 / 20,2316811,2020-01-08 10:54:23:485,2.4297,1.9266,9.9094,0.0451,0.0557,9.8063,0.2424,-0.577,0.3477,-12.06,-31.12,34.44,7.32,-83.0,-154.06
23169,52.35093,-1.153407,164.75,9.47,4,165.28,20 / 20,2316911,2020-01-08 10:54:23:585,-5.2483,0.4973,10.3844,0.0628,-0.0077,9.8064,-0.1167,0.019,-0.2332,-11.37,-31.0,35.06,9.61,-82.57,-154.07
23170,52.35093,-1.153407,164.75,9.47,4,165.28,20 / 20,2317011,2020-01-08 10:54:23:685,-0.923,0.1781,9.2447,0.0161,0.0198,9.8066,-0.0081,0.0751,-0.0316,-11.69,-30.81,34.38,6.39,-82.4,-154.95
23171,52.35093,-1.153407,164.75,9.47,4,165.28,20 / 20,2317112,2020-01-08 10:54:23:786,-2.8345,-1.3211,9.9391,0.0072,-0.0049,9.8066,-0.0157,-0.1772,0.0463,-11.12,-31.0,35.56,7.9,-82.18,-156.06
23172,52.35093,-1.153407,164.75,9.47,4,165.28,20 / 20,2317211,2020-01-08 10:54:23:885,0.0277,-0.2881,8.3266,0.0057,0.0242,9.8065,-0.1584,0.0792,-0.1613,-10.69,-30.62,35.06,7.19,-82.1,-156.26
23173,52.35093,-1.153407,164.75,9.47,4,165.28,20 / 20,2317310,2020-01-08 10:54:23:984,-3.336,0.1409,11.0866,0.0188,0.0616,9.8063,0.0927,-0.3037,-0.0138,-9.81,-30.87,34.56,9.33,-82.56,-155.82
23174,52.35093,-1.153407,164.75,9.47,4,165.28,20 / 20,2317411,2020-01-08 10:54:24:085,-1.5815,-0.0434,11.4437,0.0311,-0.037,9.8064,-0.0012,-0.1919,-0.0287,-9.87,-30.62,34.06,8.41,-82.54,-156.22
23175,52.35093,-1.153407,164.75,9.47,4,165.28,20 / 20,2317511,2020-01-08 10:54:24:185,-0.9684,-0.4931,10.1582,0.0043,-0.0183,9.8065,0.1433,-0.1305,-0.0885,-8.87,-31.62,34.75,10.95,-82.49,-155.98
23176,52.35093,-1.153407,164.75,9.47,4,165.28,20 / 20,2317611,2020-01-08 10:54:24:285,-0.9438,0.1493,10.4534,0.0175,-0.0206,9.8065,0.0466,-0.078,0.0326,-9.19,-31.25,33.81,10.27,-82.3,-156.2
23177,52.35093,-1.153407,164.75,9.47,4,165.28,20 / 20,2317711,2020-01-08 10:54:24:385,-0.6449,-0.5098,10.25,0.0225,0.01,9.8066,-0.1373,-0.3829,0.2127,-8.62,-31.0,34.5,10.59,-82.25,-156.3
23178,52.35093,-1.153407,164.75,9.47,4,165.28,20 / 20,2317811,2020-01-08 10:54:24:485,-3.482,-0.764,9.5015,-0.0302,0.0155,9.8065,0.045,-0.214,0.0073,-8.5,-31.37,34.31,13.06,-82.44,-155.32
23179,52.35093,-1.153407,164.75,9.47,4,165.28,20 / 20,2317911,2020-01-08 10:54:24:585,-5.457,-0.3376,8.5451,0.0508,-0.0468,9.8064,-0.27,-0.4844,0.2738,-8.06,-32.0,33.94,11.14,-82.27,-157.08
23180,52.35093,-1.153407,164.75,9.47,4,165.28,20 / 20,2318011,2020-01-08 10:54:24:685,-0.9872,-0.0176,8.7132,-0.0137,-0.006,9.8066,-0.1683,-0.1931,0.03,-8.06,-31.81,34.81,13.39,-82.34,-155.43
23181,52.35093,-1.153407,164.75,9.47,4,165.28,20 / 20,2318111,2020-01-08 10:54:24:785,0.5391,-0.1606,10.379,0.0476,-0.0007,9.8065,-0.143,-0.6411,0.2867,-7.69,-31.87,34.0,14.6,-82.44,-154.02
23182,52.35093,-1.153407,164.75,9.47,4,165.28,20 / 20,2318211,2020-01-08 10:54:24:885,-4.809,0.1717,9.7509,0.0153,0.0071,9.8066,-0.1158,-0.3938,0.1898,-7.06,-31.94,33.81,16.47,-82.6,-153.95
23183,52.35093,-1.153407,164.75,9.47,4,165.28,20 / 20,2318311,2020-01-08 10:54:24:985,-2.6689,1.376,9.3749,0.0446,-0.0101,9.8065,-0.0861,-0.5504,0.2336,-6.19,-32.06,33.75,17.15,-82.59,-155.0
23184,52.35093,-1.153407,164.75,9.47,4,165.28,20 / 20,2318411,2020-01-08 10:54:25:085,-2.3164,0.7895,9.4088,0.0061,-0.0219,9.8066,-0.0764,-0.3152,0.1408,-6.56,-31.81,34.06,16.83,-82.39,-153.7
23185,52.35093,-1.153407,164.75,9.47,4,165.28,20 / 20,2318512,2020-01-08 10:54:25:186,0.1696,-0.3612,11.4522,0.0321,-0.0304,9.8065,-0.0441,-0.4246,0.0897,-6.0,-31.81,32.94,17.57,-82.09,-154.56
23186,52.35093,-1.153407,164.75,9.47,4,165.28,20 / 20,2318612,2020-01-08 10:54:25:286,-3.7375,0.0938,7.8635,0.0484,-0.0491,9.8063,-0.1905,-0.4857,0.1928,-5.5,-31.12,33.75,18.38,-82.02,-155.68
23187,52.35093,-1.153407,164.75,9.47,4,165.28,20 / 20,2318712,2020-01-08 10:54:25:386,0.2812,-0.378,11.0797,-0.0039,-0.0032,9.8066,-0.0074,-0.0471,-0.0611,-6.12,-31.69,33.19,16.63,-81.97,-155.41
23188,52.35093,-1.153407,164.75,9.47,4,165.28,20 / 20,2318810,2020-01-08 10:54:25:484,-2.0244,1.5525,9.913,0.0355,-0.0136,9.8065,-0.2549,-0.3666,0.1546,-5.31,-32.19,33.44,18.99,-82.16,-155.0
23189,52.35093,-1.153407,164.75,9.47,4,165.28,20 / 20,2318911,2020-01-08 10:54:25:585,0.3959,0.6212,10.6374,-0.0087,0.0098,9.8065,0.0973,-0.2156,-0.1066,-4.56,-31.94,32.44,20.87,-82.53,-153.03
23190,52.35093,-1.153407,164.75,9.47,4,165.28,20 / 20,2319011,2020-01-08 10:54:25:685,-2.4697,1.5252,10.0369,0.0475,-0.018,9.8065,0.0293,-0.2769,0.1637,-4.25,-32.06,33.44,21.03,-82.36,-154.86
23191,52.35093,-1.153407,164.75,9.47,4,165.28,20 / 20,2319110,2020-01-08 10:54:25:784,-0.4073,0.5577,8.9333,0.0115,0.01,9.8066,0.1456,-0.2584,-0.0356,-4.44,-32.12,32.38,21.16,-82.06,-154.74
23192,52.35093,-1.153407,164.75,9.47,4,165.28,20 / 20,2319211,2020-01-08 10:54:25:885,-2.7949,0.0096,9.7654,0.0355,-0.0061,9.8065,0.0119,-0.3664,0.1789,-4.31,-31.5,32.81,20.69,-81.87,-155.26
23193,52.35093,-1.153407,164.75,9.47,4,165.28,20 / 20,2319310,2020-01-08 10:54:25:984,-1.8234,1.1016,9.5112,-0.0094,0.0052,9.8065,-0.0613,-0.2208,0.0241,-3.37,-32.37,32.31,22.74,-81.83,-155.25
23194,52.35093,-1.153407,164.75,9.47,4,165.28,20 / 20,2319410,2020-01-08 10:54:26:084,-1.8026,1.7862,9.912,0.0058,0.0358,9.8066,0.0373,-0.215,0.0093,-4.0,-32.19,31.81,21.79,-82.0,-154.22
23195,52.35093,-1.153407,164.75,9.47,4,165.28,20 / 20,2319511,2020-01-08 10:54:26:185,-2.234,2.8138,9.8214,-0.0043,-0.0237,9.8066,-0.087,0.0433,-0.0483,-3.69,-31.87,31.19,20.43,-81.96,-155.27
23196,52.35093,-1.153407,164.75,9.47,4,165.28,20 / 20,2319610,2020-01-08 10:54:26:284,0.3594,-0.3304,9.9881,-0.0315,-0.021,9.8065,0.1051,0.0855,-0.1882,-2.81,-32.25,31.63,21.96,-81.69,-155.98
23197,52.35093,-1.153407,164.75,9.47,4,165.28,20 / 20,2319710,2020-01-08 10:54:26:384,-4.63,0.7014,9.8307,-0.0064,0.0042,9.8066,0.0658,-0.204,0.0604,-3.0,-31.94,31.44,21.17,-81.47,-156.68
23198,52.35093,-1.153407,164.75,9.47,4,165.28,20 / 20,2319810,2020-01-08 10:54:26:484,-4.5239,0.0644,9.7543,-0.0388,0.0018,9.8065,0.0301,0.044,-0.2577,-2.0,-32.31,31.75,22.87,-81.34,-157.14
23199,52.35093,-1.153407,164.75,9.47,4,165.28,20 / 20,2319911,2020-01-08 10:54:26:585,-4.2015,0.9102,9.8124,-0.0051,0.0265,9.8066,0.0716,-0.3438,0.0901,-1.56,-31.94,30.44,20.78,-81.53,-158.81
23200,52.35093,-1.153407,164.75,9.47,4,165.28,20 / 20,2320010,2020-01-08 10:54:26:684,0.1952,0.1297,10.333,-0.0325,0.0228,9.8065,0.0639,-0.0107,-0.1399,-1.62,-32.37,30.5,22.33,-81.62,-157.47
23201,52.35093,-1.153407,164.75,9.47,4,165.28,20 / 20,2320110,2020-01-08 10:54:26:784,-0.9944,0.9145,9.2897,0.0101,0.0132,9.8066,-0.0976,-0.2738,0.1259,-1.06,-32.0,30.5,23.42,-81.8,-158.31
23202,52.35093,-1.153407,164.75,9.47,4,165.28,20 / 20,2320211,2020-01-08 10:54:26:885,0.7261,0.504,9.7349,-0.0182,0.0068,9.8066,-0.0479,0.0054,-0.1384,-1.44,-32.56,30.31,23.28,-81.68,-158.64
23203,52.35093,-1.153407,164.75,9.47,4,165.28,20 / 20,2320311,2020-01-08 10:54:26:985,-2.856,0.9417,9.8616,0.0238,-0.0212,9.8065,0.0021,-0.1607,0.0128,-0.75,-32.31,29.75,21.52,-81.53,-160.09
23204,52.35093,-1.153407,164.75,9.47,4,165.28,20 / 20,2320411,2020-01-08 10:54:27:085,-1.093,0.4451,9.5431,-0.0048,0.0006,9.8065,0.0223,-0.0306,-0.1257,-0.75,-32.5,29.63,21.79,-81.53,-159.86
23205,52.35093,-1.153407,164.75,9.47,4,165.28,20 / 20,2320511,2020-01-08 10:54:27:185,-1.0423,-0.3229,10.3219,0.0092,-0.0273,9.8066,0.0927,-0.1285,-0.0152,-0.44,-32.62,29.5,23.64,-81.5,-160.34
23206,52.35093,-1.153407,164.75,9.47,4,165.28,20 / 20,2320611,2020-01-08 10:54:27:285,-0.7426,0.7512,9.796,0.0076,-0.0186,9.8066,0.0339,-0.0541,-0.0783,-0.44,-32.44,29.25,22.4,-81.36,-161.46
23207,52.35093,-1.153407,164.75,9.47,4,165.28,20 / 20,2320711,2020-01-08 10:54:27:385,0.7214,0.1777,10.4324,0.035,-0.016,9.8065,0.027,0.0092,-0.1643,0.69,-32.69,28.81,23.7,-81.52,-162.37
23208,52.35093,-1.153407,164.75,9.47,4,165.28,20 / 20,2320811,2020-01-08 10:54:27:485,0.376,1.3207,10.4151,0.0268,-0.0071,9.8065,0.1176,-0.2431,-0.0746,0.0,-32.62,28.75,20.62,-81.49,-162.99
23209,52.35093,-1.153407,164.75,9.47,4,165.28,20 / 20,2320911,2020-01-08 10:54:27:585,0.8587,0.1914,9.859,0.0078,-0.0423,9.8065,0.1003,-0.0538,-0.0128,0.38,-31.69,29.06,17.04,-81.66,-165.82
23210,52.35093,-1.153407,164.75,9.47,4,165.28,20 / 20,2321010,2020-01-08 10:54:27:684,1.8062,0.3849,9.191,0.0252,-0.0182,9.8066,0.047,-0.189,0.0229,0.31,-31.81,29.0,13.29,-81.43,-169.02
23211,52.35093,-1.153407,164.75,9.47,4,165.28,20 / 20,2321110,2020-01-08 10:54:27:784,-1.4049,0.9156,10.3913,-0.0232,0.0121,9.8065,-0.0227,-0.1689,0.1483,0.19,-31.69,28.38,14.75,-81.5,-167.88
23212,52.35093,-1.153407,164.75,9.47,4,165.28,20 / 20,2321211,2020-01-08 10:54:27:885,0.1608,1.7709,7.8309,-0.0277,-0.0121,9.8065,-0.2802,-0.496,0.2869,1.06,-31.62,28.44,17.27,-81.69,-167.76
23213,52.35093,-1.153407,164.75,9.47,4,165.28,20 / 20,2321311,2020-01-08 10:54:27:985,2.5548,-0.324,11.8719,-0.0728,0.0784,9.806,-0.0964,-0.3075,0.303,0.25,-32.19,28.94,15.31,-82.3,-167.06
23214,52.35093,-1.153407,164.75,9.47,4,165.28,20 / 20,2321411,2020-01-08 10:54:28:085,6.3113,-0.7761,10.4935,-0.0277,0.0282,9.8065,-0.2287,-0.3608,0.192,1.31,-32.12,29.44,13.88,-82.22,-170.27
23215,52.35093,-1.153407,164.75,9.47,4,165.28,20 / 20,2321510,2020-01-08 10:54:28:184,-3.266,-0.1522,8.599,-0.0863,0.0234,9.8062,-0.0547,-0.4059,0.4587,0.56,-31.25,29.5,10.55,-81.93,-172.98
23216,52.35093,-1.153407,164.75,9.47,4,165.28,20 / 20,2321611,2020-01-08 10:54:28:285,5.492,-1.1254,10.3703,-0.0637,0.0186,9.8064,-0.0694,-0.0691,0.0252,1.19,-31.81,29.56,13.85,-81.84,-170.27
23217,52.35093,-1.153407,164.75,9.47,4,165.28,20 / 20,2321710,2020-01-08 10:54:28:384,-4.9599,-0.4432,9.5347,-0.0282,0.0372,9.8064,-0.1704,-0.5403,0.5236,0.19,-32.06,30.06,11.78,-81.58,-170.17
23218,52.35093,-1.153407,164.75,9.47,4,165.28,20 / 20,2321811,2020-01-08 10:54:28:485,3.5893,-1.5392,10.4184,-0.1087,0.0091,9.806,0.0208,0.2742,-0.0176,0.25,-31.44,29.88,13.8,-81.6,-168.41
23219,52.35093,-1.153407,164.75,9.47,4,165.28,20 / 20,2321911,2020-01-08 10:54:28:585,6.7379,-1.1487,8.7276,-0.0403,0.0319,9.8064,-0.0903,-0.3244,0.455,-0.44,-31.0,30.25,13.66,-81.51,-168.55
23220,52.35093,-1.153407,164.75,9.47,4,165.28,20 / 20,2322012,2020-01-08 10:54:28:686,-2.8421,1.0575,10.9415,-0.0876,0.011,9.8062,-0.1503,0.4325,-0.1895,-0.25,-31.37,30.19,19.68,-81.63,-163.42
23221,52.35093,-1.153407,164.75,9.47,4,165.28,20 / 20,2322111,2020-01-08 10:54:28:785,1.9322,0.7371,7.8217,0.0049,0.0541,9.8065,-0.1602,-0.176,0.2426,-1.19,-32.19,31.06,18.75,-81.84,-162.27
23222,52.35093,-1.153407,164.75,9.47,4,165.28,20 / 20,2322211,2020-01-08 10:54:28:885,6.1196,-1.3572,9.4498,-0.0755,0.0174,9.8063,-0.1881,0.6083,-0.2658,-1.0,-31.69,30.94,20.56,-81.71,-160.78
23223,52.35093,-1.153407,164.75,9.47,4,165.28,20 / 20,2322311,2020-01-08 10:54:28:985,0.8389,1.9011,8.8099,0.0342,0.0545,9.8064,-0.1806,0.0833,0.038,-0.94,-32.75,31.69,18.94,-81.66,-162.24
23224,52.35093,-1.153407,164.75,9.47,4,165.28,20 / 20,2322411,2020-01-08 10:54:29:085,-0.6756,-0.8938,11.42,-0.0173,0.0299,9.8065,-0.0262,0.3093,-0.1091,-1.56,-31.12,31.63,15.69,-81.76,-163.04
23225,52.35093,-1.153407,164.75,9.47,4,165.28,20 / 20,2322511,2020-01-08 10:54:29:185,3.3865,0.2772,8.3326,0.0068,0.0095,9.8066,-0.1432,0.3826,-0.1277,-1.62,-31.81,31.25,14.18,-81.67,-164.37
23226,52.35093,-1.153407,164.75,9.47,4,165.28,20 / 20,2322610,2020-01-08 10:54:29:284,0.0064,-1.1254,10.8239,0.0321,0.0285,9.8065,0.0269,0.0864,-0.0177,-1.75,-31.31,31.88,13.47,-81.71,-164.95
23227,52.35093,-1.153407,164.75,9.47,4,165.28,20 / 20,2322711,2020-01-08 10:54:29:385,2.4629,-0.5202,9.774,-0.013,0.0021,9.8065,-0.0336,0.1656,0.018,-1.62,-31.56,31.94,14.65,-81.59,-164.04
23228,52.35093,-1.153407,164.75,9.47,4,165.28,20 / 20,2322811,2020-01-08 10:54:29:485,-0.1229,1.2225,9.2226,-0.0319,0.0073,9.8065,-0.0341,0.0685,0.2247,-2.87,-31.37,32.19,16.11,-81.59,-160.95
23229,52.35093,-1.153407,164.75,9.47,4,165.28,20 / 20,2322911,2020-01-08 10:54:29:585,5.2248,-1.2157,9.9772,-0.0516,-0.0106,9.8064,0.1386,0.4878,-0.163,-3.12,-31.81,32.44,22.0,-81.37,-156.09
23230,52.35093,-1.153407,164.75,9.47,4,165.28,20 / 20,2323011,2020-01-08 10:54:29:685,-0.3566,1.1091,8.9828,0.0532,-0.0294,9.8064,-0.049,-0.1471,0.0623,-3.31,-31.69,32.38,22.37,-81.14,-155.87
23231,52.35093,-1.153407,164.75,9.47,4,165.28,20 / 20,2323110,2020-01-08 10:54:29:784,-2.0433,-0.0798,9.6656,-0.0602,0.0049,9.8064,0.1079,-0.0809,0.1603,-4.06,-31.5,32.13,22.39,-80.99,-154.03
23232,52.35093,-1.153407,164.75,9.47,4,165.28,20 / 20,2323211,2020-01-08 10:54:29:885,1.8837,-0.298,8.8365,-0.0033,-0.0223,9.8066,-0.1608,-0.0199,0.0719,-3.75,-31.37,31.88,23.95,-80.92,-152.73
23233,52.35093,-1.153407,164.75,9.47,4,165.28,20 / 20,2323310,2020-01-08 10:54:29:984,-0.0794,-0.075,9.7966,-0.0258,0.0457,9.8064,-0.1425,-0.1309,0.1457,-4.31,-31.44,31.75,22.44,-81.01,-153.98
23234,52.35093,-1.153407,164.75,9.47,4,165.28,20 / 20,2323411,2020-01-08 10:54:30:085,4.3091,-1.5008,10.9387,-0.0201,0.0199,9.8065,0.0517,0.1967,-0.1481,-4.56,-30.75,33.13,21.62,-81.15,-153.02
23235,52.35093,-1.153407,164.75,9.47,4,165.28,20 / 20,2323511,2020-01-08 10:54:30:185,3.6304,-1.5398,9.9296,0.0035,-0.0277,9.8066,-0.0158,0.0578,0.1069,-3.75,-31.37,33.13,22.81,-80.87,-153.84
23236,52.35093,-1.153407,164.75,9.47,4,165.28,20 / 20,2323610,2020-01-08 10:54:30:284,4.3537,-0.1486,9.6167,-0.0372,-0.0008,9.8065,0.0402,0.363,-0.2769,-4.44,-30.31,33.63,25.04,-80.71,-151.98
23237,52.35093,-1.153407,164.75,9.47,4,165.28,20 / 20,2323711,2020-01-08 10:54:30:385,-0.3019,0.0614,9.6524,0.0112,0.0053,9.8066,-0.042,0.1203,0.0908,-4.69,-30.37,33.81,25.25,-80.76,-150.11
23238,52.35093,-1.153407,164.75,9.47,4,165.28,20 / 20,2323810,2020-01-08 10:54:30:484,3.4342,0.2302,9.7336,-0.0146,-0.0004,9.8066,0.0742,0.1778,-0.0322,-4.75,-29.31,33.94,25.45,-80.78,-149.81
23239,52.35093,-1.153407,164.75,9.47,4,165.28,20 / 20,2323911,2020-01-08 10:54:30:585,0.8181,0.2514,10.3681,0.0203,-0.0058,9.8066,0.0899,-0.0595,0.1717,-4.87,-28.87,33.75,24.58,-80.7,-150.6
23240,52.35093,-1.153407,164.75,9.47,4,165.28,20 / 20,2324011,2020-01-08 10:54:30:685,0.9418,-0.5039,9.9602,-0.0175,-0.0138,9.8065,0.0337,0.2001,-0.0393,-5.44,-28.87,33.0,24.68,-80.46,-150.46
23241,52.35093,-1.153407,164.75,9.47,4,165.28,20 / 20,2324111,2020-01-08 10:54:30:785,-0.1543,-1.6888,9.6392,0.0127,0.0131,9.8065,0.0106,-0.1681,0.1452,-5.5,-29.69,33.63,25.59,-80.39,-149.98
23242,52.35093,-1.153407,164.75,9.47,4,165.28,19 / 20,2324211,2020-01-08 10:54:30:885,2.1511,-0.9296,10.2375,-0.0057,0.0261,9.8066,0.0143,0.2137,0.0506,-5.62,-29.75,33.31,24.32,-80.48,-149.17
23243,52.35093,-1.153407,164.75,9.47,4,165.28,19 / 20,2324311,2020-01-08 10:54:30:985,4.4134,-0.154,9.1029,0.0248,0.0307,9.8065,0.0416,-0.1307,0.0324,-6.12,-30.19,33.63,24.59,-80.81,-149.0
23244,52.35093,-1.153407,164.75,9.47,4,165.28,19 / 20,2324411,2020-01-08 10:54:31:085,5.375,-1.1685,9.2654,0.0051,0.0152,9.8066,0.2108,0.4177,-0.066,-5.75,-30.56,34.75,25.02,-80.82,-148.92
23245,52.35093,-1.153407,164.75,9.47,4,165.28,19 / 20,2324510,2020-01-08 10:54:31:184,-0.236,0.2869,9.5751,-0.0286,0.0492,9.8064,0.1909,0.1082,-0.0879,-5.56,-30.87,34.19,23.91,-80.67,-149.75
23246,52.35093,-1.153407,164.75,9.47,4,165.28,19 / 20,2324611,2020-01-08 10:54:31:285,4.2376,-1.3712,11.98,-0.0493,0.0093,9.8065,0.2523,0.5241,-0.2009,-6.37,-30.75,34.75,25.08,-80.69,-148.92
23247,52.35093,-1.153407,164.75,9.47,4,165.28,19 / 20,2324711,2020-01-08 10:54:31:385,0.5017,-1.8638,10.0497,-0.0327,0.0401,9.8065,0.126,0.177,-0.0039,-6.44,-30.62,34.0,26.82,-80.69,-147.24
23248,52.35093,-1.153407,164.75,9.47,4,165.28,19 / 20,2324810,2020-01-08 10:54:31:484,5.0517,-1.0542,10.3379,-0.0578,0.0265,9.8064,-0.0437,0.2186,-0.0201,-6.5,-30.06,34.38,27.5,-80.59,-146.58
23249,52.35093,-1.153407,164.75,9.47,4,165.28,19 / 20,2324910,2020-01-08 10:54:31:584,3.5005,-0.616,10.1716,0.0192,0.003,9.8065,-0.0229,-0.046,-0.0044,-7.19,-29.94,35.19,25.09,-80.58,-147.25
23250,52.35093,-1.153407,164.75,9.47,4,165.28,19 / 20,2325011,2020-01-08 10:54:31:685,4.0308,-0.1509,9.4502,-0.0187,-0.0245,9.8066,0.0687,0.3198,-0.2176,-7.0,-29.56,34.63,24.51,-80.43,-147.81
23251,52.35093,-1.153407,164.75,9.47,4,165.28,19 / 20,2325111,2020-01-08 10:54:31:785,3.2929,-0.9168,9.501,-0.0044,0.0136,9.8066,0.0609,0.0161,0.138,-6.87,-30.06,35.13,23.21,-80.45,-148.93
23252,52.35093,-1.153407,164.75,9.47,4,165.28,19 / 20,2325210,2020-01-08 10:54:31:884,2.7405,-1.3683,9.711,-0.0108,0.0049,9.8066,-0.1038,0.425,-0.1259,-6.87,-30.62,35.38,24.3,-80.52,-148.07
23253,52.35093,-1.153407,164.75,9.47,4,165.28,19 / 19,2325311,2020-01-08 10:54:31:985,4.4226,0.8486,9.206,0.0318,0.0322,9.8065,-0.0471,0.4158,-0.1598,-7.75,-30.62,35.25,22.74,-80.48,-147.84
23254,52.35014,-1.153861,166.25,13.76,4,191.33,19 / 19,2325410,2020-01-08 10:54:32:084,1.1615,-0.665,9.9545,0.0299,-0.0087,9.8065,0.1089,-0.1316,0.2186,-7.56,-30.37,35.56,20.82,-80.75,-149.57
23255,52.35014,-1.153861,166.25,13.76,4,191.33,19 / 19,2325511,2020-01-08 10:54:32:185,5.2849,-0.8886,11.0885,0.0998,-0.0269,9.8061,-0.0734,-0.0405,0.2678,-8.12,-30.81,36.13,16.11,-80.65,-153.74
23256,52.35014,-1.153861,166.25,13.76,4,191.33,19 / 19,2325610,2020-01-08 10:54:32:284,3.6088,-1.2226,10.6818,0.0001,-0.0188,9.8066,-0.2568,0.032,-0.1085,-7.69,-30.0,35.75,16.47,-80.49,-153.4
23257,52.35014,-1.153861,166.25,13.76,4,191.33,19 / 19,2325711,2020-01-08 10:54:32:385,4.9966,-2.1715,11.6402,0.0163,-0.0836,9.8062,0.3041,0.2914,-0.2197,-8.37,-30.06,35.44,14.36,-80.41,-154.93
23258,52.35014,-1.153861,166.25,13.76,4,191.33,19 / 19,2325810,2020-01-08 10:54:32:484,3.069,-0.0785,7.296,0.0555,-0.0076,9.8065,-0.3512,0.1534,0.2208,-8.75,-30.25,35.94,16.68,-80.91,-151.58
23259,52.35014,-1.153861,166.25,13.76,4,191.33,19 / 19,2325911,2020-01-08 10:54:32:585,-0.6928,-0.7636,9.1001,0.1019,-0.0919,9.8057,-0.3958,-0.6096,0.4402,-8.87,-29.94,36.31,12.9,-80.75,-154.89
23260,52.35014,-1.153861,166.25,13.76,4,191.33,19 / 19,2326010,2020-01-08 10:54:32:684,-3.824,-2.0492,11.2967,0.0636,-0.0005,9.8064,0.0266,-0.3717,0.6794,-8.87,-30.12,35.94,14.7,-80.83,-153.32
23261,52.35014,-1.153861,166.25,13.76,4,191.33,19 / 19,2326111,2020-01-08 10:54:32:785,6.3686,-2.1825,11.0321,0.1243,-0.0263,9.8058,-0.3931,0.1821,0.6319,-9.0,-30.06,36.19,15.05,-80.6,-153.07
23262,52.35014,-1.153861,166.25,13.76,4,191.33,19 / 19,2326211,2020-01-08 10:54:32:885,1.6209,0.3112,9.1811,-0.0802,-0.0178,9.8062,-0.1789,-0.0242,-0.3515,-9.5,-30.81,36.31,20.38,-80.73,-148.51
23263,52.35014,-1.153861,166.25,13.76,4,191.33,20 / 20,2326311,2020-01-08 10:54:32:985,4.8791,2.3757,4.5606,0.0112,-0.0938,9.8061,-0.5597,-0.1959,-0.1479,-9.5,-30.87,36.31,19.2,-81.27,-149.37
23264,52.35014,-1.153861,166.25,13.76,4,191.33,20 / 20,2326410,2020-01-08 10:54:33:084,6.0766,1.3927,8.3633,0.1189,0.0602,9.8057,-0.107,0.0625,0.6154,-9.69,-30.62,36.31,16.15,-81.32,-150.5
23265,52.35014,-1.153861,166.25,13.76,4,191.33,20 / 20,2326511,2020-01-08 10:54:33:185,2.1967,1.8171,11.2522,0.0265,0.0267,9.8065,0.0009,0.2212,-0.0668,-10.5,-30.31,36.38,18.97,-81.28,-147.98
23266,52.35014,-1.153861,166.25,13.76,4,191.33,20 / 20,2326611,2020-01-08 10:54:33:285,7.2937,0.4206,9.7458,-0.013,-0.0563,9.8064,-0.0852,-0.1133,-0.1781,-10.44,-29.75,36.25,16.82,-81.66,-149.76
23267,52.35014,-1.153861,166.25,13.76,4,191.33,20 / 20,2326710,2020-01-08 10:54:33:384,5.4564,1.0799,10.3434,-0.0171,0.0294,9.8065,0.1112,0.4688,0.0299,-10.44,-30.25,36.88,16.3,-81.37,-150.64
23268,52.35014,-1.153861,166.25,13.76,4,191.33,20 / 20,2326810,2020-01-08 10:54:33:484,0.6663,-0.1621,8.0455,0.02,-0.0232,9.8066,-0.0931,0.0468,-0.075,-11.0,-30.12,36.19,17.13,-81.2,-148.13
23269,52.35014,-1.153861,166.25,13.76,4,191.33,20 / 20,2326911,2020-01-08 10:54:33:585,-0.8953,-1.7806,11.3859,-0.092,-0.0171,9.8061,0.1784,0.5502,-0.5177,-10.94,-29.62,35.88,15.22,-81.28,-149.78
23270,52.35014,-1.153861,166.25,13.76,4,191.33,20 / 20,2327011,2020-01-08 10:54:33:685,5.9353,-0.6385,10.8447,-0.02,-0.0294,9.8066,0.0526,0.4436,-0.1735,-11.37,-29.87,36.44,16.37,-81.08,-148.83
23271,52.35014,-1.153861,166.25,13.76,4,191.33,20 / 20,2327111,2020-01-08 10:54:33:785,2.0618,-0.4623,10.511,-0.0428,0.0109,9.8064,0.1293,0.2864,-0.1455,-11.31,-29.69,37.19,19.01,-81.05,-146.91
23272,52.35014,-1.153861,166.25,13.76,4,191.33,20 / 20,2327211,2020-01-08 10:54:33:885,3.7018,-0.8053,10.2204,-0.0172,0.0056,9.8066,0.1066,0.175,-0.1315,-12.12,-29.87,36.5,16.56,-81.06,-147.62
23273,52.35014,-1.153861,166.25,13.76,4,191.33,20 / 20,2327311,2020-01-08 10:54:33:985,-0.7662,-0.9266,9.6989,-0.0311,-0.004,9.8066,-0.0813,0.5042,-0.17,-12.37,-29.25,36.56,17.05,-81.02,-147.13
23274,52.35014,-1.153861,166.25,13.76,4,191.33,20 / 20,2327411,2020-01-08 10:54:34:085,0.879,-0.0381,10.4923,-0.0335,0.0267,9.8065,0.0105,0.4469,-0.2932,-12.12,-30.56,36.38,17.54,-81.25,-146.37
23275,52.35014,-1.153861,166.25,13.76,4,191.33,20 / 20,2327511,2020-01-08 10:54:34:185,1.4597,-0.3027,10.1356,-0.0645,-0.0665,9.8062,-0.0434,0.373,-0.3053,-12.75,-29.69,36.06,16.38,-80.88,-145.97
23276,52.35014,-1.153861,166.25,13.76,4,191.33,20 / 20,2327611,2020-01-08 10:54:34:285,4.2115,0.1727,8.996,-0.0216,-0.0386,9.8065,-0.0814,0.4725,-0.1217,-12.0,-30.19,36.31,17.28,-80.96,-146.6
23277,52.35014,-1.153861,166.25,13.76,4,191.33,20 / 20,2327711,2020-01-08 10:54:34:385,-1.4255,0.7239,8.632,-0.0319,0.0323,9.8065,0.2639,0.3653,-0.1296,-12.25,-29.94,36.31,18.13,-81.0,-145.85
23278,52.35014,-1.153861,166.25,13.76,4,191.33,20 / 20,2327811,2020-01-08 10:54:34:485,3.9144,0.3363,10.2914,-0.0319,-0.0415,9.8065,-0.0696,0.1909,-0.256,-12.37,-30.25,35.5,18.83,-81.1,-145.22
23279,52.35014,-1.153861,166.25,13.76,4,191.33,20 / 20,2327911,2020-01-08 10:54:34:585,0.6631,-0.2537,10.5871,-0.0136,0.0041,9.8065,0.1256,0.1487,-0.0436,-12.31,-30.19,36.0,18.48,-81.3,-145.46
23280,52.35014,-1.153861,166.25,13.76,4,191.33,20 / 20,2328011,2020-01-08 10:54:34:685,2.3631,0.4121,8.8506,0.007,-0.0452,9.8065,-0.0826,0.1525,-0.0851,-12.69,-30.37,36.63,16.39,-81.1,-146.35
23281,52.35014,-1.153861,166.25,13.76,4,191.33,20 / 20,2328111,2020-01-08 10:54:34:785,3.1234,0.0945,9.6793,0.0072,0.0166,9.8066,0.0848,-0.2664,0.0528,-13.12,-29.56,36.19,15.41,-81.19,-146.74
23282,52.35014,-1.153861,166.25,13.76,4,191.33,20 / 20,2328211,2020-01-08 10:54:34:885,-3.0974,-0.3857,10.2303,0.0305,0.0174,9.8065,-0.0339,-0.4462,0.3313,-12.19,-29.81,36.0,16.32,-81.17,-147.39
23283,52.35014,-1.153861,166.25,13.76,4,191.33,20 / 20,2328311,2020-01-08 10:54:34:985,3.9717,-0.0249,10.7666,0.0528,-0.0002,9.8064,-0.1087,-0.0668,0.0514,-12.37,-29.81,36.25,18.05,-81.08,-145.89
23284,52.35014,-1.153861,166.25,13.76,4,191.33,20 / 20,2328410,2020-01-08 10:54:35:084,-2.0581,-0.5462,11.1812,0.0674,0.0333,9.8063,-0.0826,-0.4286,0.2869,-12.37,-30.69,36.63,15.96,-81.35,-148.14
23285,52.35014,-1.153861,166.25,13.76,4,191.33,20 / 20,2328511,2020-01-08 10:54:35:185,4.7696,0.7973,10.3033,0.0428,-0.044,9.8064,-0.1836,0.095,0.0129,-12.94,-30.12,36.94,15.49,-81.34,-147.09
23286,52.35014,-1.153861,166.25,13.76,4,191.33,20 / 20,2328611,2020-01-08 10:54:35:285,-4.6329,-0.4187,8.3736,0.0775,-0.0173,9.8062,-0.3358,-0.5666,0.3361,-12.75,-29.56,35.88,12.0,-81.17,-149.72
