,GPS LATITUDE (degrees), GPS LONGITUDE (degrees), GPS ALTITUDE (m), GPS SPEED (Kmh), GPS ACCURACY (m), GPS ORIENTATION (Â°),GPS SATELLITES IN RANGE, TIME SINCE START (ms), DATE (YYYY-MO-DD HH-MI-SS_SSS), ACCELEROMETER X (m/s²) , ACCELEROMETER Y (m/s²), ACCELEROMETER Z (m/s²), GRAVITY X (m/s²), GRAVITY Y (m/s²), GRAVITY Z (m/s²), GYROSCOPE Yaw (rad/s), GYROSCOPE Pitch (rad/s), GYROSCOPE Roll (rad/s), MAGNETIC FIELD X (Î¼T), MAGNETIC FIELD Y (Î¼T), MAGNETIC FIELD Z (Î¼T), ORIENTATION (Yaw) (Â°), ORIENTATION (Pitch) (Â°), ORIENTATION (Roll ) (Â°)
4694,48.877125,2.280486,86.05,2.62,4,63.39,17 / 22,469421,2020-01-04 11:45:45:671,0.6921,-0.8309,8.9746,-0.0044,-0.0149,9.8065,0.0157,-0.0504,-0.0283,-64.25,-82.81,71.88,146.48,-12.69,-0.08
4695,48.877125,2.280486,86.05,2.62,4,63.39,17 / 21,469521,2020-01-04 11:45:45:771,-0.0576,-0.8386,10.8614,0.007,-0.0067,9.8066,0.0285,0.0228,-0.0533,-59.75,-81.37,71.5,147.6,-12.77,-0.17
4696,48.877125,2.280486,86.05,2.62,4,63.39,17 / 21,469621,2020-01-04 11:45:45:871,0.5277,-0.7752,9.8286,-0.0012,-0.0054,9.8066,0.0224,-0.0183,-0.0576,-66.19,-82.5,76.06,145.67,-12.88,-0.11
4697,48.877125,2.280486,86.05,2.62,4,63.39,17 / 21,469721,2020-01-04 11:45:45:971,-0.1776,-0.6804,9.66,0.0057,-0.0038,9.8065,0.0309,-0.0087,-0.0831,-69.75,-84.62,77.19,144.94,-12.93,-0.16
4698,48.877125,2.280486,86.05,2.62,4,63.39,17 / 21,469820,2020-01-04 11:45:46:070,0.2022,-1.0216,10.2642,-0.0052,-0.0043,9.8066,0.0175,-0.0132,-0.0886,-64.31,-83.94,71.88,146.82,-13.01,-0.09
4699,48.877125,2.280486,86.05,2.62,4,63.39,17 / 21,469921,2020-01-04 11:45:46:171,0.1297,-0.9272,9.5338,0.0045,-0.0014,9.8066,-0.0089,0.009,-0.0783,-60.94,-82.44,73.06,147.6,-12.99,-0.08
4700,48.877125,2.280486,86.05,2.62,4,63.39,17 / 21,470021,2020-01-04 11:45:46:271,-0.1767,-0.8817,10.0969,0.0023,0.0088,9.8066,0.0036,-0.0132,-0.0715,-67.87,-84.44,77.25,145.58,-12.95,0.05
4701,48.877125,2.280486,86.05,2.62,4,63.39,17 / 21,470121,2020-01-04 11:45:46:371,0.0839,-0.6014,9.6174,-0.0086,0.0003,9.8066,0.004,-0.0194,-0.0687,-69.56,-84.56,76.31,145.03,-12.94,0.1
4702,48.877125,2.280486,86.05,2.62,4,63.39,17 / 21,470221,2020-01-04 11:45:46:471,0.3383,-0.7087,9.2152,0.0029,-0.0028,9.8066,0.0018,0.0156,-0.0722,-61.12,-82.44,72.19,147.61,-12.94,0.04
4703,48.877125,2.280486,86.05,2.62,4,63.39,17 / 21,470321,2020-01-04 11:45:46:571,-0.1671,-0.8077,9.6333,-0.0053,-0.0059,9.8066,0.0136,-0.0149,-0.0661,-63.69,-83.19,75.06,146.82,-12.91,0.1
4704,48.877125,2.280486,86.05,2.62,4,63.39,17 / 22,470420,2020-01-04 11:45:46:670,-0.3625,-0.0881,10.2361,-0.0119,0.0004,9.8066,-0.0122,-0.0206,-0.0746,-71.06,-84.62,78.19,144.74,-12.94,0.05
4705,48.877125,2.280486,86.05,2.62,4,63.39,17 / 22,470520,2020-01-04 11:45:46:770,0.0358,-0.1854,9.6395,-0.0115,-0.0021,9.8066,-0.0098,-0.0623,-0.0752,-64.94,-83.5,73.13,146.25,-12.84,0.06
4706,48.877125,2.280486,86.05,2.62,4,63.39,17 / 22,470621,2020-01-04 11:45:46:871,-0.2924,-0.7185,9.8062,0.0021,-0.0004,9.8066,-0.0217,-0.0449,-0.0782,-61.62,-83.06,74.19,147.47,-12.81,-0.06
4707,48.877125,2.280486,86.05,2.62,4,63.39,17 / 22,470721,2020-01-04 11:45:46:971,-0.443,-0.6167,9.4233,0.0091,0.0006,9.8066,0.0083,-0.0322,-0.0863,-69.44,-84.44,77.31,145.04,-12.75,-0.1
4708,48.877125,2.280486,86.05,2.62,4,63.39,17 / 22,470821,2020-01-04 11:45:47:071,0.4762,-0.8644,8.9741,-0.0045,0.0024,9.8066,0.0123,-0.0129,-0.0895,-68.69,-84.75,74.75,145.19,-12.76,-0.1
4709,48.877125,2.280486,86.05,2.62,4,63.39,17 / 22,470921,2020-01-04 11:45:47:171,-0.6806,-0.5167,10.2458,0.0114,0.0016,9.8066,0.0219,-0.0082,-0.091,-60.81,-84.25,72.25,148.04,-12.8,-0.05
4710,48.877125,2.280486,86.05,2.62,4,63.39,17 / 22,471021,2020-01-04 11:45:47:271,0.1027,-0.2075,10.2843,-0.0084,-0.0015,9.8066,0.0068,-0.0565,-0.0913,-66.0,-85.12,75.94,146.53,-12.86,0.02
4711,48.877125,2.280486,86.05,2.62,4,63.39,17 / 22,471121,2020-01-04 11:45:47:371,-0.4621,0.3223,9.6761,0.0013,0.0023,9.8066,0.0124,-0.0085,-0.0907,-71.37,-86.75,75.88,145.04,-12.87,-0.09
4712,48.877125,2.280486,86.05,2.62,4,63.39,17 / 22,471221,2020-01-04 11:45:47:471,-0.4699,0.4598,10.2259,0.0,-0.0068,9.8065,0.0117,-0.0304,-0.0965,-62.31,-85.75,73.19,148.19,-12.95,-0.1
4713,48.877125,2.280486,86.05,2.62,4,63.39,17 / 22,471321,2020-01-04 11:45:47:571,-0.728,-0.1395,10.2309,0.0019,0.0052,9.8066,-0.0305,-0.0238,-0.095,-62.94,-84.87,74.88,147.62,-12.95,-0.13
4714,48.877125,2.280486,86.05,2.62,4,63.39,17 / 22,471421,2020-01-04 11:45:47:671,-0.766,0.2098,9.2832,0.0023,0.0074,9.8066,-0.0162,0.003,-0.0958,-72.94,-86.0,76.63,144.1,-12.85,-0.06
4715,48.877125,2.280486,86.05,2.62,4,63.39,17 / 21,471521,2020-01-04 11:45:47:771,-1.2361,0.6723,10.0299,0.006,0.0132,9.8065,-0.0146,-0.0168,-0.0954,-67.0,-86.5,73.63,146.24,-12.75,0.01
4716,48.877125,2.280486,86.05,2.62,4,63.39,17 / 21,471621,2020-01-04 11:45:47:871,-0.7593,0.8228,9.5759,-0.0006,-0.0004,9.8066,-0.0149,-0.045,-0.0802,-60.81,-85.62,74.19,148.72,-12.68,0.12
4717,48.877125,2.280486,86.05,2.62,4,63.39,17 / 21,471721,2020-01-04 11:45:47:971,-1.1184,1.2158,10.0968,-0.0024,-0.0002,9.8066,-0.008,-0.0299,-0.0831,-70.44,-86.31,76.63,145.29,-12.69,0.1
4718,48.877125,2.280486,86.05,2.62,4,63.39,17 / 21,471821,2020-01-04 11:45:48:071,-1.2527,0.7251,9.6849,-0.0111,-0.0013,9.8066,0.0303,-0.04,-0.0786,-71.62,-87.31,75.94,144.67,-12.64,0.02
4719,48.877125,2.280486,86.05,2.62,4,63.39,17 / 21,471921,2020-01-04 11:45:48:171,-1.0981,1.0773,10.4048,-0.0104,-0.0129,9.8066,0.0079,-0.0491,-0.0772,-62.94,-86.06,74.06,147.8,-12.73,-0.07
4720,48.877125,2.280486,86.05,2.62,4,63.39,17 / 21,472021,2020-01-04 11:45:48:271,-1.8742,0.5382,9.9271,0.0017,-0.0088,9.8066,0.0215,-0.034,-0.0889,-64.62,-86.62,75.31,147.21,-12.83,-0.25
4721,48.877125,2.280486,86.05,2.62,4,63.39,17 / 21,472121,2020-01-04 11:45:48:371,-1.8036,0.9178,10.3525,0.0054,0.0018,9.8066,0.0161,-0.0091,-0.0967,-72.31,-87.75,76.75,144.86,-12.89,-0.3
4722,48.877125,2.280486,86.05,2.62,4,63.39,17 / 21,472221,2020-01-04 11:45:48:471,-0.7391,0.8505,9.6481,0.0021,0.0041,9.8066,0.0104,0.0044,-0.0911,-71.69,-87.94,75.19,144.82,-12.94,-0.2
4723,48.877125,2.280486,86.05,2.62,4,63.39,17 / 21,472321,2020-01-04 11:45:48:571,-0.4812,0.2122,9.9302,-0.003,-0.0074,9.8066,0.011,-0.0247,-0.0866,-60.69,-87.06,74.38,148.88,-12.96,-0.15
4724,48.87728,2.280953,86.19,5.28,4,76.74,15 / 20,472421,2020-01-04 11:45:48:671,-0.6972,0.1055,10.556,-0.003,-0.0097,9.8066,0.0059,-0.0272,-0.0781,-61.81,-87.44,75.0,148.51,-13.01,-0.19
4725,48.87728,2.280953,86.19,5.28,4,76.74,15 / 20,472521,2020-01-04 11:45:48:771,-0.5381,-0.1133,10.4988,-0.0015,-0.0104,9.8066,0.0067,-0.0132,-0.086,-72.75,-88.0,76.69,144.55,-13.1,-0.29
4726,48.87728,2.280953,86.19,5.28,4,76.74,15 / 20,472621,2020-01-04 11:45:48:871,-0.3331,-0.3384,9.5807,0.0035,-0.0044,9.8066,0.0182,-0.0229,-0.0844,-71.69,-87.31,75.06,144.56,-13.12,-0.27
4727,48.87728,2.280953,86.19,5.28,4,76.74,15 / 20,472720,2020-01-04 11:45:48:970,-0.6297,0.2385,9.3939,0.0014,-0.004,9.8065,0.0251,-0.0238,-0.0874,-62.0,-86.75,74.88,148.5,-13.17,-0.26
4728,48.87728,2.280953,86.19,5.28,4,76.74,15 / 20,472821,2020-01-04 11:45:49:071,-0.4397,0.0131,10.1354,0.004,-0.0103,9.8066,0.0304,-0.0164,-0.0744,-63.62,-86.75,75.19,147.71,-13.29,-0.28
4729,48.87728,2.280953,86.19,5.28,4,76.74,15 / 20,472921,2020-01-04 11:45:49:171,-0.0117,0.2416,10.0715,0.0033,-0.0071,9.8066,0.0174,-0.0081,-0.0731,-71.44,-86.75,74.69,145.0,-13.45,-0.3
4730,48.87728,2.280953,86.19,5.28,4,76.74,15 / 20,473020,2020-01-04 11:45:49:270,-0.5651,0.1838,10.0558,0.0125,-0.0011,9.8066,0.0116,0.0106,-0.0763,-72.75,-86.81,73.19,144.18,-13.54,-0.26
4731,48.87728,2.280953,86.19,5.28,4,76.74,15 / 20,473121,2020-01-04 11:45:49:371,-0.4297,0.2192,9.7332,0.0047,0.0046,9.8065,0.0022,-0.0132,-0.0648,-61.5,-87.75,71.94,149.18,-13.6,-0.09
4732,48.87728,2.280953,86.19,5.28,4,76.74,15 / 20,473221,2020-01-04 11:45:49:471,-0.5417,0.4033,10.4493,-0.0047,0.0027,9.8066,-0.0071,-0.0252,-0.0602,-62.06,-90.0,71.75,149.28,-13.6,-0.03
4733,48.87728,2.280953,86.19,5.28,4,76.74,15 / 20,473321,2020-01-04 11:45:49:571,-0.0137,0.3197,10.0868,-0.0085,0.0042,9.8066,-0.0328,-0.0372,-0.0468,-69.69,-91.62,73.25,146.63,-13.5,-0.1
4734,48.87728,2.280953,86.19,5.28,4,76.74,15 / 20,473421,2020-01-04 11:45:49:671,-0.3397,0.776,10.2246,-0.006,0.0047,9.8066,-0.0209,0.0128,-0.0479,-72.81,-91.94,73.88,145.5,-13.37,-0.19
4735,48.87728,2.280953,86.19,5.28,4,76.74,15 / 21,473522,2020-01-04 11:45:49:772,-0.2604,0.5294,9.5602,-0.0085,0.0043,9.8066,0.0021,-0.0198,-0.0398,-62.44,-90.87,74.25,149.45,-13.23,-0.2
4736,48.87728,2.280953,86.19,5.28,4,76.74,15 / 21,473621,2020-01-04 11:45:49:871,-0.308,0.587,9.7754,0.0013,0.0073,9.8066,0.0016,0.0085,-0.044,-61.12,-90.81,75.19,149.85,-13.17,-0.27
4737,48.87728,2.280953,86.19,5.28,4,76.74,15 / 21,473721,2020-01-04 11:45:49:971,-0.6841,0.5468,9.8998,0.0004,-0.0033,9.8066,0.0086,-0.0079,-0.0412,-67.37,-90.62,75.94,147.55,-13.12,-0.21
4738,48.87728,2.280953,86.19,5.28,4,76.74,15 / 21,473821,2020-01-04 11:45:50:071,-0.5262,0.6275,9.382,-0.0008,-0.0031,9.8066,0.0116,-0.0111,-0.0402,-73.69,-90.19,75.19,144.63,-13.19,-0.23
4739,48.87728,2.280953,86.19,5.28,4,76.74,15 / 21,473921,2020-01-04 11:45:50:171,-0.6313,-0.0866,9.7542,0.0016,0.0028,9.8066,0.0003,-0.0436,-0.0397,-67.5,-89.62,74.94,147.28,-13.21,-0.21
4740,48.87728,2.280953,86.19,5.28,4,76.74,15 / 21,474021,2020-01-04 11:45:50:271,-0.6797,0.6663,10.5423,0.0059,0.0031,9.8066,-0.0074,0.0145,-0.0404,-61.19,-89.12,76.69,149.49,-13.23,-0.29
4741,48.87728,2.280953,86.19,5.28,4,76.74,15 / 21,474121,2020-01-04 11:45:50:371,0.2106,0.5146,9.3249,-0.0057,0.001,9.8066,-0.0098,-0.0117,-0.0363,-67.0,-89.37,76.38,147.08,-13.2,-0.22
4742,48.87728,2.280953,86.19,5.28,4,76.74,15 / 21,474221,2020-01-04 11:45:50:471,-0.6798,0.2157,10.6614,0.0065,0.0071,9.8066,0.008,0.0144,-0.0409,-74.0,-88.37,76.0,144.17,-13.15,-0.23
4743,48.87728,2.280953,86.19,5.28,4,76.74,15 / 21,474321,2020-01-04 11:45:50:571,-0.3535,0.1301,9.7724,0.0029,0.0065,9.8066,0.0014,0.006,-0.0405,-73.87,-88.19,74.56,144.17,-13.15,-0.13
4744,48.87728,2.280953,86.19,5.28,4,76.74,15 / 21,474421,2020-01-04 11:45:50:671,-0.1959,0.1844,9.6673,-0.0027,-0.0004,9.8066,-0.0171,-0.0353,-0.0316,-63.37,-87.56,75.5,148.51,-13.11,-0.04
4745,48.87728,2.280953,86.19,5.28,4,76.74,17 / 21,474521,2020-01-04 11:45:50:771,-0.5208,0.6612,9.5352,-0.0008,-0.0027,9.8066,-0.0002,-0.0282,-0.0315,-62.87,-87.56,75.31,148.42,-13.09,-0.1
4746,48.87728,2.280953,86.19,5.28,4,76.74,17 / 21,474621,2020-01-04 11:45:50:871,-1.0544,0.7549,9.7069,-0.0014,0.003,9.8066,-0.0114,-0.0127,-0.0431,-70.31,-87.62,73.56,145.59,-13.09,-0.13
4747,48.87728,2.280953,86.19,5.28,4,76.74,17 / 21,474720,2020-01-04 11:45:50:970,-1.0977,1.097,10.309,-0.0032,0.0013,9.8066,-0.0098,-0.0287,-0.0449,-76.69,-86.37,71.38,142.27,-13.04,-0.14
4748,48.87728,2.280953,86.19,5.28,4,76.74,17 / 21,474821,2020-01-04 11:45:51:071,-0.9272,1.1218,10.1496,0.0091,-0.0036,9.8065,0.0118,-0.0154,-0.0483,-71.62,-87.12,69.63,144.33,-13.05,-0.13
4749,48.87728,2.280953,86.19,5.28,4,76.74,17 / 21,474921,2020-01-04 11:45:51:171,-1.0537,1.1121,10.9676,-0.0077,-0.0081,9.8066,0.0155,-0.0255,-0.0432,-63.69,-88.75,70.19,147.98,-13.12,-0.11
4750,48.87728,2.280953,86.19,5.28,4,76.74,17 / 21,475021,2020-01-04 11:45:51:271,-0.9298,0.7591,10.7018,-0.0054,0.0027,9.8066,0.0194,-0.0149,-0.0481,-64.37,-91.5,69.0,148.37,-13.14,-0.17
4751,48.87728,2.280953,86.19,5.28,4,76.74,17 / 21,475121,2020-01-04 11:45:51:371,-0.082,-0.002,9.8701,-0.0046,-0.0016,9.8066,0.0123,-0.0287,-0.0421,-69.25,-92.75,69.56,146.95,-13.14,-0.2
4752,48.87728,2.280953,86.19,5.28,4,76.74,17 / 21,475221,2020-01-04 11:45:51:471,-0.5952,0.3438,10.2193,0.0007,-0.0078,9.8066,0.0168,-0.0358,-0.0363,-72.81,-93.62,69.75,145.69,-13.23,-0.25
4753,48.87728,2.280953,86.19,5.28,4,76.74,17 / 21,475321,2020-01-04 11:45:51:571,-0.3174,0.0221,9.7684,0.0003,-0.002,9.8066,0.0047,-0.0093,-0.0404,-68.0,-94.06,70.69,147.6,-13.32,-0.3
4754,48.87728,2.280953,86.19,5.28,4,76.74,17 / 21,475421,2020-01-04 11:45:51:671,-0.5299,0.4989,9.5692,-0.0004,-0.0005,9.8066,-0.0031,-0.0173,-0.0394,-61.12,-94.37,72.69,150.45,-13.32,-0.28
4755,48.87728,2.280953,86.19,5.28,4,76.74,17 / 21,475521,2020-01-04 11:45:51:771,-0.7067,0.6353,10.1731,-0.0002,-0.0049,9.8066,0.0213,0.0075,-0.0433,-62.31,-95.12,74.56,150.36,-13.32,-0.3
4756,48.87728,2.280953,86.19,5.28,4,76.74,17 / 21,475621,2020-01-04 11:45:51:871,-0.0587,0.5381,9.8724,-0.001,0.0005,9.8065,-0.0194,-0.0214,-0.0413,-68.25,-94.75,74.25,147.98,-13.34,-0.33
4757,48.87728,2.280953,86.19,5.28,4,76.74,17 / 21,475720,2020-01-04 11:45:51:970,-0.7326,0.7279,9.6493,-0.0035,0.002,9.8066,0.005,0.002,-0.0423,-73.81,-93.5,73.31,145.21,-13.28,-0.37
4758,48.87728,2.280953,86.19,5.28,4,76.74,17 / 21,475821,2020-01-04 11:45:52:071,-0.6458,0.4501,9.7968,0.0027,0.0024,9.8066,0.0037,-0.0096,-0.0512,-73.06,-93.0,73.19,145.59,-13.29,-0.32
4759,48.87728,2.280953,86.19,5.28,4,76.74,17 / 21,475921,2020-01-04 11:45:52:171,-0.5653,0.9728,10.265,-0.0064,0.0037,9.8066,-0.0149,-0.0086,-0.0516,-64.19,-92.94,73.81,149.03,-13.23,-0.34
4760,48.87728,2.280953,86.19,5.28,4,76.74,17 / 21,476020,2020-01-04 11:45:52:270,-0.5585,0.1156,10.0214,-0.0057,0.0022,9.8066,-0.002,-0.0441,-0.0621,-60.37,-93.06,74.81,150.68,-13.16,-0.32
4761,48.87728,2.280953,86.19,5.28,4,76.74,17 / 21,476121,2020-01-04 11:45:52:371,-0.6099,-0.021,9.5796,-0.0035,-0.0025,9.8066,0.0039,-0.0467,-0.0487,-62.5,-93.5,73.94,149.77,-13.14,-0.41
4762,48.87728,2.280953,86.19,5.28,4,76.74,17 / 21,476221,2020-01-04 11:45:52:471,-0.3267,0.1981,10.0649,0.0004,0.0012,9.8066,0.0054,-0.0082,-0.059,-67.25,-92.69,72.25,147.68,-13.17,-0.47
4763,48.87728,2.280953,86.19,5.28,4,76.74,17 / 21,476321,2020-01-04 11:45:52:571,0.0099,0.3701,10.0498,-0.0082,-0.0018,9.8066,-0.0216,-0.0177,-0.0568,-72.75,-91.94,70.25,145.06,-13.15,-0.5
4764,48.87728,2.280953,86.19,5.28,4,76.74,17 / 21,476421,2020-01-04 11:45:52:671,-0.5018,-0.0454,9.6328,-0.0061,0.0057,9.8066,0.0005,-0.0364,-0.046,-70.0,-91.69,70.06,146.16,-13.07,-0.49
4765,48.87728,2.280953,86.19,5.28,4,76.74,17 / 21,476521,2020-01-04 11:45:52:771,-0.7786,0.6152,10.3539,-0.0092,0.0014,9.8066,-0.0156,-0.0148,-0.0533,-62.25,-93.0,71.88,149.53,-12.96,-0.59
4766,48.87728,2.280953,86.19,5.28,4,76.74,17 / 21,476621,2020-01-04 11:45:52:871,-0.6441,0.9182,10.3214,0.001,0.0076,9.8066,-0.0147,-0.0127,-0.0608,-58.31,-94.62,73.63,151.71,-12.9,-0.52
4767,48.87728,2.280953,86.19,5.28,4,76.74,17 / 21,476721,2020-01-04 11:45:52:971,-0.6776,0.8318,10.0377,0.0053,0.0019,9.8066,0.0133,0.0039,-0.0725,-61.19,-96.62,73.19,150.93,-12.84,-0.43
4768,48.87728,2.280953,86.19,5.28,4,76.74,17 / 21,476821,2020-01-04 11:45:53:071,-0.7423,0.9943,9.7114,0.0157,-0.0015,9.8066,0.0321,0.0194,-0.0736,-65.5,-96.44,73.81,149.27,-12.95,-0.34
4769,48.87728,2.280953,86.19,5.28,4,76.74,17 / 21,476921,2020-01-04 11:45:53:171,-0.9554,0.802,10.121,0.0101,0.0023,9.8066,0.0083,-0.0101,-0.0723,-69.87,-96.0,73.44,147.44,-13.06,-0.18
4770,48.87728,2.280953,86.19,5.28,4,76.74,17 / 21,477021,2020-01-04 11:45:53:271,-0.4105,0.7397,9.559,0.0022,0.0018,9.8066,0.0099,-0.0212,-0.0642,-68.56,-95.69,73.94,147.93,-13.07,-0.05
4771,48.87728,2.280953,86.19,5.28,4,76.74,17 / 21,477121,2020-01-04 11:45:53:371,-0.5543,0.5356,9.0602,-0.0088,-0.0064,9.8066,0.0056,-0.0715,-0.076,-63.69,-95.0,77.0,149.73,-13.09,-0.12
4772,48.87728,2.280953,86.19,5.28,4,76.74,17 / 21,477220,2020-01-04 11:45:53:470,-0.5056,0.8635,9.4211,-0.0098,-0.0114,9.8066,0.0154,-0.0568,-0.0659,-59.81,-95.87,79.63,151.55,-13.12,-0.33
4773,48.87728,2.280953,86.19,5.28,4,76.74,17 / 21,477321,2020-01-04 11:45:53:571,-0.5187,1.0214,10.2283,-0.0163,-0.0151,9.8065,0.0172,-0.0511,-0.0766,-60.87,-95.87,79.44,150.93,-13.21,-0.65
4774,48.87728,2.280953,86.19,5.28,4,76.74,19 / 21,477421,2020-01-04 11:45:53:671,-0.6834,0.4663,9.8853,-0.0034,-0.0084,9.8066,0.0152,-0.0316,-0.0745,-64.06,-95.25,78.81,149.48,-13.27,-0.78
4775,48.87728,2.280953,86.19,5.28,4,76.74,19 / 21,477521,2020-01-04 11:45:53:771,-0.6774,0.0667,9.8416,0.0011,-0.0054,9.8066,0.0297,-0.0273,-0.0853,-68.62,-95.5,77.44,147.47,-13.33,-0.85
4776,48.87728,2.280953,86.19,5.28,4,76.74,19 / 21,477620,2020-01-04 11:45:53:870,-0.4653,0.1426,10.0693,-0.0007,-0.0018,9.8066,0.0081,-0.0202,-0.0874,-72.44,-94.75,75.13,146.29,-13.44,-0.85
4777,48.87728,2.280953,86.19,5.28,4,76.74,19 / 21,477721,2020-01-04 11:45:53:971,-0.2738,0.4103,9.8647,-0.004,0.0043,9.8066,-0.0132,-0.0286,-0.0957,-72.06,-94.06,75.56,146.11,-13.42,-0.84
4778,48.87728,2.280953,86.19,5.28,4,76.74,19 / 21,477820,2020-01-04 11:45:54:070,-0.2916,0.1853,9.693,-0.0021,0.0055,9.8066,-0.0157,-0.0159,-0.0987,-68.06,-93.94,77.94,147.66,-13.35,-0.85
4779,48.87728,2.280953,86.19,5.28,4,76.74,19 / 21,477920,2020-01-04 11:45:54:170,-0.375,0.2903,9.6588,-0.0041,0.0075,9.8066,-0.0154,-0.013,-0.0977,-63.06,-95.0,80.75,149.92,-13.21,-0.83
4780,48.87728,2.280953,86.19,5.28,4,76.74,19 / 21,478021,2020-01-04 11:45:54:271,-0.2778,0.1512,9.7486,-0.0009,0.0047,9.8066,-0.0198,-0.0474,-0.0955,-61.69,-95.62,81.06,150.53,-13.14,-0.79
4781,48.87728,2.280953,86.19,5.28,4,76.74,19 / 21,478121,2020-01-04 11:45:54:371,-0.1735,0.1882,9.935,-0.0062,0.0028,9.8066,-0.008,-0.0463,-0.1003,-63.87,-95.81,79.75,149.68,-13.06,-0.81
4782,48.87728,2.280953,86.19,5.28,4,76.74,19 / 21,478221,2020-01-04 11:45:54:471,-0.5398,0.0053,10.2911,-0.0088,-0.0071,9.8066,0.0033,-0.0477,-0.1028,-68.0,-95.62,77.06,147.96,-12.98,-0.92
4783,48.87728,2.280953,86.19,5.28,4,76.74,19 / 21,478321,2020-01-04 11:45:54:571,-0.6028,0.3371,10.1558,-0.0147,-0.0062,9.8066,0.0026,-0.0422,-0.1081,-70.87,-95.0,75.38,146.4,-12.97,-1.14
4784,48.87728,2.280953,86.19,5.28,4,76.74,19 / 21,478421,2020-01-04 11:45:54:671,-0.3601,0.1326,9.6027,-0.0027,0.0053,9.8066,-0.0139,-0.0268,-0.114,-72.44,-94.31,73.69,145.7,-12.91,-1.21
4785,48.87728,2.280953,86.19,5.28,4,76.74,18 / 22,478521,2020-01-04 11:45:54:771,-0.3575,0.5708,10.2359,-0.0146,0.0029,9.8066,-0.0203,-0.0377,-0.1169,-69.69,-94.69,75.5,146.68,-12.77,-1.3
4786,48.87728,2.280953,86.19,5.28,4,76.74,18 / 22,478621,2020-01-04 11:45:54:871,-0.7092,0.1757,9.8431,-0.0206,0.0013,9.8065,-0.0205,-0.0666,-0.1285,-65.75,-95.56,78.31,148.41,-12.66,-1.41
4787,48.87728,2.280953,86.19,5.28,4,76.74,18 / 22,478721,2020-01-04 11:45:54:971,-0.7251,0.1407,9.8817,-0.0214,0.001,9.8066,-0.0253,-0.0583,-0.1314,-63.87,-95.81,80.19,149.11,-12.54,-1.6
4788,48.87728,2.280953,86.19,5.28,4,76.74,18 / 22,478822,2020-01-04 11:45:55:072,-0.6234,0.0267,9.9543,0.0055,-0.002,9.8066,0.0141,-0.0218,-0.1512,-64.06,-96.75,81.25,149.23,-12.4,-1.79
4789,48.87728,2.280953,86.19,5.28,4,76.74,18 / 22,478920,2020-01-04 11:45:55:170,-0.5272,0.306,10.2855,0.0022,-0.0011,9.8066,0.0187,-0.0194,-0.1555,-65.19,-97.44,79.81,148.86,-12.47,-1.74
4790,48.87728,2.280953,86.19,5.28,4,76.74,18 / 22,479020,2020-01-04 11:45:55:270,-0.1576,-0.0667,9.1249,0.0091,0.0037,9.8066,0.0007,-0.0139,-0.1449,-67.62,-97.06,77.5,147.72,-12.53,-1.66
4791,48.87728,2.280953,86.19,5.28,4,76.74,18 / 22,479120,2020-01-04 11:45:55:370,-0.1604,0.5777,10.1835,-0.0023,-0.0031,9.8066,0.0087,-0.0354,-0.1404,-70.37,-96.25,73.75,146.62,-12.54,-1.61
4792,48.87728,2.280953,86.19,5.28,4,76.74,18 / 22,479220,2020-01-04 11:45:55:470,-0.6821,-0.4215,9.8045,-0.002,-0.0012,9.8066,0.0024,-0.0566,-0.1449,-70.5,-95.12,72.56,146.33,-12.57,-1.64
4793,48.87728,2.280953,86.19,5.28,4,76.74,18 / 22,479321,2020-01-04 11:45:55:571,-0.5559,0.0566,9.4279,-0.0079,-0.0072,9.8066,0.0094,-0.0454,-0.1421,-68.44,-95.25,73.19,147.03,-12.57,-1.71
4794,48.87728,2.280953,86.19,5.28,4,76.74,18 / 22,479421,2020-01-04 11:45:55:671,-0.5943,-0.0119,9.7795,-0.0021,0.0003,9.8066,0.0015,-0.0175,-0.1567,-65.44,-96.81,77.44,148.72,-12.57,-1.82
4795,48.87728,2.280953,86.19,5.28,4,76.74,18 / 20,479521,2020-01-04 11:45:55:771,-0.3435,0.2883,10.1118,0.0008,0.0025,9.8066,0.0026,-0.0548,-0.1513,-63.94,-98.0,79.94,149.45,-12.55,-1.78
4796,48.87728,2.280953,86.19,5.28,4,76.74,18 / 20,479621,2020-01-04 11:45:55:871,-0.4573,0.1522,9.905,-0.0053,-0.0088,9.8066,0.0142,-0.0459,-0.1681,-63.75,-99.56,80.06,149.82,-12.58,-1.9
4797,48.87728,2.280953,86.19,5.28,4,76.74,18 / 20,479720,2020-01-04 11:45:55:970,-0.3408,-0.1018,9.7565,0.0009,-0.0021,9.8066,-0.0082,-0.0543,-0.1764,-65.25,-100.87,78.19,149.56,-12.64,-1.97
4798,48.87728,2.280953,86.19,5.28,4,76.74,18 / 20,479821,2020-01-04 11:45:56:071,-0.3916,-0.0943,9.6211,-0.0009,-0.0009,9.8066,-0.0039,-0.0293,-0.187,-66.56,-101.69,75.25,148.91,-12.64,-2.02
4799,48.87728,2.280953,86.19,5.28,4,76.74,18 / 20,479921,2020-01-04 11:45:56:171,-0.6659,0.3576,9.7311,0.0126,-0.0008,9.8066,0.0081,-0.0082,-0.1796,-68.56,-101.37,72.75,147.9,-12.65,-2.0
4800,48.87728,2.280953,86.19,5.28,4,76.74,18 / 20,480021,2020-01-04 11:45:56:271,-0.3278,0.1856,9.9757,-0.0019,0.0004,9.8066,-0.0023,-0.0438,-0.1803,-68.12,-100.44,69.94,148.01,-12.73,-1.87
4801,48.87728,2.280953,86.19,5.28,4,76.74,18 / 20,480121,2020-01-04 11:45:56:371,-0.6649,0.2988,9.647,0.0041,-0.0005,9.8066,0.0006,-0.0309,-0.1767,-66.56,-102.0,70.94,148.87,-12.75,-1.85
4802,48.87728,2.280953,86.19,5.28,4,76.74,18 / 20,480221,2020-01-04 11:45:56:471,-0.9603,0.8811,9.9188,-0.0034,-0.0007,9.8066,-0.0123,-0.067,-0.1664,-66.19,-102.37,74.38,149.37,-12.77,-1.81
4803,48.87728,2.280953,86.19,5.28,4,76.74,18 / 20,480321,2020-01-04 11:45:56:571,-0.7884,0.8887,9.8801,-0.017,-0.002,9.8066,-0.0286,-0.0829,-0.1601,-67.19,-104.56,79.06,149.69,-12.7,-2.01
4804,48.87728,2.280953,86.19,5.28,4,76.74,18 / 20,480420,2020-01-04 11:45:56:670,-1.1301,0.9142,9.984,-0.0147,0.0012,9.8066,-0.011,-0.039,-0.1669,-68.06,-105.94,81.63,149.49,-12.58,-2.24
4805,48.87728,2.280953,86.19,5.28,4,76.74,18 / 20,480520,2020-01-04 11:45:56:770,-1.1097,1.0226,9.5973,0.0062,0.0019,9.8065,0.0019,-0.0055,-0.1778,-69.12,-106.94,82.13,149.3,-12.51,-2.29
4806,48.87728,2.280953,86.19,5.28,4,76.74,18 / 20,480621,2020-01-04 11:45:56:871,-0.7067,0.8023,9.7523,0.0113,0.0009,9.8066,0.0212,-0.0016,-0.1479,-70.19,-107.5,81.38,148.98,-12.55,-2.18
4807,48.87728,2.280953,86.19,5.28,4,76.74,18 / 20,480720,2020-01-04 11:45:56:970,-0.4049,0.2873,10.4875,0.0246,-0.003,9.8066,0.0413,0.0266,-0.1552,-69.69,-106.81,79.81,149.09,-12.69,-1.96
4808,48.87728,2.280953,86.19,5.28,4,76.74,18 / 20,480821,2020-01-04 11:45:57:071,-0.4257,0.1095,9.8661,-0.0018,-0.0097,9.8066,0.0157,-0.0583,-0.143,-69.06,-106.25,77.19,149.21,-12.85,-1.88
4809,48.87728,2.280953,86.19,5.28,4,76.74,18 / 20,480921,2020-01-04 11:45:57:171,-0.1632,0.0154,9.4521,0.0009,-0.0037,9.8066,0.0084,-0.0278,-0.131,-68.31,-104.87,76.13,149.3,-12.93,-1.95
4810,48.87728,2.280953,86.19,5.28,4,76.74,18 / 20,481021,2020-01-04 11:45:57:271,-0.3478,0.3683,9.788,-0.0052,-0.0014,9.8066,0.0099,-0.027,-0.1245,-65.87,-104.0,74.5,149.76,-12.95,-2.01
4811,48.87728,2.280953,86.19,5.28,4,76.74,18 / 20,481120,2020-01-04 11:45:57:370,-0.3856,0.3367,9.9496,0.0027,-0.0017,9.8066,0.0093,-0.0315,-0.131,-64.25,-103.87,75.94,150.54,-12.99,-1.99
4812,48.87728,2.280953,86.19,5.28,4,76.74,18 / 20,481220,2020-01-04 11:45:57:470,-0.381,0.059,9.8104,-0.0002,-0.0019,9.8066,0.0127,-0.0149,-0.1211,-64.37,-103.81,78.0,150.62,-13.03,-1.98
4813,48.87728,2.280953,86.19,5.28,4,76.74,18 / 20,481321,2020-01-04 11:45:57:571,-0.2972,0.4245,9.7728,0.0037,0.0004,9.8066,0.0089,-0.0215,-0.1071,-64.81,-104.87,80.5,150.61,-13.09,-1.91
4814,48.87728,2.280953,86.19,5.28,4,76.74,18 / 20,481421,2020-01-04 11:45:57:671,-0.1397,0.2795,9.9562,0.0014,0.0006,9.8066,0.0,-0.0177,-0.1054,-66.87,-105.31,82.5,149.98,-13.12,-1.88
4815,48.87729,2.281316,86.42,1.68,4,123.94,20 / 21,481521,2020-01-04 11:45:57:771,-0.46,0.0804,9.9402,-0.0057,-0.0021,9.8066,0.0042,-0.0211,-0.0972,-67.87,-105.87,84.25,149.86,-13.12,-1.87
4816,48.87729,2.281316,86.42,1.68,4,123.94,20 / 21,481621,2020-01-04 11:45:57:871,-0.4492,0.3147,10.0538,0.0011,-0.0014,9.8066,0.0142,-0.0245,-0.0909,-69.0,-107.19,85.5,149.76,-13.13,-1.9
4817,48.87729,2.281316,86.42,1.68,4,123.94,20 / 21,481721,2020-01-04 11:45:57:971,-0.3119,0.4328,10.0872,-0.0041,-0.0056,9.8066,0.0096,-0.0177,-0.0842,-68.75,-107.0,84.5,149.72,-13.16,-1.92
4818,48.87729,2.281316,86.42,1.68,4,123.94,20 / 21,481821,2020-01-04 11:45:58:071,-0.1387,0.2053,10.2154,-0.0003,0.0007,9.8066,0.0143,-0.0206,-0.0846,-68.69,-107.56,83.75,149.87,-13.19,-1.95
4819,48.87729,2.281316,86.42,1.68,4,123.94,20 / 21,481921,2020-01-04 11:45:58:171,-0.3091,0.1041,9.4049,0.002,-0.0023,9.8066,0.0061,-0.0265,-0.0818,-67.62,-107.0,80.88,149.94,-13.23,-1.94
4820,48.87729,2.281316,86.42,1.68,4,123.94,20 / 21,482020,2020-01-04 11:45:58:270,-0.34,0.2836,9.9531,0.0025,-0.0021,9.8066,0.0079,-0.0146,-0.0799,-65.44,-105.87,78.88,150.74,-13.26,-1.95
4821,48.87729,2.281316,86.42,1.68,4,123.94,20 / 21,482121,2020-01-04 11:45:58:371,-0.6135,0.2529,10.2209,-0.0054,-0.0004,9.8066,0.0022,-0.0023,-0.0812,-63.69,-105.0,76.88,150.83,-13.25,-1.97
4822,48.87729,2.281316,86.42,1.68,4,123.94,20 / 21,482220,2020-01-04 11:45:58:470,-0.1954,0.497,10.1636,0.0029,-0.0036,9.8066,0.0107,-0.0354,-0.0805,-60.62,-104.12,76.94,151.75,-13.27,-1.98
4823,48.87729,2.281316,86.42,1.68,4,123.94,20 / 21,482321,2020-01-04 11:45:58:571,-0.4815,0.0487,10.3516,-0.004,-0.0057,9.8066,-0.0031,-0.0212,-0.0764,-59.44,-104.12,77.75,152.52,-13.31,-2.04
4824,48.87729,2.281316,86.42,1.68,4,123.94,20 / 21,482420,2020-01-04 11:45:58:670,-0.5487,0.1872,10.2238,-0.0015,0.0012,9.8065,-0.0069,-0.0338,-0.0666,-59.75,-104.31,78.69,152.13,-13.32,-2.1
4825,48.87729,2.281316,86.42,1.68,4,123.94,17 / 19,482520,2020-01-04 11:45:58:770,-0.2659,0.3834,10.186,-0.0015,0.0015,9.8066,0.0015,-0.0234,-0.0804,-62.06,-104.12,80.88,151.45,-13.29,-2.1
4826,48.87729,2.281316,86.42,1.68,4,123.94,17 / 19,482621,2020-01-04 11:45:58:871,-0.2431,0.1437,9.8856,-0.0001,0.0021,9.8066,-0.0037,-0.0131,-0.0705,-64.0,-104.62,82.38,150.94,-13.26,-2.08
4827,48.87729,2.281316,86.42,1.68,4,123.94,17 / 19,482720,2020-01-04 11:45:58:970,-0.0101,0.1108,9.8887,0.0038,0.0003,9.8066,0.0051,-0.0031,-0.0734,-65.81,-105.25,83.94,150.3,-13.25,-2.04
4828,48.87729,2.281316,86.42,1.68,4,123.94,17 / 19,482821,2020-01-04 11:45:59:071,-0.1832,0.29,9.3188,-0.0041,0.0003,9.8065,0.0041,-0.025,-0.0634,-67.56,-106.44,84.56,149.83,-13.25,-2.03
4829,48.87729,2.281316,86.42,1.68,4,123.94,17 / 19,482921,2020-01-04 11:45:59:171,-0.1955,0.1073,10.2531,-0.0012,-0.0006,9.8066,-0.0114,-0.0071,-0.0603,-68.62,-107.12,84.56,149.63,-13.23,-2.11
4830,48.87729,2.281316,86.42,1.68,4,123.94,17 / 19,483021,2020-01-04 11:45:59:271,-0.2942,0.4524,9.5671,-0.0006,0.0011,9.8065,-0.008,-0.0156,-0.0626,-67.87,-106.94,83.19,149.91,-13.21,-2.11
4831,48.87729,2.281316,86.42,1.68,4,123.94,17 / 19,483121,2020-01-04 11:45:59:371,0.0433,0.0132,9.5092,-0.0021,0.0026,9.8066,0.0002,-0.0294,-0.0582,-65.81,-106.31,81.0,150.32,-13.16,-2.15
4832,48.87729,2.281316,86.42,1.68,4,123.94,17 / 19,483221,2020-01-04 11:45:59:471,-0.0759,0.1592,9.5588,-0.0022,-0.002,9.8066,0.0043,-0.0236,-0.0501,-64.06,-105.81,79.19,150.95,-13.15,-2.21
4833,48.87729,2.281316,86.42,1.68,4,123.94,17 / 19,483321,2020-01-04 11:45:59:571,-0.1754,0.1308,10.0421,-0.0013,0.0014,9.8066,-0.0098,-0.0197,-0.049,-61.62,-105.31,77.25,151.4,-13.15,-2.27
4834,48.87729,2.281316,86.42,1.68,4,123.94,19 / 20,483421,2020-01-04 11:45:59:671,-0.328,0.2126,9.936,-0.0021,0.0013,9.8066,-0.0049,0.0001,-0.0475,-58.5,-104.69,76.94,152.89,-13.11,-2.29
4835,48.87729,2.281316,86.42,1.68,4,123.94,19 / 20,483521,2020-01-04 11:45:59:771,-0.3082,0.2101,9.9794,-0.0002,0.0037,9.8065,-0.0006,0.0018,-0.0469,-57.12,-104.0,77.0,153.09,-13.09,-2.26
4836,48.87729,2.281316,86.42,1.68,4,123.94,19 / 20,483621,2020-01-04 11:45:59:871,-0.0842,0.2228,9.8571,-0.0024,0.0011,9.8066,-0.0074,-0.0181,-0.0403,-57.37,-104.25,78.25,153.13,-13.06,-2.24
4837,48.87729,2.281316,86.42,1.68,4,123.94,19 / 20,483721,2020-01-04 11:45:59:971,-0.0501,0.2876,9.9678,-0.0011,0.0011,9.8066,-0.0034,-0.0038,-0.0289,-58.44,-104.37,79.19,152.75,-13.02,-2.27
4838,48.87729,2.281316,86.42,1.68,4,123.94,19 / 20,483820,2020-01-04 11:46:00:070,0.0324,0.0941,9.5847,-0.0041,0.0024,9.8066,-0.0016,-0.0154,-0.0176,-59.94,-104.44,80.56,152.03,-12.98,-2.29
4839,48.87729,2.281316,86.42,1.68,4,123.94,19 / 20,483921,2020-01-04 11:46:00:171,0.2726,0.195,9.309,-0.0029,-0.0023,9.8066,0.0038,-0.0256,-0.0135,-63.69,-105.62,82.06,150.96,-12.99,-2.31
4840,48.87729,2.281316,86.42,1.68,4,123.94,19 / 20,484021,2020-01-04 11:46:00:271,-0.153,0.0955,9.8957,-0.0064,0.0002,9.8066,-0.0013,-0.0199,-0.0151,-66.56,-106.44,82.94,149.85,-12.98,-2.41
4841,48.87729,2.281316,86.42,1.68,4,123.94,19 / 20,484121,2020-01-04 11:46:00:371,-0.1051,0.2296,9.3009,-0.0099,-0.0017,9.8066,0.0021,-0.0059,0.0011,-67.87,-106.25,84.0,149.5,-12.94,-2.45
4842,48.87729,2.281316,86.42,1.68,4,123.94,19 / 20,484221,2020-01-04 11:46:00:471,-0.0903,0.2409,9.9381,-0.0054,-0.0018,9.8066,0.006,-0.0047,-0.0094,-68.25,-106.87,83.88,149.66,-12.92,-2.52
4843,48.87729,2.281316,86.42,1.68,4,123.94,19 / 20,484321,2020-01-04 11:46:00:571,-0.0693,0.2309,10.128,-0.0058,0.0011,9.8066,-0.0043,-0.002,-0.0081,-67.69,-107.19,83.0,149.59,-12.93,-2.6
4844,48.87729,2.281316,86.42,1.68,4,123.94,19 / 20,484421,2020-01-04 11:46:00:671,-0.0658,0.163,9.5297,-0.0024,0.0048,9.8066,-0.0034,0.0046,-0.0068,-66.94,-107.69,81.19,150.04,-12.85,-2.64
4845,48.87729,2.281316,86.42,1.68,4,123.94,19 / 21,484521,2020-01-04 11:46:00:771,0.0637,0.3668,10.0282,-0.002,-0.0024,9.8066,0.0056,-0.0228,-0.0045,-65.12,-106.94,78.94,150.5,-12.82,-2.63
4846,48.87729,2.281316,86.42,1.68,4,123.94,19 / 21,484621,2020-01-04 11:46:00:871,-0.175,0.1591,10.1125,-0.0034,-0.0017,9.8066,0.0083,-0.0096,-0.0105,-61.75,-106.06,77.5,151.34,-12.83,-2.7
4847,48.87729,2.281316,86.42,1.68,4,123.94,19 / 21,484720,2020-01-04 11:46:00:970,0.1034,0.0655,9.5916,-0.0019,-0.001,9.8065,0.008,-0.0044,-0.0088,-60.0,-106.25,76.69,152.06,-12.85,-2.7
4848,48.87729,2.281316,86.42,1.68,4,123.94,19 / 21,484821,2020-01-04 11:46:01:071,-0.0719,0.4966,10.2229,-0.0027,0.0008,9.8065,-0.0021,0.0007,-0.009,-58.12,-105.37,76.94,152.61,-12.85,-2.72
4849,48.87729,2.281316,86.42,1.68,4,123.94,19 / 21,484921,2020-01-04 11:46:01:171,0.0649,0.1583,9.9902,-0.0032,-0.0015,9.8066,0.0021,-0.0103,-0.0077,-57.12,-105.31,77.81,153.02,-12.82,-2.7
4850,48.87729,2.281316,86.42,1.68,4,123.94,19 / 21,485020,2020-01-04 11:46:01:270,-0.0298,0.1891,9.8195,-0.0025,0.0016,9.8066,0.006,-0.0057,-0.0084,-58.06,-105.0,78.56,152.63,-12.8,-2.75
4851,48.87729,2.281316,86.42,1.68,4,123.94,19 / 21,485121,2020-01-04 11:46:01:371,-0.1889,0.4578,10.2956,-0.0022,-0.0025,9.8066,0.0064,-0.0021,-0.0042,-59.56,-105.25,79.44,151.9,-12.79,-2.72
4852,48.87729,2.281316,86.42,1.68,4,123.94,19 / 21,485221,2020-01-04 11:46:01:471,-0.0655,0.2382,9.733,-0.0039,0.0007,9.8066,0.0038,0.0021,-0.0086,-62.87,-105.69,81.0,151.0,-12.78,-2.77
4853,48.87729,2.281316,86.42,1.68,4,123.94,19 / 21,485321,2020-01-04 11:46:01:571,0.0231,0.3537,10.1716,0.0012,0.0015,9.8065,-0.0089,0.0028,-0.0052,-65.12,-106.19,82.0,150.32,-12.77,-2.73
4854,48.87729,2.281316,86.42,1.68,4,123.94,20 / 21,485421,2020-01-04 11:46:01:671,0.1264,0.3193,9.5435,0.0033,0.0024,9.8066,-0.0003,-0.0046,-0.0069,-67.06,-107.37,83.63,149.87,-12.74,-2.72
4855,48.87729,2.281316,86.42,1.68,4,123.94,20 / 21,485522,2020-01-04 11:46:01:772,-0.1358,0.291,10.1895,-0.0002,0.002,9.8066,-0.0053,0.007,-0.0001,-68.94,-107.94,84.06,149.37,-12.73,-2.71
4856,48.87729,2.281316,86.42,1.68,4,123.94,20 / 21,485621,2020-01-04 11:46:01:871,-0.105,0.2032,9.7622,-0.0014,-0.0005,9.8066,0.0016,-0.0088,0.0024,-68.31,-108.44,83.38,149.69,-12.7,-2.71
4857,48.87729,2.281316,86.42,1.68,4,123.94,20 / 21,485721,2020-01-04 11:46:01:971,-0.0257,0.3416,9.8913,-0.0044,0.0,9.8066,-0.0116,-0.0063,0.0023,-68.87,-108.37,82.88,149.32,-12.67,-2.74
4858,48.87729,2.281316,86.42,1.68,4,123.94,20 / 21,485821,2020-01-04 11:46:02:071,-0.1966,0.4332,9.8838,0.0004,0.0024,9.8066,-0.0035,0.0026,-0.0048,-67.0,-108.25,81.5,149.96,-12.63,-2.76
4859,48.87729,2.281316,86.42,1.68,4,123.94,20 / 21,485920,2020-01-04 11:46:02:170,-0.018,0.3936,10.0543,0.0041,0.0021,9.8066,0.0034,0.0012,0.0076,-65.44,-107.75,79.94,150.61,-12.6,-2.77
4860,48.87729,2.281316,86.42,1.68,4,123.94,20 / 21,486021,2020-01-04 11:46:02:271,-0.072,0.2615,9.3859,0.0011,-0.0035,9.8066,0.0079,-0.0005,0.0035,-63.5,-107.06,77.75,151.1,-12.6,-2.75
4861,48.87729,2.281316,86.42,1.68,4,123.94,20 / 21,486121,2020-01-04 11:46:02:371,-0.1218,0.3445,9.6022,-0.0004,0.0008,9.8066,-0.0014,-0.0008,0.0095,-61.25,-106.5,76.94,151.62,-12.62,-2.75
4862,48.87729,2.281316,86.42,1.68,4,123.94,20 / 21,486220,2020-01-04 11:46:02:470,-0.2807,0.6994,9.9088,0.0,-0.0004,9.8066,0.0009,-0.002,0.0063,-59.37,-106.44,76.88,152.37,-12.6,-2.74
4863,48.87729,2.281316,86.42,1.68,4,123.94,20 / 21,486321,2020-01-04 11:46:02:571,-0.3365,0.7655,9.7951,-0.005,-0.0001,9.8066,-0.0037,-0.0018,0.0002,-58.31,-106.0,77.38,152.73,-12.57,-2.77
4864,48.87729,2.281316,86.42,1.68,4,123.94,18 / 22,486422,2020-01-04 11:46:02:672,-0.5021,1.0891,9.8545,-0.0019,0.0011,9.8066,0.0046,-0.0063,0.0025,-58.87,-105.69,77.69,152.34,-12.52,-2.81
4865,48.87729,2.281316,86.42,1.68,4,123.94,18 / 22,486521,2020-01-04 11:46:02:771,-0.3885,1.0625,9.9095,-0.004,-0.0015,9.8066,-0.0012,-0.0228,0.0042,-58.75,-105.44,79.13,152.15,-12.5,-2.85
4866,48.87729,2.281316,86.42,1.68,4,123.94,18 / 22,486620,2020-01-04 11:46:02:870,-0.4302,1.123,9.8579,-0.0037,-0.0026,9.8066,0.0059,-0.0043,0.0003,-60.19,-105.5,79.88,151.76,-12.49,-2.92
4867,48.87729,2.281316,86.42,1.68,4,123.94,18 / 22,486721,2020-01-04 11:46:02:971,-0.2972,0.8951,9.5727,-0.0078,-0.0003,9.8065,0.0001,-0.0101,0.0056,-61.5,-105.69,80.94,151.57,-12.49,-2.99
4868,48.87729,2.281316,86.42,1.68,4,123.94,18 / 22,486821,2020-01-04 11:46:03:071,-0.5029,1.0257,9.8607,-0.0032,0.0029,9.8066,-0.0051,0.0022,0.0023,-62.19,-104.87,80.69,150.95,-12.43,-3.05
4869,48.87729,2.281316,86.42,1.68,4,123.94,18 / 22,486920,2020-01-04 11:46:03:170,-0.4343,1.0603,9.8136,0.0013,0.0018,9.8066,-0.0036,0.0149,-0.0009,-63.75,-106.5,81.5,150.44,-12.38,-3.05
4870,48.87729,2.281316,86.42,1.68,4,123.94,18 / 22,487021,2020-01-04 11:46:03:271,-0.5013,1.2476,9.8148,0.0017,0.0036,9.8066,-0.0037,0.005,0.0052,-64.87,-106.44,81.5,150.11,-12.34,-2.98
4871,48.87729,2.281316,86.42,1.68,4,123.94,18 / 22,487121,2020-01-04 11:46:03:371,-0.5759,1.2186,9.9118,-0.0011,0.004,9.8066,-0.0027,0.0023,-0.0005,-65.25,-106.56,81.88,150.3,-12.29,-2.97
4872,48.87729,2.281316,86.42,1.68,4,123.94,18 / 22,487221,2020-01-04 11:46:03:471,-0.6535,1.2886,9.7898,-0.0026,0.003,9.8066,0.0026,-0.0078,0.0023,-65.62,-106.37,82.25,149.74,-12.24,-2.96
4873,48.87729,2.281316,86.42,1.68,4,123.94,18 / 22,487321,2020-01-04 11:46:03:571,-0.5585,1.2349,9.8685,-0.0033,0.0054,9.8066,0.001,-0.0054,-0.0004,-66.19,-106.31,82.44,149.72,-12.15,-2.97
4874,48.87729,2.281316,86.42,1.68,4,123.94,18 / 22,487420,2020-01-04 11:46:03:670,-0.1576,0.2632,10.0083,0.0013,0.004,9.8066,0.0086,0.0068,0.0008,-65.62,-106.5,82.06,149.71,-12.07,-2.95
4875,48.87729,2.281316,86.42,1.68,4,123.94,18 / 22,487520,2020-01-04 11:46:03:770,0.353,-0.2931,9.8245,0.0015,-0.001,9.8066,0.0101,-0.001,-0.0008,-65.44,-107.06,82.5,150.3,-12.08,-2.95
4876,48.87729,2.281316,86.42,1.68,4,123.94,18 / 22,487621,2020-01-04 11:46:03:871,0.1719,-0.1542,9.7752,-0.0001,-0.0014,9.8066,0.0119,-0.0132,-0.0001,-66.31,-106.31,83.0,149.75,-12.1,-2.94
4877,48.87729,2.281316,86.42,1.68,4,123.94,18 / 22,487721,2020-01-04 11:46:03:971,-0.0696,0.296,9.9204,-0.0021,0.0037,9.8066,-0.0048,0.0003,-0.0006,-66.06,-106.81,82.75,149.93,-12.1,-2.97
4878,48.87729,2.281316,86.42,1.68,4,123.94,18 / 22,487820,2020-01-04 11:46:04:070,0.146,0.0473,9.7962,0.0003,0.0047,9.8066,0.0033,0.0051,0.0008,-65.62,-106.87,82.56,149.94,-12.02,-2.93
4879,48.87729,2.281316,86.42,1.68,4,123.94,18 / 22,487921,2020-01-04 11:46:04:171,0.0893,0.0917,9.9904,0.0004,0.0013,9.8066,0.0008,-0.0027,0.0019,-66.12,-106.62,82.94,149.94,-12.01,-2.92
4880,48.87729,2.281316,86.42,1.68,4,123.94,18 / 22,488021,2020-01-04 11:46:04:271,0.0904,0.105,9.8282,-0.0005,0.0029,9.8066,-0.0009,-0.0093,0.0003,-65.62,-106.5,82.88,149.74,-11.99,-2.91
4881,48.87729,2.281316,86.42,1.68,4,123.94,18 / 22,488121,2020-01-04 11:46:04:371,0.0533,0.1271,9.9763,-0.0002,0.0011,9.8066,-0.0004,0.0028,-0.0017,-65.62,-106.62,82.75,149.93,-11.96,-2.92
4882,48.87729,2.281316,86.42,1.68,4,123.94,18 / 22,488221,2020-01-04 11:46:04:471,0.0526,0.0779,9.8365,-0.0019,0.0,9.8066,0.0016,-0.0048,0.0004,-65.12,-106.62,82.94,150.29,-11.94,-2.91
4883,48.87729,2.281316,86.42,1.68,4,123.94,18 / 22,488321,2020-01-04 11:46:04:571,0.1264,0.0685,9.8324,0.001,0.0028,9.8066,0.0007,-0.0066,-0.0009,-65.62,-106.81,83.0,149.93,-11.94,-2.91
4884,48.87729,2.281316,86.42,1.68,4,123.94,18 / 22,488421,2020-01-04 11:46:04:671,0.0677,0.0972,9.8833,-0.0006,-0.0001,9.8066,-0.0025,0.0028,-0.0038,-65.81,-106.81,83.0,149.94,-11.92,-2.89
4885,48.87729,2.281316,86.42,1.68,4,123.94,17 / 21,488521,2020-01-04 11:46:04:771,0.0896,0.0309,9.8922,-0.0038,0.0008,9.8066,-0.001,-0.0012,0.0014,-65.44,-106.56,83.19,150.3,-11.91,-2.88
4886,48.87729,2.281316,86.42,1.68,4,123.94,17 / 21,488620,2020-01-04 11:46:04:870,0.0778,0.0532,9.8636,0.0006,0.0015,9.8066,-0.0045,-0.0002,0.004,-65.12,-106.0,83.0,150.09,-11.87,-2.88
4887,48.87729,2.281316,86.42,1.68,4,123.94,17 / 21,488721,2020-01-04 11:46:04:971,0.0934,0.1488,9.9014,0.0014,0.0012,9.8066,0.0007,-0.0008,0.001,-65.12,-106.81,82.81,150.29,-11.85,-2.88
4888,48.87729,2.281316,86.42,1.68,4,123.94,17 / 21,488821,2020-01-04 11:46:05:071,0.0966,0.0179,9.8839,-0.0006,-0.0003,9.8066,0.0003,-0.002,0.0011,-65.44,-106.5,82.44,150.06,-11.84,-2.88
4889,48.87729,2.281316,86.42,1.68,4,123.94,17 / 21,488921,2020-01-04 11:46:05:171,0.0911,0.1161,9.8881,-0.0021,0.0027,9.8066,-0.0025,0.0003,-0.0027,-65.44,-106.94,82.69,150.3,-11.83,-2.86
4890,48.87729,2.281316,86.42,1.68,4,123.94,17 / 21,489021,2020-01-04 11:46:05:271,0.0798,0.0567,9.8816,-0.0007,0.0008,9.8066,0.0028,-0.0052,0.0031,-65.25,-107.12,82.94,150.3,-11.79,-2.85
4891,48.87729,2.281316,86.42,1.68,4,123.94,17 / 21,489121,2020-01-04 11:46:05:371,0.0913,0.0623,9.9141,0.0011,0.0021,9.8066,-0.0021,-0.0023,0.0033,-65.31,-106.62,82.38,150.27,-11.79,-2.84
4892,48.87729,2.281316,86.42,1.68,4,123.94,17 / 21,489221,2020-01-04 11:46:05:471,0.1181,0.0175,9.9824,-0.0012,0.0007,9.8066,-0.0007,0.0088,-0.0092,-65.12,-106.56,82.88,150.3,-11.77,-2.82
4893,48.87729,2.281316,86.42,1.68,4,123.94,17 / 21,489320,2020-01-04 11:46:05:570,0.0972,0.0212,9.8288,0.0011,0.0012,9.8065,-0.0009,0.0035,0.0014,-65.37,-106.75,83.19,150.31,-11.74,-2.8
4894,48.87729,2.281316,86.42,1.68,4,123.94,17 / 21,489420,2020-01-04 11:46:05:670,0.1266,0.0789,9.864,0.0002,0.0008,9.8066,-0.0006,-0.0046,-0.003,-65.5,-106.56,82.75,150.32,-11.72,-2.77
4895,48.87729,2.281316,86.42,1.68,4,123.94,18 / 20,489522,2020-01-04 11:46:05:772,0.0522,0.0581,9.8848,-0.0006,0.0012,9.8066,0.0057,-0.0009,-0.0021,-65.12,-106.12,82.81,150.12,-11.71,-2.77
4896,48.87729,2.281316,86.42,1.68,4,123.94,18 / 20,489620,2020-01-04 11:46:05:870,0.0619,0.0366,9.8311,0.0009,0.0005,9.8066,-0.0039,0.0022,-0.0006,-65.75,-106.31,82.38,149.74,-11.7,-2.75
4897,48.87729,2.281316,86.42,1.68,4,123.94,18 / 20,489722,2020-01-04 11:46:05:972,0.0877,0.0604,9.8882,-0.0023,0.0008,9.8065,0.0035,-0.0061,-0.0029,-65.37,-106.25,82.44,150.11,-11.68,-2.73
4898,48.87729,2.281316,86.42,1.68,4,123.94,18 / 20,489821,2020-01-04 11:46:06:071,0.1166,0.0009,9.9444,-0.002,0.0018,9.8066,-0.0025,0.0011,0.0037,-65.94,-106.69,82.5,149.97,-11.67,-2.74
4899,48.87729,2.281316,86.42,1.68,4,123.94,18 / 20,489920,2020-01-04 11:46:06:170,0.0607,0.0399,9.8377,0.0015,0.0021,9.8066,-0.0004,-0.005,0.0042,-65.31,-106.81,82.31,150.3,-11.64,-2.73
4900,48.87729,2.281316,86.42,1.68,4,123.94,18 / 20,490020,2020-01-04 11:46:06:270,0.0685,-0.0176,9.9221,0.0,0.0039,9.8066,0.0034,-0.0056,0.0004,-64.81,-106.62,82.38,150.31,-11.61,-2.7
4901,48.87729,2.281316,86.42,1.68,4,123.94,18 / 20,490121,2020-01-04 11:46:06:371,0.1021,0.0822,9.92,0.0003,0.0016,9.8066,0.0016,-0.0042,0.0016,-64.69,-107.0,83.0,150.35,-11.61,-2.68
4902,48.87729,2.281316,86.42,1.68,4,123.94,18 / 20,490221,2020-01-04 11:46:06:471,0.0906,0.0105,9.8637,-0.0009,0.0,9.8066,-0.001,-0.0009,-0.0019,-65.37,-106.31,83.19,150.15,-11.59,-2.68
4903,48.87729,2.281316,86.42,1.68,4,123.94,18 / 20,490321,2020-01-04 11:46:06:571,0.1218,0.0314,9.9423,0.0026,0.0026,9.8066,-0.001,-0.0069,0.0032,-65.19,-106.56,82.38,150.33,-11.59,-2.66
4904,48.87729,2.281316,86.42,1.68,4,123.94,19 / 20,490421,2020-01-04 11:46:06:671,0.1064,-0.0211,9.9505,0.0013,0.0006,9.8066,0.0029,-0.0011,-0.0012,-65.12,-106.87,83.31,150.36,-11.57,-2.65
4905,48.87729,2.281316,86.42,1.68,4,123.94,19 / 20,490521,2020-01-04 11:46:06:771,0.0526,-0.009,9.7908,0.0003,0.001,9.8066,0.0015,-0.0066,0.001,-65.56,-106.69,83.31,150.0,-11.57,-2.64
4906,48.87729,2.281316,86.42,1.68,4,123.94,19 / 20,490620,2020-01-04 11:46:06:870,0.0747,-0.0334,9.8697,-0.0008,0.0004,9.8066,-0.0001,-0.0056,-0.0016,-65.19,-106.62,82.5,150.36,-11.55,-2.64
4907,48.87729,2.281316,86.42,1.68,4,123.94,19 / 20,490721,2020-01-04 11:46:06:971,0.1073,0.0326,9.7984,-0.0016,0.0011,9.8066,-0.0005,-0.0067,0.0047,-65.44,-106.75,82.5,150.36,-11.55,-2.65
4908,48.87729,2.281316,86.42,1.68,4,123.94,19 / 20,490820,2020-01-04 11:46:07:070,0.1071,-0.0114,9.9821,-0.003,-0.0009,9.8066,0.0024,-0.0078,0.0042,-65.44,-106.81,83.19,150.33,-11.52,-2.68
4909,48.87729,2.281316,86.42,1.68,4,123.94,19 / 20,490920,2020-01-04 11:46:07:170,0.0781,-0.0034,9.856,-0.0008,-0.0001,9.8066,0.0,-0.0017,0.0032,-65.87,-106.75,83.0,149.97,-11.51,-2.69
4910,48.87729,2.281316,86.42,1.68,4,123.94,19 / 20,491022,2020-01-04 11:46:07:272,0.0784,-0.0088,9.9077,-0.0023,0.0,9.8066,0.0004,0.0011,0.002,-65.44,-106.62,83.13,150.33,-11.51,-2.69
4911,48.87729,2.281316,86.42,1.68,4,123.94,19 / 20,491121,2020-01-04 11:46:07:371,0.0956,0.056,9.9197,0.001,0.0006,9.8066,0.0022,-0.0018,-0.0018,-65.44,-106.5,82.69,150.13,-11.5,-2.68
4912,48.87729,2.281316,86.42,1.68,4,123.94,19 / 20,491221,2020-01-04 11:46:07:471,0.1342,-0.0349,9.878,0.0008,-0.0002,9.8066,0.004,-0.0081,-0.001,-65.69,-106.56,82.88,149.98,-11.51,-2.67
4913,48.87729,2.281316,86.42,1.68,4,123.94,19 / 20,491321,2020-01-04 11:46:07:571,0.0631,-0.0084,9.8066,-0.001,-0.0006,9.8066,0.004,-0.0007,-0.0013,-65.12,-106.81,82.5,150.33,-11.5,-2.67
4914,48.87729,2.281316,86.42,1.68,4,123.94,19 / 20,491421,2020-01-04 11:46:07:671,0.1119,0.0097,9.9264,0.0018,0.0014,9.8066,0.0014,-0.004,0.003,-65.25,-106.5,83.13,150.14,-11.5,-2.66
4915,48.87729,2.281316,86.42,1.68,4,123.94,18 / 21,491521,2020-01-04 11:46:07:771,0.0846,-0.0265,9.8416,0.0,-0.0001,9.8066,0.0029,-0.0101,-0.0026,-65.37,-106.81,83.0,150.34,-11.48,-2.65
4916,48.87729,2.281316,86.42,1.68,4,123.94,18 / 21,491620,2020-01-04 11:46:07:870,0.1333,-0.0438,9.8865,-0.0007,0.0,9.8066,-0.0013,-0.0023,-0.0021,-65.62,-106.87,83.19,149.98,-11.48,-2.66
4917,48.87729,2.281316,86.42,1.68,4,123.94,18 / 21,491721,2020-01-04 11:46:07:971,0.0959,0.0045,9.8936,-0.0002,-0.0003,9.8066,0.001,-0.0078,-0.0001,-65.81,-106.87,82.81,149.98,-11.47,-2.65
4918,48.87729,2.281316,86.42,1.68,4,123.94,18 / 21,491821,2020-01-04 11:46:08:071,0.0994,0.0004,9.8477,0.0001,0.0006,9.8066,-0.0002,0.0026,-0.0006,-65.12,-106.69,83.19,150.34,-11.46,-2.65
4919,48.87729,2.281316,86.42,1.68,4,123.94,18 / 21,491921,2020-01-04 11:46:08:171,0.0895,-0.0453,9.8345,-0.0009,0.0,9.8066,0.002,-0.004,-0.0022,-64.94,-106.69,82.69,150.34,-11.46,-2.64
4920,48.87729,2.281316,86.42,1.68,4,123.94,18 / 21,492021,2020-01-04 11:46:08:271,0.0828,-0.0379,9.9807,0.0005,0.0007,9.8066,0.0041,-0.0097,-0.0024,-65.75,-107.12,82.94,149.98,-11.45,-2.64
4921,48.87729,2.281316,86.42,1.68,4,123.94,18 / 21,492121,2020-01-04 11:46:08:371,0.093,0.009,9.838,0.0013,0.0012,9.8066,0.0003,-0.0002,0.0021,-66.0,-107.0,83.38,149.98,-11.45,-2.65
4922,48.87729,2.281316,86.42,1.68,4,123.94,18 / 21,492221,2020-01-04 11:46:08:471,0.1283,-0.0416,9.9559,0.0002,0.0007,9.8066,0.0038,-0.0024,0.0005,-65.12,-106.56,83.0,150.34,-11.44,-2.64
4923,48.87729,2.281316,86.42,1.68,4,123.94,18 / 21,492321,2020-01-04 11:46:08:571,0.0985,0.0067,9.8674,0.0006,-0.0006,9.8066,-0.0024,-0.0012,-0.0027,-64.75,-106.31,82.75,150.14,-11.44,-2.63
4924,48.87729,2.281316,86.42,1.68,4,123.94,18 / 21,492423,2020-01-04 11:46:08:673,0.0701,-0.0273,9.8621,-0.0007,-0.0002,9.8066,0.0001,-0.0055,-0.0003,-65.44,-107.19,82.81,150.35,-11.44,-2.62
4925,48.87729,2.281316,86.42,1.68,4,123.94,17 / 19,492521,2020-01-04 11:46:08:771,0.0798,0.0042,9.8887,0.001,0.0029,9.8065,0.0018,-0.0074,-0.0003,-64.94,-106.44,83.19,150.15,-11.43,-2.62
4926,48.87729,2.281316,86.42,1.68,4,123.94,17 / 19,492621,2020-01-04 11:46:08:871,0.0937,-0.0405,9.9087,0.0005,-0.0004,9.8066,0.0011,-0.0098,0.0013,-65.5,-106.37,83.31,150.15,-11.42,-2.61
4927,48.87729,2.281316,86.42,1.68,4,123.94,17 / 19,492721,2020-01-04 11:46:08:971,0.0856,-0.0055,9.861,0.0002,0.0003,9.8066,0.0032,-0.0033,-0.0017,-65.06,-106.56,83.0,150.34,-11.42,-2.62
4928,48.87729,2.281316,86.42,1.68,4,123.94,17 / 19,492821,2020-01-04 11:46:09:071,0.0931,-0.0381,9.8635,-0.0008,0.0,9.8066,0.0008,-0.0063,-0.0013,-65.75,-106.5,82.88,149.79,-11.43,-2.61
4929,48.87729,2.281316,86.42,1.68,4,123.94,17 / 19,492921,2020-01-04 11:46:09:171,0.0609,0.0138,9.9166,0.002,0.001,9.8066,-0.0003,-0.0036,-0.0026,-65.5,-106.69,83.06,150.35,-11.43,-2.62
4930,48.87729,2.281316,86.42,1.68,4,123.94,17 / 19,493021,2020-01-04 11:46:09:271,0.0392,-0.023,9.8695,0.0002,-0.0008,9.8066,-0.0023,-0.0067,-0.0012,-65.37,-106.56,83.19,150.35,-11.43,-2.61
4931,48.87729,2.281316,86.42,1.68,4,123.94,17 / 19,493121,2020-01-04 11:46:09:371,0.074,0.0002,9.922,-0.001,-0.0001,9.8066,0.002,0.0016,0.0004,-65.44,-106.06,83.06,150.15,-11.42,-2.62
4932,48.87729,2.281316,86.42,1.68,4,123.94,17 / 19,493222,2020-01-04 11:46:09:472,0.0801,0.0211,9.8877,0.001,-0.0007,9.8066,0.0005,-0.0076,-0.0024,-65.25,-106.5,83.13,150.16,-11.42,-2.6
4933,48.87729,2.281316,86.42,1.68,4,123.94,17 / 19,493320,2020-01-04 11:46:09:570,0.1369,0.009,9.855,-0.0001,-0.0005,9.8065,0.001,-0.0019,-0.0005,-66.06,-106.44,82.94,149.8,-11.43,-2.6
4934,48.87729,2.281316,86.42,1.68,4,123.94,17 / 19,493420,2020-01-04 11:46:09:670,0.0414,-0.0482,9.8778,-0.0006,-0.0005,9.8066,0.0004,-0.0062,0.0003,-65.94,-106.37,82.94,149.8,-11.43,-2.59
4935,48.87729,2.281316,86.42,1.68,4,123.94,16 / 20,493521,2020-01-04 11:46:09:771,0.0678,-0.0297,9.9381,0.001,0.0011,9.8066,-0.0003,0.0016,0.0008,-65.25,-106.62,82.75,150.36,-11.43,-2.6
4936,48.87729,2.281316,86.42,1.68,4,123.94,16 / 20,493622,2020-01-04 11:46:09:872,0.0643,-0.0134,9.8846,-0.0004,0.0001,9.8066,0.0038,-0.0053,-0.0006,-65.75,-106.44,82.25,149.77,-11.42,-2.6
4937,48.87729,2.281316,86.42,1.68,4,123.94,16 / 20,493720,2020-01-04 11:46:09:970,0.1171,0.01,9.8741,0.0008,0.0013,9.8066,0.0001,0.0021,-0.0014,-65.31,-106.81,83.31,150.36,-11.42,-2.59
4938,48.87729,2.281316,86.42,1.68,4,123.94,16 / 20,493820,2020-01-04 11:46:10:070,0.075,-0.0247,9.9475,-0.0007,-0.0002,9.8065,0.0003,-0.0068,0.0007,-65.62,-106.44,82.94,149.8,-11.43,-2.59
4939,48.87729,2.281316,86.42,1.68,4,123.94,16 / 20,493920,2020-01-04 11:46:10:170,0.1061,-0.0293,9.887,0.0007,-0.0004,9.8066,-0.0003,-0.0006,0.0012,-65.31,-106.81,82.56,150.36,-11.43,-2.59
4940,48.87729,2.281316,86.42,1.68,4,123.94,16 / 20,494020,2020-01-04 11:46:10:270,0.084,-0.022,9.8667,-0.0011,-0.0011,9.8066,0.0043,-0.0023,-0.0033,-64.81,-106.62,83.38,150.37,-11.42,-2.58
4941,48.87729,2.281316,86.42,1.68,4,123.94,16 / 20,494121,2020-01-04 11:46:10:371,0.0765,0.0071,9.9762,0.0012,0.0015,9.8065,0.0032,-0.0057,-0.0024,-65.31,-106.94,83.75,150.39,-11.43,-2.58
4942,48.87729,2.281316,86.42,1.68,4,123.94,16 / 20,494221,2020-01-04 11:46:10:471,0.0294,-0.0194,9.8742,0.001,0.0,9.8066,-0.0009,-0.005,0.0012,-65.5,-107.5,82.88,150.38,-11.43,-2.57
4943,48.87729,2.281316,86.42,1.68,4,123.94,16 / 20,494321,2020-01-04 11:46:10:571,0.0594,-0.0387,9.8996,0.0001,0.0006,9.8066,0.0029,-0.0021,-0.0004,-65.31,-106.75,83.31,150.38,-11.43,-2.55
4944,48.87729,2.281316,86.42,1.68,4,123.94,16 / 22,494421,2020-01-04 11:46:10:671,0.0087,-0.0206,9.8376,0.0014,0.003,9.8065,-0.0028,-0.0002,-0.0002,-65.19,-106.44,83.19,150.19,-11.43,-2.53
4945,48.87729,2.281316,86.42,1.68,4,123.94,16 / 22,494521,2020-01-04 11:46:10:771,0.0565,-0.0147,9.8902,0.0008,0.0001,9.8066,0.001,-0.0027,-0.0016,-65.19,-107.0,83.19,150.41,-11.41,-2.5
4946,48.87729,2.281316,86.42,1.68,4,123.94,16 / 22,494620,2020-01-04 11:46:10:870,0.0621,-0.0066,9.8622,0.001,0.0007,9.8066,0.0043,0.0002,0.0007,-65.75,-107.0,83.13,150.05,-11.41,-2.51
4947,48.87729,2.281316,86.42,1.68,4,123.94,16 / 22,494721,2020-01-04 11:46:10:971,0.1014,-0.0013,9.9147,0.0017,0.0008,9.8066,-0.0001,-0.004,-0.0004,-64.81,-106.75,82.5,150.42,-11.41,-2.48
4948,48.87729,2.281316,86.42,1.68,4,123.94,16 / 22,494821,2020-01-04 11:46:11:071,0.053,-0.0458,9.8313,-0.0015,-0.0014,9.8066,0.0041,-0.0005,0.001,-65.37,-106.5,83.13,150.22,-11.41,-2.47
4949,48.87729,2.281316,86.42,1.68,4,123.94,16 / 22,494921,2020-01-04 11:46:11:171,0.0514,-0.022,9.8803,0.0005,-0.0011,9.8066,0.0025,-0.0058,0.0034,-65.69,-106.75,83.31,150.07,-11.42,-2.47
4950,48.87729,2.281316,86.42,1.68,4,123.94,16 / 22,495021,2020-01-04 11:46:11:271,0.0387,-0.0312,9.8781,0.0004,0.0001,9.8065,-0.0021,0.0087,-0.0002,-65.37,-106.37,82.63,150.22,-11.43,-2.48
4951,48.87729,2.281316,86.42,1.68,4,123.94,16 / 22,495121,2020-01-04 11:46:11:371,0.06,-0.0061,9.8961,0.0011,-0.0002,9.8066,0.0006,0.0027,0.0013,-65.37,-106.5,83.06,150.23,-11.42,-2.46
4952,48.87729,2.281316,86.42,1.68,4,123.94,16 / 22,495221,2020-01-04 11:46:11:471,0.0453,0.0008,9.9051,-0.0002,-0.0004,9.8065,0.0008,0.0002,0.0012,-65.44,-106.56,83.13,150.45,-11.43,-2.44
4953,48.87729,2.281316,86.42,1.68,4,123.94,16 / 22,495320,2020-01-04 11:46:11:570,0.07,-0.0649,9.8917,0.001,0.0005,9.8066,0.0035,-0.002,0.0027,-65.62,-106.06,82.94,149.89,-11.43,-2.42
4954,48.87729,2.281316,86.42,1.68,4,123.94,16 / 22,495421,2020-01-04 11:46:11:671,0.0101,-0.0337,9.8953,-0.0021,-0.0016,9.8066,0.001,-0.0077,-0.0008,-65.19,-106.87,82.69,150.47,-11.44,-2.41
4955,48.87729,2.281316,86.42,1.68,4,123.94,17 / 20,495521,2020-01-04 11:46:11:771,0.0736,-0.0403,9.9317,-0.0005,0.0017,9.8066,0.0041,-0.0069,0.0,-65.5,-106.31,82.75,150.25,-11.44,-2.43
4956,48.87729,2.281316,86.42,1.68,4,123.94,17 / 20,495620,2020-01-04 11:46:11:870,0.0528,-0.0397,9.831,0.0011,-0.0013,9.8066,0.0024,-0.0072,-0.0043,-65.0,-106.06,82.81,150.25,-11.45,-2.43
4957,48.87729,2.281316,86.42,1.68,4,123.94,17 / 20,495721,2020-01-04 11:46:11:971,0.0936,-0.0723,9.8834,0.0,0.0005,9.8066,-0.0008,0.0044,-0.0002,-66.19,-106.56,83.38,150.1,-11.47,-2.44
4958,48.87729,2.281316,86.42,1.68,4,123.94,17 / 20,495820,2020-01-04 11:46:12:070,0.0636,-0.0122,9.8692,0.0008,-0.0005,9.8065,-0.0021,0.0005,0.001,-64.81,-106.87,82.69,150.46,-11.47,-2.42
4959,48.87729,2.281316,86.42,1.68,4,123.94,17 / 20,495920,2020-01-04 11:46:12:170,0.045,-0.0393,9.965,0.0002,0.0003,9.8065,-0.0011,-0.0007,0.0009,-65.75,-106.56,83.06,150.11,-11.47,-2.41
4960,48.87729,2.281316,86.42,1.68,4,123.94,17 / 20,496021,2020-01-04 11:46:12:271,0.0489,-0.0712,9.9044,0.0008,0.0001,9.8065,-0.0001,-0.0026,-0.0008,-65.75,-106.69,83.0,150.12,-11.46,-2.39
4961,48.87729,2.281316,86.42,1.68,4,123.94,17 / 20,496121,2020-01-04 11:46:12:371,0.0329,-0.0795,9.8379,0.0001,-0.0004,9.8065,-0.0012,-0.0045,-0.0002,-65.06,-106.37,82.63,150.29,-11.47,-2.38
4962,48.87729,2.281316,86.42,1.68,4,123.94,17 / 20,496221,2020-01-04 11:46:12:471,0.0617,-0.0167,9.8984,0.0016,0.0006,9.8066,0.0051,-0.005,0.0021,-64.75,-106.5,83.5,150.32,-11.48,-2.37
4963,48.87729,2.281316,86.42,1.68,4,123.94,17 / 20,496321,2020-01-04 11:46:12:571,0.0184,-0.0253,9.9,0.0006,-0.0013,9.8066,0.0023,-0.001,-0.0005,-65.25,-107.06,82.5,150.5,-11.49,-2.37
4964,48.87729,2.281316,86.42,1.68,4,123.94,17 / 20,496421,2020-01-04 11:46:12:671,0.0073,0.0011,9.9219,0.0005,0.0012,9.8066,-0.0003,-0.0015,-0.0022,-65.44,-106.69,83.75,150.52,-11.49,-2.38
4965,48.87729,2.281316,86.42,1.68,4,123.94,18 / 20,496521,2020-01-04 11:46:12:771,0.0858,-0.0775,9.8958,0.0009,-0.0009,9.8066,0.0016,0.0028,-0.0015,-65.5,-106.37,84.31,150.33,-11.5,-2.37
4966,48.87729,2.281316,86.42,1.68,4,123.94,18 / 20,496620,2020-01-04 11:46:12:870,0.0523,-0.0603,9.8466,0.0026,0.0003,9.8065,0.0056,-0.0105,-0.0007,-65.94,-106.69,84.06,150.19,-11.51,-2.33
4967,48.87729,2.281316,86.42,1.68,4,123.94,18 / 20,496721,2020-01-04 11:46:12:971,0.0572,-0.0269,9.9225,-0.0003,-0.0007,9.8066,0.0006,-0.0031,0.002,-65.31,-106.12,83.75,150.35,-11.53,-2.33
4968,48.87729,2.281316,86.42,1.68,4,123.94,18 / 20,496821,2020-01-04 11:46:13:071,0.05,-0.016,9.8465,-0.0003,-0.0011,9.8066,0.0017,-0.0038,-0.0025,-65.69,-105.94,83.25,149.97,-11.55,-2.34
4969,48.87729,2.281316,86.42,1.68,4,123.94,18 / 20,496921,2020-01-04 11:46:13:171,0.0363,-0.0114,9.8699,-0.0001,-0.0009,9.8066,0.0012,-0.0054,-0.0014,-65.56,-105.75,83.44,149.97,-11.55,-2.34
4970,48.87729,2.281316,86.42,1.68,4,123.94,18 / 20,497021,2020-01-04 11:46:13:271,0.0375,-0.0385,9.8984,0.0005,0.0005,9.8066,-0.002,-0.0035,-0.002,-66.25,-106.25,83.19,149.97,-11.55,-2.32
4971,48.87729,2.281316,86.42,1.68,4,123.94,18 / 20,497121,2020-01-04 11:46:13:371,0.0329,-0.0143,9.9123,0.0,0.0004,9.8066,0.0033,-0.0045,-0.0026,-65.94,-105.56,83.25,149.98,-11.55,-2.31
4972,48.87729,2.281316,86.42,1.68,4,123.94,18 / 20,497220,2020-01-04 11:46:13:470,0.0479,-0.0199,9.8676,-0.0005,-0.0007,9.8066,0.0008,-0.0055,0.0025,-65.94,-106.25,83.38,149.99,-11.55,-2.3
4973,48.87729,2.281316,86.42,1.68,4,123.94,18 / 20,497320,2020-01-04 11:46:13:570,0.0034,-0.0264,9.8711,0.0001,-0.0023,9.8066,0.0036,0.0033,-0.0052,-65.81,-105.81,83.44,149.98,-11.57,-2.32
4974,48.87729,2.281316,86.42,1.68,4,123.94,18 / 20,497420,2020-01-04 11:46:13:670,0.2586,-0.4358,9.8306,0.0018,-0.0012,9.8066,0.0077,0.0043,0.0026,-66.37,-106.5,83.25,149.99,-11.58,-2.3
4975,48.87729,2.281316,86.42,1.68,4,123.94,19 / 21,497520,2020-01-04 11:46:13:770,0.3644,-0.6321,9.3858,0.0025,-0.0027,9.8066,0.0128,-0.004,-0.0012,-66.25,-106.56,83.81,150.24,-11.64,-2.28
4976,48.87729,2.281316,86.42,1.68,4,123.94,19 / 21,497621,2020-01-04 11:46:13:871,0.5597,-1.016,10.1033,0.0045,-0.0054,9.8066,0.0228,-0.0027,0.0012,-65.87,-106.0,83.0,150.04,-11.7,-2.26
4977,48.87729,2.281316,86.42,1.68,4,123.94,19 / 21,497721,2020-01-04 11:46:13:971,0.5781,-0.913,10.2292,0.0058,-0.0092,9.8066,0.0161,0.0038,0.0013,-66.69,-106.62,83.94,149.94,-11.81,-2.26
4978,48.87729,2.281316,86.42,1.68,4,123.94,19 / 21,497821,2020-01-04 11:46:14:071,0.6126,-1.0086,10.1765,0.0048,-0.0006,9.8066,0.0018,-0.0024,-0.0027,-66.62,-106.81,83.69,149.98,-11.94,-2.22
4979,48.87729,2.281316,86.42,1.68,4,123.94,19 / 21,497921,2020-01-04 11:46:14:171,0.5956,-1.1058,9.6755,0.0035,0.0025,9.8066,-0.0028,0.0116,-0.0037,-67.5,-106.94,84.19,150.02,-11.96,-2.16
4980,48.87729,2.281316,86.42,1.68,4,123.94,19 / 21,498021,2020-01-04 11:46:14:271,0.7997,-1.2205,9.8512,0.0024,-0.0001,9.8066,0.0055,-0.0011,0.0004,-67.75,-106.94,83.94,149.7,-11.94,-2.1
4981,48.87729,2.281316,86.42,1.68,4,123.94,19 / 21,498121,2020-01-04 11:46:14:371,0.7344,-1.3122,9.9042,0.0013,-0.0027,9.8066,0.0051,0.0008,0.0056,-68.37,-107.06,84.69,149.74,-11.98,-2.08
4982,48.87729,2.281316,86.42,1.68,4,123.94,19 / 21,498221,2020-01-04 11:46:14:471,0.7792,-1.2244,10.1801,0.0018,0.0007,9.8066,0.0023,-0.0072,0.0031,-69.25,-107.37,84.69,149.4,-11.99,-2.07
4983,48.87729,2.281316,86.42,1.68,4,123.94,19 / 21,498321,2020-01-04 11:46:14:571,0.6765,-1.4464,9.7268,-0.0017,-0.0038,9.8066,0.011,-0.0194,0.0025,-69.0,-108.37,85.0,149.61,-12.02,-2.06
4984,48.87729,2.281316,86.42,1.68,4,123.94,19 / 21,498420,2020-01-04 11:46:14:670,0.8247,-1.2436,9.8291,0.0057,-0.0009,9.8066,0.0088,0.0112,-0.0001,-69.06,-108.06,84.44,149.58,-12.08,-2.1
4985,48.87729,2.281316,86.42,1.68,4,123.94,19 / 21,498521,2020-01-04 11:46:14:771,0.7925,-1.563,9.9677,0.0021,0.0014,9.8066,-0.0024,0.0137,0.0076,-68.31,-107.5,82.63,149.75,-12.11,-2.02
4986,48.87729,2.281316,86.42,1.68,4,123.94,19 / 21,498621,2020-01-04 11:46:14:871,1.0533,-1.6306,9.9986,-0.0033,-0.0087,9.8066,0.0165,-0.0092,0.0062,-67.06,-107.75,81.19,150.24,-12.11,-2.02
4987,48.87729,2.281316,86.42,1.68,4,123.94,19 / 21,498720,2020-01-04 11:46:14:970,0.7337,-1.5424,9.853,-0.0034,-0.0047,9.8066,-0.0038,-0.0017,0.0043,-63.75,-107.19,78.5,151.02,-12.2,-2.13
4988,48.87729,2.281316,86.42,1.68,4,123.94,19 / 21,498820,2020-01-04 11:46:15:070,0.8477,-1.8731,9.6888,-0.0056,-0.0024,9.8066,-0.0032,-0.0306,0.0064,-61.0,-106.75,77.5,152.1,-12.18,-2.11
4989,48.87729,2.281316,86.42,1.68,4,123.94,19 / 21,498921,2020-01-04 11:46:15:171,0.7452,-1.7339,9.4908,-0.0009,-0.0045,9.8066,0.0029,-0.0015,0.0029,-59.44,-105.31,77.19,152.39,-12.18,-2.21
4990,48.87729,2.281316,86.42,1.68,4,123.94,19 / 21,499020,2020-01-04 11:46:15:270,0.9715,-1.3628,9.9609,-0.0021,-0.0092,9.8066,0.0166,0.0036,0.0092,-58.56,-105.0,79.19,152.4,-12.2,-2.29
4991,48.87729,2.281316,86.42,1.68,4,123.94,19 / 21,499122,2020-01-04 11:46:15:372,0.6471,-1.5673,9.5691,0.0047,-0.0037,9.8066,0.0053,0.0004,0.0031,-62.12,-106.19,80.69,151.54,-12.32,-2.3
4992,48.87729,2.281316,86.42,1.68,4,123.94,19 / 21,499221,2020-01-04 11:46:15:471,0.7147,-1.3832,10.2828,0.0064,0.0034,9.8066,0.0024,0.0164,0.0029,-65.62,-106.62,82.63,150.4,-12.35,-2.21
4993,48.87729,2.281316,86.42,1.68,4,123.94,19 / 21,499320,2020-01-04 11:46:15:570,0.6269,-0.4963,10.5302,0.001,-0.0001,9.8066,-0.0078,-0.0184,0.0018,-70.0,-108.37,84.63,149.28,-12.36,-2.16
4994,48.87729,2.281316,86.42,1.68,4,123.94,17 / 19,499420,2020-01-04 11:46:15:670,0.0683,0.0308,9.5376,-0.0125,0.0126,9.8066,-0.036,-0.0089,0.0104,-69.87,-108.0,83.88,149.21,-12.29,-2.21
4995,48.87729,2.281316,86.42,1.68,4,123.94,17 / 19,499521,2020-01-04 11:46:15:771,0.2136,-0.6215,9.2615,-0.0036,0.0086,9.8066,-0.0142,0.0066,0.013,-67.44,-106.81,80.69,149.92,-12.12,-2.23
4996,48.87729,2.281316,86.42,1.68,4,123.94,17 / 19,499621,2020-01-04 11:46:15:871,0.9197,-1.7553,9.3914,0.0099,-0.013,9.8066,0.0518,-0.0078,-0.0025,-61.69,-106.19,77.31,151.46,-12.09,-2.18
4997,48.87729,2.281316,86.42,1.68,4,123.94,17 / 19,499720,2020-01-04 11:46:15:970,0.3408,-1.2372,9.8439,0.0147,-0.022,9.8066,0.0588,-0.0072,-0.0005,-59.44,-105.62,77.81,152.7,-12.47,-2.14
4998,48.87729,2.281316,86.42,1.68,4,123.94,17 / 19,499821,2020-01-04 11:46:16:071,0.052,-0.125,10.6817,0.0057,0.0009,9.8066,-0.0056,0.0073,0.0128,-61.5,-105.69,79.56,152.07,-12.7,-2.1
4999,48.87729,2.281316,86.42,1.68,4,123.94,17 / 19,499920,2020-01-04 11:46:16:170,0.279,-0.3494,9.945,-0.0119,0.0101,9.8066,-0.0444,-0.0219,0.0069,-67.81,-107.5,83.56,149.83,-12.59,-2.09
5000,48.87729,2.281316,86.42,1.68,4,123.94,17 / 19,500020,2020-01-04 11:46:16:270,0.511,-1.2329,9.9135,-0.0081,0.0023,9.8066,-0.0052,-0.0055,0.0121,-70.0,-107.62,84.44,149.27,-12.44,-2.15
5001,48.87729,2.281316,86.42,1.68,4,123.94,17 / 19,500120,2020-01-04 11:46:16:370,0.6462,-1.4619,9.7535,0.0011,-0.0118,9.8065,0.0381,-0.0113,0.0048,-69.12,-107.62,82.13,149.53,-12.41,-2.19
5002,48.87729,2.281316,86.42,1.68,4,123.94,17 / 19,500221,2020-01-04 11:46:16:471,0.1351,-0.8514,10.1273,0.0073,-0.0107,9.8066,0.0192,0.0101,0.0099,-63.37,-106.75,77.81,151.41,-12.65,-2.18
5003,48.87729,2.281316,86.42,1.68,4,123.94,17 / 19,500320,2020-01-04 11:46:16:570,0.224,-0.3624,9.6774,0.0061,0.0053,9.8066,-0.0079,0.0003,0.0104,-60.12,-105.44,78.06,152.2,-12.75,-2.1
5004,48.87729,2.281316,86.42,1.68,4,123.94,17 / 19,500421,2020-01-04 11:46:16:671,0.2204,-0.5574,10.5261,-0.0037,0.0056,9.8066,-0.0034,-0.0176,0.0198,-62.25,-105.19,80.06,151.54,-12.71,-2.03
5005,48.877228,2.281416,87.26,3.16,6,133.29,18 / 21,500520,2020-01-04 11:46:16:770,0.6238,-0.7475,9.8215,-0.0044,0.0007,9.8065,-0.0225,-0.0253,0.0206,-65.37,-105.69,82.69,150.72,-12.67,-2.03
5006,48.877228,2.281416,87.26,3.16,6,133.29,18 / 21,500621,2020-01-04 11:46:16:871,0.3707,-1.1576,10.411,0.0108,-0.0088,9.8066,0.0242,0.0092,0.0156,-70.37,-108.25,85.0,149.35,-12.73,-2.18
5007,48.877228,2.281416,87.26,3.16,6,133.29,18 / 21,500721,2020-01-04 11:46:16:971,0.4783,-0.8141,10.3783,0.0184,-0.009,9.8066,0.0403,0.0214,0.0112,-66.37,-106.5,79.88,150.31,-12.98,-2.06
5008,48.877228,2.281416,87.26,3.16,6,133.29,18 / 21,500821,2020-01-04 11:46:17:071,-0.2993,0.2713,10.3793,0.0104,0.0028,9.8066,-0.0143,0.0342,0.0202,-61.31,-105.44,77.88,151.92,-13.1,-2.02
5009,48.877228,2.281416,87.26,3.16,6,133.29,18 / 21,500921,2020-01-04 11:46:17:171,-0.653,0.278,10.4351,0.0026,0.0079,9.8066,-0.0125,0.0255,0.0194,-60.06,-105.44,79.06,152.39,-13.09,-1.92
