,GPS LATITUDE (degrees), GPS LONGITUDE (degrees), GPS ALTITUDE (m), GPS SPEED (Kmh), GPS ACCURACY (m), GPS ORIENTATION (Â°),GPS SATELLITES IN RANGE, TIME SINCE START (ms), DATE (YYYY-MO-DD HH-MI-SS_SSS), ACCELEROMETER X (m/s²) , ACCELEROMETER Y (m/s²), ACCELEROMETER Z (m/s²), GRAVITY X (m/s²), GRAVITY Y (m/s²), GRAVITY Z (m/s²), GYROSCOPE Yaw (rad/s), GYROSCOPE Pitch (rad/s), GYROSCOPE Roll (rad/s), MAGNETIC FIELD X (Î¼T), MAGNETIC FIELD Y (Î¼T), MAGNETIC FIELD Z (Î¼T), ORIENTATION (Yaw) (Â°), ORIENTATION (Pitch) (Â°), ORIENTATION (Roll ) (Â°)
45560,52.38098,-1.521436,150.79,14.22,2.0,116.21,25 / 27,133410,2019-09-07 10:29:26:564,-0.0128,0.559,9.4159,0.0025,-0.0016,9.8066,0.01,0.0094,-0.0012,-42.25,-26.75,19.25,324.96,-83.33,-146.96
45561,52.38098,-1.521436,150.79,14.22,2.0,116.21,25 / 27,133510,2019-09-07 10:29:26:664,-0.1596,0.1695,9.98,0.0024,-0.0004,9.8065,-0.0039,-0.0111,-0.0275,-42.19,-26.87,19.19,325.09,-83.25,-146.8
45562,52.38098,-1.521436,150.79,14.22,2.0,116.21,25 / 27,133610,2019-09-07 10:29:26:764,-0.4612,-0.1523,9.5856,-0.0028,-0.0104,9.8065,0.019,0.0799,0.0436,-42.69,-26.81,19.13,325.01,-83.17,-146.38
45563,52.38098,-1.521436,150.79,14.22,2.0,116.21,25 / 27,133711,2019-09-07 10:29:26:865,-0.3368,-0.0678,9.5134,-0.0028,-0.0017,9.8066,-0.0013,0.0495,0.0188,-42.5,-26.44,19.0,326.28,-83.15,-145.73
45564,52.38098,-1.521436,150.79,14.22,2.0,116.21,25 / 27,133810,2019-09-07 10:29:26:964,0.0343,0.3966,10.0744,-0.008,0.0026,9.8066,0.0006,0.0324,0.0144,-42.12,-26.56,18.94,326.64,-83.2,-145.33
45565,52.38098,-1.521436,150.79,14.22,2.0,116.21,25 / 27,133910,2019-09-07 10:29:27:064,-0.3653,-0.7329,10.1216,-0.0006,0.0038,9.8066,-0.0101,-0.0133,-0.0114,-42.25,-26.81,18.38,325.83,-83.18,-144.91
45566,52.38098,-1.521436,150.79,14.22,2.0,116.21,25 / 27,134010,2019-09-07 10:29:27:164,-0.6993,-0.2631,9.1794,-0.0023,0.0071,9.8066,-0.0096,0.0372,0.0135,-42.69,-26.94,18.5,326.88,-83.17,-144.62
45567,52.38098,-1.521436,150.79,14.22,2.0,116.21,25 / 27,134110,2019-09-07 10:29:27:264,0.2201,0.3844,11.1337,-0.0058,0.0054,9.8066,-0.0164,0.0566,-0.0035,-42.06,-28.0,18.63,327.69,-83.27,-144.29
45568,52.38098,-1.521436,150.79,14.22,2.0,116.21,25 / 27,134210,2019-09-07 10:29:27:364,-0.1217,0.1293,10.5679,0.0071,-0.0001,9.8066,0.0363,0.046,-0.0123,-42.75,-26.75,18.69,326.73,-83.37,-144.84
45569,52.38098,-1.521436,150.79,14.22,2.0,116.21,24 / 26,134310,2019-09-07 10:29:27:464,-0.2295,-0.2277,9.8843,0.0057,0.0033,9.8065,0.0048,0.0116,-0.0281,-42.31,-26.62,18.88,325.86,-83.37,-146.12
45570,52.38098,-1.521436,150.79,14.22,2.0,116.21,24 / 26,134410,2019-09-07 10:29:27:564,0.0072,-0.2071,10.9599,-0.0043,0.0026,9.8066,-0.0178,-0.0217,-0.0297,-42.75,-26.87,18.63,325.33,-83.39,-146.17
45571,52.38098,-1.521436,150.79,14.22,2.0,116.21,24 / 26,134510,2019-09-07 10:29:27:664,-0.3691,-0.0537,10.4427,0.0036,0.0037,9.8066,0.0097,0.0033,-0.0151,-42.5,-26.94,18.75,325.87,-83.37,-146.12
45572,52.38098,-1.521436,150.79,14.22,2.0,116.21,24 / 26,134610,2019-09-07 10:29:27:764,0.6248,0.1166,10.2597,0.0033,0.0012,9.8066,-0.0124,0.0085,-0.0164,-42.75,-27.0,18.19,323.43,-83.34,-146.8
45573,52.38098,-1.521436,150.79,14.22,2.0,116.21,24 / 26,134710,2019-09-07 10:29:27:864,-0.4491,0.0215,9.5733,-0.0041,0.0032,9.8066,-0.0279,-0.0082,-0.0331,-42.69,-26.5,18.44,323.44,-83.37,-146.89
45574,52.38098,-1.521436,150.79,14.22,2.0,116.21,24 / 26,134810,2019-09-07 10:29:27:964,-0.0867,0.2659,9.2216,0.0044,-0.005,9.8066,0.0089,0.01,-0.0129,-42.87,-26.69,19.0,324.32,-83.42,-147.14
45575,52.38098,-1.521436,150.79,14.22,2.0,116.21,24 / 26,134910,2019-09-07 10:29:28:064,-0.2159,-0.202,9.8806,-0.0005,0.0099,9.8066,-0.011,0.0067,-0.0328,-42.94,-26.94,18.69,323.2,-83.49,-148.21
45576,52.38098,-1.521436,150.79,14.22,2.0,116.21,24 / 26,135010,2019-09-07 10:29:28:164,-0.0518,-0.0294,9.5614,-0.0065,0.0048,9.8065,-0.0117,0.0165,-0.0095,-43.62,-27.0,18.44,321.87,-83.54,-147.94
45577,52.38098,-1.521436,150.79,14.22,2.0,116.21,24 / 26,135110,2019-09-07 10:29:28:264,-0.4417,0.3476,9.3241,-0.0078,-0.0062,9.8066,-0.0241,0.0101,0.0012,-43.44,-26.87,18.94,323.91,-83.59,-147.59
45578,52.38098,-1.521436,150.79,14.22,2.0,116.21,24 / 26,135211,2019-09-07 10:29:28:365,0.3227,0.336,10.0131,0.0063,-0.0043,9.8066,0.001,0.0025,-0.0102,-43.19,-26.56,18.44,323.47,-83.58,-146.85
45579,52.38098,-1.521436,150.79,14.22,2.0,116.21,25 / 26,135310,2019-09-07 10:29:28:464,0.9233,0.3844,9.1175,-0.0015,-0.003,9.8066,-0.0194,-0.0119,-0.0287,-43.5,-27.0,18.44,323.4,-83.51,-146.89
45580,52.38098,-1.521436,150.79,14.22,2.0,116.21,25 / 26,135411,2019-09-07 10:29:28:565,-0.3957,0.1715,9.4274,-0.0072,0.0061,9.8066,-0.025,0.0282,-0.0064,-43.5,-26.69,17.63,324.39,-83.5,-145.96
45581,52.38098,-1.521436,150.79,14.22,2.0,116.21,25 / 26,135510,2019-09-07 10:29:28:664,-0.0817,0.5881,9.16,-0.0047,-0.003,9.8066,0.0137,0.0631,0.0134,-44.0,-26.44,17.69,324.97,-83.58,-145.09
45582,52.38098,-1.521436,150.79,14.22,2.0,116.21,25 / 26,135610,2019-09-07 10:29:28:764,-0.5824,-0.3785,10.6525,0.0062,0.001,9.8066,0.0386,0.0182,-0.0157,-43.31,-26.87,18.25,325.46,-83.6,-144.98
45583,52.38098,-1.521436,150.79,14.22,2.0,116.21,25 / 26,135710,2019-09-07 10:29:28:864,0.2573,0.2269,10.7177,0.0114,-0.0087,9.8065,0.0588,0.0915,0.0606,-43.5,-27.25,18.25,324.47,-83.37,-145.83
45584,52.38098,-1.521436,150.79,14.22,2.0,116.21,25 / 26,135810,2019-09-07 10:29:28:964,0.1632,0.3474,9.3132,0.0018,-0.0107,9.8066,-0.0073,0.0203,0.0109,-43.62,-26.56,18.5,324.81,-83.22,-146.15
45585,52.38098,-1.521436,150.79,14.22,2.0,116.21,25 / 26,135910,2019-09-07 10:29:29:064,0.0613,0.1318,9.8366,-0.0031,0.0057,9.8066,-0.0141,0.0164,-0.0108,-43.94,-26.19,18.5,325.15,-83.23,-145.92
45586,52.38098,-1.521436,150.79,14.22,2.0,116.21,25 / 26,136011,2019-09-07 10:29:29:165,0.6906,0.1674,9.2072,0.0067,0.0044,9.8066,-0.0021,0.0049,-0.0102,-43.19,-26.5,18.63,325.45,-83.31,-146.11
45587,52.38098,-1.521436,150.79,14.22,2.0,116.21,25 / 26,136110,2019-09-07 10:29:29:264,0.0877,-0.0513,9.088,0.0008,0.0046,9.8066,0.0072,0.0541,-0.0025,-43.31,-26.06,18.94,324.9,-83.3,-146.62
45588,52.38098,-1.521436,150.79,14.22,2.0,116.21,25 / 26,136210,2019-09-07 10:29:29:364,-0.1761,0.6218,9.3378,-0.0015,0.0039,9.8066,-0.0067,-0.01,-0.0312,-43.19,-26.5,19.19,324.79,-83.37,-146.75
45589,52.38049,-1.519507,148.75,14.7,2.0,107.83,25 / 26,136310,2019-09-07 10:29:29:464,0.0154,0.37,9.8864,-0.0033,-0.0038,9.8065,-0.0144,0.0097,0.0056,-42.94,-26.81,19.13,324.54,-83.38,-146.91
45590,52.38049,-1.519507,148.75,14.7,2.0,107.83,25 / 26,136410,2019-09-07 10:29:29:564,-0.3167,0.1974,9.6586,-0.0006,-0.001,9.8066,0.0086,0.0104,-0.0086,-43.44,-27.0,18.75,325.33,-83.39,-146.17
45591,52.38049,-1.519507,148.75,14.7,2.0,107.83,25 / 26,136511,2019-09-07 10:29:29:665,0.1179,0.0137,10.2057,0.008,0.0013,9.8066,0.0132,0.0604,0.0371,-43.69,-26.37,18.75,324.46,-83.31,-146.6
45592,52.38049,-1.519507,148.75,14.7,2.0,107.83,25 / 26,136610,2019-09-07 10:29:29:764,1.4378,-0.2109,9.2167,-0.0047,-0.0044,9.8066,-0.0231,0.0291,0.0125,-43.44,-26.75,19.63,326.52,-83.26,-146.12
45593,52.38049,-1.519507,148.75,14.7,2.0,107.83,25 / 26,136710,2019-09-07 10:29:29:864,-0.7668,0.2447,10.328,-0.0067,-0.0026,9.8066,-0.0086,0.0267,0.0031,-42.94,-26.37,19.19,326.7,-83.28,-144.92
45594,52.38049,-1.519507,148.75,14.7,2.0,107.83,25 / 26,136810,2019-09-07 10:29:29:964,-0.3106,0.3681,9.9611,-0.0012,0.001,9.8066,0.0341,0.0944,0.0386,-42.87,-26.37,19.19,327.5,-83.32,-144.18
45595,52.38049,-1.519507,148.75,14.7,2.0,107.83,25 / 26,136910,2019-09-07 10:29:30:064,-0.538,0.0177,9.9017,0.0012,-0.0052,9.8066,0.017,0.0247,0.0073,-43.12,-26.75,18.81,327.52,-83.26,-144.06
45596,52.38049,-1.519507,148.75,14.7,2.0,107.83,25 / 26,137011,2019-09-07 10:29:30:165,-0.5036,0.28,10.615,0.0014,-0.0061,9.8066,0.0034,0.0113,0.0003,-43.06,-26.62,18.69,327.34,-83.15,-144.19
45597,52.38049,-1.519507,148.75,14.7,2.0,107.83,25 / 26,137110,2019-09-07 10:29:30:264,0.1816,-0.0321,9.9902,0.0004,-0.0016,9.8066,-0.0064,0.0399,0.0135,-42.75,-26.69,19.44,327.27,-83.14,-144.25
45598,52.38049,-1.519507,148.75,14.7,2.0,107.83,25 / 26,137210,2019-09-07 10:29:30:364,-0.1389,0.1299,9.0823,-0.0005,0.0036,9.8066,-0.004,0.0476,0.0121,-43.06,-26.94,19.06,327.56,-83.16,-143.99
45599,52.38049,-1.519507,148.75,14.7,2.0,107.83,25 / 26,137311,2019-09-07 10:29:30:465,0.1338,0.0967,10.1259,0.0036,0.0006,9.8066,0.0171,0.0562,0.0131,-42.87,-27.12,18.44,326.17,-83.21,-144.16
45600,52.38049,-1.519507,148.75,14.7,2.0,107.83,25 / 26,137410,2019-09-07 10:29:30:564,-0.1303,-0.0886,10.5232,0.0031,-0.0006,9.8066,0.0113,0.0406,0.0079,-42.56,-26.75,18.63,327.16,-83.18,-144.37
45601,52.38049,-1.519507,148.75,14.7,2.0,107.83,25 / 26,137510,2019-09-07 10:29:30:664,-0.3632,-0.0067,9.5356,-0.0064,-0.0029,9.8066,0.0001,0.0148,0.0056,-43.06,-26.62,19.19,327.56,-83.18,-143.99
45602,52.38049,-1.519507,148.75,14.7,2.0,107.83,25 / 26,137610,2019-09-07 10:29:30:764,-0.0905,-0.0183,8.989,-0.0009,0.0013,9.8066,-0.0006,0.0417,0.0042,-42.12,-26.75,19.0,328.26,-83.17,-143.8
45603,52.38049,-1.519507,148.75,14.7,2.0,107.83,25 / 26,137711,2019-09-07 10:29:30:865,-0.1946,0.3643,8.8213,0.0008,-0.0029,9.8066,-0.0042,0.0216,-0.0035,-43.19,-26.62,18.5,327.87,-83.18,-143.7
45604,52.38049,-1.519507,148.75,14.7,2.0,107.83,25 / 26,137811,2019-09-07 10:29:30:965,-0.3535,0.2196,10.6536,-0.0004,-0.0027,9.8066,-0.0065,-0.003,-0.0283,-42.75,-26.87,18.75,328.28,-83.17,-143.31
45605,52.38049,-1.519507,148.75,14.7,2.0,107.83,25 / 26,137910,2019-09-07 10:29:31:064,-0.4085,0.2038,9.709,-0.0008,-0.001,9.8066,-0.002,0.0078,-0.028,-42.94,-26.87,18.0,327.27,-83.15,-143.12
45606,52.38049,-1.519507,148.75,14.7,2.0,107.83,25 / 26,138010,2019-09-07 10:29:31:164,-0.0083,-0.2676,10.3328,0.0006,0.0024,9.8066,0.0109,0.0551,0.0186,-43.0,-26.31,17.81,327.04,-83.14,-143.4
45607,52.38049,-1.519507,148.75,14.7,2.0,107.83,25 / 26,138114,2019-09-07 10:29:31:268,-0.1108,-0.2754,10.0937,-0.0041,-0.0055,9.8066,-0.021,0.0001,-0.0284,-42.81,-26.94,17.88,327.14,-83.14,-143.23
45608,52.38049,-1.519507,148.75,14.7,2.0,107.83,25 / 26,138210,2019-09-07 10:29:31:364,-0.2813,0.2247,10.1051,-0.0011,0.0051,9.8066,-0.0172,0.0099,-0.0105,-42.44,-26.69,18.19,327.63,-83.18,-143.23
45609,52.38049,-1.519507,148.75,14.7,2.0,107.83,25 / 26,138310,2019-09-07 10:29:31:464,0.1917,0.3871,9.7052,-0.0037,0.0046,9.8066,0.0006,0.038,0.0121,-42.69,-27.12,18.5,328.44,-83.28,-143.2
45610,52.38049,-1.519507,148.75,14.7,2.0,107.83,25 / 26,138410,2019-09-07 10:29:31:564,0.1081,0.2396,9.8598,0.0021,0.0005,9.8066,-0.0127,-0.0109,-0.0344,-42.94,-26.81,18.38,327.47,-83.28,-142.98
45611,52.38049,-1.519507,148.75,14.7,2.0,107.83,25 / 26,138510,2019-09-07 10:29:31:664,-0.4936,-0.001,10.5209,-0.0001,0.0046,9.8066,0.0147,0.0332,0.0068,-42.94,-27.0,18.13,327.28,-83.32,-143.16
45612,52.38049,-1.519507,148.75,14.7,2.0,107.83,25 / 26,138611,2019-09-07 10:29:31:765,-0.2377,-0.1707,9.6902,0.0032,-0.0036,9.8066,0.0143,0.0328,0.0016,-42.87,-26.5,18.25,327.36,-83.28,-143.15
45613,52.38049,-1.519507,148.75,14.7,2.0,107.83,25 / 26,138710,2019-09-07 10:29:31:864,-0.1199,-0.0795,8.9152,0.0007,0.0024,9.8066,-0.0062,0.0128,-0.0067,-43.0,-26.06,18.31,327.11,-83.24,-143.38
45614,52.38049,-1.519507,148.75,14.7,2.0,107.83,25 / 26,138810,2019-09-07 10:29:31:964,0.0602,0.483,9.4264,-0.0065,-0.0025,9.8066,-0.0275,-0.0069,-0.0282,-42.75,-25.12,17.88,327.28,-83.32,-143.32
45615,52.38049,-1.519507,148.75,14.7,2.0,107.83,25 / 26,138911,2019-09-07 10:29:32:065,-0.7468,0.3211,9.7165,0.004,0.0065,9.8066,0.0275,0.0744,0.0122,-41.5,-25.44,18.13,328.28,-83.4,-143.31
45616,52.38049,-1.519507,148.75,14.7,2.0,107.83,25 / 26,139010,2019-09-07 10:29:32:164,-0.0585,0.2711,10.1919,0.0004,0.0022,9.8066,-0.0038,0.0262,0.0066,-41.44,-25.25,17.63,328.01,-83.36,-143.55
45617,52.38049,-1.519507,148.75,14.7,2.0,107.83,25 / 26,139110,2019-09-07 10:29:32:264,-0.1102,0.0687,9.9393,0.0025,-0.0036,9.8066,0.0171,0.0291,-0.0047,-42.44,-26.56,17.0,326.13,-83.32,-143.51
45618,52.38049,-1.519507,148.75,14.7,2.0,107.83,25 / 26,139210,2019-09-07 10:29:32:364,-0.326,0.1138,9.7003,0.0044,-0.0038,9.8066,-0.0178,0.016,0.0162,-41.94,-26.19,16.94,325.95,-83.25,-143.73
45619,52.38049,-1.519507,148.75,14.7,2.0,107.83,26 / 27,139310,2019-09-07 10:29:32:464,-0.2201,0.0934,9.8401,-0.011,0.0009,9.8066,-0.0073,0.0731,0.0417,-42.62,-26.56,17.31,326.54,-83.33,-142.7
45620,52.38049,-1.519507,148.75,14.7,2.0,107.83,26 / 27,139410,2019-09-07 10:29:32:564,-0.0775,0.313,9.1329,-0.0041,0.0076,9.8066,0.0108,0.056,0.0207,-42.56,-26.44,17.31,327.59,-83.34,-141.8
45621,52.38049,-1.519507,148.75,14.7,2.0,107.83,26 / 27,139510,2019-09-07 10:29:32:664,-0.6587,0.0724,9.7973,0.0031,-0.0013,9.8065,0.0207,0.0247,-0.0151,-42.94,-27.44,17.31,327.23,-83.38,-142.07
45622,52.38049,-1.519507,148.75,14.7,2.0,107.83,26 / 27,139610,2019-09-07 10:29:32:764,0.4793,-0.0433,9.9424,0.0123,-0.0057,9.8066,0.0564,0.1104,0.0491,-43.25,-27.44,17.13,325.91,-83.26,-143.27
45623,52.38049,-1.519507,148.75,14.7,2.0,107.83,26 / 27,139710,2019-09-07 10:29:32:864,0.4198,-0.2306,9.1205,0.0002,-0.0015,9.8066,-0.0072,0.0043,-0.0145,-42.37,-27.44,17.38,326.34,-83.19,-143.26
45624,52.38049,-1.519507,148.75,14.7,2.0,107.83,26 / 27,139810,2019-09-07 10:29:32:964,-0.0008,0.1908,10.134,-0.0033,-0.0001,9.8066,-0.0377,-0.0486,-0.0602,-42.81,-27.5,17.13,325.89,-83.25,-143.29
45625,52.38049,-1.519507,148.75,14.7,2.0,107.83,26 / 27,139910,2019-09-07 10:29:33:064,0.1946,0.2587,9.2745,-0.0084,0.0067,9.8066,-0.0254,-0.0084,-0.0107,-43.0,-27.12,17.81,327.61,-83.36,-142.87
45626,52.38049,-1.519507,148.75,14.7,2.0,107.83,26 / 27,140010,2019-09-07 10:29:33:164,-0.4414,0.2615,9.7428,-0.0052,0.0015,9.8066,-0.0068,0.0363,0.0122,-42.81,-27.06,17.25,326.69,-83.46,-142.61
45627,52.38049,-1.519507,148.75,14.7,2.0,107.83,26 / 27,140114,2019-09-07 10:29:33:268,0.1563,-0.202,10.2812,-0.0014,-0.0001,9.8066,-0.0054,0.0088,-0.0163,-42.62,-26.81,17.56,328.4,-83.52,-142.19
45628,52.38049,-1.519507,148.75,14.7,2.0,107.83,26 / 27,140210,2019-09-07 10:29:33:364,0.1,-0.0247,10.1647,0.0045,-0.0024,9.8066,0.0062,-0.0185,-0.038,-42.87,-26.87,17.69,328.16,-83.51,-142.4
45629,52.38049,-1.519507,148.75,14.7,2.0,107.83,25 / 27,140310,2019-09-07 10:29:33:464,0.0442,-0.0522,9.0844,0.0039,-0.0017,9.8066,0.0084,0.0011,0.0111,-42.5,-26.69,17.19,326.71,-83.43,-143.0
45630,52.38049,-1.519507,148.75,14.7,2.0,107.83,25 / 27,140410,2019-09-07 10:29:33:564,-0.1421,-0.1906,10.5068,-0.0033,0.0021,9.8066,-0.0157,-0.0205,-0.0292,-43.25,-26.56,17.5,327.73,-83.41,-142.77
45631,52.38049,-1.519507,148.75,14.7,2.0,107.83,25 / 27,140510,2019-09-07 10:29:33:664,-0.3248,0.2425,9.6354,0.0038,0.0023,9.8066,-0.0019,-0.0156,-0.0435,-43.0,-27.44,17.13,326.57,-83.45,-142.72
45632,52.38049,-1.519507,148.75,14.7,2.0,107.83,25 / 27,140611,2019-09-07 10:29:33:765,0.3926,-0.1971,9.9882,-0.0014,0.0058,9.8066,0.0054,0.0416,0.0128,-43.37,-27.81,17.56,326.95,-83.5,-143.47
45633,52.38049,-1.519507,148.75,14.7,2.0,107.83,25 / 27,140710,2019-09-07 10:29:33:864,0.088,0.0825,10.0284,0.0025,0.0036,9.8066,0.0221,0.0816,0.0228,-43.06,-27.5,17.75,326.57,-83.56,-143.92
45634,52.38049,-1.519507,148.75,14.7,2.0,107.83,25 / 27,140810,2019-09-07 10:29:33:964,-0.0902,-0.1139,9.5504,0.0017,-0.0029,9.8066,-0.0036,0.0096,-0.0193,-42.75,-27.5,17.06,324.81,-83.49,-144.39
45635,52.38049,-1.519507,148.75,14.7,2.0,107.83,25 / 27,140911,2019-09-07 10:29:34:065,0.4282,0.7357,10.2727,0.0017,0.0002,9.8066,-0.0279,-0.0062,-0.0093,-42.75,-27.31,17.19,324.57,-83.5,-144.62
45636,52.38049,-1.519507,148.75,14.7,2.0,107.83,25 / 27,141010,2019-09-07 10:29:34:164,-0.4452,-0.4298,10.7513,-0.0012,0.0047,9.8066,0.006,0.0431,-0.0066,-42.75,-27.5,16.88,325.03,-83.6,-144.23
45637,52.38049,-1.519507,148.75,14.7,2.0,107.83,25 / 27,141110,2019-09-07 10:29:34:264,-0.7058,0.2118,10.4241,0.011,0.0069,9.8066,0.0295,0.0331,-0.0153,-42.44,-27.31,17.0,324.44,-83.63,-145.22
45638,52.38049,-1.519507,148.75,14.7,2.0,107.83,25 / 27,141211,2019-09-07 10:29:34:365,-0.3657,-0.2471,10.2702,0.0041,0.0024,9.8066,0.001,0.0137,-0.0318,-42.87,-27.31,17.38,322.87,-83.62,-146.28
45639,52.38049,-1.519507,148.75,14.7,2.0,107.83,25 / 26,141310,2019-09-07 10:29:34:464,-0.2481,0.2809,8.6892,-0.0044,0.0172,9.8066,-0.0259,0.0308,-0.0206,-42.81,-27.37,17.75,323.07,-83.76,-147.31
45640,52.38049,-1.519507,148.75,14.7,2.0,107.83,25 / 26,141410,2019-09-07 10:29:34:564,-0.621,-0.0274,9.3796,-0.0085,0.0019,9.8066,-0.0149,0.0323,0.0182,-42.25,-27.19,17.31,322.66,-83.88,-147.01
45641,52.38049,-1.519507,148.75,14.7,2.0,107.83,25 / 26,141511,2019-09-07 10:29:34:665,-0.267,0.2896,10.154,-0.0003,0.0028,9.8066,0.0095,0.0345,0.0327,-42.87,-27.12,17.13,322.53,-83.91,-146.73
45642,52.38049,-1.519507,148.75,14.7,2.0,107.83,25 / 26,141610,2019-09-07 10:29:34:764,-1.7447,0.0855,11.0922,0.0022,-0.011,9.8066,0.0077,-0.0132,0.0018,-43.25,-26.94,16.63,323.4,-83.8,-145.85
45643,52.38049,-1.519507,148.75,14.7,2.0,107.83,25 / 26,141711,2019-09-07 10:29:34:865,-0.3364,-0.0207,9.408,0.0016,-0.0015,9.8066,0.0208,0.0284,0.0359,-43.25,-27.31,17.75,325.21,-83.66,-145.24
45644,52.38049,-1.519507,148.75,14.7,2.0,107.83,25 / 26,141810,2019-09-07 10:29:34:964,-0.8854,0.3528,8.9743,-0.0024,-0.0089,9.8066,-0.0331,-0.0079,-0.0009,-42.69,-27.5,16.81,324.5,-83.6,-144.74
45645,52.38049,-1.519507,148.75,14.7,2.0,107.83,25 / 26,141910,2019-09-07 10:29:35:064,-0.8123,0.1801,9.8767,-0.0078,-0.0049,9.8066,-0.0277,-0.0233,-0.0142,-43.12,-26.44,17.06,325.76,-83.61,-143.63
45646,52.38049,-1.519507,148.75,14.7,2.0,107.83,25 / 26,142010,2019-09-07 10:29:35:164,-0.8116,0.2061,10.0297,-0.0057,-0.0024,9.8066,-0.0035,0.0067,0.0219,-43.0,-27.19,17.13,326.35,-83.62,-142.99
45647,52.38049,-1.519507,148.75,14.7,2.0,107.83,25 / 26,142110,2019-09-07 10:29:35:264,-1.0245,0.0213,8.9793,-0.0044,-0.0047,9.8066,0.002,-0.0036,-0.0073,-42.62,-27.19,16.81,327.4,-83.62,-142.0
45648,52.38049,-1.519507,148.75,14.7,2.0,107.83,25 / 26,142210,2019-09-07 10:29:35:364,-0.819,-0.1163,10.3979,0.0017,-0.0041,9.8066,0.0094,0.0048,-0.0036,-42.94,-27.12,16.75,327.45,-83.59,-141.94
45649,52.38049,-1.519507,148.75,14.7,2.0,107.83,26 / 27,142310,2019-09-07 10:29:35:464,-1.2302,-0.5439,10.285,0.0014,-0.0026,9.8066,-0.0039,-0.0051,-0.0033,-43.19,-27.87,17.13,327.25,-83.52,-142.03
45650,52.38049,-1.519507,148.75,14.7,2.0,107.83,26 / 27,142410,2019-09-07 10:29:35:564,-0.9286,0.047,9.9172,0.0075,0.004,9.8066,0.0157,0.001,-0.0095,-42.44,-26.87,16.75,327.36,-83.49,-142.42
45651,52.38049,-1.519507,148.75,14.7,2.0,107.83,26 / 27,142510,2019-09-07 10:29:35:664,-1.2581,0.1233,10.0609,0.0069,0.0015,9.8066,0.0111,-0.0105,-0.0139,-43.31,-27.31,16.69,326.28,-83.46,-143.0
45652,52.38049,-1.519507,148.75,14.7,2.0,107.83,26 / 27,142611,2019-09-07 10:29:35:765,-0.6308,-0.0754,9.7845,-0.0015,-0.002,9.8066,0.0158,0.0254,0.0157,-42.62,-27.44,17.31,325.95,-83.41,-143.29
45653,52.38049,-1.519507,148.75,14.7,2.0,107.83,26 / 27,142710,2019-09-07 10:29:35:864,-1.0965,0.2952,9.6352,0.0003,0.0061,9.8066,0.001,-0.002,-0.0029,-42.62,-26.81,17.5,327.08,-83.45,-143.4
45654,52.38049,-1.519507,148.75,14.7,2.0,107.83,26 / 27,142810,2019-09-07 10:29:35:964,-0.5817,0.1955,9.6289,-0.002,-0.0049,9.8066,-0.0099,-0.0042,-0.0027,-42.87,-27.06,17.44,325.78,-83.46,-143.47
45655,52.38049,-1.519507,148.75,14.7,2.0,107.83,26 / 27,142911,2019-09-07 10:29:36:065,-0.9383,0.254,9.8393,-0.0009,0.0,9.8066,0.0083,0.0441,0.0205,-43.0,-26.69,17.19,326.47,-83.46,-142.82
45656,52.38049,-1.519507,148.75,14.7,2.0,107.83,26 / 27,143010,2019-09-07 10:29:36:164,-1.3517,0.2985,9.9296,-0.0049,-0.0039,9.8066,0.0046,0.011,0.0041,-43.25,-26.81,16.69,326.86,-83.45,-142.45
45657,52.38049,-1.519507,148.75,14.7,2.0,107.83,26 / 27,143111,2019-09-07 10:29:36:265,-1.4733,0.1484,9.7133,-0.0061,0.0049,9.8066,-0.0266,-0.034,-0.0119,-43.37,-26.62,17.0,327.08,-83.46,-142.24
45658,52.38049,-1.519507,148.75,14.7,2.0,107.83,26 / 27,143210,2019-09-07 10:29:36:364,-1.3058,0.1032,10.0758,-0.0031,0.0026,9.8066,0.0023,0.04,0.0168,-43.37,-26.81,16.75,327.56,-83.51,-141.82
45659,52.38049,-1.519507,148.75,14.7,2.0,107.83,25 / 27,143310,2019-09-07 10:29:36:464,-1.5477,0.4102,9.6714,0.0006,0.0072,9.8066,-0.0051,0.0106,-0.0193,-42.62,-26.19,16.88,327.72,-83.64,-141.78
45660,52.38049,-1.519507,148.75,14.7,2.0,107.83,25 / 27,143410,2019-09-07 10:29:36:564,-0.3263,0.0964,8.8114,-0.0018,0.0057,9.8066,-0.0369,-0.0262,-0.0397,-43.06,-26.37,17.13,327.66,-83.7,-141.86
45661,52.38049,-1.519507,148.75,14.7,2.0,107.83,25 / 27,143512,2019-09-07 10:29:36:666,-0.5182,0.4801,9.1298,-0.0002,0.0041,9.8066,-0.0003,0.0281,0.0025,-42.81,-25.87,16.56,327.11,-83.79,-142.41
45662,52.38049,-1.519507,148.75,14.7,2.0,107.83,25 / 27,143610,2019-09-07 10:29:36:764,-0.7155,0.2582,9.6463,-0.0083,0.0085,9.8066,-0.0258,-0.0172,-0.0287,-42.81,-25.31,16.81,327.49,-83.89,-142.15
45663,52.38049,-1.519507,148.75,14.7,2.0,107.83,25 / 27,143710,2019-09-07 10:29:36:864,-1.9009,0.4996,10.0053,0.0056,0.0062,9.8066,-0.0065,-0.04,-0.0681,-42.69,-25.5,17.06,327.01,-84.08,-142.68
45664,52.38049,-1.519507,148.75,14.7,2.0,107.83,25 / 27,143810,2019-09-07 10:29:36:964,-0.8924,0.5123,9.4884,0.0149,-0.0031,9.8066,0.0313,0.0001,-0.0048,-42.25,-25.94,16.81,325.35,-83.98,-144.58
45665,52.38049,-1.519507,148.75,14.7,2.0,107.83,25 / 27,143910,2019-09-07 10:29:37:064,-1.5207,0.6692,9.2039,-0.0001,0.0007,9.8066,-0.0028,0.0116,0.0,-42.56,-26.75,17.0,323.95,-83.9,-145.37
45666,52.38049,-1.519507,148.75,14.7,2.0,107.83,25 / 27,144010,2019-09-07 10:29:37:164,-1.1762,0.3478,9.7829,-0.0098,0.0028,9.8066,-0.0261,0.0078,0.002,-42.87,-26.44,16.94,324.73,-83.96,-144.73
45667,52.38049,-1.519507,148.75,14.7,2.0,107.83,25 / 27,144110,2019-09-07 10:29:37:264,-1.2517,0.0494,10.0802,-0.0103,0.0029,9.8066,-0.0326,-0.0322,-0.0198,-42.5,-26.81,17.06,326.02,-84.08,-143.9
45668,52.38049,-1.519507,148.75,14.7,2.0,107.83,25 / 27,144210,2019-09-07 10:29:37:364,-1.5669,0.7751,8.8146,-0.0021,0.0017,9.8066,-0.0163,-0.0422,-0.0323,-42.56,-26.44,16.31,325.37,-84.13,-143.01
45669,52.38049,-1.519507,148.75,14.7,2.0,107.83,24 / 26,144311,2019-09-07 10:29:37:465,-1.0928,0.0999,10.3279,0.0011,-0.009,9.8066,0.0101,0.0227,0.0118,-42.44,-26.81,17.19,327.37,-84.04,-142.62
45670,52.38049,-1.519507,148.75,14.7,2.0,107.83,24 / 26,144410,2019-09-07 10:29:37:564,-0.9471,0.2358,10.2357,-0.0072,0.0002,9.8066,-0.0145,0.0151,0.0069,-42.62,-27.19,17.19,327.33,-84.05,-142.23
45671,52.38049,-1.519507,148.75,14.7,2.0,107.83,24 / 26,144510,2019-09-07 10:29:37:664,-1.1843,0.4176,10.2472,0.0003,0.0012,9.8066,-0.0013,-0.0052,-0.0152,-43.0,-26.94,16.81,328.09,-84.08,-141.52
45672,52.38049,-1.519507,148.75,14.7,2.0,107.83,24 / 26,144610,2019-09-07 10:29:37:764,-1.374,0.0608,9.6351,-0.0014,-0.0074,9.8066,0.0132,0.0219,0.0163,-43.31,-27.06,17.0,328.45,-84.0,-141.15
45673,52.38049,-1.519507,148.75,14.7,2.0,107.83,24 / 26,144710,2019-09-07 10:29:37:864,-0.8815,0.4654,10.3719,0.0029,0.0014,9.8066,0.0169,0.0326,0.008,-43.25,-26.5,16.75,328.42,-83.98,-141.24
45674,52.38049,-1.519507,148.75,14.7,2.0,107.83,24 / 26,144810,2019-09-07 10:29:37:964,-1.5069,0.3232,10.1116,-0.0003,-0.0009,9.8066,0.011,0.0246,-0.0044,-42.87,-27.25,16.5,328.11,-83.96,-141.46
45675,52.38049,-1.519507,148.75,14.7,2.0,107.83,24 / 26,144910,2019-09-07 10:29:38:064,-1.6244,0.5296,10.4977,-0.0046,-0.0016,9.8066,-0.0015,0.0345,0.034,-42.87,-26.69,16.56,328.37,-83.95,-141.21
45676,52.38049,-1.519507,148.75,14.7,2.0,107.83,24 / 26,145010,2019-09-07 10:29:38:164,-1.6222,0.7448,9.8256,-0.0014,0.0004,9.8066,0.0086,0.0019,-0.0119,-42.81,-27.62,16.56,328.73,-83.99,-140.81
45677,52.38049,-1.519507,148.75,14.7,2.0,107.83,24 / 26,145111,2019-09-07 10:29:38:265,-0.9825,0.1558,10.3398,0.0066,-0.0013,9.8066,0.0053,-0.0209,-0.0381,-43.12,-27.62,16.81,328.46,-83.96,-141.06
45678,52.38049,-1.519507,148.75,14.7,2.0,107.83,24 / 26,145210,2019-09-07 10:29:38:364,-1.1424,0.567,10.1238,-0.0006,-0.0031,9.8066,0.0034,0.0223,0.0235,-43.31,-27.5,16.81,328.27,-83.92,-141.29
45679,52.38018,-1.517701,146.24,10.29,2.0,103.6,25 / 26,145310,2019-09-07 10:29:38:464,-1.1725,0.2771,9.7062,-0.0025,-0.0006,9.8066,-0.0096,0.0061,-0.0012,-43.31,-27.56,16.56,328.65,-83.92,-140.87
45680,52.38018,-1.517701,146.24,10.29,2.0,103.6,25 / 26,145410,2019-09-07 10:29:38:564,-1.7403,0.1015,9.9657,-0.0056,-0.0066,9.8066,-0.0019,0.0054,-0.0094,-43.37,-28.37,15.63,328.36,-83.96,-139.97
45681,52.38018,-1.517701,146.24,10.29,2.0,103.6,25 / 26,145511,2019-09-07 10:29:38:665,-1.5651,0.5059,10.1009,-0.0028,0.0003,9.8066,0.0006,0.0259,0.0131,-42.81,-28.37,16.31,329.01,-83.97,-139.36
45682,52.38018,-1.517701,146.24,10.29,2.0,103.6,25 / 26,145611,2019-09-07 10:29:38:765,-2.0658,0.1895,9.0468,-0.0097,0.0042,9.8066,-0.051,-0.033,-0.0545,-42.12,-28.87,17.56,332.87,-84.05,-138.48
45683,52.38018,-1.517701,146.24,10.29,2.0,103.6,25 / 26,145710,2019-09-07 10:29:38:864,-1.7017,0.7914,9.909,-0.022,0.0175,9.8066,-0.0743,-0.036,-0.0362,-42.69,-28.37,16.69,332.69,-84.28,-137.18
45684,52.38018,-1.517701,146.24,10.29,2.0,103.6,25 / 26,145811,2019-09-07 10:29:38:965,-1.9008,0.2558,10.479,-0.0075,0.0044,9.8066,0.0224,0.018,-0.0254,-42.25,-28.0,17.0,334.77,-84.44,-135.7
45685,52.38018,-1.517701,146.24,10.29,2.0,103.6,25 / 26,145910,2019-09-07 10:29:39:064,-1.488,0.8437,10.2698,0.0223,-0.0039,9.8065,0.0331,-0.0682,-0.0843,-42.44,-27.12,17.25,333.41,-84.37,-137.01
45686,52.38018,-1.517701,146.24,10.29,2.0,103.6,25 / 26,146010,2019-09-07 10:29:39:164,-0.5278,0.3526,10.0465,0.0145,-0.0076,9.8065,0.0379,0.023,0.0274,-42.56,-27.31,17.0,330.71,-84.17,-139.07
45687,52.38018,-1.517701,146.24,10.29,2.0,103.6,25 / 26,146110,2019-09-07 10:29:39:264,-0.8255,0.5239,10.0959,0.0043,-0.0161,9.8065,0.0096,0.0308,0.038,-42.69,-27.5,16.88,330.12,-83.95,-139.55
45688,52.38018,-1.517701,146.24,10.29,2.0,103.6,25 / 26,146210,2019-09-07 10:29:39:364,-1.3493,0.0473,10.1521,-0.0031,-0.0041,9.8066,-0.0071,0.0149,0.0088,-42.69,-27.62,17.44,331.51,-83.84,-138.15
45689,52.38018,-1.517701,146.24,10.29,2.0,103.6,24 / 26,146311,2019-09-07 10:29:39:465,-1.1369,0.5888,9.7225,-0.0007,-0.0059,9.8066,-0.0052,-0.0036,0.0092,-42.5,-26.62,17.0,332.26,-83.85,-137.94
45690,52.38018,-1.517701,146.24,10.29,2.0,103.6,24 / 26,146410,2019-09-07 10:29:39:564,-1.0577,-0.1225,9.5497,-0.0042,0.001,9.8066,-0.0034,0.0179,0.0026,-42.69,-27.62,17.81,333.78,-83.77,-137.15
45691,52.38018,-1.517701,146.24,10.29,2.0,103.6,24 / 26,146511,2019-09-07 10:29:39:665,-1.2032,0.3077,9.6602,-0.0019,0.0002,9.8066,-0.009,0.0226,0.0216,-43.37,-27.12,17.44,332.98,-83.8,-136.81
45692,52.38018,-1.517701,146.24,10.29,2.0,103.6,24 / 26,146610,2019-09-07 10:29:39:764,-1.4815,0.055,9.9418,-0.0056,0.0014,9.8066,-0.0216,-0.0375,-0.0297,-42.94,-27.56,17.19,333.74,-83.81,-136.04
45693,52.38018,-1.517701,146.24,10.29,2.0,103.6,24 / 26,146711,2019-09-07 10:29:39:865,-1.2511,0.5604,9.5331,0.005,-0.0028,9.8066,0.0151,0.02,0.0163,-42.69,-27.19,17.13,333.82,-83.82,-136.03
45694,52.38018,-1.517701,146.24,10.29,2.0,103.6,24 / 26,146810,2019-09-07 10:29:39:964,-1.2047,-0.1101,10.647,0.0042,0.0003,9.8066,0.0018,-0.0215,-0.0412,-43.12,-27.19,17.56,334.69,-83.81,-136.36
45695,52.38018,-1.517701,146.24,10.29,2.0,103.6,24 / 26,146910,2019-09-07 10:29:40:064,-0.8993,0.2149,10.1632,0.0045,0.0038,9.8066,0.0036,-0.0086,-0.0211,-42.81,-27.0,17.13,332.76,-83.81,-137.02
45696,52.38018,-1.517701,146.24,10.29,2.0,103.6,24 / 26,147010,2019-09-07 10:29:40:164,-0.7554,0.6327,9.8736,-0.0032,-0.0064,9.8066,0.0079,0.0286,0.0276,-43.0,-27.25,17.5,333.74,-83.83,-137.26
45697,52.38018,-1.517701,146.24,10.29,2.0,103.6,24 / 26,147110,2019-09-07 10:29:40:264,-1.2147,-0.1974,10.0869,-0.0036,0.0025,9.8066,0.001,0.0127,-0.0179,-43.56,-27.44,17.13,332.73,-83.83,-136.64
45698,52.38018,-1.517701,146.24,10.29,2.0,103.6,24 / 26,147210,2019-09-07 10:29:40:364,-0.9869,0.1847,10.0936,-0.0032,0.0026,9.8066,-0.0049,0.002,-0.0049,-42.81,-27.06,17.31,332.91,-83.9,-136.91
45699,52.38018,-1.517701,146.24,10.29,2.0,103.6,24 / 26,147310,2019-09-07 10:29:40:464,-1.355,0.2679,9.8934,-0.0051,0.0008,9.8066,-0.0027,0.0184,0.0083,-43.37,-27.06,16.75,333.55,-83.96,-136.33
45700,52.38018,-1.517701,146.24,10.29,2.0,103.6,24 / 26,147410,2019-09-07 10:29:40:564,-1.1947,0.3926,9.7209,-0.0019,-0.002,9.8066,-0.003,-0.0148,-0.0086,-42.94,-27.0,17.19,333.95,-84.01,-135.97
45701,52.38018,-1.517701,146.24,10.29,2.0,103.6,24 / 26,147510,2019-09-07 10:29:40:664,-1.0071,0.0294,9.8936,-0.0043,-0.0033,9.8065,-0.0006,0.0101,-0.0009,-43.31,-27.06,17.5,335.78,-83.99,-135.39
45702,52.38018,-1.517701,146.24,10.29,2.0,103.6,24 / 26,147611,2019-09-07 10:29:40:765,-1.2039,0.3535,9.8277,0.0001,-0.0032,9.8066,0.007,-0.0167,-0.007,-43.56,-27.0,17.25,334.3,-84.02,-135.21
45703,52.38018,-1.517701,146.24,10.29,2.0,103.6,24 / 26,147710,2019-09-07 10:29:40:864,-1.0552,0.2981,10.157,-0.0057,-0.0071,9.8066,-0.0106,-0.007,0.0027,-42.75,-27.44,17.5,336.89,-83.94,-134.33
45704,52.38018,-1.517701,146.24,10.29,2.0,103.6,24 / 26,147810,2019-09-07 10:29:40:964,-0.9386,0.179,9.9932,-0.0031,0.0014,9.8066,-0.0103,-0.0214,-0.0149,-43.62,-26.5,17.44,336.02,-83.95,-133.63
45705,52.38018,-1.517701,146.24,10.29,2.0,103.6,24 / 26,147911,2019-09-07 10:29:41:065,-0.9594,0.3209,9.7366,-0.006,-0.0071,9.8066,-0.0065,0.0119,0.0242,-43.94,-26.75,17.19,337.0,-83.92,-132.65
45706,52.38018,-1.517701,146.24,10.29,2.0,103.6,24 / 26,148010,2019-09-07 10:29:41:164,-1.5183,0.1195,9.7648,-0.0092,-0.0007,9.8066,-0.0137,-0.0039,0.0038,-42.81,-26.94,17.69,339.83,-83.9,-131.56
45707,52.38018,-1.517701,146.24,10.29,2.0,103.6,24 / 26,148110,2019-09-07 10:29:41:264,-1.2737,0.4084,10.1239,-0.0079,-0.0022,9.8066,-0.004,0.0101,0.0168,-43.44,-26.62,17.94,341.34,-83.93,-130.16
45708,52.38018,-1.517701,146.24,10.29,2.0,103.6,24 / 26,148210,2019-09-07 10:29:41:364,-1.456,0.2487,10.2221,-0.0054,-0.0053,9.8066,0.002,0.0042,0.0134,-43.31,-26.37,17.69,342.27,-83.93,-129.32
45709,52.38018,-1.517701,146.24,10.29,2.0,103.6,25 / 27,148310,2019-09-07 10:29:41:464,-1.3678,0.356,9.8612,0.0027,0.0023,9.8066,0.0123,0.0181,-0.0065,-43.5,-26.69,17.63,342.53,-83.91,-129.03
45710,52.38018,-1.517701,146.24,10.29,2.0,103.6,25 / 27,148410,2019-09-07 10:29:41:564,-1.1962,0.6478,9.4583,-0.0028,0.0021,9.8066,0.0079,0.0298,0.0208,-43.44,-26.44,17.44,341.02,-83.94,-129.35
45711,52.38018,-1.517701,146.24,10.29,2.0,103.6,25 / 27,148510,2019-09-07 10:29:41:664,-1.403,0.4209,10.4879,-0.0057,-0.0029,9.8065,-0.002,-0.0008,-0.0005,-43.5,-25.44,18.31,343.11,-83.97,-128.58
45712,52.38018,-1.517701,146.24,10.29,2.0,103.6,25 / 27,148610,2019-09-07 10:29:41:764,-0.8373,0.0941,10.5617,-0.0041,0.0002,9.8066,-0.0028,0.023,0.0085,-43.31,-25.06,18.25,343.81,-83.98,-127.92
45713,52.38018,-1.517701,146.24,10.29,2.0,103.6,25 / 27,148710,2019-09-07 10:29:41:864,-1.265,0.2428,9.9498,0.0008,0.0025,9.8065,0.0177,0.0379,0.0019,-43.62,-24.62,18.56,344.54,-84.02,-127.9
45714,52.38018,-1.517701,146.24,10.29,2.0,103.6,25 / 27,148810,2019-09-07 10:29:41:964,-0.758,0.3286,9.9413,-0.0025,0.0089,9.8066,-0.0158,-0.0255,-0.0364,-42.75,-24.0,17.81,343.47,-84.09,-128.3
45715,52.38018,-1.517701,146.24,10.29,2.0,103.6,25 / 27,148911,2019-09-07 10:29:42:065,-1.1498,0.4096,10.2489,-0.0007,0.0016,9.8066,0.0136,0.0035,-0.0108,-42.44,-24.56,16.63,342.86,-84.17,-128.14
45716,52.38018,-1.517701,146.24,10.29,2.0,103.6,25 / 27,149010,2019-09-07 10:29:42:164,-1.1722,0.3263,10.0858,0.0029,0.0035,9.8065,0.009,-0.0071,-0.0257,-41.69,-25.37,15.06,339.92,-84.2,-128.53
45717,52.38018,-1.517701,146.24,10.29,2.0,103.6,25 / 27,149111,2019-09-07 10:29:42:265,-1.1546,0.2709,9.7438,0.0002,-0.0053,9.8066,0.0078,0.0013,0.0042,-40.69,-27.0,14.63,339.83,-84.17,-128.93
45718,52.38018,-1.517701,146.24,10.29,2.0,103.6,25 / 27,149211,2019-09-07 10:29:42:365,-1.1884,0.1482,9.593,-0.0016,0.0054,9.8066,0.0071,0.033,-0.0081,-39.81,-29.5,14.31,339.02,-84.21,-128.76
45719,52.38018,-1.517701,146.24,10.29,2.0,103.6,26 / 27,149310,2019-09-07 10:29:42:464,-0.921,0.3891,9.8647,0.0037,0.008,9.8066,0.0008,-0.0028,-0.0195,-39.44,-30.31,14.88,340.02,-84.3,-129.52
45720,52.38018,-1.517701,146.24,10.29,2.0,103.6,26 / 27,149410,2019-09-07 10:29:42:564,-0.8527,0.3352,9.8795,-0.0016,0.0024,9.8066,0.0075,0.0146,0.0043,-39.0,-31.06,14.69,339.91,-84.32,-129.59
45721,52.38018,-1.517701,146.24,10.29,2.0,103.6,26 / 27,149510,2019-09-07 10:29:42:664,-1.0215,0.3777,9.7521,-0.0047,-0.0003,9.8066,-0.0074,0.011,0.0058,-39.31,-31.69,15.31,340.09,-84.36,-129.39
45722,52.38018,-1.517701,146.24,10.29,2.0,103.6,26 / 27,149610,2019-09-07 10:29:42:764,-1.277,0.3048,10.1742,-0.008,-0.0025,9.8066,-0.0078,0.0063,-0.0012,-39.0,-32.69,15.94,343.16,-84.39,-127.8
45723,52.38018,-1.517701,146.24,10.29,2.0,103.6,26 / 27,149710,2019-09-07 10:29:42:864,-1.2495,0.3216,10.3067,0.0021,0.0033,9.8066,0.022,0.0083,-0.0001,-39.12,-32.0,16.0,343.14,-84.42,-127.86
45724,52.38018,-1.517701,146.24,10.29,2.0,103.6,26 / 27,149810,2019-09-07 10:29:42:964,-0.9607,0.2919,9.7194,0.0066,-0.002,9.8066,0.0217,0.0075,-0.0132,-39.0,-32.12,17.31,343.68,-84.4,-128.62
45725,52.38018,-1.517701,146.24,10.29,2.0,103.6,26 / 27,149910,2019-09-07 10:29:43:064,-0.6505,0.243,9.6944,0.0016,0.0035,9.8066,-0.0106,-0.0007,-0.0096,-38.75,-31.19,16.81,342.9,-84.39,-129.38
45726,52.38018,-1.517701,146.24,10.29,2.0,103.6,26 / 27,150010,2019-09-07 10:29:43:164,-0.9117,0.2315,9.942,-0.0046,0.0039,9.8066,-0.0127,-0.0025,-0.0184,-38.87,-31.31,17.13,343.38,-84.45,-128.94
45727,52.38018,-1.517701,146.24,10.29,2.0,103.6,26 / 27,150110,2019-09-07 10:29:43:264,-1.0032,0.4669,10.0448,-0.0024,-0.0003,9.8066,0.012,0.0,0.0021,-38.69,-31.44,18.0,345.31,-84.5,-128.39
45728,52.38018,-1.517701,146.24,10.29,2.0,103.6,26 / 27,150210,2019-09-07 10:29:43:364,-0.6732,0.1963,9.8879,-0.0026,-0.0019,9.8066,-0.0002,0.0029,0.0012,-39.31,-31.31,18.13,345.36,-84.51,-128.35
45729,52.38018,-1.517701,146.24,10.29,2.0,103.6,24 / 25,150310,2019-09-07 10:29:43:464,-0.9112,0.1547,9.9458,-0.0069,0.0014,9.8066,-0.0216,-0.0082,-0.0104,-39.0,-31.06,17.13,344.88,-84.52,-127.57
45730,52.38018,-1.517701,146.24,10.29,2.0,103.6,24 / 25,150410,2019-09-07 10:29:43:564,-0.8158,0.1882,10.1609,-0.0084,0.0041,9.8066,-0.0129,-0.0004,-0.0013,-38.62,-31.0,17.69,347.35,-84.55,-126.51
45731,52.38018,-1.517701,146.24,10.29,2.0,103.6,24 / 25,150510,2019-09-07 10:29:43:664,-0.793,0.0645,9.9036,-0.0058,0.0028,9.8066,-0.007,-0.0041,-0.0117,-39.31,-31.06,18.0,348.34,-84.61,-125.6
45732,52.38018,-1.517701,146.24,10.29,2.0,103.6,24 / 25,150610,2019-09-07 10:29:43:764,-0.7467,0.1082,9.995,0.0006,0.0016,9.8066,0.0078,-0.0086,-0.0108,-38.69,-31.12,17.56,348.99,-84.67,-125.0
45733,52.38018,-1.517701,146.24,10.29,2.0,103.6,24 / 25,150710,2019-09-07 10:29:43:864,-0.7087,0.1113,9.875,0.0001,-0.0013,9.8066,0.0133,0.0049,-0.0013,-39.44,-30.5,17.06,347.52,-84.68,-125.17
45734,52.38018,-1.517701,146.24,10.29,2.0,103.6,24 / 25,150810,2019-09-07 10:29:43:964,-0.7837,0.2924,9.963,-0.0011,0.0018,9.8066,-0.0007,-0.0002,-0.0087,-38.87,-31.06,17.63,348.64,-84.71,-125.34
45735,52.38018,-1.517701,146.24,10.29,2.0,103.6,24 / 25,150910,2019-09-07 10:29:44:064,-0.7517,0.215,9.7927,-0.0033,0.0007,9.8066,0.0027,0.0132,0.0053,-38.62,-30.5,18.0,349.03,-84.71,-124.99
45736,52.38018,-1.517701,146.24,10.29,2.0,103.6,24 / 25,151010,2019-09-07 10:29:44:164,-0.659,0.2538,10.03,-0.0029,0.0019,9.8066,-0.001,-0.0004,-0.009,-37.94,-31.31,17.31,348.71,-84.74,-124.58
45737,52.38018,-1.517701,146.24,10.29,2.0,103.6,24 / 25,151111,2019-09-07 10:29:44:265,-0.9295,0.298,10.1529,-0.0034,-0.0012,9.8066,-0.002,0.0086,-0.0066,-38.5,-31.12,17.94,350.67,-84.76,-124.01
45738,52.38018,-1.517701,146.24,10.29,2.0,103.6,24 / 25,151211,2019-09-07 10:29:44:365,-0.8927,0.2837,10.2874,-0.0004,0.0027,9.8066,0.0103,0.0139,-0.0044,-38.62,-31.5,17.06,348.97,-84.8,-123.82
45739,52.38018,-1.517701,146.24,10.29,2.0,103.6,25 / 27,151310,2019-09-07 10:29:44:464,-0.5709,0.2298,9.7254,0.0026,0.0041,9.8066,0.0094,-0.0001,-0.0128,-38.31,-31.12,17.31,349.13,-84.86,-124.21
45740,52.38018,-1.517701,146.24,10.29,2.0,103.6,25 / 27,151410,2019-09-07 10:29:44:564,-0.3979,0.112,9.8039,-0.0018,0.0034,9.8066,0.0011,0.0156,-0.0045,-37.87,-31.12,17.38,348.93,-84.89,-124.4
45741,52.38018,-1.517701,146.24,10.29,2.0,103.6,25 / 27,151510,2019-09-07 10:29:44:664,-0.9632,0.279,9.9856,-0.0046,0.0033,9.8066,-0.0055,0.0083,-0.0022,-37.75,-30.81,16.69,349.51,-84.93,-123.86
45742,52.38018,-1.517701,146.24,10.29,2.0,103.6,25 / 27,151610,2019-09-07 10:29:44:764,-0.9001,0.3209,9.915,-0.0011,-0.001,9.8066,0.0041,-0.0042,-0.0088,-37.56,-31.94,17.81,351.41,-84.96,-123.33
45743,52.38018,-1.517701,146.24,10.29,2.0,103.6,25 / 27,151710,2019-09-07 10:29:44:864,-0.5725,0.068,9.7645,-0.0032,0.0009,9.8066,0.0018,0.0204,0.0003,-37.62,-31.5,16.88,350.23,-84.93,-123.19
45744,52.38018,-1.517701,146.24,10.29,2.0,103.6,25 / 27,151811,2019-09-07 10:29:44:965,-0.6704,0.1813,10.0818,-0.0059,0.0035,9.8066,-0.0124,0.0249,0.0018,-37.44,-31.5,17.63,352.85,-84.97,-122.59
45745,52.38018,-1.517701,146.24,10.29,2.0,103.6,25 / 27,151910,2019-09-07 10:29:45:064,-0.5756,0.1873,10.1956,-0.0042,0.0024,9.8066,-0.0002,0.018,-0.0003,-37.56,-32.06,17.56,353.08,-85.05,-121.78
45746,52.38018,-1.517701,146.24,10.29,2.0,103.6,25 / 27,152010,2019-09-07 10:29:45:164,-0.5421,0.2499,9.9306,-0.0027,0.0025,9.8066,-0.0017,0.0079,-0.0037,-37.94,-32.87,17.19,352.24,-85.1,-121.31
45747,52.38018,-1.517701,146.24,10.29,2.0,103.6,25 / 27,152110,2019-09-07 10:29:45:264,-0.4659,0.1675,9.9325,-0.0026,0.0018,9.8066,0.0006,0.0132,-0.002,-38.06,-32.31,16.75,352.68,-85.13,-120.92
45748,52.38018,-1.517701,146.24,10.29,2.0,103.6,25 / 27,152210,2019-09-07 10:29:45:364,-0.573,0.0679,9.8673,-0.0036,0.0002,9.8065,-0.0013,0.0069,0.0013,-38.31,-32.75,17.06,353.16,-85.14,-120.46
45749,52.38018,-1.517701,146.24,10.29,2.0,103.6,26 / 27,152310,2019-09-07 10:29:45:464,-0.4868,0.0765,9.894,-0.0016,0.0008,9.8066,0.0002,0.0119,-0.0039,-38.81,-32.06,17.81,354.32,-85.16,-120.08
45750,52.38018,-1.517701,146.24,10.29,2.0,103.6,26 / 27,152410,2019-09-07 10:29:45:564,-0.3212,0.058,9.8605,-0.0032,0.0009,9.8066,-0.0058,0.013,0.0022,-38.56,-32.31,17.81,354.94,-85.19,-119.5
45751,52.38018,-1.517701,146.24,10.29,2.0,103.6,26 / 27,152510,2019-09-07 10:29:45:664,-0.3722,0.1035,9.924,-0.0047,0.0016,9.8066,-0.0036,0.012,-0.0031,-37.81,-32.62,17.25,354.85,-85.22,-118.89
45752,52.38018,-1.517701,146.24,10.29,2.0,103.6,26 / 27,152610,2019-09-07 10:29:45:764,0.0226,-0.2005,9.9775,-0.0042,0.001,9.8065,-0.0019,0.0118,-0.0001,-38.19,-32.06,17.31,355.46,-85.24,-118.34
45753,52.38018,-1.517701,146.24,10.29,2.0,103.6,26 / 27,152711,2019-09-07 10:29:45:865,0.0085,-0.1546,9.8182,-0.0012,-0.0004,9.8066,0.0012,0.0023,-0.0032,-38.19,-32.0,17.5,357.37,-85.24,-117.81
45754,52.38018,-1.517701,146.24,10.29,2.0,103.6,26 / 27,152810,2019-09-07 10:29:45:964,0.106,-0.2468,9.9301,-0.0046,0.0012,9.8066,-0.0106,-0.0007,-0.0086,-38.69,-31.69,17.56,357.1,-85.25,-117.49
45755,52.38018,-1.517701,146.24,10.29,2.0,103.6,26 / 27,152910,2019-09-07 10:29:46:064,-0.0285,-0.1075,10.0576,-0.0043,0.0034,9.8066,-0.0032,0.0133,0.0015,-38.69,-31.62,17.81,358.11,-85.3,-116.54
45756,52.38018,-1.517701,146.24,10.29,2.0,103.6,26 / 27,153011,2019-09-07 10:29:46:165,-0.0674,-0.0846,9.8409,-0.0014,0.0017,9.8066,0.0056,0.018,0.0076,-38.5,-31.5,18.0,359.18,-85.32,-116.12
45757,52.38018,-1.517701,146.24,10.29,2.0,103.6,26 / 27,153111,2019-09-07 10:29:46:265,-0.0078,-0.0528,9.84,-0.0036,0.0009,9.8065,0.0002,0.0215,0.0062,-38.37,-31.62,17.94,359.81,-85.35,-115.52
45758,52.38018,-1.517701,146.24,10.29,2.0,103.6,26 / 27,153210,2019-09-07 10:29:46:364,0.1976,-0.3099,10.0528,-0.0037,0.0003,9.8066,-0.0047,-0.0084,-0.0097,-38.94,-31.37,18.13,359.72,-85.35,-115.04
45759,52.38018,-1.517701,146.24,10.29,2.0,103.6,23 / 24,153312,2019-09-07 10:29:46:466,0.2947,-0.2036,9.8326,-0.0014,0.0008,9.8066,0.0035,0.0065,-0.0027,-39.37,-30.62,18.25,0.29,-85.34,-114.5
45760,52.38018,-1.517701,146.24,10.29,2.0,103.6,23 / 24,153410,2019-09-07 10:29:46:564,0.4744,-0.3999,9.8589,-0.0021,-0.0004,9.8066,0.0021,0.0071,0.0009,-39.75,-30.31,19.06,1.37,-85.35,-114.12
45761,52.38018,-1.517701,146.24,10.29,2.0,103.6,23 / 24,153510,2019-09-07 10:29:46:664,0.2871,-0.2729,9.8327,-0.0021,0.0023,9.8066,-0.0043,0.0022,-0.0063,-40.0,-29.87,19.56,2.94,-85.37,-113.8
45762,52.38018,-1.517701,146.24,10.29,2.0,103.6,23 / 24,153610,2019-09-07 10:29:46:764,0.4412,-0.2888,9.9258,-0.0028,0.0001,9.8066,-0.0059,-0.0023,-0.0146,-40.31,-29.69,19.06,2.16,-85.38,-113.37
45763,52.38018,-1.517701,146.24,10.29,2.0,103.6,23 / 24,153711,2019-09-07 10:29:46:865,0.3726,-0.4214,9.8753,-0.0024,0.0022,9.8066,-0.0051,-0.0029,-0.0086,-40.12,-29.62,19.63,3.95,-85.39,-112.84
45764,52.38018,-1.517701,146.24,10.29,2.0,103.6,23 / 24,153811,2019-09-07 10:29:46:965,0.4123,-0.4396,9.8484,-0.0012,0.0017,9.8066,0.006,0.0187,0.0053,-39.69,-29.56,20.0,4.35,-85.41,-112.46
45765,52.38018,-1.517701,146.24,10.29,2.0,103.6,23 / 24,153910,2019-09-07 10:29:47:064,0.6967,-0.5254,9.8006,0.0002,-0.0013,9.8066,0.0009,-0.0034,-0.0103,-39.31,-28.81,19.88,5.09,-85.4,-112.35
45766,52.38018,-1.517701,146.24,10.29,2.0,103.6,23 / 24,154010,2019-09-07 10:29:47:164,0.8107,-0.6117,9.8034,0.0003,0.001,9.8065,0.0106,0.0263,0.013,-39.56,-29.25,20.5,5.68,-85.4,-112.33
45767,52.38018,-1.517701,146.24,10.29,2.0,103.6,23 / 24,154110,2019-09-07 10:29:47:264,0.9471,-0.6238,9.7813,-0.0002,-0.0001,9.8066,0.0058,0.0142,0.001,-39.25,-29.44,20.31,5.1,-85.41,-112.33
45768,52.38018,-1.517701,146.24,10.29,2.0,103.6,23 / 24,154210,2019-09-07 10:29:47:364,1.0789,-0.7666,9.7728,0.0006,-0.0003,9.8066,-0.0024,-0.0022,-0.0075,-39.87,-29.81,20.63,5.67,-85.41,-112.35
45769,52.380085,-1.517077,144.54,0.19,3.0,102.39,26 / 28,154310,2019-09-07 10:29:47:464,0.9229,-0.6896,9.7539,0.0054,-0.0036,9.8066,0.0007,0.0096,-0.0013,-39.0,-29.5,20.63,6.28,-85.41,-112.37
45770,52.380085,-1.517077,144.54,0.19,3.0,102.39,26 / 28,154410,2019-09-07 10:29:47:564,1.0389,-0.7189,9.8214,-0.0008,0.0005,9.8066,0.002,0.0138,0.0032,-39.25,-29.25,20.13,4.81,-85.39,-112.61
45771,52.380085,-1.517077,144.54,0.19,3.0,102.39,26 / 28,154510,2019-09-07 10:29:47:664,1.1329,-0.855,9.6948,-0.0011,0.0006,9.8066,0.0002,-0.0036,-0.0093,-39.25,-29.31,19.31,3.75,-85.39,-112.44
45772,52.380085,-1.517077,144.54,0.19,3.0,102.39,26 / 28,154610,2019-09-07 10:29:47:764,1.1423,-0.7287,9.7566,0.0002,0.0005,9.8066,0.0003,-0.003,-0.0065,-39.69,-30.12,19.44,3.32,-85.4,-112.28
45773,52.380085,-1.517077,144.54,0.19,3.0,102.39,26 / 28,154710,2019-09-07 10:29:47:864,1.1167,-0.7227,9.7377,-0.0009,0.0005,9.8066,0.0008,0.0072,-0.0037,-39.75,-29.0,19.75,4.62,-85.4,-112.2
45774,52.380085,-1.517077,144.54,0.19,3.0,102.39,26 / 28,154810,2019-09-07 10:29:47:964,0.9875,-0.6114,9.7268,-0.0015,0.0001,9.8066,0.002,0.0055,0.0035,-38.87,-28.94,19.06,2.78,-85.35,-113.35
45775,52.380085,-1.517077,144.54,0.19,3.0,102.39,26 / 28,154910,2019-09-07 10:29:48:064,1.0366,-0.676,9.8965,-0.0018,-0.0017,9.8066,-0.0013,0.0088,0.0054,-39.31,-29.06,19.75,4.34,-85.33,-113.06
45776,52.380085,-1.517077,144.54,0.19,3.0,102.39,26 / 28,155011,2019-09-07 10:29:48:165,1.4051,-0.8328,9.7237,-0.0019,-0.0014,9.8066,0.0006,0.0131,0.0042,-39.37,-29.37,18.69,2.37,-85.26,-113.74
45777,52.380085,-1.517077,144.54,0.19,3.0,102.39,26 / 28,155111,2019-09-07 10:29:48:265,1.3456,-0.9582,9.782,-0.0006,-0.002,9.8066,-0.0006,0.0147,0.001,-39.31,-28.56,18.5,2.55,-85.24,-113.57
45778,52.380085,-1.517077,144.54,0.19,3.0,102.39,26 / 28,155210,2019-09-07 10:29:48:364,1.2059,-0.84,9.6727,0.0079,-0.0052,9.8066,-0.0034,-0.0011,-0.007,-39.0,-29.37,18.25,1.38,-85.22,-113.48
45779,52.380085,-1.517077,144.54,0.19,3.0,102.39,25 / 26,155310,2019-09-07 10:29:48:464,1.3057,-0.6906,9.7574,0.0,0.0005,9.8066,0.0053,0.0215,0.0093,-38.5,-29.56,18.13,1.46,-85.19,-113.98
45780,52.380085,-1.517077,144.54,0.19,3.0,102.39,25 / 26,155411,2019-09-07 10:29:48:565,1.2357,-0.654,9.8056,0.0012,-0.0015,9.8066,-0.0036,0.0071,0.0054,-39.12,-29.81,18.0,0.78,-85.17,-114.04
45781,52.380085,-1.517077,144.54,0.19,3.0,102.39,25 / 26,155510,2019-09-07 10:29:48:664,1.1966,-0.6599,9.8572,0.0002,-0.0013,9.8066,0.0003,0.0125,0.003,-38.56,-29.25,17.88,0.81,-85.13,-114.02
45782,52.380085,-1.517077,144.54,0.19,3.0,102.39,25 / 26,155611,2019-09-07 10:29:48:765,1.2698,-0.8002,9.6893,-0.0003,-0.0032,9.8066,0.0018,0.0158,0.0084,-38.94,-29.75,18.38,0.74,-85.06,-114.09
45783,52.380085,-1.517077,144.54,0.19,3.0,102.39,25 / 26,155710,2019-09-07 10:29:48:864,1.4725,-0.9,9.6903,0.0069,-0.0066,9.8065,0.0044,0.0215,0.0096,-39.37,-29.37,18.25,0.37,-85.0,-114.43
45784,52.380085,-1.517077,144.54,0.19,3.0,102.39,25 / 26,155810,2019-09-07 10:29:48:964,1.3198,-0.8943,9.9054,-0.0004,0.0005,9.8066,-0.0026,0.02,0.0059,-39.5,-29.94,18.19,0.33,-84.96,-114.47
45785,52.380085,-1.517077,144.54,0.19,3.0,102.39,25 / 26,155910,2019-09-07 10:29:49:064,1.1606,-0.7515,9.9108,0.0011,0.0009,9.8066,0.0083,0.0266,0.0115,-39.94,-30.0,18.81,0.84,-84.95,-114.62
45786,52.380085,-1.517077,144.54,0.19,3.0,102.39,25 / 26,156010,2019-09-07 10:29:49:164,0.8941,-0.6107,9.7414,0.0008,-0.0006,9.8066,-0.0054,0.0155,-0.0033,-40.19,-29.81,18.13,359.32,-84.92,-114.87
45787,52.380085,-1.517077,144.54,0.19,3.0,102.39,25 / 26,156110,2019-09-07 10:29:49:264,0.8897,-0.5537,9.5857,0.001,0.0054,9.8066,-0.002,0.0187,-0.0097,-39.94,-29.81,18.69,0.51,-84.94,-114.93
45788,52.380085,-1.517077,144.54,0.19,3.0,102.39,25 / 26,156210,2019-09-07 10:29:49:364,0.6669,-0.4033,10.0255,-0.0033,0.0007,9.8066,-0.0079,0.0115,0.0012,-39.94,-29.06,18.75,0.7,-84.97,-114.75
45789,52.380085,-1.517077,144.54,0.19,3.0,102.39,26 / 28,156310,2019-09-07 10:29:49:464,0.6998,-0.4081,9.9701,0.0004,0.0008,9.8066,0.0019,0.008,0.0014,-39.44,-29.44,19.31,1.73,-84.97,-114.35
45790,52.380085,-1.517077,144.54,0.19,3.0,102.39,26 / 28,156410,2019-09-07 10:29:49:564,0.6807,-0.5026,9.8675,0.0024,-0.006,9.8065,0.0095,0.0013,0.0024,-39.94,-29.12,19.44,0.66,-84.9,-114.79
45791,52.380085,-1.517077,144.54,0.19,3.0,102.39,26 / 28,156511,2019-09-07 10:29:49:665,0.6647,-0.6013,9.7259,0.0005,-0.0007,9.8066,-0.0027,0.0148,0.0024,-40.19,-28.94,19.31,0.5,-84.87,-114.94
45792,52.380085,-1.517077,144.54,0.19,3.0,102.39,26 / 28,156610,2019-09-07 10:29:49:764,0.4083,-0.4788,9.8457,-0.0037,0.0029,9.8066,-0.0139,0.0149,-0.0052,-40.75,-28.62,19.75,1.5,-84.88,-114.59
45793,52.380085,-1.517077,144.54,0.19,3.0,102.39,26 / 28,156710,2019-09-07 10:29:49:864,0.3713,-0.1952,10.0719,-0.0015,0.0049,9.8065,-0.0092,0.006,-0.0096,-40.75,-28.12,18.94,0.89,-84.94,-114.02
45794,52.380085,-1.517077,144.54,0.19,3.0,102.39,26 / 28,156810,2019-09-07 10:29:49:964,0.2919,-0.0853,9.9564,-0.0026,0.0031,9.8066,-0.0088,0.0135,-0.006,-41.0,-27.56,17.81,359.86,-85.0,-113.83
45795,52.380085,-1.517077,144.54,0.19,3.0,102.39,26 / 28,156910,2019-09-07 10:29:50:064,0.337,-0.1502,9.7575,-0.0017,0.0006,9.8066,-0.0018,0.0053,0.0041,-40.94,-27.75,18.31,0.32,-85.03,-113.4
45796,52.380085,-1.517077,144.54,0.19,3.0,102.39,26 / 28,157010,2019-09-07 10:29:50:164,0.2276,-0.2098,9.7949,-0.0026,-0.004,9.8066,-0.0101,0.0186,0.0101,-41.0,-27.0,18.13,0.7,-84.98,-113.04
45797,52.380085,-1.517077,144.54,0.19,3.0,102.39,26 / 28,157110,2019-09-07 10:29:50:264,0.2503,-0.2659,9.9174,-0.0037,-0.0022,9.8066,-0.0112,0.0034,0.0,-40.75,-27.44,17.63,1.19,-84.95,-112.58
45798,52.380085,-1.517077,144.54,0.19,3.0,102.39,26 / 28,157210,2019-09-07 10:29:50:364,0.1154,-0.2073,10.0537,-0.0019,-0.0012,9.8066,-0.0099,0.0224,-0.0013,-40.0,-27.06,17.13,0.94,-84.94,-112.14
45799,52.380085,-1.517077,144.54,0.19,3.0,102.39,26 / 27,157311,2019-09-07 10:29:50:465,0.2003,-0.1007,9.5616,-0.0018,-0.0016,9.8066,-0.0068,0.0019,-0.0118,-39.87,-27.56,16.44,0.02,-84.93,-111.78
45800,52.380085,-1.517077,144.54,0.19,3.0,102.39,26 / 27,157410,2019-09-07 10:29:50:564,0.3563,-0.1415,9.8925,0.0002,-0.0025,9.8066,-0.0009,0.0121,-0.0013,-40.37,-27.87,17.0,1.17,-84.93,-111.92
45801,52.380085,-1.517077,144.54,0.19,3.0,102.39,26 / 27,157510,2019-09-07 10:29:50:664,0.2894,-0.1935,10.001,-0.005,0.0003,9.8065,-0.0118,0.0138,-0.0031,-39.5,-28.25,16.38,0.76,-84.9,-111.59
45802,52.380085,-1.517077,144.54,0.19,3.0,102.39,26 / 27,157610,2019-09-07 10:29:50:764,0.1109,-0.2092,10.0462,-0.0023,0.001,9.8066,-0.0134,0.0123,-0.008,-40.19,-28.75,16.44,1.02,-84.93,-110.85
45803,52.380085,-1.517077,144.54,0.19,3.0,102.39,26 / 27,157710,2019-09-07 10:29:50:864,0.109,-0.2357,9.9407,-0.001,0.0023,9.8065,-0.0042,0.0218,-0.0105,-39.56,-29.31,15.69,1.29,-84.94,-110.6
45804,52.380085,-1.517077,144.54,0.19,3.0,102.39,26 / 27,157811,2019-09-07 10:29:50:965,0.211,-0.1786,9.9858,0.0046,0.002,9.8065,0.0037,0.0121,-0.0142,-40.0,-28.87,15.44,359.62,-84.97,-110.91
45805,52.380085,-1.517077,144.54,0.19,3.0,102.39,26 / 27,157910,2019-09-07 10:29:51:064,0.2988,-0.0893,10.0105,0.0032,0.0009,9.8066,-0.0034,0.008,-0.0099,-39.81,-29.62,16.06,0.1,-84.98,-111.71
45806,52.380085,-1.517077,144.54,0.19,3.0,102.39,26 / 27,158010,2019-09-07 10:29:51:164,0.1759,-0.0245,9.957,0.0034,-0.0014,9.8066,0.0033,0.0051,0.001,-39.94,-29.56,15.81,359.73,-85.0,-112.06
45807,52.380085,-1.517077,144.54,0.19,3.0,102.39,26 / 27,158110,2019-09-07 10:29:51:264,0.0687,-0.2067,10.0133,0.002,-0.0042,9.8066,0.0002,0.0101,-0.0013,-39.37,-28.87,15.69,359.76,-84.95,-112.54
45808,52.380085,-1.517077,144.54,0.19,3.0,102.39,26 / 27,158210,2019-09-07 10:29:51:364,0.1919,-0.3295,9.8701,0.0023,0.0007,9.8066,0.005,0.034,0.0091,-39.69,-29.0,15.38,357.32,-84.94,-113.06
45809,52.380085,-1.517077,144.54,0.19,3.0,102.39,24 / 25,158310,2019-09-07 10:29:51:464,0.319,-0.1983,10.024,0.0014,-0.0008,9.8066,-0.0003,0.015,-0.0069,-39.56,-29.0,15.38,357.22,-84.93,-113.16
45810,52.380085,-1.517077,144.54,0.19,3.0,102.39,24 / 25,158410,2019-09-07 10:29:51:564,0.4756,-0.1678,9.9462,0.0035,-0.0021,9.8066,0.0019,-0.0035,-0.0126,-39.44,-28.94,15.38,357.49,-84.93,-113.39
45811,52.380085,-1.517077,144.54,0.19,3.0,102.39,24 / 25,158510,2019-09-07 10:29:51:664,0.5201,-0.1486,9.787,0.0047,-0.0018,9.8066,0.0044,0.014,0.005,-39.12,-29.81,15.88,357.98,-84.9,-114.19
45812,52.380085,-1.517077,144.54,0.19,3.0,102.39,24 / 25,158610,2019-09-07 10:29:51:764,0.7708,-0.5157,9.887,0.003,-0.0068,9.8066,0.0138,0.0108,0.0089,-39.37,-29.37,14.81,356.37,-84.84,-114.43
45813,52.380085,-1.517077,144.54,0.19,3.0,102.39,24 / 25,158710,2019-09-07 10:29:51:864,0.7135,-0.5644,9.9513,0.0051,-0.0051,9.8066,0.0009,0.0085,-0.0028,-39.69,-29.56,15.75,356.41,-84.73,-115.15
45814,52.380085,-1.517077,144.54,0.19,3.0,102.39,24 / 25,158810,2019-09-07 10:29:51:964,0.6659,-0.446,9.7465,0.0045,0.0001,9.8066,-0.0023,0.0093,-0.0124,-40.25,-30.37,15.19,354.19,-84.71,-115.97
45815,52.380085,-1.517077,144.54,0.19,3.0,102.39,24 / 25,158910,2019-09-07 10:29:52:064,0.6756,-0.3702,9.642,0.0033,0.0008,9.8066,0.0029,0.0096,-0.0086,-40.31,-29.69,15.0,353.77,-84.72,-116.36
45816,52.380085,-1.517077,144.54,0.19,3.0,102.39,24 / 25,159010,2019-09-07 10:29:52:164,0.8796,-0.3421,9.8065,0.0023,0.0019,9.8066,-0.0065,0.0122,-0.0129,-40.56,-29.75,14.75,352.9,-84.74,-116.72
45817,52.380085,-1.517077,144.54,0.19,3.0,102.39,24 / 25,159110,2019-09-07 10:29:52:264,0.8442,-0.2553,9.6867,0.0011,0.0003,9.8066,-0.001,0.0197,0.0016,-40.37,-30.06,15.19,352.98,-84.76,-117.1
45818,52.380085,-1.517077,144.54,0.19,3.0,102.39,24 / 25,159211,2019-09-07 10:29:52:365,0.7462,-0.4416,9.8656,0.0008,-0.0008,9.8066,0.0043,0.0243,0.0057,-40.56,-29.37,14.69,352.38,-84.75,-117.22
45819,52.380085,-1.517077,144.54,0.19,3.0,102.39,25 / 26,159310,2019-09-07 10:29:52:464,0.6409,-0.3113,9.6283,0.0016,-0.001,9.8066,-0.0011,-0.0024,-0.0109,-40.87,-29.19,14.88,352.09,-84.73,-117.49
45820,52.380085,-1.517077,144.54,0.19,3.0,102.39,25 / 26,159410,2019-09-07 10:29:52:564,0.7571,-0.3746,9.758,0.0012,-0.0009,9.8066,-0.0016,0.0231,0.0126,-40.5,-29.5,15.19,352.17,-84.71,-117.87
45821,52.380085,-1.517077,144.54,0.19,3.0,102.39,25 / 26,159510,2019-09-07 10:29:52:664,0.7505,-0.2997,9.82,-0.0004,-0.0024,9.8066,-0.0065,0.0189,0.0045,-40.19,-29.81,15.56,353.54,-84.69,-117.82
45822,52.380085,-1.517077,144.54,0.19,3.0,102.39,25 / 26,159610,2019-09-07 10:29:52:764,0.9659,-0.4476,10.03,-0.0002,0.0001,9.8066,-0.0167,-0.0026,-0.0157,-40.75,-30.19,15.25,351.83,-84.66,-117.71
45823,52.380085,-1.517077,144.54,0.19,3.0,102.39,25 / 26,159711,2019-09-07 10:29:52:865,0.6681,-0.2516,9.5799,-0.0011,0.001,9.8066,-0.0116,0.0225,0.0018,-41.0,-29.75,14.94,352.0,-84.67,-117.55
45824,52.380085,-1.517077,144.54,0.19,3.0,102.39,25 / 26,159810,2019-09-07 10:29:52:964,0.6793,-0.4493,9.9183,0.0014,-0.0017,9.8066,-0.0015,0.0189,-0.0086,-40.87,-30.06,14.81,351.95,-84.67,-117.6
45825,52.380085,-1.517077,144.54,0.19,3.0,102.39,25 / 26,159910,2019-09-07 10:29:53:064,0.527,-0.2835,9.7613,0.0042,0.0001,9.8066,-0.0009,0.0062,-0.0147,-42.12,-29.5,14.69,350.97,-84.64,-118.1
45826,52.380085,-1.517077,144.54,0.19,3.0,102.39,25 / 26,160010,2019-09-07 10:29:53:164,0.7543,-0.3662,9.8814,0.0021,0.0005,9.8066,0.0016,0.0401,0.0083,-42.0,-29.62,14.88,350.5,-84.66,-118.52
45827,52.380085,-1.517077,144.54,0.19,3.0,102.39,25 / 26,160111,2019-09-07 10:29:53:265,0.6275,-0.19,9.6719,0.0021,-0.0028,9.8066,-0.0042,0.0244,-0.0075,-42.69,-29.75,15.56,350.95,-84.64,-118.87
45828,52.380085,-1.517077,144.54,0.19,3.0,102.39,25 / 26,160210,2019-09-07 10:29:53:364,0.6325,-0.2332,9.8401,0.0021,-0.0013,9.8066,-0.0013,0.0173,-0.001,-43.25,-29.56,15.13,349.33,-84.61,-119.19
45829,52.380085,-1.517077,144.54,0.19,3.0,102.39,25 / 27,160310,2019-09-07 10:29:53:464,0.6204,-0.3769,9.9456,0.0022,-0.0012,9.8066,0.0024,0.0277,0.0072,-43.75,-29.25,15.88,349.79,-84.58,-119.56
45830,52.380085,-1.517077,144.54,0.19,3.0,102.39,25 / 27,160411,2019-09-07 10:29:53:565,0.3798,-0.2464,9.6985,0.0015,-0.0009,9.8066,-0.002,0.0146,-0.0093,-43.31,-28.87,16.56,351.24,-84.55,-119.77
45831,52.380085,-1.517077,144.54,0.19,3.0,102.39,25 / 27,160510,2019-09-07 10:29:53:664,0.482,-0.2096,9.7338,0.0017,-0.0003,9.8066,-0.0063,0.0139,-0.0147,-44.06,-28.44,17.0,350.41,-84.53,-120.14
45832,52.380085,-1.517077,144.54,0.19,3.0,102.39,25 / 27,160610,2019-09-07 10:29:53:764,0.578,-0.1762,9.7069,0.0038,-0.001,9.8066,-0.0072,0.0238,-0.0065,-44.19,-28.0,17.56,350.97,-84.5,-120.73
45833,52.380085,-1.517077,144.54,0.19,3.0,102.39,25 / 27,160710,2019-09-07 10:29:53:864,0.5062,-0.2795,9.8723,0.0008,-0.0024,9.8066,-0.0046,0.0191,0.0002,-43.94,-28.0,18.25,350.9,-84.49,-120.79
45834,52.380085,-1.517077,144.54,0.19,3.0,102.39,25 / 27,160810,2019-09-07 10:29:53:964,0.2815,-0.2254,9.7335,0.002,-0.0026,9.8066,0.0034,0.0394,0.006,-45.31,-27.75,18.5,351.47,-84.47,-120.91
45835,52.380085,-1.517077,144.54,0.19,3.0,102.39,25 / 27,160910,2019-09-07 10:29:54:064,0.4408,-0.3061,9.9528,0.0008,-0.0033,9.8065,-0.0052,0.0191,-0.0138,-45.44,-27.94,19.5,352.34,-84.42,-121.17
45836,52.380085,-1.517077,144.54,0.19,3.0,102.39,25 / 27,161010,2019-09-07 10:29:54:164,0.5131,-0.2266,9.9325,0.0018,-0.0015,9.8066,-0.0065,0.0261,-0.0069,-45.75,-26.62,19.75,351.6,-84.39,-121.41
45837,52.380085,-1.517077,144.54,0.19,3.0,102.39,25 / 27,161110,2019-09-07 10:29:54:264,0.0904,-0.0342,9.7562,0.001,-0.0023,9.8066,-0.0064,0.0278,-0.0075,-45.56,-26.69,20.31,351.43,-84.35,-121.57
45838,52.380085,-1.517077,144.54,0.19,3.0,102.39,25 / 27,161210,2019-09-07 10:29:54:364,0.2135,-0.1612,9.8343,0.002,-0.0011,9.8066,0.0016,0.042,0.0062,-45.62,-26.19,20.94,352.26,-84.34,-121.85
45839,52.380085,-1.517077,144.54,0.19,3.0,102.39,25 / 26,161311,2019-09-07 10:29:54:465,0.1724,-0.1043,9.9012,0.0006,-0.0034,9.8066,-0.0084,0.0282,-0.005,-45.56,-25.25,21.69,353.27,-84.3,-121.93
45840,52.380085,-1.517077,144.54,0.19,3.0,102.39,25 / 26,161410,2019-09-07 10:29:54:564,-0.0539,-0.012,9.9317,-0.0008,-0.0005,9.8066,-0.0053,0.0261,-0.0074,-46.0,-24.81,21.13,352.23,-84.29,-121.88
45841,52.380085,-1.517077,144.54,0.19,3.0,102.39,25 / 26,161510,2019-09-07 10:29:54:664,-0.0596,0.0792,9.9105,0.0024,-0.0005,9.8066,0.0,0.0343,-0.005,-45.62,-24.25,20.94,352.26,-84.28,-121.87
45842,52.380085,-1.517077,144.54,0.19,3.0,102.39,25 / 26,161610,2019-09-07 10:29:54:764,-0.0552,-0.0429,10.0026,0.001,-0.0033,9.8066,0.0025,0.0388,0.0038,-45.69,-24.19,21.0,351.75,-84.25,-122.35
45843,52.380085,-1.517077,144.54,0.19,3.0,102.39,25 / 26,161711,2019-09-07 10:29:54:865,-0.3163,0.1443,9.8172,0.0016,-0.0017,9.8066,-0.0051,0.0332,-0.0062,-45.31,-23.94,21.25,352.09,-84.2,-122.51
45844,52.380085,-1.517077,144.54,0.19,3.0,102.39,25 / 26,161810,2019-09-07 10:29:54:964,-0.2579,0.0055,9.9625,0.0025,-0.0023,9.8066,0.0005,0.0267,-0.0076,-45.5,-23.56,19.88,350.72,-84.17,-122.73
45845,52.380085,-1.517077,144.54,0.19,3.0,102.39,25 / 26,161910,2019-09-07 10:29:55:064,-0.4226,0.1602,9.8664,0.0036,-0.001,9.8066,-0.0004,0.0161,-0.0019,-45.81,-23.56,19.44,348.81,-84.14,-123.03
45846,52.380085,-1.517077,144.54,0.19,3.0,102.39,25 / 26,162010,2019-09-07 10:29:55:164,-0.6583,0.2672,9.8302,0.0009,-0.0015,9.8066,0.0062,0.0428,0.0097,-45.37,-23.5,19.19,349.08,-84.13,-123.23
45847,52.380085,-1.517077,144.54,0.19,3.0,102.39,25 / 26,162110,2019-09-07 10:29:55:264,-0.6061,0.1407,9.847,0.0013,-0.0026,9.8066,0.0039,0.031,0.0006,-45.19,-23.25,18.88,348.9,-84.1,-123.4
45848,52.380085,-1.517077,144.54,0.19,3.0,102.39,25 / 26,162211,2019-09-07 10:29:55:365,-0.4807,0.0421,9.9418,0.0013,-0.0015,9.8066,0.0022,0.0253,-0.0038,-44.81,-24.19,18.06,347.44,-84.05,-123.65
45849,52.380085,-1.517077,144.54,0.19,3.0,102.39,26 / 27,162310,2019-09-07 10:29:55:464,-0.5,0.1588,9.8342,0.0029,-0.0002,9.8066,0.0056,0.0286,0.0001,-45.25,-24.5,18.13,347.14,-84.04,-123.93
45850,52.380085,-1.517077,144.54,0.19,3.0,102.39,26 / 27,162411,2019-09-07 10:29:55:565,-0.3189,0.0807,10.0916,0.002,-0.0002,9.8066,0.0026,0.0131,-0.0127,-45.25,-24.37,18.06,346.85,-84.03,-124.21
45851,52.380085,-1.517077,144.54,0.19,3.0,102.39,26 / 27,162510,2019-09-07 10:29:55:664,-0.3408,0.1552,9.9249,0.0028,-0.0005,9.8066,0.0024,0.0102,-0.0095,-45.06,-23.69,17.69,346.59,-84.02,-124.46
45852,52.380085,-1.517077,144.54,0.19,3.0,102.39,26 / 27,162611,2019-09-07 10:29:55:765,-0.6692,0.1992,9.792,0.0001,-0.0008,9.8066,0.0006,0.0248,0.0046,-44.44,-24.56,17.63,346.64,-83.98,-124.81
45853,52.380085,-1.517077,144.54,0.19,3.0,102.39,26 / 27,162710,2019-09-07 10:29:55:864,-0.4392,0.0202,10.0331,0.0011,-0.0011,9.8066,-0.0001,0.0246,0.0039,-45.06,-24.5,17.25,344.98,-83.96,-124.86
45854,52.380085,-1.517077,144.54,0.19,3.0,102.39,26 / 27,162810,2019-09-07 10:29:55:964,-0.4253,0.0417,9.9654,0.0008,-0.001,9.8066,0.0045,0.0145,-0.0053,-44.87,-24.75,17.31,344.91,-83.95,-124.89
45855,52.380085,-1.517077,144.54,0.19,3.0,102.39,26 / 27,162910,2019-09-07 10:29:56:064,-0.4602,0.1554,9.7698,0.0026,-0.0019,9.8066,-0.0038,-0.0016,-0.0176,-44.25,-25.12,17.5,346.29,-83.93,-125.13
45856,52.380085,-1.517077,144.54,0.19,3.0,102.39,26 / 27,163010,2019-09-07 10:29:56:164,-0.2668,-0.0092,10.0456,0.0004,0.0001,9.8066,-0.0056,-0.0077,-0.0166,-44.37,-25.25,17.31,345.03,-83.92,-125.18
45857,52.380085,-1.517077,144.54,0.19,3.0,102.39,26 / 27,163110,2019-09-07 10:29:56:264,-0.2325,-0.0746,10.0271,0.0009,-0.0008,9.8066,-0.0044,-0.0066,-0.0116,-44.75,-25.75,17.31,344.45,-83.91,-125.28
45858,52.380085,-1.517077,144.54,0.19,3.0,102.39,26 / 27,163211,2019-09-07 10:29:56:365,-0.3171,0.0847,9.8197,-0.0003,0.0004,9.8066,-0.0024,0.0153,-0.0011,-44.37,-24.81,17.5,346.11,-83.91,-125.29
45859,52.38006,-1.516891,143.72,0.11,3.0,96.7,25 / 26,163310,2019-09-07 10:29:56:464,-0.3922,0.1144,9.671,-0.0007,-0.0002,9.8066,-0.0031,0.0133,-0.0036,-44.19,-25.0,17.31,344.88,-83.91,-125.32
45860,52.38006,-1.516891,143.72,0.11,3.0,96.7,25 / 26,163410,2019-09-07 10:29:56:564,-0.2798,0.0385,9.7279,0.0004,-0.0005,9.8066,-0.0069,-0.0173,-0.0204,-44.19,-24.75,17.0,344.84,-83.9,-125.36
45861,52.38006,-1.516891,143.72,0.11,3.0,96.7,25 / 26,163510,2019-09-07 10:29:56:664,0.1261,-0.1081,9.9772,-0.0006,-0.001,9.8066,-0.0068,-0.0012,-0.0107,-44.19,-25.06,17.13,344.8,-83.9,-125.4
45862,52.38006,-1.516891,143.72,0.11,3.0,96.7,25 / 26,163610,2019-09-07 10:29:56:764,0.1052,-0.1565,9.9876,-0.0001,-0.001,9.8066,-0.0015,0.002,-0.0012,-44.19,-25.44,16.56,344.9,-83.89,-125.3
45863,52.38006,-1.516891,143.72,0.11,3.0,96.7,25 / 26,163710,2019-09-07 10:29:56:864,-0.0764,-0.0095,9.8181,0.0002,-0.0015,9.8065,-0.0027,0.0049,-0.0013,-44.12,-25.06,16.19,343.58,-83.89,-125.39
45864,52.38006,-1.516891,143.72,0.11,3.0,96.7,25 / 26,163810,2019-09-07 10:29:56:964,0.1402,-0.0941,9.9794,-0.0005,-0.0005,9.8066,-0.0043,0.0058,-0.0068,-44.06,-25.19,16.69,344.92,-83.88,-125.28
45865,52.38006,-1.516891,143.72,0.11,3.0,96.7,25 / 26,163910,2019-09-07 10:29:57:064,0.1154,-0.1399,9.8126,0.0005,-0.0013,9.8066,0.0027,-0.0064,-0.0049,-44.37,-25.44,16.75,344.99,-83.88,-125.22
