,GPS LATITUDE (degrees),GPS LONGITUDE (degrees), GPS ALTITUDE (m),GPS SPEED (Kmh),GPS ACCURACY (m),GPS ORIENTATION (Â°), SATELLITES IN RANGE, TIME SINCE START (ms), DATE (YYYY-MO-DD HH-MI-SS_SSS),ACCELEROMETER X (m/s²) , ACCELEROMETER Y (m/s²), ACCELEROMETER Z (m/s²), GRAVITY X (m/s²), GRAVITY Y (m/s²), GRAVITY Z (m/s²), GYROSCOPE Yaw (rad/s), GYROSCOPE Pitch (rad/s), GYROSCOPE Roll (rad/s)
72240,48.45756,-2.517454,106.49,30.01,8.576,279.1,15 / 23,2181289,2019-08-12 17:09:01:731,-0.715,0.3611,9.8663,-0.6181,0.3176,9.782,0.0005,0.0021,0.0033
72241,48.45756,-2.517454,106.49,30.01,8.576,279.1,15 / 23,2181290,2019-08-12 17:09:01:732,-0.715,0.3611,9.8663,-0.6181,0.3176,9.782,0.0005,0.0021,0.0033
72242,48.45756,-2.517454,106.49,30.01,8.576,279.1,15 / 23,2181290,2019-08-12 17:09:01:732,-0.715,0.3611,9.8663,-0.6181,0.3176,9.782,0.0005,0.0021,0.0033
72243,48.45756,-2.517454,106.49,30.01,8.576,279.1,15 / 23,2181290,2019-08-12 17:09:01:732,-0.715,0.3611,9.8663,-0.6181,0.3176,9.782,0.0005,0.0021,0.0033
72244,48.45756,-2.517454,106.49,30.01,8.576,279.1,15 / 23,2181291,2019-08-12 17:09:01:733,-0.715,0.3611,9.8663,-0.6181,0.3176,9.782,0.0005,0.0021,0.0033
72245,48.45756,-2.517454,106.49,30.01,8.576,279.1,15 / 23,2181291,2019-08-12 17:09:01:733,-0.715,0.3611,9.8663,-0.6181,0.3176,9.782,0.0005,0.0021,0.0033
72246,48.45756,-2.517454,106.49,30.01,8.576,279.1,15 / 23,2181291,2019-08-12 17:09:01:733,-0.715,0.3611,9.8663,-0.6181,0.3176,9.782,0.0005,0.0021,0.0033
72247,48.45756,-2.517454,106.49,30.01,8.576,279.1,15 / 23,2181299,2019-08-12 17:09:01:741,-0.715,0.3611,9.8663,-0.6181,0.3176,9.782,0.0005,0.0021,0.0033
72248,48.45756,-2.517454,106.49,30.01,8.576,279.1,15 / 23,2181299,2019-08-12 17:09:01:741,-0.715,0.3611,9.8663,-0.6181,0.3176,9.782,0.0005,0.0021,0.0033
72249,48.45756,-2.517454,106.49,30.01,8.576,279.1,15 / 23,2181300,2019-08-12 17:09:01:742,-0.715,0.3611,9.8663,-0.6181,0.3176,9.782,0.0005,0.0021,0.0033
72250,48.45756,-2.517454,106.49,30.01,8.576,279.1,15 / 23,2181300,2019-08-12 17:09:01:742,-0.715,0.3611,9.8663,-0.6181,0.3176,9.782,0.0005,0.0021,0.0033
72251,48.45756,-2.517454,106.49,30.01,8.576,279.1,15 / 23,2181300,2019-08-12 17:09:01:742,-0.715,0.3611,9.8663,-0.6181,0.3176,9.782,0.0005,0.0021,0.0033
72252,48.45756,-2.517454,106.49,30.01,8.576,279.1,15 / 23,2181301,2019-08-12 17:09:01:743,-0.715,0.3611,9.8663,-0.6181,0.3176,9.782,0.0005,0.0021,0.0033
72253,48.45756,-2.517454,106.49,30.01,8.576,279.1,15 / 23,2181301,2019-08-12 17:09:01:743,-0.715,0.3611,9.8663,-0.6181,0.3176,9.782,0.0005,0.0021,0.0033
72254,48.45756,-2.517454,106.49,30.01,8.576,279.1,15 / 23,2181327,2019-08-12 17:09:01:769,-0.715,0.3611,9.8663,-0.6181,0.3176,9.782,0.0005,0.0021,0.0033
72255,48.45756,-2.517454,106.49,30.01,8.576,279.1,15 / 23,2181428,2019-08-12 17:09:01:870,-0.715,0.3611,9.8663,-0.6181,0.3176,9.782,0.0005,0.0021,0.0033
72256,48.45756,-2.517454,106.49,30.01,8.576,279.1,15 / 23,2181748,2019-08-12 17:09:02:190,-0.715,0.3611,9.8663,-0.6181,0.3176,9.782,0.0005,0.0021,0.0033
72257,48.45756,-2.517454,106.49,30.01,8.576,279.1,15 / 23,2181749,2019-08-12 17:09:02:191,-0.715,0.3611,9.8663,-0.6181,0.3176,9.782,0.0005,0.0021,0.0033
72258,48.45756,-2.517454,106.49,30.01,8.576,279.1,Dec-23,2181749,2019-08-12 17:09:02:191,-0.715,0.3611,9.8663,-0.6181,0.3176,9.782,0.0005,0.0021,0.0033
72259,48.45756,-2.517454,106.49,30.01,8.576,279.1,Dec-23,2181750,2019-08-12 17:09:02:192,-0.715,0.3611,9.8663,-0.6181,0.3176,9.782,0.0005,0.0021,0.0033
72260,48.45756,-2.517454,106.49,30.01,8.576,279.1,Dec-23,2181750,2019-08-12 17:09:02:192,-0.715,0.3611,9.8663,-0.6181,0.3176,9.782,0.0005,0.0021,0.0033
72261,48.45756,-2.517454,106.49,30.01,8.576,279.1,Dec-23,2181751,2019-08-12 17:09:02:193,-0.715,0.3611,9.8663,-0.6181,0.3176,9.782,0.0005,0.0021,0.0033
72262,48.45756,-2.517454,106.49,30.01,8.576,279.1,Dec-23,2181751,2019-08-12 17:09:02:193,-0.715,0.3611,9.8663,-0.6181,0.3176,9.782,0.0005,0.0021,0.0033
72263,48.45756,-2.517454,106.49,30.01,8.576,279.1,Dec-23,2181757,2019-08-12 17:09:02:199,-0.715,0.3611,9.8663,-0.6181,0.3176,9.782,0.0005,0.0021,0.0033
72264,48.45756,-2.517454,106.49,30.01,8.576,279.1,Dec-23,2181758,2019-08-12 17:09:02:200,-0.715,0.3611,9.8663,-0.6181,0.3176,9.782,0.0005,0.0021,0.0033
72265,48.45756,-2.517454,106.49,30.01,8.576,279.1,Dec-23,2181758,2019-08-12 17:09:02:200,-0.715,0.3611,9.8663,-0.6181,0.3176,9.782,0.0005,0.0021,0.0033
72266,48.45756,-2.517454,106.49,30.01,8.576,279.1,Dec-23,2181759,2019-08-12 17:09:02:201,-0.715,0.3611,9.8663,-0.6181,0.3176,9.782,0.0005,0.0021,0.0033
72267,48.45756,-2.517454,106.49,30.01,8.576,279.1,Dec-23,2181760,2019-08-12 17:09:02:202,-0.715,0.3611,9.8663,-0.6181,0.3176,9.782,0.0005,0.0021,0.0033
72268,48.45756,-2.517454,106.49,30.01,8.576,279.1,Dec-23,2181760,2019-08-12 17:09:02:202,-0.715,0.3611,9.8663,-0.6181,0.3176,9.782,0.0005,0.0021,0.0033
72269,48.45756,-2.517454,106.49,30.01,8.576,279.1,Dec-23,2181760,2019-08-12 17:09:02:202,-0.715,0.3611,9.8663,-0.6181,0.3176,9.782,0.0005,0.0021,0.0033
72270,48.45756,-2.517454,106.49,30.01,8.576,279.1,Dec-23,2181761,2019-08-12 17:09:02:203,-0.715,0.3611,9.8663,-0.6181,0.3176,9.782,0.0005,0.0021,0.0033
72271,48.45756,-2.517454,106.49,30.01,8.576,279.1,Dec-23,2181764,2019-08-12 17:09:02:206,-0.715,0.3611,9.8663,-0.6181,0.3176,9.782,0.0005,0.0021,0.0033
72272,48.45756,-2.517454,106.49,30.01,8.576,279.1,Dec-23,2181765,2019-08-12 17:09:02:207,-0.715,0.3611,9.8663,-0.6181,0.3176,9.782,0.0005,0.0021,0.0033
72273,48.45756,-2.517454,106.49,30.01,8.576,279.1,Dec-23,2181765,2019-08-12 17:09:02:207,-0.715,0.3611,9.8663,-0.6181,0.3176,9.782,0.0005,0.0021,0.0033
72274,48.45756,-2.517454,106.49,30.01,8.576,279.1,Dec-23,2181766,2019-08-12 17:09:02:208,-0.715,0.3611,9.8663,-0.6181,0.3176,9.782,0.0005,0.0021,0.0033
72275,48.45756,-2.517454,106.49,30.01,8.576,279.1,Dec-23,2181766,2019-08-12 17:09:02:208,-0.715,0.3611,9.8663,-0.6181,0.3176,9.782,0.0005,0.0021,0.0033
72276,48.45756,-2.517454,106.49,30.01,8.576,279.1,Dec-23,2181766,2019-08-12 17:09:02:208,-0.715,0.3611,9.8663,-0.6181,0.3176,9.782,0.0005,0.0021,0.0033
72277,48.45756,-2.517454,106.49,30.01,8.576,279.1,Dec-23,2181767,2019-08-12 17:09:02:209,-0.715,0.3611,9.8663,-0.6181,0.3176,9.782,0.0005,0.0021,0.0033
72278,48.45756,-2.517454,106.49,30.01,8.576,279.1,Dec-23,2181767,2019-08-12 17:09:02:209,-0.715,0.3611,9.8663,-0.6181,0.3176,9.782,0.0005,0.0021,0.0033
72279,48.45756,-2.517454,106.49,30.01,8.576,279.1,Dec-23,2181767,2019-08-12 17:09:02:209,-0.715,0.3611,9.8663,-0.6181,0.3176,9.782,0.0005,0.0021,0.0033
72280,48.45756,-2.517454,106.49,30.01,8.576,279.1,Dec-23,2181768,2019-08-12 17:09:02:210,-0.715,0.3611,9.8663,-0.6181,0.3176,9.782,0.0005,0.0021,0.0033
72281,48.45756,-2.517454,106.49,30.01,8.576,279.1,Dec-23,2181768,2019-08-12 17:09:02:210,-0.715,0.3611,9.8663,-0.6181,0.3176,9.782,0.0005,0.0021,0.0033
72282,48.45756,-2.517454,106.49,30.01,8.576,279.1,Dec-23,2181771,2019-08-12 17:09:02:213,-0.715,0.3611,9.8663,-0.6181,0.3176,9.782,0.0005,0.0021,0.0033
72283,48.45756,-2.517454,106.49,30.01,8.576,279.1,Dec-23,2181772,2019-08-12 17:09:02:214,-0.715,0.3611,9.8663,-0.6181,0.3176,9.782,0.0005,0.0021,0.0033
72284,48.45756,-2.517454,106.49,30.01,8.576,279.1,Dec-23,2181773,2019-08-12 17:09:02:215,-0.715,0.3611,9.8663,-0.6181,0.3176,9.782,0.0005,0.0021,0.0033
72285,48.45756,-2.517454,106.49,30.01,8.576,279.1,Dec-23,2181773,2019-08-12 17:09:02:215,-0.715,0.3611,9.8663,-0.6181,0.3176,9.782,0.0005,0.0021,0.0033
72286,48.45756,-2.517454,106.49,30.01,8.576,279.1,Dec-23,2181773,2019-08-12 17:09:02:215,-0.715,0.3611,9.8663,-0.6181,0.3176,9.782,0.0005,0.0021,0.0033
72287,48.45756,-2.517454,106.49,30.01,8.576,279.1,Dec-23,2181774,2019-08-12 17:09:02:216,-0.715,0.3611,9.8663,-0.6181,0.3176,9.782,0.0005,0.0021,0.0033
72288,48.45756,-2.517454,106.49,30.01,8.576,279.1,Dec-23,2181774,2019-08-12 17:09:02:216,-0.715,0.3611,9.8663,-0.6181,0.3176,9.782,0.0005,0.0021,0.0033
72289,48.45756,-2.517454,106.49,30.01,8.576,279.1,Dec-23,2181774,2019-08-12 17:09:02:216,-0.715,0.3611,9.8663,-0.6181,0.3176,9.782,0.0005,0.0021,0.0033
72290,48.45756,-2.517454,106.49,30.01,8.576,279.1,Dec-23,2181775,2019-08-12 17:09:02:217,-0.715,0.3611,9.8663,-0.6181,0.3176,9.782,0.0005,0.0021,0.0033
72291,48.45756,-2.517454,106.49,30.01,8.576,279.1,Dec-23,2181776,2019-08-12 17:09:02:218,-0.715,0.3611,9.8663,-0.6181,0.3176,9.782,0.0005,0.0021,0.0033
72292,48.45756,-2.517454,106.49,30.01,8.576,279.1,Dec-23,2181776,2019-08-12 17:09:02:218,-0.715,0.3611,9.8663,-0.6181,0.3176,9.782,0.0005,0.0021,0.0033
72293,48.45756,-2.517454,106.49,30.01,8.576,279.1,Dec-23,2181776,2019-08-12 17:09:02:218,-0.715,0.3611,9.8663,-0.6181,0.3176,9.782,0.0005,0.0021,0.0033
72294,48.45756,-2.517454,106.49,30.01,8.576,279.1,Dec-23,2181777,2019-08-12 17:09:02:219,-0.715,0.3611,9.8663,-0.6181,0.3176,9.782,0.0005,0.0021,0.0033
72295,48.45756,-2.517454,106.49,30.01,8.576,279.1,Dec-23,2181777,2019-08-12 17:09:02:219,-0.715,0.3611,9.8663,-0.6181,0.3176,9.782,0.0005,0.0021,0.0033
72296,48.45756,-2.517454,106.49,30.01,8.576,279.1,Dec-23,2181777,2019-08-12 17:09:02:219,-0.715,0.3611,9.8663,-0.6181,0.3176,9.782,0.0005,0.0021,0.0033
72297,48.45756,-2.517454,106.49,30.01,8.576,279.1,Dec-23,2181777,2019-08-12 17:09:02:219,-0.715,0.3611,9.8663,-0.6181,0.3176,9.782,0.0005,0.0021,0.0033
72298,48.45756,-2.517454,106.49,30.01,8.576,279.1,Dec-23,2181833,2019-08-12 17:09:02:275,-0.715,0.3611,9.8663,-0.6181,0.3176,9.782,0.0005,0.0021,0.0033
72299,48.45756,-2.517454,106.49,30.01,8.576,279.1,Dec-23,2182209,2019-08-12 17:09:02:651,-0.715,0.3611,9.8663,-0.6181,0.3176,9.782,0.0005,0.0021,0.0033
72300,48.45756,-2.517454,106.49,30.01,8.576,279.1,Dec-23,2182213,2019-08-12 17:09:02:655,-0.715,0.3611,9.8663,-0.6181,0.3176,9.782,0.0005,0.0021,0.0033
72301,48.45756,-2.517454,106.49,30.01,8.576,279.1,Dec-23,2182214,2019-08-12 17:09:02:656,-0.715,0.3611,9.8663,-0.6181,0.3176,9.782,0.0005,0.0021,0.0033
72302,48.45756,-2.517454,106.49,30.01,8.576,279.1,Dec-23,2182214,2019-08-12 17:09:02:656,-0.715,0.3611,9.8663,-0.6181,0.3176,9.782,0.0005,0.0021,0.0033
72303,48.45756,-2.517454,106.49,30.01,8.576,279.1,0 / 23,2182215,2019-08-12 17:09:02:657,-0.715,0.3611,9.8663,-0.6181,0.3176,9.782,0.0005,0.0021,0.0033
72304,48.45756,-2.517454,106.49,30.01,8.576,279.1,0 / 23,2182215,2019-08-12 17:09:02:657,-0.715,0.3611,9.8663,-0.6181,0.3176,9.782,0.0005,0.0021,0.0033
72305,48.45756,-2.517454,106.49,30.01,8.576,279.1,0 / 23,2182216,2019-08-12 17:09:02:658,-0.715,0.3611,9.8663,-0.6181,0.3176,9.782,0.0005,0.0021,0.0033
72306,48.45756,-2.517454,106.49,30.01,8.576,279.1,0 / 23,2182216,2019-08-12 17:09:02:658,-0.715,0.3611,9.8663,-0.6181,0.3176,9.782,0.0005,0.0021,0.0033
72307,48.45756,-2.517454,106.49,30.01,8.576,279.1,0 / 23,2182217,2019-08-12 17:09:02:659,-0.715,0.3611,9.8663,-0.6181,0.3176,9.782,0.0005,0.0021,0.0033
72308,48.45756,-2.517454,106.49,30.01,8.576,279.1,0 / 23,2182217,2019-08-12 17:09:02:659,-0.715,0.3611,9.8663,-0.6181,0.3176,9.782,0.0005,0.0021,0.0033
72309,48.458492,-2.52437,114.29,25.81,12.864,283.6,0 / 23,2182318,2019-08-12 17:09:02:760,-0.715,0.3611,9.8663,-0.6181,0.3176,9.782,0.0005,0.0021,0.0033
72310,48.458492,-2.52437,114.29,25.81,12.864,283.6,0 / 23,2182657,2019-08-12 17:09:03:099,-0.715,0.3611,9.8663,-0.6181,0.3176,9.782,0.0005,0.0021,0.0033
72311,48.458492,-2.52437,114.29,25.81,12.864,283.6,0 / 23,2182657,2019-08-12 17:09:03:099,-0.715,0.3611,9.8663,-0.6181,0.3176,9.782,0.0005,0.0021,0.0033
72312,48.458492,-2.52437,114.29,25.81,12.864,283.6,0 / 23,2182658,2019-08-12 17:09:03:100,-0.715,0.3611,9.8663,-0.6181,0.3176,9.782,0.0005,0.0021,0.0033
72313,48.458492,-2.52437,114.29,25.81,12.864,283.6,0 / 23,2182659,2019-08-12 17:09:03:101,-0.715,0.3611,9.8663,-0.6181,0.3176,9.782,0.0005,0.0021,0.0033
72314,48.458492,-2.52437,114.29,25.81,12.864,283.6,0 / 23,2182662,2019-08-12 17:09:03:104,-0.715,0.3611,9.8663,-0.6181,0.3176,9.782,0.0005,0.0021,0.0033
72315,48.458492,-2.52437,114.29,25.81,12.864,283.6,0 / 23,2182663,2019-08-12 17:09:03:105,-0.715,0.3611,9.8663,-0.6181,0.3176,9.782,0.0005,0.0021,0.0033
72316,48.458492,-2.52437,114.29,25.81,12.864,283.6,0 / 23,2182663,2019-08-12 17:09:03:105,-0.715,0.3611,9.8663,-0.6181,0.3176,9.782,0.0005,0.0021,0.0033
72317,48.458492,-2.52437,114.29,25.81,12.864,283.6,0 / 23,2182664,2019-08-12 17:09:03:106,-0.715,0.3611,9.8663,-0.6181,0.3176,9.782,0.0005,0.0021,0.0033
72318,48.458492,-2.52437,114.29,25.81,12.864,283.6,0 / 23,2182664,2019-08-12 17:09:03:106,-0.715,0.3611,9.8663,-0.6181,0.3176,9.782,0.0005,0.0021,0.0033
72319,48.458492,-2.52437,114.29,25.81,12.864,283.6,0 / 23,2182670,2019-08-12 17:09:03:112,-0.715,0.3611,9.8663,-0.6181,0.3176,9.782,0.0005,0.0021,0.0033
72320,48.458492,-2.52437,114.29,25.81,12.864,283.6,0 / 23,2182670,2019-08-12 17:09:03:112,-0.715,0.3611,9.8663,-0.6181,0.3176,9.782,0.0005,0.0021,0.0033
72321,48.458492,-2.52437,114.29,25.81,12.864,283.6,0 / 23,2182672,2019-08-12 17:09:03:114,-0.715,0.3611,9.8663,-0.6181,0.3176,9.782,0.0005,0.0021,0.0033
72322,48.458492,-2.52437,114.29,25.81,12.864,283.6,0 / 23,2182673,2019-08-12 17:09:03:115,-0.715,0.3611,9.8663,-0.6181,0.3176,9.782,0.0005,0.0021,0.0033
72323,48.458492,-2.52437,114.29,25.81,12.864,283.6,0 / 23,2182673,2019-08-12 17:09:03:115,-0.715,0.3611,9.8663,-0.6181,0.3176,9.782,0.0005,0.0021,0.0033
72324,48.458492,-2.52437,114.29,25.81,12.864,283.6,0 / 23,2182673,2019-08-12 17:09:03:115,-0.715,0.3611,9.8663,-0.6181,0.3176,9.782,0.0005,0.0021,0.0033
72325,48.458492,-2.52437,114.29,25.81,12.864,283.6,0 / 23,2182674,2019-08-12 17:09:03:116,-0.715,0.3611,9.8663,-0.6181,0.3176,9.782,0.0005,0.0021,0.0033
72326,48.458492,-2.52437,114.29,25.81,12.864,283.6,0 / 23,2182674,2019-08-12 17:09:03:116,-0.715,0.3611,9.8663,-0.6181,0.3176,9.782,0.0005,0.0021,0.0033
72327,48.458492,-2.52437,114.29,25.81,12.864,283.6,0 / 23,2182674,2019-08-12 17:09:03:116,-0.715,0.3611,9.8663,-0.6181,0.3176,9.782,0.0005,0.0021,0.0033
72328,48.458492,-2.52437,114.29,25.81,12.864,283.6,0 / 23,2182675,2019-08-12 17:09:03:117,-0.715,0.3611,9.8663,-0.6181,0.3176,9.782,0.0005,0.0021,0.0033
72329,48.458492,-2.52437,114.29,25.81,12.864,283.6,0 / 23,2182675,2019-08-12 17:09:03:117,-0.715,0.3611,9.8663,-0.6181,0.3176,9.782,0.0005,0.0021,0.0033
72330,48.458492,-2.52437,114.29,25.81,12.864,283.6,0 / 23,2182676,2019-08-12 17:09:03:118,-0.715,0.3611,9.8663,-0.6181,0.3176,9.782,0.0005,0.0021,0.0033
72331,48.458492,-2.52437,114.29,25.81,12.864,283.6,0 / 23,2182676,2019-08-12 17:09:03:118,-0.715,0.3611,9.8663,-0.6181,0.3176,9.782,0.0005,0.0021,0.0033
72332,48.458492,-2.52437,114.29,25.81,12.864,283.6,0 / 23,2182677,2019-08-12 17:09:03:119,-0.715,0.3611,9.8663,-0.6181,0.3176,9.782,0.0005,0.0021,0.0033
72333,48.458492,-2.52437,114.29,25.81,12.864,283.6,0 / 23,2182677,2019-08-12 17:09:03:119,-0.715,0.3611,9.8663,-0.6181,0.3176,9.782,0.0005,0.0021,0.0033
72334,48.458492,-2.52437,114.29,25.81,12.864,283.6,0 / 23,2182678,2019-08-12 17:09:03:120,-0.715,0.3611,9.8663,-0.6181,0.3176,9.782,0.0005,0.0021,0.0033
72335,48.458492,-2.52437,114.29,25.81,12.864,283.6,0 / 23,2182678,2019-08-12 17:09:03:120,-0.715,0.3611,9.8663,-0.6181,0.3176,9.782,0.0005,0.0021,0.0033
72336,48.458492,-2.52437,114.29,25.81,12.864,283.6,0 / 23,2182679,2019-08-12 17:09:03:121,-0.715,0.3611,9.8663,-0.6181,0.3176,9.782,0.0005,0.0021,0.0033
72337,48.458492,-2.52437,114.29,25.81,12.864,283.6,0 / 23,2182679,2019-08-12 17:09:03:121,-0.715,0.3611,9.8663,-0.6181,0.3176,9.782,0.0005,0.0021,0.0033
72338,48.458492,-2.52437,114.29,25.81,12.864,283.6,0 / 23,2182679,2019-08-12 17:09:03:121,-0.715,0.3611,9.8663,-0.6181,0.3176,9.782,0.0005,0.0021,0.0033
72339,48.458492,-2.52437,114.29,25.81,12.864,283.6,0 / 23,2182680,2019-08-12 17:09:03:122,-0.715,0.3611,9.8663,-0.6181,0.3176,9.782,0.0005,0.0021,0.0033
72340,48.458492,-2.52437,114.29,25.81,12.864,283.6,0 / 23,2182680,2019-08-12 17:09:03:122,-0.715,0.3611,9.8663,-0.6181,0.3176,9.782,0.0005,0.0021,0.0033
72341,48.458492,-2.52437,114.29,25.81,12.864,283.6,0 / 23,2182680,2019-08-12 17:09:03:122,-0.715,0.3611,9.8663,-0.6181,0.3176,9.782,0.0005,0.0021,0.0033
72342,48.458492,-2.52437,114.29,25.81,12.864,283.6,0 / 23,2182681,2019-08-12 17:09:03:123,-0.715,0.3611,9.8663,-0.6181,0.3176,9.782,0.0005,0.0021,0.0033
72343,48.458492,-2.52437,114.29,25.81,12.864,283.6,0 / 23,2182681,2019-08-12 17:09:03:123,-0.715,0.3611,9.8663,-0.6181,0.3176,9.782,0.0005,0.0021,0.0033
72344,48.458492,-2.52437,114.29,25.81,12.864,283.6,0 / 23,2182682,2019-08-12 17:09:03:124,-0.715,0.3611,9.8663,-0.6181,0.3176,9.782,0.0005,0.0021,0.0033
72345,48.458492,-2.52437,114.29,25.81,12.864,283.6,0 / 23,2182682,2019-08-12 17:09:03:124,-0.715,0.3611,9.8663,-0.6181,0.3176,9.782,0.0005,0.0021,0.0033
72346,48.458492,-2.52437,114.29,25.81,12.864,283.6,0 / 23,2182682,2019-08-12 17:09:03:124,-0.715,0.3611,9.8663,-0.6181,0.3176,9.782,0.0005,0.0021,0.0033
72347,48.458492,-2.52437,114.29,25.81,12.864,283.6,0 / 23,2182683,2019-08-12 17:09:03:125,-0.715,0.3611,9.8663,-0.6181,0.3176,9.782,0.0005,0.0021,0.0033
72348,48.458492,-2.52437,114.29,25.81,12.864,283.6,0 / 23,2182683,2019-08-12 17:09:03:125,-0.715,0.3611,9.8663,-0.6181,0.3176,9.782,0.0005,0.0021,0.0033
72349,48.458492,-2.52437,114.29,25.81,12.864,283.6,0 / 23,2182683,2019-08-12 17:09:03:125,-0.715,0.3611,9.8663,-0.6181,0.3176,9.782,0.0005,0.0021,0.0033
72350,48.458492,-2.52437,114.29,25.81,12.864,283.6,0 / 23,2182684,2019-08-12 17:09:03:126,-0.715,0.3611,9.8663,-0.6181,0.3176,9.782,0.0005,0.0021,0.0033
72351,48.458492,-2.52437,114.29,25.81,12.864,283.6,0 / 23,2182684,2019-08-12 17:09:03:126,-0.715,0.3611,9.8663,-0.6181,0.3176,9.782,0.0005,0.0021,0.0033
72352,48.458492,-2.52437,114.29,25.81,12.864,283.6,0 / 23,2182684,2019-08-12 17:09:03:126,-0.715,0.3611,9.8663,-0.6181,0.3176,9.782,0.0005,0.0021,0.0033
72353,48.458492,-2.52437,114.29,25.81,12.864,283.6,0 / 23,2182685,2019-08-12 17:09:03:127,-0.715,0.3611,9.8663,-0.6181,0.3176,9.782,0.0005,0.0021,0.0033
72354,48.458492,-2.52437,114.29,25.81,12.864,283.6,0 / 23,2182685,2019-08-12 17:09:03:127,-0.715,0.3611,9.8663,-0.6181,0.3176,9.782,0.0005,0.0021,0.0033
72355,48.458492,-2.52437,114.29,25.81,12.864,283.6,0 / 23,2182685,2019-08-12 17:09:03:127,-0.715,0.3611,9.8663,-0.6181,0.3176,9.782,0.0005,0.0021,0.0033
72356,48.458492,-2.52437,114.29,25.81,12.864,283.6,0 / 23,2182686,2019-08-12 17:09:03:128,-0.715,0.3611,9.8663,-0.6181,0.3176,9.782,0.0005,0.0021,0.0033
72357,48.458492,-2.52437,114.29,25.81,12.864,283.6,0 / 23,2182686,2019-08-12 17:09:03:128,-0.715,0.3611,9.8663,-0.6181,0.3176,9.782,0.0005,0.0021,0.0033
72358,48.458492,-2.52437,114.29,25.81,12.864,283.6,0 / 23,2182687,2019-08-12 17:09:03:129,-0.715,0.3611,9.8663,-0.6181,0.3176,9.782,0.0005,0.0021,0.0033
72359,48.458492,-2.52437,114.29,25.81,12.864,283.6,0 / 23,2182687,2019-08-12 17:09:03:129,-0.715,0.3611,9.8663,-0.6181,0.3176,9.782,0.0005,0.0021,0.0033
72360,48.458492,-2.52437,114.29,25.81,12.864,283.6,0 / 23,2182688,2019-08-12 17:09:03:130,-0.715,0.3611,9.8663,-0.6181,0.3176,9.782,0.0005,0.0021,0.0033
72361,48.458492,-2.52437,114.29,25.81,12.864,283.6,0 / 23,2182688,2019-08-12 17:09:03:130,-0.715,0.3611,9.8663,-0.6181,0.3176,9.782,0.0005,0.0021,0.0033
72362,48.458492,-2.52437,114.29,25.81,12.864,283.6,0 / 23,2182688,2019-08-12 17:09:03:130,-0.715,0.3611,9.8663,-0.6181,0.3176,9.782,0.0005,0.0021,0.0033
72363,48.458492,-2.52437,114.29,25.81,12.864,283.6,0 / 23,2182689,2019-08-12 17:09:03:131,-0.715,0.3611,9.8663,-0.6181,0.3176,9.782,0.0005,0.0021,0.0033
72364,48.458492,-2.52437,114.29,25.81,12.864,283.6,0 / 23,2182689,2019-08-12 17:09:03:131,-0.715,0.3611,9.8663,-0.6181,0.3176,9.782,0.0005,0.0021,0.0033
72365,48.458492,-2.52437,114.29,25.81,12.864,283.6,0 / 23,2182689,2019-08-12 17:09:03:131,-0.715,0.3611,9.8663,-0.6181,0.3176,9.782,0.0005,0.0021,0.0033
72366,48.458492,-2.52437,114.29,25.81,12.864,283.6,0 / 23,2182690,2019-08-12 17:09:03:132,-0.715,0.3611,9.8663,-0.6181,0.3176,9.782,0.0005,0.0021,0.0033
72367,48.458492,-2.52437,114.29,25.81,12.864,283.6,0 / 23,2182690,2019-08-12 17:09:03:132,-0.715,0.3611,9.8663,-0.6181,0.3176,9.782,0.0005,0.0021,0.0033
72368,48.458492,-2.52437,114.29,25.81,12.864,283.6,0 / 23,2182691,2019-08-12 17:09:03:133,-0.715,0.3611,9.8663,-0.6181,0.3176,9.782,0.0005,0.0021,0.0033
72369,48.458492,-2.52437,114.29,25.81,12.864,283.6,0 / 23,2182691,2019-08-12 17:09:03:133,-0.715,0.3611,9.8663,-0.6181,0.3176,9.782,0.0005,0.0021,0.0033
72370,48.458492,-2.52437,114.29,25.81,12.864,283.6,0 / 23,2182691,2019-08-12 17:09:03:133,-0.715,0.3611,9.8663,-0.6181,0.3176,9.782,0.0005,0.0021,0.0033
72371,48.458492,-2.52437,114.29,25.81,12.864,283.6,0 / 23,2182692,2019-08-12 17:09:03:134,-0.715,0.3611,9.8663,-0.6181,0.3176,9.782,0.0005,0.0021,0.0033
72372,48.458492,-2.52437,114.29,25.81,12.864,283.6,0 / 23,2182692,2019-08-12 17:09:03:134,-0.715,0.3611,9.8663,-0.6181,0.3176,9.782,0.0005,0.0021,0.0033
72373,48.458492,-2.52437,114.29,25.81,12.864,283.6,0 / 23,2182693,2019-08-12 17:09:03:135,-0.715,0.3611,9.8663,-0.6181,0.3176,9.782,0.0005,0.0021,0.0033
72374,48.458492,-2.52437,114.29,25.81,12.864,283.6,0 / 23,2182693,2019-08-12 17:09:03:135,-0.715,0.3611,9.8663,-0.6181,0.3176,9.782,0.0005,0.0021,0.0033
72375,48.458492,-2.52437,114.29,25.81,12.864,283.6,0 / 23,2182693,2019-08-12 17:09:03:135,-0.715,0.3611,9.8663,-0.6181,0.3176,9.782,0.0005,0.0021,0.0033
72376,48.458492,-2.52437,114.29,25.81,12.864,283.6,0 / 23,2182694,2019-08-12 17:09:03:136,-0.715,0.3611,9.8663,-0.6181,0.3176,9.782,0.0005,0.0021,0.0033
72377,48.458492,-2.52437,114.29,25.81,12.864,283.6,0 / 23,2182694,2019-08-12 17:09:03:136,-0.715,0.3611,9.8663,-0.6181,0.3176,9.782,0.0005,0.0021,0.0033
72378,48.458492,-2.52437,114.29,25.81,12.864,283.6,0 / 23,2182694,2019-08-12 17:09:03:136,-0.715,0.3611,9.8663,-0.6181,0.3176,9.782,0.0005,0.0021,0.0033
72379,48.458492,-2.52437,114.29,25.81,12.864,283.6,0 / 23,2182695,2019-08-12 17:09:03:137,-0.715,0.3611,9.8663,-0.6181,0.3176,9.782,0.0005,0.0021,0.0033
72380,48.458492,-2.52437,114.29,25.81,12.864,283.6,0 / 23,2182695,2019-08-12 17:09:03:137,-0.715,0.3611,9.8663,-0.6181,0.3176,9.782,0.0005,0.0021,0.0033
72381,48.458492,-2.52437,114.29,25.81,12.864,283.6,0 / 23,2182696,2019-08-12 17:09:03:138,-0.715,0.3611,9.8663,-0.6181,0.3176,9.782,0.0005,0.0021,0.0033
72382,48.458492,-2.52437,114.29,25.81,12.864,283.6,0 / 23,2182696,2019-08-12 17:09:03:138,-0.715,0.3611,9.8663,-0.6181,0.3176,9.782,0.0005,0.0021,0.0033
72383,48.458492,-2.52437,114.29,25.81,12.864,283.6,0 / 23,2182744,2019-08-12 17:09:03:186,-0.715,0.3611,9.8663,-0.6181,0.3176,9.782,0.0005,0.0021,0.0033
72384,48.458492,-2.52437,114.29,25.81,12.864,283.6,0 / 23,2182844,2019-08-12 17:09:03:286,-0.715,0.3611,9.8663,-0.6181,0.3176,9.782,0.0005,0.0021,0.0033
72385,48.458492,-2.52437,114.29,25.81,12.864,283.6,0 / 23,2182944,2019-08-12 17:09:03:386,-0.4086,0.3826,9.6209,-0.6181,0.3176,9.782,0.0101,-0.0032,0.0012
72386,48.458492,-2.52437,114.29,25.81,12.864,283.6,0 / 23,2183044,2019-08-12 17:09:03:486,-0.4086,0.3826,9.6209,-0.6181,0.3176,9.782,0.0101,-0.0032,0.0012
72387,48.458492,-2.52437,114.29,25.81,12.864,283.6,14 / 23,2183179,2019-08-12 17:09:03:621,0.2881,0.0414,9.4557,0.5342,0.1589,9.7908,0.0016,-0.0021,0.0076
72388,48.458492,-2.52437,114.29,25.81,12.864,283.6,14 / 23,2183244,2019-08-12 17:09:03:686,0.2881,0.0414,9.4557,0.5342,0.1589,9.7908,0.0016,-0.0021,0.0076
72389,48.458492,-2.52437,114.29,25.81,12.864,283.6,14 / 23,2183344,2019-08-12 17:09:03:786,0.2881,0.0414,9.4557,0.5342,0.1589,9.7908,0.0016,-0.0021,0.0076
72390,48.458492,-2.52437,114.29,25.81,12.864,283.6,14 / 23,2183443,2019-08-12 17:09:03:885,0.3947,0.1528,10.2733,0.53,0.1403,9.7913,0.0005,0.0149,-0.002
72391,48.458492,-2.52437,114.29,25.81,12.864,283.6,14 / 23,2183543,2019-08-12 17:09:03:985,0.5587,0.1911,10.2075,0.552,0.1466,9.79,0.0079,-0.0171,-0.0041
72392,48.458492,-2.52437,114.29,25.81,12.864,283.6,0 / 23,2183942,2019-08-12 17:09:04:384,0.6353,0.2282,9.8759,0.5349,0.1487,9.7909,0.0079,-0.0096,-0.0031
72393,48.458492,-2.52437,114.29,25.81,12.864,283.6,0 / 23,2183942,2019-08-12 17:09:04:384,0.6353,0.2282,9.8759,0.5349,0.1487,9.7909,0.0079,-0.0096,-0.0031
72394,48.458492,-2.52437,114.29,25.81,12.864,283.6,0 / 23,2183943,2019-08-12 17:09:04:385,0.6353,0.2282,9.8759,0.5349,0.1487,9.7909,0.0079,-0.0096,-0.0031
72395,48.458492,-2.52437,114.29,25.81,12.864,283.6,0 / 23,2183943,2019-08-12 17:09:04:385,0.6353,0.2282,9.8759,0.5349,0.1487,9.7909,0.0079,-0.0096,-0.0031
72396,48.458492,-2.52437,114.29,25.81,12.864,283.6,0 / 23,2183944,2019-08-12 17:09:04:386,0.6353,0.2282,9.8759,0.5349,0.1487,9.7909,0.0079,-0.0096,-0.0031
72397,48.458492,-2.52437,114.29,25.81,12.864,283.6,0 / 23,2183944,2019-08-12 17:09:04:386,0.6353,0.2282,9.8759,0.5349,0.1487,9.7909,0.0079,-0.0096,-0.0031
72398,48.458775,-2.527541,116.87,27.72,13.936001,279.5,0 / 23,2183959,2019-08-12 17:09:04:401,0.6353,0.2282,9.8759,0.5349,0.1487,9.7909,0.0079,-0.0096,-0.0031
72399,48.458775,-2.527541,116.87,27.72,13.936001,279.5,0 / 23,2184058,2019-08-12 17:09:04:500,0.6353,0.2282,9.8759,0.5349,0.1487,9.7909,0.0079,-0.0096,-0.0031
72400,48.458775,-2.527541,116.87,27.72,13.936001,279.5,0 / 23,2184399,2019-08-12 17:09:04:841,0.6353,0.2282,9.8759,0.5349,0.1487,9.7909,0.0079,-0.0096,-0.0031
72401,48.458775,-2.527541,116.87,27.72,13.936001,279.5,0 / 23,2184399,2019-08-12 17:09:04:841,0.6353,0.2282,9.8759,0.5349,0.1487,9.7909,0.0079,-0.0096,-0.0031
72402,48.458775,-2.527541,116.87,27.72,13.936001,279.5,0 / 23,2184400,2019-08-12 17:09:04:842,0.6353,0.2282,9.8759,0.5349,0.1487,9.7909,0.0079,-0.0096,-0.0031
72403,48.458775,-2.527541,116.87,27.72,13.936001,279.5,0 / 23,2184400,2019-08-12 17:09:04:842,0.6353,0.2282,9.8759,0.5349,0.1487,9.7909,0.0079,-0.0096,-0.0031
72404,48.458775,-2.527541,116.87,27.72,13.936001,279.5,0 / 23,2184401,2019-08-12 17:09:04:843,0.6353,0.2282,9.8759,0.5349,0.1487,9.7909,0.0079,-0.0096,-0.0031
72405,48.458775,-2.527541,116.87,27.72,13.936001,279.5,0 / 23,2184401,2019-08-12 17:09:04:843,0.6353,0.2282,9.8759,0.5349,0.1487,9.7909,0.0079,-0.0096,-0.0031
72406,48.458775,-2.527541,116.87,27.72,13.936001,279.5,0 / 23,2184401,2019-08-12 17:09:04:843,0.6353,0.2282,9.8759,0.5349,0.1487,9.7909,0.0079,-0.0096,-0.0031
72407,48.458775,-2.527541,116.87,27.72,13.936001,279.5,0 / 23,2184404,2019-08-12 17:09:04:846,0.6353,0.2282,9.8759,0.5349,0.1487,9.7909,0.0079,-0.0096,-0.0031
72408,48.458775,-2.527541,116.87,27.72,13.936001,279.5,0 / 23,2184405,2019-08-12 17:09:04:847,0.6353,0.2282,9.8759,0.5349,0.1487,9.7909,0.0079,-0.0096,-0.0031
72409,48.458775,-2.527541,116.87,27.72,13.936001,279.5,0 / 23,2184406,2019-08-12 17:09:04:848,0.6353,0.2282,9.8759,0.5349,0.1487,9.7909,0.0079,-0.0096,-0.0031
72410,48.458775,-2.527541,116.87,27.72,13.936001,279.5,0 / 23,2184407,2019-08-12 17:09:04:849,0.6353,0.2282,9.8759,0.5349,0.1487,9.7909,0.0079,-0.0096,-0.0031
72411,48.458775,-2.527541,116.87,27.72,13.936001,279.5,0 / 23,2184407,2019-08-12 17:09:04:849,0.6353,0.2282,9.8759,0.5349,0.1487,9.7909,0.0079,-0.0096,-0.0031
72412,48.458775,-2.527541,116.87,27.72,13.936001,279.5,0 / 23,2184408,2019-08-12 17:09:04:850,0.6353,0.2282,9.8759,0.5349,0.1487,9.7909,0.0079,-0.0096,-0.0031
72413,48.458775,-2.527541,116.87,27.72,13.936001,279.5,0 / 23,2184416,2019-08-12 17:09:04:858,0.6353,0.2282,9.8759,0.5349,0.1487,9.7909,0.0079,-0.0096,-0.0031
72414,48.458775,-2.527541,116.87,27.72,13.936001,279.5,0 / 23,2184417,2019-08-12 17:09:04:859,0.6353,0.2282,9.8759,0.5349,0.1487,9.7909,0.0079,-0.0096,-0.0031
72415,48.458775,-2.527541,116.87,27.72,13.936001,279.5,0 / 23,2184418,2019-08-12 17:09:04:860,0.6353,0.2282,9.8759,0.5349,0.1487,9.7909,0.0079,-0.0096,-0.0031
72416,48.458775,-2.527541,116.87,27.72,13.936001,279.5,0 / 23,2184418,2019-08-12 17:09:04:860,0.6353,0.2282,9.8759,0.5349,0.1487,9.7909,0.0079,-0.0096,-0.0031
72417,48.458775,-2.527541,116.87,27.72,13.936001,279.5,0 / 23,2184419,2019-08-12 17:09:04:861,0.6353,0.2282,9.8759,0.5349,0.1487,9.7909,0.0079,-0.0096,-0.0031
72418,48.458775,-2.527541,116.87,27.72,13.936001,279.5,0 / 23,2184420,2019-08-12 17:09:04:862,0.6353,0.2282,9.8759,0.5349,0.1487,9.7909,0.0079,-0.0096,-0.0031
72419,48.458775,-2.527541,116.87,27.72,13.936001,279.5,0 / 23,2184421,2019-08-12 17:09:04:863,0.6353,0.2282,9.8759,0.5349,0.1487,9.7909,0.0079,-0.0096,-0.0031
72420,48.458775,-2.527541,116.87,27.72,13.936001,279.5,0 / 23,2184422,2019-08-12 17:09:04:864,0.6353,0.2282,9.8759,0.5349,0.1487,9.7909,0.0079,-0.0096,-0.0031
72421,48.458775,-2.527541,116.87,27.72,13.936001,279.5,0 / 23,2184422,2019-08-12 17:09:04:864,0.6353,0.2282,9.8759,0.5349,0.1487,9.7909,0.0079,-0.0096,-0.0031
72422,48.458775,-2.527541,116.87,27.72,13.936001,279.5,0 / 23,2184423,2019-08-12 17:09:04:865,0.6353,0.2282,9.8759,0.5349,0.1487,9.7909,0.0079,-0.0096,-0.0031
72423,48.458775,-2.527541,116.87,27.72,13.936001,279.5,0 / 23,2184424,2019-08-12 17:09:04:866,0.6353,0.2282,9.8759,0.5349,0.1487,9.7909,0.0079,-0.0096,-0.0031
72424,48.458775,-2.527541,116.87,27.72,13.936001,279.5,0 / 23,2184424,2019-08-12 17:09:04:866,0.6353,0.2282,9.8759,0.5349,0.1487,9.7909,0.0079,-0.0096,-0.0031
72425,48.458775,-2.527541,116.87,27.72,13.936001,279.5,0 / 23,2184425,2019-08-12 17:09:04:867,0.6353,0.2282,9.8759,0.5349,0.1487,9.7909,0.0079,-0.0096,-0.0031
72426,48.458775,-2.527541,116.87,27.72,13.936001,279.5,0 / 23,2184525,2019-08-12 17:09:04:967,0.2187,0.2007,9.828,0.5349,0.1487,9.7909,0.0005,-0.0234,-0.0009
72427,48.458775,-2.527541,116.87,27.72,13.936001,279.5,0 / 23,2184626,2019-08-12 17:09:05:068,0.6089,0.3647,10.6971,0.4772,0.1702,9.7936,-0.008,-0.0064,-0.002
72428,48.458775,-2.527541,116.87,27.72,13.936001,279.5,0 / 23,2184726,2019-08-12 17:09:05:168,0.6449,0.1133,10.174,0.4831,0.1684,9.7933,-0.0197,-0.0011,-0.0009
72429,48.458775,-2.527541,116.87,27.72,13.936001,279.5,0 / 23,2184826,2019-08-12 17:09:05:268,0.6604,0.2282,10.2949,0.4953,0.1584,9.7929,-0.0197,-0.0245,0.0001
72430,48.458775,-2.527541,116.87,27.72,13.936001,279.5,0 / 23,2185201,2019-08-12 17:09:05:643,0.597,0.0989,10.1093,0.5054,0.1519,9.7924,-0.0048,-0.0128,-0.002
72431,48.458775,-2.527541,116.87,27.72,13.936001,279.5,0 / 23,2185203,2019-08-12 17:09:05:645,0.597,0.0989,10.1093,0.5054,0.1519,9.7924,-0.0048,-0.0128,-0.002
72432,48.458775,-2.527541,116.87,27.72,13.936001,279.5,0 / 23,2185204,2019-08-12 17:09:05:646,0.597,0.0989,10.1093,0.5054,0.1519,9.7924,-0.0048,-0.0128,-0.002
72433,48.458775,-2.527541,116.87,27.72,13.936001,279.5,0 / 23,2185204,2019-08-12 17:09:05:646,0.597,0.0989,10.1093,0.5054,0.1519,9.7924,-0.0048,-0.0128,-0.002
72434,48.458775,-2.527541,116.87,27.72,13.936001,279.5,0 / 23,2185205,2019-08-12 17:09:05:647,0.597,0.0989,10.1093,0.5054,0.1519,9.7924,-0.0048,-0.0128,-0.002
72435,48.458775,-2.527541,116.87,27.72,13.936001,279.5,0 / 23,2185205,2019-08-12 17:09:05:647,0.597,0.0989,10.1093,0.5054,0.1519,9.7924,-0.0048,-0.0128,-0.002
72436,48.458775,-2.527541,116.87,27.72,13.936001,279.5,0 / 23,2185206,2019-08-12 17:09:05:648,0.597,0.0989,10.1093,0.5054,0.1519,9.7924,-0.0048,-0.0128,-0.002
72437,48.458775,-2.527541,116.87,27.72,13.936001,279.5,0 / 23,2185206,2019-08-12 17:09:05:648,0.597,0.0989,10.1093,0.5054,0.1519,9.7924,-0.0048,-0.0128,-0.002
72438,48.458775,-2.527541,116.87,27.72,13.936001,279.5,0 / 23,2185207,2019-08-12 17:09:05:649,0.597,0.0989,10.1093,0.5054,0.1519,9.7924,-0.0048,-0.0128,-0.002
72439,48.458775,-2.527541,116.87,27.72,13.936001,279.5,0 / 23,2185207,2019-08-12 17:09:05:649,0.597,0.0989,10.1093,0.5054,0.1519,9.7924,-0.0048,-0.0128,-0.002
72440,48.458775,-2.527541,116.87,27.72,13.936001,279.5,0 / 23,2185207,2019-08-12 17:09:05:649,0.597,0.0989,10.1093,0.5054,0.1519,9.7924,-0.0048,-0.0128,-0.002
72441,48.458775,-2.527541,116.87,27.72,13.936001,279.5,0 / 23,2185208,2019-08-12 17:09:05:650,0.597,0.0989,10.1093,0.5054,0.1519,9.7924,-0.0048,-0.0128,-0.002
72442,48.458775,-2.527541,116.87,27.72,13.936001,279.5,0 / 23,2185224,2019-08-12 17:09:05:666,0.597,0.0989,10.1093,0.5054,0.1519,9.7924,-0.0048,-0.0128,-0.002
72443,48.458775,-2.527541,116.87,27.72,13.936001,279.5,0 / 23,2185325,2019-08-12 17:09:05:767,0.597,0.0989,10.1093,0.5054,0.1519,9.7924,-0.0048,-0.0128,-0.002
72444,48.458775,-2.527541,116.87,27.72,13.936001,279.5,14 / 23,2185659,2019-08-12 17:09:06:101,0.597,0.0989,10.1093,0.5054,0.1519,9.7924,-0.0048,-0.0128,-0.002
72445,48.458775,-2.527541,116.87,27.72,13.936001,279.5,14 / 23,2185659,2019-08-12 17:09:06:101,0.597,0.0989,10.1093,0.5054,0.1519,9.7924,-0.0048,-0.0128,-0.002
72446,48.458775,-2.527541,116.87,27.72,13.936001,279.5,14 / 23,2185660,2019-08-12 17:09:06:102,0.597,0.0989,10.1093,0.5054,0.1519,9.7924,-0.0048,-0.0128,-0.002
72447,48.458775,-2.527541,116.87,27.72,13.936001,279.5,14 / 23,2185660,2019-08-12 17:09:06:102,0.597,0.0989,10.1093,0.5054,0.1519,9.7924,-0.0048,-0.0128,-0.002
72448,48.458775,-2.527541,116.87,27.72,13.936001,279.5,14 / 23,2185661,2019-08-12 17:09:06:103,0.597,0.0989,10.1093,0.5054,0.1519,9.7924,-0.0048,-0.0128,-0.002
72449,48.458775,-2.527541,116.87,27.72,13.936001,279.5,14 / 23,2185661,2019-08-12 17:09:06:103,0.597,0.0989,10.1093,0.5054,0.1519,9.7924,-0.0048,-0.0128,-0.002
72450,48.458775,-2.527541,116.87,27.72,13.936001,279.5,14 / 23,2185662,2019-08-12 17:09:06:104,0.597,0.0989,10.1093,0.5054,0.1519,9.7924,-0.0048,-0.0128,-0.002
72451,48.458775,-2.527541,116.87,27.72,13.936001,279.5,14 / 23,2185662,2019-08-12 17:09:06:104,0.597,0.0989,10.1093,0.5054,0.1519,9.7924,-0.0048,-0.0128,-0.002
72452,48.458775,-2.527541,116.87,27.72,13.936001,279.5,14 / 23,2185663,2019-08-12 17:09:06:105,0.597,0.0989,10.1093,0.5054,0.1519,9.7924,-0.0048,-0.0128,-0.002
72453,48.458775,-2.527541,116.87,27.72,13.936001,279.5,14 / 23,2185663,2019-08-12 17:09:06:105,0.597,0.0989,10.1093,0.5054,0.1519,9.7924,-0.0048,-0.0128,-0.002
72454,48.458775,-2.527541,116.87,27.72,13.936001,279.5,14 / 23,2185663,2019-08-12 17:09:06:105,0.597,0.0989,10.1093,0.5054,0.1519,9.7924,-0.0048,-0.0128,-0.002
72455,48.458775,-2.527541,116.87,27.72,13.936001,279.5,14 / 23,2185664,2019-08-12 17:09:06:106,0.597,0.0989,10.1093,0.5054,0.1519,9.7924,-0.0048,-0.0128,-0.002
72456,48.458775,-2.527541,116.87,27.72,13.936001,279.5,14 / 23,2185664,2019-08-12 17:09:06:106,0.597,0.0989,10.1093,0.5054,0.1519,9.7924,-0.0048,-0.0128,-0.002
72457,48.458775,-2.527541,116.87,27.72,13.936001,279.5,14 / 23,2185664,2019-08-12 17:09:06:106,0.597,0.0989,10.1093,0.5054,0.1519,9.7924,-0.0048,-0.0128,-0.002
72458,48.458775,-2.527541,116.87,27.72,13.936001,279.5,14 / 23,2185679,2019-08-12 17:09:06:121,0.597,0.0989,10.1093,0.5054,0.1519,9.7924,-0.0048,-0.0128,-0.002
72459,48.458775,-2.527541,116.87,27.72,13.936001,279.5,14 / 23,2185679,2019-08-12 17:09:06:121,0.597,0.0989,10.1093,0.5054,0.1519,9.7924,-0.0048,-0.0128,-0.002
72460,48.458775,-2.527541,116.87,27.72,13.936001,279.5,14 / 23,2185680,2019-08-12 17:09:06:122,0.597,0.0989,10.1093,0.5054,0.1519,9.7924,-0.0048,-0.0128,-0.002
72461,48.458775,-2.527541,116.87,27.72,13.936001,279.5,14 / 23,2185680,2019-08-12 17:09:06:122,0.597,0.0989,10.1093,0.5054,0.1519,9.7924,-0.0048,-0.0128,-0.002
72462,48.458775,-2.527541,116.87,27.72,13.936001,279.5,14 / 23,2185680,2019-08-12 17:09:06:122,0.597,0.0989,10.1093,0.5054,0.1519,9.7924,-0.0048,-0.0128,-0.002
72463,48.458775,-2.527541,116.87,27.72,13.936001,279.5,14 / 23,2185681,2019-08-12 17:09:06:123,0.597,0.0989,10.1093,0.5054,0.1519,9.7924,-0.0048,-0.0128,-0.002
72464,48.458775,-2.527541,116.87,27.72,13.936001,279.5,14 / 23,2185681,2019-08-12 17:09:06:123,0.597,0.0989,10.1093,0.5054,0.1519,9.7924,-0.0048,-0.0128,-0.002
72465,48.458775,-2.527541,116.87,27.72,13.936001,279.5,14 / 23,2185682,2019-08-12 17:09:06:124,0.597,0.0989,10.1093,0.5054,0.1519,9.7924,-0.0048,-0.0128,-0.002
72466,48.458775,-2.527541,116.87,27.72,13.936001,279.5,14 / 23,2185682,2019-08-12 17:09:06:124,0.597,0.0989,10.1093,0.5054,0.1519,9.7924,-0.0048,-0.0128,-0.002
72467,48.458775,-2.527541,116.87,27.72,13.936001,279.5,14 / 23,2185683,2019-08-12 17:09:06:125,0.597,0.0989,10.1093,0.5054,0.1519,9.7924,-0.0048,-0.0128,-0.002
72468,48.458775,-2.527541,116.87,27.72,13.936001,279.5,14 / 23,2185683,2019-08-12 17:09:06:125,0.597,0.0989,10.1093,0.5054,0.1519,9.7924,-0.0048,-0.0128,-0.002
72469,48.458775,-2.527541,116.87,27.72,13.936001,279.5,14 / 23,2185684,2019-08-12 17:09:06:126,0.597,0.0989,10.1093,0.5054,0.1519,9.7924,-0.0048,-0.0128,-0.002
72470,48.458775,-2.527541,116.87,27.72,13.936001,279.5,14 / 23,2185684,2019-08-12 17:09:06:126,0.597,0.0989,10.1093,0.5054,0.1519,9.7924,-0.0048,-0.0128,-0.002
72471,48.458775,-2.527541,116.87,27.72,13.936001,279.5,14 / 23,2185684,2019-08-12 17:09:06:126,0.597,0.0989,10.1093,0.5054,0.1519,9.7924,-0.0048,-0.0128,-0.002
72472,48.458775,-2.527541,116.87,27.72,13.936001,279.5,14 / 23,2185692,2019-08-12 17:09:06:134,0.597,0.0989,10.1093,0.5054,0.1519,9.7924,-0.0048,-0.0128,-0.002
72473,48.458775,-2.527541,116.87,27.72,13.936001,279.5,14 / 23,2185692,2019-08-12 17:09:06:134,0.597,0.0989,10.1093,0.5054,0.1519,9.7924,-0.0048,-0.0128,-0.002
72474,48.458775,-2.527541,116.87,27.72,13.936001,279.5,14 / 23,2185693,2019-08-12 17:09:06:135,0.597,0.0989,10.1093,0.5054,0.1519,9.7924,-0.0048,-0.0128,-0.002
72475,48.458775,-2.527541,116.87,27.72,13.936001,279.5,14 / 23,2185693,2019-08-12 17:09:06:135,0.597,0.0989,10.1093,0.5054,0.1519,9.7924,-0.0048,-0.0128,-0.002
72476,48.458775,-2.527541,116.87,27.72,13.936001,279.5,14 / 23,2185694,2019-08-12 17:09:06:136,0.597,0.0989,10.1093,0.5054,0.1519,9.7924,-0.0048,-0.0128,-0.002
72477,48.458775,-2.527541,116.87,27.72,13.936001,279.5,14 / 23,2185694,2019-08-12 17:09:06:136,0.597,0.0989,10.1093,0.5054,0.1519,9.7924,-0.0048,-0.0128,-0.002
72478,48.458775,-2.527541,116.87,27.72,13.936001,279.5,14 / 23,2185694,2019-08-12 17:09:06:136,0.597,0.0989,10.1093,0.5054,0.1519,9.7924,-0.0048,-0.0128,-0.002
72479,48.458775,-2.527541,116.87,27.72,13.936001,279.5,14 / 23,2185780,2019-08-12 17:09:06:222,0.597,0.0989,10.1093,0.5054,0.1519,9.7924,-0.0048,-0.0128,-0.002
72480,48.458775,-2.527541,116.87,27.72,13.936001,279.5,14 / 23,2186102,2019-08-12 17:09:06:544,0.597,0.0989,10.1093,0.5054,0.1519,9.7924,-0.0048,-0.0128,-0.002
72481,48.458775,-2.527541,116.87,27.72,13.936001,279.5,0 / 23,2186103,2019-08-12 17:09:06:545,0.597,0.0989,10.1093,0.5054,0.1519,9.7924,-0.0048,-0.0128,-0.002
72482,48.458775,-2.527541,116.87,27.72,13.936001,279.5,0 / 23,2186103,2019-08-12 17:09:06:545,0.597,0.0989,10.1093,0.5054,0.1519,9.7924,-0.0048,-0.0128,-0.002
72483,48.458775,-2.527541,116.87,27.72,13.936001,279.5,0 / 23,2186104,2019-08-12 17:09:06:546,0.597,0.0989,10.1093,0.5054,0.1519,9.7924,-0.0048,-0.0128,-0.002
72484,48.458775,-2.527541,116.87,27.72,13.936001,279.5,0 / 23,2186104,2019-08-12 17:09:06:546,0.597,0.0989,10.1093,0.5054,0.1519,9.7924,-0.0048,-0.0128,-0.002
72485,48.458775,-2.527541,116.87,27.72,13.936001,279.5,0 / 23,2186105,2019-08-12 17:09:06:547,0.597,0.0989,10.1093,0.5054,0.1519,9.7924,-0.0048,-0.0128,-0.002
72486,48.458775,-2.527541,116.87,27.72,13.936001,279.5,0 / 23,2186105,2019-08-12 17:09:06:547,0.597,0.0989,10.1093,0.5054,0.1519,9.7924,-0.0048,-0.0128,-0.002
72487,48.458775,-2.527541,116.87,27.72,13.936001,279.5,0 / 23,2186106,2019-08-12 17:09:06:548,0.597,0.0989,10.1093,0.5054,0.1519,9.7924,-0.0048,-0.0128,-0.002
72488,48.458775,-2.527541,116.87,27.72,13.936001,279.5,0 / 23,2186111,2019-08-12 17:09:06:553,0.597,0.0989,10.1093,0.5054,0.1519,9.7924,-0.0048,-0.0128,-0.002
72489,48.459324,-2.530846,116.58,28.51,7.504,282.5,0 / 23,2186211,2019-08-12 17:09:06:653,0.597,0.0989,10.1093,0.5054,0.1519,9.7924,-0.0048,-0.0128,-0.002
72490,48.459324,-2.530846,116.58,28.51,7.504,282.5,14 / 23,2186581,2019-08-12 17:09:07:023,0.597,0.0989,10.1093,0.5054,0.1519,9.7924,-0.0048,-0.0128,-0.002
72491,48.459324,-2.530846,116.58,28.51,7.504,282.5,14 / 23,2186582,2019-08-12 17:09:07:024,0.597,0.0989,10.1093,0.5054,0.1519,9.7924,-0.0048,-0.0128,-0.002
72492,48.459324,-2.530846,116.58,28.51,7.504,282.5,14 / 23,2186583,2019-08-12 17:09:07:025,0.597,0.0989,10.1093,0.5054,0.1519,9.7924,-0.0048,-0.0128,-0.002
72493,48.459324,-2.530846,116.58,28.51,7.504,282.5,14 / 23,2186583,2019-08-12 17:09:07:025,0.597,0.0989,10.1093,0.5054,0.1519,9.7924,-0.0048,-0.0128,-0.002
72494,48.459324,-2.530846,116.58,28.51,7.504,282.5,14 / 23,2186583,2019-08-12 17:09:07:025,0.597,0.0989,10.1093,0.5054,0.1519,9.7924,-0.0048,-0.0128,-0.002
72495,48.459324,-2.530846,116.58,28.51,7.504,282.5,14 / 23,2186584,2019-08-12 17:09:07:026,0.597,0.0989,10.1093,0.5054,0.1519,9.7924,-0.0048,-0.0128,-0.002
72496,48.459324,-2.530846,116.58,28.51,7.504,282.5,14 / 23,2186584,2019-08-12 17:09:07:026,0.597,0.0989,10.1093,0.5054,0.1519,9.7924,-0.0048,-0.0128,-0.002
72497,48.459324,-2.530846,116.58,28.51,7.504,282.5,14 / 23,2186586,2019-08-12 17:09:07:028,0.597,0.0989,10.1093,0.5054,0.1519,9.7924,-0.0048,-0.0128,-0.002
72498,48.459324,-2.530846,116.58,28.51,7.504,282.5,14 / 23,2186586,2019-08-12 17:09:07:028,0.597,0.0989,10.1093,0.5054,0.1519,9.7924,-0.0048,-0.0128,-0.002
72499,48.459324,-2.530846,116.58,28.51,7.504,282.5,14 / 23,2186586,2019-08-12 17:09:07:028,0.597,0.0989,10.1093,0.5054,0.1519,9.7924,-0.0048,-0.0128,-0.002
72500,48.459324,-2.530846,116.58,28.51,7.504,282.5,14 / 23,2186590,2019-08-12 17:09:07:032,0.597,0.0989,10.1093,0.5054,0.1519,9.7924,-0.0048,-0.0128,-0.002
72501,48.459324,-2.530846,116.58,28.51,7.504,282.5,14 / 23,2186591,2019-08-12 17:09:07:033,0.597,0.0989,10.1093,0.5054,0.1519,9.7924,-0.0048,-0.0128,-0.002
72502,48.459324,-2.530846,116.58,28.51,7.504,282.5,14 / 23,2186592,2019-08-12 17:09:07:034,0.597,0.0989,10.1093,0.5054,0.1519,9.7924,-0.0048,-0.0128,-0.002
72503,48.459324,-2.530846,116.58,28.51,7.504,282.5,14 / 23,2186592,2019-08-12 17:09:07:034,0.597,0.0989,10.1093,0.5054,0.1519,9.7924,-0.0048,-0.0128,-0.002
72504,48.459324,-2.530846,116.58,28.51,7.504,282.5,14 / 23,2186593,2019-08-12 17:09:07:035,0.597,0.0989,10.1093,0.5054,0.1519,9.7924,-0.0048,-0.0128,-0.002
72505,48.459324,-2.530846,116.58,28.51,7.504,282.5,14 / 23,2186593,2019-08-12 17:09:07:035,0.597,0.0989,10.1093,0.5054,0.1519,9.7924,-0.0048,-0.0128,-0.002
72506,48.459324,-2.530846,116.58,28.51,7.504,282.5,14 / 23,2186594,2019-08-12 17:09:07:036,0.597,0.0989,10.1093,0.5054,0.1519,9.7924,-0.0048,-0.0128,-0.002
72507,48.459324,-2.530846,116.58,28.51,7.504,282.5,14 / 23,2186594,2019-08-12 17:09:07:036,0.597,0.0989,10.1093,0.5054,0.1519,9.7924,-0.0048,-0.0128,-0.002
72508,48.459324,-2.530846,116.58,28.51,7.504,282.5,14 / 23,2186594,2019-08-12 17:09:07:036,0.597,0.0989,10.1093,0.5054,0.1519,9.7924,-0.0048,-0.0128,-0.002
72509,48.459324,-2.530846,116.58,28.51,7.504,282.5,14 / 23,2186602,2019-08-12 17:09:07:044,0.597,0.0989,10.1093,0.5054,0.1519,9.7924,-0.0048,-0.0128,-0.002
72510,48.459324,-2.530846,116.58,28.51,7.504,282.5,14 / 23,2186603,2019-08-12 17:09:07:045,0.597,0.0989,10.1093,0.5054,0.1519,9.7924,-0.0048,-0.0128,-0.002
72511,48.459324,-2.530846,116.58,28.51,7.504,282.5,14 / 23,2186603,2019-08-12 17:09:07:045,0.597,0.0989,10.1093,0.5054,0.1519,9.7924,-0.0048,-0.0128,-0.002
72512,48.459324,-2.530846,116.58,28.51,7.504,282.5,14 / 23,2186604,2019-08-12 17:09:07:046,0.597,0.0989,10.1093,0.5054,0.1519,9.7924,-0.0048,-0.0128,-0.002
72513,48.459324,-2.530846,116.58,28.51,7.504,282.5,14 / 23,2186604,2019-08-12 17:09:07:046,0.597,0.0989,10.1093,0.5054,0.1519,9.7924,-0.0048,-0.0128,-0.002
72514,48.459324,-2.530846,116.58,28.51,7.504,282.5,14 / 23,2186605,2019-08-12 17:09:07:047,0.597,0.0989,10.1093,0.5054,0.1519,9.7924,-0.0048,-0.0128,-0.002
72515,48.459324,-2.530846,116.58,28.51,7.504,282.5,14 / 23,2186605,2019-08-12 17:09:07:047,0.597,0.0989,10.1093,0.5054,0.1519,9.7924,-0.0048,-0.0128,-0.002
72516,48.459324,-2.530846,116.58,28.51,7.504,282.5,14 / 23,2186606,2019-08-12 17:09:07:048,0.597,0.0989,10.1093,0.5054,0.1519,9.7924,-0.0048,-0.0128,-0.002
72517,48.459324,-2.530846,116.58,28.51,7.504,282.5,14 / 23,2186606,2019-08-12 17:09:07:048,0.597,0.0989,10.1093,0.5054,0.1519,9.7924,-0.0048,-0.0128,-0.002
72518,48.459324,-2.530846,116.58,28.51,7.504,282.5,14 / 23,2186607,2019-08-12 17:09:07:049,0.597,0.0989,10.1093,0.5054,0.1519,9.7924,-0.0048,-0.0128,-0.002
72519,48.459324,-2.530846,116.58,28.51,7.504,282.5,14 / 23,2186607,2019-08-12 17:09:07:049,0.597,0.0989,10.1093,0.5054,0.1519,9.7924,-0.0048,-0.0128,-0.002
72520,48.459324,-2.530846,116.58,28.51,7.504,282.5,14 / 23,2186607,2019-08-12 17:09:07:049,0.597,0.0989,10.1093,0.5054,0.1519,9.7924,-0.0048,-0.0128,-0.002
72521,48.459324,-2.530846,116.58,28.51,7.504,282.5,14 / 23,2186608,2019-08-12 17:09:07:050,0.597,0.0989,10.1093,0.5054,0.1519,9.7924,-0.0048,-0.0128,-0.002
72522,48.459324,-2.530846,116.58,28.51,7.504,282.5,14 / 23,2186611,2019-08-12 17:09:07:053,0.597,0.0989,10.1093,0.5054,0.1519,9.7924,-0.0048,-0.0128,-0.002
72523,48.459324,-2.530846,116.58,28.51,7.504,282.5,14 / 23,2186612,2019-08-12 17:09:07:054,0.597,0.0989,10.1093,0.5054,0.1519,9.7924,-0.0048,-0.0128,-0.002
72524,48.459324,-2.530846,116.58,28.51,7.504,282.5,14 / 23,2186612,2019-08-12 17:09:07:054,0.597,0.0989,10.1093,0.5054,0.1519,9.7924,-0.0048,-0.0128,-0.002
72525,48.459324,-2.530846,116.58,28.51,7.504,282.5,14 / 23,2186613,2019-08-12 17:09:07:055,0.597,0.0989,10.1093,0.5054,0.1519,9.7924,-0.0048,-0.0128,-0.002
72526,48.459324,-2.530846,116.58,28.51,7.504,282.5,14 / 23,2186613,2019-08-12 17:09:07:055,0.597,0.0989,10.1093,0.5054,0.1519,9.7924,-0.0048,-0.0128,-0.002
72527,48.459324,-2.530846,116.58,28.51,7.504,282.5,14 / 23,2186614,2019-08-12 17:09:07:056,0.597,0.0989,10.1093,0.5054,0.1519,9.7924,-0.0048,-0.0128,-0.002
72528,48.459324,-2.530846,116.58,28.51,7.504,282.5,14 / 23,2186614,2019-08-12 17:09:07:056,0.597,0.0989,10.1093,0.5054,0.1519,9.7924,-0.0048,-0.0128,-0.002
72529,48.459324,-2.530846,116.58,28.51,7.504,282.5,14 / 23,2186614,2019-08-12 17:09:07:056,0.597,0.0989,10.1093,0.5054,0.1519,9.7924,-0.0048,-0.0128,-0.002
72530,48.459324,-2.530846,116.58,28.51,7.504,282.5,14 / 23,2186615,2019-08-12 17:09:07:057,0.597,0.0989,10.1093,0.5054,0.1519,9.7924,-0.0048,-0.0128,-0.002
72531,48.459324,-2.530846,116.58,28.51,7.504,282.5,14 / 23,2186615,2019-08-12 17:09:07:057,0.597,0.0989,10.1093,0.5054,0.1519,9.7924,-0.0048,-0.0128,-0.002
72532,48.459324,-2.530846,116.58,28.51,7.504,282.5,14 / 23,2186616,2019-08-12 17:09:07:058,0.597,0.0989,10.1093,0.5054,0.1519,9.7924,-0.0048,-0.0128,-0.002
72533,48.459324,-2.530846,116.58,28.51,7.504,282.5,14 / 23,2186616,2019-08-12 17:09:07:058,0.597,0.0989,10.1093,0.5054,0.1519,9.7924,-0.0048,-0.0128,-0.002
72534,48.459324,-2.530846,116.58,28.51,7.504,282.5,14 / 23,2186616,2019-08-12 17:09:07:058,0.597,0.0989,10.1093,0.5054,0.1519,9.7924,-0.0048,-0.0128,-0.002
72535,48.459324,-2.530846,116.58,28.51,7.504,282.5,14 / 23,2186616,2019-08-12 17:09:07:058,0.597,0.0989,10.1093,0.5054,0.1519,9.7924,-0.0048,-0.0128,-0.002
72536,48.459324,-2.530846,116.58,28.51,7.504,282.5,14 / 23,2186617,2019-08-12 17:09:07:059,0.597,0.0989,10.1093,0.5054,0.1519,9.7924,-0.0048,-0.0128,-0.002
72537,48.459324,-2.530846,116.58,28.51,7.504,282.5,14 / 23,2186617,2019-08-12 17:09:07:059,0.597,0.0989,10.1093,0.5054,0.1519,9.7924,-0.0048,-0.0128,-0.002
72538,48.459324,-2.530846,116.58,28.51,7.504,282.5,14 / 23,2186617,2019-08-12 17:09:07:059,0.597,0.0989,10.1093,0.5054,0.1519,9.7924,-0.0048,-0.0128,-0.002
72539,48.459324,-2.530846,116.58,28.51,7.504,282.5,14 / 23,2186618,2019-08-12 17:09:07:060,0.597,0.0989,10.1093,0.5054,0.1519,9.7924,-0.0048,-0.0128,-0.002
72540,48.459324,-2.530846,116.58,28.51,7.504,282.5,14 / 23,2186618,2019-08-12 17:09:07:060,0.597,0.0989,10.1093,0.5054,0.1519,9.7924,-0.0048,-0.0128,-0.002
72541,48.459324,-2.530846,116.58,28.51,7.504,282.5,14 / 23,2186618,2019-08-12 17:09:07:060,0.597,0.0989,10.1093,0.5054,0.1519,9.7924,-0.0048,-0.0128,-0.002
72542,48.459324,-2.530846,116.58,28.51,7.504,282.5,14 / 23,2186619,2019-08-12 17:09:07:061,0.597,0.0989,10.1093,0.5054,0.1519,9.7924,-0.0048,-0.0128,-0.002
72543,48.459324,-2.530846,116.58,28.51,7.504,282.5,14 / 23,2186619,2019-08-12 17:09:07:061,0.597,0.0989,10.1093,0.5054,0.1519,9.7924,-0.0048,-0.0128,-0.002
72544,48.459324,-2.530846,116.58,28.51,7.504,282.5,14 / 23,2186619,2019-08-12 17:09:07:061,0.597,0.0989,10.1093,0.5054,0.1519,9.7924,-0.0048,-0.0128,-0.002
72545,48.459324,-2.530846,116.58,28.51,7.504,282.5,14 / 23,2186620,2019-08-12 17:09:07:062,0.597,0.0989,10.1093,0.5054,0.1519,9.7924,-0.0048,-0.0128,-0.002
72546,48.459324,-2.530846,116.58,28.51,7.504,282.5,14 / 23,2186620,2019-08-12 17:09:07:062,0.597,0.0989,10.1093,0.5054,0.1519,9.7924,-0.0048,-0.0128,-0.002
72547,48.459324,-2.530846,116.58,28.51,7.504,282.5,14 / 23,2186621,2019-08-12 17:09:07:063,0.597,0.0989,10.1093,0.5054,0.1519,9.7924,-0.0048,-0.0128,-0.002
72548,48.459324,-2.530846,116.58,28.51,7.504,282.5,14 / 23,2186621,2019-08-12 17:09:07:063,0.597,0.0989,10.1093,0.5054,0.1519,9.7924,-0.0048,-0.0128,-0.002
72549,48.459324,-2.530846,116.58,28.51,7.504,282.5,14 / 23,2186621,2019-08-12 17:09:07:063,0.597,0.0989,10.1093,0.5054,0.1519,9.7924,-0.0048,-0.0128,-0.002
72550,48.459324,-2.530846,116.58,28.51,7.504,282.5,14 / 23,2186622,2019-08-12 17:09:07:064,0.597,0.0989,10.1093,0.5054,0.1519,9.7924,-0.0048,-0.0128,-0.002
72551,48.459324,-2.530846,116.58,28.51,7.504,282.5,14 / 23,2186622,2019-08-12 17:09:07:064,0.597,0.0989,10.1093,0.5054,0.1519,9.7924,-0.0048,-0.0128,-0.002
72552,48.459324,-2.530846,116.58,28.51,7.504,282.5,14 / 23,2186622,2019-08-12 17:09:07:064,0.597,0.0989,10.1093,0.5054,0.1519,9.7924,-0.0048,-0.0128,-0.002
72553,48.459324,-2.530846,116.58,28.51,7.504,282.5,14 / 23,2186623,2019-08-12 17:09:07:065,0.597,0.0989,10.1093,0.5054,0.1519,9.7924,-0.0048,-0.0128,-0.002
72554,48.459324,-2.530846,116.58,28.51,7.504,282.5,14 / 23,2186623,2019-08-12 17:09:07:065,0.597,0.0989,10.1093,0.5054,0.1519,9.7924,-0.0048,-0.0128,-0.002
72555,48.459324,-2.530846,116.58,28.51,7.504,282.5,14 / 23,2186624,2019-08-12 17:09:07:066,0.597,0.0989,10.1093,0.5054,0.1519,9.7924,-0.0048,-0.0128,-0.002
72556,48.459324,-2.530846,116.58,28.51,7.504,282.5,14 / 23,2186624,2019-08-12 17:09:07:066,0.597,0.0989,10.1093,0.5054,0.1519,9.7924,-0.0048,-0.0128,-0.002
72557,48.459324,-2.530846,116.58,28.51,7.504,282.5,14 / 23,2186624,2019-08-12 17:09:07:066,0.597,0.0989,10.1093,0.5054,0.1519,9.7924,-0.0048,-0.0128,-0.002
72558,48.459324,-2.530846,116.58,28.51,7.504,282.5,14 / 23,2186625,2019-08-12 17:09:07:067,0.597,0.0989,10.1093,0.5054,0.1519,9.7924,-0.0048,-0.0128,-0.002
72559,48.459324,-2.530846,116.58,28.51,7.504,282.5,14 / 23,2186625,2019-08-12 17:09:07:067,0.597,0.0989,10.1093,0.5054,0.1519,9.7924,-0.0048,-0.0128,-0.002
72560,48.459324,-2.530846,116.58,28.51,7.504,282.5,14 / 23,2186625,2019-08-12 17:09:07:067,0.597,0.0989,10.1093,0.5054,0.1519,9.7924,-0.0048,-0.0128,-0.002
72561,48.459324,-2.530846,116.58,28.51,7.504,282.5,14 / 23,2186626,2019-08-12 17:09:07:068,0.597,0.0989,10.1093,0.5054,0.1519,9.7924,-0.0048,-0.0128,-0.002
72562,48.459324,-2.530846,116.58,28.51,7.504,282.5,14 / 23,2186626,2019-08-12 17:09:07:068,0.597,0.0989,10.1093,0.5054,0.1519,9.7924,-0.0048,-0.0128,-0.002
72563,48.459324,-2.530846,116.58,28.51,7.504,282.5,14 / 23,2186626,2019-08-12 17:09:07:068,0.597,0.0989,10.1093,0.5054,0.1519,9.7924,-0.0048,-0.0128,-0.002
72564,48.459324,-2.530846,116.58,28.51,7.504,282.5,14 / 23,2186627,2019-08-12 17:09:07:069,0.597,0.0989,10.1093,0.5054,0.1519,9.7924,-0.0048,-0.0128,-0.002
72565,48.459324,-2.530846,116.58,28.51,7.504,282.5,14 / 23,2186627,2019-08-12 17:09:07:069,0.597,0.0989,10.1093,0.5054,0.1519,9.7924,-0.0048,-0.0128,-0.002
72566,48.459324,-2.530846,116.58,28.51,7.504,282.5,14 / 23,2186628,2019-08-12 17:09:07:070,0.597,0.0989,10.1093,0.5054,0.1519,9.7924,-0.0048,-0.0128,-0.002
72567,48.459324,-2.530846,116.58,28.51,7.504,282.5,14 / 23,2186628,2019-08-12 17:09:07:070,0.597,0.0989,10.1093,0.5054,0.1519,9.7924,-0.0048,-0.0128,-0.002
72568,48.459324,-2.530846,116.58,28.51,7.504,282.5,14 / 23,2186628,2019-08-12 17:09:07:070,0.597,0.0989,10.1093,0.5054,0.1519,9.7924,-0.0048,-0.0128,-0.002
72569,48.459324,-2.530846,116.58,28.51,7.504,282.5,14 / 23,2186698,2019-08-12 17:09:07:140,0.597,0.0989,10.1093,0.5054,0.1519,9.7924,-0.0048,-0.0128,-0.002
72570,48.459324,-2.530846,116.58,28.51,7.504,282.5,14 / 23,2187030,2019-08-12 17:09:07:472,0.597,0.0989,10.1093,0.5054,0.1519,9.7924,-0.0048,-0.0128,-0.002
72571,48.459324,-2.530846,116.58,28.51,7.504,282.5,14 / 23,2187031,2019-08-12 17:09:07:473,0.597,0.0989,10.1093,0.5054,0.1519,9.7924,-0.0048,-0.0128,-0.002
72572,48.459324,-2.530846,116.58,28.51,7.504,282.5,14 / 23,2187031,2019-08-12 17:09:07:473,0.597,0.0989,10.1093,0.5054,0.1519,9.7924,-0.0048,-0.0128,-0.002
72573,48.459324,-2.530846,116.58,28.51,7.504,282.5,14 / 23,2187032,2019-08-12 17:09:07:474,0.597,0.0989,10.1093,0.5054,0.1519,9.7924,-0.0048,-0.0128,-0.002
72574,48.459324,-2.530846,116.58,28.51,7.504,282.5,14 / 23,2187118,2019-08-12 17:09:07:560,0.597,0.0989,10.1093,0.5054,0.1519,9.7924,-0.0048,-0.0128,-0.002
72575,48.459324,-2.530846,116.58,28.51,7.504,282.5,0 / 23,2187503,2019-08-12 17:09:07:945,0.597,0.0989,10.1093,0.5054,0.1519,9.7924,-0.0048,-0.0128,-0.002
72576,48.459324,-2.530846,116.58,28.51,7.504,282.5,0 / 23,2187503,2019-08-12 17:09:07:945,0.597,0.0989,10.1093,0.5054,0.1519,9.7924,-0.0048,-0.0128,-0.002
72577,48.459324,-2.530846,116.58,28.51,7.504,282.5,0 / 23,2187505,2019-08-12 17:09:07:947,0.597,0.0989,10.1093,0.5054,0.1519,9.7924,-0.0048,-0.0128,-0.002
72578,48.459324,-2.530846,116.58,28.51,7.504,282.5,0 / 23,2187512,2019-08-12 17:09:07:954,0.597,0.0989,10.1093,0.5054,0.1519,9.7924,-0.0048,-0.0128,-0.002
72579,48.45975,-2.534293,124.65,30.35,6.432,285.6,0 / 23,2187612,2019-08-12 17:09:08:054,0.597,0.0989,10.1093,0.5054,0.1519,9.7924,-0.0048,-0.0128,-0.002
72580,48.45975,-2.534293,124.65,30.35,6.432,285.6,16 / 23,2187973,2019-08-12 17:09:08:415,0.597,0.0989,10.1093,0.5054,0.1519,9.7924,-0.0048,-0.0128,-0.002
72581,48.45975,-2.534293,124.65,30.35,6.432,285.6,16 / 23,2187974,2019-08-12 17:09:08:416,0.597,0.0989,10.1093,0.5054,0.1519,9.7924,-0.0048,-0.0128,-0.002
72582,48.45975,-2.534293,124.65,30.35,6.432,285.6,16 / 23,2187974,2019-08-12 17:09:08:416,0.597,0.0989,10.1093,0.5054,0.1519,9.7924,-0.0048,-0.0128,-0.002
72583,48.45975,-2.534293,124.65,30.35,6.432,285.6,16 / 23,2187974,2019-08-12 17:09:08:416,0.597,0.0989,10.1093,0.5054,0.1519,9.7924,-0.0048,-0.0128,-0.002
72584,48.45975,-2.534293,124.65,30.35,6.432,285.6,16 / 23,2187975,2019-08-12 17:09:08:417,0.597,0.0989,10.1093,0.5054,0.1519,9.7924,-0.0048,-0.0128,-0.002
72585,48.45975,-2.534293,124.65,30.35,6.432,285.6,16 / 23,2187975,2019-08-12 17:09:08:417,0.597,0.0989,10.1093,0.5054,0.1519,9.7924,-0.0048,-0.0128,-0.002
72586,48.45975,-2.534293,124.65,30.35,6.432,285.6,16 / 23,2187976,2019-08-12 17:09:08:418,0.597,0.0989,10.1093,0.5054,0.1519,9.7924,-0.0048,-0.0128,-0.002
72587,48.45975,-2.534293,124.65,30.35,6.432,285.6,16 / 23,2187976,2019-08-12 17:09:08:418,0.597,0.0989,10.1093,0.5054,0.1519,9.7924,-0.0048,-0.0128,-0.002
72588,48.45975,-2.534293,124.65,30.35,6.432,285.6,16 / 23,2187977,2019-08-12 17:09:08:419,0.597,0.0989,10.1093,0.5054,0.1519,9.7924,-0.0048,-0.0128,-0.002
72589,48.45975,-2.534293,124.65,30.35,6.432,285.6,16 / 23,2187977,2019-08-12 17:09:08:419,0.597,0.0989,10.1093,0.5054,0.1519,9.7924,-0.0048,-0.0128,-0.002
72590,48.45975,-2.534293,124.65,30.35,6.432,285.6,16 / 23,2187978,2019-08-12 17:09:08:420,0.597,0.0989,10.1093,0.5054,0.1519,9.7924,-0.0048,-0.0128,-0.002
72591,48.45975,-2.534293,124.65,30.35,6.432,285.6,16 / 23,2187978,2019-08-12 17:09:08:420,0.597,0.0989,10.1093,0.5054,0.1519,9.7924,-0.0048,-0.0128,-0.002
72592,48.45975,-2.534293,124.65,30.35,6.432,285.6,16 / 23,2187979,2019-08-12 17:09:08:421,0.597,0.0989,10.1093,0.5054,0.1519,9.7924,-0.0048,-0.0128,-0.002
72593,48.45975,-2.534293,124.65,30.35,6.432,285.6,16 / 23,2187979,2019-08-12 17:09:08:421,0.597,0.0989,10.1093,0.5054,0.1519,9.7924,-0.0048,-0.0128,-0.002
72594,48.45975,-2.534293,124.65,30.35,6.432,285.6,16 / 23,2187979,2019-08-12 17:09:08:421,0.597,0.0989,10.1093,0.5054,0.1519,9.7924,-0.0048,-0.0128,-0.002
72595,48.45975,-2.534293,124.65,30.35,6.432,285.6,16 / 23,2187980,2019-08-12 17:09:08:422,0.597,0.0989,10.1093,0.5054,0.1519,9.7924,-0.0048,-0.0128,-0.002
72596,48.45975,-2.534293,124.65,30.35,6.432,285.6,16 / 23,2187980,2019-08-12 17:09:08:422,0.597,0.0989,10.1093,0.5054,0.1519,9.7924,-0.0048,-0.0128,-0.002
72597,48.45975,-2.534293,124.65,30.35,6.432,285.6,16 / 23,2187981,2019-08-12 17:09:08:423,0.597,0.0989,10.1093,0.5054,0.1519,9.7924,-0.0048,-0.0128,-0.002
72598,48.45975,-2.534293,124.65,30.35,6.432,285.6,16 / 23,2187981,2019-08-12 17:09:08:423,0.597,0.0989,10.1093,0.5054,0.1519,9.7924,-0.0048,-0.0128,-0.002
72599,48.45975,-2.534293,124.65,30.35,6.432,285.6,16 / 23,2187981,2019-08-12 17:09:08:423,0.597,0.0989,10.1093,0.5054,0.1519,9.7924,-0.0048,-0.0128,-0.002
72600,48.45975,-2.534293,124.65,30.35,6.432,285.6,16 / 23,2187994,2019-08-12 17:09:08:436,0.597,0.0989,10.1093,0.5054,0.1519,9.7924,-0.0048,-0.0128,-0.002
72601,48.45975,-2.534293,124.65,30.35,6.432,285.6,16 / 23,2187995,2019-08-12 17:09:08:437,0.597,0.0989,10.1093,0.5054,0.1519,9.7924,-0.0048,-0.0128,-0.002
72602,48.45975,-2.534293,124.65,30.35,6.432,285.6,16 / 23,2187996,2019-08-12 17:09:08:438,0.597,0.0989,10.1093,0.5054,0.1519,9.7924,-0.0048,-0.0128,-0.002
72603,48.45975,-2.534293,124.65,30.35,6.432,285.6,16 / 23,2187997,2019-08-12 17:09:08:439,0.597,0.0989,10.1093,0.5054,0.1519,9.7924,-0.0048,-0.0128,-0.002
72604,48.45975,-2.534293,124.65,30.35,6.432,285.6,16 / 23,2187997,2019-08-12 17:09:08:439,0.597,0.0989,10.1093,0.5054,0.1519,9.7924,-0.0048,-0.0128,-0.002
72605,48.45975,-2.534293,124.65,30.35,6.432,285.6,16 / 23,2187998,2019-08-12 17:09:08:440,0.597,0.0989,10.1093,0.5054,0.1519,9.7924,-0.0048,-0.0128,-0.002
72606,48.45975,-2.534293,124.65,30.35,6.432,285.6,16 / 23,2187998,2019-08-12 17:09:08:440,0.597,0.0989,10.1093,0.5054,0.1519,9.7924,-0.0048,-0.0128,-0.002
72607,48.45975,-2.534293,124.65,30.35,6.432,285.6,16 / 23,2187999,2019-08-12 17:09:08:441,0.597,0.0989,10.1093,0.5054,0.1519,9.7924,-0.0048,-0.0128,-0.002
72608,48.45975,-2.534293,124.65,30.35,6.432,285.6,16 / 23,2188001,2019-08-12 17:09:08:443,0.597,0.0989,10.1093,0.5054,0.1519,9.7924,-0.0048,-0.0128,-0.002
72609,48.45975,-2.534293,124.65,30.35,6.432,285.6,16 / 23,2188001,2019-08-12 17:09:08:443,0.597,0.0989,10.1093,0.5054,0.1519,9.7924,-0.0048,-0.0128,-0.002
72610,48.45975,-2.534293,124.65,30.35,6.432,285.6,16 / 23,2188002,2019-08-12 17:09:08:444,0.597,0.0989,10.1093,0.5054,0.1519,9.7924,-0.0048,-0.0128,-0.002
72611,48.45975,-2.534293,124.65,30.35,6.432,285.6,16 / 23,2188002,2019-08-12 17:09:08:444,0.597,0.0989,10.1093,0.5054,0.1519,9.7924,-0.0048,-0.0128,-0.002
72612,48.45975,-2.534293,124.65,30.35,6.432,285.6,16 / 23,2188003,2019-08-12 17:09:08:445,0.597,0.0989,10.1093,0.5054,0.1519,9.7924,-0.0048,-0.0128,-0.002
72613,48.45975,-2.534293,124.65,30.35,6.432,285.6,16 / 23,2188003,2019-08-12 17:09:08:445,0.597,0.0989,10.1093,0.5054,0.1519,9.7924,-0.0048,-0.0128,-0.002
72614,48.45975,-2.534293,124.65,30.35,6.432,285.6,16 / 23,2188003,2019-08-12 17:09:08:445,0.597,0.0989,10.1093,0.5054,0.1519,9.7924,-0.0048,-0.0128,-0.002
72615,48.45975,-2.534293,124.65,30.35,6.432,285.6,16 / 23,2188004,2019-08-12 17:09:08:446,0.597,0.0989,10.1093,0.5054,0.1519,9.7924,-0.0048,-0.0128,-0.002
72616,48.45975,-2.534293,124.65,30.35,6.432,285.6,16 / 23,2188005,2019-08-12 17:09:08:447,0.597,0.0989,10.1093,0.5054,0.1519,9.7924,-0.0048,-0.0128,-0.002
72617,48.45975,-2.534293,124.65,30.35,6.432,285.6,16 / 23,2188005,2019-08-12 17:09:08:447,0.597,0.0989,10.1093,0.5054,0.1519,9.7924,-0.0048,-0.0128,-0.002
72618,48.45975,-2.534293,124.65,30.35,6.432,285.6,16 / 23,2188005,2019-08-12 17:09:08:447,0.597,0.0989,10.1093,0.5054,0.1519,9.7924,-0.0048,-0.0128,-0.002
72619,48.45975,-2.534293,124.65,30.35,6.432,285.6,16 / 23,2188006,2019-08-12 17:09:08:448,0.597,0.0989,10.1093,0.5054,0.1519,9.7924,-0.0048,-0.0128,-0.002
72620,48.45975,-2.534293,124.65,30.35,6.432,285.6,16 / 23,2188006,2019-08-12 17:09:08:448,0.597,0.0989,10.1093,0.5054,0.1519,9.7924,-0.0048,-0.0128,-0.002
72621,48.45975,-2.534293,124.65,30.35,6.432,285.6,16 / 23,2188007,2019-08-12 17:09:08:449,0.597,0.0989,10.1093,0.5054,0.1519,9.7924,-0.0048,-0.0128,-0.002
72622,48.45975,-2.534293,124.65,30.35,6.432,285.6,16 / 23,2188007,2019-08-12 17:09:08:449,0.597,0.0989,10.1093,0.5054,0.1519,9.7924,-0.0048,-0.0128,-0.002
