,GPS LATITUDE (degrees), GPS LONGITUDE (degrees), GPS ALTITUDE (m), GPS SPEED (Kmh), GPS ACCURACY (m), GPS ORIENTATION (Â°),GPS SATELLITES IN RANGE, TIME SINCE START (ms), DATE (YYYY-MO-DD HH-MI-SS_SSS), ACCELEROMETER X (m/s²) , ACCELEROMETER Y (m/s²), ACCELEROMETER Z (m/s²), GRAVITY X (m/s²), GRAVITY Y (m/s²), GRAVITY Z (m/s²), GYROSCOPE Yaw (rad/s), GYROSCOPE Pitch (rad/s), GYROSCOPE Roll (rad/s), MAGNETIC FIELD X (Î¼T), MAGNETIC FIELD Y (Î¼T), MAGNETIC FIELD Z (Î¼T), ORIENTATION (Yaw) (Â°), ORIENTATION (Pitch) (Â°), ORIENTATION (Roll ) (Â°)
3551,52.782673,-1.628216,128.15,11.97,6,358.5,23 / 23,3039020,2019-11-06 11:32:26:363,0.8103,-2.8384,9.6351,0.0101,-0.0114,9.8065,0.0055,0.203,-0.0696,-14.75,-35.75,-6.31,139.27,-81.96,59.57
3552,52.782673,-1.628216,128.15,11.97,6,358.5,23 / 23,3039120,2019-11-06 11:32:26:463,1.8194,-1.7235,10.2795,0.025,0.0089,9.8065,0.1094,-0.1548,0.1292,-15.19,-35.44,-5.44,142.69,-82.02,60.61
3553,52.782673,-1.628216,128.15,11.97,6,358.5,23 / 23,3039219,2019-11-06 11:32:26:562,-0.4037,-2.4683,9.3751,-0.0168,0.0156,9.8065,-0.0693,-0.2768,0.0898,-15.37,-35.5,-6.37,142.69,-82.02,60.61
3554,52.782673,-1.628216,128.15,11.97,6,358.5,23 / 23,3039320,2019-11-06 11:32:26:663,0.5244,0.9928,9.3497,0.0178,0.0196,9.8065,0.1258,-0.1235,0.1155,-15.44,-35.37,-6.37,139.8,-81.88,60.45
3555,52.782673,-1.628216,128.15,11.97,6,358.5,23 / 23,3039420,2019-11-06 11:32:26:763,1.5083,0.3896,9.796,0.0299,0.0333,9.8065,-0.0426,0.2784,-0.1027,-15.75,-35.81,-6.56,139.38,-81.84,62.27
3556,52.782673,-1.628216,128.15,11.97,6,358.5,23 / 23,3039519,2019-11-06 11:32:26:862,1.8697,-1.2672,9.8918,0.0242,0.0045,9.8066,-0.045,0.097,-0.0452,-16.19,-35.81,-6.12,139.38,-81.84,62.27
3557,52.782673,-1.628216,128.15,11.97,6,358.5,23 / 23,3039619,2019-11-06 11:32:26:962,1.5374,-1.6944,9.4422,0.0209,0.0129,9.8066,0.095,-0.0199,-0.0736,-15.94,-35.87,-6.75,140.03,-81.91,63.16
3558,52.782673,-1.628216,128.15,11.97,6,358.5,23 / 23,3039720,2019-11-06 11:32:27:063,1.7806,0.6269,9.481,0.0375,0.0298,9.8065,0.0782,-0.1342,0.0975,-16.44,-36.19,-6.44,144.31,-81.92,65.15
3559,52.782673,-1.628216,128.15,11.97,6,358.5,23 / 23,3039820,2019-11-06 11:32:27:163,0.2897,0.3295,9.1537,-0.0041,0.0188,9.8066,0.0906,-0.2321,0.1485,-15.87,-35.69,-6.31,144.66,-81.81,65.46
3560,52.782673,-1.628216,128.15,11.97,6,358.5,23 / 23,3039920,2019-11-06 11:32:27:263,0.3169,-2.4319,9.1044,-0.022,-0.0197,9.8066,-0.1745,0.0496,-0.0165,-15.62,-35.62,-6.44,144.66,-81.81,65.46
3561,52.78278,-1.628221,128.12,12.27,6,358.96,22 / 22,3040019,2019-11-06 11:32:27:362,-0.0244,0.5657,9.6055,0.0124,-0.0265,9.8066,0.0123,0.2665,-0.1035,-15.62,-36.87,-6.69,141.25,-81.83,64.26
3562,52.78278,-1.628221,128.12,12.27,6,358.96,22 / 22,3040120,2019-11-06 11:32:27:463,1.255,1.0224,9.2382,0.0076,-0.0077,9.8066,-0.0672,0.2143,-0.1468,-15.31,-36.94,-6.94,140.46,-81.98,64.25
3563,52.78278,-1.628221,128.12,12.27,6,358.96,22 / 22,3040220,2019-11-06 11:32:27:563,-0.1825,0.8068,10.4011,0.0114,-0.0132,9.8066,0.037,-0.255,0.1052,-15.69,-36.75,-6.25,140.46,-81.98,64.25
3564,52.78278,-1.628221,128.12,12.27,6,358.96,22 / 22,3040320,2019-11-06 11:32:27:663,-1.977,-0.3847,10.1962,0.0052,0.0112,9.8066,-0.0247,0.2206,0.0203,-15.25,-37.12,-6.75,143.84,-82.13,64.54
3565,52.78278,-1.628221,128.12,12.27,6,358.96,22 / 22,3040420,2019-11-06 11:32:27:763,0.3367,-2.1681,8.9715,-0.0356,0.0308,9.8065,-0.1108,0.5013,-0.3463,-15.31,-37.44,-6.75,141.7,-82.22,66.13
3566,52.78278,-1.628221,128.12,12.27,6,358.96,22 / 22,3040520,2019-11-06 11:32:27:863,1.7989,-5.4725,9.9673,-0.0494,0.0703,9.8062,-0.0082,0.4273,-0.2734,-15.69,-37.0,-5.81,145.65,-81.72,66.32
3567,52.78278,-1.628221,128.12,12.27,6,358.96,22 / 22,3040620,2019-11-06 11:32:27:963,0.608,1.6441,10.2723,0.015,-0.0326,9.8065,0.0007,-0.5065,0.195,-15.94,-36.87,-5.62,145.65,-81.72,66.32
3568,52.78278,-1.628221,128.12,12.27,6,358.96,22 / 22,3040720,2019-11-06 11:32:28:063,-0.327,3.1729,10.0241,0.0089,-0.0194,9.8066,0.06,-0.5725,0.3875,-15.69,-36.5,-5.81,144.25,-82.15,65.35
3569,52.78278,-1.628221,128.12,12.27,6,358.96,22 / 22,3040820,2019-11-06 11:32:28:163,0.1217,-3.6626,8.9612,0.0081,-0.0114,9.8065,-0.117,-0.2704,0.1924,-15.87,-36.44,-6.19,144.17,-82.23,65.34
3570,52.78278,-1.628221,128.12,12.27,6,358.96,22 / 22,3040920,2019-11-06 11:32:28:263,1.6575,-6.2961,9.038,-0.0514,0.0348,9.8064,-0.0539,0.3644,-0.2199,-16.44,-36.69,-6.75,144.17,-82.23,65.34
3571,52.78289,-1.628222,128.06,12.73,6,0.06,22 / 22,3041020,2019-11-06 11:32:28:363,0.9181,-2.935,8.1774,-0.0166,-0.1258,9.8058,-0.221,0.0373,0.0298,-16.06,-36.62,-6.81,141.36,-81.89,64.46
3572,52.78289,-1.628222,128.06,12.73,6,0.06,22 / 22,3041120,2019-11-06 11:32:28:463,0.7073,-2.3895,9.3167,-0.0536,-0.0622,9.8063,-0.0875,-0.1844,0.1366,-16.56,-36.75,-6.62,139.1,-81.96,61.09
3573,52.78289,-1.628222,128.06,12.73,6,0.06,22 / 22,3041220,2019-11-06 11:32:28:563,-1.3304,-0.8222,9.5369,-0.0185,0.0145,9.8066,0.2209,-0.0988,0.0138,-16.75,-37.0,-7.19,139.1,-81.96,61.09
3574,52.78289,-1.628222,128.06,12.73,6,0.06,22 / 22,3041320,2019-11-06 11:32:28:663,-0.364,-1.2059,9.3022,0.014,0.0282,9.8066,-0.0591,-0.0127,-0.0804,-15.94,-37.25,-5.69,141.22,-81.83,60.91
3575,52.78289,-1.628222,128.06,12.73,6,0.06,22 / 22,3041419,2019-11-06 11:32:28:762,2.0722,-2.6652,10.0559,-0.0168,0.0437,9.8065,-0.1446,0.0642,-0.1538,-15.81,-37.06,-5.19,144.95,-81.75,62.07
3576,52.78289,-1.628222,128.06,12.73,6,0.06,22 / 22,3041520,2019-11-06 11:32:28:863,1.4621,-2.039,10.582,-0.0749,0.0632,9.8061,0.08,-0.1389,0.1033,-16.06,-36.5,-6.25,141.79,-81.19,61.11
3577,52.78289,-1.628222,128.06,12.73,6,0.06,22 / 22,3041620,2019-11-06 11:32:28:963,0.8659,-0.7961,10.4319,0.0375,-0.0291,9.8064,0.1073,-0.2104,0.0139,-15.37,-36.44,-6.19,141.79,-81.19,61.11
3578,52.78289,-1.628222,128.06,12.73,6,0.06,22 / 22,3041720,2019-11-06 11:32:29:063,-0.001,-0.5423,9.9361,0.0236,-0.0051,9.8066,0.0286,-0.0958,0.1386,-15.56,-36.81,-6.37,141.41,-81.46,61.57
3579,52.78289,-1.628222,128.06,12.73,6,0.06,22 / 22,3041820,2019-11-06 11:32:29:163,1.5067,-1.5882,10.5694,-0.014,0.0142,9.8066,0.0761,0.0683,-0.0545,-16.06,-36.5,-6.0,142.31,-81.63,62.32
3580,52.78289,-1.628222,128.06,12.73,6,0.06,22 / 22,3041920,2019-11-06 11:32:29:263,1.8009,-1.3119,10.2905,-0.0207,0.0241,9.8065,-0.0944,-0.0636,0.0291,-16.25,-36.69,-6.0,142.31,-81.63,62.32
3581,52.783,-1.628218,127.98,12.96,6,2.13,23 / 23,3042020,2019-11-06 11:32:29:363,3.296,-1.7911,8.1421,0.0123,0.0094,9.8066,-0.0349,-0.1807,0.092,-15.87,-36.62,-6.06,142.24,-81.44,62.25
3582,52.783,-1.628218,127.98,12.96,6,2.13,23 / 23,3042120,2019-11-06 11:32:29:463,2.3611,-8.9371,8.5544,-0.0472,0.1073,9.8059,-0.0961,0.6217,-0.2895,-16.12,-36.0,-7.06,139.48,-81.36,61.76
3583,52.783,-1.628218,127.98,12.96,6,2.13,23 / 23,3042220,2019-11-06 11:32:29:563,-0.6464,-1.6384,8.3599,0.0194,0.0384,9.8065,-0.1204,0.606,-0.5875,-15.25,-38.19,-6.12,143.5,-81.26,63.29
3584,52.783,-1.628218,127.98,12.96,6,2.13,23 / 23,3042320,2019-11-06 11:32:29:663,-3.5545,8.2611,9.595,0.0163,-0.0213,9.8065,0.0788,-1.0069,0.6418,-15.12,-38.12,-5.62,143.5,-81.26,63.29
3585,52.783,-1.628218,127.98,12.96,6,2.13,23 / 23,3042420,2019-11-06 11:32:29:763,-0.0503,1.5442,10.1196,0.0016,-0.022,9.8066,0.2665,-1.7256,0.9091,-15.81,-36.25,-5.94,141.54,-81.85,61.62
3586,52.783,-1.628218,127.98,12.96,6,2.13,23 / 23,3042520,2019-11-06 11:32:29:863,3.802,-9.2454,10.2768,-0.0391,0.0585,9.8064,0.1724,-0.9647,0.535,-16.25,-36.37,-5.94,141.95,-81.54,61.75
3587,52.783,-1.628218,127.98,12.96,6,2.13,23 / 23,3042620,2019-11-06 11:32:29:963,3.2967,-9.3766,9.6514,-0.0452,0.0621,9.8062,-0.1711,1.1891,-0.7594,-15.94,-36.56,-5.44,141.95,-81.54,61.75
3588,52.783,-1.628218,127.98,12.96,6,2.13,23 / 23,3042720,2019-11-06 11:32:30:063,-1.999,5.52,9.1309,0.0408,-0.0734,9.8062,-0.1833,0.9054,-0.5306,-16.37,-36.69,-5.75,141.7,-81.29,61.13
3589,52.783,-1.628218,127.98,12.96,6,2.13,23 / 23,3042820,2019-11-06 11:32:30:163,-0.6496,6.4451,9.154,-0.0401,-0.0062,9.8065,-0.0471,0.053,0.0172,-16.69,-36.19,-5.62,140.38,-82.0,59.84
3590,52.783,-1.628218,127.98,12.96,6,2.13,23 / 23,3042920,2019-11-06 11:32:30:263,1.6634,-5.6403,10.8272,-0.0755,-0.0425,9.8062,0.0101,-0.7507,0.4525,-17.5,-35.87,-6.25,137.58,-81.9,56.31
3591,52.78311,-1.628205,127.91,12.83,6,6.46,23 / 23,3043020,2019-11-06 11:32:30:363,2.1929,-5.8991,10.683,-0.0186,0.0876,9.8062,0.1587,-0.6428,0.2053,-17.62,-36.5,-5.75,137.58,-81.9,56.31
3592,52.78311,-1.628205,127.91,12.83,6,6.46,23 / 23,3043119,2019-11-06 11:32:30:462,2.3199,-3.507,9.6961,0.0061,-0.0313,9.8065,0.0072,0.462,-0.4096,-17.69,-36.0,-5.25,143.12,-81.86,59.46
3593,52.78311,-1.628205,127.91,12.83,6,6.46,23 / 23,3043219,2019-11-06 11:32:30:562,-0.535,2.6607,9.59,-0.0079,-0.0453,9.8065,-0.1395,0.1685,-0.1277,-17.69,-36.12,-5.0,141.79,-82.04,58.05
3594,52.78311,-1.628205,127.91,12.83,6,6.46,23 / 23,3043319,2019-11-06 11:32:30:662,-0.0004,1.7253,9.6862,-0.0512,0.0692,9.8062,-0.0515,-0.3496,0.1718,-17.75,-36.5,-4.81,141.79,-82.04,58.05
3595,52.78311,-1.628205,127.91,12.83,6,6.46,23 / 23,3043420,2019-11-06 11:32:30:763,0.3826,-4.0185,10.1203,-0.0407,0.0516,9.8064,0.0773,-0.5862,0.3031,-17.5,-36.44,-5.25,139.83,-81.54,58.15
3596,52.78311,-1.628205,127.91,12.83,6,6.46,23 / 23,3043520,2019-11-06 11:32:30:863,1.581,-4.7241,9.4558,-0.0389,0.0218,9.8065,-0.0117,0.2875,-0.2426,-17.81,-36.56,-5.44,142.31,-81.29,57.55
3597,52.78311,-1.628205,127.91,12.83,6,6.46,23 / 23,3043620,2019-11-06 11:32:30:963,-0.4662,0.1807,8.8437,0.0013,-0.0724,9.8064,-0.0854,0.4213,-0.2361,-17.94,-36.5,-7.0,135.31,-81.63,55.81
3598,52.78311,-1.628205,127.91,12.83,6,6.46,23 / 23,3043720,2019-11-06 11:32:31:063,-1.8097,-0.0729,9.6954,0.009,-0.031,9.8065,-0.0762,0.0238,0.0323,-17.81,-36.44,-6.81,135.31,-81.63,55.81
3599,52.78311,-1.628205,127.91,12.83,6,6.46,23 / 23,3043820,2019-11-06 11:32:31:163,-1.5312,-1.4527,10.4074,0.0013,-0.0049,9.8066,0.1132,-0.3139,0.0853,-17.94,-36.31,-6.81,134.61,-81.79,55.18
3600,52.78311,-1.628205,127.91,12.83,6,6.46,23 / 23,3043919,2019-11-06 11:32:31:262,1.5421,-3.5774,10.1022,0.0299,0.0185,9.8066,0.1224,-0.1063,0.0771,-17.56,-38.44,-6.75,136.24,-81.84,56.58
3601,52.78323,-1.628177,127.83,12.6,6,9.18,22 / 22,3044019,2019-11-06 11:32:31:362,0.3507,-3.3434,10.0548,0.0269,0.0056,9.8066,-0.0122,0.0315,-0.1104,-17.87,-38.37,-5.87,136.24,-81.84,56.58
3602,52.78323,-1.628177,127.83,12.6,6,9.18,22 / 22,3044120,2019-11-06 11:32:31:463,1.3272,0.4499,8.7451,-0.0216,0.0095,9.8065,-0.0892,0.3053,-0.0683,-18.06,-37.94,-4.12,141.55,-82.0,57.18
3603,52.78323,-1.628177,127.83,12.6,6,9.18,22 / 22,3044220,2019-11-06 11:32:31:563,1.0032,1.1243,9.9941,-0.019,-0.0387,9.8065,-0.0903,0.1878,-0.2734,-18.62,-37.81,-4.25,142.51,-82.02,55.11
3604,52.78323,-1.628177,127.83,12.6,6,9.18,22 / 22,3044320,2019-11-06 11:32:31:663,-0.0894,-2.5114,10.3101,-0.0395,-0.0434,9.8064,0.0172,-0.708,0.3099,-18.44,-37.12,-4.5,140.12,-82.07,52.66
3605,52.78323,-1.628177,127.83,12.6,6,9.18,22 / 22,3044420,2019-11-06 11:32:31:763,-0.3994,-8.1237,9.9134,0.0221,0.0247,9.8065,0.143,-0.5738,0.2789,-18.69,-35.94,-3.87,140.12,-82.07,52.66
3606,52.78323,-1.628177,127.83,12.6,6,9.18,22 / 22,3044520,2019-11-06 11:32:31:863,1.5532,-0.8908,9.8165,0.0211,-0.0112,9.8066,-0.008,-0.0427,-0.0131,-19.0,-35.87,-3.87,142.46,-81.97,55.51
3607,52.78323,-1.628177,127.83,12.6,6,9.18,22 / 22,3044620,2019-11-06 11:32:31:963,0.6529,4.5553,10.009,0.0085,-0.0341,9.8066,-0.0276,0.6219,-0.4772,-19.56,-35.56,-4.31,141.91,-82.15,54.91
3608,52.78323,-1.628177,127.83,12.6,6,9.18,22 / 22,3044720,2019-11-06 11:32:32:063,-0.0526,0.1608,10.6268,-0.0344,-0.0722,9.8062,-0.0416,-0.0743,-0.1261,-19.56,-35.37,-5.69,141.91,-82.15,54.91
3609,52.78323,-1.628177,127.83,12.6,6,9.18,22 / 22,3044820,2019-11-06 11:32:32:163,1.022,-10.2873,10.3198,0.0191,0.0626,9.8064,0.0332,-0.6588,0.3537,-20.0,-36.31,-6.06,136.46,-82.35,51.76
3610,52.78323,-1.628177,127.83,12.6,6,9.18,22 / 22,3044920,2019-11-06 11:32:32:263,1.0146,-8.2998,9.7494,0.0354,0.1232,9.8057,0.193,-1.0382,0.476,-20.19,-37.12,-5.0,141.17,-81.95,56.38
3611,52.783337,-1.628138,127.78,12.32,6,16.01,22 / 22,3045020,2019-11-06 11:32:32:363,-2.1576,3.0964,9.5013,0.0062,0.0034,9.8066,0.0833,-0.5695,0.1894,-20.19,-36.75,-4.87,141.41,-81.95,56.67
3612,52.783337,-1.628138,127.78,12.32,6,16.01,22 / 22,3045120,2019-11-06 11:32:32:463,1.0681,-3.5088,9.5153,-0.098,-0.1724,9.8045,-0.1236,0.6436,-0.5815,-20.25,-36.5,-4.5,141.41,-81.95,56.67
3613,52.783337,-1.628138,127.78,12.32,6,16.01,22 / 22,3045221,2019-11-06 11:32:32:564,-0.2094,4.3885,10.0203,-0.037,-0.0077,9.8065,-0.0441,0.3182,-0.2625,-21.25,-36.5,-4.25,136.52,-82.31,48.6
3614,52.783337,-1.628138,127.78,12.32,6,16.01,22 / 22,3045320,2019-11-06 11:32:32:663,1.2383,-1.3697,10.2854,-0.0433,0.1284,9.8057,-0.0024,-0.3959,0.0805,-21.0,-36.87,-4.69,137.07,-81.58,50.88
3615,52.783337,-1.628138,127.78,12.32,6,16.01,22 / 22,3045420,2019-11-06 11:32:32:763,2.2694,-4.9498,9.702,0.0541,0.1168,9.8057,0.1892,-0.7208,0.337,-20.5,-36.44,-3.87,137.07,-81.58,50.88
3616,52.783337,-1.628138,127.78,12.32,6,16.01,22 / 22,3045520,2019-11-06 11:32:32:863,-0.396,-4.0902,9.9331,-0.0076,0.0001,9.8066,-0.0711,0.2157,-0.0528,-19.75,-37.06,-4.19,143.34,-81.27,55.47
3617,52.783337,-1.628138,127.78,12.32,6,16.01,22 / 22,3045620,2019-11-06 11:32:32:963,-0.225,-2.1307,10.6864,-0.0209,-0.0453,9.8064,-0.1466,0.5207,-0.3384,-19.81,-37.31,-4.44,142.12,-81.34,54.05
3618,52.783337,-1.628138,127.78,12.32,6,16.01,22 / 22,3045720,2019-11-06 11:32:33:063,-0.082,4.2958,10.4976,-0.0494,-0.0619,9.8063,0.0015,0.4045,-0.334,-20.62,-37.06,-4.5,139.58,-81.44,51.02
3619,52.783337,-1.628138,127.78,12.32,6,16.01,22 / 22,3045820,2019-11-06 11:32:33:163,1.6322,-4.0993,9.7095,0.0007,0.0628,9.8064,-0.0497,-0.1818,0.0404,-21.12,-37.0,-3.81,139.58,-81.44,51.02
3620,52.783337,-1.628138,127.78,12.32,6,16.01,22 / 22,3045920,2019-11-06 11:32:33:263,1.772,-7.0438,9.7608,0.0142,-0.0135,9.8066,0.0769,-0.906,0.4881,-21.19,-36.56,-4.56,140.03,-80.99,53.8
3621,52.78344,-1.628079,127.71,11.94,6,20.87,22 / 22,3046026,2019-11-06 11:32:33:369,2.2781,-1.5942,9.6292,0.0269,-0.0595,9.8064,0.006,-0.3026,0.1124,-20.31,-37.56,-4.37,141.56,-81.36,53.12
3622,52.78344,-1.628079,127.71,11.94,6,20.87,22 / 22,3046120,2019-11-06 11:32:33:463,0.8023,3.0801,10.1737,-0.0126,-0.0098,9.8066,0.0675,0.2194,-0.2367,-20.75,-37.31,-4.31,141.56,-81.36,53.12
3623,52.78344,-1.628079,127.71,11.94,6,20.87,22 / 22,3046220,2019-11-06 11:32:33:563,-0.5331,0.1527,9.6778,-0.0057,0.0072,9.8065,-0.1068,0.2865,-0.2408,-19.94,-37.5,-4.5,141.52,-81.2,53.1
3624,52.78344,-1.628079,127.71,11.94,6,20.87,22 / 22,3046320,2019-11-06 11:32:33:663,-0.2331,-1.0955,9.2839,-0.0038,-0.0038,9.8066,0.0332,-0.2302,0.133,-20.5,-37.87,-4.19,141.99,-81.01,53.27
3625,52.78344,-1.628079,127.71,11.94,6,20.87,22 / 22,3046420,2019-11-06 11:32:33:763,0.3297,-6.1492,10.548,-0.0095,-0.0174,9.8066,-0.0058,-0.4285,0.252,-20.5,-38.69,-4.5,141.99,-81.01,53.27
3626,52.78344,-1.628079,127.71,11.94,6,20.87,22 / 22,3046520,2019-11-06 11:32:33:863,0.196,1.4812,10.0347,0.0117,-0.0407,9.8065,0.125,-0.319,0.0423,-21.31,-37.37,-2.94,143.66,-81.06,52.59
3627,52.78344,-1.628079,127.71,11.94,6,20.87,22 / 22,3046620,2019-11-06 11:32:33:963,-0.0932,1.4059,9.7218,0.0064,0.0357,9.8065,-0.0531,-0.1535,0.1437,-21.06,-36.87,-3.56,140.93,-81.1,52.29
3628,52.78344,-1.628079,127.71,11.94,6,20.87,22 / 22,3046720,2019-11-06 11:32:34:063,0.814,-4.8742,10.1751,-0.0226,0.0655,9.8064,-0.0544,0.548,-0.2344,-20.06,-36.69,-3.62,141.92,-80.72,53.15
3629,52.78344,-1.628079,127.71,11.94,6,20.87,22 / 22,3046820,2019-11-06 11:32:34:163,1.8081,-1.7993,9.7468,0.025,-0.0574,9.8064,-0.0857,0.5709,-0.3053,-19.62,-36.87,-3.81,141.92,-80.72,53.15
3630,52.78344,-1.628079,127.71,11.94,6,20.87,22 / 22,3046920,2019-11-06 11:32:34:263,0.1989,4.013,10.4599,0.0081,0.0417,9.8065,0.0566,0.2313,-0.1236,-18.31,-35.69,-3.06,140.85,-81.07,52.56
3631,52.78353,-1.628019,127.6,11.36,6,20.67,23 / 23,3047020,2019-11-06 11:32:34:363,0.8966,-3.5643,9.9184,0.0104,0.0893,9.8062,-0.0646,-0.0714,0.0519,-18.25,-35.44,-3.69,142.75,-80.7,54.89
3632,52.78353,-1.628019,127.6,11.36,6,20.67,23 / 23,3047120,2019-11-06 11:32:34:463,0.9873,-2.4793,10.3125,0.0138,0.0195,9.8065,0.0844,-0.3727,0.2301,-18.19,-34.62,-5.69,142.75,-80.7,54.89
3633,52.78353,-1.628019,127.6,11.36,6,20.67,23 / 23,3047220,2019-11-06 11:32:34:563,0.7794,0.5531,10.1323,0.0317,-0.0571,9.8064,0.011,-0.0745,0.1339,-19.5,-33.87,-7.31,138.46,-80.66,55.71
3634,52.78353,-1.628019,127.6,11.36,6,20.67,23 / 23,3047320,2019-11-06 11:32:34:663,-0.2125,2.097,9.7829,0.0374,-0.0601,9.8063,0.0017,0.1558,-0.0677,-21.25,-33.81,-7.56,133.88,-81.07,55.27
3635,52.78353,-1.628019,127.6,11.36,6,20.67,23 / 23,3047420,2019-11-06 11:32:34:763,0.2685,1.3049,9.8466,0.0007,0.0417,9.8065,-0.1091,0.3982,-0.1377,-22.87,-34.12,-6.31,133.88,-81.07,55.27
3636,52.78353,-1.628019,127.6,11.36,6,20.67,23 / 23,3047520,2019-11-06 11:32:34:863,0.3931,-1.1419,9.3344,-0.0029,0.0258,9.8066,0.0641,0.0626,-0.0514,-22.62,-34.5,-3.69,141.92,-80.9,56.39
3637,52.78353,-1.628019,127.6,11.36,6,20.67,23 / 23,3047620,2019-11-06 11:32:34:963,0.7945,-1.2842,10.915,0.0129,-0.0081,9.8066,0.0905,-0.1522,0.1884,-22.19,-34.81,-2.81,146.78,-80.77,56.89
3638,52.78353,-1.628019,127.6,11.36,6,20.67,23 / 23,3047719,2019-11-06 11:32:35:062,1.4853,2.2442,9.8133,0.0617,-0.0304,9.8063,-0.0032,-0.0011,0.081,-20.62,-35.62,-4.0,145.59,-81.11,58.21
3639,52.78353,-1.628019,127.6,11.36,6,20.67,23 / 23,3047819,2019-11-06 11:32:35:162,5.2972,4.1819,9.8491,0.0522,-0.0046,9.8064,0.1177,0.3281,-0.0712,-20.06,-36.19,-3.62,145.59,-81.11,58.21
3640,52.78353,-1.628019,127.6,11.36,6,20.67,23 / 23,3047920,2019-11-06 11:32:35:263,0.8133,0.3676,9.9357,-0.0019,0.0154,9.8066,-0.0728,0.2669,0.0077,-19.44,-36.94,-4.5,144.31,-81.3,59.77
3641,52.783627,-1.627968,127.46,10.64,6,15.63,23 / 23,3048019,2019-11-06 11:32:35:362,0.3927,-2.5639,10.7732,-0.0084,-0.0183,9.8066,0.0924,0.0018,0.0393,-18.87,-37.44,-4.5,146.94,-81.21,59.96
3642,52.783627,-1.627968,127.46,10.64,6,15.63,23 / 23,3048120,2019-11-06 11:32:35:463,-0.543,-0.5789,10.1512,0.0177,-0.0414,9.8064,0.1105,-0.2844,0.2008,-19.31,-37.31,-5.0,146.94,-81.21,59.96
3643,52.783627,-1.627968,127.46,10.64,6,15.63,23 / 23,3048220,2019-11-06 11:32:35:563,-0.7801,1.615,10.4112,0.0335,-0.097,9.8061,-0.0634,-0.2423,0.3016,-19.75,-37.19,-4.37,144.29,-81.47,59.65
3644,52.783627,-1.627968,127.46,10.64,6,15.63,23 / 23,3048319,2019-11-06 11:32:35:662,-1.1834,-0.8001,9.9399,-0.0305,-0.0459,9.8064,-0.0869,0.1744,-0.0697,-19.37,-37.06,-4.25,142.6,-82.27,55.75
3645,52.783627,-1.627968,127.46,10.64,6,15.63,23 / 23,3048419,2019-11-06 11:32:35:762,-1.2892,-2.4034,10.339,-0.0417,-0.0717,9.8062,-0.0542,0.2273,-0.0513,-20.0,-37.0,-4.69,137.3,-82.44,52.34
3646,52.783627,-1.627968,127.46,10.64,6,15.63,23 / 23,3048520,2019-11-06 11:32:35:863,-1.1307,-3.7022,9.8217,0.0024,-0.0278,9.8066,0.0752,-0.0185,0.0037,-20.06,-37.37,-4.62,137.3,-82.44,52.34
3647,52.783627,-1.627968,127.46,10.64,6,15.63,23 / 23,3048619,2019-11-06 11:32:35:962,-1.3968,0.0204,9.8724,0.0233,0.0024,9.8066,0.0179,-0.2714,0.1484,-20.0,-37.12,-4.37,136.52,-82.57,51.57
3648,52.783627,-1.627968,127.46,10.64,6,15.63,23 / 23,3048719,2019-11-06 11:32:36:062,-0.5007,1.6518,10.0649,0.0241,-0.0191,9.8066,0.0544,0.0449,-0.0465,-20.31,-37.37,-4.06,138.92,-82.75,51.77
3649,52.783627,-1.627968,127.46,10.64,6,15.63,23 / 23,3048820,2019-11-06 11:32:36:163,-0.7818,0.3808,9.5978,-0.0104,-0.0482,9.8065,-0.0271,0.0559,-0.0851,-20.87,-37.56,-4.44,138.92,-82.75,51.77
3650,52.783627,-1.627968,127.46,10.64,6,15.63,23 / 23,3048920,2019-11-06 11:32:36:263,-0.173,-1.3092,9.38,0.0076,-0.0807,9.8063,-0.0112,0.0376,0.0688,-20.12,-36.87,-3.44,137.25,-82.92,49.9
3651,52.78372,-1.627931,127.36,9.23,6,16.27,22 / 23,3049020,2019-11-06 11:32:36:363,-1.0925,-3.426,9.8078,-0.0008,-0.0244,9.8066,0.057,-0.1857,0.0181,-20.62,-37.12,-3.56,134.75,-83.29,47.44
3652,52.78372,-1.627931,127.36,9.23,6,16.27,22 / 23,3049120,2019-11-06 11:32:36:463,-1.7774,-1.1915,10.0767,-0.0052,-0.0254,9.8066,0.0945,-0.094,0.0373,-20.25,-36.62,-3.12,136.07,-83.37,46.34
3653,52.78372,-1.627931,127.36,9.23,6,16.27,22 / 23,3049220,2019-11-06 11:32:36:563,-1.925,1.6583,9.4609,0.0086,-0.0273,9.8065,0.0046,0.1734,-0.2368,-20.25,-36.37,-3.06,136.07,-83.37,46.34
3654,52.78372,-1.627931,127.36,9.23,6,16.27,22 / 23,3049320,2019-11-06 11:32:36:663,-1.8522,0.3369,9.5537,-0.0101,-0.0184,9.8066,-0.0933,0.2233,-0.089,-19.87,-35.69,-2.62,137.64,-83.52,45.68
3655,52.78372,-1.627931,127.36,9.23,6,16.27,22 / 23,3049420,2019-11-06 11:32:36:763,-0.8457,-4.7532,10.3205,-0.0042,-0.0022,9.8066,0.0474,-0.0095,-0.1685,-19.12,-36.25,-3.87,129.76,-83.58,42.62
3656,52.78372,-1.627931,127.36,9.23,6,16.27,22 / 23,3049520,2019-11-06 11:32:36:863,-1.8046,-1.2657,10.1885,-0.0224,0.0132,9.8066,-0.0524,-0.2703,0.1074,-19.06,-36.12,-4.19,129.76,-83.58,42.62
3657,52.78372,-1.627931,127.36,9.23,6,16.27,22 / 23,3049621,2019-11-06 11:32:36:964,-2.3652,0.0429,10.0962,0.0086,-0.0089,9.8066,0.0541,-0.1847,0.1333,-19.44,-36.5,-4.75,127.14,-83.43,42.4
3658,52.78372,-1.627931,127.36,9.23,6,16.27,22 / 23,3049720,2019-11-06 11:32:37:063,-2.3252,-0.3584,9.8273,0.0078,-0.0151,9.8066,0.0286,0.0368,-0.094,-20.31,-36.12,-4.75,126.65,-83.57,41.79
3659,52.78372,-1.627931,127.36,9.23,6,16.27,22 / 23,3049820,2019-11-06 11:32:37:163,-2.582,-2.345,9.638,-0.0083,-0.0209,9.8065,-0.0489,0.1147,-0.0933,-22.06,-36.62,-4.81,125.88,-83.75,40.5
3660,52.78372,-1.627931,127.36,9.23,6,16.27,22 / 23,3049920,2019-11-06 11:32:37:263,-1.7512,-3.4904,10.0665,-0.0176,-0.0371,9.8065,-0.0035,-0.1692,0.0294,-22.31,-36.56,-5.12,125.88,-83.75,40.5
3661,52.783787,-1.627893,127.32,7.06,6,21.72,22 / 23,3050020,2019-11-06 11:32:37:363,-1.8237,0.1649,10.1642,-0.0323,0.0213,9.8065,0.0271,-0.3345,0.1767,-22.44,-36.19,-4.12,123.65,-83.79,38.32
3662,52.783787,-1.627893,127.32,7.06,6,21.72,22 / 23,3050120,2019-11-06 11:32:37:463,-2.1043,0.1311,10.1332,-0.0326,-0.0029,9.8066,0.0298,-0.3363,0.1458,-22.62,-36.87,-4.69,123.22,-83.64,37.24
3663,52.783787,-1.627893,127.32,7.06,6,21.72,22 / 23,3050220,2019-11-06 11:32:37:563,-1.3579,-1.842,10.0244,0.0074,-0.0198,9.8065,0.0162,-0.1162,0.0314,-22.5,-37.44,-4.5,123.22,-83.64,37.24
3664,52.783787,-1.627893,127.32,7.06,6,21.72,22 / 23,3050320,2019-11-06 11:32:37:663,-2.0395,-2.8075,10.4359,0.0062,-0.0522,9.8065,-0.0408,0.1555,-0.1497,-23.0,-36.37,-3.87,124.54,-83.74,36.57
3665,52.783787,-1.627893,127.32,7.06,6,21.72,22 / 23,3050420,2019-11-06 11:32:37:763,-2.7665,-1.0019,10.2724,-0.0089,-0.0149,9.8066,0.0251,-0.0383,-0.0039,-23.0,-37.31,-3.31,124.78,-83.94,34.38
3666,52.783787,-1.627893,127.32,7.06,6,21.72,22 / 23,3050520,2019-11-06 11:32:37:863,-1.8577,0.1463,10.1307,-0.0129,-0.0147,9.8065,-0.0014,-0.1467,0.0438,-23.19,-37.12,-3.75,121.55,-83.93,33.31
3667,52.783787,-1.627893,127.32,7.06,6,21.72,22 / 23,3050620,2019-11-06 11:32:37:963,-1.156,-0.9527,9.7234,-0.0012,0.0092,9.8066,0.0362,-0.187,0.0798,-23.12,-36.5,-3.44,121.55,-83.93,33.31
3668,52.783787,-1.627893,127.32,7.06,6,21.72,22 / 23,3050720,2019-11-06 11:32:38:063,-1.6331,-1.5301,9.7061,0.0032,-0.0171,9.8066,-0.0023,-0.0585,0.0159,-22.62,-36.75,-3.06,124.2,-83.89,33.7
3669,52.783787,-1.627893,127.32,7.06,6,21.72,22 / 23,3050820,2019-11-06 11:32:38:163,-0.9902,-0.839,9.7058,0.0015,-0.0082,9.8066,0.0111,0.0852,-0.0669,-23.19,-37.37,-3.37,123.22,-83.97,32.71
3670,52.783787,-1.627893,127.32,7.06,6,21.72,22 / 23,3050919,2019-11-06 11:32:38:262,-1.1063,0.5647,9.9613,-0.0032,-0.0185,9.8066,-0.0106,0.1231,-0.087,-23.44,-36.94,-3.25,123.22,-83.97,32.71
3671,52.78383,-1.627866,127.32,4.34,6,24.69,22 / 23,3051020,2019-11-06 11:32:38:363,-0.7589,-0.0604,10.1711,0.0036,0.0004,9.8066,-0.0055,0.0157,-0.0263,-23.44,-36.81,-3.81,120.0,-84.02,31.74
3672,52.78383,-1.627866,127.32,4.34,6,24.69,22 / 23,3051120,2019-11-06 11:32:38:463,-0.3151,-0.5383,9.9992,0.0004,-0.0003,9.8066,-0.0185,0.0201,-0.0087,-23.25,-36.81,-3.37,120.15,-84.03,31.86
3673,52.78383,-1.627866,127.32,4.34,6,24.69,22 / 23,3051220,2019-11-06 11:32:38:563,-0.4706,-1.1914,9.895,-0.0042,0.0003,9.8066,0.0056,-0.0993,0.0427,-23.75,-37.06,-3.06,122.34,-84.04,31.86
3674,52.78383,-1.627866,127.32,4.34,6,24.69,22 / 23,3051320,2019-11-06 11:32:38:663,-0.7834,-1.0292,10.0497,-0.0124,-0.027,9.8066,0.0087,-0.1076,0.063,-23.56,-37.81,-3.06,120.98,-84.06,30.2
3675,52.78383,-1.627866,127.32,4.34,6,24.69,22 / 23,3051420,2019-11-06 11:32:38:763,-0.4909,-0.5893,9.9868,-0.0166,-0.0248,9.8066,-0.0289,0.066,-0.032,-23.81,-37.69,-3.69,120.98,-84.06,30.2
3676,52.78383,-1.627866,127.32,4.34,6,24.69,22 / 23,3051519,2019-11-06 11:32:38:862,-0.1086,0.272,9.8507,-0.0085,0.0017,9.8066,0.0243,0.0833,-0.0746,-23.62,-37.62,-3.44,117.04,-84.05,28.52
3677,52.78383,-1.627866,127.32,4.34,6,24.69,22 / 23,3051619,2019-11-06 11:32:38:962,0.5182,-0.8809,9.9365,-0.0039,0.0019,9.8066,-0.012,-0.0151,-0.0221,-23.37,-37.19,-3.06,119.7,-83.98,28.87
3678,52.78383,-1.627866,127.32,4.34,6,24.69,22 / 23,3051720,2019-11-06 11:32:39:063,0.1617,-1.0267,10.1998,0.0098,0.0192,9.8065,0.0051,-0.0651,0.037,-23.25,-36.37,-2.69,119.7,-83.98,28.87
3679,52.78383,-1.627866,127.32,4.34,6,24.69,22 / 23,3051820,2019-11-06 11:32:39:163,-0.0026,-0.1433,9.6522,0.0034,-0.0057,9.8066,-0.0003,-0.0484,0.0374,-23.69,-37.31,-3.0,120.77,-83.97,30.07
3680,52.78383,-1.627866,127.32,4.34,6,24.69,22 / 23,3051923,2019-11-06 11:32:39:266,0.434,0.2948,9.7739,-0.0045,-0.0201,9.8066,-0.0101,0.0606,0.0111,-23.56,-36.69,-2.75,119.28,-84.05,28.55
3681,52.783855,-1.627845,127.31,3.22,6,26.04,22 / 23,3052020,2019-11-06 11:32:39:363,-0.4871,-0.4211,10.193,-0.0076,-0.0361,9.8066,-0.0266,0.0574,-0.0304,-23.75,-36.87,-3.19,117.35,-84.11,26.54
3682,52.783855,-1.627845,127.31,3.22,6,26.04,22 / 23,3052120,2019-11-06 11:32:39:463,-0.0915,-1.2591,9.9248,-0.0219,-0.0293,9.8065,-0.028,0.053,-0.0177,-23.81,-36.81,-2.25,117.35,-84.11,26.54
3683,52.783855,-1.627845,127.31,3.22,6,26.04,22 / 23,3052220,2019-11-06 11:32:39:563,0.0467,-0.8256,10.1126,-0.0011,0.0009,9.8066,-0.0257,-0.0545,0.0121,-23.37,-36.37,-3.25,115.29,-84.07,24.5
3684,52.783855,-1.627845,127.31,3.22,6,26.04,22 / 23,3052319,2019-11-06 11:32:39:662,0.7425,-0.005,9.7629,-0.0108,0.0104,9.8066,-0.0015,-0.0358,0.0064,-23.69,-36.75,-3.06,115.85,-83.99,24.77
3685,52.783855,-1.627845,127.31,3.22,6,26.04,22 / 23,3052420,2019-11-06 11:32:39:763,1.1309,-0.0159,9.7097,-0.0023,-0.0038,9.8066,0.0081,0.0098,0.0015,-24.0,-36.62,-2.62,115.85,-83.99,24.77
3686,52.783855,-1.627845,127.31,3.22,6,26.04,22 / 23,3052519,2019-11-06 11:32:39:862,0.6583,-0.7666,9.8774,-0.0053,-0.0215,9.8066,-0.0044,0.0048,-0.0052,-24.37,-36.25,-2.75,117.64,-83.98,24.52
3687,52.783855,-1.627845,127.31,3.22,6,26.04,22 / 23,3052620,2019-11-06 11:32:39:963,0.8699,-0.9124,9.9715,0.0002,-0.0044,9.8066,0.0021,0.0089,-0.0015,-23.94,-36.12,-3.0,114.25,-84.01,23.32
3688,52.783855,-1.627845,127.31,3.22,6,26.04,22 / 23,3052720,2019-11-06 11:32:40:063,0.836,-0.4142,9.7171,-0.0082,-0.0078,9.8065,-0.0025,-0.0208,0.0082,-24.5,-36.44,-3.19,113.74,-83.99,22.74
3689,52.783855,-1.627845,127.31,3.22,6,26.04,22 / 23,3052820,2019-11-06 11:32:40:163,1.1068,-0.1868,9.6691,0.0023,-0.0117,9.8066,-0.0045,-0.0034,0.0153,-24.5,-36.62,-2.87,113.74,-83.99,22.74
3690,52.783855,-1.627845,127.31,3.22,6,26.04,22 / 23,3052924,2019-11-06 11:32:40:267,1.0152,-0.102,9.7608,-0.0013,-0.0048,9.8066,0.0151,0.0323,-0.0176,-23.75,-35.75,-3.44,113.23,-84.03,22.19
3691,52.783875,-1.627829,127.31,2.76,6,26.25,22 / 23,3053020,2019-11-06 11:32:40:363,0.5695,-0.5746,9.9295,-0.0065,-0.0106,9.8066,0.0043,0.0006,0.0027,-24.37,-35.94,-2.87,112.59,-83.98,21.5
3692,52.783875,-1.627829,127.31,2.76,6,26.25,22 / 23,3053120,2019-11-06 11:32:40:463,0.7188,-0.7218,9.9773,-0.0075,-0.0225,9.8065,0.0096,-0.0017,-0.0002,-24.19,-35.75,-2.56,112.59,-83.98,21.5
3693,52.783875,-1.627829,127.31,2.76,6,26.25,22 / 23,3053220,2019-11-06 11:32:40:563,0.7194,-0.3761,9.7418,0.0054,0.0014,9.8066,-0.0078,0.0032,0.0113,-24.56,-36.12,-2.31,111.34,-83.99,20.18
3694,52.783875,-1.627829,127.31,2.76,6,26.25,22 / 23,3053320,2019-11-06 11:32:40:663,0.8635,-0.2338,9.699,-0.0052,-0.0039,9.8066,0.0093,0.0143,0.0026,-24.69,-36.19,-3.5,111.43,-84.01,20.36
3695,52.783875,-1.627829,127.31,2.76,6,26.25,22 / 23,3053420,2019-11-06 11:32:40:763,0.8033,-0.4003,9.8353,-0.0146,-0.0116,9.8066,0.0039,0.0077,0.0146,-24.0,-36.25,-3.31,110.7,-83.96,19.46
3696,52.783875,-1.627829,127.31,2.76,6,26.25,22 / 23,3053524,2019-11-06 11:32:40:867,1.1295,-0.645,9.7348,-0.0009,-0.0137,9.8066,0.0086,-0.0162,-0.0062,-23.75,-35.69,-3.12,110.7,-83.96,19.46
3697,52.783875,-1.627829,127.31,2.76,6,26.25,22 / 23,3053620,2019-11-06 11:32:40:963,1.3897,-0.5232,9.6488,-0.0058,-0.0025,9.8066,-0.0073,0.001,0.0114,-23.19,-35.56,-2.94,110.04,-83.98,18.73
3698,52.783875,-1.627829,127.31,2.76,6,26.25,22 / 23,3053720,2019-11-06 11:32:41:063,1.0835,-0.543,9.6747,-0.0095,-0.0043,9.8066,-0.0124,0.0012,-0.0006,-23.25,-35.44,-2.37,111.63,-83.92,18.09
3699,52.783875,-1.627829,127.31,2.76,6,26.25,22 / 23,3053820,2019-11-06 11:32:41:163,0.4684,-0.4891,9.9209,-0.0239,-0.0033,9.8065,-0.0064,0.0012,-0.0001,-23.19,-36.0,-2.19,111.63,-83.92,18.09
3700,52.783875,-1.627829,127.31,2.76,6,26.25,22 / 23,3053920,2019-11-06 11:32:41:263,0.4272,-0.4768,9.9354,-0.0024,-0.0027,9.8066,0.0286,-0.0142,0.0043,-24.37,-35.0,-2.12,109.0,-83.8,17.44
3701,52.78389,-1.627821,127.31,2.55,6,26.63,23 / 23,3054021,2019-11-06 11:32:41:364,1.3147,-0.4964,9.7221,0.0003,-0.0026,9.8066,0.0064,-0.0183,-0.0097,-25.31,-35.75,-2.31,110.96,-83.83,17.32
3702,52.78389,-1.627821,127.31,2.55,6,26.63,23 / 23,3054120,2019-11-06 11:32:41:463,1.2433,-0.5283,9.6351,0.0085,-0.0138,9.8066,0.0132,0.001,0.0136,-25.0,-36.19,-3.0,108.18,-83.9,16.78
3703,52.78389,-1.627821,127.31,2.55,6,26.63,23 / 23,3054220,2019-11-06 11:32:41:563,1.2946,-0.4606,9.6796,0.0016,-0.0172,9.8065,-0.0046,-0.0209,0.0144,-24.87,-36.19,-2.37,108.18,-83.9,16.78
3704,52.78389,-1.627821,127.31,2.55,6,26.63,23 / 23,3054320,2019-11-06 11:32:41:663,1.4718,-1.1705,9.9729,-0.0028,-0.021,9.8066,-0.0033,-0.0259,0.0281,-24.69,-36.06,-2.62,107.3,-83.94,15.91
3705,52.78389,-1.627821,127.31,2.55,6,26.63,23 / 23,3054420,2019-11-06 11:32:41:763,1.8288,-0.4979,9.7697,0.0052,-0.0195,9.8066,0.0089,0.0027,0.0032,-24.94,-36.06,-2.56,106.31,-84.0,14.95
3706,52.78389,-1.627821,127.31,2.55,6,26.63,23 / 23,3054520,2019-11-06 11:32:41:863,1.9929,-0.5409,9.6331,0.0129,-0.005,9.8066,0.0254,-0.0106,-0.0208,-25.62,-36.25,-2.06,106.31,-84.0,14.95
3707,52.78389,-1.627821,127.31,2.55,6,26.63,23 / 23,3054620,2019-11-06 11:32:41:963,2.4775,-0.6294,9.3732,0.0168,-0.0052,9.8066,0.0168,0.0173,-0.0294,-25.31,-35.81,-1.69,108.33,-84.08,14.88
3708,52.78389,-1.627821,127.31,2.55,6,26.63,23 / 23,3054720,2019-11-06 11:32:42:063,1.3439,-0.6529,9.773,-0.0011,-0.0048,9.8066,-0.0188,-0.0219,0.0269,-26.25,-36.56,-1.56,108.29,-84.19,14.9
3709,52.78389,-1.627821,127.31,2.55,6,26.63,23 / 23,3054820,2019-11-06 11:32:42:163,1.2565,-0.6121,9.8336,-0.0158,-0.0159,9.8065,-0.0251,-0.0186,-0.0112,-25.31,-36.56,-2.0,107.42,-84.13,13.76
3710,52.78389,-1.627821,127.31,2.55,6,26.63,23 / 23,3054920,2019-11-06 11:32:42:263,0.9856,-0.7585,10.0602,-0.0241,-0.0061,9.8065,-0.0106,-0.0221,0.013,-25.25,-36.31,-2.12,107.42,-84.13,13.76
3711,52.783913,-1.6278,127.31,3.16,6,27.81,23 / 23,3055020,2019-11-06 11:32:42:363,1.6137,-0.2947,9.5922,-0.0157,0.0055,9.8066,0.0026,0.0073,-0.0352,-25.19,-36.75,-2.06,104.47,-84.0,13.03
3712,52.783913,-1.6278,127.31,3.16,6,27.81,23 / 23,3055120,2019-11-06 11:32:42:463,1.5024,-0.2798,9.3957,-0.0045,-0.003,9.8066,-0.0058,0.0098,0.0058,-25.31,-36.12,-1.81,107.19,-83.88,13.41
3713,52.783913,-1.6278,127.31,3.16,6,27.81,23 / 23,3055220,2019-11-06 11:32:42:563,1.1914,-0.6156,9.8589,-0.0031,-0.0197,9.8065,-0.0128,-0.0046,-0.0101,-25.19,-36.56,-1.25,107.19,-83.88,13.41
3714,52.783913,-1.6278,127.31,3.16,6,27.81,23 / 23,3055320,2019-11-06 11:32:42:663,1.62,-0.6799,9.9259,0.0039,-0.005,9.8066,0.0018,-0.0146,0.0218,-25.69,-36.12,-1.62,108.33,-83.9,12.32
3715,52.783913,-1.6278,127.31,3.16,6,27.81,23 / 23,3055420,2019-11-06 11:32:42:763,1.2665,-0.5214,9.6854,-0.0033,-0.0046,9.8066,0.001,-0.0427,0.0275,-25.94,-36.31,-1.75,104.98,-83.98,11.38
3716,52.783913,-1.6278,127.31,3.16,6,27.81,23 / 23,3055520,2019-11-06 11:32:42:863,0.9327,-0.6847,10.04,-0.0053,-0.0064,9.8066,-0.0031,0.0054,-0.0209,-25.44,-36.37,-1.56,104.61,-83.94,10.79
3717,52.783913,-1.6278,127.31,3.16,6,27.81,23 / 23,3055620,2019-11-06 11:32:42:963,0.8395,-0.7836,9.9687,-0.0102,-0.0122,9.8065,-0.0158,0.0027,-0.0036,-25.19,-36.62,-1.5,104.61,-83.94,10.79
3718,52.783913,-1.6278,127.31,3.16,6,27.81,23 / 23,3055720,2019-11-06 11:32:43:063,-0.1306,-1.0139,10.0713,-0.0064,0.0089,9.8066,0.0035,-0.0244,-0.0435,-25.0,-36.87,-1.75,104.02,-83.87,9.83
3719,52.783913,-1.6278,127.31,3.16,6,27.81,23 / 23,3055820,2019-11-06 11:32:43:163,-0.4211,0.0198,9.9293,-0.0221,0.0127,9.8066,-0.027,-0.0608,0.0004,-25.62,-37.0,-2.12,105.03,-83.72,10.84
3720,52.783913,-1.6278,127.31,3.16,6,27.81,23 / 23,3055921,2019-11-06 11:32:43:264,-0.6692,0.1237,10.0654,-0.0374,0.0216,9.8065,-0.0187,-0.0249,0.021,-25.62,-36.94,-2.0,105.03,-83.72,10.84
3721,52.783936,-1.62778,127.31,2.82,6,29.32,23 / 23,3056020,2019-11-06 11:32:43:363,-1.0977,-0.5061,10.1767,-0.002,-0.0039,9.8066,0.0181,-0.0272,-0.0361,-25.62,-37.31,-2.37,105.9,-83.48,11.42
3722,52.783936,-1.62778,127.31,2.82,6,29.32,23 / 23,3056119,2019-11-06 11:32:43:462,-1.8176,-0.242,10.0485,-0.0032,-0.0072,9.8065,-0.0152,0.0172,-0.0014,-25.19,-37.06,-2.0,105.7,-83.47,11.02
3723,52.783936,-1.62778,127.31,2.82,6,29.32,23 / 23,3056221,2019-11-06 11:32:43:564,-2.2399,0.235,9.9598,-0.0225,-0.004,9.8066,-0.0219,0.0096,-0.0048,-24.75,-37.06,-1.87,105.39,-83.35,10.51
3724,52.783936,-1.62778,127.31,2.82,6,29.32,23 / 23,3056320,2019-11-06 11:32:43:663,-2.163,-0.0473,10.1454,-0.0152,0.0,9.8066,-0.0058,-0.0014,-0.0057,-25.06,-37.19,-2.56,105.39,-83.35,10.51
3725,52.783936,-1.62778,127.31,2.82,6,29.32,23 / 23,3056420,2019-11-06 11:32:43:763,-1.8403,0.012,10.222,0.0017,0.0016,9.8066,-0.0105,-0.0004,-0.0013,-25.56,-37.06,-1.25,105.31,-83.26,10.31
3726,52.783936,-1.62778,127.31,2.82,6,29.32,23 / 23,3056520,2019-11-06 11:32:43:863,-0.9296,-0.1705,10.298,-0.0021,0.0011,9.8066,-0.0011,0.0061,-0.0149,-25.19,-37.06,-1.44,107.56,-83.25,10.37
3727,52.783936,-1.62778,127.31,2.82,6,29.32,23 / 23,3056620,2019-11-06 11:32:43:963,-0.3924,-0.4106,9.999,0.0089,-0.0083,9.8066,0.0024,0.0177,0.0089,-25.44,-36.75,-1.12,107.56,-83.25,10.37
3728,52.783936,-1.62778,127.31,2.82,6,29.32,23 / 23,3056720,2019-11-06 11:32:44:063,-0.4639,-0.3024,9.8743,0.004,-0.0128,9.8066,0.0038,-0.0346,0.0178,-25.25,-36.5,-1.69,107.23,-83.32,10.11
3729,52.783936,-1.62778,127.31,2.82,6,29.32,23 / 23,3056819,2019-11-06 11:32:44:162,-0.5072,-0.1131,9.8277,0.0068,-0.0031,9.8066,0.0259,-0.0335,0.026,-25.19,-36.56,-1.44,106.29,-83.4,9.24
3730,52.783936,-1.62778,127.31,2.82,6,29.32,23 / 23,3056924,2019-11-06 11:32:44:267,-0.0152,-0.1385,9.9002,0.0027,0.0041,9.8066,0.0017,0.0037,-0.0152,-25.62,-36.81,-1.5,105.99,-83.45,9.27
3731,52.783943,-1.627775,127.31,0.0,6,29.84,23 / 23,3057022,2019-11-06 11:32:44:365,0.115,-0.6964,10.0139,0.0043,0.0103,9.8066,-0.0048,0.0489,-0.0541,-25.0,-36.87,-1.69,105.99,-83.45,9.27
3732,52.783943,-1.627775,127.31,0.0,6,29.84,23 / 23,3057120,2019-11-06 11:32:44:463,0.6102,-0.4963,9.9191,0.0024,0.0025,9.8066,-0.004,0.011,0.0138,-25.5,-37.19,-1.06,107.12,-83.46,10.19
3733,52.783943,-1.627775,127.31,0.0,6,29.84,23 / 23,3057219,2019-11-06 11:32:44:562,0.6534,-0.2646,9.8466,0.0023,-0.0008,9.8066,0.0208,-0.0239,-0.0195,-25.31,-37.56,-1.12,107.5,-83.49,10.39
3734,52.783943,-1.627775,127.31,0.0,6,29.84,23 / 23,3057320,2019-11-06 11:32:44:663,0.6898,-0.2096,9.8225,0.0054,0.0,9.8066,0.0112,-0.0105,0.0208,-25.06,-36.69,-1.06,107.5,-83.49,10.39
3735,52.783943,-1.627775,127.31,0.0,6,29.84,23 / 23,3057422,2019-11-06 11:32:44:765,1.0261,-0.3504,9.8954,0.0008,0.0022,9.8066,0.0157,0.03,-0.0198,-25.62,-37.06,-1.56,107.3,-83.52,10.47
3736,52.783943,-1.627775,127.31,0.0,6,29.84,23 / 23,3057520,2019-11-06 11:32:44:863,1.0033,-0.3845,9.8809,0.0072,-0.0001,9.8066,-0.0064,0.0082,0.0023,-25.5,-37.06,-1.0,107.42,-83.53,10.61
3737,52.783943,-1.627775,127.31,0.0,6,29.84,23 / 23,3057620,2019-11-06 11:32:44:963,1.3215,-0.6395,9.7993,0.0175,-0.0014,9.8066,0.0105,-0.0172,0.0018,-25.62,-36.94,-1.5,107.23,-83.63,10.82
3738,52.783943,-1.627775,127.31,0.0,6,29.84,23 / 23,3057720,2019-11-06 11:32:45:063,1.4016,-0.6684,9.7644,0.016,-0.0026,9.8066,0.0134,-0.0005,0.018,-25.75,-36.5,-1.44,107.23,-83.63,10.82
3739,52.783943,-1.627775,127.31,0.0,6,29.84,23 / 23,3057820,2019-11-06 11:32:45:163,1.3227,-0.4455,9.7221,0.0134,-0.0021,9.8066,0.0094,0.0433,-0.0192,-26.0,-37.0,-1.0,107.22,-83.72,10.94
3740,52.783943,-1.627775,127.31,0.0,6,29.84,23 / 23,3057920,2019-11-06 11:32:45:263,1.2494,-0.1814,9.6739,0.0185,-0.0012,9.8066,-0.0191,0.0216,-0.0266,-25.75,-37.44,-1.37,107.31,-83.83,11.17
3741,52.783943,-1.627775,127.31,0.0,6,29.84,23 / 23,3058020,2019-11-06 11:32:45:363,1.5756,-0.4832,9.7169,0.0075,0.003,9.8066,0.0168,-0.0056,0.0065,-25.94,-37.06,-1.0,107.31,-83.83,11.17
3742,52.783943,-1.627775,127.31,0.0,6,29.84,23 / 23,3058120,2019-11-06 11:32:45:463,1.7673,-0.6615,9.7561,0.0044,0.0005,9.8066,-0.0081,-0.0255,0.0135,-25.44,-37.0,-1.31,107.53,-83.87,11.45
3743,52.783943,-1.627775,127.31,0.0,6,29.84,23 / 23,3058219,2019-11-06 11:32:45:562,1.6205,-0.7252,9.7707,0.0062,0.0006,9.8066,-0.0166,0.0255,-0.0158,-25.37,-37.19,-0.81,107.66,-83.93,11.42
3744,52.783943,-1.627775,127.31,0.0,6,29.84,23 / 23,3058320,2019-11-06 11:32:45:663,1.3741,-0.3422,9.7748,0.0077,0.0006,9.8066,0.0069,0.0327,-0.0149,-25.62,-37.44,-1.56,105.58,-84.0,11.8
3745,52.783943,-1.627775,127.31,0.0,6,29.84,23 / 23,3058420,2019-11-06 11:32:45:763,1.3702,-0.2953,9.7771,0.0152,-0.0017,9.8066,-0.0083,0.0151,-0.0134,-25.62,-37.19,-1.31,105.58,-84.0,11.8
3746,52.783943,-1.627775,127.31,0.0,6,29.84,23 / 23,3058520,2019-11-06 11:32:45:863,1.5302,-0.6125,9.7787,0.0077,-0.0015,9.8066,0.0045,0.0089,-0.014,-25.5,-37.75,-1.44,107.93,-84.12,12.0
3747,52.783943,-1.627775,127.31,0.0,6,29.84,23 / 23,3058620,2019-11-06 11:32:45:963,1.6679,-0.6875,9.7036,0.0088,0.0002,9.8066,0.0043,-0.0135,0.0044,-25.31,-37.62,-0.75,108.26,-84.21,12.23
3748,52.783943,-1.627775,127.31,0.0,6,29.84,23 / 23,3058720,2019-11-06 11:32:46:063,1.7081,-0.6152,9.6649,0.0187,-0.0001,9.8066,0.0046,0.0041,-0.0075,-25.62,-36.87,-0.87,108.26,-84.21,12.23
3749,52.783943,-1.627775,127.31,0.0,6,29.84,23 / 23,3058820,2019-11-06 11:32:46:163,1.3481,-0.2718,9.6988,0.0178,-0.0037,9.8066,-0.0146,0.0358,-0.021,-25.37,-37.19,-1.19,108.23,-84.32,12.57
3750,52.783943,-1.627775,127.31,0.0,6,29.84,23 / 23,3058919,2019-11-06 11:32:46:262,1.4224,-0.5163,9.7361,0.0092,-0.0042,9.8066,-0.0039,0.0157,-0.0085,-25.31,-37.06,-1.19,108.23,-84.48,12.8
3751,52.783936,-1.627779,127.31,0.0,6,30.08,22 / 22,3059022,2019-11-06 11:32:46:365,1.5974,-0.5032,9.6944,0.0209,-0.0066,9.8065,0.0084,0.0049,0.0078,-25.12,-36.75,-1.87,105.87,-84.61,12.82
3752,52.783936,-1.627779,127.31,0.0,6,30.08,22 / 22,3059120,2019-11-06 11:32:46:463,1.8813,-0.4041,9.6712,0.0237,-0.005,9.8066,-0.0084,-0.0036,-0.0158,-26.25,-37.0,-1.06,105.87,-84.61,12.82
3753,52.783936,-1.627779,127.31,0.0,6,30.08,22 / 22,3059219,2019-11-06 11:32:46:562,1.8928,-0.2652,9.6471,0.0107,-0.0025,9.8066,0.0107,-0.0075,0.0106,-25.81,-37.12,-1.56,105.67,-84.82,13.02
3754,52.783936,-1.627779,127.31,0.0,6,30.08,22 / 22,3059320,2019-11-06 11:32:46:663,1.8199,-0.4044,9.7151,0.0218,-0.0054,9.8066,0.0073,0.0045,-0.0082,-25.25,-37.31,-1.25,107.85,-84.95,13.06
3755,52.783936,-1.627779,127.31,0.0,6,30.08,22 / 22,3059420,2019-11-06 11:32:46:763,1.6586,-0.6154,9.7851,0.0199,-0.0069,9.8066,-0.0078,-0.0167,0.003,-25.5,-36.94,-1.69,107.85,-84.95,13.06
3756,52.783936,-1.627779,127.31,0.0,6,30.08,22 / 22,3059520,2019-11-06 11:32:46:863,1.5208,-0.6286,9.795,0.0195,0.0023,9.8066,-0.015,0.0009,-0.0064,-25.19,-37.0,-0.69,107.48,-85.08,13.03
3757,52.783936,-1.627779,127.31,0.0,6,30.08,22 / 22,3059620,2019-11-06 11:32:46:963,2.2674,-0.6238,9.7053,0.049,0.0067,9.8065,0.0046,-0.0088,0.0085,-25.5,-37.12,-1.06,108.76,-85.33,14.55
3758,52.783936,-1.627779,127.31,0.0,6,30.08,22 / 22,3059720,2019-11-06 11:32:47:063,4.7846,-0.5964,9.2867,0.0053,0.0027,9.8065,-0.0193,-0.0057,-0.0247,-25.19,-37.0,-1.12,109.02,-85.36,14.85
3759,52.783936,-1.627779,127.31,0.0,6,30.08,22 / 22,3059820,2019-11-06 11:32:47:163,5.543,-0.4346,9.0925,-0.0206,0.0027,9.8066,-0.0438,-0.0419,-0.0057,-24.81,-36.87,-0.5,109.02,-85.36,14.85
3760,52.783936,-1.627779,127.31,0.0,6,30.08,22 / 22,3059920,2019-11-06 11:32:47:263,4.6911,-0.4576,9.342,-0.0199,0.0037,9.8066,-0.0255,-0.0429,0.0142,-25.0,-37.0,-0.62,108.9,-85.24,14.56
3761,52.783936,-1.627779,127.31,0.0,6,30.08,23 / 23,3060020,2019-11-06 11:32:47:363,1.7537,-0.5323,9.8418,-0.0086,0.0108,9.8066,0.0362,0.0041,-0.0215,-25.19,-37.25,-0.19,111.68,-85.17,15.08
3762,52.783936,-1.627779,127.31,0.0,6,30.08,23 / 23,3060119,2019-11-06 11:32:47:462,4.0467,-1.1026,9.45,0.0319,-0.0054,9.8065,0.0172,-0.0029,-0.0133,-25.12,-36.94,0.06,111.68,-85.17,15.08
3763,52.783936,-1.627779,127.31,0.0,6,30.08,23 / 23,3060220,2019-11-06 11:32:47:563,2.984,-0.8699,9.8075,0.0078,0.0025,9.8066,0.0202,-0.0013,-0.0086,-25.44,-37.31,0.75,111.9,-85.36,15.56
3764,52.783936,-1.627779,127.31,0.0,6,30.08,23 / 23,3060320,2019-11-06 11:32:47:663,3.4721,-0.4398,9.7023,-0.0049,-0.006,9.8066,-0.0135,-0.0108,0.0011,-25.87,-37.69,0.13,112.5,-85.48,16.44
3765,52.783936,-1.627779,127.31,0.0,6,30.08,23 / 23,3060420,2019-11-06 11:32:47:763,3.0604,-1.1769,9.6916,-0.0181,-0.0129,9.8066,-0.0162,-0.041,0.0229,-25.44,-37.87,-1.12,109.32,-85.41,15.07
3766,52.783936,-1.627779,127.31,0.0,6,30.08,23 / 23,3060520,2019-11-06 11:32:47:863,3.5309,-0.2794,9.5831,-0.0206,0.0007,9.8066,-0.0488,-0.0676,0.0306,-25.06,-37.37,-1.0,109.32,-85.41,15.07
3767,52.783936,-1.627779,127.31,0.0,6,30.08,23 / 23,3060620,2019-11-06 11:32:47:963,2.644,0.543,9.5132,-0.0096,0.0144,9.8066,-0.0127,0.1343,-0.0913,-25.25,-36.62,-1.06,109.14,-85.18,14.73
3768,52.783936,-1.627779,127.31,0.0,6,30.08,23 / 23,3060719,2019-11-06 11:32:48:062,2.597,1.0715,10.1054,0.0088,0.0098,9.8066,-0.0058,0.2646,-0.1752,-25.0,-36.87,-0.81,110.99,-85.05,16.49
3769,52.783936,-1.627779,127.31,0.0,6,30.08,23 / 23,3060820,2019-11-06 11:32:48:163,3.1344,-1.7877,9.7682,0.0155,0.004,9.8066,-0.0242,0.0642,-0.0583,-25.12,-36.69,-1.06,110.99,-85.05,16.49
3770,52.783936,-1.627779,127.31,0.0,6,30.08,23 / 23,3060920,2019-11-06 11:32:48:263,2.7937,-2.434,9.6275,0.0118,-0.0014,9.8066,-0.0138,-0.1253,0.0832,-25.44,-37.44,-0.94,111.64,-85.15,17.12
3771,52.78397,-1.627753,127.31,3.62,6,31.92,23 / 23,3061020,2019-11-06 11:32:48:363,2.9211,-0.0224,9.352,0.0001,0.0203,9.8066,-0.0183,-0.09,0.0697,-25.12,-37.06,-0.75,112.17,-85.25,17.99
3772,52.78397,-1.627753,127.31,3.62,6,31.92,23 / 23,3061120,2019-11-06 11:32:48:463,3.156,-0.0516,9.4366,-0.0049,0.0062,9.8066,0.0235,0.0175,-0.0249,-25.69,-36.87,-1.19,112.32,-85.21,18.26
3773,52.78397,-1.627753,127.31,3.62,6,31.92,23 / 23,3061220,2019-11-06 11:32:48:563,2.9436,0.6358,9.9367,0.0181,0.0099,9.8066,-0.0254,0.1503,-0.0517,-25.81,-37.69,-0.69,112.32,-85.21,18.26
3774,52.78397,-1.627753,127.31,3.62,6,31.92,23 / 23,3061320,2019-11-06 11:32:48:663,1.8299,-1.9229,10.144,0.0023,-0.0001,9.8066,-0.0018,0.17,-0.0967,-25.81,-37.62,-0.62,113.47,-85.28,19.4
3775,52.78397,-1.627753,127.31,3.62,6,31.92,23 / 23,3061420,2019-11-06 11:32:48:763,1.905,-2.4963,9.6548,-0.0481,0.0023,9.8065,-0.0375,-0.1902,0.1241,-25.5,-37.25,-1.75,110.52,-85.02,18.25
3776,52.78397,-1.627753,127.31,3.62,6,31.92,23 / 23,3061520,2019-11-06 11:32:48:863,1.5897,-0.4696,9.4487,-0.0179,0.0187,9.8066,0.0339,-0.1857,0.0519,-25.56,-37.5,-1.19,110.52,-85.02,18.25
3777,52.78397,-1.627753,127.31,3.62,6,31.92,23 / 23,3061619,2019-11-06 11:32:48:962,2.6909,1.9216,9.0674,0.0096,0.0023,9.8066,0.0539,-0.0216,0.0744,-25.81,-37.69,-1.37,111.59,-84.88,18.99
3778,52.78397,-1.627753,127.31,3.62,6,31.92,23 / 23,3061720,2019-11-06 11:32:49:063,2.9342,1.0564,9.472,0.0257,-0.0055,9.8066,0.0172,0.1626,-0.135,-25.62,-38.0,-1.56,111.8,-85.06,19.57
3779,52.78397,-1.627753,127.31,3.62,6,31.92,23 / 23,3061819,2019-11-06 11:32:49:162,2.7027,-3.9766,9.0252,0.0418,-0.0146,9.8065,0.0377,0.2209,-0.223,-25.5,-38.06,-0.31,116.05,-85.32,19.71
3780,52.78397,-1.627753,127.31,3.62,6,31.92,23 / 23,3061920,2019-11-06 11:32:49:263,2.7955,-0.3513,9.8688,-0.0036,0.0411,9.8065,-0.0049,-0.0155,0.0259,-25.25,-38.25,-0.62,116.05,-85.32,19.71
3781,52.784008,-1.627713,127.29,5.3,6,31.98,23 / 23,3062020,2019-11-06 11:32:49:363,2.6312,0.2623,9.9699,0.0244,-0.0013,9.8066,0.0015,-0.1251,0.1151,-26.12,-37.81,-0.12,119.3,-85.18,23.22
3782,52.784008,-1.627713,127.29,5.3,6,31.98,23 / 23,3062120,2019-11-06 11:32:49:463,2.6857,-0.1179,9.0484,0.017,-0.02,9.8065,0.071,-0.0231,-0.0144,-25.69,-36.94,-0.12,119.13,-85.38,23.45
3783,52.784008,-1.627713,127.29,5.3,6,31.98,23 / 23,3062220,2019-11-06 11:32:49:563,2.3207,-2.1372,9.2385,0.0244,-0.0358,9.8065,-0.0095,-0.0354,-0.0689,-26.12,-37.06,0.19,119.13,-85.38,23.45
3784,52.784008,-1.627713,127.29,5.3,6,31.98,23 / 23,3062320,2019-11-06 11:32:49:663,2.7877,-0.3896,9.8105,0.0271,0.0201,9.8066,0.057,-0.1505,0.1177,-26.06,-37.56,0.44,119.08,-85.69,21.57
3785,52.784008,-1.627713,127.29,5.3,6,31.98,23 / 23,3062420,2019-11-06 11:32:49:763,2.3813,-1.2155,10.1088,0.0021,0.0108,9.8066,-0.0001,-0.1112,-0.094,-25.94,-37.19,0.13,120.35,-85.75,25.18
3786,52.784008,-1.627713,127.29,5.3,6,31.98,23 / 23,3062520,2019-11-06 11:32:49:863,2.4462,-2.1896,9.7115,-0.0034,0.0051,9.8066,-0.0343,0.1085,0.0344,-26.19,-36.5,0.94,122.54,-85.71,25.4
3787,52.784008,-1.627713,127.29,5.3,6,31.98,23 / 23,3062619,2019-11-06 11:32:49:962,2.2879,0.6396,8.5901,-0.0162,0.0142,9.8065,-0.06,-0.0546,0.1453,-26.12,-36.12,0.31,122.54,-85.71,25.4
3788,52.784008,-1.627713,127.29,5.3,6,31.98,23 / 23,3062720,2019-11-06 11:32:50:063,1.627,-2.2057,10.4421,-0.0331,-0.0227,9.8065,-0.1362,-0.1276,-0.006,-26.19,-36.06,0.19,116.94,-85.52,21.46
3789,52.784008,-1.627713,127.29,5.3,6,31.98,23 / 23,3062820,2019-11-06 11:32:50:163,1.0931,1.3092,9.8379,-0.0786,0.0013,9.8062,-0.0386,-0.0992,0.197,-26.94,-36.62,-0.5,115.13,-85.1,19.11
3790,52.784008,-1.627713,127.29,5.3,6,31.98,23 / 23,3062920,2019-11-06 11:32:50:263,0.587,1.0268,10.312,-0.0722,0.0642,9.8062,-0.1099,0.1159,-0.1984,-26.5,-35.69,-0.62,115.13,-85.1,19.11
3791,52.784058,-1.627668,127.19,6.67,4,33.61,22 / 22,3063021,2019-11-06 11:32:50:364,1.0011,-3.1776,10.4974,0.0366,-0.0258,9.8064,-0.0805,0.1576,-0.1092,-26.94,-36.25,-0.87,117.52,-84.43,23.15
3792,52.784058,-1.627668,127.19,6.67,4,33.61,22 / 22,3063120,2019-11-06 11:32:50:463,0.7691,-1.5134,9.272,0.0558,-0.0164,9.8064,0.046,-0.1612,0.1081,-26.87,-36.75,-0.56,117.52,-84.43,23.15
3793,52.784058,-1.627668,127.19,6.67,4,33.61,22 / 22,3063220,2019-11-06 11:32:50:563,2.3096,2.3267,9.1832,0.0077,-0.0387,9.8066,0.0271,-0.4627,0.3074,-26.62,-36.25,-0.75,115.52,-85.13,21.84
3794,52.784058,-1.627668,127.19,6.67,4,33.61,22 / 22,3063320,2019-11-06 11:32:50:663,0.4562,3.549,9.8801,-0.0131,-0.0574,9.8065,-0.0117,-0.3353,0.2128,-26.69,-37.0,-1.31,111.79,-85.19,17.84
3795,52.784058,-1.627668,127.19,6.67,4,33.61,22 / 22,3063420,2019-11-06 11:32:50:763,0.1872,-2.5941,10.8006,-0.054,0.0037,9.8065,-0.0524,0.4745,-0.3417,-26.06,-36.44,-1.06,111.79,-85.19,17.84
3796,52.784058,-1.627668,127.19,6.67,4,33.61,22 / 22,3063520,2019-11-06 11:32:50:863,0.1157,-3.8272,10.5946,-0.0069,0.0552,9.8065,-0.038,0.2169,-0.0829,-25.69,-36.81,-0.62,111.1,-84.89,16.75
3797,52.784058,-1.627668,127.19,6.67,4,33.61,22 / 22,3063620,2019-11-06 11:32:50:963,1.7589,-1.9596,10.081,0.015,0.0511,9.8064,0.1058,-0.2198,0.1188,-26.31,-36.75,-1.19,114.6,-84.85,20.21
3798,52.784058,-1.627668,127.19,6.67,4,33.61,22 / 22,3063720,2019-11-06 11:32:51:063,1.2781,2.8193,9.8111,0.0438,-0.0617,9.8063,0.0489,-0.3954,0.2402,-25.75,-36.56,-1.06,114.6,-84.85,20.21
3799,52.784058,-1.627668,127.19,6.67,4,33.61,22 / 22,3063820,2019-11-06 11:32:51:163,0.8248,2.4075,10.2274,0.0183,-0.0272,9.8066,0.0155,0.1305,-0.0764,-26.81,-36.75,-0.44,113.55,-85.23,17.54
3800,52.784058,-1.627668,127.19,6.67,4,33.61,22 / 22,3063920,2019-11-06 11:32:51:263,0.7755,-2.3593,10.0067,0.0163,0.023,9.8065,-0.0883,0.3747,-0.206,-26.37,-37.5,-0.62,110.18,-85.39,16.26
3801,52.784107,-1.627613,127.13,6.71,4,34.18,23 / 23,3064020,2019-11-06 11:32:51:363,0.0643,-2.4479,9.7334,0.0256,0.0767,9.8062,0.0228,0.3334,-0.2055,-26.69,-36.87,-0.56,115.66,-85.35,22.1
3802,52.784107,-1.627613,127.13,6.71,4,34.18,23 / 23,3064120,2019-11-06 11:32:51:463,0.5475,-2.6326,10.0068,0.0325,-0.0366,9.8065,0.0254,0.0415,-0.0488,-26.06,-37.12,-0.69,115.66,-85.35,22.1
3803,52.784107,-1.627613,127.13,6.71,4,34.18,23 / 23,3064220,2019-11-06 11:32:51:563,1.4338,1.9073,9.7492,0.0132,-0.0112,9.8065,0.0304,-0.3294,0.1854,-25.56,-37.12,-0.94,114.1,-85.61,20.66
3804,52.784107,-1.627613,127.13,6.71,4,34.18,23 / 23,3064320,2019-11-06 11:32:51:663,0.9894,1.6981,9.4821,0.0385,0.0043,9.8066,0.0151,-0.0882,0.091,-26.5,-36.94,0.25,117.47,-85.81,22.22
3805,52.784107,-1.627613,127.13,6.71,4,34.18,23 / 23,3064420,2019-11-06 11:32:51:763,1.5899,-0.9955,9.9435,0.0193,0.0167,9.8065,0.0243,0.2123,-0.1418,-26.25,-37.37,-0.62,117.47,-85.81,22.22
3806,52.784107,-1.627613,127.13,6.71,4,34.18,23 / 23,3064519,2019-11-06 11:32:51:862,0.4608,-2.6984,10.5262,0.0127,0.0003,9.8066,-0.031,0.3131,-0.1554,-25.56,-36.69,-0.81,117.25,-85.86,24.15
3807,52.784107,-1.627613,127.13,6.71,4,34.18,23 / 23,3064620,2019-11-06 11:32:51:963,1.8471,0.2196,9.2725,-0.0043,-0.0132,9.8066,0.022,-0.1233,0.0985,-26.06,-36.94,-0.44,119.19,-85.93,24.18
3808,52.784107,-1.627613,127.13,6.71,4,34.18,23 / 23,3064720,2019-11-06 11:32:52:063,1.2742,1.4026,9.314,0.016,-0.0296,9.8065,0.0211,-0.2254,0.1329,-25.62,-36.87,-0.75,115.41,-86.09,22.64
3809,52.784107,-1.627613,127.13,6.71,4,34.18,23 / 23,3064820,2019-11-06 11:32:52:163,1.5481,0.8006,9.663,0.0032,0.0035,9.8066,-0.0236,-0.04,0.0334,-26.5,-36.56,-0.19,115.41,-86.09,22.64
3810,52.784107,-1.627613,127.13,6.71,4,34.18,23 / 23,3064921,2019-11-06 11:32:52:264,1.9238,-0.5627,9.9858,0.0096,-0.0052,9.8066,0.0157,0.1059,-0.0334,-26.5,-36.87,-0.56,115.44,-86.08,22.65
3811,52.78416,-1.627558,127.06,6.81,4,33.47,23 / 23,3065020,2019-11-06 11:32:52:363,0.9668,-1.3303,9.8202,0.0067,-0.0134,9.8066,-0.018,0.1456,-0.0302,-26.56,-36.37,-0.12,116.34,-86.26,21.92
3812,52.78416,-1.627558,127.06,6.81,4,33.47,23 / 23,3065120,2019-11-06 11:32:52:463,0.8351,0.0558,10.0186,0.0334,-0.0172,9.8065,0.0044,0.135,-0.0326,-27.12,-36.5,0.25,116.34,-86.26,21.92
3813,52.78416,-1.627558,127.06,6.81,4,33.47,23 / 23,3065220,2019-11-06 11:32:52:563,2.0695,-0.9593,9.8595,0.0145,-0.0101,9.8066,-0.0151,0.0262,0.0004,-27.25,-35.94,0.0,116.05,-86.48,21.87
3814,52.78416,-1.627558,127.06,6.81,4,33.47,23 / 23,3065320,2019-11-06 11:32:52:663,0.5975,-0.9287,10.0677,0.0281,0.0004,9.8065,-0.0141,0.0072,0.011,-27.25,-35.81,-1.12,115.05,-86.63,23.13
3815,52.78416,-1.627558,127.06,6.81,4,33.47,23 / 23,3065420,2019-11-06 11:32:52:763,1.6399,-0.0881,9.6463,0.0059,0.0183,9.8066,0.0265,-0.0765,0.0224,-27.31,-36.69,-0.94,117.0,-86.61,25.02
3816,52.78416,-1.627558,127.06,6.81,4,33.47,23 / 23,3065519,2019-11-06 11:32:52:862,1.3009,-0.8664,10.1641,0.0158,-0.0264,9.8066,0.0434,-0.0279,-0.0085,-27.31,-36.44,-1.25,117.0,-86.61,25.02
3817,52.78416,-1.627558,127.06,6.81,4,33.47,23 / 23,3065620,2019-11-06 11:32:52:963,2.7733,-1.4054,9.8717,0.0012,-0.0037,9.8066,0.0239,-0.0844,0.0282,-27.37,-36.06,-0.25,117.14,-86.76,23.33
3818,52.78416,-1.627558,127.06,6.81,4,33.47,23 / 23,3065720,2019-11-06 11:32:53:063,0.7971,-0.7399,9.7807,0.0599,-0.0051,9.8064,0.0601,-0.0363,0.0378,-27.5,-36.25,-0.81,117.25,-87.09,25.95
3819,52.78416,-1.627558,127.06,6.81,4,33.47,23 / 23,3065820,2019-11-06 11:32:53:163,1.037,0.2646,9.0364,0.0065,-0.0011,9.8066,-0.0634,-0.0506,0.038,-28.0,-36.37,-0.56,117.25,-87.09,25.95
3820,52.78416,-1.627558,127.06,6.81,4,33.47,23 / 23,3065920,2019-11-06 11:32:53:263,0.8223,1.2125,9.3259,0.0057,0.0091,9.8066,0.0443,-0.2299,0.1099,-29.44,-36.25,0.63,119.76,-87.18,26.74
3821,52.784218,-1.627501,127.01,7.48,4,33.58,23 / 23,3066020,2019-11-06 11:32:53:363,0.8037,-1.1184,10.0238,0.0109,-0.0067,9.8066,0.0613,-0.2122,0.0581,-28.81,-35.37,1.06,123.64,-87.24,28.93
3822,52.784218,-1.627501,127.01,7.48,4,33.58,23 / 23,3066121,2019-11-06 11:32:53:464,1.9483,0.3179,9.6292,0.0117,-0.0137,9.8066,-0.0177,-0.0335,0.0126,-28.31,-34.94,2.81,127.03,-87.35,28.31
3823,52.784218,-1.627501,127.01,7.48,4,33.58,23 / 23,3066220,2019-11-06 11:32:53:563,1.7998,-0.2459,9.3329,0.0238,-0.0019,9.8066,-0.0216,-0.0039,-0.055,-26.81,-34.81,2.5,127.03,-87.35,28.31
3824,52.784218,-1.627501,127.01,7.48,4,33.58,23 / 23,3066320,2019-11-06 11:32:53:663,1.7928,-1.657,10.1354,0.0002,0.0166,9.8066,0.0354,-0.2166,0.124,-25.94,-34.37,2.44,127.98,-87.44,30.98
3825,52.784218,-1.627501,127.01,7.48,4,33.58,23 / 23,3066420,2019-11-06 11:32:53:763,1.9681,-1.9132,10.1896,-0.0048,0.0367,9.8066,0.025,-0.1301,0.0352,-25.62,-35.0,1.31,129.18,-87.28,34.18
3826,52.784218,-1.627501,127.01,7.48,4,33.58,23 / 23,3066520,2019-11-06 11:32:53:863,2.1958,-0.0056,10.1751,0.0138,0.0118,9.8066,-0.0014,0.0385,-0.0133,-25.06,-34.5,-0.06,129.18,-87.28,34.18
3827,52.784218,-1.627501,127.01,7.48,4,33.58,23 / 23,3066619,2019-11-06 11:32:53:962,1.6577,0.4179,9.8737,0.0233,-0.0197,9.8065,0.0191,0.1672,-0.1295,-25.5,-35.69,-0.81,129.19,-87.3,36.4
3828,52.784218,-1.627501,127.01,7.48,4,33.58,23 / 23,3066719,2019-11-06 11:32:54:062,1.8314,0.2833,9.784,0.0331,-0.0206,9.8066,-0.0422,-0.0404,0.0232,-26.5,-35.37,-0.56,127.48,-87.53,37.07
3829,52.784218,-1.627501,127.01,7.48,4,33.58,23 / 23,3066820,2019-11-06 11:32:54:163,0.4368,0.1549,10.076,-0.0089,-0.0005,9.8066,0.0375,-0.0085,0.0499,-27.44,-35.37,-0.75,126.76,-87.49,36.29
3830,52.784218,-1.627501,127.01,7.48,4,33.58,23 / 23,3066920,2019-11-06 11:32:54:263,0.4749,-0.3271,10.0135,-0.0006,0.0071,9.8065,-0.0493,0.1001,-0.0796,-26.81,-35.31,-0.06,126.76,-87.49,36.29
3831,52.78427,-1.627438,126.97,8.18,4,33.11,23 / 23,3067020,2019-11-06 11:32:54:363,1.474,-0.4492,9.9069,0.0076,0.0063,9.8066,-0.0061,0.0822,0.0018,-27.19,-35.0,0.06,129.51,-87.46,36.99
3832,52.78427,-1.627438,126.97,8.18,4,33.11,23 / 23,3067119,2019-11-06 11:32:54:462,-0.1102,0.7745,9.2727,0.0475,-0.0078,9.8065,-0.0205,0.1069,-0.0622,-27.5,-35.44,0.88,134.73,-87.7,40.51
3833,52.78427,-1.627438,126.97,8.18,4,33.11,23 / 23,3067220,2019-11-06 11:32:54:563,0.1872,-0.6331,9.5456,0.0016,-0.0048,9.8066,-0.0292,0.0097,-0.0272,-26.81,-35.37,1.13,134.73,-87.7,40.51
3834,52.78427,-1.627438,126.97,8.18,4,33.11,23 / 23,3067320,2019-11-06 11:32:54:663,0.0745,-1.9852,10.2904,-0.0179,0.0152,9.8066,-0.0157,-0.156,0.0794,-25.87,-35.81,0.75,134.59,-87.72,40.17
3835,52.78427,-1.627438,126.97,8.18,4,33.11,23 / 23,3067420,2019-11-06 11:32:54:763,-0.628,0.6798,9.7789,-0.0271,0.0216,9.8065,-0.0334,-0.1088,0.078,-25.12,-34.87,0.38,132.03,-87.36,39.31
3836,52.78427,-1.627438,126.97,8.18,4,33.11,23 / 23,3067520,2019-11-06 11:32:54:863,0.6498,0.5467,9.7018,-0.0379,0.0045,9.8066,0.0651,0.028,-0.0154,-25.94,-34.69,0.13,132.03,-87.36,39.31
3837,52.78427,-1.627438,126.97,8.18,4,33.11,23 / 23,3067620,2019-11-06 11:32:54:963,0.5492,-0.4247,10.0238,0.0047,-0.0054,9.8066,-0.0002,0.0794,-0.0191,-26.25,-34.37,-0.25,129.6,-87.17,36.7
3838,52.78427,-1.627438,126.97,8.18,4,33.11,23 / 23,3067720,2019-11-06 11:32:55:063,0.5366,-0.5925,9.7054,0.0126,0.0149,9.8065,0.0076,0.1539,-0.0355,-26.0,-34.75,-0.62,129.79,-87.27,39.2
3839,52.78427,-1.627438,126.97,8.18,4,33.11,23 / 23,3067820,2019-11-06 11:32:55:163,0.3777,-0.4014,9.9548,0.0589,0.0095,9.8064,0.0065,0.0097,0.0233,-25.31,-34.25,0.0,137.48,-87.48,45.2
3840,52.78427,-1.627438,126.97,8.18,4,33.11,23 / 23,3067920,2019-11-06 11:32:55:263,0.0126,-0.1484,9.8478,0.0143,0.0001,9.8066,0.0473,-0.0039,0.0215,-25.0,-34.81,1.0,137.48,-87.48,45.2
3841,52.784336,-1.627373,126.93,7.89,4,31.5,23 / 23,3068020,2019-11-06 11:32:55:363,0.4017,0.3112,9.5182,0.0119,-0.0007,9.8065,0.0004,0.0645,-0.0208,-24.12,-34.56,1.19,143.06,-87.58,48.58
3842,52.784336,-1.627373,126.93,7.89,4,31.5,23 / 23,3068120,2019-11-06 11:32:55:463,0.5321,-0.6313,9.7598,0.0028,0.0002,9.8066,-0.0083,0.1282,-0.0658,-22.19,-34.37,-0.25,143.07,-87.68,50.93
3843,52.784336,-1.627373,126.93,7.89,4,31.5,23 / 23,3068220,2019-11-06 11:32:55:563,0.3372,-1.5497,10.1458,0.0015,0.006,9.8066,-0.0287,0.0541,-0.0045,-22.31,-33.87,-2.81,143.07,-87.68,50.93
3844,52.784336,-1.627373,126.93,7.89,4,31.5,23 / 23,3068320,2019-11-06 11:32:55:663,0.2107,0.1977,9.9423,0.0038,0.0181,9.8066,-0.0564,0.0249,-0.0682,-25.06,-34.75,-5.87,133.87,-87.56,51.2
3845,52.784336,-1.627373,126.93,7.89,4,31.5,23 / 23,3068420,2019-11-06 11:32:55:763,-0.2243,-0.34,10.5885,-0.0035,0.0232,9.8065,-0.0084,0.0509,-0.0066,-27.62,-36.25,-6.62,131.45,-87.36,53.05
3846,52.784336,-1.627373,126.93,7.89,4,31.5,23 / 23,3068520,2019-11-06 11:32:55:863,1.6789,-0.2374,9.7618,0.0283,0.0296,9.8065,0.0629,0.0253,-0.0042,-30.81,-36.62,-3.06,144.51,-87.36,58.25
3847,52.784336,-1.627373,126.93,7.89,4,31.5,23 / 23,3068619,2019-11-06 11:32:55:962,2.0109,0.2172,9.3879,0.0917,0.0009,9.8062,0.0458,-0.0736,0.0943,-31.56,-37.06,-1.12,144.51,-87.36,58.25
3848,52.784336,-1.627373,126.93,7.89,4,31.5,23 / 23,3068719,2019-11-06 11:32:56:062,2.3284,-0.4465,10.0266,0.0222,0.003,9.8065,0.053,0.007,-0.0837,-31.0,-37.0,0.81,164.56,-87.74,72.0
3849,52.784336,-1.627373,126.93,7.89,4,31.5,23 / 23,3068820,2019-11-06 11:32:56:163,1.5117,-0.0189,9.8459,0.0142,0.0068,9.8066,-0.0262,-0.0148,0.0111,-28.31,-36.37,2.06,168.92,-87.72,74.28
3850,52.784336,-1.627373,126.93,7.89,4,31.5,23 / 23,3068920,2019-11-06 11:32:56:263,0.4421,-0.4673,10.0104,-0.0361,-0.0085,9.8065,-0.0874,-0.0339,0.0341,-27.56,-36.25,1.81,168.92,-87.72,74.28
3851,52.7844,-1.627312,126.93,7.73,4,32.08,23 / 23,3069020,2019-11-06 11:32:56:363,0.8528,-0.8869,9.6242,-0.0013,0.0075,9.8066,-0.0003,-0.0868,0.075,-27.56,-36.19,1.38,161.78,-87.72,68.84
3852,52.7844,-1.627312,126.93,7.73,4,32.08,23 / 23,3069120,2019-11-06 11:32:56:463,-0.3273,-0.8169,9.4704,-0.0033,0.0025,9.8066,0.0248,-0.0566,-0.0284,-28.19,-35.81,1.0,161.47,-87.7,68.5
3853,52.7844,-1.627312,126.93,7.73,4,32.08,23 / 23,3069220,2019-11-06 11:32:56:563,0.3188,-0.2162,9.1333,-0.0071,-0.0134,9.8066,-0.0347,0.1088,-0.0408,-27.25,-35.5,1.69,161.98,-87.76,66.86
3854,52.7844,-1.627312,126.93,7.73,4,32.08,23 / 23,3069320,2019-11-06 11:32:56:663,0.2397,-1.5312,9.1008,0.0118,-0.0026,9.8066,-0.036,0.0666,-0.0751,-27.56,-36.37,1.88,161.98,-87.76,66.86
3855,52.7844,-1.627312,126.93,7.73,4,32.08,23 / 23,3069420,2019-11-06 11:32:56:763,0.766,-1.8533,9.5342,-0.0045,0.0034,9.8066,-0.07,-0.0236,0.0298,-27.31,-36.06,1.81,163.5,-87.79,68.44
3856,52.7844,-1.627312,126.93,7.73,4,32.08,23 / 23,3069520,2019-11-06 11:32:56:863,-0.2855,-1.2067,9.5458,-0.0009,0.0134,9.8066,0.0329,-0.0121,0.033,-26.5,-36.0,1.0,162.03,-87.72,68.87
3857,52.7844,-1.627312,126.93,7.73,4,32.08,23 / 23,3069620,2019-11-06 11:32:56:963,1.6694,-0.7225,9.6472,-0.0061,-0.0046,9.8066,-0.0544,0.0111,-0.0658,-26.25,-36.12,0.38,162.03,-87.72,68.87
3858,52.7844,-1.627312,126.93,7.73,4,32.08,23 / 23,3069720,2019-11-06 11:32:57:063,1.874,-0.6492,9.7181,-0.0098,-0.0059,9.8066,-0.0383,0.0149,0.0183,-26.44,-34.87,0.0,158.9,-87.73,67.81
3859,52.7844,-1.627312,126.93,7.73,4,32.08,23 / 23,3069820,2019-11-06 11:32:57:163,0.4156,-1.6695,10.2195,0.0144,0.0085,9.8066,-0.0054,0.0993,-0.0163,-26.87,-35.0,0.13,157.6,-87.71,66.49
3860,52.7844,-1.627312,126.93,7.73,4,32.08,23 / 23,3069920,2019-11-06 11:32:57:263,0.0594,-0.6491,10.1962,0.073,0.0247,9.8063,0.0526,0.0126,-0.0375,-27.5,-35.62,0.31,168.32,-87.69,77.71
3861,52.78446,-1.627249,126.91,8.04,4,33.89,23 / 23,3070021,2019-11-06 11:32:57:364,1.1155,-0.7672,10.3185,0.029,-0.0007,9.8066,-0.0045,-0.0125,-0.0188,-27.75,-35.31,0.75,168.32,-87.69,77.71
3862,52.78446,-1.627249,126.91,8.04,4,33.89,23 / 23,3070121,2019-11-06 11:32:57:464,0.4788,-0.7688,9.4917,-0.0179,-0.0024,9.8066,-0.0678,-0.0149,0.0496,-27.06,-35.19,1.38,173.52,-87.74,81.07
3863,52.78446,-1.627249,126.91,8.04,4,33.89,23 / 23,3070220,2019-11-06 11:32:57:563,1.2938,-0.7279,9.7919,-0.0019,0.0062,9.8066,-0.0053,0.0089,-0.0009,-26.31,-36.0,0.63,171.01,-87.71,78.32
