,GPS LATITUDE (degrees),GPS LONGITUDE (degrees), GPS ALTITUDE (m),GPS SPEED (Kmh),GPS ACCURACY (m),GPS ORIENTATION (Â°), SATELLITES IN RANGE, TIME SINCE START (ms), DATE (YYYY-MO-DD HH-MI-SS_SSS),ACCELEROMETER X (m/s²) , ACCELEROMETER Y (m/s²), ACCELEROMETER Z (m/s²), GRAVITY X (m/s²), GRAVITY Y (m/s²), GRAVITY Z (m/s²), GYROSCOPE Yaw (rad/s), GYROSCOPE Pitch (rad/s), GYROSCOPE Roll (rad/s)
17901,46.09687,-0.534616,111.89,34.43,3.216,170.7,Dec-16,1790110,2019-08-09 23:05:07:337,0.707,-0.9013,9.9224,0.4622,-1.0909,9.7348,-0.0281,-0.0133,-0.0032
17902,46.09687,-0.534616,111.89,34.43,3.216,170.7,Dec-16,1790211,2019-08-09 23:05:07:438,0.3239,-2.6311,9.6842,0.4541,-1.0943,9.7348,0.0393,-0.0104,0.0061
17903,46.09687,-0.534616,111.89,34.43,3.216,170.7,Dec-16,1790311,2019-08-09 23:05:07:538,0.3335,-0.0777,9.5214,0.4476,-1.0844,9.7362,-0.009,0.0067,0.0097
17904,46.09687,-0.534616,111.89,34.43,3.216,170.7,Dec-16,1790410,2019-08-09 23:05:07:637,0.4975,0.072,9.7453,0.4486,-1.0934,9.7352,0.0208,-0.0007,-0.024
17905,46.09687,-0.534616,111.89,34.43,3.216,170.7,Dec-16,1790510,2019-08-09 23:05:07:737,0.5819,-1.5603,9.9996,0.4592,-1.0948,9.7345,-0.0375,0.0092,0.017
17906,46.09687,-0.534616,111.89,34.43,3.216,170.7,Nov-16,1790610,2019-08-09 23:05:07:837,0.6597,-2.2642,9.0988,0.4671,-1.0847,9.7353,-0.0099,0.0175,-0.009
17907,46.09687,-0.534616,111.89,34.43,3.216,170.7,Nov-16,1790711,2019-08-09 23:05:07:938,0.8309,-1.501,9.4125,0.4813,-1.0715,9.736,-0.0168,-0.0094,0.0017
17908,46.09687,-0.534616,111.89,34.43,3.216,170.7,Nov-16,1790810,2019-08-09 23:05:08:037,0.6388,0.312,9.6106,0.4777,-1.056,9.7379,0.0104,-0.0163,-0.0009
17909,46.09687,-0.534616,111.89,34.43,3.216,170.7,Nov-16,1790910,2019-08-09 23:05:08:137,0.6974,-1.6159,9.4999,0.471,-1.0575,9.7381,0.0119,0.0028,-0.0022
17910,46.09687,-0.534616,111.89,34.43,3.216,170.7,Nov-16,1791010,2019-08-09 23:05:08:237,0.6154,-0.8187,9.6896,0.4748,-1.0483,9.7389,0.0027,0.0079,0.0006
17911,46.09687,-0.534616,111.89,34.43,3.216,170.7,Nov-16,1791110,2019-08-09 23:05:08:337,0.6585,-1.2688,9.8351,0.4816,-1.0791,9.7352,-0.0057,0.0004,0.0123
17912,46.09687,-0.534616,111.89,34.43,3.216,170.7,Nov-16,1791210,2019-08-09 23:05:08:437,0.628,-0.4769,9.5747,0.4857,-1.0655,9.7365,-0.03,0.0021,0.0017
17913,46.09687,-0.534616,111.89,34.43,3.216,170.7,Nov-16,1791310,2019-08-09 23:05:08:537,0.6148,-0.2949,9.3053,0.4924,-1.0453,9.7383,0.0241,0.0093,-0.0027
17914,46.09687,-0.534616,111.89,34.43,3.216,170.7,Nov-16,1791410,2019-08-09 23:05:08:637,1.0308,-0.7827,9.6878,0.5037,-1.0428,9.738,-0.0215,-0.0072,-0.0172
17915,46.09687,-0.534616,111.89,34.43,3.216,170.7,Nov-16,1791511,2019-08-09 23:05:08:738,0.3329,0.0594,9.7536,0.4986,-1.0584,9.7366,-0.0121,-0.0049,0.0268
17916,46.09687,-0.534616,111.89,34.43,3.216,170.7,Dec-17,1791610,2019-08-09 23:05:08:837,0.7303,-2.1055,9.133,0.5146,-1.0406,9.7377,-0.0062,0.0185,-0.0098
17917,46.09687,-0.534616,111.89,34.43,3.216,170.7,Dec-17,1791710,2019-08-09 23:05:08:937,1.0171,-0.1363,9.6776,0.5209,-1.0446,9.7369,0.0055,0.0004,-0.0001
17918,46.09687,-0.534616,111.89,34.43,3.216,170.7,Dec-17,1791810,2019-08-09 23:05:09:037,0.5191,-1.4801,9.8781,0.5167,-1.0245,9.7393,0.0061,-0.0082,0.0051
17919,46.09687,-0.534616,111.89,34.43,3.216,170.7,Dec-17,1791911,2019-08-09 23:05:09:138,0.7836,-0.7959,9.5094,0.5149,-1.02,9.7399,0.0198,-0.0059,-0.004
17920,46.09687,-0.534616,111.89,34.43,3.216,170.7,Dec-17,1792011,2019-08-09 23:05:09:238,0.8291,-1.0718,9.9153,0.516,-1.0355,9.7382,-0.0149,-0.0013,0.035
17921,46.09687,-0.534616,111.89,34.43,3.216,170.7,Dec-17,1792111,2019-08-09 23:05:09:338,0.4143,-0.9629,9.619,0.5108,-1.0231,9.7398,0.0001,0.0016,0.0034
17922,46.09687,-0.534616,111.89,34.43,3.216,170.7,Dec-17,1792211,2019-08-09 23:05:09:438,0.9027,-0.2566,9.9847,0.5138,-1.033,9.7386,-0.0099,-0.0133,-0.0031
17923,46.09687,-0.534616,111.89,34.43,3.216,170.7,Dec-17,1792310,2019-08-09 23:05:09:537,0.5885,-1.3627,9.9135,0.5117,-1.0275,9.7392,0.0114,-0.0114,0.0076
17924,46.09687,-0.534616,111.89,34.43,3.216,170.7,Dec-17,1792410,2019-08-09 23:05:09:637,0.0462,-0.6822,9.2658,0.5114,-0.9989,9.7422,0.0389,0.0146,-0.0035
17925,46.09687,-0.534616,111.89,34.43,3.216,170.7,Dec-17,1792510,2019-08-09 23:05:09:737,0.7268,-0.1369,9.8177,0.5176,-1.0171,9.74,0.0336,0.0078,-0.0009
17926,46.094063,-0.53389,113.22,35.93,3.216,168.8,Nov-16,1792611,2019-08-09 23:05:09:838,0.5071,0.218,9.6088,0.5215,-1.021,9.7394,-0.0276,0.0038,0.0419
17927,46.094063,-0.53389,113.22,35.93,3.216,168.8,Nov-16,1792711,2019-08-09 23:05:09:938,0.5185,-1.9092,9.7387,0.5157,-1.0122,9.7406,0.0497,-0.0047,-0.0159
17928,46.094063,-0.53389,113.22,35.93,3.216,168.8,Nov-16,1792811,2019-08-09 23:05:10:038,0.2677,-0.8456,10.0074,0.5124,-1.0286,9.7391,-0.0098,-0.0004,0.0277
17929,46.094063,-0.53389,113.22,35.93,3.216,168.8,Nov-16,1792910,2019-08-09 23:05:10:137,-0.0555,-1.1239,9.6172,0.5075,-1.0226,9.74,-0.0098,-0.0004,0.0277
17930,46.094063,-0.53389,113.22,35.93,3.216,168.8,Nov-16,1793010,2019-08-09 23:05:10:237,0.7375,-1.24,9.3323,0.5252,-1.0048,9.7409,-0.0218,0.0186,-0.0124
17931,46.094063,-0.53389,113.22,35.93,3.216,168.8,Nov-16,1793110,2019-08-09 23:05:10:337,0.3359,-0.4924,9.6872,0.533,-0.9929,9.7417,0.0236,0.0031,0.0125
17932,46.094063,-0.53389,113.22,35.93,3.216,168.8,Nov-16,1793210,2019-08-09 23:05:10:437,0.5143,-1.6578,9.7159,0.5236,-0.9983,9.7416,-0.016,-0.0121,0.0221
17933,46.094063,-0.53389,113.22,35.93,3.216,168.8,Nov-16,1793311,2019-08-09 23:05:10:538,-0.0747,-0.1914,9.5472,0.5194,-0.9857,9.7432,0.0308,-0.0008,-0.0028
17934,46.094063,-0.53389,113.22,35.93,3.216,168.8,Nov-16,1793411,2019-08-09 23:05:10:638,0.6358,-1.7566,10.2391,0.5161,-1.0166,9.7401,0.0226,-0.0112,-0.0057
17935,46.094063,-0.53389,113.22,35.93,3.216,168.8,Nov-16,1793510,2019-08-09 23:05:10:737,0.5843,-1.2825,9.7507,0.5094,-1.0211,9.74,-0.0222,-0.0088,0.0208
17936,46.094063,-0.53389,113.22,35.93,3.216,168.8,Nov-16,1793610,2019-08-09 23:05:10:837,0.2012,-2.3186,9.2179,0.4945,-0.9913,9.7439,-0.0184,0.002,0.0046
17937,46.094063,-0.53389,113.22,35.93,3.216,168.8,Nov-16,1793710,2019-08-09 23:05:10:937,0.3323,-0.0274,9.8321,0.4956,-1.0116,9.7417,-0.0022,-0.001,0.0049
17938,46.094063,-0.53389,113.22,35.93,3.216,168.8,Nov-16,1793810,2019-08-09 23:05:11:037,0.4658,-0.2907,9.3688,0.4928,-0.9848,9.7446,-0.001,0.0083,0.0136
17939,46.094063,-0.53389,113.22,35.93,3.216,168.8,Nov-16,1793910,2019-08-09 23:05:11:137,0.5819,-0.2614,9.8973,0.4903,-0.9962,9.7436,0.015,0.0046,-0.0033
17940,46.094063,-0.53389,113.22,35.93,3.216,168.8,Nov-16,1794010,2019-08-09 23:05:11:237,0.4628,-1.2909,9.7231,0.4956,-1.0,9.7429,-0.0161,-0.0005,0.01
17941,46.094063,-0.53389,113.22,35.93,3.216,168.8,Nov-16,1794110,2019-08-09 23:05:11:337,0.549,-2.1624,9.616,0.4939,-0.994,9.7436,0.0009,0.0019,-0.0052
17942,46.094063,-0.53389,113.22,35.93,3.216,168.8,Nov-16,1794210,2019-08-09 23:05:11:437,0.6466,-0.9539,9.935,0.5,-1.0018,9.7425,-0.0082,-0.0028,0.0021
17943,46.094063,-0.53389,113.22,35.93,3.216,168.8,Nov-16,1794310,2019-08-09 23:05:11:537,0.7477,-1.179,9.5741,0.5016,-0.9904,9.7436,0.0118,-0.0112,-0.0016
17944,46.094063,-0.53389,113.22,35.93,3.216,168.8,Nov-16,1794411,2019-08-09 23:05:11:638,0.4724,-0.578,10.2588,0.4976,-0.9934,9.7435,-0.0239,-0.0153,-0.0044
17945,46.094063,-0.53389,113.22,35.93,3.216,168.8,Nov-16,1794511,2019-08-09 23:05:11:738,0.276,-1.8458,9.5555,0.4883,-0.9984,9.7435,0.0215,0.0068,0.0204
17946,46.094063,-0.53389,113.22,35.93,3.216,168.8,13 / 17,1794610,2019-08-09 23:05:11:837,0.6376,-0.0064,9.7435,0.4981,-1.0054,9.7422,-0.0117,0.0116,0.0037
17947,46.094063,-0.53389,113.22,35.93,3.216,168.8,13 / 17,1794710,2019-08-09 23:05:11:937,0.6897,-1.2652,9.7177,0.5061,-1.0023,9.7422,0.0074,-0.0045,0.0024
17948,46.094063,-0.53389,113.22,35.93,3.216,168.8,13 / 17,1794810,2019-08-09 23:05:12:037,0.5059,-1.1221,10.1427,0.4983,-0.9901,9.7438,0.0204,0.0052,0.0198
17949,46.094063,-0.53389,113.22,35.93,3.216,168.8,13 / 17,1794910,2019-08-09 23:05:12:137,0.6525,-1.5255,10.1044,0.511,-1.0024,9.7419,-0.0139,0.0128,0.0098
17950,46.094063,-0.53389,113.22,35.93,3.216,168.8,13 / 17,1795011,2019-08-09 23:05:12:238,0.6801,-1.3472,9.8063,0.5144,-0.9937,9.7426,0.0399,-0.0008,0.0052
17951,46.094063,-0.53389,113.22,35.93,3.216,168.8,13 / 17,1795110,2019-08-09 23:05:12:337,0.2096,-0.2973,9.4562,0.5148,-0.9975,9.7422,0.0357,-0.0005,-0.0152
17952,46.094063,-0.53389,113.22,35.93,3.216,168.8,13 / 17,1795210,2019-08-09 23:05:12:437,1.0584,-0.8426,10.2139,0.519,-0.9966,9.7421,0.0201,-0.0059,-0.0208
17953,46.094063,-0.53389,113.22,35.93,3.216,168.8,13 / 17,1795310,2019-08-09 23:05:12:537,0.5376,-0.365,9.3861,0.5184,-0.979,9.7439,0.0069,0.0064,-0.0053
17954,46.094063,-0.53389,113.22,35.93,3.216,168.8,13 / 17,1795411,2019-08-09 23:05:12:638,0.8668,-1.9421,9.513,0.5277,-0.9799,9.7433,-0.0071,0.0063,-0.0245
17955,46.094063,-0.53389,113.22,35.93,3.216,168.8,13 / 17,1795511,2019-08-09 23:05:12:738,0.9297,-0.4494,9.6932,0.5459,-0.9704,9.7432,-0.0087,0.0075,-0.006
17956,46.094063,-0.53389,113.22,35.93,3.216,168.8,Nov-15,1795610,2019-08-09 23:05:12:837,0.9578,-0.7606,9.9619,0.5537,-0.9776,9.7421,0.0237,0.0116,-0.0023
17957,46.094063,-0.53389,113.22,35.93,3.216,168.8,Nov-15,1795710,2019-08-09 23:05:12:937,0.7986,-0.6439,9.6854,0.5688,-0.9849,9.7405,0.0147,0.0044,-0.0004
17958,46.094063,-0.53389,113.22,35.93,3.216,168.8,Nov-15,1795810,2019-08-09 23:05:13:037,0.8088,-1.8446,9.5256,0.5796,-0.98,9.7403,0.007,0.0098,0.0032
17959,46.094063,-0.53389,113.22,35.93,3.216,168.8,Nov-15,1795910,2019-08-09 23:05:13:137,0.7711,-1.2843,9.6495,0.5879,-0.9758,9.7403,-0.0098,-0.0076,-0.0095
17960,46.094063,-0.53389,113.22,35.93,3.216,168.8,Nov-15,1796010,2019-08-09 23:05:13:237,0.4784,-1.0922,9.3017,0.5862,-0.9634,9.7416,-0.0225,-0.0099,0.0273
17961,46.094063,-0.53389,113.22,35.93,3.216,168.8,Nov-15,1796110,2019-08-09 23:05:13:337,1.0105,-0.7073,9.7997,0.5872,-0.9683,9.741,0.0027,-0.0007,-0.0152
17962,46.094063,-0.53389,113.22,35.93,3.216,168.8,Nov-15,1796211,2019-08-09 23:05:13:438,0.968,-0.0178,9.7369,0.5777,-0.9552,9.7429,0.0025,-0.023,-0.0031
17963,46.094063,-0.53389,113.22,35.93,3.216,168.8,Nov-15,1796311,2019-08-09 23:05:13:538,0.3353,-1.076,9.692,0.5772,-0.9626,9.7422,0.0242,0.0168,-0.005
17964,46.094063,-0.53389,113.22,35.93,3.216,168.8,Nov-15,1796410,2019-08-09 23:05:13:637,0.8495,0.0744,9.9027,0.593,-0.9694,9.7406,-0.0355,0.0128,-0.0073
17965,46.094063,-0.53389,113.22,35.93,3.216,168.8,Nov-15,1796510,2019-08-09 23:05:13:737,0.9021,-1.935,9.4334,0.6082,-0.9639,9.7402,-0.0236,-0.0061,-0.0037
17966,46.094063,-0.53389,113.22,35.93,3.216,168.8,13 / 17,1796610,2019-08-09 23:05:13:837,0.7064,-0.9168,9.2413,0.6107,-0.9479,9.7416,-0.0053,0.0021,0.0039
17967,46.094063,-0.53389,113.22,35.93,3.216,168.8,13 / 17,1796710,2019-08-09 23:05:13:937,1.0793,-1.8805,10.0404,0.6154,-0.9491,9.7412,0.0015,-0.0194,-0.0207
17968,46.094063,-0.53389,113.22,35.93,3.216,168.8,13 / 17,1796810,2019-08-09 23:05:14:037,0.8381,-0.7217,9.7153,0.6102,-0.9478,9.7417,-0.004,-0.0181,0.0024
17969,46.094063,-0.53389,113.22,35.93,3.216,168.8,13 / 17,1796910,2019-08-09 23:05:14:137,0.7932,-1.6812,10.0248,0.6083,-0.955,9.7411,-0.0269,0.0102,0.0095
17970,46.094063,-0.53389,113.22,35.93,3.216,168.8,13 / 17,1797010,2019-08-09 23:05:14:237,0.6579,-0.5613,9.7034,0.6127,-0.9484,9.7414,0.0106,0.0142,-0.0087
17971,46.094063,-0.53389,113.22,35.93,3.216,168.8,13 / 17,1797110,2019-08-09 23:05:14:337,0.5544,-2.5054,9.2521,0.6199,-0.9431,9.7415,-0.0376,-0.0148,0.0072
17972,46.094063,-0.53389,113.22,35.93,3.216,168.8,13 / 17,1797210,2019-08-09 23:05:14:437,0.6478,-1.3358,9.5717,0.6153,-0.9333,9.7427,0.0159,-0.0123,-0.0012
17973,46.094063,-0.53389,113.22,35.93,3.216,168.8,13 / 17,1797311,2019-08-09 23:05:14:538,0.892,-1.2269,10.017,0.6064,-0.948,9.7419,-0.0342,-0.0117,0.0072
17974,46.094063,-0.53389,113.22,35.93,3.216,168.8,13 / 17,1797411,2019-08-09 23:05:14:638,0.5969,0.0684,9.1204,0.602,-0.9493,9.742,-0.0708,0.0069,0.0036
17975,46.094063,-0.53389,113.22,35.93,3.216,168.8,13 / 17,1797511,2019-08-09 23:05:14:738,0.5484,0.561,8.9636,0.6095,-0.9214,9.7442,0.0356,0.0046,-0.0156
17976,46.094063,-0.53389,113.22,35.93,3.216,168.8,Nov-15,1797610,2019-08-09 23:05:14:837,0.9243,-0.9174,9.8039,0.6088,-0.9271,9.7437,0.0123,-0.0057,-0.0167
17977,46.094063,-0.53389,113.22,35.93,3.216,168.8,Nov-15,1797710,2019-08-09 23:05:14:937,0.6807,-0.4278,10.1182,0.6105,-0.924,9.7439,0.0501,0.0002,-0.0097
17978,46.094063,-0.53389,113.22,35.93,3.216,168.8,Nov-15,1797811,2019-08-09 23:05:15:038,0.5286,-1.6082,9.2197,0.6091,-0.9325,9.7432,-0.0397,-0.0014,0.0048
17979,46.094063,-0.53389,113.22,35.93,3.216,168.8,Nov-15,1797910,2019-08-09 23:05:15:137,0.8542,-0.6397,9.8189,0.6039,-0.9365,9.7431,0.0064,-0.0168,0.0016
17980,46.094063,-0.53389,113.22,35.93,3.216,168.8,Nov-15,1798010,2019-08-09 23:05:15:237,0.4005,-2.239,9.9111,0.5831,-0.9298,9.745,0.0044,-0.0068,0.0218
17981,46.094063,-0.53389,113.22,35.93,3.216,168.8,Nov-15,1798111,2019-08-09 23:05:15:338,0.4395,-0.5691,9.5627,0.5715,-0.9326,9.7455,0.0358,-0.0031,-0.0011
17982,46.094063,-0.53389,113.22,35.93,3.216,168.8,Nov-15,1798210,2019-08-09 23:05:15:437,0.233,-1.1814,9.2155,0.5742,-0.9251,9.746,0.0322,0.0212,-0.0035
17983,46.094063,-0.53389,113.22,35.93,3.216,168.8,Nov-15,1798310,2019-08-09 23:05:15:537,0.0372,0.5245,9.2383,0.5875,-0.9375,9.744,-0.0621,0.0154,0.0264
17984,46.094063,-0.53389,113.22,35.93,3.216,168.8,Nov-15,1798410,2019-08-09 23:05:15:637,0.5885,-0.5685,9.8398,0.5968,-0.9148,9.7456,-0.0159,0.0095,0.0029
17985,46.094063,-0.53389,113.22,35.93,3.216,168.8,Nov-15,1798510,2019-08-09 23:05:15:737,0.8028,-0.8546,9.9967,0.5966,-0.9229,9.7449,0.0085,-0.0004,0.0007
17986,46.094063,-0.53389,113.22,35.93,3.216,168.8,13 / 16,1798610,2019-08-09 23:05:15:837,0.5167,-1.7434,9.6118,0.5989,-0.9189,9.7451,-0.0117,0.0004,0.01
17987,46.094063,-0.53389,113.22,35.93,3.216,168.8,13 / 16,1798711,2019-08-09 23:05:15:938,0.567,-1.9787,9.5735,0.5976,-0.926,9.7445,0.001,0.0029,-0.0111
17988,46.094063,-0.53389,113.22,35.93,3.216,168.8,13 / 16,1798810,2019-08-09 23:05:16:037,0.5508,-0.6624,9.7183,0.5967,-0.9219,9.745,0.0106,-0.0119,0.0116
17989,46.094063,-0.53389,113.22,35.93,3.216,168.8,13 / 16,1798911,2019-08-09 23:05:16:138,0.4299,-0.1495,9.6016,0.5881,-0.9307,9.7447,-0.0083,-0.0042,0.0164
17990,46.094063,-0.53389,113.22,35.93,3.216,168.8,13 / 16,1799010,2019-08-09 23:05:16:237,0.4604,-0.0507,9.7459,0.5781,-0.9333,9.745,-0.0308,0.0119,0.0231
17991,46.094063,-0.53389,113.22,35.93,3.216,168.8,13 / 16,1799111,2019-08-09 23:05:16:338,0.4945,-1.9469,9.8805,0.5794,-0.9197,9.7462,0.0316,0.0155,0.0023
17992,46.094063,-0.53389,113.22,35.93,3.216,168.8,13 / 16,1799210,2019-08-09 23:05:16:437,0.3832,-0.7157,9.695,0.5865,-0.914,9.7463,0.0126,-0.0042,0.0088
17993,46.094063,-0.53389,113.22,35.93,3.216,168.8,13 / 16,1799311,2019-08-09 23:05:16:538,0.364,-1.7715,9.1198,0.5826,-0.9067,9.7472,-0.0373,0.0004,0.0084
17994,46.094063,-0.53389,113.22,35.93,3.216,168.8,13 / 16,1799411,2019-08-09 23:05:16:638,0.6956,-0.4332,10.023,0.5914,-0.9172,9.7457,0.0257,0.0079,-0.0168
17995,46.094063,-0.53389,113.22,35.93,3.216,168.8,13 / 16,1799511,2019-08-09 23:05:16:738,0.5161,-1.3005,9.8291,0.5929,-0.9168,9.7457,-0.0001,-0.0013,0.0015
17996,46.094063,-0.53389,113.22,35.93,3.216,168.8,Nov-14,1799610,2019-08-09 23:05:16:837,0.3413,-0.2129,9.5651,0.5929,-0.9229,9.7451,0.0088,0.009,-0.0129
17997,46.094063,-0.53389,113.22,35.93,3.216,168.8,Nov-14,1799710,2019-08-09 23:05:16:937,0.6286,-1.7524,9.771,0.6044,-0.9134,9.7453,0.0177,0.003,0.0016
17998,46.094063,-0.53389,113.22,35.93,3.216,168.8,Nov-14,1799810,2019-08-09 23:05:17:037,0.7836,-0.8294,9.7297,0.6014,-0.9048,9.7463,-0.0213,-0.0036,0.0058
17999,46.094063,-0.53389,113.22,35.93,3.216,168.8,Nov-14,1799910,2019-08-09 23:05:17:137,0.3724,-0.8145,9.4107,0.6062,-0.8991,9.7465,-0.0194,0.0042,-0.0045
18000,46.094063,-0.53389,113.22,35.93,3.216,168.8,Nov-14,1800011,2019-08-09 23:05:17:238,0.8189,-0.4051,9.3634,0.6135,-0.884,9.7474,0.0034,-0.0029,-0.0015
18001,46.094063,-0.53389,113.22,35.93,3.216,168.8,Nov-14,1800110,2019-08-09 23:05:17:337,0.8028,-0.1986,9.7734,0.611,-0.8874,9.7473,0.0056,-0.0081,-0.005
18002,46.094063,-0.53389,113.22,35.93,3.216,168.8,Nov-14,1800210,2019-08-09 23:05:17:437,0.7178,-0.8354,9.7692,0.6,-0.8884,9.7479,0.0227,-0.0107,-0.0153
18003,46.094063,-0.53389,113.22,35.93,3.216,168.8,Nov-14,1800310,2019-08-09 23:05:17:537,0.7375,-1.1107,10.1553,0.6004,-0.8988,9.7469,-0.0057,-0.0099,-0.0181
18004,46.094063,-0.53389,113.22,35.93,3.216,168.8,Nov-14,1800410,2019-08-09 23:05:17:637,0.7465,-1.4411,9.4669,0.6029,-0.9025,9.7464,0.0206,0.0189,-0.0081
18005,46.094063,-0.53389,113.22,35.93,3.216,168.8,Nov-14,1800510,2019-08-09 23:05:17:737,0.7363,0.0965,9.6998,0.6141,-0.8981,9.7461,-0.0324,0.0074,-0.0166
18006,46.094063,-0.53389,113.22,35.93,3.216,168.8,14 / 17,1800611,2019-08-09 23:05:17:838,0.8064,-0.9156,9.8231,0.6296,-0.8927,9.7456,-0.0361,0.0031,0.0071
18007,46.094063,-0.53389,113.22,35.93,3.216,168.8,14 / 17,1800711,2019-08-09 23:05:17:938,0.6663,-0.2704,9.1048,0.634,-0.8765,9.7468,-0.0145,0.0125,-0.0013
18008,46.094063,-0.53389,113.22,35.93,3.216,168.8,14 / 17,1800810,2019-08-09 23:05:18:037,0.8159,-1.161,9.762,0.6503,-0.8837,9.7451,-0.0093,0.0,0.0106
18009,46.094063,-0.53389,113.22,35.93,3.216,168.8,14 / 17,1800911,2019-08-09 23:05:18:138,0.8537,-0.9025,10.002,0.6447,-0.8869,9.7452,0.0135,-0.016,-0.0072
18010,46.094063,-0.53389,113.22,35.93,3.216,168.8,14 / 17,1801010,2019-08-09 23:05:18:237,0.8046,-0.0723,9.9087,0.641,-0.8986,9.7443,0.0139,0.0023,-0.0048
18011,46.094063,-0.53389,113.22,35.93,3.216,168.8,14 / 17,1801110,2019-08-09 23:05:18:337,0.7268,-0.1908,10.1571,0.6427,-0.9119,9.743,0.0362,0.0008,0.0022
18012,46.094063,-0.53389,113.22,35.93,3.216,168.8,14 / 17,1801210,2019-08-09 23:05:18:437,0.6208,-0.7235,9.7291,0.6406,-0.8991,9.7443,0.015,-0.0088,-0.0099
18013,46.094063,-0.53389,113.22,35.93,3.216,168.8,14 / 17,1801310,2019-08-09 23:05:18:537,0.6657,-1.7015,9.7255,0.6371,-0.9015,9.7443,-0.021,0.0137,-0.0027
18014,46.094063,-0.53389,113.22,35.93,3.216,168.8,14 / 17,1801410,2019-08-09 23:05:18:637,0.6154,-1.9679,9.3472,0.6436,-0.89,9.745,-0.0276,0.0202,0.0299
18015,46.094063,-0.53389,113.22,35.93,3.216,168.8,14 / 17,1801510,2019-08-09 23:05:18:737,0.7908,-0.9168,9.4633,0.659,-0.8689,9.7458,-0.0253,-0.0148,-0.0165
18016,46.09119,-0.53303,114.89,36.34,3.216,168.4,14 / 16,1801610,2019-08-09 23:05:18:837,0.5197,-0.8211,9.6369,0.652,-0.8489,9.7481,0.0113,-0.0154,0.0003
18017,46.09119,-0.53303,114.89,36.34,3.216,168.4,14 / 16,1801711,2019-08-09 23:05:18:938,0.5095,-0.7025,10.02,0.6382,-0.8615,9.7479,-0.0153,-0.01,0.0078
18018,46.09119,-0.53303,114.89,36.34,3.216,168.4,14 / 16,1801810,2019-08-09 23:05:19:037,0.3688,-1.0473,9.7944,0.6265,-0.8478,9.7498,0.0168,0.0001,0.0095
18019,46.09119,-0.53303,114.89,36.34,3.216,168.4,14 / 16,1801911,2019-08-09 23:05:19:138,0.388,-0.2937,9.9751,0.6158,-0.8575,9.7497,0.027,-0.0112,0.0112
18020,46.09119,-0.53303,114.89,36.34,3.216,168.4,14 / 16,1802011,2019-08-09 23:05:19:238,0.5843,-0.6618,9.6633,0.6051,-0.8482,9.7511,-0.0131,-0.0122,0.0047
18021,46.09119,-0.53303,114.89,36.34,3.216,168.4,14 / 16,1802110,2019-08-09 23:05:19:337,0.3,-0.9617,9.8907,0.5938,-0.8593,9.7509,0.0168,0.0071,0.0182
18022,46.09119,-0.53303,114.89,36.34,3.216,168.4,14 / 16,1802210,2019-08-09 23:05:19:437,0.2294,-1.3268,9.9685,0.5909,-0.8498,9.7519,0.0023,-0.0042,0.0039
18023,46.09119,-0.53303,114.89,36.34,3.216,168.4,14 / 16,1802310,2019-08-09 23:05:19:537,0.2898,-0.0848,9.5585,0.5857,-0.8553,9.7517,-0.015,-0.0012,0.0078
18024,46.09119,-0.53303,114.89,36.34,3.216,168.4,14 / 16,1802410,2019-08-09 23:05:19:637,0.3425,-0.6822,9.7614,0.5842,-0.8419,9.753,0.0103,0.0108,0.004
18025,46.09119,-0.53303,114.89,36.34,3.216,168.4,14 / 16,1802510,2019-08-09 23:05:19:737,0.7166,-0.1082,9.7321,0.591,-0.8396,9.7527,-0.0153,0.0056,-0.0108
18026,46.09119,-0.53303,114.89,36.34,3.216,168.4,13 / 16,1802610,2019-08-09 23:05:19:837,0.3694,-0.3237,9.2982,0.5947,-0.8155,9.7546,-0.0082,0.0044,0.0094
18027,46.09119,-0.53303,114.89,36.34,3.216,168.4,13 / 16,1802710,2019-08-09 23:05:19:937,0.8555,-1.1784,9.7309,0.5966,-0.8239,9.7538,-0.0159,0.0012,-0.0016
18028,46.09119,-0.53303,114.89,36.34,3.216,168.4,13 / 16,1802810,2019-08-09 23:05:20:037,0.4502,-0.7947,9.7632,0.5941,-0.8143,9.7547,0.0132,-0.004,0.0116
18029,46.09119,-0.53303,114.89,36.34,3.216,168.4,13 / 16,1802911,2019-08-09 23:05:20:138,0.6023,-0.6852,9.5579,0.5884,-0.8319,9.7536,0.0291,-0.0044,-0.0139
18030,46.09119,-0.53303,114.89,36.34,3.216,168.4,13 / 16,1803011,2019-08-09 23:05:20:238,0.7316,-0.1435,9.7261,0.5921,-0.8234,9.7541,0.0034,0.0091,-0.0143
18031,46.09119,-0.53303,114.89,36.34,3.216,168.4,13 / 16,1803113,2019-08-09 23:05:20:340,0.8453,-0.9629,9.7243,0.6083,-0.8254,9.7529,0.0079,0.0133,-0.0063
18032,46.09119,-0.53303,114.89,36.34,3.216,168.4,13 / 16,1803211,2019-08-09 23:05:20:438,0.7501,-1.0892,9.7082,0.6191,-0.824,9.7523,-0.002,0.0097,-0.024
18033,46.09119,-0.53303,114.89,36.34,3.216,168.4,13 / 16,1803311,2019-08-09 23:05:20:538,0.777,-1.1024,9.4831,0.6469,-0.8118,9.7516,0.0042,0.0142,-0.0062
18034,46.09119,-0.53303,114.89,36.34,3.216,168.4,13 / 16,1803411,2019-08-09 23:05:20:638,0.9087,-0.3811,9.4478,0.6593,-0.8095,9.7509,-0.0261,0.01,-0.0063
18035,46.09119,-0.53303,114.89,36.34,3.216,168.4,13 / 16,1803510,2019-08-09 23:05:20:737,0.7896,0.1552,9.5837,0.6689,-0.7783,9.7528,-0.0255,-0.0043,0.0031
18036,46.09119,-0.53303,114.89,36.34,3.216,168.4,14 / 17,1803610,2019-08-09 23:05:20:837,0.6813,0.4054,9.458,0.6709,-0.7735,9.7531,0.0149,-0.0008,-0.008
18037,46.09119,-0.53303,114.89,36.34,3.216,168.4,14 / 17,1803710,2019-08-09 23:05:20:937,1.0033,-0.7373,9.7674,0.6668,-0.7709,9.7535,-0.0026,-0.0153,0.0023
18038,46.09119,-0.53303,114.89,36.34,3.216,168.4,14 / 17,1803810,2019-08-09 23:05:21:037,0.6902,-0.8995,9.9583,0.6634,-0.767,9.7541,-0.0106,-0.007,-0.0063
18039,46.09119,-0.53303,114.89,36.34,3.216,168.4,14 / 17,1803910,2019-08-09 23:05:21:137,0.8267,-0.921,9.4969,0.6732,-0.7477,9.7549,0.0133,0.0069,-0.0099
18040,46.09119,-0.53303,114.89,36.34,3.216,168.4,14 / 17,1804011,2019-08-09 23:05:21:238,1.041,-0.5762,9.5968,0.6764,-0.7413,9.7552,-0.0126,-0.0092,-0.0217
18041,46.09119,-0.53303,114.89,36.34,3.216,168.4,14 / 17,1804110,2019-08-09 23:05:21:337,0.6549,-0.0405,9.9667,0.67,-0.746,9.7553,0.006,-0.0041,-0.0002
18042,46.09119,-0.53303,114.89,36.34,3.216,168.4,14 / 17,1804211,2019-08-09 23:05:21:438,0.6184,-0.5385,9.373,0.672,-0.7402,9.7556,-0.0168,0.0035,-0.002
18043,46.09119,-0.53303,114.89,36.34,3.216,168.4,14 / 17,1804310,2019-08-09 23:05:21:537,0.7794,0.0014,9.9643,0.674,-0.7446,9.7551,0.0189,-0.0094,-0.0051
18044,46.09119,-0.53303,114.89,36.34,3.216,168.4,14 / 17,1804411,2019-08-09 23:05:21:638,0.6675,-1.0982,9.8728,0.6682,-0.7351,9.7562,-0.0068,0.0012,-0.0074
18045,46.09119,-0.53303,114.89,36.34,3.216,168.4,14 / 17,1804510,2019-08-09 23:05:21:737,0.6837,-0.9324,9.5047,0.6674,-0.7325,9.7565,0.0012,0.0118,0.0057
18046,46.09119,-0.53303,114.89,36.34,3.216,168.4,14 / 17,1804610,2019-08-09 23:05:21:837,0.6915,-1.3131,9.8943,0.6784,-0.7313,9.7558,0.0213,-0.0045,0.0
18047,46.09119,-0.53303,114.89,36.34,3.216,168.4,14 / 17,1804710,2019-08-09 23:05:21:937,0.2982,-1.0593,9.6525,0.6734,-0.7412,9.7554,-0.0039,0.0003,-0.0116
18048,46.09119,-0.53303,114.89,36.34,3.216,168.4,14 / 17,1804810,2019-08-09 23:05:22:037,0.7058,0.0959,9.7908,0.6718,-0.7355,9.7559,0.0213,0.0035,-0.0015
18049,46.09119,-0.53303,114.89,36.34,3.216,168.4,14 / 17,1804910,2019-08-09 23:05:22:137,0.5783,-1.1281,9.3544,0.6723,-0.7401,9.7555,-0.029,-0.0027,0.017
18050,46.09119,-0.53303,114.89,36.34,3.216,168.4,14 / 17,1805010,2019-08-09 23:05:22:237,0.3718,-0.4727,9.6309,0.6676,-0.7272,9.7568,0.0195,0.0091,0.005
18051,46.09119,-0.53303,114.89,36.34,3.216,168.4,14 / 17,1805110,2019-08-09 23:05:22:337,0.9123,-0.2931,9.4801,0.6688,-0.734,9.7562,-0.0172,-0.0128,-0.0247
18052,46.09119,-0.53303,114.89,36.34,3.216,168.4,14 / 17,1805211,2019-08-09 23:05:22:438,0.6777,-0.4278,9.455,0.6632,-0.7168,9.7579,-0.0025,-0.0017,0.0025
18053,46.09119,-0.53303,114.89,36.34,3.216,168.4,14 / 17,1805310,2019-08-09 23:05:22:537,0.8896,-1.1832,9.8871,0.6574,-0.7293,9.7574,0.0193,-0.0085,0.0078
18054,46.09119,-0.53303,114.89,36.34,3.216,168.4,14 / 17,1805410,2019-08-09 23:05:22:637,0.631,-1.1987,9.8249,0.6453,-0.7359,9.7577,0.0065,-0.0167,0.0025
18055,46.09119,-0.53303,114.89,36.34,3.216,168.4,14 / 17,1805510,2019-08-09 23:05:22:737,0.4981,-0.8953,9.3173,0.6416,-0.7351,9.758,0.0155,0.0074,0.0072
18056,46.09119,-0.53303,114.89,36.34,3.216,168.4,14 / 17,1805610,2019-08-09 23:05:22:837,0.8046,-0.2806,10.0541,0.6404,-0.7542,9.7566,0.0039,0.0022,-0.0168
18057,46.09119,-0.53303,114.89,36.34,3.216,168.4,14 / 17,1805710,2019-08-09 23:05:22:937,0.3503,0.0139,9.5298,0.6465,-0.7394,9.7573,-0.0198,0.0096,0.0183
18058,46.09119,-0.53303,114.89,36.34,3.216,168.4,14 / 17,1805810,2019-08-09 23:05:23:037,0.7262,-0.4302,9.4322,0.6492,-0.7345,9.7575,0.0042,-0.0007,-0.0167
18059,46.09119,-0.53303,114.89,36.34,3.216,168.4,14 / 17,1805910,2019-08-09 23:05:23:137,0.7848,-0.6636,9.5274,0.653,-0.7334,9.7574,0.0128,-0.0033,0.0033
18060,46.09119,-0.53303,114.89,36.34,3.216,168.4,14 / 17,1806010,2019-08-09 23:05:23:237,0.5646,-1.0036,10.0134,0.6487,-0.7296,9.7579,-0.0148,0.0005,0.0
18061,46.09119,-0.53303,114.89,36.34,3.216,168.4,14 / 17,1806110,2019-08-09 23:05:23:337,0.5705,-1.2328,9.9506,0.6534,-0.732,9.7574,-0.0068,0.0022,-0.0181
18062,46.09119,-0.53303,114.89,36.34,3.216,168.4,14 / 17,1806211,2019-08-09 23:05:23:438,0.4197,-0.9234,9.7441,0.6549,-0.7397,9.7568,0.0112,0.0056,0.0
18063,46.09119,-0.53303,114.89,36.34,3.216,168.4,14 / 17,1806310,2019-08-09 23:05:23:537,0.9315,-0.344,9.3532,0.6585,-0.732,9.7571,-0.0104,0.0091,0.006
18064,46.09119,-0.53303,114.89,36.34,3.216,168.4,14 / 17,1806410,2019-08-09 23:05:23:637,0.634,-1.0222,9.5711,0.6719,-0.7254,9.7567,-0.0095,0.005,-0.0023
18065,46.09119,-0.53303,114.89,36.34,3.216,168.4,14 / 17,1806511,2019-08-09 23:05:23:738,0.7052,-0.8348,9.7243,0.6692,-0.7299,9.7565,0.0013,0.0011,-0.0002
18066,46.09119,-0.53303,114.89,36.34,3.216,168.4,14 / 17,1806610,2019-08-09 23:05:23:837,0.7561,-0.6882,9.7321,0.6754,-0.7311,9.756,0.0029,-0.0006,-0.0054
18067,46.09119,-0.53303,114.89,36.34,3.216,168.4,14 / 17,1806710,2019-08-09 23:05:23:937,0.6645,-0.7564,9.841,0.6814,-0.7246,9.7561,0.0093,0.0063,0.0017
18068,46.09119,-0.53303,114.89,36.34,3.216,168.4,14 / 17,1806810,2019-08-09 23:05:24:037,0.5795,-0.5427,9.6339,0.6837,-0.7358,9.7551,0.0144,0.0056,-0.004
18069,46.09119,-0.53303,114.89,36.34,3.216,168.4,14 / 17,1806910,2019-08-09 23:05:24:137,0.8237,-0.7283,9.6651,0.6858,-0.7375,9.7548,0.0088,0.0044,-0.0103
18070,46.09119,-0.53303,114.89,36.34,3.216,168.4,14 / 17,1807010,2019-08-09 23:05:24:237,1.0452,-0.0806,9.6567,0.7064,-0.7449,9.7528,0.0,0.0101,-0.0099
18071,46.09119,-0.53303,114.89,36.34,3.216,168.4,14 / 17,1807111,2019-08-09 23:05:24:338,0.7866,-0.3907,9.5418,0.7194,-0.7355,9.7525,-0.0049,0.0185,-0.0105
18072,46.09119,-0.53303,114.89,36.34,3.216,168.4,14 / 17,1807210,2019-08-09 23:05:24:437,1.0362,-1.4142,9.6387,0.7355,-0.7433,9.7507,0.0098,0.0008,-0.0074
18073,46.09119,-0.53303,114.89,36.34,3.216,168.4,14 / 17,1807310,2019-08-09 23:05:24:537,0.9315,-1.6285,9.543,0.7391,-0.7408,9.7507,0.0124,0.0043,-0.017
18074,46.09119,-0.53303,114.89,36.34,3.216,168.4,14 / 17,1807410,2019-08-09 23:05:24:637,0.9752,-1.0724,9.6938,0.7511,-0.7543,9.7487,0.0005,0.0065,-0.0096
18075,46.09119,-0.53303,114.89,36.34,3.216,168.4,14 / 17,1807511,2019-08-09 23:05:24:738,0.868,-0.2464,9.5418,0.7542,-0.7475,9.749,-0.0199,-0.0015,0.0069
18076,46.09119,-0.53303,114.89,36.34,3.216,168.4,14 / 17,1807610,2019-08-09 23:05:24:837,0.8453,-0.4948,9.2287,0.7553,-0.7277,9.7504,-0.024,-0.0037,-0.0059
18077,46.09119,-0.53303,114.89,36.34,3.216,168.4,14 / 17,1807710,2019-08-09 23:05:24:937,0.9542,-0.5158,9.5645,0.7562,-0.7373,9.7496,0.0046,-0.0072,-0.0129
18078,46.09119,-0.53303,114.89,36.34,3.216,168.4,14 / 17,1807810,2019-08-09 23:05:25:037,1.0703,-0.8163,9.5388,0.7528,-0.7354,9.75,-0.0051,-0.0041,-0.0067
18079,46.09119,-0.53303,114.89,36.34,3.216,168.4,14 / 17,1807910,2019-08-09 23:05:25:137,0.8686,-1.073,9.507,0.753,-0.7301,9.7504,-0.0053,-0.0047,0.0051
18080,46.09119,-0.53303,114.89,36.34,3.216,168.4,14 / 17,1808010,2019-08-09 23:05:25:237,0.7184,-1.1754,9.9566,0.7497,-0.7406,9.7499,0.002,0.0019,-0.0074
18081,46.09119,-0.53303,114.89,36.34,3.216,168.4,14 / 17,1808111,2019-08-09 23:05:25:338,1.0745,-1.349,9.7902,0.7573,-0.7368,9.7496,-0.0151,-0.0015,-0.004
18082,46.09119,-0.53303,114.89,36.34,3.216,168.4,14 / 17,1808210,2019-08-09 23:05:25:437,0.9704,-0.1166,9.8195,0.7601,-0.7307,9.7498,0.0022,-0.0013,-0.0131
18083,46.09119,-0.53303,114.89,36.34,3.216,168.4,14 / 17,1808310,2019-08-09 23:05:25:537,1.2283,-0.7426,9.8015,0.7626,-0.7501,9.7481,-0.0186,-0.0007,0.0027
18084,46.09119,-0.53303,114.89,36.34,3.216,168.4,14 / 17,1808411,2019-08-09 23:05:25:638,0.8608,0.0636,9.595,0.7639,-0.7459,9.7484,0.0096,0.0041,-0.0123
18085,46.09119,-0.53303,114.89,36.34,3.216,168.4,14 / 17,1808510,2019-08-09 23:05:25:737,1.1254,-0.9043,9.8943,0.7871,-0.7422,9.7468,-0.0113,0.0086,-0.008
18086,46.09119,-0.53303,114.89,36.34,3.216,168.4,Dec-15,1808610,2019-08-09 23:05:25:837,1.0141,-0.9396,9.9685,0.792,-0.7413,9.7465,-0.005,-0.0038,0.0032
18087,46.09119,-0.53303,114.89,36.34,3.216,168.4,Dec-15,1808711,2019-08-09 23:05:25:938,0.9548,-1.1203,9.5944,0.79,-0.7496,9.746,0.0001,-0.0006,-0.0028
18088,46.09119,-0.53303,114.89,36.34,3.216,168.4,Dec-15,1808811,2019-08-09 23:05:26:038,0.9213,-1.2119,9.2515,0.7957,-0.7279,9.7472,-0.0175,0.007,-0.0054
18089,46.09119,-0.53303,114.89,36.34,3.216,168.4,Dec-15,1808910,2019-08-09 23:05:26:137,0.9883,-0.4356,9.9404,0.8069,-0.7343,9.7458,0.0179,0.0079,-0.0128
18090,46.09119,-0.53303,114.89,36.34,3.216,168.4,Dec-15,1809010,2019-08-09 23:05:26:237,0.7926,-0.4595,9.4262,0.8094,-0.7283,9.746,-0.0257,0.0029,0.0042
18091,46.09119,-0.53303,114.89,36.34,3.216,168.4,Dec-15,1809111,2019-08-09 23:05:26:338,0.8351,0.139,9.4065,0.8114,-0.7239,9.7462,-0.0103,-0.0004,-0.0031
18092,46.09119,-0.53303,114.89,36.34,3.216,168.4,Dec-15,1809211,2019-08-09 23:05:26:438,0.6418,-1.1969,9.528,0.8119,-0.7338,9.7454,0.0,-0.0019,-0.0081
18093,46.09119,-0.53303,114.89,36.34,3.216,168.4,Dec-15,1809310,2019-08-09 23:05:26:537,0.9572,-0.86,9.7531,0.8105,-0.7224,9.7464,-0.0202,-0.0037,0.0057
18094,46.09119,-0.53303,114.89,36.34,3.216,168.4,Dec-15,1809410,2019-08-09 23:05:26:637,0.64,-0.9743,9.5998,0.8083,-0.7232,9.7465,-0.0117,0.0079,0.001
18095,46.09119,-0.53303,114.89,36.34,3.216,168.4,Dec-15,1809510,2019-08-09 23:05:26:737,0.9339,-1.1922,9.9985,0.8116,-0.7368,9.7452,-0.0077,-0.0122,0.006
18096,46.09119,-0.53303,114.89,36.34,3.216,168.4,Dec-15,1809610,2019-08-09 23:05:26:837,0.9704,-0.7492,9.8063,0.8031,-0.7323,9.7462,-0.0058,-0.0076,-0.0036
18097,46.09119,-0.53303,114.89,36.34,3.216,168.4,Dec-15,1809710,2019-08-09 23:05:26:937,0.8542,-0.991,9.5867,0.7998,-0.7232,9.7472,-0.0136,-0.0026,-0.0031
18098,46.09119,-0.53303,114.89,36.34,3.216,168.4,Dec-15,1809811,2019-08-09 23:05:27:038,0.6831,-0.1064,9.959,0.7968,-0.7241,9.7474,0.0073,0.0006,0.0079
18099,46.09119,-0.53303,114.89,36.34,3.216,168.4,Dec-15,1809911,2019-08-09 23:05:27:138,0.7824,-0.6684,9.5364,0.7929,-0.7293,9.7473,0.0102,-0.0026,-0.0136
18100,46.09119,-0.53303,114.89,36.34,3.216,168.4,Dec-15,1810011,2019-08-09 23:05:27:238,0.8944,-1.0946,9.8404,0.7954,-0.732,9.7469,0.0069,-0.0022,-0.019
18101,46.09119,-0.53303,114.89,36.34,3.216,168.4,Dec-15,1810110,2019-08-09 23:05:27:337,0.8459,-1.5058,9.9182,0.7969,-0.7326,9.7467,0.0086,-0.0003,-0.0127
18102,46.09119,-0.53303,114.89,36.34,3.216,168.4,Dec-15,1810211,2019-08-09 23:05:27:438,1.0081,-2.0463,9.7022,0.7941,-0.7351,9.7468,-0.0082,0.0017,0.0047
18103,46.09119,-0.53303,114.89,36.34,3.216,168.4,Dec-15,1810310,2019-08-09 23:05:27:537,0.8602,-0.6912,9.5005,0.8029,-0.7289,9.7465,-0.0031,0.0083,-0.0058
18104,46.09119,-0.53303,114.89,36.34,3.216,168.4,Dec-15,1810410,2019-08-09 23:05:27:637,1.05,-1.5244,9.6471,0.8086,-0.7318,9.7458,-0.019,-0.0008,0.0089
18105,46.09119,-0.53303,114.89,36.34,3.216,168.4,Dec-15,1810510,2019-08-09 23:05:27:737,0.8118,0.2575,9.7566,0.8045,-0.7229,9.7468,-0.0067,-0.0095,-0.0151
18106,46.08835,-0.532213,113.9,35.57,3.216,169.9,Dec-14,1810611,2019-08-09 23:05:27:838,0.6699,-0.924,9.6196,0.8048,-0.7317,9.7461,-0.0007,0.0006,0.0142
18107,46.08835,-0.532213,113.9,35.57,3.216,169.9,Dec-14,1810711,2019-08-09 23:05:27:938,0.8866,0.2342,10.2163,0.8032,-0.7334,9.7461,0.041,-0.0035,-0.0241
18108,46.08835,-0.532213,113.9,35.57,3.216,169.9,Dec-14,1810810,2019-08-09 23:05:28:037,0.9285,-0.6205,9.8793,0.8026,-0.7326,9.7463,0.0022,-0.0081,-0.0226
18109,46.08835,-0.532213,113.9,35.57,3.216,169.9,Dec-14,1810911,2019-08-09 23:05:28:138,0.871,-1.1712,9.531,0.8039,-0.7236,9.7468,0.0186,0.009,-0.0196
18110,46.08835,-0.532213,113.9,35.57,3.216,169.9,Dec-14,1811010,2019-08-09 23:05:28:237,1.2194,-0.7001,9.4083,0.8184,-0.7275,9.7453,-0.0112,0.0106,-0.0011
18111,46.08835,-0.532213,113.9,35.57,3.216,169.9,Dec-14,1811111,2019-08-09 23:05:28:338,0.9422,-0.9007,9.7483,0.8266,-0.7234,9.7449,0.0102,-0.0071,-0.023
18112,46.08835,-0.532213,113.9,35.57,3.216,169.9,Dec-14,1811211,2019-08-09 23:05:28:438,0.9273,-0.2955,9.7058,0.8288,-0.7199,9.745,-0.012,0.0071,-0.0006
18113,46.08835,-0.532213,113.9,35.57,3.216,169.9,Dec-14,1811310,2019-08-09 23:05:28:537,1.0201,-0.7869,9.7902,0.8353,-0.7109,9.7451,-0.009,-0.0022,-0.0028
18114,46.08835,-0.532213,113.9,35.57,3.216,169.9,Dec-14,1811411,2019-08-09 23:05:28:638,0.9752,-1.0581,9.7369,0.8364,-0.7228,9.7441,0.0002,-0.0001,0.0027
18115,46.08835,-0.532213,113.9,35.57,3.216,169.9,Dec-14,1811511,2019-08-09 23:05:28:738,0.9255,-1.1778,9.4364,0.8363,-0.7211,9.7443,-0.0062,-0.0003,-0.012
18116,46.08835,-0.532213,113.9,35.57,3.216,169.9,13 / 16,1811611,2019-08-09 23:05:28:838,0.8447,-0.8989,9.586,0.844,-0.7091,9.7445,-0.0122,0.0018,-0.0021
18117,46.08835,-0.532213,113.9,35.57,3.216,169.9,13 / 16,1811711,2019-08-09 23:05:28:938,0.7519,-0.7785,9.7219,0.8464,-0.7157,9.7438,0.0013,0.0053,-0.0011
18118,46.08835,-0.532213,113.9,35.57,3.216,169.9,13 / 16,1811810,2019-08-09 23:05:29:037,0.7549,-0.8953,9.3604,0.8463,-0.7166,9.7438,-0.005,-0.0008,-0.0122
18119,46.08835,-0.532213,113.9,35.57,3.216,169.9,13 / 16,1811910,2019-08-09 23:05:29:137,0.9572,-0.5834,9.5878,0.8462,-0.7246,9.7432,-0.018,-0.005,-0.01
18120,46.08835,-0.532213,113.9,35.57,3.216,169.9,13 / 16,1812010,2019-08-09 23:05:29:237,0.558,-0.827,9.3742,0.8506,-0.7111,9.7438,0.0002,0.0041,-0.0012
18121,46.08835,-0.532213,113.9,35.57,3.216,169.9,13 / 16,1812110,2019-08-09 23:05:29:337,1.0673,-0.5074,9.9518,0.8518,-0.7185,9.7431,-0.0092,0.0029,-0.0016
18122,46.08835,-0.532213,113.9,35.57,3.216,169.9,13 / 16,1812210,2019-08-09 23:05:29:437,0.7585,-1.2766,9.6082,0.8524,-0.7265,9.7425,0.0063,0.0025,0.0002
18123,46.08835,-0.532213,113.9,35.57,3.216,169.9,13 / 16,1812310,2019-08-09 23:05:29:537,1.0344,-1.4435,9.8458,0.857,-0.731,9.7417,0.0159,0.0023,-0.0173
18124,46.08835,-0.532213,113.9,35.57,3.216,169.9,13 / 16,1812410,2019-08-09 23:05:29:637,1.047,-1.9098,9.8428,0.8522,-0.7415,9.7414,0.0094,-0.012,-0.0141
18125,46.08835,-0.532213,113.9,35.57,3.216,169.9,13 / 16,1812510,2019-08-09 23:05:29:737,0.5328,-0.8564,9.1886,0.845,-0.7358,9.7424,-0.0236,-0.0039,0.0109
18126,46.08835,-0.532213,113.9,35.57,3.216,169.9,14 / 17,1812610,2019-08-09 23:05:29:837,0.8812,-0.2656,9.5513,0.8377,-0.7313,9.7434,0.0083,-0.004,-0.0128
18127,46.08835,-0.532213,113.9,35.57,3.216,169.9,14 / 17,1812710,2019-08-09 23:05:29:937,0.7483,-1.0036,10.0026,0.8321,-0.7416,9.7431,0.0105,-0.0077,-0.0079
18128,46.08835,-0.532213,113.9,35.57,3.216,169.9,14 / 17,1812811,2019-08-09 23:05:30:038,0.7417,-0.1782,9.8548,0.8322,-0.7506,9.7424,-0.0282,-0.0004,-0.0172
18129,46.08835,-0.532213,113.9,35.57,3.216,169.9,14 / 17,1812910,2019-08-09 23:05:30:137,0.938,-1.1922,9.6663,0.8305,-0.7453,9.743,0.0241,0.0002,0.0051
18130,46.08835,-0.532213,113.9,35.57,3.216,169.9,14 / 17,1813010,2019-08-09 23:05:30:237,0.7471,-1.0287,9.6351,0.8233,-0.7687,9.7417,0.0155,-0.003,-0.0153
18131,46.08835,-0.532213,113.9,35.57,3.216,169.9,14 / 17,1813111,2019-08-09 23:05:30:338,0.7693,-1.8649,9.5651,0.8242,-0.7678,9.7417,-0.0052,0.0017,-0.0065
18132,46.08835,-0.532213,113.9,35.57,3.216,169.9,14 / 17,1813211,2019-08-09 23:05:30:438,0.8052,-1.85,9.2191,0.831,-0.7621,9.7416,0.0057,0.0006,-0.0127
18133,46.08835,-0.532213,113.9,35.57,3.216,169.9,14 / 17,1813310,2019-08-09 23:05:30:537,0.9045,-0.0597,9.4274,0.8282,-0.762,9.7419,-0.0029,-0.0085,-0.0026
18134,46.08835,-0.532213,113.9,35.57,3.216,169.9,14 / 17,1813410,2019-08-09 23:05:30:637,0.9913,-0.7055,9.5442,0.8162,-0.7504,9.7438,0.05,-0.01,-0.0319
18135,46.08835,-0.532213,113.9,35.57,3.216,169.9,14 / 17,1813511,2019-08-09 23:05:30:738,1.1691,-0.6313,10.4372,0.8165,-0.779,9.7415,0.0068,-0.0134,-0.0076
18136,46.08835,-0.532213,113.9,35.57,3.216,169.9,14 / 17,1813611,2019-08-09 23:05:30:838,0.3108,-2.1552,9.4657,0.8063,-0.769,9.7431,-0.0122,0.0096,-0.0227
18137,46.08835,-0.532213,113.9,35.57,3.216,169.9,14 / 17,1813711,2019-08-09 23:05:30:938,0.9788,-1.0389,9.6148,0.8188,-0.776,9.7416,0.0152,0.0194,-0.0014
18138,46.08835,-0.532213,113.9,35.57,3.216,169.9,14 / 17,1813811,2019-08-09 23:05:31:038,0.8046,-1.3448,9.6537,0.8171,-0.7699,9.7422,0.0108,-0.0123,-0.0055
18139,46.08835,-0.532213,113.9,35.57,3.216,169.9,14 / 17,1813910,2019-08-09 23:05:31:137,0.8076,-1.0162,9.4855,0.8054,-0.7778,9.7425,-0.0111,-0.011,-0.0096
18140,46.08835,-0.532213,113.9,35.57,3.216,169.9,14 / 17,1814010,2019-08-09 23:05:31:237,0.6124,-1.3669,9.1641,0.8028,-0.7678,9.7435,-0.0403,0.0023,0.0115
18141,46.08835,-0.532213,113.9,35.57,3.216,169.9,14 / 17,1814110,2019-08-09 23:05:31:337,0.9039,-0.6098,9.5729,0.8053,-0.7731,9.7429,0.0095,0.0024,-0.0129
18142,46.08835,-0.532213,113.9,35.57,3.216,169.9,14 / 17,1814210,2019-08-09 23:05:31:437,0.7579,-0.2602,9.9835,0.809,-0.7735,9.7426,-0.0164,0.006,-0.0118
18143,46.08835,-0.532213,113.9,35.57,3.216,169.9,14 / 17,1814310,2019-08-09 23:05:31:537,0.8782,-1.337,9.4753,0.8151,-0.7689,9.7424,-0.0095,0.0046,-0.0107
18144,46.08835,-0.532213,113.9,35.57,3.216,169.9,14 / 17,1814410,2019-08-09 23:05:31:637,0.938,-0.6193,9.6411,0.8227,-0.7695,9.7417,0.0119,-0.0049,-0.0191
18145,46.08835,-0.532213,113.9,35.57,3.216,169.9,14 / 17,1814511,2019-08-09 23:05:31:738,1.1547,-1.1826,9.9979,0.8198,-0.7779,9.7413,0.0113,-0.0029,0.0016
18146,46.08835,-0.532213,113.9,35.57,3.216,169.9,13 / 17,1814610,2019-08-09 23:05:31:837,0.795,-1.0066,9.4065,0.8193,-0.7708,9.7419,0.0033,0.0079,-0.0111
18147,46.08835,-0.532213,113.9,35.57,3.216,169.9,13 / 17,1814710,2019-08-09 23:05:31:937,1.0368,-0.3279,9.8494,0.8296,-0.7745,9.7407,-0.0041,0.0008,-0.0023
18148,46.08835,-0.532213,113.9,35.57,3.216,169.9,13 / 17,1814811,2019-08-09 23:05:32:038,0.7076,-0.8205,9.4867,0.8296,-0.7809,9.7402,0.0139,0.006,-0.0052
18149,46.08835,-0.532213,113.9,35.57,3.216,169.9,13 / 17,1814911,2019-08-09 23:05:32:138,0.965,-0.7007,9.6022,0.837,-0.7711,9.7404,-0.0033,0.0068,-0.0324
18150,46.08835,-0.532213,113.9,35.57,3.216,169.9,13 / 17,1815010,2019-08-09 23:05:32:237,0.5849,-1.079,9.4011,0.846,-0.7782,9.7391,-0.0123,0.0051,-0.0001
18151,46.08835,-0.532213,113.9,35.57,3.216,169.9,13 / 17,1815111,2019-08-09 23:05:32:338,0.6897,-0.9126,9.3646,0.8534,-0.7569,9.7401,-0.0143,0.0122,0.0041
18152,46.08835,-0.532213,113.9,35.57,3.216,169.9,13 / 17,1815211,2019-08-09 23:05:32:438,1.2906,-0.8378,9.7369,0.8536,-0.7591,9.7399,-0.0132,-0.0059,0.05
18153,46.08835,-0.532213,113.9,35.57,3.216,169.9,13 / 17,1815310,2019-08-09 23:05:32:537,0.9309,-0.5463,9.5537,0.8349,-0.76,9.7414,0.0169,-0.0221,-0.0515
18154,46.08835,-0.532213,113.9,35.57,3.216,169.9,13 / 17,1815410,2019-08-09 23:05:32:637,1.0931,0.0157,9.6609,0.8359,-0.7548,9.7418,-0.0077,-0.013,-0.001
18155,46.08835,-0.532213,113.9,35.57,3.216,169.9,13 / 17,1815511,2019-08-09 23:05:32:738,0.2252,-0.183,9.5902,0.8148,-0.7545,9.7436,-0.0249,0.0071,0.019
18156,46.08835,-0.532213,113.9,35.57,3.216,169.9,Dec-16,1815611,2019-08-09 23:05:32:838,0.9943,-0.3021,9.5747,0.8237,-0.746,9.7435,0.0201,0.0206,-0.03
18157,46.08835,-0.532213,113.9,35.57,3.216,169.9,Dec-16,1815710,2019-08-09 23:05:32:937,0.7657,-1.264,9.5705,0.8492,-0.7327,9.7423,-0.0309,0.0033,0.007
18158,46.08835,-0.532213,113.9,35.57,3.216,169.9,Dec-16,1815811,2019-08-09 23:05:33:038,1.1021,-0.6642,9.4244,0.8507,-0.7417,9.7415,-0.0103,0.0045,-0.0179
18159,46.08835,-0.532213,113.9,35.57,3.216,169.9,Dec-16,1815910,2019-08-09 23:05:33:137,1.1715,-0.8324,9.9643,0.8586,-0.7327,9.7415,0.0556,-0.0164,-0.0303
18160,46.08835,-0.532213,113.9,35.57,3.216,169.9,Dec-16,1816010,2019-08-09 23:05:33:237,0.9428,-0.7157,10.5407,0.8506,-0.7705,9.7393,0.0011,-0.0149,-0.0123
18161,46.08835,-0.532213,113.9,35.57,3.216,169.9,Dec-16,1816110,2019-08-09 23:05:33:337,0.6645,-1.4052,9.862,0.8379,-0.7874,9.739,0.0288,-0.0081,-0.0013
18162,46.08835,-0.532213,113.9,35.57,3.216,169.9,Dec-16,1816211,2019-08-09 23:05:33:438,0.8423,0.4407,9.2209,0.8455,-0.7802,9.7389,-0.0554,0.0188,-0.0103
18163,46.08835,-0.532213,113.9,35.57,3.216,169.9,Dec-16,1816311,2019-08-09 23:05:33:538,0.8752,-0.8995,9.446,0.8528,-0.7568,9.7401,0.0504,-0.0036,-0.0066
18164,46.08835,-0.532213,113.9,35.57,3.216,169.9,Dec-16,1816410,2019-08-09 23:05:33:637,0.297,-0.4727,8.5817,0.8507,-0.7677,9.7395,-0.0843,0.0088,0.0159
18165,46.08835,-0.532213,113.9,35.57,3.216,169.9,Dec-16,1816510,2019-08-09 23:05:33:737,0.7663,0.0127,9.0025,0.8653,-0.7256,9.7414,-0.0148,0.0118,0.0253
18166,46.08835,-0.532213,113.9,35.57,3.216,169.9,Dec-17,1816610,2019-08-09 23:05:33:837,1.0883,-1.686,9.6136,0.8655,-0.7467,9.7398,-0.0091,-0.0089,-0.0246
18167,46.08835,-0.532213,113.9,35.57,3.216,169.9,Dec-17,1816711,2019-08-09 23:05:33:938,0.8381,-0.6241,9.9727,0.851,-0.7501,9.7408,-0.0177,-0.0181,-0.0054
18168,46.08835,-0.532213,113.9,35.57,3.216,169.9,Dec-17,1816811,2019-08-09 23:05:34:038,0.7399,-0.763,9.7405,0.8412,-0.7541,9.7414,0.0246,-0.0087,-0.0081
18169,46.08835,-0.532213,113.9,35.57,3.216,169.9,Dec-17,1816911,2019-08-09 23:05:34:138,0.9608,-0.4547,9.3718,0.8366,-0.763,9.7411,-0.0101,-0.0025,-0.0005
18170,46.08835,-0.532213,113.9,35.57,3.216,169.9,Dec-17,1817010,2019-08-09 23:05:34:237,0.9213,-0.9108,9.5908,0.8314,-0.7552,9.7421,-0.0066,-0.0091,-0.0099
18171,46.08835,-0.532213,113.9,35.57,3.216,169.9,Dec-17,1817110,2019-08-09 23:05:34:337,0.8459,-0.666,9.8835,0.819,-0.7529,9.7433,0.0177,-0.0159,-0.0084
18172,46.08835,-0.532213,113.9,35.57,3.216,169.9,Dec-17,1817210,2019-08-09 23:05:34:437,0.8106,-1.2119,9.7153,0.8088,-0.7607,9.7436,0.0049,-0.0075,-0.006
18173,46.08835,-0.532213,113.9,35.57,3.216,169.9,Dec-17,1817311,2019-08-09 23:05:34:538,0.8806,-1.4268,9.7794,0.8064,-0.7607,9.7438,0.02,0.0006,-0.0039
18174,46.08835,-0.532213,113.9,35.57,3.216,169.9,Dec-17,1817411,2019-08-09 23:05:34:638,0.9536,-0.8528,10.3007,0.8055,-0.7528,9.7445,0.0,-0.0121,-0.0076
18175,46.08835,-0.532213,113.9,35.57,3.216,169.9,Dec-17,1817510,2019-08-09 23:05:34:737,0.9057,-0.7809,9.5555,0.7895,-0.7703,9.7444,0.0436,-0.0252,-0.017
18176,46.08835,-0.532213,113.9,35.57,3.216,169.9,Nov-15,1817610,2019-08-09 23:05:34:837,0.2144,-0.1345,9.4472,0.7771,-0.7434,9.7475,-0.0595,-0.0145,0.0209
18177,46.08835,-0.532213,113.9,35.57,3.216,169.9,Nov-15,1817710,2019-08-09 23:05:34:937,0.9123,-0.9994,9.6932,0.7826,-0.7655,9.7454,-0.0263,0.0087,-0.0072
18178,46.08835,-0.532213,113.9,35.57,3.216,169.9,Nov-15,1817810,2019-08-09 23:05:35:037,0.7058,-0.3703,9.8081,0.7829,-0.7494,9.7466,-0.005,-0.0016,-0.0064
18179,46.08835,-0.532213,113.9,35.57,3.216,169.9,Nov-15,1817910,2019-08-09 23:05:35:137,1.1015,-1.6016,9.5483,0.7918,-0.7468,9.7461,0.0236,-0.0058,-0.0148
18180,46.08835,-0.532213,113.9,35.57,3.216,169.9,Nov-15,1818011,2019-08-09 23:05:35:238,0.5113,-0.8881,9.2892,0.7884,-0.7638,9.745,-0.0384,0.0047,0.0278
18181,46.08835,-0.532213,113.9,35.57,3.216,169.9,Nov-15,1818110,2019-08-09 23:05:35:337,0.7609,-0.508,9.9841,0.784,-0.7692,9.745,0.0088,0.0029,-0.0151
18182,46.08835,-0.532213,113.9,35.57,3.216,169.9,Nov-15,1818210,2019-08-09 23:05:35:437,1.0464,-0.8127,9.9452,0.7879,-0.7882,9.7431,0.009,-0.0015,0.0027
18183,46.08835,-0.532213,113.9,35.57,3.216,169.9,Nov-15,1818310,2019-08-09 23:05:35:537,0.6597,-0.3895,9.3095,0.7952,-0.7687,9.7441,-0.0274,0.0262,0.0082
18184,46.08835,-0.532213,113.9,35.57,3.216,169.9,Nov-15,1818410,2019-08-09 23:05:35:637,0.9566,0.0923,9.367,0.809,-0.7649,9.7433,-0.0104,0.0038,-0.0296
18185,46.08835,-0.532213,113.9,35.57,3.216,169.9,Nov-15,1818510,2019-08-09 23:05:35:737,0.9506,0.0373,9.6675,0.8202,-0.7658,9.7422,-0.0106,0.0083,0.0155
18186,46.08835,-0.532213,113.9,35.57,3.216,169.9,13 / 17,1818610,2019-08-09 23:05:35:837,0.9027,-1.5495,10.0535,0.8113,-0.7715,9.7425,0.0159,-0.012,-0.0148
18187,46.08835,-0.532213,113.9,35.57,3.216,169.9,13 / 17,1818710,2019-08-09 23:05:35:937,0.6597,-0.1746,9.4017,0.8085,-0.767,9.7431,-0.0192,0.0034,-0.0033
18188,46.08835,-0.532213,113.9,35.57,3.216,169.9,13 / 17,1818810,2019-08-09 23:05:36:037,0.473,-0.8121,9.4813,0.8072,-0.7633,9.7435,0.0053,0.0088,0.0018
18189,46.08835,-0.532213,113.9,35.57,3.216,169.9,13 / 17,1818910,2019-08-09 23:05:36:137,0.6657,-0.0292,9.54,0.8067,-0.7543,9.7443,0.0179,0.0022,-0.0163
18190,46.08835,-0.532213,113.9,35.57,3.216,169.9,13 / 17,1819010,2019-08-09 23:05:36:237,0.8405,-0.699,9.5442,0.8067,-0.7645,9.7435,-0.0401,0.0029,0.0057
18191,46.08835,-0.532213,113.9,35.57,3.216,169.9,13 / 17,1819110,2019-08-09 23:05:36:337,0.6663,-0.8492,8.9809,0.8059,-0.7504,9.7446,0.0128,0.0076,-0.0119
18192,46.08835,-0.532213,113.9,35.57,3.216,169.9,13 / 17,1819211,2019-08-09 23:05:36:438,1.1254,-1.7183,9.9099,0.8114,-0.7526,9.744,0.0097,0.0005,-0.0177
18193,46.08835,-0.532213,113.9,35.57,3.216,169.9,13 / 17,1819311,2019-08-09 23:05:36:538,0.6053,-0.9515,9.5292,0.8063,-0.7748,9.7427,-0.0391,-0.0075,0.0041
18194,46.08835,-0.532213,113.9,35.57,3.216,169.9,13 / 17,1819410,2019-08-09 23:05:36:637,0.7256,-0.7456,9.9021,0.8078,-0.7689,9.743,0.0164,0.0137,-0.0051
18195,46.08835,-0.532213,113.9,35.57,3.216,169.9,13 / 17,1819510,2019-08-09 23:05:36:737,0.9853,-0.9898,9.6321,0.8144,-0.7706,9.7424,0.0033,0.0015,-0.013
18196,46.08548,-0.531593,110.41,36.3,3.216,172.9,14 / 17,1819611,2019-08-09 23:05:36:838,0.7004,-0.5786,9.6154,0.816,-0.7986,9.74,-0.0013,0.005,-0.0148
18197,46.08548,-0.531593,110.41,36.3,3.216,172.9,14 / 17,1819710,2019-08-09 23:05:36:937,0.8387,-1.243,9.2754,0.825,-0.7864,9.7402,-0.0487,0.0238,0.0145
18198,46.08548,-0.531593,110.41,36.3,3.216,172.9,14 / 17,1819811,2019-08-09 23:05:37:038,0.8632,-1.3478,9.4921,0.8552,-0.7815,9.738,0.0138,0.0108,-0.0162
18199,46.08548,-0.531593,110.41,36.3,3.216,172.9,14 / 17,1819910,2019-08-09 23:05:37:137,0.7483,-2.1828,9.537,0.8571,-0.8,9.7363,-0.0049,-0.009,-0.0027
18200,46.08548,-0.531593,110.41,36.3,3.216,172.9,14 / 17,1820011,2019-08-09 23:05:37:238,0.798,-0.8121,9.7375,0.8594,-0.7748,9.7381,-0.0562,0.0084,-0.0172
18201,46.08548,-0.531593,110.41,36.3,3.216,172.9,14 / 17,1820110,2019-08-09 23:05:37:337,0.8794,-0.7624,10.1056,0.868,-0.7796,9.737,0.0375,0.0146,0.0107
18202,46.08548,-0.531593,110.41,36.3,3.216,172.9,14 / 17,1820211,2019-08-09 23:05:37:438,0.7836,0.4551,9.8345,0.8611,-0.7775,9.7378,0.0173,-0.0128,-0.0047
18203,46.08548,-0.531593,110.41,36.3,3.216,172.9,14 / 17,1820310,2019-08-09 23:05:37:537,0.7543,0.6191,9.273,0.8565,-0.7483,9.7405,0.0007,-0.0081,0.001
18204,46.08548,-0.531593,110.41,36.3,3.216,172.9,14 / 17,1820410,2019-08-09 23:05:37:637,0.8668,-1.1969,9.7926,0.8412,-0.7738,9.7398,0.0063,-0.0076,0.0117
18205,46.08548,-0.531593,110.41,36.3,3.216,172.9,14 / 17,1820510,2019-08-09 23:05:37:737,0.5969,-0.7426,9.7955,0.8337,-0.7832,9.7397,-0.0196,0.0038,0.0048
18206,46.08548,-0.531593,110.41,36.3,3.216,172.9,14 / 17,1820611,2019-08-09 23:05:37:838,0.6723,-0.9581,9.7692,0.8337,-0.7685,9.7409,0.0156,0.0103,-0.0018
18207,46.08548,-0.531593,110.41,36.3,3.216,172.9,14 / 17,1820711,2019-08-09 23:05:37:938,0.8914,0.1055,9.4292,0.8362,-0.7636,9.741,-0.0233,0.0053,-0.0272
18208,46.08548,-0.531593,110.41,36.3,3.216,172.9,14 / 17,1820811,2019-08-09 23:05:38:038,1.0302,-0.6463,9.4669,0.8446,-0.7674,9.74,-0.012,0.0019,-0.0076
18209,46.08548,-0.531593,110.41,36.3,3.216,172.9,14 / 17,1820910,2019-08-09 23:05:38:137,1.0392,-0.1435,9.6297,0.8493,-0.7684,9.7395,-0.0019,0.0009,-0.015
18210,46.08548,-0.531593,110.41,36.3,3.216,172.9,14 / 17,1821010,2019-08-09 23:05:38:237,1.5276,-2.2342,10.0817,0.8593,-0.7744,9.7382,-0.0154,-0.0079,-0.0226
18211,46.08548,-0.531593,110.41,36.3,3.216,172.9,14 / 17,1821111,2019-08-09 23:05:38:338,0.862,-0.4919,9.8722,0.8618,-0.7643,9.7388,0.0083,0.0031,0.011
18212,46.08548,-0.531593,110.41,36.3,3.216,172.9,14 / 17,1821211,2019-08-09 23:05:38:438,1.3481,-1.407,9.6633,0.8645,-0.7626,9.7387,0.0309,0.0013,-0.0092
18213,46.08548,-0.531593,110.41,36.3,3.216,172.9,14 / 17,1821310,2019-08-09 23:05:38:537,1.4133,-1.4819,9.7788,0.8729,-0.7983,9.735,-0.0155,-0.0047,-0.0251
18214,46.08548,-0.531593,110.41,36.3,3.216,172.9,14 / 17,1821410,2019-08-09 23:05:38:637,1.448,-1.2383,9.6776,0.8793,-0.7733,9.7365,-0.017,0.0083,0.0012
18215,46.08548,-0.531593,110.41,36.3,3.216,172.9,14 / 17,1821511,2019-08-09 23:05:38:738,1.0853,0.1289,9.7465,0.8949,-0.778,9.7347,-0.0173,-0.0013,-0.0355
18216,46.08548,-0.531593,110.41,36.3,3.216,172.9,14 / 17,1821610,2019-08-09 23:05:38:837,1.2457,-0.4452,9.2982,0.9039,-0.7666,9.7348,-0.0232,0.0024,-0.0136
18217,46.08548,-0.531593,110.41,36.3,3.216,172.9,14 / 17,1821710,2019-08-09 23:05:38:937,1.4696,-0.605,10.2391,0.9152,-0.7808,9.7326,0.0141,0.0017,-0.0312
18218,46.08548,-0.531593,110.41,36.3,3.216,172.9,14 / 17,1821810,2019-08-09 23:05:39:037,1.2649,-1.094,9.3718,0.9237,-0.767,9.7329,-0.0212,0.0033,-0.0064
18219,46.08548,-0.531593,110.41,36.3,3.216,172.9,14 / 17,1821910,2019-08-09 23:05:39:137,1.0799,-1.0084,9.4741,0.9424,-0.7778,9.7302,-0.0082,0.0189,-0.0083
18220,46.08548,-0.531593,110.41,36.3,3.216,172.9,14 / 17,1822011,2019-08-09 23:05:39:238,1.5282,-0.2255,10.1337,0.9563,-0.7699,9.7295,-0.0281,-0.0104,-0.0075
18221,46.08548,-0.531593,110.41,36.3,3.216,172.9,14 / 17,1822110,2019-08-09 23:05:39:337,0.9147,-0.2153,9.373,0.9562,-0.7782,9.7288,0.01,-0.0058,-0.0171
18222,46.08548,-0.531593,110.41,36.3,3.216,172.9,14 / 17,1822210,2019-08-09 23:05:39:437,1.1505,-1.191,9.7333,0.9631,-0.7684,9.7289,0.0179,0.0032,-0.0346
18223,46.08548,-0.531593,110.41,36.3,3.216,172.9,14 / 17,1822310,2019-08-09 23:05:39:537,1.2942,-2.0217,9.7153,0.9747,-0.7826,9.7267,0.0037,0.0019,-0.011
18224,46.08548,-0.531593,110.41,36.3,3.216,172.9,14 / 17,1822410,2019-08-09 23:05:39:637,0.965,-0.7361,9.838,0.977,-0.7766,9.7269,0.0177,0.0011,-0.0075
18225,46.08548,-0.531593,110.41,36.3,3.216,172.9,14 / 17,1822511,2019-08-09 23:05:39:738,1.3211,-1.1197,9.8141,0.9765,-0.7777,9.7269,-0.0058,-0.0059,-0.022
18226,46.08548,-0.531593,110.41,36.3,3.216,172.9,13 / 16,1822610,2019-08-09 23:05:39:837,0.7525,-0.0705,9.203,0.9744,-0.7774,9.7271,-0.0032,-0.0075,-0.0067
18227,46.08548,-0.531593,110.41,36.3,3.216,172.9,13 / 16,1822711,2019-08-09 23:05:39:938,1.1188,-0.7582,9.6274,0.9655,-0.7749,9.7282,0.0066,-0.0018,-0.0123
18228,46.08548,-0.531593,110.41,36.3,3.216,172.9,13 / 16,1822810,2019-08-09 23:05:40:037,0.7609,-0.2081,9.2981,0.9671,-0.7785,9.7277,-0.0104,-0.0026,-0.0027
18229,46.08548,-0.531593,110.41,36.3,3.216,172.9,13 / 16,1822911,2019-08-09 23:05:40:138,1.0248,-1.1886,9.2461,0.9586,-0.7625,9.7299,0.0161,-0.0124,-0.0171
18230,46.08548,-0.531593,110.41,36.3,3.216,172.9,13 / 16,1823011,2019-08-09 23:05:40:238,0.8034,-0.502,9.425,0.9518,-0.7981,9.7277,-0.0158,-0.003,-0.0063
18231,46.08548,-0.531593,110.41,36.3,3.216,172.9,13 / 16,1823111,2019-08-09 23:05:40:338,0.9141,-1.1874,9.8931,0.9572,-0.7728,9.7292,-0.0353,0.013,0.0023
18232,46.08548,-0.531593,110.41,36.3,3.216,172.9,13 / 16,1823210,2019-08-09 23:05:40:437,0.8644,0.1594,9.5867,0.9627,-0.7774,9.7283,-0.0194,0.0108,-0.0068
18233,46.08548,-0.531593,110.41,36.3,3.216,172.9,13 / 16,1823310,2019-08-09 23:05:40:537,0.6286,-0.4302,9.197,0.9606,-0.7711,9.729,-0.0456,-0.0009,0.0161
18234,46.08548,-0.531593,110.41,36.3,3.216,172.9,13 / 16,1823410,2019-08-09 23:05:40:637,1.0159,-0.7049,10.0793,0.9613,-0.7442,9.731,0.0558,0.0047,-0.0282
18235,46.08548,-0.531593,110.41,36.3,3.216,172.9,13 / 16,1823510,2019-08-09 23:05:40:737,1.2265,-1.1987,10.4366,0.9632,-0.7702,9.7288,0.0034,-0.0029,-0.0066
18236,46.08548,-0.531593,110.41,36.3,3.216,172.9,13 / 15,1823610,2019-08-09 23:05:40:837,0.9955,-1.3268,9.9512,0.9625,-0.739,9.7313,0.0195,0.002,-0.024
18237,46.08548,-0.531593,110.41,36.3,3.216,172.9,13 / 15,1823710,2019-08-09 23:05:40:937,0.9291,-0.3859,9.5424,0.965,-0.7502,9.7302,-0.0035,-0.0032,-0.0235
18238,46.08548,-0.531593,110.41,36.3,3.216,172.9,13 / 15,1823810,2019-08-09 23:05:41:037,1.1272,-0.1579,10.1762,0.9681,-0.738,9.7308,0.0016,0.0017,-0.003
18239,46.08548,-0.531593,110.41,36.3,3.216,172.9,13 / 15,1823910,2019-08-09 23:05:41:137,1.0512,-0.3087,9.9577,0.9601,-0.7587,9.73,0.0134,-0.0034,-0.012
18240,46.08548,-0.531593,110.41,36.3,3.216,172.9,13 / 15,1824010,2019-08-09 23:05:41:237,1.0015,-1.3161,9.4424,0.9553,-0.744,9.7316,-0.0072,-0.0108,-0.0127
18241,46.08548,-0.531593,110.41,36.3,3.216,172.9,13 / 15,1824110,2019-08-09 23:05:41:337,1.0021,-1.2903,9.2269,0.9574,-0.7471,9.7312,-0.021,0.0051,-0.0117
18242,46.08548,-0.531593,110.41,36.3,3.216,172.9,13 / 15,1824210,2019-08-09 23:05:41:437,1.211,-1.7895,10.3043,0.955,-0.7589,9.7305,0.0027,-0.0128,-0.007
18243,46.08548,-0.531593,110.41,36.3,3.216,172.9,13 / 15,1824310,2019-08-09 23:05:41:537,0.5951,-0.5679,9.6914,0.9438,-0.762,9.7313,-0.0058,0.0029,-0.0266
18244,46.08548,-0.531593,110.41,36.3,3.216,172.9,13 / 15,1824410,2019-08-09 23:05:41:637,0.8279,-0.4775,9.367,0.945,-0.7608,9.7313,0.0196,0.0096,-0.0127
18245,46.08548,-0.531593,110.41,36.3,3.216,172.9,13 / 15,1824510,2019-08-09 23:05:41:737,0.8519,0.063,9.6776,0.946,-0.753,9.7318,-0.0222,-0.004,0.0038
18246,46.08548,-0.531593,110.41,36.3,3.216,172.9,15 / 17,1824611,2019-08-09 23:05:41:838,0.786,-0.7271,9.7602,0.9353,-0.7578,9.7325,0.0327,-0.0011,-0.003
18247,46.08548,-0.531593,110.41,36.3,3.216,172.9,15 / 17,1824710,2019-08-09 23:05:41:937,0.7112,-1.1341,9.674,0.9341,-0.7589,9.7325,-0.0143,0.0162,0.0093
18248,46.08548,-0.531593,110.41,36.3,3.216,172.9,15 / 17,1824811,2019-08-09 23:05:42:038,0.7429,-0.7313,9.862,0.9438,-0.7285,9.7339,0.0164,0.0151,-0.002
18249,46.08548,-0.531593,110.41,36.3,3.216,172.9,15 / 17,1824911,2019-08-09 23:05:42:138,0.7531,-0.5721,8.8427,0.9475,-0.7246,9.7338,-0.0802,0.0043,0.0025
18250,46.08548,-0.531593,110.41,36.3,3.216,172.9,15 / 17,1825010,2019-08-09 23:05:42:237,0.6508,0.5257,9.5777,0.9458,-0.7049,9.7355,-0.001,0.0003,0.0031
18251,46.08548,-0.531593,110.41,36.3,3.216,172.9,15 / 17,1825110,2019-08-09 23:05:42:337,0.8345,-0.6906,10.1858,0.9407,-0.7251,9.7345,0.0151,0.003,-0.0115
18252,46.08548,-0.531593,110.41,36.3,3.216,172.9,15 / 17,1825210,2019-08-09 23:05:42:437,0.7088,-0.5733,10.3983,0.9398,-0.7498,9.7327,-0.0037,0.0098,-0.006
18253,46.08548,-0.531593,110.41,36.3,3.216,172.9,15 / 17,1825310,2019-08-09 23:05:42:537,0.4586,-1.7015,9.2545,0.9432,-0.7344,9.7335,-0.0235,0.008,-0.0201
18254,46.08548,-0.531593,110.41,36.3,3.216,172.9,15 / 17,1825410,2019-08-09 23:05:42:637,0.8662,-0.4547,9.7309,0.9483,-0.7268,9.7336,0.0078,0.0013,-0.0034
18255,46.08548,-0.531593,110.41,36.3,3.216,172.9,15 / 17,1825511,2019-08-09 23:05:42:738,0.7585,0.0373,9.6369,0.9372,-0.6978,9.7368,-0.0231,-0.0123,-0.0025
18256,46.08548,-0.531593,110.41,36.3,3.216,172.9,13 / 15,1825611,2019-08-09 23:05:42:838,0.5975,-0.0944,9.8602,0.9337,-0.6868,9.7379,0.0147,0.0023,0.0055
18257,46.08548,-0.531593,110.41,36.3,3.216,172.9,13 / 15,1825710,2019-08-09 23:05:42:937,0.3515,0.6849,9.4442,0.9259,-0.6816,9.739,-0.0103,0.0152,0.0179
18258,46.08548,-0.531593,110.41,36.3,3.216,172.9,13 / 15,1825810,2019-08-09 23:05:43:037,0.5867,-0.2494,9.1623,0.9344,-0.6498,9.7404,-0.0284,0.0137,-0.0114
18259,46.08548,-0.531593,110.41,36.3,3.216,172.9,13 / 15,1825910,2019-08-09 23:05:43:137,0.8836,-0.4284,9.947,0.9344,-0.6477,9.7405,0.0004,-0.0062,0.0001
18260,46.08548,-0.531593,110.41,36.3,3.216,172.9,13 / 15,1826012,2019-08-09 23:05:43:239,0.7178,-0.3356,9.759,0.9213,-0.6351,9.7426,0.0182,-0.0036,-0.0163
18261,46.08548,-0.531593,110.41,36.3,3.216,172.9,13 / 15,1826111,2019-08-09 23:05:43:338,0.7878,-0.3829,9.7704,0.9178,-0.6385,9.7427,-0.0131,-0.0029,-0.0037
18262,46.08548,-0.531593,110.41,36.3,3.216,172.9,13 / 15,1826210,2019-08-09 23:05:43:437,0.6717,-0.438,9.449,0.9093,-0.6131,9.7451,-0.0069,-0.0072,-0.0101
18263,46.08548,-0.531593,110.41,36.3,3.216,172.9,13 / 15,1826310,2019-08-09 23:05:43:537,0.9758,0.5514,9.8668,0.9044,-0.6192,9.7452,0.0023,0.0029,-0.0089
18264,46.08548,-0.531593,110.41,36.3,3.216,172.9,13 / 15,1826413,2019-08-09 23:05:43:640,0.8896,-0.9444,10.1259,0.8964,-0.6314,9.7452,0.0312,-0.0094,-0.0236
18265,46.08548,-0.531593,110.41,36.3,3.216,172.9,13 / 15,1826511,2019-08-09 23:05:43:738,0.8842,-0.5589,9.3622,0.8939,-0.6216,9.746,-0.0075,0.0005,-0.0094
18266,46.08548,-0.531593,110.41,36.3,3.216,172.9,13 / 14,1826611,2019-08-09 23:05:43:838,0.9464,-1.0072,9.1635,0.9021,-0.6242,9.7451,0.0124,0.0108,-0.0146
18267,46.08548,-0.531593,110.41,36.3,3.216,172.9,13 / 14,1826710,2019-08-09 23:05:43:937,1.2122,-0.6367,10.0128,0.9119,-0.634,9.7436,0.0363,0.0038,-0.0179
18268,46.08548,-0.531593,110.41,36.3,3.216,172.9,13 / 14,1826810,2019-08-09 23:05:44:037,1.2242,-0.827,9.8177,0.9179,-0.6457,9.7422,0.0085,-0.0072,-0.0064
18269,46.08548,-0.531593,110.41,36.3,3.216,172.9,13 / 14,1826910,2019-08-09 23:05:44:137,1.0165,-0.9521,9.3688,0.9163,-0.6537,9.7418,-0.0293,-0.002,-0.0119
18270,46.08548,-0.531593,110.41,36.3,3.216,172.9,13 / 14,1827011,2019-08-09 23:05:44:238,1.2355,-1.8344,9.4873,0.9321,-0.6538,9.7403,-0.0637,0.0047,-0.0007
18271,46.08548,-0.531593,110.41,36.3,3.216,172.9,13 / 14,1827110,2019-08-09 23:05:44:337,1.1188,-0.4589,9.6693,0.9338,-0.6638,9.7395,0.0128,0.0004,-0.0141
18272,46.08548,-0.531593,110.41,36.3,3.216,172.9,13 / 14,1827210,2019-08-09 23:05:44:437,1.2661,-1.1724,10.1481,0.9392,-0.6799,9.7379,0.0161,-0.0053,-0.0168
18273,46.08548,-0.531593,110.41,36.3,3.216,172.9,13 / 14,1827310,2019-08-09 23:05:44:537,1.0027,0.3832,9.6788,0.9391,-0.6863,9.7374,-0.0272,0.0129,-0.0091
18274,46.08548,-0.531593,110.41,36.3,3.216,172.9,13 / 14,1827411,2019-08-09 23:05:44:638,1.1463,-0.7157,9.3005,0.9558,-0.6678,9.7371,-0.0135,0.0058,-0.0205
18275,46.08548,-0.531593,110.41,36.3,3.216,172.9,13 / 14,1827511,2019-08-09 23:05:44:738,1.1332,0.0415,9.4167,0.958,-0.6544,9.7378,0.0061,-0.006,-0.0144
18276,46.08548,-0.531593,110.41,36.3,3.216,172.9,13 / 15,1827611,2019-08-09 23:05:44:838,1.1499,-0.8055,9.6321,0.9546,-0.6448,9.7388,0.0113,0.0046,-0.0009
18277,46.08548,-0.531593,110.41,36.3,3.216,172.9,13 / 15,1827710,2019-08-09 23:05:44:937,0.9357,-0.7618,9.9135,0.9586,-0.6528,9.7378,-0.0069,-0.0015,-0.0137
18278,46.08548,-0.531593,110.41,36.3,3.216,172.9,13 / 15,1827810,2019-08-09 23:05:45:037,1.059,-0.9827,9.9009,0.9601,-0.6463,9.7381,-0.0212,-0.0024,-0.0207
18279,46.08548,-0.531593,110.41,36.3,3.216,172.9,13 / 15,1827910,2019-08-09 23:05:45:137,0.8207,-0.6636,9.7483,0.9625,-0.6515,9.7375,0.0148,0.0062,-0.0004
18280,46.08548,-0.531593,110.41,36.3,3.216,172.9,13 / 15,1828011,2019-08-09 23:05:45:238,1.2726,0.2168,9.3586,0.9634,-0.6344,9.7386,-0.0293,0.008,-0.0079
18281,46.08548,-0.531593,110.41,36.3,3.216,172.9,13 / 15,1828110,2019-08-09 23:05:45:337,1.2289,-1.1503,9.5711,0.978,-0.6467,9.7363,-0.0013,0.0074,-0.009
18282,46.08548,-0.531593,110.41,36.3,3.216,172.9,13 / 15,1828210,2019-08-09 23:05:45:437,1.2655,-1.5327,10.1547,0.9827,-0.6577,9.7351,0.0135,-0.0016,-0.0218
18283,46.08548,-0.531593,110.41,36.3,3.216,172.9,13 / 15,1828310,2019-08-09 23:05:45:537,1.2511,-2.485,9.4993,0.9921,-0.6651,9.7336,-0.0025,0.0029,-0.0081
18284,46.08548,-0.531593,110.41,36.3,3.216,172.9,13 / 15,1828411,2019-08-09 23:05:45:638,1.0979,-0.8707,9.9039,0.9941,-0.681,9.7323,0.0004,0.0061,-0.014
18285,46.08548,-0.531593,110.41,36.3,3.216,172.9,13 / 15,1828510,2019-08-09 23:05:45:737,1.2732,-0.8947,9.8811,1.006,-0.6847,9.7309,0.0177,0.0088,-0.0244
