,GPS LATITUDE (degrees), GPS LONGITUDE (degrees), GPS ALTITUDE (m), GPS SPEED (Kmh), GPS ACCURACY (m), GPS ORIENTATION (Â°),GPS SATELLITES IN RANGE, TIME SINCE START (ms), DATE (YYYY-MO-DD HH-MI-SS_SSS), ACCELEROMETER X (m/s²) , ACCELEROMETER Y (m/s²), ACCELEROMETER Z (m/s²), GRAVITY X (m/s²), GRAVITY Y (m/s²), GRAVITY Z (m/s²), GYROSCOPE Yaw (rad/s), GYROSCOPE Pitch (rad/s), GYROSCOPE Roll (rad/s), MAGNETIC FIELD X (Î¼T), MAGNETIC FIELD Y (Î¼T), MAGNETIC FIELD Z (Î¼T), ORIENTATION (Yaw) (Â°), ORIENTATION (Pitch) (Â°), ORIENTATION (Roll ) (Â°)
35809,52.410362,-1.580292,181.35,9.98,3.0,193.1,24 / 24,3585128,2019-09-07 10:13:10:407,-1.6125,-0.0408,10.1002,-0.0405,0.0303,9.8065,0.2151,0.1941,-0.1463,-29.19,-32.31,18.69,309.18,-80.17,-166.56
35810,52.410362,-1.580292,181.35,9.98,3.0,193.1,24 / 24,3585227,2019-09-07 10:13:10:506,0.0221,-0.474,9.7404,-0.0342,0.0516,9.8064,0.2239,0.0209,-0.0557,-28.94,-33.19,18.5,307.05,-80.16,-168.24
35811,52.410362,-1.580292,181.35,9.98,3.0,193.1,24 / 24,3585327,2019-09-07 10:13:10:606,-0.772,-0.642,9.9917,0.002,-0.0366,9.8065,-0.0422,0.228,-0.0462,-29.12,-32.44,18.31,304.22,-80.3,-169.64
35812,52.410362,-1.580292,181.35,9.98,3.0,193.1,24 / 24,3585428,2019-09-07 10:13:10:707,-1.5535,-1.1525,10.2404,-0.0164,-0.0015,9.8066,0.1367,-0.0496,0.06,-29.62,-33.44,18.19,305.18,-80.29,-167.84
35813,52.410362,-1.580292,181.35,9.98,3.0,193.1,24 / 24,3585527,2019-09-07 10:13:10:806,-1.2249,-0.0805,9.972,0.052,-0.0229,9.8064,-0.177,0.1397,-0.0618,-29.19,-32.69,18.25,306.37,-80.24,-167.4
35814,52.410362,-1.580292,181.35,9.98,3.0,193.1,24 / 24,3585627,2019-09-07 10:13:10:906,-0.5759,0.8582,10.3184,0.0508,-0.0479,9.8063,0.0429,0.1168,-0.0786,-29.5,-33.37,18.75,307.35,-79.73,-167.6
35815,52.410362,-1.580292,181.35,9.98,3.0,193.1,24 / 24,3585727,2019-09-07 10:13:11:006,-0.1066,-0.9865,9.4118,0.0018,-0.0111,9.8066,-0.069,-0.0621,0.0698,-28.94,-33.06,18.63,307.11,-79.65,-167.75
35816,52.410362,-1.580292,181.35,9.98,3.0,193.1,24 / 24,3585827,2019-09-07 10:13:11:106,0.87,1.8458,8.6919,0.0266,-0.0176,9.8065,-0.2173,0.1119,-0.1038,-29.56,-33.12,18.31,305.25,-79.6,-167.19
35817,52.410362,-1.580292,181.35,9.98,3.0,193.1,24 / 24,3585927,2019-09-07 10:13:11:206,-0.9047,1.6774,9.321,-0.0569,0.0503,9.8063,-0.1986,-0.0609,0.0892,-29.12,-33.44,18.06,306.66,-79.87,-166.82
35818,52.410362,-1.580292,181.35,9.98,3.0,193.1,24 / 24,3586027,2019-09-07 10:13:11:306,-0.268,-0.4923,10.1399,-0.0112,-0.0087,9.8066,-0.1907,-0.0323,0.0525,-29.62,-32.81,17.56,306.67,-80.39,-166.58
35819,52.410362,-1.580292,181.35,9.98,3.0,193.1,24 / 24,3586127,2019-09-07 10:13:11:406,-1.362,1.4331,8.5673,0.0065,0.0099,9.8066,-0.0291,-0.0279,-0.0303,-29.69,-32.75,18.13,306.07,-80.46,-167.18
35820,52.410362,-1.580292,181.35,9.98,3.0,193.1,24 / 24,3586228,2019-09-07 10:13:11:507,-0.8474,0.505,9.1927,0.0562,-0.0246,9.8064,-0.269,0.063,0.0609,-29.81,-32.62,18.31,305.38,-80.08,-167.48
35821,52.410362,-1.580292,181.35,9.98,3.0,193.1,24 / 24,3586327,2019-09-07 10:13:11:606,-1.2784,0.1103,9.812,-0.0599,0.0031,9.8065,0.1634,0.0713,-0.0447,-29.62,-33.0,18.44,305.2,-79.85,-167.45
35822,52.410362,-1.580292,181.35,9.98,3.0,193.1,24 / 24,3586427,2019-09-07 10:13:11:706,-0.5559,0.437,9.9221,-0.056,0.0158,9.8064,0.0317,0.0299,-0.0432,-29.81,-32.81,18.5,308.13,-80.11,-166.52
35823,52.410362,-1.580292,181.35,9.98,3.0,193.1,24 / 24,3586528,2019-09-07 10:13:11:807,-1.2433,1.1992,9.4939,-0.0039,0.0033,9.8066,0.1007,-0.1386,0.1482,-30.25,-32.62,18.81,307.53,-79.96,-166.93
35824,52.410362,-1.580292,181.35,9.98,3.0,193.1,24 / 24,3586627,2019-09-07 10:13:11:906,-0.0446,-0.479,9.7756,-0.0446,0.0167,9.8064,0.0927,-0.0286,0.0211,-29.87,-32.75,18.69,307.79,-80.04,-166.77
35825,52.410362,-1.580292,181.35,9.98,3.0,193.1,24 / 24,3586727,2019-09-07 10:13:12:006,0.2411,0.4935,9.2067,0.0097,0.003,9.8066,-0.0169,0.0502,-0.0424,-30.31,-33.12,18.25,304.96,-79.85,-167.66
35826,52.410362,-1.580292,181.35,9.98,3.0,193.1,24 / 24,3586827,2019-09-07 10:13:12:106,-1.1928,-0.4113,9.8961,-0.0382,0.0274,9.8065,0.0662,-0.1166,0.1361,-29.5,-32.94,18.38,305.84,-80.23,-167.87
35827,52.410362,-1.580292,181.35,9.98,3.0,193.1,24 / 24,3586927,2019-09-07 10:13:12:206,-0.777,1.596,10.2279,0.0095,0.009,9.8066,0.0193,0.1005,-0.0557,-30.69,-33.12,17.69,304.94,-80.27,-167.42
35828,52.410362,-1.580292,181.35,9.98,3.0,193.1,24 / 24,3587028,2019-09-07 10:13:12:307,-1.8017,0.0649,10.5816,0.0001,-0.0017,9.8066,0.1894,0.1633,-0.0952,-30.62,-32.06,18.25,304.15,-80.23,-168.33
35829,52.410362,-1.580292,181.35,9.98,3.0,193.1,24 / 24,3587127,2019-09-07 10:13:12:406,-0.6404,0.2899,9.5149,0.0726,-0.0272,9.8063,-0.2242,0.0918,-0.0609,-31.69,-32.06,19.63,304.33,-79.63,-169.91
35830,52.410362,-1.580292,181.35,9.98,3.0,193.1,24 / 24,3587227,2019-09-07 10:13:12:506,0.5161,0.7832,9.5578,0.0827,-0.0285,9.8062,-0.1577,0.039,0.0187,-30.5,-30.81,20.13,304.82,-79.5,-170.94
35831,52.410362,-1.580292,181.35,9.98,3.0,193.1,24 / 24,3587328,2019-09-07 10:13:12:607,-1.7119,1.4367,9.6987,-0.0266,0.0118,9.8066,-0.1537,0.0187,0.0602,-29.69,-30.0,19.38,304.01,-79.65,-170.59
35832,52.410362,-1.580292,181.35,9.98,3.0,193.1,24 / 24,3587427,2019-09-07 10:13:12:706,-1.4929,1.4436,10.1326,-0.0073,0.0097,9.8066,-0.1434,0.0697,-0.0586,-28.56,-30.12,18.5,305.47,-79.88,-170.15
35833,52.410362,-1.580292,181.35,9.98,3.0,193.1,24 / 24,3587527,2019-09-07 10:13:12:806,-1.2417,0.3613,10.6452,0.0211,-0.0023,9.8066,0.1526,0.0365,0.0402,-28.25,-30.56,17.75,304.05,-79.97,-170.47
35834,52.410362,-1.580292,181.35,9.98,3.0,193.1,24 / 24,3587628,2019-09-07 10:13:12:907,1.4403,-0.0226,9.4101,-0.02,0.0166,9.8066,0.3319,0.1327,-0.0134,-28.69,-31.94,17.5,301.79,-79.98,-171.59
35835,52.410362,-1.580292,181.35,9.98,3.0,193.1,24 / 24,3587727,2019-09-07 10:13:13:006,0.8783,0.3682,10.3048,0.0575,-0.0493,9.8063,-0.0487,0.129,-0.0509,-29.37,-31.94,17.13,299.94,-79.34,-171.11
35836,52.410362,-1.580292,181.35,9.98,3.0,193.1,24 / 24,3587827,2019-09-07 10:13:13:106,1.2097,0.9426,10.3333,0.0225,-0.0102,9.8066,0.1021,0.0447,0.0017,-29.69,-32.37,17.69,301.9,-79.55,-170.43
35837,52.410362,-1.580292,181.35,9.98,3.0,193.1,24 / 24,3587928,2019-09-07 10:13:13:207,-2.0134,0.0139,9.457,0.0232,-0.0155,9.8065,-0.2704,-0.0167,0.0413,-29.75,-32.06,16.75,302.01,-79.78,-169.0
35838,52.410362,-1.580292,181.35,9.98,3.0,193.1,24 / 24,3588028,2019-09-07 10:13:13:307,-0.4633,0.3312,9.672,0.053,-0.0222,9.8064,-0.1351,0.0155,0.0017,-30.25,-32.0,16.25,300.67,-79.7,-168.57
35839,52.410362,-1.580292,182.36,8.15,3.0,102.79,24 / 24,3588127,2019-09-07 10:13:13:406,-0.2731,0.7981,9.7604,0.0164,0.0052,9.8066,0.0035,0.0095,0.0446,-30.37,-32.37,17.25,302.58,-79.74,-168.44
35840,52.409824,-1.579849,182.36,8.15,4.0,102.79,24 / 24,3588227,2019-09-07 10:13:13:506,0.2652,0.259,10.8654,0.0315,0.0008,9.8066,-0.0949,-0.01,0.0081,-29.87,-32.31,17.63,303.98,-79.66,-168.64
35841,52.409824,-1.579849,182.36,8.15,4.0,102.79,24 / 24,3588327,2019-09-07 10:13:13:606,-2.2284,-0.3096,9.3951,0.0633,-0.0086,9.8064,-0.0194,-0.0718,0.0432,-29.94,-32.31,17.13,300.55,-79.52,-170.09
35842,52.409824,-1.579849,182.36,8.15,4.0,102.79,24 / 24,3588427,2019-09-07 10:13:13:706,-1.2502,1.1705,8.7486,0.0034,0.0053,9.8066,-0.2321,0.0949,-0.0156,-30.19,-32.69,17.81,301.92,-79.64,-170.24
35843,52.409824,-1.579849,182.36,8.15,4.0,102.79,24 / 24,3588527,2019-09-07 10:13:13:806,-0.8551,0.8433,9.298,0.033,-0.0383,9.8064,-0.2128,0.1297,-0.0464,-30.37,-32.69,17.75,302.3,-79.52,-169.79
35844,52.409824,-1.579849,182.36,8.15,4.0,102.79,24 / 24,3588628,2019-09-07 10:13:13:907,-2.443,0.0331,10.4619,-0.0066,0.0015,9.8066,-0.0471,-0.0841,0.1016,-29.87,-32.25,18.0,303.76,-79.78,-168.94
35845,52.409824,-1.579849,182.36,8.15,4.0,102.79,24 / 24,3588727,2019-09-07 10:13:14:006,-3.7178,0.4098,9.9343,-0.0155,0.0166,9.8066,-0.1332,-0.0285,-0.0464,-30.56,-32.06,17.13,301.55,-79.85,-168.88
35846,52.409824,-1.579849,182.36,8.15,4.0,102.79,24 / 24,3588827,2019-09-07 10:13:14:106,-0.6183,-0.5728,9.7887,0.014,-0.0047,9.8065,0.0942,0.0135,-0.0425,-30.06,-32.19,17.94,303.31,-79.89,-169.45
35847,52.409824,-1.579849,182.36,8.15,4.0,102.79,24 / 24,3588928,2019-09-07 10:13:14:207,-1.5824,0.9525,10.3651,0.0448,-0.0192,9.8065,0.1422,-0.0431,0.0204,-30.5,-33.0,17.63,302.31,-79.62,-169.87
35848,52.409824,-1.579849,182.36,8.15,4.0,102.79,24 / 24,3589028,2019-09-07 10:13:14:307,-0.1476,-0.0075,9.6525,0.0388,-0.0005,9.8065,-0.1579,-0.067,0.075,-30.25,-32.87,18.0,301.51,-79.68,-170.66
35849,52.409824,-1.579849,182.36,8.15,4.0,102.79,24 / 24,3589127,2019-09-07 10:13:14:406,0.2011,0.7443,9.7897,0.054,-0.0224,9.8064,-0.1586,-0.0365,-0.0047,-29.75,-33.12,18.63,303.04,-79.87,-170.93
35850,52.409824,-1.579849,182.36,8.15,4.0,102.79,24 / 24,3589227,2019-09-07 10:13:14:506,-3.834,-2.774,8.8469,-0.069,0.0543,9.8062,-0.1109,-0.3587,0.1929,-30.25,-32.87,18.31,300.85,-79.64,-171.22
35851,52.409824,-1.579849,182.36,8.15,4.0,102.79,24 / 24,3589327,2019-09-07 10:13:14:606,-3.0126,1.1706,9.2714,-0.0407,-0.0004,9.8065,-0.3785,-0.0798,0.0256,-30.37,-32.31,17.75,302.18,-80.13,-170.69
35852,52.409824,-1.579849,182.36,8.15,4.0,102.79,24 / 24,3589427,2019-09-07 10:13:14:706,-2.8101,1.5366,8.7059,-0.0986,0.0499,9.8059,0.3458,-0.0755,0.0953,-30.75,-32.06,17.38,300.54,-79.96,-169.91
35853,52.409824,-1.579849,182.36,8.15,4.0,102.79,24 / 24,3589527,2019-09-07 10:13:14:806,1.2145,2.6782,10.2736,-0.0925,0.0292,9.8061,0.2827,0.1672,-0.0488,-30.5,-32.37,17.5,303.56,-80.46,-169.71
35854,52.409824,-1.579849,182.36,8.15,4.0,102.79,24 / 24,3589627,2019-09-07 10:13:14:906,0.9723,-0.1439,10.7826,0.1108,-0.0368,9.8059,0.0054,-0.1317,0.0648,-30.5,-32.19,18.5,302.36,-79.59,-171.56
35855,52.409824,-1.579849,182.36,8.15,4.0,102.79,24 / 24,3589727,2019-09-07 10:13:15:006,0.2991,-1.0159,10.1251,0.0474,-0.0005,9.8065,0.2467,-0.082,0.0059,-31.06,-32.5,18.19,299.55,-79.44,-171.88
35856,52.409824,-1.579849,182.36,8.15,4.0,102.79,24 / 24,3589827,2019-09-07 10:13:15:106,-1.3147,-0.6126,9.6383,0.0414,-0.0151,9.8065,-0.1899,-0.0393,0.0495,-30.12,-32.06,18.0,298.88,-79.29,-172.97
35857,52.409824,-1.579849,182.36,8.15,4.0,102.79,24 / 24,3589927,2019-09-07 10:13:15:206,-1.1606,-0.686,9.456,0.0177,-0.007,9.8066,-0.0193,-0.0963,0.0492,-30.81,-32.69,17.94,297.59,-79.17,-173.18
35858,52.409824,-1.579849,182.36,8.15,4.0,102.79,24 / 24,3590027,2019-09-07 10:13:15:306,-0.5944,0.4544,9.8537,0.0,0.0048,9.8066,-0.0432,-0.0904,0.0358,-30.62,-32.06,18.38,298.95,-79.34,-172.34
35859,52.409824,-1.579849,182.36,8.15,4.0,102.79,24 / 24,3590127,2019-09-07 10:13:15:406,-0.815,2.0257,9.9398,0.0147,0.0216,9.8065,0.0036,0.0385,-0.0611,-30.25,-33.12,18.63,300.13,-79.48,-173.25
35860,52.409824,-1.579849,182.36,8.15,4.0,102.79,24 / 24,3590228,2019-09-07 10:13:15:507,-1.1921,-0.1168,9.4911,0.0379,0.0004,9.8065,-0.363,-0.0033,0.0035,-30.81,-32.87,18.56,298.43,-79.55,-174.25
35861,52.409824,-1.579849,182.36,8.15,4.0,102.79,24 / 24,3590327,2019-09-07 10:13:15:606,-0.7445,1.534,8.1601,0.0679,-0.0423,9.8063,-0.3001,0.1063,0.0608,-30.31,-31.94,17.31,296.22,-79.49,-174.08
35862,52.409824,-1.579849,182.36,8.15,4.0,102.79,24 / 24,3590427,2019-09-07 10:13:15:706,-1.2091,-0.9433,9.3062,-0.0705,0.0172,9.8063,-0.0333,-0.0455,0.0518,-30.75,-32.44,18.06,298.87,-79.29,-172.38
35863,52.409824,-1.579849,182.36,8.15,4.0,102.79,24 / 24,3590527,2019-09-07 10:13:15:806,-2.3274,1.2534,9.8662,-0.0375,0.0236,9.8065,-0.2804,0.0294,-0.0704,-30.81,-32.62,18.0,299.11,-79.68,-172.24
35864,52.409824,-1.579849,182.36,8.15,4.0,102.79,24 / 24,3590627,2019-09-07 10:13:15:906,-1.9973,0.9683,9.3306,-0.0616,0.0513,9.8062,0.2502,-0.0445,-0.0206,-29.94,-32.37,18.19,299.01,-79.65,-173.18
35865,52.409824,-1.579849,182.36,8.15,4.0,102.79,24 / 24,3590727,2019-09-07 10:13:16:006,-1.5156,-0.3256,11.0382,-0.0657,0.013,9.8063,0.169,-0.0367,0.0637,-31.12,-32.87,18.19,297.89,-80.23,-173.88
35866,52.409824,-1.579849,182.36,8.15,4.0,102.79,24 / 24,3590827,2019-09-07 10:13:16:106,-1.2908,0.1774,9.7797,0.0247,0.0102,9.8066,0.0952,0.0262,-0.0513,-30.56,-32.37,18.31,298.09,-79.85,-173.6
35867,52.409824,-1.579849,182.36,8.15,4.0,102.79,24 / 24,3590927,2019-09-07 10:13:16:206,-1.7554,-1.7688,10.217,0.0179,-0.0048,9.8066,0.0996,-0.096,0.0607,-30.12,-32.5,18.06,297.81,-79.67,-174.31
35868,52.409824,-1.579849,182.36,8.15,4.0,102.79,24 / 24,3591028,2019-09-07 10:13:16:307,-1.0693,0.0121,10.1912,0.0133,0.0089,9.8066,0.0382,-0.0674,0.0027,-30.37,-32.62,18.06,296.55,-79.61,-175.16
35869,52.409824,-1.579849,182.36,8.15,4.0,102.79,24 / 24,3591128,2019-09-07 10:13:16:407,-3.0845,-0.8436,10.8106,-0.0488,0.0037,9.8065,0.1974,-0.0611,0.0748,-29.69,-32.06,18.69,298.61,-79.74,-175.15
35870,52.409824,-1.579849,182.36,8.15,4.0,102.79,24 / 24,3591227,2019-09-07 10:13:16:506,-0.0927,0.272,11.06,0.1068,-0.0338,9.806,-0.0275,0.0204,-0.0213,-30.19,-32.44,18.19,297.33,-79.94,-175.01
35871,52.409824,-1.579849,182.36,8.15,4.0,102.79,24 / 24,3591327,2019-09-07 10:13:16:606,-0.1019,-0.3331,10.2986,0.03,0.0038,9.8066,0.2011,-0.1173,0.0526,-30.37,-32.06,18.38,295.87,-79.56,-176.03
35872,52.409824,-1.579849,182.36,8.15,4.0,102.79,24 / 24,3591428,2019-09-07 10:13:16:707,-0.5178,0.3134,9.4694,0.0208,-0.0154,9.8065,0.0054,0.0076,-0.0067,-30.12,-32.56,18.5,297.57,-79.46,-175.59
35873,52.409824,-1.579849,182.36,8.15,4.0,102.79,24 / 24,3591527,2019-09-07 10:13:16:806,-0.8724,0.9691,10.5925,0.0032,-0.0009,9.8066,0.1504,0.0948,-0.0576,-30.75,-32.62,18.06,295.5,-79.53,-175.46
35874,52.409824,-1.579849,182.36,8.15,4.0,102.79,24 / 24,3591627,2019-09-07 10:13:16:906,-0.3974,0.3214,10.3731,0.0476,-0.0085,9.8065,-0.2183,0.002,0.058,-30.81,-32.62,18.44,294.97,-79.8,-176.22
35875,52.409824,-1.579849,182.36,8.15,4.0,102.79,24 / 24,3591727,2019-09-07 10:13:17:006,-1.6449,1.3709,9.1744,0.0586,-0.0539,9.8063,-0.126,0.1293,-0.0954,-29.81,-32.25,17.81,296.24,-79.6,-175.72
35876,52.409824,-1.579849,182.36,8.15,4.0,102.79,24 / 24,3591827,2019-09-07 10:13:17:106,-2.9252,-0.5276,10.486,-0.0132,-0.004,9.8066,-0.0914,-0.001,0.0154,-30.31,-32.81,18.19,295.92,-80.0,-176.12
35877,52.409824,-1.579849,182.36,8.15,4.0,102.79,24 / 24,3591927,2019-09-07 10:13:17:206,-2.4302,1.753,9.4027,0.0091,0.0061,9.8066,-0.1056,0.0728,-0.0814,-30.31,-32.25,18.06,295.87,-80.0,-176.43
35878,52.409824,-1.579849,182.36,8.15,4.0,102.79,24 / 24,3592027,2019-09-07 10:13:17:306,-1.3597,1.2316,9.3582,-0.0354,0.0118,9.8065,0.1448,0.0717,-0.0317,-30.37,-32.19,18.31,295.42,-80.07,-176.92
35879,52.409824,-1.579849,182.36,8.15,4.0,102.79,24 / 24,3592127,2019-09-07 10:13:17:406,-1.2322,1.2778,9.3176,-0.0139,0.003,9.8066,0.033,0.103,-0.1057,-31.19,-32.06,17.5,294.6,-79.96,-176.97
35880,52.409824,-1.579849,182.36,8.15,4.0,102.79,24 / 24,3592227,2019-09-07 10:13:17:506,-1.4198,0.2709,9.4988,0.0031,-0.0077,9.8066,-0.0368,0.0567,0.0075,-30.94,-32.75,17.81,293.33,-79.94,-177.88
35881,52.409824,-1.579849,182.36,8.15,4.0,102.79,24 / 24,3592327,2019-09-07 10:13:17:606,-0.9079,1.5229,9.229,0.0062,0.0102,9.8066,-0.1619,0.0889,0.026,-30.94,-32.44,17.56,293.55,-79.95,-177.95
35882,52.409824,-1.579849,182.36,8.15,4.0,102.79,24 / 24,3592427,2019-09-07 10:13:17:706,-1.2749,0.577,9.5875,-0.0409,0.0053,9.8065,0.0468,0.013,0.0248,-30.25,-33.0,16.88,292.81,-80.09,-177.58
35883,52.409824,-1.579849,182.36,8.15,4.0,102.79,24 / 24,3592527,2019-09-07 10:13:17:806,-1.8448,-0.0689,10.5204,-0.0094,-0.0025,9.8065,-0.0102,0.0208,0.006,-31.12,-32.75,17.06,293.52,-80.39,-176.61
35884,52.409824,-1.579849,182.36,8.15,4.0,102.79,24 / 24,3592627,2019-09-07 10:13:17:906,-1.8405,1.0918,10.8046,0.0095,0.0006,9.8066,0.0504,0.1322,-0.0683,-30.69,-32.5,17.75,295.38,-80.35,-176.59
35885,52.409824,-1.579849,182.36,8.15,4.0,102.79,24 / 24,3592728,2019-09-07 10:13:18:007,-1.081,1.9422,9.7099,-0.0024,0.0041,9.8066,0.1083,0.1336,-0.065,-30.5,-32.56,17.63,294.99,-80.31,-177.29
35886,52.409824,-1.579849,182.36,8.15,4.0,102.79,24 / 24,3592828,2019-09-07 10:13:18:107,-1.0536,1.6575,9.3468,0.0126,0.0147,9.8065,0.2267,-0.0182,0.0446,-30.69,-33.06,17.31,292.77,-79.97,-176.92
35887,52.409824,-1.579849,182.36,8.15,4.0,102.79,24 / 24,3592927,2019-09-07 10:13:18:206,-1.0215,0.2489,9.9091,-0.0201,-0.0112,9.8066,0.2327,-0.0077,0.0911,-30.62,-32.5,17.63,294.49,-79.9,-177.02
35888,52.409824,-1.579849,182.36,8.15,4.0,102.79,24 / 24,3593027,2019-09-07 10:13:18:306,-1.2474,0.2529,10.0523,0.014,-0.0264,9.8065,-0.0113,0.0995,-0.0073,-30.5,-32.06,17.88,296.95,-79.77,-175.21
35889,52.409824,-1.579849,182.36,8.15,4.0,102.79,24 / 24,3593127,2019-09-07 10:13:18:406,-1.5279,0.085,10.2259,-0.0062,-0.0065,9.8066,-0.0251,0.1211,-0.0277,-30.69,-33.19,17.75,297.43,-79.73,-173.85
35890,52.409824,-1.579849,182.36,8.15,4.0,102.79,24 / 24,3593227,2019-09-07 10:13:18:506,-1.9608,2.3709,9.7288,-0.022,-0.004,9.8066,-0.0868,0.0968,0.0276,-30.81,-32.25,16.88,296.79,-80.16,-173.58
35891,52.409824,-1.579849,182.36,8.15,4.0,102.79,24 / 24,3593327,2019-09-07 10:13:18:606,-1.9308,1.4108,9.5335,0.0115,-0.0003,9.8066,-0.197,0.0897,-0.0337,-31.06,-32.69,17.13,297.37,-80.21,-172.82
35892,52.409824,-1.579849,182.36,8.15,4.0,102.79,24 / 24,3593428,2019-09-07 10:13:18:707,-2.1138,0.6033,9.1034,-0.0469,-0.0045,9.8064,0.1245,0.0242,0.0582,-30.81,-32.44,16.38,295.98,-80.24,-172.86
35893,52.409824,-1.579849,182.36,8.15,4.0,102.79,24 / 24,3593528,2019-09-07 10:13:18:807,-1.7378,0.3846,9.4297,-0.0381,0.0008,9.8065,-0.0433,0.0632,-0.0419,-31.37,-32.37,16.5,299.62,-80.32,-171.08
35894,52.409824,-1.579849,182.36,8.15,4.0,102.79,24 / 24,3593628,2019-09-07 10:13:18:907,-1.4019,-0.6674,9.9936,0.0042,-0.0085,9.8066,0.0674,-0.0067,-0.0035,-31.44,-32.69,17.13,299.34,-80.25,-171.03
35895,52.409824,-1.579849,182.36,8.15,4.0,102.79,24 / 24,3593727,2019-09-07 10:13:19:006,-1.2795,-0.0483,9.7108,-0.0089,0.0178,9.8066,0.0793,-0.0169,0.012,-31.31,-32.37,17.25,299.32,-80.28,-171.32
35896,52.409824,-1.579849,182.36,8.15,4.0,102.79,24 / 24,3593828,2019-09-07 10:13:19:107,-1.8648,-0.4287,9.7162,0.0139,-0.0139,9.8066,-0.0786,-0.0806,0.0376,-30.62,-32.37,17.25,300.02,-80.11,-170.53
35897,52.409824,-1.579849,182.36,8.15,4.0,102.79,24 / 24,3593928,2019-09-07 10:13:19:207,-1.71,-0.6338,9.7833,0.0058,-0.0094,9.8066,-0.0738,-0.0861,0.0526,-31.12,-32.06,17.75,302.46,-80.17,-169.83
35898,52.409824,-1.579849,182.36,8.15,4.0,102.79,24 / 24,3594027,2019-09-07 10:13:19:306,-2.2225,-0.9253,9.8441,-0.0226,-0.0001,9.8065,0.0165,-0.1431,0.034,-31.87,-31.94,18.06,302.83,-80.24,-168.94
35899,52.409824,-1.579849,182.36,8.15,4.0,102.79,24 / 24,3594127,2019-09-07 10:13:19:406,-2.4668,-0.8365,10.1507,-0.0105,0.0104,9.8066,-0.0494,-0.1675,-0.0233,-31.44,-32.25,18.69,305.74,-80.4,-168.47
35900,52.409824,-1.579849,182.36,8.15,4.0,102.79,24 / 24,3594227,2019-09-07 10:13:19:506,-2.3147,-0.9264,10.1535,0.02,0.0127,9.8066,0.0179,-0.2483,0.0266,-30.75,-31.75,19.13,304.57,-80.54,-169.66
35901,52.409824,-1.579849,182.36,8.15,4.0,102.79,24 / 24,3594327,2019-09-07 10:13:19:606,-1.8408,-0.7426,9.5633,0.0122,0.0229,9.8066,0.0333,-0.2464,-0.0347,-30.62,-32.31,19.75,303.52,-80.51,-172.03
35902,52.409824,-1.579849,182.36,8.15,4.0,102.79,24 / 24,3594427,2019-09-07 10:13:19:706,-1.9338,-0.1916,8.8572,0.0104,0.0215,9.8066,-0.1322,-0.2283,-0.0706,-31.19,-32.25,20.25,300.82,-80.52,-174.54
35903,52.409824,-1.579849,182.36,8.15,4.0,102.79,24 / 24,3594527,2019-09-07 10:13:19:806,-2.0391,-0.5456,9.4463,0.023,0.0145,9.8066,-0.0375,-0.3031,0.0334,-30.44,-32.12,20.5,301.36,-80.62,-176.24
35904,52.409824,-1.579849,182.36,8.15,4.0,102.79,24 / 24,3594628,2019-09-07 10:13:19:907,-1.6857,0.1483,9.3535,-0.0041,-0.0017,9.8066,-0.0368,-0.3802,0.136,-30.81,-32.12,21.69,301.28,-80.73,-177.02
35905,52.409824,-1.579849,182.36,8.15,4.0,102.79,24 / 24,3594727,2019-09-07 10:13:20:006,-2.8147,-1.6554,10.0493,-0.0014,-0.0333,9.8066,-0.0231,-0.3525,0.0315,-30.87,-32.06,22.69,304.77,-80.69,-175.06
35906,52.409824,-1.579849,182.36,8.15,4.0,102.79,24 / 24,3594832,2019-09-07 10:13:20:111,-2.9285,-1.8343,9.6348,-0.0129,0.0042,9.8066,-0.0447,-0.4051,0.0651,-30.69,-31.62,24.44,306.8,-80.72,-174.48
35907,52.409824,-1.579849,182.36,8.15,4.0,102.79,24 / 24,3594927,2019-09-07 10:13:20:206,-3.242,-1.5192,9.7707,-0.0145,0.0125,9.8066,-0.0079,-0.401,0.0723,-30.37,-31.75,25.19,309.42,-80.99,-174.31
35908,52.409824,-1.579849,182.36,8.15,4.0,102.79,24 / 24,3595028,2019-09-07 10:13:20:307,-3.8281,-0.9844,9.1621,-0.004,0.0536,9.8064,-0.0968,-0.4478,-0.1969,-29.62,-32.19,25.69,307.77,-81.35,-177.29
35909,52.409824,-1.579849,182.36,8.15,4.0,102.79,24 / 24,3595127,2019-09-07 10:13:20:406,-2.0998,-0.1078,9.8483,0.0112,0.0794,9.8062,-0.0946,-0.5428,0.0403,-28.44,-32.19,24.69,301.41,-81.59,176.09
35910,52.409824,-1.579849,182.36,8.15,4.0,102.79,24 / 24,3595227,2019-09-07 10:13:20:506,-0.9788,-0.2451,9.5845,-0.0251,0.0174,9.8066,0.0775,-0.5702,0.0537,-27.87,-31.87,25.94,301.43,-81.36,175.05
35911,52.409824,-1.579849,182.36,8.15,4.0,102.79,24 / 24,3595327,2019-09-07 10:13:20:606,-1.6144,-0.0692,8.5699,-0.0361,0.0058,9.8065,0.037,-0.4618,0.0389,-26.75,-31.37,26.63,304.82,-81.46,175.84
35912,52.409824,-1.579849,182.36,8.15,4.0,102.79,24 / 24,3595427,2019-09-07 10:13:20:706,-2.3219,-1.2626,9.4409,-0.0028,-0.0196,9.8066,0.0371,-0.5331,0.1825,-26.5,-31.5,27.25,306.97,-81.35,176.95
35913,52.409824,-1.579849,182.36,8.15,4.0,102.79,24 / 24,3595527,2019-09-07 10:13:20:806,-3.2134,-0.9984,9.8215,-0.0227,-0.0008,9.8065,0.0136,-0.5508,0.0804,-25.81,-31.62,28.06,310.41,-81.53,179.02
35914,52.409824,-1.579849,182.36,8.15,4.0,102.79,24 / 24,3595627,2019-09-07 10:13:20:906,-2.8473,-0.9178,10.2019,-0.0062,0.0207,9.8065,-0.0679,-0.5322,-0.0338,-25.44,-32.12,27.56,311.56,-81.91,178.79
35915,52.409824,-1.579849,182.36,8.15,4.0,102.79,24 / 24,3595727,2019-09-07 10:13:21:006,-1.3361,0.5867,9.7753,-0.0024,0.0369,9.8065,-0.1054,-0.5016,0.0398,-24.06,-31.37,27.69,310.65,-82.18,176.52
35916,52.409824,-1.579849,182.36,8.15,4.0,102.79,24 / 24,3595828,2019-09-07 10:13:21:107,-1.6884,0.2412,10.3165,-0.013,0.0012,9.8066,0.051,-0.52,0.0626,-23.56,-31.25,27.38,308.56,-82.39,175.56
35917,52.409824,-1.579849,182.36,8.15,4.0,102.79,24 / 24,3595928,2019-09-07 10:13:21:207,-1.4539,-0.0662,9.7933,-0.0082,0.0115,9.8066,0.0268,-0.5189,0.0348,-23.19,-30.94,28.25,311.51,-82.54,175.95
35918,52.409824,-1.579849,182.36,8.15,4.0,102.79,24 / 24,3596027,2019-09-07 10:13:21:306,-2.0049,-0.0071,10.0756,0.0016,-0.0109,9.8066,-0.07,-0.4775,0.0768,-22.25,-31.12,29.25,314.18,-82.61,176.13
35919,52.409824,-1.579849,182.36,8.15,4.0,102.79,24 / 24,3596128,2019-09-07 10:13:21:407,-2.3888,0.154,9.6871,-0.0088,0.0207,9.8065,-0.0621,-0.5316,0.1128,-22.62,-31.62,28.75,312.72,-82.84,175.92
35920,52.409824,-1.579849,182.36,8.15,4.0,102.79,24 / 24,3596227,2019-09-07 10:13:21:506,-1.6318,0.0973,9.6495,-0.0124,0.0056,9.8065,-0.081,-0.4595,0.01,-21.75,-32.12,29.0,314.9,-83.21,176.52
35921,52.409824,-1.579849,182.36,8.15,4.0,102.79,24 / 24,3596327,2019-09-07 10:13:21:606,-1.4663,0.6686,9.9464,0.0015,-0.0008,9.8066,-0.0208,-0.4513,0.0468,-21.62,-31.81,28.63,315.11,-83.35,176.62
35922,52.409824,-1.579849,182.36,8.15,4.0,102.79,24 / 24,3596427,2019-09-07 10:13:21:706,-1.461,0.5797,10.0074,0.0022,0.0062,9.8066,-0.0077,-0.3851,0.0154,-20.87,-31.5,28.94,315.96,-83.46,176.0
35923,52.409824,-1.579849,182.36,8.15,4.0,102.79,24 / 24,3596527,2019-09-07 10:13:21:806,-1.1358,0.665,9.7883,0.0077,0.0036,9.8065,-0.0056,-0.4057,0.051,-20.0,-31.69,29.63,317.1,-83.5,174.9
35924,52.409824,-1.579849,182.36,8.15,4.0,102.79,24 / 24,3596627,2019-09-07 10:13:21:906,-0.4386,1.1427,9.8139,0.002,0.0027,9.8066,0.001,-0.3332,-0.0259,-20.12,-31.69,29.75,316.68,-83.5,174.51
35925,52.409824,-1.579849,182.36,8.15,4.0,102.79,24 / 24,3596727,2019-09-07 10:13:22:006,-0.7906,1.0493,9.9275,0.0024,0.0085,9.8066,0.0062,-0.3363,0.0143,-19.19,-31.87,30.31,316.99,-83.55,173.49
35926,52.409824,-1.579849,182.36,8.15,4.0,102.79,24 / 24,3596827,2019-09-07 10:13:22:106,-0.3614,1.528,9.9145,-0.0058,0.0022,9.8066,0.0219,-0.2753,0.0529,-19.0,-31.5,31.38,318.15,-83.66,173.44
35927,52.409824,-1.579849,182.36,8.15,4.0,102.79,24 / 24,3596927,2019-09-07 10:13:22:206,-0.731,1.24,9.6178,-0.0082,-0.0044,9.8065,0.0066,-0.2827,0.0636,-19.37,-30.87,31.94,320.33,-83.7,174.55
35928,52.409824,-1.579849,182.36,8.15,4.0,102.79,24 / 24,3597028,2019-09-07 10:13:22:307,-0.671,1.4537,9.7943,-0.007,-0.0107,9.8066,-0.0226,-0.2044,-0.0061,-18.94,-31.44,32.56,323.01,-83.71,176.19
35929,52.40972,-1.579196,182.59,1.63,3.0,171.27,24 / 24,3597127,2019-09-07 10:13:22:406,-0.7527,1.346,9.9595,0.0089,-0.008,9.8066,-0.0348,-0.1818,0.0138,-18.56,-31.37,31.81,323.17,-83.68,177.2
35930,52.40972,-1.579196,182.59,1.63,3.0,171.27,24 / 24,3597227,2019-09-07 10:13:22:506,-0.7604,1.7531,10.0659,-0.0063,0.0041,9.8066,0.0038,-0.1419,0.0351,-18.5,-30.81,33.19,325.52,-83.58,177.3
35931,52.40972,-1.579196,182.59,1.63,3.0,171.27,24 / 24,3597327,2019-09-07 10:13:22:606,-0.6152,1.7677,9.9063,-0.0108,0.0028,9.8066,0.0033,-0.1147,0.0029,-18.06,-31.25,32.94,326.46,-83.63,178.14
35932,52.40972,-1.579196,182.59,1.63,3.0,171.27,24 / 24,3597427,2019-09-07 10:13:22:706,-0.3686,1.734,9.7081,0.0002,-0.0066,9.8066,0.0016,-0.0637,0.0181,-17.81,-30.5,33.0,327.18,-83.64,178.7
35933,52.40972,-1.579196,182.59,1.63,3.0,171.27,24 / 24,3597527,2019-09-07 10:13:22:806,-0.5714,1.7554,9.8536,-0.0045,-0.0075,9.8066,0.0139,-0.0537,0.0212,-17.44,-31.62,33.13,329.13,-83.68,179.33
35934,52.40972,-1.579196,182.59,1.63,3.0,171.27,24 / 24,3597627,2019-09-07 10:13:22:906,-0.5705,1.6559,9.9649,-0.0085,-0.0053,9.8066,-0.0143,-0.0354,-0.008,-17.12,-31.19,33.25,330.23,-83.7,-179.76
35935,52.40972,-1.579196,182.59,1.63,3.0,171.27,24 / 24,3597727,2019-09-07 10:13:23:006,-0.4181,1.4402,9.9539,-0.003,-0.0067,9.8066,-0.0139,-0.0071,-0.0057,-17.44,-31.0,32.69,331.62,-83.68,-178.47
35936,52.40972,-1.579196,182.59,1.63,3.0,171.27,24 / 24,3597827,2019-09-07 10:13:23:106,0.3575,0.201,9.8821,-0.0059,-0.0049,9.8066,0.0001,0.0187,0.0185,-17.5,-30.56,33.0,332.13,-83.69,-178.01
35937,52.40972,-1.579196,182.59,1.63,3.0,171.27,24 / 24,3597928,2019-09-07 10:13:23:207,0.0118,-0.587,9.8951,-0.0106,-0.0156,9.8066,0.0157,-0.0072,0.056,-17.62,-31.31,32.75,332.86,-83.64,-175.99
35938,52.40972,-1.579196,182.59,1.63,3.0,171.27,24 / 24,3598027,2019-09-07 10:13:23:306,0.1928,-0.5205,9.6217,-0.0079,-0.0065,9.8066,0.012,-0.0089,0.0013,-17.56,-31.25,33.13,335.02,-83.49,-173.97
35939,52.40972,-1.579196,182.59,1.63,3.0,171.27,24 / 24,3598129,2019-09-07 10:13:23:408,-0.1024,-0.1225,9.3765,-0.0048,0.0016,9.8066,-0.0083,0.0042,-0.026,-17.44,-31.12,33.38,337.05,-83.45,-173.43
35940,52.40972,-1.579196,182.59,1.63,3.0,171.27,24 / 24,3598227,2019-09-07 10:13:23:506,-0.0242,-0.1496,10.1101,-0.0008,0.0,9.8066,0.0168,0.003,0.0084,-17.25,-30.94,33.5,338.01,-83.47,-173.31
35941,52.40972,-1.579196,182.59,1.63,3.0,171.27,24 / 24,3598327,2019-09-07 10:13:23:606,0.0698,0.093,9.9965,-0.0027,0.0008,9.8066,-0.0046,0.0083,-0.0005,-17.44,-31.5,33.31,337.32,-83.48,-173.2
35942,52.40972,-1.579196,182.59,1.63,3.0,171.27,24 / 24,3598427,2019-09-07 10:13:23:706,0.212,0.0036,9.9368,-0.0031,-0.0005,9.8066,0.0006,-0.0086,-0.0095,-17.62,-30.94,33.44,336.49,-83.5,-172.63
35943,52.40972,-1.579196,182.59,1.63,3.0,171.27,24 / 24,3598527,2019-09-07 10:13:23:806,0.1422,0.0727,9.8391,-0.0049,-0.0021,9.8066,0.0156,0.0002,0.0234,-17.44,-31.06,33.19,338.53,-83.52,-172.11
35944,52.40972,-1.579196,182.59,1.63,3.0,171.27,24 / 24,3598627,2019-09-07 10:13:23:906,0.2159,-0.0708,9.7805,-0.0049,-0.0011,9.8066,-0.0127,0.0161,-0.0091,-17.44,-31.19,33.44,339.2,-83.5,-171.5
35945,52.40972,-1.579196,182.59,1.63,3.0,171.27,24 / 24,3598727,2019-09-07 10:13:24:006,0.1011,-0.1049,9.8499,-0.0059,0.0017,9.8066,0.0118,-0.0042,-0.0008,-17.37,-31.19,33.13,340.05,-83.52,-170.73
35946,52.40972,-1.579196,182.59,1.63,3.0,171.27,24 / 24,3598827,2019-09-07 10:13:24:106,0.226,0.0909,9.8299,-0.0028,-0.0034,9.8066,-0.0071,-0.0092,-0.0054,-17.94,-30.37,33.31,339.07,-83.53,-170.36
35947,52.40972,-1.579196,182.59,1.63,3.0,171.27,24 / 24,3598928,2019-09-07 10:13:24:207,0.2925,-0.0966,9.8053,-0.0049,0.0008,9.8066,0.0146,-0.0078,-0.0023,-17.62,-31.56,33.44,339.73,-83.53,-169.63
35948,52.40972,-1.579196,182.59,1.63,3.0,171.27,24 / 24,3599028,2019-09-07 10:13:24:307,0.1139,-0.0987,9.8056,-0.0042,-0.0041,9.8066,-0.0178,0.0135,-0.0013,-17.5,-30.81,33.5,342.82,-83.51,-168.95
35949,52.40972,-1.579196,182.59,1.63,3.0,171.27,24 / 24,3599127,2019-09-07 10:13:24:406,0.0842,-0.0136,9.8614,-0.0037,0.0005,9.8066,0.0114,0.0109,0.0007,-17.44,-31.12,33.31,342.55,-83.53,-168.48
35950,52.40972,-1.579196,182.59,1.63,3.0,171.27,24 / 24,3599227,2019-09-07 10:13:24:506,0.3905,0.0229,9.8528,-0.0059,-0.002,9.8066,-0.0124,-0.0002,0.0005,-17.5,-31.56,33.06,342.99,-83.52,-168.02
35951,52.40972,-1.579196,182.59,1.63,3.0,171.27,24 / 24,3599327,2019-09-07 10:13:24:606,0.2144,-0.0252,9.7649,-0.008,0.001,9.8066,0.0115,-0.0128,-0.0078,-17.81,-31.37,33.5,343.56,-83.54,-166.97
35952,52.40972,-1.579196,182.59,1.63,3.0,171.27,24 / 24,3599427,2019-09-07 10:13:24:706,0.17,0.1164,9.9143,-0.0052,-0.002,9.8066,-0.0048,-0.0061,0.0,-17.31,-31.31,33.88,345.63,-83.54,-166.41
35953,52.40972,-1.579196,182.59,1.63,3.0,171.27,24 / 24,3599527,2019-09-07 10:13:24:806,0.3308,0.0377,9.8921,-0.0044,-0.0007,9.8066,-0.0002,0.015,-0.0086,-17.25,-31.12,32.5,345.73,-83.53,-165.6
35954,52.40972,-1.579196,182.59,1.63,3.0,171.27,24 / 24,3599627,2019-09-07 10:13:24:906,0.3088,0.0701,9.7664,-0.0051,-0.0002,9.8066,-0.0075,0.0142,0.0081,-17.94,-31.19,33.38,344.94,-83.55,-164.97
35955,52.40972,-1.579196,182.59,1.63,3.0,171.27,24 / 24,3599727,2019-09-07 10:13:25:006,0.2426,0.1356,9.9289,-0.0048,-0.002,9.8066,-0.0073,0.0044,-0.0019,-17.5,-31.31,32.63,347.01,-83.53,-164.44
35956,52.40972,-1.579196,182.59,1.63,3.0,171.27,24 / 24,3599828,2019-09-07 10:13:25:107,0.3035,0.0797,9.9524,-0.0038,-0.0028,9.8066,0.0006,-0.0174,0.0017,-17.25,-31.06,33.69,348.41,-83.54,-163.9
35957,52.40972,-1.579196,182.59,1.63,3.0,171.27,24 / 24,3599928,2019-09-07 10:13:25:207,0.3275,0.0629,9.7782,-0.0049,-0.0007,9.8066,0.0015,-0.0041,-0.0146,-17.69,-31.06,33.25,346.96,-83.53,-163.15
35958,52.40972,-1.579196,182.59,1.63,3.0,171.27,24 / 24,3600027,2019-09-07 10:13:25:306,0.3003,0.0836,9.9179,-0.002,-0.0024,9.8066,-0.0027,0.0059,0.0046,-17.31,-31.12,32.94,348.82,-83.53,-162.81
35959,52.40972,-1.579196,182.59,1.63,3.0,171.27,24 / 24,3600127,2019-09-07 10:13:25:406,0.351,0.1077,9.9182,-0.0051,-0.001,9.8066,-0.0052,0.0186,0.0012,-17.87,-31.44,33.13,347.95,-83.52,-162.25
35960,52.40972,-1.579196,182.59,1.63,3.0,171.27,24 / 24,3600227,2019-09-07 10:13:25:506,0.2485,0.0669,9.7645,-0.0042,-0.0014,9.8066,-0.0077,0.0029,0.0051,-18.06,-31.31,33.25,348.63,-83.52,-161.64
35961,52.40972,-1.579196,182.59,1.63,3.0,171.27,24 / 24,3600327,2019-09-07 10:13:25:606,0.2388,0.0509,9.908,-0.0032,-0.0016,9.8066,-0.0068,-0.0003,-0.0121,-17.62,-31.19,33.19,349.05,-83.5,-161.26
35962,52.40972,-1.579196,182.59,1.63,3.0,171.27,24 / 24,3600427,2019-09-07 10:13:25:706,0.388,0.1041,9.9619,-0.0015,-0.0013,9.8066,0.0003,-0.0175,-0.0027,-17.12,-31.44,33.13,350.82,-83.5,-161.01
35963,52.40972,-1.579196,182.59,1.63,3.0,171.27,24 / 24,3600527,2019-09-07 10:13:25:806,0.3989,0.1218,9.7801,-0.0034,-0.0016,9.8066,0.0034,-0.0085,-0.0101,-18.0,-31.31,33.13,349.73,-83.49,-160.64
35964,52.40972,-1.579196,182.59,1.63,3.0,171.27,24 / 24,3600628,2019-09-07 10:13:25:907,0.2776,0.1775,9.8412,-0.0008,-0.004,9.8066,-0.01,-0.0054,0.0007,-17.75,-30.81,33.69,350.97,-83.48,-160.25
35965,52.40972,-1.579196,182.59,1.63,3.0,171.27,24 / 24,3600728,2019-09-07 10:13:26:007,0.4431,0.0023,9.8624,-0.0038,0.0003,9.8066,0.0036,0.0083,0.001,-17.62,-31.19,33.56,351.41,-83.46,-159.85
35966,52.40972,-1.579196,182.59,1.63,3.0,171.27,24 / 24,3600827,2019-09-07 10:13:26:106,0.3876,-0.0076,9.78,-0.0024,-0.0028,9.8066,-0.0108,0.0049,0.0063,-17.69,-31.19,33.38,350.99,-83.45,-159.5
35967,52.40972,-1.579196,182.59,1.63,3.0,171.27,24 / 24,3600928,2019-09-07 10:13:26:207,0.3918,0.2206,9.8499,-0.0001,-0.0009,9.8066,-0.0014,0.0175,-0.0059,-17.81,-31.37,33.63,351.95,-83.45,-159.36
35968,52.40972,-1.579196,182.59,1.63,3.0,171.27,24 / 24,3601027,2019-09-07 10:13:26:306,0.3565,0.21,9.9445,-0.0037,-0.0003,9.8066,-0.0104,-0.0006,-0.0001,-17.81,-31.12,33.81,352.03,-83.44,-159.29
35969,52.40972,-1.579196,182.59,1.63,3.0,171.27,24 / 24,3601127,2019-09-07 10:13:26:406,0.3884,0.0536,9.7685,-0.0027,0.0005,9.8066,0.0116,-0.009,-0.0083,-17.81,-31.25,33.31,351.75,-83.44,-158.81
35970,52.40972,-1.579196,182.59,1.63,3.0,171.27,24 / 24,3601227,2019-09-07 10:13:26:506,0.4623,-0.102,9.8592,-0.0006,-0.0019,9.8066,-0.0098,-0.0115,-0.0072,-17.06,-31.5,33.38,353.27,-83.43,-158.79
35971,52.40972,-1.579196,182.59,1.63,3.0,171.27,24 / 24,3601327,2019-09-07 10:13:26:606,0.3897,0.1879,9.9432,-0.0024,0.0013,9.8066,0.0195,-0.0061,-0.0079,-17.56,-31.12,33.06,352.05,-83.43,-158.54
35972,52.40972,-1.579196,182.59,1.63,3.0,171.27,24 / 24,3601427,2019-09-07 10:13:26:706,0.4505,0.0425,9.7097,-0.0009,-0.0015,9.8066,-0.0218,0.0064,-0.0033,-17.75,-30.81,33.56,352.86,-83.42,-158.54
35973,52.40972,-1.579196,182.59,1.63,3.0,171.27,24 / 24,3601527,2019-09-07 10:13:26:806,0.5854,-0.1604,9.7398,-0.004,0.0047,9.8066,0.0349,-0.0016,0.0022,-17.25,-31.19,33.38,353.81,-83.44,-158.3
35974,52.40972,-1.579196,182.59,1.63,3.0,171.27,24 / 24,3601627,2019-09-07 10:13:26:906,0.4718,-0.0061,9.7463,-0.0022,0.003,9.8066,0.0031,0.0185,0.0042,-17.75,-30.75,33.5,353.02,-83.39,-158.39
35975,52.40972,-1.579196,182.59,1.63,3.0,171.27,24 / 24,3601727,2019-09-07 10:13:27:006,0.2608,0.0465,9.6858,0.0009,0.0033,9.8066,0.0068,-0.0008,0.0192,-18.5,-31.19,34.69,353.92,-83.46,-158.28
35976,52.40972,-1.579196,182.59,1.63,3.0,171.27,24 / 24,3601827,2019-09-07 10:13:27:106,0.3089,0.4217,9.8794,-0.0035,0.0068,9.8066,0.0102,0.0029,-0.0116,-19.19,-30.75,35.19,352.44,-83.45,-158.35
35977,52.40972,-1.579196,182.59,1.63,3.0,171.27,24 / 24,3601928,2019-09-07 10:13:27:207,0.1724,0.7796,9.8403,-0.0005,0.0045,9.8066,0.001,0.0238,-0.0227,-19.62,-31.06,35.94,352.01,-83.52,-158.21
35978,52.40972,-1.579196,182.59,1.63,3.0,171.27,24 / 24,3602028,2019-09-07 10:13:27:307,0.4947,0.1924,9.8759,0.0015,-0.0003,9.8066,-0.0032,0.0035,0.0152,-19.44,-30.56,36.38,353.16,-83.55,-158.39
35979,52.40972,-1.579196,182.59,1.63,3.0,171.27,24 / 24,3602127,2019-09-07 10:13:27:406,0.1201,0.7548,9.7926,0.0007,-0.004,9.8065,-0.0275,0.0216,-0.0089,-19.62,-30.94,36.13,351.91,-83.54,-158.3
35980,52.40972,-1.579196,182.59,1.63,3.0,171.27,24 / 24,3602227,2019-09-07 10:13:27:506,0.168,0.8544,9.8902,-0.0014,0.0049,9.8066,0.0245,0.0235,0.0245,-19.25,-30.81,36.06,353.4,-83.59,-158.18
35981,52.40972,-1.579196,182.59,1.63,3.0,171.27,24 / 24,3602327,2019-09-07 10:13:27:606,0.2518,0.1417,9.8282,-0.0021,-0.0008,9.8066,-0.0114,0.0111,-0.001,-19.44,-31.25,36.06,353.57,-83.57,-158.02
35982,52.40972,-1.579196,182.59,1.63,3.0,171.27,24 / 24,3602427,2019-09-07 10:13:27:706,-0.0035,0.6651,9.8297,-0.0017,0.0033,9.8066,0.002,0.0147,-0.0168,-19.12,-31.12,35.75,353.74,-83.59,-157.86
35983,52.40972,-1.579196,182.59,1.63,3.0,171.27,24 / 24,3602527,2019-09-07 10:13:27:806,0.1351,0.2982,9.7877,0.0,0.003,9.8066,0.0084,0.0077,0.0221,-19.12,-30.69,34.81,352.94,-83.63,-157.91
35984,52.40972,-1.579196,182.59,1.63,3.0,171.27,24 / 24,3602628,2019-09-07 10:13:27:907,0.1743,0.4889,9.9127,-0.0048,0.0031,9.8065,0.0067,0.008,-0.0023,-18.87,-30.69,34.19,352.39,-83.62,-157.7
35985,52.40972,-1.579196,182.59,1.63,3.0,171.27,24 / 24,3602727,2019-09-07 10:13:28:006,0.0125,0.6601,9.8542,-0.0027,0.0041,9.8066,-0.0014,0.0022,-0.0199,-19.0,-30.69,34.13,352.95,-83.66,-157.19
35986,52.40972,-1.579196,182.59,1.63,3.0,171.27,24 / 24,3602827,2019-09-07 10:13:28:106,0.1155,0.4437,9.9483,-0.0007,0.0009,9.8066,0.0051,0.0105,0.0132,-19.56,-30.94,34.81,352.3,-83.71,-157.26
35987,52.40972,-1.579196,182.59,1.63,3.0,171.27,24 / 24,3602927,2019-09-07 10:13:28:206,0.1942,0.0668,9.9632,0.0008,0.0019,9.8066,0.0042,-0.0083,0.0182,-19.69,-31.31,34.88,352.29,-83.75,-157.28
35988,52.40972,-1.579196,182.59,1.63,3.0,171.27,24 / 24,3603027,2019-09-07 10:13:28:306,0.23,0.4267,9.7326,0.0008,0.0022,9.8066,-0.0104,-0.0224,0.0087,-19.62,-31.37,34.5,352.25,-83.78,-157.32
35989,52.40972,-1.579196,182.59,1.63,3.0,171.27,24 / 24,3603127,2019-09-07 10:13:28:406,0.0477,0.4681,9.8954,-0.0035,-0.0008,9.8066,-0.0249,-0.0418,-0.0155,-19.5,-31.5,34.38,353.19,-83.81,-156.99
35990,52.40972,-1.579196,182.59,1.63,3.0,171.27,24 / 24,3603227,2019-09-07 10:13:28:506,0.0934,-0.3209,9.8707,-0.0032,0.0094,9.8066,0.0039,-0.0332,0.0167,-19.62,-31.62,35.0,352.84,-83.9,-156.77
35991,52.40972,-1.579196,182.59,1.63,3.0,171.27,24 / 24,3603328,2019-09-07 10:13:28:607,-0.0549,0.271,9.8172,-0.0022,0.0095,9.8066,-0.0027,-0.0413,0.0202,-19.12,-31.06,35.06,354.14,-83.96,-156.86
35992,52.40972,-1.579196,182.59,1.63,3.0,171.27,24 / 24,3603427,2019-09-07 10:13:28:706,0.1443,0.0517,9.8132,0.0003,0.0027,9.8066,0.0119,-0.0763,-0.0019,-19.19,-31.0,34.75,353.81,-84.0,-157.16
35993,52.40972,-1.579196,182.59,1.63,3.0,171.27,24 / 24,3603527,2019-09-07 10:13:28:806,-0.0082,0.0429,9.9257,0.0011,0.0063,9.8066,0.0035,-0.0664,-0.0347,-18.5,-31.25,35.13,355.0,-84.05,-157.35
35994,52.40972,-1.579196,182.59,1.63,3.0,171.27,24 / 24,3603628,2019-09-07 10:13:28:907,-0.0691,0.2181,9.9663,0.0052,-0.0002,9.8066,-0.0029,-0.0956,0.0246,-18.06,-30.81,34.19,353.57,-84.09,-157.97
35995,52.40972,-1.579196,182.59,1.63,3.0,171.27,24 / 24,3603727,2019-09-07 10:13:29:006,0.1372,0.0668,9.8807,0.0036,0.0024,9.8066,-0.0102,-0.1087,0.0235,-17.37,-31.37,34.31,354.29,-84.12,-158.64
35996,52.40972,-1.579196,182.59,1.63,3.0,171.27,24 / 24,3603827,2019-09-07 10:13:29:106,0.133,0.3108,9.8739,0.0004,0.0028,9.8066,0.002,-0.123,-0.0131,-16.56,-31.25,33.56,354.11,-84.15,-158.8
35997,52.40972,-1.579196,182.59,1.63,3.0,171.27,24 / 24,3603927,2019-09-07 10:13:29:206,0.3951,-0.2911,9.7966,0.002,0.008,9.8066,0.0295,-0.1369,0.0243,-15.87,-31.37,34.19,355.22,-84.19,-159.15
35998,52.40972,-1.579196,182.59,1.63,3.0,171.27,24 / 24,3604027,2019-09-07 10:13:29:306,0.2352,0.1361,9.6469,0.0005,-0.0034,9.8066,-0.0112,-0.1559,0.0251,-16.37,-30.75,34.5,355.3,-84.17,-159.72
35999,52.40972,-1.579196,182.59,1.63,3.0,171.27,24 / 24,3604127,2019-09-07 10:13:29:406,-0.1703,-0.1401,10.0022,-0.0033,-0.0021,9.8066,0.0014,-0.1723,-0.0042,-16.25,-30.94,34.69,355.56,-84.12,-159.48
36000,52.40972,-1.579196,182.59,1.63,3.0,171.27,24 / 24,3604227,2019-09-07 10:13:29:506,0.0097,-0.0076,9.744,0.0093,-0.0056,9.8066,0.0406,-0.1871,0.0634,-15.31,-31.0,33.75,356.12,-84.08,-159.72
36001,52.40972,-1.579196,182.59,1.63,3.0,171.27,24 / 24,3604327,2019-09-07 10:13:29:606,-0.0602,0.3859,9.7913,0.0037,-0.0096,9.8066,0.0243,-0.1804,0.0228,-14.75,-31.75,33.31,354.35,-83.95,-160.65
36002,52.40972,-1.579196,182.59,1.63,3.0,171.27,24 / 24,3604428,2019-09-07 10:13:29:707,0.5036,0.1076,9.9954,0.0139,-0.0085,9.8066,-0.0156,-0.1887,-0.0183,-14.12,-31.19,33.31,354.35,-83.81,-162.1
36003,52.40972,-1.579196,182.59,1.63,3.0,171.27,24 / 24,3604528,2019-09-07 10:13:29:807,0.2708,0.3875,9.7971,0.0103,-0.0053,9.8066,0.0158,-0.2257,0.0135,-13.06,-31.19,33.44,354.79,-83.78,-163.19
36004,52.40972,-1.579196,182.59,1.63,3.0,171.27,24 / 24,3604627,2019-09-07 10:13:29:906,0.7002,-0.0428,9.9889,0.0095,-0.0007,9.8065,0.0098,-0.2017,0.0171,-13.12,-31.0,32.25,353.25,-83.76,-163.94
36005,52.40972,-1.579196,182.59,1.63,3.0,171.27,24 / 24,3604727,2019-09-07 10:13:30:006,0.6721,-0.1478,9.8905,0.0035,0.001,9.8066,0.0159,-0.1896,0.0283,-12.06,-31.75,32.44,353.9,-83.75,-164.89
36006,52.40972,-1.579196,182.59,1.63,3.0,171.27,24 / 24,3604827,2019-09-07 10:13:30:106,0.6866,0.0692,9.759,0.0047,-0.0057,9.8066,-0.0447,-0.227,0.0099,-12.0,-31.31,32.31,353.29,-83.76,-165.45
36007,52.40972,-1.579196,182.59,1.63,3.0,171.27,24 / 24,3604928,2019-09-07 10:13:30:207,0.686,0.0935,9.8855,0.004,-0.0139,9.8066,-0.0302,-0.2018,0.0228,-11.19,-31.37,32.38,354.69,-83.72,-165.77
36008,52.40972,-1.579196,182.59,1.63,3.0,171.27,24 / 24,3605028,2019-09-07 10:13:30:307,0.3662,0.226,9.6799,-0.0058,0.0018,9.8066,0.0211,-0.2219,0.0159,-10.69,-32.12,31.94,355.07,-83.72,-165.42
36009,52.40972,-1.579196,182.59,1.63,3.0,171.27,24 / 24,3605127,2019-09-07 10:13:30:406,0.7937,0.0962,9.8374,0.0049,-0.0023,9.8066,0.0001,-0.1955,-0.0073,-10.75,-31.5,31.88,354.84,-83.66,-165.63
36010,52.40972,-1.579196,182.59,1.63,3.0,171.27,24 / 24,3605227,2019-09-07 10:13:30:506,0.7917,0.0298,9.7359,0.0026,-0.0098,9.8066,0.0161,-0.1993,0.0743,-9.94,-31.87,32.19,355.89,-83.59,-166.3
36011,52.40972,-1.579196,182.59,1.63,3.0,171.27,24 / 24,3605328,2019-09-07 10:13:30:607,0.76,0.3131,9.9488,-0.0052,-0.0056,9.8066,-0.0017,-0.2158,0.0617,-10.12,-32.37,31.69,356.27,-83.45,-165.94
36012,52.40972,-1.579196,182.59,1.63,3.0,171.27,24 / 24,3605427,2019-09-07 10:13:30:706,0.3504,-0.1244,9.9018,-0.004,-0.0017,9.8066,-0.0297,-0.2138,-0.0105,-9.19,-31.56,31.44,358.31,-83.44,-165.3
36013,52.40972,-1.579196,182.59,1.63,3.0,171.27,24 / 24,3605527,2019-09-07 10:13:30:806,0.1622,0.1882,9.8385,0.0014,-0.0041,9.8066,-0.0188,-0.2071,0.0274,-9.0,-31.87,31.81,359.18,-83.43,-165.02
36014,52.40972,-1.579196,182.59,1.63,3.0,171.27,24 / 24,3605627,2019-09-07 10:13:30:906,0.2372,0.109,9.7915,0.0028,-0.0045,9.8065,-0.0049,-0.1788,0.0275,-8.25,-31.5,32.0,0.52,-83.4,-165.5
36015,52.40972,-1.579196,182.59,1.63,3.0,171.27,24 / 24,3605728,2019-09-07 10:13:31:007,0.5445,0.0393,9.7991,0.0072,-0.0032,9.8066,-0.0114,-0.2022,0.0225,-7.94,-31.56,31.63,359.76,-83.38,-166.18
36016,52.40972,-1.579196,182.59,1.63,3.0,171.27,24 / 24,3605828,2019-09-07 10:13:31:107,0.4045,0.3007,9.8647,0.0039,-0.0018,9.8066,-0.0115,-0.2053,-0.0018,-7.75,-31.75,31.44,358.95,-83.39,-166.45
36017,52.40972,-1.579196,182.59,1.63,3.0,171.27,24 / 24,3605927,2019-09-07 10:13:31:206,0.8615,0.1483,9.9911,0.0038,0.0009,9.8066,0.0125,-0.2151,0.0253,-7.12,-31.25,31.44,0.35,-83.4,-166.97
36018,52.40972,-1.579196,182.59,1.63,3.0,171.27,24 / 24,3606027,2019-09-07 10:13:31:306,0.7629,0.2697,9.8973,0.0018,-0.0013,9.8066,-0.0111,-0.2205,0.0508,-6.87,-31.19,31.44,0.1,-83.4,-167.19
36019,52.40972,-1.579196,182.59,1.63,3.0,171.27,24 / 24,3606128,2019-09-07 10:13:31:407,0.3472,0.7136,9.948,0.0003,-0.0066,9.8066,-0.0323,-0.2338,-0.0046,-6.37,-31.37,31.25,2.24,-83.37,-167.08
36020,52.40972,-1.579196,182.59,1.63,3.0,171.27,24 / 24,3606227,2019-09-07 10:13:31:506,0.267,0.0144,9.7032,0.0038,0.0082,9.8066,0.0239,-0.2322,0.0162,-6.19,-31.56,30.94,1.75,-83.38,-167.51
36021,52.40972,-1.579196,182.59,1.63,3.0,171.27,24 / 24,3606327,2019-09-07 10:13:31:606,0.1719,0.47,9.8271,0.0105,0.004,9.8066,-0.0082,-0.226,0.0194,-5.62,-31.0,30.63,0.56,-83.4,-168.56
36022,52.40972,-1.579196,182.59,1.63,3.0,171.27,24 / 24,3606427,2019-09-07 10:13:31:706,0.4751,0.2316,9.707,0.0087,0.0013,9.8065,0.0252,-0.2002,0.0028,-5.44,-31.75,30.94,1.2,-83.36,-169.78
36023,52.40972,-1.579196,182.59,1.63,3.0,171.27,24 / 24,3606527,2019-09-07 10:13:31:806,0.7364,0.2408,10.0508,0.0011,0.0026,9.8066,0.0149,-0.1935,0.0184,-5.06,-31.81,30.63,0.2,-83.33,-170.66
36024,52.40972,-1.579196,182.59,1.63,3.0,171.27,24 / 24,3606627,2019-09-07 10:13:31:906,0.4699,0.6124,9.8315,-0.0017,-0.0109,9.8065,-0.0324,-0.2209,0.0162,-4.75,-31.81,30.0,359.75,-83.25,-170.76
36025,52.40972,-1.579196,182.59,1.63,3.0,171.27,24 / 24,3606727,2019-09-07 10:13:32:006,0.1794,0.1274,9.5919,-0.0057,-0.0071,9.8066,-0.0103,-0.2324,0.0511,-4.62,-31.75,29.69,0.34,-83.22,-170.24
36026,52.40972,-1.579196,182.59,1.63,3.0,171.27,24 / 24,3606828,2019-09-07 10:13:32:107,-0.2657,0.6599,9.726,-0.0004,0.002,9.8066,0.0243,-0.2474,0.034,-3.75,-31.81,30.06,2.81,-83.16,-169.97
36027,52.40972,-1.579196,182.59,1.63,3.0,171.27,24 / 24,3606927,2019-09-07 10:13:32:206,0.4678,-0.0653,9.8255,0.0056,0.0059,9.8066,0.0739,-0.2302,0.0225,-3.94,-32.25,28.88,1.95,-83.16,-170.46
36028,52.40972,-1.579196,182.59,1.63,3.0,171.27,24 / 24,3607027,2019-09-07 10:13:32:306,0.2008,0.1895,10.0902,0.0036,-0.0196,9.8066,-0.0552,-0.2399,0.0153,-3.25,-32.44,29.19,3.42,-83.08,-171.15
36029,52.40972,-1.579196,182.59,1.63,3.0,171.27,24 / 24,3607127,2019-09-07 10:13:32:406,0.563,-0.2512,9.7567,0.0066,-0.0127,9.8066,-0.0487,-0.2506,-0.0255,-2.75,-32.81,29.19,2.49,-82.96,-171.97
36030,52.40972,-1.579196,182.59,1.63,3.0,171.27,24 / 24,3607227,2019-09-07 10:13:32:506,1.3971,0.6365,10.0053,0.0129,0.0154,9.8065,0.0752,-0.2888,0.0624,-2.25,-32.25,28.5,3.5,-83.03,-173.05
36031,52.40972,-1.579196,182.59,1.63,3.0,171.27,24 / 24,3607327,2019-09-07 10:13:32:606,0.8674,-0.1962,9.8524,0.0074,0.0001,9.8066,0.0174,-0.2253,0.024,-1.75,-32.56,28.25,2.59,-82.97,-173.72
36032,52.40972,-1.579196,182.59,1.63,3.0,171.27,24 / 24,3607428,2019-09-07 10:13:32:707,1.1611,-0.5401,9.673,0.0162,-0.0013,9.8066,0.0235,-0.2318,-0.0117,-1.56,-32.94,28.38,1.03,-82.91,-175.04
36033,52.40972,-1.579196,182.59,1.63,3.0,171.27,24 / 24,3607527,2019-09-07 10:13:32:806,0.9767,-0.3726,9.7386,0.0057,-0.0039,9.8066,0.01,-0.2152,-0.0023,-0.69,-32.25,28.5,1.82,-82.85,-176.47
36034,52.40972,-1.579196,182.59,1.63,3.0,171.27,24 / 24,3607627,2019-09-07 10:13:32:906,0.7557,-0.3604,9.867,-0.004,0.0017,9.8066,0.0051,-0.1945,0.0346,-1.0,-32.62,27.63,1.58,-82.83,-176.62
36035,52.40972,-1.579196,182.59,1.63,3.0,171.27,24 / 24,3607727,2019-09-07 10:13:33:006,0.7279,-0.5342,9.7452,0.0009,0.0082,9.8065,-0.0063,-0.1798,0.0567,-0.06,-32.81,27.69,4.21,-82.87,-176.44
36036,52.40972,-1.579196,182.59,1.63,3.0,171.27,24 / 24,3607828,2019-09-07 10:13:33:107,0.4084,-0.6023,9.6261,-0.0084,0.0008,9.8066,0.0042,-0.165,0.016,-0.5,-32.56,27.88,5.44,-82.86,-175.4
36037,52.40972,-1.579196,182.59,1.63,3.0,171.27,24 / 24,3607927,2019-09-07 10:13:33:206,0.6553,-0.1932,9.8032,-0.0063,0.0114,9.8066,0.0006,-0.1592,0.0413,-0.12,-32.94,27.38,6.16,-82.9,-174.82
36038,52.40972,-1.579196,182.59,1.63,3.0,171.27,24 / 24,3608027,2019-09-07 10:13:33:306,0.0796,-0.1085,10.2886,-0.0156,-0.0027,9.8066,-0.0054,-0.1436,0.0607,0.0,-32.81,27.13,7.56,-82.99,-173.62
36039,52.40972,-1.579196,182.59,1.63,3.0,171.27,22 / 22,3608127,2019-09-07 10:13:33:406,0.5495,-0.0723,10.2144,-0.0032,0.0039,9.8066,0.0066,-0.1488,0.0106,0.0,-32.44,27.0,8.85,-83.06,-172.47
36040,52.40972,-1.579196,182.59,1.63,3.0,171.27,22 / 22,3608227,2019-09-07 10:13:33:506,0.3005,-0.1975,10.1049,-0.0037,-0.0015,9.8066,0.0183,-0.1359,0.0263,0.5,-32.06,26.63,12.18,-83.12,-171.74
36041,52.40972,-1.579196,182.59,1.63,3.0,171.27,22 / 22,3608327,2019-09-07 10:13:33:606,0.3395,-0.4322,9.9091,0.004,-0.0011,9.8066,0.0168,-0.1325,0.0048,0.38,-32.19,26.25,9.39,-83.07,-172.07
36042,52.40972,-1.579196,182.59,1.63,3.0,171.27,22 / 22,3608427,2019-09-07 10:13:33:706,0.6452,-0.8602,9.8156,0.0092,-0.0068,9.8066,-0.0036,-0.0965,-0.0209,0.06,-32.19,25.94,8.63,-82.98,-172.73
36043,52.40972,-1.579196,182.59,1.63,3.0,171.27,22 / 22,3608527,2019-09-07 10:13:33:806,0.8581,-0.7013,9.836,0.0079,-0.0042,9.8066,0.0249,-0.065,0.0,0.5,-32.25,25.81,9.62,-82.89,-174.11
36044,52.40972,-1.579196,182.59,1.63,3.0,171.27,22 / 22,3608627,2019-09-07 10:13:33:906,0.6219,-0.5881,9.6822,-0.0016,-0.0036,9.8066,0.0001,-0.0745,0.0345,0.56,-32.5,25.81,9.18,-82.83,-174.5
36045,52.40972,-1.579196,182.59,1.63,3.0,171.27,22 / 22,3608728,2019-09-07 10:13:34:007,0.4799,-0.5513,9.885,-0.0034,0.0015,9.8066,0.006,-0.0564,0.0143,0.56,-32.19,25.69,9.69,-82.79,-174.08
36046,52.40972,-1.579196,182.59,1.63,3.0,171.27,22 / 22,3608827,2019-09-07 10:13:34:106,0.5888,-0.4425,9.8902,0.0024,-0.0026,9.8066,0.0058,-0.0163,-0.0132,1.0,-32.5,25.06,9.81,-82.78,-174.13
36047,52.40972,-1.579196,182.59,1.63,3.0,171.27,22 / 22,3608927,2019-09-07 10:13:34:206,0.5197,-0.8381,9.8237,0.0049,0.0005,9.8066,0.0148,-0.007,0.0088,0.63,-32.81,25.88,9.18,-82.77,-174.55
36048,52.40972,-1.579196,182.59,1.63,3.0,171.27,22 / 22,3609028,2019-09-07 10:13:34:307,0.4606,-0.6541,9.655,-0.0007,-0.0016,9.8066,-0.009,-0.0048,-0.0021,0.94,-32.81,25.44,9.01,-82.78,-174.84
36049,52.40972,-1.579196,182.59,1.63,3.0,171.27,23 / 24,3609128,2019-09-07 10:13:34:407,0.1981,0.4359,9.919,-0.0064,0.0041,9.8066,-0.0202,-0.0051,0.0125,0.38,-32.94,25.38,6.46,-82.79,-174.65
36050,52.40972,-1.579196,182.59,1.63,3.0,171.27,23 / 24,3609227,2019-09-07 10:13:34:506,0.0483,0.575,10.0229,-0.0085,0.0102,9.8065,-0.0138,-0.0077,0.0336,0.81,-32.37,25.69,10.39,-82.88,-173.47
36051,52.40972,-1.579196,182.59,1.63,3.0,171.27,23 / 24,3609327,2019-09-07 10:13:34:606,0.0202,0.3324,10.0146,0.0053,0.0018,9.8066,0.0009,0.0067,-0.003,0.0,-32.44,25.06,8.47,-82.93,-172.92
36052,52.40972,-1.579196,182.59,1.63,3.0,171.27,23 / 24,3609427,2019-09-07 10:13:34:706,0.3247,0.0014,9.8581,0.0051,-0.0016,9.8066,-0.0084,-0.0021,-0.0129,1.13,-32.56,25.13,10.35,-82.95,-173.69
36053,52.40972,-1.579196,182.59,1.63,3.0,171.27,23 / 24,3609527,2019-09-07 10:13:34:806,0.4448,0.1019,9.7315,0.0009,0.0026,9.8066,-0.0034,0.0001,-0.0094,1.0,-32.75,25.69,9.89,-82.95,-173.92
36054,52.40972,-1.579196,182.59,1.63,3.0,171.27,23 / 24,3609628,2019-09-07 10:13:34:907,0.3937,0.273,9.872,-0.0002,0.0024,9.8066,0.0111,0.0022,0.0203,0.44,-32.31,26.06,7.18,-82.98,-173.95
36055,52.40972,-1.579196,182.59,1.63,3.0,171.27,23 / 24,3609727,2019-09-07 10:13:35:006,0.2096,-0.0815,9.8853,0.0008,0.0001,9.8066,0.0031,-0.0045,0.0064,0.63,-32.12,25.94,9.69,-82.96,-174.04
36056,52.40972,-1.579196,182.59,1.63,3.0,171.27,23 / 24,3609828,2019-09-07 10:13:35:107,0.2228,0.008,9.7615,0.0008,0.0009,9.8066,-0.0077,-0.0045,-0.0043,0.44,-32.19,26.38,7.07,-82.98,-174.04
36057,52.40972,-1.579196,182.59,1.63,3.0,171.27,23 / 24,3609927,2019-09-07 10:13:35:206,0.2295,0.041,9.7691,-0.0009,-0.0015,9.8066,-0.0009,-0.0056,-0.0007,0.0,-32.06,27.19,6.97,-82.98,-174.09
36058,52.40972,-1.579196,182.59,1.63,3.0,171.27,23 / 24,3610027,2019-09-07 10:13:35:306,0.117,0.0431,9.8975,-0.0034,-0.0018,9.8066,0.0132,-0.0083,0.0224,-1.19,-31.75,28.13,4.89,-82.96,-173.79
36059,52.40972,-1.579196,182.59,1.63,3.0,171.27,24 / 24,3610128,2019-09-07 10:13:35:407,0.1999,0.2392,9.9435,0.0025,0.0023,9.8066,-0.0214,-0.0026,-0.0055,-0.62,-31.69,27.44,4.77,-82.96,-173.83
36060,52.40972,-1.579196,182.59,1.63,3.0,171.27,24 / 24,3610227,2019-09-07 10:13:35:506,0.2408,0.1228,9.9795,0.0002,0.0006,9.8066,0.0195,-0.0101,-0.0021,-0.37,-32.19,27.25,7.05,-82.97,-174.02
36061,52.40972,-1.579196,182.59,1.63,3.0,171.27,24 / 24,3610327,2019-09-07 10:13:35:606,0.2645,-0.0098,9.8209,0.001,0.0019,9.8066,-0.0028,-0.0119,0.009,-1.0,-32.75,27.81,4.58,-82.99,-174.07
36062,52.40972,-1.579196,182.59,1.63,3.0,171.27,24 / 24,3610427,2019-09-07 10:13:35:706,0.1002,0.0507,9.7442,0.001,-0.0006,9.8065,0.0019,0.0064,-0.0065,-0.5,-32.06,27.56,6.85,-82.99,-174.16
36063,52.40972,-1.579196,182.59,1.63,3.0,171.27,24 / 24,3610528,2019-09-07 10:13:35:807,0.2182,0.0777,9.9169,0.0005,0.0006,9.8066,0.007,-0.0088,0.0127,-1.44,-32.19,28.56,4.51,-82.99,-174.16
36064,52.40972,-1.579196,182.59,1.63,3.0,171.27,24 / 24,3610628,2019-09-07 10:13:35:907,0.2888,0.1503,9.8521,0.0036,-0.0001,9.8066,-0.0054,-0.0159,-0.0094,-1.94,-32.5,29.31,1.95,-83.0,-174.38
36065,52.40972,-1.579196,182.59,1.63,3.0,171.27,24 / 24,3610727,2019-09-07 10:13:36:006,0.1759,-0.1598,9.8286,0.0007,0.0018,9.8066,0.004,-0.0138,-0.004,-1.25,-32.06,28.5,4.15,-83.0,-174.46
36066,52.40972,-1.579196,182.59,1.63,3.0,171.27,24 / 24,3610827,2019-09-07 10:13:36:106,0.2494,-0.1504,9.9158,0.0032,0.0045,9.8066,0.0074,0.0263,-0.0097,-1.31,-31.94,28.56,3.79,-83.02,-174.77
36067,52.40972,-1.579196,182.59,1.63,3.0,171.27,24 / 24,3610927,2019-09-07 10:13:36:206,0.3567,-0.3148,9.8027,0.0023,-0.0047,9.8066,0.0191,0.0138,0.0137,-1.19,-32.12,28.5,3.18,-83.01,-175.29
36068,52.40972,-1.579196,182.59,1.63,3.0,171.27,24 / 24,3611027,2019-09-07 10:13:36:306,0.3813,-0.5815,9.767,0.0026,-0.0062,9.8066,-0.0168,-0.002,0.0129,-1.56,-31.94,27.75,0.34,-83.01,-175.62
36069,52.40972,-1.579196,182.59,1.63,3.0,171.27,24 / 24,3611127,2019-09-07 10:13:36:406,0.1497,0.0352,9.9264,-0.0008,0.0066,9.8066,-0.0266,-0.0111,-0.004,-1.5,-31.62,27.81,2.82,-83.02,-175.55
36070,52.40972,-1.579196,182.59,1.63,3.0,171.27,24 / 24,3611227,2019-09-07 10:13:36:506,0.0405,-0.181,9.8459,0.0006,0.0018,9.8066,-0.001,-0.0113,0.0084,-1.12,-31.75,27.94,2.74,-83.05,-175.61
36071,52.40972,-1.579196,182.59,1.63,3.0,171.27,24 / 24,3611327,2019-09-07 10:13:36:606,0.1313,-0.3408,9.8948,-0.0014,0.0027,9.8066,0.0022,0.0158,0.0093,-1.94,-32.5,28.0,0.62,-83.04,-175.38
36072,52.40972,-1.579196,182.59,1.63,3.0,171.27,24 / 24,3611428,2019-09-07 10:13:36:707,0.0641,-0.3989,9.8404,0.0038,0.0043,9.8066,0.0013,-0.0156,-0.0026,-1.31,-31.94,28.81,2.91,-83.07,-175.52
36073,52.40972,-1.579196,182.59,1.63,3.0,171.27,24 / 24,3611527,2019-09-07 10:13:36:806,-0.1235,-0.4755,9.9056,-0.0002,-0.0045,9.8066,0.0103,-0.0357,0.0032,-2.56,-32.25,29.19,358.07,-83.08,-175.76
36074,52.40972,-1.579196,182.59,1.63,3.0,171.27,24 / 24,3611627,2019-09-07 10:13:36:906,-0.0409,-0.4115,10.0029,-0.0013,-0.0026,9.8066,-0.009,-0.03,0.0196,-2.44,-31.94,29.56,0.7,-83.11,-175.58
36075,52.40972,-1.579196,182.59,1.63,3.0,171.27,24 / 24,3611728,2019-09-07 10:13:37:007,-0.3454,-0.0728,9.9,-0.0005,0.0022,9.8066,-0.0199,-0.0745,0.0233,-2.94,-32.12,30.13,358.48,-83.14,-175.61
36076,52.40972,-1.579196,182.59,1.63,3.0,171.27,24 / 24,3611827,2019-09-07 10:13:37:106,-0.0646,-0.6858,9.7603,-0.0034,0.0024,9.8066,0.0207,-0.0689,-0.0027,-3.19,-31.87,30.38,358.67,-83.18,-175.45
36077,52.40972,-1.579196,182.59,1.63,3.0,171.27,24 / 24,3611927,2019-09-07 10:13:37:206,-0.1778,-0.3143,9.9243,-0.0047,0.0021,9.8066,0.0076,-0.0986,0.0413,-2.81,-32.19,29.94,359.14,-83.17,-175.04
36078,52.40972,-1.579196,182.59,1.63,3.0,171.27,24 / 24,3612027,2019-09-07 10:13:37:306,-0.0785,0.1871,9.8087,0.0012,0.0251,9.8066,0.0799,-0.1001,0.038,-1.94,-32.0,28.56,1.4,-83.24,-174.84
36079,52.40972,-1.579196,182.59,1.63,3.0,171.27,24 / 24,3612127,2019-09-07 10:13:37:406,-1.0077,-0.0384,10.409,0.0049,-0.0145,9.8066,0.0624,-0.1349,0.0224,-1.31,-32.12,27.31,3.4,-83.13,-174.98
36080,52.40972,-1.579196,182.59,1.63,3.0,171.27,24 / 24,3612227,2019-09-07 10:13:37:506,-1.1892,-0.5277,10.2905,0.0068,-0.0035,9.8066,0.004,-0.1927,-0.0233,-0.19,-32.56,26.06,4.84,-83.11,-175.93
36081,52.40972,-1.579196,182.59,1.63,3.0,171.27,24 / 24,3612327,2019-09-07 10:13:37:606,-0.8651,-1.32,9.7808,0.0153,-0.0198,9.8065,0.0653,-0.2023,-0.0036,0.63,-32.87,25.94,5.54,-82.96,-177.56
36082,52.40972,-1.579196,182.59,1.63,3.0,171.27,24 / 24,3612427,2019-09-07 10:13:37:706,-0.2354,-2.475,9.5002,0.0137,-0.0181,9.8065,0.0319,-0.211,-0.0063,1.56,-32.25,24.75,5.59,-82.65,-179.94
36083,52.40972,-1.579196,182.59,1.63,3.0,171.27,24 / 24,3612528,2019-09-07 10:13:37:807,-0.1603,-2.2456,9.3874,0.006,-0.0071,9.8066,-0.0017,-0.2492,0.0167,1.13,-32.87,25.19,1.62,-82.47,179.04
36084,52.40972,-1.579196,182.59,1.63,3.0,171.27,24 / 24,3612628,2019-09-07 10:13:37:907,-0.766,-1.8936,9.9736,-0.0166,-0.0112,9.8066,-0.0763,-0.2805,0.0882,1.38,-32.75,24.19,2.62,-82.37,179.74
36085,52.40972,-1.579196,182.59,1.63,3.0,171.27,24 / 24,3612727,2019-09-07 10:13:38:006,-1.1693,-0.3296,10.1758,-0.0035,0.0161,9.8066,-0.0758,-0.2726,0.0357,2.19,-33.31,23.5,7.48,-82.59,-178.66
36086,52.40972,-1.579196,182.59,1.63,3.0,171.27,24 / 24,3612827,2019-09-07 10:13:38:106,-1.519,-0.383,10.0049,0.0055,0.0092,9.8066,0.0094,-0.3674,0.0735,2.38,-33.19,22.19,8.36,-82.71,-178.48
36087,52.40972,-1.579196,182.59,1.63,3.0,171.27,24 / 24,3612927,2019-09-07 10:13:38:206,-1.0439,-1.5594,9.5805,0.0001,-0.0015,9.8066,-0.0084,-0.4006,0.0458,2.88,-33.0,21.69,11.58,-82.86,-178.4
36088,52.40972,-1.579196,182.59,1.63,3.0,171.27,24 / 24,3613027,2019-09-07 10:13:38:306,-1.5693,-0.3572,9.3119,-0.0149,-0.0073,9.8066,-0.0367,-0.4852,0.1132,3.75,-33.75,20.44,17.61,-82.85,-177.43
36089,52.40972,-1.579196,182.59,1.63,3.0,171.27,24 / 24,3613127,2019-09-07 10:13:38:406,-1.3345,0.0108,9.6557,-0.0037,0.0254,9.8066,-0.0885,-0.4668,0.0788,3.81,-33.31,19.56,19.98,-82.77,-175.47
36090,52.40972,-1.579196,182.59,1.63,3.0,171.27,24 / 24,3613227,2019-09-07 10:13:38:506,-1.7828,-0.2773,10.3128,-0.0168,0.0025,9.8066,0.033,-0.5114,0.0655,3.88,-33.44,19.0,23.14,-82.75,-173.75
36091,52.40972,-1.579196,182.59,1.63,3.0,171.27,24 / 24,3613327,2019-09-07 10:13:38:606,-1.4936,0.0673,10.2934,0.0049,-0.0029,9.8066,-0.0092,-0.5179,0.0432,3.69,-33.69,17.75,24.54,-82.62,-173.82
36092,52.40972,-1.579196,182.59,1.63,3.0,171.27,24 / 24,3613427,2019-09-07 10:13:38:706,0.1378,-1.127,10.0947,0.0065,0.0133,9.8065,0.0297,-0.4966,0.0603,3.44,-33.56,17.13,21.1,-82.59,-174.33
36093,52.40972,-1.579196,182.59,1.63,3.0,171.27,24 / 24,3613527,2019-09-07 10:13:38:806,-0.6126,-1.1851,9.9625,0.0118,-0.0127,9.8066,0.0554,-0.447,0.0212,4.31,-34.31,16.81,22.72,-82.6,-176.25
36094,52.40972,-1.579196,182.59,1.63,3.0,171.27,24 / 24,3613627,2019-09-07 10:13:38:906,-0.6863,-0.5638,9.5407,0.0016,-0.0061,9.8066,0.0033,-0.4132,0.0714,5.13,-34.19,15.19,28.72,-82.58,-177.61
36095,52.40972,-1.579196,182.59,1.63,3.0,171.27,24 / 24,3613728,2019-09-07 10:13:39:007,-1.3423,-0.6283,9.5715,-0.0051,0.0121,9.8066,-0.0158,-0.3853,0.0767,5.31,-34.75,15.25,29.89,-82.48,-177.07
36096,52.40972,-1.579196,182.59,1.63,3.0,171.27,24 / 24,3613828,2019-09-07 10:13:39:107,-1.4428,-0.1627,9.5835,-0.0082,-0.0164,9.8066,0.0466,-0.3693,0.039,5.25,-34.69,14.81,30.85,-82.28,-176.6
36097,52.40972,-1.579196,182.59,1.63,3.0,171.27,24 / 24,3613927,2019-09-07 10:13:39:206,-1.5851,-0.2735,9.5736,0.0049,0.0153,9.8066,-0.0213,-0.4221,0.0605,4.44,-34.56,13.19,31.96,-82.14,-176.15
36098,52.40972,-1.579196,182.59,1.63,3.0,171.27,24 / 24,3614027,2019-09-07 10:13:39:306,-2.6539,-0.1898,10.3544,-0.0007,0.0199,9.8066,0.0915,-0.4401,0.139,3.81,-34.69,12.5,33.23,-82.14,-175.27
36099,52.40972,-1.579196,182.59,1.63,3.0,171.27,24 / 24,3614127,2019-09-07 10:13:39:406,-1.3521,0.9683,10.1281,0.011,-0.0065,9.8066,-0.0131,-0.3873,-0.004,4.81,-34.44,11.81,41.19,-82.06,-175.54
36100,52.40972,-1.579196,182.59,1.63,3.0,171.27,24 / 24,3614227,2019-09-07 10:13:39:506,-1.4106,-0.9477,9.9494,0.0249,-0.0235,9.8065,-0.0417,-0.3777,-0.0312,4.81,-34.62,11.38,43.54,-82.16,-177.03
36101,52.40972,-1.579196,182.59,1.63,3.0,171.27,24 / 24,3614328,2019-09-07 10:13:39:607,0.1866,-1.0519,9.2777,0.0339,-0.0193,9.8065,-0.0116,-0.2905,-0.0232,4.94,-35.19,10.5,36.56,-82.28,178.42
36102,52.40972,-1.579196,182.59,1.63,3.0,171.27,24 / 24,3614428,2019-09-07 10:13:39:707,-0.8842,-0.8906,10.5986,-0.0063,-0.0145,9.8066,-0.0233,-0.2592,-0.0045,4.75,-34.94,8.69,42.96,-82.57,176.17
36103,52.40972,-1.579196,182.59,1.63,3.0,171.27,24 / 24,3614527,2019-09-07 10:13:39:806,0.0873,-0.8233,9.2879,0.0386,0.0128,9.8065,0.0524,-0.1939,0.065,4.63,-34.5,8.38,45.31,-82.85,174.4
36104,52.40972,-1.579196,182.59,1.63,3.0,171.27,24 / 24,3614627,2019-09-07 10:13:39:906,-1.1214,-1.0294,10.3567,-0.0602,0.0048,9.8064,-0.1548,-0.1341,0.0123,4.63,-34.69,8.0,53.27,-82.69,178.69
36105,52.40972,-1.579196,182.59,1.63,3.0,171.27,24 / 24,3614727,2019-09-07 10:13:40:006,-2.02,-0.5729,10.5467,-0.021,-0.0151,9.8066,0.0552,-0.1555,0.0852,5.0,-35.37,8.31,54.02,-82.84,179.72
36106,52.40972,-1.579196,182.59,1.63,3.0,171.27,24 / 24,3614827,2019-09-07 10:13:40:106,-1.2833,-0.1667,9.6844,0.0069,-0.0168,9.8066,-0.0765,-0.0958,-0.0446,4.63,-35.44,7.5,54.73,-82.79,-179.94
36107,52.40972,-1.579196,182.59,1.63,3.0,171.27,24 / 24,3614927,2019-09-07 10:13:40:206,-0.4881,-0.6281,9.1941,-0.0236,-0.0328,9.8065,-0.0061,-0.0809,-0.0848,4.94,-34.94,7.81,52.51,-82.61,177.89
36108,52.40972,-1.579196,182.59,1.63,3.0,171.27,24 / 24,3615028,2019-09-07 10:13:40:307,-2.188,-1.0734,9.6475,-0.0225,-0.0328,9.8065,-0.056,-0.0962,0.0034,5.0,-34.12,7.88,49.76,-82.34,175.87
36109,52.40972,-1.579196,182.59,1.63,3.0,171.27,24 / 24,3615127,2019-09-07 10:13:40:406,0.8506,-2.8179,7.6895,-0.0331,-0.0269,9.8065,-0.1947,0.0719,-0.0893,5.0,-34.94,8.19,51.72,-81.86,174.93
36110,52.409718,-1.579322,182.92,3.82,3.0,278.9,24 / 24,3615227,2019-09-07 10:13:40:506,-0.8667,-0.8176,9.3839,-0.0458,0.0021,9.8065,-0.3814,-0.0279,-0.0041,4.88,-35.0,8.19,53.03,-81.88,175.84
36111,52.409718,-1.579322,182.92,3.82,3.0,278.9,24 / 24,3615327,2019-09-07 10:13:40:606,-0.8976,-0.9959,10.6797,0.117,0.0439,9.8058,0.3772,0.018,0.0056,4.94,-34.62,7.44,62.82,-81.92,176.21
36112,52.409718,-1.579322,182.92,3.82,3.0,278.9,24 / 24,3615427,2019-09-07 10:13:40:706,-0.1418,-1.2831,11.1788,0.0651,0.0562,9.8063,0.2098,0.0722,0.0123,5.31,-34.62,8.38,49.45,-82.75,176.27
36113,52.409718,-1.579322,182.92,3.82,3.0,278.9,24 / 24,3615527,2019-09-07 10:13:40:806,-2.6822,-0.1466,9.9648,-0.0573,-0.0336,9.8064,-0.1147,-0.0128,0.0597,4.75,-34.81,7.94,53.95,-82.31,177.87
