,GPS LATITUDE (degrees), GPS LONGITUDE (degrees), GPS ALTITUDE (m), GPS SPEED (Kmh), GPS ACCURACY (m), GPS ORIENTATION (Â°),GPS SATELLITES IN RANGE, TIME SINCE START (ms), DATE (YYYY-MO-DD HH-MI-SS_SSS), ACCELEROMETER X (m/s²) , ACCELEROMETER Y (m/s²), ACCELEROMETER Z (m/s²), GRAVITY X (m/s²), GRAVITY Y (m/s²), GRAVITY Z (m/s²), GYROSCOPE Yaw (rad/s), GYROSCOPE Pitch (rad/s), GYROSCOPE Roll (rad/s), MAGNETIC FIELD X (Î¼T), MAGNETIC FIELD Y (Î¼T), MAGNETIC FIELD Z (Î¼T), ORIENTATION (Yaw) (Â°), ORIENTATION (Pitch) (Â°), ORIENTATION (Roll ) (Â°)
58274,53.741745,-1.691756,209.76,28.83,6,289.02,18 / 18,5827439,2019-11-08 11:34:25:050,-2.0934,-0.6471,10.0516,0.0071,-0.0059,9.8066,-0.0075,-0.1265,0.1202,5.13,-44.12,41.0,22.15,-79.83,-169.2
58275,53.741745,-1.691756,209.76,28.83,6,289.02,19 / 20,5827542,2019-11-08 11:34:25:153,0.4266,-1.276,10.9358,-0.0173,0.0162,9.8065,-0.0942,-0.073,0.0695,4.56,-43.37,40.94,22.45,-79.85,-168.85
58276,53.741745,-1.691756,209.76,28.83,6,289.02,19 / 20,5827638,2019-11-08 11:34:25:249,-0.629,2.2443,8.9888,0.01,0.0056,9.8065,-0.0452,-0.1035,0.0677,5.63,-43.37,41.13,23.32,-79.92,-169.46
58277,53.741745,-1.691756,209.76,28.83,6,289.02,19 / 20,5827738,2019-11-08 11:34:25:349,-0.6764,-1.1277,9.4799,0.0418,-0.0142,9.8065,-0.0778,-0.3005,0.3303,5.69,-44.31,40.31,25.06,-79.9,-168.46
58278,53.741745,-1.691756,209.76,28.83,6,289.02,19 / 20,5827838,2019-11-08 11:34:25:449,-2.4678,0.6759,10.3062,-0.0109,0.0275,9.8066,-0.0541,-0.2028,0.2132,6.19,-43.5,40.81,23.29,-79.94,-169.47
58279,53.741745,-1.691756,209.76,28.83,6,289.02,19 / 20,5827938,2019-11-08 11:34:25:549,0.7257,0.3852,10.5841,0.0198,0.0068,9.8066,-0.0879,-0.0528,0.0237,6.0,-43.75,40.31,23.47,-79.84,-169.78
58280,53.741745,-1.691756,209.76,28.83,6,289.02,19 / 20,5828039,2019-11-08 11:34:25:650,-0.0939,-1.0532,10.8812,0.0053,0.0445,9.8065,-0.1045,0.0239,0.0855,5.56,-43.44,40.38,23.25,-79.99,-169.79
58281,53.741745,-1.691756,209.76,28.83,6,289.02,19 / 20,5828138,2019-11-08 11:34:25:749,-0.2805,-0.9676,9.2905,-0.0095,0.0136,9.8065,-0.0646,-0.0433,0.0554,6.19,-43.87,40.25,23.5,-79.92,-169.72
58282,53.741745,-1.691756,209.76,28.83,6,289.02,19 / 20,5828238,2019-11-08 11:34:25:849,-0.5271,-0.5521,10.6238,-0.0046,0.0134,9.8066,-0.0228,-0.059,0.0215,6.5,-43.94,40.0,25.84,-79.9,-169.2
58283,53.741745,-1.691756,209.76,28.83,6,289.02,19 / 20,5828338,2019-11-08 11:34:25:949,-0.1883,-0.1338,9.5668,-0.0023,0.028,9.8065,-0.0351,0.014,-0.0282,6.44,-43.69,40.13,24.59,-80.0,-168.79
58284,53.741745,-1.691756,209.76,28.83,6,289.02,19 / 20,5828439,2019-11-08 11:34:26:050,-0.8494,1.1869,9.7376,0.014,-0.0176,9.8066,-0.0197,0.0213,-0.0673,6.25,-43.75,39.75,25.13,-80.15,-168.28
58285,53.741745,-1.691756,209.76,28.83,6,289.02,19 / 21,5828538,2019-11-08 11:34:26:149,0.226,1.3874,9.9965,0.0092,0.0106,9.8066,0.004,0.0792,-0.0901,6.25,-43.75,39.63,24.32,-80.09,-168.97
58286,53.741745,-1.691756,209.76,28.83,6,289.02,19 / 21,5828638,2019-11-08 11:34:26:249,0.2083,0.1658,10.484,0.0173,0.004,9.8065,0.0008,0.1505,-0.0883,7.13,-44.37,39.69,25.52,-80.23,-169.29
58287,53.741745,-1.691756,209.76,28.83,6,289.02,19 / 21,5828738,2019-11-08 11:34:26:349,-2.659,0.0476,10.2498,-0.0176,-0.0019,9.8065,-0.0169,0.1255,-0.1235,6.25,-44.87,38.94,24.05,-80.13,-169.59
58288,53.741745,-1.691756,209.76,28.83,6,289.02,19 / 21,5828838,2019-11-08 11:34:26:449,-0.6737,-1.2356,9.7528,0.0229,0.0139,9.8066,0.0081,0.091,-0.0698,6.75,-44.31,39.75,25.27,-80.24,-169.49
58289,53.741745,-1.691756,209.76,28.83,6,289.02,19 / 21,5828939,2019-11-08 11:34:26:550,-2.4801,-0.2369,9.7456,-0.0317,0.0102,9.8065,-0.0091,-0.0264,0.0527,6.0,-44.31,39.19,23.9,-80.37,-169.49
58290,53.741745,-1.691756,209.76,28.83,6,289.02,19 / 21,5829039,2019-11-08 11:34:26:650,1.9325,0.5493,9.9937,0.0013,-0.0192,9.8066,0.0013,-0.1151,0.0495,6.25,-43.87,39.0,24.57,-80.37,-168.95
58291,53.741745,-1.691756,209.76,28.83,6,289.02,19 / 21,5829139,2019-11-08 11:34:26:750,-1.292,-1.3577,11.0879,-0.0041,-0.0008,9.8065,0.0974,-0.1467,0.0267,6.25,-44.37,38.44,25.31,-80.25,-168.74
58292,53.741745,-1.691756,209.76,28.83,6,289.02,19 / 21,5829239,2019-11-08 11:34:26:850,-1.0387,0.7888,9.4727,-0.0066,-0.0184,9.8065,0.0572,-0.0525,-0.0342,6.13,-44.69,38.63,25.18,-80.25,-168.61
58293,53.741745,-1.691756,209.76,28.83,6,289.02,19 / 21,5829338,2019-11-08 11:34:26:949,1.2621,0.3581,10.8643,0.0193,-0.0389,9.8065,0.0644,0.0682,-0.1039,6.25,-44.19,39.38,25.12,-80.15,-168.61
58294,53.741745,-1.691756,209.76,28.83,6,289.02,19 / 21,5829438,2019-11-08 11:34:27:049,-0.2718,-0.6199,10.6001,-0.0003,0.017,9.8066,0.0319,0.0333,-0.0898,6.81,-44.56,39.63,26.15,-80.06,-168.97
58295,53.741745,-1.691756,209.76,28.83,6,289.02,19 / 20,5829538,2019-11-08 11:34:27:149,-0.1849,1.0643,9.241,-0.0215,0.0163,9.8065,-0.0835,-0.0196,0.0397,7.06,-45.25,39.31,26.88,-80.06,-168.74
58296,53.741745,-1.691756,209.76,28.83,6,289.02,19 / 20,5829639,2019-11-08 11:34:27:250,0.3068,0.8721,10.0727,-0.0112,0.005,9.8066,-0.0348,-0.0821,0.0638,6.75,-45.37,39.19,26.79,-80.07,-168.81
58297,53.741745,-1.691756,209.76,28.83,6,289.02,19 / 20,5829739,2019-11-08 11:34:27:350,-0.5317,1.6028,10.3485,-0.0234,0.001,9.8066,-0.0683,-0.0945,0.1496,5.88,-45.19,37.75,25.37,-79.85,-169.03
58298,53.741745,-1.691756,209.76,28.83,6,289.02,19 / 20,5829839,2019-11-08 11:34:27:450,0.6202,0.1745,9.7778,-0.0079,0.0048,9.8066,-0.0243,-0.1347,0.082,5.88,-44.94,37.0,26.62,-79.81,-168.43
58299,53.741745,-1.691756,209.76,28.83,6,289.02,19 / 20,5829939,2019-11-08 11:34:27:550,-0.9629,-0.482,9.2347,-0.0147,0.0119,9.8066,0.0118,-0.1174,0.06,5.63,-45.12,37.06,27.43,-80.0,-167.67
58300,53.741745,-1.691756,209.76,28.83,6,289.02,19 / 20,5830039,2019-11-08 11:34:27:650,-1.1022,0.3486,9.3609,-0.0002,-0.0276,9.8065,0.0617,0.0046,-0.0257,5.38,-44.81,37.69,25.66,-79.94,-167.29
58301,53.741745,-1.691756,209.76,28.83,6,289.02,19 / 20,5830139,2019-11-08 11:34:27:750,0.4969,-1.0135,9.5698,0.0097,-0.0035,9.8066,0.0083,0.0677,-0.0673,5.19,-44.44,37.69,26.25,-80.01,-166.66
58302,53.741745,-1.691756,209.76,28.83,6,289.02,19 / 20,5830239,2019-11-08 11:34:27:850,-1.6023,0.6575,10.2867,0.0066,-0.0017,9.8066,-0.1315,0.2781,-0.1322,5.94,-44.75,37.75,28.33,-80.04,-166.53
58303,53.741745,-1.691756,209.76,28.83,6,289.02,19 / 20,5830339,2019-11-08 11:34:27:950,4.8408,-1.4056,7.5424,0.0481,0.0461,9.8064,-0.0578,0.2233,-0.1322,5.06,-44.87,37.94,25.97,-80.01,-167.0
58304,53.741745,-1.691756,209.76,28.83,6,289.02,19 / 20,5830438,2019-11-08 11:34:28:049,2.7832,0.438,7.7627,0.0486,0.0504,9.8063,0.353,-0.6711,0.26,4.75,-44.25,37.44,24.93,-80.46,-167.8
58305,53.74265,-1.695277,205.54,29.42,4,299.71,19 / 21,5830538,2019-11-08 11:34:28:149,-6.1374,-0.2747,10.5894,-0.0228,-0.0363,9.8065,0.1877,-0.6759,0.2763,4.94,-44.44,38.38,22.93,-80.23,-169.23
58306,53.74265,-1.695277,205.54,29.42,4,299.71,19 / 21,5830638,2019-11-08 11:34:28:249,0.9144,-1.9639,10.4065,0.0706,0.0015,9.8064,-0.0717,-0.2467,0.1328,5.44,-45.37,37.63,24.8,-80.09,-167.9
58307,53.74265,-1.695277,205.54,29.42,4,299.71,19 / 21,5830738,2019-11-08 11:34:28:349,-6.353,-0.3051,10.1894,0.0797,0.0143,9.8063,-0.1034,-0.0034,0.0645,5.56,-44.56,38.06,24.9,-80.5,-169.04
58308,53.74265,-1.695277,205.54,29.42,4,299.71,19 / 21,5830838,2019-11-08 11:34:28:449,0.8714,-0.9507,10.361,0.0147,-0.0234,9.8065,-0.169,0.4532,-0.2454,4.75,-43.75,38.5,24.21,-80.59,-167.69
58309,53.74265,-1.695277,205.54,29.42,4,299.71,19 / 21,5830938,2019-11-08 11:34:28:549,3.4457,0.1021,7.7724,0.0543,0.0162,9.8064,-0.2177,0.455,-0.2507,4.63,-44.69,38.0,23.69,-80.64,-168.49
58310,53.74265,-1.695277,205.54,29.42,4,299.71,19 / 21,5831038,2019-11-08 11:34:28:649,0.3743,2.0625,9.415,-0.0371,-0.011,9.8065,-0.092,0.4652,-0.2448,4.88,-44.87,38.13,24.24,-80.62,-168.06
58311,53.74265,-1.695277,205.54,29.42,4,299.71,19 / 21,5831138,2019-11-08 11:34:28:749,5.3474,-1.9405,9.3409,0.008,-0.0038,9.8066,-0.0501,0.4247,-0.2866,4.75,-44.75,38.0,23.86,-80.43,-168.47
58312,53.74265,-1.695277,205.54,29.42,4,299.71,19 / 21,5831238,2019-11-08 11:34:28:849,-2.2945,1.2023,9.6594,0.0584,-0.0101,9.8064,0.0873,0.0403,-0.0267,4.19,-44.44,37.69,20.56,-80.35,-169.61
58313,53.74265,-1.695277,205.54,29.42,4,299.71,19 / 21,5831339,2019-11-08 11:34:28:950,4.1985,-0.6826,8.2715,-0.0492,0.0097,9.8065,-0.0088,-0.1513,0.1319,4.5,-44.31,37.63,25.72,-80.48,-166.83
58314,53.74265,-1.695277,205.54,29.42,4,299.71,19 / 21,5831440,2019-11-08 11:34:29:051,-1.4698,2.6687,10.8352,0.0004,0.0177,9.8066,0.1489,-0.4169,0.1704,4.19,-43.94,38.0,23.74,-80.84,-166.78
58315,53.74265,-1.695277,205.54,29.42,4,299.71,19 / 22,5831538,2019-11-08 11:34:29:149,-3.151,-1.9684,10.4492,-0.0344,-0.0033,9.8065,0.1318,-0.3963,0.1814,3.88,-43.75,38.06,25.71,-81.05,-165.04
58316,53.74265,-1.695277,205.54,29.42,4,299.71,19 / 22,5831638,2019-11-08 11:34:29:249,0.0461,-0.6696,9.8363,0.0294,-0.0105,9.8065,-0.1019,-0.1823,0.1758,4.56,-44.19,38.06,27.58,-81.07,-164.95
58317,53.74265,-1.695277,205.54,29.42,4,299.71,19 / 22,5831738,2019-11-08 11:34:29:349,-1.8826,-0.0914,10.2191,-0.0111,-0.0008,9.8066,-0.0786,-0.0625,0.0723,4.0,-43.81,38.06,24.64,-80.99,-165.96
58318,53.74265,-1.695277,205.54,29.42,4,299.71,19 / 22,5831838,2019-11-08 11:34:29:449,0.2314,0.7541,10.7208,-0.016,0.0048,9.8066,-0.139,-0.0132,0.0353,4.88,-44.69,37.88,27.11,-80.82,-165.6
58319,53.74265,-1.695277,205.54,29.42,4,299.71,19 / 22,5831939,2019-11-08 11:34:29:550,1.8452,1.3763,9.7632,-0.0133,0.0094,9.8066,-0.1493,-0.1353,0.1136,4.06,-44.56,37.81,24.13,-80.64,-166.66
58320,53.74265,-1.695277,205.54,29.42,4,299.71,19 / 22,5832038,2019-11-08 11:34:29:649,1.0561,-0.8609,8.2944,0.0197,0.0283,9.8065,0.0506,-0.1374,0.0744,4.19,-44.31,37.81,23.3,-80.45,-167.34
58321,53.74265,-1.695277,205.54,29.42,4,299.71,19 / 22,5832139,2019-11-08 11:34:29:750,-1.3489,0.3412,11.2896,0.0037,-0.0149,9.8066,0.0602,0.0343,-0.0205,4.81,-44.12,38.0,24.35,-80.51,-167.93
58322,53.74265,-1.695277,205.54,29.42,4,299.71,19 / 22,5832238,2019-11-08 11:34:29:849,1.1948,-1.6372,10.813,0.0201,0.0024,9.8065,0.0639,0.1515,-0.1669,4.69,-43.94,37.81,24.38,-80.63,-167.84
58323,53.74265,-1.695277,205.54,29.42,4,299.71,19 / 22,5832338,2019-11-08 11:34:29:949,-0.1753,4.112,8.8196,0.0204,0.0129,9.8065,0.086,0.1738,-0.1402,3.75,-44.44,37.75,23.2,-80.83,-167.23
58324,53.74265,-1.695277,205.54,29.42,4,299.71,19 / 22,5832441,2019-11-08 11:34:30:052,-2.9312,-2.9014,11.2732,-0.0247,0.0003,9.8066,0.0483,0.0798,-0.0589,4.81,-44.81,37.88,26.36,-81.31,-165.93
58325,53.74265,-1.695277,205.54,29.42,4,299.71,19 / 21,5832539,2019-11-08 11:34:30:150,-0.5469,0.467,10.5004,0.0205,0.0182,9.8066,-0.0827,0.0028,-0.0715,4.5,-44.62,38.06,28.31,-81.46,-164.21
58326,53.74265,-1.695277,205.54,29.42,4,299.71,19 / 21,5832638,2019-11-08 11:34:30:249,-0.6277,-0.455,8.371,0.005,0.0006,9.8066,-0.123,0.0268,0.049,4.38,-44.44,37.69,26.6,-81.18,-164.23
58327,53.74265,-1.695277,205.54,29.42,4,299.71,19 / 21,5832738,2019-11-08 11:34:30:349,1.0353,1.4861,10.3582,0.0088,0.028,9.8066,-0.1778,0.043,0.0149,3.88,-43.87,37.44,26.95,-80.91,-164.38
58328,53.74265,-1.695277,205.54,29.42,4,299.71,19 / 21,5832839,2019-11-08 11:34:30:450,-1.0689,-1.2882,10.1347,-0.009,0.0275,9.8066,-0.073,-0.1024,0.0421,3.94,-44.31,37.63,25.83,-80.68,-165.15
58329,53.74265,-1.695277,205.54,29.42,4,299.71,19 / 21,5832938,2019-11-08 11:34:30:549,-0.4127,4.2681,9.4887,0.015,-0.0082,9.8066,0.0339,0.0279,-0.0385,4.44,-44.5,37.75,26.53,-80.95,-164.42
58330,53.74265,-1.695277,205.54,29.42,4,299.71,19 / 21,5833038,2019-11-08 11:34:30:649,1.6732,-0.3931,9.5929,0.0243,-0.0131,9.8065,0.074,0.0701,-0.1199,4.75,-44.75,37.5,28.56,-81.09,-164.22
58331,53.74265,-1.695277,205.54,29.42,4,299.71,19 / 21,5833139,2019-11-08 11:34:30:750,0.4339,2.0209,10.3971,-0.0255,-0.022,9.8065,0.1013,0.0276,0.0104,5.25,-44.69,37.63,28.48,-80.95,-164.38
58332,53.74265,-1.695277,205.54,29.42,4,299.71,19 / 21,5833239,2019-11-08 11:34:30:850,0.7041,-1.4478,10.2452,0.017,-0.0293,9.8065,0.0291,0.0802,-0.0724,5.0,-44.5,37.69,28.1,-80.82,-164.66
58333,53.74265,-1.695277,205.54,29.42,4,299.71,19 / 21,5833338,2019-11-08 11:34:30:949,-0.8003,1.3151,9.9684,-0.0016,0.0033,9.8066,0.0244,0.1253,-0.0576,5.0,-44.25,36.94,27.73,-80.74,-165.35
58334,53.74265,-1.695277,205.54,29.42,4,299.71,19 / 21,5833439,2019-11-08 11:34:31:050,-0.6281,-0.3621,10.5017,0.0093,0.0054,9.8066,0.0546,0.0434,-0.0325,5.19,-44.62,37.5,27.55,-80.74,-165.27
58335,53.74265,-1.695277,205.54,29.42,4,299.71,19 / 22,5833539,2019-11-08 11:34:31:150,-0.296,-0.0566,11.0527,0.0225,0.014,9.8066,-0.0175,-0.1283,0.07,5.5,-44.75,37.69,29.07,-80.72,-165.5
58336,53.74265,-1.695277,205.54,29.42,4,299.71,19 / 22,5833638,2019-11-08 11:34:31:249,-1.0066,0.1103,9.8823,-0.0231,0.0061,9.8066,-0.0294,-0.1722,0.1654,5.75,-44.5,37.56,27.82,-80.81,-166.36
58337,53.74265,-1.695277,205.54,29.42,4,299.71,19 / 22,5833738,2019-11-08 11:34:31:349,1.3087,-0.8925,10.0112,0.0062,0.0098,9.8066,-0.0567,-0.061,0.055,5.0,-43.62,37.25,27.36,-80.87,-165.58
58338,53.74265,-1.695277,205.54,29.42,4,299.71,19 / 22,5833838,2019-11-08 11:34:31:449,-0.0824,-0.8106,9.8623,0.0014,0.0197,9.8066,-0.088,-0.0072,0.0039,5.56,-44.37,37.38,29.91,-81.01,-164.87
58339,53.74265,-1.695277,205.54,29.42,4,299.71,19 / 22,5833939,2019-11-08 11:34:31:550,-0.3953,-1.3574,10.1207,0.0122,-0.0187,9.8066,-0.1029,0.1357,-0.0734,5.06,-43.81,36.56,27.11,-81.06,-165.67
58340,53.74265,-1.695277,205.54,29.42,4,299.71,19 / 22,5834039,2019-11-08 11:34:31:650,0.6183,0.7729,9.4901,-0.0053,-0.0173,9.8065,-0.0302,0.0179,-0.0295,5.19,-44.44,36.81,26.43,-81.0,-166.27
58341,53.74265,-1.695277,205.54,29.42,4,299.71,19 / 22,5834138,2019-11-08 11:34:31:749,0.5568,0.2528,11.5143,-0.0005,-0.0313,9.8065,0.0457,0.1363,-0.0691,5.13,-43.94,36.69,26.23,-81.0,-166.43
58342,53.74265,-1.695277,205.54,29.42,4,299.71,19 / 22,5834238,2019-11-08 11:34:31:849,1.84,-0.4555,9.6828,-0.0101,0.0235,9.8066,0.0369,0.3604,-0.1449,4.63,-43.75,36.81,25.26,-80.76,-167.37
58343,53.74265,-1.695277,205.54,29.42,4,299.71,19 / 22,5834339,2019-11-08 11:34:31:950,-3.808,0.4044,10.3393,-0.0763,-0.0081,9.8063,0.1325,-0.0203,-0.0631,5.06,-44.12,37.19,24.66,-80.72,-167.88
58344,53.74265,-1.695277,205.54,29.42,4,299.71,19 / 22,5834438,2019-11-08 11:34:32:049,-1.871,-0.4437,10.9623,-0.0518,-0.0475,9.8063,0.1596,-0.3222,0.1532,4.25,-44.19,37.19,25.68,-80.31,-165.77
58345,53.74265,-1.695277,205.54,29.42,4,299.71,21 / 23,5834539,2019-11-08 11:34:32:150,-2.294,-0.2862,10.7543,0.0197,0.002,9.8066,0.1369,-0.5654,0.2952,4.44,-44.06,36.94,26.4,-80.53,-165.06
58346,53.74265,-1.695277,205.54,29.42,4,299.71,21 / 23,5834638,2019-11-08 11:34:32:249,1.5893,-0.3042,9.2098,-0.0317,-0.0209,9.8065,0.1144,-0.5611,0.2949,4.69,-44.56,37.0,28.6,-80.55,-164.88
58347,53.74265,-1.695277,205.54,29.42,4,299.71,21 / 23,5834738,2019-11-08 11:34:32:349,4.9797,-1.7264,9.7291,0.0601,-0.0129,9.8064,-0.0349,-0.2236,0.1933,4.88,-44.0,37.06,29.23,-80.52,-164.26
58348,53.74265,-1.695277,205.54,29.42,4,299.71,21 / 23,5834839,2019-11-08 11:34:32:450,-1.3936,3.0619,9.2231,0.0084,-0.0025,9.8066,-0.0514,-0.0035,0.0704,4.75,-45.0,36.75,28.15,-80.41,-165.33
58349,53.74265,-1.695277,205.54,29.42,4,299.71,21 / 23,5834939,2019-11-08 11:34:32:550,4.322,0.9429,8.2717,0.0469,0.0026,9.8065,-0.1342,0.3714,-0.158,4.63,-44.75,36.38,28.66,-80.2,-165.42
58350,53.74265,-1.695277,205.54,29.42,4,299.71,21 / 23,5835038,2019-11-08 11:34:32:649,-0.7817,1.184,10.3538,0.0463,0.0628,9.8063,-0.2035,0.4352,-0.1885,4.25,-44.19,36.88,25.08,-80.56,-166.12
58351,53.74265,-1.695277,205.54,29.42,4,299.71,21 / 23,5835138,2019-11-08 11:34:32:749,-3.6151,-0.4461,9.9228,-0.0212,0.0335,9.8065,-0.1158,0.4203,-0.1892,4.25,-44.87,36.94,25.34,-80.63,-165.97
58352,53.74265,-1.695277,205.54,29.42,4,299.71,21 / 23,5835238,2019-11-08 11:34:32:849,0.8524,0.2022,9.7305,0.0203,-0.0092,9.8066,0.0367,0.177,-0.134,4.44,-44.94,37.31,25.89,-80.75,-165.45
58353,53.74265,-1.695277,205.54,29.42,4,299.71,21 / 23,5835338,2019-11-08 11:34:32:949,-1.9323,-0.7086,11.0282,-0.0533,-0.0283,9.8064,0.1779,-0.0865,-0.0206,3.81,-44.87,36.81,25.52,-80.55,-165.87
58354,53.74265,-1.695277,205.54,29.42,4,299.71,21 / 23,5835438,2019-11-08 11:34:33:049,2.1703,0.041,10.3448,-0.0102,-0.0227,9.8066,0.0594,-0.0695,0.0531,3.69,-45.25,36.94,27.1,-80.2,-164.81
58355,53.74265,-1.695277,205.54,29.42,4,299.71,20 / 21,5835539,2019-11-08 11:34:33:150,-3.2129,-0.9488,11.3289,-0.041,0.0071,9.8065,0.0954,-0.3608,0.2367,3.63,-45.25,36.88,28.62,-80.46,-163.41
58356,53.74265,-1.695277,205.54,29.42,4,299.71,20 / 21,5835639,2019-11-08 11:34:33:250,1.979,2.1213,9.2242,-0.0521,-0.033,9.8064,0.2022,-0.4573,0.225,3.75,-44.75,37.06,31.19,-80.46,-161.31
58357,53.74265,-1.695277,205.54,29.42,4,299.71,20 / 21,5835738,2019-11-08 11:34:33:349,3.1246,-0.0286,9.7903,-0.0093,-0.037,9.8065,0.2043,-0.2623,0.1725,3.19,-45.25,37.81,28.72,-80.51,-161.51
58358,53.74265,-1.695277,205.54,29.42,4,299.71,20 / 21,5835838,2019-11-08 11:34:33:449,2.2915,3.0752,9.5415,-0.0367,-0.0365,9.8065,0.0488,-0.153,0.0907,3.63,-45.37,36.44,30.26,-80.29,-162.52
58359,53.74265,-1.695277,205.54,29.42,4,299.71,20 / 21,5835939,2019-11-08 11:34:33:550,2.4307,0.3991,8.939,0.0264,0.003,9.8065,-0.1928,0.0385,-0.046,3.88,-45.37,36.5,29.95,-79.93,-162.68
58360,53.74265,-1.695277,205.54,29.42,4,299.71,20 / 21,5836039,2019-11-08 11:34:33:650,-1.6583,-1.0469,10.9543,-0.0031,0.0394,9.8065,-0.1744,0.2148,-0.1152,2.88,-44.44,37.25,27.91,-80.05,-162.6
58361,53.74265,-1.695277,205.54,29.42,4,299.71,20 / 21,5836139,2019-11-08 11:34:33:750,1.578,-0.854,9.8137,-0.002,0.0453,9.8065,-0.1408,0.2248,0.0331,3.19,-45.37,37.56,27.61,-80.07,-162.69
58362,53.74265,-1.695277,205.54,29.42,4,299.71,20 / 21,5836238,2019-11-08 11:34:33:849,-1.6086,-1.7832,10.5294,0.0194,-0.0174,9.8065,-0.0251,0.1751,-0.0578,3.38,-45.12,37.75,28.91,-80.2,-161.56
58363,53.74265,-1.695277,205.54,29.42,4,299.71,20 / 21,5836339,2019-11-08 11:34:33:950,0.505,2.7151,9.3551,-0.0101,-0.0375,9.8065,-0.0418,0.2314,-0.1612,3.25,-44.81,37.38,29.15,-79.9,-161.83
58364,53.74265,-1.695277,205.54,29.42,4,299.71,20 / 21,5836438,2019-11-08 11:34:34:049,-1.8914,-0.7,9.3829,0.0151,0.0014,9.8065,0.0376,0.1994,-0.0711,3.13,-44.81,37.31,29.61,-79.88,-161.47
58365,53.74265,-1.695277,205.54,29.42,4,299.71,21 / 22,5836538,2019-11-08 11:34:34:149,1.5352,2.7629,9.7608,0.0174,0.031,9.8065,0.0491,0.1486,-0.0957,2.81,-45.12,37.63,31.29,-80.08,-159.7
58366,53.74265,-1.695277,205.54,29.42,4,299.71,21 / 22,5836639,2019-11-08 11:34:34:250,2.7799,-1.7492,9.2686,0.0432,0.0154,9.8065,-0.0116,-0.117,0.1062,2.75,-45.06,36.5,31.61,-80.54,-159.4
58367,53.74265,-1.695277,205.54,29.42,4,299.71,21 / 22,5836739,2019-11-08 11:34:34:350,0.238,1.1714,9.8913,-0.0275,-0.0315,9.8065,-0.0552,-0.252,0.1275,3.69,-45.06,38.06,32.66,-80.38,-159.84
58368,53.74265,-1.695277,205.54,29.42,4,299.71,21 / 22,5836839,2019-11-08 11:34:34:450,3.5303,-1.2321,8.9911,-0.0161,-0.0144,9.8065,0.0896,-0.2769,0.1599,2.75,-45.06,37.63,30.46,-80.14,-160.33
58369,53.74265,-1.695277,205.54,29.42,4,299.71,21 / 22,5836939,2019-11-08 11:34:34:550,0.9858,-0.0848,10.8817,-0.0336,-0.0109,9.8065,0.1086,-0.208,0.0847,2.94,-44.81,37.5,29.99,-79.99,-160.81
58370,53.74265,-1.695277,205.54,29.42,4,299.71,21 / 22,5837039,2019-11-08 11:34:34:650,3.2395,-1.727,7.9504,-0.0351,-0.0053,9.8065,-0.0925,-0.0949,0.0675,2.69,-44.81,37.69,30.85,-79.75,-160.28
58371,53.74265,-1.695277,205.54,29.42,4,299.71,21 / 22,5837139,2019-11-08 11:34:34:750,-1.8591,1.94,9.2654,0.0029,0.0187,9.8066,-0.0777,-0.0586,0.1116,3.0,-45.06,37.19,31.71,-80.12,-159.61
58372,53.74265,-1.695277,205.54,29.42,4,299.71,21 / 22,5837239,2019-11-08 11:34:34:850,-0.7198,1.0096,10.7921,-0.0453,-0.0112,9.8065,-0.0746,0.1192,-0.1426,2.81,-44.81,37.25,31.94,-80.16,-159.4
58373,53.74265,-1.695277,205.54,29.42,4,299.71,21 / 22,5837338,2019-11-08 11:34:34:949,-2.2718,1.2711,11.8716,-0.0201,-0.0062,9.8066,-0.1333,0.2551,-0.137,2.88,-45.31,38.06,31.49,-79.83,-159.71
58374,53.74265,-1.695277,205.54,29.42,4,299.71,21 / 22,5837438,2019-11-08 11:34:35:049,-1.0869,-1.1779,9.2685,-0.0509,-0.0483,9.8063,-0.2111,0.5355,-0.1633,3.63,-45.06,37.44,34.64,-79.56,-159.17
58375,53.74265,-1.695277,205.54,29.42,4,299.71,21 / 22,5837538,2019-11-08 11:34:35:149,4.7698,-1.4922,8.1533,-0.0546,0.0021,9.8064,-0.0972,0.5083,-0.3055,2.75,-44.75,37.25,34.55,-79.75,-157.57
58376,53.74265,-1.695277,205.54,29.42,4,299.71,21 / 22,5837639,2019-11-08 11:34:35:250,-0.8542,0.1962,9.0557,0.0231,0.0439,9.8065,0.1032,0.0245,-0.1188,2.5,-44.87,37.5,33.65,-80.29,-157.61
58377,53.74265,-1.695277,205.54,29.42,4,299.71,21 / 22,5837741,2019-11-08 11:34:35:352,2.7297,-0.9555,9.9149,0.0118,0.0019,9.8065,0.0635,-0.0847,0.0559,2.56,-45.25,37.94,33.78,-80.34,-157.46
58378,53.74265,-1.695277,205.54,29.42,4,299.71,21 / 22,5837839,2019-11-08 11:34:35:450,-0.1001,0.1482,11.279,0.0137,0.0081,9.8065,0.0572,-0.1735,0.0895,2.5,-44.56,37.38,34.59,-80.21,-157.19
58379,53.74265,-1.695277,205.54,29.42,4,299.71,21 / 22,5837939,2019-11-08 11:34:35:550,0.01,0.5372,9.8266,0.0016,0.0119,9.8065,0.0583,-0.0923,0.1061,2.31,-45.06,37.88,32.42,-80.13,-157.25
58380,53.74265,-1.695277,205.54,29.42,4,299.71,21 / 22,5838041,2019-11-08 11:34:35:652,-1.1102,0.9928,9.9537,0.0048,0.0147,9.8065,-0.0029,-0.1336,0.1222,2.94,-45.0,37.38,35.22,-80.13,-156.74
58381,53.74265,-1.695277,205.54,29.42,4,299.71,21 / 22,5838139,2019-11-08 11:34:35:750,0.0878,0.7148,8.6009,-0.0011,-0.0118,9.8066,-0.0356,-0.205,0.1387,2.19,-44.62,37.13,33.94,-79.99,-156.36
58382,53.74265,-1.695277,205.54,29.42,4,299.71,21 / 22,5838239,2019-11-08 11:34:35:850,1.4291,0.0263,10.4833,0.0208,-0.021,9.8066,-0.0983,-0.1436,0.1069,2.56,-44.81,37.31,35.68,-80.01,-156.45
58383,53.74265,-1.695277,205.54,29.42,4,299.71,21 / 22,5838338,2019-11-08 11:34:35:949,0.908,-0.5135,10.9562,0.0128,-0.0105,9.8065,-0.1109,-0.0989,0.1405,2.56,-44.62,37.5,35.44,-80.0,-156.35
58384,53.74265,-1.695277,205.54,29.42,4,299.71,21 / 22,5838439,2019-11-08 11:34:36:050,0.8047,1.2635,9.0472,0.0078,-0.0141,9.8065,-0.0443,-0.0127,0.0431,2.44,-44.25,36.88,34.08,-79.91,-156.15
58385,53.74265,-1.695277,205.54,29.42,4,299.71,22 / 22,5838539,2019-11-08 11:34:36:150,0.7442,-0.0078,10.7491,-0.0113,-0.0207,9.8066,0.0002,0.0439,-0.0113,2.06,-43.69,37.44,34.35,-79.83,-155.99
58386,53.74265,-1.695277,205.54,29.42,4,299.71,22 / 22,5838638,2019-11-08 11:34:36:249,-0.6163,-0.8797,10.5695,0.0018,0.0078,9.8066,0.0602,-0.0698,0.0259,1.44,-44.25,37.06,32.84,-79.75,-155.75
58387,53.74265,-1.695277,205.54,29.42,4,299.71,22 / 22,5838738,2019-11-08 11:34:36:349,0.5813,1.0358,9.0744,-0.0066,0.0181,9.8066,-0.0029,-0.1144,0.0615,2.13,-44.0,37.0,34.67,-79.77,-155.77
58388,53.74265,-1.695277,205.54,29.42,4,299.71,22 / 22,5838838,2019-11-08 11:34:36:449,2.1401,-0.8991,8.8474,0.0128,0.0209,9.8066,0.0171,-0.1303,0.0891,1.63,-43.81,37.19,35.85,-79.82,-154.77
58389,53.74265,-1.695277,205.54,29.42,4,299.71,22 / 22,5838938,2019-11-08 11:34:36:549,0.0368,0.257,10.3971,-0.0238,-0.0061,9.8066,-0.0232,0.0124,0.0139,1.13,-43.37,37.19,34.05,-79.94,-154.47
58390,53.74265,-1.695277,205.54,29.42,4,299.71,22 / 22,5839039,2019-11-08 11:34:36:650,2.2569,-0.7546,9.2205,0.0125,-0.0296,9.8065,-0.1025,0.1446,-0.0538,1.44,-43.0,36.88,33.52,-79.84,-154.97
58391,53.74265,-1.695277,205.54,29.42,4,299.71,22 / 22,5839138,2019-11-08 11:34:36:749,0.7514,-0.2969,10.167,-0.0085,-0.0263,9.8066,-0.1345,0.2246,-0.0941,2.0,-42.75,37.38,34.74,-79.93,-155.44
58392,53.74265,-1.695277,205.54,29.42,4,299.71,22 / 22,5839238,2019-11-08 11:34:36:849,2.3453,-0.3013,9.0185,-0.0228,-0.0015,9.8066,-0.1621,0.1669,-0.0829,1.63,-42.31,36.69,35.35,-79.95,-154.77
58393,53.74265,-1.695277,205.54,29.42,4,299.71,22 / 22,5839338,2019-11-08 11:34:36:949,0.8016,1.2867,9.8302,0.0136,-0.0101,9.8065,-0.1629,0.1019,-0.0425,1.81,-41.75,36.38,35.84,-80.26,-154.39
58394,53.74265,-1.695277,205.54,29.42,4,299.71,22 / 22,5839438,2019-11-08 11:34:37:049,-1.4339,0.9765,8.9133,-0.0251,0.024,9.8065,0.1205,-0.0292,-0.0387,0.63,-41.12,36.56,31.89,-80.31,-155.7
58395,53.743935,-1.698685,203.2,29.63,4,302.55,21 / 21,5839538,2019-11-08 11:34:37:149,1.5021,1.4566,9.2931,0.0123,0.0035,9.8066,0.1477,-0.086,-0.0039,0.44,-40.94,37.19,30.1,-80.16,-155.74
58396,53.743935,-1.698685,203.2,29.63,4,302.55,21 / 21,5839638,2019-11-08 11:34:37:249,0.2425,-2.5624,10.9763,-0.0093,-0.0473,9.8064,0.0481,-0.0559,0.0467,0.31,-41.56,38.31,29.73,-80.14,-156.05
58397,53.743935,-1.698685,203.2,29.63,4,302.55,21 / 21,5839739,2019-11-08 11:34:37:350,-0.8806,1.9005,9.6063,-0.0113,0.0058,9.8066,0.0809,0.0153,-0.0483,0.13,-41.37,37.94,29.08,-79.82,-156.64
58398,53.743935,-1.698685,203.2,29.63,4,302.55,21 / 21,5839839,2019-11-08 11:34:37:450,-0.3453,-0.2811,8.59,-0.0059,0.0282,9.8066,0.0025,-0.0009,0.0207,-0.69,-41.31,38.38,27.87,-79.88,-156.09
58399,53.743935,-1.698685,203.2,29.63,4,302.55,21 / 21,5839939,2019-11-08 11:34:37:550,-0.1406,2.0137,10.961,-0.0039,0.0437,9.8065,-0.1551,0.0193,-0.054,0.63,-41.37,39.56,32.35,-80.28,-154.79
58400,53.743935,-1.698685,203.2,29.63,4,302.55,21 / 21,5840038,2019-11-08 11:34:37:649,1.9995,0.4067,8.2065,0.0112,0.0415,9.8065,-0.2175,0.1985,-0.0139,0.5,-41.87,39.13,31.81,-80.28,-155.55
58401,53.743935,-1.698685,203.2,29.63,4,302.55,21 / 21,5840139,2019-11-08 11:34:37:750,-0.0667,0.9524,10.7948,0.0281,-0.008,9.8066,-0.026,0.3009,-0.121,1.5,-41.44,40.0,32.33,-80.36,-156.18
58402,53.743935,-1.698685,203.2,29.63,4,302.55,21 / 21,5840239,2019-11-08 11:34:37:850,4.1374,2.2808,9.7648,0.0297,-0.0194,9.8065,-0.0399,0.1138,-0.0987,2.5,-41.5,39.56,34.13,-80.0,-156.31
58403,53.743935,-1.698685,203.2,29.63,4,302.55,21 / 21,5840339,2019-11-08 11:34:37:950,-1.6272,2.6012,9.7079,0.008,0.0041,9.8066,0.0558,-0.2369,0.0877,3.06,-42.0,39.44,34.72,-79.82,-156.34
58404,53.743935,-1.698685,203.2,29.63,4,302.55,21 / 21,5840438,2019-11-08 11:34:38:049,-1.403,2.9522,10.8685,-0.0205,0.0267,9.8066,0.0699,-0.3361,0.2153,3.75,-42.0,39.88,36.66,-79.94,-155.77
58405,53.743935,-1.698685,203.2,29.63,4,302.55,21 / 21,5840538,2019-11-08 11:34:38:149,3.8125,-1.4209,8.3493,0.0368,0.0247,9.8065,0.1676,-0.3703,0.2045,4.81,-42.06,39.75,39.1,-80.0,-155.05
58406,53.743935,-1.698685,203.2,29.63,4,302.55,21 / 21,5840639,2019-11-08 11:34:38:250,-0.169,0.9879,11.1724,-0.0384,-0.0477,9.8064,0.1211,-0.1797,0.0951,5.5,-42.19,38.75,41.02,-80.48,-154.8
58407,53.743935,-1.698685,203.2,29.63,4,302.55,21 / 21,5840739,2019-11-08 11:34:38:350,-0.0253,-1.7299,11.1935,-0.0197,-0.0282,9.8065,0.0631,0.1245,-0.1086,5.88,-41.75,38.06,40.32,-80.24,-155.98
58408,53.743935,-1.698685,203.2,29.63,4,302.55,21 / 21,5840839,2019-11-08 11:34:38:450,3.1374,1.0694,10.8331,0.0028,-0.0064,9.8065,0.1348,0.182,-0.1522,5.81,-41.75,36.94,39.9,-80.03,-156.93
58409,53.743935,-1.698685,203.2,29.63,4,302.55,21 / 21,5840940,2019-11-08 11:34:38:551,-0.8013,-0.0177,10.1307,0.0071,0.0255,9.8066,0.0237,0.0352,0.0803,5.5,-41.94,36.44,40.51,-80.08,-156.83
58410,53.743935,-1.698685,203.2,29.63,4,302.55,21 / 21,5841039,2019-11-08 11:34:38:650,1.5325,0.6896,9.6083,0.0048,0.0067,9.8066,0.011,-0.1385,0.0696,5.25,-42.5,35.44,40.51,-80.1,-155.72
58411,53.743935,-1.698685,203.2,29.63,4,302.55,21 / 21,5841139,2019-11-08 11:34:38:750,1.9457,2.5639,9.2601,0.016,-0.0089,9.8066,-0.0431,-0.1223,0.0829,4.19,-42.31,35.94,38.87,-80.05,-155.17
58412,53.743935,-1.698685,203.2,29.63,4,302.55,21 / 21,5841239,2019-11-08 11:34:38:850,0.2929,1.1558,9.9356,-0.0141,-0.0029,9.8065,-0.0686,-0.0724,0.0695,3.75,-41.5,35.75,37.51,-79.82,-156.3
58413,53.743935,-1.698685,203.2,29.63,4,302.55,21 / 21,5841339,2019-11-08 11:34:38:950,2.52,1.9581,9.8187,-0.0136,0.0077,9.8066,-0.0156,0.0972,-0.0513,3.31,-42.25,35.56,36.33,-79.8,-155.92
58414,53.743935,-1.698685,203.2,29.63,4,302.55,21 / 21,5841438,2019-11-08 11:34:39:049,1.2927,-0.582,10.0834,-0.0054,-0.0025,9.8066,0.0378,0.1515,-0.0559,3.31,-41.62,36.06,36.51,-80.05,-155.57
58415,53.743935,-1.698685,203.2,29.63,4,302.55,21 / 21,5841539,2019-11-08 11:34:39:150,1.9131,1.5543,9.6925,-0.0148,-0.0157,9.8066,-0.0514,0.1204,-0.077,3.44,-41.75,36.25,36.65,-79.95,-155.53
58416,53.743935,-1.698685,203.2,29.63,4,302.55,21 / 21,5841639,2019-11-08 11:34:39:250,0.6812,0.1018,9.7405,0.0007,-0.012,9.8065,0.0327,0.0578,-0.051,2.81,-41.31,37.94,35.26,-79.94,-155.93
58417,53.743935,-1.698685,203.2,29.63,4,302.55,21 / 21,5841739,2019-11-08 11:34:39:350,0.9043,1.1878,9.6,-0.0052,0.0305,9.8066,0.0275,-0.0396,-0.0443,2.44,-41.19,37.31,33.81,-79.9,-155.92
58418,53.743935,-1.698685,203.2,29.63,4,302.55,21 / 21,5841839,2019-11-08 11:34:39:450,0.5538,-0.0756,9.6899,-0.0103,0.0088,9.8066,0.0029,0.015,0.0061,2.06,-42.0,38.63,34.32,-80.16,-154.98
58419,53.743935,-1.698685,203.2,29.63,4,302.55,21 / 21,5841939,2019-11-08 11:34:39:550,0.985,0.6168,10.7534,-0.0023,-0.0047,9.8066,0.051,0.0206,-0.0345,2.25,-42.06,38.31,34.98,-80.06,-154.74
58420,53.743935,-1.698685,203.2,29.63,4,302.55,21 / 21,5842039,2019-11-08 11:34:39:650,1.4675,0.3852,9.109,0.0146,0.0155,9.8065,0.1392,0.0633,-0.0545,1.81,-41.31,38.56,34.35,-80.09,-154.86
58421,53.743935,-1.698685,203.2,29.63,4,302.55,21 / 21,5842138,2019-11-08 11:34:39:749,-0.3862,0.829,9.3077,-0.0067,0.0188,9.8066,0.0519,0.0536,-0.0163,2.38,-41.0,39.25,34.53,-80.31,-154.56
58422,53.743935,-1.698685,203.2,29.63,4,302.55,21 / 21,5842239,2019-11-08 11:34:39:850,2.7659,1.2751,8.9401,0.0337,0.0166,9.8065,0.0886,-0.0324,0.0262,1.75,-42.12,39.63,34.11,-80.16,-154.94
58423,53.743935,-1.698685,203.2,29.63,4,302.55,21 / 21,5842338,2019-11-08 11:34:39:949,-1.5193,-0.0341,11.2304,0.0244,0.0141,9.8065,0.0746,-0.2612,0.2225,1.25,-42.94,38.5,32.35,-80.17,-155.31
58424,53.743935,-1.698685,203.2,29.63,4,302.55,21 / 21,5842438,2019-11-08 11:34:40:049,-0.6204,-0.0111,10.9212,-0.0172,-0.0017,9.8066,0.0915,-0.2988,0.1555,1.0,-42.19,38.94,32.49,-80.15,-155.06
58425,53.743935,-1.698685,203.2,29.63,4,302.55,21 / 22,5842538,2019-11-08 11:34:40:149,1.8476,0.6784,10.04,-0.0162,0.0093,9.8065,0.0682,-0.1198,0.1359,0.5,-42.25,38.69,32.77,-80.07,-154.88
58426,53.743935,-1.698685,203.2,29.63,4,302.55,21 / 22,5842638,2019-11-08 11:34:40:249,-1.6934,-0.4373,10.8591,0.0002,0.0102,9.8065,-0.0636,0.2181,-0.1026,-0.25,-44.5,39.25,32.63,-80.03,-153.83
58427,53.743935,-1.698685,203.2,29.63,4,302.55,21 / 22,5842739,2019-11-08 11:34:40:350,1.8991,1.0073,9.2939,0.011,0.0212,9.8066,-0.0713,0.2092,-0.0755,0.63,-45.69,37.81,36.03,-80.06,-152.98
58428,53.743935,-1.698685,203.2,29.63,4,302.55,21 / 22,5842839,2019-11-08 11:34:40:450,1.2284,-0.1894,10.1879,0.0257,0.0094,9.8066,-0.1031,0.1554,-0.0735,1.56,-45.62,36.38,38.76,-80.09,-152.79
58429,53.743935,-1.698685,203.2,29.63,4,302.55,21 / 22,5842938,2019-11-08 11:34:40:549,2.4184,-0.1988,9.3706,0.0093,0.0243,9.8066,-0.0661,0.1675,-0.035,2.19,-44.25,36.81,37.31,-80.27,-153.21
58430,53.743935,-1.698685,203.2,29.63,4,302.55,21 / 22,5843038,2019-11-08 11:34:40:649,0.0645,1.0757,9.9769,0.0302,-0.0028,9.8066,-0.0298,0.0725,-0.1158,2.44,-43.69,37.06,37.44,-80.53,-152.89
58431,53.743935,-1.698685,203.2,29.63,4,302.55,21 / 22,5843139,2019-11-08 11:34:40:750,1.1892,0.6216,10.2862,0.0026,-0.014,9.8066,0.0614,0.0734,-0.0267,2.81,-44.5,37.19,39.78,-80.54,-152.44
58432,53.743935,-1.698685,203.2,29.63,4,302.55,21 / 22,5843239,2019-11-08 11:34:40:850,0.5592,0.6899,10.3009,0.003,-0.0035,9.8066,-0.005,0.1646,-0.1019,2.81,-44.69,37.19,39.53,-80.43,-152.91
58433,53.743935,-1.698685,203.2,29.63,4,302.55,21 / 22,5843338,2019-11-08 11:34:40:949,1.7548,1.1866,9.9006,0.015,0.015,9.8066,-0.0106,0.077,-0.124,2.44,-44.56,37.69,37.78,-80.33,-152.65
58434,53.743935,-1.698685,203.2,29.63,4,302.55,21 / 22,5843438,2019-11-08 11:34:41:049,-0.1335,0.6344,10.0261,-0.0133,-0.013,9.8065,0.032,0.139,-0.0475,2.56,-45.06,38.13,39.88,-80.42,-152.31
58435,53.743935,-1.698685,203.2,29.63,4,302.55,20 / 22,5843540,2019-11-08 11:34:41:151,1.0114,0.4416,10.6592,-0.0139,-0.0039,9.8066,-0.0483,0.0269,-0.0821,2.5,-45.0,37.94,39.7,-80.46,-152.42
58436,53.743935,-1.698685,203.2,29.63,4,302.55,20 / 22,5843638,2019-11-08 11:34:41:249,2.1772,-0.3575,9.757,-0.019,-0.0057,9.8066,0.0128,-0.0013,0.0302,2.25,-45.12,37.75,38.08,-80.32,-152.42
58437,53.743935,-1.698685,203.2,29.63,4,302.55,20 / 22,5843739,2019-11-08 11:34:41:350,0.7136,0.3607,9.4337,-0.0129,0.0097,9.8065,-0.073,0.0472,0.0574,1.88,-45.19,38.25,38.37,-80.41,-152.1
58438,53.743935,-1.698685,203.2,29.63,4,302.55,20 / 22,5843839,2019-11-08 11:34:41:450,0.643,1.6559,9.7154,-0.0038,0.0026,9.8066,-0.0585,-0.015,-0.0367,2.5,-45.75,38.19,41.05,-80.43,-151.48
58439,53.743935,-1.698685,203.2,29.63,4,302.55,20 / 22,5843938,2019-11-08 11:34:41:549,1.2398,0.3187,9.6791,-0.004,-0.0018,9.8066,0.0436,-0.0681,0.0633,2.44,-45.19,38.69,37.45,-80.58,-152.48
58440,53.743935,-1.698685,203.2,29.63,4,302.55,20 / 22,5844038,2019-11-08 11:34:41:649,1.4162,-0.2544,10.1391,0.0191,0.0074,9.8066,0.0169,-0.1652,0.0844,2.69,-45.37,38.63,37.78,-80.67,-153.57
58441,53.743935,-1.698685,203.2,29.63,4,302.55,20 / 22,5844138,2019-11-08 11:34:41:749,-0.3207,-0.1233,10.0275,-0.0231,-0.0022,9.8065,0.0311,-0.1031,0.0742,2.31,-45.5,38.56,35.09,-80.7,-154.37
58442,53.743935,-1.698685,203.2,29.63,4,302.55,20 / 22,5844239,2019-11-08 11:34:41:850,1.8914,0.0017,9.6355,0.0014,-0.002,9.8066,0.004,0.0019,0.0408,2.5,-45.25,38.38,37.27,-80.66,-154.3
58443,53.743935,-1.698685,203.2,29.63,4,302.55,20 / 22,5844339,2019-11-08 11:34:41:950,0.7754,-0.1275,9.28,0.0069,0.0025,9.8066,0.0045,-0.0244,0.0261,3.0,-45.25,38.0,37.38,-80.7,-154.18
58444,53.743935,-1.698685,203.2,29.63,4,302.55,20 / 22,5844439,2019-11-08 11:34:42:050,0.5094,-0.2599,9.8218,0.0144,0.006,9.8066,-0.0263,-0.1067,0.0702,2.69,-45.94,39.0,37.19,-80.77,-154.14
58445,53.743935,-1.698685,203.2,29.63,4,302.55,19 / 20,5844539,2019-11-08 11:34:42:150,1.0369,-0.2569,10.2589,-0.0053,-0.0057,9.8066,-0.056,-0.0175,0.0944,2.56,-45.81,38.56,36.81,-80.69,-154.53
58446,53.743935,-1.698685,203.2,29.63,4,302.55,19 / 20,5844638,2019-11-08 11:34:42:249,1.13,-1.706,10.2705,-0.003,-0.0138,9.8066,0.0112,0.0453,-0.074,2.63,-45.56,39.13,36.87,-80.61,-154.54
58447,53.743935,-1.698685,203.2,29.63,4,302.55,19 / 20,5844738,2019-11-08 11:34:42:349,1.5732,-1.2374,9.5558,-0.0117,0.0113,9.8066,-0.046,0.1735,-0.0614,2.75,-45.06,38.63,36.6,-80.51,-154.7
58448,53.743935,-1.698685,203.2,29.63,4,302.55,19 / 20,5844838,2019-11-08 11:34:42:449,1.2059,-0.435,8.8392,-0.0243,0.0001,9.8065,-0.1246,0.2309,-0.0277,2.19,-45.69,38.94,36.25,-80.5,-153.69
58449,53.743935,-1.698685,203.2,29.63,4,302.55,19 / 20,5844939,2019-11-08 11:34:42:550,1.7165,-0.9114,9.4372,0.0167,0.0,9.8066,-0.0576,0.1187,-0.0328,2.13,-45.44,39.19,36.68,-80.56,-153.14
58450,53.743935,-1.698685,203.2,29.63,4,302.55,19 / 20,5845039,2019-11-08 11:34:42:650,-0.5581,0.1309,9.4615,-0.002,-0.0056,9.8065,-0.0351,0.0429,-0.0087,2.75,-45.31,39.31,38.13,-80.64,-153.31
58451,53.743935,-1.698685,203.2,29.63,4,302.55,19 / 20,5845139,2019-11-08 11:34:42:750,2.3521,-1.0004,9.8311,-0.0222,0.0195,9.8065,0.0017,-0.1002,0.0381,2.0,-45.69,39.06,37.54,-80.74,-152.42
58452,53.743935,-1.698685,203.2,29.63,4,302.55,19 / 20,5845238,2019-11-08 11:34:42:849,-0.2833,-1.6543,10.5663,0.0206,-0.0091,9.8066,0.1185,-0.1729,0.0767,2.5,-45.56,38.69,38.91,-80.77,-152.7
58453,53.743935,-1.698685,203.2,29.63,4,302.55,19 / 20,5845338,2019-11-08 11:34:42:949,0.4688,-2.2993,11.1742,0.0083,-0.0079,9.8066,0.1252,-0.0627,0.0559,2.06,-46.25,38.75,37.12,-80.59,-152.89
58454,53.743935,-1.698685,203.2,29.63,4,302.55,19 / 20,5845438,2019-11-08 11:34:43:049,-0.0927,-1.7851,10.5075,-0.0028,0.0189,9.8066,-0.0133,-0.0847,0.0145,2.44,-45.25,39.25,36.61,-80.61,-153.17
58455,53.743935,-1.698685,203.2,29.63,4,302.55,20 / 22,5845538,2019-11-08 11:34:43:149,1.3212,-0.3631,10.1197,0.0116,-0.0003,9.8066,-0.0244,-0.0727,0.1189,1.69,-45.44,39.0,37.57,-80.75,-152.25
58456,53.743935,-1.698685,203.2,29.63,4,302.55,20 / 22,5845639,2019-11-08 11:34:43:250,2.1296,1.6934,9.1747,0.0235,-0.0075,9.8065,0.0475,-0.0918,0.0308,2.5,-45.0,39.44,37.47,-80.57,-153.92
58457,53.743935,-1.698685,203.2,29.63,4,302.55,20 / 22,5845738,2019-11-08 11:34:43:349,2.128,-1.5177,7.1003,0.0099,0.03,9.8065,0.1684,-0.0984,0.0071,2.75,-46.25,39.5,36.98,-80.62,-154.16
58458,53.743935,-1.698685,203.2,29.63,4,302.55,20 / 22,5845838,2019-11-08 11:34:43:449,0.2697,-0.6591,10.6343,0.0083,0.0349,9.8066,0.1973,-0.123,-0.0262,2.06,-46.0,39.31,36.8,-80.83,-152.97
58459,53.743935,-1.698685,203.2,29.63,4,302.55,20 / 22,5845938,2019-11-08 11:34:43:549,-0.8945,0.3132,9.9346,0.0167,-0.029,9.8065,0.0509,-0.029,0.0013,2.44,-45.44,39.19,35.26,-80.65,-154.27
58460,53.743935,-1.698685,203.2,29.63,4,302.55,20 / 22,5846038,2019-11-08 11:34:43:649,1.0826,1.8157,9.0659,0.0286,-0.0382,9.8064,-0.0771,0.1062,-0.0546,3.06,-45.94,39.31,36.48,-80.5,-154.95
58461,53.743935,-1.698685,203.2,29.63,4,302.55,20 / 22,5846138,2019-11-08 11:34:43:749,-0.4189,0.2387,10.7173,-0.0126,-0.0036,9.8066,-0.0399,0.2085,-0.0225,3.19,-45.81,39.06,34.84,-80.39,-156.41
58462,53.743935,-1.698685,203.2,29.63,4,302.55,20 / 22,5846239,2019-11-08 11:34:43:850,1.841,-1.1529,9.416,-0.0119,-0.0209,9.8066,-0.1579,0.3376,-0.1705,2.63,-45.75,39.13,35.44,-80.48,-155.84
58463,53.743935,-1.698685,203.2,29.63,4,302.55,20 / 22,5846339,2019-11-08 11:34:43:950,0.2097,-1.2011,10.093,-0.0113,-0.0266,9.8066,-0.2174,0.2362,-0.0432,2.38,-45.87,40.0,33.23,-80.8,-155.77
58464,53.743935,-1.698685,203.2,29.63,4,302.55,20 / 22,5846439,2019-11-08 11:34:44:050,0.1121,-0.652,10.3204,0.0151,0.0304,9.8065,-0.1496,0.1599,-0.03,2.94,-45.81,39.13,35.15,-80.84,-155.81
58465,53.743935,-1.698685,203.2,29.63,4,302.55,20 / 22,5846539,2019-11-08 11:34:44:150,0.7569,2.2186,9.1336,0.0174,-0.0505,9.8064,0.0757,0.0193,0.0492,3.19,-45.31,39.06,33.65,-80.6,-157.11
58466,53.743935,-1.698685,203.2,29.63,4,302.55,20 / 22,5846639,2019-11-08 11:34:44:250,1.2121,0.1279,10.7298,-0.0182,-0.0159,9.8065,0.0993,-0.0604,0.0899,3.5,-45.44,39.81,34.64,-80.54,-157.47
58467,53.743935,-1.698685,203.2,29.63,4,302.55,20 / 22,5846738,2019-11-08 11:34:44:349,2.6425,0.711,9.2522,0.0044,0.003,9.8066,0.0215,-0.1925,0.1022,3.19,-45.75,39.5,33.48,-80.46,-157.22
58468,53.743935,-1.698685,203.2,29.63,4,302.55,20 / 22,5846838,2019-11-08 11:34:44:449,-1.1853,-1.9088,10.2711,-0.0389,0.0059,9.8065,0.065,-0.2352,0.2109,3.44,-46.37,40.19,33.52,-80.83,-156.92
58469,53.743935,-1.698685,203.2,29.63,4,302.55,20 / 22,5846939,2019-11-08 11:34:44:550,1.7945,0.1141,8.9173,-0.0014,0.011,9.8066,0.0819,-0.1745,0.1449,2.69,-46.5,39.81,35.22,-81.03,-155.35
58470,53.743935,-1.698685,203.2,29.63,4,302.55,20 / 22,5847039,2019-11-08 11:34:44:650,-0.4131,-1.369,10.047,-0.0259,-0.0276,9.8065,0.0928,-0.1578,0.1224,3.31,-45.5,40.06,34.64,-81.07,-155.68
58471,53.743935,-1.698685,203.2,29.63,4,302.55,20 / 22,5847138,2019-11-08 11:34:44:749,1.6794,-2.1885,9.5614,-0.0018,-0.0096,9.8066,-0.0119,-0.0915,0.0591,2.19,-46.37,39.5,32.68,-80.78,-156.24
58472,53.743935,-1.698685,203.2,29.63,4,302.55,20 / 22,5847238,2019-11-08 11:34:44:849,0.7879,1.3551,10.0331,-0.0113,0.0024,9.8066,0.0187,-0.0226,0.0441,2.63,-45.56,39.63,34.12,-80.57,-156.61
58473,53.743935,-1.698685,203.2,29.63,4,302.55,20 / 22,5847338,2019-11-08 11:34:44:949,1.9846,-0.6622,9.8681,-0.0089,0.0149,9.8066,-0.0737,0.1645,-0.1165,2.31,-45.5,39.88,33.66,-80.64,-155.39
58474,53.743935,-1.698685,203.2,29.63,4,302.55,20 / 22,5847438,2019-11-08 11:34:45:049,1.6076,2.4243,9.4175,0.0135,0.0261,9.8065,-0.0811,0.2748,-0.1656,2.25,-45.5,40.0,34.59,-80.68,-154.57
58475,53.743935,-1.698685,203.2,29.63,4,302.55,20 / 24,5847539,2019-11-08 11:34:45:150,-0.7731,-0.2297,10.9732,-0.0212,-0.0152,9.8066,-0.0897,0.2608,-0.1041,2.94,-46.06,39.38,36.34,-80.9,-154.76
58476,53.743935,-1.698685,203.2,29.63,4,302.55,20 / 24,5847639,2019-11-08 11:34:45:250,0.8075,0.826,10.661,0.0227,-0.0188,9.8065,-0.0274,0.1963,-0.1304,3.13,-45.44,40.13,35.56,-80.73,-155.14
58477,53.743935,-1.698685,203.2,29.63,4,302.55,20 / 24,5847739,2019-11-08 11:34:45:350,0.4565,-0.7335,8.9432,-0.0012,-0.0261,9.8065,-0.0389,0.1017,-0.0733,3.25,-45.31,39.94,33.72,-80.59,-156.8
58478,53.743935,-1.698685,203.2,29.63,4,302.55,20 / 24,5847839,2019-11-08 11:34:45:450,1.3296,0.2027,10.1986,0.0085,0.0004,9.8065,-0.0283,0.0474,0.0084,2.94,-46.12,39.94,33.58,-80.68,-156.98
58479,53.743935,-1.698685,203.2,29.63,4,302.55,20 / 24,5847939,2019-11-08 11:34:45:550,-0.489,-0.5585,10.9046,0.0179,0.0284,9.8065,0.1298,-0.069,0.0341,3.25,-45.62,40.13,33.36,-80.91,-157.0
58480,53.743935,-1.698685,203.2,29.63,4,302.55,20 / 24,5848038,2019-11-08 11:34:45:649,1.7777,2.1864,9.607,0.0088,0.0212,9.8066,0.1794,-0.169,0.0516,3.31,-45.31,40.13,33.23,-80.99,-156.93
58481,53.743935,-1.698685,203.2,29.63,4,302.55,20 / 24,5848138,2019-11-08 11:34:45:749,2.3157,-0.3706,10.7398,0.0245,0.0107,9.8066,-0.0279,-0.1229,0.1314,3.19,-45.19,39.81,32.13,-81.12,-157.77
58482,53.743935,-1.698685,203.2,29.63,4,302.55,20 / 24,5848239,2019-11-08 11:34:45:850,2.8452,1.6917,10.2114,0.0032,-0.0388,9.8065,-0.0322,-0.149,0.1504,3.25,-46.56,39.94,32.37,-80.84,-158.0
58483,53.743935,-1.698685,203.2,29.63,4,302.55,20 / 24,5848338,2019-11-08 11:34:45:949,1.4105,-1.4282,9.4028,0.019,-0.0171,9.8066,-0.016,0.0133,0.0248,3.31,-46.12,40.81,31.36,-80.68,-158.59
58484,53.743935,-1.698685,203.2,29.63,4,302.55,20 / 24,5848438,2019-11-08 11:34:46:049,1.7099,-1.3926,10.0929,0.0046,0.0081,9.8065,-0.0748,0.1654,-0.0551,3.81,-45.5,40.06,33.34,-80.76,-158.4
58485,53.745087,-1.702151,201.8,29.3,4,292.26,19 / 20,5848538,2019-11-08 11:34:46:149,2.1489,2.4211,8.9984,-0.0063,0.0241,9.8066,-0.167,0.3175,-0.1493,3.19,-45.75,40.38,32.48,-81.07,-157.63
58486,53.745087,-1.702151,201.8,29.3,4,292.26,19 / 20,5848639,2019-11-08 11:34:46:250,3.1918,-0.8965,9.5501,0.0404,0.0121,9.8065,-0.0002,0.3086,-0.1964,2.44,-45.94,40.31,32.92,-81.41,-155.6
58487,53.745087,-1.702151,201.8,29.3,4,292.26,19 / 20,5848739,2019-11-08 11:34:46:350,-0.1155,2.3483,9.9362,-0.0223,-0.0248,9.8065,0.0817,0.1132,-0.0398,2.69,-45.62,40.88,33.08,-81.42,-156.65
58488,53.745087,-1.702151,201.8,29.3,4,292.26,19 / 20,5848839,2019-11-08 11:34:46:450,-0.1101,1.33,9.7102,0.003,-0.0191,9.8066,0.1155,0.1063,-0.0448,3.19,-45.37,40.25,33.58,-81.01,-156.62
58489,53.745087,-1.702151,201.8,29.3,4,292.26,19 / 20,5848938,2019-11-08 11:34:46:549,0.3154,0.9713,10.8649,-0.0081,-0.0003,9.8065,0.0324,0.0557,-0.0719,2.44,-45.87,40.19,33.66,-81.03,-155.24
58490,53.745087,-1.702151,201.8,29.3,4,292.26,19 / 20,5849038,2019-11-08 11:34:46:649,2.1476,-0.4131,8.9015,0.013,-0.0062,9.8065,0.1485,-0.0055,-0.0199,2.94,-45.5,40.75,35.67,-81.2,-154.46
58491,53.745087,-1.702151,201.8,29.3,4,292.26,19 / 20,5849138,2019-11-08 11:34:46:749,-0.0966,0.9584,9.2129,0.0086,-0.0325,9.8066,0.0195,-0.1577,0.0263,3.5,-45.62,41.0,36.7,-81.4,-154.93
58492,53.745087,-1.702151,201.8,29.3,4,292.26,19 / 20,5849239,2019-11-08 11:34:46:850,2.237,-0.6527,9.0886,-0.0085,0.0068,9.8066,0.0284,-0.1091,0.0495,3.19,-45.19,40.81,31.91,-81.32,-157.6
58493,53.745087,-1.702151,201.8,29.3,4,292.26,19 / 20,5849338,2019-11-08 11:34:46:949,1.2138,-0.3745,10.6777,-0.0133,0.0047,9.8066,0.014,-0.004,0.0874,3.38,-45.06,41.0,31.29,-81.39,-158.08
58494,53.745087,-1.702151,201.8,29.3,4,292.26,19 / 20,5849438,2019-11-08 11:34:47:049,2.6065,-2.1228,10.5007,-0.0141,0.0323,9.8065,-0.0866,-0.1231,0.0421,3.19,-44.37,40.88,33.26,-81.56,-156.17
58495,53.745087,-1.702151,201.8,29.3,4,292.26,19 / 21,5849538,2019-11-08 11:34:47:149,0.9783,-0.7153,9.0708,-0.0262,-0.0105,9.8065,-0.0611,0.0433,0.0395,2.44,-45.37,41.13,32.18,-81.47,-155.88
58496,53.745087,-1.702151,201.8,29.3,4,292.26,19 / 21,5849638,2019-11-08 11:34:47:249,0.1263,2.2965,10.7107,-0.0137,-0.0057,9.8065,-0.1105,0.1636,0.0162,2.75,-44.87,41.56,33.39,-81.14,-156.22
58497,53.745087,-1.702151,201.8,29.3,4,292.26,19 / 21,5849739,2019-11-08 11:34:47:350,0.7545,-0.6396,10.2736,0.0064,0.0252,9.8065,-0.1229,0.16,-0.0249,3.19,-44.69,41.31,33.34,-80.88,-156.67
58498,53.745087,-1.702151,201.8,29.3,4,292.26,19 / 21,5849839,2019-11-08 11:34:47:450,0.096,1.1554,10.2169,0.0015,0.0097,9.8066,-0.1054,0.0863,-0.0378,3.25,-45.19,41.31,34.25,-81.13,-155.73
58499,53.745087,-1.702151,201.8,29.3,4,292.26,19 / 21,5849939,2019-11-08 11:34:47:550,0.8259,1.6868,9.2683,-0.0005,-0.0116,9.8066,-0.0603,0.0389,0.0155,2.94,-44.5,42.13,34.32,-81.32,-155.19
58500,53.745087,-1.702151,201.8,29.3,4,292.26,19 / 21,5850038,2019-11-08 11:34:47:649,1.6021,2.3915,8.9334,0.0011,-0.0372,9.8065,0.0324,0.0112,0.0079,3.69,-44.37,42.13,34.37,-81.1,-156.64
58501,53.745087,-1.702151,201.8,29.3,4,292.26,19 / 21,5850138,2019-11-08 11:34:47:749,0.7497,1.5955,11.0387,0.004,-0.004,9.8066,0.1173,-0.0226,-0.0021,3.63,-44.19,43.19,33.62,-81.13,-157.02
58502,53.745087,-1.702151,201.8,29.3,4,292.26,19 / 21,5850239,2019-11-08 11:34:47:850,1.9083,-1.0419,9.8233,0.0004,-0.0138,9.8065,0.1145,-0.1116,0.0758,3.56,-43.87,42.81,33.96,-81.24,-156.66
58503,53.745087,-1.702151,201.8,29.3,4,292.26,19 / 21,5850338,2019-11-08 11:34:47:949,0.747,0.2154,8.8897,-0.022,-0.0155,9.8065,0.1251,-0.1373,0.0477,4.69,-42.75,43.06,36.1,-81.28,-155.96
58504,53.745087,-1.702151,201.8,29.3,4,292.26,19 / 21,5850438,2019-11-08 11:34:48:049,3.0608,-0.852,9.6278,-0.0113,0.0324,9.8066,0.0818,-0.232,0.1047,5.38,-43.06,42.69,37.22,-81.17,-155.06
58505,53.745087,-1.702151,201.8,29.3,4,292.26,20 / 21,5850538,2019-11-08 11:34:48:149,-2.5946,0.7499,9.4721,-0.0461,0.0004,9.8064,0.0184,-0.1691,0.1201,5.19,-42.75,42.44,35.57,-81.07,-156.84
58506,53.745087,-1.702151,201.8,29.3,4,292.26,20 / 21,5850640,2019-11-08 11:34:48:251,1.2027,0.3438,9.4289,-0.0126,0.0087,9.8065,-0.0263,0.0307,0.0509,5.31,-42.94,42.75,34.84,-81.06,-157.2
58507,53.745087,-1.702151,201.8,29.3,4,292.26,20 / 21,5850738,2019-11-08 11:34:48:349,1.8656,0.6773,9.5705,0.0074,-0.0093,9.8066,-0.0122,0.1587,-0.0765,5.63,-42.62,42.75,36.44,-81.09,-157.09
58508,53.745087,-1.702151,201.8,29.3,4,292.26,20 / 21,5850838,2019-11-08 11:34:48:449,-0.4174,0.9278,10.2968,-0.0127,-0.0135,9.8066,-0.0104,0.2041,-0.0652,5.75,-42.37,42.13,35.54,-80.96,-158.14
58509,53.745087,-1.702151,201.8,29.3,4,292.26,20 / 21,5850938,2019-11-08 11:34:48:549,2.755,1.3274,8.7272,0.0339,0.0167,9.8065,0.0154,0.154,-0.0642,5.63,-42.81,42.0,35.07,-80.92,-158.7
58510,53.745087,-1.702151,201.8,29.3,4,292.26,20 / 21,5851038,2019-11-08 11:34:48:649,-0.268,0.6552,10.4438,0.0137,-0.0246,9.8065,-0.0997,0.0446,-0.0188,6.25,-43.44,41.81,34.6,-80.91,-159.11
58511,53.745087,-1.702151,201.8,29.3,4,292.26,20 / 21,5851139,2019-11-08 11:34:48:750,-0.8429,-0.0702,9.7018,0.0336,0.0202,9.8065,-0.0728,0.0221,0.023,6.19,-43.5,41.38,34.04,-80.69,-160.06
58512,53.745087,-1.702151,201.8,29.3,4,292.26,20 / 21,5851238,2019-11-08 11:34:48:849,0.0438,0.2028,9.7498,0.0169,-0.0105,9.8066,0.035,0.015,-0.0495,7.0,-43.94,41.88,34.3,-80.78,-160.88
58513,53.745087,-1.702151,201.8,29.3,4,292.26,20 / 21,5851339,2019-11-08 11:34:48:950,1.5322,-0.6316,10.0554,0.0105,-0.0061,9.8066,-0.0404,0.0026,0.0046,6.31,-43.69,42.13,33.06,-80.94,-160.53
58514,53.745087,-1.702151,201.8,29.3,4,292.26,20 / 21,5851439,2019-11-08 11:34:49:050,-0.2638,-0.158,9.9551,-0.0039,0.0045,9.8066,-0.0946,0.2096,-0.0774,6.0,-44.19,41.63,32.7,-80.88,-160.88
58515,53.745087,-1.702151,201.8,29.3,4,292.26,20 / 21,5851539,2019-11-08 11:34:49:150,-0.389,0.8701,10.1725,0.0219,0.0094,9.8065,-0.1205,0.2385,-0.1012,6.88,-44.19,41.56,34.31,-80.95,-160.77
58516,53.745087,-1.702151,201.8,29.3,4,292.26,18 / 18,5851638,2019-11-08 11:34:49:249,-0.6944,0.9815,9.4413,-0.0181,-0.0166,9.8066,-0.0195,0.2217,-0.1136,6.81,-45.12,41.56,34.04,-81.04,-161.05
58517,53.745087,-1.702151,201.8,29.3,4,292.26,18 / 18,5851738,2019-11-08 11:34:49:349,2.8999,-0.0805,10.0148,-0.0358,0.0022,9.8066,-0.0215,0.1197,-0.1009,6.44,-45.06,41.44,33.08,-81.11,-160.83
58518,53.745087,-1.702151,201.8,29.3,4,292.26,18 / 18,5851838,2019-11-08 11:34:49:449,0.6668,0.0918,10.1715,-0.0044,0.0077,9.8066,0.0267,0.0556,-0.0078,6.13,-44.75,40.81,31.58,-81.04,-162.15
58519,53.745087,-1.702151,201.8,29.3,4,292.26,18 / 18,5851939,2019-11-08 11:34:49:550,0.7697,0.635,9.5253,0.0107,0.0049,9.8066,0.0638,0.0885,-0.0751,5.63,-43.94,40.88,31.93,-81.08,-161.72
58520,53.745087,-1.702151,201.8,29.3,4,292.26,18 / 18,5852039,2019-11-08 11:34:49:650,0.0816,0.6452,9.4811,-0.0236,0.0304,9.8065,0.0382,0.1349,-0.128,4.88,-44.19,40.94,31.02,-81.31,-161.0
58521,53.745087,-1.702151,201.8,29.3,4,292.26,18 / 18,5852138,2019-11-08 11:34:49:749,-0.5032,1.173,10.3444,-0.0151,-0.0163,9.8066,0.0542,0.1184,-0.0938,4.81,-43.62,41.13,30.39,-81.27,-161.56
58522,53.745087,-1.702151,201.8,29.3,4,292.26,18 / 18,5852238,2019-11-08 11:34:49:849,1.4106,0.6198,9.5956,-0.0098,-0.0078,9.8065,-0.01,0.2117,-0.1063,4.94,-43.5,42.56,29.42,-81.06,-161.87
58523,53.745087,-1.702151,201.8,29.3,4,292.26,18 / 18,5852338,2019-11-08 11:34:49:949,1.5738,0.4293,9.4796,0.0149,0.0034,9.8065,-0.0264,0.2061,-0.0828,6.06,-43.37,42.75,30.34,-81.13,-162.34
58524,53.745087,-1.702151,201.8,29.3,4,292.26,18 / 18,5852439,2019-11-08 11:34:50:050,-0.6092,1.1504,9.9242,-0.02,0.022,9.8066,0.0503,-0.0274,-0.0658,6.5,-43.31,42.5,31.74,-81.22,-162.37
58525,53.745087,-1.702151,201.8,29.3,4,292.26,18 / 19,5852540,2019-11-08 11:34:50:151,1.5325,0.2601,8.2941,0.0188,0.0254,9.8065,0.0783,-0.0799,0.0533,6.31,-43.31,42.75,29.77,-81.22,-162.78
58526,53.745087,-1.702151,201.8,29.3,4,292.26,18 / 19,5852638,2019-11-08 11:34:50:249,0.52,-0.3086,9.8687,-0.0032,0.0052,9.8066,0.0013,-0.0555,0.0121,6.25,-43.44,42.13,30.22,-81.33,-162.62
58527,53.745087,-1.702151,201.8,29.3,4,292.26,18 / 19,5852739,2019-11-08 11:34:50:350,0.9589,-0.3585,9.7904,0.0066,0.0126,9.8065,0.0755,-0.0441,0.0069,6.13,-43.62,42.06,30.2,-81.28,-162.77
58528,53.745087,-1.702151,201.8,29.3,4,292.26,18 / 19,5852838,2019-11-08 11:34:50:449,0.8998,-0.279,10.8133,0.0062,0.0065,9.8065,0.085,0.0778,0.0036,6.44,-44.31,41.44,30.24,-81.28,-163.04
58529,53.745087,-1.702151,201.8,29.3,4,292.26,18 / 19,5852938,2019-11-08 11:34:50:549,-0.5687,0.0175,9.4056,-0.021,0.019,9.8066,0.1628,0.0788,-0.1042,6.81,-44.25,41.5,30.47,-81.01,-164.01
58530,53.745087,-1.702151,201.8,29.3,4,292.26,18 / 19,5853038,2019-11-08 11:34:50:649,0.2906,-1.2968,11.1162,-0.0106,0.0067,9.8066,0.116,0.1122,-0.0692,5.88,-44.5,41.19,30.36,-81.01,-163.1
58531,53.745087,-1.702151,201.8,29.3,4,292.26,18 / 19,5853138,2019-11-08 11:34:50:749,-0.0664,0.7739,10.5489,-0.0027,-0.0002,9.8066,0.0955,0.0567,0.0046,5.38,-44.81,41.25,28.32,-80.93,-163.63
58532,53.745087,-1.702151,201.8,29.3,4,292.26,18 / 19,5853238,2019-11-08 11:34:50:849,0.4429,-0.0493,10.5838,-0.0141,-0.0002,9.8066,0.1198,-0.0162,0.0382,4.63,-44.87,41.25,28.31,-80.89,-163.66
58533,53.745087,-1.702151,201.8,29.3,4,292.26,18 / 19,5853339,2019-11-08 11:34:50:950,1.5803,-0.2783,8.7334,0.0009,0.0143,9.8066,0.0568,-0.0589,0.0622,4.0,-45.12,42.13,27.39,-80.89,-162.81
58534,53.745087,-1.702151,201.8,29.3,4,292.26,18 / 19,5853438,2019-11-08 11:34:51:049,0.3431,-0.2621,10.0324,-0.0054,-0.0005,9.8066,0.1125,-0.1625,0.0381,3.94,-45.31,42.0,27.56,-80.95,-162.64
58535,53.745087,-1.702151,201.8,29.3,4,292.26,19 / 20,5853538,2019-11-08 11:34:51:149,1.9954,1.8168,9.0879,-0.0067,-0.0123,9.8066,0.1969,-0.0951,0.0561,3.94,-44.37,42.69,27.18,-81.03,-162.59
58536,53.745087,-1.702151,201.8,29.3,4,292.26,19 / 20,5853639,2019-11-08 11:34:51:250,0.7727,0.7369,10.7072,0.0089,-0.05,9.8064,0.1504,-0.1323,-0.001,3.94,-45.12,42.38,26.94,-80.97,-163.15
58537,53.745087,-1.702151,201.8,29.3,4,292.26,19 / 20,5853739,2019-11-08 11:34:51:350,1.7806,-0.7064,10.8787,0.0043,0.0071,9.8066,0.0294,0.2377,-0.1473,4.13,-45.75,43.0,27.6,-81.18,-162.35
58538,53.745087,-1.702151,201.8,29.3,4,292.26,19 / 20,5853838,2019-11-08 11:34:51:449,2.8562,0.2587,9.6907,0.0158,-0.0274,9.8065,-0.0386,0.2995,-0.1105,4.19,-45.25,43.19,28.01,-81.4,-161.78
58539,53.745087,-1.702151,201.8,29.3,4,292.26,19 / 20,5853938,2019-11-08 11:34:51:549,-0.51,-0.4575,10.868,-0.0399,-0.0124,9.8065,0.0082,0.1587,-0.1121,4.19,-44.87,43.75,25.35,-81.35,-163.87
58540,53.745087,-1.702151,201.8,29.3,4,292.26,19 / 20,5854038,2019-11-08 11:34:51:649,4.2095,0.7705,8.4482,-0.0293,-0.0106,9.8065,-0.0258,0.0431,0.0109,4.25,-45.25,43.75,27.0,-81.32,-162.47
58541,53.745087,-1.702151,201.8,29.3,4,292.26,19 / 20,5854138,2019-11-08 11:34:51:749,0.2236,-0.9149,10.5256,-0.0142,-0.0185,9.8066,-0.0155,-0.1243,0.0767,4.19,-45.56,43.19,26.89,-81.39,-162.84
58542,53.745087,-1.702151,201.8,29.3,4,292.26,19 / 20,5854238,2019-11-08 11:34:51:849,-0.4495,-0.0635,9.2209,-0.0168,-0.0058,9.8066,-0.0131,-0.1396,0.0929,4.25,-45.06,43.0,26.52,-81.46,-163.02
58543,53.745087,-1.702151,201.8,29.3,4,292.26,19 / 20,5854338,2019-11-08 11:34:51:949,0.3784,0.5251,10.3611,0.0184,-0.0258,9.8065,0.0075,-0.1446,0.1362,4.56,-45.31,43.25,28.3,-81.45,-162.81
58544,53.745087,-1.702151,201.8,29.3,4,292.26,19 / 20,5854438,2019-11-08 11:34:52:049,0.1568,1.2237,9.5775,-0.0096,-0.0096,9.8066,-0.0047,-0.0691,0.0779,4.25,-45.75,43.94,25.57,-81.31,-163.78
58545,53.745087,-1.702151,201.8,29.3,4,292.26,21 / 22,5854546,2019-11-08 11:34:52:157,1.6027,-0.4298,9.5915,0.0069,-0.0124,9.8066,-0.0914,0.1283,0.0275,4.13,-45.25,44.19,25.9,-81.34,-163.4
58546,53.745087,-1.702151,201.8,29.3,4,292.26,21 / 22,5854639,2019-11-08 11:34:52:250,0.4074,0.4666,10.4223,0.0001,-0.0072,9.8065,-0.0524,0.1295,-0.0199,3.81,-45.25,44.0,26.28,-81.2,-163.15
58547,53.745087,-1.702151,201.8,29.3,4,292.26,21 / 22,5854738,2019-11-08 11:34:52:349,0.3687,1.3869,9.8827,-0.0071,0.0,9.8066,-0.056,0.1329,-0.0596,4.19,-45.25,43.94,25.92,-81.15,-163.48
58548,53.745087,-1.702151,201.8,29.3,4,292.26,21 / 22,5854838,2019-11-08 11:34:52:449,2.23,-0.4104,9.0705,0.0165,-0.0012,9.8066,0.0273,0.1042,-0.0775,4.25,-45.5,44.31,25.46,-81.21,-163.84
58549,53.745087,-1.702151,201.8,29.3,4,292.26,21 / 22,5854938,2019-11-08 11:34:52:549,1.2424,-1.2569,9.5946,0.0116,0.0062,9.8066,0.0068,-0.0058,-0.0673,4.75,-45.5,43.38,24.97,-81.34,-165.71
58550,53.745087,-1.702151,201.8,29.3,4,292.26,21 / 22,5855038,2019-11-08 11:34:52:649,2.7293,-0.7662,10.6805,-0.0055,0.0045,9.8066,-0.0014,0.127,0.0554,4.25,-44.94,44.19,22.66,-81.47,-166.1
58551,53.745087,-1.702151,201.8,29.3,4,292.26,21 / 22,5855138,2019-11-08 11:34:52:749,-0.2652,0.5881,10.099,-0.0482,-0.0102,9.8065,0.0271,-0.044,0.1056,4.94,-45.19,44.19,22.12,-81.37,-167.89
58552,53.745087,-1.702151,201.8,29.3,4,292.26,21 / 22,5855238,2019-11-08 11:34:52:849,4.7719,-1.4121,9.3748,-0.0329,-0.0022,9.8065,0.0163,-0.3489,0.1493,4.44,-45.31,44.44,22.89,-81.23,-166.02
58553,53.745087,-1.702151,201.8,29.3,4,292.26,21 / 22,5855339,2019-11-08 11:34:52:950,0.1261,-1.2901,9.9539,-0.0097,-0.0057,9.8066,0.0245,-0.3041,0.2479,4.63,-45.25,43.94,24.85,-81.26,-165.61
58554,53.745087,-1.702151,201.8,29.3,4,292.26,21 / 22,5855439,2019-11-08 11:34:53:050,-2.4058,0.1935,9.9945,-0.0362,0.0089,9.8065,-0.0759,-0.2308,0.1498,4.5,-45.06,45.0,22.83,-81.22,-167.13
58555,53.745087,-1.702151,201.8,29.3,4,292.26,22 / 23,5855539,2019-11-08 11:34:53:150,1.3997,0.4111,9.9546,-0.0347,-0.0166,9.8065,-0.1094,0.0582,0.008,4.69,-45.0,44.5,23.28,-81.23,-166.74
58556,53.745087,-1.702151,201.8,29.3,4,292.26,22 / 23,5855639,2019-11-08 11:34:53:250,-0.6018,0.8409,10.4538,0.0202,0.0018,9.8065,-0.0149,0.3961,-0.1222,4.44,-44.81,44.44,20.22,-81.53,-168.15
58557,53.745087,-1.702151,201.8,29.3,4,292.26,22 / 23,5855738,2019-11-08 11:34:53:349,0.5124,-0.9202,8.9358,0.0253,0.0217,9.8065,-0.0737,0.2509,-0.1672,4.44,-45.06,44.44,20.43,-81.6,-167.95
58558,53.745087,-1.702151,201.8,29.3,4,292.26,22 / 23,5855838,2019-11-08 11:34:53:449,-0.3154,-0.1946,9.1727,0.0114,0.0079,9.8066,-0.0588,0.1757,-0.0491,4.63,-44.44,44.88,21.38,-81.9,-168.02
58559,53.745087,-1.702151,201.8,29.3,4,292.26,22 / 23,5855938,2019-11-08 11:34:53:549,0.0686,-1.6718,10.1819,-0.0157,-0.0261,9.8065,0.0338,-0.0073,-0.0018,4.25,-44.81,45.19,19.84,-81.91,-168.15
58560,53.745087,-1.702151,201.8,29.3,4,292.26,22 / 23,5856039,2019-11-08 11:34:53:650,2.4046,-0.5829,10.8617,0.0081,-0.0169,9.8066,-0.0267,-0.1283,0.0318,5.19,-44.81,44.75,21.23,-81.65,-168.32
58561,53.745087,-1.702151,201.8,29.3,4,292.26,22 / 23,5856139,2019-11-08 11:34:53:750,0.258,-1.9098,10.1617,-0.0374,0.0085,9.8065,0.1396,-0.0544,0.162,4.06,-45.19,44.81,19.34,-81.83,-168.61
58562,53.745087,-1.702151,201.8,29.3,4,292.26,22 / 23,5856239,2019-11-08 11:34:53:850,0.4009,-0.6213,9.2971,-0.0035,-0.0113,9.8066,0.0608,-0.0152,-0.0615,4.31,-45.75,45.25,21.67,-81.87,-166.66
58563,53.745087,-1.702151,201.8,29.3,4,292.26,22 / 23,5856339,2019-11-08 11:34:53:950,0.6918,0.5299,10.2364,0.0012,-0.0225,9.8066,0.0241,0.0773,0.0056,4.38,-45.06,45.31,22.04,-81.71,-166.34
58564,53.745087,-1.702151,201.8,29.3,4,292.26,22 / 23,5856439,2019-11-08 11:34:54:050,-0.2017,-2.3947,10.0171,0.0089,0.0357,9.8065,-0.028,0.0859,-0.0346,4.0,-44.75,44.75,21.88,-81.88,-166.41
58565,53.745087,-1.702151,201.8,29.3,4,292.26,22 / 22,5856538,2019-11-08 11:34:54:149,0.6571,-0.7622,10.6612,0.0157,-0.0185,9.8066,0.0147,0.0453,-0.0858,4.06,-44.69,45.44,22.49,-82.05,-165.81
58566,53.745087,-1.702151,201.8,29.3,4,292.26,22 / 22,5856638,2019-11-08 11:34:54:249,0.1475,3.4571,9.0034,-0.0065,-0.003,9.8065,0.1059,0.0427,0.0169,3.31,-44.56,45.38,19.6,-81.82,-167.13
58567,53.745087,-1.702151,201.8,29.3,4,292.26,22 / 22,5856738,2019-11-08 11:34:54:349,0.7823,-2.7288,8.4705,0.0017,0.0152,9.8066,0.1003,0.0223,-0.0161,3.88,-44.25,46.0,20.44,-81.68,-167.49
58568,53.745087,-1.702151,201.8,29.3,4,292.26,22 / 22,5856838,2019-11-08 11:34:54:449,0.8462,2.6815,10.7097,0.0323,0.0398,9.8065,0.0006,-0.3374,0.0893,4.44,-44.0,44.69,20.69,-82.16,-167.26
58569,53.745087,-1.702151,201.8,29.3,4,292.26,22 / 22,5856938,2019-11-08 11:34:54:549,-1.1555,1.8951,8.4885,-0.0544,0.0418,9.8064,-0.2094,-0.2181,0.204,4.06,-45.12,45.0,21.01,-82.05,-167.09
58570,53.745087,-1.702151,201.8,29.3,4,292.26,22 / 22,5857038,2019-11-08 11:34:54:649,1.036,-0.4882,10.4519,-0.0366,-0.0214,9.8065,-0.2051,0.0754,0.0395,3.94,-44.37,45.44,21.43,-81.98,-166.69
58571,53.745087,-1.702151,201.8,29.3,4,292.26,22 / 22,5857139,2019-11-08 11:34:54:750,-0.319,2.9892,10.3624,-0.0036,0.0255,9.8066,-0.163,0.083,0.0629,4.44,-44.62,45.94,21.87,-81.9,-166.23
58572,53.745087,-1.702151,201.8,29.3,4,292.26,22 / 22,5857239,2019-11-08 11:34:54:850,-1.021,0.0377,11.2397,-0.0012,-0.0359,9.8066,-0.1017,0.1778,-0.0815,5.25,-45.19,45.44,23.82,-81.98,-165.94
58573,53.745087,-1.702151,201.8,29.3,4,292.26,22 / 22,5857339,2019-11-08 11:34:54:950,-0.5118,1.649,11.1843,0.018,-0.0435,9.8065,-0.0078,0.2433,-0.0964,4.69,-44.62,46.13,23.24,-81.79,-166.32
58574,53.745087,-1.702151,201.8,29.3,4,292.26,22 / 22,5857439,2019-11-08 11:34:55:050,-2.1414,2.1301,9.4758,-0.0058,-0.0138,9.8065,0.0339,0.3134,-0.1657,4.88,-45.44,45.5,22.37,-81.55,-167.18
58575,53.74568,-1.705912,200.75,28.74,4,276.16,21 / 23,5857539,2019-11-08 11:34:55:150,2.903,-2.2893,10.3642,0.0368,-0.0099,9.8066,0.0506,0.2778,-0.2047,3.69,-45.06,45.81,21.92,-81.87,-166.21
58576,53.74568,-1.705912,200.75,28.74,4,276.16,21 / 23,5857639,2019-11-08 11:34:55:250,-1.9171,2.3361,10.2373,0.0224,-0.0251,9.8066,-0.0091,0.0404,-0.0718,4.19,-44.5,46.13,19.46,-81.8,-168.29
58577,53.74568,-1.705912,200.75,28.74,4,276.16,21 / 23,5857739,2019-11-08 11:34:55:350,2.7779,-2.2615,10.0261,0.0344,-0.0243,9.8065,0.0164,-0.0768,0.04,4.31,-44.94,45.44,19.77,-81.55,-168.35
58578,53.74568,-1.705912,200.75,28.74,4,276.16,21 / 23,5857838,2019-11-08 11:34:55:449,-0.861,-1.2661,9.1943,0.0234,0.0352,9.8065,0.1774,-0.1674,0.0556,4.5,-45.06,45.88,21.59,-81.53,-167.85
58579,53.74568,-1.705912,200.75,28.74,4,276.16,21 / 23,5857938,2019-11-08 11:34:55:549,2.8395,0.9961,7.9441,0.0374,-0.0122,9.8065,0.2979,-0.2483,0.0785,4.56,-45.06,45.44,22.56,-81.91,-167.07
58580,53.74568,-1.705912,200.75,28.74,4,276.16,21 / 23,5858039,2019-11-08 11:34:55:650,1.6474,-2.6223,9.962,0.0313,0.0352,9.8065,0.2334,-0.1848,0.0897,4.5,-44.69,45.69,19.14,-81.77,-169.86
58581,53.74568,-1.705912,200.75,28.74,4,276.16,21 / 23,5858139,2019-11-08 11:34:55:750,-1.5853,0.2012,9.6402,-0.036,0.0377,9.8065,0.1393,-0.0773,0.0019,4.19,-45.31,45.88,17.36,-81.5,-170.26
58582,53.74568,-1.705912,200.75,28.74,4,276.16,21 / 23,5858239,2019-11-08 11:34:55:850,0.0615,-1.7183,10.874,-0.0024,0.0548,9.8064,0.0917,-0.0431,-0.0177,4.5,-45.0,45.25,20.78,-81.86,-168.61
58583,53.74568,-1.705912,200.75,28.74,4,276.16,21 / 23,5858338,2019-11-08 11:34:55:949,-3.2696,0.4506,8.7165,-0.0513,0.0224,9.8064,0.0088,-0.0328,-0.1018,4.81,-45.06,45.44,19.39,-81.9,-169.8
58584,53.74568,-1.705912,200.75,28.74,4,276.16,21 / 23,5858438,2019-11-08 11:34:56:049,2.3358,0.9278,10.8343,-0.0227,-0.0178,9.8066,0.0102,0.1631,-0.1383,4.5,-45.06,46.75,19.12,-81.85,-169.67
