,GPS LATITUDE (degrees), GPS LONGITUDE (degrees), GPS ALTITUDE (m), GPS SPEED (Kmh), GPS ACCURACY (m), GPS ORIENTATION (Â°),GPS SATELLITES IN RANGE, TIME SINCE START (ms), DATE (YYYY-MO-DD HH-MI-SS_SSS), ACCELEROMETER X (m/s²) , ACCELEROMETER Y (m/s²), ACCELEROMETER Z (m/s²), GRAVITY X (m/s²), GRAVITY Y (m/s²), GRAVITY Z (m/s²), GYROSCOPE Yaw (rad/s), GYROSCOPE Pitch (rad/s), GYROSCOPE Roll (rad/s), MAGNETIC FIELD X (Î¼T), MAGNETIC FIELD Y (Î¼T), MAGNETIC FIELD Z (Î¼T), ORIENTATION (Yaw) (Â°), ORIENTATION (Pitch) (Â°), ORIENTATION (Roll ) (Â°)
11171,51.655174,-2.432341,77,26.38,12,233.7,13 / 24,1117123,2019-08-16 13:07:50:903,0.0404,-0.1124,9.3995,-0.0321,-0.0117,9.8066,0.0276,-0.0252,0.009,-7.89,16.96,-23.45,236.9,7.54,0.45
11172,51.655174,-2.432341,77,26.38,12,233.7,13 / 24,1117225,2019-08-16 13:07:51:005,0.1482,0.1362,9.1504,-0.0253,0.0316,9.8066,0.0266,-0.0379,0.0016,-8.3,16.65,-23.54,236.64,7.38,0.57
11173,51.655174,-2.432341,77,26.38,12,233.7,13 / 24,1117323,2019-08-16 13:07:51:103,-0.2981,0.0794,9.8827,-0.0226,0.0332,9.8066,-0.0182,-0.0124,0.0133,-7.83,16.45,-24.2,234.75,7.45,0.79
11174,51.655174,-2.432341,77,26.38,12,233.7,13 / 24,1117423,2019-08-16 13:07:51:203,0.0242,0.2045,9.7057,-0.0214,0.0291,9.8066,-0.0363,0.0111,-0.0048,-7.83,16.83,-24.2,234.75,7.45,0.79
11175,51.655174,-2.432341,77,26.38,12,233.7,13 / 24,1117523,2019-08-16 13:07:51:303,0.3521,-0.3762,9.1168,-0.0197,0.0059,9.8066,-0.0459,0.0239,0.0026,-7.83,16.83,-23.76,236.34,7.41,0.91
11176,51.655174,-2.432341,77,26.38,12,233.7,13 / 24,1117623,2019-08-16 13:07:51:403,-0.1556,-0.1415,11.218,0.0066,-0.0215,9.8066,0.0138,-0.0454,0.0261,-7.83,16.83,-23.76,236.34,7.41,0.91
11177,51.655174,-2.432341,77,26.38,12,233.7,13 / 24,1117723,2019-08-16 13:07:51:503,-0.0398,0.4399,9.9082,-0.0057,0.0262,9.8066,0.0138,-0.0454,0.0261,-7.84,16.48,-23.81,234.91,7.3,0.78
11178,51.65502,-2.432645,76,26.38,11,232.9,13 / 24,1117823,2019-08-16 13:07:51:603,-0.0998,0.2948,8.984,-0.0196,0.024,9.8066,-0.0054,0.0196,0.0165,-7.83,16.83,-24.58,236.04,7.35,0.95
11179,51.65502,-2.432645,76,26.38,11,232.9,13 / 24,1117923,2019-08-16 13:07:51:703,0.2925,0.0385,9.024,0.0073,0.0026,9.8066,-0.0256,0.0452,0.0207,-7.45,16.45,-25.45,236.04,7.35,0.95
11180,51.65502,-2.432645,76,26.38,11,232.9,13 / 24,1118023,2019-08-16 13:07:51:803,0.3218,-0.1602,10.1822,0.0292,0.0174,9.8066,-0.0054,-0.0134,0.0058,-7.45,16.45,-25.45,236.04,7.35,0.95
11181,51.65502,-2.432645,76,26.38,11,232.9,13 / 24,1118123,2019-08-16 13:07:51:903,-0.3489,0.3685,10.387,-0.0064,0.015,9.8066,-0.0001,0.0025,0.0218,-7.83,16.45,-25.01,234.27,7.53,0.87
11182,51.65502,-2.432645,76,26.38,11,232.9,13 / 24,1118223,2019-08-16 13:07:52:003,-0.0676,-0.2562,10.1537,-0.0312,-0.0059,9.8066,-0.0235,0.0974,0.0122,-7.5,16.56,-23.86,234.27,7.53,0.87
11183,51.65502,-2.432645,76,26.38,11,232.9,13 / 24,1118323,2019-08-16 13:07:52:103,-0.3004,-0.5233,11.0724,-0.0113,-0.0357,9.8066,-0.0235,0.0974,0.0122,-7.83,16.83,-24.58,235.96,7.39,1.0
11184,51.65502,-2.432645,76,26.38,11,232.9,13 / 24,1118423,2019-08-16 13:07:52:203,0.4168,-0.332,9.4623,-0.0101,-0.0479,9.8065,-0.0224,-0.007,-0.007,-7.83,16.45,-24.14,234.99,7.13,0.89
11185,51.65502,-2.432645,76,26.38,11,232.9,13 / 24,1118524,2019-08-16 13:07:52:304,0.0941,0.2824,8.9443,0.0079,0.0155,9.8066,0.0234,-0.0337,0.009,-7.99,16.41,-23.81,234.99,7.13,0.89
11186,51.65502,-2.432645,76,26.38,11,232.9,13 / 24,1118623,2019-08-16 13:07:52:403,-0.0328,-0.019,9.6338,0.0148,0.0348,9.8066,-0.0001,-0.0251,0.0197,-7.99,16.41,-23.81,234.99,7.13,0.89
11187,51.65502,-2.432645,76,26.38,11,232.9,13 / 24,1118723,2019-08-16 13:07:52:503,0.0719,-0.1998,9.3179,0.0044,0.0103,9.8066,0.0212,-0.039,0.0101,-7.27,16.52,-23.96,238.83,7.34,0.93
11188,51.654873,-2.432971,76,26.45,11,232.7,13 / 24,1118823,2019-08-16 13:07:52:603,-0.0881,-0.0791,10.1448,0.0259,-0.0118,9.8066,-0.0523,-0.0102,0.0239,-7.58,16.73,-23.72,236.31,7.47,0.89
11189,51.654873,-2.432971,76,26.45,11,232.7,13 / 24,1118923,2019-08-16 13:07:52:703,0.0149,-0.1303,10.0469,-0.0132,-0.0077,9.8066,0.0117,-0.0219,0.0112,-7.08,16.14,-24.58,236.89,7.49,0.72
11190,51.654873,-2.432971,76,26.45,11,232.7,13 / 24,1119023,2019-08-16 13:07:52:803,-0.1642,-0.2057,10.2836,-0.0266,-0.0446,9.8065,0.0117,-0.0241,-0.0112,-7.95,16.02,-24.09,235.07,7.19,0.71
11191,51.654873,-2.432971,76,26.45,11,232.7,13 / 24,1119123,2019-08-16 13:07:52:903,-0.2312,-0.4821,10.7726,0.0081,-0.0127,9.8066,0.0117,-0.0241,-0.0112,-7.95,16.02,-24.09,235.07,7.19,0.71
11192,51.654873,-2.432971,76,26.45,11,232.7,13 / 24,1119223,2019-08-16 13:07:53:003,-0.309,-0.1545,9.6946,0.0093,-0.0256,9.8066,-0.0267,-0.0603,0.0186,-7.86,15.83,-24.24,235.17,7.16,0.63
11193,51.654873,-2.432971,76,26.45,11,232.7,13 / 24,1119324,2019-08-16 13:07:53:104,-0.1384,-0.1642,9.3529,0.0151,-0.0107,9.8066,0.0553,-0.0262,-0.0048,-7.69,16.27,-24.01,235.26,7.16,0.52
11194,51.654873,-2.432971,76,26.45,11,232.7,13 / 24,1119423,2019-08-16 13:07:53:203,0.1142,0.08,9.4543,-0.0016,-0.0181,9.8066,-0.0107,0.0196,0.0122,-7.69,16.27,-24.01,235.26,7.16,0.52
11195,51.654873,-2.432971,76,26.45,11,232.7,13 / 24,1119523,2019-08-16 13:07:53:303,0.5673,-0.0651,9.5168,0.0081,-0.028,9.8066,0.0127,0.0111,0.0112,-7.74,15.99,-24.17,235.47,7.05,0.39
11196,51.654873,-2.432971,76,26.45,11,232.7,13 / 24,1119623,2019-08-16 13:07:53:403,0.4563,-0.1962,9.109,0.0343,0.0245,9.8066,-0.031,-0.0177,0.0207,-7.7,15.52,-24.49,235.31,7.28,0.3
11197,51.654873,-2.432971,76,26.45,11,232.7,13 / 24,1119723,2019-08-16 13:07:53:503,-0.2011,0.0071,9.2305,0.0188,-0.003,9.8066,-0.0043,0.0888,0.0016,-7.7,15.52,-24.49,235.31,7.28,0.3
11198,51.654762,-2.433193,76,24.98,12,232.7,13 / 24,1119823,2019-08-16 13:07:53:603,-0.2894,-0.1354,10.9609,-0.0255,-0.0151,9.8066,-0.0043,0.0888,0.0016,-8.13,15.21,-24.55,233.26,7.33,0.2
11199,51.654762,-2.433193,76,24.98,12,232.7,13 / 24,1119923,2019-08-16 13:07:53:703,-0.4621,0.2833,9.7302,-0.038,-0.0147,9.8066,0.0138,0.0526,0.0154,-8.13,15.21,-24.55,233.26,7.33,0.2
11200,51.654762,-2.433193,76,24.98,12,232.7,13 / 24,1120023,2019-08-16 13:07:53:803,-0.0624,-0.2879,9.3356,0.006,0.0139,9.8066,-0.016,0.026,-0.0144,-8.37,15.72,-24.14,235.44,7.13,0.33
11201,51.654762,-2.433193,76,24.98,12,232.7,13 / 24,1120123,2019-08-16 13:07:53:903,0.2023,-0.1282,9.67,0.0132,-0.0133,9.8066,-0.0341,0.01,-0.0038,-8.26,15.5,-24.32,235.34,7.21,0.35
11202,51.654762,-2.433193,76,24.98,12,232.7,13 / 24,1120223,2019-08-16 13:07:54:003,0.1918,0.1546,9.7313,0.0238,-0.0194,9.8066,-0.0043,-0.0081,-0.0123,-8.52,15.6,-24.17,235.34,7.21,0.35
11203,51.654762,-2.433193,76,24.98,12,232.7,13 / 24,1120323,2019-08-16 13:07:54:103,0.0914,-0.2163,10.8663,0.0424,0.0054,9.8066,-0.0054,0.0079,0.0165,-7.7,15.52,-24.49,235.33,7.38,0.16
11204,51.654762,-2.433193,76,24.98,12,232.7,13 / 24,1120423,2019-08-16 13:07:54:203,0.1691,-0.1553,9.8786,-0.0113,0.0097,9.8066,0.0415,0.0068,0.0165,-8.52,15.6,-24.17,235.33,7.38,0.16
11205,51.654762,-2.433193,76,24.98,12,232.7,13 / 24,1120523,2019-08-16 13:07:54:303,0.0386,0.1157,9.797,-0.0654,0.0032,9.8064,-0.0033,0.0366,0.0069,-8.68,15.2,-24.37,231.09,7.18,0.49
11206,51.654762,-2.433193,76,24.98,12,232.7,13 / 24,1120623,2019-08-16 13:07:54:403,-0.3131,0.3943,10.0348,-0.0091,0.0428,9.8066,-0.0118,-0.0124,0.0239,-8.68,15.2,-24.37,231.09,7.18,0.49
11207,51.654762,-2.433193,76,24.98,12,232.7,13 / 24,1120723,2019-08-16 13:07:54:503,-0.1385,-0.0255,10.4646,0.0125,0.0323,9.8066,-0.0118,-0.0124,0.0239,-8.71,15.63,-24.08,232.59,7.34,0.69
11208,51.65463,-2.433496,76,25.27,13,233.2,13 / 24,1120823,2019-08-16 13:07:54:603,0.0094,0.5469,10.0286,-0.0141,-0.0154,9.8066,-0.0203,0.042,0.0026,-8.23,15.07,-24.6,232.56,7.53,0.74
11209,51.65463,-2.433496,76,25.27,13,233.2,13 / 24,1120923,2019-08-16 13:07:54:703,-0.0339,0.0465,10.4884,-0.038,-0.0242,9.8065,0.0042,0.0793,0.0186,-8.23,15.07,-24.6,232.56,7.53,0.74
11210,51.65463,-2.433496,76,25.27,13,233.2,13 / 24,1121023,2019-08-16 13:07:54:803,0.2007,0.3244,10.4167,-0.0019,-0.0006,9.8067,-0.0246,0.0036,0.008,-8.95,15.02,-24.95,230.36,7.29,0.83
11211,51.65463,-2.433496,76,25.27,13,233.2,13 / 24,1121123,2019-08-16 13:07:54:903,0.3376,-0.0873,9.5101,0.014,0.0036,9.8066,-0.0192,0.0377,0.0261,-8.97,15.42,-24.12,230.36,7.29,0.83
11212,51.65463,-2.433496,76,25.27,13,233.2,13 / 24,1121222,2019-08-16 13:07:55:002,-0.1677,0.3904,9.2153,-0.0005,0.0174,9.8066,-0.0086,0.0271,0.0207,-8.95,15.39,-24.51,230.22,7.36,0.9
11213,51.65463,-2.433496,76,25.27,13,233.2,13 / 24,1121323,2019-08-16 13:07:55:103,-0.2905,0.0821,9.111,-0.0145,0.025,9.8066,0.0266,0.01,-0.0006,-8.95,16.15,-23.65,232.2,7.42,1.06
11214,51.65463,-2.433496,76,25.27,13,233.2,13 / 24,1121425,2019-08-16 13:07:55:205,-0.2097,0.2064,10.0556,-0.0052,0.0455,9.8065,-0.0011,-0.0273,0.0175,-8.95,16.15,-23.65,232.2,7.42,1.06
11215,51.65463,-2.433496,76,25.27,13,233.2,13 / 24,1121523,2019-08-16 13:07:55:303,0.0523,-0.0813,9.3093,-0.0017,0.0843,9.8063,-0.0011,-0.0273,0.0175,-8.61,15.45,-24.23,229.71,7.8,1.37
11216,51.65463,-2.433496,76,25.27,13,233.2,13 / 24,1121623,2019-08-16 13:07:55:403,-0.1896,0.2504,10.239,-0.0379,-0.0127,9.8066,0.0085,-0.0017,0.025,-9.23,15.48,-23.98,229.7,7.71,1.49
11217,51.65463,-2.433496,76,25.27,13,233.2,13 / 24,1121723,2019-08-16 13:07:55:503,0.0278,0.1128,10.4182,-0.0397,0.0128,9.8066,-0.0278,-0.0305,0.0207,-9.02,15.14,-24.28,229.7,7.71,1.49
11218,51.65451,-2.433787,75,25.07,14,234.3,13 / 24,1121823,2019-08-16 13:07:55:603,-0.1169,-0.2834,10.5679,-0.0245,0.024,9.8066,-0.0203,0.0452,-0.0038,-9.02,15.14,-24.28,229.7,7.71,1.49
11219,51.65451,-2.433787,75,25.07,14,234.3,13 / 24,1121923,2019-08-16 13:07:55:703,-0.1687,-0.118,9.2805,-0.0038,-0.0212,9.8066,-0.015,0.026,0.0016,-8.58,15.02,-24.51,229.13,7.73,1.69
11220,51.65451,-2.433787,75,25.07,14,234.3,13 / 24,1122024,2019-08-16 13:07:55:804,-0.1549,0.3564,10.2956,-0.0183,-0.0383,9.8066,0.0053,-0.0177,0.0282,-8.58,15.02,-24.51,229.13,7.73,1.69
11221,51.65451,-2.433787,75,25.07,14,234.3,13 / 24,1122123,2019-08-16 13:07:55:903,-0.0176,0.2061,10.552,0.0129,0.0263,9.8066,-0.0139,-0.0923,0.0037,-9.02,15.14,-24.28,229.78,7.49,1.62
11222,51.65451,-2.433787,75,25.07,14,234.3,13 / 24,1122222,2019-08-16 13:07:56:002,-0.0115,-0.3077,9.4602,0.0336,0.0562,9.8064,-0.0001,0.0409,0.0101,-8.95,15.02,-24.95,229.0,7.86,1.68
11223,51.65451,-2.433787,75,25.07,14,234.3,13 / 24,1122323,2019-08-16 13:07:56:103,-0.2016,-0.0142,9.5391,0.0129,-0.0004,9.8066,-0.0001,0.0409,0.0101,-8.95,15.39,-24.45,229.0,7.86,1.68
11224,51.65451,-2.433787,75,25.07,14,234.3,13 / 24,1122424,2019-08-16 13:07:56:204,-0.6316,-0.1472,10.4507,-0.0084,-0.0155,9.8066,-0.0054,0.0121,0.0378,-8.97,15.42,-24.12,229.49,7.76,1.66
11225,51.65451,-2.433787,75,25.07,14,234.3,13 / 24,1122523,2019-08-16 13:07:56:303,-0.1741,-0.0985,10.1763,-0.016,0.0323,9.8066,0.0308,-0.0134,0.0058,-8.97,15.42,-24.12,229.49,7.76,1.66
11226,51.65451,-2.433787,75,25.07,14,234.3,13 / 24,1122623,2019-08-16 13:07:56:403,-0.2199,0.2021,10.0225,0.0016,-0.0253,9.8066,-0.0501,0.0068,0.008,-8.95,15.02,-25.39,228.67,7.98,1.91
11227,51.65451,-2.433787,75,25.07,14,234.3,13 / 24,1122723,2019-08-16 13:07:56:503,-0.3087,-0.2476,10.5646,-0.0281,-0.021,9.8066,-0.0128,0.0196,0.0452,-9.26,14.64,-25.33,228.88,7.87,1.8
11228,51.654385,-2.434068,75,24.68,15,233.9,13 / 24,1122823,2019-08-16 13:07:56:603,0.072,0.0472,10.5898,-0.068,-0.0066,9.8064,0.0362,0.0281,0.0143,-9.26,14.64,-25.39,228.88,7.87,1.8
11229,51.654385,-2.434068,75,24.68,15,233.9,13 / 24,1122923,2019-08-16 13:07:56:703,-0.3918,0.3357,10.3775,-0.0874,0.0284,9.8062,-0.0011,-0.0528,0.0154,-9.65,15.03,-24.1,226.76,7.66,2.3
11230,51.654385,-2.434068,75,24.68,15,233.9,13 / 24,1123023,2019-08-16 13:07:56:803,-0.1293,0.051,9.7956,-0.0031,0.0199,9.8066,-0.0011,-0.0528,0.0154,-9.65,15.03,-24.1,226.76,7.66,2.3
11231,51.654385,-2.434068,75,24.68,15,233.9,13 / 24,1123123,2019-08-16 13:07:56:903,0.2691,0.2401,9.9468,-0.0011,0.0051,9.8066,-0.0256,0.0303,0.009,-8.95,15.39,-24.45,228.83,7.74,2.39
11232,51.654385,-2.434068,75,24.68,15,233.9,13 / 24,1123223,2019-08-16 13:07:57:003,0.1739,-0.4984,9.7388,0.0156,0.0203,9.8066,-0.0086,-0.0102,0.0069,-9.02,15.14,-24.28,228.68,7.88,2.4
11233,51.654385,-2.434068,75,24.68,15,233.9,13 / 24,1123323,2019-08-16 13:07:57:103,0.237,-0.0799,10.1304,0.0336,0.0005,9.8066,-0.0533,0.0143,0.0069,-8.97,15.42,-24.12,228.7,8.02,2.26
11234,51.654385,-2.434068,75,24.68,15,233.9,13 / 24,1123424,2019-08-16 13:07:57:204,0.3035,-0.3264,9.7054,0.0115,-0.0314,9.8066,-0.0139,0.026,0.0325,-8.97,15.42,-24.12,228.7,8.02,2.26
11235,51.654385,-2.434068,75,24.68,15,233.9,13 / 24,1123524,2019-08-16 13:07:57:304,0.2493,0.1709,10.0255,-0.0472,0.0079,9.8065,0.0575,0.0366,0.0239,-9.26,15.02,-24.45,229.13,7.68,2.13
11236,51.654385,-2.434068,75,24.68,15,233.9,13 / 24,1123623,2019-08-16 13:07:57:403,0.0932,0.0703,9.5115,-0.0396,0.0298,9.8065,0.0202,0.0068,0.0367,-9.26,15.39,-24.08,229.05,7.53,2.37
11237,51.654385,-2.434068,75,24.68,15,233.9,13 / 24,1123723,2019-08-16 13:07:57:503,-0.3221,-0.2481,9.7863,-0.0666,0.0419,9.8063,0.0181,0.0047,0.0143,-9.64,15.39,-24.51,226.05,7.46,2.83
11238,51.654232,-2.434371,74,25.28,15,232.4,13 / 24,1123823,2019-08-16 13:07:57:603,-0.5867,0.2691,10.0462,-0.021,0.0052,9.8066,0.0181,0.0047,0.0143,-9.64,15.39,-24.51,226.05,7.46,2.83
11239,51.654232,-2.434371,74,25.28,15,232.4,13 / 24,1123924,2019-08-16 13:07:57:704,-0.4301,0.0459,9.5136,-0.002,0.0154,9.8066,-0.0182,-0.0273,0.025,-9.26,15.02,-24.45,228.63,7.4,2.94
11240,51.654232,-2.434371,74,25.28,15,232.4,13 / 24,1124023,2019-08-16 13:07:57:803,-0.1273,0.3781,9.6747,0.0198,0.0537,9.8065,-0.0054,-0.0209,0.0218,-9.26,15.39,-25.33,228.63,7.4,2.94
11241,51.654232,-2.434371,74,25.28,15,232.4,13 / 24,1124123,2019-08-16 13:07:57:903,-0.1924,0.0571,9.2863,0.0261,0.0912,9.8062,0.0095,-0.0038,0.0058,-9.26,15.39,-24.45,227.92,7.9,3.18
11242,51.654232,-2.434371,74,25.28,15,232.4,13 / 24,1124223,2019-08-16 13:07:58:003,-0.5496,-0.2026,10.2454,-0.0064,-0.0058,9.8066,0.0287,0.0164,0.0218,-9.26,15.39,-24.45,227.92,7.9,3.18
11243,51.654232,-2.434371,74,25.28,15,232.4,13 / 24,1124323,2019-08-16 13:07:58:103,-0.1344,-0.2247,10.1249,-0.0265,0.0001,9.8066,-0.0096,-0.0965,0.025,-8.95,16.14,-24.95,229.53,7.85,3.18
11244,51.654232,-2.434371,74,25.28,15,232.4,13 / 24,1124423,2019-08-16 13:07:58:203,-0.2736,0.1414,9.5602,0.0024,0.013,9.8066,0.0255,0.0228,0.0122,-10.39,15.77,-24.08,227.63,7.8,3.36
11245,51.654232,-2.434371,74,25.28,15,232.4,13 / 24,1124525,2019-08-16 13:07:58:305,-0.2348,-0.3481,9.4712,-0.0185,0.0053,9.8066,0.0255,0.0228,0.0122,-10.39,15.77,-24.08,227.63,7.8,3.36
11246,51.654232,-2.434371,74,25.28,15,232.4,13 / 24,1124622,2019-08-16 13:07:58:402,0.3369,-0.2438,10.5536,-0.012,-0.0214,9.8066,-0.0192,-0.0017,0.0175,-9.64,15.39,-24.45,225.56,7.75,3.46
11247,51.654232,-2.434371,74,25.28,15,232.4,13 / 24,1124724,2019-08-16 13:07:58:504,0.3694,-0.3667,10.4018,0.019,-0.0121,9.8066,-0.0064,0.009,0.0154,-9.66,15.06,-24.08,225.72,7.61,3.43
11248,51.654057,-2.434611,73,25.12,16,228.8,13 / 24,1124823,2019-08-16 13:07:58:603,0.2768,0.1656,9.9294,0.0388,0.002,9.8066,-0.0118,0.0015,0.0229,-10.01,14.64,-25.33,225.31,7.78,3.27
11249,51.654057,-2.434611,73,25.12,16,228.8,13 / 24,1124923,2019-08-16 13:07:58:703,0.049,-0.1501,9.0944,0.0081,0.0133,9.8066,0.0255,-0.0486,0.008,-10.01,14.64,-25.33,225.31,7.78,3.27
11250,51.654057,-2.434611,73,25.12,16,228.8,13 / 24,1125023,2019-08-16 13:07:58:803,0.3251,0.1749,9.8495,0.0248,0.0134,9.8066,-0.0182,0.0026,0.0111,-9.33,15.12,-24.18,227.84,7.87,3.29
11251,51.654057,-2.434611,73,25.12,16,228.8,13 / 24,1125123,2019-08-16 13:07:58:903,0.5169,0.0758,9.8875,0.0575,0.0236,9.8065,-0.0235,-0.0102,0.0197,-9.64,15.02,-24.51,227.84,7.87,3.29
11252,51.654057,-2.434611,73,25.12,16,228.8,13 / 24,1125224,2019-08-16 13:07:59:004,-0.5418,-0.1431,10.6668,0.0705,0.0328,9.8063,0.0276,0.0441,0.0239,-9.26,15.02,-24.45,227.62,8.29,3.11
11253,51.654057,-2.434611,73,25.12,16,228.8,13 / 24,1125324,2019-08-16 13:07:59:104,0.2308,0.1002,10.8597,-0.0181,-0.0191,9.8066,0.0276,0.0441,0.0239,-9.76,15.21,-23.94,225.57,8.13,3.12
11254,51.654057,-2.434611,73,25.12,16,228.8,13 / 24,1125423,2019-08-16 13:07:59:203,0.3768,-0.0972,9.8684,-0.0547,-0.0106,9.8065,0.0042,0.0665,0.042,-9.76,15.21,-23.94,225.57,8.13,3.12
11255,51.654057,-2.434611,73,25.12,16,228.8,13 / 24,1125523,2019-08-16 13:07:59:303,-0.2111,-0.1085,9.1861,-0.0018,0.0256,9.8066,-0.0075,-0.0731,0.0293,-10.01,15.39,-24.08,225.62,7.86,3.3
11256,51.654057,-2.434611,73,25.12,16,228.8,13 / 24,1125623,2019-08-16 13:07:59:403,-0.0582,0.0388,9.5052,-0.0078,0.0223,9.8066,0.0106,-0.0262,0.0197,-9.65,15.03,-24.1,225.44,7.93,3.43
11257,51.654057,-2.434611,73,25.12,16,228.8,13 / 24,1125723,2019-08-16 13:07:59:503,-0.2146,-0.0949,10.1419,-0.0157,0.0119,9.8066,0.0106,0.0175,0.0367,-9.65,15.03,-24.1,225.44,7.93,3.43
11258,51.653954,-2.434936,74,25.0,15,231.9,13 / 24,1125822,2019-08-16 13:07:59:602,-0.1041,-0.134,9.6177,-0.0034,0.0297,9.8066,0.017,-0.0805,0.0186,-9.64,15.02,-24.89,224.91,7.91,3.54
11259,51.653954,-2.434936,74,25.0,15,231.9,13 / 24,1125923,2019-08-16 13:07:59:703,-0.2451,0.0067,9.5864,-0.0104,0.0692,9.8064,0.0117,0.009,0.0239,-9.64,15.02,-24.89,224.91,7.91,3.54
11260,51.653954,-2.434936,74,25.0,15,231.9,13 / 24,1126023,2019-08-16 13:07:59:803,-0.1444,-0.2332,9.2535,-0.0381,-0.0108,9.8066,0.034,0.0452,0.025,-9.48,14.99,-24.2,226.99,8.15,3.88
11261,51.653954,-2.434936,74,25.0,15,231.9,13 / 24,1126123,2019-08-16 13:07:59:903,-0.1882,-0.3191,9.9959,-0.0798,-0.0301,9.8063,0.034,0.0452,0.025,-10.46,14.36,-24.17,222.74,7.71,4.1
11262,51.653954,-2.434936,74,25.0,15,231.9,13 / 24,1126223,2019-08-16 13:08:00:003,-0.4533,0.365,9.6198,-0.0154,0.0216,9.8066,0.0074,-0.039,0.0122,-10.46,14.36,-24.17,222.74,7.71,4.1
11263,51.653954,-2.434936,74,25.0,15,231.9,13 / 24,1126323,2019-08-16 13:08:00:103,-0.4217,0.3208,9.5878,0.0159,-0.0128,9.8066,-0.0533,-0.0326,0.0197,-10.52,14.07,-24.32,220.45,7.83,4.24
11264,51.653954,-2.434936,74,25.0,15,231.9,13 / 24,1126424,2019-08-16 13:08:00:204,0.1339,-0.3564,10.2949,0.0071,-0.0235,9.8066,0.0042,0.0122,0.0261,-10.9,13.68,-24.37,220.55,7.85,4.12
11265,51.653954,-2.434936,74,25.0,15,231.9,13 / 24,1126524,2019-08-16 13:08:00:304,0.1524,-0.342,10.2286,0.0265,-0.0267,9.8066,-0.0373,-0.0028,0.0293,-10.9,13.68,-24.37,220.55,7.85,4.12
11266,51.653954,-2.434936,74,25.0,15,231.9,13 / 24,1126623,2019-08-16 13:08:00:403,0.1099,-0.3842,10.4881,0.0145,-0.0152,9.8066,-0.0022,0.01,0.0282,-11.61,14.01,-23.85,218.89,7.87,3.9
11267,51.653954,-2.434936,74,25.0,15,231.9,13 / 24,1126723,2019-08-16 13:08:00:503,-0.0202,-0.4078,10.2003,-0.0003,-0.0052,9.8066,0.0212,0.0207,0.0239,-11.16,13.92,-24.12,220.9,7.88,3.77
11268,51.653824,-2.435151,73,24.07,17,230.7,13 / 24,1126823,2019-08-16 13:08:00:603,0.4375,-0.4483,9.9458,0.0015,-0.0115,9.8066,-0.0064,-0.0049,0.0069,-10.76,14.64,-24.01,220.9,7.88,3.77
11269,51.653824,-2.435151,73,24.07,17,230.7,13 / 24,1126923,2019-08-16 13:08:00:703,0.3348,0.0219,9.5433,0.0123,-0.0092,9.8066,-0.0064,-0.0049,0.0069,-11.14,14.64,-24.89,222.75,7.9,3.69
11270,51.653824,-2.435151,73,24.07,17,230.7,13 / 24,1127023,2019-08-16 13:08:00:803,0.2761,0.0193,9.6412,0.0283,-0.0122,9.8066,-0.0182,-0.006,-0.0027,-11.14,14.64,-24.89,222.75,7.9,3.69
11271,51.653824,-2.435151,73,24.07,17,230.7,13 / 24,1127123,2019-08-16 13:08:00:903,-0.0723,-0.1279,10.3567,0.0539,-0.0408,9.8064,-0.032,0.0068,0.0069,-10.76,14.64,-24.89,223.09,7.97,3.29
11272,51.653824,-2.435151,73,24.07,17,230.7,13 / 24,1127224,2019-08-16 13:08:01:004,-0.0052,-0.4259,9.6371,0.0086,-0.0338,9.8066,0.0053,0.026,0.0122,-11.14,14.64,-24.51,223.36,7.87,3.11
11273,51.653824,-2.435151,73,24.07,17,230.7,13 / 24,1127325,2019-08-16 13:08:01:105,0.0518,-0.063,10.3615,-0.0044,-0.0128,9.8066,-0.0096,0.0281,0.0197,-11.14,14.64,-24.51,223.36,7.87,3.11
11274,51.653824,-2.435151,73,24.07,17,230.7,13 / 24,1127423,2019-08-16 13:08:01:203,-0.0765,0.1123,9.4837,-0.0008,-0.0029,9.8067,-0.0033,0.0111,0.0207,-10.76,15.02,-24.89,223.45,7.8,3.08
11275,51.653824,-2.435151,73,24.07,17,230.7,13 / 24,1127523,2019-08-16 13:08:01:303,0.0151,0.1646,9.6891,0.0099,0.0045,9.8066,-0.0182,-0.0432,0.0048,-10.76,15.02,-25.7,223.04,7.86,3.05
11276,51.653824,-2.435151,73,24.07,17,230.7,13 / 24,1127623,2019-08-16 13:08:01:403,0.4485,-0.1243,9.6689,0.0241,0.009,9.8066,-0.0182,-0.0432,0.0048,-10.76,15.02,-25.7,223.04,7.86,3.05
11277,51.653824,-2.435151,73,24.07,17,230.7,13 / 24,1127723,2019-08-16 13:08:01:503,0.3675,-0.254,10.4978,0.0279,-0.0087,9.8066,-0.0586,-0.0422,0.0229,-10.39,14.64,-25.7,224.99,8.0,3.0
11278,51.65365,-2.435417,74,24.53,17,228.6,13 / 24,1127823,2019-08-16 13:08:01:603,0.1361,0.0008,10.2938,0.0142,-0.0304,9.8066,0.0042,0.0249,0.025,-10.39,14.64,-25.33,225.64,7.93,2.81
11279,51.65365,-2.435417,74,24.53,17,228.6,13 / 24,1127923,2019-08-16 13:08:01:703,-0.3212,-0.1518,9.6229,-0.0143,-0.0074,9.8066,0.0181,0.0388,0.0026,-10.39,14.64,-25.33,225.64,7.93,2.81
11280,51.65365,-2.435417,74,24.53,17,228.6,13 / 24,1128023,2019-08-16 13:08:01:803,-0.0748,0.1323,9.4737,0.0198,0.0017,9.8066,-0.0501,-0.0688,0.0048,-10.01,14.27,-24.89,223.55,7.84,2.84
11281,51.65365,-2.435417,74,24.53,17,228.6,13 / 24,1128124,2019-08-16 13:08:01:904,0.4039,-0.1973,10.2243,0.0336,-0.0126,9.8066,-0.0001,0.0452,0.0229,-10.01,14.27,-24.89,223.67,7.93,2.65
11282,51.65365,-2.435417,74,24.53,17,228.6,13 / 24,1128223,2019-08-16 13:08:02:003,0.4514,0.0201,9.8656,-0.0072,-0.0266,9.8066,0.0042,-0.0219,0.0143,-10.01,14.27,-24.89,223.67,7.93,2.65
11283,51.65365,-2.435417,74,24.53,17,228.6,13 / 24,1128324,2019-08-16 13:08:02:104,0.0229,0.2655,10.0441,0.0083,0.0257,9.8066,0.0042,-0.0219,0.0143,-10.01,13.89,-25.33,223.79,7.88,2.58
11284,51.65365,-2.435417,74,24.53,17,228.6,13 / 24,1128424,2019-08-16 13:08:02:204,-0.215,0.1773,9.7932,-0.0003,0.0018,9.8067,0.0287,-0.007,0.0122,-10.76,15.02,-24.89,223.69,8.01,2.66
11285,51.65365,-2.435417,74,24.53,17,228.6,13 / 24,1128523,2019-08-16 13:08:02:303,-0.0541,0.206,9.4203,-0.013,-0.03,9.8066,-0.0523,0.0356,0.0282,-10.39,14.64,-24.45,226.1,8.02,2.67
11286,51.65365,-2.435417,74,24.53,17,228.6,13 / 24,1128624,2019-08-16 13:08:02:404,-0.0653,0.0577,9.5804,-0.0204,-0.0381,9.8066,0.0181,-0.0038,0.0133,-10.39,14.64,-24.45,226.1,8.02,2.67
11287,51.65365,-2.435417,74,24.53,17,228.6,13 / 24,1128724,2019-08-16 13:08:02:504,0.3426,-0.2652,9.6392,0.0166,0.0101,9.8066,-0.0192,-0.0124,0.0367,-10.76,13.89,-24.45,222.19,7.78,2.6
11288,51.653423,-2.435669,73,25.57,13,223.3,13 / 24,1128823,2019-08-16 13:08:02:603,0.0983,0.0998,8.9247,0.024,0.0018,9.8066,0.0095,0.0026,0.009,-10.76,14.27,-24.45,222.19,7.89,2.51
11289,51.653423,-2.435669,73,25.57,13,223.3,13 / 24,1128924,2019-08-16 13:08:02:704,-0.1196,-0.0038,10.027,-0.0029,-0.0064,9.8066,-0.0022,-0.0166,0.0346,-10.76,14.27,-24.45,222.19,7.89,2.51
11290,51.653423,-2.435669,73,25.57,13,223.3,13 / 24,1129023,2019-08-16 13:08:02:803,0.1858,-0.1107,10.028,-0.0013,-0.0007,9.8067,0.0159,0.01,0.025,-11.16,13.92,-24.12,222.23,7.85,2.5
11291,51.653423,-2.435669,73,25.57,13,223.3,13 / 24,1129123,2019-08-16 13:08:02:903,0.2937,0.165,9.1074,0.0128,0.0131,9.8066,0.0159,0.01,0.025,-10.83,13.98,-24.23,222.14,7.96,2.5
11292,51.653423,-2.435669,73,25.57,13,223.3,13 / 24,1129223,2019-08-16 13:08:03:003,0.0829,-0.0208,9.3627,-0.0038,0.0207,9.8066,0.001,0.0143,0.0452,-10.76,14.64,-24.08,222.14,7.96,2.5
11293,51.653423,-2.435669,73,25.57,13,223.3,13 / 24,1129323,2019-08-16 13:08:03:103,-0.1738,0.3375,10.7551,-0.017,0.0217,9.8066,0.0212,0.0793,0.0346,-11.14,14.64,-24.01,223.93,7.96,2.83
11294,51.653423,-2.435669,73,25.57,13,223.3,13 / 24,1129423,2019-08-16 13:08:03:203,-0.0801,-0.1047,9.9157,-0.0274,0.0426,9.8065,-0.0054,0.0249,0.0346,-11.14,14.64,-24.45,223.93,7.96,2.83
11295,51.653423,-2.435669,73,25.57,13,223.3,13 / 24,1129524,2019-08-16 13:08:03:304,-0.2463,0.1958,9.2138,-0.0519,0.038,9.8064,-0.0075,0.0303,0.0325,-11.14,14.64,-24.45,223.93,7.96,2.83
11296,51.653423,-2.435669,73,25.57,13,223.3,13 / 24,1129623,2019-08-16 13:08:03:403,-0.5093,0.509,9.2796,-0.0139,0.0069,9.8066,0.0117,0.0207,0.0037,-11.14,14.27,-24.01,221.47,7.9,3.21
11297,51.653423,-2.435669,73,25.57,13,223.3,13 / 24,1129723,2019-08-16 13:08:03:503,-0.1654,-0.1337,9.0138,-0.0005,0.0176,9.8066,-0.0267,-0.0848,0.0005,-10.77,14.27,-24.09,221.47,7.9,3.21
11298,51.653225,-2.435956,72,25.86,12,223.3,13 / 24,1129823,2019-08-16 13:08:03:603,0.1776,-0.0652,9.1394,0.0223,0.0164,9.8066,-0.0267,-0.0848,0.0005,-10.77,14.27,-24.09,221.47,7.9,3.21
11299,51.653225,-2.435956,72,25.86,12,223.3,13 / 24,1129923,2019-08-16 13:08:03:703,0.0347,0.3379,9.8017,-0.0009,-0.0195,9.8066,-0.0224,0.026,0.009,-11.51,13.58,-24.45,219.47,8.06,3.19
11300,51.653225,-2.435956,72,25.86,12,223.3,13 / 24,1130024,2019-08-16 13:08:03:804,-0.0181,-0.3511,9.9728,-0.0043,-0.0261,9.8066,-0.0128,0.0303,0.0378,-10.76,13.89,-24.51,221.11,7.98,3.11
11301,51.653225,-2.435956,72,25.86,12,223.3,13 / 24,1130123,2019-08-16 13:08:03:903,0.3837,-0.1454,9.4146,-0.0254,-0.0356,9.8066,0.0426,-0.0177,0.0133,-11.16,13.92,-24.12,221.76,7.73,3.05
11302,51.653225,-2.435956,72,25.86,12,223.3,13 / 24,1130223,2019-08-16 13:08:04:003,-0.2193,0.1546,9.7358,-0.0198,0.0001,9.8066,-0.0033,0.01,0.0005,-11.16,13.92,-24.12,221.76,7.73,3.05
11303,51.653225,-2.435956,72,25.86,12,223.3,13 / 24,1130323,2019-08-16 13:08:04:103,0.2137,0.0965,9.6436,0.016,0.0051,9.8066,-0.0214,-0.0283,0.0293,-12.06,14.69,-23.21,222.27,7.68,3.18
11304,51.653225,-2.435956,72,25.86,12,223.3,13 / 24,1130423,2019-08-16 13:08:04:203,0.4202,0.0497,9.2131,0.0175,0.0116,9.8066,0.0234,-0.0155,0.0101,-12.27,14.62,-23.15,222.27,7.68,3.18
11305,51.653225,-2.435956,72,25.86,12,223.3,13 / 24,1130523,2019-08-16 13:08:04:303,0.2301,0.2558,10.3432,-0.0008,0.0221,9.8066,-0.0182,-0.006,0.0197,-12.12,14.44,-23.33,220.06,7.81,3.16
11306,51.653225,-2.435956,72,25.86,12,223.3,13 / 24,1130624,2019-08-16 13:08:04:404,-0.2224,-0.2241,10.5325,-0.0007,0.0169,9.8066,-0.0182,-0.006,0.0197,-12.06,14.69,-23.21,222.08,7.87,3.24
11307,51.653225,-2.435956,72,25.86,12,223.3,13 / 24,1130723,2019-08-16 13:08:04:503,0.0778,0.0782,9.6438,0.0048,-0.0165,9.8066,0.0159,-0.0369,0.0069,-12.06,14.69,-23.21,222.08,7.87,3.24
11308,51.653065,-2.436219,73,25.47,12,222.4,13 / 24,1130823,2019-08-16 13:08:04:603,0.0767,0.0261,10.2817,0.0182,-0.0421,9.8065,0.0149,0.01,-0.0016,-12.06,14.69,-23.21,222.08,7.87,3.24
11309,51.653065,-2.436219,73,25.47,12,222.4,13 / 24,1130923,2019-08-16 13:08:04:703,-0.184,-0.1641,10.0419,-0.0112,-0.0295,9.8066,0.0095,-0.0241,0.0218,-12.35,14.31,-23.3,220.25,7.78,2.99
11310,51.653065,-2.436219,73,25.47,12,222.4,13 / 24,1131025,2019-08-16 13:08:04:805,-0.0404,0.1295,9.6218,-0.0327,-0.0372,9.8065,0.0266,-0.0315,0.0186,-12.6,14.53,-23.02,220.8,7.49,2.94
11311,51.653065,-2.436219,73,25.47,12,222.4,13 / 24,1131123,2019-08-16 13:08:04:903,0.0626,0.0474,9.5751,0.0183,0.0033,9.8066,0.001,-0.0369,0.0111,-12.86,13.98,-23.22,220.8,7.49,2.94
11312,51.653065,-2.436219,73,25.47,12,222.4,13 / 24,1131223,2019-08-16 13:08:05:003,0.258,0.0594,9.108,0.0293,-0.003,9.8066,-0.0118,-0.0347,0.0293,-12.6,14.53,-23.02,220.79,7.59,2.89
11313,51.653065,-2.436219,73,25.47,12,222.4,13 / 24,1131323,2019-08-16 13:08:05:103,0.2396,0.2547,9.8045,0.0423,0.0008,9.8066,-0.0118,-0.0347,0.0293,-12.6,14.53,-23.02,220.79,7.59,2.89
11314,51.653065,-2.436219,73,25.47,12,222.4,13 / 24,1131423,2019-08-16 13:08:05:203,0.583,0.1875,10.1788,0.0086,-0.0033,9.8066,0.0042,0.0526,0.0303,-12.45,14.36,-23.21,220.51,7.78,2.73
11315,51.653065,-2.436219,73,25.47,12,222.4,13 / 24,1131524,2019-08-16 13:08:05:304,0.7759,0.0118,9.8125,0.0113,-0.0045,9.8066,-0.0043,0.0036,0.0058,-12.25,13.75,-23.68,220.51,7.78,2.73
11316,51.653065,-2.436219,73,25.47,12,222.4,13 / 24,1131623,2019-08-16 13:08:05:403,-0.0014,-0.017,10.7666,-0.0237,-0.0114,9.8066,0.0223,-0.0124,0.0037,-12.33,13.44,-23.82,217.94,7.81,2.66
11317,51.653065,-2.436219,73,25.47,12,222.4,13 / 24,1131724,2019-08-16 13:08:05:504,-0.3869,-0.2908,10.8287,-0.0609,-0.0408,9.8064,0.0021,0.0313,0.009,-12.33,13.44,-23.82,217.94,7.81,2.66
11318,51.652912,-2.436466,73,25.16,12,222.4,13 / 24,1131823,2019-08-16 13:08:05:603,-0.4134,-0.319,9.8698,-0.0091,-0.0118,9.8066,0.0106,0.0164,0.0111,-12.7,13.03,-23.85,216.45,7.38,2.7
11319,51.652912,-2.436466,73,25.16,12,222.4,13 / 24,1131923,2019-08-16 13:08:05:703,0.4418,0.2093,9.1406,0.0011,-0.0001,9.8067,-0.016,0.0228,0.0175,-13.14,13.15,-23.55,216.45,7.39,2.69
11320,51.652912,-2.436466,73,25.16,12,222.4,13 / 24,1132023,2019-08-16 13:08:05:803,-0.0523,-0.2764,9.4509,0.0078,0.009,9.8066,0.0149,0.0036,0.0175,-13.14,13.15,-23.55,216.45,7.39,2.69
11321,51.652912,-2.436466,73,25.16,12,222.4,13 / 24,1132124,2019-08-16 13:08:05:904,-0.0357,0.0223,9.918,0.0212,0.0096,9.8066,-0.015,-0.0294,0.0186,-13.12,13.91,-23.11,218.95,7.45,2.71
11322,51.652912,-2.436466,73,25.16,12,222.4,13 / 24,1132223,2019-08-16 13:08:06:003,-0.1133,-0.0231,9.8832,0.0037,-0.0013,9.8067,-0.015,-0.0294,0.0186,-12.52,13.65,-23.74,218.58,7.71,2.57
11323,51.652912,-2.436466,73,25.16,12,222.4,13 / 24,1132323,2019-08-16 13:08:06:103,-0.2818,0.0959,9.2605,-0.0124,0.0036,9.8066,0.0319,0.0228,0.0282,-12.67,14.88,-22.76,218.58,7.71,2.57
11324,51.652912,-2.436466,73,25.16,12,222.4,13 / 24,1132423,2019-08-16 13:08:06:203,0.1942,0.1744,10.5107,-0.0236,-0.0134,9.8066,0.0053,-0.0326,0.0452,-12.22,16.23,-22.08,225.09,7.67,2.64
11325,51.652912,-2.436466,73,25.16,12,222.4,13 / 24,1132523,2019-08-16 13:08:06:303,0.191,-0.0685,10.2023,-0.0373,-0.0001,9.8066,0.0234,-0.0155,0.0271,-12.22,16.23,-22.08,225.09,7.67,2.64
11326,51.652912,-2.436466,73,25.16,12,222.4,13 / 24,1132623,2019-08-16 13:08:06:403,0.062,0.0947,9.9541,-0.011,0.0059,9.8066,0.0053,0.0068,0.0314,-12.26,17.97,-20.66,228.97,7.51,2.79
11327,51.652912,-2.436466,73,25.16,12,222.4,13 / 24,1132723,2019-08-16 13:08:06:503,-0.3212,0.2042,10.4043,-0.0296,0.0062,9.8066,-0.0086,0.0047,0.042,-11.11,18.69,-20.67,232.47,7.43,2.95
11328,51.652782,-2.436666,71,23.95,13,221.7,13 / 24,1132823,2019-08-16 13:08:06:603,-0.5222,-0.1845,10.4009,-0.003,0.0047,9.8066,-0.0192,-0.0219,0.0229,-11.11,18.69,-20.67,232.47,7.43,2.95
11329,51.652782,-2.436666,71,23.95,13,221.7,13 / 24,1132923,2019-08-16 13:08:06:703,-0.0565,-0.1479,10.1526,0.0049,0.0131,9.8066,-0.0192,-0.0219,0.0229,-11.15,17.09,-21.99,228.75,7.5,2.97
11330,51.652782,-2.436666,71,23.95,13,221.7,13 / 24,1133023,2019-08-16 13:08:06:803,-0.257,-0.116,9.4157,0.0073,-0.0089,9.8066,-0.0139,-0.0102,0.0271,-11.33,16.54,-22.32,228.75,7.5,2.97
11331,51.652782,-2.436666,71,23.95,13,221.7,13 / 24,1133123,2019-08-16 13:08:06:903,-0.12,-0.1196,10.0304,-0.0043,0.0102,9.8066,0.0063,0.0004,0.0165,-12.23,15.06,-22.89,222.66,7.49,2.91
11332,51.652782,-2.436666,71,23.95,13,221.7,13 / 24,1133223,2019-08-16 13:08:07:003,0.2625,0.0893,9.6791,-0.0123,0.0374,9.8066,0.0074,-0.0294,0.0282,-12.23,15.06,-22.89,222.66,7.49,2.91
11333,51.652782,-2.436666,71,23.95,13,221.7,13 / 24,1133322,2019-08-16 13:08:07:102,-0.195,0.1092,9.3447,0.0,0.0276,9.8066,0.0095,-0.0326,0.0165,-12.68,14.23,-23.17,218.47,7.59,3.12
11334,51.652782,-2.436666,71,23.95,13,221.7,13 / 24,1133423,2019-08-16 13:08:07:203,-0.3005,0.0511,9.0144,-0.0181,0.0355,9.8066,0.0095,0.0111,0.0186,-12.93,14.45,-22.89,218.22,7.63,3.35
11335,51.652782,-2.436666,71,23.95,13,221.7,13 / 24,1133523,2019-08-16 13:08:07:303,-0.4676,-0.0295,10.8006,-0.0104,-0.0025,9.8066,-0.0139,-0.0347,0.0186,-12.93,14.45,-22.89,218.22,7.63,3.35
11336,51.652782,-2.436666,71,23.95,13,221.7,13 / 24,1133623,2019-08-16 13:08:07:403,0.0907,0.0451,9.5156,-0.0043,0.0048,9.8066,0.0021,0.0292,0.0207,-13.28,14.08,-22.92,218.18,7.63,3.38
11337,51.652782,-2.436666,71,23.95,13,221.7,13 / 24,1133723,2019-08-16 13:08:07:503,0.299,0.2463,9.7595,-0.0072,0.0065,9.8066,0.0021,0.0292,0.0207,-13.12,13.91,-23.11,218.13,7.62,3.44
11338,51.6526,-2.436981,70,25.54,14,223.4,13 / 24,1133823,2019-08-16 13:08:07:603,-0.2843,0.3928,10.6477,-0.0323,0.0109,9.8066,0.0426,0.0484,0.0357,-12.89,14.05,-23.16,218.13,7.62,3.44
11339,51.6526,-2.436981,70,25.54,14,223.4,13 / 24,1133923,2019-08-16 13:08:07:703,-0.3211,0.1056,10.7682,-0.0618,0.0266,9.8064,-0.0246,-0.0337,0.0154,-12.89,14.05,-23.16,218.13,7.62,3.44
11340,51.6526,-2.436981,70,25.54,14,223.4,13 / 24,1134024,2019-08-16 13:08:07:804,0.3098,0.2664,8.7277,0.0162,0.0008,9.8066,-0.0224,0.042,0.0229,-13.3,13.69,-23.14,217.92,7.43,3.79
11341,51.6526,-2.436981,70,25.54,14,223.4,13 / 24,1134123,2019-08-16 13:08:07:903,-0.1232,0.3534,10.0536,0.0152,-0.019,9.8066,-0.0352,0.0068,0.0261,-13.04,14.22,-22.97,217.92,7.51,3.73
11342,51.6526,-2.436981,70,25.54,14,223.4,13 / 24,1134223,2019-08-16 13:08:08:003,-0.2816,-0.2648,9.9333,0.0169,-0.0033,9.8066,-0.0182,0.0111,0.0442,-13.2,13.6,-23.25,218.06,7.51,3.59
11343,51.6526,-2.436981,70,25.54,14,223.4,13 / 24,1134323,2019-08-16 13:08:08:103,-0.2102,-0.3078,10.6489,0.0323,0.0093,9.8066,0.0074,0.0132,0.0303,-13.2,13.6,-23.25,218.06,7.51,3.59
11344,51.6526,-2.436981,70,25.54,14,223.4,13 / 24,1134423,2019-08-16 13:08:08:203,-0.2379,-0.1777,9.8294,-0.0164,-0.0206,9.8066,-0.0224,0.0239,0.0357,-13.41,14.22,-22.76,218.01,7.7,3.52
11345,51.6526,-2.436981,70,25.54,14,223.4,13 / 24,1134523,2019-08-16 13:08:08:303,-0.1134,-0.0684,9.7051,-0.0263,-0.0394,9.8065,-0.0224,0.0239,0.0357,-13.34,14.48,-22.64,218.27,7.43,3.43
11346,51.6526,-2.436981,70,25.54,14,223.4,13 / 24,1134623,2019-08-16 13:08:08:403,-0.1985,-0.2061,9.8999,-0.0032,-0.0061,9.8067,-0.0171,0.0185,0.0218,-13.34,14.48,-22.64,218.27,7.43,3.43
11347,51.6526,-2.436981,70,25.54,14,223.4,13 / 24,1134723,2019-08-16 13:08:08:503,-0.1803,-0.1373,9.852,-0.0039,-0.003,9.8067,-0.015,0.0153,0.0154,-13.41,14.22,-22.76,218.29,7.4,3.43
11348,51.65249,-2.437178,70,23.67,14,222.1,13 / 24,1134823,2019-08-16 13:08:08:603,0.2576,-0.318,9.9516,0.006,-0.0057,9.8066,-0.0278,0.0207,0.0442,-13.28,14.08,-22.92,218.29,7.4,3.43
11349,51.65249,-2.437178,70,23.67,14,222.1,13 / 24,1134922,2019-08-16 13:08:08:702,-0.1294,-0.1054,10.0282,0.0074,-0.0197,9.8066,0.0117,0.0377,0.0271,-13.07,13.08,-23.63,215.82,7.37,3.31
11350,51.65249,-2.437178,70,23.67,14,222.1,13 / 24,1135024,2019-08-16 13:08:08:804,-0.089,-0.0107,10.3269,-0.0221,0.0024,9.8066,0.0191,-0.0464,0.0207,-13.28,13.28,-23.39,215.82,7.37,3.31
11351,51.65249,-2.437178,70,23.67,14,222.1,13 / 24,1135123,2019-08-16 13:08:08:903,0.0987,0.0329,9.611,0.0024,0.0168,9.8066,-0.0054,0.0548,0.0229,-13.44,13.05,-23.44,216.15,7.27,3.4
11352,51.65249,-2.437178,70,23.67,14,222.1,13 / 24,1135224,2019-08-16 13:08:09:004,0.2492,0.2131,10.7345,0.0242,0.0351,9.8066,0.0926,-0.0454,0.0058,-13.44,13.05,-23.44,216.15,7.27,3.4
11353,51.65249,-2.437178,70,23.67,14,222.1,13 / 24,1135323,2019-08-16 13:08:09:103,0.3758,0.2615,8.3917,0.0112,0.0206,9.8066,0.0926,-0.0454,0.0058,-13.44,13.83,-22.98,218.17,7.5,3.48
11354,51.65249,-2.437178,70,23.67,14,222.1,13 / 24,1135423,2019-08-16 13:08:09:203,0.1521,0.4714,11.2993,0.0158,0.0012,9.8066,-0.0246,-0.0731,0.0271,-13.71,13.32,-23.12,214.29,7.58,3.43
11355,51.65249,-2.437178,70,23.67,14,222.1,13 / 24,1135523,2019-08-16 13:08:09:303,-0.0312,0.1084,11.4285,-0.0368,-0.0266,9.8065,-0.0597,0.0601,0.025,-13.71,13.32,-23.12,214.29,7.58,3.43
11356,51.65249,-2.437178,70,23.67,14,222.1,13 / 24,1135623,2019-08-16 13:08:09:403,0.4827,-0.5058,10.9324,-0.0475,-0.0307,9.8065,0.0489,0.1038,0.0229,-13.57,13.18,-23.28,214.46,7.32,3.42
11357,51.65249,-2.437178,70,23.67,14,222.1,13 / 24,1135723,2019-08-16 13:08:09:503,0.8278,-0.2345,9.3577,-0.0858,-0.0558,9.8061,-0.0512,-0.0837,0.0261,-13.94,13.55,-22.85,217.04,6.72,3.44
11358,51.652264,-2.437446,68,25.33,14,219.0,13 / 24,1135823,2019-08-16 13:08:09:603,0.5403,-0.3241,8.3644,0.048,0.0453,9.8064,0.0042,-0.0155,0.0207,-13.94,13.55,-22.85,217.04,6.72,3.44
11359,51.652264,-2.437446,68,25.33,14,219.0,13 / 24,1135923,2019-08-16 13:08:09:703,-0.2916,-0.1407,8.7359,0.0633,-0.0132,9.8064,-0.0682,0.0068,0.0122,-14.1,12.56,-23.31,214.53,7.1,3.48
11360,51.652264,-2.437446,68,25.33,14,219.0,13 / 24,1136023,2019-08-16 13:08:09:803,-0.4784,0.0398,10.2819,0.095,-0.0322,9.8061,-0.0682,0.0068,0.0122,-13.55,13.16,-23.31,214.53,7.1,3.48
11361,51.652264,-2.437446,68,25.33,14,219.0,13 / 24,1136123,2019-08-16 13:08:09:903,-0.4932,0.2,9.9583,0.0202,-0.0038,9.8066,0.0138,0.042,0.0186,-13.78,12.61,-23.48,214.79,7.45,3.01
11362,51.652264,-2.437446,68,25.33,14,219.0,13 / 24,1136223,2019-08-16 13:08:10:003,0.1839,-0.0709,10.3983,0.0101,-0.0217,9.8066,-0.0246,0.0047,0.0154,-13.31,12.91,-23.58,216.12,7.54,2.92
11363,51.652264,-2.437446,68,25.33,14,219.0,13 / 24,1136323,2019-08-16 13:08:10:103,0.8524,-0.5519,10.5104,-0.0022,-0.0762,9.8064,0.0042,0.0601,0.0261,-14.11,12.91,-23.11,215.34,7.26,2.57
11364,51.652264,-2.437446,68,25.33,14,219.0,13 / 24,1136423,2019-08-16 13:08:10:203,0.1189,-0.4805,10.1206,-0.0159,-0.0394,9.8066,-0.0054,-0.0102,0.0229,-14.11,12.91,-23.11,215.34,7.26,2.57
11365,51.652264,-2.437446,68,25.33,14,219.0,13 / 24,1136523,2019-08-16 13:08:10:303,-0.2998,-0.3247,10.5368,0.0214,-0.0005,9.8066,-0.0054,0.0004,0.0101,-14.02,12.44,-23.43,213.28,7.05,2.43
11366,51.652264,-2.437446,68,25.33,14,219.0,13 / 24,1136624,2019-08-16 13:08:10:404,0.525,-0.3994,9.3449,0.0434,-0.0175,9.8065,-0.0043,0.0388,0.0101,-13.78,12.61,-23.48,215.72,7.21,2.2
11367,51.652264,-2.437446,68,25.33,14,219.0,13 / 24,1136724,2019-08-16 13:08:10:504,0.5826,-0.3825,10.298,-0.0019,-0.021,9.8066,-0.0043,0.0388,0.0101,-13.78,12.61,-23.48,215.72,7.21,2.2
11368,51.652096,-2.437624,68,24.58,15,217.5,13 / 24,1136823,2019-08-16 13:08:10:603,-0.1934,-0.2952,11.2017,-0.0022,0.0116,9.8066,0.017,-0.0145,0.0388,-13.71,12.16,-23.75,213.33,7.07,2.1
11369,51.652096,-2.437624,68,24.58,15,217.5,13 / 24,1136923,2019-08-16 13:08:10:703,-0.1828,0.2824,9.1125,-0.0088,0.0029,9.8066,0.0362,-0.0187,-0.0027,-14.17,13.0,-23.03,215.83,7.09,2.16
11370,51.652096,-2.437624,68,24.58,15,217.5,13 / 24,1137023,2019-08-16 13:08:10:803,-0.1976,0.2188,9.3233,-0.0343,-0.0128,9.8066,-0.0278,-0.0134,0.0175,-14.17,13.0,-23.03,215.83,7.09,2.16
11371,51.652096,-2.437624,68,24.58,15,217.5,13 / 24,1137123,2019-08-16 13:08:10:903,0.3456,-0.083,8.9047,0.008,0.004,9.8066,-0.015,-0.007,0.0303,-14.25,12.68,-23.16,215.9,6.89,2.22
11372,51.652096,-2.437624,68,24.58,15,217.5,13 / 24,1137223,2019-08-16 13:08:11:003,-0.0222,0.6113,9.8112,0.0298,0.0242,9.8066,0.0149,0.0026,0.0175,-14.11,12.91,-23.11,215.9,6.89,2.22
11373,51.652096,-2.437624,68,24.58,15,217.5,13 / 24,1137323,2019-08-16 13:08:11:103,0.7035,0.1923,9.9234,0.0046,0.0174,9.8066,-0.0235,0.0228,0.0069,-14.25,12.68,-23.16,215.75,7.11,2.23
11374,51.652096,-2.437624,68,24.58,15,217.5,13 / 24,1137423,2019-08-16 13:08:11:203,0.4518,-0.0235,10.2874,0.0044,0.0061,9.8066,-0.0235,0.0228,0.0069,-14.09,12.1,-23.56,215.75,7.11,2.23
11375,51.652096,-2.437624,68,24.58,15,217.5,13 / 24,1137524,2019-08-16 13:08:11:304,0.2807,0.1298,10.0667,-0.0094,-0.0046,9.8066,0.0181,0.058,0.0165,-14.09,12.1,-23.56,215.75,7.11,2.23
11376,51.652096,-2.437624,68,24.58,15,217.5,13 / 24,1137623,2019-08-16 13:08:11:403,-0.0465,-0.1029,9.55,0.0111,-0.0049,9.8066,-0.016,-0.0805,0.0154,-13.95,11.98,-23.71,213.19,7.05,2.24
11377,51.652096,-2.437624,68,24.58,15,217.5,13 / 24,1137723,2019-08-16 13:08:11:503,0.309,0.1504,10.3783,-0.0004,-0.0028,9.8067,-0.0331,0.043,0.0165,-14.25,12.68,-23.16,215.91,7.04,2.11
11378,51.651833,-2.43785,68,26.28,15,214.8,Dec-24,1137823,2019-08-16 13:08:11:603,-0.0043,-0.2693,10.3701,0.0043,-0.0093,9.8066,0.0138,0.0707,0.0314,-14.32,12.36,-23.28,215.91,7.04,2.11
11379,51.651833,-2.43785,68,26.28,15,214.8,Dec-24,1137924,2019-08-16 13:08:11:704,0.0175,0.2511,8.9268,-0.0028,-0.0082,9.8066,-0.0054,0.0388,0.009,-14.08,12.53,-23.34,215.97,7.03,2.05
11380,51.651833,-2.43785,68,26.28,15,214.8,Dec-24,1138023,2019-08-16 13:08:11:803,0.2307,0.3507,8.5914,-0.009,0.0162,9.8066,0.0191,-0.0528,0.0133,-14.08,12.53,-23.34,215.97,7.03,2.05
11381,51.651833,-2.43785,68,26.28,15,214.8,Dec-24,1138123,2019-08-16 13:08:11:903,0.0137,-0.1446,8.1668,-0.005,0.0167,9.8066,0.0191,-0.0528,0.0133,-14.55,11.83,-23.41,212.06,7.04,2.16
11382,51.651833,-2.43785,68,26.28,15,214.8,Dec-24,1138223,2019-08-16 13:08:12:003,-0.4298,0.3549,9.8909,0.0013,0.0177,9.8066,-0.0096,-0.0113,0.0207,-14.09,12.1,-23.56,212.06,7.04,2.16
11383,51.651833,-2.43785,68,26.28,15,214.8,Dec-24,1138323,2019-08-16 13:08:12:103,-0.116,-0.4144,10.5383,0.0029,0.016,9.8066,0.0021,0.0324,0.0378,-14.1,12.56,-23.31,215.75,7.1,2.23
11384,51.651833,-2.43785,68,26.28,15,214.8,Dec-24,1138423,2019-08-16 13:08:12:203,-0.4832,-0.0746,10.0599,-0.008,0.0178,9.8066,-0.015,-0.0592,0.041,-14.1,12.56,-23.31,215.75,7.1,2.23
11385,51.651833,-2.43785,68,26.28,15,214.8,Dec-24,1138523,2019-08-16 13:08:12:303,-0.6192,-0.2304,9.6366,-0.018,0.0219,9.8066,-0.0203,-0.0038,0.0378,-14.42,12.83,-22.97,215.6,7.09,2.4
11386,51.651833,-2.43785,68,26.28,15,214.8,Dec-24,1138623,2019-08-16 13:08:12:403,-0.5138,0.4797,10.3823,-0.0093,-0.0002,9.8066,-0.0054,0.0153,0.0069,-14.98,11.78,-23.17,211.79,7.05,2.43
11387,51.651833,-2.43785,68,26.28,15,214.8,Dec-24,1138723,2019-08-16 13:08:12:503,0.2316,0.14,10.1679,-0.0031,0.002,9.8066,-0.0576,-0.0763,0.0143,-14.98,11.78,-23.17,211.79,7.05,2.43
11388,51.651577,-2.438127,68,28.03,14,213.9,Dec-24,1138823,2019-08-16 13:08:12:603,-0.0042,-0.405,9.7244,0.0419,-0.0089,9.8066,-0.0576,-0.0763,0.0143,-14.55,11.83,-23.41,211.78,7.04,2.45
11389,51.651577,-2.438127,68,28.03,14,213.9,Dec-24,1138923,2019-08-16 13:08:12:703,0.4413,0.1965,11.5219,0.0138,-0.0244,9.8066,0.0521,0.0473,0.0474,-14.96,11.76,-23.19,211.78,7.04,2.45
11390,51.651577,-2.438127,68,28.03,14,213.9,Dec-24,1139023,2019-08-16 13:08:12:803,0.3709,0.0206,9.4172,-0.0061,-0.0269,9.8066,-0.0235,-0.0635,0.0165,-14.7,11.95,-23.26,211.95,6.93,2.33
11391,51.651577,-2.438127,68,28.03,14,213.9,Dec-24,1139123,2019-08-16 13:08:12:903,-0.1913,0.5511,10.5862,0.0209,0.035,9.8066,0.001,-0.0901,0.0048,-14.88,12.09,-23.07,211.81,7.15,2.36
11392,51.651577,-2.438127,68,28.03,14,213.9,Dec-24,1139223,2019-08-16 13:08:13:003,0.5035,-0.0406,9.4155,-0.0053,0.0302,9.8066,0.0511,0.0036,0.0122,-14.47,12.48,-23.12,211.81,7.15,2.36
11393,51.651577,-2.438127,68,28.03,14,213.9,Dec-24,1139323,2019-08-16 13:08:13:103,0.2079,-0.2801,10.4437,-0.0253,0.0208,9.8066,-0.0203,0.0271,0.0175,-14.47,12.48,-23.12,211.81,7.15,2.36
11394,51.651577,-2.438127,68,28.03,14,213.9,Dec-24,1139423,2019-08-16 13:08:13:203,0.2568,0.0887,9.4364,0.0042,0.0054,9.8066,0.0415,-0.0315,0.0314,-14.6,11.48,-23.56,209.0,7.08,2.54
11395,51.651577,-2.438127,68,28.03,14,213.9,Dec-24,1139522,2019-08-16 13:08:13:302,-0.3321,-0.1157,9.1282,0.0181,0.0353,9.8066,-0.0064,-0.0049,0.0239,-14.6,11.48,-23.56,209.0,7.08,2.54
11396,51.651577,-2.438127,68,28.03,14,213.9,Dec-24,1139623,2019-08-16 13:08:13:403,-0.4049,0.1189,9.9771,-0.0164,0.0057,9.8066,-0.0064,-0.0049,0.0239,-14.78,11.62,-23.38,211.43,7.28,2.67
11397,51.651577,-2.438127,68,28.03,14,213.9,Dec-24,1139723,2019-08-16 13:08:13:503,0.0731,0.1358,10.4536,-0.0414,-0.0021,9.8066,0.034,0.0643,0.0474,-14.88,12.09,-23.07,211.43,7.06,2.79
11398,51.65136,-2.43831,69,27.7,14,211.9,13 / 24,1139823,2019-08-16 13:08:13:603,-0.067,0.1505,10.1428,-0.0196,0.0108,9.8066,-0.0022,-0.039,0.0325,-14.7,11.95,-23.26,211.35,7.0,2.9
11399,51.65136,-2.43831,69,27.7,14,211.9,13 / 24,1139924,2019-08-16 13:08:13:704,0.2583,0.14,9.1151,0.0078,0.0207,9.8066,-0.0203,-0.0177,0.0357,-14.7,11.95,-23.26,211.35,7.0,2.9
11400,51.65136,-2.43831,69,27.7,14,211.9,13 / 24,1140023,2019-08-16 13:08:13:803,-0.1363,-0.2618,10.1599,0.0021,-0.0084,9.8066,-0.0352,-0.0464,0.0303,-15.0,11.88,-23.11,211.22,7.1,2.98
11401,51.65136,-2.43831,69,27.7,14,211.9,13 / 24,1140123,2019-08-16 13:08:13:903,0.1383,-0.0518,10.4747,0.0075,0.0274,9.8066,0.0138,0.009,0.0229,-14.63,11.5,-23.53,211.06,7.09,2.85
11402,51.65136,-2.43831,69,27.7,14,211.9,13 / 24,1140223,2019-08-16 13:08:14:003,0.274,-0.3627,8.1552,0.0251,0.0458,9.8065,0.099,-0.0582,0.0048,-15.18,12.02,-22.92,211.06,7.09,2.85
11403,51.65136,-2.43831,69,27.7,14,211.9,13 / 24,1140323,2019-08-16 13:08:14:103,-0.0528,-0.1105,8.8446,0.0176,0.0509,9.8065,0.099,-0.0582,0.0048,-15.15,11.21,-23.34,208.66,7.35,3.0
11404,51.65136,-2.43831,69,27.7,14,211.9,13 / 24,1140424,2019-08-16 13:08:14:204,-0.5959,0.521,10.1614,0.0098,0.0388,9.8066,-0.0011,0.01,0.0133,-14.78,11.62,-23.38,210.8,7.51,3.18
11405,51.65136,-2.43831,69,27.7,14,211.9,13 / 24,1140523,2019-08-16 13:08:14:303,-0.7688,0.1098,10.2734,0.0326,-0.0328,9.8065,-0.0054,0.1027,0.0367,-14.78,11.62,-23.38,210.8,7.51,3.18
11406,51.65136,-2.43831,69,27.7,14,211.9,13 / 24,1140623,2019-08-16 13:08:14:403,-0.191,0.2908,10.1679,-0.0093,-0.0215,9.8066,-0.0427,0.0303,0.041,-16.38,12.11,-22.02,209.98,7.57,2.91
11407,51.65136,-2.43831,69,27.7,14,211.9,13 / 24,1140723,2019-08-16 13:08:14:503,-0.1814,0.1557,10.6837,-0.0492,-0.035,9.8065,0.0074,0.0228,0.0495,-15.99,11.82,-22.46,210.18,7.22,2.88
11408,51.65115,-2.438546,68,28.04,14,212.0,13 / 24,1140823,2019-08-16 13:08:14:603,-0.4596,0.4227,10.1755,-0.0288,0.0125,9.8066,0.05,0.0132,0.0133,-15.99,11.82,-22.46,210.18,7.22,2.88
11409,51.65115,-2.438546,68,28.04,14,212.0,13 / 24,1140924,2019-08-16 13:08:14:704,-0.0433,-0.1338,8.8916,-0.0195,0.0421,9.8065,0.0159,-0.0464,0.0165,-17.23,11.69,-21.6,208.65,7.25,3.15
11410,51.65115,-2.438546,68,28.04,14,212.0,13 / 24,1141024,2019-08-16 13:08:14:804,0.2586,0.178,10.3451,0.0373,0.0065,9.8066,0.0138,0.0207,-0.008,-16.65,11.88,-21.95,208.65,7.25,3.15
11411,51.65115,-2.438546,68,28.04,14,212.0,13 / 24,1141123,2019-08-16 13:08:14:903,0.1145,-0.4456,9.726,0.0549,0.0019,9.8065,0.0138,0.0207,-0.008,-16.16,11.95,-22.27,209.91,7.53,3.01
11412,51.65115,-2.438546,68,28.04,14,212.0,13 / 24,1141223,2019-08-16 13:08:15:003,0.2309,-0.4655,11.1046,0.0075,-0.0146,9.8066,0.0053,-0.0251,0.0239,-16.19,11.97,-22.24,209.91,7.53,3.01
11413,51.65115,-2.438546,68,28.04,14,212.0,13 / 24,1141323,2019-08-16 13:08:15:103,0.459,0.1182,10.7828,0.0133,-0.0212,9.8066,-0.0075,-0.0379,0.0293,-16.19,11.97,-22.24,209.91,7.53,3.01
11414,51.65115,-2.438546,68,28.04,14,212.0,13 / 24,1141423,2019-08-16 13:08:15:203,-0.1702,-0.3686,10.3559,-0.0072,-0.0225,9.8066,0.0266,0.0377,0.0154,-16.16,11.11,-22.7,207.44,7.54,2.86
11415,51.65115,-2.438546,68,28.04,14,212.0,13 / 24,1141523,2019-08-16 13:08:15:303,-0.2027,-0.4505,10.8041,-0.018,-0.0192,9.8066,0.0212,-0.0518,0.0207,-16.1,12.32,-22.12,210.18,7.44,2.76
11416,51.65115,-2.438546,68,28.04,14,212.0,13 / 24,1141623,2019-08-16 13:08:15:403,0.3958,-0.4075,9.6663,-0.0349,-0.0219,9.8066,-0.0043,-0.1061,0.0357,-16.48,11.88,-22.08,210.3,7.2,2.75
11417,51.65115,-2.438546,68,28.04,14,212.0,13 / 24,1141723,2019-08-16 13:08:15:503,0.3694,0.1192,10.3398,0.0206,0.0258,9.8066,0.0127,-0.0038,0.0122,-16.48,11.88,-22.08,210.3,7.2,2.75
11418,51.650925,-2.438751,69,27.56,12,210.2,13 / 24,1141823,2019-08-16 13:08:15:603,-0.2927,-0.2116,9.1517,0.0264,-0.0101,9.8066,-0.0043,-0.0294,0.0293,-16.48,11.88,-22.08,210.15,7.38,2.82
11419,51.650925,-2.438751,69,27.56,12,210.2,13 / 24,1141923,2019-08-16 13:08:15:703,0.0321,-0.3717,10.4659,0.0271,-0.0357,9.8065,-0.065,0.0313,0.0218,-16.09,11.6,-22.5,210.11,7.41,2.56
11420,51.650925,-2.438751,69,27.56,12,210.2,13 / 24,1142024,2019-08-16 13:08:15:804,-0.5907,0.1292,10.5955,-0.0012,-0.0445,9.8066,-0.065,0.0313,0.0218,-16.48,11.88,-22.08,210.11,7.41,2.56
11421,51.650925,-2.438751,69,27.56,12,210.2,13 / 24,1142124,2019-08-16 13:08:15:904,0.0307,0.1492,9.5243,0.0074,-0.0509,9.8065,0.0841,-0.0358,-0.0165,-16.48,11.88,-22.08,210.11,7.41,2.56
11422,51.650925,-2.438751,69,27.56,12,210.2,13 / 24,1142223,2019-08-16 13:08:16:003,-0.6818,-0.4825,9.6655,0.0205,0.007,9.8066,-0.0022,-0.0731,0.0271,-16.48,11.88,-22.08,210.69,7.3,2.28
11423,51.650925,-2.438751,69,27.56,12,210.2,13 / 24,1142323,2019-08-16 13:08:16:103,0.3025,-0.035,10.3626,-0.0043,-0.0175,9.8066,0.0127,0.043,0.0069,-16.46,11.03,-22.53,208.1,7.43,2.25
11424,51.650925,-2.438751,69,27.56,12,210.2,13 / 24,1142422,2019-08-16 13:08:16:202,-0.1262,-0.3695,11.9199,-0.0098,-0.0458,9.8065,-0.0139,0.0505,0.0111,-16.57,11.52,-22.2,208.1,7.43,2.25
11425,51.650925,-2.438751,69,27.56,12,210.2,13 / 24,1142523,2019-08-16 13:08:16:303,0.1709,0.2922,11.6501,-0.0196,-0.0502,9.8065,0.0138,-0.0145,0.0495,-16.57,11.52,-22.2,208.1,7.43,2.25
11426,51.650925,-2.438751,69,27.56,12,210.2,13 / 24,1142623,2019-08-16 13:08:16:403,0.7993,0.1016,9.2061,-0.0243,0.0121,9.8066,0.0532,0.0335,0.0154,-16.37,11.38,-22.41,208.66,7.19,2.05
11427,51.650925,-2.438751,69,27.56,12,210.2,13 / 24,1142723,2019-08-16 13:08:16:503,-0.0595,0.4426,12.0403,-0.0458,0.039,9.8065,0.0532,0.0335,0.0154,-17.14,11.27,-21.89,207.18,7.06,2.38
11428,51.650738,-2.438968,69,27.2,13,211.6,13 / 24,1142823,2019-08-16 13:08:16:603,1.4666,0.03,6.328,-0.0052,-0.0127,9.8066,-0.015,-0.0411,0.0388,-16.77,11.66,-21.97,207.18,7.06,2.38
11429,51.650738,-2.438968,69,27.2,13,211.6,13 / 24,1142923,2019-08-16 13:08:16:703,0.8983,-0.1668,10.8283,0.0115,0.0267,9.8066,-0.0064,0.0462,0.0602,-17.06,11.57,-21.8,209.44,7.05,2.38
11430,51.650738,-2.438968,69,27.2,13,211.6,13 / 24,1143023,2019-08-16 13:08:16:803,0.5451,-0.2273,9.0706,-0.0009,0.0326,9.8066,0.0766,-0.0337,0.0122,-17.06,11.57,-21.8,209.44,7.05,2.38
11431,51.650738,-2.438968,69,27.2,13,211.6,13 / 24,1143124,2019-08-16 13:08:16:904,0.1961,-0.0622,10.8767,0.0001,0.0236,9.8066,-0.0001,-0.0251,0.0314,-16.28,11.61,-22.37,210.53,7.13,2.55
11432,51.650738,-2.438968,69,27.2,13,211.6,13 / 24,1143224,2019-08-16 13:08:17:004,-0.3511,0.2227,9.8105,-0.0085,0.0311,9.8066,-0.0022,0.0132,0.041,-16.85,12.14,-21.65,210.53,7.13,2.55
11433,51.650738,-2.438968,69,27.2,13,211.6,13 / 24,1143323,2019-08-16 13:08:17:103,0.0774,-0.0289,9.5187,-0.0269,-0.0095,9.8066,0.0362,0.0175,-0.0006,-17.08,12.31,-21.37,209.32,7.18,2.73
11434,51.650738,-2.438968,69,27.2,13,211.6,13 / 24,1143423,2019-08-16 13:08:17:203,0.5483,0.0415,9.4878,-0.0537,-0.0221,9.8065,0.0362,0.0175,-0.0006,-17.08,12.96,-20.99,211.6,6.85,2.77
11435,51.650738,-2.438968,69,27.2,13,211.6,13 / 24,1143523,2019-08-16 13:08:17:303,-0.3769,-0.0617,8.9676,0.0101,0.0051,9.8066,-0.0373,0.0079,0.0197,-17.08,12.96,-20.99,211.6,6.85,2.77
11436,51.650738,-2.438968,69,27.2,13,211.6,13 / 24,1143623,2019-08-16 13:08:17:403,0.184,0.4276,9.3086,0.0476,0.0208,9.8065,-0.0256,-0.0571,0.0218,-15.98,13.64,-21.42,215.05,6.91,2.76
11437,51.650738,-2.438968,69,27.2,13,211.6,13 / 24,1143723,2019-08-16 13:08:17:503,0.6727,-0.0767,9.7751,0.0765,0.0164,9.8063,0.0255,0.0249,0.0197,-14.94,13.42,-22.28,214.04,7.33,2.59
11438,51.650528,-2.439142,68,26.99,13,210.0,13 / 24,1143823,2019-08-16 13:08:17:603,0.2723,0.403,10.675,-0.0225,0.0097,9.8066,-0.0054,0.0068,0.0239,-13.01,12.9,-23.76,214.04,7.33,2.59
11439,51.650528,-2.439142,68,26.99,13,210.0,13 / 24,1143923,2019-08-16 13:08:17:703,-0.3038,-0.0976,12.3173,-0.0193,-0.0171,9.8066,0.0351,0.0047,0.0261,-11.25,12.95,-24.61,219.85,7.26,2.71
11440,51.650528,-2.439142,68,26.99,13,210.0,13 / 24,1144023,2019-08-16 13:08:17:803,0.0132,-0.6562,11.0912,-0.0597,-0.0586,9.8063,0.0266,0.1016,0.0101,-11.25,12.95,-24.61,219.85,7.26,2.71
11441,51.650528,-2.439142,68,26.99,13,210.0,13 / 24,1144123,2019-08-16 13:08:17:903,0.6499,-0.3333,8.8027,-0.0496,-0.0203,9.8065,0.0266,0.1016,0.0101,-12.08,11.21,-25.07,213.36,6.77,2.67
11442,51.650528,-2.439142,68,26.99,13,210.0,13 / 24,1144223,2019-08-16 13:08:18:003,0.6548,-0.0127,8.4607,0.0225,0.0344,9.8066,-0.0086,-0.0017,0.0005,-12.04,10.06,-25.57,210.43,6.46,2.73
11443,51.650528,-2.439142,68,26.99,13,210.0,13 / 24,1144323,2019-08-16 13:08:18:103,0.5977,0.2732,7.7854,0.0956,0.0797,9.8059,0.0202,-0.1125,-0.0155,-17.05,8.89,-27.09,200.65,7.18,2.85
11444,51.650528,-2.439142,68,26.99,13,210.0,13 / 24,1144422,2019-08-16 13:08:18:202,0.0183,-0.2815,9.9846,0.0557,0.0257,9.8065,0.0181,-0.0198,0.0165,-17.05,8.89,-27.09,200.65,7.18,2.85
11445,51.650528,-2.439142,68,26.99,13,210.0,13 / 24,1144523,2019-08-16 13:08:18:303,0.1793,0.029,10.2096,0.0093,-0.04,9.8066,-0.064,0.0356,0.025,-19.98,9.27,-21.59,199.1,7.54,2.87
11446,51.650528,-2.439142,68,26.99,13,210.0,13 / 24,1144623,2019-08-16 13:08:18:403,-0.6797,0.2111,10.586,0.0034,-0.0836,9.8063,0.0276,0.0825,-0.0038,-19.0,9.5,-21.18,200.59,7.4,2.4
11447,51.650528,-2.439142,68,26.99,13,210.0,13 / 24,1144723,2019-08-16 13:08:18:503,-1.0579,-0.2112,11.6709,-0.1265,-0.0689,9.8056,0.017,0.0633,-0.0059,-19.0,9.5,-21.18,200.59,7.4,2.4
11448,51.650288,-2.439324,69,27.65,14,208.1,13 / 24,1144824,2019-08-16 13:08:18:604,-0.2207,0.1817,9.7967,-0.0325,-0.0386,9.8065,-0.0469,-0.0049,0.0239,-18.43,10.02,-21.45,204.25,6.56,2.28
11449,51.650288,-2.439324,69,27.65,14,208.1,13 / 24,1144923,2019-08-16 13:08:18:703,0.4533,0.1449,7.9753,0.0294,0.004,9.8066,-0.0214,-0.0155,-0.0059,-18.27,9.53,-21.8,204.25,6.3,2.16
11450,51.650288,-2.439324,69,27.65,14,208.1,13 / 24,1145023,2019-08-16 13:08:18:803,-0.0376,0.1113,9.1617,0.0851,-0.0189,9.8063,-0.0214,-0.0155,-0.0059,-18.05,9.63,-21.95,204.39,6.71,1.85
11451,51.650288,-2.439324,69,27.65,14,208.1,13 / 24,1145123,2019-08-16 13:08:18:903,0.4696,0.0114,9.5508,0.0551,-0.0126,9.8065,-0.0341,-0.0092,0.0325,-18.05,9.63,-21.95,204.39,6.71,1.85
11452,51.650288,-2.439324,69,27.65,14,208.1,13 / 24,1145223,2019-08-16 13:08:19:003,-0.3228,-0.1752,10.4233,0.0162,-0.0156,9.8066,-0.0395,0.0143,0.009,-17.94,9.97,-21.88,204.48,6.97,1.65
11453,51.650288,-2.439324,69,27.65,14,208.1,13 / 24,1145323,2019-08-16 13:08:19:103,0.4276,-0.1662,10.6394,0.0227,-0.0499,9.8065,0.0202,-0.0145,0.0133,-17.94,9.97,-21.88,204.48,6.97,1.65
11454,51.650288,-2.439324,69,27.65,14,208.1,13 / 24,1145423,2019-08-16 13:08:19:203,0.1943,-0.9668,10.3422,0.0071,-0.0229,9.8066,-0.0171,-0.0422,0.025,-17.83,10.55,-21.7,207.02,6.97,1.32
11455,51.650288,-2.439324,69,27.65,14,208.1,13 / 24,1145523,2019-08-16 13:08:19:303,0.1251,-0.4323,8.4826,-0.0155,-0.0507,9.8065,0.0149,0.0036,0.0303,-18.0,10.65,-21.5,207.3,6.75,1.1
11456,51.650288,-2.439324,69,27.65,14,208.1,13 / 24,1145623,2019-08-16 13:08:19:403,-0.1139,0.1702,10.2556,-0.0176,-0.0221,9.8066,0.0138,-0.0603,0.0218,-18.0,10.65,-21.5,207.3,6.75,1.1
11457,51.650288,-2.439324,69,27.65,14,208.1,13 / 24,1145723,2019-08-16 13:08:19:503,-0.537,-0.191,9.9231,0.0221,0.0113,9.8066,0.0362,-0.0155,0.0239,-17.91,11.01,-21.4,207.59,6.61,1.03
11458,51.65002,-2.439561,69,29.14,14,208.2,13 / 24,1145823,2019-08-16 13:08:19:603,-0.3839,0.0283,9.2344,0.0151,0.0099,9.8066,0.0362,-0.0155,0.0239,-17.8,10.53,-21.73,207.59,6.61,1.03
11459,51.65002,-2.439561,69,29.14,14,208.2,13 / 24,1145924,2019-08-16 13:08:19:704,0.3319,0.3202,10.1311,-0.0254,0.0228,9.8066,0.0372,-0.0113,0.0218,-17.01,10.92,-22.17,208.55,6.71,1.04
11460,51.65002,-2.439561,69,29.14,14,208.2,13 / 24,1146024,2019-08-16 13:08:19:804,0.304,0.4708,10.2956,-0.0231,0.052,9.8065,0.0149,-0.0124,-0.0059,-16.97,11.23,-22.04,208.55,6.71,1.04
11461,51.65002,-2.439561,69,29.14,14,208.2,13 / 24,1146123,2019-08-16 13:08:19:903,0.2826,0.2604,10.1369,-0.0025,0.077,9.8063,0.0042,-0.0582,-0.0016,-16.97,11.23,-22.04,208.55,6.71,1.04
11462,51.65002,-2.439561,69,29.14,14,208.2,13 / 24,1146223,2019-08-16 13:08:20:003,0.1839,0.0317,9.9985,0.014,0.0059,9.8066,0.0095,-0.0134,-0.0006,-17.07,10.74,-22.21,208.1,6.92,1.45
11463,51.65002,-2.439561,69,29.14,14,208.2,13 / 24,1146323,2019-08-16 13:08:20:103,-0.1498,0.2196,11.1695,0.0098,0.0067,9.8066,0.0181,0.0814,-0.0197,-17.15,10.39,-22.31,205.74,6.99,1.45
11464,51.65002,-2.439561,69,29.14,14,208.2,13 / 24,1146423,2019-08-16 13:08:20:203,0.2385,-0.347,9.4953,0.0104,0.0033,9.8066,-0.0096,0.0036,0.0016,-17.15,10.39,-22.31,205.74,6.99,1.45
11465,51.65002,-2.439561,69,29.14,14,208.2,13 / 24,1146524,2019-08-16 13:08:20:304,0.4632,-0.0757,11.1422,0.0203,-0.0225,9.8066,-0.0096,0.0036,0.0016,-16.77,11.1,-22.26,208.19,7.03,1.28
11466,51.65002,-2.439561,69,29.14,14,208.2,13 / 24,1146623,2019-08-16 13:08:20:403,0.1941,-0.3445,10.6751,-0.0343,-0.0151,9.8066,-0.032,0.059,0.0186,-17.47,10.99,-21.77,208.26,7.0,1.22
11467,51.65002,-2.439561,69,29.14,14,208.2,13 / 24,1146722,2019-08-16 13:08:20:502,-0.4137,-0.2613,9.6561,-0.0798,-0.0464,9.8062,0.033,0.0313,-0.0006,-17.47,10.99,-21.77,208.26,7.0,1.22
11468,51.649796,-2.439715,68,28.53,14,207.0,13 / 24,1146823,2019-08-16 13:08:20:603,-0.6233,-0.043,9.221,-0.0173,-0.0107,9.8066,-0.0501,0.0036,0.0303,-17.07,10.74,-22.21,208.51,6.46,1.2
11469,51.649796,-2.439715,68,28.53,14,207.0,13 / 24,1146923,2019-08-16 13:08:20:703,-0.5606,0.4625,9.8149,-0.0157,0.0091,9.8066,0.0543,0.0633,0.0165,-17.74,10.91,-21.6,208.51,6.46,1.2
11470,51.649796,-2.439715,68,28.53,14,207.0,13 / 24,1147023,2019-08-16 13:08:20:803,-0.1436,0.3517,9.9484,-0.0047,0.0329,9.8066,-0.0299,-0.0092,0.009,-17.57,11.4,-21.48,207.32,6.53,1.39
11471,51.649796,-2.439715,68,28.53,14,207.0,13 / 24,1147123,2019-08-16 13:08:20:903,0.3424,0.3804,10.6857,0.0215,0.0192,9.8066,-0.0128,0.0217,0.0111,-17.57,11.4,-21.48,207.32,6.53,1.39
11472,51.649796,-2.439715,68,28.53,14,207.0,13 / 24,1147223,2019-08-16 13:08:21:003,-0.0955,0.2377,8.7558,0.0303,0.0089,9.8066,-0.0032,-0.007,0.0037,-17.65,11.1,-21.57,207.32,6.53,1.39
11473,51.649796,-2.439715,68,28.53,14,207.0,13 / 24,1147322,2019-08-16 13:08:21:102,0.3826,0.0745,9.6121,0.0497,-0.0026,9.8065,-0.0032,-0.007,0.0037,-17.47,10.99,-21.77,208.34,6.78,1.24
11474,51.649796,-2.439715,68,28.53,14,207.0,13 / 24,1147423,2019-08-16 13:08:21:203,0.6563,0.0555,9.6754,0.0323,0.0025,9.8066,-0.0224,-0.0869,0.0175,-17.47,10.99,-21.77,208.34,6.78,1.24
11475,51.649796,-2.439715,68,28.53,14,207.0,13 / 24,1147522,2019-08-16 13:08:21:302,0.6,0.2371,10.2659,-0.0287,0.0351,9.8065,0.0511,0.0548,0.025,-16.84,10.81,-22.35,208.34,6.96,1.16
11476,51.649796,-2.439715,68,28.53,14,207.0,13 / 24,1147623,2019-08-16 13:08:21:403,-0.245,-0.2005,10.7835,-0.0409,-0.0042,9.8066,-0.0405,0.0185,0.0197,-16.92,10.46,-22.46,205.8,6.9,1.42
11477,51.649796,-2.439715,68,28.53,14,207.0,13 / 24,1147722,2019-08-16 13:08:21:502,-0.0668,-0.4371,9.9229,-0.062,-0.0423,9.8064,-0.0139,0.0878,0.0143,-17.35,10.51,-22.1,205.8,6.9,1.42
11478,51.649616,-2.43982,69,27.07,16,204.8,Nov-22,1147822,2019-08-16 13:08:21:602,-0.466,-0.6097,9.353,-0.0583,-0.0596,9.8063,-0.0341,-0.0475,0.0239,-17.35,10.51,-22.1,205.8,6.9,1.42
11479,51.649616,-2.43982,69,27.07,16,204.8,Nov-22,1147923,2019-08-16 13:08:21:703,-0.3675,-0.1857,8.1471,0.0207,-0.002,9.8066,-0.0192,-0.0198,0.008,-17.15,10.39,-22.31,206.14,6.45,1.26
11480,51.649616,-2.43982,69,27.07,16,204.8,Nov-22,1148023,2019-08-16 13:08:21:803,-0.2926,0.3545,9.524,0.0343,0.0163,9.8066,-0.0192,-0.0198,0.008,-17.7,10.07,-22.03,205.05,6.55,1.19
11481,51.649616,-2.43982,69,27.07,16,204.8,Nov-22,1148123,2019-08-16 13:08:21:903,-0.2735,0.4266,8.9924,0.0472,0.0112,9.8065,0.034,0.026,-0.0048,-17.24,11.07,-21.91,208.42,6.83,1.14
11482,51.649616,-2.43982,69,27.07,16,204.8,Nov-22,1148223,2019-08-16 13:08:22:003,0.1478,0.3986,10.0428,0.0053,-0.02,9.8066,-0.0512,-0.0454,0.0197,-17.24,11.07,-21.91,208.42,6.83,1.14
11483,51.649616,-2.43982,69,27.07,16,204.8,Nov-22,1148323,2019-08-16 13:08:22:103,0.2347,-0.3572,9.9982,0.0206,-0.0373,9.8066,0.034,0.0335,0.0048,-17.56,10.64,-21.88,207.46,6.83,0.88
11484,51.649616,-2.43982,69,27.07,16,204.8,Nov-22,1148422,2019-08-16 13:08:22:202,-0.2657,-0.0035,10.2797,-0.0259,-0.0169,9.8066,-0.0139,0.0207,-0.0006,-17.27,10.87,-21.99,208.69,6.7,0.9
11485,51.649616,-2.43982,69,27.07,16,204.8,Nov-22,1148524,2019-08-16 13:08:22:304,0.3415,0.1079,9.3313,-0.0167,-0.0382,9.8066,-0.0448,0.026,0.0239,-17.07,10.74,-22.21,208.69,6.7,0.9
11486,51.649616,-2.43982,69,27.07,16,204.8,Nov-22,1148623,2019-08-16 13:08:22:403,0.6477,-0.332,10.2175,0.0112,-0.0557,9.8065,0.0394,-0.007,-0.0219,-17.35,10.51,-22.1,209.02,6.6,0.58
11487,51.649616,-2.43982,69,27.07,16,204.8,Nov-22,1148723,2019-08-16 13:08:22:503,0.9009,-0.3407,8.5606,0.0287,0.0174,9.8066,-0.0235,-0.0624,0.025,-17.35,10.51,-22.1,209.02,6.6,0.58
11488,51.649338,-2.439983,68,28.47,14,202.8,Nov-24,1148823,2019-08-16 13:08:22:603,0.0163,-0.1942,8.6997,0.0269,0.0096,9.8066,-0.0235,-0.0624,0.025,-17.23,10.03,-22.42,206.63,6.8,0.59
11489,51.649338,-2.439983,68,28.47,14,202.8,Nov-24,1148923,2019-08-16 13:08:22:703,-0.2954,-0.0871,10.0055,0.045,0.0012,9.8065,0.0181,0.0441,0.0016,-17.21,10.22,-22.35,206.63,7.03,0.47
11490,51.649338,-2.439983,68,28.47,14,202.8,Nov-24,1149023,2019-08-16 13:08:22:803,-0.1464,-0.065,9.5114,0.0076,-0.0105,9.8066,0.017,0.0036,0.0218,-17.21,10.22,-22.35,206.63,7.03,0.47
11491,51.649338,-2.439983,68,28.47,14,202.8,Nov-24,1149123,2019-08-16 13:08:22:903,-0.5684,0.0445,9.4677,-0.0146,0.0047,9.8066,-0.0043,0.0473,0.0005,-17.24,11.07,-21.91,208.89,6.97,0.54
