,GPS LATITUDE (degrees),GPS LONGITUDE (degrees), GPS ALTITUDE (m),GPS SPEED (Kmh),GPS ACCURACY (m),GPS ORIENTATION (Â°), SATELLITES IN RANGE, TIME SINCE START (ms), DATE (YYYY-MO-DD HH-MI-SS_SSS),ACCELEROMETER X (m/s²) , ACCELEROMETER Y (m/s²), ACCELEROMETER Z (m/s²), GRAVITY X (m/s²), GRAVITY Y (m/s²), GRAVITY Z (m/s²), GYROSCOPE Yaw (rad/s), GYROSCOPE Pitch (rad/s), GYROSCOPE Roll (rad/s)
22238,46.74882,-1.164419,113.68,31.82,8.576,341.6,0 / 24,1195340,2019-08-12 13:39:40:776,-2.3994,0.2791,10.2327,-2.1765,-0.1499,9.5609,-0.0002,-0.0102,0.0119
22239,46.74882,-1.164419,113.68,31.82,8.576,341.6,0 / 24,1195341,2019-08-12 13:39:40:777,-2.3994,0.2791,10.2327,-2.1765,-0.1499,9.5609,-0.0002,-0.0102,0.0119
22240,46.74882,-1.164419,113.68,31.82,8.576,341.6,0 / 24,1195341,2019-08-12 13:39:40:777,-2.3994,0.2791,10.2327,-2.1765,-0.1499,9.5609,-0.0002,-0.0102,0.0119
22241,46.74882,-1.164419,113.68,31.82,8.576,341.6,0 / 24,1195342,2019-08-12 13:39:40:778,-2.3994,0.2791,10.2327,-2.1765,-0.1499,9.5609,-0.0002,-0.0102,0.0119
22242,46.74882,-1.164419,113.68,31.82,8.576,341.6,0 / 24,1195342,2019-08-12 13:39:40:778,-2.3994,0.2791,10.2327,-2.1765,-0.1499,9.5609,-0.0002,-0.0102,0.0119
22243,46.74882,-1.164419,113.68,31.82,8.576,341.6,0 / 24,1195343,2019-08-12 13:39:40:779,-2.3994,0.2791,10.2327,-2.1765,-0.1499,9.5609,-0.0002,-0.0102,0.0119
22244,46.74882,-1.164419,113.68,31.82,8.576,341.6,0 / 24,1195343,2019-08-12 13:39:40:779,-2.3994,0.2791,10.2327,-2.1765,-0.1499,9.5609,-0.0002,-0.0102,0.0119
22245,46.74882,-1.164419,113.68,31.82,8.576,341.6,0 / 24,1195344,2019-08-12 13:39:40:780,-2.3994,0.2791,10.2327,-2.1765,-0.1499,9.5609,-0.0002,-0.0102,0.0119
22246,46.74882,-1.164419,113.68,31.82,8.576,341.6,0 / 24,1195345,2019-08-12 13:39:40:781,-2.3994,0.2791,10.2327,-2.1765,-0.1499,9.5609,-0.0002,-0.0102,0.0119
22247,46.74882,-1.164419,113.68,31.82,8.576,341.6,0 / 24,1195349,2019-08-12 13:39:40:785,-2.3994,0.2791,10.2327,-2.1765,-0.1499,9.5609,-0.0002,-0.0102,0.0119
22248,46.74882,-1.164419,113.68,31.82,8.576,341.6,0 / 24,1195449,2019-08-12 13:39:40:885,-2.3994,0.2791,10.2327,-2.1765,-0.1499,9.5609,-0.0002,-0.0102,0.0119
22249,46.74882,-1.164419,113.68,31.82,8.576,341.6,Dec-24,1195761,2019-08-12 13:39:41:197,-2.3994,0.2791,10.2327,-2.1765,-0.1499,9.5609,-0.0002,-0.0102,0.0119
22250,46.74882,-1.164419,113.68,31.82,8.576,341.6,Dec-24,1195762,2019-08-12 13:39:41:198,-2.3994,0.2791,10.2327,-2.1765,-0.1499,9.5609,-0.0002,-0.0102,0.0119
22251,46.74882,-1.164419,113.68,31.82,8.576,341.6,Dec-24,1195763,2019-08-12 13:39:41:199,-2.3994,0.2791,10.2327,-2.1765,-0.1499,9.5609,-0.0002,-0.0102,0.0119
22252,46.74882,-1.164419,113.68,31.82,8.576,341.6,Dec-24,1195763,2019-08-12 13:39:41:199,-2.3994,0.2791,10.2327,-2.1765,-0.1499,9.5609,-0.0002,-0.0102,0.0119
22253,46.74882,-1.164419,113.68,31.82,8.576,341.6,Dec-24,1195763,2019-08-12 13:39:41:199,-2.3994,0.2791,10.2327,-2.1765,-0.1499,9.5609,-0.0002,-0.0102,0.0119
22254,46.74882,-1.164419,113.68,31.82,8.576,341.6,Dec-24,1195764,2019-08-12 13:39:41:200,-2.3994,0.2791,10.2327,-2.1765,-0.1499,9.5609,-0.0002,-0.0102,0.0119
22255,46.74882,-1.164419,113.68,31.82,8.576,341.6,Dec-24,1195764,2019-08-12 13:39:41:200,-2.3994,0.2791,10.2327,-2.1765,-0.1499,9.5609,-0.0002,-0.0102,0.0119
22256,46.74882,-1.164419,113.68,31.82,8.576,341.6,Dec-24,1195765,2019-08-12 13:39:41:201,-2.3994,0.2791,10.2327,-2.1765,-0.1499,9.5609,-0.0002,-0.0102,0.0119
22257,46.74882,-1.164419,113.68,31.82,8.576,341.6,Dec-24,1195806,2019-08-12 13:39:41:242,-2.3994,0.2791,10.2327,-2.1765,-0.1499,9.5609,-0.0002,-0.0102,0.0119
22258,46.74882,-1.164419,113.68,31.82,8.576,341.6,Dec-24,1196219,2019-08-12 13:39:41:655,-2.3994,0.2791,10.2327,-2.1765,-0.1499,9.5609,-0.0002,-0.0102,0.0119
22259,46.74882,-1.164419,113.68,31.82,8.576,341.6,Dec-24,1196220,2019-08-12 13:39:41:656,-2.3994,0.2791,10.2327,-2.1765,-0.1499,9.5609,-0.0002,-0.0102,0.0119
22260,46.74882,-1.164419,113.68,31.82,8.576,341.6,Dec-24,1196220,2019-08-12 13:39:41:656,-2.3994,0.2791,10.2327,-2.1765,-0.1499,9.5609,-0.0002,-0.0102,0.0119
22261,46.74882,-1.164419,113.68,31.82,8.576,341.6,Dec-24,1196221,2019-08-12 13:39:41:657,-2.3994,0.2791,10.2327,-2.1765,-0.1499,9.5609,-0.0002,-0.0102,0.0119
22262,46.74882,-1.164419,113.68,31.82,8.576,341.6,Dec-24,1196221,2019-08-12 13:39:41:657,-2.3994,0.2791,10.2327,-2.1765,-0.1499,9.5609,-0.0002,-0.0102,0.0119
22263,46.74882,-1.164419,113.68,31.82,8.576,341.6,Dec-24,1196222,2019-08-12 13:39:41:658,-2.3994,0.2791,10.2327,-2.1765,-0.1499,9.5609,-0.0002,-0.0102,0.0119
22264,46.74882,-1.164419,113.68,31.82,8.576,341.6,Dec-24,1196222,2019-08-12 13:39:41:658,-2.3994,0.2791,10.2327,-2.1765,-0.1499,9.5609,-0.0002,-0.0102,0.0119
22265,46.74882,-1.164419,113.68,31.82,8.576,341.6,Dec-24,1196224,2019-08-12 13:39:41:660,-2.3994,0.2791,10.2327,-2.1765,-0.1499,9.5609,-0.0002,-0.0102,0.0119
22266,46.74882,-1.164419,113.68,31.82,8.576,341.6,Dec-24,1196224,2019-08-12 13:39:41:660,-2.3994,0.2791,10.2327,-2.1765,-0.1499,9.5609,-0.0002,-0.0102,0.0119
22267,46.75129,-1.165653,116.77,32.68,7.504,337.2,0 / 24,1196259,2019-08-12 13:39:41:695,-2.3994,0.2791,10.2327,-2.1765,-0.1499,9.5609,-0.0002,-0.0102,0.0119
22268,46.75129,-1.165653,116.77,32.68,7.504,337.2,0 / 24,1196358,2019-08-12 13:39:41:794,-2.3994,0.2791,10.2327,-2.1765,-0.1499,9.5609,-0.0002,-0.0102,0.0119
22269,46.75129,-1.165653,116.77,32.68,7.504,337.2,0 / 24,1196676,2019-08-12 13:39:42:112,-2.3994,0.2791,10.2327,-2.1765,-0.1499,9.5609,-0.0002,-0.0102,0.0119
22270,46.75129,-1.165653,116.77,32.68,7.504,337.2,0 / 24,1196676,2019-08-12 13:39:42:112,-2.3994,0.2791,10.2327,-2.1765,-0.1499,9.5609,-0.0002,-0.0102,0.0119
22271,46.75129,-1.165653,116.77,32.68,7.504,337.2,0 / 24,1196677,2019-08-12 13:39:42:113,-2.3994,0.2791,10.2327,-2.1765,-0.1499,9.5609,-0.0002,-0.0102,0.0119
22272,46.75129,-1.165653,116.77,32.68,7.504,337.2,0 / 24,1196677,2019-08-12 13:39:42:113,-2.3994,0.2791,10.2327,-2.1765,-0.1499,9.5609,-0.0002,-0.0102,0.0119
22273,46.75129,-1.165653,116.77,32.68,7.504,337.2,0 / 24,1196678,2019-08-12 13:39:42:114,-2.3994,0.2791,10.2327,-2.1765,-0.1499,9.5609,-0.0002,-0.0102,0.0119
22274,46.75129,-1.165653,116.77,32.68,7.504,337.2,0 / 24,1196678,2019-08-12 13:39:42:114,-2.3994,0.2791,10.2327,-2.1765,-0.1499,9.5609,-0.0002,-0.0102,0.0119
22275,46.75129,-1.165653,116.77,32.68,7.504,337.2,0 / 24,1196679,2019-08-12 13:39:42:115,-2.3994,0.2791,10.2327,-2.1765,-0.1499,9.5609,-0.0002,-0.0102,0.0119
22276,46.75129,-1.165653,116.77,32.68,7.504,337.2,0 / 24,1196679,2019-08-12 13:39:42:115,-2.3994,0.2791,10.2327,-2.1765,-0.1499,9.5609,-0.0002,-0.0102,0.0119
22277,46.75129,-1.165653,116.77,32.68,7.504,337.2,0 / 24,1196749,2019-08-12 13:39:42:185,-2.3994,0.2791,10.2327,-2.1765,-0.1499,9.5609,-0.0002,-0.0102,0.0119
22278,46.75129,-1.165653,116.77,32.68,7.504,337.2,0 / 24,1197154,2019-08-12 13:39:42:590,-2.3994,0.2791,10.2327,-2.1765,-0.1499,9.5609,-0.0002,-0.0102,0.0119
22279,46.75129,-1.165653,116.77,32.68,7.504,337.2,0 / 24,1197155,2019-08-12 13:39:42:591,-2.3994,0.2791,10.2327,-2.1765,-0.1499,9.5609,-0.0002,-0.0102,0.0119
22280,46.75129,-1.165653,116.77,32.68,7.504,337.2,0 / 24,1197155,2019-08-12 13:39:42:591,-2.3994,0.2791,10.2327,-2.1765,-0.1499,9.5609,-0.0002,-0.0102,0.0119
22281,46.75129,-1.165653,116.77,32.68,7.504,337.2,0 / 24,1197156,2019-08-12 13:39:42:592,-2.3994,0.2791,10.2327,-2.1765,-0.1499,9.5609,-0.0002,-0.0102,0.0119
22282,46.75129,-1.165653,116.77,32.68,7.504,337.2,0 / 24,1197156,2019-08-12 13:39:42:592,-2.3994,0.2791,10.2327,-2.1765,-0.1499,9.5609,-0.0002,-0.0102,0.0119
22283,46.75129,-1.165653,116.77,32.68,7.504,337.2,0 / 24,1197156,2019-08-12 13:39:42:592,-2.3994,0.2791,10.2327,-2.1765,-0.1499,9.5609,-0.0002,-0.0102,0.0119
22284,46.75129,-1.165653,116.77,32.68,7.504,337.2,0 / 24,1197157,2019-08-12 13:39:42:593,-2.3994,0.2791,10.2327,-2.1765,-0.1499,9.5609,-0.0002,-0.0102,0.0119
22285,46.75129,-1.165653,116.77,32.68,7.504,337.2,0 / 24,1197162,2019-08-12 13:39:42:598,-2.3994,0.2791,10.2327,-2.1765,-0.1499,9.5609,-0.0002,-0.0102,0.0119
22286,46.75129,-1.165653,116.77,32.68,7.504,337.2,0 / 24,1197166,2019-08-12 13:39:42:602,-2.3994,0.2791,10.2327,-2.1765,-0.1499,9.5609,-0.0002,-0.0102,0.0119
22287,46.75129,-1.165653,116.77,32.68,7.504,337.2,0 / 24,1197167,2019-08-12 13:39:42:603,-2.3994,0.2791,10.2327,-2.1765,-0.1499,9.5609,-0.0002,-0.0102,0.0119
22288,46.75129,-1.165653,116.77,32.68,7.504,337.2,0 / 24,1197167,2019-08-12 13:39:42:603,-2.3994,0.2791,10.2327,-2.1765,-0.1499,9.5609,-0.0002,-0.0102,0.0119
22289,46.75129,-1.165653,116.77,32.68,7.504,337.2,0 / 24,1197169,2019-08-12 13:39:42:605,-2.3994,0.2791,10.2327,-2.1765,-0.1499,9.5609,-0.0002,-0.0102,0.0119
22290,46.75129,-1.165653,116.77,32.68,7.504,337.2,0 / 24,1197169,2019-08-12 13:39:42:605,-2.3994,0.2791,10.2327,-2.1765,-0.1499,9.5609,-0.0002,-0.0102,0.0119
22291,46.75129,-1.165653,116.77,32.68,7.504,337.2,0 / 24,1197170,2019-08-12 13:39:42:606,-2.3994,0.2791,10.2327,-2.1765,-0.1499,9.5609,-0.0002,-0.0102,0.0119
22292,46.75129,-1.165653,116.77,32.68,7.504,337.2,0 / 24,1197171,2019-08-12 13:39:42:607,-2.3994,0.2791,10.2327,-2.1765,-0.1499,9.5609,-0.0002,-0.0102,0.0119
22293,46.75129,-1.165653,116.77,32.68,7.504,337.2,0 / 24,1197172,2019-08-12 13:39:42:608,-2.3994,0.2791,10.2327,-2.1765,-0.1499,9.5609,-0.0002,-0.0102,0.0119
22294,46.75129,-1.165653,116.77,32.68,7.504,337.2,0 / 24,1197173,2019-08-12 13:39:42:609,-2.3994,0.2791,10.2327,-2.1765,-0.1499,9.5609,-0.0002,-0.0102,0.0119
22295,46.75129,-1.165653,116.77,32.68,7.504,337.2,0 / 24,1197173,2019-08-12 13:39:42:609,-2.3994,0.2791,10.2327,-2.1765,-0.1499,9.5609,-0.0002,-0.0102,0.0119
22296,46.75129,-1.165653,116.77,32.68,7.504,337.2,0 / 24,1197174,2019-08-12 13:39:42:610,-2.3994,0.2791,10.2327,-2.1765,-0.1499,9.5609,-0.0002,-0.0102,0.0119
22297,46.75129,-1.165653,116.77,32.68,7.504,337.2,0 / 24,1197175,2019-08-12 13:39:42:611,-2.3994,0.2791,10.2327,-2.1765,-0.1499,9.5609,-0.0002,-0.0102,0.0119
22298,46.75129,-1.165653,116.77,32.68,7.504,337.2,0 / 24,1197175,2019-08-12 13:39:42:611,-2.3994,0.2791,10.2327,-2.1765,-0.1499,9.5609,-0.0002,-0.0102,0.0119
22299,46.75129,-1.165653,116.77,32.68,7.504,337.2,0 / 24,1197175,2019-08-12 13:39:42:611,-2.3994,0.2791,10.2327,-2.1765,-0.1499,9.5609,-0.0002,-0.0102,0.0119
22300,46.75129,-1.165653,116.77,32.68,7.504,337.2,0 / 24,1197179,2019-08-12 13:39:42:615,-2.3994,0.2791,10.2327,-2.1765,-0.1499,9.5609,-0.0002,-0.0102,0.0119
22301,46.75129,-1.165653,116.77,32.68,7.504,337.2,0 / 24,1197180,2019-08-12 13:39:42:616,-2.3994,0.2791,10.2327,-2.1765,-0.1499,9.5609,-0.0002,-0.0102,0.0119
22302,46.75129,-1.165653,116.77,32.68,7.504,337.2,0 / 24,1197180,2019-08-12 13:39:42:616,-2.3994,0.2791,10.2327,-2.1765,-0.1499,9.5609,-0.0002,-0.0102,0.0119
22303,46.75129,-1.165653,116.77,32.68,7.504,337.2,0 / 24,1197181,2019-08-12 13:39:42:617,-2.3994,0.2791,10.2327,-2.1765,-0.1499,9.5609,-0.0002,-0.0102,0.0119
22304,46.75129,-1.165653,116.77,32.68,7.504,337.2,0 / 24,1197181,2019-08-12 13:39:42:617,-2.3994,0.2791,10.2327,-2.1765,-0.1499,9.5609,-0.0002,-0.0102,0.0119
22305,46.75129,-1.165653,116.77,32.68,7.504,337.2,0 / 24,1197182,2019-08-12 13:39:42:618,-2.3994,0.2791,10.2327,-2.1765,-0.1499,9.5609,-0.0002,-0.0102,0.0119
22306,46.75129,-1.165653,116.77,32.68,7.504,337.2,0 / 24,1197182,2019-08-12 13:39:42:618,-2.3994,0.2791,10.2327,-2.1765,-0.1499,9.5609,-0.0002,-0.0102,0.0119
22307,46.75129,-1.165653,116.77,32.68,7.504,337.2,0 / 24,1197182,2019-08-12 13:39:42:618,-2.3994,0.2791,10.2327,-2.1765,-0.1499,9.5609,-0.0002,-0.0102,0.0119
22308,46.75129,-1.165653,116.77,32.68,7.504,337.2,0 / 24,1197183,2019-08-12 13:39:42:619,-2.3994,0.2791,10.2327,-2.1765,-0.1499,9.5609,-0.0002,-0.0102,0.0119
22309,46.75129,-1.165653,116.77,32.68,7.504,337.2,0 / 24,1197183,2019-08-12 13:39:42:619,-2.3994,0.2791,10.2327,-2.1765,-0.1499,9.5609,-0.0002,-0.0102,0.0119
22310,46.75129,-1.165653,116.77,32.68,7.504,337.2,0 / 24,1197183,2019-08-12 13:39:42:619,-2.3994,0.2791,10.2327,-2.1765,-0.1499,9.5609,-0.0002,-0.0102,0.0119
22311,46.75129,-1.165653,116.77,32.68,7.504,337.2,0 / 24,1197184,2019-08-12 13:39:42:620,-2.3994,0.2791,10.2327,-2.1765,-0.1499,9.5609,-0.0002,-0.0102,0.0119
22312,46.75129,-1.165653,116.77,32.68,7.504,337.2,0 / 24,1197184,2019-08-12 13:39:42:620,-2.3994,0.2791,10.2327,-2.1765,-0.1499,9.5609,-0.0002,-0.0102,0.0119
22313,46.75129,-1.165653,116.77,32.68,7.504,337.2,0 / 24,1197185,2019-08-12 13:39:42:621,-2.3994,0.2791,10.2327,-2.1765,-0.1499,9.5609,-0.0002,-0.0102,0.0119
22314,46.75129,-1.165653,116.77,32.68,7.504,337.2,0 / 24,1197185,2019-08-12 13:39:42:621,-2.3994,0.2791,10.2327,-2.1765,-0.1499,9.5609,-0.0002,-0.0102,0.0119
22315,46.75129,-1.165653,116.77,32.68,7.504,337.2,0 / 24,1197185,2019-08-12 13:39:42:621,-2.3994,0.2791,10.2327,-2.1765,-0.1499,9.5609,-0.0002,-0.0102,0.0119
22316,46.75129,-1.165653,116.77,32.68,7.504,337.2,0 / 24,1197186,2019-08-12 13:39:42:622,-2.3994,0.2791,10.2327,-2.1765,-0.1499,9.5609,-0.0002,-0.0102,0.0119
22317,46.75129,-1.165653,116.77,32.68,7.504,337.2,0 / 24,1197186,2019-08-12 13:39:42:622,-2.3994,0.2791,10.2327,-2.1765,-0.1499,9.5609,-0.0002,-0.0102,0.0119
22318,46.75129,-1.165653,116.77,32.68,7.504,337.2,0 / 24,1197186,2019-08-12 13:39:42:622,-2.3994,0.2791,10.2327,-2.1765,-0.1499,9.5609,-0.0002,-0.0102,0.0119
22319,46.75129,-1.165653,116.77,32.68,7.504,337.2,0 / 24,1197187,2019-08-12 13:39:42:623,-2.3994,0.2791,10.2327,-2.1765,-0.1499,9.5609,-0.0002,-0.0102,0.0119
22320,46.75129,-1.165653,116.77,32.68,7.504,337.2,0 / 24,1197187,2019-08-12 13:39:42:623,-2.3994,0.2791,10.2327,-2.1765,-0.1499,9.5609,-0.0002,-0.0102,0.0119
22321,46.75129,-1.165653,116.77,32.68,7.504,337.2,0 / 24,1197187,2019-08-12 13:39:42:623,-2.3994,0.2791,10.2327,-2.1765,-0.1499,9.5609,-0.0002,-0.0102,0.0119
22322,46.75129,-1.165653,116.77,32.68,7.504,337.2,0 / 24,1197188,2019-08-12 13:39:42:624,-2.3994,0.2791,10.2327,-2.1765,-0.1499,9.5609,-0.0002,-0.0102,0.0119
22323,46.75129,-1.165653,116.77,32.68,7.504,337.2,0 / 24,1197188,2019-08-12 13:39:42:624,-2.3994,0.2791,10.2327,-2.1765,-0.1499,9.5609,-0.0002,-0.0102,0.0119
22324,46.75129,-1.165653,116.77,32.68,7.504,337.2,0 / 24,1197189,2019-08-12 13:39:42:625,-2.3994,0.2791,10.2327,-2.1765,-0.1499,9.5609,-0.0002,-0.0102,0.0119
22325,46.75129,-1.165653,116.77,32.68,7.504,337.2,0 / 24,1197189,2019-08-12 13:39:42:625,-2.3994,0.2791,10.2327,-2.1765,-0.1499,9.5609,-0.0002,-0.0102,0.0119
22326,46.75129,-1.165653,116.77,32.68,7.504,337.2,0 / 24,1197189,2019-08-12 13:39:42:625,-2.3994,0.2791,10.2327,-2.1765,-0.1499,9.5609,-0.0002,-0.0102,0.0119
22327,46.75129,-1.165653,116.77,32.68,7.504,337.2,0 / 24,1197190,2019-08-12 13:39:42:626,-2.3994,0.2791,10.2327,-2.1765,-0.1499,9.5609,-0.0002,-0.0102,0.0119
22328,46.75129,-1.165653,116.77,32.68,7.504,337.2,0 / 24,1197190,2019-08-12 13:39:42:626,-2.3994,0.2791,10.2327,-2.1765,-0.1499,9.5609,-0.0002,-0.0102,0.0119
22329,46.75129,-1.165653,116.77,32.68,7.504,337.2,0 / 24,1197190,2019-08-12 13:39:42:626,-2.3994,0.2791,10.2327,-2.1765,-0.1499,9.5609,-0.0002,-0.0102,0.0119
22330,46.75129,-1.165653,116.77,32.68,7.504,337.2,0 / 24,1197191,2019-08-12 13:39:42:627,-2.3994,0.2791,10.2327,-2.1765,-0.1499,9.5609,-0.0002,-0.0102,0.0119
22331,46.75129,-1.165653,116.77,32.68,7.504,337.2,0 / 24,1197191,2019-08-12 13:39:42:627,-2.3994,0.2791,10.2327,-2.1765,-0.1499,9.5609,-0.0002,-0.0102,0.0119
22332,46.75129,-1.165653,116.77,32.68,7.504,337.2,0 / 24,1197192,2019-08-12 13:39:42:628,-2.3994,0.2791,10.2327,-2.1765,-0.1499,9.5609,-0.0002,-0.0102,0.0119
22333,46.75129,-1.165653,116.77,32.68,7.504,337.2,0 / 24,1197192,2019-08-12 13:39:42:628,-2.3994,0.2791,10.2327,-2.1765,-0.1499,9.5609,-0.0002,-0.0102,0.0119
22334,46.75129,-1.165653,116.77,32.68,7.504,337.2,0 / 24,1197192,2019-08-12 13:39:42:628,-2.3994,0.2791,10.2327,-2.1765,-0.1499,9.5609,-0.0002,-0.0102,0.0119
22335,46.75129,-1.165653,116.77,32.68,7.504,337.2,0 / 24,1197193,2019-08-12 13:39:42:629,-2.3994,0.2791,10.2327,-2.1765,-0.1499,9.5609,-0.0002,-0.0102,0.0119
22336,46.75129,-1.165653,116.77,32.68,7.504,337.2,0 / 24,1197193,2019-08-12 13:39:42:629,-2.3994,0.2791,10.2327,-2.1765,-0.1499,9.5609,-0.0002,-0.0102,0.0119
22337,46.75129,-1.165653,116.77,32.68,7.504,337.2,0 / 24,1197195,2019-08-12 13:39:42:631,-2.3994,0.2791,10.2327,-2.1765,-0.1499,9.5609,-0.0002,-0.0102,0.0119
22338,46.75129,-1.165653,116.77,32.68,7.504,337.2,0 / 24,1197295,2019-08-12 13:39:42:731,-2.3994,0.2791,10.2327,-2.1765,-0.1499,9.5609,-0.0002,-0.0102,0.0119
22339,46.75129,-1.165653,116.77,32.68,7.504,337.2,0 / 24,1197601,2019-08-12 13:39:43:037,-2.3994,0.2791,10.2327,-2.1765,-0.1499,9.5609,-0.0002,-0.0102,0.0119
22340,46.75129,-1.165653,116.77,32.68,7.504,337.2,0 / 24,1197601,2019-08-12 13:39:43:037,-2.3994,0.2791,10.2327,-2.1765,-0.1499,9.5609,-0.0002,-0.0102,0.0119
22341,46.75129,-1.165653,116.77,32.68,7.504,337.2,0 / 24,1197602,2019-08-12 13:39:43:038,-2.3994,0.2791,10.2327,-2.1765,-0.1499,9.5609,-0.0002,-0.0102,0.0119
22342,46.75129,-1.165653,116.77,32.68,7.504,337.2,18 / 24,1197602,2019-08-12 13:39:43:038,-2.3994,0.2791,10.2327,-2.1765,-0.1499,9.5609,-0.0002,-0.0102,0.0119
22343,46.75129,-1.165653,116.77,32.68,7.504,337.2,18 / 24,1197603,2019-08-12 13:39:43:039,-2.3994,0.2791,10.2327,-2.1765,-0.1499,9.5609,-0.0002,-0.0102,0.0119
22344,46.75129,-1.165653,116.77,32.68,7.504,337.2,18 / 24,1197603,2019-08-12 13:39:43:039,-2.3994,0.2791,10.2327,-2.1765,-0.1499,9.5609,-0.0002,-0.0102,0.0119
22345,46.75129,-1.165653,116.77,32.68,7.504,337.2,18 / 24,1197603,2019-08-12 13:39:43:039,-2.3994,0.2791,10.2327,-2.1765,-0.1499,9.5609,-0.0002,-0.0102,0.0119
22346,46.75129,-1.165653,116.77,32.68,7.504,337.2,18 / 24,1197604,2019-08-12 13:39:43:040,-2.3994,0.2791,10.2327,-2.1765,-0.1499,9.5609,-0.0002,-0.0102,0.0119
22347,46.75129,-1.165653,116.77,32.68,7.504,337.2,18 / 24,1197647,2019-08-12 13:39:43:083,-2.3994,0.2791,10.2327,-2.1765,-0.1499,9.5609,-0.0002,-0.0102,0.0119
22348,46.75129,-1.165653,116.77,32.68,7.504,337.2,18 / 24,1197860,2019-08-12 13:39:43:296,-2.3994,0.2791,10.2327,-2.1765,-0.1499,9.5609,-0.0002,-0.0102,0.0119
22349,46.75129,-1.165653,116.77,32.68,7.504,337.2,18 / 24,1197861,2019-08-12 13:39:43:297,-2.3994,0.2791,10.2327,-2.1765,-0.1499,9.5609,-0.0002,-0.0102,0.0119
22350,46.75129,-1.165653,116.77,32.68,7.504,337.2,18 / 24,1197947,2019-08-12 13:39:43:383,-2.3994,0.2791,10.2327,-2.1765,-0.1499,9.5609,-0.0002,-0.0102,0.0119
22351,46.75129,-1.165653,116.77,32.68,7.504,337.2,18 / 24,1198046,2019-08-12 13:39:43:482,-2.3994,0.2791,10.2327,-2.1765,-0.1499,9.5609,-0.0002,-0.0102,0.0119
22352,46.75129,-1.165653,116.77,32.68,7.504,337.2,18 / 24,1198164,2019-08-12 13:39:43:600,-2.2348,-0.0244,9.6802,-1.8133,-0.0816,9.6372,-0.0045,-0.0049,0.0066
22353,46.75129,-1.165653,116.77,32.68,7.504,337.2,18 / 24,1198246,2019-08-12 13:39:43:682,-2.2348,-0.0244,9.6802,-1.8133,-0.0816,9.6372,-0.0045,-0.0049,0.0066
22354,46.75129,-1.165653,116.77,32.68,7.504,337.2,18 / 24,1198346,2019-08-12 13:39:43:782,-2.2348,-0.0244,9.6802,-1.8133,-0.0816,9.6372,-0.0045,-0.0049,0.0066
22355,46.75129,-1.165653,116.77,32.68,7.504,337.2,18 / 24,1198447,2019-08-12 13:39:43:883,-1.7469,-0.0777,9.7077,-1.8035,-0.0275,9.6394,0.0019,0.0057,0.0098
22356,46.75129,-1.165653,116.77,32.68,7.504,337.2,0 / 24,1198546,2019-08-12 13:39:43:982,-1.7092,-0.0801,9.1846,-1.8032,-0.0046,9.6394,-0.0013,0.0025,0.0109
22357,46.753654,-1.167288,114.02,34.05,12.864,334.0,0 / 24,1198647,2019-08-12 13:39:44:083,-1.6422,-0.0047,9.4384,-1.8128,0.0125,9.6376,0.0009,0.0036,0.0098
22358,46.753654,-1.167288,114.02,34.05,12.864,334.0,0 / 24,1198747,2019-08-12 13:39:44:183,-1.8768,0.1258,9.6179,-1.8279,0.0347,9.6347,-0.0002,-0.0028,0.0066
22359,46.753654,-1.167288,114.02,34.05,12.864,334.0,0 / 24,1198847,2019-08-12 13:39:44:283,-2.0181,0.0983,9.6796,-1.835,0.0437,9.6333,-0.0013,-0.006,0.0056
22360,46.753654,-1.167288,114.02,34.05,12.864,334.0,0 / 24,1198947,2019-08-12 13:39:44:383,-1.7781,0.0031,9.8274,-1.8263,0.0396,9.635,-0.0098,-0.0145,0.0056
22361,46.753654,-1.167288,114.02,34.05,12.864,334.0,0 / 24,1199046,2019-08-12 13:39:44:482,-2.1492,0.3305,9.8274,-1.8453,0.0453,9.6314,0.0019,-0.0134,0.0088
22362,46.753654,-1.167288,114.02,34.05,12.864,334.0,0 / 24,1199146,2019-08-12 13:39:44:582,-2.0839,0.0426,9.4066,-1.8599,0.0562,9.6285,0.0041,0.0164,0.0109
22363,46.753654,-1.167288,114.02,34.05,12.864,334.0,0 / 24,1199248,2019-08-12 13:39:44:684,-2.1929,0.0642,9.7682,-1.8769,0.059,9.6252,-0.0023,0.0121,0.0077
22364,46.753654,-1.167288,114.02,34.05,12.864,334.0,0 / 24,1199347,2019-08-12 13:39:44:783,-2.1923,-0.0759,9.5174,-1.9238,0.0661,9.6159,-0.0013,-0.0007,0.0109
22365,46.753654,-1.167288,114.02,34.05,12.864,334.0,0 / 24,1199448,2019-08-12 13:39:44:884,-2.2162,0.2437,9.591,-1.9573,0.0995,9.6088,-0.0034,-0.0007,0.0162
22366,46.753654,-1.167288,114.02,34.05,12.864,334.0,0 / 24,1199547,2019-08-12 13:39:44:983,-2.1719,0.3257,9.6341,-1.9607,0.1134,9.608,-0.0045,-0.0102,0.0205
22367,46.753654,-1.167288,114.02,34.05,12.864,334.0,0 / 24,1199647,2019-08-12 13:39:45:083,-2.0325,0.3234,9.2576,-1.9681,0.1192,9.6064,-0.0055,0.0015,0.0194
22368,46.753654,-1.167288,114.02,34.05,12.864,334.0,0 / 24,1199747,2019-08-12 13:39:45:183,-2.1504,0.3389,9.6257,-2.0221,0.1807,9.5942,-0.0108,0.0025,0.0119
22369,46.753654,-1.167288,114.02,34.05,12.864,334.0,0 / 24,1199848,2019-08-12 13:39:45:284,-2.1755,0.4838,9.5748,-2.0588,0.1998,9.586,-0.0108,-0.0038,0.0109
22370,46.753654,-1.167288,114.02,34.05,12.864,334.0,0 / 24,1199947,2019-08-12 13:39:45:383,-2.3102,0.5119,9.5832,-2.101,0.2038,9.5768,-0.0045,-0.0017,0.0098
22371,46.753654,-1.167288,114.02,34.05,12.864,334.0,0 / 24,1200047,2019-08-12 13:39:45:483,-2.5239,0.2731,9.928,-2.1224,0.196,9.5722,-0.0108,0.0004,0.0077
22372,46.753654,-1.167288,114.02,34.05,12.864,334.0,0 / 24,1200146,2019-08-12 13:39:45:582,-2.3652,0.0923,9.7532,-2.1704,0.1695,9.562,0.0009,0.0047,0.0088
22373,46.753654,-1.167288,114.02,34.05,12.864,334.0,0 / 24,1200454,2019-08-12 13:39:45:890,-2.3652,0.0923,9.7532,-2.1704,0.1695,9.562,0.0009,0.0047,0.0088
22374,46.753654,-1.167288,114.02,34.05,12.864,334.0,0 / 24,1200456,2019-08-12 13:39:45:892,-2.3652,0.0923,9.7532,-2.1704,0.1695,9.562,0.0009,0.0047,0.0088
22375,46.753654,-1.167288,114.02,34.05,12.864,334.0,0 / 24,1200457,2019-08-12 13:39:45:893,-2.3652,0.0923,9.7532,-2.1704,0.1695,9.562,0.0009,0.0047,0.0088
22376,46.753654,-1.167288,114.02,34.05,12.864,334.0,0 / 24,1200457,2019-08-12 13:39:45:893,-2.3652,0.0923,9.7532,-2.1704,0.1695,9.562,0.0009,0.0047,0.0088
22377,46.753654,-1.167288,114.02,34.05,12.864,334.0,0 / 24,1200458,2019-08-12 13:39:45:894,-2.3652,0.0923,9.7532,-2.1704,0.1695,9.562,0.0009,0.0047,0.0088
22378,46.753654,-1.167288,114.02,34.05,12.864,334.0,0 / 24,1200458,2019-08-12 13:39:45:894,-2.3652,0.0923,9.7532,-2.1704,0.1695,9.562,0.0009,0.0047,0.0088
22379,46.753654,-1.167288,114.02,34.05,12.864,334.0,0 / 24,1200459,2019-08-12 13:39:45:895,-2.3652,0.0923,9.7532,-2.1704,0.1695,9.562,0.0009,0.0047,0.0088
22380,46.753654,-1.167288,114.02,34.05,12.864,334.0,0 / 24,1200459,2019-08-12 13:39:45:895,-2.3652,0.0923,9.7532,-2.1704,0.1695,9.562,0.0009,0.0047,0.0088
22381,46.753654,-1.167288,114.02,34.05,12.864,334.0,0 / 24,1200459,2019-08-12 13:39:45:895,-2.3652,0.0923,9.7532,-2.1704,0.1695,9.562,0.0009,0.0047,0.0088
22382,46.753654,-1.167288,114.02,34.05,12.864,334.0,0 / 24,1200460,2019-08-12 13:39:45:896,-2.3652,0.0923,9.7532,-2.1704,0.1695,9.562,0.0009,0.0047,0.0088
22383,46.753654,-1.167288,114.02,34.05,12.864,334.0,0 / 24,1200461,2019-08-12 13:39:45:897,-2.3652,0.0923,9.7532,-2.1704,0.1695,9.562,0.0009,0.0047,0.0088
22384,46.753654,-1.167288,114.02,34.05,12.864,334.0,0 / 24,1200462,2019-08-12 13:39:45:898,-2.3652,0.0923,9.7532,-2.1704,0.1695,9.562,0.0009,0.0047,0.0088
22385,46.753654,-1.167288,114.02,34.05,12.864,334.0,0 / 24,1200462,2019-08-12 13:39:45:898,-2.3652,0.0923,9.7532,-2.1704,0.1695,9.562,0.0009,0.0047,0.0088
22386,46.753654,-1.167288,114.02,34.05,12.864,334.0,0 / 24,1200463,2019-08-12 13:39:45:899,-2.3652,0.0923,9.7532,-2.1704,0.1695,9.562,0.0009,0.0047,0.0088
22387,46.753654,-1.167288,114.02,34.05,12.864,334.0,0 / 24,1200463,2019-08-12 13:39:45:899,-2.3652,0.0923,9.7532,-2.1704,0.1695,9.562,0.0009,0.0047,0.0088
22388,46.753654,-1.167288,114.02,34.05,12.864,334.0,0 / 24,1200464,2019-08-12 13:39:45:900,-2.3652,0.0923,9.7532,-2.1704,0.1695,9.562,0.0009,0.0047,0.0088
22389,46.753654,-1.167288,114.02,34.05,12.864,334.0,0 / 24,1200464,2019-08-12 13:39:45:900,-2.3652,0.0923,9.7532,-2.1704,0.1695,9.562,0.0009,0.0047,0.0088
22390,46.753654,-1.167288,114.02,34.05,12.864,334.0,0 / 24,1200464,2019-08-12 13:39:45:900,-2.3652,0.0923,9.7532,-2.1704,0.1695,9.562,0.0009,0.0047,0.0088
22391,46.753654,-1.167288,114.02,34.05,12.864,334.0,0 / 24,1200465,2019-08-12 13:39:45:901,-2.3652,0.0923,9.7532,-2.1704,0.1695,9.562,0.0009,0.0047,0.0088
22392,46.753654,-1.167288,114.02,34.05,12.864,334.0,0 / 24,1200465,2019-08-12 13:39:45:901,-2.3652,0.0923,9.7532,-2.1704,0.1695,9.562,0.0009,0.0047,0.0088
22393,46.753654,-1.167288,114.02,34.05,12.864,334.0,0 / 24,1200466,2019-08-12 13:39:45:902,-2.3652,0.0923,9.7532,-2.1704,0.1695,9.562,0.0009,0.0047,0.0088
22394,46.753654,-1.167288,114.02,34.05,12.864,334.0,0 / 24,1200466,2019-08-12 13:39:45:902,-2.3652,0.0923,9.7532,-2.1704,0.1695,9.562,0.0009,0.0047,0.0088
22395,46.753654,-1.167288,114.02,34.05,12.864,334.0,0 / 24,1200466,2019-08-12 13:39:45:902,-2.3652,0.0923,9.7532,-2.1704,0.1695,9.562,0.0009,0.0047,0.0088
22396,46.753654,-1.167288,114.02,34.05,12.864,334.0,0 / 24,1200467,2019-08-12 13:39:45:903,-2.3652,0.0923,9.7532,-2.1704,0.1695,9.562,0.0009,0.0047,0.0088
22397,46.753654,-1.167288,114.02,34.05,12.864,334.0,0 / 24,1200467,2019-08-12 13:39:45:903,-2.3652,0.0923,9.7532,-2.1704,0.1695,9.562,0.0009,0.0047,0.0088
22398,46.753654,-1.167288,114.02,34.05,12.864,334.0,0 / 24,1200469,2019-08-12 13:39:45:905,-2.3652,0.0923,9.7532,-2.1704,0.1695,9.562,0.0009,0.0047,0.0088
22399,46.753654,-1.167288,114.02,34.05,12.864,334.0,0 / 24,1200473,2019-08-12 13:39:45:909,-2.3652,0.0923,9.7532,-2.1704,0.1695,9.562,0.0009,0.0047,0.0088
22400,46.753654,-1.167288,114.02,34.05,12.864,334.0,0 / 24,1200476,2019-08-12 13:39:45:912,-2.3652,0.0923,9.7532,-2.1704,0.1695,9.562,-0.0045,-0.0028,0.0088
22401,46.753654,-1.167288,114.02,34.05,12.864,334.0,0 / 24,1200476,2019-08-12 13:39:45:912,-2.3652,0.0923,9.7532,-2.1704,0.1695,9.562,-0.0045,-0.0028,0.0088
22402,46.753654,-1.167288,114.02,34.05,12.864,334.0,0 / 24,1200477,2019-08-12 13:39:45:913,-2.3652,0.0923,9.9573,-2.1704,0.1695,9.562,-0.0045,-0.0028,0.0088
22403,46.753654,-1.167288,114.02,34.05,12.864,334.0,0 / 24,1200477,2019-08-12 13:39:45:913,-2.1049,-0.0304,9.9573,-2.1704,0.1695,9.562,-0.0045,-0.0028,0.0088
22404,46.753654,-1.167288,114.02,34.05,12.864,334.0,0 / 24,1200478,2019-08-12 13:39:45:914,-2.1049,-0.0304,9.9573,-2.1704,0.1695,9.562,-0.0045,-0.0028,0.0088
22405,46.753654,-1.167288,114.02,34.05,12.864,334.0,0 / 24,1200478,2019-08-12 13:39:45:914,-2.1049,-0.0304,9.9573,-2.1704,0.1695,9.562,-0.0045,-0.0028,0.0088
22406,46.753654,-1.167288,114.02,34.05,12.864,334.0,0 / 24,1200479,2019-08-12 13:39:45:915,-2.1049,-0.0304,9.9573,-2.1704,0.1695,9.562,-0.0045,-0.0028,0.0088
22407,46.753654,-1.167288,114.02,34.05,12.864,334.0,0 / 24,1200479,2019-08-12 13:39:45:915,-2.1049,-0.0304,9.9573,-2.1704,0.1695,9.562,-0.0045,-0.0028,0.0088
22408,46.753654,-1.167288,114.02,34.05,12.864,334.0,0 / 24,1200480,2019-08-12 13:39:45:916,-2.1049,-0.0304,9.9573,-2.1704,0.1695,9.562,-0.0045,-0.0028,0.0088
22409,46.753654,-1.167288,114.02,34.05,12.864,334.0,0 / 24,1200480,2019-08-12 13:39:45:916,-2.1049,-0.0304,9.9573,-2.1704,0.1695,9.562,-0.0045,-0.0028,0.0088
22410,46.753654,-1.167288,114.02,34.05,12.864,334.0,0 / 24,1200481,2019-08-12 13:39:45:917,-2.1049,-0.0304,9.9573,-2.1704,0.1695,9.562,-0.0045,-0.0028,0.0088
22411,46.753654,-1.167288,114.02,34.05,12.864,334.0,0 / 24,1200481,2019-08-12 13:39:45:917,-2.1049,-0.0304,9.9573,-2.1704,0.1695,9.562,-0.0045,-0.0028,0.0088
22412,46.753654,-1.167288,114.02,34.05,12.864,334.0,0 / 24,1200482,2019-08-12 13:39:45:918,-2.1049,-0.0304,9.9573,-2.1704,0.1695,9.562,-0.0045,-0.0028,0.0088
22413,46.753654,-1.167288,114.02,34.05,12.864,334.0,0 / 24,1200482,2019-08-12 13:39:45:918,-2.1049,-0.0304,9.9573,-2.1704,0.1695,9.562,-0.0045,-0.0028,0.0088
22414,46.753654,-1.167288,114.02,34.05,12.864,334.0,0 / 24,1200483,2019-08-12 13:39:45:919,-2.1049,-0.0304,9.9573,-2.1704,0.1695,9.562,-0.0045,-0.0028,0.0088
22415,46.753654,-1.167288,114.02,34.05,12.864,334.0,0 / 24,1200483,2019-08-12 13:39:45:919,-2.1049,-0.0304,9.9573,-2.1704,0.1695,9.562,-0.0045,-0.0028,0.0088
22416,46.753654,-1.167288,114.02,34.05,12.864,334.0,0 / 24,1200484,2019-08-12 13:39:45:920,-2.1049,-0.0304,9.9573,-2.1704,0.1695,9.562,-0.0045,-0.0028,0.0088
22417,46.753654,-1.167288,114.02,34.05,12.864,334.0,0 / 24,1200484,2019-08-12 13:39:45:920,-2.1049,-0.0304,9.9573,-2.1704,0.1695,9.562,-0.0045,-0.0028,0.0088
22418,46.753654,-1.167288,114.02,34.05,12.864,334.0,0 / 24,1200507,2019-08-12 13:39:45:943,-2.1049,-0.0304,9.9573,-2.1704,0.1695,9.562,0.0051,0.0015,0.0002
22419,46.753654,-1.167288,114.02,34.05,12.864,334.0,0 / 24,1200606,2019-08-12 13:39:46:042,-2.0301,-0.1058,9.5982,-2.1704,0.1695,9.562,0.0041,-0.0113,-0.0019
22420,46.753654,-1.167288,114.02,34.05,12.864,334.0,0 / 24,1200707,2019-08-12 13:39:46:143,-1.9307,-0.1639,9.8981,-1.9762,-0.0285,9.6054,-0.0013,-0.0124,-0.003
22421,46.753654,-1.167288,114.02,34.05,12.864,334.0,0 / 24,1200807,2019-08-12 13:39:46:243,-1.9516,-0.037,10.3039,-1.9761,-0.0821,9.6051,-0.0023,-0.0102,-0.003
22422,46.753654,-1.167288,114.02,34.05,12.864,334.0,0 / 24,1201133,2019-08-12 13:39:46:569,-1.9516,-0.037,10.3039,-1.9761,-0.0821,9.6051,-0.0023,-0.0102,-0.003
22423,46.753654,-1.167288,114.02,34.05,12.864,334.0,0 / 24,1201134,2019-08-12 13:39:46:570,-1.9516,-0.037,10.3039,-1.9761,-0.0821,9.6051,-0.0023,-0.0102,-0.003
22424,46.753654,-1.167288,114.02,34.05,12.864,334.0,0 / 24,1201135,2019-08-12 13:39:46:571,-1.9516,-0.037,10.3039,-1.9761,-0.0821,9.6051,-0.0023,-0.0102,-0.003
22425,46.753654,-1.167288,114.02,34.05,12.864,334.0,0 / 24,1201135,2019-08-12 13:39:46:571,-1.9516,-0.037,10.3039,-1.9761,-0.0821,9.6051,-0.0023,-0.0102,-0.003
22426,46.753654,-1.167288,114.02,34.05,12.864,334.0,0 / 24,1201135,2019-08-12 13:39:46:571,-1.9516,-0.037,10.3039,-1.9761,-0.0821,9.6051,-0.0023,-0.0102,-0.003
22427,46.753654,-1.167288,114.02,34.05,12.864,334.0,0 / 24,1201172,2019-08-12 13:39:46:608,-1.9516,-0.037,10.3039,-1.9761,-0.0821,9.6051,-0.0023,-0.0102,-0.003
22428,46.753654,-1.167288,114.02,34.05,12.864,334.0,0 / 24,1201272,2019-08-12 13:39:46:708,-1.9516,-0.037,10.3039,-1.9761,-0.0821,9.6051,-0.0023,-0.0102,-0.003
22429,46.753654,-1.167288,114.02,34.05,12.864,334.0,14 / 24,1201591,2019-08-12 13:39:47:027,-1.9516,-0.037,10.3039,-1.9761,-0.0821,9.6051,-0.0023,-0.0102,-0.003
22430,46.753654,-1.167288,114.02,34.05,12.864,334.0,14 / 24,1201592,2019-08-12 13:39:47:028,-1.9516,-0.037,10.3039,-1.9761,-0.0821,9.6051,-0.0023,-0.0102,-0.003
22431,46.753654,-1.167288,114.02,34.05,12.864,334.0,14 / 24,1201593,2019-08-12 13:39:47:029,-1.9516,-0.037,10.3039,-1.9761,-0.0821,9.6051,-0.0023,-0.0102,-0.003
22432,46.753654,-1.167288,114.02,34.05,12.864,334.0,14 / 24,1201593,2019-08-12 13:39:47:029,-1.9516,-0.037,10.3039,-1.9761,-0.0821,9.6051,-0.0023,-0.0102,-0.003
22433,46.753654,-1.167288,114.02,34.05,12.864,334.0,14 / 24,1201593,2019-08-12 13:39:47:029,-1.9516,-0.037,10.3039,-1.9761,-0.0821,9.6051,-0.0023,-0.0102,-0.003
22434,46.753654,-1.167288,114.02,34.05,12.864,334.0,14 / 24,1201594,2019-08-12 13:39:47:030,-1.9516,-0.037,10.3039,-1.9761,-0.0821,9.6051,-0.0023,-0.0102,-0.003
22435,46.753654,-1.167288,114.02,34.05,12.864,334.0,14 / 24,1201595,2019-08-12 13:39:47:031,-1.9516,-0.037,10.3039,-1.9761,-0.0821,9.6051,-0.0023,-0.0102,-0.003
22436,46.753654,-1.167288,114.02,34.05,12.864,334.0,14 / 24,1201595,2019-08-12 13:39:47:031,-1.9516,-0.037,10.3039,-1.9761,-0.0821,9.6051,-0.0023,-0.0102,-0.003
22437,46.753654,-1.167288,114.02,34.05,12.864,334.0,14 / 24,1201635,2019-08-12 13:39:47:071,-1.9516,-0.037,10.3039,-1.9761,-0.0821,9.6051,-0.0023,-0.0102,-0.003
22438,46.753654,-1.167288,114.02,34.05,12.864,334.0,14 / 24,1201735,2019-08-12 13:39:47:171,-1.9516,-0.037,10.3039,-1.9761,-0.0821,9.6051,-0.0023,-0.0102,-0.003
22439,46.753654,-1.167288,114.02,34.05,12.864,334.0,14 / 24,1202046,2019-08-12 13:39:47:482,-1.9516,-0.037,10.3039,-1.9761,-0.0821,9.6051,-0.0023,-0.0102,-0.003
22440,46.753654,-1.167288,114.02,34.05,12.864,334.0,14 / 24,1202047,2019-08-12 13:39:47:483,-1.9516,-0.037,10.3039,-1.9761,-0.0821,9.6051,-0.0023,-0.0102,-0.003
22441,46.753654,-1.167288,114.02,34.05,12.864,334.0,14 / 24,1202047,2019-08-12 13:39:47:483,-1.9516,-0.037,10.3039,-1.9761,-0.0821,9.6051,-0.0023,-0.0102,-0.003
22442,46.753654,-1.167288,114.02,34.05,12.864,334.0,14 / 24,1202047,2019-08-12 13:39:47:483,-1.9516,-0.037,10.3039,-1.9761,-0.0821,9.6051,-0.0023,-0.0102,-0.003
22443,46.753654,-1.167288,114.02,34.05,12.864,334.0,14 / 24,1202076,2019-08-12 13:39:47:512,-1.9516,-0.037,10.3039,-1.9761,-0.0821,9.6051,-0.0023,-0.0102,-0.003
22444,46.753654,-1.167288,114.02,34.05,12.864,334.0,14 / 24,1202176,2019-08-12 13:39:47:612,-1.9516,-0.037,10.3039,-1.9761,-0.0821,9.6051,-0.0023,-0.0102,-0.003
22445,46.753654,-1.167288,114.02,34.05,12.864,334.0,0 / 24,1202552,2019-08-12 13:39:47:988,-1.9516,-0.037,10.3039,-1.9761,-0.0821,9.6051,-0.0023,-0.0102,-0.003
22446,46.753654,-1.167288,114.02,34.05,12.864,334.0,0 / 24,1202553,2019-08-12 13:39:47:989,-1.9516,-0.037,10.3039,-1.9761,-0.0821,9.6051,-0.0023,-0.0102,-0.003
22447,46.753654,-1.167288,114.02,34.05,12.864,334.0,0 / 24,1202553,2019-08-12 13:39:47:989,-1.9516,-0.037,10.3039,-1.9761,-0.0821,9.6051,-0.0023,-0.0102,-0.003
22448,46.75624,-1.169219,117.07,35.58,11.792,331.4,0 / 24,1202575,2019-08-12 13:39:48:011,-1.9516,-0.037,10.3039,-1.9761,-0.0821,9.6051,-0.0023,-0.0102,-0.003
22449,46.75624,-1.169219,117.07,35.58,11.792,331.4,0 / 24,1202675,2019-08-12 13:39:48:111,-1.9516,-0.037,10.3039,-1.9761,-0.0821,9.6051,-0.0023,-0.0102,-0.003
22450,46.75624,-1.169219,117.07,35.58,11.792,331.4,0 / 24,1202776,2019-08-12 13:39:48:212,-2.1103,-0.18,10.0549,-2.1914,-0.3456,9.5524,-0.0045,0.0004,-0.003
22451,46.75624,-1.169219,117.07,35.58,11.792,331.4,0 / 24,1203126,2019-08-12 13:39:48:562,-2.1103,-0.18,10.0549,-2.1842,-0.3424,9.5542,0.003,0.0057,0.0002
22452,46.75624,-1.169219,117.07,35.58,11.792,331.4,0 / 24,1203126,2019-08-12 13:39:48:562,-2.1103,-0.18,10.0549,-2.1842,-0.3424,9.5542,0.003,0.0057,0.0002
22453,46.75624,-1.169219,117.07,35.58,11.792,331.4,0 / 24,1203127,2019-08-12 13:39:48:563,-2.1103,-0.18,10.0549,-2.1842,-0.3424,9.5542,0.003,0.0057,0.0002
22454,46.75624,-1.169219,117.07,35.58,11.792,331.4,0 / 24,1203127,2019-08-12 13:39:48:563,-2.1103,-0.18,10.0549,-2.1842,-0.3424,9.5542,0.003,0.0057,0.0002
22455,46.75624,-1.169219,117.07,35.58,11.792,331.4,0 / 24,1203128,2019-08-12 13:39:48:564,-2.1103,-0.18,10.0549,-2.1842,-0.3424,9.5542,0.003,0.0057,0.0002
22456,46.75624,-1.169219,117.07,35.58,11.792,331.4,0 / 24,1203128,2019-08-12 13:39:48:564,-2.1103,-0.18,10.0549,-2.1842,-0.3424,9.5542,0.003,0.0057,0.0002
22457,46.75624,-1.169219,117.07,35.58,11.792,331.4,0 / 24,1203129,2019-08-12 13:39:48:565,-2.1103,-0.18,10.0549,-2.1842,-0.3424,9.5542,0.003,0.0057,0.0002
22458,46.75624,-1.169219,117.07,35.58,11.792,331.4,0 / 24,1203130,2019-08-12 13:39:48:566,-2.1103,-0.18,10.0549,-2.1842,-0.3424,9.5542,0.003,0.0057,0.0002
22459,46.75624,-1.169219,117.07,35.58,11.792,331.4,0 / 24,1203131,2019-08-12 13:39:48:567,-2.1103,-0.18,10.0549,-2.1842,-0.3424,9.5542,0.003,0.0057,0.0002
22460,46.75624,-1.169219,117.07,35.58,11.792,331.4,0 / 24,1203132,2019-08-12 13:39:48:568,-2.1103,-0.18,10.0549,-2.1842,-0.3424,9.5542,0.003,0.0057,0.0002
22461,46.75624,-1.169219,117.07,35.58,11.792,331.4,0 / 24,1203132,2019-08-12 13:39:48:568,-2.1103,-0.18,10.0549,-2.1842,-0.3424,9.5542,0.003,0.0057,0.0002
22462,46.75624,-1.169219,117.07,35.58,11.792,331.4,0 / 24,1203133,2019-08-12 13:39:48:569,-2.1103,-0.18,10.0549,-2.1842,-0.3424,9.5542,0.003,0.0057,0.0002
22463,46.75624,-1.169219,117.07,35.58,11.792,331.4,0 / 24,1203162,2019-08-12 13:39:48:598,-2.1103,-0.18,10.0549,-2.1842,-0.3424,9.5542,0.003,0.0057,0.0002
22464,46.75624,-1.169219,117.07,35.58,11.792,331.4,0 / 24,1203263,2019-08-12 13:39:48:699,-2.1103,-0.18,10.0549,-2.1842,-0.3424,9.5542,0.003,0.0057,0.0002
22465,46.75624,-1.169219,117.07,35.58,11.792,331.4,0 / 24,1203362,2019-08-12 13:39:48:798,-2.2964,-0.2824,9.4845,-2.1302,-0.1863,9.5707,0.0041,0.0036,0.0002
22466,46.75624,-1.169219,117.07,35.58,11.792,331.4,0 / 24,1203462,2019-08-12 13:39:48:898,-2.3365,0.0187,10.1812,-2.1185,-0.1843,9.5733,-0.0066,-0.0209,0.0013
22467,46.75624,-1.169219,117.07,35.58,11.792,331.4,0 / 24,1203562,2019-08-12 13:39:48:998,-2.3599,0.0085,10.0262,-2.0894,-0.1791,9.5798,-0.0023,-0.023,0.0034
22468,46.75624,-1.169219,117.07,35.58,11.792,331.4,0 / 24,1203662,2019-08-12 13:39:49:098,-2.0941,-0.0927,9.4665,-2.0839,-0.176,9.5811,0.0009,-0.0049,0.0066
22469,46.75624,-1.169219,117.07,35.58,11.792,331.4,0 / 24,1203762,2019-08-12 13:39:49:198,-2.239,-0.2453,9.1972,-2.076,-0.1553,9.5831,0.0062,0.0132,0.0077
22470,46.75624,-1.169219,117.07,35.58,11.792,331.4,0 / 24,1203862,2019-08-12 13:39:49:298,-2.0833,-0.0106,9.655,-2.08,-0.1554,9.5823,-0.0077,0.0025,0.0034
22471,46.75624,-1.169219,117.07,35.58,11.792,331.4,0 / 24,1203962,2019-08-12 13:39:49:398,-1.884,0.0025,9.7855,-2.082,-0.1474,9.582,-0.0023,0.0057,0.0034
22472,46.75624,-1.169219,117.07,35.58,11.792,331.4,0 / 24,1204062,2019-08-12 13:39:49:498,-2.0354,0.2138,9.7388,-2.0931,-0.1386,9.5797,-0.0045,-0.0007,0.0002
22473,46.75624,-1.169219,117.07,35.58,11.792,331.4,0 / 24,1204162,2019-08-12 13:39:49:598,-2.0396,-0.1537,9.737,-2.0939,-0.131,9.5796,-0.0055,-0.0028,-0.0019
22474,46.75624,-1.169219,117.07,35.58,11.792,331.4,0 / 24,1204263,2019-08-12 13:39:49:699,-2.1773,-0.2794,9.7472,-2.0841,-0.1404,9.5816,-0.0055,-0.0092,-0.004
22475,46.75624,-1.169219,117.07,35.58,11.792,331.4,0 / 24,1204362,2019-08-12 13:39:49:798,-2.3916,-0.4835,9.6766,-2.0766,-0.1489,9.5831,-0.0013,-0.007,-0.0051
22476,46.75624,-1.169219,117.07,35.58,11.792,331.4,0 / 24,1204463,2019-08-12 13:39:49:899,-2.4461,-0.3883,9.7221,-2.0774,-0.1941,9.5821,-0.0034,-0.0017,-0.0072
22477,46.75624,-1.169219,117.07,35.58,11.792,331.4,0 / 24,1204563,2019-08-12 13:39:49:999,-2.0857,-0.6002,8.9146,-2.0702,-0.2451,9.5825,-0.0013,0.0089,-0.0062
22478,46.75624,-1.169219,117.07,35.58,11.792,331.4,0 / 24,1204663,2019-08-12 13:39:50:099,-1.9846,-0.4368,9.5533,-2.072,-0.2542,9.5819,-0.0034,0.0047,-0.0072
22479,46.75624,-1.169219,117.07,35.58,11.792,331.4,0 / 24,1204764,2019-08-12 13:39:50:200,-1.9325,-0.6643,9.3665,-2.0661,-0.2684,9.5828,0.0073,-0.0007,-0.0083
22480,46.75624,-1.169219,117.07,35.58,11.792,331.4,0 / 24,1204863,2019-08-12 13:39:50:299,-1.9846,-0.4171,9.8292,-2.0671,-0.2777,9.5823,0.0019,0.0036,-0.0104
22481,46.75624,-1.169219,117.07,35.58,11.792,331.4,0 / 24,1204963,2019-08-12 13:39:50:399,-1.9948,-0.4877,10.4362,-2.0614,-0.3687,9.5805,-0.0055,-0.006,-0.0126
22482,46.75624,-1.169219,117.07,35.58,11.792,331.4,0 / 24,1205064,2019-08-12 13:39:50:500,-1.9038,-0.5871,10.1961,-2.0553,-0.3977,9.5806,-0.0013,0.0004,-0.0094
22483,46.75624,-1.169219,117.07,35.58,11.792,331.4,0 / 24,1205163,2019-08-12 13:39:50:599,-2.1809,-0.5948,9.9364,-2.0405,-0.4466,9.5816,0.0094,-0.0017,-0.0062
22484,46.75624,-1.169219,117.07,35.58,11.792,331.4,0 / 24,1205263,2019-08-12 13:39:50:699,-2.2832,-0.6822,9.2205,-2.0231,-0.4576,9.5848,0.0105,-0.007,-0.004
22485,46.75624,-1.169219,117.07,35.58,11.792,331.4,0 / 24,1205362,2019-08-12 13:39:50:798,-2.3012,-0.4518,9.7107,-2.0205,-0.4548,9.5855,0.0041,-0.0007,-0.003
22486,46.75624,-1.169219,117.07,35.58,11.792,331.4,0 / 24,1205463,2019-08-12 13:39:50:899,-2.0091,-0.4123,9.114,-2.02,-0.4522,9.5857,0.0019,0.0025,-0.0019
22487,46.75624,-1.169219,117.07,35.58,11.792,331.4,0 / 24,1205562,2019-08-12 13:39:50:998,-1.7457,-0.1884,10.0315,-2.0107,-0.4433,9.5881,0.0019,-0.0092,0.0002
22488,46.75624,-1.169219,117.07,35.58,11.792,331.4,0 / 24,1205662,2019-08-12 13:39:51:098,-1.8116,-0.2471,9.6389,-2.0072,-0.4356,9.5891,-0.0013,-0.0007,0.0013
22489,46.75624,-1.169219,117.07,35.58,11.792,331.4,0 / 24,1205763,2019-08-12 13:39:51:199,-1.8152,-0.2064,10.1219,-2.0009,-0.4198,9.5912,0.0062,-0.0102,0.0013
22490,46.75624,-1.169219,117.07,35.58,11.792,331.4,0 / 24,1205863,2019-08-12 13:39:51:299,-1.8948,-0.0741,9.5653,-1.9923,-0.4142,9.5932,-0.0045,-0.006,0.0013
22491,46.75624,-1.169219,117.07,35.58,11.792,331.4,0 / 24,1205962,2019-08-12 13:39:51:398,-1.7835,-0.1495,9.5539,-1.9894,-0.4012,9.5944,0.003,-0.0017,0.0034
22492,46.75624,-1.169219,117.07,35.58,11.792,331.4,0 / 24,1206062,2019-08-12 13:39:51:498,-2.054,-0.1459,9.9447,-1.9739,-0.3853,9.5982,0.0009,-0.007,0.0045
22493,46.75624,-1.169219,117.07,35.58,11.792,331.4,0 / 24,1206162,2019-08-12 13:39:51:598,-1.9564,-0.3045,9.3025,-1.9692,-0.3795,9.5994,0.0009,-0.0007,0.0056
22494,46.75624,-1.169219,117.07,35.58,11.792,331.4,0 / 24,1206262,2019-08-12 13:39:51:698,-1.7876,-0.0406,9.1229,-1.9747,-0.3625,9.5989,-0.0034,0.0153,0.0066
22495,46.75624,-1.169219,117.07,35.58,11.792,331.4,0 / 24,1206362,2019-08-12 13:39:51:798,-1.6296,-0.0992,9.0194,-1.9821,-0.3567,9.5976,-0.0055,0.0207,0.0045
22496,46.75624,-1.169219,117.07,35.58,11.792,331.4,0 / 24,1206462,2019-08-12 13:39:51:898,-1.6518,0.1773,9.8819,-1.9697,-0.3477,9.6005,-0.0162,-0.0092,0.0034
22497,46.75624,-1.169219,117.07,35.58,11.792,331.4,0 / 24,1206563,2019-08-12 13:39:51:999,-1.881,0.2503,9.5641,-1.9562,-0.3437,9.6034,-0.013,-0.0177,0.0024
22498,46.75624,-1.169219,117.07,35.58,11.792,331.4,0 / 24,1206663,2019-08-12 13:39:52:099,-1.9133,-0.1381,10.5265,-1.9223,-0.333,9.6106,-0.0013,-0.0273,0.0024
22499,46.75624,-1.169219,117.07,35.58,11.792,331.4,0 / 24,1206762,2019-08-12 13:39:52:198,-1.9792,0.0684,9.7688,-1.9116,-0.3244,9.6131,-0.0023,-0.0028,0.0045
22500,46.75624,-1.169219,117.07,35.58,11.792,331.4,0 / 24,1206863,2019-08-12 13:39:52:299,-2.045,-0.3668,9.7215,-1.9258,-0.3026,9.6109,0.0168,0.0175,0.0088
22501,46.75624,-1.169219,117.07,35.58,11.792,331.4,0 / 24,1206964,2019-08-12 13:39:52:400,-2.0025,-0.2046,9.427,-1.9344,-0.2832,9.6098,0.0168,0.0121,0.0077
22502,46.75624,-1.169219,117.07,35.58,11.792,331.4,0 / 24,1207062,2019-08-12 13:39:52:498,-1.9433,-0.0777,8.8009,-1.9424,-0.2431,9.6093,-0.0023,0.0015,0.0056
22503,46.75624,-1.169219,117.07,35.58,11.792,331.4,0 / 24,1207163,2019-08-12 13:39:52:599,-1.9529,0.0492,9.3636,-1.9346,-0.2245,9.6113,-0.0108,-0.0209,0.0034
22504,46.75624,-1.169219,117.07,35.58,11.792,331.4,0 / 24,1207262,2019-08-12 13:39:52:698,-1.8774,0.1749,9.5497,-1.9262,-0.2108,9.6133,0.0051,0.0079,0.0066
22505,46.75624,-1.169219,117.07,35.58,11.792,331.4,0 / 24,1207362,2019-08-12 13:39:52:798,-1.9917,-0.013,9.7963,-1.9373,-0.2055,9.6112,-0.0045,0.0196,0.0056
22506,46.75624,-1.169219,117.07,35.58,11.792,331.4,0 / 24,1207463,2019-08-12 13:39:52:899,-1.9277,-0.0998,9.5976,-1.934,-0.1832,9.6123,-0.0023,-0.0156,0.0066
22507,46.75624,-1.169219,117.07,35.58,11.792,331.4,0 / 24,1207563,2019-08-12 13:39:52:999,-2.2814,-0.0801,10.0417,-1.9209,-0.1743,9.6151,0.0009,-0.0251,0.0056
22508,46.75624,-1.169219,117.07,35.58,11.792,331.4,0 / 24,1207663,2019-08-12 13:39:53:099,-2.0983,0.0971,9.1619,-1.9153,-0.1695,9.6163,-0.0077,0.0057,0.0024
22509,46.75624,-1.169219,117.07,35.58,11.792,331.4,0 / 24,1208046,2019-08-12 13:39:53:482,-2.1109,0.0648,9.2439,-1.9206,-0.1707,9.6152,-0.0108,0.01,0.0013
22510,46.75624,-1.169219,117.07,35.58,11.792,331.4,0 / 24,1208047,2019-08-12 13:39:53:483,-2.1109,0.0648,9.2439,-1.9206,-0.1707,9.6152,-0.0108,0.01,0.0013
22511,46.75624,-1.169219,117.07,35.58,11.792,331.4,0 / 24,1208047,2019-08-12 13:39:53:483,-2.1109,0.0648,9.2439,-1.9206,-0.1707,9.6152,-0.0108,0.01,0.0013
22512,46.75624,-1.169219,117.07,35.58,11.792,331.4,0 / 24,1208048,2019-08-12 13:39:53:484,-2.1109,0.0648,9.2439,-1.9206,-0.1707,9.6152,-0.0108,0.01,0.0013
22513,46.75624,-1.169219,117.07,35.58,11.792,331.4,0 / 24,1208048,2019-08-12 13:39:53:484,-2.1109,0.0648,9.2439,-1.9206,-0.1707,9.6152,-0.0108,0.01,0.0013
22514,46.75624,-1.169219,117.07,35.58,11.792,331.4,0 / 24,1208048,2019-08-12 13:39:53:484,-2.1109,0.0648,9.2439,-1.9206,-0.1707,9.6152,-0.0108,0.01,0.0013
22515,46.75624,-1.169219,117.07,35.58,11.792,331.4,0 / 24,1208049,2019-08-12 13:39:53:485,-2.1109,0.0648,9.2439,-1.9206,-0.1707,9.6152,-0.0108,0.01,0.0013
22516,46.75624,-1.169219,117.07,35.58,11.792,331.4,0 / 24,1208049,2019-08-12 13:39:53:485,-2.1109,0.0648,9.2439,-1.9206,-0.1707,9.6152,-0.0108,0.01,0.0013
22517,46.75624,-1.169219,117.07,35.58,11.792,331.4,0 / 24,1208085,2019-08-12 13:39:53:521,-2.1109,0.0648,9.2439,-1.9206,-0.1707,9.6152,-0.0108,0.01,0.0013
22518,46.75624,-1.169219,117.07,35.58,11.792,331.4,0 / 24,1208185,2019-08-12 13:39:53:621,-2.1109,0.0648,9.2439,-1.9206,-0.1707,9.6152,-0.0108,0.01,0.0013
22519,46.75624,-1.169219,117.07,35.58,11.792,331.4,0 / 24,1208508,2019-08-12 13:39:53:944,-2.1109,0.0648,9.2439,-1.9206,-0.1707,9.6152,-0.0108,0.01,0.0013
22520,46.75624,-1.169219,117.07,35.58,11.792,331.4,0 / 24,1208509,2019-08-12 13:39:53:945,-2.1109,0.0648,9.2439,-1.9206,-0.1707,9.6152,-0.0108,0.01,0.0013
22521,46.75624,-1.169219,117.07,35.58,11.792,331.4,0 / 24,1208509,2019-08-12 13:39:53:945,-2.1109,0.0648,9.2439,-1.9206,-0.1707,9.6152,-0.0108,0.01,0.0013
22522,46.75624,-1.169219,117.07,35.58,11.792,331.4,0 / 24,1208510,2019-08-12 13:39:53:946,-2.1109,0.0648,9.2439,-1.9206,-0.1707,9.6152,-0.0108,0.01,0.0013
22523,46.75624,-1.169219,117.07,35.58,11.792,331.4,0 / 24,1208510,2019-08-12 13:39:53:946,-2.1109,0.0648,9.2439,-1.9206,-0.1707,9.6152,-0.0108,0.01,0.0013
22524,46.75624,-1.169219,117.07,35.58,11.792,331.4,0 / 24,1208511,2019-08-12 13:39:53:947,-2.1109,0.0648,9.2439,-1.9206,-0.1707,9.6152,-0.0108,0.01,0.0013
22525,46.75624,-1.169219,117.07,35.58,11.792,331.4,14 / 24,1208528,2019-08-12 13:39:53:964,-2.1109,0.0648,9.2439,-1.9206,-0.1707,9.6152,-0.0108,0.01,0.0013
22526,46.75624,-1.169219,117.07,35.58,11.792,331.4,14 / 24,1208529,2019-08-12 13:39:53:965,-2.1109,0.0648,9.2439,-1.9206,-0.1707,9.6152,-0.0108,0.01,0.0013
22527,46.75624,-1.169219,117.07,35.58,11.792,331.4,14 / 24,1208550,2019-08-12 13:39:53:986,-2.1109,0.0648,9.2439,-1.9206,-0.1707,9.6152,-0.0108,0.01,0.0013
22528,46.75624,-1.169219,117.07,35.58,11.792,331.4,14 / 24,1208650,2019-08-12 13:39:54:086,-2.1109,0.0648,9.2439,-1.9206,-0.1707,9.6152,-0.0108,0.01,0.0013
22529,46.75624,-1.169219,117.07,35.58,11.792,331.4,14 / 24,1208962,2019-08-12 13:39:54:398,-2.1109,0.0648,9.2439,-1.9206,-0.1707,9.6152,-0.0108,0.01,0.0013
22530,46.75624,-1.169219,117.07,35.58,11.792,331.4,14 / 24,1208963,2019-08-12 13:39:54:399,-2.1109,0.0648,9.2439,-1.9206,-0.1707,9.6152,-0.0108,0.01,0.0013
22531,46.75624,-1.169219,117.07,35.58,11.792,331.4,14 / 24,1208963,2019-08-12 13:39:54:399,-2.1109,0.0648,9.2439,-1.9206,-0.1707,9.6152,-0.0108,0.01,0.0013
22532,46.75624,-1.169219,117.07,35.58,11.792,331.4,14 / 24,1208964,2019-08-12 13:39:54:400,-2.1109,0.0648,9.2439,-1.9206,-0.1707,9.6152,-0.0108,0.01,0.0013
22533,46.75624,-1.169219,117.07,35.58,11.792,331.4,14 / 24,1208964,2019-08-12 13:39:54:400,-2.1109,0.0648,9.2439,-1.9206,-0.1707,9.6152,-0.0108,0.01,0.0013
22534,46.75624,-1.169219,117.07,35.58,11.792,331.4,14 / 24,1208965,2019-08-12 13:39:54:401,-2.1109,0.0648,9.2439,-1.9206,-0.1707,9.6152,-0.0108,0.01,0.0013
22535,46.75624,-1.169219,117.07,35.58,11.792,331.4,14 / 24,1208965,2019-08-12 13:39:54:401,-2.1109,0.0648,9.2439,-1.9206,-0.1707,9.6152,-0.0108,0.01,0.0013
22536,46.75624,-1.169219,117.07,35.58,11.792,331.4,14 / 24,1208965,2019-08-12 13:39:54:401,-2.1109,0.0648,9.2439,-1.9206,-0.1707,9.6152,-0.0108,0.01,0.0013
22537,46.758617,-1.171225,117.87,35.05,17.152,331.3,0 / 24,1209002,2019-08-12 13:39:54:438,-2.1109,0.0648,9.2439,-1.9206,-0.1707,9.6152,-0.0108,0.01,0.0013
22538,46.758617,-1.171225,117.87,35.05,17.152,331.3,0 / 24,1209101,2019-08-12 13:39:54:537,-2.1109,0.0648,9.2439,-1.9206,-0.1707,9.6152,-0.0108,0.01,0.0013
22539,46.758617,-1.171225,117.87,35.05,17.152,331.3,0 / 24,1209201,2019-08-12 13:39:54:637,-1.9678,-0.1968,8.9996,-1.9569,-0.0653,9.6092,-0.0045,-0.0007,0.0013
22540,46.758617,-1.171225,117.87,35.05,17.152,331.3,0 / 24,1209301,2019-08-12 13:39:54:737,-1.6356,0.0037,10.0214,-1.9578,-0.0746,9.609,-0.0034,-0.0081,-0.0008
22541,46.758617,-1.171225,117.87,35.05,17.152,331.3,0 / 24,1209427,2019-08-12 13:39:54:863,-1.6195,-0.3554,10.0597,-1.9484,-0.0923,9.6107,0.0051,-0.0124,-0.0008
22542,46.758617,-1.171225,117.87,35.05,17.152,331.3,0 / 24,1209502,2019-08-12 13:39:54:938,-1.6195,-0.3554,10.0597,-1.9484,-0.0923,9.6107,0.0051,-0.0124,-0.0008
22543,46.758617,-1.171225,117.87,35.05,17.152,331.3,0 / 24,1209602,2019-08-12 13:39:55:038,-1.6195,-0.3554,10.0597,-1.9484,-0.0923,9.6107,0.0051,-0.0124,-0.0008
22544,46.758617,-1.171225,117.87,35.05,17.152,331.3,0 / 24,1209984,2019-08-12 13:39:55:420,-2.3263,-0.1244,9.327,-1.9362,-0.1179,9.6129,0.0062,-0.007,-0.0008
22545,46.758617,-1.171225,117.87,35.05,17.152,331.3,0 / 24,1209985,2019-08-12 13:39:55:421,-2.3263,-0.1244,9.327,-1.9362,-0.1179,9.6129,0.0062,-0.007,-0.0008
22546,46.758617,-1.171225,117.87,35.05,17.152,331.3,0 / 24,1209985,2019-08-12 13:39:55:421,-2.3263,-0.1244,9.327,-1.9362,-0.1179,9.6129,0.0062,-0.007,-0.0008
22547,46.758617,-1.171225,117.87,35.05,17.152,331.3,0 / 24,1209986,2019-08-12 13:39:55:422,-2.3263,-0.1244,9.327,-1.9362,-0.1179,9.6129,0.0062,-0.007,-0.0008
22548,46.758617,-1.171225,117.87,35.05,17.152,331.3,0 / 24,1209986,2019-08-12 13:39:55:422,-2.3263,-0.1244,9.327,-1.9362,-0.1179,9.6129,0.0062,-0.007,-0.0008
22549,46.758617,-1.171225,117.87,35.05,17.152,331.3,0 / 24,1209986,2019-08-12 13:39:55:422,-2.3263,-0.1244,9.327,-1.9362,-0.1179,9.6129,0.0062,-0.007,-0.0008
22550,46.758617,-1.171225,117.87,35.05,17.152,331.3,0 / 24,1209987,2019-08-12 13:39:55:423,-2.3263,-0.1244,9.327,-1.9362,-0.1179,9.6129,0.0062,-0.007,-0.0008
22551,46.758617,-1.171225,117.87,35.05,17.152,331.3,0 / 24,1209993,2019-08-12 13:39:55:429,-2.3263,-0.1244,9.327,-1.9362,-0.1179,9.6129,0.0062,-0.007,-0.0008
22552,46.758617,-1.171225,117.87,35.05,17.152,331.3,0 / 24,1209995,2019-08-12 13:39:55:431,-2.3263,-0.1244,9.327,-1.9362,-0.1179,9.6129,0.0062,-0.007,-0.0008
22553,46.758617,-1.171225,117.87,35.05,17.152,331.3,0 / 24,1209997,2019-08-12 13:39:55:433,-2.3263,-0.1244,9.327,-1.9362,-0.1179,9.6129,0.0062,-0.007,-0.0008
22554,46.758617,-1.171225,117.87,35.05,17.152,331.3,0 / 24,1210000,2019-08-12 13:39:55:436,-2.3263,-0.1244,9.327,-1.9362,-0.1179,9.6129,0.0062,-0.007,-0.0008
22555,46.758617,-1.171225,117.87,35.05,17.152,331.3,0 / 24,1210001,2019-08-12 13:39:55:437,-2.3263,-0.1244,9.327,-1.9362,-0.1179,9.6129,0.0062,-0.007,-0.0008
22556,46.758617,-1.171225,117.87,35.05,17.152,331.3,0 / 24,1210002,2019-08-12 13:39:55:438,-2.3263,-0.1244,9.327,-1.9362,-0.1179,9.6129,0.0062,-0.007,-0.0008
22557,46.758617,-1.171225,117.87,35.05,17.152,331.3,0 / 24,1210002,2019-08-12 13:39:55:438,-2.3263,-0.1244,9.327,-1.9362,-0.1179,9.6129,0.0062,-0.007,-0.0008
22558,46.758617,-1.171225,117.87,35.05,17.152,331.3,0 / 24,1210003,2019-08-12 13:39:55:439,-2.3263,-0.1244,9.327,-1.9362,-0.1179,9.6129,0.0062,-0.007,-0.0008
22559,46.758617,-1.171225,117.87,35.05,17.152,331.3,0 / 24,1210003,2019-08-12 13:39:55:439,-2.3263,-0.1244,9.327,-1.9362,-0.1179,9.6129,0.0062,-0.007,-0.0008
22560,46.758617,-1.171225,117.87,35.05,17.152,331.3,0 / 24,1210004,2019-08-12 13:39:55:440,-2.3263,-0.1244,9.327,-1.9362,-0.1179,9.6129,0.0062,-0.007,-0.0008
22561,46.758617,-1.171225,117.87,35.05,17.152,331.3,0 / 24,1210004,2019-08-12 13:39:55:440,-2.3263,-0.1244,9.327,-1.9362,-0.1179,9.6129,0.0062,-0.007,-0.0008
22562,46.758617,-1.171225,117.87,35.05,17.152,331.3,0 / 24,1210005,2019-08-12 13:39:55:441,-2.3263,-0.1244,9.327,-1.9362,-0.1179,9.6129,0.0062,-0.007,-0.0008
22563,46.758617,-1.171225,117.87,35.05,17.152,331.3,0 / 24,1210005,2019-08-12 13:39:55:441,-2.3263,-0.1244,9.327,-1.9362,-0.1179,9.6129,0.0062,-0.007,-0.0008
22564,46.758617,-1.171225,117.87,35.05,17.152,331.3,0 / 24,1210006,2019-08-12 13:39:55:442,-2.3263,-0.1244,9.327,-1.9362,-0.1179,9.6129,0.0062,-0.007,-0.0008
22565,46.758617,-1.171225,117.87,35.05,17.152,331.3,0 / 24,1210006,2019-08-12 13:39:55:442,-2.3263,-0.1244,9.327,-1.9362,-0.1179,9.6129,0.0062,-0.007,-0.0008
22566,46.758617,-1.171225,117.87,35.05,17.152,331.3,0 / 24,1210007,2019-08-12 13:39:55:443,-2.3263,-0.1244,9.327,-1.9362,-0.1179,9.6129,0.0062,-0.007,-0.0008
22567,46.758617,-1.171225,117.87,35.05,17.152,331.3,0 / 24,1210007,2019-08-12 13:39:55:443,-2.3263,-0.1244,9.327,-1.9362,-0.1179,9.6129,0.0062,-0.007,-0.0008
22568,46.758617,-1.171225,117.87,35.05,17.152,331.3,0 / 24,1210008,2019-08-12 13:39:55:444,-2.3263,-0.1244,9.327,-1.9362,-0.1179,9.6129,0.0062,-0.007,-0.0008
22569,46.758617,-1.171225,117.87,35.05,17.152,331.3,0 / 24,1210008,2019-08-12 13:39:55:444,-2.3263,-0.1244,9.327,-1.9362,-0.1179,9.6129,0.0062,-0.007,-0.0008
22570,46.758617,-1.171225,117.87,35.05,17.152,331.3,0 / 24,1210009,2019-08-12 13:39:55:445,-2.3263,-0.1244,9.327,-1.9362,-0.1179,9.6129,0.0062,-0.007,-0.0008
22571,46.758617,-1.171225,117.87,35.05,17.152,331.3,0 / 24,1210009,2019-08-12 13:39:55:445,-2.3263,-0.1244,9.327,-1.9362,-0.1179,9.6129,0.0062,-0.007,-0.0008
22572,46.758617,-1.171225,117.87,35.05,17.152,331.3,0 / 24,1210009,2019-08-12 13:39:55:445,-2.3263,-0.1244,9.327,-1.9362,-0.1179,9.6129,0.0062,-0.007,-0.0008
22573,46.758617,-1.171225,117.87,35.05,17.152,331.3,0 / 24,1210010,2019-08-12 13:39:55:446,-2.3263,-0.1244,9.327,-1.9362,-0.1179,9.6129,0.0062,-0.007,-0.0008
22574,46.758617,-1.171225,117.87,35.05,17.152,331.3,0 / 24,1210010,2019-08-12 13:39:55:446,-2.3263,-0.1244,9.327,-1.9362,-0.1179,9.6129,0.0062,-0.007,-0.0008
22575,46.758617,-1.171225,117.87,35.05,17.152,331.3,0 / 24,1210011,2019-08-12 13:39:55:447,-2.3263,-0.1244,9.327,-1.9362,-0.1179,9.6129,0.0062,-0.007,-0.0008
22576,46.758617,-1.171225,117.87,35.05,17.152,331.3,0 / 24,1210011,2019-08-12 13:39:55:447,-2.3263,-0.1244,9.327,-1.9362,-0.1179,9.6129,0.0062,-0.007,-0.0008
22577,46.758617,-1.171225,117.87,35.05,17.152,331.3,0 / 24,1210012,2019-08-12 13:39:55:448,-2.3263,-0.1244,9.327,-1.9362,-0.1179,9.6129,0.0062,-0.007,-0.0008
22578,46.758617,-1.171225,117.87,35.05,17.152,331.3,0 / 24,1210012,2019-08-12 13:39:55:448,-2.3263,-0.1244,9.327,-1.9362,-0.1179,9.6129,0.0062,-0.007,-0.0008
22579,46.758617,-1.171225,117.87,35.05,17.152,331.3,0 / 24,1210013,2019-08-12 13:39:55:449,-2.3263,-0.1244,9.327,-1.9362,-0.1179,9.6129,0.0062,-0.007,-0.0008
22580,46.758617,-1.171225,117.87,35.05,17.152,331.3,0 / 24,1210013,2019-08-12 13:39:55:449,-2.3263,-0.1244,9.327,-1.9362,-0.1179,9.6129,0.0062,-0.007,-0.0008
22581,46.758617,-1.171225,117.87,35.05,17.152,331.3,0 / 24,1210013,2019-08-12 13:39:55:449,-2.3263,-0.1244,9.327,-1.9362,-0.1179,9.6129,0.0062,-0.007,-0.0008
22582,46.758617,-1.171225,117.87,35.05,17.152,331.3,0 / 24,1210014,2019-08-12 13:39:55:450,-2.3263,-0.1244,9.327,-1.9362,-0.1179,9.6129,0.0062,-0.007,-0.0008
22583,46.758617,-1.171225,117.87,35.05,17.152,331.3,0 / 24,1210014,2019-08-12 13:39:55:450,-2.3263,-0.1244,9.327,-1.9362,-0.1179,9.6129,0.0062,-0.007,-0.0008
22584,46.758617,-1.171225,117.87,35.05,17.152,331.3,0 / 24,1210015,2019-08-12 13:39:55:451,-2.3263,-0.1244,9.327,-1.9362,-0.1179,9.6129,0.0062,-0.007,-0.0008
22585,46.758617,-1.171225,117.87,35.05,17.152,331.3,0 / 24,1210015,2019-08-12 13:39:55:451,-2.3263,-0.1244,9.327,-1.9362,-0.1179,9.6129,0.0062,-0.007,-0.0008
22586,46.758617,-1.171225,117.87,35.05,17.152,331.3,0 / 24,1210015,2019-08-12 13:39:55:451,-2.3263,-0.1244,9.327,-1.9362,-0.1179,9.6129,0.0062,-0.007,-0.0008
22587,46.758617,-1.171225,117.87,35.05,17.152,331.3,0 / 24,1210016,2019-08-12 13:39:55:452,-2.3263,-0.1244,9.327,-1.9362,-0.1179,9.6129,0.0062,-0.007,-0.0008
22588,46.758617,-1.171225,117.87,35.05,17.152,331.3,0 / 24,1210016,2019-08-12 13:39:55:452,-2.3263,-0.1244,9.327,-1.9362,-0.1179,9.6129,0.0062,-0.007,-0.0008
22589,46.758617,-1.171225,117.87,35.05,17.152,331.3,0 / 24,1210016,2019-08-12 13:39:55:452,-2.3263,-0.1244,9.327,-1.9362,-0.1179,9.6129,0.0062,-0.007,-0.0008
22590,46.758617,-1.171225,117.87,35.05,17.152,331.3,0 / 24,1210017,2019-08-12 13:39:55:453,-2.3263,-0.1244,9.327,-1.9362,-0.1179,9.6129,0.0062,-0.007,-0.0008
22591,46.758617,-1.171225,117.87,35.05,17.152,331.3,0 / 24,1210017,2019-08-12 13:39:55:453,-2.3263,-0.1244,9.327,-1.9362,-0.1179,9.6129,0.0062,-0.007,-0.0008
22592,46.758617,-1.171225,117.87,35.05,17.152,331.3,0 / 24,1210079,2019-08-12 13:39:55:515,-2.3263,-0.1244,9.327,-1.9362,-0.1179,9.6129,0.0062,-0.007,-0.0008
22593,46.758617,-1.171225,117.87,35.05,17.152,331.3,0 / 24,1210179,2019-08-12 13:39:55:615,-2.3263,-0.1244,9.327,-1.9362,-0.1179,9.6129,0.0062,-0.007,-0.0008
22594,46.758617,-1.171225,117.87,35.05,17.152,331.3,0 / 24,1210511,2019-08-12 13:39:55:947,-2.3263,-0.1244,9.327,-1.9362,-0.1179,9.6129,-0.0066,-0.0028,0.0002
22595,46.758617,-1.171225,117.87,35.05,17.152,331.3,0 / 24,1210512,2019-08-12 13:39:55:948,-2.3263,-0.1244,9.327,-1.9362,-0.1179,9.6129,-0.0066,-0.0028,0.0002
22596,46.758617,-1.171225,117.87,35.05,17.152,331.3,0 / 24,1210512,2019-08-12 13:39:55:948,-2.3263,-0.1244,9.327,-1.9362,-0.1179,9.6129,-0.0066,-0.0028,0.0002
22597,46.758617,-1.171225,117.87,35.05,17.152,331.3,0 / 24,1210513,2019-08-12 13:39:55:949,-2.3263,-0.1244,9.327,-1.9362,-0.1179,9.6129,-0.0066,-0.0028,0.0002
22598,46.758617,-1.171225,117.87,35.05,17.152,331.3,0 / 24,1210513,2019-08-12 13:39:55:949,-2.3263,-0.1244,9.327,-1.9362,-0.1179,9.6129,-0.0066,-0.0028,0.0002
22599,46.758617,-1.171225,117.87,35.05,17.152,331.3,0 / 24,1210518,2019-08-12 13:39:55:954,-2.2886,-0.4458,9.2295,-1.7782,-0.2405,9.6411,-0.0066,-0.0028,0.0002
22600,46.758617,-1.171225,117.87,35.05,17.152,331.3,0 / 24,1210522,2019-08-12 13:39:55:958,-2.2886,-0.4458,9.2295,-1.7782,-0.2405,9.6411,-0.0066,-0.0028,0.0002
22601,46.758617,-1.171225,117.87,35.05,17.152,331.3,0 / 24,1210523,2019-08-12 13:39:55:959,-2.2886,-0.4458,9.2295,-1.7782,-0.2405,9.6411,-0.0066,-0.0028,0.0002
22602,46.758617,-1.171225,117.87,35.05,17.152,331.3,0 / 24,1210524,2019-08-12 13:39:55:960,-2.2886,-0.4458,9.2295,-1.7782,-0.2405,9.6411,-0.0066,-0.0028,0.0002
22603,46.758617,-1.171225,117.87,35.05,17.152,331.3,0 / 24,1210586,2019-08-12 13:39:56:022,-2.2886,-0.4458,9.2295,-1.7782,-0.2405,9.6411,-0.0066,-0.0028,0.0002
22604,46.758617,-1.171225,117.87,35.05,17.152,331.3,0 / 24,1210686,2019-08-12 13:39:56:122,-2.2886,-0.4458,9.2295,-1.7782,-0.2405,9.6411,-0.0066,-0.0028,0.0002
22605,46.758617,-1.171225,117.87,35.05,17.152,331.3,0 / 24,1210786,2019-08-12 13:39:56:222,-1.8493,-0.3584,9.8035,-1.7955,-0.2918,9.6365,0.0019,-0.0092,-0.0008
22606,46.758617,-1.171225,117.87,35.05,17.152,331.3,0 / 24,1210885,2019-08-12 13:39:56:321,-1.4423,-0.2531,9.4707,-1.8049,-0.2729,9.6353,-0.0077,-0.006,-0.003
22607,46.758617,-1.171225,117.87,35.05,17.152,331.3,0 / 24,1210985,2019-08-12 13:39:56:421,-2.1611,-0.1118,9.5874,-1.8053,-0.2759,9.6351,0.0009,0.0036,-0.0019
22608,46.758617,-1.171225,117.87,35.05,17.152,331.3,0 / 24,1211085,2019-08-12 13:39:56:521,-2.1336,-0.4344,9.6808,-1.7954,-0.2713,9.6371,-0.0013,-0.0081,-0.0019
22609,46.758617,-1.171225,117.87,35.05,17.152,331.3,0 / 24,1211186,2019-08-12 13:39:56:622,-2.1156,-0.4141,9.5287,-1.7907,-0.2643,9.6381,0.0158,0.0015,0.0013
22610,46.758617,-1.171225,117.87,35.05,17.152,331.3,0 / 24,1211286,2019-08-12 13:39:56:722,-1.6715,-0.4512,9.5533,-1.787,-0.27,9.6387,0.0105,-0.0028,-0.0019
22611,46.758617,-1.171225,117.87,35.05,17.152,331.3,0 / 24,1211385,2019-08-12 13:39:56:821,-1.4602,-0.4165,10.2829,-1.799,-0.288,9.6359,0.0019,-0.007,-0.0051
22612,46.758617,-1.171225,117.87,35.05,17.152,331.3,0 / 24,1211486,2019-08-12 13:39:56:922,-1.5889,-0.268,10.0842,-1.8103,-0.2952,9.6336,0.003,-0.0028,-0.004
22613,46.758617,-1.171225,117.87,35.05,17.152,331.3,0 / 24,1211586,2019-08-12 13:39:57:022,-1.6494,-0.3195,9.4713,-1.8189,-0.2992,9.6318,-0.0077,0.0111,-0.003
22614,46.758617,-1.171225,117.87,35.05,17.152,331.3,0 / 24,1211687,2019-08-12 13:39:57:123,-2.1097,-0.2153,9.3079,-1.8378,-0.3122,9.6278,-0.013,0.0164,-0.004
