,GPS LATITUDE (degrees), GPS LONGITUDE (degrees), GPS ALTITUDE (m), GPS SPEED (Kmh), GPS ACCURACY (m), GPS ORIENTATION (Â°),GPS SATELLITES IN RANGE, TIME SINCE START (ms), DATE (YYYY-MO-DD HH-MI-SS_SSS), ACCELEROMETER X (m/s²) , ACCELEROMETER Y (m/s²), ACCELEROMETER Z (m/s²), GRAVITY X (m/s²), GRAVITY Y (m/s²), GRAVITY Z (m/s²), GYROSCOPE Yaw (rad/s), GYROSCOPE Pitch (rad/s), GYROSCOPE Roll (rad/s), MAGNETIC FIELD X (Î¼T), MAGNETIC FIELD Y (Î¼T), MAGNETIC FIELD Z (Î¼T), ORIENTATION (Yaw) (Â°), ORIENTATION (Pitch) (Â°), ORIENTATION (Roll ) (Â°)
5411,52.567715,-1.514074,134.2,19.66,3,115.81,25 / 25,541112,2020-01-08 17:41:14:705,-1.8332,-1.7059,8.5203,-0.025,0.0284,9.8065,0.0476,0.0514,-0.094,-18.56,-33.31,15.31,333.6,-83.85,-150.83
5412,52.567715,-1.514074,134.2,19.66,3,115.81,25 / 25,541210,2020-01-08 17:41:14:803,-0.8648,-2.2951,10.2321,-0.0513,-0.0304,9.8064,0.1402,0.2514,-0.2244,-18.94,-33.56,15.0,332.84,-83.96,-151.44
5413,52.567715,-1.514074,134.2,19.66,3,115.81,25 / 25,541310,2020-01-08 17:41:14:903,1.5402,2.1797,8.366,0.0151,-0.0367,9.8066,-0.1403,0.3689,-0.1336,-19.12,-33.37,15.31,334.36,-83.75,-150.11
5414,52.567715,-1.514074,134.2,19.66,3,115.81,25 / 25,541410,2020-01-08 17:41:15:003,0.6187,-2.4204,13.5363,0.0616,-0.0437,9.8063,-0.2871,-0.1009,0.0478,-19.75,-33.19,16.19,336.26,-83.93,-149.13
5415,52.567715,-1.514074,134.2,19.66,3,115.81,25 / 25,541510,2020-01-08 17:41:15:103,-2.5909,-0.0911,6.1646,0.0744,-0.0512,9.8061,-0.4869,0.0678,0.116,-18.69,-33.19,15.38,334.44,-83.73,-150.03
5416,52.567715,-1.514074,134.2,19.66,3,115.81,25 / 25,541610,2020-01-08 17:41:15:203,2.4975,-0.6949,13.6054,-0.0134,0.0217,9.8066,-0.0656,-0.1286,0.0916,-18.44,-33.62,15.38,334.45,-83.55,-151.18
5417,52.567715,-1.514074,134.2,19.66,3,115.81,25 / 25,541709,2020-01-08 17:41:15:302,-0.0732,-0.3287,8.2713,0.1238,-0.0612,9.8057,-0.4525,-0.1121,0.0868,-19.25,-33.25,14.88,332.27,-83.49,-151.74
5418,52.567715,-1.514074,134.2,19.66,3,115.81,25 / 25,541809,2020-01-08 17:41:15:402,1.739,-0.029,11.8127,-0.0419,0.0197,9.8065,0.2149,0.0442,-0.0881,-18.69,-33.19,14.94,336.29,-83.98,-148.58
5419,52.567715,-1.514074,134.2,19.66,3,115.81,25 / 25,541911,2020-01-08 17:41:15:504,0.6686,-0.1006,10.0329,0.0429,0.008,9.8065,-0.039,-0.0059,-0.0304,-18.81,-33.31,15.75,335.42,-83.95,-151.21
5420,52.567715,-1.514074,134.2,19.66,3,115.81,25 / 25,542010,2020-01-08 17:41:15:603,-1.2105,0.2617,9.7999,-0.0155,0.0021,9.8066,0.125,0.1721,-0.0973,-19.12,-33.56,15.19,331.55,-83.97,-152.58
5421,52.567715,-1.514074,134.2,19.66,3,115.81,25 / 25,542109,2020-01-08 17:41:15:702,-2.2416,-1.2225,8.5887,0.0156,-0.0118,9.8066,-0.0201,-0.0577,0.0124,-18.69,-33.12,14.81,330.8,-83.94,-153.32
5422,52.567715,-1.514074,134.2,19.66,3,115.81,25 / 25,542210,2020-01-08 17:41:15:803,0.7427,0.4782,9.5396,-0.0423,-0.0155,9.8065,0.0536,0.1305,-0.1404,-18.37,-33.75,15.25,331.64,-84.0,-153.9
5423,52.567715,-1.514074,134.2,19.66,3,115.81,25 / 25,542310,2020-01-08 17:41:15:903,-0.2868,0.8609,8.724,0.0093,0.0267,9.8066,-0.1253,-0.0349,0.0746,-18.62,-33.31,14.63,331.59,-84.12,-152.76
5424,52.567715,-1.514074,134.2,19.66,3,115.81,25 / 25,542410,2020-01-08 17:41:16:003,-0.0296,1.1928,10.7362,0.0316,-0.0042,9.8065,-0.0387,0.0059,-0.0341,-18.31,-33.5,14.25,329.53,-84.04,-153.84
5425,52.567715,-1.514074,134.2,19.66,3,115.81,25 / 25,542510,2020-01-08 17:41:16:103,-2.5047,-0.4359,8.5605,0.0752,-0.0055,9.8063,-0.1471,-0.2384,0.1195,-18.06,-33.94,15.25,328.82,-83.94,-156.29
5426,52.567715,-1.514074,134.2,19.66,3,115.81,25 / 25,542609,2020-01-08 17:41:16:202,0.9436,1.9114,10.1147,0.005,0.0301,9.8066,0.008,-0.0788,0.019,-18.0,-32.81,15.19,329.04,-83.98,-156.27
5427,52.567715,-1.514074,134.2,19.66,3,115.81,25 / 25,542710,2020-01-08 17:41:16:303,-1.7218,-0.349,8.1311,0.0703,0.022,9.8063,-0.255,-0.2621,0.1768,-17.44,-33.06,15.31,328.65,-84.19,-158.24
5428,52.567715,-1.514074,134.2,19.66,3,115.81,25 / 25,542810,2020-01-08 17:41:16:403,2.7829,2.0613,9.9132,0.0133,0.0144,9.8065,-0.0881,0.012,-0.0409,-17.5,-33.37,14.63,330.36,-84.48,-156.97
5429,52.567715,-1.514074,134.2,19.66,3,115.81,25 / 25,542910,2020-01-08 17:41:16:503,-0.101,1.0733,9.2563,0.0103,0.0318,9.8065,-0.0689,-0.0831,0.1429,-17.25,-33.75,13.69,328.1,-84.79,-157.01
5430,52.567715,-1.514074,134.2,19.66,3,115.81,25 / 25,543010,2020-01-08 17:41:16:603,0.3045,0.8783,9.0616,0.0199,-0.046,9.8065,-0.1812,0.2299,-0.0014,-17.87,-33.31,13.88,330.42,-84.93,-153.74
5431,52.567715,-1.514074,134.2,19.66,3,115.81,25 / 25,543110,2020-01-08 17:41:16:703,-0.4215,1.5521,9.247,0.0099,-0.0447,9.8064,-0.1212,0.1676,-0.012,-18.5,-32.62,14.19,332.98,-84.51,-151.17
5432,52.567715,-1.514074,134.2,19.66,3,115.81,25 / 25,543209,2020-01-08 17:41:16:802,-0.8215,-0.5727,11.832,0.0172,-0.0386,9.8065,0.0008,0.0883,-0.0587,-18.19,-33.19,14.0,333.96,-84.37,-150.23
5433,52.567715,-1.514074,134.2,19.66,3,115.81,25 / 25,543310,2020-01-08 17:41:16:903,0.7891,1.3658,10.8854,0.0425,-0.0195,9.8065,-0.0411,0.0102,-0.0518,-18.94,-32.12,14.38,330.84,-84.09,-151.5
5434,52.567715,-1.514074,134.2,19.66,3,115.81,25 / 25,543409,2020-01-08 17:41:17:002,1.2676,1.631,8.0873,-0.0069,0.003,9.8066,-0.0767,0.1177,-0.1319,-18.5,-32.75,15.0,333.71,-84.17,-152.33
5435,52.567715,-1.514074,134.2,19.66,3,115.81,25 / 25,543510,2020-01-08 17:41:17:103,-1.0602,-0.7387,9.6089,-0.0027,0.0357,9.8065,-0.0385,-0.0332,0.188,-18.19,-32.69,14.56,333.61,-84.41,-152.58
5436,52.567715,-1.514074,134.2,19.66,3,115.81,25 / 25,543610,2020-01-08 17:41:17:203,0.7397,2.4009,10.6398,0.0452,0.0243,9.8064,-0.0927,-0.2565,0.22,-17.25,-32.81,14.19,335.96,-84.48,-150.04
5437,52.567715,-1.514074,134.2,19.66,3,115.81,25 / 25,543710,2020-01-08 17:41:17:303,1.9034,0.1498,10.7981,0.0242,-0.0276,9.8065,0.0124,-0.1095,0.1065,-18.12,-32.94,14.06,331.95,-84.3,-151.92
5438,52.567715,-1.514074,134.2,19.66,3,115.81,25 / 25,543810,2020-01-08 17:41:17:403,-0.1033,0.0968,9.2456,0.032,0.0096,9.8066,-0.1526,-0.2181,0.2164,-18.56,-32.81,14.56,330.86,-84.07,-153.37
5439,52.567715,-1.514074,134.2,19.66,3,115.81,25 / 25,543910,2020-01-08 17:41:17:503,-2.2165,-1.3307,9.3779,-0.0278,0.0079,9.8066,0.053,-0.0719,0.0315,-19.25,-32.81,13.94,330.94,-84.13,-151.33
5440,52.567715,-1.514074,134.2,19.66,3,115.81,25 / 25,544011,2020-01-08 17:41:17:604,-2.33,-0.4081,8.3945,0.0375,-0.0025,9.8065,-0.1736,-0.2142,0.1267,-19.81,-33.56,14.63,332.05,-84.2,-151.0
5441,52.567715,-1.514074,134.2,19.66,3,115.81,25 / 25,544110,2020-01-08 17:41:17:703,-0.2932,0.0004,10.9708,-0.0333,0.011,9.8066,0.0964,-0.0093,0.0434,-19.31,-32.69,15.31,334.33,-84.23,-150.44
5442,52.567715,-1.514074,134.2,19.66,3,115.81,25 / 25,544210,2020-01-08 17:41:17:803,1.7201,1.7273,10.2003,0.045,0.0152,9.8065,-0.2236,-0.3252,0.2373,-19.25,-32.5,16.06,337.86,-84.15,-149.3
5443,52.567715,-1.514074,134.2,19.66,3,115.81,25 / 25,544310,2020-01-08 17:41:17:903,3.0753,0.939,11.3216,-0.0448,0.0161,9.8065,0.174,-0.0983,0.0785,-18.69,-32.62,15.5,338.3,-84.24,-148.87
5444,52.567715,-1.514074,134.2,19.66,3,115.81,25 / 25,544410,2020-01-08 17:41:18:003,-0.499,1.2323,7.2922,0.0193,0.0391,9.8065,-0.1426,-0.4333,0.2851,-18.19,-32.31,15.25,337.3,-84.28,-149.39
5445,52.567715,-1.514074,134.2,19.66,3,115.81,25 / 25,544510,2020-01-08 17:41:18:103,-3.2489,-2.6943,9.8758,-0.0435,0.0416,9.8064,0.1552,-0.2376,0.114,-18.0,-32.81,14.69,340.51,-84.39,-146.58
5446,52.567715,-1.514074,134.2,19.66,3,115.81,25 / 25,544610,2020-01-08 17:41:18:203,-1.4196,1.0646,8.7524,0.054,0.0252,9.8064,-0.1394,-0.2363,0.1906,-18.06,-32.62,14.56,340.59,-84.23,-146.42
5447,52.567715,-1.514074,134.2,19.66,3,115.81,25 / 25,544710,2020-01-08 17:41:18:303,0.1223,-2.8976,11.7708,-0.0279,0.0366,9.8065,0.1929,-0.3351,0.0989,-17.94,-32.31,14.19,335.74,-84.26,-148.72
5448,52.567715,-1.514074,134.2,19.66,3,115.81,25 / 25,544810,2020-01-08 17:41:18:403,1.4313,-0.2871,11.9147,0.0564,-0.0216,9.8064,-0.4008,0.0538,-0.0374,-18.62,-32.69,14.0,334.24,-84.25,-148.53
5449,52.567715,-1.514074,134.2,19.66,3,115.81,25 / 25,544910,2020-01-08 17:41:18:503,-1.4615,-1.9421,11.0682,0.0181,0.0429,9.8065,-0.1665,-0.2173,0.2071,-18.69,-32.87,14.5,334.38,-84.3,-150.44
5450,52.567715,-1.514074,134.2,19.66,3,115.81,25 / 25,545010,2020-01-08 17:41:18:603,2.1151,2.0834,10.2485,0.0398,-0.0204,9.8065,-0.1252,0.0978,-0.0507,-18.75,-32.44,14.25,331.79,-84.05,-150.65
5451,52.567715,-1.514074,134.2,19.66,3,115.81,25 / 25,545110,2020-01-08 17:41:18:703,-0.7918,0.5997,9.4567,0.0247,0.0287,9.8066,-0.0737,-0.2742,0.1614,-18.56,-33.0,14.63,334.06,-84.13,-150.62
5452,52.567715,-1.514074,134.2,19.66,3,115.81,25 / 25,545210,2020-01-08 17:41:18:803,2.2193,2.4182,8.967,0.021,-0.007,9.8066,-0.1044,0.0111,-0.023,-17.94,-32.5,14.38,334.98,-84.16,-149.32
5453,52.567715,-1.514074,134.2,19.66,3,115.81,25 / 25,545311,2020-01-08 17:41:18:904,-2.9492,-2.574,8.9121,-0.0561,0.0103,9.8064,0.2436,-0.1154,0.0154,-17.69,-32.12,14.19,334.16,-83.98,-149.91
5454,52.567715,-1.514074,134.2,19.66,3,115.81,25 / 25,545409,2020-01-08 17:41:19:002,0.7157,-0.9458,12.8039,-0.0708,-0.032,9.8063,0.3298,0.3128,-0.2509,-17.81,-31.37,14.19,337.96,-84.0,-146.74
5455,52.567715,-1.514074,134.2,19.66,3,115.81,25 / 25,545510,2020-01-08 17:41:19:103,-5.5437,-5.4159,8.6627,-0.0234,0.0454,9.8065,-0.0019,-0.4577,0.3463,-19.0,-31.81,14.38,335.26,-84.19,-147.72
5456,52.567715,-1.514074,134.2,19.66,3,115.81,25 / 25,545610,2020-01-08 17:41:19:203,3.2169,0.6736,12.3711,-0.1095,-0.0136,9.8059,0.2934,0.2149,-0.1731,-18.56,-31.19,14.13,338.31,-84.13,-145.12
5457,52.567715,-1.514074,134.2,19.66,3,115.81,25 / 25,545710,2020-01-08 17:41:19:303,4.9184,4.6739,10.064,0.0869,0.0782,9.8058,-0.3629,-0.9948,0.7225,-19.12,-30.94,14.5,339.01,-83.95,-146.4
5458,52.567715,-1.514074,134.2,19.66,3,115.81,25 / 25,545810,2020-01-08 17:41:19:403,5.0204,3.6684,11.6813,-0.0568,-0.0024,9.8064,0.0361,-0.2434,0.1656,-18.75,-31.5,15.0,338.34,-84.13,-147.08
5459,52.567715,-1.514074,134.2,19.66,3,115.81,25 / 25,545910,2020-01-08 17:41:19:503,2.8981,1.9493,10.1755,0.1364,0.0726,9.8054,-0.3721,-0.9631,0.6756,-18.19,-30.19,14.44,340.2,-84.14,-144.97
5460,52.567715,-1.514074,134.2,19.66,3,115.81,25 / 25,546009,2020-01-08 17:41:19:602,-5.7644,-5.4187,7.8967,0.0234,0.0275,9.8066,-0.1643,-0.5594,0.3271,-18.12,-29.69,14.25,335.13,-84.27,-149.46
5461,52.567715,-1.514074,134.2,19.66,3,115.81,25 / 25,546110,2020-01-08 17:41:19:703,-0.2546,-0.9753,8.3856,0.1143,0.0507,9.8058,-0.2483,-0.6657,0.4339,-18.75,-30.12,15.31,331.07,-84.34,-153.71
5462,52.567715,-1.514074,134.2,19.66,3,115.81,25 / 25,546210,2020-01-08 17:41:19:803,-6.1028,-4.1048,8.303,0.0762,0.0498,9.8062,-0.3169,-0.7501,0.5669,-18.69,-31.0,15.5,334.09,-84.28,-152.77
5463,52.567715,-1.514074,134.2,19.66,3,115.81,23 / 23,546310,2020-01-08 17:41:19:903,6.3602,4.5755,11.8551,0.1134,0.0512,9.8058,-0.175,-0.5822,0.3986,-18.5,-32.62,15.56,340.89,-84.16,-148.04
5464,52.567715,-1.514074,134.2,19.66,3,115.81,23 / 23,546410,2020-01-08 17:41:20:003,-2.9274,-2.8728,8.4777,0.1118,0.0543,9.8058,-0.3403,-0.9205,0.6227,-18.87,-32.5,15.0,331.86,-84.18,-152.68
5465,52.567715,-1.514074,134.2,19.66,3,115.81,23 / 23,546510,2020-01-08 17:41:20:103,7.4252,5.4642,11.9198,0.0534,0.0401,9.8064,-0.0184,-0.2654,0.0711,-17.87,-33.31,14.94,338.38,-84.09,-148.26
5466,52.567715,-1.514074,134.2,19.66,3,115.81,23 / 23,546610,2020-01-08 17:41:20:203,-1.7743,-3.4799,10.1466,0.1528,0.0694,9.8051,-0.1781,-0.9151,0.7175,-18.62,-32.69,15.88,332.38,-84.15,-154.0
5467,52.567715,-1.514074,134.2,19.66,3,115.81,23 / 23,546710,2020-01-08 17:41:20:303,6.5714,3.4586,12.399,-0.0152,0.0374,9.8065,0.3698,0.1829,-0.1127,-18.44,-32.56,15.0,335.69,-84.11,-150.58
5468,52.567715,-1.514074,134.2,19.66,3,115.81,23 / 23,546810,2020-01-08 17:41:20:403,-3.075,-2.6996,10.3575,0.0532,0.0601,9.8062,0.031,-0.4829,0.2639,-18.37,-33.56,14.88,332.76,-83.89,-152.86
5469,52.567715,-1.514074,134.2,19.66,3,115.81,23 / 23,546910,2020-01-08 17:41:20:503,-0.7269,-1.2477,9.1275,-0.0386,0.0013,9.8065,0.0504,0.3924,-0.1718,-19.12,-33.12,15.25,333.36,-83.79,-151.0
5470,52.567715,-1.514074,134.2,19.66,3,115.81,23 / 23,547010,2020-01-08 17:41:20:603,-1.478,-1.6553,11.1989,0.0059,0.0346,9.8066,-0.112,-0.0915,0.0461,-18.75,-33.25,15.88,338.09,-83.94,-148.9
5471,52.567715,-1.514074,134.2,19.66,3,115.81,23 / 23,547110,2020-01-08 17:41:20:703,-0.1645,1.082,7.6479,0.0321,-0.0524,9.8064,-0.2747,0.2658,-0.1027,-18.44,-33.37,15.13,339.06,-84.1,-147.68
5472,52.567715,-1.514074,134.2,19.66,3,115.81,23 / 23,547210,2020-01-08 17:41:20:803,-0.2538,1.6703,8.0935,0.0136,-0.012,9.8066,-0.2165,0.1964,-0.0822,-18.69,-33.19,14.94,336.99,-83.86,-147.91
5473,52.567715,-1.514074,134.2,19.66,3,115.81,24 / 25,547310,2020-01-08 17:41:20:903,-0.3623,-2.1599,12.3388,0.0429,-0.0602,9.8063,-0.1485,0.113,-0.1534,-19.0,-33.62,15.19,335.92,-83.71,-148.64
5474,52.567715,-1.514074,134.2,19.66,3,115.81,24 / 25,547409,2020-01-08 17:41:21:002,0.4066,1.0281,9.4574,0.0476,-0.0242,9.8065,-0.2095,0.1185,0.0558,-19.06,-33.19,15.31,335.27,-83.84,-149.38
5475,52.567715,-1.514074,134.2,19.66,3,115.81,24 / 25,547510,2020-01-08 17:41:21:103,0.5068,-1.2425,10.7393,0.0408,0.0132,9.8065,-0.1399,-0.1976,0.2233,-18.5,-33.37,15.19,338.64,-83.88,-147.92
5476,52.567715,-1.514074,134.2,19.66,3,115.81,24 / 25,547610,2020-01-08 17:41:21:203,-1.144,-1.382,8.5878,0.0068,-0.0303,9.8066,-0.117,0.1934,-0.0827,-18.81,-33.25,15.44,335.81,-83.77,-148.87
5477,52.567715,-1.514074,134.2,19.66,3,115.81,24 / 25,547710,2020-01-08 17:41:21:303,-1.0735,-2.7353,10.0714,0.0579,0.0162,9.8064,-0.1121,-0.4352,0.1828,-18.5,-33.37,15.19,337.25,-83.89,-149.11
5478,52.567715,-1.514074,134.2,19.66,3,115.81,24 / 25,547809,2020-01-08 17:41:21:402,0.1588,-0.7424,8.962,0.0335,-0.0091,9.8065,-0.1049,-0.0567,0.1307,-18.62,-33.06,15.38,332.53,-83.89,-151.78
5479,52.567715,-1.514074,134.2,19.66,3,115.81,24 / 25,547910,2020-01-08 17:41:21:503,3.1377,4.864,8.0326,0.0148,0.0837,9.8063,0.2331,-0.5767,0.3148,-18.19,-32.75,15.81,335.37,-84.25,-152.87
5480,52.567715,-1.514074,134.2,19.66,3,115.81,24 / 25,548010,2020-01-08 17:41:21:603,-2.4902,-5.1513,13.4178,-0.0256,0.0274,9.8065,0.4305,-0.4245,0.178,-18.56,-33.19,15.44,332.52,-83.93,-151.82
5481,52.567715,-1.514074,134.2,19.66,3,115.81,24 / 25,548110,2020-01-08 17:41:21:703,-5.0674,0.4305,4.4785,0.02,0.087,9.8062,-0.41,-0.4595,0.445,-18.37,-33.56,15.25,332.46,-83.56,-152.88
5482,52.567715,-1.514074,134.2,19.66,3,115.81,24 / 25,548210,2020-01-08 17:41:21:803,0.4643,-2.6077,12.8228,-0.1251,0.0979,9.8053,0.3882,-0.228,0.2357,-18.19,-33.06,16.0,335.89,-84.24,-152.41
5483,52.567715,-1.514074,134.2,19.66,3,115.81,25 / 25,548310,2020-01-08 17:41:21:903,2.4524,0.9698,10.1479,0.1294,0.0278,9.8057,-0.4255,-0.5868,0.477,-18.56,-33.06,15.94,335.82,-83.95,-150.87
5484,52.56702,-1.511737,133.98,19.97,3,116.23,25 / 25,548410,2020-01-08 17:41:22:003,-4.779,-2.8439,8.294,0.0159,0.0142,9.8066,-0.1111,-0.3868,0.2342,-18.62,-33.0,15.69,331.25,-83.86,-154.78
5485,52.56702,-1.511737,133.98,19.97,3,116.23,25 / 25,548510,2020-01-08 17:41:22:103,0.3113,-0.2551,8.9359,0.088,0.0377,9.8061,-0.1847,-0.4846,0.3352,-18.5,-33.12,15.31,327.38,-83.83,-157.58
5486,52.56702,-1.511737,133.98,19.97,3,116.23,25 / 25,548610,2020-01-08 17:41:22:203,-3.6289,-2.969,8.2251,0.0438,0.0329,9.8064,-0.2252,-0.512,0.3771,-18.5,-33.37,15.69,332.23,-83.9,-155.37
5487,52.56702,-1.511737,133.98,19.97,3,116.23,25 / 25,548709,2020-01-08 17:41:22:302,3.5555,3.2718,10.2451,0.0615,0.0538,9.8063,-0.0649,-0.3874,0.2763,-18.37,-33.69,14.75,334.47,-84.0,-151.46
5488,52.56702,-1.511737,133.98,19.97,3,116.23,25 / 25,548810,2020-01-08 17:41:22:403,-1.7204,-0.5649,9.5407,0.041,0.0428,9.8064,-0.0004,-0.576,0.3139,-18.87,-33.69,15.06,328.86,-84.16,-155.05
5489,52.56702,-1.511737,133.98,19.97,3,116.23,25 / 25,548909,2020-01-08 17:41:22:502,4.0685,3.5722,9.9346,0.0211,0.0537,9.8064,0.0501,-0.0965,0.0911,-18.25,-33.94,15.81,332.54,-83.93,-155.01
5490,52.56702,-1.511737,133.98,19.97,3,116.23,25 / 25,549009,2020-01-08 17:41:22:602,-0.6235,0.313,10.3014,0.034,0.0357,9.8064,-0.0062,-0.3865,0.2042,-17.94,-33.31,16.06,329.44,-84.02,-157.89
5491,52.56702,-1.511737,133.98,19.97,3,116.23,25 / 25,549109,2020-01-08 17:41:22:702,2.082,3.414,8.688,-0.0067,-0.0327,9.8066,-0.0824,0.2389,-0.1811,-18.81,-33.5,15.81,330.37,-83.92,-155.6
5492,52.56702,-1.511737,133.98,19.97,3,116.23,25 / 25,549210,2020-01-08 17:41:22:803,-0.9879,0.1655,8.5642,0.0344,0.0232,9.8065,-0.201,0.0508,0.2122,-18.31,-33.5,15.63,331.37,-83.97,-156.17
5493,52.56702,-1.511737,133.98,19.97,3,116.23,25 / 25,549309,2020-01-08 17:41:22:902,-0.4869,-1.3523,11.4209,0.0363,-0.0307,9.8065,-0.0193,0.2687,-0.0383,-18.19,-33.5,16.0,334.7,-83.96,-153.27
5494,52.56702,-1.511737,133.98,19.97,3,116.23,25 / 25,549410,2020-01-08 17:41:23:003,-1.2663,0.055,9.3687,0.0531,-0.0491,9.8063,-0.1544,-0.0363,-0.0314,-18.25,-33.81,15.94,333.31,-84.02,-154.41
5495,52.56702,-1.511737,133.98,19.97,3,116.23,25 / 25,549509,2020-01-08 17:41:23:102,1.2281,0.0286,9.9434,0.002,0.039,9.8065,0.1355,-0.0475,0.196,-18.31,-33.62,15.75,330.37,-83.77,-156.76
5496,52.56702,-1.511737,133.98,19.97,3,116.23,25 / 25,549610,2020-01-08 17:41:23:203,-0.0911,-0.8808,10.5262,-0.0059,-0.0169,9.8066,0.0017,-0.0935,-0.0808,-18.37,-33.69,15.31,329.29,-83.59,-155.61
5497,52.56702,-1.511737,133.98,19.97,3,116.23,25 / 25,549710,2020-01-08 17:41:23:303,1.2499,0.127,9.5587,-0.0098,0.0182,9.8066,-0.0097,-0.2133,0.079,-18.5,-33.44,15.56,331.37,-83.68,-155.97
5498,52.56702,-1.511737,133.98,19.97,3,116.23,25 / 25,549810,2020-01-08 17:41:23:403,-1.6375,-1.485,8.8356,0.0461,0.0205,9.8065,-0.1575,-0.2278,0.2384,-18.44,-33.25,15.63,331.82,-83.74,-155.62
5499,52.56702,-1.511737,133.98,19.97,3,116.23,25 / 25,549910,2020-01-08 17:41:23:503,3.0589,1.7168,10.8094,0.0511,0.0166,9.8065,0.0036,-0.2358,0.0508,-18.87,-33.62,15.13,328.96,-83.67,-154.59
5500,52.56702,-1.511737,133.98,19.97,3,116.23,25 / 25,550010,2020-01-08 17:41:23:603,-0.4958,-1.2823,9.4795,0.0653,0.022,9.8064,-0.1522,-0.3395,0.3512,-18.25,-33.31,15.63,329.27,-83.6,-157.73
5501,52.56702,-1.511737,133.98,19.97,3,116.23,25 / 25,550110,2020-01-08 17:41:23:703,1.6517,1.6195,9.8833,0.0272,0.0246,9.8066,-0.0204,-0.1299,0.1701,-18.69,-33.5,15.38,327.36,-83.64,-156.09
5502,52.56702,-1.511737,133.98,19.97,3,116.23,25 / 25,550210,2020-01-08 17:41:23:803,-0.888,-0.0331,9.6365,0.0121,0.0123,9.8065,0.035,-0.1561,0.0285,-18.44,-33.25,15.81,331.96,-83.5,-155.34
5503,52.56702,-1.511737,133.98,19.97,3,116.23,25 / 25,550310,2020-01-08 17:41:23:903,2.6273,1.3509,9.2445,0.0112,-0.0185,9.8065,-0.0904,0.2345,-0.2007,-18.87,-33.12,16.31,328.2,-83.46,-157.16
5504,52.56702,-1.511737,133.98,19.97,3,116.23,25 / 25,550410,2020-01-08 17:41:24:003,0.0249,0.564,8.1175,0.0258,0.013,9.8066,-0.2351,0.1755,0.0646,-18.37,-33.56,15.81,328.45,-83.61,-158.3
5505,52.56702,-1.511737,133.98,19.97,3,116.23,25 / 25,550510,2020-01-08 17:41:24:103,-2.6625,-3.0757,11.16,-0.0073,-0.0537,9.8064,-0.0121,0.4542,-0.3007,-18.25,-33.06,15.44,327.99,-83.8,-157.04
5506,52.56702,-1.511737,133.98,19.97,3,116.23,25 / 25,550610,2020-01-08 17:41:24:203,-0.5124,-2.9179,10.9906,0.018,-0.0314,9.8066,-0.0099,0.2397,-0.1585,-18.69,-33.0,14.88,325.19,-83.49,-157.86
5507,52.56702,-1.511737,133.98,19.97,3,116.23,25 / 25,550710,2020-01-08 17:41:24:303,-0.9886,-1.9875,9.9213,-0.0138,-0.0431,9.8065,-0.0936,0.4885,-0.2082,-18.31,-33.56,15.19,326.28,-83.32,-157.96
5508,52.56702,-1.511737,133.98,19.97,3,116.23,25 / 25,550810,2020-01-08 17:41:24:403,2.9585,2.3066,8.4684,-0.0172,-0.0132,9.8066,-0.0812,0.2997,-0.1933,-18.69,-34.06,15.0,324.56,-83.56,-158.3
5509,52.56702,-1.511737,133.98,19.97,3,116.23,25 / 25,550910,2020-01-08 17:41:24:503,1.6352,1.1296,10.4065,-0.0519,-0.0707,9.8062,0.0315,0.4269,-0.3919,-18.69,-35.06,14.5,323.25,-83.85,-159.56
5510,52.56702,-1.511737,133.98,19.97,3,116.23,25 / 25,551010,2020-01-08 17:41:24:603,1.0451,0.0721,9.444,0.0061,-0.0216,9.8066,-0.0431,0.1814,0.015,-18.87,-33.81,15.44,326.61,-83.8,-156.73
5511,52.56702,-1.511737,133.98,19.97,3,116.23,25 / 25,551110,2020-01-08 17:41:24:703,-2.0701,-0.7741,9.5378,-0.0227,-0.0123,9.8066,0.0825,0.1362,0.0262,-19.06,-33.56,15.31,328.7,-83.83,-154.94
5512,52.56702,-1.511737,133.98,19.97,3,116.23,25 / 25,551210,2020-01-08 17:41:24:803,0.8399,0.6337,10.9805,-0.0203,-0.0248,9.8065,0.1422,0.1316,-0.1804,-18.25,-33.87,15.06,331.81,-83.65,-153.49
5513,52.56702,-1.511737,133.98,19.97,3,116.23,25 / 25,551309,2020-01-08 17:41:24:902,-0.8572,-0.456,9.8193,-0.0093,-0.0013,9.8066,0.0302,0.0039,-0.0346,-18.44,-33.62,15.0,330.1,-83.6,-154.92
5514,52.56702,-1.511737,133.98,19.97,3,116.23,25 / 25,551409,2020-01-08 17:41:25:002,-0.5235,-1.2954,10.9284,-0.0073,0.0075,9.8066,0.0925,0.0,0.0214,-18.44,-33.69,15.38,329.04,-83.61,-155.84
5515,52.56702,-1.511737,133.98,19.97,3,116.23,25 / 25,551510,2020-01-08 17:41:25:103,-0.7403,-0.6679,9.1281,-0.0201,0.0477,9.8065,0.0561,-0.0382,0.1482,-18.19,-34.12,15.63,330.93,-83.52,-156.1
5516,52.56702,-1.511737,133.98,19.97,3,116.23,25 / 25,551610,2020-01-08 17:41:25:203,0.8649,0.0609,10.384,-0.0557,0.0061,9.8064,0.0788,-0.0656,-0.126,-18.31,-33.75,15.13,330.35,-83.88,-154.92
5517,52.56702,-1.511737,133.98,19.97,3,116.23,25 / 25,551709,2020-01-08 17:41:25:302,-0.6679,0.8284,9.254,-0.0093,0.0109,9.8065,0.018,-0.0399,0.1334,-18.12,-33.5,14.81,331.15,-83.98,-154.43
5518,52.56702,-1.511737,133.98,19.97,3,116.23,25 / 25,551810,2020-01-08 17:41:25:403,0.0435,0.8486,9.899,-0.0223,-0.0294,9.8065,0.0796,0.1221,-0.1726,-18.69,-33.75,14.81,332.38,-83.89,-151.8
5519,52.56702,-1.511737,133.98,19.97,3,116.23,25 / 25,551910,2020-01-08 17:41:25:503,-2.4754,-0.655,9.1884,-0.0377,-0.0325,9.8065,0.1212,0.2131,-0.2584,-18.19,-33.75,15.13,333.86,-83.84,-151.88
5520,52.56702,-1.511737,133.98,19.97,3,116.23,25 / 25,552010,2020-01-08 17:41:25:603,0.6917,2.2772,10.3565,-0.0327,0.0028,9.8066,0.1436,0.1604,-0.1447,-19.12,-33.81,14.63,329.54,-83.79,-154.18
5521,52.56702,-1.511737,133.98,19.97,3,116.23,25 / 25,552109,2020-01-08 17:41:25:702,0.476,-0.0068,9.9952,-0.0247,-0.0301,9.8065,0.0149,0.1804,-0.1838,-18.19,-33.37,15.06,329.96,-83.84,-155.36
5522,52.56702,-1.511737,133.98,19.97,3,116.23,25 / 25,552210,2020-01-08 17:41:25:803,1.6095,1.1698,8.9416,0.0,-0.0091,9.8066,-0.0363,0.2517,-0.0469,-18.69,-33.69,14.88,329.54,-83.84,-154.22
5523,52.56702,-1.511737,133.98,19.97,3,116.23,25 / 25,552310,2020-01-08 17:41:25:903,-1.2539,-1.3631,9.7197,-0.0082,-0.0195,9.8065,0.0562,0.0887,-0.0671,-18.31,-33.5,15.13,331.33,-83.78,-154.13
5524,52.56702,-1.511737,133.98,19.97,3,116.23,25 / 25,552410,2020-01-08 17:41:26:003,1.7493,1.1318,9.1912,0.0097,-0.0513,9.8065,-0.0459,0.4173,-0.2183,-18.44,-33.44,14.38,328.81,-83.55,-154.07
5525,52.56702,-1.511737,133.98,19.97,3,116.23,25 / 25,552510,2020-01-08 17:41:26:103,-1.7411,-1.3574,10.993,-0.0176,-0.0192,9.8065,0.0598,0.2577,-0.1014,-18.37,-33.31,14.81,331.51,-83.48,-153.75
5526,52.56702,-1.511737,133.98,19.97,3,116.23,25 / 25,552610,2020-01-08 17:41:26:203,2.2656,1.2673,10.8328,-0.022,-0.0362,9.8065,0.1017,0.2471,-0.18,-18.25,-33.69,15.25,331.94,-83.49,-153.27
5527,52.56702,-1.511737,133.98,19.97,3,116.23,25 / 25,552709,2020-01-08 17:41:26:302,-0.0866,0.1234,10.6339,-0.052,-0.0312,9.8064,0.096,0.2949,-0.246,-18.69,-33.94,15.69,331.53,-83.43,-154.13
5528,52.56702,-1.511737,133.98,19.97,3,116.23,25 / 25,552810,2020-01-08 17:41:26:403,-0.1532,1.2336,9.1983,-0.0103,-0.023,9.8066,-0.0428,0.1695,-0.1546,-19.19,-33.44,15.19,331.13,-83.45,-152.69
5529,52.56702,-1.511737,133.98,19.97,3,116.23,25 / 25,552909,2020-01-08 17:41:26:502,-1.9652,-1.8771,11.4182,-0.0003,-0.0494,9.8065,-0.0661,0.2273,-0.1669,-18.31,-33.87,15.75,334.18,-83.54,-153.34
5530,52.56702,-1.511737,133.98,19.97,3,116.23,25 / 25,553010,2020-01-08 17:41:26:603,-2.09,-0.9966,9.2402,0.0423,-0.0038,9.8065,-0.1533,-0.0809,0.1169,-19.44,-33.75,15.31,329.47,-83.34,-153.9
5531,52.56702,-1.511737,133.98,19.97,3,116.23,25 / 25,553110,2020-01-08 17:41:26:703,1.0311,0.2293,11.1879,0.0068,-0.0096,9.8065,-0.0514,0.0058,-0.0402,-18.44,-33.94,15.44,332.1,-83.32,-153.01
5532,52.56702,-1.511737,133.98,19.97,3,116.23,25 / 25,553209,2020-01-08 17:41:26:802,-0.6728,0.0549,8.5187,0.0431,0.0031,9.8065,-0.2194,-0.202,0.1448,-18.37,-33.5,15.13,332.45,-83.45,-152.94
5533,52.56702,-1.511737,133.98,19.97,3,116.23,25 / 25,553310,2020-01-08 17:41:26:903,0.8382,2.2512,10.3581,0.0078,0.0061,9.8066,-0.0016,0.0115,-0.0317,-19.06,-34.12,15.13,333.31,-83.59,-150.79
5534,52.56702,-1.511737,133.98,19.97,3,116.23,25 / 25,553410,2020-01-08 17:41:27:003,-1.6509,-2.1242,10.9758,0.0488,0.0217,9.8064,0.0568,-0.2521,0.2174,-18.69,-33.5,15.06,331.67,-83.47,-152.24
5535,52.56702,-1.511737,133.98,19.97,3,116.23,25 / 25,553510,2020-01-08 17:41:27:103,0.6002,1.5021,8.5919,-0.0059,0.0431,9.8065,0.1744,-0.1347,0.1115,-18.5,-33.56,15.75,335.03,-83.17,-152.38
5536,52.56702,-1.511737,133.98,19.97,3,116.23,25 / 25,553609,2020-01-08 17:41:27:202,0.6132,-0.693,8.9657,-0.0056,0.0183,9.8065,-0.0121,-0.1316,0.015,-18.5,-33.75,14.88,332.11,-83.28,-152.97
5537,52.56702,-1.511737,133.98,19.97,3,116.23,25 / 25,553710,2020-01-08 17:41:27:303,-0.4501,0.2964,8.9529,-0.0209,0.0166,9.8066,-0.0845,-0.1355,0.0912,-18.87,-33.62,15.5,333.87,-83.45,-152.14
5538,52.56702,-1.511737,133.98,19.97,3,116.23,25 / 25,553809,2020-01-08 17:41:27:402,0.5437,0.3076,10.3266,-0.0327,0.02,9.8065,0.1677,0.0321,-0.0505,-18.37,-33.62,14.88,336.57,-83.76,-149.51
5539,52.56702,-1.511737,133.98,19.97,3,116.23,25 / 25,553910,2020-01-08 17:41:27:503,0.3503,1.4828,8.3093,-0.0349,-0.0296,9.8064,-0.0757,0.3009,-0.2531,-19.12,-33.75,15.5,335.87,-83.7,-150.58
5540,52.56702,-1.511737,133.98,19.97,3,116.23,25 / 25,554010,2020-01-08 17:41:27:603,0.4815,-1.2437,11.8559,-0.0296,0.0039,9.8065,0.0902,0.0124,0.0089,-18.56,-33.56,15.31,333.64,-83.65,-150.55
5541,52.56702,-1.511737,133.98,19.97,3,116.23,25 / 25,554110,2020-01-08 17:41:27:703,-0.4467,-3.5854,12.8467,0.0821,-0.0833,9.8059,-0.3116,0.4894,-0.0706,-18.56,-33.75,15.31,331.16,-83.01,-152.21
5542,52.56702,-1.511737,133.98,19.97,3,116.23,25 / 25,554210,2020-01-08 17:41:27:803,-0.356,0.7092,8.7584,0.039,-0.0573,9.8063,-0.5199,0.3734,-0.1573,-18.44,-33.56,15.63,335.37,-83.02,-152.0
5543,52.56702,-1.511737,133.98,19.97,3,116.23,24 / 25,554310,2020-01-08 17:41:27:903,-1.3495,-3.7651,11.4232,0.0125,-0.0475,9.8064,-0.0613,0.3108,-0.1231,-19.06,-34.31,15.75,335.03,-83.16,-150.96
5544,52.56702,-1.511737,133.98,19.97,3,116.23,24 / 25,554410,2020-01-08 17:41:28:003,2.969,0.7906,8.9166,-0.0162,-0.0357,9.8065,-0.0012,0.3192,-0.3173,-18.81,-33.56,15.5,334.94,-83.4,-151.19
5545,52.56702,-1.511737,133.98,19.97,3,116.23,24 / 25,554510,2020-01-08 17:41:28:103,-0.2483,-0.403,10.0069,0.0354,-0.0154,9.8065,-0.1218,-0.1775,0.0649,-18.44,-34.37,15.13,332.44,-83.64,-152.94
5546,52.56702,-1.511737,133.98,19.97,3,116.23,24 / 25,554610,2020-01-08 17:41:28:203,-2.8563,0.2697,7.6952,0.0589,-0.0116,9.8064,-0.2861,-0.1317,0.1783,-18.69,-34.12,15.5,331.95,-83.48,-153.79
5547,52.56702,-1.511737,133.98,19.97,3,116.23,24 / 25,554709,2020-01-08 17:41:28:302,0.4834,1.1208,11.1843,0.0265,0.012,9.8066,0.0837,-0.149,0.0741,-18.81,-33.75,15.31,331.61,-83.5,-152.18
5548,52.56702,-1.511737,133.98,19.97,3,116.23,24 / 25,554809,2020-01-08 17:41:28:402,-1.2674,-0.0826,7.9355,0.0633,-0.0048,9.8064,-0.146,-0.1458,0.0998,-18.44,-34.0,15.25,330.05,-83.43,-154.83
5549,52.56702,-1.511737,133.98,19.97,3,116.23,24 / 25,554910,2020-01-08 17:41:28:503,1.0108,0.5342,9.91,-0.0074,0.0207,9.8065,-0.0934,-0.0485,0.0122,-18.37,-33.62,15.19,331.13,-83.84,-154.22
5550,52.56702,-1.511737,133.98,19.97,3,116.23,24 / 25,555010,2020-01-08 17:41:28:603,-0.4271,0.1889,7.615,0.0217,0.0101,9.8066,-0.2216,0.0014,0.1027,-18.06,-33.69,14.56,331.81,-84.04,-153.79
5551,52.56702,-1.511737,133.98,19.97,3,116.23,24 / 25,555110,2020-01-08 17:41:28:703,0.258,1.0217,9.811,0.0427,-0.0167,9.8065,-0.1368,-0.1539,0.0197,-18.06,-34.37,15.06,334.18,-84.2,-151.84
5552,52.56702,-1.511737,133.98,19.97,3,116.23,24 / 25,555211,2020-01-08 17:41:28:804,-0.9247,-1.1829,9.795,0.0569,0.016,9.8065,-0.1114,-0.1554,0.2343,-18.31,-33.56,14.88,331.76,-84.0,-153.8
5553,52.56702,-1.511737,133.98,19.97,3,116.23,25 / 25,555310,2020-01-08 17:41:28:903,1.7572,2.8259,10.8377,0.0563,0.0259,9.8063,-0.0631,-0.1786,0.1309,-18.87,-33.94,15.88,334.54,-83.95,-151.88
5554,52.56702,-1.511737,133.98,19.97,3,116.23,25 / 25,555409,2020-01-08 17:41:29:002,-1.384,-0.6175,10.0889,0.0537,0.0247,9.8064,-0.1875,-0.3252,0.2604,-18.56,-33.5,15.0,327.61,-84.02,-156.17
5555,52.56702,-1.511737,133.98,19.97,3,116.23,25 / 25,555510,2020-01-08 17:41:29:103,1.4251,3.0228,10.9516,0.0586,0.038,9.8063,-0.0406,-0.1393,0.2541,-17.94,-33.37,14.69,327.07,-84.1,-158.08
5556,52.56702,-1.511737,133.98,19.97,3,116.23,25 / 25,555610,2020-01-08 17:41:29:203,-1.1834,0.2388,8.3919,0.0433,0.0026,9.8065,-0.1803,-0.3684,0.0988,-18.12,-33.12,15.38,328.44,-84.05,-156.84
5557,52.56702,-1.511737,133.98,19.97,3,116.23,25 / 25,555710,2020-01-08 17:41:29:303,0.3572,2.0309,9.266,0.0071,-0.0127,9.8066,-0.0905,0.0595,0.0641,-18.81,-33.75,14.81,329.02,-84.19,-154.93
5558,52.56702,-1.511737,133.98,19.97,3,116.23,25 / 25,555809,2020-01-08 17:41:29:402,-2.1616,-1.4933,10.1297,0.0191,0.0242,9.8066,-0.0254,-0.2351,0.1887,-18.31,-34.12,14.81,331.66,-84.07,-153.93
5559,52.56702,-1.511737,133.98,19.97,3,116.23,25 / 25,555910,2020-01-08 17:41:29:503,-0.1142,-0.4952,9.9753,0.0138,-0.0074,9.8066,-0.2199,0.0975,-0.0689,-18.75,-33.62,14.31,328.61,-84.11,-153.22
5560,52.56702,-1.511737,133.98,19.97,3,116.23,25 / 25,556010,2020-01-08 17:41:29:603,-0.7267,-0.8824,10.5932,-0.0394,0.0352,9.8065,0.1112,0.0077,0.0039,-18.94,-34.19,14.75,332.24,-84.45,-152.31
5561,52.56702,-1.511737,133.98,19.97,3,116.23,25 / 25,556110,2020-01-08 17:41:29:703,-1.0036,-0.4379,8.5843,-0.0187,-0.0359,9.8065,-0.1327,0.2035,-0.1475,-18.62,-33.87,13.94,332.27,-84.42,-150.26
5562,52.56702,-1.511737,133.98,19.97,3,116.23,25 / 25,556210,2020-01-08 17:41:29:803,-0.3879,2.7346,10.2431,-0.0275,0.001,9.8066,0.1507,0.2143,-0.0732,-18.19,-33.87,14.63,335.93,-84.48,-150.51
5563,52.56702,-1.511737,133.98,19.97,3,116.23,25 / 25,556310,2020-01-08 17:41:29:903,0.1286,-1.1523,9.358,0.053,-0.0426,9.8063,-0.112,-0.0525,-0.006,-19.0,-33.56,14.56,332.77,-84.18,-151.66
5564,52.56702,-1.511737,133.98,19.97,3,116.23,25 / 25,556410,2020-01-08 17:41:30:003,-0.4081,-0.829,10.5974,0.0002,0.0069,9.8066,0.0789,-0.1142,0.1747,-18.25,-34.62,15.06,332.08,-83.85,-153.29
5565,52.56702,-1.511737,133.98,19.97,3,116.23,25 / 25,556510,2020-01-08 17:41:30:103,2.8404,3.9383,8.9812,0.0208,0.0662,9.8064,-0.0191,-0.5708,0.3565,-18.81,-33.81,15.06,333.91,-83.73,-150.38
5566,52.56702,-1.511737,133.98,19.97,3,116.23,25 / 25,556610,2020-01-08 17:41:30:203,0.8639,2.1659,9.9886,0.0056,0.0096,9.8066,-0.0775,-0.2745,0.2494,-19.0,-33.69,15.0,333.6,-83.95,-150.79
5567,52.56702,-1.511737,133.98,19.97,3,116.23,25 / 25,556710,2020-01-08 17:41:30:303,2.5347,1.9609,10.8356,0.0663,0.0382,9.8063,-0.06,-0.492,0.312,-19.06,-33.25,14.94,331.77,-83.95,-152.48
5568,52.56702,-1.511737,133.98,19.97,3,116.23,25 / 25,556810,2020-01-08 17:41:30:403,-1.7707,-1.066,8.1538,0.0478,0.0083,9.8065,-0.2056,-0.5011,0.2218,-18.5,-33.62,15.13,334.39,-83.78,-151.38
5569,52.56702,-1.511737,133.98,19.97,3,116.23,25 / 25,556909,2020-01-08 17:41:30:502,4.7925,4.8896,10.1749,0.0158,-0.0217,9.8065,-0.0225,0.1632,-0.2653,-18.62,-33.62,14.88,334.19,-83.8,-150.18
5570,52.56702,-1.511737,133.98,19.97,3,116.23,25 / 25,557009,2020-01-08 17:41:30:602,-6.9459,-5.3964,8.0448,0.1208,0.0719,9.8056,-0.249,-0.828,0.5802,-18.69,-33.44,14.44,327.06,-83.73,-154.39
5571,52.56702,-1.511737,133.98,19.97,3,116.23,25 / 25,557110,2020-01-08 17:41:30:703,-0.8002,-0.5655,9.6924,-0.0251,0.0063,9.8066,0.1682,0.3654,-0.2932,-18.5,-33.31,14.31,332.51,-83.75,-151.05
5572,52.56702,-1.511737,133.98,19.97,3,116.23,25 / 25,557210,2020-01-08 17:41:30:803,-4.943,-6.1565,9.742,0.0937,0.083,9.8058,-0.0234,-0.7556,0.5336,-19.19,-33.75,14.69,331.23,-83.9,-152.8
5573,52.566303,-1.509317,133.7,20.11,3,115.97,25 / 25,557310,2020-01-08 17:41:30:903,3.8876,3.4198,9.356,-0.0117,0.0019,9.8066,-0.0219,0.3056,-0.1713,-18.81,-33.69,15.25,335.69,-83.83,-148.91
5574,52.566303,-1.509317,133.7,20.11,3,115.97,25 / 25,557410,2020-01-08 17:41:31:003,-0.7798,0.3861,9.2251,-0.0046,0.0191,9.8066,0.1475,-0.1939,0.1373,-19.31,-33.62,15.13,337.2,-83.7,-147.54
5575,52.566303,-1.509317,133.7,20.11,3,115.97,25 / 25,557510,2020-01-08 17:41:31:103,2.9331,2.874,8.6848,-0.0183,-0.0709,9.8063,0.0182,0.4142,-0.2982,-18.62,-33.5,14.75,337.22,-83.5,-147.51
5576,52.566303,-1.509317,133.7,20.11,3,115.97,25 / 25,557610,2020-01-08 17:41:31:203,-1.2426,-1.4417,10.2591,-0.0147,0.0099,9.8065,0.0176,-0.2797,0.1063,-18.69,-33.37,14.63,335.53,-83.55,-148.99
5577,52.566303,-1.509317,133.7,20.11,3,115.97,25 / 25,557709,2020-01-08 17:41:31:302,-0.9452,-0.2652,9.9665,-0.0064,-0.0227,9.8065,-0.0396,0.2497,-0.0727,-18.56,-33.75,14.75,336.5,-83.5,-148.02
5578,52.566303,-1.509317,133.7,20.11,3,115.97,25 / 25,557810,2020-01-08 17:41:31:403,-2.1652,-2.4907,9.9005,0.0201,0.0303,9.8065,-0.009,-0.395,0.2026,-19.0,-33.12,15.13,337.53,-83.6,-147.31
5579,52.566303,-1.509317,133.7,20.11,3,115.97,25 / 25,557910,2020-01-08 17:41:31:503,1.8474,1.749,9.7986,-0.0341,0.0066,9.8065,0.1554,0.036,-0.0059,-18.87,-33.62,15.06,338.13,-83.82,-146.81
5580,52.566303,-1.509317,133.7,20.11,3,115.97,25 / 25,558010,2020-01-08 17:41:31:603,-3.1306,0.9796,8.2443,-0.0072,0.052,9.8064,0.1586,-0.3271,0.1461,-19.31,-32.19,15.69,340.33,-83.73,-146.95
5581,52.566303,-1.509317,133.7,20.11,3,115.97,25 / 25,558110,2020-01-08 17:41:31:703,0.1788,-1.5088,12.4336,-0.0616,0.0282,9.8064,0.3859,-0.0391,-0.097,-20.06,-32.44,14.56,335.16,-83.97,-148.35
5582,52.566303,-1.509317,133.7,20.11,3,115.97,25 / 25,558210,2020-01-08 17:41:31:803,-1.0458,-1.1786,9.558,-0.0452,0.0517,9.8063,0.2096,-0.1561,0.0393,-18.56,-32.12,14.5,335.11,-84.12,-149.8
5583,52.566303,-1.509317,133.7,20.11,3,115.97,24 / 24,558309,2020-01-08 17:41:31:902,-0.6132,0.3929,10.3423,-0.0455,0.0167,9.8064,0.1483,-0.0471,-0.0071,-19.19,-32.12,14.81,333.88,-84.03,-150.81
5584,52.566303,-1.509317,133.7,20.11,3,115.97,24 / 24,558410,2020-01-08 17:41:32:003,-1.2039,0.7484,7.4799,-0.0505,0.0448,9.8063,0.2251,-0.1147,0.1342,-18.12,-32.81,14.56,334.62,-83.85,-151.35
5585,52.566303,-1.509317,133.7,20.11,3,115.97,24 / 24,558509,2020-01-08 17:41:32:102,3.0608,2.9909,11.0133,-0.0515,-0.0331,9.8064,0.191,0.3581,-0.2454,-17.62,-32.87,14.75,337.97,-83.9,-148.5
5586,52.566303,-1.509317,133.7,20.11,3,115.97,24 / 24,558610,2020-01-08 17:41:32:203,-3.6481,-2.4335,8.017,0.0143,0.021,9.8066,-0.1086,-0.2367,0.2339,-19.0,-32.94,14.19,333.18,-83.86,-149.19
5587,52.566303,-1.509317,133.7,20.11,3,115.97,24 / 24,558709,2020-01-08 17:41:32:302,-0.8003,-0.672,9.6092,-0.0791,-0.052,9.8061,0.1122,0.5712,-0.3849,-18.5,-33.69,14.25,336.94,-83.86,-147.23
5588,52.566303,-1.509317,133.7,20.11,3,115.97,24 / 24,558809,2020-01-08 17:41:32:402,-4.0966,-3.6523,10.3483,0.0109,0.0088,9.8066,0.0004,-0.3033,0.128,-18.69,-34.12,14.69,333.63,-83.94,-150.75
5589,52.566303,-1.509317,133.7,20.11,3,115.97,24 / 24,558910,2020-01-08 17:41:32:503,2.3893,2.5675,10.1019,-0.0361,-0.0583,9.8064,0.0746,0.4228,-0.2273,-18.31,-33.81,15.0,336.09,-83.8,-149.94
5590,52.566303,-1.509317,133.7,20.11,3,115.97,24 / 24,559010,2020-01-08 17:41:32:603,-0.3214,1.7538,9.1781,-0.014,0.0293,9.8065,0.1296,-0.427,0.1447,-19.0,-33.62,15.06,332.79,-83.76,-151.36
5591,52.566303,-1.509317,133.7,20.11,3,115.97,24 / 24,559110,2020-01-08 17:41:32:703,1.7921,3.4942,9.3376,-0.0153,-0.0167,9.8066,0.0441,0.1266,-0.0542,-18.0,-33.12,14.38,332.39,-83.83,-151.21
5592,52.566303,-1.509317,133.7,20.11,3,115.97,24 / 24,559210,2020-01-08 17:41:32:803,-0.7167,-0.3817,9.3086,0.0024,0.0386,9.8065,-0.0162,-0.4592,0.2036,-18.31,-33.75,14.75,335.51,-83.88,-150.49
5593,52.566303,-1.509317,133.7,20.11,3,115.97,25 / 25,559309,2020-01-08 17:41:32:902,-2.3808,-1.932,10.2042,-0.0247,0.019,9.8065,0.0332,-0.1178,0.0764,-18.56,-33.87,14.56,334.83,-84.2,-149.88
5594,52.566303,-1.509317,133.7,20.11,3,115.97,25 / 25,559410,2020-01-08 17:41:33:003,-1.4656,-1.1107,9.318,0.0258,0.0493,9.8065,-0.0102,-0.3763,0.2577,-18.81,-34.0,14.81,335.83,-84.13,-148.97
5595,52.566303,-1.509317,133.7,20.11,3,115.97,25 / 25,559510,2020-01-08 17:41:33:103,-0.4348,-0.6136,9.667,0.0011,0.0207,9.8066,0.0146,-0.1831,0.1073,-18.56,-33.69,15.13,333.67,-84.23,-150.91
5596,52.566303,-1.509317,133.7,20.11,3,115.97,25 / 25,559610,2020-01-08 17:41:33:203,2.2439,2.5451,10.5495,0.047,0.0359,9.8064,-0.0657,-0.3499,0.301,-18.81,-34.25,15.06,335.46,-84.1,-149.28
5597,52.566303,-1.509317,133.7,20.11,3,115.97,25 / 25,559709,2020-01-08 17:41:33:302,1.812,0.8532,9.7285,0.0078,-0.0102,9.8066,-0.0154,-0.1009,0.0678,-18.81,-33.06,14.69,334.34,-83.99,-150.28
5598,52.566303,-1.509317,133.7,20.11,3,115.97,25 / 25,559810,2020-01-08 17:41:33:403,-1.2313,-0.6805,9.7448,0.0026,0.0231,9.8065,0.0131,-0.208,0.1625,-18.69,-32.87,15.44,334.95,-84.13,-149.84
5599,52.566303,-1.509317,133.7,20.11,3,115.97,25 / 25,559910,2020-01-08 17:41:33:503,0.0458,1.2407,9.9922,-0.0198,-0.0095,9.8066,0.0522,0.257,-0.206,-18.25,-33.94,14.81,337.82,-84.11,-148.65
5600,52.566303,-1.509317,133.7,20.11,3,115.97,25 / 25,560011,2020-01-08 17:41:33:604,-0.5059,-1.6066,10.5655,-0.0135,-0.0134,9.8066,0.0897,0.0689,-0.1097,-18.62,-33.81,15.56,335.01,-84.02,-151.52
5601,52.566303,-1.509317,133.7,20.11,3,115.97,25 / 25,560110,2020-01-08 17:41:33:703,0.6867,0.2064,9.4451,0.0043,-0.0364,9.8065,0.0629,0.0541,-0.0437,-18.62,-33.31,15.13,331.4,-83.81,-152.71
5602,52.566303,-1.509317,133.7,20.11,3,115.97,25 / 25,560210,2020-01-08 17:41:33:803,-0.6225,1.3002,7.9094,-0.0604,0.0224,9.8064,0.3101,-0.1562,0.0319,-18.69,-33.37,14.44,329.13,-83.68,-152.56
5603,52.566303,-1.509317,133.7,20.11,3,115.97,25 / 25,560310,2020-01-08 17:41:33:903,-1.5026,-1.8472,8.4643,-0.0018,0.0218,9.8066,0.0709,-0.2785,0.1116,-18.81,-33.75,15.19,333.72,-83.89,-150.65
5604,52.566303,-1.509317,133.7,20.11,3,115.97,25 / 25,560410,2020-01-08 17:41:34:003,1.212,1.7362,8.7214,-0.0169,0.0119,9.8066,-0.0349,0.1677,-0.1273,-18.5,-33.69,14.75,334.5,-83.91,-151.37
5605,52.566303,-1.509317,133.7,20.11,3,115.97,25 / 25,560510,2020-01-08 17:41:34:103,0.6067,1.2675,10.0311,0.0039,0.0233,9.8065,-0.0011,-0.1843,0.0805,-18.56,-33.94,15.38,332.46,-83.99,-151.8
5606,52.566303,-1.509317,133.7,20.11,3,115.97,25 / 25,560610,2020-01-08 17:41:34:203,2.9515,3.561,10.4406,-0.0514,-0.0611,9.8063,0.1342,0.586,-0.5394,-18.44,-33.31,14.63,333.82,-84.12,-152.21
5607,52.566303,-1.509317,133.7,20.11,3,115.97,25 / 25,560710,2020-01-08 17:41:34:303,0.8057,0.1629,11.8689,-0.0115,0.004,9.8066,0.1784,0.2093,-0.0266,-18.69,-32.69,15.25,332.4,-83.96,-151.95
5608,52.566303,-1.509317,133.7,20.11,3,115.97,25 / 25,560810,2020-01-08 17:41:34:403,-2.6308,-2.5345,9.0375,-0.0418,-0.0103,9.8065,0.1369,0.5267,-0.2145,-18.5,-33.06,15.13,332.66,-83.8,-153.0
5609,52.566303,-1.509317,133.7,20.11,3,115.97,25 / 25,560910,2020-01-08 17:41:34:503,1.0023,-0.7998,9.85,-0.0487,-0.011,9.8065,0.1717,0.2371,-0.3404,-18.5,-33.56,14.94,333.56,-83.91,-152.18
5610,52.566303,-1.509317,133.7,20.11,3,115.97,25 / 25,561010,2020-01-08 17:41:34:603,-2.062,-0.2038,6.4892,-0.0683,0.0136,9.8063,0.0571,0.2219,-0.0409,-18.81,-33.75,14.88,331.39,-84.28,-152.93
5611,52.566303,-1.509317,133.7,20.11,3,115.97,25 / 25,561110,2020-01-08 17:41:34:703,2.605,1.073,10.7452,-0.0851,-0.0142,9.8062,0.1613,0.4864,-0.2413,-18.56,-33.94,14.19,332.19,-84.35,-150.28
5612,52.566303,-1.509317,133.7,20.11,3,115.97,25 / 25,561210,2020-01-08 17:41:34:803,-1.9252,-2.376,10.9635,0.001,-0.0213,9.8065,0.1283,-0.0379,0.0162,-18.37,-33.44,14.5,336.45,-84.34,-150.07
5613,52.566303,-1.509317,133.7,20.11,3,115.97,25 / 25,561310,2020-01-08 17:41:34:903,5.0304,2.7032,11.408,-0.0441,-0.0469,9.8064,0.2231,0.5195,-0.3184,-18.75,-33.0,14.81,334.7,-83.92,-149.92
5614,52.566303,-1.509317,133.7,20.11,3,115.97,25 / 25,561410,2020-01-08 17:41:35:003,-2.5055,-1.1051,7.6333,-0.0555,0.0422,9.8063,0.1755,-0.1445,0.0055,-18.12,-33.87,14.88,333.09,-83.8,-152.5
5615,52.566303,-1.509317,133.7,20.11,3,115.97,25 / 25,561510,2020-01-08 17:41:35:103,2.0109,1.6763,12.3845,-0.1022,0.0069,9.806,0.3756,0.1926,-0.1639,-18.56,-33.81,14.69,334.18,-84.23,-150.47
5616,52.566303,-1.509317,133.7,20.11,3,115.97,25 / 25,561610,2020-01-08 17:41:35:203,-0.7715,-0.079,9.6822,-0.028,-0.0132,9.8066,-0.0298,0.0966,-0.0259,-18.94,-33.44,14.5,335.91,-84.13,-149.0
5617,52.566303,-1.509317,133.7,20.11,3,115.97,25 / 25,561710,2020-01-08 17:41:35:303,-0.9605,-3.0363,11.3615,-0.037,-0.001,9.8065,0.2181,-0.1366,-0.0435,-18.69,-33.12,14.56,335.84,-84.12,-149.06
5618,52.566303,-1.509317,133.7,20.11,3,115.97,25 / 25,561810,2020-01-08 17:41:35:403,0.9274,1.3693,9.2709,-0.0093,-0.0148,9.8066,0.0818,0.2689,-0.1766,-19.31,-34.12,14.88,333.04,-83.84,-151.2
5619,52.566303,-1.509317,133.7,20.11,3,115.97,25 / 25,561910,2020-01-08 17:41:35:503,1.9177,1.4981,9.4465,0.0085,0.0282,9.8065,-0.0148,-0.1228,-0.0016,-18.5,-34.0,15.19,333.43,-83.8,-152.22
5620,52.566303,-1.509317,133.7,20.11,3,115.97,25 / 25,562010,2020-01-08 17:41:35:603,1.9992,3.0614,9.0155,-0.0371,-0.0655,9.8063,-0.0973,0.4716,-0.3421,-18.5,-33.87,15.0,333.77,-84.05,-152.1
5621,52.566303,-1.509317,133.7,20.11,3,115.97,25 / 25,562110,2020-01-08 17:41:35:703,-2.1964,0.3586,8.4887,0.0295,0.0043,9.8065,-0.1488,-0.0351,0.1055,-18.94,-33.56,14.75,334.32,-83.94,-150.16
5622,52.566303,-1.509317,133.7,20.11,3,115.97,25 / 25,562210,2020-01-08 17:41:35:803,-0.6166,-1.8557,9.8934,-0.0046,-0.023,9.8066,0.064,0.017,-0.0737,-18.75,-34.0,15.0,335.39,-83.67,-149.07
5623,52.566303,-1.509317,133.7,20.11,3,115.97,25 / 25,562311,2020-01-08 17:41:35:904,-1.8459,3.1708,6.051,0.0646,-0.0372,9.8063,-0.2032,0.1147,0.0016,-18.62,-33.69,14.56,334.49,-83.58,-149.78
5624,52.566303,-1.509317,133.7,20.11,3,115.97,25 / 25,562410,2020-01-08 17:41:36:003,0.7515,-0.1319,10.7301,-0.07,0.0636,9.8062,0.5664,-0.4041,0.1175,-18.37,-33.81,15.13,335.41,-83.51,-150.34
5625,52.566303,-1.509317,133.7,20.11,3,115.97,25 / 25,562510,2020-01-08 17:41:36:103,-0.0836,-2.8337,14.1861,-0.0171,0.0132,9.8066,0.3926,-0.135,0.0595,-18.69,-33.75,14.94,333.94,-83.46,-150.17
5626,52.566303,-1.509317,133.7,20.11,3,115.97,25 / 25,562609,2020-01-08 17:41:36:202,-0.014,0.3324,8.2923,-0.0426,0.0592,9.8063,0.0821,-0.1938,0.0435,-18.94,-33.5,15.13,333.03,-83.04,-150.79
5627,52.566303,-1.509317,133.7,20.11,3,115.97,25 / 25,562710,2020-01-08 17:41:36:303,-1.8878,-2.7593,10.3084,-0.0504,0.0581,9.8063,0.1342,-0.3047,0.1479,-18.75,-33.06,15.75,335.88,-83.54,-150.58
5628,52.566303,-1.509317,133.7,20.11,3,115.97,25 / 25,562810,2020-01-08 17:41:36:403,1.8273,0.2386,10.7052,0.0217,0.0035,9.8066,-0.1174,0.0571,-0.0805,-18.56,-33.44,14.81,332.86,-83.55,-151.27
5629,52.566303,-1.509317,133.7,20.11,3,115.97,25 / 25,562910,2020-01-08 17:41:36:503,-3.7427,-3.3538,10.728,0.0668,0.0315,9.8063,-0.2707,-0.4062,0.2428,-19.0,-33.5,15.5,334.05,-83.64,-152.22
5630,52.566303,-1.509317,133.7,20.11,3,115.97,25 / 25,563010,2020-01-08 17:41:36:603,3.4591,0.4111,12.7719,0.0554,-0.0461,9.8063,-0.1119,0.2619,-0.0428,-18.56,-33.62,15.38,332.97,-83.63,-151.11
5631,52.566303,-1.509317,133.7,20.11,3,115.97,25 / 25,563110,2020-01-08 17:41:36:703,0.4922,2.2502,8.28,0.0807,-0.0125,9.8062,-0.3317,0.1062,0.0439,-19.12,-33.56,15.5,334.09,-83.29,-151.84
5632,52.566303,-1.509317,133.7,20.11,3,115.97,25 / 25,563210,2020-01-08 17:41:36:803,-0.7137,-0.5144,11.0207,0.0003,-0.0271,9.8066,-0.0447,0.2624,-0.1297,-17.75,-33.44,15.25,335.81,-83.54,-150.13
5633,52.566303,-1.509317,133.7,20.11,3,115.97,25 / 25,563311,2020-01-08 17:41:36:904,0.8425,2.9684,7.2429,0.0441,-0.0669,9.8063,-0.215,0.3541,-0.2329,-18.12,-33.81,14.94,334.79,-83.4,-150.79
5634,52.566303,-1.509317,133.7,20.11,3,115.97,25 / 25,563410,2020-01-08 17:41:37:003,-0.6145,-2.1432,9.147,-0.0374,-0.0192,9.8065,0.0332,0.1336,-0.1734,-18.25,-33.94,14.56,336.81,-83.69,-149.26
5635,52.566303,-1.509317,133.7,20.11,3,115.97,25 / 25,563509,2020-01-08 17:41:37:102,-1.7194,0.481,9.7386,-0.0107,-0.0157,9.8066,0.0331,0.0553,0.0281,-18.87,-33.87,14.94,335.07,-83.81,-149.43
5636,52.566303,-1.509317,133.7,20.11,3,115.97,25 / 25,563609,2020-01-08 17:41:37:202,0.0754,0.3389,10.0213,-0.0242,0.0024,9.8066,0.2113,0.0505,-0.0668,-19.06,-33.81,15.56,337.52,-83.65,-149.13
5637,52.566303,-1.509317,133.7,20.11,3,115.97,25 / 25,563710,2020-01-08 17:41:37:303,0.0538,-0.4652,11.4252,0.0218,-0.0058,9.8066,-0.0212,-0.1036,0.0385,-19.44,-33.37,15.0,334.14,-83.47,-150.12
5638,52.566303,-1.509317,133.7,20.11,3,115.97,25 / 25,563810,2020-01-08 17:41:37:403,0.975,0.3221,10.2143,-0.0159,0.0093,9.8066,0.0919,0.0602,0.0119,-18.81,-33.31,15.63,335.97,-83.45,-150.45
5639,52.566303,-1.509317,133.7,20.11,3,115.97,25 / 25,563909,2020-01-08 17:41:37:502,-0.2961,0.4231,9.3588,0.0013,0.0144,9.8066,-0.0464,-0.0615,0.0219,-18.69,-33.62,14.5,334.59,-83.55,-149.67
5640,52.566303,-1.509317,133.7,20.11,3,115.97,25 / 25,564009,2020-01-08 17:41:37:602,0.2372,1.3178,9.3504,0.0066,0.0217,9.8065,0.0591,-0.079,0.0787,-18.75,-33.75,14.56,334.87,-83.67,-149.5
5641,52.566303,-1.509317,133.7,20.11,3,115.97,25 / 25,564110,2020-01-08 17:41:37:703,0.3403,0.9061,9.9041,-0.0089,-0.0091,9.8066,0.0387,0.0764,-0.0399,-18.44,-33.75,15.5,339.4,-83.54,-148.91
5642,52.566303,-1.509317,133.7,20.11,3,115.97,25 / 25,564210,2020-01-08 17:41:37:803,1.0152,0.4395,9.4653,0.0064,-0.0192,9.8065,-0.1646,0.0202,-0.0812,-18.69,-33.69,15.38,336.44,-83.59,-148.13
5643,52.566303,-1.509317,133.7,20.11,3,115.97,25 / 25,564310,2020-01-08 17:41:37:903,-0.9462,0.6085,9.9093,-0.0358,0.0238,9.8065,0.2068,-0.0767,-0.0354,-18.56,-33.69,15.38,338.16,-83.61,-146.67
5644,52.566303,-1.509317,133.7,20.11,3,115.97,25 / 25,564409,2020-01-08 17:41:38:002,0.7524,-1.0845,11.4397,-0.0125,0.0063,9.8066,0.1671,0.0077,0.0132,-19.0,-33.56,15.19,336.61,-83.52,-147.93
5645,52.566303,-1.509317,133.7,20.11,3,115.97,25 / 25,564510,2020-01-08 17:41:38:103,-0.8945,-0.8314,10.6343,0.0019,0.05,9.8065,0.0914,-0.2744,0.2007,-19.0,-34.0,15.19,336.98,-83.46,-147.59
5646,52.566303,-1.509317,133.7,20.11,3,115.97,25 / 25,564610,2020-01-08 17:41:38:203,-0.1253,0.6796,8.7248,0.0286,-0.025,9.8065,-0.1189,0.0221,-0.0164,-19.19,-34.31,15.19,335.62,-83.45,-148.73
5647,52.566303,-1.509317,133.7,20.11,3,115.97,25 / 25,564710,2020-01-08 17:41:38:303,1.678,2.162,9.2958,0.0051,0.0296,9.8066,0.0822,-0.383,0.2127,-18.62,-33.31,15.31,336.23,-83.45,-148.32
5648,52.566303,-1.509317,133.7,20.11,3,115.97,25 / 25,564809,2020-01-08 17:41:38:402,0.2362,1.1954,9.2089,0.0005,-0.0092,9.8066,0.0498,-0.1298,0.0343,-18.87,-33.37,15.25,337.12,-83.43,-147.55
5649,52.566303,-1.509317,133.7,20.11,3,115.97,25 / 25,564910,2020-01-08 17:41:38:503,-1.4312,0.5567,7.9519,-0.0382,0.0535,9.8063,0.2402,-0.2735,0.1271,-18.31,-33.37,15.06,338.78,-83.7,-147.7
5650,52.566303,-1.509317,133.7,20.11,3,115.97,25 / 25,565010,2020-01-08 17:41:38:603,0.6471,-0.4684,13.3294,-0.0784,0.0465,9.8061,0.4706,-0.0238,-0.1062,-18.69,-33.44,15.81,339.26,-83.67,-147.75
5651,52.566303,-1.509317,133.7,20.11,3,115.97,25 / 25,565110,2020-01-08 17:41:38:703,-2.6348,-0.2811,6.4546,-0.0734,0.0224,9.8063,0.0068,-0.0131,0.026,-18.81,-33.31,14.81,334.44,-83.39,-149.82
5652,52.566303,-1.509317,133.7,20.11,3,115.97,25 / 25,565210,2020-01-08 17:41:38:803,1.8268,1.1113,13.0155,-0.1529,0.0173,9.8054,0.433,0.1679,-0.1711,-19.0,-33.81,14.44,338.42,-83.85,-144.59
5653,52.566303,-1.509317,133.7,20.11,3,115.97,25 / 25,565310,2020-01-08 17:41:38:903,-0.3951,-0.8388,11.3369,0.0464,-0.0325,9.8064,-0.0678,0.037,0.1058,-19.12,-32.94,14.94,338.6,-83.49,-146.33
5654,52.566303,-1.509317,133.7,20.11,3,115.97,25 / 25,565409,2020-01-08 17:41:39:002,0.3929,1.5272,10.8321,0.0089,-0.0503,9.8065,-0.0108,0.238,-0.2325,-18.5,-33.75,15.38,337.85,-83.04,-148.0
5655,52.566303,-1.509317,133.7,20.11,3,115.97,25 / 25,565510,2020-01-08 17:41:39:103,-0.1907,-1.5142,10.8013,-0.0127,-0.0221,9.8066,0.0895,-0.0318,-0.1184,-19.19,-32.56,15.38,335.06,-82.99,-149.04
5656,52.566303,-1.509317,133.7,20.11,3,115.97,25 / 25,565610,2020-01-08 17:41:39:203,1.6367,1.4852,8.6375,-0.011,-0.0062,9.8066,-0.0116,0.2309,-0.1026,-18.81,-33.12,15.31,334.12,-83.09,-149.89
5657,52.566303,-1.509317,133.7,20.11,3,115.97,25 / 25,565710,2020-01-08 17:41:39:303,-2.0636,-1.1506,9.1474,-0.0358,-0.0043,9.8065,0.0953,0.0332,-0.0766,-18.56,-33.44,14.88,334.12,-83.2,-149.96
5658,52.566303,-1.509317,133.7,20.11,3,115.97,25 / 25,565811,2020-01-08 17:41:39:404,0.9924,2.5302,8.8185,-0.0208,-0.0531,9.8064,0.0803,0.4212,-0.1967,-19.0,-33.25,14.81,336.31,-83.19,-148.1
5659,52.566303,-1.509317,133.7,20.11,3,115.97,25 / 25,565909,2020-01-08 17:41:39:502,-2.194,-2.6594,9.8549,-0.0283,0.0249,9.8065,0.2021,-0.208,0.0823,-18.69,-33.06,14.81,334.12,-83.01,-149.85
5660,52.566303,-1.509317,133.7,20.11,3,115.97,25 / 25,566010,2020-01-08 17:41:39:603,1.3964,-0.7138,11.2382,-0.0295,-0.0415,9.8064,0.0664,0.4106,-0.3179,-18.87,-33.19,16.19,336.97,-83.05,-149.37
5661,52.566303,-1.509317,133.7,20.11,3,115.97,25 / 25,566110,2020-01-08 17:41:39:703,-1.6155,-1.1032,10.9227,-0.0604,0.0257,9.8064,0.1908,-0.1481,-0.0761,-18.06,-34.37,15.44,336.16,-83.51,-149.7
5662,52.566303,-1.509317,133.7,20.11,3,115.97,25 / 25,566210,2020-01-08 17:41:39:803,0.8958,1.5072,9.5276,-0.0139,-0.0209,9.8066,0.1148,0.2074,-0.169,-18.81,-33.62,15.44,333.31,-83.42,-150.68
5663,52.565617,-1.506999,133.57,18.64,3,116.32,25 / 25,566311,2020-01-08 17:41:39:904,-2.9982,0.8271,7.6915,0.0633,-0.0404,9.8063,-0.2019,0.0632,-0.016,-18.37,-33.37,14.81,332.42,-83.41,-152.93
5664,52.565617,-1.506999,133.57,18.64,3,116.32,25 / 25,566410,2020-01-08 17:41:40:003,-0.3056,-0.5749,12.9553,0.07,-0.0441,9.8063,-0.0778,0.1112,-0.1452,-18.25,-33.62,15.63,337.01,-83.72,-151.04
5665,52.565617,-1.506999,133.57,18.64,3,116.32,25 / 25,566510,2020-01-08 17:41:40:103,-2.6859,-2.0291,7.8888,0.0735,-0.0204,9.8063,-0.1382,-0.1829,0.1607,-18.19,-33.31,15.88,331.93,-83.34,-155.25
5666,52.565617,-1.506999,133.57,18.64,3,116.32,25 / 25,566610,2020-01-08 17:41:40:203,2.4655,2.2868,10.3541,-0.0669,-0.0101,9.8063,0.1461,0.3361,-0.2276,-18.56,-33.75,15.44,328.59,-83.24,-154.57
5667,52.565617,-1.506999,133.57,18.64,3,116.32,25 / 25,566709,2020-01-08 17:41:40:302,-0.3221,0.239,10.3097,-0.0092,0.0005,9.8066,0.0383,0.0696,-0.0226,-18.37,-33.94,15.31,333.68,-83.39,-151.72
5668,52.565617,-1.506999,133.57,18.64,3,116.32,25 / 25,566809,2020-01-08 17:41:40:402,-2.3325,-2.327,9.7791,-0.0167,-0.0238,9.8066,0.0409,0.336,-0.1546,-18.75,-33.25,14.94,333.19,-83.34,-150.85
5669,52.565617,-1.506999,133.57,18.64,3,116.32,25 / 25,566909,2020-01-08 17:41:40:502,0.8106,-0.6279,9.9878,-0.0123,-0.0306,9.8066,0.0354,0.2565,-0.2162,-18.19,-33.94,14.94,333.65,-83.23,-151.63
5670,52.565617,-1.506999,133.57,18.64,3,116.32,25 / 25,567009,2020-01-08 17:41:40:602,-1.7185,-1.3863,8.2002,-0.0204,-0.0209,9.8066,-0.0804,0.0102,-0.0734,-18.25,-33.5,16.19,333.19,-83.32,-154.16
5671,52.565617,-1.506999,133.57,18.64,3,116.32,25 / 25,567110,2020-01-08 17:41:40:703,-0.9495,0.4752,9.2811,-0.0392,0.0093,9.8065,0.059,0.1735,-0.0588,-18.56,-34.0,16.0,333.48,-83.42,-152.45
5672,52.565617,-1.506999,133.57,18.64,3,116.32,25 / 25,567210,2020-01-08 17:41:40:803,-1.7502,-1.312,7.9132,0.0633,-0.0323,9.8064,-0.3624,-0.0718,0.0503,-18.06,-33.5,14.88,333.94,-83.58,-151.75
5673,52.565617,-1.506999,133.57,18.64,3,116.32,25 / 25,567310,2020-01-08 17:41:40:903,1.4538,1.3104,10.203,-0.0102,-0.0161,9.8066,-0.124,0.151,-0.0041,-18.25,-33.94,15.44,333.34,-83.54,-152.12
5674,52.565617,-1.506999,133.57,18.64,3,116.32,25 / 25,567409,2020-01-08 17:41:41:002,-1.5457,-0.1327,10.2019,0.0062,0.0069,9.8066,0.082,-0.1538,0.0551,-18.5,-33.94,14.94,333.06,-83.6,-152.39
5675,52.565617,-1.506999,133.57,18.64,3,116.32,25 / 25,567510,2020-01-08 17:41:41:103,-0.7316,1.2848,9.11,-0.0099,-0.0048,9.8066,0.0102,0.0092,-0.0619,-18.25,-33.81,15.25,331.53,-83.51,-153.63
5676,52.565617,-1.506999,133.57,18.64,3,116.32,25 / 25,567610,2020-01-08 17:41:41:203,0.6623,-0.5212,11.9241,-0.0031,-0.0124,9.8066,0.1348,-0.0553,0.0067,-17.94,-33.94,15.0,332.57,-83.69,-152.88
5677,52.565617,-1.506999,133.57,18.64,3,116.32,25 / 25,567709,2020-01-08 17:41:41:302,-0.5441,0.737,11.3948,0.0565,-0.0282,9.8064,-0.2377,0.0206,-0.0373,-18.25,-33.75,14.75,332.64,-83.53,-152.7
5678,52.565617,-1.506999,133.57,18.64,3,116.32,25 / 25,567810,2020-01-08 17:41:41:403,-0.2851,-1.3014,11.4889,-0.0431,0.0096,9.8065,0.0562,-0.1546,0.14,-18.12,-33.37,15.19,334.74,-83.62,-151.09
5679,52.565617,-1.506999,133.57,18.64,3,116.32,25 / 25,567910,2020-01-08 17:41:41:503,-0.0852,1.4774,8.8677,0.0003,-0.0157,9.8066,-0.2263,0.1316,-0.0465,-18.62,-33.12,15.13,332.11,-83.51,-151.89
5680,52.565617,-1.506999,133.57,18.64,3,116.32,25 / 25,568010,2020-01-08 17:41:41:603,-0.7654,2.0275,8.4133,-0.0434,0.0331,9.8065,-0.0269,-0.04,0.058,-19.06,-34.25,14.69,331.34,-83.56,-152.45
5681,52.565617,-1.506999,133.57,18.64,3,116.32,25 / 25,568110,2020-01-08 17:41:41:703,1.1847,0.729,9.3625,-0.0086,0.0169,9.8066,-0.21,0.2066,-0.0957,-19.0,-33.44,14.63,332.19,-83.82,-152.03
5682,52.565617,-1.506999,133.57,18.64,3,116.32,25 / 25,568210,2020-01-08 17:41:41:803,-0.9979,2.9094,7.3853,-0.0396,0.0478,9.8064,-0.3246,0.1844,-0.0663,-18.37,-34.31,14.56,331.05,-83.48,-154.01
5683,52.565617,-1.506999,133.57,18.64,3,116.32,25 / 25,568310,2020-01-08 17:41:41:903,2.9021,-0.4432,10.9865,-0.0684,0.0314,9.8063,-0.1172,-0.0312,-0.0703,-18.44,-34.25,15.63,334.27,-83.68,-153.35
5684,52.565617,-1.506999,133.57,18.64,3,116.32,25 / 25,568410,2020-01-08 17:41:42:003,-0.8634,-0.8392,9.9499,-0.0372,0.0021,9.8065,-0.0469,-0.249,0.1763,-18.37,-33.69,15.69,333.13,-83.72,-154.36
5685,52.565617,-1.506999,133.57,18.64,3,116.32,25 / 25,568509,2020-01-08 17:41:42:102,-0.5183,1.3355,9.931,-0.0123,-0.0072,9.8066,-0.1322,0.1955,-0.0727,-18.62,-34.06,15.19,329.2,-83.99,-154.62
5686,52.565617,-1.506999,133.57,18.64,3,116.32,25 / 25,568610,2020-01-08 17:41:42:203,-0.5158,1.442,9.4068,-0.0045,0.0195,9.8065,-0.0099,-0.0278,0.0759,-18.25,-34.31,15.31,332.12,-84.04,-153.52
5687,52.565617,-1.506999,133.57,18.64,3,116.32,25 / 25,568709,2020-01-08 17:41:42:302,-1.2005,0.3142,9.86,-0.0143,-0.0094,9.8066,-0.019,0.1079,0.0729,-17.94,-34.37,14.44,329.89,-84.1,-153.44
5688,52.565617,-1.506999,133.57,18.64,3,116.32,25 / 25,568810,2020-01-08 17:41:42:403,0.7076,2.2893,9.5094,-0.0035,0.0207,9.8066,-0.0299,0.1613,-0.2013,-18.25,-33.19,15.38,332.87,-84.07,-153.0
5689,52.565617,-1.506999,133.57,18.64,3,116.32,25 / 25,568910,2020-01-08 17:41:42:503,-1.0964,-0.7462,10.4609,-0.0025,0.0211,9.8066,-0.0278,0.0431,-0.0413,-18.5,-34.12,14.81,334.56,-84.16,-151.49
5690,52.565617,-1.506999,133.57,18.64,3,116.32,25 / 25,569010,2020-01-08 17:41:42:603,0.9488,1.2987,8.7194,-0.0037,0.0026,9.8066,-0.0783,0.2603,-0.0978,-18.44,-34.31,15.13,333.3,-84.06,-152.51
5691,52.565617,-1.506999,133.57,18.64,3,116.32,25 / 25,569110,2020-01-08 17:41:42:703,-0.7227,-0.8233,10.9959,-0.0066,0.0429,9.8065,0.0311,-0.0704,-0.0959,-18.87,-33.5,15.13,330.81,-84.03,-153.38
5692,52.565617,-1.506999,133.57,18.64,3,116.32,25 / 25,569210,2020-01-08 17:41:42:803,-0.8017,-0.1905,10.1374,0.0011,-0.0099,9.8066,0.0094,0.1122,0.0455,-18.62,-34.12,14.5,330.45,-83.84,-153.43
5693,52.565617,-1.506999,133.57,18.64,3,116.32,25 / 25,569311,2020-01-08 17:41:42:904,-2.3469,-0.2168,9.192,0.0048,0.0131,9.8066,-0.0506,-0.1829,0.0996,-18.5,-33.75,15.13,331.85,-83.94,-153.68
5694,52.565617,-1.506999,133.57,18.64,3,116.32,25 / 25,569409,2020-01-08 17:41:43:002,0.0139,-0.8371,10.8175,-0.0141,-0.0085,9.8066,0.081,-0.049,0.0256,-18.62,-34.37,15.0,332.33,-84.04,-151.94
5695,52.565617,-1.506999,133.57,18.64,3,116.32,25 / 25,569510,2020-01-08 17:41:43:103,0.0429,1.8578,9.5706,0.0173,-0.0228,9.8065,-0.0186,-0.1698,0.1333,-18.69,-34.19,14.94,333.4,-84.01,-150.99
5696,52.565617,-1.506999,133.57,18.64,3,116.32,25 / 25,569610,2020-01-08 17:41:43:203,0.3927,0.4176,10.3342,-0.0266,-0.0246,9.8065,0.0761,-0.1705,0.096,-18.75,-34.0,14.75,335.05,-83.98,-149.55
5697,52.565617,-1.506999,133.57,18.64,3,116.32,25 / 25,569710,2020-01-08 17:41:43:303,-0.1142,1.2912,8.8927,0.0042,-0.0279,9.8065,-0.0622,-0.2353,0.1914,-18.5,-33.87,15.06,336.5,-84.01,-149.73
5698,52.565617,-1.506999,133.57,18.64,3,116.32,25 / 25,569810,2020-01-08 17:41:43:403,-2.4273,-1.019,10.1273,-0.0206,-0.0234,9.8066,0.0308,-0.2601,0.0803,-18.44,-34.0,14.94,336.72,-84.28,-149.7
5699,52.565617,-1.506999,133.57,18.64,3,116.32,25 / 25,569910,2020-01-08 17:41:43:503,-0.3947,1.4463,9.0875,0.0003,-0.0264,9.8066,0.0054,-0.0754,0.0189,-18.81,-34.12,15.69,338.89,-84.13,-148.22
5700,52.565617,-1.506999,133.57,18.64,3,116.32,25 / 25,570010,2020-01-08 17:41:43:603,-0.5464,-0.828,10.843,0.0017,-0.0232,9.8066,0.1247,-0.131,0.0829,-18.75,-34.19,15.0,335.4,-84.22,-149.4
5701,52.565617,-1.506999,133.57,18.64,3,116.32,25 / 25,570110,2020-01-08 17:41:43:703,-1.7681,-0.8185,9.7973,0.0316,-0.0062,9.8066,-0.0368,0.101,-0.0939,-19.06,-33.94,15.44,334.64,-84.1,-149.98
5702,52.565617,-1.506999,133.57,18.64,3,116.32,25 / 25,570210,2020-01-08 17:41:43:803,-4.3432,0.0641,6.4221,0.0866,-0.0194,9.8062,0.1519,-0.0763,-0.0687,-18.25,-34.25,15.31,332.65,-83.73,-152.83
5703,52.565617,-1.506999,133.57,18.64,3,116.32,24 / 25,570310,2020-01-08 17:41:43:903,1.705,2.746,8.8463,-0.0096,-0.0241,9.8065,0.5889,0.288,-0.528,-18.12,-34.0,15.81,337.33,-83.92,-150.89
5704,52.565617,-1.506999,133.57,18.64,3,116.32,24 / 25,570409,2020-01-08 17:41:44:002,3.1522,4.1593,12.2846,0.1605,0.0158,9.8053,0.3884,-0.433,0.0918,-18.0,-33.31,15.69,340.29,-84.17,-148.56
5705,52.565617,-1.506999,133.57,18.64,3,116.32,24 / 25,570510,2020-01-08 17:41:44:103,3.5085,4.581,8.5134,0.0367,-0.0619,9.8063,0.2019,0.899,-0.543,-18.12,-34.19,14.75,333.17,-83.98,-152.56
5706,52.565617,-1.506999,133.57,18.64,3,116.32,24 / 25,570610,2020-01-08 17:41:44:203,2.2486,1.8825,10.5914,0.0789,0.0916,9.8058,0.1953,0.3002,-0.2566,-18.06,-33.56,14.69,336.74,-84.17,-149.62
5707,52.565617,-1.506999,133.57,18.64,3,116.32,24 / 25,570710,2020-01-08 17:41:44:303,-3.138,-5.0447,11.0924,0.0159,0.0216,9.8066,-0.0993,0.533,-0.3115,-18.0,-34.25,14.94,331.69,-84.37,-154.12
5708,52.565617,-1.506999,133.57,18.64,3,116.32,24 / 25,570810,2020-01-08 17:41:44:403,-0.9615,0.254,10.6294,0.0201,0.0477,9.8065,-0.0348,0.1447,-0.1799,-18.62,-34.0,15.0,327.25,-84.59,-156.81
5709,52.565617,-1.506999,133.57,18.64,3,116.32,24 / 25,570910,2020-01-08 17:41:44:503,-3.9495,3.2213,7.6234,0.0301,-0.0133,9.8066,-0.0766,0.3505,-0.0465,-18.06,-34.37,14.81,329.32,-84.43,-156.23
5710,52.565617,-1.506999,133.57,18.64,3,116.32,24 / 25,571010,2020-01-08 17:41:44:603,2.0553,6.5942,9.3392,0.0182,0.0591,9.8064,0.1808,0.4529,-0.4338,-18.0,-34.06,14.81,330.73,-84.5,-155.06
5711,52.565617,-1.506999,133.57,18.64,3,116.32,24 / 25,571110,2020-01-08 17:41:44:703,-4.809,0.3505,8.6846,0.0741,0.0679,9.8061,-0.1555,0.5169,-0.3413,-18.44,-34.37,14.88,327.7,-84.62,-157.81
5712,52.565617,-1.506999,133.57,18.64,3,116.32,24 / 25,571210,2020-01-08 17:41:44:803,0.8803,6.4647,10.0991,0.0257,0.0387,9.8065,0.0915,0.7229,-0.3423,-18.37,-34.75,14.38,329.22,-84.48,-154.2
5713,52.565617,-1.506999,133.57,18.64,3,116.32,25 / 25,571310,2020-01-08 17:41:44:903,-5.2094,1.589,8.5564,0.0601,0.066,9.8062,0.1735,-0.1237,-0.0133,-19.12,-34.87,14.5,326.71,-84.71,-157.26
5714,52.565617,-1.506999,133.57,18.64,3,116.32,25 / 25,571410,2020-01-08 17:41:45:003,1.7861,3.9748,8.9818,0.0367,-0.0225,9.8065,0.0988,0.4572,-0.2246,-18.75,-35.06,15.25,328.86,-84.53,-155.22
5715,52.565617,-1.506999,133.57,18.64,3,116.32,25 / 25,571510,2020-01-08 17:41:45:103,-4.7269,-1.6803,8.8831,0.0696,0.0355,9.8063,0.249,0.0593,-0.0017,-18.81,-34.5,15.38,326.44,-84.58,-157.52
5716,52.565617,-1.506999,133.57,18.64,3,116.32,25 / 25,571610,2020-01-08 17:41:45:203,2.6866,1.6087,10.9528,0.0697,0.022,9.8063,0.1797,0.4353,-0.4214,-18.44,-34.44,15.69,333.99,-84.58,-154.18
5717,52.565617,-1.506999,133.57,18.64,3,116.32,25 / 25,571710,2020-01-08 17:41:45:303,-4.0589,-1.7312,9.3657,0.0341,0.0176,9.8065,-0.0245,-0.0942,0.225,-18.56,-34.06,15.31,327.41,-84.58,-156.66
5718,52.565617,-1.506999,133.57,18.64,3,116.32,25 / 25,571810,2020-01-08 17:41:45:403,0.151,1.4605,9.3953,-0.0378,-0.0064,9.8065,0.0043,0.0847,-0.1886,-18.19,-33.75,15.69,332.39,-84.65,-155.64
5719,52.565617,-1.506999,133.57,18.64,3,116.32,25 / 25,571911,2020-01-08 17:41:45:504,0.6453,0.5014,9.48,0.0193,-0.0002,9.8066,-0.025,-0.0929,0.1901,-18.19,-33.5,15.31,332.86,-84.71,-153.45
