,GPS LATITUDE (degrees), GPS LONGITUDE (degrees), GPS ALTITUDE (m), GPS SPEED (Kmh), GPS ACCURACY (m), GPS ORIENTATION (Â°),GPS SATELLITES IN RANGE, TIME SINCE START (ms), DATE (YYYY-MO-DD HH-MI-SS_SSS), ACCELEROMETER X (m/s²) , ACCELEROMETER Y (m/s²), ACCELEROMETER Z (m/s²), GRAVITY X (m/s²), GRAVITY Y (m/s²), GRAVITY Z (m/s²), GYROSCOPE Yaw (rad/s), GYROSCOPE Pitch (rad/s), GYROSCOPE Roll (rad/s), MAGNETIC FIELD X (Î¼T), MAGNETIC FIELD Y (Î¼T), MAGNETIC FIELD Z (Î¼T), ORIENTATION (Yaw) (Â°), ORIENTATION (Pitch) (Â°), ORIENTATION (Roll ) (Â°)
4248,51.8532,-2.18015,86,30.67,10,217.4,Jun-21,2124020,2020-03-21 11:46:32:097,-0.5642,0.0945,9.8995,-0.0127,0.0086,9.8066,0.0181,-0.0671,-0.0011,5.9,-2.49,-36.08,23.28,-16.27,7.61
4249,51.8532,-2.18015,86,30.67,10,217.4,May-21,2124521,2020-03-21 11:46:32:598,0.8195,-0.2929,9.6679,0.0084,-0.0066,9.8066,0.0202,0.0501,-0.0021,6.27,-3.24,-36.08,25.68,-16.37,7.31
4250,51.8532,-2.18015,86,30.67,10,217.4,May-21,2125021,2020-03-21 11:46:33:098,-0.4693,0.7451,9.353,0.0012,0.0034,9.8067,-0.0565,0.0032,0.0106,5.9,-3.61,-35.64,29.08,-16.6,7.69
4251,51.84977,-2.183249,91,29.96,9,207.2,Jul-21,2125521,2020-03-21 11:46:33:598,-0.0834,0.7502,9.5872,0.0016,0.0124,9.8066,-0.0096,0.0064,0.0192,6.27,-3.24,-36.51,26.22,-16.61,7.71
4252,51.84977,-2.183249,91,29.96,9,207.2,Jul-21,2126021,2020-03-21 11:46:34:098,0.3325,-0.0072,10.7465,-0.0054,-0.003,9.8066,0.0053,-0.0032,-0.0021,5.15,-2.86,-35.64,27.8,-16.76,7.84
4253,51.84977,-2.183249,91,29.96,9,207.2,Jul-21,2126520,2020-03-21 11:46:34:597,0.084,-0.776,9.4152,-0.0055,-0.003,9.8066,0.0171,-0.0117,-0.0128,8.46,2.33,-41.2,10.46,-16.95,7.84
4254,51.84977,-2.183249,91,29.96,9,207.2,Jul-21,2127021,2020-03-21 11:46:35:098,-0.212,0.1174,8.5113,0.0,0.0044,9.8067,-0.0575,0.016,0.0117,6.27,-2.86,-36.51,25.5,-17.04,7.51
4255,51.84977,-2.183249,91,29.96,9,207.2,Jul-21,2127520,2020-03-21 11:46:35:597,0.38,-1.0125,10.5659,0.0063,0.002,9.8066,0.0107,0.0128,0.0117,5.9,-2.86,-36.51,25.2,-17.06,7.35
4256,51.84977,-2.183249,91,29.96,9,207.2,Jul-21,2128021,2020-03-21 11:46:36:098,0.3493,-0.7653,10.7295,0.0034,-0.0001,9.8067,0.0085,-0.0107,0.0042,6.65,-2.49,-36.08,20.93,-16.84,7.19
4257,51.84977,-2.183249,91,29.96,9,207.2,Jul-21,2128520,2020-03-21 11:46:36:597,-0.4804,-0.2345,9.8076,-0.0082,-0.0035,9.8066,-0.0085,-0.0224,-0.0053,6.27,-2.49,-36.51,21.64,-16.9,6.99
4258,51.84977,-2.183249,91,29.96,9,207.2,Jul-21,2129021,2020-03-21 11:46:37:098,-0.1121,-0.0399,9.2936,-0.0026,-0.009,9.8066,0.0171,-0.0213,-0.0021,6.65,-2.86,-36.95,23.85,-16.89,7.22
4259,51.84977,-2.183249,91,29.96,9,207.2,Jul-21,2129521,2020-03-21 11:46:37:598,0.0708,-0.3928,9.5866,-0.0034,0.0076,9.8066,-0.0085,-0.0085,0.0149,6.96,-2.86,-36.08,24.81,-16.69,7.67
4260,51.84977,-2.183249,91,29.96,9,207.2,Jul-21,2130020,2020-03-21 11:46:38:097,-0.0898,0.2785,9.3356,0.0074,-0.0031,9.8066,-0.0043,-0.0075,0.016,6.96,-2.86,-36.08,24.91,-16.62,7.7
4261,51.84977,-2.183249,91,29.96,9,207.2,Jul-21,2130520,2020-03-21 11:46:38:597,0.309,0.3129,10.0915,0.0018,0.006,9.8066,0.0096,0.0053,0.0042,6.65,-2.49,-36.08,21.95,-16.65,7.68
4262,51.84977,-2.183249,91,29.96,9,207.2,Jul-21,2131021,2020-03-21 11:46:39:098,-0.139,-0.4907,9.8767,-0.004,-0.01,9.8066,-0.0074,0.0138,-0.0021,6.65,-2.86,-36.95,25.12,-16.61,7.81
4263,51.84977,-2.183249,91,29.96,9,207.2,Jul-21,2131521,2020-03-21 11:46:39:598,0.3848,0.201,10.2787,-0.0067,-0.0032,9.8066,-0.016,0.0096,-0.0021,6.96,-3.24,-36.08,24.77,-16.63,7.63
4264,51.84977,-2.183249,91,29.96,9,207.2,Jul-21,2132021,2020-03-21 11:46:40:098,0.286,-0.4379,11.794,0.0051,0.0011,9.8067,0.0053,-0.0341,0.0021,7.33,-2.86,-35.64,24.88,-16.57,7.67
4265,51.84977,-2.183249,91,29.96,9,207.2,Apr-21,2132521,2020-03-21 11:46:40:598,-0.3025,0.7777,10.1033,0.0039,0.0112,9.8066,0.0117,0.0064,-0.0085,6.96,-3.24,-36.08,25.05,-16.55,7.75
4266,51.84977,-2.183249,91,29.96,9,207.2,Apr-21,2133021,2020-03-21 11:46:41:098,0.0148,-0.0865,8.9028,0.0001,0.0038,9.8067,0.0213,-0.0341,0.0117,7.71,-2.86,-36.08,24.05,-16.56,7.88
4267,51.84977,-2.183249,91,29.96,9,207.2,Sep-21,2133521,2020-03-21 11:46:41:598,-0.0536,-0.7406,10.6328,-0.0029,-0.0026,9.8067,-0.0383,0.0192,-0.0203,7.71,-2.49,-36.08,21.71,-16.43,8.08
4268,51.84977,-2.183249,91,29.96,9,207.2,Sep-21,2134021,2020-03-21 11:46:42:098,0.3238,-0.5829,9.8029,-0.0011,-0.012,9.8066,-0.0373,0.0234,-0.0064,6.96,-3.24,-36.95,25.96,-16.2,8.12
4269,51.84977,-2.183249,91,29.96,9,207.2,Sep-21,2134520,2020-03-21 11:46:42:597,-0.3073,0.3662,8.7266,-0.0042,0.0039,9.8066,-0.0224,-0.0128,0.0106,6.96,-2.86,-36.08,26.2,-16.32,8.31
4270,51.84977,-2.183249,91,29.96,9,207.2,Sep-21,2135021,2020-03-21 11:46:43:098,0.229,0.0867,9.2096,0.0123,-0.0095,9.8066,0.0032,0.0575,-0.0075,7.33,-2.49,-36.51,23.1,-16.22,8.11
4271,51.84977,-2.183249,91,29.96,9,207.2,Oct-21,2135521,2020-03-21 11:46:43:598,-0.2823,0.5679,9.9508,0.0013,0.0107,9.8066,-0.0383,0.0309,-0.0011,6.58,-3.24,-36.51,25.76,-16.12,7.97
4272,51.84977,-2.183249,91,29.96,9,207.2,Oct-21,2136021,2020-03-21 11:46:44:098,0.1391,0.4659,9.7997,0.0024,0.0071,9.8066,0.0032,-0.0266,0.0128,7.33,-3.24,-36.51,25.32,-16.18,7.75
4273,51.846928,-2.185746,95,31.5,44,210.3,Oct-21,2136521,2020-03-21 11:46:44:598,0.5562,-0.9562,9.9951,0.0116,-0.0137,9.8066,0.016,0.0021,0.001,7.33,-2.86,-36.95,25.39,-16.11,7.76
4274,51.846928,-2.185746,95,31.5,44,210.3,Oct-21,2137021,2020-03-21 11:46:45:098,-0.2318,-0.2411,9.9307,0.0068,-0.0112,9.8066,0.0202,-0.0021,-0.0128,7.71,-2.86,-36.51,24.21,-16.11,7.78
4275,51.846928,-2.185746,95,31.5,44,210.3,Oct-21,2137521,2020-03-21 11:46:45:598,-0.3479,0.3595,8.9498,-0.0042,0.0054,9.8066,-0.016,0.0021,-0.0107,8.08,-3.92,-36.51,27.16,-16.1,7.95
4276,51.846928,-2.185746,95,31.5,44,210.3,Oct-21,2138020,2020-03-21 11:46:46:097,-0.4796,-0.3659,9.9967,-0.0042,0.0005,9.8067,0.0234,-0.0234,0.0117,6.96,-4.67,-35.2,31.32,-16.16,8.03
4277,51.846928,-2.185746,95,31.5,44,210.3,Oct-21,2138521,2020-03-21 11:46:46:598,-0.0043,-0.0463,9.0979,0.0015,0.0011,9.8067,-0.0256,0.0181,0.0021,6.58,-2.49,-36.08,22.48,-16.27,7.83
4278,51.846928,-2.185746,95,31.5,44,210.3,Oct-21,2139021,2020-03-21 11:46:47:098,0.0734,-0.3154,10.281,-0.0037,0.0113,9.8066,-0.0213,-0.0043,0.0128,7.71,-2.11,-35.2,20.71,-16.16,7.46
4279,51.846928,-2.185746,95,31.5,44,210.3,Oct-21,2139520,2020-03-21 11:46:47:597,0.4284,-0.4844,9.7323,0.0046,-0.0032,9.8066,-0.0628,0.0181,-0.0139,8.08,-2.49,-36.08,20.58,-16.23,7.38
4280,51.846928,-2.185746,95,31.5,44,210.3,Oct-21,2140020,2020-03-21 11:46:48:097,0.4317,-0.249,10.1818,0.0012,-0.0028,9.8066,0.0075,-0.0234,-0.0139,8.46,-2.86,-35.64,24.99,-16.17,8.27
4281,51.846928,-2.185746,95,31.5,44,210.3,Apr-21,2140521,2020-03-21 11:46:48:598,-0.5196,-0.7862,9.4655,-0.0045,-0.0018,9.8067,-0.0362,0.0085,-0.0085,5.52,-1.74,-35.2,25.08,-15.98,8.45
4282,51.846928,-2.185746,95,31.5,44,210.3,Apr-21,2141020,2020-03-21 11:46:49:097,0.3514,0.2355,9.6772,0.0043,0.0053,9.8066,-0.0192,-0.0192,-0.0032,8.46,-2.86,-33.51,25.01,-16.07,8.3
4283,51.846928,-2.185746,95,31.5,44,210.3,May-21,2141521,2020-03-21 11:46:49:598,0.3109,0.0478,10.1365,0.0017,-0.0007,9.8067,0.0394,-0.0309,0.0064,8.08,-4.3,-36.08,27.48,-15.89,8.05
4284,51.846928,-2.185746,95,31.5,44,210.3,May-21,2142020,2020-03-21 11:46:50:097,-0.4803,0.1389,9.0088,-0.001,0.003,9.8067,-0.0074,0.0085,-0.0139,7.71,-5.42,-36.89,29.57,-15.8,7.73
4285,51.846928,-2.185746,95,31.5,44,210.3,Jul-21,2142520,2020-03-21 11:46:50:597,-0.0352,-0.1425,9.5704,0.0009,-0.0022,9.8067,-0.0394,0.0192,-0.0107,7.33,-5.42,-35.2,31.21,-15.91,7.84
4286,51.846928,-2.185746,95,31.5,44,210.3,Jul-21,2143020,2020-03-21 11:46:51:097,-0.2712,0.1629,9.8888,-0.0042,-0.0007,9.8067,-0.0224,0.0011,-0.0085,7.33,-5.05,-35.2,31.14,-15.93,7.8
4287,51.846928,-2.185746,95,31.5,44,210.3,Sep-21,2143521,2020-03-21 11:46:51:598,0.1447,-0.0214,9.1015,-0.0053,0.0024,9.8066,0.0341,-0.0298,0.0032,6.96,-5.42,-36.08,31.04,-15.95,7.8
4288,51.846928,-2.185746,95,31.5,44,210.3,Sep-21,2144021,2020-03-21 11:46:52:098,0.2525,0.165,10.3506,0.0065,0.003,9.8066,-0.0362,0.0437,-0.0224,7.33,-5.42,-36.08,30.43,-16.02,7.46
4289,51.846928,-2.185746,95,31.5,44,210.3,Sep-21,2144520,2020-03-21 11:46:52:597,-0.023,-0.4124,9.9092,-0.0065,0.0101,9.8066,-0.0447,0.0096,-0.0128,7.33,-6.17,-36.08,32.4,-16.06,7.11
4290,51.846928,-2.185746,95,31.5,44,210.3,Sep-21,2145021,2020-03-21 11:46:53:098,0.034,-0.1021,9.4664,0.0047,-0.0071,9.8066,0.0426,-0.0234,-0.0235,6.65,-6.17,-36.08,32.44,-16.03,7.12
4291,51.846928,-2.185746,95,31.5,44,210.3,Sep-21,2145520,2020-03-21 11:46:53:597,0.1137,-0.6992,9.8571,-0.0087,-0.0191,9.8066,0.0586,-0.0416,-0.0171,6.96,-6.17,-36.51,33.01,-16.17,7.63
4292,51.846928,-2.185746,95,31.5,44,210.3,Sep-21,2146021,2020-03-21 11:46:54:098,0.6399,-0.502,9.7813,0.0005,0.0033,9.8067,-0.0011,0.017,-0.0085,7.33,-7.3,-36.08,36.12,-16.2,8.04
4293,51.846928,-2.185746,95,31.5,44,210.3,Sep-21,2146521,2020-03-21 11:46:54:598,0.1849,-0.1846,8.437,-0.0005,-0.0039,9.8067,-0.0096,0.0256,-0.0096,6.65,-7.67,-35.64,38.35,-16.35,8.11
4294,51.846928,-2.185746,95,31.5,44,210.3,Sep-21,2147021,2020-03-21 11:46:55:098,-1.1594,1.644,9.4092,0.01,0.0146,9.8066,-0.082,0.0256,-0.0245,5.9,-7.99,-35.26,40.19,-16.34,8.06
4295,51.846928,-2.185746,95,31.5,44,210.3,Sep-21,2147521,2020-03-21 11:46:55:598,0.0957,-0.354,9.785,0.0042,-0.0026,9.8067,0.0181,-0.0053,-0.0213,5.9,-6.92,-35.2,38.8,-16.38,8.73
4296,51.846928,-2.185746,95,31.5,44,210.3,Sep-21,2148020,2020-03-21 11:46:56:097,0.4161,-0.262,10.5233,-0.0103,0.0086,9.8066,-0.0096,0.016,-0.0171,6.27,-5.8,-34.39,36.45,-16.36,8.67
4297,51.846928,-2.185746,95,31.5,44,210.3,0 / 21,2148521,2020-03-21 11:46:56:598,-0.2383,0.6143,9.5597,-0.0056,0.0005,9.8066,-0.0298,0.0053,-0.0107,6.96,-6.55,-33.95,36.87,-16.35,8.45
4298,51.846928,-2.185746,95,31.5,44,210.3,0 / 21,2149020,2020-03-21 11:46:57:097,0.0638,0.306,9.5204,-0.001,-0.0023,9.8067,-0.0138,-0.0085,0.0,6.96,-8.36,-34.83,38.98,-16.35,8.45
4299,51.846928,-2.185746,95,31.5,44,210.3,0 / 21,2149521,2020-03-21 11:46:57:598,0.2566,0.0176,9.8525,0.001,0.0007,9.8066,-0.0181,0.0075,-0.0053,5.9,-8.36,-34.83,40.53,-16.4,8.35
4300,51.846928,-2.185746,95,31.5,44,210.3,0 / 21,2150021,2020-03-21 11:46:58:098,0.1852,0.0718,10.1754,-0.0117,-0.007,9.8066,0.0107,-0.0011,-0.0245,5.9,-7.3,-35.64,37.9,-16.41,8.26
4301,51.846928,-2.185746,95,31.5,44,210.3,0 / 21,2150520,2020-03-21 11:46:58:597,-0.1548,0.4234,9.8796,-0.0094,0.003,9.8066,-0.017,-0.0021,-0.0053,5.9,-7.67,-36.08,39.85,-16.46,8.05
4302,51.846928,-2.185746,95,31.5,44,210.3,0 / 21,2151020,2020-03-21 11:46:59:097,0.3631,-0.1254,10.0825,0.0025,0.0007,9.8066,0.0043,0.033,-0.016,5.52,-7.3,-35.64,37.39,-16.2,7.78
4303,51.846928,-2.185746,95,31.5,44,210.3,0 / 21,2151520,2020-03-21 11:46:59:597,-0.5593,0.4896,10.6458,0.0018,-0.0101,9.8066,-0.0682,0.0053,-0.0384,5.15,-7.99,-35.64,41.98,-16.04,7.97
4304,51.846928,-2.185746,95,31.5,44,210.3,0 / 21,2152021,2020-03-21 11:47:00:098,0.2697,0.1972,9.8918,-0.0077,-0.0006,9.8066,0.0394,-0.032,-0.0096,5.52,-8.36,-35.64,40.62,-16.08,8.33
4305,51.846928,-2.185746,95,31.5,44,210.3,0 / 21,2152521,2020-03-21 11:47:00:598,-0.1619,0.3228,9.3075,-0.0064,-0.0045,9.8066,0.0245,-0.0128,-0.0266,5.15,-7.3,-36.08,39.73,-16.25,8.17
4306,51.846928,-2.185746,95,31.5,44,210.3,0 / 21,2153021,2020-03-21 11:47:01:098,0.0737,0.0267,9.2065,-0.0011,-0.0098,9.8066,-0.0863,-0.0064,-0.0171,4.77,-7.99,-36.08,41.69,-16.2,7.89
4307,51.846928,-2.185746,95,31.5,44,210.3,0 / 21,2153521,2020-03-21 11:47:01:598,0.2216,-0.1999,9.3556,-0.0023,0.0042,9.8067,0.0085,-0.0117,-0.0021,5.15,-7.67,-35.64,41.71,-16.14,7.86
4308,51.846928,-2.185746,95,31.5,44,210.3,0 / 21,2154021,2020-03-21 11:47:02:098,0.4054,0.2528,10.1592,-0.0043,0.014,9.8066,-0.0032,-0.0149,0.0032,5.52,-7.99,-36.08,39.0,-16.13,7.24
4309,51.846928,-2.185746,95,31.5,44,210.3,0 / 21,2154521,2020-03-21 11:47:02:598,-0.5719,-0.2965,10.5404,-0.0089,0.0087,9.8066,-0.0682,0.0373,-0.0043,5.15,-9.11,-35.64,41.85,-16.12,6.39
4310,51.846928,-2.185746,95,31.5,44,210.3,0 / 21,2155020,2020-03-21 11:47:03:097,0.1328,-0.0416,8.9184,0.0012,0.0062,9.8067,-0.0341,-0.0021,0.0053,5.15,-8.36,-36.08,38.72,-16.15,5.89
4311,51.846928,-2.185746,95,31.5,44,210.3,0 / 21,2155521,2020-03-21 11:47:03:598,0.8166,-1.0065,10.1648,0.0083,-0.0092,9.8066,0.0426,-0.0288,0.0074,4.77,-7.99,-36.51,38.32,-16.17,5.83
4312,51.846928,-2.185746,95,31.5,44,210.3,0 / 21,2156020,2020-03-21 11:47:04:097,0.539,-0.7646,9.8178,0.0123,-0.0068,9.8066,-0.0149,0.0234,-0.0107,4.77,-8.36,-36.08,39.58,-16.25,6.51
4313,51.846928,-2.185746,95,31.5,44,210.3,0 / 21,2156521,2020-03-21 11:47:04:598,0.2291,-0.1353,9.7728,0.0016,-0.0069,9.8066,0.0234,-0.0256,-0.0192,4.4,-8.36,-36.95,42.06,-16.24,7.05
4314,51.846928,-2.185746,95,31.5,44,210.3,0 / 21,2157021,2020-03-21 11:47:05:098,-0.0515,-0.3337,9.8988,-0.0026,-0.0045,9.8066,-0.0362,-0.0053,-0.0171,5.15,-8.36,-35.64,41.02,-16.24,7.46
4315,51.846928,-2.185746,95,31.5,44,210.3,0 / 21,2157520,2020-03-21 11:47:05:597,-0.3919,-0.0889,9.6092,0.0021,-0.0157,9.8066,0.033,-0.0384,-0.0256,4.85,-8.81,-35.96,43.62,-16.24,7.73
4316,51.846928,-2.185746,95,31.5,44,210.3,0 / 21,2158021,2020-03-21 11:47:06:098,-0.7508,0.3695,8.9111,0.0054,0.0003,9.8066,-0.0106,-0.0021,-0.0362,4.85,-9.18,-35.09,45.4,-16.15,8.79
4317,51.846928,-2.185746,95,31.5,44,210.3,0 / 21,2158521,2020-03-21 11:47:06:598,0.3385,-0.0851,9.6337,0.0004,0.0071,9.8066,-0.0032,-0.0107,-0.0107,4.1,-9.56,-35.53,50.16,-16.23,9.7
4318,51.846928,-2.185746,95,31.5,44,210.3,0 / 21,2159021,2020-03-21 11:47:07:098,-0.4115,0.3896,9.3921,0.0039,-0.0024,9.8066,0.0096,-0.0128,-0.0288,4.1,-9.18,-35.53,48.43,-16.22,9.83
4319,51.846928,-2.185746,95,31.5,44,210.3,0 / 21,2159521,2020-03-21 11:47:07:598,-0.2346,0.2219,9.3327,0.0023,0.0,9.8067,-0.0011,-0.0053,-0.0266,4.48,-9.93,-35.09,50.97,-16.2,10.11
4320,51.846928,-2.185746,95,31.5,44,210.3,0 / 21,2160020,2020-03-21 11:47:08:097,-0.089,0.1757,9.6432,0.0021,0.0047,9.8067,-0.0522,0.0469,-0.0224,4.1,-9.56,-35.09,50.72,-16.18,9.89
4321,51.846928,-2.185746,95,31.5,44,210.3,0 / 21,2160521,2020-03-21 11:47:08:598,0.2619,-0.2322,9.7415,-0.0013,0.0072,9.8066,0.0245,-0.0139,-0.016,3.73,-10.31,-35.53,50.18,-16.2,9.69
4322,51.846928,-2.185746,95,31.5,44,210.3,0 / 21,2161021,2020-03-21 11:47:09:098,0.3435,0.1114,9.4553,0.0072,0.0024,9.8066,0.0639,-0.0149,-0.0032,2.98,-9.56,-35.53,52.11,-16.32,9.67
4323,51.846928,-2.185746,95,31.5,44,210.3,0 / 21,2161520,2020-03-21 11:47:09:597,-0.5866,-0.0587,9.1469,0.0044,-0.0018,9.8066,-0.0032,0.0117,-0.0469,3.35,-10.31,-34.65,52.14,-16.26,9.36
4324,51.846928,-2.185746,95,31.5,44,210.3,0 / 21,2162020,2020-03-21 11:47:10:097,-0.6063,0.6027,9.4637,-0.0044,0.0106,9.8066,-0.0213,0.0181,-0.0139,3.04,-9.93,-35.53,51.65,-16.29,9.27
4325,51.846928,-2.185746,95,31.5,44,210.3,0 / 21,2162521,2020-03-21 11:47:10:598,-0.1096,0.0324,9.4058,-0.0035,-0.0002,9.8067,0.0064,0.0011,-0.0064,3.04,-9.56,-34.65,51.8,-16.27,9.09
4326,51.846928,-2.185746,95,31.5,44,210.3,0 / 21,2163020,2020-03-21 11:47:11:097,0.292,-0.3193,9.7537,0.0061,0.006,9.8066,0.0085,0.0192,-0.0032,2.98,-9.93,-35.09,52.15,-16.09,9.19
4327,51.846928,-2.185746,95,31.5,44,210.3,0 / 21,2163521,2020-03-21 11:47:11:598,-0.594,0.8677,9.9044,-0.0056,0.0098,9.8066,-0.0298,0.0426,0.0053,2.66,-9.93,-35.53,50.46,-16.28,8.31
4328,51.846928,-2.185746,95,31.5,44,210.3,0 / 21,2164021,2020-03-21 11:47:12:098,-0.0831,-0.6984,9.6667,-0.0037,0.0024,9.8066,0.0543,-0.0479,-0.0011,2.66,-8.81,-34.65,48.37,-16.23,7.94
4329,51.846928,-2.185746,95,31.5,44,210.3,0 / 21,2164520,2020-03-21 11:47:12:597,0.0673,-0.0025,9.8277,0.0031,0.004,9.8066,0.0277,-0.0011,-0.0011,2.98,-8.81,-35.09,48.11,-16.26,7.78
4330,51.846928,-2.185746,95,31.5,44,210.3,0 / 21,2165021,2020-03-21 11:47:13:098,0.3182,-0.3174,9.863,0.0014,-0.0011,9.8067,0.0117,0.0085,-0.0085,2.66,-8.81,-34.65,47.42,-16.27,7.3
4331,51.846928,-2.185746,95,31.5,44,210.3,0 / 21,2165521,2020-03-21 11:47:13:598,-0.0321,0.315,9.3806,0.0043,0.0068,9.8066,-0.0074,0.033,-0.0021,2.66,-8.81,-35.09,48.0,-16.21,7.65
4332,51.846928,-2.185746,95,31.5,44,210.3,0 / 21,2166020,2020-03-21 11:47:14:097,-0.1395,0.9945,10.7812,0.0,-0.0016,9.8066,-0.032,0.0447,-0.0043,2.98,-8.81,-35.53,46.91,-16.2,7.13
4333,51.846928,-2.185746,95,31.5,44,210.3,0 / 21,2166520,2020-03-21 11:47:14:597,0.3459,-0.3368,9.7938,0.0037,0.0049,9.8066,-0.0213,0.0405,-0.0053,3.35,-8.43,-35.09,45.56,-16.03,7.38
4334,51.846928,-2.185746,95,31.5,44,210.3,0 / 21,2167021,2020-03-21 11:47:15:098,-0.1973,0.0875,10.2219,-0.0037,0.0048,9.8066,-0.0522,0.0202,-0.0181,2.66,-8.06,-34.65,45.48,-16.23,7.49
4335,51.846928,-2.185746,95,31.5,44,210.3,0 / 21,2167520,2020-03-21 11:47:15:597,-0.3377,0.6044,9.3806,-0.0011,-0.0051,9.8066,-0.0085,0.0149,-0.0043,3.04,-7.68,-35.09,45.61,-16.29,7.63
4336,51.846928,-2.185746,95,31.5,44,210.3,0 / 21,2168021,2020-03-21 11:47:16:098,-0.034,0.3017,9.2179,-0.0015,0.0155,9.8066,-0.0415,0.0426,-0.0021,2.66,-8.43,-35.09,45.8,-16.34,7.8
4337,51.846928,-2.185746,95,31.5,44,210.3,0 / 21,2168520,2020-03-21 11:47:16:597,0.1123,0.118,9.9721,0.005,0.0018,9.8066,-0.0085,0.0309,-0.0096,2.66,-8.06,-35.96,45.11,-16.34,7.57
4338,51.846928,-2.185746,95,31.5,44,210.3,0 / 21,2169020,2020-03-21 11:47:17:097,0.4326,-0.2615,9.3349,0.0036,-0.0032,9.8066,0.033,-0.0043,0.0149,2.98,-8.43,-35.53,45.01,-16.25,7.43
4339,51.846928,-2.185746,95,31.5,44,210.3,0 / 21,2169521,2020-03-21 11:47:17:598,-0.6307,0.3358,9.1355,-0.009,0.0163,9.8066,0.0011,-0.032,0.0074,2.66,-8.43,-35.09,45.08,-16.34,7.31
4340,51.846928,-2.185746,95,31.5,44,210.3,0 / 21,2170021,2020-03-21 11:47:18:098,0.128,0.7518,10.1927,0.0028,-0.0018,9.8066,-0.0032,0.0064,0.0117,2.98,-8.81,-35.09,47.14,-16.31,7.13
4341,51.846928,-2.185746,95,31.5,44,210.3,0 / 21,2170520,2020-03-21 11:47:18:597,0.2815,0.3042,9.998,0.0032,0.0018,9.8067,0.0128,0.0426,-0.0085,2.66,-8.43,-35.09,44.99,-16.31,7.23
4342,51.846928,-2.185746,95,31.5,44,210.3,0 / 21,2171021,2020-03-21 11:47:19:098,0.4564,-0.1654,10.4671,0.0086,-0.0146,9.8066,0.0234,-0.0021,-0.0203,2.66,-8.06,-35.53,44.96,-16.31,7.44
4343,51.846928,-2.185746,95,31.5,44,210.3,0 / 21,2171520,2020-03-21 11:47:19:597,-0.4132,0.7183,9.2206,-0.0006,0.0012,9.8067,0.0256,-0.0266,0.0117,2.66,-8.06,-35.09,45.32,-16.46,7.58
4344,51.846928,-2.185746,95,31.5,44,210.3,0 / 21,2172021,2020-03-21 11:47:20:098,-0.1144,0.4213,9.5151,0.0095,0.0103,9.8066,0.0234,-0.0117,-0.0085,2.66,-8.06,-35.53,44.97,-16.79,7.85
4345,51.846928,-2.185746,95,31.5,44,210.3,0 / 21,2172520,2020-03-21 11:47:20:597,0.7304,-0.0918,9.1942,0.0167,0.0165,9.8066,-0.016,0.0341,0.0032,2.66,-8.43,-35.09,45.18,-17.33,8.22
4346,51.846928,-2.185746,95,31.5,44,210.3,0 / 21,2173020,2020-03-21 11:47:21:097,-0.0962,0.1836,8.8693,0.0058,-0.0003,9.8066,0.0021,-0.0149,0.0,1.91,-8.06,-36.78,46.84,-17.65,8.65
4347,51.83928,-2.195506,87,30.0,67,228.6,Jul-21,2173520,2020-03-21 11:47:21:597,0.7068,-0.5949,10.4265,0.0199,-0.0143,9.8066,-0.0288,0.0202,-0.0075,3.04,-9.93,-36.4,49.63,-17.99,9.29
4348,51.83928,-2.195506,87,30.0,67,228.6,Jul-21,2174021,2020-03-21 11:47:22:098,0.3859,-0.338,9.5722,-0.0168,0.0042,9.8066,0.0011,-0.0479,0.0383,0.41,-9.56,-39.34,56.37,-17.55,10.01
4349,51.83928,-2.195506,87,30.0,67,228.6,Jul-21,2174521,2020-03-21 11:47:22:598,-1.1218,0.0035,9.7419,-0.0139,-0.0053,9.8066,-0.0138,-0.0341,0.0042,1.91,-7.68,-35.96,50.05,-16.68,9.75
4350,51.83928,-2.195506,87,30.0,67,228.6,Jul-21,2175021,2020-03-21 11:47:23:098,0.4227,-0.5227,10.0472,-0.0009,-0.0033,9.8067,-0.0309,0.0383,0.0085,2.29,-8.43,-36.34,51.03,-15.91,9.69
4351,51.83928,-2.195506,87,30.0,67,228.6,0 / 21,2175521,2020-03-21 11:47:23:598,-0.813,0.0783,9.0367,-0.0094,0.0,9.8066,-0.0447,-0.0128,-0.0032,2.98,-8.43,-35.53,49.18,-15.48,9.62
4352,51.83928,-2.195506,87,30.0,67,228.6,0 / 21,2176021,2020-03-21 11:47:24:098,-0.6676,0.4986,10.4262,-0.0133,-0.0072,9.8066,-0.0117,-0.0075,-0.0117,2.29,-8.81,-35.09,52.82,-15.33,8.6
4353,51.83928,-2.195506,87,30.0,67,228.6,0 / 21,2176521,2020-03-21 11:47:24:598,-0.5957,0.4142,9.5266,-0.0078,0.0082,9.8066,-0.0053,-0.0362,0.0117,1.91,-8.81,-35.96,52.18,-15.22,8.28
4354,51.83928,-2.195506,87,30.0,67,228.6,0 / 21,2177020,2020-03-21 11:47:25:097,-0.0933,0.2648,10.1494,0.0013,0.0045,9.8067,0.0277,0.0085,-0.016,2.66,-8.81,-35.09,49.43,-15.37,7.91
4355,51.83928,-2.195506,87,30.0,67,228.6,0 / 21,2177521,2020-03-21 11:47:25:598,-0.5088,-0.2098,9.0123,-0.0144,0.0179,9.8066,0.0256,-0.0288,0.0138,2.29,-8.81,-35.09,51.09,-15.44,7.43
4356,51.83928,-2.195506,87,30.0,67,228.6,0 / 21,2178021,2020-03-21 11:47:26:098,0.229,0.5219,9.942,-0.0099,0.0082,9.8066,0.0171,-0.0085,0.0149,2.66,-8.06,-35.09,45.99,-15.6,7.29
4357,51.83928,-2.195506,87,30.0,67,228.6,0 / 21,2178520,2020-03-21 11:47:26:597,-0.072,-0.3792,9.9302,-0.0064,0.0056,9.8066,-0.0447,0.0245,-0.0224,2.29,-8.43,-35.96,47.25,-15.74,6.93
4358,51.83928,-2.195506,87,30.0,67,228.6,0 / 21,2179020,2020-03-21 11:47:27:097,0.0588,-0.1777,9.1486,-0.0019,-0.0006,9.8067,0.0011,0.0043,0.0032,2.29,-8.81,-36.4,49.07,-15.89,6.75
4359,51.83928,-2.195506,87,30.0,67,228.6,0 / 21,2179521,2020-03-21 11:47:27:598,-0.0807,0.1448,9.4168,-0.0014,0.0086,9.8066,-0.0074,0.0277,-0.0011,2.66,-8.81,-34.65,46.13,-15.97,6.13
4360,51.83928,-2.195506,87,30.0,67,228.6,0 / 21,2180021,2020-03-21 11:47:28:098,0.3899,-0.0481,9.5375,-0.0027,-0.003,9.8067,0.049,-0.0181,0.017,2.29,-8.06,-35.96,45.8,-15.92,6.18
4361,51.83928,-2.195506,87,30.0,67,228.6,0 / 21,2180520,2020-03-21 11:47:28:597,0.501,-0.5554,8.6086,0.0035,-0.0037,9.8067,0.0437,-0.0053,0.0042,2.66,-8.43,-35.53,43.92,-16.0,6.51
4362,51.83928,-2.195506,87,30.0,67,228.6,0 / 21,2181021,2020-03-21 11:47:29:098,0.1688,-0.4726,10.1382,-0.0045,0.0053,9.8066,-0.0234,0.016,0.0117,2.66,-8.81,-34.28,46.2,-16.13,6.04
4363,51.83928,-2.195506,87,30.0,67,228.6,0 / 21,2181520,2020-03-21 11:47:29:597,-0.1867,-0.0045,10.0567,-0.0005,0.0061,9.8066,0.0053,0.0011,0.0106,2.66,-8.43,-35.09,42.64,-16.05,5.52
4364,51.83928,-2.195506,87,30.0,67,228.6,0 / 21,2182020,2020-03-21 11:47:30:097,-0.1589,0.1309,9.7461,-0.0062,0.0001,9.8067,0.0085,-0.0064,0.0202,2.66,-8.81,-35.53,43.89,-16.17,5.1
4365,51.83928,-2.195506,87,30.0,67,228.6,0 / 21,2182521,2020-03-21 11:47:30:598,-0.0689,-0.0285,9.8681,-0.0006,-0.0008,9.8066,0.0181,-0.0117,0.0053,2.66,-8.43,-34.28,41.94,-16.24,4.98
4366,51.83928,-2.195506,87,30.0,67,228.6,0 / 21,2183020,2020-03-21 11:47:31:097,0.1841,0.0345,10.173,-0.0082,-0.0002,9.8066,-0.0479,0.0,0.017,3.73,-10.68,-35.96,45.73,-16.35,4.88
4367,51.83928,-2.195506,87,30.0,67,228.6,0 / 21,2183520,2020-03-21 11:47:31:597,0.4356,-0.2124,9.1436,0.0013,-0.0118,9.8066,0.0447,-0.0064,0.0138,3.04,-8.43,-35.53,41.02,-16.12,4.84
4368,51.83928,-2.195506,87,30.0,67,228.6,0 / 21,2184021,2020-03-21 11:47:32:098,-0.8388,1.4203,10.6287,-0.0133,0.006,9.8066,-0.0916,-0.0234,0.0085,3.35,-7.74,-34.65,41.32,-16.18,4.82
4369,51.83928,-2.195506,87,30.0,67,228.6,0 / 21,2184521,2020-03-21 11:47:32:598,0.3658,-0.49,10.3901,0.0021,-0.0275,9.8066,0.0085,-0.033,-0.0064,3.73,-8.06,-35.09,39.68,-16.12,5.06
4370,51.83928,-2.195506,87,30.0,67,228.6,0 / 21,2185021,2020-03-21 11:47:33:098,-0.3105,-0.0987,10.2887,-0.014,-0.0097,9.8066,-0.0096,-0.0511,0.0117,3.35,-7.74,-35.09,42.09,-16.38,5.44
4371,51.83928,-2.195506,87,30.0,67,228.6,0 / 21,2185520,2020-03-21 11:47:33:597,-0.7409,0.1781,8.2402,-0.0109,0.0019,9.8066,-0.0011,-0.016,-0.0043,3.35,-7.74,-35.09,41.86,-16.38,5.3
4372,51.83928,-2.195506,87,30.0,67,228.6,0 / 21,2186021,2020-03-21 11:47:34:098,-0.3279,0.4996,9.8948,-0.0073,0.0073,9.8066,-0.0181,0.0085,0.0138,3.73,-7.74,-35.53,39.34,-16.22,5.14
4373,51.83928,-2.195506,87,30.0,67,228.6,0 / 21,2186521,2020-03-21 11:47:34:598,-0.1712,-0.1169,9.5137,0.0052,0.0004,9.8066,0.0128,0.0181,0.017,3.73,-7.74,-35.09,38.53,-16.07,4.33
4374,51.83928,-2.195506,87,30.0,67,228.6,0 / 21,2187020,2020-03-21 11:47:35:097,0.3185,-0.336,8.7476,-0.0093,0.0048,9.8066,0.0565,-0.0043,0.0181,4.1,-7.37,-35.09,35.06,-16.21,4.02
4375,51.83928,-2.195506,87,30.0,67,228.6,0 / 21,2187521,2020-03-21 11:47:35:598,0.665,-0.17,10.8178,-0.0061,0.004,9.8066,0.0234,0.0075,0.0351,4.1,-7.37,-35.53,33.86,-16.17,3.54
4376,51.83928,-2.195506,87,30.0,67,228.6,0 / 21,2188020,2020-03-21 11:47:36:097,-0.4418,0.9517,8.8311,0.003,0.0002,9.8067,-0.0266,0.0106,0.0149,4.48,-6.62,-35.09,34.56,-16.08,3.67
4377,51.83928,-2.195506,87,30.0,67,228.6,0 / 21,2188521,2020-03-21 11:47:36:598,0.0621,0.3263,9.8006,-0.0006,0.0034,9.8066,-0.0234,0.0064,0.0192,4.48,-7.37,-35.09,35.02,-16.09,3.93
4378,51.83928,-2.195506,87,30.0,67,228.6,0 / 21,2189020,2020-03-21 11:47:37:097,-0.0944,-0.1486,9.5344,0.0039,-0.0022,9.8066,-0.0437,0.0213,0.0213,4.48,-7.37,-35.53,34.97,-16.08,4.09
4379,51.83928,-2.195506,87,30.0,67,228.6,0 / 21,2189520,2020-03-21 11:47:37:597,-0.1028,0.0949,9.3652,-0.0015,0.0015,9.8066,0.0075,-0.0032,0.0245,4.48,-7.37,-35.53,35.24,-16.15,4.28
4380,51.83928,-2.195506,87,30.0,67,228.6,0 / 21,2190021,2020-03-21 11:47:38:098,-0.1267,0.4518,9.8084,-0.0054,0.0066,9.8066,-0.0085,0.0011,0.0181,4.85,-6.99,-35.09,33.51,-16.17,4.16
4381,51.83928,-2.195506,87,30.0,67,228.6,0 / 21,2190521,2020-03-21 11:47:38:598,-0.1023,-0.8606,9.4938,-0.0005,-0.0021,9.8066,0.0405,-0.0277,0.0256,4.85,-6.99,-35.09,33.39,-16.09,4.05
4382,51.83928,-2.195506,87,30.0,67,228.6,0 / 21,2191021,2020-03-21 11:47:39:098,-0.19,-0.3721,9.754,0.0007,-0.0063,9.8066,0.0149,-0.0021,0.016,4.85,-7.37,-35.09,33.6,-16.09,4.17
4383,51.83928,-2.195506,87,30.0,67,228.6,0 / 21,2191521,2020-03-21 11:47:39:598,-0.0722,0.3537,8.9708,0.0027,-0.001,9.8067,0.0501,-0.0021,0.0266,4.85,-5.87,-34.65,31.2,-16.2,4.49
4384,51.83928,-2.195506,87,30.0,67,228.6,0 / 21,2192020,2020-03-21 11:47:40:097,0.1317,0.058,9.7985,0.001,-0.0026,9.8067,0.032,-0.0053,0.016,5.23,-5.12,-34.65,28.42,-16.18,4.61
4385,51.83928,-2.195506,87,30.0,67,228.6,0 / 21,2192521,2020-03-21 11:47:40:598,-0.2424,0.5212,10.0797,-0.002,0.0095,9.8066,0.0075,-0.0096,0.0128,5.6,-5.49,-34.21,26.38,-16.17,4.22
4386,51.83928,-2.195506,87,30.0,67,228.6,0 / 21,2193021,2020-03-21 11:47:41:098,-0.6522,0.4893,9.7951,-0.0125,0.0092,9.8066,0.0181,-0.0362,0.0319,5.6,-6.24,-35.96,28.37,-16.14,3.91
4387,51.83928,-2.195506,87,30.0,67,228.6,0 / 21,2193520,2020-03-21 11:47:41:597,-0.1399,-0.1906,9.4354,-0.0019,-0.0032,9.8067,0.0607,-0.0256,0.0202,5.98,-6.24,-33.84,27.94,-16.08,3.38
4388,51.83928,-2.195506,87,30.0,67,228.6,0 / 21,2194021,2020-03-21 11:47:42:098,0.1281,-0.0527,10.1105,-0.009,0.0101,9.8066,-0.0383,0.0213,0.0266,5.98,-5.49,-35.09,23.58,-16.07,2.81
4389,51.83928,-2.195506,87,30.0,67,228.6,Mar-21,2194521,2020-03-21 11:47:42:598,-0.1574,-0.2123,9.5656,0.002,0.0003,9.8067,-0.0053,0.0053,0.0181,6.35,-6.24,-35.53,25.56,-16.11,2.39
4390,51.83928,-2.195506,87,30.0,67,228.6,Mar-21,2195020,2020-03-21 11:47:43:097,-0.1654,0.5084,9.9343,-0.0058,-0.0021,9.8066,0.0075,-0.0043,0.0181,5.23,-5.49,-32.96,24.17,-16.22,2.2
4391,51.83928,-2.195506,87,30.0,67,228.6,Sep-22,2195521,2020-03-21 11:47:43:598,0.4196,-0.2786,9.127,0.0072,-0.0006,9.8066,0.0394,0.0075,0.0053,6.35,-5.12,-35.09,22.49,-16.13,2.28
4392,51.83928,-2.195506,87,30.0,67,228.6,Sep-22,2196021,2020-03-21 11:47:44:098,0.2681,0.4208,10.0593,0.0184,-0.0126,9.8066,-0.0543,0.0565,0.0106,5.98,-5.12,-35.53,24.1,-16.13,3.21
4393,51.83496,-2.202788,89,29.99,70,218.8,Oct-22,2196520,2020-03-21 11:47:44:597,-0.0959,-0.106,9.314,0.0106,-0.0096,9.8066,0.0032,-0.0011,0.0053,6.35,-5.12,-35.53,24.85,-16.03,3.56
4394,51.83496,-2.202788,89,29.99,70,218.8,Oct-22,2197021,2020-03-21 11:47:45:098,0.8019,-0.193,10.0451,0.0173,-0.008,9.8066,0.0245,0.0298,0.0032,6.35,-5.12,-35.53,27.06,-16.06,4.74
4395,51.83496,-2.202788,89,29.99,70,218.8,Oct-22,2197520,2020-03-21 11:47:45:597,-0.0305,-0.634,10.3114,-0.0018,-0.0135,9.8066,0.0202,-0.0341,0.0042,6.35,-4.37,-35.96,26.35,-16.21,6.01
4396,51.83496,-2.202788,89,29.99,70,218.8,Oct-22,2198020,2020-03-21 11:47:46:097,0.4103,-0.7833,9.5457,0.0037,-0.0113,9.8066,0.0309,0.0192,0.0064,5.98,-4.74,-35.53,30.58,-16.19,6.75
4397,51.83496,-2.202788,89,29.99,70,218.8,Oct-22,2198520,2020-03-21 11:47:46:597,-0.2667,0.0554,9.8779,-0.0045,0.0049,9.8066,-0.0213,-0.0171,0.016,5.6,-4.74,-35.09,31.47,-16.43,7.33
4398,51.83496,-2.202788,89,29.99,70,218.8,Oct-22,2199020,2020-03-21 11:47:47:097,0.1655,-0.0728,10.2488,-0.0041,-0.0131,9.8066,-0.0043,-0.016,0.0042,5.98,-4.37,-36.78,29.78,-16.27,7.96
4399,51.83496,-2.202788,89,29.99,70,218.8,Nov-22,2199521,2020-03-21 11:47:47:598,0.048,0.3843,9.6721,0.0078,-0.0013,9.8066,-0.0043,0.0043,-0.0032,5.98,-4.74,-35.96,32.73,-16.46,8.15
4400,51.83496,-2.202788,89,29.99,70,218.8,Nov-22,2200020,2020-03-21 11:47:48:097,-0.1051,0.179,9.455,0.0034,-0.0021,9.8066,0.0053,0.0138,-0.0032,6.35,-4.43,-35.53,30.24,-16.52,8.31
4401,51.83496,-2.202788,89,29.99,70,218.8,Nov-22,2200521,2020-03-21 11:47:48:598,-0.5382,0.0742,9.3416,-0.0052,0.0036,9.8066,-0.0138,-0.0096,0.0117,5.98,-4.74,-35.53,32.62,-16.4,8.06
4402,51.83496,-2.202788,89,29.99,70,218.8,Nov-22,2201020,2020-03-21 11:47:49:097,-0.2465,-0.0519,9.9952,-0.001,0.0024,9.8066,0.0192,0.0043,-0.0011,6.35,-4.74,-35.96,32.17,-16.44,7.82
4403,51.83496,-2.202788,89,29.99,70,218.8,Nov-22,2201521,2020-03-21 11:47:49:598,0.1136,-1.0031,10.4582,-0.0152,-0.0025,9.8066,0.0288,-0.0884,0.016,6.73,-4.43,-35.96,28.14,-16.32,7.84
4404,51.83496,-2.202788,89,29.99,70,218.8,Nov-22,2202021,2020-03-21 11:47:50:098,0.0485,-0.2888,8.9558,-0.007,-0.0049,9.8066,0.0693,-0.0661,0.001,6.35,-4.74,-35.96,32.22,-16.36,7.8
4405,51.83496,-2.202788,89,29.99,70,218.8,Nov-22,2202520,2020-03-21 11:47:50:597,0.0412,-0.1196,10.2894,-0.0057,-0.0109,9.8066,0.0416,-0.033,-0.0043,6.73,-4.74,-35.53,30.75,-16.44,7.87
4406,51.83496,-2.202788,89,29.99,70,218.8,Nov-22,2203021,2020-03-21 11:47:51:098,0.0443,-0.3812,9.8907,0.0053,-0.0087,9.8066,0.032,-0.0128,-0.0181,5.98,-4.74,-36.4,32.4,-16.45,7.96
4407,51.83496,-2.202788,89,29.99,70,218.8,Nov-22,2203520,2020-03-21 11:47:51:597,0.0795,-0.1123,9.7034,-0.0019,-0.0045,9.8066,0.0107,0.0,-0.0043,6.35,-4.37,-35.53,30.02,-16.42,8.13
4408,51.83496,-2.202788,89,29.99,70,218.8,Nov-22,2204021,2020-03-21 11:47:52:098,-0.2003,-0.3997,8.9931,0.0033,-0.0047,9.8066,0.0149,-0.0171,0.0,6.35,-4.74,-35.96,33.05,-16.34,8.28
4409,51.83496,-2.202788,89,29.99,70,218.8,Nov-22,2204521,2020-03-21 11:47:52:598,-0.0196,0.3029,8.9909,-0.0028,-0.0088,9.8066,0.032,-0.0021,0.0,6.35,-4.37,-35.96,30.34,-16.36,8.29
4410,51.83496,-2.202788,89,29.99,70,218.8,Nov-22,2205020,2020-03-21 11:47:53:097,-0.1167,-0.1812,8.9743,0.0081,0.0038,9.8066,-0.0533,0.0277,-0.0021,6.35,-4.06,-35.53,30.74,-16.32,8.5
4411,51.83496,-2.202788,89,29.99,70,218.8,Nov-22,2205521,2020-03-21 11:47:53:598,-0.4952,0.5703,9.8983,-0.0047,0.01,9.8066,-0.0234,-0.0192,0.0042,6.35,-4.74,-35.53,33.41,-16.21,8.43
4412,51.83496,-2.202788,89,29.99,70,218.8,Nov-22,2206020,2020-03-21 11:47:54:097,-0.029,0.268,9.3578,-0.0084,0.0114,9.8066,0.0437,-0.0511,0.0106,6.35,-4.37,-35.96,30.75,-16.2,8.44
4413,51.83496,-2.202788,89,29.99,70,218.8,Jun-22,2206521,2020-03-21 11:47:54:598,-0.1508,-0.1673,8.8282,0.0016,0.001,9.8067,0.0266,-0.0096,0.0074,5.98,-4.37,-36.84,29.47,-16.27,7.78
4414,51.83496,-2.202788,89,29.99,70,218.8,Jun-22,2207020,2020-03-21 11:47:55:097,-0.0933,0.3082,9.3889,-0.0017,-0.0008,9.8066,0.0511,-0.0224,0.0064,5.98,-4.74,-35.53,31.7,-16.37,7.5
4415,51.83496,-2.202788,89,29.99,70,218.8,Sep-22,2207521,2020-03-21 11:47:55:598,0.007,0.023,10.0156,0.0043,-0.002,9.8066,-0.033,0.0224,0.0021,5.98,-4.06,-35.53,30.35,-16.16,8.19
4416,51.83496,-2.202788,89,29.99,70,218.8,Sep-22,2208020,2020-03-21 11:47:56:097,0.0293,-0.1987,10.1578,0.0012,0.0035,9.8067,-0.0149,-0.0192,0.0085,6.73,-4.06,-35.53,29.51,-16.11,8.55
4417,51.83214,-2.205083,103,30.64,22,212.8,Oct-22,2208520,2020-03-21 11:47:56:597,-0.8827,0.7261,9.6507,-0.0017,-0.0054,9.8066,-0.0213,-0.0075,-0.0107,6.73,-3.68,-35.96,29.68,-16.09,8.64
4418,51.83214,-2.205083,103,30.64,22,212.8,Oct-22,2209021,2020-03-21 11:47:57:098,0.2841,-0.6289,10.2049,-0.0136,0.0056,9.8066,-0.0202,-0.0181,0.0138,6.35,-4.06,-35.53,31.07,-16.22,8.64
4419,51.83214,-2.205083,103,30.64,22,212.8,Oct-22,2209521,2020-03-21 11:47:57:598,0.1328,-0.2416,10.2119,0.0,-0.0098,9.8066,-0.0394,0.0138,-0.0032,6.35,-4.06,-35.96,30.78,-16.21,8.46
4420,51.83214,-2.205083,103,30.64,22,212.8,Oct-22,2210021,2020-03-21 11:47:58:098,-0.1767,0.5558,9.1236,-0.0028,0.0081,9.8066,-0.0383,0.0053,0.0053,6.35,-4.74,-35.53,33.25,-16.07,8.25
4421,51.83214,-2.205083,103,30.64,22,212.8,Oct-22,2210520,2020-03-21 11:47:58:597,-0.0484,-0.1606,9.6797,0.0026,0.0062,9.8067,0.0,-0.0053,0.0,6.73,-4.37,-35.53,28.26,-16.17,7.84
4422,51.83214,-2.205083,103,30.64,22,212.8,Oct-22,2211021,2020-03-21 11:47:59:098,-0.0148,-0.2127,9.6014,-0.0066,0.0032,9.8066,-0.0032,0.0075,-0.0043,7.04,-5.12,-35.96,30.78,-16.32,7.83
4423,51.83214,-2.205083,103,30.64,22,212.8,Oct-22,2211520,2020-03-21 11:47:59:597,0.3399,-0.0857,8.6433,0.0067,0.0019,9.8066,0.0256,0.0011,0.0,6.66,-5.12,-35.09,30.28,-16.3,7.46
4424,51.83214,-2.205083,103,30.64,22,212.8,Oct-22,2212020,2020-03-21 11:48:00:097,-0.3514,0.4993,8.3194,0.0028,0.0142,9.8066,-0.0469,0.0213,0.017,7.04,-5.12,-35.09,29.77,-16.18,7.09
4425,51.83214,-2.205083,103,30.64,22,212.8,Oct-22,2212520,2020-03-21 11:48:00:597,0.9052,-0.4028,10.433,0.0166,-0.0051,9.8066,0.0181,0.0085,0.016,5.6,-2.18,-31.65,22.12,-16.19,7.05
4426,51.83214,-2.205083,103,30.64,22,212.8,Oct-22,2213021,2020-03-21 11:48:01:098,-0.5326,0.8589,10.2436,0.0148,-0.0373,9.8066,0.0256,-0.0447,-0.0266,-8.91,-6.97,-58.92,62.47,-16.31,7.34
4427,51.83214,-2.205083,103,30.64,22,212.8,Oct-22,2213520,2020-03-21 11:48:01:597,-0.0576,-1.1498,9.3146,-0.0427,-0.0202,9.8065,-0.0586,-0.0916,0.0213,-11.15,-4.77,-58.76,64.12,-16.3,6.65
4428,51.83214,-2.205083,103,30.64,22,212.8,Oct-22,2214021,2020-03-21 11:48:02:098,0.0781,0.0021,10.7206,-0.0028,0.0012,9.8067,-0.0266,0.0224,-0.0075,13.73,-2.56,-37.21,17.58,-16.31,7.01
4429,51.83214,-2.205083,103,30.64,22,212.8,0 / 22,2214521,2020-03-21 11:48:02:598,-0.1986,0.009,9.2419,-0.005,0.0028,9.8066,0.0128,-0.0128,0.001,7.41,-6.62,-35.96,34.33,-15.98,6.72
4430,51.83214,-2.205083,103,30.64,22,212.8,0 / 22,2215021,2020-03-21 11:48:03:098,0.7618,-0.2659,10.4563,-0.0113,-0.0138,9.8066,-0.0458,0.017,0.0192,6.35,-7.37,-35.09,36.26,-16.15,6.88
4431,51.83214,-2.205083,103,30.64,22,212.8,Sep-22,2215520,2020-03-21 11:48:03:597,-0.2746,-0.0604,9.7881,-0.0054,-0.0037,9.8066,-0.115,0.049,-0.0277,5.98,-6.99,-35.53,35.88,-15.9,6.62
4432,51.83214,-2.205083,103,30.64,22,212.8,Sep-22,2216021,2020-03-21 11:48:04:098,-0.2697,0.1546,9.6748,0.0036,0.0024,9.8067,-0.0405,0.0149,-0.0043,5.98,-7.37,-34.65,36.28,-15.94,6.77
4433,51.83214,-2.205083,103,30.64,22,212.8,Sep-22,2216520,2020-03-21 11:48:04:597,-0.0963,-0.0097,9.8468,-0.0045,0.0048,9.8066,-0.0213,0.0043,-0.0043,5.98,-8.06,-35.96,38.34,-15.95,6.68
4434,51.83214,-2.205083,103,30.64,22,212.8,Sep-22,2217021,2020-03-21 11:48:05:098,-0.2139,0.6329,10.5617,-0.0053,-0.0004,9.8066,0.0224,-0.033,-0.0149,5.6,-7.37,-35.09,35.66,-16.13,6.49
4435,51.83214,-2.205083,103,30.64,22,212.8,Sep-22,2217521,2020-03-21 11:48:05:598,-0.1752,0.0931,8.8883,0.0005,-0.0052,9.8067,0.0618,-0.0447,-0.0096,5.6,-7.37,-35.09,35.49,-16.38,6.53
4436,51.83214,-2.205083,103,30.64,22,212.8,Sep-22,2218021,2020-03-21 11:48:06:098,0.0483,0.4632,10.0025,0.0034,0.0138,9.8066,-0.066,0.0895,-0.0192,5.6,-8.06,-35.53,36.97,-16.53,6.15
4437,51.83214,-2.205083,103,30.64,22,212.8,Sep-22,2218520,2020-03-21 11:48:06:597,0.3463,-0.295,9.8484,-0.0048,0.0041,9.8066,0.0,0.033,-0.0053,5.98,-7.68,-34.21,37.32,-16.51,6.04
4438,51.83214,-2.205083,103,30.64,22,212.8,Sep-22,2219021,2020-03-21 11:48:07:098,-0.974,1.7022,9.7447,-0.0037,0.0053,9.8066,-0.098,0.0778,-0.0235,5.23,-7.74,-34.65,38.54,-16.46,5.8
4439,51.83214,-2.205083,103,30.64,22,212.8,Sep-22,2219520,2020-03-21 11:48:07:597,0.0391,0.5297,8.5317,-0.0003,-0.0004,9.8067,-0.0224,0.0032,0.0106,5.23,-8.06,-35.09,38.88,-16.3,5.91
4440,51.83214,-2.205083,103,30.64,22,212.8,Sep-22,2220021,2020-03-21 11:48:08:098,0.2945,0.0914,10.1534,0.0018,-0.0051,9.8066,0.0266,-0.0266,-0.0139,5.6,-8.06,-34.71,37.54,-16.46,6.32
4441,51.83214,-2.205083,103,30.64,22,212.8,Sep-22,2220521,2020-03-21 11:48:08:598,0.5859,-0.846,9.4077,0.0043,-0.0052,9.8066,0.0245,0.0011,-0.0107,5.23,-8.43,-35.09,39.92,-16.42,6.67
4442,51.83214,-2.205083,103,30.64,22,212.8,Sep-22,2221020,2020-03-21 11:48:09:097,0.6292,-0.1488,10.3873,0.0035,0.0036,9.8066,0.0075,-0.0032,-0.0021,5.23,-8.12,-35.53,40.17,-16.55,7.12
4443,51.83214,-2.205083,103,30.64,22,212.8,Sep-22,2221520,2020-03-21 11:48:09:597,-0.2788,0.2064,9.2888,-0.0043,-0.0036,9.8066,0.0021,0.0064,-0.016,4.85,-8.06,-35.09,40.13,-16.49,6.87
4444,51.83214,-2.205083,103,30.64,22,212.8,Sep-22,2222020,2020-03-21 11:48:10:097,-0.027,-0.0258,9.503,-0.0033,0.0059,9.8066,-0.0032,0.0181,-0.0107,4.85,-8.81,-35.53,42.18,-16.5,6.9
4445,51.83214,-2.205083,103,30.64,22,212.8,0 / 22,2222521,2020-03-21 11:48:10:598,0.3557,-0.2858,10.7996,-0.0051,0.0085,9.8066,-0.0469,0.0213,-0.0053,4.85,-8.43,-35.53,40.45,-16.53,7.29
4446,51.83214,-2.205083,103,30.64,22,212.8,0 / 22,2223020,2020-03-21 11:48:11:097,0.279,-0.0857,10.1729,0.0002,0.0108,9.8066,-0.0309,0.0106,-0.0075,4.85,-8.81,-35.96,42.4,-16.62,7.15
4447,51.83214,-2.205083,103,30.64,22,212.8,Sep-22,2223520,2020-03-21 11:48:11:597,-0.11,0.2059,8.9827,0.0148,-0.0035,9.8066,-0.0192,0.032,-0.0245,4.85,-8.81,-35.09,42.84,-16.67,7.3
4448,51.83214,-2.205083,103,30.64,22,212.8,Sep-22,2224021,2020-03-21 11:48:12:098,-0.4944,-0.0604,9.6026,0.0029,0.0084,9.8066,-0.0469,0.0383,-0.0139,4.48,-8.43,-35.09,43.02,-16.66,7.63
4449,51.83214,-2.205083,103,30.64,22,212.8,Nov-22,2224521,2020-03-21 11:48:12:598,-0.2258,0.1965,9.3497,0.0119,-0.006,9.8066,-0.017,0.0266,-0.0181,4.48,-9.18,-34.65,44.85,-16.58,7.25
4450,51.83214,-2.205083,103,30.64,22,212.8,Nov-22,2225021,2020-03-21 11:48:13:098,-0.1006,-0.1303,9.8491,-0.0091,-0.0058,9.8066,0.0,-0.0171,-0.0085,4.1,-9.18,-35.09,44.55,-16.75,7.18
4451,51.828167,-2.209327,98,30.91,29,216.6,Nov-22,2225521,2020-03-21 11:48:13:598,-0.0911,0.3945,9.1803,-0.0021,0.0067,9.8066,-0.0043,-0.0192,0.001,4.48,-9.18,-35.09,44.02,-16.62,6.7
4452,51.828167,-2.209327,98,30.91,29,216.6,Nov-22,2226020,2020-03-21 11:48:14:097,-0.5274,0.7649,9.2572,0.0112,0.0098,9.8066,-0.0021,0.0181,-0.0171,3.73,-9.18,-35.09,43.65,-16.72,6.52
4453,51.828167,-2.209327,98,30.91,29,216.6,Nov-22,2226520,2020-03-21 11:48:14:597,0.1214,0.1823,11.234,-0.0052,0.0034,9.8066,0.0213,-0.0128,-0.0107,4.1,-9.18,-34.65,43.29,-16.73,6.29
4454,51.828167,-2.209327,98,30.91,29,216.6,Nov-22,2227021,2020-03-21 11:48:15:098,-0.0003,-0.3989,10.0828,-0.0008,-0.0039,9.8067,-0.0341,0.0096,-0.0181,4.1,-9.18,-35.09,43.05,-16.82,6.18
4455,51.828167,-2.209327,98,30.91,29,216.6,Nov-22,2227521,2020-03-21 11:48:15:598,-0.0983,0.0646,9.3652,-0.0055,-0.0065,9.8066,0.0011,0.0032,-0.0053,4.1,-9.18,-35.09,43.24,-16.93,6.4
4456,51.828167,-2.209327,98,30.91,29,216.6,Nov-22,2228020,2020-03-21 11:48:16:097,-0.0502,-0.0629,8.8248,-0.004,-0.0031,9.8066,0.0426,-0.0256,0.0,3.73,-9.18,-35.09,42.7,-16.97,6.06
4457,51.828167,-2.209327,98,30.91,29,216.6,Nov-22,2228520,2020-03-21 11:48:16:597,0.2156,-0.0482,9.4908,0.0074,0.0079,9.8066,0.0043,0.0075,-0.0085,3.35,-9.56,-35.96,47.33,-16.98,6.61
4458,51.828167,-2.209327,98,30.91,29,216.6,Nov-22,2229021,2020-03-21 11:48:17:098,-0.4561,0.0066,8.8694,0.0098,-0.0016,9.8066,-0.0074,-0.0139,-0.016,3.73,-9.18,-34.65,43.84,-16.97,6.86
4459,51.828167,-2.209327,98,30.91,29,216.6,Nov-22,2229521,2020-03-21 11:48:17:598,0.18,0.0226,9.5805,0.0048,0.004,9.8066,0.0085,0.0053,-0.0107,3.73,-9.56,-35.53,45.61,-17.01,6.86
4460,51.828167,-2.209327,98,30.91,29,216.6,Nov-22,2230021,2020-03-21 11:48:18:098,-0.2985,-0.4273,9.4889,-0.0038,0.006,9.8066,-0.0234,0.0053,-0.016,3.73,-9.93,-35.53,45.81,-16.87,6.9
4461,51.828167,-2.209327,98,30.91,29,216.6,Jan-22,2230520,2020-03-21 11:48:18:597,-0.0312,-0.4642,9.6416,0.0006,0.002,9.8067,0.0032,0.0011,-0.0096,3.73,-10.31,-34.65,46.25,-16.9,6.98
4462,51.828167,-2.209327,98,30.91,29,216.6,Jan-22,2231021,2020-03-21 11:48:19:098,0.1134,-0.0437,9.2838,0.0043,0.0007,9.8067,0.0266,-0.0202,-0.0021,3.35,-9.93,-34.65,47.78,-17.0,6.66
4463,51.828167,-2.209327,98,30.91,29,216.6,Sep-22,2231520,2020-03-21 11:48:19:597,0.0159,0.2845,9.2787,0.0021,-0.0032,9.8067,0.0565,-0.0192,-0.0139,3.35,-9.56,-35.09,47.45,-17.05,6.46
4464,51.828167,-2.209327,98,30.91,29,216.6,Sep-22,2232020,2020-03-21 11:48:20:097,0.1803,-0.0996,9.6982,0.0032,0.019,9.8066,0.0352,-0.0213,0.0064,3.04,-9.93,-35.53,47.06,-17.07,6.49
4465,51.828167,-2.209327,98,30.91,29,216.6,Sep-22,2232520,2020-03-21 11:48:20:597,-0.5267,-0.1214,9.5938,-0.0012,0.0016,9.8067,-0.0117,-0.0171,-0.0075,3.35,-9.93,-34.65,47.23,-17.12,6.37
4466,51.828167,-2.209327,98,30.91,29,216.6,Sep-22,2233021,2020-03-21 11:48:21:098,0.1984,-0.2955,10.2674,0.0112,-0.0073,9.8066,-0.0096,0.0011,-0.0277,3.04,-9.93,-34.65,47.65,-17.17,6.72
4467,51.828167,-2.209327,98,30.91,29,216.6,Sep-22,2233521,2020-03-21 11:48:21:598,-0.1933,-0.2549,8.9244,-0.0025,-0.005,9.8066,-0.0074,-0.0043,-0.0203,3.35,-10.31,-34.28,48.37,-17.05,6.83
4468,51.828167,-2.209327,98,30.91,29,216.6,Sep-22,2234021,2020-03-21 11:48:22:098,0.0786,0.0278,8.7273,-0.002,0.0108,9.8066,-0.0256,0.0149,0.0074,3.35,-10.31,-34.28,48.42,-17.09,6.91
4469,51.828167,-2.209327,98,30.91,29,216.6,Sep-22,2234520,2020-03-21 11:48:22:597,0.229,-0.1751,9.5228,0.0025,-0.0093,9.8066,0.0256,0.0117,-0.0075,3.35,-9.56,-34.21,48.32,-17.12,6.86
4470,51.828167,-2.209327,98,30.91,29,216.6,Sep-22,2235020,2020-03-21 11:48:23:097,0.4272,-0.2654,9.3981,-0.0064,-0.0073,9.8066,0.032,-0.0266,-0.0085,3.35,-10.68,-35.09,50.11,-16.92,6.83
4471,51.828167,-2.209327,98,30.91,29,216.6,Sep-22,2235521,2020-03-21 11:48:23:598,0.5391,-0.383,10.125,0.0075,-0.0005,9.8066,-0.0085,0.0202,-0.0107,2.66,-10.31,-34.65,48.42,-16.97,7.1
4472,51.828167,-2.209327,98,30.91,29,216.6,Sep-22,2236021,2020-03-21 11:48:24:098,-0.6692,1.5189,9.5523,-0.002,0.0105,9.8066,-0.0245,0.016,-0.0117,2.29,-10.31,-34.65,50.65,-16.92,7.06
4473,51.828167,-2.209327,98,30.91,29,216.6,Sep-22,2236520,2020-03-21 11:48:24:597,-0.1727,0.5846,9.2462,0.002,0.012,9.8066,0.0053,0.0309,-0.0085,2.29,-10.31,-35.09,50.33,-17.08,6.98
4474,51.828167,-2.209327,98,30.91,29,216.6,Sep-22,2237021,2020-03-21 11:48:25:098,0.441,-0.5026,9.6223,0.004,-0.0018,9.8066,-0.0426,0.0788,-0.0224,2.29,-11.06,-34.28,52.58,-17.13,6.87
4475,51.828167,-2.209327,98,30.91,29,216.6,Sep-22,2237520,2020-03-21 11:48:25:597,0.2266,-0.1712,9.5902,0.0066,-0.0107,9.8066,-0.0554,0.0383,0.0074,2.29,-10.31,-33.84,50.51,-17.08,6.77
4476,51.828167,-2.209327,98,30.91,29,216.6,Sep-22,2238021,2020-03-21 11:48:26:098,-0.0289,0.1264,9.3893,0.0014,-0.0048,9.8066,0.0096,-0.0043,-0.0032,1.91,-10.31,-35.09,49.96,-17.13,6.76
4477,51.828167,-2.209327,98,30.91,29,216.6,Sep-22,2238520,2020-03-21 11:48:26:597,0.1866,0.3544,10.4118,0.0008,-0.0014,9.8067,0.0362,-0.0405,-0.0075,1.16,-9.56,-35.53,51.79,-17.46,7.08
4478,51.828167,-2.209327,98,30.91,29,216.6,Sep-22,2239021,2020-03-21 11:48:27:098,0.7458,0.038,9.6232,0.0119,0.0065,9.8066,0.0043,0.0533,-0.0128,1.91,-9.18,-35.09,47.17,-17.9,7.02
4479,51.828167,-2.209327,98,30.91,29,216.6,Aug-22,2239520,2020-03-21 11:48:27:597,0.255,-0.1428,10.3592,0.0105,0.0086,9.8066,-0.017,0.033,-0.0011,1.54,-9.18,-34.65,47.15,-18.58,7.6
4480,51.828167,-2.209327,98,30.91,29,216.6,Aug-22,2240021,2020-03-21 11:48:28:098,-0.2787,0.0606,9.9144,0.0039,0.0018,9.8066,0.0224,-0.0128,-0.0107,1.91,-9.56,-34.65,49.0,-19.04,7.84
4481,51.82551,-2.21452,104,30.92,14,230.2,Aug-22,2240521,2020-03-21 11:48:28:598,0.2808,-0.5293,9.4717,0.0031,-0.0024,9.8067,-0.0128,0.0149,-0.0064,1.91,-9.18,-35.09,46.99,-19.36,8.17
4482,51.82551,-2.21452,104,30.92,14,230.2,Aug-22,2241021,2020-03-21 11:48:29:098,0.3794,-0.1588,10.9827,0.001,0.0002,9.8067,-0.0351,0.0309,-0.0096,1.54,-8.81,-34.65,46.99,-19.57,8.35
4483,51.82551,-2.21452,104,30.92,14,230.2,Aug-22,2241521,2020-03-21 11:48:29:598,0.4465,-0.262,10.0888,0.0027,0.0021,9.8067,0.0277,-0.0139,0.0021,1.54,-9.18,-34.65,46.82,-19.66,8.29
4484,51.82551,-2.21452,104,30.92,14,230.2,Aug-22,2242020,2020-03-21 11:48:30:097,0.2519,-0.5638,9.6719,0.0025,-0.0023,9.8067,0.0426,-0.0245,0.0096,1.91,-8.06,-35.09,44.27,-19.61,8.02
4485,51.82551,-2.21452,104,30.92,14,230.2,Aug-22,2242521,2020-03-21 11:48:30:598,0.8005,-0.5672,10.1644,-0.0044,-0.0055,9.8066,0.0234,-0.0011,-0.0021,1.54,-7.68,-34.65,44.18,-19.69,8.03
4486,51.82551,-2.21452,104,30.92,14,230.2,Aug-22,2243020,2020-03-21 11:48:31:097,0.4985,-0.1777,9.553,0.0105,-0.0032,9.8066,0.0234,0.0266,-0.0107,1.54,-8.06,-34.65,43.7,-19.78,7.78
4487,51.82551,-2.21452,104,30.92,14,230.2,Aug-22,2243521,2020-03-21 11:48:31:598,0.1545,-0.318,10.2718,-0.0243,0.0029,9.8066,0.0021,-0.0224,0.0096,1.54,-8.43,-35.09,43.57,-19.69,7.62
4488,51.82551,-2.21452,104,30.92,14,230.2,Aug-22,2244020,2020-03-21 11:48:32:097,0.0693,-0.1016,10.2312,0.0033,-0.0054,9.8066,0.0064,-0.0213,-0.0064,1.54,-8.43,-34.65,43.37,-19.71,7.5
4489,51.82551,-2.21452,104,30.92,14,230.2,Aug-22,2244521,2020-03-21 11:48:32:598,-0.5603,0.5714,9.6112,0.0029,-0.0077,9.8066,0.0181,-0.0256,-0.0043,1.54,-8.81,-35.09,45.58,-19.8,7.52
4490,51.82551,-2.21452,104,30.92,14,230.2,Aug-22,2245021,2020-03-21 11:48:33:098,0.6907,-0.4459,10.4396,-0.0035,0.0021,9.8066,-0.0213,0.0234,0.0074,1.54,-8.06,-35.09,43.93,-19.67,7.85
4491,51.82551,-2.21452,104,30.92,14,230.2,Aug-22,2245520,2020-03-21 11:48:33:597,0.3944,-0.4931,9.8686,0.0043,-0.0023,9.8067,0.0309,0.0011,-0.0021,1.16,-8.43,-35.09,45.85,-19.68,7.72
4492,51.82551,-2.21452,104,30.92,14,230.2,Aug-22,2246021,2020-03-21 11:48:34:098,0.188,-0.0019,9.7425,-0.0058,0.0046,9.8066,-0.0043,-0.0085,0.0106,2.29,-8.43,-35.09,44.0,-19.49,7.74
4493,51.82551,-2.21452,104,30.92,14,230.2,Aug-22,2246521,2020-03-21 11:48:34:598,-0.5621,0.2401,10.0335,-0.0034,-0.0049,9.8067,-0.0692,0.0213,-0.0277,1.54,-8.81,-35.09,46.1,-19.55,7.68
4494,51.82551,-2.21452,104,30.92,14,230.2,Aug-22,2247020,2020-03-21 11:48:35:097,0.2752,-0.178,9.4109,0.004,-0.0011,9.8066,0.0107,0.0149,0.001,1.91,-8.81,-34.21,46.74,-19.6,7.86
4495,51.82551,-2.21452,104,30.92,14,230.2,0 / 22,2247521,2020-03-21 11:48:35:598,-0.3619,-0.0893,9.6491,-0.009,-0.0014,9.8066,-0.0106,-0.0234,0.0074,1.54,-8.43,-35.09,43.71,-19.64,7.68
4496,51.82551,-2.21452,104,30.92,14,230.2,0 / 22,2248021,2020-03-21 11:48:36:098,0.7238,0.1564,9.022,0.0003,0.005,9.8066,0.1033,-0.0352,0.0181,1.91,-8.81,-35.09,46.17,-19.46,7.66
4497,51.82551,-2.21452,104,30.92,14,230.2,Nov-22,2248521,2020-03-21 11:48:36:598,-0.5102,0.6374,9.8059,0.0031,0.0048,9.8066,-0.0863,0.032,-0.0203,1.16,-8.43,-35.09,46.15,-19.58,7.84
4498,51.82551,-2.21452,104,30.92,14,230.2,Nov-22,2249020,2020-03-21 11:48:37:097,-0.1252,0.1469,9.6507,-0.0056,-0.0022,9.8066,-0.032,-0.0064,0.0032,1.91,-8.06,-34.21,44.55,-19.51,7.85
4499,51.82551,-2.21452,104,30.92,14,230.2,13 / 22,2249521,2020-03-21 11:48:37:598,0.4851,-0.2193,9.45,-0.0028,0.0037,9.8066,0.065,-0.032,0.0106,1.54,-8.43,-35.53,43.37,-19.47,7.59
4500,51.82551,-2.21452,104,30.92,14,230.2,13 / 22,2250020,2020-03-21 11:48:38:097,-0.3278,0.4981,10.0103,-0.0014,0.0037,9.8067,-0.0032,-0.0107,0.0064,1.54,-8.43,-35.09,43.51,-19.43,7.37
4501,51.8235,-2.217428,57,26.99,16,229.8,13 / 22,2250521,2020-03-21 11:48:38:598,0.1016,0.103,9.4886,-0.0032,-0.0023,9.8067,-0.033,0.0011,-0.0064,1.91,-8.81,-34.65,45.98,-19.4,7.47
4502,51.8235,-2.217428,57,26.99,16,229.8,13 / 22,2251020,2020-03-21 11:48:39:097,-0.2688,0.2408,9.0147,0.0012,0.0008,9.8067,-0.0234,0.0373,-0.0064,1.54,-8.43,-34.65,44.02,-19.24,7.57
4503,51.8235,-2.217428,57,26.99,16,229.8,13 / 22,2251521,2020-03-21 11:48:39:598,-0.0299,0.5604,10.1004,0.0007,0.0016,9.8067,0.0298,-0.0107,-0.0011,1.91,-8.43,-35.09,44.09,-19.31,7.67
4504,51.8235,-2.217428,57,26.99,16,229.8,13 / 22,2252020,2020-03-21 11:48:40:097,-0.4168,0.7396,10.8567,-0.0072,-0.0004,9.8066,0.0511,-0.0245,0.0032,1.54,-8.43,-35.53,43.87,-19.27,7.76
4505,51.8235,-2.217428,57,26.99,16,229.8,13 / 22,2252521,2020-03-21 11:48:40:598,0.4126,-0.5635,9.4487,0.0072,0.0036,9.8066,0.0117,0.0043,0.0128,1.54,-8.81,-35.09,46.81,-19.24,7.94
4506,51.8235,-2.217428,57,26.99,16,229.8,13 / 22,2253020,2020-03-21 11:48:41:097,-0.414,0.2546,9.9798,0.001,0.0029,9.8067,-0.0341,0.0128,-0.0043,2.29,-8.43,-34.21,45.12,-19.25,8.03
4507,51.8235,-2.217428,57,26.99,16,229.8,13 / 22,2253521,2020-03-21 11:48:41:598,0.47,-0.2959,9.851,0.0027,0.0046,9.8066,0.016,0.0,0.0021,1.91,-8.43,-35.09,44.32,-19.22,7.75
4508,51.8235,-2.217428,57,26.99,16,229.8,13 / 22,2254021,2020-03-21 11:48:42:098,0.6752,-0.3689,9.7,0.0097,-0.0004,9.8066,0.0352,0.0181,0.0096,1.54,-8.43,-35.53,44.08,-19.17,7.82
4509,51.8235,-2.217428,57,26.99,16,229.8,13 / 22,2254520,2020-03-21 11:48:42:597,-0.2249,0.2523,10.2178,0.0008,0.0012,9.8066,-0.0138,-0.0032,0.0,1.54,-8.43,-35.09,44.71,-19.19,7.99
4510,51.8235,-2.217428,57,26.99,16,229.8,13 / 22,2255021,2020-03-21 11:48:43:098,0.3081,-0.0902,10.3204,0.0007,-0.0036,9.8067,0.0117,-0.0171,-0.0011,1.54,-7.68,-34.21,45.34,-19.2,8.15
4511,51.8235,-2.217428,57,26.99,16,229.8,Oct-22,2255521,2020-03-21 11:48:43:598,0.2327,-0.2715,9.5735,0.0025,0.0037,9.8066,0.0064,0.0106,0.0021,1.54,-7.68,-34.65,44.9,-19.13,8.07
4512,51.8235,-2.217428,57,26.99,16,229.8,Oct-22,2256021,2020-03-21 11:48:44:098,0.3109,-0.112,9.975,0.0038,-0.0086,9.8066,0.0096,0.0085,-0.0107,0.79,-6.62,-34.65,44.82,-19.1,8.14
4513,51.8235,-2.217428,57,26.99,16,229.8,Nov-22,2256520,2020-03-21 11:48:44:597,-0.3907,0.0772,9.2082,0.0019,-0.0017,9.8066,-0.0309,0.0149,-0.0117,1.54,-7.68,-34.65,45.36,-19.1,8.35
4514,51.8235,-2.217428,57,26.99,16,229.8,Nov-22,2257020,2020-03-21 11:48:45:097,0.2483,-0.4656,9.2721,0.003,-0.0035,9.8067,0.0096,0.0021,0.0032,1.54,-7.68,-34.21,45.46,-19.2,8.22
4515,51.8235,-2.217428,57,26.99,16,229.8,Nov-22,2257521,2020-03-21 11:48:45:598,0.0197,0.5122,9.7382,0.0005,0.0081,9.8066,-0.0245,0.0234,0.0064,1.91,-7.68,-35.09,45.42,-19.07,8.37
4516,51.8235,-2.217428,57,26.99,16,229.8,Nov-22,2258020,2020-03-21 11:48:46:097,0.353,-0.0317,10.3033,-0.0133,-0.0015,9.8066,0.0202,-0.033,0.0181,1.16,-8.06,-35.09,47.23,-19.11,8.16
4517,51.8235,-2.217428,57,26.99,16,229.8,Nov-22,2258520,2020-03-21 11:48:46:597,0.5476,-0.1553,8.8507,-0.0021,-0.0004,9.8066,0.0437,-0.0171,0.033,1.91,-8.43,-35.53,43.27,-19.05,7.19
4518,51.8235,-2.217428,57,26.99,16,229.8,Nov-22,2259021,2020-03-21 11:48:47:098,0.2732,-0.1264,9.9766,-0.0049,0.0032,9.8066,0.0256,-0.0053,0.017,1.54,-8.06,-35.09,42.75,-19.03,6.57
4519,51.8235,-2.217428,57,26.99,16,229.8,Nov-22,2259520,2020-03-21 11:48:47:597,0.0645,-0.605,9.5051,-0.0097,-0.0202,9.8066,0.098,-0.1161,0.0362,1.16,-8.81,-35.53,45.79,-19.12,6.0
4520,51.8235,-2.217428,57,26.99,16,229.8,Nov-22,2260021,2020-03-21 11:48:48:098,0.0794,-0.3718,8.8179,-0.0034,0.0012,9.8066,0.0266,-0.0373,-0.0011,1.91,-7.68,-34.65,42.62,-18.97,6.44
4521,51.8235,-2.217428,57,26.99,16,229.8,Nov-22,2260520,2020-03-21 11:48:48:597,-0.0419,0.4128,9.8963,-0.0019,0.0006,9.8067,-0.0202,0.0106,0.0064,2.29,-7.74,-35.09,42.8,-18.94,6.53
4522,51.8235,-2.217428,57,26.99,16,229.8,0 / 22,2261021,2020-03-21 11:48:49:098,0.3753,-0.6915,9.9991,0.0029,-0.0101,9.8066,-0.0202,0.0075,0.0021,1.91,-8.81,-35.96,45.35,-18.9,6.93
4523,51.8235,-2.217428,57,26.99,16,229.8,Oct-22,2261521,2020-03-21 11:48:49:598,0.2305,0.0234,10.7805,0.0025,-0.0041,9.8066,0.0224,-0.0607,0.0042,1.91,-8.81,-35.53,45.78,-18.97,7.28
4524,51.8235,-2.217428,57,26.99,16,229.8,Oct-22,2262020,2020-03-21 11:48:50:097,0.2567,-0.4978,9.7525,-0.0011,-0.0073,9.8066,-0.0149,-0.0149,0.0074,1.54,-9.18,-35.96,46.74,-19.08,8.05
4525,51.821945,-2.220885,74,23.24,13,227.8,Oct-22,2262520,2020-03-21 11:48:50:597,0.4894,-0.3541,9.3618,0.0027,0.0058,9.8066,-0.0074,0.0032,0.0053,1.54,-8.43,-35.53,45.28,-18.94,8.44
4526,51.821945,-2.220885,74,23.24,13,227.8,Oct-22,2263021,2020-03-21 11:48:51:098,0.2774,-0.2632,9.1432,0.0168,-0.0013,9.8066,0.0394,0.0202,-0.016,1.54,-8.81,-35.96,47.03,-18.94,8.13
4527,51.821945,-2.220885,74,23.24,13,227.8,Dec-22,2263520,2020-03-21 11:48:51:597,-0.6141,0.1793,9.5874,-0.0013,-0.001,9.8067,0.0181,-0.016,-0.0064,1.54,-8.43,-35.96,44.71,-19.06,8.16
4528,51.821945,-2.220885,74,23.24,13,227.8,Dec-22,2264021,2020-03-21 11:48:52:098,-0.3262,-0.2289,9.3721,0.0022,0.0013,9.8067,0.0107,0.0234,-0.0043,1.54,-8.43,-35.96,44.84,-19.11,8.28
4529,51.821945,-2.220885,74,23.24,13,227.8,Dec-22,2264521,2020-03-21 11:48:52:598,0.0071,-0.2932,9.5832,-0.0041,0.0063,9.8066,-0.0053,-0.0139,0.0096,1.91,-8.43,-35.53,44.42,-18.89,7.82
4530,51.821945,-2.220885,74,23.24,13,227.8,Dec-22,2265021,2020-03-21 11:48:53:098,0.0077,0.1779,10.3829,-0.0055,0.0012,9.8067,-0.0575,0.0266,-0.0032,1.54,-8.43,-35.09,44.4,-19.1,7.7
4531,51.821945,-2.220885,74,23.24,13,227.8,Dec-22,2265521,2020-03-21 11:48:53:598,0.0848,-0.2609,9.7686,-0.0038,-0.0074,9.8066,0.0032,-0.033,0.0202,1.91,-8.43,-35.15,43.45,-19.28,7.22
4532,51.821945,-2.220885,74,23.24,13,227.8,Dec-22,2266021,2020-03-21 11:48:54:098,-0.2038,0.2643,9.8118,-0.0083,0.0059,9.8066,0.0107,-0.0011,0.017,1.54,-8.43,-35.53,41.09,-19.09,5.85
4533,51.821945,-2.220885,74,23.24,13,227.8,Dec-22,2266521,2020-03-21 11:48:54:598,0.1343,0.2003,10.1391,-0.0143,0.0138,9.8066,0.0096,-0.0416,0.0341,2.29,-8.12,-35.96,39.7,-19.3,5.16
4534,51.821945,-2.220885,74,23.24,13,227.8,Dec-22,2267021,2020-03-21 11:48:55:098,-0.0471,-0.1618,10.0084,-0.0174,0.0218,9.8066,0.0011,-0.0117,0.0383,2.29,-8.43,-35.15,38.7,-19.04,4.11
4535,51.821945,-2.220885,74,23.24,13,227.8,Dec-22,2267521,2020-03-21 11:48:55:598,-0.3985,0.1955,9.6048,-0.0059,-0.0084,9.8066,0.0224,-0.0256,0.0202,2.29,-8.43,-35.59,37.23,-19.0,3.53
4536,51.821945,-2.220885,74,23.24,13,227.8,Dec-22,2268021,2020-03-21 11:48:56:098,0.6019,0.2782,9.7715,0.0267,0.0219,9.8066,-0.0224,0.0192,0.0287,3.04,-7.74,-35.15,35.99,-19.55,3.97
4537,51.821945,-2.220885,74,23.24,13,227.8,Dec-22,2268521,2020-03-21 11:48:56:598,0.6021,0.6601,9.4942,0.0402,0.0236,9.8065,-0.0085,0.0245,0.0117,2.29,-8.12,-36.4,33.93,-22.39,3.72
4538,51.821945,-2.220885,74,23.24,13,227.8,Dec-22,2269021,2020-03-21 11:48:57:098,0.4227,0.2359,10.5707,0.0164,0.01,9.8066,-0.0021,-0.0021,0.0234,2.66,-7.74,-35.59,30.26,-24.65,3.55
4539,51.821945,-2.220885,74,23.24,13,227.8,Dec-22,2269521,2020-03-21 11:48:57:598,0.7855,0.3402,9.4698,0.0154,0.0164,9.8066,0.0788,-0.033,0.0106,2.66,-7.74,-35.59,29.55,-26.38,3.91
4540,51.821945,-2.220885,74,23.24,13,227.8,Dec-22,2270021,2020-03-21 11:48:58:098,0.4248,-0.2147,10.2533,-0.0018,-0.004,9.8067,0.0277,-0.0522,0.0181,3.41,-7.37,-35.53,27.1,-27.27,4.27
4541,51.821945,-2.220885,74,23.24,13,227.8,Dec-22,2270521,2020-03-21 11:48:58:598,-0.0364,0.0666,10.2661,0.0003,-0.0064,9.8066,-0.0288,-0.0362,0.0085,3.73,-6.99,-35.53,26.63,-28.1,4.97
4542,51.821945,-2.220885,74,23.24,13,227.8,Dec-22,2271021,2020-03-21 11:48:59:098,-0.1595,-0.0104,10.6928,-0.0148,-0.0187,9.8066,0.0117,-0.0724,-0.0096,3.73,-7.74,-35.15,29.06,-28.17,4.85
4543,51.821945,-2.220885,74,23.24,13,227.8,Dec-22,2271520,2020-03-21 11:48:59:597,0.3082,-0.1286,9.3066,0.016,0.0074,9.8066,-0.0149,0.0437,0.0181,4.1,-6.99,-35.53,26.81,-28.89,5.4
4544,51.821945,-2.220885,74,23.24,13,227.8,Dec-22,2272021,2020-03-21 11:49:00:098,-0.2465,0.0184,10.4805,-0.0422,-0.032,9.8065,0.0597,-0.0671,-0.0128,4.85,-8.12,-35.96,27.63,-28.1,4.8
4545,51.821945,-2.220885,74,23.24,13,227.8,Jun-22,2272521,2020-03-21 11:49:00:598,-0.4971,0.2792,9.7841,-0.0027,-0.0135,9.8066,0.0149,-0.016,0.0192,4.85,-6.24,-35.96,25.57,-28.79,6.73
4546,51.821945,-2.220885,74,23.24,13,227.8,Jun-22,2273021,2020-03-21 11:49:01:098,-0.3705,-0.6372,9.384,-0.0049,-0.004,9.8066,-0.0053,0.0096,0.0181,5.23,-5.87,-35.53,26.95,-27.44,7.17
4547,51.821945,-2.220885,74,23.24,13,227.8,Oct-22,2273521,2020-03-21 11:49:01:598,-1.3008,-0.1467,9.373,-0.0451,-0.0146,9.8065,0.0139,-0.0437,0.0405,5.23,-5.87,-34.71,26.49,-26.64,6.38
4548,51.821945,-2.220885,74,23.24,13,227.8,Oct-22,2274021,2020-03-21 11:49:02:098,-0.7865,0.1592,9.6192,-0.057,0.0408,9.8064,-0.0181,-0.0171,0.1023,5.98,-5.49,-35.53,21.44,-23.02,4.21
4549,51.82045,-2.22295,76,12.59,19,218.7,14 / 22,2274520,2020-03-21 11:49:02:597,-0.4334,0.7555,9.1869,-0.0194,0.0464,9.8065,0.0202,0.0213,0.1257,6.35,-5.12,-35.53,18.25,-21.36,1.83
4550,51.82045,-2.22295,76,12.59,19,218.7,14 / 22,2275021,2020-03-21 11:49:03:098,-0.3034,0.7858,9.5911,-0.0159,0.0289,9.8066,0.0266,0.0043,0.1843,7.92,-4.46,-34.89,8.63,-19.34,-1.78
4551,51.82045,-2.22295,76,12.59,19,218.7,14 / 22,2275520,2020-03-21 11:49:03:597,0.3693,0.4463,10.1595,-0.0127,0.0176,9.8066,0.0639,-0.0128,0.1896,8.29,-3.77,-35.32,3.43,-18.35,-4.7
4552,51.82045,-2.22295,76,12.59,19,218.7,14 / 22,2276021,2020-03-21 11:49:04:098,0.5727,0.9192,9.9879,-0.0098,0.0294,9.8066,0.0565,-0.0266,0.2098,9.2,-1.96,-34.64,353.54,-17.41,-6.8
4553,51.82045,-2.22295,76,12.59,19,218.7,14 / 22,2276521,2020-03-21 11:49:04:598,0.2009,-0.157,10.2152,-0.0098,0.0028,9.8066,0.0735,-0.0543,0.2152,9.95,-0.15,-34.2,346.07,-16.49,-8.03
4554,51.82045,-2.22295,76,12.59,19,218.7,14 / 22,2277021,2020-03-21 11:49:05:098,0.158,0.2216,9.1138,-0.017,-0.0043,9.8066,0.0714,-0.0245,0.1481,10.85,1.69,-33.12,341.95,-15.77,-7.56
4555,51.82045,-2.22295,76,12.59,19,218.7,14 / 22,2277520,2020-03-21 11:49:05:597,0.0662,-1.0495,9.4331,0.0227,-0.038,9.8066,-0.0224,0.0192,0.0831,10.1,2.07,-34.0,343.83,-15.99,-5.88
4556,51.82045,-2.22295,76,12.59,19,218.7,14 / 22,2278021,2020-03-21 11:49:06:098,0.1118,-1.5777,9.8674,-0.0048,-0.0788,9.8063,0.0107,0.0053,0.0,10.47,2.44,-34.0,347.53,-16.59,-3.81
4557,51.82045,-2.22295,76,12.59,19,218.7,14 / 22,2278520,2020-03-21 11:49:06:597,-0.076,-1.3058,9.4239,0.0263,-0.0825,9.8063,-0.0192,0.0628,-0.0629,10.47,2.07,-33.12,354.51,-17.26,0.24
4558,51.82045,-2.22295,76,12.59,19,218.7,14 / 22,2279020,2020-03-21 11:49:07:097,-0.4488,-1.2396,10.1475,-0.0028,-0.0386,9.8066,-0.0714,0.0426,-0.1087,10.47,1.32,-33.12,5.24,-16.57,4.76
4559,51.82045,-2.22295,76,12.59,19,218.7,14 / 22,2279521,2020-03-21 11:49:07:598,-0.065,-0.1328,9.371,0.0022,-0.0218,9.8066,-0.0575,0.0447,-0.0959,10.1,0.94,-34.0,11.78,-16.04,8.36
4560,51.82045,-2.22295,76,12.59,19,218.7,14 / 22,2280020,2020-03-21 11:49:08:097,-0.1793,-0.1664,9.6452,-0.0024,-0.0346,9.8066,-0.0426,0.0021,-0.0959,9.72,0.19,-34.0,17.49,-15.76,9.99
4561,51.82045,-2.22295,76,12.59,19,218.7,Sep-22,2280521,2020-03-21 11:49:08:598,-0.0898,0.0256,10.0739,-0.0193,-0.0047,9.8066,-0.0671,-0.0788,-0.0895,8.97,-1.25,-33.56,23.12,-15.4,11.0
4562,51.82045,-2.22295,76,12.59,19,218.7,Sep-22,2281021,2020-03-21 11:49:09:098,-0.4105,-0.1273,9.0138,0.0213,-0.0169,9.8066,-0.0426,0.0756,-0.097,9.72,-2.37,-34.0,26.58,-14.12,11.72
4563,51.82045,-2.22295,76,12.59,19,218.7,Dec-22,2281521,2020-03-21 11:49:09:598,0.0035,0.0973,10.0034,-0.0154,-0.0292,9.8066,-0.0394,0.0117,-0.1129,9.46,-2.42,-32.95,30.02,-12.98,12.67
4564,51.82045,-2.22295,76,12.59,19,218.7,Dec-22,2282020,2020-03-21 11:49:10:097,0.9629,0.7155,9.5269,0.0446,0.0147,9.8065,-0.0245,0.032,-0.1033,9.46,-3.92,-32.52,36.76,-12.35,13.42
4565,51.82045,-2.22295,76,12.59,19,218.7,Dec-22,2282520,2020-03-21 11:49:10:597,0.355,1.0953,9.3491,0.0121,0.0134,9.8066,-0.0074,0.0075,-0.0852,7.96,-4.6,-32.95,39.08,-14.52,13.54
4566,51.82045,-2.22295,76,12.59,19,218.7,Dec-22,2283021,2020-03-21 11:49:11:098,-0.1225,1.1572,9.705,0.0194,0.0304,9.8066,-0.0383,0.0234,-0.0767,7.58,-5.35,-33.39,37.37,-16.13,13.27
4567,51.82045,-2.22295,76,12.59,19,218.7,Dec-22,2283520,2020-03-21 11:49:11:597,-0.3981,0.6878,9.5167,-0.0085,-0.0006,9.8066,-0.016,-0.0021,-0.081,6.9,-6.48,-32.52,40.33,-16.47,12.74
4568,51.82045,-2.22295,76,12.59,19,218.7,Dec-22,2284020,2020-03-21 11:49:12:097,-0.1444,0.2583,9.5821,0.0026,0.0109,9.8066,-0.016,0.0213,-0.065,6.6,-6.89,-32.0,41.76,-16.74,12.28
4569,51.82045,-2.22295,76,12.59,19,218.7,Dec-22,2284521,2020-03-21 11:49:12:598,-0.2847,0.1064,9.5836,-0.0027,0.0043,9.8066,-0.017,0.0181,-0.0639,5.85,-7.64,-32.43,45.01,-16.86,11.77
4570,51.82045,-2.22295,76,12.59,19,218.7,Dec-22,2285020,2020-03-21 11:49:13:097,0.2686,0.5677,9.7707,0.0116,0.0253,9.8066,-0.0298,0.0106,-0.0511,5.48,-7.64,-32.0,45.66,-17.58,11.26
4571,51.82045,-2.22295,76,12.59,19,218.7,Dec-22,2285521,2020-03-21 11:49:13:598,-0.1409,0.2161,9.8457,-0.0037,0.0178,9.8066,-0.0362,0.0096,-0.0575,4.73,-9.07,-32.87,46.18,-18.16,10.65
4572,51.82045,-2.22295,76,12.59,19,218.7,Dec-22,2286020,2020-03-21 11:49:14:097,-0.6157,0.8461,9.5763,-0.0007,0.0187,9.8066,-0.0362,0.0053,-0.0586,4.73,-9.07,-32.0,45.05,-18.67,9.89
