,GPS LATITUDE (degrees),GPS LONGITUDE (degrees), GPS ALTITUDE (m),GPS SPEED (Kmh),GPS ACCURACY (m),GPS ORIENTATION (Â°), SATELLITES IN RANGE, TIME SINCE START (ms), DATE (YYYY-MO-DD HH-MI-SS_SSS),ACCELEROMETER X (m/s²) , ACCELEROMETER Y (m/s²), ACCELEROMETER Z (m/s²), GRAVITY X (m/s²), GRAVITY Y (m/s²), GRAVITY Z (m/s²), GYROSCOPE Yaw (rad/s), GYROSCOPE Pitch (rad/s), GYROSCOPE Roll (rad/s)
7264,46.346355,-0.302237,126.74,14.01,4.288,127.1,13 / 19,726410,2019-08-09 22:47:23:637,2.4614,-2.3719,9.4646,1.6877,-1.6838,9.5125,0.0142,0.0047,-0.1381
7265,46.346355,-0.302237,126.74,14.01,4.288,127.1,13 / 19,726510,2019-08-09 22:47:23:737,1.9855,-0.6181,10.0667,1.6804,-1.6798,9.5145,-0.0204,0.0055,-0.1288
7266,46.346355,-0.302237,126.74,14.01,4.288,127.1,Nov-17,726610,2019-08-09 22:47:23:837,2.2884,-1.7434,9.6806,1.687,-1.6852,9.5123,0.0104,0.0069,-0.1482
7267,46.346355,-0.302237,126.74,14.01,4.288,127.1,Nov-17,726711,2019-08-09 22:47:23:938,1.7898,-0.9569,9.2299,1.6861,-1.6909,9.5115,-0.0078,-0.0028,-0.1421
7268,46.346355,-0.302237,126.74,14.01,4.288,127.1,Nov-17,726811,2019-08-09 22:47:24:038,2.3931,-1.4196,9.7536,1.6743,-1.6972,9.5124,-0.024,0.0164,-0.0917
7269,46.346355,-0.302237,126.74,14.01,4.288,127.1,Nov-17,726911,2019-08-09 22:47:24:138,1.9855,-0.9898,9.9661,1.6774,-1.6989,9.5116,-0.0111,0.0019,-0.1402
7270,46.346355,-0.302237,126.74,14.01,4.288,127.1,Nov-17,727010,2019-08-09 22:47:24:237,1.6635,-0.6002,9.1348,1.6666,-1.7021,9.5129,-0.0267,0.0177,-0.0889
7271,46.346355,-0.302237,126.74,14.01,4.288,127.1,Nov-17,727110,2019-08-09 22:47:24:337,2.1513,-1.0485,9.5459,1.6758,-1.7026,9.5112,-0.0163,0.0142,-0.123
7272,46.346355,-0.302237,126.74,14.01,4.288,127.1,Nov-17,727211,2019-08-09 22:47:24:438,2.2896,-0.7091,10.3013,1.6714,-1.7154,9.5097,0.0094,0.0048,-0.1143
7273,46.346355,-0.302237,126.74,14.01,4.288,127.1,Nov-17,727311,2019-08-09 22:47:24:538,2.2453,-2.0439,9.7076,1.6611,-1.7162,9.5114,-0.0024,0.013,-0.0921
7274,46.346355,-0.302237,126.74,14.01,4.288,127.1,Nov-17,727411,2019-08-09 22:47:24:638,2.2076,-1.434,9.9566,1.6693,-1.7006,9.5127,-0.0154,0.021,-0.1043
7275,46.346355,-0.302237,126.74,14.01,4.288,127.1,Nov-17,727511,2019-08-09 22:47:24:738,2.0184,-1.7835,9.5836,1.6797,-1.7043,9.5102,-0.0579,0.026,-0.0972
7276,46.346355,-0.302237,126.74,14.01,4.288,127.1,13 / 19,727611,2019-08-09 22:47:24:838,2.2531,-1.8344,9.859,1.6757,-1.6974,9.5122,0.0426,0.0108,-0.1407
7277,46.346355,-0.302237,126.74,14.01,4.288,127.1,13 / 19,727711,2019-08-09 22:47:24:938,1.8478,-0.5697,10.6245,1.6778,-1.7154,9.5086,0.0413,0.0058,-0.0945
7278,46.346355,-0.302237,126.74,14.01,4.288,127.1,13 / 19,727810,2019-08-09 22:47:25:037,1.7317,-0.9767,9.5244,1.679,-1.6823,9.5143,-0.0159,0.021,-0.1177
7279,46.346355,-0.302237,126.74,14.01,4.288,127.1,13 / 19,727911,2019-08-09 22:47:25:138,1.773,-1.2245,9.3143,1.6913,-1.7036,9.5083,-0.0004,0.0236,-0.105
7280,46.346355,-0.302237,126.74,14.01,4.288,127.1,13 / 19,728011,2019-08-09 22:47:25:238,2.4602,-1.5441,10.0811,1.6958,-1.7038,9.5074,0.0161,0.0038,-0.1411
7281,46.346355,-0.302237,126.74,14.01,4.288,127.1,13 / 19,728111,2019-08-09 22:47:25:338,2.1884,-0.7139,10.0074,1.687,-1.6981,9.51,-0.0193,-0.0067,-0.1093
7282,46.346355,-0.302237,126.74,14.01,4.288,127.1,13 / 19,728210,2019-08-09 22:47:25:437,1.4205,-0.2614,9.3155,1.6853,-1.6953,9.5108,0.0773,-0.0262,-0.2211
7283,46.346355,-0.302237,126.74,14.01,4.288,127.1,13 / 19,728310,2019-08-09 22:47:25:537,1.4672,-0.9875,8.8606,1.6735,-1.7029,9.5116,0.0577,0.0132,-0.1681
7284,46.346355,-0.302237,126.74,14.01,4.288,127.1,13 / 19,728410,2019-08-09 22:47:25:637,2.0526,-0.6594,10.1086,1.6691,-1.7439,9.5049,0.0577,0.0132,-0.1681
7285,46.346355,-0.302237,126.74,14.01,4.288,127.1,13 / 19,728510,2019-08-09 22:47:25:737,1.3744,0.215,9.4807,1.6696,-1.7265,9.508,0.0436,0.0281,-0.1325
7286,46.346355,-0.302237,126.74,14.01,4.288,127.1,13 / 18,728610,2019-08-09 22:47:25:837,2.4506,-1.5357,9.9296,1.6842,-1.7268,9.5054,-0.0204,0.0012,-0.1375
7287,46.346355,-0.302237,126.74,14.01,4.288,127.1,13 / 18,728711,2019-08-09 22:47:25:938,1.6467,-1.6961,9.6501,1.6784,-1.752,9.5018,0.0019,0.0057,-0.1317
7288,46.346355,-0.302237,126.74,14.01,4.288,127.1,13 / 18,728810,2019-08-09 22:47:26:037,1.9688,-2.3635,9.4119,1.675,-1.7656,9.4999,0.0037,0.0102,-0.1021
7289,46.346355,-0.302237,126.74,14.01,4.288,127.1,13 / 18,728910,2019-08-09 22:47:26:137,2.353,-1.8907,9.7046,1.683,-1.7572,9.5,-0.0297,0.036,-0.0887
7290,46.346355,-0.302237,126.74,14.01,4.288,127.1,13 / 18,729011,2019-08-09 22:47:26:238,1.7245,-0.5152,9.698,1.6925,-1.7632,9.4972,0.0069,0.0069,-0.1564
7291,46.346355,-0.302237,126.74,14.01,4.288,127.1,13 / 18,729111,2019-08-09 22:47:26:338,2.0657,-0.1812,9.3275,1.7042,-1.7586,9.496,-0.0015,0.0327,-0.0907
7292,46.346355,-0.302237,126.74,14.01,4.288,127.1,13 / 18,729210,2019-08-09 22:47:26:437,2.3255,-2.1828,9.5118,1.7057,-1.7623,9.495,0.025,0.0282,-0.1429
7293,46.346355,-0.302237,126.74,14.01,4.288,127.1,13 / 18,729311,2019-08-09 22:47:26:538,2.2076,-0.0693,9.6429,1.7171,-1.7833,9.489,-0.0209,0.0011,-0.1152
7294,46.346355,-0.302237,126.74,14.01,4.288,127.1,13 / 18,729411,2019-08-09 22:47:26:638,1.6114,-0.6056,9.4412,1.725,-1.7539,9.4931,-0.0065,0.0183,-0.1159
7295,46.346355,-0.302237,126.74,14.01,4.288,127.1,13 / 18,729511,2019-08-09 22:47:26:738,2.0956,-0.6804,9.2173,1.729,-1.7537,9.4924,0.01,0.0139,-0.1317
7296,46.346355,-0.302237,126.74,14.01,4.288,127.1,Nov-16,729611,2019-08-09 22:47:26:838,2.4015,-1.1736,9.9452,1.729,-1.7639,9.4905,-0.0049,0.0095,-0.1313
7297,46.346355,-0.302237,126.74,14.01,4.288,127.1,Nov-16,729710,2019-08-09 22:47:26:937,2.3638,-1.4118,9.3179,1.7368,-1.7344,9.4945,-0.0045,0.0151,-0.1473
7298,46.346355,-0.302237,126.74,14.01,4.288,127.1,Nov-16,729810,2019-08-09 22:47:27:037,1.4762,-1.4495,8.7846,1.7456,-1.7391,9.492,-0.0274,0.0355,-0.1134
7299,46.346355,-0.302237,126.74,14.01,4.288,127.1,Nov-16,729911,2019-08-09 22:47:27:138,1.6461,-1.853,9.1653,1.7516,-1.7133,9.4956,-0.002,0.0051,-0.1151
7300,46.346355,-0.302237,126.74,14.01,4.288,127.1,Nov-16,730010,2019-08-09 22:47:27:237,1.9083,-1.7033,9.1108,1.7421,-1.705,9.4989,0.008,0.0154,-0.1039
7301,46.346355,-0.302237,126.74,14.01,4.288,127.1,Nov-16,730111,2019-08-09 22:47:27:338,2.1334,-2.1684,9.6465,1.7404,-1.7185,9.4967,-0.0169,0.0007,-0.1072
7302,46.346355,-0.302237,126.74,14.01,4.288,127.1,Nov-16,730210,2019-08-09 22:47:27:437,1.9652,-1.6638,10.1487,1.7222,-1.7251,9.4989,-0.0048,-0.0083,-0.1142
7303,46.346355,-0.302237,126.74,14.01,4.288,127.1,Nov-16,730310,2019-08-09 22:47:27:537,1.3822,-1.346,9.4358,1.7047,-1.7348,9.5003,-0.012,0.0003,-0.066
7304,46.346355,-0.302237,126.74,14.01,4.288,127.1,Nov-16,730410,2019-08-09 22:47:27:637,2.1238,-1.1706,9.7638,1.6864,-1.7349,9.5035,-0.0058,0.0219,-0.0748
7305,46.346355,-0.302237,126.74,14.01,4.288,127.1,Nov-16,730510,2019-08-09 22:47:27:737,2.6768,-2.008,10.0517,1.6738,-1.7552,9.502,-0.005,-0.0107,-0.1379
7306,46.34525,-0.301789,133.16,14.76,3.216,191.1,13 / 20,730610,2019-08-09 22:47:27:837,1.4935,-1.1125,9.6609,1.6581,-1.7388,9.5078,-0.0336,0.0083,-0.1097
7307,46.34525,-0.301789,133.16,14.76,3.216,191.1,13 / 20,730712,2019-08-09 22:47:27:939,1.9149,-2.017,9.0593,1.6503,-1.7319,9.5104,-0.0023,0.016,-0.0833
7308,46.34525,-0.301789,133.16,14.76,3.216,191.1,13 / 20,730810,2019-08-09 22:47:28:037,2.1609,-0.8971,9.4478,1.6458,-1.7307,9.5114,-0.015,0.0079,-0.0927
7309,46.34525,-0.301789,133.16,14.76,3.216,191.1,13 / 20,730911,2019-08-09 22:47:28:138,1.9586,-0.3805,9.7764,1.6416,-1.7122,9.5155,0.0006,0.0243,-0.087
7310,46.34525,-0.301789,133.16,14.76,3.216,191.1,13 / 20,731010,2019-08-09 22:47:28:237,1.9023,-1.2251,9.6088,1.6324,-1.7049,9.5184,0.0167,-0.0061,-0.1325
7311,46.34525,-0.301789,133.16,14.76,3.216,191.1,13 / 20,731110,2019-08-09 22:47:28:337,1.3493,-1.2101,9.3077,1.6346,-1.7036,9.5182,-0.0327,0.0094,-0.077
7312,46.34525,-0.301789,133.16,14.76,3.216,191.1,13 / 20,731210,2019-08-09 22:47:28:437,2.4225,-1.847,10.0829,1.6211,-1.7236,9.5169,0.0214,-0.0064,-0.1308
7313,46.34525,-0.301789,133.16,14.76,3.216,191.1,13 / 20,731310,2019-08-09 22:47:28:537,2.2016,-1.4196,9.2539,1.6269,-1.6905,9.5219,-0.0081,0.0134,-0.1131
7314,46.34525,-0.301789,133.16,14.76,3.216,191.1,13 / 20,731410,2019-08-09 22:47:28:637,1.4259,-2.0612,9.4412,1.6244,-1.7072,9.5193,0.0233,0.0234,-0.1154
7315,46.34525,-0.301789,133.16,14.76,3.216,191.1,13 / 20,731511,2019-08-09 22:47:28:738,1.8389,-1.1957,9.8243,1.6304,-1.6916,9.5211,0.0068,0.015,-0.0922
7316,46.34525,-0.301789,133.16,14.76,3.216,191.1,13 / 19,731610,2019-08-09 22:47:28:837,1.4612,-0.5601,9.6052,1.6371,-1.6885,9.5205,0.0191,0.0358,-0.1187
7317,46.34525,-0.301789,133.16,14.76,3.216,191.1,13 / 19,731713,2019-08-09 22:47:28:940,2.0154,-1.8374,9.6214,1.6449,-1.706,9.516,0.0031,0.0395,-0.0924
7318,46.34525,-0.301789,133.16,14.76,3.216,191.1,13 / 19,731811,2019-08-09 22:47:29:038,2.0292,-1.4962,9.7722,1.6686,-1.7108,9.511,0.006,0.0255,-0.0923
7319,46.34525,-0.301789,133.16,14.76,3.216,191.1,13 / 19,731910,2019-08-09 22:47:29:137,1.8071,-1.1137,9.771,1.6774,-1.7143,9.5088,-0.01,0.0232,-0.1071
7320,46.34525,-0.301789,133.16,14.76,3.216,191.1,13 / 19,732011,2019-08-09 22:47:29:238,1.8963,-2.0607,9.6226,1.688,-1.6932,9.5107,0.0227,0.0286,-0.1032
7321,46.34525,-0.301789,133.16,14.76,3.216,191.1,13 / 19,732110,2019-08-09 22:47:29:337,1.8365,-0.326,9.1695,1.6969,-1.7111,9.5059,-0.0285,0.0288,-0.0942
7322,46.34525,-0.301789,133.16,14.76,3.216,191.1,13 / 19,732210,2019-08-09 22:47:29:437,2.2231,-1.1556,9.5441,1.7117,-1.7204,9.5016,-0.0288,0.0182,-0.0928
7323,46.34525,-0.301789,133.16,14.76,3.216,191.1,13 / 19,732311,2019-08-09 22:47:29:538,1.9909,-0.8288,9.771,1.7169,-1.7174,9.5012,0.0155,0.0044,-0.1417
7324,46.34525,-0.301789,133.16,14.76,3.216,191.1,13 / 19,732411,2019-08-09 22:47:29:638,1.2463,-1.4932,8.8588,1.7184,-1.7089,9.5025,0.0418,0.0223,-0.1531
7325,46.34525,-0.301789,133.16,14.76,3.216,191.1,13 / 19,732510,2019-08-09 22:47:29:737,2.4368,-1.1922,9.5609,1.7208,-1.7295,9.4983,-0.0077,0.0014,-0.1363
7326,46.34525,-0.301789,133.16,14.76,3.216,191.1,13 / 19,732610,2019-08-09 22:47:29:837,1.618,-1.4729,9.4412,1.715,-1.7331,9.4987,0.0148,-0.0006,-0.1583
7327,46.34525,-0.301789,133.16,14.76,3.216,191.1,13 / 19,732711,2019-08-09 22:47:29:938,1.9478,-0.9701,9.5801,1.7131,-1.7237,9.5008,-0.0203,-0.0006,-0.0904
7328,46.34525,-0.301789,133.16,14.76,3.216,191.1,13 / 19,732811,2019-08-09 22:47:30:038,2.2261,-0.6271,9.8099,1.7141,-1.7261,9.5001,0.0212,0.0128,-0.1217
7329,46.34525,-0.301789,133.16,14.76,3.216,191.1,13 / 19,732911,2019-08-09 22:47:30:138,2.5661,-2.078,9.8656,1.7052,-1.7227,9.5024,-0.0254,-0.008,-0.1164
7330,46.34525,-0.301789,133.16,14.76,3.216,191.1,13 / 19,733010,2019-08-09 22:47:30:237,2.4751,-2.4186,9.9117,1.6965,-1.7131,9.5057,0.0229,-0.0026,-0.1306
7331,46.34525,-0.301789,133.16,14.76,3.216,191.1,13 / 19,733110,2019-08-09 22:47:30:337,1.9646,-0.0166,9.7477,1.6848,-1.738,9.5032,-0.0462,0.0066,-0.1275
7332,46.34525,-0.301789,133.16,14.76,3.216,191.1,13 / 19,733210,2019-08-09 22:47:30:437,2.0232,-2.4497,8.9486,1.6829,-1.7213,9.5066,-0.0014,0.0222,-0.12
7333,46.34525,-0.301789,133.16,14.76,3.216,191.1,13 / 19,733310,2019-08-09 22:47:30:537,2.3722,-0.4841,9.8722,1.6899,-1.7208,9.5054,-0.0149,0.0103,-0.1445
7334,46.34525,-0.301789,133.16,14.76,3.216,191.1,13 / 19,733411,2019-08-09 22:47:30:638,2.7888,-0.6822,9.7297,1.7001,-1.7059,9.5063,-0.034,0.0328,-0.0806
7335,46.34525,-0.301789,133.16,14.76,3.216,191.1,13 / 19,733510,2019-08-09 22:47:30:737,1.7275,-0.7373,9.3376,1.7105,-1.7154,9.5027,-0.0294,0.0141,-0.1445
7336,46.34525,-0.301789,133.16,14.76,3.216,191.1,14 / 19,733610,2019-08-09 22:47:30:837,2.7062,-0.7402,9.9673,1.7169,-1.7015,9.5041,0.0345,0.0056,-0.1419
7337,46.34525,-0.301789,133.16,14.76,3.216,191.1,14 / 19,733710,2019-08-09 22:47:30:937,2.7325,-1.999,9.7656,1.7211,-1.7221,9.4996,-0.0098,0.0141,-0.1426
7338,46.34525,-0.301789,133.16,14.76,3.216,191.1,14 / 19,733810,2019-08-09 22:47:31:037,2.2962,-0.7289,9.3891,1.7285,-1.698,9.5026,0.0393,0.004,-0.1181
7339,46.34525,-0.301789,133.16,14.76,3.216,191.1,14 / 19,733910,2019-08-09 22:47:31:137,1.8766,-2.7993,9.021,1.7294,-1.7091,9.5004,0.0385,0.0192,-0.1477
7340,46.34525,-0.301789,133.16,14.76,3.216,191.1,14 / 19,734010,2019-08-09 22:47:31:237,2.204,-1.5172,9.2826,1.7347,-1.7153,9.4984,0.0249,0.0304,-0.1231
7341,46.34525,-0.301789,133.16,14.76,3.216,191.1,14 / 19,734110,2019-08-09 22:47:31:337,2.3794,-2.4054,9.2934,1.7511,-1.674,9.5027,-0.0666,0.0205,-0.1243
7342,46.34525,-0.301789,133.16,14.76,3.216,191.1,14 / 19,734210,2019-08-09 22:47:31:437,2.2632,-2.1313,8.9929,1.7637,-1.676,9.5,-0.0211,0.0259,-0.1296
7343,46.34525,-0.301789,133.16,14.76,3.216,191.1,14 / 19,734310,2019-08-09 22:47:31:537,3.042,-0.3464,10.2115,1.7854,-1.6809,9.4951,0.0235,0.0078,-0.1687
7344,46.34525,-0.301789,133.16,14.76,3.216,191.1,14 / 19,734410,2019-08-09 22:47:31:637,2.1268,-2.6305,9.4867,1.7943,-1.6736,9.4947,-0.0244,0.0032,-0.1125
7345,46.34525,-0.301789,133.16,14.76,3.216,191.1,14 / 19,734510,2019-08-09 22:47:31:737,2.0484,-2.2504,8.6433,1.7707,-1.6727,9.4993,-0.005,-0.0096,-0.1231
7346,46.34525,-0.301789,133.16,14.76,3.216,191.1,14 / 20,734610,2019-08-09 22:47:31:837,2.0669,-1.3867,8.6709,1.7616,-1.6906,9.4978,-0.0203,0.0056,-0.1057
7347,46.34525,-0.301789,133.16,14.76,3.216,191.1,14 / 20,734710,2019-08-09 22:47:31:937,2.2866,-0.2997,10.1666,1.7557,-1.6657,9.5033,-0.0372,0.0074,-0.1164
7348,46.34525,-0.301789,133.16,14.76,3.216,191.1,14 / 20,734810,2019-08-09 22:47:32:037,1.4785,-0.4883,9.3323,1.7484,-1.6529,9.5069,-0.0286,-0.0062,-0.1236
7349,46.34525,-0.301789,133.16,14.76,3.216,191.1,14 / 20,734910,2019-08-09 22:47:32:137,2.1555,0.6849,9.9721,1.7619,-1.6809,9.4995,0.0042,0.0271,-0.1362
7350,46.34525,-0.301789,133.16,14.76,3.216,191.1,14 / 20,735010,2019-08-09 22:47:32:237,1.7485,-0.356,8.9779,1.7625,-1.7101,9.4942,-0.0344,0.0273,-0.1113
7351,46.34525,-0.301789,133.16,14.76,3.216,191.1,14 / 20,735111,2019-08-09 22:47:32:338,2.2854,-2.16,9.9901,1.7797,-1.7059,9.4917,-0.0131,0.0193,-0.1075
7352,46.34525,-0.301789,133.16,14.76,3.216,191.1,14 / 20,735210,2019-08-09 22:47:32:437,2.3237,-1.094,10.1714,1.7875,-1.7366,9.4847,-0.016,0.0088,-0.1155
7353,46.34525,-0.301789,133.16,14.76,3.216,191.1,14 / 20,735310,2019-08-09 22:47:32:537,2.2597,-1.4435,9.2778,1.7883,-1.7215,9.4873,-0.0141,0.0125,-0.1144
7354,46.34525,-0.301789,133.16,14.76,3.216,191.1,14 / 20,735410,2019-08-09 22:47:32:637,2.2381,-1.2616,9.4107,1.79,-1.7264,9.4861,-0.0159,0.0032,-0.1004
7355,46.34525,-0.301789,133.16,14.76,3.216,191.1,14 / 20,735510,2019-08-09 22:47:32:737,2.2154,-1.6674,9.7548,1.7751,-1.7226,9.4896,-0.0355,-0.0035,-0.103
7356,46.34525,-0.301789,133.16,14.76,3.216,191.1,13 / 19,735610,2019-08-09 22:47:32:837,1.5911,-1.1598,9.2946,1.7623,-1.7462,9.4876,0.001,0.0041,-0.0829
7357,46.34525,-0.301789,133.16,14.76,3.216,191.1,13 / 19,735710,2019-08-09 22:47:32:937,2.7977,-0.2806,10.8226,1.7468,-1.7713,9.4858,-0.0471,0.0007,-0.0612
7358,46.34525,-0.301789,133.16,14.76,3.216,191.1,13 / 19,735811,2019-08-09 22:47:33:038,2.0819,-0.4978,9.8033,1.7248,-1.7665,9.4908,0.0616,-0.004,-0.1233
7359,46.34525,-0.301789,133.16,14.76,3.216,191.1,13 / 19,735911,2019-08-09 22:47:33:138,2.7672,-1.6075,10.1672,1.7193,-1.8301,9.4797,-0.0925,0.0015,-0.1779
7360,46.34525,-0.301789,133.16,14.76,3.216,191.1,13 / 19,736010,2019-08-09 22:47:33:237,1.6437,-3.0925,9.868,1.7319,-1.8607,9.4715,0.0825,0.0319,-0.0654
7361,46.34525,-0.301789,133.16,14.76,3.216,191.1,13 / 19,736110,2019-08-09 22:47:33:337,2.2531,-4.3962,8.6691,1.7372,-1.8337,9.4758,-0.0298,0.0137,-0.1138
7362,46.34525,-0.301789,133.16,14.76,3.216,191.1,13 / 19,736211,2019-08-09 22:47:33:438,2.0041,-0.9868,8.5877,1.7438,-1.837,9.4739,-0.0653,0.0228,-0.1059
7363,46.34525,-0.301789,133.16,14.76,3.216,191.1,13 / 19,736310,2019-08-09 22:47:33:537,1.8628,-1.3873,9.0749,1.7491,-1.7907,9.4818,-0.0422,0.0198,-0.1012
7364,46.34525,-0.301789,133.16,14.76,3.216,191.1,13 / 19,736410,2019-08-09 22:47:33:637,2.0418,-1.1018,9.8183,1.7644,-1.7777,9.4814,0.0079,0.0187,-0.0892
7365,46.34525,-0.301789,133.16,14.76,3.216,191.1,13 / 19,736510,2019-08-09 22:47:33:737,1.8897,-1.4453,9.6986,1.7645,-1.7795,9.4811,0.0054,0.0137,-0.1003
7366,46.34525,-0.301789,133.16,14.76,3.216,191.1,14 / 19,736610,2019-08-09 22:47:33:837,1.8963,-1.762,10.1098,1.7676,-1.8145,9.4738,0.0386,0.0301,-0.0947
7367,46.34525,-0.301789,133.16,14.76,3.216,191.1,14 / 19,736710,2019-08-09 22:47:33:937,1.7539,-1.3963,9.7806,1.7739,-1.8204,9.4715,-0.0082,0.0253,-0.0853
7368,46.34525,-0.301789,133.16,14.76,3.216,191.1,14 / 19,736810,2019-08-09 22:47:34:037,2.1687,-1.4238,9.6453,1.786,-1.8288,9.4676,-0.0081,0.0292,-0.0949
7369,46.34525,-0.301789,133.16,14.76,3.216,191.1,14 / 19,736910,2019-08-09 22:47:34:137,2.2519,-1.7614,10.0751,1.8005,-1.8256,9.4655,0.0002,0.0205,-0.1035
7370,46.34525,-0.301789,133.16,14.76,3.216,191.1,14 / 19,737010,2019-08-09 22:47:34:237,1.9137,-1.686,9.4137,1.8029,-1.8252,9.4651,-0.0152,0.0151,-0.0817
7371,46.34525,-0.301789,133.16,14.76,3.216,191.1,14 / 19,737110,2019-08-09 22:47:34:337,2.0531,-1.5166,9.2215,1.8087,-1.8336,9.4624,-0.0095,0.0257,-0.0953
7372,46.34525,-0.301789,133.16,14.76,3.216,191.1,14 / 19,737211,2019-08-09 22:47:34:438,1.63,-1.2604,9.3951,1.8163,-1.8164,9.4643,-0.0207,0.0137,-0.0736
7373,46.34525,-0.301789,133.16,14.76,3.216,191.1,14 / 19,737311,2019-08-09 22:47:34:538,2.1076,-1.7925,9.7632,1.8145,-1.8421,9.4596,-0.0087,0.0011,-0.0995
7374,46.34525,-0.301789,133.16,14.76,3.216,191.1,14 / 19,737410,2019-08-09 22:47:34:637,1.1793,-0.9916,9.1563,1.7894,-1.8049,9.4716,-0.0117,0.0045,-0.0585
7375,46.34525,-0.301789,133.16,14.76,3.216,191.1,14 / 19,737510,2019-08-09 22:47:34:737,1.472,-1.5621,9.8494,1.7822,-1.8024,9.4734,0.0121,0.0047,-0.0615
7376,46.34525,-0.301789,133.16,14.76,3.216,191.1,14 / 18,737610,2019-08-09 22:47:34:837,1.6515,-1.4016,10.114,1.7601,-1.822,9.4738,0.0096,-0.0055,-0.0472
7377,46.34525,-0.301789,133.16,14.76,3.216,191.1,14 / 18,737711,2019-08-09 22:47:34:938,1.0961,-1.8889,9.0899,1.7499,-1.8177,9.4765,0.0219,0.0182,-0.0736
7378,46.34525,-0.301789,133.16,14.76,3.216,191.1,14 / 18,737811,2019-08-09 22:47:35:038,2.1364,-1.3675,9.6016,1.7324,-1.8461,9.4742,-0.0013,-0.0107,-0.0895
7379,46.34525,-0.301789,133.16,14.76,3.216,191.1,14 / 18,737910,2019-08-09 22:47:35:137,0.6735,-1.6476,9.3628,1.7056,-1.8188,9.4844,-0.0305,-0.0363,-0.0197
7380,46.34525,-0.301789,133.16,14.76,3.216,191.1,14 / 18,738010,2019-08-09 22:47:35:237,1.272,-1.6566,8.8307,1.6717,-1.8157,9.491,-0.0416,0.0008,-0.0572
7381,46.34525,-0.301789,133.16,14.76,3.216,191.1,14 / 18,738110,2019-08-09 22:47:35:337,1.6629,-1.5704,10.0326,1.6739,-1.7804,9.4973,0.0137,0.0149,-0.0807
7382,46.34525,-0.301789,133.16,14.76,3.216,191.1,14 / 18,738211,2019-08-09 22:47:35:438,0.6717,-2.1301,9.5561,1.6695,-1.7558,9.5027,-0.0398,0.0246,-0.0055
7383,46.34525,-0.301789,133.16,14.76,3.216,191.1,14 / 18,738310,2019-08-09 22:47:35:537,1.6916,-1.7458,9.923,1.669,-1.8068,9.4932,-0.0328,-0.0053,-0.0691
7384,46.34525,-0.301789,133.16,14.76,3.216,191.1,14 / 18,738410,2019-08-09 22:47:35:637,0.9632,-1.8506,9.9673,1.6366,-1.8311,9.4942,-0.0009,-0.0034,-0.0496
7385,46.34525,-0.301789,133.16,14.76,3.216,191.1,14 / 18,738510,2019-08-09 22:47:35:737,1.0997,-2.2253,9.4783,1.6257,-1.8297,9.4963,0.0045,0.0005,-0.0349
7386,46.34525,-0.301789,133.16,14.76,3.216,191.1,14 / 19,738610,2019-08-09 22:47:35:837,0.7166,-1.8613,9.3113,1.6017,-1.8171,9.5028,0.011,0.0161,-0.0294
7387,46.34525,-0.301789,133.16,14.76,3.216,191.1,14 / 19,738710,2019-08-09 22:47:35:937,1.1954,-1.5788,9.7321,1.5931,-1.8411,9.4996,0.004,-0.0001,-0.0571
7388,46.34525,-0.301789,133.16,14.76,3.216,191.1,14 / 19,738810,2019-08-09 22:47:36:037,0.7471,-1.6064,8.8026,1.5745,-1.827,9.5054,0.0125,0.0013,-0.0509
7389,46.34525,-0.301789,133.16,14.76,3.216,191.1,14 / 19,738910,2019-08-09 22:47:36:137,0.8848,-0.8588,9.4137,1.561,-1.8122,9.5105,-0.0113,-0.0085,-0.0135
7390,46.34525,-0.301789,133.16,14.76,3.216,191.1,14 / 19,739010,2019-08-09 22:47:36:237,0.7292,-0.3075,9.7518,1.5109,-1.8025,9.5204,0.0089,-0.0184,-0.0174
7391,46.34525,-0.301789,133.16,14.76,3.216,191.1,14 / 19,739111,2019-08-09 22:47:36:338,0.6448,-0.1058,9.3939,1.4873,-1.7789,9.5286,-0.0376,-0.0019,-0.0062
7392,46.34525,-0.301789,133.16,14.76,3.216,191.1,14 / 19,739210,2019-08-09 22:47:36:437,0.5257,0.4982,9.2724,1.4631,-1.7283,9.5416,-0.0074,-0.0045,-0.0355
7393,46.34525,-0.301789,133.16,14.76,3.216,191.1,14 / 19,739310,2019-08-09 22:47:36:537,0.7555,-1.3017,9.4107,1.4412,-1.7029,9.5495,0.0509,-0.0004,-0.0132
7394,46.34525,-0.301789,133.16,14.76,3.216,191.1,14 / 19,739410,2019-08-09 22:47:36:637,0.9913,-1.4262,9.9272,1.4153,-1.673,9.5587,-0.024,-0.0026,-0.0226
7395,46.34525,-0.301789,133.16,14.76,3.216,191.1,14 / 19,739510,2019-08-09 22:47:36:737,0.8686,-2.4922,9.3526,1.399,-1.6658,9.5624,0.0269,-0.0037,-0.02
7396,46.344315,-0.302928,134.61,17.55,3.216,238.3,15 / 20,739610,2019-08-09 22:47:36:837,1.0643,0.2234,10.3851,1.391,-1.6517,9.566,0.0327,-0.0178,-0.0349
7397,46.344315,-0.302928,134.61,17.55,3.216,238.3,15 / 20,739710,2019-08-09 22:47:36:937,0.7387,-0.991,9.8117,1.3552,-1.6335,9.5742,0.0327,-0.0178,-0.0349
7398,46.344315,-0.302928,134.61,17.55,3.216,238.3,15 / 20,739810,2019-08-09 22:47:37:037,0.5472,-1.1155,9.4633,1.3506,-1.6194,9.5773,0.0205,0.0211,-0.0106
7399,46.344315,-0.302928,134.61,17.55,3.216,238.3,15 / 20,739910,2019-08-09 22:47:37:137,0.7441,-2.6227,9.2772,1.3462,-1.5841,9.5838,0.0531,0.0168,0.0009
7400,46.344315,-0.302928,134.61,17.55,3.216,238.3,15 / 20,740014,2019-08-09 22:47:37:241,0.306,-1.6315,9.4843,1.3472,-1.6135,9.5787,0.0177,0.0081,-0.0041
7401,46.344315,-0.302928,134.61,17.55,3.216,238.3,15 / 20,740110,2019-08-09 22:47:37:337,0.5598,-1.987,9.3568,1.3373,-1.6233,9.5785,0.0107,0.0074,-0.0086
7402,46.344315,-0.302928,134.61,17.55,3.216,238.3,15 / 20,740210,2019-08-09 22:47:37:437,0.3036,-1.9517,9.7393,1.3185,-1.6332,9.5794,-0.0024,-0.0016,-0.0031
7403,46.344315,-0.302928,134.61,17.55,3.216,238.3,15 / 20,740310,2019-08-09 22:47:37:537,0.3018,-0.7175,9.9242,1.3008,-1.6269,9.5829,0.0058,0.0038,0.0072
7404,46.344315,-0.302928,134.61,17.55,3.216,238.3,15 / 20,740410,2019-08-09 22:47:37:637,0.4556,-1.3604,9.5034,1.2883,-1.6255,9.5848,-0.008,0.0005,0.001
7405,46.344315,-0.302928,134.61,17.55,3.216,238.3,15 / 20,740510,2019-08-09 22:47:37:737,0.4006,-1.7069,9.2874,1.2541,-1.5999,9.5936,-0.0147,-0.005,0.0
7406,46.344315,-0.302928,134.61,17.55,3.216,238.3,15 / 19,740610,2019-08-09 22:47:37:837,0.3676,-1.7332,10.0374,1.2412,-1.618,9.5923,0.0205,-0.0039,0.0222
7407,46.344315,-0.302928,134.61,17.55,3.216,238.3,15 / 19,740710,2019-08-09 22:47:37:937,0.47,-1.0892,9.7393,1.2147,-1.6004,9.5986,0.0022,0.0035,-0.0015
7408,46.344315,-0.302928,134.61,17.55,3.216,238.3,15 / 19,740810,2019-08-09 22:47:38:037,0.3353,-0.7067,9.7459,1.2023,-1.5951,9.6011,-0.0266,-0.008,0.002
7409,46.344315,-0.302928,134.61,17.55,3.216,238.3,15 / 19,740910,2019-08-09 22:47:38:137,0.3048,-2.0954,9.4125,1.1697,-1.5919,9.6056,0.0219,-0.0053,0.0105
7410,46.344315,-0.302928,134.61,17.55,3.216,238.3,15 / 19,741010,2019-08-09 22:47:38:237,0.136,-1.7087,9.458,1.1551,-1.5818,9.6091,0.0141,-0.0092,-0.0177
7411,46.344315,-0.302928,134.61,17.55,3.216,238.3,15 / 19,741110,2019-08-09 22:47:38:337,0.3407,-1.7823,9.4484,1.1213,-1.5862,9.6123,-0.0211,-0.0067,0.0239
7412,46.344315,-0.302928,134.61,17.55,3.216,238.3,15 / 19,741211,2019-08-09 22:47:38:438,0.6208,-2.2366,10.3989,1.1014,-1.6308,9.6072,0.0576,-0.0165,-0.0093
7413,46.344315,-0.302928,134.61,17.55,3.216,238.3,15 / 19,741310,2019-08-09 22:47:38:537,0.3754,-2.5868,9.3616,1.0674,-1.6275,9.6116,0.0065,-0.0035,0.004
7414,46.344315,-0.302928,134.61,17.55,3.216,238.3,15 / 19,741410,2019-08-09 22:47:38:637,0.5861,-2.0846,9.8787,1.0587,-1.6435,9.6098,0.0086,0.0108,0.0
7415,46.344315,-0.302928,134.61,17.55,3.216,238.3,15 / 19,741511,2019-08-09 22:47:38:738,0.3611,-2.3725,9.2748,1.0516,-1.6158,9.6153,-0.0658,0.0072,0.0049
7416,46.344315,-0.302928,134.61,17.55,3.216,238.3,14 / 19,741610,2019-08-09 22:47:38:837,0.5927,-1.9014,9.5507,1.0468,-1.6434,9.6111,-0.0353,0.0034,-0.0061
7417,46.344315,-0.302928,134.61,17.55,3.216,238.3,14 / 19,741711,2019-08-09 22:47:38:938,0.5316,-1.7225,8.9558,1.0412,-1.6329,9.6135,0.0033,0.0097,-0.0031
7418,46.344315,-0.302928,134.61,17.55,3.216,238.3,14 / 19,741811,2019-08-09 22:47:39:038,0.4885,-1.9984,9.768,1.0407,-1.6606,9.6088,0.0098,0.0174,-0.0069
7419,46.344315,-0.302928,134.61,17.55,3.216,238.3,14 / 19,741911,2019-08-09 22:47:39:138,0.8429,-2.9818,9.452,1.0348,-1.6328,9.6142,-0.0067,0.0033,0.0114
7420,46.344315,-0.302928,134.61,17.55,3.216,238.3,14 / 19,742011,2019-08-09 22:47:39:238,0.7142,-1.7314,9.4203,1.0271,-1.6575,9.6108,-0.0286,0.0024,-0.0162
7421,46.344315,-0.302928,134.61,17.55,3.216,238.3,14 / 19,742111,2019-08-09 22:47:39:338,0.8315,-1.8428,9.5585,1.0131,-1.6461,9.6143,0.0042,-0.0059,-0.0011
7422,46.344315,-0.302928,134.61,17.55,3.216,238.3,14 / 19,742210,2019-08-09 22:47:39:437,0.6849,-1.9589,9.6669,0.9972,-1.652,9.6149,-0.0198,-0.0135,0.0012
7423,46.344315,-0.302928,134.61,17.55,3.216,238.3,14 / 19,742311,2019-08-09 22:47:39:538,0.7663,-1.9625,9.7219,0.9658,-1.6493,9.6186,-0.0081,-0.0108,0.0071
7424,46.344315,-0.302928,134.61,17.55,3.216,238.3,14 / 19,742410,2019-08-09 22:47:39:637,0.6998,-1.9212,9.8057,0.9494,-1.6698,9.6167,0.003,-0.0175,0.0027
7425,46.344315,-0.302928,134.61,17.55,3.216,238.3,14 / 19,742511,2019-08-09 22:47:39:738,0.1294,-2.2767,9.2886,0.9377,-1.643,9.6225,0.0349,0.006,-0.0314
7426,46.344315,-0.302928,134.61,17.55,3.216,238.3,14 / 19,742610,2019-08-09 22:47:39:837,-0.5966,0.4437,9.024,0.9275,-1.6884,9.6156,-0.09,-0.0056,0.0518
7427,46.344315,-0.302928,134.61,17.55,3.216,238.3,14 / 19,742710,2019-08-09 22:47:39:937,0.7363,-3.0363,10.1337,0.9099,-1.6823,9.6183,-0.0703,-0.0139,-0.0023
7428,46.344315,-0.302928,134.61,17.55,3.216,238.3,14 / 19,742810,2019-08-09 22:47:40:037,0.042,1.1075,10.0906,0.899,-1.6733,9.6209,0.0625,-0.0017,0.0289
7429,46.344315,-0.302928,134.61,17.55,3.216,238.3,14 / 19,742911,2019-08-09 22:47:40:138,0.3676,-2.4186,9.6124,0.9064,-1.6727,9.6203,0.0143,0.022,0.0202
7430,46.344315,-0.302928,134.61,17.55,3.216,238.3,14 / 19,743010,2019-08-09 22:47:40:237,0.6466,-1.5962,9.4209,0.9042,-1.6882,9.6178,-0.0131,0.0146,0.0197
7431,46.344315,-0.302928,134.61,17.55,3.216,238.3,14 / 19,743110,2019-08-09 22:47:40:337,0.1833,-2.0995,9.6501,0.9108,-1.6788,9.6189,-0.0135,0.0137,-0.0029
7432,46.344315,-0.302928,134.61,17.55,3.216,238.3,14 / 19,743211,2019-08-09 22:47:40:438,0.6238,-2.3497,9.8524,0.923,-1.6868,9.6163,-0.0133,0.0153,-0.0222
7433,46.344315,-0.302928,134.61,17.55,3.216,238.3,14 / 19,743310,2019-08-09 22:47:40:537,0.3215,-1.7147,9.0575,0.9272,-1.6693,9.6189,0.0105,0.0194,-0.0058
7434,46.344315,-0.302928,134.61,17.55,3.216,238.3,14 / 19,743410,2019-08-09 22:47:40:637,0.4221,-1.6411,9.7884,0.9481,-1.6564,9.6191,0.0013,0.0197,-0.0045
7435,46.344315,-0.302928,134.61,17.55,3.216,238.3,14 / 19,743510,2019-08-09 22:47:40:737,0.7082,-1.6878,9.9931,0.9453,-1.6488,9.6207,0.001,0.0051,0.0119
7436,46.344315,-0.302928,134.61,17.55,3.216,238.3,14 / 19,743611,2019-08-09 22:47:40:838,0.1719,-1.0946,9.1311,0.9407,-1.6469,9.6215,-0.028,0.0106,0.005
7437,46.344315,-0.302928,134.61,17.55,3.216,238.3,14 / 19,743710,2019-08-09 22:47:40:937,0.6029,-2.0696,9.4777,0.9362,-1.6359,9.6238,-0.0081,0.0082,0.0161
7438,46.344315,-0.302928,134.61,17.55,3.216,238.3,14 / 19,743811,2019-08-09 22:47:41:038,0.6071,-0.7762,10.0026,0.926,-1.6278,9.6262,-0.0228,-0.0068,0.0107
7439,46.344315,-0.302928,134.61,17.55,3.216,238.3,14 / 19,743911,2019-08-09 22:47:41:138,0.1384,-0.605,9.5735,0.9157,-1.6228,9.628,-0.0022,0.0178,0.0086
7440,46.344315,-0.302928,134.61,17.55,3.216,238.3,14 / 19,744010,2019-08-09 22:47:41:237,0.3066,-2.2133,9.1814,0.9186,-1.6001,9.6315,-0.0168,0.0211,0.0024
7441,46.344315,-0.302928,134.61,17.55,3.216,238.3,14 / 19,744110,2019-08-09 22:47:41:337,0.9117,-1.076,9.7794,0.9248,-1.6197,9.6276,0.0138,-0.0172,0.0168
7442,46.344315,-0.302928,134.61,17.55,3.216,238.3,14 / 19,744210,2019-08-09 22:47:41:437,0.4981,-2.0487,9.7028,0.8957,-1.5934,9.6348,-0.0062,-0.0156,0.0206
7443,46.344315,-0.302928,134.61,17.55,3.216,238.3,14 / 19,744311,2019-08-09 22:47:41:538,0.4137,-0.9797,9.5831,0.8789,-1.6071,9.6341,-0.015,-0.0193,0.0155
7444,46.344315,-0.302928,134.61,17.55,3.216,238.3,14 / 19,744410,2019-08-09 22:47:41:637,0.0456,-1.0605,9.4993,0.838,-1.6009,9.6387,-0.0029,-0.0135,0.0178
7445,46.344315,-0.302928,134.61,17.55,3.216,238.3,14 / 19,744510,2019-08-09 22:47:41:737,0.0318,-1.319,9.7423,0.8198,-1.6242,9.6364,0.0046,-0.015,0.0186
7446,46.344315,-0.302928,134.61,17.55,3.216,238.3,13 / 18,744610,2019-08-09 22:47:41:837,0.2653,-1.3226,9.631,0.7912,-1.6348,9.637,0.0169,-0.0022,0.0309
7447,46.344315,-0.302928,134.61,17.55,3.216,238.3,13 / 18,744710,2019-08-09 22:47:41:937,0.373,-2.2959,9.2922,0.774,-1.6062,9.6432,0.0165,0.0106,0.0523
7448,46.344315,-0.302928,134.61,17.55,3.216,238.3,13 / 18,744810,2019-08-09 22:47:42:037,0.4568,-2.0433,10.0284,0.7517,-1.6203,9.6426,-0.0195,-0.0076,0.0614
7449,46.344315,-0.302928,134.61,17.55,3.216,238.3,13 / 18,744911,2019-08-09 22:47:42:138,0.3598,-1.8751,9.3143,0.7283,-1.6025,9.6474,-0.0057,-0.0146,0.0158
7450,46.344315,-0.302928,134.61,17.55,3.216,238.3,13 / 18,745010,2019-08-09 22:47:42:237,0.4377,-1.7051,9.7267,0.7118,-1.6186,9.6459,0.0119,0.0011,0.0174
7451,46.344315,-0.302928,134.61,17.55,3.216,238.3,13 / 18,745111,2019-08-09 22:47:42:338,0.3299,-1.6051,10.0056,0.7069,-1.6237,9.6454,0.007,-0.0114,0.0164
7452,46.344315,-0.302928,134.61,17.55,3.216,238.3,13 / 18,745211,2019-08-09 22:47:42:438,0.0546,-1.583,9.446,0.688,-1.6197,9.6475,0.0071,0.0078,0.0119
7453,46.344315,-0.302928,134.61,17.55,3.216,238.3,13 / 18,745311,2019-08-09 22:47:42:538,0.3736,-3.0818,9.6764,0.6864,-1.6407,9.644,-0.0272,0.0089,0.0064
7454,46.344315,-0.302928,134.61,17.55,3.216,238.3,13 / 18,745410,2019-08-09 22:47:42:637,0.2048,-1.3699,9.8518,0.6937,-1.6378,9.644,-0.0014,0.0191,0.0002
7455,46.344315,-0.302928,134.61,17.55,3.216,238.3,13 / 18,745510,2019-08-09 22:47:42:737,0.2072,-1.3975,9.692,0.7006,-1.6385,9.6434,-0.0189,0.0452,0.009
7456,46.344315,-0.302928,134.61,17.55,3.216,238.3,14 / 19,745610,2019-08-09 22:47:42:837,0.3736,-1.4052,9.1276,0.7497,-1.6331,9.6406,0.0026,0.0574,-0.0062
7457,46.344315,-0.302928,134.61,17.55,3.216,238.3,14 / 19,745710,2019-08-09 22:47:42:937,0.9566,-1.44,9.2658,0.779,-1.6178,9.6409,-0.0327,0.0501,-0.0177
7458,46.344315,-0.302928,134.61,17.55,3.216,238.3,14 / 19,745811,2019-08-09 22:47:43:038,0.8453,-1.4872,9.4987,0.816,-1.6014,9.6405,-0.0071,0.0121,0.0029
7459,46.344315,-0.302928,134.61,17.55,3.216,238.3,14 / 19,745910,2019-08-09 22:47:43:137,0.9351,-1.0724,9.2527,0.8179,-1.5913,9.642,-0.0205,0.0035,-0.0099
7460,46.344315,-0.302928,134.61,17.55,3.216,238.3,14 / 19,746010,2019-08-09 22:47:43:237,1.2607,-0.9402,9.9583,0.8298,-1.5852,9.642,0.0341,0.0025,-0.0236
7461,46.344315,-0.302928,134.61,17.55,3.216,238.3,14 / 19,746110,2019-08-09 22:47:43:337,0.9219,-1.176,9.9003,0.8353,-1.5681,9.6444,0.0156,-0.0002,-0.0163
7462,46.344315,-0.302928,134.61,17.55,3.216,238.3,14 / 19,746210,2019-08-09 22:47:43:437,0.4586,-1.6608,9.2928,0.8403,-1.5385,9.6487,-0.0394,0.0148,0.0023
7463,46.344315,-0.302928,134.61,17.55,3.216,238.3,14 / 19,746310,2019-08-09 22:47:43:537,0.8549,-1.0293,9.455,0.8427,-1.5365,9.6488,0.0062,-0.0063,-0.0022
7464,46.344315,-0.302928,134.61,17.55,3.216,238.3,14 / 19,746411,2019-08-09 22:47:43:638,0.6825,-1.6662,9.6669,0.8305,-1.5226,9.6521,-0.0077,-0.0156,-0.0077
7465,46.344315,-0.302928,134.61,17.55,3.216,238.3,14 / 19,746510,2019-08-09 22:47:43:737,0.7675,-1.3717,9.8315,0.8234,-1.5296,9.6516,0.0194,-0.0031,0.0017
7466,46.344315,-0.302928,134.61,17.55,3.216,238.3,15 / 20,746610,2019-08-09 22:47:43:837,0.6884,-1.4657,9.5178,0.8225,-1.5144,9.654,-0.0004,-0.0177,-0.0305
7467,46.344315,-0.302928,134.61,17.55,3.216,238.3,15 / 20,746710,2019-08-09 22:47:43:937,0.5951,-1.4184,9.8823,0.8105,-1.522,9.6539,-0.0133,-0.0013,0.0197
7468,46.344315,-0.302928,134.61,17.55,3.216,238.3,15 / 20,746810,2019-08-09 22:47:44:037,0.9584,-0.8217,10.2516,0.8066,-1.5021,9.6573,0.0681,0.0024,-0.0217
7469,46.344315,-0.302928,134.61,17.55,3.216,238.3,15 / 20,746910,2019-08-09 22:47:44:137,0.9704,-1.6884,9.5322,0.823,-1.5058,9.6553,0.0255,0.0274,-0.0096
7470,46.344315,-0.302928,134.61,17.55,3.216,238.3,15 / 20,747010,2019-08-09 22:47:44:237,1.293,-1.3143,9.9176,0.8388,-1.5117,9.6531,0.0052,0.004,0.0084
7471,46.344315,-0.302928,134.61,17.55,3.216,238.3,15 / 20,747111,2019-08-09 22:47:44:338,0.8004,-1.5136,9.3514,0.8469,-1.4876,9.6561,-0.0337,0.0009,-0.0182
7472,46.344315,-0.302928,134.61,17.55,3.216,238.3,15 / 20,747210,2019-08-09 22:47:44:437,1.3977,-1.5255,9.4909,0.8553,-1.502,9.6531,0.0177,0.0071,-0.0204
7473,46.344315,-0.302928,134.61,17.55,3.216,238.3,15 / 20,747310,2019-08-09 22:47:44:537,0.8423,-1.6955,9.6262,0.8472,-1.4855,9.6564,-0.0145,-0.0153,-0.0018
7474,46.344315,-0.302928,134.61,17.55,3.216,238.3,15 / 20,747410,2019-08-09 22:47:44:637,1.2248,-0.7061,9.7979,0.8369,-1.4895,9.6567,0.0096,-0.0162,-0.0277
7475,46.344315,-0.302928,134.61,17.55,3.216,238.3,15 / 20,747510,2019-08-09 22:47:44:737,1.0554,-1.2718,9.8351,0.8271,-1.485,9.6582,0.0409,-0.0099,-0.0408
7476,46.344315,-0.302928,134.61,17.55,3.216,238.3,15 / 18,747610,2019-08-09 22:47:44:837,0.4826,-1.4675,9.1449,0.8234,-1.492,9.6575,-0.0026,0.0025,-0.0108
7477,46.344315,-0.302928,134.61,17.55,3.216,238.3,15 / 18,747710,2019-08-09 22:47:44:937,0.9117,-1.6453,10.0284,0.8242,-1.473,9.6603,-0.0029,0.0075,-0.0196
7478,46.344315,-0.302928,134.61,17.55,3.216,238.3,15 / 18,747810,2019-08-09 22:47:45:037,0.6208,-0.3386,9.3939,0.8299,-1.4765,9.6593,-0.0349,-0.0032,-0.0276
7479,46.344315,-0.302928,134.61,17.55,3.216,238.3,15 / 18,747910,2019-08-09 22:47:45:137,1.3247,1.0937,9.8003,0.823,-1.4504,9.6638,-0.007,-0.0014,-0.0166
7480,46.344315,-0.302928,134.61,17.55,3.216,238.3,15 / 18,748010,2019-08-09 22:47:45:237,0.5849,-2.0265,9.6704,0.829,-1.4537,9.6628,0.0132,-0.001,0.0237
7481,46.344315,-0.302928,134.61,17.55,3.216,238.3,15 / 18,748110,2019-08-09 22:47:45:337,0.8764,-1.8111,9.707,0.8206,-1.4596,9.6626,0.0282,0.0034,-0.0003
7482,46.344315,-0.302928,134.61,17.55,3.216,238.3,15 / 18,748211,2019-08-09 22:47:45:438,0.8656,-1.4394,9.9428,0.8228,-1.4405,9.6653,0.0176,0.0005,-0.0108
7483,46.344315,-0.302928,134.61,17.55,3.216,238.3,15 / 18,748311,2019-08-09 22:47:45:538,0.7088,-2.2546,9.8374,0.826,-1.4367,9.6656,0.0176,0.0042,-0.0099
7484,46.344315,-0.302928,134.61,17.55,3.216,238.3,15 / 18,748411,2019-08-09 22:47:45:638,0.6065,-1.8937,9.4663,0.8269,-1.4482,9.6638,-0.0443,0.007,-0.0023
7485,46.344315,-0.302928,134.61,17.55,3.216,238.3,15 / 18,748510,2019-08-09 22:47:45:737,0.9321,-0.6696,9.5885,0.8347,-1.4242,9.6667,0.0162,0.0014,-0.0299
7486,46.343452,-0.304968,136.87,22.69,3.216,238.6,13 / 16,748610,2019-08-09 22:47:45:837,0.8974,-1.4298,9.9841,0.8389,-1.4293,9.6656,-0.0341,0.0005,0.0161
7487,46.343452,-0.304968,136.87,22.69,3.216,238.6,13 / 16,748710,2019-08-09 22:47:45:937,1.0242,-1.5273,9.3526,0.8418,-1.4153,9.6674,-0.0113,0.0144,0.018
7488,46.343452,-0.304968,136.87,22.69,3.216,238.6,13 / 16,748810,2019-08-09 22:47:46:037,1.2589,-0.684,9.7878,0.8442,-1.4187,9.6667,0.0045,-0.0076,-0.0434
7489,46.343452,-0.304968,136.87,22.69,3.216,238.6,13 / 16,748910,2019-08-09 22:47:46:137,0.8154,-1.0778,9.8698,0.8366,-1.3963,9.6706,-0.0332,-0.01,-0.0085
7490,46.343452,-0.304968,136.87,22.69,3.216,238.6,13 / 16,749011,2019-08-09 22:47:46:238,0.7519,-1.2221,9.4939,0.8383,-1.3976,9.6703,0.0142,0.0049,-0.0065
7491,46.343452,-0.304968,136.87,22.69,3.216,238.6,13 / 16,749111,2019-08-09 22:47:46:338,1.1266,-0.7079,9.5047,0.8325,-1.3863,9.6724,-0.0027,-0.0157,-0.0127
7492,46.343452,-0.304968,136.87,22.69,3.216,238.6,13 / 16,749210,2019-08-09 22:47:46:437,0.8189,-1.0551,9.5388,0.83,-1.4039,9.6701,0.0,0.0008,-0.0064
7493,46.343452,-0.304968,136.87,22.69,3.216,238.6,13 / 16,749311,2019-08-09 22:47:46:538,0.8195,-0.6181,9.358,0.8268,-1.3911,9.6722,-0.0149,0.0007,-0.0144
7494,46.343452,-0.304968,136.87,22.69,3.216,238.6,13 / 16,749410,2019-08-09 22:47:46:637,0.9285,-0.845,9.8823,0.8282,-1.3927,9.6719,-0.0374,-0.017,-0.0196
7495,46.343452,-0.304968,136.87,22.69,3.216,238.6,13 / 16,749510,2019-08-09 22:47:46:737,0.4556,-0.5134,9.3604,0.817,-1.3775,9.675,-0.0019,-0.0028,0.0221
7496,46.343452,-0.304968,136.87,22.69,3.216,238.6,15 / 19,749610,2019-08-09 22:47:46:837,0.6035,-0.8444,9.9919,0.8101,-1.3752,9.6759,0.0101,-0.0028,-0.012
7497,46.343452,-0.304968,136.87,22.69,3.216,238.6,15 / 19,749710,2019-08-09 22:47:46:937,0.3988,-0.8372,9.7441,0.8032,-1.3691,9.6773,-0.0122,-0.0016,0.0227
7498,46.343452,-0.304968,136.87,22.69,3.216,238.6,15 / 19,749810,2019-08-09 22:47:47:037,0.1102,-2.0217,9.7315,0.7919,-1.3619,9.6793,0.0011,0.0076,0.0382
7499,46.343452,-0.304968,136.87,22.69,3.216,238.6,15 / 19,749911,2019-08-09 22:47:47:138,0.8812,-1.3131,9.6357,0.7893,-1.3691,9.6785,0.0052,0.0038,0.0257
7500,46.343452,-0.304968,136.87,22.69,3.216,238.6,15 / 19,750010,2019-08-09 22:47:47:237,0.4999,-1.2778,9.4232,0.7839,-1.3669,9.6792,-0.0135,0.0006,-0.0029
7501,46.343452,-0.304968,136.87,22.69,3.216,238.6,15 / 19,750110,2019-08-09 22:47:47:337,0.5107,-1.5716,9.3143,0.783,-1.3747,9.6782,0.0156,0.003,0.0119
7502,46.343452,-0.304968,136.87,22.69,3.216,238.6,15 / 19,750210,2019-08-09 22:47:47:437,0.4113,-1.194,10.0158,0.7784,-1.3717,9.679,-0.0171,-0.0049,-0.0021
7503,46.343452,-0.304968,136.87,22.69,3.216,238.6,15 / 19,750310,2019-08-09 22:47:47:537,0.4766,-1.7859,9.6303,0.7764,-1.3647,9.6801,0.0058,0.0027,0.0208
7504,46.343452,-0.304968,136.87,22.69,3.216,238.6,15 / 19,750410,2019-08-09 22:47:47:637,0.7926,-1.7231,10.0158,0.7681,-1.3405,9.6842,0.0096,-0.0044,-0.0089
7505,46.343452,-0.304968,136.87,22.69,3.216,238.6,15 / 19,750510,2019-08-09 22:47:47:737,0.2413,-1.5824,9.6046,0.7664,-1.3496,9.6831,-0.0274,0.0011,0.0312
7506,46.343452,-0.304968,136.87,22.69,3.216,238.6,14 / 19,750610,2019-08-09 22:47:47:837,0.3305,-1.6638,9.6279,0.7577,-1.3374,9.6854,-0.014,0.0027,0.015
7507,46.343452,-0.304968,136.87,22.69,3.216,238.6,14 / 19,750710,2019-08-09 22:47:47:937,0.5292,-1.1066,9.4873,0.7525,-1.3425,9.6851,-0.0245,-0.0039,-0.0195
7508,46.343452,-0.304968,136.87,22.69,3.216,238.6,14 / 19,750810,2019-08-09 22:47:48:037,0.4496,-2.1564,10.0912,0.749,-1.344,9.6852,0.0159,0.0062,0.0376
7509,46.343452,-0.304968,136.87,22.69,3.216,238.6,14 / 19,750910,2019-08-09 22:47:48:137,0.4239,-2.0714,9.9422,0.7388,-1.3292,9.688,-0.0157,0.0093,0.0311
7510,46.343452,-0.304968,136.87,22.69,3.216,238.6,14 / 19,751010,2019-08-09 22:47:48:237,0.4903,-1.404,10.0038,0.7413,-1.3205,9.689,0.0339,0.0094,0.0066
7511,46.343452,-0.304968,136.87,22.69,3.216,238.6,14 / 19,751110,2019-08-09 22:47:48:337,0.4975,-1.6465,9.2766,0.7399,-1.2975,9.6922,-0.056,-0.0011,0.0015
7512,46.343452,-0.304968,136.87,22.69,3.216,238.6,14 / 19,751210,2019-08-09 22:47:48:437,0.6053,-2.1642,9.9021,0.7295,-1.3127,9.691,0.011,-0.0094,0.009
7513,46.343452,-0.304968,136.87,22.69,3.216,238.6,14 / 19,751310,2019-08-09 22:47:48:537,0.5807,-1.9254,9.7177,0.7241,-1.3101,9.6917,0.0161,0.0006,-0.0009
7514,46.343452,-0.304968,136.87,22.69,3.216,238.6,14 / 19,751411,2019-08-09 22:47:48:638,0.4191,-1.0413,9.5687,0.7183,-1.3146,9.6915,0.0107,0.0011,0.0019
7515,46.343452,-0.304968,136.87,22.69,3.216,238.6,14 / 19,751510,2019-08-09 22:47:48:737,0.6082,-1.2233,9.8183,0.7119,-1.3177,9.6916,-0.0067,-0.0007,0.0127
7516,46.343452,-0.304968,136.87,22.69,3.216,238.6,13 / 17,751610,2019-08-09 22:47:48:837,0.4341,-2.5993,9.6603,0.7098,-1.3105,9.6927,0.0033,0.0008,0.0123
7517,46.343452,-0.304968,136.87,22.69,3.216,238.6,13 / 17,751711,2019-08-09 22:47:48:938,0.473,-0.6864,9.8512,0.7052,-1.3035,9.694,0.0276,0.0012,0.0118
7518,46.343452,-0.304968,136.87,22.69,3.216,238.6,13 / 17,751811,2019-08-09 22:47:49:038,0.121,-1.2125,9.0994,0.6955,-1.2979,9.6955,0.0365,0.0092,0.0259
7519,46.343452,-0.304968,136.87,22.69,3.216,238.6,13 / 17,751910,2019-08-09 22:47:49:137,0.7244,-1.7865,9.8674,0.6855,-1.323,9.6928,0.0048,-0.008,-0.0176
7520,46.343452,-0.304968,136.87,22.69,3.216,238.6,13 / 17,752010,2019-08-09 22:47:49:237,0.2012,-1.5393,9.2197,0.6792,-1.318,9.6939,0.0388,-0.0051,-0.0159
7521,46.343452,-0.304968,136.87,22.69,3.216,238.6,13 / 17,752110,2019-08-09 22:47:49:337,0.3144,-1.5674,9.3377,0.6798,-1.315,9.6943,-0.0434,-0.0011,0.0279
7522,46.343452,-0.304968,136.87,22.69,3.216,238.6,13 / 17,752211,2019-08-09 22:47:49:438,0.47,-1.1963,9.4466,0.6743,-1.3166,9.6944,0.0043,0.0063,-0.0009
7523,46.343452,-0.304968,136.87,22.69,3.216,238.6,13 / 17,752311,2019-08-09 22:47:49:538,0.7902,-1.6111,10.6192,0.6758,-1.3435,9.6906,0.0332,-0.0031,-0.0119
7524,46.343452,-0.304968,136.87,22.69,3.216,238.6,13 / 17,752411,2019-08-09 22:47:49:638,0.3389,-0.9384,9.6423,0.6784,-1.3033,9.696,-0.0055,0.011,0.0034
7525,46.343452,-0.304968,136.87,22.69,3.216,238.6,13 / 17,752511,2019-08-09 22:47:49:738,0.71,-0.6876,10.4061,0.6796,-1.2786,9.6992,-0.0263,-0.0057,0.0104
7526,46.343452,-0.304968,136.87,22.69,3.216,238.6,14 / 19,752611,2019-08-09 22:47:49:838,0.5185,-0.5966,9.7824,0.6765,-1.2367,9.7048,-0.0003,0.0026,0.0168
7527,46.343452,-0.304968,136.87,22.69,3.216,238.6,14 / 19,752711,2019-08-09 22:47:49:938,0.2946,-0.3027,9.2784,0.6794,-1.221,9.7066,-0.0156,0.0077,0.0154
7528,46.343452,-0.304968,136.87,22.69,3.216,238.6,14 / 19,752810,2019-08-09 22:47:50:037,0.3461,-0.0872,9.6471,0.6842,-1.2008,9.7088,-0.0039,0.003,0.0261
7529,46.343452,-0.304968,136.87,22.69,3.216,238.6,14 / 19,752910,2019-08-09 22:47:50:137,0.3138,0.4216,9.3149,0.6749,-1.2075,9.7086,-0.0357,-0.0005,0.0342
7530,46.343452,-0.304968,136.87,22.69,3.216,238.6,14 / 19,753010,2019-08-09 22:47:50:237,0.7184,-0.6924,9.6693,0.6769,-1.1796,9.7119,-0.007,0.0,-0.0005
7531,46.343452,-0.304968,136.87,22.69,3.216,238.6,14 / 19,753110,2019-08-09 22:47:50:337,0.5957,-0.8109,9.68,0.6731,-1.1589,9.7146,0.0159,0.0002,-0.0001
7532,46.343452,-0.304968,136.87,22.69,3.216,238.6,14 / 19,753210,2019-08-09 22:47:50:437,0.7148,-0.8354,9.6058,0.6704,-1.1514,9.7157,0.0349,-0.0003,-0.0103
7533,46.343452,-0.304968,136.87,22.69,3.216,238.6,14 / 19,753310,2019-08-09 22:47:50:537,0.7148,0.8537,10.0098,0.674,-1.1484,9.7158,-0.0424,0.0002,-0.0009
7534,46.343452,-0.304968,136.87,22.69,3.216,238.6,14 / 19,753410,2019-08-09 22:47:50:637,0.7369,-1.2742,9.6543,0.6769,-1.1524,9.7152,0.0502,0.003,-0.0062
7535,46.343452,-0.304968,136.87,22.69,3.216,238.6,14 / 19,753511,2019-08-09 22:47:50:738,0.7447,-1.1652,9.3035,0.6815,-1.1666,9.7131,-0.0205,0.0024,-0.0086
7536,46.343452,-0.304968,136.87,22.69,3.216,238.6,13 / 18,753610,2019-08-09 22:47:50:837,0.8447,-1.5884,9.7285,0.6814,-1.1796,9.7116,0.0281,-0.003,-0.0048
7537,46.343452,-0.304968,136.87,22.69,3.216,238.6,13 / 18,753710,2019-08-09 22:47:50:937,0.5508,-0.9653,9.3071,0.674,-1.1755,9.7126,-0.0425,-0.0067,0.0132
7538,46.343452,-0.304968,136.87,22.69,3.216,238.6,13 / 18,753811,2019-08-09 22:47:51:038,0.4484,-1.179,9.2742,0.6702,-1.172,9.7133,-0.0558,-0.0003,0.0145
7539,46.343452,-0.304968,136.87,22.69,3.216,238.6,13 / 18,753911,2019-08-09 22:47:51:138,0.8722,-1.6782,9.8165,0.6677,-1.1848,9.7119,0.0642,0.0,-0.0159
7540,46.343452,-0.304968,136.87,22.69,3.216,238.6,13 / 18,754010,2019-08-09 22:47:51:237,0.5514,-1.4435,9.8195,0.6652,-1.1859,9.7119,0.0037,-0.0001,-0.0023
7541,46.343452,-0.304968,136.87,22.69,3.216,238.6,13 / 18,754110,2019-08-09 22:47:51:337,0.8662,-2.5874,9.8057,0.6624,-1.1889,9.7118,0.0065,-0.0006,-0.0171
7542,46.343452,-0.304968,136.87,22.69,3.216,238.6,13 / 18,754210,2019-08-09 22:47:51:437,0.801,-0.5146,9.8506,0.6692,-1.2086,9.7089,0.005,0.0044,-0.0061
7543,46.343452,-0.304968,136.87,22.69,3.216,238.6,13 / 18,754311,2019-08-09 22:47:51:538,0.9129,-1.4178,9.5801,0.6778,-1.2157,9.7074,-0.0089,0.0048,-0.0071
7544,46.343452,-0.304968,136.87,22.69,3.216,238.6,13 / 18,754411,2019-08-09 22:47:51:638,0.9518,-0.587,9.6543,0.6863,-1.2243,9.7057,-0.0197,0.002,-0.019
7545,46.343452,-0.304968,136.87,22.69,3.216,238.6,13 / 18,754510,2019-08-09 22:47:51:737,0.5676,-1.9595,9.2874,0.6998,-1.2065,9.707,-0.0246,0.0094,0.017
7546,46.343452,-0.304968,136.87,22.69,3.216,238.6,13 / 18,754610,2019-08-09 22:47:51:837,0.856,-2.6879,8.9755,0.7037,-1.205,9.7069,-0.0393,0.0057,0.0087
7547,46.343452,-0.304968,136.87,22.69,3.216,238.6,13 / 18,754710,2019-08-09 22:47:51:937,0.6621,-0.9043,8.9713,0.7057,-1.1935,9.7081,-0.021,-0.0008,0.031
7548,46.343452,-0.304968,136.87,22.69,3.216,238.6,13 / 18,754810,2019-08-09 22:47:52:037,0.7573,-1.2586,9.9996,0.7033,-1.2109,9.7062,0.0014,-0.0153,-0.0222
7549,46.343452,-0.304968,136.87,22.69,3.216,238.6,13 / 18,754910,2019-08-09 22:47:52:137,0.4742,-0.7905,9.944,0.6917,-1.2214,9.7057,0.0103,-0.0117,-0.0123
7550,46.343452,-0.304968,136.87,22.69,3.216,238.6,13 / 18,755010,2019-08-09 22:47:52:237,0.297,-0.7271,9.6453,0.6907,-1.2151,9.7065,-0.0218,0.0027,0.0263
7551,46.343452,-0.304968,136.87,22.69,3.216,238.6,13 / 18,755110,2019-08-09 22:47:52:337,0.6412,-1.3119,9.4574,0.6894,-1.2173,9.7064,0.0225,-0.0044,-0.0091
7552,46.343452,-0.304968,136.87,22.69,3.216,238.6,13 / 18,755210,2019-08-09 22:47:52:437,0.3,-1.7207,9.3538,0.6844,-1.2211,9.7062,-0.0402,0.001,0.0273
7553,46.343452,-0.304968,136.87,22.69,3.216,238.6,13 / 18,755310,2019-08-09 22:47:52:537,0.552,-0.7756,9.4628,0.6872,-1.2121,9.7072,-0.0153,0.0083,0.0226
7554,46.343452,-0.304968,136.87,22.69,3.216,238.6,13 / 18,755410,2019-08-09 22:47:52:637,0.294,-0.2111,9.0258,0.6825,-1.2445,9.7034,-0.0159,-0.005,-0.0063
7555,46.343452,-0.304968,136.87,22.69,3.216,238.6,13 / 18,755510,2019-08-09 22:47:52:737,1.0554,-2.1576,10.333,0.6826,-1.2283,9.7055,-0.064,0.0008,0.0213
7556,46.343452,-0.304968,136.87,22.69,3.216,238.6,13 / 17,755610,2019-08-09 22:47:52:837,0.9476,-2.3096,10.2032,0.6758,-1.2428,9.7041,0.063,-0.0111,-0.0227
7557,46.343452,-0.304968,136.87,22.69,3.216,238.6,13 / 17,755710,2019-08-09 22:47:52:937,0.6334,-0.7325,10.0463,0.6697,-1.2327,9.7058,0.0244,-0.0066,0.0069
7558,46.343452,-0.304968,136.87,22.69,3.216,238.6,13 / 17,755810,2019-08-09 22:47:53:037,0.5813,-1.6686,9.5124,0.6655,-1.2253,9.707,0.0015,-0.0035,-0.0054
7559,46.343452,-0.304968,136.87,22.69,3.216,238.6,13 / 17,755910,2019-08-09 22:47:53:137,0.4508,-0.833,9.507,0.6674,-1.2277,9.7066,0.0232,0.006,-0.0007
7560,46.343452,-0.304968,136.87,22.69,3.216,238.6,13 / 17,756010,2019-08-09 22:47:53:237,0.3712,-1.5046,9.6453,0.6701,-1.2103,9.7086,0.0466,0.0032,-0.0072
7561,46.343452,-0.304968,136.87,22.69,3.216,238.6,13 / 17,756111,2019-08-09 22:47:53:338,0.6071,-1.5776,9.9015,0.6677,-1.2086,9.709,-0.0498,-0.0024,0.0115
7562,46.343452,-0.304968,136.87,22.69,3.216,238.6,13 / 17,756210,2019-08-09 22:47:53:437,0.7375,-0.4529,9.8889,0.6647,-1.2267,9.7069,0.0318,0.0083,0.0134
7563,46.343452,-0.304968,136.87,22.69,3.216,238.6,13 / 17,756310,2019-08-09 22:47:53:537,0.2982,-0.7462,9.6902,0.6584,-1.2137,9.709,-0.0056,-0.0009,0.0193
7564,46.343452,-0.304968,136.87,22.69,3.216,238.6,13 / 17,756410,2019-08-09 22:47:53:637,0.2677,-2.4485,9.6471,0.6632,-1.212,9.7088,-0.0181,0.0057,-0.0251
7565,46.343452,-0.304968,136.87,22.69,3.216,238.6,13 / 17,756510,2019-08-09 22:47:53:737,0.4538,-1.3873,9.6633,0.6609,-1.2101,9.7092,0.0138,-0.0067,-0.0126
7566,46.343452,-0.304968,136.87,22.69,3.216,238.6,13 / 18,756610,2019-08-09 22:47:53:837,0.3156,-1.2263,9.5777,0.6638,-1.2108,9.709,-0.0158,0.006,0.0239
7567,46.343452,-0.304968,136.87,22.69,3.216,238.6,13 / 18,756710,2019-08-09 22:47:53:937,0.5484,-1.5327,9.458,0.6617,-1.2083,9.7094,-0.015,0.002,0.0187
7568,46.343452,-0.304968,136.87,22.69,3.216,238.6,13 / 18,756810,2019-08-09 22:47:54:037,0.285,-0.9976,9.8063,0.6666,-1.2078,9.7091,0.0199,0.0049,-0.0104
7569,46.343452,-0.304968,136.87,22.69,3.216,238.6,13 / 18,756910,2019-08-09 22:47:54:137,0.522,-2.5126,9.7459,0.669,-1.2022,9.7097,0.0275,0.012,0.0183
7570,46.343452,-0.304968,136.87,22.69,3.216,238.6,13 / 18,757011,2019-08-09 22:47:54:238,0.6029,-1.4441,9.7315,0.6739,-1.2001,9.7096,-0.0253,0.0051,0.0052
7571,46.343452,-0.304968,136.87,22.69,3.216,238.6,13 / 18,757110,2019-08-09 22:47:54:337,0.3796,-1.0946,9.2455,0.6752,-1.2141,9.7077,-0.0119,0.0027,0.0106
7572,46.343452,-0.304968,136.87,22.69,3.216,238.6,13 / 18,757210,2019-08-09 22:47:54:437,0.7914,-0.426,10.1056,0.6752,-1.2068,9.7087,0.0239,-0.0055,0.0001
7573,46.343452,-0.304968,136.87,22.69,3.216,238.6,13 / 18,757310,2019-08-09 22:47:54:537,0.625,-1.5908,10.2828,0.6722,-1.1718,9.7132,0.0218,-0.0118,0.0079
7574,46.343452,-0.304968,136.87,22.69,3.216,238.6,13 / 18,757411,2019-08-09 22:47:54:638,0.3114,-0.7983,9.2862,0.6559,-1.1738,9.714,-0.0179,-0.0042,0.0262
7575,46.343452,-0.304968,136.87,22.69,3.216,238.6,13 / 18,757510,2019-08-09 22:47:54:737,0.5514,-0.9456,9.2634,0.6515,-1.2056,9.7104,-0.0369,0.0015,0.0255
7576,46.342415,-0.307348,137.11,25.52,3.216,237.2,14 / 18,757610,2019-08-09 22:47:54:837,0.7417,-1.1646,9.7566,0.6444,-1.1997,9.7116,0.0046,0.0005,0.0288
7577,46.342415,-0.307348,137.11,25.52,3.216,237.2,14 / 18,757710,2019-08-09 22:47:54:937,0.2072,-0.9312,9.6292,0.6463,-1.1903,9.7127,-0.0226,-0.0079,-0.0108
7578,46.342415,-0.307348,137.11,25.52,3.216,237.2,14 / 18,757810,2019-08-09 22:47:55:037,0.2377,-0.8187,9.6447,0.6422,-1.1878,9.7132,0.0136,0.0067,0.0377
7579,46.342415,-0.307348,137.11,25.52,3.216,237.2,14 / 18,757910,2019-08-09 22:47:55:137,0.4155,-0.7648,9.5208,0.6355,-1.2,9.7122,-0.0216,-0.0033,0.022
7580,46.342415,-0.307348,137.11,25.52,3.216,237.2,14 / 18,758011,2019-08-09 22:47:55:238,0.5831,-0.9061,9.6022,0.6286,-1.1968,9.713,-0.0157,-0.0166,-0.0091
7581,46.342415,-0.307348,137.11,25.52,3.216,237.2,14 / 18,758110,2019-08-09 22:47:55:337,0.3072,-2.2642,10.0344,0.62,-1.1722,9.7166,0.0341,-0.007,0.0249
7582,46.342415,-0.307348,137.11,25.52,3.216,237.2,14 / 18,758210,2019-08-09 22:47:55:437,0.3281,-0.4709,9.7076,0.6041,-1.1789,9.7168,0.0321,0.0015,0.0209
7583,46.342415,-0.307348,137.11,25.52,3.216,237.2,14 / 18,758311,2019-08-09 22:47:55:538,0.9698,-1.7835,9.434,0.598,-1.1926,9.7155,-0.0285,-0.0075,-0.0057
7584,46.342415,-0.307348,137.11,25.52,3.216,237.2,14 / 18,758411,2019-08-09 22:47:55:638,0.6891,-1.7177,9.5669,0.6018,-1.1753,9.7173,-0.0161,0.0045,0.0073
7585,46.342415,-0.307348,137.11,25.52,3.216,237.2,14 / 18,758510,2019-08-09 22:47:55:737,1.0105,-0.702,9.6393,0.6019,-1.1981,9.7146,0.0212,-0.0106,-0.0398
7586,46.342415,-0.307348,137.11,25.52,3.216,237.2,13 / 17,758610,2019-08-09 22:47:55:837,0.7136,-0.2907,9.6764,0.5941,-1.1843,9.7167,0.0,-0.011,-0.009
7587,46.342415,-0.307348,137.11,25.52,3.216,237.2,13 / 17,758710,2019-08-09 22:47:55:937,0.6531,-1.8865,9.4232,0.6008,-1.1672,9.7184,-0.0012,0.0068,0.0049
7588,46.342415,-0.307348,137.11,25.52,3.216,237.2,13 / 17,758810,2019-08-09 22:47:56:037,0.892,-1.5585,9.9045,0.5976,-1.182,9.7168,0.0321,-0.0098,-0.0114
7589,46.342415,-0.307348,137.11,25.52,3.216,237.2,13 / 17,758910,2019-08-09 22:47:56:137,0.7232,-0.8534,9.625,0.5979,-1.1871,9.7162,-0.0419,-0.0053,0.0086
7590,46.342415,-0.307348,137.11,25.52,3.216,237.2,13 / 17,759011,2019-08-09 22:47:56:238,0.8267,-1.5136,9.3766,0.6005,-1.177,9.7172,-0.025,0.0026,-0.0048
7591,46.342415,-0.307348,137.11,25.52,3.216,237.2,13 / 17,759111,2019-08-09 22:47:56:338,0.7501,-1.3681,9.5759,0.6041,-1.1917,9.7152,0.0186,0.0024,0.0251
7592,46.342415,-0.307348,137.11,25.52,3.216,237.2,13 / 17,759210,2019-08-09 22:47:56:437,0.5789,-0.5338,9.9625,0.5935,-1.1874,9.7164,-0.0149,-0.0126,-0.0248
7593,46.342415,-0.307348,137.11,25.52,3.216,237.2,13 / 17,759311,2019-08-09 22:47:56:538,0.8812,-1.5752,9.7692,0.598,-1.1987,9.7147,0.017,0.0067,0.0031
7594,46.342415,-0.307348,137.11,25.52,3.216,237.2,13 / 17,759411,2019-08-09 22:47:56:638,0.8614,-1.4262,9.5448,0.6034,-1.1935,9.715,0.0046,0.0031,-0.0011
7595,46.342415,-0.307348,137.11,25.52,3.216,237.2,13 / 17,759510,2019-08-09 22:47:56:737,0.4395,-0.8282,9.6142,0.6064,-1.19,9.7153,-0.019,0.0044,0.0188
7596,46.342415,-0.307348,137.11,25.52,3.216,237.2,14 / 19,759610,2019-08-09 22:47:56:837,0.3156,-1.4711,9.51,0.599,-1.185,9.7163,-0.0035,0.0037,0.0184
7597,46.342415,-0.307348,137.11,25.52,3.216,237.2,14 / 19,759710,2019-08-09 22:47:56:937,0.7621,-1.4274,9.6699,0.6057,-1.179,9.7167,0.006,-0.0028,-0.0165
7598,46.342415,-0.307348,137.11,25.52,3.216,237.2,14 / 19,759810,2019-08-09 22:47:57:037,0.3557,-1.2029,9.8279,0.6043,-1.1725,9.7175,0.0285,-0.0025,-0.0107
7599,46.342415,-0.307348,137.11,25.52,3.216,237.2,14 / 19,759910,2019-08-09 22:47:57:137,0.2521,-0.6936,9.6711,0.6011,-1.1769,9.7172,-0.0027,0.0139,0.0363
7600,46.342415,-0.307348,137.11,25.52,3.216,237.2,14 / 19,760011,2019-08-09 22:47:57:238,0.5472,-1.2777,9.6016,0.6006,-1.1808,9.7168,-0.0116,-0.0063,0.0033
7601,46.342415,-0.307348,137.11,25.52,3.216,237.2,14 / 19,760110,2019-08-09 22:47:57:337,0.458,-0.7133,9.7064,0.5966,-1.182,9.7169,0.0309,0.0029,0.0168
7602,46.342415,-0.307348,137.11,25.52,3.216,237.2,14 / 19,760211,2019-08-09 22:47:57:438,0.3778,-0.9569,9.8446,0.5947,-1.1815,9.717,-0.0086,0.0002,-0.0006
7603,46.342415,-0.307348,137.11,25.52,3.216,237.2,14 / 19,760311,2019-08-09 22:47:57:538,0.4999,-2.0804,9.5052,0.5992,-1.1717,9.7179,-0.0058,0.0082,0.0135
7604,46.342415,-0.307348,137.11,25.52,3.216,237.2,14 / 19,760411,2019-08-09 22:47:57:638,0.4688,-0.9659,9.7914,0.5985,-1.1733,9.7178,-0.0078,0.0008,0.0045
7605,46.342415,-0.307348,137.11,25.52,3.216,237.2,14 / 19,760510,2019-08-09 22:47:57:737,0.6543,-0.5966,9.5675,0.5995,-1.1807,9.7168,0.007,0.0013,0.0143
7606,46.342415,-0.307348,137.11,25.52,3.216,237.2,13 / 18,760610,2019-08-09 22:47:57:837,0.3174,-0.9402,9.7399,0.5963,-1.1664,9.7188,-0.0147,0.0014,0.0014
7607,46.342415,-0.307348,137.11,25.52,3.216,237.2,13 / 18,760710,2019-08-09 22:47:57:937,0.528,-1.7243,9.8207,0.6006,-1.1749,9.7175,0.0133,0.0017,0.0192
7608,46.342415,-0.307348,137.11,25.52,3.216,237.2,13 / 18,760810,2019-08-09 22:47:58:037,0.6938,-1.0126,9.5867,0.5928,-1.1796,9.7174,-0.0135,-0.0112,-0.0078
7609,46.342415,-0.307348,137.11,25.52,3.216,237.2,13 / 18,760910,2019-08-09 22:47:58:137,0.0881,-1.1383,9.4418,0.5971,-1.1703,9.7182,-0.0132,0.0077,0.0468
7610,46.342415,-0.307348,137.11,25.52,3.216,237.2,13 / 18,761010,2019-08-09 22:47:58:237,0.303,-0.939,9.5232,0.5882,-1.1761,9.7181,-0.0085,0.0086,0.0168
7611,46.342415,-0.307348,137.11,25.52,3.216,237.2,13 / 18,761111,2019-08-09 22:47:58:338,0.2509,-1.413,9.6375,0.597,-1.1595,9.7195,0.0237,-0.0033,-0.0202
7612,46.342415,-0.307348,137.11,25.52,3.216,237.2,13 / 18,761212,2019-08-09 22:47:58:439,0.5975,-1.8446,9.7333,0.5888,-1.174,9.7183,-0.0269,0.0086,0.0294
7613,46.342415,-0.307348,137.11,25.52,3.216,237.2,13 / 18,761312,2019-08-09 22:47:58:539,0.5472,-0.9815,9.5513,0.595,-1.1724,9.7181,0.0028,0.0124,0.0197
7614,46.342415,-0.307348,137.11,25.52,3.216,237.2,13 / 18,761411,2019-08-09 22:47:58:638,0.3539,-0.168,9.5938,0.5956,-1.1841,9.7167,-0.0047,-0.0021,0.0134
7615,46.342415,-0.307348,137.11,25.52,3.216,237.2,13 / 18,761510,2019-08-09 22:47:58:737,0.7381,-1.2011,10.0386,0.5987,-1.1865,9.7162,-0.0304,0.0155,0.0294
7616,46.342415,-0.307348,137.11,25.52,3.216,237.2,13 / 14,761610,2019-08-09 22:47:58:837,0.6639,-0.5792,9.7471,0.6052,-1.1747,9.7172,0.0033,0.0047,-0.0153
7617,46.342415,-0.307348,137.11,25.52,3.216,237.2,13 / 14,761710,2019-08-09 22:47:58:937,0.3551,-1.6363,9.4406,0.6127,-1.1644,9.718,-0.0432,-0.0009,0.0281
7618,46.342415,-0.307348,137.11,25.52,3.216,237.2,13 / 14,761810,2019-08-09 22:47:59:037,0.7992,-0.9533,10.0344,0.6048,-1.1665,9.7182,0.0378,-0.0058,-0.0035
7619,46.342415,-0.307348,137.11,25.52,3.216,237.2,13 / 14,761911,2019-08-09 22:47:59:138,0.6268,-1.401,9.9751,0.6093,-1.1707,9.7174,0.0246,0.0107,0.014
7620,46.342415,-0.307348,137.11,25.52,3.216,237.2,13 / 14,762011,2019-08-09 22:47:59:238,0.7447,-1.3789,9.8482,0.6104,-1.1446,9.7205,-0.0169,-0.0063,0.0091
7621,46.342415,-0.307348,137.11,25.52,3.216,237.2,13 / 14,762111,2019-08-09 22:47:59:338,0.3622,-1.2532,9.5178,0.6085,-1.1473,9.7203,-0.0017,-0.0055,-0.0013
7622,46.342415,-0.307348,137.11,25.52,3.216,237.2,13 / 14,762210,2019-08-09 22:47:59:437,0.385,-1.158,9.5525,0.6083,-1.1572,9.7191,0.0032,0.0045,0.0145
7623,46.342415,-0.307348,137.11,25.52,3.216,237.2,13 / 14,762310,2019-08-09 22:47:59:537,0.7303,-1.2341,9.0294,0.6116,-1.1392,9.721,-0.0327,0.0008,0.0083
7624,46.342415,-0.307348,137.11,25.52,3.216,237.2,13 / 14,762410,2019-08-09 22:47:59:637,0.5095,-0.502,9.932,0.6158,-1.1464,9.7199,0.0249,0.0042,0.0106
7625,46.342415,-0.307348,137.11,25.52,3.216,237.2,13 / 14,762510,2019-08-09 22:47:59:737,0.6274,-0.842,9.6555,0.6092,-1.145,9.7205,0.0184,-0.008,-0.0031
7626,46.342415,-0.307348,137.11,25.52,3.216,237.2,15 / 19,762610,2019-08-09 22:47:59:837,0.88,-0.3566,9.5047,0.608,-1.14,9.7212,-0.0067,-0.0121,-0.0074
7627,46.342415,-0.307348,137.11,25.52,3.216,237.2,15 / 19,762710,2019-08-09 22:47:59:937,0.4927,-1.0611,9.3658,0.6028,-1.1455,9.7209,0.006,0.0039,-0.0047
7628,46.342415,-0.307348,137.11,25.52,3.216,237.2,15 / 19,762810,2019-08-09 22:48:00:037,0.4832,-1.4543,9.9392,0.611,-1.1381,9.7212,-0.0055,-0.0061,-0.0254
7629,46.342415,-0.307348,137.11,25.52,3.216,237.2,15 / 19,762911,2019-08-09 22:48:00:138,0.3981,-0.7744,9.941,0.6103,-1.132,9.722,0.0215,-0.0031,-0.0293
7630,46.342415,-0.307348,137.11,25.52,3.216,237.2,15 / 19,763010,2019-08-09 22:48:00:237,1.0326,-1.8111,9.8291,0.6098,-1.1382,9.7213,-0.0221,0.0185,0.023
7631,46.342415,-0.307348,137.11,25.52,3.216,237.2,15 / 19,763111,2019-08-09 22:48:00:338,0.7483,-1.2077,9.2407,0.6278,-1.1163,9.7227,0.0169,0.0033,-0.0086
7632,46.342415,-0.307348,137.11,25.52,3.216,237.2,15 / 19,763210,2019-08-09 22:48:00:437,0.6801,-2.1971,9.7267,0.6282,-1.1263,9.7215,-0.0178,-0.0125,0.0227
7633,46.342415,-0.307348,137.11,25.52,3.216,237.2,15 / 19,763310,2019-08-09 22:48:00:537,0.8914,-1.1389,10.0416,0.6271,-1.1083,9.7236,0.0187,-0.0244,-0.0168
7634,46.342415,-0.307348,137.11,25.52,3.216,237.2,15 / 19,763410,2019-08-09 22:48:00:637,0.728,-2.0086,9.8949,0.6063,-1.1299,9.7225,-0.0091,-0.0126,-0.0126
7635,46.342415,-0.307348,137.11,25.52,3.216,237.2,15 / 19,763510,2019-08-09 22:48:00:737,0.5346,-1.2987,9.4328,0.6058,-1.1158,9.7241,-0.0155,0.002,-0.0021
7636,46.342415,-0.307348,137.11,25.52,3.216,237.2,14 / 18,763610,2019-08-09 22:48:00:837,0.6609,-0.6511,9.9254,0.6017,-1.1314,9.7226,0.0026,-0.0007,0.009
7637,46.342415,-0.307348,137.11,25.52,3.216,237.2,14 / 18,763711,2019-08-09 22:48:00:938,0.5969,-1.6512,9.6154,0.6018,-1.118,9.7241,-0.0009,0.0043,0.015
7638,46.342415,-0.307348,137.11,25.52,3.216,237.2,14 / 18,763811,2019-08-09 22:48:01:038,0.6059,-0.1489,9.8129,0.6025,-1.124,9.7234,0.0104,0.0034,-0.0041
7639,46.342415,-0.307348,137.11,25.52,3.216,237.2,14 / 18,763910,2019-08-09 22:48:01:137,0.3862,-1.413,9.6274,0.6046,-1.1081,9.7251,0.0079,0.0044,0.0135
7640,46.342415,-0.307348,137.11,25.52,3.216,237.2,14 / 18,764010,2019-08-09 22:48:01:237,0.4604,0.2809,9.9153,0.606,-1.1091,9.7249,0.0356,0.0035,0.0168
7641,46.342415,-0.307348,137.11,25.52,3.216,237.2,14 / 18,764110,2019-08-09 22:48:01:337,0.5729,-0.8576,10.3127,0.6037,-1.0994,9.7261,0.0496,0.0033,-0.0002
7642,46.342415,-0.307348,137.11,25.52,3.216,237.2,14 / 18,764211,2019-08-09 22:48:01:438,0.5723,-0.7522,9.5172,0.6081,-1.1101,9.7246,-0.0242,0.0039,0.0108
7643,46.342415,-0.307348,137.11,25.52,3.216,237.2,14 / 18,764311,2019-08-09 22:48:01:538,0.4359,-1.0551,9.2874,0.61,-1.1163,9.7238,-0.0018,-0.0007,-0.0078
7644,46.342415,-0.307348,137.11,25.52,3.216,237.2,14 / 18,764410,2019-08-09 22:48:01:637,0.3868,-1.7261,9.677,0.612,-1.1168,9.7236,0.0021,-0.0106,-0.0312
7645,46.342415,-0.307348,137.11,25.52,3.216,237.2,14 / 18,764510,2019-08-09 22:48:01:737,0.7926,-1.5303,9.7064,0.6047,-1.1173,9.724,-0.0057,0.0042,0.0272
7646,46.342415,-0.307348,137.11,25.52,3.216,237.2,13 / 17,764610,2019-08-09 22:48:01:837,0.5322,-1.7955,9.9506,0.6111,-1.121,9.7232,-0.0224,0.0031,-0.0025
7647,46.342415,-0.307348,137.11,25.52,3.216,237.2,13 / 17,764710,2019-08-09 22:48:01:937,0.7232,-1.5513,10.0918,0.6071,-1.1063,9.7251,0.03,0.0061,0.0039
7648,46.342415,-0.307348,137.11,25.52,3.216,237.2,13 / 17,764810,2019-08-09 22:48:02:037,0.3407,-0.9671,9.8823,0.6131,-1.0935,9.7262,0.0383,0.0073,0.0092
7649,46.342415,-0.307348,137.11,25.52,3.216,237.2,13 / 17,764911,2019-08-09 22:48:02:138,0.5729,-0.6271,9.543,0.6113,-1.1181,9.7235,-0.0276,-0.003,0.0109
