,GPS LATITUDE (degrees),GPS LONGITUDE (degrees), GPS ALTITUDE (m),GPS SPEED (Kmh),GPS ACCURACY (m),GPS ORIENTATION (Â°), SATELLITES IN RANGE, TIME SINCE START (ms), DATE (YYYY-MO-DD HH-MI-SS_SSS),ACCELEROMETER X (m/s²) , ACCELEROMETER Y (m/s²), ACCELEROMETER Z (m/s²), GRAVITY X (m/s²), GRAVITY Y (m/s²), GRAVITY Z (m/s²), GYROSCOPE Yaw (rad/s), GYROSCOPE Pitch (rad/s), GYROSCOPE Roll (rad/s)
27304,45.92532,-0.461529,72.72,21.59,4.288,119.5,14 / 18,2730410,2019-08-09 23:20:47:637,0.2785,0.2402,8.7385,0.6615,-0.5585,9.7684,-0.0776,0.0161,0.0286
27305,45.92532,-0.461529,72.72,21.59,4.288,119.5,14 / 18,2730510,2019-08-09 23:20:47:737,0.7465,-2.0122,9.4041,0.6687,-0.5772,9.7668,-0.0619,0.008,0.0045
27306,45.92532,-0.461529,72.72,21.59,4.288,119.5,14 / 18,2730610,2019-08-09 23:20:47:837,1.5468,-2.74,10.6407,0.6833,-0.604,9.7642,0.1,-0.0028,-0.0403
27307,45.92532,-0.461529,72.72,21.59,4.288,119.5,14 / 18,2730710,2019-08-09 23:20:47:937,0.637,0.4742,9.9296,0.6898,-0.6115,9.7632,0.0006,0.0002,0.0152
27308,45.92532,-0.461529,72.72,21.59,4.288,119.5,14 / 18,2730810,2019-08-09 23:20:48:037,1.0224,-0.5733,9.1102,0.6893,-0.6168,9.7629,-0.0027,-0.0067,-0.0317
27309,45.92532,-0.461529,72.72,21.59,4.288,119.5,14 / 18,2730910,2019-08-09 23:20:48:137,0.6735,-1.006,8.8977,0.6808,-0.6187,9.7634,-0.0848,-0.0262,0.0295
27310,45.92532,-0.461529,72.72,21.59,4.288,119.5,14 / 18,2731010,2019-08-09 23:20:48:237,1.1505,-0.5128,9.5082,0.6412,-0.625,9.7657,0.0845,-0.0487,-0.0834
27311,45.92532,-0.461529,72.72,21.59,4.288,119.5,14 / 18,2731111,2019-08-09 23:20:48:338,0.3425,-1.99,9.3664,0.6316,-0.5556,9.7705,0.2239,-0.0026,-0.0553
27312,45.92532,-0.461529,72.72,21.59,4.288,119.5,14 / 18,2731211,2019-08-09 23:20:48:438,0.8351,-4.6218,8.9294,0.6501,-0.6761,9.7617,0.005,0.0468,-0.0036
27313,45.92532,-0.461529,72.72,21.59,4.288,119.5,14 / 18,2731311,2019-08-09 23:20:48:538,0.6082,-0.444,9.5699,0.6766,-0.6844,9.7593,-0.0598,0.0388,-0.0093
27314,45.92532,-0.461529,72.72,21.59,4.288,119.5,14 / 18,2731411,2019-08-09 23:20:48:638,1.3594,1.0135,8.3201,0.713,-0.6386,9.7598,-0.0063,0.0011,0.0329
27315,45.92532,-0.461529,72.72,21.59,4.288,119.5,14 / 18,2731511,2019-08-09 23:20:48:738,1.5995,0.4245,10.096,0.7149,-0.6178,9.761,0.036,-0.0279,-0.0596
27316,45.92532,-0.461529,72.72,21.59,4.288,119.5,14 / 18,2731611,2019-08-09 23:20:48:838,0.2342,-0.8564,9.0905,0.701,-0.6157,9.7622,0.0538,-0.0022,-0.0508
27317,45.92532,-0.461529,72.72,21.59,4.288,119.5,14 / 18,2731710,2019-08-09 23:20:48:937,1.305,-2.3073,10.2726,0.6966,-0.6518,9.7601,0.0204,-0.0034,0.0194
27318,45.92532,-0.461529,72.72,21.59,4.288,119.5,14 / 18,2731810,2019-08-09 23:20:49:037,1.129,-3.5439,10.3073,0.6945,-0.7197,9.7555,0.0416,-0.0176,-0.0372
27319,45.92532,-0.461529,72.72,21.59,4.288,119.5,14 / 18,2731910,2019-08-09 23:20:49:137,0.364,-0.5697,9.3682,0.6965,-0.69,9.7575,-0.0454,0.0036,0.0268
27320,45.92532,-0.461529,72.72,21.59,4.288,119.5,14 / 18,2732010,2019-08-09 23:20:49:237,0.7753,-1.4825,9.3239,0.6851,-0.6994,9.7577,-0.0183,-0.0184,0.0168
27321,45.92532,-0.461529,72.72,21.59,4.288,119.5,14 / 18,2732110,2019-08-09 23:20:49:337,0.7076,-1.0515,9.9362,0.6577,-0.6885,9.7603,0.0061,-0.0315,0.0
27322,45.92532,-0.461529,72.72,21.59,4.288,119.5,14 / 18,2732210,2019-08-09 23:20:49:437,0.3024,-1.1688,9.4442,0.6414,-0.6776,9.7622,-0.0208,-0.0228,0.0209
27323,45.92532,-0.461529,72.72,21.59,4.288,119.5,14 / 18,2732310,2019-08-09 23:20:49:537,0.5951,-1.2873,9.1641,0.6247,-0.683,9.7629,-0.0072,0.0013,-0.0204
27324,45.92532,-0.461529,72.72,21.59,4.288,119.5,14 / 18,2732411,2019-08-09 23:20:49:638,0.7429,-0.3338,9.3089,0.6282,-0.6685,9.7636,0.0049,-0.0217,-0.0165
27325,45.92532,-0.461529,72.72,21.59,4.288,119.5,14 / 18,2732510,2019-08-09 23:20:49:737,0.6507,-1.0168,9.3795,0.5946,-0.6371,9.7679,-0.0611,-0.0367,0.0141
27326,45.92532,-0.461529,72.72,21.59,4.288,119.5,09-Dec,2732610,2019-08-09 23:20:49:837,0.0151,-1.0533,9.3454,0.5739,-0.6349,9.7692,-0.0469,-0.0123,0.0124
27327,45.92532,-0.461529,72.72,21.59,4.288,119.5,09-Dec,2732710,2019-08-09 23:20:49:937,0.3808,-0.1752,9.7399,0.5554,-0.6348,9.7703,0.0292,-0.0052,-0.0173
27328,45.92532,-0.461529,72.72,21.59,4.288,119.5,09-Dec,2732810,2019-08-09 23:20:50:037,0.4885,-1.4753,10.3037,0.5517,-0.6532,9.7693,-0.0325,0.036,0.0658
27329,45.92532,-0.461529,72.72,21.59,4.288,119.5,09-Dec,2732911,2019-08-09 23:20:50:138,0.9829,-1.6752,10.1259,0.5745,-0.6685,9.767,0.0446,0.0226,-0.0603
27330,45.92532,-0.461529,72.72,21.59,4.288,119.5,09-Dec,2733010,2019-08-09 23:20:50:237,1.0583,-1.8895,9.9506,0.5986,-0.6762,9.765,0.0078,0.0404,0.0386
27331,45.92532,-0.461529,72.72,21.59,4.288,119.5,09-Dec,2733111,2019-08-09 23:20:50:338,0.8273,-0.5331,10.0727,0.6091,-0.7026,9.7625,0.0008,-0.0127,0.0009
27332,45.92532,-0.461529,72.72,21.59,4.288,119.5,09-Dec,2733210,2019-08-09 23:20:50:437,0.4341,-1.4741,9.355,0.598,-0.7037,9.7631,-0.0256,-0.0046,0.0245
27333,45.92532,-0.461529,72.72,21.59,4.288,119.5,09-Dec,2733312,2019-08-09 23:20:50:539,1.1434,-0.4284,10.1493,0.5797,-0.7322,9.7621,-0.0495,-0.0273,0.0306
27334,45.92532,-0.461529,72.72,21.59,4.288,119.5,09-Dec,2733411,2019-08-09 23:20:50:638,-0.2806,-1.683,9.54,0.5713,-0.724,9.7632,0.031,-0.0102,0.0
27335,45.92532,-0.461529,72.72,21.59,4.288,119.5,09-Dec,2733512,2019-08-09 23:20:50:739,0.0989,-1.9739,9.4921,0.5637,-0.7207,9.7639,-0.0333,0.0071,-0.0242
27336,45.92532,-0.461529,72.72,21.59,4.288,119.5,09-Dec,2733610,2019-08-09 23:20:50:837,0.6382,-1.5429,10.2612,0.5754,-0.7319,9.7624,0.0532,0.0247,0.0061
27337,45.92532,-0.461529,72.72,21.59,4.288,119.5,09-Dec,2733710,2019-08-09 23:20:50:937,0.3826,-0.8863,9.1485,0.6186,-0.7277,9.76,0.0395,0.057,-0.0069
27338,45.92532,-0.461529,72.72,21.59,4.288,119.5,09-Dec,2733810,2019-08-09 23:20:51:037,1.4223,-1.4663,10.2074,0.6438,-0.7708,9.7551,0.0127,0.0396,-0.0454
27339,45.92532,-0.461529,72.72,21.59,4.288,119.5,09-Dec,2733912,2019-08-09 23:20:51:139,1.2583,-1.7051,9.2682,0.7014,-0.763,9.7517,-0.0651,0.0258,-0.0095
27340,45.92532,-0.461529,72.72,21.59,4.288,119.5,09-Dec,2734011,2019-08-09 23:20:51:238,0.2054,-1.8745,8.7313,0.7308,-0.7212,9.7528,-0.0354,0.0392,-0.006
27341,45.92532,-0.461529,72.72,21.59,4.288,119.5,09-Dec,2734111,2019-08-09 23:20:51:338,0.8513,-0.1172,10.0523,0.7464,-0.7135,9.7521,-0.1146,-0.0121,0.0291
27342,45.92532,-0.461529,72.72,21.59,4.288,119.5,09-Dec,2734210,2019-08-09 23:20:51:437,1.0111,-0.7947,9.5896,0.7401,-0.7454,9.7502,-0.054,-0.0171,0.0065
27343,45.92532,-0.461529,72.72,21.59,4.288,119.5,09-Dec,2734311,2019-08-09 23:20:51:538,0.5508,-2.9453,8.7397,0.7241,-0.71,9.7541,-0.0474,-0.0166,0.0095
27344,45.92532,-0.461529,72.72,21.59,4.288,119.5,09-Dec,2734410,2019-08-09 23:20:51:637,0.6244,-1.4854,10.4988,0.7012,-0.7315,9.7542,0.0589,-0.0377,-0.0055
27345,45.92532,-0.461529,72.72,21.59,4.288,119.5,09-Dec,2734511,2019-08-09 23:20:51:738,0.2659,-2.0864,10.2367,0.6679,-0.739,9.7559,0.0958,-0.0067,0.0177
27346,45.92532,-0.461529,72.72,21.59,4.288,119.5,15 / 19,2734610,2019-08-09 23:20:51:837,0.5634,-1.8943,9.2748,0.6715,-0.7211,9.757,-0.0611,0.0084,0.0047
27347,45.92532,-0.461529,72.72,21.59,4.288,119.5,15 / 19,2734711,2019-08-09 23:20:51:938,0.8716,-0.6343,8.9205,0.6809,-0.7031,9.7577,-0.0102,-0.0076,0.0029
27348,45.92532,-0.461529,72.72,21.59,4.288,119.5,15 / 19,2734811,2019-08-09 23:20:52:038,0.8387,-0.4218,9.4789,0.6708,-0.6983,9.7587,-0.0614,0.0001,0.0355
27349,45.92532,-0.461529,72.72,21.59,4.288,119.5,15 / 19,2734911,2019-08-09 23:20:52:138,0.7136,-0.3584,9.7351,0.6818,-0.6931,9.7583,-0.0624,0.0397,0.0633
27350,45.92532,-0.461529,72.72,21.59,4.288,119.5,15 / 19,2735011,2019-08-09 23:20:52:238,0.0989,-2.2887,9.1126,0.7028,-0.6822,9.7576,0.0494,0.0119,-0.0733
27351,45.92532,-0.461529,72.72,21.59,4.288,119.5,15 / 19,2735110,2019-08-09 23:20:52:337,0.6723,-2.4276,9.5011,0.7098,-0.6768,9.7575,-0.0348,-0.0022,0.0194
27352,45.92532,-0.461529,72.72,21.59,4.288,119.5,15 / 19,2735211,2019-08-09 23:20:52:438,0.8638,-2.1157,9.2748,0.7066,-0.6982,9.7562,0.0128,0.0011,-0.015
27353,45.92532,-0.461529,72.72,21.59,4.288,119.5,15 / 19,2735310,2019-08-09 23:20:52:537,1.0691,0.2821,10.2864,0.7133,-0.7104,9.7548,-0.0207,-0.0013,0.0468
27354,45.92532,-0.461529,72.72,21.59,4.288,119.5,15 / 19,2735410,2019-08-09 23:20:52:637,0.5113,0.4012,9.3203,0.7039,-0.6901,9.757,0.0151,0.0042,-0.0221
27355,45.92532,-0.461529,72.72,21.59,4.288,119.5,15 / 19,2735510,2019-08-09 23:20:52:737,1.472,-0.1196,10.5665,0.7171,-0.7181,9.754,0.09,-0.0055,-0.0705
27356,45.92532,-0.461529,72.72,21.59,4.288,119.5,13 / 16,2735610,2019-08-09 23:20:52:837,0.5514,-0.7402,10.2115,0.7201,-0.7418,9.752,-0.0049,-0.0022,0.0463
27357,45.92532,-0.461529,72.72,21.59,4.288,119.5,13 / 16,2735711,2019-08-09 23:20:52:938,0.5741,-0.6349,9.3377,0.7055,-0.7797,9.7501,0.0305,-0.0275,-0.0336
27358,45.92532,-0.461529,72.72,21.59,4.288,119.5,13 / 16,2735810,2019-08-09 23:20:53:037,0.4047,-2.0259,9.2114,0.6881,-0.7642,9.7526,0.0228,-0.0072,0.0081
27359,45.92532,-0.461529,72.72,21.59,4.288,119.5,13 / 16,2735910,2019-08-09 23:20:53:137,0.8459,-0.0489,9.9458,0.6877,-0.724,9.7557,0.0481,-0.0025,-0.019
27360,45.92532,-0.461529,72.72,21.59,4.288,119.5,13 / 16,2736011,2019-08-09 23:20:53:238,-0.0562,1.3595,9.2407,0.6713,-0.7269,9.7566,0.0062,-0.0198,0.0255
27361,45.92532,-0.461529,72.72,21.59,4.288,119.5,13 / 16,2736110,2019-08-09 23:20:53:337,0.9375,-1.814,10.1385,0.6546,-0.744,9.7565,0.0177,-0.0301,-0.0217
27362,45.92532,-0.461529,72.72,21.59,4.288,119.5,13 / 16,2736210,2019-08-09 23:20:53:437,-0.1543,-2.2318,10.1972,0.6259,-0.7674,9.7565,0.0654,0.0175,-0.0124
27363,45.92532,-0.461529,72.72,21.59,4.288,119.5,13 / 16,2736311,2019-08-09 23:20:53:538,0.3587,0.2528,10.7077,0.6297,-0.8074,9.7531,0.0053,0.0367,0.0073
27364,45.92532,-0.461529,72.72,21.59,4.288,119.5,13 / 16,2736410,2019-08-09 23:20:53:637,0.4772,0.5221,10.1535,0.6764,-0.8262,9.7483,0.0089,0.0262,-0.0501
27365,45.92532,-0.461529,72.72,21.59,4.288,119.5,13 / 16,2736510,2019-08-09 23:20:53:737,0.6603,-0.8582,9.1713,0.7143,-0.8042,9.7475,-0.0423,0.0421,0.0268
27366,45.92532,-0.461529,72.72,21.59,4.288,119.5,14 / 18,2736610,2019-08-09 23:20:53:837,1.2271,-0.9234,10.1188,0.7372,-0.8135,9.745,0.0249,-0.0143,-0.0244
27367,45.92532,-0.461529,72.72,21.59,4.288,119.5,14 / 18,2736710,2019-08-09 23:20:53:937,0.5915,-0.9354,10.0763,0.7248,-0.8453,9.7432,-0.0038,-0.016,0.0445
27368,45.92532,-0.461529,72.72,21.59,4.288,119.5,14 / 18,2736811,2019-08-09 23:20:54:038,0.7639,-0.7007,10.0368,0.7174,-0.8635,9.7422,0.0147,0.0063,-0.0255
27369,45.92532,-0.461529,72.72,21.59,4.288,119.5,14 / 18,2736911,2019-08-09 23:20:54:138,0.9213,0.048,9.6333,0.722,-0.8802,9.7404,-0.0189,-0.0255,-0.033
27370,45.92532,-0.461529,72.72,21.59,4.288,119.5,14 / 18,2737011,2019-08-09 23:20:54:238,0.4449,-0.6008,9.2802,0.712,-0.8636,9.7426,-0.0396,0.0004,0.0527
27371,45.92532,-0.461529,72.72,21.59,4.288,119.5,14 / 18,2737110,2019-08-09 23:20:54:337,1.2164,0.6975,10.26,0.6976,-0.873,9.7428,0.0207,-0.0228,-0.0645
27372,45.92532,-0.461529,72.72,21.59,4.288,119.5,14 / 18,2737210,2019-08-09 23:20:54:437,0.8495,-0.6708,10.7,0.6678,-0.9035,9.7421,0.0302,-0.0412,-0.0113
27373,45.92532,-0.461529,72.72,21.59,4.288,119.5,14 / 18,2737311,2019-08-09 23:20:54:538,0.4556,-1.5429,9.4508,0.6502,-0.9215,9.7416,-0.0041,-0.0276,0.006
27374,45.92532,-0.461529,72.72,21.59,4.288,119.5,14 / 18,2737411,2019-08-09 23:20:54:638,0.6573,-0.9114,9.2401,0.6516,-0.9136,9.7422,-0.0584,0.0096,0.0036
27375,45.92532,-0.461529,72.72,21.59,4.288,119.5,14 / 18,2737510,2019-08-09 23:20:54:737,0.6514,-0.7995,9.7985,0.6543,-0.9199,9.7415,-0.0306,0.0151,0.0188
27376,45.92532,-0.461529,72.72,21.59,4.288,119.5,14 / 18,2737611,2019-08-09 23:20:54:838,0.3587,-1.2466,9.4149,0.6865,-0.9122,9.74,0.0295,0.0425,-0.0226
27377,45.92532,-0.461529,72.72,21.59,4.288,119.5,14 / 18,2737710,2019-08-09 23:20:54:937,1.0799,0.0475,9.9416,0.7259,-0.9507,9.7334,-0.0069,0.0277,-0.0044
27378,45.92532,-0.461529,72.72,21.59,4.288,119.5,14 / 18,2737810,2019-08-09 23:20:55:037,0.7046,0.2952,8.3866,0.7554,-0.936,9.7326,0.081,-0.0149,-0.054
27379,45.92532,-0.461529,72.72,21.59,4.288,119.5,14 / 18,2737910,2019-08-09 23:20:55:137,2.1543,0.069,10.6389,0.7462,-0.9744,9.7296,-0.168,-0.0355,0.0477
27380,45.92532,-0.461529,72.72,21.59,4.288,119.5,14 / 18,2738010,2019-08-09 23:20:55:237,1.2301,-0.7235,10.427,0.7032,-0.9576,9.7344,-0.0267,-0.0494,0.0176
27381,45.92532,-0.461529,72.72,21.59,4.288,119.5,14 / 18,2738110,2019-08-09 23:20:55:337,0.2132,-1.489,10.4426,0.6766,-0.9307,9.7389,0.0475,-0.0226,0.0214
27382,45.92532,-0.461529,72.72,21.59,4.288,119.5,14 / 18,2738210,2019-08-09 23:20:55:437,1.0739,-1.0922,10.1906,0.6562,-0.9821,9.7353,0.0315,-0.0139,-0.0198
27383,45.92532,-0.461529,72.72,21.59,4.288,119.5,14 / 18,2738310,2019-08-09 23:20:55:537,0.8357,-1.0156,9.379,0.6359,-0.9971,9.7351,-0.0488,-0.0319,0.0223
27384,45.92532,-0.461529,72.72,21.59,4.288,119.5,14 / 18,2738411,2019-08-09 23:20:55:638,1.29,-0.5966,10.123,0.585,-0.9926,9.7387,-0.054,-0.0553,0.0216
27385,45.92532,-0.461529,72.72,21.59,4.288,119.5,14 / 18,2738512,2019-08-09 23:20:55:739,0.2916,-1.3394,9.5639,0.5598,-0.9712,9.7424,0.0226,-0.0546,-0.0062
27386,45.92448,-0.459366,73.8,22.09,4.288,119.8,14 / 18,2738610,2019-08-09 23:20:55:837,0.561,-1.3394,10.5162,0.5271,-1.0057,9.7407,0.069,-0.0027,-0.0381
27387,45.92448,-0.459366,73.8,22.09,4.288,119.8,14 / 18,2738710,2019-08-09 23:20:55:937,0.5191,-1.0341,10.4151,0.5372,-1.0162,9.7391,0.0043,0.0101,0.0032
27388,45.92448,-0.459366,73.8,22.09,4.288,119.8,14 / 18,2738810,2019-08-09 23:20:56:037,0.2054,-0.9958,9.4071,0.544,-1.0396,9.7362,0.0221,0.0283,-0.0313
27389,45.92448,-0.459366,73.8,22.09,4.288,119.8,14 / 18,2738910,2019-08-09 23:20:56:137,0.7848,-0.6858,9.6327,0.5778,-1.0351,9.7347,-0.0244,0.0147,-0.0044
27390,45.92448,-0.459366,73.8,22.09,4.288,119.8,14 / 18,2739010,2019-08-09 23:20:56:237,0.5113,-1.3131,10.1254,0.572,-1.0511,9.7334,-0.0022,-0.0182,0.025
27391,45.92448,-0.459366,73.8,22.09,4.288,119.8,14 / 18,2739110,2019-08-09 23:20:56:337,0.552,-0.4182,10.0691,0.5559,-1.0729,9.7319,0.0481,-0.0102,-0.0093
27392,45.92448,-0.459366,73.8,22.09,4.288,119.8,14 / 18,2739211,2019-08-09 23:20:56:438,0.7908,-0.8875,9.5334,0.5587,-1.0625,9.7329,0.0336,0.0002,-0.0173
27393,45.92448,-0.459366,73.8,22.09,4.288,119.8,14 / 18,2739311,2019-08-09 23:20:56:538,0.5993,-0.2746,9.4101,0.5621,-1.0493,9.7341,0.0196,0.0153,0.0094
27394,45.92448,-0.459366,73.8,22.09,4.288,119.8,14 / 18,2739410,2019-08-09 23:20:56:637,0.6639,-1.5465,10.1373,0.5715,-1.0608,9.7323,-0.0043,-0.0021,-0.0255
27395,45.92448,-0.459366,73.8,22.09,4.288,119.8,14 / 18,2739510,2019-08-09 23:20:56:737,0.7004,-1.401,10.0439,0.5753,-1.0679,9.7314,0.0291,0.0124,0.012
27396,45.92448,-0.459366,73.8,22.09,4.288,119.8,14 / 19,2739610,2019-08-09 23:20:56:837,0.2461,-0.8767,9.215,0.5802,-1.0713,9.7307,-0.0256,-0.0015,0.0133
27397,45.92448,-0.459366,73.8,22.09,4.288,119.8,14 / 19,2739710,2019-08-09 23:20:56:937,0.1617,-1.331,9.4394,0.5748,-1.0609,9.7321,-0.0267,-0.0044,-0.0113
27398,45.92448,-0.459366,73.8,22.09,4.288,119.8,14 / 19,2739810,2019-08-09 23:20:57:037,-0.3452,-0.5601,9.2509,0.5726,-1.0422,9.7343,-0.0273,0.0181,0.0686
27399,45.92448,-0.459366,73.8,22.09,4.288,119.8,14 / 19,2739910,2019-08-09 23:20:57:137,0.6124,-1.0431,10.369,0.5804,-1.0471,9.7333,-0.0034,0.0057,0.019
27400,45.92448,-0.459366,73.8,22.09,4.288,119.8,14 / 19,2740010,2019-08-09 23:20:57:237,0.2832,0.066,9.9649,0.5809,-1.0317,9.7349,0.0702,0.0002,-0.0104
27401,45.92448,-0.459366,73.8,22.09,4.288,119.8,14 / 19,2740111,2019-08-09 23:20:57:338,0.1144,-0.7043,7.9772,0.5922,-1.0104,9.7365,-0.0169,0.021,-0.0309
27402,45.92448,-0.459366,73.8,22.09,4.288,119.8,14 / 19,2740211,2019-08-09 23:20:57:438,0.2707,-1.2041,8.4051,0.601,-0.9849,9.7385,-0.0739,-0.0099,0.001
27403,45.92448,-0.459366,73.8,22.09,4.288,119.8,14 / 19,2740310,2019-08-09 23:20:57:537,1.059,-0.4505,10.3163,0.5865,-0.9685,9.7411,0.026,-0.0285,-0.045
27404,45.92448,-0.459366,73.8,22.09,4.288,119.8,14 / 19,2740411,2019-08-09 23:20:57:638,0.2503,-1.7901,9.516,0.5902,-0.9457,9.7431,-0.0045,-0.0043,0.0404
27405,45.92448,-0.459366,73.8,22.09,4.288,119.8,14 / 19,2740511,2019-08-09 23:20:57:738,0.3892,-1.7273,9.7902,0.576,-1.0056,9.7379,0.0014,0.0024,0.0004
27406,45.92448,-0.459366,73.8,22.09,4.288,119.8,14 / 18,2740611,2019-08-09 23:20:57:838,0.8321,-2.0391,9.1749,0.578,-1.0073,9.7376,-0.0174,0.0014,-0.0599
27407,45.92448,-0.459366,73.8,22.09,4.288,119.8,14 / 18,2740710,2019-08-09 23:20:57:937,0.3072,0.3533,9.4801,0.599,-0.9814,9.739,-0.0496,0.0256,0.0458
27408,45.92448,-0.459366,73.8,22.09,4.288,119.8,14 / 18,2740811,2019-08-09 23:20:58:038,0.5544,1.1679,10.1415,0.5951,-1.0122,9.7361,-0.0699,0.0083,0.0445
27409,45.92448,-0.459366,73.8,22.09,4.288,119.8,14 / 18,2740911,2019-08-09 23:20:58:138,0.8327,-0.1291,10.275,0.6074,-1.0196,9.7346,0.06,0.006,-0.0286
27410,45.92448,-0.459366,73.8,22.09,4.288,119.8,14 / 18,2741011,2019-08-09 23:20:58:238,0.4568,-0.6618,9.1922,0.6129,-1.0096,9.7353,-0.0412,0.0159,0.0277
27411,45.92448,-0.459366,73.8,22.09,4.288,119.8,14 / 18,2741111,2019-08-09 23:20:58:338,0.5149,-1.8524,9.3999,0.6196,-0.9928,9.7366,-0.0054,-0.0144,0.0149
27412,45.92448,-0.459366,73.8,22.09,4.288,119.8,14 / 18,2741210,2019-08-09 23:20:58:437,0.8136,-0.2854,9.674,0.609,-0.9851,9.738,0.0012,-0.0303,-0.0198
27413,45.92448,-0.459366,73.8,22.09,4.288,119.8,14 / 18,2741310,2019-08-09 23:20:58:537,0.4179,-0.0651,9.877,0.5797,-0.991,9.7392,0.0341,-0.0315,-0.0273
27414,45.92448,-0.459366,73.8,22.09,4.288,119.8,14 / 18,2741410,2019-08-09 23:20:58:637,0.218,-0.3823,9.4262,0.5632,-1.0113,9.7381,-0.0183,-0.0108,0.0245
27415,45.92448,-0.459366,73.8,22.09,4.288,119.8,14 / 18,2741510,2019-08-09 23:20:58:737,0.3347,-1.5932,9.2485,0.5474,-1.0082,9.7393,-0.042,-0.0144,-0.0172
27416,45.92448,-0.459366,73.8,22.09,4.288,119.8,Dec-15,2741610,2019-08-09 23:20:58:837,0.2707,-0.9007,9.091,0.5435,-0.9701,9.7434,-0.0185,-0.0151,0.0213
27417,45.92448,-0.459366,73.8,22.09,4.288,119.8,Dec-15,2741710,2019-08-09 23:20:58:937,0.6005,-0.3907,10.4468,0.5226,-0.969,9.7447,0.0705,-0.0113,-0.0269
27418,45.92448,-0.459366,73.8,22.09,4.288,119.8,Dec-15,2741810,2019-08-09 23:20:59:037,0.5179,-1.4723,10.3624,0.5182,-0.9776,9.744,0.0073,-0.0185,0.0121
27419,45.92448,-0.459366,73.8,22.09,4.288,119.8,Dec-15,2741910,2019-08-09 23:20:59:137,-0.195,-1.5692,9.3233,0.4763,-0.9982,9.7441,0.0381,-0.0296,-0.0392
27420,45.92448,-0.459366,73.8,22.09,4.288,119.8,Dec-15,2742011,2019-08-09 23:20:59:238,0.5286,-1.0054,9.9667,0.4696,-1.0092,9.7433,-0.0285,-0.0114,0.0309
27421,45.92448,-0.459366,73.8,22.09,4.288,119.8,Dec-15,2742110,2019-08-09 23:20:59:337,-0.2662,-0.1662,10.1427,0.4519,-1.0162,9.7434,0.0323,-0.0128,0.0177
27422,45.92448,-0.459366,73.8,22.09,4.288,119.8,Dec-15,2742210,2019-08-09 23:20:59:437,1.2774,-0.8929,10.7012,0.4579,-0.9967,9.7451,0.0613,0.0067,-0.0578
27423,45.92448,-0.459366,73.8,22.09,4.288,119.8,Dec-15,2742310,2019-08-09 23:20:59:537,1.3397,-1.8865,9.6423,0.487,-1.0046,9.7429,0.0228,0.0257,-0.0934
27424,45.92448,-0.459366,73.8,22.09,4.288,119.8,Dec-15,2742410,2019-08-09 23:20:59:637,0.6735,-1.012,9.549,0.5179,-0.9749,9.7443,-0.0499,0.0264,0.008
27425,45.92448,-0.459366,73.8,22.09,4.288,119.8,Dec-15,2742510,2019-08-09 23:20:59:737,0.9722,-1.1473,9.9404,0.5251,-0.9714,9.7443,-0.0467,-0.0091,0.0286
27426,45.92448,-0.459366,73.8,22.09,4.288,119.8,15 / 19,2742610,2019-08-09 23:20:59:837,0.637,-0.6475,9.7554,0.5228,-0.9565,9.7459,-0.0086,0.0178,0.0354
27427,45.92448,-0.459366,73.8,22.09,4.288,119.8,15 / 19,2742711,2019-08-09 23:20:59:938,-0.0166,-0.8169,9.6483,0.5355,-0.9457,9.7462,0.0096,0.0102,-0.0079
27428,45.92448,-0.459366,73.8,22.09,4.288,119.8,15 / 19,2742811,2019-08-09 23:21:00:038,-0.1471,0.4748,9.349,0.5521,-0.9106,9.7487,0.0136,0.0197,-0.0142
27429,45.92448,-0.459366,73.8,22.09,4.288,119.8,15 / 19,2742911,2019-08-09 23:21:00:138,0.4568,0.5395,9.522,0.5616,-0.9251,9.7468,-0.0307,0.0073,-0.0012
27430,45.92448,-0.459366,73.8,22.09,4.288,119.8,15 / 19,2743011,2019-08-09 23:21:00:238,-0.2297,-2.5778,9.2766,0.577,-0.8757,9.7504,-0.0253,0.0263,-0.0169
27431,45.92448,-0.459366,73.8,22.09,4.288,119.8,15 / 19,2743111,2019-08-09 23:21:00:338,1.0901,-2.1079,9.9715,0.5964,-0.8837,9.7485,0.0244,0.0051,-0.0242
27432,45.92448,-0.459366,73.8,22.09,4.288,119.8,15 / 19,2743210,2019-08-09 23:21:00:437,0.8267,-0.8797,9.7842,0.591,-0.8949,9.7478,0.0078,-0.0183,-0.0229
27433,45.92448,-0.459366,73.8,22.09,4.288,119.8,15 / 19,2743310,2019-08-09 23:21:00:537,-0.35,-1.2616,9.3694,0.5875,-0.8781,9.7496,-0.0065,0.0164,0.055
27434,45.92448,-0.459366,73.8,22.09,4.288,119.8,15 / 19,2743410,2019-08-09 23:21:00:637,0.3419,-0.9043,9.774,0.579,-0.8934,9.7487,0.0143,-0.027,0.0318
27435,45.92448,-0.459366,73.8,22.09,4.288,119.8,15 / 19,2743511,2019-08-09 23:21:00:738,-0.3423,-1.4172,9.3802,0.5472,-0.8975,9.7502,0.0543,-0.0144,-0.0342
27436,45.92448,-0.459366,73.8,22.09,4.288,119.8,14 / 18,2743610,2019-08-09 23:21:00:837,0.6406,-0.9096,10.5946,0.5311,-0.9366,9.7474,0.0497,0.0101,0.0152
27437,45.92448,-0.459366,73.8,22.09,4.288,119.8,14 / 18,2743710,2019-08-09 23:21:00:937,0.0935,-1.2538,9.4987,0.5361,-0.9448,9.7463,-0.0145,0.0143,0.013
27438,45.92448,-0.459366,73.8,22.09,4.288,119.8,14 / 18,2743810,2019-08-09 23:21:01:037,0.1755,-0.6888,9.2401,0.5676,-0.9407,9.7449,-0.0248,0.0225,0.0225
27439,45.92448,-0.459366,73.8,22.09,4.288,119.8,14 / 18,2743910,2019-08-09 23:21:01:137,1.6515,-0.5709,10.1307,0.5611,-0.9512,9.7443,0.0039,-0.0172,-0.0784
27440,45.92448,-0.459366,73.8,22.09,4.288,119.8,14 / 18,2744010,2019-08-09 23:21:01:237,0.9794,-0.0657,10.1714,0.549,-0.9029,9.7495,0.0285,-0.0151,-0.0747
27441,45.92448,-0.459366,73.8,22.09,4.288,119.8,14 / 18,2744111,2019-08-09 23:21:01:338,0.4766,1.4247,9.8536,0.5617,-0.884,9.7506,-0.0206,0.0052,0.0054
27442,45.92448,-0.459366,73.8,22.09,4.288,119.8,14 / 18,2744210,2019-08-09 23:21:01:437,0.719,2.3321,9.8608,0.5701,-0.8812,9.7503,-0.0607,-0.0098,-0.0407
27443,45.92448,-0.459366,73.8,22.09,4.288,119.8,14 / 18,2744311,2019-08-09 23:21:01:538,0.9039,-0.8618,9.5825,0.567,-0.8452,9.7537,0.0176,-0.0289,0.0046
27444,45.92448,-0.459366,73.8,22.09,4.288,119.8,14 / 18,2744411,2019-08-09 23:21:01:638,0.4365,-1.6602,9.68,0.545,-0.8483,9.7547,-0.01,0.0121,-0.0016
27445,45.92448,-0.459366,73.8,22.09,4.288,119.8,14 / 18,2744511,2019-08-09 23:21:01:738,0.6029,-1.7332,10.169,0.5502,-0.8385,9.7552,0.0436,0.0011,-0.0047
27446,45.92448,-0.459366,73.8,22.09,4.288,119.8,14 / 18,2744611,2019-08-09 23:21:01:838,0.6047,-0.7875,9.3305,0.5553,-0.8479,9.7541,0.0173,0.0019,0.0138
27447,45.92448,-0.459366,73.8,22.09,4.288,119.8,14 / 18,2744710,2019-08-09 23:21:01:937,0.6424,-1.2406,9.7405,0.5617,-0.8449,9.754,0.0066,0.0011,-0.0173
27448,45.92448,-0.459366,73.8,22.09,4.288,119.8,14 / 18,2744810,2019-08-09 23:21:02:037,0.066,-1.9876,9.5753,0.5604,-0.857,9.753,-0.0324,-0.0017,0.0293
27449,45.92448,-0.459366,73.8,22.09,4.288,119.8,14 / 18,2744911,2019-08-09 23:21:02:138,0.8842,-1.0814,9.0851,0.5503,-0.8505,9.7542,-0.0037,-0.0059,-0.0059
27450,45.92448,-0.459366,73.8,22.09,4.288,119.8,14 / 18,2745010,2019-08-09 23:21:02:237,0.473,-0.6247,9.3006,0.5401,-0.8232,9.7571,-0.059,-0.0253,0.0215
27451,45.92448,-0.459366,73.8,22.09,4.288,119.8,14 / 18,2745110,2019-08-09 23:21:02:337,0.0139,-0.8971,10.9172,0.5081,-0.8205,9.7591,0.0634,-0.0287,0.0137
27452,45.92448,-0.459366,73.8,22.09,4.288,119.8,14 / 18,2745210,2019-08-09 23:21:02:437,0.6364,-0.0423,9.5663,0.5049,-0.8561,9.7562,0.0793,0.0318,0.0514
27453,45.92448,-0.459366,73.8,22.09,4.288,119.8,14 / 18,2745311,2019-08-09 23:21:02:538,0.874,-0.7373,9.3987,0.5149,-0.8306,9.7578,-0.0293,0.0369,-0.0522
27454,45.92448,-0.459366,73.8,22.09,4.288,119.8,14 / 18,2745410,2019-08-09 23:21:02:637,0.6783,-1.4531,9.1964,0.5411,-0.8642,9.7535,-0.0356,0.0224,-0.0067
27455,45.92448,-0.459366,73.8,22.09,4.288,119.8,14 / 18,2745510,2019-08-09 23:21:02:737,0.5957,-1.4717,8.9205,0.5763,-0.8157,9.7557,-0.0814,0.0213,0.0104
27456,45.92448,-0.459366,73.8,22.09,4.288,119.8,15 / 17,2745610,2019-08-09 23:21:02:837,0.7968,-0.6948,7.2319,0.5855,-0.7583,9.7597,-0.1298,-0.0079,0.0128
27457,45.92448,-0.459366,73.8,22.09,4.288,119.8,15 / 17,2745710,2019-08-09 23:21:02:937,1.0554,0.2444,9.1126,0.5729,-0.7083,9.7643,-0.0324,-0.0371,0.0598
27458,45.92448,-0.459366,73.8,22.09,4.288,119.8,15 / 17,2745810,2019-08-09 23:21:03:037,0.206,-0.4158,10.1972,0.5493,-0.6653,9.7686,0.0934,-0.0425,-0.0477
27459,45.92448,-0.459366,73.8,22.09,4.288,119.8,15 / 17,2745911,2019-08-09 23:21:03:138,-0.3668,-0.6217,10.4234,0.5148,-0.7299,9.7659,0.0273,-0.0176,0.0672
27460,45.92448,-0.459366,73.8,22.09,4.288,119.8,15 / 17,2746010,2019-08-09 23:21:03:237,0.5257,-1.5076,9.856,0.5074,-0.8034,9.7605,-0.0353,0.0273,0.0114
27461,45.92448,-0.459366,73.8,22.09,4.288,119.8,15 / 17,2746110,2019-08-09 23:21:03:337,-0.0639,-0.7953,8.793,0.541,-0.7435,9.7634,-0.0252,-0.0029,-0.0697
27462,45.92448,-0.459366,73.8,22.09,4.288,119.8,15 / 17,2746211,2019-08-09 23:21:03:438,0.1061,-0.2716,8.6757,0.5347,-0.7512,9.7632,0.049,-0.0287,-0.0672
27463,45.92448,-0.459366,73.8,22.09,4.288,119.8,15 / 17,2746311,2019-08-09 23:21:03:538,1.047,-0.11,10.1768,0.5319,-0.7257,9.7653,0.0008,-0.019,0.018
27464,45.92448,-0.459366,73.8,22.09,4.288,119.8,15 / 17,2746411,2019-08-09 23:21:03:638,0.6837,-0.3428,10.2109,0.5092,-0.7313,9.7661,0.0242,-0.0468,0.0045
27465,45.92448,-0.459366,73.8,22.09,4.288,119.8,15 / 17,2746510,2019-08-09 23:21:03:737,0.3192,0.1139,10.2756,0.4677,-0.7474,9.7669,0.0265,-0.0105,0.0241
27466,45.92448,-0.459366,73.8,22.09,4.288,119.8,Nov-15,2746610,2019-08-09 23:21:03:837,0.7022,-0.4673,10.169,0.4648,-0.7347,9.768,0.0201,-0.0132,-0.0338
27467,45.92448,-0.459366,73.8,22.09,4.288,119.8,Nov-15,2746710,2019-08-09 23:21:03:937,0.3108,-0.8809,9.5938,0.4666,-0.7394,9.7676,-0.0224,0.0273,0.0058
27468,45.92448,-0.459366,73.8,22.09,4.288,119.8,Nov-15,2746810,2019-08-09 23:21:04:037,0.2126,-1.3053,9.2209,0.4888,-0.7448,9.7661,-0.0055,0.0651,0.0
27469,45.92448,-0.459366,73.8,22.09,4.288,119.8,Nov-15,2746910,2019-08-09 23:21:04:137,1.2343,-0.3865,10.2516,0.5537,-0.7482,9.7624,0.0209,0.0337,-0.0195
27470,45.92448,-0.459366,73.8,22.09,4.288,119.8,Nov-15,2747010,2019-08-09 23:21:04:237,0.7321,0.6173,9.1934,0.5808,-0.717,9.7631,0.0162,0.0182,0.0072
27471,45.92448,-0.459366,73.8,22.09,4.288,119.8,Nov-15,2747111,2019-08-09 23:21:04:338,0.7453,-0.3302,9.2209,0.6023,-0.707,9.7626,-0.038,0.0143,0.0028
27472,45.92448,-0.459366,73.8,22.09,4.288,119.8,Nov-15,2747211,2019-08-09 23:21:04:438,0.3706,-0.4679,8.9588,0.6144,-0.666,9.7647,-0.0406,0.012,0.0296
27473,45.92448,-0.459366,73.8,22.09,4.288,119.8,Nov-15,2747311,2019-08-09 23:21:04:538,0.5113,-0.2034,9.5065,0.6135,-0.6215,9.7677,-0.0449,-0.0044,0.0201
27474,45.92448,-0.459366,73.8,22.09,4.288,119.8,Nov-15,2747410,2019-08-09 23:21:04:637,0.0857,-0.8624,10.2588,0.5995,-0.6169,9.7688,0.015,-0.0008,0.0283
27475,45.92448,-0.459366,73.8,22.09,4.288,119.8,Nov-15,2747510,2019-08-09 23:21:04:737,0.9393,0.5472,9.783,0.5953,-0.6344,9.768,0.0449,-0.007,-0.0175
27476,45.923615,-0.457145,75.97,21.44,4.288,119.1,13 / 16,2747610,2019-08-09 23:21:04:837,0.227,0.1366,8.9779,0.592,-0.5852,9.7713,0.0849,0.0236,-0.0059
27477,45.923615,-0.457145,75.97,21.44,4.288,119.1,13 / 16,2747710,2019-08-09 23:21:04:937,0.1486,-1.8194,10.0176,0.6095,-0.629,9.7675,0.0733,-0.0003,-0.0227
27478,45.923615,-0.457145,75.97,21.44,4.288,119.1,13 / 16,2747810,2019-08-09 23:21:05:037,1.3475,-0.4649,10.606,0.5991,-0.656,9.7663,0.0155,-0.0113,0.0143
27479,45.923615,-0.457145,75.97,21.44,4.288,119.1,13 / 16,2747911,2019-08-09 23:21:05:138,0.8082,-1.5142,9.094,0.5794,-0.6503,9.7679,-0.0358,-0.0403,-0.0039
27480,45.923615,-0.457145,75.97,21.44,4.288,119.1,13 / 16,2748011,2019-08-09 23:21:05:238,0.476,-0.3308,9.2975,0.5558,-0.6436,9.7697,-0.0238,-0.0448,0.0167
27481,45.923615,-0.457145,75.97,21.44,4.288,119.1,13 / 16,2748110,2019-08-09 23:21:05:337,0.4754,-0.7127,10.3863,0.5023,-0.6404,9.7728,0.0328,-0.0129,-0.0048
27482,45.923615,-0.457145,75.97,21.44,4.288,119.1,13 / 16,2748210,2019-08-09 23:21:05:437,0.0755,-0.5822,10.6425,0.5022,-0.6826,9.77,0.0284,0.0391,0.0279
27483,45.923615,-0.457145,75.97,21.44,4.288,119.1,13 / 16,2748310,2019-08-09 23:21:05:537,0.6406,-0.6445,9.2126,0.574,-0.6841,9.7659,-0.0369,0.0885,-0.0077
27484,45.923615,-0.457145,75.97,21.44,4.288,119.1,13 / 16,2748410,2019-08-09 23:21:05:637,0.704,-2.1013,8.9205,0.6345,-0.6603,9.7638,-0.0438,0.0636,-0.0417
27485,45.923615,-0.457145,75.97,21.44,4.288,119.1,13 / 16,2748510,2019-08-09 23:21:05:737,2.0364,-1.4483,9.3993,0.695,-0.6386,9.7611,-0.064,0.0086,0.0053
27486,45.923615,-0.457145,75.97,21.44,4.288,119.1,14 / 17,2748611,2019-08-09 23:21:05:838,1.5935,-2.3096,9.6244,0.7075,-0.6121,9.7619,0.0391,-0.0075,-0.0263
27487,45.923615,-0.457145,75.97,21.44,4.288,119.1,14 / 17,2748711,2019-08-09 23:21:05:938,0.9422,0.9345,9.8404,0.7074,-0.6362,9.7604,0.0459,-0.0341,0.0008
27488,45.923615,-0.457145,75.97,21.44,4.288,119.1,14 / 17,2748811,2019-08-09 23:21:06:038,1.0183,-0.1136,10.0631,0.671,-0.6427,9.7625,-0.0199,-0.0397,-0.0094
27489,45.923615,-0.457145,75.97,21.44,4.288,119.1,14 / 17,2748910,2019-08-09 23:21:06:137,0.8806,-0.0112,10.348,0.6579,-0.6505,9.7629,-0.0124,-0.015,0.0082
27490,45.923615,-0.457145,75.97,21.44,4.288,119.1,14 / 17,2749010,2019-08-09 23:21:06:237,0.959,-0.8911,9.4909,0.6322,-0.6681,9.7634,-0.0054,-0.028,-0.0302
27491,45.923615,-0.457145,75.97,21.44,4.288,119.1,14 / 17,2749111,2019-08-09 23:21:06:338,1.2679,0.1486,10.4019,0.6323,-0.6259,9.7662,0.0654,-0.0002,-0.0554
27492,45.923615,-0.457145,75.97,21.44,4.288,119.1,14 / 17,2749211,2019-08-09 23:21:06:438,1.4163,0.2988,10.7059,0.6481,-0.6299,9.7649,0.1158,-0.0116,-0.059
27493,45.923615,-0.457145,75.97,21.44,4.288,119.1,14 / 17,2749311,2019-08-09 23:21:06:538,0.8728,-0.9456,10.6203,0.6539,-0.6916,9.7604,-0.024,-0.0278,-0.0139
27494,45.923615,-0.457145,75.97,21.44,4.288,119.1,14 / 17,2749411,2019-08-09 23:21:06:638,0.4155,-1.7733,9.7495,0.6144,-0.7088,9.7617,-0.0307,-0.0639,-0.0104
27495,45.923615,-0.457145,75.97,21.44,4.288,119.1,14 / 17,2749510,2019-08-09 23:21:06:737,0.0684,-1.1185,9.3472,0.5637,-0.7097,9.7647,-0.0299,-0.0472,0.0359
27496,45.923615,-0.457145,75.97,21.44,4.288,119.1,13 / 16,2749610,2019-08-09 23:21:06:837,-0.2154,0.0181,9.1198,0.5201,-0.6776,9.7694,-0.021,0.0128,0.0095
27497,45.923615,-0.457145,75.97,21.44,4.288,119.1,13 / 16,2749711,2019-08-09 23:21:06:938,0.3491,-0.1662,9.6112,0.5294,-0.6499,9.7708,0.0318,0.0197,-0.0205
27498,45.923615,-0.457145,75.97,21.44,4.288,119.1,13 / 16,2749810,2019-08-09 23:21:07:037,0.4532,-0.6553,9.4502,0.5577,-0.6543,9.7689,0.0567,0.0341,-0.0444
27499,45.923615,-0.457145,75.97,21.44,4.288,119.1,13 / 16,2749911,2019-08-09 23:21:07:138,0.8632,-0.429,9.1754,0.5737,-0.644,9.7686,-0.0401,0.0268,0.0257
27500,45.923615,-0.457145,75.97,21.44,4.288,119.1,13 / 16,2750011,2019-08-09 23:21:07:238,0.8124,0.7974,9.8147,0.5943,-0.6544,9.7667,-0.0179,0.0032,0.0321
27501,45.923615,-0.457145,75.97,21.44,4.288,119.1,13 / 16,2750111,2019-08-09 23:21:07:338,-0.4769,-0.6792,9.0946,0.5859,-0.6717,9.7661,-0.0073,0.0088,-0.039
27502,45.923615,-0.457145,75.97,21.44,4.288,119.1,13 / 16,2750210,2019-08-09 23:21:07:437,-0.0621,-0.3733,9.1366,0.6093,-0.6418,9.7666,-0.0549,0.0247,0.0664
27503,45.923615,-0.457145,75.97,21.44,4.288,119.1,13 / 16,2750310,2019-08-09 23:21:07:537,0.7746,-0.9156,10.1212,0.6002,-0.6283,9.7681,0.0321,-0.0037,-0.0271
27504,45.923615,-0.457145,75.97,21.44,4.288,119.1,13 / 16,2750410,2019-08-09 23:21:07:637,0.3646,-0.7085,10.1876,0.6132,-0.6412,9.7664,0.024,0.0137,0.0238
27505,45.923615,-0.457145,75.97,21.44,4.288,119.1,13 / 16,2750510,2019-08-09 23:21:07:737,0.7908,-1.6171,8.4907,0.6249,-0.5909,9.7689,0.0005,0.0104,-0.0395
27506,45.923615,-0.457145,75.97,21.44,4.288,119.1,13 / 16,2750610,2019-08-09 23:21:07:837,0.5969,0.3383,8.4979,0.6367,-0.5333,9.7714,-0.1138,0.0011,0.0417
27507,45.923615,-0.457145,75.97,21.44,4.288,119.1,13 / 16,2750710,2019-08-09 23:21:07:937,0.9177,-0.1818,9.1335,0.6242,-0.5266,9.7726,-0.017,-0.0199,0.0122
27508,45.923615,-0.457145,75.97,21.44,4.288,119.1,13 / 16,2750810,2019-08-09 23:21:08:037,0.5987,-1.8655,9.8775,0.5966,-0.536,9.7738,0.0941,-0.0112,0.0037
27509,45.923615,-0.457145,75.97,21.44,4.288,119.1,13 / 16,2750910,2019-08-09 23:21:08:137,1.2553,-0.933,11.429,0.5834,-0.5905,9.7715,0.0396,-0.0277,-0.0083
27510,45.923615,-0.457145,75.97,21.44,4.288,119.1,13 / 16,2751010,2019-08-09 23:21:08:237,0.7603,-2.166,10.3019,0.562,-0.6253,9.7705,0.0134,-0.0098,-0.0139
27511,45.923615,-0.457145,75.97,21.44,4.288,119.1,13 / 16,2751110,2019-08-09 23:21:08:337,0.2874,-1.6261,9.7315,0.5588,-0.6659,9.768,-0.0394,0.0014,0.0172
27512,45.923615,-0.457145,75.97,21.44,4.288,119.1,13 / 16,2751210,2019-08-09 23:21:08:437,0.7561,-0.5224,9.6339,0.5588,-0.6448,9.7695,-0.0485,-0.0082,0.0137
27513,45.923615,-0.457145,75.97,21.44,4.288,119.1,13 / 16,2751310,2019-08-09 23:21:08:537,0.6711,-1.7093,9.7866,0.554,-0.6545,9.7691,0.0657,-0.0295,-0.0529
27514,45.923615,-0.457145,75.97,21.44,4.288,119.1,13 / 16,2751410,2019-08-09 23:21:08:637,-0.0286,-1.0772,9.8692,0.5351,-0.6742,9.7688,0.06,-0.004,-0.0439
27515,45.923615,-0.457145,75.97,21.44,4.288,119.1,13 / 16,2751510,2019-08-09 23:21:08:737,0.7764,-1.9074,10.2433,0.5466,-0.7165,9.7652,0.0362,0.0268,0.0002
27516,45.923615,-0.457145,75.97,21.44,4.288,119.1,15 / 18,2751611,2019-08-09 23:21:08:838,-0.1423,0.5119,10.0033,0.5854,-0.7233,9.7624,0.0903,0.045,-0.0798
27517,45.923615,-0.457145,75.97,21.44,4.288,119.1,15 / 18,2751711,2019-08-09 23:21:08:938,0.2731,-0.1052,9.9733,0.6318,-0.7437,9.758,-0.068,0.0591,0.0489
27518,45.923615,-0.457145,75.97,21.44,4.288,119.1,15 / 18,2751811,2019-08-09 23:21:09:038,0.5634,-0.4835,8.8558,0.6834,-0.7297,9.7556,-0.0957,0.0457,0.0253
27519,45.923615,-0.457145,75.97,21.44,4.288,119.1,15 / 18,2751911,2019-08-09 23:21:09:138,1.2637,-0.6983,8.9947,0.7049,-0.7294,9.754,0.0164,0.0162,-0.0329
27520,45.923615,-0.457145,75.97,21.44,4.288,119.1,15 / 18,2752010,2019-08-09 23:21:09:237,1.4187,0.4084,9.8775,0.7164,-0.7186,9.754,-0.0148,-0.0137,0.0264
27521,45.923615,-0.457145,75.97,21.44,4.288,119.1,15 / 18,2752110,2019-08-09 23:21:09:337,0.5604,0.5472,9.0162,0.7,-0.7049,9.7562,-0.0215,-0.0253,-0.0183
27522,45.923615,-0.457145,75.97,21.44,4.288,119.1,15 / 18,2752210,2019-08-09 23:21:09:437,0.4149,0.74,9.5651,0.6945,-0.714,9.7559,-0.0626,-0.0061,0.0395
27523,45.923615,-0.457145,75.97,21.44,4.288,119.1,15 / 18,2752310,2019-08-09 23:21:09:537,1.205,-2.0295,10.1708,0.6691,-0.7131,9.7578,0.0591,-0.0455,-0.0566
27524,45.923615,-0.457145,75.97,21.44,4.288,119.1,15 / 18,2752411,2019-08-09 23:21:09:638,0.7639,-1.0407,10.0583,0.649,-0.6947,9.7605,0.0177,-0.0389,0.0082
27525,45.923615,-0.457145,75.97,21.44,4.288,119.1,15 / 18,2752511,2019-08-09 23:21:09:738,1.46,-1.1622,10.5635,0.6056,-0.7308,9.7606,0.0012,-0.0433,-0.0365
27526,45.923615,-0.457145,75.97,21.44,4.288,119.1,13 / 16,2752611,2019-08-09 23:21:09:838,0.1079,-0.0854,9.1754,0.5879,-0.7257,9.7621,-0.0254,-0.0214,0.0373
27527,45.923615,-0.457145,75.97,21.44,4.288,119.1,13 / 16,2752711,2019-08-09 23:21:09:938,0.5041,-0.1662,9.4161,0.5743,-0.7191,9.7634,-0.0375,0.0407,0.006
27528,45.923615,-0.457145,75.97,21.44,4.288,119.1,13 / 16,2752810,2019-08-09 23:21:10:037,2.3428,0.7472,9.9464,0.6133,-0.7145,9.7613,0.0214,0.0896,0.0432
27529,45.923615,-0.457145,75.97,21.44,4.288,119.1,13 / 16,2752910,2019-08-09 23:21:10:137,0.9261,-0.6074,11.9827,0.6985,-0.8044,9.7486,0.1007,0.049,-0.1494
27530,45.923615,-0.457145,75.97,21.44,4.288,119.1,13 / 16,2753011,2019-08-09 23:21:10:238,1.5587,0.0103,10.7856,0.7556,-0.7732,9.7469,0.0123,0.0499,-0.0216
27531,45.923615,-0.457145,75.97,21.44,4.288,119.1,13 / 16,2753111,2019-08-09 23:21:10:338,2.2405,-0.192,8.4446,0.8128,-0.8173,9.7387,-0.0748,-0.015,-0.0749
27532,45.923615,-0.457145,75.97,21.44,4.288,119.1,13 / 16,2753210,2019-08-09 23:21:10:437,1.885,-0.8959,7.8916,0.7992,-0.7829,9.7426,-0.0844,-0.0655,-0.0155
27533,45.923615,-0.457145,75.97,21.44,4.288,119.1,13 / 16,2753310,2019-08-09 23:21:10:537,2.5039,0.3216,8.4338,0.7218,-0.702,9.7548,-0.0334,-0.1079,-0.0328
27534,45.923615,-0.457145,75.97,21.44,4.288,119.1,13 / 16,2753410,2019-08-09 23:21:10:637,0.8471,-0.1597,9.9536,0.6842,-0.7275,9.7557,0.0667,-0.0557,-0.0228
27535,45.923615,-0.457145,75.97,21.44,4.288,119.1,13 / 16,2753510,2019-08-09 23:21:10:737,0.7214,-0.3793,10.9903,0.6145,-0.7987,9.7547,0.0781,-0.0158,-0.0208
27536,45.923615,-0.457145,75.97,21.44,4.288,119.1,13 / 16,2753610,2019-08-09 23:21:10:837,0.895,-0.7792,11.3362,0.6286,-0.8395,9.7504,0.0654,0.0859,-0.0863
27537,45.923615,-0.457145,75.97,21.44,4.288,119.1,13 / 16,2753712,2019-08-09 23:21:10:939,1.3415,0.1378,8.8379,0.7511,-0.8968,9.7366,-0.0667,0.1002,-0.0483
27538,45.923615,-0.457145,75.97,21.44,4.288,119.1,13 / 16,2753810,2019-08-09 23:21:11:037,1.1003,-2.172,8.5524,0.8152,-0.8738,9.7336,-0.0222,0.11,-0.0432
27539,45.923615,-0.457145,75.97,21.44,4.288,119.1,13 / 16,2753910,2019-08-09 23:21:11:137,0.953,-0.9079,8.6918,0.9514,-0.8106,9.7267,-0.0154,0.0773,0.0339
27540,45.923615,-0.457145,75.97,21.44,4.288,119.1,13 / 16,2754011,2019-08-09 23:21:11:238,1.4354,-0.9186,9.3646,0.9752,-0.827,9.7229,-0.0124,0.0017,0.0036
27541,45.923615,-0.457145,75.97,21.44,4.288,119.1,13 / 16,2754111,2019-08-09 23:21:11:338,1.9957,-0.669,10.0212,0.9826,-0.8493,9.7203,0.0418,-0.0227,-0.0405
27542,45.923615,-0.457145,75.97,21.44,4.288,119.1,13 / 16,2754210,2019-08-09 23:21:11:437,1.4324,-0.2315,10.2163,0.9753,-0.8626,9.7198,0.0334,-0.0074,-0.034
27543,45.923615,-0.457145,75.97,21.44,4.288,119.1,13 / 16,2754310,2019-08-09 23:21:11:537,1.6635,-0.6038,10.0212,0.9815,-0.8919,9.7166,-0.0153,0.0056,-0.0472
27544,45.923615,-0.457145,75.97,21.44,4.288,119.1,13 / 16,2754410,2019-08-09 23:21:11:637,1.3774,-1.5273,9.2341,0.9941,-0.8825,9.7161,-0.018,0.0142,-0.0415
27545,45.923615,-0.457145,75.97,21.44,4.288,119.1,13 / 16,2754510,2019-08-09 23:21:11:737,1.8042,-1.0359,9.1707,1.0294,-0.8648,9.7141,-0.042,0.0131,-0.0365
27546,45.923615,-0.457145,75.97,21.44,4.288,119.1,14 / 17,2754611,2019-08-09 23:21:11:838,1.6593,-1.2951,9.2562,1.0415,-0.8648,9.7128,-0.0022,0.0023,-0.0499
27547,45.923615,-0.457145,75.97,21.44,4.288,119.1,14 / 17,2754710,2019-08-09 23:21:11:937,2.0196,-0.8905,9.2521,1.0587,-0.8735,9.7101,0.0224,-0.0045,-0.0213
27548,45.923615,-0.457145,75.97,21.44,4.288,119.1,14 / 17,2754810,2019-08-09 23:21:12:037,1.6922,-0.7827,9.6124,1.0562,-0.8566,9.7119,0.005,-0.0153,-0.0562
27549,45.923615,-0.457145,75.97,21.44,4.288,119.1,14 / 17,2754910,2019-08-09 23:21:12:137,1.53,-0.5858,9.5172,1.0567,-0.8802,9.7097,0.022,-0.0046,-0.0316
27550,45.923615,-0.457145,75.97,21.44,4.288,119.1,14 / 17,2755010,2019-08-09 23:21:12:237,1.284,-1.0904,9.595,1.0605,-0.8848,9.7089,-0.0466,-0.0005,-0.0449
27551,45.923615,-0.457145,75.97,21.44,4.288,119.1,14 / 17,2755111,2019-08-09 23:21:12:338,1.5139,-1.2897,9.3718,1.0714,-0.8692,9.7091,-0.0271,-0.0085,-0.0525
27552,45.923615,-0.457145,75.97,21.44,4.288,119.1,14 / 17,2755210,2019-08-09 23:21:12:437,1.7736,-0.6948,9.6387,1.0742,-0.8761,9.7082,0.0082,-0.0067,-0.0233
27553,45.923615,-0.457145,75.97,21.44,4.288,119.1,14 / 17,2755310,2019-08-09 23:21:12:537,1.0943,-1.3316,9.9093,1.0507,-0.8757,9.7108,-0.0096,-0.0174,-0.0285
27554,45.923615,-0.457145,75.97,21.44,4.288,119.1,14 / 17,2755411,2019-08-09 23:21:12:638,1.0566,-1.094,9.7644,1.0388,-0.8947,9.7103,0.0193,-0.02,-0.0233
27555,45.923615,-0.457145,75.97,21.44,4.288,119.1,14 / 17,2755510,2019-08-09 23:21:12:737,1.5121,-0.7037,9.9835,1.0242,-0.8997,9.7114,0.0041,-0.0298,-0.0413
27556,45.923615,-0.457145,75.97,21.44,4.288,119.1,15 / 19,2755611,2019-08-09 23:21:12:838,1.3648,-0.927,10.2522,0.986,-0.9325,9.7123,0.0376,-0.0416,-0.0367
27557,45.923615,-0.457145,75.97,21.44,4.288,119.1,15 / 19,2755711,2019-08-09 23:21:12:938,0.7657,-0.4799,10.0787,0.9761,-0.9278,9.7137,0.0978,0.0129,-0.0674
27558,45.923615,-0.457145,75.97,21.44,4.288,119.1,15 / 19,2755811,2019-08-09 23:21:13:038,1.275,-1.6878,9.8859,1.0075,-0.9447,9.7089,0.1197,0.041,-0.0784
27559,45.923615,-0.457145,75.97,21.44,4.288,119.1,15 / 19,2755910,2019-08-09 23:21:13:137,1.9065,-1.4537,10.0284,1.0312,-1.0172,9.6991,0.0515,0.0148,-0.0414
27560,45.923615,-0.457145,75.97,21.44,4.288,119.1,15 / 19,2756010,2019-08-09 23:21:13:237,1.0237,-0.4422,9.3305,1.0756,-0.9806,9.698,-0.0531,0.0045,-0.0183
27561,45.923615,-0.457145,75.97,21.44,4.288,119.1,15 / 19,2756111,2019-08-09 23:21:13:338,0.7357,-0.9629,9.0108,1.0707,-0.9864,9.698,-0.0001,-0.0031,-0.0018
27562,45.923615,-0.457145,75.97,21.44,4.288,119.1,15 / 19,2756210,2019-08-09 23:21:13:437,0.3772,0.0917,8.295,1.0548,-0.9627,9.7021,-0.0886,-0.0207,0.0332
27563,45.923615,-0.457145,75.97,21.44,4.288,119.1,15 / 19,2756310,2019-08-09 23:21:13:537,0.3245,0.2761,9.6585,1.0269,-0.9237,9.7089,-0.0393,-0.0338,0.0251
27564,45.923615,-0.457145,75.97,21.44,4.288,119.1,15 / 19,2756410,2019-08-09 23:21:13:637,0.3377,-0.939,9.8722,0.9795,-0.9333,9.7129,0.0874,-0.0246,-0.0268
27565,45.923615,-0.457145,75.97,21.44,4.288,119.1,15 / 19,2756510,2019-08-09 23:21:13:737,-0.0029,-0.4547,10.0649,0.9593,-0.9799,9.7103,0.0015,0.0001,0.0247
27566,45.922665,-0.455068,71.96,21.34,3.216,128.3,15 / 18,2756611,2019-08-09 23:21:13:838,0.9351,-0.4338,9.8404,0.9578,-0.9862,9.7098,0.0173,0.017,-0.0365
27567,45.922665,-0.455068,71.96,21.34,3.216,128.3,15 / 18,2756711,2019-08-09 23:21:13:938,0.391,-1.6375,9.8787,0.968,-0.9891,9.7085,-0.0108,0.0211,0.0275
27568,45.922665,-0.455068,71.96,21.34,3.216,128.3,15 / 18,2756810,2019-08-09 23:21:14:037,0.1833,-1.7728,9.5118,0.9716,-0.9941,9.7076,0.022,0.0224,0.0067
27569,45.922665,-0.455068,71.96,21.34,3.216,128.3,15 / 18,2756910,2019-08-09 23:21:14:137,0.4502,-0.9557,9.2377,0.9733,-1.0094,9.7059,-0.0003,-0.0014,0.0023
27570,45.922665,-0.455068,71.96,21.34,3.216,128.3,15 / 18,2757010,2019-08-09 23:21:14:237,0.5406,-1.1407,9.3586,0.96,-0.9861,9.7096,-0.0387,-0.0054,0.0152
27571,45.922665,-0.455068,71.96,21.34,3.216,128.3,15 / 18,2757111,2019-08-09 23:21:14:338,0.5508,-0.6564,9.5627,0.9474,-0.9849,9.711,-0.0178,0.0038,0.0372
27572,45.922665,-0.455068,71.96,21.34,3.216,128.3,15 / 18,2757210,2019-08-09 23:21:14:437,0.8046,-0.502,10.5342,0.924,-0.9903,9.7127,0.0358,-0.0157,-0.0229
27573,45.922665,-0.455068,71.96,21.34,3.216,128.3,15 / 18,2757311,2019-08-09 23:21:14:538,0.136,-1.4471,9.9434,0.913,-0.989,9.7138,0.0112,-0.0031,0.0345
27574,45.922665,-0.455068,71.96,21.34,3.216,128.3,15 / 18,2757411,2019-08-09 23:21:14:638,0.4951,-1.7733,9.6363,0.9295,-1.0119,9.7099,0.0131,0.0362,-0.013
27575,45.922665,-0.455068,71.96,21.34,3.216,128.3,15 / 18,2757511,2019-08-09 23:21:14:738,0.5604,-1.7686,10.3037,0.9449,-1.0128,9.7083,0.0204,0.0202,-0.0063
27576,45.922665,-0.455068,71.96,21.34,3.216,128.3,15 / 19,2757610,2019-08-09 23:21:14:837,0.4736,-0.6104,10.1092,0.957,-1.0313,9.7052,0.0378,0.0123,-0.0348
27577,45.922665,-0.455068,71.96,21.34,3.216,128.3,15 / 19,2757710,2019-08-09 23:21:14:937,0.2138,-0.8468,9.3263,0.9657,-1.0302,9.7045,-0.0586,0.0323,0.049
27578,45.922665,-0.455068,71.96,21.34,3.216,128.3,15 / 19,2757810,2019-08-09 23:21:15:037,0.8094,-0.4859,10.029,0.9694,-1.0477,9.7022,-0.0286,-0.0059,0.0241
27579,45.922665,-0.455068,71.96,21.34,3.216,128.3,15 / 19,2757911,2019-08-09 23:21:15:138,0.0965,-1.4501,9.3802,0.9596,-1.0192,9.7062,-0.0099,0.0094,0.0258
27580,45.922665,-0.455068,71.96,21.34,3.216,128.3,15 / 19,2758010,2019-08-09 23:21:15:237,0.9458,-0.7738,10.2409,0.9643,-1.0496,9.7025,0.0119,0.0124,0.0178
27581,45.922665,-0.455068,71.96,21.34,3.216,128.3,15 / 19,2758110,2019-08-09 23:21:15:337,0.9901,-0.578,10.2463,0.9631,-1.0612,9.7014,0.0322,-0.0067,-0.0235
27582,45.922665,-0.455068,71.96,21.34,3.216,128.3,15 / 19,2758210,2019-08-09 23:21:15:437,0.6873,-0.9755,9.2892,0.9426,-1.0392,9.7058,0.0314,-0.011,-0.005
27583,45.922665,-0.455068,71.96,21.34,3.216,128.3,15 / 19,2758310,2019-08-09 23:21:15:537,0.6986,-1.1927,8.8899,0.9306,-1.0084,9.7102,-0.0877,-0.0192,0.009
27584,45.922665,-0.455068,71.96,21.34,3.216,128.3,15 / 19,2758410,2019-08-09 23:21:15:637,0.646,-0.1866,9.4532,0.8966,-0.9882,9.7155,-0.0014,-0.0179,-0.004
27585,45.922665,-0.455068,71.96,21.34,3.216,128.3,15 / 19,2758510,2019-08-09 23:21:15:737,0.5334,-0.3476,9.8368,0.8795,-1.0008,9.7157,0.0159,-0.0291,-0.0088
27586,45.922665,-0.455068,71.96,21.34,3.216,128.3,14 / 19,2758610,2019-08-09 23:21:15:837,0.6897,-1.5866,10.166,0.8526,-1.0336,9.7156,0.0178,-0.0076,0.0234
27587,45.922665,-0.455068,71.96,21.34,3.216,128.3,14 / 19,2758710,2019-08-09 23:21:15:937,0.8788,-1.3418,9.941,0.8361,-1.0423,9.7152,0.0255,0.0031,-0.0274
27588,45.922665,-0.455068,71.96,21.34,3.216,128.3,14 / 19,2758810,2019-08-09 23:21:16:037,1.1643,-1.3741,9.9338,0.8471,-1.0326,9.7153,0.014,0.0299,-0.0536
27589,45.922665,-0.455068,71.96,21.34,3.216,128.3,14 / 19,2758911,2019-08-09 23:21:16:138,0.8088,-1.0443,9.7369,0.8719,-1.0341,9.7129,-0.0153,0.0201,0.0136
27590,45.922665,-0.455068,71.96,21.34,3.216,128.3,14 / 19,2759011,2019-08-09 23:21:16:238,0.7477,-1.1916,9.2413,0.8756,-1.0294,9.7131,-0.0172,0.0088,-0.0177
27591,45.922665,-0.455068,71.96,21.34,3.216,128.3,14 / 19,2759111,2019-08-09 23:21:16:338,1.4462,-0.9132,10.0721,0.8751,-1.0204,9.7141,0.0005,-0.0246,-0.0041
27592,45.922665,-0.455068,71.96,21.34,3.216,128.3,14 / 19,2759210,2019-08-09 23:21:16:437,0.7381,-0.1698,9.6405,0.8667,-1.0146,9.7154,0.0054,-0.0362,0.0026
27593,45.922665,-0.455068,71.96,21.34,3.216,128.3,14 / 19,2759310,2019-08-09 23:21:16:537,0.4131,-0.7408,9.3963,0.8198,-1.006,9.7204,0.0037,-0.0022,0.0232
27594,45.922665,-0.455068,71.96,21.34,3.216,128.3,14 / 19,2759410,2019-08-09 23:21:16:637,0.4897,-0.7702,9.9069,0.8112,-1.0131,9.7204,0.0034,-0.0008,0.0016
27595,45.922665,-0.455068,71.96,21.34,3.216,128.3,14 / 19,2759510,2019-08-09 23:21:16:737,0.7238,-1.1341,9.9374,0.7993,-1.0324,9.7193,0.0237,-0.0044,-0.0055
27596,45.922665,-0.455068,71.96,21.34,3.216,128.3,14 / 19,2759610,2019-08-09 23:21:16:837,0.288,-1.75,9.9093,0.7955,-1.0319,9.7197,0.0108,0.0073,0.0117
27597,45.922665,-0.455068,71.96,21.34,3.216,128.3,14 / 19,2759710,2019-08-09 23:21:16:937,0.5867,-1.7793,9.3143,0.8057,-1.0275,9.7193,-0.005,0.0242,-0.0157
27598,45.922665,-0.455068,71.96,21.34,3.216,128.3,14 / 19,2759810,2019-08-09 23:21:17:037,0.4814,-1.006,9.7435,0.8218,-1.0382,9.7169,-0.016,0.0331,0.0257
27599,45.922665,-0.455068,71.96,21.34,3.216,128.3,14 / 19,2759911,2019-08-09 23:21:17:138,0.4897,-0.948,9.5052,0.8471,-1.0103,9.7176,0.0459,0.022,-0.0338
27600,45.922665,-0.455068,71.96,21.34,3.216,128.3,14 / 19,2760010,2019-08-09 23:21:17:237,0.3575,-0.9863,8.8576,0.8601,-1.0003,9.7175,0.0163,0.031,0.0141
27601,45.922665,-0.455068,71.96,21.34,3.216,128.3,14 / 19,2760111,2019-08-09 23:21:17:338,0.5023,-0.8366,10.0703,0.881,-1.0269,9.7129,0.0237,0.0228,-0.0389
27602,45.922665,-0.455068,71.96,21.34,3.216,128.3,14 / 19,2760210,2019-08-09 23:21:17:437,0.5298,-1.0772,10.7012,0.8983,-1.0419,9.7097,-0.0509,0.0287,0.0062
27603,45.922665,-0.455068,71.96,21.34,3.216,128.3,14 / 19,2760310,2019-08-09 23:21:17:537,1.0661,-2.9675,10.1241,0.9304,-1.0734,9.7032,0.0794,0.044,-0.0111
27604,45.922665,-0.455068,71.96,21.34,3.216,128.3,14 / 19,2760410,2019-08-09 23:21:17:637,0.8788,-0.5762,9.3185,0.9458,-1.0323,9.7062,-0.062,0.0196,0.0073
27605,45.922665,-0.455068,71.96,21.34,3.216,128.3,14 / 19,2760511,2019-08-09 23:21:17:738,1.1942,-0.8288,10.205,0.9413,-1.0425,9.7055,0.0057,-0.0175,0.0131
27606,45.922665,-0.455068,71.96,21.34,3.216,128.3,13 / 19,2760611,2019-08-09 23:21:17:838,0.6873,-1.4316,9.4238,0.9267,-1.045,9.7067,-0.004,-0.0029,0.0003
27607,45.922665,-0.455068,71.96,21.34,3.216,128.3,13 / 19,2760710,2019-08-09 23:21:17:937,0.613,-0.7624,9.6579,0.9132,-1.0229,9.7103,0.0116,-0.0148,-0.0048
27608,45.922665,-0.455068,71.96,21.34,3.216,128.3,13 / 19,2760810,2019-08-09 23:21:18:037,1.144,-0.5864,10.2888,0.9049,-1.0443,9.7088,-0.007,-0.0362,-0.0199
27609,45.922665,-0.455068,71.96,21.34,3.216,128.3,13 / 19,2760911,2019-08-09 23:21:18:138,0.3311,-0.5266,10.1732,0.8554,-1.0391,9.7139,-0.0315,-0.017,-0.0003
27610,45.922665,-0.455068,71.96,21.34,3.216,128.3,13 / 19,2761011,2019-08-09 23:21:18:238,0.4209,-1.27,8.927,0.8426,-1.0086,9.7182,0.0249,0.0055,-0.0074
27611,45.922665,-0.455068,71.96,21.34,3.216,128.3,13 / 19,2761110,2019-08-09 23:21:18:337,0.5292,-1.4196,9.4502,0.8425,-1.0277,9.7162,0.0613,0.0134,-0.0113
27612,45.922665,-0.455068,71.96,21.34,3.216,128.3,13 / 19,2761210,2019-08-09 23:21:18:437,0.862,-1.8338,9.6962,0.8434,-1.0467,9.7141,-0.0433,0.0124,-0.0026
27613,45.922665,-0.455068,71.96,21.34,3.216,128.3,13 / 19,2761313,2019-08-09 23:21:18:540,1.2756,-2.0415,8.5943,0.8658,-1.0397,9.7129,-0.0471,0.0199,-0.0306
27614,45.922665,-0.455068,71.96,21.34,3.216,128.3,13 / 19,2761414,2019-08-09 23:21:18:641,0.5442,-1.9278,9.6956,0.8917,-1.0561,9.7088,-0.0713,-0.001,-0.041
27615,45.922665,-0.455068,71.96,21.34,3.216,128.3,13 / 19,2761510,2019-08-09 23:21:18:737,0.7435,-0.7612,10.251,0.8619,-1.0141,9.7159,-0.0553,-0.0438,-0.0952
27616,45.922665,-0.455068,71.96,21.34,3.216,128.3,13 / 18,2761610,2019-08-09 23:21:18:837,0.3162,0.2282,8.4566,0.8724,-0.9717,9.7193,0.0084,0.006,0.0853
27617,45.922665,-0.455068,71.96,21.34,3.216,128.3,13 / 18,2761711,2019-08-09 23:21:18:938,0.9279,-1.2245,8.878,0.8393,-0.9852,9.7209,-0.0093,-0.0155,0.0147
27618,45.922665,-0.455068,71.96,21.34,3.216,128.3,13 / 18,2761810,2019-08-09 23:21:19:037,0.9171,-1.4591,8.1495,0.831,-0.9659,9.7235,-0.0788,-0.0091,-0.0149
27619,45.922665,-0.455068,71.96,21.34,3.216,128.3,13 / 18,2761911,2019-08-09 23:21:19:138,0.5915,-1.0347,10.5378,0.8264,-0.9857,9.7219,-0.0289,-0.0143,-0.0161
27620,45.922665,-0.455068,71.96,21.34,3.216,128.3,13 / 18,2762010,2019-08-09 23:21:19:237,0.7878,-2.7292,11.1632,0.8111,-1.0295,9.7187,0.0808,-0.0059,0.0043
27621,45.922665,-0.455068,71.96,21.34,3.216,128.3,13 / 18,2762110,2019-08-09 23:21:19:337,0.7321,-2.491,10.8969,0.8052,-1.0367,9.7184,0.0549,0.0054,-0.0018
27622,45.922665,-0.455068,71.96,21.34,3.216,128.3,13 / 18,2762211,2019-08-09 23:21:19:438,0.7513,-1.5285,9.7381,0.8126,-1.0685,9.7143,0.0144,0.0179,-0.0117
27623,45.922665,-0.455068,71.96,21.34,3.216,128.3,13 / 18,2762311,2019-08-09 23:21:19:538,0.4754,-0.6259,9.528,0.8248,-1.0832,9.7117,-0.0285,0.0207,-0.0106
27624,45.922665,-0.455068,71.96,21.34,3.216,128.3,13 / 18,2762411,2019-08-09 23:21:19:638,0.3832,0.4006,9.3245,0.8409,-1.042,9.7148,-0.0587,-0.0092,-0.0162
27625,45.922665,-0.455068,71.96,21.34,3.216,128.3,13 / 18,2762511,2019-08-09 23:21:19:738,0.4012,-0.5529,9.7902,0.8296,-1.0324,9.7168,-0.0425,-0.0171,-0.0068
27626,45.922665,-0.455068,71.96,21.34,3.216,128.3,Dec-18,2762611,2019-08-09 23:21:19:838,1.0697,-0.4601,8.9492,0.8077,-1.0152,9.7205,0.073,-0.0166,0.0147
27627,45.922665,-0.455068,71.96,21.34,3.216,128.3,Dec-18,2762710,2019-08-09 23:21:19:937,0.6154,0.5778,9.2664,0.794,-1.0327,9.7197,-0.0628,-0.0349,0.0014
27628,45.922665,-0.455068,71.96,21.34,3.216,128.3,Dec-18,2762811,2019-08-09 23:21:20:038,0.4436,-0.5906,9.9781,0.748,-1.0399,9.7226,0.0019,-0.0253,0.0246
27629,45.922665,-0.455068,71.96,21.34,3.216,128.3,Dec-18,2762910,2019-08-09 23:21:20:137,0.3856,-1.2017,10.4402,0.733,-1.0539,9.7223,0.0401,-0.0113,-0.0079
27630,45.922665,-0.455068,71.96,21.34,3.216,128.3,Dec-18,2763010,2019-08-09 23:21:20:237,0.3503,-0.7019,9.701,0.7411,-1.0639,9.7206,-0.0052,0.0363,-0.0204
27631,45.922665,-0.455068,71.96,21.34,3.216,128.3,Dec-18,2763111,2019-08-09 23:21:20:338,0.6789,-0.1142,9.1659,0.763,-1.0795,9.7171,-0.0266,0.0284,-0.0392
27632,45.922665,-0.455068,71.96,21.34,3.216,128.3,Dec-18,2763210,2019-08-09 23:21:20:437,1.1476,-2.1774,8.9606,0.7997,-1.0061,9.7221,-0.0647,-0.0049,0.0063
27633,45.922665,-0.455068,71.96,21.34,3.216,128.3,Dec-18,2763310,2019-08-09 23:21:20:537,1.3804,-0.0711,9.367,0.7963,-1.0039,9.7226,-0.0012,-0.0261,0.0271
27634,45.922665,-0.455068,71.96,21.34,3.216,128.3,Dec-18,2763414,2019-08-09 23:21:20:641,1.1296,-0.0908,10.2313,0.7732,-0.9858,9.7263,0.0314,-0.0166,-0.0199
27635,45.922665,-0.455068,71.96,21.34,3.216,128.3,Dec-18,2763510,2019-08-09 23:21:20:737,0.719,-1.428,9.7902,0.7585,-0.9926,9.7268,0.0091,-0.0248,0.0211
27636,45.922665,-0.455068,71.96,21.34,3.216,128.3,14 / 19,2763610,2019-08-09 23:21:20:837,0.1773,-1.1622,9.9991,0.7368,-1.0084,9.7268,-0.0042,0.0064,0.0191
27637,45.922665,-0.455068,71.96,21.34,3.216,128.3,14 / 19,2763710,2019-08-09 23:21:20:937,-0.0304,-0.9827,10.3636,0.7309,-1.0083,9.7273,0.029,0.012,0.003
27638,45.922665,-0.455068,71.96,21.34,3.216,128.3,14 / 19,2763810,2019-08-09 23:21:21:037,1.0248,-1.2029,10.2337,0.74,-1.0051,9.7269,-0.0309,0.014,0.0195
27639,45.922665,-0.455068,71.96,21.34,3.216,128.3,14 / 19,2763910,2019-08-09 23:21:21:137,0.6567,-1.3825,9.4322,0.7436,-1.0291,9.7241,-0.047,0.0128,-0.0093
27640,45.922665,-0.455068,71.96,21.34,3.216,128.3,14 / 19,2764010,2019-08-09 23:21:21:237,0.6915,-0.4344,9.4915,0.7476,-0.9976,9.7271,-0.0397,-0.0082,0.026
27641,45.922665,-0.455068,71.96,21.34,3.216,128.3,14 / 19,2764111,2019-08-09 23:21:21:338,0.4407,-1.3107,8.5943,0.7419,-0.9607,9.7312,0.0159,-0.0153,-0.0218
27642,45.922665,-0.455068,71.96,21.34,3.216,128.3,14 / 19,2764210,2019-08-09 23:21:21:437,0.9662,-0.4398,9.5232,0.7093,-0.9708,9.7327,0.0603,-0.0292,0.024
27643,45.922665,-0.455068,71.96,21.34,3.216,128.3,14 / 19,2764310,2019-08-09 23:21:21:537,0.7932,-0.7367,10.6587,0.6819,-0.9671,9.735,0.0423,-0.0367,-0.0114
27644,45.922665,-0.455068,71.96,21.34,3.216,128.3,14 / 19,2764410,2019-08-09 23:21:21:637,0.0546,-2.166,9.7082,0.6575,-0.9985,9.7335,0.0137,0.0188,0.022
27645,45.922665,-0.455068,71.96,21.34,3.216,128.3,14 / 19,2764511,2019-08-09 23:21:21:738,0.4802,-0.5912,9.5232,0.6699,-1.0002,9.7325,-0.0412,0.0177,-0.0249
27646,45.922665,-0.455068,71.96,21.34,3.216,128.3,14 / 18,2764610,2019-08-09 23:21:21:837,0.3904,-0.4559,9.595,0.6999,-0.9571,9.7347,0.0161,0.0368,-0.0521
27647,45.922665,-0.455068,71.96,21.34,3.216,128.3,14 / 18,2764710,2019-08-09 23:21:21:937,0.8483,-1.3843,9.9218,0.7375,-0.9371,9.7339,-0.0458,0.0492,0.0285
27648,45.922665,-0.455068,71.96,21.34,3.216,128.3,14 / 18,2764810,2019-08-09 23:21:22:037,1.1026,-0.6708,9.8847,0.7692,-0.9439,9.7308,0.0017,0.017,0.0059
27649,45.922665,-0.455068,71.96,21.34,3.216,128.3,14 / 18,2764910,2019-08-09 23:21:22:137,0.9285,-1.0934,10.2666,0.7833,-0.9838,9.7257,0.0201,0.0119,-0.0216
27650,45.922665,-0.455068,71.96,21.34,3.216,128.3,14 / 18,2765010,2019-08-09 23:21:22:237,0.7477,-1.7835,9.2796,0.8084,-0.985,9.7235,-0.0038,0.0191,0.0038
27651,45.922665,-0.455068,71.96,21.34,3.216,128.3,14 / 18,2765111,2019-08-09 23:21:22:338,1.2828,-0.945,9.5424,0.8133,-0.9797,9.7236,-0.0091,0.006,-0.038
27652,45.922665,-0.455068,71.96,21.34,3.216,128.3,14 / 18,2765210,2019-08-09 23:21:22:437,0.8782,-1.3364,8.9689,0.8217,-0.9474,9.7261,-0.0112,0.0018,0.0018
27653,45.922665,-0.455068,71.96,21.34,3.216,128.3,14 / 18,2765311,2019-08-09 23:21:22:538,1.0027,-1.504,9.7489,0.8212,-0.9478,9.7261,0.0146,-0.0166,-0.0168
27654,45.922665,-0.455068,71.96,21.34,3.216,128.3,14 / 18,2765410,2019-08-09 23:21:22:637,0.8638,-1.3047,9.8973,0.8144,-0.9514,9.7264,-0.0244,0.0191,0.0227
27655,45.922665,-0.455068,71.96,21.34,3.216,128.3,14 / 18,2765510,2019-08-09 23:21:22:737,1.4121,-1.7991,10.1547,0.8259,-0.9798,9.7226,0.055,-0.005,-0.055
27656,45.92156,-0.453069,70.27,22.04,3.216,128.0,13 / 18,2765610,2019-08-09 23:21:22:837,1.6001,-1.4591,10.1259,0.8287,-0.9661,9.7237,-0.0277,0.0115,0.0148
27657,45.92156,-0.453069,70.27,22.04,3.216,128.0,13 / 18,2765710,2019-08-09 23:21:22:937,0.8764,-1.1018,9.9811,0.8264,-0.9766,9.7228,0.0241,0.0099,-0.0027
27658,45.92156,-0.453069,70.27,22.04,3.216,128.0,13 / 18,2765811,2019-08-09 23:21:23:038,0.7076,0.2815,9.3059,0.8378,-0.9869,9.7208,0.0078,0.027,-0.0033
27659,45.92156,-0.453069,70.27,22.04,3.216,128.0,13 / 18,2765911,2019-08-09 23:21:23:138,1.6994,-0.3117,10.4252,0.8743,-1.0046,9.7158,0.0336,0.0188,0.0293
27660,45.92156,-0.453069,70.27,22.04,3.216,128.0,13 / 18,2766011,2019-08-09 23:21:23:238,0.6484,-0.9043,9.4825,0.879,-1.0068,9.7151,-0.0309,0.0001,0.0175
27661,45.92156,-0.453069,70.27,22.04,3.216,128.0,13 / 18,2766110,2019-08-09 23:21:23:337,0.9668,-1.015,9.4747,0.8707,-1.008,9.7158,-0.0083,-0.0095,-0.0059
27662,45.92156,-0.453069,70.27,22.04,3.216,128.0,13 / 18,2766210,2019-08-09 23:21:23:437,0.9877,-1.571,9.1808,0.8735,-0.9822,9.7182,-0.02,-0.0029,0.0033
27663,45.92156,-0.453069,70.27,22.04,3.216,128.0,13 / 18,2766311,2019-08-09 23:21:23:538,1.3002,-0.5744,9.8692,0.8549,-0.9695,9.7211,0.0085,-0.0235,-0.0281
27664,45.92156,-0.453069,70.27,22.04,3.216,128.0,13 / 18,2766410,2019-08-09 23:21:23:637,0.1905,-1.601,9.8973,0.847,-0.9708,9.7217,-0.0004,-0.0018,0.0445
27665,45.92156,-0.453069,70.27,22.04,3.216,128.0,13 / 18,2766511,2019-08-09 23:21:23:738,0.1953,-1.6309,9.0881,0.8386,-0.9606,9.7234,-0.0159,0.0157,0.0211
27666,45.92156,-0.453069,70.27,22.04,3.216,128.0,13 / 16,2766611,2019-08-09 23:21:23:838,0.71,-1.4537,10.4013,0.8411,-0.9794,9.7213,0.0352,0.018,0.0345
27667,45.92156,-0.453069,70.27,22.04,3.216,128.0,13 / 16,2766711,2019-08-09 23:21:23:938,0.9895,-0.2734,10.123,0.8555,-0.9995,9.718,0.0187,0.0101,-0.0254
27668,45.92156,-0.453069,70.27,22.04,3.216,128.0,13 / 16,2766810,2019-08-09 23:21:24:037,0.9009,-0.8528,9.3867,0.873,-0.9993,9.7165,-0.0196,0.0193,-0.005
27669,45.92156,-0.453069,70.27,22.04,3.216,128.0,13 / 16,2766911,2019-08-09 23:21:24:138,1.0985,-0.7127,9.5711,0.8898,-0.9914,9.7157,-0.0136,-0.0297,-0.016
27670,45.92156,-0.453069,70.27,22.04,3.216,128.0,13 / 16,2767010,2019-08-09 23:21:24:237,1.2553,-0.8306,9.6268,0.8763,-0.9808,9.7181,-0.0136,-0.0297,-0.016
27671,45.92156,-0.453069,70.27,22.04,3.216,128.0,13 / 16,2767111,2019-08-09 23:21:24:338,0.5071,-0.9557,9.2563,0.8345,-0.9569,9.7241,-0.0063,-0.0276,0.0154
27672,45.92156,-0.453069,70.27,22.04,3.216,128.0,13 / 16,2767211,2019-08-09 23:21:24:438,0.7064,-0.6325,10.2271,0.8198,-0.9592,9.7251,0.05,-0.0096,0.0087
27673,45.92156,-0.453069,70.27,22.04,3.216,128.0,13 / 16,2767311,2019-08-09 23:21:24:538,0.865,-0.9276,10.0864,0.8004,-0.998,9.7228,0.0722,0.0008,0.0295
27674,45.92156,-0.453069,70.27,22.04,3.216,128.0,13 / 16,2767410,2019-08-09 23:21:24:637,0.8357,-0.8115,10.1236,0.7988,-1.0274,9.7199,-0.0172,-0.0011,-0.0303
27675,45.92156,-0.453069,70.27,22.04,3.216,128.0,13 / 16,2767511,2019-08-09 23:21:24:738,0.7782,-0.5589,9.2066,0.8155,-1.0162,9.7197,-0.0471,0.0247,-0.0173
27676,45.92156,-0.453069,70.27,22.04,3.216,128.0,14 / 19,2767610,2019-08-09 23:21:24:837,0.707,-1.8601,9.279,0.8338,-1.012,9.7186,0.0109,0.0339,0.0135
27677,45.92156,-0.453069,70.27,22.04,3.216,128.0,14 / 19,2767711,2019-08-09 23:21:24:938,0.874,-1.179,10.0374,0.8583,-1.0051,9.7172,0.0108,0.0057,0.0025
27678,45.92156,-0.453069,70.27,22.04,3.216,128.0,14 / 19,2767810,2019-08-09 23:21:25:037,0.7854,-0.6187,9.9877,0.8537,-1.0091,9.7172,0.0268,0.0029,-0.0004
27679,45.92156,-0.453069,70.27,22.04,3.216,128.0,14 / 19,2767910,2019-08-09 23:21:25:137,1.2182,-1.8985,10.5234,0.8536,-1.0549,9.7123,0.0104,-0.0101,-0.0002
27680,45.92156,-0.453069,70.27,22.04,3.216,128.0,14 / 19,2768011,2019-08-09 23:21:25:238,0.6017,-1.8949,9.9416,0.8497,-1.0596,9.7121,0.0077,-0.0023,0.0055
27681,45.92156,-0.453069,70.27,22.04,3.216,128.0,14 / 19,2768110,2019-08-09 23:21:25:337,0.4945,-1.9595,9.6836,0.8444,-1.0774,9.7106,-0.0048,0.0088,0.0422
27682,45.92156,-0.453069,70.27,22.04,3.216,128.0,14 / 19,2768210,2019-08-09 23:21:25:437,0.8686,-0.4883,9.7536,0.8436,-1.082,9.7102,0.0034,0.0029,-0.0533
27683,45.92156,-0.453069,70.27,22.04,3.216,128.0,14 / 19,2768311,2019-08-09 23:21:25:538,1.0697,-0.5248,9.8369,0.8657,-1.0935,9.707,0.0341,0.0162,0.0082
27684,45.92156,-0.453069,70.27,22.04,3.216,128.0,14 / 19,2768411,2019-08-09 23:21:25:638,1.1547,-1.0365,9.941,0.8661,-1.0766,9.7088,-0.0088,0.0069,0.0338
27685,45.92156,-0.453069,70.27,22.04,3.216,128.0,14 / 19,2768511,2019-08-09 23:21:25:738,0.6861,-1.2712,9.2102,0.868,-1.0792,9.7084,0.0045,-0.0067,-0.024
27686,45.92156,-0.453069,70.27,22.04,3.216,128.0,14 / 19,2768610,2019-08-09 23:21:25:837,0.9219,-1.0982,9.0797,0.8597,-1.0549,9.7118,-0.034,-0.0212,0.002
27687,45.92156,-0.453069,70.27,22.04,3.216,128.0,14 / 19,2768710,2019-08-09 23:21:25:937,0.9997,-0.3272,9.5591,0.8447,-1.0649,9.712,-0.0126,-0.0321,-0.0119
