,GPS LATITUDE (degrees),GPS LONGITUDE (degrees), GPS ALTITUDE (m),GPS SPEED (Kmh),GPS ACCURACY (m),GPS ORIENTATION (Â°), SATELLITES IN RANGE, TIME SINCE START (ms), DATE (YYYY-MO-DD HH-MI-SS_SSS),ACCELEROMETER X (m/s²) , ACCELEROMETER Y (m/s²), ACCELEROMETER Z (m/s²), GRAVITY X (m/s²), GRAVITY Y (m/s²), GRAVITY Z (m/s²), GYROSCOPE Yaw (rad/s), GYROSCOPE Pitch (rad/s), GYROSCOPE Roll (rad/s)
6564,45.63421,0.211788,177.83,5.82,17.152,125.4,0 / 20,322948,2019-08-12 10:30:05:438,-1.2478,0.0397,9.7706,-1.4668,0.0635,9.6961,-0.0014,0.0003,-0.007
6565,45.63421,0.211788,177.83,5.82,17.152,125.4,0 / 20,322948,2019-08-12 10:30:05:438,-1.2478,0.0397,9.7706,-1.4668,0.0635,9.6961,-0.0014,0.0003,-0.007
6566,45.63421,0.211788,177.83,5.82,17.152,125.4,0 / 20,322948,2019-08-12 10:30:05:438,-1.2478,0.0397,9.7706,-1.4668,0.0635,9.6961,-0.0014,0.0003,-0.007
6567,45.63421,0.211788,177.83,5.82,17.152,125.4,Oct-20,322969,2019-08-12 10:30:05:459,-1.2478,0.0397,9.7706,-1.4668,0.0635,9.6961,-0.0014,0.0003,-0.007
6568,45.63421,0.211788,177.83,5.82,17.152,125.4,Oct-20,323069,2019-08-12 10:30:05:559,-1.2478,0.0397,9.7706,-1.4668,0.0635,9.6961,-0.0014,0.0003,-0.007
6569,45.63421,0.211788,177.83,5.82,17.152,125.4,Oct-20,323379,2019-08-12 10:30:05:869,-1.2478,0.0397,9.7706,-1.4668,0.0635,9.6961,-0.0014,0.0003,-0.007
6570,45.63421,0.211788,177.83,5.82,17.152,125.4,0 / 21,323380,2019-08-12 10:30:05:870,-1.2478,0.0397,9.7706,-1.4668,0.0635,9.6961,-0.0014,0.0003,-0.007
6571,45.63421,0.211788,177.83,5.82,17.152,125.4,0 / 21,323380,2019-08-12 10:30:05:870,-1.2478,0.0397,9.7706,-1.4668,0.0635,9.6961,-0.0014,0.0003,-0.007
6572,45.63421,0.211788,177.83,5.82,17.152,125.4,0 / 21,323381,2019-08-12 10:30:05:871,-1.2478,0.0397,9.7706,-1.4668,0.0635,9.6961,-0.0014,0.0003,-0.007
6573,45.63421,0.211788,177.83,5.82,17.152,125.4,0 / 21,323381,2019-08-12 10:30:05:871,-1.2478,0.0397,9.7706,-1.4668,0.0635,9.6961,-0.0014,0.0003,-0.007
6574,45.63421,0.211788,177.83,5.82,17.152,125.4,0 / 21,323382,2019-08-12 10:30:05:872,-1.2478,0.0397,9.7706,-1.4668,0.0635,9.6961,-0.0014,0.0003,-0.007
6575,45.63421,0.211788,177.83,5.82,17.152,125.4,0 / 21,323382,2019-08-12 10:30:05:872,-1.2478,0.0397,9.7706,-1.4668,0.0635,9.6961,-0.0014,0.0003,-0.007
6576,45.63421,0.211788,177.83,5.82,17.152,125.4,0 / 21,323383,2019-08-12 10:30:05:873,-1.2478,0.0397,9.7706,-1.4668,0.0635,9.6961,-0.0014,0.0003,-0.007
6577,45.63421,0.211788,177.83,5.82,17.152,125.4,0 / 21,323386,2019-08-12 10:30:05:876,-1.2478,0.0397,9.7706,-1.4668,0.0635,9.6961,-0.0014,0.0003,-0.007
6578,45.63421,0.211788,177.83,5.82,17.152,125.4,0 / 21,323485,2019-08-12 10:30:05:975,-1.2478,0.0397,9.7706,-1.4668,0.0635,9.6961,-0.0014,0.0003,-0.007
6579,45.63421,0.211788,177.83,5.82,17.152,125.4,0 / 21,323857,2019-08-12 10:30:06:347,-1.2478,0.0397,9.7706,-1.4668,0.0635,9.6961,-0.0014,0.0003,-0.007
6580,45.63421,0.211788,177.83,5.82,17.152,125.4,0 / 21,323858,2019-08-12 10:30:06:348,-1.2478,0.0397,9.7706,-1.4668,0.0635,9.6961,-0.0014,0.0003,-0.007
6581,45.63421,0.211788,177.83,5.82,17.152,125.4,0 / 21,323859,2019-08-12 10:30:06:349,-1.2478,0.0397,9.7706,-1.4668,0.0635,9.6961,-0.0014,0.0003,-0.007
6582,45.63421,0.211788,177.83,5.82,17.152,125.4,0 / 21,323859,2019-08-12 10:30:06:349,-1.2478,0.0397,9.7706,-1.4668,0.0635,9.6961,-0.0014,0.0003,-0.007
6583,45.63421,0.211788,177.83,5.82,17.152,125.4,0 / 21,323860,2019-08-12 10:30:06:350,-1.2478,0.0397,9.7706,-1.4668,0.0635,9.6961,-0.0014,0.0003,-0.007
6584,45.63421,0.211788,177.83,5.82,17.152,125.4,0 / 21,323860,2019-08-12 10:30:06:350,-1.2478,0.0397,9.7706,-1.4668,0.0635,9.6961,-0.0014,0.0003,-0.007
6585,45.63421,0.211788,177.83,5.82,17.152,125.4,0 / 21,323861,2019-08-12 10:30:06:351,-1.2478,0.0397,9.7706,-1.4668,0.0635,9.6961,-0.0014,0.0003,-0.007
6586,45.63421,0.211788,177.83,5.82,17.152,125.4,0 / 21,323861,2019-08-12 10:30:06:351,-1.2478,0.0397,9.7706,-1.4668,0.0635,9.6961,-0.0014,0.0003,-0.007
6587,45.63421,0.211788,177.83,5.82,17.152,125.4,0 / 21,323861,2019-08-12 10:30:06:351,-1.2478,0.0397,9.7706,-1.4668,0.0635,9.6961,-0.0014,0.0003,-0.007
6588,45.63421,0.211788,177.83,5.82,17.152,125.4,0 / 21,323953,2019-08-12 10:30:06:443,-1.2478,0.0397,9.7706,-1.4668,0.0635,9.6961,-0.0014,0.0003,-0.007
6589,45.63421,0.211788,177.83,5.82,17.152,125.4,0 / 21,324338,2019-08-12 10:30:06:828,-1.2478,0.0397,9.7706,-1.4668,0.0635,9.6961,-0.0014,0.0003,-0.007
6590,45.63421,0.211788,177.83,5.82,17.152,125.4,0 / 21,324339,2019-08-12 10:30:06:829,-1.2478,0.0397,9.7706,-1.4668,0.0635,9.6961,-0.0014,0.0003,-0.007
6591,45.63421,0.211788,177.83,5.82,17.152,125.4,0 / 21,324339,2019-08-12 10:30:06:829,-1.2478,0.0397,9.7706,-1.4668,0.0635,9.6961,-0.0014,0.0003,-0.007
6592,45.63421,0.211788,177.83,5.82,17.152,125.4,0 / 21,324340,2019-08-12 10:30:06:830,-1.2478,0.0397,9.7706,-1.4668,0.0635,9.6961,-0.0014,0.0003,-0.007
6593,45.63421,0.211788,177.83,5.82,17.152,125.4,0 / 21,324340,2019-08-12 10:30:06:830,-1.2478,0.0397,9.7706,-1.4668,0.0635,9.6961,-0.0014,0.0003,-0.007
6594,45.63421,0.211788,177.83,5.82,17.152,125.4,0 / 21,324341,2019-08-12 10:30:06:831,-1.2478,0.0397,9.7706,-1.4668,0.0635,9.6961,-0.0014,0.0003,-0.007
6595,45.63421,0.211788,177.83,5.82,17.152,125.4,0 / 21,324341,2019-08-12 10:30:06:831,-1.2478,0.0397,9.7706,-1.4668,0.0635,9.6961,-0.0014,0.0003,-0.007
6596,45.63421,0.211788,177.83,5.82,17.152,125.4,0 / 21,324341,2019-08-12 10:30:06:831,-1.2478,0.0397,9.7706,-1.4668,0.0635,9.6961,-0.0014,0.0003,-0.007
6597,45.63421,0.211788,177.83,5.82,17.152,125.4,0 / 21,324342,2019-08-12 10:30:06:832,-1.2478,0.0397,9.7706,-1.4668,0.0635,9.6961,-0.0014,0.0003,-0.007
6598,45.63421,0.211788,177.83,5.82,17.152,125.4,0 / 21,324354,2019-08-12 10:30:06:844,-1.2478,0.0397,9.7706,-1.4668,0.0635,9.6961,-0.0014,0.0003,-0.007
6599,45.63421,0.211788,177.83,5.82,17.152,125.4,0 / 21,324355,2019-08-12 10:30:06:845,-1.2478,0.0397,9.7706,-1.4668,0.0635,9.6961,-0.0014,0.0003,-0.007
6600,45.63421,0.211788,177.83,5.82,17.152,125.4,0 / 21,324357,2019-08-12 10:30:06:847,-1.2478,0.0397,9.7706,-1.4668,0.0635,9.6961,-0.0014,0.0003,-0.007
6601,45.63421,0.211788,177.83,5.82,17.152,125.4,0 / 21,324358,2019-08-12 10:30:06:848,-1.2478,0.0397,9.7706,-1.4668,0.0635,9.6961,-0.0014,0.0003,-0.007
6602,45.63421,0.211788,177.83,5.82,17.152,125.4,0 / 21,324359,2019-08-12 10:30:06:849,-1.2478,0.0397,9.7706,-1.4668,0.0635,9.6961,-0.0014,0.0003,-0.007
6603,45.63421,0.211788,177.83,5.82,17.152,125.4,0 / 21,324359,2019-08-12 10:30:06:849,-1.2478,0.0397,9.7706,-1.4668,0.0635,9.6961,-0.0014,0.0003,-0.007
6604,45.63421,0.211788,177.83,5.82,17.152,125.4,0 / 21,324360,2019-08-12 10:30:06:850,-1.2478,0.0397,9.7706,-1.4668,0.0635,9.6961,-0.0014,0.0003,-0.007
6605,45.63421,0.211788,177.83,5.82,17.152,125.4,0 / 21,324360,2019-08-12 10:30:06:850,-1.2478,0.0397,9.7706,-1.4668,0.0635,9.6961,-0.0014,0.0003,-0.007
6606,45.63421,0.211788,177.83,5.82,17.152,125.4,0 / 21,324361,2019-08-12 10:30:06:851,-1.2478,0.0397,9.7706,-1.4668,0.0635,9.6961,-0.0014,0.0003,-0.007
6607,45.63421,0.211788,177.83,5.82,17.152,125.4,0 / 21,324361,2019-08-12 10:30:06:851,-1.2478,0.0397,9.7706,-1.4668,0.0635,9.6961,-0.0014,0.0003,-0.007
6608,45.63421,0.211788,177.83,5.82,17.152,125.4,0 / 21,324362,2019-08-12 10:30:06:852,-1.2478,0.0397,9.7706,-1.4668,0.0635,9.6961,-0.0014,0.0003,-0.007
6609,45.63421,0.211788,177.83,5.82,17.152,125.4,0 / 21,324362,2019-08-12 10:30:06:852,-1.2478,0.0397,9.7706,-1.4668,0.0635,9.6961,-0.0014,0.0003,-0.007
6610,45.63421,0.211788,177.83,5.82,17.152,125.4,0 / 21,324363,2019-08-12 10:30:06:853,-1.2478,0.0397,9.7706,-1.4668,0.0635,9.6961,-0.0014,0.0003,-0.007
6611,45.63421,0.211788,177.83,5.82,17.152,125.4,0 / 21,324363,2019-08-12 10:30:06:853,-1.2478,0.0397,9.7706,-1.4668,0.0635,9.6961,-0.0014,0.0003,-0.007
6612,45.63421,0.211788,177.83,5.82,17.152,125.4,0 / 21,324363,2019-08-12 10:30:06:853,-1.2478,0.0397,9.7706,-1.4668,0.0635,9.6961,-0.0014,0.0003,-0.007
6613,45.63421,0.211788,177.83,5.82,17.152,125.4,0 / 21,324364,2019-08-12 10:30:06:854,-1.2478,0.0397,9.7706,-1.4668,0.0635,9.6961,-0.0014,0.0003,-0.007
6614,45.63421,0.211788,177.83,5.82,17.152,125.4,0 / 21,324364,2019-08-12 10:30:06:854,-1.2478,0.0397,9.7706,-1.4668,0.0635,9.6961,-0.0014,0.0003,-0.007
6615,45.63421,0.211788,177.83,5.82,17.152,125.4,0 / 21,324365,2019-08-12 10:30:06:855,-1.2478,0.0397,9.7706,-1.4668,0.0635,9.6961,-0.0014,0.0003,-0.007
6616,45.63421,0.211788,177.83,5.82,17.152,125.4,0 / 21,324365,2019-08-12 10:30:06:855,-1.2478,0.0397,9.7706,-1.4668,0.0635,9.6961,-0.0014,0.0003,-0.007
6617,45.63421,0.211788,177.83,5.82,17.152,125.4,0 / 21,324365,2019-08-12 10:30:06:855,-1.2478,0.0397,9.7706,-1.4668,0.0635,9.6961,-0.0014,0.0003,-0.007
6618,45.63421,0.211788,177.83,5.82,17.152,125.4,0 / 21,324366,2019-08-12 10:30:06:856,-1.2478,0.0397,9.7706,-1.4668,0.0635,9.6961,-0.0014,0.0003,-0.007
6619,45.63421,0.211788,177.83,5.82,17.152,125.4,0 / 21,324366,2019-08-12 10:30:06:856,-1.2478,0.0397,9.7706,-1.4668,0.0635,9.6961,-0.0014,0.0003,-0.007
6620,45.63421,0.211788,177.83,5.82,17.152,125.4,0 / 21,324367,2019-08-12 10:30:06:857,-1.2478,0.0397,9.7706,-1.4668,0.0635,9.6961,-0.0014,0.0003,-0.007
6621,45.63421,0.211788,177.83,5.82,17.152,125.4,0 / 21,324367,2019-08-12 10:30:06:857,-1.2478,0.0397,9.7706,-1.4668,0.0635,9.6961,-0.0014,0.0003,-0.007
6622,45.63421,0.211788,177.83,5.82,17.152,125.4,0 / 21,324367,2019-08-12 10:30:06:857,-1.2478,0.0397,9.7706,-1.4668,0.0635,9.6961,-0.0014,0.0003,-0.007
6623,45.63421,0.211788,177.83,5.82,17.152,125.4,0 / 21,324446,2019-08-12 10:30:06:936,-1.2478,0.0397,9.7706,-1.4668,0.0635,9.6961,-0.0014,0.0003,-0.007
6624,45.63421,0.211788,177.83,5.82,17.152,125.4,0 / 21,324546,2019-08-12 10:30:07:036,1.7671,-0.2009,9.9424,0.9946,-0.4602,9.7452,-0.0014,0.0003,-0.007
6625,45.63421,0.211788,177.83,5.82,17.152,125.4,0 / 21,324859,2019-08-12 10:30:07:349,1.2057,-1.6566,9.9669,0.9946,-0.4602,9.7452,0.0007,0.0003,-0.006
6626,45.63421,0.211788,177.83,5.82,17.152,125.4,0 / 21,324860,2019-08-12 10:30:07:350,1.2057,-1.6566,9.9669,0.9946,-0.4602,9.7452,0.0007,0.0003,-0.006
6627,45.63421,0.211788,177.83,5.82,17.152,125.4,0 / 21,324860,2019-08-12 10:30:07:350,1.2057,-1.6566,9.9669,0.9946,-0.4602,9.7452,0.0007,0.0003,-0.006
6628,45.63421,0.211788,177.83,5.82,17.152,125.4,0 / 21,324861,2019-08-12 10:30:07:351,1.2057,-1.6566,9.9669,0.9946,-0.4602,9.7452,0.0007,0.0003,-0.006
6629,45.63421,0.211788,177.83,5.82,17.152,125.4,0 / 21,324861,2019-08-12 10:30:07:351,1.2057,-1.6566,9.9669,0.9946,-0.4602,9.7452,0.0007,0.0003,-0.006
6630,45.63421,0.211788,177.83,5.82,17.152,125.4,0 / 21,324862,2019-08-12 10:30:07:352,1.2057,-1.6566,9.9669,0.9946,-0.4602,9.7452,0.0007,0.0003,-0.006
6631,45.63421,0.211788,177.83,5.82,17.152,125.4,0 / 21,324863,2019-08-12 10:30:07:353,1.2057,-1.6566,9.9669,0.9946,-0.4602,9.7452,0.0007,0.0003,-0.006
6632,45.63421,0.211788,177.83,5.82,17.152,125.4,0 / 21,324863,2019-08-12 10:30:07:353,1.2057,-1.6566,9.9669,0.9946,-0.4602,9.7452,0.0007,0.0003,-0.006
6633,45.63421,0.211788,177.83,5.82,17.152,125.4,0 / 21,324864,2019-08-12 10:30:07:354,1.2057,-1.6566,9.9669,0.9946,-0.4602,9.7452,0.0007,0.0003,-0.006
6634,45.63421,0.211788,177.83,5.82,17.152,125.4,0 / 21,324864,2019-08-12 10:30:07:354,1.2057,-1.6566,9.9669,0.9946,-0.4602,9.7452,0.0007,0.0003,-0.006
6635,45.63421,0.211788,177.83,5.82,17.152,125.4,0 / 21,324865,2019-08-12 10:30:07:355,1.2057,-1.6566,9.9669,0.9946,-0.4602,9.7452,0.0007,0.0003,-0.006
6636,45.63421,0.211788,177.83,5.82,17.152,125.4,0 / 21,324865,2019-08-12 10:30:07:355,1.2057,-1.6566,9.9669,0.9946,-0.4602,9.7452,0.0007,0.0003,-0.006
6637,45.63421,0.211788,177.83,5.82,17.152,125.4,0 / 21,324866,2019-08-12 10:30:07:356,1.2057,-1.6566,9.9669,0.9946,-0.4602,9.7452,0.0007,0.0003,-0.006
6638,45.63421,0.211788,177.83,5.82,17.152,125.4,0 / 21,324866,2019-08-12 10:30:07:356,1.2057,-1.6566,9.9669,0.9946,-0.4602,9.7452,0.0007,0.0003,-0.006
6639,45.63421,0.211788,177.83,5.82,17.152,125.4,0 / 21,324867,2019-08-12 10:30:07:357,1.2057,-1.6566,9.9669,0.9946,-0.4602,9.7452,0.0007,0.0003,-0.006
6640,45.63421,0.211788,177.83,5.82,17.152,125.4,0 / 21,324867,2019-08-12 10:30:07:357,1.2057,-1.6566,9.9669,0.9946,-0.4602,9.7452,0.0007,0.0003,-0.006
6641,45.63421,0.211788,177.83,5.82,17.152,125.4,0 / 21,324869,2019-08-12 10:30:07:359,1.2057,-1.6566,9.9669,0.9946,-0.4602,9.7452,0.0007,0.0003,-0.006
6642,45.63421,0.211788,177.83,5.82,17.152,125.4,0 / 21,324871,2019-08-12 10:30:07:361,1.2057,-1.6566,9.9669,0.9946,-0.4602,9.7452,0.0007,0.0003,-0.006
6643,45.63421,0.211788,177.83,5.82,17.152,125.4,0 / 21,324873,2019-08-12 10:30:07:363,1.2057,-1.6566,9.9669,0.9946,-0.4602,9.7452,0.0007,0.0003,-0.006
6644,45.63421,0.211788,177.83,5.82,17.152,125.4,0 / 21,324917,2019-08-12 10:30:07:407,1.2057,-1.6566,9.9669,0.9946,-0.4602,9.7452,0.0007,0.0003,-0.006
6645,45.63421,0.211788,177.83,5.82,17.152,125.4,0 / 21,325017,2019-08-12 10:30:07:507,1.2057,-1.6566,9.9669,0.9946,-0.4602,9.7452,0.0007,0.0003,-0.006
6646,45.63421,0.211788,177.83,5.82,17.152,125.4,0 / 21,325117,2019-08-12 10:30:07:607,0.5173,-2.7555,9.5192,0.6975,-1.417,9.6786,0.0359,0.0408,-0.2244
6647,45.63421,0.211788,177.83,5.82,17.152,125.4,0 / 21,325217,2019-08-12 10:30:07:707,0.7382,-2.5825,10.2231,0.6914,-1.454,9.6736,-0.0206,0.0312,-0.2265
6648,45.63421,0.211788,177.83,5.82,17.152,125.4,0 / 21,325317,2019-08-12 10:30:07:807,0.6233,-2.6262,9.6724,0.7184,-1.472,9.6689,0.0423,0.0046,-0.2094
6649,45.63421,0.211788,177.83,5.82,17.152,125.4,0 / 21,325417,2019-08-12 10:30:07:907,0.7933,-2.6442,9.4522,0.7276,-1.4754,9.6677,0.0305,0.0184,-0.2009
6650,45.63421,0.211788,177.83,5.82,17.152,125.4,0 / 21,325518,2019-08-12 10:30:08:008,0.8759,-2.318,9.5114,0.7214,-1.4739,9.6684,0.0529,0.0354,-0.186
6651,45.63421,0.211788,177.83,5.82,17.152,125.4,0 / 21,325617,2019-08-12 10:30:08:107,0.5939,-2.5173,9.3785,0.7146,-1.4491,9.6726,0.0508,0.0269,-0.17
6652,45.63421,0.211788,177.83,5.82,17.152,125.4,0 / 21,325717,2019-08-12 10:30:08:207,0.5724,-2.0666,10.0076,0.7415,-1.4135,9.6759,0.0572,-0.0199,-0.1626
6653,45.63421,0.211788,177.83,5.82,17.152,125.4,0 / 21,325818,2019-08-12 10:30:08:308,1.0626,-1.7284,10.9886,0.7958,-1.3938,9.6744,0.0241,-0.0626,-0.1498
6654,45.63421,0.211788,177.83,5.82,17.152,125.4,0 / 21,325917,2019-08-12 10:30:08:407,0.8842,-1.4776,11.4884,0.8754,-1.3538,9.6732,0.054,-0.0636,-0.1264
6655,45.63421,0.211788,177.83,5.82,17.152,125.4,0 / 21,326017,2019-08-12 10:30:08:507,0.5503,-1.5644,10.1794,0.92,-1.3195,9.6738,0.0359,-0.0434,-0.1136
6656,45.63421,0.211788,177.83,5.82,17.152,125.4,0 / 21,326117,2019-08-12 10:30:08:607,0.9489,-1.0634,10.2536,0.9553,-1.271,9.6769,0.0327,-0.0146,-0.1008
6657,45.63421,0.211788,177.83,5.82,17.152,125.4,Dec-21,326217,2019-08-12 10:30:08:707,0.998,-1.2657,10.3967,0.9726,-1.2324,9.6802,0.0316,-0.0199,-0.0901
6658,45.63421,0.211788,177.83,5.82,17.152,125.4,Dec-21,326317,2019-08-12 10:30:08:807,0.989,-1.0538,10.0166,0.9909,-1.1857,9.6841,0.0316,-0.0146,-0.0742
6659,45.63421,0.211788,177.83,5.82,17.152,125.4,Dec-21,326417,2019-08-12 10:30:08:907,0.7017,-0.6223,9.7508,1.0023,-1.1463,9.6877,0.0273,-0.0146,-0.0529
6660,45.63421,0.211788,177.83,5.82,17.152,125.4,Dec-21,326517,2019-08-12 10:30:09:007,0.9585,-0.2937,9.9484,1.0084,-1.0666,9.6962,0.0316,0.0024,-0.0262
6661,45.63421,0.211788,177.83,5.82,17.152,125.4,Dec-21,326617,2019-08-12 10:30:09:107,0.8681,-0.0423,10.6092,1.0042,-1.0116,9.7025,0.0305,-0.0082,-0.0145
6662,45.63421,0.211788,177.83,5.82,17.152,125.4,Dec-21,326717,2019-08-12 10:30:09:207,0.7993,0.0206,9.6383,1.0341,-0.9526,9.7053,-0.0089,-0.0349,-0.0145
6663,45.63421,0.211788,177.83,5.82,17.152,125.4,Dec-21,326818,2019-08-12 10:30:09:308,1.0028,-0.0106,9.9292,1.045,-0.9298,9.7064,-0.0089,-0.0125,-0.0145
6664,45.63421,0.211788,177.83,5.82,17.152,125.4,Dec-21,326917,2019-08-12 10:30:09:407,0.8106,-0.3009,9.4156,1.0369,-0.8879,9.7112,-0.0046,0.0109,-0.0134
6665,45.63421,0.211788,177.83,5.82,17.152,125.4,Dec-21,327019,2019-08-12 10:30:09:509,1.0052,-0.0543,10.1602,1.0281,-0.8788,9.7129,-0.0185,0.0056,-0.0166
6666,45.63421,0.211788,177.83,5.82,17.152,125.4,Dec-21,327117,2019-08-12 10:30:09:607,0.9327,-0.1267,10.2369,1.0323,-0.855,9.7146,-0.0217,-0.0157,-0.0145
6667,45.633858,0.211599,185.91,6.29,16.08,201.8,0 / 21,327217,2019-08-12 10:30:09:707,0.7873,-0.3906,9.9424,1.0375,-0.8404,9.7153,-0.0099,-0.0082,-0.0166
6668,45.633858,0.211599,185.91,6.29,16.08,201.8,0 / 21,327317,2019-08-12 10:30:09:807,0.6963,-0.4062,9.7449,0.9894,-0.7671,9.7264,-0.0078,0.0152,-0.0145
6669,45.633858,0.211599,185.91,6.29,16.08,201.8,0 / 21,327417,2019-08-12 10:30:09:907,0.7693,-0.2225,9.8999,0.9272,-0.6691,9.7398,-0.011,0.0131,-0.0156
6670,45.633858,0.211599,185.91,6.29,16.08,201.8,0 / 21,327517,2019-08-12 10:30:10:007,0.6957,-0.4074,10.0154,0.8608,-0.5509,9.7533,0.0103,-0.0008,-0.0134
6671,45.633858,0.211599,185.91,6.29,16.08,201.8,0 / 21,327618,2019-08-12 10:30:10:108,0.7472,-0.2027,10.0806,0.8523,-0.548,9.7542,-0.0174,0.0088,-0.0145
6672,45.633858,0.211599,185.91,6.29,16.08,201.8,0 / 21,327717,2019-08-12 10:30:10:207,0.4886,-0.3799,9.7209,0.8464,-0.5386,9.7552,-0.0014,-0.0072,-0.0145
6673,45.633858,0.211599,185.91,6.29,16.08,201.8,0 / 21,327818,2019-08-12 10:30:10:308,0.886,-0.0237,10.3165,0.8458,-0.5413,9.7551,-0.0259,-0.0104,-0.0134
6674,45.633858,0.211599,185.91,6.29,16.08,201.8,0 / 21,327917,2019-08-12 10:30:10:407,0.6939,-0.4667,9.6593,0.8459,-0.5242,9.756,0.0092,-0.0125,-0.0113
6675,45.633858,0.211599,185.91,6.29,16.08,201.8,0 / 21,328017,2019-08-12 10:30:10:507,0.6448,-0.1398,10.0687,0.8373,-0.5233,9.7568,-0.0132,0.0067,-0.0145
6676,45.633858,0.211599,185.91,6.29,16.08,201.8,0 / 21,328117,2019-08-12 10:30:10:607,0.494,-0.4068,10.1459,0.8317,-0.5005,9.7585,0.0188,-0.0125,-0.0134
6677,45.633858,0.211599,185.91,6.29,16.08,201.8,0 / 21,328218,2019-08-12 10:30:10:708,0.7011,-0.3841,9.7335,0.8232,-0.4944,9.7595,-0.0025,0.0067,-0.0145
6678,45.633858,0.211599,185.91,6.29,16.08,201.8,0 / 21,328317,2019-08-12 10:30:10:807,0.5922,-0.4277,9.1295,0.7948,-0.4721,9.763,0.0082,0.0259,-0.0081
6679,45.633858,0.211599,185.91,6.29,16.08,201.8,0 / 21,328417,2019-08-12 10:30:10:907,0.7232,0.0553,9.8275,0.7683,-0.4647,9.7655,-0.0121,0.0259,-0.0124
6680,45.633858,0.211599,185.91,6.29,16.08,201.8,0 / 21,328518,2019-08-12 10:30:11:008,0.4796,-0.4254,9.9394,0.7701,-0.4571,9.7657,0.0028,-0.0349,-0.0145
6681,45.633858,0.211599,185.91,6.29,16.08,201.8,0 / 21,328618,2019-08-12 10:30:11:108,0.6975,-0.2063,10.8037,0.7914,-0.4677,9.7635,-0.0238,-0.0317,-0.0156
6682,45.633858,0.211599,185.91,6.29,16.08,201.8,0 / 21,328718,2019-08-12 10:30:11:208,0.8017,-0.4146,9.5521,0.7728,-0.49,9.7639,-0.0494,0.0365,-0.0102
6683,45.633858,0.211599,185.91,6.29,16.08,201.8,0 / 21,328819,2019-08-12 10:30:11:309,0.5862,-0.1889,9.946,0.7313,-0.501,9.7665,0.0071,0.0631,-0.0092
6684,45.633858,0.211599,185.91,6.29,16.08,201.8,0 / 21,328918,2019-08-12 10:30:11:408,0.3228,-0.4367,8.9685,0.6713,-0.4763,9.772,0.0071,0.0333,-0.0145
6685,45.633858,0.211599,185.91,6.29,16.08,201.8,0 / 21,329017,2019-08-12 10:30:11:507,0.3055,-0.2386,9.4462,0.6589,-0.4433,9.7744,0.0454,-0.004,-0.006
6686,45.633858,0.211599,185.91,6.29,16.08,201.8,0 / 21,329117,2019-08-12 10:30:11:607,0.3384,-0.0177,9.8137,0.669,-0.3602,9.7772,0.039,-0.0285,0.0196
6687,45.633858,0.211599,185.91,6.29,16.08,201.8,0 / 21,329218,2019-08-12 10:30:11:708,0.4736,1.0124,11.0162,0.6745,-0.3152,9.7784,0.0145,-0.0231,0.0377
6688,45.633858,0.211599,185.91,6.29,16.08,201.8,0 / 21,329318,2019-08-12 10:30:11:808,0.4862,1.0219,10.4374,0.6752,-0.2529,9.7801,-0.0142,-0.0018,0.0462
6689,45.633858,0.211599,185.91,6.29,16.08,201.8,0 / 21,329710,2019-08-12 10:30:12:200,0.2306,0.7376,10.2836,0.6675,-0.2352,9.7811,-0.0078,0.0067,0.0462
6690,45.633858,0.211599,185.91,6.29,16.08,201.8,0 / 21,329711,2019-08-12 10:30:12:201,0.2306,0.7376,10.2836,0.6675,-0.2352,9.7811,-0.0078,0.0067,0.0462
6691,45.633858,0.211599,185.91,6.29,16.08,201.8,0 / 21,329711,2019-08-12 10:30:12:201,0.2306,0.7376,10.2836,0.6675,-0.2352,9.7811,-0.0078,0.0067,0.0462
6692,45.633858,0.211599,185.91,6.29,16.08,201.8,0 / 21,329711,2019-08-12 10:30:12:201,0.2306,0.7376,10.2836,0.6675,-0.2352,9.7811,-0.0078,0.0067,0.0462
6693,45.633858,0.211599,185.91,6.29,16.08,201.8,0 / 21,329712,2019-08-12 10:30:12:202,0.2306,0.7376,10.2836,0.6675,-0.2352,9.7811,-0.0078,0.0067,0.0462
6694,45.633858,0.211599,185.91,6.29,16.08,201.8,0 / 21,329712,2019-08-12 10:30:12:202,0.2306,0.7376,10.2836,0.6675,-0.2352,9.7811,-0.0078,0.0067,0.0462
6695,45.633858,0.211599,185.91,6.29,16.08,201.8,0 / 21,329713,2019-08-12 10:30:12:203,0.2306,0.7376,10.2836,0.6675,-0.2352,9.7811,-0.0078,0.0067,0.0462
6696,45.633858,0.211599,185.91,6.29,16.08,201.8,0 / 21,329713,2019-08-12 10:30:12:203,0.2306,0.7376,10.2836,0.6675,-0.2352,9.7811,-0.0078,0.0067,0.0462
6697,45.633858,0.211599,185.91,6.29,16.08,201.8,0 / 21,329714,2019-08-12 10:30:12:204,0.2306,0.7376,10.2836,0.6675,-0.2352,9.7811,-0.0078,0.0067,0.0462
6698,45.633858,0.211599,185.91,6.29,16.08,201.8,0 / 21,329714,2019-08-12 10:30:12:204,0.2306,0.7376,10.2836,0.6675,-0.2352,9.7811,-0.0078,0.0067,0.0462
6699,45.633858,0.211599,185.91,6.29,16.08,201.8,0 / 21,329715,2019-08-12 10:30:12:205,0.2306,0.7376,10.2836,0.6675,-0.2352,9.7811,-0.0078,0.0067,0.0462
6700,45.633858,0.211599,185.91,6.29,16.08,201.8,0 / 21,329717,2019-08-12 10:30:12:207,0.2306,0.7376,10.2836,0.6675,-0.2352,9.7811,-0.0078,0.0067,0.0462
6701,45.633858,0.211599,185.91,6.29,16.08,201.8,0 / 21,329718,2019-08-12 10:30:12:208,0.2306,0.7376,10.2836,0.6675,-0.2352,9.7811,-0.0078,0.0067,0.0462
6702,45.633858,0.211599,185.91,6.29,16.08,201.8,0 / 21,329718,2019-08-12 10:30:12:208,0.2306,0.7376,10.2836,0.6675,-0.2352,9.7811,-0.0078,0.0067,0.0462
6703,45.633858,0.211599,185.91,6.29,16.08,201.8,0 / 21,329718,2019-08-12 10:30:12:208,0.2306,0.7376,10.2836,0.6675,-0.2352,9.7811,-0.0078,0.0067,0.0462
6704,45.633858,0.211599,185.91,6.29,16.08,201.8,0 / 21,329719,2019-08-12 10:30:12:209,0.2306,0.7376,10.2836,0.6675,-0.2352,9.7811,-0.0078,0.0067,0.0462
6705,45.633858,0.211599,185.91,6.29,16.08,201.8,0 / 21,329719,2019-08-12 10:30:12:209,0.2306,0.7376,10.2836,0.6675,-0.2352,9.7811,-0.0078,0.0067,0.0462
6706,45.633858,0.211599,185.91,6.29,16.08,201.8,0 / 21,329726,2019-08-12 10:30:12:216,0.2306,0.7376,10.2836,0.6675,-0.2352,9.7811,-0.0078,0.0067,0.0462
6707,45.633858,0.211599,185.91,6.29,16.08,201.8,0 / 21,329726,2019-08-12 10:30:12:216,0.2306,0.7376,10.2836,0.6675,-0.2352,9.7811,-0.0078,0.0067,0.0462
6708,45.633858,0.211599,185.91,6.29,16.08,201.8,0 / 21,329727,2019-08-12 10:30:12:217,0.2306,0.7376,10.2836,0.6675,-0.2352,9.7811,-0.0078,0.0067,0.0462
6709,45.633858,0.211599,185.91,6.29,16.08,201.8,0 / 21,329728,2019-08-12 10:30:12:218,0.2306,0.7376,10.2836,0.6675,-0.2352,9.7811,-0.0078,0.0067,0.0462
6710,45.633858,0.211599,185.91,6.29,16.08,201.8,0 / 21,329728,2019-08-12 10:30:12:218,0.2306,0.7376,10.2836,0.6675,-0.2352,9.7811,-0.0078,0.0067,0.0462
6711,45.633858,0.211599,185.91,6.29,16.08,201.8,0 / 21,329729,2019-08-12 10:30:12:219,0.2306,0.7376,10.2836,0.6675,-0.2352,9.7811,-0.0078,0.0067,0.0462
6712,45.633858,0.211599,185.91,6.29,16.08,201.8,0 / 21,329729,2019-08-12 10:30:12:219,0.2306,0.7376,10.2836,0.6675,-0.2352,9.7811,-0.0078,0.0067,0.0462
6713,45.633858,0.211599,185.91,6.29,16.08,201.8,0 / 21,329730,2019-08-12 10:30:12:220,0.2306,0.7376,10.2836,0.6675,-0.2352,9.7811,-0.0078,0.0067,0.0462
6714,45.633858,0.211599,185.91,6.29,16.08,201.8,0 / 21,329730,2019-08-12 10:30:12:220,0.2306,0.7376,10.2836,0.6675,-0.2352,9.7811,-0.0078,0.0067,0.0462
6715,45.633858,0.211599,185.91,6.29,16.08,201.8,0 / 21,329731,2019-08-12 10:30:12:221,0.2306,0.7376,10.2836,0.6675,-0.2352,9.7811,-0.0078,0.0067,0.0462
6716,45.633858,0.211599,185.91,6.29,16.08,201.8,0 / 21,329731,2019-08-12 10:30:12:221,0.2306,0.7376,10.2836,0.6675,-0.2352,9.7811,-0.0078,0.0067,0.0462
6717,45.633858,0.211599,185.91,6.29,16.08,201.8,0 / 21,329732,2019-08-12 10:30:12:222,0.2306,0.7376,10.2836,0.6675,-0.2352,9.7811,-0.0078,0.0067,0.0462
6718,45.633858,0.211599,185.91,6.29,16.08,201.8,0 / 21,329733,2019-08-12 10:30:12:223,0.2306,0.7376,10.2836,0.6675,-0.2352,9.7811,-0.0078,0.0067,0.0462
6719,45.633858,0.211599,185.91,6.29,16.08,201.8,0 / 21,329733,2019-08-12 10:30:12:223,0.2306,0.7376,10.2836,0.6675,-0.2352,9.7811,-0.0078,0.0067,0.0462
6720,45.633858,0.211599,185.91,6.29,16.08,201.8,0 / 21,329734,2019-08-12 10:30:12:224,0.2306,0.7376,10.2836,0.6675,-0.2352,9.7811,-0.0078,0.0067,0.0462
6721,45.633858,0.211599,185.91,6.29,16.08,201.8,0 / 21,329735,2019-08-12 10:30:12:225,0.2306,0.7376,10.2836,0.6675,-0.2352,9.7811,-0.0078,0.0067,0.0462
6722,45.633858,0.211599,185.91,6.29,16.08,201.8,0 / 21,329735,2019-08-12 10:30:12:225,0.2306,0.7376,10.2836,0.6675,-0.2352,9.7811,-0.0078,0.0067,0.0462
6723,45.633858,0.211599,185.91,6.29,16.08,201.8,0 / 21,329736,2019-08-12 10:30:12:226,0.2306,0.7376,10.2836,0.6675,-0.2352,9.7811,-0.0078,0.0067,0.0462
6724,45.633858,0.211599,185.91,6.29,16.08,201.8,0 / 21,329736,2019-08-12 10:30:12:226,0.2306,0.7376,10.2836,0.6675,-0.2352,9.7811,-0.0078,0.0067,0.0462
6725,45.633858,0.211599,185.91,6.29,16.08,201.8,0 / 21,329737,2019-08-12 10:30:12:227,0.2306,0.7376,10.2836,0.6675,-0.2352,9.7811,-0.0078,0.0067,0.0462
6726,45.633858,0.211599,185.91,6.29,16.08,201.8,0 / 21,329737,2019-08-12 10:30:12:227,0.2306,0.7376,10.2836,0.6675,-0.2352,9.7811,-0.0078,0.0067,0.0462
6727,45.633858,0.211599,185.91,6.29,16.08,201.8,0 / 21,329737,2019-08-12 10:30:12:227,0.2306,0.7376,10.2836,0.6675,-0.2352,9.7811,-0.0078,0.0067,0.0462
6728,45.633858,0.211599,185.91,6.29,16.08,201.8,0 / 21,329738,2019-08-12 10:30:12:228,0.2306,0.7376,10.2836,0.6675,-0.2352,9.7811,-0.0078,0.0067,0.0462
6729,45.633858,0.211599,185.91,6.29,16.08,201.8,0 / 21,329738,2019-08-12 10:30:12:228,0.2306,0.7376,10.2836,0.6675,-0.2352,9.7811,-0.0078,0.0067,0.0462
6730,45.633858,0.211599,185.91,6.29,16.08,201.8,0 / 21,329738,2019-08-12 10:30:12:228,0.2306,0.7376,10.2836,0.6675,-0.2352,9.7811,-0.0078,0.0067,0.0462
6731,45.633858,0.211599,185.91,6.29,16.08,201.8,0 / 21,329739,2019-08-12 10:30:12:229,0.2306,0.7376,10.2836,0.6675,-0.2352,9.7811,-0.0078,0.0067,0.0462
6732,45.633858,0.211599,185.91,6.29,16.08,201.8,0 / 21,329739,2019-08-12 10:30:12:229,0.2306,0.7376,10.2836,0.6675,-0.2352,9.7811,-0.0078,0.0067,0.0462
6733,45.633858,0.211599,185.91,6.29,16.08,201.8,0 / 21,329740,2019-08-12 10:30:12:230,0.2306,0.7376,10.2836,0.6675,-0.2352,9.7811,-0.0078,0.0067,0.0462
6734,45.633858,0.211599,185.91,6.29,16.08,201.8,0 / 21,329740,2019-08-12 10:30:12:230,0.2306,0.7376,10.2836,0.6675,-0.2352,9.7811,-0.0078,0.0067,0.0462
6735,45.633858,0.211599,185.91,6.29,16.08,201.8,0 / 21,329740,2019-08-12 10:30:12:230,0.2306,0.7376,10.2836,0.6675,-0.2352,9.7811,-0.0078,0.0067,0.0462
6736,45.633858,0.211599,185.91,6.29,16.08,201.8,0 / 21,329741,2019-08-12 10:30:12:231,0.2306,0.7376,10.2836,0.6675,-0.2352,9.7811,-0.0078,0.0067,0.0462
6737,45.633858,0.211599,185.91,6.29,16.08,201.8,0 / 21,329741,2019-08-12 10:30:12:231,0.2306,0.7376,10.2836,0.6675,-0.2352,9.7811,-0.0078,0.0067,0.0462
6738,45.633858,0.211599,185.91,6.29,16.08,201.8,0 / 21,329806,2019-08-12 10:30:12:296,0.2306,0.7376,10.2836,0.6675,-0.2352,9.7811,-0.0078,0.0067,0.0462
6739,45.633858,0.211599,185.91,6.29,16.08,201.8,0 / 21,329906,2019-08-12 10:30:12:396,0.2306,0.7376,10.2836,0.6675,-0.2352,9.7811,-0.0078,0.0067,0.0462
6740,45.633858,0.211599,185.91,6.29,16.08,201.8,0 / 21,330006,2019-08-12 10:30:12:496,0.2306,0.7376,10.2836,0.6675,-0.2352,9.7811,-0.0078,0.0067,0.0462
6741,45.633858,0.211599,185.91,6.29,16.08,201.8,0 / 21,330106,2019-08-12 10:30:12:596,0.2306,0.7376,10.2836,0.6675,-0.2352,9.7811,-0.0078,0.0067,0.0462
6742,45.633858,0.211599,185.91,6.29,16.08,201.8,0 / 21,330206,2019-08-12 10:30:12:696,-0.4757,-0.0088,9.4402,-0.4839,0.0874,9.7943,-0.0163,-0.0018,0.0015
6743,45.633858,0.211599,185.91,6.29,16.08,201.8,0 / 21,330306,2019-08-12 10:30:12:796,-0.5373,0.1229,9.597,-0.4783,0.0767,9.7947,-0.0121,0.0003,0.0025
6744,45.633858,0.211599,185.91,6.29,16.08,201.8,0 / 21,330406,2019-08-12 10:30:12:896,-0.2458,0.0044,9.3528,-0.4875,0.0727,9.7943,0.0071,0.0227,0.0047
6745,45.633858,0.211599,185.91,6.29,16.08,201.8,0 / 21,330507,2019-08-12 10:30:12:997,-0.0136,0.0284,9.1409,-0.4988,0.0815,9.7936,0.0145,0.0216,0.0047
6746,45.633858,0.211599,185.91,6.29,16.08,201.8,0 / 21,330606,2019-08-12 10:30:13:096,0.0529,-0.0411,9.1086,-0.5163,0.0959,9.7926,0.0188,0.0312,0.0047
6747,45.633858,0.211599,185.91,6.29,16.08,201.8,Sep-20,330706,2019-08-12 10:30:13:196,0.0104,-0.0495,9.3917,-0.5243,0.098,9.7921,-0.0004,0.0248,0.0036
6748,45.633858,0.211599,185.91,6.29,16.08,201.8,Sep-20,330807,2019-08-12 10:30:13:297,-0.1249,-0.1494,10.5421,-0.4966,0.1078,9.7935,0.0124,-0.0253,0.0004
6749,45.633858,0.211599,185.91,6.29,16.08,201.8,Sep-20,330906,2019-08-12 10:30:13:396,-0.0824,0.19,10.8821,-0.4624,0.1011,9.7952,-0.0132,-0.0327,0.0015
6750,45.633858,0.211599,185.91,6.29,16.08,201.8,Sep-20,331006,2019-08-12 10:30:13:496,-0.4074,0.3593,10.3326,-0.4147,0.071,9.7976,-0.0281,-0.0295,-0.0017
6751,45.633858,0.211599,185.91,6.29,16.08,201.8,Sep-20,331107,2019-08-12 10:30:13:597,-0.2787,0.1924,10.6409,-0.3851,0.0551,9.7989,-0.0238,-0.0285,-0.0017
6752,45.633858,0.211599,185.91,6.29,16.08,201.8,Sep-20,331207,2019-08-12 10:30:13:697,-0.101,-0.25,9.9933,-0.3545,0.0466,9.8001,0.0071,-0.0135,0.0015
6753,45.633858,0.211599,185.91,6.29,16.08,201.8,Sep-20,331307,2019-08-12 10:30:13:797,-0.0154,0.0385,9.4803,-0.35,0.0597,9.8002,0.0305,0.0067,0.0004
6754,45.633858,0.211599,185.91,6.29,16.08,201.8,Sep-20,331407,2019-08-12 10:30:13:897,-0.2452,-0.1183,8.9536,-0.3739,0.076,9.7992,0.022,0.0344,-0.0007
6755,45.633858,0.211599,185.91,6.29,16.08,201.8,Sep-20,331507,2019-08-12 10:30:13:997,-0.4445,0.0212,9.7784,-0.381,0.0803,9.7989,0.0114,0.0067,-0.0049
6756,45.633858,0.211599,185.91,6.29,16.08,201.8,Sep-20,331607,2019-08-12 10:30:14:097,-0.444,-0.2548,9.9526,-0.3758,0.0792,9.7991,0.006,-0.005,-0.006
6757,45.632656,0.21013,181.28,22.28,10.72,214.8,0 / 21,331707,2019-08-12 10:30:14:197,-0.3823,-0.2374,10.0926,-0.3793,0.0758,9.799,0.0039,0.0056,-0.006
6758,45.632656,0.21013,181.28,22.28,10.72,214.8,0 / 21,331806,2019-08-12 10:30:14:296,-0.2027,-0.1135,9.3474,-0.3982,0.0796,9.7982,0.0103,0.0237,-0.0049
6759,45.632656,0.21013,181.28,22.28,10.72,214.8,0 / 21,331908,2019-08-12 10:30:14:398,-0.3045,0.2953,9.1625,-0.4188,0.0759,9.7974,-0.0036,0.028,-0.006
6760,45.632656,0.21013,181.28,22.28,10.72,214.8,0 / 21,332080,2019-08-12 10:30:14:570,-0.4685,-0.4924,9.2343,-0.4431,0.0517,9.7965,-0.0099,0.0131,-0.0113
6761,45.632656,0.21013,181.28,22.28,10.72,214.8,0 / 21,332106,2019-08-12 10:30:14:596,-0.4685,-0.4924,9.2343,-0.4431,0.0517,9.7965,-0.0099,0.0131,-0.0113
6762,45.632656,0.21013,181.28,22.28,10.72,214.8,0 / 21,332206,2019-08-12 10:30:14:696,-0.4685,-0.4924,9.2343,-0.4431,0.0517,9.7965,-0.0099,0.0131,-0.0113
6763,45.632656,0.21013,181.28,22.28,10.72,214.8,0 / 21,332306,2019-08-12 10:30:14:796,-0.4302,-0.3661,9.7802,-0.4296,-0.0096,9.7972,-0.0174,0.0035,-0.0156
6764,45.632656,0.21013,181.28,22.28,10.72,214.8,0 / 21,332406,2019-08-12 10:30:14:896,-0.4667,-0.4589,9.4803,-0.4653,-0.1086,9.795,0.006,0.0056,-0.0198
6765,45.632656,0.21013,181.28,22.28,10.72,214.8,0 / 21,332506,2019-08-12 10:30:14:996,-0.3446,-0.3996,9.6898,-0.4811,-0.1212,9.7941,0.005,0.012,-0.0198
6766,45.632656,0.21013,181.28,22.28,10.72,214.8,0 / 21,332606,2019-08-12 10:30:15:096,-0.5648,-0.5343,9.7449,-0.5084,-0.1601,9.7922,0.005,0.0056,-0.0198
6767,45.632656,0.21013,181.28,22.28,10.72,214.8,0 / 21,332706,2019-08-12 10:30:15:196,-0.6295,-0.5056,10.3991,-0.5222,-0.2318,9.79,-0.0014,-0.0189,-0.0188
6768,45.632656,0.21013,181.28,22.28,10.72,214.8,0 / 21,332806,2019-08-12 10:30:15:296,-0.6882,-0.481,9.8245,-0.5127,-0.2483,9.7901,-0.0121,-0.0146,-0.0177
6769,45.632656,0.21013,181.28,22.28,10.72,214.8,0 / 21,332906,2019-08-12 10:30:15:396,-0.5158,-0.3721,9.4073,-0.525,-0.2673,9.7889,-0.0153,0.012,-0.0198
6770,45.632656,0.21013,181.28,22.28,10.72,214.8,0 / 21,333006,2019-08-12 10:30:15:496,-0.7354,-0.329,9.8981,-0.5273,-0.2819,9.7884,-0.0089,0.0024,-0.0209
6771,45.632656,0.21013,181.28,22.28,10.72,214.8,0 / 21,333106,2019-08-12 10:30:15:596,-0.5259,-0.5199,9.7119,-0.5205,-0.2996,9.7882,-0.0057,-0.0072,-0.0188
6772,45.632656,0.21013,181.28,22.28,10.72,214.8,0 / 21,333206,2019-08-12 10:30:15:696,-0.7516,-0.3577,9.3277,-0.5256,-0.2983,9.788,0.0135,0.0088,-0.0156
6773,45.632656,0.21013,181.28,22.28,10.72,214.8,0 / 21,333306,2019-08-12 10:30:15:796,-0.3188,-0.2063,9.5449,-0.5424,-0.2884,9.7874,0.0156,0.012,-0.0145
6774,45.632656,0.21013,181.28,22.28,10.72,214.8,0 / 21,333406,2019-08-12 10:30:15:896,-0.6469,-0.4774,9.594,-0.5495,-0.2814,9.7872,0.0124,0.0046,-0.0156
6775,45.632656,0.21013,181.28,22.28,10.72,214.8,0 / 21,333506,2019-08-12 10:30:15:996,-0.5774,-0.396,9.8969,-0.5479,-0.2738,9.7875,0.0114,-0.0061,-0.0166
6776,45.632656,0.21013,181.28,22.28,10.72,214.8,0 / 21,333606,2019-08-12 10:30:16:096,-0.7797,-0.4325,10.1746,-0.5453,-0.2766,9.7876,-0.0004,-0.0018,-0.0177
6777,45.632656,0.21013,181.28,22.28,10.72,214.8,0 / 21,333706,2019-08-12 10:30:16:196,-0.672,-0.3667,10.1824,-0.5662,-0.3138,9.7853,-0.0004,0.0024,-0.0177
6778,45.632656,0.21013,181.28,22.28,10.72,214.8,0 / 21,333806,2019-08-12 10:30:16:296,-0.6618,-0.4996,9.664,-0.5787,-0.3204,9.7843,0.0028,0.0067,-0.0166
6779,45.632656,0.21013,181.28,22.28,10.72,214.8,0 / 21,333906,2019-08-12 10:30:16:396,-0.651,-0.5965,9.7885,-0.5909,-0.3219,9.7835,0.005,0.0024,-0.0166
6780,45.632656,0.21013,181.28,22.28,10.72,214.8,0 / 21,334006,2019-08-12 10:30:16:496,-0.6588,-0.4086,10.1357,-0.5908,-0.3327,9.7832,-0.0025,-0.0082,-0.0177
6781,45.632656,0.21013,181.28,22.28,10.72,214.8,0 / 21,334106,2019-08-12 10:30:16:596,-0.6654,-0.3811,9.7724,-0.588,-0.3462,9.7829,0.0018,-0.0157,-0.0177
6782,45.632656,0.21013,181.28,22.28,10.72,214.8,0 / 21,334206,2019-08-12 10:30:16:696,-0.6253,-0.4942,9.7449,-0.5763,-0.3487,9.7835,0.0071,-0.0104,-0.0188
6783,45.632656,0.21013,181.28,22.28,10.72,214.8,0 / 21,334306,2019-08-12 10:30:16:796,-0.6026,-0.6229,9.8388,-0.5777,-0.3744,9.7825,0.0028,0.0067,-0.0209
6784,45.632656,0.21013,181.28,22.28,10.72,214.8,0 / 21,334406,2019-08-12 10:30:16:896,-0.5295,-0.6097,9.4228,-0.5872,-0.4044,9.7807,-0.0068,0.0099,-0.0262
6785,45.632656,0.21013,181.28,22.28,10.72,214.8,0 / 21,334508,2019-08-12 10:30:16:998,-0.6882,-0.5259,9.5563,-0.5942,-0.4392,9.7788,-0.0046,0.0003,-0.0358
6786,45.632656,0.21013,181.28,22.28,10.72,214.8,0 / 21,334607,2019-08-12 10:30:17:097,-0.6798,-0.7911,9.8394,-0.5921,-0.4584,9.778,-0.0132,-0.0061,-0.0358
6787,45.632656,0.21013,181.28,22.28,10.72,214.8,0 / 21,334706,2019-08-12 10:30:17:196,-0.593,-0.9497,9.9298,-0.5861,-0.4876,9.777,-0.0057,-0.0018,-0.0347
6788,45.632656,0.21013,181.28,22.28,10.72,214.8,0 / 21,334806,2019-08-12 10:30:17:296,-0.7025,-1.0916,9.6844,-0.6069,-0.555,9.7721,0.005,0.0067,-0.0337
6789,45.632656,0.21013,181.28,22.28,10.72,214.8,0 / 21,334906,2019-08-12 10:30:17:396,-0.7989,-0.8294,9.8879,-0.6251,-0.5976,9.7685,0.005,0.0141,-0.0337
6790,45.632656,0.21013,181.28,22.28,10.72,214.8,0 / 21,335007,2019-08-12 10:30:17:497,-0.8162,-0.5044,9.6479,-0.6371,-0.6434,9.7648,-0.0036,-0.0029,-0.0337
6791,45.632656,0.21013,181.28,22.28,10.72,214.8,0 / 21,335106,2019-08-12 10:30:17:596,-0.5744,-0.7791,9.8131,-0.6573,-0.7007,9.7595,0.0082,0.0035,-0.0315
6792,45.632656,0.21013,181.28,22.28,10.72,214.8,0 / 21,335206,2019-08-12 10:30:17:696,-0.833,-0.6426,9.8921,-0.6616,-0.7085,9.7586,0.0071,-0.005,-0.0315
6793,45.632656,0.21013,181.28,22.28,10.72,214.8,0 / 21,335306,2019-08-12 10:30:17:796,-1.1371,-0.8647,10.1776,-0.6785,-0.739,9.7552,0.0018,0.0046,-0.0315
6794,45.632656,0.21013,181.28,22.28,10.72,214.8,0 / 21,335406,2019-08-12 10:30:17:896,-0.9599,-0.9503,10.195,-0.6869,-0.738,9.7547,0.0028,0.0003,-0.0337
6795,45.632656,0.21013,181.28,22.28,10.72,214.8,0 / 21,335506,2019-08-12 10:30:17:996,-0.9102,-1.0425,9.4713,-0.6904,-0.7386,9.7544,0.0071,-0.004,-0.0347
6796,45.632656,0.21013,181.28,22.28,10.72,214.8,0 / 21,335606,2019-08-12 10:30:18:096,-0.8773,-0.8485,9.3744,-0.6993,-0.7403,9.7536,0.0071,0.0078,-0.0358
6797,45.632656,0.21013,181.28,22.28,10.72,214.8,0 / 21,335707,2019-08-12 10:30:18:197,-1.3118,-0.9228,9.7856,-0.7231,-0.7493,9.7512,0.0018,0.0046,-0.0379
6798,45.632656,0.21013,181.28,22.28,10.72,214.8,0 / 21,335806,2019-08-12 10:30:18:296,-1.1371,-1.0628,10.0088,-0.7339,-0.758,9.7497,-0.0025,0.0024,-0.0401
6799,45.632656,0.21013,181.28,22.28,10.72,214.8,0 / 21,335906,2019-08-12 10:30:18:396,-1.3555,-0.891,9.8287,-0.79,-0.7816,9.7435,-0.0068,-0.0029,-0.039
6800,45.632656,0.21013,181.28,22.28,10.72,214.8,0 / 21,336006,2019-08-12 10:30:18:496,-1.24,-0.8144,9.3181,-0.8301,-0.79,9.7395,0.0039,0.0195,-0.0369
6801,45.632656,0.21013,181.28,22.28,10.72,214.8,0 / 21,336107,2019-08-12 10:30:18:597,-1.4034,-0.8827,9.8873,-0.8548,-0.7879,9.7375,0.0156,0.0099,-0.0379
6802,45.632656,0.21013,181.28,22.28,10.72,214.8,0 / 21,336206,2019-08-12 10:30:18:696,-1.3896,-1.2011,9.5952,-0.868,-0.783,9.7367,0.0199,-0.0061,-0.039
6803,45.632656,0.21013,181.28,22.28,10.72,214.8,0 / 21,336306,2019-08-12 10:30:18:796,-1.4507,-0.8641,9.9669,-0.8773,-0.7936,9.735,-0.0014,-0.0093,-0.0411
6804,45.632656,0.21013,181.28,22.28,10.72,214.8,0 / 21,336406,2019-08-12 10:30:18:896,-1.5357,-1.1149,9.6958,-0.9885,-0.8303,9.7213,0.0082,-0.0114,-0.0422
6805,45.632656,0.21013,181.28,22.28,10.72,214.8,0 / 21,336508,2019-08-12 10:30:18:998,-1.4746,-1.0161,9.7646,-1.0417,-0.8479,9.7142,0.006,0.0078,-0.0401
6806,45.632656,0.21013,181.28,22.28,10.72,214.8,0 / 21,336606,2019-08-12 10:30:19:096,-1.4609,-0.8773,10.0782,-1.0674,-0.8541,9.7109,-0.0004,0.0216,-0.039
6807,45.632656,0.21013,181.28,22.28,10.72,214.8,0 / 21,336708,2019-08-12 10:30:19:198,-1.4328,-0.9347,9.5425,-1.1006,-0.8594,9.7067,0.0039,0.0109,-0.0433
6808,45.632656,0.21013,181.28,22.28,10.72,214.8,0 / 21,336807,2019-08-12 10:30:19:297,-1.3513,-0.8988,9.3444,-1.2305,-0.9009,9.6873,-0.0057,0.012,-0.0433
6809,45.632656,0.21013,181.28,22.28,10.72,214.8,0 / 21,336907,2019-08-12 10:30:19:397,-1.5339,-1.0107,9.773,-1.291,-0.9199,9.6777,0.006,-0.005,-0.0422
6810,45.632656,0.21013,181.28,22.28,10.72,214.8,0 / 21,337006,2019-08-12 10:30:19:496,-1.4615,-1.0341,10.2045,-1.3055,-0.9324,9.6745,0.0018,-0.0168,-0.0411
6811,45.632656,0.21013,181.28,22.28,10.72,214.8,0 / 21,337108,2019-08-12 10:30:19:598,-1.6027,-1.1544,10.4565,-1.2948,-0.9328,9.6759,0.0039,-0.0189,-0.0411
6812,45.632656,0.21013,181.28,22.28,10.72,214.8,0 / 21,337207,2019-08-12 10:30:19:697,-1.5046,-0.9198,10.0124,-1.3029,-0.9412,9.674,0.0007,0.0163,-0.0411
6813,45.632656,0.21013,181.28,22.28,10.72,214.8,0 / 21,337306,2019-08-12 10:30:19:796,-1.1095,-1.1083,9.9561,-1.3127,-0.9489,9.672,-0.0014,0.0088,-0.0443
6814,45.632656,0.21013,181.28,22.28,10.72,214.8,0 / 21,337406,2019-08-12 10:30:19:896,-0.9653,-1.2639,9.8041,-1.2871,-0.9643,9.6739,-0.0046,-0.0199,-0.0454
6815,45.632656,0.21013,181.28,22.28,10.72,214.8,0 / 21,337506,2019-08-12 10:30:19:996,-1.2269,-1.0269,9.937,-1.2614,-0.9738,9.6763,-0.0004,-0.0199,-0.0475
6816,45.632656,0.21013,181.28,22.28,10.72,214.8,0 / 21,337606,2019-08-12 10:30:20:096,-1.1215,-1.1418,9.9047,-1.2265,-1.0031,9.6778,0.0018,0.0046,-0.0475
6817,45.632656,0.21013,181.28,22.28,10.72,214.8,0 / 21,337706,2019-08-12 10:30:20:196,-1.1335,-1.1203,9.9819,-1.2068,-1.0199,9.6785,0.0092,0.0099,-0.0486
6818,45.632656,0.21013,181.28,22.28,10.72,214.8,0 / 21,337806,2019-08-12 10:30:20:296,-1.1113,-1.1424,9.9926,-1.1751,-1.0549,9.6787,0.0028,0.0078,-0.0465
6819,45.632656,0.21013,181.28,22.28,10.72,214.8,0 / 21,337906,2019-08-12 10:30:20:396,-1.0874,-0.924,10.1806,-1.1442,-1.0601,9.6818,0.006,-0.0093,-0.0443
6820,45.632656,0.21013,181.28,22.28,10.72,214.8,0 / 21,338008,2019-08-12 10:30:20:498,-1.0144,-1.0293,9.6802,-1.1044,-1.0323,9.6894,0.0135,-0.0072,-0.0369
6821,45.632656,0.21013,181.28,22.28,10.72,214.8,0 / 21,338106,2019-08-12 10:30:20:596,-0.9952,-0.8701,10.0082,-1.091,-0.9767,9.6967,0.0199,-0.0029,-0.0294
6822,45.632656,0.21013,181.28,22.28,10.72,214.8,0 / 21,338207,2019-08-12 10:30:20:697,-1.1107,-0.8048,10.0016,-1.0771,-0.8962,9.706,0.0103,-0.005,-0.0284
6823,45.632656,0.21013,181.28,22.28,10.72,214.8,0 / 21,338306,2019-08-12 10:30:20:796,-0.912,-0.7396,10.034,-1.0652,-0.8504,9.7115,0.0082,-0.0061,-0.0305
6824,45.632656,0.21013,181.28,22.28,10.72,214.8,0 / 21,338406,2019-08-12 10:30:20:896,-1.1161,-0.7204,10.1088,-1.0426,-0.7936,9.7187,-0.0099,-0.0082,-0.0337
6825,45.632656,0.21013,181.28,22.28,10.72,214.8,0 / 21,338507,2019-08-12 10:30:20:997,-0.9006,-0.7988,10.1788,-1.0353,-0.7772,9.7208,-0.0014,-0.0178,-0.0326
6826,45.632656,0.21013,181.28,22.28,10.72,214.8,0 / 21,338607,2019-08-12 10:30:21:097,-1.0263,-0.7216,9.7778,-1.0312,-0.7761,9.7214,0.0007,0.0035,-0.0305
6827,45.632656,0.21013,181.28,22.28,10.72,214.8,0 / 21,338706,2019-08-12 10:30:21:196,-1.015,-0.7426,9.8454,-1.0355,-0.7738,9.7211,-0.0046,0.0035,-0.0315
6828,45.632656,0.21013,181.28,22.28,10.72,214.8,0 / 21,338806,2019-08-12 10:30:21:296,-1.0778,-0.7354,9.7383,-1.0324,-0.7591,9.7226,0.0071,-0.0008,-0.0315
6829,45.632656,0.21013,181.28,22.28,10.72,214.8,0 / 21,338906,2019-08-12 10:30:21:396,-1.1449,-0.9377,10.0848,-1.033,-0.76,9.7224,0.005,-0.0061,-0.0315
6830,45.632656,0.21013,181.28,22.28,10.72,214.8,0 / 21,339006,2019-08-12 10:30:21:496,-1.1024,-0.6115,9.5432,-1.0241,-0.7579,9.7235,0.0039,0.0014,-0.0305
6831,45.632656,0.21013,181.28,22.28,10.72,214.8,0 / 21,339106,2019-08-12 10:30:21:596,-1.0748,-0.6492,8.9643,-1.0245,-0.7569,9.7236,0.0082,-0.0168,-0.0326
6832,45.632656,0.21013,181.28,22.28,10.72,214.8,0 / 21,339206,2019-08-12 10:30:21:696,-1.1939,-0.4792,9.9041,-1.0223,-0.7553,9.7239,0.006,0.0067,-0.0315
6833,45.632656,0.21013,181.28,22.28,10.72,214.8,0 / 21,339308,2019-08-12 10:30:21:798,-1.1012,-0.6845,9.8628,-1.0276,-0.7493,9.7238,0.0092,-0.0018,-0.0326
6834,45.632656,0.21013,181.28,22.28,10.72,214.8,0 / 21,339408,2019-08-12 10:30:21:898,-0.9814,-0.6594,10.1303,-1.0151,-0.7519,9.7249,-0.0089,-0.0146,-0.0326
6835,45.632656,0.21013,181.28,22.28,10.72,214.8,0 / 21,339507,2019-08-12 10:30:21:997,-0.9084,-0.9198,9.7885,-1.023,-0.754,9.724,-0.0089,0.0131,-0.0369
6836,45.632656,0.21013,181.28,22.28,10.72,214.8,0 / 21,339606,2019-08-12 10:30:22:096,-0.672,-1.2783,10.4853,-1.0247,-0.7748,9.7221,-0.0036,-0.0093,-0.0465
6837,45.632656,0.21013,181.28,22.28,10.72,214.8,Aug-21,339706,2019-08-12 10:30:22:196,-1.2017,-0.9928,10.271,-1.015,-0.7842,9.7224,-0.0078,-0.0242,-0.0497
6838,45.632656,0.21013,181.28,22.28,10.72,214.8,Aug-21,339806,2019-08-12 10:30:22:296,-1.0191,-1.2274,10.2081,-0.9818,-0.8167,9.7231,-0.0025,-0.005,-0.0507
6839,45.632656,0.21013,181.28,22.28,10.72,214.8,Aug-21,339906,2019-08-12 10:30:22:396,-1.1838,-1.249,9.9424,-0.978,-0.8351,9.722,-0.0014,-0.0018,-0.0529
6840,45.632656,0.21013,181.28,22.28,10.72,214.8,0 / 21,340256,2019-08-12 10:30:22:746,-1.1646,-1.2669,9.6347,-0.977,-0.8423,9.7214,0.0018,0.0003,-0.0539
6841,45.632656,0.21013,181.28,22.28,10.72,214.8,0 / 21,340257,2019-08-12 10:30:22:747,-1.1646,-1.2669,9.6347,-0.977,-0.8423,9.7214,0.0018,0.0003,-0.0539
6842,45.632656,0.21013,181.28,22.28,10.72,214.8,0 / 21,340258,2019-08-12 10:30:22:748,-1.1646,-1.2669,9.6347,-0.977,-0.8423,9.7214,0.0018,0.0003,-0.0539
6843,45.632656,0.21013,181.28,22.28,10.72,214.8,0 / 21,340258,2019-08-12 10:30:22:748,-1.1646,-1.2669,9.6347,-0.977,-0.8423,9.7214,0.0018,0.0003,-0.0539
6844,45.632656,0.21013,181.28,22.28,10.72,214.8,0 / 21,340258,2019-08-12 10:30:22:748,-1.1646,-1.2669,9.6347,-0.977,-0.8423,9.7214,0.0018,0.0003,-0.0539
6845,45.632656,0.21013,181.28,22.28,10.72,214.8,0 / 21,340259,2019-08-12 10:30:22:749,-1.1646,-1.2669,9.6347,-0.977,-0.8423,9.7214,0.0018,0.0003,-0.0539
6846,45.632656,0.21013,181.28,22.28,10.72,214.8,0 / 21,340259,2019-08-12 10:30:22:749,-1.1646,-1.2669,9.6347,-0.977,-0.8423,9.7214,0.0018,0.0003,-0.0539
6847,45.632656,0.21013,181.28,22.28,10.72,214.8,0 / 21,340260,2019-08-12 10:30:22:750,-1.1646,-1.2669,9.6347,-0.977,-0.8423,9.7214,0.0018,0.0003,-0.0539
6848,45.631073,0.208357,172.37,23.15,7.504,229.6,0 / 21,340342,2019-08-12 10:30:22:832,-1.1646,-1.2669,9.6347,-0.977,-0.8423,9.7214,0.0018,0.0003,-0.0539
6849,45.631073,0.208357,172.37,23.15,7.504,229.6,0 / 21,340444,2019-08-12 10:30:22:934,-1.1646,-1.2669,9.6347,-0.977,-0.8423,9.7214,0.0018,0.0003,-0.0539
6850,45.631073,0.208357,172.37,23.15,7.504,229.6,0 / 21,340543,2019-08-12 10:30:23:033,-0.8677,-1.1065,9.5419,-0.8676,-1.0762,9.7087,0.006,0.0003,-0.0454
6851,45.631073,0.208357,172.37,23.15,7.504,229.6,0 / 21,340643,2019-08-12 10:30:23:133,-0.8677,-1.1065,9.5419,-0.8701,-1.0759,9.7085,0.0018,0.0024,-0.0454
6852,45.631073,0.208357,172.37,23.15,7.504,229.6,0 / 21,340743,2019-08-12 10:30:23:233,-0.8677,-1.1065,9.5419,-0.8701,-1.0759,9.7085,0.0018,0.0024,-0.0454
6853,45.631073,0.208357,172.37,23.15,7.504,229.6,0 / 21,340843,2019-08-12 10:30:23:333,-0.7797,-1.064,9.8011,-0.8835,-1.0837,9.7065,0.0114,-0.0082,-0.0465
6854,45.631073,0.208357,172.37,23.15,7.504,229.6,0 / 21,341151,2019-08-12 10:30:23:641,-0.7797,-1.064,9.8011,-0.8835,-1.0837,9.7065,0.0114,-0.0082,-0.0465
6855,45.631073,0.208357,172.37,23.15,7.504,229.6,0 / 21,341151,2019-08-12 10:30:23:641,-0.7797,-1.064,9.8011,-0.8835,-1.0837,9.7065,0.0114,-0.0082,-0.0465
6856,45.631073,0.208357,172.37,23.15,7.504,229.6,0 / 21,341152,2019-08-12 10:30:23:642,-0.7797,-1.064,9.8011,-0.8835,-1.0837,9.7065,0.0114,-0.0082,-0.0465
6857,45.631073,0.208357,172.37,23.15,7.504,229.6,0 / 21,341152,2019-08-12 10:30:23:642,-0.7797,-1.064,9.8011,-0.8835,-1.0837,9.7065,0.0114,-0.0082,-0.0465
6858,45.631073,0.208357,172.37,23.15,7.504,229.6,0 / 21,341152,2019-08-12 10:30:23:642,-0.7797,-1.064,9.8011,-0.8835,-1.0837,9.7065,0.0114,-0.0082,-0.0465
6859,45.631073,0.208357,172.37,23.15,7.504,229.6,0 / 21,341153,2019-08-12 10:30:23:643,-0.7797,-1.064,9.8011,-0.8835,-1.0837,9.7065,0.0114,-0.0082,-0.0465
6860,45.631073,0.208357,172.37,23.15,7.504,229.6,0 / 21,341154,2019-08-12 10:30:23:644,-0.7797,-1.064,9.8011,-0.8835,-1.0837,9.7065,0.0114,-0.0082,-0.0465
6861,45.631073,0.208357,172.37,23.15,7.504,229.6,0 / 21,341154,2019-08-12 10:30:23:644,-0.7797,-1.064,9.8011,-0.8835,-1.0837,9.7065,0.0114,-0.0082,-0.0465
6862,45.631073,0.208357,172.37,23.15,7.504,229.6,0 / 21,341155,2019-08-12 10:30:23:645,-0.7797,-1.064,9.8011,-0.8835,-1.0837,9.7065,0.0114,-0.0082,-0.0465
6863,45.631073,0.208357,172.37,23.15,7.504,229.6,0 / 21,341155,2019-08-12 10:30:23:645,-0.7797,-1.064,9.8011,-0.8835,-1.0837,9.7065,0.0114,-0.0082,-0.0465
6864,45.631073,0.208357,172.37,23.15,7.504,229.6,0 / 21,341155,2019-08-12 10:30:23:645,-0.7797,-1.064,9.8011,-0.8835,-1.0837,9.7065,0.0114,-0.0082,-0.0465
6865,45.631073,0.208357,172.37,23.15,7.504,229.6,0 / 21,341155,2019-08-12 10:30:23:645,-0.7797,-1.064,9.8011,-0.8835,-1.0837,9.7065,0.0114,-0.0082,-0.0465
6866,45.631073,0.208357,172.37,23.15,7.504,229.6,0 / 21,341157,2019-08-12 10:30:23:647,-0.7797,-1.064,9.8011,-0.8835,-1.0837,9.7065,0.0114,-0.0082,-0.0465
6867,45.631073,0.208357,172.37,23.15,7.504,229.6,0 / 21,341157,2019-08-12 10:30:23:647,-0.7797,-1.064,9.8011,-0.8835,-1.0837,9.7065,0.0114,-0.0082,-0.0465
6868,45.631073,0.208357,172.37,23.15,7.504,229.6,0 / 21,341157,2019-08-12 10:30:23:647,-0.7797,-1.064,9.8011,-0.8835,-1.0837,9.7065,0.0114,-0.0082,-0.0465
6869,45.631073,0.208357,172.37,23.15,7.504,229.6,0 / 21,341158,2019-08-12 10:30:23:648,-0.7797,-1.064,9.8011,-0.8835,-1.0837,9.7065,0.0114,-0.0082,-0.0465
6870,45.631073,0.208357,172.37,23.15,7.504,229.6,0 / 21,341158,2019-08-12 10:30:23:648,-0.7797,-1.064,9.8011,-0.8835,-1.0837,9.7065,0.0114,-0.0082,-0.0465
6871,45.631073,0.208357,172.37,23.15,7.504,229.6,0 / 21,341159,2019-08-12 10:30:23:649,-0.7797,-1.064,9.8011,-0.8835,-1.0837,9.7065,0.0114,-0.0082,-0.0465
6872,45.631073,0.208357,172.37,23.15,7.504,229.6,0 / 21,341161,2019-08-12 10:30:23:651,-0.7797,-1.064,9.8011,-0.8835,-1.0837,9.7065,0.0114,-0.0082,-0.0465
6873,45.631073,0.208357,172.37,23.15,7.504,229.6,0 / 21,341164,2019-08-12 10:30:23:654,-0.7797,-1.064,9.8011,-0.8835,-1.0837,9.7065,0.0114,-0.0082,-0.0465
6874,45.631073,0.208357,172.37,23.15,7.504,229.6,0 / 21,341165,2019-08-12 10:30:23:655,-0.7797,-1.064,9.8011,-0.8835,-1.0837,9.7065,0.0114,-0.0082,-0.0465
6875,45.631073,0.208357,172.37,23.15,7.504,229.6,0 / 21,341166,2019-08-12 10:30:23:656,-0.7797,-1.064,9.8011,-0.8835,-1.0837,9.7065,0.0114,-0.0082,-0.0465
6876,45.631073,0.208357,172.37,23.15,7.504,229.6,0 / 21,341166,2019-08-12 10:30:23:656,-0.7797,-1.064,9.8011,-0.8835,-1.0837,9.7065,0.0114,-0.0082,-0.0465
6877,45.631073,0.208357,172.37,23.15,7.504,229.6,0 / 21,341166,2019-08-12 10:30:23:656,-0.7797,-1.064,9.8011,-0.8835,-1.0837,9.7065,0.0114,-0.0082,-0.0465
6878,45.631073,0.208357,172.37,23.15,7.504,229.6,0 / 21,341166,2019-08-12 10:30:23:656,-0.7797,-1.064,9.8011,-0.8835,-1.0837,9.7065,0.0114,-0.0082,-0.0465
6879,45.631073,0.208357,172.37,23.15,7.504,229.6,0 / 21,341167,2019-08-12 10:30:23:657,-0.7797,-1.064,9.8011,-0.8835,-1.0837,9.7065,0.0114,-0.0082,-0.0465
6880,45.631073,0.208357,172.37,23.15,7.504,229.6,0 / 21,341167,2019-08-12 10:30:23:657,-0.7797,-1.064,9.8011,-0.8835,-1.0837,9.7065,0.0114,-0.0082,-0.0465
6881,45.631073,0.208357,172.37,23.15,7.504,229.6,0 / 21,341167,2019-08-12 10:30:23:657,-0.7797,-1.064,9.8011,-0.8835,-1.0837,9.7065,0.0114,-0.0082,-0.0465
6882,45.631073,0.208357,172.37,23.15,7.504,229.6,0 / 21,341167,2019-08-12 10:30:23:657,-0.7797,-1.064,9.8011,-0.8835,-1.0837,9.7065,0.0114,-0.0082,-0.0465
6883,45.631073,0.208357,172.37,23.15,7.504,229.6,0 / 21,341168,2019-08-12 10:30:23:658,-0.7797,-1.064,9.8011,-0.8835,-1.0837,9.7065,0.0114,-0.0082,-0.0465
6884,45.631073,0.208357,172.37,23.15,7.504,229.6,0 / 21,341169,2019-08-12 10:30:23:659,-0.7797,-1.064,9.8011,-0.8835,-1.0837,9.7065,0.0114,-0.0082,-0.0465
6885,45.631073,0.208357,172.37,23.15,7.504,229.6,0 / 21,341170,2019-08-12 10:30:23:660,-0.7797,-1.064,9.8011,-0.8835,-1.0837,9.7065,0.0114,-0.0082,-0.0465
6886,45.631073,0.208357,172.37,23.15,7.504,229.6,0 / 21,341171,2019-08-12 10:30:23:661,-0.7797,-1.064,9.8011,-0.8835,-1.0837,9.7065,0.0114,-0.0082,-0.0465
6887,45.631073,0.208357,172.37,23.15,7.504,229.6,0 / 21,341171,2019-08-12 10:30:23:661,-0.7797,-1.064,9.8011,-0.8835,-1.0837,9.7065,0.0114,-0.0082,-0.0465
6888,45.631073,0.208357,172.37,23.15,7.504,229.6,0 / 21,341172,2019-08-12 10:30:23:662,-0.7797,-1.064,9.8011,-0.8835,-1.0837,9.7065,0.0114,-0.0082,-0.0465
6889,45.631073,0.208357,172.37,23.15,7.504,229.6,0 / 21,341183,2019-08-12 10:30:23:673,-0.7797,-1.064,9.8011,-0.8835,-1.0837,9.7065,0.0114,-0.0082,-0.0465
6890,45.631073,0.208357,172.37,23.15,7.504,229.6,0 / 21,341283,2019-08-12 10:30:23:773,-0.7797,-1.064,9.8011,-0.8835,-1.0837,9.7065,0.0114,-0.0082,-0.0465
6891,45.631073,0.208357,172.37,23.15,7.504,229.6,0 / 21,341383,2019-08-12 10:30:23:873,-0.9767,-1.2687,10.0106,-0.9188,-0.1521,9.7623,0.0092,-0.005,-0.0454
6892,45.631073,0.208357,172.37,23.15,7.504,229.6,0 / 21,341483,2019-08-12 10:30:23:973,-1.0628,0.1181,9.846,-0.934,-0.1222,9.7613,-0.0089,0.0035,0.0015
6893,45.631073,0.208357,172.37,23.15,7.504,229.6,0 / 21,341583,2019-08-12 10:30:24:073,-0.8863,0.0002,9.858,-0.9456,-0.0834,9.7606,-0.011,-0.0061,-0.0007
6894,45.631073,0.208357,172.37,23.15,7.504,229.6,0 / 21,341683,2019-08-12 10:30:24:173,-0.9318,0.09,9.9286,-0.9357,-0.0472,9.7618,-0.0121,-0.0008,0.0004
6895,45.631073,0.208357,172.37,23.15,7.504,229.6,0 / 21,341782,2019-08-12 10:30:24:272,-1.0652,0.1026,10.0812,-0.9443,-0.0274,9.761,-0.0014,-0.0082,0.0004
6896,45.631073,0.208357,172.37,23.15,7.504,229.6,0 / 21,341883,2019-08-12 10:30:24:373,-1.0934,-0.0166,9.9903,-0.9285,-0.0175,9.7626,0.0114,-0.0157,0.0004
6897,45.631073,0.208357,172.37,23.15,7.504,229.6,0 / 21,341983,2019-08-12 10:30:24:473,-0.9336,0.0685,9.6611,-0.9266,-0.0145,9.7628,-0.0014,-0.0061,0.0015
6898,45.631073,0.208357,172.37,23.15,7.504,229.6,0 / 21,342085,2019-08-12 10:30:24:575,-0.8599,0.2325,9.6102,-0.928,-0.0104,9.7626,0.005,0.0088,0.0004
6899,45.631073,0.208357,172.37,23.15,7.504,229.6,0 / 21,342184,2019-08-12 10:30:24:674,-0.8749,0.075,10.0699,-0.94,0.0053,9.7615,0.0018,0.0035,0.0015
6900,45.631073,0.208357,172.37,23.15,7.504,229.6,0 / 21,342283,2019-08-12 10:30:24:773,-1.0575,0.1421,9.8227,-0.9442,0.0301,9.761,-0.0089,0.0056,0.0025
6901,45.631073,0.208357,172.37,23.15,7.504,229.6,0 / 21,342383,2019-08-12 10:30:24:873,-0.8546,0.0409,10.0812,-0.9483,0.0386,9.7606,-0.0057,-0.0221,0.0015
6902,45.631073,0.208357,172.37,23.15,7.504,229.6,0 / 21,342483,2019-08-12 10:30:24:973,-0.8988,0.0685,10.0286,-0.9331,0.0486,9.762,-0.0004,-0.0189,0.0015
6903,45.631073,0.208357,172.37,23.15,7.504,229.6,0 / 21,342583,2019-08-12 10:30:25:073,-1.0,-0.2033,9.8747,-0.9329,0.0477,9.7621,0.0007,-0.0029,0.0015
6904,45.631073,0.208357,172.37,23.15,7.504,229.6,0 / 21,342683,2019-08-12 10:30:25:173,-1.076,0.0188,9.7006,-0.9432,0.0675,9.761,0.0092,0.0099,0.0015
6905,45.631073,0.208357,172.37,23.15,7.504,229.6,0 / 21,342783,2019-08-12 10:30:25:273,-1.1,-0.068,10.0046,-0.9558,0.0742,9.7597,0.0103,0.0184,0.0004
6906,45.631073,0.208357,172.37,23.15,7.504,229.6,0 / 21,342882,2019-08-12 10:30:25:372,-0.9779,-0.0602,9.9053,-0.959,0.0792,9.7593,0.0007,-0.0168,0.0004
6907,45.631073,0.208357,172.37,23.15,7.504,229.6,0 / 21,342983,2019-08-12 10:30:25:473,-0.8725,-0.0303,9.7981,-0.9262,0.0778,9.7625,-0.0004,-0.021,0.0004
6908,45.631073,0.208357,172.37,23.15,7.504,229.6,0 / 21,343084,2019-08-12 10:30:25:574,-0.8587,0.1977,9.8394,-0.8839,0.0751,9.7664,-0.0046,-0.005,-0.0007
6909,45.631073,0.208357,172.37,23.15,7.504,229.6,0 / 21,343183,2019-08-12 10:30:25:673,-0.7642,0.2474,9.867,-0.8688,0.0666,9.7679,0.0007,-0.0008,-0.0028
6910,45.631073,0.208357,172.37,23.15,7.504,229.6,0 / 21,343283,2019-08-12 10:30:25:773,-0.6828,-0.1315,10.0393,-0.8234,0.0425,9.7719,-0.0004,-0.005,-0.0038
6911,45.631073,0.208357,172.37,23.15,7.504,229.6,0 / 21,343383,2019-08-12 10:30:25:873,-0.7767,-0.0513,9.7018,-0.8206,0.0283,9.7722,-0.0025,-0.004,-0.0038
6912,45.631073,0.208357,172.37,23.15,7.504,229.6,0 / 21,343483,2019-08-12 10:30:25:973,-0.8103,-0.1129,10.0998,-0.7895,0.0046,9.7748,0.0018,0.0046,-0.0038
6913,45.631073,0.208357,172.37,23.15,7.504,229.6,0 / 21,343583,2019-08-12 10:30:26:073,-0.6989,0.0493,9.7969,-0.7697,-0.006,9.7764,-0.0068,0.0014,-0.0038
6914,45.631073,0.208357,172.37,23.15,7.504,229.6,0 / 21,343683,2019-08-12 10:30:26:173,-0.7294,-0.1123,9.9998,-0.7295,-0.0241,9.7795,-0.0004,-0.0221,-0.0038
6915,45.631073,0.208357,172.37,23.15,7.504,229.6,0 / 21,343784,2019-08-12 10:30:26:274,-0.587,-0.1632,10.1399,-0.7067,-0.0368,9.7811,-0.0036,-0.0178,-0.0038
6916,45.631073,0.208357,172.37,23.15,7.504,229.6,0 / 21,343883,2019-08-12 10:30:26:373,-0.5637,-0.0812,9.913,-0.6771,-0.0486,9.7831,-0.0025,0.0014,-0.006
6917,45.631073,0.208357,172.37,23.15,7.504,229.6,0 / 21,343982,2019-08-12 10:30:26:472,-0.7456,-0.1339,9.7897,-0.7064,-0.0561,9.781,0.0007,0.0046,-0.0049
6918,45.631073,0.208357,172.37,23.15,7.504,229.6,0 / 21,344082,2019-08-12 10:30:26:572,-0.824,-0.083,9.7018,-0.7247,-0.0629,9.7796,-0.0014,0.0035,-0.006
6919,45.631073,0.208357,172.37,23.15,7.504,229.6,0 / 21,344182,2019-08-12 10:30:26:672,-0.8551,-0.1464,9.7311,-0.7599,-0.0704,9.7769,-0.0004,0.0056,-0.006
6920,45.631073,0.208357,172.37,23.15,7.504,229.6,0 / 21,344283,2019-08-12 10:30:26:773,-0.8049,-0.0034,9.606,-0.778,-0.0739,9.7755,-0.0057,0.0067,-0.0038
6921,45.631073,0.208357,172.37,23.15,7.504,229.6,0 / 21,344383,2019-08-12 10:30:26:873,-0.7833,-0.3027,9.9412,-0.794,-0.0767,9.7742,-0.0014,-0.0072,-0.006
6922,45.631073,0.208357,172.37,23.15,7.504,229.6,0 / 21,344483,2019-08-12 10:30:26:973,-0.7594,0.0313,9.4186,-0.7926,-0.0789,9.7743,-0.0014,-0.0018,-0.006
6923,45.631073,0.208357,172.37,23.15,7.504,229.6,0 / 21,344583,2019-08-12 10:30:27:073,-0.7761,-0.004,10.2752,-0.813,-0.0754,9.7726,0.005,-0.0061,-0.0049
6924,45.631073,0.208357,172.37,23.15,7.504,229.6,0 / 21,344683,2019-08-12 10:30:27:173,-1.0545,-0.0195,9.7467,-0.8044,-0.0729,9.7733,0.0071,-0.0093,-0.0049
6925,45.631073,0.208357,172.37,23.15,7.504,229.6,0 / 21,344783,2019-08-12 10:30:27:273,-0.8366,-0.2721,10.1477,-0.8138,-0.072,9.7726,0.0156,-0.004,-0.0049
6926,45.631073,0.208357,172.37,23.15,7.504,229.6,0 / 21,344884,2019-08-12 10:30:27:374,-0.7325,-0.0135,9.615,-0.7997,-0.0687,9.7737,0.005,0.0056,-0.0049
6927,45.631073,0.208357,172.37,23.15,7.504,229.6,Sep-20,344982,2019-08-12 10:30:27:472,-0.7031,-0.0124,9.7927,-0.7826,-0.0581,9.7752,-0.0036,-0.0008,-0.006
6928,45.631073,0.208357,172.37,23.15,7.504,229.6,Sep-20,345083,2019-08-12 10:30:27:573,-0.6379,0.0391,9.8328,-0.7598,-0.069,9.7769,-0.0099,-0.0114,-0.007
6929,45.631073,0.208357,172.37,23.15,7.504,229.6,Sep-20,345183,2019-08-12 10:30:27:673,-0.6211,-0.0477,9.5689,-0.7379,-0.0607,9.7787,-0.0014,0.012,-0.0049
6930,45.631073,0.208357,172.37,23.15,7.504,229.6,Sep-20,345283,2019-08-12 10:30:27:773,-0.6738,-0.1111,9.7036,-0.7181,-0.0836,9.78,0.0039,0.0024,-0.0038
6931,45.631073,0.208357,172.37,23.15,7.504,229.6,Sep-20,345383,2019-08-12 10:30:27:873,-0.6714,-0.0531,9.7455,-0.7067,-0.0787,9.7808,-0.011,0.0035,-0.0049
6932,45.631073,0.208357,172.37,23.15,7.504,229.6,Sep-20,345483,2019-08-12 10:30:27:973,-0.7307,-0.0052,9.9466,-0.6903,-0.0726,9.7821,0.0018,-0.0093,-0.0038
6933,45.631073,0.208357,172.37,23.15,7.504,229.6,Sep-20,345583,2019-08-12 10:30:28:073,-0.6828,-0.3422,10.1028,-0.6753,-0.0858,9.783,-0.0004,-0.0029,-0.006
6934,45.631073,0.208357,172.37,23.15,7.504,229.6,Sep-20,346017,2019-08-12 10:30:28:507,-0.6929,-0.0363,10.4098,-0.6591,-0.1006,9.784,-0.0099,-0.021,-0.007
6935,45.631073,0.208357,172.37,23.15,7.504,229.6,Sep-20,346018,2019-08-12 10:30:28:508,-0.6929,-0.0363,10.4098,-0.6591,-0.1006,9.784,-0.0099,-0.021,-0.007
6936,45.631073,0.208357,172.37,23.15,7.504,229.6,Sep-20,346019,2019-08-12 10:30:28:509,-0.6929,-0.0363,10.4098,-0.6591,-0.1006,9.784,-0.0099,-0.021,-0.007
6937,45.631073,0.208357,172.37,23.15,7.504,229.6,Sep-20,346019,2019-08-12 10:30:28:509,-0.6929,-0.0363,10.4098,-0.6591,-0.1006,9.784,-0.0099,-0.021,-0.007
6938,45.631073,0.208357,172.37,23.15,7.504,229.6,Sep-20,346019,2019-08-12 10:30:28:509,-0.6929,-0.0363,10.4098,-0.6591,-0.1006,9.784,-0.0099,-0.021,-0.007
6939,45.631073,0.208357,172.37,23.15,7.504,229.6,Sep-20,346020,2019-08-12 10:30:28:510,-0.6929,-0.0363,10.4098,-0.6591,-0.1006,9.784,-0.0099,-0.021,-0.007
6940,45.631073,0.208357,172.37,23.15,7.504,229.6,Sep-20,346020,2019-08-12 10:30:28:510,-0.6929,-0.0363,10.4098,-0.6591,-0.1006,9.784,-0.0099,-0.021,-0.007
6941,45.631073,0.208357,172.37,23.15,7.504,229.6,Sep-20,346021,2019-08-12 10:30:28:511,-0.6929,-0.0363,10.4098,-0.6591,-0.1006,9.784,-0.0099,-0.021,-0.007
6942,45.631073,0.208357,172.37,23.15,7.504,229.6,Sep-20,346021,2019-08-12 10:30:28:511,-0.6929,-0.0363,10.4098,-0.6591,-0.1006,9.784,-0.0099,-0.021,-0.007
6943,45.631073,0.208357,172.37,23.15,7.504,229.6,Sep-20,346021,2019-08-12 10:30:28:511,-0.6929,-0.0363,10.4098,-0.6591,-0.1006,9.784,-0.0099,-0.021,-0.007
6944,45.631073,0.208357,172.37,23.15,7.504,229.6,Sep-20,346022,2019-08-12 10:30:28:512,-0.6929,-0.0363,10.4098,-0.6591,-0.1006,9.784,-0.0099,-0.021,-0.007
6945,45.631073,0.208357,172.37,23.15,7.504,229.6,Sep-20,346027,2019-08-12 10:30:28:517,-0.6929,-0.0363,10.4098,-0.6591,-0.1006,9.784,-0.0099,-0.021,-0.007
6946,45.631073,0.208357,172.37,23.15,7.504,229.6,Sep-20,346028,2019-08-12 10:30:28:518,-0.6929,-0.0363,10.4098,-0.6591,-0.1006,9.784,-0.0099,-0.021,-0.007
6947,45.631073,0.208357,172.37,23.15,7.504,229.6,Sep-20,346029,2019-08-12 10:30:28:519,-0.6929,-0.0363,10.4098,-0.6591,-0.1006,9.784,-0.0099,-0.021,-0.007
6948,45.631073,0.208357,172.37,23.15,7.504,229.6,Sep-20,346032,2019-08-12 10:30:28:522,-0.6929,-0.0363,10.4098,-0.6591,-0.1006,9.784,-0.0099,-0.021,-0.007
6949,45.631073,0.208357,172.37,23.15,7.504,229.6,Sep-20,346038,2019-08-12 10:30:28:528,-0.6929,-0.0363,10.4098,-0.6591,-0.1006,9.784,-0.0099,-0.021,-0.007
6950,45.631073,0.208357,172.37,23.15,7.504,229.6,Sep-20,346038,2019-08-12 10:30:28:528,-0.6929,-0.0363,10.4098,-0.6591,-0.1006,9.784,-0.0099,-0.021,-0.007
6951,45.631073,0.208357,172.37,23.15,7.504,229.6,Sep-20,346039,2019-08-12 10:30:28:529,-0.6929,-0.0363,10.4098,-0.6591,-0.1006,9.784,-0.0099,-0.021,-0.007
6952,45.631073,0.208357,172.37,23.15,7.504,229.6,Sep-20,346039,2019-08-12 10:30:28:529,-0.6929,-0.0363,10.4098,-0.6591,-0.1006,9.784,-0.0099,-0.021,-0.007
