,GPS LATITUDE (degrees), GPS LONGITUDE (degrees), GPS ALTITUDE (m), GPS SPEED (Kmh), GPS ACCURACY (m), GPS ORIENTATION (Â°),GPS SATELLITES IN RANGE, TIME SINCE START (ms), DATE (YYYY-MO-DD HH-MI-SS_SSS), ACCELEROMETER X (m/s²) , ACCELEROMETER Y (m/s²), ACCELEROMETER Z (m/s²), GRAVITY X (m/s²), GRAVITY Y (m/s²), GRAVITY Z (m/s²), GYROSCOPE Yaw (rad/s), GYROSCOPE Pitch (rad/s), GYROSCOPE Roll (rad/s), MAGNETIC FIELD X (Î¼T), MAGNETIC FIELD Y (Î¼T), MAGNETIC FIELD Z (Î¼T), ORIENTATION (Yaw) (Â°), ORIENTATION (Pitch) (Â°), ORIENTATION (Roll ) (Â°)
62124,52.591354,-1.593248,145.01,11.46,4,114.7,20 / 21,7685013,2019-11-06 18:14:25:475,0.2885,0.4203,9.3327,-0.0029,-0.0283,9.8066,-0.0176,0.0513,-0.136,-25.75,-36.25,22.81,333.09,-87.29,-157.1
62125,52.591354,-1.593248,145.01,11.46,4,114.7,20 / 21,7685113,2019-11-06 18:14:25:575,1.4233,-0.5619,9.9677,0.0056,0.0153,9.8066,0.0291,0.1107,-0.0169,-26.44,-36.44,22.88,330.07,-87.31,-160.01
62126,52.591354,-1.593248,145.01,11.46,4,114.7,20 / 21,7685214,2019-11-06 18:14:25:676,-0.3305,-1.0372,10.1815,-0.0094,-0.0136,9.8065,-0.0186,-0.0211,-0.1542,-25.75,-36.0,23.19,326.68,-87.3,-163.25
62127,52.591354,-1.593248,145.01,11.46,4,114.7,20 / 21,7685314,2019-11-06 18:14:25:776,-0.3598,0.4742,9.4294,0.0138,0.0187,9.8066,0.0039,-0.0165,0.0977,-25.56,-35.94,22.56,324.84,-87.37,-165.06
62128,52.591354,-1.593248,145.01,11.46,4,114.7,20 / 21,7685414,2019-11-06 18:14:25:876,2.0398,-0.9303,10.7605,-0.0151,0.0047,9.8066,0.0609,-0.2594,-0.0545,-25.44,-35.94,22.56,327.4,-87.43,-163.72
62129,52.591354,-1.593248,145.01,11.46,4,114.7,20 / 21,7685514,2019-11-06 18:14:25:976,-1.4421,-2.952,9.5391,0.045,0.0106,9.8065,-0.086,-0.134,0.2485,-25.94,-36.31,23.06,324.96,-87.44,-164.98
62130,52.591354,-1.593248,145.01,11.46,4,114.7,20 / 21,7685614,2019-11-06 18:14:26:076,-3.0903,-0.1739,9.9581,0.0259,0.0279,9.8065,-0.1355,-0.3811,0.2027,-26.12,-35.87,23.06,324.19,-87.6,-165.83
62131,52.591354,-1.593248,145.01,11.46,4,114.7,20 / 21,7685714,2019-11-06 18:14:26:176,0.2353,-1.9312,10.3847,-0.0089,0.0251,9.8066,0.0475,-0.1982,0.0778,-25.81,-35.94,22.88,330.9,-87.87,-159.51
62132,52.591354,-1.593248,145.01,11.46,4,114.7,20 / 21,7685814,2019-11-06 18:14:26:276,1.5778,1.4018,9.7285,0.0144,0.0306,9.8065,0.0676,-0.3249,0.082,-25.31,-36.19,23.25,331.72,-87.79,-159.76
62133,52.591354,-1.593248,145.01,11.46,4,114.7,20 / 21,7685914,2019-11-06 18:14:26:376,-0.2556,0.7938,9.5372,0.0259,0.0158,9.8066,-0.0298,-0.2192,0.1659,-25.56,-35.81,23.25,324.36,-87.82,-165.79
62134,52.591354,-1.593248,145.01,11.46,4,114.7,20 / 21,7686014,2019-11-06 18:14:26:476,1.5556,1.3842,10.1091,0.0331,0.0355,9.8065,-0.0542,-0.309,0.1661,-25.69,-36.56,22.31,326.25,-87.87,-162.68
62135,52.591354,-1.593248,145.01,11.46,4,114.7,20 / 21,7686114,2019-11-06 18:14:26:576,-1.8769,-1.6868,10.6888,0.0037,0.0148,9.8066,0.0794,-0.1552,0.0896,-25.75,-36.37,23.44,324.78,-87.96,-165.48
62136,52.591354,-1.593248,145.01,11.46,4,114.7,20 / 21,7686213,2019-11-06 18:14:26:675,-0.5346,-0.6641,10.2267,0.006,0.0141,9.8066,0.1021,-0.2733,0.0146,-25.0,-36.25,22.69,324.82,-87.85,-166.46
62137,52.591354,-1.593248,145.01,11.46,4,114.7,20 / 21,7686314,2019-11-06 18:14:26:776,-0.626,-0.9411,10.2692,0.0182,0.0254,9.8066,0.0995,-0.1268,0.087,-25.75,-36.0,23.13,319.22,-87.73,-170.72
62138,52.591354,-1.593248,145.01,11.46,4,114.7,20 / 21,7686414,2019-11-06 18:14:26:876,1.3729,0.1178,9.5022,-0.0089,0.0107,9.8066,-0.0125,-0.1303,-0.0507,-24.94,-36.19,22.94,319.51,-87.65,-171.47
62139,52.591354,-1.593248,145.01,11.46,4,114.7,20 / 21,7686514,2019-11-06 18:14:26:976,-0.8559,-0.0047,10.6326,-0.0006,0.0335,9.8066,0.0418,-0.1754,0.1665,-25.12,-35.87,22.69,318.15,-87.83,-172.91
62140,52.591354,-1.593248,145.01,11.46,4,114.7,20 / 21,7686613,2019-11-06 18:14:27:075,1.5567,0.7256,8.2797,0.0,0.0059,9.8066,-0.0121,-0.0232,-0.0117,-26.37,-36.37,22.81,320.24,-87.81,-169.78
62141,52.591354,-1.593248,145.01,11.46,4,114.7,20 / 21,7686713,2019-11-06 18:14:27:175,1.404,-0.1224,11.2913,-0.0302,0.0227,9.8066,0.228,-0.1136,-0.012,-25.62,-35.94,23.0,320.45,-87.82,-169.58
62142,52.591354,-1.593248,145.01,11.46,4,114.7,20 / 21,7686813,2019-11-06 18:14:27:275,1.0966,1.9101,10.3346,-0.0184,-0.0225,9.8065,-0.0269,0.1248,-0.1887,-26.0,-36.19,22.88,321.42,-87.51,-168.44
62143,52.591354,-1.593248,145.01,11.46,4,114.7,20 / 20,7686914,2019-11-06 18:14:27:376,0.1695,-0.7325,9.2004,0.0186,0.0267,9.8066,-0.0264,-0.0045,0.1137,-26.25,-36.5,21.94,316.23,-87.6,-172.22
62144,52.591354,-1.593248,145.01,11.46,4,114.7,20 / 20,7687013,2019-11-06 18:14:27:475,0.5254,-2.9232,10.2154,0.0052,-0.0293,9.8065,-0.0322,0.1809,-0.1737,-25.75,-36.62,22.75,318.4,-87.62,-171.39
62145,52.591354,-1.593248,145.01,11.46,4,114.7,20 / 20,7687113,2019-11-06 18:14:27:575,-1.4434,0.1179,9.4409,-0.0011,0.0111,9.8066,-0.1252,0.0469,-0.046,-25.94,-36.56,22.75,317.43,-87.72,-172.39
62146,52.591354,-1.593248,145.01,11.46,4,114.7,20 / 20,7687214,2019-11-06 18:14:27:676,-0.575,-1.0914,9.7702,-0.0106,-0.0135,9.8066,0.0653,0.2202,-0.0121,-25.37,-36.37,23.06,318.77,-87.97,-172.41
62147,52.591354,-1.593248,145.01,11.46,4,114.7,20 / 20,7687314,2019-11-06 18:14:27:776,1.5726,0.9036,9.6048,-0.011,-0.0219,9.8066,-0.0552,0.1583,-0.1277,-25.31,-36.37,22.75,322.37,-87.88,-168.85
62148,52.591354,-1.593248,145.01,11.46,4,114.7,20 / 20,7687413,2019-11-06 18:14:27:875,-0.1815,-0.1475,9.7018,-0.0098,-0.0091,9.8066,-0.0276,0.144,-0.0109,-25.37,-36.25,22.88,322.68,-87.96,-168.61
62149,52.591354,-1.593248,145.01,11.46,4,114.7,20 / 20,7687514,2019-11-06 18:14:27:976,1.5354,0.4612,9.8627,-0.0127,-0.0145,9.8066,-0.0073,0.1491,-0.1169,-25.31,-36.12,22.63,323.6,-87.98,-167.73
62150,52.591354,-1.593248,145.01,11.46,4,114.7,20 / 20,7687619,2019-11-06 18:14:28:081,0.134,-1.8171,10.0701,-0.001,-0.022,9.8066,0.0218,0.1022,-0.0573,-25.0,-36.0,23.31,323.12,-87.85,-168.11
62151,52.591354,-1.593248,145.01,11.46,4,114.7,20 / 20,7687716,2019-11-06 18:14:28:178,1.0277,0.6164,9.5677,0.0012,-0.0169,9.8066,-0.1063,0.24,-0.0361,-25.25,-36.5,22.94,322.02,-87.83,-169.16
62152,52.591354,-1.593248,145.01,11.46,4,114.7,20 / 20,7687813,2019-11-06 18:14:28:275,-0.3368,-2.2903,10.3383,0.0066,-0.0085,9.8065,-0.1329,0.0513,0.0076,-25.75,-36.06,22.94,321.62,-88.02,-168.58
62153,52.591354,-1.593248,145.01,11.46,4,114.7,21 / 22,7687913,2019-11-06 18:14:28:375,0.6639,0.4512,9.7438,-0.0235,-0.0292,9.8065,0.0291,0.273,-0.1623,-25.69,-36.44,22.13,323.79,-88.07,-165.22
62154,52.591354,-1.593248,145.01,11.46,4,114.7,21 / 22,7688013,2019-11-06 18:14:28:475,-0.0423,-1.0914,9.7318,-0.0119,-0.0174,9.8065,0.0465,0.0617,-0.0299,-26.44,-36.56,22.81,324.79,-88.02,-165.47
62155,52.591354,-1.593248,145.01,11.46,4,114.7,21 / 22,7688114,2019-11-06 18:14:28:576,0.8516,0.1351,9.6111,-0.006,-0.0231,9.8066,-0.0282,0.1612,-0.079,-25.69,-36.5,23.0,323.65,-87.91,-166.55
62156,52.591354,-1.593248,145.01,11.46,4,114.7,21 / 22,7688214,2019-11-06 18:14:28:676,-1.1023,-0.0078,10.5363,0.009,0.0082,9.8066,-0.0036,-0.0418,-0.0224,-25.25,-36.25,22.5,323.51,-87.97,-167.81
62157,52.591354,-1.593248,145.01,11.46,4,114.7,21 / 22,7688314,2019-11-06 18:14:28:776,-0.8438,-0.8798,9.2812,0.0272,-0.0037,9.8065,-0.1156,-0.0609,0.1099,-25.25,-36.62,22.69,316.93,-88.0,-174.18
62158,52.591354,-1.593248,145.01,11.46,4,114.7,21 / 22,7688414,2019-11-06 18:14:28:876,-0.6332,0.0905,9.8789,0.0344,0.0319,9.8064,-0.0776,-0.1608,0.1466,-25.69,-36.25,22.31,319.31,-88.13,-169.63
62159,52.591354,-1.593248,145.01,11.46,4,114.7,21 / 22,7688514,2019-11-06 18:14:28:976,-0.2204,-0.0423,9.7273,0.0123,-0.0115,9.8066,0.0279,-0.0621,0.028,-25.12,-36.37,22.13,316.36,-88.11,-173.56
62160,52.591354,-1.593248,145.01,11.46,4,114.7,21 / 22,7688614,2019-11-06 18:14:29:076,0.3766,1.9348,9.4597,-0.01,0.0159,9.8065,0.0136,-0.2085,0.0586,-25.75,-36.19,22.06,316.38,-88.12,-172.47
62161,52.591354,-1.593248,145.01,11.46,4,114.7,21 / 22,7688713,2019-11-06 18:14:29:175,-0.5035,0.5151,9.5629,0.0092,0.0244,9.8066,-0.0714,-0.2229,0.1726,-25.94,-36.31,22.06,318.6,-88.22,-170.38
62162,52.591354,-1.593248,145.01,11.46,4,114.7,21 / 22,7688814,2019-11-06 18:14:29:276,-0.0196,1.9588,9.3627,0.0181,0.0371,9.8065,-0.0026,-0.2276,0.134,-25.5,-36.5,21.56,326.93,-88.4,-163.46
62163,52.591354,-1.593248,145.01,11.46,4,114.7,20 / 21,7688914,2019-11-06 18:14:29:376,-1.4162,-0.6108,10.8209,-0.0059,0.0208,9.8066,0.1014,-0.144,0.0037,-26.06,-36.19,22.06,320.78,-88.54,-168.47
62164,52.591354,-1.593248,145.01,11.46,4,114.7,20 / 21,7689014,2019-11-06 18:14:29:476,-0.8243,0.7562,10.6442,-0.0061,0.0037,9.8066,0.1116,-0.0991,0.0346,-25.56,-35.87,22.5,319.79,-88.45,-170.66
62165,52.591354,-1.593248,145.01,11.46,4,114.7,20 / 21,7689114,2019-11-06 18:14:29:576,-0.9392,0.135,9.703,0.013,-0.0062,9.8065,0.0304,-0.0627,0.0601,-25.75,-36.19,22.5,320.39,-88.22,-169.91
62166,52.591354,-1.593248,145.01,11.46,4,114.7,20 / 21,7689214,2019-11-06 18:14:29:676,0.0601,0.0397,10.4532,0.0046,-0.0035,9.8066,-0.0416,-0.0245,0.0153,-25.81,-35.56,22.5,323.64,-88.08,-166.66
62167,52.591354,-1.593248,145.01,11.46,4,114.7,20 / 21,7689313,2019-11-06 18:14:29:775,0.1307,0.1052,10.1259,0.005,0.0086,9.8066,-0.0018,-0.0454,0.0369,-26.0,-36.37,22.06,322.9,-88.15,-166.14
62168,52.591354,-1.593248,145.01,11.46,4,114.7,20 / 21,7689413,2019-11-06 18:14:29:875,-0.1389,0.0684,9.8542,0.0193,0.0005,9.8066,-0.039,-0.0307,0.0465,-25.62,-35.37,22.5,323.86,-88.13,-166.52
62169,52.591354,-1.593248,145.01,11.46,4,114.7,20 / 21,7689513,2019-11-06 18:14:29:975,-0.2369,-0.2105,9.7664,0.0042,-0.004,9.8066,0.0151,0.0016,-0.0101,-25.12,-35.19,22.81,321.99,-88.04,-169.37
62170,52.591354,-1.593248,145.01,11.46,4,114.7,20 / 21,7689613,2019-11-06 18:14:30:075,-0.0762,-0.5277,9.8525,0.0143,0.0115,9.8066,-0.0184,-0.1033,0.1004,-24.94,-35.06,22.56,318.3,-88.01,-172.93
62171,52.591354,-1.593248,145.01,11.46,4,114.7,20 / 21,7689713,2019-11-06 18:14:30:175,-0.7356,-0.0162,9.6211,0.0022,-0.0071,9.8066,-0.0609,-0.0215,0.0397,-24.87,-34.44,22.31,320.76,-88.02,-169.29
62172,52.591354,-1.593248,145.01,11.46,4,114.7,20 / 21,7689813,2019-11-06 18:14:30:275,1.6787,0.5062,10.2552,0.0286,0.0142,9.8065,-0.0125,-0.1389,0.0769,-25.19,-34.69,21.94,323.11,-88.11,-167.03
62173,52.591354,-1.593248,145.01,11.46,4,114.7,21 / 21,7689915,2019-11-06 18:14:30:377,2.1535,-0.0381,8.9865,0.0024,-0.0001,9.8066,0.1019,-0.0111,-0.0178,-25.44,-35.19,22.19,318.19,-87.98,-171.72
62174,52.591354,-1.593248,145.01,11.46,4,114.7,21 / 21,7690014,2019-11-06 18:14:30:476,1.1304,-0.2105,9.3474,-0.0103,0.005,9.8066,0.0357,-0.0757,-0.0467,-24.62,-36.31,22.19,315.93,-87.69,-173.65
62175,52.591354,-1.593248,145.01,11.46,4,114.7,21 / 21,7690114,2019-11-06 18:14:30:576,-0.2241,-0.0087,9.7572,-0.0047,0.0248,9.8065,-0.0664,-0.0184,0.0879,-25.31,-36.31,22.06,314.48,-87.89,-175.22
62176,52.591354,-1.593248,145.01,11.46,4,114.7,21 / 21,7690214,2019-11-06 18:14:30:676,1.9522,0.1259,9.6412,0.0045,-0.0115,9.8066,0.023,0.043,-0.0298,-25.81,-36.19,22.06,318.17,-87.97,-170.62
62177,52.591354,-1.593248,145.01,11.46,4,114.7,21 / 21,7690313,2019-11-06 18:14:30:775,0.9661,-0.9426,9.708,0.0146,0.0082,9.8066,0.0721,-0.0424,0.0814,-25.0,-35.87,22.25,317.66,-87.83,-172.09
62178,52.591354,-1.593248,145.01,11.46,4,114.7,21 / 21,7690414,2019-11-06 18:14:30:876,-1.8791,-2.0447,10.4218,-0.0477,-0.041,9.8064,-0.0139,0.2969,-0.2574,-26.0,-36.0,22.38,319.17,-87.54,-169.34
62179,52.591354,-1.593248,145.01,11.46,4,114.7,21 / 21,7690514,2019-11-06 18:14:30:976,-2.8927,-3.2482,9.7454,0.0202,0.0283,9.8065,-0.0027,-0.1461,0.0817,-25.81,-35.56,22.13,322.79,-87.66,-165.93
62180,52.591354,-1.593248,145.01,11.46,4,114.7,21 / 21,7690614,2019-11-06 18:14:31:076,1.4922,0.8271,9.7966,0.0079,-0.0425,9.8065,-0.0764,0.3619,-0.0674,-25.81,-36.56,22.44,325.14,-87.6,-163.58
62181,52.591354,-1.593248,145.01,11.46,4,114.7,21 / 21,7690714,2019-11-06 18:14:31:176,2.0117,1.429,9.0525,0.0084,0.0095,9.8066,-0.0042,0.0006,-0.0744,-26.19,-36.37,22.19,327.82,-87.32,-160.88
62182,52.591354,-1.593248,145.01,11.46,4,114.7,21 / 21,7690814,2019-11-06 18:14:31:276,1.9022,-0.1203,8.876,0.0057,-0.0363,9.8065,-0.0439,0.3171,-0.1009,-26.0,-36.25,22.44,326.5,-87.15,-162.05
62183,52.591354,-1.593248,145.01,11.46,4,114.7,20 / 22,7690914,2019-11-06 18:14:31:376,0.9767,0.8821,10.2498,-0.0025,-0.0225,9.8066,0.0547,0.1623,-0.0873,-25.94,-36.12,22.38,325.09,-87.04,-163.31
62184,52.591354,-1.593248,145.01,11.46,4,114.7,20 / 22,7691014,2019-11-06 18:14:31:476,-2.2912,-0.5458,10.5328,-0.0174,-0.0097,9.8065,-0.0446,0.0883,0.0018,-25.75,-36.37,21.75,325.45,-86.99,-162.94
62185,52.591354,-1.593248,145.01,11.46,4,114.7,20 / 22,7691113,2019-11-06 18:14:31:575,0.3315,0.5123,10.1005,-0.0182,-0.0291,9.8065,-0.034,0.2147,-0.1045,-25.94,-36.25,22.44,330.24,-87.01,-158.39
62186,52.591354,-1.593248,145.01,11.46,4,114.7,20 / 22,7691213,2019-11-06 18:14:31:675,1.4219,-3.6351,10.1769,0.0069,-0.0086,9.8066,-0.0632,-0.0734,0.0617,-25.94,-36.56,22.5,330.73,-87.01,-159.18
62187,52.591354,-1.593248,145.01,11.46,4,114.7,20 / 22,7691313,2019-11-06 18:14:31:775,-1.6015,0.428,10.3124,-0.0308,-0.017,9.8065,-0.0498,0.2302,-0.1262,-26.06,-36.19,22.06,333.48,-87.09,-155.36
62188,52.591354,-1.593248,145.01,11.46,4,114.7,20 / 22,7691414,2019-11-06 18:14:31:876,0.9812,-3.6436,9.4372,0.0047,-0.0009,9.8066,-0.0021,-0.1441,0.0408,-26.0,-36.06,22.25,333.49,-87.27,-155.43
62189,52.591354,-1.593248,145.01,11.46,4,114.7,20 / 22,7691514,2019-11-06 18:14:31:976,0.0551,0.8371,9.7586,0.0079,-0.0221,9.8066,0.0304,0.1226,-0.0156,-25.87,-36.0,22.31,331.8,-87.15,-156.98
62190,52.591354,-1.593248,145.01,11.46,4,114.7,20 / 22,7691614,2019-11-06 18:14:32:076,0.2358,0.6161,9.8577,0.0014,0.0167,9.8066,0.0027,-0.1777,0.0305,-25.69,-36.25,22.38,330.99,-87.05,-157.7
62191,52.591354,-1.593248,145.01,11.46,4,114.7,20 / 22,7691714,2019-11-06 18:14:32:176,-0.8526,1.8815,10.167,0.0099,-0.0038,9.8066,-0.0819,0.0098,0.0665,-26.19,-35.87,22.44,330.08,-87.16,-158.63
62192,52.591354,-1.593248,145.01,11.46,4,114.7,20 / 22,7691813,2019-11-06 18:14:32:275,1.6324,0.2142,9.3803,0.0202,0.0304,9.8065,-0.1403,-0.2291,0.1431,-25.69,-36.31,22.06,333.81,-87.35,-155.16
62193,52.59091,-1.591733,145.97,13.55,4,115.55,22 / 22,7691913,2019-11-06 18:14:32:375,-0.2947,-1.4027,9.4067,-0.0257,0.0291,9.8066,0.0604,-0.1933,0.0779,-26.31,-36.69,22.44,333.74,-87.51,-155.28
62194,52.59091,-1.591733,145.97,13.55,4,115.55,22 / 22,7692014,2019-11-06 18:14:32:476,0.0541,-0.5867,9.986,-0.0112,0.0459,9.8065,0.0706,-0.2714,0.1262,-26.62,-36.25,23.06,339.26,-88.02,-150.44
62195,52.59091,-1.591733,145.97,13.55,4,115.55,22 / 22,7692114,2019-11-06 18:14:32:576,-2.5021,0.2329,9.863,0.0076,-0.0056,9.8066,-0.0029,-0.1897,0.0763,-26.0,-36.31,22.31,341.01,-87.84,-148.47
62196,52.59091,-1.591733,145.97,13.55,4,115.55,22 / 22,7692214,2019-11-06 18:14:32:676,1.3131,1.8971,10.1027,0.0251,0.0171,9.8065,-0.0018,-0.2617,0.1789,-26.12,-35.75,22.13,341.87,-87.71,-147.59
62197,52.59091,-1.591733,145.97,13.55,4,115.55,22 / 22,7692314,2019-11-06 18:14:32:776,0.4776,1.7248,10.5891,0.0119,0.013,9.8065,0.0057,-0.1273,0.1264,-26.12,-36.25,21.31,338.5,-87.66,-149.49
62198,52.59091,-1.591733,145.97,13.55,4,115.55,22 / 22,7692414,2019-11-06 18:14:32:876,1.3074,0.2267,8.5605,0.0071,0.0476,9.8065,-0.0358,-0.2952,0.1853,-26.25,-36.12,21.94,344.13,-87.71,-145.43
62199,52.59091,-1.591733,145.97,13.55,4,115.55,22 / 22,7692514,2019-11-06 18:14:32:976,-1.9822,-1.0503,11.573,-0.0202,0.0088,9.8065,0.0352,-0.0856,-0.0122,-25.69,-36.12,21.69,345.95,-87.97,-143.76
62200,52.59091,-1.591733,145.97,13.55,4,115.55,22 / 22,7692613,2019-11-06 18:14:33:075,2.3349,-0.2817,10.4759,-0.0126,0.0177,9.8066,0.1272,-0.2485,-0.0313,-25.69,-35.81,22.19,343.68,-88.08,-145.97
62201,52.59091,-1.591733,145.97,13.55,4,115.55,22 / 22,7692716,2019-11-06 18:14:33:178,-2.3731,-1.4917,7.5683,0.0563,0.0331,9.8064,-0.2622,-0.2433,0.2978,-26.12,-35.94,22.38,337.64,-88.02,-151.79
62202,52.59091,-1.591733,145.97,13.55,4,115.55,22 / 22,7692814,2019-11-06 18:14:33:276,-0.0986,2.5523,11.1947,0.0142,0.0254,9.8065,-0.2557,-0.0737,0.1765,-26.44,-36.0,22.13,354.56,-88.24,-135.5
62203,52.59091,-1.591733,145.97,13.55,4,115.55,19 / 21,7692914,2019-11-06 18:14:33:376,-0.7187,-0.1269,10.9602,-0.0368,0.0329,9.8065,0.1813,-0.2006,0.0298,-26.25,-35.75,22.25,10.58,-88.47,-119.95
62204,52.59091,-1.591733,145.97,13.55,4,115.55,19 / 21,7693013,2019-11-06 18:14:33:475,0.3957,1.4791,8.7938,-0.0404,0.0103,9.8065,0.106,0.0241,-0.1223,-26.25,-36.12,22.31,2.32,-88.34,-127.99
62205,52.59091,-1.591733,145.97,13.55,4,115.55,19 / 21,7693114,2019-11-06 18:14:33:576,1.0598,-0.0585,10.455,-0.0041,0.0389,9.8065,-0.0007,-0.188,0.0764,-26.5,-36.56,22.56,8.76,-88.48,-122.98
62206,52.59091,-1.591733,145.97,13.55,4,115.55,19 / 21,7693214,2019-11-06 18:14:33:676,1.9694,1.1109,10.192,-0.0291,-0.0287,9.8065,-0.0477,0.1487,-0.0733,-26.19,-36.0,21.88,12.89,-88.29,-117.75
62207,52.59091,-1.591733,145.97,13.55,4,115.55,19 / 21,7693314,2019-11-06 18:14:33:776,-2.925,-0.0521,9.8236,-0.0292,0.0094,9.8066,-0.0623,-0.167,0.1387,-26.44,-35.62,22.69,6.59,-88.35,-125.11
62208,52.59091,-1.591733,145.97,13.55,4,115.55,19 / 21,7693414,2019-11-06 18:14:33:876,2.6007,-0.6399,9.7497,0.0122,-0.0372,9.8065,-0.015,0.0611,0.0351,-25.62,-36.25,22.19,1.5,-88.28,-128.78
62209,52.59091,-1.591733,145.97,13.55,4,115.55,19 / 21,7693514,2019-11-06 18:14:33:976,0.465,-2.1575,9.5315,0.0146,-0.0097,9.8066,0.101,-0.1783,0.0488,-26.31,-36.44,22.56,356.32,-88.12,-135.05
62210,52.59091,-1.591733,145.97,13.55,4,115.55,19 / 21,7693614,2019-11-06 18:14:34:076,0.9759,1.0981,10.1945,-0.0133,-0.0216,9.8066,-0.0353,-0.0213,-0.0043,-26.37,-35.5,21.69,356.85,-88.04,-133.27
62211,52.59091,-1.591733,145.97,13.55,4,115.55,19 / 21,7693714,2019-11-06 18:14:34:176,0.0813,-1.1035,9.1348,-0.0209,-0.0048,9.8065,-0.0023,-0.1504,0.1125,-26.44,-36.0,21.19,351.19,-88.07,-137.41
62212,52.59091,-1.591733,145.97,13.55,4,115.55,19 / 21,7693814,2019-11-06 18:14:34:276,1.1982,-0.9492,10.2765,0.0171,-0.0204,9.8066,-0.0288,0.0791,-0.0235,-26.25,-36.25,21.38,347.85,-87.94,-140.6
62213,52.59091,-1.591733,145.97,13.55,4,115.55,19 / 19,7693914,2019-11-06 18:14:34:376,0.8278,-0.1826,10.1218,0.0173,-0.0007,9.8066,0.1155,0.0524,0.0115,-25.81,-36.19,21.94,344.2,-87.77,-145.38
62214,52.59091,-1.591733,145.97,13.55,4,115.55,19 / 19,7694014,2019-11-06 18:14:34:476,-0.0262,0.3418,10.3233,0.0088,0.0173,9.8065,-0.0099,0.157,-0.1603,-26.0,-36.19,21.19,343.62,-87.94,-144.68
62215,52.59091,-1.591733,145.97,13.55,4,115.55,19 / 19,7694114,2019-11-06 18:14:34:576,0.4723,1.4084,9.1365,0.0108,0.0377,9.8065,-0.0858,0.2248,-0.0544,-26.75,-36.06,21.38,350.15,-87.99,-137.36
62216,52.59091,-1.591733,145.97,13.55,4,115.55,19 / 19,7694214,2019-11-06 18:14:34:676,-1.3296,-0.433,10.6561,-0.0298,0.0288,9.8065,-0.1281,0.1216,-0.0037,-26.44,-36.25,21.81,357.54,-88.28,-132.62
62217,52.59091,-1.591733,145.97,13.55,4,115.55,19 / 19,7694314,2019-11-06 18:14:34:776,0.983,0.7821,10.2291,-0.0174,0.0153,9.8066,-0.0827,0.182,-0.0419,-26.06,-36.44,21.31,359.17,-88.36,-129.73
62218,52.59091,-1.591733,145.97,13.55,4,115.55,19 / 19,7694413,2019-11-06 18:14:34:875,-0.6047,-0.9771,9.932,0.0166,0.0076,9.8066,-0.0287,-0.0266,0.0827,-27.06,-35.87,22.31,352.59,-88.22,-136.35
62219,52.59091,-1.591733,145.97,13.55,4,115.55,19 / 19,7694514,2019-11-06 18:14:34:976,0.3249,-0.2866,9.5553,-0.0027,-0.0158,9.8066,0.0331,0.1943,-0.056,-26.25,-35.75,22.06,352.66,-88.1,-137.32
62220,52.59091,-1.591733,145.97,13.55,4,115.55,19 / 19,7694613,2019-11-06 18:14:35:075,-1.3199,-1.8741,9.9095,0.0222,0.0046,9.8065,0.0883,-0.2021,0.1313,-26.44,-36.19,22.19,349.81,-87.86,-140.01
62221,52.59091,-1.591733,145.97,13.55,4,115.55,19 / 19,7694714,2019-11-06 18:14:35:176,-0.4977,1.0519,9.9798,0.0213,-0.0402,9.8065,0.0972,0.0706,-0.0637,-27.12,-35.19,21.94,349.11,-87.6,-139.6
62222,52.59091,-1.591733,145.97,13.55,4,115.55,19 / 19,7694814,2019-11-06 18:14:35:276,-1.133,3.38,9.7048,-0.0149,0.0119,9.8066,-0.025,-0.4248,0.2284,-26.62,-35.62,21.75,349.59,-87.39,-139.09
62223,52.59091,-1.591733,145.97,13.55,4,115.55,19 / 19,7694915,2019-11-06 18:14:35:377,2.1342,2.9448,9.2849,-0.0408,-0.0551,9.8064,-0.0618,-0.0255,0.0951,-26.37,-34.94,22.13,356.47,-87.27,-133.59
62224,52.59091,-1.591733,145.97,13.55,4,115.55,19 / 19,7695013,2019-11-06 18:14:35:475,-4.9523,2.0248,10.5183,0.034,0.0125,9.8066,0.1296,-0.5377,0.3137,-26.19,-34.69,22.13,346.44,-87.44,-143.16
62225,52.59091,-1.591733,145.97,13.55,4,115.55,19 / 19,7695113,2019-11-06 18:14:35:575,-1.414,-3.4245,10.8772,0.0131,-0.0571,9.8064,0.1007,-0.0105,-0.1154,-25.69,-34.19,22.13,332.3,-87.2,-156.61
62226,52.59091,-1.591733,145.97,13.55,4,115.55,19 / 19,7695214,2019-11-06 18:14:35:676,-1.2443,-0.7401,11.6647,0.0071,0.0195,9.8066,0.1579,-0.3368,0.0292,-25.25,-34.25,22.31,331.7,-87.08,-158.21
62227,52.59091,-1.591733,145.97,13.55,4,115.55,19 / 19,7695314,2019-11-06 18:14:35:776,0.5689,-0.9792,7.8087,-0.0367,-0.0032,9.8065,-0.2373,-0.0553,0.1736,-26.12,-34.69,22.25,325.47,-87.03,-163.0
62228,52.59091,-1.591733,145.97,13.55,4,115.55,19 / 19,7695414,2019-11-06 18:14:35:876,1.4148,-0.7044,10.5247,-0.0595,0.0163,9.8064,-0.1967,0.006,0.0874,-25.75,-34.69,22.0,329.37,-87.36,-159.45
62229,52.59091,-1.591733,145.97,13.55,4,115.55,19 / 19,7695513,2019-11-06 18:14:35:975,1.3954,-0.9652,9.9813,-0.0273,0.0172,9.8065,-0.0365,0.0624,-0.0593,-25.75,-35.94,21.38,327.23,-87.6,-160.28
62230,52.59091,-1.591733,145.97,13.55,4,115.55,19 / 19,7695613,2019-11-06 18:14:36:075,-2.0874,-0.1707,10.0317,0.025,0.0015,9.8066,0.0657,0.2401,-0.1391,-25.81,-36.12,21.56,328.05,-87.44,-160.73
62231,52.59091,-1.591733,145.97,13.55,4,115.55,19 / 19,7695713,2019-11-06 18:14:36:175,1.0798,2.0737,9.5519,0.036,0.0359,9.8065,-0.0144,0.1426,-0.1547,-26.25,-36.0,21.44,326.61,-87.26,-160.67
62232,52.59091,-1.591733,145.97,13.55,4,115.55,19 / 19,7695813,2019-11-06 18:14:36:275,0.8754,0.3005,10.584,-0.0136,0.0204,9.8066,-0.0197,0.2276,-0.1136,-25.25,-36.25,22.25,323.72,-87.3,-165.86
62233,52.59091,-1.591733,145.97,13.55,4,115.55,19 / 19,7695913,2019-11-06 18:14:36:375,0.8108,0.0522,8.9374,-0.0145,0.0359,9.8066,-0.1552,0.1161,0.0051,-26.06,-36.44,22.06,322.19,-87.27,-166.24
62234,52.59091,-1.591733,145.97,13.55,4,115.55,19 / 19,7696014,2019-11-06 18:14:36:476,-0.2288,-0.0947,10.6321,-0.003,0.0159,9.8066,0.0238,0.0559,-0.0004,-26.19,-36.56,21.75,318.32,-87.49,-170.08
62235,52.59091,-1.591733,145.97,13.55,4,115.55,19 / 19,7696114,2019-11-06 18:14:36:576,0.6153,1.0108,10.4444,-0.0028,0.0077,9.8066,-0.0207,0.1229,-0.0565,-25.56,-36.62,22.0,318.58,-87.33,-169.71
62236,52.59091,-1.591733,145.97,13.55,4,115.55,19 / 19,7696214,2019-11-06 18:14:36:676,-0.517,-1.3038,9.1352,0.0139,0.0154,9.8065,0.02,-0.1073,0.073,-25.94,-36.37,22.19,317.29,-87.38,-171.04
62237,52.59091,-1.591733,145.97,13.55,4,115.55,19 / 19,7696313,2019-11-06 18:14:36:775,-0.6569,-1.1625,10.9668,-0.0083,-0.0081,9.8066,0.0354,0.2325,-0.1027,-26.12,-36.81,22.13,320.0,-87.6,-168.53
62238,52.59091,-1.591733,145.97,13.55,4,115.55,19 / 19,7696413,2019-11-06 18:14:36:875,-2.501,-0.6696,10.3642,0.0174,0.0473,9.8065,0.0253,-0.2584,0.0456,-25.69,-36.37,22.44,318.11,-87.94,-170.65
62239,52.59091,-1.591733,145.97,13.55,4,115.55,19 / 19,7696514,2019-11-06 18:14:36:976,0.2134,0.5131,9.5531,-0.0255,-0.0138,9.8066,-0.0461,0.1059,0.0031,-25.44,-36.25,21.88,319.06,-88.25,-171.03
62240,52.59091,-1.591733,145.97,13.55,4,115.55,19 / 19,7696614,2019-11-06 18:14:37:076,1.7004,1.233,10.0583,0.0063,0.027,9.8065,-0.0398,-0.3139,0.1826,-25.75,-36.25,21.88,316.87,-88.39,-172.19
62241,52.59091,-1.591733,145.97,13.55,4,115.55,19 / 19,7696714,2019-11-06 18:14:37:176,2.3505,1.777,10.6559,-0.0211,-0.0219,9.8066,0.0355,0.1026,-0.0585,-26.0,-36.37,22.25,320.92,-88.36,-168.21
62242,52.59091,-1.591733,145.97,13.55,4,115.55,19 / 19,7696814,2019-11-06 18:14:37:276,-0.4575,-1.1624,9.8148,0.0149,0.0205,9.8065,0.04,-0.2384,0.1073,-25.62,-36.25,22.75,319.18,-88.48,-171.27
62243,52.59091,-1.591733,145.97,13.55,4,115.55,22 / 22,7696914,2019-11-06 18:14:37:376,-1.0819,-0.9504,10.0479,-0.001,-0.0213,9.8066,-0.0047,0.0317,-0.0506,-25.5,-36.69,22.75,320.23,-88.6,-171.41
62244,52.59091,-1.591733,145.97,13.55,4,115.55,22 / 22,7697013,2019-11-06 18:14:37:475,1.5205,1.1865,9.3346,-0.0005,0.0185,9.8066,0.0088,-0.2352,0.1608,-26.19,-36.69,22.75,319.86,-88.6,-170.67
62245,52.59091,-1.591733,145.97,13.55,4,115.55,22 / 22,7697113,2019-11-06 18:14:37:575,1.3187,1.4254,9.0937,-0.0169,-0.0163,9.8066,-0.0334,0.0261,-0.0519,-25.62,-36.56,22.69,324.58,-88.69,-166.1
62246,52.59091,-1.591733,145.97,13.55,4,115.55,22 / 22,7697214,2019-11-06 18:14:37:676,-0.6366,1.4293,9.8296,0.0011,0.0073,9.8066,0.0404,-0.2441,0.1228,-25.06,-36.5,22.31,319.81,-88.77,-170.68
62247,52.59091,-1.591733,145.97,13.55,4,115.55,22 / 22,7697314,2019-11-06 18:14:37:776,-1.1178,-1.8907,10.4967,-0.01,-0.032,9.8066,0.0475,-0.1032,0.0608,-25.56,-36.5,22.19,315.96,-88.64,-173.27
62248,52.59091,-1.591733,145.97,13.55,4,115.55,22 / 22,7697414,2019-11-06 18:14:37:876,-0.4211,0.5525,9.4061,0.0068,-0.002,9.8066,-0.0117,-0.1165,0.0652,-25.75,-36.81,22.88,318.85,-88.53,-171.61
62249,52.59091,-1.591733,145.97,13.55,4,115.55,22 / 22,7697514,2019-11-06 18:14:37:976,1.0573,-0.9252,10.0977,-0.0295,-0.0088,9.8065,-0.0238,0.06,0.033,-25.37,-36.87,22.63,329.32,-88.64,-162.53
62250,52.59091,-1.591733,145.97,13.55,4,115.55,22 / 22,7697614,2019-11-06 18:14:38:076,-1.1381,0.5246,9.3861,-0.0032,0.0216,9.8066,0.0211,0.0341,-0.0388,-25.31,-36.44,22.56,343.37,-88.93,-148.91
62251,52.59091,-1.591733,145.97,13.55,4,115.55,22 / 22,7697713,2019-11-06 18:14:38:175,-0.9076,1.1323,9.5033,0.0152,0.0098,9.8066,-0.0037,0.2276,-0.1396,-25.69,-36.69,22.63,345.97,-88.82,-145.22
62252,52.59091,-1.591733,145.97,13.55,4,115.55,22 / 22,7697813,2019-11-06 18:14:38:275,0.4464,-2.9842,9.9268,0.0069,0.0308,9.8066,-0.0425,0.1575,-0.0987,-25.69,-36.06,22.69,346.54,-88.81,-144.66
62253,52.59091,-1.591733,145.97,13.55,4,115.55,20 / 21,7697913,2019-11-06 18:14:38:375,-1.1566,1.526,9.5695,-0.0093,0.0199,9.8066,-0.0927,0.1622,-0.058,-25.69,-36.25,22.44,349.03,-88.87,-140.98
62254,52.59091,-1.591733,145.97,13.55,4,115.55,20 / 21,7698014,2019-11-06 18:14:38:476,0.7383,-1.4203,9.3299,0.0177,0.0085,9.8066,0.0162,-0.0448,0.0258,-26.06,-36.12,22.56,346.45,-88.96,-144.79
62255,52.59091,-1.591733,145.97,13.55,4,115.55,20 / 21,7698113,2019-11-06 18:14:38:575,-0.2383,0.2381,10.1242,0.0056,-0.0294,9.8065,0.0824,0.0168,0.0041,-26.25,-36.12,22.44,338.93,-88.64,-150.78
62256,52.59091,-1.591733,145.97,13.55,4,115.55,20 / 21,7698213,2019-11-06 18:14:38:675,1.4242,1.2541,9.5218,0.0064,-0.0088,9.8066,0.038,-0.2349,0.0988,-25.31,-36.44,22.0,338.65,-88.57,-152.13
62257,52.59091,-1.591733,145.97,13.55,4,115.55,20 / 21,7698313,2019-11-06 18:14:38:775,0.8082,-0.1863,9.3471,-0.0202,-0.0421,9.8065,0.0002,-0.2087,0.1638,-25.37,-36.31,21.75,337.09,-88.54,-153.64
62258,52.59091,-1.591733,145.97,13.55,4,115.55,20 / 21,7698414,2019-11-06 18:14:38:876,0.4968,1.9812,9.7244,-0.0126,-0.0239,9.8065,-0.0249,-0.1915,0.1483,-25.62,-36.12,22.13,340.01,-88.27,-149.59
62259,52.59091,-1.591733,145.97,13.55,4,115.55,20 / 21,7698514,2019-11-06 18:14:38:976,0.5151,-2.825,9.8793,0.0006,-0.045,9.8065,0.153,-0.2526,0.0769,-25.69,-36.19,23.19,333.52,-88.07,-157.07
62260,52.59091,-1.591733,145.97,13.55,4,115.55,20 / 21,7698613,2019-11-06 18:14:39:075,1.2128,0.2419,9.6693,0.017,-0.0384,9.8065,0.0617,-0.1265,0.0223,-26.25,-36.31,22.31,333.07,-87.66,-156.03
62261,52.59091,-1.591733,145.97,13.55,4,115.55,20 / 21,7698714,2019-11-06 18:14:39:176,-2.1736,-0.8932,10.1204,0.0066,-0.0141,9.8066,0.0087,-0.2706,0.1109,-26.19,-36.12,22.69,333.17,-87.61,-157.19
62262,52.59091,-1.591733,145.97,13.55,4,115.55,20 / 21,7698813,2019-11-06 18:14:39:275,0.9166,-0.9133,10.2631,-0.009,-0.0378,9.8065,-0.0088,0.071,0.02,-25.69,-36.44,22.63,332.82,-87.41,-157.42
62263,52.59091,-1.591733,145.97,13.55,4,115.55,22 / 23,7698915,2019-11-06 18:14:39:377,-0.2489,-0.1068,10.0182,0.003,0.0134,9.8066,-0.0293,0.0685,-0.087,-25.75,-36.37,22.94,325.96,-87.36,-163.98
62264,52.59091,-1.591733,145.97,13.55,4,115.55,22 / 23,7699013,2019-11-06 18:14:39:475,-0.3219,0.208,9.1738,0.0005,0.0238,9.8066,-0.063,0.2752,-0.1279,-25.56,-35.94,22.56,324.12,-87.42,-165.79
62265,52.59091,-1.591733,145.97,13.55,4,115.55,22 / 23,7699113,2019-11-06 18:14:39:575,1.5766,2.7319,9.352,0.0317,0.0313,9.8065,-0.0177,0.3605,-0.2331,-25.75,-36.87,22.25,324.84,-87.52,-163.82
62266,52.59091,-1.591733,145.97,13.55,4,115.55,22 / 23,7699214,2019-11-06 18:14:39:676,-1.0158,-2.9288,9.857,0.0112,0.0329,9.8065,0.0313,0.1923,-0.1234,-25.87,-36.56,21.81,320.45,-87.52,-168.05
62267,52.59091,-1.591733,145.97,13.55,4,115.55,22 / 23,7699314,2019-11-06 18:14:39:776,1.9834,1.3055,9.1556,0.0209,0.0083,9.8065,-0.0256,0.4464,-0.2035,-25.69,-36.12,21.38,316.01,-87.26,-170.83
62268,52.59091,-1.591733,145.97,13.55,4,115.55,22 / 23,7699413,2019-11-06 18:14:39:875,-3.1954,-1.9535,9.9296,0.0314,0.0412,9.8065,0.0355,-0.0237,-0.0155,-25.69,-36.31,22.25,316.47,-87.14,-171.64
62269,52.59091,-1.591733,145.97,13.55,4,115.55,22 / 23,7699513,2019-11-06 18:14:39:975,0.5547,-0.5381,10.2376,0.0152,-0.0036,9.8066,0.0032,0.3219,-0.1775,-25.75,-36.62,21.88,318.46,-87.03,-169.6
62270,52.59091,-1.591733,145.97,13.55,4,115.55,22 / 23,7699613,2019-11-06 18:14:40:075,-1.2457,-2.1755,10.4285,0.0145,0.032,9.8066,0.0465,-0.1604,0.053,-26.06,-36.12,22.38,316.37,-87.04,-171.68
62271,52.59091,-1.591733,145.97,13.55,4,115.55,22 / 23,7699713,2019-11-06 18:14:40:175,-0.3896,1.1281,9.8125,-0.004,-0.0239,9.8065,-0.0006,0.099,0.0102,-25.62,-36.0,22.31,317.45,-86.94,-170.56
62272,52.59091,-1.591733,145.97,13.55,4,115.55,22 / 23,7699814,2019-11-06 18:14:40:276,1.0247,0.5913,10.5708,0.0095,0.0084,9.8066,-0.0666,-0.1702,0.0548,-25.69,-36.0,22.5,318.66,-86.68,-170.51
62273,52.59091,-1.591733,145.97,13.55,4,115.55,21 / 22,7699913,2019-11-06 18:14:40:375,-0.6764,0.5498,10.6978,-0.02,-0.0133,9.8065,0.034,-0.1217,0.0736,-26.0,-35.81,22.06,319.09,-86.57,-168.72
62274,52.59091,-1.591733,145.97,13.55,4,115.55,21 / 22,7700014,2019-11-06 18:14:40:476,1.6758,-0.0656,8.0022,-0.0121,0.005,9.8066,-0.067,-0.0858,0.1602,-25.56,-36.75,21.19,316.01,-86.88,-170.47
62275,52.59091,-1.591733,145.97,13.55,4,115.55,21 / 22,7700114,2019-11-06 18:14:40:576,0.7293,-0.692,11.1228,0.0157,-0.0029,9.8066,0.1436,0.0335,-0.1264,-25.94,-36.62,21.88,320.79,-87.04,-167.37
62276,52.59091,-1.591733,145.97,13.55,4,115.55,21 / 22,7700213,2019-11-06 18:14:40:675,3.6271,-2.394,9.7962,0.0482,-0.0012,9.8065,0.1768,0.0553,-0.0166,-25.69,-35.87,22.13,316.71,-86.88,-171.22
62277,52.59091,-1.591733,145.97,13.55,4,115.55,21 / 22,7700313,2019-11-06 18:14:40:775,-1.8237,1.4762,10.6067,0.0324,-0.0082,9.8065,0.1045,0.0741,-0.0276,-26.12,-36.31,22.5,320.36,-86.54,-168.79
62278,52.59091,-1.591733,145.97,13.55,4,115.55,21 / 22,7700414,2019-11-06 18:14:40:876,0.5633,-1.2811,9.6541,0.0113,-0.0041,9.8066,0.0317,0.098,-0.0424,-25.25,-36.31,22.69,319.91,-86.26,-170.08
62279,52.59091,-1.591733,145.97,13.55,4,115.55,21 / 22,7700514,2019-11-06 18:14:40:976,-0.9756,0.7041,9.5168,0.0132,0.0114,9.8066,-0.0422,0.1288,-0.1046,-26.06,-35.94,22.38,317.0,-86.21,-170.44
62280,52.59091,-1.591733,145.97,13.55,4,115.55,21 / 22,7700613,2019-11-06 18:14:41:075,1.1926,-0.8322,10.2712,-0.0092,0.0036,9.8066,-0.0446,0.1582,0.003,-25.94,-35.81,22.88,320.32,-86.22,-168.61
62281,52.59091,-1.591733,145.97,13.55,4,115.55,21 / 22,7700714,2019-11-06 18:14:41:176,-1.7074,3.1789,9.8446,-0.005,0.0153,9.8066,-0.0301,0.168,-0.1082,-25.37,-35.75,22.0,320.5,-86.17,-168.16
62282,52.59091,-1.591733,145.97,13.55,4,115.55,21 / 22,7700814,2019-11-06 18:14:41:276,-1.5698,0.6041,9.9726,0.0157,0.0001,9.8066,-0.0381,0.1152,-0.0349,-26.31,-35.25,22.5,321.13,-85.99,-167.76
62283,52.590466,-1.59015,147.11,13.39,4,115.1,21 / 21,7700914,2019-11-06 18:14:41:376,-1.9824,-0.4815,10.1114,-0.0148,-0.0123,9.8066,0.0329,0.2607,-0.1097,-26.44,-35.5,22.69,325.0,-85.97,-164.1
62284,52.590466,-1.59015,147.11,13.39,4,115.1,21 / 21,7701013,2019-11-06 18:14:41:475,-0.3724,-2.3349,9.5915,-0.0345,-0.032,9.8065,-0.0189,0.127,-0.1085,-26.75,-35.81,22.63,324.79,-85.98,-163.21
62285,52.590466,-1.59015,147.11,13.39,4,115.1,21 / 21,7701113,2019-11-06 18:14:41:575,0.7244,-0.3889,8.9358,-0.0088,-0.0121,9.8066,-0.1293,0.2284,-0.0703,-26.75,-36.0,22.25,328.35,-86.08,-158.63
62286,52.590466,-1.59015,147.11,13.39,4,115.1,21 / 21,7701213,2019-11-06 18:14:41:675,-3.0619,-0.5658,10.0194,0.0147,-0.0116,9.8066,-0.0357,0.0448,-0.0175,-25.81,-35.75,21.81,330.38,-86.34,-157.9
62287,52.590466,-1.59015,147.11,13.39,4,115.1,21 / 21,7701314,2019-11-06 18:14:41:776,-1.9373,1.22,9.9836,0.0086,-0.012,9.8065,0.0242,0.213,-0.0943,-26.31,-36.56,22.5,328.43,-86.22,-160.9
62288,52.590466,-1.59015,147.11,13.39,4,115.1,21 / 21,7701414,2019-11-06 18:14:41:876,-3.2351,-1.6779,10.1236,0.0266,0.0122,9.8065,0.0415,-0.1596,0.1255,-26.0,-36.25,22.94,323.87,-86.02,-165.12
62289,52.590466,-1.59015,147.11,13.39,4,115.1,21 / 21,7701514,2019-11-06 18:14:41:976,2.0965,1.6699,9.421,-0.0224,-0.0157,9.8066,-0.0866,0.2511,-0.1903,-26.0,-36.19,22.75,324.16,-86.0,-164.84
62290,52.590466,-1.59015,147.11,13.39,4,115.1,21 / 21,7701614,2019-11-06 18:14:42:076,0.9024,0.1537,9.9063,0.0002,0.0133,9.8066,0.0274,-0.1826,0.1248,-26.25,-36.12,23.0,323.47,-86.24,-165.64
62291,52.590466,-1.59015,147.11,13.39,4,115.1,21 / 21,7701713,2019-11-06 18:14:42:175,3.8291,1.7959,9.6812,0.0091,-0.036,9.8065,-0.0432,0.2307,-0.0673,-26.5,-36.31,22.69,324.07,-86.13,-165.01
62292,52.590466,-1.59015,147.11,13.39,4,115.1,21 / 21,7701813,2019-11-06 18:14:42:275,-2.958,-0.3736,9.867,0.0377,0.0203,9.8065,0.0388,-0.3691,0.2168,-25.94,-35.62,22.88,324.81,-86.02,-164.24
62293,52.590466,-1.59015,147.11,13.39,4,115.1,21 / 22,7701913,2019-11-06 18:14:42:375,-0.7444,-1.6477,10.3349,-0.0063,-0.0238,9.8066,0.0818,0.0871,-0.1083,-25.62,-37.19,22.88,321.9,-85.8,-166.76
62294,52.590466,-1.59015,147.11,13.39,4,115.1,21 / 22,7702013,2019-11-06 18:14:42:475,-2.3575,-0.8727,10.1874,-0.0001,0.0222,9.8066,-0.0132,-0.2708,0.0454,-25.62,-36.44,22.5,318.69,-85.8,-169.85
62295,52.590466,-1.59015,147.11,13.39,4,115.1,21 / 22,7702113,2019-11-06 18:14:42:575,-0.342,-0.5556,9.8999,0.0109,0.0032,9.8066,-0.0497,-0.0333,0.0678,-25.87,-36.12,22.63,317.62,-85.86,-170.9
62296,52.590466,-1.59015,147.11,13.39,4,115.1,21 / 22,7702214,2019-11-06 18:14:42:676,3.1726,1.7845,9.8912,0.0299,0.0464,9.8064,0.0442,-0.3865,0.1558,-25.12,-36.25,21.81,319.02,-86.05,-169.46
62297,52.590466,-1.59015,147.11,13.39,4,115.1,21 / 22,7702313,2019-11-06 18:14:42:775,1.1218,1.6789,9.8445,0.0297,0.0202,9.8065,0.0086,-0.1253,0.1389,-25.56,-36.56,22.69,313.04,-86.02,-175.28
62298,52.590466,-1.59015,147.11,13.39,4,115.1,21 / 22,7702413,2019-11-06 18:14:42:875,1.571,0.6132,9.8717,0.0322,0.0261,9.8065,0.0538,-0.3519,0.1634,-24.94,-36.37,23.0,314.89,-85.88,-174.56
62299,52.590466,-1.59015,147.11,13.39,4,115.1,21 / 22,7702514,2019-11-06 18:14:42:976,-3.9812,1.0794,10.4193,-0.0066,0.0084,9.8066,-0.0472,-0.1009,0.0357,-25.75,-36.56,22.81,312.05,-85.85,-176.08
62300,52.590466,-1.59015,147.11,13.39,4,115.1,21 / 22,7702614,2019-11-06 18:14:43:076,-2.2299,1.2107,9.9915,-0.012,0.028,9.8065,-0.0364,-0.246,0.1331,-25.12,-36.31,22.5,314.05,-86.23,-175.63
62301,52.590466,-1.59015,147.11,13.39,4,115.1,21 / 22,7702714,2019-11-06 18:14:43:176,-1.5565,-0.3459,9.8531,-0.0099,0.0258,9.8066,0.0238,-0.2001,0.097,-25.87,-36.94,23.13,315.19,-86.4,-173.55
62302,52.590466,-1.59015,147.11,13.39,4,115.1,21 / 22,7702813,2019-11-06 18:14:43:275,1.1157,1.0689,9.694,0.0015,0.0047,9.8066,0.0584,-0.117,0.0145,-26.19,-36.56,23.0,316.6,-86.35,-172.17
62303,52.590466,-1.59015,147.11,13.39,4,115.1,22 / 22,7702913,2019-11-06 18:14:43:375,-0.3396,-0.7519,9.1873,0.0333,0.0147,9.8065,0.0324,-0.2099,0.1081,-25.69,-36.12,22.81,315.04,-86.18,-173.59
62304,52.590466,-1.59015,147.11,13.39,4,115.1,22 / 22,7703014,2019-11-06 18:14:43:476,2.0399,0.9948,9.6761,0.0068,-0.0031,9.8066,-0.0332,0.0409,-0.018,-25.12,-36.06,22.88,315.77,-85.91,-173.75
62305,52.590466,-1.59015,147.11,13.39,4,115.1,22 / 22,7703114,2019-11-06 18:14:43:576,1.0432,-0.4717,10.2022,0.0026,0.0372,9.8065,0.0187,-0.2001,0.1105,-25.56,-36.69,23.0,313.82,-86.06,-174.57
62306,52.590466,-1.59015,147.11,13.39,4,115.1,22 / 22,7703213,2019-11-06 18:14:43:675,1.8939,1.3705,9.7364,0.0231,-0.0168,9.8065,0.0171,0.025,-0.0616,-26.06,-36.06,22.5,314.06,-85.99,-174.37
62307,52.590466,-1.59015,147.11,13.39,4,115.1,22 / 22,7703313,2019-11-06 18:14:43:775,-1.7337,-0.8287,10.0332,0.0325,0.0189,9.8065,0.051,-0.2089,0.114,-25.69,-36.0,22.31,310.43,-85.63,-176.2
62308,52.590466,-1.59015,147.11,13.39,4,115.1,22 / 22,7703414,2019-11-06 18:14:43:876,-0.1687,1.0369,10.0731,0.0135,-0.0083,9.8066,-0.0343,0.0375,0.0138,-25.31,-36.25,22.5,312.32,-85.43,-176.61
62309,52.590466,-1.59015,147.11,13.39,4,115.1,22 / 22,7703514,2019-11-06 18:14:43:976,-1.7017,0.0645,10.2884,0.0082,0.0157,9.8066,-0.0586,-0.0949,0.1283,-25.31,-36.25,23.31,312.71,-85.37,-176.19
62310,52.590466,-1.59015,147.11,13.39,4,115.1,22 / 22,7703614,2019-11-06 18:14:44:076,1.7673,0.0962,9.826,-0.0074,0.0209,9.8066,-0.164,-0.0435,0.0868,-25.5,-36.56,22.69,314.15,-85.72,-175.03
62311,52.590466,-1.59015,147.11,13.39,4,115.1,22 / 22,7703714,2019-11-06 18:14:44:176,-0.3077,-1.129,9.2573,-0.023,0.0177,9.8066,0.018,-0.0948,0.0746,-25.62,-36.31,22.75,316.27,-86.12,-172.37
62312,52.590466,-1.59015,147.11,13.39,4,115.1,22 / 22,7703814,2019-11-06 18:14:44:276,0.1317,-0.5464,9.4123,0.0144,-0.0016,9.8066,0.0666,-0.1077,0.0508,-24.87,-36.0,22.69,318.14,-85.91,-171.5
62313,52.590466,-1.59015,147.11,13.39,4,115.1,21 / 23,7703914,2019-11-06 18:14:44:376,1.6033,-1.3095,9.6123,-0.0233,0.0054,9.8066,-0.002,-0.0787,-0.0087,-25.87,-37.06,22.75,317.58,-85.8,-170.82
62314,52.590466,-1.59015,147.11,13.39,4,115.1,21 / 23,7704013,2019-11-06 18:14:44:475,0.3167,-0.0094,9.7315,-0.0076,0.0106,9.8066,0.0524,-0.0552,-0.0248,-25.62,-36.44,22.81,318.67,-85.96,-169.98
62315,52.590466,-1.59015,147.11,13.39,4,115.1,21 / 23,7704113,2019-11-06 18:14:44:575,0.7599,-1.0563,9.9419,0.0192,-0.0003,9.8066,-0.0872,-0.0828,0.1101,-25.56,-36.56,23.06,318.11,-86.03,-170.49
62316,52.590466,-1.59015,147.11,13.39,4,115.1,21 / 23,7704213,2019-11-06 18:14:44:675,-1.1515,0.8316,10.4002,0.0439,-0.007,9.8065,0.0202,-0.1109,0.0648,-25.31,-36.25,23.5,319.54,-85.8,-171.38
62317,52.590466,-1.59015,147.11,13.39,4,115.1,21 / 23,7704314,2019-11-06 18:14:44:776,-0.589,-0.7534,10.1245,0.0145,-0.0037,9.8066,0.0927,-0.1184,-0.0209,-25.56,-36.5,23.13,316.33,-85.62,-171.95
62318,52.590466,-1.59015,147.11,13.39,4,115.1,21 / 23,7704414,2019-11-06 18:14:44:876,-1.4818,0.5911,10.1546,-0.0077,0.0112,9.8066,0.0304,-0.0324,-0.0179,-25.56,-36.12,23.0,314.76,-85.47,-173.31
62319,52.590466,-1.59015,147.11,13.39,4,115.1,21 / 23,7704514,2019-11-06 18:14:44:976,-0.09,-0.964,9.0303,-0.0193,0.0207,9.8066,-0.1235,-0.0592,0.0462,-25.56,-37.19,23.06,314.4,-85.79,-173.81
62320,52.590466,-1.59015,147.11,13.39,4,115.1,21 / 23,7704614,2019-11-06 18:14:45:076,-0.0091,-0.1574,10.3141,-0.0117,0.0158,9.8066,-0.0677,-0.0263,0.001,-25.75,-36.44,22.75,315.83,-86.25,-172.89
62321,52.590466,-1.59015,147.11,13.39,4,115.1,21 / 23,7704714,2019-11-06 18:14:45:176,0.8001,-0.7909,10.4014,0.0093,-0.0022,9.8066,0.0036,0.009,0.0139,-25.69,-35.81,22.88,315.88,-86.48,-173.03
62322,52.590466,-1.59015,147.11,13.39,4,115.1,21 / 23,7704814,2019-11-06 18:14:45:276,-1.4067,0.8501,9.7017,0.0286,-0.0161,9.8066,-0.0011,0.0349,-0.0042,-25.81,-36.56,23.13,313.74,-86.15,-174.72
62323,52.590466,-1.59015,147.11,13.39,4,115.1,22 / 22,7704914,2019-11-06 18:14:45:376,0.9641,-0.2051,10.2526,-0.0116,0.0011,9.8066,0.0672,0.0005,-0.0165,-25.37,-37.06,23.75,316.11,-86.1,-174.77
62324,52.590466,-1.59015,147.11,13.39,4,115.1,22 / 22,7705015,2019-11-06 18:14:45:477,-1.1742,1.2783,10.041,-0.0058,0.0031,9.8066,0.017,0.0087,-0.0707,-24.37,-36.81,23.38,316.49,-86.14,-174.26
62325,52.590466,-1.59015,147.11,13.39,4,115.1,22 / 22,7705114,2019-11-06 18:14:45:576,0.044,0.2854,9.5465,0.0057,0.0039,9.8066,-0.0038,0.0151,0.0047,-25.87,-36.31,22.75,314.03,-86.19,-174.56
62326,52.590466,-1.59015,147.11,13.39,4,115.1,22 / 22,7705214,2019-11-06 18:14:45:676,-0.7911,0.2675,10.1319,-0.0103,0.0013,9.8066,-0.0208,0.0437,-0.0358,-25.19,-36.06,23.38,316.22,-86.23,-173.57
62327,52.590466,-1.59015,147.11,13.39,4,115.1,22 / 22,7705313,2019-11-06 18:14:45:775,1.3017,0.7116,9.2449,0.015,-0.0128,9.8066,0.0268,0.1041,-0.0064,-25.12,-36.19,23.19,315.25,-86.17,-174.44
62328,52.590466,-1.59015,147.11,13.39,4,115.1,22 / 22,7705413,2019-11-06 18:14:45:875,-1.9468,-0.4156,9.9281,0.0111,0.0187,9.8065,0.073,-0.0749,-0.0275,-24.81,-36.0,23.5,314.75,-86.0,-176.06
62329,52.590466,-1.59015,147.11,13.39,4,115.1,22 / 22,7705514,2019-11-06 18:14:45:976,-0.6613,1.0207,10.1918,-0.0101,0.0162,9.8065,-0.069,0.2101,-0.0528,-25.19,-36.62,22.88,314.49,-86.0,-174.95
62330,52.590466,-1.59015,147.11,13.39,4,115.1,22 / 22,7705614,2019-11-06 18:14:46:076,-0.722,-1.6969,9.5025,-0.0065,0.025,9.8066,-0.039,-0.0873,0.0792,-25.56,-36.31,23.25,312.92,-86.26,-175.67
62331,52.590466,-1.59015,147.11,13.39,4,115.1,22 / 22,7705714,2019-11-06 18:14:46:176,-0.2619,1.5893,11.0836,0.0054,-0.0195,9.8066,0.116,0.1012,-0.0733,-25.25,-36.06,22.94,313.31,-85.92,-176.08
62332,52.590466,-1.59015,147.11,13.39,4,115.1,22 / 22,7705813,2019-11-06 18:14:46:275,-0.6253,1.4974,8.9562,0.036,0.0053,9.8065,0.0522,-0.1906,0.0506,-25.06,-36.37,23.06,311.61,-85.76,-177.57
62333,52.590466,-1.59015,147.11,13.39,4,115.1,22 / 24,7705913,2019-11-06 18:14:46:375,1.0696,0.7297,9.5672,0.0036,-0.0222,9.8066,0.0354,-0.0334,0.0364,-25.56,-36.5,23.25,312.35,-85.92,-175.95
62334,52.590466,-1.59015,147.11,13.39,4,115.1,22 / 24,7706014,2019-11-06 18:14:46:476,-0.5175,1.9962,9.8006,0.004,-0.0177,9.8066,0.055,-0.2549,0.1088,-25.25,-36.19,23.25,314.59,-85.82,-174.79
62335,52.590466,-1.59015,147.11,13.39,4,115.1,22 / 24,7706113,2019-11-06 18:14:46:575,-2.708,-1.0323,10.0027,-0.02,-0.0268,9.8065,0.0275,-0.204,0.1166,-25.75,-35.81,22.69,311.84,-85.73,-176.27
62336,52.590466,-1.59015,147.11,13.39,4,115.1,22 / 24,7706214,2019-11-06 18:14:46:676,0.4603,0.0116,9.3684,-0.0086,-0.0115,9.8066,-0.0023,-0.2126,0.0857,-25.87,-36.87,23.19,314.09,-85.79,-174.1
62337,52.590466,-1.59015,147.11,13.39,4,115.1,22 / 24,7706314,2019-11-06 18:14:46:776,-3.2604,-1.4937,10.4402,-0.0147,-0.0309,9.8065,0.0562,-0.3736,0.1998,-25.31,-36.19,23.06,317.51,-85.82,-172.03
62338,52.590466,-1.59015,147.11,13.39,4,115.1,22 / 24,7706414,2019-11-06 18:14:46:876,0.8902,2.5,9.6575,-0.0129,-0.0382,9.8065,-0.0047,-0.2357,0.1446,-25.44,-35.94,23.0,317.18,-85.78,-172.32
62339,52.590466,-1.59015,147.11,13.39,4,115.1,22 / 24,7706514,2019-11-06 18:14:46:976,-2.1089,-0.3103,10.4723,-0.0215,-0.0281,9.8065,0.0457,-0.4156,0.2247,-25.06,-36.12,23.31,315.25,-85.8,-174.15
62340,52.590466,-1.59015,147.11,13.39,4,115.1,22 / 24,7706615,2019-11-06 18:14:47:077,2.2457,2.2499,9.7928,-0.0149,-0.0306,9.8065,-0.0414,-0.147,0.0464,-24.75,-36.5,23.0,317.37,-85.83,-172.17
62341,52.590466,-1.59015,147.11,13.39,4,115.1,22 / 24,7706714,2019-11-06 18:14:47:176,-0.8179,-1.397,9.5907,-0.029,-0.0014,9.8066,0.0241,-0.3889,0.1843,-25.25,-35.94,23.63,315.6,-85.83,-175.12
62342,52.590466,-1.59015,147.11,13.39,4,115.1,22 / 24,7706814,2019-11-06 18:14:47:276,2.3231,1.3323,9.2423,-0.0157,-0.0314,9.8065,-0.0236,0.0967,-0.0239,-25.62,-36.56,23.13,315.23,-86.06,-173.24
62343,52.590466,-1.59015,147.11,13.39,4,115.1,20 / 20,7706914,2019-11-06 18:14:47:376,-2.1263,-1.9286,9.935,0.0011,0.0085,9.8066,-0.0017,-0.3168,0.1486,-25.44,-35.81,23.38,316.45,-86.2,-173.32
62344,52.590466,-1.59015,147.11,13.39,4,115.1,20 / 20,7707013,2019-11-06 18:14:47:475,-0.3325,-1.102,10.1566,-0.0161,-0.0525,9.8065,0.0089,0.2892,-0.1358,-25.81,-36.81,23.31,317.81,-86.01,-170.76
62345,52.590466,-1.59015,147.11,13.39,4,115.1,20 / 20,7707113,2019-11-06 18:14:47:575,-1.9263,-3.5848,10.485,0.0272,0.0068,9.8066,0.0896,-0.205,0.0694,-25.75,-36.37,23.13,315.99,-85.79,-172.39
62346,52.590466,-1.59015,147.11,13.39,4,115.1,20 / 20,7707214,2019-11-06 18:14:47:676,1.6924,-0.207,9.4832,0.0033,-0.0289,9.8066,-0.0203,0.3982,-0.2749,-25.44,-36.19,23.63,317.19,-85.45,-173.33
62347,52.590466,-1.59015,147.11,13.39,4,115.1,20 / 20,7707314,2019-11-06 18:14:47:776,0.8291,2.1512,9.6068,0.0153,0.0402,9.8066,-0.0461,-0.1125,0.0308,-24.94,-36.12,24.0,315.99,-85.43,-174.45
62348,52.590466,-1.59015,147.11,13.39,4,115.1,20 / 20,7707413,2019-11-06 18:14:47:875,2.5339,2.5437,9.5411,-0.0407,-0.0009,9.8065,-0.1288,0.4617,-0.2065,-25.25,-35.81,23.06,313.86,-85.71,-175.39
62349,52.590466,-1.59015,147.11,13.39,4,115.1,20 / 20,7707513,2019-11-06 18:14:47:975,-0.7087,1.1738,9.6218,-0.0033,0.0448,9.8065,-0.0801,0.1206,-0.0207,-25.44,-36.5,23.44,311.33,-85.96,-177.99
62350,52.590466,-1.59015,147.11,13.39,4,115.1,20 / 20,7707614,2019-11-06 18:14:48:076,0.6287,-3.7379,9.6208,0.0142,-0.005,9.8066,-0.0068,0.4197,-0.1865,-25.87,-37.19,23.0,310.71,-85.84,-177.35
62351,52.590466,-1.59015,147.11,13.39,4,115.1,20 / 20,7707714,2019-11-06 18:14:48:176,0.2986,-1.4645,9.6407,0.0329,0.045,9.8065,0.0313,0.2508,-0.1502,-25.44,-36.75,22.81,313.69,-85.83,-175.56
62352,52.590466,-1.59015,147.11,13.39,4,115.1,20 / 20,7707814,2019-11-06 18:14:48:276,0.366,-2.0561,10.4247,0.0097,0.0095,9.8066,-0.0384,0.281,-0.1948,-25.19,-36.19,22.88,310.21,-85.79,-178.92
62353,52.590466,-1.59015,147.11,13.39,4,115.1,19 / 21,7707913,2019-11-06 18:14:48:375,1.1933,1.8385,9.3388,-0.0083,0.0291,9.8065,-0.0942,0.262,-0.0499,-25.25,-36.5,23.38,311.09,-85.83,-178.11
62354,52.590466,-1.59015,147.11,13.39,4,115.1,19 / 21,7708014,2019-11-06 18:14:48:476,0.2991,-1.1418,10.2101,-0.0021,0.0236,9.8065,-0.0105,0.1877,-0.1038,-25.37,-36.62,23.31,310.87,-86.06,-178.43
62355,52.590466,-1.59015,147.11,13.39,4,115.1,19 / 21,7708114,2019-11-06 18:14:48:576,0.764,2.3094,10.013,0.0006,0.0182,9.8066,-0.0056,0.2786,-0.099,-25.44,-36.44,22.88,312.45,-86.15,-177.08
62356,52.590466,-1.59015,147.11,13.39,4,115.1,19 / 21,7708213,2019-11-06 18:14:48:675,-0.7532,-0.9514,10.0378,0.0111,0.0111,9.8066,0.0002,0.0688,0.0102,-25.75,-36.5,23.63,314.1,-86.07,-175.67
62357,52.590466,-1.59015,147.11,13.39,4,115.1,19 / 21,7708314,2019-11-06 18:14:48:776,0.8794,0.9853,9.6308,0.0032,0.0032,9.8066,-0.0015,0.217,-0.1198,-25.06,-36.0,23.63,317.23,-85.97,-173.68
62358,52.590466,-1.59015,147.11,13.39,4,115.1,19 / 21,7708414,2019-11-06 18:14:48:876,-1.3102,-1.5716,10.1044,-0.0007,0.0231,9.8066,-0.0054,-0.0469,0.0028,-25.31,-36.0,23.5,318.48,-86.11,-172.61
62359,52.590466,-1.59015,147.11,13.39,4,115.1,19 / 21,7708514,2019-11-06 18:14:48:976,-0.1813,0.0148,10.0029,-0.0051,0.0026,9.8066,-0.0335,0.1981,-0.054,-25.75,-36.06,23.56,319.44,-86.22,-170.7
62360,52.590466,-1.59015,147.11,13.39,4,115.1,19 / 21,7708616,2019-11-06 18:14:49:078,-1.7636,-0.4951,10.0725,0.018,0.0107,9.8066,-0.0052,-0.1112,0.0597,-25.75,-36.19,23.31,317.24,-86.23,-171.54
62361,52.590466,-1.59015,147.11,13.39,4,115.1,19 / 21,7708714,2019-11-06 18:14:49:176,0.9565,0.3975,10.4559,0.0117,-0.0229,9.8066,0.1232,0.0895,-0.049,-25.25,-36.06,23.13,319.38,-85.92,-170.34
62362,52.590466,-1.59015,147.11,13.39,4,115.1,19 / 21,7708814,2019-11-06 18:14:49:276,-0.5606,1.1705,9.3283,0.0192,0.0061,9.8066,0.0892,-0.2175,0.0678,-25.19,-36.19,23.63,320.76,-85.9,-170.3
62363,52.590466,-1.59015,147.11,13.39,4,115.1,21 / 22,7708914,2019-11-06 18:14:49:376,0.6391,1.3756,9.6526,-0.0068,-0.0294,9.8066,0.0068,0.0083,0.1008,-25.62,-35.81,24.0,323.38,-85.97,-166.81
62364,52.590466,-1.59015,147.11,13.39,4,115.1,21 / 22,7709013,2019-11-06 18:14:49:475,-0.0666,-0.2296,10.1251,-0.0163,0.0004,9.8066,-0.0078,-0.3111,0.2675,-25.37,-35.44,23.75,327.03,-85.93,-164.49
62365,52.590466,-1.59015,147.11,13.39,4,115.1,21 / 22,7709113,2019-11-06 18:14:49:575,-1.0765,-1.693,9.9338,-0.0195,-0.0414,9.8065,0.0406,0.0098,-0.0109,-25.94,-35.69,24.19,326.15,-85.8,-164.11
62366,52.590466,-1.59015,147.11,13.39,4,115.1,21 / 22,7709214,2019-11-06 18:14:49:676,-0.9111,-1.803,9.9767,0.0131,0.0035,9.8066,0.084,-0.2684,0.1331,-26.31,-35.19,23.38,328.57,-85.67,-160.57
62367,52.590466,-1.59015,147.11,13.39,4,115.1,21 / 22,7709314,2019-11-06 18:14:49:776,-0.3549,-1.0483,9.7564,0.0041,-0.0223,9.8065,0.0095,-0.0877,0.0156,-26.5,-35.37,23.19,331.86,-85.69,-157.52
62368,52.590466,-1.59015,147.11,13.39,4,115.1,21 / 22,7709414,2019-11-06 18:14:49:876,1.5808,0.9644,9.9335,-0.032,0.0092,9.8065,0.0142,-0.2349,0.0408,-26.5,-35.62,23.56,335.16,-85.97,-155.77
62369,52.590466,-1.59015,147.11,13.39,4,115.1,21 / 22,7709514,2019-11-06 18:14:49:976,0.7417,-0.2914,10.2013,-0.0301,-0.0308,9.8065,-0.0051,-0.2563,0.1859,-26.0,-36.12,23.25,329.19,-85.91,-160.07
62370,52.590466,-1.59015,147.11,13.39,4,115.1,21 / 22,7709614,2019-11-06 18:14:50:076,1.0633,1.1448,9.0271,0.0055,-0.0156,9.8065,-0.0492,-0.1989,0.1232,-25.87,-36.12,23.81,329.84,-85.8,-160.65
62371,52.590466,-1.59015,147.11,13.39,4,115.1,21 / 22,7709714,2019-11-06 18:14:50:176,-1.297,-1.4554,10.3833,0.0038,-0.0142,9.8065,0.1088,-0.3175,0.0489,-26.19,-35.44,24.13,329.1,-85.94,-161.49
62372,52.590466,-1.59015,147.11,13.39,4,115.1,21 / 22,7709814,2019-11-06 18:14:50:276,1.3286,0.7139,10.0274,-0.0002,-0.0286,9.8066,0.0841,-0.1256,0.0124,-26.06,-35.56,22.5,328.15,-85.94,-161.06
62373,52.59,-1.588526,148.6,13.78,4,116.81,20 / 21,7709914,2019-11-06 18:14:50:376,-2.4191,-1.9344,10.3208,0.0015,-0.0164,9.8065,0.041,-0.3374,0.151,-25.62,-36.37,24.56,327.84,-85.94,-163.82
62374,52.59,-1.588526,148.6,13.78,4,116.81,20 / 21,7710014,2019-11-06 18:14:50:476,1.7455,1.7084,9.6355,0.0044,-0.0229,9.8066,0.0707,-0.1992,0.0735,-25.81,-36.37,24.13,322.49,-85.86,-167.58
62375,52.59,-1.588526,148.6,13.78,4,116.81,20 / 21,7710114,2019-11-06 18:14:50:576,-1.5046,-1.3276,10.3516,-0.0073,-0.0197,9.8066,0.0651,-0.2983,0.1274,-26.19,-36.37,23.81,318.27,-85.78,-171.5
62376,52.59,-1.588526,148.6,13.78,4,116.81,20 / 21,7710214,2019-11-06 18:14:50:676,1.0299,0.6233,9.5159,0.002,-0.0239,9.8066,0.0298,-0.0609,0.0527,-25.75,-36.81,23.5,318.39,-85.74,-171.28
62377,52.59,-1.588526,148.6,13.78,4,116.81,20 / 21,7710314,2019-11-06 18:14:50:776,-0.3713,-0.6558,9.221,0.0169,-0.0111,9.8065,0.0978,-0.1965,0.0065,-25.0,-35.94,23.31,317.28,-85.77,-172.22
62378,52.59,-1.588526,148.6,13.78,4,116.81,20 / 21,7710414,2019-11-06 18:14:50:876,2.1508,0.7894,9.981,-0.0173,-0.0078,9.8066,0.0756,-0.004,-0.1279,-25.44,-36.19,23.38,318.02,-85.84,-171.57
62379,52.59,-1.588526,148.6,13.78,4,116.81,20 / 21,7710514,2019-11-06 18:14:50:976,-0.7366,-0.5409,8.8469,-0.0064,-0.0068,9.8066,-0.086,-0.2868,0.2307,-25.19,-35.94,24.06,315.9,-85.94,-174.92
62380,52.59,-1.588526,148.6,13.78,4,116.81,20 / 21,7710614,2019-11-06 18:14:51:076,0.4601,1.8548,8.6181,-0.0418,-0.013,9.8065,-0.2024,-0.0511,0.1192,-25.31,-36.06,23.13,313.7,-85.96,-175.74
62381,52.59,-1.588526,148.6,13.78,4,116.81,20 / 21,7710714,2019-11-06 18:14:51:176,-0.3795,-0.772,10.7526,-0.0339,0.0023,9.8065,0.0487,-0.1887,0.042,-24.75,-36.69,23.38,311.54,-86.15,-177.87
62382,52.59,-1.588526,148.6,13.78,4,116.81,20 / 21,7710814,2019-11-06 18:14:51:276,-0.5045,0.2725,8.7011,0.0142,-0.0277,9.8065,0.1617,0.0014,-0.0502,-25.0,-36.75,23.63,316.06,-86.33,-174.99
62383,52.59,-1.588526,148.6,13.78,4,116.81,19 / 21,7710913,2019-11-06 18:14:51:375,-1.9025,0.4487,8.3209,0.0221,-0.0005,9.8066,-0.0619,0.001,0.0205,-25.62,-36.56,23.19,316.87,-86.39,-171.94
62384,52.59,-1.588526,148.6,13.78,4,116.81,19 / 21,7711014,2019-11-06 18:14:51:476,1.8347,0.3155,10.8117,-0.0457,0.0127,9.8065,-0.122,0.0795,-0.0202,-25.06,-36.62,23.31,318.7,-86.45,-171.31
62385,52.59,-1.588526,148.6,13.78,4,116.81,19 / 21,7711114,2019-11-06 18:14:51:576,-1.3037,1.2542,8.7202,-0.0411,0.0191,9.8065,-0.0979,-0.0283,0.0681,-25.25,-36.56,22.75,318.53,-86.72,-171.67
62386,52.59,-1.588526,148.6,13.78,4,116.81,19 / 21,7711214,2019-11-06 18:14:51:676,-0.1174,0.8351,8.9562,0.0165,-0.0027,9.8066,-0.0052,0.106,-0.0505,-24.81,-35.81,23.44,316.55,-86.63,-173.56
62387,52.59,-1.588526,148.6,13.78,4,116.81,19 / 21,7711314,2019-11-06 18:14:51:776,1.0988,0.3473,10.0088,0.0202,0.0027,9.8066,0.0621,0.0826,-0.0593,-25.31,-36.69,23.25,317.3,-86.58,-172.73
62388,52.59,-1.588526,148.6,13.78,4,116.81,19 / 21,7711414,2019-11-06 18:14:51:876,-0.75,-0.3101,9.4672,-0.0015,0.0091,9.8066,0.0871,0.0402,-0.0955,-25.87,-36.37,22.38,314.99,-86.65,-172.69
62389,52.59,-1.588526,148.6,13.78,4,116.81,19 / 21,7711514,2019-11-06 18:14:51:976,-0.5382,0.6733,9.3339,0.0053,0.0021,9.8066,-0.0756,0.1354,0.0156,-25.94,-36.81,21.75,315.17,-86.62,-172.43
62390,52.59,-1.588526,148.6,13.78,4,116.81,19 / 21,7711614,2019-11-06 18:14:52:076,-0.3945,-0.9445,10.071,-0.0068,0.0194,9.8066,-0.0675,0.0441,-0.0179,-26.62,-36.06,22.0,313.07,-86.65,-173.52
62391,52.59,-1.588526,148.6,13.78,4,116.81,19 / 21,7711714,2019-11-06 18:14:52:176,0.6141,0.6177,10.1886,0.0016,0.0036,9.8066,0.0347,0.1646,-0.0704,-28.0,-35.69,21.56,311.52,-86.66,-174.06
62392,52.59,-1.588526,148.6,13.78,4,116.81,19 / 21,7711814,2019-11-06 18:14:52:276,0.1797,-1.3264,10.1654,0.0183,0.0205,9.8066,0.0676,-0.0257,-0.0449,-28.94,-35.0,22.44,309.79,-86.67,-174.88
62393,52.59,-1.588526,148.6,13.78,4,116.81,21 / 21,7711914,2019-11-06 18:14:52:376,0.8394,0.9867,8.8943,-0.0002,-0.0069,9.8065,-0.0521,0.1906,-0.0318,-28.37,-34.5,23.94,315.0,-86.53,-173.28
62394,52.59,-1.588526,148.6,13.78,4,116.81,21 / 21,7712013,2019-11-06 18:14:52:475,-0.0571,-1.6713,10.305,-0.0139,0.0302,9.8066,-0.0603,0.0824,-0.0206,-26.69,-35.37,24.38,316.53,-86.57,-172.76
62395,52.59,-1.588526,148.6,13.78,4,116.81,21 / 21,7712113,2019-11-06 18:14:52:575,1.0061,0.6585,10.0784,0.0047,0.0224,9.8066,-0.0135,0.2374,-0.0997,-26.44,-36.12,24.0,318.48,-86.63,-171.9
62396,52.59,-1.588526,148.6,13.78,4,116.81,21 / 21,7712214,2019-11-06 18:14:52:676,-2.9522,-0.8042,9.8736,0.0192,0.0211,9.8066,0.0249,0.0112,0.028,-26.5,-36.25,23.88,317.14,-86.56,-173.14
62397,52.59,-1.588526,148.6,13.78,4,116.81,21 / 21,7712314,2019-11-06 18:14:52:776,1.5887,0.6468,10.2668,0.024,0.011,9.8065,0.0847,0.2834,-0.2312,-25.37,-36.44,23.44,317.5,-86.4,-172.48
62398,52.59,-1.588526,148.6,13.78,4,116.81,21 / 21,7712414,2019-11-06 18:14:52:876,-0.6832,-1.5121,10.2515,0.0146,0.0331,9.8065,0.0558,0.076,-0.0581,-25.44,-36.69,23.06,315.79,-86.51,-174.11
62399,52.59,-1.588526,148.6,13.78,4,116.81,21 / 21,7712514,2019-11-06 18:14:52:976,1.0888,1.5908,9.0924,0.0046,0.0257,9.8066,-0.1184,0.2795,-0.1418,-25.06,-36.5,23.19,317.77,-86.6,-172.38
62400,52.59,-1.588526,148.6,13.78,4,116.81,21 / 21,7712614,2019-11-06 18:14:53:076,-1.072,-0.2357,10.1351,0.0022,0.0379,9.8065,-0.0255,0.0105,0.0176,-25.62,-36.5,23.25,313.27,-86.85,-175.81
62401,52.59,-1.588526,148.6,13.78,4,116.81,21 / 21,7712714,2019-11-06 18:14:53:176,1.2116,1.2711,10.0895,0.0034,0.0127,9.8066,-0.0064,0.2746,-0.1451,-25.69,-36.5,22.44,311.28,-86.87,-176.43
62402,52.59,-1.588526,148.6,13.78,4,116.81,21 / 21,7712814,2019-11-06 18:14:53:276,-1.3391,-2.0155,10.1352,0.0179,0.0263,9.8066,-0.0117,-0.0067,0.0278,-25.19,-35.94,23.19,312.32,-86.81,-177.75
62403,52.59,-1.588526,148.6,13.78,4,116.81,21 / 22,7712914,2019-11-06 18:14:53:376,1.6446,-0.5201,10.1673,0.0087,0.0016,9.8066,0.0309,0.2711,-0.1358,-25.5,-36.12,23.13,314.86,-86.77,-175.28
62404,52.59,-1.588526,148.6,13.78,4,116.81,21 / 22,7713014,2019-11-06 18:14:53:476,-0.9064,-1.397,10.3161,0.0094,0.0273,9.8065,0.0105,-0.0314,0.0131,-25.25,-36.31,23.06,313.75,-86.81,-176.37
62405,52.59,-1.588526,148.6,13.78,4,116.81,21 / 22,7713114,2019-11-06 18:14:53:576,0.3322,2.0091,9.1666,-0.0037,0.003,9.8066,-0.0728,0.2541,-0.0841,-25.69,-36.12,23.19,314.6,-86.77,-174.46
62406,52.59,-1.588526,148.6,13.78,4,116.81,21 / 22,7713214,2019-11-06 18:14:53:676,0.4603,-0.9087,10.1803,0.0052,0.0273,9.8066,-0.0695,-0.0286,0.0701,-25.06,-36.44,23.69,315.9,-86.77,-175.55
62407,52.59,-1.588526,148.6,13.78,4,116.81,21 / 22,7713313,2019-11-06 18:14:53:775,0.7826,1.8417,10.0657,-0.0113,0.0123,9.8066,-0.0219,0.2634,-0.1453,-24.94,-36.12,22.81,315.68,-86.87,-174.57
62408,52.59,-1.588526,148.6,13.78,4,116.81,21 / 22,7713413,2019-11-06 18:14:53:875,-1.1109,-1.2931,9.5017,0.0092,0.0323,9.8065,-0.0026,0.0191,0.0013,-25.19,-37.06,22.94,315.55,-87.03,-174.76
62409,52.59,-1.588526,148.6,13.78,4,116.81,21 / 22,7713514,2019-11-06 18:14:53:976,0.7751,0.8403,10.1491,0.0151,-0.0013,9.8066,0.0097,0.2369,-0.1206,-25.31,-36.5,22.88,318.46,-87.14,-172.1
62410,52.59,-1.588526,148.6,13.78,4,116.81,21 / 22,7713613,2019-11-06 18:14:54:075,-1.3238,-0.1996,10.0671,0.0078,0.017,9.8066,-0.0146,0.0592,-0.0258,-25.87,-36.12,22.81,317.64,-87.09,-171.79
62411,52.59,-1.588526,148.6,13.78,4,116.81,21 / 22,7713714,2019-11-06 18:14:54:176,1.7711,1.1009,9.7431,-0.0045,0.0178,9.8066,-0.0414,0.2366,-0.1094,-25.62,-36.31,22.81,321.86,-87.2,-167.81
62412,52.59,-1.588526,148.6,13.78,4,116.81,21 / 22,7713814,2019-11-06 18:14:54:276,-2.1938,-0.4365,10.0271,0.0055,0.0231,9.8065,0.0352,0.1415,-0.0786,-25.37,-35.87,23.25,324.05,-87.39,-166.92
62413,52.59,-1.588526,148.6,13.78,4,116.81,21 / 22,7713914,2019-11-06 18:14:54:376,1.1815,0.6647,9.7238,0.0191,0.0089,9.8066,-0.0259,0.255,-0.0754,-25.56,-36.12,22.81,322.62,-87.19,-167.07
62414,52.59,-1.588526,148.6,13.78,4,116.81,21 / 22,7714013,2019-11-06 18:14:54:475,0.6269,-1.7581,10.0747,0.0106,0.0189,9.8066,-0.0502,-0.051,0.0949,-25.31,-35.81,23.0,322.12,-87.0,-168.5
62415,52.59,-1.588526,148.6,13.78,4,116.81,21 / 22,7714114,2019-11-06 18:14:54:576,0.1396,-0.145,9.7956,-0.0102,-0.0044,9.8066,-0.0182,0.1868,-0.1138,-24.75,-36.12,23.0,322.12,-86.96,-168.48
62416,52.59,-1.588526,148.6,13.78,4,116.81,21 / 22,7714214,2019-11-06 18:14:54:676,-0.9328,-1.3529,10.093,0.0338,0.0146,9.8065,0.0454,-0.0119,0.0165,-25.62,-36.37,22.81,319.6,-86.83,-169.73
62417,52.59,-1.588526,148.6,13.78,4,116.81,21 / 22,7714314,2019-11-06 18:14:54:776,1.1174,1.8819,9.3298,-0.0065,0.018,9.8066,-0.0953,0.2653,-0.1292,-25.44,-35.94,22.63,322.81,-86.81,-167.72
62418,52.59,-1.588526,148.6,13.78,4,116.81,21 / 22,7714413,2019-11-06 18:14:54:875,-0.8676,0.2771,9.6976,0.0092,0.015,9.8065,-0.0101,-0.0449,0.0278,-25.56,-35.87,22.81,322.36,-86.94,-167.16
62419,52.59,-1.588526,148.6,13.78,4,116.81,21 / 22,7714514,2019-11-06 18:14:54:976,0.7017,1.2309,9.573,0.0065,-0.0053,9.8066,0.0249,0.0965,-0.1097,-25.62,-36.31,22.56,322.59,-86.97,-166.96
62420,52.59,-1.588526,148.6,13.78,4,116.81,21 / 22,7714613,2019-11-06 18:14:55:075,1.1169,-0.9816,9.8826,0.012,0.0102,9.8066,0.0015,-0.1516,0.0732,-25.5,-36.62,22.31,321.6,-86.95,-167.6
62421,52.59,-1.588526,148.6,13.78,4,116.81,21 / 22,7714713,2019-11-06 18:14:55:175,-0.4681,-1.1996,9.8383,-0.0243,-0.0084,9.8066,-0.0333,-0.0029,0.0109,-25.69,-36.37,23.06,320.14,-87.0,-169.32
62422,52.59,-1.588526,148.6,13.78,4,116.81,21 / 22,7714813,2019-11-06 18:14:55:275,-0.5162,-0.3204,9.7522,0.0054,0.0041,9.8066,0.0095,-0.1511,0.0608,-25.69,-36.87,22.44,320.03,-87.06,-168.12
62423,52.59,-1.588526,148.6,13.78,4,116.81,21 / 21,7714914,2019-11-06 18:14:55:376,-1.041,-0.3952,9.9536,-0.0113,-0.0166,9.8066,-0.0156,-0.1178,0.0676,-26.12,-35.75,23.19,320.1,-87.1,-169.43
62424,52.59,-1.588526,148.6,13.78,4,116.81,21 / 21,7715014,2019-11-06 18:14:55:476,1.4358,0.7579,9.5785,0.0018,-0.0057,9.8066,0.0248,-0.3411,0.1481,-25.56,-36.56,22.94,319.47,-87.1,-169.98
62425,52.59,-1.588526,148.6,13.78,4,116.81,21 / 21,7715113,2019-11-06 18:14:55:575,-1.7235,-2.1337,10.3504,-0.0198,-0.0258,9.8065,0.0282,-0.1744,0.073,-25.31,-36.62,23.06,320.96,-87.16,-169.67
62426,52.59,-1.588526,148.6,13.78,4,116.81,21 / 21,7715213,2019-11-06 18:14:55:675,-0.7007,-0.7104,9.9839,0.0055,0.0037,9.8066,0.0615,-0.2928,0.093,-25.69,-36.37,22.63,316.26,-87.33,-173.3
62427,52.59,-1.588526,148.6,13.78,4,116.81,21 / 21,7715314,2019-11-06 18:14:55:776,-1.2234,-0.9247,9.534,-0.0118,-0.0215,9.8066,-0.0259,-0.1583,0.1085,-25.44,-36.75,22.25,313.07,-87.36,-176.11
62428,52.59,-1.588526,148.6,13.78,4,116.81,21 / 21,7715414,2019-11-06 18:14:55:876,2.5148,0.6475,10.1837,-0.0171,-0.0069,9.8066,-0.0697,-0.1862,0.1464,-25.19,-36.37,22.5,314.45,-87.35,-176.13
62429,52.59,-1.588526,148.6,13.78,4,116.81,21 / 21,7715514,2019-11-06 18:14:55:976,0.4585,0.4279,10.4307,-0.0155,-0.0093,9.8066,0.0369,-0.1396,0.0484,-25.44,-36.44,22.19,309.05,-87.41,179.91
62430,52.59,-1.588526,148.6,13.78,4,116.81,21 / 21,7715614,2019-11-06 18:14:56:076,-0.3249,2.1019,9.7818,0.0021,-0.014,9.8066,0.078,-0.1471,0.0736,-26.06,-36.87,22.06,308.55,-87.41,-179.46
