,GPS LATITUDE (degrees), GPS LONGITUDE (degrees), GPS ALTITUDE (m), GPS SPEED (Kmh), GPS ACCURACY (m), GPS ORIENTATION (Â°),GPS SATELLITES IN RANGE, TIME SINCE START (ms), DATE (YYYY-MO-DD HH-MI-SS_SSS), ACCELEROMETER X (m/s²) , ACCELEROMETER Y (m/s²), ACCELEROMETER Z (m/s²), GRAVITY X (m/s²), GRAVITY Y (m/s²), GRAVITY Z (m/s²), GYROSCOPE Yaw (rad/s), GYROSCOPE Pitch (rad/s), GYROSCOPE Roll (rad/s), MAGNETIC FIELD X (Î¼T), MAGNETIC FIELD Y (Î¼T), MAGNETIC FIELD Z (Î¼T), ORIENTATION (Yaw) (Â°), ORIENTATION (Pitch) (Â°), ORIENTATION (Roll ) (Â°),Unnamed: 24
30508,51.851063,-2.182143,78,24.67,11.0,208.0,,18 / 24,3050845,2019-08-16 12:20:15:214,0.1864,-0.0911,9.9422,-0.0005,-0.0018,9.8067,-0.032,-0.0043,0.0224,-22.24,16.42,-11.65,214.47,5.79,0.63
30509,51.851063,-2.182143,78,24.67,11.0,208.0,,18 / 24,3050945,2019-08-16 12:20:15:314,-0.2829,0.0693,10.3613,-0.0147,-0.0064,9.8066,0.0362,0.0692,0.001,-22.57,16.66,-10.63,215.11,5.78,0.62
30510,51.851063,-2.182143,78,24.67,11.0,208.0,,18 / 24,3051045,2019-08-16 12:20:15:414,-0.0786,-0.0965,9.9907,-0.0385,-0.0179,9.8066,0.0362,0.0692,0.001,-22.24,16.42,-11.65,214.5,5.53,0.67
30511,51.851063,-2.182143,78,24.67,11.0,208.0,,18 / 24,3051145,2019-08-16 12:20:15:514,-0.2013,-0.1918,10.1038,-0.0373,-0.0334,9.8065,-0.0479,0.0043,0.016,-22.24,16.42,-11.65,214.5,5.53,0.67
30512,51.850864,-2.182313,78,24.87,11.0,206.8,,18 / 24,3051245,2019-08-16 12:20:15:614,0.1385,0.0485,8.8171,0.0111,0.0007,9.8066,-0.0234,-0.0266,0.0277,-22.71,15.58,-11.89,213.45,5.24,0.63
30513,51.850864,-2.182313,78,24.87,11.0,206.8,,18 / 24,3051345,2019-08-16 12:20:15:714,-0.1524,0.305,9.3032,0.0179,0.0402,9.8066,0.0554,-0.0075,0.0,-22.41,15.72,-12.27,214.58,5.3,0.6
30514,51.850864,-2.182313,78,24.87,11.0,206.8,,18 / 24,3051445,2019-08-16 12:20:15:814,-0.2316,0.2809,9.7302,0.0427,0.0692,9.8063,-0.0202,-0.0277,0.0224,-22.12,17.49,-10.23,216.35,5.73,0.79
30515,51.850864,-2.182313,78,24.87,11.0,206.8,,18 / 24,3051545,2019-08-16 12:20:15:914,-0.5622,0.3427,10.2054,0.0143,0.0043,9.8066,-0.0202,0.0213,0.0,-22.12,17.49,-10.23,216.35,5.73,0.79
30516,51.850864,-2.182313,78,24.87,11.0,206.8,,18 / 24,3051645,2019-08-16 12:20:16:014,-0.2233,0.2808,10.3684,0.0075,-0.0146,9.8066,0.0021,0.1204,-0.0021,-22.62,16.7,-10.46,215.19,5.82,0.76
30517,51.850864,-2.182313,78,24.87,11.0,206.8,,18 / 24,3051746,2019-08-16 12:20:16:115,-0.8592,0.0249,11.2471,0.0025,-0.0346,9.8066,-0.0458,0.049,0.0192,-23.17,15.89,-10.51,213.51,5.71,0.58
30518,51.850864,-2.182313,78,24.87,11.0,206.8,,18 / 24,3051846,2019-08-16 12:20:16:215,0.1019,-0.2279,9.4692,-0.0122,-0.0202,9.8066,-0.0458,0.049,0.0192,-22.8,15.99,-11.15,213.51,5.71,0.58
30519,51.850864,-2.182313,78,24.87,11.0,206.8,,18 / 24,3051946,2019-08-16 12:20:16:315,0.4353,-0.0191,9.4216,-0.0045,-0.0154,9.8066,0.0074,-0.0277,0.0138,-22.67,16.74,-10.29,215.29,5.64,0.52
30520,51.850864,-2.182313,78,24.87,11.0,206.8,,18 / 24,3052045,2019-08-16 12:20:16:414,0.438,0.1278,10.1607,0.0134,0.0053,9.8066,0.0021,-0.0117,0.0074,-22.67,16.74,-10.29,215.29,5.64,0.52
30521,51.850864,-2.182313,78,24.87,11.0,206.8,,18 / 24,3052145,2019-08-16 12:20:16:514,0.2097,-0.1649,10.4825,0.0047,-0.0086,9.8066,-0.0139,-0.0053,-0.0021,-23.17,15.89,-10.51,213.54,5.84,0.44
30522,51.85065,-2.182468,78,25.05,11.0,206.3,,18 / 24,3052246,2019-08-16 12:20:16:615,0.1776,-0.0556,10.2447,-0.011,-0.0178,9.8066,0.0181,0.0586,0.001,-22.8,15.99,-11.15,213.54,5.84,0.44
30523,51.85065,-2.182468,78,25.05,11.0,206.3,,18 / 24,3052346,2019-08-16 12:20:16:715,0.1393,-0.0499,10.0449,-0.0183,-0.0123,9.8066,0.0064,0.0234,0.0085,-22.8,15.99,-11.15,213.54,5.84,0.44
30524,51.85065,-2.182468,78,25.05,11.0,206.3,,18 / 24,3052445,2019-08-16 12:20:16:814,0.2391,-0.0734,9.6757,0.0012,-0.0007,9.8066,-0.0352,-0.0245,0.0096,-22.34,16.78,-10.93,216.33,5.71,0.44
30525,51.85065,-2.182468,78,25.05,11.0,206.3,,18 / 24,3052546,2019-08-16 12:20:16:915,0.6202,-0.0616,9.9242,0.0113,-0.0036,9.8066,-0.0352,-0.0245,0.0096,-23.03,17.3,-8.4,215.56,5.72,0.43
30526,51.85065,-2.182468,78,25.05,11.0,206.3,,18 / 24,3052646,2019-08-16 12:20:17:015,0.5038,-0.2708,9.5018,0.0304,-0.0104,9.8066,0.0064,0.0266,-0.0117,-23.59,16.18,-9.05,215.56,5.72,0.43
30527,51.85065,-2.182468,78,25.05,11.0,206.3,,18 / 24,3052745,2019-08-16 12:20:17:114,0.0995,-0.0864,10.3734,0.076,-0.0208,9.8063,-0.0277,-0.0096,0.017,-23.59,16.18,-9.05,215.56,5.72,0.43
30528,51.85065,-2.182468,78,25.05,11.0,206.3,,18 / 24,3052845,2019-08-16 12:20:17:214,-0.1367,0.0251,9.2532,0.0129,-0.0024,9.8066,0.0437,0.0192,0.0064,-22.3,16.46,-11.48,214.76,6.01,0.07
30529,51.85065,-2.182468,78,25.05,11.0,206.3,,18 / 24,3052945,2019-08-16 12:20:17:314,-0.4128,0.1616,9.6942,-0.0007,-0.0147,9.8066,-0.016,0.0565,0.0245,-21.97,15.07,-13.8,214.76,6.01,0.07
30530,51.85065,-2.182468,78,25.05,11.0,206.3,,18 / 24,3053045,2019-08-16 12:20:17:414,-0.1886,0.0004,9.1584,0.0002,-0.0047,9.8066,-0.0373,-0.0373,0.016,-22.91,14.93,-12.35,211.91,5.84,-0.05
30531,51.85065,-2.182468,78,25.05,11.0,206.3,,18 / 24,3053145,2019-08-16 12:20:17:514,-0.1766,0.0063,9.8908,-0.0062,0.0078,9.8066,-0.0139,0.0149,0.017,-22.91,14.93,-12.35,211.93,5.82,-0.07
30532,51.85045,-2.18264,78,24.55,11.0,205.9,,17 / 24,3053245,2019-08-16 12:20:17:614,0.0659,-0.3585,10.3084,-0.0173,0.0131,9.8066,-0.0139,0.0149,0.017,-22.91,14.93,-12.35,211.93,5.82,-0.07
30533,51.85045,-2.18264,78,24.55,11.0,205.9,,17 / 24,3053345,2019-08-16 12:20:17:714,-0.5719,0.2348,10.0927,-0.0099,0.0028,9.8066,0.0458,0.0682,-0.0128,-23.31,15.19,-11.21,212.0,5.78,0.05
30534,51.85045,-2.18264,78,24.55,11.0,205.9,,17 / 24,3053445,2019-08-16 12:20:17:814,-0.4446,0.3228,9.6199,-0.0266,0.0217,9.8066,-0.0021,-0.0213,0.0213,-23.36,14.5,-12.0,212.0,5.78,0.05
30535,51.85045,-2.18264,78,24.55,11.0,205.9,,17 / 24,3053546,2019-08-16 12:20:17:915,-0.3424,0.1008,9.8384,-0.0191,0.0433,9.8065,-0.0479,-0.0234,0.0117,-22.47,15.76,-12.11,214.58,5.82,0.32
30536,51.85045,-2.18264,78,24.55,11.0,205.9,,17 / 24,3053645,2019-08-16 12:20:18:014,-0.0894,-0.1656,9.7113,0.0196,-0.0141,9.8066,0.0043,0.0458,0.0,-22.72,16.78,-10.11,214.58,5.82,0.32
30537,51.85045,-2.18264,78,24.55,11.0,205.9,,17 / 24,3053745,2019-08-16 12:20:18:114,-0.1227,-0.1489,9.2925,0.0226,-0.0373,9.8066,-0.0202,-0.0064,-0.0075,-22.53,17.82,-8.65,217.09,5.8,0.07
30538,51.85045,-2.18264,78,24.55,11.0,205.9,,17 / 24,3053846,2019-08-16 12:20:18:215,-0.339,-0.1537,10.3161,-0.0124,-0.0265,9.8066,0.0117,0.0192,-0.0085,-22.53,17.82,-8.65,217.09,5.8,0.07
30539,51.85045,-2.18264,78,24.55,11.0,205.9,,17 / 24,3053945,2019-08-16 12:20:18:314,0.2767,-0.3396,9.5513,0.0142,-0.0353,9.8066,-0.0117,0.0384,-0.0192,-23.59,16.18,-9.05,212.91,5.55,-0.13
30540,51.85045,-2.18264,78,24.55,11.0,205.9,,17 / 24,3054046,2019-08-16 12:20:18:415,0.1742,-0.0994,9.6634,0.0394,-0.0638,9.8064,0.0138,-0.0053,-0.0288,-23.43,16.96,-7.98,212.91,5.55,-0.13
30541,51.85045,-2.18264,78,24.55,11.0,205.9,,17 / 24,3054147,2019-08-16 12:20:18:516,-0.2248,-0.0023,9.9214,0.0196,0.0026,9.8066,0.0117,-0.0234,0.0042,-23.78,15.06,-10.37,211.29,5.54,-0.57
30542,51.85023,-2.182801,79,24.94,10.0,205.8,,17 / 24,3054245,2019-08-16 12:20:18:614,-0.1621,0.251,9.3449,0.0333,0.0173,9.8066,0.0117,-0.0234,0.0042,-23.82,14.34,-11.26,209.48,5.75,-0.59
30543,51.85023,-2.182801,79,24.94,10.0,205.8,,17 / 24,3054346,2019-08-16 12:20:18:715,-0.0891,-0.2207,9.4367,0.0252,0.004,9.8066,0.0085,-0.0096,-0.0053,-23.82,14.34,-11.26,209.48,5.75,-0.59
30544,51.85023,-2.182801,79,24.94,10.0,205.8,,17 / 24,3054446,2019-08-16 12:20:18:815,-0.2439,0.0427,9.3312,0.0155,-0.0088,9.8066,-0.0181,0.0416,-0.0149,-22.47,15.41,-12.55,213.13,5.89,-0.64
30545,51.85023,-2.182801,79,24.94,10.0,205.8,,17 / 24,3054545,2019-08-16 12:20:18:914,0.0846,0.0353,10.5641,0.021,-0.0241,9.8066,0.0096,-0.0394,0.0096,-23.4,14.08,-12.42,210.46,5.92,-0.82
30546,51.85023,-2.182801,79,24.94,10.0,205.8,,17 / 24,3054646,2019-08-16 12:20:19:015,0.1123,0.1476,10.9517,-0.0145,-0.0015,9.8066,0.0106,0.0543,0.0128,-23.4,14.08,-12.42,210.46,5.92,-0.82
30547,51.85023,-2.182801,79,24.94,10.0,205.8,,17 / 24,3054745,2019-08-16 12:20:19:114,-0.4013,0.2098,10.3368,-0.0456,-0.0006,9.8065,0.0415,0.0575,-0.0032,-23.82,14.34,-11.26,209.53,5.84,-0.79
30548,51.85023,-2.182801,79,24.94,10.0,205.8,,17 / 24,3054845,2019-08-16 12:20:19:214,-0.1175,0.1578,9.7937,-0.0063,-0.002,9.8066,0.0011,0.0053,0.0074,-24.55,14.55,-9.25,210.4,5.32,-0.56
30549,51.85023,-2.182801,79,24.94,10.0,205.8,,17 / 24,3054945,2019-08-16 12:20:19:314,0.2427,0.2741,9.3359,0.0538,0.0056,9.8065,0.0011,0.0053,0.0074,-24.23,14.08,-10.72,209.53,5.28,-0.55
30550,51.85023,-2.182801,79,24.94,10.0,205.8,,17 / 24,3055045,2019-08-16 12:20:19:414,0.0885,0.3122,9.6817,0.0814,0.0137,9.8063,-0.0075,-0.0383,0.0138,-24.23,14.08,-10.72,209.53,5.28,-0.55
30551,51.85023,-2.182801,79,24.94,10.0,205.8,,17 / 24,3055146,2019-08-16 12:20:19:515,0.195,0.0425,10.12,-0.0219,-0.0059,9.8066,0.0202,0.1076,-0.0181,-23.81,14.53,-11.05,211.23,5.74,-0.72
30552,51.85004,-2.182972,79,24.6,11.0,205.5,,17 / 24,3055246,2019-08-16 12:20:19:615,-0.4279,-0.1149,11.0417,-0.0616,-0.0093,9.8065,0.0,0.0384,0.0245,-23.05,15.4,-11.47,212.28,5.4,-0.58
30553,51.85004,-2.182972,79,24.6,11.0,205.5,,17 / 24,3055345,2019-08-16 12:20:19:714,-0.3536,0.2152,10.6024,-0.0091,0.0055,9.8066,-0.0224,-0.0394,0.0085,-23.86,14.81,-10.55,212.28,5.4,-0.58
30554,51.85004,-2.182972,79,24.6,11.0,205.5,,17 / 24,3055447,2019-08-16 12:20:19:816,-0.1863,0.282,9.6252,0.0112,0.0046,9.8066,-0.0139,-0.0128,0.0042,-23.05,15.4,-11.47,212.27,5.47,-0.59
30555,51.85004,-2.182972,79,24.6,11.0,205.5,,17 / 24,3055545,2019-08-16 12:20:19:914,0.2293,0.0852,9.6771,0.0273,0.003,9.8066,0.0192,0.0171,0.0287,-23.05,15.4,-11.47,212.27,5.47,-0.59
30556,51.85004,-2.182972,79,24.6,11.0,205.5,,17 / 24,3055645,2019-08-16 12:20:20:014,-0.1752,0.121,10.5542,0.0201,0.0038,9.8066,-0.016,-0.0138,0.0287,-23.42,15.27,-10.88,212.27,5.58,-0.63
30557,51.85004,-2.182972,79,24.6,11.0,205.5,,17 / 24,3055746,2019-08-16 12:20:20:115,0.2145,0.1084,9.7777,-0.0204,0.0198,9.8066,-0.016,-0.0138,0.0287,-23.16,15.98,-10.4,213.99,5.49,-0.44
30558,51.85004,-2.182972,79,24.6,11.0,205.5,,17 / 24,3055845,2019-08-16 12:20:20:214,0.1024,-0.1243,9.9241,-0.0234,0.0085,9.8066,0.0309,0.0352,-0.0171,-23.16,15.98,-10.4,213.97,5.41,-0.32
30559,51.85004,-2.182972,79,24.6,11.0,205.5,,17 / 24,3055946,2019-08-16 12:20:20:315,0.1658,0.057,10.3384,0.0092,-0.017,9.8066,0.0043,-0.0096,-0.0043,-23.16,15.98,-10.4,213.97,5.41,-0.32
30560,51.85004,-2.182972,79,24.6,11.0,205.5,,17 / 24,3056045,2019-08-16 12:20:20:414,0.3001,-0.3207,10.3527,0.0206,0.0004,9.8066,-0.0256,0.0075,0.0074,-22.46,15.5,-12.46,214.95,5.39,-0.43
30561,51.85004,-2.182972,79,24.6,11.0,205.5,,17 / 24,3056145,2019-08-16 12:20:20:514,0.0387,0.102,10.0097,0.0074,-0.012,9.8066,0.0149,0.0629,-0.0139,-23.16,15.98,-10.4,214.95,5.39,-0.43
30562,51.849834,-2.183159,79,24.38,11.0,206.5,,16 / 23,3056245,2019-08-16 12:20:20:614,0.1288,-0.2237,9.7408,0.0123,-0.0121,9.8066,-0.0213,-0.0351,0.0085,-23.16,15.98,-10.4,214.95,5.39,-0.43
30563,51.849834,-2.183159,79,24.38,11.0,206.5,,16 / 23,3056345,2019-08-16 12:20:20:714,0.3282,-0.2012,9.3596,0.0177,0.0139,9.8066,-0.0341,-0.0256,0.0106,-22.81,14.82,-12.66,212.09,5.41,-0.53
30564,51.849834,-2.183159,79,24.38,11.0,206.5,,16 / 23,3056445,2019-08-16 12:20:20:814,0.248,-0.1627,9.6982,0.0228,0.0411,9.8065,0.0138,0.0362,-0.0139,-23.5,16.22,-9.22,214.06,5.65,-0.4
30565,51.849834,-2.183159,79,24.38,11.0,206.5,,16 / 23,3056545,2019-08-16 12:20:20:914,0.0311,-0.0146,10.1199,-0.0095,-0.007,9.8066,0.0138,0.0362,-0.0139,-23.08,15.76,-10.9,213.87,5.58,-0.4
30566,51.849834,-2.183159,79,24.38,11.0,206.5,,16 / 23,3056645,2019-08-16 12:20:21:014,0.5572,-0.351,10.5653,-0.0182,-0.036,9.8066,-0.0043,0.0469,-0.0139,-23.08,15.76,-10.9,213.87,5.58,-0.4
30567,51.849834,-2.183159,79,24.38,11.0,206.5,,16 / 23,3056745,2019-08-16 12:20:21:114,0.192,-0.4064,10.6116,0.0041,-0.0112,9.8066,-0.0309,-0.0213,0.0149,-23.16,15.98,-10.4,214.1,5.22,-0.66
30568,51.849834,-2.183159,79,24.38,11.0,206.5,,16 / 23,3056845,2019-08-16 12:20:21:214,0.1342,0.0861,10.0887,-0.0172,-0.0024,9.8066,0.0405,0.0437,0.017,-23.6,15.33,-10.41,211.39,5.21,-0.73
30569,51.849834,-2.183159,79,24.38,11.0,206.5,,16 / 23,3056945,2019-08-16 12:20:21:314,-0.1562,0.2769,10.7088,-0.0434,0.0048,9.8066,0.0085,0.0639,-0.0022,-23.46,16.38,-9.01,211.39,5.21,-0.73
30570,51.849834,-2.183159,79,24.38,11.0,206.5,,16 / 23,3057045,2019-08-16 12:20:21:414,0.0318,-0.0106,9.993,-0.0486,-0.005,9.8065,-0.0149,0.0234,-0.0032,-23.95,15.55,-9.2,213.12,4.95,-0.61
30571,51.849834,-2.183159,79,24.38,11.0,206.5,,16 / 23,3057145,2019-08-16 12:20:21:514,0.1408,-0.1867,9.8312,0.0141,0.0207,9.8066,-0.0384,-0.0575,0.0138,-23.95,15.55,-9.2,213.12,4.95,-0.61
30572,51.849648,-2.183332,78,24.34,11.0,207.1,,17 / 24,3057245,2019-08-16 12:20:21:614,0.1531,-0.3117,9.6955,0.0366,0.0298,9.8065,0.0575,-0.0213,-0.0256,-23.5,16.05,-9.49,213.09,5.08,-0.55
30573,51.849648,-2.183332,78,24.34,11.0,207.1,,17 / 24,3057346,2019-08-16 12:20:21:715,-0.3856,0.0791,9.7774,0.0296,0.0042,9.8066,-0.0085,-0.0383,-0.0075,-24.08,13.98,-11.17,209.51,5.36,-0.52
30574,51.849648,-2.183332,78,24.34,11.0,207.1,,17 / 24,3057445,2019-08-16 12:20:21:814,0.21,-0.2711,9.7087,0.0318,-0.0068,9.8066,-0.0085,-0.0383,-0.0075,-22.22,15.99,-12.26,215.01,5.5,-0.65
30575,51.849648,-2.183332,78,24.34,11.0,207.1,,17 / 24,3057545,2019-08-16 12:20:21:914,0.071,-0.0935,9.4934,0.001,-0.0299,9.8066,-0.0362,0.0234,-0.0053,-22.22,15.99,-12.26,215.01,5.5,-0.65
30576,51.849648,-2.183332,78,24.34,11.0,207.1,,17 / 24,3057645,2019-08-16 12:20:22:014,-0.2625,-0.0866,10.0974,-0.0059,-0.0193,9.8066,0.0011,0.0554,-0.0085,-21.32,18.49,-10.17,219.76,5.29,-0.84
30577,51.849648,-2.183332,78,24.34,11.0,207.1,,17 / 24,3057745,2019-08-16 12:20:22:114,0.1358,-0.0012,9.5991,0.0,-0.0355,9.8066,-0.0011,0.033,0.0,-21.83,17.34,-11.09,219.76,5.29,-0.84
30578,51.849648,-2.183332,78,24.34,11.0,207.1,,17 / 24,3057845,2019-08-16 12:20:22:214,0.1492,-0.1109,9.7305,-0.0066,-0.05,9.8065,-0.0256,0.0011,-0.0011,-8.0,20.17,-20.72,244.33,5.08,-1.04
30579,51.849648,-2.183332,78,24.34,11.0,207.1,,17 / 24,3057945,2019-08-16 12:20:22:314,0.3835,0.0717,9.3126,-0.0145,-0.0105,9.8066,0.0085,-0.0085,0.0128,-8.0,20.17,-20.72,244.33,5.08,-1.04
30580,51.849648,-2.183332,78,24.34,11.0,207.1,,17 / 24,3058046,2019-08-16 12:20:22:415,-0.1733,0.1476,9.5097,-0.0282,0.0124,9.8066,0.0383,0.0107,0.0021,0.13,15.71,-25.56,244.33,5.08,-1.04
30581,51.849648,-2.183332,78,24.34,11.0,207.1,,17 / 24,3058145,2019-08-16 12:20:22:514,-0.0139,-0.0302,9.3489,-0.0309,0.0427,9.8065,0.0202,-0.0383,-0.0085,-15.27,9.73,-23.92,211.1,5.22,-0.77
30582,51.84945,-2.183485,78,24.28,10.0,206.7,,17 / 24,3058245,2019-08-16 12:20:22:614,0.2731,0.0322,9.0538,0.0068,0.0234,9.8066,0.0202,-0.0383,-0.0085,-15.27,9.73,-23.92,211.1,5.22,-0.77
30583,51.84945,-2.183485,78,24.28,10.0,206.7,,17 / 24,3058346,2019-08-16 12:20:22:715,-0.2626,0.0858,10.2976,0.0084,-0.0061,9.8066,-0.0447,0.0011,0.017,-26.28,8.46,-11.74,196.78,5.33,-0.67
30584,51.84945,-2.183485,78,24.28,10.0,206.7,,17 / 24,3058446,2019-08-16 12:20:22:815,-0.2139,0.1444,10.0232,0.0028,-0.0115,9.8066,0.0288,0.0501,-0.0022,-25.68,12.02,-9.8,204.35,5.32,-0.74
30585,51.84945,-2.183485,78,24.28,10.0,206.7,,17 / 24,3058545,2019-08-16 12:20:22:914,-0.6024,0.2791,10.245,-0.0265,0.0089,9.8066,0.0043,0.0149,0.0128,-25.68,12.02,-9.8,204.35,5.32,-0.74
30586,51.84945,-2.183485,78,24.28,10.0,206.7,,17 / 24,3058645,2019-08-16 12:20:23:014,-0.614,0.148,10.348,-0.0276,-0.0224,9.8066,-0.0139,-0.0053,0.0096,-25.71,13.02,-8.32,206.18,4.92,-0.5
30587,51.84945,-2.183485,78,24.28,10.0,206.7,,17 / 24,3058746,2019-08-16 12:20:23:115,-0.2175,0.0952,9.3193,0.0021,-0.0008,9.8067,0.0298,0.0298,-0.0149,-25.28,14.43,-7.27,208.9,4.72,-0.54
30588,51.84945,-2.183485,78,24.28,10.0,206.7,,17 / 24,3058845,2019-08-16 12:20:23:214,-0.0741,0.0543,9.5504,0.0371,0.0067,9.8066,0.0064,-0.049,-0.0245,-25.28,14.43,-7.27,208.9,4.72,-0.54
30589,51.84945,-2.183485,78,24.28,10.0,206.7,,17 / 24,3058946,2019-08-16 12:20:23:315,0.314,0.0406,9.6476,0.0508,0.0166,9.8065,0.0064,-0.049,-0.0245,-24.57,15.08,-8.3,210.53,4.93,-0.61
30590,51.84945,-2.183485,78,24.28,10.0,206.7,,17 / 24,3059045,2019-08-16 12:20:23:414,-0.1165,0.3196,9.0193,0.065,0.0388,9.8064,-0.0032,-0.0352,-0.0107,-24.32,15.47,-8.33,211.49,5.37,-0.61
30591,51.84945,-2.183485,78,24.28,10.0,206.7,,17 / 24,3059145,2019-08-16 12:20:23:514,0.2015,0.1886,9.4743,0.0116,0.017,9.8066,0.0256,0.0202,-0.0053,-23.18,16.19,-10.04,211.49,5.37,-0.61
30592,51.849255,-2.183646,78,24.27,10.0,206.8,,17 / 24,3059245,2019-08-16 12:20:23:614,-0.2701,0.1116,9.4401,0.0166,0.0119,9.8066,0.0106,0.0309,-0.0064,-23.18,16.19,-10.04,211.49,5.37,-0.61
30593,51.849255,-2.183646,78,24.27,10.0,206.8,,17 / 24,3059345,2019-08-16 12:20:23:714,-0.4456,0.0188,10.2272,-0.0023,-0.0048,9.8066,0.0298,0.032,0.0213,-23.93,15.93,-8.58,213.05,5.49,-0.6
30594,51.849255,-2.183646,78,24.27,10.0,206.8,,17 / 24,3059445,2019-08-16 12:20:23:814,-0.7305,-0.0221,10.4324,-0.053,-0.002,9.8065,0.0245,0.1087,-0.0053,-23.5,16.41,-8.84,213.04,5.22,-0.44
30595,51.849255,-2.183646,78,24.27,10.0,206.8,,17 / 24,3059545,2019-08-16 12:20:23:914,-0.2374,0.0935,9.9419,-0.0707,-0.0204,9.8064,-0.0075,0.0288,0.0085,-23.5,16.41,-8.84,213.04,5.22,-0.44
30596,51.849255,-2.183646,78,24.27,10.0,206.8,,17 / 24,3059645,2019-08-16 12:20:24:014,-0.1362,0.2774,9.6603,-0.0798,-0.0349,9.8063,-0.0181,-0.0256,0.0149,-23.62,15.72,-9.75,213.0,4.72,-0.36
30597,51.849255,-2.183646,78,24.27,10.0,206.8,,17 / 24,3059745,2019-08-16 12:20:24:114,-0.0771,-0.0166,9.3121,0.042,0.0258,9.8065,-0.0181,-0.0256,0.0149,-24.4,15.11,-8.75,211.38,5.01,-0.37
30598,51.849255,-2.183646,78,24.27,10.0,206.8,,17 / 24,3059846,2019-08-16 12:20:24:215,0.1336,0.0783,9.3833,-0.0012,-0.0057,9.8066,0.0383,0.033,-0.0011,-23.7,15.39,-10.07,211.38,5.01,-0.37
30599,51.849255,-2.183646,78,24.27,10.0,206.8,,17 / 24,3059945,2019-08-16 12:20:24:314,-0.2759,0.1386,9.8465,-0.0236,0.0012,9.8066,0.0256,0.0543,0.0,-23.7,15.39,-10.07,211.38,5.01,-0.37
30600,51.849255,-2.183646,78,24.27,10.0,206.8,,17 / 24,3060045,2019-08-16 12:20:24:414,-0.6163,0.2368,9.7966,-0.0187,0.0118,9.8066,-0.0469,-0.0245,0.0149,-24.45,16.28,-6.12,213.28,4.89,-0.29
30601,51.849255,-2.183646,78,24.27,10.0,206.8,,17 / 24,3060145,2019-08-16 12:20:24:514,-0.1827,0.2116,9.2639,-0.0066,-0.0075,9.8066,-0.0128,0.0075,-0.0011,-23.61,17.92,-4.63,216.52,4.84,-0.17
30602,51.84907,-2.183796,78,24.08,11.0,207.0,,14 / 24,3060245,2019-08-16 12:20:24:614,-0.2487,0.1314,9.1494,0.0029,-0.0118,9.8066,0.0128,0.0053,0.0064,-23.61,17.92,-4.63,216.52,4.84,-0.17
30603,51.84907,-2.183796,78,24.08,11.0,207.0,,14 / 24,3060345,2019-08-16 12:20:24:714,-0.1695,-0.1849,9.9018,0.0144,-0.0008,9.8066,0.0117,0.0213,-0.0043,-24.69,15.29,-7.52,210.44,4.81,-0.24
30604,51.84907,-2.183796,78,24.08,11.0,207.0,,14 / 24,3060445,2019-08-16 12:20:24:814,-0.2003,0.0892,9.9796,0.0112,-0.0073,9.8066,-0.0469,0.0266,0.0042,-24.65,16.41,-4.83,212.33,4.85,-0.31
30605,51.84907,-2.183796,78,24.08,11.0,207.0,,14 / 24,3060545,2019-08-16 12:20:24:914,0.1101,0.0998,9.7014,-0.0037,-0.0131,9.8066,-0.0469,0.0266,0.0042,-24.1,14.26,-10.76,212.33,4.85,-0.31
30606,51.84907,-2.183796,78,24.08,11.0,207.0,,14 / 24,3060646,2019-08-16 12:20:25:015,-0.2923,0.1021,10.1466,0.001,-0.0398,9.8066,-0.0288,0.0234,-0.0107,-24.1,14.26,-10.76,212.33,4.85,-0.31
30607,51.84907,-2.183796,78,24.08,11.0,207.0,,14 / 24,3060745,2019-08-16 12:20:25:114,-0.4879,-0.0945,9.7705,-0.0265,-0.0093,9.8066,0.0351,0.0309,-0.0043,-24.07,14.91,-9.94,211.43,4.68,-0.63
30608,51.84907,-2.183796,78,24.08,11.0,207.0,,14 / 24,3060845,2019-08-16 12:20:25:214,-0.4097,0.2219,9.853,-0.0346,-0.0103,9.8066,-0.0352,0.0107,0.0255,-23.76,16.74,-7.42,214.91,4.52,-0.59
30609,51.84907,-2.183796,78,24.08,11.0,207.0,,14 / 24,3060945,2019-08-16 12:20:25:314,-0.5469,0.0466,9.6175,-0.0453,-0.0171,9.8065,0.0224,0.0447,0.0021,-23.76,16.74,-7.42,214.91,4.52,-0.59
30610,51.84907,-2.183796,78,24.08,11.0,207.0,,14 / 24,3061046,2019-08-16 12:20:25:415,-0.255,0.0724,9.3138,0.0181,0.0013,9.8066,0.0447,0.0384,0.0021,-24.41,16.26,-6.3,213.38,4.24,-0.52
30611,51.84907,-2.183796,78,24.08,11.0,207.0,,14 / 24,3061145,2019-08-16 12:20:25:514,-0.2166,0.2049,9.4719,0.0208,0.0132,9.8066,-0.0192,-0.0213,0.0255,-23.49,16.55,-8.61,213.38,4.24,-0.52
30612,51.848873,-2.183942,77,24.02,11.0,206.7,,14 / 24,3061245,2019-08-16 12:20:25:614,-0.6215,0.5285,9.8463,-0.0098,0.0356,9.8066,0.0383,0.0288,0.0149,-24.27,15.44,-8.5,211.52,4.31,-0.32
30613,51.848873,-2.183942,77,24.02,11.0,206.7,,14 / 24,3061346,2019-08-16 12:20:25:715,-0.3809,0.1762,10.1036,-0.0282,0.0208,9.8066,0.0383,0.0288,0.0149,-24.97,14.78,-7.63,210.48,4.23,-0.13
30614,51.848873,-2.183942,77,24.02,11.0,206.7,,14 / 24,3061445,2019-08-16 12:20:25:814,-0.2172,0.1602,9.5569,-0.0201,0.0284,9.8066,0.0266,0.0117,0.0042,-24.97,14.78,-7.63,210.48,4.23,-0.13
30615,51.848873,-2.183942,77,24.02,11.0,206.7,,14 / 24,3061545,2019-08-16 12:20:25:914,-0.3494,0.1298,9.7708,-0.0381,0.0497,9.8065,-0.0192,0.0043,0.0149,-24.35,16.39,-6.18,213.24,4.19,0.24
30616,51.848873,-2.183942,77,24.02,11.0,206.7,,14 / 24,3061645,2019-08-16 12:20:26:014,-0.5495,-0.0538,10.3599,-0.0183,-0.009,9.8066,-0.0224,0.0021,0.0138,-24.35,16.39,-6.18,213.24,4.19,0.24
30617,51.848873,-2.183942,77,24.02,11.0,206.7,,14 / 24,3061745,2019-08-16 12:20:26:114,-0.1736,0.0021,10.26,-0.0371,-0.0612,9.8064,0.0106,0.0256,-0.0022,-25.33,15.25,-5.08,210.63,4.07,0.25
30618,51.848873,-2.183942,77,24.02,11.0,206.7,,14 / 24,3061845,2019-08-16 12:20:26:214,-0.1829,0.1655,9.9642,-0.015,-0.0062,9.8066,0.0373,0.032,0.0138,-25.0,16.11,-3.95,212.4,3.7,0.05
30619,51.848873,-2.183942,77,24.02,11.0,206.7,,14 / 24,3061945,2019-08-16 12:20:26:314,-0.3293,0.0325,9.5386,-0.0362,0.0052,9.8066,-0.0075,-0.0224,0.0255,-25.11,15.63,-5.04,212.4,3.7,0.05
30620,51.848873,-2.183942,77,24.02,11.0,206.7,,14 / 24,3062045,2019-08-16 12:20:26:414,-0.5624,0.2959,9.6257,-0.0505,0.0292,9.8065,0.0011,-0.0405,0.001,-25.11,15.63,-5.04,212.4,3.7,0.05
30621,51.848873,-2.183942,77,24.02,11.0,206.7,,14 / 24,3062146,2019-08-16 12:20:26:515,-0.1963,0.1193,9.2653,0.0098,0.0159,9.8066,0.0053,0.0021,-0.0139,-23.74,17.71,-4.76,216.51,3.54,0.36
30622,51.84868,-2.184094,77,23.96,12.0,206.4,,14 / 24,3062246,2019-08-16 12:20:26:615,0.1219,0.3042,9.7431,0.0474,0.01,9.8065,0.0053,0.0021,-0.0139,-23.41,18.08,-5.03,216.51,3.54,0.36
30623,51.84868,-2.184094,77,23.96,12.0,206.4,,14 / 24,3062345,2019-08-16 12:20:26:714,0.0081,-0.1369,9.9443,0.0916,-0.0013,9.8062,-0.0373,-0.016,0.0053,-22.71,19.17,-4.1,219.29,3.97,0.03
30624,51.84868,-2.184094,77,23.96,12.0,206.4,,14 / 24,3062446,2019-08-16 12:20:26:815,-0.2003,-0.2226,9.6325,0.013,-0.0358,9.8066,-0.0021,-0.0011,0.0,-23.98,17.21,-5.38,215.02,3.9,-0.18
30625,51.84868,-2.184094,77,23.96,12.0,206.4,,14 / 24,3062545,2019-08-16 12:20:26:914,-0.5136,-0.165,10.7026,-0.0324,-0.0366,9.8065,0.0319,0.0874,-0.0011,-23.98,17.21,-5.38,215.02,3.9,-0.18
30626,51.84868,-2.184094,77,23.96,12.0,206.4,,14 / 24,3062645,2019-08-16 12:20:27:014,-0.0389,-0.1578,9.7745,0.0081,-0.0134,9.8066,0.0011,0.0064,-0.0128,-24.66,16.26,-5.25,212.4,3.37,-0.24
30627,51.84868,-2.184094,77,23.96,12.0,206.4,,14 / 24,3062750,2019-08-16 12:20:27:119,-0.5092,0.417,10.3172,0.0006,-0.01,9.8066,-0.016,-0.0352,-0.0022,-23.52,16.88,-7.88,214.91,3.37,-0.33
30628,51.84868,-2.184094,77,23.96,12.0,206.4,,14 / 24,3062846,2019-08-16 12:20:27:215,-0.3569,-0.0702,9.3656,-0.009,-0.0153,9.8066,0.0266,0.0245,0.0021,-23.52,16.88,-7.88,214.91,3.37,-0.33
30629,51.84868,-2.184094,77,23.96,12.0,206.4,,14 / 24,3062946,2019-08-16 12:20:27:315,-0.1216,0.1641,9.6168,0.0025,0.0024,9.8067,0.0085,0.0181,0.0021,-24.34,15.69,-7.82,213.33,3.28,-0.37
30630,51.84868,-2.184094,77,23.96,12.0,206.4,,14 / 24,3063046,2019-08-16 12:20:27:415,-0.0814,0.1076,9.7449,0.0328,0.0094,9.8066,0.0085,0.0181,0.0021,-24.01,17.05,-5.74,213.33,3.28,-0.37
30631,51.84868,-2.184094,77,23.96,12.0,206.4,,14 / 24,3063146,2019-08-16 12:20:27:515,-0.2389,-0.0167,10.2352,0.0267,0.0035,9.8066,-0.0362,-0.0426,0.0202,-24.69,15.53,-7.0,212.32,3.47,-0.43
30632,51.84849,-2.184255,76,23.88,11.0,206.6,,14 / 23,3063245,2019-08-16 12:20:27:614,-0.4616,0.0988,9.8928,0.0162,-0.0149,9.8066,-0.0085,0.0629,0.016,-24.63,15.7,-6.86,212.34,3.5,-0.55
30633,51.84849,-2.184255,76,23.88,11.0,206.6,,14 / 23,3063345,2019-08-16 12:20:27:714,-0.4269,0.3838,10.0309,-0.035,-0.0176,9.8066,0.066,0.0607,-0.0085,-24.63,15.7,-6.86,212.34,3.5,-0.55
30634,51.84849,-2.184255,76,23.88,11.0,206.6,,14 / 23,3063446,2019-08-16 12:20:27:815,-0.5075,0.0803,10.5443,-0.01,-0.0045,9.8066,-0.0352,-0.0117,0.0106,-25.31,14.62,-6.76,210.71,3.12,-0.41
30635,51.84849,-2.184255,76,23.88,11.0,206.6,,14 / 23,3063546,2019-08-16 12:20:27:915,-0.2267,0.0253,9.5804,-0.0009,-0.0067,9.8066,-0.0288,-0.0224,0.0032,-24.35,16.56,-5.75,215.07,3.05,-0.41
30636,51.84849,-2.184255,76,23.88,11.0,206.6,,14 / 23,3063646,2019-08-16 12:20:28:015,-0.1816,0.1484,9.8463,0.0027,-0.0048,9.8066,0.0256,0.0117,-0.0043,-24.68,15.09,-7.94,210.68,3.05,-0.44
30637,51.84849,-2.184255,76,23.88,11.0,206.6,,14 / 23,3063746,2019-08-16 12:20:28:115,-0.12,0.2515,9.6254,0.0174,0.0002,9.8066,-0.0149,-0.0181,-0.0011,-24.68,15.09,-7.94,210.68,3.05,-0.44
30638,51.84849,-2.184255,76,23.88,11.0,206.6,,14 / 23,3063845,2019-08-16 12:20:28:214,0.3614,-0.3248,10.0173,0.0439,0.007,9.8065,-0.0149,-0.0181,-0.0011,-24.06,15.34,-9.26,210.68,3.05,-0.44
30639,51.84849,-2.184255,76,23.88,11.0,206.6,,14 / 23,3063945,2019-08-16 12:20:28:314,-0.0503,-0.1535,10.0629,0.0468,-0.003,9.8065,-0.0394,-0.0011,0.0149,-23.93,15.94,-8.56,213.33,3.28,-0.59
30640,51.84849,-2.184255,76,23.88,11.0,206.6,,14 / 23,3064046,2019-08-16 12:20:28:415,0.2061,-0.1852,10.068,-0.0293,-0.0113,9.8066,0.0383,0.0948,0.0021,-23.93,15.94,-8.56,213.33,3.28,-0.59
30641,51.84849,-2.184255,76,23.88,11.0,206.6,,14 / 23,3064145,2019-08-16 12:20:28:514,0.082,-0.1223,9.9959,-0.0284,0.0085,9.8066,-0.0011,0.0245,0.0032,-24.2,16.11,-7.4,213.43,3.1,-0.55
30642,51.848297,-2.184393,76,23.98,11.0,205.5,,14 / 24,3064245,2019-08-16 12:20:28:614,-0.0052,0.0298,9.7813,0.0009,0.0018,9.8067,-0.0448,-0.0394,-0.0128,-23.64,15.74,-9.67,213.29,2.99,-0.42
30643,51.848297,-2.184393,76,23.98,11.0,205.5,,14 / 24,3064345,2019-08-16 12:20:28:714,0.4298,-0.0214,9.806,0.0221,-0.021,9.8066,-0.0139,0.0064,0.0128,-25.0,14.88,-7.32,210.76,3.03,-0.59
30644,51.848297,-2.184393,76,23.98,11.0,205.5,,14 / 24,3064445,2019-08-16 12:20:28:814,0.2714,-0.3364,11.1942,0.016,-0.0177,9.8066,0.0554,0.0107,-0.0032,-25.0,14.88,-7.32,210.76,3.03,-0.59
30645,51.848297,-2.184393,76,23.98,11.0,205.5,,14 / 24,3064545,2019-08-16 12:20:28:914,0.3721,-0.1649,10.6321,-0.0309,0.0011,9.8066,0.0224,0.0416,0.0341,-24.69,14.69,-8.63,210.71,3.09,-0.7
30646,51.848297,-2.184393,76,23.98,11.0,205.5,,14 / 24,3064645,2019-08-16 12:20:29:014,-0.283,-0.4292,10.389,-0.072,0.0206,9.8064,-0.0181,-0.049,-0.0085,-25.4,14.03,-7.61,210.71,3.09,-0.7
30647,51.848297,-2.184393,76,23.98,11.0,205.5,,14 / 24,3064746,2019-08-16 12:20:29:115,0.5226,0.0232,9.0097,0.0111,0.019,9.8066,-0.0181,-0.049,-0.0085,-25.16,14.78,-6.95,210.73,2.79,-0.38
30648,51.848297,-2.184393,76,23.98,11.0,205.5,,14 / 24,3064846,2019-08-16 12:20:29:215,0.5142,-0.0653,9.5231,0.0542,0.027,9.8065,-0.0064,0.0,0.0042,-24.52,15.64,-7.35,212.35,3.14,-0.41
30649,51.848297,-2.184393,76,23.98,11.0,205.5,,14 / 24,3064945,2019-08-16 12:20:29:314,0.4367,-0.0676,10.1671,0.0435,-0.0032,9.8066,-0.0522,-0.0213,0.0042,-24.52,15.64,-7.35,212.35,3.14,-0.41
30650,51.848297,-2.184393,76,23.98,11.0,205.5,,14 / 24,3065045,2019-08-16 12:20:29:414,0.1836,-0.3392,9.7086,-0.012,-0.0174,9.8066,0.0202,0.0703,-0.0053,-24.69,14.69,-8.63,210.64,3.35,-0.56
30651,51.848297,-2.184393,76,23.98,11.0,205.5,,14 / 24,3065146,2019-08-16 12:20:29:515,0.34,-0.1887,10.7461,-0.0595,-0.0411,9.8064,0.017,0.0447,-0.0096,-24.56,15.66,-7.19,212.41,2.93,-0.59
30652,51.848095,-2.18455,78,24.13,11.0,205.9,,14 / 24,3065246,2019-08-16 12:20:29:615,0.3166,-0.2279,9.7601,-0.0157,-0.0193,9.8066,-0.0405,-0.0256,0.0106,-24.77,14.14,-9.31,209.03,2.79,-0.64
30653,51.848095,-2.18455,78,24.13,11.0,205.9,,14 / 24,3065345,2019-08-16 12:20:29:714,0.3647,-0.2052,10.5001,0.015,0.0084,9.8066,-0.0011,-0.0213,-0.0053,-24.77,14.14,-9.31,209.03,2.79,-0.64
30654,51.848095,-2.18455,78,24.13,11.0,205.9,,14 / 24,3065445,2019-08-16 12:20:29:814,0.235,0.0898,9.4851,-0.0062,0.0159,9.8066,-0.0011,-0.0213,-0.0053,-25.0,14.88,-7.32,210.78,2.97,-0.66
30655,51.848095,-2.18455,78,24.13,11.0,205.9,,14 / 24,3065545,2019-08-16 12:20:29:914,0.5209,-0.0409,9.5081,-0.0204,0.0365,9.8066,0.0309,0.0511,0.0074,-24.96,14.67,-7.87,210.68,2.98,-0.41
30656,51.848095,-2.18455,78,24.13,11.0,205.9,,14 / 24,3065645,2019-08-16 12:20:30:014,0.3634,-0.0521,9.4606,0.0089,0.0307,9.8066,-0.0064,-0.0288,0.0213,-24.96,14.67,-7.87,210.68,2.98,-0.41
30657,51.848095,-2.18455,78,24.13,11.0,205.9,,14 / 24,3065745,2019-08-16 12:20:30:114,0.2909,0.1842,9.4044,0.0295,0.0485,9.8065,-0.0117,-0.0117,0.001,-24.96,14.67,-7.87,210.68,2.98,-0.41
30658,51.848095,-2.18455,78,24.13,11.0,205.9,,14 / 24,3065846,2019-08-16 12:20:30:215,0.0681,-0.2225,9.6478,0.0002,-0.0167,9.8066,0.016,0.0618,-0.0011,-24.84,13.72,-9.73,208.82,3.27,-0.26
30659,51.848095,-2.18455,78,24.13,11.0,205.9,,14 / 24,3065945,2019-08-16 12:20:30:314,-0.351,0.0097,10.6633,-0.0221,-0.0222,9.8066,-0.0565,-0.0117,0.0128,-24.41,14.93,-9.01,211.61,3.1,-0.31
30660,51.848095,-2.18455,78,24.13,11.0,205.9,,14 / 24,3066046,2019-08-16 12:20:30:415,-0.3707,0.3696,10.3703,-0.0044,-0.0134,9.8066,-0.0021,0.0075,-0.0224,-25.09,14.32,-8.07,211.61,3.1,-0.31
30661,51.848095,-2.18455,78,24.13,11.0,205.9,,14 / 24,3066145,2019-08-16 12:20:30:514,-0.1548,0.0028,9.7606,0.0094,-0.035,9.8066,-0.0021,0.0075,-0.0224,-24.88,13.75,-9.58,208.93,3.04,-0.51
30662,51.847885,-2.18472,77,24.59,12.0,206.4,,14 / 24,3066245,2019-08-16 12:20:30:614,0.4719,0.0147,8.2829,0.0209,-0.0206,9.8066,0.0021,0.0735,0.0032,-24.88,13.75,-9.58,208.93,3.04,-0.51
30663,51.847885,-2.18472,77,24.59,12.0,206.4,,14 / 24,3066345,2019-08-16 12:20:30:714,-0.2298,-0.12,10.3212,-0.0292,0.0103,9.8066,0.0618,-0.0224,-0.0085,-25.28,12.89,-9.73,207.19,3.1,-0.57
30664,51.847885,-2.18472,77,24.59,12.0,206.4,,14 / 24,3066446,2019-08-16 12:20:30:815,-0.6551,0.6466,9.7955,-0.0367,0.0411,9.8065,0.0277,0.0778,-0.0021,-25.04,14.9,-7.15,207.19,3.1,-0.57
30665,51.847885,-2.18472,77,24.59,12.0,206.4,,14 / 24,3066545,2019-08-16 12:20:30:914,0.0945,-0.1503,9.7671,0.0073,-0.0259,9.8066,-0.0203,0.0309,-0.0032,-24.68,15.09,-7.94,210.64,3.02,-0.26
30666,51.847885,-2.18472,77,24.59,12.0,206.4,,14 / 24,3066645,2019-08-16 12:20:31:014,-0.3255,-0.1179,9.6585,0.0308,-0.0206,9.8066,-0.0362,-0.0522,-0.0053,-24.35,16.56,-5.75,215.07,3.11,-0.46
30667,51.847885,-2.18472,77,24.59,12.0,206.4,,14 / 24,3066746,2019-08-16 12:20:31:115,0.1837,0.2543,9.962,0.0382,0.0256,9.8065,0.0106,-0.0053,0.001,-24.35,16.56,-5.75,215.07,3.11,-0.46
30668,51.847885,-2.18472,77,24.59,12.0,206.4,,14 / 24,3066846,2019-08-16 12:20:31:215,0.0942,0.0665,9.4759,-0.0077,0.0103,9.8066,0.0319,0.0469,0.0192,-24.77,14.74,-8.3,210.65,3.38,-0.46
30669,51.847885,-2.18472,77,24.59,12.0,206.4,,14 / 24,3066945,2019-08-16 12:20:31:314,-0.3345,-0.0243,10.3076,-0.0463,-0.0007,9.8065,0.0319,0.0469,0.0192,-25.35,14.47,-6.94,208.99,3.14,-0.33
30670,51.847885,-2.18472,77,24.59,12.0,206.4,,14 / 24,3067045,2019-08-16 12:20:31:414,0.0228,0.2859,10.1303,-0.0401,0.0018,9.8066,-0.0341,0.0202,0.0213,-25.35,14.47,-6.94,208.99,3.14,-0.33
30671,51.847885,-2.18472,77,24.59,12.0,206.4,,14 / 24,3067146,2019-08-16 12:20:31:515,0.1338,-0.2106,8.96,-0.0468,-0.01,9.8065,-0.033,-0.0021,-0.0032,-25.35,14.47,-6.94,208.99,2.88,-0.25
30672,51.84768,-2.184866,77,24.5,12.0,205.8,,13 / 23,3067245,2019-08-16 12:20:31:614,0.382,-0.1603,9.3069,0.0046,0.0017,9.8067,0.0309,0.0256,-0.016,-25.13,14.34,-7.91,208.98,2.92,-0.36
30673,51.84768,-2.184866,77,24.5,12.0,205.8,,13 / 23,3067346,2019-08-16 12:20:31:715,0.3612,0.0011,9.9433,0.0237,0.011,9.8066,-0.0203,-0.0341,0.0064,-24.49,15.98,-6.71,213.4,3.07,-0.37
30674,51.84768,-2.184866,77,24.5,12.0,205.8,,13 / 23,3067445,2019-08-16 12:20:31:814,0.5494,-0.1642,8.9438,0.0633,0.0085,9.8064,-0.0043,-0.0415,-0.0064,-24.49,15.98,-6.71,213.4,3.07,-0.37
30675,51.84768,-2.184866,77,24.5,12.0,205.8,,13 / 23,3067545,2019-08-16 12:20:31:914,0.6524,0.0213,9.8213,0.028,0.0008,9.8066,0.033,0.0565,-0.0139,-25.31,14.62,-6.76,210.71,3.41,-0.53
30676,51.84768,-2.184866,77,24.5,12.0,205.8,,13 / 23,3067646,2019-08-16 12:20:32:015,0.37,-0.4352,10.151,0.0019,-0.0137,9.8066,0.033,0.0565,-0.0139,-25.75,13.28,-7.79,206.35,3.38,-0.6
30677,51.84768,-2.184866,77,24.5,12.0,205.8,,13 / 23,3067745,2019-08-16 12:20:32:114,-0.0177,0.1038,9.3195,-0.0574,-0.0096,9.8065,-0.0053,0.0298,0.0128,-25.75,13.28,-7.79,206.35,3.38,-0.6
30678,51.84768,-2.184866,77,24.5,12.0,205.8,,13 / 23,3067845,2019-08-16 12:20:32:214,0.0219,0.3405,9.4847,-0.0752,0.0118,9.8064,0.0181,0.0362,0.0053,-24.38,15.54,-8.0,213.35,3.01,-0.35
30679,51.84768,-2.184866,77,24.5,12.0,205.8,,13 / 23,3067945,2019-08-16 12:20:32:314,0.2619,-0.0944,8.9371,0.0186,0.0321,9.8066,0.0042,0.0096,-0.0288,-25.06,14.48,-7.89,213.35,3.01,-0.35
30680,51.84768,-2.184866,77,24.5,12.0,205.8,,13 / 23,3068046,2019-08-16 12:20:32:415,0.3602,-0.4252,9.3877,0.064,0.0118,9.8064,-0.0362,0.0234,0.0128,-25.06,14.48,-7.89,213.35,3.01,-0.35
30681,51.84768,-2.184866,77,24.5,12.0,205.8,,13 / 23,3068145,2019-08-16 12:20:32:514,0.279,0.0748,9.868,0.0015,0.0357,9.8066,0.0288,-0.0096,0.0053,-25.06,14.48,-7.89,209.02,3.13,-0.64
30682,51.847466,-2.184983,75,24.76,12.0,204.8,,14 / 24,3068246,2019-08-16 12:20:32:615,-0.0482,0.1133,9.4136,0.0332,0.0946,9.8061,0.0383,-0.0522,0.001,-24.78,14.92,-7.96,209.02,3.13,-0.64
30683,51.847466,-2.184983,75,24.76,12.0,204.8,,14 / 24,3068345,2019-08-16 12:20:32:714,0.0885,0.2727,8.9551,0.0017,0.0091,9.8066,-0.0096,0.0586,0.0106,-24.58,15.85,-6.67,212.27,3.57,-0.25
30684,51.847466,-2.184983,75,24.76,12.0,204.8,,14 / 24,3068446,2019-08-16 12:20:32:815,0.1001,0.2947,9.3574,-0.0307,0.0014,9.8066,-0.0405,0.0522,0.0064,-24.58,15.85,-6.67,212.27,3.57,-0.25
30685,51.847466,-2.184983,75,24.76,12.0,204.8,,14 / 24,3068545,2019-08-16 12:20:32:914,0.0863,-0.145,10.2736,-0.0368,-0.0153,9.8066,-0.0405,0.0522,0.0064,-23.98,16.14,-8.04,213.25,3.42,-0.14
30686,51.847466,-2.184983,75,24.76,12.0,204.8,,14 / 24,3068645,2019-08-16 12:20:33:014,0.2109,0.0688,9.0391,-0.0096,-0.0059,9.8066,-0.0266,-0.0096,0.0042,-24.68,15.26,-7.6,210.58,3.19,-0.1
30687,51.847466,-2.184983,75,24.76,12.0,204.8,,14 / 24,3068745,2019-08-16 12:20:33:114,0.6477,-0.5135,9.0345,-0.0004,-0.0131,9.8066,0.0298,-0.0128,-0.0511,-24.51,16.15,-6.21,212.35,3.15,-0.16
30688,51.847466,-2.184983,75,24.76,12.0,204.8,,14 / 24,3068846,2019-08-16 12:20:33:215,0.3501,-0.0578,8.7904,0.022,-0.0197,9.8066,-0.032,0.0021,0.0234,-24.51,16.15,-6.21,212.35,3.15,-0.16
30689,51.847466,-2.184983,75,24.76,12.0,204.8,,14 / 24,3068945,2019-08-16 12:20:33:314,0.0411,-0.066,9.5338,0.0305,-0.0357,9.8065,-0.0107,-0.0234,-0.0149,-24.91,15.4,-6.49,210.75,3.19,-0.44
30690,51.847466,-2.184983,75,24.76,12.0,204.8,,14 / 24,3069046,2019-08-16 12:20:33:415,0.2254,0.0193,9.5758,-0.0017,0.0006,9.8067,0.0309,0.0362,-0.0064,-23.94,16.45,-7.52,213.35,3.23,-0.46
30691,51.847466,-2.184983,75,24.76,12.0,204.8,,14 / 24,3069146,2019-08-16 12:20:33:515,0.2629,-0.0253,9.4315,-0.0166,0.001,9.8066,0.0,0.0085,0.0,-24.61,15.87,-6.51,212.35,3.15,-0.4
30692,51.847256,-2.185098,74,24.56,12.0,204.5,,14 / 24,3069245,2019-08-16 12:20:33:614,-0.0147,-0.3553,10.1852,-0.0042,-0.0075,9.8066,0.0,0.0117,0.016,-24.61,15.87,-6.51,212.35,3.15,-0.4
30693,51.847256,-2.185098,74,24.56,12.0,204.5,,14 / 24,3069345,2019-08-16 12:20:33:714,0.1868,0.1129,10.1138,-0.0021,0.0145,9.8066,0.0,0.0117,0.016,-24.94,15.42,-6.32,210.75,3.11,-0.43
30694,51.847256,-2.185098,74,24.56,12.0,204.5,,14 / 24,3069445,2019-08-16 12:20:33:814,0.379,0.0083,9.406,0.0074,0.0336,9.8066,0.017,0.0416,-0.0053,-24.94,15.42,-6.32,210.75,3.11,-0.43
30695,51.847256,-2.185098,74,24.56,12.0,204.5,,14 / 24,3069545,2019-08-16 12:20:33:914,0.2623,-0.1366,9.6682,0.0088,-0.0122,9.8066,0.0032,0.0426,-0.0075,-24.72,15.28,-7.44,210.67,3.25,-0.28
30696,51.847256,-2.185098,74,24.56,12.0,204.5,,14 / 24,3069645,2019-08-16 12:20:34:014,-0.1988,-0.0495,9.9959,-0.0008,-0.023,9.8066,-0.0362,0.0,0.0064,-25.17,14.54,-7.41,210.7,3.17,-0.39
30697,51.847256,-2.185098,74,24.56,12.0,204.5,,14 / 24,3069745,2019-08-16 12:20:34:114,0.0826,0.3203,9.5152,-0.0159,0.0167,9.8066,0.0213,0.0043,-0.0053,-24.82,14.94,-7.79,210.7,3.17,-0.39
30698,51.847256,-2.185098,74,24.56,12.0,204.5,,14 / 24,3069845,2019-08-16 12:20:34:214,-0.1074,-0.2759,9.8044,-0.0158,0.0084,9.8066,-0.0416,-0.0043,0.0074,-24.82,14.94,-7.79,210.7,3.17,-0.39
30699,51.847256,-2.185098,74,24.56,12.0,204.5,,14 / 24,3069945,2019-08-16 12:20:34:314,-0.0594,-0.103,10.1372,-0.0027,-0.0142,9.8066,-0.0075,0.0011,0.0213,-24.05,16.19,-7.71,213.33,3.12,-0.3
30700,51.847256,-2.185098,74,24.56,12.0,204.5,,14 / 24,3070045,2019-08-16 12:20:34:414,-0.255,0.0538,10.2176,-0.0129,-0.0086,9.8066,0.0288,0.033,-0.0181,-24.53,16.17,-6.05,213.33,3.12,-0.3
30701,51.847256,-2.185098,74,24.56,12.0,204.5,,14 / 24,3070146,2019-08-16 12:20:34:515,-0.3323,0.3976,10.3029,0.0038,0.0077,9.8066,0.0288,0.033,-0.0181,-24.97,15.44,-6.16,210.72,3.03,-0.2
30702,51.84704,-2.185262,75,24.84,12.0,204.9,,14 / 24,3070245,2019-08-16 12:20:34:614,-0.3879,-0.015,9.4648,0.0118,-0.0282,9.8066,-0.0629,-0.0202,-0.0032,-24.86,14.45,-8.56,208.87,3.07,-0.17
30703,51.84704,-2.185262,75,24.84,12.0,204.9,,14 / 24,3070345,2019-08-16 12:20:34:714,-0.3053,0.2006,10.5032,0.0167,-0.0388,9.8066,-0.0448,-0.0383,0.0149,-24.62,14.22,-9.59,208.9,3.05,-0.42
30704,51.84704,-2.185262,75,24.84,12.0,204.9,,14 / 24,3070445,2019-08-16 12:20:34:814,-0.338,0.009,9.5024,-0.0031,-0.0061,9.8066,0.0245,0.0629,0.0021,-24.62,14.22,-9.59,208.9,3.05,-0.42
30705,51.84704,-2.185262,75,24.84,12.0,204.9,,14 / 24,3070545,2019-08-16 12:20:34:914,0.0133,0.4124,9.5137,0.0108,-0.0028,9.8066,-0.0394,-0.0117,0.0032,-25.04,14.01,-8.75,208.95,3.02,-0.44
30706,51.84704,-2.185262,75,24.84,12.0,204.9,,14 / 24,3070645,2019-08-16 12:20:35:014,-0.1949,-0.0136,10.1775,0.002,-0.0045,9.8067,0.0234,-0.0053,0.0053,-25.16,14.63,-7.28,208.95,3.02,-0.44
30707,51.84704,-2.185262,75,24.84,12.0,204.9,,14 / 24,3070745,2019-08-16 12:20:35:114,0.1671,0.1605,8.8968,-0.0138,0.0107,9.8066,0.0234,-0.0053,0.0053,-26.05,13.52,-6.22,208.11,2.97,-0.35
30708,51.84704,-2.185262,75,24.84,12.0,204.9,,14 / 24,3070846,2019-08-16 12:20:35:215,0.0012,0.2667,9.2502,-0.0133,0.0221,9.8066,0.0394,0.0043,0.0032,-24.92,13.92,-9.22,208.89,2.97,-0.2
30709,51.84704,-2.185262,75,24.84,12.0,204.9,,14 / 24,3070946,2019-08-16 12:20:35:315,-0.2386,0.1807,9.3676,0.0003,-0.0087,9.8066,-0.065,-0.0426,0.0106,-24.92,13.92,-9.22,208.89,2.97,-0.2
30710,51.84704,-2.185262,75,24.84,12.0,204.9,,14 / 24,3071046,2019-08-16 12:20:35:415,-0.0708,-0.1616,8.426,0.041,-0.0373,9.8065,0.0128,-0.0362,-0.0085,-25.36,14.74,-6.3,208.89,2.97,-0.2
30711,51.84704,-2.185262,75,24.84,12.0,204.9,,14 / 24,3071145,2019-08-16 12:20:35:514,0.0001,0.2819,9.3244,0.0195,0.0029,9.8066,0.0607,-0.0266,0.0042,-25.16,14.63,-7.28,210.73,3.07,-0.5
30712,51.84684,-2.185457,76,24.85,11.0,206.6,,14 / 24,3071246,2019-08-16 12:20:35:615,0.0796,0.1875,8.3618,0.0307,0.0222,9.8066,0.0202,-0.0128,0.0181,-24.9,14.48,-8.4,210.73,3.07,-0.5
30713,51.84684,-2.185457,76,24.85,11.0,206.6,,14 / 24,3071346,2019-08-16 12:20:35:715,-0.4217,0.5668,9.9102,-0.0017,0.0269,9.8066,0.0245,0.0128,0.0064,-24.95,15.53,-6.03,212.4,3.29,-0.48
30714,51.84684,-2.185457,76,24.85,11.0,206.6,,14 / 24,3071445,2019-08-16 12:20:35:814,-0.0955,0.2099,10.7205,-0.0096,-0.003,9.8066,-0.0117,0.0735,0.0096,-23.76,16.33,-8.3,212.4,3.29,-0.48
30715,51.84684,-2.185457,76,24.85,11.0,206.6,,14 / 24,3071545,2019-08-16 12:20:35:914,-0.1702,0.2858,10.0598,-0.0317,-0.0345,9.8065,-0.0298,-0.0181,0.0202,-23.76,16.33,-8.3,212.4,3.29,-0.48
30716,51.84684,-2.185457,76,24.85,11.0,206.6,,14 / 24,3071646,2019-08-16 12:20:36:015,-0.0593,-0.2116,9.2827,-0.0327,0.0021,9.8066,-0.0298,-0.0181,0.0202,-24.95,15.53,-6.03,212.43,3.03,-0.55
30717,51.84684,-2.185457,76,24.85,11.0,206.6,,14 / 24,3071745,2019-08-16 12:20:36:114,0.0514,-0.1538,9.2286,-0.0528,0.0233,9.8065,0.0085,-0.0064,0.0117,-25.16,14.63,-7.28,210.71,2.84,-0.27
30718,51.84684,-2.185457,76,24.85,11.0,206.6,,14 / 24,3071845,2019-08-16 12:20:36:214,-0.2719,0.1871,10.0232,0.0063,0.0136,9.8066,0.0181,-0.0085,-0.0085,-25.13,15.13,-6.29,210.71,2.84,-0.27
30719,51.84684,-2.185457,76,24.85,11.0,206.6,,14 / 24,3071945,2019-08-16 12:20:36:314,-0.2049,0.047,9.9788,-0.0053,0.0124,9.8066,-0.0011,0.0234,-0.0021,-25.73,14.96,-3.75,209.83,3.07,-0.15
30720,51.84684,-2.185457,76,24.85,11.0,206.6,,14 / 24,3072046,2019-08-16 12:20:36:415,0.0076,-0.0871,9.8202,-0.0178,0.0093,9.8066,-0.0298,0.0171,0.0,-25.73,14.96,-3.75,209.83,3.07,-0.15
30721,51.84684,-2.185457,76,24.85,11.0,206.6,,14 / 24,3072145,2019-08-16 12:20:36:514,-0.0932,-0.1319,10.6965,0.0032,-0.0141,9.8066,0.0181,0.0341,0.0,-25.58,14.87,-4.95,209.77,3.01,-0.05
30722,51.846657,-2.185641,77,24.61,12.0,207.0,,14 / 24,3072245,2019-08-16 12:20:36:614,0.2263,-0.2142,10.1129,0.0002,-0.011,9.8066,0.0085,0.0085,0.0064,-25.82,13.95,-6.24,209.77,3.01,-0.05
30723,51.846657,-2.185641,77,24.61,12.0,207.0,,14 / 24,3072345,2019-08-16 12:20:36:714,0.407,-0.353,9.1458,-0.0127,0.0054,9.8066,-0.0341,-0.0192,0.0128,-26.02,14.06,-5.04,208.11,2.98,-0.1
30724,51.846657,-2.185641,77,24.61,12.0,207.0,,14 / 24,3072445,2019-08-16 12:20:36:814,0.2214,-0.1893,9.2393,-0.0416,0.0006,9.8066,-0.0341,-0.0192,0.0128,-27.04,12.19,-4.5,203.83,2.77,0.01
30725,51.846657,-2.185641,77,24.61,12.0,207.0,,14 / 24,3072546,2019-08-16 12:20:36:915,0.5169,-0.1052,9.4907,-0.0093,0.0083,9.8066,0.017,0.0192,0.0074,-26.24,14.1,-3.54,208.14,2.74,0.08
30726,51.846657,-2.185641,77,24.61,12.0,207.0,,14 / 24,3072645,2019-08-16 12:20:37:014,0.3063,-0.1201,9.5725,0.0196,0.0122,9.8066,0.016,0.0448,0.0021,-26.24,14.1,-3.54,208.14,2.74,0.08
30727,51.846657,-2.185641,77,24.61,12.0,207.0,,14 / 24,3072745,2019-08-16 12:20:37:114,0.3125,0.1694,10.3297,0.0497,0.0087,9.8065,-0.0629,-0.0256,0.0085,-25.72,14.8,-4.44,209.82,3.02,-0.01
30728,51.846657,-2.185641,77,24.61,12.0,207.0,,14 / 24,3072845,2019-08-16 12:20:37:214,0.3571,-0.3362,9.1467,0.0035,-0.016,9.8066,0.0032,0.0788,0.0032,-24.53,16.28,-5.76,212.35,2.99,-0.1
30729,51.846657,-2.185641,77,24.61,12.0,207.0,,14 / 24,3072945,2019-08-16 12:20:37:314,0.1669,-0.3439,10.3435,-0.0196,-0.0208,9.8066,0.0319,0.0043,-0.0096,-25.96,13.95,-5.63,212.35,2.99,-0.1
30730,51.846657,-2.185641,77,24.61,12.0,207.0,,14 / 24,3073046,2019-08-16 12:20:37:415,0.633,-0.3036,8.0535,0.0006,-0.0072,9.8066,-0.0756,-0.0149,0.0149,-25.28,15.12,-5.7,210.71,2.97,-0.14
30731,51.846657,-2.185641,77,24.61,12.0,207.0,,14 / 24,3073145,2019-08-16 12:20:37:514,0.5568,-0.5721,9.519,-0.01,0.0106,9.8066,-0.0756,-0.0149,0.0149,-25.28,15.12,-5.7,210.71,2.97,-0.14
30732,51.84641,-2.18584,76,25.64,11.0,206.9,,14 / 24,3073246,2019-08-16 12:20:37:615,-0.0578,-0.1655,9.4616,-0.0146,0.0299,9.8066,0.0256,0.0607,-0.0096,-25.28,15.12,-5.7,210.7,2.95,-0.06
30733,51.84641,-2.18584,76,25.64,11.0,206.9,,14 / 24,3073345,2019-08-16 12:20:37:714,0.0982,-0.0108,9.1807,-0.007,-0.0122,9.8066,0.0479,-0.016,-0.0362,-25.28,15.12,-5.7,210.66,2.96,0.14
30734,51.84641,-2.18584,76,25.64,11.0,206.9,,14 / 24,3073445,2019-08-16 12:20:37:814,-0.3271,0.0276,10.4898,0.0063,-0.0121,9.8066,-0.0213,-0.0096,0.0213,-25.28,15.12,-5.7,210.66,2.96,0.14
30735,51.84641,-2.18584,76,25.64,11.0,206.9,,14 / 24,3073547,2019-08-16 12:20:37:916,0.1771,-0.298,9.0862,-0.008,0.0001,9.8066,0.0383,0.1087,0.0117,-25.28,15.12,-5.7,210.68,2.96,0.06
30736,51.84641,-2.18584,76,25.64,11.0,206.9,,14 / 24,3073645,2019-08-16 12:20:38:014,-0.4013,0.2324,10.0963,-0.0422,-0.0193,9.8065,-0.0256,-0.0202,0.0085,-25.66,14.5,-5.62,208.05,2.69,0.09
30737,51.84641,-2.18584,76,25.64,11.0,206.9,,14 / 24,3073745,2019-08-16 12:20:38:114,-0.2153,0.1606,9.4498,0.0046,-0.0063,9.8066,-0.0629,-0.0543,0.0192,-25.66,14.5,-5.62,208.05,2.69,0.09
30738,51.84641,-2.18584,76,25.64,11.0,206.9,,14 / 24,3073845,2019-08-16 12:20:38:214,0.1484,0.5103,9.0372,0.0124,0.0233,9.8066,0.0373,0.0224,-0.0064,-25.66,14.5,-5.62,208.06,2.86,-0.01
30739,51.84641,-2.18584,76,25.64,11.0,206.9,,14 / 24,3073945,2019-08-16 12:20:38:314,-0.2242,0.4182,10.0085,-0.0056,-0.002,9.8066,0.0373,0.0224,-0.0064,-25.08,15.0,-6.81,208.06,2.86,-0.01
30740,51.84641,-2.18584,76,25.64,11.0,206.9,,14 / 24,3074045,2019-08-16 12:20:38:414,-0.0964,0.0394,9.8953,-0.0271,-0.0148,9.8066,-0.0458,0.0256,0.017,-25.64,12.97,-8.64,206.21,2.83,0.0
30741,51.84641,-2.18584,76,25.64,11.0,206.9,,14 / 24,3074145,2019-08-16 12:20:38:514,-0.4073,0.1392,10.0747,-0.0189,-0.0022,9.8066,0.0501,0.0149,-0.0032,-25.65,14.22,-6.3,206.21,2.83,0.0
30742,51.846195,-2.185984,76,25.4,11.0,205.9,,14 / 24,3074245,2019-08-16 12:20:38:614,-0.0041,0.3185,9.7587,0.0251,0.0193,9.8066,0.0192,-0.0288,-0.0064,-25.65,14.22,-6.3,206.21,2.83,0.0
30743,51.846195,-2.185984,76,25.4,11.0,205.9,,14 / 24,3074345,2019-08-16 12:20:38:714,-0.0017,-0.1503,9.9464,0.0196,-0.0126,9.8066,-0.0192,-0.0245,-0.0053,-25.37,14.93,-5.78,210.68,3.01,0.03
30744,51.846195,-2.185984,76,25.4,11.0,205.9,,14 / 24,3074446,2019-08-16 12:20:38:815,-0.2671,-0.2909,10.4371,0.012,-0.0321,9.8066,0.0288,0.0522,-0.0181,-25.55,15.03,-4.6,209.79,2.97,-0.16
30745,51.846195,-2.185984,76,25.4,11.0,205.9,,14 / 24,3074546,2019-08-16 12:20:38:915,0.0475,-0.2432,9.5024,0.003,-0.0173,9.8066,0.0042,0.0107,-0.0053,-25.55,15.03,-4.6,209.79,2.97,-0.16
30746,51.846195,-2.185984,76,25.4,11.0,205.9,,14 / 24,3074645,2019-08-16 12:20:39:014,0.462,-0.1108,9.0176,0.0419,-0.0115,9.8066,-0.0128,-0.0778,0.0096,-25.72,13.98,-6.56,208.06,3.15,-0.34
30747,51.846195,-2.185984,76,25.4,11.0,205.9,,14 / 24,3074745,2019-08-16 12:20:39:114,-0.0816,-0.2974,11.111,0.0406,0.0052,9.8066,-0.0128,-0.0778,0.0096,-25.12,15.81,-4.35,212.48,3.37,-0.43
30748,51.846195,-2.185984,76,25.4,11.0,205.9,,14 / 24,3074846,2019-08-16 12:20:39:215,0.5898,-0.7691,10.7125,-0.0335,-0.0257,9.8066,0.0138,0.0309,0.0298,-25.4,14.94,-5.62,210.73,3.37,-0.39
30749,51.846195,-2.185984,76,25.4,11.0,205.9,,14 / 24,3074945,2019-08-16 12:20:39:314,0.1492,-0.2852,10.8193,-0.058,-0.0452,9.8064,0.066,0.0522,0.0032,-25.4,14.94,-5.62,210.73,3.37,-0.39
30750,51.846195,-2.185984,76,25.4,11.0,205.9,,14 / 24,3075045,2019-08-16 12:20:39:414,0.0192,-0.0921,10.2686,-0.0044,-0.007,9.8066,-0.0117,0.0234,0.017,-26.1,13.2,-6.65,206.38,2.95,-0.44
30751,51.846195,-2.185984,76,25.4,11.0,205.9,,14 / 24,3075146,2019-08-16 12:20:39:515,0.307,-0.1343,8.8234,0.003,-0.0113,9.8066,0.0032,0.0107,-0.0192,-26.1,13.2,-6.65,206.38,2.95,-0.44
30752,51.846035,-2.186152,75,24.55,11.0,207.0,,14 / 24,3075245,2019-08-16 12:20:39:614,0.2461,-0.4637,9.4736,0.0104,-0.0168,9.8066,-0.0181,-0.0043,-0.0075,-26.36,12.85,-6.31,206.42,2.93,-0.51
30753,51.846035,-2.186152,75,24.55,11.0,207.0,,14 / 24,3075345,2019-08-16 12:20:39:714,0.6297,-0.4393,9.9854,0.038,-0.0187,9.8066,-0.0298,-0.0778,0.0,-26.39,11.79,-8.03,204.63,3.08,-0.71
30754,51.846035,-2.186152,75,24.55,11.0,207.0,,14 / 24,3075446,2019-08-16 12:20:39:815,0.2158,-0.0019,9.8134,0.0517,0.0314,9.8065,-0.0298,-0.0778,0.0,-26.2,13.83,-4.73,204.63,3.08,-0.71
30755,51.846035,-2.186152,75,24.55,11.0,207.0,,14 / 24,3075545,2019-08-16 12:20:39:914,0.0483,-0.2866,9.6339,0.0637,0.041,9.8064,0.0,0.0085,-0.0149,-23.03,19.06,-2.55,219.45,3.52,-0.64
30756,51.846035,-2.186152,75,24.55,11.0,207.0,,14 / 24,3075646,2019-08-16 12:20:40:015,0.1107,-0.0207,10.9415,-0.0272,-0.014,9.8066,0.0032,0.0607,-0.0064,-20.33,21.47,5.06,219.45,3.52,-0.64
30757,51.846035,-2.186152,75,24.55,11.0,207.0,,14 / 24,3075745,2019-08-16 12:20:40:114,0.2771,0.0258,9.967,-0.0431,-0.0383,9.8065,-0.032,-0.017,0.0234,-20.33,21.47,5.06,219.45,3.52,-0.64
30758,51.846035,-2.186152,75,24.55,11.0,207.0,,14 / 24,3075845,2019-08-16 12:20:40:214,0.0089,-0.1514,9.231,-0.0553,0.0006,9.8065,0.0288,-0.0277,-0.0352,-19.71,20.89,8.67,227.11,3.28,-0.44
30759,51.846035,-2.186152,75,24.55,11.0,207.0,,14 / 24,3075945,2019-08-16 12:20:40:314,0.4066,-0.1954,9.2333,0.0093,-0.0339,9.8066,0.0202,0.0863,-0.0522,-21.55,18.69,9.28,221.43,3.29,-0.51
30760,51.846035,-2.186152,75,24.55,11.0,207.0,,14 / 24,3076045,2019-08-16 12:20:40:414,0.4704,-0.1477,10.1092,0.0201,-0.0566,9.8065,-0.0373,-0.0543,-0.0043,-21.55,18.69,9.28,221.43,3.29,-0.51
30761,51.846035,-2.186152,75,24.55,11.0,207.0,,14 / 24,3076145,2019-08-16 12:20:40:514,-0.1745,-0.1125,10.3126,0.0111,0.0214,9.8066,-0.0373,-0.0543,-0.0043,-26.97,12.05,5.26,204.09,3.16,-0.84
30762,51.84587,-2.186339,75,24.97,11.0,207.5,,14 / 24,3076245,2019-08-16 12:20:40:614,0.1775,-0.1127,9.215,0.025,0.0655,9.8064,0.0501,-0.0213,-0.0075,-26.96,13.14,-0.87,204.09,3.16,-0.84
30763,51.84587,-2.186339,75,24.97,11.0,207.5,,14 / 24,3076345,2019-08-16 12:20:40:714,0.4302,-0.3914,9.862,-0.0129,0.0085,9.8066,0.0298,-0.017,-0.0149,-26.55,13.86,-1.7,207.38,3.45,-0.55
30764,51.84587,-2.186339,75,24.97,11.0,207.5,,14 / 24,3076445,2019-08-16 12:20:40:814,0.2441,0.1118,10.2994,-0.0138,0.0025,9.8066,-0.0224,-0.0245,-0.0043,-25.71,15.35,-1.77,207.38,3.45,-0.55
30765,51.84587,-2.186339,75,24.97,11.0,207.5,,14 / 24,3076545,2019-08-16 12:20:40:914,0.0841,0.1699,9.741,-0.0103,0.0059,9.8066,0.0746,0.0085,-0.0373,-24.85,16.34,-3.98,212.48,3.41,-0.49
30766,51.84587,-2.186339,75,24.97,11.0,207.5,,14 / 24,3076645,2019-08-16 12:20:41:014,0.1167,-0.1148,9.6843,-0.036,0.0025,9.8066,0.0234,0.0021,-0.0181,-24.85,16.34,-3.98,212.48,3.41,-0.49
30767,51.84587,-2.186339,75,24.97,11.0,207.5,,14 / 24,3076746,2019-08-16 12:20:41:115,-0.258,0.1797,10.1012,-0.0592,-0.0169,9.8065,-0.0203,-0.0074,-0.0085,-24.17,17.31,-4.02,215.16,3.07,-0.39
30768,51.84587,-2.186339,75,24.97,11.0,207.5,,14 / 24,3076845,2019-08-16 12:20:41:214,-0.0489,-0.1476,9.383,0.0018,-0.0133,9.8066,0.0351,0.0139,-0.0149,-24.11,17.43,-3.85,215.17,3.03,-0.46
30769,51.84587,-2.186339,75,24.97,11.0,207.5,,14 / 24,3076945,2019-08-16 12:20:41:314,-0.1668,0.1847,9.5537,-0.004,0.0243,9.8066,0.0351,0.0139,-0.0149,-24.11,17.43,-3.85,215.17,3.03,-0.46
30770,51.84587,-2.186339,75,24.97,11.0,207.5,,14 / 24,3077045,2019-08-16 12:20:41:414,-0.1903,0.171,9.9531,-0.011,0.0056,9.8066,-0.0075,0.0021,-0.0096,-23.64,18.08,-3.78,216.7,3.1,-0.33
30771,51.84587,-2.186339,75,24.97,11.0,207.5,,14 / 24,3077145,2019-08-16 12:20:41:514,0.2695,-0.0124,9.5953,0.007,0.019,9.8066,0.0042,-0.0341,-0.0053,-23.64,18.08,-3.78,216.7,3.1,-0.33
30772,51.845688,-2.186473,75,24.56,11.0,207.7,,14 / 24,3077245,2019-08-16 12:20:41:614,0.1481,-0.0176,9.6363,0.0179,0.0083,9.8066,0.0245,0.033,-0.0139,-22.93,19.14,-2.76,219.43,3.19,-0.26
30773,51.845688,-2.186473,75,24.56,11.0,207.7,,14 / 24,3077346,2019-08-16 12:20:41:715,-0.2504,-0.1714,9.9268,0.0154,-0.009,9.8066,0.0074,0.032,-0.0149,-22.85,19.07,-3.8,219.43,3.19,-0.26
30774,51.845688,-2.186473,75,24.56,11.0,207.7,,14 / 24,3077446,2019-08-16 12:20:41:815,-0.2113,-0.0507,10.2234,-0.0138,-0.0081,9.8066,0.0053,-0.0128,-0.0021,-23.46,18.46,-2.94,217.92,3.23,-0.36
30775,51.845688,-2.186473,75,24.56,11.0,207.7,,14 / 24,3077546,2019-08-16 12:20:41:915,-0.0688,0.2045,9.5421,-0.0303,0.0077,9.8066,0.0501,0.016,0.0074,-23.82,18.01,-2.87,216.75,3.12,-0.21
30776,51.845688,-2.186473,75,24.56,11.0,207.7,,14 / 24,3077646,2019-08-16 12:20:42:015,-0.3117,0.1501,9.0395,-0.0162,0.0326,9.8066,0.0501,0.016,0.0074,-22.75,18.99,-4.68,219.27,3.16,-0.01
30777,51.845688,-2.186473,75,24.56,11.0,207.7,,14 / 24,3077746,2019-08-16 12:20:42:115,-0.3169,0.2325,9.9123,-0.0193,0.0297,9.8066,0.0128,-0.0234,-0.0149,-22.85,19.07,-3.8,219.27,3.16,-0.01
30778,51.845688,-2.186473,75,24.56,11.0,207.7,,14 / 24,3077846,2019-08-16 12:20:42:215,-0.4385,0.2418,10.5591,-0.0278,0.0326,9.8066,-0.0437,0.0032,-0.0021,-22.85,19.07,-3.8,219.27,3.16,-0.01
30779,51.845688,-2.186473,75,24.56,11.0,207.7,,14 / 24,3077945,2019-08-16 12:20:42:314,-0.4405,0.0932,9.7148,-0.0138,0.0001,9.8066,0.0394,0.0224,-0.0171,-22.8,18.88,-4.88,219.23,3.15,0.25
30780,51.845688,-2.186473,75,24.56,11.0,207.7,,14 / 24,3078045,2019-08-16 12:20:42:414,-0.4674,0.0647,9.8029,-0.0278,-0.0009,9.8066,0.0106,0.0181,-0.016,-22.41,19.59,-3.73,222.0,3.02,0.34
30781,51.845688,-2.186473,75,24.56,11.0,207.7,,14 / 24,3078145,2019-08-16 12:20:42:514,0.0183,0.1125,9.8778,-0.0049,0.0133,9.8066,-0.0085,-0.0234,0.0074,-22.47,19.52,-3.74,221.99,3.05,0.42
30782,51.845512,-2.186627,74,24.38,10.0,208.3,,14 / 24,3078246,2019-08-16 12:20:42:615,-0.3431,0.3275,9.228,0.0101,0.0235,9.8066,0.0256,0.0501,-0.0181,-22.47,19.52,-3.74,221.99,3.05,0.42
30783,51.845512,-2.186627,74,24.38,10.0,208.3,,14 / 24,3078345,2019-08-16 12:20:42:714,-0.3491,0.2929,9.2586,-0.0197,0.0024,9.8066,0.0032,0.0394,-0.0256,-22.86,19.08,-3.65,219.27,3.19,0.48
30784,51.845512,-2.186627,74,24.38,10.0,208.3,,14 / 24,3078445,2019-08-16 12:20:42:814,-0.6318,0.4611,9.3074,-0.011,0.0114,9.8066,-0.0288,-0.0756,0.0128,-22.47,19.52,-3.74,219.27,3.19,0.48
30785,51.845512,-2.186627,74,24.38,10.0,208.3,,14 / 24,3078545,2019-08-16 12:20:42:914,-0.4877,0.2368,10.5806,-0.0049,0.0121,9.8066,-0.0288,-0.0756,0.0128,-22.01,20.03,-3.81,221.96,3.21,0.56
30786,51.845512,-2.186627,74,24.38,10.0,208.3,,14 / 24,3078645,2019-08-16 12:20:43:014,-0.3483,0.179,9.3161,-0.013,0.0203,9.8066,0.0405,-0.0053,-0.0096,-21.14,20.97,-3.67,221.96,3.21,0.56
30787,51.845512,-2.186627,74,24.38,10.0,208.3,,14 / 24,3078745,2019-08-16 12:20:43:114,-0.9491,0.5515,10.6229,-0.0321,-0.0016,9.8066,0.0543,-0.0021,-0.0288,-22.07,20.16,-2.51,222.02,3.17,0.81
30788,51.845512,-2.186627,74,24.38,10.0,208.3,,14 / 24,3078845,2019-08-16 12:20:43:214,-0.5487,0.5598,10.3598,-0.0374,0.0119,9.8066,-0.0501,-0.0181,0.0117,-22.07,20.16,-2.51,222.02,3.17,0.81
30789,51.845512,-2.186627,74,24.38,10.0,208.3,,14 / 24,3078945,2019-08-16 12:20:43:314,-0.3037,0.3068,9.8128,-0.0034,0.0252,9.8066,0.0351,0.0224,-0.0096,-21.57,20.56,-3.45,223.4,3.05,1.01
30790,51.845512,-2.186627,74,24.38,10.0,208.3,,14 / 24,3079045,2019-08-16 12:20:43:414,-0.4886,0.2304,9.8726,-0.0213,0.0111,9.8066,0.0106,0.0064,0.001,-21.59,20.49,-3.74,221.89,3.14,1.13
30791,51.845512,-2.186627,74,24.38,10.0,208.3,,14 / 24,3079145,2019-08-16 12:20:43:514,-0.2085,0.3177,10.1761,-0.0514,0.0252,9.8065,-0.0341,0.0085,-0.0021,-22.07,20.16,-2.51,221.89,3.14,1.13
30792,51.84531,-2.186804,74,24.66,11.0,208.7,,14 / 24,3079245,2019-08-16 12:20:43:614,-0.2939,0.0646,10.2355,-0.0574,0.0378,9.8064,-0.0341,0.0085,-0.0021,-21.58,20.53,-3.59,223.24,3.04,1.52
30793,51.84531,-2.186804,74,24.66,11.0,208.7,,14 / 24,3079345,2019-08-16 12:20:43:714,0.0497,0.0512,9.7296,0.0211,-0.0026,9.8066,0.0128,0.0224,-0.0288,-21.58,20.53,-3.59,223.24,3.04,1.52
30794,51.84531,-2.186804,74,24.66,11.0,208.7,,14 / 24,3079445,2019-08-16 12:20:43:814,0.216,-0.3492,9.1861,0.0245,-0.0116,9.8066,0.0011,-0.0149,-0.016,-21.48,20.43,-4.6,223.05,3.12,1.42
30795,51.84531,-2.186804,74,24.66,11.0,208.7,,14 / 24,3079545,2019-08-16 12:20:43:914,0.0869,-0.1443,10.0348,0.0424,-0.027,9.8065,-0.0288,-0.0288,-0.0053,-20.27,21.84,-3.52,223.05,3.12,1.42
30796,51.84531,-2.186804,74,24.66,11.0,208.7,,14 / 24,3079645,2019-08-16 12:20:44:014,0.3371,-0.0639,9.6161,0.0591,-0.0168,9.8065,0.033,-0.0053,-0.0149,-20.7,21.42,-3.59,224.59,3.3,1.11
30797,51.84531,-2.186804,74,24.66,11.0,208.7,,14 / 24,3079745,2019-08-16 12:20:44:114,-0.2162,-0.1221,10.1372,-0.0212,0.0148,9.8066,0.0128,0.0171,-0.0011,-21.05,20.89,-4.51,224.59,3.3,1.11
30798,51.84531,-2.186804,74,24.66,11.0,208.7,,14 / 24,3079845,2019-08-16 12:20:44:214,-0.3696,0.0286,9.9195,-0.0492,0.0143,9.8065,-0.0011,0.0096,0.0,-21.05,20.89,-4.51,224.59,3.3,1.11
30799,51.84531,-2.186804,74,24.66,11.0,208.7,,14 / 24,3079945,2019-08-16 12:20:44:314,-0.0806,0.0804,9.6548,-0.0286,0.0135,9.8066,-0.0011,0.0096,0.0,-21.71,20.65,-1.53,223.46,3.16,1.38
30800,51.84531,-2.186804,74,24.66,11.0,208.7,,14 / 24,3080045,2019-08-16 12:20:44:414,-0.1581,0.2205,9.5777,-0.0189,0.0364,9.8066,0.0277,-0.0106,-0.0107,-21.71,20.65,-1.53,223.46,3.16,1.38
30801,51.84531,-2.186804,74,24.66,11.0,208.7,,14 / 24,3080145,2019-08-16 12:20:44:514,0.0988,0.0089,9.1313,-0.0055,0.0478,9.8065,-0.0511,-0.0256,0.0032,-21.73,20.62,-1.6,223.43,3.33,1.6
30802,51.845154,-2.186989,74,23.98,13.0,210.2,,14 / 24,3080245,2019-08-16 12:20:44:614,-0.2305,-0.1205,10.4619,-0.0045,-0.0135,9.8066,-0.0075,-0.0138,-0.0192,-21.73,20.62,-1.6,223.43,3.33,1.6
30803,51.845154,-2.186989,74,23.98,13.0,210.2,,14 / 24,3080345,2019-08-16 12:20:44:714,0.2321,-0.2115,9.7758,0.0051,-0.0209,9.8066,-0.033,-0.0277,-0.0085,-20.22,21.86,-3.66,227.25,3.25,1.56
30804,51.845154,-2.186989,74,23.98,13.0,210.2,,14 / 24,3080445,2019-08-16 12:20:44:814,0.3357,-0.3208,10.4587,0.0198,-0.0399,9.8065,-0.0043,-0.0224,-0.0085,-22.1,20.11,-2.62,221.96,3.16,1.32
30805,51.845154,-2.186989,74,23.98,13.0,210.2,,14 / 24,3080546,2019-08-16 12:20:44:915,0.2012,-0.3107,9.7117,-0.0018,-0.0192,9.8066,0.0277,0.0479,-0.0064,-22.1,20.11,-2.62,221.96,3.16,1.32
30806,51.845154,-2.186989,74,23.98,13.0,210.2,,14 / 24,3080645,2019-08-16 12:20:45:014,0.4642,-0.225,9.7197,-0.0434,-0.0128,9.8065,0.0575,0.0149,-0.0032,-20.7,21.42,-3.59,224.59,3.08,1.24
30807,51.845154,-2.186989,74,23.98,13.0,210.2,,14 / 24,3080745,2019-08-16 12:20:45:114,0.1253,-0.1356,9.4236,-0.0132,0.024,9.8066,0.0575,0.0149,-0.0032,-21.05,20.89,-4.51,224.49,2.84,1.37
30808,51.845154,-2.186989,74,23.98,13.0,210.2,,14 / 24,3080845,2019-08-16 12:20:45:214,0.4263,0.0704,8.8468,-0.0048,0.0623,9.8065,0.0245,-0.0351,-0.0096,-20.06,21.62,-5.48,227.14,3.08,1.65
30809,51.845154,-2.186989,74,23.98,13.0,210.2,,14 / 24,3080945,2019-08-16 12:20:45:314,0.4119,0.1449,9.6374,0.0209,0.0273,9.8066,-0.032,-0.0778,-0.0064,-21.04,20.87,-4.7,227.14,3.08,1.65
30810,51.845154,-2.186989,74,23.98,13.0,210.2,,14 / 24,3081045,2019-08-16 12:20:45:414,0.4731,-0.2431,9.2261,0.0313,0.0195,9.8066,0.0213,0.0085,-0.0128,-21.04,20.87,-4.7,227.14,3.08,1.65
30811,51.845154,-2.186989,74,23.98,13.0,210.2,,14 / 24,3081145,2019-08-16 12:20:45:514,-0.0359,-0.1796,9.9445,0.0047,-0.0214,9.8066,-0.016,0.0309,0.0032,-20.74,21.33,-3.88,224.53,3.29,1.59
30812,51.84496,-2.187157,74,24.43,13.0,209.9,,14 / 24,3081245,2019-08-16 12:20:45:614,-0.1374,-0.166,10.1457,-0.0062,-0.043,9.8066,0.0064,0.0128,-0.0181,-20.94,20.6,-6.09,224.35,3.08,1.44
30813,51.84496,-2.187157,74,24.43,13.0,209.9,,14 / 24,3081345,2019-08-16 12:20:45:714,-0.3432,-0.1642,9.8272,-0.0056,-0.0133,9.8066,0.016,0.0416,-0.033,-20.94,20.6,-6.09,224.35,3.08,1.44
30814,51.84496,-2.187157,74,24.43,13.0,209.9,,14 / 24,3081445,2019-08-16 12:20:45:814,0.148,-0.055,9.57,-0.0006,-0.0082,9.8066,-0.0149,-0.0096,-0.0117,-21.59,19.72,-6.71,221.55,3.01,1.4
30815,51.84496,-2.187157,74,24.43,13.0,209.9,,14 / 24,3081545,2019-08-16 12:20:45:914,0.244,0.0374,9.1736,0.0145,-0.0188,9.8066,-0.0149,-0.0096,-0.0117,-20.04,21.51,-5.98,227.11,3.0,1.26
30816,51.84496,-2.187157,74,24.43,13.0,209.9,,14 / 24,3081645,2019-08-16 12:20:46:014,0.3297,0.068,9.594,0.0569,0.0004,9.8065,-0.0288,-0.0064,-0.0064,-20.04,21.51,-5.98,227.11,3.0,1.26
30817,51.84496,-2.187157,74,24.43,13.0,209.9,,14 / 24,3081747,2019-08-16 12:20:46:116,0.2137,-0.0918,9.6541,0.0152,0.0015,9.8066,0.0032,0.0149,-0.0075,-20.44,21.88,-1.94,227.53,3.22,1.02
30818,51.84496,-2.187157,74,24.43,13.0,209.9,,14 / 24,3081845,2019-08-16 12:20:46:214,-0.0464,0.015,9.5716,0.0025,-0.0063,9.8066,-0.0053,-0.0032,0.001,-20.89,21.32,-3.01,224.71,3.29,0.96
30819,51.84496,-2.187157,74,24.43,13.0,209.9,,14 / 24,3081945,2019-08-16 12:20:46:314,-0.3252,-0.0204,10.4111,-0.0001,-0.02,9.8066,-0.0533,0.0352,0.0074,-20.48,21.82,-2.17,227.54,3.21,0.88
30820,51.84496,-2.187157,74,24.43,13.0,209.9,,14 / 24,3082045,2019-08-16 12:20:46:414,-0.3757,0.0967,9.7969,-0.0005,-0.012,9.8066,0.0309,0.0543,-0.0032,-20.48,21.82,-2.17,227.54,3.21,0.88
30821,51.84496,-2.187157,74,24.43,13.0,209.9,,14 / 24,3082145,2019-08-16 12:20:46:514,-0.0978,0.0675,8.9629,-0.0083,0.0117,9.8066,0.0192,-0.0181,-0.0266,-20.51,21.8,-2.08,226.16,3.16,0.84
30822,51.844765,-2.187326,74,24.79,12.0,210.3,,14 / 24,3082245,2019-08-16 12:20:46:614,-0.2109,0.0822,9.9131,-0.0168,0.0123,9.8066,-0.0288,-0.0234,0.0042,-20.78,21.2,-4.32,224.62,3.14,0.96
