,GPS LATITUDE (degrees), GPS LONGITUDE (degrees), GPS ALTITUDE (m), GPS SPEED (Kmh), GPS ACCURACY (m), GPS ORIENTATION (Â°),GPS SATELLITES IN RANGE, TIME SINCE START (ms), DATE (YYYY-MO-DD HH-MI-SS_SSS), ACCELEROMETER X (m/s²) , ACCELEROMETER Y (m/s²), ACCELEROMETER Z (m/s²), GRAVITY X (m/s²), GRAVITY Y (m/s²), GRAVITY Z (m/s²), GYROSCOPE Yaw (rad/s), GYROSCOPE Pitch (rad/s), GYROSCOPE Roll (rad/s), MAGNETIC FIELD X (Î¼T), MAGNETIC FIELD Y (Î¼T), MAGNETIC FIELD Z (Î¼T), ORIENTATION (Yaw) (Â°), ORIENTATION (Pitch) (Â°), ORIENTATION (Roll ) (Â°)
86745,52.386868,-1.497609,131.7,11.36,3,66.69,19 / 20,5155910,2019-09-06 20:46:01:653,-1.136,0.4624,10.1471,-0.0061,0.0011,9.8066,-0.0476,-0.0008,0.0446,-22.87,-35.12,4.25,305.53,-84.46,-147.43
86746,52.386868,-1.497609,131.7,11.36,3,66.69,19 / 20,5156009,2019-09-06 20:46:01:752,-1.9693,0.4398,10.0533,-0.0113,-0.0093,9.8066,0.0579,-0.0795,0.041,-23.06,-35.0,4.19,307.45,-84.54,-145.77
86747,52.386868,-1.497609,131.7,11.36,3,66.69,19 / 20,5156110,2019-09-06 20:46:01:853,-4.403,-0.5161,9.0624,0.0199,-0.0165,9.8065,0.4305,-0.0619,0.0435,-23.56,-33.94,4.88,311.94,-84.28,-143.77
86748,52.386868,-1.497609,131.7,11.36,3,66.69,19 / 20,5156210,2019-09-06 20:46:01:953,1.2079,2.2297,8.6823,-0.0634,0.0033,9.8064,0.1683,0.0705,-0.0441,-23.12,-34.87,3.94,310.5,-84.27,-142.67
86749,52.386868,-1.497609,131.7,11.36,3,66.69,19 / 20,5156310,2019-09-06 20:46:02:053,0.3152,-0.9657,10.8799,0.0533,-0.0412,9.8063,-0.5662,-0.006,0.0074,-23.31,-34.56,4.0,313.05,-84.13,-140.22
86750,52.386868,-1.497609,131.7,11.36,3,66.69,19 / 20,5156410,2019-09-06 20:46:02:153,-1.5598,1.5111,10.1217,0.0803,0.0333,9.8062,-0.5807,0.0066,-0.184,-23.19,-34.94,3.44,314.39,-84.12,-136.53
86751,52.386868,-1.497609,131.7,11.36,3,66.69,19 / 20,5156510,2019-09-06 20:46:02:253,-2.3535,2.2363,9.525,-0.03,0.0037,9.8066,0.3139,-0.001,-0.0083,-22.75,-34.31,3.75,309.64,-84.27,-143.64
86752,52.386868,-1.497609,131.7,11.36,3,66.69,19 / 20,5156609,2019-09-06 20:46:02:352,1.3577,0.4451,8.4732,0.0036,0.0099,9.8066,-0.0158,-0.0311,-0.0112,-22.81,-34.87,4.19,306.33,-83.94,-146.03
86753,52.386868,-1.497609,131.7,11.36,3,66.69,19 / 20,5156710,2019-09-06 20:46:02:453,-1.9951,2.3305,8.6437,-0.064,0.0096,9.8063,0.0457,-0.1525,0.0902,-23.25,-34.12,4.25,305.32,-83.56,-146.69
86754,52.386868,-1.497609,131.7,11.36,3,66.69,19 / 20,5156809,2019-09-06 20:46:02:552,-1.3615,0.8865,9.5094,-0.0603,-0.0086,9.8064,-0.1187,0.1333,-0.0623,-23.44,-34.62,4.13,307.3,-83.9,-145.1
86755,52.386868,-1.497609,131.7,11.36,3,66.69,19 / 20,5156910,2019-09-06 20:46:02:653,-1.2563,0.093,9.7904,-0.0206,0.0124,9.8065,0.0441,0.021,-0.0452,-23.37,-33.87,3.63,306.59,-84.02,-146.11
86756,52.386868,-1.497609,131.7,11.36,3,66.69,19 / 20,5157010,2019-09-06 20:46:02:753,-1.4641,-0.1975,10.1472,0.0128,-0.0113,9.8065,0.0278,-0.0334,0.0637,-23.75,-33.56,4.13,307.34,-84.08,-145.37
86757,52.386868,-1.497609,131.7,11.36,3,66.69,19 / 20,5157109,2019-09-06 20:46:02:852,-0.4922,-0.8791,9.7542,0.0036,-0.011,9.8066,0.0764,0.0098,-0.0409,-23.5,-33.87,3.63,307.87,-83.82,-144.7
86758,52.386868,-1.497609,131.7,11.36,3,66.69,19 / 20,5157210,2019-09-06 20:46:02:953,0.0324,-0.501,9.6107,-0.0006,0.0061,9.8066,0.0628,0.0262,0.0055,-23.31,-34.0,4.25,306.15,-83.83,-146.27
86759,52.386868,-1.497609,131.7,11.36,3,66.69,19 / 20,5157310,2019-09-06 20:46:03:053,-0.5218,-0.2838,9.9529,-0.0256,0.0053,9.8066,-0.0671,0.021,-0.055,-24.19,-35.31,3.69,306.12,-83.99,-146.18
86760,52.386868,-1.497609,131.7,11.36,3,66.69,19 / 20,5157409,2019-09-06 20:46:03:152,-0.6366,-0.0619,10.2381,-0.0016,0.0091,9.8066,-0.0355,-0.032,0.0116,-23.31,-34.62,3.94,306.73,-84.13,-145.91
86761,52.386868,-1.497609,131.7,11.36,3,66.69,19 / 20,5157510,2019-09-06 20:46:03:253,-1.7139,0.7584,9.6233,0.0161,0.0078,9.8066,-0.0437,0.0,-0.0147,-23.44,-34.56,3.69,306.68,-84.3,-146.17
86762,52.386868,-1.497609,131.7,11.36,3,66.69,19 / 20,5157609,2019-09-06 20:46:03:352,-1.4683,-0.2373,9.7199,-0.0089,-0.0007,9.8066,0.0195,-0.0499,0.0465,-23.56,-34.37,4.25,307.75,-84.39,-145.35
86763,52.386868,-1.497609,131.7,11.36,3,66.69,19 / 20,5157709,2019-09-06 20:46:03:452,-1.4299,-0.2497,9.3724,0.0171,-0.0106,9.8066,0.154,-0.0338,0.0146,-23.87,-34.31,4.25,307.45,-84.15,-145.36
86764,52.386868,-1.497609,131.7,11.36,3,66.69,19 / 20,5157809,2019-09-06 20:46:03:552,-0.9979,-1.3734,10.4643,-0.0285,0.0028,9.8066,0.099,-0.0854,0.0269,-23.94,-34.37,4.13,308.26,-84.06,-144.5
86765,52.386868,-1.497609,131.7,11.36,3,66.69,19 / 20,5157910,2019-09-06 20:46:03:653,-0.6629,0.5158,9.9976,-0.0293,0.008,9.8065,0.0603,0.0351,0.0054,-23.12,-34.06,4.38,307.39,-84.04,-145.4
86766,52.386868,-1.497609,131.7,11.36,3,66.69,19 / 20,5158010,2019-09-06 20:46:03:753,-0.1347,0.0041,10.3539,-0.0024,-0.0148,9.8066,0.0658,-0.0507,0.0511,-23.44,-34.37,4.94,310.71,-83.96,-144.77
86767,52.386868,-1.497609,131.7,11.36,3,66.69,19 / 20,5158110,2019-09-06 20:46:03:853,-1.3737,0.0533,9.7562,-0.0073,-0.0043,9.8066,-0.067,0.0512,0.0134,-23.25,-33.75,3.81,310.58,-83.97,-142.44
86768,52.386868,-1.497609,131.7,11.36,3,66.69,19 / 20,5158210,2019-09-06 20:46:03:953,-0.6384,-0.0037,9.6932,0.0078,0.0053,9.8066,-0.052,0.0106,-0.0402,-23.0,-33.94,4.06,311.77,-84.08,-141.5
86769,52.386868,-1.497609,131.7,11.36,3,66.69,19 / 20,5158309,2019-09-06 20:46:04:052,-1.5678,0.275,10.0986,0.0039,0.0158,9.8066,0.012,-0.0138,-0.0208,-22.69,-34.19,4.0,311.47,-84.26,-141.97
86770,52.386868,-1.497609,131.7,11.36,3,66.69,19 / 20,5158409,2019-09-06 20:46:04:152,-1.378,0.7767,10.0309,0.0003,0.0091,9.8066,-0.0463,0.059,-0.0231,-23.06,-34.37,3.56,312.24,-84.39,-141.43
86771,52.386868,-1.497609,131.7,11.36,3,66.69,19 / 20,5158510,2019-09-06 20:46:04:253,-1.0723,0.194,9.3561,-0.0165,-0.0043,9.8066,-0.0454,0.0548,-0.0245,-23.19,-33.62,3.88,311.6,-84.56,-142.19
86772,52.386868,-1.497609,131.7,11.36,3,66.69,19 / 20,5158609,2019-09-06 20:46:04:352,-1.074,1.4002,9.7173,-0.0036,0.0066,9.8066,-0.0077,0.0456,-0.0116,-23.25,-33.87,3.75,312.31,-84.64,-141.65
86773,52.386868,-1.497609,131.7,11.36,3,66.69,19 / 20,5158709,2019-09-06 20:46:04:452,-1.6226,0.4927,9.2814,0.0091,0.0019,9.8066,-0.0293,0.0245,0.0615,-23.25,-34.25,3.19,309.66,-84.65,-141.59
86774,52.386868,-1.497609,131.7,11.36,3,66.69,19 / 20,5158809,2019-09-06 20:46:04:552,-1.7577,0.5182,9.8949,-0.0196,0.0011,9.8066,-0.0769,0.1189,-0.0894,-22.44,-33.75,3.88,315.16,-84.82,-139.46
86775,52.386868,-1.497609,131.7,11.36,3,66.69,19 / 20,5158910,2019-09-06 20:46:04:653,-1.5885,0.7087,9.83,-0.0172,0.0164,9.8065,0.0679,0.1346,-0.0283,-22.69,-34.12,3.88,314.33,-85.05,-140.26
86776,52.386868,-1.497609,131.7,11.36,3,66.69,19 / 20,5159010,2019-09-06 20:46:04:753,-1.3618,0.6596,10.1844,-0.0089,0.0116,9.8065,0.0592,0.1409,-0.0518,-22.75,-34.44,2.75,312.33,-85.23,-139.83
86777,52.386868,-1.497609,131.7,11.36,3,66.69,19 / 20,5159110,2019-09-06 20:46:04:853,-1.2268,1.0428,10.165,-0.0378,0.0143,9.8065,0.0435,0.1219,-0.0397,-22.12,-33.87,2.63,312.65,-85.62,-140.09
86778,52.386868,-1.497609,131.7,11.36,3,66.69,19 / 20,5159210,2019-09-06 20:46:04:953,-1.7598,0.2046,10.3198,0.004,0.0206,9.8065,0.0544,0.1707,-0.0644,-22.12,-34.31,2.44,305.6,-85.68,-144.1
86779,52.386868,-1.497609,131.7,11.36,3,66.69,19 / 20,5159309,2019-09-06 20:46:05:052,-0.9118,0.9742,9.8472,-0.0073,0.0262,9.8066,-0.0065,0.2124,-0.0883,-21.69,-35.37,2.0,301.63,-85.84,-147.87
86780,52.386868,-1.497609,131.7,11.36,3,66.69,19 / 20,5159410,2019-09-06 20:46:05:153,-1.3319,1.3305,10.3845,0.0308,0.0173,9.8065,0.0533,0.2223,-0.0545,-21.87,-34.75,1.31,293.91,-85.88,-152.63
86781,52.386868,-1.497609,131.7,11.36,3,66.69,19 / 20,5159509,2019-09-06 20:46:05:252,-0.8357,1.6759,9.859,-0.0061,0.0187,9.8066,0.018,0.2208,-0.0316,-20.81,-34.56,1.56,291.19,-85.83,-157.72
86782,52.386868,-1.497609,131.7,11.36,3,66.69,19 / 20,5159610,2019-09-06 20:46:05:353,-0.7558,0.6746,10.478,0.0412,0.0054,9.8065,-0.0056,0.2028,-0.0307,-21.31,-35.37,1.69,286.78,-85.58,-161.56
86783,52.386868,-1.497609,131.7,11.36,3,66.69,19 / 20,5159712,2019-09-06 20:46:05:455,-1.3621,0.8466,9.9054,0.0124,0.0158,9.8066,-0.0302,0.2332,-0.0498,-21.31,-35.62,0.56,282.12,-85.61,-163.18
86784,52.386868,-1.497609,131.7,11.36,3,66.69,19 / 20,5159809,2019-09-06 20:46:05:552,-1.4117,0.5051,10.3134,-0.0104,0.0164,9.8065,0.0225,0.2295,-0.0421,-20.69,-35.12,0.19,276.28,-85.66,-166.48
86785,52.386868,-1.497609,131.7,11.36,3,66.69,19 / 20,5159909,2019-09-06 20:46:05:652,-1.3369,0.1766,10.2373,-0.0081,0.0187,9.8066,0.0738,0.2165,-0.0584,-20.19,-35.5,0.25,272.75,-85.66,-169.63
86786,52.386868,-1.497609,131.7,11.36,3,66.69,19 / 20,5160009,2019-09-06 20:46:05:752,-1.616,0.7388,9.6162,-0.0107,0.0102,9.8066,0.0681,0.2286,-0.0489,-20.06,-35.5,0.38,269.97,-85.54,-172.19
86787,52.386868,-1.497609,131.7,11.36,3,66.69,19 / 20,5160110,2019-09-06 20:46:05:853,-0.7522,1.1158,9.9308,-0.0035,0.0124,9.8066,0.0472,0.2579,-0.0559,-19.75,-36.12,-0.44,266.77,-85.46,-175.04
86788,52.386868,-1.497609,131.7,11.36,3,66.69,19 / 20,5160210,2019-09-06 20:46:05:953,-0.2345,1.0304,9.8154,0.0136,0.0144,9.8066,0.067,0.2375,-0.0319,-19.69,-35.69,-1.44,260.73,-85.21,-177.88
86789,52.386868,-1.497609,131.7,11.36,3,66.69,19 / 20,5160309,2019-09-06 20:46:06:052,0.0744,0.9795,9.5401,0.0121,0.0037,9.8066,0.0129,0.2486,-0.0147,-19.12,-36.12,-0.69,259.31,-85.04,-178.43
86790,52.386868,-1.497609,131.7,11.36,3,66.69,19 / 20,5160410,2019-09-06 20:46:06:153,0.0831,0.6295,9.7558,0.0119,0.005,9.8066,0.0072,0.2543,-0.0383,-19.19,-35.37,-0.81,259.14,-84.94,-178.69
86791,52.386868,-1.497609,131.7,11.36,3,66.69,19 / 20,5160510,2019-09-06 20:46:06:253,-0.1587,0.5193,10.0741,-0.0087,0.0042,9.8066,-0.0366,0.2681,-0.0333,-18.37,-36.12,-1.44,257.19,-84.95,-179.78
86792,52.386868,-1.497609,131.7,11.36,3,66.69,19 / 20,5160609,2019-09-06 20:46:06:352,-0.2073,0.9698,9.7026,-0.0273,0.0102,9.8066,-0.0306,0.2969,-0.0915,-19.06,-36.5,-2.06,253.14,-85.22,177.77
86793,52.386868,-1.497609,131.7,11.36,3,66.69,19 / 20,5160710,2019-09-06 20:46:06:453,-0.3638,0.8549,9.8802,-0.0297,0.014,9.8065,-0.0079,0.2903,-0.0655,-18.25,-35.62,-3.06,246.45,-85.4,174.21
86794,52.386868,-1.497609,131.7,11.36,3,66.69,19 / 20,5160810,2019-09-06 20:46:06:553,-0.7592,1.4233,10.3935,-0.0229,0.0121,9.8066,0.0086,0.3,-0.0388,-17.81,-36.25,-3.62,240.56,-85.65,170.44
86795,52.386868,-1.497609,131.7,11.36,3,66.69,19 / 20,5160909,2019-09-06 20:46:06:652,-0.6556,0.7797,10.1343,-0.0109,-0.0013,9.8066,0.0028,0.3192,-0.0471,-16.44,-36.12,-4.0,237.25,-85.72,169.1
86796,52.386868,-1.497609,131.7,11.36,3,66.69,19 / 20,5161009,2019-09-06 20:46:06:752,-0.7649,1.5993,9.498,0.0129,0.0073,9.8066,0.0606,0.2994,-0.005,-16.56,-35.81,-4.06,238.22,-85.67,169.01
86797,52.386868,-1.497609,131.7,11.36,3,66.69,19 / 20,5161109,2019-09-06 20:46:06:852,0.177,1.2475,9.3535,0.0083,0.0093,9.8066,-0.006,0.3737,-0.1017,-16.37,-36.31,-4.69,234.19,-85.42,169.47
86798,52.386868,-1.497609,131.7,11.36,3,66.69,19 / 20,5161209,2019-09-06 20:46:06:952,0.6733,1.1715,10.0126,0.0086,0.0346,9.8066,0.0188,0.3617,-0.0672,-15.31,-36.69,-5.19,228.18,-85.09,165.12
86799,52.386868,-1.497609,131.7,11.36,3,66.69,19 / 20,5161309,2019-09-06 20:46:07:052,-0.1697,1.4059,9.731,0.0076,0.0228,9.8066,0.0312,0.3621,-0.0645,-14.69,-36.56,-5.5,226.04,-84.94,162.93
86800,52.386868,-1.497609,131.7,11.36,3,66.69,19 / 20,5161409,2019-09-06 20:46:07:152,-0.0137,1.5924,10.0158,0.0115,0.0143,9.8066,0.0089,0.3339,-0.004,-14.31,-36.69,-5.69,220.34,-84.72,161.75
86801,52.386868,-1.497609,131.7,11.36,3,66.69,19 / 20,5161510,2019-09-06 20:46:07:253,0.0412,1.0893,10.516,-0.009,-0.002,9.8066,0.0377,0.3928,-0.0707,-13.87,-35.62,-5.69,220.12,-84.71,161.28
86802,52.386868,-1.497609,131.7,11.36,3,66.69,19 / 20,5161609,2019-09-06 20:46:07:352,-0.0545,2.0224,9.6701,-0.0069,0.0014,9.8066,0.0369,0.3126,0.0468,-13.19,-36.62,-6.5,217.52,-84.6,160.72
86803,52.386868,-1.497609,131.7,11.36,3,66.69,19 / 20,5161710,2019-09-06 20:46:07:453,0.8956,1.0613,9.7649,0.008,0.0206,9.8066,0.0311,0.4334,-0.088,-12.56,-37.0,-6.0,218.63,-84.36,162.4
86804,52.386868,-1.497609,131.7,11.36,3,66.69,19 / 20,5161809,2019-09-06 20:46:07:552,-0.0712,2.5326,9.2769,0.0027,0.0158,9.8066,0.0321,0.3943,-0.0508,-11.5,-36.62,-6.19,213.08,-83.99,161.28
86805,52.386868,-1.497609,131.7,11.36,3,66.69,19 / 20,5161909,2019-09-06 20:46:07:652,0.433,1.2225,9.9045,-0.0363,0.0069,9.8065,0.0621,0.4655,-0.1346,-11.5,-37.19,-6.37,211.5,-83.68,159.75
86806,52.386868,-1.497609,131.7,11.36,3,66.69,19 / 20,5162010,2019-09-06 20:46:07:753,-0.0198,1.8265,10.1312,-0.0069,0.009,9.8066,0.0912,0.3481,-0.0109,-10.44,-37.75,-6.62,204.62,-83.46,157.98
86807,52.386868,-1.497609,131.7,11.36,3,66.69,19 / 20,5162110,2019-09-06 20:46:07:853,-0.4147,3.5296,10.3983,0.0048,0.0161,9.8066,-0.1177,0.3735,-0.0164,-9.25,-37.12,-7.69,199.39,-83.29,157.75
86808,52.386868,-1.497609,131.7,11.36,3,66.69,19 / 20,5162210,2019-09-06 20:46:07:953,0.2612,2.0358,10.5115,0.0007,-0.0181,9.8066,-0.0321,0.4223,-0.017,-8.62,-37.44,-7.69,199.72,-83.46,158.01
86809,52.386868,-1.497609,131.7,11.36,3,66.69,19 / 20,5162310,2019-09-06 20:46:08:053,-1.4453,1.2316,9.3726,0.0163,0.0369,9.8066,-0.0455,0.446,-0.0801,-8.19,-37.62,-7.25,199.52,-83.3,158.61
86810,52.38715,-1.496801,131.45,5.18,3,6.79,19 / 20,5162409,2019-09-06 20:46:08:152,-0.0335,2.1518,9.8215,0.0313,0.0499,9.8064,-0.0311,0.3922,-0.0352,-7.56,-37.56,-7.12,198.75,-83.46,157.34
86811,52.38715,-1.496801,131.45,5.18,3,6.79,19 / 20,5162509,2019-09-06 20:46:08:252,-0.682,1.9304,9.9017,0.0031,0.0149,9.8065,-0.036,0.3872,-0.0071,-6.75,-37.25,-8.06,193.16,-82.97,157.45
86812,52.38715,-1.496801,131.45,5.18,3,6.79,19 / 20,5162609,2019-09-06 20:46:08:352,-1.0942,0.9277,9.73,-0.0008,0.0078,9.8065,-0.0389,0.4154,-0.0683,-3.87,-39.75,-11.12,178.79,-82.9,158.31
86813,52.38715,-1.496801,131.45,5.18,3,6.79,19 / 20,5162710,2019-09-06 20:46:08:453,-1.1495,1.4289,10.2723,0.0003,0.003,9.8066,0.017,0.345,-0.0326,-3.06,-39.56,-11.06,175.17,-82.82,157.83
86814,52.38715,-1.496801,131.45,5.18,3,6.79,19 / 20,5162809,2019-09-06 20:46:08:552,-1.0212,0.9704,10.09,-0.0051,0.0053,9.8065,0.0223,0.3467,-0.063,-1.87,-39.44,-10.94,171.77,-82.79,157.93
86815,52.38715,-1.496801,131.45,5.18,3,6.79,19 / 20,5162910,2019-09-06 20:46:08:653,-1.8656,1.0596,10.203,-0.0117,0.0137,9.8066,0.0216,0.3406,-0.0363,-1.37,-39.19,-11.12,167.72,-82.6,157.07
86816,52.38715,-1.496801,131.45,5.18,3,6.79,19 / 20,5163010,2019-09-06 20:46:08:753,-0.6586,1.702,9.9438,-0.0036,0.0172,9.8066,0.0556,0.3252,-0.0343,-1.31,-39.5,-11.12,167.96,-82.35,157.24
86817,52.38715,-1.496801,131.45,5.18,3,6.79,19 / 20,5163109,2019-09-06 20:46:08:852,-1.5287,1.3881,9.8064,0.0004,0.0254,9.8066,0.0175,0.3736,-0.0419,-0.81,-39.19,-11.62,167.61,-82.08,157.47
86818,52.38715,-1.496801,131.45,5.18,3,6.79,19 / 20,5163210,2019-09-06 20:46:08:953,-1.3125,0.5913,9.6573,0.0024,0.0254,9.8066,-0.0619,0.3359,-0.039,0.44,-40.0,-10.19,165.9,-81.77,158.02
86819,52.38715,-1.496801,131.45,5.18,3,6.79,19 / 20,5163310,2019-09-06 20:46:09:053,-1.3481,1.558,9.8217,0.0014,0.0174,9.8065,-0.0424,0.3227,-0.0144,0.94,-39.94,-10.75,162.03,-81.7,158.12
86820,52.38715,-1.496801,131.45,5.18,3,6.79,19 / 20,5163410,2019-09-06 20:46:09:153,-0.9213,1.154,10.0924,0.008,0.0042,9.8066,-0.0555,0.2977,-0.0151,0.88,-39.37,-10.75,162.16,-81.8,158.63
86821,52.38715,-1.496801,131.45,5.18,3,6.79,19 / 20,5163509,2019-09-06 20:46:09:252,-0.7942,0.4877,10.0042,0.0067,0.018,9.8066,0.0784,0.268,-0.0113,1.19,-40.0,-10.5,163.2,-81.77,159.58
86822,52.38715,-1.496801,131.45,5.18,3,6.79,19 / 20,5163610,2019-09-06 20:46:09:353,-0.5064,0.1839,9.9415,0.0113,-0.0094,9.8066,0.0228,0.2213,0.0153,1.63,-39.62,-10.75,160.08,-81.82,160.57
86823,52.38715,-1.496801,131.45,5.18,3,6.79,19 / 20,5163709,2019-09-06 20:46:09:452,-0.0827,0.5618,9.467,0.0158,-0.0226,9.8066,0.0568,0.1691,0.0093,2.13,-39.62,-10.5,160.84,-81.83,161.78
86824,52.38715,-1.496801,131.45,5.18,3,6.79,19 / 20,5163810,2019-09-06 20:46:09:553,-0.8988,1.2814,9.8329,0.0099,0.0097,9.8066,0.0105,0.2106,0.0107,2.0,-39.81,-10.62,162.15,-81.71,163.52
86825,52.38715,-1.496801,131.45,5.18,3,6.79,19 / 20,5163909,2019-09-06 20:46:09:652,0.8505,0.9662,10.0867,0.0111,-0.0076,9.8066,-0.0153,0.1682,-0.0727,1.75,-39.44,-11.0,162.28,-81.79,164.03
86826,52.38715,-1.496801,131.45,5.18,3,6.79,19 / 20,5164010,2019-09-06 20:46:09:753,0.5095,0.9105,10.3077,-0.0063,-0.0152,9.8065,0.128,0.0673,0.0526,2.63,-39.06,-10.06,158.43,-81.84,164.08
86827,52.38715,-1.496801,131.45,5.18,3,6.79,19 / 20,5164110,2019-09-06 20:46:09:853,0.7307,1.4382,9.6886,0.0065,0.0337,9.8065,-0.112,0.1013,-0.0115,1.63,-40.0,-10.81,161.77,-81.99,163.26
86828,52.38715,-1.496801,131.45,5.18,3,6.79,19 / 20,5164209,2019-09-06 20:46:09:952,-0.0359,2.3895,9.4218,-0.002,0.0232,9.8066,0.0372,0.0893,0.0439,2.81,-39.37,-10.56,158.59,-81.86,163.85
86829,52.38715,-1.496801,131.45,5.18,3,6.79,19 / 20,5164309,2019-09-06 20:46:10:052,0.0134,1.0456,9.4674,0.011,0.0541,9.8065,-0.0711,0.0306,0.0208,3.31,-39.81,-10.19,159.49,-81.75,165.26
86830,52.38715,-1.496801,131.45,5.18,3,6.79,19 / 20,5164409,2019-09-06 20:46:10:152,-0.1806,0.0504,9.2916,0.0021,-0.0261,9.8066,-0.0787,0.0339,0.0554,3.0,-39.31,-10.5,158.91,-81.9,164.86
86831,52.38715,-1.496801,131.45,5.18,3,6.79,19 / 20,5164510,2019-09-06 20:46:10:253,0.4646,0.9674,9.5785,-0.0029,0.0206,9.8066,0.1254,0.0522,-0.0318,3.69,-39.81,-10.62,156.55,-81.74,165.47
86832,52.38715,-1.496801,131.45,5.18,3,6.79,19 / 20,5164610,2019-09-06 20:46:10:353,0.0257,0.9408,9.9705,0.0003,-0.0326,9.8066,0.1093,0.1131,-0.0018,2.88,-39.75,-11.06,159.58,-81.69,164.84
86833,52.38715,-1.496801,131.45,5.18,3,6.79,19 / 20,5164710,2019-09-06 20:46:10:453,-0.0905,1.2553,9.8586,-0.005,0.0264,9.8066,-0.051,0.0242,-0.036,3.31,-39.37,-9.94,158.27,-81.84,163.84
86834,52.38715,-1.496801,131.45,5.18,3,6.79,19 / 20,5164809,2019-09-06 20:46:10:552,-0.179,0.2271,9.4386,-0.0065,0.0315,9.8066,-0.0643,0.0549,-0.047,3.0,-39.81,-10.87,158.95,-81.64,163.84
86835,52.38715,-1.496801,131.45,5.18,3,6.79,19 / 20,5164910,2019-09-06 20:46:10:653,-0.1705,0.5508,9.4841,-0.0091,0.0186,9.8066,-0.0145,0.0643,0.0268,3.13,-39.44,-10.87,158.49,-81.63,163.42
86836,52.38715,-1.496801,131.45,5.18,3,6.79,19 / 20,5165009,2019-09-06 20:46:10:752,0.3322,0.1694,10.128,-0.002,-0.0035,9.8066,0.0168,0.018,-0.0035,3.31,-39.62,-10.69,158.35,-81.69,163.02
86837,52.38715,-1.496801,131.45,5.18,3,6.79,19 / 20,5165110,2019-09-06 20:46:10:853,0.3032,0.6914,9.8947,-0.0018,0.0074,9.8066,0.0476,0.0005,-0.0153,3.69,-39.44,-10.94,154.8,-81.61,163.05
86838,52.38715,-1.496801,131.45,5.18,3,6.79,19 / 20,5165210,2019-09-06 20:46:10:953,0.1014,0.465,9.8259,-0.0056,0.0053,9.8066,-0.0352,0.0677,0.0046,3.63,-39.94,-10.62,155.06,-81.53,163.0
86839,52.38715,-1.496801,131.45,5.18,3,6.79,19 / 20,5165310,2019-09-06 20:46:11:053,0.3347,0.4619,9.7777,0.0046,-0.014,9.8066,-0.0373,0.0882,-0.0102,4.25,-39.62,-10.25,154.37,-81.53,162.69
86840,52.38715,-1.496801,131.45,5.18,3,6.79,19 / 20,5165410,2019-09-06 20:46:11:153,0.2715,0.0143,9.9954,0.0044,-0.0287,9.8066,0.0832,0.0037,-0.0187,4.06,-39.75,-10.94,154.36,-81.81,162.38
86841,52.38715,-1.496801,131.45,5.18,3,6.79,19 / 20,5165509,2019-09-06 20:46:11:252,-0.0804,1.7046,9.7145,-0.0008,-0.0272,9.8066,-0.0856,0.0415,0.0288,4.0,-39.5,-10.5,153.29,-81.86,161.97
86842,52.38715,-1.496801,131.45,5.18,3,6.79,19 / 20,5165610,2019-09-06 20:46:11:353,-0.3888,0.8088,10.0804,-0.0067,0.049,9.8065,-0.0017,0.0622,-0.0133,4.06,-39.87,-10.5,153.8,-81.62,161.99
86843,52.38715,-1.496801,131.45,5.18,3,6.79,19 / 20,5165710,2019-09-06 20:46:11:453,-0.309,1.2222,10.2461,-0.0066,0.0062,9.8066,-0.0446,0.036,-0.0114,4.38,-39.19,-10.06,153.37,-81.65,161.76
86844,52.38715,-1.496801,131.45,5.18,3,6.79,19 / 20,5165809,2019-09-06 20:46:11:552,-0.2637,0.7032,10.1822,-0.0011,0.0189,9.8066,-0.0221,0.0807,0.0277,4.75,-39.31,-10.56,150.7,-81.57,161.98
86845,52.38715,-1.496801,131.45,5.18,3,6.79,19 / 20,5165910,2019-09-06 20:46:11:653,0.3301,0.5299,9.446,0.0001,-0.011,9.8066,-0.0001,0.037,-0.0009,5.31,-38.94,-10.37,150.81,-81.4,162.88
86846,52.38715,-1.496801,131.45,5.18,3,6.79,19 / 20,5166010,2019-09-06 20:46:11:753,0.8234,0.7152,9.2878,0.0128,-0.0247,9.8066,-0.0053,0.105,-0.0262,4.75,-39.31,-10.87,151.85,-81.52,163.54
86847,52.38715,-1.496801,131.45,5.18,3,6.79,19 / 20,5166110,2019-09-06 20:46:11:853,0.5124,0.3982,10.0158,0.0062,-0.0161,9.8066,-0.0156,0.0562,-0.0232,4.56,-38.75,-10.44,151.01,-81.56,163.42
86848,52.38715,-1.496801,131.45,5.18,3,6.79,19 / 20,5166210,2019-09-06 20:46:11:953,0.0428,0.3587,10.0694,0.0013,-0.0138,9.8066,0.0101,0.0984,-0.0263,4.63,-38.81,-10.81,151.25,-81.76,163.05
86849,52.38715,-1.496801,131.45,5.18,3,6.79,19 / 20,5166310,2019-09-06 20:46:12:053,-0.0232,0.4045,10.2263,-0.008,0.0054,9.8066,-0.0117,0.0581,-0.0324,4.81,-39.31,-10.94,150.98,-81.68,162.55
86850,52.38715,-1.496801,131.45,5.18,3,6.79,19 / 20,5166410,2019-09-06 20:46:12:153,0.1665,1.056,9.7204,-0.0045,0.0244,9.8065,-0.0367,0.0551,0.0077,4.19,-38.94,-10.62,154.74,-81.45,162.74
86851,52.38715,-1.496801,131.45,5.18,3,6.79,19 / 20,5166509,2019-09-06 20:46:12:252,0.468,1.0289,10.3101,0.0017,0.0299,9.8066,0.0899,0.0341,0.0042,4.5,-39.31,-10.06,151.72,-81.12,163.76
86852,52.38715,-1.496801,131.45,5.18,3,6.79,19 / 20,5166609,2019-09-06 20:46:12:352,-0.4253,0.4087,10.1095,0.0049,-0.0101,9.8066,0.0128,0.0528,0.0014,4.56,-39.44,-10.31,151.89,-81.14,164.03
86853,52.38715,-1.496801,131.45,5.18,3,6.79,19 / 20,5166710,2019-09-06 20:46:12:453,0.3033,1.4885,9.9084,0.0009,-0.0135,9.8066,-0.0666,0.0198,-0.0064,4.75,-39.19,-10.5,151.86,-81.21,164.1
86854,52.38715,-1.496801,131.45,5.18,3,6.79,19 / 20,5166809,2019-09-06 20:46:12:552,-0.0591,-0.3751,8.8908,0.0007,0.0052,9.8066,-0.0479,0.0477,0.0387,4.94,-39.44,-10.69,152.92,-81.22,164.65
86855,52.38715,-1.496801,131.45,5.18,3,6.79,19 / 20,5166910,2019-09-06 20:46:12:653,0.9729,0.2828,9.7161,0.0056,0.0272,9.8065,-0.0246,0.0673,-0.0219,5.0,-39.56,-10.12,152.88,-81.2,165.23
86856,52.38715,-1.496801,131.45,5.18,3,6.79,19 / 20,5167009,2019-09-06 20:46:12:752,-0.4626,-0.7272,9.8786,0.0025,0.0056,9.8066,-0.0384,0.0424,-0.0666,4.75,-39.75,-10.25,152.07,-81.4,164.35
86857,52.38715,-1.496801,131.45,5.18,3,6.79,19 / 20,5167110,2019-09-06 20:46:12:853,-0.1312,0.1226,10.2223,-0.0102,-0.0092,9.8066,0.0961,0.0681,0.0063,5.5,-39.19,-9.87,148.15,-81.36,163.99
86858,52.38715,-1.496801,131.45,5.18,3,6.79,19 / 20,5167210,2019-09-06 20:46:12:953,0.4965,0.5844,10.1307,-0.0106,-0.0021,9.8066,0.1142,0.0376,-0.0054,5.06,-39.62,-10.12,151.56,-81.29,163.41
86859,52.38715,-1.496801,131.45,5.18,3,6.79,19 / 20,5167309,2019-09-06 20:46:13:052,0.2088,0.7725,9.9942,-0.0018,-0.0272,9.8065,-0.175,0.0488,-0.0648,5.0,-39.25,-9.56,150.72,-81.32,162.6
86860,52.38715,-1.496801,131.45,5.18,3,6.79,19 / 20,5167410,2019-09-06 20:46:13:153,0.7598,-1.146,9.3644,-0.0203,0.0361,9.8065,-0.1292,0.0107,-0.0139,5.5,-39.31,-10.06,147.17,-81.05,162.01
86861,52.38715,-1.496801,131.45,5.18,3,6.79,19 / 20,5167509,2019-09-06 20:46:13:252,0.2861,0.3746,9.1727,-0.0235,0.0464,9.8065,0.1105,0.0442,-0.0391,5.63,-40.12,-10.31,147.28,-80.93,161.51
86862,52.38715,-1.496801,131.45,5.18,3,6.79,19 / 20,5167609,2019-09-06 20:46:13:352,0.7447,0.4404,9.7949,0.0037,-0.0361,9.8065,0.1193,0.1227,-0.0387,5.88,-39.37,-10.37,146.72,-80.89,161.06
86863,52.38715,-1.496801,131.45,5.18,3,6.79,19 / 20,5167709,2019-09-06 20:46:13:452,0.7471,0.1377,10.2089,0.0115,-0.0509,9.8065,-0.0837,0.0625,-0.0655,6.19,-39.37,-10.19,145.56,-81.04,159.66
86864,52.38715,-1.496801,131.45,5.18,3,6.79,19 / 20,5167810,2019-09-06 20:46:13:553,0.7627,0.2364,10.454,-0.0093,0.0294,9.8065,0.0549,0.0123,0.0503,5.5,-39.25,-10.37,146.0,-80.81,159.86
86865,52.38715,-1.496801,131.45,5.18,3,6.79,19 / 20,5167909,2019-09-06 20:46:13:652,-0.4181,0.5709,9.6119,0.0099,-0.0262,9.8065,-0.083,-0.0074,-0.0112,6.38,-39.19,-10.06,145.86,-80.95,159.92
86866,52.38715,-1.496801,131.45,5.18,3,6.79,19 / 20,5168009,2019-09-06 20:46:13:752,-0.5198,0.3808,10.2862,-0.0144,0.0205,9.8065,0.0295,0.0731,0.0262,6.75,-39.62,-10.19,142.86,-80.77,159.6
86867,52.38715,-1.496801,131.45,5.18,3,6.79,19 / 20,5168109,2019-09-06 20:46:13:852,0.4098,-0.0745,10.648,0.0115,-0.0025,9.8066,-0.0617,0.0215,-0.0218,5.38,-39.5,-10.87,149.63,-81.02,159.59
86868,52.38715,-1.496801,131.45,5.18,3,6.79,19 / 20,5168209,2019-09-06 20:46:13:952,1.4941,0.1334,10.7906,-0.0163,0.0524,9.8064,-0.0016,0.0251,0.0118,6.38,-39.19,-10.44,145.64,-80.99,159.68
86869,52.38715,-1.496801,131.45,5.18,3,6.79,19 / 20,5168310,2019-09-06 20:46:14:053,-0.994,-0.8152,9.3983,-0.0007,0.0215,9.8065,-0.2319,-0.0039,-0.0078,6.38,-39.44,-9.87,146.55,-80.56,160.19
86870,52.38715,-1.496801,131.45,5.18,3,6.79,19 / 20,5168410,2019-09-06 20:46:14:153,-0.0165,-0.1576,9.7198,-0.0068,0.0449,9.8065,-0.3541,0.0726,-0.0351,6.13,-39.12,-9.69,147.75,-80.3,161.51
86871,52.38715,-1.496801,131.45,5.18,3,6.79,19 / 20,5168510,2019-09-06 20:46:14:253,1.5931,-0.2988,10.2588,-0.0046,0.0265,9.8065,-0.0358,0.0103,-0.0024,6.44,-39.12,-10.44,147.1,-80.53,160.96
86872,52.38715,-1.496801,131.45,5.18,3,6.79,19 / 20,5168610,2019-09-06 20:46:14:353,-0.3901,-0.8031,9.5169,-0.013,0.0417,9.8065,-0.0484,0.036,-0.0271,6.88,-39.25,-9.87,144.43,-80.49,161.84
86873,52.38715,-1.496801,131.45,5.18,3,6.79,19 / 20,5168710,2019-09-06 20:46:14:453,0.8068,0.4388,9.6365,-0.0041,0.0419,9.8065,-0.0281,0.0809,0.002,6.5,-39.19,-9.94,144.67,-80.47,162.14
86874,52.38715,-1.496801,131.45,5.18,3,6.79,19 / 20,5168810,2019-09-06 20:46:14:553,-0.1443,-0.2135,9.8192,0.0096,-0.0095,9.8065,0.0025,0.0565,0.0071,7.0,-39.12,-9.62,144.65,-80.48,162.14
86875,52.38715,-1.496801,131.45,5.18,3,6.79,19 / 20,5168910,2019-09-06 20:46:14:653,1.5751,-0.0257,10.1461,0.0095,-0.0268,9.8066,-0.0305,-0.0013,-0.0142,7.25,-38.37,-9.87,144.29,-80.64,162.39
86876,52.38715,-1.496801,131.45,5.18,3,6.79,19 / 20,5169009,2019-09-06 20:46:14:752,0.2351,-0.0291,10.4556,-0.0058,0.0107,9.8066,0.0164,0.0142,-0.0019,7.81,-38.94,-10.75,142.34,-80.48,161.83
86877,52.38715,-1.496801,131.45,5.18,3,6.79,19 / 20,5169109,2019-09-06 20:46:14:852,-0.2494,-0.4279,10.1006,0.0018,0.0093,9.8066,0.103,0.0239,0.0063,6.5,-39.25,-12.56,147.46,-80.35,162.3
86878,52.38715,-1.496801,131.45,5.18,3,6.79,19 / 20,5169209,2019-09-06 20:46:14:952,-0.2482,0.7235,10.1129,0.0064,-0.0013,9.8066,0.181,0.0808,-0.0168,2.94,-40.0,-11.25,159.33,-80.21,162.69
86879,52.38715,-1.496801,131.45,5.18,3,6.79,19 / 20,5169310,2019-09-06 20:46:15:053,1.0739,0.0459,9.5215,0.0097,0.0106,9.8065,-0.1463,0.1094,-0.0358,1.94,-39.44,-8.56,162.56,-80.21,162.87
86880,52.38715,-1.496801,131.45,5.18,3,6.79,19 / 20,5169409,2019-09-06 20:46:15:152,0.029,0.5043,9.8543,-0.0005,-0.0027,9.8066,-0.0831,0.0671,-0.0239,4.75,-39.5,-6.62,149.94,-80.23,163.08
86881,52.38715,-1.496801,131.45,5.18,3,6.79,19 / 20,5169510,2019-09-06 20:46:15:253,0.4734,0.8354,10.189,0.001,-0.0129,9.8066,-0.01,0.0763,-0.0215,6.5,-38.75,-7.75,142.97,-80.32,162.62
86882,52.38715,-1.496801,131.45,5.18,3,6.79,19 / 20,5169609,2019-09-06 20:46:15:352,0.652,-0.4947,10.2087,-0.0177,0.021,9.8066,0.01,0.058,-0.0236,7.0,-38.87,-8.37,142.72,-80.16,161.86
86883,52.38715,-1.496801,131.45,5.18,3,6.79,19 / 20,5169709,2019-09-06 20:46:15:452,-0.5887,-0.2107,10.5444,-0.0147,0.0135,9.8066,0.0554,0.0057,0.0262,8.19,-39.31,-9.12,140.37,-80.06,161.4
86884,52.38715,-1.496801,131.45,5.18,3,6.79,19 / 20,5169810,2019-09-06 20:46:15:553,0.069,-0.3735,10.2906,-0.0052,0.0272,9.8065,0.0147,0.0239,0.0063,7.75,-38.5,-9.12,140.83,-79.71,161.93
86885,52.38715,-1.496801,131.45,5.18,3,6.79,19 / 20,5169910,2019-09-06 20:46:15:653,0.0603,-0.147,9.3482,0.0057,0.0111,9.8066,-0.0006,0.0202,0.0123,7.56,-39.56,-9.19,142.19,-79.64,162.65
86886,52.38715,-1.496801,131.45,5.18,3,6.79,19 / 20,5170010,2019-09-06 20:46:15:753,0.0103,-0.2959,9.5098,0.015,-0.0172,9.8066,-0.0408,-0.0254,0.0361,7.81,-39.12,-9.12,141.88,-79.68,162.84
86887,52.38715,-1.496801,131.45,5.18,3,6.79,19 / 20,5170109,2019-09-06 20:46:15:852,0.3058,-1.0661,9.9677,-0.0001,-0.0029,9.8066,0.1594,-0.0592,0.0241,7.19,-39.25,-8.69,144.93,-79.94,163.04
86888,52.38715,-1.496801,131.45,5.18,3,6.79,19 / 20,5170210,2019-09-06 20:46:15:953,1.2028,-1.4545,9.682,0.0118,-0.0229,9.8066,0.056,-0.0046,0.0283,7.19,-39.25,-9.31,144.8,-80.03,163.02
86889,52.38715,-1.496801,131.45,5.18,3,6.79,19 / 20,5170310,2019-09-06 20:46:16:053,0.0702,0.277,9.5259,0.0111,-0.0254,9.8066,0.1365,0.0258,-0.0108,7.94,-39.12,-8.69,141.71,-79.99,163.21
86890,52.38715,-1.496801,131.45,5.18,3,6.79,19 / 20,5170410,2019-09-06 20:46:16:153,1.3982,-0.5695,9.7684,0.0015,0.0153,9.8065,-0.1223,-0.0364,0.0387,7.69,-39.31,-8.94,142.4,-79.77,163.82
86891,52.38715,-1.496801,131.45,5.18,3,6.79,19 / 20,5170511,2019-09-06 20:46:16:254,0.4003,-0.5092,9.5847,-0.0017,0.012,9.8066,0.0117,0.0472,0.0216,7.69,-39.5,-9.69,144.04,-79.79,164.55
86892,52.38715,-1.496801,131.45,5.18,3,6.79,19 / 20,5170610,2019-09-06 20:46:16:353,-0.0044,-0.9198,9.5072,0.0134,-0.0154,9.8065,0.0532,0.0047,-0.0115,7.81,-39.25,-9.37,142.73,-80.0,164.75
86893,52.38715,-1.496801,131.45,5.18,3,6.79,19 / 20,5170709,2019-09-06 20:46:16:452,0.6546,-1.4644,9.6328,0.0026,-0.0105,9.8066,-0.0135,0.0149,0.0014,7.5,-38.87,-9.19,142.83,-80.01,164.93
86894,52.38715,-1.496801,131.45,5.18,3,6.79,19 / 20,5170810,2019-09-06 20:46:16:553,0.7364,-0.7748,9.5066,-0.0075,0.0103,9.8066,-0.0908,0.0371,0.0076,7.69,-39.87,-9.31,143.12,-80.04,164.89
86895,52.38715,-1.496801,131.45,5.18,3,6.79,19 / 20,5170910,2019-09-06 20:46:16:653,0.6507,-0.673,9.4534,-0.0029,0.0168,9.8066,0.0653,0.0096,-0.019,7.81,-39.12,-9.19,142.77,-80.04,164.9
86896,52.38715,-1.496801,131.45,5.18,3,6.79,19 / 20,5171010,2019-09-06 20:46:16:753,0.4971,-0.0412,10.6118,0.0012,-0.0115,9.8066,0.042,-0.0013,0.0364,7.56,-39.19,-8.69,142.79,-80.05,164.93
86897,52.38715,-1.496801,131.45,5.18,3,6.79,19 / 20,5171109,2019-09-06 20:46:16:852,0.2727,0.0869,10.1867,0.0139,-0.0148,9.8065,-0.0361,0.0086,-0.0055,7.5,-39.37,-8.81,142.76,-80.13,165.06
86898,52.38715,-1.496801,131.45,5.18,3,6.79,19 / 20,5171210,2019-09-06 20:46:16:953,0.8914,-0.169,9.7293,-0.0088,0.0303,9.8066,-0.1353,0.014,0.0304,7.31,-39.25,-9.31,146.94,-79.97,166.15
86899,52.38715,-1.496801,131.45,5.18,3,6.79,19 / 20,5171309,2019-09-06 20:46:17:052,-0.6582,-0.6324,10.0205,0.0081,0.0059,9.8066,0.0809,-0.0554,0.064,7.31,-39.25,-9.12,146.92,-80.12,166.42
86900,52.38781,-1.497493,129.9,12.64,3,318.61,19 / 20,5171410,2019-09-06 20:46:17:153,0.5457,-2.3471,9.526,-0.0031,-0.0175,9.8066,0.0814,-0.0175,0.0955,6.63,-39.06,-9.06,147.62,-80.26,167.73
86901,52.38781,-1.497493,129.9,12.64,3,318.61,19 / 20,5171509,2019-09-06 20:46:17:252,-0.1406,-1.5607,10.2226,0.009,-0.0047,9.8065,0.0772,-0.0081,0.0527,7.69,-39.56,-8.69,144.74,-80.29,167.79
86902,52.38781,-1.497493,129.9,12.64,3,318.61,19 / 20,5171609,2019-09-06 20:46:17:352,0.4206,-0.4943,10.2335,0.0118,-0.008,9.8066,0.1392,-0.0613,-0.0028,7.38,-39.69,-9.19,148.53,-80.31,168.75
86903,52.38781,-1.497493,129.9,12.64,3,318.61,19 / 20,5171710,2019-09-06 20:46:17:453,0.7491,0.4857,9.3251,0.0013,-0.0031,9.8066,-0.0903,-0.0271,-0.0032,7.06,-39.12,-8.56,148.76,-80.16,169.3
86904,52.38781,-1.497493,129.9,12.64,3,318.61,19 / 20,5171810,2019-09-06 20:46:17:553,1.5902,-0.3595,9.4218,-0.0085,0.0142,9.8065,-0.0957,-0.0637,0.079,6.5,-39.62,-9.56,150.46,-80.02,169.52
86905,52.38781,-1.497493,129.9,12.64,3,318.61,19 / 20,5171910,2019-09-06 20:46:17:653,0.9179,-0.3578,9.5025,-0.0014,0.0109,9.8066,-0.0039,-0.0939,-0.0179,7.19,-39.44,-9.56,150.19,-80.19,169.77
86906,52.38781,-1.497493,129.9,12.64,3,318.61,19 / 20,5172010,2019-09-06 20:46:17:753,0.9681,-1.562,9.8021,-0.0117,-0.0057,9.8066,-0.0385,-0.0091,-0.0386,7.63,-39.69,-8.87,145.21,-80.4,168.7
86907,52.38781,-1.497493,129.9,12.64,3,318.61,19 / 20,5172110,2019-09-06 20:46:17:853,1.86,-0.8909,10.2228,-0.0126,-0.0029,9.8066,0.0132,0.0799,-0.0405,7.31,-39.56,-9.44,147.96,-80.37,167.98
86908,52.38781,-1.497493,129.9,12.64,3,318.61,19 / 20,5172210,2019-09-06 20:46:17:953,0.4185,0.3347,9.9358,-0.0092,0.0138,9.8066,0.0498,-0.0411,-0.0327,7.56,-39.75,-9.06,144.58,-80.21,167.41
86909,52.38781,-1.497493,129.9,12.64,3,318.61,19 / 20,5172310,2019-09-06 20:46:18:053,0.799,0.1226,9.7352,0.0025,-0.0069,9.8066,0.0242,-0.058,0.0067,8.06,-39.69,-8.75,144.73,-80.2,167.6
86910,52.38781,-1.497493,129.9,12.64,3,318.61,18 / 20,5172409,2019-09-06 20:46:18:152,0.1459,-0.5408,9.9305,0.0021,-0.0014,9.8066,0.078,-0.0154,0.0322,7.31,-39.94,-8.56,147.55,-80.25,167.12
86911,52.38781,-1.497493,129.9,12.64,3,318.61,18 / 20,5172510,2019-09-06 20:46:18:253,1.15,-1.1979,10.1553,-0.0003,0.0007,9.8066,-0.0618,0.0591,-0.0325,7.88,-40.0,-9.37,144.27,-80.37,167.26
86912,52.38781,-1.497493,129.9,12.64,3,318.61,18 / 20,5172610,2019-09-06 20:46:18:353,0.5891,0.1018,10.1982,-0.0003,-0.0061,9.8066,0.0858,-0.0224,0.0675,7.63,-39.06,-8.69,143.56,-80.41,166.79
86913,52.38781,-1.497493,129.9,12.64,3,318.61,18 / 20,5172709,2019-09-06 20:46:18:452,0.9516,-0.7582,9.8867,0.0082,-0.006,9.8066,-0.0539,0.0569,-0.0477,7.69,-39.37,-8.94,143.98,-80.37,167.32
86914,52.38781,-1.497493,129.9,12.64,3,318.61,18 / 20,5172809,2019-09-06 20:46:18:552,0.5263,-0.4715,9.5106,-0.0095,0.01,9.8066,-0.0062,0.0543,0.0196,7.63,-39.75,-8.31,143.16,-80.21,167.32
86915,52.38781,-1.497493,129.9,12.64,3,318.61,18 / 20,5172910,2019-09-06 20:46:18:653,1.4089,-0.983,10.249,0.0058,-0.0185,9.8065,-0.0376,0.0563,-0.0577,8.5,-39.0,-8.56,140.8,-80.23,166.91
86916,52.38781,-1.497493,129.9,12.64,3,318.61,18 / 20,5173009,2019-09-06 20:46:18:752,1.0325,-1.0338,10.2253,-0.0122,-0.0067,9.8065,0.0174,0.0118,-0.0295,7.81,-39.62,-7.62,142.33,-80.32,166.3
86917,52.38781,-1.497493,129.9,12.64,3,318.61,18 / 20,5173110,2019-09-06 20:46:18:853,-0.1872,-0.3729,10.2741,-0.0117,0.0073,9.8065,0.0493,0.0058,-0.001,8.44,-38.87,-8.37,141.49,-80.19,165.33
86918,52.38781,-1.497493,129.9,12.64,3,318.61,18 / 20,5173210,2019-09-06 20:46:18:953,0.3892,-0.215,9.6556,-0.0144,0.0255,9.8066,-0.0121,0.0425,0.0207,7.88,-38.81,-7.94,141.68,-79.99,165.15
86919,52.38781,-1.497493,129.9,12.64,3,318.61,18 / 20,5173310,2019-09-06 20:46:19:053,0.1773,-0.5411,9.9852,-0.0122,0.0358,9.8065,-0.0081,0.0775,-0.054,8.25,-39.31,-8.37,141.8,-79.97,165.3
86920,52.38781,-1.497493,129.9,12.64,3,318.61,19 / 20,5173409,2019-09-06 20:46:19:152,1.1017,-0.9383,10.1739,0.0082,-0.0109,9.8066,0.0085,0.0313,0.0364,8.63,-39.12,-8.06,138.55,-79.98,165.31
86921,52.38781,-1.497493,129.9,12.64,3,318.61,19 / 20,5173509,2019-09-06 20:46:19:252,-0.1064,-0.1697,9.6161,-0.0006,-0.0072,9.8066,-0.1248,0.0986,-0.0584,8.5,-39.62,-8.31,138.83,-80.03,165.23
86922,52.38781,-1.497493,129.9,12.64,3,318.61,19 / 20,5173610,2019-09-06 20:46:19:353,0.8139,-1.0105,9.8265,-0.0042,0.022,9.8066,-0.0823,0.0611,0.0002,7.88,-38.62,-8.62,143.35,-79.92,165.53
86923,52.38781,-1.497493,129.9,12.64,3,318.61,19 / 20,5173709,2019-09-06 20:46:19:452,-0.5931,-1.2469,9.1822,0.0011,0.0072,9.8066,-0.0244,0.0493,0.0018,8.56,-39.19,-8.06,138.87,-79.92,165.63
86924,52.38781,-1.497493,129.9,12.64,3,318.61,19 / 20,5173810,2019-09-06 20:46:19:553,0.227,-0.5497,9.5535,0.0013,0.0042,9.8066,-0.0347,0.0531,-0.0258,8.88,-39.19,-8.12,139.05,-80.01,166.09
86925,52.38781,-1.497493,129.9,12.64,3,318.61,19 / 20,5173910,2019-09-06 20:46:19:653,-0.0497,-0.5244,10.4094,-0.0078,0.009,9.8066,-0.0463,-0.0019,0.0486,7.94,-39.12,-7.12,140.53,-80.04,165.84
86926,52.38781,-1.497493,129.9,12.64,3,318.61,19 / 20,5174009,2019-09-06 20:46:19:752,0.1432,-2.1184,9.7256,-0.0138,0.0368,9.8065,-0.1864,0.0859,-0.055,8.31,-39.31,-8.5,141.84,-80.19,165.85
86927,52.38781,-1.497493,129.9,12.64,3,318.61,19 / 20,5174110,2019-09-06 20:46:19:853,0.8254,-1.1027,9.515,0.02,-0.0207,9.8065,0.108,-0.016,0.0195,8.75,-39.75,-7.62,139.68,-79.94,166.28
86928,52.38781,-1.497493,129.9,12.64,3,318.61,19 / 20,5174209,2019-09-06 20:46:19:952,0.8102,-0.884,9.9731,0.0034,-0.0098,9.8066,-0.0078,0.0659,-0.0373,8.69,-39.06,-7.87,139.36,-80.0,166.52
86929,52.38781,-1.497493,129.9,12.64,3,318.61,19 / 20,5174309,2019-09-06 20:46:20:052,0.6802,-0.773,9.9547,-0.0038,0.0148,9.8066,-0.0207,0.0481,0.0021,8.81,-39.87,-7.25,138.28,-79.94,166.61
86930,52.38781,-1.497493,129.9,12.64,3,318.61,19 / 20,5174409,2019-09-06 20:46:20:152,0.8987,-1.0723,9.3777,0.0149,-0.0093,9.8066,-0.0301,0.0486,0.0091,8.69,-38.87,-7.69,139.95,-79.95,167.27
86931,52.38781,-1.497493,129.9,12.64,3,318.61,19 / 20,5174510,2019-09-06 20:46:20:253,0.6534,-0.4117,9.7416,0.0056,-0.0089,9.8066,-0.0901,0.0891,0.0111,8.31,-39.12,-8.12,143.12,-80.11,167.6
86932,52.38781,-1.497493,129.9,12.64,3,318.61,19 / 20,5174610,2019-09-06 20:46:20:353,-0.082,-0.5143,9.9719,0.0107,-0.0023,9.8066,0.0318,0.059,-0.0043,8.38,-39.75,-7.69,143.8,-80.27,168.41
86933,52.38781,-1.497493,129.9,12.64,3,318.61,19 / 20,5174709,2019-09-06 20:46:20:452,-0.1764,-0.3996,10.1247,-0.0009,0.0025,9.8066,-0.0619,0.0195,0.0259,8.0,-38.69,-7.87,143.55,-80.29,168.62
86934,52.38781,-1.497493,129.9,12.64,3,318.61,19 / 20,5174810,2019-09-06 20:46:20:553,0.6457,-0.7517,9.6045,-0.0081,0.0235,9.8065,-0.0484,0.0142,0.0017,7.94,-38.75,-7.5,142.75,-80.2,169.64
86935,52.38781,-1.497493,129.9,12.64,3,318.61,19 / 20,5174909,2019-09-06 20:46:20:652,-0.2488,-0.6282,9.8789,-0.0185,0.0411,9.8065,0.0646,-0.0339,0.0338,7.63,-39.0,-7.75,144.73,-80.07,169.95
86936,52.38781,-1.497493,129.9,12.64,3,318.61,19 / 20,5175010,2019-09-06 20:46:20:753,0.7726,-0.527,9.9725,0.0097,-0.0118,9.8066,0.0655,0.0103,-0.0244,8.56,-38.81,-7.62,141.7,-80.09,170.15
86937,52.38781,-1.497493,129.9,12.64,3,318.61,19 / 20,5175109,2019-09-06 20:46:20:852,0.6142,0.0536,10.307,0.0042,-0.0092,9.8066,0.1592,0.0548,0.0101,8.94,-38.69,-6.81,140.04,-80.05,170.13
86938,52.38781,-1.497493,129.9,12.64,3,318.61,19 / 20,5175210,2019-09-06 20:46:20:953,-0.3481,-0.5653,10.592,-0.0074,0.0083,9.8066,0.1174,0.0367,-0.0706,8.88,-39.31,-7.06,139.98,-79.93,169.76
86939,52.38781,-1.497493,129.9,12.64,3,318.61,19 / 20,5175310,2019-09-06 20:46:21:053,-0.4206,0.2788,10.4295,0.0117,-0.0282,9.8066,-0.1282,0.0492,0.0123,9.25,-39.44,-7.25,139.66,-79.97,169.38
86940,52.38781,-1.497493,129.9,12.64,3,318.61,19 / 20,5175410,2019-09-06 20:46:21:153,0.0151,-1.1499,9.398,-0.0225,0.0195,9.8065,-0.0782,0.0804,-0.0302,8.56,-39.25,-7.06,139.14,-80.03,168.75
86941,52.38781,-1.497493,129.9,12.64,3,318.61,19 / 20,5175509,2019-09-06 20:46:21:252,-0.0979,-0.9068,10.1781,0.0001,0.0012,9.8066,-0.0164,0.0443,0.0014,9.38,-39.31,-7.44,138.88,-80.0,168.29
86942,52.38781,-1.497493,129.9,12.64,3,318.61,19 / 20,5175609,2019-09-06 20:46:21:352,0.2348,-0.863,9.4595,0.0075,-0.0151,9.8066,0.0399,0.0465,0.0253,9.94,-39.25,-7.69,137.17,-80.23,168.22
86943,52.38781,-1.497493,129.9,12.64,3,318.61,19 / 20,5175710,2019-09-06 20:46:21:453,-0.0813,-0.7794,9.3384,0.0085,-0.0013,9.8066,-0.0164,0.1301,-0.0247,9.69,-39.44,-7.56,137.54,-80.2,168.68
86944,52.38781,-1.497493,129.9,12.64,3,318.61,19 / 20,5175810,2019-09-06 20:46:21:553,-0.3247,-0.7841,9.8451,0.0074,-0.0073,9.8066,-0.0059,0.0735,0.0233,8.56,-39.19,-7.37,138.71,-80.26,168.64
86945,52.38781,-1.497493,129.9,12.64,3,318.61,19 / 20,5175909,2019-09-06 20:46:21:652,0.7234,-1.164,10.2902,0.0068,0.0044,9.8066,0.191,0.0648,-0.0128,9.19,-39.44,-7.12,139.07,-80.24,169.14
86946,52.38781,-1.497493,129.9,12.64,3,318.61,19 / 20,5176010,2019-09-06 20:46:21:753,-0.2664,-0.9172,10.1519,-0.0044,0.0008,9.8066,0.1725,0.1232,0.0633,9.5,-39.25,-6.5,134.18,-80.14,169.2
86947,52.38781,-1.497493,129.9,12.64,3,318.61,19 / 20,5176110,2019-09-06 20:46:21:853,0.1166,1.3494,9.5217,0.0105,0.0328,9.8066,0.1415,-0.0045,-0.0476,9.25,-39.56,-6.44,139.23,-79.85,170.62
86948,52.38781,-1.497493,129.9,12.64,3,318.61,19 / 20,5176210,2019-09-06 20:46:21:953,-0.166,0.4634,8.9945,0.0228,-0.0437,9.8065,-0.019,0.0792,0.1108,9.06,-39.62,-6.06,139.43,-80.02,171.36
86949,52.38781,-1.497493,129.9,12.64,3,318.61,19 / 20,5176310,2019-09-06 20:46:22:053,3.4159,-1.6635,8.9342,0.0512,-0.0497,9.8063,0.3026,0.0173,-0.1119,9.69,-39.31,-6.5,135.6,-80.33,171.73
86950,52.38781,-1.497493,129.9,12.64,3,318.61,19 / 20,5176409,2019-09-06 20:46:22:152,-1.1942,0.2685,7.2228,0.0503,-0.1132,9.8059,0.3333,0.2127,-0.0008,9.38,-39.0,-6.75,140.29,-80.44,171.4
86951,52.38781,-1.497493,129.9,12.64,3,318.61,19 / 20,5176510,2019-09-06 20:46:22:253,0.8031,-0.6375,8.6704,0.0057,0.0756,9.8063,0.1977,0.1323,-0.1957,9.44,-39.06,-6.5,138.59,-80.46,171.85
86952,52.38781,-1.497493,129.9,12.64,3,318.61,19 / 20,5176609,2019-09-06 20:46:22:352,-0.737,-1.5035,10.716,0.0636,-0.0957,9.8059,0.7975,0.2839,0.0254,10.0,-39.5,-5.62,136.32,-80.08,172.17
86953,52.38781,-1.497493,129.9,12.64,3,318.61,19 / 20,5176710,2019-09-06 20:46:22:453,-3.0912,-0.0451,8.1426,0.0714,-0.066,9.8061,0.0016,-0.0929,-0.1371,9.44,-39.19,-5.37,139.98,-79.02,173.57
86954,52.38781,-1.497493,129.9,12.64,3,318.61,19 / 20,5176810,2019-09-06 20:46:22:553,2.1498,-1.4564,8.133,0.0486,-0.1208,9.8057,-0.0135,0.0467,0.0387,9.19,-39.25,-5.5,139.44,-79.43,173.81
86955,52.38781,-1.497493,129.9,12.64,3,318.61,19 / 20,5176910,2019-09-06 20:46:22:653,2.2133,-1.1049,9.8008,0.0716,-0.1071,9.8057,-0.0009,0.1278,-0.167,9.75,-39.69,-5.5,134.9,-79.97,172.37
86956,52.38781,-1.497493,129.9,12.64,3,318.61,19 / 20,5177009,2019-09-06 20:46:22:752,-1.5497,-0.5208,9.4075,0.0131,-0.058,9.8064,0.4592,0.1343,-0.1147,9.44,-39.31,-5.37,137.44,-79.8,171.65
86957,52.38781,-1.497493,129.9,12.64,3,318.61,19 / 20,5177109,2019-09-06 20:46:22:852,0.8794,0.484,8.4935,0.0235,-0.0612,9.8064,-0.1539,0.0548,-0.1248,9.69,-39.31,-5.25,132.66,-79.86,169.44
86958,52.38781,-1.497493,129.9,12.64,3,318.61,19 / 20,5177210,2019-09-06 20:46:22:953,-2.7762,1.0898,10.5619,-0.0402,0.0084,9.8065,0.1147,0.0705,-0.0618,10.81,-39.5,-4.69,130.66,-79.12,168.88
86959,52.38781,-1.497493,129.9,12.64,3,318.61,19 / 20,5177310,2019-09-06 20:46:23:053,-0.511,0.912,10.7219,0.0079,-0.022,9.8066,-0.3622,-0.0007,-0.1255,10.81,-39.75,-5.06,130.15,-79.29,167.84
86960,52.38781,-1.497493,129.9,12.64,3,318.61,19 / 20,5177409,2019-09-06 20:46:23:152,-2.5426,-0.9789,10.2059,-0.06,0.0313,9.8063,-0.3696,0.1301,-0.0125,11.0,-40.56,-5.06,130.36,-79.12,166.89
86961,52.38781,-1.497493,129.9,12.64,3,318.61,19 / 20,5177510,2019-09-06 20:46:23:253,-0.1801,-3.661,8.1969,0.1307,-0.1452,9.8046,0.1635,0.043,-0.0405,10.75,-39.69,-5.0,129.5,-79.08,166.3
86962,52.38781,-1.497493,129.9,12.64,3,318.61,19 / 20,5177609,2019-09-06 20:46:23:352,3.2131,-2.0766,9.0334,0.0744,-0.1014,9.8058,-0.2102,-0.0907,0.0825,11.63,-38.56,-5.44,126.02,-79.33,166.86
86963,52.38781,-1.497493,129.9,12.64,3,318.61,19 / 20,5177710,2019-09-06 20:46:23:453,-0.9379,-1.2137,9.5996,0.0097,0.0012,9.8066,0.5255,-0.1527,0.0152,11.56,-38.75,-5.31,124.37,-79.86,166.02
86964,52.38781,-1.497493,129.9,12.64,3,318.61,19 / 20,5177809,2019-09-06 20:46:23:552,3.6548,0.044,7.3273,0.0678,-0.067,9.8062,0.0065,-0.0165,-0.0034,10.88,-39.19,-5.69,130.16,-79.94,167.19
86965,52.38781,-1.497493,129.9,12.64,3,318.61,19 / 20,5177910,2019-09-06 20:46:23:653,0.4808,1.5156,10.9371,0.1283,-0.1061,9.8052,0.1531,-0.1405,0.0824,11.56,-39.12,-5.25,124.95,-80.09,167.44
86966,52.38781,-1.497493,129.9,12.64,3,318.61,19 / 20,5178009,2019-09-06 20:46:23:752,-0.6239,0.7549,11.3383,0.0812,-0.0617,9.806,0.4194,0.0511,-0.1174,11.13,-39.25,-5.56,130.45,-80.36,168.68
86967,52.38781,-1.497493,129.9,12.64,3,318.61,19 / 20,5178110,2019-09-06 20:46:23:853,0.5299,0.3565,9.8031,0.1003,-0.1335,9.8052,-0.2176,0.1318,0.0801,11.0,-39.69,-5.44,127.38,-80.74,168.03
86968,52.38781,-1.497493,129.9,12.64,3,318.61,19 / 20,5178210,2019-09-06 20:46:23:953,-0.2017,-0.291,10.1131,-0.0506,0.084,9.8061,-0.0129,-0.0014,-0.0108,10.75,-40.19,-5.56,130.2,-80.64,168.42
86969,52.38781,-1.497493,129.9,12.64,3,318.61,19 / 20,5178310,2019-09-06 20:46:24:053,0.3059,-0.5485,10.3895,-0.0055,0.0279,9.8066,-0.0505,-0.0122,0.0841,11.0,-39.5,-4.87,129.28,-80.34,170.23
86970,52.38781,-1.497493,129.9,12.64,3,318.61,19 / 20,5178409,2019-09-06 20:46:24:152,-1.7062,1.1707,9.3308,-0.0624,0.0638,9.8062,-0.2918,0.0528,0.0546,10.69,-39.62,-4.75,130.5,-80.08,170.54
86971,52.38781,-1.497493,129.9,12.64,3,318.61,19 / 20,5178509,2019-09-06 20:46:24:252,2.7828,0.3652,9.3961,-0.0387,0.0595,9.8063,0.2277,-0.0295,0.0247,10.56,-39.44,-6.06,132.36,-80.22,170.98
86972,52.38781,-1.497493,129.9,12.64,3,318.61,19 / 20,5178610,2019-09-06 20:46:24:353,0.0441,0.0467,10.6218,0.0275,-0.0174,9.8065,0.1568,0.0729,-0.04,10.81,-39.25,-4.69,129.55,-80.52,171.09
86973,52.38781,-1.497493,129.9,12.64,3,318.61,19 / 20,5178709,2019-09-06 20:46:24:452,1.5121,-0.6073,10.6294,0.0119,-0.0201,9.8065,0.1788,0.074,-0.06,10.63,-39.12,-4.56,129.54,-80.44,170.84
86974,52.38781,-1.497493,129.9,12.64,3,318.61,19 / 20,5178810,2019-09-06 20:46:24:553,-0.2697,0.219,9.7564,0.0277,-0.0334,9.8065,0.4842,0.0607,-0.0834,10.5,-39.06,-4.44,127.73,-79.96,170.54
86975,52.38781,-1.497493,129.9,12.64,3,318.61,19 / 20,5178909,2019-09-06 20:46:24:652,2.8139,-1.8013,11.5888,0.0243,-0.0504,9.8064,-0.2943,0.0032,0.0792,10.56,-39.25,-4.75,129.5,-80.0,169.6
86976,52.38781,-1.497493,129.9,12.64,3,318.61,19 / 20,5179010,2019-09-06 20:46:24:753,2.1898,1.6118,11.0909,-0.1495,0.1316,9.8046,-0.4566,-0.1388,0.0613,10.69,-39.12,-4.56,131.24,-79.44,170.59
86977,52.38781,-1.497493,129.9,12.64,3,318.61,19 / 20,5179109,2019-09-06 20:46:24:852,6.7875,-2.3212,5.1121,-0.0582,0.0525,9.8063,-0.6062,0.0326,0.1167,10.69,-39.31,-5.19,129.89,-79.89,169.86
86978,52.38781,-1.497493,129.9,12.64,3,318.61,19 / 20,5179210,2019-09-06 20:46:24:953,3.0247,-1.9205,8.5872,-0.0898,0.1693,9.8047,-1.1288,0.0022,-0.16,10.25,-39.75,-5.5,136.26,-79.33,172.7
86979,52.38781,-1.497493,129.9,12.64,3,318.61,19 / 20,5179310,2019-09-06 20:46:25:053,2.097,-4.3284,7.8517,-0.1855,0.1641,9.8035,0.2687,-0.0207,0.1037,10.38,-39.06,-5.87,137.25,-79.24,171.49
86980,52.38781,-1.497493,129.9,12.64,3,318.61,18 / 20,5179410,2019-09-06 20:46:25:153,0.6939,-0.2753,8.8972,0.0309,-0.0164,9.8065,-0.457,0.018,-0.0323,10.63,-39.12,-4.62,132.27,-79.32,171.8
86981,52.38781,-1.497493,129.9,12.64,3,318.61,18 / 20,5179509,2019-09-06 20:46:25:252,1.0346,-0.8791,9.3196,-0.0589,0.073,9.8061,0.3896,-0.0585,0.0111,10.19,-38.94,-4.56,135.88,-79.12,172.29
86982,52.38781,-1.497493,129.9,12.64,3,318.61,18 / 20,5179610,2019-09-06 20:46:25:353,1.3023,0.0974,8.6048,0.076,-0.0737,9.806,0.055,-0.0467,0.061,10.19,-39.19,-4.37,133.02,-79.72,173.23
86983,52.38781,-1.497493,129.9,12.64,3,318.61,18 / 20,5179709,2019-09-06 20:46:25:452,1.2074,-0.151,8.5468,0.0416,-0.0295,9.8065,0.0942,-0.0044,-0.0295,9.94,-39.44,-5.06,135.7,-79.87,174.0
86984,52.38781,-1.497493,129.9,12.64,3,318.61,18 / 20,5179809,2019-09-06 20:46:25:552,0.7303,0.2939,10.0794,0.0394,-0.0288,9.8064,0.1891,-0.0213,0.0284,10.44,-39.69,-5.0,135.86,-80.25,174.55
86985,52.38781,-1.497493,129.9,12.64,3,318.61,18 / 20,5179910,2019-09-06 20:46:25:653,1.0967,-0.265,10.1915,0.0241,-0.0253,9.8065,0.009,-0.0105,0.0188,10.19,-39.69,-5.12,136.29,-80.2,175.07
86986,52.38781,-1.497493,129.9,12.64,3,318.61,18 / 20,5180010,2019-09-06 20:46:25:753,1.2349,0.3333,10.1273,-0.0059,0.0191,9.8065,0.1147,0.0277,-0.0187,9.44,-40.0,-4.44,137.42,-80.06,175.34
86987,52.38781,-1.497493,129.9,12.64,3,318.61,18 / 20,5180110,2019-09-06 20:46:25:853,0.7999,-0.4696,9.9343,-0.0056,0.0021,9.8066,-0.0875,0.0607,0.024,10.0,-39.31,-4.56,136.58,-79.96,175.55
86988,52.38781,-1.497493,129.9,12.64,3,318.61,18 / 20,5180209,2019-09-06 20:46:25:952,0.489,-0.1384,9.9253,-0.0069,0.0021,9.8066,-0.0114,-0.0001,0.0085,10.13,-39.37,-4.94,136.23,-80.04,175.24
86989,52.38781,-1.497493,129.9,12.64,3,318.61,18 / 20,5180309,2019-09-06 20:46:26:052,0.8308,-0.5944,9.8376,-0.0087,0.0058,9.8066,0.0225,-0.0197,-0.0088,10.0,-39.75,-4.87,136.5,-80.1,175.13
86990,52.388508,-1.498731,128.56,13.54,3,306.76,18 / 20,5180410,2019-09-06 20:46:26:153,0.6915,-0.5147,10.32,-0.004,-0.0021,9.8066,-0.0317,0.0034,0.0132,9.56,-39.0,-4.75,136.06,-80.08,175.09
86991,52.388508,-1.498731,128.56,13.54,3,306.76,18 / 20,5180509,2019-09-06 20:46:26:252,1.4984,-0.398,10.0021,-0.0044,0.0046,9.8066,0.0292,0.046,-0.0031,9.44,-39.37,-5.25,139.35,-80.0,175.16
86992,52.388508,-1.498731,128.56,13.54,3,306.76,18 / 20,5180610,2019-09-06 20:46:26:353,1.0446,-0.0434,10.6992,0.0109,-0.0171,9.8065,0.0822,-0.0249,0.0062,9.88,-40.44,-4.87,136.49,-80.02,174.9
86993,52.388508,-1.498731,128.56,13.54,3,306.76,18 / 20,5180710,2019-09-06 20:46:26:453,-0.3573,1.0064,9.4596,0.0438,-0.0556,9.8064,-0.1635,-0.005,-0.0142,9.88,-39.31,-4.94,135.57,-80.23,174.77
86994,52.388508,-1.498731,128.56,13.54,3,306.76,18 / 20,5180809,2019-09-06 20:46:26:552,-0.0292,0.1176,10.5402,-0.017,0.0133,9.8066,0.025,0.0365,-0.0262,10.25,-39.75,-4.62,135.3,-80.31,173.89
86995,52.388508,-1.498731,128.56,13.54,3,306.76,18 / 20,5180910,2019-09-06 20:46:26:653,-0.3056,-0.5717,10.3908,0.0161,-0.0297,9.8065,-0.0975,0.0211,0.0002,9.69,-38.81,-4.62,133.97,-80.55,173.27
86996,52.388508,-1.498731,128.56,13.54,3,306.76,18 / 20,5181010,2019-09-06 20:46:26:753,0.7524,0.0119,9.5593,-0.0351,0.0374,9.8064,-0.0308,-0.0155,0.0549,10.06,-38.87,-4.75,134.49,-80.31,173.38
86997,52.388508,-1.498731,128.56,13.54,3,306.76,18 / 20,5181110,2019-09-06 20:46:26:853,-0.704,-0.8024,9.8878,-0.0193,0.0467,9.8065,-0.0844,-0.0428,0.0818,10.0,-39.87,-5.12,135.62,-80.29,174.31
86998,52.388508,-1.498731,128.56,13.54,3,306.76,18 / 20,5181210,2019-09-06 20:46:26:953,0.8018,-0.8026,9.8075,-0.0036,0.0266,9.8066,-0.1972,0.0528,0.0096,10.19,-39.69,-4.94,136.6,-80.29,175.76
86999,52.388508,-1.498731,128.56,13.54,3,306.76,18 / 20,5181310,2019-09-06 20:46:27:053,1.2413,-0.3856,9.7552,-0.0062,0.0139,9.8065,0.0593,-0.0026,-0.0264,10.38,-39.44,-4.87,135.99,-80.43,175.91
87000,52.388508,-1.498731,128.56,13.54,3,306.76,18 / 20,5181409,2019-09-06 20:46:27:152,0.7488,-0.4607,10.1791,-0.0057,0.0041,9.8066,-0.0365,-0.008,0.0,9.94,-39.37,-4.56,136.15,-80.56,176.45
87001,52.388508,-1.498731,128.56,13.54,3,306.76,18 / 20,5181510,2019-09-06 20:46:27:253,0.603,-0.0443,9.8484,-0.0118,0.0147,9.8065,0.0371,-0.0023,0.0482,9.81,-39.56,-4.56,136.82,-80.44,176.49
87002,52.388508,-1.498731,128.56,13.54,3,306.76,18 / 20,5181610,2019-09-06 20:46:27:353,-0.1441,-0.2207,9.7897,0.0107,0.0095,9.8066,0.0384,0.0073,-0.0193,9.94,-39.5,-4.62,137.14,-80.33,177.34
87003,52.388508,-1.498731,128.56,13.54,3,306.76,18 / 20,5181709,2019-09-06 20:46:27:452,1.545,0.6477,10.1412,0.0064,-0.0103,9.8066,0.0038,0.0478,-0.0585,9.38,-39.31,-4.75,140.37,-80.34,177.65
87004,52.388508,-1.498731,128.56,13.54,3,306.76,18 / 20,5181810,2019-09-06 20:46:27:553,1.2801,-0.2353,11.014,-0.0124,0.0026,9.8065,0.0561,-0.0375,0.0376,9.75,-38.94,-4.75,136.95,-80.24,176.83
87005,52.388508,-1.498731,128.56,13.54,3,306.76,18 / 20,5181910,2019-09-06 20:46:27:653,0.5774,0.0576,10.9972,-0.02,0.0345,9.8065,0.2149,-0.0006,0.0338,9.69,-39.75,-4.56,137.62,-80.15,176.94
87006,52.388508,-1.498731,128.56,13.54,3,306.76,18 / 20,5182009,2019-09-06 20:46:27:752,0.2196,0.6664,10.9711,-0.0037,0.0279,9.8066,0.1794,-0.0336,0.0156,9.69,-39.31,-3.87,135.71,-79.86,177.69
87007,52.388508,-1.498731,128.56,13.54,3,306.76,18 / 20,5182109,2019-09-06 20:46:27:852,0.0501,0.4522,10.0519,0.0217,-0.031,9.8065,-0.0627,-0.017,0.0483,9.88,-39.37,-3.81,136.28,-79.82,178.46
87008,52.388508,-1.498731,128.56,13.54,3,306.76,18 / 20,5182210,2019-09-06 20:46:27:953,0.825,0.4026,10.1673,-0.0203,0.0161,9.8065,-0.0677,-0.0223,-0.0512,9.94,-39.25,-3.94,136.65,-79.64,178.54
87009,52.388508,-1.498731,128.56,13.54,3,306.76,18 / 20,5182310,2019-09-06 20:46:28:053,0.0782,0.1258,10.2016,-0.0193,0.0004,9.8066,-0.0177,0.0036,-0.0094,10.13,-39.44,-4.25,135.79,-79.81,177.69
87010,52.388508,-1.498731,128.56,13.54,3,306.76,18 / 20,5182409,2019-09-06 20:46:28:152,0.3654,0.5559,10.1992,0.003,-0.0038,9.8066,0.0177,-0.0385,0.0101,10.19,-39.44,-4.06,135.38,-79.86,177.2
87011,52.388508,-1.498731,128.56,13.54,3,306.76,18 / 20,5182510,2019-09-06 20:46:28:253,0.4229,-0.3836,9.7654,0.0086,-0.0141,9.8066,-0.007,-0.0003,-0.012,10.38,-39.37,-4.19,135.17,-79.89,176.97
87012,52.388508,-1.498731,128.56,13.54,3,306.76,18 / 20,5182609,2019-09-06 20:46:28:352,-0.0318,0.8067,9.6906,0.0016,0.0013,9.8066,-0.027,-0.0416,0.0218,9.38,-39.31,-4.5,138.16,-79.9,176.83
87013,52.388508,-1.498731,128.56,13.54,3,306.76,18 / 20,5182709,2019-09-06 20:46:28:452,1.2779,-1.5754,9.7475,-0.0067,-0.0021,9.8066,-0.0141,-0.0435,0.0101,10.13,-39.25,-4.56,137.2,-80.04,176.68
87014,52.388508,-1.498731,128.56,13.54,3,306.76,18 / 20,5182810,2019-09-06 20:46:28:553,0.1644,0.3329,10.507,0.0134,-0.0219,9.8065,0.13,-0.0043,-0.0585,9.88,-39.56,-4.56,137.15,-80.23,176.45
87015,52.388508,-1.498731,128.56,13.54,3,306.76,18 / 20,5182910,2019-09-06 20:46:28:653,0.6904,-0.2794,9.6779,0.0027,-0.0188,9.8066,-0.0056,0.0332,0.0354,9.56,-39.31,-4.62,136.6,-80.05,175.83
87016,52.388508,-1.498731,128.56,13.54,3,306.76,18 / 20,5183010,2019-09-06 20:46:28:753,0.8468,-0.3014,9.8009,-0.0105,0.0275,9.8066,-0.0944,0.0032,0.0276,9.63,-39.5,-4.62,137.71,-79.69,176.57
87017,52.388508,-1.498731,128.56,13.54,3,306.76,18 / 20,5183110,2019-09-06 20:46:28:853,0.8018,1.0671,9.6994,0.0069,0.0037,9.8066,0.0154,0.022,-0.0235,9.69,-40.0,-3.87,135.77,-79.87,177.08
87018,52.388508,-1.498731,128.56,13.54,3,306.76,18 / 20,5183210,2019-09-06 20:46:28:953,1.0405,-0.5675,9.7481,0.03,-0.0191,9.8066,0.04,-0.0375,0.0034,9.69,-39.75,-4.37,136.0,-79.96,177.69
87019,52.388508,-1.498731,128.56,13.54,3,306.76,18 / 20,5183310,2019-09-06 20:46:29:053,1.7214,0.2286,10.2639,0.0148,-0.014,9.8066,-0.0471,0.0243,0.0174,9.5,-39.69,-4.75,138.42,-80.2,178.28
87020,52.388508,-1.498731,128.56,13.54,3,306.76,18 / 20,5183409,2019-09-06 20:46:29:152,0.7322,-0.6509,10.2954,-0.0382,0.0483,9.8064,-0.0342,0.0002,0.0169,9.31,-39.94,-4.56,141.97,-79.86,178.26
87021,52.388508,-1.498731,128.56,13.54,3,306.76,18 / 20,5183509,2019-09-06 20:46:29:252,1.6263,0.0631,10.0034,-0.0216,0.0301,9.8065,0.0263,0.082,-0.0224,10.06,-39.69,-4.19,136.86,-79.79,178.54
87022,52.388508,-1.498731,128.56,13.54,3,306.76,18 / 20,5183609,2019-09-06 20:46:29:352,-0.1327,-0.2627,10.2241,-0.0004,0.0045,9.8066,0.009,-0.0001,0.0629,9.88,-39.94,-3.87,136.85,-79.8,178.56
87023,52.388508,-1.498731,128.56,13.54,3,306.76,18 / 20,5183710,2019-09-06 20:46:29:453,0.4133,-0.2916,9.3955,0.0122,-0.0079,9.8066,-0.0429,-0.0746,0.0303,9.69,-40.62,-4.5,137.48,-79.9,179.1
87024,52.388508,-1.498731,128.56,13.54,3,306.76,18 / 20,5183809,2019-09-06 20:46:29:552,0.912,-0.5441,9.6684,0.0046,0.0042,9.8065,-0.0353,0.0423,-0.0263,9.44,-40.37,-4.12,140.17,-80.04,179.73
87025,52.388508,-1.498731,128.56,13.54,3,306.76,18 / 20,5183910,2019-09-06 20:46:29:653,0.5809,0.0759,9.867,0.0068,-0.0082,9.8066,0.0254,0.0148,-0.0041,9.75,-39.87,-4.75,139.27,-80.22,179.59
87026,52.388508,-1.498731,128.56,13.54,3,306.76,18 / 20,5184010,2019-09-06 20:46:29:753,-0.5226,-0.6551,8.3299,-0.0196,0.004,9.8066,0.0301,0.0363,-0.0373,9.75,-39.69,-5.37,139.37,-79.99,179.18
87027,52.388508,-1.498731,128.56,13.54,3,306.76,18 / 20,5184109,2019-09-06 20:46:29:852,1.7831,-0.6565,10.5671,-0.0712,0.1004,9.8058,0.0396,0.0049,0.0349,9.5,-39.5,-4.87,139.68,-79.64,179.46
87028,52.388508,-1.498731,128.56,13.54,3,306.76,18 / 20,5184210,2019-09-06 20:46:29:953,0.971,-1.6999,9.774,-0.0051,-0.0246,9.8066,-0.0227,0.1768,-0.1145,9.56,-39.62,-4.69,139.62,-79.65,178.72
87029,52.388508,-1.498731,128.56,13.54,3,306.76,18 / 20,5184309,2019-09-06 20:46:30:052,0.4278,-0.7747,9.555,-0.0567,0.025,9.8064,0.0872,0.0043,-0.1276,9.81,-39.62,-4.06,136.26,-79.33,176.32
87030,52.388508,-1.498731,128.56,13.54,3,306.76,19 / 20,5184409,2019-09-06 20:46:30:152,1.4127,-0.4298,9.3522,-0.0132,-0.0308,9.8065,-0.0443,-0.0282,-0.0619,9.5,-39.56,-3.62,134.56,-79.35,173.68
87031,52.388508,-1.498731,128.56,13.54,3,306.76,19 / 20,5184509,2019-09-06 20:46:30:252,0.9166,-0.3332,8.8558,-0.0113,-0.0277,9.8065,0.032,0.0378,-0.0766,10.13,-39.75,-4.0,133.25,-79.41,171.84
87032,52.388508,-1.498731,128.56,13.54,3,306.76,19 / 20,5184610,2019-09-06 20:46:30:353,0.5658,0.0596,9.428,0.0065,-0.0353,9.8065,0.0205,-0.0216,-0.0467,10.69,-39.56,-4.37,128.0,-79.71,169.39
87033,52.388508,-1.498731,128.56,13.54,3,306.76,19 / 20,5184710,2019-09-06 20:46:30:453,0.5404,-0.2596,9.8128,0.0096,-0.033,9.8066,-0.1175,-0.005,0.0087,10.0,-39.19,-3.94,129.21,-79.92,168.12
87034,52.388508,-1.498731,128.56,13.54,3,306.76,19 / 20,5184810,2019-09-06 20:46:30:553,0.7425,-0.4187,10.7699,-0.0362,0.0188,9.8065,-0.0066,-0.0053,-0.0631,10.94,-39.06,-4.37,125.65,-79.98,167.66
87035,52.388508,-1.498731,128.56,13.54,3,306.76,19 / 20,5184910,2019-09-06 20:46:30:653,1.2104,-0.7304,10.2093,-0.0153,-0.0072,9.8065,-0.07,-0.0423,0.001,11.0,-39.5,-4.87,127.5,-79.81,166.28
87036,52.388508,-1.498731,128.56,13.54,3,306.76,19 / 20,5185010,2019-09-06 20:46:30:753,0.9227,0.5862,10.2139,-0.0169,0.0293,9.8066,-0.065,0.0388,0.0142,11.06,-39.94,-4.31,126.86,-79.62,167.49
87037,52.388508,-1.498731,128.56,13.54,3,306.76,19 / 20,5185110,2019-09-06 20:46:30:853,0.9166,0.5435,10.4798,0.0004,0.005,9.8066,-0.1596,0.0452,-0.0114,10.94,-39.25,-3.87,125.56,-79.84,167.12
87038,52.388508,-1.498731,128.56,13.54,3,306.76,19 / 20,5185209,2019-09-06 20:46:30:952,0.8247,-0.5738,9.941,-0.0274,0.0224,9.8065,-0.0765,0.0182,-0.072,10.56,-39.25,-4.5,125.25,-79.93,166.95
87039,52.388508,-1.498731,128.56,13.54,3,306.76,19 / 20,5185310,2019-09-06 20:46:31:053,0.7877,-0.702,9.3941,-0.0215,0.0,9.8066,-0.0163,-0.0039,-0.0003,10.81,-39.19,-4.62,126.62,-80.08,165.81
87040,52.388508,-1.498731,128.56,13.54,3,306.76,18 / 20,5185410,2019-09-06 20:46:31:153,0.5819,-0.1793,9.1247,-0.0098,0.0092,9.8066,-0.066,0.013,0.0123,11.0,-38.81,-5.12,126.15,-80.16,165.38
87041,52.388508,-1.498731,128.56,13.54,3,306.76,18 / 20,5185509,2019-09-06 20:46:31:252,0.1809,-0.1541,9.8724,0.005,0.0127,9.8066,-0.0339,-0.0185,0.0039,11.06,-39.5,-5.37,126.17,-80.24,165.63
87042,52.388508,-1.498731,128.56,13.54,3,306.76,18 / 20,5185609,2019-09-06 20:46:31:352,0.3879,-0.1004,9.7224,0.0109,-0.0044,9.8066,-0.0185,0.0093,0.0241,11.5,-39.0,-5.12,123.11,-80.51,166.13
87043,52.388508,-1.498731,128.56,13.54,3,306.76,18 / 20,5185710,2019-09-06 20:46:31:453,0.6675,-0.4146,9.5611,-0.002,0.0082,9.8066,0.0672,0.0099,0.005,11.25,-38.62,-5.06,126.22,-80.52,166.49
87044,52.388508,-1.498731,128.56,13.54,3,306.76,18 / 20,5185809,2019-09-06 20:46:31:552,0.2436,0.0194,9.398,0.0149,0.002,9.8065,-0.0038,-0.0184,0.0552,11.38,-39.31,-5.12,126.62,-80.62,167.33
87045,52.388508,-1.498731,128.56,13.54,3,306.76,18 / 20,5185909,2019-09-06 20:46:31:652,0.7835,-0.7719,9.6761,0.0099,0.0061,9.8066,0.0045,0.0652,0.0144,10.81,-39.0,-5.31,127.14,-80.8,168.54
87046,52.388508,-1.498731,128.56,13.54,3,306.76,18 / 20,5186010,2019-09-06 20:46:31:753,0.4643,-1.5923,9.6415,0.0256,0.0018,9.8065,-0.0192,0.036,0.0277,11.38,-39.25,-4.44,124.92,-81.07,169.97
87047,52.388508,-1.498731,128.56,13.54,3,306.76,18 / 20,5186110,2019-09-06 20:46:31:853,0.1169,-0.3012,9.733,0.022,0.0082,9.8066,0.0246,-0.0021,0.0665,10.5,-39.5,-5.69,131.32,-81.08,171.66
87048,52.388508,-1.498731,128.56,13.54,3,306.76,18 / 20,5186209,2019-09-06 20:46:31:952,-0.0973,-0.2323,9.8618,0.0024,0.0251,9.8066,-0.0009,0.0312,-0.0004,10.0,-39.06,-4.44,131.08,-80.99,174.15
87049,52.388508,-1.498731,128.56,13.54,3,306.76,18 / 20,5186310,2019-09-06 20:46:32:053,0.323,-0.1549,9.7827,0.0159,0.0075,9.8066,-0.0082,0.019,0.0617,10.75,-39.19,-4.75,131.46,-81.07,175.15
87050,52.388508,-1.498731,128.56,13.54,3,306.76,18 / 20,5186409,2019-09-06 20:46:32:152,0.7934,0.3903,9.3507,0.0108,0.0129,9.8066,-0.1453,-0.0028,0.067,9.56,-39.75,-5.12,135.47,-81.12,176.33
87051,52.388508,-1.498731,128.56,13.54,3,306.76,18 / 20,5186509,2019-09-06 20:46:32:252,0.4514,0.3015,10.3388,0.0073,0.0226,9.8065,-0.0187,-0.0076,-0.012,10.06,-39.69,-5.12,136.53,-81.29,178.31
87052,52.388508,-1.498731,128.56,13.54,3,306.76,18 / 20,5186609,2019-09-06 20:46:32:352,0.6494,-0.862,10.4609,-0.0138,0.0123,9.8066,-0.0048,0.0359,0.005,9.81,-39.25,-5.37,136.13,-81.32,178.37
87053,52.388508,-1.498731,128.56,13.54,3,306.76,18 / 20,5186710,2019-09-06 20:46:32:453,-1.925,-1.0837,11.4971,-0.0232,0.0428,9.8064,-0.0825,-0.1612,0.1206,9.75,-39.81,-4.69,136.92,-81.2,178.62
87054,52.388508,-1.498731,128.56,13.54,3,306.76,18 / 20,5186809,2019-09-06 20:46:32:552,-1.1448,-0.7483,10.1613,-0.0657,0.0617,9.8062,-0.1566,0.0792,-0.0053,9.88,-39.5,-4.5,135.9,-80.61,-179.96
87055,52.388508,-1.498731,128.56,13.54,3,306.76,18 / 20,5186910,2019-09-06 20:46:32:653,1.7787,-0.6417,9.1118,0.0143,0.0035,9.8066,-0.1517,-0.0431,0.075,9.94,-40.06,-4.81,139.03,-80.6,-179.81
