,GPS LATITUDE (degrees), GPS LONGITUDE (degrees), GPS ALTITUDE (m), GPS SPEED (Kmh), GPS ACCURACY (m), GPS ORIENTATION (Â°),GPS SATELLITES IN RANGE, TIME SINCE START (ms), DATE (YYYY-MO-DD HH-MI-SS_SSS), ACCELEROMETER X (m/s²) , ACCELEROMETER Y (m/s²), ACCELEROMETER Z (m/s²), GRAVITY X (m/s²), GRAVITY Y (m/s²), GRAVITY Z (m/s²), GYROSCOPE Yaw (rad/s), GYROSCOPE Pitch (rad/s), GYROSCOPE Roll (rad/s), MAGNETIC FIELD X (Î¼T), MAGNETIC FIELD Y (Î¼T), MAGNETIC FIELD Z (Î¼T), ORIENTATION (Yaw) (Â°), ORIENTATION (Pitch) (Â°), ORIENTATION (Roll ) (Â°)
59732,52.486664,-1.375346,168.1,2.6,4,179.59,24 / 26,5786810,2019-09-08 13:43:26:049,0.2258,-0.4072,9.913,-0.0021,0.0041,9.8066,0.0448,0.0074,0.0199,-11.44,-32.62,29.63,344.51,-82.8,-173.26
59733,52.486664,-1.375346,168.1,2.6,4,179.59,24 / 26,5786910,2019-09-08 13:43:26:149,0.1367,0.2725,10.0164,0.0013,-0.0012,9.8066,0.0402,-0.003,0.0536,-10.87,-32.62,29.88,344.39,-82.79,-173.35
59734,52.486664,-1.375346,168.1,2.6,4,179.59,24 / 26,5787010,2019-09-08 13:43:26:249,0.175,-0.5185,9.8598,0.0008,-0.0074,9.8066,0.0114,-0.0135,0.0246,-11.0,-32.31,30.38,344.61,-82.76,-173.22
59735,52.486664,-1.375346,168.1,2.6,4,179.59,24 / 26,5787110,2019-09-08 13:43:26:349,0.0716,-0.2546,9.7586,-0.0035,0.0044,9.8066,0.0179,-0.0221,0.0086,-10.56,-32.81,30.44,344.67,-82.79,-173.12
59736,52.486664,-1.375346,168.1,2.6,4,179.59,24 / 26,5787210,2019-09-08 13:43:26:449,0.1953,-0.4253,9.8271,-0.0013,0.0027,9.8066,-0.0048,-0.0043,-0.0071,-10.44,-33.25,31.19,347.29,-82.77,-173.12
59737,52.486664,-1.375346,168.1,2.6,4,179.59,24 / 26,5787310,2019-09-08 13:43:26:549,0.0071,-0.7206,9.8539,0.0028,-0.0077,9.8066,-0.0134,-0.0354,-0.0035,-10.25,-33.06,29.69,346.53,-82.77,-173.17
59738,52.486664,-1.375346,168.1,2.6,4,179.59,24 / 26,5787410,2019-09-08 13:43:26:649,0.2057,-0.5967,9.8031,0.0036,-0.0092,9.8065,-0.0254,-0.021,-0.0098,-10.25,-32.87,29.5,346.45,-82.71,-173.23
59739,52.486664,-1.375346,168.1,2.6,4,179.59,24 / 26,5787510,2019-09-08 13:43:26:749,-0.1022,-0.2764,9.8113,-0.0023,0.0066,9.8066,0.0186,-0.035,0.0069,-9.75,-32.12,29.0,345.52,-82.72,-173.45
59740,52.486664,-1.375346,168.1,2.6,4,179.59,24 / 26,5787610,2019-09-08 13:43:26:849,0.2426,-0.5157,9.9627,-0.0027,0.0087,9.8065,0.0102,-0.0476,0.0056,-10.69,-32.62,29.31,343.42,-82.76,-173.49
59741,52.486664,-1.375346,168.1,2.6,4,179.59,23 / 25,5787710,2019-09-08 13:43:26:949,0.1099,-0.3093,9.9567,0.0053,-0.0063,9.8066,0.0044,-0.033,0.0151,-10.31,-32.94,28.81,345.05,-82.73,-173.8
59742,52.486664,-1.375346,168.1,2.6,4,179.59,23 / 25,5787810,2019-09-08 13:43:27:049,-0.0165,-0.1691,9.9884,0.0047,-0.0071,9.8065,-0.0066,-0.0372,-0.001,-10.31,-32.56,29.81,345.67,-82.75,-173.92
59743,52.486664,-1.375346,168.1,2.6,4,179.59,23 / 25,5787910,2019-09-08 13:43:27:149,-0.1664,0.216,9.7932,-0.0008,0.0086,9.8066,-0.0195,-0.0432,0.0061,-10.81,-32.94,29.56,343.57,-82.8,-174.07
59744,52.486664,-1.375346,168.1,2.6,4,179.59,23 / 25,5788010,2019-09-08 13:43:27:249,-0.1147,0.3118,9.7989,-0.0025,0.0048,9.8066,-0.0156,-0.0491,0.0008,-10.5,-33.06,29.44,344.6,-82.87,-174.23
59745,52.486664,-1.375346,168.1,2.6,4,179.59,23 / 25,5788110,2019-09-08 13:43:27:349,0.0498,0.0519,9.7951,0.0013,0.0002,9.8066,0.0125,-0.0457,0.0017,-10.19,-33.19,30.25,345.19,-82.88,-174.37
59746,52.486664,-1.375346,168.1,2.6,4,179.59,23 / 25,5788210,2019-09-08 13:43:27:449,-0.0202,0.3214,9.8545,-0.0004,0.0013,9.8066,0.0145,-0.0101,0.0079,-10.5,-33.0,29.69,345.04,-82.89,-174.5
59747,52.486664,-1.375346,168.1,2.6,4,179.59,23 / 25,5788310,2019-09-08 13:43:27:549,-0.0792,0.1202,9.8266,0.0004,-0.0024,9.8066,-0.0197,-0.0491,0.0089,-10.62,-32.25,29.56,343.26,-82.88,-174.43
59748,52.486664,-1.375346,168.1,2.6,4,179.59,23 / 25,5788410,2019-09-08 13:43:27:649,-0.1185,0.2713,9.8434,0.001,-0.0013,9.8066,-0.0271,-0.0342,0.0032,-10.0,-32.56,29.81,345.13,-82.89,-174.43
59749,52.486664,-1.375346,168.1,2.6,4,179.59,23 / 25,5788510,2019-09-08 13:43:27:749,0.0217,-0.0928,9.886,0.0012,-0.0001,9.8066,0.0176,-0.0346,0.0014,-10.12,-32.56,29.31,344.3,-82.88,-174.49
59750,52.486664,-1.375346,168.1,2.6,4,179.59,23 / 25,5788610,2019-09-08 13:43:27:849,0.085,-0.3704,9.8774,0.0001,0.0018,9.8066,0.0253,-0.0471,0.0075,-10.0,-32.69,29.81,344.9,-82.9,-174.63
59751,52.486664,-1.375346,168.1,2.6,4,179.59,23 / 25,5788710,2019-09-08 13:43:27:949,0.053,-0.2594,9.8556,-0.0019,-0.0017,9.8066,-0.0129,-0.0267,0.0106,-9.56,-32.62,29.88,344.97,-82.87,-174.56
59752,52.486664,-1.375346,168.1,2.6,4,179.59,23 / 25,5788809,2019-09-08 13:43:28:048,-0.0605,-0.4987,9.8929,-0.0028,-0.0017,9.8066,-0.0062,-0.0392,-0.003,-10.12,-33.0,30.25,345.25,-82.86,-174.31
59753,52.486664,-1.375346,168.1,2.6,4,179.59,23 / 25,5788910,2019-09-08 13:43:28:149,0.0816,-0.4893,9.7918,0.0003,0.0013,9.8066,0.0162,-0.0265,0.0145,-10.0,-32.56,30.19,345.19,-82.85,-174.36
59754,52.486664,-1.375346,168.1,2.6,4,179.59,23 / 25,5789010,2019-09-08 13:43:28:249,0.0242,-0.5148,9.929,0.0004,-0.0005,9.8066,0.0048,-0.0408,0.0032,-10.31,-32.25,29.75,345.23,-82.85,-174.39
59755,52.486664,-1.375346,168.1,2.6,4,179.59,23 / 25,5789109,2019-09-08 13:43:28:348,0.1146,-0.67,9.8419,0.0003,0.0013,9.8066,-0.0047,-0.0398,-0.0038,-9.5,-32.5,29.38,346.51,-82.84,-174.39
59756,52.486664,-1.375346,168.1,2.6,4,179.59,23 / 25,5789210,2019-09-08 13:43:28:449,-0.0473,-0.4984,9.8074,0.0006,0.0022,9.8066,0.0088,-0.0499,0.0083,-10.19,-31.87,30.5,345.69,-82.85,-174.59
59757,52.486664,-1.375346,168.1,2.6,4,179.59,23 / 25,5789310,2019-09-08 13:43:28:549,-0.0657,-0.6376,9.8879,0.0016,-0.0018,9.8066,0.0075,-0.0473,0.0094,-10.0,-32.12,29.5,344.9,-82.83,-174.66
59758,52.486664,-1.375346,168.1,2.6,4,179.59,23 / 25,5789410,2019-09-08 13:43:28:649,-0.1653,-0.7911,9.8508,0.0004,0.001,9.8066,0.0244,-0.066,0.0111,-9.06,-32.56,30.13,346.74,-82.83,-174.73
59759,52.486664,-1.375346,168.1,2.6,4,179.59,23 / 25,5789510,2019-09-08 13:43:28:749,0.0529,-0.661,9.8622,-0.0006,-0.0009,9.8066,0.002,-0.0791,0.0181,-9.69,-33.62,30.44,344.66,-82.8,-174.75
59760,52.486664,-1.375346,168.1,2.6,4,179.59,23 / 25,5789610,2019-09-08 13:43:28:849,-0.1234,-1.2338,9.8056,-0.0006,-0.002,9.8066,0.0097,-0.0921,0.022,-9.69,-32.62,30.13,344.91,-82.78,-174.58
59761,52.486664,-1.375346,168.1,2.6,4,179.59,25 / 27,5789710,2019-09-08 13:43:28:949,-0.2672,-0.9338,9.8707,-0.0004,-0.0069,9.8066,-0.0193,-0.1075,0.0132,-10.0,-33.0,30.63,345.74,-82.76,-174.47
59762,52.486664,-1.375346,168.1,2.6,4,179.59,25 / 27,5789810,2019-09-08 13:43:29:049,-0.0856,-2.3542,9.7334,0.0041,-0.0084,9.8066,-0.0146,-0.1374,0.0175,-10.19,-32.37,30.75,345.85,-82.7,-174.41
59763,52.486664,-1.375346,168.1,2.6,4,179.59,25 / 27,5789909,2019-09-08 13:43:29:148,-0.2985,-1.845,9.6954,0.004,0.0076,9.8066,-0.0452,-0.1377,-0.014,-9.44,-32.5,30.44,346.39,-82.73,-175.06
59764,52.486664,-1.375346,168.1,2.6,4,179.59,25 / 27,5790010,2019-09-08 13:43:29:249,-0.3551,-1.6557,10.0408,0.0054,0.0061,9.8066,-0.016,-0.1555,-0.0145,-8.94,-33.56,30.06,345.3,-82.72,-175.89
59765,52.486664,-1.375346,168.1,2.6,4,179.59,25 / 27,5790110,2019-09-08 13:43:29:349,-0.1233,-1.489,9.9375,0.0147,-0.0096,9.8066,-0.0021,-0.1944,0.0242,-8.56,-32.62,30.81,344.81,-82.74,-176.94
59766,52.486664,-1.375346,168.1,2.6,4,179.59,25 / 27,5790210,2019-09-08 13:43:29:449,-0.1968,-1.4605,9.8086,0.0035,-0.0022,9.8066,-0.0031,-0.2038,0.0197,-7.5,-33.0,30.06,347.2,-82.71,-177.84
59767,52.486664,-1.375346,168.1,2.6,4,179.59,25 / 27,5790310,2019-09-08 13:43:29:549,-0.5256,-1.5077,10.0331,-0.0075,0.0105,9.8066,0.0285,-0.2167,0.044,-7.31,-33.0,30.44,347.27,-82.71,-177.78
59768,52.486664,-1.375346,168.1,2.6,4,179.59,25 / 27,5790410,2019-09-08 13:43:29:649,-0.8102,-2.0198,10.0607,-0.0029,0.0046,9.8066,0.0352,-0.2196,0.0298,-6.94,-33.81,30.38,347.61,-82.74,-177.45
59769,52.486664,-1.375346,168.1,2.6,4,179.59,25 / 27,5790510,2019-09-08 13:43:29:749,-0.6335,-2.0954,10.05,0.0031,-0.0101,9.8066,-0.0372,-0.2578,0.0409,-6.31,-32.94,30.06,349.53,-82.71,-177.65
59770,52.486664,-1.375346,168.1,2.6,4,179.59,25 / 27,5790610,2019-09-08 13:43:29:849,-0.5815,-1.0903,9.6743,0.0022,-0.004,9.8066,-0.03,-0.2805,0.0575,-5.69,-32.75,29.88,349.37,-82.69,-177.78
59771,52.486584,-1.375341,168.47,2.14,3,203.06,23 / 24,5790710,2019-09-08 13:43:29:949,-0.7381,-1.2187,9.4755,-0.0053,-0.0002,9.8066,-0.0291,-0.2996,0.087,-5.87,-32.81,29.5,349.58,-82.71,-177.61
59772,52.486584,-1.375341,168.47,2.14,3,203.06,23 / 24,5790809,2019-09-08 13:43:30:048,-1.4911,-1.6679,9.6833,-0.0104,-0.0153,9.8066,-0.0291,-0.3271,0.0604,-5.19,-32.75,29.56,354.63,-82.6,-175.12
59773,52.486584,-1.375341,168.47,2.14,3,203.06,23 / 24,5790910,2019-09-08 13:43:30:149,-1.4274,-1.4474,9.5714,-0.0084,-0.0237,9.8065,-0.0592,-0.3515,0.0527,-4.94,-32.69,29.31,355.27,-82.47,-174.21
59774,52.486584,-1.375341,168.47,2.14,3,203.06,23 / 24,5791010,2019-09-08 13:43:30:249,-1.9547,-0.6495,9.7045,-0.0131,0.0087,9.8066,0.0894,-0.354,0.0597,-4.75,-32.56,29.0,355.37,-82.45,-174.13
59775,52.486584,-1.375341,168.47,2.14,3,203.06,23 / 24,5791110,2019-09-08 13:43:30:349,-2.1771,-2.1019,10.2457,-0.0027,0.0133,9.8066,0.0717,-0.4199,0.0673,-3.62,-33.19,29.44,358.41,-82.43,-173.49
59776,52.486584,-1.375341,168.47,2.14,3,203.06,23 / 24,5791210,2019-09-08 13:43:30:449,-1.4898,-1.6138,9.8835,-0.001,-0.0371,9.8066,-0.0937,-0.4356,0.0258,-2.62,-33.31,28.94,0.75,-82.46,-173.46
59777,52.486584,-1.375341,168.47,2.14,3,203.06,23 / 24,5791310,2019-09-08 13:43:30:549,-2.0869,-0.6353,10.1928,0.0069,-0.0279,9.8065,-0.0873,-0.4564,0.007,-2.5,-33.31,28.75,2.96,-82.16,-173.58
59778,52.486584,-1.375341,168.47,2.14,3,203.06,23 / 24,5791410,2019-09-08 13:43:30:649,-1.7662,-1.2322,9.892,0.0166,0.0127,9.8065,-0.0138,-0.4613,0.0245,-1.81,-33.31,27.69,0.45,-82.22,-175.54
59779,52.486584,-1.375341,168.47,2.14,3,203.06,23 / 24,5791509,2019-09-08 13:43:30:748,-1.6318,-0.8172,10.0434,0.0084,0.0041,9.8066,-0.0031,-0.488,0.0521,-1.25,-33.25,27.38,1.74,-82.29,-176.44
59780,52.486584,-1.375341,168.47,2.14,3,203.06,23 / 24,5791610,2019-09-08 13:43:30:849,-1.6359,-0.742,9.8044,-0.007,-0.0007,9.8066,-0.0405,-0.5304,0.1226,0.0,-33.0,27.25,4.27,-82.37,-176.46
59781,52.486584,-1.375341,168.47,2.14,3,203.06,22 / 24,5791710,2019-09-08 13:43:30:949,-2.2822,-0.8214,9.5828,-0.0096,0.0069,9.8066,-0.0288,-0.5449,0.1321,0.94,-33.25,26.94,8.69,-82.38,-174.91
59782,52.486584,-1.375341,168.47,2.14,3,203.06,22 / 24,5791810,2019-09-08 13:43:31:049,-3.0887,-0.6171,9.7526,-0.022,-0.0065,9.8066,-0.0189,-0.5429,0.1051,1.44,-34.06,25.75,11.23,-82.35,-173.02
59783,52.486584,-1.375341,168.47,2.14,3,203.06,22 / 24,5791910,2019-09-08 13:43:31:149,-2.8589,-0.3193,9.8817,-0.0131,0.0086,9.8066,-0.0094,-0.5882,0.1281,1.88,-34.44,25.13,16.99,-82.33,-170.76
59784,52.486584,-1.375341,168.47,2.14,3,203.06,22 / 24,5792010,2019-09-08 13:43:31:249,-3.1369,0.4155,10.1241,-0.0126,0.0106,9.8066,-0.0245,-0.6138,0.1224,2.44,-34.56,24.0,20.56,-82.39,-168.25
59785,52.486584,-1.375341,168.47,2.14,3,203.06,22 / 24,5792110,2019-09-08 13:43:31:349,-2.8008,0.2116,9.9322,-0.012,0.0052,9.8066,-0.0458,-0.5719,0.0502,3.63,-35.19,23.13,28.49,-82.43,-167.01
59786,52.486584,-1.375341,168.47,2.14,3,203.06,22 / 24,5792210,2019-09-08 13:43:31:449,-2.8272,-0.1535,9.9496,-0.0065,0.0005,9.8066,-0.043,-0.5799,0.0761,3.63,-35.56,22.75,29.21,-82.5,-166.51
59787,52.486584,-1.375341,168.47,2.14,3,203.06,22 / 24,5792310,2019-09-08 13:43:31:549,-2.7507,-0.7432,9.5968,0.004,-0.0039,9.8066,-0.0767,-0.6236,0.1185,4.19,-34.75,20.88,31.28,-82.47,-166.13
59788,52.486584,-1.375341,168.47,2.14,3,203.06,22 / 24,5792410,2019-09-08 13:43:31:649,-2.631,-0.7252,9.76,-0.0036,-0.0051,9.8066,0.0132,-0.5656,0.1229,4.81,-34.81,20.44,36.14,-82.43,-165.73
59789,52.486584,-1.375341,168.47,2.14,3,203.06,22 / 24,5792511,2019-09-08 13:43:31:750,-2.2472,-1.1787,10.099,-0.0183,-0.0038,9.8066,0.0416,-0.4897,0.0605,5.0,-34.94,19.5,37.53,-82.28,-164.77
59790,52.486584,-1.375341,168.47,2.14,3,203.06,22 / 24,5792609,2019-09-08 13:43:31:848,-1.9275,0.0332,9.5817,-0.0152,-0.0109,9.8066,-0.0703,-0.467,0.0635,5.81,-35.12,18.25,45.4,-82.08,-163.79
59791,52.486584,-1.375341,168.47,2.14,3,203.06,25 / 27,5792710,2019-09-08 13:43:31:949,-2.0935,-0.1424,9.6302,-0.0183,-0.011,9.8066,-0.0934,-0.4237,0.0656,5.75,-34.81,17.94,46.39,-81.98,-163.12
59792,52.486584,-1.375341,168.47,2.14,3,203.06,25 / 27,5792810,2019-09-08 13:43:32:049,-1.5513,-0.5632,9.8483,0.0024,-0.001,9.8066,0.0797,-0.4214,0.0615,5.44,-35.37,17.25,45.2,-81.97,-162.82
59793,52.486584,-1.375341,168.47,2.14,3,203.06,25 / 27,5792910,2019-09-08 13:43:32:149,-2.2336,-1.382,9.7521,0.0094,0.0105,9.8066,0.1379,-0.3257,0.0412,5.69,-35.56,16.38,51.29,-82.02,-162.81
59794,52.486584,-1.375341,168.47,2.14,3,203.06,25 / 27,5793010,2019-09-08 13:43:32:249,-2.6184,-0.8878,9.6963,-0.024,-0.0218,9.8065,-0.2471,-0.3202,0.0954,5.94,-35.75,15.38,53.77,-82.12,-162.65
59795,52.486584,-1.375341,168.47,2.14,3,203.06,25 / 27,5793110,2019-09-08 13:43:32:349,-0.9267,1.1378,8.8452,-0.0415,-0.0411,9.8064,-0.2846,-0.3432,0.0394,5.56,-35.81,15.0,54.99,-81.88,-162.12
59796,52.486584,-1.375341,168.47,2.14,3,203.06,25 / 27,5793210,2019-09-08 13:43:32:449,-1.619,-0.2933,9.6818,0.0487,0.0662,9.8063,0.2351,-0.1972,0.0027,6.31,-35.56,14.44,59.3,-82.3,-160.04
59797,52.486584,-1.375341,168.47,2.14,3,203.06,25 / 27,5793310,2019-09-08 13:43:32:549,-0.0124,-0.5537,9.8152,0.0364,0.0451,9.8064,0.0516,-0.0794,-0.0131,6.56,-35.31,14.31,62.28,-82.18,-160.25
59798,52.486584,-1.375341,168.47,2.14,3,203.06,25 / 27,5793410,2019-09-08 13:43:32:649,-1.0816,-1.974,10.4245,-0.0212,-0.0397,9.8065,0.0689,-0.2161,0.0959,6.13,-36.0,13.94,58.57,-82.1,-161.07
59799,52.486584,-1.375341,168.47,2.14,3,203.06,25 / 27,5793510,2019-09-08 13:43:32:749,-1.3906,-1.8356,9.8647,0.0026,-0.0265,9.8065,0.1007,-0.1352,0.0793,6.31,-36.37,14.13,57.33,-81.85,-162.63
59800,52.486584,-1.375341,168.47,2.14,3,203.06,25 / 27,5793610,2019-09-08 13:43:32:849,-0.8727,-1.6081,9.7658,-0.0345,-0.0351,9.8065,-0.0921,-0.1361,0.0609,6.31,-36.0,13.56,57.44,-81.75,-162.77
59801,52.486584,-1.375341,168.47,2.14,3,203.06,23 / 24,5793710,2019-09-08 13:43:32:949,-1.6732,-0.4548,9.755,-0.0379,-0.038,9.8065,-0.104,-0.1063,0.0291,6.5,-35.87,13.94,61.99,-81.32,-162.86
59802,52.486584,-1.375341,168.47,2.14,3,203.06,23 / 24,5793810,2019-09-08 13:43:33:049,-1.3176,0.1924,10.0514,0.0091,0.0172,9.8066,0.0366,-0.1227,0.015,6.69,-35.56,13.44,66.05,-81.42,-162.1
59803,52.486584,-1.375341,168.47,2.14,3,203.06,23 / 24,5793910,2019-09-08 13:43:33:149,-1.5559,-1.2934,9.7481,-0.0019,-0.0018,9.8066,-0.0466,-0.0923,-0.0293,5.69,-36.19,13.38,62.74,-81.37,-162.08
59804,52.486584,-1.375341,168.47,2.14,3,203.06,23 / 24,5794010,2019-09-08 13:43:33:249,-2.4891,-0.0357,9.8285,-0.0019,-0.0145,9.8066,-0.0837,-0.0638,0.0491,6.31,-35.62,13.5,59.99,-81.38,-161.52
59805,52.486584,-1.375341,168.47,2.14,3,203.06,23 / 24,5794110,2019-09-08 13:43:33:349,-1.3596,-1.0259,9.6504,-0.0082,-0.0039,9.8066,-0.0214,-0.0439,0.0666,6.19,-36.5,13.25,62.36,-81.41,-162.3
59806,52.486584,-1.375341,168.47,2.14,3,203.06,23 / 24,5794209,2019-09-08 13:43:33:448,-1.1923,-1.5027,9.4807,0.0143,0.0111,9.8066,-0.0221,-0.0267,-0.0105,6.44,-35.62,12.88,62.86,-81.42,-161.86
59807,52.486584,-1.375341,168.47,2.14,3,203.06,23 / 24,5794310,2019-09-08 13:43:33:549,-1.0835,0.0637,10.1841,0.0144,0.0125,9.8065,-0.0294,-0.0778,0.0622,6.19,-36.44,12.63,62.61,-81.59,-161.65
59808,52.486584,-1.375341,168.47,2.14,3,203.06,23 / 24,5794410,2019-09-08 13:43:33:649,-0.8012,-0.7953,10.3593,-0.0142,-0.0055,9.8066,0.0858,-0.0425,0.0387,6.75,-36.31,12.75,66.45,-81.53,-161.48
59809,52.486584,-1.375341,168.47,2.14,3,203.06,23 / 24,5794510,2019-09-08 13:43:33:749,-1.6368,-0.7399,10.1403,0.0144,-0.0112,9.8066,-0.0025,-0.0935,0.0606,5.88,-36.0,12.0,66.4,-81.6,-161.64
59810,52.486584,-1.375341,168.47,2.14,3,203.06,23 / 24,5794610,2019-09-08 13:43:33:849,-0.5019,-0.3318,10.5434,-0.0136,-0.0155,9.8066,0.0077,-0.027,-0.0483,6.38,-36.19,12.25,67.07,-81.59,-161.12
59811,52.486584,-1.375341,168.47,2.14,3,203.06,21 / 24,5794710,2019-09-08 13:43:33:949,-1.8823,-0.8856,10.6298,-0.0107,-0.0185,9.8065,-0.0057,-0.0921,0.0059,6.38,-36.37,11.81,66.28,-81.49,-162.03
59812,52.486584,-1.375341,168.47,2.14,3,203.06,21 / 24,5794809,2019-09-08 13:43:34:048,-1.8241,-1.5431,9.5091,0.0081,0.0072,9.8065,-0.1306,0.0156,-0.0345,6.44,-35.62,12.63,61.39,-81.73,-162.31
59813,52.486584,-1.375341,168.47,2.14,3,203.06,21 / 24,5794910,2019-09-08 13:43:34:149,1.5865,-1.0984,9.0711,0.019,-0.0106,9.8066,-0.1926,0.0691,-0.1768,6.38,-36.25,11.69,64.49,-81.7,-162.97
59814,52.486584,-1.375341,168.47,2.14,3,203.06,21 / 24,5795010,2019-09-08 13:43:34:249,-0.1154,-0.152,9.4833,-0.0037,0.0133,9.8065,0.0535,0.0608,0.003,6.88,-36.06,12.25,68.41,-81.68,-162.66
59815,52.486584,-1.375341,168.47,2.14,3,203.06,21 / 24,5795110,2019-09-08 13:43:34:349,-0.1854,1.344,9.6515,0.0209,-0.0072,9.8066,-0.1017,0.0489,-0.0975,6.63,-36.37,11.69,68.57,-81.65,-162.6
59816,52.486584,-1.375341,168.47,2.14,3,203.06,21 / 24,5795210,2019-09-08 13:43:34:449,-2.0031,0.3828,9.6379,0.0413,0.0319,9.8065,0.0861,0.1079,-0.0896,7.56,-36.0,12.25,70.75,-81.81,-162.92
59817,52.486584,-1.375341,168.47,2.14,3,203.06,21 / 24,5795310,2019-09-08 13:43:34:549,0.0353,-0.3029,10.5475,-0.0076,-0.0302,9.8065,0.0774,-0.0666,-0.0064,6.69,-36.44,12.25,68.14,-81.53,-163.28
59818,52.486584,-1.375341,168.47,2.14,3,203.06,21 / 24,5795410,2019-09-08 13:43:34:649,-2.6773,-1.1658,10.0431,0.0042,-0.0022,9.8066,0.0399,-0.1192,0.0583,7.31,-35.94,11.88,67.31,-81.59,-163.83
59819,52.486584,-1.375341,168.47,2.14,3,203.06,21 / 24,5795510,2019-09-08 13:43:34:749,-0.7201,-2.344,10.2851,-0.0211,-0.0428,9.8065,0.1145,0.0683,-0.13,6.44,-35.94,12.5,59.63,-81.72,-163.76
59820,52.486584,-1.375341,168.47,2.14,3,203.06,21 / 24,5795610,2019-09-08 13:43:34:849,-1.1896,-0.1896,10.3259,-0.0289,-0.0393,9.8065,-0.1718,0.028,-0.053,6.5,-36.06,12.5,62.53,-81.48,-164.9
59821,52.486584,-1.375341,168.47,2.14,3,203.06,24 / 25,5795710,2019-09-08 13:43:34:949,-1.8108,-0.5208,9.57,0.0363,0.0025,9.8065,-0.174,-0.0186,-0.1382,7.0,-36.06,12.44,63.6,-81.75,-166.51
59822,52.486584,-1.375341,168.47,2.14,3,203.06,24 / 25,5795809,2019-09-08 13:43:35:048,0.0326,0.2472,9.5491,-0.0029,0.0051,9.8066,0.1358,-0.0482,-0.0375,6.88,-35.87,12.19,64.18,-81.52,-166.64
59823,52.486584,-1.375341,168.47,2.14,3,203.06,24 / 25,5795910,2019-09-08 13:43:35:149,-0.3239,-0.5873,9.5041,0.0016,0.0006,9.8066,0.0921,-0.0309,-0.0355,7.5,-36.25,13.13,63.32,-81.46,-166.96
59824,52.486584,-1.375341,168.47,2.14,3,203.06,24 / 25,5796010,2019-09-08 13:43:35:249,-0.5795,0.1066,9.8293,0.0071,0.0031,9.8066,-0.1049,-0.0338,0.0527,6.94,-36.0,11.94,63.95,-81.54,-166.78
59825,52.486584,-1.375341,168.47,2.14,3,203.06,24 / 25,5796110,2019-09-08 13:43:35:349,-0.6861,-0.4031,9.7149,0.0107,0.0122,9.8066,-0.0911,0.0082,0.0164,7.0,-35.37,12.38,63.56,-81.66,-166.21
59826,52.486584,-1.375341,168.47,2.14,3,203.06,24 / 25,5796210,2019-09-08 13:43:35:449,-0.9689,-1.2653,9.3445,0.0035,0.0083,9.8066,-0.0352,0.0069,0.0137,7.19,-36.0,11.25,69.03,-81.75,-165.57
59827,52.486584,-1.375341,168.47,2.14,3,203.06,24 / 25,5796310,2019-09-08 13:43:35:549,-0.2581,-1.1666,9.7225,-0.0091,0.02,9.8066,0.0023,-0.0551,0.095,7.0,-36.31,11.81,65.98,-81.76,-164.52
59828,52.486584,-1.375341,168.47,2.14,3,203.06,24 / 25,5796410,2019-09-08 13:43:35:649,-1.2911,-0.4306,9.5104,0.0246,0.0044,9.8065,-0.0088,0.0379,-0.0582,7.0,-35.69,11.63,65.4,-81.83,-164.81
59829,52.486584,-1.375341,168.47,2.14,3,203.06,24 / 25,5796510,2019-09-08 13:43:35:749,-0.8887,-0.6007,9.7159,-0.0053,-0.0039,9.8066,0.1044,-0.0637,0.026,6.75,-36.0,12.06,66.64,-81.78,-163.9
59830,52.486584,-1.375341,168.47,2.14,3,203.06,24 / 25,5796610,2019-09-08 13:43:35:849,-0.8785,-0.3655,9.6914,-0.0112,0.0019,9.8066,-0.082,-0.0027,-0.0213,6.75,-36.19,11.13,71.34,-81.78,-163.48
59831,52.486584,-1.375341,168.47,2.14,3,203.06,25 / 27,5796710,2019-09-08 13:43:35:949,-0.0238,0.3688,9.3497,0.0242,0.0152,9.8065,-0.1096,-0.0087,0.0003,6.88,-36.69,12.19,68.58,-81.69,-163.09
59832,52.486584,-1.375341,168.47,2.14,3,203.06,25 / 27,5796810,2019-09-08 13:43:36:049,-1.2139,-0.5175,9.8742,0.0144,0.0235,9.8065,0.0992,0.0099,0.0069,6.13,-36.19,11.69,64.8,-81.79,-162.45
59833,52.486584,-1.375341,168.47,2.14,3,203.06,25 / 27,5796910,2019-09-08 13:43:36:149,-0.9586,-0.6454,9.9865,-0.0176,-0.0257,9.8065,0.097,0.0131,-0.008,6.25,-36.0,11.88,64.93,-81.47,-163.22
59834,52.486584,-1.375341,168.47,2.14,3,203.06,25 / 27,5797010,2019-09-08 13:43:36:249,-0.8657,-0.3484,9.4518,-0.0141,-0.0289,9.8065,-0.0284,0.047,-0.0403,6.69,-35.44,11.63,66.9,-81.39,-164.08
59835,52.486584,-1.375341,168.47,2.14,3,203.06,25 / 27,5797110,2019-09-08 13:43:36:349,-0.6251,-0.5523,9.846,0.0241,0.0031,9.8066,-0.0509,0.0135,-0.0372,6.19,-36.31,12.06,63.78,-81.35,-164.49
59836,52.486584,-1.375341,168.47,2.14,3,203.06,25 / 27,5797210,2019-09-08 13:43:36:449,-1.3482,-0.4761,9.5318,0.0136,-0.01,9.8066,0.0076,-0.0671,-0.0293,6.88,-35.75,11.75,65.33,-81.43,-165.92
59837,52.486584,-1.375341,168.47,2.14,3,203.06,25 / 27,5797310,2019-09-08 13:43:36:549,0.2832,-0.3907,9.2499,0.0308,0.0037,9.8065,-0.2192,0.0095,-0.1226,6.63,-36.06,11.69,64.62,-81.43,-166.49
59838,52.486584,-1.375341,168.47,2.14,3,203.06,25 / 27,5797410,2019-09-08 13:43:36:649,-0.146,-0.2326,9.222,0.0301,0.0176,9.8065,0.1629,-0.0017,0.0123,6.69,-36.31,11.5,63.45,-81.64,-166.92
59839,52.486584,-1.375341,168.47,2.14,3,203.06,25 / 27,5797510,2019-09-08 13:43:36:749,-0.1166,-1.1761,9.9198,-0.0261,-0.0089,9.8065,0.1248,-0.0108,0.0698,6.88,-36.0,11.81,64.91,-81.55,-165.95
59840,52.486584,-1.375341,168.47,2.14,3,203.06,25 / 27,5797610,2019-09-08 13:43:36:849,-0.8832,-0.8041,9.1868,-0.0248,-0.0077,9.8066,-0.0561,-0.0307,0.0155,6.44,-36.25,11.38,66.22,-81.59,-165.45
59841,52.486584,-1.375341,168.47,2.14,3,203.06,23 / 25,5797710,2019-09-08 13:43:36:949,-0.1119,-0.3412,9.7546,0.0415,0.0287,9.8065,-0.1387,0.033,-0.0236,7.13,-36.31,11.31,70.26,-81.48,-165.29
59842,52.486584,-1.375341,168.47,2.14,3,203.06,23 / 25,5797810,2019-09-08 13:43:37:049,-1.0838,0.2112,10.2842,0.0,0.0177,9.8066,-0.0425,-0.0533,0.0964,6.25,-35.62,11.69,63.37,-81.59,-164.16
59843,52.486584,-1.375341,168.47,2.14,3,203.06,23 / 25,5797910,2019-09-08 13:43:37:149,-1.2804,-0.4779,9.7099,-0.0109,0.009,9.8066,0.059,-0.0198,0.0844,6.44,-36.31,11.94,64.59,-81.4,-163.69
59844,52.486584,-1.375341,168.47,2.14,3,203.06,23 / 25,5798010,2019-09-08 13:43:37:249,-0.2615,-0.4995,9.7458,-0.0005,0.0123,9.8066,0.0676,-0.0237,0.0615,6.5,-35.81,11.75,69.5,-81.28,-162.8
59845,52.486584,-1.375341,168.47,2.14,3,203.06,23 / 25,5798110,2019-09-08 13:43:37:349,-0.5795,-0.5859,9.2329,-0.0082,-0.0061,9.8066,0.0518,0.0295,-0.0261,6.06,-36.12,11.19,70.81,-81.24,-162.68
59846,52.486584,-1.375341,168.47,2.14,3,203.06,23 / 25,5798210,2019-09-08 13:43:37:449,-0.5455,-0.5092,9.2767,-0.0215,-0.0143,9.8066,-0.033,0.0045,0.0394,5.94,-36.25,11.5,66.89,-81.24,-162.23
59847,52.486584,-1.375341,168.47,2.14,3,203.06,23 / 25,5798310,2019-09-08 13:43:37:549,-0.6329,0.3859,9.7472,0.0128,0.0153,9.8066,-0.0626,0.0293,0.0311,6.25,-36.75,11.31,72.05,-81.29,-162.22
59848,52.486584,-1.375341,168.47,2.14,3,203.06,23 / 25,5798410,2019-09-08 13:43:37:649,-1.6041,-0.4906,10.2757,0.021,0.008,9.8065,0.1168,0.026,0.063,6.13,-36.0,11.31,70.78,-81.42,-162.17
59849,52.486584,-1.375341,168.47,2.14,3,203.06,23 / 25,5798510,2019-09-08 13:43:37:749,-1.5437,-0.502,9.6488,-0.0126,-0.0054,9.8066,0.0174,-0.0077,0.0908,6.56,-35.94,11.06,74.41,-81.33,-162.14
59850,52.486584,-1.375341,168.47,2.14,3,203.06,23 / 25,5798610,2019-09-08 13:43:37:849,-1.2592,-0.6482,9.5963,0.0009,-0.0067,9.8066,-0.1089,0.014,0.0013,6.63,-36.25,11.5,69.81,-81.26,-162.59
59851,52.486584,-1.375341,168.47,2.14,3,203.06,23 / 24,5798710,2019-09-08 13:43:37:949,-1.2595,-0.3406,9.1269,0.0341,0.0075,9.8066,-0.1506,-0.007,-0.0532,6.0,-36.5,11.25,69.78,-81.48,-162.81
59852,52.486584,-1.375341,168.47,2.14,3,203.06,23 / 24,5798809,2019-09-08 13:43:38:048,-0.9759,-0.4544,9.5134,0.0235,0.0132,9.8066,-0.0083,0.0162,-0.0961,6.63,-36.25,10.69,72.59,-81.6,-162.93
59853,52.486584,-1.375341,168.47,2.14,3,203.06,23 / 24,5798910,2019-09-08 13:43:38:149,-0.4435,-0.7408,9.4829,0.0064,-0.0102,9.8066,0.0387,-0.0257,-0.0632,7.0,-36.56,11.25,72.42,-81.67,-163.53
59854,52.486584,-1.375341,168.47,2.14,3,203.06,23 / 24,5799010,2019-09-08 13:43:38:249,-0.2133,0.0766,9.6684,0.0033,-0.007,9.8065,0.0416,-0.0668,-0.0088,6.63,-36.5,10.69,70.14,-81.79,-164.49
59855,52.486584,-1.375341,168.47,2.14,3,203.06,23 / 24,5799110,2019-09-08 13:43:38:349,-0.7373,-1.4667,9.4924,0.0099,-0.0004,9.8066,-0.0301,0.0398,-0.0691,6.94,-36.25,10.63,70.64,-81.8,-164.05
59856,52.486584,-1.375341,168.47,2.14,3,203.06,23 / 24,5799210,2019-09-08 13:43:38:449,-0.5735,-1.044,9.4567,0.0128,0.02,9.8065,-0.0062,0.0105,0.015,6.81,-36.19,10.31,75.99,-81.88,-163.21
59857,52.486584,-1.375341,168.47,2.14,3,203.06,23 / 24,5799310,2019-09-08 13:43:38:549,-0.9688,-0.4739,10.0458,-0.0224,0.0068,9.8066,0.0637,-0.0665,0.0577,6.75,-36.94,10.31,79.26,-81.61,-161.88
59858,52.486584,-1.375341,168.47,2.14,3,203.06,23 / 24,5799410,2019-09-08 13:43:38:649,-0.7773,-0.0165,10.1795,-0.0301,0.001,9.8065,-0.0434,0.0316,0.0465,6.81,-36.37,11.0,75.32,-81.46,-160.92
59859,52.486584,-1.375341,168.47,2.14,3,203.06,23 / 24,5799510,2019-09-08 13:43:38:749,-1.3361,0.0475,9.9524,-0.0113,0.0026,9.8066,0.1046,-0.0377,0.1019,6.38,-35.81,11.25,73.7,-81.27,-160.11
59860,52.486584,-1.375341,168.47,2.14,3,203.06,23 / 24,5799610,2019-09-08 13:43:38:849,-0.9987,-0.394,10.0448,-0.003,0.0041,9.8066,0.0291,0.0175,-0.0368,6.06,-36.37,11.38,74.22,-81.17,-159.96
59861,52.486584,-1.375341,168.47,2.14,3,203.06,25 / 27,5799710,2019-09-08 13:43:38:949,-0.4059,0.2594,10.2623,-0.019,-0.0162,9.8065,0.1012,-0.0486,0.023,6.44,-36.69,10.94,75.27,-80.94,-160.6
59862,52.486526,-1.3765,169.7,15.87,3,270.97,25 / 27,5799810,2019-09-08 13:43:39:049,-0.6471,-0.7361,9.1902,0.0066,0.0076,9.8066,0.141,-0.0074,-0.0073,6.38,-36.5,10.88,74.43,-80.98,-160.39
59863,52.486526,-1.3765,169.7,15.87,3,270.97,25 / 27,5799910,2019-09-08 13:43:39:149,-0.3241,0.1317,8.9042,0.0292,0.0193,9.8065,0.0986,-0.0062,0.0624,6.0,-37.06,11.5,70.75,-81.03,-160.26
59864,52.486526,-1.3765,169.7,15.87,3,270.97,25 / 27,5800010,2019-09-08 13:43:39:249,-1.4361,-0.7115,9.1208,0.0017,0.0,9.8066,0.1577,-0.0426,0.0644,5.88,-36.56,11.0,75.84,-80.99,-159.91
59865,52.486526,-1.3765,169.7,15.87,3,270.97,25 / 27,5800110,2019-09-08 13:43:39:349,0.2726,0.0573,9.3043,-0.0088,-0.0035,9.8066,-0.1226,0.0028,0.0169,5.75,-36.62,11.13,75.78,-81.1,-159.61
59866,52.486526,-1.3765,169.7,15.87,3,270.97,25 / 27,5800210,2019-09-08 13:43:39:449,-0.6997,0.0553,9.7042,0.0223,0.018,9.8065,-0.0078,-0.0272,0.0764,6.19,-36.81,10.69,76.57,-81.08,-158.98
59867,52.486526,-1.3765,169.7,15.87,3,270.97,25 / 27,5800310,2019-09-08 13:43:39:549,-1.0076,-0.4292,10.1859,0.0049,0.0081,9.8066,-0.0659,0.006,-0.0281,5.94,-36.69,10.63,76.51,-81.16,-158.78
59868,52.486526,-1.3765,169.7,15.87,3,270.97,25 / 27,5800410,2019-09-08 13:43:39:649,-0.7438,0.6633,10.2342,-0.0056,-0.0112,9.8066,-0.0461,-0.0738,0.0091,6.31,-36.31,11.31,75.35,-80.98,-159.6
59869,52.486526,-1.3765,169.7,15.87,3,270.97,25 / 27,5800510,2019-09-08 13:43:39:749,-0.0624,-0.0013,10.0916,0.0168,0.0047,9.8066,0.1564,-0.0218,-0.0788,6.56,-36.87,10.69,78.17,-81.04,-160.4
59870,52.486526,-1.3765,169.7,15.87,3,270.97,25 / 27,5800610,2019-09-08 13:43:39:849,-0.4193,-0.3688,10.9045,-0.0389,-0.037,9.8065,0.2039,-0.0156,-0.0438,6.19,-36.62,10.75,73.67,-81.21,-161.1
59871,52.486526,-1.3765,169.7,15.87,3,270.97,24 / 25,5800710,2019-09-08 13:43:39:949,-0.6088,-1.5678,9.6359,-0.0519,-0.0384,9.8064,-0.0422,0.0016,-0.0011,6.44,-36.37,11.06,72.41,-80.86,-162.51
59872,52.486526,-1.3765,169.7,15.87,3,270.97,24 / 25,5800810,2019-09-08 13:43:40:049,-1.1234,0.5415,9.5974,-0.0131,-0.0055,9.8066,-0.0826,-0.0861,0.0417,6.44,-36.0,10.88,71.05,-81.0,-163.24
59873,52.486526,-1.3765,169.7,15.87,3,270.97,24 / 25,5800910,2019-09-08 13:43:40:149,1.7129,0.7013,9.7025,-0.027,-0.0107,9.8066,0.1282,0.0207,0.0064,6.75,-36.44,10.63,74.13,-80.97,-163.46
59874,52.486526,-1.3765,169.7,15.87,3,270.97,24 / 25,5801010,2019-09-08 13:43:40:249,-0.2966,-0.2691,10.5966,0.0095,0.014,9.8066,0.132,-0.0011,0.0531,6.44,-35.75,10.81,71.16,-80.89,-163.48
59875,52.486526,-1.3765,169.7,15.87,3,270.97,24 / 25,5801110,2019-09-08 13:43:40:349,-0.1099,-1.1802,10.3267,0.0094,0.0242,9.8065,0.1057,-0.0206,0.0565,6.44,-36.12,10.94,72.82,-80.84,-162.25
59876,52.486526,-1.3765,169.7,15.87,3,270.97,24 / 25,5801210,2019-09-08 13:43:40:449,-1.1262,-0.3999,10.3281,-0.0448,-0.0042,9.8065,0.0118,-0.0308,0.032,6.38,-36.31,10.88,73.91,-80.82,-161.35
59877,52.486526,-1.3765,169.7,15.87,3,270.97,24 / 25,5801310,2019-09-08 13:43:40:549,-1.3397,0.2506,9.6663,-0.0163,0.0,9.8066,0.1581,-0.0457,0.066,6.56,-36.69,10.63,79.72,-80.68,-160.13
59878,52.486526,-1.3765,169.7,15.87,3,270.97,24 / 25,5801410,2019-09-08 13:43:40:649,-0.3816,-0.3674,10.3077,-0.004,-0.0103,9.8065,0.1235,0.0109,-0.0044,5.94,-36.12,10.94,75.42,-80.73,-160.33
59879,52.486526,-1.3765,169.7,15.87,3,270.97,24 / 25,5801510,2019-09-08 13:43:40:749,0.2142,0.2122,10.0041,-0.0098,-0.0222,9.8066,0.0227,0.0336,0.0211,6.19,-37.19,11.56,71.32,-80.63,-160.99
59880,52.486526,-1.3765,169.7,15.87,3,270.97,24 / 25,5801610,2019-09-08 13:43:40:849,-0.8931,0.105,9.9081,0.0097,-0.0188,9.8065,-0.0118,0.0205,-0.0301,6.5,-36.31,11.06,78.64,-80.43,-161.11
59881,52.486526,-1.3765,169.7,15.87,3,270.97,24 / 25,5801710,2019-09-08 13:43:40:949,1.1576,0.2699,9.6362,-0.0255,-0.0199,9.8065,0.071,0.0375,-0.0241,6.69,-36.81,11.25,78.94,-80.23,-162.32
59882,52.486526,-1.3765,169.7,15.87,3,270.97,25 / 26,5801810,2019-09-08 13:43:41:049,0.1977,-1.4849,9.5562,0.0348,0.0119,9.8065,-0.009,0.0321,-0.0001,6.69,-37.19,11.25,79.47,-80.37,-161.39
59883,52.486526,-1.3765,169.7,15.87,3,270.97,25 / 26,5801910,2019-09-08 13:43:41:149,-0.2109,-0.0104,9.7684,0.0015,0.0238,9.8066,-0.1486,0.0082,0.0245,6.38,-36.12,11.44,76.57,-80.49,-160.12
59884,52.486526,-1.3765,169.7,15.87,3,270.97,25 / 26,5802010,2019-09-08 13:43:41:249,-0.0182,-0.3856,8.9092,-0.0216,-0.0157,9.8065,-0.0858,0.0273,-0.0234,6.0,-36.69,10.5,78.3,-80.36,-159.88
59885,52.486526,-1.3765,169.7,15.87,3,270.97,25 / 26,5802110,2019-09-08 13:43:41:349,1.279,0.8972,9.1574,-0.0228,-0.0165,9.8066,0.258,-0.0006,0.0058,6.0,-36.44,10.56,77.91,-80.31,-159.53
59886,52.486526,-1.3765,169.7,15.87,3,270.97,25 / 26,5802210,2019-09-08 13:43:41:449,-1.7469,-0.6387,10.7691,0.0024,-0.0051,9.8066,0.2637,-0.0701,-0.0167,5.81,-36.75,10.81,77.97,-80.33,-160.26
59887,52.486526,-1.3765,169.7,15.87,3,270.97,25 / 26,5802310,2019-09-08 13:43:41:549,-1.2181,-0.7865,9.7383,0.0156,-0.0002,9.8066,-0.1665,-0.0484,0.0201,6.13,-35.94,10.06,81.13,-80.43,-160.89
59888,52.486526,-1.3765,169.7,15.87,3,270.97,25 / 26,5802410,2019-09-08 13:43:41:649,0.7085,-0.1919,9.6051,0.0037,0.0053,9.8066,-0.305,0.03,-0.0197,6.25,-36.19,10.25,81.66,-80.44,-160.38
59889,52.486526,-1.3765,169.7,15.87,3,270.97,25 / 26,5802510,2019-09-08 13:43:41:749,0.8303,0.4178,9.7527,-0.0015,-0.0022,9.8066,0.1786,0.0101,0.0198,6.25,-36.37,10.06,82.43,-80.47,-159.53
59890,52.486526,-1.3765,169.7,15.87,3,270.97,25 / 26,5802610,2019-09-08 13:43:41:849,0.4818,0.0768,10.4428,0.0124,0.0055,9.8065,0.1355,0.0243,-0.0336,5.75,-36.25,11.19,78.16,-80.45,-158.82
59891,52.486526,-1.3765,169.7,15.87,3,270.97,25 / 26,5802711,2019-09-08 13:43:41:950,0.6916,0.1936,10.6864,0.0082,-0.0029,9.8066,0.0453,-0.0461,0.0023,6.19,-36.69,10.69,79.21,-80.31,-159.23
59892,52.486526,-1.3765,169.7,15.87,3,270.97,25 / 26,5802810,2019-09-08 13:43:42:049,0.1307,-0.1293,9.7399,-0.015,-0.0265,9.8065,-0.0225,0.0273,-0.0542,6.13,-36.62,10.63,78.46,-80.26,-160.07
59893,52.486526,-1.3765,169.7,15.87,3,270.97,25 / 26,5802910,2019-09-08 13:43:42:149,0.2589,0.9209,9.6393,0.009,-0.0204,9.8066,-0.0701,0.0206,-0.0511,6.5,-36.19,10.5,78.84,-80.27,-161.46
59894,52.486526,-1.3765,169.7,15.87,3,270.97,25 / 26,5803010,2019-09-08 13:43:42:249,1.3725,-0.3548,9.0467,0.0356,-0.0026,9.8065,-0.0404,-0.0216,-0.044,6.44,-35.87,11.0,74.65,-80.35,-162.24
59895,52.486526,-1.3765,169.7,15.87,3,270.97,25 / 26,5803110,2019-09-08 13:43:42:349,0.3332,0.6064,10.17,0.0225,0.0057,9.8066,0.085,-0.0636,0.0313,6.5,-36.69,10.56,76.92,-80.61,-162.9
59896,52.486526,-1.3765,169.7,15.87,3,270.97,25 / 26,5803210,2019-09-08 13:43:42:449,0.6812,-0.6949,9.608,-0.0102,-0.0114,9.8065,0.0254,0.0256,-0.0528,6.88,-36.44,10.25,80.18,-80.67,-163.46
59897,52.486526,-1.3765,169.7,15.87,3,270.97,25 / 26,5803311,2019-09-08 13:43:42:550,0.7107,-0.0818,9.4647,-0.0045,-0.0047,9.8066,0.0534,-0.0335,0.0454,7.0,-36.56,10.06,81.14,-80.69,-163.35
59898,52.486526,-1.3765,169.7,15.87,3,270.97,25 / 26,5803410,2019-09-08 13:43:42:649,-0.3713,0.3056,10.4283,0.0235,0.0006,9.8065,0.0468,0.0075,-0.014,6.94,-36.44,10.0,80.8,-80.64,-162.98
59899,52.486526,-1.3765,169.7,15.87,3,270.97,25 / 26,5803510,2019-09-08 13:43:42:749,-0.5629,-0.3938,10.6095,0.0277,0.0048,9.8065,0.0084,0.009,-0.0434,6.63,-36.31,10.69,74.81,-80.81,-163.34
59900,52.486526,-1.3765,169.7,15.87,3,270.97,25 / 26,5803610,2019-09-08 13:43:42:849,-0.2301,0.1543,10.2268,-0.0259,-0.0111,9.8065,-0.0102,-0.0461,0.0604,6.38,-36.37,10.06,77.04,-80.7,-163.59
59901,52.486526,-1.3765,169.7,15.87,3,270.97,24 / 25,5803710,2019-09-08 13:43:42:949,0.7314,-0.6911,9.458,-0.0056,0.0036,9.8066,0.1107,-0.0913,0.0542,6.44,-35.94,10.63,72.09,-80.51,-163.9
59902,52.486526,-1.3765,169.7,15.87,3,270.97,24 / 25,5803810,2019-09-08 13:43:43:049,0.044,-0.1744,10.0907,-0.0098,0.0128,9.8066,0.0771,-0.0408,0.062,6.56,-36.31,10.75,75.63,-80.49,-163.62
59903,52.486526,-1.3765,169.7,15.87,3,270.97,24 / 25,5803909,2019-09-08 13:43:43:148,0.1015,-0.5703,10.0126,0.0223,0.0063,9.8066,-0.1338,0.0383,-0.035,5.94,-36.31,10.69,72.73,-80.62,-163.0
59904,52.486526,-1.3765,169.7,15.87,3,270.97,24 / 25,5804010,2019-09-08 13:43:43:249,-0.0493,0.0343,10.3093,-0.0065,0.0027,9.8065,-0.1182,0.0147,0.0174,6.38,-36.31,10.38,78.51,-80.63,-162.55
59905,52.486526,-1.3765,169.7,15.87,3,270.97,24 / 25,5804110,2019-09-08 13:43:43:349,0.5406,1.6651,10.6675,-0.0078,-0.0104,9.8066,0.1058,-0.0614,0.0256,6.31,-36.06,10.94,73.42,-80.48,-162.88
59906,52.486526,-1.3765,169.7,15.87,3,270.97,24 / 25,5804210,2019-09-08 13:43:43:449,-0.2227,-0.3994,10.6985,-0.0309,-0.0137,9.8065,0.2392,-0.0029,-0.0679,6.5,-35.87,10.75,76.4,-80.32,-163.47
59907,52.486526,-1.3765,169.7,15.87,3,270.97,24 / 25,5804311,2019-09-08 13:43:43:550,-2.038,-0.7364,10.7915,-0.0227,-0.013,9.8066,-0.2705,0.0409,0.0224,6.44,-36.12,10.88,73.94,-80.07,-163.76
59908,52.486526,-1.3765,169.7,15.87,3,270.97,24 / 25,5804410,2019-09-08 13:43:43:649,0.5623,1.7159,9.2719,0.0196,0.0012,9.8066,-0.2205,0.0208,-0.0128,6.75,-36.31,10.19,81.97,-80.14,-163.62
59909,52.486526,-1.3765,169.7,15.87,3,270.97,24 / 25,5804510,2019-09-08 13:43:43:749,1.8717,1.5828,9.4123,0.0164,0.0165,9.8066,0.3188,0.0333,0.0161,6.63,-36.5,10.75,76.74,-80.3,-163.25
59910,52.486526,-1.3765,169.7,15.87,3,270.97,24 / 25,5804610,2019-09-08 13:43:43:849,-0.6302,-0.1091,9.9321,-0.0111,-0.0279,9.8065,0.2137,0.0545,-0.0268,6.38,-36.25,10.25,78.27,-80.31,-163.9
59911,52.486526,-1.3765,169.7,15.87,3,270.97,24 / 26,5804711,2019-09-08 13:43:43:950,0.3194,-0.1792,10.9859,-0.0173,-0.0409,9.8065,-0.1984,0.0175,-0.0985,6.81,-36.0,9.75,79.46,-80.36,-165.16
59912,52.486526,-1.3765,169.7,15.87,3,270.97,24 / 26,5804810,2019-09-08 13:43:44:049,1.1137,-1.7135,8.0952,0.0341,-0.0044,9.8066,-0.3315,0.1424,-0.1918,7.0,-35.81,10.13,79.19,-80.3,-165.62
59913,52.486526,-1.3765,169.7,15.87,3,270.97,24 / 26,5804909,2019-09-08 13:43:44:148,0.938,0.8879,7.9012,0.0186,-0.006,9.8066,0.0807,0.064,-0.0275,7.38,-36.12,10.19,78.37,-80.42,-165.93
59914,52.486526,-1.3765,169.7,15.87,3,270.97,24 / 26,5805010,2019-09-08 13:43:44:249,4.6352,3.1896,9.0442,0.0652,0.0358,9.8063,0.1026,-0.0523,0.0392,6.5,-35.75,10.06,77.86,-80.36,-166.59
59915,52.486526,-1.3765,169.7,15.87,3,270.97,24 / 26,5805110,2019-09-08 13:43:44:349,-1.7195,0.3589,11.9348,0.0497,0.0059,9.8064,-0.1807,-0.1456,-0.0188,7.19,-36.12,10.06,74.77,-80.76,-167.96
59916,52.486526,-1.3765,169.7,15.87,3,270.97,24 / 26,5805210,2019-09-08 13:43:44:449,0.2123,2.6547,10.6747,-0.0356,0.0236,9.8065,-0.305,-0.0638,0.0955,6.94,-35.87,9.94,76.05,-80.4,-168.06
59917,52.486526,-1.3765,169.7,15.87,3,270.97,24 / 26,5805310,2019-09-08 13:43:44:549,-1.2221,2.2979,9.899,0.0627,0.0003,9.8064,0.127,-0.0972,0.078,7.0,-36.25,9.94,74.43,-80.6,-168.79
59918,52.486526,-1.3765,169.7,15.87,3,270.97,24 / 26,5805410,2019-09-08 13:43:44:649,0.2617,-0.5121,9.0026,0.0001,-0.0068,9.8066,0.0873,0.0776,0.0204,7.13,-35.94,10.06,74.99,-80.75,-167.82
59919,52.486526,-1.3765,169.7,15.87,3,270.97,24 / 26,5805510,2019-09-08 13:43:44:749,-0.2336,-0.3395,9.1117,-0.0024,0.0049,9.8066,-0.1971,0.0119,0.0656,6.81,-36.12,9.44,80.04,-81.03,-167.34
59920,52.486526,-1.3765,169.7,15.87,3,270.97,24 / 26,5805610,2019-09-08 13:43:44:849,1.3518,0.1364,8.7909,0.0019,0.0361,9.8065,-0.1998,-0.0262,0.0949,6.88,-36.31,9.19,81.12,-81.19,-165.75
59921,52.486526,-1.3765,169.7,15.87,3,270.97,23 / 25,5805711,2019-09-08 13:43:44:950,0.851,0.1834,9.8554,0.0038,0.0252,9.8065,0.2305,-0.074,0.0446,6.63,-36.25,9.19,84.21,-81.2,-162.82
59922,52.486526,-1.3765,169.7,15.87,3,270.97,23 / 25,5805810,2019-09-08 13:43:45:049,-0.0203,0.8184,10.7674,-0.0295,-0.0118,9.8065,0.2374,-0.0387,0.0084,6.44,-35.37,9.69,77.01,-80.77,-162.47
59923,52.486526,-1.3765,169.7,15.87,3,270.97,23 / 25,5805910,2019-09-08 13:43:45:149,0.3169,-0.9145,12.0856,-0.0465,-0.0223,9.8064,-0.2383,-0.0126,0.0787,6.19,-35.81,10.13,78.58,-80.39,-163.33
59924,52.486526,-1.3765,169.7,15.87,3,270.97,23 / 25,5806010,2019-09-08 13:43:45:249,1.4285,-0.7586,10.6866,0.0405,0.0188,9.8065,-0.283,0.1429,-0.1343,6.94,-36.19,9.94,81.14,-80.09,-164.56
59925,52.486526,-1.3765,169.7,15.87,3,270.97,23 / 25,5806110,2019-09-08 13:43:45:349,0.084,0.4937,10.7623,0.0333,0.0456,9.8064,-0.1122,0.0858,-0.0165,6.63,-36.19,9.88,82.17,-80.36,-162.66
59926,52.486526,-1.3765,169.7,15.87,3,270.97,23 / 25,5806210,2019-09-08 13:43:45:449,1.2763,1.0561,9.9591,-0.025,-0.008,9.8066,-0.0778,-0.0341,0.0506,6.63,-36.69,10.13,81.92,-80.57,-163.07
59927,52.486526,-1.3765,169.7,15.87,3,270.97,23 / 25,5806310,2019-09-08 13:43:45:549,0.6,-0.7454,9.0461,-0.029,-0.0094,9.8065,-0.1591,0.1466,-0.0618,6.5,-36.31,10.0,81.13,-80.39,-163.53
59928,52.486526,-1.3765,169.7,15.87,3,270.97,23 / 25,5806410,2019-09-08 13:43:45:649,1.0023,1.1603,10.5214,0.0263,0.0016,9.8065,-0.0017,-0.0968,0.0653,6.25,-36.37,10.19,76.99,-80.37,-164.8
59929,52.486526,-1.3765,169.7,15.87,3,270.97,23 / 25,5806510,2019-09-08 13:43:45:749,0.7651,-0.4949,10.2755,-0.0107,-0.003,9.8066,-0.1008,-0.1071,0.0375,6.81,-36.31,10.94,74.32,-80.05,-166.14
59930,52.486526,-1.3765,169.7,15.87,3,270.97,23 / 25,5806610,2019-09-08 13:43:45:849,2.1669,-0.2391,9.8018,0.0285,0.0031,9.8066,-0.1531,-0.0177,-0.0805,7.0,-36.69,10.19,78.53,-79.9,-168.55
59931,52.486526,-1.3765,169.7,15.87,3,270.97,24 / 25,5806710,2019-09-08 13:43:45:949,1.5299,0.2884,9.7477,0.0238,-0.018,9.8065,0.1264,-0.0619,0.0006,7.5,-35.94,10.44,77.19,-80.08,-170.27
59932,52.486526,-1.3765,169.7,15.87,3,270.97,24 / 25,5806810,2019-09-08 13:43:46:049,0.3629,-0.1818,10.739,-0.0128,-0.0269,9.8066,0.166,0.0475,-0.0471,7.25,-36.44,10.81,68.65,-80.11,-170.69
59933,52.486526,-1.3765,169.7,15.87,3,270.97,24 / 25,5806910,2019-09-08 13:43:46:149,0.9866,0.7401,10.7305,-0.0246,-0.0229,9.8065,-0.1074,0.0454,-0.0645,6.94,-36.19,10.88,68.16,-79.87,-171.8
59934,52.486526,-1.3765,169.7,15.87,3,270.97,24 / 25,5807010,2019-09-08 13:43:46:249,0.7029,0.542,9.9351,-0.0088,0.0113,9.8065,-0.0677,-0.0564,0.058,6.38,-36.06,11.13,66.4,-79.73,-170.98
59935,52.486526,-1.3765,169.7,15.87,3,270.97,24 / 25,5807110,2019-09-08 13:43:46:349,0.8736,0.569,9.8764,-0.0004,0.0073,9.8066,-0.0553,-0.0115,0.0065,7.13,-36.25,10.44,75.8,-79.7,-170.67
59936,52.486526,-1.3765,169.7,15.87,3,270.97,24 / 25,5807210,2019-09-08 13:43:46:449,1.8279,1.4292,10.5405,0.0117,-0.0139,9.8065,-0.0703,-0.0102,-0.0281,7.06,-36.25,11.63,64.21,-79.78,-171.2
59937,52.486526,-1.3765,169.7,15.87,3,270.97,24 / 25,5807310,2019-09-08 13:43:46:549,1.0812,0.0916,10.6952,-0.0219,-0.0161,9.8066,0.0052,-0.0001,-0.0343,6.94,-36.06,11.0,68.23,-79.56,-172.7
59938,52.486526,-1.3765,169.7,15.87,3,270.97,24 / 25,5807410,2019-09-08 13:43:46:649,0.5487,-0.044,10.5756,0.004,0.0069,9.8066,0.0009,-0.0191,0.0083,7.13,-36.19,11.0,68.99,-79.22,-173.13
59939,52.486526,-1.3765,169.7,15.87,3,270.97,24 / 25,5807510,2019-09-08 13:43:46:749,0.9168,0.1334,10.1209,0.0069,0.0064,9.8066,0.0591,-0.0498,0.0322,7.0,-35.75,11.81,64.68,-79.09,-172.72
59940,52.486526,-1.3765,169.7,15.87,3,270.97,24 / 25,5807610,2019-09-08 13:43:46:849,0.7315,1.044,11.0267,-0.0311,-0.0118,9.8066,0.1374,-0.0623,0.0212,7.19,-36.5,11.56,65.09,-78.89,-172.95
59941,52.486526,-1.3765,169.7,15.87,3,270.97,23 / 25,5807711,2019-09-08 13:43:46:950,1.7208,-0.1609,10.0615,-0.0526,-0.0356,9.8064,-0.0235,-0.0564,0.0889,7.06,-36.37,11.56,65.29,-78.71,-173.31
59942,52.486526,-1.3765,169.7,15.87,3,270.97,23 / 25,5807810,2019-09-08 13:43:47:049,1.0181,-1.2027,10.0463,0.026,0.027,9.8066,0.0947,-0.007,0.0683,7.31,-36.0,11.5,65.92,-78.59,-173.18
59943,52.486526,-1.3765,169.7,15.87,3,270.97,23 / 25,5807910,2019-09-08 13:43:47:149,0.4393,0.4376,10.5821,0.001,0.002,9.8066,-0.141,0.0186,0.0555,7.31,-35.69,11.63,66.04,-78.62,-172.99
59944,52.486526,-1.3765,169.7,15.87,3,270.97,23 / 25,5808010,2019-09-08 13:43:47:249,1.3582,0.8545,10.306,0.0029,0.0042,9.8066,-0.1639,0.0064,0.0378,7.31,-36.62,11.56,67.74,-78.55,-172.77
59945,52.486526,-1.3765,169.7,15.87,3,270.97,23 / 25,5808110,2019-09-08 13:43:47:349,2.5843,0.704,9.4376,-0.0256,-0.0066,9.8066,-0.0544,0.0606,0.0031,7.06,-36.0,12.06,67.36,-78.39,-172.65
59946,52.486526,-1.3765,169.7,15.87,3,270.97,23 / 25,5808210,2019-09-08 13:43:47:449,2.0978,1.253,10.2575,0.0378,0.011,9.8065,-0.0576,-0.0078,-0.0318,7.13,-36.37,11.69,66.32,-78.52,-173.06
59947,52.486526,-1.3765,169.7,15.87,3,270.97,23 / 25,5808310,2019-09-08 13:43:47:549,0.9,0.227,10.3263,0.0189,0.0174,9.8065,0.0286,-0.0144,-0.0211,6.75,-36.5,12.13,66.96,-78.35,-173.08
59948,52.486526,-1.3765,169.7,15.87,3,270.97,23 / 25,5808410,2019-09-08 13:43:47:649,1.2788,0.7197,10.2029,-0.0389,-0.0128,9.8065,0.0978,0.0017,-0.0497,6.5,-36.0,12.5,62.93,-78.21,-172.68
59949,52.486526,-1.3765,169.7,15.87,3,270.97,23 / 25,5808510,2019-09-08 13:43:47:749,1.0709,0.7948,10.1523,-0.0572,0.0054,9.8064,-0.2014,-0.0134,0.0807,6.88,-36.62,12.25,72.71,-77.87,-170.96
59950,52.486526,-1.3765,169.7,15.87,3,270.97,23 / 25,5808609,2019-09-08 13:43:47:848,1.7809,1.3947,9.4963,0.0068,0.0449,9.8065,-0.1324,-0.0234,0.0962,5.88,-36.37,12.56,64.94,-77.92,-169.39
59951,52.486458,-1.379024,166.4,19.9,4,267.99,23 / 24,5808710,2019-09-08 13:43:47:949,1.9606,0.5787,9.123,-0.0355,-0.0011,9.8065,-0.0926,-0.0619,0.0586,6.13,-36.44,12.25,72.24,-77.87,-167.94
59952,52.486458,-1.379024,166.4,19.9,4,267.99,23 / 24,5808809,2019-09-08 13:43:48:048,1.688,1.028,9.8047,-0.0028,-0.0077,9.8066,0.0376,-0.0057,0.0043,6.38,-36.56,11.88,73.82,-78.12,-166.89
59953,52.486458,-1.379024,166.4,19.9,4,267.99,23 / 24,5808910,2019-09-08 13:43:48:149,1.704,1.4507,10.3874,-0.0064,-0.0164,9.8066,-0.1038,-0.0323,0.0018,5.94,-36.37,12.63,66.04,-78.34,-167.39
59954,52.486458,-1.379024,166.4,19.9,4,267.99,23 / 24,5809010,2019-09-08 13:43:48:249,2.8599,1.1926,10.6631,-0.04,-0.0354,9.8064,-0.1611,0.038,-0.1053,5.94,-36.69,11.63,71.5,-78.13,-168.72
59955,52.486458,-1.379024,166.4,19.9,4,267.99,23 / 24,5809110,2019-09-08 13:43:48:349,1.595,0.4997,10.4425,-0.0033,-0.0064,9.8066,0.1467,0.0022,0.0323,6.56,-36.25,12.0,72.61,-77.97,-169.73
59956,52.486458,-1.379024,166.4,19.9,4,267.99,23 / 24,5809210,2019-09-08 13:43:48:449,0.4653,0.1894,9.5784,-0.0017,-0.0048,9.8066,-0.0166,-0.0272,0.0609,6.5,-36.19,11.81,72.57,-77.92,-169.94
59957,52.486458,-1.379024,166.4,19.9,4,267.99,23 / 24,5809310,2019-09-08 13:43:48:549,3.4204,1.3555,8.3124,0.0366,0.0248,9.8065,-0.0979,0.0168,-0.0187,5.44,-36.37,11.5,65.35,-78.17,-169.43
59958,52.486458,-1.379024,166.4,19.9,4,267.99,23 / 24,5809410,2019-09-08 13:43:48:649,2.7904,1.8252,8.9794,0.0234,0.0177,9.8066,-0.0964,-0.0128,0.0696,5.81,-37.06,11.56,69.39,-78.61,-168.79
59959,52.486458,-1.379024,166.4,19.9,4,267.99,23 / 24,5809511,2019-09-08 13:43:48:750,2.6318,1.4937,9.6902,0.0065,0.0127,9.8066,0.2215,0.0276,-0.0292,5.5,-37.44,12.38,69.82,-78.61,-168.46
59960,52.486458,-1.379024,166.4,19.9,4,267.99,23 / 24,5809610,2019-09-08 13:43:48:849,2.4871,1.2094,10.7191,0.0358,0.001,9.8065,0.2127,-0.0533,0.034,5.88,-36.56,13.13,64.8,-78.54,-168.6
59961,52.486458,-1.379024,166.4,19.9,4,267.99,22 / 23,5809710,2019-09-08 13:43:48:949,1.8067,1.1249,10.5244,-0.0321,-0.0347,9.8065,-0.0653,-0.0637,0.0556,7.19,-36.06,13.69,62.84,-78.13,-169.59
59962,52.486458,-1.379024,166.4,19.9,4,267.99,22 / 23,5809810,2019-09-08 13:43:49:049,2.922,0.5939,9.4962,-0.0425,-0.0243,9.8065,-0.2264,0.077,-0.0196,7.56,-35.31,13.0,69.97,-77.86,-169.58
59963,52.486458,-1.379024,166.4,19.9,4,267.99,22 / 23,5809910,2019-09-08 13:43:49:149,2.202,-0.2046,8.7613,0.081,0.0587,9.8061,0.2371,0.0295,0.0148,6.81,-36.19,12.25,74.38,-77.76,-168.94
59964,52.486458,-1.379024,166.4,19.9,4,267.99,22 / 23,5810010,2019-09-08 13:43:49:249,4.4703,3.2083,9.6029,0.0411,0.0503,9.8064,-0.1634,-0.1059,0.0572,6.69,-36.87,12.25,76.22,-78.33,-166.58
59965,52.486458,-1.379024,166.4,19.9,4,267.99,22 / 23,5810110,2019-09-08 13:43:49:349,2.447,0.7466,10.1808,-0.0252,-0.0054,9.8066,0.0979,0.002,0.0084,6.25,-36.0,12.25,72.93,-78.57,-165.14
59966,52.486458,-1.379024,166.4,19.9,4,267.99,22 / 23,5810210,2019-09-08 13:43:49:449,4.3954,1.4969,8.3356,-0.048,-0.0322,9.8065,-0.1287,-0.0095,0.0802,6.19,-36.94,11.5,76.26,-78.22,-164.51
59967,52.486458,-1.379024,166.4,19.9,4,267.99,22 / 23,5810310,2019-09-08 13:43:49:549,2.9333,1.8633,10.1434,0.0209,0.0532,9.8064,0.1215,0.0125,-0.0388,5.75,-36.69,12.69,73.59,-78.39,-162.08
59968,52.486458,-1.379024,166.4,19.9,4,267.99,22 / 23,5810410,2019-09-08 13:43:49:649,1.2118,2.9876,10.9317,0.032,0.0108,9.8066,0.1934,-0.1125,0.1374,5.75,-36.5,12.5,72.97,-78.32,-161.87
59969,52.486458,-1.379024,166.4,19.9,4,267.99,22 / 23,5810510,2019-09-08 13:43:49:749,4.0079,2.7642,10.2829,-0.0525,-0.0495,9.8063,-0.2809,-0.0012,-0.0948,4.94,-36.69,12.56,71.83,-78.22,-161.24
59970,52.486458,-1.379024,166.4,19.9,4,267.99,22 / 23,5810610,2019-09-08 13:43:49:849,0.8862,-0.2383,8.9531,-0.0142,-0.0232,9.8065,0.0223,-0.0399,-0.0418,5.38,-36.56,12.69,71.11,-77.97,-162.61
59971,52.486458,-1.379024,166.4,19.9,4,267.99,22 / 23,5810710,2019-09-08 13:43:49:949,4.5828,2.4073,8.0403,0.0546,0.0356,9.8063,-0.1748,0.0479,0.0464,4.88,-36.69,11.75,75.49,-78.19,-162.57
59972,52.486458,-1.379024,166.4,19.9,4,267.99,23 / 24,5810810,2019-09-08 13:43:50:049,3.89,2.2564,9.0032,-0.0063,0.014,9.8066,-0.2026,0.0695,-0.0872,4.94,-36.87,11.81,75.17,-78.64,-161.24
59973,52.486458,-1.379024,166.4,19.9,4,267.99,23 / 24,5810910,2019-09-08 13:43:50:149,2.3401,1.5874,10.7693,-0.0187,0.011,9.8066,0.1273,0.0464,-0.073,5.94,-36.62,12.19,78.17,-78.78,-160.96
59974,52.486458,-1.379024,166.4,19.9,4,267.99,23 / 24,5811010,2019-09-08 13:43:50:249,4.3977,2.8112,10.7028,-0.0303,-0.049,9.8064,-0.2002,-0.1126,0.0963,5.38,-36.56,11.81,74.25,-78.48,-162.54
59975,52.486458,-1.379024,166.4,19.9,4,267.99,23 / 24,5811110,2019-09-08 13:43:50:349,1.0253,2.5903,11.0013,0.0253,-0.0267,9.8065,0.1702,-0.204,0.1417,5.88,-36.81,12.56,74.23,-78.05,-162.56
59976,52.486458,-1.379024,166.4,19.9,4,267.99,23 / 24,5811210,2019-09-08 13:43:50:449,1.5738,-1.2507,10.0101,0.0337,0.0453,9.8064,0.2587,0.1068,-0.1326,5.63,-36.69,12.13,78.55,-78.17,-162.71
59977,52.486458,-1.379024,166.4,19.9,4,267.99,23 / 24,5811310,2019-09-08 13:43:50:549,0.1528,1.2075,9.8918,-0.0692,-0.0142,9.8063,-0.5783,0.1409,-0.0276,5.44,-36.69,13.38,69.24,-78.55,-162.29
59978,52.486458,-1.379024,166.4,19.9,4,267.99,23 / 24,5811410,2019-09-08 13:43:50:649,4.8455,2.9987,7.444,-0.0561,-0.0567,9.8063,-0.5508,0.011,0.0614,4.44,-36.69,12.0,71.72,-78.54,-161.26
59979,52.486458,-1.379024,166.4,19.9,4,267.99,23 / 24,5811510,2019-09-08 13:43:50:749,3.1579,0.2158,8.7152,0.1143,0.0569,9.8058,0.359,-0.0541,0.0789,5.38,-36.94,12.94,69.67,-79.21,-159.98
59980,52.486458,-1.379024,166.4,19.9,4,267.99,23 / 24,5811610,2019-09-08 13:43:50:849,2.6146,0.8065,10.05,0.059,0.0549,9.8063,0.272,0.069,-0.0372,4.63,-36.87,13.31,70.76,-78.89,-160.07
59981,52.486458,-1.379024,166.4,19.9,4,267.99,23 / 26,5811711,2019-09-08 13:43:50:950,3.675,0.8015,10.4871,-0.0683,-0.0561,9.8061,0.0791,0.0018,0.0419,5.31,-36.69,13.38,70.34,-78.69,-161.01
59982,52.486458,-1.379024,166.4,19.9,4,267.99,23 / 26,5811809,2019-09-08 13:43:51:048,3.2394,-0.1303,10.1678,-0.0639,-0.0464,9.8063,-0.042,0.0932,-0.0907,4.88,-36.62,13.19,71.59,-78.14,-161.7
59983,52.486458,-1.379024,166.4,19.9,4,267.99,23 / 26,5811910,2019-09-08 13:43:51:149,2.78,1.1686,9.4277,0.0405,0.0366,9.8064,-0.0383,0.0879,-0.0749,4.81,-36.62,13.56,65.47,-78.81,-161.13
59984,52.486458,-1.379024,166.4,19.9,4,267.99,23 / 26,5812010,2019-09-08 13:43:51:249,1.7932,-0.392,8.809,0.0479,0.0167,9.8065,-0.1483,0.1666,-0.0803,5.06,-36.5,13.31,67.42,-79.06,-161.38
59985,52.486458,-1.379024,166.4,19.9,4,267.99,23 / 26,5812110,2019-09-08 13:43:51:349,3.1004,-1.3049,9.825,0.004,0.0151,9.8065,0.1081,0.0455,0.0503,5.25,-36.81,13.31,68.81,-79.07,-161.08
59986,52.486458,-1.379024,166.4,19.9,4,267.99,23 / 26,5812210,2019-09-08 13:43:51:449,2.0906,-0.2024,9.5428,0.0022,-0.0024,9.8066,0.0808,0.0719,0.0563,5.69,-36.69,14.13,69.46,-78.99,-160.28
59987,52.486458,-1.379024,166.4,19.9,4,267.99,23 / 26,5812310,2019-09-08 13:43:51:549,1.865,0.1438,10.2434,-0.0113,0.014,9.8066,0.1162,0.0821,0.0132,5.44,-36.12,14.63,63.34,-78.74,-159.33
59988,52.486458,-1.379024,166.4,19.9,4,267.99,23 / 26,5812410,2019-09-08 13:43:51:649,2.4372,-0.2939,9.905,0.0149,0.0119,9.8066,-0.0229,0.1511,-0.0185,5.25,-35.69,14.75,64.34,-78.72,-158.6
59989,52.486458,-1.379024,166.4,19.9,4,267.99,23 / 26,5812510,2019-09-08 13:43:51:749,1.5354,-1.7266,9.6042,0.0159,-0.0062,9.8066,-0.0023,0.2216,-0.146,6.25,-35.31,14.75,65.57,-78.9,-159.31
59990,52.486458,-1.379024,166.4,19.9,4,267.99,23 / 26,5812610,2019-09-08 13:43:51:849,1.7587,-2.3017,10.411,0.0404,0.0079,9.8065,0.1367,0.166,-0.0639,6.06,-35.06,14.44,67.15,-79.16,-160.28
59991,52.486458,-1.379024,166.4,19.9,4,267.99,21 / 23,5812710,2019-09-08 13:43:51:949,3.2298,-3.2746,9.7259,-0.0028,-0.0421,9.8065,-0.0849,0.1989,-0.0454,6.56,-34.62,14.5,64.72,-79.28,-161.85
59992,52.486458,-1.379024,166.4,19.9,4,267.99,21 / 23,5812809,2019-09-08 13:43:52:048,3.5426,-3.2645,9.235,-0.0035,-0.0192,9.8065,0.0467,0.2587,-0.06,5.81,-35.31,14.25,63.14,-79.23,-163.33
59993,52.486458,-1.379024,166.4,19.9,4,267.99,21 / 23,5812910,2019-09-08 13:43:52:149,3.2436,-1.9539,9.3906,0.0139,0.034,9.8065,0.0502,0.1736,-0.0332,4.44,-35.25,14.69,53.02,-79.04,-162.7
59994,52.486458,-1.379024,166.4,19.9,4,267.99,21 / 23,5813010,2019-09-08 13:43:52:249,3.3823,-1.3269,9.2699,0.0098,0.0144,9.8066,-0.0357,0.1891,0.0021,3.81,-35.44,15.0,54.48,-79.17,-161.35
59995,52.486458,-1.379024,166.4,19.9,4,267.99,21 / 23,5813110,2019-09-08 13:43:52:349,3.6125,-0.675,9.4438,0.0214,0.0368,9.8065,0.17,0.1971,-0.0437,3.69,-35.56,16.94,51.82,-79.24,-159.73
59996,52.486458,-1.379024,166.4,19.9,4,267.99,21 / 23,5813210,2019-09-08 13:43:52:449,2.8497,-0.8011,9.6988,0.0177,0.0242,9.8065,0.1733,0.2376,-0.0383,3.63,-35.87,17.69,49.58,-79.19,-159.83
59997,52.486458,-1.379024,166.4,19.9,4,267.99,21 / 23,5813310,2019-09-08 13:43:52:549,3.1207,-1.6659,9.4768,-0.0048,-0.0114,9.8066,-0.0938,0.2805,-0.0053,4.0,-35.44,18.69,46.27,-79.24,-160.33
59998,52.486458,-1.379024,166.4,19.9,4,267.99,21 / 23,5813410,2019-09-08 13:43:52:649,2.7137,-0.6521,8.6769,0.0025,-0.0343,9.8066,-0.2097,0.2273,0.0425,3.5,-35.62,18.56,46.24,-79.22,-160.8
59999,52.486458,-1.379024,166.4,19.9,4,267.99,21 / 23,5813510,2019-09-08 13:43:52:749,2.7911,0.0326,9.3288,0.0338,0.0754,9.8062,0.1804,0.2115,-0.0057,3.44,-35.81,18.69,42.4,-79.33,-160.68
60000,52.486458,-1.379024,166.4,19.9,4,267.99,21 / 23,5813610,2019-09-08 13:43:52:849,2.1394,-1.0355,9.842,0.003,0.0248,9.8066,0.1472,0.171,-0.0089,3.44,-35.44,19.38,41.97,-79.67,-160.17
60001,52.486458,-1.379024,166.4,19.9,4,267.99,24 / 25,5813711,2019-09-08 13:43:52:950,2.2155,-0.8088,11.3187,0.0179,0.047,9.8065,0.0588,0.2084,-0.0252,3.25,-35.0,19.81,41.17,-80.0,-159.28
60002,52.486458,-1.379024,166.4,19.9,4,267.99,24 / 25,5813810,2019-09-08 13:43:53:049,2.3015,0.6202,9.3611,-0.0239,-0.0796,9.8062,-0.0099,0.1357,0.0051,3.88,-34.62,19.75,44.58,-80.05,-159.26
60003,52.486458,-1.379024,166.4,19.9,4,267.99,24 / 25,5813910,2019-09-08 13:43:53:149,2.9833,-0.4859,8.8699,-0.0344,-0.0694,9.8063,0.1103,0.1454,-0.0032,2.44,-34.94,20.31,36.88,-79.6,-160.22
60004,52.486458,-1.379024,166.4,19.9,4,267.99,24 / 25,5814010,2019-09-08 13:43:53:249,2.1961,-1.3032,9.5481,0.0023,0.0093,9.8066,0.1507,0.1214,-0.072,3.25,-34.87,20.81,38.5,-79.66,-160.79
60005,52.486458,-1.379024,166.4,19.9,4,267.99,24 / 25,5814110,2019-09-08 13:43:53:349,1.209,-3.6539,10.4083,-0.0104,0.0382,9.8065,0.1234,-0.0198,0.082,2.81,-34.19,21.38,38.6,-79.7,-160.35
60006,52.486458,-1.379024,166.4,19.9,4,267.99,24 / 25,5814210,2019-09-08 13:43:53:449,2.5601,-2.465,9.7862,-0.0645,-0.0603,9.8062,-0.0516,0.1692,-0.0017,2.5,-34.81,22.0,36.27,-79.82,-161.47
60007,52.486458,-1.379024,166.4,19.9,4,267.99,24 / 25,5814310,2019-09-08 13:43:53:549,2.2875,-2.44,10.6486,0.0039,-0.0446,9.8065,-0.1533,0.0772,0.1261,1.88,-34.94,22.0,32.94,-79.39,-161.88
60008,52.486458,-1.379024,166.4,19.9,4,267.99,24 / 25,5814410,2019-09-08 13:43:53:649,4.1608,-1.4453,10.0647,0.0182,0.0783,9.8062,-0.2842,0.3742,-0.0925,2.88,-34.81,21.94,36.36,-79.28,-161.96
60009,52.486458,-1.379024,166.4,19.9,4,267.99,24 / 25,5814510,2019-09-08 13:43:53:749,1.7573,-2.8233,10.2067,0.0274,0.0797,9.8063,0.2964,0.3492,-0.1858,2.5,-33.87,22.56,35.95,-79.72,-160.8
60010,52.486458,-1.379024,166.4,19.9,4,267.99,24 / 25,5814610,2019-09-08 13:43:53:849,3.0371,-1.5922,10.535,-0.0008,-0.0626,9.8064,0.2529,0.1511,-0.028,1.69,-34.56,23.06,31.94,-79.29,-162.09
60011,52.486458,-1.379024,166.4,19.9,4,267.99,23 / 24,5814710,2019-09-08 13:43:53:949,3.8764,-2.4104,10.5425,-0.0095,-0.0359,9.8065,0.0468,0.0313,0.1165,1.88,-34.56,23.19,31.87,-79.27,-162.17
60012,52.486458,-1.379024,166.4,19.9,4,267.99,23 / 24,5814810,2019-09-08 13:43:54:049,1.523,-2.1821,9.8,-0.0078,-0.0229,9.8065,0.0341,0.1673,-0.0008,1.25,-34.0,23.5,28.13,-79.16,-161.92
60013,52.486458,-1.379024,166.4,19.9,4,267.99,23 / 24,5814909,2019-09-08 13:43:54:148,1.2049,-0.2232,10.7113,-0.0019,0.0125,9.8066,0.3156,0.1756,-0.0881,1.19,-33.31,24.75,27.34,-79.05,-162.01
60014,52.486458,-1.379024,166.4,19.9,4,267.99,23 / 24,5815010,2019-09-08 13:43:54:249,1.7362,-4.8667,8.304,-0.0149,-0.0454,9.8065,0.3844,0.1423,-0.0239,1.0,-33.75,24.31,27.8,-79.0,-162.28
60015,52.486458,-1.379024,166.4,19.9,4,267.99,23 / 24,5815110,2019-09-08 13:43:54:349,5.319,-0.9575,7.2353,-0.0328,-0.1423,9.8055,-0.6819,0.2663,-0.129,0.88,-34.0,24.19,27.98,-78.6,-162.45
60016,52.486458,-1.379024,166.4,19.9,4,267.99,23 / 24,5815210,2019-09-08 13:43:54:449,-0.4104,-1.5951,8.5191,-0.0072,0.0969,9.8061,-0.0954,0.1648,0.0913,0.81,-33.62,24.94,27.16,-79.48,-162.05
60017,52.486458,-1.379024,166.4,19.9,4,267.99,23 / 24,5815310,2019-09-08 13:43:54:549,-0.6484,-1.5708,11.4169,0.0404,0.0536,9.8064,0.6131,0.0277,0.2246,0.44,-33.44,24.63,22.21,-79.45,-163.38
60018,52.486458,-1.379024,166.4,19.9,4,267.99,23 / 24,5815410,2019-09-08 13:43:54:649,3.383,-3.642,11.4061,-0.0026,-0.0528,9.8064,0.4301,0.278,-0.1275,0.06,-34.0,25.5,22.52,-78.99,-163.35
60019,52.486458,-1.379024,166.4,19.9,4,267.99,23 / 24,5815510,2019-09-08 13:43:54:749,1.2109,-3.3204,11.4677,-0.004,-0.0157,9.8066,-0.2306,0.134,-0.0979,-0.37,-32.94,25.75,22.34,-78.61,-163.54
60020,52.486458,-1.379024,166.4,19.9,4,267.99,23 / 24,5815610,2019-09-08 13:43:54:849,2.8984,0.9412,9.7744,-0.0058,-0.0427,9.8064,-0.0029,0.104,-0.0479,-0.31,-33.56,25.63,22.7,-78.77,-163.35
60021,52.486458,-1.379024,166.4,19.9,4,267.99,23 / 26,5815709,2019-09-08 13:43:54:948,1.142,-0.3772,10.1645,0.0084,-0.0146,9.8065,0.062,0.1853,-0.0708,-0.69,-33.31,26.44,18.8,-78.78,-163.9
60022,52.486458,-1.379024,166.4,19.9,4,267.99,23 / 26,5815810,2019-09-08 13:43:55:049,2.8547,-1.137,10.3262,0.0067,-0.0256,9.8065,0.0288,0.1776,-0.085,-0.25,-33.5,26.63,19.58,-78.74,-165.37
60023,52.486458,-1.379024,166.4,19.9,4,267.99,23 / 26,5815910,2019-09-08 13:43:55:149,3.9065,0.0393,8.6139,-0.0079,-0.0582,9.8064,-0.2254,0.188,-0.0703,-1.06,-33.19,26.13,16.86,-78.48,-165.48
60024,52.486458,-1.379024,166.4,19.9,4,267.99,23 / 26,5816010,2019-09-08 13:43:55:249,3.5068,0.3943,9.1573,-0.0014,0.0797,9.8063,-0.3211,0.1946,-0.0599,-1.06,-33.5,27.19,16.36,-78.44,-165.79
60025,52.486458,-1.379024,166.4,19.9,4,267.99,23 / 26,5816110,2019-09-08 13:43:55:349,0.2987,-0.0726,9.8496,0.0132,0.0352,9.8066,0.065,0.2402,-0.031,-0.94,-33.62,26.94,17.1,-78.71,-165.26
60026,52.486458,-1.379024,166.4,19.9,4,267.99,23 / 26,5816210,2019-09-08 13:43:55:449,-0.1151,-0.1822,10.8907,-0.0142,-0.0341,9.8065,0.2578,-0.0509,0.2435,-1.25,-32.87,26.63,18.05,-78.36,-164.57
60027,52.486458,-1.379024,166.4,19.9,4,267.99,23 / 26,5816310,2019-09-08 13:43:55:549,-0.5715,-1.7135,10.205,-0.0047,-0.0082,9.8065,-0.0353,-0.0133,0.1032,-1.94,-33.19,27.19,14.9,-78.37,-164.78
60028,52.486458,-1.379024,166.4,19.9,4,267.99,23 / 26,5816410,2019-09-08 13:43:55:649,1.3414,-1.8314,9.9537,0.0056,-0.016,9.8065,-0.0709,0.0711,-0.0937,-1.5,-33.25,27.44,18.42,-78.28,-164.32
60029,52.486458,-1.379024,166.4,19.9,4,267.99,23 / 26,5816510,2019-09-08 13:43:55:749,0.193,-0.4822,9.8653,-0.0183,-0.024,9.8065,0.1701,-0.0089,0.057,-1.87,-33.25,27.69,16.27,-78.09,-163.88
60030,52.486458,-1.379024,166.4,19.9,4,267.99,23 / 26,5816610,2019-09-08 13:43:55:849,0.3064,-0.1659,10.9776,0.007,-0.0212,9.8066,0.0461,0.049,-0.0193,-2.19,-33.25,27.75,15.56,-78.07,-164.42
60031,52.486458,-1.379024,166.4,19.9,4,267.99,21 / 22,5816710,2019-09-08 13:43:55:949,0.4972,0.0455,10.0298,0.0127,-0.0457,9.8065,-0.0481,-0.0197,-0.0255,-1.5,-33.44,28.56,16.7,-77.67,-165.69
60032,52.486458,-1.379024,166.4,19.9,4,267.99,21 / 22,5816809,2019-09-08 13:43:56:048,-0.6354,0.2327,10.6574,0.0055,0.0074,9.8066,0.0016,-0.0198,-0.0441,-1.94,-32.69,28.88,12.61,-77.58,-166.79
60033,52.486458,-1.379024,166.4,19.9,4,267.99,21 / 22,5816910,2019-09-08 13:43:56:149,0.5241,-0.3871,10.779,0.0243,0.0144,9.8066,0.0638,-0.0321,-0.0594,-1.87,-32.69,28.5,10.74,-77.51,-168.19
60034,52.486458,-1.379024,166.4,19.9,4,267.99,21 / 22,5817010,2019-09-08 13:43:56:249,-0.6706,-0.6096,9.9021,0.0203,-0.0145,9.8065,0.0898,-0.0629,0.0106,-1.75,-32.31,28.56,9.0,-77.34,-169.43
60035,52.486458,-1.379024,166.4,19.9,4,267.99,21 / 22,5817110,2019-09-08 13:43:56:349,-0.1313,-0.7531,8.816,0.0192,-0.0102,9.8066,-0.0171,0.0076,-0.0368,-1.31,-32.25,28.63,9.42,-77.25,-171.12
60036,52.486458,-1.379024,166.4,19.9,4,267.99,21 / 22,5817210,2019-09-08 13:43:56:449,-0.7053,-2.4414,9.691,-0.0098,0.0076,9.8066,0.0748,-0.0748,0.0844,-1.56,-32.37,28.5,6.71,-77.4,-171.11
60037,52.486458,-1.379024,166.4,19.9,4,267.99,21 / 22,5817310,2019-09-08 13:43:56:549,-0.2173,-1.9837,10.4367,-0.01,0.0129,9.8066,-0.278,0.0134,-0.0424,-2.06,-32.75,28.31,7.68,-77.75,-170.32
60038,52.486458,-1.379024,166.4,19.9,4,267.99,21 / 22,5817410,2019-09-08 13:43:56:649,-1.1981,0.7055,10.1557,0.0025,-0.0277,9.8066,-0.1192,-0.0748,-0.0174,-1.37,-32.75,28.75,10.78,-77.68,-170.09
60039,52.486458,-1.379024,166.4,19.9,4,267.99,21 / 22,5817510,2019-09-08 13:43:56:749,-0.7608,0.4361,10.6475,0.0166,-0.0814,9.8062,0.1074,0.0028,-0.0607,-1.06,-32.69,28.88,9.41,-77.28,-171.19
60040,52.486458,-1.379024,166.4,19.9,4,267.99,21 / 22,5817610,2019-09-08 13:43:56:849,-1.5196,-2.8807,11.0498,0.0329,0.0479,9.8065,0.0148,-0.0838,-0.0755,-1.25,-32.0,29.31,7.87,-76.71,-172.36
60041,52.48604,-1.380803,164.11,16.35,4,217.54,23 / 25,5817710,2019-09-08 13:43:56:949,-0.9844,-0.599,10.4089,-0.0068,0.0036,9.8066,0.0878,-0.1329,-0.0074,-0.87,-32.12,29.63,5.85,-76.66,-173.84
60042,52.48604,-1.380803,164.11,16.35,4,217.54,23 / 25,5817810,2019-09-08 13:43:57:049,1.2594,-1.4417,8.8419,0.0239,0.0341,9.8065,-0.1573,-0.1484,0.0632,-1.0,-32.69,29.06,5.69,-76.77,-173.97
