,GPS LATITUDE (degrees),GPS LONGITUDE (degrees), GPS ALTITUDE (m),GPS SPEED (Kmh),GPS ACCURACY (m),GPS ORIENTATION (Â°), SATELLITES IN RANGE, TIME SINCE START (ms), DATE (YYYY-MO-DD HH-MI-SS_SSS),ACCELEROMETER X (m/s²) , ACCELEROMETER Y (m/s²), ACCELEROMETER Z (m/s²), GRAVITY X (m/s²), GRAVITY Y (m/s²), GRAVITY Z (m/s²), GYROSCOPE Yaw (rad/s), GYROSCOPE Pitch (rad/s), GYROSCOPE Roll (rad/s)
4293,48.481182,-2.640498,90.37,32.11,9.648001,89.2,18 / 20,429312,2019-08-18 15:20:51:849,-0.1633,-0.2346,10.524,-0.2877,-0.4045,9.7941,0.0208,0.0054,-0.0128
4294,48.481182,-2.640498,90.37,32.11,9.648001,89.2,18 / 20,429411,2019-08-18 15:20:51:948,-0.3477,-0.6279,9.9081,-0.2924,-0.391,9.7945,0.0027,0.0099,-0.0171
4295,48.481182,-2.640498,90.37,32.11,9.648001,89.2,18 / 20,429511,2019-08-18 15:20:52:048,-0.3513,-0.4357,9.8793,-0.2968,-0.3939,9.7942,-0.0058,0.0068,-0.0164
4296,48.481182,-2.640498,90.37,32.11,9.648001,89.2,18 / 20,429612,2019-08-18 15:20:52:149,-0.4692,-0.3867,10.1014,-0.3122,-0.4056,9.7933,-0.0083,-0.0036,-0.0153
4297,48.481182,-2.640498,90.37,32.11,9.648001,89.2,18 / 20,429711,2019-08-18 15:20:52:248,-0.4153,-0.3651,10.1158,-0.3132,-0.4098,9.7931,-0.0074,-0.01,-0.0141
4298,48.481182,-2.640498,90.37,32.11,9.648001,89.2,18 / 20,429811,2019-08-18 15:20:52:348,-0.2256,-0.3047,9.6644,-0.3113,-0.4186,9.7928,-0.0029,0.0058,-0.0135
4299,48.481182,-2.640498,90.37,32.11,9.648001,89.2,18 / 20,429911,2019-08-18 15:20:52:448,-0.2394,-0.6177,10.1864,-0.3166,-0.4231,9.7924,-0.0083,-0.0058,-0.0117
4300,48.481182,-2.640498,90.37,32.11,9.648001,89.2,18 / 20,430011,2019-08-18 15:20:52:548,-0.2238,-0.753,10.1181,-0.3159,-0.4309,9.7921,0.0025,-0.0008,-0.0157
4301,48.481182,-2.640498,90.37,32.11,9.648001,89.2,18 / 20,430111,2019-08-18 15:20:52:648,-0.398,-0.6536,10.3408,-0.3196,-0.4292,9.792,-0.0012,-0.0053,-0.0166
4302,48.481182,-2.640498,90.37,32.11,9.648001,89.2,18 / 20,430212,2019-08-18 15:20:52:749,-0.5303,-0.7452,10.1457,-0.3204,-0.4362,9.7917,-0.0061,0.0053,-0.0189
4303,48.481182,-2.640498,90.37,32.11,9.648001,89.2,18 / 20,430311,2019-08-18 15:20:52:848,-0.6661,-0.6788,10.1355,-0.325,-0.4504,9.7909,-0.0191,-0.0097,-0.0197
4304,48.481182,-2.640498,90.37,32.11,9.648001,89.2,18 / 20,430411,2019-08-18 15:20:52:948,-0.371,-0.9164,10.1684,-0.3309,-0.4887,9.7889,-0.0105,-0.0044,-0.0202
4305,48.481182,-2.640498,90.37,32.11,9.648001,89.2,18 / 20,430511,2019-08-18 15:20:53:048,-0.55,-0.7572,9.786,-0.3326,-0.4996,9.7883,-0.0074,-0.0078,-0.0175
4306,48.481182,-2.640498,90.37,32.11,9.648001,89.2,18 / 20,430611,2019-08-18 15:20:53:148,-0.6362,-0.7248,10.0595,-0.3352,-0.5084,9.7877,-0.0013,-0.0022,-0.0158
4307,48.481182,-2.640498,90.37,32.11,9.648001,89.2,18 / 20,430711,2019-08-18 15:20:53:248,-0.6308,-0.8176,10.1361,-0.345,-0.521,9.7867,-0.0045,-0.0058,-0.0122
4308,48.481182,-2.640498,90.37,32.11,9.648001,89.2,18 / 20,430811,2019-08-18 15:20:53:348,-1.0893,-0.6063,10.1636,-0.3508,-0.5258,9.7863,0.0,-0.0028,-0.0138
4309,48.481182,-2.640498,90.37,32.11,9.648001,89.2,18 / 20,430912,2019-08-18 15:20:53:449,-0.9145,-0.7308,10.0774,-0.3609,-0.5348,9.7854,-0.0052,-0.0056,-0.0138
4310,48.481182,-2.640498,90.37,32.11,9.648001,89.2,18 / 20,431011,2019-08-18 15:20:53:548,-0.893,-0.6422,10.029,-0.3659,-0.5378,9.7851,-0.0025,-0.0058,-0.0139
4311,48.481182,-2.640498,90.37,32.11,9.648001,89.2,18 / 20,431111,2019-08-18 15:20:53:648,-0.9756,-0.5932,9.847,-0.3756,-0.5468,9.7842,-0.0011,-0.0016,-0.0149
4312,48.481182,-2.640498,90.37,32.11,9.648001,89.2,18 / 20,431211,2019-08-18 15:20:53:748,-0.9708,-0.8009,9.4591,-0.3842,-0.5526,9.7835,0.0017,0.0024,-0.0153
4313,48.481182,-2.640498,90.37,32.11,9.648001,89.2,18 / 20,431311,2019-08-18 15:20:53:848,-1.0324,-0.5728,10.032,-0.3988,-0.5636,9.7823,-0.0083,-0.0008,-0.0166
4314,48.481182,-2.640498,90.37,32.11,9.648001,89.2,18 / 20,431411,2019-08-18 15:20:53:948,-1.1234,-0.729,9.8123,-0.4054,-0.5756,9.7813,-0.0037,-0.0019,-0.0171
4315,48.481182,-2.640498,90.37,32.11,9.648001,89.2,18 / 20,431511,2019-08-18 15:20:54:048,-1.1539,-0.4872,9.7554,-0.4134,-0.5896,9.7802,-0.0059,-0.0101,-0.0162
4316,48.481182,-2.640498,90.37,32.11,9.648001,89.2,18 / 20,431611,2019-08-18 15:20:54:148,-1.1294,-0.7404,9.7219,-0.4149,-0.5974,9.7796,-0.0019,-0.0049,-0.0148
4317,48.481182,-2.640498,90.37,32.11,9.648001,89.2,18 / 20,431711,2019-08-18 15:20:54:248,-0.8804,-0.5465,9.7039,-0.4269,-0.6045,9.7787,-0.0026,0.0011,-0.011
4318,48.481182,-2.640498,90.37,32.11,9.648001,89.2,18 / 20,431811,2019-08-18 15:20:54:348,-1.2455,-0.7231,9.8757,-0.4356,-0.6077,9.7781,-0.0019,0.0117,-0.0113
4319,48.481182,-2.640498,90.37,32.11,9.648001,89.2,18 / 20,431911,2019-08-18 15:20:54:448,-1.1683,-0.6973,9.6968,-0.4581,-0.6153,9.7766,-0.0043,-0.0026,-0.0104
4320,48.481182,-2.640498,90.37,32.11,9.648001,89.2,18 / 20,432011,2019-08-18 15:20:54:548,-1.2264,-0.3729,9.8877,-0.4643,-0.6192,9.7761,-0.0053,-0.0003,-0.0082
4321,48.481182,-2.640498,90.37,32.11,9.648001,89.2,18 / 20,432111,2019-08-18 15:20:54:648,-0.7649,-0.7117,10.3246,-0.4797,-0.6224,9.7751,0.0006,0.0018,-0.0088
4322,48.481182,-2.640498,90.37,32.11,9.648001,89.2,19 / 20,432211,2019-08-18 15:20:54:748,-0.9055,-0.6446,9.6537,-0.4866,-0.6226,9.7748,-0.0083,-0.0025,-0.008
4323,48.481182,-2.640498,90.37,32.11,9.648001,89.2,19 / 20,432312,2019-08-18 15:20:54:849,-1.2743,-0.5662,9.95,-0.5014,-0.6279,9.7737,0.0007,0.004,-0.0086
4324,48.481182,-2.640498,90.37,32.11,9.648001,89.2,19 / 20,432411,2019-08-18 15:20:54:948,-1.2222,-0.5303,9.7309,-0.5078,-0.628,9.7733,-0.0006,-0.0051,-0.0076
4325,48.481182,-2.640498,90.37,32.11,9.648001,89.2,19 / 20,432511,2019-08-18 15:20:55:048,-1.1971,-0.4806,10.2989,-0.5164,-0.627,9.773,0.0007,-0.0026,-0.0093
4326,48.481182,-2.640498,90.37,32.11,9.648001,89.2,19 / 20,432611,2019-08-18 15:20:55:148,-0.9822,-0.6907,10.0092,-0.5208,-0.6247,9.7729,0.0048,0.0017,-0.0086
4327,48.481182,-2.640498,90.37,32.11,9.648001,89.2,19 / 20,432712,2019-08-18 15:20:55:249,-0.7918,-0.8368,10.0212,-0.5381,-0.6219,9.7721,0.0038,0.0095,-0.0091
4328,48.481182,-2.640498,90.37,32.11,9.648001,89.2,19 / 20,432811,2019-08-18 15:20:55:348,-1.0953,-0.6393,9.5597,-0.5556,-0.6174,9.7714,0.0049,0.0087,-0.0079
4329,48.481182,-2.640498,90.37,32.11,9.648001,89.2,19 / 20,432911,2019-08-18 15:20:55:448,-1.1958,-0.577,9.7895,-0.5713,-0.616,9.7706,0.0034,-0.0005,-0.0122
4330,48.481182,-2.640498,90.37,32.11,9.648001,89.2,19 / 20,433011,2019-08-18 15:20:55:548,-1.13,-0.5578,9.8656,-0.5736,-0.6175,9.7704,-0.0043,-0.0112,-0.013
4331,48.481182,-2.640498,90.37,32.11,9.648001,89.2,19 / 20,433111,2019-08-18 15:20:55:648,-1.0953,-0.6668,9.4017,-0.5773,-0.6262,9.7696,-0.007,-0.0022,-0.0111
4332,48.481182,-2.640498,90.37,32.11,9.648001,89.2,19 / 20,433211,2019-08-18 15:20:55:748,-0.7146,-0.7955,10.3031,-0.5844,-0.6296,9.769,-0.0042,0.0037,-0.0112
4333,48.481182,-2.640498,90.37,32.11,9.648001,89.2,19 / 20,433311,2019-08-18 15:20:55:848,-1.1994,-0.5782,10.2151,-0.5928,-0.6311,9.7683,0.0025,-0.0029,-0.01
4334,48.481182,-2.640498,90.37,32.11,9.648001,89.2,19 / 20,433411,2019-08-18 15:20:55:948,-1.1779,-0.4561,9.0623,-0.5948,-0.629,9.7684,-0.0077,0.0004,-0.0108
4335,48.481182,-2.640498,90.37,32.11,9.648001,89.2,19 / 20,433511,2019-08-18 15:20:56:048,-1.1474,-0.7763,9.683,-0.6085,-0.6353,9.7671,-0.0076,0.0046,-0.0105
4336,48.481182,-2.640498,90.37,32.11,9.648001,89.2,19 / 20,433611,2019-08-18 15:20:56:148,-1.1216,-0.3513,9.9787,-0.6164,-0.6347,9.7667,0.0024,0.006,-0.0103
4337,48.481182,-2.640498,90.37,32.11,9.648001,89.2,19 / 20,433711,2019-08-18 15:20:56:248,-0.9504,-0.6704,9.8141,-0.6284,-0.6306,9.7662,-0.0025,-0.0028,-0.0093
4338,48.481182,-2.640498,90.37,32.11,9.648001,89.2,19 / 20,433811,2019-08-18 15:20:56:348,-0.7996,-0.6087,9.6674,-0.6357,-0.6345,9.7654,-0.0114,0.0075,-0.0113
4339,48.481182,-2.640498,90.37,32.11,9.648001,89.2,19 / 20,433911,2019-08-18 15:20:56:448,-1.1384,-0.577,9.7746,-0.653,-0.6499,9.7633,-0.0125,0.0011,-0.0126
4340,48.481182,-2.640498,90.37,32.11,9.648001,89.2,19 / 20,434011,2019-08-18 15:20:56:548,-1.464,-0.6375,9.6734,-0.6536,-0.6565,9.7628,-0.0128,-0.0135,-0.0157
4341,48.481182,-2.640498,90.37,32.11,9.648001,89.2,19 / 20,434111,2019-08-18 15:20:56:648,-0.9941,-0.6764,9.9709,-0.6507,-0.6664,9.7623,-0.0053,-0.0129,-0.0148
4342,48.481182,-2.640498,90.37,32.11,9.648001,89.2,19 / 20,434211,2019-08-18 15:20:56:748,-1.0576,-0.6315,10.3612,-0.6376,-0.6709,9.7629,0.0025,-0.0186,-0.0127
4343,48.481182,-2.640498,90.37,32.11,9.648001,89.2,19 / 20,434312,2019-08-18 15:20:56:849,-1.0516,-0.4423,9.3556,-0.6359,-0.668,9.7632,0.0057,-0.0008,-0.0122
4344,48.481182,-2.640498,90.37,32.11,9.648001,89.2,19 / 20,434411,2019-08-18 15:20:56:948,-0.6973,-0.6171,9.8536,-0.6365,-0.67,9.763,-0.011,-0.0013,-0.017
4345,48.481182,-2.640498,90.37,32.11,9.648001,89.2,19 / 20,434511,2019-08-18 15:20:57:048,-0.8289,-0.8128,9.592,-0.6361,-0.6778,9.7625,-0.0183,-0.0082,-0.0193
4346,48.481182,-2.640498,90.37,32.11,9.648001,89.2,19 / 20,434611,2019-08-18 15:20:57:148,-0.2813,-0.5938,9.9936,-0.6271,-0.7,9.7615,-0.0073,-0.0065,-0.0197
4347,48.481182,-2.640498,90.37,32.11,9.648001,89.2,19 / 20,434711,2019-08-18 15:20:57:248,-0.5027,-0.7224,10.002,-0.6174,-0.7031,9.7619,0.0044,-0.0123,-0.0139
4348,48.481182,-2.640498,90.37,32.11,9.648001,89.2,19 / 20,434811,2019-08-18 15:20:57:348,-0.8607,-0.8715,9.3939,-0.6021,-0.7008,9.763,0.0002,-0.003,-0.012
4349,48.481182,-2.640498,90.37,32.11,9.648001,89.2,19 / 20,434911,2019-08-18 15:20:57:448,-0.562,-0.4986,9.2305,-0.6042,-0.7005,9.7629,-0.0026,0.0084,-0.0125
4350,48.481182,-2.640498,90.37,32.11,9.648001,89.2,19 / 20,435011,2019-08-18 15:20:57:548,-0.7003,-0.583,9.3718,-0.6185,-0.6971,9.7623,-0.0007,0.011,-0.013
4351,48.481182,-2.640498,90.37,32.11,9.648001,89.2,19 / 20,435111,2019-08-18 15:20:57:648,-0.7332,-0.7225,9.7087,-0.6207,-0.6975,9.7621,-0.007,-0.0031,-0.014
4352,48.481182,-2.640498,90.37,32.11,9.648001,89.2,19 / 20,435212,2019-08-18 15:20:57:749,-0.5662,-0.3669,9.5633,-0.6066,-0.6968,9.763,0.0012,-0.0253,-0.0126
4353,48.481182,-2.640498,90.37,32.11,9.648001,89.2,19 / 20,435311,2019-08-18 15:20:57:848,-0.4698,-0.2771,10.4509,-0.5844,-0.6937,9.7646,0.0013,-0.0251,-0.0112
4354,48.481182,-2.640498,90.37,32.11,9.648001,89.2,19 / 20,435411,2019-08-18 15:20:57:948,-0.7942,-0.6428,10.6922,-0.5667,-0.6873,9.7661,-0.0019,-0.0105,-0.0076
4355,48.481182,-2.640498,90.37,32.11,9.648001,89.2,19 / 20,435511,2019-08-18 15:20:58:048,-0.5099,-0.6345,10.1032,-0.5673,-0.6811,9.7665,0.0059,-0.0072,-0.0088
4356,48.481182,-2.640498,90.37,32.11,9.648001,89.2,19 / 20,435611,2019-08-18 15:20:58:148,-0.5099,-0.5124,9.8039,-0.5598,-0.6686,9.7678,-0.0019,-0.006,-0.0084
4357,48.481182,-2.640498,90.37,32.11,9.648001,89.2,19 / 20,435711,2019-08-18 15:20:58:248,-0.6254,-0.1024,9.0922,-0.5641,-0.6703,9.7674,-0.0025,-0.0004,-0.0133
4358,48.481182,-2.640498,90.37,32.11,9.648001,89.2,19 / 20,435811,2019-08-18 15:20:58:348,-0.48,-0.5812,9.6495,-0.5625,-0.6611,9.7682,0.0067,-0.0087,-0.0175
4359,48.481182,-2.640498,90.37,32.11,9.648001,89.2,19 / 20,435911,2019-08-18 15:20:58:448,-0.5063,-0.6722,9.8279,-0.557,-0.6558,9.7688,0.0067,-0.0087,-0.0175
4360,48.481182,-2.640498,90.37,32.11,9.648001,89.2,19 / 20,436011,2019-08-18 15:20:58:548,-0.3471,-0.428,9.5214,-0.5489,-0.6603,9.769,-0.0086,0.0043,-0.0185
4361,48.481182,-2.640498,90.37,32.11,9.648001,89.2,19 / 20,436111,2019-08-18 15:20:58:648,-0.471,-0.4585,9.3741,-0.5486,-0.6632,9.7688,-0.008,-0.0006,-0.0168
4362,48.481182,-2.640498,90.37,32.11,9.648001,89.2,19 / 20,436211,2019-08-18 15:20:58:748,-0.3734,-0.6117,9.355,-0.5428,-0.6703,9.7686,-0.008,-0.0002,-0.0168
4363,48.481182,-2.640498,90.37,32.11,9.648001,89.2,19 / 20,436311,2019-08-18 15:20:58:848,-0.4722,-0.3226,10.0176,-0.5353,-0.6749,9.7687,-0.0064,-0.01,-0.0141
4364,48.481182,-2.640498,90.37,32.11,9.648001,89.2,19 / 20,436412,2019-08-18 15:20:58:949,-0.5027,-0.3771,10.0828,-0.5269,-0.6748,9.7692,-0.0022,-0.0071,-0.013
4365,48.481182,-2.640498,90.37,32.11,9.648001,89.2,19 / 20,436511,2019-08-18 15:20:59:048,-0.538,-0.3771,10.1427,-0.5228,-0.6696,9.7698,0.0026,0.0004,-0.0142
4366,48.481182,-2.640498,90.37,32.11,9.648001,89.2,19 / 20,436611,2019-08-18 15:20:59:148,-0.5027,-0.2191,9.9416,-0.5161,-0.6591,9.7709,0.0061,0.0034,-0.0087
4367,48.481182,-2.640498,90.37,32.11,9.648001,89.2,19 / 20,436711,2019-08-18 15:20:59:248,-0.5548,-0.2137,9.7524,-0.5141,-0.6501,9.7716,-0.0073,0.0042,-0.007
4368,48.481182,-2.640498,90.37,32.11,9.648001,89.2,19 / 20,436811,2019-08-18 15:20:59:348,-0.702,-0.0574,10.0882,-0.5154,-0.6462,9.7718,-0.0083,-0.0012,-0.0063
4369,48.481182,-2.640498,90.37,32.11,9.648001,89.2,19 / 20,436911,2019-08-18 15:20:59:448,-0.6147,-0.5094,10.2295,-0.5153,-0.6433,9.772,-0.0042,-0.0103,-0.0059
4370,48.481182,-2.640498,90.37,32.11,9.648001,89.2,19 / 20,437011,2019-08-18 15:20:59:548,-0.5387,-0.3711,10.6526,-0.5054,-0.633,9.7731,0.0,-0.0061,-0.006
4371,48.481182,-2.640498,90.37,32.11,9.648001,89.2,19 / 20,437111,2019-08-18 15:20:59:648,-0.5518,-0.4256,10.081,-0.5001,-0.6278,9.7737,-0.0007,-0.0067,-0.0062
4372,48.481182,-2.640498,90.37,32.11,9.648001,89.2,18 / 20,437211,2019-08-18 15:20:59:748,-0.5057,-0.1293,9.8482,-0.495,-0.6154,9.7748,-0.0002,0.003,-0.0071
4373,48.481182,-2.640498,90.37,32.11,9.648001,89.2,18 / 20,437311,2019-08-18 15:20:59:848,-0.5093,-0.2406,10.4037,-0.4957,-0.6134,9.7749,0.0001,0.0016,-0.0054
4374,48.481182,-2.640498,90.37,32.11,9.648001,89.2,18 / 20,437411,2019-08-18 15:20:59:948,-0.6823,-0.234,9.9703,-0.4924,-0.5998,9.7759,0.0027,-0.0004,-0.0048
4375,48.481182,-2.640498,90.37,32.11,9.648001,89.2,18 / 20,437511,2019-08-18 15:21:00:048,-0.4088,-0.4812,9.8859,-0.4923,-0.5929,9.7763,-0.0048,-0.0063,-0.0067
4376,48.481182,-2.640498,90.37,32.11,9.648001,89.2,18 / 20,437612,2019-08-18 15:21:00:149,-0.3968,-0.3286,10.0912,-0.4803,-0.5846,9.7774,-0.0058,-0.0086,-0.0069
4377,48.481182,-2.640498,90.37,32.11,9.648001,89.2,18 / 20,437711,2019-08-18 15:21:00:248,-0.5913,0.0162,10.0936,-0.477,-0.5805,9.7778,-0.0039,-0.0093,-0.0053
4378,48.481182,-2.640498,90.37,32.11,9.648001,89.2,18 / 20,437811,2019-08-18 15:21:00:348,-0.4046,-0.0515,9.777,-0.4697,-0.5732,9.7786,0.0013,-0.0023,-0.0028
4379,48.481182,-2.640498,90.37,32.11,9.648001,89.2,18 / 20,437911,2019-08-18 15:21:00:448,-0.4153,-0.0323,9.8524,-0.4619,-0.5647,9.7795,0.0017,0.0023,-0.0005
4380,48.481182,-2.640498,90.37,32.11,9.648001,89.2,18 / 20,438011,2019-08-18 15:21:00:548,-0.6147,0.1933,9.8093,-0.4618,-0.5511,9.7803,-0.0089,-0.0042,-0.0023
4381,48.481182,-2.640498,90.37,32.11,9.648001,89.2,18 / 20,438111,2019-08-18 15:21:00:648,-0.374,0.1329,10.1355,-0.4628,-0.5403,9.7808,-0.0068,-0.0011,-0.0035
4382,48.481068,-2.63674,91.3,30.02,9.648001,96.2,18 / 20,438212,2019-08-18 15:21:00:749,-0.3591,-0.0383,10.0086,-0.4609,-0.5371,9.7811,-0.013,-0.0103,-0.0057
4383,48.481068,-2.63674,91.3,30.02,9.648001,96.2,18 / 20,438312,2019-08-18 15:21:00:849,-0.2388,-0.261,10.3492,-0.4453,-0.5376,9.7818,-0.0158,-0.0135,-0.0095
4384,48.481068,-2.63674,91.3,30.02,9.648001,96.2,18 / 20,438411,2019-08-18 15:21:00:948,-0.1999,-0.2125,9.9787,-0.435,-0.5402,9.7821,-0.0099,-0.0062,-0.009
4385,48.481068,-2.63674,91.3,30.02,9.648001,96.2,18 / 20,438511,2019-08-18 15:21:01:048,-0.2358,-0.1329,10.3564,-0.4225,-0.5422,9.7825,-0.0106,-0.0007,-0.009
4386,48.481068,-2.63674,91.3,30.02,9.648001,96.2,18 / 20,438611,2019-08-18 15:21:01:148,-0.3118,-0.0706,10.1223,-0.4194,-0.542,9.7827,-0.0064,-0.0049,-0.0095
4387,48.481068,-2.63674,91.3,30.02,9.648001,96.2,18 / 20,438711,2019-08-18 15:21:01:248,-0.2124,-0.5531,10.0421,-0.4041,-0.5405,9.7834,-0.0072,-0.0079,-0.0094
4388,48.481068,-2.63674,91.3,30.02,9.648001,96.2,18 / 20,438811,2019-08-18 15:21:01:348,-0.2531,-0.1532,10.2558,-0.4009,-0.5361,9.7838,0.0011,-0.0058,-0.0095
4389,48.481068,-2.63674,91.3,30.02,9.648001,96.2,18 / 20,438911,2019-08-18 15:21:01:448,-0.2765,-0.1185,9.835,-0.3848,-0.524,9.7851,0.0087,-0.0037,-0.0095
4390,48.481068,-2.63674,91.3,30.02,9.648001,96.2,18 / 20,439011,2019-08-18 15:21:01:548,-0.0347,-0.2879,9.9565,-0.3781,-0.5115,9.786,0.0158,0.009,-0.0103
4391,48.481068,-2.63674,91.3,30.02,9.648001,96.2,18 / 20,439111,2019-08-18 15:21:01:648,-0.2226,-0.1478,9.847,-0.3787,-0.4915,9.787,0.0002,0.0085,-0.0106
4392,48.481068,-2.63674,91.3,30.02,9.648001,96.2,17 / 20,439211,2019-08-18 15:21:01:748,-0.2052,-0.085,9.5004,-0.3758,-0.4863,9.7874,0.0007,0.0038,-0.0107
4393,48.481068,-2.63674,91.3,30.02,9.648001,96.2,17 / 20,439312,2019-08-18 15:21:01:849,-0.4584,-0.0168,10.0924,-0.3731,-0.4778,9.7879,-0.0102,-0.0051,-0.0108
4394,48.481068,-2.63674,91.3,30.02,9.648001,96.2,17 / 20,439411,2019-08-18 15:21:01:948,-0.1065,-0.2981,10.1936,-0.3634,-0.4802,9.7881,-0.007,-0.0024,-0.0103
4395,48.481068,-2.63674,91.3,30.02,9.648001,96.2,17 / 20,439511,2019-08-18 15:21:02:048,-0.3477,-0.1233,10.175,-0.3617,-0.4746,9.7885,-0.0011,-0.0058,-0.0094
4396,48.481068,-2.63674,91.3,30.02,9.648001,96.2,17 / 20,439611,2019-08-18 15:21:02:148,-0.1939,-0.4711,10.2696,-0.3574,-0.4716,9.7888,-0.0003,-0.0025,-0.0107
4397,48.481068,-2.63674,91.3,30.02,9.648001,96.2,17 / 20,439712,2019-08-18 15:21:02:249,-0.2202,-0.4333,9.9571,-0.3466,-0.4661,9.7894,-0.0043,-0.0085,-0.0123
4398,48.481068,-2.63674,91.3,30.02,9.648001,96.2,17 / 20,439812,2019-08-18 15:21:02:349,-0.2346,-0.2239,10.0595,-0.3425,-0.4646,9.7897,-0.0049,-0.0039,-0.0135
4399,48.481068,-2.63674,91.3,30.02,9.648001,96.2,17 / 20,439911,2019-08-18 15:21:02:448,-0.3411,-0.3154,10.081,-0.3295,-0.4703,9.7898,-0.0038,-0.0031,-0.0148
4400,48.481068,-2.63674,91.3,30.02,9.648001,96.2,17 / 20,440011,2019-08-18 15:21:02:548,-0.4764,-0.2215,10.0373,-0.3237,-0.4731,9.7899,-0.0052,-0.0045,-0.0147
4401,48.481068,-2.63674,91.3,30.02,9.648001,96.2,17 / 20,440111,2019-08-18 15:21:02:648,-0.5404,-0.6321,9.8249,-0.3245,-0.4724,9.7899,0.0061,0.0016,-0.0147
4402,48.481068,-2.63674,91.3,30.02,9.648001,96.2,17 / 20,440211,2019-08-18 15:21:02:748,-0.5392,-0.2053,9.6351,-0.3243,-0.4712,9.79,-0.0034,0.006,-0.0167
4403,48.481068,-2.63674,91.3,30.02,9.648001,96.2,17 / 20,440311,2019-08-18 15:21:02:848,-0.5153,-0.4555,9.343,-0.3364,-0.4785,9.7892,-0.0056,0.0037,-0.0176
4404,48.481068,-2.63674,91.3,30.02,9.648001,96.2,17 / 20,440411,2019-08-18 15:21:02:948,-0.6542,-0.7386,9.7896,-0.3405,-0.4845,9.7888,-0.0001,0.0041,-0.0174
4405,48.481068,-2.63674,91.3,30.02,9.648001,96.2,17 / 20,440512,2019-08-18 15:21:03:049,-0.5075,-0.4926,9.2329,-0.343,-0.4867,9.7886,0.0025,0.0009,-0.0172
4406,48.481068,-2.63674,91.3,30.02,9.648001,96.2,17 / 20,440611,2019-08-18 15:21:03:148,-0.4495,-0.7865,9.7488,-0.3503,-0.4926,9.788,-0.0009,0.0037,-0.018
4407,48.481068,-2.63674,91.3,30.02,9.648001,96.2,17 / 20,440712,2019-08-18 15:21:03:249,-0.4357,-0.7213,9.844,-0.3607,-0.4954,9.7875,0.0049,0.0017,-0.0195
4408,48.481068,-2.63674,91.3,30.02,9.648001,96.2,17 / 20,440811,2019-08-18 15:21:03:348,-0.4686,-0.4974,9.0066,-0.3626,-0.5044,9.787,-0.008,0.0042,-0.0193
4409,48.481068,-2.63674,91.3,30.02,9.648001,96.2,17 / 20,440911,2019-08-18 15:21:03:448,-0.4435,-0.7566,9.8362,-0.3749,-0.518,9.7858,-0.0062,0.0004,-0.0193
4410,48.481068,-2.63674,91.3,30.02,9.648001,96.2,17 / 20,441012,2019-08-18 15:21:03:549,-0.4913,-0.6159,9.8494,-0.375,-0.5225,9.7855,0.003,-0.0022,-0.0147
4411,48.481068,-2.63674,91.3,30.02,9.648001,96.2,17 / 20,441112,2019-08-18 15:21:03:649,-0.4393,-0.8062,10.1086,-0.3753,-0.5245,9.7854,-0.0053,-0.0027,-0.0146
4412,48.481068,-2.63674,91.3,30.02,9.648001,96.2,17 / 20,441211,2019-08-18 15:21:03:748,-0.535,-0.6602,10.2899,-0.3731,-0.5286,9.7853,-0.0082,-0.0096,-0.0135
4413,48.481068,-2.63674,91.3,30.02,9.648001,96.2,17 / 20,441311,2019-08-18 15:21:03:848,-0.4914,-0.5082,9.6429,-0.3722,-0.5339,9.785,-0.0047,-0.0085,-0.0116
4414,48.481068,-2.63674,91.3,30.02,9.648001,96.2,17 / 20,441412,2019-08-18 15:21:03:949,-0.5572,-0.2071,9.7039,-0.3692,-0.5331,9.7852,-0.0029,-0.0076,-0.0062
4415,48.481068,-2.63674,91.3,30.02,9.648001,96.2,17 / 20,441511,2019-08-18 15:21:04:048,-0.474,-0.0191,9.8296,-0.3679,-0.5307,9.7854,0.0014,-0.0007,0.0015
4416,48.481068,-2.63674,91.3,30.02,9.648001,96.2,17 / 20,441612,2019-08-18 15:21:04:149,-0.5506,-0.1311,10.181,-0.371,-0.5195,9.7859,-0.0021,-0.0026,0.0017
4417,48.481068,-2.63674,91.3,30.02,9.648001,96.2,17 / 20,441711,2019-08-18 15:21:04:248,-0.6338,0.2191,10.3857,-0.3724,-0.51,9.7863,-0.0015,-0.0081,-0.0004
4418,48.481068,-2.63674,91.3,30.02,9.648001,96.2,17 / 20,441811,2019-08-18 15:21:04:348,-0.3645,-0.5423,9.8943,-0.3678,-0.4978,9.7871,-0.004,-0.0063,-0.001
4419,48.481068,-2.63674,91.3,30.02,9.648001,96.2,17 / 20,441911,2019-08-18 15:21:04:448,-0.4135,-0.2131,9.9212,-0.3675,-0.4925,9.7874,-0.0038,0.0009,-0.0011
4420,48.481068,-2.63674,91.3,30.02,9.648001,96.2,17 / 20,442011,2019-08-18 15:21:04:548,-0.6021,0.1263,9.5555,-0.3718,-0.4815,9.7878,-0.0038,-0.0017,-0.0013
4421,48.481068,-2.63674,91.3,30.02,9.648001,96.2,17 / 20,442111,2019-08-18 15:21:04:648,-0.3375,0.0964,10.0493,-0.3738,-0.4776,9.7879,-0.0038,-0.0009,0.0003
4422,48.481068,-2.63674,91.3,30.02,9.648001,96.2,18 / 20,442211,2019-08-18 15:21:04:748,-0.5081,0.2275,9.7363,-0.3754,-0.4667,9.7883,0.003,0.0018,-0.001
4423,48.481068,-2.63674,91.3,30.02,9.648001,96.2,18 / 20,442311,2019-08-18 15:21:04:848,-0.4632,0.1305,10.1409,-0.3783,-0.4611,9.7885,-0.0081,-0.002,-0.0033
4424,48.481068,-2.63674,91.3,30.02,9.648001,96.2,18 / 20,442411,2019-08-18 15:21:04:948,-0.3896,-0.0952,9.8326,-0.3809,-0.4508,9.7889,0.0007,-0.0004,-0.0028
4425,48.481068,-2.63674,91.3,30.02,9.648001,96.2,18 / 20,442511,2019-08-18 15:21:05:048,-0.6194,0.0712,9.3736,-0.3808,-0.4434,9.7892,-0.0129,-0.005,-0.0033
4426,48.481068,-2.63674,91.3,30.02,9.648001,96.2,18 / 20,442612,2019-08-18 15:21:05:149,-0.5548,0.2005,9.8865,-0.3825,-0.443,9.7892,-0.0008,-0.0029,-0.0011
4427,48.481068,-2.63674,91.3,30.02,9.648001,96.2,18 / 20,442711,2019-08-18 15:21:05:248,-0.6111,0.1299,9.8518,-0.3818,-0.4382,9.7894,0.0039,-0.0005,-0.0006
4428,48.481068,-2.63674,91.3,30.02,9.648001,96.2,18 / 20,442811,2019-08-18 15:21:05:348,-0.401,-0.091,9.938,-0.3779,-0.4194,9.7904,0.0007,-0.0081,0.0002
4429,48.481068,-2.63674,91.3,30.02,9.648001,96.2,18 / 20,442911,2019-08-18 15:21:05:448,-0.5057,-0.0305,10.0523,-0.3775,-0.4098,9.7908,-0.0045,-0.0093,0.0001
4430,48.481068,-2.63674,91.3,30.02,9.648001,96.2,18 / 20,443012,2019-08-18 15:21:05:549,-0.6356,0.2089,10.2007,-0.3702,-0.4051,9.7913,-0.0083,-0.01,-0.001
4431,48.481068,-2.63674,91.3,30.02,9.648001,96.2,18 / 20,443111,2019-08-18 15:21:05:648,-0.5907,0.082,9.8799,-0.3677,-0.4022,9.7915,-0.0065,-0.0071,-0.0018
4432,48.481068,-2.63674,91.3,30.02,9.648001,96.2,18 / 20,443211,2019-08-18 15:21:05:748,-0.401,-0.0694,10.1122,-0.3672,-0.3974,9.7917,-0.0052,0.0005,-0.0016
4433,48.481068,-2.63674,91.3,30.02,9.648001,96.2,18 / 20,443312,2019-08-18 15:21:05:849,-0.3417,-0.5812,9.3448,-0.3707,-0.3934,9.7917,-0.0035,-0.0001,-0.0035
4434,48.481068,-2.63674,91.3,30.02,9.648001,96.2,18 / 20,443411,2019-08-18 15:21:05:948,-0.2047,-0.5387,9.9823,-0.3716,-0.3979,9.7915,-0.0065,0.0056,-0.0126
4435,48.481068,-2.63674,91.3,30.02,9.648001,96.2,18 / 20,443512,2019-08-18 15:21:06:049,-0.289,-0.5788,10.163,-0.3738,-0.4013,9.7913,-0.0054,-0.0013,-0.018
4436,48.481068,-2.63674,91.3,30.02,9.648001,96.2,18 / 20,443611,2019-08-18 15:21:06:148,-0.3902,-0.3442,9.9793,-0.3686,-0.409,9.7912,-0.0053,-0.0103,-0.0194
4437,48.481068,-2.63674,91.3,30.02,9.648001,96.2,18 / 20,443711,2019-08-18 15:21:06:248,-0.2813,-0.3513,9.4155,-0.3625,-0.411,9.7913,-0.0046,-0.0044,-0.0195
4438,48.481068,-2.63674,91.3,30.02,9.648001,96.2,18 / 20,443811,2019-08-18 15:21:06:348,-0.3345,-0.3089,10.0439,-0.3498,-0.4195,9.7914,-0.0076,-0.0042,-0.017
4439,48.481068,-2.63674,91.3,30.02,9.648001,96.2,18 / 20,443911,2019-08-18 15:21:06:448,-0.3681,-0.5118,10.0978,-0.3495,-0.4227,9.7913,0.0016,-0.0127,-0.0166
4440,48.481068,-2.63674,91.3,30.02,9.648001,96.2,18 / 20,444011,2019-08-18 15:21:06:548,-0.2693,-0.4926,10.4797,-0.3312,-0.4257,9.7918,-0.001,-0.0086,-0.0157
4441,48.481068,-2.63674,91.3,30.02,9.648001,96.2,18 / 20,444111,2019-08-18 15:21:06:648,-0.1442,-0.6225,10.0367,-0.3252,-0.429,9.7919,-0.0037,-0.0018,-0.0157
4442,48.481068,-2.63674,91.3,30.02,9.648001,96.2,17 / 20,444211,2019-08-18 15:21:06:748,-0.243,-0.7308,10.3384,-0.3239,-0.4386,9.7915,-0.0072,-0.0044,-0.0196
4443,48.481068,-2.63674,91.3,30.02,9.648001,96.2,17 / 20,444311,2019-08-18 15:21:06:848,-0.1957,-0.5417,10.1271,-0.3172,-0.4455,9.7914,-0.0037,-0.0031,-0.0192
4444,48.481068,-2.63674,91.3,30.02,9.648001,96.2,17 / 20,444411,2019-08-18 15:21:06:948,-0.4141,-0.4465,9.9033,-0.3154,-0.4529,9.7911,-0.0062,0.0012,-0.0166
4445,48.481068,-2.63674,91.3,30.02,9.648001,96.2,17 / 20,444511,2019-08-18 15:21:07:048,-0.4572,-0.4483,10.0475,-0.3189,-0.4588,9.7907,-0.0026,-0.0027,-0.0171
4446,48.481068,-2.63674,91.3,30.02,9.648001,96.2,17 / 20,444611,2019-08-18 15:21:07:148,-0.4435,-0.4986,10.3671,-0.316,-0.4599,9.7908,0.0008,-0.0038,-0.0171
4447,48.481068,-2.63674,91.3,30.02,9.648001,96.2,17 / 20,444711,2019-08-18 15:21:07:248,-0.1681,-0.3735,9.8009,-0.3121,-0.4626,9.7908,-0.0108,-0.001,-0.0174
4448,48.481068,-2.63674,91.3,30.02,9.648001,96.2,17 / 20,444811,2019-08-18 15:21:07:348,-0.4165,-0.1245,9.498,-0.3093,-0.4813,9.7899,-0.0084,-0.005,-0.0171
4449,48.481068,-2.63674,91.3,30.02,9.648001,96.2,17 / 20,444912,2019-08-18 15:21:07:449,-0.4794,-0.4507,9.534,-0.3079,-0.4848,9.7898,-0.0038,-0.0028,-0.0164
4450,48.481068,-2.63674,91.3,30.02,9.648001,96.2,17 / 20,445011,2019-08-18 15:21:07:548,-0.4614,-0.65,9.7878,-0.3068,-0.4867,9.7898,0.0009,-0.0156,-0.0139
4451,48.481068,-2.63674,91.3,30.02,9.648001,96.2,17 / 20,445111,2019-08-18 15:21:07:648,-0.41,-0.5213,9.5926,-0.2906,-0.4827,9.7905,0.0079,-0.0035,-0.0121
4452,48.481068,-2.63674,91.3,30.02,9.648001,96.2,17 / 20,445211,2019-08-18 15:21:07:748,-0.3884,-0.5076,9.3041,-0.2893,-0.4794,9.7907,-0.0006,0.0034,-0.0127
4453,48.481068,-2.63674,91.3,30.02,9.648001,96.2,17 / 20,445311,2019-08-18 15:21:07:848,-0.3315,-0.6823,9.6686,-0.2949,-0.4787,9.7905,-0.0076,0.0013,-0.0131
4454,48.481068,-2.63674,91.3,30.02,9.648001,96.2,17 / 20,445411,2019-08-18 15:21:07:948,-0.3004,-0.6069,9.8129,-0.2954,-0.4834,9.7903,-0.0107,-0.01,-0.0135
4455,48.481068,-2.63674,91.3,30.02,9.648001,96.2,17 / 20,445511,2019-08-18 15:21:08:048,-0.4854,-0.4555,10.2103,-0.2865,-0.4909,9.7902,-0.013,-0.0076,-0.0165
4456,48.481068,-2.63674,91.3,30.02,9.648001,96.2,17 / 20,445611,2019-08-18 15:21:08:148,-0.2442,-0.3597,9.8308,-0.2778,-0.4968,9.7901,-0.013,-0.0076,-0.0165
4457,48.481068,-2.63674,91.3,30.02,9.648001,96.2,17 / 20,445711,2019-08-18 15:21:08:248,-0.1077,-0.5375,9.677,-0.278,-0.5121,9.7893,-0.0155,0.0027,-0.0139
4458,48.481068,-2.63674,91.3,30.02,9.648001,96.2,17 / 20,445812,2019-08-18 15:21:08:349,0.0031,-0.6069,10.1864,-0.2823,-0.5109,9.7893,0.0012,-0.0007,-0.0117
4459,48.481068,-2.63674,91.3,30.02,9.648001,96.2,17 / 20,445911,2019-08-18 15:21:08:448,-0.076,-0.3196,10.2432,-0.2764,-0.5002,9.79,0.0103,-0.0035,-0.0112
4460,48.481068,-2.63674,91.3,30.02,9.648001,96.2,17 / 20,446011,2019-08-18 15:21:08:548,-0.0556,-0.2568,10.3468,-0.2723,-0.4946,9.7904,0.0035,-0.0058,-0.0117
4461,48.481068,-2.63674,91.3,30.02,9.648001,96.2,17 / 20,446112,2019-08-18 15:21:08:649,-0.3339,0.0665,10.3426,-0.2604,-0.4852,9.7912,-0.001,-0.0118,-0.0111
4462,48.481068,-2.63674,91.3,30.02,9.648001,96.2,17 / 20,446211,2019-08-18 15:21:08:748,-0.2801,-0.088,9.8973,-0.2555,-0.4815,9.7915,-0.0027,0.0011,-0.0121
4463,48.481068,-2.63674,91.3,30.02,9.648001,96.2,17 / 20,446312,2019-08-18 15:21:08:849,-0.2956,-0.1071,9.9739,-0.2528,-0.4799,9.7916,0.0003,-0.0023,-0.0127
4464,48.481068,-2.63674,91.3,30.02,9.648001,96.2,17 / 20,446411,2019-08-18 15:21:08:948,-0.2118,-0.0754,9.5968,-0.2519,-0.4779,9.7918,-0.0033,-0.0015,-0.013
4465,48.481068,-2.63674,91.3,30.02,9.648001,96.2,17 / 20,446511,2019-08-18 15:21:09:048,-0.3561,-0.1784,9.6722,-0.2476,-0.4766,9.7919,-0.0047,-0.0008,-0.0123
4466,48.481068,-2.63674,91.3,30.02,9.648001,96.2,17 / 20,446611,2019-08-18 15:21:09:148,-0.2537,-0.3358,9.7405,-0.2457,-0.4753,9.792,0.0005,-0.004,-0.0131
4467,48.481068,-2.63674,91.3,30.02,9.648001,96.2,17 / 20,446711,2019-08-18 15:21:09:248,-0.3591,-0.149,9.5771,-0.243,-0.4681,9.7925,-0.0038,-0.0043,-0.0139
4468,48.481068,-2.63674,91.3,30.02,9.648001,96.2,17 / 20,446811,2019-08-18 15:21:09:348,-0.1837,-0.4483,9.4346,-0.2376,-0.4735,9.7923,-0.0091,-0.0044,-0.0145
4469,48.481068,-2.63674,91.3,30.02,9.648001,96.2,17 / 20,446911,2019-08-18 15:21:09:448,-0.3698,-0.4459,9.364,-0.234,-0.4741,9.7924,-0.001,0.0008,-0.0148
4470,48.481068,-2.63674,91.3,30.02,9.648001,96.2,17 / 20,447011,2019-08-18 15:21:09:548,-0.1125,-0.7847,9.5896,-0.2343,-0.4739,9.7924,-0.0009,0.0006,-0.0142
4471,48.481068,-2.63674,91.3,30.02,9.648001,96.2,17 / 20,447111,2019-08-18 15:21:09:648,-0.4812,-0.5064,9.9075,-0.2331,-0.4713,9.7925,0.0007,-0.0026,-0.0138
4472,48.480682,-2.63302,91.57,30.73,3.216,100.7,17 / 20,447211,2019-08-18 15:21:09:748,-0.468,-0.5626,9.61,-0.2294,-0.4705,9.7927,0.003,0.0006,-0.0118
4473,48.480682,-2.63302,91.57,30.73,3.216,100.7,17 / 20,447311,2019-08-18 15:21:09:848,-0.3866,-0.5447,9.619,-0.2342,-0.4702,9.7926,-0.0031,0.0057,-0.0104
4474,48.480682,-2.63302,91.57,30.73,3.216,100.7,17 / 20,447411,2019-08-18 15:21:09:948,-0.052,-0.5094,10.0864,-0.2422,-0.464,9.7927,0.0075,0.0064,-0.0087
4475,48.480682,-2.63302,91.57,30.73,3.216,100.7,17 / 20,447511,2019-08-18 15:21:10:048,-0.2932,-0.2041,9.8871,-0.2477,-0.4454,9.7934,0.0076,0.0013,-0.0028
4476,48.480682,-2.63302,91.57,30.73,3.216,100.7,17 / 20,447612,2019-08-18 15:21:10:149,-0.4512,0.0629,10.1451,-0.2507,-0.4409,9.7935,0.0,-0.0009,-0.0005
4477,48.480682,-2.63302,91.57,30.73,3.216,100.7,17 / 20,447711,2019-08-18 15:21:10:248,-0.4495,-0.082,10.1834,-0.2455,-0.4345,9.7939,-0.0031,0.0015,-0.0018
4478,48.480682,-2.63302,91.57,30.73,3.216,100.7,17 / 20,447812,2019-08-18 15:21:10:349,-0.4375,0.0994,9.8344,-0.256,-0.4263,9.794,0.0046,0.0038,0.0032
4479,48.480682,-2.63302,91.57,30.73,3.216,100.7,17 / 20,447911,2019-08-18 15:21:10:448,-0.5596,-0.0425,10.3707,-0.2636,-0.4149,9.7943,0.0026,-0.0009,0.0004
4480,48.480682,-2.63302,91.57,30.73,3.216,100.7,17 / 20,448012,2019-08-18 15:21:10:549,-0.6332,0.1084,10.5545,-0.2739,-0.3993,9.7947,0.0033,-0.0004,-0.0026
4481,48.480682,-2.63302,91.57,30.73,3.216,100.7,17 / 20,448111,2019-08-18 15:21:10:648,-0.5973,0.0192,9.8512,-0.278,-0.3907,9.7949,-0.0131,-0.0059,-0.0078
4482,48.480682,-2.63302,91.57,30.73,3.216,100.7,17 / 20,448211,2019-08-18 15:21:10:748,-0.4896,-0.2095,10.008,-0.2792,-0.3989,9.7946,-0.0186,-0.0099,-0.0116
4483,48.480682,-2.63302,91.57,30.73,3.216,100.7,17 / 20,448311,2019-08-18 15:21:10:848,-0.5662,-0.1514,9.8123,-0.278,-0.4069,9.7943,-0.0107,-0.0004,-0.0143
4484,48.480682,-2.63302,91.57,30.73,3.216,100.7,17 / 20,448411,2019-08-18 15:21:10:948,-0.6512,-0.2574,9.5417,-0.2822,-0.4259,9.7933,-0.0163,-0.0003,-0.0166
4485,48.480682,-2.63302,91.57,30.73,3.216,100.7,17 / 20,448511,2019-08-18 15:21:11:048,-0.4525,-0.31,10.0314,-0.2788,-0.4333,9.7931,-0.0084,-0.0037,-0.0137
4486,48.480682,-2.63302,91.57,30.73,3.216,100.7,17 / 20,448611,2019-08-18 15:21:11:148,-0.453,-0.1472,9.5699,-0.276,-0.4516,9.7924,-0.0059,-0.0042,-0.0141
4487,48.480682,-2.63302,91.57,30.73,3.216,100.7,17 / 20,448711,2019-08-18 15:21:11:248,-0.4117,-0.3627,9.7021,-0.2734,-0.4567,9.7922,-0.0059,-0.0111,-0.0147
4488,48.480682,-2.63302,91.57,30.73,3.216,100.7,17 / 20,448812,2019-08-18 15:21:11:349,-0.4764,-0.346,9.1497,-0.2655,-0.464,9.7921,-0.0143,-0.0125,-0.0151
4489,48.480682,-2.63302,91.57,30.73,3.216,100.7,17 / 20,448911,2019-08-18 15:21:11:448,-0.5332,-0.343,8.9977,-0.2582,-0.4748,9.7917,-0.0114,-0.0038,-0.0144
4490,48.480682,-2.63302,91.57,30.73,3.216,100.7,17 / 20,449011,2019-08-18 15:21:11:548,-0.5213,-0.4669,9.4998,-0.2605,-0.4853,9.7912,-0.0074,0.0011,-0.0148
4491,48.480682,-2.63302,91.57,30.73,3.216,100.7,17 / 20,449111,2019-08-18 15:21:11:648,-0.5045,-0.8027,10.1062,-0.2663,-0.4815,9.7912,0.0052,-0.0046,-0.0121
4492,48.480682,-2.63302,91.57,30.73,3.216,100.7,17 / 20,449211,2019-08-18 15:21:11:748,-0.3315,-0.4268,10.1906,-0.2632,-0.4759,9.7916,0.0006,-0.006,-0.0126
4493,48.480682,-2.63302,91.57,30.73,3.216,100.7,17 / 20,449311,2019-08-18 15:21:11:848,-0.5261,-0.3436,10.023,-0.2656,-0.474,9.7916,0.0033,-0.0007,-0.0119
4494,48.480682,-2.63302,91.57,30.73,3.216,100.7,17 / 20,449411,2019-08-18 15:21:11:948,-0.3621,-0.404,10.3163,-0.2683,-0.4708,9.7917,-0.005,-0.0045,-0.0107
4495,48.480682,-2.63302,91.57,30.73,3.216,100.7,17 / 20,449512,2019-08-18 15:21:12:049,-0.4638,-0.2532,10.3013,-0.2696,-0.4715,9.7916,-0.004,-0.0049,-0.0109
4496,48.480682,-2.63302,91.57,30.73,3.216,100.7,17 / 20,449611,2019-08-18 15:21:12:148,-0.2926,-0.249,10.3246,-0.2719,-0.4702,9.7916,-0.0019,-0.0081,-0.0089
4497,48.480682,-2.63302,91.57,30.73,3.216,100.7,17 / 20,449711,2019-08-18 15:21:12:248,-0.4064,-0.319,10.0565,-0.2718,-0.4698,9.7916,-0.0023,0.0024,-0.0088
4498,48.480682,-2.63302,91.57,30.73,3.216,100.7,17 / 20,449811,2019-08-18 15:21:12:348,-0.4525,-0.2646,10.3779,-0.2768,-0.4706,9.7914,-0.0066,-0.0049,-0.0079
4499,48.480682,-2.63302,91.57,30.73,3.216,100.7,17 / 20,449911,2019-08-18 15:21:12:448,-0.4938,-0.1532,10.2421,-0.2779,-0.4695,9.7915,0.0021,0.0069,-0.0083
4500,48.480682,-2.63302,91.57,30.73,3.216,100.7,17 / 20,450012,2019-08-18 15:21:12:549,-0.5333,-0.1125,9.774,-0.2895,-0.465,9.7913,0.0013,0.004,-0.0072
4501,48.480682,-2.63302,91.57,30.73,3.216,100.7,17 / 20,450111,2019-08-18 15:21:12:648,-0.6925,-0.0982,10.2546,-0.297,-0.4587,9.7914,0.009,0.0076,-0.0055
4502,48.480682,-2.63302,91.57,30.73,3.216,100.7,18 / 20,450212,2019-08-18 15:21:12:749,-0.5835,0.0,10.1068,-0.3016,-0.4382,9.7922,0.013,-0.0001,-0.0044
4503,48.480682,-2.63302,91.57,30.73,3.216,100.7,18 / 20,450311,2019-08-18 15:21:12:848,-0.6266,-0.1095,9.6046,-0.3063,-0.4327,9.7923,-0.0026,-0.0036,-0.0047
4504,48.480682,-2.63302,91.57,30.73,3.216,100.7,18 / 20,450411,2019-08-18 15:21:12:948,-0.7014,-0.009,9.9063,-0.3125,-0.4335,9.7921,-0.0049,-0.0058,-0.0053
4505,48.480682,-2.63302,91.57,30.73,3.216,100.7,18 / 20,450511,2019-08-18 15:21:13:048,-0.717,0.0665,9.5082,-0.3155,-0.4322,9.792,-0.0066,-0.0095,-0.0053
4506,48.480682,-2.63302,91.57,30.73,3.216,100.7,18 / 20,450611,2019-08-18 15:21:13:148,-0.5075,-0.4369,9.209,-0.3235,-0.4364,9.7916,-0.0096,-0.002,-0.004
4507,48.480682,-2.63302,91.57,30.73,3.216,100.7,18 / 20,450711,2019-08-18 15:21:13:248,-0.6985,-0.0102,9.4244,-0.3314,-0.4385,9.7912,-0.0087,0.0005,-0.0009
4508,48.480682,-2.63302,91.57,30.73,3.216,100.7,18 / 20,450811,2019-08-18 15:21:13:348,-0.6039,-0.2472,9.5423,-0.3272,-0.4421,9.7912,-0.0097,-0.0257,-0.0049
4509,48.480682,-2.63302,91.57,30.73,3.216,100.7,18 / 20,450911,2019-08-18 15:21:13:448,-0.7709,-0.1071,9.6842,-0.3205,-0.4413,9.7915,-0.0031,-0.0175,-0.0043
4510,48.480682,-2.63302,91.57,30.73,3.216,100.7,18 / 20,451011,2019-08-18 15:21:13:548,-0.6326,-0.2939,9.8398,-0.3125,-0.437,9.7919,-0.0072,-0.0069,-0.0038
4511,48.480682,-2.63302,91.57,30.73,3.216,100.7,18 / 20,451111,2019-08-18 15:21:13:648,-0.5895,-0.1293,9.5777,-0.314,-0.4324,9.7921,-0.0048,0.0004,-0.0033
4512,48.480682,-2.63302,91.57,30.73,3.216,100.7,18 / 20,451211,2019-08-18 15:21:13:748,-0.5698,-0.2987,9.3346,-0.3152,-0.4328,9.792,-0.0073,-0.0008,-0.0026
4513,48.480682,-2.63302,91.57,30.73,3.216,100.7,18 / 20,451311,2019-08-18 15:21:13:848,-0.629,-0.2999,9.3741,-0.3216,-0.4323,9.7918,-0.0022,0.0017,-0.0024
4514,48.480682,-2.63302,91.57,30.73,3.216,100.7,18 / 20,451411,2019-08-18 15:21:13:948,-0.5548,-0.2675,10.3408,-0.3253,-0.4262,9.792,0.0007,-0.0166,-0.0021
4515,48.480682,-2.63302,91.57,30.73,3.216,100.7,18 / 20,451511,2019-08-18 15:21:14:048,-0.6272,-0.1694,10.4755,-0.3109,-0.4142,9.793,0.0072,-0.0091,-0.0025
4516,48.480682,-2.63302,91.57,30.73,3.216,100.7,18 / 20,451611,2019-08-18 15:21:14:148,-0.5482,-0.1652,10.0343,-0.3066,-0.4077,9.7934,-0.0028,-0.0159,-0.0029
4517,48.480682,-2.63302,91.57,30.73,3.216,100.7,18 / 20,451711,2019-08-18 15:21:14:248,-0.4411,-0.185,9.8757,-0.2999,-0.3968,9.794,-0.0072,-0.0084,-0.0033
4518,48.480682,-2.63302,91.57,30.73,3.216,100.7,18 / 20,451811,2019-08-18 15:21:14:348,-0.4267,-0.264,9.7123,-0.2971,-0.3937,9.7942,0.0043,0.0003,-0.0007
4519,48.480682,-2.63302,91.57,30.73,3.216,100.7,18 / 20,451912,2019-08-18 15:21:14:449,-0.0688,-0.2095,9.3412,-0.3028,-0.3881,9.7943,-0.0117,-0.003,-0.0043
4520,48.480682,-2.63302,91.57,30.73,3.216,100.7,18 / 20,452011,2019-08-18 15:21:14:548,-0.6548,-0.1622,9.8656,-0.3125,-0.3891,9.7939,-0.0113,0.0055,-0.0048
4521,48.480682,-2.63302,91.57,30.73,3.216,100.7,18 / 20,452111,2019-08-18 15:21:14:648,-0.6308,-0.34,9.5789,-0.3292,-0.3949,9.7932,-0.0086,0.0054,-0.0029
4522,48.480682,-2.63302,91.57,30.73,3.216,100.7,18 / 20,452211,2019-08-18 15:21:14:748,-0.5937,-0.5058,10.017,-0.3426,-0.3972,9.7926,-0.0018,0.0004,-0.0042
4523,48.480682,-2.63302,91.57,30.73,3.216,100.7,18 / 20,452311,2019-08-18 15:21:14:848,-0.6081,-0.0605,10.1235,-0.3607,-0.406,9.7916,-0.0159,-0.0148,-0.0058
4524,48.480682,-2.63302,91.57,30.73,3.216,100.7,18 / 20,452411,2019-08-18 15:21:14:948,-0.8038,-0.4669,10.0583,-0.3626,-0.4139,9.7912,-0.0055,-0.0075,-0.0072
4525,48.480682,-2.63302,91.57,30.73,3.216,100.7,18 / 20,452511,2019-08-18 15:21:15:048,-0.5009,-0.3011,10.3444,-0.3679,-0.4219,9.7907,-0.0041,-0.0116,-0.0063
4526,48.480682,-2.63302,91.57,30.73,3.216,100.7,18 / 20,452611,2019-08-18 15:21:15:148,-0.7864,-0.1802,10.0721,-0.3708,-0.4254,9.7904,0.0014,-0.0055,-0.0074
4527,48.480682,-2.63302,91.57,30.73,3.216,100.7,18 / 20,452711,2019-08-18 15:21:15:248,-0.5045,-0.4794,10.1654,-0.3936,-0.4353,9.7891,-0.0128,0.0056,-0.0051
4528,48.480682,-2.63302,91.57,30.73,3.216,100.7,18 / 20,452811,2019-08-18 15:21:15:348,-0.6667,-0.3196,9.2772,-0.4053,-0.4432,9.7882,-0.0116,0.0104,-0.0078
4529,48.480682,-2.63302,91.57,30.73,3.216,100.7,18 / 20,452911,2019-08-18 15:21:15:448,-0.8439,-0.1508,9.8476,-0.4344,-0.4553,9.7864,-0.0074,-0.0016,-0.0048
4530,48.480682,-2.63302,91.57,30.73,3.216,100.7,18 / 20,453011,2019-08-18 15:21:15:548,-1.0708,-0.51,10.0864,-0.4433,-0.4589,9.7859,0.0038,-0.0007,-0.004
4531,48.480682,-2.63302,91.57,30.73,3.216,100.7,18 / 20,453112,2019-08-18 15:21:15:649,-1.0797,-0.0575,9.8338,-0.4679,-0.4487,9.7852,0.0011,0.0008,0.0034
4532,48.480682,-2.63302,91.57,30.73,3.216,100.7,18 / 20,453211,2019-08-18 15:21:15:748,-0.9702,-0.1766,9.4113,-0.4828,-0.4465,9.7846,-0.0028,0.0015,0.002
4533,48.480682,-2.63302,91.57,30.73,3.216,100.7,18 / 20,453311,2019-08-18 15:21:15:848,-1.2491,0.0006,9.5657,-0.5025,-0.4472,9.7835,-0.0049,-0.0046,0.0026
4534,48.480682,-2.63302,91.57,30.73,3.216,100.7,18 / 20,453411,2019-08-18 15:21:15:948,-1.3778,-0.2807,10.0505,-0.5145,-0.4443,9.7831,-0.0034,-0.0071,0.0024
4535,48.480682,-2.63302,91.57,30.73,3.216,100.7,18 / 20,453511,2019-08-18 15:21:16:048,-1.2928,-0.2616,10.1942,-0.5254,-0.4446,9.7825,-0.0048,-0.0117,0.0015
4536,48.480682,-2.63302,91.57,30.73,3.216,100.7,18 / 20,453612,2019-08-18 15:21:16:149,-1.145,-0.4256,10.2486,-0.5251,-0.4462,9.7824,-0.0086,-0.0244,-0.0007
4537,48.480682,-2.63302,91.57,30.73,3.216,100.7,18 / 20,453712,2019-08-18 15:21:16:249,-1.0253,-0.4352,10.0188,-0.5355,-0.4622,9.7811,-0.0125,0.0078,-0.0025
4538,48.480682,-2.63302,91.57,30.73,3.216,100.7,18 / 20,453811,2019-08-18 15:21:16:348,-0.9899,-0.1682,10.0774,-0.546,-0.4657,9.7804,-0.0043,0.0015,-0.0002
4539,48.480682,-2.63302,91.57,30.73,3.216,100.7,18 / 20,453911,2019-08-18 15:21:16:448,-1.1127,-0.3508,10.2456,-0.5587,-0.4648,9.7797,-0.0025,-0.0129,-0.0013
4540,48.480682,-2.63302,91.57,30.73,3.216,100.7,18 / 20,454011,2019-08-18 15:21:16:548,-0.7649,-0.2765,10.0888,-0.5571,-0.4631,9.7799,-0.0072,-0.0103,-0.0004
4541,48.480682,-2.63302,91.57,30.73,3.216,100.7,18 / 20,454111,2019-08-18 15:21:16:648,-0.7451,-0.2125,9.9039,-0.5594,-0.4666,9.7796,-0.0088,-0.0025,-0.0053
4542,48.480682,-2.63302,91.57,30.73,3.216,100.7,17 / 20,454211,2019-08-18 15:21:16:748,-1.3048,-0.6333,9.4424,-0.5621,-0.4725,9.7791,-0.0103,-0.0051,-0.009
4543,48.480682,-2.63302,91.57,30.73,3.216,100.7,17 / 20,454311,2019-08-18 15:21:16:848,-0.7793,-0.4202,9.1515,-0.5674,-0.4805,9.7784,-0.0081,-0.0022,-0.0111
4544,48.480682,-2.63302,91.57,30.73,3.216,100.7,17 / 20,454411,2019-08-18 15:21:16:948,-1.0031,-0.6027,9.3616,-0.567,-0.4943,9.7778,-0.0021,-0.01,-0.0117
4545,48.480682,-2.63302,91.57,30.73,3.216,100.7,17 / 20,454511,2019-08-18 15:21:17:048,0.0019,-0.5219,10.5569,-0.5653,-0.4972,9.7777,0.0125,-0.0119,-0.0098
4546,48.480682,-2.63302,91.57,30.73,3.216,100.7,17 / 20,454611,2019-08-18 15:21:17:148,-0.8577,-0.6937,10.6407,-0.5501,-0.4851,9.7792,0.014,-0.0199,-0.0068
4547,48.480682,-2.63302,91.57,30.73,3.216,100.7,17 / 20,454712,2019-08-18 15:21:17:249,-0.9738,-0.3268,10.1577,-0.5365,-0.4808,9.7802,-0.0009,-0.0157,-0.0085
4548,48.480682,-2.63302,91.57,30.73,3.216,100.7,17 / 20,454811,2019-08-18 15:21:17:348,-0.7727,-0.4711,9.7021,-0.5226,-0.4779,9.781,-0.0042,-0.0144,-0.0078
4549,48.480682,-2.63302,91.57,30.73,3.216,100.7,17 / 20,454911,2019-08-18 15:21:17:448,-0.7996,-0.2999,9.9643,-0.5224,-0.4762,9.7811,0.0045,-0.0113,-0.0062
4550,48.480682,-2.63302,91.57,30.73,3.216,100.7,17 / 20,455012,2019-08-18 15:21:17:549,-0.8349,-0.4519,9.5639,-0.5088,-0.476,9.7819,-0.0028,-0.0013,-0.0063
4551,48.480682,-2.63302,91.57,30.73,3.216,100.7,17 / 20,455111,2019-08-18 15:21:17:648,-0.6901,-0.2843,9.7034,-0.5181,-0.4744,9.7815,-0.0007,-0.0059,-0.0025
4552,48.480682,-2.63302,91.57,30.73,3.216,100.7,17 / 20,455212,2019-08-18 15:21:17:749,-0.7685,-0.5249,10.1313,-0.5233,-0.4655,9.7816,0.0099,0.0075,0.0005
4553,48.480682,-2.63302,91.57,30.73,3.216,100.7,17 / 20,455311,2019-08-18 15:21:17:848,-0.8529,-0.179,10.1463,-0.5242,-0.4517,9.7822,0.0096,-0.0128,0.0033
4554,48.480682,-2.63302,91.57,30.73,3.216,100.7,17 / 20,455411,2019-08-18 15:21:17:948,-0.7062,0.0676,9.9607,-0.5178,-0.4284,9.7836,0.0021,-0.0049,0.0027
4555,48.480682,-2.63302,91.57,30.73,3.216,100.7,17 / 20,455511,2019-08-18 15:21:18:048,-0.5793,0.1664,9.832,-0.5145,-0.4201,9.7841,-0.0003,-0.0007,0.0017
4556,48.480682,-2.63302,91.57,30.73,3.216,100.7,17 / 20,455611,2019-08-18 15:21:18:148,-0.5566,-0.082,10.0673,-0.5178,-0.4118,9.7843,-0.0006,-0.0052,0.0002
4557,48.480682,-2.63302,91.57,30.73,3.216,100.7,17 / 20,455711,2019-08-18 15:21:18:248,-0.7302,-0.1041,10.3228,-0.5205,-0.4029,9.7845,0.0008,-0.0044,0.0029
4558,48.480682,-2.63302,91.57,30.73,3.216,100.7,17 / 20,455812,2019-08-18 15:21:18:349,-0.7846,-0.1897,10.023,-0.514,-0.3878,9.7855,0.0116,-0.0193,0.0071
4559,48.480682,-2.63302,91.57,30.73,3.216,100.7,17 / 20,455911,2019-08-18 15:21:18:448,-0.8786,0.1179,10.2397,-0.5034,-0.3681,9.7868,0.0106,-0.019,0.0097
4560,48.480682,-2.63302,91.57,30.73,3.216,100.7,17 / 20,456011,2019-08-18 15:21:18:548,-0.5728,0.2167,10.4007,-0.4852,-0.3513,9.7883,-0.0045,-0.018,0.0069
4561,48.480682,-2.63302,91.57,30.73,3.216,100.7,17 / 20,456112,2019-08-18 15:21:18:649,-0.7254,0.3262,9.7387,-0.4797,-0.3448,9.7888,-0.004,-0.0156,0.0077
4562,48.480072,-2.629312,92.72,30.67,3.216,104.8,17 / 20,456211,2019-08-18 15:21:18:748,-0.5428,0.176,10.4821,-0.4769,-0.3372,9.7892,-0.0039,-0.0051,0.0073
4563,48.480072,-2.629312,92.72,30.67,3.216,104.8,17 / 20,456311,2019-08-18 15:21:18:848,-0.4471,0.179,10.2893,-0.4756,-0.3316,9.7895,0.0069,-0.0175,0.0074
4564,48.480072,-2.629312,92.72,30.67,3.216,104.8,17 / 20,456411,2019-08-18 15:21:18:948,-0.4465,0.0832,9.504,-0.4624,-0.3121,9.7908,-0.0148,-0.0004,0.0035
4565,48.480072,-2.629312,92.72,30.67,3.216,104.8,17 / 20,456511,2019-08-18 15:21:19:048,-0.8146,0.2436,9.4597,-0.4724,-0.3165,9.7901,0.0006,0.0078,0.0047
4566,48.480072,-2.629312,92.72,30.67,3.216,104.8,17 / 20,456612,2019-08-18 15:21:19:149,-0.7607,-0.0263,9.8015,-0.4911,-0.3013,9.7897,0.0136,-0.0017,0.0053
4567,48.480072,-2.629312,92.72,30.67,3.216,104.8,17 / 20,456711,2019-08-18 15:21:19:248,-0.4519,0.3089,9.8979,-0.4861,-0.2923,9.7902,0.0008,-0.0124,0.0039
4568,48.480072,-2.629312,92.72,30.67,3.216,104.8,17 / 20,456812,2019-08-18 15:21:19:349,-0.9445,0.234,9.862,-0.4809,-0.2795,9.7909,-0.0115,-0.0053,0.0035
4569,48.480072,-2.629312,92.72,30.67,3.216,104.8,17 / 20,456911,2019-08-18 15:21:19:448,-0.4525,-0.0072,9.7147,-0.4838,-0.2839,9.7906,-0.0005,0.0041,0.0017
4570,48.480072,-2.629312,92.72,30.67,3.216,104.8,17 / 20,457011,2019-08-18 15:21:19:548,-0.9492,0.1239,9.1563,-0.4903,-0.2746,9.7905,0.002,0.0028,0.0046
4571,48.480072,-2.629312,92.72,30.67,3.216,104.8,17 / 20,457111,2019-08-18 15:21:19:648,-0.7942,0.0551,9.5777,-0.4964,-0.2696,9.7904,-0.0066,-0.0072,0.0006
4572,48.480072,-2.629312,92.72,30.67,3.216,104.8,17 / 20,457211,2019-08-18 15:21:19:748,-0.6584,0.185,9.85,-0.4922,-0.2673,9.7906,-0.0039,-0.0052,0.001
4573,48.480072,-2.629312,92.72,30.67,3.216,104.8,17 / 20,457311,2019-08-18 15:21:19:848,-0.8164,0.0126,9.6465,-0.4924,-0.261,9.7908,-0.0002,-0.001,0.0008
4574,48.480072,-2.629312,92.72,30.67,3.216,104.8,17 / 20,457411,2019-08-18 15:21:19:948,-0.5991,0.2909,9.7099,-0.4921,-0.2577,9.7909,-0.0059,-0.0041,0.0008
4575,48.480072,-2.629312,92.72,30.67,3.216,104.8,17 / 20,457512,2019-08-18 15:21:20:049,-0.6925,0.1526,9.3927,-0.4959,-0.2614,9.7906,-0.0147,0.0021,-0.0008
4576,48.480072,-2.629312,92.72,30.67,3.216,104.8,17 / 20,457611,2019-08-18 15:21:20:148,-0.5578,-0.161,9.0216,-0.501,-0.2731,9.79,-0.0125,0.0002,-0.0039
4577,48.480072,-2.629312,92.72,30.67,3.216,104.8,17 / 20,457712,2019-08-18 15:21:20:249,-0.4285,0.1125,9.7183,-0.5039,-0.2772,9.7898,-0.0079,0.0041,-0.0062
4578,48.480072,-2.629312,92.72,30.67,3.216,104.8,17 / 20,457811,2019-08-18 15:21:20:348,-0.4908,-0.3364,10.0008,-0.507,-0.2804,9.7895,-0.0043,-0.009,-0.0139
4579,48.480072,-2.629312,92.72,30.67,3.216,104.8,17 / 20,457911,2019-08-18 15:21:20:448,-0.2795,-0.1431,10.3689,-0.4929,-0.2895,9.79,-0.0048,-0.0135,-0.0157
4580,48.480072,-2.629312,92.72,30.67,3.216,104.8,17 / 20,458011,2019-08-18 15:21:20:548,-0.386,-0.5914,9.8787,-0.4908,-0.2921,9.79,-0.0046,-0.0091,-0.0157
4581,48.480072,-2.629312,92.72,30.67,3.216,104.8,17 / 20,458111,2019-08-18 15:21:20:648,-0.4626,-0.5417,9.6896,-0.4722,-0.31,9.7904,-0.0087,-0.0004,-0.0154
4582,48.480072,-2.629312,92.72,30.67,3.216,104.8,18 / 20,458211,2019-08-18 15:21:20:748,-0.2795,-0.513,9.4101,-0.4745,-0.3178,9.79,-0.0134,0.0098,-0.0117
4583,48.480072,-2.629312,92.72,30.67,3.216,104.8,18 / 20,458311,2019-08-18 15:21:20:848,-0.1993,-0.4441,9.6076,-0.4797,-0.3353,9.7892,-0.0134,0.0068,-0.0125
4584,48.480072,-2.629312,92.72,30.67,3.216,104.8,18 / 20,458411,2019-08-18 15:21:20:948,-0.1843,-0.3334,9.6076,-0.4829,-0.3467,9.7886,-0.0128,0.0056,-0.0118
4585,48.480072,-2.629312,92.72,30.67,3.216,104.8,18 / 20,458511,2019-08-18 15:21:21:048,-0.3513,-0.0156,9.8273,-0.4842,-0.3634,9.7879,-0.007,0.0007,-0.0122
4586,48.480072,-2.629312,92.72,30.67,3.216,104.8,18 / 20,458611,2019-08-18 15:21:21:148,-0.4447,-0.0688,9.5956,-0.4798,-0.3669,9.788,-0.0051,-0.0015,-0.0103
4587,48.480072,-2.629312,92.72,30.67,3.216,104.8,18 / 20,458711,2019-08-18 15:21:21:248,-0.4644,-0.1041,9.5705,-0.482,-0.3641,9.788,0.0005,-0.0007,-0.0053
4588,48.480072,-2.629312,92.72,30.67,3.216,104.8,18 / 20,458811,2019-08-18 15:21:21:348,-0.7056,-0.1538,9.7668,-0.4815,-0.3632,9.7881,-0.0019,0.0001,-0.0022
4589,48.480072,-2.629312,92.72,30.67,3.216,104.8,18 / 20,458911,2019-08-18 15:21:21:448,-0.7595,-0.2843,9.6668,-0.4826,-0.3577,9.7882,-0.0046,0.0006,-0.0011
4590,48.480072,-2.629312,92.72,30.67,3.216,104.8,18 / 20,459011,2019-08-18 15:21:21:548,-0.5033,-0.1999,9.2604,-0.4809,-0.3545,9.7884,-0.0015,-0.001,-0.0004
4591,48.480072,-2.629312,92.72,30.67,3.216,104.8,18 / 20,459111,2019-08-18 15:21:21:648,-0.5817,-0.17,9.8584,-0.4894,-0.3513,9.7881,-0.0144,-0.0076,-0.0037
4592,48.480072,-2.629312,92.72,30.67,3.216,104.8,18 / 20,459211,2019-08-18 15:21:21:748,-0.547,-0.2592,9.8039,-0.4804,-0.3591,9.7883,-0.0184,0.0003,-0.0039
4593,48.480072,-2.629312,92.72,30.67,3.216,104.8,18 / 20,459311,2019-08-18 15:21:21:848,-0.5626,-0.1796,9.2239,-0.4949,-0.369,9.7872,-0.0052,0.0128,-0.0021
4594,48.480072,-2.629312,92.72,30.67,3.216,104.8,18 / 20,459411,2019-08-18 15:21:21:948,-0.7493,-0.3454,9.8596,-0.492,-0.3731,9.7872,-0.0116,-0.0057,-0.001
4595,48.480072,-2.629312,92.72,30.67,3.216,104.8,18 / 20,459511,2019-08-18 15:21:22:048,-0.7439,0.3148,10.281,-0.4855,-0.3809,9.7872,-0.0112,-0.0141,-0.0025
4596,48.480072,-2.629312,92.72,30.67,3.216,104.8,18 / 20,459611,2019-08-18 15:21:22:148,-0.8283,-0.1526,9.8428,-0.4799,-0.3829,9.7874,-0.0082,-0.0156,-0.0016
4597,48.480072,-2.629312,92.72,30.67,3.216,104.8,18 / 20,459711,2019-08-18 15:21:22:248,-0.2687,0.0377,9.756,-0.4772,-0.3859,9.7874,-0.0025,0.001,0.0006
4598,48.480072,-2.629312,92.72,30.67,3.216,104.8,18 / 20,459811,2019-08-18 15:21:22:348,-0.7397,0.0162,9.5609,-0.4837,-0.3821,9.7873,0.004,-0.0067,0.0006
4599,48.480072,-2.629312,92.72,30.67,3.216,104.8,18 / 20,459911,2019-08-18 15:21:22:448,-0.6877,-0.3094,10.2522,-0.479,-0.3707,9.7879,0.0012,-0.0169,-0.0013
4600,48.480072,-2.629312,92.72,30.67,3.216,104.8,18 / 20,460011,2019-08-18 15:21:22:548,-0.5626,0.0826,10.3067,-0.4743,-0.3676,9.7883,0.0037,-0.0092,-0.0004
4601,48.480072,-2.629312,92.72,30.67,3.216,104.8,18 / 20,460111,2019-08-18 15:21:22:648,-0.7314,-0.313,10.1427,-0.4747,-0.3525,9.7888,0.0124,0.005,0.0005
4602,48.480072,-2.629312,92.72,30.67,3.216,104.8,18 / 20,460211,2019-08-18 15:21:22:748,-0.6931,-0.1454,9.1287,-0.4805,-0.3467,9.7887,0.0014,0.0137,0.0003
4603,48.480072,-2.629312,92.72,30.67,3.216,104.8,18 / 20,460312,2019-08-18 15:21:22:849,-0.6236,-0.513,8.8588,-0.5088,-0.3389,9.7876,0.0048,0.0209,-0.0007
4604,48.480072,-2.629312,92.72,30.67,3.216,104.8,18 / 20,460412,2019-08-18 15:21:22:949,-0.732,-0.3154,8.9145,-0.5205,-0.3342,9.7871,-0.0013,0.0177,-0.0025
4605,48.480072,-2.629312,92.72,30.67,3.216,104.8,18 / 20,460511,2019-08-18 15:21:23:048,-0.899,-0.0808,9.6261,-0.552,-0.3292,9.7856,0.0005,0.0151,-0.0037
4606,48.480072,-2.629312,92.72,30.67,3.216,104.8,18 / 20,460611,2019-08-18 15:21:23:148,-0.6171,-0.1921,9.6758,-0.5602,-0.3285,9.7851,0.0002,0.0026,-0.0029
4607,48.480072,-2.629312,92.72,30.67,3.216,104.8,18 / 20,460711,2019-08-18 15:21:23:248,-0.6314,0.0347,10.2193,-0.5669,-0.327,9.7848,-0.0008,-0.0004,-0.0042
4608,48.480072,-2.629312,92.72,30.67,3.216,104.8,18 / 20,460811,2019-08-18 15:21:23:348,-1.0899,-0.1281,10.2313,-0.5687,-0.326,9.7847,0.0007,-0.0087,-0.0047
4609,48.480072,-2.629312,92.72,30.67,3.216,104.8,18 / 20,460912,2019-08-18 15:21:23:449,-0.7009,-0.5052,9.9954,-0.562,-0.3247,9.7852,-0.0022,-0.0012,-0.0056
4610,48.480072,-2.629312,92.72,30.67,3.216,104.8,18 / 20,461014,2019-08-18 15:21:23:551,-0.8738,-0.3472,9.583,-0.5668,-0.3248,9.7849,0.0003,0.0059,-0.0031
4611,48.480072,-2.629312,92.72,30.67,3.216,104.8,18 / 20,461112,2019-08-18 15:21:23:649,-0.7014,-0.4788,9.4298,-0.5797,-0.3219,9.7842,0.0058,0.0031,-0.0021
4612,48.480072,-2.629312,92.72,30.67,3.216,104.8,18 / 20,461212,2019-08-18 15:21:23:749,-0.8678,-0.3448,9.7435,-0.5832,-0.3182,9.7841,0.0048,0.0002,-0.0033
4613,48.480072,-2.629312,92.72,30.67,3.216,104.8,18 / 20,461311,2019-08-18 15:21:23:848,-0.7463,-0.3903,10.7029,-0.584,-0.315,9.7842,0.0036,-0.0108,-0.0022
4614,48.480072,-2.629312,92.72,30.67,3.216,104.8,18 / 20,461411,2019-08-18 15:21:23:948,-1.0576,-0.0993,10.2534,-0.58,-0.306,9.7847,-0.0095,-0.021,-0.0032
4615,48.480072,-2.629312,92.72,30.67,3.216,104.8,18 / 20,461511,2019-08-18 15:21:24:048,-0.8421,-0.316,10.2636,-0.5728,-0.3134,9.7849,-0.0102,-0.0076,-0.0023
4616,48.480072,-2.629312,92.72,30.67,3.216,104.8,18 / 20,461612,2019-08-18 15:21:24:149,-0.7439,-0.1556,10.029,-0.5698,-0.3226,9.7848,-0.0059,-0.0156,-0.0026
4617,48.480072,-2.629312,92.72,30.67,3.216,104.8,18 / 20,461711,2019-08-18 15:21:24:248,-0.899,-0.1903,9.8961,-0.5624,-0.3233,9.7852,-0.0132,-0.0136,-0.0016
4618,48.480072,-2.629312,92.72,30.67,3.216,104.8,18 / 20,461811,2019-08-18 15:21:24:348,-0.9971,-0.24,9.6237,-0.5506,-0.3341,9.7855,-0.0162,-0.015,-0.0015
4619,48.480072,-2.629312,92.72,30.67,3.216,104.8,18 / 20,461912,2019-08-18 15:21:24:449,-0.7092,-0.2442,9.7195,-0.5428,-0.3397,9.7857,0.0007,-0.0108,-0.0014
4620,48.480072,-2.629312,92.72,30.67,3.216,104.8,18 / 20,462011,2019-08-18 15:21:24:548,-0.5207,-0.0527,9.6513,-0.5355,-0.3337,9.7863,-0.0013,-0.0093,-0.0013
4621,48.480072,-2.629312,92.72,30.67,3.216,104.8,18 / 20,462111,2019-08-18 15:21:24:648,-0.9648,0.0371,9.7854,-0.5256,-0.3333,9.7869,-0.0056,-0.0192,-0.0001
4622,48.480072,-2.629312,92.72,30.67,3.216,104.8,16 / 19,462211,2019-08-18 15:21:24:748,-0.5482,0.1969,10.02,-0.5114,-0.3332,9.7876,-0.0158,0.002,0.0002
4623,48.480072,-2.629312,92.72,30.67,3.216,104.8,16 / 19,462311,2019-08-18 15:21:24:848,-0.6542,-0.0096,9.5729,-0.5154,-0.3389,9.7872,-0.0077,0.0002,0.0024
4624,48.480072,-2.629312,92.72,30.67,3.216,104.8,16 / 19,462412,2019-08-18 15:21:24:949,-0.8858,-0.2262,9.8075,-0.5252,-0.3394,9.7867,-0.0109,-0.0061,0.0029
4625,48.480072,-2.629312,92.72,30.67,3.216,104.8,16 / 19,462511,2019-08-18 15:21:25:048,-0.7338,0.0078,10.2624,-0.5246,-0.3413,9.7867,-0.0155,-0.018,0.0044
4626,48.480072,-2.629312,92.72,30.67,3.216,104.8,16 / 19,462611,2019-08-18 15:21:25:148,-0.5895,-0.2723,10.3486,-0.5146,-0.3421,9.7872,0.003,-0.0047,0.005
4627,48.480072,-2.629312,92.72,30.67,3.216,104.8,16 / 19,462711,2019-08-18 15:21:25:248,-0.7392,0.2221,10.5377,-0.5132,-0.3366,9.7874,0.0062,-0.004,0.0063
4628,48.480072,-2.629312,92.72,30.67,3.216,104.8,16 / 19,462811,2019-08-18 15:21:25:348,-0.8966,0.0359,9.9272,-0.5054,-0.3217,9.7883,-0.0019,-0.0122,0.0057
4629,48.480072,-2.629312,92.72,30.67,3.216,104.8,16 / 19,462913,2019-08-18 15:21:25:450,-0.8774,-0.1395,10.2816,-0.5054,-0.3171,9.7885,0.0039,-0.0011,0.0077
4630,48.480072,-2.629312,92.72,30.67,3.216,104.8,16 / 19,463011,2019-08-18 15:21:25:548,-1.1396,-0.0748,10.1708,-0.513,-0.3006,9.7886,0.0048,0.0007,0.0087
4631,48.480072,-2.629312,92.72,30.67,3.216,104.8,16 / 19,463112,2019-08-18 15:21:25:649,-0.9965,0.0311,9.996,-0.5231,-0.2883,9.7884,0.0044,0.0027,0.0086
4632,48.480072,-2.629312,92.72,30.67,3.216,104.8,17 / 20,463212,2019-08-18 15:21:25:749,-0.8152,-0.1,9.9093,-0.5245,-0.2773,9.7887,-0.0015,-0.0179,0.0069
4633,48.480072,-2.629312,92.72,30.67,3.216,104.8,17 / 20,463311,2019-08-18 15:21:25:848,-0.723,0.1251,10.5623,-0.5147,-0.273,9.7893,-0.0014,-0.0214,0.006
4634,48.480072,-2.629312,92.72,30.67,3.216,104.8,17 / 20,463411,2019-08-18 15:21:25:948,-0.7487,0.0587,9.8865,-0.5096,-0.2597,9.79,0.002,-0.0128,0.0083
4635,48.480072,-2.629312,92.72,30.67,3.216,104.8,17 / 20,463511,2019-08-18 15:21:26:048,-0.9427,-0.1694,10.0625,-0.5133,-0.2548,9.7899,0.0026,0.0105,0.0083
4636,48.480072,-2.629312,92.72,30.67,3.216,104.8,17 / 20,463611,2019-08-18 15:21:26:148,-0.9133,0.0473,10.0517,-0.5299,-0.2393,9.7894,0.0119,-0.0014,0.0084
4637,48.480072,-2.629312,92.72,30.67,3.216,104.8,17 / 20,463712,2019-08-18 15:21:26:249,-0.8373,-0.0748,10.3689,-0.5247,-0.2306,9.7899,0.0103,-0.0148,0.0078
4638,48.480072,-2.629312,92.72,30.67,3.216,104.8,17 / 20,463811,2019-08-18 15:21:26:348,-1.0217,-0.0736,10.0583,-0.5191,-0.2124,9.7906,0.0032,-0.0111,0.007
4639,48.480072,-2.629312,92.72,30.67,3.216,104.8,17 / 20,463911,2019-08-18 15:21:26:448,-0.9193,0.0329,10.4234,-0.518,-0.2078,9.7908,0.0012,-0.016,0.0066
4640,48.480072,-2.629312,92.72,30.67,3.216,104.8,17 / 20,464014,2019-08-18 15:21:26:551,-0.8834,-0.1736,10.1355,-0.5121,-0.1946,9.7913,0.0064,-0.0111,0.0051
4641,48.480072,-2.629312,92.72,30.67,3.216,104.8,17 / 20,464111,2019-08-18 15:21:26:648,-0.8649,-0.1167,9.7375,-0.5133,-0.1925,9.7913,0.0012,-0.0032,0.0052
4642,48.480072,-2.629312,92.72,30.67,3.216,104.8,15 / 19,464212,2019-08-18 15:21:26:749,-0.8122,0.0778,9.8099,-0.5207,-0.182,9.7911,0.0016,-0.0018,0.0058
4643,48.480072,-2.629312,92.72,30.67,3.216,104.8,15 / 19,464311,2019-08-18 15:21:26:848,-0.6189,-0.17,9.8279,-0.5274,-0.1773,9.7909,0.0044,-0.0009,0.0052
4644,48.480072,-2.629312,92.72,30.67,3.216,104.8,15 / 19,464411,2019-08-18 15:21:26:948,-0.8523,0.2807,9.7063,-0.5362,-0.1694,9.7905,-0.0022,0.0025,0.0029
4645,48.480072,-2.629312,92.72,30.67,3.216,104.8,15 / 19,464511,2019-08-18 15:21:27:048,-0.9181,-0.0341,9.7459,-0.544,-0.17,9.7901,-0.0103,-0.0022,0.002
4646,48.480072,-2.629312,92.72,30.67,3.216,104.8,15 / 19,464611,2019-08-18 15:21:27:148,-0.6165,0.1389,9.8362,-0.5451,-0.1808,9.7898,-0.016,-0.01,-0.0014
4647,48.480072,-2.629312,92.72,30.67,3.216,104.8,15 / 19,464711,2019-08-18 15:21:27:248,-0.7829,0.0305,9.5435,-0.5386,-0.1932,9.7899,-0.0157,-0.003,-0.0049
4648,48.480072,-2.629312,92.72,30.67,3.216,104.8,15 / 19,464811,2019-08-18 15:21:27:348,-0.5668,-0.2795,9.6698,-0.5451,-0.1971,9.7895,-0.0002,-0.0029,-0.0003
4649,48.480072,-2.629312,92.72,30.67,3.216,104.8,15 / 19,464911,2019-08-18 15:21:27:448,-0.6781,-0.0335,9.9565,-0.5448,-0.1973,9.7895,-0.005,0.0034,-0.0022
4650,48.480072,-2.629312,92.72,30.67,3.216,104.8,15 / 19,465011,2019-08-18 15:21:27:548,-0.3525,-0.3879,9.8308,-0.5429,-0.2018,9.7895,-0.002,-0.0015,-0.0035
4651,48.480072,-2.629312,92.72,30.67,3.216,104.8,15 / 19,465112,2019-08-18 15:21:27:649,-0.729,-0.2652,10.0182,-0.5441,-0.2037,9.7894,-0.0028,0.0031,-0.0067
4652,48.47947,-2.625793,91.3,29.2,4.288,104.5,14 / 18,465211,2019-08-18 15:21:27:748,-0.4764,-0.1347,10.4545,-0.5476,-0.2037,9.7892,-0.0066,-0.0081,-0.0077
4653,48.47947,-2.625793,91.3,29.2,4.288,104.5,14 / 18,465311,2019-08-18 15:21:27:848,-0.3375,-0.1957,10.7107,-0.5344,-0.2072,9.7899,0.0121,-0.0118,-0.0082
4654,48.47947,-2.625793,91.3,29.2,4.288,104.5,14 / 18,465411,2019-08-18 15:21:27:948,-0.6931,0.0605,10.1074,-0.5208,-0.1962,9.7908,0.0126,-0.0103,-0.0067
4655,48.47947,-2.625793,91.3,29.2,4.288,104.5,14 / 18,465512,2019-08-18 15:21:28:049,-0.4985,0.0892,9.5118,-0.5009,-0.189,9.792,-0.0092,-0.0081,-0.0089
4656,48.47947,-2.625793,91.3,29.2,4.288,104.5,14 / 18,465612,2019-08-18 15:21:28:149,-0.4447,-0.0712,10.3019,-0.5066,-0.1908,9.7917,-0.0073,0.002,-0.008
4657,48.47947,-2.625793,91.3,29.2,4.288,104.5,14 / 18,465711,2019-08-18 15:21:28:248,-0.5937,-0.2053,9.5645,-0.5052,-0.1996,9.7916,-0.0042,-0.0064,-0.0079
4658,48.47947,-2.625793,91.3,29.2,4.288,104.5,14 / 18,465812,2019-08-18 15:21:28:349,-0.3016,-0.24,10.0816,-0.502,-0.2029,9.7917,0.0018,-0.0045,-0.0066
4659,48.47947,-2.625793,91.3,29.2,4.288,104.5,14 / 18,465911,2019-08-18 15:21:28:448,-0.2519,-0.4208,9.6219,-0.4933,-0.1989,9.7922,0.0016,0.0043,-0.0047
4660,48.47947,-2.625793,91.3,29.2,4.288,104.5,14 / 18,466011,2019-08-18 15:21:28:548,-0.5919,-0.2221,9.7728,-0.4947,-0.1965,9.7922,-0.0046,0.0064,-0.0046
4661,48.47947,-2.625793,91.3,29.2,4.288,104.5,14 / 18,466111,2019-08-18 15:21:28:648,-0.4806,-0.2161,10.2917,-0.4994,-0.1975,9.7919,-0.0033,0.0001,-0.0028
4662,48.47947,-2.625793,91.3,29.2,4.288,104.5,16 / 20,466211,2019-08-18 15:21:28:748,-0.5913,-0.0401,9.6285,-0.5033,-0.1968,9.7918,-0.0029,0.0056,-0.0023
4663,48.47947,-2.625793,91.3,29.2,4.288,104.5,16 / 20,466311,2019-08-18 15:21:28:848,-0.4764,-0.1718,9.8865,-0.5036,-0.1967,9.7917,0.002,-0.0025,-0.0013
4664,48.47947,-2.625793,91.3,29.2,4.288,104.5,16 / 20,466412,2019-08-18 15:21:28:949,-0.6152,0.3047,9.7315,-0.5032,-0.1924,9.7918,0.0024,-0.0082,0.0016
4665,48.47947,-2.625793,91.3,29.2,4.288,104.5,16 / 20,466512,2019-08-18 15:21:29:049,-0.6673,-0.1395,9.9536,-0.4923,-0.1859,9.7925,-0.0101,-0.0117,0.0038
4666,48.47947,-2.625793,91.3,29.2,4.288,104.5,16 / 20,466611,2019-08-18 15:21:29:148,-0.4375,0.0611,9.6573,-0.4924,-0.1848,9.7925,-0.0052,0.0152,0.0026
4667,48.47947,-2.625793,91.3,29.2,4.288,104.5,16 / 20,466711,2019-08-18 15:21:29:248,-0.4189,0.1891,10.0098,-0.5068,-0.1833,9.7918,0.0017,0.0076,0.0058
4668,48.47947,-2.625793,91.3,29.2,4.288,104.5,16 / 20,466811,2019-08-18 15:21:29:348,-0.6985,0.3184,10.1565,-0.505,-0.1799,9.792,0.0004,-0.0069,0.0042
4669,48.47947,-2.625793,91.3,29.2,4.288,104.5,16 / 20,466911,2019-08-18 15:21:29:448,-0.4824,-0.1628,10.0361,-0.4986,-0.1688,9.7925,0.001,-0.0035,0.0048
4670,48.47947,-2.625793,91.3,29.2,4.288,104.5,16 / 20,467011,2019-08-18 15:21:29:548,-0.5416,0.2658,10.1816,-0.4935,-0.1675,9.7928,-0.0091,0.002,0.0034
4671,48.47947,-2.625793,91.3,29.2,4.288,104.5,16 / 20,467111,2019-08-18 15:21:29:648,-0.5979,0.2867,9.5423,-0.5014,-0.1672,9.7924,-0.0107,0.0026,0.0045
4672,48.47947,-2.625793,91.3,29.2,4.288,104.5,Dec-18,467211,2019-08-18 15:21:29:748,-0.5069,0.325,9.8255,-0.5114,-0.1656,9.7919,-0.005,0.012,0.003
4673,48.47947,-2.625793,91.3,29.2,4.288,104.5,Dec-18,467311,2019-08-18 15:21:29:848,-0.7571,0.0928,9.5028,-0.5114,-0.1651,9.7919,-0.0043,-0.0058,0.0024
