,GPS LATITUDE (degrees), GPS LONGITUDE (degrees), GPS ALTITUDE (m), GPS SPEED (Kmh), GPS ACCURACY (m), GPS ORIENTATION (Â°),GPS SATELLITES IN RANGE, TIME SINCE START (ms), DATE (YYYY-MO-DD HH-MI-SS_SSS), ACCELEROMETER X (m/s²) , ACCELEROMETER Y (m/s²), ACCELEROMETER Z (m/s²), GRAVITY X (m/s²), GRAVITY Y (m/s²), GRAVITY Z (m/s²), GYROSCOPE Yaw (rad/s), GYROSCOPE Pitch (rad/s), GYROSCOPE Roll (rad/s), MAGNETIC FIELD X (Î¼T), MAGNETIC FIELD Y (Î¼T), MAGNETIC FIELD Z (Î¼T), ORIENTATION (Yaw) (Â°), ORIENTATION (Pitch) (Â°), ORIENTATION (Roll ) (Â°)
1151,52.936584,-1.76176,182.57,16.79,4,0.8,21 / 22,1413711,2019-11-06 12:09:27:592,0.2692,0.7827,9.6721,-0.0448,0.0288,9.8064,-0.0092,0.2416,-0.1492,3.5,-42.25,-18.0,90.5,-87.66,97.69
1152,52.936584,-1.76176,182.57,16.79,4,0.8,21 / 22,1413811,2019-11-06 12:09:27:692,-4.6388,-0.0903,10.675,-0.0595,-0.0054,9.8064,-0.0539,0.4946,-0.2425,4.38,-42.44,-18.0,98.65,-87.29,105.08
1153,52.936584,-1.76176,182.57,16.79,4,0.8,21 / 22,1413912,2019-11-06 12:09:27:793,3.9544,1.2781,7.7209,-0.0664,-0.0092,9.8064,-0.1856,0.0952,-0.0093,3.56,-42.31,-17.62,100.14,-87.09,106.13
1154,52.936584,-1.76176,182.57,16.79,4,0.8,21 / 22,1414012,2019-11-06 12:09:27:893,-6.9838,-2.2131,7.9898,0.076,-0.0418,9.8062,-0.0874,-0.1705,0.2708,4.75,-41.81,-17.69,94.58,-86.81,102.92
1155,52.936584,-1.76176,182.57,16.79,4,0.8,21 / 22,1414112,2019-11-06 12:09:27:993,0.2323,-0.8998,8.6121,-0.0818,-0.0573,9.8061,0.0584,-0.6942,0.263,3.94,-41.5,-18.37,82.79,-86.63,87.84
1156,52.936584,-1.76176,182.57,16.79,4,0.8,21 / 22,1414212,2019-11-06 12:09:28:093,-6.3835,-4.3738,10.5987,0.0824,0.0321,9.8063,0.0681,-0.7789,0.3861,5.25,-41.87,-18.56,79.22,-86.88,87.37
1157,52.936584,-1.76176,182.57,16.79,4,0.8,21 / 22,1414312,2019-11-06 12:09:28:193,6.6053,-0.2159,11.5123,0.0275,0.0615,9.8064,0.1792,-0.7109,0.4093,4.94,-42.19,-18.37,88.36,-86.41,95.78
1158,52.936584,-1.76176,182.57,16.79,4,0.8,21 / 22,1414412,2019-11-06 12:09:28:293,1.1714,-1.2829,11.5318,0.079,0.0552,9.8062,0.1084,-0.6551,0.3281,4.81,-42.25,-18.12,104.5,-86.23,111.8
1159,52.936584,-1.76176,182.57,16.79,4,0.8,20 / 23,1414513,2019-11-06 12:09:28:394,-4.4299,-1.1247,10.8821,0.0912,0.0472,9.806,0.1135,-0.3328,0.2103,5.0,-41.87,-17.5,108.64,-86.03,116.1
1160,52.936584,-1.76176,182.57,16.79,4,0.8,20 / 23,1414612,2019-11-06 12:09:28:493,1.7359,-0.4757,10.3945,0.0402,0.019,9.8065,0.0088,-0.1268,0.1291,4.75,-42.56,-17.0,109.25,-85.73,115.84
1161,52.936584,-1.76176,182.57,16.79,4,0.8,20 / 23,1414712,2019-11-06 12:09:28:593,-4.378,-3.6548,9.7457,0.06,0.0101,9.8064,-0.0085,0.4203,-0.2935,5.0,-42.44,-17.0,111.03,-85.85,118.23
1162,52.936584,-1.76176,182.57,16.79,4,0.8,20 / 23,1414812,2019-11-06 12:09:28:693,0.9887,0.4976,9.9657,-0.0502,0.0219,9.8065,0.007,0.5519,-0.3028,4.75,-42.0,-16.94,113.37,-85.44,119.85
1163,52.936584,-1.76176,182.57,16.79,4,0.8,20 / 23,1414912,2019-11-06 12:09:28:793,-6.1716,-0.3756,9.7876,0.014,0.0128,9.8066,-0.0347,0.6308,-0.3032,4.56,-42.37,-17.19,116.43,-85.52,123.31
1164,52.936584,-1.76176,182.57,16.79,4,0.8,20 / 23,1415012,2019-11-06 12:09:28:893,2.726,1.1986,9.1427,-0.0908,-0.0154,9.8062,-0.0335,0.5642,-0.3593,4.19,-41.75,-17.37,119.5,-85.34,123.0
1165,52.936584,-1.76176,182.57,16.79,4,0.8,20 / 23,1415112,2019-11-06 12:09:28:993,0.8545,0.2491,9.5738,-0.0427,-0.0312,9.8065,-0.0211,0.2042,-0.0694,4.69,-42.62,-17.12,115.56,-85.58,122.29
1166,52.936584,-1.76176,182.57,16.79,4,0.8,20 / 23,1415212,2019-11-06 12:09:29:093,-4.9049,-2.1737,9.1152,-0.0897,-0.0158,9.8061,0.0497,0.0152,-0.003,4.56,-43.0,-16.87,116.08,-85.81,123.35
1167,52.936584,-1.76176,182.57,16.79,4,0.8,20 / 23,1415312,2019-11-06 12:09:29:193,0.1635,-0.6124,10.3039,-0.0943,-0.0189,9.8061,0.0951,-0.4843,0.1785,4.38,-42.19,-17.56,115.7,-85.31,118.63
1168,52.936584,-1.76176,182.57,16.79,4,0.8,20 / 23,1415412,2019-11-06 12:09:29:293,-5.2862,-1.0594,9.59,-0.0079,0.0181,9.8065,0.1199,-0.5743,0.3246,4.44,-42.25,-17.0,117.21,-85.33,120.48
1169,52.937965,-1.76205,180.34,16.63,4,349.44,21 / 22,1415512,2019-11-06 12:09:29:393,3.1948,-1.0643,10.7621,-0.0705,0.0013,9.8064,0.119,-0.5977,0.3033,4.5,-42.06,-17.12,115.04,-85.11,120.94
1170,52.937965,-1.76205,180.34,16.63,4,349.44,21 / 22,1415612,2019-11-06 12:09:29:493,-3.1992,-0.5184,10.1641,0.0149,0.0385,9.8065,0.099,-0.484,0.1998,5.13,-42.31,-16.62,120.41,-85.05,126.71
1171,52.937965,-1.76205,180.34,16.63,4,349.44,21 / 22,1415712,2019-11-06 12:09:29:593,2.8343,0.282,10.3975,-0.0059,0.0105,9.8066,0.0255,-0.175,0.0587,4.56,-42.0,-17.25,120.03,-84.78,125.73
1172,52.937965,-1.76205,180.34,16.63,4,349.44,21 / 22,1415812,2019-11-06 12:09:29:693,2.9813,-0.5555,9.8718,0.0548,0.0129,9.8064,0.0071,0.0819,-0.0306,4.75,-42.19,-16.81,118.93,-84.57,124.06
1173,52.937965,-1.76205,180.34,16.63,4,349.44,21 / 22,1415912,2019-11-06 12:09:29:793,1.9414,-0.0172,9.8687,0.0125,0.0001,9.8066,0.0201,0.1462,-0.1023,4.81,-42.37,-16.75,120.15,-84.6,125.48
1174,52.937965,-1.76205,180.34,16.63,4,349.44,21 / 22,1416012,2019-11-06 12:09:29:893,1.6944,-1.1486,10.2361,0.0295,-0.0095,9.8065,-0.0081,0.1015,-0.1246,5.06,-42.94,-17.0,119.53,-84.76,124.86
1175,52.937965,-1.76205,180.34,16.63,4,349.44,21 / 22,1416112,2019-11-06 12:09:29:993,-1.3128,1.7582,9.9901,0.0239,0.0043,9.8066,0.0037,0.1196,-0.0454,4.56,-43.37,-16.56,119.54,-84.71,124.78
1176,52.937965,-1.76205,180.34,16.63,4,349.44,21 / 22,1416212,2019-11-06 12:09:30:093,-0.8773,1.6196,9.7986,0.0179,-0.0083,9.8066,0.0269,0.203,-0.1168,5.69,-42.56,-16.12,115.6,-84.87,124.51
1177,52.937965,-1.76205,180.34,16.63,4,349.44,21 / 22,1416312,2019-11-06 12:09:30:193,-0.2025,-2.9588,9.9567,0.0375,0.0025,9.8065,-0.0482,0.2444,-0.1603,4.56,-42.31,-17.0,118.6,-84.99,124.58
1178,52.937965,-1.76205,180.34,16.63,4,349.44,21 / 22,1416412,2019-11-06 12:09:30:293,2.4207,0.2463,9.9999,0.0073,-0.0161,9.8066,0.0254,0.1993,-0.1303,4.38,-42.56,-16.44,120.35,-84.99,123.12
1179,52.937965,-1.76205,180.34,16.63,4,349.44,22 / 23,1416512,2019-11-06 12:09:30:393,0.8106,-0.4232,10.7195,0.0165,0.019,9.8065,0.0321,0.0929,-0.0857,4.94,-43.0,-16.25,117.34,-84.99,123.27
1180,52.937965,-1.76205,180.34,16.63,4,349.44,22 / 23,1416612,2019-11-06 12:09:30:493,1.3909,0.4093,10.4765,-0.0078,0.0111,9.8065,-0.0573,0.0358,0.0182,5.19,-42.69,-16.0,118.98,-84.74,124.53
1181,52.937965,-1.76205,180.34,16.63,4,349.44,22 / 23,1416712,2019-11-06 12:09:30:593,0.8414,-0.4803,10.0622,-0.0037,0.0137,9.8066,0.013,-0.0229,0.0412,4.69,-42.87,-16.06,119.91,-84.67,125.4
1182,52.937965,-1.76205,180.34,16.63,4,349.44,22 / 23,1416812,2019-11-06 12:09:30:693,0.4275,0.9805,10.3979,0.0036,0.0004,9.8066,0.053,-0.1209,0.0138,4.63,-42.56,-15.81,121.15,-84.54,126.52
1183,52.937965,-1.76205,180.34,16.63,4,349.44,22 / 23,1416912,2019-11-06 12:09:30:793,0.9688,-1.5236,10.1595,-0.0129,-0.0116,9.8066,0.0618,-0.0698,0.0812,4.56,-43.0,-15.62,121.02,-84.5,126.28
1184,52.937965,-1.76205,180.34,16.63,4,349.44,22 / 23,1417012,2019-11-06 12:09:30:893,0.5436,-0.4073,9.8902,-0.0046,-0.0035,9.8066,-0.0054,-0.0536,0.0357,4.81,-42.87,-16.0,120.41,-84.73,126.1
1185,52.937965,-1.76205,180.34,16.63,4,349.44,22 / 23,1417112,2019-11-06 12:09:30:993,0.6139,-0.7209,9.6375,0.0147,0.0082,9.8066,0.002,0.0789,-0.052,4.13,-42.94,-16.19,124.49,-84.78,127.32
1186,52.937965,-1.76205,180.34,16.63,4,349.44,22 / 23,1417212,2019-11-06 12:09:31:093,1.6228,-0.1623,9.7462,0.0169,0.0182,9.8066,-0.0716,0.0165,-0.0376,4.25,-42.62,-16.06,126.19,-84.91,129.54
1187,52.937965,-1.76205,180.34,16.63,4,349.44,22 / 23,1417312,2019-11-06 12:09:31:193,-0.0336,0.581,11.1674,0.0077,0.0075,9.8066,0.0316,-0.0783,0.0915,4.63,-42.56,-16.0,123.77,-84.84,130.14
1188,52.937965,-1.76205,180.34,16.63,4,349.44,22 / 23,1417412,2019-11-06 12:09:31:293,2.5088,3.5056,11.8245,-0.0131,-0.0318,9.8065,0.1865,-0.1888,0.0185,4.31,-43.06,-16.12,127.62,-84.75,130.84
1189,52.937965,-1.76205,180.34,16.63,4,349.44,23 / 23,1417512,2019-11-06 12:09:31:393,-0.1539,-4.1762,10.4769,0.015,0.0001,9.8066,0.1119,-0.2848,-0.1322,4.06,-42.69,-15.94,128.15,-84.63,131.21
1190,52.937965,-1.76205,180.34,16.63,4,349.44,23 / 23,1417612,2019-11-06 12:09:31:493,1.5371,0.0098,9.6245,-0.0176,0.0219,9.8065,-0.0046,-0.0007,0.0493,4.44,-43.06,-16.12,125.97,-84.92,129.32
1191,52.937965,-1.76205,180.34,16.63,4,349.44,23 / 23,1417712,2019-11-06 12:09:31:593,0.3548,0.3373,9.1201,0.0256,-0.0109,9.8066,0.0678,-0.0629,-0.1004,4.19,-41.94,-16.0,126.16,-84.86,129.66
1192,52.937965,-1.76205,180.34,16.63,4,349.44,23 / 23,1417812,2019-11-06 12:09:31:693,-0.2601,-0.0179,10.4057,-0.0044,-0.02,9.8066,0.071,-0.0972,0.1449,3.69,-42.37,-15.62,125.43,-84.87,128.85
1193,52.937965,-1.76205,180.34,16.63,4,349.44,23 / 23,1417912,2019-11-06 12:09:31:793,1.8044,0.2569,9.0311,-0.0097,0.0067,9.8066,0.0213,-0.0549,0.156,3.88,-42.62,-15.19,126.86,-85.1,130.96
1194,52.937965,-1.76205,180.34,16.63,4,349.44,23 / 23,1418012,2019-11-06 12:09:31:893,-1.1317,0.0083,9.0279,0.028,0.0253,9.8066,-0.1516,0.1461,-0.1113,4.13,-42.69,-15.69,127.92,-85.32,132.36
1195,52.937965,-1.76205,180.34,16.63,4,349.44,23 / 23,1418111,2019-11-06 12:09:31:992,0.9877,-0.9923,9.5273,0.0186,-0.0283,9.8066,0.0203,0.0928,-0.0439,3.88,-42.5,-15.87,125.84,-85.49,130.6
1196,52.937965,-1.76205,180.34,16.63,4,349.44,23 / 23,1418211,2019-11-06 12:09:32:092,1.5145,1.7648,10.3946,0.0296,-0.02,9.8065,0.0012,0.0445,-0.0416,3.5,-43.0,-16.25,124.64,-85.64,129.34
1197,52.937965,-1.76205,180.34,16.63,4,349.44,23 / 23,1418312,2019-11-06 12:09:32:193,1.7017,1.1028,10.6315,0.0118,0.0112,9.8065,-0.1075,0.0135,-0.0262,3.94,-42.75,-16.44,122.52,-85.91,127.59
1198,52.937965,-1.76205,180.34,16.63,4,349.44,23 / 23,1418412,2019-11-06 12:09:32:293,0.6895,0.6743,9.9349,0.0136,0.008,9.8065,0.0504,0.0149,-0.0566,3.88,-42.69,-15.56,122.78,-85.92,127.89
1199,52.937965,-1.76205,180.34,16.63,4,349.44,22 / 23,1418513,2019-11-06 12:09:32:394,-1.3536,1.9488,9.9851,0.0052,0.0061,9.8066,0.0772,-0.1061,0.0044,3.44,-43.0,-15.69,127.06,-85.66,128.57
1200,52.937965,-1.76205,180.34,16.63,4,349.44,22 / 23,1418612,2019-11-06 12:09:32:493,0.1375,1.1276,9.1509,-0.0116,0.002,9.8066,0.0003,-0.0994,0.073,4.0,-43.31,-16.06,123.79,-85.43,127.95
1201,52.937965,-1.76205,180.34,16.63,4,349.44,22 / 23,1418712,2019-11-06 12:09:32:593,-1.1439,-0.687,9.5001,0.0062,-0.0119,9.8066,-0.0636,-0.1894,0.0502,4.06,-42.5,-16.37,121.3,-85.39,125.33
1202,52.937965,-1.76205,180.34,16.63,4,349.44,22 / 23,1418812,2019-11-06 12:09:32:693,0.0723,-0.4967,9.2988,-0.0293,-0.0241,9.8065,-0.0491,-0.0368,0.1137,4.19,-43.12,-16.19,118.69,-85.59,122.65
1203,52.937965,-1.76205,180.34,16.63,4,349.44,22 / 23,1418912,2019-11-06 12:09:32:793,-0.09,-0.3601,10.0273,0.0039,-0.006,9.8066,-0.0131,0.0122,0.0183,3.75,-42.81,-16.62,116.29,-85.59,119.8
1204,52.937965,-1.76205,180.34,16.63,4,349.44,22 / 23,1419011,2019-11-06 12:09:32:892,-1.3291,1.1557,10.8549,0.0118,-0.004,9.8066,-0.0123,0.1356,-0.0939,3.81,-43.12,-16.25,116.05,-85.81,120.27
1205,52.937965,-1.76205,180.34,16.63,4,349.44,22 / 23,1419112,2019-11-06 12:09:32:993,1.7134,-1.2032,9.7202,-0.0254,0.0301,9.8065,0.079,0.1471,-0.1044,3.5,-43.19,-16.5,118.93,-85.74,123.25
1206,52.937965,-1.76205,180.34,16.63,4,349.44,22 / 23,1419212,2019-11-06 12:09:33:093,-2.4341,-0.4612,10.945,0.0221,0.0004,9.8066,-0.0541,0.1856,-0.0227,3.81,-42.62,-15.56,119.71,-85.89,124.45
1207,52.937965,-1.76205,180.34,16.63,4,349.44,22 / 23,1419311,2019-11-06 12:09:33:192,3.2154,0.31,9.4051,-0.0089,-0.0145,9.8066,0.0042,0.0405,-0.1241,4.44,-43.0,-16.37,120.36,-85.75,124.84
1208,52.937965,-1.76205,180.34,16.63,4,349.44,22 / 23,1419412,2019-11-06 12:09:33:293,2.2514,-0.2202,9.1036,0.0492,-0.0057,9.8065,-0.0458,-0.0164,0.0125,3.81,-43.12,-15.81,119.46,-85.98,124.39
1209,52.937965,-1.76205,180.34,16.63,4,349.44,21 / 22,1419511,2019-11-06 12:09:33:392,4.4388,0.9354,9.8086,0.0482,-0.0146,9.8065,0.0755,-0.3594,0.2076,3.81,-42.12,-16.69,115.98,-86.09,120.78
1210,52.937965,-1.76205,180.34,16.63,4,349.44,21 / 22,1419611,2019-11-06 12:09:33:492,2.5528,-1.1586,8.6228,0.0508,0.0149,9.8065,0.0308,-0.5578,0.1493,3.75,-42.5,-16.56,109.15,-86.1,113.53
1211,52.937965,-1.76205,180.34,16.63,4,349.44,21 / 22,1419712,2019-11-06 12:09:33:593,-3.6031,1.6517,10.0325,0.0609,-0.0071,9.8064,0.0716,-0.4498,0.2486,3.81,-42.94,-16.5,108.26,-86.54,113.72
1212,52.937965,-1.76205,180.34,16.63,4,349.44,21 / 22,1419812,2019-11-06 12:09:33:693,1.5151,1.9192,9.9252,-0.0048,0.0046,9.8066,0.0912,-0.401,0.3129,3.63,-42.5,-16.56,109.68,-86.31,114.56
1213,52.937965,-1.76205,180.34,16.63,4,349.44,21 / 22,1419912,2019-11-06 12:09:33:793,-3.1959,-0.0554,9.6883,0.0463,0.0061,9.8065,0.0071,-0.3306,0.0405,4.44,-42.44,-17.06,108.68,-86.34,113.57
1214,52.937965,-1.76205,180.34,16.63,4,349.44,21 / 22,1420012,2019-11-06 12:09:33:893,1.8082,0.5266,8.6651,-0.0446,-0.0165,9.8065,-0.0665,-0.0997,0.037,4.0,-42.44,-17.94,103.63,-86.25,107.85
1215,52.937965,-1.76205,180.34,16.63,4,349.44,21 / 22,1420112,2019-11-06 12:09:33:993,-3.8239,-1.4457,8.9785,0.0371,-0.0327,9.8065,-0.156,0.1764,-0.0915,4.5,-43.0,-16.75,97.26,-86.56,105.34
1216,52.937965,-1.76205,180.34,16.63,4,349.44,21 / 22,1420211,2019-11-06 12:09:34:092,3.1799,1.8605,9.9352,-0.0753,-0.0282,9.8063,-0.0341,0.2694,-0.2598,3.69,-43.12,-16.87,105.03,-86.6,110.17
1217,52.937965,-1.76205,180.34,16.63,4,349.44,21 / 22,1420312,2019-11-06 12:09:34:193,2.8512,-0.9203,10.1911,-0.0056,0.0052,9.8066,0.027,0.4478,-0.2352,3.81,-42.69,-16.94,102.62,-86.52,107.48
1218,52.937965,-1.76205,180.34,16.63,4,349.44,21 / 22,1420412,2019-11-06 12:09:34:293,-3.7872,0.5189,9.5394,-0.068,0.0069,9.8063,-0.0775,0.4861,-0.2812,3.56,-42.0,-16.94,102.91,-86.28,107.42
1219,52.937965,-1.76205,180.34,16.63,4,349.44,21 / 22,1420513,2019-11-06 12:09:34:394,1.458,-0.7055,9.2114,-0.0325,-0.0192,9.8065,-0.1564,0.4139,-0.1927,3.25,-43.12,-17.06,110.04,-86.34,111.49
1220,52.937965,-1.76205,180.34,16.63,4,349.44,21 / 22,1420612,2019-11-06 12:09:34:493,-2.2813,0.4818,9.5953,-0.0197,-0.0161,9.8065,-0.0235,0.31,-0.1447,3.25,-42.62,-17.37,110.23,-86.33,111.66
1221,52.937965,-1.76205,180.34,16.63,4,349.44,21 / 22,1420712,2019-11-06 12:09:34:593,0.7333,-0.8299,9.4436,-0.052,-0.0195,9.8064,-0.0409,0.1347,-0.0429,3.44,-42.87,-16.94,106.65,-86.32,107.88
1222,52.937965,-1.76205,180.34,16.63,4,349.44,21 / 22,1420812,2019-11-06 12:09:34:693,-3.0643,1.0209,9.1719,-0.0072,-0.0095,9.8066,-0.0816,0.0287,-0.0306,3.75,-42.69,-16.87,102.13,-86.42,106.73
1223,52.937965,-1.76205,180.34,16.63,4,349.44,21 / 22,1420912,2019-11-06 12:09:34:793,1.7926,1.8069,9.0072,-0.0509,0.0016,9.8064,-0.0425,-0.2251,0.1322,3.06,-42.5,-17.37,105.58,-86.29,106.88
1224,52.937965,-1.76205,180.34,16.63,4,349.44,21 / 22,1421012,2019-11-06 12:09:34:893,2.7594,0.8969,10.4537,0.0466,0.0106,9.8065,0.0255,-0.2832,0.2654,3.31,-42.31,-16.81,107.11,-86.48,108.93
1225,52.937965,-1.76205,180.34,16.63,4,349.44,21 / 22,1421112,2019-11-06 12:09:34:993,4.2768,0.8758,10.1633,-0.0415,0.006,9.8065,0.1132,-0.4661,0.308,3.0,-42.81,-17.0,105.47,-86.31,106.6
1226,52.937965,-1.76205,180.34,16.63,4,349.44,21 / 22,1421212,2019-11-06 12:09:35:093,0.1373,0.303,10.1455,0.0595,0.0163,9.8064,0.0448,-0.5091,0.2828,3.63,-42.44,-17.19,104.07,-86.75,109.73
1227,52.937965,-1.76205,180.34,16.63,4,349.44,21 / 22,1421312,2019-11-06 12:09:35:193,3.8927,-0.5788,9.2559,-0.0043,-0.0024,9.8066,-0.0287,-0.3727,0.249,2.88,-42.81,-17.5,106.08,-86.66,108.09
1228,52.937965,-1.76205,180.34,16.63,4,349.44,21 / 22,1421412,2019-11-06 12:09:35:293,-1.5759,1.3484,10.9911,0.0659,-0.0132,9.8064,-0.1259,-0.4462,0.2423,3.06,-43.25,-17.06,104.93,-86.69,106.97
1229,52.937965,-1.76205,180.34,16.63,4,349.44,22 / 24,1421512,2019-11-06 12:09:35:393,-0.6238,-0.9614,8.1609,0.0205,0.0395,9.8064,-0.0867,-0.2185,0.2437,3.13,-42.44,-17.75,105.65,-86.85,108.12
1230,52.937965,-1.76205,180.34,16.63,4,349.44,22 / 24,1421612,2019-11-06 12:09:35:493,1.6543,0.6544,9.8571,0.0399,0.0106,9.8065,0.0933,-0.1579,0.1291,2.88,-43.06,-17.44,99.18,-87.15,102.16
1231,52.937965,-1.76205,180.34,16.63,4,349.44,22 / 24,1421712,2019-11-06 12:09:35:593,2.2949,0.9545,9.9169,0.035,0.0067,9.8065,0.044,-0.1086,0.0147,2.81,-42.62,-17.5,97.73,-87.22,100.86
1232,52.937965,-1.76205,180.34,16.63,4,349.44,22 / 24,1421812,2019-11-06 12:09:35:693,0.2586,1.6184,10.0916,0.0447,0.0084,9.8065,0.0186,-0.1096,0.0401,3.31,-42.19,-17.62,101.36,-87.01,104.07
1233,52.937965,-1.76205,180.34,16.63,4,349.44,22 / 24,1421912,2019-11-06 12:09:35:793,-1.4098,1.3486,9.1401,0.0109,-0.0161,9.8065,-0.0504,0.0029,0.0217,3.19,-42.31,-17.94,100.64,-87.04,103.41
1234,52.937965,-1.76205,180.34,16.63,4,349.44,22 / 24,1422012,2019-11-06 12:09:35:893,-1.3654,1.519,9.2655,0.0141,-0.0092,9.8065,-0.0597,0.0293,-0.057,2.94,-42.19,-17.06,95.93,-86.99,98.62
1235,52.937965,-1.76205,180.34,16.63,4,349.44,22 / 24,1422112,2019-11-06 12:09:35:993,-1.5008,-0.1858,9.1773,0.0296,0.0289,9.8066,-0.0736,0.1554,-0.1491,3.69,-42.44,-18.25,93.78,-86.97,99.39
1236,52.937965,-1.76205,180.34,16.63,4,349.44,22 / 24,1422212,2019-11-06 12:09:36:093,1.7142,0.2318,10.2076,0.0259,0.0024,9.8066,-0.1067,0.194,-0.0687,2.88,-42.25,-17.69,95.65,-86.92,98.03
1237,52.937965,-1.76205,180.34,16.63,4,349.44,22 / 24,1422312,2019-11-06 12:09:36:193,-1.3926,0.3644,9.9866,0.0177,0.0196,9.8065,-0.0357,0.2689,-0.0855,3.06,-42.5,-17.69,97.52,-86.95,100.01
1238,52.937965,-1.76205,180.34,16.63,4,349.44,22 / 24,1422412,2019-11-06 12:09:36:293,2.9273,0.4805,9.8709,-0.0229,0.0024,9.8065,-0.0393,0.1508,-0.2129,3.19,-42.25,-17.06,98.21,-87.05,101.1
1239,52.937965,-1.76205,180.34,16.63,4,349.44,22 / 22,1422512,2019-11-06 12:09:36:393,0.3806,-0.5624,9.3945,0.0159,0.0035,9.8066,-0.097,0.0742,-0.0405,3.19,-42.94,-17.69,98.97,-86.9,101.22
1240,52.937965,-1.76205,180.34,16.63,4,349.44,22 / 22,1422612,2019-11-06 12:09:36:493,-1.8978,0.6207,9.1375,-0.0362,-0.0127,9.8065,-0.1801,-0.0855,0.0761,2.94,-42.56,-17.37,95.63,-86.64,97.27
1241,52.937965,-1.76205,180.34,16.63,4,349.44,22 / 22,1422714,2019-11-06 12:09:36:595,1.865,-0.4628,8.1856,-0.0399,0.0133,9.8065,-0.1125,-0.3458,0.1005,3.13,-42.44,-17.37,94.14,-86.61,95.89
1242,52.937965,-1.76205,180.34,16.63,4,349.44,22 / 22,1422812,2019-11-06 12:09:36:693,-4.6721,-0.3406,9.9973,0.0176,-0.03,9.8065,0.0118,-0.487,0.4387,3.38,-42.44,-17.5,87.76,-86.68,89.66
1243,52.937965,-1.76205,180.34,16.63,4,349.44,22 / 22,1422912,2019-11-06 12:09:36:793,5.4628,1.0149,10.1261,-0.0849,-0.0236,9.8062,0.0476,-0.583,0.3218,2.69,-41.87,-17.94,87.31,-86.38,88.4
1244,52.937965,-1.76205,180.34,16.63,4,349.44,22 / 22,1423012,2019-11-06 12:09:36:893,-5.665,-0.1742,9.1396,0.1098,0.0127,9.806,0.0286,-0.0627,-0.0263,3.69,-42.12,-17.94,82.07,-86.46,86.55
1245,52.937965,-1.76205,180.34,16.63,4,349.44,22 / 22,1423112,2019-11-06 12:09:36:993,-1.0976,-1.0183,10.1842,-0.0029,0.0074,9.8066,0.0609,0.1967,-0.1156,2.75,-42.31,-18.37,84.72,-86.83,86.88
1246,52.937965,-1.76205,180.34,16.63,4,349.44,22 / 22,1423212,2019-11-06 12:09:37:093,6.0039,0.8926,9.2591,0.0986,0.0023,9.8061,-0.0535,0.4901,-0.3089,2.88,-42.06,-18.31,86.71,-87.27,89.87
1247,52.937965,-1.76205,180.34,16.63,4,349.44,22 / 22,1423311,2019-11-06 12:09:37:192,0.925,-0.9224,9.6609,0.0566,0.0069,9.8064,-0.0447,0.5925,-0.4307,3.13,-42.19,-18.25,88.75,-87.09,91.48
1248,52.937965,-1.76205,180.34,16.63,4,349.44,22 / 22,1423411,2019-11-06 12:09:37:292,5.1251,1.0573,9.8322,0.0974,-0.0223,9.8061,-0.0028,0.5442,-0.364,2.94,-41.81,-17.81,84.29,-87.27,87.47
1249,52.937965,-1.76205,180.34,16.63,4,349.44,21 / 23,1423512,2019-11-06 12:09:37:393,2.2199,0.053,9.2096,0.0552,0.0032,9.8064,-0.0418,0.5172,-0.3033,3.0,-42.19,-18.44,83.44,-87.09,86.21
1250,52.937965,-1.76205,180.34,16.63,4,349.44,21 / 23,1423612,2019-11-06 12:09:37:493,2.5109,0.8228,10.4131,0.0461,-0.0158,9.8065,-0.07,0.3618,-0.2942,2.63,-42.19,-18.19,82.99,-86.86,85.25
1251,52.937965,-1.76205,180.34,16.63,4,349.44,21 / 23,1423712,2019-11-06 12:09:37:593,-2.511,0.5677,9.7974,0.0581,0.0182,9.8064,-0.0504,0.1844,-0.1245,2.75,-41.69,-18.37,80.75,-87.06,83.5
1252,52.937965,-1.76205,180.34,16.63,4,349.44,21 / 23,1423812,2019-11-06 12:09:37:693,2.1177,0.411,10.127,-0.0191,-0.0031,9.8066,0.0179,-0.0208,0.0344,2.69,-41.62,-18.19,81.06,-86.96,83.58
1253,52.937965,-1.76205,180.34,16.63,4,349.44,21 / 23,1423911,2019-11-06 12:09:37:792,-2.4665,0.1191,9.1957,0.0493,0.0088,9.8065,0.0389,-0.1321,0.0395,2.88,-41.56,-18.19,80.36,-87.19,83.41
1254,52.937965,-1.76205,180.34,16.63,4,349.44,21 / 23,1424011,2019-11-06 12:09:37:892,1.0822,0.4892,9.5963,-0.0288,-0.0208,9.8066,0.013,-0.2915,0.1492,2.75,-42.44,-18.5,76.4,-86.92,78.94
1255,52.937965,-1.76205,180.34,16.63,4,349.44,21 / 23,1424112,2019-11-06 12:09:37:993,-1.7689,1.6993,8.0678,0.0008,-0.0179,9.8066,0.0927,-0.2219,0.0782,2.94,-41.81,-18.37,73.82,-86.99,76.58
1256,52.937965,-1.76205,180.34,16.63,4,349.44,21 / 23,1424212,2019-11-06 12:09:38:093,0.5648,0.2649,9.0191,-0.013,-0.0197,9.8066,0.0435,-0.2913,0.1202,2.75,-41.56,-18.62,67.88,-86.75,70.23
1257,52.937965,-1.76205,180.34,16.63,4,349.44,21 / 23,1424312,2019-11-06 12:09:38:193,1.4775,2.5004,10.4296,0.029,-0.0007,9.8065,0.0562,-0.2545,0.0786,3.06,-42.12,-19.19,62.72,-86.84,65.5
1258,52.937965,-1.76205,180.34,16.63,4,349.44,21 / 23,1424412,2019-11-06 12:09:38:293,-0.6762,-0.3423,9.8143,0.0331,0.0329,9.8065,0.0242,0.0622,-0.0668,2.63,-42.06,-19.06,61.17,-86.9,64.16
1259,52.939262,-1.76232,179.05,16.57,4,357.91,22 / 22,1424512,2019-11-06 12:09:38:393,2.5243,0.1516,10.389,-0.0134,-0.0055,9.8066,-0.0272,0.1689,-0.0957,2.25,-42.19,-18.19,63.3,-86.87,63.09
1260,52.939262,-1.76232,179.05,16.57,4,357.91,22 / 22,1424612,2019-11-06 12:09:38:493,0.5699,0.344,9.2649,0.0075,0.005,9.8066,-0.0333,0.1119,-0.1574,2.19,-41.69,-18.81,60.43,-87.0,60.65
1261,52.939262,-1.76232,179.05,16.57,4,357.91,22 / 22,1424712,2019-11-06 12:09:38:593,1.6846,-0.3169,9.0622,-0.0246,-0.0002,9.8066,0.0405,0.1604,-0.0864,2.56,-42.44,-18.94,54.45,-86.84,57.75
1262,52.939262,-1.76232,179.05,16.57,4,357.91,22 / 22,1424812,2019-11-06 12:09:38:693,-0.0398,-0.4409,9.9973,-0.0258,-0.0015,9.8066,0.0226,0.2109,-0.1462,2.94,-41.94,-18.62,52.56,-86.86,56.04
1263,52.939262,-1.76232,179.05,16.57,4,357.91,22 / 22,1424912,2019-11-06 12:09:38:793,-0.7127,-0.5345,9.9315,-0.0523,0.0176,9.8064,0.064,0.0418,-0.198,2.06,-42.0,-19.0,50.44,-87.08,51.45
1264,52.939262,-1.76232,179.05,16.57,4,357.91,22 / 22,1425011,2019-11-06 12:09:38:892,-2.0329,0.2898,10.1347,-0.0189,-0.0153,9.8065,0.118,0.0761,0.0258,2.44,-41.56,-19.25,53.25,-86.79,53.56
1265,52.939262,-1.76232,179.05,16.57,4,357.91,22 / 22,1425112,2019-11-06 12:09:38:993,-0.9662,-0.0452,9.5943,-0.0688,0.004,9.8063,0.1141,-0.0302,-0.0283,2.0,-41.56,-19.19,54.88,-86.63,54.77
1266,52.939262,-1.76232,179.05,16.57,4,357.91,22 / 22,1425212,2019-11-06 12:09:39:093,2.7223,-1.4255,10.2728,-0.0498,-0.0121,9.8065,0.0162,-0.3863,0.073,2.0,-41.75,-19.25,52.73,-86.71,52.93
1267,52.939262,-1.76232,179.05,16.57,4,357.91,22 / 22,1425312,2019-11-06 12:09:39:193,-1.226,-0.1353,9.5875,0.0246,0.0131,9.8065,0.0482,-0.3457,0.1925,1.94,-42.62,-18.56,54.61,-86.66,54.43
1268,52.939262,-1.76232,179.05,16.57,4,357.91,22 / 22,1425412,2019-11-06 12:09:39:293,2.5735,0.2048,9.4615,-0.0397,-0.0045,9.8065,-0.004,-0.411,0.1863,1.56,-42.0,-19.37,56.4,-86.74,56.4
1269,52.939262,-1.76232,179.05,16.57,4,357.91,22 / 23,1425512,2019-11-06 12:09:39:393,-3.2245,1.0253,10.0383,0.0371,0.007,9.8065,0.0175,-0.4246,0.2071,2.44,-41.69,-19.5,55.36,-86.92,55.74
1270,52.939262,-1.76232,179.05,16.57,4,357.91,22 / 23,1425612,2019-11-06 12:09:39:493,1.0975,0.3979,10.016,-0.0363,0.0046,9.8066,0.0784,-0.2895,0.2165,2.31,-42.12,-19.31,58.21,-86.71,58.02
1271,52.939262,-1.76232,179.05,16.57,4,357.91,22 / 23,1425712,2019-11-06 12:09:39:593,2.5207,2.3215,8.9151,0.035,0.0115,9.8065,0.054,-0.2023,0.0483,2.19,-41.62,-18.81,58.51,-87.0,58.84
1272,52.939262,-1.76232,179.05,16.57,4,357.91,22 / 23,1425811,2019-11-06 12:09:39:692,3.1097,1.9803,10.1204,0.0029,0.008,9.8066,-0.0643,-0.0702,-0.0071,2.63,-40.94,-18.94,60.74,-86.89,63.88
1273,52.939262,-1.76232,179.05,16.57,4,357.91,22 / 23,1425912,2019-11-06 12:09:39:793,-0.0374,-1.4385,9.4144,0.0385,-0.0072,9.8065,0.0439,-0.0315,-0.0325,1.75,-41.19,-19.44,60.81,-86.86,60.9
1274,52.939262,-1.76232,179.05,16.57,4,357.91,22 / 23,1426012,2019-11-06 12:09:39:893,-1.6691,0.5385,9.9504,0.0063,-0.0198,9.8066,0.0134,0.0958,-0.1068,1.75,-42.0,-19.25,60.09,-86.66,59.67
1275,52.939262,-1.76232,179.05,16.57,4,357.91,22 / 23,1426112,2019-11-06 12:09:39:993,2.4625,-0.1842,9.2581,0.0414,0.0092,9.8065,-0.059,0.1082,-0.0561,2.5,-41.37,-19.62,57.17,-86.85,60.28
1276,52.939262,-1.76232,179.05,16.57,4,357.91,22 / 23,1426212,2019-11-06 12:09:40:093,-0.5565,1.8383,9.2842,0.0229,0.0005,9.8066,-0.0542,0.198,-0.0267,1.69,-42.06,-19.81,58.68,-86.8,58.62
1277,52.939262,-1.76232,179.05,16.57,4,357.91,22 / 23,1426312,2019-11-06 12:09:40:193,1.6687,-0.3881,10.4335,0.0032,0.0301,9.8066,-0.0456,0.0572,-0.0494,1.38,-42.31,-19.87,62.29,-86.85,59.26
1278,52.939262,-1.76232,179.05,16.57,4,357.91,22 / 23,1426412,2019-11-06 12:09:40:293,1.3229,2.8774,9.3226,0.0031,0.0186,9.8066,0.0114,-0.0395,0.0015,2.06,-41.37,-19.56,64.55,-86.92,64.55
1279,52.939262,-1.76232,179.05,16.57,4,357.91,22 / 23,1426512,2019-11-06 12:09:40:393,1.5544,-0.1737,9.8541,-0.0285,0.0074,9.8065,0.0111,-0.1477,0.0231,1.94,-41.5,-19.62,69.58,-86.76,69.05
1280,52.939262,-1.76232,179.05,16.57,4,357.91,22 / 23,1426612,2019-11-06 12:09:40:493,1.297,-0.6916,9.8023,-0.0312,-0.0101,9.8065,-0.0565,-0.1157,0.0831,2.31,-41.75,-19.81,69.65,-86.59,68.62
1281,52.939262,-1.76232,179.05,16.57,4,357.91,22 / 23,1426712,2019-11-06 12:09:40:593,-2.6591,3.7814,10.5357,-0.0353,0.0251,9.8065,-0.1488,-0.4076,0.1953,2.06,-42.19,-19.62,74.0,-86.38,72.39
1282,52.939262,-1.76232,179.05,16.57,4,357.91,22 / 23,1426812,2019-11-06 12:09:40:693,3.3032,2.4404,8.3203,-0.079,0.0267,9.8062,-0.0665,-0.3596,0.3766,1.69,-41.87,-19.44,75.7,-86.22,73.6
1283,52.939262,-1.76232,179.05,16.57,4,357.91,22 / 23,1426912,2019-11-06 12:09:40:793,-2.7839,1.974,9.1283,-0.0371,0.0647,9.8063,-0.1937,-0.2575,0.1888,1.69,-41.44,-19.62,78.42,-86.47,77.02
1284,52.939262,-1.76232,179.05,16.57,4,357.91,22 / 23,1427012,2019-11-06 12:09:40:893,3.039,-1.081,9.9628,-0.0619,0.0167,9.8063,-0.0782,-0.1294,0.0362,2.06,-41.31,-20.0,87.53,-86.18,85.42
1285,52.939262,-1.76232,179.05,16.57,4,357.91,22 / 23,1427112,2019-11-06 12:09:40:993,3.5046,0.3498,9.8085,0.0275,0.0239,9.8065,-0.0578,0.3309,-0.1468,2.06,-41.5,-20.0,90.29,-86.37,88.57
1286,52.939262,-1.76232,179.05,16.57,4,357.91,22 / 23,1427212,2019-11-06 12:09:41:093,-3.4166,-1.078,9.119,-0.0059,-0.0225,9.8066,-0.0907,0.4653,-0.2532,1.75,-41.44,-19.94,87.98,-86.21,85.92
1287,52.939262,-1.76232,179.05,16.57,4,357.91,22 / 23,1427312,2019-11-06 12:09:41:193,0.2543,-1.1532,9.7929,0.0844,-0.0173,9.8062,-0.1113,0.4771,-0.331,2.69,-41.87,-19.5,81.05,-86.46,82.34
1288,52.939262,-1.76232,179.05,16.57,4,357.91,22 / 23,1427412,2019-11-06 12:09:41:293,-3.7452,-1.3127,9.8645,0.0469,-0.0105,9.8065,-0.1499,0.4283,-0.2546,2.06,-41.5,-20.44,82.25,-86.28,80.4
1289,52.939262,-1.76232,179.05,16.57,4,357.91,21 / 22,1427512,2019-11-06 12:09:41:393,-0.2728,1.0276,9.7798,0.05,0.0006,9.8064,0.0011,0.102,-0.1317,1.63,-41.94,-20.19,81.96,-86.49,80.37
1290,52.939262,-1.76232,179.05,16.57,4,357.91,21 / 22,1427612,2019-11-06 12:09:41:493,-2.2755,2.5045,9.4492,0.0663,-0.0208,9.8063,-0.0077,-0.014,-0.0387,1.63,-41.75,-19.75,79.78,-86.54,78.33
1291,52.939262,-1.76232,179.05,16.57,4,357.91,21 / 22,1427714,2019-11-06 12:09:41:595,3.6575,0.5988,9.1433,0.0144,-0.0106,9.8066,0.0087,-0.0836,0.0312,1.69,-42.0,-19.87,79.71,-86.41,77.98
1292,52.939262,-1.76232,179.05,16.57,4,357.91,21 / 22,1427812,2019-11-06 12:09:41:693,0.2813,1.3972,9.5147,0.0398,-0.0197,9.8065,0.078,0.0143,-0.0445,1.94,-41.44,-20.37,76.89,-86.35,75.31
1293,52.939262,-1.76232,179.05,16.57,4,357.91,21 / 22,1427912,2019-11-06 12:09:41:793,2.7377,-1.4181,10.3575,-0.0064,0.0064,9.8065,0.051,-0.229,0.1054,1.94,-41.19,-20.06,74.93,-86.11,72.9
1294,52.939262,-1.76232,179.05,16.57,4,357.91,21 / 22,1428012,2019-11-06 12:09:41:893,-0.3421,0.9122,8.8001,0.0275,-0.007,9.8065,0.1113,-0.206,0.1157,1.31,-41.5,-20.31,77.06,-86.15,72.16
1295,52.939262,-1.76232,179.05,16.57,4,357.91,21 / 22,1428112,2019-11-06 12:09:41:993,1.5127,-1.0324,9.2676,-0.0248,0.0102,9.8066,-0.0868,-0.1411,0.0465,1.56,-40.94,-20.12,73.37,-85.83,70.85
1296,52.939262,-1.76232,179.05,16.57,4,357.91,21 / 22,1428212,2019-11-06 12:09:42:093,0.3707,-1.2373,9.9044,-0.0085,-0.0235,9.8066,-0.0207,-0.0245,-0.0136,1.94,-41.5,-20.62,71.31,-85.71,68.77
1297,52.939262,-1.76232,179.05,16.57,4,357.91,21 / 22,1428312,2019-11-06 12:09:42:193,1.2345,-0.2288,10.1286,0.0072,0.0048,9.8065,0.0142,0.124,-0.0809,2.06,-41.56,-20.0,74.55,-85.6,71.31
1298,52.939262,-1.76232,179.05,16.57,4,357.91,21 / 22,1428412,2019-11-06 12:09:42:293,1.8862,0.2356,9.8255,0.008,-0.0011,9.8066,-0.0718,0.0287,-0.0865,2.13,-41.69,-20.31,76.43,-85.45,72.8
1299,52.939262,-1.76232,179.05,16.57,4,357.91,20 / 22,1428512,2019-11-06 12:09:42:393,0.0874,0.1657,10.0912,0.0273,-0.0157,9.8065,0.0333,-0.0281,-0.0113,2.06,-41.25,-20.31,78.49,-85.39,74.89
1300,52.939262,-1.76232,179.05,16.57,4,357.91,20 / 22,1428611,2019-11-06 12:09:42:492,0.4171,-1.5708,10.2591,0.0169,-0.0015,9.8066,-0.0294,-0.0123,-0.0149,1.06,-41.44,-20.19,79.66,-85.55,73.48
1301,52.939262,-1.76232,179.05,16.57,4,357.91,20 / 22,1428712,2019-11-06 12:09:42:593,1.7824,-0.8057,10.6006,0.03,0.0109,9.8066,0.0046,0.2518,-0.1102,1.44,-41.31,-19.87,80.77,-85.88,75.24
1302,52.939262,-1.76232,179.05,16.57,4,357.91,20 / 22,1428812,2019-11-06 12:09:42:693,5.2047,-0.4769,9.7164,0.0155,0.031,9.8065,0.1091,0.0664,-0.0637,1.38,-41.94,-20.06,83.96,-85.75,77.89
1303,52.939262,-1.76232,179.05,16.57,4,357.91,20 / 22,1428912,2019-11-06 12:09:42:793,1.3408,0.4165,9.7387,0.0695,-0.0108,9.8063,0.0813,-0.2253,0.0896,2.38,-41.5,-19.87,81.3,-85.75,78.36
1304,52.939262,-1.76232,179.05,16.57,4,357.91,20 / 22,1429012,2019-11-06 12:09:42:893,-3.7102,-0.0448,9.0646,0.0513,0.0178,9.8064,0.0977,-0.4348,0.2125,2.13,-40.94,-19.87,83.74,-85.52,80.29
1305,52.939262,-1.76232,179.05,16.57,4,357.91,20 / 22,1429112,2019-11-06 12:09:42:993,-0.7634,1.4252,9.0845,0.0388,-0.0095,9.8066,0.0763,-0.433,0.2169,1.75,-41.37,-19.75,84.84,-85.24,80.8
1306,52.939262,-1.76232,179.05,16.57,4,357.91,20 / 22,1429212,2019-11-06 12:09:43:093,-1.4969,0.4501,9.9234,0.0678,-0.0018,9.8064,0.0459,-0.4584,0.1814,1.56,-41.81,-19.62,80.89,-85.52,77.28
1307,52.939262,-1.76232,179.05,16.57,4,357.91,20 / 22,1429312,2019-11-06 12:09:43:193,3.1502,0.1892,10.6555,0.0146,0.0272,9.8065,0.1167,-0.3321,0.1625,0.75,-41.31,-19.44,85.9,-85.6,79.39
1308,52.939262,-1.76232,179.05,16.57,4,357.91,20 / 22,1429412,2019-11-06 12:09:43:293,0.2266,-1.2991,10.1981,0.0286,0.0275,9.8065,0.1029,-0.2653,0.0181,1.0,-41.62,-20.19,89.03,-85.7,82.82
1309,52.939262,-1.76232,179.05,16.57,4,357.91,21 / 22,1429512,2019-11-06 12:09:43:393,-0.2574,0.8764,10.2653,-0.039,0.0245,9.8065,0.1039,-0.172,-0.0243,0.81,-41.87,-19.5,94.05,-85.47,87.01
1310,52.939262,-1.76232,179.05,16.57,4,357.91,21 / 22,1429613,2019-11-06 12:09:43:494,-1.4813,0.3348,10.1555,0.0097,0.0214,9.8065,-0.0289,-0.0991,0.013,1.19,-41.94,-19.44,96.37,-85.51,89.49
1311,52.939262,-1.76232,179.05,16.57,4,357.91,21 / 22,1429711,2019-11-06 12:09:43:592,1.1398,-0.9996,9.9389,-0.0219,0.0027,9.8066,-0.0027,-0.058,0.0238,0.94,-42.12,-19.62,96.09,-85.47,89.46
1312,52.939262,-1.76232,179.05,16.57,4,357.91,21 / 22,1429812,2019-11-06 12:09:43:693,-0.9218,0.7693,10.0135,0.0217,0.0152,9.8065,0.0045,0.0436,-0.0288,1.19,-41.69,-18.75,98.04,-85.53,91.24
1313,52.939262,-1.76232,179.05,16.57,4,357.91,21 / 22,1429912,2019-11-06 12:09:43:793,1.8888,-0.2547,10.1982,-0.019,-0.0016,9.8066,-0.0737,0.1756,-0.0792,0.25,-41.75,-19.5,101.1,-85.76,91.87
1314,52.939262,-1.76232,179.05,16.57,4,357.91,21 / 22,1430012,2019-11-06 12:09:43:893,2.7548,-0.624,9.6708,-0.0154,-0.0008,9.8066,-0.0247,0.3197,-0.164,0.0,-42.56,-18.94,102.35,-85.99,93.47
1315,52.939262,-1.76232,179.05,16.57,4,357.91,21 / 22,1430112,2019-11-06 12:09:43:993,-1.5367,-0.7099,9.7918,-0.0203,0.0068,9.8065,-0.0668,0.3319,-0.1964,0.25,-42.06,-19.06,101.74,-86.09,93.27
1316,52.939262,-1.76232,179.05,16.57,4,357.91,21 / 22,1430212,2019-11-06 12:09:44:093,2.0105,-0.1967,10.3419,-0.0561,0.0088,9.8065,0.0534,0.0807,-0.115,-0.75,-42.0,-18.56,105.9,-85.98,94.35
1317,52.939262,-1.76232,179.05,16.57,4,357.91,21 / 22,1430312,2019-11-06 12:09:44:193,-1.1057,-0.0615,9.3655,0.0103,0.0188,9.8066,0.0753,-0.0907,-0.0346,-0.06,-42.31,-19.0,103.75,-86.04,95.23
1318,52.939262,-1.76232,179.05,16.57,4,357.91,21 / 22,1430412,2019-11-06 12:09:44:293,3.7571,0.787,8.8924,-0.0069,-0.0065,9.8065,-0.0206,-0.3115,0.2026,-0.37,-42.19,-18.87,103.84,-86.08,95.41
1319,52.939262,-1.76232,179.05,16.57,4,357.91,21 / 22,1430512,2019-11-06 12:09:44:393,2.3701,-1.2214,9.3667,0.0651,-0.0223,9.8063,0.0109,-0.4343,0.2435,-0.94,-42.06,-19.25,105.5,-86.45,94.94
1320,52.939262,-1.76232,179.05,16.57,4,357.91,21 / 22,1430612,2019-11-06 12:09:44:493,4.2708,-0.663,9.7681,0.0148,-0.004,9.8065,-0.0071,-0.4644,0.2199,-0.62,-41.44,-18.94,105.31,-86.33,94.68
1321,52.939262,-1.76232,179.05,16.57,4,357.91,21 / 22,1430712,2019-11-06 12:09:44:593,2.6618,-0.6606,10.1084,0.0591,0.0173,9.8065,0.1535,-0.4882,0.2277,-0.75,-41.87,-19.0,108.81,-86.47,98.42
1322,52.939262,-1.76232,179.05,16.57,4,357.91,21 / 22,1430812,2019-11-06 12:09:44:693,-0.469,0.1263,10.424,0.0387,0.0038,9.8065,0.0839,-0.0629,-0.0091,-1.19,-42.31,-19.0,109.58,-86.37,99.01
1323,52.939262,-1.76232,179.05,16.57,4,357.91,21 / 22,1430911,2019-11-06 12:09:44:792,2.4119,-1.8277,10.2718,-0.0256,0.0394,9.8065,0.1986,-0.0229,-0.1483,-0.5,-41.62,-18.5,108.57,-86.24,100.25
1324,52.939262,-1.76232,179.05,16.57,4,357.91,21 / 22,1431011,2019-11-06 12:09:44:892,0.3324,1.2264,10.6488,0.0144,0.03,9.8065,0.1201,-0.0621,-0.1076,-1.06,-41.44,-18.31,116.65,-85.94,105.24
1325,52.939262,-1.76232,179.05,16.57,4,357.91,21 / 22,1431111,2019-11-06 12:09:44:992,2.5657,-2.3871,11.608,0.0104,0.0355,9.8065,0.163,-0.1219,0.0018,-1.31,-42.56,-18.37,122.12,-85.6,110.07
1326,52.939262,-1.76232,179.05,16.57,4,357.91,21 / 22,1431213,2019-11-06 12:09:45:094,1.1557,-0.9244,11.2884,0.0272,0.0292,9.8065,0.0083,-0.0174,-0.0204,-0.87,-42.19,-17.19,125.49,-85.48,113.08
1327,52.939262,-1.76232,179.05,16.57,4,357.91,21 / 22,1431312,2019-11-06 12:09:45:193,2.756,-2.0281,10.3084,-0.0083,0.0258,9.8066,0.0631,0.0662,-0.0925,-0.81,-42.37,-17.31,127.74,-85.28,115.22
1328,52.939262,-1.76232,179.05,16.57,4,357.91,21 / 22,1431412,2019-11-06 12:09:45:293,1.2524,-0.5996,9.9856,0.0119,0.0116,9.8066,-0.0693,0.1171,-0.1158,-1.19,-42.44,-17.56,128.2,-85.33,116.52
1329,52.939262,-1.76232,179.05,16.57,4,357.91,22 / 23,1431512,2019-11-06 12:09:45:393,2.3718,-0.6812,10.1987,-0.017,-0.0041,9.8066,-0.0581,0.0648,-0.0017,-1.19,-42.81,-16.69,129.67,-85.26,117.14
1330,52.939262,-1.76232,179.05,16.57,4,357.91,22 / 23,1431612,2019-11-06 12:09:45:493,1.7173,-0.3285,9.4175,-0.0264,0.0034,9.8065,-0.0369,-0.0545,-0.0428,-1.62,-42.19,-17.06,131.76,-85.14,116.22
1331,52.939262,-1.76232,179.05,16.57,4,357.91,22 / 23,1431712,2019-11-06 12:09:45:593,-0.8215,-1.1028,8.7295,-0.0169,-0.0176,9.8066,0.005,-0.0759,0.0195,-1.75,-42.69,-17.37,129.62,-85.19,113.66
1332,52.939262,-1.76232,179.05,16.57,4,357.91,22 / 23,1431812,2019-11-06 12:09:45:693,1.3648,-1.6466,9.4624,-0.0153,-0.0181,9.8066,-0.0065,-0.2145,0.0346,-1.37,-43.06,-17.19,126.52,-85.24,113.52
1333,52.939262,-1.76232,179.05,16.57,4,357.91,22 / 23,1431912,2019-11-06 12:09:45:793,-1.0441,-1.2287,10.0018,0.0207,0.0056,9.8066,0.0494,-0.3219,0.1552,-1.44,-42.44,-17.0,127.47,-85.22,114.79
1334,52.939262,-1.76232,179.05,16.57,4,357.91,22 / 23,1432012,2019-11-06 12:09:45:893,1.0505,0.7593,10.5158,-0.0095,0.0027,9.8066,0.1043,-0.271,0.0472,-2.31,-42.87,-17.12,130.41,-85.1,114.38
1335,52.939262,-1.76232,179.05,16.57,4,357.91,22 / 23,1432112,2019-11-06 12:09:45:993,-2.1477,1.7204,9.9834,0.0541,-0.0075,9.8064,-0.002,-0.1089,0.0634,-1.81,-42.44,-16.87,131.08,-84.91,115.02
1336,52.939262,-1.76232,179.05,16.57,4,357.91,22 / 23,1432212,2019-11-06 12:09:46:093,2.0313,-0.7936,9.8361,0.0144,0.0065,9.8066,-0.0401,-0.0305,0.0931,-2.06,-42.44,-16.62,131.83,-84.99,116.01
1337,52.939262,-1.76232,179.05,16.57,4,357.91,22 / 23,1432312,2019-11-06 12:09:46:193,2.7271,-0.6403,10.0414,0.0416,-0.0072,9.8065,0.0461,0.0489,-0.0463,-2.0,-42.06,-17.06,133.23,-85.12,117.87
1338,52.939262,-1.76232,179.05,16.57,4,357.91,22 / 23,1432412,2019-11-06 12:09:46:293,1.878,0.3341,10.5157,0.0308,-0.0042,9.8065,0.0453,0.027,-0.0635,-2.0,-42.44,-17.06,133.86,-85.15,118.62
1339,52.939262,-1.76232,179.05,16.57,4,357.91,22 / 23,1432512,2019-11-06 12:09:46:393,4.9342,-1.8177,9.3862,0.0068,-0.0206,9.8066,0.0442,0.2378,-0.1327,-3.0,-42.87,-15.94,137.38,-85.33,118.48
1340,52.939262,-1.76232,179.05,16.57,4,357.91,22 / 23,1432612,2019-11-06 12:09:46:493,0.5854,-1.4852,10.1654,0.0597,-0.0507,9.8063,-0.0022,0.1618,-0.1896,-2.62,-43.5,-16.69,137.7,-85.83,120.75
1341,52.939262,-1.76232,179.05,16.57,4,357.91,22 / 23,1432711,2019-11-06 12:09:46:592,6.959,-1.9005,11.0209,-0.0306,-0.0029,9.8066,0.0239,-0.1286,0.012,-3.5,-42.87,-16.12,140.37,-85.96,123.0
1342,52.939262,-1.76232,179.05,16.57,4,357.91,22 / 23,1432812,2019-11-06 12:09:46:693,1.0113,-0.3088,10.1617,-0.0033,0.0077,9.8066,0.121,-0.3059,0.0992,-3.75,-42.5,-16.25,144.55,-85.91,124.53
1343,52.939262,-1.76232,179.05,16.57,4,357.91,22 / 23,1432911,2019-11-06 12:09:46:792,-0.4904,-0.8762,10.8622,-0.0647,0.0445,9.8062,0.0359,-0.3753,0.1642,-3.37,-42.37,-15.25,144.15,-85.34,125.42
1344,52.939262,-1.76232,179.05,16.57,4,357.91,22 / 23,1433012,2019-11-06 12:09:46:893,4.6546,-2.1141,9.6042,-0.0388,0.016,9.8065,0.0949,-0.4539,0.2304,-3.87,-42.81,-15.5,148.07,-85.27,126.28
1345,52.939262,-1.76232,179.05,16.57,4,357.91,22 / 23,1433111,2019-11-06 12:09:46:992,-0.6842,-2.4637,8.9224,-0.0349,-0.0007,9.8065,0.1237,-0.6281,0.308,-4.62,-43.06,-15.31,151.09,-85.26,126.5
1346,52.939262,-1.76232,179.05,16.57,4,357.91,22 / 23,1433211,2019-11-06 12:09:47:092,6.1167,-1.0554,9.5049,-0.031,-0.0014,9.8066,0.1164,-0.6338,0.3704,-4.31,-42.81,-15.69,148.6,-85.52,128.54
1347,52.939262,-1.76232,179.05,16.57,4,357.91,22 / 23,1433312,2019-11-06 12:09:47:193,-0.2036,1.3413,9.1598,0.0315,-0.0387,9.8065,-0.0032,-0.3013,0.1412,-4.5,-42.69,-15.81,151.44,-85.84,132.28
1348,52.939262,-1.76232,179.05,16.57,4,357.91,22 / 23,1433412,2019-11-06 12:09:47:293,5.4945,-2.0849,9.932,-0.0359,-0.0028,9.8066,-0.0158,-0.0806,0.1155,-5.06,-42.62,-15.62,152.83,-86.35,131.24
1349,52.940674,-1.761978,178.3,18.42,8,26.19,19 / 20,1433512,2019-11-06 12:09:47:393,2.6586,-2.0972,9.6626,0.0645,-0.0223,9.8064,-0.1749,0.3515,-0.2189,-4.75,-43.06,-16.12,153.49,-86.89,132.61
1350,52.940674,-1.761978,178.3,18.42,8,26.19,19 / 20,1433612,2019-11-06 12:09:47:493,-2.9968,2.2927,9.0084,0.0189,-0.0174,9.8066,-0.1197,0.5353,-0.2875,-5.06,-42.06,-16.0,150.35,-86.93,129.23
1351,52.940674,-1.761978,178.3,18.42,8,26.19,19 / 20,1433712,2019-11-06 12:09:47:593,3.6841,-0.9421,11.3205,0.066,0.0069,9.8064,-0.0208,0.379,-0.186,-5.12,-42.37,-15.69,149.43,-86.67,127.88
1352,52.940674,-1.761978,178.3,18.42,8,26.19,19 / 20,1433812,2019-11-06 12:09:47:693,-3.6093,1.5348,10.2842,0.0917,0.0265,9.8062,0.0875,0.2203,-0.1107,-5.62,-42.81,-15.31,164.26,-86.59,140.02
1353,52.940674,-1.761978,178.3,18.42,8,26.19,19 / 20,1433912,2019-11-06 12:09:47:793,1.6021,-1.0228,10.4325,0.0256,-0.0029,9.8065,0.0337,-0.0737,-0.0751,-5.12,-42.81,-16.06,161.58,-86.51,141.43
1354,52.940674,-1.761978,178.3,18.42,8,26.19,19 / 20,1434012,2019-11-06 12:09:47:893,-2.9864,-0.353,8.9196,0.0563,-0.013,9.8064,-0.0212,-0.1018,0.0379,-5.25,-42.75,-15.5,164.26,-86.51,143.28
1355,52.940674,-1.761978,178.3,18.42,8,26.19,19 / 20,1434112,2019-11-06 12:09:47:993,3.3393,-1.318,9.5183,-0.0121,-0.0151,9.8065,0.0347,-0.2504,0.0981,-5.44,-42.12,-15.62,159.71,-86.59,139.42
1356,52.940674,-1.761978,178.3,18.42,8,26.19,19 / 20,1434212,2019-11-06 12:09:48:093,-1.7267,3.1987,7.9737,0.035,-0.0317,9.8065,0.0813,-0.3168,0.1662,-6.12,-42.69,-15.5,163.99,-86.77,139.84
1357,52.940674,-1.761978,178.3,18.42,8,26.19,19 / 20,1434312,2019-11-06 12:09:48:193,4.4645,-3.509,10.2719,-0.0553,-0.0309,9.8064,0.1332,-0.5456,0.2713,-6.25,-42.75,-15.75,161.66,-86.72,138.53
1358,52.940674,-1.761978,178.3,18.42,8,26.19,19 / 20,1434412,2019-11-06 12:09:48:293,0.2295,-1.5189,9.5076,0.0543,-0.019,9.8065,0.1512,-0.8051,0.4357,-5.37,-42.69,-16.25,156.93,-86.94,136.53
1359,52.940674,-1.761978,178.3,18.42,8,26.19,22 / 24,1434512,2019-11-06 12:09:48:393,6.0888,-4.2705,10.2469,-0.0765,0.0287,9.8063,0.0846,-0.8084,0.4213,-6.5,-43.06,-15.56,155.75,-86.77,131.89
1360,52.940674,-1.761978,178.3,18.42,8,26.19,22 / 24,1434612,2019-11-06 12:09:48:493,1.8557,-0.1794,9.4207,-0.0506,0.0397,9.8064,0.0638,-0.652,0.4024,-6.31,-42.94,-16.25,160.32,-86.97,137.22
1361,52.940674,-1.761978,178.3,18.42,8,26.19,22 / 24,1434711,2019-11-06 12:09:48:592,-5.4318,0.5754,10.3138,-0.0569,0.0188,9.8065,-0.075,0.1343,-0.1125,-5.25,-42.87,-15.75,161.71,-87.3,142.2
1362,52.940674,-1.761978,178.3,18.42,8,26.19,22 / 24,1434811,2019-11-06 12:09:48:692,1.9943,-0.4267,10.9885,-0.1124,0.0595,9.8058,0.0257,0.4044,-0.3164,-6.19,-42.69,-15.87,157.04,-86.83,133.41
1363,52.940674,-1.761978,178.3,18.42,8,26.19,22 / 24,1434911,2019-11-06 12:09:48:792,-6.3725,5.5723,10.1151,-0.0186,0.0532,9.8065,-0.0416,0.7054,-0.3346,-6.12,-43.31,-15.37,162.79,-86.52,138.28
1364,52.940674,-1.761978,178.3,18.42,8,26.19,22 / 24,1435011,2019-11-06 12:09:48:892,0.8263,-1.2159,9.3965,-0.0378,0.0425,9.8065,-0.0682,0.6196,-0.303,-6.12,-43.25,-15.44,165.01,-86.38,140.75
1365,52.940674,-1.761978,178.3,18.42,8,26.19,22 / 24,1435111,2019-11-06 12:09:48:992,-5.5236,3.2571,8.2274,0.0877,-0.0357,9.8061,-0.1116,0.617,-0.198,-6.31,-42.31,-15.31,173.78,-86.77,151.08
1366,52.940674,-1.761978,178.3,18.42,8,26.19,22 / 24,1435211,2019-11-06 12:09:49:092,1.862,-2.8583,9.1079,0.0383,-0.0366,9.8065,-0.0911,0.3201,-0.1568,-7.56,-42.31,-16.0,177.07,-87.19,150.18
1367,52.940674,-1.761978,178.3,18.42,8,26.19,22 / 24,1435311,2019-11-06 12:09:49:192,4.5607,-0.7753,10.4656,0.0847,-0.0676,9.806,0.1061,-0.0157,0.0173,-7.75,-42.19,-15.44,179.08,-87.48,150.9
1368,52.940674,-1.761978,178.3,18.42,8,26.19,22 / 24,1435411,2019-11-06 12:09:49:292,1.7844,-0.8999,10.6907,0.0738,0.011,9.8063,0.2201,-0.2761,0.0608,-7.56,-42.25,-16.12,190.73,-87.64,165.19
1369,52.940674,-1.761978,178.3,18.42,8,26.19,22 / 23,1435513,2019-11-06 12:09:49:394,3.3072,-1.8007,9.7671,0.0157,0.0127,9.8066,0.055,-0.4913,0.3166,-7.31,-42.44,-15.5,189.51,-87.49,165.54
1370,52.940674,-1.761978,178.3,18.42,8,26.19,22 / 23,1435611,2019-11-06 12:09:49:492,-3.0271,2.222,9.2681,0.0698,-0.0025,9.8064,0.0752,-0.5305,0.2815,-7.06,-42.56,-15.19,191.85,-87.57,168.12
1371,52.940674,-1.761978,178.3,18.42,8,26.19,22 / 23,1435712,2019-11-06 12:09:49:593,0.7276,-0.792,10.3255,-0.0149,-0.0063,9.8065,0.1155,-0.3686,0.0708,-7.31,-42.62,-15.25,189.28,-87.73,165.2
1372,52.940674,-1.761978,178.3,18.42,8,26.19,22 / 23,1435812,2019-11-06 12:09:49:693,-2.6393,3.0007,9.9456,0.0317,0.003,9.8066,0.0433,-0.2032,0.1648,-7.44,-42.31,-15.37,194.01,-87.83,170.31
1373,52.940674,-1.761978,178.3,18.42,8,26.19,22 / 23,1435912,2019-11-06 12:09:49:793,1.4059,-1.7551,9.6937,-0.0308,0.0118,9.8066,-0.0134,-0.0759,0.1259,-7.94,-42.25,-15.31,200.66,-87.91,174.4
1374,52.940674,-1.761978,178.3,18.42,8,26.19,22 / 23,1436012,2019-11-06 12:09:49:893,1.5818,1.878,10.289,0.0165,-0.0253,9.8065,-0.0637,0.1617,0.0371,-8.12,-42.81,-14.81,210.17,-87.95,-175.31
1375,52.940674,-1.761978,178.3,18.42,8,26.19,22 / 23,1436112,2019-11-06 12:09:49:993,1.9166,-0.6602,9.9233,-0.0156,-0.0197,9.8066,0.063,0.1247,-0.1791,-8.0,-42.0,-14.87,212.05,-88.14,-173.59
1376,52.940674,-1.761978,178.3,18.42,8,26.19,22 / 23,1436212,2019-11-06 12:09:50:093,1.789,-2.0046,10.7215,-0.0321,0.008,9.8065,0.0175,0.1581,-0.0711,-8.37,-42.44,-14.81,213.3,-88.16,-172.29
1377,52.940674,-1.761978,178.3,18.42,8,26.19,22 / 23,1436312,2019-11-06 12:09:50:193,-0.2265,-1.2206,9.987,0.0325,0.0177,9.8065,-0.0788,0.039,0.1558,-7.94,-42.06,-15.56,216.58,-88.23,-167.52
1378,52.940674,-1.761978,178.3,18.42,8,26.19,22 / 23,1436412,2019-11-06 12:09:50:293,0.9274,5.351,9.8801,-0.0145,0.0387,9.8065,-0.0448,0.1152,-0.1774,-8.81,-41.87,-14.81,216.8,-87.77,-170.97
1379,52.940674,-1.761978,178.3,18.42,8,26.19,23 / 24,1436512,2019-11-06 12:09:50:393,-0.6372,1.6521,10.5378,0.0024,-0.0072,9.8066,0.0282,0.1318,-0.1853,-8.12,-42.0,-14.44,218.26,-87.25,-167.08
1380,52.940674,-1.761978,178.3,18.42,8,26.19,23 / 24,1436612,2019-11-06 12:09:50:493,2.9107,0.9709,9.437,-0.026,0.0303,9.8065,-0.0424,0.2544,-0.0521,-7.81,-42.31,-15.37,219.38,-87.15,-164.26
1381,52.940674,-1.761978,178.3,18.42,8,26.19,23 / 24,1436711,2019-11-06 12:09:50:592,-1.1699,1.385,9.5055,0.0299,-0.0186,9.8065,-0.0455,0.1535,0.0225,-9.0,-41.81,-15.12,225.84,-87.16,-160.26
1382,52.940674,-1.761978,178.3,18.42,8,26.19,23 / 24,1436811,2019-11-06 12:09:50:692,2.2392,0.5548,9.803,-0.0377,-0.0018,9.8066,-0.023,-0.0274,-0.0868,-8.81,-42.25,-15.0,229.28,-87.22,-156.65
1383,52.940674,-1.761978,178.3,18.42,8,26.19,23 / 24,1436912,2019-11-06 12:09:50:793,-1.5557,1.1747,9.982,0.013,-0.0079,9.8065,0.0333,-0.1097,0.0289,-8.44,-42.25,-14.94,228.68,-87.26,-154.33
1384,52.940674,-1.761978,178.3,18.42,8,26.19,23 / 24,1437012,2019-11-06 12:09:50:893,0.275,0.7691,9.5217,-0.011,0.0013,9.8066,0.0344,-0.0888,0.0637,-8.81,-41.94,-15.44,228.28,-87.34,-157.95
1385,52.940674,-1.761978,178.3,18.42,8,26.19,23 / 24,1437111,2019-11-06 12:09:50:992,-0.9309,0.9458,10.2099,0.0145,-0.0085,9.8066,0.0114,-0.039,-0.015,-8.81,-41.75,-14.37,235.06,-87.33,-152.17
1386,52.940674,-1.761978,178.3,18.42,8,26.19,23 / 24,1437212,2019-11-06 12:09:51:093,1.0668,0.0603,9.8489,0.01,-0.0105,9.8066,-0.0269,-0.1263,0.2327,-8.94,-41.94,-14.75,238.66,-87.2,-146.59
1387,52.940674,-1.761978,178.3,18.42,8,26.19,23 / 24,1437312,2019-11-06 12:09:51:193,-0.7301,1.8345,9.1354,0.0356,-0.0394,9.8065,-0.0229,-0.0352,0.2017,-9.0,-42.31,-15.06,240.73,-87.17,-144.32
1388,52.940674,-1.761978,178.3,18.42,8,26.19,23 / 24,1437412,2019-11-06 12:09:51:293,1.9343,0.494,9.959,-0.0356,-0.0137,9.8065,0.017,-0.1963,0.0408,-10.19,-41.44,-15.75,251.62,-87.25,-134.72
1389,52.940674,-1.761978,178.3,18.42,8,26.19,22 / 22,1437512,2019-11-06 12:09:51:393,-1.8378,1.0734,9.6535,0.0257,-0.0138,9.8065,0.0759,-0.1786,0.1229,-8.75,-41.75,-15.19,255.52,-87.15,-128.82
1390,52.940674,-1.761978,178.3,18.42,8,26.19,22 / 22,1437611,2019-11-06 12:09:51:492,0.085,0.4677,9.7662,-0.0184,0.0071,9.8066,0.0416,-0.1281,0.1026,-8.94,-41.62,-15.37,253.47,-87.34,-131.38
1391,52.940674,-1.761978,178.3,18.42,8,26.19,22 / 22,1437712,2019-11-06 12:09:51:593,-2.4969,1.0776,10.0641,0.0224,0.0148,9.8065,0.0359,-0.2494,0.0613,-9.31,-41.5,-15.87,251.29,-87.09,-131.91
1392,52.940674,-1.761978,178.3,18.42,8,26.19,22 / 22,1437812,2019-11-06 12:09:51:693,-1.0552,0.0524,10.7366,0.0376,0.0134,9.8065,0.1099,-0.0764,0.0932,-9.62,-42.19,-15.37,252.75,-86.95,-134.15
1393,52.940674,-1.761978,178.3,18.42,8,26.19,22 / 22,1437911,2019-11-06 12:09:51:792,1.9257,0.1431,9.6109,0.0286,0.0151,9.8066,0.1292,-0.1555,0.0143,-9.37,-41.81,-15.5,250.95,-87.04,-133.3
1394,52.940674,-1.761978,178.3,18.42,8,26.19,22 / 22,1438011,2019-11-06 12:09:51:892,-2.8321,1.0544,8.5376,0.0483,-0.0298,9.8064,-0.0068,-0.0078,-0.0228,-9.37,-41.69,-14.56,255.37,-86.91,-128.41
1395,52.940674,-1.761978,178.3,18.42,8,26.19,22 / 22,1438111,2019-11-06 12:09:51:992,1.7539,-2.3341,9.1541,0.0231,-0.0015,9.8066,0.0156,0.1234,-0.0535,-9.06,-42.19,-15.5,259.39,-87.12,-124.77
1396,52.940674,-1.761978,178.3,18.42,8,26.19,22 / 22,1438211,2019-11-06 12:09:52:092,-3.0407,2.1566,8.2328,0.0528,-0.023,9.8064,0.0118,0.3109,-0.1623,-9.37,-41.69,-15.5,267.11,-87.05,-116.76
1397,52.940674,-1.761978,178.3,18.42,8,26.19,22 / 22,1438312,2019-11-06 12:09:52:193,3.0733,-1.5833,9.8615,-0.0169,-0.0057,9.8066,-0.1324,0.5077,-0.216,-9.75,-41.44,-15.5,278.06,-87.04,-108.93
1398,52.940674,-1.761978,178.3,18.42,8,26.19,22 / 22,1438412,2019-11-06 12:09:52:293,-4.9487,2.3938,9.9335,0.0652,-0.0074,9.8064,-0.0504,0.6793,-0.4319,-9.06,-41.44,-15.87,276.29,-86.64,-105.58
1399,52.940674,-1.761978,178.3,18.42,8,26.19,20 / 22,1438512,2019-11-06 12:09:52:393,-3.7895,-0.4816,10.7585,-0.0858,0.0447,9.8062,0.0272,0.4965,-0.2996,-9.81,-42.19,-16.19,276.83,-87.18,-108.93
1400,52.940674,-1.761978,178.3,18.42,8,26.19,20 / 22,1438613,2019-11-06 12:09:52:494,2.7862,-0.5002,10.685,-0.0259,0.0311,9.8065,0.1134,0.2602,-0.1374,-9.25,-42.06,-15.06,272.59,-86.97,-111.07
1401,52.940674,-1.761978,178.3,18.42,8,26.19,20 / 22,1438712,2019-11-06 12:09:52:593,2.2849,-1.0146,9.6131,-0.1032,0.0179,9.8061,0.1804,-0.1897,-0.0396,-9.31,-41.25,-16.12,273.07,-87.16,-109.94
1402,52.940674,-1.761978,178.3,18.42,8,26.19,20 / 22,1438811,2019-11-06 12:09:52:692,1.9694,-0.512,10.3172,-0.0811,-0.0003,9.8063,0.133,-0.3952,0.2315,-9.87,-41.69,-15.69,276.51,-87.05,-108.93
1403,52.940674,-1.761978,178.3,18.42,8,26.19,20 / 22,1438911,2019-11-06 12:09:52:792,-5.0853,2.5542,9.1796,-0.0318,-0.0087,9.8065,-0.0156,-0.5049,0.3104,-9.0,-42.0,-15.87,270.28,-86.81,-111.75
1404,52.940674,-1.761978,178.3,18.42,8,26.19,20 / 22,1439012,2019-11-06 12:09:52:893,0.9132,-0.2859,9.8428,-0.0548,0.0191,9.8065,-0.0876,-0.5637,0.4224,-8.87,-41.87,-16.5,270.05,-87.0,-112.42
1405,52.940674,-1.761978,178.3,18.42,8,26.19,20 / 22,1439112,2019-11-06 12:09:52:993,-6.3122,1.3911,8.59,0.0282,-0.016,9.8065,0.0515,-0.5211,0.3874,-9.62,-41.31,-16.69,277.17,-86.62,-106.27
1406,52.940674,-1.761978,178.3,18.42,8,26.19,20 / 22,1439212,2019-11-06 12:09:53:093,2.0875,-0.7263,9.8564,-0.0524,-0.0096,9.8064,0.0322,-0.5719,0.3457,-10.0,-41.62,-15.94,281.44,-86.61,-103.12
1407,52.940674,-1.761978,178.3,18.42,8,26.19,20 / 22,1439311,2019-11-06 12:09:53:192,-3.7349,2.3444,11.158,0.06,-0.0444,9.8063,-0.0472,-0.3697,0.3549,-9.37,-40.87,-16.31,279.94,-86.01,-100.56
1408,52.940674,-1.761978,178.3,18.42,8,26.19,20 / 22,1439412,2019-11-06 12:09:53:293,2.2808,-1.0185,10.1458,-0.0507,0.0332,9.8064,-0.0127,-0.203,0.2465,-9.87,-41.5,-16.5,281.03,-86.13,-102.65
1409,52.940674,-1.761978,178.3,18.42,8,26.19,22 / 23,1439512,2019-11-06 12:09:53:393,-0.6706,0.1632,9.9613,0.0282,-0.0265,9.8065,0.004,0.147,-0.0564,-9.69,-40.69,-16.94,281.18,-85.73,-100.49
1410,52.940674,-1.761978,178.3,18.42,8,26.19,22 / 23,1439611,2019-11-06 12:09:53:492,1.4312,-0.9458,10.2526,0.0167,0.0166,9.8066,-0.1588,0.1164,-0.0954,-9.5,-41.31,-16.56,278.51,-85.78,-100.41
1411,52.940674,-1.761978,178.3,18.42,8,26.19,22 / 23,1439712,2019-11-06 12:09:53:593,-2.0577,2.6373,10.5901,0.0682,-0.0109,9.8064,-0.3282,0.4996,-0.089,-9.25,-41.81,-16.62,281.27,-85.56,-97.03
1412,52.940674,-1.761978,178.3,18.42,8,26.19,22 / 23,1439812,2019-11-06 12:09:53:693,-4.4493,0.3337,7.271,0.0537,0.0463,9.8064,-0.2987,0.5138,-0.2485,-10.0,-41.62,-17.0,284.31,-85.54,-96.86
1413,52.940674,-1.761978,178.3,18.42,8,26.19,22 / 23,1439912,2019-11-06 12:09:53:793,-5.2281,1.1834,8.7697,0.0919,0.011,9.8062,-0.1077,0.6615,-0.3447,-10.62,-41.75,-17.12,292.07,-85.76,-92.6
1414,52.940674,-1.761978,178.3,18.42,8,26.19,22 / 23,1440012,2019-11-06 12:09:53:893,-3.0718,-0.6475,10.4608,0.0568,-0.0216,9.8064,-0.08,0.8168,-0.4296,-9.44,-41.31,-17.12,285.21,-85.41,-93.13
1415,52.940674,-1.761978,178.3,18.42,8,26.19,22 / 23,1440112,2019-11-06 12:09:53:993,3.0231,-2.0727,11.0832,0.0586,0.0068,9.8064,-0.0202,0.5394,-0.3428,-9.56,-41.62,-16.75,286.55,-85.43,-94.48
1416,52.940674,-1.761978,178.3,18.42,8,26.19,22 / 23,1440212,2019-11-06 12:09:54:093,-2.0419,0.1968,9.3949,0.066,-0.013,9.8063,0.0339,0.3085,-0.1741,-9.37,-42.06,-16.69,282.99,-85.55,-95.34
1417,52.940674,-1.761978,178.3,18.42,8,26.19,22 / 23,1440312,2019-11-06 12:09:54:193,3.7806,-0.9936,10.448,-0.0117,-0.0247,9.8065,0.0771,-0.0161,0.0609,-9.31,-40.94,-17.19,286.3,-85.65,-92.6
1418,52.940674,-1.761978,178.3,18.42,8,26.19,22 / 23,1440412,2019-11-06 12:09:54:293,-1.3368,-1.4067,10.2612,0.0505,-0.0025,9.8065,0.0324,-0.3343,0.194,-9.19,-41.56,-17.19,285.59,-85.47,-92.66
1419,52.940674,-1.761978,178.3,18.42,8,26.19,21 / 23,1440512,2019-11-06 12:09:54:393,2.9981,-1.9315,10.9455,-0.068,0.0256,9.8064,0.0796,-0.3721,0.2058,-9.5,-41.0,-16.87,285.67,-85.57,-93.03
1420,52.940674,-1.761978,178.3,18.42,8,26.19,21 / 23,1440612,2019-11-06 12:09:54:493,-2.994,-0.8673,9.5369,-0.0398,0.0218,9.8065,0.0873,-0.515,0.251,-9.12,-41.94,-16.87,283.11,-86.14,-96.52
1421,52.940674,-1.761978,178.3,18.42,8,26.19,21 / 23,1440712,2019-11-06 12:09:54:593,-5.2319,2.5322,9.5652,-0.1038,0.0447,9.8059,-0.1085,-0.4856,0.4743,-8.87,-42.0,-16.94,279.14,-86.64,-101.47
1422,52.940674,-1.761978,178.3,18.42,8,26.19,21 / 23,1440812,2019-11-06 12:09:54:693,-4.9129,1.0337,10.0481,-0.0225,0.0204,9.8065,-0.1345,-0.3856,0.6432,-8.94,-41.25,-16.75,279.06,-86.19,-100.76
1423,52.940674,-1.761978,178.3,18.42,8,26.19,21 / 23,1440912,2019-11-06 12:09:54:793,-0.323,1.7068,8.7546,-0.0018,0.0077,9.8066,0.0442,-0.1155,-0.0411,-8.69,-41.5,-16.56,278.95,-85.99,-100.44
1424,52.940674,-1.761978,178.3,18.42,8,26.19,21 / 23,1441012,2019-11-06 12:09:54:893,0.5113,-1.8594,10.2474,-0.0098,-0.0389,9.8065,0.0861,-0.0213,-0.1792,-8.75,-41.87,-16.37,280.88,-86.1,-99.65
1425,52.940674,-1.761978,178.3,18.42,8,26.19,21 / 23,1441112,2019-11-06 12:09:54:993,-2.9725,1.0171,9.6955,-0.0425,0.0196,9.8065,-0.0434,0.0338,0.2392,-8.44,-41.87,-16.62,277.31,-85.85,-98.61
1426,52.940674,-1.761978,178.3,18.42,8,26.19,21 / 23,1441212,2019-11-06 12:09:55:093,0.1338,-0.2752,10.1123,-0.014,-0.0023,9.8065,-0.0619,0.0375,0.0721,-8.87,-41.87,-16.81,280.88,-85.96,-98.28
1427,52.940674,-1.761978,178.3,18.42,8,26.19,21 / 23,1441312,2019-11-06 12:09:55:193,-4.1263,1.9819,9.6551,0.019,-0.0071,9.8066,0.0642,0.3235,-0.3718,-8.5,-41.62,-16.75,277.73,-86.09,-98.75
1428,52.940674,-1.761978,178.3,18.42,8,26.19,21 / 23,1441411,2019-11-06 12:09:55:292,-0.1372,-1.2788,9.1501,-0.0576,0.0124,9.8064,0.0469,0.4125,-0.2113,-8.37,-42.25,-16.81,276.53,-86.49,-100.83
1429,52.940674,-1.761978,178.3,18.42,8,26.19,22 / 22,1441511,2019-11-06 12:09:55:392,1.36,0.1189,10.3086,-0.0751,0.0082,9.8063,-0.1109,0.3509,-0.2368,-7.87,-41.75,-16.87,277.46,-86.75,-100.49
1430,52.940674,-1.761978,178.3,18.42,8,26.19,22 / 22,1441612,2019-11-06 12:09:55:493,0.7426,-0.9801,10.3714,-0.0507,0.0074,9.8064,-0.0442,0.2355,-0.124,-7.62,-41.75,-17.5,276.32,-86.95,-102.08
1431,52.940674,-1.761978,178.3,18.42,8,26.19,22 / 22,1441712,2019-11-06 12:09:55:593,-1.3721,0.0607,9.6464,-0.0473,0.0177,9.8065,0.0271,0.145,0.0488,-7.69,-42.81,-16.75,272.44,-86.98,-105.82
1432,52.940674,-1.761978,178.3,18.42,8,26.19,22 / 22,1441811,2019-11-06 12:09:55:692,-3.7526,-0.1841,9.709,-0.0618,-0.0059,9.8064,-0.023,-0.0424,0.0166,-7.69,-42.31,-17.5,271.49,-86.55,-105.96
1433,52.940674,-1.761978,178.3,18.42,8,26.19,22 / 22,1441911,2019-11-06 12:09:55:792,-1.8219,-0.788,11.6956,-0.0253,0.0324,9.8065,0.0406,-0.0558,0.0013,-7.31,-41.81,-17.56,266.52,-86.73,-107.61
1434,52.940674,-1.761978,178.3,18.42,8,26.19,22 / 22,1442013,2019-11-06 12:09:55:894,-1.4456,-1.2302,9.1671,-0.0333,0.0431,9.8065,0.09,0.0086,0.0257,-7.37,-41.94,-17.19,262.7,-86.79,-112.39
1435,52.940674,-1.761978,178.3,18.42,8,26.19,22 / 22,1442112,2019-11-06 12:09:55:993,-1.5851,1.6635,10.1035,-0.0026,-0.0394,9.8065,0.1514,0.1298,-0.1394,-7.94,-42.0,-16.69,270.2,-86.5,-107.15
1436,52.940674,-1.761978,178.3,18.42,8,26.19,22 / 22,1442212,2019-11-06 12:09:56:093,1.5045,-1.0747,8.609,0.0131,-0.0152,9.8066,-0.1042,0.3388,-0.0983,-7.56,-41.75,-17.56,271.77,-86.29,-104.23
1437,52.940674,-1.761978,178.3,18.42,8,26.19,22 / 22,1442311,2019-11-06 12:09:56:192,-2.9379,0.0151,9.3663,0.0204,-0.0217,9.8066,-0.1265,0.1959,0.0669,-7.94,-41.37,-18.06,276.42,-86.21,-99.64
1438,52.940674,-1.761978,178.3,18.42,8,26.19,22 / 22,1442412,2019-11-06 12:09:56:293,2.2426,-1.628,10.1342,-0.036,0.0312,9.8064,-0.0492,0.1621,-0.0535,-8.12,-40.69,-18.06,282.61,-85.93,-93.01
1439,52.94208,-1.760717,176.81,19.81,4,23.4,23 / 23,1442511,2019-11-06 12:09:56:392,0.4705,-1.2327,11.2246,0.0242,0.0094,9.8066,0.0676,-0.0698,0.0997,-6.75,-38.81,-17.19,279.96,-85.76,-93.49
1440,52.94208,-1.760717,176.81,19.81,4,23.4,23 / 23,1442611,2019-11-06 12:09:56:492,1.4385,-0.4262,11.0137,-0.022,0.0411,9.8065,0.1678,0.0844,-0.0373,-8.31,-38.94,-15.87,277.21,-85.45,-99.42
1441,52.94208,-1.760717,176.81,19.81,4,23.4,23 / 23,1442711,2019-11-06 12:09:56:592,-3.527,1.5269,8.9102,0.0378,0.0369,9.8064,0.0441,0.0498,-0.1613,-9.5,-39.19,-16.37,274.08,-85.06,-104.72
1442,52.94208,-1.760717,176.81,19.81,4,23.4,23 / 23,1442812,2019-11-06 12:09:56:693,-2.7712,-1.7837,12.7618,-0.0466,0.034,9.8065,-0.333,-0.3192,0.5281,-10.5,-40.37,-16.62,271.25,-85.37,-109.76
1443,52.94208,-1.760717,176.81,19.81,4,23.4,23 / 23,1442911,2019-11-06 12:09:56:792,-8.7114,1.0179,9.8298,-0.1143,0.0487,9.8058,-0.1976,-0.3366,0.6247,-9.19,-40.56,-18.19,267.15,-85.34,-109.87
1444,52.94208,-1.760717,176.81,19.81,4,23.4,23 / 23,1443012,2019-11-06 12:09:56:893,0.4367,-0.6703,8.2306,-0.1686,0.0367,9.8051,0.105,-0.7718,0.2159,-8.44,-41.19,-17.56,265.72,-84.73,-107.21
1445,52.94208,-1.760717,176.81,19.81,4,23.4,23 / 23,1443111,2019-11-06 12:09:56:992,7.5748,-3.5191,14.2709,-0.0824,-0.0084,9.8062,0.307,-0.9967,0.4231,-7.87,-41.75,-16.87,264.22,-85.74,-111.47
1446,52.94208,-1.760717,176.81,19.81,4,23.4,23 / 23,1443212,2019-11-06 12:09:57:093,1.4537,-2.0279,10.5872,-0.0912,0.0351,9.8061,0.0641,-0.6327,0.3285,-7.81,-41.5,-17.62,259.1,-86.27,-117.23
1447,52.94208,-1.760717,176.81,19.81,4,23.4,23 / 23,1443312,2019-11-06 12:09:57:193,5.574,0.1531,10.063,-0.1407,-0.0514,9.8054,-0.0797,-0.677,0.2589,-8.0,-42.0,-17.06,262.32,-86.74,-115.65
1448,52.94208,-1.760717,176.81,19.81,4,23.4,23 / 23,1443412,2019-11-06 12:09:57:293,-5.3297,1.2619,10.3971,0.0511,0.0067,9.8065,-0.0602,-0.1463,0.1454,-7.06,-41.31,-17.25,259.0,-86.35,-115.37
1449,52.94208,-1.760717,176.81,19.81,4,23.4,19 / 19,1443512,2019-11-06 12:09:57:393,-2.3016,-2.1357,10.9348,-0.0807,0.0433,9.8062,0.0376,-0.0588,0.1967,-8.5,-40.87,-16.69,259.4,-86.46,-118.2
1450,52.94208,-1.760717,176.81,19.81,4,23.4,19 / 19,1443612,2019-11-06 12:09:57:493,-5.6609,0.9072,9.4669,0.0617,0.0383,9.8063,-0.1003,0.5189,-0.3324,-7.94,-41.62,-16.87,260.42,-86.18,-116.33
1451,52.94208,-1.760717,176.81,19.81,4,23.4,19 / 19,1443712,2019-11-06 12:09:57:593,2.7523,0.7758,10.9008,-0.0042,-0.0115,9.8066,-0.0712,0.5835,-0.4398,-7.94,-42.06,-16.5,258.04,-86.17,-119.7
1452,52.94208,-1.760717,176.81,19.81,4,23.4,19 / 19,1443811,2019-11-06 12:09:57:692,0.1192,-1.7295,9.2928,0.0904,-0.0297,9.8061,0.0858,0.596,-0.5404,-7.12,-41.62,-16.12,249.76,-86.14,-125.15
1453,52.94208,-1.760717,176.81,19.81,4,23.4,19 / 19,1443912,2019-11-06 12:09:57:793,3.8697,-2.9713,9.1108,-0.0111,0.001,9.8066,0.128,0.6161,-0.5124,-7.19,-42.62,-16.25,244.69,-86.55,-131.26
1454,52.94208,-1.760717,176.81,19.81,4,23.4,19 / 19,1444012,2019-11-06 12:09:57:893,-4.8217,2.7405,9.9154,0.0715,-0.0467,9.8062,0.1099,0.3739,-0.3925,-7.19,-41.5,-17.0,247.5,-86.5,-127.68
1455,52.94208,-1.760717,176.81,19.81,4,23.4,19 / 19,1444112,2019-11-06 12:09:57:993,0.4246,-0.4897,8.4708,-0.0604,0.0039,9.8064,0.0103,0.3277,-0.3064,-7.56,-41.87,-16.62,245.26,-86.9,-133.66
1456,52.94208,-1.760717,176.81,19.81,4,23.4,19 / 19,1444212,2019-11-06 12:09:58:093,-3.7802,0.306,8.8754,0.0254,-0.0167,9.8065,-0.0153,0.3721,-0.2575,-6.75,-42.12,-16.94,243.35,-86.97,-132.86
1457,52.94208,-1.760717,176.81,19.81,4,23.4,19 / 19,1444312,2019-11-06 12:09:58:193,3.4114,-1.1943,10.7367,-0.038,0.0159,9.8065,0.0376,0.2742,-0.2165,-6.87,-42.0,-17.5,244.82,-87.05,-131.48
1458,52.94208,-1.760717,176.81,19.81,4,23.4,19 / 19,1444412,2019-11-06 12:09:58:293,-3.028,-0.0674,9.4971,0.0608,0.0057,9.8064,-0.0386,0.645,-0.3508,-7.56,-41.44,-17.12,248.86,-86.67,-129.57
1459,52.94208,-1.760717,176.81,19.81,4,23.4,22 / 24,1444512,2019-11-06 12:09:58:393,-3.1844,1.487,8.9075,-0.0632,0.0043,9.8064,-0.0424,0.5964,-0.4495,-7.31,-41.69,-17.12,246.81,-86.43,-128.09
1460,52.94208,-1.760717,176.81,19.81,4,23.4,22 / 24,1444612,2019-11-06 12:09:58:493,-3.854,0.5821,8.2573,0.0559,-0.0396,9.8064,-0.0588,0.5208,-0.3024,-6.87,-41.75,-17.5,248.57,-86.52,-126.41
1461,52.94208,-1.760717,176.81,19.81,4,23.4,22 / 24,1444712,2019-11-06 12:09:58:593,-1.5683,-0.481,9.2138,-0.0182,-0.0285,9.8065,-0.0431,0.2161,-0.0977,-6.94,-42.19,-17.06,250.25,-86.72,-125.09
