,GPS LATITUDE (degrees), GPS LONGITUDE (degrees), GPS ALTITUDE (m), GPS SPEED (Kmh), GPS ACCURACY (m), GPS ORIENTATION (Â°),GPS SATELLITES IN RANGE, TIME SINCE START (ms), DATE (YYYY-MO-DD HH-MI-SS_SSS), ACCELEROMETER X (m/s²) , ACCELEROMETER Y (m/s²), ACCELEROMETER Z (m/s²), GRAVITY X (m/s²), GRAVITY Y (m/s²), GRAVITY Z (m/s²), GYROSCOPE Yaw (rad/s), GYROSCOPE Pitch (rad/s), GYROSCOPE Roll (rad/s), MAGNETIC FIELD X (Î¼T), MAGNETIC FIELD Y (Î¼T), MAGNETIC FIELD Z (Î¼T), ORIENTATION (Yaw) (Â°), ORIENTATION (Pitch) (Â°), ORIENTATION (Roll ) (Â°)
20913,53.08096,-1.295694,213.29,24.47,4,322.55,24 / 24,2091338,2019-11-08 10:32:08:949,-0.0251,-2.7011,9.4059,0.0106,-0.0094,9.8066,-0.0438,-0.1519,0.304,-0.75,-45.56,30.31,358.54,-83.72,-179.29
20914,53.08096,-1.295694,213.29,24.47,4,322.55,24 / 24,2091439,2019-11-08 10:32:09:050,-0.3876,1.1698,10.0385,0.0462,0.0413,9.8064,-0.0416,-0.1237,0.1422,0.25,-44.87,30.56,0.92,-84.02,-179.22
20915,53.08096,-1.295694,213.29,24.47,4,322.55,23 / 24,2091539,2019-11-08 10:32:09:150,0.6147,0.6968,8.9135,0.0287,0.0151,9.8065,0.1029,-0.1558,-0.1023,-1.12,-45.75,30.38,1.04,-84.15,-177.22
20916,53.08096,-1.295694,213.29,24.47,4,322.55,23 / 24,2091639,2019-11-08 10:32:09:250,1.7574,-2.2726,10.037,-0.0139,-0.0269,9.8065,0.121,-0.1505,-0.0018,-0.37,-44.94,31.0,0.61,-84.17,-179.48
20917,53.08096,-1.295694,213.29,24.47,4,322.55,23 / 24,2091738,2019-11-08 10:32:09:349,1.8006,-1.3322,10.6446,-0.026,0.0121,9.8066,0.035,-0.0901,0.0101,-0.25,-45.75,30.75,0.53,-84.01,-179.55
20918,53.08096,-1.295694,213.29,24.47,4,322.55,23 / 24,2091838,2019-11-08 10:32:09:449,-0.8439,1.4754,8.8204,-0.0258,0.0285,9.8066,-0.0318,0.0257,0.0351,0.06,-45.81,29.94,0.16,-83.98,-179.87
20919,53.08096,-1.295694,213.29,24.47,4,322.55,23 / 24,2091938,2019-11-08 10:32:09:549,-0.6983,-1.0279,10.7844,-0.008,-0.0239,9.8066,-0.1629,0.1622,0.0049,-0.87,-45.12,30.5,359.48,-84.02,-178.59
20920,53.08096,-1.295694,213.29,24.47,4,322.55,23 / 24,2092038,2019-11-08 10:32:09:649,0.5494,-0.6553,10.4433,0.0304,-0.0165,9.8065,-0.0311,0.1164,-0.0381,-0.44,-45.19,29.94,2.76,-84.22,-177.67
20921,53.08096,-1.295694,213.29,24.47,4,322.55,23 / 24,2092138,2019-11-08 10:32:09:749,-1.6711,-0.9288,10.1202,0.0061,0.0034,9.8066,0.0954,0.0459,-0.1205,-0.37,-45.75,29.88,2.37,-84.17,-178.01
20922,53.08096,-1.295694,213.29,24.47,4,322.55,23 / 24,2092239,2019-11-08 10:32:09:850,0.1553,0.6721,10.0363,0.0086,-0.0019,9.8066,0.0309,-0.0383,-0.0398,0.25,-45.25,30.13,0.56,-84.02,-179.53
20923,53.08096,-1.295694,213.29,24.47,4,322.55,23 / 24,2092338,2019-11-08 10:32:09:949,-0.8592,-0.6394,10.7861,0.0172,0.0138,9.8065,0.1648,-0.1206,0.0136,-0.5,-45.94,30.88,358.72,-83.96,178.93
20924,53.08096,-1.295694,213.29,24.47,4,322.55,23 / 24,2092438,2019-11-08 10:32:10:049,-0.4914,-0.4522,9.4782,-0.0009,-0.0045,9.8066,0.158,-0.0577,0.0148,0.06,-45.31,30.81,0.24,-83.97,-179.8
20925,53.08096,-1.295694,213.29,24.47,4,322.55,23 / 23,2092538,2019-11-08 10:32:10:149,-2.2456,-0.2458,9.6005,-0.041,0.0264,9.8065,0.0851,0.1895,-0.1834,-0.25,-45.44,30.56,2.91,-83.98,-177.55
20926,53.08096,-1.295694,213.29,24.47,4,322.55,23 / 23,2092638,2019-11-08 10:32:10:249,-0.5226,0.3173,8.3104,-0.031,-0.017,9.8065,0.0083,0.1258,-0.1181,-0.81,-45.44,30.31,0.3,-83.76,-177.84
20927,53.08096,-1.295694,213.29,24.47,4,322.55,23 / 23,2092738,2019-11-08 10:32:10:349,-1.1796,-1.635,11.5239,0.0061,0.0143,9.8066,-0.0036,-0.0451,0.031,-0.19,-45.56,30.56,1.8,-83.84,-178.5
20928,53.08096,-1.295694,213.29,24.47,4,322.55,23 / 23,2092838,2019-11-08 10:32:10:449,-0.4716,0.2536,9.6962,0.0198,0.0044,9.8066,-0.0551,-0.0905,0.1123,-0.25,-45.31,30.5,359.97,-83.71,179.97
20929,53.08096,-1.295694,213.29,24.47,4,322.55,23 / 23,2092938,2019-11-08 10:32:10:549,-1.9126,-1.3834,10.6081,0.0138,-0.0094,9.8066,0.0712,-0.3626,0.1004,-0.69,-45.12,30.81,356.11,-83.62,178.61
20930,53.08096,-1.295694,213.29,24.47,4,322.55,23 / 23,2093038,2019-11-08 10:32:10:649,1.8689,-1.4582,11.2255,-0.0282,0.0094,9.8065,-0.0637,-0.3098,0.2357,0.0,-45.31,30.5,357.54,-83.41,177.96
20931,53.08096,-1.295694,213.29,24.47,4,322.55,23 / 23,2093138,2019-11-08 10:32:10:749,2.6642,0.7543,8.2108,0.0333,-0.038,9.8065,-0.1682,0.0524,0.0417,-0.31,-45.44,30.44,0.15,-83.66,-179.87
20932,53.08096,-1.295694,213.29,24.47,4,322.55,23 / 23,2093239,2019-11-08 10:32:10:850,-0.6349,-0.854,10.1163,0.012,0.0118,9.8066,-0.0963,0.2439,-0.2093,-0.31,-45.81,30.44,358.55,-83.67,178.8
20933,53.08096,-1.295694,213.29,24.47,4,322.55,23 / 23,2093338,2019-11-08 10:32:10:949,3.2723,0.1294,9.6912,0.0104,0.0185,9.8066,-0.056,0.3789,-0.203,0.0,-45.62,29.5,359.18,-83.74,179.32
20934,53.08096,-1.295694,213.29,24.47,4,322.55,23 / 23,2093438,2019-11-08 10:32:11:049,0.7655,-0.6783,9.6294,0.0425,0.0149,9.8064,0.0071,0.3357,-0.1558,-0.31,-44.94,30.31,357.6,-83.85,178.0
20935,53.08096,-1.295694,213.29,24.47,4,322.55,24 / 24,2093538,2019-11-08 10:32:11:149,-3.7268,0.1433,9.0557,0.051,0.0024,9.8064,-0.1377,0.0118,0.0289,-0.31,-45.37,30.25,358.22,-83.87,178.52
20936,53.08096,-1.295694,213.29,24.47,4,322.55,24 / 24,2093638,2019-11-08 10:32:11:249,1.1115,0.1165,9.4847,0.0543,-0.0199,9.8064,0.0063,-0.1307,0.1113,-0.75,-45.25,30.25,0.19,-84.05,-177.93
20937,53.08096,-1.295694,213.29,24.47,4,322.55,24 / 24,2093739,2019-11-08 10:32:11:350,-3.8466,-0.6411,11.0293,0.008,0.0199,9.8066,0.1576,-0.4099,0.2345,-1.19,-45.5,30.69,358.79,-83.93,-179.17
20938,53.08096,-1.295694,213.29,24.47,4,322.55,24 / 24,2093839,2019-11-08 10:32:11:450,-0.6587,-0.7176,9.3703,-0.0218,-0.0082,9.8065,0.1587,-0.3949,0.2423,-0.37,-45.25,30.13,2.25,-83.7,-178.13
20939,53.08096,-1.295694,213.29,24.47,4,322.55,24 / 24,2093939,2019-11-08 10:32:11:550,-4.432,-0.95,10.0681,0.0551,0.033,9.8063,0.1437,-0.3468,0.0519,-0.44,-45.62,30.13,358.87,-83.88,179.06
20940,53.08096,-1.295694,213.29,24.47,4,322.55,24 / 24,2094039,2019-11-08 10:32:11:650,-2.7976,1.7038,9.2688,-0.049,0.031,9.8064,-0.001,0.2225,-0.1804,-0.5,-44.81,30.38,358.67,-83.78,178.89
20941,53.08096,-1.295694,213.29,24.47,4,322.55,24 / 24,2094140,2019-11-08 10:32:11:751,5.5865,-0.1615,10.0969,0.023,-0.0149,9.8065,-0.0802,0.5222,-0.3259,-0.44,-45.62,30.44,1.51,-84.0,-178.74
20942,53.08096,-1.295694,213.29,24.47,4,322.55,24 / 24,2094240,2019-11-08 10:32:11:851,-3.1607,-1.3278,11.1216,-0.05,-0.0388,9.8064,-0.226,0.5884,-0.2495,-0.06,-45.5,30.0,358.96,-84.12,179.12
20943,53.08096,-1.295694,213.29,24.47,4,322.55,24 / 24,2094339,2019-11-08 10:32:11:950,4.4737,1.6974,8.9509,-0.0537,-0.0095,9.8064,-0.1155,0.5174,-0.2686,-0.56,-45.56,30.38,359.82,-84.13,-178.24
20944,53.08096,-1.295694,213.29,24.47,4,322.55,24 / 24,2094439,2019-11-08 10:32:12:050,2.9943,0.564,9.1969,-0.0086,-0.033,9.8065,-0.1455,-0.0721,0.0161,-0.25,-45.5,30.25,358.98,-84.26,179.14
20945,53.08096,-1.295694,213.29,24.47,4,322.55,23 / 24,2094539,2019-11-08 10:32:12:150,-3.8041,0.9346,9.7731,-0.0452,-0.0153,9.8064,-0.1075,-0.2619,0.3142,-1.12,-45.0,29.44,359.06,-84.46,-178.82
20946,53.08096,-1.295694,213.29,24.47,4,322.55,23 / 24,2094639,2019-11-08 10:32:12:250,3.8337,0.1279,10.69,0.058,-0.0063,9.8065,-0.0978,-0.5101,0.3295,-0.69,-45.81,29.94,1.14,-84.72,-177.11
20947,53.08096,-1.295694,213.29,24.47,4,322.55,23 / 24,2094738,2019-11-08 10:32:12:349,-4.7914,1.1133,9.8719,-0.0033,0.0234,9.8065,0.0808,-0.5733,0.3563,0.0,-44.94,29.94,0.76,-84.66,-179.35
20948,53.08096,-1.295694,213.29,24.47,4,322.55,23 / 24,2094838,2019-11-08 10:32:12:449,5.6908,-0.0856,9.0137,0.0681,0.0621,9.8062,0.1606,-0.3809,0.1592,-0.56,-45.37,29.69,359.8,-84.49,-178.26
20949,53.08096,-1.295694,213.29,24.47,4,322.55,23 / 24,2094938,2019-11-08 10:32:12:549,-3.4769,0.1157,9.8695,0.0666,0.0255,9.8064,0.0254,-0.1286,0.1131,-0.5,-45.12,30.69,358.15,-84.81,178.4
20950,53.08096,-1.295694,213.29,24.47,4,322.55,23 / 24,2095038,2019-11-08 10:32:12:649,-3.1482,-0.9867,10.5529,0.0019,0.0188,9.8066,-0.0153,0.2838,-0.2185,-0.44,-45.12,30.69,1.13,-84.78,-179.02
20951,53.08096,-1.295694,213.29,24.47,4,322.55,23 / 24,2095138,2019-11-08 10:32:12:749,-4.0434,0.0169,10.4263,0.0644,0.0113,9.8064,0.0923,0.3164,-0.2989,0.0,-45.5,30.31,358.5,-84.72,178.71
20952,53.08096,-1.295694,213.29,24.47,4,322.55,23 / 24,2095238,2019-11-08 10:32:12:849,-1.9856,-0.8997,9.6847,-0.0403,-0.0057,9.8065,-0.0955,0.6192,-0.3773,-0.56,-45.5,30.63,358.04,-84.74,-179.85
20953,53.08096,-1.295694,213.29,24.47,4,322.55,23 / 24,2095338,2019-11-08 10:32:12:949,6.6225,-0.7797,8.7662,0.0433,0.0098,9.8065,-0.0738,0.6885,-0.464,-0.5,-45.5,30.38,3.23,-84.68,-177.23
20954,53.08096,-1.295694,213.29,24.47,4,322.55,23 / 24,2095438,2019-11-08 10:32:13:049,-3.0926,-0.4302,10.3209,-0.1021,-0.0262,9.806,-0.0432,0.4861,-0.3219,-0.37,-45.31,30.5,357.89,-84.88,178.17
20955,53.08096,-1.295694,213.29,24.47,4,322.55,23 / 24,2095538,2019-11-08 10:32:13:149,7.8441,0.0619,9.081,-0.0429,-0.0383,9.8065,0.0742,0.2643,-0.1551,-1.19,-45.19,30.38,0.24,-84.66,-177.89
20956,53.08096,-1.295694,213.29,24.47,4,322.55,23 / 24,2095638,2019-11-08 10:32:13:249,-0.0395,0.3941,9.5178,-0.0877,-0.0223,9.8062,0.1135,-0.4313,0.2599,-0.25,-45.12,30.88,358.31,-84.62,178.55
20957,53.08096,-1.295694,213.29,24.47,4,322.55,23 / 24,2095738,2019-11-08 10:32:13:349,-4.8472,-0.5709,10.5347,-0.1124,-0.0367,9.8059,0.0991,-0.7293,0.4194,-0.75,-45.37,30.38,3.02,-84.45,-175.53
20958,53.08096,-1.295694,213.29,24.47,4,322.55,23 / 24,2095838,2019-11-08 10:32:13:449,-5.3698,0.3649,9.7714,0.0444,0.0078,9.8065,0.057,-0.9389,0.564,-0.44,-45.62,30.0,4.29,-84.66,-176.34
20959,53.08096,-1.295694,213.29,24.47,4,322.55,23 / 24,2095938,2019-11-08 10:32:13:549,-4.3942,-1.4202,11.3757,-0.0653,-0.0035,9.8063,0.0791,-0.6983,0.4598,-0.94,-46.0,30.31,2.2,-84.68,-176.21
20960,53.08096,-1.295694,213.29,24.47,4,322.55,23 / 24,2096039,2019-11-08 10:32:13:650,6.573,-0.5756,9.0699,0.0787,0.0374,9.8062,0.065,-0.3242,0.1618,-0.19,-45.75,30.38,5.67,-84.47,-175.19
20961,53.08096,-1.295694,213.29,24.47,4,322.55,23 / 24,2096139,2019-11-08 10:32:13:750,-4.8695,-0.0657,9.9909,0.0238,0.0054,9.8066,0.0047,-0.0201,-0.0095,-0.56,-45.12,30.31,4.49,-84.67,-174.25
20962,53.08096,-1.295694,213.29,24.47,4,322.55,23 / 24,2096239,2019-11-08 10:32:13:850,6.527,-0.2443,9.8445,0.1006,0.0022,9.8061,-0.0711,0.5921,-0.4371,-0.5,-45.31,30.0,8.84,-84.75,-172.4
20963,53.08096,-1.295694,213.29,24.47,4,322.55,23 / 24,2096339,2019-11-08 10:32:13:950,-3.6885,0.087,10.17,0.1097,0.0505,9.8058,-0.1692,0.7436,-0.4918,-1.0,-45.5,30.69,358.94,-85.03,-179.08
20964,53.08096,-1.295694,213.29,24.47,4,322.55,23 / 24,2096438,2019-11-08 10:32:14:049,-4.1556,-0.6088,10.2412,0.0259,0.0113,9.8065,-0.1042,0.7392,-0.5146,0.06,-45.5,30.31,1.33,-84.78,-178.86
20965,53.082615,-1.297631,210.3,26.15,4,326.06,23 / 23,2096538,2019-11-08 10:32:14:149,-4.0066,0.3678,9.6749,0.0984,0.0227,9.8061,-0.0635,0.6423,-0.4139,-0.19,-45.31,30.63,354.95,-84.87,175.63
20966,53.082615,-1.297631,210.3,26.15,4,326.06,23 / 23,2096639,2019-11-08 10:32:14:250,-4.1616,-0.6434,9.6299,-0.09,-0.0045,9.8061,0.0266,0.0924,-0.0757,-1.0,-45.31,30.13,351.63,-84.77,174.72
20967,53.082615,-1.297631,210.3,26.15,4,326.06,23 / 23,2096739,2019-11-08 10:32:14:350,6.3451,1.8131,9.0298,0.0088,0.006,9.8066,0.1021,-0.1524,0.0941,-0.75,-45.75,30.31,357.21,-84.87,179.52
20968,53.082615,-1.297631,210.3,26.15,4,326.06,23 / 23,2096839,2019-11-08 10:32:14:450,-4.6855,0.0556,10.7201,-0.1052,-0.01,9.8061,0.0273,-0.5778,0.416,-0.12,-45.37,30.31,356.81,-84.93,177.24
20969,53.082615,-1.297631,210.3,26.15,4,326.06,23 / 23,2096939,2019-11-08 10:32:14:550,5.9557,0.3811,9.7608,-0.086,-0.0407,9.8061,0.1239,-0.8387,0.4928,0.0,-45.44,30.0,4.06,-84.79,-176.51
20970,53.082615,-1.297631,210.3,26.15,4,326.06,23 / 23,2097038,2019-11-08 10:32:14:649,1.9408,-0.0147,9.173,-0.0074,-0.0107,9.8066,0.097,-0.6548,0.4801,-0.5,-45.25,30.0,1.38,-84.84,-178.81
20971,53.082615,-1.297631,210.3,26.15,4,326.06,23 / 23,2097138,2019-11-08 10:32:14:749,5.6333,1.0814,8.8072,-0.094,-0.0293,9.8061,0.0458,-0.5767,0.3533,-0.5,-45.75,30.31,5.91,-84.72,-174.95
20972,53.082615,-1.297631,210.3,26.15,4,326.06,23 / 23,2097238,2019-11-08 10:32:14:849,0.643,0.3665,9.3895,0.016,0.0079,9.8066,-0.0139,-0.2098,0.1534,-1.12,-45.37,30.13,1.06,-84.87,-177.17
20973,53.082615,-1.297631,210.3,26.15,4,326.06,23 / 23,2097338,2019-11-08 10:32:14:949,-7.5188,-0.3989,11.0633,-0.0788,-0.0128,9.8063,-0.0852,0.1549,-0.0833,-0.44,-45.19,30.25,359.15,-84.91,179.27
20974,53.082615,-1.297631,210.3,26.15,4,326.06,23 / 23,2097439,2019-11-08 10:32:15:050,3.3263,1.4616,9.069,-0.1459,-0.0299,9.8055,-0.0735,0.8949,-0.666,-0.69,-45.37,29.69,6.9,-84.83,-172.14
20975,53.082615,-1.297631,210.3,26.15,4,326.06,23 / 23,2097538,2019-11-08 10:32:15:149,-8.1378,0.2119,10.5052,0.0604,0.0462,9.8063,-0.1736,1.0774,-0.7121,-0.81,-45.31,29.69,359.59,-85.2,-178.44
20976,53.082615,-1.297631,210.3,26.15,4,326.06,23 / 23,2097638,2019-11-08 10:32:15:249,6.5347,1.0735,8.6111,0.0929,0.0308,9.8061,-0.1225,0.7583,-0.4441,-0.87,-45.31,30.56,1.45,-85.11,-176.89
20977,53.082615,-1.297631,210.3,26.15,4,326.06,23 / 23,2097739,2019-11-08 10:32:15:350,4.2318,1.6521,8.9904,0.1147,0.0289,9.8059,0.026,0.1143,-0.0487,-0.5,-45.62,30.19,5.66,-85.09,-175.1
20978,53.082615,-1.297631,210.3,26.15,4,326.06,23 / 23,2097839,2019-11-08 10:32:15:450,6.0075,1.3693,9.4014,-0.0265,-0.0005,9.8066,0.0414,-0.2386,0.2005,-0.75,-45.19,29.94,358.45,-85.22,-179.44
20979,53.082615,-1.297631,210.3,26.15,4,326.06,23 / 23,2097939,2019-11-08 10:32:15:550,4.369,1.3801,9.3812,0.0704,0.0164,9.8063,0.0664,-0.7885,0.6035,0.13,-45.56,30.5,0.56,-85.24,-179.51
20980,53.082615,-1.297631,210.3,26.15,4,326.06,23 / 23,2098039,2019-11-08 10:32:15:650,-8.5953,-0.731,10.389,-0.1172,-0.0395,9.8058,0.0839,-0.9962,0.605,-1.12,-45.5,29.94,359.32,-85.28,-178.69
20981,53.082615,-1.297631,210.3,26.15,4,326.06,23 / 23,2098138,2019-11-08 10:32:15:749,5.1367,1.1196,8.7683,-0.0292,-0.0328,9.8065,0.1512,-0.7682,0.4863,-0.69,-45.44,30.19,4.59,-85.06,-174.11
20982,53.082615,-1.297631,210.3,26.15,4,326.06,23 / 23,2098238,2019-11-08 10:32:15:849,-7.485,-0.6479,10.1584,-0.0993,-0.0282,9.8061,0.1233,-0.5304,0.2458,-0.94,-44.94,30.06,359.84,-85.29,-178.23
20983,53.082615,-1.297631,210.3,26.15,4,326.06,23 / 23,2098339,2019-11-08 10:32:15:950,-2.0901,-1.6644,10.8688,-0.1293,-0.0252,9.8057,-0.1476,0.1876,-0.0882,-1.56,-45.62,30.56,355.07,-85.26,179.38
20984,53.082615,-1.297631,210.3,26.15,4,326.06,23 / 23,2098439,2019-11-08 10:32:16:050,-7.4577,-1.3349,11.0173,-0.0248,-0.0249,9.8065,-0.1057,0.5221,-0.2719,-0.56,-44.94,29.94,2.06,-85.26,-176.3
20985,53.082615,-1.297631,210.3,26.15,4,326.06,22 / 23,2098538,2019-11-08 10:32:16:149,-2.5062,-0.0432,9.642,-0.1067,-0.0448,9.8059,-0.0726,0.9088,-0.61,-1.0,-45.31,30.38,6.83,-85.17,-172.15
20986,53.082615,-1.297631,210.3,26.15,4,326.06,22 / 23,2098638,2019-11-08 10:32:16:249,5.7854,-0.261,9.2853,0.0888,0.0142,9.8062,-0.0676,0.976,-0.6031,-0.62,-45.19,30.25,6.58,-85.07,-172.38
20987,53.082615,-1.297631,210.3,26.15,4,326.06,22 / 23,2098738,2019-11-08 10:32:16:349,-8.4485,0.7114,9.8107,-0.009,0.0093,9.8066,0.0539,0.6565,-0.4592,-1.0,-45.44,30.06,4.11,-85.13,-174.51
20988,53.082615,-1.297631,210.3,26.15,4,326.06,22 / 23,2098840,2019-11-08 10:32:16:451,5.8768,2.2284,8.1874,0.1252,0.0431,9.8057,0.1057,0.1831,-0.2363,-0.56,-45.31,29.69,6.86,-84.9,-172.17
20989,53.082615,-1.297631,210.3,26.15,4,326.06,22 / 23,2098938,2019-11-08 10:32:16:549,-6.3063,-1.2786,11.4407,0.0956,0.0365,9.806,0.0383,-0.5049,0.3745,-0.94,-45.44,29.88,4.95,-84.8,-173.83
20990,53.082615,-1.297631,210.3,26.15,4,326.06,22 / 23,2099039,2019-11-08 10:32:16:650,-5.6195,-0.4172,9.8982,0.0226,0.0216,9.8065,0.0793,-0.8365,0.5023,-1.37,-45.37,29.0,0.82,-84.91,-177.32
20991,53.082615,-1.297631,210.3,26.15,4,326.06,22 / 23,2099138,2019-11-08 10:32:16:749,-5.7361,0.2842,9.7889,0.1138,0.0211,9.8059,0.0356,-0.9915,0.6422,-0.94,-45.19,29.5,354.82,-85.08,177.42
20992,53.082615,-1.297631,210.3,26.15,4,326.06,22 / 23,2099238,2019-11-08 10:32:16:849,-6.5033,-0.3212,11.5046,0.1307,0.0318,9.8057,0.0673,-0.826,0.5198,-0.81,-44.87,30.44,355.41,-85.19,177.91
20993,53.082615,-1.297631,210.3,26.15,4,326.06,22 / 23,2099338,2019-11-08 10:32:16:949,6.832,1.1401,8.9582,-0.0182,0.0063,9.8065,0.0794,-0.0195,-0.0206,-0.75,-45.44,29.94,1.21,-85.11,-177.04
20994,53.082615,-1.297631,210.3,26.15,4,326.06,22 / 23,2099438,2019-11-08 10:32:17:049,-8.7396,-0.5594,10.8807,-0.1259,-0.0417,9.8057,-0.105,0.4072,-0.2445,-1.5,-45.0,30.0,358.2,-85.14,-179.66
20995,53.082615,-1.297631,210.3,26.15,4,326.06,23 / 23,2099538,2019-11-08 10:32:17:149,4.8152,0.4456,9.2222,-0.1339,-0.0507,9.8055,-0.1409,1.0476,-0.6549,-1.56,-45.31,30.0,355.25,-85.17,179.68
20996,53.082615,-1.297631,210.3,26.15,4,326.06,23 / 23,2099638,2019-11-08 10:32:17:249,7.9325,-0.6487,8.7594,0.006,0.0151,9.8066,-0.124,1.0986,-0.6654,-1.0,-45.31,30.0,4.13,-85.0,-174.51
20997,53.082615,-1.297631,210.3,26.15,4,326.06,23 / 23,2099738,2019-11-08 10:32:17:349,3.5711,-0.2536,9.4885,-0.1029,-0.0103,9.806,-0.05,0.6122,-0.3876,-0.87,-45.5,30.63,7.18,-85.13,-171.88
20998,53.082615,-1.297631,210.3,26.15,4,326.06,23 / 23,2099839,2019-11-08 10:32:17:450,8.0272,0.1824,9.0339,0.117,0.0439,9.8058,0.0027,0.1548,-0.1172,-0.62,-45.31,29.19,7.12,-85.12,-171.87
20999,53.082615,-1.297631,210.3,26.15,4,326.06,23 / 23,2099939,2019-11-08 10:32:17:550,-5.302,-0.682,10.3286,0.0565,-0.0039,9.8065,0.0443,-0.7453,0.5105,-0.69,-44.87,30.0,0.73,-85.26,-177.45
21000,53.082615,-1.297631,210.3,26.15,4,326.06,23 / 23,2100039,2019-11-08 10:32:17:650,9.5098,0.2886,8.6582,0.1244,0.0202,9.8058,0.0948,-0.9532,0.6037,-0.69,-45.37,29.31,5.46,-85.09,-173.31
21001,53.082615,-1.297631,210.3,26.15,4,326.06,23 / 23,2100138,2019-11-08 10:32:17:749,-3.8312,0.5077,9.3441,0.1327,0.028,9.8056,0.0402,-0.9287,0.6091,-1.0,-45.75,29.81,6.71,-84.99,-172.3
21002,53.082615,-1.297631,210.3,26.15,4,326.06,23 / 23,2100239,2019-11-08 10:32:17:850,-6.7774,-1.0232,11.6373,0.0029,-0.0253,9.8065,0.0751,-0.7382,0.4557,-0.81,-45.5,29.44,0.49,-85.18,-177.6
21003,53.082615,-1.297631,210.3,26.15,4,326.06,23 / 23,2100339,2019-11-08 10:32:17:950,-1.8566,-0.7494,10.3544,0.0832,0.0387,9.8062,0.0055,0.1149,-0.098,-1.31,-44.69,29.5,356.41,-85.15,178.78
21004,53.082615,-1.297631,210.3,26.15,4,326.06,23 / 23,2100439,2019-11-08 10:32:18:050,-9.218,0.1979,10.1326,-0.1412,-0.0205,9.8056,-0.0653,0.5774,-0.3295,-1.06,-44.87,29.5,356.3,-85.22,178.68
21005,53.082615,-1.297631,210.3,26.15,4,326.06,23 / 23,2100538,2019-11-08 10:32:18:149,4.258,0.2113,9.6045,-0.069,-0.0076,9.8063,-0.0427,1.0161,-0.7057,-0.87,-44.81,29.81,4.76,-85.21,-173.95
21006,53.082615,-1.297631,210.3,26.15,4,326.06,23 / 23,2100639,2019-11-08 10:32:18:250,0.5237,0.5194,9.5649,-0.0967,-0.0323,9.806,-0.0628,1.04,-0.6779,-1.25,-44.5,29.38,359.09,-85.12,-178.81
21007,53.082615,-1.297631,210.3,26.15,4,326.06,23 / 23,2100739,2019-11-08 10:32:18:350,8.7303,0.896,8.7535,-0.1218,-0.0484,9.8058,-0.0182,0.515,-0.3312,-1.12,-44.5,28.81,356.44,-85.07,178.89
21008,53.082615,-1.297631,210.3,26.15,4,326.06,23 / 23,2100838,2019-11-08 10:32:18:449,2.8294,-0.4652,9.584,0.0436,0.0079,9.8065,0.0402,-0.3124,0.2506,-1.69,-44.37,29.38,1.2,-84.85,-175.03
21009,53.082615,-1.297631,210.3,26.15,4,326.06,23 / 23,2100939,2019-11-08 10:32:18:550,-8.4711,1.0726,11.2778,-0.0702,-0.025,9.8064,0.0843,-0.7056,0.4195,-1.0,-44.06,29.31,4.19,-84.78,-174.43
21010,53.082615,-1.297631,210.3,26.15,4,326.06,23 / 23,2101038,2019-11-08 10:32:18:649,3.4162,0.0113,9.6321,0.1193,0.0483,9.8057,0.1225,-1.0553,0.6187,-1.87,-44.0,28.5,3.81,-84.54,-172.81
21011,53.082615,-1.297631,210.3,26.15,4,326.06,23 / 23,2101138,2019-11-08 10:32:18:749,-9.4805,-1.0055,10.6376,0.0749,0.0128,9.8063,0.0919,-0.946,0.6247,-2.5,-43.5,28.88,357.55,-84.72,-178.16
21012,53.082615,-1.297631,210.3,26.15,4,326.06,23 / 23,2101238,2019-11-08 10:32:18:849,-0.3368,0.5079,10.4154,0.1168,0.0095,9.8059,-0.0486,-0.4166,0.2126,-2.31,-43.37,29.25,0.39,-84.59,-175.72
21013,53.082615,-1.297631,210.3,26.15,4,326.06,23 / 23,2101339,2019-11-08 10:32:18:950,-7.7564,-0.7067,10.5801,0.1315,0.0402,9.8057,-0.1001,-0.0622,0.087,-2.19,-43.25,29.25,1.07,-84.49,-175.14
21014,53.082615,-1.297631,210.3,26.15,4,326.06,23 / 23,2101438,2019-11-08 10:32:19:049,-0.9244,-0.124,10.4569,-0.0208,-0.0143,9.8065,-0.1441,0.576,-0.3811,-2.44,-43.19,30.13,354.61,-84.62,179.17
21015,53.082615,-1.297631,210.3,26.15,4,326.06,24 / 24,2101538,2019-11-08 10:32:19:149,8.1962,1.2705,8.7966,0.0787,0.0427,9.8062,-0.1504,0.89,-0.4998,-2.94,-43.44,29.13,351.04,-84.69,178.2
21016,53.082615,-1.297631,210.3,26.15,4,326.06,24 / 24,2101638,2019-11-08 10:32:19:249,-1.9057,-0.9832,10.3693,-0.1344,-0.0369,9.8056,-0.0124,0.9963,-0.6256,-2.75,-43.62,29.13,350.49,-84.69,177.76
21017,53.082615,-1.297631,210.3,26.15,4,326.06,24 / 24,2101738,2019-11-08 10:32:19:349,8.4417,0.9308,9.7895,-0.0342,-0.0282,9.8065,0.0343,0.7685,-0.5644,-2.69,-43.44,29.38,355.56,-84.69,-177.91
21018,53.082615,-1.297631,210.3,26.15,4,326.06,24 / 24,2101838,2019-11-08 10:32:19:449,-3.3596,-0.9182,8.4171,-0.1276,-0.0242,9.8057,0.1073,0.2821,-0.1935,-2.75,-43.19,29.38,355.37,-84.63,-178.06
21019,53.082615,-1.297631,210.3,26.15,4,326.06,24 / 24,2101939,2019-11-08 10:32:19:550,7.4451,1.2483,7.423,-0.0827,-0.075,9.806,0.1171,-0.1079,0.0305,-3.12,-43.37,29.31,2.69,-84.52,-171.79
21020,53.082615,-1.297631,210.3,26.15,4,326.06,24 / 24,2102039,2019-11-08 10:32:19:650,-2.2335,-0.7288,9.6836,-0.0204,-0.0006,9.8066,0.1101,-0.4896,0.3142,-3.06,-43.44,29.31,358.59,-84.92,-175.32
21021,53.082615,-1.297631,210.3,26.15,4,326.06,24 / 24,2102139,2019-11-08 10:32:19:750,-5.3995,-1.7591,10.2004,-0.0842,-0.0399,9.8062,0.0722,-0.7647,0.4131,-2.87,-43.5,29.75,0.4,-84.87,-173.94
21022,53.082615,-1.297631,210.3,26.15,4,326.06,24 / 24,2102239,2019-11-08 10:32:19:850,-3.2171,-1.1876,9.8852,0.0736,0.0116,9.8063,0.1097,-0.8715,0.5985,-2.56,-43.31,29.75,358.75,-84.87,-175.38
21023,53.082615,-1.297631,210.3,26.15,4,326.06,24 / 24,2102338,2019-11-08 10:32:19:949,-4.8585,-1.9199,10.3703,-0.0598,-0.0119,9.8064,0.1098,-0.7585,0.5021,-2.56,-43.37,29.81,352.98,-84.83,179.62
21024,53.082615,-1.297631,210.3,26.15,4,326.06,24 / 24,2102438,2019-11-08 10:32:20:049,7.4796,-0.9174,9.1278,0.1101,0.043,9.8059,-0.0448,-0.3912,0.2846,-1.87,-44.19,29.88,1.64,-84.66,-174.78
21025,53.082615,-1.297631,210.3,26.15,4,326.06,24 / 24,2102538,2019-11-08 10:32:20:149,-5.2315,-0.7104,10.2931,0.0283,0.0284,9.8065,-0.0522,-0.1892,0.057,-2.0,-43.31,30.25,357.03,-84.86,-178.76
21026,53.082615,-1.297631,210.3,26.15,4,326.06,24 / 24,2102639,2019-11-08 10:32:20:250,-4.5821,-0.9112,10.7258,0.0978,0.03,9.8061,-0.1153,0.519,-0.2579,-2.37,-44.06,30.19,1.27,-84.76,-175.09
21027,53.082615,-1.297631,210.3,26.15,4,326.06,24 / 24,2102739,2019-11-08 10:32:20:350,-7.7025,-1.6226,10.2271,0.1097,0.0309,9.8059,-0.0674,0.7162,-0.5073,-2.06,-44.44,29.88,1.55,-84.65,-174.85
21028,53.082615,-1.297631,210.3,26.15,4,326.06,24 / 24,2102838,2019-11-08 10:32:20:449,2.6733,-1.0056,10.4331,0.0382,-0.0312,9.8064,-0.0558,0.7594,-0.4756,-2.06,-44.12,31.0,359.64,-84.73,-176.62
21029,53.082615,-1.297631,210.3,26.15,4,326.06,24 / 24,2102938,2019-11-08 10:32:20:549,4.9349,1.2192,8.5073,0.0939,0.0204,9.8061,-0.0389,0.7419,-0.4848,-1.75,-44.12,30.88,355.79,-84.6,-179.94
21030,53.082615,-1.297631,210.3,26.15,4,326.06,24 / 24,2103039,2019-11-08 10:32:20:650,3.429,-0.8875,9.4572,0.0699,0.0368,9.8063,-0.0752,0.5008,-0.3136,-1.81,-44.87,31.0,357.46,-84.55,-178.49
21031,53.082615,-1.297631,210.3,26.15,4,326.06,24 / 24,2103139,2019-11-08 10:32:20:750,3.3273,-0.0462,8.7964,0.0591,0.0031,9.8064,0.0041,0.3208,-0.2135,-1.25,-44.5,30.56,357.64,-84.66,179.81
21032,53.082615,-1.297631,210.3,26.15,4,326.06,24 / 24,2103239,2019-11-08 10:32:20:850,-4.2321,-0.8863,11.1115,-0.0477,-0.0339,9.8065,-0.001,-0.0352,0.0236,-1.69,-44.81,30.69,354.71,-84.68,179.14
21033,53.082615,-1.297631,210.3,26.15,4,326.06,24 / 24,2103338,2019-11-08 10:32:20:949,0.9779,-1.1603,9.7731,0.0069,-0.0148,9.8066,0.071,-0.1247,0.0712,-1.37,-45.25,30.5,357.34,-84.56,179.57
21034,53.082615,-1.297631,210.3,26.15,4,326.06,24 / 24,2103439,2019-11-08 10:32:21:050,-3.0755,-0.1703,9.7567,-0.0625,-0.0083,9.8064,0.0005,-0.198,0.2075,-1.0,-44.87,30.38,356.53,-84.74,178.93
21035,53.082615,-1.297631,210.3,26.15,4,326.06,23 / 23,2103539,2019-11-08 10:32:21:150,2.2454,-0.3377,10.369,-0.0109,-0.0203,9.8066,0.0699,-0.2415,0.1882,-1.25,-44.81,30.56,359.06,-84.62,-178.96
21036,53.082615,-1.297631,210.3,26.15,4,326.06,23 / 23,2103638,2019-11-08 10:32:21:249,-1.0278,1.0597,11.0598,-0.0408,-0.0311,9.8064,0.1052,-0.2246,0.1586,-1.69,-45.06,30.56,355.63,-84.75,179.92
21037,53.082615,-1.297631,210.3,26.15,4,326.06,23 / 23,2103738,2019-11-08 10:32:21:349,2.0272,1.1271,9.4558,-0.0133,-0.018,9.8066,0.1064,-0.1992,0.1416,-1.37,-45.75,30.0,359.1,-84.62,-178.86
21038,53.082615,-1.297631,210.3,26.15,4,326.06,23 / 23,2103838,2019-11-08 10:32:21:449,-2.4407,0.6386,9.5136,-0.0573,-0.0066,9.8064,-0.0036,-0.3574,0.2809,-0.81,-45.44,30.13,0.3,-84.75,-177.83
21039,53.082615,-1.297631,210.3,26.15,4,326.06,23 / 23,2103938,2019-11-08 10:32:21:549,2.6368,1.016,9.2836,-0.0345,-0.0017,9.8065,0.0338,-0.4111,0.2399,-1.25,-45.25,30.0,3.72,-84.88,-174.88
21040,53.082615,-1.297631,210.3,26.15,4,326.06,23 / 23,2104038,2019-11-08 10:32:21:649,-3.4009,-0.1312,9.7586,-0.0491,-0.0067,9.8064,-0.0164,-0.3127,0.2894,-0.75,-45.12,30.25,0.83,-84.95,-177.38
21041,53.082615,-1.297631,210.3,26.15,4,326.06,23 / 23,2104138,2019-11-08 10:32:21:749,0.0967,-0.1145,10.1746,-0.0397,0.0035,9.8065,-0.0308,-0.3055,0.2133,-1.19,-45.31,29.63,3.04,-84.94,-175.46
21042,53.082615,-1.297631,210.3,26.15,4,326.06,23 / 23,2104238,2019-11-08 10:32:21:849,-5.2787,0.0668,10.3124,-0.0452,0.0242,9.8065,-0.1322,-0.2955,0.2205,-1.25,-45.37,30.44,0.51,-84.86,-177.65
21043,53.082615,-1.297631,210.3,26.15,4,326.06,23 / 23,2104338,2019-11-08 10:32:21:949,0.9284,-0.6402,10.8205,-0.0569,-0.0112,9.8064,-0.1828,0.0305,0.0274,-1.06,-45.69,29.75,357.68,-84.98,179.91
21044,53.082615,-1.297631,210.3,26.15,4,326.06,23 / 23,2104439,2019-11-08 10:32:22:050,1.6679,0.5668,7.9458,-0.014,0.0414,9.8065,-0.1248,0.0578,0.0246,-0.81,-45.87,30.44,358.6,-84.97,-179.29
21045,53.082615,-1.297631,210.3,26.15,4,326.06,23 / 24,2104539,2019-11-08 10:32:22:150,2.3867,-0.2926,9.1231,-0.0417,-0.0249,9.8065,-0.0479,0.1525,-0.0813,-1.12,-45.12,29.94,1.86,-85.24,-176.47
21046,53.082615,-1.297631,210.3,26.15,4,326.06,23 / 24,2104639,2019-11-08 10:32:22:250,-0.9944,0.0253,9.6214,-0.0473,-0.0085,9.8065,-0.0842,0.2331,-0.119,-1.06,-45.06,29.94,4.01,-85.45,-174.57
21047,53.082615,-1.297631,210.3,26.15,4,326.06,23 / 24,2104739,2019-11-08 10:32:22:350,-0.6929,-0.33,10.296,-0.0179,-0.0054,9.8066,-0.0798,0.0817,-0.0917,-1.06,-45.19,29.75,4.91,-85.5,-173.77
21048,53.082615,-1.297631,210.3,26.15,4,326.06,23 / 24,2104839,2019-11-08 10:32:22:450,0.2112,0.5685,9.3711,-0.001,-0.003,9.8066,-0.082,0.0695,0.0075,-0.44,-46.25,29.94,6.37,-85.39,-174.44
21049,53.082615,-1.297631,210.3,26.15,4,326.06,23 / 24,2104939,2019-11-08 10:32:22:550,0.3562,0.3899,9.2796,0.014,-0.0152,9.8066,0.0497,-0.0406,-0.086,-1.19,-45.5,30.06,4.31,-85.5,-174.3
21050,53.082615,-1.297631,210.3,26.15,4,326.06,23 / 24,2105039,2019-11-08 10:32:22:650,-0.4324,0.7959,9.32,-0.0054,0.005,9.8066,0.0082,0.0423,-0.0734,-1.06,-45.37,29.5,1.85,-85.5,-176.47
21051,53.082615,-1.297631,210.3,26.15,4,326.06,23 / 24,2105138,2019-11-08 10:32:22:749,-1.527,0.3386,9.2701,-0.026,0.0096,9.8065,0.0045,0.0619,-0.1327,-1.44,-44.37,29.31,2.8,-85.54,-175.57
21052,53.082615,-1.297631,210.3,26.15,4,326.06,23 / 24,2105239,2019-11-08 10:32:22:850,-1.9482,0.2903,9.8958,-0.0191,-0.0126,9.8065,0.0471,0.0766,-0.0088,-0.94,-44.87,29.31,1.71,-85.66,-176.52
21053,53.082615,-1.297631,210.3,26.15,4,326.06,23 / 24,2105338,2019-11-08 10:32:22:949,-2.0511,0.9686,9.962,-0.0435,0.0072,9.8065,0.0838,0.3918,-0.3031,-1.44,-45.56,29.63,7.06,-85.59,-171.88
21054,53.082615,-1.297631,210.3,26.15,4,326.06,23 / 24,2105438,2019-11-08 10:32:23:049,3.6259,1.2892,9.2858,0.0256,0.0176,9.8065,0.0385,0.3498,-0.3339,-1.69,-45.06,29.63,4.34,-85.51,-172.37
21055,53.084396,-1.299543,208.6,26.67,4,327.76,23 / 24,2105538,2019-11-08 10:32:23:149,-1.5016,0.2927,10.1142,-0.042,-0.0021,9.8065,-0.0249,0.3692,-0.1629,-1.0,-45.25,29.69,2.95,-85.37,-175.5
21056,53.084396,-1.299543,208.6,26.67,4,327.76,23 / 24,2105638,2019-11-08 10:32:23:249,4.4239,1.4819,8.9988,0.0426,0.0515,9.8064,-0.1367,0.2817,-0.1081,-1.12,-45.75,29.75,8.31,-85.06,-170.9
21057,53.084396,-1.299543,208.6,26.67,4,327.76,23 / 24,2105738,2019-11-08 10:32:23:349,-2.5346,1.0431,9.7128,0.0486,-0.0054,9.8065,-0.0161,-0.0389,0.1063,-1.94,-45.5,29.81,4.63,-85.38,-172.13
21058,53.084396,-1.299543,208.6,26.67,4,327.76,23 / 24,2105838,2019-11-08 10:32:23:449,3.295,0.4106,9.4021,0.0742,0.0082,9.8063,0.1011,-0.2015,0.0655,-1.5,-45.5,30.19,11.36,-85.3,-168.15
21059,53.084396,-1.299543,208.6,26.67,4,327.76,23 / 24,2105938,2019-11-08 10:32:23:549,-4.1206,0.0813,10.2153,0.0417,0.0128,9.8065,0.1008,-0.2891,0.1453,-1.62,-45.94,29.94,7.42,-85.28,-169.72
21060,53.084396,-1.299543,208.6,26.67,4,327.76,23 / 24,2106038,2019-11-08 10:32:23:649,-2.6643,0.1516,10.8312,0.0266,-0.0175,9.8066,0.0637,-0.5542,0.3291,-1.81,-45.31,29.44,5.86,-85.23,-170.96
21061,53.084396,-1.299543,208.6,26.67,4,327.76,23 / 24,2106138,2019-11-08 10:32:23:749,-4.7446,-0.1301,9.6219,0.0827,0.0053,9.8062,0.0362,-0.5816,0.4226,-1.62,-45.19,29.56,2.85,-85.08,-173.71
21062,53.084396,-1.299543,208.6,26.67,4,327.76,23 / 24,2106238,2019-11-08 10:32:23:849,0.4061,-0.8185,10.7858,-0.0085,-0.0311,9.8065,0.0248,-0.5801,0.4091,-2.5,-45.62,29.94,7.77,-85.24,-169.42
21063,53.084396,-1.299543,208.6,26.67,4,327.76,23 / 24,2106338,2019-11-08 10:32:23:949,4.1445,0.4703,8.7844,0.0533,0.025,9.8064,0.0532,-0.3698,0.2392,-1.81,-45.5,29.75,9.08,-85.32,-168.24
21064,53.084396,-1.299543,208.6,26.67,4,327.76,23 / 24,2106438,2019-11-08 10:32:24:049,1.1455,-1.2928,10.3282,0.0696,0.0249,9.8064,0.0147,-0.2221,0.1364,-2.25,-45.37,30.13,9.26,-85.28,-168.09
21065,53.084396,-1.299543,208.6,26.67,4,327.76,24 / 24,2106538,2019-11-08 10:32:24:149,0.1464,0.3396,8.9494,0.0294,-0.0074,9.8066,-0.0657,0.0276,0.0078,-1.94,-45.44,29.69,12.54,-85.25,-165.23
21066,53.084396,-1.299543,208.6,26.67,4,327.76,24 / 24,2106638,2019-11-08 10:32:24:249,-3.8188,-0.0069,10.5609,-0.0563,-0.0193,9.8064,-0.0774,0.0806,-0.1057,-2.37,-45.44,29.63,8.75,-85.34,-168.52
21067,53.084396,-1.299543,208.6,26.67,4,327.76,24 / 24,2106738,2019-11-08 10:32:24:349,2.2843,0.262,9.358,0.0105,-0.0326,9.8065,-0.1416,0.2949,-0.1754,-2.25,-45.19,29.25,9.4,-85.29,-167.87
21068,53.084396,-1.299543,208.6,26.67,4,327.76,24 / 24,2106839,2019-11-08 10:32:24:450,-1.2276,-0.1497,10.7483,-0.0395,-0.0247,9.8065,-0.0817,0.2478,-0.2054,-1.87,-45.06,29.25,6.18,-85.35,-170.67
21069,53.084396,-1.299543,208.6,26.67,4,327.76,24 / 24,2106939,2019-11-08 10:32:24:550,0.8264,0.2984,10.05,-0.01,-0.0281,9.8066,-0.1137,0.1278,-0.0281,-1.94,-45.94,29.69,7.94,-85.01,-169.33
21070,53.084396,-1.299543,208.6,26.67,4,327.76,24 / 24,2107038,2019-11-08 10:32:24:649,-2.6014,1.198,9.3785,-0.0177,-0.034,9.8065,-0.1786,0.0018,-0.0405,-2.06,-45.62,30.06,7.91,-85.06,-169.34
21071,53.084396,-1.299543,208.6,26.67,4,327.76,24 / 24,2107138,2019-11-08 10:32:24:749,0.005,0.2724,9.7454,0.023,-0.0011,9.8065,-0.0374,0.1952,-0.0895,-1.5,-45.75,30.0,10.08,-85.06,-169.37
21072,53.084396,-1.299543,208.6,26.67,4,327.76,24 / 24,2107239,2019-11-08 10:32:24:850,-2.3684,-1.0744,10.5087,-0.0433,-0.0396,9.8064,-0.0443,0.2252,-0.1938,-2.31,-45.75,30.38,6.33,-85.18,-170.69
21073,53.084396,-1.299543,208.6,26.67,4,327.76,24 / 24,2107338,2019-11-08 10:32:24:949,0.2183,0.7566,10.2071,-0.0212,-0.0091,9.8066,-0.0066,0.3287,-0.1534,-2.19,-45.31,29.63,9.24,-84.88,-168.21
21074,53.084396,-1.299543,208.6,26.67,4,327.76,24 / 24,2107438,2019-11-08 10:32:25:049,1.7245,-0.6396,10.7205,0.0265,-0.0286,9.8065,0.0986,0.2181,-0.239,-1.62,-45.25,30.38,5.91,-84.58,-171.13
21075,53.084396,-1.299543,208.6,26.67,4,327.76,23 / 24,2107538,2019-11-08 10:32:25:149,2.2705,-0.9758,9.5912,-0.0596,0.029,9.8064,0.0225,0.1782,-0.1224,-2.19,-46.06,29.94,6.57,-84.56,-170.59
21076,53.084396,-1.299543,208.6,26.67,4,327.76,23 / 24,2107639,2019-11-08 10:32:25:250,-1.2871,0.8281,8.655,-0.0541,0.0358,9.8064,0.0276,0.2257,-0.1125,-2.31,-45.56,29.75,11.56,-84.55,-166.34
21077,53.084396,-1.299543,208.6,26.67,4,327.76,23 / 24,2107739,2019-11-08 10:32:25:350,3.0991,0.2547,9.6587,-0.0467,0.0065,9.8065,0.0468,0.3172,-0.1652,-2.81,-45.69,29.56,16.08,-84.67,-160.53
21078,53.084396,-1.299543,208.6,26.67,4,327.76,23 / 24,2107839,2019-11-08 10:32:25:450,-3.5557,0.3753,10.4086,-0.0801,-0.003,9.8063,0.0187,0.2379,-0.0998,-2.0,-46.25,29.94,18.91,-84.53,-160.07
21079,53.084396,-1.299543,208.6,26.67,4,327.76,23 / 24,2107939,2019-11-08 10:32:25:550,-0.6884,0.4624,11.2478,-0.0877,-0.0306,9.8061,0.0824,0.1927,-0.0855,-2.69,-46.19,30.19,24.3,-84.11,-153.8
21080,53.084396,-1.299543,208.6,26.67,4,327.76,23 / 24,2108039,2019-11-08 10:32:25:650,-4.8666,-0.6125,9.955,-0.0473,0.0161,9.8064,0.0297,-0.1062,0.1029,-3.0,-45.87,29.0,23.9,-83.98,-154.16
21081,53.084396,-1.299543,208.6,26.67,4,327.76,23 / 24,2108139,2019-11-08 10:32:25:750,0.7166,-0.7203,9.1647,-0.065,-0.0058,9.8063,0.023,-0.1277,0.0811,-3.94,-45.75,29.69,23.18,-84.19,-152.81
21082,53.084396,-1.299543,208.6,26.67,4,327.76,23 / 24,2108239,2019-11-08 10:32:25:850,3.4969,-0.3736,8.7144,0.001,0.0341,9.8065,0.0845,-0.351,0.2128,-3.44,-46.19,29.5,27.6,-84.19,-150.92
21083,53.084396,-1.299543,208.6,26.67,4,327.76,23 / 24,2108339,2019-11-08 10:32:25:950,2.8162,0.6493,10.1204,-0.0566,-0.0139,9.8064,0.1486,-0.299,0.1988,-3.62,-45.56,29.5,26.26,-84.12,-150.22
21084,53.084396,-1.299543,208.6,26.67,4,327.76,23 / 24,2108438,2019-11-08 10:32:26:049,1.5337,-0.7934,8.6342,0.0159,0.0271,9.8066,-0.0118,-0.3917,0.3035,-3.5,-45.5,29.0,27.07,-84.1,-151.29
21085,53.084396,-1.299543,208.6,26.67,4,327.76,23 / 24,2108538,2019-11-08 10:32:26:149,-3.2422,-0.6931,10.8842,-0.0461,0.0237,9.8064,0.1077,-0.37,0.2705,-3.37,-45.94,29.44,28.76,-84.11,-149.94
21086,53.084396,-1.299543,208.6,26.67,4,327.76,23 / 24,2108638,2019-11-08 10:32:26:249,-0.8887,0.3811,9.5556,0.0089,0.0542,9.8064,0.1426,-0.2399,0.139,-3.37,-45.87,29.56,29.15,-84.14,-149.63
21087,53.084396,-1.299543,208.6,26.67,4,327.76,23 / 24,2108738,2019-11-08 10:32:26:349,-1.4624,-1.0474,11.2982,0.0074,-0.0009,9.8066,0.1118,-0.1446,-0.0003,-3.25,-45.44,30.06,28.03,-84.34,-150.35
21088,53.084396,-1.299543,208.6,26.67,4,327.76,23 / 24,2108838,2019-11-08 10:32:26:449,-0.2503,-0.3829,10.1953,0.0196,0.0167,9.8065,0.0811,0.1135,-0.0695,-3.31,-45.62,29.38,26.43,-84.32,-151.77
21089,53.084396,-1.299543,208.6,26.67,4,327.76,23 / 24,2108938,2019-11-08 10:32:26:549,-0.2432,0.2357,10.8999,0.0133,-0.0051,9.8066,0.0332,0.0478,-0.0715,-2.69,-45.56,29.5,23.97,-84.46,-153.85
21090,53.084396,-1.299543,208.6,26.67,4,327.76,23 / 24,2109038,2019-11-08 10:32:26:649,-1.9547,-1.4484,9.6443,-0.034,-0.0065,9.8066,-0.0654,-0.014,0.0335,-2.81,-45.56,29.25,23.12,-84.5,-154.47
21091,53.084396,-1.299543,208.6,26.67,4,327.76,23 / 24,2109138,2019-11-08 10:32:26:749,0.4435,1.4993,9.443,-0.029,-0.0088,9.8065,-0.036,-0.0434,0.0851,-3.0,-45.5,29.88,23.34,-84.49,-154.3
21092,53.084396,-1.299543,208.6,26.67,4,327.76,23 / 24,2109238,2019-11-08 10:32:26:849,-4.1675,0.4889,10.4605,-0.0376,0.0013,9.8065,0.0517,-0.2763,0.1888,-2.87,-45.81,29.13,22.41,-84.34,-155.18
21093,53.084396,-1.299543,208.6,26.67,4,327.76,23 / 24,2109338,2019-11-08 10:32:26:949,1.6995,-0.651,10.309,-0.0546,-0.0295,9.8064,0.086,-0.4087,0.2489,-3.44,-45.94,28.81,22.89,-84.12,-154.92
21094,53.084396,-1.299543,208.6,26.67,4,327.76,23 / 24,2109438,2019-11-08 10:32:27:049,2.7547,0.5534,8.9642,-0.0371,-0.0209,9.8065,0.0047,-0.3911,0.2756,-3.5,-46.0,29.38,22.32,-84.05,-155.45
21095,53.084396,-1.299543,208.6,26.67,4,327.76,23 / 24,2109538,2019-11-08 10:32:27:149,2.044,-0.8569,10.663,-0.0421,-0.0058,9.8065,-0.0776,-0.2986,0.2059,-4.0,-45.94,29.13,21.68,-83.86,-154.14
21096,53.084396,-1.299543,208.6,26.67,4,327.76,23 / 24,2109638,2019-11-08 10:32:27:249,-0.7056,0.8421,8.5437,-0.0311,-0.0306,9.8065,-0.0931,-0.099,0.1668,-3.5,-45.44,29.44,22.11,-83.77,-155.72
21097,53.084396,-1.299543,208.6,26.67,4,327.76,23 / 24,2109738,2019-11-08 10:32:27:349,0.0808,-1.3853,11.0369,-0.0308,0.0077,9.8065,-0.1505,-0.0346,0.1496,-4.12,-45.56,29.5,21.94,-83.81,-154.09
21098,53.084396,-1.299543,208.6,26.67,4,327.76,23 / 24,2109838,2019-11-08 10:32:27:449,-0.009,1.0743,9.4061,0.0094,0.0148,9.8066,0.0189,0.2996,-0.1447,-4.12,-46.25,29.44,20.52,-83.69,-155.21
21099,53.084396,-1.299543,208.6,26.67,4,327.76,23 / 24,2109938,2019-11-08 10:32:27:549,-2.6875,-0.6797,9.8118,0.0439,0.031,9.8064,-0.0519,0.3694,-0.196,-3.87,-46.0,29.56,20.2,-83.83,-155.54
21100,53.084396,-1.299543,208.6,26.67,4,327.76,23 / 24,2110039,2019-11-08 10:32:27:650,-4.0528,0.5441,10.7284,-0.0651,-0.0204,9.8063,0.0806,-0.0564,0.0909,-3.81,-45.81,29.13,21.19,-83.81,-154.58
21101,53.084396,-1.299543,208.6,26.67,4,327.76,23 / 24,2110139,2019-11-08 10:32:27:750,4.7873,-0.1281,9.8871,0.003,-0.038,9.8065,0.1002,-0.1986,0.2139,-3.62,-46.06,29.0,23.25,-83.66,-152.96
21102,53.084396,-1.299543,208.6,26.67,4,327.76,23 / 24,2110238,2019-11-08 10:32:27:849,-3.5229,0.4045,11.8533,-0.0729,-0.0416,9.8063,0.1364,-0.5738,0.3305,-3.56,-45.06,29.56,21.86,-83.55,-154.23
21103,53.084396,-1.299543,208.6,26.67,4,327.76,23 / 24,2110338,2019-11-08 10:32:27:949,4.84,-0.7327,10.1594,-0.0401,-0.0594,9.8064,0.1194,-0.4798,0.407,-3.0,-45.44,29.19,24.8,-83.01,-153.98
21104,53.084396,-1.299543,208.6,26.67,4,327.76,23 / 24,2110439,2019-11-08 10:32:28:050,-3.8411,-0.0913,10.3196,-0.0596,-0.0024,9.8064,0.0651,-0.4569,0.3542,-3.5,-45.5,29.44,22.5,-83.26,-155.72
21105,53.084396,-1.299543,208.6,26.67,4,327.76,23 / 23,2110539,2019-11-08 10:32:28:150,0.3897,-0.5327,10.2896,-0.0359,-0.0358,9.8065,0.0717,-0.4387,0.2549,-3.75,-46.0,29.63,20.46,-83.5,-155.52
21106,53.084396,-1.299543,208.6,26.67,4,327.76,23 / 23,2110639,2019-11-08 10:32:28:250,-2.5462,-0.6062,10.4301,-0.0398,0.0079,9.8065,0.0315,-0.1662,0.2202,-3.56,-45.69,29.5,22.04,-83.53,-154.18
21107,53.084396,-1.299543,208.6,26.67,4,327.76,23 / 23,2110739,2019-11-08 10:32:28:350,0.3059,-0.9468,10.0169,-0.0322,-0.0401,9.8065,-0.0097,-0.0508,0.062,-3.69,-45.81,29.5,24.1,-83.32,-152.59
21108,53.084396,-1.299543,208.6,26.67,4,327.76,23 / 23,2110839,2019-11-08 10:32:28:450,1.2005,0.9409,8.0512,0.0029,0.0324,9.8065,-0.1132,0.1342,-0.0262,-3.69,-45.94,29.25,23.19,-83.37,-153.2
21109,53.084396,-1.299543,208.6,26.67,4,327.76,23 / 23,2110938,2019-11-08 10:32:28:549,-1.2665,1.4282,8.6843,0.018,-0.0364,9.8065,-0.0046,0.1512,0.0063,-3.62,-45.56,29.25,22.17,-83.44,-154.0
21110,53.084396,-1.299543,208.6,26.67,4,327.76,23 / 23,2111038,2019-11-08 10:32:28:649,1.6544,0.2535,10.8499,0.0105,-0.0073,9.8066,0.0123,0.063,-0.0124,-3.75,-45.62,29.56,21.47,-83.44,-154.72
21111,53.084396,-1.299543,208.6,26.67,4,327.76,23 / 23,2111138,2019-11-08 10:32:28:749,2.8234,0.1451,9.3644,0.0431,-0.0273,9.8065,0.1451,-0.0473,0.0705,-3.56,-45.25,29.44,23.01,-83.44,-153.21
21112,53.084396,-1.299543,208.6,26.67,4,327.76,23 / 23,2111238,2019-11-08 10:32:28:849,2.3671,0.2249,10.886,0.0032,-0.0443,9.8065,0.2259,-0.1576,0.0373,-3.69,-45.75,29.63,21.92,-83.28,-154.43
21113,53.084396,-1.299543,208.6,26.67,4,327.76,23 / 23,2111338,2019-11-08 10:32:28:949,1.647,0.115,8.7175,0.0183,0.0031,9.8066,0.0882,-0.1711,0.1472,-3.81,-45.06,29.44,21.52,-83.23,-154.58
21114,53.084396,-1.299543,208.6,26.67,4,327.76,23 / 23,2111438,2019-11-08 10:32:29:049,-1.9123,2.0369,10.1547,-0.0111,-0.0319,9.8065,0.0412,-0.1419,0.1412,-3.81,-45.5,29.44,21.37,-83.16,-154.74
21115,53.084396,-1.299543,208.6,26.67,4,327.76,24 / 24,2111538,2019-11-08 10:32:29:149,0.0228,-0.8004,9.1955,0.0219,-0.0154,9.8066,0.1463,-0.1922,0.1089,-3.37,-45.69,29.06,23.28,-83.03,-155.31
21116,53.084396,-1.299543,208.6,26.67,4,327.76,24 / 24,2111638,2019-11-08 10:32:29:249,-0.8854,-0.3307,11.2084,-0.0105,-0.0299,9.8066,0.0441,-0.163,0.1051,-4.19,-45.5,29.25,21.52,-83.08,-154.67
21117,53.084396,-1.299543,208.6,26.67,4,327.76,24 / 24,2111738,2019-11-08 10:32:29:349,0.8844,-1.103,9.6577,0.0041,-0.0295,9.8065,0.019,-0.014,0.0158,-3.62,-45.0,29.63,21.94,-83.03,-154.48
21118,53.084396,-1.299543,208.6,26.67,4,327.76,24 / 24,2111838,2019-11-08 10:32:29:449,-0.183,0.0038,10.1363,-0.005,-0.0188,9.8066,-0.0094,0.0793,0.026,-4.31,-44.56,29.31,24.13,-83.03,-152.55
21119,53.084396,-1.299543,208.6,26.67,4,327.76,24 / 24,2111938,2019-11-08 10:32:29:549,-0.9938,-1.5797,8.8692,-0.0041,-0.0301,9.8065,-0.0368,0.1061,-0.1288,-3.75,-45.0,29.88,25.36,-82.73,-151.85
21120,53.084396,-1.299543,208.6,26.67,4,327.76,24 / 24,2112038,2019-11-08 10:32:29:649,1.8678,-0.2513,10.4911,0.035,-0.0088,9.8065,-0.0006,0.2368,-0.1277,-4.87,-44.81,29.19,23.1,-82.68,-151.67
21121,53.084396,-1.299543,208.6,26.67,4,327.76,24 / 24,2112139,2019-11-08 10:32:29:750,-1.51,1.3096,10.6572,0.0133,-0.006,9.8066,-0.005,0.1766,-0.0916,-4.19,-44.81,30.44,23.93,-82.7,-153.05
21122,53.084396,-1.299543,208.6,26.67,4,327.76,24 / 24,2112239,2019-11-08 10:32:29:850,2.0366,-0.0038,9.4199,0.0424,0.0061,9.8065,0.084,0.0333,-0.0409,-4.81,-45.06,28.94,21.68,-82.5,-152.94
21123,53.084396,-1.299543,208.6,26.67,4,327.76,24 / 24,2112338,2019-11-08 10:32:29:949,-1.1387,0.1433,8.9531,-0.0046,0.0596,9.8064,0.1354,-0.0133,-0.0115,-4.94,-44.25,29.88,21.15,-82.5,-153.46
21124,53.084396,-1.299543,208.6,26.67,4,327.76,24 / 24,2112438,2019-11-08 10:32:30:049,0.2969,3.1654,8.1457,0.0072,0.0112,9.8066,0.1354,-0.1965,-0.0363,-4.75,-44.25,29.69,22.34,-82.72,-152.36
21125,53.084396,-1.299543,208.6,26.67,4,327.76,24 / 24,2112538,2019-11-08 10:32:30:149,2.0361,0.1905,10.9691,0.0019,0.034,9.8066,0.1082,-0.0475,-0.0262,-4.62,-44.31,29.94,20.73,-82.71,-153.69
21126,53.084396,-1.299543,208.6,26.67,4,327.76,24 / 24,2112638,2019-11-08 10:32:30:249,-1.1443,0.1506,9.2258,-0.0436,0.0238,9.8064,0.0489,-0.0007,-0.0991,-4.37,-43.62,29.88,21.85,-82.73,-154.64
21127,53.084396,-1.299543,208.6,26.67,4,327.76,24 / 24,2112742,2019-11-08 10:32:30:353,2.1203,1.1243,9.8535,-0.0261,-0.02,9.8066,0.0164,0.1229,-0.1547,-4.5,-43.44,30.63,23.2,-82.62,-153.62
21128,53.084396,-1.299543,208.6,26.67,4,327.76,24 / 24,2112839,2019-11-08 10:32:30:450,-2.6248,0.8428,9.7177,-0.0456,0.0127,9.8064,-0.0212,0.1679,-0.1607,-4.56,-43.06,29.81,18.18,-82.52,-155.8
21129,53.084396,-1.299543,208.6,26.67,4,327.76,24 / 24,2112939,2019-11-08 10:32:30:550,1.281,-0.8001,11.1648,-0.0313,-0.0241,9.8065,-0.1044,0.2318,-0.1999,-4.37,-43.25,30.13,20.97,-82.66,-155.32
21130,53.084396,-1.299543,208.6,26.67,4,327.76,24 / 24,2113039,2019-11-08 10:32:30:650,-3.1822,-0.8062,11.5011,-0.0401,-0.0107,9.8065,-0.1593,0.364,-0.1914,-4.06,-43.12,30.13,20.95,-82.49,-155.43
21131,53.084396,-1.299543,208.6,26.67,4,327.76,24 / 24,2113139,2019-11-08 10:32:30:750,0.8917,0.5042,9.4075,-0.0383,-0.0346,9.8064,-0.1672,0.2827,-0.1393,-3.87,-43.31,31.38,23.01,-82.29,-153.97
21132,53.084396,-1.299543,208.6,26.67,4,327.76,24 / 24,2113239,2019-11-08 10:32:30:850,1.9805,1.298,8.9915,0.0084,0.0073,9.8066,-0.1201,0.2002,-0.0985,-3.75,-43.12,30.31,23.62,-82.47,-153.25
21133,53.084396,-1.299543,208.6,26.67,4,327.76,24 / 24,2113338,2019-11-08 10:32:30:949,-0.6637,0.6138,8.9816,0.0075,-0.0132,9.8066,-0.072,-0.0773,0.0865,-3.25,-43.56,30.19,24.88,-82.45,-154.23
21134,53.084396,-1.299543,208.6,26.67,4,327.76,24 / 24,2113438,2019-11-08 10:32:31:049,2.0747,0.9915,9.9765,0.0237,0.0192,9.8065,-0.0578,-0.1975,0.0904,-3.56,-43.69,29.88,23.05,-82.54,-153.78
21135,53.084396,-1.299543,208.6,26.67,4,327.76,23 / 23,2113539,2019-11-08 10:32:31:150,-0.3539,1.5552,9.5781,0.0405,-0.0157,9.8065,-0.0829,-0.2693,0.2174,-3.37,-43.5,30.19,26.73,-82.76,-152.39
21136,53.084396,-1.299543,208.6,26.67,4,327.76,23 / 23,2113639,2019-11-08 10:32:31:250,2.6915,0.1057,10.7338,0.0307,-0.0415,9.8064,-0.0539,-0.2746,0.2033,-3.31,-43.62,30.0,24.88,-82.65,-154.11
21137,53.084396,-1.299543,208.6,26.67,4,327.76,23 / 23,2113738,2019-11-08 10:32:31:349,-0.3665,1.219,9.0841,0.0294,0.0002,9.8065,-0.0635,-0.1297,0.0891,-2.94,-43.19,30.06,22.85,-82.48,-155.78
21138,53.084396,-1.299543,208.6,26.67,4,327.76,23 / 23,2113838,2019-11-08 10:32:31:449,-1.0043,-0.6997,10.724,0.0025,-0.031,9.8065,-0.1086,0.0974,0.0354,-3.75,-42.94,30.31,21.93,-82.48,-154.63
21139,53.084396,-1.299543,208.6,26.67,4,327.76,23 / 23,2113938,2019-11-08 10:32:31:549,0.3374,0.3666,9.5774,0.0068,0.0046,9.8066,-0.1668,0.0744,0.0097,-3.56,-43.44,30.81,22.57,-82.39,-154.28
21140,53.084396,-1.299543,208.6,26.67,4,327.76,23 / 23,2114039,2019-11-08 10:32:31:650,-0.5469,0.1845,9.8685,-0.0033,0.0199,9.8066,-0.1536,0.1872,0.0327,-3.56,-43.44,30.81,22.05,-82.35,-154.73
21141,53.084396,-1.299543,208.6,26.67,4,327.76,23 / 23,2114139,2019-11-08 10:32:31:750,-1.4789,0.7383,9.0335,0.0041,0.0054,9.8066,0.0147,0.0981,0.0036,-4.06,-43.12,31.88,21.95,-82.58,-154.79
21142,53.084396,-1.299543,208.6,26.67,4,327.76,23 / 23,2114239,2019-11-08 10:32:31:850,-1.3852,-0.2843,8.9701,0.0472,-0.0239,9.8064,0.0852,0.0269,-0.0205,-2.87,-42.31,31.63,22.78,-82.66,-155.74
21143,53.084396,-1.299543,208.6,26.67,4,327.76,23 / 23,2114339,2019-11-08 10:32:31:950,0.8664,-1.0878,10.9489,0.0059,-0.0245,9.8065,0.0971,-0.0045,0.0125,-3.25,-42.56,31.56,24.34,-82.72,-154.49
21144,53.084396,-1.299543,208.6,26.67,4,327.76,23 / 23,2114439,2019-11-08 10:32:32:050,2.7255,1.2377,9.4424,0.0317,-0.0079,9.8065,0.1467,-0.1954,0.1391,-2.87,-42.62,31.63,24.78,-82.51,-154.25
21145,53.08631,-1.301467,206.44,28.75,4,328.84,24 / 24,2114538,2019-11-08 10:32:32:149,0.2137,-0.7628,9.939,0.0248,0.0274,9.8065,0.1813,-0.2766,0.1009,-2.25,-42.25,31.38,25.8,-82.56,-155.08
21146,53.08631,-1.301467,206.44,28.75,4,328.84,24 / 24,2114638,2019-11-08 10:32:32:249,1.4899,1.1936,8.2044,0.0008,0.0048,9.8066,0.054,-0.1372,0.054,-2.56,-42.06,31.31,24.76,-82.58,-154.08
21147,53.08631,-1.301467,206.44,28.75,4,328.84,24 / 24,2114738,2019-11-08 10:32:32:349,0.0279,0.3686,10.3749,-0.0165,-0.0167,9.8066,0.0998,-0.1351,0.0071,-2.19,-42.06,31.19,27.37,-82.73,-153.65
21148,53.08631,-1.301467,206.44,28.75,4,328.84,24 / 24,2114839,2019-11-08 10:32:32:450,2.4189,-0.6332,10.2307,-0.0227,0.0033,9.8066,0.0801,0.0767,-0.1217,-2.12,-42.19,31.5,27.95,-82.69,-153.15
21149,53.08631,-1.301467,206.44,28.75,4,328.84,24 / 24,2114939,2019-11-08 10:32:32:550,-0.5961,-0.0489,10.4375,-0.0012,-0.005,9.8066,0.0315,0.1334,-0.1619,-1.44,-41.81,31.63,29.45,-82.67,-153.69
21150,53.08631,-1.301467,206.44,28.75,4,328.84,24 / 24,2115039,2019-11-08 10:32:32:650,-2.7011,1.2577,11.2882,-0.0522,-0.0163,9.8065,-0.1516,0.2151,-0.1753,-1.0,-42.87,32.25,26.97,-82.59,-155.95
21151,53.08631,-1.301467,206.44,28.75,4,328.84,24 / 24,2115138,2019-11-08 10:32:32:749,-2.1558,0.5732,9.2883,-0.0278,0.0428,9.8064,-0.1151,0.1213,-0.0398,-0.5,-43.19,31.38,30.23,-82.39,-155.31
21152,53.08631,-1.301467,206.44,28.75,4,328.84,24 / 24,2115239,2019-11-08 10:32:32:850,0.4795,1.1472,10.1681,-0.0415,0.0086,9.8065,-0.0759,0.2602,-0.1769,-0.12,-42.81,30.81,34.25,-82.59,-151.77
21153,53.08631,-1.301467,206.44,28.75,4,328.84,24 / 24,2115339,2019-11-08 10:32:32:950,2.2715,1.1344,8.7246,0.0139,0.0153,9.8065,-0.0312,0.2814,-0.2443,0.13,-42.19,31.06,32.96,-82.57,-152.74
21154,53.08631,-1.301467,206.44,28.75,4,328.84,24 / 24,2115439,2019-11-08 10:32:33:050,0.2295,-1.2036,10.0549,-0.0071,-0.013,9.8066,-0.0614,0.0164,-0.027,0.0,-41.87,29.88,30.63,-82.48,-154.96
21155,53.08631,-1.301467,206.44,28.75,4,328.84,25 / 25,2115538,2019-11-08 10:32:33:149,-0.3251,2.4796,10.0523,-0.0196,0.0371,9.8065,-0.142,-0.0182,0.039,-0.19,-42.87,30.5,30.65,-82.66,-154.75
21156,53.08631,-1.301467,206.44,28.75,4,328.84,25 / 25,2115638,2019-11-08 10:32:33:249,0.2523,1.2846,10.6232,0.0013,-0.0401,9.8065,-0.197,-0.0625,0.0878,0.5,-42.44,29.81,35.47,-82.88,-152.44
21157,53.08631,-1.301467,206.44,28.75,4,328.84,25 / 25,2115738,2019-11-08 10:32:33:349,1.492,-0.5459,10.1814,0.0015,-0.0144,9.8066,-0.1685,-0.1352,0.1433,-0.19,-42.31,29.81,32.28,-82.72,-153.38
21158,53.08631,-1.301467,206.44,28.75,4,328.84,25 / 25,2115838,2019-11-08 10:32:33:449,-0.0899,1.6722,9.2871,0.026,0.0066,9.8066,-0.0428,-0.1836,0.1214,-0.81,-42.75,29.81,30.08,-82.83,-153.36
21159,53.08631,-1.301467,206.44,28.75,4,328.84,25 / 25,2115939,2019-11-08 10:32:33:550,-0.8094,-0.5149,10.6935,0.0016,-0.0316,9.8066,0.0178,-0.1148,0.0793,-0.81,-42.69,28.81,31.16,-83.0,-152.43
21160,53.08631,-1.301467,206.44,28.75,4,328.84,25 / 25,2116039,2019-11-08 10:32:33:650,1.4118,1.1198,10.2081,0.0081,-0.0119,9.8066,0.0823,0.104,-0.0334,-0.56,-42.94,29.25,29.57,-82.87,-153.86
21161,53.08631,-1.301467,206.44,28.75,4,328.84,25 / 25,2116139,2019-11-08 10:32:33:750,0.3445,1.0679,11.0449,0.0051,-0.0077,9.8066,0.079,0.1685,-0.1166,-0.87,-43.06,29.19,29.16,-82.92,-154.17
21162,53.08631,-1.301467,206.44,28.75,4,328.84,25 / 25,2116239,2019-11-08 10:32:33:850,-2.2077,1.5903,9.1121,-0.0286,0.0162,9.8066,0.11,0.19,-0.0866,-0.56,-43.56,29.25,30.77,-82.99,-152.89
21163,53.08631,-1.301467,206.44,28.75,4,328.84,25 / 25,2116339,2019-11-08 10:32:33:950,-0.1062,1.2055,8.8087,0.0214,0.0057,9.8066,0.1293,0.0649,-0.0622,-1.25,-43.06,29.88,30.13,-82.68,-153.43
21164,53.08631,-1.301467,206.44,28.75,4,328.84,25 / 25,2116439,2019-11-08 10:32:34:050,-2.0597,0.425,11.0637,-0.0268,0.0462,9.8065,0.1497,-0.1474,-0.0066,-1.37,-43.75,29.5,32.13,-82.74,-151.84
21165,53.08631,-1.301467,206.44,28.75,4,328.84,23 / 24,2116538,2019-11-08 10:32:34:149,1.2484,-0.7007,9.6197,-0.0249,0.0094,9.8065,0.1256,-0.1038,0.0641,-1.25,-43.75,29.81,32.42,-82.71,-151.62
21166,53.08631,-1.301467,206.44,28.75,4,328.84,23 / 24,2116638,2019-11-08 10:32:34:249,-1.2975,1.3253,11.7302,-0.0106,-0.0324,9.8065,0.2444,-0.2216,0.0301,-1.56,-43.87,29.88,29.74,-82.79,-151.88
21167,53.08631,-1.301467,206.44,28.75,4,328.84,23 / 24,2116739,2019-11-08 10:32:34:350,0.2857,0.724,8.6033,-0.0042,0.0206,9.8066,0.1907,-0.1913,0.0553,-1.56,-44.19,30.0,28.35,-82.46,-153.29
21168,53.08631,-1.301467,206.44,28.75,4,328.84,23 / 24,2116838,2019-11-08 10:32:34:449,2.9655,-0.6101,10.6284,0.0385,0.0197,9.8065,0.1284,-0.0319,0.0472,-1.44,-44.37,30.0,30.94,-82.32,-153.17
21169,53.08631,-1.301467,206.44,28.75,4,328.84,23 / 24,2116939,2019-11-08 10:32:34:550,0.4508,1.1983,10.3839,-0.0409,-0.0009,9.8065,0.0372,0.0574,-0.0765,-0.94,-44.0,30.13,29.44,-82.45,-154.31
21170,53.08631,-1.301467,206.44,28.75,4,328.84,23 / 24,2117038,2019-11-08 10:32:34:649,2.3889,0.1282,9.2384,0.0214,-0.019,9.8066,-0.0746,0.1922,-0.1175,-1.0,-44.12,29.75,29.41,-82.33,-154.43
21171,53.08631,-1.301467,206.44,28.75,4,328.84,23 / 24,2117138,2019-11-08 10:32:34:749,-2.1833,1.4677,9.1158,-0.032,-0.0053,9.8065,-0.0561,0.2275,-0.1827,-1.06,-43.94,29.63,29.41,-82.45,-154.33
21172,53.08631,-1.301467,206.44,28.75,4,328.84,23 / 24,2117238,2019-11-08 10:32:34:849,0.2812,2.4635,8.8848,0.0128,-0.0632,9.8064,-0.0974,0.164,-0.1287,-0.81,-44.06,30.63,28.38,-82.19,-155.27
21173,53.08631,-1.301467,206.44,28.75,4,328.84,23 / 24,2117339,2019-11-08 10:32:34:950,-0.9187,0.9399,10.8819,-0.0212,-0.0109,9.8065,-0.1469,0.146,-0.0291,-1.25,-44.06,29.75,27.79,-82.18,-155.87
21174,53.08631,-1.301467,206.44,28.75,4,328.84,23 / 24,2117438,2019-11-08 10:32:35:049,0.9053,-1.1785,8.9581,-0.0019,-0.009,9.8066,-0.1634,0.0991,-0.063,-1.44,-44.37,29.38,30.21,-82.35,-153.87
21175,53.08631,-1.301467,206.44,28.75,4,328.84,24 / 24,2117539,2019-11-08 10:32:35:150,-0.8525,0.5946,10.8093,0.0026,0.0253,9.8066,-0.1678,0.1159,0.0225,-0.62,-44.25,29.94,31.64,-82.5,-152.45
21176,53.08631,-1.301467,206.44,28.75,4,328.84,24 / 24,2117638,2019-11-08 10:32:35:249,-0.5282,1.4703,8.9976,0.0096,-0.0244,9.8066,-0.1795,0.0023,0.0653,-0.25,-44.12,29.5,30.65,-82.3,-155.34
21177,53.08631,-1.301467,206.44,28.75,4,328.84,24 / 24,2117738,2019-11-08 10:32:35:349,2.6392,0.1229,10.9808,-0.0097,0.0246,9.8065,-0.0246,-0.1967,0.1108,-1.06,-44.94,29.0,27.49,-82.39,-156.2
21178,53.08631,-1.301467,206.44,28.75,4,328.84,24 / 24,2117838,2019-11-08 10:32:35:449,-0.2335,-0.0855,10.0535,0.0031,0.0058,9.8066,-0.042,-0.1808,0.2038,-0.81,-45.31,28.63,25.08,-82.31,-158.19
21179,53.08631,-1.301467,206.44,28.75,4,328.84,24 / 24,2117939,2019-11-08 10:32:35:550,2.6172,0.5925,9.8369,0.0272,0.0126,9.8066,-0.0276,-0.2258,0.1836,-0.75,-45.19,29.0,26.71,-82.33,-156.87
21180,53.08631,-1.301467,206.44,28.75,4,328.84,24 / 24,2118042,2019-11-08 10:32:35:653,-0.2247,1.8721,9.1141,0.0164,0.0082,9.8066,-0.0585,-0.1652,0.1252,-1.31,-45.37,28.88,27.28,-82.4,-156.36
21181,53.08631,-1.301467,206.44,28.75,4,328.84,24 / 24,2118138,2019-11-08 10:32:35:749,2.5876,0.2917,8.5515,0.0389,-0.0033,9.8065,-0.1004,0.0162,0.0775,-1.12,-45.69,28.44,26.89,-82.33,-156.97
21182,53.08631,-1.301467,206.44,28.75,4,328.84,24 / 24,2118238,2019-11-08 10:32:35:849,-0.2183,0.3491,10.1539,0.02,0.0357,9.8065,-0.0815,0.0995,-0.0175,-1.81,-45.5,28.56,22.8,-82.44,-157.97
21183,53.08631,-1.301467,206.44,28.75,4,328.84,24 / 24,2118338,2019-11-08 10:32:35:949,-0.534,0.8921,10.5681,-0.0031,0.0093,9.8066,-0.1312,0.1668,-0.0085,-2.44,-45.06,29.0,22.98,-82.31,-157.9
21184,53.08631,-1.301467,206.44,28.75,4,328.84,24 / 24,2118438,2019-11-08 10:32:36:049,1.449,-1.2816,10.8397,-0.013,0.0414,9.8065,-0.0234,0.1488,-0.116,-1.87,-45.81,28.69,23.23,-82.39,-157.76
21185,53.08631,-1.301467,206.44,28.75,4,328.84,24 / 24,2118539,2019-11-08 10:32:36:150,-1.2494,0.5855,8.5459,-0.0396,0.0186,9.8065,0.0803,0.0145,-0.0553,-2.69,-45.31,28.81,19.58,-82.25,-158.68
21186,53.08631,-1.301467,206.44,28.75,4,328.84,24 / 24,2118639,2019-11-08 10:32:36:250,0.6186,0.1155,11.0997,0.0234,-0.0215,9.8066,0.0803,-0.0105,-0.0246,-3.12,-45.25,28.81,21.79,-82.24,-156.93
21187,53.08631,-1.301467,206.44,28.75,4,328.84,24 / 24,2118739,2019-11-08 10:32:36:350,-1.6176,-0.3565,10.3541,0.0295,0.0105,9.8065,0.1253,-0.0791,-0.0247,-2.81,-45.25,29.19,20.78,-82.26,-157.72
21188,53.08631,-1.301467,206.44,28.75,4,328.84,24 / 24,2118840,2019-11-08 10:32:36:451,1.0294,-0.9959,10.6183,0.0221,-0.0209,9.8066,0.0405,-0.0932,0.0386,-2.37,-45.75,28.88,23.89,-82.23,-157.34
21189,53.08631,-1.301467,206.44,28.75,4,328.84,24 / 24,2118938,2019-11-08 10:32:36:549,0.4642,0.8364,8.4331,0.007,0.0067,9.8066,0.1071,-0.0362,0.0132,-2.69,-45.75,28.81,21.14,-82.22,-157.55
21190,53.08631,-1.301467,206.44,28.75,4,328.84,24 / 24,2119039,2019-11-08 10:32:36:650,-1.7975,1.9515,8.2198,0.0065,-0.0135,9.8065,0.1994,0.0774,-0.0942,-2.62,-45.44,28.56,21.15,-82.19,-157.47
21191,53.08631,-1.301467,206.44,28.75,4,328.84,24 / 24,2119138,2019-11-08 10:32:36:749,2.6105,-0.1993,9.3018,-0.0664,0.0272,9.8063,0.0983,0.3589,-0.2869,-3.19,-45.56,29.25,22.69,-82.06,-156.43
21192,53.08631,-1.301467,206.44,28.75,4,328.84,24 / 24,2119238,2019-11-08 10:32:36:849,2.969,0.5047,9.2064,-0.008,0.0266,9.8066,-0.0236,0.4725,-0.2914,-3.44,-45.81,28.5,21.87,-82.13,-157.03
21193,53.08631,-1.301467,206.44,28.75,4,328.84,24 / 24,2119338,2019-11-08 10:32:36:949,0.9253,0.6621,9.8848,-0.0345,-0.0284,9.8065,-0.063,0.2772,-0.1836,-3.5,-46.25,29.0,22.73,-82.11,-156.36
21194,53.08631,-1.301467,206.44,28.75,4,328.84,24 / 24,2119438,2019-11-08 10:32:37:049,2.0253,1.3476,8.928,0.0271,0.0284,9.8065,0.0424,0.0632,-0.1095,-3.62,-46.37,29.06,19.87,-82.17,-156.63
21195,53.08631,-1.301467,206.44,28.75,4,328.84,23 / 23,2119538,2019-11-08 10:32:37:149,-3.5861,0.5626,9.8847,-0.0132,0.0344,9.8065,0.1283,0.0768,0.0059,-3.75,-45.62,29.19,19.87,-82.29,-156.55
21196,53.08631,-1.301467,206.44,28.75,4,328.84,23 / 23,2119638,2019-11-08 10:32:37:249,1.9101,1.2215,8.6256,0.0406,0.0351,9.8064,0.075,-0.2197,0.0523,-3.62,-46.0,29.25,21.56,-82.16,-155.29
21197,53.08631,-1.301467,206.44,28.75,4,328.84,23 / 23,2119738,2019-11-08 10:32:37:349,-3.0153,0.2638,11.7218,0.0147,0.0364,9.8065,0.1589,-0.4848,0.1695,-3.5,-45.81,29.19,23.92,-82.36,-155.24
21198,53.08631,-1.301467,206.44,28.75,4,328.84,23 / 23,2119839,2019-11-08 10:32:37:450,-3.3805,1.2391,10.1282,0.0082,0.0115,9.8066,0.1041,-0.4311,0.2447,-3.94,-45.5,29.19,21.83,-82.26,-154.92
21199,53.08631,-1.301467,206.44,28.75,4,328.84,23 / 23,2119939,2019-11-08 10:32:37:550,-3.0622,0.3396,10.4179,0.054,-0.0095,9.8065,-0.0033,-0.2549,0.0599,-3.87,-45.94,29.56,18.89,-82.13,-157.55
21200,53.08631,-1.301467,206.44,28.75,4,328.84,23 / 23,2120038,2019-11-08 10:32:37:649,-3.8286,1.3308,10.4626,-0.0534,-0.0002,9.8065,0.005,-0.0203,-0.0083,-3.44,-45.19,29.25,20.46,-82.2,-158.01
21201,53.08631,-1.301467,206.44,28.75,4,328.84,23 / 23,2120138,2019-11-08 10:32:37:749,3.6276,1.2159,8.7557,0.0189,-0.0291,9.8066,-0.2871,0.2934,-0.1643,-3.81,-45.44,28.75,20.17,-82.34,-156.2
21202,53.08631,-1.301467,206.44,28.75,4,328.84,23 / 23,2120239,2019-11-08 10:32:37:850,-1.8837,-1.8922,11.3423,-0.0282,-0.0346,9.8065,-0.2058,0.3381,-0.1872,-3.81,-45.62,29.75,18.37,-82.44,-157.81
21203,53.08631,-1.301467,206.44,28.75,4,328.84,23 / 23,2120339,2019-11-08 10:32:37:950,0.4531,0.9992,8.9304,-0.0108,-0.0214,9.8066,-0.0575,0.1738,-0.0689,-3.31,-45.56,29.44,21.99,-82.44,-156.74
21204,53.08631,-1.301467,206.44,28.75,4,328.84,23 / 23,2120438,2019-11-08 10:32:38:049,0.3235,0.8137,10.8205,0.009,-0.0485,9.8065,-0.215,-0.0194,0.046,-4.37,-45.19,29.81,19.27,-82.56,-156.93
21205,53.08631,-1.301467,206.44,28.75,4,328.84,24 / 24,2120540,2019-11-08 10:32:38:151,-0.9562,1.2591,9.1136,0.0203,-0.0267,9.8066,-0.2083,-0.0617,0.1082,-3.62,-45.5,29.0,17.25,-82.32,-158.54
21206,53.08631,-1.301467,206.44,28.75,4,328.84,24 / 24,2120638,2019-11-08 10:32:38:249,1.5659,-0.2238,10.7797,0.0293,-0.0255,9.8066,-0.1817,-0.1052,0.1866,-3.75,-46.06,28.75,19.35,-82.42,-156.9
21207,53.08631,-1.301467,206.44,28.75,4,328.84,24 / 24,2120739,2019-11-08 10:32:38:350,-1.6863,2.4841,8.1131,-0.0036,0.001,9.8066,-0.1593,-0.1547,0.1868,-3.81,-45.5,28.75,19.08,-82.23,-157.13
21208,53.08631,-1.301467,206.44,28.75,4,328.84,24 / 24,2120839,2019-11-08 10:32:38:450,0.4685,0.0376,9.0793,0.0228,-0.0102,9.8066,-0.018,-0.1811,0.0808,-4.0,-45.5,28.94,20.01,-81.97,-156.54
21209,53.08631,-1.301467,206.44,28.75,4,328.84,24 / 24,2120938,2019-11-08 10:32:38:549,-2.2594,1.2736,11.385,0.0021,0.0679,9.8063,0.0313,-0.1647,0.1043,-4.19,-45.94,29.19,20.18,-82.27,-156.32
21210,53.08631,-1.301467,206.44,28.75,4,328.84,24 / 24,2121038,2019-11-08 10:32:38:649,-0.4088,0.3775,9.395,0.0167,0.0217,9.8065,0.1105,-0.0263,-0.0209,-3.87,-46.06,29.0,19.37,-82.27,-156.96
21211,53.08631,-1.301467,206.44,28.75,4,328.84,24 / 24,2121138,2019-11-08 10:32:38:749,-0.5392,0.2809,10.5342,0.0126,0.0126,9.8066,0.0967,0.116,-0.0632,-3.94,-45.37,28.88,17.57,-82.28,-158.3
21212,53.08631,-1.301467,206.44,28.75,4,328.84,24 / 24,2121238,2019-11-08 10:32:38:849,-0.9508,2.2768,9.3107,-0.0296,0.0298,9.8065,0.1459,0.2079,-0.2553,-3.81,-45.69,28.38,15.82,-82.26,-159.61
21213,53.08631,-1.301467,206.44,28.75,4,328.84,24 / 24,2121338,2019-11-08 10:32:38:949,3.2817,0.4275,10.6235,0.0231,-0.0005,9.8066,0.1012,0.3696,-0.2582,-4.12,-46.06,28.5,17.87,-82.3,-158.13
21214,53.08631,-1.301467,206.44,28.75,4,328.84,24 / 24,2121438,2019-11-08 10:32:39:049,-1.9038,-0.1477,9.7972,-0.0386,-0.0326,9.8064,0.0424,0.2981,-0.2336,-3.56,-46.06,28.81,16.29,-82.35,-159.36
21215,53.08631,-1.301467,206.44,28.75,4,328.84,24 / 24,2121538,2019-11-08 10:32:39:149,0.7765,1.7885,9.029,-0.0204,0.0318,9.8065,0.0175,0.2872,-0.2834,-3.44,-45.94,28.19,18.32,-82.2,-159.72
21216,53.08631,-1.301467,206.44,28.75,4,328.84,24 / 24,2121639,2019-11-08 10:32:39:250,-2.2239,1.4717,9.5304,-0.0038,0.0224,9.8066,0.0617,0.2308,-0.1499,-4.37,-46.19,27.13,16.7,-82.23,-158.77
21217,53.08631,-1.301467,206.44,28.75,4,328.84,24 / 24,2121738,2019-11-08 10:32:39:349,3.3569,0.5871,8.1626,0.0224,0.0271,9.8065,0.0549,-0.0281,-0.0055,-4.25,-46.44,26.69,16.8,-82.02,-158.81
21218,53.08631,-1.301467,206.44,28.75,4,328.84,24 / 24,2121838,2019-11-08 10:32:39:449,2.2378,0.4359,9.7299,0.0196,0.0355,9.8066,0.0894,-0.3874,0.1424,-3.87,-46.37,26.44,16.02,-82.25,-159.11
21219,53.08631,-1.301467,206.44,28.75,4,328.84,24 / 24,2121938,2019-11-08 10:32:39:549,-2.5007,-0.2795,9.8698,0.0468,0.0222,9.8064,0.0365,-0.2561,0.1604,-3.62,-47.75,24.56,15.05,-82.35,-159.75
21220,53.08631,-1.301467,206.44,28.75,4,328.84,24 / 24,2122039,2019-11-08 10:32:39:650,2.7883,1.2309,9.8078,-0.0076,-0.0217,9.8066,-0.0211,-0.0484,0.0189,-3.94,-49.69,22.81,14.7,-82.16,-159.82
21221,53.08631,-1.301467,206.44,28.75,4,328.84,24 / 24,2122139,2019-11-08 10:32:39:750,-2.093,-0.7147,10.0008,-0.0269,0.0081,9.8066,-0.0409,0.2014,-0.0686,-3.31,-54.19,22.31,16.55,-82.15,-161.27
