,GPS LATITUDE (degrees), GPS LONGITUDE (degrees), GPS ALTITUDE (m), GPS SPEED (Kmh), GPS ACCURACY (m), GPS ORIENTATION (Â°),GPS SATELLITES IN RANGE, TIME SINCE START (ms), DATE (YYYY-MO-DD HH-MI-SS_SSS), ACCELEROMETER X (m/s²) , ACCELEROMETER Y (m/s²), ACCELEROMETER Z (m/s²), GRAVITY X (m/s²), GRAVITY Y (m/s²), GRAVITY Z (m/s²), GYROSCOPE Yaw (rad/s), GYROSCOPE Pitch (rad/s), GYROSCOPE Roll (rad/s), MAGNETIC FIELD X (Î¼T), MAGNETIC FIELD Y (Î¼T), MAGNETIC FIELD Z (Î¼T), ORIENTATION (Yaw) (Â°), ORIENTATION (Pitch) (Â°), ORIENTATION (Roll ) (Â°)
11100,53.109375,-1.88178,344.0,12.34,3,356.02,22 / 23,1109393,2019-11-06 13:45:50:186,-0.2989,-5.201,10.1955,-0.015,-0.0443,9.8065,-0.0321,0.3995,-0.2766,-7.5,-35.62,-1.12,247.42,-85.65,-173.56
11101,53.109375,-1.88178,344.0,12.34,3,356.02,22 / 23,1109493,2019-11-06 13:45:50:286,-0.433,3.1811,8.7697,-0.0499,-0.0268,9.8065,-0.0242,0.5537,-0.2259,-15.31,-38.81,19.88,322.86,-85.83,-176.27
11102,53.109375,-1.88178,344.0,12.34,3,356.02,22 / 23,1109593,2019-11-06 13:45:50:386,2.7642,-3.9219,10.6357,0.0047,-0.0363,9.8065,-0.0524,0.2156,0.0296,-22.37,-39.5,-3.87,255.12,-85.95,-177.76
11103,53.109375,-1.88178,344.0,12.34,3,356.02,22 / 23,1109693,2019-11-06 13:45:50:486,-2.0967,-1.5309,9.5165,0.0675,-0.016,9.8063,-0.104,0.5998,-0.3641,-11.0,-38.37,-9.25,229.92,-85.94,-172.53
11104,53.109375,-1.88178,344.0,12.34,3,356.02,22 / 23,1109793,2019-11-06 13:45:50:586,3.7602,-2.6453,11.4174,0.0009,0.0503,9.8065,0.0404,-0.1965,0.1246,-10.0,-37.81,-8.25,220.83,-85.61,177.95
11105,53.109375,-1.88178,344.0,12.34,3,356.02,22 / 23,1109893,2019-11-06 13:45:50:686,-3.2646,1.4368,9.426,0.0548,0.0238,9.8064,-0.1081,0.4785,-0.2948,-10.06,-37.94,-8.62,217.59,-85.41,177.43
11106,53.109375,-1.88178,344.0,12.34,3,356.02,22 / 23,1109993,2019-11-06 13:45:50:786,-0.3734,1.4559,10.035,-0.0339,0.0372,9.8065,0.0035,-0.5284,0.2101,-12.0,-38.69,-8.87,215.23,-85.27,169.13
11107,53.109375,-1.88178,344.0,12.34,3,356.02,23 / 24,1110093,2019-11-06 13:45:50:886,-0.6206,3.2281,9.0715,0.0128,-0.0284,9.8065,-0.0152,0.1292,-0.1725,-22.69,-40.69,-2.81,244.73,-85.33,169.59
11108,53.109375,-1.88178,344.0,12.34,3,356.02,23 / 24,1110193,2019-11-06 13:45:50:986,-4.32,0.7059,8.5727,0.0205,0.0404,9.8065,-0.1016,-0.4091,0.1511,-14.19,-38.06,19.88,305.83,-85.57,166.51
11109,53.109375,-1.88178,344.0,12.34,3,356.02,23 / 24,1110293,2019-11-06 13:45:51:086,-2.1387,-1.5571,9.4329,-0.023,-0.0169,9.8066,-0.053,-0.376,0.165,-7.87,-36.31,-3.81,215.85,-85.82,162.25
11110,53.109375,-1.88178,344.0,12.34,3,356.02,23 / 24,1110393,2019-11-06 13:45:51:186,1.1432,-5.5575,9.375,-0.025,0.0332,9.8065,-0.0451,-0.3713,0.1101,-7.69,-37.31,-7.19,200.26,-85.75,156.52
11111,53.109375,-1.88178,344.0,12.34,3,356.02,23 / 24,1110494,2019-11-06 13:45:51:287,-0.2763,1.9787,9.9402,-0.0026,-0.0162,9.8066,-0.0218,0.1448,-0.1073,-8.25,-37.37,-8.12,196.24,-85.83,155.02
11112,53.109375,-1.88178,344.0,12.34,3,356.02,23 / 24,1110594,2019-11-06 13:45:51:387,-2.3343,-3.1935,11.2475,0.0028,0.0175,9.8066,0.0744,-0.4296,0.201,-8.75,-37.37,-8.19,198.02,-85.79,153.62
11113,53.109375,-1.88178,344.0,12.34,3,356.02,23 / 24,1110693,2019-11-06 13:45:51:486,-2.9688,-2.3282,9.0746,0.0022,0.0032,9.8066,0.0838,-0.0576,-0.0097,-7.87,-36.87,-6.87,197.57,-85.63,153.3
11114,53.109375,-1.88178,344.0,12.34,3,356.02,23 / 24,1110794,2019-11-06 13:45:51:587,3.0493,-1.8499,10.6207,0.0084,0.0332,9.8065,0.1249,-0.4625,0.113,-8.56,-36.06,-3.56,211.78,-85.45,154.46
11115,53.109375,-1.88178,344.0,12.34,3,356.02,23 / 24,1110893,2019-11-06 13:45:51:686,-3.2249,-4.74,7.4752,-0.0518,0.0642,9.8063,-0.041,0.1767,-0.2839,-10.0,-37.31,15.19,286.45,-85.27,149.55
11116,53.109375,-1.88178,344.0,12.34,3,356.02,23 / 24,1110993,2019-11-06 13:45:51:786,-1.904,-3.4499,9.6308,-0.0063,0.0654,9.8064,-0.0472,-0.2315,0.0257,-27.62,-40.87,2.63,230.18,-85.75,138.75
11117,53.109375,-1.88178,344.0,12.34,3,356.02,22 / 22,1111093,2019-11-06 13:45:51:886,-0.0636,-5.5915,10.5105,-0.0398,0.0704,9.8063,-0.0214,0.2727,-0.2106,-13.44,-37.75,-8.94,189.1,-85.47,135.49
11118,53.109375,-1.88178,344.0,12.34,3,356.02,22 / 22,1111193,2019-11-06 13:45:51:986,-1.5199,0.7807,9.1317,-0.0053,0.0317,9.8065,0.0625,0.0059,-0.0915,-11.19,-38.31,-8.87,183.66,-84.94,133.8
11119,53.109375,-1.88178,344.0,12.34,3,356.02,22 / 22,1111293,2019-11-06 13:45:52:086,-0.6596,-1.5362,10.0109,-0.0282,0.0143,9.8065,-0.0278,-0.4194,0.1128,-11.25,-38.19,-9.5,183.43,-84.74,133.54
11120,53.109375,-1.88178,344.0,12.34,3,356.02,22 / 22,1111393,2019-11-06 13:45:52:186,1.3027,-0.4271,9.5266,-0.0238,-0.0581,9.8064,-0.0557,0.0227,-0.0493,-11.75,-38.62,-9.62,181.78,-85.04,131.97
11121,53.109375,-1.88178,344.0,12.34,3,356.02,22 / 22,1111493,2019-11-06 13:45:52:286,1.1635,-1.0157,9.5281,0.0039,-0.0053,9.8066,0.0107,-0.0187,-0.024,-20.56,-39.94,-6.94,198.97,-85.48,130.01
11122,53.109375,-1.88178,344.0,12.34,3,356.02,22 / 22,1111593,2019-11-06 13:45:52:386,-2.7504,-3.8292,9.3932,-0.0432,-0.0119,9.8065,-0.0832,-0.2207,0.0404,-21.0,-38.94,20.5,254.42,-86.08,124.36
11123,53.109375,-1.88178,344.0,12.34,3,356.02,22 / 22,1111693,2019-11-06 13:45:52:486,-0.9541,0.3984,8.3809,-0.0241,-0.0096,9.8066,0.0165,-0.3191,0.0883,-10.06,-35.62,-0.25,205.54,-86.15,121.47
11124,53.109375,-1.88178,344.0,12.34,3,356.02,22 / 22,1111793,2019-11-06 13:45:52:586,1.9992,-3.3185,9.8069,-0.0017,-0.0239,9.8066,0.1191,-0.2775,0.0313,-10.25,-36.87,-6.69,172.63,-85.87,116.03
11125,53.109375,-1.88178,344.0,12.34,3,356.02,22 / 22,1111893,2019-11-06 13:45:52:686,-0.2499,-2.0067,8.7933,0.0144,-0.0115,9.8065,-0.0332,-0.048,-0.1138,-10.69,-37.19,-8.25,173.26,-85.91,117.99
11126,53.109375,-1.88178,344.0,12.34,3,356.02,22 / 22,1111994,2019-11-06 13:45:52:787,0.6276,0.4262,10.8743,-0.0126,0.0146,9.8066,-0.0437,-0.5962,0.2381,-11.37,-37.0,-8.44,170.9,-85.86,115.16
11127,53.109375,-1.88178,344.0,12.34,3,356.02,21 / 22,1112093,2019-11-06 13:45:52:886,-0.9248,2.5971,9.7508,-0.0067,0.0187,9.8066,-0.083,-0.2889,0.2498,-11.19,-37.5,-7.69,169.79,-86.08,113.95
11128,53.109375,-1.88178,344.0,12.34,3,356.02,21 / 22,1112193,2019-11-06 13:45:52:986,1.8442,-1.6741,10.166,-0.0445,0.0833,9.8062,-0.0329,-0.8597,0.4325,-12.0,-36.75,-5.31,179.01,-86.02,111.44
11129,53.109375,-1.88178,344.0,12.34,3,356.02,21 / 22,1112293,2019-11-06 13:45:53:086,-2.0537,3.623,9.778,-0.0002,0.0046,9.8066,0.0088,-0.4019,0.0916,-11.75,-35.75,1.19,201.86,-86.19,111.29
11130,53.109375,-1.88178,344.0,12.34,3,356.02,21 / 22,1112393,2019-11-06 13:45:53:186,-2.8665,-5.1809,9.57,0.0626,0.0704,9.8061,0.2557,-0.8198,0.2936,-31.12,-42.25,12.94,223.3,-85.4,114.4
11131,53.109375,-1.88178,344.0,12.34,3,356.02,21 / 22,1112493,2019-11-06 13:45:53:286,3.5136,-4.1466,9.8521,-0.0019,0.0205,9.8065,0.0358,-0.5307,0.2126,-18.5,-38.87,-8.37,183.94,-85.22,118.53
11132,53.109375,-1.88178,344.0,12.34,3,356.02,21 / 22,1112593,2019-11-06 13:45:53:386,-2.1596,4.9478,8.6538,-0.0886,0.078,9.8058,0.0642,-1.0229,0.5539,-16.06,-38.19,-8.94,179.09,-85.61,118.31
11133,53.109375,-1.88178,344.0,12.34,3,356.02,21 / 22,1112693,2019-11-06 13:45:53:486,-0.9218,-0.8238,9.9076,-0.02,0.0234,9.8065,-0.0689,-0.7555,0.2889,-15.44,-38.12,-9.75,170.23,-85.5,112.34
11134,53.109375,-1.88178,344.0,12.34,3,356.02,21 / 22,1112794,2019-11-06 13:45:53:587,0.5534,2.4912,8.7788,-0.0654,0.1103,9.8057,0.0174,-1.0729,0.575,-16.12,-37.81,-8.31,171.65,-85.28,106.79
11135,53.109375,-1.88178,344.0,12.34,3,356.02,21 / 22,1112895,2019-11-06 13:45:53:688,4.1036,-6.7883,10.081,-0.0372,0.0396,9.8064,0.095,-0.8242,0.2128,-19.19,-38.5,-8.5,173.86,-85.6,105.84
11136,53.109375,-1.88178,344.0,12.34,3,356.02,21 / 22,1112993,2019-11-06 13:45:53:786,1.3317,4.1092,8.4608,0.0024,0.1048,9.806,0.0641,-0.5522,0.2764,-28.81,-40.37,19.19,219.89,-85.11,100.17
11137,53.109375,-1.88178,344.0,12.34,3,356.02,23 / 23,1113093,2019-11-06 13:45:53:886,-0.0852,-4.9041,9.4142,0.0351,0.0686,9.8062,0.0486,-0.8306,0.218,-13.94,-35.19,3.5,201.48,-85.18,99.72
11138,53.109375,-1.88178,344.0,12.34,3,356.02,23 / 23,1113194,2019-11-06 13:45:53:987,0.0282,6.1707,9.7364,0.0076,0.0252,9.8065,0.1089,-0.1589,-0.0225,-13.5,-35.56,-4.0,174.89,-85.21,100.89
11139,53.109375,-1.88178,344.0,12.34,3,356.02,23 / 23,1113293,2019-11-06 13:45:54:086,3.2239,-1.9006,9.4231,-0.0174,0.0994,9.806,-0.036,0.6722,-0.3538,-14.25,-36.94,-7.25,170.05,-85.0,104.61
11140,53.109375,-1.88178,344.0,12.34,3,356.02,23 / 23,1113393,2019-11-06 13:45:54:186,-2.8587,3.0041,9.1983,-0.0008,-0.0036,9.8066,-0.1052,0.0752,-0.1332,-14.81,-37.12,-7.5,170.49,-85.37,103.83
11141,53.109375,-1.88178,344.0,12.34,3,356.02,23 / 23,1113493,2019-11-06 13:45:54:286,2.9368,-6.5227,9.3806,-0.0532,0.0799,9.8061,0.0794,-0.7615,0.3117,-15.19,-37.19,-6.94,168.88,-85.18,101.86
11142,53.109375,-1.88178,344.0,12.34,3,356.02,23 / 23,1113593,2019-11-06 13:45:54:386,1.2784,-4.0955,10.7909,0.0216,-0.0258,9.8065,-0.0959,0.4397,-0.4414,-14.94,-36.25,-5.12,175.9,-85.41,103.61
11143,53.109375,-1.88178,344.0,12.34,3,356.02,23 / 23,1113694,2019-11-06 13:45:54:487,1.1597,-7.2231,9.8995,-0.0331,0.115,9.8059,-0.0117,0.8001,-0.5272,-15.06,-35.0,-0.31,188.51,-84.79,100.27
11144,53.109375,-1.88178,344.0,12.34,3,356.02,23 / 23,1113794,2019-11-06 13:45:54:587,0.4479,4.4236,10.0676,-0.0167,-0.0556,9.8065,-0.1918,0.7652,-0.2307,-25.0,-39.31,20.44,224.59,-85.12,100.01
11145,53.109375,-1.88178,344.0,12.34,3,356.02,23 / 23,1113893,2019-11-06 13:45:54:686,-0.2676,-0.8798,11.072,0.0135,-0.025,9.8066,-0.0796,0.3386,-0.1171,-23.81,-38.75,-6.94,175.74,-85.48,101.49
11146,53.109375,-1.88178,344.0,12.34,3,356.02,23 / 23,1113993,2019-11-06 13:45:54:786,-3.1559,5.9662,10.5761,0.0584,-0.0725,9.8061,-0.0036,0.8535,-0.3824,-18.69,-38.12,-8.56,173.43,-85.73,107.91
11147,53.109375,-1.88178,344.0,12.34,3,356.02,23 / 23,1114093,2019-11-06 13:45:54:886,2.4292,-6.385,9.8935,0.0307,0.0022,9.8066,-0.0615,0.1409,-0.0905,-18.0,-37.81,-8.0,176.83,-85.52,110.32
11148,53.109375,-1.88178,344.0,12.34,3,356.02,23 / 23,1114193,2019-11-06 13:45:54:986,1.9397,-0.1699,9.9918,0.0228,-0.0711,9.8063,-0.2264,0.6888,-0.3376,-18.19,-37.87,-8.25,176.41,-85.98,109.9
11149,53.109375,-1.88178,344.0,12.34,3,356.02,23 / 23,1114293,2019-11-06 13:45:55:086,-3.2761,2.0758,8.6372,-0.017,-0.0145,9.8066,-0.0935,0.2621,-0.0913,-21.62,-38.44,-7.94,174.27,-86.03,103.63
11150,53.109375,-1.88178,344.0,12.34,3,356.02,23 / 23,1114393,2019-11-06 13:45:55:186,1.5154,-0.127,9.215,0.0269,-0.0484,9.8065,-0.035,0.5502,-0.362,-33.19,-40.81,1.44,192.41,-85.87,101.74
11151,53.109375,-1.88178,344.0,12.34,3,356.02,23 / 23,1114493,2019-11-06 13:45:55:286,2.5844,2.1334,10.5205,-0.017,-0.0321,9.8065,0.0348,0.5297,-0.2527,-15.81,-34.87,8.44,215.85,-85.71,104.13
11152,53.109375,-1.88178,344.0,12.34,3,356.02,23 / 23,1114593,2019-11-06 13:45:55:386,-2.2543,0.7606,10.7594,-0.0306,-0.0113,9.8065,0.0404,0.0996,-0.0835,-15.81,-36.37,-2.12,183.86,-85.56,101.64
11153,53.109375,-1.88178,344.0,12.34,3,356.02,23 / 23,1114693,2019-11-06 13:45:55:486,-0.9759,1.1538,9.7935,0.0217,-0.0549,9.8064,0.0743,-0.3821,0.1612,-16.31,-36.44,-5.44,175.32,-85.56,101.91
11154,53.109375,-1.88178,344.0,12.34,3,356.02,23 / 23,1114793,2019-11-06 13:45:55:586,-0.6906,-4.0868,11.118,0.0483,0.0196,9.8065,0.1004,-0.0377,0.0526,-15.94,-36.94,-5.87,176.99,-85.56,107.05
11155,53.109375,-1.88178,344.0,12.34,3,356.02,23 / 23,1114893,2019-11-06 13:45:55:686,0.7174,-1.2908,8.4484,-0.0022,-0.0216,9.8066,-0.0572,-0.1406,0.1961,-16.87,-37.44,-6.06,179.74,-85.52,109.13
11156,53.109375,-1.88178,344.0,12.34,3,356.02,23 / 23,1114993,2019-11-06 13:45:55:786,-0.11,-1.0396,9.3428,-0.0254,-0.0499,9.8064,-0.0349,0.3144,-0.2398,-16.0,-37.0,-5.06,181.05,-85.39,108.58
11157,53.109375,-1.88178,344.0,12.34,3,356.02,24 / 24,1115093,2019-11-06 13:45:55:886,-0.1587,0.5113,11.0634,-0.0033,-0.0104,9.8065,0.0688,-0.3312,0.0779,-15.25,-35.81,-1.0,189.98,-85.4,105.67
11158,53.109375,-1.88178,344.0,12.34,3,356.02,24 / 24,1115193,2019-11-06 13:45:55:986,0.1004,2.1855,9.7916,0.0676,0.0283,9.8063,0.0936,-0.2938,0.1236,-18.44,-36.94,18.25,238.95,-84.8,110.34
11159,53.109375,-1.88178,344.0,12.34,3,356.02,24 / 24,1115293,2019-11-06 13:45:56:086,0.4713,3.4037,9.2621,0.0074,-0.0051,9.8066,-0.091,-0.3581,0.1407,-33.37,-40.75,1.75,204.28,-84.67,113.43
11160,53.109375,-1.88178,344.0,12.34,3,356.02,24 / 24,1115393,2019-11-06 13:45:56:186,-3.9228,-2.4882,10.6614,-0.01,0.0049,9.8066,0.1695,-0.6315,0.2504,-19.56,-38.44,-7.81,180.37,-84.64,112.23
11161,53.109375,-1.88178,344.0,12.34,3,356.02,24 / 24,1115494,2019-11-06 13:45:56:287,2.0376,-0.3227,9.3153,0.0126,0.0066,9.8066,-0.0393,0.0149,0.0776,-17.5,-38.31,-7.25,181.1,-84.9,113.68
11162,53.109375,-1.88178,344.0,12.34,3,356.02,24 / 24,1115593,2019-11-06 13:45:56:386,2.4868,0.4474,12.1136,0.0773,0.0445,9.8062,-0.0406,-0.0172,0.1861,-18.0,-37.87,-7.5,187.15,-85.09,119.58
11163,53.109375,-1.88178,344.0,12.34,3,356.02,24 / 24,1115694,2019-11-06 13:45:56:487,-0.8756,1.9585,11.2629,0.0742,-0.0178,9.8063,0.0326,0.2801,-0.1647,-20.31,-38.62,-7.06,197.79,-84.76,129.96
11164,53.109375,-1.88178,344.0,12.34,3,356.02,24 / 24,1115793,2019-11-06 13:45:56:586,-3.7208,-0.5321,7.8822,-0.0293,0.0399,9.8065,0.0556,-0.2446,0.1164,-29.62,-40.37,-3.31,209.09,-84.29,128.37
11165,53.109375,-1.88178,344.0,12.34,3,356.02,24 / 24,1115893,2019-11-06 13:45:56:686,0.116,1.2263,9.1303,-0.0122,-0.0014,9.8066,-0.0669,0.3212,-0.1724,-26.12,-38.56,23.25,254.69,-84.25,129.39
11166,53.109375,-1.88178,344.0,12.34,3,356.02,24 / 24,1115993,2019-11-06 13:45:56:786,-0.3043,-0.205,8.8679,0.0068,0.0118,9.8066,-0.002,-0.3025,0.1649,-16.81,-36.12,2.75,220.66,-84.27,128.33
11167,53.109375,-1.88178,344.0,12.34,3,356.02,23 / 23,1116093,2019-11-06 13:45:56:886,-1.0479,-1.5476,9.5496,-0.0074,-0.0002,9.8066,-0.0425,-0.0912,0.1423,-16.5,-36.94,-4.75,198.52,-84.38,129.73
11168,53.109375,-1.88178,344.0,12.34,3,356.02,23 / 23,1116193,2019-11-06 13:45:56:986,-0.237,0.0963,10.2046,0.0103,-0.0088,9.8066,0.1052,-0.3693,0.1099,-16.81,-36.94,-5.69,198.72,-84.66,131.6
11169,53.109375,-1.88178,344.0,12.34,3,356.02,23 / 23,1116293,2019-11-06 13:45:57:086,1.151,-2.384,9.8317,-0.0058,0.0131,9.8066,0.2045,-0.4536,0.2024,-17.06,-37.12,-5.31,203.08,-84.4,133.95
11170,53.109375,-1.88178,344.0,12.34,3,356.02,23 / 23,1116393,2019-11-06 13:45:57:186,-0.5979,3.0499,9.3955,-0.03,0.0432,9.8065,-0.069,-0.3283,0.142,-16.87,-36.81,-4.81,203.27,-84.12,134.4
11171,53.109375,-1.88178,344.0,12.34,3,356.02,23 / 23,1116493,2019-11-06 13:45:57:286,-0.8114,-6.9356,10.1873,-0.0705,-0.0119,9.8064,0.0755,-0.3998,0.2713,-16.56,-36.69,-1.87,209.93,-84.64,132.32
11172,53.109375,-1.88178,344.0,12.34,3,356.02,23 / 23,1116593,2019-11-06 13:45:57:386,-2.4656,-1.7369,9.3781,0.0167,0.0505,9.8064,-0.003,-0.4214,0.2337,-16.31,-35.06,6.31,234.22,-85.07,131.79
11173,53.109375,-1.88178,344.0,12.34,3,356.02,23 / 23,1116693,2019-11-06 13:45:57:486,-1.6574,-0.0731,10.6897,-0.0232,-0.0154,9.8066,0.2525,-0.0249,0.0339,-36.31,-41.25,5.88,227.44,-85.08,131.94
11174,53.109375,-1.88178,344.0,12.34,3,356.02,23 / 23,1116793,2019-11-06 13:45:57:586,-1.8762,-1.1156,9.828,0.0114,-0.0135,9.8066,0.1451,-0.0777,-0.0023,-22.12,-38.75,-5.69,208.46,-84.96,137.73
11175,53.109375,-1.88178,344.0,12.34,3,356.02,23 / 23,1116893,2019-11-06 13:45:57:686,-4.0732,0.6393,8.482,0.0414,-0.0246,9.8065,-0.2077,0.3817,-0.0689,-20.25,-38.62,-7.19,207.58,-85.03,141.02
11176,53.109375,-1.88178,344.0,12.34,3,356.02,23 / 23,1116993,2019-11-06 13:45:57:786,-0.689,-2.4482,11.326,0.0217,-0.0418,9.8065,-0.0568,-0.0836,0.0982,-19.94,-38.25,-6.94,212.01,-85.6,145.41
11177,53.109375,-1.88178,344.0,12.34,3,356.02,22 / 23,1117094,2019-11-06 13:45:57:887,-3.1014,-0.6355,8.4941,-0.0041,0.0031,9.8066,-0.112,0.1241,0.0298,-20.87,-38.37,-6.75,213.07,-85.86,145.32
11178,53.109375,-1.88178,344.0,12.34,3,356.02,22 / 23,1117193,2019-11-06 13:45:57:986,-2.994,-1.8921,9.7587,-0.0523,-0.0093,9.8064,-0.0568,0.0908,-0.1032,-24.56,-38.5,-6.69,210.49,-86.78,138.48
11179,53.109375,-1.88178,344.0,12.34,3,356.02,22 / 23,1117293,2019-11-06 13:45:58:086,-3.4205,-3.1317,9.6372,-0.0014,0.0588,9.8064,-0.0052,-0.3004,0.0745,-29.44,-39.0,23.19,251.68,-86.71,126.53
11180,53.109375,-1.88178,344.0,12.34,3,356.02,22 / 23,1117393,2019-11-06 13:45:58:186,-3.3847,1.4304,11.7368,0.0364,-0.0108,9.8065,0.1709,0.2959,-0.2968,-17.19,-34.81,2.81,223.4,-86.26,128.55
11181,53.109375,-1.88178,344.0,12.34,3,356.02,22 / 23,1117493,2019-11-06 13:45:58:286,0.082,-0.3502,9.0358,0.0616,0.0716,9.8061,-0.0353,-0.1897,0.2006,-16.94,-36.37,-2.5,208.45,-85.36,129.74
11182,53.109375,-1.88178,344.0,12.34,3,356.02,22 / 23,1117593,2019-11-06 13:45:58:386,-2.8579,-4.0025,8.612,0.0238,0.025,9.8066,-0.2289,0.0706,0.272,-16.69,-37.37,-5.19,202.42,-85.25,132.52
11183,53.109375,-1.88178,344.0,12.34,3,356.02,22 / 23,1117693,2019-11-06 13:45:58:486,-4.0263,5.7948,9.1244,-0.0003,-0.0891,9.8062,-0.1675,-0.8536,0.6435,-17.19,-37.62,-6.19,199.89,-86.03,132.13
11184,53.109375,-1.88178,344.0,12.34,3,356.02,22 / 23,1117793,2019-11-06 13:45:58:586,-3.2537,-6.803,7.2362,-0.0485,0.0277,9.8064,-0.0459,-0.0945,0.2109,-17.12,-36.87,-5.5,203.2,-86.23,132.65
11185,53.109375,-1.88178,344.0,12.34,3,356.02,22 / 23,1117893,2019-11-06 13:45:58:686,-3.1845,2.7512,10.6177,-0.0064,-0.1056,9.8061,0.0751,0.5503,-0.4756,-16.69,-36.25,-3.81,201.55,-86.47,127.43
11186,53.109375,-1.88178,344.0,12.34,3,356.02,22 / 23,1117993,2019-11-06 13:45:58:786,-0.9246,-7.0668,11.9928,0.0022,0.0062,9.8066,0.3407,-0.5398,0.2161,-16.81,-35.12,2.88,225.38,-86.07,130.98
11187,53.11035,-1.881254,341.01,12.55,2,25.95,23 / 23,1118093,2019-11-06 13:45:58:886,-2.4651,-0.5161,10.6425,0.0037,-0.0487,9.8065,0.0574,0.1514,-0.0423,-29.06,-39.25,20.94,259.27,-85.8,137.83
11188,53.11035,-1.881254,341.01,12.55,2,25.95,23 / 23,1118194,2019-11-06 13:45:58:987,1.3214,-7.7921,10.6901,-0.016,0.0401,9.8065,0.0903,-0.8468,0.3494,-24.25,-38.69,-6.31,211.64,-85.62,139.22
11189,53.11035,-1.881254,341.01,12.55,2,25.95,23 / 23,1118293,2019-11-06 13:45:59:086,-2.2084,0.8469,9.8579,-0.0437,0.0237,9.8065,-0.0071,-0.5477,0.325,-19.94,-38.56,-8.06,202.86,-85.86,137.52
11190,53.11035,-1.881254,341.01,12.55,2,25.95,23 / 23,1118393,2019-11-06 13:45:59:186,-13.0698,-5.0795,11.4962,-0.0472,0.0681,9.8062,-0.0895,-0.2908,0.0763,-18.5,-38.25,-8.06,201.9,-86.16,138.58
11191,53.11035,-1.881254,341.01,12.55,2,25.95,23 / 23,1118494,2019-11-06 13:45:59:287,-3.1197,-2.1691,9.4272,-0.0345,0.0594,9.8063,0.2417,-0.3801,0.1868,-19.37,-37.87,-7.37,200.48,-85.72,133.47
11192,53.11035,-1.881254,341.01,12.55,2,25.95,23 / 23,1118593,2019-11-06 13:45:59:386,-4.4618,0.762,9.0535,0.0069,-0.0394,9.8065,-0.0177,0.549,-0.1404,-21.87,-39.37,-7.75,207.18,-85.59,140.46
11193,53.11035,-1.881254,341.01,12.55,2,25.95,23 / 23,1118694,2019-11-06 13:45:59:487,0.0063,0.9511,10.4861,-0.0327,-0.0719,9.8063,-0.0017,0.1253,-0.0377,-35.0,-41.81,4.13,233.85,-85.9,141.21
11194,53.11035,-1.881254,341.01,12.55,2,25.95,23 / 23,1118794,2019-11-06 13:45:59:587,-6.5113,1.1291,10.0034,-0.0565,-0.0175,9.8065,-0.0425,0.2184,-0.1065,-17.25,-35.94,7.13,246.92,-86.57,140.69
11195,53.11035,-1.881254,341.01,12.55,2,25.95,23 / 23,1118893,2019-11-06 13:45:59:686,-3.5689,-1.8288,10.4372,0.012,-0.0348,9.8065,0.1051,-0.0279,0.0101,-16.75,-36.31,-2.25,220.39,-86.61,141.68
11196,53.11035,-1.881254,341.01,12.55,2,25.95,23 / 23,1118993,2019-11-06 13:45:59:786,-0.9083,-2.4334,10.4602,0.038,0.0179,9.8065,0.0429,0.0655,-0.0306,-16.75,-36.87,-4.12,214.29,-86.44,141.73
11197,53.11035,-1.881254,341.01,12.55,2,25.95,23 / 23,1119094,2019-11-06 13:45:59:887,-2.9795,1.4449,10.3202,-0.0073,0.0306,9.8066,0.0203,-0.276,0.1316,-17.12,-37.37,-6.25,211.07,-86.04,144.64
11198,53.11035,-1.881254,341.01,12.55,2,25.95,23 / 23,1119193,2019-11-06 13:45:59:986,-2.5678,-0.0073,9.3612,-0.0024,0.0344,9.8066,-0.1235,0.0427,0.0898,-16.31,-37.06,-5.75,208.72,-85.96,143.43
11199,53.11035,-1.881254,341.01,12.55,2,25.95,23 / 23,1119293,2019-11-06 13:46:00:086,-3.0433,-0.7499,9.734,-0.0133,-0.0448,9.8065,0.0612,0.1064,-0.0979,-16.12,-37.0,-4.87,211.64,-86.27,143.27
11200,53.11035,-1.881254,341.01,12.55,2,25.95,23 / 23,1119393,2019-11-06 13:46:00:186,-7.1634,-1.8424,10.2172,-0.009,-0.0167,9.8066,0.1775,-0.0587,-0.0033,-16.62,-35.87,-1.44,223.27,-86.34,141.9
11201,53.11035,-1.881254,341.01,12.55,2,25.95,23 / 23,1119493,2019-11-06 13:46:00:286,-1.4728,0.6154,9.3863,0.0408,0.0363,9.8064,-0.0207,-0.2152,0.1093,-24.56,-39.19,21.44,269.03,-86.03,143.76
11202,53.11035,-1.881254,341.01,12.55,2,25.95,23 / 23,1119594,2019-11-06 13:46:00:387,-3.6303,-0.5077,9.7701,0.0093,-0.0047,9.8066,0.0277,-0.0066,0.0937,-31.75,-40.25,-1.5,231.35,-86.15,146.84
11203,53.11035,-1.881254,341.01,12.55,2,25.95,23 / 23,1119693,2019-11-06 13:46:00:486,-3.5796,-3.1093,9.9208,0.0085,0.0114,9.8066,0.0035,-0.1128,-0.0656,-20.87,-37.94,-6.87,216.46,-86.13,148.79
11204,53.11035,-1.881254,341.01,12.55,2,25.95,23 / 23,1119793,2019-11-06 13:46:00:586,-4.2758,-2.6974,10.6316,-0.0133,0.0087,9.8066,0.1378,0.1208,-0.0661,-18.19,-37.62,-6.81,210.51,-85.92,145.78
11205,53.11035,-1.881254,341.01,12.55,2,25.95,23 / 23,1119893,2019-11-06 13:46:00:686,-2.2503,-0.3434,8.1082,-0.0032,0.0102,9.8066,-0.0276,0.0555,-0.0631,-18.25,-37.31,-7.81,207.97,-85.61,145.73
11206,53.11035,-1.881254,341.01,12.55,2,25.95,23 / 23,1119994,2019-11-06 13:46:00:787,-2.7316,-1.5054,9.85,-0.0326,-0.0449,9.8065,0.0745,-0.0259,-0.1185,-19.56,-37.69,-8.0,209.86,-85.59,145.46
11207,53.11035,-1.881254,341.01,12.55,2,25.95,22 / 23,1120093,2019-11-06 13:46:00:886,-3.6868,-2.4493,9.2635,-0.023,0.0147,9.8065,-0.0894,-0.1003,0.0973,-31.37,-40.56,-1.19,226.29,-85.9,141.99
11208,53.11035,-1.881254,341.01,12.55,2,25.95,22 / 23,1120194,2019-11-06 13:46:00:987,-2.2787,2.6825,9.2918,0.0434,0.0286,9.8065,-0.0767,-0.2236,0.1127,-21.94,-37.06,21.31,267.54,-85.8,138.99
11209,53.11035,-1.881254,341.01,12.55,2,25.95,22 / 23,1120293,2019-11-06 13:46:01:086,-2.0037,-1.5927,8.4838,0.0379,0.0476,9.8064,-0.1347,-0.2028,0.1662,-16.06,-35.75,0.0,222.88,-85.75,139.33
11210,53.11035,-1.881254,341.01,12.55,2,25.95,22 / 23,1120393,2019-11-06 13:46:01:186,-3.0006,-0.792,9.9372,0.0074,0.015,9.8066,-0.0948,0.0733,0.0556,-15.94,-37.0,-4.87,208.04,-85.81,139.68
11211,53.11035,-1.881254,341.01,12.55,2,25.95,22 / 23,1120494,2019-11-06 13:46:01:287,-2.4734,-1.5989,10.1476,-0.0116,-0.0195,9.8066,-0.0686,0.0238,0.0561,-16.06,-37.0,-5.94,206.77,-85.96,141.21
11212,53.11035,-1.881254,341.01,12.55,2,25.95,22 / 23,1120594,2019-11-06 13:46:01:387,-1.6976,-1.5933,9.7243,-0.0066,-0.0238,9.8066,0.0201,0.1306,-0.0513,-16.5,-37.44,-6.25,207.23,-85.94,141.75
11213,53.11035,-1.881254,341.01,12.55,2,25.95,22 / 23,1120693,2019-11-06 13:46:01:486,-1.3333,-2.4933,10.5915,0.0125,-0.0111,9.8066,0.0234,-0.0042,0.0123,-15.75,-36.5,-5.25,211.46,-86.1,143.14
11214,53.11035,-1.881254,341.01,12.55,2,25.95,22 / 23,1120793,2019-11-06 13:46:01:586,-2.5109,-2.1475,9.5718,0.0315,0.0037,9.8065,-0.0626,0.1676,-0.029,-15.12,-36.56,-2.62,215.38,-85.95,142.3
11215,53.11035,-1.881254,341.01,12.55,2,25.95,22 / 23,1120894,2019-11-06 13:46:01:687,-1.887,3.9376,8.9475,0.0078,-0.0334,9.8066,-0.0014,0.3561,-0.1833,-15.31,-35.06,6.38,246.64,-86.01,142.76
11216,53.11035,-1.881254,341.01,12.55,2,25.95,22 / 23,1120993,2019-11-06 13:46:01:786,-2.0055,-0.2818,9.7104,0.0006,-0.0152,9.8065,-0.0052,-0.0429,0.0602,-35.19,-41.31,5.06,239.18,-85.9,145.07
11217,53.11035,-1.881254,341.01,12.55,2,25.95,22 / 22,1121094,2019-11-06 13:46:01:887,-1.799,-1.1945,10.1585,0.0134,-0.0335,9.8066,0.0318,-0.347,0.1466,-21.19,-38.94,-6.81,213.76,-86.02,146.03
11218,53.11035,-1.881254,341.01,12.55,2,25.95,22 / 22,1121194,2019-11-06 13:46:01:987,-1.8656,0.4854,10.1983,-0.0171,-0.0039,9.8066,-0.1118,-0.0669,0.0712,-19.0,-38.87,-7.5,209.86,-86.09,143.78
11219,53.11035,-1.881254,341.01,12.55,2,25.95,22 / 22,1121293,2019-11-06 13:46:02:086,-3.4826,0.628,9.7324,0.0051,-0.0257,9.8065,-0.0654,-0.1957,0.1094,-17.62,-37.37,-7.25,206.28,-86.35,140.58
11220,53.11035,-1.881254,341.01,12.55,2,25.95,22 / 22,1121393,2019-11-06 13:46:02:186,-1.9659,-3.3583,9.4062,-0.0095,-0.0024,9.8066,0.0784,-0.2495,0.209,-19.12,-38.25,-7.69,201.63,-86.4,136.86
11221,53.11035,-1.881254,341.01,12.55,2,25.95,22 / 22,1121493,2019-11-06 13:46:02:286,-2.0159,-3.5189,9.754,0.0139,-0.0122,9.8066,-0.0803,0.0605,-0.0882,-23.06,-38.94,-6.56,210.15,-86.43,139.94
11222,53.11035,-1.881254,341.01,12.55,2,25.95,22 / 22,1121593,2019-11-06 13:46:02:386,-3.8831,-0.6575,9.6927,0.0153,0.0407,9.8065,0.0348,-0.3564,0.1246,-25.94,-38.69,22.81,260.59,-86.29,133.2
11223,53.11035,-1.881254,341.01,12.55,2,25.95,22 / 22,1121693,2019-11-06 13:46:02:486,-2.8726,-0.4594,9.6994,-0.0165,0.0209,9.8066,0.0209,-0.1533,0.0286,-16.31,-36.31,1.69,223.28,-86.35,131.7
11224,53.11035,-1.881254,341.01,12.55,2,25.95,22 / 22,1121793,2019-11-06 13:46:02:586,-3.2776,0.7565,9.8502,-0.0285,0.0157,9.8065,-0.0026,-0.3162,0.1027,-15.31,-37.37,-4.19,202.56,-86.39,130.75
11225,53.11035,-1.881254,341.01,12.55,2,25.95,22 / 22,1121893,2019-11-06 13:46:02:686,-2.0094,-2.1345,9.6632,-0.0095,0.0164,9.8066,0.0149,-0.3167,0.168,-16.44,-37.56,-5.81,194.94,-86.47,127.49
11226,53.11035,-1.881254,341.01,12.55,2,25.95,22 / 22,1121993,2019-11-06 13:46:02:786,-1.8884,0.731,9.0266,-0.0229,0.0195,9.8065,-0.0673,-0.1578,0.0745,-16.44,-37.44,-4.62,196.6,-86.54,126.11
11227,53.11035,-1.881254,341.01,12.55,2,25.95,22 / 22,1122094,2019-11-06 13:46:02:887,-0.5333,-1.7477,9.8223,-0.0185,0.0295,9.8066,0.0336,-0.3248,0.0735,-16.19,-37.87,-5.06,195.03,-86.58,124.37
11228,53.11035,-1.881254,341.01,12.55,2,25.95,22 / 22,1122193,2019-11-06 13:46:02:986,-1.8738,-0.7573,9.573,-0.0199,0.0247,9.8065,0.0036,-0.0495,-0.0348,-15.87,-37.06,-2.31,199.89,-86.54,119.68
11229,53.11035,-1.881254,341.01,12.55,2,25.95,22 / 22,1122293,2019-11-06 13:46:03:086,-2.4616,0.0578,9.5144,-0.006,0.0057,9.8065,-0.0041,-0.0259,-0.0468,-16.06,-35.19,4.5,220.3,-86.48,117.65
11230,53.11035,-1.881254,341.01,12.55,2,25.95,22 / 22,1122393,2019-11-06 13:46:03:186,-2.1797,0.2259,9.7134,0.0071,0.0035,9.8065,-0.0085,-0.1592,0.0616,-30.62,-40.56,21.88,238.75,-86.52,116.55
11231,53.11035,-1.881254,341.01,12.55,2,25.95,22 / 22,1122494,2019-11-06 13:46:03:287,-0.3676,-1.9648,10.0103,0.0163,-0.0131,9.8066,-0.0209,-0.0953,-0.0437,-22.87,-38.37,-5.5,195.18,-86.67,118.83
11232,53.11035,-1.881254,341.01,12.55,2,25.95,22 / 22,1122593,2019-11-06 13:46:03:386,0.4563,-0.7469,9.7567,-0.0112,0.008,9.8066,0.0258,0.0374,-0.0573,-19.94,-38.31,-6.06,188.88,-86.77,116.47
11233,53.11035,-1.881254,341.01,12.55,2,25.95,22 / 22,1122693,2019-11-06 13:46:03:486,0.0223,-0.9612,10.1131,-0.0077,0.006,9.8066,0.0579,-0.126,-0.0854,-19.94,-38.12,-6.19,187.86,-86.58,115.4
11234,53.11035,-1.881254,341.01,12.55,2,25.95,22 / 22,1122793,2019-11-06 13:46:03:586,0.3389,0.0438,9.8139,-0.021,0.0035,9.8066,0.0104,-0.1435,-0.0681,-19.75,-37.87,-6.81,183.01,-86.29,112.65
11235,53.11035,-1.881254,341.01,12.55,2,25.95,22 / 22,1122893,2019-11-06 13:46:03:686,-1.2447,-0.8405,9.3725,-0.0174,0.0078,9.8066,-0.0335,-0.1147,-0.0541,-23.69,-38.19,-6.44,184.67,-86.19,109.18
11236,53.11035,-1.881254,341.01,12.55,2,25.95,22 / 22,1122994,2019-11-06 13:46:03:787,-2.1477,-0.3019,10.3377,-0.0181,0.0059,9.8065,0.0039,-0.1116,-0.0308,-35.56,-41.69,12.44,211.65,-86.09,105.43
11237,53.11035,-1.881254,341.01,12.55,2,25.95,22 / 22,1123094,2019-11-06 13:46:03:887,-1.0588,0.4874,9.3457,0.0041,0.0085,9.8065,-0.0031,-0.17,0.0359,-17.37,-35.5,5.88,207.37,-86.07,101.38
11238,53.11035,-1.881254,341.01,12.55,2,25.95,22 / 22,1123193,2019-11-06 13:46:03:986,-1.5881,-0.4993,9.7098,-0.0179,-0.0066,9.8066,-0.0537,-0.1517,0.0208,-18.19,-36.44,-1.31,184.33,-86.19,98.07
11239,53.11035,-1.881254,341.01,12.55,2,25.95,22 / 22,1123293,2019-11-06 13:46:04:086,-1.2821,-1.2212,10.1478,-0.0168,-0.0156,9.8066,0.0195,-0.1025,0.0244,-18.12,-37.56,-3.87,173.67,-86.31,95.37
11240,53.11035,-1.881254,341.01,12.55,2,25.95,22 / 22,1123393,2019-11-06 13:46:04:186,-0.85,-1.4101,10.1853,-0.0007,-0.0053,9.8066,0.0047,-0.1753,0.008,-18.5,-36.94,-4.56,169.78,-86.43,94.07
11241,53.11035,-1.881254,341.01,12.55,2,25.95,22 / 22,1123493,2019-11-06 13:46:04:286,-0.3514,-0.2466,9.6445,-0.0189,0.0004,9.8066,-0.0799,0.0632,-0.1111,-18.12,-37.44,-3.69,170.28,-86.44,91.62
11242,53.11035,-1.881254,341.01,12.55,2,25.95,22 / 22,1123593,2019-11-06 13:46:04:386,-1.3688,-0.2849,9.4035,-0.0106,0.0322,9.8066,0.0291,-0.055,0.002,-17.69,-36.31,-2.94,170.48,-86.26,88.75
11243,53.11035,-1.881254,341.01,12.55,2,25.95,22 / 22,1123695,2019-11-06 13:46:04:488,-0.9457,0.4425,9.5754,-0.0114,-0.0211,9.8066,0.0687,-0.0439,-0.0834,-18.12,-35.69,4.06,189.61,-86.09,88.34
11244,53.11035,-1.881254,341.01,12.55,2,25.95,22 / 22,1123793,2019-11-06 13:46:04:586,-1.3217,-0.6103,9.8935,-0.0051,-0.0071,9.8066,-0.0103,-0.0528,-0.0621,-30.0,-40.19,24.38,216.04,-86.25,89.62
11245,53.11035,-1.881254,341.01,12.55,2,25.95,22 / 22,1123893,2019-11-06 13:46:04:686,-0.8517,-0.8632,9.819,0.0025,-0.0115,9.8066,0.0245,-0.199,0.0515,-30.81,-39.56,-1.56,175.63,-86.23,88.96
11246,53.11035,-1.881254,341.01,12.55,2,25.95,22 / 22,1123993,2019-11-06 13:46:04:786,-0.3661,-0.7275,9.8092,0.011,-0.0074,9.8066,-0.0042,0.0027,-0.0722,-22.19,-38.56,-5.06,168.18,-86.19,89.67
11247,53.11035,-1.881254,341.01,12.55,2,25.95,22 / 23,1124093,2019-11-06 13:46:04:886,-0.8483,0.4446,9.657,0.0046,-0.0044,9.8066,0.0255,-0.1071,0.0001,-20.81,-38.37,-4.19,169.95,-86.07,89.54
11248,53.11035,-1.881254,341.01,12.55,2,25.95,22 / 23,1124193,2019-11-06 13:46:04:986,-0.2012,-0.3165,9.5788,0.005,-0.0012,9.8066,-0.0192,-0.0176,-0.0182,-21.62,-38.62,-4.75,169.1,-86.0,90.62
11249,53.11035,-1.881254,341.01,12.55,2,25.95,22 / 23,1124293,2019-11-06 13:46:05:086,-0.6665,0.4486,10.0857,-0.0095,-0.0014,9.8066,0.0204,0.0064,-0.0137,-24.5,-38.87,-3.94,171.77,-86.0,90.33
11250,53.11035,-1.881254,341.01,12.55,2,25.95,22 / 23,1124393,2019-11-06 13:46:05:186,-0.261,-0.7044,9.9114,0.0014,0.0058,9.8066,-0.0253,-0.0053,-0.0218,-36.81,-41.44,9.13,192.05,-85.94,89.26
11251,53.11035,-1.881254,341.01,12.55,2,25.95,22 / 23,1124493,2019-11-06 13:46:05:286,-0.389,0.6911,9.5484,-0.008,0.0017,9.8066,0.0156,-0.1328,0.0062,-20.87,-35.94,21.19,219.96,-85.88,88.1
11252,53.11035,-1.881254,341.01,12.55,2,25.95,22 / 23,1124594,2019-11-06 13:46:05:387,-0.0075,-0.779,10.2092,-0.0134,0.0143,9.8066,0.0333,0.014,-0.0324,-19.06,-36.81,2.69,184.92,-85.75,86.64
11253,53.11035,-1.881254,341.01,12.55,2,25.95,22 / 23,1124694,2019-11-06 13:46:05:487,-0.7326,0.7865,9.6093,0.0103,0.009,9.8066,0.0057,0.0284,-0.0561,-18.94,-38.25,0.63,179.88,-85.55,86.84
11254,53.11035,-1.881254,341.01,12.55,2,25.95,22 / 23,1124794,2019-11-06 13:46:05:587,0.0823,1.3248,10.1824,0.0055,0.0202,9.8066,-0.0323,0.026,0.077,-19.44,-38.25,0.0,176.62,-85.48,86.09
11255,53.11035,-1.881254,341.01,12.55,2,25.95,22 / 23,1124893,2019-11-06 13:46:05:686,-0.2985,1.614,10.0768,-0.0161,-0.0086,9.8066,-0.0223,0.0818,0.0763,-19.0,-38.62,-0.56,173.02,-85.42,84.92
11256,53.11035,-1.881254,341.01,12.55,2,25.95,22 / 23,1124993,2019-11-06 13:46:05:786,-0.8648,0.7148,9.6774,-0.0118,0.0013,9.8066,0.0859,0.0517,0.0305,-18.87,-38.06,-0.69,173.28,-85.45,85.25
11257,53.11035,-1.881254,341.01,12.55,2,25.95,22 / 22,1125094,2019-11-06 13:46:05:887,-0.3319,-0.0407,9.7815,0.0065,-0.0006,9.8066,0.0008,0.1662,0.0484,-17.44,-36.56,1.69,182.81,-85.53,86.56
11258,53.11035,-1.881254,341.01,12.55,2,25.95,22 / 22,1125194,2019-11-06 13:46:05:987,-0.9827,-0.7814,9.6912,0.0055,0.003,9.8066,-0.0185,0.0717,0.0963,-25.37,-39.12,23.81,217.9,-85.65,87.0
11259,53.11035,-1.881254,341.01,12.55,2,25.95,22 / 22,1125293,2019-11-06 13:46:06:086,-0.0477,0.3589,10.1143,-0.002,0.0034,9.8065,-0.0103,0.1163,0.0736,-32.37,-40.06,0.5,178.16,-85.78,86.21
11260,53.11035,-1.881254,341.01,12.55,2,25.95,22 / 22,1125393,2019-11-06 13:46:06:186,-1.1759,0.8092,9.3552,0.0008,0.0187,9.8066,0.0116,0.0826,0.1156,-21.94,-39.0,-4.5,167.26,-85.92,86.02
11261,53.11035,-1.881254,341.01,12.55,2,25.95,22 / 22,1125493,2019-11-06 13:46:06:286,-0.3349,0.1875,9.5928,-0.0081,-0.0037,9.8066,0.0125,0.2373,0.0078,-19.56,-37.81,-5.12,164.62,-85.95,86.71
11262,53.11035,-1.881254,341.01,12.55,2,25.95,22 / 22,1125594,2019-11-06 13:46:06:387,0.0728,-0.2855,10.2893,0.0043,-0.0047,9.8066,0.0092,0.1437,-0.0102,-18.69,-38.31,-5.44,164.39,-85.97,87.07
11263,53.11035,-1.881254,341.01,12.55,2,25.95,22 / 22,1125693,2019-11-06 13:46:06:486,0.0685,-0.8466,9.6599,-0.0013,0.0114,9.8065,-0.0025,0.289,0.0037,-20.56,-38.37,-6.12,162.78,-85.97,86.69
11264,53.11035,-1.881254,341.01,12.55,2,25.95,22 / 22,1125793,2019-11-06 13:46:06:586,-0.0147,-0.63,9.6128,0.0096,0.0105,9.8066,-0.0391,0.1463,0.0189,-27.44,-40.0,-4.25,169.02,-86.04,86.37
11265,53.11035,-1.881254,341.01,12.55,2,25.95,22 / 22,1125893,2019-11-06 13:46:06:686,-0.5555,-0.0094,9.761,-0.011,0.0156,9.8065,0.0681,0.1063,0.0659,-18.0,-36.5,18.19,218.05,-86.01,86.46
11266,53.11035,-1.881254,341.01,12.55,2,25.95,22 / 22,1125993,2019-11-06 13:46:06:786,0.27,0.87,9.9606,-0.0051,0.0015,9.8066,-0.0197,0.1366,0.0267,-15.0,-36.06,-0.5,176.78,-86.11,86.27
11267,53.11035,-1.881254,341.01,12.55,2,25.95,22 / 22,1126093,2019-11-06 13:46:06:886,-0.2426,-0.0346,9.8687,-0.0042,0.0135,9.8066,-0.0342,0.3081,-0.0213,-15.0,-36.94,-4.37,163.59,-86.18,85.99
11268,53.11035,-1.881254,341.01,12.55,2,25.95,22 / 22,1126193,2019-11-06 13:46:06:986,-0.4558,-0.2805,9.7004,-0.0019,0.0091,9.8066,-0.0072,0.1625,0.0036,-15.19,-37.62,-6.06,157.66,-86.25,86.15
11269,53.11035,-1.881254,341.01,12.55,2,25.95,22 / 22,1126293,2019-11-06 13:46:07:086,0.4689,-1.0206,10.1972,-0.0117,0.0078,9.8066,0.0738,0.0909,0.0241,-14.31,-37.87,-6.19,156.82,-86.2,86.32
11270,53.11035,-1.881254,341.01,12.55,2,25.95,22 / 22,1126394,2019-11-06 13:46:07:187,0.3227,-0.7275,10.0741,-0.0097,0.0016,9.8066,0.0368,0.1098,-0.0184,-14.31,-37.69,-5.94,157.95,-86.21,87.65
11271,53.11035,-1.881254,341.01,12.55,2,25.95,22 / 22,1126493,2019-11-06 13:46:07:286,0.0223,-0.7934,9.742,-0.0025,0.024,9.8066,-0.0096,0.2291,-0.0631,-13.37,-36.44,-1.94,170.41,-86.09,87.39
11272,53.11035,-1.881254,341.01,12.55,2,25.95,22 / 22,1126593,2019-11-06 13:46:07:386,-0.2461,0.5431,9.7582,0.0065,0.0124,9.8066,-0.005,0.112,0.0269,-14.0,-36.31,13.25,216.16,-86.08,87.58
11273,53.11035,-1.881254,341.01,12.55,2,25.95,22 / 22,1126693,2019-11-06 13:46:07:486,-0.3257,-0.7802,9.9439,0.0016,0.0084,9.8066,-0.0211,0.1743,-0.0462,-34.75,-41.5,8.63,190.83,-86.1,87.22
11274,53.11035,-1.881254,341.01,12.55,2,25.95,22 / 22,1126793,2019-11-06 13:46:07:586,-0.6329,-0.0943,9.6611,-0.0034,-0.0027,9.8066,-0.0166,0.1265,-0.0276,-17.56,-38.62,-7.44,157.66,-86.05,85.92
11275,53.11035,-1.881254,341.01,12.55,2,25.95,22 / 22,1126893,2019-11-06 13:46:07:686,-0.0319,-0.8712,9.8926,-0.0124,0.01,9.8066,0.027,0.0239,0.0089,-15.75,-37.87,-7.87,152.6,-85.98,85.29
11276,53.11035,-1.881254,341.01,12.55,2,25.95,22 / 22,1126993,2019-11-06 13:46:07:786,0.086,-1.2981,9.8346,-0.0028,-0.0118,9.8066,0.009,0.187,-0.0853,-15.81,-38.12,-7.75,152.87,-85.94,85.56
11277,53.11072,-1.880945,339.39,1.01,2,15.36,23 / 23,1127093,2019-11-06 13:46:07:886,-0.4919,-0.4741,9.4677,-0.0084,-0.0075,9.8066,0.0068,-0.021,0.0478,-16.5,-38.25,-7.44,154.49,-85.93,84.36
11278,53.11072,-1.880945,339.39,1.01,2,15.36,23 / 23,1127193,2019-11-06 13:46:07:986,-0.0526,-0.8514,9.9914,-0.0078,-0.0099,9.8066,0.0176,0.0399,-0.0022,-23.06,-40.37,-5.81,161.05,-85.98,83.52
11279,53.11072,-1.880945,339.39,1.01,2,15.36,23 / 23,1127294,2019-11-06 13:46:08:087,-0.5779,0.4313,9.729,-0.0056,0.0081,9.8066,0.0163,-0.016,0.0236,-26.25,-39.56,21.81,210.84,-85.96,82.97
11280,53.11072,-1.880945,339.39,1.01,2,15.36,23 / 23,1127393,2019-11-06 13:46:08:186,-0.4538,-0.5576,9.8387,0.0031,0.0055,9.8066,0.0013,0.0696,-0.0181,-12.44,-35.75,-0.94,168.95,-85.98,81.43
11281,53.11072,-1.880945,339.39,1.01,2,15.36,23 / 23,1127493,2019-11-06 13:46:08:286,-0.6395,-0.1692,9.7902,-0.0058,0.0097,9.8066,-0.0178,-0.0183,0.0232,-13.06,-36.69,-5.25,153.56,-85.96,79.87
11282,53.11072,-1.880945,339.39,1.01,2,15.36,23 / 23,1127593,2019-11-06 13:46:08:386,-0.1739,-1.2494,9.8772,-0.0099,0.0045,9.8066,0.0059,-0.0433,0.0536,-12.56,-37.19,-6.69,146.08,-85.95,78.77
11283,53.11072,-1.880945,339.39,1.01,2,15.36,23 / 23,1127694,2019-11-06 13:46:08:487,-0.0881,-0.0436,9.9439,-0.006,0.0087,9.8066,0.022,0.0096,0.0075,-12.81,-37.94,-6.5,148.9,-85.94,78.16
11284,53.11072,-1.880945,339.39,1.01,2,15.36,23 / 23,1127793,2019-11-06 13:46:08:586,0.1314,-0.9228,9.7291,-0.0028,0.0074,9.8066,0.0003,-0.0304,0.0258,-12.44,-37.75,-6.31,147.66,-85.93,78.12
11285,53.11072,-1.880945,339.39,1.01,2,15.36,23 / 23,1127893,2019-11-06 13:46:08:686,0.1462,-0.3181,9.773,-0.0035,-0.0014,9.8066,0.0063,0.0258,-0.006,-12.19,-37.25,-4.12,154.51,-85.95,77.9
11286,53.11072,-1.880945,339.39,1.01,2,15.36,23 / 23,1127993,2019-11-06 13:46:08:786,-0.4892,-0.7071,9.8823,-0.0023,0.0039,9.8065,-0.0014,-0.0145,0.0184,-10.94,-35.81,9.88,205.34,-85.96,77.2
11287,53.11072,-1.880945,339.39,1.01,2,15.36,22 / 22,1128094,2019-11-06 13:46:08:887,-0.3819,-0.2157,9.9407,-0.0019,0.0017,9.8066,-0.0002,0.0439,-0.0153,-32.5,-43.44,12.44,186.47,-85.98,76.47
11288,53.11072,-1.880945,339.39,1.01,2,15.36,22 / 22,1128194,2019-11-06 13:46:08:987,-0.2892,-0.4787,9.7663,-0.0021,0.002,9.8066,0.0022,0.0023,0.0049,-18.31,-39.25,-8.19,146.68,-85.96,76.31
11289,53.11072,-1.880945,339.39,1.01,2,15.36,22 / 22,1128293,2019-11-06 13:46:09:086,-0.1109,-0.371,9.8891,-0.0019,-0.0042,9.8066,0.0053,0.0319,-0.0168,-14.5,-38.37,-7.69,141.58,-85.97,75.49
11290,53.11072,-1.880945,339.39,1.01,2,15.36,22 / 22,1128393,2019-11-06 13:46:09:186,-0.313,-0.6943,9.9039,-0.0032,-0.0017,9.8066,-0.0075,0.0285,0.0018,-14.5,-38.31,-7.81,141.16,-85.96,74.98
11291,53.11072,-1.880945,339.39,1.01,2,15.36,22 / 22,1128493,2019-11-06 13:46:09:286,0.0248,-0.7691,9.8354,-0.0011,-0.0021,9.8066,-0.0014,0.0097,-0.0043,-15.0,-38.44,-9.06,138.9,-85.96,74.16
11292,53.11072,-1.880945,339.39,1.01,2,15.36,22 / 22,1128593,2019-11-06 13:46:09:386,-0.1839,-0.649,9.85,-0.0043,-0.0052,9.8066,-0.0056,0.0064,-0.0053,-21.25,-40.31,-6.81,148.39,-85.96,73.06
11293,53.11072,-1.880945,339.39,1.01,2,15.36,22 / 22,1128693,2019-11-06 13:46:09:486,-0.3574,-0.3504,9.8952,-0.0035,-0.0007,9.8066,0.0033,0.0297,0.0052,-26.5,-41.25,20.56,199.49,-85.95,72.17
11294,53.11072,-1.880945,339.39,1.01,2,15.36,22 / 22,1128793,2019-11-06 13:46:09:586,0.456,-0.5468,9.8377,0.0011,-0.002,9.8066,0.0117,-0.0101,-0.0055,-12.06,-35.37,2.88,176.86,-85.96,72.21
11295,53.11072,-1.880945,339.39,1.01,2,15.36,22 / 22,1128893,2019-11-06 13:46:09:686,0.6571,-0.3744,9.7665,0.0054,-0.0003,9.8066,0.0123,0.005,0.01,-12.25,-37.87,-5.0,146.73,-85.98,72.96
11296,53.11072,-1.880945,339.39,1.01,2,15.36,22 / 22,1128993,2019-11-06 13:46:09:786,0.3314,-0.371,9.7653,0.0016,-0.0037,9.8066,-0.0023,0.0171,0.002,-12.19,-37.44,-5.87,142.98,-86.02,73.0
11297,53.11072,-1.880945,339.39,1.01,2,15.36,22 / 22,1129093,2019-11-06 13:46:09:886,0.4188,-0.2555,9.9122,-0.0029,-0.0015,9.8066,-0.001,0.0024,-0.0204,-12.37,-37.31,-6.56,139.07,-86.03,72.45
11298,53.11072,-1.880945,339.39,1.01,2,15.36,22 / 22,1129193,2019-11-06 13:46:09:986,0.5548,-0.2498,9.8886,-0.0031,0.0005,9.8066,0.0017,0.0039,0.0123,-11.56,-37.37,-6.56,138.85,-86.03,72.19
11299,53.11072,-1.880945,339.39,1.01,2,15.36,22 / 22,1129293,2019-11-06 13:46:10:086,0.4549,-0.2669,9.8892,-0.0031,-0.0024,9.8066,0.0106,0.0235,-0.0163,-11.81,-36.94,-5.19,145.44,-86.06,71.75
11300,53.11072,-1.880945,339.39,1.01,2,15.36,22 / 22,1129393,2019-11-06 13:46:10:186,0.1047,-0.2123,9.7739,0.0009,-0.0004,9.8066,-0.0028,0.002,0.0013,-12.12,-35.62,1.63,172.63,-86.05,71.69
11301,53.11072,-1.880945,339.39,1.01,2,15.36,22 / 22,1129494,2019-11-06 13:46:10:287,-0.0322,-0.6291,9.9275,-0.002,-0.0011,9.8066,-0.0044,0.0283,0.0015,-30.56,-42.06,16.0,188.23,-86.11,71.58
11302,53.11072,-1.880945,339.39,1.01,2,15.36,22 / 22,1129593,2019-11-06 13:46:10:386,0.3034,-0.2331,9.9239,-0.0008,-0.0059,9.8066,0.0021,-0.0219,-0.0075,-19.56,-39.56,-6.94,146.0,-86.12,71.25
11303,53.11072,-1.880945,339.39,1.01,2,15.36,22 / 22,1129693,2019-11-06 13:46:10:486,0.4919,-0.0658,9.9542,0.0003,-0.0031,9.8066,0.0103,0.0187,-0.0085,-15.12,-38.56,-8.0,139.24,-86.13,71.57
11304,53.11072,-1.880945,339.39,1.01,2,15.36,22 / 22,1129793,2019-11-06 13:46:10:586,0.2494,-0.1122,9.7834,0.0034,-0.0049,9.8066,-0.012,0.0364,-0.0223,-13.75,-38.94,-8.44,138.07,-86.17,71.67
11305,53.11072,-1.880945,339.39,1.01,2,15.36,22 / 22,1129893,2019-11-06 13:46:10:686,0.2606,-0.4812,9.9445,0.0048,0.0002,9.8066,-0.0089,0.0283,0.0113,-15.19,-39.0,-8.81,136.69,-86.18,71.87
11306,53.11072,-1.880945,339.39,1.01,2,15.36,22 / 22,1129993,2019-11-06 13:46:10:786,0.2076,-0.316,9.9174,0.0,-0.0058,9.8066,-0.0417,0.0338,-0.0213,-17.31,-39.0,-8.0,141.0,-86.21,71.31
11307,53.11072,-1.880945,339.39,1.01,2,15.36,22 / 22,1130094,2019-11-06 13:46:10:887,-0.0089,-0.7913,9.7213,0.0014,-0.0024,9.8066,0.0069,-0.0233,-0.0058,-29.31,-41.0,18.38,190.72,-86.18,69.72
11308,53.11072,-1.880945,339.39,1.01,2,15.36,22 / 22,1130194,2019-11-06 13:46:10:987,-0.1017,-0.5601,9.8024,0.0093,-0.0003,9.8066,-0.0027,0.0417,0.0038,-12.56,-36.12,5.06,182.05,-86.15,71.36
11309,53.11072,-1.880945,339.39,1.01,2,15.36,22 / 22,1130293,2019-11-06 13:46:11:086,0.328,-0.1637,9.8047,0.0049,-0.0077,9.8066,-0.0017,0.043,-0.0234,-12.12,-37.0,-3.69,148.57,-86.14,71.17
11310,53.11072,-1.880945,339.39,1.01,2,15.36,22 / 22,1130393,2019-11-06 13:46:11:186,0.426,-0.3765,9.8262,0.0024,0.0018,9.8066,-0.0036,0.0276,-0.0014,-12.62,-37.81,-6.69,139.45,-86.22,71.48
11311,53.11072,-1.880945,339.39,1.01,2,15.36,22 / 22,1130493,2019-11-06 13:46:11:286,0.4454,-0.1262,9.8706,0.0055,-0.0076,9.8066,0.0031,0.0055,-0.028,-12.5,-38.0,-6.75,138.19,-86.28,71.71
11312,53.11072,-1.880945,339.39,1.01,2,15.36,22 / 22,1130593,2019-11-06 13:46:11:386,0.3283,-0.254,9.7148,0.0009,0.0007,9.8066,0.0058,-0.036,0.0124,-12.31,-37.69,-6.87,138.35,-86.28,71.88
11313,53.11072,-1.880945,339.39,1.01,2,15.36,22 / 22,1130693,2019-11-06 13:46:11:486,0.4972,-0.3468,9.8033,0.0029,0.0016,9.8066,0.0013,-0.0258,-0.0102,-11.62,-37.75,-3.94,149.61,-86.32,72.5
11314,53.11072,-1.880945,339.39,1.01,2,15.36,22 / 22,1130793,2019-11-06 13:46:11:586,0.2399,-0.5473,9.7373,0.0029,-0.0002,9.8066,0.0002,0.0089,0.0083,-11.94,-36.06,0.19,165.6,-86.32,72.88
11315,53.11072,-1.880945,339.39,1.01,2,15.36,22 / 22,1130894,2019-11-06 13:46:11:687,-0.0742,-0.5712,9.9662,0.0023,-0.0003,9.8066,0.0069,-0.0076,0.0037,-20.62,-39.81,21.25,206.23,-86.35,73.36
11316,53.11072,-1.880945,339.39,1.01,2,15.36,22 / 22,1130993,2019-11-06 13:46:11:786,0.4012,-0.4347,9.8632,0.0027,0.0005,9.8066,-0.0035,0.025,0.0117,-20.12,-39.37,-6.75,148.19,-86.35,73.99
11317,53.11072,-1.880945,339.39,1.01,2,15.36,22 / 22,1131093,2019-11-06 13:46:11:886,0.5122,-0.5202,9.8458,0.0012,0.002,9.8066,0.0101,-0.0263,0.0195,-15.25,-39.31,-8.0,141.46,-86.37,74.39
11318,53.11072,-1.880945,339.39,1.01,2,15.36,22 / 22,1131193,2019-11-06 13:46:11:986,0.3894,-0.0738,9.8779,0.0046,-0.0032,9.8066,-0.0013,0.0195,-0.0207,-14.25,-39.0,-7.94,140.49,-86.4,74.74
11319,53.11072,-1.880945,339.39,1.01,2,15.36,22 / 22,1131293,2019-11-06 13:46:12:086,0.0829,-0.4254,9.7814,0.0035,0.0032,9.8066,0.0119,0.0381,-0.0222,-14.87,-38.5,-7.75,142.55,-86.38,75.76
11320,53.11072,-1.880945,339.39,1.01,2,15.36,22 / 22,1131394,2019-11-06 13:46:12:187,0.3714,-0.6629,9.7819,0.0039,-0.0044,9.8066,0.0153,-0.0309,0.0349,-16.81,-39.56,-8.12,145.74,-86.41,76.69
11321,53.11072,-1.880945,339.39,1.01,2,15.36,22 / 22,1131493,2019-11-06 13:46:12:286,0.1497,-0.3079,9.8724,0.0007,-0.011,9.8066,-0.0074,0.0407,-0.0426,-29.69,-41.87,1.13,169.79,-86.35,76.99
11322,53.11072,-1.880945,339.39,1.01,2,15.36,22 / 22,1131594,2019-11-06 13:46:12:387,0.0849,-0.0635,9.7705,0.0016,-0.003,9.8066,-0.0199,0.0668,-0.0048,-12.69,-35.75,7.13,193.54,-86.4,77.27
11323,53.11072,-1.880945,339.39,1.01,2,15.36,22 / 22,1131693,2019-11-06 13:46:12:486,0.1977,-0.1384,9.786,0.0045,-0.0043,9.8066,-0.0143,0.0371,-0.0157,-12.06,-36.44,-3.06,157.67,-86.43,77.79
11324,53.11072,-1.880945,339.39,1.01,2,15.36,22 / 22,1131794,2019-11-06 13:46:12:587,0.1458,-0.0627,9.7675,0.001,-0.004,9.8066,0.0098,-0.0377,0.0247,-12.44,-37.75,-5.31,150.51,-86.42,78.02
11325,53.11072,-1.880945,339.39,1.01,2,15.36,22 / 22,1131894,2019-11-06 13:46:12:687,0.457,-0.54,9.9805,0.0023,-0.0023,9.8065,0.0031,-0.004,-0.023,-12.62,-37.75,-6.56,145.43,-86.42,78.55
11326,53.11072,-1.880945,339.39,1.01,2,15.36,22 / 22,1131993,2019-11-06 13:46:12:786,0.0006,-0.2615,9.8348,0.0054,-0.0004,9.8066,-0.0205,0.0386,-0.0015,-12.62,-37.87,-6.56,145.93,-86.41,79.1
11327,53.11072,-1.880945,339.39,1.01,2,15.36,22 / 22,1132093,2019-11-06 13:46:12:886,0.487,-0.5581,9.7928,0.0028,0.0008,9.8066,-0.0037,-0.001,0.0018,-12.12,-37.56,-6.44,147.76,-86.42,78.96
11328,53.11072,-1.880945,339.39,1.01,2,15.36,22 / 22,1132193,2019-11-06 13:46:12:986,0.2837,-0.0713,9.9419,0.0026,-0.0032,9.8066,0.0025,0.058,-0.0175,-11.81,-35.87,-0.25,171.25,-86.44,79.64
11329,53.11072,-1.880945,339.39,1.01,2,15.36,22 / 22,1132293,2019-11-06 13:46:13:086,-0.063,-0.4628,9.928,-0.0003,-0.0002,9.8066,0.0135,-0.0007,-0.011,-17.56,-38.81,19.56,215.34,-86.43,80.27
11330,53.11072,-1.880945,339.39,1.01,2,15.36,22 / 22,1132394,2019-11-06 13:46:13:187,-0.058,-0.4305,9.8174,-0.0005,-0.0022,9.8066,0.0083,-0.0382,0.0053,-30.37,-41.87,14.88,195.9,-86.4,80.54
11331,53.11072,-1.880945,339.39,1.01,2,15.36,22 / 22,1132493,2019-11-06 13:46:13:286,0.4753,-0.3348,9.89,-0.0002,0.0018,9.8066,0.0,0.0169,0.0086,-15.81,-39.06,-8.62,145.91,-86.42,81.05
11332,53.11072,-1.880945,339.39,1.01,2,15.36,22 / 22,1132594,2019-11-06 13:46:13:387,0.2242,-0.0198,9.8436,0.0028,-0.0028,9.8066,0.0023,0.0451,-0.0159,-14.31,-38.25,-7.81,146.28,-86.45,81.42
11333,53.11072,-1.880945,339.39,1.01,2,15.36,22 / 22,1132693,2019-11-06 13:46:13:486,0.1417,-0.2269,9.7773,0.0027,0.0014,9.8066,-0.0027,0.0346,-0.0071,-14.44,-38.87,-7.62,146.8,-86.45,81.89
11334,53.11072,-1.880945,339.39,1.01,2,15.36,22 / 22,1132793,2019-11-06 13:46:13:586,0.3922,-0.4167,9.8636,0.0051,-0.002,9.8066,0.0007,0.0138,-0.0205,-15.81,-38.94,-8.62,147.02,-86.47,82.34
11335,53.11072,-1.880945,339.39,1.01,2,15.36,22 / 22,1132893,2019-11-06 13:46:13:686,0.0426,-0.5994,9.8351,0.003,-0.0019,9.8066,-0.0022,0.0016,-0.0039,-29.81,-41.87,1.81,177.0,-86.5,82.93
11336,53.11072,-1.880945,339.39,1.01,2,15.36,22 / 22,1132994,2019-11-06 13:46:13:787,0.0102,-0.3689,9.9144,-0.0028,-0.0047,9.8066,0.0083,0.0364,-0.0179,-15.94,-36.62,18.06,218.41,-86.54,83.3
11337,53.11072,-1.880945,339.39,1.01,2,15.36,22 / 22,1133093,2019-11-06 13:46:13:886,0.0988,-0.1667,9.7773,0.006,-0.0036,9.8066,-0.0122,0.0427,-0.0033,-11.69,-37.12,-1.31,171.07,-86.56,84.2
11338,53.11072,-1.880945,339.39,1.01,2,15.36,22 / 22,1133193,2019-11-06 13:46:13:986,0.2245,-0.5853,9.8513,0.0041,-0.0039,9.8066,-0.0091,0.0481,-0.0109,-12.37,-37.94,-6.31,152.47,-86.6,84.61
11339,53.11072,-1.880945,339.39,1.01,2,15.36,22 / 22,1133293,2019-11-06 13:46:14:086,0.116,-0.2368,9.9218,0.0032,-0.0044,9.8066,0.0013,-0.0111,0.0069,-12.25,-37.56,-7.0,149.25,-86.61,84.81
11340,53.11072,-1.880945,339.39,1.01,2,15.36,22 / 22,1133393,2019-11-06 13:46:14:186,-0.0588,-0.3768,9.8964,0.0043,-0.0012,9.8066,0.0095,0.0211,-0.0085,-13.25,-37.06,-6.81,150.9,-86.62,85.11
11341,53.11072,-1.880945,339.39,1.01,2,15.36,22 / 22,1133493,2019-11-06 13:46:14:286,0.295,-0.1503,9.8055,0.0028,-0.0017,9.8066,-0.0009,0.0042,-0.0154,-11.87,-37.56,-5.56,153.52,-86.64,85.89
11342,53.11072,-1.880945,339.39,1.01,2,15.36,22 / 22,1133593,2019-11-06 13:46:14:386,0.2772,-0.3657,9.836,0.0037,0.0013,9.8066,-0.0082,-0.0148,-0.002,-11.62,-37.06,-3.0,165.32,-86.65,86.84
11343,53.11072,-1.880945,339.39,1.01,2,15.36,22 / 22,1133693,2019-11-06 13:46:14:486,0.0209,-0.3659,9.8487,0.0001,-0.0023,9.8066,0.0015,-0.0284,0.0014,-11.25,-36.44,10.19,214.69,-86.67,86.96
11344,53.11072,-1.880945,339.39,1.01,2,15.36,22 / 22,1133793,2019-11-06 13:46:14:586,-0.0819,-0.2182,9.8021,0.0015,-0.0017,9.8066,-0.0051,-0.0004,0.0022,-28.62,-40.62,-1.56,173.53,-86.67,86.96
11345,53.11072,-1.880945,339.39,1.01,2,15.36,22 / 22,1133893,2019-11-06 13:46:14:686,-0.003,-0.1147,9.8775,-0.0027,0.0059,9.8066,-0.0008,-0.0397,0.0088,-16.06,-38.81,-8.25,154.03,-86.65,87.44
11346,53.11072,-1.880945,339.39,1.01,2,15.36,22 / 22,1133994,2019-11-06 13:46:14:787,0.1917,-0.1935,9.8041,-0.0011,0.003,9.8066,-0.0115,0.0256,0.0022,-14.0,-38.44,-9.0,149.51,-86.65,88.4
11347,53.11072,-1.880945,339.39,1.01,2,15.36,22 / 22,1134093,2019-11-06 13:46:14:886,0.3468,-0.215,9.9629,0.0,-0.0034,9.8066,0.0034,0.0259,-0.0066,-14.5,-38.81,-8.06,152.54,-86.65,88.58
11348,53.11072,-1.880945,339.39,1.01,2,15.36,22 / 22,1134193,2019-11-06 13:46:14:986,0.2139,-0.1793,9.7992,0.0046,-0.0015,9.8066,0.0105,0.0386,-0.0088,-15.31,-38.75,-8.25,154.59,-86.65,89.41
11349,53.11072,-1.880945,339.39,1.01,2,15.36,22 / 22,1134293,2019-11-06 13:46:15:086,0.147,-0.28,9.8192,0.0036,0.002,9.8066,0.001,0.028,-0.0038,-21.81,-39.81,-6.5,166.3,-86.65,90.19
11350,53.11072,-1.880945,339.39,1.01,2,15.36,22 / 22,1134393,2019-11-06 13:46:15:186,-0.1433,-0.4358,9.8995,-0.0012,-0.0027,9.8066,0.008,-0.0113,-0.0083,-18.5,-38.31,20.56,226.89,-86.69,90.77
11351,53.11072,-1.880945,339.39,1.01,2,15.36,22 / 22,1134494,2019-11-06 13:46:15:287,0.06,-0.3156,9.852,0.004,-0.0008,9.8066,0.0154,-0.0266,0.0016,-12.81,-36.31,-0.69,177.41,-86.69,91.4
11352,53.11072,-1.880945,339.39,1.01,2,15.36,22 / 22,1134593,2019-11-06 13:46:15:386,0.1318,-0.2867,9.8432,0.0016,-0.0025,9.8066,-0.0046,0.0027,-0.0016,-12.56,-37.62,-5.0,163.72,-86.7,92.25
11353,53.11072,-1.880945,339.39,1.01,2,15.36,22 / 22,1134693,2019-11-06 13:46:15:486,0.4666,-0.055,10.0803,-0.0063,-0.0131,9.8066,0.0243,-0.0116,-0.0243,-12.25,-37.81,-6.69,154.57,-86.79,91.09
11354,53.11072,-1.880945,339.39,1.01,2,15.36,22 / 22,1134793,2019-11-06 13:46:15:586,-0.0601,-0.2899,9.5988,-0.0055,-0.0035,9.8066,0.0366,-0.0231,-0.0013,-12.5,-37.5,-6.75,154.68,-86.8,91.33
11355,53.11072,-1.880945,339.39,1.01,2,15.36,22 / 22,1134893,2019-11-06 13:46:15:686,0.3091,-0.1275,9.6489,0.0039,-0.0005,9.8066,0.0171,-0.0033,-0.0161,-12.06,-37.69,-6.62,155.65,-86.8,92.34
11356,53.11072,-1.880945,339.39,1.01,2,15.36,22 / 22,1134993,2019-11-06 13:46:15:786,0.0273,-0.2595,9.9654,0.0032,0.0028,9.8066,0.0008,0.0035,0.0169,-11.69,-37.0,-3.44,170.49,-86.79,92.96
11357,53.11072,-1.880945,339.39,1.01,2,15.36,21 / 22,1135093,2019-11-06 13:46:15:886,0.1794,-0.3521,10.0223,0.0036,0.001,9.8066,-0.0214,0.0216,0.0059,-11.69,-36.37,6.0,206.14,-86.8,93.32
11358,53.11072,-1.880945,339.39,1.01,2,15.36,21 / 22,1135193,2019-11-06 13:46:15:986,-0.0888,-0.3111,9.8716,-0.0027,-0.0007,9.8066,0.0163,0.0084,-0.0015,-30.56,-41.75,15.5,209.08,-86.8,93.62
11359,53.11072,-1.880945,339.39,1.01,2,15.36,21 / 22,1135293,2019-11-06 13:46:16:086,-0.046,-0.3819,9.7556,0.0008,-0.0026,9.8066,-0.0029,0.0142,-0.0071,-17.25,-39.44,-7.87,160.93,-86.82,94.0
11360,53.11072,-1.880945,339.39,1.01,2,15.36,21 / 22,1135393,2019-11-06 13:46:16:186,0.2265,-0.176,9.8249,0.0017,0.0007,9.8066,0.0123,-0.0164,-0.011,-14.81,-38.94,-8.5,159.13,-86.82,94.63
11361,53.11072,-1.880945,339.39,1.01,2,15.36,21 / 22,1135493,2019-11-06 13:46:16:286,0.2957,-0.3482,9.8424,0.0025,0.0046,9.8066,-0.0174,-0.022,0.0063,-14.06,-37.94,-7.94,158.15,-86.81,95.14
11362,53.11072,-1.880945,339.39,1.01,2,15.36,21 / 22,1135593,2019-11-06 13:46:16:386,0.0294,-0.2886,9.669,0.0044,0.003,9.8066,-0.0108,0.0011,-0.0096,-15.87,-38.69,-8.25,161.5,-86.82,95.89
11363,53.11072,-1.880945,339.39,1.01,2,15.36,21 / 22,1135693,2019-11-06 13:46:16:486,0.0934,-0.4685,9.9157,-0.001,-0.0006,9.8066,-0.0126,-0.0035,0.0035,-19.75,-40.06,-7.12,167.73,-86.81,95.76
11364,53.11072,-1.880945,339.39,1.01,2,15.36,21 / 22,1135793,2019-11-06 13:46:16:586,-0.029,-0.2683,9.7547,0.0032,-0.0026,9.8066,-0.0151,0.0369,0.006,-28.75,-41.06,18.25,215.55,-86.81,95.91
11365,53.11072,-1.880945,339.39,1.01,2,15.36,21 / 22,1135893,2019-11-06 13:46:16:686,-0.0711,-0.2785,9.8047,0.0022,-0.001,9.8066,0.0016,0.0219,0.0005,-12.87,-36.19,0.13,185.77,-86.81,96.65
11366,53.11072,-1.880945,339.39,1.01,2,15.36,21 / 22,1135993,2019-11-06 13:46:16:786,0.0555,-0.1728,9.7932,0.003,0.0006,9.8066,-0.0083,0.0216,-0.007,-11.81,-36.75,-4.25,170.36,-86.8,97.24
11367,53.11072,-1.880945,339.39,1.01,2,15.36,21 / 22,1136093,2019-11-06 13:46:16:886,0.1887,-0.1535,9.925,-0.0001,0.001,9.8066,0.0088,0.0007,-0.0007,-12.25,-37.87,-6.25,163.56,-86.81,97.59
11368,53.11072,-1.880945,339.39,1.01,2,15.36,21 / 22,1136194,2019-11-06 13:46:16:987,-0.1962,-0.203,9.7863,0.0028,-0.0041,9.8066,-0.0032,0.0112,-0.0272,-12.0,-38.31,-6.75,160.81,-86.83,98.24
11369,53.11072,-1.880945,339.39,1.01,2,15.36,21 / 22,1136294,2019-11-06 13:46:17:087,0.2057,-0.1613,9.7867,-0.0018,-0.0015,9.8066,-0.0027,0.0086,-0.0027,-11.87,-38.0,-6.31,164.16,-86.83,98.29
11370,53.11072,-1.880945,339.39,1.01,2,15.36,21 / 22,1136394,2019-11-06 13:46:17:187,0.5087,-0.2613,9.8893,0.0034,-0.0014,9.8066,-0.0224,0.0233,-0.0124,-11.94,-37.56,-4.87,167.64,-86.83,98.29
11371,53.11072,-1.880945,339.39,1.01,2,15.36,21 / 22,1136493,2019-11-06 13:46:17:286,0.0908,-0.2523,9.7775,0.0018,-0.0005,9.8066,0.0019,0.024,-0.0023,-11.56,-36.37,4.13,203.63,-86.83,98.78
11372,53.11072,-1.880945,339.39,1.01,2,15.36,21 / 22,1136593,2019-11-06 13:46:17:386,-0.2564,-0.4514,9.8793,-0.0008,-0.0022,9.8066,0.0061,0.0431,-0.0085,-28.19,-41.19,19.38,221.38,-86.84,99.7
11373,53.11072,-1.880945,339.39,1.01,2,15.36,21 / 22,1136693,2019-11-06 13:46:17:486,-0.0941,-0.1324,9.8484,0.003,-0.0031,9.8066,-0.0107,0.0275,0.0037,-19.81,-40.0,-7.37,171.75,-86.84,100.19
11374,53.11072,-1.880945,339.39,1.01,2,15.36,21 / 22,1136793,2019-11-06 13:46:17:586,0.0369,-0.6535,9.8648,0.0014,0.0014,9.8066,0.0001,0.0104,0.0099,-15.62,-39.0,-7.87,165.4,-86.87,100.27
11375,53.11072,-1.880945,339.39,1.01,2,15.36,21 / 22,1136893,2019-11-06 13:46:17:686,-0.084,-0.0894,9.8684,0.0049,-0.0061,9.8066,-0.0101,0.0266,-0.035,-14.56,-38.81,-8.0,164.8,-86.89,101.02
11376,53.11072,-1.880945,339.39,1.01,2,15.36,21 / 22,1136993,2019-11-06 13:46:17:786,0.0145,-0.2067,9.826,0.0043,0.0037,9.8066,0.0064,0.028,0.02,-15.19,-39.0,-6.87,168.42,-86.84,101.96
11377,53.11072,-1.880945,339.39,1.01,2,15.36,23 / 23,1137094,2019-11-06 13:46:17:887,-0.2884,-0.2181,9.7594,0.0021,-0.0078,9.8066,-0.0204,0.0429,-0.03,-17.5,-40.31,-6.44,173.72,-86.88,102.41
11378,53.11072,-1.880945,339.39,1.01,2,15.36,23 / 23,1137194,2019-11-06 13:46:17:987,1.7667,-0.8239,9.2384,0.0002,-0.001,9.8066,-0.0102,-0.04,0.0131,-30.37,-43.12,19.06,221.92,-86.87,102.06
11379,53.11072,-1.880945,339.39,1.01,2,15.36,23 / 23,1137293,2019-11-06 13:46:18:086,-0.2658,1.3905,9.8656,-0.0408,0.0094,9.8065,-0.1578,0.0615,-0.1109,-12.75,-36.62,9.63,217.72,-87.08,94.14
11380,53.11072,-1.880945,339.39,1.01,2,15.36,23 / 23,1137393,2019-11-06 13:46:18:186,-0.1662,0.159,9.5325,0.012,-0.0064,9.8066,-0.0373,0.0715,0.0171,-12.75,-37.87,-0.56,174.59,-86.97,88.17
11381,53.11072,-1.880945,339.39,1.01,2,15.36,23 / 23,1137493,2019-11-06 13:46:18:286,-0.4268,0.1412,9.9589,-0.0119,-0.0137,9.8065,0.0074,0.0753,0.0274,-13.44,-37.94,-4.62,159.9,-87.13,88.27
11382,53.11072,-1.880945,339.39,1.01,2,15.36,23 / 23,1137593,2019-11-06 13:46:18:386,-0.0617,-0.7964,9.8671,0.0115,-0.011,9.8066,0.0252,-0.0225,-0.0352,-13.69,-38.37,-5.0,164.0,-86.98,91.55
11383,53.11072,-1.880945,339.39,1.01,2,15.36,23 / 23,1137693,2019-11-06 13:46:18:486,-0.1269,-0.766,9.6401,-0.006,0.0148,9.8066,0.0036,-0.0979,0.0578,-13.56,-38.44,-4.44,168.09,-86.93,92.4
11384,53.11072,-1.880945,339.39,1.01,2,15.36,23 / 23,1137793,2019-11-06 13:46:18:586,-0.3871,0.1064,9.903,0.0041,0.0008,9.8066,-0.0156,0.0095,-0.0276,-13.12,-37.81,-3.37,171.34,-86.95,93.04
11385,53.11072,-1.880945,339.39,1.01,2,15.36,23 / 23,1137893,2019-11-06 13:46:18:686,-0.1642,-0.3386,9.8516,0.0012,0.0103,9.8066,0.0045,-0.0406,0.0377,-12.69,-36.75,1.19,186.44,-86.92,93.01
11386,53.11072,-1.880945,339.39,1.01,2,15.36,23 / 23,1137993,2019-11-06 13:46:18:786,0.1965,0.1283,9.8687,-0.0019,-0.0002,9.8066,0.0092,0.039,-0.0311,-16.75,-38.87,19.38,228.08,-86.94,93.35
11387,53.11072,-1.880945,339.39,1.01,2,15.36,22 / 22,1138093,2019-11-06 13:46:18:886,-0.0993,-0.4481,9.782,0.0031,0.0031,9.8066,0.0008,-0.0036,0.0082,-24.12,-39.44,-4.37,174.78,-86.91,93.8
11388,53.11072,-1.880945,339.39,1.01,2,15.36,22 / 22,1138193,2019-11-06 13:46:18:986,0.1825,-0.3967,9.9966,0.0018,-0.0013,9.8066,-0.0096,0.0508,-0.0155,-16.12,-38.62,-7.06,162.61,-86.91,94.2
11389,53.11072,-1.880945,339.39,1.01,2,15.36,22 / 22,1138293,2019-11-06 13:46:19:086,0.2524,-0.3298,9.9939,0.0017,0.0037,9.8066,0.0012,0.0197,-0.0071,-14.62,-38.69,-6.87,161.68,-86.88,94.41
11390,53.11072,-1.880945,339.39,1.01,2,15.36,22 / 22,1138394,2019-11-06 13:46:19:187,-0.4645,-0.2473,9.566,0.0002,0.0014,9.8066,-0.0034,0.0564,-0.0073,-14.81,-38.94,-7.12,162.16,-86.85,94.93
11391,53.11072,-1.880945,339.39,1.01,2,15.36,22 / 22,1138493,2019-11-06 13:46:19:286,-0.1643,-0.5771,9.9236,0.0058,0.0007,9.8066,0.0054,0.0345,-0.0304,-16.62,-39.25,-7.12,165.11,-86.85,95.8
11392,53.11072,-1.880945,339.39,1.01,2,15.36,22 / 22,1138593,2019-11-06 13:46:19:386,-0.5392,-0.138,9.7906,0.0034,0.003,9.8065,-0.0129,0.0549,0.0096,-25.5,-40.5,-4.44,177.09,-86.83,95.93
11393,53.11072,-1.880945,339.39,1.01,2,15.36,22 / 22,1138693,2019-11-06 13:46:19:486,-0.6844,0.2715,9.8115,0.0002,-0.0029,9.8066,-0.0091,0.0332,-0.0182,-14.06,-36.37,16.19,231.24,-86.85,96.55
11394,53.11072,-1.880945,339.39,1.01,2,15.36,22 / 22,1138793,2019-11-06 13:46:19:586,-0.8196,-0.3381,9.7813,0.0012,-0.0045,9.8066,-0.0012,0.0851,-0.0133,-12.5,-36.31,-1.37,181.69,-86.83,96.74
11395,53.11072,-1.880945,339.39,1.01,2,15.36,22 / 22,1138894,2019-11-06 13:46:19:687,-0.6356,-0.4772,9.6413,0.0,-0.0009,9.8066,0.0096,0.0506,0.004,-12.31,-37.12,-5.44,166.76,-86.84,97.34
11396,53.11072,-1.880945,339.39,1.01,2,15.36,22 / 22,1138993,2019-11-06 13:46:19:786,-0.332,-0.7782,9.889,0.0023,-0.0081,9.8066,-0.0014,0.1227,-0.0349,-12.06,-37.12,-6.75,160.48,-86.87,97.98
11397,53.11072,-1.880945,339.39,1.01,2,15.36,22 / 22,1139093,2019-11-06 13:46:19:886,-0.1264,-0.8352,9.7887,0.004,-0.0037,9.8066,0.0236,0.0224,0.0213,-12.56,-36.62,-6.31,165.73,-86.85,98.52
11398,53.11072,-1.880945,339.39,1.01,2,15.36,22 / 22,1139196,2019-11-06 13:46:19:989,-0.333,-0.4546,9.9118,0.0033,-0.0093,9.8066,-0.0008,0.1218,-0.0328,-11.69,-38.0,-6.12,164.53,-86.83,98.72
11399,53.11072,-1.880945,339.39,1.01,2,15.36,22 / 22,1139293,2019-11-06 13:46:20:086,-0.4422,0.1054,9.823,0.006,-0.0007,9.8066,-0.0143,0.1446,-0.0186,-10.94,-36.56,-2.62,175.07,-86.86,99.45
11400,53.11072,-1.880945,339.39,1.01,2,15.36,22 / 22,1139394,2019-11-06 13:46:20:187,-0.3854,0.2755,9.6893,0.0062,-0.0082,9.8066,-0.023,0.1225,0.0138,-11.31,-36.44,11.5,232.36,-86.86,100.34
11401,53.11072,-1.880945,339.39,1.01,2,15.36,22 / 22,1139494,2019-11-06 13:46:20:287,-0.2052,0.4027,10.0249,-0.0094,-0.0111,9.8066,0.003,0.0122,0.037,-31.87,-42.62,10.06,206.19,-86.91,100.55
11402,53.11072,-1.880945,339.39,1.01,2,15.36,22 / 22,1139593,2019-11-06 13:46:20:386,-0.2071,-1.0639,9.8088,0.0084,0.004,9.8066,-0.0216,0.1258,0.0329,-15.12,-39.19,-7.81,166.22,-86.92,102.62
11403,53.11072,-1.880945,339.39,1.01,2,15.36,22 / 22,1139693,2019-11-06 13:46:20:486,-0.1402,-0.3761,9.8992,0.0072,-0.0118,9.8066,0.0132,0.1925,-0.0638,-14.5,-38.56,-7.81,165.4,-86.97,103.32
11404,53.11072,-1.880945,339.39,1.01,2,15.36,22 / 22,1139793,2019-11-06 13:46:20:586,0.3293,-0.6707,9.7484,-0.0043,0.0051,9.8066,0.0424,0.0913,0.0267,-13.56,-38.56,-8.0,166.36,-86.9,104.36
11405,53.11072,-1.880945,339.39,1.01,2,15.36,22 / 22,1139893,2019-11-06 13:46:20:686,0.3733,0.4047,9.9242,0.0027,-0.0036,9.8066,-0.007,0.1795,-0.05,-14.5,-38.87,-8.19,167.36,-86.86,105.47
11406,53.11072,-1.880945,339.39,1.01,2,15.36,22 / 22,1139993,2019-11-06 13:46:20:786,-0.0271,-0.1204,9.7682,0.0006,0.0002,9.8066,0.0303,0.0898,0.0199,-19.87,-40.31,-7.37,176.73,-86.8,105.68
11407,53.11072,-1.880945,339.39,1.01,2,15.36,22 / 22,1140093,2019-11-06 13:46:20:886,-0.1493,0.2193,9.5453,0.0071,-0.0071,9.8066,-0.0236,0.2006,-0.0354,-25.0,-40.44,20.88,234.45,-86.8,107.57
11408,53.11072,-1.880945,339.39,1.01,2,15.36,22 / 22,1140193,2019-11-06 13:46:20:986,0.1536,0.0952,9.8188,0.0099,-0.0001,9.8066,-0.0104,0.0812,0.0122,-10.44,-36.12,-0.56,190.71,-86.7,108.6
11409,53.11072,-1.880945,339.39,1.01,2,15.36,22 / 22,1140293,2019-11-06 13:46:21:086,-0.0743,0.4973,9.8444,0.0022,0.0042,9.8066,-0.0029,0.1457,0.0633,-9.62,-37.06,-5.94,170.55,-86.73,109.82
