,GPS LATITUDE (degrees), GPS LONGITUDE (degrees), GPS ALTITUDE (m), GPS SPEED (Kmh), GPS ACCURACY (m), GPS ORIENTATION (Â°),GPS SATELLITES IN RANGE, TIME SINCE START (ms), DATE (YYYY-MO-DD HH-MI-SS_SSS), ACCELEROMETER X (m/s²) , ACCELEROMETER Y (m/s²), ACCELEROMETER Z (m/s²), GRAVITY X (m/s²), GRAVITY Y (m/s²), GRAVITY Z (m/s²), GYROSCOPE Yaw (rad/s), GYROSCOPE Pitch (rad/s), GYROSCOPE Roll (rad/s), MAGNETIC FIELD X (Î¼T), MAGNETIC FIELD Y (Î¼T), MAGNETIC FIELD Z (Î¼T), ORIENTATION (Yaw) (Â°), ORIENTATION (Pitch) (Â°), ORIENTATION (Roll ) (Â°)
1306,52.55533,-1.459007,150.25,0.91,2,212.93,24 / 26,130620,2019-11-06 10:43:57:963,0.3288,-0.3497,9.7655,-0.0008,0.0024,9.8066,0.0076,-0.0112,-0.0034,-8.56,-34.56,33.0,150.61,-86.77,-15.72
1307,52.55533,-1.459007,150.25,0.91,2,212.93,24 / 26,130720,2019-11-06 10:43:58:063,0.4213,-0.6119,9.7805,0.0033,0.0044,9.8066,-0.0049,0.0024,-0.0052,-8.62,-34.19,32.63,151.07,-86.76,-15.19
1308,52.55533,-1.459007,150.25,0.91,2,212.93,24 / 26,130820,2019-11-06 10:43:58:163,0.3143,-0.3658,9.7875,0.0024,0.0017,9.8066,0.0055,0.0058,0.0077,-8.75,-34.5,32.38,151.07,-86.76,-15.19
1309,52.55533,-1.459007,150.25,0.91,2,212.93,24 / 26,130923,2019-11-06 10:43:58:266,0.2762,-0.6036,9.8081,0.0027,0.0013,9.8066,0.0051,0.0164,-0.0012,-7.94,-34.62,33.0,152.92,-86.76,-14.89
1310,52.55533,-1.459007,150.25,0.91,2,212.93,25 / 26,131020,2019-11-06 10:43:58:363,0.2684,-0.6261,9.8025,0.0021,0.0007,9.8065,-0.0048,-0.0348,0.0052,-7.94,-34.31,32.63,153.5,-86.77,-14.28
1311,52.55533,-1.459007,150.25,0.91,2,212.93,25 / 26,131120,2019-11-06 10:43:58:463,0.3384,-0.4852,9.8608,0.0041,0.0009,9.8066,0.0003,-0.0162,-0.0008,-8.62,-34.5,33.31,152.34,-86.78,-13.85
1312,52.55533,-1.459007,150.25,0.91,2,212.93,25 / 26,131220,2019-11-06 10:43:58:563,0.4705,-0.6606,9.82,0.0045,-0.0038,9.8066,0.0052,0.0126,-0.0084,-8.81,-34.12,32.5,152.34,-86.78,-13.85
1313,52.55533,-1.459007,150.25,0.91,2,212.93,25 / 26,131320,2019-11-06 10:43:58:663,0.281,-0.6044,9.8593,0.0034,-0.0027,9.8066,-0.0067,0.0257,-0.0062,-9.19,-34.19,32.94,152.58,-86.82,-13.59
1314,52.55533,-1.459007,150.25,0.91,2,212.93,25 / 26,131420,2019-11-06 10:43:58:763,0.4009,-0.7658,9.849,0.009,-0.0041,9.8066,0.0104,-0.0069,-0.0212,-8.87,-34.44,32.94,153.18,-86.86,-12.93
1315,52.55533,-1.459007,150.25,0.91,2,212.93,25 / 26,131520,2019-11-06 10:43:58:863,0.4925,-0.5119,9.8163,0.0062,-0.0032,9.8066,-0.0105,-0.0207,0.0172,-9.25,-34.69,32.81,153.18,-86.86,-12.93
1316,52.55533,-1.459007,150.25,0.91,2,212.93,25 / 26,131620,2019-11-06 10:43:58:963,0.3906,-0.5346,9.8502,0.0042,-0.0086,9.8066,0.0003,-0.0174,0.0058,-8.69,-34.0,32.88,153.59,-86.9,-12.5
1317,52.55533,-1.459007,150.25,0.91,2,212.93,25 / 26,131719,2019-11-06 10:43:59:062,0.3694,-0.8223,9.9251,0.0061,-0.0127,9.8066,0.0177,0.0126,-0.0028,-8.87,-34.62,33.19,153.57,-86.98,-12.51
1318,52.55533,-1.459007,150.25,0.91,2,212.93,25 / 26,131820,2019-11-06 10:43:59:163,0.3039,-0.53,9.8837,0.0056,-0.0068,9.8066,0.0006,0.0089,0.0066,-8.44,-34.56,33.44,155.33,-87.03,-12.29
1319,52.55533,-1.459007,150.25,0.91,2,212.93,25 / 26,131920,2019-11-06 10:43:59:263,0.3763,-0.4569,9.8896,0.0072,-0.0058,9.8066,0.0102,-0.0139,-0.0238,-8.0,-34.62,33.13,155.33,-87.03,-12.29
1320,52.55533,-1.459007,150.25,0.91,2,212.93,26 / 27,132021,2019-11-06 10:43:59:364,0.5031,-0.6742,9.8977,0.0025,-0.0045,9.8066,-0.0082,-0.0188,0.0167,-8.5,-34.37,33.13,155.73,-87.08,-11.82
1321,52.55533,-1.459007,150.25,0.91,2,212.93,26 / 27,132120,2019-11-06 10:43:59:463,0.4369,-0.461,9.95,0.0063,-0.0136,9.8066,-0.0062,-0.0003,0.014,-8.12,-34.69,32.5,155.75,-87.16,-11.8
1322,52.55533,-1.459007,150.25,0.91,2,212.93,26 / 27,132220,2019-11-06 10:43:59:563,0.3219,-0.6209,9.8832,0.0052,-0.0069,9.8066,-0.0007,0.0177,0.0085,-8.37,-34.75,32.88,155.75,-87.16,-11.8
1323,52.55533,-1.459007,150.25,0.91,2,212.93,26 / 27,132320,2019-11-06 10:43:59:663,0.1011,-0.4082,9.8869,0.0001,-0.0044,9.8066,-0.0053,-0.008,-0.0123,-8.31,-34.56,32.63,155.95,-87.21,-11.57
1324,52.55533,-1.459007,150.25,0.91,2,212.93,26 / 27,132420,2019-11-06 10:43:59:763,0.3817,-0.6019,9.9555,0.0036,-0.0052,9.8066,0.014,-0.0099,-0.006,-7.94,-34.19,32.88,155.67,-87.27,-11.81
1325,52.55533,-1.459007,150.25,0.91,2,212.93,26 / 27,132520,2019-11-06 10:43:59:863,0.5014,-0.6015,9.8636,0.0077,-0.0097,9.8066,-0.0086,-0.0019,0.0041,-8.44,-33.87,33.19,155.67,-87.27,-11.81
1326,52.55533,-1.459007,150.25,0.91,2,212.93,26 / 27,132620,2019-11-06 10:43:59:963,0.2832,-0.4125,9.8519,0.0013,-0.0036,9.8066,0.0096,-0.0047,0.004,-8.25,-34.44,33.06,156.0,-87.34,-11.43
1327,52.55533,-1.459007,150.25,0.91,2,212.93,26 / 27,132719,2019-11-06 10:44:00:062,0.2467,-0.7283,9.9554,0.0025,-0.004,9.8066,0.0074,0.0023,-0.0077,-8.0,-34.12,33.0,155.92,-87.39,-11.5
1328,52.55533,-1.459007,150.25,0.91,2,212.93,26 / 27,132820,2019-11-06 10:44:00:163,0.2513,-0.4816,9.8808,0.0018,-0.0034,9.8066,-0.0114,-0.0089,-0.0047,-8.37,-34.25,32.81,156.19,-87.45,-11.2
1329,52.55533,-1.459007,150.25,0.91,2,212.93,26 / 27,132920,2019-11-06 10:44:00:263,0.2349,-0.4568,9.8281,0.0023,-0.007,9.8066,-0.0074,-0.0164,0.0045,-8.0,-34.31,33.19,156.19,-87.45,-11.2
1330,52.55533,-1.459007,150.25,0.91,2,212.93,24 / 26,133020,2019-11-06 10:44:00:363,0.309,-0.5976,9.8647,0.0072,-0.0105,9.8066,-0.0107,0.0105,0.01,-8.44,-34.37,33.25,154.5,-87.49,-11.29
1331,52.55533,-1.459007,150.25,0.91,2,212.93,24 / 26,133119,2019-11-06 10:44:00:462,0.2527,-0.3755,9.8559,0.0017,-0.0048,9.8065,-0.0028,0.0197,0.0103,-8.62,-34.44,32.56,154.74,-87.56,-11.02
1332,52.55533,-1.459007,150.25,0.91,2,212.93,24 / 26,133220,2019-11-06 10:44:00:563,0.2489,-0.4827,9.819,0.0071,-0.0125,9.8066,0.0127,0.0115,-0.0227,-8.69,-34.12,33.19,154.74,-87.56,-11.02
1333,52.55533,-1.459007,150.25,0.91,2,212.93,24 / 26,133320,2019-11-06 10:44:00:663,0.1361,-0.5696,9.8597,0.0034,-0.0046,9.8066,-0.0001,-0.0048,-0.0002,-8.12,-33.69,32.94,156.43,-87.65,-10.87
1334,52.55533,-1.459007,150.25,0.91,2,212.93,24 / 26,133420,2019-11-06 10:44:00:763,0.2203,-0.4065,9.8253,0.0021,-0.005,9.8066,0.0056,-0.0235,-0.0021,-8.37,-33.87,32.88,156.7,-87.71,-10.56
1335,52.55533,-1.459007,150.25,0.91,2,212.93,24 / 26,133520,2019-11-06 10:44:00:863,0.3153,-0.4225,9.7822,0.0017,-0.0033,9.8066,0.0009,-0.0016,0.0076,-8.19,-34.06,32.88,156.39,-87.78,-10.86
1336,52.55533,-1.459007,150.25,0.91,2,212.93,24 / 26,133620,2019-11-06 10:44:00:963,0.1415,-0.4884,9.7989,0.0038,-0.0066,9.8066,-0.0068,-0.0022,0.0075,-8.87,-34.31,33.38,156.39,-87.78,-10.86
1337,52.55533,-1.459007,150.25,0.91,2,212.93,24 / 26,133719,2019-11-06 10:44:01:062,0.0456,-0.3139,9.8218,0.0026,-0.0055,9.8066,0.0079,0.0101,0.0111,-8.19,-34.37,32.88,156.72,-87.85,-10.49
1338,52.55533,-1.459007,150.25,0.91,2,212.93,24 / 26,133820,2019-11-06 10:44:01:163,0.2315,-0.455,9.8105,0.0026,-0.004,9.8066,0.0091,-0.0214,-0.0011,-8.56,-34.25,33.25,154.98,-87.92,-10.62
1339,52.55533,-1.459007,150.25,0.91,2,212.93,24 / 26,133920,2019-11-06 10:44:01:263,0.2476,-0.4595,9.8054,0.0061,-0.0113,9.8066,-0.0105,-0.0209,0.0065,-8.44,-33.87,33.06,154.98,-87.92,-10.62
1340,52.55533,-1.459007,150.25,0.91,2,212.93,23 / 24,134020,2019-11-06 10:44:01:363,0.2472,-0.2512,9.8267,0.0046,-0.0117,9.8066,0.0081,-0.016,-0.005,-8.75,-34.12,33.31,155.07,-88.0,-10.5
1341,52.55533,-1.459007,150.25,0.91,2,212.93,23 / 24,134120,2019-11-06 10:44:01:463,0.3404,-0.4484,9.8493,0.0004,-0.0029,9.8066,-0.0026,0.018,-0.0038,-8.5,-34.37,33.69,156.64,-88.09,-10.85
1342,52.55533,-1.459007,150.25,0.91,2,212.93,23 / 24,134220,2019-11-06 10:44:01:563,0.2236,-0.4901,9.8884,0.0021,-0.0085,9.8066,0.0107,0.0158,-0.0012,-8.12,-34.37,33.0,156.01,-88.14,-11.11
1343,52.55533,-1.459007,150.25,0.91,2,212.93,23 / 24,134319,2019-11-06 10:44:01:662,0.2798,-0.2995,9.8877,0.0029,-0.0084,9.8066,0.0083,0.0186,-0.0037,-8.75,-34.56,33.06,156.01,-88.14,-11.11
1344,52.55533,-1.459007,150.25,0.91,2,212.93,23 / 24,134419,2019-11-06 10:44:01:762,0.3873,-0.5039,9.8661,0.0022,-0.0062,9.8066,-0.0031,-0.0089,-0.0025,-8.5,-34.19,33.25,155.86,-88.2,-11.24
1345,52.55533,-1.459007,150.25,0.91,2,212.93,23 / 24,134520,2019-11-06 10:44:01:863,0.264,-0.0957,9.9856,0.0054,-0.0085,9.8066,-0.0039,-0.0115,0.002,-8.44,-34.44,32.94,156.11,-88.25,-10.96
1346,52.55533,-1.459007,150.25,0.91,2,212.93,23 / 24,134620,2019-11-06 10:44:01:963,0.0511,0.0155,9.8296,0.0029,-0.006,9.8066,-0.0019,0.009,-0.0002,-7.94,-34.25,32.94,156.11,-88.25,-10.96
1347,52.55533,-1.459007,150.25,0.91,2,212.93,23 / 24,134719,2019-11-06 10:44:02:062,0.2662,-0.4073,9.9461,0.002,-0.0035,9.8066,-0.0222,0.0097,0.0157,-8.56,-34.19,33.06,156.14,-88.29,-10.91
1348,52.55533,-1.459007,150.25,0.91,2,212.93,23 / 24,134820,2019-11-06 10:44:02:163,0.039,-0.2758,9.947,0.003,-0.0028,9.8066,0.0196,0.0036,0.0064,-8.31,-33.94,33.44,156.22,-88.32,-10.82
1349,52.55533,-1.459007,150.25,0.91,2,212.93,23 / 24,134920,2019-11-06 10:44:02:263,0.1846,-0.4721,9.957,0.0093,-0.0142,9.8065,-0.0005,0.0072,-0.0139,-8.37,-34.31,32.94,156.76,-88.41,-10.23
1350,52.55533,-1.459007,150.25,0.91,2,212.93,24 / 25,135020,2019-11-06 10:44:02:363,0.4068,-0.5462,9.8698,0.0078,-0.012,9.8066,0.0138,0.0055,-0.0116,-8.44,-34.37,33.5,156.76,-88.41,-10.23
1351,52.55533,-1.459007,150.25,0.91,2,212.93,24 / 25,135120,2019-11-06 10:44:02:463,0.3685,-0.6761,9.8198,0.0026,-0.0095,9.8066,0.0081,0.0176,-0.0002,-8.31,-34.25,32.75,157.26,-88.5,-9.69
1352,52.55533,-1.459007,150.25,0.91,2,212.93,24 / 25,135220,2019-11-06 10:44:02:563,0.2483,-0.7526,9.8791,0.0013,-0.0057,9.8065,-0.0035,-0.0047,0.0078,-8.31,-34.12,33.38,156.84,-88.59,-10.08
1353,52.55533,-1.459007,150.25,0.91,2,212.93,24 / 25,135320,2019-11-06 10:44:02:663,0.196,-0.835,9.8824,0.0022,-0.0109,9.8066,0.0019,-0.0256,0.0068,-8.5,-34.19,33.56,156.84,-88.59,-10.08
1354,52.55533,-1.459007,150.25,0.91,2,212.93,24 / 25,135420,2019-11-06 10:44:02:763,0.1902,-0.259,9.8019,-0.0024,-0.0006,9.8066,-0.0045,-0.0175,0.0025,-9.12,-34.5,34.38,156.64,-88.65,-10.64
1355,52.55533,-1.459007,150.25,0.91,2,212.93,24 / 25,135520,2019-11-06 10:44:02:863,0.2068,-0.4573,9.7821,-0.0012,-0.0005,9.8066,-0.0048,0.0089,0.0054,-9.37,-34.62,35.0,154.6,-88.65,-11.53
1356,52.55533,-1.459007,150.25,0.91,2,212.93,24 / 25,135620,2019-11-06 10:44:02:963,0.1521,-0.4931,9.8573,-0.0006,-0.0015,9.8066,-0.0194,-0.0095,-0.0057,-9.44,-34.81,35.0,154.17,-88.66,-11.97
1357,52.55533,-1.459007,150.25,0.91,2,212.93,24 / 25,135719,2019-11-06 10:44:03:062,-0.0168,-0.3225,9.8782,-0.0022,-0.0028,9.8066,-0.0008,-0.0247,0.012,-9.31,-34.56,34.69,154.17,-88.66,-11.97
1358,52.55533,-1.459007,150.25,0.91,2,212.93,24 / 25,135819,2019-11-06 10:44:03:162,0.3033,-0.7983,9.7227,-0.0023,-0.0032,9.8066,-0.012,-0.0437,-0.0013,-8.81,-34.56,34.44,153.26,-88.68,-12.87
1359,52.55533,-1.459007,150.25,0.91,2,212.93,24 / 25,135919,2019-11-06 10:44:03:262,0.2125,-0.3302,9.6833,-0.0057,0.0,9.8066,0.0063,0.0032,0.0078,-8.75,-34.5,34.31,151.28,-88.68,-14.5
1360,52.55533,-1.459007,150.25,0.91,2,212.93,25 / 26,136020,2019-11-06 10:44:03:363,0.2006,-0.6043,9.7943,-0.0118,0.0038,9.8066,-0.0304,-0.0041,0.0162,-9.25,-34.44,33.63,151.28,-88.68,-14.5
1361,52.55533,-1.459007,150.25,0.91,2,212.93,25 / 26,136120,2019-11-06 10:44:03:463,0.2297,-1.2728,9.7624,-0.0294,0.0041,9.8066,0.0051,-0.0301,0.0101,-9.12,-34.44,33.88,149.28,-88.63,-16.58
1362,52.55533,-1.459007,150.25,0.91,2,212.93,25 / 26,136220,2019-11-06 10:44:03:563,-0.1831,-0.7356,9.9005,-0.011,0.0056,9.8066,-0.0228,-0.0506,0.0054,-9.19,-34.44,33.38,143.79,-88.51,-21.81
1363,52.55533,-1.459007,150.25,0.91,2,212.93,25 / 26,136320,2019-11-06 10:44:03:663,-0.0024,-0.9864,9.6372,-0.0233,0.0226,9.8065,-0.0067,-0.0442,0.0004,-9.25,-34.62,33.25,142.87,-88.33,-22.89
1364,52.55533,-1.459007,150.25,0.91,2,212.93,25 / 26,136420,2019-11-06 10:44:03:763,0.4708,-2.2454,9.4746,-0.0013,-0.011,9.8066,0.0091,-0.0676,0.0079,-8.69,-34.94,32.94,142.87,-88.33,-22.89
1365,52.55533,-1.459007,150.25,0.91,2,212.93,25 / 26,136520,2019-11-06 10:44:03:863,0.3287,-1.4534,9.4468,0.0022,-0.0043,9.8066,0.0087,-0.0431,-0.0137,-8.69,-34.44,32.19,142.9,-88.37,-24.48
1366,52.55533,-1.459007,150.25,0.91,2,212.93,25 / 26,136620,2019-11-06 10:44:03:963,-0.1943,-3.0557,9.8406,0.0081,-0.0648,9.8064,0.0605,-0.0691,-0.0401,-8.56,-34.56,32.25,136.32,-88.62,-28.97
1367,52.55533,-1.459007,150.25,0.91,2,212.93,25 / 26,136720,2019-11-06 10:44:04:063,-0.1035,-3.6981,10.0324,0.07,-0.1374,9.8054,0.0873,-0.1341,-0.0414,-8.25,-34.0,32.75,136.32,-88.62,-28.97
1368,52.55533,-1.459007,150.25,0.91,2,212.93,25 / 26,136820,2019-11-06 10:44:04:163,1.0414,-2.1458,10.0776,0.0524,-0.0275,9.8064,0.0685,-0.1887,-0.0083,-7.69,-34.19,32.88,111.32,-89.42,-55.6
1369,52.55533,-1.459007,150.25,0.91,2,212.93,25 / 26,136920,2019-11-06 10:44:04:263,1.6234,-1.2444,10.4314,0.0154,-0.0005,9.8066,-0.0026,-0.1764,-0.0043,-7.25,-34.25,32.81,358.95,-89.97,-169.08
1370,52.55532,-1.459016,150.42,1.75,2,216.88,24 / 27,137020,2019-11-06 10:44:04:363,0.7616,-2.6036,9.7015,0.0154,0.0152,9.8066,-0.0778,0.0122,-0.0376,-7.31,-34.0,32.25,238.23,-89.89,70.67
1371,52.55532,-1.459016,150.42,1.75,2,216.88,24 / 27,137120,2019-11-06 10:44:04:463,0.2245,-2.8486,9.5884,-0.0305,0.0745,9.8062,-0.0536,-0.0076,-0.0022,-7.0,-33.87,32.44,238.23,-89.89,70.67
1372,52.55532,-1.459016,150.42,1.75,2,216.88,24 / 27,137220,2019-11-06 10:44:04:563,0.6532,-3.3442,9.3489,-0.0256,0.0131,9.8065,-0.019,-0.0785,0.019,-7.25,-33.75,32.5,170.03,-89.5,2.28
1373,52.55532,-1.459016,150.42,1.75,2,216.88,24 / 27,137320,2019-11-06 10:44:04:663,1.5396,-3.0451,9.3303,-0.0015,0.0192,9.8066,-0.0254,-0.1003,0.0396,-6.81,-33.37,32.94,153.49,-89.31,-14.83
1374,52.55532,-1.459016,150.42,1.75,2,216.88,24 / 27,137420,2019-11-06 10:44:04:763,1.0915,-1.7139,9.7659,0.0174,0.0669,9.8063,0.0123,-0.0387,-0.0108,-6.56,-33.81,32.63,153.49,-89.31,-14.83
1375,52.55532,-1.459016,150.42,1.75,2,216.88,24 / 27,137520,2019-11-06 10:44:04:863,-0.3218,-0.2179,10.3523,0.0248,-0.0178,9.8066,0.0614,0.0817,-0.0851,-5.87,-34.0,31.88,169.76,-88.98,0.2
1376,52.55532,-1.459016,150.42,1.75,2,216.88,24 / 27,137620,2019-11-06 10:44:04:963,0.2029,-2.3137,9.4967,0.0043,0.0007,9.8066,-0.0272,0.1111,-0.0655,-6.19,-34.19,31.63,187.8,-89.28,18.52
1377,52.55532,-1.459016,150.42,1.75,2,216.88,24 / 27,137720,2019-11-06 10:44:05:063,0.9417,-1.0472,9.6519,-0.0113,-0.0171,9.8066,0.0068,0.055,-0.0083,-6.37,-34.19,31.06,186.56,-89.21,17.61
1378,52.55532,-1.459016,150.42,1.75,2,216.88,24 / 27,137820,2019-11-06 10:44:05:163,1.3792,-1.1978,9.6508,-0.018,-0.0157,9.8066,0.0241,-0.1311,0.1012,-6.19,-33.75,31.13,186.56,-89.21,17.61
1379,52.55532,-1.459016,150.42,1.75,2,216.88,24 / 27,137920,2019-11-06 10:44:05:263,-0.1112,-1.5575,9.8046,0.0129,-0.0029,9.8066,-0.0155,-0.0531,0.0268,-6.75,-33.94,30.63,179.21,-89.31,10.15
1380,52.555305,-1.459036,150.48,2.9,2,217.9,24 / 25,138020,2019-11-06 10:44:05:363,-0.3129,-1.8,9.6597,0.0311,-0.0025,9.8066,-0.04,0.0876,-0.055,-6.75,-34.31,30.5,192.33,-89.3,25.22
1381,52.555305,-1.459036,150.48,2.9,2,217.9,24 / 25,138120,2019-11-06 10:44:05:463,-0.0409,-1.7377,9.8013,0.0139,0.0297,9.8065,-0.0151,-0.07,0.0377,-6.31,-34.25,30.5,192.33,-89.3,25.22
1382,52.555305,-1.459036,150.48,2.9,2,217.9,24 / 25,138220,2019-11-06 10:44:05:563,1.3231,-1.361,9.6968,0.0165,-0.0008,9.8066,0.0031,-0.0168,0.0198,-7.0,-34.0,30.31,194.99,-89.11,27.97
1383,52.555305,-1.459036,150.48,2.9,2,217.9,24 / 25,138320,2019-11-06 10:44:05:663,1.225,-0.8467,9.9084,0.0061,-0.0021,9.8066,-0.0409,-0.0824,0.0818,-7.31,-34.19,30.19,205.51,-89.1,39.07
1384,52.555305,-1.459036,150.48,2.9,2,217.9,24 / 25,138420,2019-11-06 10:44:05:763,0.9997,-0.9462,10.0917,0.0029,0.0044,9.8066,0.0069,-0.0349,0.0219,-7.56,-33.94,30.69,208.63,-89.0,43.6
1385,52.555305,-1.459036,150.48,2.9,2,217.9,24 / 25,138520,2019-11-06 10:44:05:863,-0.0472,-1.0732,10.3569,0.0026,0.0029,9.8066,0.0236,0.0747,-0.0583,-7.75,-34.31,30.69,208.63,-89.0,43.6
1386,52.555305,-1.459036,150.48,2.9,2,217.9,24 / 25,138620,2019-11-06 10:44:05:963,0.4207,-1.2665,10.4129,0.0083,-0.0008,9.8066,0.0065,0.0975,-0.0264,-8.56,-34.56,31.13,208.84,-88.96,43.84
1387,52.555305,-1.459036,150.48,2.9,2,217.9,24 / 25,138720,2019-11-06 10:44:06:063,1.0879,-0.8881,9.7998,0.0059,-0.0023,9.8066,0.0477,0.0142,-0.0138,-8.56,-35.12,31.31,212.49,-88.94,49.29
1388,52.555305,-1.459036,150.48,2.9,2,217.9,24 / 25,138820,2019-11-06 10:44:06:163,1.2916,-1.1025,10.1461,0.0019,-0.0032,9.8066,-0.0348,-0.0668,0.0789,-8.81,-34.75,31.19,212.49,-88.94,49.29
1389,52.555305,-1.459036,150.48,2.9,2,217.9,24 / 25,138920,2019-11-06 10:44:06:263,1.1034,-1.2904,9.7394,0.0035,0.0037,9.8066,0.026,-0.0238,0.0344,-8.94,-33.94,32.81,214.04,-88.95,50.35
1390,52.55528,-1.459067,150.53,3.88,2,215.65,25 / 26,139020,2019-11-06 10:44:06:363,-0.1475,-2.0298,9.8772,0.01,-0.0106,9.8066,0.0006,0.1666,-0.0758,-8.19,-34.31,32.38,219.61,-89.0,54.3
1391,52.55528,-1.459067,150.53,3.88,2,215.65,25 / 26,139119,2019-11-06 10:44:06:462,-0.0253,-1.2103,10.1224,0.0355,-0.0211,9.8065,-0.0171,0.0929,-0.0619,-8.06,-34.62,32.88,232.69,-88.93,67.19
1392,52.55528,-1.459067,150.53,3.88,2,215.65,25 / 26,139220,2019-11-06 10:44:06:563,0.3964,-1.3792,10.137,0.0075,-0.0237,9.8065,0.0169,-0.0207,0.0224,-8.37,-34.75,32.63,232.69,-88.93,67.19
1393,52.55528,-1.459067,150.53,3.88,2,215.65,25 / 26,139323,2019-11-06 10:44:06:666,2.1728,-1.4325,9.4428,0.0019,0.0205,9.8066,-0.0263,-0.0833,0.0414,-8.56,-34.06,33.56,238.69,-88.97,74.82
1394,52.55528,-1.459067,150.53,3.88,2,215.65,25 / 26,139420,2019-11-06 10:44:06:763,1.275,-2.102,9.353,-0.0176,0.0297,9.8065,-0.0609,0.0284,0.0596,-7.5,-34.31,33.19,231.0,-88.83,63.88
1395,52.55528,-1.459067,150.53,3.88,2,215.65,25 / 26,139520,2019-11-06 10:44:06:863,-0.3765,-1.1893,9.9335,-0.0554,0.075,9.8061,-0.0516,0.1011,-0.0135,-7.75,-34.5,33.06,231.0,-88.83,63.88
1396,52.55528,-1.459067,150.53,3.88,2,215.65,25 / 26,139620,2019-11-06 10:44:06:963,-0.786,0.4534,10.1268,-0.0047,-0.01,9.8066,0.0221,0.1049,-0.0457,-8.37,-34.75,32.75,205.1,-88.69,39.29
1397,52.55528,-1.459067,150.53,3.88,2,215.65,25 / 26,139720,2019-11-06 10:44:07:063,-0.2838,-1.1984,9.6847,0.0067,-0.0241,9.8065,0.0435,-0.0416,0.0589,-7.44,-34.37,32.56,217.17,-88.89,49.81
1398,52.55528,-1.459067,150.53,3.88,2,215.65,25 / 26,139820,2019-11-06 10:44:07:163,1.3866,-1.0872,9.4261,0.0124,-0.0011,9.8066,0.037,-0.0413,0.0348,-7.69,-34.37,32.88,226.16,-89.03,60.49
1399,52.55528,-1.459067,150.53,3.88,2,215.65,25 / 26,139920,2019-11-06 10:44:07:263,1.7057,-1.3481,9.8988,0.0209,0.0065,9.8066,-0.0027,0.1014,-0.084,-8.19,-34.19,32.69,226.16,-89.03,60.49
1400,52.55525,-1.459105,150.95,4.91,2,214.01,25 / 27,140020,2019-11-06 10:44:07:363,0.7755,-1.4564,10.1991,0.002,-0.0032,9.8066,-0.0364,0.2438,-0.0962,-8.37,-34.37,32.13,226.57,-88.89,61.43
1401,52.55525,-1.459105,150.95,4.91,2,214.01,25 / 27,140120,2019-11-06 10:44:07:463,-0.4438,-0.9881,9.8228,-0.0308,-0.0149,9.8065,-0.0196,0.2113,-0.0805,-8.37,-33.94,33.0,227.67,-88.89,62.54
1402,52.55525,-1.459105,150.95,4.91,2,214.01,25 / 27,140220,2019-11-06 10:44:07:563,-1.2698,-0.7032,9.1018,-0.0147,-0.0122,9.8066,0.0363,0.2313,-0.1026,-8.19,-34.44,32.69,224.73,-89.08,59.0
1403,52.55525,-1.459105,150.95,4.91,2,214.01,25 / 27,140320,2019-11-06 10:44:07:663,-0.6841,-0.9948,9.3772,0.0151,-0.0027,9.8066,0.0704,-0.0317,0.0146,-8.25,-33.75,32.88,224.73,-89.08,59.0
1404,52.55525,-1.459105,150.95,4.91,2,214.01,25 / 27,140420,2019-11-06 10:44:07:763,2.7388,-0.4926,9.3318,-0.0038,-0.0117,9.8066,-0.028,0.2651,-0.1612,-8.06,-33.56,33.06,228.99,-89.01,64.98
1405,52.55525,-1.459105,150.95,4.91,2,214.01,25 / 27,140520,2019-11-06 10:44:07:863,0.5454,-0.9717,9.8063,-0.019,-0.0017,9.8065,-0.062,0.2764,-0.0931,-8.25,-34.06,33.06,231.02,-89.16,65.3
1406,52.55525,-1.459105,150.95,4.91,2,214.01,25 / 27,140620,2019-11-06 10:44:07:963,-0.5931,-1.0194,9.9735,-0.0231,0.0,9.8066,0.0676,-0.1828,0.0824,-8.44,-33.94,32.13,224.17,-89.26,58.74
1407,52.55525,-1.459105,150.95,4.91,2,214.01,25 / 27,140720,2019-11-06 10:44:08:063,-0.8988,-1.2809,9.8829,0.0128,0.0093,9.8066,-0.0265,-0.119,0.0746,-8.19,-34.19,32.81,224.17,-89.26,58.74
1408,52.55525,-1.459105,150.95,4.91,2,214.01,25 / 27,140820,2019-11-06 10:44:08:163,0.3569,-0.9082,9.7334,0.017,-0.0048,9.8066,0.0108,0.0595,-0.0324,-8.31,-34.19,32.94,228.34,-89.1,62.64
1409,52.55525,-1.459105,150.95,4.91,2,214.01,25 / 27,140920,2019-11-06 10:44:08:263,1.4287,-0.7898,9.5605,0.0239,-0.0095,9.8066,0.0342,0.1608,-0.1341,-8.69,-34.19,32.31,234.0,-89.02,70.52
1410,52.555206,-1.459148,151.31,5.73,2,213.51,25 / 26,141020,2019-11-06 10:44:08:363,0.7836,-1.1424,10.2271,-0.0003,-0.0178,9.8065,-0.0787,0.1497,-0.0462,-8.37,-34.06,33.19,234.0,-89.02,70.52
1411,52.555206,-1.459148,151.31,5.73,2,213.51,25 / 26,141120,2019-11-06 10:44:08:463,0.1899,-0.68,9.7147,0.0027,0.019,9.8065,-0.0608,0.0277,-0.019,-8.75,-34.19,32.69,241.27,-89.08,75.7
1412,52.555206,-1.459148,151.31,5.73,2,213.51,25 / 26,141220,2019-11-06 10:44:08:563,0.1531,-0.8372,9.5917,-0.0039,-0.0033,9.8066,0.0172,0.0629,0.0135,-9.37,-33.94,32.13,233.4,-89.01,69.91
1413,52.555206,-1.459148,151.31,5.73,2,213.51,25 / 26,141320,2019-11-06 10:44:08:663,1.1427,-0.3829,9.7446,0.0081,-0.0088,9.8066,0.065,0.0988,-0.0977,-8.19,-34.12,32.63,239.42,-89.0,73.9
1414,52.555206,-1.459148,151.31,5.73,2,213.51,25 / 26,141420,2019-11-06 10:44:08:763,0.6865,-0.94,9.513,0.0039,-0.0023,9.8066,-0.048,0.1356,-0.0109,-8.31,-34.75,32.44,239.42,-89.0,73.9
1415,52.555206,-1.459148,151.31,5.73,2,213.51,25 / 26,141520,2019-11-06 10:44:08:863,-0.5108,-0.702,9.6589,-0.0058,-0.0049,9.8066,-0.0426,-0.0115,0.0321,-8.5,-34.44,31.75,243.14,-89.03,78.06
1416,52.555206,-1.459148,151.31,5.73,2,213.51,25 / 26,141620,2019-11-06 10:44:08:963,-0.8063,-0.346,9.9117,-0.0036,0.0068,9.8065,-0.0246,-0.1388,0.0809,-8.56,-34.12,32.38,237.78,-89.05,74.31
1417,52.555206,-1.459148,151.31,5.73,2,213.51,25 / 26,141720,2019-11-06 10:44:09:063,1.5086,0.2985,9.0783,0.0049,0.0314,9.8066,0.0042,-0.046,0.0294,-8.5,-34.5,32.38,237.78,-89.05,74.31
1418,52.555206,-1.459148,151.31,5.73,2,213.51,25 / 26,141820,2019-11-06 10:44:09:163,1.3444,0.6913,9.6798,-0.0185,0.0026,9.8066,-0.0172,0.1057,-0.0342,-8.75,-34.37,31.19,224.53,-88.86,61.56
1419,52.555206,-1.459148,151.31,5.73,2,213.51,25 / 26,141920,2019-11-06 10:44:09:263,0.9183,-0.657,9.4566,-0.0245,-0.0155,9.8066,0.0269,-0.0299,0.0552,-9.0,-34.69,31.56,212.06,-88.99,48.33
1420,52.55516,-1.459197,151.7,5.94,2,212.37,25 / 26,142020,2019-11-06 10:44:09:363,0.4724,-0.631,9.8176,-0.036,-0.0426,9.8064,0.0207,-0.0951,0.0913,-9.0,-35.62,32.06,212.06,-88.99,48.33
1421,52.55516,-1.459197,151.7,5.94,2,212.37,25 / 26,142120,2019-11-06 10:44:09:463,0.1817,0.0387,9.8416,-0.0227,-0.0294,9.8066,-0.0095,0.0329,0.0225,-9.37,-34.81,31.44,208.43,-89.31,44.48
1422,52.55516,-1.459197,151.7,5.94,2,212.37,25 / 26,142219,2019-11-06 10:44:09:562,-1.2763,-0.2689,9.9222,-0.0008,-0.0182,9.8066,0.0308,0.1998,-0.089,-8.94,-34.62,31.75,205.23,-89.63,41.11
1423,52.55516,-1.459197,151.7,5.94,2,212.37,25 / 26,142320,2019-11-06 10:44:09:663,-0.8182,-0.1521,9.9379,0.0014,-0.0424,9.8065,0.0284,0.0202,0.0468,-8.94,-35.19,32.0,242.11,-89.81,77.99
1424,52.55516,-1.459197,151.7,5.94,2,212.37,25 / 26,142420,2019-11-06 10:44:09:763,1.2865,0.9614,9.3067,-0.0132,-0.0406,9.8066,0.0326,-0.2002,0.1061,-9.19,-34.44,32.06,242.11,-89.81,77.99
1425,52.55516,-1.459197,151.7,5.94,2,212.37,25 / 26,142520,2019-11-06 10:44:09:863,1.3259,0.3482,9.446,-0.0283,-0.0293,9.8065,0.0873,-0.2172,0.1611,-9.75,-35.06,32.19,329.18,-89.83,164.98
1426,52.55516,-1.459197,151.7,5.94,2,212.37,25 / 26,142620,2019-11-06 10:44:09:963,-0.4514,-0.2453,9.9151,-0.0416,-0.0505,9.8064,0.0125,-0.0297,0.0228,-10.12,-34.44,31.56,17.73,-89.53,-145.07
1427,52.55516,-1.459197,151.7,5.94,2,212.37,25 / 26,142720,2019-11-06 10:44:10:063,-1.5354,-0.6278,9.9154,0.0026,0.0196,9.8066,-0.0235,0.2452,-0.1505,-10.62,-34.44,31.75,17.73,-89.53,-145.07
1428,52.55516,-1.459197,151.7,5.94,2,212.37,25 / 26,142820,2019-11-06 10:44:10:163,1.258,0.8562,9.9385,0.0354,0.0064,9.8066,-0.0189,0.1492,-0.0963,-10.19,-34.56,32.19,21.0,-89.64,-141.78
1429,52.55516,-1.459197,151.7,5.94,2,212.37,25 / 26,142920,2019-11-06 10:44:10:263,2.0349,0.4066,9.5958,0.0056,-0.0095,9.8066,-0.0164,-0.0444,0.033,-10.69,-34.62,31.75,343.23,-89.69,-177.71
1430,52.55511,-1.459249,152.03,6.28,2,211.47,26 / 27,143020,2019-11-06 10:44:10:363,0.1385,0.0695,10.0353,0.014,-0.0577,9.8065,0.0364,-0.1246,0.0677,-10.87,-33.87,32.13,344.81,-89.35,-176.05
1431,52.55511,-1.459249,152.03,6.28,2,211.47,26 / 27,143119,2019-11-06 10:44:10:462,-0.4078,-1.1724,10.2185,-0.0002,-0.0499,9.8065,0.0771,-0.059,0.0617,-10.19,-34.12,32.25,344.81,-89.35,-176.05
1432,52.55511,-1.459249,152.03,6.28,2,211.47,26 / 27,143219,2019-11-06 10:44:10:562,-0.2841,0.0286,9.6974,-0.0062,-0.023,9.8066,-0.0314,0.0449,0.0003,-9.5,-34.75,32.56,352.88,-89.06,-171.29
1433,52.55511,-1.459249,152.03,6.28,2,211.47,26 / 27,143320,2019-11-06 10:44:10:663,1.0972,-0.1446,9.9865,-0.0037,0.0009,9.8066,0.0115,0.1083,-0.0525,-9.62,-35.06,32.31,355.17,-88.86,-167.37
1434,52.55511,-1.459249,152.03,6.28,2,211.47,26 / 27,143420,2019-11-06 10:44:10:763,0.3865,-0.2125,10.1475,-0.0106,0.0406,9.8065,-0.0914,0.1435,-0.1231,-8.87,-35.12,32.5,355.17,-88.86,-167.37
1435,52.55511,-1.459249,152.03,6.28,2,211.47,26 / 27,143520,2019-11-06 10:44:10:863,-0.1365,-0.2136,10.1481,-0.0056,0.0025,9.8066,0.0087,-0.115,0.0988,-9.44,-35.81,32.31,0.02,-89.1,-164.73
1436,52.55511,-1.459249,152.03,6.28,2,211.47,26 / 27,143620,2019-11-06 10:44:10:963,0.0212,0.2206,9.3901,0.0062,-0.0098,9.8066,0.0633,-0.0598,-0.0105,-9.62,-35.44,32.31,6.42,-89.08,-156.33
1437,52.55511,-1.459249,152.03,6.28,2,211.47,26 / 27,143720,2019-11-06 10:44:11:063,-1.0183,-0.1654,9.9616,-0.0052,-0.0161,9.8066,0.029,-0.054,0.0328,-9.12,-36.06,32.75,6.7,-88.95,-158.17
1438,52.55511,-1.459249,152.03,6.28,2,211.47,26 / 27,143820,2019-11-06 10:44:11:163,-0.5084,-0.299,10.2182,-0.0023,-0.0102,9.8066,-0.0282,-0.0539,0.0189,-9.5,-35.19,32.31,6.7,-88.95,-158.17
1439,52.55511,-1.459249,152.03,6.28,2,211.47,26 / 27,143920,2019-11-06 10:44:11:263,0.6106,-0.2292,9.2719,-0.0026,0.0026,9.8066,0.0305,-0.0739,-0.0026,-9.0,-35.12,32.81,4.18,-88.96,-158.54
1440,52.55506,-1.459298,152.3,6.56,2,212.05,26 / 27,144020,2019-11-06 10:44:11:363,1.202,-0.6866,8.9069,0.0053,-0.0066,9.8066,-0.036,0.1203,-0.0594,-9.25,-35.12,32.75,9.43,-88.96,-155.49
1441,52.55506,-1.459298,152.3,6.56,2,212.05,26 / 27,144120,2019-11-06 10:44:11:463,0.4416,-1.928,9.744,-0.0021,-0.0185,9.8066,-0.0995,0.1222,-0.0945,-9.37,-35.06,32.56,9.43,-88.96,-155.49
1442,52.55506,-1.459298,152.3,6.56,2,212.05,26 / 27,144219,2019-11-06 10:44:11:562,-1.3802,-2.2466,10.2599,-0.0224,0.0139,9.8066,-0.0103,-0.0623,0.0062,-8.5,-35.69,32.63,9.15,-88.85,-155.78
1443,52.55506,-1.459298,152.3,6.56,2,212.05,26 / 27,144320,2019-11-06 10:44:11:663,-0.5869,-1.7719,10.1149,-0.0041,0.0195,9.8066,0.0009,-0.2683,0.1406,-8.31,-35.37,32.63,21.19,-89.0,-145.56
1444,52.55506,-1.459298,152.3,6.56,2,212.05,26 / 27,144420,2019-11-06 10:44:11:763,1.7482,-0.9108,9.2638,0.0041,0.0317,9.8066,0.0022,-0.2422,0.076,-8.81,-34.69,32.0,22.16,-89.18,-142.46
1445,52.55506,-1.459298,152.3,6.56,2,212.05,26 / 27,144520,2019-11-06 10:44:11:863,1.5219,1.8452,9.6548,0.0033,0.0077,9.8066,0.0537,-0.283,0.1354,-8.44,-34.75,32.31,22.16,-89.18,-142.46
1446,52.55506,-1.459298,152.3,6.56,2,212.05,26 / 27,144620,2019-11-06 10:44:11:963,-1.1252,0.9875,9.7587,-0.0221,0.0111,9.8066,-0.0999,0.2021,-0.0635,-8.81,-34.94,32.06,22.09,-89.23,-142.51
1447,52.55506,-1.459298,152.3,6.56,2,212.05,26 / 27,144720,2019-11-06 10:44:12:063,-2.4275,-0.9544,9.9625,-0.0305,0.0078,9.8066,-0.023,0.1926,-0.1983,-8.12,-35.12,32.5,49.59,-89.2,-117.41
1448,52.55506,-1.459298,152.3,6.56,2,212.05,26 / 27,144820,2019-11-06 10:44:12:163,-1.1653,-3.1875,8.6496,-0.0526,0.0404,9.8063,-0.0455,-0.0238,-0.0189,-8.25,-34.87,32.56,49.59,-89.2,-117.41
1449,52.55506,-1.459298,152.3,6.56,2,212.05,26 / 27,144920,2019-11-06 10:44:12:263,0.1274,-1.8958,9.5354,0.0163,-0.009,9.8066,-0.0112,-0.2287,0.1242,-8.44,-34.87,31.63,71.21,-89.04,-94.03
1450,52.555008,-1.459355,152.54,7.27,2,215.29,26 / 27,145020,2019-11-06 10:44:12:363,-0.5356,-0.4472,9.9782,0.0187,-0.0143,9.8066,0.0421,-0.0762,0.0057,-8.19,-35.25,32.0,59.32,-89.17,-107.41
1451,52.555008,-1.459355,152.54,7.27,2,215.29,26 / 27,145120,2019-11-06 10:44:12:463,-1.1912,-0.383,10.393,-0.0087,0.0208,9.8066,-0.1311,-0.0514,-0.0411,-7.94,-34.81,31.5,45.43,-89.36,-121.02
1452,52.555008,-1.459355,152.54,7.27,2,215.29,26 / 27,145220,2019-11-06 10:44:12:563,0.9787,-2.2724,9.5378,0.0056,0.0527,9.8064,0.0366,-0.0856,0.0135,-8.5,-35.19,31.81,45.43,-89.36,-121.02
1453,52.555008,-1.459355,152.54,7.27,2,215.29,26 / 27,145320,2019-11-06 10:44:12:663,0.6733,-0.5318,9.9902,0.0144,-0.0301,9.8066,0.0058,0.0126,-0.0672,-8.25,-35.25,31.25,62.1,-89.6,-104.24
1454,52.555008,-1.459355,152.54,7.27,2,215.29,26 / 27,145420,2019-11-06 10:44:12:763,0.6473,-1.0709,10.2588,0.0202,-0.0069,9.8066,-0.0435,-0.0187,-0.0005,-7.5,-34.75,31.25,30.42,-89.45,-137.16
1455,52.555008,-1.459355,152.54,7.27,2,215.29,26 / 27,145520,2019-11-06 10:44:12:863,0.3817,-1.3139,9.9294,0.0416,-0.0432,9.8064,0.0448,-0.0464,-0.1131,-7.19,-34.69,31.38,30.42,-89.45,-137.16
1456,52.555008,-1.459355,152.54,7.27,2,215.29,26 / 27,145620,2019-11-06 10:44:12:963,-0.6374,-0.0961,10.0587,0.0404,-0.0379,9.8064,-0.0378,-0.1161,0.0624,-7.5,-34.75,31.31,2.44,-89.28,-164.87
1457,52.555008,-1.459355,152.54,7.27,2,215.29,26 / 27,145720,2019-11-06 10:44:13:063,-0.2579,-1.9165,9.8374,0.0227,-0.0092,9.8065,0.076,-0.172,-0.0961,-7.19,-34.75,31.19,342.3,-89.1,175.32
1458,52.555008,-1.459355,152.54,7.27,2,215.29,26 / 27,145819,2019-11-06 10:44:13:162,-0.5122,-0.6973,9.8747,0.0304,0.0019,9.8065,-0.0451,-0.1836,0.042,-7.12,-34.37,30.44,331.28,-89.05,164.93
1459,52.555008,-1.459355,152.54,7.27,2,215.29,26 / 27,145920,2019-11-06 10:44:13:263,-1.1615,-0.2701,9.7983,0.0161,0.0327,9.8065,0.0267,-0.1316,-0.0649,-6.5,-34.81,31.31,331.28,-89.05,164.93
1460,52.55495,-1.459422,152.76,7.98,2,221.2,25 / 26,146021,2019-11-06 10:44:13:364,-1.004,-1.4242,9.5364,0.0042,0.011,9.8066,-0.0481,-0.2656,0.1233,-6.37,-35.37,30.25,321.16,-89.15,153.08
1461,52.55495,-1.459422,152.76,7.98,2,221.2,25 / 26,146120,2019-11-06 10:44:13:463,-2.5111,0.4263,9.6631,-0.0029,0.0048,9.8066,-0.0249,-0.1658,0.0206,-6.31,-34.69,30.13,316.96,-89.18,148.91
1462,52.55495,-1.459422,152.76,7.98,2,221.2,25 / 26,146220,2019-11-06 10:44:13:563,-2.0189,0.096,9.8133,0.0054,0.0011,9.8066,0.0226,-0.0129,-0.0959,-6.06,-34.94,30.5,316.96,-89.18,148.91
1463,52.55495,-1.459422,152.76,7.98,2,221.2,25 / 26,146320,2019-11-06 10:44:13:663,0.1608,0.2403,10.0676,-0.0026,0.003,9.8066,0.07,-0.2356,0.0952,-6.0,-35.06,29.06,314.63,-89.16,147.02
1464,52.55495,-1.459422,152.76,7.98,2,221.2,25 / 26,146420,2019-11-06 10:44:13:763,-0.854,0.5413,10.6484,-0.0235,-0.021,9.8066,-0.0054,-0.2738,0.0407,-5.94,-34.94,30.0,318.55,-89.14,150.51
1465,52.55495,-1.459422,152.76,7.98,2,221.2,25 / 26,146520,2019-11-06 10:44:13:863,-2.2237,-0.344,9.4067,-0.0134,-0.0152,9.8066,0.0986,-0.2941,0.1122,-5.75,-34.69,29.06,336.18,-89.09,168.31
1466,52.55495,-1.459422,152.76,7.98,2,221.2,25 / 26,146620,2019-11-06 10:44:13:963,-0.7485,-0.9943,9.5438,-0.0347,-0.0121,9.8065,-0.0579,-0.3328,0.0992,-5.62,-34.56,29.19,336.18,-89.09,168.31
1467,52.55495,-1.459422,152.76,7.98,2,221.2,25 / 26,146720,2019-11-06 10:44:14:063,0.6014,0.338,9.4113,-0.0058,0.0063,9.8066,-0.037,-0.0771,-0.1351,-5.25,-35.25,28.25,350.41,-89.04,-179.62
1468,52.55495,-1.459422,152.76,7.98,2,221.2,25 / 26,146820,2019-11-06 10:44:14:163,0.1759,0.0617,9.6186,-0.0157,0.0064,9.8066,-0.0483,-0.0517,-0.0404,-5.69,-34.75,28.44,359.92,-89.22,-167.98
1469,52.55495,-1.459422,152.76,7.98,2,221.2,25 / 26,146920,2019-11-06 10:44:14:263,-0.7914,-0.0896,10.095,-0.034,0.01,9.8066,-0.0138,-0.409,0.1551,-5.62,-35.5,28.44,359.92,-89.22,-167.98
1470,52.5549,-1.459505,152.92,8.09,2,230.79,25 / 26,147019,2019-11-06 10:44:14:362,-1.4064,-1.6541,9.618,-0.0369,-0.014,9.8065,0.0511,-0.4246,0.1471,-5.06,-35.25,27.69,17.61,-89.25,-152.55
1471,52.5549,-1.459505,152.92,8.09,2,230.79,25 / 26,147119,2019-11-06 10:44:14:462,-2.281,-1.8292,10.1958,0.0018,-0.0206,9.8066,0.0436,-0.0839,0.0796,-5.19,-35.25,28.19,29.81,-88.8,-140.81
1472,52.5549,-1.459505,152.92,8.09,2,230.79,25 / 26,147221,2019-11-06 10:44:14:564,0.3489,-1.4005,10.1632,0.0046,-0.0502,9.8064,0.019,0.0651,-0.1858,-5.06,-35.06,26.88,22.73,-88.55,-147.5
1473,52.5549,-1.459505,152.92,8.09,2,230.79,25 / 26,147320,2019-11-06 10:44:14:663,0.9999,0.33,10.1551,0.0245,-0.0526,9.8065,0.0522,0.0336,-0.1337,-4.87,-34.87,27.06,22.73,-88.55,-147.5
1474,52.5549,-1.459505,152.92,8.09,2,230.79,25 / 26,147420,2019-11-06 10:44:14:763,-1.7623,1.6971,10.5905,-0.0549,0.0163,9.8064,-0.1147,-0.2165,0.2171,-4.44,-35.37,26.44,16.22,-88.3,-155.97
1475,52.5549,-1.459505,152.92,8.09,2,230.79,25 / 26,147520,2019-11-06 10:44:14:863,-1.9909,-0.3032,10.3372,-0.0806,0.043,9.8062,0.0048,-0.2339,0.0487,-5.12,-34.75,27.06,32.88,-88.32,-137.8
1476,52.5549,-1.459505,152.92,8.09,2,230.79,25 / 26,147620,2019-11-06 10:44:14:963,-0.4026,0.2948,10.4911,-0.0527,0.0429,9.8064,-0.0352,-0.2746,0.1584,-5.06,-35.44,26.81,32.88,-88.32,-137.8
1477,52.5549,-1.459505,152.92,8.09,2,230.79,25 / 26,147720,2019-11-06 10:44:15:063,-1.8292,-2.5655,10.4809,-0.0487,0.0052,9.8064,-0.0316,-0.1039,-0.0038,-4.87,-35.5,26.5,46.58,-88.32,-124.2
1478,52.5549,-1.459505,152.92,8.09,2,230.79,25 / 26,147820,2019-11-06 10:44:15:163,-0.0154,-1.4269,10.4929,0.0064,0.02,9.8066,0.093,-0.2223,0.0488,-4.94,-35.5,26.13,53.57,-88.12,-117.55
1479,52.5549,-1.459505,152.92,8.09,2,230.79,25 / 26,147920,2019-11-06 10:44:15:263,0.156,-1.315,9.8546,-0.0275,0.0548,9.8064,-0.0956,-0.1933,0.0562,-4.75,-34.44,25.19,64.38,-88.15,-106.55
1480,52.554855,-1.459603,153.09,8.77,2,238.93,25 / 26,148023,2019-11-06 10:44:15:366,-4.0324,-2.3866,12.1734,-0.0209,0.0276,9.8065,0.0829,-0.1234,0.1459,-4.75,-35.12,24.63,64.38,-88.15,-106.55
1481,52.554855,-1.459603,153.09,8.77,2,238.93,25 / 26,148120,2019-11-06 10:44:15:463,-6.0191,-1.7395,10.8433,0.0627,0.0335,9.8063,-0.0563,0.4381,-0.2986,-3.94,-36.0,24.94,69.36,-87.78,-104.52
1482,52.554855,-1.459603,153.09,8.77,2,238.93,25 / 26,148220,2019-11-06 10:44:15:563,-2.8311,-0.9056,10.9619,-0.0091,0.0138,9.8066,-0.1374,0.2888,-0.384,-4.0,-35.94,25.06,74.93,-88.1,-98.6
1483,52.554855,-1.459603,153.09,8.77,2,238.93,25 / 26,148320,2019-11-06 10:44:15:663,4.0083,-0.7855,10.2501,0.0167,0.0427,9.8065,-0.0472,-0.5542,0.1805,-3.62,-35.87,24.81,74.93,-88.1,-98.6
1484,52.554855,-1.459603,153.09,8.77,2,238.93,25 / 26,148420,2019-11-06 10:44:15:763,-0.7979,-1.1539,9.0915,0.1362,0.0383,9.8056,0.0353,-0.6695,0.4286,-3.75,-35.81,24.63,84.04,-88.25,-91.55
1485,52.554855,-1.459603,153.09,8.77,2,238.93,25 / 26,148520,2019-11-06 10:44:15:863,-5.7387,-3.3642,9.3792,0.0137,-0.0031,9.8065,-0.0599,-0.1252,-0.0181,-3.44,-35.56,24.19,102.84,-89.26,-71.11
1486,52.554855,-1.459603,153.09,8.77,2,238.93,25 / 26,148620,2019-11-06 10:44:15:963,-3.4285,-4.43,9.1597,0.0087,-0.0185,9.8066,-0.0636,0.5706,-0.3823,-3.0,-36.25,23.94,94.78,-89.32,-79.1
1487,52.554855,-1.459603,153.09,8.77,2,238.93,25 / 26,148720,2019-11-06 10:44:16:063,4.7477,-3.3946,8.8674,0.0081,-0.0281,9.8066,-0.0526,0.0821,-0.0501,-2.62,-35.94,23.94,94.78,-89.32,-79.1
1488,52.554855,-1.459603,153.09,8.77,2,238.93,25 / 26,148820,2019-11-06 10:44:16:163,4.7524,-3.0211,8.8444,0.0936,-0.0297,9.8061,0.06,-0.3967,0.1967,-3.0,-35.12,23.81,80.15,-89.36,-93.64
1489,52.554855,-1.459603,153.09,8.77,2,238.93,25 / 26,148920,2019-11-06 10:44:16:263,-0.8716,-3.3692,9.9221,0.144,-0.043,9.8054,0.078,-0.5184,0.2633,-2.62,-35.31,23.81,327.92,-89.58,155.36
1490,52.554817,-1.459718,153.22,9.53,2,243.46,26 / 27,149020,2019-11-06 10:44:16:363,-3.0242,-3.5099,9.8033,0.043,-0.0357,9.8065,0.0397,-0.1524,0.0119,-3.19,-34.69,23.94,327.92,-89.58,155.36
1491,52.554817,-1.459718,153.22,9.53,2,243.46,26 / 27,149120,2019-11-06 10:44:16:463,-4.0277,-0.1346,10.5351,-0.0227,-0.0506,9.8064,-0.0797,0.2415,-0.2256,-2.75,-35.19,23.75,319.59,-89.26,147.41
1492,52.554817,-1.459718,153.22,9.53,2,243.46,26 / 27,149220,2019-11-06 10:44:16:563,0.728,2.2578,8.8816,0.033,-0.0146,9.8066,-0.1115,0.1218,-0.0184,-2.19,-35.69,23.44,340.44,-89.08,165.89
1493,52.554817,-1.459718,153.22,9.53,2,243.46,26 / 27,149324,2019-11-06 10:44:16:667,0.6086,2.8276,8.8904,0.0758,-0.0235,9.8062,0.0694,0.0411,-0.0816,-3.06,-35.0,24.0,320.42,-88.74,148.71
1494,52.554817,-1.459718,153.22,9.53,2,243.46,26 / 27,149420,2019-11-06 10:44:16:763,-3.3849,2.5484,9.65,0.0316,-0.0587,9.8064,0.1786,-0.2094,-0.0525,-3.0,-35.5,23.31,320.42,-88.74,148.71
1495,52.554817,-1.459718,153.22,9.53,2,243.46,26 / 27,149519,2019-11-06 10:44:16:862,-2.994,0.5895,9.7033,-0.0085,-0.0506,9.8065,0.0222,-0.1231,0.1591,-2.94,-35.06,23.69,324.96,-88.36,151.37
1496,52.554817,-1.459718,153.22,9.53,2,243.46,26 / 27,149620,2019-11-06 10:44:16:963,-1.1755,-1.2003,9.8844,-0.0057,-0.0474,9.8065,0.052,0.2284,-0.1853,-2.06,-35.31,23.38,338.34,-87.9,164.5
1497,52.554817,-1.459718,153.22,9.53,2,243.46,26 / 27,149720,2019-11-06 10:44:17:063,4.1721,-1.8507,8.6672,0.0188,-0.0328,9.8065,-0.1245,0.4,-0.2683,-2.5,-35.37,23.63,338.34,-87.9,164.5
1498,52.554817,-1.459718,153.22,9.53,2,243.46,26 / 27,149820,2019-11-06 10:44:17:163,1.191,-1.709,9.6968,0.0015,0.0334,9.8066,-0.1782,0.0457,-0.0006,-2.12,-35.62,24.06,337.62,-87.68,163.72
1499,52.554817,-1.459718,153.22,9.53,2,243.46,26 / 27,149920,2019-11-06 10:44:17:263,-0.7148,-0.4412,10.0995,-0.0135,0.0197,9.8066,0.1107,-0.1803,-0.0341,-2.69,-35.0,23.31,332.96,-88.08,161.73
1500,52.55478,-1.459848,153.34,10.27,2,244.94,26 / 27,150020,2019-11-06 10:44:17:363,-1.5399,1.2727,10.6447,-0.017,0.0239,9.8065,-0.0209,-0.2229,0.1281,-2.69,-35.37,23.38,333.95,-88.25,162.55
1501,52.55478,-1.459848,153.34,10.27,2,244.94,26 / 27,150120,2019-11-06 10:44:17:463,3.677,-2.1905,10.6323,0.0539,-0.0373,9.8064,-0.0317,0.0179,-0.0346,-2.31,-35.06,23.44,333.95,-88.25,162.55
1502,52.55478,-1.459848,153.34,10.27,2,244.94,26 / 27,150220,2019-11-06 10:44:17:563,3.3091,-1.6997,9.8916,0.039,0.0399,9.8065,0.0216,0.241,-0.2619,-1.81,-34.75,22.81,330.89,-87.91,157.42
1503,52.55478,-1.459848,153.34,10.27,2,244.94,26 / 27,150321,2019-11-06 10:44:17:664,-0.5982,0.1076,9.9978,0.0407,0.0484,9.8064,0.0467,-0.0215,0.0099,-1.62,-34.87,23.0,320.52,-88.01,147.43
1504,52.55478,-1.459848,153.34,10.27,2,244.94,26 / 27,150420,2019-11-06 10:44:17:763,-1.2359,1.9279,9.9286,0.0262,-0.0388,9.8065,0.0509,-0.1385,0.0884,-1.75,-35.0,22.88,320.52,-88.01,147.43
1505,52.55478,-1.459848,153.34,10.27,2,244.94,26 / 27,150520,2019-11-06 10:44:17:863,-1.9368,0.6318,9.2332,-0.0225,-0.0287,9.8066,-0.0103,-0.0471,0.03,-1.19,-35.19,22.69,320.93,-87.74,148.09
1506,52.55478,-1.459848,153.34,10.27,2,244.94,26 / 27,150620,2019-11-06 10:44:17:963,0.9354,-1.8109,9.3123,-0.0436,0.0174,9.8065,-0.1056,0.2209,-0.0502,-1.87,-35.0,22.56,326.28,-87.68,153.23
1507,52.55478,-1.459848,153.34,10.27,2,244.94,26 / 27,150720,2019-11-06 10:44:18:063,0.2494,1.0059,9.6371,-0.118,0.1067,9.8053,-0.0142,0.1719,-0.0799,-1.87,-35.44,21.75,336.22,-88.56,162.34
1508,52.55478,-1.459848,153.34,10.27,2,244.94,26 / 27,150820,2019-11-06 10:44:18:163,-1.1337,0.9179,11.0586,-0.0129,0.0006,9.8066,-0.0868,-0.172,0.0597,-1.94,-35.06,22.25,336.22,-88.56,162.34
1509,52.55478,-1.459848,153.34,10.27,2,244.94,26 / 27,150920,2019-11-06 10:44:18:263,-3.9312,0.2885,9.9775,-0.0039,-0.005,9.8066,0.0204,-0.3227,0.2173,-1.87,-35.37,22.5,339.11,-88.6,165.1
1510,52.55474,-1.459989,153.44,10.63,2,247.01,26 / 27,151021,2019-11-06 10:44:18:364,-4.3761,1.7109,10.2597,0.0093,-0.0199,9.8066,0.1394,-0.1612,0.0399,-1.75,-35.44,21.38,332.89,-88.51,159.46
1511,52.55474,-1.459989,153.44,10.63,2,247.01,26 / 27,151120,2019-11-06 10:44:18:463,-4.299,0.372,11.0519,-0.0539,-0.1088,9.8058,-0.0942,0.403,-0.2072,-2.25,-34.87,21.94,332.89,-88.51,159.46
1512,52.55474,-1.459989,153.44,10.63,2,247.01,26 / 27,151221,2019-11-06 10:44:18:564,2.4285,0.5915,9.7668,0.0152,-0.0317,9.8065,-0.0475,0.3089,-0.1833,-2.37,-35.44,21.63,350.02,-88.0,176.04
1513,52.55474,-1.459989,153.44,10.63,2,247.01,26 / 27,151319,2019-11-06 10:44:18:662,1.7965,1.2789,9.1821,-0.0062,-0.0114,9.8066,0.141,-0.0547,0.011,-2.19,-35.5,22.75,347.99,-87.69,173.69
1514,52.55474,-1.459989,153.44,10.63,2,247.01,26 / 27,151420,2019-11-06 10:44:18:763,-2.5494,0.4745,10.2474,-0.0143,-0.0039,9.8066,-0.0531,-0.2771,0.0979,-2.37,-35.31,21.5,350.64,-87.68,176.44
1515,52.55474,-1.459989,153.44,10.63,2,247.01,26 / 27,151520,2019-11-06 10:44:18:863,-2.8234,1.2308,9.9691,-0.0273,-0.0133,9.8066,0.1334,-0.1578,-0.0326,-2.37,-35.25,21.25,350.64,-87.68,176.44
1516,52.55474,-1.459989,153.44,10.63,2,247.01,26 / 27,151620,2019-11-06 10:44:18:963,-0.8604,0.9837,10.0603,0.0101,-0.0049,9.8066,-0.0204,0.1297,-0.106,-2.37,-35.62,21.88,355.67,-87.6,-178.59
1517,52.55474,-1.459989,153.44,10.63,2,247.01,26 / 27,151720,2019-11-06 10:44:19:063,1.2106,0.4614,9.893,0.0037,-0.0155,9.8066,0.0405,0.1042,-0.0708,-1.56,-35.37,21.94,353.69,-87.45,179.33
1518,52.55474,-1.459989,153.44,10.63,2,247.01,26 / 27,151820,2019-11-06 10:44:19:163,-0.0403,-0.4486,10.099,0.0074,-0.0183,9.8066,-0.0432,0.0632,-0.0115,-2.19,-34.69,22.19,353.69,-87.45,179.33
1519,52.55474,-1.459989,153.44,10.63,2,247.01,26 / 27,151920,2019-11-06 10:44:19:263,0.1198,-0.336,9.96,-0.0109,0.0053,9.8066,0.0562,-0.0583,0.021,-2.44,-35.56,21.88,350.16,-87.34,178.65
1520,52.55474,-1.459989,153.44,10.63,2,247.01,25 / 26,152020,2019-11-06 10:44:19:363,-0.0169,-0.4946,10.5846,0.0014,0.0117,9.8066,-0.1505,0.1102,-0.0492,-2.25,-35.62,21.75,354.01,-87.5,179.64
1521,52.554703,-1.460136,153.53,10.45,2,248.91,25 / 26,152120,2019-11-06 10:44:19:463,1.2925,0.8798,9.1194,-0.0033,0.0011,9.8066,0.0317,0.1635,-0.1193,-2.37,-35.5,21.5,353.66,-87.57,179.28
1522,52.554703,-1.460136,153.53,10.45,2,248.91,25 / 26,152220,2019-11-06 10:44:19:563,2.3322,0.2643,9.2309,0.0053,-0.0284,9.8065,-0.0639,0.0561,0.0335,-2.44,-35.44,20.75,353.04,-87.4,179.01
1523,52.554703,-1.460136,153.53,10.45,2,248.91,25 / 26,152319,2019-11-06 10:44:19:662,2.404,1.0745,8.9078,-0.0171,-0.0398,9.8065,0.0997,-0.0906,0.087,-2.62,-36.37,21.69,353.04,-87.4,179.01
1524,52.554703,-1.460136,153.53,10.45,2,248.91,25 / 26,152420,2019-11-06 10:44:19:763,-0.6539,1.99,9.9615,-0.0237,-0.0217,9.8065,-0.0243,0.1232,0.0268,-2.5,-35.75,22.13,353.3,-87.18,-178.4
1525,52.554703,-1.460136,153.53,10.45,2,248.91,25 / 26,152520,2019-11-06 10:44:19:863,-0.6473,1.6826,8.7178,-0.0358,-0.0102,9.8065,0.1246,0.1665,-0.065,-2.94,-35.94,22.13,1.04,-86.88,-171.29
1526,52.554703,-1.460136,153.53,10.45,2,248.91,25 / 26,152620,2019-11-06 10:44:19:963,-1.3002,0.5539,10.0998,-0.104,-0.0392,9.806,-0.0408,0.0093,0.0397,-3.19,-36.19,22.38,12.33,-86.58,-161.11
1527,52.554703,-1.460136,153.53,10.45,2,248.91,25 / 26,152720,2019-11-06 10:44:20:063,0.0533,2.741,9.3273,-0.0228,0.0381,9.8065,0.0197,-0.0332,0.1461,-3.37,-36.81,22.19,12.33,-86.58,-161.11
1528,52.554703,-1.460136,153.53,10.45,2,248.91,25 / 26,152820,2019-11-06 10:44:20:163,-0.191,1.2765,10.3899,-0.0141,0.0178,9.8065,-0.1593,0.019,0.0764,-3.75,-35.94,21.56,16.06,-87.07,-154.96
1529,52.554703,-1.460136,153.53,10.45,2,248.91,25 / 26,152920,2019-11-06 10:44:20:263,-0.3682,1.7788,9.4474,-0.0038,0.0038,9.8066,0.0426,0.0047,0.0038,-2.94,-36.25,22.69,24.33,-87.24,-150.03
1530,52.554665,-1.460276,153.6,10.33,2,245.84,26 / 27,153020,2019-11-06 10:44:20:363,-0.8948,1.7373,9.8431,-0.0012,0.0016,9.8066,0.0536,0.093,-0.0863,-2.81,-36.0,22.31,24.33,-87.24,-150.03
1531,52.554665,-1.460276,153.6,10.33,2,245.84,26 / 27,153120,2019-11-06 10:44:20:463,0.7826,-0.7005,10.2836,-0.0027,0.0282,9.8066,-0.1906,0.1645,0.0022,-2.75,-36.06,22.06,24.28,-87.42,-149.7
1532,52.554665,-1.460276,153.6,10.33,2,245.84,26 / 27,153220,2019-11-06 10:44:20:563,0.2873,0.7199,11.0347,-0.0016,0.0047,9.8066,0.1439,-0.0998,0.0299,-3.5,-36.19,22.25,28.36,-87.61,-145.74
1533,52.554665,-1.460276,153.6,10.33,2,245.84,26 / 27,153320,2019-11-06 10:44:20:663,1.3827,0.1958,10.5732,-0.0066,-0.0069,9.8066,-0.0803,-0.0814,0.1079,-2.81,-35.75,22.81,29.04,-87.55,-145.39
1534,52.554665,-1.460276,153.6,10.33,2,245.84,26 / 27,153420,2019-11-06 10:44:20:763,0.904,-0.2719,10.7941,-0.0078,-0.056,9.8064,0.1222,0.0508,-0.0544,-3.06,-35.69,23.25,29.04,-87.55,-145.39
1535,52.554665,-1.460276,153.6,10.33,2,245.84,26 / 27,153520,2019-11-06 10:44:20:863,0.239,-1.7689,10.622,-0.0197,0.009,9.8066,0.0417,0.1037,-0.0928,-2.75,-35.62,22.75,26.03,-87.22,-148.46
1536,52.554665,-1.460276,153.6,10.33,2,245.84,26 / 27,153620,2019-11-06 10:44:20:963,0.0822,-0.7525,10.914,-0.0342,0.0334,9.8064,0.1115,0.1113,-0.0674,-3.94,-36.06,22.31,29.0,-87.29,-142.84
1537,52.554665,-1.460276,153.6,10.33,2,245.84,26 / 27,153720,2019-11-06 10:44:21:063,1.0295,0.9459,10.2945,0.0266,-0.0087,9.8066,-0.0598,0.0648,-0.0246,-3.87,-35.06,22.88,29.0,-87.29,-142.84
1538,52.554665,-1.460276,153.6,10.33,2,245.84,26 / 27,153820,2019-11-06 10:44:21:163,0.9212,-1.3421,9.6602,-0.001,0.0004,9.8066,-0.0661,0.0627,0.0392,-3.44,-35.12,22.13,28.29,-87.32,-146.28
1539,52.554665,-1.460276,153.6,10.33,2,245.84,26 / 27,153920,2019-11-06 10:44:21:263,2.107,0.8328,9.3575,-0.0096,0.014,9.8066,0.0338,0.19,-0.197,-3.87,-35.37,22.56,27.63,-87.36,-144.37
1540,52.554623,-1.460415,153.67,10.49,2,245.6,26 / 26,154020,2019-11-06 10:44:21:363,-0.8998,-1.2726,10.4499,-0.0659,-0.011,9.8064,-0.0365,-0.1262,0.0879,-3.56,-35.69,22.5,27.63,-87.36,-144.37
1541,52.554623,-1.460415,153.67,10.49,2,245.6,26 / 26,154120,2019-11-06 10:44:21:463,-1.5815,1.2313,10.5423,-0.0318,0.0429,9.8064,0.0776,-0.176,0.0215,-3.87,-35.69,22.94,34.44,-87.11,-138.18
1542,52.554623,-1.460415,153.67,10.49,2,245.6,26 / 26,154220,2019-11-06 10:44:21:563,-1.2959,1.3897,10.2779,-0.01,-0.0023,9.8066,0.0207,-0.1244,-0.0005,-3.44,-35.5,21.81,43.15,-87.2,-132.15
1543,52.554623,-1.460415,153.67,10.49,2,245.6,26 / 26,154320,2019-11-06 10:44:21:663,-0.7,-0.5344,9.5071,0.001,-0.029,9.8066,0.033,-0.1325,-0.0328,-3.62,-36.19,21.81,38.15,-87.07,-134.5
1544,52.554623,-1.460415,153.67,10.49,2,245.6,26 / 26,154420,2019-11-06 10:44:21:763,-0.0793,1.3128,9.335,0.0348,0.0374,9.8065,0.074,-0.1602,-0.019,-3.56,-35.81,21.94,38.15,-87.07,-134.5
1545,52.554623,-1.460415,153.67,10.49,2,245.6,26 / 26,154520,2019-11-06 10:44:21:863,0.2966,0.1633,9.1991,-0.0003,-0.0025,9.8066,-0.0012,-0.2478,0.105,-3.0,-35.62,21.44,37.24,-87.37,-135.05
1546,52.554623,-1.460415,153.67,10.49,2,245.6,26 / 26,154619,2019-11-06 10:44:21:962,-0.7444,1.3595,9.6188,0.0173,0.0182,9.8065,-0.0915,-0.1044,0.0209,-3.19,-35.94,21.06,39.01,-87.4,-135.67
1547,52.554623,-1.460415,153.67,10.49,2,245.6,26 / 26,154719,2019-11-06 10:44:22:062,-0.0665,-0.8342,10.0311,0.0404,-0.0252,9.8065,0.1348,-0.1155,-0.088,-2.81,-35.44,21.0,39.01,-87.4,-135.67
1548,52.554623,-1.460415,153.67,10.49,2,245.6,26 / 26,154820,2019-11-06 10:44:22:163,-0.8018,-0.227,10.6699,0.0137,-0.0119,9.8065,-0.0024,0.0859,-0.1094,-2.62,-35.19,21.31,32.42,-87.42,-141.82
1549,52.554623,-1.460415,153.67,10.49,2,245.6,26 / 26,154920,2019-11-06 10:44:22:263,2.6313,-0.5703,9.9916,0.0088,-0.0282,9.8066,0.0162,0.0176,-0.0741,-2.37,-35.81,21.13,29.95,-87.5,-146.76
1550,52.55459,-1.460557,153.7,10.8,2,249.68,26 / 26,155020,2019-11-06 10:44:22:363,1.4318,0.8117,9.2918,0.0106,0.0248,9.8065,-0.0708,-0.117,0.0492,-3.0,-35.56,21.0,24.61,-87.34,-149.17
1551,52.55459,-1.460557,153.7,10.8,2,249.68,26 / 26,155120,2019-11-06 10:44:22:463,-1.8472,0.8467,10.2916,-0.005,0.0248,9.8065,0.0643,-0.2402,0.2004,-2.56,-35.81,21.13,24.61,-87.34,-149.17
1552,52.55459,-1.460557,153.7,10.8,2,249.68,26 / 26,155220,2019-11-06 10:44:22:563,-2.0334,0.0272,10.3221,-0.0226,0.0143,9.8066,0.0239,0.2324,-0.0993,-2.06,-36.19,21.31,29.64,-87.44,-147.25
1553,52.55459,-1.460557,153.7,10.8,2,249.68,26 / 26,155320,2019-11-06 10:44:22:663,3.6172,0.5437,8.6282,0.0099,-0.0376,9.8065,-0.0845,0.374,-0.152,-2.44,-36.0,21.5,30.7,-87.41,-146.29
1554,52.55459,-1.460557,153.7,10.8,2,249.68,26 / 26,155420,2019-11-06 10:44:22:763,4.4113,0.4103,9.0687,-0.0019,-0.061,9.8065,0.004,0.0147,0.0393,-2.56,-36.0,21.25,30.7,-87.41,-146.29
1555,52.55459,-1.460557,153.7,10.8,2,249.68,26 / 26,155520,2019-11-06 10:44:22:863,-3.9839,1.5027,9.3144,-0.0791,-0.0346,9.8062,0.094,-0.3305,0.1504,-2.62,-35.94,22.38,24.54,-87.09,-149.69
1556,52.55459,-1.460557,153.7,10.8,2,249.68,26 / 26,155620,2019-11-06 10:44:22:963,-2.2801,1.4464,10.0013,0.0253,0.0208,9.8065,0.084,-0.4885,0.2871,-3.25,-35.81,21.5,31.67,-86.73,-143.39
1557,52.55459,-1.460557,153.7,10.8,2,249.68,26 / 26,155720,2019-11-06 10:44:23:063,1.4708,1.786,8.9151,0.0511,0.0189,9.8064,0.0687,0.0229,-0.1178,-2.56,-35.81,21.5,27.42,-86.97,-147.11
1558,52.55459,-1.460557,153.7,10.8,2,249.68,26 / 26,155820,2019-11-06 10:44:23:163,2.0757,0.5435,10.1505,-0.0179,-0.0098,9.8066,0.0064,0.3045,-0.1235,-3.31,-35.87,21.81,27.42,-86.97,-147.11
1559,52.55459,-1.460557,153.7,10.8,2,249.68,26 / 26,155920,2019-11-06 10:44:23:263,-0.7794,0.4165,9.5996,0.0044,-0.0013,9.8066,-0.0602,0.3258,-0.2006,-3.19,-36.12,21.75,28.55,-86.87,-145.89
1560,52.55459,-1.460557,153.7,10.8,2,249.68,26 / 26,156019,2019-11-06 10:44:23:362,-2.0778,-0.4906,10.172,0.0109,0.0016,9.8066,0.0592,-0.3672,0.1913,-2.69,-36.31,21.13,27.48,-86.91,-146.85
1561,52.55455,-1.460711,153.73,10.94,2,249.52,25 / 25,156119,2019-11-06 10:44:23:462,-0.6216,-0.1815,9.8349,0.0204,0.0326,9.8065,0.0154,-0.2826,0.1935,-2.62,-36.12,21.25,27.48,-86.91,-146.85
1562,52.55455,-1.460711,153.73,10.94,2,249.52,25 / 25,156219,2019-11-06 10:44:23:562,4.2062,0.406,9.8151,0.0024,0.046,9.8065,0.0014,-0.1662,0.081,-2.81,-35.69,21.5,27.18,-87.13,-147.2
1563,52.55455,-1.460711,153.73,10.94,2,249.52,25 / 25,156319,2019-11-06 10:44:23:662,3.2639,1.6339,9.5986,-0.0178,0.01,9.8066,-0.0004,0.3505,-0.1477,-2.87,-35.75,21.13,29.27,-87.38,-144.8
1564,52.55455,-1.460711,153.73,10.94,2,249.52,25 / 25,156420,2019-11-06 10:44:23:763,-1.5989,-0.5789,10.3075,-0.0177,0.0017,9.8066,-0.082,0.295,-0.0649,-3.62,-35.44,21.0,28.57,-87.33,-142.76
1565,52.55455,-1.460711,153.73,10.94,2,249.52,25 / 25,156520,2019-11-06 10:44:23:863,0.97,1.1676,10.0832,0.0489,0.0336,9.8065,0.0706,0.0668,-0.1233,-2.56,-36.25,21.44,28.57,-87.33,-142.76
1566,52.55455,-1.460711,153.73,10.94,2,249.52,25 / 25,156620,2019-11-06 10:44:23:963,3.1954,1.3149,10.7632,0.0171,-0.0251,9.8066,-0.0212,-0.1308,0.0868,-2.5,-36.12,20.81,30.03,-87.64,-146.57
1567,52.55455,-1.460711,153.73,10.94,2,249.52,25 / 25,156720,2019-11-06 10:44:24:063,-0.9345,-0.384,10.6266,-0.0223,0.0023,9.8066,-0.0234,-0.337,0.1357,-2.31,-35.87,21.44,25.44,-87.46,-151.0
1568,52.55455,-1.460711,153.73,10.94,2,249.52,25 / 25,156820,2019-11-06 10:44:24:163,-2.2249,0.5023,10.2192,-0.0148,0.023,9.8065,-0.0177,-0.0888,-0.0207,-2.81,-35.37,20.94,25.44,-87.46,-151.0
1569,52.55455,-1.460711,153.73,10.94,2,249.52,25 / 25,156920,2019-11-06 10:44:24:263,0.7899,1.3003,9.6222,0.0201,0.0186,9.8065,0.0005,0.0776,0.0319,-3.06,-35.94,21.44,28.76,-87.54,-147.84
1570,52.55452,-1.460858,153.75,10.86,2,248.6,26 / 26,157020,2019-11-06 10:44:24:363,2.521,3.4264,9.3557,0.019,0.0186,9.8066,-0.0694,0.3675,-0.2118,-2.81,-35.87,21.13,24.55,-87.69,-148.97
1571,52.55452,-1.460858,153.75,10.86,2,248.6,26 / 26,157120,2019-11-06 10:44:24:463,-0.9974,1.5309,9.9102,0.0172,-0.023,9.8066,0.0256,0.2553,-0.1451,-2.56,-35.06,21.0,20.81,-87.6,-152.49
1572,52.55452,-1.460858,153.75,10.86,2,248.6,26 / 26,157220,2019-11-06 10:44:24:563,-0.1672,0.334,9.243,0.0202,-0.0312,9.8065,0.0082,-0.0398,0.0412,-2.5,-35.12,21.31,20.81,-87.6,-152.49
1573,52.55452,-1.460858,153.75,10.86,2,248.6,26 / 26,157320,2019-11-06 10:44:24:663,-0.9833,-0.5912,10.4976,-0.0005,-0.0014,9.8066,0.0121,-0.0811,0.0503,-2.5,-35.75,21.38,15.48,-87.37,-157.59
1574,52.55452,-1.460858,153.75,10.86,2,248.6,26 / 26,157420,2019-11-06 10:44:24:763,2.3993,0.7512,9.5711,0.0026,0.0264,9.8065,-0.0877,0.0529,0.0134,-2.06,-35.62,21.69,19.41,-87.62,-156.7
1575,52.55452,-1.460858,153.75,10.86,2,248.6,26 / 26,157520,2019-11-06 10:44:24:863,2.091,1.0547,9.4744,-0.006,0.0449,9.8065,-0.0465,0.1958,-0.1212,-2.5,-35.44,21.88,19.41,-87.62,-156.7
1576,52.55452,-1.460858,153.75,10.86,2,248.6,26 / 26,157620,2019-11-06 10:44:24:963,-1.4646,2.0696,10.2006,-0.0301,0.0114,9.8066,-0.0056,0.1443,-0.0981,-2.87,-35.69,21.69,22.68,-87.85,-153.49
1577,52.55452,-1.460858,153.75,10.86,2,248.6,26 / 26,157720,2019-11-06 10:44:25:063,-1.2778,1.574,10.247,-0.0029,-0.0228,9.8066,0.0446,-0.0701,0.0849,-2.37,-35.62,21.69,28.96,-87.76,-147.63
1578,52.55452,-1.460858,153.75,10.86,2,248.6,26 / 26,157819,2019-11-06 10:44:25:162,1.1868,1.1335,9.3167,0.0121,-0.042,9.8065,-0.029,-0.1894,0.1344,-2.19,-35.19,21.88,24.52,-87.57,-151.9
1579,52.55452,-1.460858,153.75,10.86,2,248.6,26 / 26,157920,2019-11-06 10:44:25:263,0.5945,0.7862,9.7273,-0.0166,-0.0353,9.8065,0.0871,-0.1491,0.0992,-2.25,-35.31,21.5,24.52,-87.57,-151.9
1580,52.554485,-1.461006,153.79,10.56,2,248.18,26 / 26,158020,2019-11-06 10:44:25:363,-0.4423,2.2838,9.8779,0.0042,-0.0019,9.8066,-0.09,0.2386,-0.0253,-2.81,-35.69,21.75,22.03,-87.35,-151.84
1581,52.554485,-1.461006,153.79,10.56,2,248.18,26 / 26,158119,2019-11-06 10:44:25:462,-2.2434,1.5131,10.5231,-0.0093,-0.0001,9.8066,-0.0603,0.1674,-0.0616,-2.69,-35.44,22.06,23.15,-87.32,-150.76
1582,52.554485,-1.461006,153.79,10.56,2,248.18,26 / 26,158220,2019-11-06 10:44:25:563,-0.6473,2.0613,9.9658,-0.0181,-0.0014,9.8066,-0.0275,-0.0052,0.0864,-2.31,-35.06,21.25,27.91,-87.27,-148.79
1583,52.554485,-1.461006,153.79,10.56,2,248.18,26 / 26,158319,2019-11-06 10:44:25:662,-1.0535,2.3212,10.0089,-0.011,-0.0452,9.8064,0.1561,0.037,-0.0669,-2.87,-35.44,21.06,27.91,-87.27,-148.79
1584,52.554485,-1.461006,153.79,10.56,2,248.18,26 / 26,158420,2019-11-06 10:44:25:763,0.0953,2.3292,9.5244,-0.0005,-0.0239,9.8066,-0.0589,0.1152,0.0189,-2.94,-35.94,21.25,23.88,-87.01,-150.08
1585,52.554485,-1.461006,153.79,10.56,2,248.18,26 / 26,158520,2019-11-06 10:44:25:863,0.4933,2.1745,9.6343,0.0006,-0.0039,9.8066,0.113,0.0687,-0.192,-2.69,-36.44,21.56,21.43,-86.72,-152.78
1586,52.554485,-1.461006,153.79,10.56,2,248.18,26 / 26,158621,2019-11-06 10:44:25:964,-1.0574,1.1894,10.0638,-0.0033,-0.0057,9.8066,-0.0077,-0.105,0.1371,-2.75,-35.69,21.31,21.26,-86.68,-152.68
1587,52.554485,-1.461006,153.79,10.56,2,248.18,26 / 26,158720,2019-11-06 10:44:26:063,-1.4162,0.8126,10.1794,0.0061,0.009,9.8066,-0.0512,-0.2107,0.1007,-3.12,-35.94,21.69,21.26,-86.68,-152.68
1588,52.554485,-1.461006,153.79,10.56,2,248.18,26 / 26,158820,2019-11-06 10:44:26:163,1.6825,0.8174,9.8592,0.0016,0.0106,9.8066,-0.0333,-0.1328,0.1239,-2.81,-35.5,21.31,22.21,-86.83,-151.67
1589,52.554485,-1.461006,153.79,10.56,2,248.18,26 / 26,158920,2019-11-06 10:44:26:263,1.0343,1.1207,9.7052,-0.0032,0.0061,9.8066,0.0037,0.1129,-0.0801,-3.25,-35.56,21.44,22.86,-86.85,-151.12
1590,52.554447,-1.461149,153.82,10.24,2,248.84,26 / 26,159021,2019-11-06 10:44:26:364,0.9671,1.0947,9.979,-0.0069,-0.0068,9.8066,0.0202,0.1112,-0.0858,-3.62,-35.81,22.0,22.86,-86.85,-151.12
1591,52.554447,-1.461149,153.82,10.24,2,248.84,26 / 26,159120,2019-11-06 10:44:26:463,-0.2868,1.1052,9.6024,-0.0217,0.0016,9.8065,-0.0644,-0.008,0.0824,-3.62,-34.69,21.88,20.78,-86.8,-150.72
1592,52.554447,-1.461149,153.82,10.24,2,248.84,26 / 26,159220,2019-11-06 10:44:26:563,-0.9925,1.7281,9.932,-0.0209,0.009,9.8065,0.0512,0.0307,-0.0673,-4.19,-34.69,21.69,23.37,-86.8,-148.34
1593,52.554447,-1.461149,153.82,10.24,2,248.84,26 / 26,159320,2019-11-06 10:44:26:663,-0.0847,1.9456,9.5399,-0.0142,0.0067,9.8066,-0.0944,0.0306,0.0345,-3.75,-34.12,20.69,24.67,-86.81,-146.7
1594,52.554447,-1.461149,153.82,10.24,2,248.84,26 / 26,159420,2019-11-06 10:44:26:763,-0.6331,2.0986,9.5379,0.0021,-0.0033,9.8066,0.0411,0.0141,0.0025,-3.31,-34.56,20.31,24.67,-86.81,-146.7
1595,52.554447,-1.461149,153.82,10.24,2,248.84,26 / 26,159520,2019-11-06 10:44:26:863,-0.0378,1.001,9.4852,0.0081,0.0056,9.8066,0.0993,-0.0018,-0.0654,-2.81,-35.06,20.0,26.98,-86.79,-147.04
1596,52.554447,-1.461149,153.82,10.24,2,248.84,26 / 26,159620,2019-11-06 10:44:26:963,-0.6169,2.0047,9.3052,0.0283,0.0073,9.8066,-0.0287,0.0344,-0.0411,-3.06,-35.25,20.5,24.62,-86.9,-149.41
1597,52.554447,-1.461149,153.82,10.24,2,248.84,26 / 26,159720,2019-11-06 10:44:27:063,-1.2168,2.1591,9.6569,0.0131,0.0151,9.8066,0.1047,0.1127,-0.1457,-3.31,-35.12,21.0,24.62,-86.9,-149.41
1598,52.554447,-1.461149,153.82,10.24,2,248.84,26 / 26,159820,2019-11-06 10:44:27:163,-0.7983,0.632,8.893,0.0086,0.0061,9.8066,-0.0058,-0.092,0.0909,-2.19,-36.06,21.0,20.94,-87.01,-150.05
1599,52.554447,-1.461149,153.82,10.24,2,248.84,26 / 26,159921,2019-11-06 10:44:27:264,-0.6322,2.9428,9.0145,-0.0025,0.0007,9.8066,-0.0685,-0.0603,0.0623,-2.37,-36.0,20.94,25.57,-87.1,-151.16
1600,52.554417,-1.461288,153.85,9.75,2,248.7,26 / 26,160020,2019-11-06 10:44:27:363,-0.7141,2.5594,9.5674,-0.0015,0.0342,9.8066,-0.0383,-0.0151,0.0197,-2.56,-36.0,20.75,25.4,-87.16,-148.57
1601,52.554417,-1.461288,153.85,9.75,2,248.7,26 / 26,160120,2019-11-06 10:44:27:463,-0.5893,2.3014,8.6105,0.0022,0.0401,9.8065,-0.0361,-0.1044,0.1415,-2.94,-35.5,21.19,25.4,-87.16,-148.57
1602,52.554417,-1.461288,153.85,9.75,2,248.7,26 / 26,160220,2019-11-06 10:44:27:563,-1.1825,2.3617,9.5282,0.0021,0.0151,9.8066,0.0412,0.1152,-0.1084,-2.31,-35.87,21.25,29.7,-87.32,-147.16
1603,52.554417,-1.461288,153.85,9.75,2,248.7,26 / 26,160321,2019-11-06 10:44:27:664,0.0528,1.2372,9.7459,0.0019,0.0221,9.8066,0.0246,0.1845,-0.0956,-3.37,-36.0,20.75,27.99,-87.44,-145.94
1604,52.554417,-1.461288,153.85,9.75,2,248.7,26 / 26,160420,2019-11-06 10:44:27:763,1.3756,1.8549,9.7372,-0.0046,0.0014,9.8066,-0.0176,-0.1113,0.1213,-2.81,-36.19,21.13,27.99,-87.44,-145.94
1605,52.554417,-1.461288,153.85,9.75,2,248.7,26 / 26,160520,2019-11-06 10:44:27:863,2.0817,1.7382,9.9326,0.0062,-0.0003,9.8066,0.0679,0.1135,-0.0942,-2.87,-35.5,21.63,28.59,-87.43,-145.33
1606,52.554417,-1.461288,153.85,9.75,2,248.7,26 / 26,160620,2019-11-06 10:44:27:963,2.5084,1.9702,9.7676,0.0009,0.0126,9.8066,-0.0491,0.2872,-0.1945,-3.0,-36.06,21.75,29.64,-87.5,-144.63
1607,52.554417,-1.461288,153.85,9.75,2,248.7,26 / 26,160720,2019-11-06 10:44:28:063,-0.0478,1.8897,9.8189,0.02,0.0346,9.8065,-0.0628,0.1645,-0.0635,-3.56,-35.31,20.88,26.21,-87.73,-144.66
1608,52.554417,-1.461288,153.85,9.75,2,248.7,26 / 26,160820,2019-11-06 10:44:28:163,-3.4912,1.2329,10.584,0.0081,0.0065,9.8066,0.0185,-0.2194,0.1303,-2.75,-36.0,20.56,26.21,-87.73,-144.66
1609,52.554417,-1.461288,153.85,9.75,2,248.7,26 / 26,160920,2019-11-06 10:44:28:263,-0.9751,1.7037,9.9726,0.0412,0.0162,9.8065,0.0576,0.1425,0.0056,-3.87,-36.0,19.94,25.03,-87.79,-145.33
1610,52.554382,-1.461414,153.86,8.77,2,246.14,26 / 26,161020,2019-11-06 10:44:28:363,5.1098,2.8598,8.5809,0.0601,0.0067,9.8064,-0.0672,0.6293,-0.3674,-3.69,-37.25,21.0,16.44,-87.95,-153.79
1611,52.554382,-1.461414,153.86,8.77,2,246.14,26 / 26,161120,2019-11-06 10:44:28:463,3.6253,2.1434,9.4638,-0.0641,-0.0196,9.8064,-0.0448,0.5995,-0.2314,-4.5,-36.75,21.63,16.44,-87.95,-153.79
1612,52.554382,-1.461414,153.86,8.77,2,246.14,26 / 26,161220,2019-11-06 10:44:28:563,-1.8942,1.6906,10.6771,-0.0063,0.0062,9.8066,0.1105,-0.6507,0.3864,-3.87,-35.69,23.13,26.17,-87.71,-145.58
1613,52.554382,-1.461414,153.86,8.77,2,246.14,26 / 26,161320,2019-11-06 10:44:28:663,-4.1331,0.6431,10.7698,0.0586,0.0251,9.8064,0.1387,-0.7718,0.4053,-4.12,-35.31,22.63,25.53,-87.96,-145.93
1614,52.554382,-1.461414,153.86,8.77,2,246.14,26 / 26,161420,2019-11-06 10:44:28:763,6.6213,2.2504,8.4201,0.0679,-0.0004,9.8064,0.1328,-0.2339,0.2423,-3.69,-35.19,22.75,14.01,-88.1,-156.82
1615,52.554382,-1.461414,153.86,8.77,2,246.14,26 / 26,161520,2019-11-06 10:44:28:863,7.2355,3.2279,8.9074,-0.0422,-0.0303,9.8064,-0.0319,0.5521,-0.2679,-4.0,-35.25,23.69,14.01,-88.1,-156.82
1616,52.554382,-1.461414,153.86,8.77,2,246.14,26 / 26,161620,2019-11-06 10:44:28:963,1.3773,0.7668,10.3969,-0.0285,0.0109,9.8066,-0.093,0.4679,-0.1808,-4.06,-35.62,23.81,24.92,-87.73,-147.05
1617,52.554382,-1.461414,153.86,8.77,2,246.14,26 / 26,161720,2019-11-06 10:44:29:063,-3.0246,0.9675,10.9719,0.034,0.0353,9.8065,-0.0259,-0.0422,0.1502,-4.25,-36.44,23.38,30.51,-87.77,-141.38
1618,52.554382,-1.461414,153.86,8.77,2,246.14,26 / 26,161820,2019-11-06 10:44:29:163,0.7194,0.9337,10.1131,0.0494,0.0568,9.8063,0.1223,-0.3263,0.2226,-4.25,-36.12,23.5,30.51,-87.77,-141.38
1619,52.554382,-1.461414,153.86,8.77,2,246.14,26 / 26,161920,2019-11-06 10:44:29:263,3.6655,1.8701,9.5648,-0.0165,0.0001,9.8066,-0.0103,-0.1789,0.1816,-3.94,-35.5,23.88,28.24,-88.14,-141.3
