,GPS LATITUDE (degrees), GPS LONGITUDE (degrees), GPS ALTITUDE (m), GPS SPEED (Kmh), GPS ACCURACY (m), GPS ORIENTATION (Â°),GPS SATELLITES IN RANGE, TIME SINCE START (ms), DATE (YYYY-MO-DD HH-MI-SS_SSS), ACCELEROMETER X (m/s²) , ACCELEROMETER Y (m/s²), ACCELEROMETER Z (m/s²), GRAVITY X (m/s²), GRAVITY Y (m/s²), GRAVITY Z (m/s²), GYROSCOPE Yaw (rad/s), GYROSCOPE Pitch (rad/s), GYROSCOPE Roll (rad/s), MAGNETIC FIELD X (Î¼T), MAGNETIC FIELD Y (Î¼T), MAGNETIC FIELD Z (Î¼T), ORIENTATION (Yaw) (Â°), ORIENTATION (Pitch) (Â°), ORIENTATION (Roll ) (Â°)
2300,52.392555,-1.252057,153.42,22.28,3,37.65,17 / 18,706408,2019-09-04 20:18:18:521,-1.2335,0.2343,9.8496,-0.0001,-0.0174,9.8066,-0.0148,0.0221,0.0268,-14.75,-29.19,-8.75,329.26,-87.53,-87.66
2301,52.392555,-1.252057,153.42,22.28,3,37.65,17 / 18,706507,2019-09-04 20:18:18:620,-0.966,0.5144,9.1583,0.0051,-0.0115,9.8066,0.0073,0.0028,0.0303,-14.81,-28.87,-8.81,329.57,-87.27,-87.15
2302,52.392555,-1.252057,153.42,22.28,3,37.65,17 / 18,706608,2019-09-04 20:18:18:721,-1.3582,0.3796,10.0876,0.0052,-0.0108,9.8066,-0.0203,0.0267,0.0312,-14.5,-28.87,-8.75,327.33,-87.13,-87.2
2303,52.392555,-1.252057,153.42,22.28,3,37.65,17 / 18,706707,2019-09-04 20:18:18:820,-0.9199,-0.1406,10.4399,0.008,-0.0065,9.8066,0.0251,0.0169,0.0008,-14.69,-28.94,-9.5,330.03,-86.96,-86.45
2304,52.392555,-1.252057,153.42,22.28,3,37.65,17 / 18,706808,2019-09-04 20:18:18:921,-0.9995,0.783,9.5407,0.0039,0.0043,9.8066,0.0055,0.0172,0.0021,-14.87,-29.31,-8.5,330.89,-86.91,-88.44
2305,52.392555,-1.252057,153.42,22.28,3,37.65,17 / 18,706908,2019-09-04 20:18:19:021,-1.5177,0.0634,9.792,0.0032,-0.0116,9.8066,-0.0044,0.0238,0.0215,-14.12,-29.44,-8.62,326.86,-86.83,-87.35
2306,52.392555,-1.252057,153.42,22.28,3,37.65,17 / 18,707008,2019-09-04 20:18:19:121,-1.0129,-0.0409,9.9944,0.0104,-0.0042,9.8066,0.0244,0.0071,0.0137,-14.56,-29.5,-8.69,328.44,-86.64,-87.63
2307,52.392555,-1.252057,153.42,22.28,3,37.65,17 / 18,707108,2019-09-04 20:18:19:221,-1.2485,-0.6565,10.5588,0.0106,0.0105,9.8066,0.0394,0.0196,-0.0215,-14.31,-29.0,-8.37,326.24,-86.62,-90.6
2308,52.392555,-1.252057,153.42,22.28,3,37.65,17 / 18,707207,2019-09-04 20:18:19:320,-0.3932,-0.4205,9.4914,-0.0056,0.0285,9.8065,0.0228,0.0292,-0.0433,-14.81,-29.31,-9.0,322.2,-86.84,-93.58
2309,52.392555,-1.252057,153.42,22.28,3,37.65,17 / 18,707311,2019-09-04 20:18:19:424,-0.601,0.277,9.4061,-0.0214,0.0067,9.8065,-0.0424,0.0232,-0.0413,-13.94,-29.31,-8.25,323.3,-87.04,-93.74
2310,52.392555,-1.252057,153.42,22.28,3,37.65,17 / 17,707407,2019-09-04 20:18:19:520,-1.3301,-0.2412,9.4556,-0.0171,-0.0146,9.8066,-0.0484,0.0121,0.0016,-14.44,-29.19,-9.37,327.41,-87.2,-87.2
2311,52.392555,-1.252057,153.42,22.28,3,37.65,17 / 17,707508,2019-09-04 20:18:19:621,-1.1863,0.1873,9.7211,0.0048,-0.0118,9.8066,-0.0033,0.0181,0.0256,-14.31,-29.5,-8.81,331.34,-87.14,-83.51
2312,52.392555,-1.252057,153.42,22.28,3,37.65,17 / 17,707608,2019-09-04 20:18:19:721,-1.2824,-0.0851,9.9974,0.0085,-0.0068,9.8066,0.0171,0.005,0.0106,-14.37,-28.87,-8.37,333.84,-86.93,-83.95
2313,52.392555,-1.252057,153.42,22.28,3,37.65,17 / 17,707707,2019-09-04 20:18:19:820,-0.5301,-0.1358,10.3261,0.0121,-0.0017,9.8066,0.0092,0.0065,0.0192,-14.5,-29.19,-9.06,327.48,-86.82,-86.77
2314,52.392555,-1.252057,153.42,22.28,3,37.65,17 / 17,707808,2019-09-04 20:18:19:921,-0.9468,0.0137,10.771,-0.0018,0.0007,9.8066,-0.0047,0.0237,-0.0009,-14.31,-29.06,-8.12,330.45,-86.78,-86.91
2315,52.392555,-1.252057,153.42,22.28,3,37.65,17 / 17,707908,2019-09-04 20:18:20:021,-0.9474,-0.1081,10.1753,-0.0058,0.0025,9.8066,-0.0019,0.0203,-0.0212,-14.56,-29.12,-8.31,332.77,-86.79,-86.61
2316,52.392555,-1.252057,153.42,22.28,3,37.65,17 / 17,708008,2019-09-04 20:18:20:121,-0.9519,0.2452,9.5087,-0.0052,-0.0019,9.8066,-0.0044,0.025,0.0007,-14.25,-29.06,-8.94,329.11,-86.86,-85.3
2317,52.392555,-1.252057,153.42,22.28,3,37.65,17 / 17,708108,2019-09-04 20:18:20:221,-1.887,-0.0508,9.7347,-0.0036,-0.0097,9.8066,-0.0262,0.0161,0.0072,-14.69,-28.56,-8.81,332.32,-86.84,-84.24
2318,52.392555,-1.252057,153.42,22.28,3,37.65,17 / 17,708208,2019-09-04 20:18:20:321,-1.3332,-0.405,9.8152,0.0059,-0.0076,9.8066,0.0094,0.0061,0.0083,-14.31,-28.87,-9.31,331.6,-86.7,-82.89
2319,52.392555,-1.252057,153.42,22.28,3,37.65,16 / 16,708308,2019-09-04 20:18:20:421,-0.9842,0.061,9.2362,0.0066,0.0068,9.8066,0.0186,0.0107,0.0027,-14.56,-29.37,-9.19,331.22,-86.71,-85.15
2320,52.392555,-1.252057,153.42,22.28,3,37.65,16 / 16,708408,2019-09-04 20:18:20:521,-1.4623,-0.1557,9.6115,-0.0012,-0.0076,9.8066,-0.0312,0.0234,0.0011,-14.31,-29.25,-9.0,329.03,-86.65,-85.18
2321,52.392555,-1.252057,153.42,22.28,3,37.65,16 / 16,708508,2019-09-04 20:18:20:621,-1.0691,-0.013,9.1792,-0.004,-0.01,9.8065,-0.0206,0.0012,0.0097,-14.5,-29.31,-9.44,331.29,-86.58,-83.07
2322,52.392555,-1.252057,153.42,22.28,3,37.65,16 / 16,708608,2019-09-04 20:18:20:721,-1.1219,-0.0796,10.0205,0.0017,-0.0165,9.8065,-0.0266,0.0047,0.048,-14.69,-29.44,-9.56,332.74,-86.42,-80.88
2323,52.392555,-1.252057,153.42,22.28,3,37.65,16 / 16,708708,2019-09-04 20:18:20:821,-0.9844,-1.1831,10.6014,0.0129,-0.0255,9.8065,0.0074,0.0012,0.0482,-15.0,-29.0,-9.69,333.73,-86.14,-79.78
2324,52.392555,-1.252057,153.42,22.28,3,37.65,16 / 16,708807,2019-09-04 20:18:20:920,-0.9655,-0.2607,10.1014,0.0048,0.0062,9.8066,0.0279,0.0118,-0.026,-14.5,-29.06,-9.62,330.19,-85.9,-80.78
2325,52.392555,-1.252057,153.42,22.28,3,37.65,16 / 16,708908,2019-09-04 20:18:21:021,-1.4751,0.3149,8.7289,-0.0063,0.0031,9.8066,-0.0313,0.0188,-0.0114,-14.37,-28.94,-8.81,331.98,-86.04,-81.98
2326,52.392555,-1.252057,153.42,22.28,3,37.65,16 / 16,709007,2019-09-04 20:18:21:120,-1.3197,-0.3648,9.8357,-0.0025,-0.0179,9.8066,-0.0146,0.0043,0.0336,-15.0,-29.31,-9.44,336.33,-85.94,-79.96
2327,52.392555,-1.252057,153.42,22.28,3,37.65,16 / 16,709108,2019-09-04 20:18:21:221,-1.6288,0.1919,10.5364,0.0168,-0.014,9.8065,0.021,-0.0167,0.0523,-14.69,-29.5,-8.56,336.4,-85.74,-79.75
2328,52.392555,-1.252057,153.42,22.28,3,37.65,16 / 16,709208,2019-09-04 20:18:21:321,-1.2143,-0.5452,10.5388,0.0207,-0.013,9.8065,0.0277,0.0058,0.0315,-15.06,-29.25,-8.87,333.2,-85.38,-82.31
2329,52.392555,-1.252057,153.42,22.28,3,37.65,16 / 16,709307,2019-09-04 20:18:21:420,-1.104,0.0551,9.4742,0.003,-0.0044,9.8066,0.0089,0.0034,0.0084,-15.81,-28.87,-8.94,333.52,-85.25,-83.69
2330,52.392555,-1.252057,153.42,22.28,3,37.65,16 / 16,709407,2019-09-04 20:18:21:520,-1.1206,-0.2597,9.4405,-0.0059,-0.0043,9.8066,-0.0217,0.0063,-0.0237,-15.31,-28.81,-8.56,331.87,-85.18,-83.31
2331,52.392555,-1.252057,153.42,22.28,3,37.65,16 / 16,709507,2019-09-04 20:18:21:620,-1.0399,0.1623,9.4807,-0.0052,-0.0091,9.8066,-0.0265,0.0058,0.0111,-14.75,-28.87,-9.37,333.77,-85.17,-81.65
2332,52.392555,-1.252057,153.42,22.28,3,37.65,16 / 16,709608,2019-09-04 20:18:21:721,-1.2757,-0.1457,9.2304,-0.0094,-0.0026,9.8066,-0.0021,-0.0001,-0.0045,-15.56,-28.25,-8.94,337.54,-85.15,-80.21
2333,52.392555,-1.252057,153.42,22.28,3,37.65,16 / 16,709707,2019-09-04 20:18:21:820,-1.0402,0.6415,10.5015,0.0024,-0.0016,9.8066,0.0211,0.0019,0.018,-15.25,-29.19,-8.81,335.17,-85.11,-80.39
2334,52.392555,-1.252057,153.42,22.28,3,37.65,16 / 16,709808,2019-09-04 20:18:21:921,-0.7352,-0.6404,10.011,0.0125,-0.0055,9.8066,-0.0077,-0.0169,0.0252,-15.69,-29.12,-8.94,335.64,-85.0,-81.66
2335,52.392555,-1.252057,153.42,22.28,3,37.65,16 / 16,709908,2019-09-04 20:18:22:021,-1.1275,-0.4863,9.6827,-0.0101,-0.0063,9.8066,-0.0285,0.0048,0.0108,-15.69,-28.75,-9.5,336.29,-84.88,-81.02
2336,52.392555,-1.252057,153.42,22.28,3,37.65,16 / 16,710007,2019-09-04 20:18:22:120,-1.3478,-0.8807,9.9591,-0.0069,-0.0018,9.8066,-0.0073,-0.0046,-0.0147,-15.87,-28.31,-9.37,338.53,-84.86,-79.16
2337,52.392555,-1.252057,153.42,22.28,3,37.65,16 / 16,710108,2019-09-04 20:18:22:221,-1.8958,-0.9185,10.0789,0.0104,0.0042,9.8066,0.038,-0.0119,0.0159,-16.25,-28.94,-9.12,337.79,-84.85,-79.7
2338,52.392555,-1.252057,153.42,22.28,3,37.65,16 / 16,710208,2019-09-04 20:18:22:321,-0.5424,-0.7021,10.3906,0.0153,-0.0037,9.8066,0.0317,-0.0298,0.0283,-16.37,-28.37,-8.56,335.79,-84.75,-81.48
2339,52.392555,-1.252057,153.42,22.28,3,37.65,16 / 16,710307,2019-09-04 20:18:22:420,-0.7726,-0.2693,10.0871,0.0077,-0.0124,9.8065,-0.0012,-0.0053,0.0362,-16.12,-28.56,-8.5,337.62,-84.68,-82.44
2340,52.392555,-1.252057,153.42,22.28,3,37.65,16 / 16,710407,2019-09-04 20:18:22:520,-1.4717,-0.5824,9.7162,0.0002,-0.0055,9.8066,-0.0018,0.0084,0.0199,-15.75,-28.5,-8.87,334.41,-84.48,-82.49
2341,52.392555,-1.252057,153.42,22.28,3,37.65,16 / 16,710508,2019-09-04 20:18:22:621,-0.892,-0.4659,9.7384,0.0029,-0.0097,9.8066,-0.0015,0.0038,0.0118,-15.87,-28.62,-9.06,333.93,-84.39,-82.7
2342,52.392555,-1.252057,153.42,22.28,3,37.65,16 / 16,710607,2019-09-04 20:18:22:720,-0.8517,-0.376,9.7685,-0.0009,-0.0049,9.8066,-0.0131,0.0042,0.011,-15.81,-28.06,-9.12,334.45,-84.27,-82.31
2343,52.392555,-1.252057,153.42,22.28,3,37.65,16 / 16,710708,2019-09-04 20:18:22:821,-0.9289,-0.6403,9.6675,-0.0078,-0.0057,9.8066,-0.0105,0.0151,0.0003,-16.44,-28.94,-9.69,332.8,-84.25,-81.04
2344,52.392555,-1.252057,153.42,22.28,3,37.65,16 / 16,710808,2019-09-04 20:18:22:921,-1.3557,0.3748,10.6797,-0.0036,-0.0008,9.8066,0.0023,0.0168,0.001,-15.44,-28.62,-9.19,334.39,-84.25,-80.41
2345,52.392555,-1.252057,153.42,22.28,3,37.65,16 / 16,710907,2019-09-04 20:18:23:020,-1.9606,-0.2401,10.3452,0.0111,-0.0022,9.8066,0.0375,0.0146,0.0334,-15.94,-28.25,-9.62,333.14,-84.23,-80.87
2346,52.392555,-1.252057,153.42,22.28,3,37.65,16 / 16,711008,2019-09-04 20:18:23:121,-1.0871,-0.0735,10.1806,0.0149,-0.0072,9.8065,0.0047,0.0021,0.0193,-16.0,-28.19,-8.81,333.79,-84.04,-82.71
2347,52.392555,-1.252057,153.42,22.28,3,37.65,16 / 16,711108,2019-09-04 20:18:23:221,-1.1023,-0.6363,9.6873,0.0047,-0.0119,9.8066,-0.0001,0.0055,0.0147,-16.37,-28.87,-8.75,333.5,-83.92,-82.73
2348,52.392555,-1.252057,153.42,22.28,3,37.65,16 / 16,711208,2019-09-04 20:18:23:321,-1.3562,0.2177,9.7073,-0.0037,-0.0001,9.8066,-0.0016,0.0085,0.0052,-15.87,-28.75,-9.06,333.82,-83.83,-82.39
2349,52.392555,-1.252057,153.42,22.28,3,37.65,16 / 16,711308,2019-09-04 20:18:23:421,-0.7644,0.1995,9.7718,-0.0024,-0.0087,9.8066,-0.0147,0.0174,0.0175,-16.31,-28.75,-8.81,334.55,-83.75,-81.72
2350,52.393894,-1.250328,157.88,17.93,4,36.59,17 / 17,711408,2019-09-04 20:18:23:521,-1.6348,-0.5779,9.3346,-0.0168,-0.0386,9.8065,-0.0296,0.0161,0.0269,-16.5,-29.06,-9.0,336.4,-83.59,-80.06
2351,52.393894,-1.250328,157.88,17.93,4,36.59,17 / 17,711508,2019-09-04 20:18:23:621,-1.0331,0.2606,10.1962,-0.0062,-0.0041,9.8066,-0.0166,-0.0075,-0.009,-16.06,-29.19,-8.5,340.64,-83.51,-79.2
2352,52.393894,-1.250328,157.88,17.93,4,36.59,17 / 17,711607,2019-09-04 20:18:23:720,-1.1483,-0.1001,10.6069,0.0012,-0.0008,9.8066,0.0158,0.0046,0.0047,-16.62,-28.31,-9.25,340.29,-83.52,-78.52
2353,52.393894,-1.250328,157.88,17.93,4,36.59,17 / 17,711708,2019-09-04 20:18:23:821,-1.4144,-0.2405,10.2008,0.0058,0.012,9.8066,0.0475,0.0117,-0.0199,-16.12,-29.44,-9.56,334.04,-83.56,-79.48
2354,52.393894,-1.250328,157.88,17.93,4,36.59,17 / 17,711807,2019-09-04 20:18:23:920,-0.8589,0.2036,10.1394,0.0064,0.004,9.8066,0.01,0.0006,0.0066,-15.94,-28.5,-9.31,335.24,-83.61,-81.18
2355,52.393894,-1.250328,157.88,17.93,4,36.59,17 / 17,711908,2019-09-04 20:18:24:021,-0.9318,-0.1427,9.8914,-0.0059,-0.0088,9.8066,-0.0351,-0.0008,0.013,-16.06,-28.69,-9.44,335.21,-83.56,-81.03
2356,52.393894,-1.250328,157.88,17.93,4,36.59,17 / 17,712007,2019-09-04 20:18:24:120,-1.2252,-0.3945,9.7213,-0.0097,-0.0105,9.8066,-0.0137,0.0096,0.015,-15.81,-29.12,-9.06,337.51,-83.41,-79.02
2357,52.393894,-1.250328,157.88,17.93,4,36.59,17 / 17,712107,2019-09-04 20:18:24:220,-1.1258,-0.2377,9.9384,0.001,0.0028,9.8066,0.019,-0.0092,-0.0174,-15.44,-29.19,-8.81,335.44,-83.38,-78.89
2358,52.393894,-1.250328,157.88,17.93,4,36.59,17 / 17,712208,2019-09-04 20:18:24:321,-0.8481,0.0921,9.9629,0.005,0.001,9.8066,0.0071,-0.0111,0.0034,-16.12,-28.44,-8.94,337.1,-83.45,-79.52
2359,52.393894,-1.250328,157.88,17.93,4,36.59,17 / 17,712308,2019-09-04 20:18:24:421,-1.0989,-0.5023,9.9844,-0.0025,-0.002,9.8066,0.0056,-0.0083,-0.0113,-14.87,-28.94,-9.12,334.32,-83.43,-79.85
2360,52.393894,-1.250328,157.88,17.93,4,36.59,16 / 17,712408,2019-09-04 20:18:24:521,-0.7916,-0.0243,10.7398,0.0041,0.0042,9.8066,0.022,-0.0078,-0.0138,-16.12,-29.0,-9.12,336.67,-83.44,-79.74
2361,52.393894,-1.250328,157.88,17.93,4,36.59,16 / 17,712507,2019-09-04 20:18:24:620,-0.9465,-0.7199,10.5781,0.0077,0.0131,9.8066,0.0453,0.0002,-0.033,-16.19,-28.69,-8.31,338.43,-83.55,-81.04
2362,52.393894,-1.250328,157.88,17.93,4,36.59,16 / 17,712608,2019-09-04 20:18:24:721,-0.7884,0.0314,9.9965,0.0075,0.0109,9.8066,0.0188,0.0054,-0.0061,-15.5,-29.0,-8.69,331.15,-83.72,-82.71
2363,52.393894,-1.250328,157.88,17.93,4,36.59,16 / 17,712707,2019-09-04 20:18:24:820,-0.5236,0.3312,9.1351,-0.007,-0.003,9.8066,-0.0331,-0.0074,0.0223,-16.19,-29.19,-8.5,336.13,-83.77,-83.09
2364,52.393894,-1.250328,157.88,17.93,4,36.59,16 / 17,712808,2019-09-04 20:18:24:921,-0.976,0.1785,9.2057,-0.0077,-0.0278,9.8066,-0.054,-0.0113,0.0564,-16.12,-28.5,-9.0,335.08,-83.56,-81.29
2365,52.393894,-1.250328,157.88,17.93,4,36.59,16 / 17,712908,2019-09-04 20:18:25:021,-1.4415,-0.791,9.1349,-0.0046,-0.032,9.8065,-0.0467,-0.0405,0.0609,-16.06,-28.62,-9.12,334.9,-83.56,-81.29
2366,52.393894,-1.250328,157.88,17.93,4,36.59,16 / 17,713007,2019-09-04 20:18:25:120,-1.2948,-0.8019,10.977,0.0217,0.012,9.8065,0.0901,-0.0076,-0.02,-16.56,-28.94,-8.19,339.24,-82.88,-81.52
2367,52.393894,-1.250328,157.88,17.93,4,36.59,16 / 17,713108,2019-09-04 20:18:25:221,-0.9195,-0.3682,11.2465,0.0288,0.0319,9.8065,0.1025,-0.0058,-0.0573,-16.25,-28.81,-7.69,333.15,-83.04,-85.02
2368,52.393894,-1.250328,157.88,17.93,4,36.59,16 / 17,713208,2019-09-04 20:18:25:321,-1.2147,-0.7567,9.7618,0.0014,0.0337,9.8065,0.0263,-0.0105,-0.063,-16.5,-29.0,-7.94,329.73,-83.33,-88.09
2369,52.393894,-1.250328,157.88,17.93,4,36.59,17 / 18,713307,2019-09-04 20:18:25:420,-0.4972,-0.1232,9.6955,-0.0136,0.0106,9.8065,-0.03,-0.0238,-0.0314,-16.12,-28.87,-8.06,329.03,-83.73,-89.02
2370,52.393894,-1.250328,157.88,17.93,4,36.59,17 / 18,713407,2019-09-04 20:18:25:520,-1.0664,-0.3123,9.9633,-0.0189,-0.0121,9.8066,-0.0383,-0.0242,0.0236,-16.19,-29.31,-8.06,333.09,-83.84,-85.69
2371,52.393894,-1.250328,157.88,17.93,4,36.59,17 / 18,713508,2019-09-04 20:18:25:621,-1.6033,-1.6014,9.0516,-0.0065,-0.0144,9.8066,-0.0175,-0.0411,0.0195,-16.25,-28.87,-8.19,334.61,-83.7,-84.32
2372,52.393894,-1.250328,157.88,17.93,4,36.59,17 / 18,713607,2019-09-04 20:18:25:720,-1.2906,-1.3204,9.8172,0.0109,-0.0136,9.8066,0.0032,-0.048,0.0215,-16.62,-29.0,-8.56,333.49,-83.56,-84.13
2373,52.393894,-1.250328,157.88,17.93,4,36.59,17 / 18,713708,2019-09-04 20:18:25:821,-0.5268,-0.5249,10.5989,0.0121,-0.006,9.8065,0.0078,-0.0219,0.0122,-16.69,-29.56,-8.19,335.26,-83.33,-84.94
2374,52.393894,-1.250328,157.88,17.93,4,36.59,17 / 18,713808,2019-09-04 20:18:25:921,-1.5755,-0.9601,9.4103,0.0011,0.0107,9.8066,-0.0151,-0.0397,0.0051,-17.19,-29.5,-7.19,338.5,-83.42,-85.18
2375,52.393894,-1.250328,157.88,17.93,4,36.59,17 / 18,713908,2019-09-04 20:18:26:021,-0.5535,-1.1723,10.3269,-0.0097,-0.0016,9.8066,-0.0176,-0.0318,-0.0419,-16.87,-28.5,-7.62,336.1,-83.47,-84.61
2376,52.393894,-1.250328,157.88,17.93,4,36.59,17 / 18,714008,2019-09-04 20:18:26:121,-1.3997,-0.3575,9.791,-0.0012,0.0085,9.8066,0.0106,-0.0213,-0.019,-16.62,-28.75,-7.69,336.54,-83.72,-84.27
2377,52.393894,-1.250328,157.88,17.93,4,36.59,17 / 18,714108,2019-09-04 20:18:26:221,-1.3528,-0.8337,9.5912,-0.0011,-0.0003,9.8066,0.0097,-0.042,0.0083,-16.62,-28.19,-8.44,336.59,-83.74,-84.38
2378,52.393894,-1.250328,157.88,17.93,4,36.59,17 / 18,714208,2019-09-04 20:18:26:321,-1.0731,-0.5435,9.9396,0.0024,-0.0081,9.8066,0.0072,-0.0357,0.0084,-16.37,-29.56,-7.94,334.18,-83.65,-84.47
2379,52.393894,-1.250328,157.88,17.93,4,36.59,17 / 18,714307,2019-09-04 20:18:26:420,-1.6935,-1.7549,9.2753,0.0014,-0.008,9.8066,0.0084,-0.0375,0.0075,-16.44,-29.0,-7.94,334.26,-83.51,-84.46
2380,52.393894,-1.250328,157.88,17.93,4,36.59,17 / 18,714408,2019-09-04 20:18:26:521,-0.8685,-0.2492,9.7697,0.0031,0.0019,9.8066,0.017,-0.0392,-0.0095,-16.62,-29.12,-7.75,335.66,-83.53,-84.89
2381,52.393894,-1.250328,157.88,17.93,4,36.59,17 / 18,714507,2019-09-04 20:18:26:620,-1.2936,-0.9052,9.6575,-0.0071,0.002,9.8066,-0.0076,-0.0322,-0.0158,-16.94,-29.12,-7.75,335.58,-83.59,-84.99
2382,52.393894,-1.250328,157.88,17.93,4,36.59,17 / 18,714607,2019-09-04 20:18:26:720,0.062,0.2113,9.7691,-0.0066,-0.0071,9.8066,-0.0168,-0.0374,0.0117,-16.56,-29.25,-7.56,337.22,-83.59,-83.62
2383,52.393894,-1.250328,157.88,17.93,4,36.59,17 / 18,714708,2019-09-04 20:18:26:821,-1.1171,-0.8407,9.4779,0.0003,-0.0145,9.8065,-0.0056,-0.0425,0.0216,-15.94,-29.37,-7.5,339.38,-83.46,-83.04
2384,52.393894,-1.250328,157.88,17.93,4,36.59,17 / 18,714808,2019-09-04 20:18:26:921,-0.4325,-1.0675,10.2045,0.0033,-0.0149,9.8066,-0.0119,-0.0382,0.018,-16.12,-29.56,-7.81,335.95,-83.34,-82.79
2385,52.393894,-1.250328,157.88,17.93,4,36.59,17 / 18,714908,2019-09-04 20:18:27:021,-1.8975,-0.689,10.1107,-0.0008,0.0029,9.8066,0.0203,-0.0351,-0.0035,-17.0,-29.0,-7.5,341.69,-83.23,-82.46
2386,52.393894,-1.250328,157.88,17.93,4,36.59,17 / 18,715008,2019-09-04 20:18:27:121,-1.7895,-1.9272,11.2893,0.0237,-0.0031,9.8065,0.0686,-0.0473,-0.0122,-17.87,-28.69,-7.12,342.05,-83.16,-83.42
2387,52.393894,-1.250328,157.88,17.93,4,36.59,17 / 18,715107,2019-09-04 20:18:27:220,-1.1623,0.1195,9.1066,0.0003,0.0274,9.8066,0.0275,-0.0393,-0.0461,-17.0,-28.87,-7.31,337.11,-83.32,-86.27
2388,52.393894,-1.250328,157.88,17.93,4,36.59,17 / 18,715207,2019-09-04 20:18:27:320,-0.2061,-0.2253,9.8102,-0.0144,-0.0079,9.8066,-0.0958,-0.0533,-0.0178,-17.19,-29.19,-6.31,341.93,-83.43,-85.24
2389,52.393894,-1.250328,157.88,17.93,4,36.59,17 / 18,715308,2019-09-04 20:18:27:421,-1.0328,-0.5152,9.947,-0.0212,-0.0041,9.8065,-0.0521,-0.0391,-0.0207,-16.81,-28.62,-7.44,341.69,-83.47,-82.58
2390,52.393894,-1.250328,157.88,17.93,4,36.59,17 / 17,715407,2019-09-04 20:18:27:520,-1.5544,-0.6915,9.3632,-0.0117,-0.0008,9.8065,-0.0092,-0.042,-0.0077,-17.19,-28.62,-7.12,343.92,-83.52,-80.77
2391,52.393894,-1.250328,157.88,17.93,4,36.59,17 / 17,715507,2019-09-04 20:18:27:620,-1.136,-0.2508,9.9568,0.0047,0.0014,9.8066,0.0169,-0.0383,0.0062,-17.06,-29.19,-7.19,344.47,-83.54,-80.33
2392,52.393894,-1.250328,157.88,17.93,4,36.59,17 / 17,715608,2019-09-04 20:18:27:721,-1.1028,-0.6204,9.9945,0.0165,0.0067,9.8066,0.0521,-0.0339,0.0019,-17.19,-28.94,-7.0,342.93,-83.53,-81.59
2393,52.393894,-1.250328,157.88,17.93,4,36.59,17 / 17,715708,2019-09-04 20:18:27:821,-0.9093,-0.0749,9.2916,0.0098,0.0081,9.8066,0.0248,-0.0319,-0.0077,-16.81,-29.5,-7.0,339.89,-83.57,-84.13
2394,52.393894,-1.250328,157.88,17.93,4,36.59,17 / 17,715808,2019-09-04 20:18:27:921,-0.7261,-0.4948,9.3607,-0.0131,-0.0084,9.8066,-0.0578,-0.0383,-0.014,-17.37,-29.37,-6.69,340.76,-83.56,-83.4
2395,52.393894,-1.250328,157.88,17.93,4,36.59,17 / 17,715908,2019-09-04 20:18:28:021,-1.5164,-0.1569,9.6581,-0.0239,-0.0069,9.8066,-0.0505,-0.03,-0.0216,-17.06,-29.62,-6.94,343.59,-83.56,-80.96
2396,52.393894,-1.250328,157.88,17.93,4,36.59,17 / 17,716008,2019-09-04 20:18:28:121,-1.4944,-0.5345,9.9483,-0.0033,0.0056,9.8066,0.0185,-0.0228,-0.029,-16.81,-28.94,-6.94,345.67,-83.57,-79.36
2397,52.393894,-1.250328,157.88,17.93,4,36.59,17 / 17,716107,2019-09-04 20:18:28:220,-1.0886,0.1541,9.7059,0.01,0.0128,9.8066,0.0532,-0.0172,-0.0202,-17.19,-29.25,-6.37,348.25,-83.73,-80.2
2398,52.393894,-1.250328,157.88,17.93,4,36.59,17 / 17,716207,2019-09-04 20:18:28:320,-0.5545,0.3993,9.299,-0.0033,0.0106,9.8066,-0.0023,-0.0206,-0.0318,-16.19,-28.5,-6.69,341.31,-83.83,-81.79
2399,52.393894,-1.250328,157.88,17.93,4,36.59,17 / 17,716308,2019-09-04 20:18:28:421,-1.1219,0.2426,9.8319,-0.0139,0.0004,9.8066,-0.0292,-0.0161,-0.0213,-16.62,-29.31,-7.25,344.33,-83.98,-80.65
2400,52.393894,-1.250328,157.88,17.93,4,36.59,17 / 17,716407,2019-09-04 20:18:28:520,-1.1935,0.0394,10.3619,-0.006,0.0056,9.8066,0.0184,0.0015,-0.0218,-16.87,-29.62,-6.62,346.35,-84.03,-78.9
2401,52.393894,-1.250328,157.88,17.93,4,36.59,17 / 17,716508,2019-09-04 20:18:28:621,-1.4409,0.2946,10.1737,0.0118,0.004,9.8066,0.0433,-0.0057,-0.0023,-16.81,-29.69,-6.87,345.06,-84.07,-79.99
2402,52.393894,-1.250328,157.88,17.93,4,36.59,17 / 17,716607,2019-09-04 20:18:28:720,-0.7673,0.1148,9.7275,0.0124,-0.0027,9.8066,0.022,0.0044,0.0094,-16.62,-29.25,-6.31,346.63,-84.06,-81.66
2403,52.393894,-1.250328,157.88,17.93,4,36.59,17 / 17,716708,2019-09-04 20:18:28:821,-1.4181,0.3627,9.5483,0.006,-0.0086,9.8066,0.0015,0.0084,0.018,-16.87,-29.25,-6.56,341.64,-83.93,-82.87
2404,52.393894,-1.250328,157.88,17.93,4,36.59,17 / 17,716808,2019-09-04 20:18:28:921,-0.8426,0.2622,9.8755,-0.0026,-0.0184,9.8066,-0.014,0.012,0.0393,-16.87,-29.31,-7.06,342.16,-83.81,-82.38
2405,52.393894,-1.250328,157.88,17.93,4,36.59,17 / 17,716907,2019-09-04 20:18:29:020,-0.9901,0.1902,9.2235,-0.0079,-0.007,9.8066,-0.009,0.0149,-0.0022,-17.0,-29.0,-6.75,343.69,-83.6,-81.0
2406,52.393894,-1.250328,157.88,17.93,4,36.59,17 / 17,717008,2019-09-04 20:18:29:121,-1.0477,0.861,9.6829,-0.0074,-0.0077,9.8066,-0.007,0.0407,0.0054,-17.19,-29.5,-7.0,344.99,-83.53,-79.9
2407,52.393894,-1.250328,157.88,17.93,4,36.59,17 / 17,717108,2019-09-04 20:18:29:221,-0.9565,1.0359,9.5437,-0.0089,-0.0008,9.8066,-0.0116,0.0492,-0.0255,-17.06,-29.75,-6.56,345.7,-83.51,-79.22
2408,52.393894,-1.250328,157.88,17.93,4,36.59,17 / 17,717208,2019-09-04 20:18:29:321,-1.3437,0.6499,9.2228,-0.0159,0.0037,9.8065,-0.0266,0.0885,-0.0386,-16.81,-28.69,-7.12,347.31,-83.59,-78.01
2409,52.393894,-1.250328,157.88,17.93,4,36.59,17 / 17,717307,2019-09-04 20:18:29:420,-1.2492,1.5455,9.4967,-0.0223,0.001,9.8066,-0.0347,0.1065,-0.0311,-16.5,-30.06,-7.37,349.22,-83.72,-75.08
2410,52.393894,-1.250328,157.88,17.93,4,36.59,17 / 17,717407,2019-09-04 20:18:29:520,-1.6631,1.4804,9.6515,-0.0249,0.0024,9.8065,-0.0284,0.1352,-0.0323,-15.69,-29.56,-7.19,352.46,-83.78,-72.47
2411,52.393894,-1.250328,157.88,17.93,4,36.59,17 / 17,717508,2019-09-04 20:18:29:621,-2.1415,2.0528,10.1467,-0.0226,0.0058,9.8065,-0.0099,0.1542,-0.0267,-15.94,-29.56,-7.56,353.5,-83.91,-68.74
2412,52.393894,-1.250328,157.88,17.93,4,36.59,17 / 17,717608,2019-09-04 20:18:29:721,-2.1965,2.1467,9.2446,-0.009,0.0017,9.8066,0.0058,0.1814,-0.0014,-16.0,-29.69,-7.87,355.99,-83.99,-66.72
2413,52.393894,-1.250328,157.88,17.93,4,36.59,17 / 17,717708,2019-09-04 20:18:29:821,-1.8803,1.6271,10.5353,-0.0125,-0.0002,9.8066,-0.0024,0.1976,-0.0151,-15.37,-29.31,-8.37,355.68,-83.99,-65.46
2414,52.393894,-1.250328,157.88,17.93,4,36.59,17 / 17,717808,2019-09-04 20:18:29:921,-2.5847,2.2808,9.5214,-0.0198,0.0316,9.8065,0.022,0.2133,-0.0622,-14.56,-29.56,-8.44,357.93,-84.18,-63.62
2415,52.393894,-1.250328,157.88,17.93,4,36.59,17 / 17,717908,2019-09-04 20:18:30:021,-2.051,2.8147,9.3124,-0.0097,0.014,9.8066,0.0173,0.2353,-0.0349,-14.06,-29.37,-8.81,355.19,-84.56,-61.26
2416,52.393894,-1.250328,157.88,17.93,4,36.59,17 / 17,718008,2019-09-04 20:18:30:121,-1.9296,1.8649,9.2635,-0.0235,0.0018,9.8065,-0.0429,0.2738,-0.0345,-13.94,-29.37,-9.0,357.27,-84.67,-59.54
2417,52.393894,-1.250328,157.88,17.93,4,36.59,17 / 17,718108,2019-09-04 20:18:30:221,-2.4656,1.9263,9.9754,-0.0298,0.0068,9.8066,-0.019,0.2615,-0.0497,-13.31,-29.62,-9.75,358.04,-84.73,-54.06
2418,52.393894,-1.250328,157.88,17.93,4,36.59,17 / 17,718208,2019-09-04 20:18:30:321,-2.2769,2.821,9.9069,-0.0125,0.0039,9.8066,0.0064,0.2582,0.0027,-12.75,-29.0,-9.75,2.24,-84.85,-50.56
2419,52.393894,-1.250328,157.88,17.93,4,36.59,17 / 17,718308,2019-09-04 20:18:30:421,-2.3731,2.1017,9.8725,0.0021,-0.0022,9.8066,0.0321,0.2651,0.0176,-12.44,-29.37,-10.19,359.88,-84.84,-50.3
2420,52.393894,-1.250328,157.88,17.93,4,36.59,17 / 17,718407,2019-09-04 20:18:30:520,-2.0957,2.4106,9.9294,0.001,-0.0028,9.8065,0.0215,0.276,0.0214,-12.19,-29.87,-9.69,359.63,-84.86,-50.5
2421,52.393894,-1.250328,157.88,17.93,4,36.59,17 / 17,718508,2019-09-04 20:18:30:621,-2.177,2.2894,9.313,-0.0075,-0.0018,9.8066,-0.001,0.2878,0.0019,-11.94,-29.69,-10.06,0.29,-84.82,-49.96
2422,52.393894,-1.250328,157.88,17.93,4,36.59,17 / 17,718607,2019-09-04 20:18:30:720,-2.3644,2.3645,9.6132,-0.0195,-0.0026,9.8066,-0.0209,0.3056,-0.0088,-11.25,-29.44,-10.19,359.95,-84.8,-47.76
2423,52.393894,-1.250328,157.88,17.93,4,36.59,17 / 17,718708,2019-09-04 20:18:30:821,-2.7733,2.2921,9.3189,-0.0269,0.0039,9.8066,-0.0167,0.3226,-0.0373,-11.0,-29.31,-10.87,1.97,-84.78,-43.37
2424,52.393894,-1.250328,157.88,17.93,4,36.59,17 / 17,718808,2019-09-04 20:18:30:921,-2.9207,2.7989,9.1511,-0.0252,0.002,9.8066,-0.0246,0.3449,-0.009,-9.87,-28.87,-10.87,5.14,-84.85,-38.05
2425,52.393894,-1.250328,157.88,17.93,4,36.59,17 / 17,718908,2019-09-04 20:18:31:021,-2.9755,2.3005,9.0511,-0.0296,-0.0026,9.8066,-0.0318,0.357,-0.0294,-9.75,-29.5,-11.87,6.3,-84.78,-34.59
2426,52.393894,-1.250328,157.88,17.93,4,36.59,17 / 17,719008,2019-09-04 20:18:31:121,-3.0506,2.7538,9.0728,-0.0217,-0.0085,9.8066,-0.025,0.3621,0.0182,-8.94,-29.19,-12.19,7.38,-84.71,-30.84
2427,52.393894,-1.250328,157.88,17.93,4,36.59,17 / 17,719107,2019-09-04 20:18:31:220,-3.0245,2.3683,9.3151,-0.019,-0.014,9.8066,-0.0357,0.3572,0.0134,-8.5,-29.25,-13.0,4.96,-84.47,-27.58
2428,52.393894,-1.250328,157.88,17.93,4,36.59,17 / 17,719208,2019-09-04 20:18:31:321,-3.4747,1.6145,9.8545,-0.0217,-0.0051,9.8065,-0.0142,0.3745,0.0212,-7.56,-29.06,-13.06,7.98,-84.31,-25.16
2429,52.393894,-1.250328,157.88,17.93,4,36.59,17 / 17,719308,2019-09-04 20:18:31:421,-2.9959,1.6981,9.8462,-0.0085,-0.0019,9.8066,0.0044,0.3672,0.0147,-7.5,-29.06,-13.56,4.48,-84.21,-22.95
2430,52.393894,-1.250328,157.88,17.93,4,36.59,17 / 17,719408,2019-09-04 20:18:31:521,-2.6217,1.2343,9.8082,-0.0093,0.009,9.8066,0.0279,0.3698,-0.0112,-6.37,-29.44,-13.0,4.73,-84.27,-21.02
2431,52.393894,-1.250328,157.88,17.93,4,36.59,17 / 17,719508,2019-09-04 20:18:31:621,-3.2937,1.7528,10.5284,-0.0175,0.013,9.8066,0.0222,0.3652,0.011,-6.25,-29.37,-13.12,7.54,-84.4,-18.76
2432,52.393894,-1.250328,157.88,17.93,4,36.59,17 / 17,719609,2019-09-04 20:18:31:722,-2.6784,1.9558,10.1379,-0.0008,0.016,9.8065,0.065,0.3411,0.0377,-5.31,-29.75,-13.87,1.82,-84.54,-18.19
2433,52.393894,-1.250328,157.88,17.93,4,36.59,17 / 17,719707,2019-09-04 20:18:31:820,-2.0059,2.0273,8.6454,-0.0075,0.0217,9.8066,0.0351,0.3515,-0.0193,-4.81,-29.94,-13.31,3.94,-84.88,-17.87
2434,52.393894,-1.250328,157.88,17.93,4,36.59,17 / 17,719808,2019-09-04 20:18:31:921,-0.7389,2.3312,9.2329,-0.0014,-0.0274,9.8066,-0.1039,0.3181,0.0472,-4.0,-29.87,-13.75,359.87,-84.94,-16.05
2435,52.393894,-1.250328,157.88,17.93,4,36.59,17 / 17,719907,2019-09-04 20:18:32:020,-1.9753,0.9725,9.5595,-0.0168,-0.0508,9.8065,-0.1173,0.2742,0.0113,-3.94,-29.81,-14.19,1.86,-84.22,-14.48
2436,52.393894,-1.250328,157.88,17.93,4,36.59,17 / 17,720008,2019-09-04 20:18:32:121,-0.804,1.0179,10.1708,-0.0161,-0.0243,9.8065,-0.0352,0.2701,0.0052,-3.25,-29.56,-14.06,1.24,-83.55,-11.15
2437,52.393894,-1.250328,157.88,17.93,4,36.59,17 / 17,720107,2019-09-04 20:18:32:220,-1.6759,0.967,9.8668,-0.0136,0.0084,9.8066,0.0462,0.226,-0.0162,-2.94,-29.75,-14.56,2.01,-83.54,-9.75
2438,52.393894,-1.250328,157.88,17.93,4,36.59,17 / 17,720207,2019-09-04 20:18:32:320,-1.0456,1.938,9.3912,-0.0065,0.0294,9.8065,0.0607,0.1912,0.0084,-2.37,-29.62,-14.31,359.44,-83.84,-8.56
2439,52.393894,-1.250328,157.88,17.93,4,36.59,17 / 17,720308,2019-09-04 20:18:32:421,0.4556,1.4635,9.6227,-0.0001,0.0097,9.8066,0.003,0.1612,-0.0076,-2.5,-29.31,-13.44,0.55,-84.19,-8.32
2440,52.39473,-1.249372,162.47,9.25,3,355.11,16 / 17,720407,2019-09-04 20:18:32:520,-0.1106,2.0521,10.2893,-0.031,-0.0042,9.8065,-0.0484,0.1367,-0.057,-2.75,-29.56,-13.62,5.7,-84.19,-7.63
2441,52.39473,-1.249372,162.47,9.25,3,355.11,16 / 17,720508,2019-09-04 20:18:32:621,-0.6858,0.8462,10.4132,-0.0176,-0.0035,9.8066,-0.0184,0.0936,-0.0252,-1.44,-29.56,-14.31,2.76,-83.97,-1.96
2442,52.39473,-1.249372,162.47,9.25,3,355.11,16 / 17,720607,2019-09-04 20:18:32:720,0.6249,1.1284,8.9911,-0.0198,0.005,9.8066,0.0236,0.0548,-0.0454,-0.87,-29.31,-14.44,5.31,-83.97,0.04
2443,52.39473,-1.249372,162.47,9.25,3,355.11,16 / 17,720708,2019-09-04 20:18:32:821,0.7194,1.6766,8.9341,-0.0219,-0.0049,9.8065,-0.04,0.027,-0.0764,-1.06,-29.31,-14.12,7.86,-84.03,2.05
2444,52.39473,-1.249372,162.47,9.25,3,355.11,16 / 17,720807,2019-09-04 20:18:32:920,0.1425,1.9864,9.8364,-0.0363,-0.0179,9.8066,-0.0813,0.0023,-0.0679,-0.56,-29.44,-14.62,13.5,-83.73,6.78
2445,52.39473,-1.249372,162.47,9.25,3,355.11,16 / 17,720908,2019-09-04 20:18:33:021,0.4219,0.6791,9.9087,-0.0219,-0.0252,9.8065,-0.0503,-0.0277,-0.0398,-1.06,-29.37,-14.62,16.26,-83.31,8.73
2446,52.39473,-1.249372,162.47,9.25,3,355.11,16 / 17,721007,2019-09-04 20:18:33:120,1.0185,1.3343,10.1076,-0.0213,0.0004,9.8066,0.016,-0.0385,-0.0495,-0.62,-29.12,-14.94,19.48,-82.99,11.02
2447,52.39473,-1.249372,162.47,9.25,3,355.11,16 / 17,721108,2019-09-04 20:18:33:221,1.2046,1.4086,9.7831,0.0033,0.0259,9.8066,0.0652,-0.0774,-0.0088,-1.0,-29.31,-14.62,21.42,-83.26,12.73
2448,52.39473,-1.249372,162.47,9.25,3,355.11,16 / 17,721208,2019-09-04 20:18:33:321,1.2757,1.32,9.8217,0.0098,0.0227,9.8066,0.0549,-0.1217,0.0224,-1.06,-29.06,-14.62,21.53,-83.56,13.04
2449,52.39473,-1.249372,162.47,9.25,3,355.11,16 / 17,721307,2019-09-04 20:18:33:420,1.828,0.6874,10.1245,0.0223,-0.003,9.8066,0.0079,-0.1462,0.0463,-1.81,-29.37,-13.37,26.36,-83.78,11.38
2450,52.39473,-1.249372,162.47,9.25,3,355.11,16 / 17,721408,2019-09-04 20:18:33:521,1.5073,1.2859,10.272,0.0177,-0.004,9.8066,0.0168,-0.1364,0.07,-1.94,-29.37,-14.5,20.8,-83.88,8.1
2451,52.39473,-1.249372,162.47,9.25,3,355.11,16 / 17,721507,2019-09-04 20:18:33:620,3.8187,1.3947,9.251,0.0328,0.0051,9.8066,0.0521,-0.2387,0.0423,-2.81,-29.12,-13.94,22.04,-84.03,5.3
2452,52.39473,-1.249372,162.47,9.25,3,355.11,16 / 17,721608,2019-09-04 20:18:33:721,3.8373,0.3751,9.8151,0.0247,0.0099,9.8065,0.0289,-0.2267,0.0345,-3.19,-29.25,-14.19,16.52,-84.35,1.1
2453,52.39473,-1.249372,162.47,9.25,3,355.11,16 / 17,721707,2019-09-04 20:18:33:820,0.956,0.9957,10.2004,0.0034,0.0099,9.8066,0.0194,-0.269,0.0041,-3.37,-29.69,-13.62,14.07,-84.51,-0.88
2454,52.39473,-1.249372,162.47,9.25,3,355.11,16 / 17,721807,2019-09-04 20:18:33:920,2.8223,0.3671,9.1666,0.0183,0.005,9.8065,0.0097,-0.2538,0.0232,-4.0,-29.5,-13.44,17.68,-84.67,-2.94
2455,52.39473,-1.249372,162.47,9.25,3,355.11,16 / 17,721908,2019-09-04 20:18:34:021,3.046,0.3898,10.3139,0.0046,0.0017,9.8066,0.008,-0.279,-0.0134,-4.5,-29.62,-13.62,13.45,-84.74,-5.07
2456,52.39473,-1.249372,162.47,9.25,3,355.11,16 / 17,722008,2019-09-04 20:18:34:121,2.3966,0.1655,9.433,0.0103,0.0012,9.8066,0.0028,-0.2487,0.0145,-4.5,-29.44,-13.75,11.86,-84.79,-6.26
2457,52.39473,-1.249372,162.47,9.25,3,355.11,16 / 17,722108,2019-09-04 20:18:34:221,2.9768,-1.0698,9.65,0.0133,-0.0049,9.8066,0.0086,-0.2602,0.0082,-5.75,-29.69,-13.87,17.51,-84.78,-8.85
2458,52.39473,-1.249372,162.47,9.25,3,355.11,16 / 17,722208,2019-09-04 20:18:34:321,3.4659,0.2116,10.5074,0.0107,0.0062,9.8065,0.0219,-0.2567,-0.0124,-6.25,-29.75,-13.56,15.91,-84.87,-10.12
2459,52.39473,-1.249372,162.47,9.25,3,355.11,16 / 17,722308,2019-09-04 20:18:34:421,2.8496,-0.1539,8.9617,0.0093,0.0023,9.8066,0.0034,-0.262,-0.0092,-6.25,-29.62,-13.19,17.31,-85.0,-10.64
2460,52.39473,-1.249372,162.47,9.25,3,355.11,16 / 17,722408,2019-09-04 20:18:34:521,3.5569,-0.6025,10.1597,0.0068,-0.0107,9.8065,-0.0384,-0.2546,0.002,-7.44,-29.37,-12.81,18.99,-84.99,-12.58
2461,52.39473,-1.249372,162.47,9.25,3,355.11,16 / 17,722507,2019-09-04 20:18:34:620,2.7336,-0.8925,9.2674,0.0045,-0.0101,9.8066,-0.0188,-0.2748,0.0031,-6.87,-29.56,-12.56,18.6,-84.88,-13.09
2462,52.39473,-1.249372,162.47,9.25,3,355.11,16 / 17,722608,2019-09-04 20:18:34:721,2.4075,-0.9869,10.9491,0.0131,0.0041,9.8066,0.0145,-0.2745,-0.0081,-7.69,-29.62,-13.37,20.27,-84.85,-14.92
2463,52.39473,-1.249372,162.47,9.25,3,355.11,16 / 17,722708,2019-09-04 20:18:34:821,2.5686,-0.7135,8.6861,0.016,0.0147,9.8065,0.0336,-0.2744,0.0209,-7.81,-29.56,-12.75,18.43,-85.14,-16.26
2464,52.39473,-1.249372,162.47,9.25,3,355.11,16 / 17,722808,2019-09-04 20:18:34:921,2.5957,-1.2278,9.2086,0.0087,-0.003,9.8066,-0.0114,-0.2753,-0.0093,-8.81,-28.5,-13.31,19.2,-85.17,-18.37
2465,52.39473,-1.249372,162.47,9.25,3,355.11,16 / 17,722908,2019-09-04 20:18:35:021,3.2423,-0.544,9.6397,0.0058,-0.0197,9.8065,-0.0512,-0.2766,0.028,-8.87,-29.69,-12.81,18.56,-85.11,-19.15
2466,52.39473,-1.249372,162.47,9.25,3,355.11,16 / 17,723008,2019-09-04 20:18:35:121,2.1745,-1.289,9.8273,0.0054,-0.0276,9.8066,-0.0752,-0.2705,0.0349,-9.75,-29.44,-11.94,21.69,-84.75,-21.8
2467,52.39473,-1.249372,162.47,9.25,3,355.11,16 / 17,723108,2019-09-04 20:18:35:221,2.1077,-1.5339,10.1557,0.0151,-0.0138,9.8066,0.0204,-0.2749,0.0049,-10.5,-29.5,-12.19,20.03,-84.46,-23.38
2468,52.39473,-1.249372,162.47,9.25,3,355.11,16 / 17,723208,2019-09-04 20:18:35:321,2.2951,-0.5139,9.7159,0.0195,0.014,9.8065,0.0398,-0.2638,-0.0059,-9.87,-29.12,-11.87,16.17,-84.59,-26.5
2469,52.39473,-1.249372,162.47,9.25,3,355.11,16 / 17,723307,2019-09-04 20:18:35:420,2.3409,-1.3181,9.6661,0.0176,-0.0067,9.8066,0.0079,-0.2701,0.037,-11.37,-29.19,-11.81,14.56,-84.78,-30.35
2470,52.39473,-1.249372,162.47,9.25,3,355.11,16 / 17,723407,2019-09-04 20:18:35:520,1.8793,-1.2916,10.0919,0.0088,-0.0117,9.8065,-0.0119,-0.2584,0.0125,-11.62,-29.56,-11.5,17.97,-84.7,-32.6
2471,52.39473,-1.249372,162.47,9.25,3,355.11,16 / 17,723508,2019-09-04 20:18:35:621,2.3129,-1.299,10.04,0.0177,-0.0007,9.8065,0.0169,-0.2613,0.0152,-11.69,-29.19,-11.19,15.54,-84.66,-34.56
2472,52.39473,-1.249372,162.47,9.25,3,355.11,16 / 17,723607,2019-09-04 20:18:35:720,1.8794,-1.5439,10.1896,0.0221,-0.0062,9.8066,0.0203,-0.2528,0.0142,-12.56,-29.25,-10.81,13.47,-84.69,-38.45
2473,52.39473,-1.249372,162.47,9.25,3,355.11,16 / 17,723707,2019-09-04 20:18:35:820,2.271,-1.2764,10.1881,0.0209,0.0151,9.8066,0.0549,-0.279,-0.0305,-13.06,-29.37,-10.25,13.97,-84.77,-40.75
2474,52.39473,-1.249372,162.47,9.25,3,355.11,16 / 17,723807,2019-09-04 20:18:35:920,2.9457,-1.2033,9.907,0.017,0.0234,9.8065,0.045,-0.2627,-0.0489,-12.94,-29.62,-10.12,10.22,-85.19,-43.8
2475,52.39473,-1.249372,162.47,9.25,3,355.11,16 / 17,723908,2019-09-04 20:18:36:021,2.1658,-0.642,8.7691,-0.0019,0.0014,9.8066,-0.0476,-0.2698,-0.0116,-13.87,-29.37,-9.25,14.55,-85.38,-44.78
2476,52.39473,-1.249372,162.47,9.25,3,355.11,16 / 17,724008,2019-09-04 20:18:36:121,2.267,-0.5119,9.6019,-0.0183,-0.0185,9.8066,-0.0879,-0.2431,-0.0059,-13.62,-29.19,-9.69,13.13,-85.18,-43.23
2477,52.39473,-1.249372,162.47,9.25,3,355.11,16 / 17,724107,2019-09-04 20:18:36:220,3.0619,-0.917,9.9771,-0.0079,-0.0161,9.8066,-0.0532,-0.1799,-0.002,-13.75,-29.69,-9.75,15.17,-84.9,-41.67
2478,52.39473,-1.249372,162.47,9.25,3,355.11,16 / 17,724207,2019-09-04 20:18:36:320,1.6702,-0.1925,9.9329,0.0033,-0.0009,9.8066,0.004,-0.1605,-0.0119,-14.37,-29.06,-9.19,18.84,-84.74,-41.46
2479,52.39473,-1.249372,162.47,9.25,3,355.11,16 / 17,724308,2019-09-04 20:18:36:421,1.7945,0.3551,10.3835,0.0183,0.0032,9.8066,0.0276,-0.13,-0.0022,-14.19,-29.31,-8.87,17.23,-84.83,-42.77
2480,52.39473,-1.249372,162.47,9.25,3,355.11,16 / 16,724407,2019-09-04 20:18:36:520,1.3653,0.8765,10.5226,0.014,0.0092,9.8066,0.0299,-0.0665,-0.0298,-14.0,-29.87,-8.81,13.88,-85.01,-45.59
2481,52.39473,-1.249372,162.47,9.25,3,355.11,16 / 16,724508,2019-09-04 20:18:36:621,2.0263,0.5579,9.8077,0.0117,-0.0044,9.8066,0.0057,-0.0604,0.0123,-14.19,-29.5,-8.0,15.58,-85.18,-47.05
2482,52.39473,-1.249372,162.47,9.25,3,355.11,16 / 16,724607,2019-09-04 20:18:36:720,1.7592,0.4258,9.0846,0.0013,-0.0037,9.8066,-0.0277,-0.006,0.0073,-14.44,-29.25,-8.56,11.47,-85.17,-47.51
2483,52.39473,-1.249372,162.47,9.25,3,355.11,16 / 16,724708,2019-09-04 20:18:36:821,1.7628,1.7869,10.0893,-0.0102,-0.0088,9.8066,-0.0344,-0.0127,0.0111,-14.75,-29.87,-8.37,18.69,-85.11,-46.06
2484,52.39473,-1.249372,162.47,9.25,3,355.11,16 / 16,724808,2019-09-04 20:18:36:921,1.0134,0.6907,9.5989,-0.0115,-0.0085,9.8066,-0.0267,-0.0264,0.0247,-14.37,-29.06,-8.94,15.01,-84.93,-44.6
2485,52.39473,-1.249372,162.47,9.25,3,355.11,16 / 16,724908,2019-09-04 20:18:37:021,0.9782,1.0629,9.7977,0.0097,-0.0076,9.8066,0.009,-0.0196,0.0263,-14.56,-29.62,-8.87,16.56,-84.83,-45.06
2486,52.39473,-1.249372,162.47,9.25,3,355.11,16 / 16,725008,2019-09-04 20:18:37:121,1.2537,1.0996,9.9702,0.0098,-0.0034,9.8066,0.0117,-0.0099,0.0069,-14.56,-29.37,-8.94,14.0,-84.78,-47.18
2487,52.39473,-1.249372,162.47,9.25,3,355.11,16 / 16,725107,2019-09-04 20:18:37:220,1.161,1.2694,9.5397,0.0051,-0.0051,9.8065,0.0009,-0.0306,0.0134,-15.25,-29.44,-8.56,12.34,-84.78,-48.59
2488,52.39473,-1.249372,162.47,9.25,3,355.11,16 / 16,725207,2019-09-04 20:18:37:320,1.3483,0.7736,9.5185,-0.005,-0.0063,9.8066,-0.0199,-0.0154,0.0151,-15.31,-29.25,-8.56,12.44,-84.72,-48.53
2489,52.39473,-1.249372,162.47,9.25,3,355.11,16 / 16,725308,2019-09-04 20:18:37:421,1.3741,0.9859,10.1818,0.0049,-0.0114,9.8066,-0.0128,0.0166,0.0133,-14.87,-29.25,-8.75,12.78,-84.61,-48.29
2490,52.39473,-1.249372,162.47,9.25,3,355.11,16 / 16,725408,2019-09-04 20:18:37:521,1.1751,1.7205,9.5042,0.0023,0.0029,9.8066,-0.0005,0.0176,-0.0052,-15.0,-29.37,-8.25,15.5,-84.55,-48.98
2491,52.39473,-1.249372,162.47,9.25,3,355.11,16 / 16,725507,2019-09-04 20:18:37:620,1.5237,1.5818,9.2114,0.0114,-0.0034,9.8066,0.004,0.018,0.0137,-15.0,-29.25,-9.12,10.99,-84.55,-49.82
2492,52.39473,-1.249372,162.47,9.25,3,355.11,16 / 16,725608,2019-09-04 20:18:37:721,1.1466,1.2496,9.7954,0.0063,-0.001,9.8066,-0.0081,0.0289,-0.0104,-14.75,-29.12,-8.37,12.52,-84.54,-51.48
2493,52.39473,-1.249372,162.47,9.25,3,355.11,16 / 16,725707,2019-09-04 20:18:37:820,1.1796,1.9765,9.2864,-0.0075,-0.0067,9.8066,-0.0373,0.0376,0.0239,-15.31,-29.37,-8.81,8.94,-84.49,-51.55
2494,52.39473,-1.249372,162.47,9.25,3,355.11,16 / 16,725808,2019-09-04 20:18:37:921,1.4969,1.134,8.9677,-0.0091,-0.0118,9.8065,-0.0543,0.0288,0.0172,-14.87,-29.25,-9.5,9.68,-84.33,-50.98
2495,52.39473,-1.249372,162.47,9.25,3,355.11,16 / 16,725908,2019-09-04 20:18:38:021,0.91,1.3449,10.9699,-0.0117,-0.0172,9.8066,-0.04,0.0173,-0.0143,-15.06,-29.37,-8.81,11.89,-84.12,-49.21
2496,52.39473,-1.249372,162.47,9.25,3,355.11,16 / 16,726008,2019-09-04 20:18:38:121,2.1904,0.8753,8.3813,-0.0175,0.0057,9.8066,0.0094,0.0369,0.0298,-14.87,-29.0,-9.25,14.64,-84.03,-46.97
2497,52.39473,-1.249372,162.47,9.25,3,355.11,16 / 16,726107,2019-09-04 20:18:38:220,3.4078,2.0951,9.5889,0.0001,0.0014,9.8066,-0.0121,0.0498,-0.0375,-14.37,-28.06,-9.31,12.1,-84.01,-47.34
2498,52.39473,-1.249372,162.47,9.25,3,355.11,16 / 16,726208,2019-09-04 20:18:38:321,0.8098,1.2759,8.923,-0.0042,-0.0168,9.8066,-0.0515,0.0595,0.0494,-14.94,-28.44,-9.69,11.68,-83.95,-46.59
2499,52.39473,-1.249372,162.47,9.25,3,355.11,16 / 16,726307,2019-09-04 20:18:38:420,0.1528,1.9373,8.6835,-0.0048,-0.0266,9.8065,-0.0272,0.0464,0.0498,-14.81,-28.25,-10.19,12.51,-83.57,-46.04
2500,52.39473,-1.249372,162.47,9.25,3,355.11,16 / 16,726408,2019-09-04 20:18:38:521,0.689,1.7293,10.1257,0.0037,-0.0089,9.8066,0.0085,0.0486,0.0261,-15.06,-29.0,-10.06,11.91,-83.4,-46.67
2501,52.39473,-1.249372,162.47,9.25,3,355.11,16 / 16,726508,2019-09-04 20:18:38:621,1.194,1.6743,11.5149,0.012,0.0111,9.8066,0.0498,0.0462,-0.0439,-14.06,-28.69,-10.19,8.15,-83.37,-47.95
2502,52.39473,-1.249372,162.47,9.25,3,355.11,16 / 16,726608,2019-09-04 20:18:38:721,1.2076,2.51,11.0739,0.0079,0.0276,9.8066,0.0463,0.0595,-0.0493,-14.5,-29.0,-10.69,3.58,-83.76,-48.92
2503,52.39473,-1.249372,162.47,9.25,3,355.11,16 / 16,726708,2019-09-04 20:18:38:821,0.1746,2.2532,10.6205,-0.0095,0.0113,9.8066,-0.0077,0.0448,-0.0294,-14.81,-29.12,-9.62,9.47,-84.04,-48.47
2504,52.39473,-1.249372,162.47,9.25,3,355.11,16 / 16,726807,2019-09-04 20:18:38:920,0.4755,2.5953,8.9086,-0.0159,0.0079,9.8066,-0.0346,0.0481,-0.0285,-14.25,-29.19,-9.75,10.01,-84.17,-46.21
2505,52.39473,-1.249372,162.47,9.25,3,355.11,16 / 16,726908,2019-09-04 20:18:39:021,0.8328,1.9456,8.9735,-0.0127,-0.0118,9.8065,-0.0566,0.0399,0.0045,-14.44,-29.19,-10.06,12.23,-84.0,-44.43
2506,52.39473,-1.249372,162.47,9.25,3,355.11,16 / 16,727007,2019-09-04 20:18:39:120,0.8193,1.4861,9.632,-0.0071,-0.0159,9.8066,-0.0334,0.0337,0.0312,-13.62,-28.69,-10.12,13.21,-83.81,-43.71
2507,52.39473,-1.249372,162.47,9.25,3,355.11,16 / 16,727108,2019-09-04 20:18:39:221,-0.5504,1.5846,8.9674,-0.01,-0.0058,9.8066,-0.0397,0.0496,0.0193,-14.12,-28.37,-10.37,13.71,-83.68,-43.27
2508,52.39473,-1.249372,162.47,9.25,3,355.11,16 / 16,727208,2019-09-04 20:18:39:321,0.4937,2.3914,12.0043,0.0087,-0.005,9.8066,0.0323,0.0639,0.0112,-14.06,-28.31,-10.56,10.39,-83.53,-43.35
2509,52.39473,-1.249372,162.47,9.25,3,355.11,16 / 17,727308,2019-09-04 20:18:39:421,1.1634,1.9939,12.4432,0.0488,0.0206,9.8064,0.1307,0.0449,0.0217,-14.12,-28.19,-10.19,10.5,-83.75,-45.87
2510,52.39473,-1.249372,162.47,9.25,3,355.11,16 / 17,727407,2019-09-04 20:18:39:520,0.3479,2.4922,10.7564,0.0441,0.0216,9.8065,0.1078,0.0554,0.0344,-14.25,-29.12,-9.12,5.0,-84.25,-53.17
2511,52.39473,-1.249372,162.47,9.25,3,355.11,16 / 17,727508,2019-09-04 20:18:39:621,0.4275,1.9053,9.385,0.0153,0.009,9.8066,0.0086,0.0608,0.0006,-14.25,-28.87,-9.69,355.4,-84.41,-58.29
2512,52.39473,-1.249372,162.47,9.25,3,355.11,16 / 17,727608,2019-09-04 20:18:39:721,-0.2682,1.5302,8.9591,-0.0011,-0.0053,9.8066,-0.0068,0.0748,-0.0033,-14.44,-29.19,-9.69,355.35,-84.37,-58.32
2513,52.39473,-1.249372,162.47,9.25,3,355.11,16 / 17,727708,2019-09-04 20:18:39:821,0.2765,2.0301,8.9312,0.0013,-0.0043,9.8066,-0.0021,0.0673,-0.002,-13.31,-29.62,-9.81,352.94,-84.33,-58.19
2514,52.39473,-1.249372,162.47,9.25,3,355.11,16 / 17,727808,2019-09-04 20:18:39:921,0.878,2.3555,9.6034,0.0034,0.0006,9.8066,0.0044,0.0698,-0.0055,-13.62,-29.75,-10.5,355.06,-84.31,-58.53
2515,52.39473,-1.249372,162.47,9.25,3,355.11,16 / 17,727907,2019-09-04 20:18:40:020,0.1695,2.2406,10.0901,0.0015,0.012,9.8066,0.0182,0.0617,-0.03,-13.69,-28.94,-10.25,354.65,-84.39,-58.9
2516,52.39473,-1.249372,162.47,9.25,3,355.11,16 / 17,728007,2019-09-04 20:18:40:120,0.0849,2.123,10.0607,0.0066,0.0049,9.8065,0.0185,0.0565,-0.0071,-13.87,-29.0,-10.0,353.67,-84.55,-59.75
2517,52.39473,-1.249372,162.47,9.25,3,355.11,16 / 17,728108,2019-09-04 20:18:40:221,0.5173,2.194,10.6591,0.0014,-0.0054,9.8066,-0.0157,0.0729,-0.0035,-13.06,-29.31,-9.69,350.37,-84.52,-60.4
2518,52.39473,-1.249372,162.47,9.25,3,355.11,16 / 17,728207,2019-09-04 20:18:40:320,0.4074,2.5149,10.4583,-0.0061,0.0055,9.8066,0.0068,0.0588,-0.0304,-13.12,-29.25,-9.75,351.01,-84.56,-59.88
2519,52.39473,-1.249372,162.47,9.25,3,355.11,14 / 17,728307,2019-09-04 20:18:40:420,0.1918,1.5448,9.8796,0.0052,0.0217,9.8065,0.0383,0.0758,-0.0197,-12.94,-29.25,-10.0,350.83,-84.72,-60.08
2520,52.39473,-1.249372,162.47,9.25,3,355.11,14 / 17,728408,2019-09-04 20:18:40:521,0.0153,2.3167,9.419,0.0087,0.0182,9.8066,0.0349,0.0697,-0.0055,-12.75,-29.44,-9.69,348.56,-85.04,-62.09
2521,52.39473,-1.249372,162.47,9.25,3,355.11,14 / 17,728507,2019-09-04 20:18:40:620,0.755,2.4996,8.7989,0.0115,0.0187,9.8065,0.0252,0.058,-0.0398,-12.69,-29.87,-9.0,349.61,-85.14,-64.0
2522,52.39473,-1.249372,162.47,9.25,3,355.11,14 / 17,728609,2019-09-04 20:18:40:722,0.11,2.4077,8.9846,-0.006,-0.0031,9.8066,-0.0494,0.0619,-0.0077,-13.0,-29.25,-10.25,346.01,-85.3,-64.37
2523,52.39473,-1.249372,162.47,9.25,3,355.11,14 / 17,728708,2019-09-04 20:18:40:821,-0.5475,2.5334,9.0753,-0.0178,-0.0043,9.8065,-0.0231,0.0797,-0.0193,-12.75,-29.87,-9.75,350.92,-85.17,-60.09
2524,52.39473,-1.249372,162.47,9.25,3,355.11,14 / 17,728807,2019-09-04 20:18:40:920,-0.3211,2.1084,9.9881,0.003,-0.0016,9.8066,0.0127,0.0816,0.0153,-12.37,-29.25,-10.06,348.65,-85.15,-59.74
2525,52.39473,-1.249372,162.47,9.25,3,355.11,14 / 17,728907,2019-09-04 20:18:41:020,-0.3073,2.5551,9.7407,0.0173,0.0029,9.8066,0.0336,0.0682,0.026,-12.62,-29.5,-10.37,349.36,-85.12,-61.44
2526,52.39473,-1.249372,162.47,9.25,3,355.11,14 / 17,729008,2019-09-04 20:18:41:121,0.49,2.1458,10.2482,0.0167,-0.0088,9.8066,-0.0152,0.072,0.0274,-12.19,-29.69,-10.69,340.54,-85.07,-63.86
2527,52.39473,-1.249372,162.47,9.25,3,355.11,14 / 17,729108,2019-09-04 20:18:41:221,-0.4829,2.5299,8.8422,-0.0085,-0.0046,9.8066,-0.0306,0.0804,-0.0044,-12.19,-29.44,-10.44,344.18,-84.89,-63.37
2528,52.39473,-1.249372,162.47,9.25,3,355.11,14 / 17,729208,2019-09-04 20:18:41:321,0.2209,1.7144,8.7943,-0.0084,-0.0127,9.8066,-0.0356,0.0798,-0.0187,-12.31,-29.37,-10.62,342.7,-84.79,-61.97
2529,52.39559,-1.248702,166.99,17.36,4,26.78,13 / 15,729307,2019-09-04 20:18:41:420,-1.2848,2.5281,9.5899,-0.0146,0.0045,9.8066,-0.0139,0.0937,-0.015,-11.87,-29.37,-11.25,344.86,-84.85,-60.18
2530,52.39559,-1.248702,166.99,17.36,4,26.78,13 / 15,729408,2019-09-04 20:18:41:521,-0.3668,2.0219,9.5997,0.0026,0.0142,9.8065,0.0356,0.0951,-0.0105,-11.44,-29.87,-11.06,341.42,-84.94,-60.4
2531,52.39559,-1.248702,166.99,17.36,4,26.78,13 / 15,729507,2019-09-04 20:18:41:620,-0.3668,2.0219,9.5997,0.0026,0.0142,9.8065,0.0356,0.0951,-0.0105,-11.44,-29.87,-11.06,341.42,-84.94,-60.4
2532,52.39559,-1.248702,166.99,17.36,4,26.78,13 / 15,729608,2019-09-04 20:18:41:721,-1.1492,1.6903,9.9189,0.0091,-0.0115,9.8066,-0.0053,0.0645,0.0394,-11.44,-30.0,-10.37,340.69,-84.95,-63.6
2533,52.39559,-1.248702,166.99,17.36,4,26.78,13 / 15,729707,2019-09-04 20:18:41:820,-0.617,2.4163,10.1217,0.0211,-0.0109,9.8066,0.0123,0.0747,0.0465,-11.81,-29.44,-11.31,338.35,-84.66,-65.55
2534,52.39559,-1.248702,166.99,17.36,4,26.78,13 / 15,729808,2019-09-04 20:18:41:921,-0.0268,1.5791,9.4178,0.0205,-0.0223,9.8065,-0.0104,0.0632,0.049,-12.44,-28.94,-11.19,335.22,-84.24,-67.86
2535,52.39559,-1.248702,166.99,17.36,4,26.78,13 / 15,729908,2019-09-04 20:18:42:021,-0.7629,1.5119,9.0192,0.0045,-0.0072,9.8066,-0.0019,0.0611,0.0209,-12.25,-29.5,-11.0,334.72,-84.11,-68.17
2536,52.39559,-1.248702,166.99,17.36,4,26.78,13 / 15,730008,2019-09-04 20:18:42:121,0.098,1.8612,9.9967,0.0051,-0.0034,9.8066,-0.0118,0.0759,-0.0041,-12.12,-28.87,-11.5,333.97,-84.05,-68.74
2537,52.39559,-1.248702,166.99,17.36,4,26.78,13 / 15,730107,2019-09-04 20:18:42:220,-0.6124,1.5874,9.2262,-0.0081,0.0094,9.8065,0.0182,0.046,-0.0216,-12.12,-29.31,-10.87,334.13,-84.09,-68.65
2538,52.39559,-1.248702,166.99,17.36,4,26.78,13 / 15,730208,2019-09-04 20:18:42:321,-0.8702,0.993,9.4055,-0.0004,0.0077,9.8066,-0.0008,0.0525,-0.0121,-12.0,-29.12,-11.5,333.8,-84.16,-68.98
2539,52.39559,-1.248702,166.99,17.36,4,26.78,13 / 15,730308,2019-09-04 20:18:42:421,-1.473,1.5238,9.8119,0.0022,0.001,9.8066,-0.0017,0.0496,0.0212,-11.87,-29.12,-11.62,330.86,-84.22,-69.2
2540,52.39559,-1.248702,166.99,17.36,4,26.78,13 / 16,730407,2019-09-04 20:18:42:520,0.2004,2.2906,7.9607,0.0004,-0.0123,9.8066,-0.045,0.0309,0.0247,-12.19,-29.25,-11.75,330.63,-83.99,-69.2
2541,52.39559,-1.248702,166.99,17.36,4,26.78,13 / 16,730508,2019-09-04 20:18:42:621,-1.087,0.4465,8.0208,-0.009,-0.024,9.8066,-0.0562,0.0538,-0.0024,-11.69,-28.81,-11.56,332.67,-83.79,-67.32
2542,52.39559,-1.248702,166.99,17.36,4,26.78,13 / 16,730608,2019-09-04 20:18:42:721,-0.9663,1.3164,10.7934,0.0006,0.0096,9.8066,0.0304,0.0453,-0.0166,-11.87,-29.94,-11.75,334.92,-83.73,-65.25
2543,52.39559,-1.248702,166.99,17.36,4,26.78,13 / 16,730708,2019-09-04 20:18:42:821,-1.1767,1.7482,10.6092,0.0088,0.0208,9.8066,0.0646,0.0485,-0.0356,-12.0,-28.81,-11.5,335.93,-83.95,-67.04
2544,52.39559,-1.248702,166.99,17.36,4,26.78,13 / 16,730808,2019-09-04 20:18:42:921,-1.0234,1.9727,10.0894,0.0129,0.0127,9.8066,0.0118,0.0539,0.0191,-11.37,-29.25,-11.44,329.68,-84.15,-69.67
2545,52.39559,-1.248702,166.99,17.36,4,26.78,13 / 16,730908,2019-09-04 20:18:43:021,-0.59,1.6324,10.6749,0.0092,-0.0047,9.8066,0.0005,0.0268,0.0362,-10.75,-29.69,-11.44,327.3,-84.08,-71.38
2546,52.39559,-1.248702,166.99,17.36,4,26.78,13 / 16,731008,2019-09-04 20:18:43:121,-1.1447,1.2585,9.0559,-0.0036,-0.0034,9.8066,0.0061,0.0444,-0.0024,-11.44,-28.94,-11.56,324.68,-83.93,-71.41
2547,52.39559,-1.248702,166.99,17.36,4,26.78,13 / 16,731108,2019-09-04 20:18:43:221,-0.3431,1.3563,10.5176,-0.0031,0.0106,9.8066,0.0041,0.0584,-0.0421,-11.56,-29.31,-11.31,330.3,-84.0,-71.76
2548,52.39559,-1.248702,166.99,17.36,4,26.78,13 / 16,731207,2019-09-04 20:18:43:320,-1.6237,2.499,9.4351,-0.0009,0.0136,9.8066,0.0165,0.062,-0.0081,-10.5,-29.37,-11.75,320.71,-84.16,-72.07
2549,52.39559,-1.248702,166.99,17.36,4,26.78,13 / 16,731308,2019-09-04 20:18:43:421,-0.0109,0.5271,8.8283,0.0125,-0.0006,9.8066,0.0191,0.0251,0.0515,-11.0,-29.31,-11.06,325.03,-84.19,-73.61
2550,52.39559,-1.248702,166.99,17.36,4,26.78,13 / 16,731407,2019-09-04 20:18:43:520,-0.8237,1.8275,9.4151,0.0107,-0.013,9.8066,-0.0358,0.0562,0.0439,-11.06,-29.75,-11.06,323.7,-84.06,-74.35
2551,52.39559,-1.248702,166.99,17.36,4,26.78,13 / 16,731507,2019-09-04 20:18:43:620,-1.6702,0.4792,10.0485,-0.0004,-0.0016,9.8066,-0.0116,0.0574,0.0084,-11.25,-29.37,-11.44,323.8,-83.87,-74.28
2552,52.39559,-1.248702,166.99,17.36,4,26.78,13 / 16,731608,2019-09-04 20:18:43:721,-0.6263,1.3315,10.0411,0.0003,0.0003,9.8065,0.0031,0.0746,0.0055,-10.5,-30.0,-11.69,317.6,-83.87,-74.07
2553,52.39559,-1.248702,166.99,17.36,4,26.78,13 / 16,731707,2019-09-04 20:18:43:820,-0.642,1.6519,8.4211,-0.0096,0.0024,9.8065,-0.0109,0.0743,-0.0248,-10.94,-29.19,-10.81,324.51,-83.92,-73.74
2554,52.39559,-1.248702,166.99,17.36,4,26.78,13 / 16,731808,2019-09-04 20:18:43:921,-0.9955,1.3834,9.9583,-0.0103,0.0016,9.8066,-0.0121,0.0489,-0.0117,-10.44,-28.87,-12.0,319.55,-84.05,-72.91
2555,52.39559,-1.248702,166.99,17.36,4,26.78,13 / 16,731908,2019-09-04 20:18:44:021,-0.3076,1.6331,9.9578,-0.0056,0.0087,9.8065,-0.0105,0.0889,-0.0076,-10.5,-29.81,-12.25,319.87,-84.19,-72.57
2556,52.39559,-1.248702,166.99,17.36,4,26.78,13 / 16,732008,2019-09-04 20:18:44:121,-0.6488,1.1571,8.9237,0.0064,0.0015,9.8066,0.0011,0.0648,0.0191,-10.94,-28.94,-11.75,323.4,-84.22,-72.82
2557,52.39559,-1.248702,166.99,17.36,4,26.78,13 / 16,732108,2019-09-04 20:18:44:221,-0.6675,1.4276,9.54,0.0039,-0.002,9.8066,-0.0119,0.0679,0.0106,-10.19,-29.19,-11.31,321.26,-84.14,-73.69
2558,52.39559,-1.248702,166.99,17.36,4,26.78,13 / 16,732207,2019-09-04 20:18:44:320,-0.8782,1.3187,10.4391,-0.0051,-0.0017,9.8066,-0.0179,0.0367,-0.0206,-10.25,-29.75,-11.94,319.02,-84.13,-73.22
2559,52.39559,-1.248702,166.99,17.36,4,26.78,13 / 16,732307,2019-09-04 20:18:44:420,-1.1338,1.5073,9.7931,-0.0106,0.0085,9.8066,-0.0107,0.0778,-0.0239,-10.62,-29.12,-11.56,323.54,-84.27,-72.75
2560,52.39559,-1.248702,166.99,17.36,4,26.78,14 / 16,732407,2019-09-04 20:18:44:520,-1.382,2.0366,8.6472,-0.0018,0.0078,9.8066,0.0101,0.0397,0.0071,-9.5,-29.81,-12.06,316.29,-84.35,-72.6
2561,52.39559,-1.248702,166.99,17.36,4,26.78,14 / 16,732508,2019-09-04 20:18:44:621,-1.3194,1.5756,9.5671,0.0045,0.0018,9.8066,0.0021,0.0353,0.0117,-9.56,-29.31,-11.87,319.48,-84.37,-73.37
2562,52.39559,-1.248702,166.99,17.36,4,26.78,14 / 16,732608,2019-09-04 20:18:44:721,-0.5044,1.0992,9.159,0.0003,-0.0036,9.8066,-0.0122,0.0666,0.0163,-9.94,-29.25,-12.25,319.25,-84.33,-73.53
2563,52.39559,-1.248702,166.99,17.36,4,26.78,14 / 16,732708,2019-09-04 20:18:44:821,-0.7974,0.6136,9.6859,-0.0031,0.0018,9.8066,0.0004,0.0595,0.0061,-9.87,-29.0,-12.31,319.67,-84.32,-73.15
2564,52.39559,-1.248702,166.99,17.36,4,26.78,14 / 16,732808,2019-09-04 20:18:44:921,-1.3431,1.9428,9.9996,0.002,0.0012,9.8066,-0.0016,0.0669,0.0141,-9.75,-28.81,-12.5,319.42,-84.29,-73.34
2565,52.39559,-1.248702,166.99,17.36,4,26.78,14 / 16,732908,2019-09-04 20:18:45:021,-1.3151,1.3655,9.6399,-0.0022,0.0008,9.8066,0.0112,0.0605,-0.0039,-9.56,-29.19,-12.75,316.87,-84.3,-73.64
2566,52.39559,-1.248702,166.99,17.36,4,26.78,14 / 16,733008,2019-09-04 20:18:45:121,-1.4796,2.1746,10.8497,-0.0027,0.0071,9.8066,0.0265,0.0634,-0.008,-10.06,-29.06,-12.94,316.5,-84.35,-74.04
2567,52.39559,-1.248702,166.99,17.36,4,26.78,14 / 16,733107,2019-09-04 20:18:45:220,-2.2071,1.9473,10.9795,0.0039,0.0109,9.8066,0.0131,0.0592,-0.0067,-9.25,-29.0,-12.75,311.43,-84.46,-75.48
2568,52.39559,-1.248702,166.99,17.36,4,26.78,14 / 16,733207,2019-09-04 20:18:45:320,-1.6023,1.8966,10.1017,0.0037,-0.0012,9.8066,-0.0201,0.0684,0.0192,-9.19,-29.5,-12.81,310.72,-84.45,-76.09
2569,52.39559,-1.248702,166.99,17.36,4,26.78,13 / 15,733308,2019-09-04 20:18:45:421,-1.2694,1.2808,9.9832,-0.0029,-0.0067,9.8066,-0.0138,0.0762,0.0077,-9.44,-29.19,-12.69,311.58,-84.37,-75.23
2570,52.39559,-1.248702,166.99,17.36,4,26.78,13 / 15,733407,2019-09-04 20:18:45:520,-1.545,2.2224,8.5853,-0.0106,-0.0016,9.8066,0.0015,0.0711,-0.0085,-8.94,-29.19,-12.75,313.22,-84.43,-73.88
2571,52.39559,-1.248702,166.99,17.36,4,26.78,13 / 15,733508,2019-09-04 20:18:45:621,-1.6423,0.9139,9.1113,-0.0023,-0.0015,9.8066,0.0032,0.0626,0.0087,-8.31,-28.62,-12.87,309.69,-84.47,-73.66
2572,52.39559,-1.248702,166.99,17.36,4,26.78,13 / 15,733608,2019-09-04 20:18:45:721,-1.4143,1.0309,8.9921,0.0,-0.0013,9.8066,-0.0029,0.0728,0.0116,-8.94,-29.25,-13.12,313.54,-84.47,-73.64
2573,52.39559,-1.248702,166.99,17.36,4,26.78,13 / 15,733707,2019-09-04 20:18:45:820,-0.9887,1.3445,10.6824,-0.0045,-0.0012,9.8066,-0.008,0.0762,-0.0144,-8.31,-28.81,-13.62,308.43,-84.47,-73.35
2574,52.39559,-1.248702,166.99,17.36,4,26.78,13 / 15,733807,2019-09-04 20:18:45:920,-2.1721,1.615,9.2096,-0.0076,0.0087,9.8066,0.0021,0.0432,-0.0537,-8.94,-28.87,-13.0,314.48,-84.56,-72.94
2575,52.39559,-1.248702,166.99,17.36,4,26.78,13 / 15,733908,2019-09-04 20:18:46:021,-3.3201,1.1132,8.5651,-0.0169,0.0013,9.8066,-0.0138,0.0895,-0.0416,-8.31,-28.94,-13.69,310.35,-84.82,-72.16
2576,52.39559,-1.248702,166.99,17.36,4,26.78,13 / 15,734008,2019-09-04 20:18:46:121,-1.3155,0.8019,9.0974,-0.0106,-0.0009,9.8066,-0.0215,0.0604,-0.0235,-7.25,-29.25,-13.62,308.84,-84.93,-70.27
2577,52.39559,-1.248702,166.99,17.36,4,26.78,13 / 15,734107,2019-09-04 20:18:46:220,-1.9233,1.5755,9.4176,0.0021,-0.0001,9.8066,-0.0242,0.0639,0.0427,-7.5,-29.19,-13.37,310.62,-84.98,-70.06
2578,52.39559,-1.248702,166.99,17.36,4,26.78,13 / 15,734208,2019-09-04 20:18:46:321,-0.7717,1.7474,9.6516,0.0228,-0.0213,9.8065,-0.0276,0.0532,0.0806,-7.87,-28.81,-13.75,312.71,-84.75,-69.95
2579,52.39559,-1.248702,166.99,17.36,4,26.78,13 / 15,734308,2019-09-04 20:18:46:421,-1.2758,1.7093,10.7227,0.0193,-0.0079,9.8065,0.0056,0.0577,0.0456,-8.0,-29.44,-13.69,311.55,-84.28,-70.33
2580,52.39559,-1.248702,166.99,17.36,4,26.78,13 / 15,734407,2019-09-04 20:18:46:520,-0.7869,0.0564,9.0025,0.0075,0.0087,9.8066,0.0136,0.0518,0.0025,-7.87,-28.94,-12.75,311.81,-84.18,-71.37
2581,52.39559,-1.248702,166.99,17.36,4,26.78,13 / 15,734508,2019-09-04 20:18:46:621,-0.9477,1.8471,10.4659,-0.0068,0.0075,9.8066,0.021,0.0208,-0.0293,-8.25,-28.81,-13.69,309.17,-84.25,-72.38
2582,52.39559,-1.248702,166.99,17.36,4,26.78,13 / 15,734607,2019-09-04 20:18:46:720,-0.6463,1.0985,10.5274,-0.0019,0.0014,9.8066,0.0064,0.0317,0.0046,-7.69,-29.0,-13.75,309.21,-84.38,-72.54
2583,52.39559,-1.248702,166.99,17.36,4,26.78,13 / 15,734708,2019-09-04 20:18:46:821,-1.9232,2.1523,10.951,0.0023,0.0026,9.8066,0.0055,0.066,0.0142,-7.75,-29.31,-13.0,310.25,-84.38,-73.03
2584,52.39559,-1.248702,166.99,17.36,4,26.78,13 / 15,734807,2019-09-04 20:18:46:920,-0.9968,0.5188,9.52,-0.0011,0.0009,9.8066,0.0046,0.0561,-0.0094,-7.75,-29.0,-13.62,308.24,-84.39,-73.41
2585,52.39559,-1.248702,166.99,17.36,4,26.78,13 / 15,734908,2019-09-04 20:18:47:021,-0.4404,0.6098,9.3421,-0.0009,0.0025,9.8066,0.0084,0.0446,0.0042,-7.44,-29.19,-14.06,304.42,-84.43,-73.47
2586,52.39559,-1.248702,166.99,17.36,4,26.78,13 / 15,735008,2019-09-04 20:18:47:121,-1.5808,1.4325,10.0606,0.0065,-0.0032,9.8066,-0.0142,0.0523,0.0313,-7.62,-28.81,-13.44,308.98,-84.43,-74.22
2587,52.39559,-1.248702,166.99,17.36,4,26.78,13 / 15,735108,2019-09-04 20:18:47:221,-0.8714,1.0966,9.7917,-0.0003,-0.0033,9.8066,-0.0247,0.0288,0.0011,-7.37,-28.44,-13.62,303.79,-84.32,-74.16
2588,52.39559,-1.248702,166.99,17.36,4,26.78,13 / 15,735208,2019-09-04 20:18:47:321,-0.4336,-0.0856,8.7814,-0.0051,-0.0119,9.8066,-0.029,0.0549,0.0055,-7.75,-28.75,-14.06,309.43,-84.32,-72.26
2589,52.39559,-1.248702,166.99,17.36,4,26.78,13 / 15,735308,2019-09-04 20:18:47:421,-0.9891,0.8272,9.2767,-0.0065,0.0006,9.8066,0.0017,0.0394,-0.0176,-7.37,-28.69,-13.44,307.93,-84.33,-71.41
2590,52.39559,-1.248702,166.99,17.36,4,26.78,13 / 17,735408,2019-09-04 20:18:47:521,-0.9731,0.4726,9.3204,0.003,0.0092,9.8066,0.0186,0.0443,0.0026,-6.81,-29.25,-13.75,306.49,-84.41,-71.58
2591,52.39559,-1.248702,166.99,17.36,4,26.78,13 / 17,735507,2019-09-04 20:18:47:620,-1.2616,1.9106,10.426,0.0017,0.0062,9.8066,0.0065,0.0209,-0.0028,-7.44,-28.56,-13.56,305.06,-84.45,-72.92
2592,52.39559,-1.248702,166.99,17.36,4,26.78,13 / 17,735607,2019-09-04 20:18:47:720,-0.8657,1.1349,9.857,0.0051,0.0031,9.8065,0.0076,0.0127,0.0017,-7.56,-28.56,-13.81,308.51,-84.43,-73.23
2593,52.39559,-1.248702,166.99,17.36,4,26.78,13 / 17,735708,2019-09-04 20:18:47:821,-0.9097,1.1763,10.2465,0.0005,0.0028,9.8066,0.0052,0.0449,-0.0035,-7.06,-28.62,-13.44,305.13,-84.43,-74.05
2594,52.39559,-1.248702,166.99,17.36,4,26.78,13 / 17,735809,2019-09-04 20:18:47:922,-0.7644,0.8697,9.6761,-0.0056,0.0053,9.8066,0.0045,0.0323,-0.0206,-7.5,-28.44,-14.44,303.87,-84.52,-74.4
2595,52.39559,-1.248702,166.99,17.36,4,26.78,13 / 17,735908,2019-09-04 20:18:48:021,-1.2002,1.3205,9.5364,-0.0088,0.0076,9.8066,-0.0042,0.0244,-0.0367,-7.12,-28.69,-14.19,303.66,-84.65,-74.5
2596,52.39559,-1.248702,166.99,17.36,4,26.78,13 / 17,736008,2019-09-04 20:18:48:121,-1.0443,1.2617,9.4537,-0.0088,0.0,9.8066,-0.0073,0.0299,-0.0071,-7.75,-28.94,-13.94,308.21,-84.77,-74.0
2597,52.39559,-1.248702,166.99,17.36,4,26.78,13 / 17,736108,2019-09-04 20:18:48:221,-0.7366,1.278,9.7648,-0.0053,0.0012,9.8065,-0.0156,0.0409,0.0042,-7.37,-28.56,-14.25,305.3,-84.87,-73.37
2598,52.39559,-1.248702,166.99,17.36,4,26.78,13 / 17,736207,2019-09-04 20:18:48:320,-0.5968,1.2659,10.2497,0.0016,-0.0002,9.8066,-0.008,0.0258,0.0068,-7.69,-28.56,-14.5,309.35,-84.87,-73.12
2599,52.39559,-1.248702,166.99,17.36,4,26.78,13 / 17,736310,2019-09-04 20:18:48:423,-0.3619,0.5577,9.5982,-0.0025,-0.0036,9.8066,0.0033,0.0087,0.0032,-7.56,-27.75,-14.12,309.8,-84.86,-72.95
2600,52.39559,-1.248702,166.99,17.36,4,26.78,14 / 16,736407,2019-09-04 20:18:48:520,-1.1105,0.7002,10.5852,-0.0001,0.0055,9.8066,0.0025,0.0364,0.0171,-8.25,-27.94,-14.62,307.75,-84.9,-73.55
2601,52.39559,-1.248702,166.99,17.36,4,26.78,14 / 16,736508,2019-09-04 20:18:48:621,0.2677,0.8355,9.9982,-0.0024,0.008,9.8066,0.0116,-0.005,-0.004,-8.5,-27.87,-14.25,308.47,-84.95,-74.28
2602,52.39559,-1.248702,166.99,17.36,4,26.78,14 / 16,736607,2019-09-04 20:18:48:720,-0.8886,1.328,9.9866,-0.0116,0.0107,9.8066,-0.0073,0.0371,-0.0268,-8.37,-27.81,-14.0,307.68,-85.05,-75.14
2603,52.39559,-1.248702,166.99,17.36,4,26.78,14 / 16,736708,2019-09-04 20:18:48:821,-0.8864,0.9636,9.9383,-0.0127,0.0085,9.8065,0.0066,0.0177,-0.0404,-8.69,-28.31,-13.19,313.66,-85.31,-74.91
2604,52.39559,-1.248702,166.99,17.36,4,26.78,14 / 16,736808,2019-09-04 20:18:48:921,-0.6256,1.4663,10.1304,-0.0092,0.0039,9.8066,-0.0159,0.0006,-0.018,-8.56,-27.69,-12.87,314.02,-85.46,-74.79
2605,52.39559,-1.248702,166.99,17.36,4,26.78,14 / 16,736908,2019-09-04 20:18:49:021,-0.6745,1.0756,10.0207,-0.0048,0.0,9.8066,-0.0185,0.0161,-0.0094,-8.25,-27.81,-13.19,311.64,-85.59,-73.81
2606,52.39559,-1.248702,166.99,17.36,4,26.78,14 / 16,737008,2019-09-04 20:18:49:121,-0.6536,0.2085,8.8165,-0.0003,-0.0016,9.8066,-0.0057,0.0033,-0.0028,-7.75,-28.44,-12.75,312.49,-85.63,-73.11
2607,52.39559,-1.248702,166.99,17.36,4,26.78,14 / 16,737109,2019-09-04 20:18:49:222,0.2355,0.9038,9.523,-0.0046,0.0033,9.8066,-0.0157,0.0064,-0.0151,-7.5,-28.62,-13.5,308.54,-85.67,-73.01
2608,52.39559,-1.248702,166.99,17.36,4,26.78,14 / 16,737208,2019-09-04 20:18:49:321,-0.2565,0.8435,9.8834,-0.0109,0.0081,9.8066,0.0205,0.0132,-0.0264,-7.37,-28.62,-13.19,308.9,-85.75,-72.8
2609,52.39559,-1.248702,166.99,17.36,4,26.78,14 / 16,737307,2019-09-04 20:18:49:420,-0.0599,0.7794,9.4044,-0.0114,0.0129,9.8066,0.0053,0.0092,-0.0322,-6.31,-28.69,-12.81,304.67,-86.01,-73.38
2610,52.39559,-1.248702,166.99,17.36,4,26.78,14 / 16,737407,2019-09-04 20:18:49:520,-0.7419,0.4422,10.0239,-0.0106,0.0031,9.8066,0.0016,-0.0046,-0.0152,-6.44,-29.0,-13.69,303.84,-86.13,-73.17
2611,52.39559,-1.248702,166.99,17.36,4,26.78,14 / 16,737508,2019-09-04 20:18:49:621,0.0503,0.5477,9.4665,-0.0036,-0.0017,9.8066,-0.0172,0.0083,-0.0059,-6.19,-29.25,-13.19,305.77,-86.24,-72.75
