,GPS LATITUDE (degrees),GPS LONGITUDE (degrees), GPS ALTITUDE (m),GPS SPEED (Kmh),GPS ACCURACY (m),GPS ORIENTATION (Â°), SATELLITES IN RANGE, TIME SINCE START (ms), DATE (YYYY-MO-DD HH-MI-SS_SSS),ACCELEROMETER X (m/s²) , ACCELEROMETER Y (m/s²), ACCELEROMETER Z (m/s²), GRAVITY X (m/s²), GRAVITY Y (m/s²), GRAVITY Z (m/s²), GYROSCOPE Yaw (rad/s), GYROSCOPE Pitch (rad/s), GYROSCOPE Roll (rad/s)
34364,47.857754,-1.691502,115.72,30.33,9.648001,12.0,0 / 23,1026141,2019-08-12 16:49:46:583,-0.2099,0.616,10.0962,-0.2738,0.6168,9.7834,0.0016,0.0021,0.014
34365,47.857754,-1.691502,115.72,30.33,9.648001,12.0,0 / 23,1026141,2019-08-12 16:49:46:583,-0.2099,0.616,10.0962,-0.2738,0.6168,9.7834,0.0016,0.0021,0.014
34366,47.857754,-1.691502,115.72,30.33,9.648001,12.0,0 / 23,1026142,2019-08-12 16:49:46:584,-0.2099,0.616,10.0962,-0.2738,0.6168,9.7834,0.0016,0.0021,0.014
34367,47.857754,-1.691502,115.72,30.33,9.648001,12.0,0 / 23,1026142,2019-08-12 16:49:46:584,-0.2099,0.616,10.0962,-0.2738,0.6168,9.7834,0.0016,0.0021,0.014
34368,47.857754,-1.691502,115.72,30.33,9.648001,12.0,0 / 23,1026142,2019-08-12 16:49:46:584,-0.2099,0.616,10.0962,-0.2738,0.6168,9.7834,0.0016,0.0021,0.014
34369,47.857754,-1.691502,115.72,30.33,9.648001,12.0,0 / 23,1026143,2019-08-12 16:49:46:585,-0.2099,0.616,10.0962,-0.2738,0.6168,9.7834,0.0016,0.0021,0.014
34370,47.857754,-1.691502,115.72,30.33,9.648001,12.0,0 / 23,1026143,2019-08-12 16:49:46:585,-0.2099,0.616,10.0962,-0.2738,0.6168,9.7834,0.0016,0.0021,0.014
34371,47.857754,-1.691502,115.72,30.33,9.648001,12.0,0 / 23,1026143,2019-08-12 16:49:46:585,-0.2099,0.616,10.0962,-0.2738,0.6168,9.7834,0.0016,0.0021,0.014
34372,47.857754,-1.691502,115.72,30.33,9.648001,12.0,0 / 23,1026144,2019-08-12 16:49:46:586,-0.2099,0.616,10.0962,-0.2738,0.6168,9.7834,0.0016,0.0021,0.014
34373,47.857754,-1.691502,115.72,30.33,9.648001,12.0,0 / 23,1026144,2019-08-12 16:49:46:586,-0.2099,0.616,10.0962,-0.2738,0.6168,9.7834,0.0016,0.0021,0.014
34374,47.857754,-1.691502,115.72,30.33,9.648001,12.0,0 / 23,1026144,2019-08-12 16:49:46:586,-0.2099,0.616,10.0962,-0.2738,0.6168,9.7834,0.0016,0.0021,0.014
34375,47.857754,-1.691502,115.72,30.33,9.648001,12.0,0 / 23,1026145,2019-08-12 16:49:46:587,-0.2099,0.616,10.0962,-0.2738,0.6168,9.7834,0.0016,0.0021,0.014
34376,47.857754,-1.691502,115.72,30.33,9.648001,12.0,0 / 23,1026145,2019-08-12 16:49:46:587,-0.2099,0.616,10.0962,-0.2738,0.6168,9.7834,0.0016,0.0021,0.014
34377,47.857754,-1.691502,115.72,30.33,9.648001,12.0,0 / 23,1026145,2019-08-12 16:49:46:587,-0.2099,0.616,10.0962,-0.2738,0.6168,9.7834,0.0016,0.0021,0.014
34378,47.857754,-1.691502,115.72,30.33,9.648001,12.0,0 / 23,1026146,2019-08-12 16:49:46:588,-0.2099,0.616,10.0962,-0.2738,0.6168,9.7834,0.0016,0.0021,0.014
34379,47.857754,-1.691502,115.72,30.33,9.648001,12.0,0 / 23,1026146,2019-08-12 16:49:46:588,-0.2099,0.616,10.0962,-0.2738,0.6168,9.7834,0.0016,0.0021,0.014
34380,47.857754,-1.691502,115.72,30.33,9.648001,12.0,0 / 23,1026150,2019-08-12 16:49:46:592,-0.2099,0.616,10.0962,-0.2738,0.6168,9.7834,0.0016,0.0021,0.014
34381,47.857754,-1.691502,115.72,30.33,9.648001,12.0,0 / 23,1026250,2019-08-12 16:49:46:692,-0.2099,0.616,10.0962,-0.2738,0.6168,9.7834,0.0016,0.0021,0.014
34382,47.857754,-1.691502,115.72,30.33,9.648001,12.0,0 / 23,1026548,2019-08-12 16:49:46:990,-0.2099,0.616,10.0962,-0.2738,0.6168,9.7834,0.0016,0.0021,0.014
34383,47.857754,-1.691502,115.72,30.33,9.648001,12.0,0 / 23,1026549,2019-08-12 16:49:46:991,-0.2099,0.616,10.0962,-0.2738,0.6168,9.7834,0.0016,0.0021,0.014
34384,47.857754,-1.691502,115.72,30.33,9.648001,12.0,0 / 23,1026549,2019-08-12 16:49:46:991,-0.2099,0.616,10.0962,-0.2738,0.6168,9.7834,0.0016,0.0021,0.014
34385,47.857754,-1.691502,115.72,30.33,9.648001,12.0,0 / 23,1026550,2019-08-12 16:49:46:992,-0.2099,0.616,10.0962,-0.2738,0.6168,9.7834,0.0016,0.0021,0.014
34386,47.857754,-1.691502,115.72,30.33,9.648001,12.0,0 / 23,1026550,2019-08-12 16:49:46:992,-0.2099,0.616,10.0962,-0.2738,0.6168,9.7834,0.0016,0.0021,0.014
34387,47.857754,-1.691502,115.72,30.33,9.648001,12.0,0 / 23,1026551,2019-08-12 16:49:46:993,-0.2099,0.616,10.0962,-0.2738,0.6168,9.7834,0.0016,0.0021,0.014
34388,47.857754,-1.691502,115.72,30.33,9.648001,12.0,0 / 23,1026551,2019-08-12 16:49:46:993,-0.2099,0.616,10.0962,-0.2738,0.6168,9.7834,0.0016,0.0021,0.014
34389,47.857754,-1.691502,115.72,30.33,9.648001,12.0,15 / 23,1026553,2019-08-12 16:49:46:995,-0.2099,0.616,10.0962,-0.2738,0.6168,9.7834,0.0016,0.0021,0.014
34390,47.857754,-1.691502,115.72,30.33,9.648001,12.0,15 / 23,1026585,2019-08-12 16:49:47:027,-0.2099,0.616,10.0962,-0.2738,0.6168,9.7834,0.0016,0.0021,0.014
34391,47.857754,-1.691502,115.72,30.33,9.648001,12.0,15 / 23,1026685,2019-08-12 16:49:47:127,-0.2099,0.616,10.0962,-0.2738,0.6168,9.7834,0.0016,0.0021,0.014
34392,47.857754,-1.691502,115.72,30.33,9.648001,12.0,15 / 23,1027002,2019-08-12 16:49:47:444,-0.2099,0.616,10.0962,-0.2738,0.6168,9.7834,0.0016,0.0021,0.014
34393,47.857754,-1.691502,115.72,30.33,9.648001,12.0,15 / 23,1027003,2019-08-12 16:49:47:445,-0.2099,0.616,10.0962,-0.2738,0.6168,9.7834,0.0016,0.0021,0.014
34394,47.857754,-1.691502,115.72,30.33,9.648001,12.0,15 / 23,1027003,2019-08-12 16:49:47:445,-0.2099,0.616,10.0962,-0.2738,0.6168,9.7834,0.0016,0.0021,0.014
34395,47.857754,-1.691502,115.72,30.33,9.648001,12.0,15 / 23,1027085,2019-08-12 16:49:47:527,-0.2099,0.616,10.0962,-0.2738,0.6168,9.7834,0.0016,0.0021,0.014
34396,47.857754,-1.691502,115.72,30.33,9.648001,12.0,15 / 23,1027185,2019-08-12 16:49:47:627,-0.2099,0.616,10.0962,-0.2738,0.6168,9.7834,0.0016,0.0021,0.014
34397,47.857754,-1.691502,115.72,30.33,9.648001,12.0,15 / 23,1027571,2019-08-12 16:49:48:013,-0.1596,0.5155,10.156,-0.249,0.5008,9.7907,0.0005,0.0032,0.014
34398,47.857754,-1.691502,115.72,30.33,9.648001,12.0,15 / 23,1027572,2019-08-12 16:49:48:014,-0.1596,0.5155,10.156,-0.249,0.5008,9.7907,0.0005,0.0032,0.014
34399,47.857754,-1.691502,115.72,30.33,9.648001,12.0,15 / 23,1027572,2019-08-12 16:49:48:014,-0.1596,0.5155,10.156,-0.249,0.5008,9.7907,0.0005,0.0032,0.014
34400,47.860153,-1.690991,116.45,30.36,8.576,7.5,0 / 23,1027586,2019-08-12 16:49:48:028,-0.1596,0.5155,10.156,-0.249,0.5008,9.7907,0.0005,0.0032,0.014
34401,47.860153,-1.690991,116.45,30.36,8.576,7.5,0 / 23,1027684,2019-08-12 16:49:48:126,-0.1596,0.5155,10.156,-0.249,0.5008,9.7907,0.0005,0.0032,0.014
34402,47.860153,-1.690991,116.45,30.36,8.576,7.5,0 / 23,1027785,2019-08-12 16:49:48:227,-0.3619,0.6041,9.8711,-0.2477,0.4513,9.7931,0.0016,0.0032,0.0076
34403,47.860153,-1.690991,116.45,30.36,8.576,7.5,0 / 23,1027885,2019-08-12 16:49:48:327,-0.1668,0.4844,10.1297,-0.2566,0.4457,9.7932,-0.0112,0.0032,0.0087
34404,47.860153,-1.690991,116.45,30.36,8.576,7.5,0 / 23,1027985,2019-08-12 16:49:48:427,-0.1716,0.4281,9.9693,-0.2584,0.4382,9.7934,-0.0006,-0.0053,0.0087
34405,47.860153,-1.690991,116.45,30.36,8.576,7.5,0 / 23,1028085,2019-08-12 16:49:48:527,-0.302,0.4341,10.1776,-0.261,0.4373,9.7934,-0.0027,-0.0053,0.0087
34406,47.860153,-1.690991,116.45,30.36,8.576,7.5,0 / 23,1028185,2019-08-12 16:49:48:627,-0.302,0.4341,10.1776,-0.261,0.4373,9.7934,-0.0027,-0.0053,0.0087
34407,47.860153,-1.690991,116.45,30.36,8.576,7.5,0 / 23,1028285,2019-08-12 16:49:48:727,-0.3511,0.4544,9.6485,-0.2689,0.4454,9.7928,0.0016,0.0021,0.0076
34408,47.860153,-1.690991,116.45,30.36,8.576,7.5,0 / 23,1028385,2019-08-12 16:49:48:827,-0.2973,0.5346,9.3707,-0.2739,0.4358,9.7931,-0.0123,0.0074,0.0097
34409,47.860153,-1.690991,116.45,30.36,8.576,7.5,0 / 23,1028485,2019-08-12 16:49:48:927,-0.241,0.5789,9.3779,-0.2828,0.456,9.792,0.0037,0.0064,0.0076
34410,47.860153,-1.690991,116.45,30.36,8.576,7.5,0 / 23,1028585,2019-08-12 16:49:49:027,-0.1871,0.4784,9.5587,-0.2849,0.4498,9.7922,-0.0091,-0.0032,0.0087
34411,47.860153,-1.690991,116.45,30.36,8.576,7.5,0 / 23,1028685,2019-08-12 16:49:49:127,-0.1141,0.5789,10.1919,-0.2768,0.4654,9.7917,-0.0038,-0.0117,0.0097
34412,47.860153,-1.690991,116.45,30.36,8.576,7.5,0 / 23,1028785,2019-08-12 16:49:49:227,-0.2637,0.391,10.1345,-0.2661,0.4735,9.7916,-0.0091,-0.0011,0.0108
34413,47.860153,-1.690991,116.45,30.36,8.576,7.5,0 / 23,1028886,2019-08-12 16:49:49:328,-0.3332,0.5765,9.8903,-0.266,0.485,9.791,0.0037,0.0053,0.0119
34414,47.860153,-1.690991,116.45,30.36,8.576,7.5,0 / 23,1028985,2019-08-12 16:49:49:427,-0.3284,0.6376,9.9358,-0.2674,0.4946,9.7905,-0.0006,0.0064,0.0129
34415,47.860153,-1.690991,116.45,30.36,8.576,7.5,0 / 23,1029086,2019-08-12 16:49:49:528,-0.2984,0.4844,9.7706,-0.2683,0.5025,9.7901,0.0047,-0.0011,0.0129
34416,47.860153,-1.690991,116.45,30.36,8.576,7.5,0 / 23,1029186,2019-08-12 16:49:49:628,-0.253,0.4951,9.9836,-0.266,0.5041,9.7901,-0.0038,0.0032,0.0108
34417,47.860153,-1.690991,116.45,30.36,8.576,7.5,0 / 23,1029285,2019-08-12 16:49:49:727,-0.2961,0.5957,9.858,-0.2674,0.5144,9.7895,0.0047,-0.0011,0.0119
34418,47.860153,-1.690991,116.45,30.36,8.576,7.5,0 / 23,1029386,2019-08-12 16:49:49:828,-0.1009,0.6208,9.4509,-0.2589,0.5229,9.7893,0.0005,-0.0053,0.0129
34419,47.860153,-1.690991,116.45,30.36,8.576,7.5,0 / 23,1029485,2019-08-12 16:49:49:927,-0.1261,0.4772,10.1919,-0.2584,0.5271,9.7891,0.0079,0.0021,0.0129
34420,47.860153,-1.690991,116.45,30.36,8.576,7.5,0 / 23,1029585,2019-08-12 16:49:50:027,-0.2937,0.3503,10.1249,-0.2699,0.5319,9.7885,0.0005,0.0043,0.0108
34421,47.860153,-1.690991,116.45,30.36,8.576,7.5,0 / 23,1029685,2019-08-12 16:49:50:127,-0.3368,0.6627,10.0339,-0.2765,0.5416,9.7878,0.0016,0.0043,0.0119
34422,47.860153,-1.690991,116.45,30.36,8.576,7.5,0 / 23,1029785,2019-08-12 16:49:50:227,-0.3858,0.5155,10.0411,-0.2791,0.5438,9.7876,0.0079,-0.0064,0.0108
34423,47.860153,-1.690991,116.45,30.36,8.576,7.5,0 / 23,1029885,2019-08-12 16:49:50:327,-0.4816,0.5526,9.852,-0.2716,0.5463,9.7877,-0.0006,-0.0085,0.0087
34424,47.860153,-1.690991,116.45,30.36,8.576,7.5,0 / 23,1029985,2019-08-12 16:49:50:427,-0.2578,0.701,10.0555,-0.273,0.5382,9.7881,-0.0144,0.0011,0.0097
34425,47.860153,-1.690991,116.45,30.36,8.576,7.5,0 / 23,1030085,2019-08-12 16:49:50:527,-0.3032,0.6795,9.5443,-0.2798,0.5381,9.7879,-0.007,0.0,0.0108
34426,47.860153,-1.690991,116.45,30.36,8.576,7.5,0 / 23,1030401,2019-08-12 16:49:50:843,-0.3188,0.5454,9.5766,-0.284,0.5387,9.7877,-0.0059,0.0021,0.0119
34427,47.860153,-1.690991,116.45,30.36,8.576,7.5,0 / 23,1030404,2019-08-12 16:49:50:846,-0.3188,0.5454,9.5766,-0.284,0.5387,9.7877,-0.0059,0.0021,0.0119
34428,47.860153,-1.690991,116.45,30.36,8.576,7.5,0 / 23,1030405,2019-08-12 16:49:50:847,-0.3188,0.5454,9.5766,-0.284,0.5387,9.7877,-0.0059,0.0021,0.0119
34429,47.860153,-1.690991,116.45,30.36,8.576,7.5,0 / 23,1030405,2019-08-12 16:49:50:847,-0.3188,0.5454,9.5766,-0.284,0.5387,9.7877,-0.0059,0.0021,0.0119
34430,47.860153,-1.690991,116.45,30.36,8.576,7.5,0 / 23,1030406,2019-08-12 16:49:50:848,-0.3188,0.5454,9.5766,-0.284,0.5387,9.7877,-0.0059,0.0021,0.0119
34431,47.860153,-1.690991,116.45,30.36,8.576,7.5,0 / 23,1030406,2019-08-12 16:49:50:848,-0.3188,0.5454,9.5766,-0.284,0.5387,9.7877,-0.0059,0.0021,0.0119
34432,47.860153,-1.690991,116.45,30.36,8.576,7.5,0 / 23,1030406,2019-08-12 16:49:50:848,-0.3188,0.5454,9.5766,-0.284,0.5387,9.7877,-0.0059,0.0021,0.0119
34433,47.860153,-1.690991,116.45,30.36,8.576,7.5,0 / 23,1030407,2019-08-12 16:49:50:849,-0.3188,0.5454,9.5766,-0.284,0.5387,9.7877,-0.0059,0.0021,0.0119
34434,47.860153,-1.690991,116.45,30.36,8.576,7.5,0 / 23,1030407,2019-08-12 16:49:50:849,-0.3188,0.5454,9.5766,-0.284,0.5387,9.7877,-0.0059,0.0021,0.0119
34435,47.860153,-1.690991,116.45,30.36,8.576,7.5,0 / 23,1030408,2019-08-12 16:49:50:850,-0.3188,0.5454,9.5766,-0.284,0.5387,9.7877,-0.0059,0.0021,0.0119
34436,47.860153,-1.690991,116.45,30.36,8.576,7.5,0 / 23,1030408,2019-08-12 16:49:50:850,-0.3188,0.5454,9.5766,-0.284,0.5387,9.7877,-0.0059,0.0021,0.0119
34437,47.860153,-1.690991,116.45,30.36,8.576,7.5,0 / 23,1030408,2019-08-12 16:49:50:850,-0.3188,0.5454,9.5766,-0.284,0.5387,9.7877,-0.0059,0.0021,0.0119
34438,47.860153,-1.690991,116.45,30.36,8.576,7.5,0 / 23,1030409,2019-08-12 16:49:50:851,-0.3188,0.5454,9.5766,-0.284,0.5387,9.7877,-0.0059,0.0021,0.0119
34439,47.860153,-1.690991,116.45,30.36,8.576,7.5,0 / 23,1030409,2019-08-12 16:49:50:851,-0.3188,0.5454,9.5766,-0.284,0.5387,9.7877,-0.0059,0.0021,0.0119
34440,47.860153,-1.690991,116.45,30.36,8.576,7.5,0 / 23,1030409,2019-08-12 16:49:50:851,-0.3188,0.5454,9.5766,-0.284,0.5387,9.7877,-0.0059,0.0021,0.0119
34441,47.860153,-1.690991,116.45,30.36,8.576,7.5,0 / 23,1030410,2019-08-12 16:49:50:852,-0.3188,0.5454,9.5766,-0.284,0.5387,9.7877,-0.0059,0.0021,0.0119
34442,47.860153,-1.690991,116.45,30.36,8.576,7.5,0 / 23,1030410,2019-08-12 16:49:50:852,-0.3188,0.5454,9.5766,-0.284,0.5387,9.7877,-0.0059,0.0021,0.0119
34443,47.860153,-1.690991,116.45,30.36,8.576,7.5,0 / 23,1030411,2019-08-12 16:49:50:853,-0.3188,0.5454,9.5766,-0.284,0.5387,9.7877,-0.0059,0.0021,0.0119
34444,47.860153,-1.690991,116.45,30.36,8.576,7.5,0 / 23,1030440,2019-08-12 16:49:50:882,-0.3188,0.5454,9.5766,-0.284,0.5387,9.7877,-0.0059,0.0021,0.0119
34445,47.860153,-1.690991,116.45,30.36,8.576,7.5,0 / 23,1030540,2019-08-12 16:49:50:982,-0.3188,0.5454,9.5766,-0.284,0.5387,9.7877,-0.0059,0.0021,0.0119
34446,47.860153,-1.690991,116.45,30.36,8.576,7.5,0 / 23,1030863,2019-08-12 16:49:51:305,-0.3188,0.5454,9.5766,-0.284,0.5387,9.7877,-0.0059,0.0021,0.0119
34447,47.860153,-1.690991,116.45,30.36,8.576,7.5,0 / 23,1030864,2019-08-12 16:49:51:306,-0.3188,0.5454,9.5766,-0.284,0.5387,9.7877,-0.0059,0.0021,0.0119
34448,47.860153,-1.690991,116.45,30.36,8.576,7.5,0 / 23,1030864,2019-08-12 16:49:51:306,-0.3188,0.5454,9.5766,-0.284,0.5387,9.7877,-0.0059,0.0021,0.0119
34449,47.860153,-1.690991,116.45,30.36,8.576,7.5,0 / 23,1030865,2019-08-12 16:49:51:307,-0.3188,0.5454,9.5766,-0.284,0.5387,9.7877,-0.0059,0.0021,0.0119
34450,47.860153,-1.690991,116.45,30.36,8.576,7.5,0 / 23,1030865,2019-08-12 16:49:51:307,-0.3188,0.5454,9.5766,-0.284,0.5387,9.7877,-0.0059,0.0021,0.0119
34451,47.860153,-1.690991,116.45,30.36,8.576,7.5,0 / 23,1030865,2019-08-12 16:49:51:307,-0.3188,0.5454,9.5766,-0.284,0.5387,9.7877,-0.0059,0.0021,0.0119
34452,47.860153,-1.690991,116.45,30.36,8.576,7.5,0 / 23,1030866,2019-08-12 16:49:51:308,-0.3188,0.5454,9.5766,-0.284,0.5387,9.7877,-0.0059,0.0021,0.0119
34453,47.860153,-1.690991,116.45,30.36,8.576,7.5,0 / 23,1030868,2019-08-12 16:49:51:310,-0.3188,0.5454,9.5766,-0.284,0.5387,9.7877,-0.0059,0.0021,0.0119
34454,47.860153,-1.690991,116.45,30.36,8.576,7.5,0 / 23,1030868,2019-08-12 16:49:51:310,-0.3188,0.5454,9.5766,-0.284,0.5387,9.7877,-0.0059,0.0021,0.0119
34455,47.860153,-1.690991,116.45,30.36,8.576,7.5,0 / 23,1030868,2019-08-12 16:49:51:310,-0.3188,0.5454,9.5766,-0.284,0.5387,9.7877,-0.0059,0.0021,0.0119
34456,47.860153,-1.690991,116.45,30.36,8.576,7.5,0 / 23,1030870,2019-08-12 16:49:51:312,-0.3188,0.5454,9.5766,-0.284,0.5387,9.7877,-0.0059,0.0021,0.0119
34457,47.860153,-1.690991,116.45,30.36,8.576,7.5,0 / 23,1030870,2019-08-12 16:49:51:312,-0.3188,0.5454,9.5766,-0.284,0.5387,9.7877,-0.0059,0.0021,0.0119
34458,47.860153,-1.690991,116.45,30.36,8.576,7.5,0 / 23,1030871,2019-08-12 16:49:51:313,-0.3188,0.5454,9.5766,-0.284,0.5387,9.7877,-0.0059,0.0021,0.0119
34459,47.860153,-1.690991,116.45,30.36,8.576,7.5,0 / 23,1030871,2019-08-12 16:49:51:313,-0.3188,0.5454,9.5766,-0.284,0.5387,9.7877,-0.0059,0.0021,0.0119
34460,47.860153,-1.690991,116.45,30.36,8.576,7.5,0 / 23,1030953,2019-08-12 16:49:51:395,-0.3188,0.5454,9.5766,-0.284,0.5387,9.7877,-0.0059,0.0021,0.0119
34461,47.860153,-1.690991,116.45,30.36,8.576,7.5,0 / 23,1031326,2019-08-12 16:49:51:768,-0.3188,0.5454,9.5766,-0.284,0.5387,9.7877,-0.0059,0.0021,0.0119
34462,47.860153,-1.690991,116.45,30.36,8.576,7.5,0 / 23,1031327,2019-08-12 16:49:51:769,-0.3188,0.5454,9.5766,-0.284,0.5387,9.7877,-0.0059,0.0021,0.0119
34463,47.860153,-1.690991,116.45,30.36,8.576,7.5,0 / 23,1031328,2019-08-12 16:49:51:770,-0.3188,0.5454,9.5766,-0.284,0.5387,9.7877,-0.0059,0.0021,0.0119
34464,47.860153,-1.690991,116.45,30.36,8.576,7.5,0 / 23,1031329,2019-08-12 16:49:51:771,-0.3188,0.5454,9.5766,-0.284,0.5387,9.7877,-0.0059,0.0021,0.0119
34465,47.860153,-1.690991,116.45,30.36,8.576,7.5,0 / 23,1031329,2019-08-12 16:49:51:771,-0.3188,0.5454,9.5766,-0.284,0.5387,9.7877,-0.0059,0.0021,0.0119
34466,47.860153,-1.690991,116.45,30.36,8.576,7.5,0 / 23,1031330,2019-08-12 16:49:51:772,-0.3188,0.5454,9.5766,-0.284,0.5387,9.7877,-0.0059,0.0021,0.0119
34467,47.860153,-1.690991,116.45,30.36,8.576,7.5,0 / 23,1031330,2019-08-12 16:49:51:772,-0.3188,0.5454,9.5766,-0.284,0.5387,9.7877,-0.0059,0.0021,0.0119
34468,47.860153,-1.690991,116.45,30.36,8.576,7.5,0 / 23,1031330,2019-08-12 16:49:51:772,-0.3188,0.5454,9.5766,-0.284,0.5387,9.7877,-0.0059,0.0021,0.0119
34469,47.860153,-1.690991,116.45,30.36,8.576,7.5,0 / 23,1031331,2019-08-12 16:49:51:773,-0.3188,0.5454,9.5766,-0.284,0.5387,9.7877,-0.0059,0.0021,0.0119
34470,47.860153,-1.690991,116.45,30.36,8.576,7.5,0 / 23,1031357,2019-08-12 16:49:51:799,-0.3188,0.5454,9.5766,-0.284,0.5387,9.7877,-0.0059,0.0021,0.0119
34471,47.860153,-1.690991,116.45,30.36,8.576,7.5,0 / 23,1031457,2019-08-12 16:49:51:899,-0.3188,0.5454,9.5766,-0.284,0.5387,9.7877,-0.0059,0.0021,0.0119
34472,47.860153,-1.690991,116.45,30.36,8.576,7.5,0 / 23,1031769,2019-08-12 16:49:52:211,-0.3188,0.5454,9.5766,-0.284,0.5387,9.7877,-0.0059,0.0021,0.0119
34473,47.860153,-1.690991,116.45,30.36,8.576,7.5,0 / 23,1031769,2019-08-12 16:49:52:211,-0.3188,0.5454,9.5766,-0.284,0.5387,9.7877,-0.0059,0.0021,0.0119
34474,47.860153,-1.690991,116.45,30.36,8.576,7.5,0 / 23,1031770,2019-08-12 16:49:52:212,-0.3188,0.5454,9.5766,-0.284,0.5387,9.7877,-0.0059,0.0021,0.0119
34475,47.860153,-1.690991,116.45,30.36,8.576,7.5,0 / 23,1031770,2019-08-12 16:49:52:212,-0.3188,0.5454,9.5766,-0.284,0.5387,9.7877,-0.0059,0.0021,0.0119
34476,47.860153,-1.690991,116.45,30.36,8.576,7.5,0 / 23,1031771,2019-08-12 16:49:52:213,-0.3188,0.5454,9.5766,-0.284,0.5387,9.7877,-0.0059,0.0021,0.0119
34477,47.860153,-1.690991,116.45,30.36,8.576,7.5,0 / 23,1031771,2019-08-12 16:49:52:213,-0.3188,0.5454,9.5766,-0.284,0.5387,9.7877,-0.0059,0.0021,0.0119
34478,47.860153,-1.690991,116.45,30.36,8.576,7.5,Oct-23,1031772,2019-08-12 16:49:52:214,-0.3188,0.5454,9.5766,-0.284,0.5387,9.7877,-0.0059,0.0021,0.0119
34479,47.860153,-1.690991,116.45,30.36,8.576,7.5,Oct-23,1031772,2019-08-12 16:49:52:214,-0.3188,0.5454,9.5766,-0.284,0.5387,9.7877,-0.0059,0.0021,0.0119
34480,47.860153,-1.690991,116.45,30.36,8.576,7.5,Oct-23,1031806,2019-08-12 16:49:52:248,-0.3188,0.5454,9.5766,-0.284,0.5387,9.7877,-0.0059,0.0021,0.0119
34481,47.860153,-1.690991,116.45,30.36,8.576,7.5,Oct-23,1031906,2019-08-12 16:49:52:348,-0.3188,0.5454,9.5766,-0.284,0.5387,9.7877,-0.0059,0.0021,0.0119
34482,47.860153,-1.690991,116.45,30.36,8.576,7.5,Oct-23,1032226,2019-08-12 16:49:52:668,-0.3188,0.5454,9.5766,-0.284,0.5387,9.7877,-0.0059,0.0021,0.0119
34483,47.860153,-1.690991,116.45,30.36,8.576,7.5,Oct-23,1032226,2019-08-12 16:49:52:668,-0.3188,0.5454,9.5766,-0.284,0.5387,9.7877,-0.0059,0.0021,0.0119
34484,47.860153,-1.690991,116.45,30.36,8.576,7.5,Oct-23,1032227,2019-08-12 16:49:52:669,-0.3188,0.5454,9.5766,-0.284,0.5387,9.7877,-0.0059,0.0021,0.0119
34485,47.860153,-1.690991,116.45,30.36,8.576,7.5,Oct-23,1032227,2019-08-12 16:49:52:669,-0.3188,0.5454,9.5766,-0.284,0.5387,9.7877,-0.0059,0.0021,0.0119
34486,47.860153,-1.690991,116.45,30.36,8.576,7.5,0 / 23,1032229,2019-08-12 16:49:52:671,-0.3188,0.5454,9.5766,-0.284,0.5387,9.7877,-0.0059,0.0021,0.0119
34487,47.860153,-1.690991,116.45,30.36,8.576,7.5,0 / 23,1032231,2019-08-12 16:49:52:673,-0.3188,0.5454,9.5766,-0.284,0.5387,9.7877,-0.0059,0.0021,0.0119
34488,47.860153,-1.690991,116.45,30.36,8.576,7.5,0 / 23,1032232,2019-08-12 16:49:52:674,-0.3188,0.5454,9.5766,-0.284,0.5387,9.7877,-0.0059,0.0021,0.0119
34489,47.860153,-1.690991,116.45,30.36,8.576,7.5,0 / 23,1032235,2019-08-12 16:49:52:677,-0.3188,0.5454,9.5766,-0.284,0.5387,9.7877,-0.0059,0.0021,0.0119
34490,47.862556,-1.690681,109.57,30.26,7.504,2.5,0 / 23,1032258,2019-08-12 16:49:52:700,-0.3188,0.5454,9.5766,-0.284,0.5387,9.7877,-0.0059,0.0021,0.0119
34491,47.862556,-1.690681,109.57,30.26,7.504,2.5,0 / 23,1032358,2019-08-12 16:49:52:800,-0.3188,0.5454,9.5766,-0.284,0.5387,9.7877,-0.0059,0.0021,0.0119
34492,47.862556,-1.690681,109.57,30.26,7.504,2.5,0 / 23,1032693,2019-08-12 16:49:53:135,-0.3188,0.5454,9.5766,-0.284,0.5387,9.7877,-0.0059,0.0021,0.0119
34493,47.862556,-1.690681,109.57,30.26,7.504,2.5,0 / 23,1032694,2019-08-12 16:49:53:136,-0.3188,0.5454,9.5766,-0.284,0.5387,9.7877,-0.0059,0.0021,0.0119
34494,47.862556,-1.690681,109.57,30.26,7.504,2.5,0 / 23,1032694,2019-08-12 16:49:53:136,-0.3188,0.5454,9.5766,-0.284,0.5387,9.7877,-0.0059,0.0021,0.0119
34495,47.862556,-1.690681,109.57,30.26,7.504,2.5,0 / 23,1032695,2019-08-12 16:49:53:137,-0.3188,0.5454,9.5766,-0.284,0.5387,9.7877,-0.0059,0.0021,0.0119
34496,47.862556,-1.690681,109.57,30.26,7.504,2.5,0 / 23,1032695,2019-08-12 16:49:53:137,-0.3188,0.5454,9.5766,-0.284,0.5387,9.7877,-0.0059,0.0021,0.0119
34497,47.862556,-1.690681,109.57,30.26,7.504,2.5,0 / 23,1032697,2019-08-12 16:49:53:139,-0.3188,0.5454,9.5766,-0.284,0.5387,9.7877,-0.0059,0.0021,0.0119
34498,47.862556,-1.690681,109.57,30.26,7.504,2.5,0 / 23,1032697,2019-08-12 16:49:53:139,-0.3188,0.5454,9.5766,-0.284,0.5387,9.7877,-0.0059,0.0021,0.0119
34499,47.862556,-1.690681,109.57,30.26,7.504,2.5,0 / 23,1032699,2019-08-12 16:49:53:141,-0.3188,0.5454,9.5766,-0.284,0.5387,9.7877,-0.0059,0.0021,0.0119
34500,47.862556,-1.690681,109.57,30.26,7.504,2.5,0 / 23,1032702,2019-08-12 16:49:53:144,-0.3188,0.5454,9.5766,-0.284,0.5387,9.7877,-0.0059,0.0021,0.0119
34501,47.862556,-1.690681,109.57,30.26,7.504,2.5,0 / 23,1032703,2019-08-12 16:49:53:145,-0.3188,0.5454,9.5766,-0.284,0.5387,9.7877,-0.0059,0.0021,0.0119
34502,47.862556,-1.690681,109.57,30.26,7.504,2.5,0 / 23,1032703,2019-08-12 16:49:53:145,-0.3188,0.5454,9.5766,-0.284,0.5387,9.7877,-0.0059,0.0021,0.0119
34503,47.862556,-1.690681,109.57,30.26,7.504,2.5,0 / 23,1032704,2019-08-12 16:49:53:146,-0.3188,0.5454,9.5766,-0.284,0.5387,9.7877,-0.0059,0.0021,0.0119
34504,47.862556,-1.690681,109.57,30.26,7.504,2.5,0 / 23,1032704,2019-08-12 16:49:53:146,-0.3188,0.5454,9.5766,-0.284,0.5387,9.7877,-0.0059,0.0021,0.0119
34505,47.862556,-1.690681,109.57,30.26,7.504,2.5,0 / 23,1032705,2019-08-12 16:49:53:147,-0.3188,0.5454,9.5766,-0.284,0.5387,9.7877,-0.0059,0.0021,0.0119
34506,47.862556,-1.690681,109.57,30.26,7.504,2.5,0 / 23,1032707,2019-08-12 16:49:53:149,-0.3188,0.5454,9.5766,-0.284,0.5387,9.7877,-0.0059,0.0021,0.0119
34507,47.862556,-1.690681,109.57,30.26,7.504,2.5,0 / 23,1032707,2019-08-12 16:49:53:149,-0.3188,0.5454,9.5766,-0.284,0.5387,9.7877,-0.0059,0.0021,0.0119
34508,47.862556,-1.690681,109.57,30.26,7.504,2.5,0 / 23,1032712,2019-08-12 16:49:53:154,-0.3188,0.5454,9.5766,-0.284,0.5387,9.7877,-0.0059,0.0021,0.0119
34509,47.862556,-1.690681,109.57,30.26,7.504,2.5,0 / 23,1032713,2019-08-12 16:49:53:155,-0.3188,0.5454,9.5766,-0.284,0.5387,9.7877,-0.0059,0.0021,0.0119
34510,47.862556,-1.690681,109.57,30.26,7.504,2.5,0 / 23,1032713,2019-08-12 16:49:53:155,-0.3188,0.5454,9.5766,-0.284,0.5387,9.7877,-0.0059,0.0021,0.0119
34511,47.862556,-1.690681,109.57,30.26,7.504,2.5,0 / 23,1032714,2019-08-12 16:49:53:156,-0.3188,0.5454,9.5766,-0.284,0.5387,9.7877,-0.0059,0.0021,0.0119
34512,47.862556,-1.690681,109.57,30.26,7.504,2.5,0 / 23,1032714,2019-08-12 16:49:53:156,-0.3188,0.5454,9.5766,-0.284,0.5387,9.7877,-0.0059,0.0021,0.0119
34513,47.862556,-1.690681,109.57,30.26,7.504,2.5,0 / 23,1032715,2019-08-12 16:49:53:157,-0.3188,0.5454,9.5766,-0.284,0.5387,9.7877,-0.0059,0.0021,0.0119
34514,47.862556,-1.690681,109.57,30.26,7.504,2.5,0 / 23,1032715,2019-08-12 16:49:53:157,-0.3188,0.5454,9.5766,-0.284,0.5387,9.7877,-0.0059,0.0021,0.0119
34515,47.862556,-1.690681,109.57,30.26,7.504,2.5,0 / 23,1032716,2019-08-12 16:49:53:158,-0.3188,0.5454,9.5766,-0.284,0.5387,9.7877,-0.0059,0.0021,0.0119
34516,47.862556,-1.690681,109.57,30.26,7.504,2.5,0 / 23,1032716,2019-08-12 16:49:53:158,-0.3188,0.5454,9.5766,-0.284,0.5387,9.7877,-0.0059,0.0021,0.0119
34517,47.862556,-1.690681,109.57,30.26,7.504,2.5,0 / 23,1032717,2019-08-12 16:49:53:159,-0.3188,0.5454,9.5766,-0.284,0.5387,9.7877,-0.0059,0.0021,0.0119
34518,47.862556,-1.690681,109.57,30.26,7.504,2.5,0 / 23,1032717,2019-08-12 16:49:53:159,-0.3188,0.5454,9.5766,-0.284,0.5387,9.7877,-0.0059,0.0021,0.0119
34519,47.862556,-1.690681,109.57,30.26,7.504,2.5,0 / 23,1032717,2019-08-12 16:49:53:159,-0.3188,0.5454,9.5766,-0.284,0.5387,9.7877,-0.0059,0.0021,0.0119
34520,47.862556,-1.690681,109.57,30.26,7.504,2.5,0 / 23,1032717,2019-08-12 16:49:53:159,-0.3188,0.5454,9.5766,-0.284,0.5387,9.7877,-0.0059,0.0021,0.0119
34521,47.862556,-1.690681,109.57,30.26,7.504,2.5,0 / 23,1032718,2019-08-12 16:49:53:160,-0.3188,0.5454,9.5766,-0.284,0.5387,9.7877,-0.0059,0.0021,0.0119
34522,47.862556,-1.690681,109.57,30.26,7.504,2.5,0 / 23,1032718,2019-08-12 16:49:53:160,-0.3188,0.5454,9.5766,-0.284,0.5387,9.7877,-0.0059,0.0021,0.0119
34523,47.862556,-1.690681,109.57,30.26,7.504,2.5,0 / 23,1032719,2019-08-12 16:49:53:161,-0.3188,0.5454,9.5766,-0.284,0.5387,9.7877,-0.0059,0.0021,0.0119
34524,47.862556,-1.690681,109.57,30.26,7.504,2.5,0 / 23,1032719,2019-08-12 16:49:53:161,-0.3188,0.5454,9.5766,-0.284,0.5387,9.7877,-0.0059,0.0021,0.0119
34525,47.862556,-1.690681,109.57,30.26,7.504,2.5,0 / 23,1032719,2019-08-12 16:49:53:161,-0.3188,0.5454,9.5766,-0.284,0.5387,9.7877,-0.0059,0.0021,0.0119
34526,47.862556,-1.690681,109.57,30.26,7.504,2.5,0 / 23,1032720,2019-08-12 16:49:53:162,-0.3188,0.5454,9.5766,-0.284,0.5387,9.7877,-0.0059,0.0021,0.0119
34527,47.862556,-1.690681,109.57,30.26,7.504,2.5,0 / 23,1032720,2019-08-12 16:49:53:162,-0.3188,0.5454,9.5766,-0.284,0.5387,9.7877,-0.0059,0.0021,0.0119
34528,47.862556,-1.690681,109.57,30.26,7.504,2.5,0 / 23,1032720,2019-08-12 16:49:53:162,-0.3188,0.5454,9.5766,-0.284,0.5387,9.7877,-0.0059,0.0021,0.0119
34529,47.862556,-1.690681,109.57,30.26,7.504,2.5,0 / 23,1032721,2019-08-12 16:49:53:163,-0.3188,0.5454,9.5766,-0.284,0.5387,9.7877,-0.0059,0.0021,0.0119
34530,47.862556,-1.690681,109.57,30.26,7.504,2.5,0 / 23,1032721,2019-08-12 16:49:53:163,-0.3188,0.5454,9.5766,-0.284,0.5387,9.7877,-0.0059,0.0021,0.0119
34531,47.862556,-1.690681,109.57,30.26,7.504,2.5,0 / 23,1032721,2019-08-12 16:49:53:163,-0.3188,0.5454,9.5766,-0.284,0.5387,9.7877,-0.0059,0.0021,0.0119
34532,47.862556,-1.690681,109.57,30.26,7.504,2.5,0 / 23,1032722,2019-08-12 16:49:53:164,-0.3188,0.5454,9.5766,-0.284,0.5387,9.7877,-0.0059,0.0021,0.0119
34533,47.862556,-1.690681,109.57,30.26,7.504,2.5,0 / 23,1032722,2019-08-12 16:49:53:164,-0.3188,0.5454,9.5766,-0.284,0.5387,9.7877,-0.0059,0.0021,0.0119
34534,47.862556,-1.690681,109.57,30.26,7.504,2.5,0 / 23,1032722,2019-08-12 16:49:53:164,-0.3188,0.5454,9.5766,-0.284,0.5387,9.7877,-0.0059,0.0021,0.0119
34535,47.862556,-1.690681,109.57,30.26,7.504,2.5,0 / 23,1032723,2019-08-12 16:49:53:165,-0.3188,0.5454,9.5766,-0.284,0.5387,9.7877,-0.0059,0.0021,0.0119
34536,47.862556,-1.690681,109.57,30.26,7.504,2.5,0 / 23,1032723,2019-08-12 16:49:53:165,-0.3188,0.5454,9.5766,-0.284,0.5387,9.7877,-0.0059,0.0021,0.0119
34537,47.862556,-1.690681,109.57,30.26,7.504,2.5,0 / 23,1032723,2019-08-12 16:49:53:165,-0.3188,0.5454,9.5766,-0.284,0.5387,9.7877,-0.0059,0.0021,0.0119
34538,47.862556,-1.690681,109.57,30.26,7.504,2.5,0 / 23,1032724,2019-08-12 16:49:53:166,-0.3188,0.5454,9.5766,-0.284,0.5387,9.7877,-0.0059,0.0021,0.0119
34539,47.862556,-1.690681,109.57,30.26,7.504,2.5,0 / 23,1032724,2019-08-12 16:49:53:166,-0.3188,0.5454,9.5766,-0.284,0.5387,9.7877,-0.0059,0.0021,0.0119
34540,47.862556,-1.690681,109.57,30.26,7.504,2.5,0 / 23,1032724,2019-08-12 16:49:53:166,-0.3188,0.5454,9.5766,-0.284,0.5387,9.7877,-0.0059,0.0021,0.0119
34541,47.862556,-1.690681,109.57,30.26,7.504,2.5,0 / 23,1032725,2019-08-12 16:49:53:167,-0.3188,0.5454,9.5766,-0.284,0.5387,9.7877,-0.0059,0.0021,0.0119
34542,47.862556,-1.690681,109.57,30.26,7.504,2.5,0 / 23,1032725,2019-08-12 16:49:53:167,-0.3188,0.5454,9.5766,-0.284,0.5387,9.7877,-0.0059,0.0021,0.0119
34543,47.862556,-1.690681,109.57,30.26,7.504,2.5,0 / 23,1032726,2019-08-12 16:49:53:168,-0.3188,0.5454,9.5766,-0.284,0.5387,9.7877,-0.0059,0.0021,0.0119
34544,47.862556,-1.690681,109.57,30.26,7.504,2.5,0 / 23,1032726,2019-08-12 16:49:53:168,-0.3188,0.5454,9.5766,-0.284,0.5387,9.7877,-0.0059,0.0021,0.0119
34545,47.862556,-1.690681,109.57,30.26,7.504,2.5,0 / 23,1032727,2019-08-12 16:49:53:169,-0.3188,0.5454,9.5766,-0.284,0.5387,9.7877,-0.0059,0.0021,0.0119
34546,47.862556,-1.690681,109.57,30.26,7.504,2.5,0 / 23,1032727,2019-08-12 16:49:53:169,-0.3188,0.5454,9.5766,-0.284,0.5387,9.7877,-0.0059,0.0021,0.0119
34547,47.862556,-1.690681,109.57,30.26,7.504,2.5,0 / 23,1032727,2019-08-12 16:49:53:169,-0.3188,0.5454,9.5766,-0.284,0.5387,9.7877,-0.0059,0.0021,0.0119
34548,47.862556,-1.690681,109.57,30.26,7.504,2.5,0 / 23,1032728,2019-08-12 16:49:53:170,-0.3188,0.5454,9.5766,-0.284,0.5387,9.7877,-0.0059,0.0021,0.0119
34549,47.862556,-1.690681,109.57,30.26,7.504,2.5,0 / 23,1032728,2019-08-12 16:49:53:170,-0.3188,0.5454,9.5766,-0.284,0.5387,9.7877,-0.0059,0.0021,0.0119
34550,47.862556,-1.690681,109.57,30.26,7.504,2.5,0 / 23,1032728,2019-08-12 16:49:53:170,-0.3188,0.5454,9.5766,-0.284,0.5387,9.7877,-0.0059,0.0021,0.0119
34551,47.862556,-1.690681,109.57,30.26,7.504,2.5,0 / 23,1032729,2019-08-12 16:49:53:171,-0.3188,0.5454,9.5766,-0.284,0.5387,9.7877,-0.0059,0.0021,0.0119
34552,47.862556,-1.690681,109.57,30.26,7.504,2.5,0 / 23,1032729,2019-08-12 16:49:53:171,-0.3188,0.5454,9.5766,-0.284,0.5387,9.7877,-0.0059,0.0021,0.0119
34553,47.862556,-1.690681,109.57,30.26,7.504,2.5,0 / 23,1032729,2019-08-12 16:49:53:171,-0.3188,0.5454,9.5766,-0.284,0.5387,9.7877,-0.0059,0.0021,0.0119
34554,47.862556,-1.690681,109.57,30.26,7.504,2.5,0 / 23,1032730,2019-08-12 16:49:53:172,-0.3188,0.5454,9.5766,-0.284,0.5387,9.7877,-0.0059,0.0021,0.0119
34555,47.862556,-1.690681,109.57,30.26,7.504,2.5,0 / 23,1032730,2019-08-12 16:49:53:172,-0.3188,0.5454,9.5766,-0.284,0.5387,9.7877,-0.0059,0.0021,0.0119
34556,47.862556,-1.690681,109.57,30.26,7.504,2.5,0 / 23,1032730,2019-08-12 16:49:53:172,-0.3188,0.5454,9.5766,-0.284,0.5387,9.7877,-0.0059,0.0021,0.0119
34557,47.862556,-1.690681,109.57,30.26,7.504,2.5,0 / 23,1032731,2019-08-12 16:49:53:173,-0.3188,0.5454,9.5766,-0.284,0.5387,9.7877,-0.0059,0.0021,0.0119
34558,47.862556,-1.690681,109.57,30.26,7.504,2.5,0 / 23,1032731,2019-08-12 16:49:53:173,-0.3188,0.5454,9.5766,-0.284,0.5387,9.7877,-0.0059,0.0021,0.0119
34559,47.862556,-1.690681,109.57,30.26,7.504,2.5,0 / 23,1032731,2019-08-12 16:49:53:173,-0.3188,0.5454,9.5766,-0.284,0.5387,9.7877,-0.0059,0.0021,0.0119
34560,47.862556,-1.690681,109.57,30.26,7.504,2.5,0 / 23,1032732,2019-08-12 16:49:53:174,-0.3188,0.5454,9.5766,-0.284,0.5387,9.7877,-0.0059,0.0021,0.0119
34561,47.862556,-1.690681,109.57,30.26,7.504,2.5,0 / 23,1032824,2019-08-12 16:49:53:266,-0.3188,0.5454,9.5766,-0.284,0.5387,9.7877,-0.0059,0.0021,0.0119
34562,47.862556,-1.690681,109.57,30.26,7.504,2.5,0 / 23,1033149,2019-08-12 16:49:53:591,-0.3188,0.5454,9.5766,-0.284,0.5387,9.7877,-0.0059,0.0021,0.0119
34563,47.862556,-1.690681,109.57,30.26,7.504,2.5,0 / 23,1033150,2019-08-12 16:49:53:592,-0.3188,0.5454,9.5766,-0.284,0.5387,9.7877,-0.0059,0.0021,0.0119
34564,47.862556,-1.690681,109.57,30.26,7.504,2.5,0 / 23,1033151,2019-08-12 16:49:53:593,-0.3188,0.5454,9.5766,-0.284,0.5387,9.7877,-0.0059,0.0021,0.0119
34565,47.862556,-1.690681,109.57,30.26,7.504,2.5,0 / 23,1033223,2019-08-12 16:49:53:665,-0.3188,0.5454,9.5766,-0.284,0.5387,9.7877,-0.0059,0.0021,0.0119
34566,47.862556,-1.690681,109.57,30.26,7.504,2.5,0 / 23,1033324,2019-08-12 16:49:53:766,-0.3188,0.5454,9.5766,-0.284,0.5387,9.7877,-0.0059,0.0021,0.0119
34567,47.862556,-1.690681,109.57,30.26,7.504,2.5,0 / 23,1033529,2019-08-12 16:49:53:971,-0.3834,0.4748,9.5886,-0.2083,0.2808,9.8004,-0.0091,0.0043,0.0129
34568,47.862556,-1.690681,109.57,30.26,7.504,2.5,0 / 23,1033529,2019-08-12 16:49:53:971,-0.3834,0.4748,9.5886,-0.2083,0.2808,9.8004,-0.0091,0.0043,0.0129
34569,47.862556,-1.690681,109.57,30.26,7.504,2.5,0 / 23,1033623,2019-08-12 16:49:54:065,-0.3834,0.4748,9.5886,-0.2083,0.2808,9.8004,-0.0091,0.0043,0.0129
34570,47.862556,-1.690681,109.57,30.26,7.504,2.5,Dec-23,1033723,2019-08-12 16:49:54:165,-0.3834,0.4748,9.5886,-0.2083,0.2808,9.8004,-0.0091,0.0043,0.0129
34571,47.862556,-1.690681,109.57,30.26,7.504,2.5,Dec-23,1033823,2019-08-12 16:49:54:265,-0.2841,0.2318,9.6317,-0.2299,0.3148,9.7989,0.0133,-0.0011,0.0033
34572,47.862556,-1.690681,109.57,30.26,7.504,2.5,Dec-23,1033924,2019-08-12 16:49:54:366,-0.387,0.3048,9.8987,-0.2226,0.3069,9.7993,0.0005,-0.0096,0.0055
34573,47.862556,-1.690681,109.57,30.26,7.504,2.5,Dec-23,1034282,2019-08-12 16:49:54:724,-0.2757,0.4197,9.7442,-0.2207,0.3067,9.7994,-0.0016,-0.0043,0.0065
34574,47.862556,-1.690681,109.57,30.26,7.504,2.5,Dec-23,1034283,2019-08-12 16:49:54:725,-0.2757,0.4197,9.7442,-0.2207,0.3067,9.7994,-0.0016,-0.0043,0.0065
34575,47.862556,-1.690681,109.57,30.26,7.504,2.5,Dec-23,1034283,2019-08-12 16:49:54:725,-0.2757,0.4197,9.7442,-0.2207,0.3067,9.7994,-0.0016,-0.0043,0.0065
34576,47.862556,-1.690681,109.57,30.26,7.504,2.5,Dec-23,1034284,2019-08-12 16:49:54:726,-0.2757,0.4197,9.7442,-0.2207,0.3067,9.7994,-0.0016,-0.0043,0.0065
34577,47.862556,-1.690681,109.57,30.26,7.504,2.5,Dec-23,1034284,2019-08-12 16:49:54:726,-0.2757,0.4197,9.7442,-0.2207,0.3067,9.7994,-0.0016,-0.0043,0.0065
34578,47.862556,-1.690681,109.57,30.26,7.504,2.5,Dec-23,1034285,2019-08-12 16:49:54:727,-0.2757,0.4197,9.7442,-0.2207,0.3067,9.7994,-0.0016,-0.0043,0.0065
34579,47.862556,-1.690681,109.57,30.26,7.504,2.5,Dec-23,1034285,2019-08-12 16:49:54:727,-0.2757,0.4197,9.7442,-0.2207,0.3067,9.7994,-0.0016,-0.0043,0.0065
34580,47.86496,-1.690748,111.5,29.62,6.432,357.8,0 / 23,1034310,2019-08-12 16:49:54:752,-0.2757,0.4197,9.7442,-0.2207,0.3067,9.7994,-0.0016,-0.0043,0.0065
34581,47.86496,-1.690748,111.5,29.62,6.432,357.8,0 / 23,1034410,2019-08-12 16:49:54:852,-0.2757,0.4197,9.7442,-0.2207,0.3067,9.7994,-0.0016,-0.0043,0.0065
34582,47.86496,-1.690748,111.5,29.62,6.432,357.8,0 / 23,1034746,2019-08-12 16:49:55:188,-0.2757,0.4197,9.7442,-0.2207,0.3067,9.7994,-0.0016,-0.0043,0.0065
34583,47.86496,-1.690748,111.5,29.62,6.432,357.8,0 / 23,1034746,2019-08-12 16:49:55:188,-0.2757,0.4197,9.7442,-0.2207,0.3067,9.7994,-0.0016,-0.0043,0.0065
34584,47.86496,-1.690748,111.5,29.62,6.432,357.8,0 / 23,1034747,2019-08-12 16:49:55:189,-0.2757,0.4197,9.7442,-0.2207,0.3067,9.7994,-0.0016,-0.0043,0.0065
34585,47.86496,-1.690748,111.5,29.62,6.432,357.8,0 / 23,1034747,2019-08-12 16:49:55:189,-0.2757,0.4197,9.7442,-0.2207,0.3067,9.7994,-0.0016,-0.0043,0.0065
34586,47.86496,-1.690748,111.5,29.62,6.432,357.8,0 / 23,1034748,2019-08-12 16:49:55:190,-0.2757,0.4197,9.7442,-0.2207,0.3067,9.7994,-0.0016,-0.0043,0.0065
34587,47.86496,-1.690748,111.5,29.62,6.432,357.8,0 / 23,1034749,2019-08-12 16:49:55:191,-0.2757,0.4197,9.7442,-0.2207,0.3067,9.7994,-0.0016,-0.0043,0.0065
34588,47.86496,-1.690748,111.5,29.62,6.432,357.8,0 / 23,1034749,2019-08-12 16:49:55:191,-0.2757,0.4197,9.7442,-0.2207,0.3067,9.7994,-0.0016,-0.0043,0.0065
34589,47.86496,-1.690748,111.5,29.62,6.432,357.8,0 / 23,1034749,2019-08-12 16:49:55:191,-0.2757,0.4197,9.7442,-0.2207,0.3067,9.7994,-0.0016,-0.0043,0.0065
34590,47.86496,-1.690748,111.5,29.62,6.432,357.8,0 / 23,1034750,2019-08-12 16:49:55:192,-0.2757,0.4197,9.7442,-0.2207,0.3067,9.7994,-0.0016,-0.0043,0.0065
34591,47.86496,-1.690748,111.5,29.62,6.432,357.8,0 / 23,1034750,2019-08-12 16:49:55:192,-0.2757,0.4197,9.7442,-0.2207,0.3067,9.7994,-0.0016,-0.0043,0.0065
34592,47.86496,-1.690748,111.5,29.62,6.432,357.8,0 / 23,1034750,2019-08-12 16:49:55:192,-0.2757,0.4197,9.7442,-0.2207,0.3067,9.7994,-0.0016,-0.0043,0.0065
34593,47.86496,-1.690748,111.5,29.62,6.432,357.8,0 / 23,1034751,2019-08-12 16:49:55:193,-0.2757,0.4197,9.7442,-0.2207,0.3067,9.7994,-0.0016,-0.0043,0.0065
34594,47.86496,-1.690748,111.5,29.62,6.432,357.8,0 / 23,1034751,2019-08-12 16:49:55:193,-0.2757,0.4197,9.7442,-0.2207,0.3067,9.7994,-0.0016,-0.0043,0.0065
34595,47.86496,-1.690748,111.5,29.62,6.432,357.8,0 / 23,1034753,2019-08-12 16:49:55:195,-0.2757,0.4197,9.7442,-0.2207,0.3067,9.7994,-0.0016,-0.0043,0.0065
34596,47.86496,-1.690748,111.5,29.62,6.432,357.8,0 / 23,1034754,2019-08-12 16:49:55:196,-0.2757,0.4197,9.7442,-0.2207,0.3067,9.7994,-0.0016,-0.0043,0.0065
34597,47.86496,-1.690748,111.5,29.62,6.432,357.8,0 / 23,1034755,2019-08-12 16:49:55:197,-0.2757,0.4197,9.7442,-0.2207,0.3067,9.7994,-0.0016,-0.0043,0.0065
34598,47.86496,-1.690748,111.5,29.62,6.432,357.8,0 / 23,1034756,2019-08-12 16:49:55:198,-0.2757,0.4197,9.7442,-0.2207,0.3067,9.7994,-0.0016,-0.0043,0.0065
34599,47.86496,-1.690748,111.5,29.62,6.432,357.8,0 / 23,1034756,2019-08-12 16:49:55:198,-0.2757,0.4197,9.7442,-0.2207,0.3067,9.7994,-0.0016,-0.0043,0.0065
34600,47.86496,-1.690748,111.5,29.62,6.432,357.8,0 / 23,1034763,2019-08-12 16:49:55:205,-0.2757,0.4197,9.7442,-0.2207,0.3067,9.7994,-0.0016,-0.0043,0.0065
34601,47.86496,-1.690748,111.5,29.62,6.432,357.8,0 / 23,1034764,2019-08-12 16:49:55:206,-0.2757,0.4197,9.7442,-0.2207,0.3067,9.7994,-0.0016,-0.0043,0.0065
34602,47.86496,-1.690748,111.5,29.62,6.432,357.8,0 / 23,1034765,2019-08-12 16:49:55:207,-0.2757,0.4197,9.7442,-0.2207,0.3067,9.7994,-0.0016,-0.0043,0.0065
34603,47.86496,-1.690748,111.5,29.62,6.432,357.8,0 / 23,1034765,2019-08-12 16:49:55:207,-0.2757,0.4197,9.7442,-0.2207,0.3067,9.7994,-0.0016,-0.0043,0.0065
34604,47.86496,-1.690748,111.5,29.62,6.432,357.8,0 / 23,1034765,2019-08-12 16:49:55:207,-0.2757,0.4197,9.7442,-0.2207,0.3067,9.7994,-0.0016,-0.0043,0.0065
34605,47.86496,-1.690748,111.5,29.62,6.432,357.8,0 / 23,1034766,2019-08-12 16:49:55:208,-0.2757,0.4197,9.7442,-0.2207,0.3067,9.7994,-0.0016,-0.0043,0.0065
34606,47.86496,-1.690748,111.5,29.62,6.432,357.8,0 / 23,1034766,2019-08-12 16:49:55:208,-0.2757,0.4197,9.7442,-0.2207,0.3067,9.7994,-0.0016,-0.0043,0.0065
34607,47.86496,-1.690748,111.5,29.62,6.432,357.8,0 / 23,1034766,2019-08-12 16:49:55:208,-0.2757,0.4197,9.7442,-0.2207,0.3067,9.7994,-0.0016,-0.0043,0.0065
34608,47.86496,-1.690748,111.5,29.62,6.432,357.8,0 / 23,1034767,2019-08-12 16:49:55:209,-0.2757,0.4197,9.7442,-0.2207,0.3067,9.7994,-0.0016,-0.0043,0.0065
34609,47.86496,-1.690748,111.5,29.62,6.432,357.8,0 / 23,1034767,2019-08-12 16:49:55:209,-0.2757,0.4197,9.7442,-0.2207,0.3067,9.7994,-0.0016,-0.0043,0.0065
34610,47.86496,-1.690748,111.5,29.62,6.432,357.8,0 / 23,1034768,2019-08-12 16:49:55:210,-0.2757,0.4197,9.7442,-0.2207,0.3067,9.7994,-0.0016,-0.0043,0.0065
34611,47.86496,-1.690748,111.5,29.62,6.432,357.8,0 / 23,1034769,2019-08-12 16:49:55:211,-0.2757,0.4197,9.7442,-0.2207,0.3067,9.7994,-0.0016,-0.0043,0.0065
34612,47.86496,-1.690748,111.5,29.62,6.432,357.8,0 / 23,1034769,2019-08-12 16:49:55:211,-0.2757,0.4197,9.7442,-0.2207,0.3067,9.7994,-0.0016,-0.0043,0.0065
34613,47.86496,-1.690748,111.5,29.62,6.432,357.8,0 / 23,1034770,2019-08-12 16:49:55:212,-0.2757,0.4197,9.7442,-0.2207,0.3067,9.7994,-0.0016,-0.0043,0.0065
34614,47.86496,-1.690748,111.5,29.62,6.432,357.8,0 / 23,1034771,2019-08-12 16:49:55:213,-0.2757,0.4197,9.7442,-0.2207,0.3067,9.7994,-0.0016,-0.0043,0.0065
34615,47.86496,-1.690748,111.5,29.62,6.432,357.8,0 / 23,1034771,2019-08-12 16:49:55:213,-0.2757,0.4197,9.7442,-0.2207,0.3067,9.7994,-0.0016,-0.0043,0.0065
34616,47.86496,-1.690748,111.5,29.62,6.432,357.8,0 / 23,1034772,2019-08-12 16:49:55:214,-0.2757,0.4197,9.7442,-0.2207,0.3067,9.7994,-0.0016,-0.0043,0.0065
34617,47.86496,-1.690748,111.5,29.62,6.432,357.8,0 / 23,1034772,2019-08-12 16:49:55:214,-0.2757,0.4197,9.7442,-0.2207,0.3067,9.7994,-0.0016,-0.0043,0.0065
34618,47.86496,-1.690748,111.5,29.62,6.432,357.8,0 / 23,1034773,2019-08-12 16:49:55:215,-0.2757,0.4197,9.7442,-0.2207,0.3067,9.7994,-0.0016,-0.0043,0.0065
34619,47.86496,-1.690748,111.5,29.62,6.432,357.8,0 / 23,1034773,2019-08-12 16:49:55:215,-0.2757,0.4197,9.7442,-0.2207,0.3067,9.7994,-0.0016,-0.0043,0.0065
34620,47.86496,-1.690748,111.5,29.62,6.432,357.8,0 / 23,1034773,2019-08-12 16:49:55:215,-0.2757,0.4197,9.7442,-0.2207,0.3067,9.7994,-0.0016,-0.0043,0.0065
34621,47.86496,-1.690748,111.5,29.62,6.432,357.8,0 / 23,1034774,2019-08-12 16:49:55:216,-0.2757,0.4197,9.7442,-0.2207,0.3067,9.7994,-0.0016,-0.0043,0.0065
34622,47.86496,-1.690748,111.5,29.62,6.432,357.8,0 / 23,1034774,2019-08-12 16:49:55:216,-0.2757,0.4197,9.7442,-0.2207,0.3067,9.7994,-0.0016,-0.0043,0.0065
34623,47.86496,-1.690748,111.5,29.62,6.432,357.8,0 / 23,1034774,2019-08-12 16:49:55:216,-0.2757,0.4197,9.7442,-0.2207,0.3067,9.7994,-0.0016,-0.0043,0.0065
34624,47.86496,-1.690748,111.5,29.62,6.432,357.8,0 / 23,1034775,2019-08-12 16:49:55:217,-0.2757,0.4197,9.7442,-0.2207,0.3067,9.7994,-0.0016,-0.0043,0.0065
34625,47.86496,-1.690748,111.5,29.62,6.432,357.8,0 / 23,1034775,2019-08-12 16:49:55:217,-0.2757,0.4197,9.7442,-0.2207,0.3067,9.7994,-0.0016,-0.0043,0.0065
34626,47.86496,-1.690748,111.5,29.62,6.432,357.8,0 / 23,1034776,2019-08-12 16:49:55:218,-0.2757,0.4197,9.7442,-0.2207,0.3067,9.7994,-0.0016,-0.0043,0.0065
34627,47.86496,-1.690748,111.5,29.62,6.432,357.8,0 / 23,1034776,2019-08-12 16:49:55:218,-0.2757,0.4197,9.7442,-0.2207,0.3067,9.7994,-0.0016,-0.0043,0.0065
34628,47.86496,-1.690748,111.5,29.62,6.432,357.8,0 / 23,1034776,2019-08-12 16:49:55:218,-0.2757,0.4197,9.7442,-0.2207,0.3067,9.7994,-0.0016,-0.0043,0.0065
34629,47.86496,-1.690748,111.5,29.62,6.432,357.8,0 / 23,1034777,2019-08-12 16:49:55:219,-0.2757,0.4197,9.7442,-0.2207,0.3067,9.7994,-0.0016,-0.0043,0.0065
34630,47.86496,-1.690748,111.5,29.62,6.432,357.8,0 / 23,1034777,2019-08-12 16:49:55:219,-0.2757,0.4197,9.7442,-0.2207,0.3067,9.7994,-0.0016,-0.0043,0.0065
34631,47.86496,-1.690748,111.5,29.62,6.432,357.8,0 / 23,1034777,2019-08-12 16:49:55:219,-0.2757,0.4197,9.7442,-0.2207,0.3067,9.7994,-0.0016,-0.0043,0.0065
34632,47.86496,-1.690748,111.5,29.62,6.432,357.8,0 / 23,1034778,2019-08-12 16:49:55:220,-0.2757,0.4197,9.7442,-0.2207,0.3067,9.7994,-0.0016,-0.0043,0.0065
34633,47.86496,-1.690748,111.5,29.62,6.432,357.8,0 / 23,1034778,2019-08-12 16:49:55:220,-0.2757,0.4197,9.7442,-0.2207,0.3067,9.7994,-0.0016,-0.0043,0.0065
34634,47.86496,-1.690748,111.5,29.62,6.432,357.8,0 / 23,1034778,2019-08-12 16:49:55:220,-0.2757,0.4197,9.7442,-0.2207,0.3067,9.7994,-0.0016,-0.0043,0.0065
34635,47.86496,-1.690748,111.5,29.62,6.432,357.8,0 / 23,1034779,2019-08-12 16:49:55:221,-0.2757,0.4197,9.7442,-0.2207,0.3067,9.7994,-0.0016,-0.0043,0.0065
34636,47.86496,-1.690748,111.5,29.62,6.432,357.8,0 / 23,1034779,2019-08-12 16:49:55:221,-0.2757,0.4197,9.7442,-0.2207,0.3067,9.7994,-0.0016,-0.0043,0.0065
34637,47.86496,-1.690748,111.5,29.62,6.432,357.8,0 / 23,1034779,2019-08-12 16:49:55:221,-0.2757,0.4197,9.7442,-0.2207,0.3067,9.7994,-0.0016,-0.0043,0.0065
34638,47.86496,-1.690748,111.5,29.62,6.432,357.8,0 / 23,1034780,2019-08-12 16:49:55:222,-0.2757,0.4197,9.7442,-0.2207,0.3067,9.7994,-0.0016,-0.0043,0.0065
34639,47.86496,-1.690748,111.5,29.62,6.432,357.8,0 / 23,1034780,2019-08-12 16:49:55:222,-0.2757,0.4197,9.7442,-0.2207,0.3067,9.7994,-0.0016,-0.0043,0.0065
34640,47.86496,-1.690748,111.5,29.62,6.432,357.8,0 / 23,1034780,2019-08-12 16:49:55:222,-0.2757,0.4197,9.7442,-0.2207,0.3067,9.7994,-0.0016,-0.0043,0.0065
34641,47.86496,-1.690748,111.5,29.62,6.432,357.8,0 / 23,1034781,2019-08-12 16:49:55:223,-0.2757,0.4197,9.7442,-0.2207,0.3067,9.7994,-0.0016,-0.0043,0.0065
34642,47.86496,-1.690748,111.5,29.62,6.432,357.8,0 / 23,1034781,2019-08-12 16:49:55:223,-0.2757,0.4197,9.7442,-0.2207,0.3067,9.7994,-0.0016,-0.0043,0.0065
34643,47.86496,-1.690748,111.5,29.62,6.432,357.8,0 / 23,1034782,2019-08-12 16:49:55:224,-0.2757,0.4197,9.7442,-0.2207,0.3067,9.7994,-0.0016,-0.0043,0.0065
34644,47.86496,-1.690748,111.5,29.62,6.432,357.8,0 / 23,1034782,2019-08-12 16:49:55:224,-0.2757,0.4197,9.7442,-0.2207,0.3067,9.7994,-0.0016,-0.0043,0.0065
34645,47.86496,-1.690748,111.5,29.62,6.432,357.8,0 / 23,1034782,2019-08-12 16:49:55:224,-0.2757,0.4197,9.7442,-0.2207,0.3067,9.7994,-0.0016,-0.0043,0.0065
34646,47.86496,-1.690748,111.5,29.62,6.432,357.8,0 / 23,1034783,2019-08-12 16:49:55:225,-0.2757,0.4197,9.7442,-0.2207,0.3067,9.7994,-0.0016,-0.0043,0.0065
34647,47.86496,-1.690748,111.5,29.62,6.432,357.8,0 / 23,1034783,2019-08-12 16:49:55:225,-0.2757,0.4197,9.7442,-0.2207,0.3067,9.7994,-0.0016,-0.0043,0.0065
34648,47.86496,-1.690748,111.5,29.62,6.432,357.8,0 / 23,1034783,2019-08-12 16:49:55:225,-0.2757,0.4197,9.7442,-0.2207,0.3067,9.7994,-0.0016,-0.0043,0.0065
34649,47.86496,-1.690748,111.5,29.62,6.432,357.8,0 / 23,1034784,2019-08-12 16:49:55:226,-0.2757,0.4197,9.7442,-0.2207,0.3067,9.7994,-0.0016,-0.0043,0.0065
34650,47.86496,-1.690748,111.5,29.62,6.432,357.8,0 / 23,1034784,2019-08-12 16:49:55:226,-0.2757,0.4197,9.7442,-0.2207,0.3067,9.7994,-0.0016,-0.0043,0.0065
34651,47.86496,-1.690748,111.5,29.62,6.432,357.8,0 / 23,1034879,2019-08-12 16:49:55:321,-0.2757,0.4197,9.7442,-0.2207,0.3067,9.7994,-0.0016,-0.0043,0.0065
34652,47.86496,-1.690748,111.5,29.62,6.432,357.8,14 / 23,1035192,2019-08-12 16:49:55:634,-0.2757,0.4197,9.7442,-0.2207,0.3067,9.7994,-0.0016,-0.0043,0.0065
34653,47.86496,-1.690748,111.5,29.62,6.432,357.8,14 / 23,1035192,2019-08-12 16:49:55:634,-0.2757,0.4197,9.7442,-0.2207,0.3067,9.7994,-0.0016,-0.0043,0.0065
34654,47.86496,-1.690748,111.5,29.62,6.432,357.8,14 / 23,1035193,2019-08-12 16:49:55:635,-0.2757,0.4197,9.7442,-0.2207,0.3067,9.7994,-0.0016,-0.0043,0.0065
34655,47.86496,-1.690748,111.5,29.62,6.432,357.8,14 / 23,1035193,2019-08-12 16:49:55:635,-0.2757,0.4197,9.7442,-0.2207,0.3067,9.7994,-0.0016,-0.0043,0.0065
34656,47.86496,-1.690748,111.5,29.62,6.432,357.8,14 / 23,1035194,2019-08-12 16:49:55:636,-0.2757,0.4197,9.7442,-0.2207,0.3067,9.7994,-0.0016,-0.0043,0.0065
34657,47.86496,-1.690748,111.5,29.62,6.432,357.8,14 / 23,1035194,2019-08-12 16:49:55:636,-0.2757,0.4197,9.7442,-0.2207,0.3067,9.7994,-0.0016,-0.0043,0.0065
34658,47.86496,-1.690748,111.5,29.62,6.432,357.8,14 / 23,1035194,2019-08-12 16:49:55:636,-0.2757,0.4197,9.7442,-0.2207,0.3067,9.7994,-0.0016,-0.0043,0.0065
34659,47.86496,-1.690748,111.5,29.62,6.432,357.8,14 / 23,1035195,2019-08-12 16:49:55:637,-0.2757,0.4197,9.7442,-0.2207,0.3067,9.7994,-0.0016,-0.0043,0.0065
34660,47.86496,-1.690748,111.5,29.62,6.432,357.8,14 / 23,1035225,2019-08-12 16:49:55:667,-0.2757,0.4197,9.7442,-0.2207,0.3067,9.7994,-0.0016,-0.0043,0.0065
34661,47.86496,-1.690748,111.5,29.62,6.432,357.8,14 / 23,1035325,2019-08-12 16:49:55:767,-0.2757,0.4197,9.7442,-0.2207,0.3067,9.7994,-0.0016,-0.0043,0.0065
34662,47.86496,-1.690748,111.5,29.62,6.432,357.8,14 / 23,1035642,2019-08-12 16:49:56:084,-0.2757,0.4197,9.7442,-0.2207,0.3067,9.7994,-0.0016,-0.0043,0.0065
34663,47.86496,-1.690748,111.5,29.62,6.432,357.8,14 / 23,1035643,2019-08-12 16:49:56:085,-0.2757,0.4197,9.7442,-0.2207,0.3067,9.7994,-0.0016,-0.0043,0.0065
34664,47.86496,-1.690748,111.5,29.62,6.432,357.8,14 / 23,1035643,2019-08-12 16:49:56:085,-0.2757,0.4197,9.7442,-0.2207,0.3067,9.7994,-0.0016,-0.0043,0.0065
34665,47.86496,-1.690748,111.5,29.62,6.432,357.8,14 / 23,1035644,2019-08-12 16:49:56:086,-0.2757,0.4197,9.7442,-0.2207,0.3067,9.7994,-0.0016,-0.0043,0.0065
34666,47.86496,-1.690748,111.5,29.62,6.432,357.8,14 / 23,1035644,2019-08-12 16:49:56:086,-0.2757,0.4197,9.7442,-0.2207,0.3067,9.7994,-0.0016,-0.0043,0.0065
34667,47.86496,-1.690748,111.5,29.62,6.432,357.8,14 / 23,1035644,2019-08-12 16:49:56:086,-0.2757,0.4197,9.7442,-0.2207,0.3067,9.7994,-0.0016,-0.0043,0.0065
34668,47.86496,-1.690748,111.5,29.62,6.432,357.8,14 / 23,1035645,2019-08-12 16:49:56:087,-0.2757,0.4197,9.7442,-0.2207,0.3067,9.7994,-0.0016,-0.0043,0.0065
34669,47.86496,-1.690748,111.5,29.62,6.432,357.8,14 / 23,1035645,2019-08-12 16:49:56:087,-0.2757,0.4197,9.7442,-0.2207,0.3067,9.7994,-0.0016,-0.0043,0.0065
34670,47.867443,-1.690814,109.45,30.06,8.576,2.9,0 / 23,1035668,2019-08-12 16:49:56:110,-0.2757,0.4197,9.7442,-0.2207,0.3067,9.7994,-0.0016,-0.0043,0.0065
34671,47.867443,-1.690814,109.45,30.06,8.576,2.9,0 / 23,1035768,2019-08-12 16:49:56:210,-0.2757,0.4197,9.7442,-0.2207,0.3067,9.7994,-0.0016,-0.0043,0.0065
34672,47.867443,-1.690814,109.45,30.06,8.576,2.9,0 / 23,1036092,2019-08-12 16:49:56:534,-0.2757,0.4197,9.7442,-0.2207,0.3067,9.7994,-0.0016,-0.0043,0.0065
34673,47.867443,-1.690814,109.45,30.06,8.576,2.9,0 / 23,1036092,2019-08-12 16:49:56:534,-0.2757,0.4197,9.7442,-0.2207,0.3067,9.7994,-0.0016,-0.0043,0.0065
34674,47.867443,-1.690814,109.45,30.06,8.576,2.9,0 / 23,1036093,2019-08-12 16:49:56:535,-0.2757,0.4197,9.7442,-0.2207,0.3067,9.7994,-0.0016,-0.0043,0.0065
34675,47.867443,-1.690814,109.45,30.06,8.576,2.9,0 / 23,1036094,2019-08-12 16:49:56:536,-0.2757,0.4197,9.7442,-0.2207,0.3067,9.7994,-0.0016,-0.0043,0.0065
34676,47.867443,-1.690814,109.45,30.06,8.576,2.9,0 / 23,1036094,2019-08-12 16:49:56:536,-0.2757,0.4197,9.7442,-0.2207,0.3067,9.7994,-0.0016,-0.0043,0.0065
34677,47.867443,-1.690814,109.45,30.06,8.576,2.9,0 / 23,1036094,2019-08-12 16:49:56:536,-0.2757,0.4197,9.7442,-0.2207,0.3067,9.7994,-0.0016,-0.0043,0.0065
34678,47.867443,-1.690814,109.45,30.06,8.576,2.9,0 / 23,1036096,2019-08-12 16:49:56:538,-0.2757,0.4197,9.7442,-0.2207,0.3067,9.7994,-0.0016,-0.0043,0.0065
34679,47.867443,-1.690814,109.45,30.06,8.576,2.9,0 / 23,1036097,2019-08-12 16:49:56:539,-0.2757,0.4197,9.7442,-0.2207,0.3067,9.7994,-0.0016,-0.0043,0.0065
34680,47.867443,-1.690814,109.45,30.06,8.576,2.9,0 / 23,1036097,2019-08-12 16:49:56:539,-0.2757,0.4197,9.7442,-0.2207,0.3067,9.7994,-0.0016,-0.0043,0.0065
34681,47.867443,-1.690814,109.45,30.06,8.576,2.9,0 / 23,1036098,2019-08-12 16:49:56:540,-0.2757,0.4197,9.7442,-0.2207,0.3067,9.7994,-0.0016,-0.0043,0.0065
34682,47.867443,-1.690814,109.45,30.06,8.576,2.9,0 / 23,1036098,2019-08-12 16:49:56:540,-0.2757,0.4197,9.7442,-0.2207,0.3067,9.7994,-0.0016,-0.0043,0.0065
34683,47.867443,-1.690814,109.45,30.06,8.576,2.9,0 / 23,1036099,2019-08-12 16:49:56:541,-0.2757,0.4197,9.7442,-0.2207,0.3067,9.7994,-0.0016,-0.0043,0.0065
34684,47.867443,-1.690814,109.45,30.06,8.576,2.9,0 / 23,1036099,2019-08-12 16:49:56:541,-0.2757,0.4197,9.7442,-0.2207,0.3067,9.7994,-0.0016,-0.0043,0.0065
34685,47.867443,-1.690814,109.45,30.06,8.576,2.9,0 / 23,1036100,2019-08-12 16:49:56:542,-0.2757,0.4197,9.7442,-0.2207,0.3067,9.7994,-0.0016,-0.0043,0.0065
34686,47.867443,-1.690814,109.45,30.06,8.576,2.9,0 / 23,1036100,2019-08-12 16:49:56:542,-0.2757,0.4197,9.7442,-0.2207,0.3067,9.7994,-0.0016,-0.0043,0.0065
34687,47.867443,-1.690814,109.45,30.06,8.576,2.9,0 / 23,1036100,2019-08-12 16:49:56:542,-0.2757,0.4197,9.7442,-0.2207,0.3067,9.7994,-0.0016,-0.0043,0.0065
34688,47.867443,-1.690814,109.45,30.06,8.576,2.9,0 / 23,1036102,2019-08-12 16:49:56:544,-0.2757,0.4197,9.7442,-0.2207,0.3067,9.7994,-0.0016,-0.0043,0.0065
34689,47.867443,-1.690814,109.45,30.06,8.576,2.9,0 / 23,1036103,2019-08-12 16:49:56:545,-0.2757,0.4197,9.7442,-0.2207,0.3067,9.7994,-0.0016,-0.0043,0.0065
34690,47.867443,-1.690814,109.45,30.06,8.576,2.9,0 / 23,1036103,2019-08-12 16:49:56:545,-0.2757,0.4197,9.7442,-0.2207,0.3067,9.7994,-0.0016,-0.0043,0.0065
34691,47.867443,-1.690814,109.45,30.06,8.576,2.9,0 / 23,1036104,2019-08-12 16:49:56:546,-0.2757,0.4197,9.7442,-0.2207,0.3067,9.7994,-0.0016,-0.0043,0.0065
34692,47.867443,-1.690814,109.45,30.06,8.576,2.9,0 / 23,1036105,2019-08-12 16:49:56:547,-0.2757,0.4197,9.7442,-0.2207,0.3067,9.7994,-0.0016,-0.0043,0.0065
34693,47.867443,-1.690814,109.45,30.06,8.576,2.9,0 / 23,1036106,2019-08-12 16:49:56:548,-0.2757,0.4197,9.7442,-0.2207,0.3067,9.7994,-0.0016,-0.0043,0.0065
34694,47.867443,-1.690814,109.45,30.06,8.576,2.9,0 / 23,1036107,2019-08-12 16:49:56:549,-0.2757,0.4197,9.7442,-0.2207,0.3067,9.7994,-0.0016,-0.0043,0.0065
34695,47.867443,-1.690814,109.45,30.06,8.576,2.9,0 / 23,1036108,2019-08-12 16:49:56:550,-0.2757,0.4197,9.7442,-0.2207,0.3067,9.7994,-0.0016,-0.0043,0.0065
34696,47.867443,-1.690814,109.45,30.06,8.576,2.9,0 / 23,1036109,2019-08-12 16:49:56:551,-0.2757,0.4197,9.7442,-0.2207,0.3067,9.7994,-0.0016,-0.0043,0.0065
34697,47.867443,-1.690814,109.45,30.06,8.576,2.9,0 / 23,1036110,2019-08-12 16:49:56:552,-0.2757,0.4197,9.7442,-0.2207,0.3067,9.7994,-0.0016,-0.0043,0.0065
34698,47.867443,-1.690814,109.45,30.06,8.576,2.9,0 / 23,1036110,2019-08-12 16:49:56:552,-0.2757,0.4197,9.7442,-0.2207,0.3067,9.7994,-0.0016,-0.0043,0.0065
34699,47.867443,-1.690814,109.45,30.06,8.576,2.9,0 / 23,1036110,2019-08-12 16:49:56:552,-0.2757,0.4197,9.7442,-0.2207,0.3067,9.7994,-0.0016,-0.0043,0.0065
34700,47.867443,-1.690814,109.45,30.06,8.576,2.9,0 / 23,1036113,2019-08-12 16:49:56:555,-0.2757,0.4197,9.7442,-0.2207,0.3067,9.7994,-0.0016,-0.0043,0.0065
34701,47.867443,-1.690814,109.45,30.06,8.576,2.9,0 / 23,1036113,2019-08-12 16:49:56:555,-0.2757,0.4197,9.7442,-0.2207,0.3067,9.7994,-0.0016,-0.0043,0.0065
34702,47.867443,-1.690814,109.45,30.06,8.576,2.9,0 / 23,1036114,2019-08-12 16:49:56:556,-0.2757,0.4197,9.7442,-0.2207,0.3067,9.7994,-0.0016,-0.0043,0.0065
34703,47.867443,-1.690814,109.45,30.06,8.576,2.9,0 / 23,1036114,2019-08-12 16:49:56:556,-0.2757,0.4197,9.7442,-0.2207,0.3067,9.7994,-0.0016,-0.0043,0.0065
34704,47.867443,-1.690814,109.45,30.06,8.576,2.9,0 / 23,1036114,2019-08-12 16:49:56:556,-0.2757,0.4197,9.7442,-0.2207,0.3067,9.7994,-0.0016,-0.0043,0.0065
34705,47.867443,-1.690814,109.45,30.06,8.576,2.9,0 / 23,1036115,2019-08-12 16:49:56:557,-0.2757,0.4197,9.7442,-0.2207,0.3067,9.7994,-0.0016,-0.0043,0.0065
34706,47.867443,-1.690814,109.45,30.06,8.576,2.9,0 / 23,1036115,2019-08-12 16:49:56:557,-0.2757,0.4197,9.7442,-0.2207,0.3067,9.7994,-0.0016,-0.0043,0.0065
34707,47.867443,-1.690814,109.45,30.06,8.576,2.9,0 / 23,1036115,2019-08-12 16:49:56:557,-0.2757,0.4197,9.7442,-0.2207,0.3067,9.7994,-0.0016,-0.0043,0.0065
34708,47.867443,-1.690814,109.45,30.06,8.576,2.9,0 / 23,1036116,2019-08-12 16:49:56:558,-0.2757,0.4197,9.7442,-0.2207,0.3067,9.7994,-0.0016,-0.0043,0.0065
34709,47.867443,-1.690814,109.45,30.06,8.576,2.9,0 / 23,1036116,2019-08-12 16:49:56:558,-0.2757,0.4197,9.7442,-0.2207,0.3067,9.7994,-0.0016,-0.0043,0.0065
34710,47.867443,-1.690814,109.45,30.06,8.576,2.9,0 / 23,1036117,2019-08-12 16:49:56:559,-0.2757,0.4197,9.7442,-0.2207,0.3067,9.7994,-0.0016,-0.0043,0.0065
34711,47.867443,-1.690814,109.45,30.06,8.576,2.9,0 / 23,1036117,2019-08-12 16:49:56:559,-0.2757,0.4197,9.7442,-0.2207,0.3067,9.7994,-0.0016,-0.0043,0.0065
34712,47.867443,-1.690814,109.45,30.06,8.576,2.9,0 / 23,1036117,2019-08-12 16:49:56:559,-0.2757,0.4197,9.7442,-0.2207,0.3067,9.7994,-0.0016,-0.0043,0.0065
34713,47.867443,-1.690814,109.45,30.06,8.576,2.9,0 / 23,1036118,2019-08-12 16:49:56:560,-0.2757,0.4197,9.7442,-0.2207,0.3067,9.7994,-0.0016,-0.0043,0.0065
34714,47.867443,-1.690814,109.45,30.06,8.576,2.9,0 / 23,1036118,2019-08-12 16:49:56:560,-0.2757,0.4197,9.7442,-0.2207,0.3067,9.7994,-0.0016,-0.0043,0.0065
34715,47.867443,-1.690814,109.45,30.06,8.576,2.9,0 / 23,1036119,2019-08-12 16:49:56:561,-0.2757,0.4197,9.7442,-0.2207,0.3067,9.7994,-0.0016,-0.0043,0.0065
34716,47.867443,-1.690814,109.45,30.06,8.576,2.9,0 / 23,1036119,2019-08-12 16:49:56:561,-0.2757,0.4197,9.7442,-0.2207,0.3067,9.7994,-0.0016,-0.0043,0.0065
34717,47.867443,-1.690814,109.45,30.06,8.576,2.9,0 / 23,1036120,2019-08-12 16:49:56:562,-0.2757,0.4197,9.7442,-0.2207,0.3067,9.7994,-0.0016,-0.0043,0.0065
34718,47.867443,-1.690814,109.45,30.06,8.576,2.9,0 / 23,1036120,2019-08-12 16:49:56:562,-0.2757,0.4197,9.7442,-0.2207,0.3067,9.7994,-0.0016,-0.0043,0.0065
34719,47.867443,-1.690814,109.45,30.06,8.576,2.9,0 / 23,1036120,2019-08-12 16:49:56:562,-0.2757,0.4197,9.7442,-0.2207,0.3067,9.7994,-0.0016,-0.0043,0.0065
34720,47.867443,-1.690814,109.45,30.06,8.576,2.9,0 / 23,1036121,2019-08-12 16:49:56:563,-0.2757,0.4197,9.7442,-0.2207,0.3067,9.7994,-0.0016,-0.0043,0.0065
34721,47.867443,-1.690814,109.45,30.06,8.576,2.9,0 / 23,1036121,2019-08-12 16:49:56:563,-0.2757,0.4197,9.7442,-0.2207,0.3067,9.7994,-0.0016,-0.0043,0.0065
34722,47.867443,-1.690814,109.45,30.06,8.576,2.9,0 / 23,1036121,2019-08-12 16:49:56:563,-0.2757,0.4197,9.7442,-0.2207,0.3067,9.7994,-0.0016,-0.0043,0.0065
34723,47.867443,-1.690814,109.45,30.06,8.576,2.9,0 / 23,1036122,2019-08-12 16:49:56:564,-0.2757,0.4197,9.7442,-0.2207,0.3067,9.7994,-0.0016,-0.0043,0.0065
34724,47.867443,-1.690814,109.45,30.06,8.576,2.9,0 / 23,1036122,2019-08-12 16:49:56:564,-0.2757,0.4197,9.7442,-0.2207,0.3067,9.7994,-0.0016,-0.0043,0.0065
34725,47.867443,-1.690814,109.45,30.06,8.576,2.9,0 / 23,1036123,2019-08-12 16:49:56:565,-0.2757,0.4197,9.7442,-0.2207,0.3067,9.7994,-0.0016,-0.0043,0.0065
34726,47.867443,-1.690814,109.45,30.06,8.576,2.9,0 / 23,1036123,2019-08-12 16:49:56:565,-0.2757,0.4197,9.7442,-0.2207,0.3067,9.7994,-0.0016,-0.0043,0.0065
34727,47.867443,-1.690814,109.45,30.06,8.576,2.9,0 / 23,1036123,2019-08-12 16:49:56:565,-0.2757,0.4197,9.7442,-0.2207,0.3067,9.7994,-0.0016,-0.0043,0.0065
34728,47.867443,-1.690814,109.45,30.06,8.576,2.9,0 / 23,1036124,2019-08-12 16:49:56:566,-0.2757,0.4197,9.7442,-0.2207,0.3067,9.7994,-0.0016,-0.0043,0.0065
34729,47.867443,-1.690814,109.45,30.06,8.576,2.9,0 / 23,1036124,2019-08-12 16:49:56:566,-0.2757,0.4197,9.7442,-0.2207,0.3067,9.7994,-0.0016,-0.0043,0.0065
34730,47.867443,-1.690814,109.45,30.06,8.576,2.9,0 / 23,1036124,2019-08-12 16:49:56:566,-0.2757,0.4197,9.7442,-0.2207,0.3067,9.7994,-0.0016,-0.0043,0.0065
34731,47.867443,-1.690814,109.45,30.06,8.576,2.9,0 / 23,1036124,2019-08-12 16:49:56:566,-0.2757,0.4197,9.7442,-0.2207,0.3067,9.7994,-0.0016,-0.0043,0.0065
34732,47.867443,-1.690814,109.45,30.06,8.576,2.9,0 / 23,1036125,2019-08-12 16:49:56:567,-0.2757,0.4197,9.7442,-0.2207,0.3067,9.7994,-0.0016,-0.0043,0.0065
34733,47.867443,-1.690814,109.45,30.06,8.576,2.9,0 / 23,1036125,2019-08-12 16:49:56:567,-0.2757,0.4197,9.7442,-0.2207,0.3067,9.7994,-0.0016,-0.0043,0.0065
34734,47.867443,-1.690814,109.45,30.06,8.576,2.9,0 / 23,1036126,2019-08-12 16:49:56:568,-0.2757,0.4197,9.7442,-0.2207,0.3067,9.7994,-0.0016,-0.0043,0.0065
34735,47.867443,-1.690814,109.45,30.06,8.576,2.9,0 / 23,1036126,2019-08-12 16:49:56:568,-0.2757,0.4197,9.7442,-0.2207,0.3067,9.7994,-0.0016,-0.0043,0.0065
34736,47.867443,-1.690814,109.45,30.06,8.576,2.9,0 / 23,1036126,2019-08-12 16:49:56:568,-0.2757,0.4197,9.7442,-0.2207,0.3067,9.7994,-0.0016,-0.0043,0.0065
34737,47.867443,-1.690814,109.45,30.06,8.576,2.9,0 / 23,1036127,2019-08-12 16:49:56:569,-0.2757,0.4197,9.7442,-0.2207,0.3067,9.7994,-0.0016,-0.0043,0.0065
34738,47.867443,-1.690814,109.45,30.06,8.576,2.9,0 / 23,1036127,2019-08-12 16:49:56:569,-0.2757,0.4197,9.7442,-0.2207,0.3067,9.7994,-0.0016,-0.0043,0.0065
34739,47.867443,-1.690814,109.45,30.06,8.576,2.9,0 / 23,1036127,2019-08-12 16:49:56:569,-0.2757,0.4197,9.7442,-0.2207,0.3067,9.7994,-0.0016,-0.0043,0.0065
34740,47.867443,-1.690814,109.45,30.06,8.576,2.9,0 / 23,1036137,2019-08-12 16:49:56:579,-0.2757,0.4197,9.7442,-0.2207,0.3067,9.7994,-0.0016,-0.0043,0.0065
34741,47.867443,-1.690814,109.45,30.06,8.576,2.9,13 / 23,1036548,2019-08-12 16:49:56:990,-0.2757,0.4197,9.7442,-0.2207,0.3067,9.7994,-0.0016,-0.0043,0.0065
34742,47.867443,-1.690814,109.45,30.06,8.576,2.9,13 / 23,1036549,2019-08-12 16:49:56:991,-0.2757,0.4197,9.7442,-0.2207,0.3067,9.7994,-0.0016,-0.0043,0.0065
34743,47.867443,-1.690814,109.45,30.06,8.576,2.9,13 / 23,1036551,2019-08-12 16:49:56:993,-0.2757,0.4197,9.7442,-0.2207,0.3067,9.7994,-0.0016,-0.0043,0.0065
34744,47.867443,-1.690814,109.45,30.06,8.576,2.9,13 / 23,1036552,2019-08-12 16:49:56:994,-0.2757,0.4197,9.7442,-0.2207,0.3067,9.7994,-0.0016,-0.0043,0.0065
34745,47.867443,-1.690814,109.45,30.06,8.576,2.9,13 / 23,1036553,2019-08-12 16:49:56:995,-0.2757,0.4197,9.7442,-0.2207,0.3067,9.7994,-0.0016,-0.0043,0.0065
34746,47.867443,-1.690814,109.45,30.06,8.576,2.9,13 / 23,1036556,2019-08-12 16:49:56:998,-0.2757,0.4197,9.7442,-0.2207,0.3067,9.7994,-0.0016,-0.0043,0.0065
34747,47.867443,-1.690814,109.45,30.06,8.576,2.9,13 / 23,1036557,2019-08-12 16:49:56:999,-0.2757,0.4197,9.7442,-0.2207,0.3067,9.7994,-0.0016,-0.0043,0.0065
34748,47.867443,-1.690814,109.45,30.06,8.576,2.9,13 / 23,1036559,2019-08-12 16:49:57:001,-0.2757,0.4197,9.7442,-0.2207,0.3067,9.7994,-0.0016,-0.0043,0.0065
34749,47.867443,-1.690814,109.45,30.06,8.576,2.9,13 / 23,1036560,2019-08-12 16:49:57:002,-0.2757,0.4197,9.7442,-0.2207,0.3067,9.7994,-0.0016,-0.0043,0.0065
