,GPS LATITUDE (degrees), GPS LONGITUDE (degrees), GPS ALTITUDE (m), GPS SPEED (Kmh), GPS ACCURACY (m), GPS ORIENTATION (Â°),GPS SATELLITES IN RANGE, TIME SINCE START (ms), DATE (YYYY-MO-DD HH-MI-SS_SSS), ACCELEROMETER X (m/s²) , ACCELEROMETER Y (m/s²), ACCELEROMETER Z (m/s²), GRAVITY X (m/s²), GRAVITY Y (m/s²), GRAVITY Z (m/s²), GYROSCOPE Yaw (rad/s), GYROSCOPE Pitch (rad/s), GYROSCOPE Roll (rad/s), MAGNETIC FIELD X (Î¼T), MAGNETIC FIELD Y (Î¼T), MAGNETIC FIELD Z (Î¼T), ORIENTATION (Yaw) (Â°), ORIENTATION (Pitch) (Â°), ORIENTATION (Roll ) (Â°)
2952,52.360718,-1.959415,221.64,30.43,4,71.19,21 / 21,609207,2020-01-08 16:31:24:183,0.1241,1.2302,8.8755,0.0315,-0.056,9.8064,0.093,-0.1294,0.2538,-17.5,-36.44,1.19,266.21,-88.12,176.81
2953,52.360718,-1.959415,221.64,30.43,4,71.19,21 / 21,609308,2020-01-08 16:31:24:284,1.0335,-2.0423,10.6531,0.0316,-0.0331,9.8065,0.0635,-0.2635,0.0476,-17.25,-36.25,0.75,263.74,-87.96,174.66
2954,52.360718,-1.959415,221.64,30.43,4,71.19,21 / 21,609408,2020-01-08 16:31:24:384,-0.5191,-0.7447,10.1012,0.0342,-0.002,9.8065,0.0742,-0.3468,-0.0333,-17.69,-36.62,1.0,259.65,-87.88,170.74
2955,52.360718,-1.959415,221.64,30.43,4,71.19,21 / 21,609508,2020-01-08 16:31:24:484,-1.1833,0.8445,10.0028,-0.0179,0.0257,9.8065,0.0657,0.0318,0.0511,-16.87,-36.37,1.0,263.14,-87.97,174.04
2956,52.360718,-1.959415,221.64,30.43,4,71.19,21 / 21,609607,2020-01-08 16:31:24:583,0.3277,-0.8875,9.8247,-0.0029,-0.0263,9.8066,0.0107,0.0716,0.1323,-17.37,-36.44,1.25,264.97,-88.21,175.38
2957,52.360718,-1.959415,221.64,30.43,4,71.19,21 / 21,609708,2020-01-08 16:31:24:684,-0.5285,-1.0058,9.4151,-0.006,-0.0241,9.8066,-0.0408,-0.0591,-0.0888,-17.12,-36.56,1.0,260.6,-88.14,171.22
2958,52.360718,-1.959415,221.64,30.43,4,71.19,21 / 21,609808,2020-01-08 16:31:24:784,0.9999,-0.3385,11.3203,0.0072,-0.001,9.8066,-0.0658,-0.131,0.0215,-16.94,-36.12,0.75,262.96,-88.01,173.77
2959,52.360718,-1.959415,221.64,30.43,4,71.19,21 / 22,609908,2020-01-08 16:31:24:884,-0.0591,-2.5093,10.281,-0.0474,-0.003,9.8065,-0.0657,-0.1354,0.1073,-17.69,-35.81,0.44,259.04,-87.9,173.17
2960,52.360718,-1.959415,221.64,30.43,4,71.19,21 / 22,610008,2020-01-08 16:31:24:984,1.21,-2.2859,9.474,-0.0148,0.004,9.8066,0.038,0.3194,-0.1356,-17.62,-36.31,0.75,259.68,-88.17,170.1
2961,52.360718,-1.959415,221.64,30.43,4,71.19,21 / 22,610108,2020-01-08 16:31:25:084,0.2216,3.2932,8.3851,-0.032,0.0097,9.8066,0.0823,0.5015,-0.2946,-17.31,-36.5,1.13,262.17,-88.3,172.38
2962,52.360718,-1.959415,221.64,30.43,4,71.19,21 / 22,610208,2020-01-08 16:31:25:184,-1.8444,-4.5929,8.8467,0.0121,0.0739,9.8063,0.2801,0.3704,-0.2163,-17.06,-36.62,0.75,263.72,-88.16,174.33
2963,52.360718,-1.959415,221.64,30.43,4,71.19,21 / 22,610308,2020-01-08 16:31:25:284,2.9224,3.7612,12.4383,0.0218,0.0009,9.8066,0.3552,0.3198,-0.3035,-17.37,-36.0,1.0,270.77,-88.24,-178.88
2964,52.360718,-1.959415,221.64,30.43,4,71.19,21 / 22,610408,2020-01-08 16:31:25:384,-1.197,-1.8926,8.9546,0.0717,0.106,9.8058,0.2171,0.4336,-0.4173,-17.0,-35.87,0.56,263.58,-88.02,174.37
2965,52.360718,-1.959415,221.64,30.43,4,71.19,21 / 22,610507,2020-01-08 16:31:25:483,1.7173,5.1399,11.6232,0.0103,-0.0118,9.8066,0.0824,0.243,-0.2757,-17.31,-35.87,1.38,275.57,-88.0,-173.57
2966,52.360718,-1.959415,221.64,30.43,4,71.19,21 / 22,610608,2020-01-08 16:31:25:584,0.4257,-3.0559,9.5204,0.0137,0.0504,9.8065,-0.1163,0.0291,0.1463,-17.81,-36.06,0.81,272.0,-87.99,-177.17
2967,52.360718,-1.959415,221.64,30.43,4,71.19,21 / 22,610707,2020-01-08 16:31:25:683,-1.3307,-5.4545,9.0107,-0.0386,-0.1081,9.8059,-0.0834,-0.0477,0.2263,-17.19,-36.94,1.31,264.68,-87.94,175.77
2968,52.360718,-1.959415,221.64,30.43,4,71.19,21 / 22,610808,2020-01-08 16:31:25:784,-0.6828,-8.0603,9.5435,0.0038,0.0644,9.8064,-0.1322,-0.2796,0.2425,-18.25,-36.69,1.06,266.82,-88.04,177.65
2969,52.360718,-1.959415,221.64,30.43,4,71.19,21 / 22,610911,2020-01-08 16:31:25:887,0.0478,-0.0865,9.1612,-0.0235,-0.1277,9.8058,-0.0958,-0.4825,0.3181,-17.5,-36.12,1.19,266.5,-88.05,177.25
2970,52.360718,-1.959415,221.64,30.43,4,71.19,22 / 22,611008,2020-01-08 16:31:25:984,-0.3359,1.0783,9.5955,-0.0117,-0.014,9.8066,0.0714,-0.7549,0.5895,-17.94,-36.62,1.19,285.35,-88.14,-164.15
2971,52.360718,-1.959415,221.64,30.43,4,71.19,22 / 22,611108,2020-01-08 16:31:26:084,-1.6512,-8.358,10.4354,0.0077,-0.1147,9.8059,0.0797,-0.8731,0.4649,-18.06,-36.5,1.63,299.05,-87.99,-153.78
2972,52.360718,-1.959415,221.64,30.43,4,71.19,22 / 22,611208,2020-01-08 16:31:26:184,-0.1027,1.3634,10.6585,-0.0059,-0.0422,9.8065,-0.041,-0.8472,0.4184,-17.81,-36.56,1.19,283.9,-88.11,-165.5
2973,52.360718,-1.959415,221.64,30.43,4,71.19,22 / 22,611308,2020-01-08 16:31:26:284,-0.1585,0.3239,9.8988,-0.0091,0.0063,9.8066,-0.1663,-0.7003,0.3612,-17.0,-36.12,1.19,268.42,-88.04,179.2
2974,52.360718,-1.959415,221.64,30.43,4,71.19,22 / 22,611408,2020-01-08 16:31:26:384,1.152,4.3334,10.384,0.0373,0.1154,9.8058,-0.1965,-0.6542,0.5065,-17.25,-36.25,1.44,284.18,-88.3,-165.7
2975,52.360718,-1.959415,221.64,30.43,4,71.19,22 / 22,611508,2020-01-08 16:31:26:484,-0.7095,-5.6604,9.0407,0.0138,0.0717,9.8063,-0.1841,-0.5799,0.3032,-17.81,-36.37,1.5,272.87,-88.28,179.94
2976,52.360718,-1.959415,221.64,30.43,4,71.19,22 / 22,611608,2020-01-08 16:31:26:584,-2.1093,4.07,7.6642,0.0358,0.0518,9.8064,-0.3116,0.0653,0.0416,-17.0,-36.56,1.44,267.04,-88.2,177.59
2977,52.360718,-1.959415,221.64,30.43,4,71.19,22 / 22,611708,2020-01-08 16:31:26:684,0.0759,-1.6832,9.9522,-0.0134,0.0582,9.8065,-0.3761,0.2921,-0.0326,-17.56,-35.81,1.19,267.6,-88.44,177.53
2978,52.360718,-1.959415,221.64,30.43,4,71.19,22 / 22,611808,2020-01-08 16:31:26:784,1.7104,0.3691,11.1972,0.0571,-0.0012,9.8065,-0.2534,0.0085,-0.0323,-17.5,-36.12,1.5,276.34,-88.48,-177.18
2979,52.360718,-1.959415,221.64,30.43,4,71.19,22 / 22,611908,2020-01-08 16:31:26:884,-2.1039,0.0693,7.9505,-0.0113,0.0332,9.8066,-0.2451,0.1347,-0.0409,-17.69,-36.37,1.38,272.9,-88.4,-177.08
2980,52.360718,-1.959415,221.64,30.43,4,71.19,22 / 23,612007,2020-01-08 16:31:26:983,0.3042,1.9221,9.4464,0.0413,0.0029,9.8065,-0.1202,0.143,-0.0664,-17.12,-36.44,1.88,278.44,-88.15,-174.41
2981,52.360718,-1.959415,221.64,30.43,4,71.19,22 / 23,612107,2020-01-08 16:31:27:083,0.5689,-1.4646,9.8273,-0.0076,0.0206,9.8066,-0.1003,0.1715,-0.0947,-17.69,-36.37,2.06,280.41,-88.31,-172.61
2982,52.360718,-1.959415,221.64,30.43,4,71.19,22 / 23,612208,2020-01-08 16:31:27:184,0.1262,-1.6945,9.7377,0.0019,-0.0069,9.8066,-0.0746,0.394,-0.0929,-17.0,-36.12,1.75,282.47,-88.24,-170.6
2983,52.360718,-1.959415,221.64,30.43,4,71.19,22 / 23,612308,2020-01-08 16:31:27:284,-0.8467,-1.6821,10.3642,-0.0006,-0.0081,9.8066,-0.0099,0.3077,-0.1372,-17.75,-36.5,2.13,282.02,-88.15,-170.72
2984,52.360718,-1.959415,221.64,30.43,4,71.19,22 / 23,612408,2020-01-08 16:31:27:384,-0.6815,0.1703,10.4697,0.0488,-0.0321,9.8065,-0.1369,0.191,-0.2098,-17.44,-36.81,1.44,277.41,-88.51,-172.75
2985,52.360718,-1.959415,221.64,30.43,4,71.19,22 / 23,612508,2020-01-08 16:31:27:484,-1.9367,0.0966,7.7492,0.0062,0.0414,9.8065,-0.14,0.2388,-0.1808,-17.75,-35.94,1.63,278.66,-88.35,-174.42
2986,52.360718,-1.959415,221.64,30.43,4,71.19,22 / 23,612607,2020-01-08 16:31:27:583,-0.5062,4.3756,8.8281,0.0266,-0.0327,9.8065,-0.1798,0.5121,-0.1945,-17.06,-36.25,1.56,289.64,-88.43,-163.95
2987,52.360718,-1.959415,221.64,30.43,4,71.19,22 / 23,612708,2020-01-08 16:31:27:684,1.7281,4.5163,10.6259,0.003,-0.0174,9.8066,-0.1062,0.2589,-0.0671,-17.62,-36.5,1.75,287.68,-88.37,-165.56
2988,52.360718,-1.959415,221.64,30.43,4,71.19,22 / 23,612808,2020-01-08 16:31:27:784,-1.0765,-4.5291,7.5261,-0.0773,-0.0767,9.806,-0.3189,-0.3342,0.2806,-17.81,-35.5,2.0,281.35,-88.21,-171.59
2989,52.360718,-1.959415,221.64,30.43,4,71.19,22 / 22,612908,2020-01-08 16:31:27:884,1.0056,3.7886,12.5457,-0.0899,-0.0782,9.8059,-0.3353,-0.4461,0.2361,-18.0,-35.19,1.25,294.97,-88.52,-155.58
2990,52.360718,-1.959415,221.64,30.43,4,71.19,22 / 22,613008,2020-01-08 16:31:27:984,0.092,-0.6762,9.0611,0.0382,0.0304,9.8065,-0.1581,-0.1298,0.1258,-17.69,-36.0,1.94,278.36,-88.22,-174.47
2991,52.360718,-1.959415,221.64,30.43,4,71.19,22 / 22,613107,2020-01-08 16:31:28:083,-0.3196,-1.3197,9.8548,-0.0245,0.0052,9.8065,-0.0686,0.0227,-0.0157,-17.44,-36.44,2.63,279.08,-88.41,-177.66
2992,52.360718,-1.959415,221.64,30.43,4,71.19,22 / 22,613207,2020-01-08 16:31:28:183,0.3086,-0.255,9.512,-0.0057,0.0412,9.8065,-0.0663,0.0153,-0.0453,-17.19,-36.0,2.0,272.3,-88.34,179.07
2993,52.360718,-1.959415,221.64,30.43,4,71.19,22 / 22,613307,2020-01-08 16:31:28:283,0.676,-0.1801,10.4706,-0.0185,-0.0171,9.8065,-0.0321,0.0982,0.061,-16.94,-35.69,2.38,270.23,-88.35,176.99
2994,52.360718,-1.959415,221.64,30.43,4,71.19,22 / 22,613408,2020-01-08 16:31:28:384,1.1572,2.2496,9.7187,0.0097,0.0107,9.8066,-0.0679,0.0653,-0.0527,-17.0,-36.37,1.44,266.85,-88.39,176.88
2995,52.360718,-1.959415,221.64,30.43,4,71.19,22 / 22,613508,2020-01-08 16:31:28:484,0.8,0.6981,10.6815,-0.0329,0.0282,9.8065,-0.1316,0.2832,-0.1579,-17.12,-35.19,1.13,265.45,-88.4,175.36
2996,52.360718,-1.959415,221.64,30.43,4,71.19,22 / 22,613608,2020-01-08 16:31:28:584,-0.3809,1.989,8.4372,-0.0077,0.0424,9.8065,-0.1376,0.2234,-0.1667,-17.12,-36.12,1.63,268.77,-88.45,175.32
2997,52.360718,-1.959415,221.64,30.43,4,71.19,22 / 22,613708,2020-01-08 16:31:28:684,1.3197,-1.0877,10.4829,-0.0459,0.0095,9.8065,-0.1895,0.212,-0.0913,-17.5,-36.0,1.38,270.02,-88.61,179.59
2998,52.360718,-1.959415,221.64,30.43,4,71.19,22 / 22,613808,2020-01-08 16:31:28:784,-0.4657,1.8923,9.1761,-0.0169,0.0079,9.8066,-0.1511,0.0639,-0.0802,-16.87,-36.06,1.56,272.98,-88.37,179.69
2999,52.360718,-1.959415,221.64,30.43,4,71.19,22 / 22,613908,2020-01-08 16:31:28:884,0.6382,-1.384,10.4408,-0.0211,0.0068,9.8066,0.0107,0.1243,-0.0452,-17.56,-36.12,1.63,273.46,-88.47,-179.85
3000,52.360718,-1.959415,221.64,30.43,4,71.19,22 / 22,614008,2020-01-08 16:31:28:984,2.0831,1.1683,10.3234,0.0261,0.0084,9.8065,0.0765,0.3346,-0.1785,-17.5,-35.94,2.0,273.45,-88.44,-179.98
3001,52.360718,-1.959415,221.64,30.43,4,71.19,22 / 22,614108,2020-01-08 16:31:29:084,0.2772,-1.9562,11.5447,-0.0084,0.0599,9.8064,0.4483,-0.014,-0.189,-17.12,-36.19,1.69,269.68,-88.34,176.48
3002,52.360718,-1.959415,221.64,30.43,4,71.19,22 / 22,614208,2020-01-08 16:31:29:184,1.9997,-0.0978,12.2568,0.0973,0.015,9.8061,0.4285,0.0192,-0.1256,-17.44,-36.31,2.19,282.48,-88.58,-171.31
3003,52.360718,-1.959415,221.64,30.43,4,71.19,22 / 22,614307,2020-01-08 16:31:29:283,-0.988,-1.6924,8.0591,0.0492,0.0175,9.8064,0.2291,0.2354,-0.0936,-17.75,-36.31,2.56,279.74,-88.18,-176.17
3004,52.360718,-1.959415,221.64,30.43,4,71.19,22 / 22,614408,2020-01-08 16:31:29:384,0.632,1.5567,8.3763,0.0349,0.0211,9.8066,0.1458,0.1853,-0.1397,-17.62,-36.37,2.25,272.59,-88.16,179.91
3005,52.360718,-1.959415,221.64,30.43,4,71.19,22 / 22,614508,2020-01-08 16:31:29:484,1.2513,-4.9311,9.9303,-0.0141,0.0528,9.8065,0.0737,0.1214,-0.1935,-17.81,-36.56,2.31,273.42,-88.36,-179.57
3006,52.360718,-1.959415,221.64,30.43,4,71.19,22 / 22,614608,2020-01-08 16:31:29:584,1.9383,-2.0469,10.2844,0.0213,-0.011,9.8066,-0.0181,-0.13,0.0412,-18.31,-36.37,2.19,279.95,-88.4,-173.25
3007,52.360718,-1.959415,221.64,30.43,4,71.19,22 / 22,614708,2020-01-08 16:31:29:684,-1.0928,-4.4467,10.6998,-0.0011,0.0146,9.8066,0.0633,-0.4004,0.3088,-17.94,-35.75,2.56,282.43,-88.36,-173.86
3008,52.360718,-1.959415,221.64,30.43,4,71.19,22 / 22,614808,2020-01-08 16:31:29:784,0.8856,0.5549,9.6453,0.0244,-0.0688,9.8064,0.0815,-0.4376,0.3814,-17.62,-36.56,2.19,271.82,-88.56,178.42
3009,52.360718,-1.959415,221.64,30.43,4,71.19,22 / 22,614908,2020-01-08 16:31:29:884,0.8075,3.5402,9.5577,-0.0181,0.0381,9.8065,0.0931,-0.6183,0.1948,-17.25,-36.31,2.38,276.65,-88.58,-177.08
3010,52.360718,-1.959415,221.64,30.43,4,71.19,22 / 23,615008,2020-01-08 16:31:29:984,-0.7993,1.7463,8.7564,0.0199,-0.0718,9.8063,0.0635,-0.6704,0.2424,-17.75,-36.31,2.31,288.8,-88.34,-164.41
3011,52.360718,-1.959415,221.64,30.43,4,71.19,22 / 23,615107,2020-01-08 16:31:30:083,-2.6162,3.7162,10.5002,0.003,-0.0411,9.8065,0.3599,-0.5479,0.3568,-17.81,-35.94,2.44,280.45,-88.4,-172.76
3012,52.360718,-1.959415,221.64,30.43,4,71.19,22 / 23,615207,2020-01-08 16:31:30:183,-1.0084,-6.9901,11.6081,0.0172,-0.0894,9.8062,0.3421,-0.4596,0.2139,-18.12,-36.31,3.0,277.26,-88.36,-179.0
3013,52.360718,-1.959415,221.64,30.43,4,71.19,22 / 23,615307,2020-01-08 16:31:30:283,2.2233,4.423,7.7373,0.0292,-0.1178,9.8058,-0.0936,-0.0104,-0.1861,-18.06,-36.19,1.94,294.16,-88.23,-158.96
3014,52.360718,-1.959415,221.64,30.43,4,71.19,22 / 23,615408,2020-01-08 16:31:30:384,-0.7125,-7.8163,10.6946,-0.0056,-0.0657,9.8064,-0.0397,0.2046,-0.1767,-17.56,-36.19,2.63,283.98,-88.29,-172.21
3015,52.360718,-1.959415,221.64,30.43,4,71.19,22 / 23,615508,2020-01-08 16:31:30:484,3.432,0.4347,11.8471,0.0113,-0.1145,9.8059,-0.2782,0.4748,-0.1826,-17.12,-36.25,2.81,295.4,-88.19,-161.18
3016,52.360718,-1.959415,221.64,30.43,4,71.19,22 / 23,615608,2020-01-08 16:31:30:584,-0.975,-3.9915,11.922,-0.1158,-0.0147,9.8059,-0.3708,0.4632,-0.2006,-18.06,-36.06,2.38,295.92,-88.68,-158.06
3017,52.360718,-1.959415,221.64,30.43,4,71.19,22 / 23,615708,2020-01-08 16:31:30:684,0.4429,-0.4795,9.7712,0.0052,-0.0445,9.8065,-0.1117,0.0462,-0.0611,-17.75,-36.12,2.56,300.38,-88.46,-156.45
3018,52.360718,-1.959415,221.64,30.43,4,71.19,22 / 23,615808,2020-01-08 16:31:30:784,1.524,0.1058,10.1528,-0.0058,0.0012,9.8066,-0.1347,-0.0234,0.1395,-18.19,-35.94,2.88,296.0,-88.32,-160.47
3019,52.36133,-1.955779,219.57,27.71,4,77.64,23 / 23,615907,2020-01-08 16:31:30:883,2.1674,1.3529,10.1823,0.0234,0.033,9.8065,-0.0426,-0.0967,0.1355,-17.62,-36.25,3.38,302.01,-88.33,-154.65
3020,52.36133,-1.955779,219.57,27.71,4,77.64,23 / 23,616007,2020-01-08 16:31:30:983,5.4818,0.3909,10.715,-0.0116,0.0041,9.8066,0.1219,0.0029,0.0455,-17.75,-36.37,2.94,298.3,-88.25,-158.1
3021,52.36133,-1.955779,219.57,27.71,4,77.64,23 / 23,616108,2020-01-08 16:31:31:084,-0.6028,-0.5932,6.2347,-0.0682,0.0012,9.8064,-0.1477,-0.1331,0.0091,-17.81,-36.5,2.38,287.45,-88.32,-165.69
3022,52.36133,-1.955779,219.57,27.71,4,77.64,23 / 23,616207,2020-01-08 16:31:31:183,1.0287,0.7372,9.9018,-0.0517,-0.0196,9.8064,-0.1462,-0.0555,0.1176,-17.87,-36.62,2.38,285.55,-88.41,-167.66
3023,52.36133,-1.955779,219.57,27.71,4,77.64,23 / 23,616308,2020-01-08 16:31:31:284,0.1753,-1.4393,9.9141,-0.023,-0.0276,9.8065,0.0239,-0.1262,0.1483,-18.31,-36.0,2.5,285.41,-88.32,-170.84
3024,52.36133,-1.955779,219.57,27.71,4,77.64,23 / 23,616408,2020-01-08 16:31:31:384,1.8823,-2.2232,10.6003,0.0113,-0.0171,9.8065,-0.0325,-0.1173,-0.0284,-18.19,-37.0,3.0,291.55,-88.14,-164.39
3025,52.36133,-1.955779,219.57,27.71,4,77.64,23 / 23,616508,2020-01-08 16:31:31:484,1.1408,-1.8322,10.3598,-0.033,0.0519,9.8064,-0.0242,-0.0266,-0.013,-17.94,-36.12,3.38,290.92,-88.31,-165.42
3026,52.36133,-1.955779,219.57,27.71,4,77.64,23 / 23,616608,2020-01-08 16:31:31:584,1.8878,-1.9561,10.0677,-0.0105,0.0161,9.8065,-0.0989,0.1513,-0.0774,-18.0,-36.31,2.69,292.59,-88.25,-163.68
3027,52.36133,-1.955779,219.57,27.71,4,77.64,23 / 23,616707,2020-01-08 16:31:31:683,-1.2406,2.2352,8.1071,-0.0533,0.0451,9.8063,-0.0118,0.149,-0.0846,-17.44,-36.44,2.56,294.77,-88.22,-161.85
3028,52.36133,-1.955779,219.57,27.71,4,77.64,23 / 23,616807,2020-01-08 16:31:31:783,0.621,-0.6084,8.8623,0.0103,0.0268,9.8066,0.0227,0.1087,-0.1125,-17.31,-36.56,1.88,283.56,-88.38,-169.75
3029,52.36133,-1.955779,219.57,27.71,4,77.64,23 / 23,616907,2020-01-08 16:31:31:883,2.491,0.4702,10.1205,-0.0341,0.013,9.8066,0.0734,0.0642,-0.0981,-17.5,-35.69,2.5,287.64,-88.25,-168.87
3030,52.36133,-1.955779,219.57,27.71,4,77.64,23 / 23,617008,2020-01-08 16:31:31:984,0.3843,-0.3304,9.4932,0.0123,0.006,9.8066,0.0997,0.0426,-0.0593,-17.5,-36.62,2.88,290.56,-88.41,-166.24
3031,52.36133,-1.955779,219.57,27.71,4,77.64,23 / 23,617107,2020-01-08 16:31:32:083,1.065,0.4991,10.1966,0.0196,0.0285,9.8065,0.0583,-0.0948,-0.0966,-17.87,-36.06,3.5,287.96,-88.39,-171.58
3032,52.36133,-1.955779,219.57,27.71,4,77.64,23 / 23,617208,2020-01-08 16:31:32:184,1.3713,1.6356,10.1591,-0.0045,-0.0284,9.8065,0.0711,-0.1251,0.0694,-17.19,-37.0,2.31,289.75,-88.37,-163.64
3033,52.36133,-1.955779,219.57,27.71,4,77.64,23 / 23,617308,2020-01-08 16:31:32:284,1.9367,-2.8223,10.3072,0.0339,0.0093,9.8066,0.0815,-0.1581,0.0734,-17.87,-36.81,3.38,286.23,-88.26,-169.83
3034,52.36133,-1.955779,219.57,27.71,4,77.64,23 / 23,617408,2020-01-08 16:31:32:384,-0.9262,0.0017,8.6657,-0.0417,-0.0273,9.8065,0.0552,-0.1528,0.0528,-17.94,-36.37,3.06,291.55,-88.52,-165.18
3035,52.36133,-1.955779,219.57,27.71,4,77.64,23 / 23,617508,2020-01-08 16:31:32:484,-0.698,-2.8047,8.8492,0.0321,-0.0219,9.8066,0.025,-0.3427,0.1377,-17.44,-35.87,3.13,295.25,-88.5,-161.92
3036,52.36133,-1.955779,219.57,27.71,4,77.64,23 / 23,617608,2020-01-08 16:31:32:584,3.5199,6.555,12.1916,-0.0805,-0.0868,9.8059,-0.128,-0.5764,0.4205,-16.81,-36.5,3.25,308.31,-88.31,-148.92
3037,52.36133,-1.955779,219.57,27.71,4,77.64,23 / 23,617707,2020-01-08 16:31:32:683,1.7911,-3.1768,10.1823,0.0206,-0.0458,9.8065,0.039,-0.4818,0.3559,-18.19,-35.87,3.13,291.18,-88.41,-165.35
3038,52.36133,-1.955779,219.57,27.71,4,77.64,23 / 23,617808,2020-01-08 16:31:32:784,6.6039,6.5702,11.2375,-0.1129,-0.1252,9.8052,-0.2327,-0.2232,0.1092,-17.31,-36.0,2.31,303.0,-88.42,-150.91
3039,52.36133,-1.955779,219.57,27.71,4,77.64,23 / 23,617908,2020-01-08 16:31:32:884,-3.4599,-5.8006,6.1,-0.0441,-0.0127,9.8065,-0.0706,-0.1101,0.0124,-17.62,-36.06,2.19,291.42,-88.2,-161.58
3040,52.36133,-1.955779,219.57,27.71,4,77.64,23 / 23,618009,2020-01-08 16:31:32:985,-1.2896,-4.4729,8.3323,-0.1126,-0.1011,9.8054,0.0224,0.1768,-0.0153,-17.5,-36.31,2.94,316.38,-88.57,-141.56
3041,52.36133,-1.955779,219.57,27.71,4,77.64,23 / 23,618108,2020-01-08 16:31:33:084,-0.1882,-4.8866,8.3209,0.0385,0.0397,9.8064,0.0698,0.2803,-0.2181,-17.94,-36.56,2.88,291.56,-88.37,-164.81
3042,52.36133,-1.955779,219.57,27.71,4,77.64,23 / 23,618208,2020-01-08 16:31:33:184,0.5241,1.2592,11.1753,-0.0167,-0.0584,9.8064,0.1715,0.4564,-0.361,-17.37,-36.25,3.25,301.39,-88.16,-155.33
3043,52.36133,-1.955779,219.57,27.71,4,77.64,23 / 23,618307,2020-01-08 16:31:33:283,2.8242,-0.7607,10.0245,0.0418,0.0722,9.8062,0.2012,0.6802,-0.4073,-17.5,-36.56,2.81,306.65,-88.06,-150.0
3044,52.36133,-1.955779,219.57,27.71,4,77.64,23 / 23,618408,2020-01-08 16:31:33:384,-0.4961,-5.6335,9.1485,-0.0038,-0.0206,9.8065,0.0932,0.6744,-0.4702,-18.0,-36.69,2.63,307.18,-88.07,-149.15
3045,52.36133,-1.955779,219.57,27.71,4,77.64,23 / 23,618507,2020-01-08 16:31:33:483,1.2282,-4.2856,9.48,0.0402,0.0837,9.8062,0.1141,0.4724,-0.4538,-17.62,-35.62,3.0,310.67,-87.93,-145.67
3046,52.36133,-1.955779,219.57,27.71,4,77.64,23 / 23,618608,2020-01-08 16:31:33:584,0.3277,-0.4085,9.7987,-0.0053,-0.0126,9.8066,-0.0139,0.4743,-0.3299,-17.75,-36.0,3.69,308.23,-87.97,-151.17
3047,52.36133,-1.955779,219.57,27.71,4,77.64,23 / 23,618708,2020-01-08 16:31:33:684,2.1461,0.5827,9.4357,0.0057,0.0657,9.8064,-0.0001,0.4049,-0.3332,-18.62,-36.19,3.38,297.35,-88.11,-158.48
3048,52.36133,-1.955779,219.57,27.71,4,77.64,23 / 23,618808,2020-01-08 16:31:33:784,-1.0153,-3.9893,10.1381,-0.016,0.0101,9.8066,0.0721,0.2823,-0.1455,-18.5,-36.12,3.5,307.07,-88.17,-152.59
3049,52.36133,-1.955779,219.57,27.71,4,77.64,23 / 23,618908,2020-01-08 16:31:33:884,0.8622,-0.2548,10.9929,0.0046,-0.0105,9.8066,0.0813,0.001,-0.0955,-17.87,-35.56,2.75,301.29,-88.03,-154.84
3050,52.36133,-1.955779,219.57,27.71,4,77.64,23 / 23,619008,2020-01-08 16:31:33:984,1.2698,-0.1202,9.7211,-0.034,0.0397,9.8065,0.1055,-0.3641,0.0783,-17.56,-35.31,3.19,296.64,-88.3,-159.9
3051,52.36133,-1.955779,219.57,27.71,4,77.64,23 / 23,619108,2020-01-08 16:31:34:084,-0.6543,2.3739,9.5831,-0.0147,-0.0173,9.8066,0.0623,-0.2849,0.1584,-17.37,-36.75,3.13,296.79,-88.3,-159.95
3052,52.36133,-1.955779,219.57,27.71,4,77.64,23 / 23,619207,2020-01-08 16:31:34:183,0.8654,-1.3419,9.5934,-0.0007,0.0275,9.8066,-0.005,-0.3238,0.241,-18.5,-36.0,2.94,288.85,-88.37,-167.55
3053,52.36133,-1.955779,219.57,27.71,4,77.64,23 / 23,619308,2020-01-08 16:31:34:284,0.9154,-0.8618,9.9736,0.0213,-0.0275,9.8065,0.044,-0.1632,0.2255,-17.75,-36.37,3.44,292.74,-88.24,-163.51
3054,52.36133,-1.955779,219.57,27.71,4,77.64,23 / 23,619408,2020-01-08 16:31:34:384,0.9803,-1.3483,9.1179,-0.0017,0.0189,9.8066,0.0206,-0.1301,0.0491,-17.75,-35.75,2.63,294.83,-87.99,-161.01
3055,52.36133,-1.955779,219.57,27.71,4,77.64,23 / 23,619507,2020-01-08 16:31:34:483,0.4247,1.2439,9.8973,-0.0292,-0.0105,9.8066,-0.0566,-0.245,0.0622,-17.81,-36.06,3.13,295.03,-87.95,-160.76
3056,52.36133,-1.955779,219.57,27.71,4,77.64,23 / 23,619608,2020-01-08 16:31:34:584,1.2932,-0.7508,10.9937,0.0111,0.0384,9.8065,-0.071,-0.3491,0.2212,-18.06,-36.44,3.19,293.01,-88.07,-162.92
3057,52.36133,-1.955779,219.57,27.71,4,77.64,23 / 23,619708,2020-01-08 16:31:34:684,1.3459,2.4984,8.3482,0.0387,0.0049,9.8065,0.0774,-0.322,0.305,-18.19,-36.0,3.56,291.83,-87.81,-166.71
3058,52.36133,-1.955779,219.57,27.71,4,77.64,23 / 23,619808,2020-01-08 16:31:34:784,-1.1112,-3.6111,7.8673,0.0408,0.0658,9.8063,-0.1971,-0.321,0.3399,-18.12,-36.19,3.88,287.66,-87.71,-170.6
3059,52.36133,-1.955779,219.57,27.71,4,77.64,23 / 23,619908,2020-01-08 16:31:34:884,0.2864,0.8961,10.8286,0.0637,0.0025,9.8064,-0.1179,-0.3616,0.1537,-18.19,-36.62,3.0,291.83,-87.73,-163.33
3060,52.36133,-1.955779,219.57,27.71,4,77.64,23 / 23,620008,2020-01-08 16:31:34:984,0.6696,4.1092,9.1152,0.0251,-0.0061,9.8065,-0.1481,-0.0697,-0.0998,-18.44,-36.37,3.88,291.46,-87.57,-166.64
3061,52.36133,-1.955779,219.57,27.71,4,77.64,23 / 23,620108,2020-01-08 16:31:35:084,0.517,3.7584,9.4648,-0.0176,-0.1154,9.8059,0.2067,0.2971,-0.2036,-18.0,-36.5,3.44,300.05,-87.61,-155.31
3062,52.36133,-1.955779,219.57,27.71,4,77.64,23 / 23,620208,2020-01-08 16:31:35:184,4.8338,4.3132,11.1693,-0.0486,-0.0524,9.8064,0.2023,0.5132,-0.3751,-17.81,-36.75,3.63,301.69,-87.72,-156.92
3063,52.36133,-1.955779,219.57,27.71,4,77.64,23 / 23,620308,2020-01-08 16:31:35:284,-2.6759,-6.3534,8.2737,-0.0642,-0.0998,9.8058,0.2578,0.5697,-0.5551,-18.69,-36.19,3.19,291.61,-87.72,-163.37
3064,52.36133,-1.955779,219.57,27.71,4,77.64,23 / 23,620408,2020-01-08 16:31:35:384,1.7873,1.3505,9.5779,-0.0312,-0.0731,9.8063,0.2146,0.7131,-0.5337,-17.62,-36.44,3.25,299.52,-87.65,-155.88
3065,52.36133,-1.955779,219.57,27.71,4,77.64,23 / 23,620509,2020-01-08 16:31:35:485,-2.4706,-5.3422,9.3692,-0.0464,-0.0611,9.8063,0.1792,0.6448,-0.3511,-18.62,-37.06,4.25,289.59,-87.47,-167.73
3066,52.36133,-1.955779,219.57,27.71,4,77.64,23 / 23,620608,2020-01-08 16:31:35:584,0.8931,1.2943,9.9088,-0.0304,-0.0831,9.8062,-0.0113,0.4949,-0.276,-18.12,-36.31,3.56,298.38,-87.36,-159.59
3067,52.36133,-1.955779,219.57,27.71,4,77.64,23 / 23,620708,2020-01-08 16:31:35:684,0.0437,-5.8506,10.3643,0.0216,0.0174,9.8066,-0.037,0.1316,0.0014,-18.69,-36.56,3.75,292.18,-87.36,-165.03
3068,52.36133,-1.955779,219.57,27.71,4,77.64,23 / 23,620808,2020-01-08 16:31:35:784,2.1398,3.1202,8.514,0.0107,-0.0727,9.8063,-0.0546,0.0042,0.0562,-17.69,-36.12,3.06,297.24,-87.3,-157.44
3069,52.36133,-1.955779,219.57,27.71,4,77.64,23 / 23,620908,2020-01-08 16:31:35:884,1.4509,-1.6857,9.303,0.0096,0.0587,9.8064,-0.084,-0.2768,0.11,-18.37,-36.81,4.0,303.34,-87.47,-154.92
3070,52.36133,-1.955779,219.57,27.71,4,77.64,23 / 23,621008,2020-01-08 16:31:35:984,1.0104,-3.3878,9.7965,-0.0201,-0.0334,9.8066,-0.0287,-0.2472,0.1833,-18.5,-36.62,3.56,300.65,-87.59,-157.7
3071,52.36133,-1.955779,219.57,27.71,4,77.64,23 / 23,621108,2020-01-08 16:31:36:084,-0.8774,-3.3431,9.2166,0.0172,0.0619,9.8064,0.0849,-0.3456,0.2603,-18.25,-36.0,3.81,299.12,-87.41,-158.95
3072,52.36133,-1.955779,219.57,27.71,4,77.64,23 / 23,621207,2020-01-08 16:31:36:183,0.7101,-0.159,10.6909,-0.0236,-0.0165,9.8065,0.0061,-0.3689,0.2008,-18.62,-36.19,4.31,295.09,-87.28,-162.19
3073,52.36133,-1.955779,219.57,27.71,4,77.64,23 / 23,621307,2020-01-08 16:31:36:283,1.5475,2.5594,8.4756,-0.0196,0.0357,9.8065,0.106,-0.3773,0.0927,-18.0,-37.25,3.69,294.08,-87.17,-163.24
3074,52.36133,-1.955779,219.57,27.71,4,77.64,23 / 23,621408,2020-01-08 16:31:36:384,-0.584,-1.1417,10.7518,-0.0432,0.0153,9.8065,0.1252,-0.102,0.1031,-18.44,-36.0,3.5,294.29,-87.48,-163.73
3075,52.36133,-1.955779,219.57,27.71,4,77.64,23 / 23,621508,2020-01-08 16:31:36:484,1.2504,-0.5529,9.6384,0.0,0.008,9.8066,-0.0162,0.0825,0.0243,-18.37,-36.19,2.56,292.25,-87.42,-162.47
3076,52.36133,-1.955779,219.57,27.71,4,77.64,23 / 23,621608,2020-01-08 16:31:36:584,-0.1611,-0.111,9.624,-0.0111,-0.0093,9.8066,-0.0534,-0.0109,-0.011,-18.31,-35.94,3.31,292.6,-87.44,-162.16
3077,52.36133,-1.955779,219.57,27.71,4,77.64,23 / 23,621708,2020-01-08 16:31:36:684,0.451,1.546,10.1071,-0.0146,-0.0041,9.8066,0.0948,0.0256,-0.0843,-18.56,-36.19,4.13,295.4,-87.52,-162.31
3078,52.36133,-1.955779,219.57,27.71,4,77.64,23 / 23,621808,2020-01-08 16:31:36:784,1.0081,1.8851,10.6763,-0.0029,0.0134,9.8066,0.3234,0.3131,-0.0313,-18.06,-36.5,3.88,295.12,-87.4,-162.77
3079,52.36133,-1.955779,219.57,27.71,4,77.64,23 / 23,621908,2020-01-08 16:31:36:884,1.1566,0.2018,9.5896,-0.032,-0.0182,9.8066,0.0049,0.0141,-0.1428,-17.62,-36.12,3.63,286.34,-87.25,-171.0
3080,52.36133,-1.955779,219.57,27.71,4,77.64,23 / 23,622008,2020-01-08 16:31:36:984,-0.3514,-1.1099,9.3609,0.0029,0.0215,9.8066,0.081,0.1363,-0.1884,-17.94,-36.44,3.31,280.04,-87.33,-174.22
3081,52.36133,-1.955779,219.57,27.71,4,77.64,23 / 23,622108,2020-01-08 16:31:37:084,0.0318,1.2214,11.305,-0.0068,-0.0241,9.8066,0.1593,0.2004,-0.1251,-17.5,-36.19,3.81,289.71,-87.41,-168.49
3082,52.36133,-1.955779,219.57,27.71,4,77.64,23 / 23,622208,2020-01-08 16:31:37:184,1.955,2.2268,8.3555,0.0441,0.0,9.8065,0.1799,0.2323,-0.1231,-18.19,-35.87,2.88,284.82,-87.25,-169.38
3083,52.36133,-1.955779,219.57,27.71,4,77.64,23 / 23,622308,2020-01-08 16:31:37:284,1.1905,2.4292,9.5608,0.004,-0.0419,9.8065,0.0008,0.1992,-0.2405,-18.12,-35.87,3.13,284.73,-87.38,-169.71
3084,52.36133,-1.955779,219.57,27.71,4,77.64,23 / 23,622408,2020-01-08 16:31:37:384,-0.5182,0.0925,9.4482,0.0181,0.0234,9.8065,0.0041,0.2531,-0.1463,-18.31,-35.94,2.94,285.2,-87.26,-169.03
3085,52.36133,-1.955779,219.57,27.71,4,77.64,23 / 23,622507,2020-01-08 16:31:37:483,-0.891,-1.4167,8.9904,-0.0367,-0.0301,9.8065,0.1905,0.1734,-0.075,-18.19,-36.06,3.0,285.16,-87.24,-169.03
3086,52.36133,-1.955779,219.57,27.71,4,77.64,23 / 23,622607,2020-01-08 16:31:37:583,-1.2344,0.2942,9.9295,-0.0141,-0.008,9.8066,0.1153,0.0704,-0.0803,-18.19,-36.25,3.25,287.73,-87.46,-166.95
3087,52.36133,-1.955779,219.57,27.71,4,77.64,23 / 23,622707,2020-01-08 16:31:37:683,-0.291,-1.7263,9.8876,-0.0109,-0.0252,9.8065,0.0449,-0.153,0.0685,-18.12,-36.0,3.38,289.78,-87.45,-164.93
3088,52.36133,-1.955779,219.57,27.71,4,77.64,23 / 23,622808,2020-01-08 16:31:37:784,-1.7124,3.0066,10.0371,-0.0018,-0.0548,9.8064,0.0904,-0.2664,0.2275,-18.06,-35.62,2.88,293.51,-87.44,-161.29
3089,52.36133,-1.955779,219.57,27.71,4,77.64,23 / 23,622907,2020-01-08 16:31:37:883,0.4944,-1.5116,8.8528,-0.0178,-0.014,9.8066,-0.1206,-0.3302,0.2137,-18.06,-35.75,3.38,292.08,-87.49,-162.78
3090,52.36133,-1.955779,219.57,27.71,4,77.64,23 / 23,623008,2020-01-08 16:31:37:984,0.4451,2.196,9.7209,-0.0052,-0.0308,9.8066,-0.0411,-0.1707,0.1444,-17.69,-36.0,3.31,292.6,-87.45,-162.19
3091,52.36133,-1.955779,219.57,27.71,4,77.64,23 / 23,623108,2020-01-08 16:31:38:084,-0.4543,0.2604,10.5109,0.0119,0.0063,9.8066,0.0789,-0.1867,0.0772,-18.44,-35.62,2.81,288.35,-87.37,-166.16
3092,52.36133,-1.955779,219.57,27.71,4,77.64,23 / 23,623208,2020-01-08 16:31:38:184,-0.5315,-0.731,10.2274,0.0101,-0.0217,9.8066,0.0128,-0.0477,0.0183,-19.31,-35.94,3.19,291.32,-87.25,-162.82
3093,52.36133,-1.955779,219.57,27.71,4,77.64,23 / 23,623307,2020-01-08 16:31:38:283,-0.0219,0.1755,10.6397,-0.0333,0.0332,9.8064,-0.0743,0.1076,-0.0315,-18.37,-35.12,3.69,299.12,-87.0,-158.4
3094,52.36133,-1.955779,219.57,27.71,4,77.64,23 / 23,623408,2020-01-08 16:31:38:384,1.0675,0.1581,10.9505,-0.0093,-0.0142,9.8066,-0.2107,-0.0005,0.0665,-19.0,-35.25,3.38,297.89,-87.1,-156.38
3095,52.36133,-1.955779,219.57,27.71,4,77.64,23 / 23,623508,2020-01-08 16:31:38:484,-1.196,-0.0076,8.7051,-0.0268,0.0043,9.8066,-0.2163,-0.0315,0.0265,-18.25,-36.25,3.44,296.06,-87.21,-158.42
3096,52.36133,-1.955779,219.57,27.71,4,77.64,23 / 23,623608,2020-01-08 16:31:38:584,0.6883,0.8826,9.0822,-0.0141,-0.002,9.8066,-0.2474,0.0571,0.1098,-18.44,-35.81,3.25,291.86,-87.02,-162.11
3097,52.36133,-1.955779,219.57,27.71,4,77.64,23 / 23,623708,2020-01-08 16:31:38:684,-1.426,2.1875,7.7614,-0.0578,-0.0125,9.8064,-0.2851,0.1307,0.0169,-18.5,-35.81,2.88,290.01,-86.99,-163.83
3098,52.36133,-1.955779,219.57,27.71,4,77.64,23 / 23,623808,2020-01-08 16:31:38:784,-0.9551,0.8409,9.8226,-0.0445,0.0192,9.8065,-0.0887,0.2349,0.021,-18.62,-35.25,3.44,294.65,-87.31,-159.84
3099,52.36133,-1.955779,219.57,27.71,4,77.64,23 / 24,623908,2020-01-08 16:31:38:884,-1.0765,0.6046,8.1513,0.0266,-0.0326,9.8065,0.0184,-0.1753,0.0485,-18.69,-36.5,3.44,299.17,-87.28,-155.32
3100,52.36133,-1.955779,219.57,27.71,4,77.64,23 / 24,624007,2020-01-08 16:31:38:983,0.1578,0.3575,9.1014,0.0128,-0.0063,9.8066,0.0609,-0.2219,0.0988,-19.0,-36.31,3.38,299.97,-87.03,-154.15
3101,52.36133,-1.955779,219.57,27.71,4,77.64,23 / 24,624108,2020-01-08 16:31:39:084,0.884,-3.17,10.0293,0.0232,-0.023,9.8065,-0.0064,-0.2154,0.1604,-18.5,-36.12,2.88,297.98,-86.86,-155.96
3102,52.36133,-1.955779,219.57,27.71,4,77.64,23 / 24,624208,2020-01-08 16:31:39:184,0.7756,-0.5838,10.7447,-0.0103,-0.027,9.8066,0.0423,-0.496,0.2439,-18.44,-36.44,3.56,299.43,-86.96,-157.88
3103,52.36133,-1.955779,219.57,27.71,4,77.64,23 / 24,624308,2020-01-08 16:31:39:284,-1.1764,-6.1194,10.2414,0.0162,-0.0337,9.8065,0.1428,-0.524,0.16,-18.56,-36.37,4.5,300.9,-87.12,-159.28
3104,52.36133,-1.955779,219.57,27.71,4,77.64,23 / 24,624408,2020-01-08 16:31:39:384,0.8637,0.0551,9.4044,0.0544,-0.0853,9.8061,-0.1209,-0.1025,0.1801,-18.87,-36.25,3.75,301.58,-86.83,-155.25
3105,52.36133,-1.955779,219.57,27.71,4,77.64,23 / 24,624508,2020-01-08 16:31:39:484,1.6934,-2.0376,12.9684,-0.1158,-0.0338,9.8059,-0.5214,-0.2491,0.2369,-19.0,-35.87,3.69,295.04,-86.83,-161.48
3106,52.36133,-1.955779,219.57,27.71,4,77.64,23 / 24,624608,2020-01-08 16:31:39:584,1.7712,3.899,12.1022,-0.0443,-0.0688,9.8063,-0.5472,-0.5068,0.3878,-18.69,-36.31,4.31,301.18,-86.99,-155.9
3107,52.36133,-1.955779,219.57,27.71,4,77.64,23 / 24,624707,2020-01-08 16:31:39:683,-5.0237,-6.4465,6.3645,-0.151,-0.0957,9.805,-0.4186,-0.5144,0.4065,-18.75,-36.44,4.31,312.15,-87.29,-145.97
3108,52.36133,-1.955779,219.57,27.71,4,77.64,23 / 24,624808,2020-01-08 16:31:39:784,2.6114,4.7568,11.2867,-0.107,-0.1251,9.8052,-0.032,-0.0365,0.0146,-18.69,-36.0,3.81,310.26,-87.14,-147.55
3109,52.36133,-1.955779,219.57,27.71,4,77.64,23 / 23,624908,2020-01-08 16:31:39:884,-4.6511,-6.273,8.4708,0.0015,-0.0035,9.8066,0.1112,0.128,-0.1625,-18.56,-36.25,4.25,301.51,-87.04,-155.66
3110,52.36178,-1.951969,217.47,29.0,4,81.03,23 / 23,625008,2020-01-08 16:31:39:984,0.0008,0.4743,11.1972,-0.0094,-0.0242,9.8066,-0.0063,0.2354,-0.234,-18.37,-36.56,3.38,289.1,-86.99,-164.56
3111,52.36178,-1.951969,217.47,29.0,4,81.03,23 / 23,625108,2020-01-08 16:31:40:084,-1.6799,-6.3899,10.0636,0.0462,0.0981,9.806,-0.0036,0.3493,-0.2421,-18.69,-36.62,4.75,295.72,-87.01,-163.91
3112,52.36178,-1.951969,217.47,29.0,4,81.03,23 / 23,625208,2020-01-08 16:31:40:184,0.7605,1.3518,10.8911,0.0238,-0.0304,9.8065,0.0488,0.5112,-0.3283,-18.31,-36.5,4.13,299.64,-87.06,-157.86
3113,52.36178,-1.951969,217.47,29.0,4,81.03,23 / 23,625308,2020-01-08 16:31:40:284,1.0262,5.5172,7.6074,0.0747,0.0283,9.8062,0.1678,0.7501,-0.352,-19.12,-36.75,4.13,295.29,-86.71,-160.88
3114,52.36178,-1.951969,217.47,29.0,4,81.03,23 / 23,625408,2020-01-08 16:31:40:384,3.8923,-0.6875,13.0335,-0.0168,-0.1506,9.8055,0.4638,0.1705,-0.4411,-18.56,-35.94,4.13,304.06,-86.55,-152.48
3115,52.36178,-1.951969,217.47,29.0,4,81.03,23 / 23,625508,2020-01-08 16:31:40:484,0.6356,7.1833,7.6755,0.0728,-0.0825,9.806,0.4562,-0.0959,-0.0526,-18.56,-36.75,4.19,296.75,-86.49,-159.1
3116,52.36178,-1.951969,217.47,29.0,4,81.03,23 / 23,625608,2020-01-08 16:31:40:584,-3.6202,-1.1189,6.148,-0.1236,-0.0114,9.8058,0.3626,-0.8702,0.4591,-18.56,-36.87,3.88,292.15,-86.56,-163.61
3117,52.36178,-1.951969,217.47,29.0,4,81.03,23 / 23,625708,2020-01-08 16:31:40:684,2.6435,6.6997,9.7951,-0.0643,-0.1043,9.8058,0.0748,-0.9639,0.5423,-18.62,-36.87,4.56,305.19,-86.83,-154.63
3118,52.36178,-1.951969,217.47,29.0,4,81.03,23 / 23,625808,2020-01-08 16:31:40:784,-2.3412,-0.5863,8.2298,-0.0659,0.0877,9.806,-0.0881,-0.4951,0.481,-18.56,-36.5,4.56,303.42,-86.55,-155.99
3119,52.36178,-1.951969,217.47,29.0,4,81.03,23 / 24,625907,2020-01-08 16:31:40:883,-1.048,-5.8427,10.9075,-0.0644,-0.0218,9.8063,-0.1428,-0.5522,0.2914,-18.19,-36.06,4.88,303.04,-86.86,-157.36
3120,52.36178,-1.951969,217.47,29.0,4,81.03,23 / 24,626007,2020-01-08 16:31:40:983,-1.8166,-2.3682,7.3289,-0.0005,0.0992,9.8061,-0.2957,-0.0613,0.0262,-18.69,-36.44,5.0,294.83,-86.92,-164.76
3121,52.36178,-1.951969,217.47,29.0,4,81.03,23 / 24,626108,2020-01-08 16:31:41:084,-0.3722,-3.8219,11.2858,-0.0942,0.0332,9.8061,-0.3424,0.0021,0.0616,-18.37,-36.62,4.5,306.0,-87.17,-154.95
3122,52.36178,-1.951969,217.47,29.0,4,81.03,23 / 24,626208,2020-01-08 16:31:41:184,0.9976,3.1054,10.5139,0.0364,0.0517,9.8064,-0.1698,0.1987,-0.0785,-18.0,-36.94,4.44,304.53,-87.11,-153.19
3123,52.36178,-1.951969,217.47,29.0,4,81.03,23 / 24,626308,2020-01-08 16:31:41:284,0.5869,-2.0501,12.0487,-0.007,0.0453,9.8065,-0.1309,0.3396,-0.2204,-17.81,-36.25,4.19,297.91,-87.1,-159.57
3124,52.36178,-1.951969,217.47,29.0,4,81.03,23 / 24,626408,2020-01-08 16:31:41:384,-1.0578,3.1271,10.4043,0.0754,0.0444,9.8062,0.0135,0.2774,-0.3326,-18.06,-36.75,4.19,300.76,-87.13,-156.78
3125,52.36178,-1.951969,217.47,29.0,4,81.03,23 / 24,626508,2020-01-08 16:31:41:484,1.2916,-0.5569,9.6477,0.0075,0.0553,9.8065,0.0032,0.348,-0.2082,-19.06,-36.56,4.44,291.11,-86.95,-165.31
3126,52.36178,-1.951969,217.47,29.0,4,81.03,23 / 24,626608,2020-01-08 16:31:41:584,-1.6893,5.7548,10.0615,-0.0961,-0.0365,9.8061,-0.2338,0.3559,-0.0961,-18.0,-36.62,4.88,300.75,-87.34,-160.22
3127,52.36178,-1.951969,217.47,29.0,4,81.03,23 / 24,626708,2020-01-08 16:31:41:684,-1.2884,-3.3593,9.9605,-0.0511,0.0461,9.8063,0.1142,0.5093,-0.0004,-18.12,-36.62,5.44,290.88,-87.19,-169.41
3128,52.36178,-1.951969,217.47,29.0,4,81.03,23 / 24,626808,2020-01-08 16:31:41:784,-1.9255,-9.4009,10.1455,-0.0135,-0.1801,9.805,0.12,-0.0077,0.0171,-18.5,-36.56,5.0,284.44,-87.01,-175.33
3129,52.36178,-1.951969,217.47,29.0,4,81.03,23 / 24,626908,2020-01-08 16:31:41:884,-2.3087,-7.5356,8.752,0.033,0.0503,9.8064,0.244,-0.5844,0.2818,-18.75,-35.69,5.06,291.58,-86.89,-167.82
3130,52.36178,-1.951969,217.47,29.0,4,81.03,23 / 24,627008,2020-01-08 16:31:41:984,-1.2025,-4.5638,12.0577,-0.0179,-0.1532,9.8053,0.2003,-0.7464,0.4192,-18.31,-36.06,4.75,288.86,-87.02,-171.19
3131,52.36178,-1.951969,217.47,29.0,4,81.03,23 / 24,627108,2020-01-08 16:31:42:084,0.359,6.6048,10.01,0.0475,-0.0327,9.8064,0.0681,-0.7023,0.3795,-18.44,-36.25,4.13,292.16,-86.82,-164.57
3132,52.36178,-1.951969,217.47,29.0,4,81.03,23 / 24,627208,2020-01-08 16:31:42:184,1.2752,-0.5077,10.7965,-0.0143,-0.0765,9.8063,-0.0022,-0.4843,0.3412,-17.81,-35.94,4.69,299.68,-86.9,-160.6
3133,52.36178,-1.951969,217.47,29.0,4,81.03,23 / 24,627307,2020-01-08 16:31:42:283,1.0336,2.79,9.2221,0.0088,-0.0315,9.8066,-0.0003,-0.3037,0.1979,-18.25,-36.56,4.81,295.36,-86.91,-164.6
3134,52.36178,-1.951969,217.47,29.0,4,81.03,23 / 24,627408,2020-01-08 16:31:42:384,-0.3269,-1.2712,9.2033,-0.0177,-0.0249,9.8066,-0.0748,-0.2101,0.1573,-18.25,-36.19,4.94,292.85,-86.91,-167.15
3135,52.36178,-1.951969,217.47,29.0,4,81.03,23 / 24,627508,2020-01-08 16:31:42:484,-1.9051,1.0525,8.3004,0.0075,-0.0242,9.8066,-0.0549,0.0786,0.0572,-18.5,-36.44,4.75,294.36,-86.89,-165.66
3136,52.36178,-1.951969,217.47,29.0,4,81.03,23 / 24,627608,2020-01-08 16:31:42:584,-1.3261,1.4345,10.676,-0.0106,-0.0076,9.8066,-0.0865,0.0501,0.0268,-18.37,-36.62,4.63,292.32,-86.92,-167.51
3137,52.36178,-1.951969,217.47,29.0,4,81.03,23 / 24,627708,2020-01-08 16:31:42:684,-0.4432,-0.2178,10.9777,0.0174,0.0055,9.8066,-0.2055,0.1108,0.0458,-18.5,-36.06,5.06,293.58,-86.83,-166.3
3138,52.36178,-1.951969,217.47,29.0,4,81.03,23 / 24,627808,2020-01-08 16:31:42:784,0.7382,1.275,10.74,-0.0379,0.0035,9.8065,-0.2365,0.1001,0.0047,-17.94,-36.25,4.38,292.46,-86.99,-164.59
3139,52.36178,-1.951969,217.47,29.0,4,81.03,23 / 23,627907,2020-01-08 16:31:42:883,0.7125,-1.9378,9.629,0.0016,0.027,9.8066,-0.2384,0.0301,0.0367,-18.56,-36.0,4.31,289.51,-86.8,-166.75
3140,52.36178,-1.951969,217.47,29.0,4,81.03,23 / 23,628008,2020-01-08 16:31:42:984,-1.1398,1.4161,8.9118,-0.0118,-0.0243,9.8066,-0.168,0.0877,0.0942,-17.81,-36.12,5.06,296.67,-86.88,-163.44
3141,52.36178,-1.951969,217.47,29.0,4,81.03,23 / 23,628108,2020-01-08 16:31:43:084,0.0391,-3.9477,8.6454,0.0441,0.0182,9.8065,-0.1673,-0.0241,0.1868,-18.62,-35.87,4.75,291.09,-86.85,-168.22
3142,52.36178,-1.951969,217.47,29.0,4,81.03,23 / 23,628208,2020-01-08 16:31:43:184,-0.4479,2.6507,7.4035,0.0067,-0.0826,9.8062,-0.0516,-0.1878,0.1016,-18.12,-36.37,4.5,296.78,-86.9,-163.36
3143,52.36178,-1.951969,217.47,29.0,4,81.03,23 / 23,628307,2020-01-08 16:31:43:283,-0.0659,-0.4005,9.5634,0.006,-0.0101,9.8066,0.0957,-0.1076,0.0831,-19.06,-35.87,4.31,294.55,-87.06,-162.35
3144,52.36178,-1.951969,217.47,29.0,4,81.03,23 / 23,628407,2020-01-08 16:31:43:383,0.1798,3.4724,9.7179,0.0185,-0.0484,9.8064,0.1351,-0.2804,0.145,-19.0,-35.44,4.63,300.06,-86.83,-159.74
3145,52.36178,-1.951969,217.47,29.0,4,81.03,23 / 23,628508,2020-01-08 16:31:43:484,-1.2746,-3.046,9.2751,-0.0103,0.0201,9.8065,-0.0353,-0.2112,0.2817,-19.12,-34.62,4.81,300.63,-86.76,-159.09
3146,52.36178,-1.951969,217.47,29.0,4,81.03,23 / 23,628608,2020-01-08 16:31:43:584,-0.4261,-0.6999,10.8466,-0.0352,-0.0601,9.8064,0.0125,-0.4017,0.2333,-18.81,-34.75,5.38,303.42,-86.86,-156.61
3147,52.36178,-1.951969,217.47,29.0,4,81.03,23 / 23,628708,2020-01-08 16:31:43:684,-3.1107,-3.9941,8.5503,0.0128,0.0417,9.8065,-0.218,-0.3684,0.3146,-18.75,-35.31,5.06,295.13,-86.92,-164.61
3148,52.36178,-1.951969,217.47,29.0,4,81.03,23 / 23,628807,2020-01-08 16:31:43:783,0.5695,2.6231,8.6449,-0.0549,-0.0407,9.8064,-0.4016,-0.6504,0.3704,-18.19,-35.69,5.5,301.85,-87.01,-161.72
3149,52.36178,-1.951969,217.47,29.0,4,81.03,23 / 24,628908,2020-01-08 16:31:43:884,0.4218,5.2253,8.973,0.0388,0.106,9.806,-0.0241,-0.8334,0.6398,-18.0,-35.69,4.69,305.52,-87.08,-155.38
3150,52.36178,-1.951969,217.47,29.0,4,81.03,23 / 24,629008,2020-01-08 16:31:43:984,0.8167,4.6899,9.3636,0.0024,-0.0472,9.8065,-0.0112,-0.6873,0.5447,-18.06,-35.62,5.25,306.07,-87.23,-155.1
3151,52.36178,-1.951969,217.47,29.0,4,81.03,23 / 24,629107,2020-01-08 16:31:44:083,0.0956,1.2786,9.7635,0.0406,0.101,9.806,-0.0393,-0.5266,0.2512,-18.44,-35.44,5.75,299.69,-87.38,-164.52
3152,52.36178,-1.951969,217.47,29.0,4,81.03,23 / 24,629208,2020-01-08 16:31:44:184,-3.1459,-7.5979,10.8836,0.024,0.028,9.8065,-0.0188,-0.4539,0.174,-18.19,-34.69,6.38,303.14,-87.09,-160.76
3153,52.36178,-1.951969,217.47,29.0,4,81.03,23 / 24,629308,2020-01-08 16:31:44:284,-2.2259,-1.3288,6.5849,0.1049,0.1149,9.8053,-0.3131,-0.0842,0.0467,-17.25,-32.06,8.88,317.18,-86.88,-157.14
3154,52.36178,-1.951969,217.47,29.0,4,81.03,23 / 24,629408,2020-01-08 16:31:44:384,-1.1411,-1.931,9.8313,-0.0875,0.0597,9.8061,-0.587,-0.226,0.1466,-16.69,-25.81,2.31,286.76,-87.14,-165.76
3155,52.36178,-1.951969,217.47,29.0,4,81.03,23 / 24,629508,2020-01-08 16:31:44:484,5.1055,9.3891,11.807,0.146,0.1554,9.8043,0.1299,-0.1221,0.0597,-17.62,-32.75,3.13,299.03,-86.92,-155.52
3156,52.36178,-1.951969,217.47,29.0,4,81.03,23 / 24,629607,2020-01-08 16:31:44:583,0.0407,2.3895,8.4258,0.0426,0.0365,9.8064,0.1147,0.4037,-0.2049,-18.5,-33.25,3.75,292.13,-86.65,-164.8
3157,52.36178,-1.951969,217.47,29.0,4,81.03,23 / 24,629708,2020-01-08 16:31:44:684,2.1963,7.6164,9.2851,0.0215,0.1121,9.806,0.0183,0.638,-0.3656,-18.19,-34.5,5.13,290.54,-86.93,-169.71
3158,52.36178,-1.951969,217.47,29.0,4,81.03,23 / 24,629808,2020-01-08 16:31:44:784,-1.799,-6.0475,9.6594,0.0268,0.1315,9.8057,0.0716,0.9462,-0.6733,-18.25,-33.87,5.31,289.12,-86.91,-171.05
3159,52.36178,-1.951969,217.47,29.0,4,81.03,22 / 23,629907,2020-01-08 16:31:44:883,3.1767,5.6929,10.7156,0.0122,0.0881,9.8062,0.0501,1.0522,-0.6407,-18.12,-34.19,5.19,296.82,-86.87,-163.58
3160,52.36178,-1.951969,217.47,29.0,4,81.03,22 / 23,630008,2020-01-08 16:31:44:984,-3.5133,-8.3688,9.143,-0.011,-0.0248,9.8065,0.1527,0.9827,-0.6394,-17.87,-33.87,6.25,300.47,-87.01,-163.31
3161,52.36178,-1.951969,217.47,29.0,4,81.03,22 / 23,630107,2020-01-08 16:31:45:083,0.0706,-0.3633,10.1865,-0.0664,-0.1498,9.8052,0.067,0.7974,-0.5601,-17.5,-34.56,6.31,308.74,-86.99,-156.09
3162,52.36178,-1.951969,217.47,29.0,4,81.03,22 / 23,630207,2020-01-08 16:31:45:183,-4.0491,-7.3075,10.9779,-0.0256,0.0451,9.8065,0.0599,0.327,-0.2594,-17.5,-34.62,6.81,305.82,-86.92,-161.75
3163,52.36178,-1.951969,217.47,29.0,4,81.03,22 / 23,630308,2020-01-08 16:31:45:284,0.6495,1.5279,9.9766,-0.0117,-0.0743,9.8064,0.0334,-0.0085,-0.0047,-16.81,-37.31,5.19,300.16,-86.99,-160.75
3164,52.36178,-1.951969,217.47,29.0,4,81.03,22 / 23,630408,2020-01-08 16:31:45:384,1.1216,6.2883,9.1894,-0.0086,0.0994,9.8061,0.0561,-0.4511,0.2788,-16.94,-36.37,2.38,293.36,-87.01,-157.54
3165,52.36178,-1.951969,217.47,29.0,4,81.03,22 / 23,630508,2020-01-08 16:31:45:484,0.895,3.9308,10.8104,-0.0247,-0.0081,9.8065,0.1171,-0.6699,0.4126,-17.37,-32.37,2.31,291.27,-87.09,-160.33
3166,52.36178,-1.951969,217.47,29.0,4,81.03,22 / 23,630607,2020-01-08 16:31:45:583,1.2126,3.7093,8.0959,0.0168,0.108,9.806,0.1485,-0.7539,0.464,-18.31,-33.37,7.06,300.67,-87.18,-166.39
3167,52.36178,-1.951969,217.47,29.0,4,81.03,22 / 23,630708,2020-01-08 16:31:45:684,-1.6789,-6.4953,10.2919,-0.0273,0.0532,9.8064,0.049,-0.7942,0.4753,-19.12,-36.62,6.06,304.07,-87.27,-159.22
3168,52.36178,-1.951969,217.47,29.0,4,81.03,22 / 23,630808,2020-01-08 16:31:45:784,0.886,1.6999,8.6542,0.0401,0.0883,9.8062,-0.067,-0.6475,0.4062,-19.19,-35.87,5.56,308.84,-87.06,-154.51
3169,52.36178,-1.951969,217.47,29.0,4,81.03,21 / 21,630908,2020-01-08 16:31:45:884,-2.118,-5.938,10.3647,0.0006,0.0852,9.8062,-0.0253,-0.589,0.3032,-18.44,-34.56,6.19,299.59,-87.18,-164.28
3170,52.36178,-1.951969,217.47,29.0,4,81.03,21 / 21,631008,2020-01-08 16:31:45:984,1.2234,2.3914,9.5773,0.0077,0.0364,9.8065,-0.0192,-0.2173,0.1951,-18.31,-34.56,5.69,305.01,-87.14,-159.06
3171,52.36178,-1.951969,217.47,29.0,4,81.03,21 / 21,631108,2020-01-08 16:31:46:084,-2.6924,-6.0806,10.4268,-0.0061,0.0836,9.8063,0.0479,-0.0069,-0.0143,-18.56,-34.25,5.0,299.33,-87.36,-161.4
3172,52.36178,-1.951969,217.47,29.0,4,81.03,21 / 21,631208,2020-01-08 16:31:46:184,1.5472,2.6246,8.7224,-0.0037,-0.043,9.8065,-0.0397,0.4003,-0.2444,-18.44,-34.56,5.13,306.82,-87.21,-154.48
3173,52.36178,-1.951969,217.47,29.0,4,81.03,21 / 21,631308,2020-01-08 16:31:46:284,1.7357,4.9934,9.3334,-0.0733,0.0582,9.8062,-0.2109,0.6742,-0.3294,-18.75,-34.56,6.0,308.19,-87.53,-155.9
3174,52.36178,-1.951969,217.47,29.0,4,81.03,21 / 21,631408,2020-01-08 16:31:46:384,-0.1523,0.3513,8.854,0.0341,-0.0873,9.8062,-0.2277,0.7048,-0.2717,-18.94,-32.94,6.38,306.62,-87.57,-157.65
3175,52.36178,-1.951969,217.47,29.0,4,81.03,21 / 21,631508,2020-01-08 16:31:46:484,2.4069,6.0674,9.3538,0.0006,-0.0755,9.8063,-0.1412,0.6637,-0.2633,-18.5,-34.06,5.38,300.41,-87.38,-160.97
3176,52.36178,-1.951969,217.47,29.0,4,81.03,21 / 21,631608,2020-01-08 16:31:46:584,-1.6427,-4.7014,9.5103,-0.032,-0.0797,9.8063,-0.0533,0.1387,-0.1553,-18.5,-34.12,6.63,316.15,-87.13,-151.56
3177,52.36178,-1.951969,217.47,29.0,4,81.03,21 / 21,631708,2020-01-08 16:31:46:684,2.7691,3.7815,9.9253,-0.0327,-0.0844,9.8062,-0.0927,0.0506,-0.0163,-17.37,-32.56,5.44,310.27,-87.19,-152.09
3178,52.36178,-1.951969,217.47,29.0,4,81.03,21 / 21,631808,2020-01-08 16:31:46:784,-0.9842,-7.0554,9.8762,-0.0306,-0.0245,9.8066,0.0642,-0.4212,0.2712,-18.81,-34.25,4.63,304.66,-87.14,-155.97
3179,52.36178,-1.951969,217.47,29.0,4,81.03,22 / 22,631908,2020-01-08 16:31:46:884,-0.2869,-0.1478,10.3412,-0.0326,-0.0997,9.806,-0.028,-0.5349,0.3389,-18.44,-34.62,5.25,312.44,-87.18,-149.14
3180,52.36178,-1.951969,217.47,29.0,4,81.03,22 / 22,632008,2020-01-08 16:31:46:984,-2.3884,-6.7321,10.8561,-0.0016,0.0244,9.8066,0.0989,-0.7888,0.4136,-18.56,-34.81,6.13,308.24,-87.2,-155.39
3181,52.36178,-1.951969,217.47,29.0,4,81.03,22 / 22,632108,2020-01-08 16:31:47:084,0.3126,0.7096,9.8754,-0.0028,-0.0634,9.8064,0.0746,-0.9103,0.401,-18.56,-34.37,5.75,309.22,-87.15,-154.51
3182,52.36178,-1.951969,217.47,29.0,4,81.03,22 / 22,632207,2020-01-08 16:31:47:183,1.636,6.3715,9.2264,0.011,0.089,9.8062,0.0305,-0.6008,0.3079,-18.75,-34.19,6.25,302.09,-87.35,-161.57
3183,52.36178,-1.951969,217.47,29.0,4,81.03,22 / 22,632308,2020-01-08 16:31:47:284,1.8883,1.157,10.4921,-0.0082,0.0284,9.8066,-0.0279,-0.402,0.1948,-17.87,-32.5,5.81,309.52,-87.28,-155.35
3184,52.36178,-1.951969,217.47,29.0,4,81.03,22 / 22,632408,2020-01-08 16:31:47:384,0.7483,5.3981,8.1745,-0.0118,0.0995,9.806,-0.1333,0.1465,-0.0335,-18.12,-33.81,4.94,309.45,-87.11,-151.97
3185,52.36178,-1.951969,217.47,29.0,4,81.03,22 / 22,632507,2020-01-08 16:31:47:483,-0.6686,-2.9704,10.3298,-0.0224,0.0874,9.8062,-0.151,0.4391,-0.2266,-18.44,-34.37,6.13,303.93,-87.56,-160.85
3186,52.36178,-1.951969,217.47,29.0,4,81.03,22 / 22,632608,2020-01-08 16:31:47:584,2.0092,5.323,9.6116,-0.0084,0.0186,9.8066,-0.1007,0.7302,-0.3472,-18.06,-34.0,5.94,306.1,-87.44,-158.6
3187,52.36178,-1.951969,217.47,29.0,4,81.03,22 / 22,632708,2020-01-08 16:31:47:684,-1.2598,-2.6542,9.9435,0.0118,0.0755,9.8063,-0.0211,0.6972,-0.3899,-17.31,-31.75,7.13,302.62,-87.52,-166.09
3188,52.36178,-1.951969,217.47,29.0,4,81.03,22 / 22,632808,2020-01-08 16:31:47:784,-0.3614,-3.5351,10.028,-0.0114,-0.0683,9.8063,0.0218,0.5499,-0.2807,-16.37,-32.31,4.56,305.32,-87.34,-157.85
3189,52.36178,-1.951969,217.47,29.0,4,81.03,22 / 23,632908,2020-01-08 16:31:47:884,-1.0892,-3.5876,9.7576,0.004,0.0418,9.8065,0.065,0.0797,-0.1379,-18.0,-34.31,5.06,296.86,-87.52,-164.61
3190,52.36178,-1.951969,217.47,29.0,4,81.03,22 / 23,633008,2020-01-08 16:31:47:984,-0.6807,-2.8936,10.8643,0.001,-0.0834,9.8062,0.0484,-0.1112,0.0677,-18.37,-34.06,6.0,300.25,-87.57,-164.4
3191,52.36178,-1.951969,217.47,29.0,4,81.03,22 / 23,633108,2020-01-08 16:31:48:084,2.522,6.064,8.796,0.0233,-0.068,9.8063,0.2168,-0.6042,0.3571,-17.94,-34.06,6.38,305.76,-87.24,-158.63
3192,52.36178,-1.951969,217.47,29.0,4,81.03,22 / 23,633208,2020-01-08 16:31:48:184,-0.1905,-3.8612,10.6035,0.0209,-0.0863,9.8062,0.206,-0.6967,0.3412,-17.56,-33.56,7.13,307.63,-87.41,-159.98
3193,52.36178,-1.951969,217.47,29.0,4,81.03,22 / 23,633308,2020-01-08 16:31:48:284,1.1552,3.9333,8.191,0.0187,-0.0846,9.8063,0.1835,-0.605,0.1966,-16.94,-31.87,6.38,314.32,-87.02,-151.3
3194,52.36178,-1.951969,217.47,29.0,4,81.03,22 / 23,633408,2020-01-08 16:31:48:384,0.9364,1.9025,9.0222,-0.0021,0.0416,9.8065,0.0938,-0.4286,0.1978,-17.81,-33.81,4.5,308.25,-87.18,-153.2
3195,52.36178,-1.951969,217.47,29.0,4,81.03,22 / 23,633508,2020-01-08 16:31:48:484,-0.2427,-6.4248,10.2585,-0.0074,-0.063,9.8064,0.0911,0.0135,0.0033,-18.44,-34.0,5.5,316.48,-87.05,-148.27
3196,52.36178,-1.951969,217.47,29.0,4,81.03,22 / 23,633608,2020-01-08 16:31:48:584,-0.6641,-3.8797,10.2086,0.0159,0.0914,9.8062,-0.0099,0.3216,-0.2127,-18.12,-35.0,5.5,318.77,-87.04,-146.02
3197,52.36178,-1.951969,217.47,29.0,4,81.03,22 / 23,633708,2020-01-08 16:31:48:684,-0.5935,-4.9452,11.3977,-0.0265,0.0311,9.8065,-0.2296,0.7498,-0.3773,-17.87,-34.87,5.81,315.48,-87.19,-149.28
3198,52.36178,-1.951969,217.47,29.0,4,81.03,22 / 23,633808,2020-01-08 16:31:48:784,0.1454,5.4414,7.984,-0.0261,0.0809,9.8062,-0.1622,0.7163,-0.3977,-18.87,-33.31,6.81,319.38,-86.86,-147.47
3199,52.36178,-1.951969,217.47,29.0,4,81.03,22 / 22,633908,2020-01-08 16:31:48:884,-1.5403,-5.5885,11.2601,-0.0206,0.0678,9.8064,-0.4741,0.3504,-0.0123,-17.87,-30.56,6.44,313.82,-86.99,-151.03
3200,52.361965,-1.948389,214.35,26.23,4,87.23,22 / 22,634008,2020-01-08 16:31:48:984,-2.1875,2.4786,8.1183,-0.0364,-0.0327,9.8065,-0.2162,-0.0568,0.0736,-19.0,-34.5,5.25,314.68,-86.9,-146.2
3201,52.361965,-1.948389,214.35,26.23,4,87.23,22 / 22,634108,2020-01-08 16:31:49:084,2.0729,-0.2809,10.2403,-0.0408,0.0465,9.8064,-0.1336,-0.5438,0.3244,-19.31,-34.56,7.13,314.54,-87.05,-152.01
3202,52.361965,-1.948389,214.35,26.23,4,87.23,22 / 22,634207,2020-01-08 16:31:49:183,-2.9588,-5.464,9.9551,-0.0374,-0.0925,9.8061,-0.0556,-0.6092,0.4525,-18.94,-35.5,7.56,311.77,-86.98,-157.2
3203,52.361965,-1.948389,214.35,26.23,4,87.23,22 / 22,634308,2020-01-08 16:31:49:284,-0.5322,-2.776,10.0563,-0.0054,-0.0102,9.8066,-0.0007,-0.7617,0.4871,-18.0,-36.81,7.56,316.85,-86.89,-153.07
3204,52.361965,-1.948389,214.35,26.23,4,87.23,22 / 22,634407,2020-01-08 16:31:49:383,-2.4166,-4.5649,9.7682,-0.0387,-0.0993,9.806,0.0022,-0.7396,0.4395,-17.69,-38.37,7.44,311.95,-86.94,-154.77
3205,52.361965,-1.948389,214.35,26.23,4,87.23,22 / 22,634508,2020-01-08 16:31:49:484,-0.308,0.664,9.1917,-0.023,-0.0651,9.8063,0.0695,-0.5726,0.2751,-15.75,-38.0,5.06,316.5,-86.73,-145.7
3206,52.361965,-1.948389,214.35,26.23,4,87.23,22 / 22,634608,2020-01-08 16:31:49:584,-2.1594,-3.8703,9.7708,0.0151,-0.0565,9.8064,0.0801,-0.3945,0.1883,-15.94,-36.25,3.94,314.41,-86.65,-144.34
3207,52.361965,-1.948389,214.35,26.23,4,87.23,22 / 22,634708,2020-01-08 16:31:49:684,0.9901,5.6677,9.6315,-0.0011,-0.094,9.8061,0.1407,0.0631,-0.1303,-16.12,-35.19,3.75,316.33,-86.71,-142.83
3208,52.361965,-1.948389,214.35,26.23,4,87.23,22 / 22,634808,2020-01-08 16:31:49:784,1.4931,0.9559,10.0364,0.0179,0.0092,9.8065,0.0668,0.3096,-0.2056,-16.87,-35.0,2.88,309.18,-86.84,-145.82
3209,52.361965,-1.948389,214.35,26.23,4,87.23,21 / 22,634908,2020-01-08 16:31:49:884,0.4422,4.9848,9.02,-0.0049,-0.0625,9.8064,-0.1318,0.5803,-0.3434,-17.5,-34.44,3.38,309.32,-86.63,-145.5
3210,52.361965,-1.948389,214.35,26.23,4,87.23,21 / 22,635008,2020-01-08 16:31:49:984,0.0748,-0.6026,9.3523,-0.0344,0.0595,9.8064,-0.1668,0.4942,-0.3971,-19.12,-34.31,5.06,312.87,-86.86,-147.84
3211,52.361965,-1.948389,214.35,26.23,4,87.23,21 / 22,635108,2020-01-08 16:31:50:084,0.179,-4.2117,11.0354,-0.0127,-0.0195,9.8066,-0.1306,0.4577,-0.0745,-19.56,-34.44,5.69,315.5,-86.64,-147.31
3212,52.361965,-1.948389,214.35,26.23,4,87.23,21 / 22,635208,2020-01-08 16:31:50:184,-0.3537,1.7718,9.614,-0.0479,0.064,9.8063,-0.1363,0.1551,-0.0173,-18.62,-35.37,6.5,317.27,-86.49,-148.78
3213,52.361965,-1.948389,214.35,26.23,4,87.23,21 / 22,635307,2020-01-08 16:31:50:283,0.5298,-3.1914,11.5989,-0.0275,0.056,9.8064,-0.0223,-0.3479,0.0825,-18.56,-34.37,7.13,316.38,-86.82,-150.11
3214,52.361965,-1.948389,214.35,26.23,4,87.23,21 / 22,635407,2020-01-08 16:31:50:383,-1.2979,-1.4013,8.6344,-0.0441,-0.021,9.8064,0.0361,-0.4602,0.195,-18.62,-34.94,6.5,314.34,-86.68,-151.72
3215,52.361965,-1.948389,214.35,26.23,4,87.23,21 / 22,635508,2020-01-08 16:31:50:484,-0.8504,-3.7347,10.2671,-0.0367,0.0229,9.8065,0.0872,-0.5093,0.2781,-18.37,-34.56,7.0,317.08,-86.74,-150.1
3216,52.361965,-1.948389,214.35,26.23,4,87.23,21 / 22,635607,2020-01-08 16:31:50:583,-0.9926,-1.2059,9.7803,-0.0311,-0.0671,9.8063,0.0454,-0.471,0.2535,-18.75,-34.19,6.63,321.63,-86.43,-144.82
3217,52.361965,-1.948389,214.35,26.23,4,87.23,21 / 22,635707,2020-01-08 16:31:50:683,2.745,2.6574,9.5627,0.0156,-0.0141,9.8065,-0.1112,-0.1526,0.0541,-18.69,-34.62,6.69,318.25,-86.35,-147.71
3218,52.361965,-1.948389,214.35,26.23,4,87.23,21 / 22,635808,2020-01-08 16:31:50:784,-0.6188,0.148,10.4078,-0.0354,-0.0484,9.8065,-0.1316,-0.0607,-0.0298,-18.94,-34.56,6.94,316.12,-86.37,-149.69
3219,52.361965,-1.948389,214.35,26.23,4,87.23,23 / 23,635907,2020-01-08 16:31:50:883,-0.2203,2.7258,8.9462,0.0073,-0.0225,9.8066,-0.1813,0.2735,-0.0424,-19.06,-34.5,7.06,319.39,-86.49,-146.95
3220,52.361965,-1.948389,214.35,26.23,4,87.23,23 / 23,636008,2020-01-08 16:31:50:984,-0.3424,-0.4589,9.7037,-0.0155,0.0044,9.8066,-0.1065,0.2914,-0.1312,-18.69,-34.81,7.5,323.19,-86.67,-146.21
3221,52.361965,-1.948389,214.35,26.23,4,87.23,23 / 23,636108,2020-01-08 16:31:51:084,-1.1403,2.0162,8.3538,0.0112,-0.049,9.8065,-0.0783,0.1943,-0.1923,-19.19,-34.19,6.19,318.27,-86.54,-145.27
3222,52.361965,-1.948389,214.35,26.23,4,87.23,23 / 23,636207,2020-01-08 16:31:51:183,-0.2426,0.6879,10.2326,-0.024,0.0008,9.8065,-0.1208,-0.0264,0.0808,-18.87,-34.0,6.56,319.51,-86.66,-147.02
3223,52.361965,-1.948389,214.35,26.23,4,87.23,23 / 23,636308,2020-01-08 16:31:51:284,0.3278,-1.2625,10.9377,0.0079,0.0188,9.8066,-0.0243,-0.1154,0.1025,-19.37,-34.44,6.69,319.33,-86.74,-147.28
3224,52.361965,-1.948389,214.35,26.23,4,87.23,23 / 23,636408,2020-01-08 16:31:51:384,0.116,0.8187,9.3799,-0.0106,0.0095,9.8066,-0.1071,-0.0778,0.0312,-19.12,-34.06,6.88,319.39,-86.67,-147.14
3225,52.361965,-1.948389,214.35,26.23,4,87.23,23 / 23,636508,2020-01-08 16:31:51:484,-2.0275,0.1442,9.4799,0.017,0.0,9.8066,-0.0582,-0.0635,-0.0369,-18.81,-34.12,6.81,320.61,-86.83,-146.19
3226,52.361965,-1.948389,214.35,26.23,4,87.23,23 / 23,636607,2020-01-08 16:31:51:583,-0.0785,-0.5501,11.4285,0.031,-0.0083,9.8066,-0.0768,0.0459,0.1145,-18.44,-34.44,6.81,321.71,-87.12,-146.37
3227,52.361965,-1.948389,214.35,26.23,4,87.23,23 / 23,636708,2020-01-08 16:31:51:684,1.6993,1.863,11.1401,0.018,0.0076,9.8066,-0.0998,0.1198,0.0974,-18.06,-34.44,6.69,320.31,-87.04,-147.58
3228,52.361965,-1.948389,214.35,26.23,4,87.23,23 / 23,636808,2020-01-08 16:31:51:784,0.8676,-0.0345,10.1431,0.0658,0.0331,9.8064,-0.1468,-0.1422,0.0686,-18.31,-34.31,6.69,323.61,-87.01,-144.48
3229,52.361965,-1.948389,214.35,26.23,4,87.23,23 / 24,636908,2020-01-08 16:31:51:884,-2.2947,-2.0718,8.686,0.0051,-0.0076,9.8066,-0.1445,-0.0885,0.1324,-18.37,-34.37,7.06,320.47,-86.98,-147.36
3230,52.361965,-1.948389,214.35,26.23,4,87.23,23 / 24,637008,2020-01-08 16:31:51:984,-0.3758,-2.7493,8.535,0.0528,0.0619,9.8062,0.0009,-0.1714,0.2352,-18.94,-33.94,6.5,314.27,-86.95,-152.25
3231,52.361965,-1.948389,214.35,26.23,4,87.23,23 / 24,637108,2020-01-08 16:31:52:084,0.4292,-0.5009,10.4981,-0.0499,-0.0082,9.8065,0.013,-0.2246,0.1263,-19.12,-34.75,7.13,324.22,-86.96,-142.89
3232,52.361965,-1.948389,214.35,26.23,4,87.23,23 / 24,637208,2020-01-08 16:31:52:184,1.041,2.7792,9.4145,0.0028,0.0413,9.8065,0.1038,-0.402,0.1273,-18.44,-34.25,6.44,321.47,-86.98,-143.56
3233,52.361965,-1.948389,214.35,26.23,4,87.23,23 / 24,637308,2020-01-08 16:31:52:284,0.8512,-1.1693,11.1102,-0.0459,0.0493,9.8064,0.1899,-0.37,0.1979,-18.87,-34.25,7.0,321.32,-87.31,-146.06
3234,52.361965,-1.948389,214.35,26.23,4,87.23,23 / 24,637407,2020-01-08 16:31:52:383,0.2484,1.3989,8.6849,-0.0121,0.0156,9.8066,0.0315,-0.0363,0.0134,-18.69,-34.94,6.25,316.75,-87.12,-147.27
3235,52.361965,-1.948389,214.35,26.23,4,87.23,23 / 24,637508,2020-01-08 16:31:52:484,0.245,1.2715,9.1255,-0.0387,0.0141,9.8065,-0.0798,0.0681,-0.0625,-18.25,-34.75,7.19,322.57,-87.33,-145.7
3236,52.361965,-1.948389,214.35,26.23,4,87.23,23 / 24,637607,2020-01-08 16:31:52:583,-0.1714,0.1945,8.6892,0.0219,-0.0233,9.8065,-0.0686,0.1726,0.0035,-18.87,-34.56,7.19,320.3,-87.13,-146.72
3237,52.361965,-1.948389,214.35,26.23,4,87.23,23 / 24,637708,2020-01-08 16:31:52:684,0.3937,2.0427,9.5323,-0.0212,-0.0144,9.8065,-0.0725,0.1072,0.0388,-18.75,-34.62,6.75,323.23,-87.15,-144.01
3238,52.361965,-1.948389,214.35,26.23,4,87.23,23 / 24,637808,2020-01-08 16:31:52:784,-0.2373,-0.7227,10.7895,0.0184,-0.0146,9.8065,-0.1081,0.0015,-0.0455,-19.19,-35.0,7.19,322.83,-87.19,-144.42
3239,52.361965,-1.948389,214.35,26.23,4,87.23,23 / 23,637908,2020-01-08 16:31:52:884,0.2791,1.4969,10.227,0.0023,-0.02,9.8066,-0.0068,-0.2133,-0.0015,-18.94,-34.44,7.19,320.45,-87.09,-146.62
3240,52.361965,-1.948389,214.35,26.23,4,87.23,23 / 23,638007,2020-01-08 16:31:52:983,-0.0726,0.844,8.9407,-0.0015,0.0365,9.8066,0.0038,-0.1679,0.2002,-18.56,-34.62,6.75,321.39,-87.05,-145.62
3241,52.361965,-1.948389,214.35,26.23,4,87.23,23 / 23,638108,2020-01-08 16:31:53:084,0.2795,-0.5603,10.9823,-0.0199,-0.0051,9.8066,0.1079,-0.0512,0.0971,-18.25,-35.06,7.38,322.71,-87.12,-145.34
3242,52.361965,-1.948389,214.35,26.23,4,87.23,23 / 23,638208,2020-01-08 16:31:53:184,-0.1645,1.4676,10.0254,-0.0173,-0.0088,9.8066,0.0417,0.0443,-0.1248,-18.62,-34.5,6.69,320.96,-87.19,-146.26
3243,52.361965,-1.948389,214.35,26.23,4,87.23,23 / 23,638308,2020-01-08 16:31:53:284,0.3926,-0.5618,10.3904,-0.0107,0.0261,9.8066,0.0384,0.0959,-0.1104,-18.94,-35.31,6.75,317.91,-87.25,-149.09
3244,52.361965,-1.948389,214.35,26.23,4,87.23,23 / 23,638408,2020-01-08 16:31:53:384,-0.571,-0.181,9.7501,-0.0104,-0.0065,9.8066,0.0572,0.0426,-0.0427,-18.81,-34.75,7.5,320.94,-87.2,-148.86
3245,52.361965,-1.948389,214.35,26.23,4,87.23,23 / 23,638508,2020-01-08 16:31:53:484,-1.5301,1.3291,9.2391,0.022,-0.0111,9.8066,0.0352,-0.0623,-0.0127,-18.5,-34.69,6.5,319.53,-87.16,-148.35
3246,52.361965,-1.948389,214.35,26.23,4,87.23,23 / 23,638608,2020-01-08 16:31:53:584,1.2658,0.7266,10.7933,0.0187,-0.0009,9.8066,0.0766,-0.0195,-0.0432,-18.37,-34.94,7.06,320.4,-87.2,-147.59
3247,52.361965,-1.948389,214.35,26.23,4,87.23,23 / 23,638708,2020-01-08 16:31:53:684,0.8465,-1.136,10.6985,0.0285,0.0176,9.8065,0.0888,-0.0288,-0.0868,-18.31,-34.87,7.19,316.23,-87.09,-151.34
3248,52.361965,-1.948389,214.35,26.23,4,87.23,23 / 23,638808,2020-01-08 16:31:53:784,-0.1206,0.6638,10.3908,-0.0197,0.0303,9.8066,0.0838,0.0554,0.0665,-18.62,-33.87,6.94,317.26,-87.18,-149.71
3249,52.361965,-1.948389,214.35,26.23,4,87.23,23 / 23,638908,2020-01-08 16:31:53:884,-0.6565,-0.5781,10.1577,-0.0079,0.0006,9.8066,-0.0022,0.0708,0.0075,-18.12,-34.62,7.44,319.49,-87.08,-148.29
3250,52.361965,-1.948389,214.35,26.23,4,87.23,22 / 22,639008,2020-01-08 16:31:53:984,-0.6186,-1.1729,10.1772,-0.0087,-0.0254,9.8066,-0.0101,0.1607,-0.1245,-18.94,-34.87,6.31,315.26,-87.09,-148.62
3251,52.361965,-1.948389,214.35,26.23,4,87.23,22 / 22,639107,2020-01-08 16:31:54:083,-0.3372,-0.739,10.8486,0.0093,0.0132,9.8066,-0.0149,0.1314,-0.1127,-18.5,-34.94,6.94,321.07,-87.13,-146.88
3252,52.361965,-1.948389,214.35,26.23,4,87.23,22 / 22,639208,2020-01-08 16:31:54:184,0.4753,-2.389,11.6538,0.0679,-0.0126,9.8064,0.0774,-0.2815,0.0523,-18.56,-34.0,6.75,315.61,-86.92,-150.96
3253,52.361965,-1.948389,214.35,26.23,4,87.23,22 / 22,639308,2020-01-08 16:31:54:284,0.5109,-0.7223,9.0252,0.0361,-0.0289,9.8065,0.0811,-0.2776,0.1419,-18.31,-34.31,7.44,318.67,-86.99,-149.04
3254,52.361965,-1.948389,214.35,26.23,4,87.23,22 / 22,639408,2020-01-08 16:31:54:384,0.9292,-1.5477,11.7373,0.0402,-0.0045,9.8066,0.376,-0.1221,0.0584,-18.81,-34.69,6.88,317.98,-87.15,-148.91
3255,52.361965,-1.948389,214.35,26.23,4,87.23,22 / 22,639508,2020-01-08 16:31:54:484,-0.9236,-1.99,9.7955,0.0316,0.017,9.8066,0.0061,0.1156,-0.2521,-18.44,-34.75,7.31,317.62,-87.31,-150.31
3256,52.361965,-1.948389,214.35,26.23,4,87.23,22 / 22,639608,2020-01-08 16:31:54:584,-0.9904,-0.9742,9.9945,-0.0055,-0.0213,9.8066,-0.0848,0.1859,-0.132,-18.37,-34.19,7.06,321.04,-87.28,-147.17
3257,52.361965,-1.948389,214.35,26.23,4,87.23,22 / 22,639708,2020-01-08 16:31:54:684,0.1066,-0.906,9.1009,-0.008,0.003,9.8066,-0.0297,0.1348,0.003,-18.44,-35.31,7.69,323.13,-87.16,-147.77
3258,52.361965,-1.948389,214.35,26.23,4,87.23,22 / 22,639808,2020-01-08 16:31:54:784,-0.4546,0.0772,8.5841,0.0241,0.0023,9.8066,-0.0249,0.0118,-0.0805,-18.06,-35.0,7.38,321.41,-87.19,-146.63
3259,52.361965,-1.948389,214.35,26.23,4,87.23,22 / 22,639908,2020-01-08 16:31:54:884,0.9201,0.7935,10.3274,-0.0224,0.0147,9.8066,-0.1085,0.0302,-0.0455,-18.12,-34.19,7.5,327.33,-87.27,-144.06
3260,52.361965,-1.948389,214.35,26.23,4,87.23,22 / 22,640008,2020-01-08 16:31:54:984,-0.8816,0.7396,8.7687,-0.0292,0.0277,9.8065,-0.1978,0.0737,0.0019,-18.12,-34.94,7.31,324.66,-87.16,-143.57
3261,52.361965,-1.948389,214.35,26.23,4,87.23,22 / 22,640108,2020-01-08 16:31:55:084,0.1475,-0.7882,10.6001,-0.019,-0.0049,9.8066,-0.1338,0.032,-0.0008,-18.19,-35.25,6.94,326.04,-87.23,-142.37
3262,52.361965,-1.948389,214.35,26.23,4,87.23,22 / 22,640207,2020-01-08 16:31:55:183,-0.2273,0.9842,9.1246,-0.0111,0.0058,9.8066,-0.0792,0.0313,0.0012,-18.44,-34.81,7.69,328.07,-87.18,-143.21
3263,52.361965,-1.948389,214.35,26.23,4,87.23,22 / 22,640308,2020-01-08 16:31:55:284,-0.1803,-0.5398,10.8517,-0.021,0.0165,9.8066,-0.0139,-0.0513,0.045,-18.12,-34.94,7.56,327.58,-87.31,-143.79
