,GPS LATITUDE (degrees), GPS LONGITUDE (degrees), GPS ALTITUDE (m), GPS SPEED (Kmh), GPS ACCURACY (m), GPS ORIENTATION (Â°),GPS SATELLITES IN RANGE, TIME SINCE START (ms), DATE (YYYY-MO-DD HH-MI-SS_SSS), ACCELEROMETER X (m/s²) , ACCELEROMETER Y (m/s²), ACCELEROMETER Z (m/s²), GRAVITY X (m/s²), GRAVITY Y (m/s²), GRAVITY Z (m/s²), GYROSCOPE Yaw (rad/s), GYROSCOPE Pitch (rad/s), GYROSCOPE Roll (rad/s), MAGNETIC FIELD X (Î¼T), MAGNETIC FIELD Y (Î¼T), MAGNETIC FIELD Z (Î¼T), ORIENTATION (Yaw) (Â°), ORIENTATION (Pitch) (Â°), ORIENTATION (Roll ) (Â°)
37086,52.406673,-1.58164,183.21,9.05,2.0,127.21,24 / 24,3712827,2019-09-07 10:15:18:106,-0.2623,-2.3822,9.2254,0.0057,-0.0022,9.8066,-0.1791,0.0007,-0.0608,-8.37,-34.31,28.5,342.64,-87.12,179.06
37087,52.406673,-1.58164,183.21,9.05,2.0,127.21,24 / 24,3712928,2019-09-07 10:15:18:207,0.6948,0.069,9.9873,0.0002,0.0004,9.8066,-0.0857,0.1186,-0.1443,-8.12,-35.0,28.0,340.25,-87.27,177.33
37088,52.406673,-1.58164,183.21,9.05,2.0,127.21,24 / 24,3713027,2019-09-07 10:15:18:306,0.636,-0.4984,9.9898,-0.0087,0.0211,9.8066,0.1287,0.081,-0.0447,-8.19,-34.87,28.25,333.3,-87.12,170.83
37089,52.406673,-1.58164,183.21,9.05,2.0,127.21,24 / 24,3713127,2019-09-07 10:15:18:406,0.8837,-1.1832,10.0155,-0.0037,0.0023,9.8066,0.0732,-0.0806,0.1044,-8.5,-34.94,29.44,333.28,-87.04,170.28
37090,52.406673,-1.58164,183.21,9.05,2.0,127.21,24 / 24,3713227,2019-09-07 10:15:18:506,0.2107,-0.5265,9.9312,0.0019,-0.0163,9.8066,0.0351,0.0066,-0.0155,-8.62,-35.0,29.88,333.39,-86.94,171.65
37091,52.406673,-1.58164,183.21,9.05,2.0,127.21,24 / 24,3713327,2019-09-07 10:15:18:606,-0.0574,-1.2733,10.6004,-0.0102,0.0114,9.8066,0.151,-0.0387,0.0123,-8.69,-34.06,29.75,335.06,-86.97,173.18
37092,52.406673,-1.58164,183.21,9.05,2.0,127.21,24 / 24,3713427,2019-09-07 10:15:18:706,-0.6307,-1.4711,10.4262,-0.0018,-0.0452,9.8065,0.1666,-0.0709,0.0241,-8.37,-34.06,29.31,339.82,-86.88,176.49
37093,52.406673,-1.58164,183.21,9.05,2.0,127.21,24 / 24,3713528,2019-09-07 10:15:18:807,1.247,-1.8447,9.6858,-0.008,-0.0279,9.8066,-0.1342,0.0472,0.0125,-8.06,-33.81,29.38,342.1,-86.9,178.63
37094,52.406673,-1.58164,183.21,9.05,2.0,127.21,24 / 24,3713628,2019-09-07 10:15:18:907,0.0362,-0.1667,9.3364,-0.0005,0.013,9.8066,-0.1991,0.0336,-0.0381,-8.75,-34.56,28.19,340.99,-86.79,-179.92
37095,52.406673,-1.58164,183.21,9.05,2.0,127.21,24 / 24,3713727,2019-09-07 10:15:19:006,-0.2936,-0.2216,9.2263,0.0048,-0.0324,9.8066,-0.1244,-0.0708,0.031,-8.81,-35.0,28.38,341.99,-86.72,-178.96
37096,52.406673,-1.58164,183.21,9.05,2.0,127.21,24 / 24,3713827,2019-09-07 10:15:19:106,-0.9418,0.1264,9.8747,-0.0348,0.0479,9.8064,-0.1015,0.0403,0.0161,-8.37,-35.06,29.06,344.26,-86.65,-179.24
37097,52.406673,-1.58164,183.21,9.05,2.0,127.21,24 / 24,3713927,2019-09-07 10:15:19:206,-0.0569,-0.6892,10.5402,-0.0069,0.0402,9.8065,0.0515,0.0132,-0.0008,-8.37,-35.0,28.81,346.93,-86.88,-176.81
37098,52.406673,-1.58164,183.21,9.05,2.0,127.21,24 / 24,3714027,2019-09-07 10:15:19:306,0.1907,-1.3505,9.6437,0.0055,-0.0285,9.8065,0.175,0.0221,-0.0326,-8.19,-35.25,29.56,349.13,-86.62,-175.2
37099,52.406242,-1.581104,183.13,9.54,3.0,194.87,24 / 24,3714127,2019-09-07 10:15:19:406,-0.2085,-0.0773,9.252,-0.0143,0.0015,9.8066,0.0393,-0.0986,0.0634,-8.12,-35.5,29.56,350.52,-86.71,-173.92
37100,52.406242,-1.581104,183.13,9.54,3.0,194.87,24 / 24,3714228,2019-09-07 10:15:19:507,-0.1255,-1.686,10.2609,0.0053,-0.0473,9.8065,-0.1916,0.0057,-0.0352,-8.0,-35.81,29.38,352.62,-86.79,-171.46
37101,52.406242,-1.581104,183.13,9.54,3.0,194.87,24 / 24,3714327,2019-09-07 10:15:19:606,-0.6665,0.2142,9.8507,0.0106,-0.0264,9.8065,0.0184,-0.015,0.0119,-7.87,-36.69,29.44,352.51,-86.56,-171.5
37102,52.406242,-1.581104,183.13,9.54,3.0,194.87,24 / 24,3714427,2019-09-07 10:15:19:706,-0.0947,-0.0952,9.6874,-0.0127,0.0014,9.8066,-0.077,0.026,0.0081,-7.56,-35.87,30.25,355.12,-86.5,-169.59
37103,52.406242,-1.581104,183.13,9.54,3.0,194.87,24 / 24,3714527,2019-09-07 10:15:19:806,-0.3979,-0.0456,10.0567,-0.0152,0.0012,9.8066,-0.0306,0.0031,-0.0248,-7.31,-35.0,31.19,359.18,-86.44,-168.04
37104,52.406242,-1.581104,183.13,9.54,3.0,194.87,24 / 24,3714627,2019-09-07 10:15:19:906,0.1948,-0.4589,9.9837,-0.0013,0.0146,9.8066,0.0388,-0.0292,0.0106,-6.94,-34.25,30.81,0.37,-86.42,-166.93
37105,52.406242,-1.581104,183.13,9.54,3.0,194.87,24 / 24,3714728,2019-09-07 10:15:20:007,0.0257,-1.4647,9.1946,0.0059,0.0081,9.8066,0.1598,-0.0037,0.0453,-6.19,-33.75,29.88,0.38,-86.52,-168.33
37106,52.406242,-1.581104,183.13,9.54,3.0,194.87,24 / 24,3714827,2019-09-07 10:15:20:106,-0.6785,-0.5785,9.3651,-0.0249,0.0106,9.8065,-0.0874,0.0412,-0.0803,-5.37,-34.56,28.56,2.41,-86.36,-167.99
37107,52.406242,-1.581104,183.13,9.54,3.0,194.87,24 / 24,3714927,2019-09-07 10:15:20:206,1.4261,-1.2438,10.2868,0.0006,-0.0038,9.8066,-0.0786,0.0318,-0.0381,-5.44,-34.44,28.0,4.78,-86.31,-165.47
37108,52.406242,-1.581104,183.13,9.54,3.0,194.87,24 / 24,3715027,2019-09-07 10:15:20:306,0.3311,-0.3306,9.6247,-0.0012,0.0246,9.8066,0.1114,0.0286,0.0431,-6.94,-34.25,27.94,0.87,-86.32,-165.16
37109,52.406242,-1.581104,183.13,9.54,3.0,194.87,24 / 24,3715127,2019-09-07 10:15:20:406,0.249,-0.7727,9.3035,-0.0184,0.047,9.8065,0.2554,0.0069,0.0224,-7.0,-34.75,29.31,2.9,-86.33,-163.75
37110,52.406242,-1.581104,183.13,9.54,3.0,194.87,24 / 24,3715227,2019-09-07 10:15:20:506,0.2739,-0.3514,10.0354,0.0008,-0.041,9.8066,-0.0827,-0.0016,0.0169,-7.06,-34.62,28.75,2.73,-86.14,-163.92
37111,52.406242,-1.581104,183.13,9.54,3.0,194.87,24 / 24,3715327,2019-09-07 10:15:20:606,0.1086,0.2767,10.487,-0.0034,-0.019,9.8066,0.0351,0.0147,-0.0343,-7.69,-35.06,28.94,2.61,-85.93,-162.19
37112,52.406242,-1.581104,183.13,9.54,3.0,194.87,24 / 24,3715428,2019-09-07 10:15:20:707,-0.0318,-0.1222,9.9188,-0.0015,-0.0331,9.8066,-0.0019,0.0336,0.0109,-6.56,-34.87,29.56,4.81,-86.03,-162.44
37113,52.406242,-1.581104,183.13,9.54,3.0,194.87,24 / 24,3715528,2019-09-07 10:15:20:807,0.2053,-0.1139,9.5282,-0.0015,-0.0096,9.8065,0.0435,0.0438,-0.0221,-6.75,-35.25,29.38,4.81,-85.84,-162.04
37114,52.406242,-1.581104,183.13,9.54,3.0,194.87,24 / 24,3715628,2019-09-07 10:15:20:907,0.2722,1.8215,11.0465,-0.0137,0.0311,9.8065,0.1726,-0.0279,0.0278,-5.44,-33.94,29.31,11.22,-85.97,-159.93
37115,52.406242,-1.581104,183.13,9.54,3.0,194.87,24 / 24,3715727,2019-09-07 10:15:21:006,-1.0115,0.3784,9.9882,0.009,0.0569,9.8065,0.0881,-0.1251,0.1142,-5.44,-34.94,28.38,9.89,-85.96,-160.86
37116,52.406242,-1.581104,183.13,9.54,3.0,194.87,24 / 24,3715827,2019-09-07 10:15:21:106,-0.2557,3.5059,8.9345,-0.0011,-0.0156,9.8066,-0.0811,-0.034,0.0066,-6.06,-36.0,27.5,9.49,-85.74,-159.33
37117,52.406242,-1.581104,183.13,9.54,3.0,194.87,24 / 24,3715927,2019-09-07 10:15:21:206,1.2688,0.167,8.7689,-0.0036,-0.0283,9.8065,-0.2068,0.0985,-0.0743,-7.75,-34.87,28.06,6.38,-85.52,-158.29
37118,52.406242,-1.581104,183.13,9.54,3.0,194.87,24 / 24,3716027,2019-09-07 10:15:21:306,-0.222,0.9119,10.0259,-0.0292,0.0443,9.8065,0.0509,0.0206,0.0213,-8.12,-35.75,28.63,7.07,-85.45,-158.2
37119,52.406242,-1.581104,183.13,9.54,3.0,194.87,24 / 24,3716128,2019-09-07 10:15:21:407,-0.3826,0.1816,10.3621,-0.0234,0.0145,9.8065,0.0162,-0.0138,0.0557,-7.31,-35.5,29.5,14.88,-85.6,-153.32
37120,52.406242,-1.581104,183.13,9.54,3.0,194.87,24 / 24,3716227,2019-09-07 10:15:21:506,-0.1607,-0.7815,9.8479,-0.0082,-0.0201,9.8066,0.0881,0.0084,-0.0062,-7.0,-36.44,28.81,15.69,-85.43,-152.28
37121,52.406242,-1.581104,183.13,9.54,3.0,194.87,24 / 24,3716327,2019-09-07 10:15:21:606,-0.2134,-0.5613,10.1891,-0.0088,-0.0197,9.8065,0.0969,0.0021,0.0491,-7.44,-36.0,29.38,16.41,-85.11,-151.74
37122,52.406242,-1.581104,183.13,9.54,3.0,194.87,24 / 24,3716427,2019-09-07 10:15:21:706,0.1117,0.4939,9.4981,0.0009,0.0052,9.8066,0.0357,-0.0259,0.0463,-7.5,-35.69,29.25,16.19,-84.93,-152.0
37123,52.406242,-1.581104,183.13,9.54,3.0,194.87,24 / 24,3716527,2019-09-07 10:15:21:806,-0.3623,-0.2984,9.9737,-0.0047,0.0216,9.8066,0.0335,-0.0322,0.0025,-6.87,-36.06,30.13,16.92,-84.89,-151.75
37124,52.406242,-1.581104,183.13,9.54,3.0,194.87,24 / 24,3716627,2019-09-07 10:15:21:906,1.0001,-1.1121,9.9806,0.0111,-0.0022,9.8066,0.1032,-0.0957,0.028,-6.69,-34.87,29.13,16.14,-84.84,-152.03
37125,52.406242,-1.581104,183.13,9.54,3.0,194.87,24 / 24,3716728,2019-09-07 10:15:22:007,-0.6234,0.2364,9.8453,0.0115,-0.0402,9.8065,-0.0521,-0.0581,0.0293,-6.94,-36.31,28.56,16.59,-84.77,-151.7
37126,52.406242,-1.581104,183.13,9.54,3.0,194.87,24 / 24,3716827,2019-09-07 10:15:22:106,0.6726,-0.414,9.5264,-0.004,0.0062,9.8066,-0.1059,0.0653,-0.0225,-6.75,-37.19,28.63,17.72,-84.79,-150.74
37127,52.406242,-1.581104,183.13,9.54,3.0,194.87,24 / 24,3716927,2019-09-07 10:15:22:206,-0.0139,0.1643,9.4748,-0.0151,0.0075,9.8066,-0.0134,0.0242,0.008,-6.19,-37.81,29.63,21.32,-84.78,-149.81
37128,52.406242,-1.581104,183.13,9.54,3.0,194.87,24 / 24,3717027,2019-09-07 10:15:22:306,-0.0845,0.2308,9.9576,-0.0071,0.0111,9.8066,0.0512,-0.0237,-0.0028,-6.12,-37.12,30.13,21.31,-84.64,-149.82
37129,52.406242,-1.581104,183.13,9.54,3.0,194.87,24 / 24,3717127,2019-09-07 10:15:22:406,-0.4813,0.6392,9.8584,-0.0022,-0.0002,9.8066,-0.0257,-0.0438,0.0043,-6.0,-36.0,30.44,21.69,-84.57,-149.45
37130,52.406242,-1.581104,183.13,9.54,3.0,194.87,24 / 24,3717227,2019-09-07 10:15:22:506,0.3507,-0.2865,10.0634,0.002,0.0381,9.8065,0.1673,-0.0403,0.0379,-5.56,-35.5,30.81,21.54,-84.62,-149.78
37131,52.406242,-1.581104,183.13,9.54,3.0,194.87,24 / 24,3717327,2019-09-07 10:15:22:606,-0.0794,-1.1765,10.1199,-0.0045,0.045,9.8065,0.1935,-0.0329,0.0272,-5.5,-34.37,30.56,24.02,-84.6,-149.29
37132,52.406242,-1.581104,183.13,9.54,3.0,194.87,24 / 24,3717427,2019-09-07 10:15:22:706,0.1038,0.2034,9.7769,-0.0015,-0.0275,9.8066,-0.1038,0.039,-0.0319,-5.44,-33.06,30.13,23.51,-84.53,-149.49
37133,52.406242,-1.581104,183.13,9.54,3.0,194.87,24 / 24,3717528,2019-09-07 10:15:22:807,0.3922,1.2675,10.256,0.0003,-0.037,9.8066,-0.1334,0.0562,-0.034,-6.0,-30.44,27.88,20.31,-84.29,-149.77
37134,52.406242,-1.581104,183.13,9.54,3.0,194.87,24 / 24,3717627,2019-09-07 10:15:22:906,-0.2115,0.376,10.1793,-0.0056,-0.0135,9.8065,0.0106,0.0269,0.0624,-7.87,-29.31,26.88,16.3,-84.38,-148.89
37135,52.406242,-1.581104,183.13,9.54,3.0,194.87,24 / 24,3717727,2019-09-07 10:15:23:006,0.6117,-0.1629,9.8007,-0.003,-0.0299,9.8065,-0.0258,0.0705,-0.0076,-8.87,-31.0,27.69,15.33,-84.16,-148.55
37136,52.406242,-1.581104,183.13,9.54,3.0,194.87,24 / 24,3717827,2019-09-07 10:15:23:106,0.2722,-0.2869,9.8513,-0.0183,0.0348,9.8065,0.0513,0.0216,0.0031,-9.37,-32.12,30.25,18.37,-84.23,-146.87
37137,52.406242,-1.581104,183.13,9.54,3.0,194.87,24 / 24,3717927,2019-09-07 10:15:23:206,0.0568,0.0694,9.9354,-0.0137,0.0335,9.8065,0.0354,0.0077,0.031,-8.62,-34.25,29.38,18.38,-84.18,-146.52
37138,52.406242,-1.581104,183.13,9.54,3.0,194.87,24 / 24,3718027,2019-09-07 10:15:23:306,-0.0135,0.4129,10.1674,0.0006,-0.0141,9.8066,0.0184,0.028,-0.0044,-8.75,-34.81,29.75,18.49,-84.04,-147.01
37139,52.406242,-1.581104,183.13,9.54,3.0,194.87,24 / 24,3718128,2019-09-07 10:15:23:407,-0.4003,-0.1705,9.3872,-0.0069,-0.0215,9.8065,0.1173,-0.0097,0.0275,-8.19,-34.81,29.56,20.49,-83.98,-147.06
37140,52.406242,-1.581104,183.13,9.54,3.0,194.87,24 / 24,3718227,2019-09-07 10:15:23:506,-0.1539,0.3252,9.8034,-0.0148,-0.0064,9.8066,-0.0382,-0.039,-0.0085,-9.06,-35.56,28.75,18.75,-83.68,-146.52
37141,52.406242,-1.581104,183.13,9.54,3.0,194.87,24 / 24,3718327,2019-09-07 10:15:23:606,-0.8158,-0.3862,9.9287,-0.0036,0.001,9.8066,0.0528,-0.0335,0.0067,-7.69,-34.81,27.94,22.15,-83.63,-144.91
37142,52.406242,-1.581104,183.13,9.54,3.0,194.87,24 / 24,3718428,2019-09-07 10:15:23:707,-1.0059,-0.1444,10.3854,0.0075,-0.0119,9.8066,0.0257,-0.1074,0.0746,-7.0,-34.81,28.63,25.28,-83.75,-144.41
37143,52.406242,-1.581104,183.13,9.54,3.0,194.87,24 / 24,3718528,2019-09-07 10:15:23:807,-0.2447,0.8018,10.3421,-0.0017,0.0055,9.8066,0.0342,-0.0297,-0.0295,-8.19,-36.0,29.94,23.43,-83.69,-144.68
37144,52.406242,-1.581104,183.13,9.54,3.0,194.87,24 / 24,3718627,2019-09-07 10:15:23:906,-0.0932,1.113,9.8033,0.0059,0.0189,9.8066,0.0988,-0.0042,-0.0479,-9.44,-36.19,29.0,19.2,-83.72,-146.11
37145,52.406242,-1.581104,183.13,9.54,3.0,194.87,24 / 24,3718728,2019-09-07 10:15:24:007,0.4215,0.6463,9.3382,0.0086,0.0006,9.8065,0.06,-0.0514,0.0468,-8.69,-36.62,29.06,17.41,-83.58,-147.79
37146,52.406242,-1.581104,183.13,9.54,3.0,194.87,24 / 24,3718828,2019-09-07 10:15:24:107,-0.1812,0.7105,9.3777,0.0,-0.0047,9.8066,-0.2152,0.0002,-0.0406,-8.44,-37.19,28.63,20.17,-83.57,-147.25
37147,52.406242,-1.581104,183.13,9.54,3.0,194.87,24 / 24,3718927,2019-09-07 10:15:24:206,-0.7194,-0.0808,10.1015,0.0192,-0.0138,9.8066,-0.1291,-0.0503,0.072,-8.37,-38.12,28.44,19.27,-83.72,-147.59
37148,52.406242,-1.581104,183.13,9.54,3.0,194.87,24 / 24,3719027,2019-09-07 10:15:24:306,0.1866,-0.4443,9.7767,0.0088,0.0015,9.8066,0.0472,-0.0036,-0.0169,-8.69,-38.75,29.13,17.6,-83.79,-147.67
37149,52.406242,-1.581104,183.13,9.54,3.0,194.87,23 / 23,3719128,2019-09-07 10:15:24:407,0.7299,-0.0648,9.874,-0.0069,-0.0155,9.8065,0.0643,0.0149,-0.0366,-8.94,-37.94,30.63,17.81,-83.76,-148.34
37150,52.406242,-1.581104,183.13,9.54,3.0,194.87,23 / 23,3719227,2019-09-07 10:15:24:506,0.3329,-0.0986,9.8611,0.0063,-0.009,9.8066,-0.0045,-0.0457,0.0435,-9.12,-36.69,30.88,17.87,-83.74,-148.24
37151,52.406242,-1.581104,183.13,9.54,3.0,194.87,23 / 23,3719328,2019-09-07 10:15:24:607,-0.5916,-0.0307,10.5423,-0.0051,0.0067,9.8066,0.1308,-0.041,0.0195,-9.62,-35.25,29.94,15.42,-83.8,-148.05
37152,52.406242,-1.581104,183.13,9.54,3.0,194.87,23 / 23,3719427,2019-09-07 10:15:24:706,1.2829,0.4889,9.5428,0.0107,-0.02,9.8066,-0.139,0.0574,-0.0038,-9.56,-34.37,29.88,15.66,-83.92,-147.75
37153,52.406242,-1.581104,183.13,9.54,3.0,194.87,23 / 23,3719527,2019-09-07 10:15:24:806,10.0601,-4.7418,12.255,0.0433,-0.0778,9.8062,0.6845,0.4136,-0.3135,-9.06,-34.94,28.5,14.8,-83.74,-149.88
37154,52.406242,-1.581104,183.13,9.54,3.0,194.87,23 / 23,3719628,2019-09-07 10:15:24:907,-3.3183,4.9435,10.0479,0.0287,-0.3156,9.8015,-1.7514,0.2017,-0.0208,-8.81,-38.0,27.81,10.97,-82.69,-153.09
37155,52.406242,-1.581104,183.13,9.54,3.0,194.87,23 / 23,3719727,2019-09-07 10:15:25:006,4.443,-3.4509,9.7933,0.0352,-0.3282,9.801,-0.3342,0.3112,-0.158,-8.69,-37.25,29.44,13.14,-82.83,-151.7
37156,52.406242,-1.581104,183.13,9.54,3.0,194.87,23 / 23,3719827,2019-09-07 10:15:25:106,2.9309,1.0059,10.6836,0.004,0.0579,9.8065,0.3181,-0.206,0.0541,-8.87,-36.12,30.06,12.87,-83.05,-152.3
37157,52.406242,-1.581104,183.13,9.54,3.0,194.87,23 / 23,3719927,2019-09-07 10:15:25:206,-1.2212,-1.6229,10.3064,-0.0008,0.0656,9.8063,0.2033,-0.1335,-0.035,-8.31,-36.5,29.56,16.62,-83.51,-150.7
37158,52.406242,-1.581104,183.13,9.54,3.0,194.87,23 / 23,3720027,2019-09-07 10:15:25:306,-0.0124,-1.0192,10.0988,0.0283,-0.0502,9.8064,-0.0564,0.014,0.03,-8.56,-36.75,28.56,12.38,-83.4,-152.18
37159,52.406242,-1.581104,183.13,9.54,3.0,194.87,24 / 24,3720127,2019-09-07 10:15:25:406,-0.5168,-0.5959,9.6878,0.0105,-0.0143,9.8066,0.117,-0.055,0.0656,-8.25,-37.0,29.19,15.13,-83.7,-151.56
37160,52.406242,-1.581104,183.13,9.54,3.0,194.87,24 / 24,3720227,2019-09-07 10:15:25:506,0.4999,0.2536,9.6985,0.0027,0.0067,9.8066,-0.0589,-0.0648,-0.0015,-8.06,-37.44,29.44,15.54,-83.67,-151.21
37161,52.406242,-1.581104,183.13,9.54,3.0,194.87,24 / 24,3720327,2019-09-07 10:15:25:606,-0.1769,0.9443,9.7596,0.0002,-0.0133,9.8066,-0.0937,-0.0054,-0.0027,-8.44,-36.87,30.0,16.15,-83.7,-151.09
37162,52.406242,-1.581104,183.13,9.54,3.0,194.87,24 / 24,3720427,2019-09-07 10:15:25:706,0.9937,0.5829,10.504,-0.0155,0.065,9.8063,0.3238,-0.0871,0.0572,-8.69,-35.75,30.13,13.64,-83.67,-151.46
37163,52.406242,-1.581104,183.13,9.54,3.0,194.87,24 / 24,3720527,2019-09-07 10:15:25:806,-1.3299,-0.6137,10.6569,-0.0276,0.0853,9.8061,0.366,-0.0941,0.082,-9.06,-36.37,28.44,16.19,-84.07,-148.1
37164,52.406242,-1.581104,183.13,9.54,3.0,194.87,24 / 24,3720627,2019-09-07 10:15:25:906,0.2998,0.4407,9.6065,0.0115,-0.0859,9.8063,-0.2281,-0.0023,0.0129,-7.87,-37.44,29.69,17.96,-83.51,-149.6
37165,52.406242,-1.581104,183.13,9.54,3.0,194.87,24 / 24,3720727,2019-09-07 10:15:26:006,-1.421,0.3787,10.1525,0.0182,-0.0496,9.8064,-0.2199,-0.1162,0.0809,-8.44,-36.12,30.44,18.71,-83.59,-148.85
37166,52.406242,-1.581104,183.13,9.54,3.0,194.87,24 / 24,3720827,2019-09-07 10:15:26:106,0.1049,0.0803,9.5504,0.0028,0.0303,9.8066,0.0436,0.0249,0.006,-8.06,-35.94,29.88,20.06,-83.59,-147.67
37167,52.406242,-1.581104,183.13,9.54,3.0,194.87,24 / 24,3720929,2019-09-07 10:15:26:208,-0.4424,1.2098,9.8666,-0.0096,0.0298,9.8066,0.1187,-0.0288,0.066,-7.75,-35.62,29.13,20.01,-83.8,-147.21
37168,52.406242,-1.581104,183.13,9.54,3.0,194.87,24 / 24,3721027,2019-09-07 10:15:26:306,0.2006,-0.0455,9.8804,0.0147,-0.0249,9.8065,-0.0348,-0.0142,-0.0138,-7.69,-36.0,29.88,19.09,-83.62,-148.5
37169,52.406242,-1.581104,183.13,9.54,3.0,194.87,24 / 24,3721127,2019-09-07 10:15:26:406,-0.0476,0.2174,9.7626,0.0033,-0.0292,9.8066,0.0634,0.0088,-0.0184,-7.87,-35.37,30.75,19.36,-83.61,-148.6
37170,52.406242,-1.581104,183.13,9.54,3.0,194.87,24 / 24,3721227,2019-09-07 10:15:26:506,0.311,-0.2742,9.9505,-0.0063,0.0003,9.8066,-0.0617,0.0145,0.0094,-8.31,-34.19,30.81,18.74,-83.69,-149.05
37171,52.406242,-1.581104,183.13,9.54,3.0,194.87,24 / 24,3721327,2019-09-07 10:15:26:606,-0.1186,0.6862,10.2266,0.0055,0.0112,9.8066,0.0422,-0.023,-0.0245,-8.69,-33.44,29.38,15.73,-83.67,-148.98
37172,52.406242,-1.581104,183.13,9.54,3.0,194.87,24 / 24,3721427,2019-09-07 10:15:26:706,1.5664,-0.7003,9.534,0.0157,-0.0174,9.8065,0.0127,-0.0518,0.07,-8.69,-34.06,29.25,14.41,-83.65,-150.19
37173,52.406242,-1.581104,183.13,9.54,3.0,194.87,24 / 24,3721527,2019-09-07 10:15:26:806,-0.2752,0.4397,9.6761,0.0125,-0.0247,9.8066,-0.0632,-0.0222,0.0143,-8.44,-34.37,27.88,15.01,-83.52,-151.09
37174,52.406242,-1.581104,183.13,9.54,3.0,194.87,24 / 24,3721627,2019-09-07 10:15:26:906,-0.0128,1.6214,9.7229,0.0043,0.0306,9.8065,-0.0888,-0.0353,0.015,-8.31,-35.56,27.94,15.7,-83.77,-150.52
37175,52.406242,-1.581104,183.13,9.54,3.0,194.87,24 / 24,3721728,2019-09-07 10:15:27:007,0.3658,0.9037,9.6948,0.0043,0.0048,9.8066,-0.112,0.021,0.0278,-7.31,-34.87,29.19,18.1,-83.76,-150.7
37176,52.406242,-1.581104,183.13,9.54,3.0,194.87,24 / 24,3721827,2019-09-07 10:15:27:106,0.2773,0.2624,9.9613,0.0013,0.0069,9.8066,0.0952,0.0079,-0.0224,-7.0,-35.31,28.63,18.15,-83.75,-150.66
37177,52.406242,-1.581104,183.13,9.54,3.0,194.87,24 / 24,3721927,2019-09-07 10:15:27:206,0.0506,-0.3454,10.148,0.0069,0.0149,9.8065,0.1022,-0.0588,0.0553,-6.56,-34.25,29.19,17.95,-83.84,-150.74
37178,52.406242,-1.581104,183.13,9.54,3.0,194.87,24 / 24,3722028,2019-09-07 10:15:27:307,0.8137,0.2262,9.6365,0.0032,-0.014,9.8066,-0.0918,-0.0289,0.0384,-6.5,-33.5,29.25,20.29,-83.88,-150.49
37179,52.406242,-1.581104,183.13,9.54,3.0,194.87,24 / 24,3722128,2019-09-07 10:15:27:407,0.5188,1.8267,9.7786,0.0005,-0.0063,9.8066,-0.1579,0.0298,-0.0094,-6.5,-33.44,29.19,20.41,-83.76,-150.43
37180,52.406242,-1.581104,183.13,9.54,3.0,194.87,24 / 24,3722228,2019-09-07 10:15:27:507,-0.8081,0.6504,9.8071,-0.0126,0.0071,9.8066,0.1062,0.0384,-0.0411,-6.12,-33.56,29.25,20.36,-83.8,-150.53
37181,52.406242,-1.581104,183.13,9.54,3.0,194.87,24 / 24,3722327,2019-09-07 10:15:27:606,0.12,0.6632,10.5842,-0.0003,-0.008,9.8066,-0.0199,-0.0159,0.0316,-5.75,-33.06,29.31,20.46,-83.72,-150.41
37182,52.406242,-1.581104,183.13,9.54,3.0,194.87,24 / 24,3722427,2019-09-07 10:15:27:706,0.3788,-0.0072,10.1574,0.0007,-0.0067,9.8066,0.0984,-0.0005,-0.0044,-6.12,-33.12,29.69,21.14,-83.71,-150.11
37183,52.406242,-1.581104,183.13,9.54,3.0,194.87,24 / 24,3722528,2019-09-07 10:15:27:807,-0.2549,-0.4361,9.8754,0.0038,-0.0033,9.8066,0.1016,0.0067,0.0391,-6.0,-33.87,29.31,20.49,-83.64,-150.49
37184,52.406242,-1.581104,183.13,9.54,3.0,194.87,24 / 24,3722627,2019-09-07 10:15:27:906,-0.4649,1.0007,10.2902,-0.0007,0.0004,9.8066,0.185,-0.0289,-0.0244,-5.75,-33.69,29.75,21.06,-83.61,-150.3
37185,52.406242,-1.581104,183.13,9.54,3.0,194.87,24 / 24,3722727,2019-09-07 10:15:28:006,-2.0668,-4.8763,9.9453,-0.0093,0.1577,9.8054,1.0791,-0.2463,0.1262,-5.94,-33.56,30.5,22.62,-84.27,-148.9
37186,52.406242,-1.581104,183.13,9.54,3.0,194.87,24 / 24,3722827,2019-09-07 10:15:28:106,0.8394,-2.0713,11.5259,0.0359,-0.2043,9.8044,-0.3109,-0.0252,-0.0105,-6.56,-33.44,30.13,20.87,-84.24,-148.29
37187,52.406242,-1.581104,183.13,9.54,3.0,194.87,24 / 24,3722927,2019-09-07 10:15:28:206,-0.9323,-1.7269,11.3609,0.0372,-0.0554,9.8064,0.0197,-0.2048,0.1443,-5.5,-33.75,29.5,21.5,-83.81,-151.68
37188,52.406242,-1.581104,183.13,9.54,3.0,194.87,24 / 24,3723027,2019-09-07 10:15:28:306,0.893,-0.5677,10.8089,0.0022,-0.0441,9.8065,0.2296,-0.039,-0.0134,-6.06,-33.81,29.75,21.21,-83.91,-150.04
37189,52.406242,-1.581104,183.13,9.54,3.0,194.87,24 / 24,3723127,2019-09-07 10:15:28:406,-0.0062,-1.0108,10.0298,-0.003,0.0296,9.8065,0.2588,-0.0125,0.0051,-6.06,-33.56,29.81,21.46,-83.83,-149.85
37190,52.405365,-1.58147,182.33,11.51,3.0,194.79,24 / 24,3723227,2019-09-07 10:15:28:506,-0.4411,0.214,10.4068,-0.004,0.0158,9.8066,-0.0143,-0.0072,-0.0238,-6.25,-33.81,30.13,20.69,-83.68,-150.59
37191,52.405365,-1.58147,182.33,11.51,3.0,194.79,24 / 24,3723327,2019-09-07 10:15:28:606,-0.4104,0.5241,10.4678,-0.0051,0.0092,9.8066,0.0995,0.0244,0.0118,-6.25,-32.81,29.63,20.27,-83.74,-150.87
37192,52.405365,-1.58147,182.33,11.51,3.0,194.79,24 / 24,3723427,2019-09-07 10:15:28:706,0.8963,0.0649,9.9384,-0.0023,0.0054,9.8066,0.0497,0.0482,-0.0213,-5.62,-33.44,28.88,19.58,-83.68,-151.2
37193,52.405365,-1.58147,182.33,11.51,3.0,194.79,24 / 24,3723527,2019-09-07 10:15:28:806,-0.5907,0.6834,9.8657,-0.0008,-0.0058,9.8066,-0.0129,0.0046,0.0316,-5.37,-33.69,29.25,21.35,-83.57,-151.69
37194,52.405365,-1.58147,182.33,11.51,3.0,194.79,24 / 24,3723627,2019-09-07 10:15:28:906,0.3759,0.8767,9.872,-0.0032,0.0058,9.8066,-0.0633,0.0382,0.003,-5.19,-33.44,29.88,21.6,-83.58,-151.62
37195,52.405365,-1.58147,182.33,11.51,3.0,194.79,24 / 24,3723727,2019-09-07 10:15:29:006,-0.1426,1.0282,9.4663,-0.0059,0.0267,9.8066,0.1238,0.0156,-0.0303,-5.56,-34.0,29.13,18.47,-83.55,-152.3
37196,52.405365,-1.58147,182.33,11.51,3.0,194.79,24 / 24,3723828,2019-09-07 10:15:29:107,0.0653,-0.0621,10.0028,0.0006,0.0307,9.8065,0.0261,0.0154,-0.0424,-5.87,-33.12,29.63,19.25,-83.68,-151.79
37197,52.405365,-1.58147,182.33,11.51,3.0,194.79,24 / 24,3723928,2019-09-07 10:15:29:207,-0.021,0.3273,9.6638,0.0107,-0.0274,9.8065,-0.0857,0.0339,0.0046,-5.62,-33.19,29.75,18.54,-83.71,-152.41
37198,52.405365,-1.58147,182.33,11.51,3.0,194.79,24 / 24,3724028,2019-09-07 10:15:29:307,0.884,0.728,9.8935,0.0077,-0.0287,9.8065,-0.0686,0.0609,-0.0443,-6.06,-33.31,29.44,16.35,-83.57,-154.08
37199,52.405365,-1.58147,182.33,11.51,3.0,194.79,24 / 24,3724127,2019-09-07 10:15:29:406,0.2402,0.4758,10.084,-0.0034,-0.0062,9.8066,0.0307,0.0127,-0.0172,-5.94,-32.75,29.56,16.26,-83.54,-154.47
37200,52.405365,-1.58147,182.33,11.51,3.0,194.79,24 / 24,3724227,2019-09-07 10:15:29:506,0.7412,-0.4986,9.3613,0.0104,-0.0103,9.8065,0.052,0.0188,-0.031,-6.37,-33.0,29.81,15.37,-83.49,-155.27
37201,52.405365,-1.58147,182.33,11.51,3.0,194.79,24 / 24,3724327,2019-09-07 10:15:29:606,-0.1528,0.4233,9.4999,-0.0071,0.0237,9.8065,-0.0766,0.065,-0.0126,-5.94,-32.94,29.38,14.58,-83.5,-155.64
37202,52.405365,-1.58147,182.33,11.51,3.0,194.79,24 / 24,3724428,2019-09-07 10:15:29:707,0.3714,0.0113,10.0165,-0.0051,0.0207,9.8065,0.0074,0.0526,-0.0139,-5.87,-32.75,29.44,15.75,-83.71,-154.55
37203,52.405365,-1.58147,182.33,11.51,3.0,194.79,24 / 24,3724529,2019-09-07 10:15:29:808,0.0761,0.4464,9.96,-0.0026,-0.0197,9.8066,-0.063,0.0771,-0.029,-5.94,-33.94,29.13,15.7,-83.79,-154.62
37204,52.405365,-1.58147,182.33,11.51,3.0,194.79,24 / 24,3724627,2019-09-07 10:15:29:906,0.3907,1.233,10.1462,-0.001,-0.0286,9.8065,-0.0498,0.0214,0.0048,-6.06,-34.25,30.25,15.78,-83.61,-154.93
37205,52.405365,-1.58147,182.33,11.51,3.0,194.79,24 / 24,3724727,2019-09-07 10:15:30:006,0.1222,0.3496,9.8139,-0.0084,-0.0146,9.8066,-0.025,0.0158,-0.0014,-5.69,-33.06,30.13,16.2,-83.53,-154.54
37206,52.405365,-1.58147,182.33,11.51,3.0,194.79,24 / 24,3724827,2019-09-07 10:15:30:106,0.7071,-0.0025,9.9231,0.0025,-0.017,9.8066,0.0083,0.0318,-0.0195,-6.31,-33.5,29.44,16.19,-83.53,-154.23
37207,52.405365,-1.58147,182.33,11.51,3.0,194.79,24 / 24,3724929,2019-09-07 10:15:30:208,0.0632,-0.1226,10.2224,-0.0128,-0.012,9.8066,-0.0563,0.0095,0.0049,-6.44,-32.87,30.06,16.77,-83.64,-153.99
37208,52.405365,-1.58147,182.33,11.51,3.0,194.79,24 / 24,3725028,2019-09-07 10:15:30:307,0.4979,0.3659,9.6967,0.0063,-0.0102,9.8065,-0.019,0.0362,-0.0094,-6.25,-32.81,29.81,17.94,-83.61,-152.97
37209,52.405365,-1.58147,182.33,11.51,3.0,194.79,24 / 24,3725128,2019-09-07 10:15:30:407,0.3202,-0.2523,10.3467,-0.0048,-0.007,9.8066,0.0622,0.0608,-0.0191,-6.62,-33.19,29.75,15.77,-83.62,-153.04
37210,52.405365,-1.58147,182.33,11.51,3.0,194.79,24 / 24,3725227,2019-09-07 10:15:30:506,-0.1331,0.3034,10.0588,0.0063,-0.0215,9.8065,0.0746,-0.0021,-0.0107,-5.69,-32.56,30.0,17.45,-83.53,-153.43
37211,52.405365,-1.58147,182.33,11.51,3.0,194.79,24 / 24,3725327,2019-09-07 10:15:30:606,0.7917,-0.2261,9.9525,0.0079,0.0012,9.8066,-0.0432,0.0253,0.038,-5.81,-33.75,29.19,16.3,-83.52,-154.2
37212,52.405365,-1.58147,182.33,11.51,3.0,194.79,24 / 24,3725427,2019-09-07 10:15:30:706,0.216,-0.3388,9.8979,-0.0104,0.0032,9.8065,0.0231,0.0689,-0.0279,-6.31,-34.25,29.88,17.14,-83.5,-153.77
37213,52.405365,-1.58147,182.33,11.51,3.0,194.79,24 / 24,3725527,2019-09-07 10:15:30:806,0.2821,0.1842,9.7085,0.0047,-0.0165,9.8066,-0.0809,0.0473,-0.0075,-6.5,-34.56,30.06,17.39,-83.59,-153.59
37214,52.405365,-1.58147,182.33,11.51,3.0,194.79,24 / 24,3725628,2019-09-07 10:15:30:907,0.639,1.0132,9.8679,-0.002,-0.0009,9.8066,-0.0398,0.0266,-0.0221,-6.56,-34.62,30.69,15.63,-83.6,-153.64
37215,52.405365,-1.58147,182.33,11.51,3.0,194.79,24 / 24,3725727,2019-09-07 10:15:31:006,-0.3811,0.8055,9.8555,0.0026,-0.0189,9.8066,-0.0195,-0.0315,0.0502,-6.94,-34.25,29.88,15.41,-83.67,-153.4
37216,52.405365,-1.58147,182.33,11.51,3.0,194.79,24 / 24,3725827,2019-09-07 10:15:31:106,-0.2284,2.6137,10.006,0.0038,-0.0353,9.8065,-0.1983,-0.0061,-0.0395,-6.94,-33.81,29.94,14.97,-83.46,-153.85
37217,52.405365,-1.58147,182.33,11.51,3.0,194.79,24 / 24,3725927,2019-09-07 10:15:31:206,0.3843,2.7776,9.6925,0.0003,0.0468,9.8065,0.1756,-0.0229,0.0243,-7.19,-34.12,29.88,16.07,-83.75,-152.79
37218,52.405365,-1.58147,182.33,11.51,3.0,194.79,24 / 24,3726027,2019-09-07 10:15:31:306,-1.425,3.6709,9.5605,-0.0056,0.0227,9.8066,0.0407,0.0665,-0.0125,-7.0,-33.69,29.94,15.99,-83.71,-152.88
37219,52.405365,-1.58147,182.33,11.51,3.0,194.79,24 / 24,3726128,2019-09-07 10:15:31:407,0.7959,3.518,9.8051,-0.0228,0.0465,9.8065,0.1244,0.1341,-0.0829,-7.81,-34.31,29.69,12.24,-83.67,-154.37
37220,52.405365,-1.58147,182.33,11.51,3.0,194.79,24 / 24,3726227,2019-09-07 10:15:31:506,-1.2095,1.9499,10.0369,0.004,0.0602,9.8064,0.1608,-0.0413,0.0608,-7.62,-33.44,29.44,12.58,-83.94,-153.51
37221,52.405365,-1.58147,182.33,11.51,3.0,194.79,24 / 24,3726328,2019-09-07 10:15:31:607,-0.1012,1.5195,10.0396,0.0181,-0.0692,9.8064,-0.098,0.0304,-0.0322,-6.5,-34.06,30.19,16.55,-84.01,-154.12
37222,52.405365,-1.58147,182.33,11.51,3.0,194.79,24 / 24,3726427,2019-09-07 10:15:31:706,-0.3372,1.7041,9.8273,0.0004,-0.0374,9.8065,-0.0383,-0.0161,-0.0136,-7.31,-34.44,30.25,12.69,-83.8,-155.75
37223,52.405365,-1.58147,182.33,11.51,3.0,194.79,24 / 24,3726527,2019-09-07 10:15:31:806,-0.365,2.6904,9.671,0.0021,0.0419,9.8065,-0.0034,-0.0138,-0.0224,-7.25,-34.44,29.69,13.69,-84.21,-154.75
37224,52.405365,-1.58147,182.33,11.51,3.0,194.79,24 / 24,3726627,2019-09-07 10:15:31:906,0.7055,1.9515,9.8407,-0.001,0.026,9.8065,0.0247,0.0829,-0.0128,-7.0,-35.06,30.06,12.83,-84.27,-155.54
37225,52.405365,-1.58147,182.33,11.51,3.0,194.79,24 / 24,3726727,2019-09-07 10:15:32:006,-0.8098,1.517,9.6373,-0.0078,-0.0191,9.8066,-0.0424,0.0186,0.0159,-6.75,-34.69,29.56,12.15,-84.31,-156.13
37226,52.405365,-1.58147,182.33,11.51,3.0,194.79,24 / 24,3726827,2019-09-07 10:15:32:106,-0.0699,3.152,9.6775,0.0214,-0.0517,9.8064,-0.2251,0.0141,-0.0278,-6.87,-35.06,29.44,10.35,-84.08,-157.38
37227,52.405365,-1.58147,182.33,11.51,3.0,194.79,24 / 24,3726928,2019-09-07 10:15:32:207,0.0479,2.2397,9.3326,-0.0118,0.0525,9.8064,0.0769,0.0171,-0.0378,-6.87,-34.81,29.88,10.54,-84.01,-157.62
37228,52.405365,-1.58147,182.33,11.51,3.0,194.79,24 / 24,3727028,2019-09-07 10:15:32:307,0.1401,3.2513,9.6227,0.0002,0.0165,9.8066,-0.1013,0.035,-0.0233,-7.06,-34.5,29.94,10.61,-84.16,-157.5
37229,52.405365,-1.58147,182.33,11.51,3.0,194.79,24 / 24,3727127,2019-09-07 10:15:32:406,-0.6731,2.5096,9.8279,-0.0076,-0.0022,9.8066,0.0649,0.0206,-0.0037,-7.31,-34.75,30.5,11.12,-84.24,-157.44
37230,52.405365,-1.58147,182.33,11.51,3.0,194.79,24 / 24,3727227,2019-09-07 10:15:32:506,0.7748,2.0276,9.8549,0.0038,0.0318,9.8066,0.079,0.1207,-0.1119,-6.87,-35.31,29.38,9.7,-84.44,-157.87
37231,52.405365,-1.58147,182.33,11.51,3.0,194.79,24 / 24,3727327,2019-09-07 10:15:32:606,1.1627,2.5064,10.2337,-0.0009,0.0178,9.8066,0.1637,0.1308,-0.0953,-6.31,-35.44,29.63,9.52,-84.45,-160.26
37232,52.405365,-1.58147,182.33,11.51,3.0,194.79,24 / 24,3727427,2019-09-07 10:15:32:706,0.6077,1.7418,9.775,0.0104,0.0357,9.8065,0.1196,0.0628,-0.012,-6.81,-34.75,30.0,5.27,-84.55,-162.19
37233,52.405365,-1.58147,182.33,11.51,3.0,194.79,24 / 24,3727527,2019-09-07 10:15:32:806,1.7531,2.3127,9.7803,0.0183,-0.0055,9.8066,-0.0369,0.1623,-0.0169,-7.25,-34.31,30.25,3.26,-84.52,-163.97
37234,52.405365,-1.58147,182.33,11.51,3.0,194.79,24 / 24,3727627,2019-09-07 10:15:32:906,2.642,2.9739,9.7142,0.0172,0.0109,9.8065,-0.0655,0.2581,-0.101,-7.5,-34.81,30.56,0.56,-84.64,-166.78
37235,52.405365,-1.58147,182.33,11.51,3.0,194.79,24 / 24,3727727,2019-09-07 10:15:33:006,2.9523,3.6603,9.463,0.0134,0.0329,9.8065,0.0379,0.3417,-0.083,-8.19,-33.94,30.69,354.05,-84.99,-170.91
37236,52.405365,-1.58147,182.33,11.51,3.0,194.79,24 / 24,3727827,2019-09-07 10:15:33:106,4.3413,2.6771,10.074,0.0227,0.0358,9.8065,-0.0152,0.3469,-0.0668,-8.5,-33.94,30.75,350.24,-85.12,-174.38
37237,52.405365,-1.58147,182.33,11.51,3.0,194.79,24 / 24,3727928,2019-09-07 10:15:33:207,2.5405,2.9114,10.168,0.03,-0.0372,9.8065,-0.0785,0.4263,-0.0911,-9.87,-33.0,31.31,343.71,-85.34,-177.03
37238,52.405365,-1.58147,182.33,11.51,3.0,194.79,24 / 24,3728027,2019-09-07 10:15:33:306,4.2279,2.4719,9.8422,0.0245,0.0031,9.8066,0.0471,0.5063,-0.1105,-10.25,-33.37,31.25,338.28,-85.23,178.01
37239,52.405365,-1.58147,182.33,11.51,3.0,194.79,24 / 24,3728127,2019-09-07 10:15:33:406,5.1811,2.6522,9.4278,0.0244,0.0078,9.8065,-0.0217,0.5757,-0.107,-11.19,-32.37,30.94,332.32,-85.17,174.12
37240,52.405365,-1.58147,182.33,11.51,3.0,194.79,24 / 24,3728227,2019-09-07 10:15:33:506,4.0077,3.0859,9.065,0.0354,0.0129,9.8066,-0.0899,0.5678,-0.0961,-12.06,-31.94,31.06,324.31,-85.11,168.31
37241,52.405365,-1.58147,182.33,11.51,3.0,194.79,24 / 24,3728327,2019-09-07 10:15:33:606,6.2735,5.0878,8.7519,0.0254,0.1331,9.8057,0.0447,0.661,-0.1314,-13.75,-32.56,30.81,309.7,-85.14,157.74
37242,52.405365,-1.58147,182.33,11.51,3.0,194.79,24 / 24,3728427,2019-09-07 10:15:33:706,6.7232,4.1245,9.3005,0.0287,0.0604,9.8064,-0.0518,0.6601,-0.0913,-14.37,-32.0,30.63,304.37,-84.71,152.91
37243,52.405365,-1.58147,182.33,11.51,3.0,194.79,24 / 24,3728527,2019-09-07 10:15:33:806,4.3647,4.1841,10.5567,0.0617,0.0317,9.8063,-0.0667,0.6976,-0.1852,-15.94,-32.62,29.5,297.24,-84.41,150.26
37244,52.405365,-1.58147,182.33,11.51,3.0,194.79,24 / 24,3728627,2019-09-07 10:15:33:906,4.2061,5.3808,10.5682,0.0762,0.0106,9.8063,-0.1316,0.7834,-0.1287,-17.0,-32.81,29.5,287.21,-83.45,142.87
37245,52.405365,-1.58147,182.33,11.51,3.0,194.79,24 / 24,3728728,2019-09-07 10:15:34:007,6.825,3.9722,10.4805,-0.0234,-0.0384,9.8064,0.3014,0.9219,-0.0944,-17.5,-33.12,29.63,287.55,-83.14,143.5
37246,52.405365,-1.58147,182.33,11.51,3.0,194.79,24 / 24,3728828,2019-09-07 10:15:34:107,-0.0619,2.9782,10.9738,0.0127,-0.0045,9.8066,0.023,0.6713,0.0192,-19.19,-33.19,29.13,288.36,-82.88,148.2
37247,52.405365,-1.58147,182.33,11.51,3.0,194.79,24 / 24,3728928,2019-09-07 10:15:34:207,6.1316,6.0243,8.7532,0.0048,0.0005,9.8066,0.1732,0.7251,-0.01,-19.37,-32.75,27.75,285.48,-82.53,146.83
37248,52.405365,-1.58147,182.33,11.51,3.0,194.79,24 / 24,3729027,2019-09-07 10:15:34:306,3.2537,6.4762,11.692,-0.0367,-0.0323,9.8065,0.019,0.6362,0.029,-21.12,-32.94,27.56,289.05,-82.54,152.77
37249,52.405365,-1.58147,182.33,11.51,3.0,194.79,24 / 24,3729127,2019-09-07 10:15:34:406,2.2754,6.3287,10.1975,-0.0152,-0.003,9.8066,0.1051,0.645,0.0942,-21.87,-33.5,26.81,288.17,-82.42,154.36
37250,52.405365,-1.58147,182.33,11.51,3.0,194.79,24 / 24,3729227,2019-09-07 10:15:34:506,1.7403,2.8929,9.6224,-0.0756,-0.0044,9.8063,0.1378,0.6408,0.0569,-24.06,-32.5,25.69,291.32,-82.58,160.49
37251,52.405365,-1.58147,182.33,11.51,3.0,194.79,24 / 24,3729327,2019-09-07 10:15:34:606,2.7411,3.178,11.0236,0.0133,-0.0396,9.8065,0.1419,0.7331,-0.0973,-24.94,-33.12,24.75,290.02,-82.28,162.01
37252,52.405365,-1.58147,182.33,11.51,3.0,194.79,24 / 24,3729427,2019-09-07 10:15:34:706,2.9115,4.4339,10.0215,-0.0409,0.0496,9.8064,0.1054,0.8151,-0.2726,-25.12,-33.0,23.69,289.16,-82.34,162.43
37253,52.405365,-1.58147,182.33,11.51,3.0,194.79,24 / 24,3729527,2019-09-07 10:15:34:806,1.2041,4.5322,8.2646,-0.0139,-0.0092,9.8066,-0.173,0.6262,0.05,-25.75,-33.81,21.81,284.27,-82.28,161.7
37254,52.405365,-1.58147,182.33,11.51,3.0,194.79,24 / 24,3729627,2019-09-07 10:15:34:906,0.7326,3.7845,8.4931,-0.0032,-0.0779,9.8063,0.0154,0.5172,0.2651,-27.06,-34.0,21.06,286.73,-82.31,166.38
37255,52.405365,-1.58147,182.33,11.51,3.0,194.79,24 / 24,3729728,2019-09-07 10:15:35:007,3.1109,3.6968,10.3502,-0.0533,0.0096,9.8064,0.5802,0.6028,0.0302,-27.94,-32.94,20.63,292.65,-81.45,173.51
37256,52.405365,-1.58147,182.33,11.51,3.0,194.79,24 / 24,3729827,2019-09-07 10:15:35:106,2.5877,2.1121,11.138,-0.1341,-0.0133,9.8057,0.2821,0.4994,0.1507,-28.81,-33.0,20.81,296.94,-81.44,178.37
37257,52.405365,-1.58147,182.33,11.51,3.0,194.79,24 / 24,3729927,2019-09-07 10:15:35:206,2.4952,-2.7079,11.0403,0.05,-0.1321,9.8056,-0.0057,0.4058,0.0332,-30.62,-33.0,20.31,302.65,-81.43,-173.38
37258,52.405365,-1.58147,182.33,11.51,3.0,194.79,24 / 24,3730027,2019-09-07 10:15:35:306,1.4816,-0.0463,11.4399,-0.0791,-0.0058,9.8063,0.5914,0.2853,0.0379,-29.75,-32.44,19.94,311.03,-81.29,-166.48
37259,52.405365,-1.58147,182.33,11.51,3.0,194.79,24 / 24,3730127,2019-09-07 10:15:35:406,2.8271,-0.1118,9.1901,0.074,-0.0732,9.806,-0.2665,0.1787,0.0362,-30.94,-32.0,19.13,310.68,-80.54,-164.09
37260,52.405365,-1.58147,182.33,11.51,3.0,194.79,24 / 24,3730227,2019-09-07 10:15:35:506,-1.0643,-3.5093,10.3783,0.0026,-0.0305,9.8065,0.217,-0.0955,0.3136,-31.44,-31.06,19.63,316.17,-80.76,-160.9
37261,52.405365,-1.58147,182.33,11.51,3.0,194.79,24 / 24,3730327,2019-09-07 10:15:35:606,0.7983,-2.8565,10.294,0.0092,-0.0516,9.8064,0.2049,-0.0106,-0.0782,-32.0,-31.62,19.94,318.29,-80.47,-157.93
37262,52.405365,-1.58147,182.33,11.51,3.0,194.79,24 / 24,3730427,2019-09-07 10:15:35:706,0.5081,-2.8667,10.6284,-0.0464,0.0053,9.8065,0.2178,-0.1005,0.1153,-31.87,-31.19,19.38,319.26,-80.4,-155.81
37263,52.405365,-1.58147,182.33,11.51,3.0,194.79,24 / 24,3730527,2019-09-07 10:15:35:806,-0.1411,-2.2158,10.5633,0.0434,-0.0227,9.8065,-0.0444,-0.1637,-0.014,-31.69,-31.81,20.13,321.62,-80.4,-154.93
37264,52.405365,-1.58147,182.33,11.51,3.0,194.79,24 / 24,3730628,2019-09-07 10:15:35:907,-0.9399,-2.1593,10.3019,-0.0061,0.0048,9.8066,0.1874,-0.2102,0.0667,-32.19,-31.44,20.88,323.23,-80.39,-154.99
37265,52.405365,-1.58147,182.33,11.51,3.0,194.79,24 / 24,3730727,2019-09-07 10:15:36:006,0.2662,-3.2525,10.7194,0.0376,-0.0374,9.8064,-0.1197,-0.2438,0.0113,-31.81,-30.94,20.81,323.73,-80.1,-154.38
37266,52.405365,-1.58147,182.33,11.51,3.0,194.79,24 / 24,3730827,2019-09-07 10:15:36:106,-0.9567,-1.4014,10.5076,0.0562,-0.0256,9.8064,-0.0686,-0.2075,-0.0396,-31.5,-31.0,20.94,323.97,-80.01,-154.86
37267,52.405365,-1.58147,182.33,11.51,3.0,194.79,24 / 24,3730928,2019-09-07 10:15:36:207,-0.5049,-1.6978,9.7437,0.0249,0.0061,9.8066,-0.0524,-0.2364,0.0305,-31.25,-31.06,21.69,324.44,-79.91,-155.71
37268,52.405365,-1.58147,182.33,11.51,3.0,194.79,24 / 24,3731027,2019-09-07 10:15:36:306,-2.1025,-4.0928,9.842,-0.0051,0.0087,9.8066,-0.0885,-0.3479,0.0486,-31.37,-30.25,22.56,324.43,-79.84,-157.12
37269,52.405365,-1.58147,182.33,11.51,3.0,194.79,24 / 24,3731127,2019-09-07 10:15:36:406,-0.1789,-1.0365,10.4692,0.0085,0.0395,9.8065,0.1311,-0.2865,-0.0079,-30.56,-30.87,22.5,321.15,-80.1,-160.01
37270,52.405365,-1.58147,182.33,11.51,3.0,194.79,24 / 24,3731227,2019-09-07 10:15:36:506,0.4078,-1.0858,9.8203,-0.0307,0.0914,9.8061,0.1936,-0.0999,-0.1762,-29.62,-30.87,22.75,319.47,-80.57,-162.58
37271,52.405365,-1.58147,182.33,11.51,3.0,194.79,24 / 24,3731327,2019-09-07 10:15:36:606,2.6597,0.6062,9.8635,0.1044,-0.017,9.806,0.026,0.1328,-0.3125,-29.44,-31.69,24.0,316.7,-80.92,-167.25
37272,52.405365,-1.58147,182.33,11.51,3.0,194.79,24 / 24,3731428,2019-09-07 10:15:36:707,2.5861,-0.2325,10.062,0.0684,0.0345,9.8063,0.1616,0.028,-0.0924,-28.5,-31.94,23.88,309.34,-80.68,-174.6
37273,52.405365,-1.58147,182.33,11.51,3.0,194.79,24 / 24,3731527,2019-09-07 10:15:36:806,2.1924,0.7485,10.4694,0.0405,0.0292,9.8064,-0.1432,0.0486,-0.1192,-27.87,-31.75,23.25,304.0,-80.78,-178.25
37274,52.405365,-1.58147,182.33,11.51,3.0,194.79,24 / 24,3731627,2019-09-07 10:15:36:906,0.8306,1.8934,9.4402,0.0635,0.0082,9.8064,-0.1649,0.0922,-0.1387,-27.87,-32.19,22.63,298.81,-80.63,177.05
37275,52.405365,-1.58147,182.33,11.51,3.0,194.79,24 / 24,3731727,2019-09-07 10:15:37:006,0.8544,1.4955,9.7,-0.0099,0.0442,9.8065,-0.0487,0.1293,-0.1166,-27.19,-32.81,22.38,294.01,-80.88,173.08
37276,52.405365,-1.58147,182.33,11.51,3.0,194.79,24 / 24,3731828,2019-09-07 10:15:37:107,-0.2826,0.8567,9.2725,0.0383,0.0241,9.8064,-0.2205,0.139,0.0012,-27.5,-33.12,22.0,291.18,-80.68,170.58
37277,52.405365,-1.58147,182.33,11.51,3.0,194.79,24 / 24,3731927,2019-09-07 10:15:37:206,0.461,1.3154,10.142,-0.0306,0.0406,9.8064,0.1551,0.2071,-0.0864,-26.94,-32.69,21.94,290.1,-80.57,169.67
37278,52.405365,-1.58147,182.33,11.51,3.0,194.79,24 / 24,3732028,2019-09-07 10:15:37:307,0.0401,0.5236,10.1862,-0.0395,0.0392,9.8065,0.0553,0.1252,0.0133,-26.62,-32.37,21.69,287.91,-80.76,167.12
37279,52.40476,-1.581338,179.98,9.17,3.0,108.62,24 / 24,3732129,2019-09-07 10:15:37:408,-0.084,1.4965,9.6086,-0.0244,0.0194,9.8066,-0.0661,0.3112,-0.1734,-26.44,-32.5,21.56,288.33,-80.52,166.88
37280,52.40476,-1.581338,179.98,9.17,3.0,108.62,24 / 24,3732227,2019-09-07 10:15:37:506,1.0425,2.2119,10.3574,0.0321,-0.0016,9.8065,0.0205,0.0575,-0.0082,-25.31,-32.31,20.13,284.46,-80.58,165.23
37281,52.40476,-1.581338,179.98,9.17,3.0,108.62,24 / 24,3732327,2019-09-07 10:15:37:606,-0.2834,1.6902,10.3111,0.0613,-0.0146,9.8063,-0.0183,0.0117,0.082,-25.75,-32.62,19.0,280.89,-80.24,164.85
37282,52.40476,-1.581338,179.98,9.17,3.0,108.62,24 / 24,3732427,2019-09-07 10:15:37:706,0.0334,-0.9757,9.1893,-0.009,0.0156,9.8066,-0.0758,0.0892,-0.0309,-26.94,-32.25,18.0,278.68,-80.37,164.63
37283,52.40476,-1.581338,179.98,9.17,3.0,108.62,24 / 24,3732527,2019-09-07 10:15:37:806,-1.6835,-0.4186,9.4202,0.0152,-0.0088,9.8065,-0.1371,-0.0326,0.0861,-27.87,-33.0,18.13,277.14,-80.26,164.23
37284,52.40476,-1.581338,179.98,9.17,3.0,108.62,24 / 24,3732627,2019-09-07 10:15:37:906,-0.0961,-1.7182,9.8471,-0.043,0.0272,9.8064,0.1834,-0.0293,0.0663,-29.19,-33.56,18.75,278.52,-80.13,165.13
37285,52.40476,-1.581338,179.98,9.17,3.0,108.62,24 / 24,3732727,2019-09-07 10:15:38:006,-0.5045,-1.3298,10.1307,-0.0311,0.0086,9.8066,0.1192,-0.0208,0.0664,-29.25,-33.81,20.06,279.58,-80.32,164.47
37286,52.40476,-1.581338,179.98,9.17,3.0,108.62,24 / 24,3732828,2019-09-07 10:15:38:107,1.033,0.1112,9.9024,0.0304,0.0017,9.8066,0.1474,-0.0045,-0.0459,-28.69,-32.56,20.63,281.59,-79.98,165.03
37287,52.40476,-1.581338,179.98,9.17,3.0,108.62,24 / 24,3732927,2019-09-07 10:15:38:206,0.9802,-0.1517,9.9368,-0.0127,0.0175,9.8065,0.1794,0.1005,-0.0869,-27.62,-33.0,20.31,279.8,-79.83,164.17
37288,52.40476,-1.581338,179.98,9.17,3.0,108.62,24 / 24,3733027,2019-09-07 10:15:38:306,0.005,0.9494,10.0767,0.0497,-0.0168,9.8065,-0.1617,0.089,-0.0309,-26.87,-32.31,19.5,279.49,-79.54,163.1
37289,52.40476,-1.581338,179.98,9.17,3.0,108.62,24 / 24,3733127,2019-09-07 10:15:38:406,-0.5087,-0.0395,10.1748,0.0278,-0.0024,9.8065,-0.0577,0.0429,-0.0173,-27.0,-32.31,18.0,275.55,-79.68,162.24
37290,52.40476,-1.581338,179.98,9.17,3.0,108.62,24 / 24,3733227,2019-09-07 10:15:38:506,0.5535,0.5278,9.7129,0.0195,0.011,9.8066,0.0058,0.0522,-0.0484,-27.69,-32.31,17.88,274.44,-79.68,161.83
37291,52.40476,-1.581338,179.98,9.17,3.0,108.62,24 / 24,3733327,2019-09-07 10:15:38:606,-0.5036,-0.1348,9.158,0.0061,0.0109,9.8066,0.0317,0.0469,-0.0487,-28.5,-32.94,18.5,274.66,-79.51,160.94
37292,52.40476,-1.581338,179.98,9.17,3.0,108.62,24 / 24,3733427,2019-09-07 10:15:38:706,-0.1991,-0.7103,9.1491,-0.0074,0.0148,9.8065,0.003,0.089,-0.0557,-28.25,-33.12,19.5,276.09,-79.4,160.93
37293,52.40476,-1.581338,179.98,9.17,3.0,108.62,24 / 24,3733528,2019-09-07 10:15:38:807,-1.3457,0.8761,9.8726,0.0047,0.0025,9.8066,0.1889,0.0716,-0.0467,-27.87,-33.12,19.44,274.31,-79.52,160.59
37294,52.40476,-1.581338,179.98,9.17,3.0,108.62,24 / 24,3733627,2019-09-07 10:15:38:906,-0.0654,1.3367,9.8262,-0.0093,0.0138,9.8066,0.1134,0.0221,-0.0592,-27.87,-32.19,19.25,273.73,-79.56,159.65
37295,52.40476,-1.581338,179.98,9.17,3.0,108.62,24 / 24,3733727,2019-09-07 10:15:39:006,0.2898,-0.66,10.9491,-0.0371,-0.0045,9.8065,0.1617,0.056,0.0444,-27.31,-32.75,19.38,275.19,-79.57,160.7
37296,52.40476,-1.581338,179.98,9.17,3.0,108.62,24 / 24,3733827,2019-09-07 10:15:39:106,-0.903,-0.6016,10.1131,0.0259,-0.0076,9.8065,0.1709,-0.0203,0.0058,-27.94,-31.87,19.13,274.75,-79.39,160.84
37297,52.40476,-1.581338,179.98,9.17,3.0,108.62,24 / 24,3733927,2019-09-07 10:15:39:206,-0.3692,-0.53,10.3117,-0.0409,0.0109,9.8065,0.0792,0.0498,0.0181,-28.12,-32.31,18.44,273.35,-79.28,161.13
37298,52.40476,-1.581338,179.98,9.17,3.0,108.62,24 / 24,3734027,2019-09-07 10:15:39:306,0.1162,-1.1924,9.9729,0.0529,-0.0079,9.8065,0.1245,-0.0098,-0.0272,-28.25,-31.44,18.69,275.08,-79.25,160.98
37299,52.40476,-1.581338,179.98,9.17,3.0,108.62,24 / 24,3734128,2019-09-07 10:15:39:407,-0.5575,-0.7195,10.6766,0.0344,-0.0191,9.8065,-0.0992,0.068,-0.0131,-28.62,-32.81,19.38,273.59,-78.95,161.12
37300,52.40476,-1.581338,179.98,9.17,3.0,108.62,24 / 24,3734227,2019-09-07 10:15:39:506,0.411,0.1891,9.9981,0.0416,-0.0098,9.8065,-0.0134,0.0565,0.0478,-28.62,-32.12,19.38,273.64,-78.87,160.92
37301,52.40476,-1.581338,179.98,9.17,3.0,108.62,24 / 24,3734328,2019-09-07 10:15:39:607,-1.6963,2.1242,9.6995,0.0677,-0.0389,9.8063,-0.2555,0.1293,-0.0632,-28.5,-32.5,18.81,274.71,-78.67,161.53
37302,52.40476,-1.581338,179.98,9.17,3.0,108.62,24 / 24,3734427,2019-09-07 10:15:39:706,1.0944,0.873,9.0045,-0.0205,0.0051,9.8066,0.0148,0.1069,-0.014,-27.94,-32.0,18.94,275.31,-78.61,162.19
37303,52.40476,-1.581338,179.98,9.17,3.0,108.62,24 / 24,3734527,2019-09-07 10:15:39:806,-0.4154,-0.3525,9.2594,0.0375,-0.019,9.8065,-0.0617,0.0822,0.0094,-28.62,-32.0,19.25,275.69,-78.56,163.29
37304,52.40476,-1.581338,179.98,9.17,3.0,108.62,24 / 24,3734627,2019-09-07 10:15:39:906,-0.7458,-0.1943,10.189,-0.0478,0.021,9.8064,-0.1048,0.126,-0.0385,-29.69,-31.19,19.31,275.55,-78.36,163.63
37305,52.40476,-1.581338,179.98,9.17,3.0,108.62,24 / 24,3734728,2019-09-07 10:15:40:007,-1.225,-0.0215,9.4521,-0.0173,-0.0098,9.8066,0.0112,0.1279,0.0898,-29.37,-31.37,19.38,277.46,-78.37,164.89
37306,52.40476,-1.581338,179.98,9.17,3.0,108.62,24 / 24,3734827,2019-09-07 10:15:40:106,0.5341,3.1336,9.2199,-0.0488,0.0472,9.8064,-0.3248,0.2246,-0.1456,-28.69,-31.0,20.31,279.15,-78.31,165.1
37307,52.40476,-1.581338,179.98,9.17,3.0,108.62,24 / 24,3734928,2019-09-07 10:15:40:207,0.9746,1.2798,8.8906,0.0327,-0.0188,9.8065,0.171,-0.0734,0.0717,-28.37,-31.69,20.44,280.35,-77.73,166.52
37308,52.40476,-1.581338,179.98,9.17,3.0,108.62,24 / 24,3735028,2019-09-07 10:15:40:307,0.4574,0.5579,10.0701,-0.0823,0.0318,9.8062,-0.0543,0.1145,-0.0114,-28.31,-31.0,20.06,280.58,-77.54,166.57
37309,52.40476,-1.581338,179.98,9.17,3.0,108.62,24 / 25,3735127,2019-09-07 10:15:40:406,-1.8307,1.4489,9.1824,-0.1245,0.0516,9.8057,0.6063,-0.0671,0.0719,-28.0,-32.0,19.38,279.01,-77.41,167.1
37310,52.40476,-1.581338,179.98,9.17,3.0,108.62,24 / 25,3735227,2019-09-07 10:15:40:506,-0.3889,-0.7471,9.4905,0.0172,-0.0386,9.8065,0.5076,0.0419,-0.035,-29.37,-31.87,19.25,279.25,-77.62,167.76
37311,52.40476,-1.581338,179.98,9.17,3.0,108.62,24 / 25,3735327,2019-09-07 10:15:40:606,1.4871,-2.0963,10.0076,-0.1009,0.0349,9.806,0.1061,0.0286,0.0267,-29.19,-32.25,19.0,279.67,-78.02,167.78
37312,52.40476,-1.581338,179.98,9.17,3.0,108.62,24 / 25,3735427,2019-09-07 10:15:40:706,0.7374,0.0357,10.7652,0.0524,-0.0149,9.8065,0.2093,0.0549,-0.0278,-29.62,-32.31,18.94,278.17,-78.12,166.8
37313,52.40476,-1.581338,179.98,9.17,3.0,108.62,24 / 25,3735527,2019-09-07 10:15:40:806,-0.2604,-0.0817,10.7023,0.0121,-0.0014,9.8066,-0.1056,0.0584,-0.0402,-29.81,-33.0,18.75,277.44,-78.11,166.44
37314,52.40476,-1.581338,179.98,9.17,3.0,108.62,24 / 25,3735627,2019-09-07 10:15:40:906,0.5027,1.5455,10.5995,0.0565,-0.0285,9.8063,0.2034,0.042,0.0873,-29.25,-32.75,19.44,277.95,-78.18,166.26
37315,52.40476,-1.581338,179.98,9.17,3.0,108.62,24 / 25,3735727,2019-09-07 10:15:41:006,0.6882,-1.1743,10.6637,0.0406,-0.0202,9.8064,-0.0348,0.0238,0.001,-28.44,-32.44,19.94,280.82,-77.51,167.21
37316,52.40476,-1.581338,179.98,9.17,3.0,108.62,24 / 25,3735828,2019-09-07 10:15:41:107,1.0134,-0.459,10.2989,0.0282,-0.0237,9.8065,0.0379,0.0511,0.0351,-28.12,-32.75,19.88,281.3,-77.16,168.41
37317,52.40476,-1.581338,179.98,9.17,3.0,108.62,24 / 25,3735927,2019-09-07 10:15:41:206,-0.0378,-0.4483,9.1785,0.0164,-0.0068,9.8066,-0.0412,-0.0164,-0.0165,-28.62,-33.19,19.69,281.05,-77.15,168.82
37318,52.40476,-1.581338,179.98,9.17,3.0,108.62,24 / 25,3736027,2019-09-07 10:15:41:306,-0.7269,-0.6209,9.937,-0.0135,-0.0012,9.8066,0.0583,-0.0293,0.0261,-28.62,-33.12,19.81,281.03,-77.39,168.57
37319,52.40476,-1.581338,179.98,9.17,3.0,108.62,24 / 25,3736127,2019-09-07 10:15:41:406,-0.1385,-0.467,10.2315,-0.0283,0.0129,9.8065,-0.0414,-0.0265,-0.0103,-28.87,-32.62,18.94,279.48,-77.37,168.61
37320,52.40476,-1.581338,179.98,9.17,3.0,108.62,24 / 25,3736227,2019-09-07 10:15:41:506,-0.2856,0.6223,10.3597,0.0325,0.0039,9.8065,0.1085,0.0234,-0.0169,-28.56,-33.62,19.19,277.88,-77.33,167.45
37321,52.40476,-1.581338,179.98,9.17,3.0,108.62,24 / 25,3736327,2019-09-07 10:15:41:606,1.5971,-0.891,10.2435,0.0721,-0.0227,9.8063,-0.1266,0.0231,-0.0613,-27.87,-33.12,19.5,279.74,-77.19,166.85
37322,52.40476,-1.581338,179.98,9.17,3.0,108.62,24 / 25,3736427,2019-09-07 10:15:41:706,-1.2171,-1.0414,9.9999,0.0637,-0.0179,9.8064,-0.0581,-0.1077,0.0673,-27.87,-33.5,19.88,279.2,-76.52,167.03
37323,52.40476,-1.581338,179.98,9.17,3.0,108.62,24 / 25,3736528,2019-09-07 10:15:41:807,-0.5195,0.4344,9.4818,-0.0286,0.0044,9.8065,0.0436,-0.0935,0.0568,-28.25,-32.5,20.25,279.87,-76.55,167.25
37324,52.40476,-1.581338,179.98,9.17,3.0,108.62,24 / 25,3736628,2019-09-07 10:15:41:907,-0.0849,-0.251,9.7179,-0.0047,-0.0022,9.8066,-0.0523,-0.046,0.0227,-28.56,-32.19,19.25,278.4,-76.47,168.09
37325,52.40476,-1.581338,179.98,9.17,3.0,108.62,24 / 25,3736728,2019-09-07 10:15:42:007,-0.9931,-0.6436,9.0644,-0.0158,-0.0133,9.8066,-0.0128,-0.0252,0.0706,-28.12,-32.31,19.75,281.21,-76.57,168.55
37326,52.40476,-1.581338,179.98,9.17,3.0,108.62,24 / 25,3736827,2019-09-07 10:15:42:106,0.1238,-0.3853,8.6209,-0.0337,-0.007,9.8066,0.0622,-0.0771,0.1273,-28.81,-32.19,19.56,282.03,-76.86,169.71
37327,52.40476,-1.581338,179.98,9.17,3.0,108.62,24 / 25,3736927,2019-09-07 10:15:42:206,-0.1963,-2.681,10.317,0.0199,-0.0375,9.8065,-0.1285,-0.0124,-0.0163,-29.19,-31.31,20.06,283.39,-77.07,170.45
37328,52.40476,-1.581338,179.98,9.17,3.0,108.62,24 / 25,3737027,2019-09-07 10:15:42:306,-1.7941,-0.3092,10.1964,0.0069,-0.0168,9.8066,-0.0008,0.0056,0.0665,-30.06,-30.75,19.44,282.38,-77.01,171.68
37329,52.40476,-1.581338,179.98,9.17,3.0,108.62,24 / 25,3737128,2019-09-07 10:15:42:407,-0.951,-0.3644,9.9859,-0.0138,-0.0246,9.8065,0.2226,0.0179,0.0229,-30.37,-29.87,18.56,283.44,-77.05,172.3
37330,52.40476,-1.581338,179.98,9.17,3.0,108.62,24 / 25,3737227,2019-09-07 10:15:42:506,-0.5514,-2.0613,10.1374,-0.0315,-0.0065,9.8066,0.1765,-0.0451,-0.006,-30.31,-28.81,19.06,285.23,-76.92,173.8
37331,52.40476,-1.581338,179.98,9.17,3.0,108.62,24 / 25,3737327,2019-09-07 10:15:42:606,-0.1753,-0.0151,9.9371,0.0258,-0.0124,9.8065,-0.011,-0.0125,0.0179,-30.37,-29.25,20.0,287.1,-76.62,174.37
37332,52.40476,-1.581338,179.98,9.17,3.0,108.62,24 / 25,3737427,2019-09-07 10:15:42:706,-0.4755,0.2285,9.651,0.0195,-0.0036,9.8066,-0.0689,0.0515,-0.0098,-30.31,-29.69,19.81,286.67,-76.48,174.45
37333,52.40476,-1.581338,179.98,9.17,3.0,108.62,24 / 25,3737527,2019-09-07 10:15:42:806,-1.9136,-0.485,9.7459,-0.0316,0.0093,9.8065,-0.0245,-0.0565,0.0113,-29.69,-30.94,20.94,288.36,-76.8,174.67
37334,52.40476,-1.581338,179.98,9.17,3.0,108.62,24 / 25,3737627,2019-09-07 10:15:42:906,-0.533,0.1241,9.6863,-0.0092,0.0,9.8066,-0.0217,0.0218,-0.1003,-29.5,-30.25,20.31,287.94,-76.83,174.7
37335,52.40476,-1.581338,179.98,9.17,3.0,108.62,24 / 25,3737728,2019-09-07 10:15:43:007,-1.6189,-0.1948,9.6277,0.0041,-0.0044,9.8066,0.0371,0.0211,0.0369,-29.87,-31.06,20.06,286.51,-76.79,174.38
37336,52.40476,-1.581338,179.98,9.17,3.0,108.62,24 / 25,3737828,2019-09-07 10:15:43:107,-0.8643,-0.6269,10.2905,-0.0126,-0.002,9.8066,-0.0038,0.0034,0.0124,-30.25,-30.44,19.63,286.93,-76.78,174.43
37337,52.40476,-1.581338,179.98,9.17,3.0,108.62,24 / 25,3737928,2019-09-07 10:15:43:207,-1.569,-0.2312,10.2706,0.0078,-0.0076,9.8066,0.106,-0.0226,-0.0034,-31.94,-30.87,18.88,284.26,-76.78,174.85
37338,52.40476,-1.581338,179.98,9.17,3.0,108.62,24 / 25,3738028,2019-09-07 10:15:43:307,-0.8945,-0.3513,10.1095,-0.0299,0.0049,9.8065,0.2124,0.0023,0.0469,-32.19,-31.56,21.06,287.26,-76.85,175.15
37339,52.40476,-1.581338,179.98,9.17,3.0,108.62,24 / 25,3738127,2019-09-07 10:15:43:406,-0.8312,-1.0001,10.6042,0.0484,-0.0261,9.8065,-0.1413,-0.0019,-0.0346,-30.94,-31.87,22.13,289.58,-76.47,175.7
37340,52.40476,-1.581338,179.98,9.17,3.0,108.62,24 / 25,3738227,2019-09-07 10:15:43:506,-1.21,1.1733,9.8374,0.0486,-0.0244,9.8065,-0.0154,0.0357,-0.0887,-29.87,-31.94,21.88,290.18,-76.47,175.61
37341,52.40476,-1.581338,179.98,9.17,3.0,108.62,24 / 25,3738328,2019-09-07 10:15:43:607,-1.0949,-0.2366,9.9859,0.014,0.0055,9.8066,-0.103,0.0224,-0.0145,-29.69,-32.12,21.19,288.36,-76.58,175.23
37342,52.40476,-1.581338,179.98,9.17,3.0,108.62,24 / 25,3738427,2019-09-07 10:15:43:706,-1.2739,0.4777,9.7295,0.0221,-0.0084,9.8066,-0.0897,0.0304,-0.0343,-29.56,-32.12,21.75,289.19,-76.45,174.7
37343,52.40476,-1.581338,179.98,9.17,3.0,108.62,24 / 25,3738528,2019-09-07 10:15:43:807,-1.1496,0.2794,9.5224,-0.0117,0.0058,9.8065,0.0029,-0.0461,0.0083,-29.75,-32.56,20.81,287.08,-76.36,174.59
37344,52.40476,-1.581338,179.98,9.17,3.0,108.62,24 / 25,3738628,2019-09-07 10:15:43:907,-2.0678,0.2565,9.6818,0.0357,-0.0069,9.8065,-0.1018,-0.0124,0.0501,-30.06,-32.0,21.5,288.72,-76.23,174.46
37345,52.40476,-1.581338,179.98,9.17,3.0,108.62,24 / 25,3738727,2019-09-07 10:15:44:006,-1.5598,-0.5278,9.975,-0.0114,0.0054,9.8066,0.0914,-0.0888,0.0378,-29.75,-32.25,21.19,287.67,-76.24,174.9
37346,52.40476,-1.581338,179.98,9.17,3.0,108.62,24 / 25,3738827,2019-09-07 10:15:44:106,-1.6638,-0.2101,10.018,-0.0179,0.0066,9.8065,0.0485,-0.091,-0.0002,-29.94,-31.62,21.63,289.39,-76.25,175.08
37347,52.40476,-1.581338,179.98,9.17,3.0,108.62,24 / 25,3738927,2019-09-07 10:15:44:206,-2.0493,1.2114,9.8406,-0.0106,-0.0042,9.8066,0.176,-0.0577,0.0781,-29.56,-32.25,21.31,288.04,-76.14,175.35
37348,52.40476,-1.581338,179.98,9.17,3.0,108.62,24 / 25,3739027,2019-09-07 10:15:44:306,-1.3629,-0.0033,10.3143,-0.0213,0.0058,9.8065,0.1587,0.0053,0.0116,-29.0,-31.69,21.94,290.97,-76.24,175.89
37349,52.40476,-1.581338,179.98,9.17,3.0,108.62,24 / 25,3739127,2019-09-07 10:15:44:406,-1.2396,-0.1043,10.2128,0.0493,-0.0093,9.8065,-0.0461,-0.0111,-0.026,-29.5,-32.37,21.75,291.29,-76.27,176.18
37350,52.40476,-1.581338,179.98,9.17,3.0,108.62,24 / 25,3739227,2019-09-07 10:15:44:506,-2.6064,0.3073,9.2611,0.0405,-0.0025,9.8065,-0.0539,-0.0604,0.0299,-29.25,-32.31,21.5,290.07,-76.06,175.23
37351,52.40476,-1.581338,179.98,9.17,3.0,108.62,24 / 25,3739327,2019-09-07 10:15:44:606,-2.5938,1.2546,9.6299,-0.025,0.0168,9.8065,0.0463,0.0088,-0.0032,-29.31,-32.31,21.31,288.46,-76.31,174.94
37352,52.40476,-1.581338,179.98,9.17,3.0,108.62,24 / 25,3739427,2019-09-07 10:15:44:706,-1.1553,0.4688,9.8947,-0.0284,0.0074,9.8065,0.1034,0.0604,-0.0431,-30.12,-31.12,21.19,288.36,-76.42,175.02
37353,52.40476,-1.581338,179.98,9.17,3.0,108.62,24 / 25,3739527,2019-09-07 10:15:44:806,-2.4083,0.7677,10.0406,0.0201,-0.0178,9.8066,-0.0187,0.0187,0.0087,-29.62,-31.69,22.0,289.24,-76.37,174.83
37354,52.40476,-1.581338,179.98,9.17,3.0,108.62,24 / 25,3739627,2019-09-07 10:15:44:906,-2.0297,0.9463,9.6923,0.0367,-0.0066,9.8065,-0.017,0.0316,-0.0203,-29.87,-32.31,21.06,287.67,-76.06,175.07
37355,52.40476,-1.581338,179.98,9.17,3.0,108.62,24 / 25,3739728,2019-09-07 10:15:45:007,-1.6511,0.5418,9.193,0.0084,-0.0117,9.8066,-0.0193,-0.0028,0.0409,-29.75,-32.25,21.56,289.04,-75.96,175.02
37356,52.40476,-1.581338,179.98,9.17,3.0,108.62,24 / 25,3739828,2019-09-07 10:15:45:107,-1.2665,0.443,9.5091,0.0037,-0.0153,9.8066,-0.0025,0.0112,0.036,-29.31,-31.62,22.0,290.49,-75.9,175.78
37357,52.40476,-1.581338,179.98,9.17,3.0,108.62,24 / 25,3739927,2019-09-07 10:15:45:206,-1.2736,-0.5888,9.619,-0.0083,-0.001,9.8066,-0.1401,0.052,-0.021,-29.5,-30.69,21.19,290.07,-76.08,176.3
37358,52.40476,-1.581338,179.98,9.17,3.0,108.62,24 / 25,3740027,2019-09-07 10:15:45:306,-0.9644,0.0025,9.6945,-0.0068,-0.0024,9.8066,-0.0911,0.0208,0.0146,-29.06,-31.69,21.56,291.39,-76.34,176.2
37359,52.40476,-1.581338,179.98,9.17,3.0,108.62,24 / 25,3740127,2019-09-07 10:15:45:406,-1.7522,1.2937,9.7237,-0.0151,0.0128,9.8066,-0.0288,0.046,-0.0421,-29.87,-31.56,21.19,289.25,-76.55,176.1
37360,52.40476,-1.581338,179.98,9.17,3.0,108.62,24 / 25,3740227,2019-09-07 10:15:45:506,-2.0169,0.9138,9.6736,0.0018,0.001,9.8066,-0.0597,-0.0175,0.0164,-29.69,-30.44,21.81,291.35,-76.64,175.87
37361,52.40476,-1.581338,179.98,9.17,3.0,108.62,24 / 25,3740327,2019-09-07 10:15:45:606,-1.258,0.6157,9.4416,-0.0147,0.0058,9.8065,0.1299,0.0193,0.0286,-30.06,-31.5,21.38,289.68,-76.5,176.2
37362,52.40476,-1.581338,179.98,9.17,3.0,108.62,24 / 25,3740428,2019-09-07 10:15:45:707,-0.9086,0.8845,9.2811,0.0042,-0.0042,9.8066,0.0266,0.0829,0.0137,-29.56,-31.19,21.25,289.81,-76.34,176.47
37363,52.40476,-1.581338,179.98,9.17,3.0,108.62,24 / 25,3740527,2019-09-07 10:15:45:806,-0.1545,1.1667,9.3895,0.0053,-0.0038,9.8065,-0.0718,0.0844,-0.0139,-29.75,-31.44,21.19,289.83,-76.24,176.58
37364,52.40476,-1.581338,179.98,9.17,3.0,108.62,24 / 25,3740627,2019-09-07 10:15:45:906,-0.7833,1.4473,9.8799,-0.006,0.0003,9.8066,-0.0287,0.1007,-0.0264,-30.25,-32.06,20.69,289.76,-76.4,176.73
37365,52.40476,-1.581338,179.98,9.17,3.0,108.62,24 / 25,3740727,2019-09-07 10:15:46:006,-1.0953,2.3431,9.91,-0.0309,0.0068,9.8065,0.0047,0.1815,-0.0369,-29.25,-32.06,20.06,289.21,-76.53,176.93
37366,52.40476,-1.581338,179.98,9.17,3.0,108.62,24 / 25,3740828,2019-09-07 10:15:46:107,-0.7604,1.8713,9.6289,-0.0162,-0.0187,9.8065,-0.0126,0.164,0.0047,-30.37,-31.62,19.81,289.73,-76.79,177.81
37367,52.40476,-1.581338,179.98,9.17,3.0,108.62,24 / 25,3740927,2019-09-07 10:15:46:206,-0.4563,1.6698,9.9226,-0.0147,-0.0075,9.8066,0.1299,0.2274,0.0118,-30.75,-32.06,19.56,290.1,-76.79,178.77
37368,52.40476,-1.581338,179.98,9.17,3.0,108.62,24 / 25,3741028,2019-09-07 10:15:46:307,0.3532,2.693,10.0042,-0.0345,-0.0058,9.8065,0.1945,0.3139,0.0086,-31.0,-32.5,18.56,289.84,-76.84,179.96
37369,52.404625,-1.580164,178.07,5.77,3.0,94.04,24 / 24,3741127,2019-09-07 10:15:46:406,0.5534,0.1062,9.8202,-0.0501,-0.0228,9.8064,0.1841,0.4061,-0.1269,-31.44,-31.81,18.56,291.4,-76.8,-178.53
37370,52.404625,-1.580164,178.07,5.77,3.0,94.04,24 / 24,3741227,2019-09-07 10:15:46:506,0.3081,2.1406,8.9512,-0.0255,-0.0268,9.8065,-0.0731,0.3634,-0.0737,-30.69,-32.37,17.31,289.25,-76.55,-177.22
37371,52.404625,-1.580164,178.07,5.77,3.0,94.04,24 / 24,3741327,2019-09-07 10:15:46:606,-0.3162,1.3208,10.1657,-0.0437,-0.0005,9.8065,0.0881,0.2952,-0.0987,-31.12,-32.94,16.69,289.64,-76.55,-176.49
37372,52.404625,-1.580164,178.07,5.77,3.0,94.04,24 / 24,3741427,2019-09-07 10:15:46:706,1.1613,2.3152,9.8422,-0.0144,0.0048,9.8065,0.0444,0.3061,-0.0586,-31.56,-32.81,16.44,288.39,-76.82,-175.91
37373,52.404625,-1.580164,178.07,5.77,3.0,94.04,24 / 24,3741527,2019-09-07 10:15:46:806,0.9274,1.6003,9.5344,-0.0196,-0.0021,9.8065,-0.0171,0.2944,-0.0672,-31.56,-32.5,15.94,289.02,-76.86,-175.72
37374,52.404625,-1.580164,178.07,5.77,3.0,94.04,24 / 24,3741627,2019-09-07 10:15:46:906,0.8176,1.0029,10.4004,-0.0237,0.0108,9.8066,0.0455,0.2991,-0.0725,-30.62,-33.12,15.19,288.01,-77.16,-175.42
37375,52.404625,-1.580164,178.07,5.77,3.0,94.04,24 / 24,3741727,2019-09-07 10:15:47:006,0.4243,2.5779,10.036,0.0129,0.0099,9.8066,-0.0768,0.4308,-0.113,-31.87,-33.06,14.06,285.49,-77.36,-176.02
37376,52.404625,-1.580164,178.07,5.77,3.0,94.04,24 / 24,3741827,2019-09-07 10:15:47:106,0.2426,2.4041,9.7359,0.006,0.0065,9.8066,-0.0703,0.3798,-0.0758,-31.25,-33.37,13.19,283.24,-77.42,-176.89
37377,52.404625,-1.580164,178.07,5.77,3.0,94.04,24 / 24,3741927,2019-09-07 10:15:47:206,-0.0009,2.0478,9.1731,-0.0123,0.0125,9.8066,-0.0309,0.4498,-0.1652,-30.31,-33.81,12.69,283.1,-77.54,-177.12
37378,52.404625,-1.580164,178.07,5.77,3.0,94.04,24 / 24,3742028,2019-09-07 10:15:47:307,0.2612,3.0368,9.3488,-0.0094,0.0111,9.8066,0.0164,0.4192,-0.0908,-30.69,-34.37,11.44,278.42,-77.73,-178.08
37379,52.404625,-1.580164,178.07,5.77,3.0,94.04,24 / 24,3742127,2019-09-07 10:15:47:406,-0.3663,3.0271,9.4783,-0.0077,-0.0061,9.8066,-0.0975,0.4755,-0.1145,-30.69,-34.69,10.5,278.13,-77.89,-178.18
37380,52.404625,-1.580164,178.07,5.77,3.0,94.04,24 / 24,3742227,2019-09-07 10:15:47:506,-0.0153,2.7945,10.1045,-0.0079,-0.0071,9.8066,-0.0627,0.4746,-0.0405,-29.31,-34.94,9.13,275.67,-78.17,-177.54
37381,52.404625,-1.580164,178.07,5.77,3.0,94.04,24 / 24,3742327,2019-09-07 10:15:47:606,0.9608,1.0388,10.2887,-0.0047,-0.007,9.8066,-0.0786,0.4753,-0.097,-29.75,-34.69,9.0,277.17,-78.39,-176.21
37382,52.404625,-1.580164,178.07,5.77,3.0,94.04,24 / 24,3742427,2019-09-07 10:15:47:706,1.2124,4.3557,9.5729,0.0029,0.0126,9.8066,-0.0601,0.6001,-0.1518,-28.69,-34.44,7.63,275.49,-78.62,-176.74
37383,52.404625,-1.580164,178.07,5.77,3.0,94.04,24 / 24,3742527,2019-09-07 10:15:47:806,0.8692,2.5262,10.0308,0.0142,0.0106,9.8066,0.0686,0.4739,-0.1699,-28.19,-35.25,6.31,270.74,-78.8,-177.34
37384,52.404625,-1.580164,178.07,5.77,3.0,94.04,24 / 24,3742627,2019-09-07 10:15:47:906,0.1545,3.1963,10.2075,0.002,0.022,9.8066,-0.0093,0.5078,-0.1669,-28.19,-35.25,5.75,269.77,-78.98,-178.56
37385,52.404625,-1.580164,178.07,5.77,3.0,94.04,24 / 24,3742727,2019-09-07 10:15:48:006,0.6741,3.8728,9.7637,0.0168,-0.0021,9.8066,-0.093,0.4076,0.0305,-27.69,-35.19,4.75,267.84,-79.37,-178.99
37386,52.404625,-1.580164,178.07,5.77,3.0,94.04,24 / 24,3742827,2019-09-07 10:15:48:106,-0.8108,2.7399,10.1514,-0.0214,-0.0066,9.8066,0.002,0.5433,-0.1633,-27.62,-34.81,3.69,266.96,-79.63,-178.15
37387,52.404625,-1.580164,178.07,5.77,3.0,94.04,24 / 24,3742928,2019-09-07 10:15:48:207,0.1002,5.067,10.0311,0.0023,0.0251,9.8066,0.1144,0.6177,-0.1606,-26.06,-35.94,2.5,261.7,-79.62,179.42
37388,52.404625,-1.580164,178.07,5.77,3.0,94.04,24 / 24,3743028,2019-09-07 10:15:48:307,-0.5185,3.8292,10.4151,0.018,-0.0122,9.8066,0.1589,0.5555,-0.128,-25.31,-35.31,1.69,258.71,-79.31,178.9
37389,52.404625,-1.580164,178.07,5.77,3.0,94.04,24 / 24,3743127,2019-09-07 10:15:48:406,-1.058,2.7472,9.3159,0.0191,-0.018,9.8066,-0.106,0.498,0.0291,-24.69,-35.56,0.31,254.2,-79.22,179.2
37390,52.404625,-1.580164,178.07,5.77,3.0,94.04,24 / 24,3743227,2019-09-07 10:15:48:506,-1.5885,2.9785,8.8425,0.0176,0.0039,9.8066,-0.1228,0.6056,-0.1674,-24.56,-35.87,0.13,255.36,-79.16,-179.43
