,GPS LATITUDE (degrees),GPS LONGITUDE (degrees), GPS ALTITUDE (m),GPS SPEED (Kmh),GPS ACCURACY (m),GPS ORIENTATION (Â°), SATELLITES IN RANGE, TIME SINCE START (ms), DATE (YYYY-MO-DD HH-MI-SS_SSS),ACCELEROMETER X (m/s²) , ACCELEROMETER Y (m/s²), ACCELEROMETER Z (m/s²), GRAVITY X (m/s²), GRAVITY Y (m/s²), GRAVITY Z (m/s²), GYROSCOPE Yaw (rad/s), GYROSCOPE Pitch (rad/s), GYROSCOPE Roll (rad/s)
39739,47.999836,-1.693259,73.9,29.89,4.288,185.6,16 / 21,3974644,2019-08-18 16:19:57:181,-0.2047,-0.5177,9.2586,-0.1191,-0.6991,9.781,-0.0147,-0.0121,-0.0229
39740,47.999836,-1.693259,73.9,29.89,4.288,185.6,16 / 21,3974744,2019-08-18 16:19:57:281,-0.0778,-1.1097,9.4113,-0.1233,-0.7236,9.7791,-0.0083,0.0095,-0.0233
39741,47.999836,-1.693259,73.9,29.89,4.288,185.6,16 / 21,3974843,2019-08-18 16:19:57:380,-0.1424,-0.8092,9.6411,-0.128,-0.7264,9.7789,-0.003,0.0047,-0.0226
39742,47.999836,-1.693259,73.9,29.89,4.288,185.6,16 / 21,3974944,2019-08-18 16:19:57:481,-0.1149,-0.8895,10.3827,-0.1212,-0.7389,9.778,-0.0047,-0.0018,-0.0238
39743,47.999836,-1.693259,73.9,29.89,4.288,185.6,16 / 21,3975044,2019-08-18 16:19:57:581,-0.0335,-1.0127,10.3749,-0.1158,-0.7489,9.7773,-0.0032,0.0012,-0.0242
39744,47.99743,-1.693735,75.2,30.3,3.216,191.6,16 / 21,3975143,2019-08-18 16:19:57:680,-0.0047,-1.1085,10.3384,-0.1161,-0.7548,9.7769,-0.0001,0.0046,-0.024
39745,47.99743,-1.693735,75.2,30.3,3.216,191.6,16 / 21,3975243,2019-08-18 16:19:57:780,0.3478,-1.0846,10.3654,-0.1089,-0.7574,9.7768,-0.0032,-0.0139,-0.0235
39746,47.99743,-1.693735,75.2,30.3,3.216,191.6,16 / 21,3975343,2019-08-18 16:19:57:880,0.042,-0.8027,9.2814,-0.1014,-0.7591,9.7767,-0.0055,-0.0003,-0.0238
39747,47.99743,-1.693735,75.2,30.3,3.216,191.6,16 / 21,3975443,2019-08-18 16:19:57:980,-0.0909,-0.8015,9.7716,-0.0999,-0.7649,9.7763,0.0035,0.0047,-0.023
39748,47.99743,-1.693735,75.2,30.3,3.216,191.6,16 / 21,3975544,2019-08-18 16:19:58:081,-0.0041,-0.644,9.7105,-0.0974,-0.7654,9.7762,0.0101,-0.0049,-0.0238
39749,47.99743,-1.693735,75.2,30.3,3.216,191.6,16 / 21,3975643,2019-08-18 16:19:58:180,-0.0963,-0.7596,9.2407,-0.0853,-0.7625,9.7766,0.0034,-0.0038,-0.025
39750,47.99743,-1.693735,75.2,30.3,3.216,191.6,16 / 21,3975743,2019-08-18 16:19:58:280,0.0821,-0.6452,10.1792,-0.0802,-0.7585,9.7769,0.0087,-0.006,-0.0226
39751,47.99743,-1.693735,75.2,30.3,3.216,191.6,16 / 21,3975843,2019-08-18 16:19:58:380,0.179,-1.1259,9.6579,-0.0664,-0.7473,9.7779,0.0019,-0.0013,-0.0215
39752,47.99743,-1.693735,75.2,30.3,3.216,191.6,16 / 21,3975943,2019-08-18 16:19:58:480,0.0898,-0.8302,10.1624,-0.0644,-0.749,9.7778,-0.0016,-0.0075,-0.0216
39753,47.99743,-1.693735,75.2,30.3,3.216,191.6,16 / 21,3976043,2019-08-18 16:19:58:580,-0.0532,-1.0654,10.2756,-0.0597,-0.7438,9.7782,0.0086,-0.003,-0.02
39754,47.99743,-1.693735,75.2,30.3,3.216,191.6,18 / 22,3976143,2019-08-18 16:19:58:680,0.3047,-0.6925,9.9942,-0.0572,-0.7359,9.7788,0.0112,0.0035,-0.019
39755,47.99743,-1.693735,75.2,30.3,3.216,191.6,18 / 22,3976243,2019-08-18 16:19:58:780,-0.1454,-0.6536,9.7878,-0.0567,-0.7249,9.7797,0.0067,-0.001,-0.0168
39756,47.99743,-1.693735,75.2,30.3,3.216,191.6,18 / 22,3976343,2019-08-18 16:19:58:880,-0.1454,-0.6542,10.3252,-0.0544,-0.7203,9.78,-0.0005,-0.0047,-0.0154
39757,47.99743,-1.693735,75.2,30.3,3.216,191.6,18 / 22,3976444,2019-08-18 16:19:58:981,-0.2543,-0.4627,9.8416,-0.049,-0.7267,9.7796,-0.0171,0.0056,-0.0189
39758,47.99743,-1.693735,75.2,30.3,3.216,191.6,18 / 22,3976543,2019-08-18 16:19:59:080,-0.3501,-0.8649,10.0439,-0.055,-0.7339,9.779,-0.0163,-0.0012,-0.0198
39759,47.99743,-1.693735,75.2,30.3,3.216,191.6,18 / 22,3976643,2019-08-18 16:19:59:180,-0.1777,-0.8439,10.0475,-0.0556,-0.7531,9.7775,-0.0125,-0.0017,-0.018
39760,47.99743,-1.693735,75.2,30.3,3.216,191.6,18 / 22,3976743,2019-08-18 16:19:59:280,-0.3238,-0.8541,9.4119,-0.0586,-0.7589,9.7771,0.0029,-0.0041,-0.0167
39761,47.99743,-1.693735,75.2,30.3,3.216,191.6,18 / 22,3976843,2019-08-18 16:19:59:380,-0.128,-1.1761,9.8129,-0.0618,-0.7572,9.7772,-0.002,-0.0016,-0.0181
39762,47.99743,-1.693735,75.2,30.3,3.216,191.6,18 / 22,3976944,2019-08-18 16:19:59:481,-0.4512,-0.5866,9.9649,-0.0629,-0.7593,9.777,-0.0082,-0.009,-0.0203
39763,47.99743,-1.693735,75.2,30.3,3.216,191.6,18 / 22,3977043,2019-08-18 16:19:59:580,-0.4997,-1.1756,9.6447,-0.0569,-0.7676,9.7764,-0.015,-0.0041,-0.0194
39764,47.99743,-1.693735,75.2,30.3,3.216,191.6,17 / 21,3977143,2019-08-18 16:19:59:680,-0.5997,-0.7159,9.6291,-0.0571,-0.7718,9.7761,-0.0054,0.0048,-0.0181
39765,47.99743,-1.693735,75.2,30.3,3.216,191.6,17 / 21,3977244,2019-08-18 16:19:59:781,-0.1538,-0.9128,9.6986,-0.0712,-0.7891,9.7746,-0.0064,0.0023,-0.0212
39766,47.99743,-1.693735,75.2,30.3,3.216,191.6,17 / 21,3977343,2019-08-18 16:19:59:880,-0.1526,-0.6871,9.5633,-0.0751,-0.7943,9.7741,-0.0112,-0.0068,-0.0193
39767,47.99743,-1.693735,75.2,30.3,3.216,191.6,17 / 21,3977443,2019-08-18 16:19:59:980,-0.398,-0.4064,9.8446,-0.0636,-0.7993,9.7738,-0.0039,-0.0108,-0.0198
39768,47.99743,-1.693735,75.2,30.3,3.216,191.6,17 / 21,3977544,2019-08-18 16:20:00:081,-0.4303,-0.5345,10.6473,-0.0601,-0.8035,9.7735,-0.0102,-0.0126,-0.019
39769,47.99743,-1.693735,75.2,30.3,3.216,191.6,17 / 21,3977643,2019-08-18 16:20:00:180,0.094,-0.7057,9.9751,-0.0484,-0.8113,9.7729,-0.0022,-0.0117,-0.0171
39770,47.99743,-1.693735,75.2,30.3,3.216,191.6,17 / 21,3977744,2019-08-18 16:20:00:281,-0.2394,-0.4771,10.1505,-0.0481,-0.8084,9.7732,0.0045,-0.0063,-0.0182
39771,47.99743,-1.693735,75.2,30.3,3.216,191.6,17 / 21,3977843,2019-08-18 16:20:00:380,0.0456,-0.319,8.9474,-0.0464,-0.8045,9.7735,-0.0038,0.012,-0.0157
39772,47.99743,-1.693735,75.2,30.3,3.216,191.6,17 / 21,3977943,2019-08-18 16:20:00:480,0.1754,-0.4657,10.418,-0.0521,-0.8021,9.7737,0.0116,0.0131,-0.0176
39773,47.99743,-1.693735,75.2,30.3,3.216,191.6,17 / 21,3978044,2019-08-18 16:20:00:581,-0.037,-0.592,9.8883,-0.0603,-0.7922,9.7744,-0.0011,-0.0026,-0.0166
39774,47.99743,-1.693735,75.2,30.3,3.216,191.6,16 / 22,3978143,2019-08-18 16:20:00:680,-0.2735,-0.5345,9.759,-0.0574,-0.7839,9.7751,-0.0038,-0.0021,-0.0181
39775,47.99743,-1.693735,75.2,30.3,3.216,191.6,16 / 22,3978243,2019-08-18 16:20:00:780,-0.0353,-0.732,9.8859,-0.0656,-0.7816,9.7752,-0.0022,0.0099,-0.0179
39776,47.99743,-1.693735,75.2,30.3,3.216,191.6,16 / 22,3978344,2019-08-18 16:20:00:881,-0.2837,-0.7805,9.5142,-0.07,-0.7816,9.7752,0.0095,0.0061,-0.018
39777,47.99743,-1.693735,75.2,30.3,3.216,191.6,16 / 22,3978444,2019-08-18 16:20:00:981,-0.3094,-0.8009,10.2456,-0.0733,-0.7689,9.7762,0.0024,0.0017,-0.0169
39778,47.99743,-1.693735,75.2,30.3,3.216,191.6,16 / 22,3978543,2019-08-18 16:20:01:080,-0.21,-0.0527,9.9877,-0.0649,-0.7589,9.777,-0.0034,-0.0081,-0.0135
39779,47.99743,-1.693735,75.2,30.3,3.216,191.6,16 / 22,3978643,2019-08-18 16:20:01:180,-0.3549,-0.3286,9.4903,-0.0637,-0.7571,9.7772,0.0015,-0.0017,-0.01
39780,47.99743,-1.693735,75.2,30.3,3.216,191.6,16 / 22,3978743,2019-08-18 16:20:01:280,-0.3591,-0.3142,9.5771,-0.07,-0.7461,9.778,0.0065,0.0006,-0.0034
39781,47.99743,-1.693735,75.2,30.3,3.216,191.6,16 / 22,3978843,2019-08-18 16:20:01:380,-0.4135,-0.2286,9.7135,-0.0754,-0.7338,9.7789,-0.0092,-0.0013,-0.0005
39782,47.99743,-1.693735,75.2,30.3,3.216,191.6,16 / 22,3978943,2019-08-18 16:20:01:480,-0.5392,-0.325,9.6842,-0.0855,-0.7237,9.7795,-0.0105,-0.0175,0.0003
39783,47.99743,-1.693735,75.2,30.3,3.216,191.6,16 / 22,3979043,2019-08-18 16:20:01:580,-0.2029,0.1143,10.415,-0.0825,-0.7209,9.7798,-0.0001,-0.0041,0.0015
39784,47.99743,-1.693735,75.2,30.3,3.216,191.6,Nov-20,3979143,2019-08-18 16:20:01:680,-0.1675,-0.1203,9.9194,-0.0913,-0.7016,9.7811,0.0025,0.011,0.003
39785,47.99743,-1.693735,75.2,30.3,3.216,191.6,Nov-20,3979243,2019-08-18 16:20:01:780,-0.5392,-0.3148,10.2564,-0.0974,-0.6959,9.7814,-0.002,0.0077,-0.0001
39786,47.99743,-1.693735,75.2,30.3,3.216,191.6,Nov-20,3979343,2019-08-18 16:20:01:880,-0.6314,-0.5225,9.8416,-0.1167,-0.6778,9.7825,-0.0064,0.0077,0.0005
39787,47.99743,-1.693735,75.2,30.3,3.216,191.6,Nov-20,3979443,2019-08-18 16:20:01:980,-0.8289,-0.2969,10.6509,-0.1306,-0.669,9.7829,0.0018,-0.0071,0.0022
39788,47.99743,-1.693735,75.2,30.3,3.216,191.6,Nov-20,3979543,2019-08-18 16:20:02:080,-0.8858,0.0994,10.503,-0.1425,-0.6529,9.7839,0.0012,-0.0094,0.0011
39789,47.99743,-1.693735,75.2,30.3,3.216,191.6,Nov-20,3979643,2019-08-18 16:20:02:180,-0.4854,-0.5076,10.2127,-0.1499,-0.6496,9.784,-0.0083,-0.0078,-0.0024
39790,47.99743,-1.693735,75.2,30.3,3.216,191.6,Nov-20,3979744,2019-08-18 16:20:02:281,-0.7056,-0.3268,10.0206,-0.1643,-0.6482,9.7838,-0.0093,-0.0153,-0.005
39791,47.99743,-1.693735,75.2,30.3,3.216,191.6,Nov-20,3979843,2019-08-18 16:20:02:380,-0.8134,-0.1472,10.2977,-0.1651,-0.6507,9.7836,-0.0134,-0.0022,-0.0052
39792,47.99743,-1.693735,75.2,30.3,3.216,191.6,Nov-20,3979943,2019-08-18 16:20:02:480,-0.6835,-0.1197,9.8943,-0.1761,-0.6609,9.7828,-0.0209,-0.013,-0.0048
39793,47.99743,-1.693735,75.2,30.3,3.216,191.6,Nov-20,3980043,2019-08-18 16:20:02:580,-0.5841,-0.094,9.5818,-0.1777,-0.6694,9.7822,-0.0127,-0.0044,-0.0035
39794,47.99743,-1.693735,75.2,30.3,3.216,191.6,Dec-21,3980143,2019-08-18 16:20:02:680,-0.6063,-0.4657,9.443,-0.1973,-0.6759,9.7813,-0.0113,0.0056,-0.0011
39795,47.99743,-1.693735,75.2,30.3,3.216,191.6,Dec-21,3980243,2019-08-18 16:20:02:780,-0.6889,-0.2532,9.7207,-0.2078,-0.6711,9.7815,0.0036,0.0028,-0.0019
39796,47.99743,-1.693735,75.2,30.3,3.216,191.6,Dec-21,3980344,2019-08-18 16:20:02:881,-0.981,-0.3184,10.4198,-0.2126,-0.6657,9.7817,-0.0017,-0.0088,-0.0022
39797,47.99743,-1.693735,75.2,30.3,3.216,191.6,Dec-21,3980444,2019-08-18 16:20:02:981,-1.0247,-0.6566,9.6812,-0.2157,-0.6664,9.7816,-0.0108,0.014,-0.0025
39798,47.99743,-1.693735,75.2,30.3,3.216,191.6,Dec-21,3980543,2019-08-18 16:20:03:080,-0.866,-1.2761,9.1952,-0.2581,-0.6603,9.781,-0.0006,-0.0003,0.0013
39799,47.99743,-1.693735,75.2,30.3,3.216,191.6,Dec-21,3980643,2019-08-18 16:20:03:180,-0.5428,-0.2358,9.8273,-0.265,-0.6573,9.781,0.0049,-0.0089,-0.0014
39800,47.99743,-1.693735,75.2,30.3,3.216,191.6,Dec-21,3980744,2019-08-18 16:20:03:281,-0.8002,-0.5495,10.257,-0.2572,-0.6516,9.7816,-0.0026,-0.0166,-0.0042
39801,47.99743,-1.693735,75.2,30.3,3.216,191.6,Dec-21,3980843,2019-08-18 16:20:03:380,-0.6733,-0.5525,10.1618,-0.2596,-0.6517,9.7815,-0.0161,-0.0032,-0.0039
39802,47.99743,-1.693735,75.2,30.3,3.216,191.6,Dec-21,3980943,2019-08-18 16:20:03:480,-0.5572,-0.1197,9.7644,-0.2765,-0.6549,9.7809,-0.0082,-0.0002,-0.0011
39803,47.99743,-1.693735,75.2,30.3,3.216,191.6,Dec-21,3981044,2019-08-18 16:20:03:581,-0.465,-0.0461,10.503,-0.2807,-0.6499,9.7811,-0.0009,-0.0146,-0.0014
39804,47.99743,-1.693735,75.2,30.3,3.216,191.6,Dec-21,3981143,2019-08-18 16:20:03:680,-0.4315,-0.4034,9.9948,-0.2688,-0.6379,9.7822,-0.0021,-0.027,-0.0001
39805,47.99743,-1.693735,75.2,30.3,3.216,191.6,Dec-21,3981243,2019-08-18 16:20:03:780,-0.2573,-0.0437,9.7351,-0.2682,-0.6336,9.7825,-0.0128,-0.0058,0.0022
39806,47.99743,-1.693735,75.2,30.3,3.216,191.6,Dec-21,3981343,2019-08-18 16:20:03:880,-0.3214,0.1341,9.6225,-0.2764,-0.6296,9.7825,-0.0085,0.0008,0.0033
39807,47.99743,-1.693735,75.2,30.3,3.216,191.6,Dec-21,3981443,2019-08-18 16:20:03:980,-0.5674,-0.313,10.6568,-0.2775,-0.6213,9.783,0.008,-0.0096,0.007
39808,47.99743,-1.693735,75.2,30.3,3.216,191.6,Dec-21,3981544,2019-08-18 16:20:04:081,-0.6973,0.4759,10.002,-0.2737,-0.5976,9.7846,-0.0059,-0.0039,0.0059
39809,47.99743,-1.693735,75.2,30.3,3.216,191.6,Dec-21,3981643,2019-08-18 16:20:04:180,-0.0879,0.1419,9.6561,-0.2754,-0.5873,9.7852,-0.0106,0.0133,0.0059
39810,47.99743,-1.693735,75.2,30.3,3.216,191.6,Dec-21,3981744,2019-08-18 16:20:04:281,-0.2262,-0.0048,9.9099,-0.2933,-0.5784,9.7852,-0.0031,0.0089,0.0059
39811,47.99743,-1.693735,75.2,30.3,3.216,191.6,Dec-21,3981843,2019-08-18 16:20:04:380,-0.2567,0.0772,9.8985,-0.3089,-0.5674,9.7853,0.0078,0.008,0.0048
39812,47.99743,-1.693735,75.2,30.3,3.216,191.6,Dec-21,3981943,2019-08-18 16:20:04:480,-0.471,0.0934,9.7135,-0.313,-0.5531,9.786,-0.0081,-0.0118,0.0008
39813,47.99743,-1.693735,75.2,30.3,3.216,191.6,Dec-21,3982043,2019-08-18 16:20:04:580,-0.3465,-0.3358,9.3658,-0.3036,-0.5422,9.7869,-0.0149,-0.0138,-0.0003
39814,47.99743,-1.693735,75.2,30.3,3.216,191.6,Dec-21,3982143,2019-08-18 16:20:04:680,-0.4722,0.1042,10.8837,-0.2937,-0.5421,9.7872,-0.0092,-0.0181,0.0013
39815,47.99743,-1.693735,75.2,30.3,3.216,191.6,Dec-21,3982243,2019-08-18 16:20:04:780,-0.6422,-0.0431,9.8937,-0.28,-0.5375,9.7879,-0.0075,-0.0067,0.0028
39816,47.99743,-1.693735,75.2,30.3,3.216,191.6,Dec-21,3982344,2019-08-18 16:20:04:881,-0.5925,-0.2185,10.1834,-0.2791,-0.5348,9.7881,-0.0027,-0.0013,0.0042
39817,47.99743,-1.693735,75.2,30.3,3.216,191.6,Dec-21,3982443,2019-08-18 16:20:04:980,-0.6883,-0.3633,9.9966,-0.2898,-0.5265,9.7882,-0.0095,0.0044,0.0041
39818,47.99743,-1.693735,75.2,30.3,3.216,191.6,Dec-21,3982543,2019-08-18 16:20:05:080,-1.0342,-0.1436,9.358,-0.2965,-0.5288,9.7879,-0.0106,0.0032,0.001
39819,47.99743,-1.693735,75.2,30.3,3.216,191.6,Dec-21,3982644,2019-08-18 16:20:05:181,-1.0145,-0.4495,10.4132,-0.317,-0.5283,9.7873,0.0054,-0.0028,0.0033
39820,47.99743,-1.693735,75.2,30.3,3.216,191.6,Dec-21,3982743,2019-08-18 16:20:05:280,-0.8134,0.0413,10.0098,-0.3209,-0.5238,9.7874,0.0007,0.0,0.0036
39821,47.99743,-1.693735,75.2,30.3,3.216,191.6,Dec-21,3982843,2019-08-18 16:20:05:380,-0.7038,-0.5231,9.5178,-0.3341,-0.5179,9.7873,-0.0083,-0.0059,0.0033
39822,47.99743,-1.693735,75.2,30.3,3.216,191.6,Dec-21,3982943,2019-08-18 16:20:05:480,-0.6057,-0.5698,9.0491,-0.334,-0.5172,9.7873,-0.0172,0.0064,0.0002
39823,47.99743,-1.693735,75.2,30.3,3.216,191.6,Dec-21,3983043,2019-08-18 16:20:05:580,-0.978,-0.4022,9.6836,-0.3581,-0.5288,9.7858,-0.0056,0.0083,-0.0003
39824,47.99743,-1.693735,75.2,30.3,3.216,191.6,Dec-21,3983143,2019-08-18 16:20:05:680,-0.96,-0.0467,9.5932,-0.3718,-0.5286,9.7853,-0.002,-0.0057,0.0007
39825,47.99743,-1.693735,75.2,30.3,3.216,191.6,Dec-21,3983243,2019-08-18 16:20:05:780,-0.6051,-0.5537,10.081,-0.3758,-0.5239,9.7854,0.0018,-0.0104,0.0016
39826,47.99743,-1.693735,75.2,30.3,3.216,191.6,Dec-21,3983343,2019-08-18 16:20:05:880,-0.6416,-0.3304,9.9541,-0.379,-0.5135,9.7859,0.003,-0.0062,0.0029
39827,47.99743,-1.693735,75.2,30.3,3.216,191.6,Dec-21,3983444,2019-08-18 16:20:05:981,-0.6655,-0.3843,9.2814,-0.3865,-0.5084,9.7858,-0.0015,-0.0043,0.0045
39828,47.99743,-1.693735,75.2,30.3,3.216,191.6,Dec-21,3983543,2019-08-18 16:20:06:080,-1.1498,-0.2376,9.5789,-0.3952,-0.5035,9.7857,-0.0044,0.0188,0.0064
39829,47.99743,-1.693735,75.2,30.3,3.216,191.6,Dec-21,3983643,2019-08-18 16:20:06:180,-0.8271,-0.0712,9.6938,-0.4384,-0.4887,9.7847,0.0125,0.0053,0.0122
39830,47.99743,-1.693735,75.2,30.3,3.216,191.6,Dec-21,3983743,2019-08-18 16:20:06:280,-1.0456,-0.2622,9.6267,-0.4434,-0.477,9.785,0.0085,-0.0156,0.0132
39831,47.99743,-1.693735,75.2,30.3,3.216,191.6,Dec-21,3983843,2019-08-18 16:20:06:380,-1.2306,-0.1622,9.6525,-0.4474,-0.4603,9.7856,-0.0083,-0.008,0.0107
39832,47.99743,-1.693735,75.2,30.3,3.216,191.6,Dec-21,3983943,2019-08-18 16:20:06:480,-1.03,0.3531,9.3807,-0.4474,-0.4573,9.7858,-0.0078,-0.0129,0.0124
39833,47.99743,-1.693735,75.2,30.3,3.216,191.6,Dec-21,3984043,2019-08-18 16:20:06:580,-0.9606,-0.009,9.2083,-0.4652,-0.4585,9.7849,-0.0049,0.0118,0.01
39834,47.995007,-1.694753,78.34,30.48,3.216,195.5,Dec-22,3984143,2019-08-18 16:20:06:680,-1.0606,-0.1544,10.172,-0.4806,-0.4512,9.7845,0.0078,-0.013,0.0102
39835,47.995007,-1.694753,78.34,30.48,3.216,195.5,Dec-22,3984243,2019-08-18 16:20:06:780,-0.7332,-0.1766,10.6191,-0.4847,-0.4305,9.7852,0.0058,-0.0194,0.0074
39836,47.995007,-1.694753,78.34,30.48,3.216,195.5,Dec-22,3984343,2019-08-18 16:20:06:880,-0.89,0.015,10.5677,-0.4749,-0.4209,9.7861,0.0007,-0.0234,0.0065
39837,47.995007,-1.694753,78.34,30.48,3.216,195.5,Dec-22,3984443,2019-08-18 16:20:06:980,-0.8523,0.1784,10.1822,-0.4709,-0.4212,9.7863,-0.0171,-0.0058,0.0063
39838,47.995007,-1.694753,78.34,30.48,3.216,195.5,Dec-22,3984544,2019-08-18 16:20:07:081,-0.7745,0.1987,9.8931,-0.478,-0.4273,9.7857,-0.0174,0.0034,0.0061
39839,47.995007,-1.694753,78.34,30.48,3.216,195.5,Dec-22,3984644,2019-08-18 16:20:07:181,-0.6584,0.1556,9.5178,-0.4887,-0.4319,9.7849,-0.0062,-0.0049,0.0087
39840,47.995007,-1.694753,78.34,30.48,3.216,195.5,Dec-22,3984743,2019-08-18 16:20:07:280,-0.7972,-0.0353,9.3077,-0.4943,-0.4262,9.7849,0.0009,-0.0093,0.0074
39841,47.995007,-1.694753,78.34,30.48,3.216,195.5,Dec-22,3984843,2019-08-18 16:20:07:380,-0.7643,0.2376,9.6956,-0.4904,-0.4198,9.7854,-0.0125,-0.0168,0.008
39842,47.995007,-1.694753,78.34,30.48,3.216,195.5,Dec-22,3984943,2019-08-18 16:20:07:480,-0.872,-0.0156,10.0571,-0.4857,-0.4203,9.7856,-0.0141,-0.0162,0.0074
39843,47.995007,-1.694753,78.34,30.48,3.216,195.5,Dec-22,3985043,2019-08-18 16:20:07:580,-0.7397,-0.2035,9.5687,-0.4824,-0.4201,9.7858,0.0003,-0.0023,0.0103
39844,47.995007,-1.694753,78.34,30.48,3.216,195.5,Nov-21,3985144,2019-08-18 16:20:07:681,-0.6069,-0.2047,9.674,-0.491,-0.4076,9.7859,-0.0068,-0.0001,0.0101
39845,47.995007,-1.694753,78.34,30.48,3.216,195.5,Nov-21,3985244,2019-08-18 16:20:07:781,-0.7062,-0.1089,9.9859,-0.4975,-0.4032,9.7857,-0.0028,0.0042,0.0129
39846,47.995007,-1.694753,78.34,30.48,3.216,195.5,Nov-21,3985343,2019-08-18 16:20:07:880,-0.6673,0.0443,10.3677,-0.5075,-0.3891,9.7858,0.002,-0.007,0.0124
39847,47.995007,-1.694753,78.34,30.48,3.216,195.5,Nov-21,3985443,2019-08-18 16:20:07:980,-0.3561,0.1532,9.8793,-0.5059,-0.3761,9.7864,0.0,-0.0104,0.0093
39848,47.995007,-1.694753,78.34,30.48,3.216,195.5,Nov-21,3985544,2019-08-18 16:20:08:081,-0.7619,0.1107,9.8123,-0.5013,-0.3677,9.7869,-0.008,-0.0035,0.0079
39849,47.995007,-1.694753,78.34,30.48,3.216,195.5,Nov-21,3985643,2019-08-18 16:20:08:180,-0.7727,0.0192,9.604,-0.4986,-0.3641,9.7872,-0.0103,-0.0089,0.01
39850,47.995007,-1.694753,78.34,30.48,3.216,195.5,Nov-21,3985743,2019-08-18 16:20:08:280,-0.48,0.1862,9.6064,-0.4925,-0.3588,9.7877,-0.013,-0.0067,0.0102
39851,47.995007,-1.694753,78.34,30.48,3.216,195.5,Nov-21,3985844,2019-08-18 16:20:08:381,-0.8319,0.015,10.0284,-0.4954,-0.3597,9.7875,-0.0054,0.0069,0.0101
39852,47.995007,-1.694753,78.34,30.48,3.216,195.5,Nov-21,3985943,2019-08-18 16:20:08:480,-0.5488,0.0383,9.8332,-0.5086,-0.352,9.7871,0.0009,0.0011,0.0097
39853,47.995007,-1.694753,78.34,30.48,3.216,195.5,Nov-21,3986043,2019-08-18 16:20:08:580,-0.951,-0.0592,10.2091,-0.5094,-0.3487,9.7872,-0.0055,-0.0032,0.0129
39854,47.995007,-1.694753,78.34,30.48,3.216,195.5,Dec-21,3986144,2019-08-18 16:20:08:681,-0.6973,0.012,9.9242,-0.5136,-0.3408,9.7873,-0.0019,-0.0057,0.0139
39855,47.995007,-1.694753,78.34,30.48,3.216,195.5,Dec-21,3986243,2019-08-18 16:20:08:780,-1.0594,0.2939,9.5729,-0.5156,-0.335,9.7874,-0.0159,-0.0007,0.0179
39856,47.995007,-1.694753,78.34,30.48,3.216,195.5,Dec-21,3986343,2019-08-18 16:20:08:880,-0.9409,0.2053,10.3546,-0.5372,-0.3283,9.7864,-0.0027,-0.0007,0.0232
39857,47.995007,-1.694753,78.34,30.48,3.216,195.5,Dec-21,3986443,2019-08-18 16:20:08:980,-0.9265,0.5788,9.7955,-0.5468,-0.3197,9.7862,0.0057,0.0008,0.0245
39858,47.995007,-1.694753,78.34,30.48,3.216,195.5,Dec-21,3986544,2019-08-18 16:20:09:081,-0.9732,0.8308,9.4855,-0.5557,-0.297,9.7864,0.0039,0.0043,0.025
39859,47.995007,-1.694753,78.34,30.48,3.216,195.5,Dec-21,3986643,2019-08-18 16:20:09:180,-0.969,0.7093,9.9559,-0.5684,-0.2775,9.7862,0.0094,-0.0058,0.0249
39860,47.995007,-1.694753,78.34,30.48,3.216,195.5,Dec-21,3986743,2019-08-18 16:20:09:280,-1.0672,0.4393,10.0182,-0.5725,-0.2551,9.7866,-0.011,-0.0034,0.0235
39861,47.995007,-1.694753,78.34,30.48,3.216,195.5,Dec-21,3986843,2019-08-18 16:20:09:380,-0.9881,0.5674,9.5609,-0.5785,-0.2488,9.7864,-0.0106,-0.0041,0.0223
39862,47.995007,-1.694753,78.34,30.48,3.216,195.5,Dec-21,3986943,2019-08-18 16:20:09:480,-1.1408,0.5854,9.6243,-0.5848,-0.2274,9.7866,-0.002,-0.0074,0.0246
39863,47.995007,-1.694753,78.34,30.48,3.216,195.5,Dec-21,3987043,2019-08-18 16:20:09:580,-0.8547,0.4783,10.354,-0.5912,-0.2153,9.7864,-0.0083,-0.0019,0.0228
39864,47.995007,-1.694753,78.34,30.48,3.216,195.5,Dec-21,3987143,2019-08-18 16:20:09:680,-0.866,0.6464,10.0068,-0.6011,-0.1957,9.7863,0.0014,-0.0031,0.023
39865,47.995007,-1.694753,78.34,30.48,3.216,195.5,Dec-21,3987244,2019-08-18 16:20:09:781,-0.8116,0.3963,10.3336,-0.6015,-0.1854,9.7864,-0.0047,-0.0053,0.0221
39866,47.995007,-1.694753,78.34,30.48,3.216,195.5,Dec-21,3987343,2019-08-18 16:20:09:880,-0.9624,0.3789,10.4485,-0.613,-0.173,9.7859,-0.0022,-0.0041,0.0219
39867,47.995007,-1.694753,78.34,30.48,3.216,195.5,Dec-21,3987443,2019-08-18 16:20:09:980,-0.8924,0.832,9.8608,-0.6143,-0.1647,9.786,-0.0079,-0.0121,0.0201
39868,47.995007,-1.694753,78.34,30.48,3.216,195.5,Dec-21,3987543,2019-08-18 16:20:10:080,-0.8206,0.2328,9.6704,-0.6093,-0.1574,9.7864,-0.0157,-0.0094,0.0196
39869,47.995007,-1.694753,78.34,30.48,3.216,195.5,Dec-21,3987643,2019-08-18 16:20:10:180,-0.9014,0.4232,9.6872,-0.6119,-0.156,9.7863,-0.0128,-0.013,0.0187
39870,47.995007,-1.694753,78.34,30.48,3.216,195.5,Dec-21,3987743,2019-08-18 16:20:10:280,-0.656,-0.0587,9.5477,-0.6175,-0.1503,9.786,-0.0151,-0.0005,0.0197
39871,47.995007,-1.694753,78.34,30.48,3.216,195.5,Dec-21,3987843,2019-08-18 16:20:10:380,-0.72,0.1736,10.2798,-0.6177,-0.1562,9.7859,-0.0126,-0.0083,0.0219
39872,47.995007,-1.694753,78.34,30.48,3.216,195.5,Dec-21,3987943,2019-08-18 16:20:10:480,-0.8876,0.1658,9.6339,-0.6298,-0.154,9.7852,-0.0038,-0.0053,0.0212
39873,47.995007,-1.694753,78.34,30.48,3.216,195.5,Dec-21,3988044,2019-08-18 16:20:10:581,-0.8565,0.4753,9.5585,-0.6315,-0.1517,9.7851,-0.0125,-0.0067,0.0199
39874,47.995007,-1.694753,78.34,30.48,3.216,195.5,14 / 22,3988143,2019-08-18 16:20:10:680,-0.8846,0.261,10.4114,-0.6338,-0.1512,9.785,0.0005,-0.0059,0.0214
39875,47.995007,-1.694753,78.34,30.48,3.216,195.5,14 / 22,3988244,2019-08-18 16:20:10:781,-0.981,0.2724,10.5126,-0.6352,-0.1394,9.7851,-0.005,-0.0029,0.022
39876,47.995007,-1.694753,78.34,30.48,3.216,195.5,14 / 22,3988343,2019-08-18 16:20:10:880,-0.9828,0.1718,9.777,-0.6396,-0.1343,9.7848,-0.0132,-0.0035,0.0197
39877,47.995007,-1.694753,78.34,30.48,3.216,195.5,14 / 22,3988443,2019-08-18 16:20:10:980,-1.0809,0.2089,9.6453,-0.6476,-0.1372,9.7843,-0.0156,-0.0058,0.0216
39878,47.995007,-1.694753,78.34,30.48,3.216,195.5,14 / 22,3988544,2019-08-18 16:20:11:081,-1.1731,0.2352,9.6196,-0.6516,-0.1376,9.784,-0.0079,0.0065,0.0224
39879,47.995007,-1.694753,78.34,30.48,3.216,195.5,14 / 22,3988643,2019-08-18 16:20:11:180,-1.057,0.4328,9.498,-0.6633,-0.1258,9.7834,0.0064,-0.0035,0.0214
39880,47.995007,-1.694753,78.34,30.48,3.216,195.5,14 / 22,3988743,2019-08-18 16:20:11:280,-1.1222,0.6979,9.8709,-0.667,-0.1178,9.7832,-0.0032,0.0001,0.0209
39881,47.995007,-1.694753,78.34,30.48,3.216,195.5,14 / 22,3988843,2019-08-18 16:20:11:380,-0.9582,0.4549,9.8219,-0.6713,-0.1056,9.7831,-0.0065,-0.0115,0.0211
39882,47.995007,-1.694753,78.34,30.48,3.216,195.5,14 / 22,3988943,2019-08-18 16:20:11:480,-1.0199,0.3095,10.5192,-0.6699,-0.1005,9.7832,-0.0094,-0.0082,0.0212
39883,47.995007,-1.694753,78.34,30.48,3.216,195.5,14 / 22,3989043,2019-08-18 16:20:11:580,-0.5183,0.3119,10.1026,-0.6711,-0.0978,9.7832,-0.0114,-0.001,0.0206
39884,47.995007,-1.694753,78.34,30.48,3.216,195.5,13 / 19,3989144,2019-08-18 16:20:11:681,-0.8744,0.486,10.1642,-0.6822,-0.0935,9.7824,-0.0005,0.0099,0.0231
39885,47.995007,-1.694753,78.34,30.48,3.216,195.5,13 / 19,3989244,2019-08-18 16:20:11:781,-1.2372,0.4513,10.8053,-0.6858,-0.0766,9.7823,-0.0013,-0.0208,0.0233
39886,47.995007,-1.694753,78.34,30.48,3.216,195.5,13 / 19,3989343,2019-08-18 16:20:11:880,-1.0869,0.3915,9.0815,-0.6835,-0.0766,9.7825,-0.0183,-0.0079,0.02
39887,47.995007,-1.694753,78.34,30.48,3.216,195.5,13 / 19,3989444,2019-08-18 16:20:11:981,-0.9223,0.2855,9.4166,-0.6871,-0.0841,9.7822,-0.0139,0.0015,0.0205
39888,47.995007,-1.694753,78.34,30.48,3.216,195.5,13 / 19,3989543,2019-08-18 16:20:12:080,-1.0875,0.2993,9.3915,-0.6914,-0.0812,9.7819,-0.0051,0.0141,0.0252
39889,47.995007,-1.694753,78.34,30.48,3.216,195.5,13 / 19,3989644,2019-08-18 16:20:12:181,-1.2282,0.1664,10.2432,-0.7142,-0.0703,9.7804,0.0023,0.0044,0.0255
39890,47.995007,-1.694753,78.34,30.48,3.216,195.5,13 / 19,3989743,2019-08-18 16:20:12:280,-1.2324,0.2119,10.3504,-0.7182,-0.0542,9.7802,0.0137,-0.0032,0.024
39891,47.995007,-1.694753,78.34,30.48,3.216,195.5,13 / 19,3989843,2019-08-18 16:20:12:380,-0.8702,0.1467,10.1553,-0.7208,-0.0503,9.78,-0.0129,-0.004,0.0197
39892,47.995007,-1.694753,78.34,30.48,3.216,195.5,13 / 19,3989943,2019-08-18 16:20:12:480,-0.9115,0.2969,9.7854,-0.7207,-0.0565,9.78,-0.0042,-0.0079,0.0189
39893,47.995007,-1.694753,78.34,30.48,3.216,195.5,13 / 19,3990043,2019-08-18 16:20:12:580,-1.0235,0.2299,9.8506,-0.7285,-0.0533,9.7794,-0.0057,0.001,0.019
39894,47.995007,-1.694753,78.34,30.48,3.216,195.5,13 / 19,3990143,2019-08-18 16:20:12:680,-1.2294,0.2137,9.8901,-0.7362,-0.0508,9.7788,-0.0051,-0.0093,0.0194
39895,47.995007,-1.694753,78.34,30.48,3.216,195.5,13 / 19,3990243,2019-08-18 16:20:12:780,-1.0468,0.3268,9.534,-0.7321,-0.0499,9.7792,-0.0143,-0.0036,0.0169
39896,47.995007,-1.694753,78.34,30.48,3.216,195.5,13 / 19,3990343,2019-08-18 16:20:12:880,-1.0199,0.428,9.3891,-0.7369,-0.0569,9.7788,-0.0093,-0.0011,0.0189
39897,47.995007,-1.694753,78.34,30.48,3.216,195.5,13 / 19,3990443,2019-08-18 16:20:12:980,-0.9935,-0.0634,10.2139,-0.7431,-0.0601,9.7783,-0.0088,-0.0135,0.0174
39898,47.995007,-1.694753,78.34,30.48,3.216,195.5,13 / 19,3990543,2019-08-18 16:20:13:080,-1.2078,0.1538,9.6794,-0.7425,-0.0622,9.7783,-0.026,-0.0106,0.0162
39899,47.995007,-1.694753,78.34,30.48,3.216,195.5,13 / 19,3990643,2019-08-18 16:20:13:180,-0.975,-0.1059,10.0792,-0.7507,-0.0811,9.7775,-0.0085,-0.002,0.0166
39900,47.995007,-1.694753,78.34,30.48,3.216,195.5,13 / 19,3990744,2019-08-18 16:20:13:281,-0.9935,-0.2328,10.3701,-0.7544,-0.0777,9.7773,0.0045,-0.006,0.019
39901,47.995007,-1.694753,78.34,30.48,3.216,195.5,13 / 19,3990843,2019-08-18 16:20:13:380,-1.1055,0.1461,10.0439,-0.7598,-0.0686,9.7769,-0.0008,-0.0017,0.0185
39902,47.995007,-1.694753,78.34,30.48,3.216,195.5,13 / 19,3990943,2019-08-18 16:20:13:480,-1.1186,0.1401,9.9685,-0.769,-0.0642,9.7762,-0.0008,0.0022,0.0183
39903,47.995007,-1.694753,78.34,30.48,3.216,195.5,13 / 19,3991043,2019-08-18 16:20:13:580,-1.0929,0.0563,9.5022,-0.7794,-0.068,9.7754,-0.0083,0.0052,0.017
39904,47.995007,-1.694753,78.34,30.48,3.216,195.5,15 / 21,3991143,2019-08-18 16:20:13:680,-1.5616,-0.1335,9.686,-0.7941,-0.0703,9.7742,-0.0094,0.011,0.0185
39905,47.995007,-1.694753,78.34,30.48,3.216,195.5,15 / 21,3991243,2019-08-18 16:20:13:780,-1.3072,0.0826,9.9051,-0.7976,-0.0704,9.7739,-0.0043,-0.0165,0.0179
39906,47.995007,-1.694753,78.34,30.48,3.216,195.5,15 / 21,3991343,2019-08-18 16:20:13:880,-1.1252,-0.2616,9.7973,-0.7984,-0.0764,9.7738,-0.0157,-0.0103,0.0167
39907,47.995007,-1.694753,78.34,30.48,3.216,195.5,15 / 21,3991444,2019-08-18 16:20:13:981,-1.1629,-0.1508,10.2917,-0.8043,-0.0805,9.7733,-0.0049,-0.0106,0.0166
39908,47.995007,-1.694753,78.34,30.48,3.216,195.5,15 / 21,3991543,2019-08-18 16:20:14:080,-1.0851,0.3621,10.1253,-0.805,-0.0847,9.7732,-0.0153,-0.0022,0.0157
39909,47.995007,-1.694753,78.34,30.48,3.216,195.5,15 / 21,3991643,2019-08-18 16:20:14:180,-1.0127,0.3921,9.176,-0.8071,-0.0901,9.773,-0.0079,0.0108,0.0176
39910,47.995007,-1.694753,78.34,30.48,3.216,195.5,15 / 21,3991743,2019-08-18 16:20:14:280,-1.239,0.1981,9.8434,-0.8276,-0.0851,9.7713,0.0034,-0.0049,0.0192
39911,47.995007,-1.694753,78.34,30.48,3.216,195.5,15 / 21,3991844,2019-08-18 16:20:14:381,-1.3766,0.2334,10.0942,-0.8227,-0.0825,9.7717,0.0018,0.0016,0.0178
39912,47.995007,-1.694753,78.34,30.48,3.216,195.5,15 / 21,3991943,2019-08-18 16:20:14:480,-0.9588,0.0659,9.8937,-0.8275,-0.0713,9.7714,-0.0007,-0.0142,0.0163
39913,47.995007,-1.694753,78.34,30.48,3.216,195.5,15 / 21,3992043,2019-08-18 16:20:14:580,-1.0965,0.1335,10.357,-0.8236,-0.0664,9.7718,-0.0133,-0.0112,0.0151
39914,47.995007,-1.694753,78.34,30.48,3.216,195.5,15 / 20,3992143,2019-08-18 16:20:14:680,-1.1587,0.1,10.1912,-0.8275,-0.081,9.7713,-0.0085,0.0045,0.0144
39915,47.995007,-1.694753,78.34,30.48,3.216,195.5,15 / 20,3992243,2019-08-18 16:20:14:780,-1.1767,-0.0569,10.339,-0.8292,-0.0837,9.7712,-0.0005,-0.0106,0.0162
39916,47.995007,-1.694753,78.34,30.48,3.216,195.5,15 / 20,3992344,2019-08-18 16:20:14:881,-0.7565,0.1873,9.5441,-0.8153,-0.0743,9.7724,-0.0083,-0.0063,0.0165
39917,47.995007,-1.694753,78.34,30.48,3.216,195.5,15 / 20,3992444,2019-08-18 16:20:14:981,-1.0576,0.1119,9.7387,-0.8238,-0.0737,9.7717,-0.0053,0.0066,0.0153
39918,47.995007,-1.694753,78.34,30.48,3.216,195.5,15 / 20,3992543,2019-08-18 16:20:15:080,-1.0432,0.2502,9.1784,-0.8297,-0.0818,9.7711,-0.0131,-0.0037,0.0171
39919,47.995007,-1.694753,78.34,30.48,3.216,195.5,15 / 20,3992643,2019-08-18 16:20:15:180,-1.0211,0.1431,9.3185,-0.8339,-0.0919,9.7707,-0.0059,0.0106,0.0174
39920,47.995007,-1.694753,78.34,30.48,3.216,195.5,15 / 20,3992743,2019-08-18 16:20:15:280,-1.0235,0.1784,10.4072,-0.8421,-0.0953,9.77,-0.0009,-0.0047,0.0179
39921,47.995007,-1.694753,78.34,30.48,3.216,195.5,15 / 20,3992843,2019-08-18 16:20:15:380,-0.9522,0.0724,10.366,-0.8352,-0.0794,9.7707,0.0111,-0.0162,0.0188
39922,47.995007,-1.694753,78.34,30.48,3.216,195.5,15 / 20,3992943,2019-08-18 16:20:15:480,-0.875,0.176,10.4515,-0.8162,-0.0555,9.7725,0.0069,-0.0175,0.0171
39923,47.995007,-1.694753,78.34,30.48,3.216,195.5,15 / 20,3993043,2019-08-18 16:20:15:580,-0.969,0.4495,9.8249,-0.8069,-0.0516,9.7733,-0.0178,-0.0129,0.0161
39924,47.992615,-1.695466,80.29,29.74,4.288,186.8,18 / 21,3993143,2019-08-18 16:20:15:680,-1.1498,0.5908,8.93,-0.8112,-0.0684,9.7728,-0.0261,0.0137,0.0147
39925,47.992615,-1.695466,80.29,29.74,4.288,186.8,18 / 21,3993243,2019-08-18 16:20:15:780,-0.7248,0.3873,9.2897,-0.8228,-0.0788,9.7718,0.0066,0.0176,0.0212
39926,47.992615,-1.695466,80.29,29.74,4.288,186.8,18 / 21,3993343,2019-08-18 16:20:15:880,-0.805,0.4154,9.0575,-0.8344,-0.0566,9.7709,0.0171,0.011,0.0202
39927,47.992615,-1.695466,80.29,29.74,4.288,186.8,18 / 21,3993444,2019-08-18 16:20:15:981,-0.9487,0.1886,10.2696,-0.8423,-0.0424,9.7703,0.0032,0.0128,0.0186
39928,47.992615,-1.695466,80.29,29.74,4.288,186.8,18 / 21,3993543,2019-08-18 16:20:16:080,-0.9989,0.1796,10.8568,-0.8351,-0.0276,9.771,-0.0119,-0.0294,0.0097
39929,47.992615,-1.695466,80.29,29.74,4.288,186.8,18 / 21,3993644,2019-08-18 16:20:16:181,-0.963,0.1526,11.1788,-0.8257,-0.029,9.7718,-0.0253,-0.0272,0.0099
39930,47.992615,-1.695466,80.29,29.74,4.288,186.8,18 / 21,3993743,2019-08-18 16:20:16:280,-0.741,0.0335,9.9308,-0.7922,-0.0521,9.7745,-0.0109,-0.0121,0.0173
39931,47.992615,-1.695466,80.29,29.74,4.288,186.8,18 / 21,3993844,2019-08-18 16:20:16:381,-0.9977,0.2735,9.2455,-0.7828,-0.0528,9.7752,0.0034,-0.0129,0.021
39932,47.992615,-1.695466,80.29,29.74,4.288,186.8,18 / 21,3993943,2019-08-18 16:20:16:480,-1.069,0.2352,8.7941,-0.803,-0.0513,9.7736,-0.0096,0.0296,0.0233
39933,47.992615,-1.695466,80.29,29.74,4.288,186.8,18 / 21,3994043,2019-08-18 16:20:16:580,-1.2276,-0.2131,9.176,-0.8268,-0.0579,9.7716,-0.0206,0.0097,0.0225
39934,47.992615,-1.695466,80.29,29.74,4.288,186.8,18 / 21,3994143,2019-08-18 16:20:16:680,-1.3527,0.3059,10.1367,-0.8303,-0.068,9.7712,-0.0134,-0.0122,0.0194
39935,47.992615,-1.695466,80.29,29.74,4.288,186.8,18 / 21,3994243,2019-08-18 16:20:16:780,-1.3976,0.1131,10.4785,-0.8349,-0.069,9.7708,-0.006,-0.0046,0.0178
39936,47.992615,-1.695466,80.29,29.74,4.288,186.8,18 / 21,3994344,2019-08-18 16:20:16:881,-0.9217,-0.1089,10.3905,-0.852,-0.0896,9.7692,-0.0285,0.0187,0.0171
39937,47.992615,-1.695466,80.29,29.74,4.288,186.8,18 / 21,3994443,2019-08-18 16:20:16:980,-1.4933,0.2412,9.6878,-0.8612,-0.0956,9.7683,0.0175,-0.0082,0.0201
39938,47.992615,-1.695466,80.29,29.74,4.288,186.8,18 / 21,3994544,2019-08-18 16:20:17:081,-1.1144,0.1191,10.5928,-0.8584,-0.0778,9.7687,0.0092,-0.0136,0.0195
39939,47.992615,-1.695466,80.29,29.74,4.288,186.8,18 / 21,3994643,2019-08-18 16:20:17:180,-1.1869,-0.0874,9.6118,-0.8567,-0.075,9.7689,-0.0014,-0.0125,0.0178
39940,47.992615,-1.695466,80.29,29.74,4.288,186.8,18 / 21,3994743,2019-08-18 16:20:17:280,-1.2677,0.1461,9.7135,-0.8633,-0.0902,9.7682,-0.0242,-0.0123,0.0156
39941,47.992615,-1.695466,80.29,29.74,4.288,186.8,18 / 21,3994843,2019-08-18 16:20:17:380,-1.4718,-0.1496,9.9314,-0.865,-0.1094,9.7678,-0.0151,-0.008,0.0184
39942,47.992615,-1.695466,80.29,29.74,4.288,186.8,18 / 21,3994943,2019-08-18 16:20:17:480,-1.1869,0.1311,9.9781,-0.871,-0.106,9.7673,0.0057,0.008,0.0273
39943,47.992615,-1.695466,80.29,29.74,4.288,186.8,18 / 21,3995044,2019-08-18 16:20:17:581,-1.5095,0.2729,9.838,-0.9017,-0.0907,9.7647,-0.0056,-0.0011,0.0322
39944,47.992615,-1.695466,80.29,29.74,4.288,186.8,18 / 21,3995144,2019-08-18 16:20:17:681,-1.3521,0.3579,9.5705,-0.9082,-0.0883,9.7641,0.0082,0.0011,0.0308
39945,47.992615,-1.695466,80.29,29.74,4.288,186.8,18 / 21,3995243,2019-08-18 16:20:17:780,-1.2976,0.1347,9.7075,-0.9244,-0.0662,9.7628,0.0002,-0.0154,0.0294
39946,47.992615,-1.695466,80.29,29.74,4.288,186.8,18 / 21,3995343,2019-08-18 16:20:17:880,-1.6483,0.4244,10.4037,-0.9156,-0.0625,9.7636,-0.0015,-0.0226,0.0275
39947,47.992615,-1.695466,80.29,29.74,4.288,186.8,18 / 21,3995443,2019-08-18 16:20:17:980,-1.3712,0.009,10.4749,-0.9195,-0.0525,9.7633,-0.0079,-0.0022,0.0309
39948,47.992615,-1.695466,80.29,29.74,4.288,186.8,18 / 21,3995543,2019-08-18 16:20:18:080,-1.2856,0.3837,9.8865,-0.9263,-0.0473,9.7627,-0.0029,0.0011,0.033
39949,47.992615,-1.695466,80.29,29.74,4.288,186.8,18 / 21,3995643,2019-08-18 16:20:18:180,-1.2838,0.5321,9.7871,-0.9317,-0.0251,9.7623,0.0206,-0.0176,0.0364
39950,47.992615,-1.695466,80.29,29.74,4.288,186.8,18 / 21,3995743,2019-08-18 16:20:18:280,-1.4652,0.4471,10.0128,-0.9322,-0.0027,9.7622,0.0189,-0.0011,0.0327
39951,47.992615,-1.695466,80.29,29.74,4.288,186.8,18 / 21,3995844,2019-08-18 16:20:18:381,-1.4413,0.6135,9.3574,-0.9432,0.0326,9.7611,-0.002,0.0107,0.0306
39952,47.992615,-1.695466,80.29,29.74,4.288,186.8,18 / 21,3995943,2019-08-18 16:20:18:480,-1.3467,0.1329,10.0092,-0.956,0.0242,9.7599,-0.0234,-0.0108,0.0219
39953,47.992615,-1.695466,80.29,29.74,4.288,186.8,18 / 21,3996043,2019-08-18 16:20:18:580,-0.5566,0.1664,9.2197,-0.9483,-0.0041,9.7607,-0.0361,-0.0096,0.0188
39954,47.992615,-1.695466,80.29,29.74,4.288,186.8,17 / 20,3996144,2019-08-18 16:20:18:681,-1.1845,0.1748,9.1706,-0.9512,-0.0051,9.7604,-0.0048,-0.0072,0.0189
39955,47.992615,-1.695466,80.29,29.74,4.288,186.8,17 / 20,3996243,2019-08-18 16:20:18:780,-0.9696,-0.0724,9.0563,-0.9569,0.0063,9.7599,0.0133,0.0064,0.0167
39956,47.992615,-1.695466,80.29,29.74,4.288,186.8,17 / 20,3996343,2019-08-18 16:20:18:880,-1.1611,-0.2604,10.3312,-0.9575,0.0031,9.7598,0.0046,0.0033,0.0082
39957,47.992615,-1.695466,80.29,29.74,4.288,186.8,17 / 20,3996443,2019-08-18 16:20:18:980,-0.8451,-0.1712,10.8903,-0.9449,-0.0082,9.761,-0.0173,-0.0252,0.0046
39958,47.992615,-1.695466,80.29,29.74,4.288,186.8,17 / 20,3996543,2019-08-18 16:20:19:080,-1.2958,-0.738,10.2576,-0.9497,-0.0169,9.7605,-0.0305,0.0046,-0.0013
39959,47.992615,-1.695466,80.29,29.74,4.288,186.8,17 / 20,3996643,2019-08-18 16:20:19:180,-0.8439,0.1748,9.9721,-0.9484,-0.0564,9.7605,-0.017,-0.0153,0.0029
39960,47.992615,-1.695466,80.29,29.74,4.288,186.8,17 / 20,3996743,2019-08-18 16:20:19:280,-0.9672,0.2706,9.6094,-0.9348,-0.0722,9.7617,-0.0126,-0.0053,0.002
39961,47.992615,-1.695466,80.29,29.74,4.288,186.8,17 / 20,3996843,2019-08-18 16:20:19:380,-0.7176,-0.4315,9.3406,-0.935,-0.0964,9.7615,-0.0145,0.0058,0.0055
39962,47.992615,-1.695466,80.29,29.74,4.288,186.8,17 / 20,3996943,2019-08-18 16:20:19:480,-0.8978,-0.3148,9.7075,-0.9427,-0.1057,9.7607,0.0012,0.0102,0.0055
39963,47.992615,-1.695466,80.29,29.74,4.288,186.8,17 / 20,3997043,2019-08-18 16:20:19:580,-0.5476,-0.3861,10.445,-0.9454,-0.1097,9.7604,0.0079,0.0057,0.0065
39964,47.992615,-1.695466,80.29,29.74,4.288,186.8,17 / 20,3997152,2019-08-18 16:20:19:689,-0.905,0.0581,10.114,-0.9402,-0.1101,9.7609,-0.0069,-0.019,0.0029
39965,47.992615,-1.695466,80.29,29.74,4.288,186.8,17 / 20,3997244,2019-08-18 16:20:19:781,-0.8289,-0.0162,9.6321,-0.9184,-0.1302,9.7627,-0.0078,-0.0134,0.002
39966,47.992615,-1.695466,80.29,29.74,4.288,186.8,17 / 20,3997343,2019-08-18 16:20:19:880,-0.8265,-1.3833,9.7716,-0.9204,-0.1335,9.7624,-0.0047,0.0069,0.0037
39967,47.992615,-1.695466,80.29,29.74,4.288,186.8,17 / 20,3997443,2019-08-18 16:20:19:980,-0.784,0.1113,9.9787,-0.9142,-0.1349,9.763,0.0027,0.013,0.0078
39968,47.992615,-1.695466,80.29,29.74,4.288,186.8,17 / 20,3997543,2019-08-18 16:20:20:080,-0.5728,-0.1215,9.8913,-0.9114,-0.1384,9.7632,0.0033,0.0021,0.0073
39969,47.992615,-1.695466,80.29,29.74,4.288,186.8,17 / 20,3997643,2019-08-18 16:20:20:180,-0.7421,1.0008,9.6974,-0.8904,-0.1406,9.7651,-0.0065,-0.0193,0.0078
39970,47.992615,-1.695466,80.29,29.74,4.288,186.8,17 / 20,3997743,2019-08-18 16:20:20:280,-1.2222,-0.1664,10.5401,-0.8696,-0.1467,9.7669,-0.0174,-0.0275,0.0051
39971,47.992615,-1.695466,80.29,29.74,4.288,186.8,17 / 20,3997844,2019-08-18 16:20:20:381,-0.4321,-0.2472,10.6802,-0.8356,-0.1483,9.7699,-0.0053,-0.028,0.006
39972,47.992615,-1.695466,80.29,29.74,4.288,186.8,17 / 20,3997943,2019-08-18 16:20:20:480,-0.5338,0.6662,10.3845,-0.8355,-0.1435,9.7699,0.0029,0.0031,0.0093
39973,47.992615,-1.695466,80.29,29.74,4.288,186.8,17 / 20,3998043,2019-08-18 16:20:20:580,-0.6661,0.935,9.841,-0.8416,-0.1305,9.7696,0.0052,-0.0061,0.0127
39974,47.992615,-1.695466,80.29,29.74,4.288,186.8,18 / 20,3998143,2019-08-18 16:20:20:680,-0.5913,0.2724,9.8632,-0.8171,-0.118,9.7718,0.0037,0.0133,0.0107
39975,47.992615,-1.695466,80.29,29.74,4.288,186.8,18 / 20,3998243,2019-08-18 16:20:20:780,-0.6512,-0.0012,9.662,-0.8156,-0.1101,9.7721,0.0147,0.0105,0.0132
39976,47.992615,-1.695466,80.29,29.74,4.288,186.8,18 / 20,3998343,2019-08-18 16:20:20:880,-0.0795,0.2131,9.8045,-0.8307,-0.0829,9.7711,-0.0069,0.0032,0.0109
39977,47.992615,-1.695466,80.29,29.74,4.288,186.8,18 / 20,3998443,2019-08-18 16:20:20:980,-1.0145,0.1024,9.8787,-0.8264,-0.089,9.7714,-0.0188,0.0032,0.0071
39978,47.992615,-1.695466,80.29,29.74,4.288,186.8,18 / 20,3998544,2019-08-18 16:20:21:081,-0.7338,0.3226,9.7764,-0.8217,-0.1148,9.7715,-0.0412,-0.0099,-0.003
39979,47.992615,-1.695466,80.29,29.74,4.288,186.8,18 / 20,3998643,2019-08-18 16:20:21:180,-0.4842,-0.41,10.3534,-0.8026,-0.1532,9.7726,-0.0419,-0.0206,-0.0046
39980,47.992615,-1.695466,80.29,29.74,4.288,186.8,18 / 20,3998744,2019-08-18 16:20:21:281,-0.4022,-0.2328,9.6633,-0.7854,-0.2035,9.773,-0.032,-0.0024,-0.008
39981,47.992615,-1.695466,80.29,29.74,4.288,186.8,18 / 20,3998843,2019-08-18 16:20:21:380,-0.6979,-0.4417,9.6118,-0.7793,-0.2248,9.7731,0.0016,-0.0065,-0.0098
39982,47.992615,-1.695466,80.29,29.74,4.288,186.8,18 / 20,3998943,2019-08-18 16:20:21:480,-0.9558,-0.577,9.9081,-0.7758,-0.2337,9.7731,0.0159,-0.0135,-0.0061
39983,47.992615,-1.695466,80.29,29.74,4.288,186.8,18 / 20,3999044,2019-08-18 16:20:21:581,-0.9127,-0.5249,10.8137,-0.7605,-0.232,9.7744,0.0112,-0.0144,-0.0044
39984,47.992615,-1.695466,80.29,29.74,4.288,186.8,18 / 21,3999143,2019-08-18 16:20:21:680,-0.6961,-0.2981,9.9164,-0.7543,-0.2307,9.7749,0.0057,-0.0007,-0.0011
39985,47.992615,-1.695466,80.29,29.74,4.288,186.8,18 / 21,3999243,2019-08-18 16:20:21:780,-0.5309,-0.0993,9.6112,-0.759,-0.2308,9.7745,0.0025,0.0099,0.0009
39986,47.992615,-1.695466,80.29,29.74,4.288,186.8,18 / 21,3999344,2019-08-18 16:20:21:881,-0.8636,-0.0658,9.4699,-0.7698,-0.2279,9.7737,0.0034,0.0103,0.0065
39987,47.992615,-1.695466,80.29,29.74,4.288,186.8,18 / 21,3999444,2019-08-18 16:20:21:981,-0.6536,-0.3573,9.8374,-0.7789,-0.2253,9.7731,-0.007,-0.0083,0.0063
39988,47.992615,-1.695466,80.29,29.74,4.288,186.8,18 / 21,3999543,2019-08-18 16:20:22:080,-0.632,-0.1353,10.2462,-0.7678,-0.2248,9.774,0.0014,-0.0064,0.0086
39989,47.992615,-1.695466,80.29,29.74,4.288,186.8,18 / 21,3999643,2019-08-18 16:20:22:180,-0.5853,0.0078,9.5926,-0.7594,-0.2158,9.7748,0.0013,-0.0086,0.0083
39990,47.992615,-1.695466,80.29,29.74,4.288,186.8,18 / 21,3999743,2019-08-18 16:20:22:280,-0.5883,-0.0581,10.5318,-0.7457,-0.2125,9.7759,-0.0067,-0.0044,0.0079
39991,47.992615,-1.695466,80.29,29.74,4.288,186.8,18 / 21,3999844,2019-08-18 16:20:22:381,-0.7697,-0.0132,10.105,-0.7421,-0.2078,9.7763,0.0084,-0.0075,0.0132
39992,47.992615,-1.695466,80.29,29.74,4.288,186.8,18 / 21,3999943,2019-08-18 16:20:22:480,-0.5147,0.0377,9.7806,-0.7305,-0.1915,9.7775,-0.0105,0.0015,0.0105
39993,47.992615,-1.695466,80.29,29.74,4.288,186.8,18 / 21,4000043,2019-08-18 16:20:22:580,-0.5871,0.1311,9.6812,-0.7264,-0.1927,9.7778,-0.0079,-0.0027,0.0135
39994,47.992615,-1.695466,80.29,29.74,4.288,186.8,18 / 21,4000143,2019-08-18 16:20:22:680,-0.7032,0.3448,9.2478,-0.7297,-0.1839,9.7777,-0.0105,0.003,0.0119
39995,47.992615,-1.695466,80.29,29.74,4.288,186.8,18 / 21,4000244,2019-08-18 16:20:22:781,-0.7852,0.0443,9.8488,-0.7294,-0.1818,9.7778,-0.0015,-0.011,0.0121
39996,47.992615,-1.695466,80.29,29.74,4.288,186.8,18 / 21,4000343,2019-08-18 16:20:22:880,-0.6075,-0.0664,10.5862,-0.7047,-0.1596,9.78,0.0048,-0.0088,0.0132
39997,47.992615,-1.695466,80.29,29.74,4.288,186.8,18 / 21,4000443,2019-08-18 16:20:22:980,-0.3705,-0.0186,9.7584,-0.6949,-0.1561,9.7808,-0.0063,-0.009,0.0119
39998,47.992615,-1.695466,80.29,29.74,4.288,186.8,18 / 21,4000544,2019-08-18 16:20:23:081,-0.5374,0.1293,9.692,-0.6897,-0.1614,9.781,-0.0157,0.002,0.0127
39999,47.992615,-1.695466,80.29,29.74,4.288,186.8,18 / 21,4000643,2019-08-18 16:20:23:180,-0.7918,-0.0048,9.4346,-0.69,-0.1614,9.781,-0.0147,0.0051,0.0133
40000,47.992615,-1.695466,80.29,29.74,4.288,186.8,18 / 21,4000744,2019-08-18 16:20:23:281,-0.8068,-0.0281,9.2113,-0.6897,-0.1701,9.7809,-0.0088,0.0101,0.0117
40001,47.992615,-1.695466,80.29,29.74,4.288,186.8,18 / 21,4000843,2019-08-18 16:20:23:380,-0.8242,-0.0964,9.8308,-0.6967,-0.1681,9.7804,0.0005,0.0078,0.0103
40002,47.992615,-1.695466,80.29,29.74,4.288,186.8,18 / 21,4000943,2019-08-18 16:20:23:480,-0.8074,-0.3388,9.7872,-0.696,-0.1607,9.7806,0.0002,-0.012,0.009
40003,47.992615,-1.695466,80.29,29.74,4.288,186.8,18 / 21,4001044,2019-08-18 16:20:23:581,-0.9026,-0.0281,9.6644,-0.6791,-0.1638,9.7817,-0.0168,-0.0217,0.005
40004,47.992615,-1.695466,80.29,29.74,4.288,186.8,17 / 22,4001143,2019-08-18 16:20:23:680,-1.063,-0.0275,10.5874,-0.6655,-0.1747,9.7825,-0.0085,-0.0126,0.0005
40005,47.992615,-1.695466,80.29,29.74,4.288,186.8,17 / 22,4001243,2019-08-18 16:20:23:780,-0.6147,-0.1718,9.932,-0.6583,-0.1816,9.7828,-0.0079,-0.0043,-0.0009
40006,47.992615,-1.695466,80.29,29.74,4.288,186.8,17 / 22,4001344,2019-08-18 16:20:23:881,-0.4159,-0.8104,9.7393,-0.6571,-0.1929,9.7827,-0.0088,0.0018,-0.0044
40007,47.992615,-1.695466,80.29,29.74,4.288,186.8,17 / 22,4001444,2019-08-18 16:20:23:981,-0.5793,-0.5489,10.0038,-0.6584,-0.2139,9.7822,-0.0125,0.0037,-0.0075
40008,47.992615,-1.695466,80.29,29.74,4.288,186.8,17 / 22,4001543,2019-08-18 16:20:24:080,-0.729,-0.4435,9.4035,-0.6577,-0.2229,9.782,-0.0129,-0.0017,-0.0075
40009,47.992615,-1.695466,80.29,29.74,4.288,186.8,17 / 22,4001643,2019-08-18 16:20:24:180,-0.6967,-0.2646,9.8266,-0.6535,-0.2433,9.7818,0.0117,-0.0027,-0.0048
40010,47.992615,-1.695466,80.29,29.74,4.288,186.8,17 / 22,4001743,2019-08-18 16:20:24:280,-0.5985,-0.5345,10.0643,-0.6473,-0.2425,9.7823,0.0115,-0.005,-0.0047
40011,47.992615,-1.695466,80.29,29.74,4.288,186.8,17 / 22,4001843,2019-08-18 16:20:24:380,-0.5859,-0.4866,9.8763,-0.6427,-0.2398,9.7826,-0.0011,0.0024,-0.006
40012,47.992615,-1.695466,80.29,29.74,4.288,186.8,17 / 22,4001943,2019-08-18 16:20:24:480,-0.7206,0.1472,9.6956,-0.6444,-0.2472,9.7823,-0.0162,-0.0079,-0.0067
40013,47.992615,-1.695466,80.29,29.74,4.288,186.8,17 / 22,4002043,2019-08-18 16:20:24:580,-0.6021,-0.425,9.6872,-0.6393,-0.267,9.7821,-0.0128,-0.0144,-0.0057
40014,47.990337,-1.695593,80.91,28.1,3.216,180.7,14 / 19,4002143,2019-08-18 16:20:24:680,-0.6805,-0.6027,10.1882,-0.63,-0.277,9.7825,-0.0082,-0.0108,-0.0057
40015,47.990337,-1.695593,80.91,28.1,3.216,180.7,14 / 19,4002243,2019-08-18 16:20:24:780,-0.5135,-0.6087,9.6106,-0.6215,-0.2889,9.7827,-0.0042,0.0,-0.0032
40016,47.990337,-1.695593,80.91,28.1,3.216,180.7,14 / 19,4002343,2019-08-18 16:20:24:880,-0.6374,-0.2879,9.5992,-0.6229,-0.2952,9.7824,-0.0101,0.0064,-0.0022
40017,47.990337,-1.695593,80.91,28.1,3.216,180.7,14 / 19,4002443,2019-08-18 16:20:24:980,-0.6847,-0.246,9.3544,-0.6319,-0.308,9.7814,-0.012,-0.0009,0.0032
40018,47.990337,-1.695593,80.91,28.1,3.216,180.7,14 / 19,4002543,2019-08-18 16:20:25:080,-0.7344,-0.4381,10.2337,-0.6293,-0.3104,9.7815,-0.0015,-0.0216,0.0011
40019,47.990337,-1.695593,80.91,28.1,3.216,180.7,14 / 19,4002643,2019-08-18 16:20:25:180,-0.7799,-0.3507,10.2881,-0.6118,-0.3117,9.7826,-0.0029,-0.0151,0.0027
40020,47.990337,-1.695593,80.91,28.1,3.216,180.7,14 / 19,4002743,2019-08-18 16:20:25:280,-0.6913,-0.4423,10.4569,-0.6082,-0.3103,9.7828,0.0049,-0.0111,0.0025
40021,47.990337,-1.695593,80.91,28.1,3.216,180.7,14 / 19,4002844,2019-08-18 16:20:25:381,-0.8822,0.0132,9.6668,-0.5948,-0.3071,9.7838,0.0008,-0.0135,0.002
40022,47.990337,-1.695593,80.91,28.1,3.216,180.7,14 / 19,4002943,2019-08-18 16:20:25:480,-1.0983,-0.2316,9.6734,-0.5947,-0.31,9.7837,-0.0047,-0.0121,-0.0005
40023,47.990337,-1.695593,80.91,28.1,3.216,180.7,14 / 19,4003043,2019-08-18 16:20:25:580,-0.7296,-0.3226,9.9913,-0.5922,-0.3201,9.7835,-0.0097,-0.0054,0.0012
40024,47.990337,-1.695593,80.91,28.1,3.216,180.7,14 / 19,4003143,2019-08-18 16:20:25:680,-1.0217,-0.3591,10.3151,-0.5953,-0.3177,9.7834,0.0041,-0.0086,0.0009
40025,47.990337,-1.695593,80.91,28.1,3.216,180.7,14 / 19,4003243,2019-08-18 16:20:25:780,-0.9097,-0.0353,10.0248,-0.5961,-0.3195,9.7833,-0.0067,0.0029,0.0002
40026,47.990337,-1.695593,80.91,28.1,3.216,180.7,14 / 19,4003344,2019-08-18 16:20:25:881,-0.6889,-0.5435,9.6513,-0.5991,-0.325,9.7829,-0.0083,0.0006,0.0016
40027,47.990337,-1.695593,80.91,28.1,3.216,180.7,14 / 19,4003444,2019-08-18 16:20:25:981,-0.6673,-0.6799,9.6231,-0.6035,-0.3403,9.7821,-0.0059,0.0058,0.0002
40028,47.990337,-1.695593,80.91,28.1,3.216,180.7,14 / 19,4003543,2019-08-18 16:20:26:080,-1.0037,-0.4998,9.6854,-0.6071,-0.3461,9.7817,-0.0065,-0.0074,0.0002
40029,47.990337,-1.695593,80.91,28.1,3.216,180.7,14 / 19,4003644,2019-08-18 16:20:26:181,-0.5243,-0.3232,10.3647,-0.6073,-0.3554,9.7814,-0.0099,-0.0144,-0.0023
40030,47.990337,-1.695593,80.91,28.1,3.216,180.7,14 / 19,4003743,2019-08-18 16:20:26:280,-0.7631,-0.2616,10.2403,-0.6036,-0.3579,9.7815,-0.0005,-0.0076,0.001
40031,47.990337,-1.695593,80.91,28.1,3.216,180.7,14 / 19,4003844,2019-08-18 16:20:26:381,-1.1534,-0.422,10.828,-0.5829,-0.3657,9.7825,-0.0003,-0.0186,-0.0013
40032,47.990337,-1.695593,80.91,28.1,3.216,180.7,14 / 19,4003943,2019-08-18 16:20:26:480,-0.541,-0.4597,9.9871,-0.5776,-0.3643,9.7828,0.0038,-0.0058,0.0005
40033,47.990337,-1.695593,80.91,28.1,3.216,180.7,14 / 19,4004043,2019-08-18 16:20:26:580,-0.8427,-0.2825,9.6525,-0.5759,-0.3628,9.783,0.0,0.0,-0.0011
40034,47.990337,-1.695593,80.91,28.1,3.216,180.7,Dec-19,4004143,2019-08-18 16:20:26:680,-0.8481,-0.2903,9.8602,-0.5802,-0.3664,9.7826,-0.0119,0.0075,-0.002
40035,47.990337,-1.695593,80.91,28.1,3.216,180.7,Dec-19,4004243,2019-08-18 16:20:26:780,-0.5303,-0.3094,9.9937,-0.5882,-0.3827,9.7815,-0.0085,0.0005,-0.0022
40036,47.990337,-1.695593,80.91,28.1,3.216,180.7,Dec-19,4004344,2019-08-18 16:20:26:881,-0.7302,-0.2688,9.7303,-0.5878,-0.3865,9.7814,-0.0033,0.0003,0.0004
40037,47.990337,-1.695593,80.91,28.1,3.216,180.7,Dec-19,4004443,2019-08-18 16:20:26:980,-0.6314,-0.4585,9.9978,-0.594,-0.389,9.7809,0.0003,0.0024,0.0027
40038,47.990337,-1.695593,80.91,28.1,3.216,180.7,Dec-19,4004544,2019-08-18 16:20:27:081,-0.7906,-0.5273,10.1624,-0.5951,-0.384,9.781,0.0061,-0.013,0.0008
40039,47.990337,-1.695593,80.91,28.1,3.216,180.7,Dec-19,4004643,2019-08-18 16:20:27:180,-0.9062,-0.4627,10.5216,-0.5895,-0.3805,9.7815,-0.0008,-0.0226,0.0
40040,47.990337,-1.695593,80.91,28.1,3.216,180.7,Dec-19,4004744,2019-08-18 16:20:27:281,-0.9032,-0.097,10.3803,-0.5663,-0.3763,9.7831,-0.0007,-0.0255,-0.0002
40041,47.990337,-1.695593,80.91,28.1,3.216,180.7,Dec-19,4004843,2019-08-18 16:20:27:380,-1.0294,-0.1706,10.2061,-0.554,-0.3777,9.7837,-0.0001,-0.0135,-0.0002
40042,47.990337,-1.695593,80.91,28.1,3.216,180.7,Dec-19,4004943,2019-08-18 16:20:27:480,-0.7607,-0.3909,9.759,-0.5448,-0.3792,9.7842,-0.0047,-0.0053,-0.0011
40043,47.990337,-1.695593,80.91,28.1,3.216,180.7,Dec-19,4005044,2019-08-18 16:20:27:581,-0.7056,-0.2382,9.8279,-0.5402,-0.3833,9.7843,-0.0133,-0.0041,0.0003
40044,47.990337,-1.695593,80.91,28.1,3.216,180.7,15 / 21,4005143,2019-08-18 16:20:27:680,-0.5392,-0.3424,9.3586,-0.5453,-0.3994,9.7833,-0.0066,0.0101,0.0006
40045,47.990337,-1.695593,80.91,28.1,3.216,180.7,15 / 21,4005243,2019-08-18 16:20:27:780,-0.6482,-0.1772,9.4915,-0.5545,-0.4023,9.7827,-0.0065,0.0022,0.0011
40046,47.990337,-1.695593,80.91,28.1,3.216,180.7,15 / 21,4005343,2019-08-18 16:20:27:880,-0.7457,-0.3909,9.4657,-0.5519,-0.4013,9.7829,0.0022,-0.0171,0.0006
40047,47.990337,-1.695593,80.91,28.1,3.216,180.7,15 / 21,4005443,2019-08-18 16:20:27:980,-0.6422,-0.5405,10.4467,-0.5461,-0.3953,9.7835,0.0073,-0.0116,0.0003
40048,47.990337,-1.695593,80.91,28.1,3.216,180.7,15 / 21,4005543,2019-08-18 16:20:28:080,-0.8026,-0.3693,10.1217,-0.5367,-0.3855,9.7844,0.0003,-0.0106,-0.0006
40049,47.990337,-1.695593,80.91,28.1,3.216,180.7,15 / 21,4005643,2019-08-18 16:20:28:180,-0.7751,-0.3699,9.7692,-0.5324,-0.3872,9.7845,-0.0046,-0.0071,-0.0007
40050,47.990337,-1.695593,80.91,28.1,3.216,180.7,15 / 21,4005743,2019-08-18 16:20:28:280,-0.7535,-0.5189,10.2109,-0.5393,-0.3873,9.7841,-0.0038,0.0057,-0.0025
40051,47.990337,-1.695593,80.91,28.1,3.216,180.7,15 / 21,4005843,2019-08-18 16:20:28:380,-0.6105,-0.161,10.1529,-0.5424,-0.3933,9.7837,-0.0024,0.0029,-0.001
40052,47.990337,-1.695593,80.91,28.1,3.216,180.7,15 / 21,4005943,2019-08-18 16:20:28:480,-0.8134,-0.2352,9.8464,-0.5375,-0.3975,9.7838,-0.0072,-0.0194,-0.0012
40053,47.990337,-1.695593,80.91,28.1,3.216,180.7,15 / 21,4006043,2019-08-18 16:20:28:580,-0.4453,-0.1233,10.0116,-0.5273,-0.4017,9.7842,-0.0045,-0.0222,-0.0011
40054,47.990337,-1.695593,80.91,28.1,3.216,180.7,14 / 20,4006143,2019-08-18 16:20:28:680,-0.726,-0.1407,10.196,-0.5122,-0.3955,9.7853,0.0089,-0.0023,0.0024
40055,47.990337,-1.695593,80.91,28.1,3.216,180.7,14 / 20,4006243,2019-08-18 16:20:28:780,-0.5063,-0.161,9.5525,-0.5143,-0.3884,9.7855,0.0106,0.014,0.0005
40056,47.990337,-1.695593,80.91,28.1,3.216,180.7,14 / 20,4006343,2019-08-18 16:20:28:880,-0.3405,-0.1628,9.4663,-0.5304,-0.3798,9.7849,0.0004,0.0135,0.0001
40057,47.990337,-1.695593,80.91,28.1,3.216,180.7,14 / 20,4006443,2019-08-18 16:20:28:980,-0.6937,-0.076,9.8039,-0.5368,-0.3801,9.7846,-0.0055,-0.0049,-0.0016
40058,47.990337,-1.695593,80.91,28.1,3.216,180.7,14 / 20,4006543,2019-08-18 16:20:29:080,-0.471,-0.1945,10.1912,-0.5233,-0.3755,9.7855,0.0019,-0.0185,-0.0007
40059,47.990337,-1.695593,80.91,28.1,3.216,180.7,14 / 20,4006643,2019-08-18 16:20:29:180,-0.5105,-0.237,10.1517,-0.5126,-0.3729,9.7861,0.0006,-0.0158,-0.0003
40060,47.990337,-1.695593,80.91,28.1,3.216,180.7,14 / 20,4006743,2019-08-18 16:20:29:280,-0.4722,-0.0838,9.8165,-0.4959,-0.3666,9.7872,-0.0071,-0.0093,-0.001
40061,47.990337,-1.695593,80.91,28.1,3.216,180.7,14 / 20,4006843,2019-08-18 16:20:29:380,-0.4752,-0.313,10.3312,-0.4894,-0.3707,9.7874,-0.0092,-0.0004,-0.0026
40062,47.990337,-1.695593,80.91,28.1,3.216,180.7,14 / 20,4006943,2019-08-18 16:20:29:480,-0.3166,-0.1514,9.7883,-0.489,-0.3684,9.7875,-0.0002,-0.0078,0.0011
40063,47.990337,-1.695593,80.91,28.1,3.216,180.7,14 / 20,4007043,2019-08-18 16:20:29:580,-0.3088,-0.2466,9.7949,-0.4803,-0.3652,9.7881,0.0051,-0.0029,-0.0001
40064,47.990337,-1.695593,80.91,28.1,3.216,180.7,Dec-18,4007144,2019-08-18 16:20:29:681,-0.6063,-0.1754,9.996,-0.4763,-0.36,9.7885,0.0166,0.0075,0.0013
40065,47.990337,-1.695593,80.91,28.1,3.216,180.7,Dec-18,4007243,2019-08-18 16:20:29:780,-0.4866,0.3783,10.3061,-0.4793,-0.3337,9.7892,0.0038,-0.003,0.0044
40066,47.990337,-1.695593,80.91,28.1,3.216,180.7,Dec-18,4007343,2019-08-18 16:20:29:880,-0.574,0.1012,10.2492,-0.4717,-0.3214,9.79,-0.0007,-0.0115,0.0014
40067,47.990337,-1.695593,80.91,28.1,3.216,180.7,Dec-18,4007444,2019-08-18 16:20:29:981,-0.4064,-0.0503,9.7931,-0.462,-0.3192,9.7906,-0.0181,-0.0006,-0.0014
40068,47.990337,-1.695593,80.91,28.1,3.216,180.7,Dec-18,4007543,2019-08-18 16:20:30:080,-0.3333,0.009,10.2133,-0.4551,-0.329,9.7906,-0.0096,-0.0135,0.0017
40069,47.990337,-1.695593,80.91,28.1,3.216,180.7,Dec-18,4007643,2019-08-18 16:20:30:180,-0.5159,0.0311,9.9529,-0.4466,-0.3238,9.7911,-0.0017,-0.0241,0.0005
40070,47.990337,-1.695593,80.91,28.1,3.216,180.7,Dec-18,4007743,2019-08-18 16:20:30:280,-0.2352,0.024,10.1529,-0.4281,-0.3189,9.7921,-0.0043,-0.0203,-0.0018
40071,47.990337,-1.695593,80.91,28.1,3.216,180.7,Dec-18,4007843,2019-08-18 16:20:30:380,-0.5656,-0.2789,10.2115,-0.4108,-0.3213,9.7928,-0.0046,-0.0046,-0.0005
40072,47.990337,-1.695593,80.91,28.1,3.216,180.7,Dec-18,4007943,2019-08-18 16:20:30:480,-0.2962,0.0311,9.8356,-0.4053,-0.3216,9.793,-0.0065,-0.0124,-0.0001
40073,47.990337,-1.695593,80.91,28.1,3.216,180.7,Dec-18,4008043,2019-08-18 16:20:30:580,-0.0933,-0.0299,9.6411,-0.3978,-0.3249,9.7932,-0.0074,0.005,0.0011
40074,47.990337,-1.695593,80.91,28.1,3.216,180.7,16 / 22,4008144,2019-08-18 16:20:30:681,-0.5135,-0.0323,9.4466,-0.4017,-0.3259,9.793,-0.0041,0.0088,0.002
40075,47.990337,-1.695593,80.91,28.1,3.216,180.7,16 / 22,4008243,2019-08-18 16:20:30:780,-0.4686,-0.1287,10.1271,-0.4036,-0.3216,9.7931,0.0003,-0.0107,0.0036
40076,47.990337,-1.695593,80.91,28.1,3.216,180.7,16 / 22,4008343,2019-08-18 16:20:30:880,-0.4913,-0.252,10.339,-0.3991,-0.3172,9.7934,-0.0116,-0.0072,-0.0008
40077,47.990337,-1.695593,80.91,28.1,3.216,180.7,16 / 22,4008443,2019-08-18 16:20:30:980,-0.2651,-0.0323,10.491,-0.3884,-0.3207,9.7937,-0.0108,-0.0147,-0.0026
40078,47.990337,-1.695593,80.91,28.1,3.216,180.7,16 / 22,4008544,2019-08-18 16:20:31:081,-0.5416,-0.3142,9.1,-0.3826,-0.3246,9.7938,-0.0157,-0.0051,-0.0021
40079,47.990337,-1.695593,80.91,28.1,3.216,180.7,16 / 22,4008644,2019-08-18 16:20:31:181,-0.3286,-0.1826,9.6004,-0.3806,-0.3347,9.7935,-0.0084,0.0047,-0.0007
40080,47.990337,-1.695593,80.91,28.1,3.216,180.7,16 / 22,4008743,2019-08-18 16:20:31:280,-0.4177,-0.0982,9.5657,-0.3817,-0.3377,9.7934,-0.0088,-0.0044,0.0004
40081,47.990337,-1.695593,80.91,28.1,3.216,180.7,16 / 22,4008844,2019-08-18 16:20:31:381,-0.4303,-0.3693,10.1044,-0.3804,-0.34,9.7934,-0.0009,-0.0031,0.0001
40082,47.990337,-1.695593,80.91,28.1,3.216,180.7,16 / 22,4008943,2019-08-18 16:20:31:480,-0.4794,-0.1041,10.6275,-0.377,-0.3383,9.7936,0.0121,-0.0059,0.0002
40083,47.990337,-1.695593,80.91,28.1,3.216,180.7,16 / 22,4009044,2019-08-18 16:20:31:581,-0.2777,-0.1263,10.3803,-0.3675,-0.3174,9.7946,0.0017,-0.0148,-0.0005
40084,47.990337,-1.695593,80.91,28.1,3.216,180.7,16 / 22,4009144,2019-08-18 16:20:31:681,-0.5057,-0.3053,10.2103,-0.3625,-0.3112,9.795,0.0026,0.0011,0.0011
40085,47.990337,-1.695593,80.91,28.1,3.216,180.7,16 / 22,4009243,2019-08-18 16:20:31:780,-0.4973,-0.1664,9.8811,-0.3599,-0.3036,9.7953,0.0023,-0.0062,0.0011
40086,47.990337,-1.695593,80.91,28.1,3.216,180.7,16 / 22,4009343,2019-08-18 16:20:31:880,-0.5057,-0.0138,9.6435,-0.3598,-0.2978,9.7955,-0.0022,-0.0007,0.0013
40087,47.990337,-1.695593,80.91,28.1,3.216,180.7,16 / 22,4009443,2019-08-18 16:20:31:980,-0.4297,-0.1227,9.8608,-0.3639,-0.2981,9.7954,-0.0162,-0.0061,0.0009
40088,47.990337,-1.695593,80.91,28.1,3.216,180.7,16 / 22,4009545,2019-08-18 16:20:32:082,-0.4327,-0.1981,9.8332,-0.3617,-0.3038,9.7953,-0.0162,-0.0061,0.0009
40089,47.990337,-1.695593,80.91,28.1,3.216,180.7,16 / 22,4009643,2019-08-18 16:20:32:180,-0.4596,-0.1347,9.8584,-0.364,-0.3039,9.7952,-0.0063,-0.0026,0.002
40090,47.990337,-1.695593,80.91,28.1,3.216,180.7,16 / 22,4009743,2019-08-18 16:20:32:280,-0.3597,-0.1107,9.4173,-0.3619,-0.2973,9.7955,0.0094,0.0,0.0015
40091,47.990337,-1.695593,80.91,28.1,3.216,180.7,16 / 22,4009843,2019-08-18 16:20:32:380,-0.6937,-0.1413,9.92,-0.3661,-0.288,9.7956,-0.0044,-0.0084,0.002
40092,47.990337,-1.695593,80.91,28.1,3.216,180.7,16 / 22,4009943,2019-08-18 16:20:32:480,-0.5087,0.0246,10.4252,-0.3659,-0.2866,9.7956,-0.0022,-0.0062,0.0009
40093,47.990337,-1.695593,80.91,28.1,3.216,180.7,16 / 22,4010044,2019-08-18 16:20:32:581,-0.3758,-0.2903,10.2971,-0.3567,-0.2846,9.796,0.0043,-0.0074,0.0009
40094,47.990337,-1.695593,80.91,28.1,3.216,180.7,15 / 22,4010144,2019-08-18 16:20:32:681,-0.477,-0.0557,9.6387,-0.355,-0.2792,9.7962,0.0028,-0.0019,0.0011
40095,47.990337,-1.695593,80.91,28.1,3.216,180.7,15 / 22,4010244,2019-08-18 16:20:32:781,-0.553,-0.3466,9.6196,-0.3626,-0.2696,9.7962,0.0012,-0.0054,0.0025
40096,47.990337,-1.695593,80.91,28.1,3.216,180.7,15 / 22,4010343,2019-08-18 16:20:32:880,-0.5446,-0.1329,10.3642,-0.3625,-0.265,9.7964,0.0053,-0.0044,0.0011
40097,47.990337,-1.695593,80.91,28.1,3.216,180.7,15 / 22,4010444,2019-08-18 16:20:32:981,-0.5297,-0.2717,10.3779,-0.3458,-0.2623,9.797,-0.0015,-0.0182,-0.0008
40098,47.990337,-1.695593,80.91,28.1,3.216,180.7,15 / 22,4010543,2019-08-18 16:20:33:080,-0.641,-0.2358,9.9344,-0.3379,-0.2646,9.7973,-0.0138,-0.0144,-0.0015
40099,47.990337,-1.695593,80.91,28.1,3.216,180.7,15 / 22,4010643,2019-08-18 16:20:33:180,-0.4512,-0.3819,10.0613,-0.3323,-0.2717,9.7973,-0.0061,-0.0024,-0.0006
40100,47.990337,-1.695593,80.91,28.1,3.216,180.7,15 / 22,4010743,2019-08-18 16:20:33:280,-0.386,-0.0922,9.8087,-0.3301,-0.2774,9.7972,-0.0049,0.0021,0.0007
40101,47.990337,-1.695593,80.91,28.1,3.216,180.7,15 / 22,4010843,2019-08-18 16:20:33:380,-0.4207,-0.4292,9.7985,-0.3265,-0.2801,9.7972,-0.0074,-0.0067,-0.0026
40102,47.990337,-1.695593,80.91,28.1,3.216,180.7,15 / 22,4010944,2019-08-18 16:20:33:481,-0.21,-0.0682,9.6363,-0.3264,-0.2828,9.7971,-0.0041,-0.0004,-0.003
40103,47.990337,-1.695593,80.91,28.1,3.216,180.7,15 / 22,4011043,2019-08-18 16:20:33:580,-0.4698,-0.2346,9.3957,-0.3283,-0.2835,9.7971,-0.0039,0.0006,-0.0032
40104,47.988083,-1.695656,84.79,27.2,3.216,180.8,13 / 21,4011143,2019-08-18 16:20:33:680,-0.3842,-0.1287,9.9727,-0.3302,-0.2846,9.797,0.0007,0.0001,-0.0014
40105,47.988083,-1.695656,84.79,27.2,3.216,180.8,13 / 21,4011243,2019-08-18 16:20:33:780,-0.4004,-0.5225,9.9613,-0.328,-0.2826,9.7971,-0.0023,-0.0088,-0.0015
40106,47.988083,-1.695656,84.79,27.2,3.216,180.8,13 / 21,4011343,2019-08-18 16:20:33:880,-0.8625,-0.0503,9.9116,-0.3286,-0.2834,9.797,-0.0069,-0.0122,-0.0007
40107,47.988083,-1.695656,84.79,27.2,3.216,180.8,13 / 21,4011443,2019-08-18 16:20:33:980,-0.9061,-0.2801,9.5022,-0.3277,-0.2894,9.7969,-0.0029,-0.0018,-0.0006
40108,47.988083,-1.695656,84.79,27.2,3.216,180.8,13 / 21,4011543,2019-08-18 16:20:34:080,-1.1827,-0.2735,10.0577,-0.3426,-0.2957,9.7962,-0.0022,-0.0006,0.0018
40109,47.988083,-1.695656,84.79,27.2,3.216,180.8,13 / 21,4011643,2019-08-18 16:20:34:180,-0.6883,-0.3394,10.1822,-0.3542,-0.2966,9.7958,-0.0024,-0.0147,0.0003
40110,47.988083,-1.695656,84.79,27.2,3.216,180.8,13 / 21,4011744,2019-08-18 16:20:34:281,-1.0606,-0.3292,10.0912,-0.3567,-0.3003,9.7956,-0.0062,-0.0123,0.0
40111,47.988083,-1.695656,84.79,27.2,3.216,180.8,13 / 21,4011843,2019-08-18 16:20:34:380,-0.8313,-0.4094,10.3683,-0.3591,-0.3037,9.7954,-0.004,-0.0063,-0.0004
40112,47.988083,-1.695656,84.79,27.2,3.216,180.8,13 / 21,4011944,2019-08-18 16:20:34:481,-0.7529,-0.2101,10.0152,-0.3603,-0.3123,9.7951,-0.0083,-0.0126,0.0009
40113,47.988083,-1.695656,84.79,27.2,3.216,180.8,13 / 21,4012043,2019-08-18 16:20:34:580,-0.9983,-0.4603,9.6962,-0.365,-0.3138,9.7948,-0.0044,-0.0058,-0.001
40114,47.988083,-1.695656,84.79,27.2,3.216,180.8,13 / 21,4012143,2019-08-18 16:20:34:680,-0.723,-0.258,10.1379,-0.3743,-0.3199,9.7943,-0.005,-0.0066,-0.0008
40115,47.988083,-1.695656,84.79,27.2,3.216,180.8,13 / 21,4012244,2019-08-18 16:20:34:781,-0.4985,-0.3424,10.1624,-0.3721,-0.3222,9.7943,-0.0008,-0.0121,-0.0003
40116,47.988083,-1.695656,84.79,27.2,3.216,180.8,13 / 21,4012344,2019-08-18 16:20:34:881,-0.0736,-0.3053,9.8338,-0.361,-0.331,9.7944,-0.0219,-0.0087,-0.0036
40117,47.988083,-1.695656,84.79,27.2,3.216,180.8,13 / 21,4012443,2019-08-18 16:20:34:980,-1.6328,-0.7278,9.7405,-0.3532,-0.3278,9.7948,0.0052,-0.003,0.0091
40118,47.988083,-1.695656,84.79,27.2,3.216,180.8,13 / 21,4012543,2019-08-18 16:20:35:080,-0.6524,-0.1999,10.8107,-0.3794,-0.2987,9.7948,0.0262,-0.0267,0.006
40119,47.988083,-1.695656,84.79,27.2,3.216,180.8,13 / 21,4012644,2019-08-18 16:20:35:181,-0.0694,0.2281,10.9022,-0.3513,-0.2886,9.7961,-0.0167,-0.007,0.0002
