,GPS LATITUDE (degrees), GPS LONGITUDE (degrees), GPS ALTITUDE (m), GPS SPEED (Kmh), GPS ACCURACY (m), GPS ORIENTATION (Â°),GPS SATELLITES IN RANGE, TIME SINCE START (ms), DATE (YYYY-MO-DD HH-MI-SS_SSS), ACCELEROMETER X (m/s²) , ACCELEROMETER Y (m/s²), ACCELEROMETER Z (m/s²), GRAVITY X (m/s²), GRAVITY Y (m/s²), GRAVITY Z (m/s²), GYROSCOPE Yaw (rad/s), GYROSCOPE Pitch (rad/s), GYROSCOPE Roll (rad/s), MAGNETIC FIELD X (Î¼T), MAGNETIC FIELD Y (Î¼T), MAGNETIC FIELD Z (Î¼T), ORIENTATION (Yaw) (Â°), ORIENTATION (Pitch) (Â°), ORIENTATION (Roll ) (Â°)
1260,51.850655,-1.171955,118,32.11,19,135.7,Nov-20,630018,2019-02-27 10:26:21:538,0.1517,0.4696,10.5485,0.0343,0.0084,9.8066,0.0458,-0.0309,0.0096,-16.51,-19.86,-15.26,130.78,0.42,-0.61
1261,51.850655,-1.171955,118,32.11,19,135.7,Nov-20,630518,2019-02-27 10:26:22:038,0.0115,-0.1381,9.1038,-0.0186,0.0,9.8066,0.0309,0.0213,0.0032,-16.36,-19.12,-16.33,130.59,0.56,-0.51
1262,51.850655,-1.171955,118,32.11,19,135.7,Nov-20,631017,2019-02-27 10:26:22:537,0.2586,0.0803,10.0989,0.0418,0.0127,9.8066,0.0373,0.0693,0.0064,-16.36,-19.67,-15.67,129.13,0.49,-0.59
1263,51.850655,-1.171955,118,32.11,19,135.7,Nov-20,631517,2019-02-27 10:26:23:037,0.4299,-0.3085,10.5306,0.0168,-0.0003,9.8066,0.0437,0.0394,0.0053,-15.76,-20.18,-15.63,129.1,0.53,-0.46
1264,51.850655,-1.171955,118,32.11,19,135.7,Nov-20,632018,2019-02-27 10:26:23:538,0.5294,0.3448,11.8895,-0.0449,0.0129,9.8065,0.0043,0.0171,0.0043,-15.2,-19.06,-17.48,128.74,0.64,-0.23
1265,51.850655,-1.171955,118,32.11,19,135.7,Nov-20,632518,2019-02-27 10:26:24:038,0.3059,0.3231,8.3691,0.0324,0.0255,9.8066,0.0565,0.1076,0.0107,-16.2,-19.48,-16.07,130.47,0.42,-0.39
1266,51.850655,-1.171955,118,32.11,19,135.7,Nov-20,633017,2019-02-27 10:26:24:537,0.8512,-0.2009,8.6482,-0.0042,-0.0092,9.8066,-0.0479,0.0373,0.0064,-14.94,-20.57,-15.94,126.04,0.55,-0.62
1267,51.850655,-1.171955,118,32.11,19,135.7,Nov-20,633517,2019-02-27 10:26:25:037,-0.5076,-0.182,9.4569,-0.0608,-0.0106,9.8065,0.0053,-0.0287,-0.0149,-15.33,-20.9,-15.11,126.04,0.58,-0.67
1268,51.850655,-1.171955,118,32.11,19,135.7,Nov-20,634018,2019-02-27 10:26:25:538,0.6473,-0.5512,10.7037,0.0066,-0.0255,9.8066,-0.0011,0.1183,-0.0053,-15.35,-20.37,-15.79,127.58,0.56,-1.06
1269,51.850655,-1.171955,118,32.11,19,135.7,Nov-20,634518,2019-02-27 10:26:26:038,-0.6708,0.5955,10.1105,-0.0415,-0.0031,9.8066,0.0032,-0.1033,0.0085,-15.2,-20.17,-16.18,127.59,0.42,-1.26
1270,51.850655,-1.171955,118,32.11,19,135.7,Nov-20,635020,2019-02-27 10:26:26:540,0.17,-0.6656,9.3425,0.0156,-0.0344,9.8066,-0.0096,0.0064,0.0053,-15.38,-20.41,-15.72,127.52,0.44,-1.06
1271,51.850655,-1.171955,118,32.11,19,135.7,Nov-20,635518,2019-02-27 10:26:27:038,-0.0941,0.3711,10.3006,0.0197,0.0591,9.8065,0.033,-0.0064,-0.0011,-15.42,-20.28,-15.84,127.42,0.46,-0.8
1272,51.850655,-1.171955,118,32.11,19,135.7,Nov-20,636017,2019-02-27 10:26:27:537,0.3111,0.2548,10.2129,0.0286,0.0263,9.8066,0.0096,0.0703,0.0032,-14.97,-20.05,-16.54,127.4,0.44,-0.68
1273,51.850655,-1.171955,118,32.11,19,135.7,Nov-20,636518,2019-02-27 10:26:28:038,0.0358,-0.3515,9.6742,0.0267,0.0136,9.8066,-0.0139,-0.0458,0.0149,-14.64,-20.15,-16.72,127.28,0.4,-0.48
1274,51.850655,-1.171955,118,32.11,19,135.7,Nov-20,637019,2019-02-27 10:26:28:539,-0.0075,0.0341,11.0722,0.0393,0.0466,9.8065,0.0149,0.081,0.0064,-15.33,-19.94,-16.35,127.08,0.32,-0.13
1275,51.850655,-1.171955,118,32.11,19,135.7,Nov-20,637518,2019-02-27 10:26:29:038,-0.0104,0.4145,11.6261,0.0064,-0.0244,9.8066,-0.0288,0.0362,0.0138,-12.69,-17.63,-20.7,126.22,0.47,-0.05
1276,51.850655,-1.171955,118,32.11,19,135.7,Nov-20,638017,2019-02-27 10:26:29:537,-0.014,0.3534,9.6668,-0.0812,0.006,9.8063,0.0149,0.0693,0.0085,-14.42,-21.4,-15.3,123.91,0.16,-0.41
1277,51.850655,-1.171955,118,32.11,19,135.7,Nov-20,638517,2019-02-27 10:26:30:037,-0.1654,-0.106,10.8618,-0.0194,-0.0375,9.8066,-0.016,-0.0298,0.0032,-14.6,-20.66,-16.13,125.73,0.22,-0.23
1278,51.850655,-1.171955,118,32.11,19,135.7,Nov-20,639017,2019-02-27 10:26:30:537,-0.174,-0.389,9.0931,-0.058,-0.0537,9.8063,-0.0021,0.0203,0.0043,-14.28,-20.66,-16.41,124.23,0.4,-0.91
1279,51.850655,-1.171955,118,32.11,19,135.7,Nov-20,639517,2019-02-27 10:26:31:037,0.2522,0.1458,9.7474,0.022,-0.0119,9.8066,-0.0043,-0.0458,0.0053,-15.2,-20.17,-16.18,127.48,0.3,-1.15
1280,51.850655,-1.171955,118,32.11,19,135.7,Nov-20,640017,2019-02-27 10:26:31:537,-0.0371,-0.0277,9.7423,-0.0006,0.0283,9.8066,0.0,-0.0362,0.0,-14.97,-20.05,-16.54,127.45,0.29,-1.0
1281,51.850655,-1.171955,118,32.11,19,135.7,Nov-20,640517,2019-02-27 10:26:32:037,0.485,-0.4146,9.0126,0.038,0.0157,9.8066,0.0053,-0.0511,0.0032,-14.61,-20.21,-16.67,127.36,0.31,-0.77
1282,51.850655,-1.171955,118,32.11,19,135.7,Nov-20,641018,2019-02-27 10:26:32:538,-0.3082,0.0471,10.2258,-0.013,-0.0077,9.8066,-0.0043,-0.0415,-0.0032,-14.79,-19.81,-17.0,127.3,0.37,-0.54
1283,51.850655,-1.171955,118,32.11,19,135.7,Nov-20,641518,2019-02-27 10:26:33:038,0.0368,-0.0981,9.2435,0.0067,0.0046,9.8066,-0.0192,-0.0138,-0.0064,-15.35,-19.98,-16.28,127.28,0.36,-0.58
1284,51.850655,-1.171955,118,32.11,19,135.7,Nov-20,642017,2019-02-27 10:26:33:537,-0.3868,-0.2885,9.4362,-0.0596,-0.0505,9.8063,-0.0096,0.016,0.0,-14.8,-19.89,-16.89,127.64,0.29,-1.45
1285,51.850655,-1.171955,118,32.11,19,135.7,Nov-20,642517,2019-02-27 10:26:34:037,-0.2843,-0.4972,9.0183,-0.0549,-0.0233,9.8065,-0.0032,-0.0799,-0.0021,-16.02,-18.81,-17.01,131.02,0.2,-1.79
1286,51.850655,-1.171955,118,32.11,19,135.7,Nov-20,643018,2019-02-27 10:26:34:538,-0.0621,0.6769,10.3511,0.0024,-0.0053,9.8066,0.0138,0.0203,-0.032,-15.78,-19.21,-16.8,131.31,0.26,-2.33
1287,51.850655,-1.171955,118,32.11,19,135.7,Nov-20,643518,2019-02-27 10:26:35:038,0.0657,0.3632,9.4666,-0.0237,-0.0235,9.8066,0.0234,0.0064,-0.0085,-15.77,-18.05,-18.04,133.13,0.3,-2.53
1288,51.850655,-1.171955,118,32.11,19,135.7,Nov-20,644018,2019-02-27 10:26:35:538,0.1268,0.9173,8.1507,-0.0458,-0.0076,9.8065,0.0383,0.0384,-0.017,-15.62,-18.45,-17.77,133.13,0.45,-2.38
1289,51.850655,-1.171955,118,32.11,19,135.7,Nov-20,644518,2019-02-27 10:26:36:038,-0.7734,0.3119,11.4912,-0.0056,-0.0229,9.8066,0.0447,-0.0575,-0.0384,-16.58,-18.31,-17.03,134.91,0.38,-2.72
1290,51.850655,-1.171955,118,32.11,19,135.7,Nov-20,645018,2019-02-27 10:26:36:538,0.4757,0.2292,9.1455,-0.0135,0.0623,9.8064,-0.0011,0.0362,-0.017,-16.81,-17.97,-17.16,135.02,0.52,-2.79
1291,51.850655,-1.171955,118,32.11,19,135.7,Nov-20,645518,2019-02-27 10:26:37:038,-0.1202,-0.7606,10.3514,-0.0266,-0.035,9.8066,0.0341,0.065,-0.032,-17.02,-17.57,-17.37,134.89,0.27,-2.79
1292,51.850655,-1.171955,118,32.11,19,135.7,Nov-20,646018,2019-02-27 10:26:37:538,0.2013,-0.0816,9.8648,-0.0037,0.0056,9.8066,-0.016,-0.0064,-0.0128,-17.6,-17.0,-17.37,138.36,0.27,-3.03
1293,51.850655,-1.171955,118,32.11,19,135.7,Nov-20,646517,2019-02-27 10:26:38:037,0.035,0.4315,10.0332,0.008,0.0359,9.8066,0.0234,0.032,-0.0138,-16.74,-16.81,-18.37,136.76,0.31,-2.85
1294,51.850655,-1.171955,118,32.11,19,135.7,Nov-20,647017,2019-02-27 10:26:38:537,-0.0161,0.1552,10.362,0.0253,-0.0097,9.8066,-0.0756,-0.0447,-0.0032,-17.13,-16.63,-18.16,136.59,0.2,-2.67
1295,51.850655,-1.171955,118,32.11,19,135.7,Nov-20,647517,2019-02-27 10:26:39:037,0.4148,0.434,10.6527,0.0453,-0.0011,9.8065,0.066,0.0469,-0.0277,-17.6,-17.0,-17.37,138.22,0.26,-2.79
1296,51.850655,-1.171955,118,32.11,19,135.7,Nov-20,648018,2019-02-27 10:26:39:538,-0.2179,0.5499,8.8039,-0.0366,-0.0012,9.8066,0.0021,-0.0831,-0.0202,-17.59,-17.57,-16.79,136.52,0.46,-2.62
1297,51.850655,-1.171955,118,32.11,19,135.7,Nov-20,648517,2019-02-27 10:26:40:037,0.3981,0.0588,10.2062,-0.0095,-0.0653,9.8064,0.0032,0.0043,-0.0245,-17.74,-16.59,-17.61,137.99,0.17,-2.3
1298,51.850655,-1.171955,118,32.11,19,135.7,Nov-20,649017,2019-02-27 10:26:40:537,0.261,-0.2948,9.6096,0.0193,-0.02,9.8066,0.0128,-0.049,-0.0096,-17.67,-16.0,-18.21,139.87,0.33,-2.31
1299,51.850655,-1.171955,118,32.11,19,135.7,Nov-20,649517,2019-02-27 10:26:41:037,0.2638,0.0815,8.4476,0.0294,-0.0302,9.8066,-0.0085,-0.0256,-0.0096,-17.97,-16.8,-17.17,138.2,0.39,-2.62
1300,51.850655,-1.171955,118,32.11,19,135.7,Nov-20,650017,2019-02-27 10:26:41:537,-0.4194,0.6424,10.4742,0.0125,0.0447,9.8065,-0.0639,0.0128,-0.0075,-17.79,-17.19,-16.97,138.01,0.27,-2.38
1301,51.850655,-1.171955,118,32.11,19,135.7,Nov-20,650518,2019-02-27 10:26:42:038,0.0476,0.0457,8.9852,0.045,0.0175,9.8065,0.0043,0.0053,-0.017,-18.33,-16.61,-16.97,137.99,0.33,-2.3
1302,51.850655,-1.171955,118,32.11,19,135.7,Nov-20,651017,2019-02-27 10:26:42:537,-0.3548,0.2574,10.0902,0.0137,0.0014,9.8066,-0.0384,-0.0554,-0.0117,-19.02,-15.68,-17.09,141.06,0.28,-1.92
1303,51.850655,-1.171955,118,32.11,19,135.7,Nov-20,651518,2019-02-27 10:26:43:038,0.134,-0.3693,9.381,-0.0363,-0.0117,9.8066,0.0234,-0.0596,-0.016,-18.84,-16.09,-16.92,141.05,0.34,-1.86
1304,51.850655,-1.171955,118,32.11,19,135.7,Nov-20,652018,2019-02-27 10:26:43:538,0.2462,-0.2102,10.5243,0.0039,0.0207,9.8066,-0.0266,0.0053,-0.0256,-19.03,-16.26,-16.53,141.35,0.29,-2.44
1305,51.850655,-1.171955,118,32.11,19,135.7,Nov-20,652517,2019-02-27 10:26:44:037,0.0665,0.5357,8.7372,-0.0057,0.0089,9.8066,0.032,0.0085,-0.0256,-19.16,-15.29,-17.3,143.19,0.23,-2.42
1306,51.850655,-1.171955,118,32.11,19,135.7,Nov-20,653017,2019-02-27 10:26:44:537,-0.1602,0.3066,10.8343,-0.0154,-0.0231,9.8066,0.0011,0.0384,-0.0117,-19.25,-14.92,-17.52,143.23,0.19,-2.37
1307,51.850655,-1.171955,118,32.11,19,135.7,Nov-20,653517,2019-02-27 10:26:45:037,-0.4938,0.2504,9.7417,-0.0357,0.0192,9.8066,-0.016,0.0309,-0.0234,-19.63,-15.34,-16.72,144.56,-0.04,-2.56
1308,51.850655,-1.171955,118,32.11,19,135.7,Nov-20,654017,2019-02-27 10:26:45:537,0.1349,-0.6523,9.3529,0.0325,0.0173,9.8066,-0.0266,0.0117,-0.0043,-19.49,-15.11,-17.08,143.24,0.12,-2.57
1309,51.850655,-1.171955,118,32.11,19,135.7,Nov-20,654517,2019-02-27 10:26:46:037,0.2701,0.8807,9.884,-0.0016,-0.0064,9.8066,-0.0799,-0.1513,-0.0128,-19.78,-14.34,-17.41,146.52,0.22,-2.41
1310,51.850655,-1.171955,118,32.11,19,135.7,Nov-20,655018,2019-02-27 10:26:46:538,-0.1291,0.1678,9.2666,0.0084,-0.0177,9.8066,-0.0181,-0.0927,-0.0128,-20.52,-14.46,-16.43,147.6,0.08,-2.32
1311,51.850655,-1.171955,118,32.11,19,135.7,Nov-20,655517,2019-02-27 10:26:47:037,-0.1681,0.1431,8.4129,-0.0306,0.0165,9.8066,0.0181,-0.0426,-0.0181,-20.63,-14.7,-16.07,145.64,-0.12,-2.34
1312,51.850655,-1.171955,118,32.11,19,135.7,Nov-20,656018,2019-02-27 10:26:47:538,0.4116,-0.7802,10.4442,-0.0158,-0.0054,9.8066,0.0543,0.0437,-0.0288,-20.55,-14.49,-16.36,147.58,-0.1,-2.39
1313,51.850655,-1.171955,118,32.11,19,135.7,Nov-20,656518,2019-02-27 10:26:48:038,-0.0944,-0.4991,10.4852,-0.0407,-0.0304,9.8065,-0.033,-0.0991,-0.016,-20.78,-13.7,-16.75,147.37,-0.19,-1.97
1314,51.850655,-1.171955,118,32.11,19,135.7,Nov-20,657017,2019-02-27 10:26:48:537,0.051,0.1683,10.2707,0.0445,0.0121,9.8065,0.0447,0.082,-0.0245,-20.96,-13.25,-16.89,149.43,-0.12,-2.04
1315,51.850655,-1.171955,118,32.11,19,135.7,Nov-20,657517,2019-02-27 10:26:49:037,-0.2758,0.4963,9.4593,-0.003,-0.0455,9.8065,-0.0181,-0.0202,-0.0085,-21.49,-13.23,-16.21,149.33,-0.28,-2.1
1316,51.850655,-1.171955,118,32.11,19,135.7,Nov-20,658017,2019-02-27 10:26:49:537,0.1313,-0.1883,9.316,-0.0056,0.0691,9.8064,-0.0085,0.0405,-0.017,-20.78,-13.7,-16.75,147.6,-0.16,-2.34
1317,51.850655,-1.171955,118,32.11,19,135.7,Nov-20,658519,2019-02-27 10:26:50:039,-0.2801,-0.1067,9.4396,-0.0134,0.0185,9.8066,0.0138,0.016,-0.0138,-21.28,-13.66,-16.15,147.33,-0.39,-2.14
1318,51.850655,-1.171955,118,32.11,19,135.7,Nov-20,659018,2019-02-27 10:26:50:538,-0.2979,0.5461,9.5459,-0.0148,0.0275,9.8066,0.0405,0.0288,-0.0128,-21.2,-13.05,-16.73,149.27,-0.55,-2.06
1319,51.850655,-1.171955,118,32.11,19,135.7,Nov-20,659517,2019-02-27 10:26:51:037,-0.0426,0.0995,9.3429,0.0254,-0.0077,9.8066,0.0447,0.0671,-0.0234,-21.46,-13.21,-16.28,149.1,-0.55,-1.86
1320,51.850655,-1.171955,118,32.11,19,135.7,Nov-20,660018,2019-02-27 10:26:51:538,-0.3769,0.3537,8.9304,-0.0048,0.0303,9.8066,0.0618,0.0831,-0.0245,-20.98,-12.92,-17.11,149.29,-0.6,-2.11
1321,51.850655,-1.171955,118,32.11,19,135.7,Nov-20,660517,2019-02-27 10:26:52:037,-0.201,-0.0978,9.0347,-0.016,0.0085,9.8066,0.016,-0.016,-0.0181,-21.68,-12.45,-16.58,152.36,-0.72,-1.98
1322,51.850655,-1.171955,118,32.11,19,135.7,Nov-20,661018,2019-02-27 10:26:52:538,-0.2965,-0.1115,9.9874,-0.0227,0.0009,9.8066,-0.0277,0.0139,-0.0075,-22.3,-11.7,-16.3,152.44,-0.68,-2.2
1323,51.850655,-1.171955,118,32.11,19,135.7,Nov-20,661518,2019-02-27 10:26:53:038,0.1302,-0.1907,11.0643,0.0046,-0.0578,9.8065,0.0106,-0.0447,-0.0149,-21.94,-12.29,-16.36,152.44,-0.8,-2.26
1324,51.850655,-1.171955,118,32.11,19,135.7,Nov-20,662017,2019-02-27 10:26:53:537,0.0252,-0.1963,8.7916,0.0011,0.0528,9.8065,0.0032,0.0224,-0.017,-22.63,-12.13,-15.52,153.32,-0.92,-2.04
1325,51.850655,-1.171955,118,32.11,19,135.7,Nov-20,662521,2019-02-27 10:26:54:041,0.049,-0.2205,11.4941,-0.018,-0.0491,9.8065,-0.0692,0.0,-0.0181,-22.6,-11.85,-15.78,153.51,-0.89,-2.34
1326,51.850655,-1.171955,118,32.11,19,135.7,Nov-20,663017,2019-02-27 10:26:54:537,0.3807,0.014,8.1568,-0.0124,0.0715,9.8064,-0.0245,-0.0021,-0.0245,-22.67,-11.16,-16.17,155.09,-1.12,-1.66
1327,51.850655,-1.171955,118,32.11,19,135.7,Nov-20,663518,2019-02-27 10:26:55:038,0.0445,0.262,10.3746,-0.0194,-0.0687,9.8064,-0.049,-0.0362,-0.0064,-22.3,-11.7,-16.3,152.25,-1.05,-2.07
1328,51.850655,-1.171955,118,32.11,19,135.7,Nov-20,664018,2019-02-27 10:26:55:538,-0.7882,0.871,9.2072,-0.0126,0.0153,9.8066,0.0181,0.0927,-0.0149,-22.39,-12.0,-15.97,151.99,-1.11,-1.67
1329,51.850655,-1.171955,118,32.11,19,135.7,Nov-20,664517,2019-02-27 10:26:56:037,0.4753,-0.6699,10.1048,0.0025,0.0151,9.8066,-0.0565,-0.0522,-0.0075,-22.67,-11.16,-16.17,155.25,-1.01,-1.88
1330,51.850655,-1.171955,118,32.11,19,135.7,Nov-20,665017,2019-02-27 10:26:56:537,-0.2949,-0.1542,9.2421,-0.0158,-0.0508,9.8065,-0.0522,-0.0053,-0.0128,-22.66,-11.43,-16.01,155.19,-1.03,-1.79
1331,51.850655,-1.171955,118,32.11,19,135.7,Nov-20,665518,2019-02-27 10:26:57:038,0.2045,-0.0522,8.6747,0.0164,0.0374,9.8066,0.0011,-0.0224,-0.0266,-23.61,-11.48,-14.51,156.41,-1.12,-2.47
1332,51.850655,-1.171955,118,32.11,19,135.7,Nov-20,666018,2019-02-27 10:26:57:538,-0.1674,-0.3749,9.1101,0.0045,0.0,9.8066,-0.0192,-0.0287,-0.0149,-23.82,-11.32,-14.31,156.34,-1.1,-2.46
1333,51.850655,-1.171955,118,32.11,19,135.7,Nov-20,666518,2019-02-27 10:26:58:038,0.1476,0.2413,10.4283,-0.0317,0.0163,9.8066,0.0309,0.0895,-0.0202,-24.39,-11.13,-13.45,156.29,-1.23,-2.54
1334,51.850655,-1.171955,118,32.11,19,135.7,Nov-20,667017,2019-02-27 10:26:58:537,-0.0195,0.3895,10.4351,0.0397,0.0078,9.8066,-0.0671,-0.016,-0.0107,-23.95,-10.93,-14.39,156.28,-1.24,-2.39
1335,51.850655,-1.171955,118,32.11,19,135.7,Nov-20,667517,2019-02-27 10:26:59:037,-0.1565,0.2696,9.583,0.0523,0.0646,9.8063,-0.0011,-0.0224,-0.0032,-23.56,-10.91,-15.03,156.31,-1.32,-2.36
1336,51.850655,-1.171955,118,32.11,19,135.7,Nov-20,668017,2019-02-27 10:26:59:537,-0.0709,-0.3437,9.7545,-0.0218,0.0114,9.8066,-0.0032,0.0,-0.0256,-24.26,-9.97,-14.57,158.1,-1.34,-1.88
1337,51.850655,-1.171955,118,32.11,19,135.7,Nov-20,668517,2019-02-27 10:27:00:037,0.1355,0.0145,9.8041,-0.0748,-0.0663,9.8061,0.033,-0.0628,-0.0213,-24.74,-10.49,-13.34,158.72,-1.3,-1.66
1338,51.850655,-1.171955,118,32.11,19,135.7,Nov-20,669017,2019-02-27 10:27:00:537,-0.1282,-0.514,10.8254,0.047,0.0036,9.8065,0.0234,0.0831,-0.0021,-24.89,-10.01,-13.42,158.91,-1.57,-2.18
1339,51.850655,-1.171955,118,32.11,19,135.7,Nov-20,669517,2019-02-27 10:27:01:037,0.2258,0.5022,8.2771,-0.0274,0.0576,9.8064,0.0234,0.0916,-0.032,-24.38,-9.58,-14.62,157.99,-1.58,-1.8
1340,51.850655,-1.171955,118,32.11,19,135.7,Nov-20,670017,2019-02-27 10:27:01:537,-0.064,0.3624,10.1787,0.0166,0.035,9.8066,-0.0149,0.0575,-0.0064,-24.62,-9.68,-14.15,158.79,-1.54,-1.83
1341,51.850655,-1.171955,118,32.11,19,135.7,Nov-20,670517,2019-02-27 10:27:02:037,-0.1242,0.2355,10.5134,0.0141,-0.0134,9.8066,0.0043,-0.0181,-0.0224,-25.04,-9.51,-13.5,158.73,-1.42,-1.65
1342,51.850655,-1.171955,118,32.11,19,135.7,Nov-20,671017,2019-02-27 10:27:02:537,-0.1224,-0.1269,10.2508,-0.0212,-0.031,9.8066,0.0352,-0.0192,-0.0245,-24.83,-9.76,-13.73,158.72,-1.46,-1.66
1343,51.850655,-1.171955,118,32.11,19,135.7,Nov-20,671517,2019-02-27 10:27:03:037,0.413,-0.3161,8.6564,-0.0134,-0.0509,9.8065,-0.0085,-0.0021,-0.0256,-24.97,-9.28,-13.8,161.04,-1.49,-2.18
1344,51.850655,-1.171955,118,32.11,19,135.7,Nov-20,672018,2019-02-27 10:27:03:538,-0.0128,0.023,9.8434,-0.0122,0.0384,9.8066,0.0149,-0.001,-0.0053,-25.38,-8.88,-13.3,161.0,-1.47,-2.23
1345,51.850655,-1.171955,118,32.11,19,135.7,Nov-20,672518,2019-02-27 10:27:04:038,-0.1315,-0.0734,9.6763,0.0016,0.015,9.8066,-0.0075,0.0213,-0.0032,-25.3,-8.66,-13.6,160.94,-1.61,-2.04
1346,51.850655,-1.171955,118,32.11,19,135.7,Nov-20,673018,2019-02-27 10:27:04:538,-0.5352,-0.0278,10.6306,-0.0611,0.0053,9.8065,0.0075,0.0128,-0.0202,-25.3,-8.66,-13.6,160.95,-1.83,-2.14
1347,51.850655,-1.171955,118,32.11,19,135.7,Nov-20,673518,2019-02-27 10:27:05:038,-0.6122,-0.213,11.8924,-0.0177,-0.0056,9.8066,0.016,0.0224,-0.0117,-25.85,-8.7,-12.49,161.61,-1.67,-2.26
1348,51.850655,-1.171955,118,32.11,19,135.7,Nov-20,674018,2019-02-27 10:27:05:538,-0.3494,-0.0048,9.842,-0.0106,-0.0023,9.8066,0.0202,0.0288,-0.017,-25.72,-8.11,-13.14,163.74,-1.81,-2.36
1349,51.850655,-1.171955,118,32.11,19,135.7,Nov-20,674518,2019-02-27 10:27:06:038,0.4473,-0.0691,10.4401,-0.018,-0.0312,9.8066,-0.0117,-0.0074,-0.0128,-25.75,-8.13,-13.07,163.73,-1.78,-2.32
1350,51.850655,-1.171955,118,32.11,19,135.7,Nov-20,675018,2019-02-27 10:27:06:538,0.2532,0.1485,9.291,-0.0144,0.0241,9.8066,0.0192,-0.065,-0.0373,-25.83,-7.82,-13.1,163.82,-1.83,-2.53
1351,51.850655,-1.171955,118,32.11,19,135.7,Nov-20,675517,2019-02-27 10:27:07:037,0.0111,0.1795,8.7884,0.0218,-0.032,9.8066,-0.0629,-0.0405,-0.0107,-25.43,-7.49,-14.05,165.29,-1.85,-2.27
1352,51.850655,-1.171955,118,32.11,19,135.7,Nov-20,676018,2019-02-27 10:27:07:538,-0.0352,0.4414,8.407,-0.0515,-0.0237,9.8065,-0.033,0.0213,-0.0149,-25.57,-8.43,-13.23,163.75,-2.1,-2.48
1353,51.850655,-1.171955,118,32.11,19,135.7,Nov-20,676518,2019-02-27 10:27:08:038,-0.6308,0.3662,10.0856,0.0211,-0.0092,9.8066,-0.0128,-0.0469,-0.0085,-25.67,-7.56,-13.56,163.85,-1.97,-2.5
1354,51.850655,-1.171955,118,32.11,19,135.7,Nov-20,677017,2019-02-27 10:27:08:537,0.06,-0.1113,10.0289,-0.005,-0.0269,9.8066,-0.0075,-0.0202,-0.017,-25.75,-7.05,-13.69,165.91,-1.85,-2.4
1355,51.850655,-1.171955,118,32.11,19,135.7,Nov-20,677518,2019-02-27 10:27:09:038,0.451,-0.3496,9.5801,0.0276,-0.0205,9.8066,-0.049,-0.0469,-0.0117,-25.85,-7.68,-13.16,163.89,-1.65,-2.63
1356,51.850655,-1.171955,118,32.11,19,135.7,Nov-20,678018,2019-02-27 10:27:09:538,0.3278,0.0997,8.8775,0.0299,0.0004,9.8066,-0.0011,-0.0778,-0.0234,-26.2,-7.17,-12.74,165.88,-1.93,-2.51
1357,51.850655,-1.171955,118,32.11,19,135.7,Nov-20,678517,2019-02-27 10:27:10:037,0.4646,-0.2228,9.2763,0.0013,-0.0362,9.8066,-0.0043,-0.0106,-0.0224,-26.15,-6.16,-13.36,168.0,-1.77,-2.47
1358,51.850655,-1.171955,118,32.11,19,135.7,Nov-20,679017,2019-02-27 10:27:10:537,-0.0386,0.012,9.2531,-0.0069,0.0227,9.8066,-0.0245,-0.0522,-0.0138,-26.38,-6.62,-12.66,165.87,-1.66,-2.41
1359,51.850655,-1.171955,118,32.11,19,135.7,Nov-20,679518,2019-02-27 10:27:11:038,0.3844,0.1052,9.4399,0.0302,0.0198,9.8066,-0.0288,-0.0373,-0.0043,-27.24,-6.53,-10.75,166.18,-1.73,-2.29
1360,51.850655,-1.171955,118,32.11,19,135.7,Nov-20,680017,2019-02-27 10:27:11:537,-0.206,0.1015,9.5143,0.0002,0.0562,9.8065,-0.0128,-0.0298,-0.0138,-27.24,-6.06,-11.02,168.04,-1.66,-1.81
1361,51.850655,-1.171955,118,32.11,19,135.7,Nov-20,680517,2019-02-27 10:27:12:037,-0.3694,-0.0473,8.5381,0.0448,-0.0024,9.8065,0.0224,-0.1054,-0.0075,-26.9,-6.79,-11.41,166.01,-1.4,-1.77
1362,51.850655,-1.171955,118,32.11,19,135.7,Nov-20,681017,2019-02-27 10:27:12:537,0.0218,-0.2043,9.6469,-0.0215,-0.0006,9.8066,0.0053,0.0533,-0.0181,-27.28,-6.18,-10.85,168.0,-1.36,-1.64
1363,51.850655,-1.171955,118,32.11,19,135.7,Nov-20,681518,2019-02-27 10:27:13:038,-0.0911,0.0342,9.0554,-0.0096,0.0167,9.8066,0.0,-0.0117,-0.0085,-26.82,-5.83,-12.12,168.1,-1.06,-1.69
1364,51.850655,-1.171955,118,32.11,19,135.7,Nov-20,682017,2019-02-27 10:27:13:537,-0.4898,0.2929,10.3595,-0.0252,-0.0297,9.8066,-0.0053,-0.0501,-0.0234,-26.98,-5.53,-11.89,168.05,-1.14,-1.61
1365,51.850655,-1.171955,118,32.11,19,135.7,Nov-20,682517,2019-02-27 10:27:14:037,0.1531,-0.6044,10.0012,-0.0199,-0.0109,9.8066,0.0277,0.0139,-0.0256,-26.72,-5.47,-12.5,170.25,-0.96,-1.88
1366,51.850655,-1.171955,118,32.11,19,135.7,Nov-20,683018,2019-02-27 10:27:14:538,0.2794,-0.4189,8.1329,0.0003,-0.1005,9.8061,-0.0256,0.0064,-0.0213,-26.8,-3.93,-12.89,172.69,-0.86,-2.46
1367,51.850655,-1.171955,118,32.11,19,135.7,Nov-20,683517,2019-02-27 10:27:15:037,-0.1367,0.1923,8.7412,0.0389,-0.0228,9.8065,-0.0405,-0.1012,-0.0064,-26.77,-4.94,-12.61,170.57,-0.98,-2.43
1368,51.850655,-1.171955,118,32.11,19,135.7,Nov-20,684017,2019-02-27 10:27:15:537,-0.6143,0.6601,8.8953,-0.0267,0.0364,9.8065,-0.0202,-0.0106,-0.0224,-26.84,-4.4,-12.65,172.62,-0.91,-2.33
1369,51.850655,-1.171955,118,32.11,19,135.7,Nov-20,684518,2019-02-27 10:27:16:038,-0.1827,0.7609,9.5812,0.0288,-0.0215,9.8066,-0.0192,-0.1033,-0.0149,-26.94,-4.51,-12.4,170.4,-0.73,-2.19
1370,51.850655,-1.171955,118,32.11,19,135.7,0 / 20,685017,2019-02-27 10:27:16:537,-0.7805,0.4548,11.2013,0.0046,-0.0054,9.8066,0.0266,-0.0085,-0.0043,-27.0,-4.98,-12.08,170.48,-0.51,-2.31
1371,51.850655,-1.171955,118,32.11,19,135.7,0 / 20,685518,2019-02-27 10:27:17:038,-0.4647,0.4487,9.0026,0.027,0.0494,9.8065,-0.0639,-0.0543,-0.0107,-26.8,-4.94,-12.54,170.47,-0.47,-2.11
1372,51.850655,-1.171955,118,32.11,19,135.7,0 / 20,686017,2019-02-27 10:27:17:537,0.03,0.2493,7.5747,0.0365,-0.028,9.8065,-0.0597,-0.1257,-0.0128,-26.94,-4.87,-12.26,170.32,-0.51,-1.97
1373,51.850655,-1.171955,118,32.11,19,135.7,0 / 20,686517,2019-02-27 10:27:18:037,0.3548,-0.5987,10.4183,-0.0056,-0.0025,9.8067,0.0181,0.0565,-0.0298,-27.28,-4.57,-11.61,170.4,-0.3,-2.12
1374,51.850655,-1.171955,118,32.11,19,135.7,Aug-20,687017,2019-02-27 10:27:18:537,0.1389,-0.4371,9.472,-0.0256,-0.0184,9.8066,0.0628,0.0266,-0.0309,-27.12,-3.82,-12.25,172.58,-0.3,-2.34
1375,51.850655,-1.171955,118,32.11,19,135.7,Aug-20,687518,2019-02-27 10:27:19:038,-0.064,-0.0457,9.9794,0.0466,-0.0554,9.8064,-0.0224,-0.0021,-0.0266,-26.44,-3.88,-13.64,172.71,-0.13,-2.76
1376,51.82085,-1.106573,117,32.58,15,162.5,Aug-20,688017,2019-02-27 10:27:19:537,0.0747,-0.191,10.1263,-0.0136,-0.0266,9.8066,0.0043,-0.0117,-0.0224,-26.5,-3.34,-13.67,174.78,-0.18,-2.55
1377,51.82085,-1.106573,117,32.58,15,162.5,Aug-20,688517,2019-02-27 10:27:20:037,0.2265,-0.3198,10.7963,0.0124,0.0049,9.8066,0.0096,0.0309,-0.017,-26.95,-2.77,-12.88,174.95,-0.24,-2.72
1378,51.82085,-1.106573,117,32.58,15,162.5,Aug-20,689017,2019-02-27 10:27:20:537,-0.0704,0.5263,9.1267,0.0367,0.044,9.8065,-0.0192,-0.0234,-0.0064,-26.54,-1.72,-13.88,177.01,0.03,-2.41
1379,51.82085,-1.106573,117,32.58,15,162.5,Aug-20,689518,2019-02-27 10:27:21:038,-0.01,0.4441,9.8098,0.0332,0.0632,9.8064,-0.0139,-0.0256,-0.0149,-27.14,-2.29,-12.58,176.88,-0.01,-2.32
1380,51.82085,-1.106573,117,32.58,15,162.5,Mar-20,690017,2019-02-27 10:27:21:537,-0.2447,-0.035,9.8872,-0.0067,0.0141,9.8066,0.0128,0.0245,-0.0096,-26.92,-2.27,-13.04,176.66,0.12,-1.86
1381,51.82085,-1.106573,117,32.58,15,162.5,Mar-20,690517,2019-02-27 10:27:22:037,0.0762,-0.1506,9.0329,0.0179,0.0191,9.8066,0.0106,-0.0096,-0.0075,-27.14,-2.29,-12.58,176.62,0.24,-1.77
1382,51.82085,-1.106573,117,32.58,15,162.5,Jul-20,691017,2019-02-27 10:27:22:537,-0.3769,0.1938,10.4919,-0.0083,0.0456,9.8065,0.0106,-0.0224,-0.0043,-26.95,-1.71,-13.06,176.57,0.34,-1.65
1383,51.82085,-1.106573,117,32.58,15,162.5,Jul-20,691517,2019-02-27 10:27:23:037,0.6259,-0.1178,10.6278,-0.0279,0.0716,9.8063,0.0543,0.0757,-0.0075,-26.66,-2.25,-13.57,176.35,0.43,-1.1
1384,51.82085,-1.106573,117,32.58,15,162.5,Jul-20,692017,2019-02-27 10:27:23:537,0.2237,0.1772,8.1552,0.0441,0.1401,9.8056,0.0383,-0.0053,-0.0117,-26.58,-2.29,-13.72,175.93,0.64,-0.27
1385,51.82085,-1.106573,117,32.58,15,162.5,Jul-20,692519,2019-02-27 10:27:24:039,-0.0539,0.1991,9.3343,0.0236,0.1302,9.8058,0.0,-0.016,-0.0075,-27.14,-1.76,-12.66,175.55,0.72,0.5
1386,51.82085,-1.106573,117,32.58,15,162.5,Jul-20,693017,2019-02-27 10:27:24:537,0.0047,0.2794,7.8289,-0.0128,0.0536,9.8065,0.0437,0.0522,0.0,-26.77,-1.7,-13.43,175.4,0.62,0.8
1387,51.82085,-1.106573,117,32.58,15,162.5,Jul-20,693518,2019-02-27 10:27:25:038,-0.1375,0.3027,9.2651,-0.0019,-0.0084,9.8066,-0.0341,-0.0405,0.0043,-26.38,-1.71,-14.18,175.13,0.8,0.95
1388,51.82085,-1.106573,117,32.58,15,162.5,Jul-20,694017,2019-02-27 10:27:25:537,0.8269,-0.5988,8.5761,0.0093,0.0087,9.8066,0.0011,-0.0138,0.0085,-26.88,-1.74,-13.21,175.27,0.84,1.09
1389,51.82085,-1.106573,117,32.58,15,162.5,Jul-20,694517,2019-02-27 10:27:26:037,0.0066,-0.2049,9.3573,-0.0037,-0.05,9.8065,-0.0277,0.0181,-0.0202,-26.35,-2.27,-14.16,175.03,0.89,1.15
1390,51.82085,-1.106573,117,32.58,15,162.5,Jul-20,695017,2019-02-27 10:27:26:537,0.1336,-0.3085,9.0875,0.0238,0.0106,9.8066,0.0288,-0.049,0.0,-26.65,-1.73,-13.66,175.48,1.05,0.64
1391,51.82085,-1.106573,117,32.58,15,162.5,Jul-20,695517,2019-02-27 10:27:27:037,-0.1816,-0.9199,9.8083,-0.0084,0.0478,9.8065,0.0692,0.0842,0.0021,-26.96,-0.6,-13.15,177.46,0.98,0.91
1392,51.82085,-1.106573,117,32.58,15,162.5,Jul-20,696018,2019-02-27 10:27:27:538,0.5019,0.0747,9.2082,0.019,0.0563,9.8065,0.0458,0.0235,-0.016,-26.33,-0.6,-14.36,177.49,1.27,0.63
1393,51.82085,-1.106573,117,32.58,15,162.5,Jul-20,696517,2019-02-27 10:27:28:037,-0.4827,0.5744,10.2546,-0.0123,0.0288,9.8066,0.0618,0.0277,-0.0075,-27.22,-0.61,-12.6,177.52,1.19,0.8
1394,51.82085,-1.106573,117,32.58,15,162.5,Jul-20,697017,2019-02-27 10:27:28:537,-0.0702,0.2014,10.5904,-0.0006,0.0061,9.8066,-0.0181,0.0895,0.0021,-26.61,-0.61,-13.84,177.44,1.29,0.9
1395,51.82085,-1.106573,117,32.58,15,162.5,Jul-20,697518,2019-02-27 10:27:29:038,0.0665,-0.0065,9.1144,0.011,0.0284,9.8066,-0.0234,-0.0426,0.0032,-26.85,-0.61,-13.38,177.34,1.33,1.17
1396,51.82085,-1.106573,117,32.58,15,162.5,Jul-20,698017,2019-02-27 10:27:29:537,0.2303,-0.1581,9.583,-0.0055,-0.0642,9.8064,0.0106,0.0586,0.0011,-27.1,-1.21,-12.82,177.27,1.39,1.34
1397,51.82085,-1.106573,117,32.58,15,162.5,Jul-20,698517,2019-02-27 10:27:30:037,-0.1041,-0.1988,9.1472,0.0134,-0.0162,9.8066,0.0298,0.016,-0.0021,-26.6,-1.18,-13.83,177.49,1.43,0.81
1398,51.82085,-1.106573,117,32.58,15,162.5,Jul-20,699017,2019-02-27 10:27:30:537,-0.1214,-0.0569,9.3306,0.0228,0.031,9.8066,-0.0224,-0.0479,-0.0107,-26.6,-1.18,-13.83,177.44,1.63,0.91
1399,51.82085,-1.106573,117,32.58,15,162.5,Jul-20,699517,2019-02-27 10:27:31:037,0.1783,-0.0631,8.3356,0.0362,0.0008,9.8066,0.0288,0.0075,-0.017,-26.6,-1.18,-13.83,177.54,1.54,0.72
1400,51.82085,-1.106573,117,32.58,15,162.5,Jul-20,700018,2019-02-27 10:27:31:538,-0.108,0.3415,10.0226,-0.0111,-0.0328,9.8066,-0.0341,-0.0341,0.0064,-26.2,-1.68,-14.51,175.37,1.71,0.54
1401,51.82085,-1.106573,117,32.58,15,162.5,Jul-20,700517,2019-02-27 10:27:32:037,-0.2591,-0.0747,9.6919,0.0287,-0.0132,9.8066,-0.0117,-0.0042,-0.0053,-25.92,-1.66,-15.02,175.38,1.76,0.53
1402,51.82085,-1.106573,117,32.58,15,162.5,Jul-20,701019,2019-02-27 10:27:32:539,0.132,-0.0141,9.1352,0.0021,-0.0014,9.8066,0.0192,-0.0032,-0.0075,-26.75,-1.22,-13.53,177.68,1.94,0.46
1403,51.82085,-1.106573,117,32.58,15,162.5,Jul-20,701517,2019-02-27 10:27:33:037,0.1095,-0.1836,9.3125,0.0027,-0.0626,9.8065,-0.0011,-0.0053,-0.0107,-26.45,-2.28,-13.96,175.38,1.87,0.56
1404,51.82085,-1.106573,117,32.58,15,162.5,Jul-20,702019,2019-02-27 10:27:33:539,-0.1312,0.0952,9.624,-0.0097,0.0052,9.8066,-0.0192,-0.0128,-0.0011,-26.22,-1.19,-14.52,177.63,2.09,0.38
1405,51.82085,-1.106573,117,32.58,15,162.5,Jul-20,702530,2019-02-27 10:27:34:050,0.0759,0.0228,9.4153,-0.0003,0.0026,9.8066,0.0064,-0.0042,-0.0032,-26.49,-1.7,-13.98,175.46,2.03,0.43
1406,51.82085,-1.106573,117,32.58,15,162.5,Jul-20,703017,2019-02-27 10:27:34:537,-0.0099,0.2205,9.6291,-0.005,0.0065,9.8066,-0.0543,-0.0042,0.0011,-26.51,-1.11,-13.99,177.82,2.24,0.19
1407,51.82085,-1.106573,117,32.58,15,162.5,Jul-20,703518,2019-02-27 10:27:35:038,-0.4043,-0.0598,10.8757,-0.0065,-0.1111,9.806,-0.017,0.0245,-0.0021,-25.98,-1.09,-14.96,178.08,2.19,-0.42
1408,51.82085,-1.106573,117,32.58,15,162.5,Jul-20,704017,2019-02-27 10:27:35:537,0.113,-0.1218,9.718,0.0008,-0.01,9.8066,0.0138,-0.0138,0.0053,-26.13,-2.47,-14.52,176.06,2.29,-0.65
1409,51.82085,-1.106573,117,32.58,15,162.5,Jul-20,704518,2019-02-27 10:27:36:038,0.0728,0.1492,9.6499,0.0223,0.073,9.8064,0.0021,-0.0021,0.0011,-27.11,-2.62,-12.58,174.1,2.3,-0.7
1410,51.82085,-1.106573,117,32.58,15,162.5,Jul-20,705017,2019-02-27 10:27:36:537,0.3474,0.2665,11.4657,0.012,0.0319,9.8066,-0.0607,-0.065,-0.0117,-26.42,-2.5,-13.98,175.85,2.59,-0.28
1411,51.82085,-1.106573,117,32.58,15,162.5,Jul-20,705520,2019-02-27 10:27:37:040,-0.6569,0.8064,10.6267,0.0561,0.0755,9.8062,-0.0011,-0.0639,0.0096,-26.33,-3.08,-14.04,173.49,2.89,0.18
1412,51.82085,-1.106573,117,32.58,15,162.5,Jul-20,706018,2019-02-27 10:27:37:538,0.7307,0.3253,9.1709,0.035,0.0398,9.8065,-0.0021,0.1055,0.0202,-26.62,-3.12,-13.48,173.39,2.84,0.87
1413,51.82085,-1.106573,117,32.58,15,162.5,Jul-20,706517,2019-02-27 10:27:38:037,-0.0349,0.0393,9.2692,0.0961,0.0266,9.8061,-0.0021,0.0235,0.0149,-26.42,-3.78,-13.69,170.67,2.77,1.54
1414,51.82085,-1.106573,117,32.58,15,162.5,Jul-20,707017,2019-02-27 10:27:38:537,0.369,0.1939,9.4648,-0.0421,0.0909,9.8061,-0.0533,-0.0724,0.0202,-26.25,-4.27,-13.89,170.59,3.3,1.79
1415,51.82085,-1.106573,117,32.58,15,162.5,Jul-20,707518,2019-02-27 10:27:39:038,0.056,0.0908,10.1807,-0.0214,0.0454,9.8065,-0.0021,-0.016,0.017,-26.78,-4.56,-12.72,168.81,3.34,2.14
1416,51.82085,-1.106573,117,32.58,15,162.5,Jul-20,708018,2019-02-27 10:27:39:538,0.1609,0.0415,10.3406,-0.0009,-0.0098,9.8066,0.0021,-0.0234,0.0149,-26.14,-5.3,-13.74,168.21,3.17,2.37
1417,51.82085,-1.106573,117,32.58,15,162.5,Jul-20,708517,2019-02-27 10:27:40:037,-0.1089,0.0405,9.5286,-0.0316,-0.0312,9.8065,0.016,-0.0586,0.0224,-25.29,-6.85,-14.61,163.66,3.03,2.11
1418,51.82085,-1.106573,117,32.58,15,162.5,Jul-20,709017,2019-02-27 10:27:40:537,-0.0538,0.1305,11.2903,-0.015,0.0812,9.8063,-0.0266,-0.0341,0.0277,-26.04,-6.29,-13.51,166.06,2.81,2.54
1419,51.82085,-1.106573,117,32.58,15,162.5,Jul-20,709518,2019-02-27 10:27:41:038,-0.1803,0.2122,10.5365,0.005,0.0327,9.8066,0.0288,0.0075,0.0266,-26.04,-6.29,-13.51,166.05,2.76,2.54
1420,51.82085,-1.106573,117,32.58,15,162.5,Jul-20,710017,2019-02-27 10:27:41:537,0.0639,-0.1558,9.467,-0.0031,-0.0019,9.8066,-0.0458,0.0469,0.0234,-25.66,-8.03,-13.31,162.05,2.73,2.71
1421,51.82085,-1.106573,117,32.58,15,162.5,Jul-20,710518,2019-02-27 10:27:42:038,-0.5884,0.8067,9.2608,0.028,-0.0052,9.8066,-0.0746,-0.1417,0.0501,-26.2,-6.95,-12.86,163.99,2.64,2.78
1422,51.82085,-1.106573,117,32.58,15,162.5,Jul-20,711017,2019-02-27 10:27:42:537,-0.3952,-0.0732,11.6604,-0.0364,-0.0385,9.8065,0.0426,0.0245,0.0256,-25.7,-8.35,-13.02,161.97,2.7,2.89
1423,51.82085,-1.106573,117,32.58,15,162.5,Jul-20,711517,2019-02-27 10:27:43:037,0.2087,-0.8595,10.6373,0.0053,-0.0391,9.8066,0.0554,0.1065,0.0096,-25.7,-8.35,-13.02,162.08,2.57,2.61
1424,51.82085,-1.106573,117,32.58,15,162.5,Jul-20,712018,2019-02-27 10:27:43:538,-0.2916,0.1739,11.36,-0.0285,-0.0052,9.8066,-0.0181,0.0139,0.0266,-25.56,-8.9,-12.95,160.26,2.52,2.32
1425,51.82085,-1.106573,117,32.58,15,162.5,Jul-20,712518,2019-02-27 10:27:44:038,0.0202,0.1144,8.7515,-0.0311,0.0237,9.8066,-0.0426,-0.0564,0.0202,-25.58,-8.51,-13.17,160.2,2.3,2.39
1426,51.82085,-1.106573,117,32.58,15,162.5,Jul-20,713017,2019-02-27 10:27:44:537,0.15,-0.6359,10.0131,-0.0159,0.0085,9.8066,-0.0139,-0.0554,0.0234,-26.14,-8.3,-12.15,162.29,2.24,2.14
1427,51.82085,-1.106573,117,32.58,15,162.5,Jul-20,713517,2019-02-27 10:27:45:037,0.8397,-0.4027,8.5144,-0.0031,-0.0107,9.8066,-0.0075,0.0203,0.016,-25.37,-8.84,-13.35,159.6,2.14,2.09
1428,51.82085,-1.106573,117,32.58,15,162.5,Jul-20,714017,2019-02-27 10:27:45:537,0.1958,-0.2735,9.6813,0.0086,0.0266,9.8066,0.0234,-0.0799,0.0373,-26.03,-8.86,-12.0,160.43,1.99,1.86
1429,51.82085,-1.106573,117,32.58,15,162.5,Jul-20,714517,2019-02-27 10:27:46:037,-0.0149,0.2333,9.5612,-0.0055,0.0482,9.8065,0.0053,0.0224,0.017,-25.31,-9.99,-12.63,157.52,1.85,2.27
1430,51.82085,-1.106573,117,32.58,15,162.5,Jul-20,715017,2019-02-27 10:27:46:537,0.2642,-0.0135,9.8044,0.0127,0.0002,9.8066,0.0213,0.0693,0.0256,-25.07,-9.89,-13.18,157.52,1.69,2.21
1431,51.82085,-1.106573,117,32.58,15,162.5,Jul-20,715518,2019-02-27 10:27:47:038,-0.2325,0.3209,10.0036,-0.043,0.0274,9.8065,-0.0128,-0.0085,0.0256,-25.47,-9.46,-12.71,159.5,1.74,2.18
1432,51.82085,-1.106573,117,32.58,15,162.5,Jul-20,716018,2019-02-27 10:27:47:538,0.1432,-0.101,10.1137,-0.0006,-0.0604,9.8065,0.0181,0.0565,0.0085,-25.42,-11.2,-11.34,155.8,1.58,1.92
1433,51.82085,-1.106573,117,32.58,15,162.5,Jul-20,716518,2019-02-27 10:27:48:038,-0.4377,0.1521,7.4087,-0.0733,0.0054,9.8064,0.0224,-0.0959,0.0426,-25.49,-11.21,-11.16,155.75,1.51,2.04
1434,51.82085,-1.106573,117,32.58,15,162.5,Jul-20,717018,2019-02-27 10:27:48:538,-0.0902,0.5192,10.6259,0.0292,0.0109,9.8066,0.0021,0.0266,0.0192,-25.52,-12.5,-9.62,152.99,1.19,2.06
1435,51.82085,-1.106573,117,32.58,15,162.5,Jul-20,717517,2019-02-27 10:27:49:037,0.9948,-0.9883,11.4977,0.0222,0.0014,9.8066,0.1364,0.2855,-0.0011,-25.19,-11.72,-11.3,153.79,1.14,2.16
1436,51.82085,-1.106573,117,32.58,15,162.5,Jul-20,718018,2019-02-27 10:27:49:538,0.3811,-0.2942,7.5402,-0.0487,0.0343,9.8065,-0.032,-0.0042,0.017,-25.94,-10.35,-10.97,158.33,1.26,2.23
1437,51.82085,-1.106573,117,32.58,15,162.5,Jul-20,718517,2019-02-27 10:27:50:037,0.928,-0.7296,10.4051,-0.016,-0.0149,9.8066,0.0352,0.0288,0.0234,-25.03,-12.19,-11.17,153.79,1.2,2.19
1438,51.82085,-1.106573,117,32.58,15,162.5,Jul-20,719019,2019-02-27 10:27:50:539,0.3835,0.1301,9.4409,-0.0874,0.0182,9.8062,0.0149,0.1374,0.0128,-25.45,-11.21,-11.26,155.62,0.7,2.06
1439,51.82085,-1.106573,117,32.58,15,162.5,Jul-20,719517,2019-02-27 10:27:51:037,-0.308,0.3368,10.0497,-0.0366,0.0213,9.8066,-0.033,-0.0841,0.0192,-25.06,-12.2,-11.09,153.9,0.48,1.53
1440,51.82085,-1.106573,117,32.58,15,162.5,Jul-20,720017,2019-02-27 10:27:51:537,0.0971,0.1695,10.1707,0.0047,0.0164,9.8066,-0.0053,-0.0128,0.0149,-25.06,-12.2,-11.09,153.83,0.43,1.71
1441,51.82085,-1.106573,117,32.58,15,162.5,Jul-20,720517,2019-02-27 10:27:52:037,0.0902,-0.1253,8.8598,0.028,0.0021,9.8066,0.0309,0.0213,0.017,-25.04,-12.21,-11.14,153.79,0.56,1.89
1442,51.82085,-1.106573,117,32.58,15,162.5,Jul-20,721018,2019-02-27 10:27:52:538,-0.0831,0.1227,9.4975,0.0072,0.0297,9.8066,0.0117,0.0075,0.0288,-24.88,-12.11,-11.58,153.67,0.32,1.96
1443,51.82085,-1.106573,117,32.58,15,162.5,Jul-20,721517,2019-02-27 10:27:53:037,0.0015,-0.0258,9.6861,0.034,-0.01,9.8066,0.0011,0.049,0.016,-24.5,-12.79,-11.67,150.84,0.48,2.18
1444,51.82085,-1.106573,117,32.58,15,162.5,Jul-20,722018,2019-02-27 10:27:53:538,-0.4229,0.3919,9.7892,-0.0178,0.0318,9.8066,0.0085,-0.0351,0.0256,-24.29,-13.26,-11.58,150.81,0.36,2.19
1445,51.82085,-1.106573,117,32.58,15,162.5,Jul-20,722517,2019-02-27 10:27:54:037,0.0476,-0.3145,11.339,0.034,-0.0125,9.8066,0.0415,0.114,0.0192,-24.5,-12.79,-11.67,150.73,0.18,2.3
1446,51.82085,-1.106573,117,32.58,15,162.5,Jul-20,723017,2019-02-27 10:27:54:537,-0.3475,0.4015,8.9457,-0.045,0.0248,9.8065,-0.0298,-0.0767,0.0181,-25.1,-12.51,-10.66,151.76,0.09,2.33
1447,51.82085,-1.106573,117,32.58,15,162.5,Jul-20,723517,2019-02-27 10:27:55:037,0.4073,-0.5148,9.7002,-0.0073,-0.0413,9.8066,0.017,0.048,0.0234,-24.08,-13.72,-11.48,149.08,0.16,2.1
1448,51.82085,-1.106573,117,32.58,15,162.5,Jul-20,724018,2019-02-27 10:27:55:538,0.3226,-0.4391,10.9857,-0.0183,-0.0467,9.8065,0.0149,0.0938,0.0245,-24.46,-14.08,-10.16,149.19,0.03,1.86
1449,51.82085,-1.106573,117,32.58,15,162.5,Jul-20,724518,2019-02-27 10:27:56:038,-0.3072,0.2027,10.7611,-0.0533,-0.071,9.8062,-0.0107,0.082,0.0192,-24.11,-14.21,-10.82,149.09,-0.3,1.78
1450,51.82085,-1.106573,117,32.58,15,162.5,Jul-20,725017,2019-02-27 10:27:56:537,-0.0249,-0.0006,8.1176,-0.042,-0.0176,9.8065,0.0437,-0.0149,0.0181,-24.3,-13.99,-10.66,149.25,-0.36,1.26
1451,51.82085,-1.106573,117,32.58,15,162.5,Jul-20,725518,2019-02-27 10:27:57:038,0.0426,0.2751,9.101,-0.029,-0.0223,9.8066,-0.0415,-0.0245,0.0128,-23.91,-14.09,-11.39,149.3,-0.51,1.01
1452,51.82085,-1.106573,117,32.58,15,162.5,Jul-20,726018,2019-02-27 10:27:57:538,-0.5026,-0.4005,10.5107,-0.0364,-0.0551,9.8064,0.0064,0.0117,0.0043,-23.9,-14.43,-10.99,149.35,-0.59,0.81
1453,51.82085,-1.106573,117,32.58,15,162.5,Jul-20,726518,2019-02-27 10:27:58:038,0.0682,-0.3294,8.9213,-0.0531,-0.034,9.8064,0.0117,0.0075,-0.0075,-24.5,-13.37,-11.0,151.68,-0.68,-0.72
1454,51.82085,-1.106573,117,32.58,15,162.5,Jul-20,727017,2019-02-27 10:27:58:537,-0.3325,-0.5074,9.812,-0.0089,-0.0757,9.8064,0.0075,-0.0074,0.0011,-23.91,-14.09,-11.39,150.03,-0.52,-1.14
1455,51.82085,-1.106573,117,32.58,15,162.5,Jul-20,727517,2019-02-27 10:27:59:037,-0.1111,-0.4761,10.2035,-0.0216,-0.0451,9.8065,-0.0011,0.0309,-0.0011,-23.7,-14.3,-11.57,150.48,-0.6,-2.27
1456,51.82085,-1.106573,117,32.58,15,162.5,Jul-20,728017,2019-02-27 10:27:59:537,0.0987,0.0666,10.1866,-0.0202,-0.0481,9.8065,0.0298,0.0245,-0.0224,-23.94,-14.11,-11.31,150.59,-0.67,-2.77
1457,51.82085,-1.106573,117,32.58,15,162.5,Jul-20,728518,2019-02-27 10:28:00:038,0.2838,0.0237,10.1884,-0.0223,-0.081,9.8063,0.0309,0.0277,0.0053,-24.3,-13.99,-10.66,150.71,-0.63,-3.07
1458,51.82085,-1.106573,117,32.58,15,162.5,Jul-20,729018,2019-02-27 10:28:00:538,-0.0147,0.1977,10.0039,0.068,0.0593,9.8062,0.049,0.0661,-0.0149,-21.89,-15.66,-13.26,145.11,-0.34,-3.05
1459,51.82085,-1.106573,117,32.58,15,162.5,Jul-20,729517,2019-02-27 10:28:01:037,0.313,-0.2057,9.2329,-0.034,-0.0281,9.8066,-0.0128,-0.0341,-0.0021,-23.05,-15.54,-11.28,146.2,-0.4,-3.3
1460,51.82085,-1.106573,117,32.58,15,162.5,Jul-20,730017,2019-02-27 10:28:01:537,-0.1418,0.0464,9.3839,-0.0095,0.0068,9.8066,0.0266,-0.0032,-0.0053,-23.67,-14.87,-10.89,149.12,-0.29,-3.43
1461,51.82085,-1.106573,117,32.58,15,162.5,Jul-20,730517,2019-02-27 10:28:02:037,-0.0859,-0.1093,9.7598,-0.0241,-0.0727,9.8064,-0.0213,-0.0596,-0.0117,-23.94,-14.11,-11.31,151.08,-0.26,-3.86
1462,51.82085,-1.106573,117,32.58,15,162.5,Jul-20,731019,2019-02-27 10:28:02:539,0.3247,-0.2641,9.1786,-0.034,0.0088,9.8066,0.0597,0.0352,-0.0138,-23.73,-14.32,-11.49,151.25,-0.11,-4.21
1463,51.82085,-1.106573,117,32.58,15,162.5,Jul-20,731517,2019-02-27 10:28:03:037,-0.3428,0.7539,9.2921,0.0131,0.0039,9.8066,-0.0053,-0.0064,-0.0075,-23.94,-13.87,-11.59,151.35,-0.26,-4.2
1464,51.82085,-1.106573,117,32.58,15,162.5,Jul-20,732017,2019-02-27 10:28:03:537,0.167,0.3283,9.8357,0.0332,0.0147,9.8066,0.0085,0.0064,-0.0149,-23.97,-13.56,-11.9,151.68,-0.11,-4.92
1465,51.82085,-1.106573,117,32.58,15,162.5,Jul-20,732517,2019-02-27 10:28:04:037,0.1948,-0.6284,8.2255,-0.0362,-0.0186,9.8066,0.0117,-0.0746,-0.0107,-23.73,-14.32,-11.49,151.49,0.02,-4.76
1466,51.82085,-1.106573,117,32.58,15,162.5,Jul-20,733017,2019-02-27 10:28:04:537,-0.2474,0.3994,9.1366,-0.0288,-0.033,9.8066,0.0309,0.0139,-0.0064,-24.56,-13.31,-10.93,154.38,0.06,-4.98
1467,51.82085,-1.106573,117,32.58,15,162.5,Jul-20,733517,2019-02-27 10:28:05:037,-0.2621,0.629,9.2441,0.0157,0.083,9.8063,0.0096,-0.0447,-0.0224,-24.39,-13.22,-11.43,153.5,0.17,-5.05
1468,51.82085,-1.106573,117,32.58,15,162.5,Jul-20,734017,2019-02-27 10:28:05:537,-0.1862,-0.2043,11.6659,0.0252,-0.0646,9.8064,0.0767,-0.0383,-0.0075,-24.53,-13.39,-10.91,154.38,0.33,-4.85
1469,51.82085,-1.106573,117,32.58,15,162.5,Jul-20,734518,2019-02-27 10:28:06:038,-0.1911,0.4789,9.1369,-0.0028,-0.0284,9.8066,0.0064,0.1076,-0.0245,-23.93,-13.38,-12.17,153.43,0.28,-4.43
1470,51.82085,-1.106573,117,32.58,15,162.5,Jul-20,735018,2019-02-27 10:28:06:538,0.5343,-0.2442,10.9707,0.0662,0.0075,9.8064,0.0043,0.0725,-0.0075,-24.56,-13.31,-10.93,154.28,0.34,-4.58
1471,51.82085,-1.106573,117,32.58,15,162.5,Jul-20,735517,2019-02-27 10:28:07:037,-0.1103,0.2427,9.3806,-0.0336,-0.0064,9.8066,0.0075,0.0788,-0.016,-24.16,-13.41,-11.69,153.51,0.51,-4.5
1472,51.82085,-1.106573,117,32.58,15,162.5,Jul-20,736017,2019-02-27 10:28:07:537,0.1372,-0.5842,10.8456,0.0112,-0.0295,9.8066,-0.017,-0.0437,0.0021,-24.74,-12.92,-11.01,154.35,0.65,-4.62
1473,51.82085,-1.106573,117,32.58,15,162.5,Jul-20,736517,2019-02-27 10:28:08:037,0.5082,-0.6102,9.7715,0.0123,-0.0333,9.8066,0.0096,0.1108,-0.0075,-24.59,-12.74,-11.53,153.5,0.59,-4.57
1474,51.82085,-1.106573,117,32.58,15,162.5,Jul-20,737018,2019-02-27 10:28:08:538,0.6388,-0.1044,8.2063,0.0291,0.0857,9.8062,-0.017,0.0213,-0.0117,-23.94,-12.81,-12.75,153.5,0.68,-4.05
1475,51.82085,-1.106573,117,32.58,15,162.5,Jul-20,737518,2019-02-27 10:28:09:038,0.1851,-0.3403,8.8879,0.0681,0.0661,9.8062,-0.0831,0.0266,0.0053,-25.12,-12.23,-10.92,156.14,0.63,-4.42
1476,51.82085,-1.106573,117,32.58,15,162.5,Jul-20,738018,2019-02-27 10:28:09:538,0.2974,0.258,11.112,0.0377,0.0037,9.8066,0.0181,-0.0479,-0.0096,-24.57,-12.54,-11.79,154.28,0.84,-4.0
1477,51.82085,-1.106573,117,32.58,15,162.5,Jul-20,738517,2019-02-27 10:28:10:037,0.0766,0.1932,8.7306,-0.0366,-0.0232,9.8066,0.0522,-0.0149,-0.0053,-24.17,-12.59,-12.54,153.5,1.03,-3.88
1478,51.82085,-1.106573,117,32.58,15,162.5,Jul-20,739017,2019-02-27 10:28:10:537,0.1524,-0.0817,8.8423,0.0145,-0.0714,9.8064,-0.0064,-0.0117,-0.033,-24.54,-12.23,-12.18,156.15,0.79,-4.02
1479,51.82085,-1.106573,117,32.58,15,162.5,Jul-20,739521,2019-02-27 10:28:11:041,0.0738,-0.5347,10.5085,-0.0227,-0.0442,9.8065,-0.0629,0.0011,-0.0117,-24.31,-12.12,-12.74,155.79,1.03,-4.66
1480,51.82085,-1.106573,117,32.58,15,162.5,Jul-20,740018,2019-02-27 10:28:11:538,0.0581,0.4853,9.2356,0.0234,-0.0395,9.8065,-0.0266,0.0,-0.0149,-24.94,-12.43,-11.1,156.22,1.06,-4.45
1481,51.82085,-1.106573,117,32.58,15,162.5,Jul-20,740518,2019-02-27 10:28:12:038,-0.4878,0.1214,9.4384,-0.015,-0.0181,9.8066,-0.0096,0.0266,-0.0021,-24.4,-12.95,-11.71,153.77,1.25,-4.74
1482,51.82085,-1.106573,117,32.58,15,162.5,Jul-20,741017,2019-02-27 10:28:12:537,-0.4118,-0.0454,9.5357,-0.0029,0.0115,9.8066,0.0352,0.1183,-0.0085,-24.57,-12.54,-11.79,154.63,1.25,-4.65
1483,51.82085,-1.106573,117,32.58,15,162.5,Jul-20,741517,2019-02-27 10:28:13:037,0.2111,0.1706,9.0826,0.0522,0.0595,9.8063,0.0714,0.016,0.0043,-24.23,-13.12,-11.87,153.69,1.2,-4.59
1484,51.82085,-1.106573,117,32.58,15,162.5,Jul-20,742017,2019-02-27 10:28:13:537,0.3771,-0.1335,9.0117,0.0201,0.0307,9.8066,0.0096,0.0011,0.0117,-25.15,-11.34,-11.79,158.13,1.36,-3.93
1485,51.82085,-1.106573,117,32.58,15,162.5,Jul-20,742517,2019-02-27 10:28:14:037,0.0753,0.2845,9.8067,-0.0032,0.0147,9.8066,-0.0096,-0.0064,-0.0117,-25.37,-11.44,-11.19,157.79,1.46,-3.41
1486,51.82085,-1.106573,117,32.58,15,162.5,Jul-20,743017,2019-02-27 10:28:14:537,0.0466,0.1761,11.3749,0.0413,0.1051,9.806,0.0341,0.032,0.0138,-25.15,-11.34,-11.79,157.6,1.38,-2.68
1487,51.82085,-1.106573,117,32.58,15,162.5,Jul-20,743517,2019-02-27 10:28:15:037,0.4534,-0.2002,11.7986,0.0415,0.065,9.8063,0.0224,0.0021,-0.0075,-24.52,-11.33,-13.06,157.61,1.45,-2.45
1488,51.82085,-1.106573,117,32.58,15,162.5,Jul-20,744017,2019-02-27 10:28:15:537,0.0527,0.6498,8.4335,0.0188,0.0753,9.8063,-0.0479,-0.0437,0.0192,-24.16,-11.99,-13.14,154.64,1.53,-2.0
1489,51.82085,-1.106573,117,32.58,15,162.5,Jul-20,744522,2019-02-27 10:28:16:042,0.1734,0.0352,10.9014,-0.0044,0.0807,9.8063,0.0032,-0.0596,0.0128,-24.76,-11.44,-12.49,157.18,1.69,-1.56
1490,51.82085,-1.106573,117,32.58,15,162.5,Jul-20,745018,2019-02-27 10:28:16:538,0.1796,0.0914,9.1625,-0.0003,-0.0027,9.8066,-0.0192,-0.016,0.0085,-24.2,-12.61,-12.46,152.31,1.48,-1.14
1491,51.82085,-1.106573,117,32.58,15,162.5,Jul-20,745517,2019-02-27 10:28:17:037,-0.121,-0.6062,9.9468,-0.0002,-0.0276,9.8066,-0.0149,-0.0639,0.0011,-24.52,-11.33,-13.06,157.16,1.66,-1.38
1492,51.82085,-1.106573,117,32.58,15,162.5,Jul-20,746019,2019-02-27 10:28:17:539,0.2805,0.3596,9.8172,0.0109,0.0323,9.8066,-0.0096,-0.0256,0.0011,-24.94,-11.57,-12.0,155.12,1.64,-1.18
1493,51.82085,-1.106573,117,32.58,15,162.5,Jul-20,746519,2019-02-27 10:28:18:039,-0.5453,0.4198,10.8978,-0.0236,0.0144,9.8066,0.0117,0.081,0.0,-24.57,-12.25,-12.1,155.27,1.53,-1.59
1494,51.82085,-1.106573,117,32.58,15,162.5,Jul-20,747017,2019-02-27 10:28:18:537,-0.3825,0.3169,9.6458,-0.0132,-0.024,9.8066,0.1044,0.0671,-0.0256,-24.41,-12.36,-12.31,154.44,1.52,-1.75
1495,51.82085,-1.106573,117,32.58,15,162.5,Jul-20,747517,2019-02-27 10:28:19:037,-0.2477,0.0632,10.0449,-0.0403,-0.0733,9.8063,0.0415,-0.016,-0.0021,-24.76,-12.05,-11.91,155.38,1.56,-1.85
1496,51.82085,-1.106573,117,32.58,15,162.5,Jul-20,748018,2019-02-27 10:28:19:538,0.004,-0.7001,9.6324,-0.0554,-0.0812,9.8062,-0.0724,0.0203,-0.0011,-24.57,-11.95,-12.39,155.31,1.6,-1.66
1497,51.82085,-1.106573,117,32.58,15,162.5,Jul-20,748518,2019-02-27 10:28:20:038,0.2538,-0.6113,9.7673,0.0245,0.0294,9.8066,-0.0213,0.0373,0.0085,-24.57,-11.95,-12.39,155.53,1.5,-2.23
1498,51.82085,-1.106573,117,32.58,15,162.5,Jul-20,749017,2019-02-27 10:28:20:537,0.0029,0.2202,10.8382,0.0086,0.0833,9.8063,0.0032,0.0618,0.0085,-24.71,-11.15,-12.85,157.25,1.47,-1.65
1499,51.82085,-1.106573,117,32.58,15,162.5,Jul-20,749517,2019-02-27 10:28:21:037,0.3772,-0.6273,10.9895,0.0186,0.0107,9.8066,-0.0479,-0.0543,0.0128,-25.33,-10.83,-11.87,157.15,1.54,-1.55
1500,51.82085,-1.106573,117,32.58,15,162.5,Jul-20,750017,2019-02-27 10:28:21:537,0.3289,-0.1224,9.6948,0.0293,0.0329,9.8066,-0.0288,-0.1268,0.0053,-25.13,-10.74,-12.37,157.16,1.55,-1.58
1501,51.82085,-1.106573,117,32.58,15,162.5,Jul-20,750517,2019-02-27 10:28:22:037,0.6755,-0.8767,10.9451,-0.036,-0.0148,9.8066,0.0202,0.0607,-0.0032,-24.8,-12.06,-11.81,155.22,1.47,-1.5
1502,51.82085,-1.106573,117,32.58,15,162.5,Jul-20,751018,2019-02-27 10:28:22:538,-0.0056,0.209,9.6265,-0.0051,-0.012,9.8066,-0.0266,-0.001,0.0107,-25.15,-11.34,-11.79,157.07,1.4,-1.42
1503,51.82085,-1.106573,117,32.58,15,162.5,Jul-20,751518,2019-02-27 10:28:23:038,-0.6885,0.3391,10.0905,0.0118,-0.0053,9.8066,-0.0011,-0.0277,0.0085,-24.33,-11.83,-12.96,154.37,1.34,-1.49
1504,51.82085,-1.106573,117,32.58,15,162.5,Jul-20,752019,2019-02-27 10:28:23:539,0.6263,-0.9309,11.1942,-0.0086,-0.0498,9.8065,-0.0202,-0.0639,0.0032,-25.18,-11.36,-11.7,157.1,1.42,-1.49
1505,51.82085,-1.106573,117,32.58,15,162.5,Jul-20,752517,2019-02-27 10:28:24:037,0.4782,-0.8814,10.2738,-0.0089,-0.0072,9.8066,0.0352,-0.0064,-0.0043,-24.57,-12.25,-12.1,155.31,1.47,-1.71
1506,51.82085,-1.106573,117,32.58,15,162.5,Jul-20,753017,2019-02-27 10:28:24:537,-0.0101,-0.3917,9.6753,0.0145,0.0021,9.8066,-0.0426,0.0149,0.0085,-25.0,-11.55,-11.9,155.32,1.51,-1.72
1507,51.82085,-1.106573,117,32.58,15,162.5,Jul-20,753518,2019-02-27 10:28:25:038,0.374,-0.5202,10.1594,0.0072,-0.0268,9.8066,0.0298,0.0373,-0.0128,-24.76,-11.44,-12.49,157.19,1.2,-1.79
1508,51.82085,-1.106573,117,32.58,15,162.5,Jul-20,754017,2019-02-27 10:28:25:537,-0.5239,0.2854,11.1528,-0.0092,-0.0043,9.8066,0.0373,0.0192,-0.0075,-24.99,-11.86,-11.61,155.37,1.26,-1.96
1509,51.82085,-1.106573,117,32.58,15,162.5,Jul-20,754518,2019-02-27 10:28:26:038,-1.0361,0.5029,10.1496,-0.077,-0.0027,9.8063,-0.0426,-0.033,-0.0032,-24.79,-11.77,-12.11,155.37,1.39,-1.88
1510,51.82085,-1.106573,117,32.58,15,162.5,Jul-20,755018,2019-02-27 10:28:26:538,0.3341,0.0115,10.7513,0.0537,-0.0628,9.8063,0.016,0.098,0.0096,-24.8,-12.06,-11.81,155.38,0.99,-2.09
1511,51.82085,-1.106573,117,32.58,15,162.5,Jul-20,755518,2019-02-27 10:28:27:038,-0.5535,0.4149,8.6345,-0.0414,0.0406,9.8065,0.0788,0.1055,-0.0053,-24.93,-10.98,-12.57,157.43,1.11,-2.17
1512,51.82085,-1.106573,117,32.58,15,162.5,Jul-20,756017,2019-02-27 10:28:27:537,0.131,0.1219,9.382,0.0189,0.0073,9.8066,0.0405,0.048,-0.0128,-24.95,-11.25,-12.28,157.41,1.12,-2.35
1513,51.82085,-1.106573,117,32.58,15,162.5,Jul-20,756517,2019-02-27 10:28:28:037,0.5178,-0.1641,9.6481,-0.0018,0.022,9.8066,0.0,0.0032,-0.0096,-25.53,-10.66,-11.59,158.12,1.14,-2.16
1514,51.82085,-1.106573,117,32.58,15,162.5,Jul-20,757018,2019-02-27 10:28:28:538,0.459,-0.1413,10.7348,-0.0121,0.0278,9.8066,-0.0075,0.0021,0.0075,-25.0,-11.55,-11.9,155.47,1.28,-2.19
1515,51.82085,-1.106573,117,32.58,15,162.5,Jul-20,757518,2019-02-27 10:28:29:038,0.1705,0.4246,7.3442,0.0045,0.0543,9.8065,0.0234,0.0991,0.0096,-25.3,-10.56,-12.17,157.3,1.15,-2.08
1516,51.82085,-1.106573,117,32.58,15,162.5,Jul-20,758017,2019-02-27 10:28:29:537,-0.0369,0.0704,10.406,0.0057,0.0814,9.8063,-0.0181,0.0075,0.0117,-24.75,-11.16,-12.77,157.38,1.37,-1.98
1517,51.82085,-1.106573,117,32.58,15,162.5,Jul-20,758518,2019-02-27 10:28:30:038,-0.2505,-0.6454,9.3393,-0.0358,0.04,9.8065,0.0181,0.0139,-0.0043,-24.6,-12.17,-12.11,155.29,1.08,-1.84
1518,51.82085,-1.106573,117,32.58,15,162.5,Jul-20,759017,2019-02-27 10:28:30:537,-0.3439,0.0971,10.2908,-0.052,-0.0352,9.8064,-0.0756,0.0235,0.0032,-24.41,-12.07,-12.6,154.45,1.06,-1.79
1519,51.82085,-1.106573,117,32.58,15,162.5,Jul-20,759517,2019-02-27 10:28:31:037,-0.3977,-0.031,9.6244,-0.0035,0.011,9.8066,-0.0479,-0.1076,0.0107,-24.56,-11.66,-12.68,155.31,1.02,-1.74
1520,51.82085,-1.106573,117,32.58,15,162.5,Jul-20,760017,2019-02-27 10:28:31:537,-0.0307,0.1107,9.3422,-0.0148,-0.028,9.8066,-0.0053,-0.0959,0.0117,-25.18,-11.36,-11.7,157.07,1.06,-1.55
1521,51.82085,-1.106573,117,32.58,15,162.5,Jul-20,760517,2019-02-27 10:28:32:037,0.1162,-0.5703,10.792,-0.0127,0.0049,9.8066,0.066,0.1215,-0.0021,-25.18,-11.36,-11.7,157.2,1.09,-1.85
1522,51.82085,-1.106573,117,32.58,15,162.5,Jul-20,761017,2019-02-27 10:28:32:537,0.2309,-0.6788,10.9668,0.0126,0.0028,9.8066,0.0831,-0.0501,0.0,-24.75,-11.48,-12.48,157.18,1.01,-1.85
1523,51.82085,-1.106573,117,32.58,15,162.5,Jul-20,761518,2019-02-27 10:28:33:038,0.5859,0.0184,9.0147,0.0309,0.0473,9.8065,0.0064,-0.0181,0.0,-24.98,-11.27,-12.2,157.05,1.12,-1.48
1524,51.82085,-1.106573,117,32.58,15,162.5,Jul-20,762017,2019-02-27 10:28:33:537,0.317,-0.1935,10.3692,0.0164,0.0272,9.8066,0.0096,0.0256,-0.0043,-25.16,-10.75,-12.29,156.98,1.14,-1.3
1525,51.82085,-1.106573,117,32.58,15,162.5,Jul-20,762518,2019-02-27 10:28:34:038,-0.0161,-0.7263,9.3502,-0.002,-0.0625,9.8065,-0.0192,-0.0074,0.016,-24.95,-11.25,-12.28,156.99,0.92,-1.43
1526,51.82085,-1.106573,117,32.58,15,162.5,Jul-20,763017,2019-02-27 10:28:34:537,-0.1687,0.0293,8.1128,0.0029,0.0625,9.8065,-0.1183,0.016,-0.032,-24.99,-11.86,-11.61,155.1,0.92,-1.43
1527,51.82085,-1.106573,117,32.58,15,162.5,Jul-20,763517,2019-02-27 10:28:35:037,0.7006,-0.9562,10.4195,0.0241,0.0416,9.8065,0.0682,0.0575,-0.0149,-24.99,-11.86,-11.61,155.42,1.11,-2.13
1528,51.82085,-1.106573,117,32.58,15,162.5,Jul-20,764017,2019-02-27 10:28:35:537,-0.0227,0.4738,9.4315,-0.0237,-0.0003,9.8066,-0.0469,-0.0074,0.0107,-24.41,-12.65,-12.02,152.52,1.01,-1.91
1529,51.82085,-1.106573,117,32.58,15,162.5,Jul-20,764518,2019-02-27 10:28:36:038,0.1805,0.7465,9.0328,-0.0094,-0.0105,9.8066,0.0043,-0.0383,0.0,-24.41,-12.36,-12.31,154.45,0.99,-1.99
1530,51.82085,-1.106573,117,32.58,15,162.5,Jul-20,765017,2019-02-27 10:28:36:537,-0.2879,0.1195,9.1487,-0.0042,-0.0089,9.8066,0.0011,0.0852,-0.0138,-24.63,-12.48,-11.73,155.49,0.95,-2.39
1531,51.82085,-1.106573,117,32.58,15,162.5,Jul-20,765517,2019-02-27 10:28:37:037,-0.0412,-0.0013,10.4392,0.0402,0.0411,9.8065,-0.0703,-0.1001,0.0,-25.16,-11.09,-12.0,157.31,1.07,-2.13
1532,51.82085,-1.106573,117,32.58,15,162.5,Jul-20,766017,2019-02-27 10:28:37:537,-0.1323,-0.0833,8.9332,-0.0283,-0.0178,9.8066,-0.0384,0.0,0.0011,-25.73,-10.74,-11.08,158.14,1.06,-2.47
1533,51.82085,-1.106573,117,32.58,15,162.5,Jul-20,766518,2019-02-27 10:28:38:038,0.4994,0.2102,7.8458,0.014,-0.0143,9.8066,0.0874,0.1065,-0.0266,-25.5,-10.65,-11.68,158.31,1.05,-2.67
1534,51.82085,-1.106573,117,32.58,15,162.5,0 / 19,767017,2019-02-27 10:28:38:537,0.8279,-0.7049,9.2925,0.0204,-0.0335,9.8066,-0.0597,0.0309,-0.0011,-25.47,-10.63,-11.76,157.36,0.93,-2.3
1535,51.82085,-1.106573,117,32.58,15,162.5,0 / 19,767517,2019-02-27 10:28:39:037,0.3129,0.1185,10.178,0.0203,0.0327,9.8066,-0.0415,-0.0714,-0.0021,-25.3,-10.81,-11.96,157.28,0.97,-2.08
1536,51.82085,-1.106573,117,32.58,15,162.5,0 / 19,768017,2019-02-27 10:28:39:537,0.1537,0.2688,8.5337,0.0246,0.0495,9.8065,0.0533,0.0565,-0.0043,-25.05,-11.3,-12.04,157.24,0.81,-2.06
1537,51.82085,-1.106573,117,32.58,15,162.5,0 / 19,768517,2019-02-27 10:28:40:037,-0.0636,-1.1852,9.1156,-0.0267,-0.0415,9.8065,-0.0394,0.049,-0.0043,-25.13,-11.56,-11.61,155.43,0.96,-2.24
1538,51.82085,-1.106573,117,32.58,15,162.5,Feb-19,769017,2019-02-27 10:28:40:537,0.1675,0.1524,8.6629,0.0061,0.0995,9.8061,0.0128,0.0,0.0032,-25.03,-11.03,-12.33,157.45,0.92,-2.53
1539,51.82085,-1.106573,117,32.58,15,162.5,Feb-19,769518,2019-02-27 10:28:41:038,0.3431,0.2418,10.2102,0.0226,0.0317,9.8066,-0.0373,-0.0106,0.0181,-25.25,-11.39,-11.53,157.2,0.8,-1.98
1540,51.82085,-1.106573,117,32.58,15,162.5,Jun-19,770018,2019-02-27 10:28:41:538,1.1269,-0.6591,8.6118,0.0403,0.0147,9.8066,-0.0426,0.0149,0.0011,-24.86,-11.44,-12.29,157.12,0.85,-1.76
1541,51.82085,-1.106573,117,32.58,15,162.5,Jun-19,770517,2019-02-27 10:28:42:037,-0.1675,0.3063,10.6141,-0.0122,0.0111,9.8066,0.0096,-0.0905,0.0117,-24.85,-12.39,-11.35,155.09,0.94,-1.56
1542,51.82085,-1.106573,117,32.58,15,162.5,Jul-19,771017,2019-02-27 10:28:42:537,-0.1859,0.0707,9.9304,0.0077,0.0672,9.8064,-0.0543,-0.1928,0.0277,-26.1,-12.42,-8.04,155.62,0.81,-1.18
1543,51.82085,-1.106573,117,32.58,15,162.5,Jul-19,771518,2019-02-27 10:28:43:038,-0.3945,-0.2481,10.2199,0.0143,0.0261,9.8066,-0.0575,-0.0256,0.0021,-25.61,-11.03,-11.07,157.68,0.86,-1.33
1544,51.82085,-1.106573,117,32.58,15,162.5,Jul-19,772017,2019-02-27 10:28:43:537,0.7612,-0.775,8.8644,0.0223,-0.0075,9.8066,-0.0085,0.1044,-0.0053,-25.17,-10.86,-12.19,156.9,1.02,-1.15
1545,51.82085,-1.106573,117,32.58,15,162.5,Jul-19,772518,2019-02-27 10:28:44:038,-0.2527,0.0113,10.0167,-0.0136,-0.0279,9.8066,0.0554,0.0309,-0.0117,-25.11,-10.58,-12.56,157.02,0.83,-1.38
1546,51.82085,-1.106573,117,32.58,15,162.5,Jul-19,773017,2019-02-27 10:28:44:537,0.2147,-0.4334,10.0671,0.0093,-0.0338,9.8066,0.0245,0.0469,-0.0011,-25.34,-10.93,-11.77,157.01,0.75,-1.54
1547,51.82085,-1.106573,117,32.58,15,162.5,Jul-19,773517,2019-02-27 10:28:45:037,0.7721,-0.2988,9.3201,0.0122,-0.0113,9.8066,-0.0384,-0.0469,0.0117,-24.52,-11.38,-13.01,157.1,0.84,-1.57
1548,51.82085,-1.106573,117,32.58,15,162.5,Jul-19,774017,2019-02-27 10:28:45:537,-0.1952,0.8615,9.7459,-0.0055,0.0191,9.8066,0.0085,0.0629,-0.0096,-25.1,-10.83,-12.36,157.02,0.78,-1.56
1549,51.82085,-1.106573,117,32.58,15,162.5,Jul-19,774517,2019-02-27 10:28:46:037,0.2556,-0.15,9.7616,-0.0058,-0.0711,9.8064,-0.0149,-0.0202,0.0288,-24.5,-12.03,-12.45,155.26,0.83,-1.86
1550,51.82085,-1.106573,117,32.58,15,162.5,Jul-19,775018,2019-02-27 10:28:46:538,-0.0542,-0.4676,8.84,-0.0319,-0.0311,9.8065,-0.0266,-0.0021,0.0064,-24.9,-11.07,-12.55,157.0,0.87,-1.33
1551,51.82085,-1.106573,117,32.58,15,162.5,Jul-19,775517,2019-02-27 10:28:47:037,-0.2722,-0.2297,10.3878,-0.0391,-0.0245,9.8065,-0.0202,-0.082,0.0032,-24.96,-11.95,-11.6,155.19,0.62,-1.79
1552,51.82085,-1.106573,117,32.58,15,162.5,Jul-19,776017,2019-02-27 10:28:47:537,0.1323,0.3022,9.8338,-0.0109,-0.0182,9.8066,0.1033,0.1044,-0.0043,-25.13,-11.75,-11.41,155.09,0.78,-1.64
1553,51.82085,-1.106573,117,32.58,15,162.5,Jul-19,776518,2019-02-27 10:28:48:038,-0.0045,0.9523,10.6203,-0.0032,0.0578,9.8065,0.0746,0.0938,0.0075,-25.02,-11.88,-11.53,155.23,0.92,-1.75
1554,51.82085,-1.106573,117,32.58,15,162.5,Jul-19,777017,2019-02-27 10:28:48:537,-0.2439,0.7177,10.0422,0.0181,-0.0119,9.8066,0.0852,0.082,-0.0128,-24.98,-10.99,-12.45,157.01,0.89,-1.47
1555,51.82085,-1.106573,117,32.58,15,162.5,Jul-19,777518,2019-02-27 10:28:49:038,0.2064,0.3448,9.5732,0.0496,-0.007,9.8065,0.0405,0.0192,-0.0053,-25.37,-11.54,-11.09,155.13,0.64,-1.81
1556,51.82085,-1.106573,117,32.58,15,162.5,Jul-19,778017,2019-02-27 10:28:49:537,-0.5808,-0.0564,11.5863,-0.0405,-0.0255,9.8065,0.0884,0.0618,-0.0309,-24.6,-11.68,-12.6,155.36,0.76,-1.96
1557,51.82085,-1.106573,117,32.58,15,162.5,Jul-19,778517,2019-02-27 10:28:50:037,-0.5114,0.2527,9.8704,-0.0157,-0.0795,9.8063,-0.0298,-0.0117,0.0021,-25.21,-11.47,-11.52,157.11,0.71,-1.8
1558,51.82085,-1.106573,117,32.58,15,162.5,Jul-19,779017,2019-02-27 10:28:50:537,-0.7522,1.0549,10.8023,-0.0079,0.0179,9.8066,-0.0415,-0.0511,0.0085,-24.83,-11.79,-12.03,155.42,0.81,-2.26
1559,51.82085,-1.106573,117,32.58,15,162.5,Jul-19,779518,2019-02-27 10:28:51:038,-0.3643,-0.5209,10.2761,0.0083,-0.0062,9.8066,-0.0437,-0.0895,0.017,-24.24,-12.33,-12.67,154.58,0.78,-2.19
1560,51.82085,-1.106573,117,32.58,15,162.5,Jul-19,780018,2019-02-27 10:28:51:538,-0.5817,1.1031,10.1621,0.0077,0.0332,9.8066,-0.0394,-0.0341,0.0149,-25.42,-11.2,-11.34,157.12,0.74,-2.0
1561,51.82085,-1.106573,117,32.58,15,162.5,Jul-19,780517,2019-02-27 10:28:52:037,0.4685,0.1859,10.3096,0.0614,0.0417,9.8064,-0.0011,0.0043,-0.0021,-25.43,-10.87,-11.62,157.12,0.98,-1.71
1562,51.82085,-1.106573,117,32.58,15,162.5,Jul-19,781017,2019-02-27 10:28:52:537,0.0538,0.1539,9.5249,0.0114,0.0296,9.8066,-0.0405,-0.0202,0.0043,-24.63,-11.69,-12.52,155.29,0.78,-1.79
1563,51.82085,-1.106573,117,32.58,15,162.5,Jul-19,781518,2019-02-27 10:28:53:038,0.3258,0.2317,9.3523,-0.001,-0.0287,9.8066,-0.0266,-0.0319,0.0075,-25.08,-11.31,-11.95,157.04,0.77,-1.61
1564,51.82085,-1.106573,117,32.58,15,162.5,Jul-19,782017,2019-02-27 10:28:53:537,-0.2083,0.4083,9.929,-0.0033,-0.0122,9.8066,-0.0543,-0.0053,0.0,-24.85,-11.52,-12.24,155.17,0.72,-1.7
1565,51.82085,-1.106573,117,32.58,15,162.5,Jul-19,782517,2019-02-27 10:28:54:037,0.0481,-0.3707,9.5352,-0.0058,-0.0379,9.8066,0.0075,0.0032,0.0043,-25.07,-11.63,-11.67,155.2,0.73,-1.77
1566,51.82085,-1.106573,117,32.58,15,162.5,Jul-19,783018,2019-02-27 10:28:54:538,-0.3689,0.0484,10.0885,-0.0716,-0.08,9.8061,0.049,0.0874,-0.0011,-24.88,-12.11,-11.58,155.51,0.61,-2.58
1567,51.82085,-1.106573,117,32.58,15,162.5,Jul-19,783518,2019-02-27 10:28:55:038,-0.1174,-0.626,10.1386,0.0136,-0.0165,9.8066,-0.0032,0.0277,0.0043,-25.09,-12.22,-11.0,155.46,0.72,-2.64
1568,51.82085,-1.106573,117,32.58,15,162.5,Jul-19,784018,2019-02-27 10:28:55:538,-0.3638,-0.6312,10.6357,0.0004,0.0813,9.8063,0.1246,-0.066,-0.0394,-25.26,-11.71,-11.17,155.34,0.79,-2.3
1569,51.82085,-1.106573,117,32.58,15,162.5,Jul-19,784517,2019-02-27 10:28:56:037,0.307,-0.5238,7.9603,0.0652,0.0626,9.8062,0.0181,-0.0554,0.0,-25.75,-9.66,-11.99,159.65,0.82,-1.39
1570,51.82085,-1.106573,117,32.58,15,162.5,Jul-19,785017,2019-02-27 10:28:56:537,-0.1558,0.711,10.2031,0.052,0.0475,9.8064,-0.0256,-0.0479,-0.0053,-25.91,-8.72,-12.35,161.23,0.68,-0.54
1571,51.82085,-1.106573,117,32.58,15,162.5,Jul-19,785518,2019-02-27 10:28:57:038,0.2012,0.3909,10.3487,0.009,-0.022,9.8066,-0.0629,-0.0074,0.0043,-25.65,-8.63,-12.94,161.05,0.8,-0.06
1572,51.82085,-1.106573,117,32.58,15,162.5,Jul-19,786018,2019-02-27 10:28:57:538,0.569,-0.2842,10.1118,0.049,0.0037,9.8065,0.0075,0.0437,-0.0043,-25.69,-8.64,-12.85,161.04,1.06,0.05
1573,51.82085,-1.106573,117,32.58,15,162.5,Jul-19,786517,2019-02-27 10:28:58:037,-0.2733,-0.4964,10.905,-0.004,-0.0788,9.8063,-0.0202,-0.066,-0.0149,-25.99,-7.94,-12.7,162.71,0.55,0.58
1574,51.82085,-1.106573,117,32.58,15,162.5,Jul-19,787018,2019-02-27 10:28:58:538,-0.8391,-0.1931,9.8632,0.0361,0.0357,9.8065,0.0256,0.0085,-0.0117,-26.37,-7.0,-12.47,164.85,0.81,0.39
1575,51.82085,-1.106573,117,32.58,15,162.5,Jul-19,787517,2019-02-27 10:28:59:037,-0.6234,0.2397,9.4892,-0.0562,-0.0519,9.8064,0.0437,0.0075,-0.0064,-26.38,-7.45,-12.18,165.13,0.7,-0.29
1576,51.82085,-1.106573,117,32.58,15,162.5,Jul-19,788017,2019-02-27 10:28:59:537,0.0401,-0.0525,10.0355,0.003,-0.0544,9.8065,0.0011,0.0032,-0.0117,-26.52,-7.32,-11.97,165.93,0.57,-0.96
1577,51.82085,-1.106573,117,32.58,15,162.5,Jul-19,788518,2019-02-27 10:29:00:038,-0.1245,-0.514,10.9486,-0.015,-0.0221,9.8066,0.0394,0.0948,-0.0405,-26.41,-6.23,-12.8,167.81,0.65,-1.55
1578,51.82085,-1.106573,117,32.58,15,162.5,Jul-19,789017,2019-02-27 10:29:00:537,0.0521,-0.9814,10.0539,-0.0186,-0.1588,9.8053,-0.0352,0.0149,-0.0288,-26.74,-5.69,-12.35,168.66,0.67,-2.62
1579,51.82085,-1.106573,117,32.58,15,162.5,Jul-19,789517,2019-02-27 10:29:01:037,-0.2872,0.536,9.3425,-0.0367,-0.0267,9.8065,-0.0139,-0.0149,-0.0288,-26.81,-4.96,-12.52,170.88,0.49,-2.82
