,GPS LATITUDE (degrees), GPS LONGITUDE (degrees), GPS ALTITUDE (m), GPS SPEED (Kmh), GPS ACCURACY (m), GPS ORIENTATION (Â°),GPS SATELLITES IN RANGE, TIME SINCE START (ms), DATE (YYYY-MO-DD HH-MI-SS_SSS), ACCELEROMETER X (m/s²) , ACCELEROMETER Y (m/s²), ACCELEROMETER Z (m/s²), GRAVITY X (m/s²), GRAVITY Y (m/s²), GRAVITY Z (m/s²), GYROSCOPE Yaw (rad/s), GYROSCOPE Pitch (rad/s), GYROSCOPE Roll (rad/s), MAGNETIC FIELD X (Î¼T), MAGNETIC FIELD Y (Î¼T), MAGNETIC FIELD Z (Î¼T), ORIENTATION (Yaw) (Â°), ORIENTATION (Pitch) (Â°), ORIENTATION (Roll ) (Â°)
39145,52.4054,-1.585492,174.18,5.61,3,80.49,27 / 28,3917421,2019-09-08 11:13:04:045,-0.9581,0.624,9.7754,0.0086,0.0024,9.8066,0.0331,-0.0141,-0.0081,-29.06,-28.75,8.25,328.99,-79.75,-130.94
39146,52.4054,-1.585492,174.18,5.61,3,80.49,27 / 28,3917521,2019-09-08 11:13:04:145,-0.8329,0.7973,9.8068,0.0023,0.0031,9.8066,0.0281,0.0028,0.0014,-29.75,-29.0,7.81,327.9,-79.78,-131.54
39147,52.4054,-1.585492,174.18,5.61,3,80.49,27 / 28,3917621,2019-09-08 11:13:04:245,-0.6106,0.3753,10.1395,0.0083,-0.007,9.8066,0.0416,-0.0224,0.0275,-29.12,-28.94,8.13,328.54,-79.76,-131.32
39148,52.4054,-1.585492,174.18,5.61,3,80.49,27 / 28,3917721,2019-09-08 11:13:04:345,-1.0951,0.4721,9.8572,0.0063,-0.0086,9.8066,-0.0246,-0.0186,-0.0004,-29.31,-28.62,8.44,328.6,-79.65,-131.21
39149,52.4054,-1.585492,174.18,5.61,3,80.49,27 / 28,3917822,2019-09-08 11:13:04:446,-1.0312,0.3974,9.8698,-0.0087,0.0042,9.8066,-0.0189,-0.0128,-0.0261,-28.81,-28.25,8.63,331.25,-79.71,-131.04
39150,52.4054,-1.585492,174.18,5.61,3,80.49,26 / 26,3917922,2019-09-08 11:13:04:546,-1.0376,0.5043,9.8546,-0.0105,0.014,9.8066,-0.0219,-0.0306,-0.0387,-29.0,-29.06,8.06,328.77,-79.84,-131.17
39151,52.4054,-1.585492,174.18,5.61,3,80.49,26 / 26,3918022,2019-09-08 11:13:04:646,-1.2466,1.0576,9.9167,-0.0022,0.0114,9.8066,-0.025,-0.0049,-0.0363,-29.44,-28.87,8.38,328.8,-79.99,-131.24
39152,52.4054,-1.585492,174.18,5.61,3,80.49,26 / 26,3918121,2019-09-08 11:13:04:745,-1.1984,0.913,9.7917,0.0009,0.0075,9.8066,0.0098,-0.0156,-0.0145,-29.5,-29.0,7.75,328.6,-80.15,-131.49
39153,52.4054,-1.585492,174.18,5.61,3,80.49,26 / 26,3918221,2019-09-08 11:13:04:845,-0.9715,0.6132,9.6482,-0.0002,0.0032,9.8066,0.014,-0.0161,0.0038,-29.12,-29.06,8.25,328.38,-80.21,-131.72
39154,52.4054,-1.585492,174.18,5.61,3,80.49,26 / 26,3918321,2019-09-08 11:13:04:945,-1.0821,0.5762,10.069,-0.0017,0.0014,9.8065,-0.0436,-0.017,0.0024,-28.69,-29.06,8.38,328.43,-80.25,-131.7
39155,52.4054,-1.585492,174.18,5.61,3,80.49,26 / 26,3918421,2019-09-08 11:13:05:045,-0.9387,0.6789,9.9279,-0.0115,0.0097,9.8066,-0.0447,0.0039,-0.0136,-28.81,-28.62,8.63,330.54,-80.29,-131.79
39156,52.4054,-1.585492,174.18,5.61,3,80.49,26 / 26,3918521,2019-09-08 11:13:05:145,-0.9879,0.7565,9.9712,-0.0161,0.009,9.8066,0.0237,0.0017,-0.0061,-29.12,-29.62,8.94,330.84,-80.46,-131.47
39157,52.4054,-1.585492,174.18,5.61,3,80.49,26 / 26,3918621,2019-09-08 11:13:05:245,-1.621,0.8833,9.9118,0.0067,0.004,9.8066,-0.032,-0.0402,-0.0041,-28.81,-29.37,8.44,328.88,-80.57,-131.5
39158,52.4054,-1.585492,174.18,5.61,3,80.49,26 / 26,3918721,2019-09-08 11:13:05:345,-1.4672,0.6578,9.9301,0.0019,0.0046,9.8065,-0.0166,-0.0181,-0.0413,-29.94,-29.19,8.56,330.62,-80.63,-131.5
39159,52.4054,-1.585492,174.18,5.61,3,80.49,26 / 26,3918822,2019-09-08 11:13:05:446,-0.6784,0.8237,9.6729,-0.0076,0.0083,9.8066,0.0012,-0.0095,-0.0481,-28.5,-29.56,8.63,331.34,-80.72,-131.63
39160,52.4054,-1.585492,174.18,5.61,3,80.49,28 / 29,3918921,2019-09-08 11:13:05:545,-1.0692,0.687,9.7684,-0.0059,-0.0004,9.8066,-0.0216,-0.0288,0.0091,-29.06,-29.5,8.94,331.33,-80.78,-131.37
39161,52.4054,-1.585492,174.18,5.61,3,80.49,28 / 29,3919022,2019-09-08 11:13:05:646,-1.5184,1.0809,10.1421,-0.0073,0.0062,9.8066,-0.0101,-0.0308,-0.0042,-28.69,-29.12,9.38,331.48,-80.82,-131.26
39162,52.4054,-1.585492,174.18,5.61,3,80.49,28 / 29,3919122,2019-09-08 11:13:05:746,-0.9307,0.772,10.008,-0.004,0.0039,9.8066,0.0084,-0.0137,-0.023,-28.44,-30.19,9.5,334.49,-80.94,-130.95
39163,52.4054,-1.585492,174.18,5.61,3,80.49,28 / 29,3919221,2019-09-08 11:13:05:845,-1.5369,0.2238,10.0747,0.0101,-0.006,9.8066,0.023,-0.0568,0.0345,-29.06,-29.81,8.81,331.81,-81.05,-130.96
39164,52.4054,-1.585492,174.18,5.61,3,80.49,28 / 29,3919321,2019-09-08 11:13:05:945,-1.2715,0.6634,9.8057,0.0102,0.0018,9.8066,0.0247,-0.0255,0.0172,-28.81,-30.0,8.69,331.32,-81.04,-131.38
39165,52.4054,-1.585492,174.18,5.61,3,80.49,28 / 29,3919421,2019-09-08 11:13:06:045,-1.3559,0.8789,9.9665,-0.0122,0.0117,9.8066,0.0129,-0.0157,-0.015,-29.06,-30.44,9.0,331.78,-81.21,-131.08
39166,52.4054,-1.585492,174.18,5.61,3,80.49,28 / 29,3919521,2019-09-08 11:13:06:145,-1.2565,1.0233,9.984,-0.0092,0.0073,9.8066,-0.0024,-0.022,0.0091,-29.19,-29.37,8.81,331.95,-81.29,-131.1
39167,52.4054,-1.585492,174.18,5.61,3,80.49,28 / 29,3919621,2019-09-08 11:13:06:245,-0.9378,0.6984,9.6812,0.0003,0.004,9.8066,-0.0213,-0.0082,0.0019,-29.19,-30.31,8.56,331.82,-81.33,-131.1
39168,52.4054,-1.585492,174.18,5.61,3,80.49,28 / 29,3919722,2019-09-08 11:13:06:346,-1.3864,0.8112,9.7827,-0.0041,0.0029,9.8066,0.0211,-0.0135,0.0077,-29.12,-29.94,8.31,329.85,-81.41,-130.99
39169,52.4054,-1.585492,174.18,5.61,3,80.49,27 / 28,3919822,2019-09-08 11:13:06:446,-1.4148,0.6883,9.8829,-0.0067,0.0027,9.8066,0.0208,-0.0223,0.0295,-29.25,-29.87,9.38,332.18,-81.48,-130.88
39170,52.4054,-1.585492,174.18,5.61,3,80.49,27 / 28,3919921,2019-09-08 11:13:06:545,-0.9665,0.6797,9.9032,-0.0041,0.0029,9.8066,-0.0124,-0.0203,0.0042,-29.12,-29.56,8.69,332.47,-81.55,-130.66
39171,52.4054,-1.585492,174.18,5.61,3,80.49,27 / 28,3920021,2019-09-08 11:13:06:645,-0.8226,0.7704,9.6154,-0.0062,0.0053,9.8066,-0.0069,-0.0112,-0.0219,-29.25,-29.94,8.94,332.56,-81.59,-130.6
39172,52.4054,-1.585492,174.18,5.61,3,80.49,27 / 28,3920121,2019-09-08 11:13:06:745,-0.9478,0.5451,9.9043,-0.0049,0.001,9.8066,0.019,-0.0087,-0.0151,-28.69,-29.81,9.13,333.02,-81.68,-130.25
39173,52.4054,-1.585492,174.18,5.61,3,80.49,27 / 28,3920221,2019-09-08 11:13:06:845,-0.9965,0.7835,10.064,-0.003,0.0008,9.8066,0.0267,-0.0294,0.0126,-28.75,-29.37,9.44,333.44,-81.71,-130.02
39174,52.4054,-1.585492,174.18,5.61,3,80.49,27 / 28,3920321,2019-09-08 11:13:06:945,-0.6772,0.7478,9.7522,-0.0049,0.0019,9.8066,-0.0053,-0.021,0.0148,-28.69,-30.06,9.31,333.93,-81.76,-129.5
39175,52.4054,-1.585492,174.18,5.61,3,80.49,27 / 28,3920421,2019-09-08 11:13:07:045,-0.7607,0.7705,9.9102,-0.0082,0.0066,9.8066,-0.0187,-0.0063,-0.0117,-28.37,-29.19,9.75,337.4,-81.88,-129.01
39176,52.4054,-1.585492,174.18,5.61,3,80.49,27 / 28,3920522,2019-09-08 11:13:07:146,-0.5141,0.7737,9.9373,-0.006,0.0032,9.8065,0.0259,-0.0307,0.0184,-28.44,-29.12,9.44,335.47,-81.93,-128.84
39177,52.4054,-1.585492,174.18,5.61,3,80.49,27 / 28,3920621,2019-09-08 11:13:07:245,-0.4494,0.5981,9.8513,-0.0045,0.0058,9.8066,-0.0025,-0.0046,-0.0019,-28.56,-30.12,9.75,337.07,-81.96,-128.69
39178,52.4054,-1.585492,174.18,5.61,3,80.49,27 / 28,3920721,2019-09-08 11:13:07:345,-0.2776,0.482,9.9029,-0.0043,0.0044,9.8066,-0.0031,-0.0061,0.0064,-28.62,-29.81,9.5,337.45,-82.08,-128.42
39179,52.4054,-1.585492,174.18,5.61,3,80.49,27 / 28,3920821,2019-09-08 11:13:07:445,-0.2815,0.3975,9.7799,-0.0039,0.0036,9.8066,0.013,-0.0231,0.0138,-28.5,-29.87,9.44,336.15,-82.12,-128.23
39180,52.4054,-1.585492,174.18,5.61,3,80.49,27 / 28,3920921,2019-09-08 11:13:07:545,-0.3613,0.4578,9.9834,-0.005,0.0054,9.8066,-0.0015,-0.0009,-0.0091,-28.56,-30.25,9.31,336.04,-82.23,-127.89
39181,52.4054,-1.585492,174.18,5.61,3,80.49,27 / 28,3921021,2019-09-08 11:13:07:645,-0.4415,0.5424,9.7984,-0.0062,0.0034,9.8066,-0.0015,-0.0008,0.0079,-28.44,-30.12,9.25,337.15,-82.33,-127.45
39182,52.4054,-1.585492,174.18,5.61,3,80.49,27 / 28,3921121,2019-09-08 11:13:07:745,-0.124,0.5215,9.8741,-0.0059,0.0057,9.8066,-0.0083,-0.0027,-0.0059,-28.69,-30.06,9.25,336.83,-82.4,-127.28
39183,52.4054,-1.585492,174.18,5.61,3,80.49,27 / 28,3921221,2019-09-08 11:13:07:845,-0.4228,0.5407,9.9036,-0.0043,0.0026,9.8066,-0.0018,-0.0095,-0.0005,-28.94,-29.94,9.25,336.96,-82.46,-127.19
39184,52.4054,-1.585492,174.18,5.61,3,80.49,27 / 28,3921322,2019-09-08 11:13:07:946,-0.1641,0.39,9.8168,-0.0038,0.0059,9.8066,0.0193,-0.0133,0.002,-28.94,-29.81,9.88,339.31,-82.5,-126.97
39185,52.4054,-1.585492,174.18,5.61,3,80.49,27 / 28,3921422,2019-09-08 11:13:08:046,-0.2766,0.6231,9.9973,-0.0036,0.0052,9.8066,0.0189,0.0083,-0.0001,-28.94,-29.81,10.13,339.77,-82.62,-126.61
39186,52.4054,-1.585492,174.18,5.61,3,80.49,27 / 28,3921522,2019-09-08 11:13:08:146,-0.4089,0.543,9.7821,-0.0025,0.0033,9.8066,-0.0131,-0.0007,0.0021,-29.06,-29.94,9.25,338.18,-82.72,-126.24
39187,52.4054,-1.585492,174.18,5.61,3,80.49,27 / 28,3921622,2019-09-08 11:13:08:246,-0.0417,0.4547,10.0028,-0.0065,0.0033,9.8066,-0.0173,-0.0021,-0.0062,-28.62,-29.94,9.38,338.82,-82.83,-125.72
39188,52.4054,-1.585492,174.18,5.61,3,80.49,27 / 28,3921721,2019-09-08 11:13:08:345,0.3285,0.3782,9.9628,-0.0063,0.002,9.8066,0.0144,-0.013,0.003,-28.5,-30.25,9.31,339.7,-82.87,-125.46
39189,52.4054,-1.585492,174.18,5.61,3,80.49,27 / 28,3921821,2019-09-08 11:13:08:445,0.5271,0.2581,9.6936,-0.0002,0.0005,9.8065,-0.0017,-0.0053,-0.0002,-28.62,-30.31,10.0,341.32,-82.91,-125.36
39190,52.405434,-1.585026,174.19,0.0,3,85.69,27 / 27,3921922,2019-09-08 11:13:08:546,0.2524,0.2684,9.6565,-0.0056,0.0047,9.8066,-0.012,-0.0006,0.0021,-29.25,-30.31,9.69,341.74,-82.98,-125.01
39191,52.405434,-1.585026,174.19,0.0,3,85.69,27 / 27,3922021,2019-09-08 11:13:08:645,0.1678,0.5146,10.1015,-0.0048,0.0036,9.8066,-0.0062,0.0039,-0.0071,-29.25,-30.31,9.81,342.06,-83.03,-124.75
39192,52.405434,-1.585026,174.19,0.0,3,85.69,27 / 27,3922121,2019-09-08 11:13:08:745,0.516,0.2426,9.6584,-0.0033,0.0043,9.8066,0.0133,-0.0121,0.0111,-28.5,-29.87,9.94,343.01,-83.09,-124.49
39193,52.405434,-1.585026,174.19,0.0,3,85.69,27 / 27,3922221,2019-09-08 11:13:08:845,0.2079,0.3159,9.805,-0.0053,0.002,9.8066,0.0157,-0.011,0.005,-28.69,-30.37,9.13,340.81,-83.16,-124.09
39194,52.405434,-1.585026,174.19,0.0,3,85.69,27 / 27,3922321,2019-09-08 11:13:08:945,0.2345,0.3742,9.9748,0.0009,0.0027,9.8065,0.0002,-0.01,0.0067,-28.56,-29.62,9.19,341.16,-83.2,-123.79
39195,52.405434,-1.585026,174.19,0.0,3,85.69,27 / 27,3922422,2019-09-08 11:13:09:046,0.3978,0.3077,9.8169,0.0005,0.0009,9.8066,-0.021,-0.0076,0.0061,-28.31,-30.0,9.25,341.82,-83.25,-123.74
39196,52.405434,-1.585026,174.19,0.0,3,85.69,27 / 27,3922522,2019-09-08 11:13:09:146,0.2069,0.3201,9.9778,-0.0065,0.0043,9.8066,0.0149,-0.0005,0.007,-28.75,-30.37,9.63,343.89,-83.33,-123.23
39197,52.405434,-1.585026,174.19,0.0,3,85.69,27 / 27,3922621,2019-09-08 11:13:09:245,0.3008,0.2419,9.8178,-0.0036,0.0022,9.8066,0.0214,-0.0083,0.0057,-29.12,-30.31,9.31,342.15,-83.37,-122.97
39198,52.405434,-1.585026,174.19,0.0,3,85.69,27 / 27,3922722,2019-09-08 11:13:09:346,0.3399,0.3313,9.8808,-0.0015,0.0036,9.8066,0.0102,-0.0083,0.0014,-28.62,-29.87,9.56,344.47,-83.41,-122.73
39199,52.405434,-1.585026,174.19,0.0,3,85.69,27 / 27,3922821,2019-09-08 11:13:09:445,0.2424,0.3054,10.0303,-0.004,0.0009,9.8066,0.0012,-0.0094,0.0055,-28.87,-30.56,9.81,344.61,-83.46,-122.57
39200,52.405434,-1.585026,174.19,0.0,3,85.69,26 / 26,3922921,2019-09-08 11:13:09:545,0.3407,0.1909,9.7644,-0.0009,0.0041,9.8066,-0.0131,0.014,0.0045,-28.37,-29.87,9.94,345.73,-83.52,-122.23
39201,52.405434,-1.585026,174.19,0.0,3,85.69,26 / 26,3923022,2019-09-08 11:13:09:646,0.3155,0.3634,9.9268,-0.0019,0.0021,9.8066,-0.0114,0.002,0.0122,-28.31,-29.56,9.69,346.02,-83.56,-121.98
39202,52.405434,-1.585026,174.19,0.0,3,85.69,26 / 26,3923121,2019-09-08 11:13:09:745,0.303,0.1881,10.008,-0.0033,0.0024,9.8066,0.0074,-0.0041,0.003,-29.19,-29.87,9.75,345.64,-83.59,-121.75
39203,52.405434,-1.585026,174.19,0.0,3,85.69,26 / 26,3923221,2019-09-08 11:13:09:845,0.3213,0.1479,9.7756,-0.002,0.0029,9.8066,0.0064,-0.0165,0.0085,-28.44,-29.75,9.63,346.59,-83.64,-121.5
39204,52.405434,-1.585026,174.19,0.0,3,85.69,26 / 26,3923322,2019-09-08 11:13:09:946,0.381,0.3021,9.8537,-0.0041,0.0032,9.8065,0.0187,-0.0167,-0.0029,-28.44,-30.0,9.75,346.98,-83.66,-121.16
39205,52.405434,-1.585026,174.19,0.0,3,85.69,26 / 26,3923422,2019-09-08 11:13:10:046,0.3235,0.199,10.0163,-0.0029,0.0027,9.8066,0.0057,-0.0197,0.0063,-28.87,-30.37,10.0,346.72,-83.72,-120.82
39206,52.405434,-1.585026,174.19,0.0,3,85.69,26 / 26,3923522,2019-09-08 11:13:10:146,0.3978,0.0928,9.7767,0.0006,0.0014,9.8066,-0.0172,0.0059,-0.0017,-28.87,-30.06,9.69,346.83,-83.74,-120.72
39207,52.405434,-1.585026,174.19,0.0,3,85.69,26 / 26,3923622,2019-09-08 11:13:10:246,0.3873,0.293,9.878,0.0005,0.0017,9.8066,-0.0122,0.0008,0.0134,-28.62,-29.75,10.0,346.9,-83.77,-120.67
39208,52.405434,-1.585026,174.19,0.0,3,85.69,26 / 26,3923721,2019-09-08 11:13:10:345,0.356,0.1837,10.0403,-0.0007,0.0011,9.8066,0.0059,-0.0064,0.0035,-28.69,-29.81,9.69,347.07,-83.79,-120.53
39209,52.405434,-1.585026,174.19,0.0,3,85.69,27 / 27,3923821,2019-09-08 11:13:10:445,0.3994,0.1595,9.7869,-0.0014,0.0016,9.8066,0.02,-0.0194,0.0063,-29.19,-29.37,9.63,347.41,-83.83,-120.28
39210,52.405434,-1.585026,174.19,0.0,3,85.69,27 / 27,3923921,2019-09-08 11:13:10:545,0.3642,0.3062,9.8633,-0.0034,0.0028,9.8066,0.0167,-0.0162,-0.0047,-29.06,-30.81,9.5,347.42,-83.83,-120.18
39211,52.405434,-1.585026,174.19,0.0,3,85.69,27 / 27,3924022,2019-09-08 11:13:10:646,0.3743,0.2088,10.0093,-0.0031,0.0018,9.8066,0.0164,-0.0181,0.0005,-29.12,-29.87,9.5,347.81,-83.88,-119.88
39212,52.405434,-1.585026,174.19,0.0,3,85.69,27 / 27,3924122,2019-09-08 11:13:10:746,0.3662,0.2556,9.9447,0.0013,0.0019,9.8066,-0.0051,-0.0011,0.0072,-29.0,-29.94,9.5,347.75,-83.89,-119.94
39213,52.405434,-1.585026,174.19,0.0,3,85.69,27 / 27,3924221,2019-09-08 11:13:10:845,0.484,0.2502,9.6731,0.0021,0.0001,9.8066,-0.0175,0.0025,0.015,-29.12,-29.87,9.88,347.74,-83.91,-119.96
39214,52.405434,-1.585026,174.19,0.0,3,85.69,27 / 27,3924322,2019-09-08 11:13:10:946,0.4953,0.0644,9.9159,-0.0029,0.0022,9.8066,0.0225,0.0067,0.0226,-29.12,-29.81,10.13,347.83,-83.92,-119.87
39215,52.405434,-1.585026,174.19,0.0,3,85.69,27 / 27,3924421,2019-09-08 11:13:11:045,0.716,0.2207,10.0473,-0.0014,-0.002,9.8066,0.011,0.0197,0.0049,-29.75,-30.12,10.44,347.25,-83.91,-119.85
39216,52.405434,-1.585026,174.19,0.0,3,85.69,27 / 27,3924522,2019-09-08 11:13:11:146,0.7371,-0.0872,9.8424,0.0041,-0.0019,9.8066,-0.0319,-0.0042,0.0043,-29.81,-29.94,11.06,348.97,-83.91,-120.02
39217,52.405434,-1.585026,174.19,0.0,3,85.69,27 / 27,3924621,2019-09-08 11:13:11:245,0.653,0.1544,9.7393,-0.0005,-0.0024,9.8066,-0.0169,0.0028,-0.0306,-30.19,-29.19,11.63,350.72,-83.88,-120.14
39218,52.405434,-1.585026,174.19,0.0,3,85.69,27 / 27,3924721,2019-09-08 11:13:11:345,1.1646,-0.1397,9.7855,-0.0014,0.0025,9.8066,0.0113,-0.0291,-0.0084,-29.56,-29.25,11.06,348.86,-83.89,-120.15
39219,52.405434,-1.585026,174.19,0.0,3,85.69,27 / 27,3924821,2019-09-08 11:13:11:445,0.9236,0.1303,9.9097,0.0006,-0.0002,9.8066,0.0,-0.0173,-0.0113,-29.44,-28.94,10.75,349.42,-83.9,-120.25
39220,52.405434,-1.585026,174.19,0.0,3,85.69,27 / 27,3924922,2019-09-08 11:13:11:546,0.9628,-0.2178,9.7234,0.0034,0.0,9.8066,-0.0116,-0.0213,0.0008,-29.19,-29.0,11.13,349.46,-83.9,-120.21
39221,52.405434,-1.585026,174.19,0.0,3,85.69,27 / 27,3925021,2019-09-08 11:13:11:645,0.8976,-0.0365,9.9176,0.0007,-0.001,9.8066,-0.0138,-0.009,-0.014,-29.25,-29.19,11.06,349.22,-83.88,-120.42
39222,52.405434,-1.585026,174.19,0.0,3,85.69,27 / 27,3925121,2019-09-08 11:13:11:745,1.0235,-0.1653,9.8336,0.0013,0.0003,9.8066,0.0019,-0.0254,0.0069,-29.56,-29.25,12.0,350.3,-83.88,-120.52
39223,52.405434,-1.585026,174.19,0.0,3,85.69,27 / 27,3925222,2019-09-08 11:13:11:846,0.723,-0.1779,9.8869,0.0014,-0.0019,9.8066,-0.0002,-0.0437,0.016,-29.44,-29.69,11.5,351.0,-83.87,-120.51
39224,52.405434,-1.585026,174.19,0.0,3,85.69,27 / 27,3925322,2019-09-08 11:13:11:946,0.9775,-0.2442,9.8064,0.0012,0.0005,9.8066,0.0092,-0.0408,0.0108,-29.56,-29.19,11.38,348.4,-83.85,-120.55
39225,52.405434,-1.585026,174.19,0.0,3,85.69,27 / 27,3925422,2019-09-08 11:13:12:046,1.1748,-0.3778,9.8231,-0.0005,-0.0016,9.8066,0.008,-0.0586,0.0061,-29.56,-29.19,11.38,348.38,-83.84,-120.57
39226,52.405434,-1.585026,174.19,0.0,3,85.69,27 / 27,3925522,2019-09-08 11:13:12:146,1.4464,-0.6326,9.7971,0.0045,-0.0026,9.8066,-0.014,-0.0807,0.0142,-29.81,-29.31,11.56,350.06,-83.81,-120.73
39227,52.405434,-1.585026,174.19,0.0,3,85.69,27 / 27,3925622,2019-09-08 11:13:12:246,1.4089,-0.4186,9.8063,0.0017,-0.0038,9.8066,-0.0065,-0.0626,0.0136,-29.44,-29.44,11.13,348.51,-83.76,-121.04
39228,52.405434,-1.585026,174.19,0.0,3,85.69,27 / 27,3925722,2019-09-08 11:13:12:346,1.1526,-0.6074,9.84,0.0028,-0.0046,9.8066,-0.0047,-0.09,0.0134,-29.5,-29.44,11.31,348.3,-83.7,-121.21
39229,52.405434,-1.585026,174.19,0.0,3,85.69,27 / 27,3925822,2019-09-08 11:13:12:446,0.9879,-0.3681,9.8052,0.0045,-0.0018,9.8066,-0.0117,-0.1096,0.0167,-29.19,-29.31,10.81,348.05,-83.64,-121.42
39230,52.405434,-1.585026,174.19,0.0,3,85.69,26 / 27,3925921,2019-09-08 11:13:12:545,1.4866,-0.48,9.6133,0.0006,-0.0026,9.8066,0.0073,-0.1177,0.0293,-29.69,-29.0,11.25,347.06,-83.58,-121.69
39231,52.405434,-1.585026,174.19,0.0,3,85.69,26 / 27,3926022,2019-09-08 11:13:12:646,1.388,-0.6437,9.9532,0.0075,-0.0091,9.8065,-0.007,-0.1328,0.0227,-30.0,-28.56,11.88,348.45,-83.44,-122.1
39232,52.405434,-1.585026,174.19,0.0,3,85.69,26 / 27,3926122,2019-09-08 11:13:12:746,1.0,-0.6178,9.698,-0.0033,-0.0046,9.8066,0.0177,-0.1486,0.0121,-28.75,-28.94,11.94,348.96,-83.35,-122.27
39233,52.405434,-1.585026,174.19,0.0,3,85.69,26 / 27,3926221,2019-09-08 11:13:12:845,1.6525,-0.8235,9.9201,0.0011,-0.0042,9.8066,0.0106,-0.1793,0.0231,-29.12,-29.5,12.13,348.62,-83.27,-122.56
39234,52.405434,-1.585026,174.19,0.0,3,85.69,26 / 27,3926322,2019-09-08 11:13:12:946,0.8719,-0.6119,9.8945,0.0035,-0.0069,9.8066,-0.0109,-0.1725,0.0244,-28.5,-29.0,12.19,349.03,-83.21,-122.86
39235,52.405434,-1.585026,174.19,0.0,3,85.69,26 / 27,3926422,2019-09-08 11:13:13:046,1.8285,-0.8396,9.6651,0.0038,-0.006,9.8066,-0.0005,-0.191,0.0444,-28.19,-28.44,12.81,350.37,-83.1,-123.42
39236,52.405434,-1.585026,174.19,0.0,3,85.69,26 / 27,3926522,2019-09-08 11:13:13:146,1.7059,-0.8042,9.7498,0.0059,-0.0082,9.8066,0.0041,-0.1791,0.0186,-28.25,-28.94,13.56,351.59,-82.97,-123.97
39237,52.405434,-1.585026,174.19,0.0,3,85.69,26 / 27,3926622,2019-09-08 11:13:13:246,1.1076,-0.6406,9.682,0.0062,-0.0047,9.8066,0.0091,-0.2004,0.0236,-28.25,-29.12,13.75,350.63,-82.83,-124.78
39238,52.405434,-1.585026,174.19,0.0,3,85.69,26 / 27,3926722,2019-09-08 11:13:13:346,1.5408,-0.5187,9.7793,0.0042,-0.004,9.8066,0.027,-0.1782,0.0114,-28.37,-28.69,14.38,349.82,-82.74,-125.48
39239,52.405434,-1.585026,174.19,0.0,3,85.69,29 / 29,3926822,2019-09-08 11:13:13:446,1.0708,-0.4763,9.8721,0.0059,-0.0031,9.8066,0.0383,-0.1909,0.0216,-27.94,-28.75,14.44,348.79,-82.63,-126.36
39240,52.405434,-1.585026,174.19,0.0,3,85.69,29 / 29,3926922,2019-09-08 11:13:13:546,1.206,-0.2484,9.963,0.0109,-0.0067,9.8066,-0.0088,-0.174,0.0107,-28.19,-29.12,15.19,349.83,-82.55,-127.07
39241,52.405434,-1.585026,174.19,0.0,3,85.69,29 / 29,3927022,2019-09-08 11:13:13:646,0.927,-0.5886,9.8985,0.0077,-0.0002,9.8065,0.0326,-0.1424,0.0163,-28.62,-28.06,14.75,347.99,-82.45,-127.91
39242,52.405434,-1.585026,174.19,0.0,3,85.69,29 / 29,3927122,2019-09-08 11:13:13:746,1.4171,-0.3232,9.8772,0.0085,-0.0049,9.8065,0.0195,-0.0885,-0.0015,-28.12,-28.19,15.25,347.87,-82.36,-128.8
39243,52.405434,-1.585026,174.19,0.0,3,85.69,29 / 29,3927221,2019-09-08 11:13:13:845,2.2028,-0.4301,9.8421,0.0079,-0.0051,9.8066,0.0137,-0.092,0.009,-27.75,-28.0,15.94,349.04,-82.31,-129.34
39244,52.405434,-1.585026,174.19,0.0,3,85.69,29 / 29,3927321,2019-09-08 11:13:13:945,1.7874,-0.1226,9.6699,-0.0014,-0.0027,9.8066,-0.0033,-0.0632,0.0075,-27.75,-28.31,16.31,348.66,-82.24,-129.66
39245,52.405434,-1.585026,174.19,0.0,3,85.69,29 / 29,3927421,2019-09-08 11:13:14:045,1.5105,-0.1513,9.6082,0.0022,-0.0063,9.8066,-0.0347,-0.0355,0.0195,-27.75,-28.31,15.75,348.35,-82.12,-129.91
39246,52.405434,-1.585026,174.19,0.0,3,85.69,29 / 29,3927521,2019-09-08 11:13:14:145,2.1097,-0.3953,9.7875,0.001,0.0025,9.8066,0.0314,-0.0125,0.0018,-28.19,-28.5,16.13,348.24,-82.08,-130.0
39247,52.405434,-1.585026,174.19,0.0,3,85.69,29 / 29,3927621,2019-09-08 11:13:14:245,2.1988,-0.4031,10.0721,-0.0008,0.004,9.8066,0.0317,0.0183,-0.0136,-27.94,-28.12,16.31,348.15,-82.14,-130.09
39248,52.405434,-1.585026,174.19,0.0,3,85.69,29 / 29,3927721,2019-09-08 11:13:14:345,1.7993,0.0386,9.3978,-0.008,0.0091,9.8066,-0.0124,0.0278,-0.0035,-27.37,-27.87,16.31,349.12,-82.26,-130.13
39249,52.405434,-1.585026,174.19,0.0,3,85.69,29 / 29,3927821,2019-09-08 11:13:14:445,1.5988,0.1735,9.7517,-0.018,0.0209,9.8066,0.0416,0.035,0.0015,-27.5,-27.25,16.0,349.24,-82.37,-130.09
39250,52.405434,-1.585026,174.19,0.0,3,85.69,28 / 28,3927921,2019-09-08 11:13:14:545,1.9277,-0.0889,10.0089,0.009,0.009,9.8066,-0.0998,0.0843,-0.0616,-27.44,-27.31,16.38,349.43,-82.46,-129.95
39251,52.405434,-1.585026,174.19,0.0,3,85.69,28 / 28,3928022,2019-09-08 11:13:14:646,1.6633,0.6672,9.6783,0.0019,0.0206,9.8066,-0.0523,0.103,-0.0701,-26.81,-28.5,14.81,347.01,-82.77,-130.48
39252,52.405434,-1.585026,174.19,0.0,3,85.69,28 / 28,3928121,2019-09-08 11:13:14:745,1.7137,0.6357,9.7559,-0.0076,0.0197,9.8065,0.0378,0.1035,-0.0405,-26.62,-27.19,14.25,344.66,-83.01,-131.0
39253,52.405434,-1.585026,174.19,0.0,3,85.69,28 / 28,3928222,2019-09-08 11:13:14:846,1.715,0.8569,9.5371,0.0032,0.0057,9.8066,0.0209,0.156,-0.0681,-26.75,-26.37,14.5,345.98,-83.22,-131.6
39254,52.405434,-1.585026,174.19,0.0,3,85.69,28 / 28,3928321,2019-09-08 11:13:14:945,1.8291,0.8376,9.6103,0.0068,-0.0052,9.8066,-0.0152,0.15,-0.0053,-26.44,-26.69,14.06,343.89,-83.17,-132.57
39255,52.405434,-1.585026,174.19,0.0,3,85.69,28 / 28,3928421,2019-09-08 11:13:15:045,1.293,0.5619,9.7977,0.0025,-0.0001,9.8066,-0.0296,0.1771,-0.0453,-26.5,-26.69,13.63,343.34,-83.1,-133.04
39256,52.405434,-1.585026,174.19,0.0,3,85.69,28 / 28,3928522,2019-09-08 11:13:15:146,1.9408,-0.1668,9.7582,0.0149,0.0028,9.8066,-0.049,0.1985,-0.0701,-26.25,-26.69,11.75,338.88,-83.19,-133.45
39257,52.405434,-1.585026,174.19,0.0,3,85.69,28 / 28,3928622,2019-09-08 11:13:15:246,1.9338,0.6419,9.839,0.0079,0.0148,9.8066,-0.011,0.1779,-0.0537,-26.5,-26.12,11.63,337.08,-83.33,-135.2
39258,52.405434,-1.585026,174.19,0.0,3,85.69,28 / 28,3928721,2019-09-08 11:13:15:345,2.1412,0.7792,9.5323,0.0145,0.0139,9.8065,0.0576,0.1769,-0.0352,-26.69,-26.5,10.94,332.83,-83.47,-136.52
39259,52.405434,-1.585026,174.19,0.0,3,85.69,28 / 28,3928821,2019-09-08 11:13:15:445,2.5786,0.6288,9.5827,-0.006,0.0153,9.8066,0.0276,0.2078,-0.047,-26.75,-26.75,10.94,331.24,-83.68,-137.96
39260,52.405434,-1.585026,174.19,0.0,3,85.69,27 / 27,3928921,2019-09-08 11:13:15:545,1.5873,0.7288,9.5542,-0.01,0.0104,9.8065,0.0006,0.2183,-0.032,-26.19,-27.31,10.19,329.27,-83.85,-138.58
39261,52.405434,-1.585026,174.19,0.0,3,85.69,27 / 27,3929021,2019-09-08 11:13:15:645,2.0363,0.9357,9.5961,-0.0171,0.0172,9.8065,0.0373,0.1939,-0.0147,-26.81,-27.25,9.81,327.99,-84.01,-139.21
39262,52.405434,-1.585026,174.19,0.0,3,85.69,27 / 27,3929122,2019-09-08 11:13:15:746,2.0656,0.3209,9.6111,0.0175,-0.0026,9.8066,-0.0264,0.1634,-0.0291,-26.81,-27.25,9.13,325.81,-84.1,-139.34
39263,52.405434,-1.585026,174.19,0.0,3,85.69,27 / 27,3929222,2019-09-08 11:13:15:846,1.3406,0.2911,9.866,0.0158,0.0,9.8066,-0.0056,0.1377,-0.017,-28.12,-27.12,9.06,324.17,-84.05,-140.3
39264,52.405434,-1.585026,174.19,0.0,3,85.69,27 / 27,3929322,2019-09-08 11:13:15:946,2.3285,0.2564,9.6339,-0.0115,-0.0018,9.8066,0.0155,0.0862,0.0264,-28.87,-26.75,8.88,323.2,-84.01,-140.7
39265,52.405434,-1.585026,174.19,0.0,3,85.69,27 / 27,3929422,2019-09-08 11:13:16:046,0.6086,-0.0351,9.7449,-0.0179,-0.0004,9.8065,0.0174,0.0855,0.0134,-28.69,-26.12,10.0,326.56,-83.98,-139.51
39266,52.405434,-1.585026,174.19,0.0,3,85.69,27 / 27,3929521,2019-09-08 11:13:16:145,1.5828,-0.9608,10.2135,0.0273,-0.0013,9.8066,0.0186,0.0609,0.0272,-28.44,-27.06,10.69,328.0,-83.82,-140.36
39267,52.405434,-1.585026,174.19,0.0,3,85.69,27 / 27,3929621,2019-09-08 11:13:16:245,1.9597,0.2454,9.7311,0.035,-0.0046,9.8065,-0.0482,0.0872,0.0019,-27.75,-26.87,10.0,324.57,-83.8,-141.66
39268,52.405434,-1.585026,174.19,0.0,3,85.69,27 / 27,3929722,2019-09-08 11:13:16:346,0.7608,-0.1583,9.6462,-0.0023,0.0006,9.8066,0.0058,0.0566,0.0032,-27.12,-27.37,10.13,324.92,-83.84,-141.93
39269,52.405434,-1.585026,174.19,0.0,3,85.69,27 / 27,3929822,2019-09-08 11:13:16:446,1.4065,-0.591,10.0064,0.015,-0.0028,9.8065,-0.0382,0.0,0.01,-27.56,-27.69,9.56,324.28,-83.85,-141.83
39270,52.405434,-1.585026,174.19,0.0,3,85.69,27 / 28,3929921,2019-09-08 11:13:16:545,1.0493,0.0433,9.5758,-0.0248,0.0067,9.8066,0.1134,-0.007,0.0112,-27.25,-28.44,9.56,323.77,-83.74,-142.79
39271,52.405434,-1.585026,174.19,0.0,3,85.69,27 / 28,3930021,2019-09-08 11:13:16:645,2.1636,0.101,10.4331,-0.0138,-0.0062,9.8066,0.1078,0.0156,-0.0172,-27.19,-28.62,9.81,324.41,-83.7,-142.05
39272,52.405434,-1.585026,174.19,0.0,3,85.69,27 / 28,3930121,2019-09-08 11:13:16:745,2.1442,-0.2277,9.9311,0.0316,-0.0063,9.8065,-0.1254,0.0164,-0.0127,-27.31,-28.69,9.25,320.86,-83.48,-143.19
39273,52.405434,-1.585026,174.19,0.0,3,85.69,27 / 28,3930222,2019-09-08 11:13:16:846,1.7955,-0.2489,9.4478,0.0172,-0.0031,9.8066,-0.0554,-0.0069,0.0176,-27.25,-28.44,10.31,322.74,-83.46,-143.54
39274,52.405434,-1.585026,174.19,0.0,3,85.69,27 / 28,3930322,2019-09-08 11:13:16:946,1.2497,0.1784,9.6636,-0.0064,-0.0002,9.8066,0.0822,-0.0107,0.0078,-27.37,-28.87,9.94,322.47,-83.39,-143.61
39275,52.405434,-1.585026,174.19,0.0,3,85.69,27 / 28,3930422,2019-09-08 11:13:17:046,0.3498,-0.295,10.3817,-0.0094,0.003,9.8066,0.1094,0.0164,0.0146,-27.0,-29.25,9.75,322.88,-83.4,-143.24
39276,52.405434,-1.585026,174.19,0.0,3,85.69,27 / 28,3930521,2019-09-08 11:13:17:145,1.2619,0.4508,9.7344,0.0104,-0.003,9.8066,-0.0202,0.0448,0.0211,-26.81,-28.62,9.56,322.24,-83.35,-143.79
39277,52.405434,-1.585026,174.19,0.0,3,85.69,27 / 28,3930622,2019-09-08 11:13:17:246,1.0412,-0.5449,9.7666,-0.0017,-0.0011,9.8066,0.0658,-0.0416,0.033,-27.25,-29.25,9.31,319.96,-83.23,-143.83
39278,52.405434,-1.585026,174.19,0.0,3,85.69,27 / 28,3930723,2019-09-08 11:13:17:347,1.5687,1.0835,9.7614,0.0,0.0023,9.8066,-0.0546,-0.0127,0.0527,-27.06,-29.69,9.81,321.47,-83.15,-144.21
39279,52.405434,-1.585026,174.19,0.0,3,85.69,27 / 28,3930822,2019-09-08 11:13:17:446,1.6921,-0.1243,9.2366,-0.0131,-0.0024,9.8066,-0.0164,0.0231,0.0082,-26.81,-29.5,9.69,322.34,-83.14,-143.55
39280,52.40543,-1.584728,173.76,7.48,3,85.02,27 / 27,3930922,2019-09-08 11:13:17:546,1.0384,0.4017,9.7512,-0.0239,-0.0001,9.8065,0.0562,0.0047,0.0577,-27.25,-29.5,9.94,321.83,-82.99,-143.91
39281,52.40543,-1.584728,173.76,7.48,3,85.02,27 / 27,3931021,2019-09-08 11:13:17:645,1.4106,-0.1369,9.6525,-0.0115,-0.0079,9.8066,0.0192,0.0493,-0.0045,-27.19,-29.62,9.63,323.4,-83.02,-142.37
39282,52.40543,-1.584728,173.76,7.48,3,85.02,27 / 27,3931121,2019-09-08 11:13:17:745,1.4062,0.4886,9.2979,-0.0092,0.0045,9.8065,-0.0092,0.0233,0.0211,-27.62,-29.19,9.38,321.48,-83.06,-141.87
39283,52.40543,-1.584728,173.76,7.48,3,85.02,27 / 27,3931221,2019-09-08 11:13:17:845,0.9708,0.2615,9.6402,-0.0121,-0.0126,9.8066,-0.0335,-0.0219,0.0453,-27.81,-29.12,9.44,322.77,-83.0,-140.66
39284,52.40543,-1.584728,173.76,7.48,3,85.02,27 / 27,3931321,2019-09-08 11:13:17:945,0.9817,-0.7485,10.07,-0.0038,-0.0073,9.8066,-0.0308,-0.0239,-0.0023,-27.56,-29.5,9.63,326.48,-82.9,-139.15
39285,52.40543,-1.584728,173.76,7.48,3,85.02,27 / 27,3931421,2019-09-08 11:13:18:045,1.234,-0.1825,10.0366,0.0006,-0.0004,9.8066,0.0025,-0.006,-0.028,-27.87,-29.94,9.31,324.85,-82.85,-138.56
39286,52.40543,-1.584728,173.76,7.48,3,85.02,27 / 27,3931521,2019-09-08 11:13:18:145,1.5637,-0.3674,9.9042,0.025,-0.0015,9.8066,-0.0447,0.0121,-0.0581,-28.31,-29.44,8.94,324.29,-82.82,-139.18
39287,52.40543,-1.584728,173.76,7.48,3,85.02,27 / 27,3931622,2019-09-08 11:13:18:246,1.1007,0.7921,9.4652,0.0238,-0.0018,9.8066,-0.0678,-0.0461,0.0046,-27.75,-28.62,9.06,322.27,-82.68,-140.9
39288,52.40543,-1.584728,173.76,7.48,3,85.02,27 / 27,3931721,2019-09-08 11:13:18:345,1.0433,-0.1763,9.9628,-0.0041,0.002,9.8066,0.0427,-0.0049,-0.0391,-27.56,-29.31,9.06,322.61,-82.61,-140.55
39289,52.40543,-1.584728,173.76,7.48,3,85.02,27 / 27,3931821,2019-09-08 11:13:18:445,1.4847,0.4367,9.7362,0.0091,0.0043,9.8066,-0.0184,0.0223,-0.0594,-27.87,-28.62,9.25,321.82,-82.6,-141.25
39290,52.40543,-1.584728,173.76,7.48,3,85.02,27 / 27,3931922,2019-09-08 11:13:18:546,1.7753,-0.0134,9.48,-0.0193,0.0034,9.8066,0.0956,-0.0183,0.0181,-27.94,-29.12,9.13,321.34,-82.61,-141.69
39291,52.40543,-1.584728,173.76,7.48,3,85.02,27 / 27,3932021,2019-09-08 11:13:18:645,1.5407,-0.732,10.1282,-0.0346,0.0197,9.8065,0.1218,-0.0564,0.0651,-28.06,-29.44,9.25,321.63,-82.68,-141.47
39292,52.40543,-1.584728,173.76,7.48,3,85.02,27 / 27,3932121,2019-09-08 11:13:18:745,0.6308,-0.1064,10.6231,0.0385,-0.0155,9.8065,-0.067,-0.0494,0.0393,-28.25,-29.37,9.5,323.13,-82.56,-141.93
39293,52.40543,-1.584728,173.76,7.48,3,85.02,27 / 27,3932221,2019-09-08 11:13:18:845,0.813,0.3788,9.9513,0.0151,0.0026,9.8065,0.0406,0.0075,-0.0284,-28.19,-29.25,10.31,321.31,-82.4,-143.45
39294,52.40543,-1.584728,173.76,7.48,3,85.02,27 / 27,3932321,2019-09-08 11:13:18:945,0.7708,0.095,9.4647,0.0146,-0.0007,9.8066,-0.0102,0.0031,0.0455,-28.44,-29.19,9.19,318.64,-82.32,-143.91
39295,52.40543,-1.584728,173.76,7.48,3,85.02,27 / 27,3932421,2019-09-08 11:13:19:045,0.3108,0.4756,9.7688,0.0182,-0.015,9.8066,-0.0848,0.0305,-0.0328,-27.37,-28.87,9.63,320.73,-82.14,-144.31
39296,52.40543,-1.584728,173.76,7.48,3,85.02,27 / 27,3932522,2019-09-08 11:13:19:146,0.2361,-0.215,9.927,-0.0162,-0.007,9.8065,0.0595,-0.0205,0.0008,-27.37,-29.44,9.31,318.76,-82.15,-144.12
39297,52.40543,-1.584728,173.76,7.48,3,85.02,27 / 27,3932622,2019-09-08 11:13:19:246,1.2038,0.3206,9.5261,-0.0028,0.0022,9.8066,0.0191,0.0095,-0.0204,-28.19,-28.87,9.13,319.15,-82.16,-143.33
39298,52.40543,-1.584728,173.76,7.48,3,85.02,27 / 27,3932721,2019-09-08 11:13:19:345,-0.0355,0.2431,9.5348,-0.016,-0.0002,9.8065,-0.0209,-0.0181,0.0402,-28.37,-28.87,8.56,319.48,-82.12,-143.01
39299,52.40543,-1.584728,173.76,7.48,3,85.02,27 / 27,3932822,2019-09-08 11:13:19:446,0.1937,0.3894,9.5442,-0.0078,-0.0054,9.8066,-0.0148,-0.0236,0.0142,-28.25,-28.87,8.06,318.14,-82.13,-142.3
39300,52.40543,-1.584728,173.76,7.48,3,85.02,28 / 28,3932921,2019-09-08 11:13:19:545,0.1312,-0.3296,10.0919,-0.0024,0.0001,9.8066,0.029,-0.0564,0.014,-29.12,-27.56,7.31,316.6,-82.11,-141.6
39301,52.40543,-1.584728,173.76,7.48,3,85.02,28 / 28,3933022,2019-09-08 11:13:19:646,0.7599,0.0993,9.7779,-0.0014,0.0075,9.8066,0.0511,-0.0401,0.0444,-29.87,-27.0,7.31,316.28,-82.19,-141.85
39302,52.40543,-1.584728,173.76,7.48,3,85.02,28 / 28,3933122,2019-09-08 11:13:19:746,0.3581,-0.3475,9.7625,-0.026,0.0062,9.8066,0.0154,-0.0265,-0.0228,-31.75,-27.69,7.75,317.45,-82.12,-141.78
39303,52.40543,-1.584728,173.76,7.48,3,85.02,28 / 28,3933222,2019-09-08 11:13:19:846,0.4851,-0.2498,9.8228,-0.0275,0.0165,9.8066,0.0949,-0.066,0.01,-31.12,-27.87,9.63,321.79,-82.3,-141.74
39304,52.40543,-1.584728,173.76,7.48,3,85.02,28 / 28,3933321,2019-09-08 11:13:19:945,0.3791,-0.3884,10.4804,0.0385,-0.0118,9.8066,-0.1329,-0.0054,-0.042,-30.0,-28.44,10.06,321.11,-82.03,-142.61
39305,52.40543,-1.584728,173.76,7.48,3,85.02,28 / 28,3933421,2019-09-08 11:13:20:045,0.8655,-0.4162,9.7766,0.0355,-0.0113,9.8065,-0.1932,-0.0125,-0.0557,-29.25,-28.12,10.5,323.1,-82.0,-143.06
39306,52.40543,-1.584728,173.76,7.48,3,85.02,28 / 28,3933521,2019-09-08 11:13:20:145,0.0034,0.2388,9.9552,-0.0152,0.014,9.8066,0.1456,-0.01,-0.0255,-28.19,-28.81,10.0,320.87,-82.06,-143.61
39307,52.40543,-1.584728,173.76,7.48,3,85.02,28 / 28,3933622,2019-09-08 11:13:20:246,-0.3406,0.5965,10.6642,0.0073,0.0001,9.8066,0.0598,-0.0245,-0.013,-28.69,-29.31,10.0,319.49,-82.1,-144.41
39308,52.40543,-1.584728,173.76,7.48,3,85.02,28 / 28,3933721,2019-09-08 11:13:20:345,-0.1565,0.4521,10.1415,0.0141,0.0054,9.8066,-0.0012,-0.0343,-0.0013,-28.12,-29.06,9.69,319.63,-82.09,-144.74
39309,52.40543,-1.584728,173.76,7.48,3,85.02,28 / 28,3933821,2019-09-08 11:13:20:445,0.7104,0.351,9.6893,0.0161,-0.0015,9.8066,-0.0368,-0.0057,-0.0066,-28.19,-29.81,9.81,317.67,-81.91,-146.19
39310,52.40543,-1.584728,173.76,7.48,3,85.02,27 / 27,3933922,2019-09-08 11:13:20:546,0.0088,1.1281,9.2112,-0.0141,0.0114,9.8066,0.047,-0.0136,0.0498,-27.5,-28.87,10.19,317.6,-81.92,-146.94
39311,52.40543,-1.584728,173.76,7.48,3,85.02,27 / 27,3934021,2019-09-08 11:13:20:645,-0.2934,0.2716,9.8968,-0.0111,-0.0038,9.8066,0.0326,0.0394,0.008,-28.06,-30.37,9.56,317.06,-81.84,-146.68
39312,52.40543,-1.584728,173.76,7.48,3,85.02,27 / 27,3934121,2019-09-08 11:13:20:745,0.5831,-0.2686,9.4886,-0.013,-0.0035,9.8065,-0.0077,0.0175,0.0046,-27.94,-28.94,9.81,317.35,-81.86,-146.62
39313,52.40543,-1.584728,173.76,7.48,3,85.02,27 / 27,3934221,2019-09-08 11:13:20:845,-0.5473,0.5644,9.8001,-0.0202,-0.0001,9.8065,0.016,-0.0147,-0.0066,-27.75,-28.94,9.44,316.54,-81.95,-145.52
39314,52.40543,-1.584728,173.76,7.48,3,85.02,27 / 27,3934321,2019-09-08 11:13:20:945,-0.2068,0.9342,10.0702,0.0364,0.0014,9.8065,-0.0942,-0.0196,-0.0142,-27.56,-29.56,9.69,318.51,-81.97,-145.48
39315,52.40543,-1.584728,173.76,7.48,3,85.02,27 / 27,3934422,2019-09-08 11:13:21:046,0.2697,0.4552,9.8246,0.0277,-0.0011,9.8066,-0.1032,0.0004,-0.0117,-27.81,-29.31,9.19,314.68,-81.78,-147.06
39316,52.40543,-1.584728,173.76,7.48,3,85.02,27 / 27,3934522,2019-09-08 11:13:21:146,0.1748,0.5083,9.3427,0.0063,0.0035,9.8066,0.0444,-0.0072,0.0226,-27.69,-28.94,9.81,316.01,-81.75,-147.74
39317,52.40543,-1.584728,173.76,7.48,3,85.02,27 / 27,3934621,2019-09-08 11:13:21:245,-0.071,0.5318,10.0711,-0.007,0.0005,9.8066,0.0434,0.0175,0.0065,-27.69,-28.75,9.69,316.02,-81.75,-147.73
39318,52.40543,-1.584728,173.76,7.48,3,85.02,27 / 27,3934722,2019-09-08 11:13:21:346,0.3425,0.3137,9.8759,0.0165,-0.0066,9.8065,-0.0939,0.0772,-0.0471,-27.5,-28.75,10.0,316.61,-81.74,-147.68
39319,52.40543,-1.584728,173.76,7.48,3,85.02,27 / 27,3934821,2019-09-08 11:13:21:445,-0.4416,1.1516,9.6189,0.0234,-0.0089,9.8065,-0.0604,0.0502,-0.0039,-27.69,-28.87,9.69,315.57,-81.63,-148.04
39320,52.40543,-1.584728,173.76,7.48,3,85.02,28 / 28,3934922,2019-09-08 11:13:21:546,-1.2185,0.5032,10.0852,-0.0215,0.0014,9.8066,0.0519,-0.0093,-0.0091,-27.75,-29.12,9.44,313.89,-81.56,-147.6
39321,52.40543,-1.584728,173.76,7.48,3,85.02,28 / 28,3935021,2019-09-08 11:13:21:645,-0.7855,0.9114,9.7549,-0.0071,0.0031,9.8066,-0.0306,0.0018,0.0001,-27.81,-29.37,9.75,315.58,-81.53,-147.95
39322,52.40543,-1.584728,173.76,7.48,3,85.02,28 / 28,3935121,2019-09-08 11:13:21:745,0.4012,-0.1006,9.8678,0.0008,0.0062,9.8066,-0.0575,0.0189,-0.038,-27.56,-29.25,9.38,313.74,-81.42,-147.62
39323,52.40543,-1.584728,173.76,7.48,3,85.02,28 / 28,3935222,2019-09-08 11:13:21:846,-0.0896,1.2808,9.9297,-0.0004,-0.0004,9.8066,0.0029,-0.0118,0.0132,-26.75,-28.44,9.0,314.21,-81.53,-147.91
39324,52.40543,-1.584728,173.76,7.48,3,85.02,28 / 28,3935321,2019-09-08 11:13:21:945,-0.0971,0.8866,10.0606,-0.0094,0.0017,9.8065,-0.0019,-0.0112,-0.013,-28.0,-28.87,8.69,313.73,-81.54,-147.73
39325,52.40543,-1.584728,173.76,7.48,3,85.02,28 / 28,3935422,2019-09-08 11:13:22:046,-0.1304,0.2731,10.3744,-0.0032,-0.0027,9.8066,0.0455,-0.0407,-0.0051,-27.94,-28.56,8.38,312.13,-81.62,-147.29
39326,52.40543,-1.584728,173.76,7.48,3,85.02,28 / 28,3935522,2019-09-08 11:13:22:146,0.929,0.5304,9.9916,0.0167,0.0085,9.8066,-0.0266,-0.0031,-0.01,-28.75,-27.87,8.25,311.08,-81.54,-148.07
39327,52.40543,-1.584728,173.76,7.48,3,85.02,28 / 28,3935621,2019-09-08 11:13:22:245,-0.5785,0.7177,10.1739,0.0309,-0.0077,9.8065,-0.041,0.0168,-0.0245,-29.06,-27.94,8.94,312.01,-81.4,-149.0
39328,52.40543,-1.584728,173.76,7.48,3,85.02,28 / 28,3935721,2019-09-08 11:13:22:345,-0.586,0.4,9.4259,-0.0017,0.0019,9.8066,0.0648,-0.0032,-0.015,-29.75,-27.19,9.0,310.75,-81.28,-149.9
39329,52.40543,-1.584728,173.76,7.48,3,85.02,28 / 28,3935821,2019-09-08 11:13:22:445,0.406,0.3792,9.9977,-0.0097,0.0008,9.8066,0.0735,-0.0491,0.0082,-30.25,-27.69,8.63,309.8,-81.18,-150.47
39330,52.40543,-1.584728,173.76,7.48,3,85.02,27 / 28,3935921,2019-09-08 11:13:22:545,0.0439,1.0897,10.2572,0.0197,-0.0079,9.8065,-0.0755,-0.0715,0.0235,-30.81,-27.31,10.38,311.17,-81.21,-150.86
39331,52.40543,-1.584728,173.76,7.48,3,85.02,27 / 28,3936022,2019-09-08 11:13:22:646,-1.878,-0.1507,9.7823,0.0096,0.0108,9.8066,-0.174,-0.118,0.0354,-29.5,-27.25,11.31,313.91,-81.1,-150.91
39332,52.40543,-1.584728,173.76,7.48,3,85.02,27 / 28,3936122,2019-09-08 11:13:22:746,-0.8354,0.588,9.9634,-0.0008,0.0017,9.8066,0.0914,0.0553,-0.013,-28.25,-27.87,11.81,315.88,-81.08,-151.25
39333,52.40543,-1.584728,173.76,7.48,3,85.02,27 / 28,3936222,2019-09-08 11:13:22:846,0.9271,1.8646,10.2334,-0.0083,-0.024,9.8065,0.116,0.1181,-0.0949,-27.31,-27.87,10.81,315.53,-80.99,-150.19
39334,52.40543,-1.584728,173.76,7.48,3,85.02,27 / 28,3936322,2019-09-08 11:13:22:946,-0.4043,0.2271,9.8653,0.0026,-0.0059,9.8066,-0.1937,-0.0228,-0.0452,-26.94,-28.62,10.0,313.49,-80.96,-149.84
39335,52.40543,-1.584728,173.76,7.48,3,85.02,27 / 28,3936422,2019-09-08 11:13:23:046,-1.5157,-0.3062,9.8023,0.0051,-0.0007,9.8066,-0.0717,-0.1019,0.0302,-25.94,-28.12,9.63,314.3,-80.83,-149.74
39336,52.40543,-1.584728,173.76,7.48,3,85.02,27 / 28,3936521,2019-09-08 11:13:23:145,-0.1666,-0.7698,10.5506,0.0155,-0.0086,9.8066,0.0676,-0.0466,0.0253,-26.75,-29.06,9.63,313.23,-80.74,-149.89
39337,52.40543,-1.584728,173.76,7.48,3,85.02,27 / 28,3936622,2019-09-08 11:13:23:246,-0.2472,0.9366,10.5134,0.0026,-0.0108,9.8066,0.0834,0.0509,-0.0117,-27.25,-29.06,8.94,311.12,-80.67,-149.73
39338,52.40543,-1.584728,173.76,7.48,3,85.02,27 / 28,3936722,2019-09-08 11:13:23:346,-0.6079,0.0434,10.3102,-0.0079,-0.0184,9.8066,-0.1025,0.0379,-0.0517,-28.25,-28.56,9.0,310.65,-80.54,-149.66
39339,52.40543,-1.584728,173.76,7.48,3,85.02,27 / 28,3936822,2019-09-08 11:13:23:446,-0.2157,0.234,9.9205,-0.0051,0.0113,9.8065,-0.1012,-0.0001,-0.0698,-27.25,-28.44,9.69,313.9,-80.52,-149.35
39340,52.40543,-1.584728,173.76,7.48,3,85.02,25 / 26,3936921,2019-09-08 11:13:23:545,0.4599,1.1563,10.3776,0.0209,-0.0034,9.8065,0.0054,-0.0217,0.0195,-27.5,-28.5,9.63,313.01,-80.56,-150.17
39341,52.40543,-1.584728,173.76,7.48,3,85.02,25 / 26,3937021,2019-09-08 11:13:23:645,-1.0219,0.0369,10.8205,0.0276,-0.0174,9.8065,0.0604,-0.057,0.0238,-27.94,-28.19,9.88,312.25,-80.28,-150.18
39342,52.40543,-1.584728,173.76,7.48,3,85.02,25 / 26,3937121,2019-09-08 11:13:23:745,-0.4545,0.5728,9.9261,-0.0031,0.0102,9.8066,-0.0122,-0.046,-0.0522,-27.75,-28.87,9.63,311.41,-80.23,-150.64
39343,52.40543,-1.584728,173.76,7.48,3,85.02,25 / 26,3937222,2019-09-08 11:13:23:846,-0.5621,1.0404,9.7864,-0.0048,-0.0008,9.8066,-0.0656,0.0157,-0.0915,-28.0,-28.94,10.25,311.23,-80.21,-150.78
39344,52.40543,-1.584728,173.76,7.48,3,85.02,25 / 26,3937321,2019-09-08 11:13:23:945,-0.5935,0.6955,10.0298,0.001,0.0048,9.8066,0.0316,-0.0072,-0.0122,-27.37,-28.81,10.0,311.26,-80.32,-151.28
39345,52.40543,-1.584728,173.76,7.48,3,85.02,25 / 26,3937422,2019-09-08 11:13:24:046,-0.4834,0.534,10.2387,0.0158,-0.0083,9.8066,0.0251,-0.0528,0.0246,-28.56,-29.37,10.25,309.83,-80.17,-151.6
39346,52.40543,-1.584728,173.76,7.48,3,85.02,25 / 26,3937521,2019-09-08 11:13:24:145,0.2583,0.2882,9.7428,0.0203,-0.0012,9.8066,0.0306,-0.0015,-0.0221,-28.56,-29.12,10.44,308.98,-80.0,-152.22
39347,52.40543,-1.584728,173.76,7.48,3,85.02,25 / 26,3937621,2019-09-08 11:13:24:245,-0.0927,-0.1507,9.589,0.0108,-0.0084,9.8065,-0.0152,-0.0536,0.0538,-28.75,-29.44,10.38,308.24,-79.78,-152.7
39348,52.40543,-1.584728,173.76,7.48,3,85.02,25 / 26,3937721,2019-09-08 11:13:24:345,-1.2088,0.3745,10.1703,-0.0109,0.0079,9.8066,0.0074,-0.03,0.0248,-28.06,-29.44,10.44,309.08,-79.81,-152.36
39349,52.40543,-1.584728,173.76,7.48,3,85.02,25 / 26,3937821,2019-09-08 11:13:24:445,-1.7727,0.7797,10.0771,-0.0018,0.0049,9.8065,-0.0044,-0.0055,0.0213,-28.62,-29.5,10.31,308.72,-79.92,-152.38
39350,52.40543,-1.584728,173.76,7.48,3,85.02,26 / 27,3937921,2019-09-08 11:13:24:545,-0.02,0.1565,9.9364,0.0247,-0.0021,9.8066,0.0184,0.0004,0.0028,-27.87,-28.81,10.75,311.0,-79.88,-152.59
39351,52.40543,-1.584728,173.76,7.48,3,85.02,26 / 27,3938021,2019-09-08 11:13:24:645,-0.5905,0.7973,9.9129,0.0145,-0.0032,9.8066,0.0179,0.0213,0.0215,-28.12,-29.25,10.19,307.89,-79.73,-153.35
39352,52.40543,-1.584728,173.76,7.48,3,85.02,26 / 27,3938121,2019-09-08 11:13:24:745,-0.1202,-0.0184,9.6689,0.0078,-0.0132,9.8065,-0.0523,0.0477,0.0138,-27.69,-28.75,10.81,310.4,-79.68,-152.95
39353,52.40543,-1.584728,173.76,7.48,3,85.02,26 / 27,3938222,2019-09-08 11:13:24:846,-0.1722,-0.1884,9.5843,0.0089,0.0001,9.8065,-0.0447,0.011,0.068,-28.12,-28.31,10.5,310.8,-79.71,-152.89
39354,52.40543,-1.584728,173.76,7.48,3,85.02,26 / 27,3938321,2019-09-08 11:13:24:945,-0.9862,0.7808,9.6113,-0.0336,0.0019,9.8065,0.1059,0.0021,0.0483,-27.44,-28.31,11.06,311.42,-79.62,-152.75
39355,52.40543,-1.584728,173.76,7.48,3,85.02,26 / 27,3938421,2019-09-08 11:13:25:045,-0.9262,0.0206,10.4816,-0.0239,0.0024,9.8066,0.1033,-0.036,0.0319,-27.44,-27.44,10.5,313.09,-79.75,-151.64
39356,52.40543,-1.584728,173.76,7.48,3,85.02,26 / 27,3938522,2019-09-08 11:13:25:146,-0.2877,0.0658,10.4132,0.0093,-0.0008,9.8066,-0.0242,-0.0009,-0.0308,-27.56,-27.12,10.13,310.95,-79.66,-151.1
39357,52.40543,-1.584728,173.76,7.48,3,85.02,26 / 27,3938622,2019-09-08 11:13:25:246,-0.5582,-0.0135,10.2789,0.008,-0.0004,9.8065,0.0415,0.0022,-0.0028,-27.69,-26.69,11.44,312.58,-79.63,-151.5
39358,52.40543,-1.584728,173.76,7.48,3,85.02,26 / 27,3938722,2019-09-08 11:13:25:346,-0.2815,-0.8712,10.3765,0.0115,0.0033,9.8066,0.0846,-0.0472,0.0526,-27.69,-27.25,11.06,311.9,-79.64,-152.11
39359,52.40543,-1.584728,173.76,7.48,3,85.02,26 / 27,3938821,2019-09-08 11:13:25:445,-0.7729,0.2733,10.3467,0.0018,0.0094,9.8066,0.025,0.0083,-0.0331,-27.69,-27.81,10.69,310.41,-79.63,-153.18
39360,52.40543,-1.584728,173.76,7.48,3,85.02,27 / 28,3938921,2019-09-08 11:13:25:545,0.2381,0.7226,10.1501,0.0362,0.0053,9.8065,0.0194,-0.0159,0.009,-28.0,-28.0,10.31,306.88,-79.59,-154.41
39361,52.40543,-1.584728,173.76,7.48,3,85.02,27 / 28,3939022,2019-09-08 11:13:25:646,-0.1013,0.2883,10.0395,0.0362,-0.0112,9.8065,-0.0157,-0.0359,-0.0082,-27.94,-29.31,11.06,306.91,-79.25,-155.69
39362,52.40543,-1.584728,173.76,7.48,3,85.02,27 / 28,3939121,2019-09-08 11:13:25:745,-1.731,2.0758,10.2063,0.0133,0.0116,9.8065,0.0754,0.0951,-0.0613,-27.62,-28.69,11.19,306.26,-79.28,-156.3
39363,52.40543,-1.584728,173.76,7.48,3,85.02,27 / 28,3939222,2019-09-08 11:13:25:846,0.1723,-0.0662,10.2608,-0.016,0.0008,9.8065,0.2147,-0.0122,0.0179,-27.81,-28.69,11.0,305.02,-79.29,-157.42
39364,52.40543,-1.584728,173.76,7.48,3,85.02,27 / 28,3939321,2019-09-08 11:13:25:945,-0.7689,-0.1601,9.325,0.0056,0.002,9.8066,-0.0248,0.1394,-0.0497,-27.5,-28.31,11.0,305.23,-79.03,-157.74
39365,52.40543,-1.584728,173.76,7.48,3,85.02,27 / 28,3939422,2019-09-08 11:13:26:046,0.965,-0.1684,8.4413,0.0021,0.0024,9.8066,-0.1779,-0.0242,0.1677,-28.12,-29.62,11.38,303.2,-78.88,-158.36
39366,52.40543,-1.584728,173.76,7.48,3,85.02,27 / 28,3939521,2019-09-08 11:13:26:145,0.073,0.6387,9.0649,-0.0387,-0.0006,9.8065,-0.0033,-0.0114,0.0375,-27.62,-28.87,11.81,306.1,-78.88,-157.94
39367,52.40543,-1.584728,173.76,7.48,3,85.02,27 / 28,3939622,2019-09-08 11:13:26:246,-0.9244,0.9635,9.8665,-0.0234,-0.0093,9.8065,0.0265,-0.0368,-0.0424,-27.94,-28.94,11.69,308.29,-79.13,-156.21
39368,52.40543,-1.584728,173.76,7.48,3,85.02,27 / 28,3939722,2019-09-08 11:13:26:346,-0.0257,0.4636,9.83,0.022,-0.0035,9.8065,-0.0214,-0.0286,-0.0129,-27.37,-28.81,11.5,309.45,-79.06,-155.63
39369,52.40543,-1.584728,173.76,7.48,3,85.02,27 / 28,3939821,2019-09-08 11:13:26:445,0.2261,-0.0056,10.167,0.014,0.001,9.8066,0.09,-0.0064,-0.0076,-27.69,-28.94,11.13,305.94,-78.92,-156.26
39370,52.40552,-1.583445,172.77,9.95,3,84.16,28 / 28,3939921,2019-09-08 11:13:26:545,0.044,0.3866,9.1753,-0.0039,0.0233,9.8065,-0.0977,-0.0072,0.0527,-27.37,-29.94,12.25,307.57,-79.0,-156.94
39371,52.40552,-1.583445,172.77,9.95,3,84.16,28 / 28,3940021,2019-09-08 11:13:26:645,-0.9402,0.1557,9.9246,-0.0142,0.0027,9.8066,-0.0498,-0.0342,0.0318,-27.5,-29.06,11.63,308.23,-79.09,-156.74
39372,52.40552,-1.583445,172.77,9.95,3,84.16,28 / 28,3940122,2019-09-08 11:13:26:746,-0.6892,0.6665,9.8823,0.0079,-0.0026,9.8066,-0.0242,-0.027,0.0402,-27.37,-29.31,11.19,306.57,-79.18,-156.38
39373,52.40552,-1.583445,172.77,9.95,3,84.16,28 / 28,3940222,2019-09-08 11:13:26:846,-0.3421,0.6647,9.7644,0.0139,-0.008,9.8066,0.0,-0.0137,0.0544,-28.06,-28.81,11.31,305.95,-79.07,-156.39
39374,52.40552,-1.583445,172.77,9.95,3,84.16,28 / 28,3940321,2019-09-08 11:13:26:945,-0.2139,-0.0765,9.832,-0.0057,-0.02,9.8066,0.0351,-0.0189,0.0375,-27.81,-28.75,11.44,306.6,-78.93,-155.68
39375,52.40552,-1.583445,172.77,9.95,3,84.16,28 / 28,3940421,2019-09-08 11:13:27:045,-0.3389,-0.4325,9.9642,-0.005,-0.0038,9.8066,0.0072,0.0121,0.011,-27.62,-28.69,10.75,307.75,-78.81,-154.56
39376,52.40552,-1.583445,172.77,9.95,3,84.16,28 / 28,3940521,2019-09-08 11:13:27:145,-0.2412,0.2742,10.2549,0.0052,-0.0132,9.8066,-0.021,-0.0154,-0.0013,-28.44,-29.37,10.44,305.93,-78.68,-154.15
39377,52.40552,-1.583445,172.77,9.95,3,84.16,28 / 28,3940621,2019-09-08 11:13:27:245,-1.1407,0.6921,10.3957,0.0157,-0.0095,9.8065,-0.0261,-0.0095,-0.0453,-28.31,-28.5,11.56,310.41,-78.52,-154.12
39378,52.40552,-1.583445,172.77,9.95,3,84.16,28 / 28,3940721,2019-09-08 11:13:27:345,0.1315,-0.5086,10.2889,0.0155,-0.0011,9.8066,-0.0498,0.0096,-0.0384,-28.62,-28.69,11.81,308.73,-78.35,-154.69
39379,52.40552,-1.583445,172.77,9.95,3,84.16,28 / 28,3940821,2019-09-08 11:13:27:445,0.024,-0.5115,9.6683,0.0119,0.0035,9.8066,-0.0565,-0.0832,0.0286,-28.25,-28.62,11.81,308.42,-78.19,-155.28
39380,52.40552,-1.583445,172.77,9.95,3,84.16,28 / 28,3940922,2019-09-08 11:13:27:546,0.0445,0.445,9.82,-0.0093,0.0029,9.8065,0.0499,-0.0556,0.0303,-28.19,-28.62,12.0,308.56,-78.18,-155.16
39381,52.40552,-1.583445,172.77,9.95,3,84.16,28 / 28,3941021,2019-09-08 11:13:27:645,-0.7367,-0.1963,10.0302,0.0016,-0.0033,9.8065,0.0012,-0.0528,0.0819,-27.69,-28.5,11.94,309.39,-78.25,-154.79
39382,52.40552,-1.583445,172.77,9.95,3,84.16,28 / 28,3941122,2019-09-08 11:13:27:746,-1.3168,0.6563,9.3316,-0.0209,0.0089,9.8065,0.0071,0.0101,-0.0332,-28.06,-28.06,11.63,310.06,-78.28,-154.23
39383,52.40552,-1.583445,172.77,9.95,3,84.16,28 / 28,3941221,2019-09-08 11:13:27:845,-0.2106,0.2405,9.857,-0.0277,0.0103,9.8066,0.0614,-0.0045,-0.0006,-28.0,-28.94,11.69,309.34,-78.26,-154.53
39384,52.40552,-1.583445,172.77,9.95,3,84.16,28 / 28,3941322,2019-09-08 11:13:27:946,0.9161,0.1847,9.6873,0.0243,0.0041,9.8065,0.0208,-0.0659,-0.0102,-27.87,-28.56,12.19,309.37,-78.27,-154.52
39385,52.40552,-1.583445,172.77,9.95,3,84.16,28 / 28,3941422,2019-09-08 11:13:28:046,1.293,0.8358,10.0755,0.0062,-0.0052,9.8066,0.0776,0.043,-0.067,-27.19,-28.56,11.19,306.64,-78.09,-155.32
39386,52.40552,-1.583445,172.77,9.95,3,84.16,28 / 28,3941521,2019-09-08 11:13:28:145,-0.403,0.5277,10.2129,0.024,-0.0139,9.8066,-0.0566,0.0016,0.0491,-27.44,-27.69,12.0,308.8,-78.03,-155.61
39387,52.40552,-1.583445,172.77,9.95,3,84.16,28 / 28,3941621,2019-09-08 11:13:28:245,0.7602,-0.2678,10.3833,0.0073,-0.0047,9.8066,-0.0117,0.0006,-0.0089,-27.69,-28.87,11.31,306.43,-78.14,-155.12
39388,52.40552,-1.583445,172.77,9.95,3,84.16,28 / 28,3941721,2019-09-08 11:13:28:345,-1.4195,0.68,9.1227,-0.0358,0.0202,9.8065,-0.0517,0.0253,0.0119,-26.87,-28.37,12.38,309.54,-78.26,-155.17
39389,52.40552,-1.583445,172.77,9.95,3,84.16,28 / 28,3941822,2019-09-08 11:13:28:446,-1.4672,0.4471,9.4414,-0.0223,0.002,9.8066,0.1093,-0.0167,-0.0088,-27.56,-28.69,12.0,309.08,-78.5,-154.98
39390,52.40552,-1.583445,172.77,9.95,3,84.16,28 / 29,3941922,2019-09-08 11:13:28:546,-0.5448,0.0715,9.8762,0.0203,-0.0066,9.8065,0.1192,-0.0277,0.0269,-27.56,-28.25,12.88,311.35,-78.4,-155.01
39391,52.40552,-1.583445,172.77,9.95,3,84.16,28 / 29,3942021,2019-09-08 11:13:28:645,-0.6204,0.3972,10.7302,0.0211,0.0072,9.8066,-0.0159,0.0434,-0.0768,-27.69,-28.44,12.69,310.15,-78.22,-155.91
39392,52.40552,-1.583445,172.77,9.95,3,84.16,28 / 29,3942121,2019-09-08 11:13:28:745,-0.5467,0.1635,9.8832,0.021,0.0047,9.8066,0.0379,-0.0237,-0.0442,-27.81,-29.37,12.75,308.52,-78.18,-157.01
39393,52.40552,-1.583445,172.77,9.95,3,84.16,28 / 29,3942222,2019-09-08 11:13:28:846,-0.2359,0.3558,9.3696,0.0243,-0.0048,9.8065,-0.0459,-0.0173,0.0155,-27.62,-28.87,12.75,307.89,-78.2,-157.58
39394,52.40552,-1.583445,172.77,9.95,3,84.16,28 / 29,3942322,2019-09-08 11:13:28:946,-1.2512,0.4655,9.3868,-0.0304,0.0095,9.8065,-0.0376,-0.0355,0.0061,-27.31,-28.94,12.31,306.35,-78.35,-157.73
39395,52.40552,-1.583445,172.77,9.95,3,84.16,28 / 29,3942421,2019-09-08 11:13:29:045,-0.2946,0.8727,9.5766,-0.0242,0.0177,9.8065,0.0306,-0.0611,-0.0105,-27.62,-28.62,11.94,306.4,-78.73,-157.54
39396,52.40552,-1.583445,172.77,9.95,3,84.16,28 / 29,3942521,2019-09-08 11:13:29:145,-2.018,0.6491,10.0929,-0.0022,0.0085,9.8066,0.0027,0.0453,-0.0569,-27.31,-29.37,12.13,306.84,-78.78,-157.69
39397,52.40552,-1.583445,172.77,9.95,3,84.16,28 / 29,3942621,2019-09-08 11:13:29:245,-1.1116,0.3819,9.7342,0.0013,-0.0015,9.8066,-0.0139,-0.0158,0.0235,-27.44,-29.06,12.13,306.82,-78.9,-157.82
39398,52.40552,-1.583445,172.77,9.95,3,84.16,28 / 29,3942721,2019-09-08 11:13:29:345,-0.8214,0.1537,10.0506,-0.0044,0.0043,9.8066,0.0841,-0.01,-0.0215,-27.94,-29.69,11.44,303.86,-79.01,-157.89
39399,52.40552,-1.583445,172.77,9.95,3,84.16,28 / 29,3942821,2019-09-08 11:13:29:445,-1.3576,0.6585,10.4889,-0.0132,0.0122,9.8065,0.1684,-0.0208,0.0133,-27.25,-29.12,12.06,306.65,-79.15,-158.18
39400,52.40552,-1.583445,172.77,9.95,3,84.16,28 / 28,3942922,2019-09-08 11:13:29:546,-0.1896,0.1895,10.1361,-0.0068,0.0093,9.8066,-0.0472,0.0339,-0.0217,-28.06,-28.5,12.63,308.08,-79.09,-158.46
39401,52.40552,-1.583445,172.77,9.95,3,84.16,28 / 28,3943021,2019-09-08 11:13:29:645,-1.2463,0.5459,9.749,-0.0077,0.0122,9.8066,-0.023,0.0018,0.005,-28.06,-28.06,12.63,306.99,-79.11,-159.45
39402,52.40552,-1.583445,172.77,9.95,3,84.16,28 / 28,3943122,2019-09-08 11:13:29:746,-0.8566,-0.2475,9.9765,0.0234,-0.0141,9.8065,0.0061,0.0431,-0.0339,-27.37,-27.56,12.94,307.19,-79.02,-159.76
39403,52.40552,-1.583445,172.77,9.95,3,84.16,28 / 28,3943222,2019-09-08 11:13:29:846,-0.2343,0.9398,9.7739,0.0036,-0.0092,9.8066,0.051,-0.0063,0.0241,-26.94,-27.19,13.13,307.5,-78.92,-159.7
39404,52.40552,-1.583445,172.77,9.95,3,84.16,28 / 28,3943321,2019-09-08 11:13:29:945,-0.7379,0.5289,9.8968,-0.0115,-0.001,9.8066,-0.0462,0.002,-0.0235,-26.87,-27.5,12.19,306.57,-78.97,-158.71
39405,52.40552,-1.583445,172.77,9.95,3,84.16,28 / 28,3943421,2019-09-08 11:13:30:045,-0.3533,0.5798,9.7071,-0.0107,0.0131,9.8066,0.03,0.0237,-0.0391,-26.94,-27.5,12.0,306.45,-79.1,-158.93
39406,52.40552,-1.583445,172.77,9.95,3,84.16,28 / 28,3943522,2019-09-08 11:13:30:146,-0.2238,0.159,9.6519,-0.0028,0.0021,9.8066,-0.062,0.0054,-0.0336,-27.56,-28.31,11.63,305.2,-79.15,-159.28
39407,52.40552,-1.583445,172.77,9.95,3,84.16,28 / 28,3943622,2019-09-08 11:13:30:246,-1.1653,0.8849,9.776,-0.0103,0.0036,9.8066,-0.0727,0.0103,-0.0131,-27.25,-27.69,11.0,303.75,-79.24,-159.27
39408,52.40552,-1.583445,172.77,9.95,3,84.16,28 / 28,3943722,2019-09-08 11:13:30:346,-0.727,0.8913,10.184,0.0077,0.005,9.8066,0.0259,0.0017,0.0167,-27.06,-28.0,10.56,304.0,-79.35,-159.13
39409,52.40552,-1.583445,172.77,9.95,3,84.16,28 / 28,3943821,2019-09-08 11:13:30:445,-0.7163,0.666,10.0645,0.0165,-0.0039,9.8066,0.003,-0.0179,0.0048,-27.12,-27.94,10.75,303.41,-79.3,-159.63
39410,52.40552,-1.583445,172.77,9.95,3,84.16,29 / 29,3943921,2019-09-08 11:13:30:545,-0.7878,1.3952,9.426,-0.0111,0.0135,9.8065,0.0946,-0.0482,0.0347,-28.19,-27.5,10.44,300.59,-79.31,-160.18
39411,52.40552,-1.583445,172.77,9.95,3,84.16,29 / 29,3944022,2019-09-08 11:13:30:646,-0.2398,0.9844,9.6462,-0.0167,-0.0014,9.8066,0.0293,0.0482,-0.0505,-27.56,-27.5,11.63,304.79,-79.26,-160.04
39412,52.40552,-1.583445,172.77,9.95,3,84.16,29 / 29,3944121,2019-09-08 11:13:30:745,-0.7583,-0.0573,10.1078,0.0063,-0.0016,9.8066,-0.0563,0.0149,-0.0426,-28.06,-28.06,11.63,304.71,-79.32,-159.88
39413,52.40552,-1.583445,172.77,9.95,3,84.16,29 / 29,3944221,2019-09-08 11:13:30:845,0.316,0.2616,10.2224,0.0102,-0.0017,9.8065,-0.0514,0.0011,0.0002,-27.0,-28.62,12.75,306.7,-79.39,-160.23
39414,52.40552,-1.583445,172.77,9.95,3,84.16,29 / 29,3944322,2019-09-08 11:13:30:946,-1.0613,0.7707,9.078,-0.0226,0.0157,9.8066,0.0129,-0.0044,-0.0034,-27.31,-28.06,11.75,304.87,-79.44,-160.34
39415,52.40552,-1.583445,172.77,9.95,3,84.16,29 / 29,3944422,2019-09-08 11:13:31:046,-0.4133,0.8219,9.6326,-0.0272,0.0027,9.8066,0.1018,0.0161,-0.0592,-26.37,-28.19,11.31,303.68,-79.65,-160.19
39416,52.40552,-1.583445,172.77,9.95,3,84.16,29 / 29,3944522,2019-09-08 11:13:31:146,0.2739,0.475,10.2984,0.0006,-0.0001,9.8066,-0.064,-0.0598,-0.0014,-26.44,-27.5,10.5,303.62,-79.62,-160.53
39417,52.40552,-1.583445,172.77,9.95,3,84.16,29 / 29,3944621,2019-09-08 11:13:31:245,-1.2301,1.5935,9.5894,-0.0059,0.0053,9.8066,-0.0615,0.0332,-0.0299,-26.5,-28.06,10.81,303.21,-79.67,-160.63
39418,52.40552,-1.583445,172.77,9.95,3,84.16,29 / 29,3944722,2019-09-08 11:13:31:346,-0.6433,0.8378,10.1775,0.0269,0.0002,9.8066,-0.0089,0.0014,-0.0167,-27.69,-27.87,11.06,301.88,-79.65,-160.88
39419,52.40552,-1.583445,172.77,9.95,3,84.16,28 / 29,3944822,2019-09-08 11:13:31:446,-0.1686,-0.3603,10.2721,0.0325,0.0001,9.8066,-0.0596,-0.0501,0.0018,-27.25,-28.12,11.81,303.31,-79.47,-161.79
39420,52.40552,-1.583445,172.77,9.95,3,84.16,28 / 29,3944921,2019-09-08 11:13:31:545,-1.3949,1.1987,9.6514,-0.037,0.0158,9.8066,0.1458,0.03,-0.0493,-27.37,-29.87,11.69,302.13,-79.75,-162.51
39421,52.40552,-1.583445,172.77,9.95,3,84.16,28 / 29,3945021,2019-09-08 11:13:31:645,0.0895,0.658,9.9761,-0.0297,0.0227,9.8065,0.1666,0.0038,0.0082,-26.94,-29.25,11.44,299.38,-79.65,-163.32
39422,52.40552,-1.583445,172.77,9.95,3,84.16,28 / 29,3945122,2019-09-08 11:13:31:746,-0.5221,0.461,10.4971,0.0424,-0.0173,9.8065,-0.0614,0.0523,-0.0002,-27.12,-29.0,12.31,301.21,-79.49,-163.4
39423,52.40552,-1.583445,172.77,9.95,3,84.16,28 / 29,3945221,2019-09-08 11:13:31:845,-1.1047,-0.2228,9.7849,0.0409,-0.0081,9.8065,-0.1075,-0.0081,0.047,-26.75,-30.31,12.25,299.66,-79.14,-164.15
39424,52.40552,-1.583445,172.77,9.95,3,84.16,28 / 29,3945322,2019-09-08 11:13:31:946,-0.9111,0.9276,9.4972,-0.0191,0.0096,9.8066,0.053,0.0156,-0.0145,-27.12,-30.06,12.0,299.56,-79.17,-164.28
39425,52.40552,-1.583445,172.77,9.95,3,84.16,28 / 29,3945422,2019-09-08 11:13:32:046,-0.3343,0.1891,9.9411,-0.0155,0.001,9.8065,0.0306,0.0175,0.0111,-26.62,-29.87,12.38,299.98,-79.31,-164.03
39426,52.40552,-1.583445,172.77,9.95,3,84.16,28 / 29,3945522,2019-09-08 11:13:32:146,-0.4181,-0.0657,9.904,-0.0012,-0.0048,9.8066,-0.0083,0.0099,-0.0129,-27.19,-29.75,11.69,300.12,-79.36,-163.96
39427,52.40552,-1.583445,172.77,9.95,3,84.16,28 / 29,3945622,2019-09-08 11:13:32:246,-0.5842,0.9708,10.2134,0.0013,-0.0007,9.8066,0.0159,0.0169,-0.0222,-26.31,-30.19,12.38,300.73,-79.4,-163.96
39428,52.40552,-1.583445,172.77,9.95,3,84.16,28 / 29,3945722,2019-09-08 11:13:32:346,-0.4971,-0.1972,9.8137,-0.0073,-0.0033,9.8065,-0.0848,-0.0044,-0.0313,-26.5,-29.81,11.88,301.02,-79.42,-163.71
39429,52.40552,-1.583445,172.77,9.95,3,84.16,28 / 29,3945821,2019-09-08 11:13:32:445,-0.2603,0.2354,9.3996,-0.0154,0.0103,9.8065,-0.0088,-0.0116,0.008,-26.37,-29.69,12.25,301.29,-79.56,-163.61
39430,52.40552,-1.583445,172.77,9.95,3,84.16,28 / 28,3945921,2019-09-08 11:13:32:545,-0.2848,0.7305,9.4981,-0.0001,0.0022,9.8066,-0.045,-0.0532,0.0385,-26.12,-30.06,11.56,301.58,-79.58,-163.36
39431,52.40552,-1.583445,172.77,9.95,3,84.16,28 / 28,3946022,2019-09-08 11:13:32:646,-0.7092,0.1636,9.6028,-0.0223,0.0056,9.8065,-0.0019,-0.0008,0.0216,-26.75,-30.19,11.88,301.46,-79.73,-163.1
39432,52.40552,-1.583445,172.77,9.95,3,84.16,28 / 28,3946122,2019-09-08 11:13:32:746,-0.7231,0.5677,9.864,0.0065,0.0059,9.8066,-0.0342,-0.0028,-0.0084,-26.25,-30.37,11.56,301.73,-79.79,-163.44
39433,52.40552,-1.583445,172.77,9.95,3,84.16,28 / 28,3946221,2019-09-08 11:13:32:845,-0.4205,0.4374,9.7524,0.0198,0.0095,9.8066,-0.0593,-0.04,0.0071,-26.87,-30.25,11.81,300.53,-79.83,-164.04
39434,52.40552,-1.583445,172.77,9.95,3,84.16,28 / 28,3946321,2019-09-08 11:13:32:945,-1.4877,0.8568,9.6866,-0.0145,-0.0003,9.8066,0.1115,-0.014,-0.0057,-26.81,-30.25,11.63,300.29,-79.78,-164.22
39435,52.40552,-1.583445,172.77,9.95,3,84.16,28 / 28,3946421,2019-09-08 11:13:33:045,0.3989,0.143,10.5371,-0.0089,-0.0096,9.8066,0.1524,-0.0119,0.0223,-26.87,-30.31,12.13,300.77,-79.69,-163.69
39436,52.40552,-1.583445,172.77,9.95,3,84.16,28 / 28,3946522,2019-09-08 11:13:33:146,-0.2642,-0.012,9.8922,0.0112,-0.0078,9.8066,-0.0843,-0.0344,-0.0086,-26.69,-30.06,12.31,301.01,-79.49,-163.27
39437,52.40552,-1.583445,172.77,9.95,3,84.16,28 / 28,3946621,2019-09-08 11:13:33:245,-0.304,0.2834,9.9866,0.0056,-0.0076,9.8065,-0.087,-0.044,0.022,-26.81,-29.62,12.69,303.3,-79.32,-162.92
39438,52.40552,-1.583445,172.77,9.95,3,84.16,28 / 28,3946722,2019-09-08 11:13:33:346,-0.6723,0.2529,10.3253,0.006,-0.0167,9.8066,0.0011,-0.0824,0.1044,-27.0,-30.0,12.88,304.2,-79.3,-162.09
39439,52.40552,-1.583445,172.77,9.95,3,84.16,28 / 28,3946821,2019-09-08 11:13:33:445,-0.9705,0.0745,9.6716,0.0031,-0.0146,9.8066,-0.0527,-0.0173,0.0473,-27.19,-29.75,12.38,303.34,-79.15,-160.84
39440,52.40552,-1.583445,172.77,9.95,3,84.16,28 / 29,3946922,2019-09-08 11:13:33:546,0.495,-0.4176,9.9237,0.0007,-0.0167,9.8066,-0.0728,-0.0425,0.0017,-26.87,-29.5,13.06,306.57,-79.08,-160.07
39441,52.40552,-1.583445,172.77,9.95,3,84.16,28 / 29,3947021,2019-09-08 11:13:33:645,-0.2426,-0.0126,9.5981,-0.0046,-0.0122,9.8066,-0.0081,-0.0428,0.0245,-27.25,-30.06,12.44,305.52,-79.03,-158.78
39442,52.40552,-1.583445,172.77,9.95,3,84.16,28 / 29,3947121,2019-09-08 11:13:33:745,0.0808,0.5415,9.345,-0.0164,-0.0066,9.8066,-0.0072,-0.0869,0.052,-27.12,-30.19,13.0,308.65,-79.07,-157.92
39443,52.40552,-1.583445,172.77,9.95,3,84.16,28 / 29,3947222,2019-09-08 11:13:33:846,-1.0801,0.0095,9.9794,-0.0197,0.0008,9.8066,0.0041,-0.0203,0.0186,-27.81,-29.62,12.63,309.65,-79.16,-156.57
39444,52.40552,-1.583445,172.77,9.95,3,84.16,28 / 29,3947321,2019-09-08 11:13:33:945,0.5757,-0.3111,10.2004,0.018,-0.0119,9.8065,-0.039,0.0499,-0.0625,-27.31,-29.06,12.88,310.83,-79.15,-156.36
39445,52.40552,-1.583445,172.77,9.95,3,84.16,28 / 29,3947422,2019-09-08 11:13:34:046,0.3728,0.4776,9.8162,0.0192,-0.0046,9.8066,-0.0447,-0.0237,0.0278,-28.37,-29.5,12.44,308.14,-79.2,-156.4
39446,52.40552,-1.583445,172.77,9.95,3,84.16,28 / 29,3947521,2019-09-08 11:13:34:145,0.1811,-0.5551,10.1136,-0.0132,0.0093,9.8066,0.0574,-0.0323,0.0149,-27.5,-28.75,13.44,310.92,-79.18,-156.31
39447,52.40552,-1.583445,172.77,9.95,3,84.16,28 / 29,3947621,2019-09-08 11:13:34:245,0.4577,0.2105,10.1802,-0.0169,0.0067,9.8066,0.0331,-0.0143,-0.0057,-27.5,-29.25,12.81,310.86,-79.27,-156.44
39448,52.40552,-1.583445,172.77,9.95,3,84.16,28 / 29,3947721,2019-09-08 11:13:34:345,0.0927,-0.3328,10.5932,0.0334,-0.0055,9.8065,-0.0158,-0.0666,-0.0345,-27.19,-29.0,13.13,310.46,-79.29,-156.81
39449,52.40552,-1.583445,172.77,9.95,3,84.16,28 / 29,3947821,2019-09-08 11:13:34:445,0.3467,-0.6489,10.6313,0.0431,-0.0047,9.8065,-0.1044,-0.0457,-0.083,-27.19,-29.94,12.88,308.71,-79.08,-157.89
39450,52.40552,-1.583445,172.77,9.95,3,84.16,28 / 30,3947921,2019-09-08 11:13:34:545,-0.1917,-1.5123,10.0453,-0.0193,0.0167,9.8066,0.1084,-0.0423,-0.0355,-27.62,-29.75,14.13,309.74,-79.33,-158.41
39451,52.40552,-1.583445,172.77,9.95,3,84.16,28 / 30,3948021,2019-09-08 11:13:34:645,0.4703,0.0671,9.7442,-0.0127,0.0143,9.8065,0.0969,-0.0311,-0.0062,-27.12,-29.37,13.25,307.76,-79.39,-159.28
39452,52.40552,-1.583445,172.77,9.95,3,84.16,28 / 30,3948121,2019-09-08 11:13:34:745,-0.0331,-0.6794,10.193,0.0011,0.0153,9.8066,-0.0366,-0.0993,0.0314,-27.31,-29.5,13.38,307.4,-79.35,-159.57
39453,52.40552,-1.583445,172.77,9.95,3,84.16,28 / 30,3948221,2019-09-08 11:13:34:845,-0.6323,-0.0523,10.2947,0.0035,-0.0016,9.8066,0.0263,-0.0737,0.0053,-27.12,-30.19,13.88,308.59,-79.38,-160.08
39454,52.40552,-1.583445,172.77,9.95,3,84.16,28 / 30,3948322,2019-09-08 11:13:34:946,-0.6331,-0.1535,9.8117,-0.0021,0.0098,9.8066,0.0103,-0.059,-0.0142,-27.75,-29.5,13.63,307.64,-79.32,-160.54
