,GPS LATITUDE (degrees), GPS LONGITUDE (degrees), GPS ALTITUDE (m), GPS SPEED (Kmh), GPS ACCURACY (m), GPS ORIENTATION (Â°),GPS SATELLITES IN RANGE, TIME SINCE START (ms), DATE (YYYY-MO-DD HH-MI-SS_SSS), ACCELEROMETER X (m/s²) , ACCELEROMETER Y (m/s²), ACCELEROMETER Z (m/s²), GRAVITY X (m/s²), GRAVITY Y (m/s²), GRAVITY Z (m/s²), GYROSCOPE Yaw (rad/s), GYROSCOPE Pitch (rad/s), GYROSCOPE Roll (rad/s), MAGNETIC FIELD X (Î¼T), MAGNETIC FIELD Y (Î¼T), MAGNETIC FIELD Z (Î¼T), ORIENTATION (Yaw) (Â°), ORIENTATION (Pitch) (Â°), ORIENTATION (Roll ) (Â°)
9386,52.69823,-1.50932,139.22,10.13,4,354.57,24 / 24,941208,2019-11-08 09:36:04:837,5.5133,-0.322,9.1391,0.0532,0.042,9.8064,-0.0572,0.1876,-0.0759,-9.5,-44.5,27.75,357.43,-86.12,-164.49
9387,52.69823,-1.50932,139.22,10.13,4,354.57,24 / 24,941308,2019-11-08 09:36:04:937,1.9495,-1.119,9.7335,0.0055,-0.019,9.8066,0.0188,0.4595,-0.2603,-10.25,-44.62,27.56,353.46,-86.01,-166.19
9388,52.69823,-1.50932,139.22,10.13,4,354.57,24 / 24,941408,2019-11-08 09:36:05:037,4.2323,-0.482,9.2826,0.0468,0.0145,9.8065,-0.046,0.4158,-0.2617,-9.25,-44.25,27.75,353.16,-85.79,-168.26
9389,52.69823,-1.50932,139.22,10.13,4,354.57,24 / 24,941509,2019-11-08 09:36:05:138,-0.2594,-3.2789,9.784,0.0189,0.0342,9.8065,0.0297,0.0504,-0.03,-9.56,-43.94,27.81,354.52,-85.79,-165.22
9390,52.69823,-1.50932,139.22,10.13,4,354.57,24 / 24,941608,2019-11-08 09:36:05:237,-2.0752,-2.869,10.3758,-0.004,-0.0152,9.8066,-0.0162,0.3969,-0.1652,-8.94,-44.75,27.5,356.49,-85.61,-165.27
9391,52.69823,-1.50932,139.22,10.13,4,354.57,24 / 24,941708,2019-11-08 09:36:05:337,-2.0677,-2.2631,9.5593,0.0501,0.0144,9.8065,-0.0413,-0.0627,0.2056,-9.19,-43.94,28.25,353.84,-85.61,-167.62
9392,52.69823,-1.50932,139.22,10.13,4,354.57,24 / 24,941808,2019-11-08 09:36:05:437,1.5411,-0.1497,10.1113,0.0217,0.0142,9.8066,0.0079,0.3774,-0.422,-9.44,-44.44,28.19,354.33,-85.78,-167.21
9393,52.69823,-1.50932,139.22,10.13,4,354.57,24 / 24,941907,2019-11-08 09:36:05:536,2.1857,1.1994,9.3907,0.0821,0.0482,9.8061,0.2135,-0.107,-0.1377,-9.37,-44.19,28.38,348.64,-85.99,-172.33
9394,52.69823,-1.50932,139.22,10.13,4,354.57,24 / 24,942007,2019-11-08 09:36:05:636,-0.9421,-1.4622,10.1348,0.0318,-0.0556,9.8064,0.0756,-0.198,-0.0029,-8.87,-44.75,28.5,347.4,-85.09,-173.73
9395,52.69823,-1.50932,139.22,10.13,4,354.57,24 / 24,942108,2019-11-08 09:36:05:737,5.0822,-3.5823,9.4549,-0.0292,-0.0417,9.8065,0.0001,-0.1356,0.1862,-9.25,-44.5,28.75,347.78,-84.8,-173.34
9396,52.69823,-1.50932,139.22,10.13,4,354.57,24 / 24,942208,2019-11-08 09:36:05:837,-0.7987,-1.442,9.2339,-0.0574,-0.0032,9.8064,-0.0128,-0.0877,0.1221,-9.81,-44.62,28.44,342.8,-84.64,-175.08
9397,52.69823,-1.50932,139.22,10.13,4,354.57,24 / 24,942307,2019-11-08 09:36:05:936,2.0536,-1.5824,9.6639,-0.0043,-0.0102,9.8066,-0.0189,-0.0744,0.038,-9.56,-44.69,28.56,347.88,-84.77,-171.44
9398,52.69823,-1.50932,139.22,10.13,4,354.57,24 / 24,942407,2019-11-08 09:36:06:036,-2.5426,-1.714,11.0517,-0.0096,-0.0265,9.8066,0.0604,-0.177,0.1611,-9.87,-43.87,29.5,351.73,-84.86,-168.77
9399,52.69823,-1.50932,139.22,10.13,4,354.57,24 / 24,942509,2019-11-08 09:36:06:138,2.566,-0.657,10.1458,-0.0081,-0.0402,9.8065,0.0591,0.0757,-0.0927,-9.31,-44.62,28.88,352.24,-84.71,-169.43
9400,52.69823,-1.50932,139.22,10.13,4,354.57,24 / 24,942607,2019-11-08 09:36:06:236,-1.7898,-2.084,10.6486,0.0381,-0.0083,9.8065,0.0905,-0.2856,0.0996,-8.75,-44.25,29.31,349.22,-84.66,-172.05
9401,52.69823,-1.50932,139.22,10.13,4,354.57,24 / 24,942707,2019-11-08 09:36:06:336,-0.4006,-2.5912,10.0704,-0.0263,-0.0268,9.8066,0.0097,0.4034,-0.1506,-9.06,-43.62,29.13,349.86,-84.56,-171.46
9402,52.69823,-1.50932,139.22,10.13,4,354.57,24 / 24,942807,2019-11-08 09:36:06:436,0.1746,1.6437,11.0558,0.0728,0.0045,9.8063,-0.0045,0.6505,-0.4323,-8.75,-43.94,28.69,350.36,-84.27,-170.96
9403,52.69823,-1.50932,139.22,10.13,4,354.57,24 / 24,942907,2019-11-08 09:36:06:536,-6.014,-3.0747,10.1574,0.0887,0.0604,9.806,0.0343,0.1419,-0.1795,-9.44,-44.69,28.88,345.6,-84.16,-174.93
9404,52.69823,-1.50932,139.22,10.13,4,354.57,24 / 24,943007,2019-11-08 09:36:06:636,-1.2421,-0.749,11.0948,0.0135,-0.0293,9.8066,0.0461,0.766,-0.3994,-9.12,-44.06,28.63,349.33,-84.02,-171.77
9405,52.69823,-1.50932,139.22,10.13,4,354.57,24 / 24,943107,2019-11-08 09:36:06:736,7.6129,2.0992,8.4663,0.0796,0.0373,9.8061,0.188,-0.8452,0.4543,-9.44,-44.44,28.75,344.79,-83.99,-175.61
9406,52.69823,-1.50932,139.22,10.13,4,354.57,24 / 24,943207,2019-11-08 09:36:06:836,-1.11,-1.1099,9.9852,-0.0733,-0.0657,9.8061,0.0721,-0.1221,0.0481,-9.06,-44.06,28.5,343.78,-83.97,-176.45
9407,52.69823,-1.50932,139.22,10.13,4,354.57,24 / 24,943307,2019-11-08 09:36:06:936,5.515,1.2244,9.9809,-0.0187,0.0008,9.8066,-0.0623,-0.5986,0.2913,-9.12,-44.75,28.19,345.84,-83.96,-174.01
9408,52.69823,-1.50932,139.22,10.13,4,354.57,24 / 24,943408,2019-11-08 09:36:07:037,-1.9267,-0.8555,10.8262,-0.0727,-0.0172,9.8063,0.1027,-0.5758,0.4326,-9.5,-44.0,29.0,350.11,-84.11,-171.13
9409,52.69823,-1.50932,139.22,10.13,4,354.57,24 / 24,943508,2019-11-08 09:36:07:137,3.7562,0.7889,8.9532,-0.0543,-0.0431,9.8063,-0.0523,0.0973,-0.0656,-9.69,-44.5,28.44,346.6,-84.23,-171.71
9410,52.69823,-1.50932,139.22,10.13,4,354.57,24 / 24,943608,2019-11-08 09:36:07:237,0.7836,-1.679,10.0289,0.0153,-0.0085,9.8066,0.1488,-0.3368,0.1718,-9.31,-44.87,29.06,348.92,-84.22,-172.14
9411,52.69823,-1.50932,139.22,10.13,4,354.57,24 / 24,943708,2019-11-08 09:36:07:337,1.9581,0.9586,8.2994,-0.0116,-0.0471,9.8065,-0.1197,0.3919,-0.2445,-9.31,-44.31,28.56,348.45,-83.85,-172.47
9412,52.69823,-1.50932,139.22,10.13,4,354.57,24 / 24,943808,2019-11-08 09:36:07:437,0.5724,-0.6221,11.1087,0.0269,0.0281,9.8065,0.1198,0.0402,-0.0929,-9.44,-44.56,28.88,347.19,-83.67,-173.42
9413,52.69823,-1.50932,139.22,10.13,4,354.57,24 / 24,943907,2019-11-08 09:36:07:536,-4.7424,-2.6514,9.3279,0.0494,-0.0167,9.8064,-0.0233,0.4018,-0.2228,-9.81,-44.37,28.13,342.32,-83.65,-175.07
9414,52.69823,-1.50932,139.22,10.13,4,354.57,24 / 24,944008,2019-11-08 09:36:07:637,0.788,-0.4419,9.3583,0.0505,0.0441,9.8064,-0.0456,0.2687,-0.2896,-10.19,-45.12,29.13,342.41,-83.91,-175.77
9415,52.69823,-1.50932,139.22,10.13,4,354.57,24 / 24,944108,2019-11-08 09:36:07:737,-3.268,-3.369,10.9542,0.0217,0.0476,9.8065,0.0309,0.221,-0.2134,-10.19,-45.25,29.0,344.71,-84.11,-173.91
9416,52.69823,-1.50932,139.22,10.13,4,354.57,24 / 24,944208,2019-11-08 09:36:07:837,2.0437,-0.4307,9.3325,0.0398,0.0253,9.8065,-0.1501,0.3032,-0.226,-9.81,-45.31,28.69,347.45,-84.09,-171.58
9417,52.69823,-1.50932,139.22,10.13,4,354.57,24 / 24,944308,2019-11-08 09:36:07:937,-0.5357,-1.563,10.8461,0.0247,0.0382,9.8065,0.0287,0.084,-0.1065,-10.5,-44.69,30.19,345.17,-84.19,-174.21
9418,52.69823,-1.50932,139.22,10.13,4,354.57,24 / 24,944408,2019-11-08 09:36:08:037,1.6855,0.1471,9.5943,0.0371,0.0144,9.8065,-0.0777,0.2242,-0.1694,-10.19,-44.56,28.63,345.92,-84.2,-172.92
9419,52.699062,-1.509451,139.62,12.15,4,356.32,24 / 24,944508,2019-11-08 09:36:08:137,-0.0688,-0.6267,9.727,0.0188,0.0289,9.8065,0.1587,-0.0851,-0.0485,-10.0,-44.06,29.06,342.09,-84.26,-176.28
9420,52.699062,-1.509451,139.62,12.15,4,356.32,24 / 24,944607,2019-11-08 09:36:08:236,0.5938,-0.8781,11.3395,0.0088,-0.045,9.8065,0.0482,0.0172,0.0463,-10.56,-44.44,29.5,339.95,-84.03,-177.0
9421,52.699062,-1.509451,139.62,12.15,4,356.32,24 / 24,944707,2019-11-08 09:36:08:336,0.2666,-1.3443,10.8067,-0.0166,0.0064,9.8066,0.0745,-0.2743,0.0521,-9.75,-44.37,29.06,342.46,-83.74,-175.71
9422,52.699062,-1.509451,139.62,12.15,4,356.32,24 / 24,944807,2019-11-08 09:36:08:436,-1.9087,-0.7182,9.4352,-0.0545,-0.0163,9.8064,-0.0104,-0.2363,0.2529,-9.94,-44.69,28.75,341.6,-83.49,-176.25
9423,52.699062,-1.509451,139.62,12.15,4,356.32,24 / 24,944907,2019-11-08 09:36:08:536,2.2448,-0.356,10.5145,-0.0552,0.004,9.8064,-0.1558,-0.1112,0.1291,-10.37,-44.37,29.31,346.97,-83.67,-171.89
9424,52.699062,-1.509451,139.62,12.15,4,356.32,24 / 24,945007,2019-11-08 09:36:08:636,1.1042,-0.7533,9.532,-0.0274,0.0147,9.8065,-0.0346,-0.1563,0.1041,-10.12,-44.56,29.56,349.1,-83.94,-170.78
9425,52.699062,-1.509451,139.62,12.15,4,356.32,24 / 24,945108,2019-11-08 09:36:08:737,0.9052,-0.567,10.0512,0.0074,0.0001,9.8066,-0.1193,0.1298,-0.1257,-9.81,-44.25,28.94,345.38,-83.8,-173.27
9426,52.699062,-1.509451,139.62,12.15,4,356.32,24 / 24,945209,2019-11-08 09:36:08:838,1.2924,-0.1665,9.8937,0.0293,0.0072,9.8066,0.07,0.1778,-0.1015,-9.19,-44.44,29.31,343.56,-83.73,-176.54
9427,52.699062,-1.509451,139.62,12.15,4,356.32,24 / 24,945308,2019-11-08 09:36:08:937,1.1169,-1.1783,9.8672,0.0376,0.0105,9.8065,0.0318,0.0225,-0.0024,-9.75,-44.56,29.56,336.46,-83.62,178.65
9428,52.699062,-1.509451,139.62,12.15,4,356.32,24 / 24,945408,2019-11-08 09:36:09:037,0.5229,1.6541,9.2998,-0.0068,-0.0162,9.8066,-0.0483,0.0472,0.0023,-9.5,-44.56,29.25,337.34,-83.55,178.39
9429,52.699062,-1.509451,139.62,12.15,4,356.32,24 / 24,945509,2019-11-08 09:36:09:138,4.9611,1.0948,9.6763,-0.015,-0.0004,9.8066,-0.0619,0.466,-0.108,-9.19,-44.31,28.44,336.57,-83.44,178.42
9430,52.699062,-1.509451,139.62,12.15,4,356.32,24 / 24,945607,2019-11-08 09:36:09:236,2.1431,0.7779,9.8453,0.0355,-0.017,9.8066,-0.0339,-0.1268,0.2928,-9.87,-44.75,28.75,335.3,-83.1,178.72
9431,52.699062,-1.509451,139.62,12.15,4,356.32,24 / 24,945708,2019-11-08 09:36:09:337,5.5631,1.4169,8.8451,0.0513,0.0567,9.8063,-0.06,-0.3383,0.3582,-9.87,-44.81,29.38,334.46,-83.37,177.83
9432,52.699062,-1.509451,139.62,12.15,4,356.32,24 / 24,945807,2019-11-08 09:36:09:436,0.2207,0.8791,10.1795,0.0039,0.0948,9.8061,0.0959,-0.5533,0.133,-10.25,-43.25,29.06,337.47,-83.91,179.88
9433,52.699062,-1.509451,139.62,12.15,4,356.32,24 / 24,945907,2019-11-08 09:36:09:536,4.3757,2.0864,9.1302,-0.0645,-0.0668,9.8061,-0.0098,0.5443,-0.43,-9.81,-42.81,29.94,336.64,-84.14,178.34
9434,52.699062,-1.509451,139.62,12.15,4,356.32,24 / 24,946007,2019-11-08 09:36:09:636,-2.3211,-0.4844,11.4162,0.0323,0.0675,9.8063,0.2361,-0.3239,0.089,-7.94,-43.44,29.88,340.0,-83.93,177.91
9435,52.699062,-1.509451,139.62,12.15,4,356.32,24 / 24,946107,2019-11-08 09:36:09:736,-7.2123,-3.4839,10.5842,-0.1037,-0.0884,9.8057,-0.172,1.0542,-0.6724,-8.31,-44.25,29.63,337.95,-83.7,176.35
9436,52.699062,-1.509451,139.62,12.15,4,356.32,24 / 24,946207,2019-11-08 09:36:09:836,3.764,2.8066,9.067,-0.0187,-0.0222,9.8066,-0.095,0.5134,-0.2459,-8.37,-44.37,28.88,340.97,-83.5,179.6
9437,52.699062,-1.509451,139.62,12.15,4,356.32,24 / 24,946307,2019-11-08 09:36:09:936,-5.3561,-1.4028,10.6517,-0.0724,-0.0528,9.8062,-0.0815,0.4973,-0.1325,-7.5,-44.25,29.0,342.48,-83.61,178.99
9438,52.699062,-1.509451,139.62,12.15,4,356.32,24 / 24,946407,2019-11-08 09:36:10:036,3.2743,1.1179,9.424,-0.098,-0.0769,9.8058,-0.1327,0.7565,-0.417,-8.5,-44.75,28.69,349.11,-83.42,-173.54
9439,52.699062,-1.509451,139.62,12.15,4,356.32,24 / 24,946507,2019-11-08 09:36:10:136,2.7472,2.4963,9.0637,-0.0378,-0.0143,9.8065,0.1059,-0.0694,0.0762,-8.5,-44.75,28.81,349.04,-83.54,-173.64
9440,52.699062,-1.509451,139.62,12.15,4,356.32,24 / 24,946608,2019-11-08 09:36:10:237,3.2599,1.7731,9.7726,-0.0704,-0.0614,9.8061,-0.0097,0.4901,-0.2677,-8.44,-45.19,29.25,353.59,-83.3,-169.83
9441,52.699062,-1.509451,139.62,12.15,4,356.32,24 / 24,946708,2019-11-08 09:36:10:337,3.1332,0.1128,8.4504,0.0298,0.0325,9.8065,0.216,-0.4721,0.2413,-8.81,-44.87,29.13,348.57,-83.22,-172.12
9442,52.699062,-1.509451,139.62,12.15,4,356.32,24 / 24,946807,2019-11-08 09:36:10:436,2.8115,1.8345,8.4247,-0.0213,-0.0214,9.8065,0.0075,0.0507,0.0437,-9.25,-44.62,28.19,349.27,-82.84,-170.79
9443,52.699062,-1.509451,139.62,12.15,4,356.32,24 / 24,946907,2019-11-08 09:36:10:536,1.6989,0.018,9.8942,0.0284,0.0652,9.8064,0.0192,-0.4318,0.2526,-8.94,-45.0,28.81,352.18,-82.93,-169.1
9444,52.699062,-1.509451,139.62,12.15,4,356.32,24 / 24,947008,2019-11-08 09:36:10:637,-4.2965,0.0427,9.5676,0.0323,0.0068,9.8066,-0.1044,-0.1601,0.2449,-8.87,-44.81,28.81,351.29,-83.32,-169.91
9445,52.699062,-1.509451,139.62,12.15,4,356.32,24 / 24,947108,2019-11-08 09:36:10:737,-0.3528,1.2844,10.4831,0.0411,0.0268,9.8065,-0.0291,-0.3242,0.1511,-8.81,-45.12,28.38,353.22,-83.39,-167.72
9446,52.699062,-1.509451,139.62,12.15,4,356.32,24 / 24,947207,2019-11-08 09:36:10:836,-1.0259,-0.5654,9.7168,0.0628,0.0278,9.8064,-0.0715,-0.1455,0.1614,-8.62,-45.12,29.44,350.97,-83.72,-170.28
9447,52.699062,-1.509451,139.62,12.15,4,356.32,24 / 24,947308,2019-11-08 09:36:10:937,2.4426,3.7952,10.3491,0.0051,0.0269,9.8066,-0.0594,-0.3966,0.3014,-9.06,-45.12,28.06,353.3,-84.02,-167.78
9448,52.699062,-1.509451,139.62,12.15,4,356.32,24 / 24,947408,2019-11-08 09:36:11:037,-1.8091,0.6162,11.6657,0.0205,0.0733,9.8063,0.1927,-0.2853,0.1474,-9.37,-45.25,28.44,356.63,-84.4,-165.03
9449,52.699062,-1.509451,139.62,12.15,4,356.32,24 / 24,947508,2019-11-08 09:36:11:137,3.8755,0.7263,8.4239,-0.0175,-0.0086,9.8066,-0.0637,0.036,-0.1134,-9.12,-45.31,29.0,359.46,-84.31,-163.22
9450,52.699062,-1.509451,139.62,12.15,4,356.32,24 / 24,947608,2019-11-08 09:36:11:237,1.804,2.005,8.7341,0.0367,0.0615,9.8063,0.0528,-0.2084,0.1615,-9.69,-44.37,28.88,356.4,-84.41,-164.05
9451,52.699062,-1.509451,139.62,12.15,4,356.32,24 / 24,947708,2019-11-08 09:36:11:337,4.1082,1.5993,9.0854,-0.08,-0.0299,9.8062,-0.0385,0.6308,-0.3404,-9.56,-45.25,28.5,358.14,-84.5,-162.56
9452,52.699062,-1.509451,139.62,12.15,4,356.32,24 / 24,947807,2019-11-08 09:36:11:436,1.4933,3.0042,8.9288,-0.0267,-0.0133,9.8065,-0.2256,0.3887,-0.1676,-9.56,-45.69,28.69,4.94,-84.46,-156.77
9453,52.699062,-1.509451,139.62,12.15,4,356.32,24 / 24,947907,2019-11-08 09:36:11:536,-1.866,2.7609,10.6831,0.0177,-0.0138,9.8066,-0.0432,0.164,0.1264,-9.31,-44.75,28.88,6.18,-84.63,-157.46
9454,52.699062,-1.509451,139.62,12.15,4,356.32,24 / 24,948007,2019-11-08 09:36:11:636,1.0657,3.1336,9.6813,-0.0416,-0.082,9.8062,-0.0578,0.3252,-0.2355,-9.5,-44.75,29.06,7.68,-84.22,-156.26
9455,52.699062,-1.509451,139.62,12.15,4,356.32,24 / 24,948107,2019-11-08 09:36:11:736,0.0208,2.1969,9.3366,0.0422,0.027,9.8065,0.0227,-0.346,0.0887,-9.37,-45.19,28.63,4.15,-84.2,-159.25
9456,52.699062,-1.509451,139.62,12.15,4,356.32,24 / 24,948207,2019-11-08 09:36:11:836,-3.8634,2.2505,10.065,0.017,0.0403,9.8065,0.0268,-0.2285,0.192,-9.19,-45.0,28.25,359.66,-84.55,-162.47
9457,52.699062,-1.509451,139.62,12.15,4,356.32,24 / 24,948307,2019-11-08 09:36:11:936,-2.0371,3.4853,9.7918,0.0308,0.0336,9.8064,0.0034,-0.195,0.12,-9.12,-44.75,28.06,3.08,-84.65,-159.55
9458,52.699062,-1.509451,139.62,12.15,4,356.32,24 / 24,948407,2019-11-08 09:36:12:036,-3.2173,0.7433,10.5058,0.0386,0.0349,9.8064,0.0609,-0.2944,0.1983,-9.5,-45.06,27.94,1.7,-84.92,-160.72
9459,52.699062,-1.509451,139.62,12.15,4,356.32,24 / 24,948507,2019-11-08 09:36:12:136,-1.9399,0.6324,9.5701,-0.032,-0.0177,9.8065,0.0957,0.1014,-0.0875,-10.0,-44.5,29.0,3.72,-84.71,-157.76
9460,52.699062,-1.509451,139.62,12.15,4,356.32,24 / 24,948607,2019-11-08 09:36:12:236,1.1725,2.0471,9.9206,0.011,-0.0055,9.8066,-0.0005,0.0757,-0.0195,-9.81,-45.06,28.25,1.37,-84.58,-159.17
9461,52.699062,-1.509451,139.62,12.15,4,356.32,24 / 24,948711,2019-11-08 09:36:12:340,-2.5119,3.2631,10.7572,-0.0153,-0.0147,9.8066,-0.0174,0.0908,-0.1208,-9.75,-44.87,28.88,2.41,-84.51,-158.92
9462,52.699062,-1.509451,139.62,12.15,4,356.32,24 / 24,948808,2019-11-08 09:36:12:437,-0.6592,1.9619,9.8103,-0.0169,-0.021,9.8065,0.0477,0.0947,-0.0591,-9.94,-45.19,28.25,2.28,-84.34,-158.41
9463,52.699062,-1.509451,139.62,12.15,4,356.32,24 / 24,948908,2019-11-08 09:36:12:537,-0.8298,1.466,8.7486,-0.015,0.0106,9.8065,0.0553,-0.1542,0.1218,-10.44,-44.87,28.44,1.33,-84.3,-159.22
9464,52.699062,-1.509451,139.62,12.15,4,356.32,24 / 24,949008,2019-11-08 09:36:12:637,0.69,2.204,10.1232,-0.0473,0.0071,9.8065,0.0101,0.0072,-0.0458,-10.31,-45.31,28.25,7.07,-84.3,-154.37
9465,52.699062,-1.509451,139.62,12.15,4,356.32,24 / 24,949108,2019-11-08 09:36:12:737,-2.4357,2.2592,10.8032,-0.0647,0.0205,9.8063,0.0073,0.1025,-0.0312,-11.37,-44.75,27.75,13.99,-84.41,-146.64
9466,52.699062,-1.509451,139.62,12.15,4,356.32,24 / 24,949208,2019-11-08 09:36:12:837,-2.1478,2.6575,10.3457,-0.0433,-0.0414,9.8064,-0.0372,0.0726,0.0561,-11.5,-45.5,28.19,16.81,-84.27,-144.3
9467,52.699062,-1.509451,139.62,12.15,4,356.32,24 / 24,949309,2019-11-08 09:36:12:938,-1.121,3.2644,9.8021,0.0231,0.0171,9.8065,0.0606,-0.0546,-0.0348,-11.0,-44.5,28.31,17.82,-84.1,-143.46
9468,52.699062,-1.509451,139.62,12.15,4,356.32,24 / 24,949408,2019-11-08 09:36:13:037,-2.9976,0.4941,11.2948,0.0405,-0.0141,9.8065,0.1138,-0.2217,0.1181,-11.12,-44.69,29.25,13.35,-84.07,-147.93
9469,52.699062,-1.509451,139.62,12.15,4,356.32,23 / 24,949508,2019-11-08 09:36:13:137,1.1846,-1.1832,9.7743,-0.0013,-0.0472,9.8065,0.0301,0.1105,-0.1332,-10.75,-44.5,28.38,9.19,-83.79,-150.87
9470,52.699062,-1.509451,139.62,12.15,4,356.32,23 / 24,949607,2019-11-08 09:36:13:236,2.8521,0.106,8.9537,0.0485,0.0128,9.8065,0.0744,-0.0981,-0.0219,-10.31,-44.44,29.0,7.73,-83.5,-154.55
9471,52.699062,-1.509451,139.62,12.15,4,356.32,23 / 24,949707,2019-11-08 09:36:13:336,-3.7078,-1.0002,8.8286,-0.0265,-0.0203,9.8065,0.0042,0.4045,-0.331,-10.69,-45.5,29.69,5.95,-83.36,-154.92
9472,52.699062,-1.509451,139.62,12.15,4,356.32,23 / 24,949807,2019-11-08 09:36:13:436,2.953,3.5391,11.4431,-0.0146,0.0,9.8065,-0.0534,0.3479,-0.194,-10.75,-45.31,29.0,3.45,-83.53,-156.36
9473,52.699062,-1.509451,139.62,12.15,4,356.32,23 / 24,949907,2019-11-08 09:36:13:536,3.7145,-0.8402,12.1686,0.0273,-0.0467,9.8065,-0.1626,-0.6178,0.3961,-11.0,-44.37,29.44,6.39,-83.71,-153.86
9474,52.699062,-1.509451,139.62,12.15,4,356.32,23 / 24,950008,2019-11-08 09:36:13:637,3.1189,-0.6688,10.3637,0.031,-0.0376,9.8065,0.0156,-0.3188,0.4998,-11.19,-44.94,29.5,9.34,-83.22,-152.14
9475,52.699062,-1.509451,139.62,12.15,4,356.32,23 / 24,950108,2019-11-08 09:36:13:737,1.6398,-1.886,4.8482,0.1076,0.064,9.8058,-0.109,-0.4872,0.4134,-10.75,-44.69,28.75,13.67,-82.75,-148.14
9476,52.699062,-1.509451,139.62,12.15,4,356.32,23 / 24,950208,2019-11-08 09:36:13:837,-2.0977,-4.1715,11.8769,-0.0104,0.1186,9.8059,0.1669,-0.3889,0.2419,-10.44,-44.12,29.25,14.07,-83.7,-149.18
9477,52.699062,-1.509451,139.62,12.15,4,356.32,23 / 24,950307,2019-11-08 09:36:13:936,0.8096,0.0065,12.2572,-0.0079,0.0977,9.8061,-0.1669,-0.1458,0.105,-10.56,-44.69,27.19,25.13,-84.72,-136.26
9478,52.699062,-1.509451,139.62,12.15,4,356.32,23 / 24,950407,2019-11-08 09:36:14:036,-0.0446,-0.5184,10.5993,-0.0286,0.0743,9.8062,0.0506,-0.2493,0.1004,-11.44,-43.94,26.69,30.75,-85.03,-131.02
9479,52.699062,-1.509451,139.62,12.15,4,356.32,24 / 24,950507,2019-11-08 09:36:14:136,-4.902,1.6818,8.5207,-0.0414,-0.0377,9.8064,0.3104,0.2558,-0.2379,-11.87,-43.5,27.44,31.27,-84.53,-129.01
9480,52.699062,-1.509451,139.62,12.15,4,356.32,24 / 24,950607,2019-11-08 09:36:14:236,-1.4478,-2.0305,9.5437,0.0364,-0.0841,9.8061,0.2082,0.0233,-0.0514,-11.81,-44.75,29.19,24.36,-83.56,-137.1
9481,52.699062,-1.509451,139.62,12.15,4,356.32,24 / 24,950707,2019-11-08 09:36:14:336,-1.5361,-3.1062,10.2768,-0.0097,-0.0608,9.8064,-0.1387,0.3397,-0.2491,-11.94,-44.12,29.5,18.98,-82.7,-142.6
9482,52.699062,-1.509451,139.62,12.15,4,356.32,24 / 24,950807,2019-11-08 09:36:14:436,0.7899,2.1163,8.5482,-0.035,0.0,9.8065,-0.2409,0.2008,-0.0178,-12.94,-44.44,29.31,16.71,-82.74,-142.15
9483,52.699062,-1.509451,139.62,12.15,4,356.32,24 / 24,950907,2019-11-08 09:36:14:536,2.9474,1.1191,10.3138,0.0029,0.0307,9.8066,-0.1006,-0.6332,0.532,-13.0,-44.37,28.88,24.05,-83.03,-135.89
9484,52.699062,-1.509451,139.62,12.15,4,356.32,24 / 24,951007,2019-11-08 09:36:14:636,2.1559,0.6016,10.255,-0.0054,0.0245,9.8065,0.19,-0.2877,0.1689,-12.94,-44.12,28.44,27.27,-82.81,-132.71
9485,52.699062,-1.509451,139.62,12.15,4,356.32,24 / 24,951107,2019-11-08 09:36:14:736,3.0655,0.0234,8.3246,0.0933,0.0569,9.806,0.1853,-0.4112,0.186,-13.12,-44.25,29.38,25.44,-82.51,-135.06
9486,52.699062,-1.509451,139.62,12.15,4,356.32,24 / 24,951208,2019-11-08 09:36:14:837,-3.9129,-2.5968,10.6841,0.0774,0.0053,9.8063,0.109,-0.5907,0.2917,-12.12,-44.25,29.06,18.18,-82.81,-142.61
9487,52.699062,-1.509451,139.62,12.15,4,356.32,24 / 24,951308,2019-11-08 09:36:14:937,3.5891,0.4079,8.6212,0.0482,0.024,9.8064,-0.0925,-0.2913,0.2879,-12.44,-45.06,29.75,18.1,-82.59,-143.44
9488,52.699062,-1.509451,139.62,12.15,4,356.32,24 / 24,951409,2019-11-08 09:36:15:038,-6.174,-3.4904,11.0574,0.0564,0.0825,9.8061,-0.0071,-0.7512,0.5709,-12.37,-44.81,30.13,19.95,-82.92,-141.75
9489,52.699062,-1.509451,139.62,12.15,4,356.32,24 / 24,951507,2019-11-08 09:36:15:136,-0.615,-1.2044,11.134,-0.0023,0.0138,9.8065,-0.1229,0.2078,-0.1159,-12.69,-44.81,28.5,23.24,-82.97,-136.7
9490,52.699062,-1.509451,139.62,12.15,4,356.32,24 / 24,951607,2019-11-08 09:36:15:236,1.9153,-0.1738,10.1717,0.0853,0.0801,9.8059,0.0754,-0.2429,0.0594,-12.12,-44.56,28.25,23.16,-83.53,-137.53
9491,52.699062,-1.509451,139.62,12.15,4,356.32,24 / 24,951707,2019-11-08 09:36:15:336,-2.9991,-2.7542,10.387,-0.0161,-0.0499,9.8065,-0.0336,0.4936,-0.4411,-12.62,-44.06,29.06,17.16,-83.69,-141.37
9492,52.699062,-1.509451,139.62,12.15,4,356.32,24 / 24,951808,2019-11-08 09:36:15:437,3.5307,-1.9108,9.1189,0.0025,-0.033,9.8065,0.1274,0.1688,-0.0717,-11.25,-44.44,29.31,17.14,-83.23,-145.03
9493,52.699062,-1.509451,139.62,12.15,4,356.32,24 / 24,951908,2019-11-08 09:36:15:537,-2.1504,-4.8648,10.5828,-0.0612,-0.0532,9.8062,0.0564,0.0861,-0.0367,-12.19,-44.31,29.56,14.68,-82.78,-146.12
9494,52.699062,-1.509451,139.62,12.15,4,356.32,24 / 24,952007,2019-11-08 09:36:15:636,-1.9744,-3.5203,11.3214,-0.0249,-0.0208,9.8066,-0.1427,0.1019,-0.0636,-12.69,-45.87,29.69,16.91,-82.4,-142.91
9495,52.699062,-1.509451,139.62,12.15,4,356.32,24 / 24,952107,2019-11-08 09:36:15:736,0.8651,-1.8094,10.5848,-0.0024,0.0306,9.8065,-0.0466,-0.0973,-0.0097,-12.94,-45.5,29.0,18.44,-82.94,-140.7
9496,52.699062,-1.509451,139.62,12.15,4,356.32,24 / 24,952207,2019-11-08 09:36:15:836,0.1018,-3.241,10.0699,0.0305,0.0057,9.8066,-0.0183,-0.1108,0.0764,-12.81,-44.62,29.06,17.57,-83.12,-141.33
9497,52.699062,-1.509451,139.62,12.15,4,356.32,24 / 24,952307,2019-11-08 09:36:15:936,1.3558,-1.3164,10.3147,0.0571,-0.0112,9.8065,-0.0409,-0.0516,0.1274,-12.81,-45.25,29.75,17.58,-83.17,-141.95
9498,52.699062,-1.509451,139.62,12.15,4,356.32,24 / 24,952408,2019-11-08 09:36:16:037,0.4052,-2.7836,9.6453,0.0114,-0.0059,9.8066,0.003,-0.0897,0.0352,-11.87,-45.19,30.0,15.83,-83.06,-145.11
9499,52.699062,-1.509451,139.62,12.15,4,356.32,24 / 24,952509,2019-11-08 09:36:16:138,0.9211,-2.6269,10.0766,0.0297,-0.0054,9.8065,-0.0845,-0.0145,0.0495,-11.94,-45.12,30.44,15.39,-83.07,-145.47
9500,52.699062,-1.509451,139.62,12.15,4,356.32,24 / 24,952607,2019-11-08 09:36:16:236,1.929,-2.2048,9.7888,-0.0123,0.0113,9.8066,-0.032,0.1803,-0.0622,-12.25,-44.44,29.63,14.18,-83.24,-146.37
9501,52.699062,-1.509451,139.62,12.15,4,356.32,24 / 24,952707,2019-11-08 09:36:16:336,1.3177,-1.164,9.425,0.0183,0.0276,9.8065,0.005,-0.18,0.0975,-11.87,-44.75,30.0,13.39,-83.69,-146.92
9502,52.699062,-1.509451,139.62,12.15,4,356.32,24 / 24,952809,2019-11-08 09:36:16:438,1.6702,-1.287,9.8722,-0.013,0.0013,9.8066,0.0263,-0.0137,-0.0749,-12.0,-44.69,29.5,13.58,-83.79,-146.73
9503,52.699062,-1.509451,139.62,12.15,4,356.32,24 / 24,952908,2019-11-08 09:36:16:537,2.087,-3.2236,9.4395,0.0065,0.0184,9.8066,-0.0045,-0.1743,0.0516,-12.0,-44.0,29.69,12.13,-83.85,-147.9
9504,52.699062,-1.509451,139.62,12.15,4,356.32,24 / 24,953008,2019-11-08 09:36:16:637,-0.6745,-1.5914,9.6567,0.0083,0.0158,9.8066,-0.0033,-0.124,0.1174,-11.69,-44.62,28.94,11.45,-84.02,-147.83
9505,52.699062,-1.509451,139.62,12.15,4,356.32,24 / 24,953107,2019-11-08 09:36:16:736,0.1713,-2.1677,9.7653,0.0036,0.0113,9.8066,0.032,-0.0412,0.1007,-12.0,-44.37,28.56,13.26,-83.93,-146.29
9506,52.699062,-1.509451,139.62,12.15,4,356.32,24 / 24,953207,2019-11-08 09:36:16:836,0.7161,-1.8595,9.606,-0.0117,0.0,9.8066,-0.0502,-0.0083,-0.0124,-12.37,-45.12,29.63,15.7,-83.91,-144.88
9507,52.699062,-1.509451,139.62,12.15,4,356.32,24 / 24,953307,2019-11-08 09:36:16:936,1.1408,-1.7523,10.0616,0.0114,0.0087,9.8066,-0.0186,-0.1379,0.0572,-11.94,-44.56,29.56,16.22,-84.07,-144.37
9508,52.699062,-1.509451,139.62,12.15,4,356.32,24 / 24,953407,2019-11-08 09:36:17:036,-0.6056,-1.3744,9.3911,0.0195,0.0015,9.8066,0.0417,0.0182,0.0347,-12.19,-44.56,29.25,14.41,-84.08,-145.29
9509,52.69984,-1.509612,140.7,8.98,4,356.85,23 / 23,953509,2019-11-08 09:36:17:138,2.5656,-1.6906,9.0683,0.0207,0.018,9.8066,0.0505,-0.1916,0.08,-11.87,-44.87,28.31,12.98,-83.96,-145.89
9510,52.69984,-1.509612,140.7,8.98,4,356.85,23 / 23,953608,2019-11-08 09:36:17:237,-0.9247,-1.9019,10.3919,0.0103,0.0153,9.8066,0.0433,-0.1408,0.0649,-11.69,-45.19,28.63,12.0,-84.03,-147.36
9511,52.69984,-1.509612,140.7,8.98,4,356.85,23 / 23,953707,2019-11-08 09:36:17:336,3.911,-0.0025,8.2065,-0.0151,0.0348,9.8065,0.1259,-0.3007,0.1544,-12.62,-44.62,29.19,10.03,-84.1,-147.33
9512,52.69984,-1.509612,140.7,8.98,4,356.85,23 / 23,953807,2019-11-08 09:36:17:436,-0.9633,-0.7203,9.0743,0.0202,0.019,9.8066,0.0019,-0.2056,0.2677,-12.56,-45.19,29.19,13.37,-84.07,-144.5
9513,52.69984,-1.509612,140.7,8.98,4,356.85,23 / 23,953907,2019-11-08 09:36:17:536,2.5731,0.0144,10.2849,0.0501,0.0479,9.8063,-0.0204,0.0002,-0.0525,-12.62,-44.31,29.81,13.18,-84.25,-145.21
9514,52.69984,-1.509612,140.7,8.98,4,356.85,23 / 23,954007,2019-11-08 09:36:17:636,-1.625,-0.9818,9.8117,0.055,0.015,9.8064,-0.035,-0.2476,0.1912,-12.06,-44.69,28.63,11.89,-84.44,-147.33
9515,52.69984,-1.509612,140.7,8.98,4,356.85,23 / 23,954107,2019-11-08 09:36:17:736,-0.0396,-0.913,10.1135,0.036,0.0074,9.8065,-0.0504,-0.045,0.0786,-12.44,-45.12,28.81,13.3,-84.45,-146.11
9516,52.69984,-1.509612,140.7,8.98,4,356.85,23 / 23,954207,2019-11-08 09:36:17:836,-0.2975,-2.8358,9.9639,0.0305,0.0514,9.8064,-0.0501,-0.1955,0.0108,-12.19,-44.44,28.88,10.58,-84.92,-148.28
9517,52.69984,-1.509612,140.7,8.98,4,356.85,23 / 23,954308,2019-11-08 09:36:17:937,0.2222,-0.8206,10.191,0.0021,-0.0114,9.8066,-0.1567,0.2396,-0.1234,-11.19,-45.12,29.38,11.22,-85.29,-149.38
9518,52.69984,-1.509612,140.7,8.98,4,356.85,23 / 23,954407,2019-11-08 09:36:18:036,-1.3404,-2.5156,11.2444,0.0077,0.027,9.8065,0.0456,-0.0345,-0.0215,-11.37,-44.75,29.0,10.68,-85.48,-149.8
9519,52.69984,-1.509612,140.7,8.98,4,356.85,24 / 24,954508,2019-11-08 09:36:18:137,0.4983,-2.4455,9.3586,-0.0213,-0.0296,9.8066,-0.0572,0.2675,-0.2297,-11.25,-44.0,29.5,9.65,-85.54,-151.27
9520,52.69984,-1.509612,140.7,8.98,4,356.85,24 / 24,954607,2019-11-08 09:36:18:236,2.1222,-2.4858,10.0245,0.0007,0.0066,9.8066,0.0671,0.1056,-0.0516,-11.12,-44.0,28.88,7.49,-85.47,-152.6
9521,52.69984,-1.509612,140.7,8.98,4,356.85,24 / 24,954708,2019-11-08 09:36:18:337,-0.2954,-1.0521,9.6746,-0.0164,0.0148,9.8066,0.0574,0.0921,-0.0194,-10.69,-44.31,28.0,6.01,-85.5,-153.24
9522,52.69984,-1.509612,140.7,8.98,4,356.85,24 / 24,954808,2019-11-08 09:36:18:437,2.4652,-1.4646,8.5335,-0.0072,-0.0099,9.8066,-0.0682,0.3063,-0.1864,-10.44,-44.62,28.63,9.28,-85.56,-152.77
9523,52.69984,-1.509612,140.7,8.98,4,356.85,24 / 24,954908,2019-11-08 09:36:18:537,-0.7513,-2.8412,10.5068,-0.0091,-0.0016,9.8065,0.0581,-0.0443,0.0116,-10.56,-43.75,28.13,4.22,-85.67,-154.81
9524,52.69984,-1.509612,140.7,8.98,4,356.85,24 / 24,955008,2019-11-08 09:36:18:637,0.0516,-0.6262,9.39,-0.0133,-0.0178,9.8066,-0.071,-0.011,-0.0522,-10.5,-45.0,28.38,5.51,-85.65,-155.48
9525,52.69984,-1.509612,140.7,8.98,4,356.85,24 / 24,955107,2019-11-08 09:36:18:736,0.5456,-0.8012,10.6535,0.0184,-0.0197,9.8066,-0.0465,-0.0332,0.0686,-10.87,-44.06,28.5,4.29,-85.78,-155.4
9526,52.69984,-1.509612,140.7,8.98,4,356.85,24 / 24,955208,2019-11-08 09:36:18:837,0.9633,-0.927,10.4392,0.0148,-0.0071,9.8065,0.0615,0.0549,-0.0054,-10.5,-44.56,28.63,4.9,-85.6,-156.64
9527,52.69984,-1.509612,140.7,8.98,4,356.85,24 / 24,955307,2019-11-08 09:36:18:936,0.552,-1.1505,9.3461,-0.0181,-0.0095,9.8066,0.0638,0.0345,-0.1117,-10.12,-44.44,28.94,2.91,-85.4,-158.4
9528,52.69984,-1.509612,140.7,8.98,4,356.85,24 / 24,955407,2019-11-08 09:36:19:036,0.0078,-0.9485,9.8945,0.0063,0.0109,9.8066,-0.0264,0.056,0.0552,-10.19,-44.69,28.63,2.64,-85.32,-158.66
9529,52.69984,-1.509612,140.7,8.98,4,356.85,24 / 24,955509,2019-11-08 09:36:19:138,1.1131,-2.1764,9.6293,-0.0093,0.0087,9.8066,0.041,0.1192,0.0291,-10.62,-44.31,29.5,2.71,-85.33,-157.47
9530,52.69984,-1.509612,140.7,8.98,4,356.85,24 / 24,955607,2019-11-08 09:36:19:236,-0.1437,-0.9273,10.2772,-0.0267,-0.0332,9.8065,-0.0889,0.0902,0.0131,-10.44,-43.94,29.06,6.57,-85.14,-155.23
9531,52.69984,-1.509612,140.7,8.98,4,356.85,24 / 24,955707,2019-11-08 09:36:19:336,0.4047,-0.8947,10.5513,0.0088,-0.0047,9.8066,-0.0761,-0.0293,0.0282,-10.44,-44.12,28.94,9.33,-85.25,-152.78
9532,52.69984,-1.509612,140.7,8.98,4,356.85,24 / 24,955808,2019-11-08 09:36:19:437,0.9817,-1.7484,9.8239,0.004,-0.0107,9.8066,-0.0466,0.0414,0.0725,-10.44,-44.37,28.81,9.41,-85.2,-152.72
9533,52.69984,-1.509612,140.7,8.98,4,356.85,24 / 24,955908,2019-11-08 09:36:19:537,-0.9501,-1.6903,10.4663,0.01,-0.0118,9.8066,-0.078,0.169,-0.0013,-10.31,-44.31,29.38,12.09,-85.23,-150.36
9534,52.69984,-1.509612,140.7,8.98,4,356.85,24 / 24,956008,2019-11-08 09:36:19:637,2.3205,-0.2366,9.1732,-0.0237,-0.0354,9.8065,-0.1273,0.2723,-0.1647,-10.44,-44.06,28.94,11.43,-85.2,-150.95
9535,52.69984,-1.509612,140.7,8.98,4,356.85,24 / 24,956108,2019-11-08 09:36:19:737,-1.1962,-2.4095,10.5917,0.0024,0.0036,9.8066,0.0556,-0.1815,0.1387,-11.12,-43.87,28.69,9.34,-85.25,-151.02
9536,52.69984,-1.509612,140.7,8.98,4,356.85,24 / 24,956207,2019-11-08 09:36:19:836,-1.8467,-0.6977,10.3356,-0.024,-0.0423,9.8065,-0.0512,0.2094,-0.0444,-11.56,-44.69,28.69,8.97,-85.0,-149.7
9537,52.69984,-1.509612,140.7,8.98,4,356.85,24 / 24,956307,2019-11-08 09:36:19:936,4.58,-0.1409,9.8304,0.0409,0.0127,9.8065,-0.0061,-0.3809,0.3684,-10.81,-44.62,28.19,12.91,-84.94,-147.38
9538,52.69984,-1.509612,140.7,8.98,4,356.85,24 / 24,956407,2019-11-08 09:36:20:036,-1.0016,-0.7024,10.3908,-0.0233,-0.0187,9.8065,-0.0009,-0.0698,0.1126,-11.06,-44.44,28.81,15.44,-84.79,-145.81
9539,52.69984,-1.509612,140.7,8.98,4,356.85,23 / 23,956508,2019-11-08 09:36:20:137,3.2819,0.5163,9.1567,0.0636,0.0534,9.8063,0.167,-0.6435,0.5002,-11.37,-43.94,28.38,16.5,-84.55,-144.39
9540,52.69984,-1.509612,140.7,8.98,4,356.85,23 / 23,956607,2019-11-08 09:36:20:236,-5.7871,-2.8012,10.3608,0.0337,0.0198,9.8065,-0.0144,-0.7233,0.4835,-10.87,-44.87,29.13,16.44,-84.57,-145.08
9541,52.69984,-1.509612,140.7,8.98,4,356.85,23 / 23,956708,2019-11-08 09:36:20:337,2.2791,-1.5922,9.7069,0.1082,0.031,9.806,-0.0441,-0.4705,0.3691,-11.06,-43.0,28.88,13.38,-84.66,-147.61
9542,52.69984,-1.509612,140.7,8.98,4,356.85,23 / 23,956808,2019-11-08 09:36:20:437,-7.1427,-4.1701,10.8517,0.1217,0.0433,9.8058,0.0781,-0.877,0.602,-10.81,-43.5,29.06,13.59,-84.61,-147.45
9543,52.69984,-1.509612,140.7,8.98,4,356.85,23 / 23,956907,2019-11-08 09:36:20:536,1.9001,-0.7486,10.0062,0.058,-0.0088,9.8064,-0.0458,0.0683,0.0015,-10.81,-43.94,28.75,16.74,-84.34,-144.88
9544,52.69984,-1.509612,140.7,8.98,4,356.85,23 / 23,957007,2019-11-08 09:36:20:636,4.0882,-0.0087,8.5243,0.0642,0.0451,9.8062,0.0252,-0.3068,0.1721,-10.87,-43.81,29.25,10.93,-84.47,-149.83
9545,52.69984,-1.509612,140.7,8.98,4,356.85,23 / 23,957107,2019-11-08 09:36:20:736,5.4374,-1.0061,10.3657,0.03,0.0222,9.8065,0.0302,0.279,-0.1557,-11.0,-44.5,28.88,11.4,-84.43,-149.44
9546,52.69984,-1.509612,140.7,8.98,4,356.85,23 / 23,957207,2019-11-08 09:36:20:836,0.468,2.1041,7.4039,0.0315,-0.0975,9.806,-0.5104,0.2388,0.0471,-10.25,-44.12,29.06,11.68,-84.27,-151.01
9547,52.69984,-1.509612,140.7,8.98,4,356.85,23 / 23,957307,2019-11-08 09:36:20:936,0.2018,-2.9358,10.3446,0.0966,0.0277,9.8061,0.0314,-0.2528,0.3575,-11.12,-44.06,28.56,7.41,-84.67,-152.82
9548,52.69984,-1.509612,140.7,8.98,4,356.85,23 / 23,957407,2019-11-08 09:36:21:036,1.3586,0.3134,7.2703,0.0352,-0.0629,9.8063,-0.2469,0.137,0.0141,-10.75,-44.44,28.0,7.33,-84.18,-152.35
9549,52.69984,-1.509612,140.7,8.98,4,356.85,24 / 24,957507,2019-11-08 09:36:21:136,5.4405,1.6199,8.9733,0.0617,0.0667,9.8062,0.059,-0.7149,0.4271,-11.06,-44.37,28.38,9.99,-84.16,-150.09
9550,52.69984,-1.509612,140.7,8.98,4,356.85,24 / 24,957608,2019-11-08 09:36:21:237,-1.7032,-0.1369,10.3039,0.0573,0.0756,9.8062,0.0477,-0.466,0.1344,-10.81,-44.81,28.75,8.77,-84.75,-151.66
9551,52.69984,-1.509612,140.7,8.98,4,356.85,24 / 24,957708,2019-11-08 09:36:21:337,4.0409,1.4823,8.1102,0.0193,-0.0058,9.8066,0.0278,0.1128,-0.1422,-10.37,-44.69,28.63,7.53,-84.76,-154.48
9552,52.69984,-1.509612,140.7,8.98,4,356.85,24 / 24,957808,2019-11-08 09:36:21:437,3.679,-1.04,9.0633,0.0761,0.0631,9.806,0.1555,-0.2885,0.0216,-10.37,-44.75,29.0,0.04,-84.79,-160.94
9553,52.69984,-1.509612,140.7,8.98,4,356.85,24 / 24,957908,2019-11-08 09:36:21:537,2.5024,1.1999,8.8479,-0.0324,-0.0445,9.8065,-0.1655,0.5792,-0.3739,-10.12,-44.81,29.06,356.95,-84.51,-163.58
9554,52.69984,-1.509612,140.7,8.98,4,356.85,24 / 24,958007,2019-11-08 09:36:21:636,3.8585,0.7394,9.038,-0.0108,0.0047,9.8066,-0.1326,0.3877,-0.2211,-10.31,-45.06,28.63,353.86,-84.87,-166.28
9555,52.69984,-1.509612,140.7,8.98,4,356.85,24 / 24,958107,2019-11-08 09:36:21:736,-2.6247,-2.7468,10.4052,-0.0426,-0.0362,9.8065,-0.058,0.2602,-0.1426,-10.19,-44.44,28.88,352.31,-85.14,-167.71
9556,52.69984,-1.509612,140.7,8.98,4,356.85,24 / 24,958208,2019-11-08 09:36:21:837,1.225,0.1501,10.0163,-0.0787,-0.0574,9.8061,-0.0151,0.2794,-0.2428,-10.31,-44.06,28.13,357.19,-84.88,-162.78
9557,52.69984,-1.509612,140.7,8.98,4,356.85,24 / 24,958307,2019-11-08 09:36:21:936,-1.7659,0.544,10.8655,-0.0563,-0.007,9.8064,0.127,0.1955,-0.2188,-10.44,-44.5,28.94,357.42,-84.85,-163.21
9558,52.69984,-1.509612,140.7,8.98,4,356.85,24 / 24,958407,2019-11-08 09:36:22:036,1.5427,0.2005,10.2461,0.013,-0.0332,9.8065,0.084,-0.099,-0.1015,-10.87,-44.5,28.81,355.66,-84.57,-162.97
9559,52.69984,-1.509612,140.7,8.98,4,356.85,24 / 24,958507,2019-11-08 09:36:22:136,4.5842,-0.3332,11.0152,-0.0327,-0.0125,9.8066,0.0652,0.3219,-0.294,-9.87,-44.37,29.13,355.7,-84.24,-164.63
9560,52.69984,-1.509612,140.7,8.98,4,356.85,24 / 24,958607,2019-11-08 09:36:22:236,-1.2802,0.4324,9.1779,0.0602,0.0058,9.8064,-0.0753,-0.0521,0.0754,-10.0,-44.31,30.0,351.87,-84.19,-168.51
9561,52.69984,-1.509612,140.7,8.98,4,356.85,24 / 24,958708,2019-11-08 09:36:22:337,-0.945,-1.0904,9.7845,-0.0218,-0.0226,9.8066,-0.038,0.3024,-0.1585,-9.69,-44.19,29.56,350.74,-84.2,-169.48
9562,52.69984,-1.509612,140.7,8.98,4,356.85,24 / 24,958807,2019-11-08 09:36:22:436,1.5453,-0.4728,10.0853,0.0053,-0.0148,9.8066,-0.1207,0.0572,0.0419,-10.0,-44.0,29.19,351.65,-84.14,-168.07
9563,52.69984,-1.509612,140.7,8.98,4,356.85,24 / 24,958907,2019-11-08 09:36:22:536,-0.5104,0.0597,9.96,-0.0038,-0.0156,9.8065,0.0139,0.0484,0.0366,-9.37,-43.5,29.63,355.56,-84.29,-167.12
9564,52.69984,-1.509612,140.7,8.98,4,356.85,24 / 24,959007,2019-11-08 09:36:22:636,-0.0368,-1.5455,9.749,-0.0033,-0.028,9.8066,0.0081,-0.0127,0.0057,-9.44,-43.81,29.25,355.83,-84.0,-166.28
9565,52.69984,-1.509612,140.7,8.98,4,356.85,24 / 24,959107,2019-11-08 09:36:22:736,1.0928,-1.4683,10.2906,0.0066,-0.0061,9.8066,-0.0645,0.0351,0.0362,-9.56,-43.06,28.69,353.19,-83.9,-166.73
9566,52.69984,-1.509612,140.7,8.98,4,356.85,24 / 24,959208,2019-11-08 09:36:22:837,1.1389,-2.6914,10.1666,-0.0167,0.0215,9.8065,-0.0456,0.1803,-0.1251,-9.37,-44.31,28.44,355.49,-84.07,-165.97
9567,52.69984,-1.509612,140.7,8.98,4,356.85,24 / 24,959307,2019-11-08 09:36:22:936,-3.7487,-1.5807,8.6748,-0.0573,-0.0247,9.8064,0.0306,0.2806,-0.0261,-8.94,-43.94,28.56,351.64,-84.41,-169.91
9568,52.69984,-1.509612,140.7,8.98,4,356.85,24 / 24,959407,2019-11-08 09:36:23:036,4.15,0.4785,10.8218,-0.1287,-0.0114,9.8057,0.0254,0.5791,-0.6814,-8.94,-44.19,28.81,352.07,-84.22,-169.5
9569,52.69984,-1.509612,140.7,8.98,4,356.85,24 / 24,959507,2019-11-08 09:36:23:136,0.6332,2.1425,7.9767,-0.1006,-0.0174,9.806,0.2952,0.2866,-0.2042,-9.5,-44.19,28.81,353.28,-84.2,-168.46
9570,52.69984,-1.509612,140.7,8.98,4,356.85,24 / 24,959608,2019-11-08 09:36:23:237,6.5891,2.2232,7.9034,-0.0954,-0.07,9.8059,-0.1903,0.8698,-0.5254,-9.25,-44.06,29.56,0.47,-83.7,-162.91
9571,52.69984,-1.509612,140.7,8.98,4,356.85,24 / 24,959708,2019-11-08 09:36:23:337,-2.3709,-0.6487,9.9471,-0.028,0.0146,9.8065,0.0962,-0.1359,0.1569,-9.75,-44.0,29.63,355.19,-84.01,-165.65
9572,52.69984,-1.509612,140.7,8.98,4,356.85,24 / 24,959808,2019-11-08 09:36:23:437,-5.3105,-3.9936,11.4655,-0.1072,-0.0811,9.8056,-0.2653,0.7455,-0.4883,-8.94,-43.5,29.25,1.87,-84.13,-161.17
9573,52.69984,-1.509612,140.7,8.98,4,356.85,24 / 24,959908,2019-11-08 09:36:23:537,-5.8921,-3.6559,11.4652,0.0112,0.0264,9.8065,0.0317,-0.4472,0.2641,-8.5,-43.31,29.13,0.72,-84.63,-163.95
9574,52.69984,-1.509612,140.7,8.98,4,356.85,24 / 24,960008,2019-11-08 09:36:23:637,-2.8122,-1.3536,11.1049,-0.0927,-0.0555,9.806,-0.0221,0.3349,-0.2834,-8.44,-43.19,28.25,4.08,-84.63,-160.56
9575,52.69984,-1.509612,140.7,8.98,4,356.85,24 / 24,960107,2019-11-08 09:36:23:736,-2.8896,-1.0486,10.3775,0.0564,0.0225,9.8064,0.0324,-0.5692,0.3116,-9.5,-43.62,28.63,1.78,-84.66,-161.23
9576,52.69984,-1.509612,140.7,8.98,4,356.85,24 / 24,960208,2019-11-08 09:36:23:837,-2.4135,-1.1685,9.7301,0.0192,-0.006,9.8066,-0.0347,-0.3214,0.2302,-9.87,-43.69,28.81,357.57,-84.7,-163.08
9577,52.69984,-1.509612,140.7,8.98,4,356.85,24 / 24,960307,2019-11-08 09:36:23:936,3.1337,0.7431,9.967,0.0394,0.0062,9.8065,-0.0992,-0.1463,0.2216,-9.81,-43.87,28.38,0.47,-84.68,-159.95
9578,52.69984,-1.509612,140.7,8.98,4,356.85,24 / 24,960407,2019-11-08 09:36:24:036,-3.269,-1.8512,11.5786,0.0112,0.0437,9.8064,0.0924,-0.425,0.2518,-9.5,-44.25,29.31,5.15,-84.83,-158.3
9579,52.69984,-1.509612,140.7,8.98,4,356.85,23 / 23,960507,2019-11-08 09:36:24:136,1.0447,0.223,8.77,-0.031,-0.0263,9.8066,0.0067,0.3586,-0.1348,-9.94,-44.0,29.38,8.32,-84.49,-153.83
9580,52.69984,-1.509612,140.7,8.98,4,356.85,23 / 23,960607,2019-11-08 09:36:24:236,3.3914,0.9046,9.7137,-0.0163,-0.0007,9.8066,0.0067,0.0771,-0.0885,-10.81,-43.75,29.5,7.15,-84.31,-153.72
9581,52.69984,-1.509612,140.7,8.98,4,356.85,23 / 23,960707,2019-11-08 09:36:24:336,-2.8618,-0.0694,10.0144,-0.0523,-0.0285,9.8064,-0.0414,0.3282,-0.1922,-10.12,-44.12,30.0,9.6,-84.22,-153.35
9582,52.69984,-1.509612,140.7,8.98,4,356.85,23 / 23,960808,2019-11-08 09:36:24:437,2.1932,1.2105,8.9198,-0.0175,-0.0307,9.8066,-0.1628,0.3375,-0.0488,-10.25,-43.75,29.69,12.58,-83.98,-150.87
9583,52.69984,-1.509612,140.7,8.98,4,356.85,23 / 23,960908,2019-11-08 09:36:24:537,0.6972,-0.2634,11.1049,0.0292,-0.0263,9.8065,-0.1601,-0.0756,0.2004,-11.0,-43.81,30.06,13.45,-83.95,-148.42
9584,52.69984,-1.509612,140.7,8.98,4,356.85,23 / 23,961010,2019-11-08 09:36:24:639,2.9792,-0.6895,10.5413,-0.0387,-0.0213,9.8065,0.0785,0.226,-0.0963,-10.44,-44.69,30.25,15.89,-83.69,-148.22
9585,52.69984,-1.509612,140.7,8.98,4,356.85,23 / 23,961107,2019-11-08 09:36:24:736,2.4193,-0.5995,8.5722,-0.0377,-0.0311,9.8065,-0.0411,0.561,-0.2685,-11.19,-44.31,30.25,12.06,-83.48,-149.75
9586,52.69984,-1.509612,140.7,8.98,4,356.85,23 / 23,961207,2019-11-08 09:36:24:836,-3.8202,-1.3937,7.8207,0.0813,-0.0356,9.8062,-0.3141,-0.2316,0.6108,-10.94,-44.56,29.5,7.82,-83.43,-153.35
9587,52.69984,-1.509612,140.7,8.98,4,356.85,23 / 23,961307,2019-11-08 09:36:24:936,13.8994,-1.808,9.8942,0.2104,0.0358,9.8043,-0.0476,-1.2446,0.9054,-10.5,-44.44,29.69,16.94,-83.39,-147.41
9588,52.69984,-1.509612,140.7,8.98,4,356.85,23 / 23,961407,2019-11-08 09:36:25:036,-3.9935,-1.5966,9.6986,0.1335,0.0719,9.8055,0.1096,-1.1106,0.7752,-10.69,-44.37,29.88,5.09,-83.93,-155.54
9589,52.69984,-1.509612,140.7,8.98,4,356.85,24 / 24,961507,2019-11-08 09:36:25:136,-8.0917,-4.416,12.5793,0.0735,0.0522,9.8062,-0.0482,-0.1849,0.1322,-9.87,-44.0,29.19,4.96,-84.23,-156.76
9590,52.69984,-1.509612,140.7,8.98,4,356.85,24 / 24,961608,2019-11-08 09:36:25:237,-5.9112,-4.4737,11.7608,0.0908,0.1463,9.8051,0.2379,-0.8521,0.5313,-9.94,-44.56,29.56,6.78,-84.53,-155.74
9591,52.69984,-1.509612,140.7,8.98,4,356.85,24 / 24,961708,2019-11-08 09:36:25:337,-5.54,-1.6485,11.3271,-0.0643,-0.0741,9.8061,-0.2049,0.9645,-0.6593,-10.25,-44.31,29.94,8.51,-84.26,-154.28
9592,52.69984,-1.509612,140.7,8.98,4,356.85,24 / 24,961807,2019-11-08 09:36:25:436,-3.1613,-1.5898,10.2396,0.0146,0.01,9.8065,-0.0398,0.3204,-0.1075,-10.06,-44.56,30.06,9.08,-84.0,-153.88
9593,52.69984,-1.509612,140.7,8.98,4,356.85,24 / 24,961908,2019-11-08 09:36:25:537,-4.2733,-0.9092,11.6618,-0.0655,-0.0622,9.8062,-0.0606,0.5977,-0.3957,-10.37,-44.5,29.56,8.72,-83.88,-154.18
9594,52.69984,-1.509612,140.7,8.98,4,356.85,24 / 24,962008,2019-11-08 09:36:25:637,4.9273,1.2867,8.4692,-0.0195,-0.0445,9.8064,-0.158,0.6196,-0.3568,-9.87,-44.31,29.0,8.13,-83.59,-154.19
9595,52.69984,-1.509612,140.7,8.98,4,356.85,24 / 24,962108,2019-11-08 09:36:25:737,-1.89,-1.4774,10.9051,-0.0153,-0.0133,9.8066,-0.0098,0.1091,-0.0495,-9.56,-44.19,30.06,6.63,-83.79,-155.97
9596,52.69984,-1.509612,140.7,8.98,4,356.85,24 / 24,962208,2019-11-08 09:36:25:837,4.0611,0.9877,8.1591,-0.0399,-0.0182,9.8065,-0.1107,0.4069,-0.2026,-9.19,-44.62,29.44,9.51,-83.86,-154.8
9597,52.69984,-1.509612,140.7,8.98,4,356.85,24 / 24,962308,2019-11-08 09:36:25:937,0.7404,-0.9489,10.6956,-0.0249,-0.0213,9.8065,-0.098,0.0721,0.0103,-9.87,-44.56,29.69,9.07,-83.92,-153.9
9598,52.69984,-1.509612,140.7,8.98,4,356.85,24 / 24,962408,2019-11-08 09:36:26:037,0.6089,0.2703,9.212,-0.0309,-0.0194,9.8065,0.0472,0.1209,0.0643,-10.12,-44.5,29.19,12.55,-83.71,-150.45
9599,52.700787,-1.509803,141.14,11.86,4,348.4,24 / 24,962507,2019-11-08 09:36:26:136,-0.1231,-0.8827,11.2845,-0.018,-0.048,9.8065,-0.0065,0.0979,0.019,-10.12,-44.69,30.38,16.57,-82.98,-147.96
9600,52.700787,-1.509803,141.14,11.86,4,348.4,24 / 24,962608,2019-11-08 09:36:26:237,-0.0701,-0.3159,10.6648,0.012,-0.0451,9.8065,0.0233,0.0784,-0.0318,-10.31,-44.31,30.38,15.78,-82.7,-148.66
9601,52.700787,-1.509803,141.14,11.86,4,348.4,24 / 24,962707,2019-11-08 09:36:26:336,-0.6023,0.6437,11.0917,0.0311,-0.0414,9.8065,0.0374,0.1936,-0.1344,-10.0,-44.69,30.44,12.62,-82.55,-151.36
9602,52.700787,-1.509803,141.14,11.86,4,348.4,24 / 24,962807,2019-11-08 09:36:26:436,2.5889,0.4321,9.222,0.0219,-0.0166,9.8066,-0.0308,0.3179,-0.1704,-9.44,-45.19,30.94,9.99,-82.23,-155.78
9603,52.700787,-1.509803,141.14,11.86,4,348.4,24 / 24,962907,2019-11-08 09:36:26:536,0.7279,-0.3229,9.1372,-0.0049,0.0112,9.8066,-0.1015,0.1358,0.0083,-9.31,-44.62,30.44,7.11,-82.47,-157.59
9604,52.700787,-1.509803,141.14,11.86,4,348.4,24 / 24,963007,2019-11-08 09:36:26:636,-1.609,-0.3574,9.8009,-0.054,0.0001,9.8065,-0.1609,0.4412,-0.14,-8.87,-45.31,30.06,10.59,-82.82,-154.68
9605,52.700787,-1.509803,141.14,11.86,4,348.4,24 / 24,963107,2019-11-08 09:36:26:736,-2.8531,-0.0674,10.1407,0.0227,0.0171,9.8066,0.0786,0.003,0.061,-8.5,-44.81,30.19,13.05,-83.01,-154.39
9606,52.700787,-1.509803,141.14,11.86,4,348.4,24 / 24,963207,2019-11-08 09:36:26:836,0.7217,0.2974,10.9091,-0.0301,-0.0218,9.8065,0.1432,0.3049,-0.3213,-8.69,-44.69,30.44,9.07,-82.85,-155.92
9607,52.700787,-1.509803,141.14,11.86,4,348.4,24 / 24,963307,2019-11-08 09:36:26:936,-2.4495,-1.2873,9.5666,-0.0133,0.0053,9.8066,0.0099,0.2072,-0.054,-8.0,-45.31,30.19,6.83,-82.86,-159.52
9608,52.700787,-1.509803,141.14,11.86,4,348.4,24 / 24,963409,2019-11-08 09:36:27:038,5.2063,-0.3163,10.1215,-0.0689,0.0237,9.8063,-0.0419,0.4465,-0.3824,-8.12,-45.5,31.25,8.03,-83.13,-158.91
9609,52.700787,-1.509803,141.14,11.86,4,348.4,23 / 24,963508,2019-11-08 09:36:27:137,-0.8344,0.0397,9.6948,-0.0268,0.0082,9.8066,0.1203,-0.1294,0.0452,-7.69,-44.62,29.88,6.21,-83.53,-159.91
9610,52.700787,-1.509803,141.14,11.86,4,348.4,23 / 24,963607,2019-11-08 09:36:27:236,3.1843,0.4989,8.0205,-0.0547,-0.0179,9.8064,0.0745,0.1698,-0.0789,-8.5,-45.06,30.31,8.52,-83.58,-157.97
9611,52.700787,-1.509803,141.14,11.86,4,348.4,23 / 24,963707,2019-11-08 09:36:27:336,-2.2225,-1.7858,10.059,-0.0762,-0.0067,9.8063,-0.0348,0.1967,-0.0495,-8.37,-45.75,29.75,17.29,-83.37,-150.8
9612,52.700787,-1.509803,141.14,11.86,4,348.4,23 / 24,963807,2019-11-08 09:36:27:436,2.2799,0.682,9.2976,-0.0374,0.0293,9.8065,-0.0291,0.1218,-0.0324,-8.75,-44.81,30.0,17.42,-83.66,-148.7
9613,52.700787,-1.509803,141.14,11.86,4,348.4,23 / 24,963907,2019-11-08 09:36:27:536,-1.5811,0.3318,11.6988,-0.0459,-0.1052,9.806,-0.0244,0.4259,-0.0483,-8.62,-44.69,30.25,19.69,-83.54,-146.85
9614,52.700787,-1.509803,141.14,11.86,4,348.4,23 / 24,964008,2019-11-08 09:36:27:637,4.2231,1.3907,8.7365,-0.0396,-0.1068,9.8059,-0.1343,0.6635,-0.3466,-8.62,-44.75,30.19,19.66,-82.49,-147.42
9615,52.700787,-1.509803,141.14,11.86,4,348.4,23 / 24,964108,2019-11-08 09:36:27:737,4.5694,-1.1118,9.4423,0.064,0.0063,9.8064,0.0682,-0.451,0.3163,-8.44,-44.44,30.13,19.43,-82.53,-149.31
9616,52.700787,-1.509803,141.14,11.86,4,348.4,23 / 24,964208,2019-11-08 09:36:27:837,4.2649,-0.7836,7.9988,0.0149,-0.02,9.8066,-0.0885,-0.1369,0.1504,-8.19,-45.69,30.38,16.29,-82.56,-151.99
9617,52.700787,-1.509803,141.14,11.86,4,348.4,23 / 24,964307,2019-11-08 09:36:27:936,6.1168,2.5415,8.4284,0.0773,0.0741,9.806,0.0288,-0.4464,0.3309,-7.94,-45.19,30.25,15.27,-83.24,-152.48
9618,52.700787,-1.509803,141.14,11.86,4,348.4,23 / 24,964407,2019-11-08 09:36:28:036,-2.0427,-0.9716,9.5878,0.0777,0.0472,9.8061,0.0289,-0.5161,0.3996,-8.87,-44.87,30.19,14.16,-83.21,-151.62
9619,52.700787,-1.509803,141.14,11.86,4,348.4,24 / 24,964507,2019-11-08 09:36:28:136,-2.4203,-2.209,10.6222,0.0062,-0.0175,9.8066,-0.0526,0.0811,0.0318,-8.12,-45.37,30.44,19.68,-82.93,-148.98
9620,52.700787,-1.509803,141.14,11.86,4,348.4,24 / 24,964608,2019-11-08 09:36:28:237,-2.5692,-0.5782,9.9234,0.0801,0.0264,9.8063,-0.0206,-0.2198,0.1815,-8.19,-44.81,30.44,18.95,-82.92,-149.58
9621,52.700787,-1.509803,141.14,11.86,4,348.4,24 / 24,964708,2019-11-08 09:36:28:337,-0.0261,-1.3409,9.7494,-0.0049,-0.0016,9.8066,0.1461,0.1201,-0.0959,-8.12,-45.0,30.69,18.35,-82.96,-150.41
9622,52.700787,-1.509803,141.14,11.86,4,348.4,24 / 24,964808,2019-11-08 09:36:28:437,0.1749,1.0944,10.6535,0.0436,-0.0036,9.8065,0.0952,0.1759,-0.1177,-7.75,-44.81,30.94,14.87,-82.86,-153.34
9623,52.700787,-1.509803,141.14,11.86,4,348.4,24 / 24,964908,2019-11-08 09:36:28:537,-0.7164,0.6831,10.148,0.0332,-0.0148,9.8066,-0.0149,-0.1429,0.0622,-7.06,-44.94,31.13,12.39,-82.7,-157.2
9624,52.700787,-1.509803,141.14,11.86,4,348.4,24 / 24,965008,2019-11-08 09:36:28:637,-1.7959,-1.1148,9.5202,0.0156,0.0134,9.8065,-0.0376,0.0451,0.0424,-6.75,-45.37,30.94,9.4,-82.83,-159.6
9625,52.700787,-1.509803,141.14,11.86,4,348.4,24 / 24,965108,2019-11-08 09:36:28:737,-0.3638,0.3405,9.9401,0.0407,0.0316,9.8065,-0.0036,-0.1962,0.2385,-6.62,-44.75,30.56,9.91,-82.97,-159.15
9626,52.700787,-1.509803,141.14,11.86,4,348.4,24 / 24,965207,2019-11-08 09:36:28:836,-1.7308,0.4407,10.4899,0.001,0.0161,9.8066,0.0835,-0.1688,0.0843,-7.12,-44.81,30.69,10.11,-83.2,-158.92
9627,52.700787,-1.509803,141.14,11.86,4,348.4,24 / 24,965307,2019-11-08 09:36:28:936,2.2241,-1.0636,9.3873,0.0212,-0.014,9.8066,0.0408,0.0415,0.0208,-6.19,-44.75,30.5,10.56,-82.97,-160.4
9628,52.700787,-1.509803,141.14,11.86,4,348.4,24 / 24,965407,2019-11-08 09:36:29:036,-1.0206,-0.4171,10.6462,0.0115,0.0209,9.8066,0.0718,-0.0156,0.0098,-6.69,-44.81,31.0,8.35,-82.87,-160.46
9629,52.700787,-1.509803,141.14,11.86,4,348.4,23 / 23,965507,2019-11-08 09:36:29:136,0.8439,-0.3805,9.3982,-0.0185,0.0015,9.8065,0.002,0.3072,-0.2003,-6.31,-44.62,30.75,9.46,-82.94,-161.3
9630,52.700787,-1.509803,141.14,11.86,4,348.4,23 / 23,965607,2019-11-08 09:36:29:236,3.0963,-0.6161,9.5255,-0.0028,-0.0013,9.8066,-0.0307,0.1818,-0.116,-5.87,-45.06,30.81,8.89,-82.92,-161.78
9631,52.700787,-1.509803,141.14,11.86,4,348.4,23 / 23,965707,2019-11-08 09:36:29:336,0.9595,-0.5516,7.769,-0.0301,-0.0168,9.8065,-0.1937,0.37,-0.18,-6.5,-45.5,31.13,7.62,-83.07,-162.79
9632,52.700787,-1.509803,141.14,11.86,4,348.4,23 / 23,965807,2019-11-08 09:36:29:436,3.5402,-0.2218,10.8259,-0.0168,0.0024,9.8066,-0.0352,0.3847,-0.1552,-5.94,-45.0,30.56,8.56,-83.24,-161.98
9633,52.700787,-1.509803,141.14,11.86,4,348.4,23 / 23,965907,2019-11-08 09:36:29:536,-3.5594,-1.695,10.6319,-0.0431,-0.0466,9.8064,-0.0645,0.3051,-0.2362,-5.69,-45.06,30.56,9.89,-82.94,-160.95
9634,52.700787,-1.509803,141.14,11.86,4,348.4,23 / 23,966007,2019-11-08 09:36:29:636,0.7306,-3.4122,10.5483,-0.0563,-0.0465,9.8063,-0.0593,0.7283,-0.3876,-5.44,-44.81,31.75,10.31,-82.76,-162.68
9635,52.700787,-1.509803,141.14,11.86,4,348.4,23 / 23,966108,2019-11-08 09:36:29:737,-6.2471,-0.8467,11.0877,-0.0098,-0.0361,9.8065,-0.0108,0.065,-0.0055,-5.44,-44.81,30.81,7.03,-82.79,-165.12
9636,52.700787,-1.509803,141.14,11.86,4,348.4,23 / 23,966208,2019-11-08 09:36:29:837,0.3664,-1.3452,9.6835,-0.0948,-0.0454,9.8061,-0.1021,0.6823,-0.4631,-5.81,-45.31,30.63,6.2,-82.48,-164.05
9637,52.700787,-1.509803,141.14,11.86,4,348.4,23 / 23,966308,2019-11-08 09:36:29:937,6.198,2.0439,8.3334,0.049,0.0339,9.8064,0.0834,-0.4475,0.2633,-5.31,-44.87,31.0,5.69,-82.65,-166.24
9638,52.700787,-1.509803,141.14,11.86,4,348.4,23 / 23,966407,2019-11-08 09:36:30:036,-0.3642,-0.0471,11.0899,-0.029,-0.0148,9.8065,0.08,0.0619,-0.0952,-5.25,-44.31,31.0,3.82,-82.75,-167.72
9639,52.700787,-1.509803,141.14,11.86,4,348.4,24 / 24,966507,2019-11-08 09:36:30:136,2.6559,1.7253,10.0964,-0.0353,-0.023,9.8065,-0.1414,0.4493,-0.247,-4.69,-45.06,30.94,1.04,-82.72,-170.0
9640,52.700787,-1.509803,141.14,11.86,4,348.4,24 / 24,966608,2019-11-08 09:36:30:237,-0.1876,0.0849,10.3063,0.0444,0.0122,9.8065,-0.0291,0.3017,-0.1811,-4.06,-44.56,31.5,357.2,-82.69,-175.15
9641,52.700787,-1.509803,141.14,11.86,4,348.4,24 / 24,966707,2019-11-08 09:36:30:336,4.0903,0.7531,9.0134,0.033,0.0156,9.8065,-0.0892,0.4638,-0.2919,-3.75,-44.06,31.06,355.65,-82.68,-176.18
9642,52.700787,-1.509803,141.14,11.86,4,348.4,24 / 24,966807,2019-11-08 09:36:30:436,-2.7433,-1.0894,11.4087,0.023,0.0078,9.8066,-0.061,0.072,0.0066,-4.25,-44.81,31.06,354.63,-82.88,-177.02
9643,52.700787,-1.509803,141.14,11.86,4,348.4,24 / 24,966907,2019-11-08 09:36:30:536,7.2184,3.5953,7.5751,-0.0461,0.0009,9.8064,-0.1874,0.4053,-0.0706,-3.69,-44.5,30.88,354.32,-83.09,-177.33
9644,52.700787,-1.509803,141.14,11.86,4,348.4,24 / 24,967009,2019-11-08 09:36:30:638,-0.9319,0.5608,12.9072,-0.0399,0.0063,9.8066,0.0354,-0.9124,0.5616,-3.75,-44.31,31.25,357.68,-83.05,-174.56
9645,52.700787,-1.509803,141.14,11.86,4,348.4,24 / 24,967108,2019-11-08 09:36:30:737,-11.6047,-3.0264,10.8399,-0.1529,-0.0671,9.8051,0.0247,-0.3529,0.4462,-3.62,-43.5,31.0,359.96,-82.55,-172.68
9646,52.700787,-1.509803,141.14,11.86,4,348.4,24 / 24,967208,2019-11-08 09:36:30:837,-1.0003,2.2451,9.8767,-0.0687,-0.0237,9.8063,0.0781,-1.0327,0.7055,-2.69,-44.87,30.94,355.33,-82.68,-178.25
9647,52.700787,-1.509803,141.14,11.86,4,348.4,24 / 24,967308,2019-11-08 09:36:30:937,-7.7685,-3.2756,11.8365,-0.0998,-0.0397,9.806,0.2639,-0.9975,0.6065,-2.94,-44.5,31.44,347.34,-83.01,175.12
9648,52.700787,-1.509803,141.14,11.86,4,348.4,24 / 24,967408,2019-11-08 09:36:31:037,3.2529,1.4288,8.492,-0.0815,-0.0652,9.806,-0.0117,0.1788,-0.0946,-1.94,-43.87,30.44,352.53,-82.98,177.73
9649,52.700787,-1.509803,141.14,11.86,4,348.4,22 / 24,967513,2019-11-08 09:36:31:142,6.1857,0.9491,8.9235,0.0193,0.0147,9.8066,0.0998,-0.2299,0.1922,-2.25,-44.62,30.44,350.5,-83.12,176.08
9650,52.700787,-1.509803,141.14,11.86,4,348.4,22 / 24,967608,2019-11-08 09:36:31:237,-2.9697,-0.7462,10.2932,-0.0228,-0.0104,9.8066,-0.0837,0.6006,-0.3228,-1.94,-43.75,31.56,351.13,-83.17,176.21
9651,52.700787,-1.509803,141.14,11.86,4,348.4,22 / 24,967707,2019-11-08 09:36:31:336,-1.4889,-0.2378,9.1542,0.0506,0.0415,9.8064,-0.1568,0.2886,-0.0922,-2.25,-44.5,31.19,349.37,-83.28,174.88
9652,52.700787,-1.509803,141.14,11.86,4,348.4,22 / 24,967807,2019-11-08 09:36:31:436,-1.2783,-0.4238,11.2224,0.0012,0.0458,9.8065,-0.0591,0.323,-0.1859,-2.62,-45.0,31.81,349.49,-83.45,176.58
9653,52.700787,-1.509803,141.14,11.86,4,348.4,22 / 24,967907,2019-11-08 09:36:31:536,2.4631,-1.1324,8.8822,0.0184,0.0256,9.8066,-0.1304,0.2744,-0.0692,-2.0,-44.81,31.19,352.29,-83.46,177.3
9654,52.700787,-1.509803,141.14,11.86,4,348.4,22 / 24,968008,2019-11-08 09:36:31:637,-0.3317,-1.8924,9.6851,0.0136,0.0017,9.8066,-0.023,0.1105,0.0046,-2.25,-44.31,31.38,351.39,-83.36,176.55
9655,52.700787,-1.509803,141.14,11.86,4,348.4,22 / 24,968108,2019-11-08 09:36:31:737,1.1247,-0.6079,9.6622,-0.0112,-0.0023,9.8066,-0.0111,0.1924,-0.0454,-1.69,-44.75,31.63,351.52,-83.01,176.6
9656,52.700787,-1.509803,141.14,11.86,4,348.4,22 / 24,968208,2019-11-08 09:36:31:837,0.6954,1.5543,9.7353,0.0148,0.0035,9.8066,0.0132,-0.0174,0.0776,-1.31,-44.37,31.5,352.36,-82.93,175.49
9657,52.700787,-1.509803,141.14,11.86,4,348.4,22 / 24,968308,2019-11-08 09:36:31:937,1.7115,-2.423,9.7188,-0.0066,-0.0034,9.8066,-0.014,0.1151,-0.0302,-1.75,-45.19,31.38,350.14,-83.11,175.61
9658,52.700787,-1.509803,141.14,11.86,4,348.4,22 / 24,968409,2019-11-08 09:36:32:038,-0.2532,1.5118,7.7147,0.016,-0.0368,9.8065,-0.001,0.262,-0.1301,-1.25,-44.75,31.94,353.21,-82.79,176.25
9659,52.700787,-1.509803,141.14,11.86,4,348.4,23 / 24,968508,2019-11-08 09:36:32:137,4.146,2.409,9.0143,0.066,0.0174,9.8064,0.2886,-0.1075,-0.157,-1.12,-43.75,32.44,354.29,-82.48,177.15
9660,52.700787,-1.509803,141.14,11.86,4,348.4,23 / 24,968607,2019-11-08 09:36:32:236,-5.7676,-1.0845,10.4389,0.0269,-0.0285,9.8066,-0.245,0.9359,-0.452,-1.75,-44.69,32.5,350.38,-82.39,175.66
9661,52.700787,-1.509803,141.14,11.86,4,348.4,23 / 24,968708,2019-11-08 09:36:32:337,-5.99,-1.0325,12.0941,0.1081,0.1015,9.8055,-0.1331,0.4476,-0.464,-1.62,-44.5,33.06,347.14,-82.9,172.8
9662,52.700787,-1.509803,141.14,11.86,4,348.4,23 / 24,968808,2019-11-08 09:36:32:437,-10.1492,-1.1364,9.4984,0.1181,0.0344,9.8059,-0.207,1.2578,-0.7713,-1.62,-43.94,32.56,348.34,-83.02,173.76
9663,52.700787,-1.509803,141.14,11.86,4,348.4,23 / 24,968907,2019-11-08 09:36:32:536,11.3435,-1.6661,10.3281,0.1538,-0.0087,9.8054,0.004,1.3306,-1.0531,-1.5,-43.69,32.13,357.4,-83.12,179.63
9664,52.700787,-1.509803,141.14,11.86,4,348.4,23 / 24,969007,2019-11-08 09:36:32:636,-6.5041,-0.8854,10.5732,0.1994,0.0391,9.8045,0.0024,0.5854,-0.3963,-2.0,-44.69,32.56,347.28,-83.11,172.9
9665,52.700787,-1.509803,141.14,11.86,4,348.4,23 / 24,969107,2019-11-08 09:36:32:736,11.2532,-0.9111,9.0255,0.0699,0.0064,9.8063,-0.1431,1.2528,-0.8516,-0.94,-44.06,33.19,353.56,-83.3,176.34
9666,52.700787,-1.509803,141.14,11.86,4,348.4,23 / 24,969207,2019-11-08 09:36:32:836,1.2527,0.1502,8.8688,0.1559,0.0513,9.8052,0.1718,-0.5842,0.364,-1.06,-43.81,33.63,346.58,-83.54,170.28
9667,52.700787,-1.509803,141.14,11.86,4,348.4,23 / 24,969307,2019-11-08 09:36:32:936,7.9554,-0.4647,8.9251,-0.0885,-0.0596,9.8061,0.0082,0.2842,-0.0916,-1.12,-43.87,33.0,354.32,-83.36,176.97
9668,52.700787,-1.509803,141.14,11.86,4,348.4,23 / 24,969407,2019-11-08 09:36:33:036,3.425,0.0839,9.2042,0.0012,-0.0091,9.8066,0.1386,-0.9661,0.6336,-0.56,-44.06,33.06,351.58,-83.37,174.66
9669,52.700787,-1.509803,141.14,11.86,4,348.4,23 / 24,969507,2019-11-08 09:36:33:136,-8.6963,-1.2793,10.6682,-0.1194,-0.0304,9.8059,0.1006,-0.6588,0.5001,-0.69,-43.69,32.94,350.59,-83.45,173.81
9670,52.700787,-1.509803,141.14,11.86,4,348.4,23 / 24,969607,2019-11-08 09:36:33:236,1.4452,0.7861,8.5358,-0.1123,-0.0142,9.8059,0.219,-0.7386,0.3077,-0.25,-44.44,33.13,359.68,-83.44,179.73
9671,52.700787,-1.509803,141.14,11.86,4,348.4,23 / 24,969707,2019-11-08 09:36:33:336,-11.8952,-0.9106,10.5069,-0.0512,-0.0288,9.8064,0.1429,-1.2339,0.8977,-0.25,-44.25,33.5,356.46,-83.43,177.0
9672,52.700787,-1.509803,141.14,11.86,4,348.4,23 / 24,969808,2019-11-08 09:36:33:437,1.6903,-1.7968,9.7112,-0.164,-0.0136,9.8052,0.0479,0.1183,-0.2055,-1.06,-44.0,32.81,359.35,-83.41,-178.81
9673,52.700787,-1.509803,141.14,11.86,4,348.4,23 / 24,969907,2019-11-08 09:36:33:536,-9.3578,-1.6585,10.3371,0.0253,0.0036,9.8066,0.0743,-0.6474,0.4781,-0.37,-44.06,33.06,357.14,-83.28,177.61
9674,52.700787,-1.509803,141.14,11.86,4,348.4,23 / 24,970007,2019-11-08 09:36:33:636,0.8211,-1.6855,10.396,-0.0664,-0.0102,9.8063,-0.2699,0.9907,-0.5613,-0.37,-43.81,33.0,359.28,-83.24,179.39
9675,52.700787,-1.509803,141.14,11.86,4,348.4,23 / 24,970107,2019-11-08 09:36:33:736,10.6127,1.8463,8.2486,0.132,0.0686,9.8055,-0.0826,0.6131,-0.4092,-0.94,-44.44,32.81,357.96,-83.15,-179.97
9676,52.700787,-1.509803,141.14,11.86,4,348.4,23 / 24,970207,2019-11-08 09:36:33:836,-1.4249,-1.0389,9.3174,0.1284,0.0142,9.8057,-0.141,0.8465,-0.5625,-1.06,-44.56,33.19,351.53,-83.42,174.64
9677,52.700787,-1.509803,141.14,11.86,4,348.4,23 / 24,970307,2019-11-08 09:36:33:936,9.5255,-0.714,9.0346,0.1338,-0.0092,9.8057,-0.0151,1.0245,-0.8051,-0.69,-44.56,32.38,357.86,-83.54,-180.0
9678,52.700787,-1.509803,141.14,11.86,4,348.4,23 / 24,970408,2019-11-08 09:36:34:037,-7.1633,-0.5198,10.5452,0.1104,-0.001,9.806,0.0225,0.3719,-0.3628,-1.12,-44.69,32.56,353.73,-83.38,176.49
9679,52.700787,-1.509803,141.14,11.86,4,348.4,23 / 24,970509,2019-11-08 09:36:34:138,5.6234,0.9989,7.9554,0.0763,-0.0169,9.8063,-0.1099,0.9084,-0.5946,-0.87,-44.37,33.13,351.75,-83.2,174.84
9680,52.700787,-1.509803,141.14,11.86,4,348.4,23 / 24,970607,2019-11-08 09:36:34:236,-2.5654,-0.3682,10.1345,0.0866,-0.0151,9.8062,0.0559,-0.133,-0.0558,-0.25,-44.87,33.5,353.89,-82.83,174.95
9681,52.700787,-1.509803,141.14,11.86,4,348.4,23 / 24,970707,2019-11-08 09:36:34:336,0.2074,-1.5273,9.72,0.0227,-0.0014,9.8066,-0.0636,0.1162,-0.1185,-0.44,-45.12,33.25,353.56,-82.8,174.71
9682,52.700787,-1.509803,141.14,11.86,4,348.4,23 / 24,970807,2019-11-08 09:36:34:436,-0.2448,0.8743,9.0648,0.0101,0.0223,9.8065,-0.1124,0.0309,0.0003,-0.69,-45.06,33.06,349.87,-82.87,173.38
9683,52.700787,-1.509803,141.14,11.86,4,348.4,23 / 24,970907,2019-11-08 09:36:34:536,1.9962,0.0533,9.3189,0.0107,0.0471,9.8065,-0.086,0.314,-0.1799,-0.81,-44.0,32.25,350.67,-82.76,174.14
9684,52.700787,-1.509803,141.14,11.86,4,348.4,23 / 24,971007,2019-11-08 09:36:34:636,1.6587,1.1134,8.9932,0.0614,-0.0069,9.8064,0.0583,-0.2001,0.073,-0.19,-44.81,32.63,350.12,-82.91,171.85
9685,52.700787,-1.509803,141.14,11.86,4,348.4,23 / 24,971107,2019-11-08 09:36:34:736,3.642,0.6596,9.0547,0.0475,-0.013,9.8065,0.2485,-0.3116,0.0075,-0.69,-44.5,32.94,351.27,-83.02,174.48
9686,52.700787,-1.509803,141.14,11.86,4,348.4,23 / 24,971208,2019-11-08 09:36:34:837,0.1329,-3.192,9.6861,-0.0052,-0.0322,9.8066,0.1006,0.0965,-0.2797,-0.69,-44.31,33.38,350.64,-82.91,173.98
9687,52.700787,-1.509803,141.14,11.86,4,348.4,23 / 24,971307,2019-11-08 09:36:34:936,-0.9015,-0.5085,10.1969,0.0108,-0.0089,9.8066,-0.0505,-0.1746,0.2136,-0.12,-44.25,32.81,353.37,-83.33,174.44
9688,52.700787,-1.509803,141.14,11.86,4,348.4,23 / 24,971408,2019-11-08 09:36:35:037,0.393,2.2009,9.3727,-0.0446,0.0203,9.8065,-0.0808,0.0935,-0.0279,-0.56,-44.62,32.69,351.97,-83.33,175.02
9689,52.70163,-1.510629,142.08,13.12,4,318.82,23 / 24,971508,2019-11-08 09:36:35:137,1.2703,0.3212,8.3815,-0.0098,0.0411,9.8065,0.1548,-0.2213,0.1149,-0.81,-44.62,32.81,351.18,-83.41,174.35
9690,52.70163,-1.510629,142.08,13.12,4,318.82,23 / 24,971607,2019-11-08 09:36:35:236,-4.1828,0.3166,10.8136,0.0172,0.0286,9.8065,0.1245,-0.3853,0.0846,-0.69,-44.62,32.94,352.58,-83.61,175.49
9691,52.70163,-1.510629,142.08,13.12,4,318.82,23 / 24,971708,2019-11-08 09:36:35:337,-0.8549,-0.7036,9.6604,-0.0062,-0.0238,9.8066,0.1718,-0.0545,-0.0801,-0.56,-45.0,32.56,351.93,-83.39,174.98
9692,52.70163,-1.510629,142.08,13.12,4,318.82,23 / 24,971807,2019-11-08 09:36:35:436,0.2035,0.7716,9.5815,0.0577,-0.0319,9.8064,-0.1098,-0.1442,0.1463,-0.81,-44.94,32.88,349.33,-83.03,172.9
9693,52.70163,-1.510629,142.08,13.12,4,318.82,23 / 24,971908,2019-11-08 09:36:35:537,-1.777,-1.7939,9.691,0.0254,-0.0423,9.8064,-0.2392,0.3649,-0.0474,-0.44,-44.62,32.81,349.99,-83.29,171.65
9694,52.70163,-1.510629,142.08,13.12,4,318.82,23 / 24,972008,2019-11-08 09:36:35:637,4.5303,-0.5222,9.2473,-0.0382,0.0008,9.8065,-0.0576,0.4363,-0.3892,-0.25,-44.37,31.88,346.31,-83.17,168.62
9695,52.70163,-1.510629,142.08,13.12,4,318.82,23 / 24,972107,2019-11-08 09:36:35:736,-1.8167,0.7785,9.6999,-0.0124,0.0071,9.8066,0.058,-0.0636,-0.0452,-0.56,-44.37,32.25,343.29,-83.16,167.89
9696,52.70163,-1.510629,142.08,13.12,4,318.82,23 / 24,972208,2019-11-08 09:36:35:837,1.3196,-0.2087,8.9857,-0.0248,-0.0188,9.8065,-0.0759,0.1946,-0.1102,-0.56,-44.19,32.63,343.37,-83.13,167.84
9697,52.70163,-1.510629,142.08,13.12,4,318.82,23 / 24,972308,2019-11-08 09:36:35:937,-1.9951,-0.5594,10.8987,0.0261,0.0031,9.8066,0.0217,-0.2419,0.1173,-0.06,-44.12,32.75,344.63,-82.96,167.22
