,GPS LATITUDE (degrees), GPS LONGITUDE (degrees), GPS ALTITUDE (m), GPS SPEED (Kmh), GPS ACCURACY (m), GPS ORIENTATION (Â°),GPS SATELLITES IN RANGE, TIME SINCE START (ms), DATE (YYYY-MO-DD HH-MI-SS_SSS), ACCELEROMETER X (m/s²) , ACCELEROMETER Y (m/s²), ACCELEROMETER Z (m/s²), GRAVITY X (m/s²), GRAVITY Y (m/s²), GRAVITY Z (m/s²), GYROSCOPE Yaw (rad/s), GYROSCOPE Pitch (rad/s), GYROSCOPE Roll (rad/s), MAGNETIC FIELD X (Î¼T), MAGNETIC FIELD Y (Î¼T), MAGNETIC FIELD Z (Î¼T), ORIENTATION (Yaw) (Â°), ORIENTATION (Pitch) (Â°), ORIENTATION (Roll ) (Â°)
81622,52.46157,-1.483577,155.19,0.0,3.0,4.67,22 / 23,3740875,2019-09-07 11:29:34:029,1.4488,0.2697,9.4807,0.0043,-0.009,9.8066,-0.0083,-0.0092,0.027,-28.94,-31.19,-4.44,291.74,-81.84,-142.11
81623,52.46157,-1.483577,155.19,0.0,3.0,4.67,22 / 23,3740975,2019-09-07 11:29:34:129,1.6846,0.412,9.6249,0.0016,-0.0066,9.8066,-0.0189,0.0315,0.0125,-29.25,-31.56,-3.5,293.97,-81.73,-141.53
81624,52.46157,-1.483577,155.19,0.0,3.0,4.67,22 / 23,3741075,2019-09-07 11:29:34:229,1.2456,0.1632,10.0523,-0.0041,-0.0171,9.8066,-0.0336,0.0117,0.0307,-29.25,-30.94,-3.31,295.13,-81.7,-140.67
81625,52.46157,-1.483577,155.19,0.0,3.0,4.67,22 / 23,3741175,2019-09-07 11:29:34:329,1.3124,0.2687,9.9994,-0.0006,-0.0045,9.8066,-0.0205,-0.0067,-0.0244,-29.44,-30.69,-3.5,296.59,-81.65,-139.26
81626,52.46157,-1.483577,155.19,0.0,3.0,4.67,23 / 23,3741275,2019-09-07 11:29:34:429,1.1951,0.5055,9.1433,0.0039,-0.0072,9.8066,-0.0154,-0.005,0.0029,-28.31,-30.5,-3.56,294.56,-81.61,-138.91
81627,52.46157,-1.483577,155.19,0.0,3.0,4.67,23 / 23,3741376,2019-09-07 11:29:34:530,1.7383,-0.4778,9.4336,0.0026,-0.0002,9.8066,0.0465,0.0884,-0.0038,-28.87,-30.94,-3.31,297.03,-81.55,-138.74
81628,52.46157,-1.483577,155.19,0.0,3.0,4.67,23 / 23,3741475,2019-09-07 11:29:34:629,1.291,-0.5541,9.5724,-0.0005,0.0108,9.8066,-0.014,-0.0316,-0.0626,-28.56,-30.69,-3.06,295.46,-81.61,-140.27
81629,52.46157,-1.483577,155.19,0.0,3.0,4.67,23 / 23,3741575,2019-09-07 11:29:34:729,1.5158,0.3512,10.8078,0.0014,0.0067,9.8066,-0.0051,-0.0051,-0.0017,-28.87,-30.94,-3.19,294.29,-81.64,-141.4
81630,52.46157,-1.483577,155.19,0.0,3.0,4.67,23 / 23,3741675,2019-09-07 11:29:34:829,1.3987,0.4434,9.6831,0.0016,0.0171,9.8066,-0.0184,-0.0158,-0.0491,-29.44,-30.44,-2.69,294.16,-81.57,-141.72
81631,52.46157,-1.483577,155.19,0.0,3.0,4.67,23 / 23,3741776,2019-09-07 11:29:34:930,1.509,1.8565,8.5329,0.0044,-0.0147,9.8066,-0.0709,-0.0483,0.008,-29.25,-30.19,-3.06,293.66,-81.55,-142.17
81632,52.46157,-1.483577,155.19,0.0,3.0,4.67,23 / 23,3741875,2019-09-07 11:29:35:029,1.2657,-0.5696,10.2306,-0.0047,-0.027,9.8065,-0.0599,-0.0291,0.0094,-30.0,-31.0,-3.81,295.08,-81.49,-139.12
81633,52.46157,-1.483577,155.19,0.0,3.0,4.67,23 / 23,3741975,2019-09-07 11:29:35:129,0.6256,-0.6828,10.466,-0.0101,-0.0154,9.8066,-0.009,0.0527,0.0105,-29.69,-30.81,-3.75,296.89,-81.51,-137.43
81634,52.46157,-1.483577,155.19,0.0,3.0,4.67,23 / 23,3742075,2019-09-07 11:29:35:229,1.6229,0.3519,11.1959,0.0216,0.0011,9.8065,0.0198,-0.0629,-0.0246,-29.06,-31.87,-4.06,295.98,-81.59,-137.59
81635,52.46157,-1.483577,155.19,0.0,3.0,4.67,23 / 23,3742175,2019-09-07 11:29:35:329,0.7395,0.0703,10.8706,0.0301,0.0203,9.8065,0.0786,0.0153,-0.0408,-29.44,-31.37,-3.12,295.54,-81.16,-139.72
81636,52.461807,-1.483555,156.62,8.62,3.0,3.84,23 / 23,3742276,2019-09-07 11:29:35:430,1.6339,-0.4599,10.0132,0.021,0.0274,9.8065,0.0255,0.012,-0.0457,-30.44,-31.25,-2.0,295.4,-80.98,-142.02
81637,52.461807,-1.483555,156.62,8.62,3.0,3.84,23 / 23,3742375,2019-09-07 11:29:35:529,0.7487,0.2656,9.3289,-0.013,0.0169,9.8066,-0.0234,0.0427,-0.0168,-29.37,-31.37,-2.12,293.16,-81.02,-143.74
81638,52.461807,-1.483555,156.62,8.62,3.0,3.84,23 / 23,3742476,2019-09-07 11:29:35:630,1.2414,0.459,9.7332,-0.0059,0.0135,9.8065,-0.0028,0.0295,-0.0342,-29.81,-31.12,-1.81,292.9,-81.26,-144.66
81639,52.461807,-1.483555,156.62,8.62,3.0,3.84,23 / 23,3742577,2019-09-07 11:29:35:731,1.1755,0.6229,10.0307,0.0008,-0.005,9.8066,0.0068,0.0245,0.0259,-29.37,-30.31,-2.06,292.41,-81.33,-145.06
81640,52.461807,-1.483555,156.62,8.62,3.0,3.84,23 / 23,3742675,2019-09-07 11:29:35:829,0.8171,0.3375,9.3209,0.0013,-0.0079,9.8066,-0.0186,-0.0057,0.0017,-29.0,-30.19,-2.12,293.04,-81.24,-144.37
81641,52.461807,-1.483555,156.62,8.62,3.0,3.84,23 / 23,3742776,2019-09-07 11:29:35:930,1.894,-0.8489,9.1888,-0.0093,-0.0095,9.8066,-0.0246,0.0222,0.0086,-28.5,-30.25,-2.94,291.59,-81.27,-143.32
81642,52.461807,-1.483555,156.62,8.62,3.0,3.84,23 / 23,3742875,2019-09-07 11:29:36:029,1.7904,0.3554,9.8873,-0.0135,-0.0009,9.8066,-0.0437,0.0283,0.0004,-28.75,-30.19,-2.87,292.83,-81.35,-142.75
81643,52.461807,-1.483555,156.62,8.62,3.0,3.84,23 / 23,3742976,2019-09-07 11:29:36:130,0.9959,-0.3672,10.0618,-0.02,-0.0133,9.8065,-0.0305,0.0206,0.0127,-28.62,-30.19,-3.69,292.02,-81.49,-141.75
81644,52.461807,-1.483555,156.62,8.62,3.0,3.84,23 / 23,3743075,2019-09-07 11:29:36:229,0.2092,-0.729,11.087,-0.02,0.003,9.8065,-0.0503,-0.0335,-0.0969,-29.31,-30.5,-4.25,294.05,-81.66,-140.0
81645,52.461807,-1.483555,156.62,8.62,3.0,3.84,23 / 23,3743175,2019-09-07 11:29:36:329,0.0628,0.4323,10.6086,0.0111,0.0216,9.8066,0.0487,-0.0463,-0.0978,-28.37,-30.87,-5.0,289.63,-81.88,-141.65
81646,52.461807,-1.483555,156.62,8.62,3.0,3.84,23 / 23,3743276,2019-09-07 11:29:36:430,0.8867,0.1763,11.1831,0.0315,0.0242,9.8066,0.0774,0.008,-0.0238,-28.81,-32.0,-4.25,287.72,-81.68,-145.5
81647,52.461807,-1.483555,156.62,8.62,3.0,3.84,23 / 23,3743376,2019-09-07 11:29:36:530,1.3887,0.1413,10.0794,0.0317,-0.0037,9.8066,0.0488,-0.0418,-0.0544,-28.19,-32.25,-2.69,285.23,-81.22,-148.74
81648,52.461807,-1.483555,156.62,8.62,3.0,3.84,23 / 23,3743475,2019-09-07 11:29:36:629,0.8822,0.9259,9.8208,0.0088,-0.0071,9.8066,-0.0046,-0.0296,0.012,-28.87,-31.87,-1.94,286.26,-81.0,-149.98
81649,52.461807,-1.483555,156.62,8.62,3.0,3.84,23 / 23,3743576,2019-09-07 11:29:36:730,1.488,-0.0554,10.14,0.004,-0.0155,9.8065,0.0027,-0.0198,-0.0034,-28.94,-31.94,-1.69,287.29,-80.83,-148.8
81650,52.461807,-1.483555,156.62,8.62,3.0,3.84,23 / 23,3743675,2019-09-07 11:29:36:829,1.5803,-0.1349,9.2099,0.0137,-0.0203,9.8065,0.0108,-0.0019,0.0562,-28.94,-31.69,-1.44,290.09,-80.54,-147.75
81651,52.461807,-1.483555,156.62,8.62,3.0,3.84,23 / 23,3743776,2019-09-07 11:29:36:930,1.5734,-0.366,8.5755,-0.0056,-0.0143,9.8066,-0.0881,0.0171,0.0094,-29.06,-31.37,-1.81,289.31,-80.43,-146.74
81652,52.461807,-1.483555,156.62,8.62,3.0,3.84,23 / 23,3743875,2019-09-07 11:29:37:029,1.6024,0.6811,9.7253,-0.0286,-0.021,9.8065,-0.0875,0.0867,0.0539,-29.56,-31.56,-2.25,291.25,-80.74,-145.39
81653,52.461807,-1.483555,156.62,8.62,3.0,3.84,23 / 23,3743978,2019-09-07 11:29:37:132,0.8277,0.3908,11.1225,-0.0267,-0.0017,9.8066,-0.0211,0.0372,0.0117,-29.12,-31.12,-2.5,293.94,-81.22,-143.23
81654,52.461807,-1.483555,156.62,8.62,3.0,3.84,23 / 23,3744076,2019-09-07 11:29:37:230,0.8205,0.5765,10.3766,0.0192,0.0061,9.8066,0.0369,0.0059,-0.015,-29.06,-32.0,-2.56,291.71,-81.27,-143.17
81655,52.461807,-1.483555,156.62,8.62,3.0,3.84,23 / 23,3744175,2019-09-07 11:29:37:329,1.7471,0.8673,10.3338,0.0327,0.012,9.8065,0.0541,0.0197,0.0064,-28.69,-31.44,-2.62,289.24,-80.92,-145.41
81656,52.461807,-1.483555,156.62,8.62,3.0,3.84,22 / 22,3744275,2019-09-07 11:29:37:429,1.621,-0.0114,10.5649,-0.0004,0.0009,9.8066,-0.0401,-0.0683,-0.0453,-28.0,-30.44,-1.5,292.18,-80.76,-146.25
81657,52.461807,-1.483555,156.62,8.62,3.0,3.84,22 / 22,3744376,2019-09-07 11:29:37:530,0.8748,-0.1174,10.367,-0.0074,-0.0016,9.8066,-0.0154,0.0051,-0.0251,-27.69,-30.37,-2.31,290.56,-80.78,-145.78
81658,52.461807,-1.483555,156.62,8.62,3.0,3.84,22 / 22,3744475,2019-09-07 11:29:37:629,0.933,0.1666,10.4002,0.0031,0.0043,9.8066,0.0102,0.0282,-0.009,-27.62,-30.75,-3.25,288.04,-80.85,-145.94
81659,52.461807,-1.483555,156.62,8.62,3.0,3.84,22 / 22,3744576,2019-09-07 11:29:37:730,1.6392,0.7439,10.101,0.0011,0.0093,9.8066,0.0272,0.0973,0.022,-27.87,-30.81,-3.56,285.26,-80.86,-146.63
81660,52.461807,-1.483555,156.62,8.62,3.0,3.84,22 / 22,3744676,2019-09-07 11:29:37:830,1.2561,0.7786,10.051,-0.0055,0.0132,9.8066,-0.0046,0.0291,-0.0337,-28.69,-31.06,-3.69,285.25,-80.89,-147.29
81661,52.461807,-1.483555,156.62,8.62,3.0,3.84,22 / 22,3744775,2019-09-07 11:29:37:929,1.2266,0.4727,10.0346,0.0065,-0.0004,9.8066,-0.0076,-0.0089,-0.0182,-27.87,-31.44,-3.25,285.85,-80.94,-148.13
81662,52.461807,-1.483555,156.62,8.62,3.0,3.84,22 / 22,3744875,2019-09-07 11:29:38:029,1.9119,1.0436,9.9165,0.0044,-0.0029,9.8066,-0.0051,0.0255,0.0014,-28.0,-31.37,-4.12,283.69,-80.85,-148.14
81663,52.461807,-1.483555,156.62,8.62,3.0,3.84,22 / 22,3744975,2019-09-07 11:29:38:129,1.566,0.2404,9.5422,-0.0031,-0.0128,9.8066,-0.0443,0.0222,0.0219,-29.69,-31.37,-3.94,285.68,-80.85,-147.41
81664,52.461807,-1.483555,156.62,8.62,3.0,3.84,22 / 22,3745075,2019-09-07 11:29:38:229,1.0703,0.1516,9.8601,-0.0084,-0.0093,9.8066,-0.0751,-0.0896,-0.0496,-28.44,-31.94,-3.75,284.94,-80.98,-146.77
81665,52.461807,-1.483555,156.62,8.62,3.0,3.84,22 / 22,3745175,2019-09-07 11:29:38:329,-0.3397,0.4109,10.3746,0.0051,-0.0037,9.8066,0.0321,0.0705,0.0327,-28.62,-30.94,-4.06,286.85,-80.98,-145.85
81666,52.461807,-1.483555,156.62,8.62,3.0,3.84,21 / 23,3745275,2019-09-07 11:29:38:429,0.6475,0.2329,11.0153,0.0255,0.0031,9.8065,0.042,-0.0171,-0.0185,-29.19,-32.12,-3.81,285.75,-80.9,-146.52
81667,52.461807,-1.483555,156.62,8.62,3.0,3.84,21 / 23,3745376,2019-09-07 11:29:38:530,0.3327,-0.2858,10.8715,0.0254,0.0029,9.8065,0.0202,0.0035,-0.0246,-29.31,-31.75,-3.69,284.16,-80.5,-147.6
81668,52.461807,-1.483555,156.62,8.62,3.0,3.84,21 / 23,3745475,2019-09-07 11:29:38:629,0.4416,-0.1438,8.5001,0.0075,0.0028,9.8066,-0.0091,-0.0504,-0.0358,-29.62,-32.31,-3.44,285.68,-80.36,-148.41
81669,52.461807,-1.483555,156.62,8.62,3.0,3.84,21 / 23,3745576,2019-09-07 11:29:38:730,0.7842,-0.3195,11.1053,-0.0089,-0.0026,9.8066,-0.0344,0.0068,0.001,-29.25,-32.5,-2.69,285.57,-80.32,-147.92
81670,52.461807,-1.483555,156.62,8.62,3.0,3.84,21 / 23,3745675,2019-09-07 11:29:38:829,0.651,0.0115,9.5066,-0.0137,-0.0232,9.8066,-0.0612,0.0166,0.0382,-28.56,-31.56,-2.25,288.61,-80.36,-147.0
81671,52.461807,-1.483555,156.62,8.62,3.0,3.84,21 / 23,3745775,2019-09-07 11:29:38:929,-0.2008,-0.2979,9.421,0.0119,-0.0049,9.8066,0.0135,0.0223,0.0155,-29.31,-31.75,-3.06,288.05,-80.3,-145.54
81672,52.461807,-1.483555,156.62,8.62,3.0,3.84,21 / 23,3745876,2019-09-07 11:29:39:030,0.0728,-0.5861,10.4128,0.003,0.0023,9.8066,-0.0054,-0.0262,0.0017,-28.75,-31.62,-2.56,287.81,-80.33,-145.8
81673,52.461807,-1.483555,156.62,8.62,3.0,3.84,21 / 23,3745975,2019-09-07 11:29:39:129,0.7781,-0.4655,9.5759,-0.0021,0.0007,9.8065,-0.0125,0.0038,-0.0223,-28.94,-32.0,-3.19,287.6,-80.34,-146.01
81674,52.461807,-1.483555,156.62,8.62,3.0,3.84,21 / 23,3746076,2019-09-07 11:29:39:230,-0.1742,-0.4229,10.3603,-0.0025,0.0107,9.8066,-0.0142,-0.0265,-0.0399,-28.56,-31.56,-2.94,286.73,-80.4,-146.91
81675,52.461807,-1.483555,156.62,8.62,3.0,3.84,21 / 23,3746176,2019-09-07 11:29:39:330,1.5386,0.3783,9.4093,0.0125,-0.0063,9.8066,0.0159,0.0348,0.063,-28.5,-31.75,-3.56,283.92,-80.31,-146.95
81676,52.461807,-1.483555,156.62,8.62,3.0,3.84,21 / 23,3746275,2019-09-07 11:29:39:429,-0.2685,-0.0543,9.1426,-0.006,0.0069,9.8066,-0.0399,-0.0583,-0.0455,-29.56,-32.37,-3.25,287.16,-80.24,-146.86
81677,52.461807,-1.483555,156.62,8.62,3.0,3.84,21 / 23,3746375,2019-09-07 11:29:39:529,0.6943,0.0138,10.6046,-0.0017,-0.0125,9.8066,-0.0194,0.0077,0.0186,-29.94,-32.12,-3.62,285.75,-80.31,-146.44
81678,52.461807,-1.483555,156.62,8.62,3.0,3.84,21 / 23,3746475,2019-09-07 11:29:39:629,-0.2416,-0.4494,10.2644,0.0007,0.0055,9.8066,-0.0124,-0.0597,-0.0515,-30.12,-32.12,-3.69,286.07,-80.37,-146.2
81679,52.461807,-1.483555,156.62,8.62,3.0,3.84,21 / 23,3746575,2019-09-07 11:29:39:729,0.0731,0.1958,10.7619,0.0095,0.0105,9.8065,0.0258,0.0077,0.0176,-29.56,-32.37,-3.31,287.02,-80.31,-147.07
81680,52.461807,-1.483555,156.62,8.62,3.0,3.84,21 / 23,3746675,2019-09-07 11:29:39:829,0.3398,0.229,9.9792,0.0138,-0.0042,9.8066,0.0281,0.0158,0.0251,-29.81,-32.31,-2.44,288.57,-80.05,-147.17
81681,52.461807,-1.483555,156.62,8.62,3.0,3.84,21 / 23,3746775,2019-09-07 11:29:39:929,1.0978,-0.3264,10.4469,-0.0037,-0.0063,9.8066,-0.0646,-0.0523,-0.0133,-29.19,-32.44,-1.19,290.3,-80.04,-146.99
81682,52.461807,-1.483555,156.62,8.62,3.0,3.84,21 / 23,3746875,2019-09-07 11:29:40:029,0.1834,-0.0695,9.6206,-0.0021,-0.0106,9.8065,-0.0359,-0.0365,0.0014,-29.81,-31.37,-2.31,289.86,-80.03,-146.25
81683,52.461807,-1.483555,156.62,8.62,3.0,3.84,21 / 23,3746975,2019-09-07 11:29:40:129,0.8475,-0.9705,10.5824,0.0116,-0.01,9.8066,-0.0009,-0.0015,0.0008,-29.56,-31.81,-2.12,290.1,-79.92,-145.57
81684,52.461807,-1.483555,156.62,8.62,3.0,3.84,21 / 23,3747075,2019-09-07 11:29:40:229,0.0362,0.0405,10.5647,0.0013,0.0124,9.8066,0.002,-0.0307,-0.0453,-29.44,-31.06,-2.62,287.54,-79.91,-145.92
81685,52.461807,-1.483555,156.62,8.62,3.0,3.84,21 / 23,3747175,2019-09-07 11:29:40:329,-0.1192,-0.696,8.9064,0.0082,0.0058,9.8066,0.0102,0.0023,-0.0296,-30.5,-31.44,-2.62,287.25,-79.87,-146.7
81686,52.461807,-1.483555,156.62,8.62,3.0,3.84,20 / 23,3747276,2019-09-07 11:29:40:430,0.163,-0.2887,10.3151,-0.0022,0.0113,9.8066,0.0001,-0.0145,-0.0432,-30.25,-31.87,-3.06,285.91,-79.96,-147.74
81687,52.461807,-1.483555,156.62,8.62,3.0,3.84,20 / 23,3747375,2019-09-07 11:29:40:529,-0.5543,-0.3353,9.777,-0.0072,0.0091,9.8066,-0.036,-0.0376,-0.0476,-29.56,-31.62,-2.5,287.65,-80.05,-148.05
81688,52.461807,-1.483555,156.62,8.62,3.0,3.84,20 / 23,3747476,2019-09-07 11:29:40:630,0.2787,0.299,10.2856,-0.0018,0.0008,9.8066,-0.0027,0.0432,0.0267,-30.37,-31.81,-2.62,285.45,-80.09,-148.34
81689,52.461807,-1.483555,156.62,8.62,3.0,3.84,20 / 23,3747575,2019-09-07 11:29:40:729,-0.3188,-0.3133,9.4173,-0.0079,0.0037,9.8065,-0.0532,-0.0363,-0.0392,-29.44,-31.44,-3.0,285.36,-80.2,-148.33
81690,52.461807,-1.483555,156.62,8.62,3.0,3.84,20 / 23,3747675,2019-09-07 11:29:40:829,0.2954,-0.0674,8.7799,-0.0119,-0.0047,9.8065,-0.0422,-0.0088,-0.0088,-29.19,-31.69,-3.19,285.71,-80.43,-147.93
81691,52.461807,-1.483555,156.62,8.62,3.0,3.84,20 / 23,3747776,2019-09-07 11:29:40:930,-0.4642,0.0791,9.7002,-0.0114,-0.0001,9.8066,-0.0091,-0.0077,-0.0009,-29.56,-31.75,-3.06,286.63,-80.54,-147.7
81692,52.461807,-1.483555,156.62,8.62,3.0,3.84,20 / 23,3747875,2019-09-07 11:29:41:029,-0.2859,-0.3017,9.7177,0.0061,-0.0022,9.8066,-0.0031,-0.0006,0.0025,-29.81,-32.19,-3.81,284.73,-80.54,-147.68
81693,52.461807,-1.483555,156.62,8.62,3.0,3.84,20 / 23,3747975,2019-09-07 11:29:41:129,-0.4083,-0.3231,10.5797,0.0127,0.005,9.8065,0.0301,-0.002,-0.0054,-29.25,-32.0,-2.81,285.48,-80.4,-148.11
81694,52.461807,-1.483555,156.62,8.62,3.0,3.84,20 / 23,3748076,2019-09-07 11:29:41:230,-0.1588,-0.2133,8.91,0.0049,0.0039,9.8066,-0.0069,-0.0408,-0.0253,-29.19,-31.75,-3.06,284.6,-80.33,-148.87
81695,52.461807,-1.483555,156.62,8.62,3.0,3.84,20 / 23,3748175,2019-09-07 11:29:41:329,-0.0745,-0.1995,9.6835,0.0002,0.0088,9.8066,-0.0212,-0.005,-0.0269,-29.62,-32.06,-3.69,282.74,-80.31,-149.35
81696,52.461807,-1.483555,156.62,8.62,3.0,3.84,21 / 23,3748276,2019-09-07 11:29:41:430,-0.3688,0.5617,8.3069,-0.0019,0.001,9.8066,-0.0307,-0.0489,-0.042,-28.87,-31.5,-2.75,283.72,-80.47,-150.21
81697,52.461807,-1.483555,156.62,8.62,3.0,3.84,21 / 23,3748376,2019-09-07 11:29:41:530,-1.1838,-0.5838,9.869,-0.0013,-0.0048,9.8066,-0.0247,-0.0198,-0.0222,-29.75,-31.06,-2.75,284.66,-80.49,-149.85
81698,52.461807,-1.483555,156.62,8.62,3.0,3.84,21 / 23,3748475,2019-09-07 11:29:41:629,-0.9202,-0.0608,9.6767,0.0027,0.0125,9.8066,0.0036,-0.0262,-0.0404,-29.94,-31.94,-3.06,284.2,-80.56,-150.06
81699,52.461807,-1.483555,156.62,8.62,3.0,3.84,21 / 23,3748575,2019-09-07 11:29:41:729,-0.485,-0.1531,8.8689,0.0139,-0.0041,9.8065,0.0054,-0.0023,0.0259,-30.12,-31.94,-3.12,283.19,-80.44,-150.91
81700,52.461807,-1.483555,156.62,8.62,3.0,3.84,21 / 23,3748675,2019-09-07 11:29:41:829,-0.7749,0.1122,8.8281,-0.0084,-0.0078,9.8066,-0.0603,-0.0423,-0.0078,-30.37,-31.94,-3.37,283.91,-80.44,-150.21
81701,52.461807,-1.483555,156.62,8.62,3.0,3.84,21 / 23,3748775,2019-09-07 11:29:41:929,-0.6323,-0.8562,9.9935,-0.0051,-0.0238,9.8066,-0.0132,-0.0053,0.0126,-30.25,-31.31,-3.25,285.77,-80.45,-148.74
81702,52.461807,-1.483555,156.62,8.62,3.0,3.84,21 / 23,3748875,2019-09-07 11:29:42:029,-0.4296,-1.2081,11.204,0.0017,0.0099,9.8065,-0.0172,-0.0729,-0.0639,-30.12,-30.94,-2.5,288.0,-80.47,-148.49
81703,52.461807,-1.483555,156.62,8.62,3.0,3.84,21 / 23,3748976,2019-09-07 11:29:42:130,-0.2044,0.0179,10.9438,0.0172,0.0064,9.8066,0.027,0.017,0.0233,-30.87,-30.81,-3.75,283.49,-80.34,-149.53
81704,52.461807,-1.483555,156.62,8.62,3.0,3.84,21 / 23,3749075,2019-09-07 11:29:42:229,-0.6473,-0.4731,9.7375,-0.0042,0.0006,9.8066,-0.0098,0.0318,0.011,-29.87,-31.37,-4.06,282.52,-80.32,-149.9
81705,52.461807,-1.483555,156.62,8.62,3.0,3.84,21 / 23,3749176,2019-09-07 11:29:42:330,-0.6411,-0.1007,10.2623,-0.0181,-0.0045,9.8066,-0.0328,0.0308,0.0156,-29.94,-31.0,-3.56,283.31,-80.51,-149.33
81706,52.461807,-1.483555,156.62,8.62,3.0,3.84,20 / 22,3749276,2019-09-07 11:29:42:430,-1.2938,-1.2391,10.0936,0.005,0.0035,9.8065,0.0287,0.0275,0.0222,-29.75,-31.62,-3.56,283.86,-80.58,-148.56
81707,52.461807,-1.483555,156.62,8.62,3.0,3.84,20 / 22,3749375,2019-09-07 11:29:42:529,-1.0028,-0.2149,10.178,0.0121,-0.0001,9.8066,0.0003,-0.0421,0.0014,-30.12,-31.81,-3.94,283.35,-80.46,-148.94
81708,52.461807,-1.483555,156.62,8.62,3.0,3.84,20 / 22,3749476,2019-09-07 11:29:42:630,-0.3785,-0.5249,9.3834,-0.0036,-0.0131,9.8066,-0.0498,-0.0574,0.0055,-29.87,-31.31,-3.94,283.86,-80.36,-148.63
81709,52.461807,-1.483555,156.62,8.62,3.0,3.84,20 / 22,3749575,2019-09-07 11:29:42:729,-1.0117,-1.163,10.5365,-0.0032,-0.0197,9.8065,-0.0334,0.023,0.0249,-30.44,-31.44,-3.69,285.69,-80.34,-146.84
81710,52.461807,-1.483555,156.62,8.62,3.0,3.84,20 / 22,3749675,2019-09-07 11:29:42:829,-0.6012,-0.8051,9.473,-0.0079,-0.0224,9.8066,-0.0611,-0.0348,0.0171,-30.94,-31.31,-3.69,287.09,-80.39,-146.1
81711,52.461807,-1.483555,156.62,8.62,3.0,3.84,20 / 22,3749776,2019-09-07 11:29:42:930,-1.2144,-0.7082,9.861,-0.0142,-0.007,9.8066,-0.0289,-0.0188,-0.0128,-30.62,-31.44,-3.94,289.37,-80.48,-144.01
81712,52.461807,-1.483555,156.62,8.62,3.0,3.84,20 / 22,3749875,2019-09-07 11:29:43:029,-2.1916,-0.4046,10.2903,0.0067,0.0059,9.8066,0.0246,0.0024,-0.003,-30.56,-31.37,-3.94,289.36,-80.54,-144.09
81713,52.461807,-1.483555,156.62,8.62,3.0,3.84,20 / 22,3749975,2019-09-07 11:29:43:129,-0.2871,-0.2904,10.0492,0.0154,0.0147,9.8065,0.0168,-0.0184,-0.0262,-30.81,-31.62,-4.31,287.23,-80.43,-145.71
81714,52.461807,-1.483555,156.62,8.62,3.0,3.84,20 / 22,3750075,2019-09-07 11:29:43:229,-1.3053,-0.5604,9.8518,-0.0058,0.011,9.8066,-0.0116,0.0108,-0.04,-30.87,-31.62,-3.31,287.83,-80.44,-146.93
81715,52.461807,-1.483555,156.62,8.62,3.0,3.84,20 / 22,3750175,2019-09-07 11:29:43:329,-0.9152,0.1729,10.036,-0.0156,0.0091,9.8066,-0.0265,0.0042,-0.0193,-30.31,-30.87,-3.19,287.5,-80.64,-147.28
81716,52.461807,-1.483555,156.62,8.62,3.0,3.84,20 / 22,3750275,2019-09-07 11:29:43:429,-1.4284,-0.4846,9.699,-0.006,0.0035,9.8066,-0.0051,0.0093,-0.0111,-30.25,-31.81,-3.56,285.44,-80.77,-147.25
81717,52.461807,-1.483555,156.62,8.62,3.0,3.84,20 / 22,3750376,2019-09-07 11:29:43:530,-1.6491,-0.3802,9.6971,-0.0025,0.0061,9.8066,0.0005,0.0118,0.0006,-30.56,-31.62,-3.44,287.38,-80.83,-147.78
81718,52.461807,-1.483555,156.62,8.62,3.0,3.84,20 / 22,3750475,2019-09-07 11:29:43:629,-1.2739,-0.9432,10.5663,0.0051,0.0063,9.8066,-0.0014,-0.0357,-0.0348,-30.44,-31.5,-3.87,284.62,-80.82,-148.4
81719,52.461807,-1.483555,156.62,8.62,3.0,3.84,20 / 22,3750575,2019-09-07 11:29:43:729,-1.4783,-0.6231,10.9695,0.0074,0.0028,9.8066,0.0061,-0.0098,-0.0066,-30.69,-30.94,-3.62,284.72,-80.78,-148.8
81720,52.461807,-1.483555,156.62,8.62,3.0,3.84,20 / 22,3750676,2019-09-07 11:29:43:830,-1.5275,-0.1022,9.8679,-0.0006,0.0078,9.8065,-0.0049,-0.0057,-0.0162,-30.94,-30.87,-3.44,286.07,-80.78,-149.28
81721,52.461807,-1.483555,156.62,8.62,3.0,3.84,20 / 22,3750776,2019-09-07 11:29:43:930,-1.5357,-0.7166,10.0102,-0.0053,-0.003,9.8066,-0.0346,-0.0241,-0.0227,-29.44,-30.81,-3.94,282.9,-80.84,-149.51
81722,52.461807,-1.483555,156.62,8.62,3.0,3.84,20 / 22,3750875,2019-09-07 11:29:44:029,-1.3535,-0.2119,9.7738,-0.0072,0.0083,9.8066,-0.0064,0.0201,-0.0011,-29.87,-31.69,-3.31,285.35,-81.0,-149.43
81723,52.461807,-1.483555,156.62,8.62,3.0,3.84,20 / 22,3750976,2019-09-07 11:29:44:130,-1.4935,-0.3188,9.6128,0.005,0.0029,9.8066,-0.0098,-0.0297,-0.0167,-30.0,-30.69,-4.0,283.26,-81.05,-149.96
81724,52.461807,-1.483555,156.62,8.62,3.0,3.84,20 / 22,3751075,2019-09-07 11:29:44:229,-0.6859,-0.7333,9.746,-0.0005,0.0021,9.8066,-0.011,-0.0039,0.0063,-30.81,-31.37,-3.69,283.74,-81.0,-149.96
81725,52.461807,-1.483555,156.62,8.62,3.0,3.84,20 / 22,3751176,2019-09-07 11:29:44:330,-1.4816,-1.1911,10.4698,-0.0218,0.0022,9.8066,-0.0585,-0.0206,-0.027,-30.12,-31.81,-3.75,283.5,-81.19,-149.59
81726,52.462685,-1.483401,158.61,8.82,3.0,9.67,21 / 22,3751276,2019-09-07 11:29:44:430,-1.6895,-0.4834,10.2268,-0.0184,0.0035,9.8066,-0.0274,-0.023,-0.0263,-30.69,-31.81,-3.69,284.49,-81.42,-149.4
81727,52.462685,-1.483401,158.61,8.82,3.0,9.67,21 / 22,3751376,2019-09-07 11:29:44:530,-1.4867,-0.2426,8.9696,0.0105,0.0022,9.8066,0.0909,-0.0213,-0.0129,-30.06,-32.0,-3.31,285.33,-81.53,-150.03
81728,52.462685,-1.483401,158.61,8.82,3.0,9.67,21 / 22,3751475,2019-09-07 11:29:44:629,-1.2113,-0.3755,9.3453,0.0195,0.0152,9.8066,0.0445,0.0065,-0.0197,-30.37,-31.5,-3.44,283.43,-81.26,-151.87
81729,52.462685,-1.483401,158.61,8.82,3.0,9.67,21 / 22,3751576,2019-09-07 11:29:44:730,-1.214,0.1117,9.9038,-0.0023,-0.0017,9.8066,-0.0331,-0.0401,-0.015,-30.0,-31.06,-3.31,282.45,-81.18,-152.74
81730,52.462685,-1.483401,158.61,8.82,3.0,9.67,21 / 22,3751675,2019-09-07 11:29:44:829,-1.6235,-0.139,9.6488,-0.0103,-0.004,9.8066,-0.014,0.0091,0.009,-30.87,-31.31,-3.37,283.4,-81.3,-152.41
81731,52.462685,-1.483401,158.61,8.82,3.0,9.67,21 / 22,3751775,2019-09-07 11:29:44:929,-1.6396,-0.6061,9.5785,-0.005,-0.008,9.8066,-0.0145,-0.017,-0.0013,-30.25,-30.81,-3.37,283.74,-81.39,-151.7
81732,52.462685,-1.483401,158.61,8.82,3.0,9.67,21 / 22,3751875,2019-09-07 11:29:45:029,-1.294,-0.4495,9.6904,-0.0002,-0.0031,9.8066,-0.0076,-0.0352,-0.0036,-31.06,-31.69,-3.56,282.5,-81.36,-151.27
81733,52.462685,-1.483401,158.61,8.82,3.0,9.67,21 / 22,3751975,2019-09-07 11:29:45:129,-1.3977,-0.4516,9.8118,0.0019,-0.0066,9.8066,-0.0029,-0.041,-0.0103,-30.94,-31.31,-3.75,282.8,-81.33,-151.23
81734,52.462685,-1.483401,158.61,8.82,3.0,9.67,21 / 22,3752075,2019-09-07 11:29:45:229,-1.0934,-0.5035,9.8272,0.0056,0.0039,9.8066,-0.0006,-0.0192,-0.0374,-30.44,-31.56,-4.06,281.81,-81.28,-151.33
81735,52.462685,-1.483401,158.61,8.82,3.0,9.67,21 / 22,3752176,2019-09-07 11:29:45:330,-1.2039,-0.5726,9.8319,0.0046,0.0107,9.8066,-0.0056,-0.042,-0.0503,-30.94,-31.94,-4.06,281.41,-81.31,-152.29
81736,52.462685,-1.483401,158.61,8.82,3.0,9.67,20 / 22,3752275,2019-09-07 11:29:45:429,-1.3354,-0.4377,9.8714,0.001,0.0077,9.8066,0.0093,0.0069,0.0172,-31.06,-31.31,-3.81,280.6,-81.29,-153.35
81737,52.462685,-1.483401,158.61,8.82,3.0,9.67,20 / 22,3752376,2019-09-07 11:29:45:530,-1.5784,-0.5376,9.7817,-0.0101,0.001,9.8065,-0.0233,-0.0312,-0.0055,-31.19,-31.06,-3.75,280.64,-81.4,-153.42
81738,52.462685,-1.483401,158.61,8.82,3.0,9.67,20 / 22,3752475,2019-09-07 11:29:45:629,-1.6644,-1.0849,9.2388,-0.0074,-0.0068,9.8065,-0.0517,-0.0746,-0.036,-30.37,-31.44,-3.87,280.55,-81.5,-153.09
81739,52.462685,-1.483401,158.61,8.82,3.0,9.67,20 / 22,3752576,2019-09-07 11:29:45:730,-0.6539,-0.5137,9.2849,-0.0063,0.0012,9.8066,-0.0124,-0.0565,0.0045,-30.31,-31.5,-3.56,280.73,-81.65,-153.07
81740,52.462685,-1.483401,158.61,8.82,3.0,9.67,20 / 22,3752675,2019-09-07 11:29:45:829,-0.53,-0.8893,9.7763,0.0002,0.0052,9.8066,0.0019,-0.0391,0.0135,-30.56,-30.94,-3.62,281.14,-81.72,-153.25
81741,52.462685,-1.483401,158.61,8.82,3.0,9.67,20 / 22,3752775,2019-09-07 11:29:45:929,-0.83,-0.9226,9.8632,-0.0003,-0.0009,9.8066,-0.0006,-0.0656,0.0301,-30.44,-31.0,-3.62,280.42,-81.72,-153.45
81742,52.462685,-1.483401,158.61,8.82,3.0,9.67,20 / 22,3752876,2019-09-07 11:29:46:030,-0.6884,-1.3177,10.0225,-0.0004,0.0012,9.8066,-0.0113,-0.132,-0.0248,-30.81,-31.44,-3.44,283.04,-81.7,-153.17
81743,52.462685,-1.483401,158.61,8.82,3.0,9.67,20 / 22,3752975,2019-09-07 11:29:46:129,-0.3948,-0.5588,9.8954,-0.0032,0.0026,9.8066,-0.0082,-0.0785,0.0163,-30.56,-30.94,-3.37,282.6,-81.75,-153.65
81744,52.462685,-1.483401,158.61,8.82,3.0,9.67,20 / 22,3753075,2019-09-07 11:29:46:229,-0.2752,-0.9544,10.5175,-0.0001,-0.0022,9.8066,0.0023,-0.1148,-0.0216,-31.37,-30.37,-3.31,283.07,-81.74,-153.45
81745,52.462685,-1.483401,158.61,8.82,3.0,9.67,20 / 22,3753175,2019-09-07 11:29:46:329,0.2674,0.2358,9.8127,0.0029,0.0185,9.8066,0.0153,-0.0718,-0.0233,-31.81,-29.87,-3.0,282.29,-81.77,-154.65
81746,52.462685,-1.483401,158.61,8.82,3.0,9.67,21 / 22,3753276,2019-09-07 11:29:46:430,-0.4506,-0.0886,9.3338,0.0011,-0.0055,9.8066,-0.041,-0.0927,-0.0132,-31.56,-30.62,-3.62,279.2,-81.77,-155.69
81747,52.462685,-1.483401,158.61,8.82,3.0,9.67,21 / 22,3753375,2019-09-07 11:29:46:529,-0.9296,0.5523,9.8063,-0.0065,0.0156,9.8066,0.0189,0.0209,-0.0115,-31.62,-30.62,-3.44,281.05,-81.88,-155.73
81748,52.462685,-1.483401,158.61,8.82,3.0,9.67,21 / 22,3753476,2019-09-07 11:29:46:630,0.0667,0.4441,10.7888,0.0033,-0.0043,9.8065,-0.032,-0.0526,-0.0301,-31.75,-30.94,-3.19,280.32,-81.92,-156.48
81749,52.462685,-1.483401,158.61,8.82,3.0,9.67,21 / 22,3753576,2019-09-07 11:29:46:730,-1.3999,0.713,10.1279,0.0055,-0.0036,9.8066,0.0176,-0.0455,-0.0235,-31.56,-31.19,-3.19,281.36,-81.81,-155.36
81750,52.462685,-1.483401,158.61,8.82,3.0,9.67,21 / 22,3753676,2019-09-07 11:29:46:830,0.0362,-0.2411,9.0841,0.023,-0.0201,9.8065,0.0234,-0.0156,-0.0077,-31.25,-31.69,-2.56,280.86,-81.62,-154.95
81751,52.462685,-1.483401,158.61,8.82,3.0,9.67,21 / 22,3753775,2019-09-07 11:29:46:929,-0.2834,0.2619,9.5001,0.0063,0.0018,9.8066,0.0106,0.0695,-0.0284,-32.44,-31.62,-2.62,281.07,-81.46,-155.02
81752,52.462685,-1.483401,158.61,8.82,3.0,9.67,21 / 22,3753876,2019-09-07 11:29:47:030,-0.457,0.6221,9.7756,-0.0117,-0.0002,9.8066,-0.0565,0.0429,-0.0332,-31.06,-31.19,-2.56,280.64,-81.5,-155.32
81753,52.462685,-1.483401,158.61,8.82,3.0,9.67,21 / 22,3753975,2019-09-07 11:29:47:129,-0.5834,1.2806,10.0596,-0.0175,-0.0021,9.8065,-0.0675,0.0518,-0.048,-31.06,-31.25,-3.12,281.31,-81.72,-154.88
81754,52.462685,-1.483401,158.61,8.82,3.0,9.67,21 / 22,3754075,2019-09-07 11:29:47:229,-0.9017,0.5072,9.9955,-0.0157,-0.0037,9.8066,-0.0212,0.0997,-0.007,-31.31,-31.0,-3.75,280.48,-82.07,-154.26
81755,52.462685,-1.483401,158.61,8.82,3.0,9.67,21 / 22,3754175,2019-09-07 11:29:47:329,-0.6002,0.9595,9.8614,-0.0083,-0.0017,9.8066,0.0027,0.1022,-0.0199,-30.75,-31.19,-3.44,283.33,-82.15,-153.34
81756,52.462685,-1.483401,158.61,8.82,3.0,9.67,21 / 22,3754276,2019-09-07 11:29:47:430,-0.8625,1.0809,9.4063,-0.0031,-0.0012,9.8066,0.002,0.0902,-0.0332,-30.5,-31.56,-2.87,282.76,-82.18,-153.24
81757,52.462685,-1.483401,158.61,8.82,3.0,9.67,21 / 22,3754375,2019-09-07 11:29:47:529,-0.2261,0.2553,10.0533,0.0019,-0.0001,9.8066,0.02,0.1373,-0.0053,-30.62,-31.19,-3.44,283.59,-82.17,-153.12
81758,52.462685,-1.483401,158.61,8.82,3.0,9.67,21 / 22,3754475,2019-09-07 11:29:47:629,-0.2687,0.9451,9.931,-0.0004,-0.0045,9.8066,-0.014,0.0979,-0.0176,-29.44,-31.75,-3.31,282.5,-82.16,-153.0
81759,52.462685,-1.483401,158.61,8.82,3.0,9.67,21 / 22,3754575,2019-09-07 11:29:47:729,-1.1183,0.2305,9.7597,-0.0049,-0.0107,9.8065,-0.0033,0.1032,-0.0179,-29.81,-30.37,-3.94,282.61,-82.2,-152.08
81760,52.462685,-1.483401,158.61,8.82,3.0,9.67,21 / 22,3754676,2019-09-07 11:29:47:830,-0.8006,0.2102,10.0664,-0.0056,0.0025,9.8066,-0.0009,0.0987,-0.0255,-30.19,-30.62,-4.62,281.33,-82.26,-151.3
81761,52.462685,-1.483401,158.61,8.82,3.0,9.67,21 / 22,3754775,2019-09-07 11:29:47:929,-0.6239,0.5743,9.7863,-0.0125,-0.003,9.8066,-0.0145,0.0974,-0.0207,-30.25,-30.75,-4.31,283.89,-82.36,-150.73
81762,52.462685,-1.483401,158.61,8.82,3.0,9.67,21 / 22,3754875,2019-09-07 11:29:48:029,-0.7119,0.0876,9.6365,-0.0105,-0.0051,9.8066,-0.0215,0.0828,-0.0301,-29.75,-30.87,-5.31,282.72,-82.45,-150.14
81763,52.462685,-1.483401,158.61,8.82,3.0,9.67,21 / 22,3754976,2019-09-07 11:29:48:130,-0.9215,0.4025,10.3716,-0.0092,-0.0038,9.8066,-0.0158,0.0892,-0.0023,-30.62,-30.87,-5.31,283.2,-82.58,-150.35
81764,52.462685,-1.483401,158.61,8.82,3.0,9.67,21 / 22,3755075,2019-09-07 11:29:48:229,-0.879,-0.0426,9.6426,-0.0012,-0.0086,9.8066,-0.0088,0.0774,-0.0005,-31.75,-30.56,-5.37,284.55,-82.68,-149.63
81765,52.462685,-1.483401,158.61,8.82,3.0,9.67,21 / 22,3755176,2019-09-07 11:29:48:330,-0.8211,-0.0248,9.6257,-0.0024,-0.0054,9.8066,0.0066,0.0779,-0.0063,-31.94,-29.87,-4.5,287.67,-82.68,-148.53
81766,52.462685,-1.483401,158.61,8.82,3.0,9.67,21 / 22,3755276,2019-09-07 11:29:48:430,-0.9485,0.1935,9.1736,-0.0005,-0.0021,9.8066,0.005,0.0457,-0.0179,-31.44,-29.69,-3.62,287.76,-82.67,-148.0
81767,52.462685,-1.483401,158.61,8.82,3.0,9.67,21 / 22,3755375,2019-09-07 11:29:48:529,-0.3775,-0.0262,9.764,-0.0061,0.0068,9.8066,-0.0174,0.0185,-0.0625,-31.25,-29.44,-2.87,289.63,-82.75,-148.29
81768,52.462685,-1.483401,158.61,8.82,3.0,9.67,21 / 22,3755476,2019-09-07 11:29:48:630,-0.4906,0.5356,10.3116,0.0032,0.0006,9.8066,0.0035,0.069,-0.0186,-30.37,-29.62,-2.25,290.36,-82.81,-148.91
81769,52.462685,-1.483401,158.61,8.82,3.0,9.67,21 / 22,3755575,2019-09-07 11:29:48:729,0.4213,0.3066,10.3815,-0.0051,-0.0011,9.8066,0.0075,0.0802,0.0231,-28.94,-29.37,-2.94,288.35,-82.83,-148.8
81770,52.462685,-1.483401,158.61,8.82,3.0,9.67,21 / 22,3755676,2019-09-07 11:29:48:830,-0.4811,-0.1641,9.7358,-0.0027,-0.0015,9.8066,-0.0093,0.0312,-0.0065,-29.25,-30.06,-3.56,286.89,-82.85,-148.07
81771,52.462685,-1.483401,158.61,8.82,3.0,9.67,21 / 22,3755775,2019-09-07 11:29:48:929,-0.1044,-0.4199,9.8958,-0.0019,-0.0035,9.8066,-0.0014,0.0196,-0.0018,-28.25,-30.25,-3.31,288.83,-82.87,-147.68
81772,52.462685,-1.483401,158.61,8.82,3.0,9.67,21 / 22,3755876,2019-09-07 11:29:49:030,-0.0936,0.0462,10.2283,0.0,-0.0069,9.8066,0.0065,0.0289,0.0208,-28.37,-30.75,-4.0,286.88,-82.86,-147.32
81773,52.462685,-1.483401,158.61,8.82,3.0,9.67,21 / 22,3755975,2019-09-07 11:29:49:129,0.0801,-0.1891,9.6715,0.0046,-0.0054,9.8066,0.0099,0.0113,0.0064,-28.75,-30.56,-3.75,288.06,-82.79,-146.64
81774,52.462685,-1.483401,158.61,8.82,3.0,9.67,21 / 22,3756076,2019-09-07 11:29:49:230,-0.0304,-0.1089,9.545,-0.002,-0.0077,9.8066,-0.0021,0.0174,0.0152,-29.12,-30.75,-4.06,288.2,-82.78,-146.49
81775,52.462685,-1.483401,158.61,8.82,3.0,9.67,21 / 22,3756175,2019-09-07 11:29:49:329,-0.095,-0.0964,9.7473,-0.0035,-0.0026,9.8066,-0.0119,-0.0101,-0.0067,-28.75,-30.62,-4.0,288.94,-82.8,-145.81
81776,52.462685,-1.483401,158.61,8.82,3.0,9.67,21 / 22,3756276,2019-09-07 11:29:49:430,0.1138,-0.0495,9.8295,-0.0049,0.0017,9.8066,-0.0156,-0.0268,-0.0138,-28.69,-30.69,-3.81,289.15,-82.89,-145.7
81777,52.462685,-1.483401,158.61,8.82,3.0,9.67,21 / 22,3756375,2019-09-07 11:29:49:529,0.1461,0.1936,9.8604,-0.007,0.0022,9.8066,-0.0172,0.004,0.0065,-28.87,-30.75,-4.75,287.38,-82.97,-145.6
81778,52.462685,-1.483401,158.61,8.82,3.0,9.67,21 / 22,3756475,2019-09-07 11:29:49:629,-0.2032,-0.2596,10.0105,-0.0087,0.0023,9.8066,-0.0182,-0.0246,-0.014,-29.19,-30.62,-4.12,289.82,-83.07,-145.24
81779,52.462685,-1.483401,158.61,8.82,3.0,9.67,21 / 22,3756575,2019-09-07 11:29:49:729,0.1496,-0.1138,9.3866,-0.0049,-0.002,9.8066,-0.0202,-0.026,-0.0158,-28.31,-31.06,-3.0,291.85,-83.17,-144.87
81780,52.462685,-1.483401,158.61,8.82,3.0,9.67,21 / 22,3756676,2019-09-07 11:29:49:830,-0.0029,0.0471,10.227,-0.004,0.0006,9.8066,-0.0022,-0.0133,-0.0091,-28.37,-31.37,-4.06,290.19,-83.22,-144.53
81781,52.462685,-1.483401,158.61,8.82,3.0,9.67,21 / 22,3756775,2019-09-07 11:29:49:929,-0.0633,0.2878,9.9007,-0.001,-0.0008,9.8066,0.0043,-0.0033,0.0169,-29.12,-30.81,-4.5,290.96,-83.26,-144.34
81782,52.462685,-1.483401,158.61,8.82,3.0,9.67,21 / 22,3756875,2019-09-07 11:29:50:029,-0.1153,-0.0686,10.1694,-0.0038,-0.002,9.8066,-0.0082,-0.0262,0.0011,-28.87,-31.06,-4.06,291.74,-83.26,-143.6
81783,52.462685,-1.483401,158.61,8.82,3.0,9.67,21 / 22,3756976,2019-09-07 11:29:50:130,0.5493,0.122,9.6387,-0.0048,-0.0035,9.8066,-0.0132,-0.0371,-0.008,-28.37,-30.5,-3.75,292.01,-83.28,-143.07
81784,52.462685,-1.483401,158.61,8.82,3.0,9.67,21 / 22,3757076,2019-09-07 11:29:50:230,0.6957,-0.0455,10.1888,0.0,-0.002,9.8066,0.0034,-0.0124,-0.0013,-28.06,-30.31,-3.87,292.55,-83.26,-142.54
81785,52.462685,-1.483401,158.61,8.82,3.0,9.67,21 / 22,3757175,2019-09-07 11:29:50:329,0.714,0.1961,10.5722,-0.0016,0.0072,9.8066,0.0197,-0.0099,-0.0196,-27.87,-30.62,-3.94,291.97,-83.29,-142.9
81786,52.462685,-1.483401,158.61,8.82,3.0,9.67,20 / 22,3757275,2019-09-07 11:29:50:429,1.044,0.6115,9.4275,0.003,0.0039,9.8066,0.0099,-0.0204,-0.0095,-28.5,-30.69,-3.62,290.96,-83.29,-143.87
81787,52.462685,-1.483401,158.61,8.82,3.0,9.67,20 / 22,3757375,2019-09-07 11:29:50:529,0.9521,0.2477,10.0355,-0.0041,-0.0073,9.8066,-0.0048,-0.0197,0.0075,-27.81,-31.5,-3.94,290.85,-83.28,-143.97
81788,52.462685,-1.483401,158.61,8.82,3.0,9.67,20 / 22,3757475,2019-09-07 11:29:50:629,0.8104,-0.036,9.6741,-0.0057,-0.011,9.8065,-0.0209,-0.022,0.0172,-28.69,-31.94,-2.94,295.14,-83.31,-142.11
81789,52.462685,-1.483401,158.61,8.82,3.0,9.67,20 / 22,3757576,2019-09-07 11:29:50:730,0.6196,0.0427,9.9501,-0.0057,-0.0065,9.8066,0.002,-0.0125,0.0041,-28.81,-31.44,-3.12,296.55,-83.31,-140.99
81790,52.462685,-1.483401,158.61,8.82,3.0,9.67,20 / 22,3757676,2019-09-07 11:29:50:830,1.6783,0.1808,9.9447,0.0008,-0.0028,9.8066,0.0019,-0.0107,0.0101,-28.19,-31.37,-3.81,294.45,-83.26,-140.5
81791,52.462685,-1.483401,158.61,8.82,3.0,9.67,20 / 22,3757775,2019-09-07 11:29:50:929,1.0599,0.2853,9.7858,0.0004,-0.0007,9.8066,-0.0055,0.0012,0.0035,-28.5,-30.25,-3.0,297.19,-83.26,-140.11
81792,52.462685,-1.483401,158.61,8.82,3.0,9.67,20 / 22,3757875,2019-09-07 11:29:51:029,1.6302,0.3285,9.4395,-0.0023,0.0019,9.8066,-0.0096,-0.0266,-0.0101,-29.25,-31.31,-3.25,297.35,-83.26,-140.18
81793,52.462685,-1.483401,158.61,8.82,3.0,9.67,20 / 22,3757976,2019-09-07 11:29:51:130,2.0031,0.6501,9.6036,-0.0024,-0.0015,9.8066,-0.0126,-0.0125,0.0029,-29.12,-30.5,-3.5,297.7,-83.3,-140.1
81794,52.462685,-1.483401,158.61,8.82,3.0,9.67,20 / 22,3758075,2019-09-07 11:29:51:229,1.7899,0.142,10.0457,-0.0079,-0.0075,9.8065,-0.0255,0.0109,0.0339,-28.37,-30.31,-3.19,298.5,-83.31,-138.93
81795,52.462685,-1.483401,158.61,8.82,3.0,9.67,20 / 22,3758176,2019-09-07 11:29:51:330,1.6516,0.1609,10.0008,-0.0082,-0.0011,9.8066,-0.0147,-0.0086,-0.0048,-29.19,-31.75,-3.75,297.01,-83.37,-138.49
81796,52.462685,-1.483401,158.61,8.82,3.0,9.67,20 / 22,3758275,2019-09-07 11:29:51:429,1.3873,0.3331,9.7201,-0.0039,-0.0053,9.8066,-0.0237,-0.0207,0.006,-30.12,-31.69,-3.62,297.84,-83.39,-138.2
81797,52.462685,-1.483401,158.61,8.82,3.0,9.67,20 / 22,3758375,2019-09-07 11:29:51:529,1.1353,0.0668,9.6819,-0.0017,-0.0056,9.8066,0.004,0.0041,-0.0022,-29.37,-31.19,-3.44,300.42,-83.38,-137.4
81798,52.462685,-1.483401,158.61,8.82,3.0,9.67,20 / 22,3758476,2019-09-07 11:29:51:630,1.4875,-0.0533,9.9774,0.0018,0.0043,9.8065,0.0011,-0.0232,-0.0119,-29.75,-31.25,-3.75,298.46,-83.38,-137.8
81799,52.462685,-1.483401,158.61,8.82,3.0,9.67,20 / 22,3758575,2019-09-07 11:29:51:729,1.5567,0.1973,9.9253,0.0031,0.0046,9.8066,0.0155,-0.0023,0.0089,-29.44,-30.19,-3.69,297.48,-83.38,-138.46
81800,52.462685,-1.483401,158.61,8.82,3.0,9.67,20 / 22,3758676,2019-09-07 11:29:51:830,1.2277,0.3404,9.9019,0.0006,-0.0005,9.8066,-0.0016,-0.0174,-0.0014,-29.44,-30.69,-3.87,296.8,-83.36,-138.88
81801,52.462685,-1.483401,158.61,8.82,3.0,9.67,20 / 22,3758775,2019-09-07 11:29:51:929,1.3634,0.1193,9.3848,-0.0033,-0.0049,9.8066,0.0009,0.0251,0.015,-29.81,-30.87,-4.06,297.75,-83.35,-138.44
81802,52.462685,-1.483401,158.61,8.82,3.0,9.67,20 / 22,3758875,2019-09-07 11:29:52:029,1.9812,0.1414,10.267,-0.0011,0.0056,9.8066,0.0007,-0.0141,-0.0205,-30.5,-30.44,-4.31,297.97,-83.41,-138.49
81803,52.462685,-1.483401,158.61,8.82,3.0,9.67,20 / 22,3758976,2019-09-07 11:29:52:130,1.6872,-0.0612,10.6291,0.0054,-0.0046,9.8066,0.0057,-0.0368,-0.0018,-29.44,-31.25,-4.0,297.08,-83.36,-138.62
81804,52.462685,-1.483401,158.61,8.82,3.0,9.67,20 / 22,3759075,2019-09-07 11:29:52:229,1.7781,0.5416,9.5601,0.0099,0.0064,9.8066,0.0329,0.0291,0.0247,-30.44,-31.0,-3.5,298.82,-83.3,-139.24
81805,52.462685,-1.483401,158.61,8.82,3.0,9.67,20 / 22,3759175,2019-09-07 11:29:52:329,0.0808,-0.4507,8.9053,0.0054,-0.0043,9.8066,0.002,-0.0328,0.0022,-31.06,-30.5,-3.56,296.75,-83.19,-139.87
81806,52.462685,-1.483401,158.61,8.82,3.0,9.67,20 / 22,3759277,2019-09-07 11:29:52:431,1.5374,-0.1919,9.0707,-0.0105,0.0016,9.8065,-0.0456,-0.0699,-0.0326,-30.25,-30.75,-4.19,296.44,-83.26,-139.6
81807,52.462685,-1.483401,158.61,8.82,3.0,9.67,20 / 22,3759375,2019-09-07 11:29:52:529,0.63,0.0881,10.1287,-0.0156,-0.0015,9.8066,-0.0314,-0.0314,0.0055,-30.62,-30.37,-4.31,298.12,-83.38,-138.73
81808,52.462685,-1.483401,158.61,8.82,3.0,9.67,20 / 22,3759475,2019-09-07 11:29:52:629,1.1328,-0.39,9.9697,0.0024,-0.0072,9.8066,-0.0144,-0.079,0.0081,-30.56,-30.12,-3.37,300.84,-83.42,-138.0
81809,52.462685,-1.483401,158.61,8.82,3.0,9.67,20 / 22,3759576,2019-09-07 11:29:52:730,0.7052,-0.1232,9.9332,0.0054,0.0055,9.8066,0.0207,-0.0408,-0.01,-31.06,-30.5,-4.37,298.87,-83.35,-138.0
81810,52.462685,-1.483401,158.61,8.82,3.0,9.67,20 / 22,3759675,2019-09-07 11:29:52:829,0.7755,-0.03,9.7177,0.0062,-0.0055,9.8066,-0.0099,-0.045,0.0215,-31.37,-30.0,-4.06,297.85,-83.23,-138.86
81811,52.462685,-1.483401,158.61,8.82,3.0,9.67,20 / 22,3759775,2019-09-07 11:29:52:929,0.0387,0.1229,9.6957,-0.0194,-0.0056,9.8066,-0.0467,-0.0366,0.0097,-30.75,-30.87,-3.75,299.02,-83.28,-137.61
81812,52.462685,-1.483401,158.61,8.82,3.0,9.67,20 / 22,3759875,2019-09-07 11:29:53:029,0.1818,0.1932,10.3153,-0.0039,-0.0063,9.8065,-0.0161,-0.026,0.013,-31.5,-31.19,-5.06,298.59,-83.41,-136.35
81813,52.462685,-1.483401,158.61,8.82,3.0,9.67,20 / 22,3759975,2019-09-07 11:29:53:129,0.0289,-0.3968,9.7445,-0.0008,-0.0015,9.8066,-0.0188,-0.0726,-0.0297,-30.81,-31.69,-4.19,301.02,-83.41,-135.66
81814,52.462685,-1.483401,158.61,8.82,3.0,9.67,20 / 22,3760075,2019-09-07 11:29:53:229,0.4433,-0.5858,10.0676,-0.0048,0.0107,9.8066,-0.0114,-0.0318,-0.0182,-30.19,-31.56,-4.62,298.46,-83.37,-135.75
81815,52.462685,-1.483401,158.61,8.82,3.0,9.67,20 / 22,3760175,2019-09-07 11:29:53:329,-0.1787,-0.0319,9.7265,-0.01,0.0113,9.8066,-0.0254,-0.0345,-0.0196,-31.12,-30.94,-4.44,300.4,-83.56,-136.55
81816,52.46318,-1.483232,159.42,6.98,3.0,14.41,20 / 22,3760276,2019-09-07 11:29:53:430,-0.2053,0.1469,10.1147,-0.0039,0.0059,9.8066,-0.0036,-0.0245,-0.0136,-30.12,-31.5,-4.75,297.9,-83.65,-136.74
81817,52.46318,-1.483232,159.42,6.98,3.0,14.41,20 / 22,3760375,2019-09-07 11:29:53:529,-0.3281,0.1481,9.4042,0.0062,0.0011,9.8066,0.0166,-0.026,0.0183,-31.12,-31.31,-3.87,299.53,-83.63,-137.44
81818,52.46318,-1.483232,159.42,6.98,3.0,14.41,20 / 22,3760475,2019-09-07 11:29:53:629,-0.2489,-0.3395,9.8608,0.0117,-0.0071,9.8066,0.001,-0.0326,0.008,-30.5,-30.69,-3.56,298.69,-83.49,-137.68
81819,52.46318,-1.483232,159.42,6.98,3.0,14.41,20 / 22,3760575,2019-09-07 11:29:53:729,0.538,-0.5368,9.74,0.0027,0.0029,9.8066,-0.0078,-0.0408,-0.0183,-30.62,-32.19,-3.62,298.36,-83.38,-138.13
81820,52.46318,-1.483232,159.42,6.98,3.0,14.41,20 / 22,3760676,2019-09-07 11:29:53:830,-0.2928,0.047,10.3473,-0.0008,-0.0015,9.8066,-0.0154,-0.038,0.0091,-31.31,-31.37,-3.56,298.19,-83.42,-138.51
81821,52.46318,-1.483232,159.42,6.98,3.0,14.41,20 / 22,3760776,2019-09-07 11:29:53:930,0.1258,-0.5664,10.549,0.0021,-0.0175,9.8066,0.0068,-0.0634,0.0499,-31.06,-31.69,-2.87,301.21,-83.33,-137.21
81822,52.46318,-1.483232,159.42,6.98,3.0,14.41,20 / 22,3760875,2019-09-07 11:29:54:029,0.2973,-1.1718,9.6847,0.0134,-0.0039,9.8066,0.0304,-0.0838,0.0388,-31.56,-32.0,-3.0,302.09,-83.17,-136.59
81823,52.46318,-1.483232,159.42,6.98,3.0,14.41,20 / 22,3760975,2019-09-07 11:29:54:129,0.6327,-1.6305,10.0679,0.0076,-0.0005,9.8066,-0.0054,-0.1363,0.0094,-31.81,-31.0,-2.62,301.47,-83.0,-137.21
81824,52.46318,-1.483232,159.42,6.98,3.0,14.41,20 / 22,3761076,2019-09-07 11:29:54:230,0.4538,-1.3242,9.334,0.0034,0.0007,9.8066,-0.0076,-0.1507,0.0301,-32.12,-30.87,-2.94,300.93,-82.94,-137.65
81825,52.46318,-1.483232,159.42,6.98,3.0,14.41,20 / 22,3761175,2019-09-07 11:29:54:329,0.4077,-1.7057,10.4416,-0.0043,-0.0072,9.8066,-0.0471,-0.2039,0.0266,-32.5,-30.87,-2.56,301.45,-82.93,-137.16
81826,52.46318,-1.483232,159.42,6.98,3.0,14.41,21 / 22,3761276,2019-09-07 11:29:54:430,0.4358,-2.1725,9.9413,-0.0058,-0.0036,9.8066,-0.0398,-0.2246,0.0254,-32.44,-30.87,-2.87,302.81,-82.95,-135.9
81827,52.46318,-1.483232,159.42,6.98,3.0,14.41,21 / 22,3761376,2019-09-07 11:29:54:530,-0.1366,-1.8692,9.6009,-0.0021,0.0014,9.8066,-0.0156,-0.2939,0.0042,-33.31,-30.94,-2.19,305.28,-82.98,-135.65
81828,52.46318,-1.483232,159.42,6.98,3.0,14.41,21 / 22,3761475,2019-09-07 11:29:54:629,0.4174,-1.784,10.0609,0.0139,0.0054,9.8065,-0.0108,-0.2682,0.0343,-34.19,-30.94,-2.31,304.87,-82.92,-136.25
81829,52.46318,-1.483232,159.42,6.98,3.0,14.41,21 / 22,3761575,2019-09-07 11:29:54:729,0.0824,-2.0322,9.507,0.0042,-0.0048,9.8066,-0.0226,-0.286,0.0544,-33.69,-32.19,-1.5,306.48,-82.8,-136.15
81830,52.46318,-1.483232,159.42,6.98,3.0,14.41,21 / 22,3761676,2019-09-07 11:29:54:830,0.0968,-2.4111,9.8489,0.0076,-0.0047,9.8066,-0.0132,-0.2997,0.0498,-34.87,-30.44,-1.31,307.15,-82.67,-135.96
81831,52.46318,-1.483232,159.42,6.98,3.0,14.41,21 / 22,3761775,2019-09-07 11:29:54:929,0.5533,-2.5168,9.6295,0.0024,-0.0035,9.8066,-0.0435,-0.3348,0.0296,-35.19,-30.69,-2.0,305.25,-82.56,-135.86
81832,52.46318,-1.483232,159.42,6.98,3.0,14.41,21 / 22,3761875,2019-09-07 11:29:55:029,0.416,-2.5045,9.8933,0.0041,0.0008,9.8066,-0.0264,-0.3415,0.0216,-35.5,-31.06,-1.37,306.96,-82.5,-135.84
81833,52.46318,-1.483232,159.42,6.98,3.0,14.41,21 / 22,3761976,2019-09-07 11:29:55:130,0.3642,-2.397,9.7379,0.008,0.0046,9.8066,-0.0304,-0.384,-0.0028,-35.56,-31.0,-1.31,306.03,-82.47,-136.88
81834,52.46318,-1.483232,159.42,6.98,3.0,14.41,21 / 22,3762075,2019-09-07 11:29:55:229,0.7813,-2.2617,9.3119,0.0094,0.0113,9.8066,-0.009,-0.3637,0.0017,-36.25,-31.19,-0.25,306.42,-82.47,-138.1
81835,52.46318,-1.483232,159.42,6.98,3.0,14.41,21 / 22,3762175,2019-09-07 11:29:55:329,0.9502,-2.6464,9.2896,0.0005,0.001,9.8066,-0.0406,-0.3758,0.0329,-36.44,-31.19,-0.25,305.23,-82.48,-139.23
81836,52.46318,-1.483232,159.42,6.98,3.0,14.41,20 / 22,3762279,2019-09-07 11:29:55:433,0.9576,-2.7283,9.7262,-0.0025,0.0037,9.8065,-0.0479,-0.3715,0.0396,-36.81,-30.69,0.88,306.88,-82.52,-139.4
81837,52.46318,-1.483232,159.42,6.98,3.0,14.41,20 / 22,3762375,2019-09-07 11:29:55:529,0.0348,-2.7014,9.8404,-0.0091,-0.0009,9.8066,-0.0488,-0.3926,0.0281,-37.62,-31.31,1.63,308.93,-82.57,-139.13
81838,52.46318,-1.483232,159.42,6.98,3.0,14.41,20 / 22,3762476,2019-09-07 11:29:55:630,0.5583,-2.3783,10.3944,-0.0009,0.0075,9.8066,-0.0055,-0.3526,0.0495,-37.31,-29.69,0.94,307.63,-82.64,-138.95
81839,52.46318,-1.483232,159.42,6.98,3.0,14.41,20 / 22,3762575,2019-09-07 11:29:55:729,0.8002,-2.3607,10.0535,0.0089,-0.0136,9.8066,-0.0368,-0.4196,0.0417,-38.75,-29.87,1.88,309.15,-82.44,-139.02
81840,52.46318,-1.483232,159.42,6.98,3.0,14.41,20 / 22,3762676,2019-09-07 11:29:55:830,1.156,-2.8869,9.6916,0.0064,-0.0115,9.8066,-0.0246,-0.4024,0.0632,-38.75,-29.06,1.63,309.58,-82.31,-138.68
81841,52.46318,-1.483232,159.42,6.98,3.0,14.41,20 / 22,3762776,2019-09-07 11:29:55:930,0.5564,-3.5188,10.5018,0.001,-0.0097,9.8066,-0.0553,-0.3895,0.0537,-39.56,-29.25,2.5,311.54,-82.16,-138.22
81842,52.46318,-1.483232,159.42,6.98,3.0,14.41,20 / 22,3762875,2019-09-07 11:29:56:029,0.1555,-2.8917,10.3193,-0.0042,-0.0018,9.8066,-0.0444,-0.391,0.0655,-40.12,-30.25,3.06,312.25,-82.11,-137.39
81843,52.46318,-1.483232,159.42,6.98,3.0,14.41,20 / 22,3762975,2019-09-07 11:29:56:129,0.4549,-2.3684,9.8416,0.0106,-0.0103,9.8066,-0.0285,-0.4118,0.0517,-40.37,-29.0,3.56,314.1,-82.0,-137.17
81844,52.46318,-1.483232,159.42,6.98,3.0,14.41,20 / 22,3763076,2019-09-07 11:29:56:230,0.5236,-2.461,9.7515,0.0077,-0.0123,9.8065,-0.0326,-0.3837,0.0654,-40.81,-29.62,4.31,313.95,-81.77,-137.0
81845,52.46318,-1.483232,159.42,6.98,3.0,14.41,20 / 22,3763175,2019-09-07 11:29:56:329,0.1361,-2.8589,10.4968,0.0038,-0.0043,9.8066,-0.0467,-0.4031,0.027,-41.69,-29.0,5.13,315.82,-81.6,-136.63
81846,52.46318,-1.483232,159.42,6.98,3.0,14.41,20 / 22,3763276,2019-09-07 11:29:56:430,0.344,-2.2921,10.1769,-0.0004,-0.0014,9.8066,-0.0522,-0.3579,0.0546,-41.56,-28.87,5.69,317.29,-81.59,-136.62
81847,52.46318,-1.483232,159.42,6.98,3.0,14.41,20 / 22,3763375,2019-09-07 11:29:56:529,-0.033,-2.2854,9.801,-0.0006,-0.0072,9.8066,-0.0354,-0.3503,0.0632,-41.37,-28.37,5.31,316.67,-81.55,-136.03
81848,52.46318,-1.483232,159.42,6.98,3.0,14.41,20 / 22,3763475,2019-09-07 11:29:56:629,0.4085,-2.1959,9.8384,0.0071,-0.0042,9.8066,-0.0196,-0.3418,0.0439,-42.62,-28.37,6.19,318.15,-81.42,-135.77
81849,52.46318,-1.483232,159.42,6.98,3.0,14.41,20 / 22,3763576,2019-09-07 11:29:56:730,-0.0124,-2.1885,10.8214,0.0119,0.0014,9.8066,-0.0197,-0.323,0.0392,-42.75,-28.56,6.75,319.07,-81.32,-136.05
81850,52.46318,-1.483232,159.42,6.98,3.0,14.41,20 / 22,3763675,2019-09-07 11:29:56:829,0.1187,-1.4869,10.1233,0.0131,0.0005,9.8066,0.0046,-0.2931,0.0322,-42.69,-28.94,8.0,319.28,-81.19,-137.11
81851,52.46318,-1.483232,159.42,6.98,3.0,14.41,20 / 22,3763776,2019-09-07 11:29:56:930,0.6326,-1.6352,9.996,0.0188,-0.0004,9.8066,-0.0127,-0.2617,0.0186,-42.69,-28.69,8.63,319.26,-80.99,-138.32
81852,52.46318,-1.483232,159.42,6.98,3.0,14.41,20 / 22,3763875,2019-09-07 11:29:57:029,0.4268,-1.2498,9.3792,0.0088,-0.0015,9.8066,-0.0154,-0.1988,0.0398,-43.19,-28.87,8.75,318.68,-80.94,-138.83
81853,52.46318,-1.483232,159.42,6.98,3.0,14.41,20 / 22,3763975,2019-09-07 11:29:57:129,0.6152,-0.7449,9.9117,-0.0009,0.0013,9.8065,-0.0487,-0.2142,0.0067,-43.81,-28.56,8.81,318.5,-80.89,-138.79
81854,52.46318,-1.483232,159.42,6.98,3.0,14.41,20 / 22,3764076,2019-09-07 11:29:57:230,0.0838,-0.5587,9.4909,-0.0051,0.0005,9.8066,-0.0477,-0.1961,0.0061,-42.87,-28.62,9.13,318.93,-80.95,-138.6
81855,52.46318,-1.483232,159.42,6.98,3.0,14.41,20 / 22,3764175,2019-09-07 11:29:57:329,0.801,-0.2913,9.7085,0.003,-0.0021,9.8066,-0.0142,-0.0928,0.0256,-43.19,-29.0,9.63,320.38,-80.97,-138.57
81856,52.46318,-1.483232,159.42,6.98,3.0,14.41,20 / 21,3764275,2019-09-07 11:29:57:429,0.4706,-0.1713,9.4462,0.0002,-0.008,9.8066,-0.0025,-0.0799,0.0397,-43.37,-28.56,9.94,320.71,-80.88,-138.23
81857,52.46318,-1.483232,159.42,6.98,3.0,14.41,20 / 21,3764376,2019-09-07 11:29:57:530,0.8665,1.0075,9.1411,-0.0012,-0.0103,9.8066,-0.0165,-0.0675,0.0268,-43.87,-28.75,10.31,320.99,-80.68,-137.67
81858,52.46318,-1.483232,159.42,6.98,3.0,14.41,20 / 21,3764476,2019-09-07 11:29:57:630,0.8943,-0.0321,8.7398,-0.0118,-0.017,9.8066,-0.0614,-0.0465,0.0177,-43.62,-28.56,9.94,321.84,-80.66,-136.88
81859,52.46318,-1.483232,159.42,6.98,3.0,14.41,20 / 21,3764576,2019-09-07 11:29:57:730,0.534,-0.0056,9.6647,-0.0286,-0.0131,9.8065,-0.0593,-0.0192,0.0378,-44.31,-27.44,10.0,323.97,-80.71,-135.2
81860,52.46318,-1.483232,159.42,6.98,3.0,14.41,20 / 21,3764675,2019-09-07 11:29:57:829,-0.1789,-0.2166,10.2833,-0.011,-0.0115,9.8066,-0.0105,-0.0163,0.0154,-44.5,-28.0,9.63,326.47,-80.75,-132.82
81861,52.46318,-1.483232,159.42,6.98,3.0,14.41,20 / 21,3764775,2019-09-07 11:29:57:929,0.3349,0.1601,9.5903,0.0243,-0.0008,9.8065,0.0765,-0.0056,-0.0039,-44.5,-28.06,10.0,326.06,-80.63,-133.14
81862,52.46318,-1.483232,159.42,6.98,3.0,14.41,20 / 21,3764876,2019-09-07 11:29:58:030,1.4256,0.3428,9.6008,0.0279,-0.0065,9.8066,0.0431,-0.0333,-0.026,-43.81,-28.0,10.56,324.78,-80.28,-135.4
81863,52.46318,-1.483232,159.42,6.98,3.0,14.41,20 / 21,3764975,2019-09-07 11:29:58:129,1.3682,0.9343,9.7165,-0.0063,0.0008,9.8066,-0.027,0.0293,0.0339,-44.19,-28.19,10.0,322.83,-80.16,-135.88
81864,52.46318,-1.483232,159.42,6.98,3.0,14.41,20 / 21,3765075,2019-09-07 11:29:58:229,-0.4226,-0.2713,9.104,-0.0161,-0.0054,9.8065,-0.0573,-0.0163,-0.0228,-44.5,-28.19,9.25,322.48,-80.23,-134.97
81865,52.46318,-1.483232,159.42,6.98,3.0,14.41,20 / 21,3765175,2019-09-07 11:29:58:329,-0.1939,0.7982,9.9202,-0.0071,0.0015,9.8066,-0.035,-0.0024,-0.0032,-44.56,-27.75,9.5,324.29,-80.43,-134.46
81866,52.46318,-1.483232,159.42,6.98,3.0,14.41,20 / 21,3765275,2019-09-07 11:29:58:429,-0.3693,0.2941,10.771,0.0015,-0.0066,9.8066,0.0046,0.0065,0.0198,-44.81,-27.75,9.56,324.96,-80.45,-133.86
81867,52.46318,-1.483232,159.42,6.98,3.0,14.41,20 / 21,3765375,2019-09-07 11:29:58:529,0.1723,0.6819,10.0258,0.0151,-0.0035,9.8066,0.0277,-0.0179,-0.0095,-44.5,-28.12,10.06,324.7,-80.34,-134.25
81868,52.46318,-1.483232,159.42,6.98,3.0,14.41,20 / 21,3765475,2019-09-07 11:29:58:629,0.1521,0.3843,10.7481,0.0073,-0.0087,9.8066,0.014,0.0012,0.0172,-44.5,-27.5,10.0,324.03,-80.13,-134.9
81869,52.46318,-1.483232,159.42,6.98,3.0,14.41,20 / 21,3765576,2019-09-07 11:29:58:730,0.2415,0.4924,9.3718,-0.0013,-0.0036,9.8066,-0.0201,0.0094,0.0031,-44.56,-27.81,10.19,323.78,-80.06,-134.77
81870,52.46318,-1.483232,159.42,6.98,3.0,14.41,20 / 21,3765676,2019-09-07 11:29:58:830,0.0439,0.2207,8.267,-0.009,-0.0062,9.8066,-0.0277,0.0004,-0.0171,-44.25,-28.06,9.75,324.68,-80.07,-134.15
81871,52.46318,-1.483232,159.42,6.98,3.0,14.41,20 / 21,3765776,2019-09-07 11:29:58:930,-0.5751,0.7938,10.0069,-0.0075,0.0087,9.8066,-0.0179,0.0096,-0.026,-44.44,-27.87,10.06,325.05,-80.12,-133.84
81872,52.46318,-1.483232,159.42,6.98,3.0,14.41,20 / 21,3765875,2019-09-07 11:29:59:029,0.2152,0.6167,9.9265,0.0018,0.006,9.8066,0.0048,0.0109,-0.0393,-44.81,-28.06,10.13,324.59,-80.27,-134.12
81873,52.46318,-1.483232,159.42,6.98,3.0,14.41,20 / 21,3765975,2019-09-07 11:29:59:129,0.1192,1.2514,9.8188,0.012,0.0008,9.8065,-0.0071,-0.025,-0.0446,-44.62,-27.94,10.44,323.64,-80.33,-135.01
81874,52.46318,-1.483232,159.42,6.98,3.0,14.41,20 / 21,3766075,2019-09-07 11:29:59:229,-0.0934,0.7424,9.3744,0.0019,-0.0058,9.8066,-0.0179,-0.0088,-0.0271,-44.19,-28.69,10.19,323.22,-80.24,-135.43
81875,52.46318,-1.483232,159.42,6.98,3.0,14.41,20 / 21,3766176,2019-09-07 11:29:59:330,-0.5901,0.1661,9.8572,-0.0064,-0.0017,9.8066,-0.0119,0.0304,-0.0029,-44.44,-27.69,9.69,323.83,-80.24,-135.0
81876,52.46318,-1.483232,159.42,6.98,3.0,14.41,20 / 21,3766275,2019-09-07 11:29:59:429,-0.204,0.8446,9.6826,0.0018,0.001,9.8066,0.0106,0.0469,0.0065,-44.69,-28.62,9.63,323.48,-80.22,-134.98
81877,52.46318,-1.483232,159.42,6.98,3.0,14.41,20 / 21,3766376,2019-09-07 11:29:59:530,-0.3026,0.1527,9.7161,-0.0032,-0.0124,9.8065,-0.0233,-0.0326,-0.0095,-44.19,-27.75,9.88,323.99,-80.16,-134.82
81878,52.46318,-1.483232,159.42,6.98,3.0,14.41,20 / 21,3766475,2019-09-07 11:29:59:629,-0.6405,0.3531,9.695,-0.0033,0.0054,9.8066,-0.0187,0.0195,-0.0203,-44.25,-28.19,9.75,324.6,-80.12,-134.25
81879,52.46318,-1.483232,159.42,6.98,3.0,14.41,20 / 21,3766576,2019-09-07 11:29:59:730,-0.6897,0.399,9.9241,-0.0028,0.004,9.8066,-0.0039,0.0397,-0.0187,-43.94,-28.06,9.44,323.26,-80.16,-134.22
81880,52.46318,-1.483232,159.42,6.98,3.0,14.41,20 / 21,3766676,2019-09-07 11:29:59:830,-0.4814,1.075,9.7095,0.0048,0.0092,9.8066,0.0124,0.0372,-0.0413,-44.37,-27.62,9.19,322.74,-80.25,-134.74
81881,52.46318,-1.483232,159.42,6.98,3.0,14.41,20 / 21,3766775,2019-09-07 11:29:59:929,0.1555,0.9791,10.0299,0.0051,0.0019,9.8066,0.0123,0.0517,-0.0071,-44.31,-28.44,9.75,323.25,-80.24,-135.53
81882,52.46318,-1.483232,159.42,6.98,3.0,14.41,20 / 21,3766875,2019-09-07 11:30:00:029,0.0124,1.1587,9.8336,0.0025,0.0004,9.8066,-0.011,0.0271,-0.0101,-44.06,-28.25,9.69,322.99,-80.24,-135.77
81883,52.46318,-1.483232,159.42,6.98,3.0,14.41,20 / 21,3766976,2019-09-07 11:30:00:130,-0.3925,0.4703,10.1461,-0.0036,-0.0047,9.8066,-0.0163,0.0224,-0.0231,-43.81,-27.81,9.13,321.98,-80.23,-135.42
81884,52.46318,-1.483232,159.42,6.98,3.0,14.41,20 / 21,3767075,2019-09-07 11:30:00:229,0.0476,0.9075,9.6683,0.0041,-0.0018,9.8066,0.0081,0.024,-0.014,-44.0,-27.69,9.06,322.03,-80.23,-135.37
81885,52.46318,-1.483232,159.42,6.98,3.0,14.41,20 / 21,3767176,2019-09-07 11:30:00:330,-0.2277,0.5693,9.5533,0.0045,-0.0034,9.8066,0.003,0.0169,-0.0137,-44.12,-27.87,8.75,321.97,-80.16,-135.4
81886,52.46318,-1.483232,159.42,6.98,3.0,14.41,20 / 21,3767276,2019-09-07 11:30:00:430,-0.0808,0.9523,9.9443,0.0031,-0.0005,9.8066,-0.0064,0.0119,-0.0238,-43.81,-27.87,9.44,321.73,-80.09,-135.58
81887,52.46318,-1.483232,159.42,6.98,3.0,14.41,20 / 21,3767375,2019-09-07 11:30:00:529,-0.2137,0.8711,10.2101,0.0026,0.0031,9.8066,0.0157,0.065,-0.004,-44.44,-27.81,9.06,321.51,-80.05,-135.76
81888,52.46318,-1.483232,159.42,6.98,3.0,14.41,20 / 21,3767475,2019-09-07 11:30:00:629,-0.2564,0.8451,10.2054,0.0063,-0.0004,9.8066,0.0217,0.0492,0.0027,-43.87,-27.87,9.44,321.13,-80.03,-136.1
81889,52.46318,-1.483232,159.42,6.98,3.0,14.41,20 / 21,3767575,2019-09-07 11:30:00:729,0.295,1.0961,10.4661,0.0058,-0.001,9.8066,-0.0076,-0.0026,-0.0522,-44.0,-28.44,9.63,322.16,-79.99,-136.4
81890,52.46318,-1.483232,159.42,6.98,3.0,14.41,20 / 21,3767675,2019-09-07 11:30:00:829,-0.3227,0.7946,9.8688,-0.0033,-0.0025,9.8066,-0.0249,0.0012,-0.0258,-43.69,-28.0,9.0,320.56,-79.97,-136.58
81891,52.46318,-1.483232,159.42,6.98,3.0,14.41,20 / 21,3767776,2019-09-07 11:30:00:930,-0.0514,0.8059,10.0137,-0.008,0.0007,9.8066,-0.0131,0.0715,0.0054,-44.06,-28.25,9.06,320.84,-80.02,-136.36
81892,52.46318,-1.483232,159.42,6.98,3.0,14.41,20 / 21,3767875,2019-09-07 11:30:01:029,-0.2733,0.3946,9.1264,-0.0097,-0.0071,9.8066,-0.0196,0.0328,0.014,-43.56,-27.56,8.94,321.88,-80.05,-135.42
81893,52.46318,-1.483232,159.42,6.98,3.0,14.41,20 / 21,3767976,2019-09-07 11:30:01:130,0.1711,0.4656,9.7825,-0.0055,-0.0051,9.8066,-0.0343,-0.0003,-0.0027,-43.94,-27.62,8.88,322.88,-80.0,-134.49
81894,52.46318,-1.483232,159.42,6.98,3.0,14.41,20 / 21,3768075,2019-09-07 11:30:01:229,-0.2642,0.5897,9.5688,-0.0118,-0.0104,9.8066,-0.0347,-0.0023,0.0139,-43.75,-28.12,8.56,323.97,-79.99,-133.5
81895,52.46318,-1.483232,159.42,6.98,3.0,14.41,20 / 21,3768176,2019-09-07 11:30:01:330,-0.5414,1.1289,11.3095,0.0049,-0.0077,9.8065,0.0646,0.0479,0.038,-44.12,-28.25,9.0,324.76,-79.96,-132.77
81896,52.46318,-1.483232,159.42,6.98,3.0,14.41,21 / 22,3768275,2019-09-07 11:30:01:429,0.057,0.7868,10.413,0.0386,0.0015,9.8065,0.1148,0.0542,0.0155,-43.69,-28.44,8.88,323.87,-79.68,-133.45
81897,52.46318,-1.483232,159.42,6.98,3.0,14.41,21 / 22,3768375,2019-09-07 11:30:01:529,2.2381,0.0388,10.6514,0.0369,-0.0076,9.8065,0.0175,-0.0267,-0.0236,-43.75,-27.69,9.69,321.75,-79.26,-136.43
81898,52.46318,-1.483232,159.42,6.98,3.0,14.41,21 / 22,3768476,2019-09-07 11:30:01:630,-0.2137,-0.0405,9.8431,-0.0115,0.0056,9.8066,-0.0694,-0.0243,-0.0498,-44.19,-28.12,9.63,321.14,-79.07,-136.89
81899,52.46318,-1.483232,159.42,6.98,3.0,14.41,21 / 22,3768575,2019-09-07 11:30:01:729,-0.3624,0.6887,9.4432,-0.0334,0.0046,9.8065,-0.107,-0.0085,-0.0242,-44.25,-27.62,9.56,322.92,-79.4,-135.44
81900,52.46318,-1.483232,159.42,6.98,3.0,14.41,21 / 22,3768675,2019-09-07 11:30:01:829,-0.8895,0.5005,10.1073,-0.0214,0.0123,9.8066,-0.0533,0.0113,-0.025,-44.37,-28.62,8.5,323.57,-79.84,-133.66
81901,52.46318,-1.483232,159.42,6.98,3.0,14.41,21 / 22,3768775,2019-09-07 11:30:01:929,0.0083,0.7504,9.635,0.0081,0.006,9.8066,0.0275,0.0006,-0.0121,-44.0,-27.69,8.88,323.37,-79.92,-134.01
81902,52.46318,-1.483232,159.42,6.98,3.0,14.41,21 / 22,3768875,2019-09-07 11:30:02:029,-0.1491,0.6855,9.7468,0.0158,0.0,9.8066,0.0263,-0.0018,-0.027,-44.31,-28.12,8.69,322.52,-79.81,-134.73
81903,52.46318,-1.483232,159.42,6.98,3.0,14.41,21 / 22,3768975,2019-09-07 11:30:02:129,0.0298,0.6093,9.835,0.0022,-0.0041,9.8066,-0.0256,0.0296,0.0214,-44.25,-28.12,8.88,321.81,-79.68,-135.31
81904,52.46318,-1.483232,159.42,6.98,3.0,14.41,21 / 22,3769075,2019-09-07 11:30:02:229,-0.4667,0.4827,9.7388,-0.0149,0.0054,9.8066,-0.0554,-0.0268,-0.032,-44.12,-28.0,8.88,322.53,-79.75,-134.69
81905,52.46318,-1.483232,159.42,6.98,3.0,14.41,21 / 22,3769175,2019-09-07 11:30:02:329,-0.3269,0.5584,9.71,-0.014,-0.006,9.8066,-0.021,-0.0209,-0.0007,-43.94,-27.94,8.81,323.97,-79.87,-133.45
81906,52.46345,-1.482253,159.95,9.91,3.0,78.09,21 / 21,3769278,2019-09-07 11:30:02:432,-0.0574,0.4723,9.8566,0.0004,-0.0026,9.8066,0.006,0.02,0.0044,-44.06,-28.06,8.81,324.39,-79.85,-133.06
81907,52.46345,-1.482253,159.95,9.91,3.0,78.09,21 / 21,3769375,2019-09-07 11:30:02:529,-0.3739,0.4595,10.0273,0.0017,-0.0025,9.8066,0.0071,0.0025,-0.0107,-44.69,-28.0,8.63,324.02,-79.8,-133.2
81908,52.46345,-1.482253,159.95,9.91,3.0,78.09,21 / 21,3769476,2019-09-07 11:30:02:630,0.0708,0.5363,9.2973,0.0049,0.0019,9.8066,0.0012,0.0083,-0.0211,-43.87,-27.81,8.81,323.59,-79.77,-133.74
81909,52.46345,-1.482253,159.95,9.91,3.0,78.09,21 / 21,3769575,2019-09-07 11:30:02:729,-0.2509,0.6503,10.1261,0.0007,0.0026,9.8066,0.0008,0.0033,-0.0222,-44.25,-27.81,8.94,323.48,-79.79,-133.86
81910,52.46345,-1.482253,159.95,9.91,3.0,78.09,21 / 21,3769675,2019-09-07 11:30:02:829,-0.2932,0.6676,9.545,0.0024,-0.0053,9.8065,0.0065,0.0319,0.0232,-43.75,-27.87,8.75,323.12,-79.8,-134.19
81911,52.46345,-1.482253,159.95,9.91,3.0,78.09,21 / 21,3769775,2019-09-07 11:30:02:929,-0.1058,0.4768,10.8539,0.0091,-0.0079,9.8065,0.0286,0.0223,0.0027,-44.0,-27.06,8.06,321.82,-79.66,-134.16
81912,52.46345,-1.482253,159.95,9.91,3.0,78.09,21 / 21,3769876,2019-09-07 11:30:03:030,-0.1135,0.605,9.727,0.0027,-0.0014,9.8066,-0.0032,-0.0058,-0.0211,-43.75,-27.25,8.88,322.75,-79.58,-134.55
81913,52.46345,-1.482253,159.95,9.91,3.0,78.09,21 / 21,3769975,2019-09-07 11:30:03:129,-0.2441,0.7628,9.5486,-0.001,-0.0023,9.8066,-0.0031,0.0354,-0.0082,-44.19,-27.0,9.31,322.9,-79.51,-134.39
81914,52.46345,-1.482253,159.95,9.91,3.0,78.09,21 / 21,3770075,2019-09-07 11:30:03:229,-0.3068,0.7592,10.4278,-0.0031,0.0042,9.8066,0.0021,0.0599,0.0057,-44.31,-27.81,8.5,322.78,-79.59,-134.39
81915,52.46345,-1.482253,159.95,9.91,3.0,78.09,21 / 21,3770176,2019-09-07 11:30:03:330,-0.2109,1.0395,9.873,0.0054,0.0171,9.8065,0.0046,-0.0053,-0.0489,-43.62,-27.5,9.25,322.17,-79.71,-135.14
81916,52.46345,-1.482253,159.95,9.91,3.0,78.09,21 / 22,3770275,2019-09-07 11:30:03:429,0.0489,1.1062,9.297,0.0031,0.003,9.8066,0.0118,0.0371,0.0044,-43.69,-27.25,9.25,321.39,-79.77,-135.88
81917,52.46345,-1.482253,159.95,9.91,3.0,78.09,21 / 22,3770376,2019-09-07 11:30:03:530,0.1874,-0.0489,9.5979,-0.0053,0.0013,9.8066,-0.0429,0.0148,-0.0453,-43.75,-27.81,8.94,321.23,-79.8,-135.89
81918,52.46345,-1.482253,159.95,9.91,3.0,78.09,21 / 22,3770476,2019-09-07 11:30:03:630,-0.4446,0.4366,10.2193,-0.013,0.0161,9.8066,-0.0394,0.0133,-0.0379,-44.12,-27.87,8.69,321.37,-80.04,-135.88
81919,52.46345,-1.482253,159.95,9.91,3.0,78.09,21 / 22,3770576,2019-09-07 11:30:03:730,-0.5047,0.9806,9.8799,-0.0077,0.0067,9.8066,0.0163,0.0045,0.0181,-43.44,-27.44,8.25,320.43,-80.32,-135.89
81920,52.46345,-1.482253,159.95,9.91,3.0,78.09,21 / 22,3770675,2019-09-07 11:30:03:829,0.4368,0.7491,9.556,0.0136,-0.0034,9.8066,0.0341,0.0013,0.0032,-42.94,-28.25,9.19,321.09,-80.2,-136.39
81921,52.46345,-1.482253,159.95,9.91,3.0,78.09,21 / 22,3770776,2019-09-07 11:30:03:930,-0.1761,0.5935,9.5231,0.0008,-0.0043,9.8066,-0.0145,0.0121,0.0095,-43.44,-27.75,8.44,319.54,-80.09,-136.45
81922,52.46345,-1.482253,159.95,9.91,3.0,78.09,21 / 22,3770875,2019-09-07 11:30:04:029,-0.0258,0.199,9.8788,-0.0099,0.0063,9.8066,-0.0232,0.0165,-0.0069,-43.75,-27.94,9.06,321.26,-80.09,-136.01
81923,52.46345,-1.482253,159.95,9.91,3.0,78.09,21 / 22,3770975,2019-09-07 11:30:04:129,-0.3506,0.4228,9.5808,-0.0054,0.0045,9.8066,-0.0001,0.0149,-0.0137,-43.87,-28.25,9.06,321.66,-80.24,-135.72
81924,52.46345,-1.482253,159.95,9.91,3.0,78.09,21 / 22,3771075,2019-09-07 11:30:04:229,0.0538,0.9282,9.6056,0.0056,0.0088,9.8066,-0.001,0.0007,-0.0384,-43.87,-27.69,8.63,321.1,-80.31,-136.26
81925,52.46345,-1.482253,159.95,9.91,3.0,78.09,21 / 22,3771175,2019-09-07 11:30:04:329,-0.1718,0.5374,10.2027,-0.0047,0.0037,9.8066,-0.0097,0.0268,-0.0068,-43.37,-28.94,8.5,320.61,-80.42,-136.8
81926,52.46345,-1.482253,159.95,9.91,3.0,78.09,21 / 22,3771276,2019-09-07 11:30:04:430,-0.6081,0.9276,10.1061,0.002,0.0057,9.8066,0.0165,0.02,0.0017,-43.44,-28.62,8.56,320.64,-80.5,-136.81
81927,52.46345,-1.482253,159.95,9.91,3.0,78.09,21 / 22,3771375,2019-09-07 11:30:04:529,0.0762,0.8264,9.7178,0.0032,-0.008,9.8066,0.0154,-0.007,0.0266,-43.87,-28.94,9.25,320.13,-80.47,-137.09
