,GPS LATITUDE (degrees), GPS LONGITUDE (degrees), GPS ALTITUDE (m), GPS SPEED (Kmh), GPS ACCURACY (m), GPS ORIENTATION (Â°),GPS SATELLITES IN RANGE, TIME SINCE START (ms), DATE (YYYY-MO-DD HH-MI-SS_SSS), ACCELEROMETER X (m/s²) , ACCELEROMETER Y (m/s²), ACCELEROMETER Z (m/s²), GRAVITY X (m/s²), GRAVITY Y (m/s²), GRAVITY Z (m/s²), GYROSCOPE Yaw (rad/s), GYROSCOPE Pitch (rad/s), GYROSCOPE Roll (rad/s), MAGNETIC FIELD X (Î¼T), MAGNETIC FIELD Y (Î¼T), MAGNETIC FIELD Z (Î¼T), ORIENTATION (Yaw) (Â°), ORIENTATION (Pitch) (Â°), ORIENTATION (Roll ) (Â°)
10808,52.464706,-1.498695,480.65,75.28,9.677419,114.1,Dec-21,5404054,2019-09-28 15:02:01:743,-0.2698,-0.1899,9.1348,-0.1668,0.3215,9.8,-0.0347,-0.0357,0.0155,-15.65,-23.94,9.05,123.22,0.87,-1.57
10809,52.464706,-1.498695,480.65,75.28,9.677419,114.1,Dec-21,5404555,2019-09-28 15:02:02:244,0.4159,-0.1471,9.2748,-0.174,0.252,9.8019,0.0036,0.0325,0.0123,-15.68,-23.48,10.15,124.23,0.95,-1.7
10810,52.46463,-1.498417,480.65,73.66,9.677419,114.5,Nov-21,5405054,2019-09-28 15:02:02:743,0.2048,-0.0661,8.6784,-0.1845,0.2217,9.8024,-0.039,-0.058,0.0144,-15.68,-23.98,8.89,123.24,0.98,-1.21
10811,52.46457,-1.498167,480.65,72.22,9.677419,114.7,Nov-21,5405553,2019-09-28 15:02:03:242,0.0168,0.2395,9.5758,-0.0996,0.1996,9.8041,0.0239,-0.0335,-0.0133,-15.49,-23.69,9.95,121.63,0.58,-1.17
10812,52.46457,-1.498167,480.65,72.22,9.677419,114.7,Nov-21,5406054,2019-09-28 15:02:03:743,-0.2892,0.1096,7.9592,-0.0921,0.1833,9.8045,0.0026,-0.0517,0.0016,-15.54,-24.27,8.32,123.39,0.41,-1.02
10813,52.46457,-1.498167,480.65,72.22,9.677419,114.7,Nov-21,5406553,2019-09-28 15:02:04:242,0.8714,-1.0023,10.8694,-0.0191,0.104,9.8061,-0.0241,-0.058,0.0133,-15.91,-23.66,9.32,123.56,0.11,-0.61
10814,52.46448,-1.497901,480.65,71.39,9.677419,115.2,Dec-21,5407054,2019-09-28 15:02:04:743,-0.525,0.4678,10.18,0.0286,0.0753,9.8063,0.0292,0.0559,-0.0229,-16.46,-23.24,9.43,124.73,-0.02,-0.53
10815,52.46448,-1.497901,480.65,71.39,9.677419,115.2,Dec-21,5407554,2019-09-28 15:02:05:243,0.3069,-0.3116,8.8534,-0.0842,-0.0114,9.8063,0.0324,-0.0272,-0.0101,-15.58,-23.84,9.42,123.57,0.49,0.07
10816,52.4644,-1.497638,480.65,70.24,12.903226,115.6,Nov-21,5408053,2019-09-28 15:02:05:742,-0.1756,-1.1722,9.5129,-0.0504,-0.2441,9.8035,0.009,0.1081,0.0176,-16.86,-22.45,10.58,126.53,0.53,1.05
10817,52.4644,-1.497638,480.65,70.24,12.903226,115.6,Nov-21,5408553,2019-09-28 15:02:06:242,0.3982,-1.2519,10.2919,0.0536,-0.3635,9.7998,0.0548,-0.0431,-0.0271,-17.79,-21.9,10.2,129.84,-0.3,1.97
10818,52.46433,-1.497391,480.65,68.69,9.677419,115.6,Nov-21,5409053,2019-09-28 15:02:06:742,0.2856,-0.8065,9.0904,0.0679,-0.3507,9.8001,0.0164,-0.0026,-0.0389,-16.17,-23.26,9.87,129.83,-0.27,2.19
10819,52.46433,-1.497391,480.65,68.69,9.677419,115.6,Nov-21,5409554,2019-09-28 15:02:07:243,0.242,-0.2697,9.0172,0.1831,-0.396,9.7969,0.0132,0.0623,0.0006,-15.73,-22.67,15.56,134.41,-0.77,2.25
10820,52.46425,-1.49714,483.87,68.26,9.677419,115.7,Nov-21,5410054,2019-09-28 15:02:07:743,0.21,-0.0427,9.2002,0.2167,-0.4561,9.7936,-0.0091,0.0005,0.0251,-12.42,-21.54,25.25,121.28,-1.41,2.7
10821,52.46425,-1.49714,483.87,68.26,9.677419,115.7,Nov-21,5410553,2019-09-28 15:02:08:242,-0.1422,-0.3478,9.6913,0.3372,-0.4071,9.7924,-0.0304,-0.0154,0.0197,-3.23,-19.67,24.0,101.43,-1.93,2.42
10822,52.46418,-1.496895,483.87,67.21,9.677419,115.9,Nov-21,5411054,2019-09-28 15:02:08:743,-0.0996,-0.1655,9.0194,0.4143,-0.3809,9.7905,0.0047,0.0123,-0.0026,-16.47,-15.2,19.94,139.85,-2.32,2.28
10823,52.46418,-1.496895,483.87,67.21,9.677419,115.9,Nov-21,5411555,2019-09-28 15:02:09:244,0.7268,-0.2733,8.664,0.4358,-0.3464,9.7908,0.0207,-0.0346,-0.0442,-8.12,-16.33,23.82,120.96,-2.55,2.03
10824,52.46412,-1.496659,483.87,67.46,9.677419,116.1,Nov-21,5412054,2019-09-28 15:02:09:743,0.5272,-0.4996,10.395,0.5165,-0.3589,9.7865,-0.0283,0.0261,0.0091,-15.73,-14.54,22.31,146.28,-2.87,2.04
10825,52.46412,-1.496659,483.87,67.46,9.677419,116.1,Nov-21,5412553,2019-09-28 15:02:10:242,0.8619,-0.7523,11.0282,0.5447,-0.3642,9.7847,0.0303,-0.041,-0.0314,-11.3,-11.98,33.68,141.79,-3.05,2.03
10826,52.46404,-1.496411,487.1,67.07,9.677419,116.3,Dec-21,5413054,2019-09-28 15:02:10:743,0.0093,-0.5245,9.4283,0.5632,-0.3598,9.7839,-0.04,0.0123,0.0315,-15.36,-9.79,28.18,151.7,-3.25,2.18
10827,52.46404,-1.496411,487.1,67.07,9.677419,116.3,Dec-21,5413554,2019-09-28 15:02:11:243,0.5515,-0.7695,10.2686,0.5867,-0.3625,9.7824,0.0239,-0.0208,-0.0293,-11.67,-17.48,35.81,132.1,-3.41,2.1
10828,52.463966,-1.496162,487.1,68.26,9.677419,116.4,Dec-21,5414054,2019-09-28 15:02:11:743,0.4739,-0.5129,8.8513,0.5893,-0.3795,9.7816,-0.0091,-0.0314,-0.0069,-3.55,-10.1,28.68,123.04,-3.42,2.29
10829,52.463966,-1.496162,487.1,68.26,9.677419,116.4,Dec-21,5414554,2019-09-28 15:02:12:243,-0.2455,-0.8768,9.3951,0.6009,-0.3728,9.7811,0.0239,-0.008,-0.0399,-25.3,-22.6,30.75,141.01,-3.56,2.19
10830,52.463894,-1.495909,487.1,68.83,9.677419,116.5,Dec-21,5415053,2019-09-28 15:02:12:742,0.0395,-0.2752,9.5857,0.5978,-0.3884,9.7807,-0.0326,0.0378,0.0325,-15.36,-17.88,18.56,102.18,-3.53,2.39
10831,52.463894,-1.495909,487.1,68.83,9.677419,116.5,Dec-21,5415553,2019-09-28 15:02:13:242,-0.3985,0.248,8.1239,0.6333,-0.3598,9.7796,0.0271,-0.0623,-0.0133,-13.69,-10.5,24.54,147.14,-3.71,2.08
10832,52.463802,-1.495644,487.1,69.41,9.677419,117.0,Dec-21,5416053,2019-09-28 15:02:13:742,0.8643,-0.9743,8.9097,0.5953,-0.3193,9.7834,-0.0166,0.0208,0.024,-11.59,-20.45,18.64,124.25,-3.49,1.91
10833,52.463802,-1.495644,487.1,69.41,9.677419,117.0,Dec-21,5416554,2019-09-28 15:02:14:243,0.148,0.0197,9.567,0.6227,-0.2966,9.7824,-0.0038,-0.0229,-0.041,-17.46,-20.97,12.47,130.72,-3.56,1.75
10834,52.463722,-1.495389,490.32,70.02,9.677419,117.4,Dec-21,5417053,2019-09-28 15:02:14:742,0.7721,-0.8394,9.4657,0.5702,-0.3101,9.7851,-0.0091,0.0027,-0.0048,-19.42,-17.48,22.31,141.15,-3.44,1.64
10835,52.463722,-1.495389,490.32,70.02,9.677419,117.4,Dec-21,5417554,2019-09-28 15:02:15:243,0.2948,-0.2378,8.3989,0.5074,-0.2927,9.7891,-0.0198,-0.0367,-0.0335,-8.98,-11.79,26.08,132.87,-3.04,1.78
10836,52.463642,-1.495133,493.55,69.98,9.677419,117.7,Dec-21,5418054,2019-09-28 15:02:15:743,0.607,-0.3005,10.4447,0.4614,-0.2522,9.7925,-0.0432,0.008,0.0336,-11.92,-14.12,23.64,134.47,-2.7,1.48
10837,52.463642,-1.495133,493.55,69.98,9.677419,117.7,Dec-21,5418554,2019-09-28 15:02:16:243,0.079,0.0298,9.823,0.4152,-0.2673,9.7942,0.0026,0.024,-0.0037,-9.35,-17.52,22.49,119.92,-2.57,1.61
10838,52.46356,-1.494857,493.55,70.67,9.677419,118.0,Dec-21,5419053,2019-09-28 15:02:16:742,0.8548,-0.7325,8.7033,0.4066,-0.2937,9.7938,0.0143,0.0506,-0.0165,-16.61,-14.3,20.48,143.05,-2.36,1.69
10839,52.46356,-1.494857,493.55,70.67,9.677419,118.0,Dec-21,5419553,2019-09-28 15:02:17:242,-0.2198,0.4561,9.6934,0.3793,-0.3102,9.7944,0.0058,-0.0176,0.0027,-13.86,-5.35,28.25,169.34,-2.19,1.83
10840,52.46348,-1.494597,493.55,70.42,9.677419,118.1,Dec-21,5420055,2019-09-28 15:02:17:744,0.6666,-0.8279,10.6604,0.3766,-0.3505,9.7931,0.0026,-0.0548,-0.0314,-3.55,-10.85,28.25,116.98,-2.2,2.05
10841,52.46348,-1.494597,493.55,70.42,9.677419,118.1,Dec-21,5420553,2019-09-28 15:02:18:242,0.5834,-0.3096,9.159,0.3513,-0.3387,9.7945,-0.0049,-0.0453,-0.0143,-8.36,-12.16,26.12,129.08,-2.19,1.99
10842,52.4634,-1.494352,493.55,70.09,9.677419,118.4,Dec-21,5421054,2019-09-28 15:02:18:743,0.5107,-1.1802,9.9927,0.3315,-0.2881,9.7968,0.0356,0.0005,-0.0516,-10.25,-18.92,20.91,120.33,-2.01,1.7
10843,52.4634,-1.494352,493.55,70.09,9.677419,118.4,Dec-21,5421555,2019-09-28 15:02:19:244,0.1519,0.1448,10.0514,0.2496,-0.338,9.7976,0.0367,-0.0112,-0.0538,-19.36,-8.29,26.62,160.24,-1.49,1.95
10844,52.46333,-1.4941,493.55,69.7,9.677419,118.6,Dec-21,5422054,2019-09-28 15:02:19:743,0.696,-0.8548,9.6793,0.2662,-0.3368,9.7972,0.0249,0.0261,-0.0207,-12.31,-9.57,25.63,122.33,-1.49,1.88
10845,52.46333,-1.4941,493.55,69.7,9.677419,118.6,Dec-21,5422555,2019-09-28 15:02:20:244,0.6531,-0.4717,10.3558,0.2092,-0.3101,9.7995,0.0207,0.0037,-0.0229,-15.73,-9.73,26.56,151.19,-1.23,1.86
10846,52.46326,-1.493865,496.77,69.08,9.677419,118.8,13 / 21,5423055,2019-09-28 15:02:20:744,0.2541,-0.6063,8.9789,0.2293,-0.378,9.7967,-0.0028,0.008,-0.0229,-14.3,-7.02,25.42,157.46,-1.33,2.16
10847,52.46326,-1.493865,496.77,69.08,9.677419,118.8,13 / 21,5423554,2019-09-28 15:02:21:243,0.283,0.8327,10.2068,0.2048,-0.2873,9.8003,0.0058,0.0037,-0.0143,-12.73,-9.73,27.5,146.27,-1.26,1.94
10848,52.463177,-1.493619,493.55,69.01,9.677419,119.0,Dec-21,5424054,2019-09-28 15:02:21:743,0.6194,-1.0382,10.2538,0.3405,-0.3501,9.7945,0.0516,0.0016,-0.0357,-16.54,-18.55,16.8,125.76,-1.17,1.96
10849,52.463085,-1.493368,493.55,69.05,9.677419,119.4,Dec-21,5424554,2019-09-28 15:02:22:243,0.2415,0.5508,10.8602,0.3127,-0.2883,9.7974,-0.0198,-0.0037,-0.0026,-19.76,-20.74,8.91,135.85,-1.58,2.04
10850,52.463085,-1.493368,493.55,69.05,9.677419,119.4,Dec-21,5425053,2019-09-28 15:02:22:742,0.3781,-0.7554,9.2104,0.3536,-0.3095,9.7954,0.0484,0.0059,-0.0261,-19.02,-21.47,8.77,132.96,-1.92,1.62
10851,52.463085,-1.493368,493.55,69.05,9.677419,119.4,Dec-21,5425554,2019-09-28 15:02:23:243,1.4671,-0.8238,9.4312,0.3767,-0.2785,9.7955,-0.0028,0.0442,-0.0005,-18.91,-21.87,8.02,131.59,-2.2,1.63
10852,52.46299,-1.493121,493.55,69.34,9.677419,119.9,Dec-21,5426054,2019-09-28 15:02:23:743,-0.2272,0.1578,9.7045,0.3496,-0.2209,9.7979,0.0015,0.0219,-0.009,-16.48,-22.86,10.3,125.75,-2.1,1.39
10853,52.46299,-1.493121,493.55,69.34,9.677419,119.9,Dec-21,5426554,2019-09-28 15:02:24:243,-0.2934,-0.4264,9.5233,0.348,-0.2974,9.796,-0.0017,0.0123,0.0208,-19.25,-21.19,8.96,131.65,-2.03,1.65
10854,52.462906,-1.492868,496.77,69.44,9.677419,120.3,Dec-21,5427054,2019-09-28 15:02:24:743,-1.1805,0.7527,9.0481,0.2698,-0.2367,9.8001,0.0271,0.0091,-0.009,-19.21,-21.09,9.28,132.85,-1.67,1.42
10855,52.462906,-1.492868,496.77,69.44,9.677419,120.3,13 / 21,5427555,2019-09-28 15:02:25:244,-0.1398,-0.2042,9.4521,0.2338,-0.2983,9.7993,-0.0209,-0.0495,0.0325,-19.14,-21.06,9.49,132.93,-1.38,1.68
10856,52.462807,-1.492617,496.77,69.16,9.677419,120.6,13 / 21,5428054,2019-09-28 15:02:25:743,-0.1676,0.3131,9.6968,0.174,-0.3491,9.7989,0.0739,0.0314,-0.0516,-19.26,-20.69,10.06,132.89,-1.03,1.88
10857,52.462807,-1.492617,496.77,69.16,9.677419,120.6,13 / 21,5428554,2019-09-28 15:02:26:243,-0.141,0.2934,9.3437,0.1519,-0.4241,9.7963,-0.0155,-0.0016,0.0304,-20.98,-18.39,11.03,140.43,-0.93,2.47
10858,52.462715,-1.492375,496.77,68.0,9.677419,120.8,14 / 21,5429054,2019-09-28 15:02:26:743,1.9802,-1.1278,9.6826,0.2561,-0.4051,9.7949,-0.0315,0.0847,0.0261,-13.17,-18.6,22.62,126.79,-1.12,2.44
10859,52.462715,-1.492375,496.77,68.0,9.677419,120.8,14 / 21,5429553,2019-09-28 15:02:27:242,1.6825,-0.5316,9.7297,0.2433,-0.318,9.7985,0.0111,-0.0144,-0.0357,-12.62,-7.74,26.09,152.34,-1.42,1.86
10860,52.46263,-1.492139,496.77,67.64,9.677419,121.2,14 / 21,5430053,2019-09-28 15:02:27:742,0.7751,0.2417,9.3497,0.3383,-0.3416,9.7949,0.0164,0.0389,-0.0016,-13.72,-6.72,25.82,157.65,-1.89,1.96
10861,52.46263,-1.492139,496.77,67.64,9.677419,121.2,14 / 21,5430557,2019-09-28 15:02:28:246,1.0638,-0.1018,7.8897,0.3307,-0.3502,9.7948,-0.0795,0.008,-0.0314,-29.92,-2.21,-0.11,70.42,-2.07,2.32
10862,52.46252,-1.491896,500.0,68.0,9.677419,121.7,14 / 21,5431054,2019-09-28 15:02:28:743,0.9562,-0.2726,9.2565,0.4818,-0.321,9.7895,0.0239,-0.0357,-0.0218,-22.74,-16.86,9.93,149.04,-2.77,1.76
10863,52.46252,-1.491896,500.0,68.0,9.677419,121.7,14 / 21,5431554,2019-09-28 15:02:29:243,0.4884,-0.2138,10.1975,0.5107,-0.2619,9.7898,-0.0507,0.0176,0.0006,-20.1,-20.0,9.8,136.16,-2.85,1.74
10864,52.462425,-1.491658,500.0,68.04,9.677419,122.1,14 / 21,5432054,2019-09-28 15:02:29:743,0.7439,-0.1478,8.7843,0.5682,-0.297,9.7857,-0.0102,0.0005,-0.0218,-20.74,-19.13,10.2,139.1,-3.32,1.74
10865,52.462425,-1.491658,500.0,68.04,9.677419,122.1,14 / 21,5432553,2019-09-28 15:02:30:242,0.7647,0.6519,9.0631,0.6023,-0.1371,9.7872,-0.0134,0.0037,-0.0527,-19.7,-20.65,9.25,134.59,-3.44,1.12
10866,52.46234,-1.491424,500.0,68.18,9.677419,122.3,14 / 21,5433053,2019-09-28 15:02:30:742,1.142,-0.0069,10.6274,0.6931,0.0119,9.7821,-0.0741,0.0336,0.0389,-19.51,-20.43,10.1,135.94,-4.04,0.06
10867,52.46234,-1.491424,500.0,68.18,9.677419,122.3,14 / 21,5433554,2019-09-28 15:02:31:243,0.2179,0.6288,9.492,0.7,0.0375,9.7816,0.0484,-0.009,-0.0271,-19.78,-20.19,10.06,135.85,-4.12,-0.31
10868,52.462265,-1.491202,503.23,67.46,9.677419,122.4,14 / 21,5434054,2019-09-28 15:02:31:743,1.191,-0.6931,10.7389,0.738,0.0733,9.7786,-0.0379,0.0101,0.0133,-21.14,-19.08,9.43,135.76,-4.19,-0.35
10869,52.462265,-1.491202,503.23,67.46,9.677419,122.4,14 / 21,5434553,2019-09-28 15:02:32:242,0.9113,-0.0077,10.0088,0.7023,0.2015,9.7794,0.0036,-0.0389,-0.0133,-18.67,-20.86,10.78,132.96,-4.25,-1.01
10870,52.46217,-1.49095,503.23,69.37,12.903226,122.6,14 / 21,5435053,2019-09-28 15:02:32:742,1.034,0.2748,10.9194,0.7021,0.1587,9.7802,0.0622,-0.0751,-0.0239,-17.38,-22.61,9.33,127.18,-4.14,-1.1
10871,52.46217,-1.49095,503.23,69.37,12.903226,122.6,14 / 21,5435554,2019-09-28 15:02:33:243,0.6234,0.4296,8.8713,0.6841,0.2035,9.7806,0.0218,0.0144,-0.0186,-17.69,-22.53,8.93,128.67,-4.0,-1.19
10872,52.46207,-1.4907,500.0,70.42,12.903226,122.7,14 / 21,5436054,2019-09-28 15:02:33:743,0.332,-0.0758,9.588,0.6947,0.2464,9.7789,0.0463,0.0016,-0.0474,-17.78,-22.23,9.46,129.86,-4.06,-1.44
10873,52.46207,-1.4907,500.0,70.42,12.903226,122.7,14 / 21,5436554,2019-09-28 15:02:34:243,0.7695,0.6354,9.7201,0.664,0.3257,9.7787,0.0228,0.0037,-0.041,-18.6,-21.88,8.67,131.22,-3.87,-1.83
10874,52.461967,-1.490449,500.0,72.58,12.903226,123.4,14 / 21,5437054,2019-09-28 15:02:34:743,0.2204,0.2699,10.8068,0.6254,0.3454,9.7806,-0.04,-0.0133,0.0176,-18.17,-22.41,8.22,129.61,-3.61,-1.95
10875,52.461967,-1.490449,500.0,72.58,12.903226,123.4,14 / 21,5437553,2019-09-28 15:02:35:242,0.3435,0.6293,9.2868,0.5615,0.3466,9.7844,0.0399,-0.0026,-0.0474,-18.73,-21.29,9.79,132.39,-3.3,-2.16
10876,52.46187,-1.490184,503.23,73.19,12.903226,123.9,13 / 21,5438054,2019-09-28 15:02:35:743,0.1836,0.4386,10.4531,0.5043,0.3591,9.7871,-0.0219,0.0048,-0.0122,-18.8,-21.78,8.5,130.99,-3.1,-2.13
10877,52.46187,-1.490184,503.23,73.19,12.903226,123.9,13 / 21,5438553,2019-09-28 15:02:36:242,0.0192,0.4339,8.8051,0.4564,0.3318,9.7904,-0.0091,-0.058,-0.0048,-19.37,-21.21,8.67,132.3,-2.82,-2.0
10878,52.46176,-1.489929,503.23,73.84,12.903226,124.4,13 / 21,5439054,2019-09-28 15:02:36:743,0.7116,-0.5766,9.8898,0.4337,0.2493,9.7939,-0.0273,-0.0261,0.0219,-18.22,-22.09,8.95,129.56,-2.62,-1.5
10879,52.46176,-1.489929,503.23,73.84,12.903226,124.4,13 / 21,5439554,2019-09-28 15:02:37:243,0.6645,-0.1781,9.7321,0.3838,0.3045,9.7944,-0.0219,-0.0133,0.0102,-18.95,-21.38,9.15,132.26,-2.27,-1.73
10880,52.461662,-1.48967,503.23,73.84,12.903226,124.7,Dec-21,5440054,2019-09-28 15:02:37:743,0.517,-0.0769,9.1589,0.3973,0.268,9.7949,0.0186,-0.0122,-0.0282,-19.07,-21.34,9.0,132.3,-2.32,-1.57
10881,52.461662,-1.48967,503.23,73.84,12.903226,124.7,Dec-21,5440554,2019-09-28 15:02:38:243,0.2064,0.3212,10.3872,0.4106,0.2578,9.7947,0.0122,0.0559,-0.008,-18.42,-21.75,9.37,129.49,-2.38,-1.61
10882,52.46156,-1.489414,506.45,74.16,9.677419,124.9,13 / 21,5441053,2019-09-28 15:02:38:742,-0.1261,0.8301,8.0865,0.3955,0.2639,9.7951,0.0303,-0.0282,-0.0239,-18.0,-21.83,9.97,129.52,-2.31,-1.54
10883,52.46156,-1.489414,506.45,74.16,9.677419,124.9,13 / 21,5441554,2019-09-28 15:02:39:243,0.6498,-0.3512,10.487,0.3774,0.2617,9.7959,-0.0368,-0.0218,0.024,-18.42,-21.75,9.37,129.47,-2.21,-1.53
10884,52.461445,-1.489153,506.45,74.52,9.677419,125.2,14 / 21,5442054,2019-09-28 15:02:39:743,0.0405,0.3872,8.5465,0.3926,0.2537,9.7955,-0.007,-0.0133,0.0091,-18.33,-21.73,9.58,129.56,-2.43,-1.48
10885,52.461445,-1.489153,506.45,74.52,9.677419,125.2,14 / 21,5442554,2019-09-28 15:02:40:243,0.113,0.3625,10.3096,0.371,0.2249,9.797,0.0164,0.0517,-0.0048,-19.04,-21.07,9.69,132.35,-2.17,-1.31
10886,52.46134,-1.488904,506.45,74.7,9.677419,125.5,15 / 21,5443054,2019-09-28 15:02:40:743,0.0093,1.0308,9.2958,0.3729,0.294,9.7951,0.0026,-0.0282,-0.0026,-19.31,-21.18,8.86,132.31,-2.33,-1.52
10887,52.46134,-1.488904,506.45,74.7,9.677419,125.5,15 / 21,5443555,2019-09-28 15:02:41:244,0.3386,0.1951,9.6119,0.3353,0.2159,9.7985,0.0047,0.0421,0.0144,-18.82,-21.31,9.57,132.32,-1.96,-1.26
10888,52.461235,-1.488658,506.45,74.77,9.677419,125.7,16 / 21,5444053,2019-09-28 15:02:41:742,0.1283,1.404,8.7226,0.3704,0.1947,9.7977,0.0164,0.041,-0.0143,-18.95,-21.38,9.15,132.38,-2.28,-1.15
10889,52.461235,-1.488658,506.45,74.77,9.677419,125.7,16 / 21,5444554,2019-09-28 15:02:42:243,0.5226,0.3441,10.0689,0.3711,0.1945,9.7977,-0.0145,-0.0378,0.0261,-18.84,-21.25,9.67,132.4,-2.17,-1.1
10890,52.46113,-1.48841,509.68,74.88,9.677419,125.9,15 / 21,5445053,2019-09-28 15:02:42:742,0.307,0.494,9.7961,0.3536,0.1545,9.7991,-0.0155,0.0293,-0.0122,-19.99,-20.51,8.95,133.83,-1.96,-0.85
10891,52.46113,-1.48841,509.68,74.88,9.677419,125.9,15 / 21,5445554,2019-09-28 15:02:43:243,0.0941,-0.0405,8.4049,0.3197,0.0707,9.8012,0.0143,-0.0453,-0.0165,-19.65,-20.69,9.25,133.91,-1.87,-0.41
10892,52.461014,-1.488166,512.9,75.02,12.903226,126.4,15 / 21,5446053,2019-09-28 15:02:43:742,0.3951,0.2064,9.9755,0.3375,0.0889,9.8004,0.0122,-0.0431,-0.0058,-19.48,-20.54,9.91,132.41,-1.69,-0.64
10893,52.461014,-1.488166,512.9,75.02,12.903226,126.4,15 / 21,5446554,2019-09-28 15:02:44:243,0.2436,0.429,9.6845,0.3348,-0.0005,9.8009,0.0271,0.0197,-0.0335,-20.41,-20.45,8.09,135.38,-2.01,-0.02
10894,52.46091,-1.487927,516.13,74.56,9.677419,126.9,16 / 21,5447054,2019-09-28 15:02:44:743,0.7663,-0.6494,8.7773,0.3452,-0.0742,9.8003,0.0218,-0.0804,-0.0261,-20.6,-20.21,8.2,136.86,-2.16,0.34
10895,52.46091,-1.487927,516.13,74.56,9.677419,126.9,16 / 21,5447554,2019-09-28 15:02:45:243,1.4739,1.0433,10.1772,0.3999,-0.0414,9.7984,0.0239,0.1635,0.024,-20.64,-20.25,8.01,136.86,-2.27,0.26
10896,52.460785,-1.48768,512.9,74.92,9.677419,127.4,16 / 21,5448054,2019-09-28 15:02:45:743,0.0536,-0.6386,9.6799,0.4286,-0.1122,9.7966,-0.072,-0.1102,0.0677,-20.38,-20.42,8.22,135.59,-2.53,0.54
10897,52.460785,-1.48768,512.9,74.92,9.677419,127.4,16 / 21,5448554,2019-09-28 15:02:46:243,0.4416,0.3966,8.3838,0.4259,-0.102,9.7969,-0.007,-0.0996,-0.0665,-20.99,-19.56,8.76,137.05,-2.49,0.6
10898,52.460663,-1.487436,512.9,74.88,9.677419,128.0,15 / 21,5449054,2019-09-28 15:02:46:743,0.4689,0.5087,11.0941,0.4571,-0.0991,9.7955,0.026,-0.0218,-0.0133,-20.89,-19.46,9.23,138.52,-2.66,0.48
10899,52.460663,-1.487436,512.9,74.88,9.677419,128.0,15 / 21,5449554,2019-09-28 15:02:47:243,0.316,-0.6393,9.7453,0.4801,-0.2732,9.7911,0.0345,-0.0346,-0.0506,-20.4,-20.02,9.11,136.0,-2.81,1.6
10900,52.46055,-1.487196,512.9,75.1,9.677419,128.2,15 / 21,5450054,2019-09-28 15:02:47:743,0.8378,-1.1888,8.5423,0.4805,-0.3775,9.7876,-0.0326,0.0432,-0.0207,-21.14,-19.73,8.01,137.4,-2.79,2.2
10901,52.46055,-1.487196,512.9,75.1,9.677419,128.2,15 / 21,5450554,2019-09-28 15:02:48:243,-0.0518,-0.4159,9.5041,0.4879,-0.3906,9.7867,0.0388,-0.0431,-0.0559,-21.97,-18.46,8.74,141.88,-2.94,2.26
10902,52.46043,-1.486952,512.9,75.74,9.677419,128.1,13 / 21,5451054,2019-09-28 15:02:48:743,0.2065,1.0382,9.2745,0.49,-0.3715,9.7874,-0.0688,0.0027,0.1039,-20.87,-19.44,9.31,139.02,-2.84,2.23
10903,52.46043,-1.486952,512.9,75.74,9.677419,128.1,13 / 21,5451553,2019-09-28 15:02:49:242,0.0966,0.2957,8.1279,0.4761,-0.2993,9.7905,-0.0081,0.0304,0.0208,-21.23,-19.25,8.86,138.99,-2.74,1.78
10904,52.460316,-1.486705,512.9,76.0,9.677419,128.3,Dec-21,5452054,2019-09-28 15:02:49:743,-0.5613,-0.1132,8.2082,0.4272,-0.3062,9.7926,-0.0187,-0.073,0.0251,-20.99,-19.58,8.72,137.41,-2.6,1.92
10905,52.460316,-1.486705,512.9,76.0,9.677419,128.3,Dec-21,5452554,2019-09-28 15:02:50:243,-0.0522,-0.2301,10.3396,0.3614,-0.3052,9.7952,0.0313,0.1039,-0.0325,-21.37,-19.47,7.99,138.67,-2.16,1.81
10906,52.460194,-1.486459,512.9,75.85,9.677419,128.8,13 / 21,5453053,2019-09-28 15:02:50:742,0.0667,0.2654,8.7638,0.2961,-0.2815,9.7981,-0.0038,0.0304,-0.0154,-21.05,-19.53,8.69,137.16,-1.73,1.65
10907,52.460194,-1.486459,512.9,75.85,9.677419,128.8,13 / 21,5453554,2019-09-28 15:02:51:243,-0.1863,-0.7567,9.5141,0.2446,-0.318,9.7984,-0.0049,-0.0186,-0.0271,-20.81,-19.84,8.56,137.15,-1.43,1.86
10908,52.460068,-1.486218,512.9,75.74,9.677419,129.2,13 / 21,5454054,2019-09-28 15:02:51:743,0.0878,-0.4984,9.6024,0.1902,-0.3398,9.7989,-0.0166,0.0123,0.0251,-21.96,-18.45,8.82,141.46,-1.16,2.0
10909,52.460068,-1.486218,512.9,75.74,9.677419,129.2,13 / 21,5454553,2019-09-28 15:02:52:242,0.9082,-0.9102,10.3371,0.1469,-0.4005,9.7974,0.0047,0.024,-0.0239,-20.92,-19.44,9.19,138.61,-0.86,2.26
10910,52.45994,-1.485975,516.13,75.49,9.677419,129.3,13 / 21,5455054,2019-09-28 15:02:52:743,-0.3911,0.054,8.9338,0.1003,-0.3698,9.7992,-0.0507,-0.008,0.0698,-19.4,-20.96,9.19,132.8,-0.66,2.21
10911,52.45994,-1.485975,516.13,75.49,9.677419,129.3,13 / 21,5455554,2019-09-28 15:02:53:243,0.381,-0.0524,9.5838,0.1113,-0.3504,9.7998,0.0143,-0.008,-0.0186,-20.75,-19.92,8.53,137.03,-0.65,2.05
10912,52.459827,-1.485742,512.9,74.41,9.677419,129.6,13 / 21,5456055,2019-09-28 15:02:53:744,0.1517,-0.1895,10.6484,0.1389,-0.2967,9.8012,-0.0283,-0.058,-0.0293,-21.38,-19.08,8.88,138.5,-0.82,1.86
10913,52.459827,-1.485742,512.9,74.41,9.677419,129.6,13 / 21,5456554,2019-09-28 15:02:54:243,0.5984,0.3436,9.3773,0.1419,-0.1839,9.8039,-0.0017,-0.0005,-0.0133,-20.76,-19.83,8.7,136.83,-0.83,1.07
10914,52.459713,-1.485514,516.13,73.76,9.677419,130.3,13 / 21,5457054,2019-09-28 15:02:54:743,0.895,-0.5181,10.2293,0.1415,-0.2098,9.8034,-0.0006,0.0261,0.0123,-21.18,-19.38,8.71,138.34,-0.78,1.26
10915,52.459713,-1.485514,516.13,73.76,9.677419,130.3,13 / 21,5457553,2019-09-28 15:02:55:242,-0.0923,0.7147,10.1856,0.1488,-0.2443,9.8025,0.0036,-0.0016,-0.008,-24.2,-11.62,13.4,154.25,-0.87,1.43
10916,52.45959,-1.485291,512.9,73.51,9.677419,130.9,14 / 21,5458053,2019-09-28 15:02:55:742,0.2549,-0.177,8.8644,0.1452,-0.2361,9.8027,-0.0294,-0.0101,0.0208,-18.85,-20.45,11.25,134.13,-0.74,1.36
10917,52.45959,-1.485291,512.9,73.51,9.677419,130.9,14 / 21,5458553,2019-09-28 15:02:56:242,0.4669,-0.6989,11.0744,0.1704,-0.2513,9.8019,-0.0422,-0.0378,-0.0239,-22.76,-16.58,10.36,144.16,-1.0,1.47
10918,52.45948,-1.485084,512.9,72.54,12.903226,131.4,14 / 21,5459053,2019-09-28 15:02:56:742,0.5501,-0.8834,9.8494,0.1771,-0.2918,9.8007,0.0324,0.0282,0.024,-22.42,-17.27,9.96,143.04,-1.04,1.71
10919,52.45948,-1.485084,512.9,72.54,12.903226,131.4,14 / 21,5459553,2019-09-28 15:02:57:242,0.9221,-0.152,9.8827,0.1708,-0.3084,9.8003,0.0345,0.0858,-0.0005,-21.14,-19.06,9.47,138.53,-1.0,1.8
10920,52.459354,-1.484846,512.9,72.94,12.903226,131.8,14 / 21,5460054,2019-09-28 15:02:57:743,0.0864,0.3614,9.5651,0.2631,-0.3277,9.7976,-0.0486,0.1007,0.0272,-17.99,-20.49,12.52,133.19,-1.1,2.32
10921,52.459354,-1.484846,512.9,72.94,12.903226,131.8,14 / 21,5460553,2019-09-28 15:02:58:242,0.2121,-0.8191,9.3646,0.2333,-0.438,9.7941,-0.0731,0.0378,0.0304,-29.78,-11.43,26.61,156.76,-1.42,2.02
10922,52.459248,-1.484651,516.13,72.47,12.903226,131.6,13 / 21,5461053,2019-09-28 15:02:58:742,-0.6813,-0.0317,8.9152,0.2795,-0.4036,9.7944,0.0345,-0.0058,-0.0335,7.72,-14.0,41.73,149.76,-1.47,2.22
10923,52.459248,-1.484651,516.13,72.47,12.903226,131.6,13 / 21,5461553,2019-09-28 15:02:59:242,-0.0157,0.0508,8.9344,0.3143,-0.386,9.794,-0.0304,-0.0133,0.0197,-9.53,-1.39,28.41,180.54,-1.84,2.26
10924,52.459133,-1.484435,516.13,71.89,9.677419,131.4,13 / 21,5462054,2019-09-28 15:02:59:743,0.6517,0.0162,9.8002,0.3255,-0.3404,9.7953,0.0335,0.0027,-0.0197,-6.56,-13.2,26.13,123.0,-1.81,2.05
10925,52.459133,-1.484435,516.13,71.89,9.677419,131.4,13 / 21,5462554,2019-09-28 15:03:00:243,-0.0493,-0.0853,8.8857,0.2968,-0.2318,9.7994,-0.0496,-0.0101,0.0208,-31.28,-17.68,-5.83,133.15,-1.82,1.72
10926,52.459015,-1.484218,516.13,72.14,12.903226,131.5,13 / 21,5463054,2019-09-28 15:03:00:743,0.4463,0.2465,8.9193,0.2592,-0.2116,9.8009,-0.0102,-0.0314,-0.0165,-26.47,2.5,39.23,188.16,-1.66,1.31
10927,52.459015,-1.484218,516.13,72.14,12.903226,131.5,13 / 21,5463554,2019-09-28 15:03:01:243,0.1689,-0.9909,8.146,0.2463,-0.1826,9.8019,0.0111,0.0559,-0.009,-7.63,-5.0,28.58,152.94,-1.44,1.07
10928,52.458893,-1.48399,516.13,72.65,12.903226,131.8,13 / 21,5464054,2019-09-28 15:03:01:743,0.3649,-0.3915,10.4141,0.2798,-0.1576,9.8014,-0.0038,0.0357,0.0283,-19.4,-17.13,15.17,139.16,-1.57,0.83
10929,52.458893,-1.48399,516.13,72.65,12.903226,131.8,13 / 21,5464554,2019-09-28 15:03:02:243,0.1099,0.199,9.5844,0.1807,-0.123,9.8042,-0.023,-0.025,-0.0016,-15.47,-7.06,27.05,156.97,-1.13,0.84
10930,52.45878,-1.483768,516.13,72.43,16.129032,131.6,13 / 21,5465053,2019-09-28 15:03:02:742,0.1822,-0.321,10.0129,0.1989,-0.0787,9.8043,-0.0251,-0.0218,-0.0112,-13.59,-0.43,29.11,181.0,-1.2,0.5
10931,52.45878,-1.483768,516.13,72.43,16.129032,131.6,13 / 21,5465553,2019-09-28 15:03:03:242,0.2059,0.1549,8.9982,0.2162,-0.059,9.8041,0.0218,0.0261,-0.0474,-11.4,-0.43,29.55,180.89,-1.26,0.34
10932,52.45867,-1.483577,519.35,72.14,12.903226,131.7,15 / 21,5466054,2019-09-28 15:03:03:743,0.0708,0.4312,9.4521,0.1942,0.0582,9.8046,0.0026,0.0229,0.0091,-23.31,-1.18,18.85,177.3,-1.11,-0.3
10933,52.45867,-1.483577,519.35,72.14,12.903226,131.7,15 / 21,5466553,2019-09-28 15:03:04:242,0.1531,-0.3427,9.8599,0.201,0.0821,9.8042,-0.023,0.0112,0.0144,-16.94,-4.98,24.26,163.49,-1.08,-0.41
10934,52.45854,-1.483342,516.13,72.36,12.903226,131.9,15 / 21,5467054,2019-09-28 15:03:04:743,0.0059,0.1672,9.3142,0.2122,0.0832,9.804,0.0175,-0.0879,0.024,-17.28,-12.56,36.73,143.21,-1.35,-0.56
10935,52.45854,-1.483342,516.13,72.36,12.903226,131.9,15 / 21,5467554,2019-09-28 15:03:05:243,0.3657,-0.2518,9.7241,0.2071,0.0849,9.8041,-0.0262,0.0133,0.0378,-10.65,-14.75,26.17,118.13,-1.25,-0.53
10936,52.458424,-1.483123,516.13,72.36,12.903226,131.7,15 / 21,5468053,2019-09-28 15:03:05:742,-0.2249,-0.7712,10.8125,0.2104,0.0199,9.8044,0.0079,-0.009,-0.0271,-5.17,-6.83,28.75,124.19,-1.16,-0.33
10937,52.458424,-1.483123,516.13,72.36,12.903226,131.7,15 / 21,5468553,2019-09-28 15:03:06:242,0.0314,-0.0621,7.9475,0.2119,-0.0344,9.8043,-0.0049,0.024,0.0176,-14.25,2.04,26.32,187.96,-1.34,0.09
10938,52.458313,-1.4829,519.35,72.25,29.032257,131.2,15 / 21,5469053,2019-09-28 15:03:06:742,0.9885,-0.5583,10.7149,0.1946,-0.0354,9.8047,0.0175,0.0229,0.0038,-24.65,-4.5,20.11,171.21,-1.14,0.21
10939,52.458313,-1.4829,519.35,72.25,29.032257,131.2,15 / 21,5469554,2019-09-28 15:03:07:243,-0.3134,0.6745,9.7853,0.1785,-0.0252,9.805,0.026,-0.0058,-0.0452,-2.97,-4.24,29.55,331.2,-1.08,0.19
10940,52.458183,-1.482676,512.9,72.32,29.032257,130.9,15 / 21,5470053,2019-09-28 15:03:07:742,1.0817,0.2064,9.5463,0.153,0.0145,9.8054,-0.0145,0.0432,0.008,-13.31,-9.79,25.04,143.27,-0.89,0.02
10941,52.458183,-1.482676,512.9,72.32,29.032257,130.9,15 / 21,5470553,2019-09-28 15:03:08:242,0.3967,-0.3185,10.1284,0.1031,0.0796,9.8058,-0.0145,0.0155,0.0102,-22.58,12.71,15.12,209.08,-0.63,-0.45
10942,52.458065,-1.482449,512.9,72.58,32.258064,130.9,15 / 21,5471053,2019-09-28 15:03:08:742,-0.3056,-0.0889,9.897,0.1394,0.0838,9.8053,-0.0049,0.0378,0.0112,-20.31,9.33,20.0,201.07,-0.79,-0.51
10943,52.458065,-1.482449,512.9,72.58,32.258064,130.9,15 / 21,5471554,2019-09-28 15:03:09:243,-0.9373,0.2325,8.8203,0.1145,0.0108,9.806,-0.0177,0.0069,0.0283,-22.68,15.69,11.81,214.53,-0.87,-0.23
10944,52.457935,-1.482229,509.68,72.29,32.258064,130.9,14 / 21,5472055,2019-09-28 15:03:09:744,0.5467,-0.2963,10.0892,0.1783,0.0515,9.8049,0.0186,0.0389,-0.0218,-25.03,4.69,22.23,190.88,-0.91,-0.33
10945,52.457935,-1.482229,509.68,72.29,32.258064,130.9,14 / 21,5472554,2019-09-28 15:03:10:243,0.5417,0.5075,10.9154,0.1941,0.0209,9.8047,0.0079,0.0037,-0.008,-20.22,-6.31,21.8,163.46,-1.03,-0.14
10946,52.457825,-1.482005,509.68,71.93,12.903226,130.4,14 / 21,5473054,2019-09-28 15:03:10:743,0.1002,0.0958,10.6093,0.195,0.0657,9.8045,-0.0059,-0.0272,0.0059,-11.03,-7.43,28.17,148.11,-1.14,-0.38
10947,52.457825,-1.482005,509.68,71.93,12.903226,130.4,14 / 21,5473553,2019-09-28 15:03:11:242,-0.0946,0.632,8.5453,0.2484,0.0495,9.8034,-0.0464,0.0048,0.0442,-16.21,-4.35,24.87,165.96,-1.33,-0.33
10948,52.45771,-1.481781,512.9,72.07,12.903226,130.3,14 / 21,5474054,2019-09-28 15:03:11:743,-0.097,-0.1551,10.1744,0.2388,0.0572,9.8036,-0.0049,0.0219,0.0357,-12.16,-1.22,27.4,182.75,-1.38,-0.34
10949,52.45771,-1.481781,512.9,72.07,12.903226,130.3,14 / 21,5474554,2019-09-28 15:03:12:243,0.8062,-0.1024,9.2234,0.2383,0.0726,9.8035,-0.0113,-0.0346,-0.0005,-19.08,-3.8,22.84,167.96,-1.55,-0.46
10950,52.457596,-1.481554,512.9,72.47,12.903226,130.1,15 / 21,5475054,2019-09-28 15:03:12:743,0.8795,-0.4681,9.4053,0.2818,0.0654,9.8024,0.0697,0.0346,-0.0282,-21.39,1.64,20.97,184.92,-1.65,-0.38
10951,52.457596,-1.481554,512.9,72.47,12.903226,130.1,15 / 21,5475554,2019-09-28 15:03:13:243,0.3673,0.0589,9.7973,0.286,-0.0459,9.8024,-0.023,-0.1134,-0.025,-6.98,6.05,28.54,217.66,-1.65,0.08
10952,52.45748,-1.481321,512.9,72.79,12.903226,129.7,14 / 21,5476054,2019-09-28 15:03:13:743,-0.15,0.8725,9.6598,0.2872,-0.0029,9.8024,0.0271,0.0314,0.0006,-15.41,2.0,25.66,187.34,-1.63,0.06
10953,52.45748,-1.481321,512.9,72.79,12.903226,129.7,14 / 21,5476553,2019-09-28 15:03:14:242,0.4855,0.7247,9.2821,0.3053,-0.0091,9.8019,-0.0454,0.0346,0.0325,-21.4,-4.89,20.45,158.69,-1.74,0.16
10954,52.457355,-1.481091,509.68,73.4,12.903226,129.7,14 / 21,5477053,2019-09-28 15:03:14:742,0.5438,0.5511,9.5632,0.325,0.0198,9.8012,0.0516,-0.0122,-0.0367,-15.74,-4.11,25.21,166.41,-1.85,-0.14
10955,52.457355,-1.481091,509.68,73.4,12.903226,129.7,14 / 21,5477554,2019-09-28 15:03:15:243,0.1222,0.5842,10.9137,0.3054,-0.0072,9.8019,-0.04,0.0176,0.024,-21.98,0.4,20.41,180.04,-1.78,0.04
10956,52.45724,-1.480856,509.68,73.91,12.903226,129.5,14 / 21,5478054,2019-09-28 15:03:15:743,-0.5115,0.0038,9.4479,0.2949,0.0082,9.8022,0.0196,-0.0026,-0.0261,-15.84,3.0,25.3,190.01,-1.75,-0.1
10957,52.45724,-1.480856,509.68,73.91,12.903226,129.5,14 / 21,5478554,2019-09-28 15:03:16:243,0.2296,-0.4742,10.3281,0.2095,0.0115,9.8044,0.0207,-0.0474,-0.0218,-16.61,0.87,24.96,183.17,-1.22,-0.07
10958,52.457115,-1.480628,506.45,74.66,12.903226,129.3,14 / 21,5479054,2019-09-28 15:03:16:743,0.323,-0.7284,9.0365,0.1906,0.0001,9.8048,-0.0091,-0.0538,0.0293,-21.95,6.35,19.44,192.66,-1.6,-0.06
10959,52.457115,-1.480628,506.45,74.66,12.903226,129.3,14 / 21,5479554,2019-09-28 15:03:17:243,0.1072,-0.2936,9.9676,0.1856,-0.0251,9.8049,0.0431,0.0176,-0.0122,-12.13,-1.99,27.37,170.93,-1.09,0.01
10960,52.457,-1.480387,506.45,74.81,12.903226,128.9,14 / 21,5480054,2019-09-28 15:03:17:743,0.0914,0.0416,9.9667,0.0972,-0.0163,9.8062,0.0516,0.0687,-0.0335,-17.05,1.15,24.65,183.48,-0.65,0.12
10961,52.457,-1.480387,506.45,74.81,12.903226,128.9,14 / 21,5480554,2019-09-28 15:03:18:243,0.2573,-0.4639,10.3849,0.0263,0.0759,9.8063,0.0079,0.0155,0.0293,-17.41,-1.54,24.38,172.7,-0.15,-0.44
10962,52.45687,-1.480148,503.23,74.77,12.903226,128.9,14 / 21,5481054,2019-09-28 15:03:18:743,-0.3998,0.1809,9.975,0.0365,0.0736,9.8063,-0.0251,0.008,0.0187,-14.42,-1.72,26.25,171.33,-0.25,-0.34
10963,52.45687,-1.480148,503.23,74.77,12.903226,128.9,14 / 21,5481554,2019-09-28 15:03:19:243,-0.0635,-0.3385,10.8959,0.0023,0.1621,9.8053,0.0122,0.0176,-0.0005,-9.89,-5.04,27.87,153.74,-0.06,-0.82
10964,52.456753,-1.479911,500.0,74.2,12.903226,128.9,14 / 21,5482053,2019-09-28 15:03:19:742,0.316,-0.1788,9.8349,-0.0191,0.0785,9.8063,0.0111,-0.0058,-0.0282,-21.43,-7.84,19.47,143.17,0.15,-0.58
10965,52.456753,-1.479911,500.0,74.2,12.903226,128.9,14 / 21,5482554,2019-09-28 15:03:20:243,0.2434,-0.5214,10.0005,0.0468,0.1037,9.806,-0.0081,0.0229,0.0208,-16.17,-10.01,23.2,147.58,-0.24,-0.56
10966,52.456642,-1.479671,503.23,73.94,12.903226,128.6,14 / 21,5483053,2019-09-28 15:03:20:742,0.1969,0.0291,9.8307,0.0437,0.0914,9.8061,0.0335,0.0496,-0.0303,-17.21,-12.55,21.12,142.18,-0.03,-0.55
10967,52.456642,-1.479671,503.23,73.94,12.903226,128.6,14 / 21,5483554,2019-09-28 15:03:21:243,0.6365,0.0305,9.618,0.069,0.06,9.8062,-0.0081,0.0005,-0.0048,-14.59,-4.94,25.74,159.24,-0.41,-0.3
10968,52.456524,-1.479432,500.0,73.84,12.903226,128.5,14 / 21,5484054,2019-09-28 15:03:21:743,0.28,-0.2053,9.0754,0.0509,0.0556,9.8064,0.0281,-0.0399,-0.0165,-26.86,-10.12,8.72,159.61,-0.52,-0.42
10969,52.456524,-1.479432,500.0,73.84,12.903226,128.5,14 / 21,5484553,2019-09-28 15:03:22:242,-0.1937,-0.2323,9.0876,0.1149,0.1114,9.8053,0.0132,-0.0495,0.0059,-21.64,-19.21,7.92,140.67,-0.72,-0.74
10970,52.45641,-1.479206,500.0,73.51,12.903226,128.5,14 / 21,5485053,2019-09-28 15:03:22:742,0.4652,-0.386,9.8853,0.1261,0.1011,9.8053,-0.0198,0.0517,0.0261,-19.71,-21.33,7.53,133.59,-0.46,-0.54
10971,52.45641,-1.479206,500.0,73.51,12.903226,128.5,14 / 21,5485554,2019-09-28 15:03:23:243,0.1218,-0.3923,10.0489,0.1421,0.095,9.8052,-0.0091,-0.024,0.0155,-19.3,-21.74,7.41,130.87,-0.85,-0.61
10972,52.4563,-1.478971,496.77,73.22,12.903226,128.3,15 / 21,5486054,2019-09-28 15:03:23:743,1.1198,-0.6101,9.5351,0.1863,0.1063,9.8043,-0.0134,-0.0058,0.0176,-18.72,-22.19,7.57,130.93,-1.06,-0.51
10973,52.4563,-1.478971,496.77,73.22,12.903226,128.3,15 / 21,5486554,2019-09-28 15:03:24:243,-0.3404,0.5954,9.0206,0.2671,0.0766,9.8027,-0.0145,-0.025,0.0325,-18.84,-21.83,8.27,131.04,-1.56,-0.45
10974,52.456177,-1.478742,490.32,73.76,12.903226,128.0,15 / 21,5487054,2019-09-28 15:03:24:743,0.4202,-0.0454,9.4598,0.2673,0.02,9.803,0.0324,0.0346,-0.0069,-19.69,-21.23,7.84,133.88,-1.56,-0.12
10975,52.456177,-1.478742,490.32,73.76,12.903226,128.0,15 / 21,5487554,2019-09-28 15:03:25:243,0.1536,-0.2544,9.5919,0.2775,0.0488,9.8026,-0.0262,-0.041,0.0176,-19.72,-20.76,8.94,133.9,-1.61,-0.25
10976,52.45605,-1.478469,490.32,74.23,12.903226,127.6,14 / 21,5488053,2019-09-28 15:03:25:742,-0.0091,-0.2353,9.5638,0.3095,-0.0239,9.8017,-0.0059,-0.041,-0.008,-19.75,-21.26,7.59,133.99,-1.93,0.08
10977,52.45605,-1.478469,490.32,74.23,12.903226,127.6,14 / 21,5488555,2019-09-28 15:03:26:244,0.0215,-0.0891,9.4993,0.2741,-0.0072,9.8028,0.042,-0.024,-0.0271,-19.58,-21.66,6.89,132.54,-1.61,-0.04
10978,52.455944,-1.478203,487.1,73.84,12.903226,127.1,14 / 21,5489053,2019-09-28 15:03:26:742,0.4933,0.3462,9.26,0.2763,-0.0206,9.8027,-0.0081,0.0005,-0.0048,-19.64,-21.68,6.65,132.56,-1.61,0.12
10979,52.455944,-1.478203,487.1,73.84,12.903226,127.1,14 / 21,5489553,2019-09-28 15:03:27:242,-0.0572,0.1849,10.254,0.2379,0.0037,9.8038,0.0281,-0.0303,-0.0186,-19.42,-21.39,8.1,132.45,-1.41,0.12
10980,52.455833,-1.477948,487.1,74.05,12.903226,126.8,14 / 21,5490053,2019-09-28 15:03:27:742,-0.2126,-0.1477,9.4598,0.2408,0.0223,9.8037,0.01,-0.0229,-0.0186,-19.01,-21.68,8.28,131.1,-1.44,-0.02
10981,52.455833,-1.477948,487.1,74.05,12.903226,126.8,14 / 21,5490554,2019-09-28 15:03:28:243,0.6042,-0.327,9.202,0.2088,0.1032,9.8039,-0.0177,-0.0037,0.008,-19.46,-20.99,8.99,132.28,-1.15,-0.57
10982,52.45572,-1.477695,487.1,75.24,9.677419,126.7,13 / 21,5491054,2019-09-28 15:03:28:743,0.0159,0.6961,10.44,0.2138,0.1499,9.8032,0.0377,0.0016,-0.0005,-18.0,-21.9,9.81,129.4,-1.21,-0.93
10983,52.45572,-1.477695,487.1,75.24,9.677419,126.7,13 / 21,5491553,2019-09-28 15:03:29:242,0.2458,-0.1589,9.1033,0.1704,0.0499,9.805,-0.0091,-0.0389,0.0133,-18.54,-22.06,8.36,131.0,-1.18,-0.3
10984,52.4556,-1.477457,483.87,74.52,9.677419,126.7,13 / 21,5492054,2019-09-28 15:03:29:743,0.4805,0.1957,9.5731,0.1416,0.075,9.8053,0.0122,-0.0495,-0.009,-18.95,-20.97,10.06,130.92,-0.91,-0.42
10985,52.4556,-1.477457,483.87,74.52,9.677419,126.7,13 / 21,5492554,2019-09-28 15:03:30:243,-0.2255,0.4301,10.3862,0.1304,0.0847,9.8054,0.025,-0.0026,-0.0239,-19.12,-21.59,8.26,129.35,-0.72,-0.56
10986,52.455486,-1.477217,483.87,74.52,9.677419,126.6,15 / 21,5493053,2019-09-28 15:03:30:742,0.0445,-0.6451,9.8109,0.0845,0.0273,9.8062,0.0313,0.0421,-0.0069,-19.05,-21.58,8.45,130.88,-0.53,-0.23
10987,52.455486,-1.477217,483.87,74.52,9.677419,126.6,15 / 21,5493554,2019-09-28 15:03:31:243,-0.5018,0.4675,9.2437,0.027,0.0318,9.8066,-0.0038,-0.0154,0.0123,-18.98,-21.57,8.64,130.81,-0.16,-0.19
10988,52.455376,-1.476973,483.87,74.27,9.677419,126.3,15 / 21,5494054,2019-09-28 15:03:31:743,-0.1368,0.2293,9.6302,0.0235,-0.0095,9.8066,0.0047,-0.0272,0.0144,-19.38,-21.45,8.01,132.18,-0.14,0.06
10989,52.455376,-1.476973,483.87,74.27,9.677419,126.3,15 / 21,5494554,2019-09-28 15:03:32:243,-0.511,-0.1443,10.1452,0.0351,-0.0302,9.8065,-0.0315,-0.0261,0.0176,-19.15,-21.69,7.91,130.9,-0.2,0.25
10990,52.455276,-1.476731,483.87,73.66,9.677419,125.9,15 / 21,5495054,2019-09-28 15:03:32:743,0.3166,-0.312,9.5921,0.0192,-0.02,9.8066,0.0143,0.0336,-0.009,-19.05,-21.58,8.45,130.86,-0.11,0.12
10991,52.455276,-1.476731,483.87,73.66,9.677419,125.9,15 / 21,5495553,2019-09-28 15:03:33:242,0.1853,-0.3581,9.3877,0.0022,-0.003,9.8066,-0.0102,0.0112,0.0048,-18.16,-22.7,7.41,128.07,-0.04,0.09
10992,52.455166,-1.476481,483.87,73.4,12.903226,125.6,14 / 21,5496054,2019-09-28 15:03:33:743,0.0028,0.1719,9.1143,0.0976,0.0016,9.8062,0.0239,-0.008,-0.0133,-17.98,-22.49,8.42,129.38,-0.34,0.1
10993,52.455166,-1.476481,483.87,73.4,12.903226,125.6,14 / 21,5496553,2019-09-28 15:03:34:242,0.4192,0.0049,9.6612,0.1024,-0.0224,9.8061,0.0036,0.0176,0.0325,-19.55,-21.16,8.38,133.75,-0.6,0.13
10994,52.455055,-1.47624,480.65,73.12,12.903226,125.4,13 / 21,5497054,2019-09-28 15:03:34:743,0.3633,-0.343,10.1218,0.1456,0.0092,9.8056,0.0132,0.0101,-0.0218,-19.33,-21.34,8.44,132.31,-0.84,-0.01
10995,52.455055,-1.47624,480.65,73.12,12.903226,125.4,13 / 21,5497555,2019-09-28 15:03:35:244,-0.0113,-0.3284,10.0342,0.2243,0.0212,9.8041,-0.0422,0.0325,0.0219,-18.21,-22.27,8.52,129.59,-1.22,0.03
10996,52.454952,-1.476001,483.87,72.94,9.677419,125.5,13 / 21,5498054,2019-09-28 15:03:35:743,0.1455,-0.2472,10.4246,0.287,0.0379,9.8024,0.0132,0.0485,-0.0058,-18.93,-21.44,9.05,129.51,-1.36,-0.48
10997,52.454952,-1.476001,483.87,72.94,9.677419,125.5,13 / 21,5498554,2019-09-28 15:03:36:243,0.8144,0.1825,9.3826,0.2597,0.0419,9.8031,-0.0411,-0.0026,0.0027,-18.83,-21.33,9.5,132.46,-1.52,-0.24
10998,52.454845,-1.475758,480.65,72.94,9.677419,125.3,13 / 21,5499054,2019-09-28 15:03:36:743,0.5602,-0.2455,10.331,0.2583,0.0926,9.8028,0.009,0.0187,0.0315,-17.49,-22.28,9.88,127.91,-1.35,-0.7
10999,52.454845,-1.475758,480.65,72.94,9.677419,125.3,13 / 21,5499554,2019-09-28 15:03:37:243,0.8171,-0.7633,9.8651,0.3745,0.0015,9.7995,0.0058,0.0314,0.0442,-18.85,-19.37,13.03,135.62,-2.08,-0.16
11000,52.454742,-1.475522,480.65,72.97,9.677419,124.9,14 / 21,5500053,2019-09-28 15:03:37:742,0.3507,0.0787,9.9457,0.3446,-0.0289,9.8006,0.0558,-0.0421,-0.0229,-13.59,-11.81,27.36,141.55,-2.19,0.15
11001,52.454742,-1.475522,480.65,72.97,9.677419,124.9,14 / 21,5500554,2019-09-28 15:03:38:243,0.2502,0.103,9.834,0.3475,0.0075,9.8005,-0.0262,-0.008,-0.0122,-2.07,-13.07,26.92,112.41,-1.96,0.14
11002,52.454636,-1.475272,480.65,73.76,9.677419,124.8,15 / 21,5501053,2019-09-28 15:03:38:742,0.0382,0.2167,10.1257,0.3885,0.0716,9.7987,0.0026,0.057,0.0038,-19.26,-20.7,10.02,132.56,-2.09,-0.41
11003,52.454636,-1.475272,480.65,73.76,9.677419,124.8,15 / 21,5501554,2019-09-28 15:03:39:243,0.2536,0.3516,9.5347,0.3164,0.2236,9.799,-0.0283,-0.0453,-0.0112,-16.71,-22.51,10.68,126.9,-2.13,-0.83
11004,52.45453,-1.475022,480.65,73.91,9.677419,124.9,15 / 21,5502054,2019-09-28 15:03:39:743,0.4629,-0.4418,9.3664,0.3235,0.1646,9.7999,0.0505,-0.0325,-0.0367,-16.43,-23.0,10.05,125.16,-2.09,-1.11
11005,52.45453,-1.475022,480.65,73.91,9.677419,124.9,15 / 21,5502554,2019-09-28 15:03:40:243,0.5784,-0.4896,9.933,0.2962,0.1505,9.801,-0.0177,0.0325,0.0219,-17.3,-22.69,9.26,126.73,-1.76,-0.81
11006,52.45442,-1.474783,480.65,73.91,12.903226,125.0,15 / 21,5503054,2019-09-28 15:03:40:743,0.0341,0.2722,9.7976,0.2447,0.1635,9.8022,0.0058,0.008,0.0261,-15.78,-23.51,9.92,123.86,-1.33,-1.0
11007,52.45442,-1.474783,480.65,73.91,12.903226,125.0,15 / 21,5503554,2019-09-28 15:03:41:243,0.1474,0.1128,9.713,0.233,0.1302,9.803,-0.0155,-0.0293,0.0165,-17.6,-22.49,9.18,129.5,-1.47,-0.74
11008,52.454315,-1.474543,483.87,75.02,12.903226,125.2,15 / 21,5504054,2019-09-28 15:03:41:743,0.4562,0.0867,8.8054,0.1648,0.1571,9.804,0.0324,-0.0335,0.0112,-16.68,-22.62,10.49,126.55,-1.03,-0.96
11009,52.454315,-1.474543,483.87,75.02,12.903226,125.2,15 / 21,5504554,2019-09-28 15:03:42:243,0.1698,0.1961,10.1801,0.1929,0.1087,9.8042,-0.0262,-0.0186,0.0176,-16.34,-23.69,8.47,123.92,-1.17,-0.48
11010,52.4542,-1.474305,483.87,73.3,12.903226,125.4,15 / 21,5505054,2019-09-28 15:03:42:743,0.3737,0.0738,9.2676,0.1542,0.1443,9.8044,0.0005,0.008,0.0006,-18.59,-21.86,8.76,130.85,-0.9,-0.84
11011,52.4542,-1.474305,483.87,73.3,12.903226,125.4,15 / 21,5505554,2019-09-28 15:03:43:243,0.0667,-0.2102,8.9492,0.227,0.0381,9.8039,-0.0155,-0.058,0.0155,-18.69,-21.74,8.84,131.07,-1.33,-0.22
11012,52.454105,-1.474063,483.87,73.15,12.903226,125.2,15 / 21,5506054,2019-09-28 15:03:43:743,0.6901,0.2263,10.8183,0.2163,0.0466,9.8042,0.01,-0.0623,-0.0112,-18.75,-21.66,8.9,130.92,-0.92,-0.52
11013,52.454105,-1.474063,483.87,73.15,12.903226,125.2,15 / 21,5506553,2019-09-28 15:03:44:242,0.5884,-0.3168,9.5528,0.1532,0.0592,9.8053,-0.0049,0.0421,0.0102,-19.25,-21.33,8.64,132.27,-0.89,-0.35
11014,52.45399,-1.473811,483.87,73.37,12.903226,125.1,15 / 21,5507054,2019-09-28 15:03:44:743,-0.1898,0.2001,9.882,0.1621,0.0255,9.8053,-0.0304,-0.0112,0.0123,-18.99,-21.51,8.75,130.99,-0.88,-0.13
11015,52.45399,-1.473811,483.87,73.37,12.903226,125.1,15 / 21,5507553,2019-09-28 15:03:45:242,0.235,-0.168,9.4235,0.1822,0.0713,9.8047,0.0036,-0.0101,0.008,-18.24,-22.59,7.54,128.2,-1.06,-0.42
11016,52.453888,-1.473575,483.87,73.3,12.903226,125.0,15 / 21,5508053,2019-09-28 15:03:45:742,0.1845,-0.1951,10.0357,0.1752,0.051,9.805,0.0036,0.0155,0.0048,-17.76,-22.73,8.25,128.21,-1.02,-0.3
11017,52.453888,-1.473575,483.87,73.3,12.903226,125.0,15 / 21,5508554,2019-09-28 15:03:46:243,0.4137,-0.2014,9.8384,0.1647,0.122,9.8045,-0.0145,0.0069,0.0261,-18.67,-21.72,8.92,130.96,-1.11,-0.54
11018,52.453793,-1.473328,483.87,73.08,12.903226,124.8,15 / 21,5509053,2019-09-28 15:03:46:742,-0.0255,-0.2534,9.9854,0.1783,0.0929,9.8046,-0.0081,0.0048,0.0187,-18.85,-21.85,8.2,130.91,-1.08,-0.64
11019,52.453793,-1.473328,483.87,73.08,12.903226,124.8,15 / 21,5509553,2019-09-28 15:03:47:242,-0.0358,0.17,9.0788,0.1507,0.1335,9.8046,0.0164,0.0005,-0.0186,-18.42,-22.41,7.65,129.36,-0.96,-0.73
11020,52.45368,-1.473083,480.65,73.84,12.903226,125.1,14 / 21,5510054,2019-09-28 15:03:47:743,0.3847,0.0926,9.3755,0.1783,0.1503,9.8039,0.0569,0.0432,-0.0367,-18.43,-21.94,8.89,129.36,-1.04,-0.88
11021,52.45368,-1.473083,480.65,73.84,12.903226,125.1,14 / 21,5510554,2019-09-28 15:03:48:243,0.5507,0.5715,9.5461,0.1283,0.1891,9.804,-0.0262,-0.0048,0.008,-18.72,-21.62,9.05,130.76,-0.75,-1.11
11022,52.453575,-1.472838,477.42,72.4,9.677419,125.2,15 / 21,5511054,2019-09-28 15:03:48:743,0.2402,0.2727,9.5849,0.1485,0.2183,9.8031,0.0111,0.0304,-0.0218,-18.21,-22.16,8.78,129.24,-0.87,-1.28
11023,52.453575,-1.472838,477.42,72.4,9.677419,125.2,15 / 21,5511554,2019-09-28 15:03:49:243,0.554,-0.0329,10.2536,0.14,0.1734,9.8041,0.0154,-0.009,-0.0357,-18.63,-22.17,7.82,130.77,-0.72,-1.08
11024,52.453476,-1.472598,477.42,71.96,9.677419,125.4,15 / 21,5512054,2019-09-28 15:03:49:743,0.2929,0.2721,9.1564,0.1606,0.2161,9.803,0.0186,-0.0272,-0.0271,-18.43,-21.94,8.89,129.25,-0.9,-1.27
11025,52.453476,-1.472598,477.42,71.96,9.677419,125.4,15 / 21,5512553,2019-09-28 15:03:50:242,0.3361,0.1313,8.3246,0.1466,0.1689,9.8041,-0.0241,0.0336,0.0378,-19.03,-22.05,7.19,130.8,-0.9,-1.08
11026,52.453377,-1.472368,480.65,71.6,9.677419,125.5,15 / 21,5513054,2019-09-28 15:03:50:743,-0.2031,0.6884,10.0569,0.2138,0.1245,9.8035,0.0047,0.0187,0.0091,-18.72,-21.62,9.05,130.93,-1.2,-0.74
11027,52.453377,-1.472368,480.65,71.6,9.677419,125.5,15 / 21,5513554,2019-09-28 15:03:51:243,-0.1089,0.2796,10.5833,0.2306,0.0655,9.8037,0.0132,0.0048,0.0144,-18.31,-22.28,8.26,130.94,-1.17,-0.58
11028,52.453266,-1.472125,480.65,71.42,9.677419,125.1,15 / 21,5514053,2019-09-28 15:03:51:742,0.3132,0.3583,8.6896,0.2199,0.0562,9.804,-0.0155,-0.0335,0.0155,-18.43,-21.94,8.89,129.5,-1.19,-0.21
11029,52.453266,-1.472125,480.65,71.42,9.677419,125.1,15 / 21,5514553,2019-09-28 15:03:52:242,-0.3866,0.3154,11.4335,0.236,-0.0002,9.8038,0.0377,0.0368,-0.025,-18.54,-22.06,8.36,131.08,-1.38,-0.06
11030,52.453163,-1.471884,480.65,71.75,9.677419,124.9,15 / 21,5515060,2019-09-28 15:03:52:749,0.0078,0.1822,9.214,0.2464,0.0736,9.8033,0.0196,-0.0122,-0.0133,-18.71,-22.17,7.64,131.02,-1.44,-0.43
11031,52.453163,-1.471884,480.65,71.75,9.677419,124.9,15 / 21,5515553,2019-09-28 15:03:53:242,0.1287,-0.1133,9.8038,0.2395,0.0961,9.8033,0.0036,0.025,0.0016,-18.74,-21.71,8.8,131.01,-1.39,-0.56
11032,52.453064,-1.47164,483.87,71.5,9.677419,124.9,15 / 21,5516054,2019-09-28 15:03:53:743,0.8244,-0.2109,10.3017,0.2327,0.1228,9.8031,0.0111,0.0187,-0.0367,-18.83,-21.27,9.66,132.31,-1.36,-0.72
11033,52.453064,-1.47164,483.87,71.5,9.677419,124.9,15 / 21,5516553,2019-09-28 15:03:54:242,0.3856,0.4103,9.627,0.249,0.0852,9.8031,0.0324,-0.0005,-0.0133,-18.08,-22.12,9.17,129.54,-1.53,-0.53
11034,52.45296,-1.471399,483.87,71.46,9.677419,125.1,15 / 21,5517054,2019-09-28 15:03:54:743,0.6103,0.134,9.3535,0.2247,0.1322,9.8032,0.0207,0.0165,-0.0271,-18.92,-21.93,7.81,130.92,-1.26,-0.81
11035,52.45296,-1.471399,483.87,71.46,9.677419,125.1,15 / 21,5517554,2019-09-28 15:03:55:243,0.3585,-0.0546,9.6637,0.2223,0.2029,9.802,0.0036,-0.0058,-0.009,-18.28,-22.53,7.63,128.13,-1.29,-1.07
11036,52.452854,-1.471163,483.87,71.28,9.677419,125.1,15 / 21,5518054,2019-09-28 15:03:55:743,0.2093,-0.0219,9.0654,0.2105,0.0737,9.8041,0.0271,0.0037,-0.0357,-18.52,-22.04,8.43,130.98,-1.23,-0.43
11037,52.452854,-1.471163,483.87,71.28,9.677419,125.1,15 / 21,5518554,2019-09-28 15:03:56:243,1.1272,-0.3427,9.7648,0.253,0.1409,9.8024,-0.0187,-0.0069,0.0208,-18.3,-22.27,8.33,129.44,-1.45,-0.84
11038,52.45276,-1.470923,483.87,71.32,9.677419,125.1,15 / 21,5519054,2019-09-28 15:03:56:743,0.9156,0.0728,9.4209,0.2632,0.1669,9.8017,0.0175,0.0432,-0.0037,-18.6,-22.04,8.25,130.9,-1.41,-1.05
11039,52.45276,-1.470923,483.87,71.32,9.677419,125.1,15 / 21,5519554,2019-09-28 15:03:57:243,0.1952,-0.2178,10.6237,0.2716,0.0907,9.8025,0.0143,-0.0144,-0.0218,-17.87,-22.35,9.02,129.48,-1.43,-0.7
11040,52.452656,-1.470682,487.1,70.92,9.677419,125.1,15 / 21,5520054,2019-09-28 15:03:57:743,0.2795,0.1683,9.4699,0.2593,0.0821,9.8029,0.0015,-0.009,-0.0154,-18.1,-22.55,7.97,128.3,-1.56,-0.41
11041,52.452656,-1.470682,487.1,70.92,9.677419,125.1,15 / 21,5520554,2019-09-28 15:03:58:243,0.5864,0.5148,9.6076,0.2497,0.0672,9.8032,0.0218,0.0357,-0.0229,-19.15,-21.2,9.16,132.38,-1.46,-0.39
11042,52.45256,-1.47044,480.65,71.21,9.677419,125.0,15 / 21,5521054,2019-09-28 15:03:58:743,0.0551,0.1516,10.6311,0.2331,0.1375,9.8029,0.026,0.0208,-0.0186,-18.7,-22.16,7.72,130.92,-1.3,-0.83
11043,52.45256,-1.47044,480.65,71.21,9.677419,125.0,15 / 21,5521554,2019-09-28 15:03:59:243,0.0428,0.1834,9.9585,0.2577,0.0988,9.8028,-0.0241,-0.0005,0.0133,-18.63,-21.59,9.32,131.04,-1.51,-0.55
11044,52.452457,-1.470197,477.42,71.21,9.677419,125.0,15 / 21,5522055,2019-09-28 15:03:59:744,0.2536,0.3858,9.6447,0.2688,0.1206,9.8022,-0.0379,-0.0186,0.0283,-18.72,-21.7,8.87,131.03,-1.61,-0.68
11045,52.45236,-1.469955,474.19,71.35,9.677419,125.0,15 / 21,5522554,2019-09-28 15:04:00:243,0.3221,0.2445,10.9174,0.3056,0.1189,9.8012,-0.0283,0.0378,0.0304,-18.18,-22.13,8.93,129.52,-1.61,-0.7
11046,52.45236,-1.469955,474.19,71.35,9.677419,125.0,15 / 21,5523054,2019-09-28 15:04:00:743,0.1017,1.102,8.7671,0.2922,0.2222,9.7998,0.0654,0.0229,-0.0261,-17.58,-22.87,8.23,128.17,-1.71,-1.3
11047,52.45236,-1.469955,474.19,71.35,9.677419,125.0,15 / 21,5523554,2019-09-28 15:04:01:243,0.345,-0.0089,9.7319,0.3512,0.1108,9.7997,-0.0347,0.0037,0.0229,-18.64,-21.68,9.07,131.08,-1.93,-0.76
11048,52.452255,-1.469713,474.19,71.39,9.677419,125.0,15 / 21,5524054,2019-09-28 15:04:01:743,0.6494,0.3448,9.8767,0.442,0.1282,9.7958,0.009,-0.0431,-0.0016,-18.68,-21.89,8.49,129.67,-2.63,-0.78
11049,52.452255,-1.469713,474.19,71.39,9.677419,125.0,15 / 21,5524553,2019-09-28 15:04:02:242,0.4936,0.0965,9.5819,0.3601,0.1064,9.7995,0.0079,-0.009,-0.0218,-17.98,-22.49,8.42,129.61,-2.12,-0.62
11050,52.45216,-1.469477,470.97,71.46,12.903226,124.9,15 / 21,5525054,2019-09-28 15:04:02:743,1.1327,-0.0591,9.5066,0.3823,0.1186,9.7985,-0.0198,-0.0218,0.0027,-18.2,-22.14,8.86,129.67,-2.25,-0.64
11051,52.45216,-1.469477,470.97,71.46,12.903226,124.9,15 / 21,5525554,2019-09-28 15:04:03:243,0.2247,0.505,8.9921,0.4104,0.1245,9.7973,-0.0411,-0.0272,0.0272,-19.01,-20.99,9.91,131.12,-2.5,-0.72
11052,52.452053,-1.469234,470.97,72.86,9.677419,124.9,15 / 21,5526054,2019-09-28 15:04:03:743,0.5828,0.0124,8.3005,0.4286,0.1433,9.7962,0.0047,-0.0538,-0.0026,-18.29,-22.15,8.67,129.68,-2.5,-0.84
11053,52.452053,-1.469234,470.97,72.86,9.677419,124.9,15 / 21,5526553,2019-09-28 15:04:04:242,0.6217,0.0341,8.84,0.4688,0.1301,9.7946,0.0015,0.0208,-0.0037,-19.04,-21.02,9.77,132.65,-2.84,-0.74
11054,52.451942,-1.468986,470.97,73.22,9.677419,124.9,15 / 21,5527053,2019-09-28 15:04:04:742,0.4593,0.7068,8.9399,0.4247,0.1335,9.7965,0.0313,-0.0186,-0.0527,-17.89,-22.6,8.32,129.8,-2.73,-0.78
11055,52.451942,-1.468986,470.97,73.22,9.677419,124.9,15 / 21,5527553,2019-09-28 15:04:05:242,0.2865,0.4778,9.7275,0.3623,0.1175,9.7993,0.0633,0.0027,-0.025,-18.73,-21.85,8.47,131.1,-2.12,-0.69
11056,52.451836,-1.468739,470.97,73.33,9.677419,125.1,15 / 21,5528053,2019-09-28 15:04:05:742,0.1595,0.2429,10.8301,0.3596,0.1227,9.7993,-0.0294,0.0016,0.0133,-18.87,-21.87,8.12,131.09,-2.04,-0.66
11057,52.451836,-1.468739,470.97,73.33,9.677419,125.1,15 / 21,5528554,2019-09-28 15:04:06:243,0.8323,-0.5523,9.043,0.2238,0.0847,9.8037,-0.0006,-0.0431,0.0112,-18.83,-21.74,8.54,131.08,-1.64,-0.49
11058,52.451733,-1.468494,470.97,73.15,9.677419,125.1,15 / 21,5529053,2019-09-28 15:04:06:742,0.0808,-0.505,10.3365,0.2902,0.1172,9.8017,-0.0059,-0.0389,-0.0452,-19.04,-21.27,9.23,132.37,-1.7,-0.68
11059,52.451733,-1.468494,470.97,73.15,9.677419,125.1,15 / 21,5529554,2019-09-28 15:04:07:243,0.2058,0.4098,11.203,0.373,0.1328,9.7987,0.0079,0.0804,-0.0016,-18.91,-19.39,12.89,133.83,-1.95,-0.84
11060,52.45163,-1.468248,470.97,73.04,9.677419,125.1,15 / 21,5530055,2019-09-28 15:04:07:744,0.1403,0.5642,8.0671,0.2586,0.0706,9.803,-0.0347,0.0474,0.0357,-7.34,-23.25,20.98,108.06,-1.51,-0.41
11061,52.45163,-1.468248,470.97,73.04,9.677419,125.1,15 / 21,5530554,2019-09-28 15:04:08:243,-0.3993,0.3517,9.282,0.2594,0.0665,9.803,0.0111,-0.0027,0.0048,-7.68,-21.25,19.73,111.96,-1.52,-0.39
11062,52.451523,-1.467995,467.74,72.97,12.903226,125.1,15 / 21,5531054,2019-09-28 15:04:08:743,0.302,0.0973,10.1824,0.2487,0.043,9.8034,0.0015,-0.0272,0.0112,-19.53,-24.0,10.86,130.14,-1.59,-0.35
11063,52.451523,-1.467995,467.74,72.97,12.903226,125.1,15 / 21,5531553,2019-09-28 15:04:09:242,0.6451,0.3777,9.7727,0.2372,0.0354,9.8037,-0.0049,0.0325,0.0187,-13.08,-17.34,20.7,135.59,-1.3,-0.27
11064,52.45142,-1.467752,470.97,72.68,12.903226,125.0,15 / 21,5532054,2019-09-28 15:04:09:743,-0.0245,0.5107,8.9397,0.2052,0.0309,9.8045,-0.0219,0.0229,0.0112,-14.01,-22.01,14.8,123.01,-1.21,-0.11
11065,52.45142,-1.467752,470.97,72.68,12.903226,125.0,15 / 21,5532553,2019-09-28 15:04:10:242,0.1228,0.525,10.2009,0.2174,0.0354,9.8042,-0.0123,0.0911,0.0357,-7.18,-20.12,21.06,110.06,-0.91,-0.19
11066,52.451317,-1.467508,470.97,72.68,12.903226,125.0,15 / 21,5533053,2019-09-28 15:04:10:742,0.6663,1.195,9.1816,0.1349,0.1091,9.8051,-0.0773,0.0123,0.0421,-23.23,-18.0,6.01,142.06,-1.22,-0.22
11067,52.451317,-1.467508,470.97,72.68,12.903226,125.0,15 / 21,5533554,2019-09-28 15:04:11:243,-0.1188,0.4713,9.3881,0.1521,0.1987,9.8035,-0.0102,-0.0367,0.0038,-17.78,-22.72,8.24,132.18,-1.3,-1.15
11068,52.4512,-1.467271,474.19,72.86,12.903226,125.3,15 / 21,5534054,2019-09-28 15:04:11:743,0.2004,0.7531,9.7065,0.2821,0.1465,9.8015,0.0058,-0.041,0.0219,-19.32,-21.27,8.62,130.98,-1.71,-1.04
11069,52.4512,-1.467271,474.19,72.86,12.903226,125.3,15 / 21,5534553,2019-09-28 15:04:12:242,0.5794,0.6623,9.4505,0.2874,0.1383,9.8015,0.0175,0.0144,-0.0037,-19.24,-21.24,8.89,132.32,-1.65,-0.76
11070,52.451096,-1.467025,474.19,72.18,29.032257,125.2,15 / 21,5535054,2019-09-28 15:04:12:743,0.4707,-0.4101,9.6585,0.2897,0.139,9.8014,-0.0198,0.0176,0.0133,-19.36,-21.37,8.28,132.31,-1.62,-0.75
11071,52.451096,-1.467025,474.19,72.18,29.032257,125.2,15 / 21,5535553,2019-09-28 15:04:13:242,0.3469,-0.3978,10.4072,0.2973,0.1476,9.801,-0.0262,-0.0005,0.0283,-18.91,-21.84,8.09,130.99,-1.74,-0.89
11072,52.450996,-1.466791,477.42,72.18,29.032257,125.2,15 / 21,5536053,2019-09-28 15:04:13:742,0.5491,0.0623,10.5554,0.3603,0.1122,9.7994,-0.0038,-0.0133,0.0091,-19.03,-21.49,8.71,132.43,-2.03,-0.7
11073,52.450996,-1.466791,477.42,72.18,29.032257,125.2,15 / 21,5536554,2019-09-28 15:04:14:243,0.6108,-0.1426,9.9923,0.3668,0.1245,9.799,-0.0113,-0.0165,0.0144,-19.07,-21.6,8.37,131.08,-2.1,-0.77
11074,52.4509,-1.466547,474.19,71.86,32.258064,125.1,14 / 21,5537053,2019-09-28 15:04:14:742,1.0536,-0.3615,10.007,0.4004,0.1093,9.7979,0.0047,-0.0069,-0.0048,-19.23,-21.72,7.66,131.16,-2.39,-0.63
11075,52.4509,-1.466547,474.19,71.86,32.258064,125.1,14 / 21,5537554,2019-09-28 15:04:15:243,0.8694,-0.1257,8.9855,0.467,0.1044,9.795,0.0154,-0.0399,-0.0016,-18.66,-21.7,9.0,131.24,-2.53,-0.62
11076,52.45081,-1.466316,474.19,72.29,29.032257,124.7,15 / 21,5538053,2019-09-28 15:04:15:742,0.8534,0.2282,9.3257,0.4805,0.1101,9.7943,-0.0059,-0.0325,0.007,-19.12,-21.59,8.26,131.3,-2.77,-0.53
11077,52.45081,-1.466316,474.19,72.29,29.032257,124.7,15 / 21,5538553,2019-09-28 15:04:16:242,-0.0979,-0.0917,9.745,0.5013,0.1009,9.7933,-0.0155,0.0059,-0.0058,-17.98,-22.36,8.75,129.87,-2.98,-0.47
11078,52.450703,-1.466077,477.42,72.68,29.032257,124.7,15 / 21,5539054,2019-09-28 15:04:16:743,0.4888,-0.207,10.3354,0.4617,0.0994,9.7953,0.0228,-0.0208,0.0016,-17.88,-22.36,8.94,129.77,-2.72,-0.66
11079,52.450703,-1.466077,477.42,72.68,29.032257,124.7,15 / 21,5539553,2019-09-28 15:04:17:242,0.6312,0.1582,9.5576,0.4804,0.1113,9.7942,0.0228,0.0048,-0.0261,-15.23,-23.56,10.63,122.76,-2.8,-0.55
11080,52.450592,-1.465825,477.42,74.23,29.032257,124.9,15 / 21,5540053,2019-09-28 15:04:17:742,0.5061,0.9097,9.9355,0.4595,0.1797,9.7942,0.009,0.0197,-0.0154,-14.79,-24.95,7.66,121.38,-2.69,-1.05
11081,52.450592,-1.465825,477.42,74.23,29.032257,124.9,15 / 21,5540553,2019-09-28 15:04:18:242,1.4473,0.2501,10.0065,0.453,0.2134,9.7939,-0.0017,0.0112,-0.0026,-17.3,-22.99,8.5,126.84,-2.65,-1.25
11082,52.45048,-1.465583,477.42,74.41,32.258064,125.0,15 / 21,5541053,2019-09-28 15:04:18:742,0.2591,-0.3796,9.4413,0.4573,0.195,9.794,-0.0209,0.0336,0.007,-17.39,-22.63,9.26,126.87,-2.67,-1.14
11083,52.45048,-1.465583,477.42,74.41,32.258064,125.0,15 / 21,5541554,2019-09-28 15:04:19:243,0.9787,0.1602,9.8795,0.4621,0.1967,9.7938,0.0281,0.0069,-0.0069,-17.18,-23.13,8.36,126.81,-2.72,-1.23
11084,52.450363,-1.46533,477.42,75.28,32.258064,125.2,15 / 21,5542054,2019-09-28 15:04:19:743,0.7283,0.3507,10.0844,0.4274,0.2354,9.7945,0.0079,0.0165,-0.0069,-18.29,-21.8,9.52,129.62,-2.55,-1.34
11085,52.450363,-1.46533,477.42,75.28,32.258064,125.2,15 / 21,5542553,2019-09-28 15:04:20:242,0.2747,-0.1987,10.008,0.3947,0.2206,9.7962,-0.0059,-0.0208,-0.0154,-17.8,-22.3,9.28,129.55,-2.32,-1.26
11086,52.450268,-1.465084,477.42,74.84,32.258064,125.2,15 / 21,5543053,2019-09-28 15:04:20:742,0.5975,-0.5109,9.1148,0.4179,0.1364,9.7968,-0.0049,-0.0069,0.0602,-18.22,-22.49,7.89,129.63,-2.44,-0.8
11087,52.450268,-1.465084,477.42,74.84,32.258064,125.2,15 / 21,5543553,2019-09-28 15:04:21:242,0.9877,-0.4633,9.7521,0.3832,0.1223,9.7984,0.01,0.0112,-0.0112,-18.82,-20.68,10.86,131.19,-2.3,-0.61
11088,52.450146,-1.464826,480.65,73.87,32.258064,125.1,15 / 21,5544054,2019-09-28 15:04:21:743,0.5416,0.604,9.805,0.3827,0.1053,9.7986,0.0164,0.008,-0.0346,-18.39,-21.55,9.88,129.72,-2.24,-0.62
11089,52.450146,-1.464826,480.65,73.87,32.258064,125.1,15 / 21,5544554,2019-09-28 15:04:22:243,0.2909,0.3245,10.1286,0.3723,0.1556,9.7983,0.0409,0.0325,-0.0325,-18.11,-21.86,9.69,129.62,-2.2,-0.83
11090,52.450043,-1.464569,477.42,75.2,32.258064,125.0,15 / 21,5545054,2019-09-28 15:04:22:743,-0.025,0.3253,9.5959,0.3815,0.1852,9.7975,-0.007,-0.0016,0.0315,-19.41,-20.9,9.31,132.38,-2.21,-1.12
11091,52.450043,-1.464569,477.42,75.2,32.258064,125.0,15 / 21,5545554,2019-09-28 15:04:23:243,0.2735,0.1744,9.5031,0.3862,0.1893,9.7972,0.0143,0.0133,-0.0112,-18.81,-21.8,8.42,131.03,-2.2,-1.13
11092,52.44993,-1.464318,477.42,75.64,32.258064,125.3,15 / 21,5546054,2019-09-28 15:04:23:743,-0.016,0.9305,8.6029,0.3798,0.1657,9.7979,-0.024,0.0219,0.0389,-18.93,-21.44,9.05,132.43,-2.23,-0.92
11093,52.449818,-1.464064,477.42,75.74,32.258064,125.3,15 / 21,5546554,2019-09-28 15:04:24:243,0.2698,0.0864,10.2351,0.401,0.1389,9.7975,-0.007,-0.0378,-0.0048,-18.61,-21.57,9.39,131.13,-2.27,-0.89
11094,52.449818,-1.464064,477.42,75.74,32.258064,125.3,15 / 21,5547054,2019-09-28 15:04:24:743,0.1835,0.1264,10.1039,0.3742,0.086,9.7991,0.0068,0.0027,0.0336,-18.63,-21.17,10.23,132.49,-2.21,-0.78
11095,52.449818,-1.464064,477.42,75.74,32.258064,125.3,15 / 21,5547554,2019-09-28 15:04:25:243,0.1083,0.2043,9.4808,0.3384,0.0707,9.8006,-0.0091,-0.0367,0.0176,-19.01,-20.99,9.91,132.58,-2.05,-0.3
11096,52.44971,-1.463806,477.42,75.82,32.258064,125.0,15 / 21,5548053,2019-09-28 15:04:25:742,0.2379,0.5373,9.7743,0.3438,0.0759,9.8003,-0.0198,-0.0325,0.041,-18.85,-21.35,9.43,132.49,-2.01,-0.44
11097,52.4496,-1.463551,477.42,76.14,32.258064,125.2,15 / 21,5548554,2019-09-28 15:04:26:243,0.4023,0.4511,10.4257,0.3037,0.1118,9.8013,-0.0038,-0.0208,0.0016,-18.66,-21.63,9.17,131.07,-1.77,-0.65
11098,52.4496,-1.463551,477.42,76.14,32.258064,125.2,14 / 21,5549054,2019-09-28 15:04:26:743,0.2994,0.2723,9.9962,0.3061,0.1727,9.8003,0.0271,0.0133,0.008,-18.55,-21.98,8.55,130.99,-1.74,-1.01
11099,52.449493,-1.463292,477.42,75.92,32.258064,125.2,14 / 21,5549554,2019-09-28 15:04:27:243,0.4368,-0.1802,9.2978,0.3173,0.1268,9.8007,0.0079,-0.0282,0.0059,-19.17,-21.17,9.18,132.37,-1.83,-0.82
11100,52.449493,-1.463292,477.42,75.92,32.258064,125.2,14 / 21,5550054,2019-09-28 15:04:27:743,0.6311,0.3504,9.452,0.2701,0.1412,9.8019,0.0058,0.0208,0.0101,-18.86,-21.45,9.19,132.3,-1.58,-0.88
11101,52.449493,-1.463292,477.42,75.92,32.258064,125.2,14 / 21,5550555,2019-09-28 15:04:28:244,0.2465,0.1226,8.4822,0.2666,0.0844,9.8027,0.0186,0.0091,-0.009,-18.58,-21.61,9.37,131.08,-1.65,-0.51
11102,52.449387,-1.463038,477.42,75.89,29.032257,125.1,15 / 21,5551053,2019-09-28 15:04:28:742,0.457,-0.2191,9.7802,0.2791,0.1185,9.802,0.0111,-0.0122,-0.0101,-18.96,-21.41,9.08,132.35,-1.55,-0.65
11103,52.449387,-1.463038,477.42,75.89,29.032257,125.1,15 / 21,5551555,2019-09-28 15:04:29:244,0.7714,0.0417,9.3721,0.2457,0.1079,9.803,0.0079,0.0474,0.007,-18.46,-21.97,8.74,129.51,-1.48,-0.62
11104,52.44928,-1.462791,480.65,75.74,29.032257,125.1,15 / 21,5552053,2019-09-28 15:04:29:742,-0.0063,0.3718,8.8932,0.2578,0.1078,9.8027,0.0335,0.0559,-0.0112,-19.05,-21.51,8.64,131.02,-1.51,-0.63
11105,52.44928,-1.462791,480.65,75.74,29.032257,125.1,15 / 21,5552553,2019-09-28 15:04:30:242,0.3667,0.0758,10.0242,0.2198,0.0714,9.8039,-0.0422,0.0251,-0.0048,-18.83,-21.74,8.54,133.86,-1.27,-0.09
11106,52.44918,-1.462544,480.65,75.85,29.032257,125.1,15 / 21,5553054,2019-09-28 15:04:30:743,0.3735,-0.7363,9.0043,0.2468,0.1178,9.8028,-0.0049,-0.025,0.0027,-17.97,-22.36,8.78,129.48,-1.43,-0.7
11107,52.44918,-1.462544,480.65,75.85,29.032257,125.1,15 / 21,5553554,2019-09-28 15:04:31:243,0.916,0.455,9.0348,0.2715,0.1576,9.8016,0.0143,0.0645,0.024,-18.36,-21.85,9.26,129.43,-1.46,-0.97
11108,52.449066,-1.462297,480.65,74.92,29.032257,125.1,15 / 21,5554053,2019-09-28 15:04:31:742,0.0678,0.6508,9.3163,0.332,0.1488,9.7999,-0.0027,-0.008,0.0155,-18.52,-21.94,8.7,131.07,-1.96,-0.85
11109,52.449066,-1.462297,480.65,74.92,29.032257,125.1,15 / 21,5554553,2019-09-28 15:04:32:242,0.4468,0.024,9.3752,0.3054,0.1324,9.801,-0.0059,-0.0026,0.0155,-19.18,-22.23,6.17,131.05,-1.78,-0.78
11110,52.448963,-1.462048,483.87,74.95,29.032257,125.1,15 / 21,5555054,2019-09-28 15:04:32:743,-0.1941,0.1061,10.419,0.3528,0.1292,9.7995,0.0495,0.0251,-0.0484,-17.9,-22.38,8.87,129.6,-2.03,-0.77
11111,52.448963,-1.462048,483.87,74.95,29.032257,125.1,15 / 21,5555553,2019-09-28 15:04:33:242,0.567,0.1491,9.3891,0.3883,0.0415,9.7989,0.0015,0.0346,0.0165,-18.91,-21.84,8.09,128.37,-2.23,-0.44
