,GPS LATITUDE (degrees),GPS LONGITUDE (degrees), GPS ALTITUDE (m),GPS SPEED (Kmh),GPS ACCURACY (m),GPS ORIENTATION (Â°), SATELLITES IN RANGE, TIME SINCE START (ms), DATE (YYYY-MO-DD HH-MI-SS_SSS),ACCELEROMETER X (m/s²) , ACCELEROMETER Y (m/s²), ACCELEROMETER Z (m/s²), GRAVITY X (m/s²), GRAVITY Y (m/s²), GRAVITY Z (m/s²), GYROSCOPE Yaw (rad/s), GYROSCOPE Pitch (rad/s), GYROSCOPE Roll (rad/s)
42567,46.724083,-1.15728,149.37,35.99,22.512,177.9,Jul-19,4255611,2019-08-18 22:02:04:723,2.09,-0.9197,9.6583,1.9927,-0.9035,9.5595,0.0051,0.0043,0.01
42568,46.724083,-1.15728,149.37,35.99,22.512,177.9,Jul-19,4255711,2019-08-18 22:02:04:823,2.0685,-0.9676,9.6936,1.971,-0.859,9.5681,0.0019,0.0022,0.0132
42569,46.724083,-1.15728,149.37,35.99,22.512,177.9,Jul-19,4255810,2019-08-18 22:02:04:922,1.9566,-0.7755,9.5679,1.9599,-0.8311,9.5728,0.0051,0.0064,0.0121
42570,46.724083,-1.15728,149.37,35.99,22.512,177.9,Jul-19,4255911,2019-08-18 22:02:05:023,2.0487,-0.8233,9.8529,1.9638,-0.775,9.5767,0.0051,-0.0085,0.01
42571,46.724083,-1.15728,149.37,35.99,22.512,177.9,Jul-19,4256010,2019-08-18 22:02:05:122,1.9973,-0.9658,9.2064,1.9818,-0.762,9.574,0.0041,-0.0021,0.01
42572,46.724083,-1.15728,149.37,35.99,22.512,177.9,Jul-19,4256109,2019-08-18 22:02:05:221,1.9907,-0.9467,9.5087,1.993,-0.7628,9.5716,0.0083,0.0011,0.0068
42573,46.724083,-1.15728,149.37,35.99,22.512,177.9,Jul-19,4256210,2019-08-18 22:02:05:322,1.9254,-0.8341,9.3034,2.0126,-0.7729,9.5667,0.0019,0.0096,0.0068
42574,46.718864,-1.157291,120.46,33.81,19.296,179.9,0 / 19,4256309,2019-08-18 22:02:05:421,2.0182,-0.7252,9.2028,2.0158,-0.7941,9.5643,0.0019,0.0043,0.0015
42575,46.718864,-1.157291,120.46,33.81,19.296,179.9,0 / 19,4256410,2019-08-18 22:02:05:522,1.941,-0.703,9.2591,2.0265,-0.8072,9.561,-0.0045,-0.0032,0.0004
42576,46.718864,-1.157291,120.46,33.81,19.296,179.9,0 / 19,4256510,2019-08-18 22:02:05:622,1.9218,-0.8742,9.3902,2.0271,-0.8302,9.5589,0.0051,0.0043,0.0004
42577,46.718864,-1.157291,120.46,33.81,19.296,179.9,0 / 19,4256610,2019-08-18 22:02:05:722,1.8967,-0.9874,9.5554,2.0345,-0.8921,9.5517,0.0062,-0.0032,-0.0006
42578,46.718864,-1.157291,120.46,33.81,19.296,179.9,0 / 19,4256710,2019-08-18 22:02:05:822,2.1631,-0.8449,9.8948,2.0354,-0.9217,9.5487,-0.0023,-0.0021,0.0036
42579,46.718864,-1.157291,120.46,33.81,19.296,179.9,0 / 19,4256810,2019-08-18 22:02:05:922,1.7219,-0.7354,9.629,2.025,-0.9373,9.5494,-0.0013,0.0022,0.0036
42580,46.718864,-1.157291,120.46,33.81,19.296,179.9,0 / 19,4256910,2019-08-18 22:02:06:022,2.0643,-0.8317,9.954,1.9983,-0.9573,9.553,-0.0002,0.0043,0.0036
42581,46.718864,-1.157291,120.46,33.81,19.296,179.9,0 / 19,4257009,2019-08-18 22:02:06:121,2.1595,-0.9251,10.1761,1.9748,-0.9735,9.5563,0.0019,0.0032,0.0026
42582,46.718864,-1.157291,120.46,33.81,19.296,179.9,0 / 19,4257110,2019-08-18 22:02:06:222,2.0266,-0.8413,9.6607,1.9618,-0.9785,9.5585,-0.0013,0.0043,0.0036
42583,46.718864,-1.157291,120.46,33.81,19.296,179.9,0 / 19,4257210,2019-08-18 22:02:06:322,1.786,-1.1657,9.8678,1.9911,-0.9768,9.5526,0.0083,-0.0032,0.0026
42584,46.718864,-1.157291,120.46,33.81,19.296,179.9,0 / 19,4257309,2019-08-18 22:02:06:421,2.2127,-1.0448,9.805,1.997,-0.9749,9.5515,0.003,-0.0096,0.0004
42585,46.718864,-1.157291,120.46,33.81,19.296,179.9,0 / 19,4257410,2019-08-18 22:02:06:522,2.0475,-1.1304,9.9337,2.0007,-0.9715,9.5511,0.003,-0.0021,0.0026
42586,46.718864,-1.157291,120.46,33.81,19.296,179.9,0 / 19,4257510,2019-08-18 22:02:06:622,2.3007,-1.1017,9.6955,2.0092,-0.96,9.5505,0.0041,-0.0063,0.0036
42587,46.718864,-1.157291,120.46,33.81,19.296,179.9,0 / 19,4257611,2019-08-18 22:02:06:723,2.1601,-1.0125,9.3812,2.0109,-0.9442,9.5517,-0.0013,0.0107,0.01
42588,46.718864,-1.157291,120.46,33.81,19.296,179.9,0 / 19,4257709,2019-08-18 22:02:06:821,2.1912,-0.8988,9.4602,2.0036,-0.9408,9.5536,0.003,0.0075,0.01
42589,46.718864,-1.157291,120.46,33.81,19.296,179.9,0 / 19,4257810,2019-08-18 22:02:06:922,2.1397,-0.9053,9.4099,2.0149,-0.918,9.5534,-0.0045,0.0,0.01
42590,46.718864,-1.157291,120.46,33.81,19.296,179.9,0 / 19,4257910,2019-08-18 22:02:07:022,2.0966,-0.8329,8.9293,2.006,-0.9159,9.5555,0.003,0.015,0.0132
42591,46.718864,-1.157291,120.46,33.81,19.296,179.9,0 / 19,4258010,2019-08-18 22:02:07:122,1.8075,-0.7234,8.7503,1.9945,-0.9021,9.5592,0.0137,0.016,0.01
42592,46.718864,-1.157291,120.46,33.81,19.296,179.9,0 / 19,4258110,2019-08-18 22:02:07:222,2.1116,-0.8144,9.1992,1.9905,-0.8809,9.562,0.0126,-0.0021,0.009
42593,46.718864,-1.157291,120.46,33.81,19.296,179.9,0 / 19,4258210,2019-08-18 22:02:07:322,1.8931,-0.7623,9.6272,2.0031,-0.8639,9.5609,0.0073,-0.0096,0.0068
42594,46.718864,-1.157291,120.46,33.81,19.296,179.9,0 / 19,4258310,2019-08-18 22:02:07:422,1.9428,-0.5875,9.4345,2.0143,-0.8466,9.5601,0.0019,-0.0085,0.0111
42595,46.718864,-1.157291,120.46,33.81,19.296,179.9,0 / 19,4258411,2019-08-18 22:02:07:523,2.017,-0.7001,9.3788,2.051,-0.8114,9.5554,0.0094,0.0022,0.01
42596,46.718864,-1.157291,120.46,33.81,19.296,179.9,0 / 19,4258512,2019-08-18 22:02:07:624,1.9733,-0.4966,9.5692,2.0609,-0.7806,9.5558,0.0041,0.0064,0.0111
42597,46.718864,-1.157291,120.46,33.81,19.296,179.9,0 / 19,4258610,2019-08-18 22:02:07:722,2.1014,-0.475,9.5727,2.0589,-0.7713,9.557,0.0041,0.0043,0.01
42598,46.718864,-1.157291,120.46,33.81,19.296,179.9,0 / 19,4258709,2019-08-18 22:02:07:821,1.9069,-0.6426,9.5386,2.0738,-0.7655,9.5543,-0.0002,-0.0032,0.0068
42599,46.718864,-1.157291,120.46,33.81,19.296,179.9,0 / 19,4258810,2019-08-18 22:02:07:922,2.1607,-0.8257,9.8421,2.102,-0.7776,9.5471,-0.0023,-0.0021,0.0026
42600,46.718864,-1.157291,120.46,33.81,19.296,179.9,0 / 19,4258909,2019-08-18 22:02:08:021,2.0787,-0.5923,9.5267,2.1274,-0.8044,9.5393,-0.0055,0.0011,0.0036
42601,46.718864,-1.157291,120.46,33.81,19.296,179.9,0 / 19,4259010,2019-08-18 22:02:08:122,1.8925,-0.7581,9.3046,2.1644,-0.842,9.5277,-0.0002,0.0054,0.0026
42602,46.718864,-1.157291,120.46,33.81,19.296,179.9,0 / 19,4259110,2019-08-18 22:02:08:222,2.3684,-0.8054,9.5213,2.1746,-0.8448,9.5251,0.0009,-0.0096,-0.0038
42603,46.718864,-1.157291,120.46,33.81,19.296,179.9,0 / 19,4259209,2019-08-18 22:02:08:321,2.266,-0.9012,9.471,2.1915,-0.8556,9.5203,0.0019,-0.0021,-0.0017
42604,46.718864,-1.157291,120.46,33.81,19.296,179.9,0 / 19,4259310,2019-08-18 22:02:08:422,2.2331,-1.0047,9.8756,2.211,-0.8702,9.5144,-0.0013,0.0022,0.0015
42605,46.718864,-1.157291,120.46,33.81,19.296,179.9,0 / 19,4259411,2019-08-18 22:02:08:523,2.3791,-1.0724,9.7679,2.2653,-0.9058,9.4983,0.0009,0.0043,-0.0017
42606,46.718864,-1.157291,120.46,33.81,19.296,179.9,0 / 19,4259510,2019-08-18 22:02:08:622,2.2672,-1.2405,9.8648,2.2963,-0.9346,9.4881,0.0051,-0.0032,-0.0038
42607,46.718864,-1.157291,120.46,33.81,19.296,179.9,0 / 19,4259612,2019-08-18 22:02:08:724,2.7508,-1.0269,9.4608,2.3317,-0.9488,9.478,0.0019,0.0022,0.0004
42608,46.718864,-1.157291,120.46,33.81,19.296,179.9,0 / 19,4259711,2019-08-18 22:02:08:823,2.6084,-1.1316,9.9229,2.3274,-0.9465,9.4793,0.0051,0.0096,0.0015
42609,46.718864,-1.157291,120.46,33.81,19.296,179.9,0 / 19,4259810,2019-08-18 22:02:08:922,2.5814,-1.149,9.3034,2.3317,-0.9478,9.4782,-0.0002,0.0022,0.0015
42610,46.718864,-1.157291,120.46,33.81,19.296,179.9,0 / 19,4259910,2019-08-18 22:02:09:022,2.4342,-1.146,9.3399,2.3521,-0.9443,9.4735,0.0073,0.0043,-0.0006
42611,46.718864,-1.157291,120.46,33.81,19.296,179.9,0 / 19,4260009,2019-08-18 22:02:09:121,2.4922,-0.9676,9.2489,2.3901,-0.938,9.4646,-0.0055,-0.0074,0.0026
42612,46.718864,-1.157291,120.46,33.81,19.296,179.9,0 / 19,4260110,2019-08-18 22:02:09:222,2.5473,-1.1609,9.7499,2.4158,-0.9348,9.4584,0.0105,0.0022,-0.0006
42613,46.718864,-1.157291,120.46,33.81,19.296,179.9,0 / 19,4260211,2019-08-18 22:02:09:323,2.4677,-1.0382,9.465,2.4313,-0.9173,9.4561,-0.0066,0.0054,0.0047
42614,46.718864,-1.157291,120.46,33.81,19.296,179.9,0 / 19,4260310,2019-08-18 22:02:09:422,2.5258,-0.9868,9.1951,2.4592,-0.9337,9.4473,0.003,-0.0032,-0.0006
42615,46.718864,-1.157291,120.46,33.81,19.296,179.9,0 / 19,4260410,2019-08-18 22:02:09:522,2.3767,-0.569,9.2298,2.4699,-0.9276,9.4451,-0.0023,-0.0042,0.0036
42616,46.718864,-1.157291,120.46,33.81,19.296,179.9,0 / 19,4260510,2019-08-18 22:02:09:622,2.4719,-0.87,9.0999,2.4787,-0.9231,9.4432,0.0009,0.0086,0.0047
42617,46.718864,-1.157291,120.46,33.81,19.296,179.9,0 / 19,4260610,2019-08-18 22:02:09:722,2.5898,-0.7617,9.3962,2.484,-0.9099,9.4431,0.0062,-0.0042,0.0015
42618,46.718864,-1.157291,120.46,33.81,19.296,179.9,0 / 19,4260710,2019-08-18 22:02:09:822,2.6748,-0.66,9.5231,2.5007,-0.8881,9.4408,-0.0002,-0.0032,0.0058
42619,46.718864,-1.157291,120.46,33.81,19.296,179.9,0 / 19,4260810,2019-08-18 22:02:09:922,2.6772,-0.7396,9.4536,2.5009,-0.8735,9.4421,0.0062,-0.001,0.0036
42620,46.718864,-1.157291,120.46,33.81,19.296,179.9,0 / 19,4260910,2019-08-18 22:02:10:022,2.6275,-0.8048,10.0695,2.5064,-0.8553,9.4423,0.0105,0.0,0.0036
42621,46.718864,-1.157291,120.46,33.81,19.296,179.9,0 / 19,4261010,2019-08-18 22:02:10:122,2.4324,-0.5558,9.3543,2.5027,-0.8322,9.4453,0.003,0.0064,0.0079
42622,46.718864,-1.157291,120.46,33.81,19.296,179.9,0 / 19,4261110,2019-08-18 22:02:10:222,2.831,-0.6959,9.708,2.4932,-0.8292,9.4481,0.0009,0.0118,0.01
42623,46.718864,-1.157291,120.46,33.81,19.296,179.9,0 / 19,4261210,2019-08-18 22:02:10:322,2.2935,-0.5528,9.5201,2.4844,-0.8239,9.4509,-0.0002,0.0054,0.0079
42624,46.718864,-1.157291,120.46,33.81,19.296,179.9,0 / 19,4261309,2019-08-18 22:02:10:421,2.5084,-0.9197,9.6458,2.4875,-0.8184,9.4505,0.0051,-0.0063,0.0026
42625,46.718864,-1.157291,120.46,33.81,19.296,179.9,0 / 19,4261409,2019-08-18 22:02:10:521,2.5138,-0.9856,9.5727,2.4909,-0.8192,9.4496,-0.0045,-0.0053,0.0058
42626,46.718864,-1.157291,120.46,33.81,19.296,179.9,0 / 19,4261509,2019-08-18 22:02:10:621,2.4839,-1.1274,9.1131,2.4991,-0.8352,9.446,-0.0002,0.0011,0.0015
42627,46.718864,-1.157291,120.46,33.81,19.296,179.9,0 / 19,4261609,2019-08-18 22:02:10:721,2.5114,-1.28,9.3285,2.5003,-0.8579,9.4437,-0.0013,0.0043,-0.0006
42628,46.718864,-1.157291,120.46,33.81,19.296,179.9,0 / 19,4261710,2019-08-18 22:02:10:822,2.3354,-1.1717,8.8341,2.4991,-0.8638,9.4434,-0.0013,0.0043,-0.0028
42629,46.718864,-1.157291,120.46,33.81,19.296,179.9,0 / 19,4261811,2019-08-18 22:02:10:923,2.445,-1.0879,9.049,2.5082,-0.9081,9.4369,0.0041,0.0032,-0.006
42630,46.718864,-1.157291,120.46,33.81,19.296,179.9,0 / 19,4261912,2019-08-18 22:02:11:024,2.4635,-1.07,9.1879,2.5259,-0.9827,9.4247,-0.0055,0.0011,-0.0028
42631,46.718864,-1.157291,120.46,33.81,19.296,179.9,0 / 19,4262010,2019-08-18 22:02:11:122,2.3875,-1.2388,8.9796,2.5327,-1.0078,9.4202,-0.0002,0.0022,-0.0049
42632,46.718864,-1.157291,120.46,33.81,19.296,179.9,0 / 19,4262110,2019-08-18 22:02:11:222,2.6102,-0.8629,9.5733,2.5279,-1.0121,9.421,0.0009,0.0054,-0.0028
42633,46.718864,-1.157291,120.46,33.81,19.296,179.9,0 / 19,4262211,2019-08-18 22:02:11:323,2.6964,-0.9766,9.86,2.5348,-1.0532,9.4147,0.0083,-0.0021,-0.0049
42634,46.718864,-1.157291,120.46,33.81,19.296,179.9,0 / 19,4262310,2019-08-18 22:02:11:422,2.7125,-0.9969,9.5644,2.5449,-1.0713,9.4099,0.003,0.0054,-0.0028
42635,46.718864,-1.157291,120.46,33.81,19.296,179.9,0 / 19,4262410,2019-08-18 22:02:11:522,2.7586,-0.8623,9.7613,2.5426,-1.0705,9.4106,-0.0013,0.0022,-0.0006
42636,46.718864,-1.157291,120.46,33.81,19.296,179.9,0 / 19,4262511,2019-08-18 22:02:11:623,2.752,-1.1274,9.6075,2.5452,-1.0629,9.4108,0.0019,0.0011,-0.0038
42637,46.718864,-1.157291,120.46,33.81,19.296,179.9,0 / 19,4262612,2019-08-18 22:02:11:724,2.7173,-0.9526,9.5027,2.5424,-1.0623,9.4116,-0.0013,0.0075,-0.0028
42638,46.718864,-1.157291,120.46,33.81,19.296,179.9,0 / 19,4262712,2019-08-18 22:02:11:824,2.7532,-1.3357,9.3692,2.543,-1.0645,9.4112,-0.0055,-0.0021,-0.0038
42639,46.718864,-1.157291,120.46,33.81,19.296,179.9,0 / 19,4262811,2019-08-18 22:02:11:923,2.5569,-1.2567,9.1418,2.562,-1.0552,9.4071,0.003,0.0075,-0.0028
42640,46.718864,-1.157291,120.46,33.81,19.296,179.9,0 / 19,4262909,2019-08-18 22:02:12:021,2.6185,-1.2866,9.3806,2.5828,-1.0622,9.4006,0.0041,0.0011,-0.0049
42641,46.718864,-1.157291,120.46,33.81,19.296,179.9,0 / 19,4263010,2019-08-18 22:02:12:122,2.4563,-1.3908,9.0825,2.5888,-1.0687,9.3982,0.0062,0.0032,-0.0049
42642,46.718864,-1.157291,120.46,33.81,19.296,179.9,0 / 19,4263110,2019-08-18 22:02:12:222,2.2792,-1.1687,8.8509,2.5773,-1.0656,9.4017,0.0062,0.0064,-0.0038
42643,46.718864,-1.157291,120.46,33.81,19.296,179.9,0 / 19,4263210,2019-08-18 22:02:12:322,2.1786,-1.0388,9.3016,2.5625,-1.0662,9.4057,-0.0002,0.0075,-0.0028
42644,46.718864,-1.157291,120.46,33.81,19.296,179.9,0 / 19,4263310,2019-08-18 22:02:12:422,2.0655,-0.9407,9.4087,2.5149,-1.0804,9.4169,0.0009,0.0032,-0.0028
42645,46.718864,-1.157291,120.46,33.81,19.296,179.9,0 / 19,4263410,2019-08-18 22:02:12:522,2.2564,-1.0227,9.9325,2.4417,-1.0826,9.4359,0.0019,0.0054,-0.0006
42646,46.718864,-1.157291,120.46,33.81,19.296,179.9,0 / 19,4263510,2019-08-18 22:02:12:622,2.1529,-0.8216,9.9881,2.362,-1.0837,9.4561,-0.0013,-0.001,0.0004
42647,46.718864,-1.157291,120.46,33.81,19.296,179.9,0 / 19,4263610,2019-08-18 22:02:12:722,2.3342,-1.0424,9.8798,2.3156,-1.088,9.467,0.003,0.0,0.0004
42648,46.718864,-1.157291,120.46,33.81,19.296,179.9,0 / 19,4263710,2019-08-18 22:02:12:822,2.3606,-1.1065,9.8798,2.2686,-1.0844,9.4788,0.0019,0.0064,-0.0006
42649,46.718864,-1.157291,120.46,33.81,19.296,179.9,0 / 19,4263811,2019-08-18 22:02:12:923,2.3624,-1.1274,9.4824,2.2535,-1.0788,9.4831,-0.0023,-0.001,0.0004
42650,46.718864,-1.157291,120.46,33.81,19.296,179.9,0 / 19,4263911,2019-08-18 22:02:13:023,2.345,-1.2639,9.2136,2.258,-1.0766,9.4822,-0.0045,-0.001,-0.0006
42651,46.718864,-1.157291,120.46,33.81,19.296,179.9,0 / 19,4264010,2019-08-18 22:02:13:122,2.2708,-1.1172,9.219,2.2582,-1.0775,9.4821,-0.0034,0.0064,-0.0006
42652,46.718864,-1.157291,120.46,33.81,19.296,179.9,0 / 19,4264110,2019-08-18 22:02:13:222,2.2451,-1.1831,9.0849,2.2579,-1.0787,9.482,0.0041,0.0043,-0.0017
42653,46.718864,-1.157291,120.46,33.81,19.296,179.9,0 / 19,4264210,2019-08-18 22:02:13:322,2.2516,-1.0101,8.9676,2.2802,-1.0768,9.4769,0.0073,-0.0032,-0.0038
42654,46.718864,-1.157291,120.46,33.81,19.296,179.9,Aug-19,4264310,2019-08-18 22:02:13:422,2.2145,-0.9897,9.2124,2.3135,-1.0851,9.4679,-0.0013,-0.0032,-0.0038
42655,46.718864,-1.157291,120.46,33.81,19.296,179.9,Aug-19,4264410,2019-08-18 22:02:13:522,2.4156,-0.988,9.5111,2.3625,-1.0972,9.4544,0.0009,0.0022,-0.0038
42656,46.718864,-1.157291,120.46,33.81,19.296,179.9,Aug-19,4264510,2019-08-18 22:02:13:622,2.5755,-0.952,10.0719,2.3899,-1.1082,9.4462,0.003,-0.0042,-0.0049
42657,46.718864,-1.157291,120.46,33.81,19.296,179.9,Aug-19,4264609,2019-08-18 22:02:13:721,2.3785,-0.9945,9.2717,2.4271,-1.1238,9.4349,0.0019,0.0054,-0.0038
42658,46.718864,-1.157291,120.46,33.81,19.296,179.9,Aug-19,4264710,2019-08-18 22:02:13:822,2.5527,-1.0592,9.4548,2.4203,-1.1213,9.4369,-0.0002,0.0107,-0.0028
42659,46.718864,-1.157291,120.46,33.81,19.296,179.9,Aug-19,4264810,2019-08-18 22:02:13:922,2.2588,-1.2806,9.6847,2.4123,-1.1216,9.4389,-0.0002,0.0086,-0.0049
42660,46.718864,-1.157291,120.46,33.81,19.296,179.9,Aug-19,4264911,2019-08-18 22:02:14:023,2.4863,-1.4794,9.474,2.4073,-1.1232,9.44,-0.0002,0.0,-0.007
42661,46.718864,-1.157291,120.46,33.81,19.296,179.9,Aug-19,4265010,2019-08-18 22:02:14:122,2.3821,-1.3237,9.5063,2.3828,-1.1306,9.4453,-0.0023,0.0054,-0.0038
42662,46.718864,-1.157291,120.46,33.81,19.296,179.9,Aug-19,4265110,2019-08-18 22:02:14:222,2.3486,-1.2669,9.3064,2.3619,-1.1374,9.4498,0.0051,0.0075,-0.007
42663,46.718864,-1.157291,120.46,33.81,19.296,179.9,Aug-19,4265210,2019-08-18 22:02:14:322,2.269,-1.31,9.3226,2.3523,-1.1656,9.4487,-0.0002,-0.0021,-0.007
42664,46.718864,-1.157291,120.46,33.81,19.296,179.9,0 / 19,4265310,2019-08-18 22:02:14:422,2.4115,-1.055,9.6104,2.3518,-1.1832,9.4467,0.003,-0.0085,-0.0092
42665,46.718864,-1.157291,120.46,33.81,19.296,179.9,0 / 19,4265411,2019-08-18 22:02:14:523,2.3121,-1.0795,9.1328,2.3642,-1.189,9.4428,0.0041,0.0,-0.0081
42666,46.718864,-1.157291,120.46,33.81,19.296,179.9,0 / 19,4265510,2019-08-18 22:02:14:622,2.4791,-1.0023,9.5602,2.3764,-1.1971,9.4388,-0.0013,0.0086,-0.0038
42667,46.718864,-1.157291,120.46,33.81,19.296,179.9,0 / 19,4265610,2019-08-18 22:02:14:722,2.4396,-0.9425,9.6284,2.4007,-1.1872,9.4339,-0.0002,0.0064,-0.0017
42668,46.718864,-1.157291,120.46,33.81,19.296,179.9,0 / 19,4265711,2019-08-18 22:02:14:823,2.515,-1.1358,9.5255,2.4144,-1.1716,9.4323,0.003,0.0032,-0.0028
42669,46.718864,-1.157291,120.46,33.81,19.296,179.9,0 / 19,4265810,2019-08-18 22:02:14:922,2.4845,-1.2088,9.395,2.4498,-1.1123,9.4304,0.0062,-0.0053,-0.0006
42670,46.718864,-1.157291,120.46,33.81,19.296,179.9,0 / 19,4265910,2019-08-18 22:02:15:022,2.5437,-1.2214,9.4458,2.4697,-1.0693,9.4302,0.0115,-0.0032,-0.0006
42671,46.718864,-1.157291,120.46,33.81,19.296,179.9,0 / 19,4266010,2019-08-18 22:02:15:122,2.4994,-0.9993,9.2399,2.4827,-1.0347,9.4306,0.0019,0.0022,0.0047
42672,46.718864,-1.157291,120.46,33.81,19.296,179.9,0 / 19,4266111,2019-08-18 22:02:15:223,2.7083,-0.9957,9.8235,2.4989,-0.976,9.4326,0.003,0.0,0.0036
42673,46.718864,-1.157291,120.46,33.81,19.296,179.9,0 / 19,4266210,2019-08-18 22:02:15:322,2.5072,-0.8611,8.8712,2.508,-0.9188,9.4359,0.0019,0.0118,0.0079
42674,46.718864,-1.157291,120.46,33.81,19.296,179.9,0 / 19,4266310,2019-08-18 22:02:15:422,2.5557,-0.7491,9.2364,2.5147,-0.8936,9.4365,0.0062,-0.001,0.0047
42675,46.715813,-1.157203,118.35,34.51,21.44,178.5,0 / 19,4266409,2019-08-18 22:02:15:521,2.6066,-0.5229,10.0103,2.5339,-0.8812,9.4326,0.0019,-0.0223,0.0036
42676,46.715813,-1.157203,118.35,34.51,21.44,178.5,0 / 19,4266511,2019-08-18 22:02:15:623,2.6892,-0.3589,9.5488,2.541,-0.8835,9.4304,-0.0098,0.0011,0.01
42677,46.715813,-1.157203,118.35,34.51,21.44,178.5,0 / 19,4266610,2019-08-18 22:02:15:722,2.4749,-0.7066,9.8439,2.5346,-0.8753,9.4329,0.0115,0.0064,0.0047
42678,46.715813,-1.157203,118.35,34.51,21.44,178.5,0 / 19,4266711,2019-08-18 22:02:15:823,2.6,-0.8383,9.7326,2.5381,-0.8515,9.4342,0.0051,0.0086,0.0068
42679,46.715813,-1.157203,118.35,34.51,21.44,178.5,0 / 19,4266810,2019-08-18 22:02:15:922,2.591,-1.04,9.4363,2.5589,-0.8134,9.4319,0.0094,-0.0106,0.0026
42680,46.715813,-1.157203,118.35,34.51,21.44,178.5,0 / 19,4266911,2019-08-18 22:02:16:023,2.4007,-0.8545,9.2226,2.5613,-0.8105,9.4315,0.0041,0.0022,0.0026
42681,46.715813,-1.157203,118.35,34.51,21.44,178.5,0 / 19,4267011,2019-08-18 22:02:16:123,2.6323,-1.149,9.2286,2.5652,-0.8053,9.4309,-0.0002,0.0011,0.0004
42682,46.715813,-1.157203,118.35,34.51,21.44,178.5,0 / 19,4267109,2019-08-18 22:02:16:221,2.6832,-0.9275,9.3818,2.5686,-0.8342,9.4274,-0.0013,0.0011,-0.0017
42683,46.715813,-1.157203,118.35,34.51,21.44,178.5,0 / 19,4267210,2019-08-18 22:02:16:322,2.6473,-0.7521,9.4836,2.5573,-0.8468,9.4294,-0.0045,0.0032,-0.0006
42684,46.715813,-1.157203,118.35,34.51,21.44,178.5,0 / 19,4267310,2019-08-18 22:02:16:422,2.5695,-0.9808,10.06,2.5328,-0.8652,9.4343,-0.0045,0.0022,-0.0006
42685,46.715813,-1.157203,118.35,34.51,21.44,178.5,0 / 19,4267410,2019-08-18 22:02:16:522,2.2786,-0.7779,9.8541,2.4773,-0.9229,9.4436,-0.0013,0.0054,0.0004
42686,46.715813,-1.157203,118.35,34.51,21.44,178.5,0 / 19,4267511,2019-08-18 22:02:16:623,2.1188,-1.2082,9.3315,2.4544,-0.9463,9.4473,0.0019,0.0096,-0.0006
42687,46.715813,-1.157203,118.35,34.51,21.44,178.5,0 / 19,4267612,2019-08-18 22:02:16:724,2.3995,-1.1891,9.3088,2.4196,-0.9679,9.454,-0.0002,-0.0032,-0.0038
42688,46.715813,-1.157203,118.35,34.51,21.44,178.5,0 / 19,4267710,2019-08-18 22:02:16:822,2.0481,-1.3411,9.0442,2.4185,-0.9694,9.4542,0.003,-0.001,-0.0038
42689,46.715813,-1.157203,118.35,34.51,21.44,178.5,0 / 19,4267810,2019-08-18 22:02:16:922,2.2265,-1.3232,8.8647,2.3831,-0.9973,9.4603,0.0105,0.0107,-0.0017
42690,46.715813,-1.157203,118.35,34.51,21.44,178.5,0 / 19,4267912,2019-08-18 22:02:17:024,2.3151,-0.976,9.3459,2.3607,-1.0114,9.4644,0.0062,0.0054,-0.0017
42691,46.715813,-1.157203,118.35,34.51,21.44,178.5,0 / 19,4268012,2019-08-18 22:02:17:124,2.6748,-0.8712,9.8373,2.3402,-1.028,9.4677,0.0051,-0.001,-0.0049
42692,46.715813,-1.157203,118.35,34.51,21.44,178.5,0 / 19,4268110,2019-08-18 22:02:17:222,2.5234,-1.0748,10.1342,2.3403,-1.0336,9.4671,0.003,-0.0053,-0.0049
42693,46.715813,-1.157203,118.35,34.51,21.44,178.5,0 / 19,4268210,2019-08-18 22:02:17:322,2.5252,-0.8808,10.0342,2.3254,-1.0223,9.4719,0.0009,-0.0032,-0.0017
42694,46.715813,-1.157203,118.35,34.51,21.44,178.5,0 / 19,4268310,2019-08-18 22:02:17:422,2.0511,-1.225,9.2052,2.3268,-1.0175,9.4721,0.0041,0.0032,0.0026
42695,46.715813,-1.157203,118.35,34.51,21.44,178.5,0 / 19,4268410,2019-08-18 22:02:17:522,2.1122,-1.1071,9.0735,2.3119,-1.0182,9.4757,0.0009,0.0096,0.0047
42696,46.715813,-1.157203,118.35,34.51,21.44,178.5,0 / 19,4268510,2019-08-18 22:02:17:622,2.1427,-1.0975,9.1621,2.3066,-1.0116,9.4777,0.0062,0.0043,0.0015
42697,46.715813,-1.157203,118.35,34.51,21.44,178.5,0 / 19,4268610,2019-08-18 22:02:17:722,2.1523,-0.9676,8.8916,2.3081,-1.0019,9.4784,0.0019,0.0011,0.0036
42698,46.715813,-1.157203,118.35,34.51,21.44,178.5,0 / 19,4268710,2019-08-18 22:02:17:822,2.6233,-0.8676,9.7924,2.3136,-0.9916,9.4781,0.0115,-0.0074,0.0026
42699,46.715813,-1.157203,118.35,34.51,21.44,178.5,0 / 19,4268811,2019-08-18 22:02:17:923,2.5264,-0.4846,9.7876,2.3219,-0.97,9.4783,0.0073,-0.0021,0.0068
42700,46.715813,-1.157203,118.35,34.51,21.44,178.5,0 / 19,4268910,2019-08-18 22:02:18:022,2.8292,-0.566,10.1587,2.3407,-0.9215,9.4785,0.0115,-0.0096,0.0047
42701,46.715813,-1.157203,118.35,34.51,21.44,178.5,0 / 19,4269010,2019-08-18 22:02:18:122,2.5826,-0.8641,9.5021,2.3746,-0.8631,9.4756,0.0041,-0.0021,0.0058
42702,46.715813,-1.157203,118.35,34.51,21.44,178.5,0 / 19,4269110,2019-08-18 22:02:18:222,2.4923,-0.7922,9.4393,2.3818,-0.8321,9.4765,0.003,0.0054,0.0079
42703,46.715813,-1.157203,118.35,34.51,21.44,178.5,0 / 19,4269210,2019-08-18 22:02:18:322,2.3313,-0.7282,9.5859,2.404,-0.7877,9.4747,0.0083,0.0043,0.0079
42704,46.715813,-1.157203,118.35,34.51,21.44,178.5,0 / 19,4269310,2019-08-18 22:02:18:422,2.4037,-0.7479,9.3327,2.4359,-0.7528,9.4694,-0.0034,-0.0021,0.01
42705,46.715813,-1.157203,118.35,34.51,21.44,178.5,0 / 19,4269410,2019-08-18 22:02:18:522,2.5725,-0.7737,9.1693,2.4552,-0.7339,9.4659,0.0051,-0.0085,0.0068
42706,46.715813,-1.157203,118.35,34.51,21.44,178.5,0 / 19,4269510,2019-08-18 22:02:18:622,2.6599,-0.3996,9.5697,2.4821,-0.6913,9.4621,-0.0002,-0.0063,0.0079
42707,46.715813,-1.157203,118.35,34.51,21.44,178.5,0 / 19,4269611,2019-08-18 22:02:18:723,2.8675,-0.3708,9.9594,2.4926,-0.6862,9.4597,0.0062,-0.0032,0.0058
42708,46.715813,-1.157203,118.35,34.51,21.44,178.5,0 / 19,4269710,2019-08-18 22:02:18:822,2.7634,-0.6593,9.5859,2.5039,-0.6678,9.4581,0.003,0.0086,0.0111
42709,46.715813,-1.157203,118.35,34.51,21.44,178.5,0 / 19,4269811,2019-08-18 22:02:18:923,2.5162,-0.733,9.301,2.5166,-0.6374,9.4568,0.0062,0.0064,0.009
42710,46.715813,-1.157203,118.35,34.51,21.44,178.5,0 / 19,4269910,2019-08-18 22:02:19:022,2.1882,-0.736,8.952,2.527,-0.6264,9.4547,0.0009,-0.001,0.0068
42711,46.715813,-1.157203,118.35,34.51,21.44,178.5,0 / 19,4270012,2019-08-18 22:02:19:124,2.1571,-0.8832,9.2765,2.5186,-0.6454,9.4557,0.003,-0.0021,0.0026
42712,46.715813,-1.157203,118.35,34.51,21.44,178.5,0 / 19,4270110,2019-08-18 22:02:19:222,2.1337,-0.8228,9.4961,2.5078,-0.6568,9.4578,-0.0023,0.0032,0.0004
42713,46.715813,-1.157203,118.35,34.51,21.44,178.5,0 / 19,4270210,2019-08-18 22:02:19:322,2.3193,-0.8323,10.0372,2.4938,-0.6676,9.4607,-0.0023,0.0064,-0.0006
42714,46.715813,-1.157203,118.35,34.51,21.44,178.5,0 / 19,4270310,2019-08-18 22:02:19:422,2.4605,-0.8844,10.2964,2.4827,-0.6849,9.4624,-0.0066,0.0011,-0.0028
42715,46.715813,-1.157203,118.35,34.51,21.44,178.5,0 / 19,4270409,2019-08-18 22:02:19:521,2.2349,-1.1035,9.3573,2.4353,-0.7436,9.4703,-0.0055,0.0118,-0.0038
42716,46.715813,-1.157203,118.35,34.51,21.44,178.5,0 / 19,4270510,2019-08-18 22:02:19:622,2.1445,-1.3525,9.1627,2.411,-0.7662,9.4747,-0.0013,0.0118,-0.006
42717,46.715813,-1.157203,118.35,34.51,21.44,178.5,0 / 19,4270610,2019-08-18 22:02:19:722,2.123,-1.4315,9.3986,2.4041,-0.7824,9.4752,-0.0023,-0.0042,-0.0081
42718,46.715813,-1.157203,118.35,34.51,21.44,178.5,0 / 19,4270710,2019-08-18 22:02:19:822,2.2163,-1.2872,9.6924,2.4089,-0.8056,9.472,-0.0034,-0.0149,-0.0081
42719,46.715813,-1.157203,118.35,34.51,21.44,178.5,0 / 19,4270811,2019-08-18 22:02:19:923,2.199,-1.0903,9.2848,2.4053,-0.8185,9.4718,-0.0002,0.0,-0.0028
42720,46.715813,-1.157203,118.35,34.51,21.44,178.5,0 / 19,4270910,2019-08-18 22:02:20:022,2.3414,-0.9664,9.4123,2.3946,-0.8273,9.4737,0.0073,0.0096,-0.0038
42721,46.715813,-1.157203,118.35,34.51,21.44,178.5,0 / 19,4271011,2019-08-18 22:02:20:123,2.3372,-1.1304,9.8475,2.3782,-0.8636,9.4746,-0.0013,-0.001,-0.0006
42722,46.715813,-1.157203,118.35,34.51,21.44,178.5,0 / 19,4271111,2019-08-18 22:02:20:223,2.43,-1.116,9.298,2.3688,-0.8915,9.4744,0.0062,0.0022,-0.0017
42723,46.715813,-1.157203,118.35,34.51,21.44,178.5,0 / 19,4271210,2019-08-18 22:02:20:322,2.4797,-1.1424,9.3788,2.376,-0.891,9.4726,0.0019,-0.0085,-0.0017
42724,46.715813,-1.157203,118.35,34.51,21.44,178.5,0 / 19,4271312,2019-08-18 22:02:20:424,2.3384,-1.0227,9.3028,2.411,-0.9046,9.4625,0.0083,-0.001,0.0026
42725,46.715813,-1.157203,118.35,34.51,21.44,178.5,0 / 19,4271410,2019-08-18 22:02:20:522,2.2145,-0.7012,8.9401,2.4295,-0.8941,9.4588,0.0115,0.0032,0.0026
42726,46.715813,-1.157203,118.35,34.51,21.44,178.5,0 / 19,4271510,2019-08-18 22:02:20:622,2.5737,-0.7078,9.4566,2.441,-0.8573,9.4592,-0.0002,-0.0021,0.0047
42727,46.715813,-1.157203,118.35,34.51,21.44,178.5,0 / 19,4271612,2019-08-18 22:02:20:724,2.7724,-0.7677,10.1982,2.453,-0.8548,9.4563,0.0009,-0.0021,0.0047
42728,46.715813,-1.157203,118.35,34.51,21.44,178.5,0 / 19,4271712,2019-08-18 22:02:20:824,2.5431,-0.8192,9.4111,2.4681,-0.8375,9.454,-0.0002,-0.0042,0.0047
42729,46.715813,-1.157203,118.35,34.51,21.44,178.5,0 / 19,4271811,2019-08-18 22:02:20:923,2.697,-1.1657,9.4901,2.4873,-0.8236,9.4502,0.0009,0.0,0.0026
42730,46.715813,-1.157203,118.35,34.51,21.44,178.5,0 / 19,4271911,2019-08-18 22:02:21:023,2.0499,-0.5372,9.2244,2.4616,-0.8001,9.4589,-0.0034,0.0064,0.0068
42731,46.715813,-1.157203,118.35,34.51,21.44,178.5,0 / 19,4272010,2019-08-18 22:02:21:122,2.1696,-0.876,9.4435,2.4491,-0.8122,9.4611,-0.0098,0.0075,0.0068
42732,46.715813,-1.157203,118.35,34.51,21.44,178.5,0 / 19,4272110,2019-08-18 22:02:21:222,2.084,-0.9113,9.1711,2.4293,-0.8197,9.4656,-0.0013,0.0022,0.0036
42733,46.715813,-1.157203,118.35,34.51,21.44,178.5,0 / 19,4272210,2019-08-18 22:02:21:322,2.2654,-0.7479,9.7427,2.3833,-0.8418,9.4753,-0.0034,0.0,0.0036
42734,46.715813,-1.157203,118.35,34.51,21.44,178.5,0 / 19,4272310,2019-08-18 22:02:21:422,2.0822,-0.8682,9.7529,2.2865,-0.8913,9.4946,-0.0034,0.0011,0.0026
42735,46.715813,-1.157203,118.35,34.51,21.44,178.5,0 / 19,4272410,2019-08-18 22:02:21:522,2.1307,-1.304,9.711,2.22,-0.9379,9.5059,0.0009,-0.0032,-0.0028
42736,46.715813,-1.157203,118.35,34.51,21.44,178.5,0 / 19,4272510,2019-08-18 22:02:21:622,1.8632,-1.301,9.5201,2.1852,-0.9686,9.5109,-0.0034,0.0054,-0.0006
42737,46.715813,-1.157203,118.35,34.51,21.44,178.5,0 / 19,4272610,2019-08-18 22:02:21:722,1.92,-1.2573,9.5961,2.1342,-1.0104,9.5181,0.0019,0.0054,-0.0028
42738,46.715813,-1.157203,118.35,34.51,21.44,178.5,0 / 19,4272710,2019-08-18 22:02:21:822,2.1236,-1.1921,9.4207,2.1179,-1.0389,9.5187,-0.0002,-0.001,-0.0038
42739,46.715813,-1.157203,118.35,34.51,21.44,178.5,0 / 19,4272810,2019-08-18 22:02:21:922,2.2516,-1.3279,9.3058,2.1025,-1.061,9.5197,-0.0002,0.0,-0.0049
42740,46.715813,-1.157203,118.35,34.51,21.44,178.5,0 / 19,4272911,2019-08-18 22:02:22:023,2.2385,-1.1017,9.6589,2.103,-1.0737,9.5181,-0.0013,-0.0063,-0.0038
42741,46.715813,-1.157203,118.35,34.51,21.44,178.5,0 / 19,4273010,2019-08-18 22:02:22:122,2.011,-1.0759,9.3058,2.1099,-1.0774,9.5162,0.003,0.0,-0.0028
42742,46.715813,-1.157203,118.35,34.51,21.44,178.5,0 / 19,4273111,2019-08-18 22:02:22:223,1.935,-1.1131,9.4901,2.1119,-1.0803,9.5154,-0.0002,0.0011,-0.0006
42743,46.715813,-1.157203,118.35,34.51,21.44,178.5,0 / 19,4273210,2019-08-18 22:02:22:322,2.0553,-1.1981,9.4854,2.1566,-1.0807,9.5053,0.0051,0.0011,-0.0017
42744,46.715813,-1.157203,118.35,34.51,21.44,178.5,Sep-19,4273310,2019-08-18 22:02:22:422,2.2421,-1.4339,9.401,2.18,-1.0824,9.4998,0.0019,0.0011,-0.0038
42745,46.715813,-1.157203,118.35,34.51,21.44,178.5,Sep-19,4273412,2019-08-18 22:02:22:524,2.1433,-1.1537,9.1346,2.2124,-1.0757,9.4931,0.0073,0.0011,-0.0028
42746,46.715813,-1.157203,118.35,34.51,21.44,178.5,Sep-19,4273509,2019-08-18 22:02:22:621,2.4988,-0.8431,9.1723,2.2535,-1.0707,9.484,0.0094,-0.001,-0.0017
42747,46.715813,-1.157203,118.35,34.51,21.44,178.5,Sep-19,4273610,2019-08-18 22:02:22:722,2.6114,-0.8605,9.5464,2.292,-1.05,9.4771,0.0019,0.0011,-0.0006
42748,46.715813,-1.157203,118.35,34.51,21.44,178.5,Sep-19,4273711,2019-08-18 22:02:22:823,2.4809,-0.9119,9.6272,2.304,-1.0397,9.4753,-0.0013,0.0022,0.0015
42749,46.715813,-1.157203,118.35,34.51,21.44,178.5,Sep-19,4273809,2019-08-18 22:02:22:921,2.3025,-0.9299,9.3824,2.3488,-1.0117,9.4673,0.0073,-0.0032,-0.0017
42750,46.715813,-1.157203,118.35,34.51,21.44,178.5,Sep-19,4273910,2019-08-18 22:02:23:022,2.2582,-1.0239,9.283,2.3743,-0.9868,9.4636,-0.0013,-0.0063,0.0004
42751,46.715813,-1.157203,118.35,34.51,21.44,178.5,Sep-19,4274010,2019-08-18 22:02:23:122,2.1385,-0.9113,9.3938,2.3965,-0.9701,9.4597,0.0062,-0.0032,-0.0006
42752,46.715813,-1.157203,118.35,34.51,21.44,178.5,Sep-19,4274110,2019-08-18 22:02:23:222,2.4306,-0.9203,9.6613,2.4224,-0.9657,9.4536,0.0009,0.0011,-0.0006
42753,46.715813,-1.157203,118.35,34.51,21.44,178.5,Sep-19,4274211,2019-08-18 22:02:23:323,2.4899,-0.727,9.1101,2.4346,-0.9558,9.4514,-0.0034,0.0096,0.0015
42754,46.715813,-1.157203,118.35,34.51,21.44,178.5,0 / 19,4274310,2019-08-18 22:02:23:422,2.5503,-0.7563,9.1214,2.4305,-0.9594,9.4521,-0.0034,0.0022,0.0026
42755,46.715813,-1.157203,118.35,34.51,21.44,178.5,0 / 19,4274410,2019-08-18 22:02:23:522,2.2863,-1.0568,9.7194,2.4218,-0.9656,9.4537,-0.0013,-0.0021,-0.0006
42756,46.715813,-1.157203,118.35,34.51,21.44,178.5,0 / 19,4274510,2019-08-18 22:02:23:622,2.1337,-1.0358,9.5518,2.416,-0.9696,9.4548,0.0009,0.0022,-0.0006
42757,46.715813,-1.157203,118.35,34.51,21.44,178.5,0 / 19,4274609,2019-08-18 22:02:23:721,1.8805,-1.1771,9.4045,2.3814,-0.9817,9.4623,-0.0013,0.0107,0.0015
42758,46.715813,-1.157203,118.35,34.51,21.44,178.5,0 / 19,4274711,2019-08-18 22:02:23:823,1.8368,-1.0969,9.4045,2.3468,-0.9841,9.4707,0.0094,0.0032,-0.0017
42759,46.715813,-1.157203,118.35,34.51,21.44,178.5,0 / 19,4274810,2019-08-18 22:02:23:922,1.9296,-1.1603,9.2166,2.3395,-0.9851,9.4724,0.0009,-0.0021,-0.0017
42760,46.715813,-1.157203,118.35,34.51,21.44,178.5,0 / 19,4274910,2019-08-18 22:02:24:022,2.2283,-0.8934,9.1424,2.3093,-0.9904,9.4793,-0.0023,0.0032,-0.0006
42761,46.715813,-1.157203,118.35,34.51,21.44,178.5,0 / 19,4275011,2019-08-18 22:02:24:123,2.439,-1.0185,9.3794,2.267,-1.012,9.4872,0.0094,0.0054,-0.0049
42762,46.715813,-1.157203,118.35,34.51,21.44,178.5,0 / 19,4275110,2019-08-18 22:02:24:222,2.5581,-1.0538,10.0294,2.2538,-1.0309,9.4883,-0.0013,0.0,-0.0017
42763,46.715813,-1.157203,118.35,34.51,21.44,178.5,0 / 19,4275210,2019-08-18 22:02:24:322,2.1499,-1.0909,9.5147,2.2518,-1.0425,9.4875,-0.0023,0.0128,-0.0006
42764,46.715813,-1.157203,118.35,34.51,21.44,178.5,0 / 19,4275311,2019-08-18 22:02:24:423,2.1493,-1.237,9.7158,2.2512,-1.0398,9.4879,0.0019,-0.0021,-0.0006
42765,46.715813,-1.157203,118.35,34.51,21.44,178.5,0 / 19,4275409,2019-08-18 22:02:24:521,1.8177,-1.0993,8.8485,2.2701,-1.0337,9.4841,0.0062,0.0075,-0.0017
42766,46.715813,-1.157203,118.35,34.51,21.44,178.5,0 / 19,4275511,2019-08-18 22:02:24:623,2.0403,-1.1286,8.7354,2.2627,-1.0359,9.4856,-0.0045,0.0075,0.0026
42767,46.715813,-1.157203,118.35,34.51,21.44,178.5,0 / 19,4275609,2019-08-18 22:02:24:721,2.4037,-1.1765,9.8265,2.2782,-1.0356,9.482,0.0009,-0.0213,-0.0038
42768,46.715813,-1.157203,118.35,34.51,21.44,178.5,0 / 19,4275712,2019-08-18 22:02:24:824,2.6467,-1.0562,10.2838,2.2916,-1.0315,9.4792,0.0051,-0.0159,-0.0028
42769,46.715813,-1.157203,118.35,34.51,21.44,178.5,0 / 19,4275810,2019-08-18 22:02:24:922,2.6401,-1.046,9.9959,2.3025,-1.0434,9.4752,0.0051,0.0054,-0.0028
42770,46.715813,-1.157203,118.35,34.51,21.44,178.5,0 / 19,4275909,2019-08-18 22:02:25:021,2.4492,-1.0155,9.3758,2.2978,-1.0423,9.4765,-0.0002,0.0086,0.0015
42771,46.715813,-1.157203,118.35,34.51,21.44,178.5,0 / 19,4276010,2019-08-18 22:02:25:122,2.2049,-1.1681,9.3644,2.2895,-1.0395,9.4788,0.0041,0.0054,-0.0006
42772,46.715813,-1.157203,118.35,34.51,21.44,178.5,0 / 19,4276110,2019-08-18 22:02:25:222,1.8524,-1.0592,9.2208,2.2827,-1.0366,9.4808,0.0009,0.0032,0.0004
42773,46.715813,-1.157203,118.35,34.51,21.44,178.5,0 / 19,4276209,2019-08-18 22:02:25:321,1.7064,-1.0239,8.9718,2.2432,-1.0482,9.4889,-0.0055,0.0011,0.0004
42774,46.715813,-1.157203,118.35,34.51,21.44,178.5,0 / 19,4276310,2019-08-18 22:02:25:422,2.0326,-1.2106,8.9784,2.2059,-1.0645,9.4958,0.0009,0.0064,0.0004
42775,46.715813,-1.157203,118.35,34.51,21.44,178.5,0 / 19,4276410,2019-08-18 22:02:25:522,2.1876,-1.0604,9.3321,2.1694,-1.0562,9.5052,-0.0013,0.0011,-0.0006
42776,46.715813,-1.157203,118.35,34.51,21.44,178.5,0 / 19,4276511,2019-08-18 22:02:25:623,2.433,-1.0257,9.9672,2.1608,-1.0624,9.5065,0.003,-0.0096,-0.006
42777,46.715813,-1.157203,118.35,34.51,21.44,178.5,0 / 19,4276610,2019-08-18 22:02:25:722,2.4779,-1.1807,10.1904,2.1686,-1.0616,9.5048,-0.0002,-0.0032,-0.0049
42778,46.715813,-1.157203,118.35,34.51,21.44,178.5,0 / 19,4276710,2019-08-18 22:02:25:822,2.1271,-1.368,9.6206,2.164,-1.067,9.5052,0.0019,0.0096,0.0004
42779,46.715813,-1.157203,118.35,34.51,21.44,178.5,0 / 19,4276810,2019-08-18 22:02:25:922,2.1038,-1.4482,9.304,2.151,-1.063,9.5086,0.0137,0.0171,0.0015
42780,46.715813,-1.157203,118.35,34.51,21.44,178.5,0 / 19,4276910,2019-08-18 22:02:26:022,1.8195,-1.0903,9.6464,2.1438,-1.0457,9.5121,0.0083,-0.0096,0.0026
42781,46.715813,-1.157203,118.35,34.51,21.44,178.5,0 / 19,4277010,2019-08-18 22:02:26:122,1.9099,-0.9227,9.4967,2.1529,-1.0356,9.5112,0.0105,-0.017,-0.0006
42782,46.715813,-1.157203,118.35,34.51,21.44,178.5,0 / 19,4277109,2019-08-18 22:02:26:221,1.9721,-0.7892,9.3112,2.1532,-1.0201,9.5128,-0.0023,-0.0063,0.0015
42783,46.715813,-1.157203,118.35,34.51,21.44,178.5,0 / 19,4277210,2019-08-18 22:02:26:322,2.1259,-0.8629,9.3285,2.1357,-1.0087,9.518,-0.0055,0.0086,0.0068
42784,46.715813,-1.157203,118.35,34.51,21.44,178.5,0 / 19,4277309,2019-08-18 22:02:26:421,2.2157,-0.815,9.4931,2.1213,-1.0047,9.5216,0.0158,0.0171,0.0068
42785,46.7125,-1.157079,119.31,34.24,23.584,179.1,0 / 19,4277411,2019-08-18 22:02:26:523,2.0715,-0.7874,9.3375,2.1045,-0.9874,9.5271,0.0115,0.0086,0.0058
42786,46.7125,-1.157079,119.31,34.24,23.584,179.1,0 / 19,4277510,2019-08-18 22:02:26:622,2.1241,-0.7719,9.7804,2.1018,-0.9754,9.529,-0.0013,-0.001,0.0026
42787,46.7125,-1.157079,119.31,34.24,23.584,179.1,0 / 19,4277610,2019-08-18 22:02:26:722,2.1625,-0.9838,9.805,2.0969,-0.9573,9.5319,0.0009,0.0064,0.0015
42788,46.7125,-1.157079,119.31,34.24,23.584,179.1,0 / 19,4277710,2019-08-18 22:02:26:822,2.0356,-1.0622,9.9672,2.0982,-0.9528,9.5321,0.0041,-0.0074,-0.0028
42789,46.7125,-1.157079,119.31,34.24,23.584,179.1,0 / 19,4277810,2019-08-18 22:02:26:922,2.0236,-0.9125,9.5075,2.1033,-0.9535,9.5309,-0.0023,-0.0021,0.0036
42790,46.7125,-1.157079,119.31,34.24,23.584,179.1,0 / 19,4277910,2019-08-18 22:02:27:022,1.9817,-1.1729,9.4387,2.097,-0.9639,9.5312,0.0009,0.0011,0.0026
42791,46.7125,-1.157079,119.31,34.24,23.584,179.1,0 / 19,4278010,2019-08-18 22:02:27:122,2.1888,-1.1143,9.2645,2.0952,-0.9702,9.531,-0.0034,-0.0021,0.0004
42792,46.7125,-1.157079,119.31,34.24,23.584,179.1,0 / 19,4278110,2019-08-18 22:02:27:222,2.2935,-0.8826,9.5386,2.1022,-1.0083,9.5255,-0.0013,0.0,-0.006
42793,46.7125,-1.157079,119.31,34.24,23.584,179.1,0 / 19,4278209,2019-08-18 22:02:27:321,2.4156,-0.8527,10.1013,2.1141,-1.0414,9.5193,-0.0023,-0.0063,-0.0049
42794,46.7125,-1.157079,119.31,34.24,23.584,179.1,0 / 19,4278310,2019-08-18 22:02:27:422,2.2421,-1.1214,9.647,2.1241,-1.0622,9.5147,-0.0066,-0.001,-0.0028
42795,46.7125,-1.157079,119.31,34.24,23.584,179.1,0 / 19,4278410,2019-08-18 22:02:27:522,2.0595,-1.2495,9.4746,2.1219,-1.0679,9.5146,0.0019,0.0086,-0.0028
42796,46.7125,-1.157079,119.31,34.24,23.584,179.1,0 / 19,4278510,2019-08-18 22:02:27:622,2.1762,-1.0652,9.4417,2.1213,-1.076,9.5138,-0.0023,0.0096,-0.0006
42797,46.7125,-1.157079,119.31,34.24,23.584,179.1,0 / 19,4278611,2019-08-18 22:02:27:723,2.1008,-0.9796,9.4285,2.131,-1.0835,9.5108,-0.0034,-0.0042,-0.0038
42798,46.7125,-1.157079,119.31,34.24,23.584,179.1,0 / 19,4278711,2019-08-18 22:02:27:823,2.1984,-1.2256,9.3297,2.1406,-1.0735,9.5098,0.0083,-0.0074,-0.0017
42799,46.7125,-1.157079,119.31,34.24,23.584,179.1,0 / 19,4278810,2019-08-18 22:02:27:922,2.3528,-1.037,9.6685,2.1739,-1.0703,9.5026,0.0083,-0.0117,-0.0006
42800,46.7125,-1.157079,119.31,34.24,23.584,179.1,0 / 19,4278909,2019-08-18 22:02:28:021,2.117,-0.9957,9.0478,2.1844,-1.0659,9.5007,0.0041,-0.0096,0.0004
42801,46.7125,-1.157079,119.31,34.24,23.584,179.1,0 / 19,4279010,2019-08-18 22:02:28:122,2.3845,-0.7958,9.4602,2.1813,-1.0593,9.5021,-0.0002,0.0107,0.0058
42802,46.7125,-1.157079,119.31,34.24,23.584,179.1,0 / 19,4279110,2019-08-18 22:02:28:222,2.2217,-0.636,9.2693,2.1741,-1.0528,9.5045,0.0051,0.0096,0.0047
42803,46.7125,-1.157079,119.31,34.24,23.584,179.1,0 / 19,4279210,2019-08-18 22:02:28:322,2.3893,-0.739,9.5991,2.1711,-1.043,9.5063,0.0062,0.0075,0.0047
42804,46.7125,-1.157079,119.31,34.24,23.584,179.1,0 / 19,4279309,2019-08-18 22:02:28:421,2.1206,-0.8036,10.0312,2.1726,-1.0307,9.5073,0.0009,-0.0063,0.0026
42805,46.7125,-1.157079,119.31,34.24,23.584,179.1,0 / 19,4279409,2019-08-18 22:02:28:521,2.1589,-1.0556,9.383,2.1812,-1.0322,9.5051,-0.0119,-0.0106,0.0068
42806,46.7125,-1.157079,119.31,34.24,23.584,179.1,0 / 19,4279509,2019-08-18 22:02:28:621,2.1684,-0.9257,9.6583,2.2007,-0.9994,9.5041,0.0041,-0.0042,-0.0006
42807,46.7125,-1.157079,119.31,34.24,23.584,179.1,0 / 19,4279609,2019-08-18 22:02:28:721,2.0577,-0.9808,9.8122,2.2036,-0.9834,9.5051,0.0051,-0.0042,-0.0006
42808,46.7125,-1.157079,119.31,34.24,23.584,179.1,0 / 19,4279711,2019-08-18 22:02:28:823,2.1014,-1.0921,9.3046,2.2007,-0.9742,9.5068,0.003,0.0032,0.0036
42809,46.7125,-1.157079,119.31,34.24,23.584,179.1,0 / 19,4279810,2019-08-18 22:02:28:922,2.2079,-0.8497,9.4369,2.1929,-0.9714,9.5088,0.0051,0.0118,0.0036
42810,46.7125,-1.157079,119.31,34.24,23.584,179.1,0 / 19,4279910,2019-08-18 22:02:29:022,2.2283,-0.8838,9.1885,2.1833,-0.9681,9.5114,0.003,0.0086,0.0036
42811,46.7125,-1.157079,119.31,34.24,23.584,179.1,0 / 19,4280011,2019-08-18 22:02:29:123,2.2726,-0.8419,9.2561,2.1735,-0.9439,9.516,0.0051,0.0032,0.0015
42812,46.7125,-1.157079,119.31,34.24,23.584,179.1,0 / 19,4280109,2019-08-18 22:02:29:221,2.3468,-0.7413,9.401,2.1716,-0.9382,9.5171,0.0019,-0.0063,0.0015
42813,46.7125,-1.157079,119.31,34.24,23.584,179.1,0 / 19,4280210,2019-08-18 22:02:29:322,2.2546,-0.8066,9.6984,2.1761,-0.9414,9.5157,-0.0023,-0.0053,0.0026
42814,46.7125,-1.157079,119.31,34.24,23.584,179.1,0 / 19,4280310,2019-08-18 22:02:29:422,2.2074,-0.9209,9.5368,2.1736,-0.9341,9.517,0.0051,0.0,0.0026
42815,46.7125,-1.157079,119.31,34.24,23.584,179.1,0 / 19,4280411,2019-08-18 22:02:29:523,2.3181,-0.8132,9.8475,2.1681,-0.9259,9.519,0.0041,0.0086,0.0026
42816,46.7125,-1.157079,119.31,34.24,23.584,179.1,0 / 19,4280510,2019-08-18 22:02:29:622,2.0206,-1.0376,9.3255,2.1721,-0.9325,9.5175,0.0009,0.0064,0.0026
42817,46.7125,-1.157079,119.31,34.24,23.584,179.1,0 / 19,4280610,2019-08-18 22:02:29:722,1.9619,-0.9335,9.5943,2.1842,-0.9193,9.516,0.0105,-0.0074,-0.0017
42818,46.7125,-1.157079,119.31,34.24,23.584,179.1,0 / 19,4280710,2019-08-18 22:02:29:822,1.95,-1.0167,9.8852,2.195,-0.921,9.5134,-0.0045,-0.0117,0.0015
42819,46.7125,-1.157079,119.31,34.24,23.584,179.1,0 / 19,4280810,2019-08-18 22:02:29:922,2.1038,-1.055,9.4608,2.2049,-0.9239,9.5108,-0.0023,-0.0106,-0.0006
42820,46.7125,-1.157079,119.31,34.24,23.584,179.1,0 / 19,4280910,2019-08-18 22:02:30:022,2.2995,-1.0101,9.872,2.2194,-0.945,9.5054,-0.0087,0.0011,0.0047
42821,46.7125,-1.157079,119.31,34.24,23.584,179.1,0 / 19,4281010,2019-08-18 22:02:30:122,2.2097,-1.0143,9.0909,2.2114,-0.9515,9.5066,0.0073,0.0086,0.0026
42822,46.7125,-1.157079,119.31,34.24,23.584,179.1,0 / 19,4281109,2019-08-18 22:02:30:221,2.2917,-0.6947,9.222,2.2049,-0.9506,9.5082,0.0009,0.0075,0.0047
42823,46.7125,-1.157079,119.31,34.24,23.584,179.1,0 / 19,4281210,2019-08-18 22:02:30:322,2.4049,-0.8904,9.3968,2.1976,-0.9497,9.5099,0.0073,0.0,0.0015
42824,46.7125,-1.157079,119.31,34.24,23.584,179.1,0 / 19,4281310,2019-08-18 22:02:30:422,2.3456,-0.955,9.7008,2.1943,-0.9455,9.5111,0.0041,0.0,0.0015
42825,46.7125,-1.157079,119.31,34.24,23.584,179.1,0 / 19,4281410,2019-08-18 22:02:30:522,2.366,-1.0448,9.9881,2.1901,-0.9493,9.5117,-0.0013,-0.0042,0.0015
42826,46.7125,-1.157079,119.31,34.24,23.584,179.1,0 / 19,4281510,2019-08-18 22:02:30:622,2.287,-0.8988,9.6751,2.1794,-0.9418,9.5149,-0.0013,0.0011,0.0026
42827,46.7125,-1.157079,119.31,34.24,23.584,179.1,0 / 19,4281609,2019-08-18 22:02:30:721,2.1457,-1.0616,9.6458,2.1702,-0.9483,9.5164,0.0041,0.0054,0.0026
42828,46.7125,-1.157079,119.31,34.24,23.584,179.1,0 / 19,4281710,2019-08-18 22:02:30:822,2.1301,-0.9024,9.5817,2.1759,-0.959,9.514,0.0051,0.0022,-0.0017
42829,46.7125,-1.157079,119.31,34.24,23.584,179.1,0 / 19,4281810,2019-08-18 22:02:30:922,1.8877,-1.0538,9.4201,2.1901,-0.9725,9.5094,-0.0002,-0.001,0.0036
42830,46.7125,-1.157079,119.31,34.24,23.584,179.1,0 / 19,4281910,2019-08-18 22:02:31:022,1.9386,-1.2196,8.9562,2.2105,-0.9739,9.5045,0.0051,-0.0021,0.0015
42831,46.7125,-1.157079,119.31,34.24,23.584,179.1,0 / 19,4282009,2019-08-18 22:02:31:121,2.0194,-1.0143,9.2777,2.2384,-0.9611,9.4993,0.0062,-0.0021,0.0004
42832,46.7125,-1.157079,119.31,34.24,23.584,179.1,0 / 19,4282110,2019-08-18 22:02:31:222,2.0739,-0.8186,9.8056,2.2708,-0.9327,9.4944,-0.0002,0.0,0.0036
42833,46.7125,-1.157079,119.31,34.24,23.584,179.1,0 / 19,4282210,2019-08-18 22:02:31:322,2.1116,-1.0903,8.9101,2.294,-0.9353,9.4886,-0.0002,-0.001,0.0015
42834,46.7125,-1.157079,119.31,34.24,23.584,179.1,Oct-19,4282310,2019-08-18 22:02:31:422,2.3683,-0.9963,9.3812,2.3152,-0.9306,9.4839,0.003,-0.0053,0.0004
42835,46.7125,-1.157079,119.31,34.24,23.584,179.1,Oct-19,4282410,2019-08-18 22:02:31:522,2.5192,-0.9766,9.286,2.3465,-0.9277,9.4765,0.0009,-0.0032,0.0015
42836,46.7125,-1.157079,119.31,34.24,23.584,179.1,Oct-19,4282510,2019-08-18 22:02:31:622,2.5353,-0.7749,9.565,2.3616,-0.9263,9.4729,0.0019,0.0,0.0026
42837,46.7125,-1.157079,119.31,34.24,23.584,179.1,Oct-19,4282610,2019-08-18 22:02:31:722,2.5449,-0.7551,9.3477,2.3781,-0.9287,9.4685,0.0009,0.0054,0.0026
42838,46.7125,-1.157079,119.31,34.24,23.584,179.1,Oct-19,4282709,2019-08-18 22:02:31:821,2.7838,-0.6797,9.9031,2.3858,-0.9368,9.4658,-0.0045,0.0,0.0036
42839,46.7125,-1.157079,119.31,34.24,23.584,179.1,Oct-19,4282810,2019-08-18 22:02:31:922,2.7496,-0.7845,9.6739,2.3993,-0.9248,9.4635,0.0094,0.0,0.0015
42840,46.7125,-1.157079,119.31,34.24,23.584,179.1,Oct-19,4282909,2019-08-18 22:02:32:021,2.6138,-0.8874,9.5763,2.4094,-0.9105,9.4624,0.0041,0.0022,0.0015
42841,46.7125,-1.157079,119.31,34.24,23.584,179.1,Oct-19,4283010,2019-08-18 22:02:32:122,2.6126,-1.122,9.7834,2.4146,-0.9114,9.4609,0.0009,-0.0063,-0.0017
42842,46.7125,-1.157079,119.31,34.24,23.584,179.1,Oct-19,4283109,2019-08-18 22:02:32:221,2.4863,-1.304,9.3788,2.4165,-0.9153,9.4601,0.0019,0.0043,-0.0017
42843,46.7125,-1.157079,119.31,34.24,23.584,179.1,Oct-19,4283210,2019-08-18 22:02:32:322,2.3181,-1.122,9.4363,2.4075,-0.9154,9.4624,0.0019,0.0022,-0.0006
42844,46.7125,-1.157079,119.31,34.24,23.584,179.1,0 / 19,4283310,2019-08-18 22:02:32:422,2.172,-0.9963,9.3291,2.4042,-0.9187,9.4629,-0.0013,0.0054,-0.0006
42845,46.7125,-1.157079,119.31,34.24,23.584,179.1,0 / 19,4283410,2019-08-18 22:02:32:522,2.1846,-1.0281,9.4518,2.3932,-0.9384,9.4637,0.0009,0.0011,-0.0017
42846,46.7125,-1.157079,119.31,34.24,23.584,179.1,0 / 19,4283509,2019-08-18 22:02:32:621,2.0421,-0.9538,9.3465,2.3913,-0.9624,9.4618,-0.0002,-0.0042,-0.0017
42847,46.7125,-1.157079,119.31,34.24,23.584,179.1,0 / 19,4283610,2019-08-18 22:02:32:722,2.3049,-1.052,9.3776,2.388,-0.9996,9.4588,0.0009,0.0,-0.0006
42848,46.7125,-1.157079,119.31,34.24,23.584,179.1,0 / 19,4283710,2019-08-18 22:02:32:822,2.3492,-0.9592,9.1579,2.4018,-1.0004,9.4552,-0.0023,0.0011,0.0015
42849,46.7125,-1.157079,119.31,34.24,23.584,179.1,0 / 19,4283810,2019-08-18 22:02:32:922,2.5078,-1.0466,9.3106,2.4236,-1.0072,9.4489,0.0051,-0.0021,-0.0028
42850,46.7125,-1.157079,119.31,34.24,23.584,179.1,0 / 19,4283910,2019-08-18 22:02:33:022,2.7005,-1.0358,9.4339,2.4336,-1.0028,9.4468,0.0041,-0.0096,-0.0028
42851,46.7125,-1.157079,119.31,34.24,23.584,179.1,0 / 19,4284010,2019-08-18 22:02:33:122,2.9525,-0.7922,9.8852,2.4423,-0.9999,9.4449,0.0009,-0.0021,0.0004
42852,46.7125,-1.157079,119.31,34.24,23.584,179.1,0 / 19,4284109,2019-08-18 22:02:33:221,2.8442,-0.9185,10.0109,2.4532,-1.0004,9.442,-0.0034,-0.0074,0.0015
42853,46.7125,-1.157079,119.31,34.24,23.584,179.1,0 / 19,4284210,2019-08-18 22:02:33:322,2.7867,-0.806,9.4542,2.481,-0.9832,9.4365,-0.0002,0.0064,0.0015
42854,46.7125,-1.157079,119.31,34.24,23.584,179.1,0 / 19,4284310,2019-08-18 22:02:33:422,2.8233,-0.8168,9.6326,2.4809,-0.9781,9.4371,0.0041,0.0086,0.0026
42855,46.7125,-1.157079,119.31,34.24,23.584,179.1,0 / 19,4284409,2019-08-18 22:02:33:521,2.6359,-0.9496,9.3327,2.4816,-0.9745,9.4373,0.0009,0.0043,0.0015
42856,46.7125,-1.157079,119.31,34.24,23.584,179.1,0 / 19,4284511,2019-08-18 22:02:33:623,2.6808,-0.97,9.4494,2.5075,-0.9687,9.431,-0.0002,-0.0074,0.0015
42857,46.7125,-1.157079,119.31,34.24,23.584,179.1,0 / 19,4284611,2019-08-18 22:02:33:723,2.6156,-1.1286,9.3441,2.5572,-0.9424,9.4203,0.0062,-0.0053,0.0015
42858,46.7125,-1.157079,119.31,34.24,23.584,179.1,0 / 19,4284710,2019-08-18 22:02:33:822,2.5635,-1.0843,9.5781,2.5924,-0.9204,9.4129,0.0009,0.0032,0.0026
42859,46.7125,-1.157079,119.31,34.24,23.584,179.1,0 / 19,4284811,2019-08-18 22:02:33:923,2.5024,-0.8275,9.2471,2.6107,-0.9146,9.4084,-0.0013,0.0,0.0026
42860,46.7125,-1.157079,119.31,34.24,23.584,179.1,0 / 19,4284909,2019-08-18 22:02:34:021,2.5713,-0.7922,9.0598,2.6326,-0.9001,9.4037,0.003,0.0043,0.0015
42861,46.7125,-1.157079,119.31,34.24,23.584,179.1,0 / 19,4285010,2019-08-18 22:02:34:122,2.4761,-0.8964,9.1723,2.6299,-0.9003,9.4045,-0.0013,0.0,0.0026
42862,46.7125,-1.157079,119.31,34.24,23.584,179.1,0 / 19,4285110,2019-08-18 22:02:34:222,2.5886,-0.897,9.3417,2.6218,-0.9032,9.4064,0.0009,0.0054,0.0015
42863,46.7125,-1.157079,119.31,34.24,23.584,179.1,0 / 19,4285210,2019-08-18 22:02:34:322,2.3169,-0.9048,9.6907,2.6007,-0.9059,9.412,0.0041,0.0032,0.0004
42864,46.7125,-1.157079,119.31,34.24,23.584,179.1,0 / 19,4285310,2019-08-18 22:02:34:422,2.3917,-0.9317,9.4943,2.5555,-0.9235,9.4227,-0.0013,0.0054,-0.0006
42865,46.7125,-1.157079,119.31,34.24,23.584,179.1,0 / 19,4285410,2019-08-18 22:02:34:522,2.4976,-1.0981,10.0222,2.5436,-0.9286,9.4254,-0.0002,0.0011,-0.0017
42866,46.7125,-1.157079,119.31,34.24,23.584,179.1,0 / 19,4285510,2019-08-18 22:02:34:622,2.3582,-1.0759,9.726,2.5316,-0.9295,9.4285,0.003,0.0011,-0.0028
42867,46.7125,-1.157079,119.31,34.24,23.584,179.1,0 / 19,4285610,2019-08-18 22:02:34:722,2.0302,-1.2447,9.2998,2.5174,-0.9339,9.4319,0.0009,0.0096,-0.0028
42868,46.7125,-1.157079,119.31,34.24,23.584,179.1,0 / 19,4285711,2019-08-18 22:02:34:823,2.0703,-1.1262,9.6134,2.4667,-0.9706,9.4416,-0.0013,-0.0032,-0.0028
42869,46.7125,-1.157079,119.31,34.24,23.584,179.1,0 / 19,4285810,2019-08-18 22:02:34:922,2.1247,-1.3543,9.5416,2.4162,-1.0136,9.4501,0.003,-0.0032,-0.0038
42870,46.7125,-1.157079,119.31,34.24,23.584,179.1,0 / 19,4285909,2019-08-18 22:02:35:021,2.2289,-1.213,9.3567,2.3886,-1.0553,9.4526,0.0094,0.0,-0.006
42871,46.7125,-1.157079,119.31,34.24,23.584,179.1,0 / 19,4286010,2019-08-18 22:02:35:122,2.2307,-1.1537,8.9646,2.382,-1.0754,9.452,-0.0023,0.0096,-0.0017
42872,46.7125,-1.157079,119.31,34.24,23.584,179.1,0 / 19,4286110,2019-08-18 22:02:35:222,2.3725,-0.8784,8.7515,2.3665,-1.0737,9.4561,0.0041,0.0064,-0.0017
42873,46.7125,-1.157079,119.31,34.24,23.584,179.1,0 / 19,4286210,2019-08-18 22:02:35:322,2.5084,-1.0233,9.407,2.368,-1.0725,9.4558,0.0019,-0.0032,-0.0038
42874,46.7125,-1.157079,119.31,34.24,23.584,179.1,0 / 19,4286310,2019-08-18 22:02:35:422,2.2067,-0.8641,8.5624,2.3768,-1.068,9.4541,0.0105,-0.0138,-0.007
42875,46.7125,-1.157079,119.31,34.24,23.584,179.1,0 / 19,4286410,2019-08-18 22:02:35:522,3.086,-0.8904,9.6901,2.3772,-1.0626,9.4546,0.0051,0.0032,-0.0017
42876,46.7125,-1.157079,119.31,34.24,23.584,179.1,0 / 19,4286511,2019-08-18 22:02:35:623,2.5324,-0.8174,9.7128,2.3796,-1.0566,9.4547,0.0009,0.0054,0.0015
42877,46.7125,-1.157079,119.31,34.24,23.584,179.1,0 / 19,4286610,2019-08-18 22:02:35:722,2.7383,-1.0981,9.6308,2.3821,-1.0537,9.4544,0.0019,-0.0032,0.0004
42878,46.7125,-1.157079,119.31,34.24,23.584,179.1,0 / 19,4286710,2019-08-18 22:02:35:822,2.3043,-1.0239,9.626,2.3986,-1.0171,9.4542,0.0019,0.0054,0.0015
42879,46.7125,-1.157079,119.31,34.24,23.584,179.1,0 / 19,4286810,2019-08-18 22:02:35:922,2.4474,-1.1328,9.6482,2.4002,-1.0066,9.455,0.0019,0.0,0.0004
42880,46.7125,-1.157079,119.31,34.24,23.584,179.1,0 / 19,4286910,2019-08-18 22:02:36:022,2.1595,-0.9377,9.7236,2.4078,-0.9902,9.4547,0.0009,-0.0053,-0.0017
42881,46.7125,-1.157079,119.31,34.24,23.584,179.1,0 / 19,4287011,2019-08-18 22:02:36:123,2.2744,-1.2382,9.456,2.4059,-0.9838,9.4559,-0.0023,0.0032,0.0015
42882,46.7125,-1.157079,119.31,34.24,23.584,179.1,0 / 19,4287110,2019-08-18 22:02:36:222,2.1128,-1.4285,9.0281,2.4041,-0.981,9.4567,0.0051,-0.0032,-0.0017
42883,46.7125,-1.157079,119.31,34.24,23.584,179.1,0 / 19,4287210,2019-08-18 22:02:36:322,2.3558,-1.0688,9.4806,2.4015,-0.9885,9.4565,0.0041,0.0096,0.0004
42884,46.7125,-1.157079,119.31,34.24,23.584,179.1,0 / 19,4287310,2019-08-18 22:02:36:422,2.342,-1.0179,9.4806,2.3924,-0.9956,9.4581,-0.0023,-0.0042,-0.0017
42885,46.7125,-1.157079,119.31,34.24,23.584,179.1,0 / 19,4287410,2019-08-18 22:02:36:522,2.5695,-1.0652,9.3237,2.3919,-1.0094,9.4568,0.003,0.0011,-0.0028
42886,46.7125,-1.157079,119.31,34.24,23.584,179.1,0 / 19,4287510,2019-08-18 22:02:36:622,2.5725,-0.9485,9.4758,2.3956,-0.9981,9.457,0.0019,-0.0053,-0.0028
42887,46.7125,-1.157079,119.31,34.24,23.584,179.1,0 / 19,4287610,2019-08-18 22:02:36:722,2.667,-0.8629,9.623,2.4056,-1.0008,9.4542,0.003,-0.0074,-0.0006
42888,46.7125,-1.157079,119.31,34.24,23.584,179.1,0 / 19,4287711,2019-08-18 22:02:36:823,2.8023,-1.0125,9.3848,2.4248,-1.009,9.4484,0.0041,0.0064,-0.0006
42889,46.7125,-1.157079,119.31,34.24,23.584,179.1,0 / 19,4287810,2019-08-18 22:02:36:922,2.746,-0.7695,9.5207,2.4335,-1.0053,9.4466,0.0073,0.0011,-0.0038
42890,46.7125,-1.157079,119.31,34.24,23.584,179.1,0 / 19,4287910,2019-08-18 22:02:37:022,2.7317,-0.952,9.4381,2.4669,-0.988,9.4397,-0.0002,0.0043,-0.0017
42891,46.7125,-1.157079,119.31,34.24,23.584,179.1,0 / 19,4288010,2019-08-18 22:02:37:122,2.5707,-0.8862,9.1992,2.4984,-0.982,9.4321,-0.0045,-0.001,-0.0006
42892,46.7125,-1.157079,119.31,34.24,23.584,179.1,0 / 19,4288110,2019-08-18 22:02:37:222,2.5425,-1.0759,9.1711,2.5377,-0.9851,9.4213,-0.0087,0.0011,0.0015
42893,46.7125,-1.157079,119.31,34.24,23.584,179.1,0 / 19,4288210,2019-08-18 22:02:37:322,2.4408,-1.043,9.863,2.5492,-0.9838,9.4183,0.0019,-0.0138,-0.0028
42894,46.7125,-1.157079,119.31,34.24,23.584,179.1,0 / 19,4288310,2019-08-18 22:02:37:422,2.4378,-1.037,9.4961,2.5629,-0.9764,9.4153,0.0051,0.0011,-0.0017
42895,46.7125,-1.157079,119.31,34.24,23.584,179.1,0 / 19,4288410,2019-08-18 22:02:37:522,2.169,-1.04,8.8275,2.5623,-0.9766,9.4155,-0.0023,0.0064,0.0026
42896,46.7125,-1.157079,119.31,34.24,23.584,179.1,0 / 19,4288510,2019-08-18 22:02:37:622,2.5048,-0.9155,9.4069,2.5607,-0.986,9.4149,-0.0108,0.0096,0.0026
42897,46.7125,-1.157079,119.31,34.24,23.584,179.1,0 / 19,4288610,2019-08-18 22:02:37:722,2.5515,-1.1962,9.6404,2.5894,-0.9928,9.4064,0.0019,0.0,-0.0028
42898,46.7125,-1.157079,119.31,34.24,23.584,179.1,0 / 19,4288710,2019-08-18 22:02:37:822,2.8544,-0.906,9.4662,2.6086,-0.9903,9.4013,0.0019,-0.0138,-0.0028
42899,46.7125,-1.157079,119.31,34.24,23.584,179.1,0 / 19,4288810,2019-08-18 22:02:37:922,2.9573,-0.97,9.4554,2.6147,-0.9919,9.3995,-0.0023,-0.001,0.0015
42900,46.7125,-1.157079,119.31,34.24,23.584,179.1,0 / 19,4288910,2019-08-18 22:02:38:022,2.9915,-0.6899,9.541,2.6263,-0.985,9.3969,0.0019,0.0022,0.0026
42901,46.7125,-1.157079,119.31,34.24,23.584,179.1,0 / 19,4289010,2019-08-18 22:02:38:122,2.9208,-0.6701,9.3046,2.6292,-0.9825,9.3964,-0.0013,0.0107,0.0026
42902,46.7125,-1.157079,119.31,34.24,23.584,179.1,0 / 19,4289110,2019-08-18 22:02:38:222,2.7879,-0.9939,9.7068,2.6081,-0.9708,9.4035,-0.0002,0.0064,0.0015
42903,46.7125,-1.157079,119.31,34.24,23.584,179.1,0 / 19,4289210,2019-08-18 22:02:38:322,2.5557,-1.0287,9.6769,2.5846,-0.9689,9.4102,0.0019,0.0096,0.0015
42904,46.7125,-1.157079,119.31,34.24,23.584,179.1,0 / 19,4289310,2019-08-18 22:02:38:422,2.3935,-1.0688,9.784,2.5764,-0.9676,9.4126,0.003,-0.001,0.0004
42905,46.7125,-1.157079,119.31,34.24,23.584,179.1,0 / 19,4289411,2019-08-18 22:02:38:523,2.1349,-0.8904,9.3902,2.573,-0.9686,9.4134,-0.0055,-0.0032,0.0026
42906,46.7125,-1.157079,119.31,34.24,23.584,179.1,0 / 19,4289510,2019-08-18 22:02:38:622,2.0798,-0.9407,9.4895,2.5405,-0.9792,9.4211,0.0041,-0.0032,0.0004
42907,46.7125,-1.157079,119.31,34.24,23.584,179.1,0 / 19,4289610,2019-08-18 22:02:38:722,2.1116,-0.958,9.1663,2.4988,-0.9824,9.4319,0.0009,0.0107,0.0026
42908,46.7125,-1.157079,119.31,34.24,23.584,179.1,0 / 19,4289710,2019-08-18 22:02:38:822,2.0739,-0.9443,9.2256,2.4709,-0.9846,9.4391,0.0041,0.0011,0.0004
42909,46.7125,-1.157079,119.31,34.24,23.584,179.1,0 / 19,4289810,2019-08-18 22:02:38:922,2.4001,-0.9706,9.6308,2.472,-0.9978,9.4374,-0.0002,-0.0096,-0.0006
42910,46.7125,-1.157079,119.31,34.24,23.584,179.1,0 / 19,4289910,2019-08-18 22:02:39:022,2.5844,-0.9185,9.4722,2.4759,-0.9955,9.4366,0.0019,-0.0074,-0.0006
42911,46.7125,-1.157079,119.31,34.24,23.584,179.1,0 / 19,4290009,2019-08-18 22:02:39:121,2.8526,-1.0323,9.5985,2.4797,-0.9878,9.4364,0.0019,-0.0021,0.0004
42912,46.7125,-1.157079,119.31,34.24,23.584,179.1,0 / 19,4290110,2019-08-18 22:02:39:222,2.6724,-0.9084,9.1352,2.4775,-0.9823,9.4376,0.0019,0.0086,0.0015
42913,46.7125,-1.157079,119.31,34.24,23.584,179.1,0 / 19,4290210,2019-08-18 22:02:39:322,2.9489,-0.9077,9.8553,2.483,-0.9782,9.4365,0.0073,-0.0053,0.0015
42914,46.7125,-1.157079,119.31,34.24,23.584,179.1,0 / 19,4290310,2019-08-18 22:02:39:422,2.8831,-0.9095,9.8888,2.4897,-0.975,9.4351,0.0041,-0.0042,0.0015
42915,46.7125,-1.157079,119.31,34.24,23.584,179.1,0 / 19,4290410,2019-08-18 22:02:39:522,2.7843,-0.9413,9.5195,2.5089,-0.9652,9.431,0.003,-0.0042,0.0004
42916,46.7125,-1.157079,119.31,34.24,23.584,179.1,0 / 19,4290510,2019-08-18 22:02:39:622,2.576,-1.1717,9.3656,2.5396,-0.9478,9.4246,0.0062,0.0096,0.0004
42917,46.7125,-1.157079,119.31,34.24,23.584,179.1,0 / 19,4290609,2019-08-18 22:02:39:721,2.6138,-1.0861,9.1741,2.5401,-0.9468,9.4245,0.0009,0.0032,0.0015
42918,46.7125,-1.157079,119.31,34.24,23.584,179.1,0 / 19,4290710,2019-08-18 22:02:39:822,2.5755,-1.0005,9.2208,2.5778,-0.9308,9.4159,0.0041,-0.001,0.0004
42919,46.7125,-1.157079,119.31,34.24,23.584,179.1,0 / 19,4290810,2019-08-18 22:02:39:922,2.4001,-1.0592,9.3788,2.6133,-0.9236,9.4068,0.0019,0.0011,0.0004
42920,46.7125,-1.157079,119.31,34.24,23.584,179.1,0 / 19,4290910,2019-08-18 22:02:40:022,2.5084,-0.8856,9.3938,2.635,-0.9265,9.4005,0.0051,-0.0074,0.0004
42921,46.7125,-1.157079,119.31,34.24,23.584,179.1,0 / 19,4291009,2019-08-18 22:02:40:121,2.6221,-0.6444,9.1544,2.6586,-0.9258,9.3939,0.0019,0.0022,0.0004
42922,46.7125,-1.157079,119.31,34.24,23.584,179.1,0 / 19,4291110,2019-08-18 22:02:40:222,2.6964,-0.6588,9.5578,2.6667,-0.915,9.3927,-0.0023,-0.001,0.0015
42923,46.7125,-1.157079,119.31,34.24,23.584,179.1,0 / 19,4291210,2019-08-18 22:02:40:322,2.7598,-0.6971,9.2639,2.6791,-0.925,9.3881,0.0019,0.0086,0.0004
42924,46.7125,-1.157079,119.31,34.24,23.584,179.1,Aug-19,4291309,2019-08-18 22:02:40:421,3.0208,-0.9042,9.5703,2.6899,-0.9322,9.3843,-0.0013,-0.001,0.0004
42925,46.7125,-1.157079,119.31,34.24,23.584,179.1,Aug-19,4291410,2019-08-18 22:02:40:522,2.8891,-0.9802,9.4453,2.6998,-0.9289,9.3818,0.0009,0.0054,0.0004
42926,46.7125,-1.157079,119.31,34.24,23.584,179.1,Aug-19,4291510,2019-08-18 22:02:40:622,2.9412,-1.0251,9.4231,2.7012,-0.9212,9.3822,0.0019,0.0011,-0.0017
42927,46.7125,-1.157079,119.31,34.24,23.584,179.1,Aug-19,4291610,2019-08-18 22:02:40:722,2.6628,-0.9413,9.7218,2.7112,-0.9218,9.3792,0.003,-0.0074,-0.0006
42928,46.7125,-1.157079,119.31,34.24,23.584,179.1,Aug-19,4291710,2019-08-18 22:02:40:822,2.2666,-1.0233,9.3567,2.7087,-0.9192,9.3802,0.0051,-0.001,0.0004
42929,46.7125,-1.157079,119.31,34.24,23.584,179.1,Aug-19,4291810,2019-08-18 22:02:40:922,2.2881,-1.1113,9.0544,2.6749,-0.9281,9.389,-0.0013,0.0118,0.0015
42930,46.7125,-1.157079,119.31,34.24,23.584,179.1,Aug-19,4291910,2019-08-18 22:02:41:022,2.3947,-1.0921,9.6499,2.6605,-0.9322,9.3927,-0.0002,0.0043,-0.0006
42931,46.7125,-1.157079,119.31,34.24,23.584,179.1,Aug-19,4292010,2019-08-18 22:02:41:122,2.4809,-1.0412,9.3638,2.596,-0.9549,9.4085,-0.0045,-0.0032,-0.0006
42932,46.7125,-1.157079,119.31,34.24,23.584,179.1,Aug-19,4292110,2019-08-18 22:02:41:222,2.3516,-0.8712,9.2717,2.5494,-0.9747,9.4192,-0.0045,0.0043,0.0004
42933,46.7125,-1.157079,119.31,34.24,23.584,179.1,Aug-19,4292210,2019-08-18 22:02:41:322,2.5341,-0.9305,9.5428,2.4967,-1.0108,9.4295,-0.0013,0.0032,0.0004
42934,46.7125,-1.157079,119.31,34.24,23.584,179.1,0 / 19,4292310,2019-08-18 22:02:41:422,2.6407,-1.0275,9.5632,2.4864,-1.0383,9.4292,-0.0023,0.0075,0.0015
42935,46.7125,-1.157079,119.31,34.24,23.584,179.1,0 / 19,4292410,2019-08-18 22:02:41:522,2.7,-1.0831,9.7409,2.4749,-1.0368,9.4324,0.0051,-0.001,-0.0006
42936,46.7125,-1.157079,119.31,34.24,23.584,179.1,0 / 19,4292510,2019-08-18 22:02:41:622,2.585,-1.1777,9.6781,2.4866,-1.0301,9.4301,0.0019,-0.0021,-0.0006
42937,46.7125,-1.157079,119.31,34.24,23.584,179.1,0 / 19,4292611,2019-08-18 22:02:41:723,2.4186,-1.0748,9.2824,2.5153,-1.0157,9.424,0.0051,-0.0042,-0.0028
42938,46.7125,-1.157079,119.31,34.24,23.584,179.1,0 / 19,4292710,2019-08-18 22:02:41:822,2.4025,-1.0526,9.3848,2.5373,-1.011,9.4186,0.0041,0.0043,-0.0006
42939,46.7125,-1.157079,119.31,34.24,23.584,179.1,0 / 19,4292810,2019-08-18 22:02:41:922,2.6072,-0.906,9.5727,2.5684,-1.0013,9.4112,0.003,0.0086,0.0004
42940,46.7125,-1.157079,119.31,34.24,23.584,179.1,0 / 19,4292910,2019-08-18 22:02:42:022,2.6916,-1.1077,9.544,2.5937,-0.99,9.4055,-0.0002,-0.0074,-0.0006
42941,46.7125,-1.157079,119.31,34.24,23.584,179.1,0 / 19,4293009,2019-08-18 22:02:42:121,2.9699,-1.1783,9.9373,2.609,-0.9822,9.4021,0.0094,-0.0106,-0.0038
42942,46.7125,-1.157079,119.31,34.24,23.584,179.1,0 / 19,4293110,2019-08-18 22:02:42:222,3.0579,-0.9939,9.7182,2.6191,-0.976,9.3999,0.0051,-0.0106,-0.0038
42943,46.7125,-1.157079,119.31,34.24,23.584,179.1,0 / 19,4293210,2019-08-18 22:02:42:322,3.0495,-0.9054,9.5979,2.6406,-0.973,9.3942,0.003,-0.0063,-0.0006
42944,46.707478,-1.156778,103.71,34.92,13.936001,177.5,0 / 19,4293309,2019-08-18 22:02:42:421,2.7628,-0.8156,9.55,2.6469,-0.9729,9.3924,0.0009,0.0075,0.0004
42945,46.707478,-1.156778,103.71,34.92,13.936001,177.5,0 / 19,4293410,2019-08-18 22:02:42:522,2.5491,-1.0203,9.6338,2.6322,-0.9727,9.3966,0.0041,0.0182,0.0004
42946,46.707478,-1.156778,103.71,34.92,13.936001,177.5,0 / 19,4293510,2019-08-18 22:02:42:622,2.2894,-1.0179,9.7517,2.6104,-0.9744,9.4025,-0.0013,0.0054,0.0004
42947,46.707478,-1.156778,103.71,34.92,13.936001,177.5,0 / 19,4293610,2019-08-18 22:02:42:722,2.0386,-1.2322,9.8188,2.6061,-0.9747,9.4036,0.0019,-0.0074,-0.0028
42948,46.707478,-1.156778,103.71,34.92,13.936001,177.5,0 / 19,4293710,2019-08-18 22:02:42:822,1.8189,-1.1292,9.2753,2.6048,-0.9774,9.4037,-0.0013,-0.0106,-0.0028
42949,46.707478,-1.156778,103.71,34.92,13.936001,177.5,0 / 19,4293810,2019-08-18 22:02:42:922,2.087,-1.1382,9.1813,2.5818,-0.9842,9.4094,-0.0013,0.016,0.0004
42950,46.707478,-1.156778,103.71,34.92,13.936001,177.5,0 / 19,4293910,2019-08-18 22:02:43:022,2.1738,-0.9712,8.9999,2.5596,-0.9885,9.415,0.0019,-0.001,-0.0006
