,GPS LATITUDE (degrees),GPS LONGITUDE (degrees), GPS ALTITUDE (m),GPS SPEED (Kmh),GPS ACCURACY (m),GPS ORIENTATION (Â°), SATELLITES IN RANGE, TIME SINCE START (ms), DATE (YYYY-MO-DD HH-MI-SS_SSS),ACCELEROMETER X (m/s²) , ACCELEROMETER Y (m/s²), ACCELEROMETER Z (m/s²), GRAVITY X (m/s²), GRAVITY Y (m/s²), GRAVITY Z (m/s²), GYROSCOPE Yaw (rad/s), GYROSCOPE Pitch (rad/s), GYROSCOPE Roll (rad/s)
53308,47.78894,-1.695472,131.46,28.94,5.36,201.5,15 / 22,5331543,2019-08-18 16:42:34:080,-0.8194,-0.246,9.8614,-0.9042,-0.2501,9.7617,-0.0033,0.0024,0.0058
53309,47.78894,-1.695472,131.46,28.94,5.36,201.5,15 / 22,5331643,2019-08-18 16:42:34:180,-0.9977,-0.3232,10.1463,-0.9104,-0.2521,9.761,0.0066,0.0047,0.0078
53310,47.78894,-1.695472,131.46,28.94,5.36,201.5,15 / 22,5331743,2019-08-18 16:42:34:280,-0.9929,0.0658,9.3436,-0.9144,-0.2454,9.7608,0.0044,0.0056,0.0072
53311,47.78894,-1.695472,131.46,28.94,5.36,201.5,15 / 22,5331843,2019-08-18 16:42:34:380,-0.9409,-0.006,9.2939,-0.9212,-0.2432,9.7603,-0.0093,-0.001,0.0056
53312,47.78894,-1.695472,131.46,28.94,5.36,201.5,15 / 22,5331943,2019-08-18 16:42:34:480,-1.0336,-0.2711,9.3981,-0.922,-0.2467,9.7601,-0.0092,0.0022,0.006
53313,47.78894,-1.695472,131.46,28.94,5.36,201.5,15 / 22,5332043,2019-08-18 16:42:34:580,-0.8505,-0.3244,10.1403,-0.9302,-0.2522,9.7592,0.0006,0.0026,0.0048
53314,47.78894,-1.695472,131.46,28.94,5.36,201.5,Dec-20,5332144,2019-08-18 16:42:34:681,-0.8092,-0.2837,10.1056,-0.9295,-0.2517,9.7593,0.002,0.0026,0.0004
53315,47.78894,-1.695472,131.46,28.94,5.36,201.5,Dec-20,5332243,2019-08-18 16:42:34:780,-0.9678,-0.1712,10.2606,-0.9291,-0.2533,9.7593,-0.0033,-0.0018,-0.0007
53316,47.78894,-1.695472,131.46,28.94,5.36,201.5,Dec-20,5332343,2019-08-18 16:42:34:880,-0.9103,0.0401,9.7345,-0.9269,-0.2568,9.7594,-0.0092,-0.0146,-0.0021
53317,47.78894,-1.695472,131.46,28.94,5.36,201.5,Dec-20,5332443,2019-08-18 16:42:34:980,-1.0235,-0.3041,9.176,-0.9112,-0.2702,9.7605,-0.0055,0.0049,-0.0035
53318,47.78894,-1.695472,131.46,28.94,5.36,201.5,Dec-20,5332544,2019-08-18 16:42:35:081,-0.8589,-0.4363,9.2778,-0.9201,-0.2746,9.7595,-0.0055,0.017,-0.0019
53319,47.78894,-1.695472,131.46,28.94,5.36,201.5,Dec-20,5332644,2019-08-18 16:42:35:181,-0.7158,-0.4507,9.8889,-0.9213,-0.288,9.759,-0.0064,-0.005,-0.0041
53320,47.78894,-1.695472,131.46,28.94,5.36,201.5,Dec-20,5332743,2019-08-18 16:42:35:280,-0.629,-0.5273,9.7728,-0.9222,-0.2975,9.7587,-0.0083,0.01,-0.0039
53321,47.78894,-1.695472,131.46,28.94,5.36,201.5,Dec-20,5332843,2019-08-18 16:42:35:380,-0.7894,-0.483,10.3145,-0.9265,-0.3033,9.7581,-0.0009,0.0036,-0.002
53322,47.78894,-1.695472,131.46,28.94,5.36,201.5,Dec-20,5332944,2019-08-18 16:42:35:481,-0.741,-0.6476,9.7752,-0.9232,-0.3067,9.7583,0.0076,0.0006,-0.0053
53323,47.78894,-1.695472,131.46,28.94,5.36,201.5,Dec-20,5333044,2019-08-18 16:42:35:581,-0.7404,-0.4938,10.7664,-0.9225,-0.304,9.7584,0.0076,-0.0065,-0.0035
53324,47.78894,-1.695472,131.46,28.94,5.36,201.5,Dec-20,5333144,2019-08-18 16:42:35:681,-0.796,-0.4483,9.8997,-0.9129,-0.2993,9.7595,0.0044,0.0026,-0.001
53325,47.78894,-1.695472,131.46,28.94,5.36,201.5,Dec-20,5333244,2019-08-18 16:42:35:781,-0.7523,-0.5058,10.0349,-0.9142,-0.2983,9.7594,-0.0008,0.0042,0.0005
53326,47.78894,-1.695472,131.46,28.94,5.36,201.5,Dec-20,5333343,2019-08-18 16:42:35:880,-0.7805,-0.4782,9.3083,-0.9165,-0.301,9.7591,-0.0063,0.0128,0.0004
53327,47.78894,-1.695472,131.46,28.94,5.36,201.5,Dec-20,5333443,2019-08-18 16:42:35:980,-0.735,-0.5363,9.8506,-0.9234,-0.3069,9.7583,-0.006,0.0128,0.001
53328,47.78894,-1.695472,131.46,28.94,5.36,201.5,Dec-20,5333544,2019-08-18 16:42:36:081,-1.0534,-0.2741,10.0463,-0.9435,-0.3155,9.7561,-0.0062,0.0065,0.0033
53329,47.78894,-1.695472,131.46,28.94,5.36,201.5,Dec-20,5333644,2019-08-18 16:42:36:181,-1.1731,-0.5979,9.7662,-0.9494,-0.318,9.7554,0.0004,-0.0046,0.002
53330,47.78894,-1.695472,131.46,28.94,5.36,201.5,Dec-20,5333744,2019-08-18 16:42:36:281,-0.8427,-0.3196,10.6,-0.9512,-0.3176,9.7552,0.0082,0.0067,0.0037
53331,47.78894,-1.695472,131.46,28.94,5.36,201.5,Dec-20,5333843,2019-08-18 16:42:36:380,-1.5502,-0.6704,9.6908,-0.9629,-0.3175,9.7541,0.0054,0.0032,0.0027
53332,47.78894,-1.695472,131.46,28.94,5.36,201.5,Dec-20,5333943,2019-08-18 16:42:36:480,-1.1276,-0.2502,10.0278,-0.9734,-0.3167,9.7531,-0.0016,0.0014,0.0011
53333,47.78894,-1.695472,131.46,28.94,5.36,201.5,Dec-20,5334043,2019-08-18 16:42:36:580,-1.0672,-0.0916,9.6752,-0.9757,-0.3183,9.7528,-0.0122,0.0004,0.0031
53334,47.78894,-1.695472,131.46,28.94,5.36,201.5,Dec-21,5334143,2019-08-18 16:42:36:680,-0.9313,-0.176,9.7297,-0.9833,-0.3301,9.7516,-0.0018,0.0031,0.0035
53335,47.78894,-1.695472,131.46,28.94,5.36,201.5,Dec-21,5334243,2019-08-18 16:42:36:780,-0.8636,-0.4411,9.8608,-0.9845,-0.3306,9.7515,0.0049,0.0002,0.0031
53336,47.78894,-1.695472,131.46,28.94,5.36,201.5,Dec-21,5334343,2019-08-18 16:42:36:880,-0.8481,-0.1939,10.1313,-0.9869,-0.3321,9.7512,-0.0023,0.0016,-0.0022
53337,47.78894,-1.695472,131.46,28.94,5.36,201.5,Dec-21,5334444,2019-08-18 16:42:36:981,-0.9469,-0.4417,9.8644,-0.9878,-0.3338,9.7511,-0.0029,-0.0094,-0.005
53338,47.78894,-1.695472,131.46,28.94,5.36,201.5,Dec-21,5334544,2019-08-18 16:42:37:081,-1.069,-0.2753,9.686,-0.9768,-0.3415,9.7519,-0.0002,-0.0046,-0.0045
53339,47.78894,-1.695472,131.46,28.94,5.36,201.5,Dec-21,5334644,2019-08-18 16:42:37:181,-0.9421,-0.4387,9.8087,-0.9794,-0.3474,9.7514,-0.0092,0.0116,-0.0054
53340,47.78894,-1.695472,131.46,28.94,5.36,201.5,Dec-21,5334743,2019-08-18 16:42:37:280,-0.875,-0.3424,9.7039,-0.9976,-0.3607,9.7491,0.0035,0.0181,-0.0041
53341,47.78894,-1.695472,131.46,28.94,5.36,201.5,Dec-21,5334844,2019-08-18 16:42:37:381,-0.9014,-0.4992,9.1641,-1.0022,-0.3618,9.7486,-0.002,0.0144,-0.0037
53342,47.78894,-1.695472,131.46,28.94,5.36,201.5,Dec-21,5334943,2019-08-18 16:42:37:480,-1.0761,-0.7709,10.096,-1.0202,-0.378,9.7461,-0.0042,0.0005,-0.0035
53343,47.78894,-1.695472,131.46,28.94,5.36,201.5,Dec-21,5335043,2019-08-18 16:42:37:580,-1.2252,-0.4417,9.1982,-1.02,-0.3825,9.746,0.0028,-0.0062,-0.0022
53344,47.78894,-1.695472,131.46,28.94,5.36,201.5,Dec-22,5335144,2019-08-18 16:42:37:681,-1.1893,-0.6548,10.1936,-1.0145,-0.3792,9.7467,0.0093,-0.0099,0.0014
53345,47.78894,-1.695472,131.46,28.94,5.36,201.5,Dec-22,5335243,2019-08-18 16:42:37:780,-1.2204,-0.3537,9.7321,-1.0063,-0.3746,9.7477,0.0045,-0.0128,0.0001
53346,47.78894,-1.695472,131.46,28.94,5.36,201.5,Dec-22,5335344,2019-08-18 16:42:37:881,-1.136,-0.3112,9.252,-1.0058,-0.3751,9.7477,0.0005,0.0055,0.0024
53347,47.78894,-1.695472,131.46,28.94,5.36,201.5,Dec-22,5335444,2019-08-18 16:42:37:981,-1.0043,-0.1329,9.4005,-1.0111,-0.3768,9.7471,-0.0091,0.0047,0.002
53348,47.78894,-1.695472,131.46,28.94,5.36,201.5,Dec-22,5335543,2019-08-18 16:42:38:080,-1.2515,-0.5956,9.4819,-1.0214,-0.3868,9.7456,-0.0089,0.0064,0.0023
53349,47.78894,-1.695472,131.46,28.94,5.36,201.5,Dec-22,5335643,2019-08-18 16:42:38:180,-0.8804,-0.4274,10.0338,-1.0275,-0.3899,9.7449,-0.0026,0.0096,0.0025
53350,47.78894,-1.695472,131.46,28.94,5.36,201.5,Dec-22,5335744,2019-08-18 16:42:38:281,-1.1665,-0.638,10.0541,-1.032,-0.3951,9.7442,-0.004,-0.007,0.0003
53351,47.78894,-1.695472,131.46,28.94,5.36,201.5,Dec-22,5335843,2019-08-18 16:42:38:380,-1.291,-0.3531,9.9009,-1.0236,-0.3976,9.745,0.0055,-0.006,0.0001
53352,47.78894,-1.695472,131.46,28.94,5.36,201.5,Dec-22,5335943,2019-08-18 16:42:38:480,-0.9355,-0.1682,9.6363,-1.0152,-0.3975,9.7459,0.0105,-0.0036,0.0001
53353,47.78894,-1.695472,131.46,28.94,5.36,201.5,Dec-22,5336043,2019-08-18 16:42:38:580,-1.0767,-0.5124,10.1283,-1.0108,-0.388,9.7467,0.0061,-0.0035,0.0002
53354,47.78894,-1.695472,131.46,28.94,5.36,201.5,Nov-21,5336143,2019-08-18 16:42:38:680,-0.7715,-0.3783,9.8225,-1.0062,-0.3881,9.7472,-0.0004,0.0005,-0.0007
53355,47.78894,-1.695472,131.46,28.94,5.36,201.5,Nov-21,5336243,2019-08-18 16:42:38:780,-0.8523,-0.2089,9.7453,-1.0084,-0.4021,9.7464,-0.0038,0.0057,-0.0026
53356,47.78894,-1.695472,131.46,28.94,5.36,201.5,Nov-21,5336343,2019-08-18 16:42:38:880,-0.9044,-0.2586,9.7512,-1.0129,-0.4034,9.7459,-0.0026,0.01,-0.0032
53357,47.78894,-1.695472,131.46,28.94,5.36,201.5,Nov-21,5336443,2019-08-18 16:42:38:980,-1.3257,-0.513,9.9428,-1.0196,-0.4114,9.7448,-0.0047,-0.0011,-0.0026
53358,47.78894,-1.695472,131.46,28.94,5.36,201.5,Nov-21,5336544,2019-08-18 16:42:39:081,-0.9546,-0.5231,9.7297,-1.0181,-0.4156,9.7448,0.0006,-0.0059,-0.0034
53359,47.78894,-1.695472,131.46,28.94,5.36,201.5,Nov-21,5336643,2019-08-18 16:42:39:180,-1.2773,-0.6099,9.4633,-1.0145,-0.4145,9.7452,0.0117,0.0037,0.0022
53360,47.78894,-1.695472,131.46,28.94,5.36,201.5,Nov-21,5336743,2019-08-18 16:42:39:280,-1.066,-0.6566,10.011,-1.016,-0.4095,9.7453,0.0049,0.0034,0.0023
53361,47.78894,-1.695472,131.46,28.94,5.36,201.5,Nov-21,5336843,2019-08-18 16:42:39:380,-1.06,-0.4884,9.5693,-1.0286,-0.4123,9.7438,-0.0101,0.0131,0.0015
53362,47.78894,-1.695472,131.46,28.94,5.36,201.5,Nov-21,5336943,2019-08-18 16:42:39:480,-1.1444,-0.3142,9.8434,-1.0405,-0.417,9.7424,-0.0043,0.0161,0.0015
53363,47.78894,-1.695472,131.46,28.94,5.36,201.5,Nov-21,5337043,2019-08-18 16:42:39:580,-1.2018,-0.1454,9.7913,-1.048,-0.418,9.7415,0.0007,-0.0037,0.0023
53364,47.78894,-1.695472,131.46,28.94,5.36,201.5,Nov-21,5337143,2019-08-18 16:42:39:680,-1.1282,-0.4136,10.1475,-1.0346,-0.4096,9.7433,0.004,-0.0064,0.0033
53365,47.78894,-1.695472,131.46,28.94,5.36,201.5,Nov-21,5337244,2019-08-18 16:42:39:781,-0.9977,-0.4411,9.9254,-1.0283,-0.4066,9.7441,0.0005,-0.0021,0.003
53366,47.78894,-1.695472,131.46,28.94,5.36,201.5,Nov-21,5337343,2019-08-18 16:42:39:880,-1.1186,-0.6075,9.8111,-1.0341,-0.4099,9.7434,-0.0123,0.0092,0.0016
53367,47.78894,-1.695472,131.46,28.94,5.36,201.5,Nov-21,5337444,2019-08-18 16:42:39:981,-1.2102,-0.3717,9.6387,-1.0443,-0.4211,9.7418,-0.0123,0.002,0.0016
53368,47.78894,-1.695472,131.46,28.94,5.36,201.5,Nov-21,5337543,2019-08-18 16:42:40:080,-1.2725,-0.4729,9.5573,-1.0452,-0.4228,9.7416,0.0077,-0.012,0.0044
53369,47.78894,-1.695472,131.46,28.94,5.36,201.5,Nov-21,5337643,2019-08-18 16:42:40:180,-1.133,-0.2831,9.3245,-1.0348,-0.4149,9.7431,-0.0007,-0.0104,0.0042
53370,47.78894,-1.695472,131.46,28.94,5.36,201.5,Nov-21,5337743,2019-08-18 16:42:40:280,-1.2413,-0.4315,9.4029,-1.0366,-0.412,9.743,-0.0064,0.0024,0.0047
53371,47.78894,-1.695472,131.46,28.94,5.36,201.5,Nov-21,5337843,2019-08-18 16:42:40:380,-1.0175,-0.2358,9.2987,-1.0478,-0.4172,9.7416,-0.0018,0.0107,0.0039
53372,47.78894,-1.695472,131.46,28.94,5.36,201.5,Nov-21,5337943,2019-08-18 16:42:40:480,-1.0223,-0.5842,10.2516,-1.0555,-0.4183,9.7407,-0.0009,0.0069,0.0035
53373,47.78894,-1.695472,131.46,28.94,5.36,201.5,Nov-21,5338043,2019-08-18 16:42:40:580,-1.1875,-0.4256,10.2863,-1.0613,-0.4118,9.7404,0.0103,-0.0095,0.0045
53374,47.78668,-1.696813,124.27,30.5,11.792,202.8,Nov-21,5338144,2019-08-18 16:42:40:681,-1.1462,-0.4908,9.9248,-1.0567,-0.4059,9.7411,0.0093,-0.0039,0.0043
53375,47.78668,-1.696813,124.27,30.5,11.792,202.8,Nov-21,5338244,2019-08-18 16:42:40:781,-1.1498,-0.4561,9.8889,-1.0603,-0.3986,9.741,-0.0057,0.0075,0.0038
53376,47.78668,-1.696813,124.27,30.5,11.792,202.8,Nov-21,5338343,2019-08-18 16:42:40:880,-1.1528,-0.3855,9.416,-1.065,-0.3997,9.7405,-0.0065,0.0091,0.0037
53377,47.78668,-1.696813,124.27,30.5,11.792,202.8,Nov-21,5338443,2019-08-18 16:42:40:980,-1.1552,-0.2568,10.1122,-1.0725,-0.4021,9.7395,0.0021,-0.0113,0.0045
53378,47.78668,-1.696813,124.27,30.5,11.792,202.8,Nov-21,5338543,2019-08-18 16:42:41:080,-1.0378,-0.316,9.6555,-1.0639,-0.398,9.7406,0.0039,-0.0153,0.0025
53379,47.78668,-1.696813,124.27,30.5,11.792,202.8,Nov-21,5338643,2019-08-18 16:42:41:180,-0.9875,-0.0191,9.8015,-1.056,-0.399,9.7415,-0.0023,0.0055,0.0022
53380,47.78668,-1.696813,124.27,30.5,11.792,202.8,Nov-21,5338744,2019-08-18 16:42:41:281,-1.0151,-0.0862,10.1864,-1.0651,-0.3959,9.7406,0.0035,0.0081,0.005
53381,47.78668,-1.696813,124.27,30.5,11.792,202.8,Nov-21,5338843,2019-08-18 16:42:41:380,-1.066,-0.392,9.8404,-1.0689,-0.3898,9.7404,-0.0041,-0.0101,0.0042
53382,47.78668,-1.696813,124.27,30.5,11.792,202.8,Nov-21,5338943,2019-08-18 16:42:41:480,-1.1575,-0.3962,9.6453,-1.0628,-0.3933,9.741,-0.0092,-0.0106,0.0021
53383,47.78668,-1.696813,124.27,30.5,11.792,202.8,Nov-21,5339043,2019-08-18 16:42:41:580,-1.2449,-0.5165,9.9763,-1.061,-0.3989,9.7409,0.0046,0.0093,0.0033
53384,47.78668,-1.696813,124.27,30.5,11.792,202.8,Oct-19,5339143,2019-08-18 16:42:41:680,-0.6775,-0.1879,9.6381,-1.066,-0.3949,9.7405,0.0054,-0.0027,-0.0011
53385,47.78668,-1.696813,124.27,30.5,11.792,202.8,Oct-19,5339244,2019-08-18 16:42:41:781,-0.9157,-0.3412,10.2887,-1.0646,-0.3933,9.7408,0.0011,0.0036,0.0005
53386,47.78668,-1.696813,124.27,30.5,11.792,202.8,Oct-19,5339343,2019-08-18 16:42:41:880,-0.6901,-0.2999,10.245,-1.0595,-0.3889,9.7415,0.0017,-0.0041,-0.0003
53387,47.78668,-1.696813,124.27,30.5,11.792,202.8,Oct-19,5339443,2019-08-18 16:42:41:980,-0.8349,-0.1604,9.6076,-1.0529,-0.3895,9.7422,0.001,-0.0075,-0.0017
53388,47.78668,-1.696813,124.27,30.5,11.792,202.8,Oct-19,5339543,2019-08-18 16:42:42:080,-0.7727,-0.2598,10.1331,-1.0421,-0.3869,9.7434,-0.0046,-0.0013,0.0013
53389,47.78668,-1.696813,124.27,30.5,11.792,202.8,Oct-19,5339643,2019-08-18 16:42:42:180,-1.0809,-0.2544,9.1623,-1.0395,-0.3904,9.7436,-0.0084,0.0014,0.0035
53390,47.78668,-1.696813,124.27,30.5,11.792,202.8,Oct-19,5339743,2019-08-18 16:42:42:280,-0.7535,-0.2502,9.5603,-1.0385,-0.3995,9.7433,-0.0021,0.0017,0.0027
53391,47.78668,-1.696813,124.27,30.5,11.792,202.8,Oct-19,5339843,2019-08-18 16:42:42:380,-1.0684,-0.4495,9.7794,-1.0413,-0.399,9.743,-0.0016,0.0014,0.0033
53392,47.78668,-1.696813,124.27,30.5,11.792,202.8,Oct-19,5339944,2019-08-18 16:42:42:481,-1.0708,-0.6075,9.8404,-1.0423,-0.4026,9.7428,0.0026,0.0046,0.0023
53393,47.78668,-1.696813,124.27,30.5,11.792,202.8,Oct-19,5340043,2019-08-18 16:42:42:580,-1.2312,-0.3184,9.3754,-1.046,-0.3991,9.7425,0.0027,0.0043,0.0023
53394,47.78668,-1.696813,124.27,30.5,11.792,202.8,Dec-21,5340143,2019-08-18 16:42:42:680,-1.1809,-0.3902,9.8446,-1.0479,-0.4047,9.7421,-0.0081,-0.0027,0.0014
53395,47.78668,-1.696813,124.27,30.5,11.792,202.8,Dec-21,5340244,2019-08-18 16:42:42:781,-1.0151,-0.4675,9.337,-1.0468,-0.4064,9.7421,0.0051,-0.0022,0.0031
53396,47.78668,-1.696813,124.27,30.5,11.792,202.8,Dec-21,5340343,2019-08-18 16:42:42:880,-1.0247,-0.7135,9.7213,-1.0476,-0.3997,9.7423,0.0023,-0.0009,0.0038
53397,47.78668,-1.696813,124.27,30.5,11.792,202.8,Dec-21,5340443,2019-08-18 16:42:42:980,-1.145,-0.6021,9.8554,-1.0461,-0.4015,9.7424,-0.0009,-0.0031,0.0005
53398,47.78668,-1.696813,124.27,30.5,11.792,202.8,Dec-21,5340544,2019-08-18 16:42:43:081,-0.8463,-0.6925,10.284,-1.0424,-0.4064,9.7426,-0.0033,-0.0008,-0.0018
53399,47.78668,-1.696813,124.27,30.5,11.792,202.8,Dec-21,5340643,2019-08-18 16:42:43:180,-0.9217,-0.4495,9.8877,-1.0428,-0.4123,9.7423,-0.007,-0.0009,-0.0039
53400,47.78668,-1.696813,124.27,30.5,11.792,202.8,Dec-21,5340743,2019-08-18 16:42:43:280,-1.0414,-0.3184,9.9434,-1.0425,-0.4264,9.7418,-0.0149,-0.0093,-0.0033
53401,47.78668,-1.696813,124.27,30.5,11.792,202.8,Dec-21,5340843,2019-08-18 16:42:43:380,-1.0402,-0.5525,9.5202,-1.0367,-0.4392,9.7418,0.0012,0.0027,0.0002
53402,47.78668,-1.696813,124.27,30.5,11.792,202.8,Dec-21,5340943,2019-08-18 16:42:43:480,-1.115,-0.5812,9.5364,-1.0369,-0.4389,9.7418,0.0108,-0.006,0.002
53403,47.78668,-1.696813,124.27,30.5,11.792,202.8,Dec-21,5341044,2019-08-18 16:42:43:581,-0.9672,-0.6231,9.6076,-1.0282,-0.43,9.7431,0.0132,0.0006,-0.0014
53404,47.78668,-1.696813,124.27,30.5,11.792,202.8,Dec-21,5341144,2019-08-18 16:42:43:681,-1.1204,-0.6123,9.3909,-1.0347,-0.425,9.7426,-0.0091,0.0069,-0.0037
53405,47.78668,-1.696813,124.27,30.5,11.792,202.8,Dec-21,5341244,2019-08-18 16:42:43:781,-1.0109,-0.6638,9.7117,-1.0415,-0.4321,9.7416,-0.0098,0.0069,-0.0049
53406,47.78668,-1.696813,124.27,30.5,11.792,202.8,Dec-21,5341343,2019-08-18 16:42:43:880,-1.1282,-0.5225,9.3269,-1.0603,-0.4486,9.7388,0.0072,0.0205,-0.0025
53407,47.78668,-1.696813,124.27,30.5,11.792,202.8,Dec-21,5341443,2019-08-18 16:42:43:980,-1.1701,-0.7739,9.9937,-1.0695,-0.4457,9.738,0.0154,-0.0059,-0.0008
53408,47.78668,-1.696813,124.27,30.5,11.792,202.8,Dec-21,5341543,2019-08-18 16:42:44:080,-1.0372,-0.6853,9.7459,-1.0628,-0.4401,9.739,-0.0074,-0.0042,-0.0032
53409,47.78668,-1.696813,124.27,30.5,11.792,202.8,Dec-21,5341643,2019-08-18 16:42:44:180,-1.1408,-0.5363,9.5184,-1.0648,-0.447,9.7384,-0.0131,0.0094,-0.0035
53410,47.78668,-1.696813,124.27,30.5,11.792,202.8,Dec-21,5341743,2019-08-18 16:42:44:280,-1.2443,-0.7296,10.2576,-1.0849,-0.4671,9.7353,0.0028,0.0055,-0.0018
53411,47.78668,-1.696813,124.27,30.5,11.792,202.8,Dec-21,5341843,2019-08-18 16:42:44:380,-1.1096,-0.8954,10.3205,-1.0875,-0.4666,9.735,0.0117,-0.0031,-0.0021
53412,47.78668,-1.696813,124.27,30.5,11.792,202.8,Dec-21,5341943,2019-08-18 16:42:44:480,-1.2479,-0.3657,10.5689,-1.0794,-0.4583,9.7363,0.0026,-0.0105,-0.0011
53413,47.78668,-1.696813,124.27,30.5,11.792,202.8,Dec-21,5342043,2019-08-18 16:42:44:580,-1.145,-0.5453,9.6722,-1.0785,-0.4599,9.7363,0.004,-0.0013,-0.0002
53414,47.78668,-1.696813,124.27,30.5,11.792,202.8,Nov-19,5342143,2019-08-18 16:42:44:680,-1.136,-0.4926,10.1367,-1.08,-0.459,9.7362,0.0067,-0.0009,-0.001
53415,47.78668,-1.696813,124.27,30.5,11.792,202.8,Nov-19,5342243,2019-08-18 16:42:44:780,-1.2114,-0.8045,10.008,-1.0851,-0.4564,9.7357,0.0044,-0.0018,-0.001
53416,47.78668,-1.696813,124.27,30.5,11.792,202.8,Nov-19,5342343,2019-08-18 16:42:44:880,-1.3168,-0.6788,9.6339,-1.0862,-0.4645,9.7352,-0.0095,0.0045,-0.0035
53417,47.78668,-1.696813,124.27,30.5,11.792,202.8,Nov-19,5342443,2019-08-18 16:42:44:980,-1.2677,-0.6428,9.6555,-1.0989,-0.4804,9.733,0.0011,-0.0081,-0.006
53418,47.78668,-1.696813,124.27,30.5,11.792,202.8,Nov-19,5342544,2019-08-18 16:42:45:081,-1.2659,-0.844,9.5782,-1.0983,-0.4825,9.733,0.0079,-0.0135,-0.0049
53419,47.78668,-1.696813,124.27,30.5,11.792,202.8,Nov-19,5342643,2019-08-18 16:42:45:180,-1.2707,-0.5393,9.9039,-1.0868,-0.4862,9.7341,0.0013,0.0027,-0.0048
53420,47.78668,-1.696813,124.27,30.5,11.792,202.8,Nov-19,5342744,2019-08-18 16:42:45:281,-1.203,-1.0062,10.3079,-1.0865,-0.4891,9.734,-0.002,0.0017,-0.0064
53421,47.78668,-1.696813,124.27,30.5,11.792,202.8,Nov-19,5342843,2019-08-18 16:42:45:380,-1.2018,-0.6428,10.1421,-1.0924,-0.499,9.7328,-0.0003,-0.0008,-0.0049
53422,47.78668,-1.696813,124.27,30.5,11.792,202.8,Nov-19,5342944,2019-08-18 16:42:45:481,-1.1031,-0.7578,9.6794,-1.0939,-0.5041,9.7324,-0.0021,-0.0143,-0.0066
53423,47.78668,-1.696813,124.27,30.5,11.792,202.8,Nov-19,5343043,2019-08-18 16:42:45:580,-1.2653,-0.6698,10.2271,-1.087,-0.5095,9.7329,0.0022,-0.0038,-0.0055
53424,47.78668,-1.696813,124.27,30.5,11.792,202.8,14 / 21,5343143,2019-08-18 16:42:45:680,-1.1731,-0.7404,9.9464,-1.0868,-0.5138,9.7327,0.0078,0.0084,-0.0036
53425,47.78668,-1.696813,124.27,30.5,11.792,202.8,14 / 21,5343243,2019-08-18 16:42:45:780,-1.1773,-0.823,10.4827,-1.1017,-0.5103,9.7312,0.009,-0.0011,-0.004
53426,47.78668,-1.696813,124.27,30.5,11.792,202.8,14 / 21,5343343,2019-08-18 16:42:45:880,-1.2395,-0.8218,9.7099,-1.0966,-0.5093,9.7318,0.009,-0.0095,-0.0022
53427,47.78668,-1.696813,124.27,30.5,11.792,202.8,14 / 21,5343443,2019-08-18 16:42:45:980,-1.2138,-0.7733,9.6938,-1.0998,-0.5121,9.7313,-0.0025,0.0046,-0.0049
53428,47.78668,-1.696813,124.27,30.5,11.792,202.8,14 / 21,5343543,2019-08-18 16:42:46:080,-1.0779,-0.8422,9.3149,-1.1038,-0.5196,9.7305,-0.0157,-0.0058,-0.0072
53429,47.78668,-1.696813,124.27,30.5,11.792,202.8,14 / 21,5343643,2019-08-18 16:42:46:180,-1.0983,-0.4549,10.2367,-1.0966,-0.5386,9.7303,-0.005,-0.0058,-0.0062
53430,47.78668,-1.696813,124.27,30.5,11.792,202.8,14 / 21,5343743,2019-08-18 16:42:46:280,-1.0755,-0.8607,10.1044,-1.0919,-0.5396,9.7307,0.0097,-0.0104,-0.0037
53431,47.78668,-1.696813,124.27,30.5,11.792,202.8,14 / 21,5343843,2019-08-18 16:42:46:380,-0.9355,-0.7901,10.5497,-1.0715,-0.5276,9.7336,0.0185,-0.0204,-0.0017
53432,47.78668,-1.696813,124.27,30.5,11.792,202.8,14 / 21,5343944,2019-08-18 16:42:46:481,-1.0163,-0.5836,10.0338,-1.0564,-0.5181,9.7358,0.0041,-0.0101,-0.0009
53433,47.78668,-1.696813,124.27,30.5,11.792,202.8,14 / 21,5344043,2019-08-18 16:42:46:580,-0.8565,-0.3909,9.774,-1.0494,-0.5106,9.737,0.0065,0.011,0.0006
53434,47.78668,-1.696813,124.27,30.5,11.792,202.8,14 / 21,5344143,2019-08-18 16:42:46:680,-1.1737,-0.3645,9.7512,-1.0629,-0.5034,9.7359,0.0079,0.0177,0.0
53435,47.78668,-1.696813,124.27,30.5,11.792,202.8,14 / 21,5344243,2019-08-18 16:42:46:780,-1.1312,-0.5884,10.1152,-1.0757,-0.494,9.735,0.0105,0.005,-0.0008
53436,47.78668,-1.696813,124.27,30.5,11.792,202.8,14 / 21,5344343,2019-08-18 16:42:46:880,-1.1222,-0.4298,9.8907,-1.0735,-0.4846,9.7357,0.0102,-0.0073,-0.0012
53437,47.78668,-1.696813,124.27,30.5,11.792,202.8,14 / 21,5344443,2019-08-18 16:42:46:980,-1.1025,-0.3436,9.9482,-1.064,-0.4769,9.7371,0.001,-0.0007,-0.0016
53438,47.78668,-1.696813,124.27,30.5,11.792,202.8,14 / 21,5344543,2019-08-18 16:42:47:080,-1.0301,-0.1586,9.7716,-1.0637,-0.4754,9.7372,0.0031,-0.01,-0.002
53439,47.78668,-1.696813,124.27,30.5,11.792,202.8,14 / 21,5344643,2019-08-18 16:42:47:180,-0.9636,-0.4232,10.2917,-1.0451,-0.473,9.7393,-0.005,-0.009,0.0013
53440,47.78668,-1.696813,124.27,30.5,11.792,202.8,14 / 21,5344744,2019-08-18 16:42:47:281,-0.7619,-0.2221,9.7794,-1.042,-0.4738,9.7396,-0.0042,-0.0018,0.001
53441,47.78668,-1.696813,124.27,30.5,11.792,202.8,14 / 21,5344843,2019-08-18 16:42:47:380,-1.0732,-0.1317,9.3981,-1.0406,-0.4797,9.7395,-0.0051,-0.0018,0.001
53442,47.78668,-1.696813,124.27,30.5,11.792,202.8,14 / 21,5344943,2019-08-18 16:42:47:480,-1.1312,-0.3974,9.6459,-1.0392,-0.4807,9.7396,-0.0038,0.0023,0.0009
53443,47.78668,-1.696813,124.27,30.5,11.792,202.8,14 / 21,5345044,2019-08-18 16:42:47:581,-1.2988,-0.5052,9.5753,-1.0473,-0.4828,9.7386,-0.0074,-0.0003,0.0008
53444,47.78668,-1.696813,124.27,30.5,11.792,202.8,Dec-20,5345143,2019-08-18 16:42:47:680,-1.1839,-0.3148,10.1888,-1.0448,-0.483,9.7389,0.0073,-0.0052,0.0017
53445,47.78668,-1.696813,124.27,30.5,11.792,202.8,Dec-20,5345243,2019-08-18 16:42:47:780,-0.7314,-0.1173,9.9913,-1.0371,-0.4685,9.7404,0.012,-0.0104,0.0023
53446,47.78668,-1.696813,124.27,30.5,11.792,202.8,Dec-20,5345343,2019-08-18 16:42:47:880,-0.8122,-0.2071,9.783,-1.0265,-0.4563,9.7421,-0.0002,0.0028,0.0026
53447,47.78668,-1.696813,124.27,30.5,11.792,202.8,Dec-20,5345443,2019-08-18 16:42:47:980,-1.1174,-0.0616,10.2474,-1.0301,-0.4541,9.7418,0.0005,-0.0077,0.0038
53448,47.78668,-1.696813,124.27,30.5,11.792,202.8,Dec-20,5345543,2019-08-18 16:42:48:080,-1.0211,-0.4734,10.1343,-1.0167,-0.4461,9.7436,0.0026,-0.0111,0.0045
53449,47.78668,-1.696813,124.27,30.5,11.792,202.8,Dec-20,5345644,2019-08-18 16:42:48:181,-1.2814,-0.601,9.7267,-1.011,-0.4411,9.7444,0.0026,-0.0111,0.0045
53450,47.78668,-1.696813,124.27,30.5,11.792,202.8,Dec-20,5345743,2019-08-18 16:42:48:280,-0.9498,-0.51,9.6722,-1.0176,-0.4366,9.7439,-0.0029,0.0116,0.0059
53451,47.78668,-1.696813,124.27,30.5,11.792,202.8,Dec-20,5345843,2019-08-18 16:42:48:380,-0.7727,-0.4238,10.2971,-1.0243,-0.4342,9.7433,0.0091,0.0106,0.0061
53452,47.78668,-1.696813,124.27,30.5,11.792,202.8,Dec-20,5345943,2019-08-18 16:42:48:480,-0.9546,-0.3196,10.2295,-1.0309,-0.4148,9.7435,0.0102,-0.0039,0.0042
53453,47.78668,-1.696813,124.27,30.5,11.792,202.8,Dec-20,5346043,2019-08-18 16:42:48:580,-0.9971,-0.0706,10.1134,-1.0223,-0.4113,9.7445,0.0035,-0.0072,0.0043
53454,47.78668,-1.696813,124.27,30.5,11.792,202.8,13 / 21,5346143,2019-08-18 16:42:48:680,-1.1336,-0.1556,10.2385,-1.0126,-0.3938,9.7463,0.0072,-0.0038,0.0051
53455,47.78668,-1.696813,124.27,30.5,11.792,202.8,13 / 21,5346243,2019-08-18 16:42:48:780,-0.9798,-0.3729,9.7417,-1.0113,-0.3902,9.7466,0.0065,-0.0006,0.0058
53456,47.78668,-1.696813,124.27,30.5,11.792,202.8,13 / 21,5346344,2019-08-18 16:42:48:881,-0.899,-0.2394,9.8542,-1.0016,-0.3766,9.7481,0.0029,-0.012,0.0048
53457,47.78668,-1.696813,124.27,30.5,11.792,202.8,13 / 21,5346443,2019-08-18 16:42:48:980,-1.0241,-0.4058,10.1325,-0.9942,-0.3691,9.7491,0.0038,-0.0068,0.0038
53458,47.78668,-1.696813,124.27,30.5,11.792,202.8,13 / 21,5346544,2019-08-18 16:42:49:081,-0.9163,-0.3304,10.4593,-0.9927,-0.3615,9.7496,-0.0002,0.0005,0.0048
53459,47.78668,-1.696813,124.27,30.5,11.792,202.8,13 / 21,5346643,2019-08-18 16:42:49:180,-0.8864,-0.021,9.4963,-0.9944,-0.3594,9.7495,-0.0042,0.0041,0.0052
53460,47.78668,-1.696813,124.27,30.5,11.792,202.8,13 / 21,5346744,2019-08-18 16:42:49:281,-1.0091,-0.0443,9.4813,-1.0037,-0.3618,9.7484,-0.0042,0.0087,0.0031
53461,47.78668,-1.696813,124.27,30.5,11.792,202.8,13 / 21,5346843,2019-08-18 16:42:49:380,-0.957,-0.1861,9.5292,-1.0117,-0.3552,9.7479,0.0082,0.0131,0.0043
53462,47.78668,-1.696813,124.27,30.5,11.792,202.8,13 / 21,5346943,2019-08-18 16:42:49:480,-1.1953,-0.1221,9.6668,-1.0135,-0.3412,9.7482,0.0069,-0.005,0.0042
53463,47.78668,-1.696813,124.27,30.5,11.792,202.8,13 / 21,5347044,2019-08-18 16:42:49:581,-0.8385,-0.1556,9.6423,-1.0082,-0.3363,9.7489,-0.0076,0.0014,0.0017
53464,47.78442,-1.698122,117.13,30.25,9.648001,202.8,13 / 21,5347143,2019-08-18 16:42:49:680,-0.872,-0.4872,10.0206,-1.01,-0.3398,9.7486,-0.0096,0.0061,0.0031
53465,47.78442,-1.698122,117.13,30.25,9.648001,202.8,13 / 21,5347243,2019-08-18 16:42:49:780,-0.881,-0.1873,10.6802,-1.0051,-0.3436,9.749,-0.0046,-0.0086,0.0029
53466,47.78442,-1.698122,117.13,30.25,9.648001,202.8,13 / 21,5347343,2019-08-18 16:42:49:880,-1.0157,-0.0982,10.8298,-0.9759,-0.3293,9.7524,0.0112,-0.0264,0.0023
53467,47.78442,-1.698122,117.13,30.25,9.648001,202.8,13 / 21,5347443,2019-08-18 16:42:49:980,-1.0468,-0.2526,10.1253,-0.9558,-0.3187,9.7548,0.0061,-0.0314,-0.0001
53468,47.78442,-1.698122,117.13,30.25,9.648001,202.8,13 / 21,5347543,2019-08-18 16:42:50:080,-1.1234,-0.1724,9.8117,-0.9162,-0.3183,9.7586,-0.013,-0.0218,0.0005
53469,47.78442,-1.698122,117.13,30.25,9.648001,202.8,13 / 21,5347644,2019-08-18 16:42:50:181,-0.9588,-0.3687,8.8283,-0.9153,-0.3319,9.7582,-0.0124,0.007,-0.0001
53470,47.78442,-1.698122,117.13,30.25,9.648001,202.8,13 / 21,5347744,2019-08-18 16:42:50:281,-0.8092,-0.2346,10.0194,-0.9226,-0.3336,9.7575,0.0072,-0.0032,-0.0012
53471,47.78442,-1.698122,117.13,30.25,9.648001,202.8,13 / 21,5347843,2019-08-18 16:42:50:380,-0.6206,-0.562,10.2504,-0.9162,-0.33,9.7582,0.003,-0.0083,-0.0037
53472,47.78442,-1.698122,117.13,30.25,9.648001,202.8,13 / 21,5347943,2019-08-18 16:42:50:480,-0.5704,-0.3573,10.4186,-0.9057,-0.3323,9.7591,-0.0056,-0.0029,-0.0035
53473,47.78442,-1.698122,117.13,30.25,9.648001,202.8,13 / 21,5348043,2019-08-18 16:42:50:580,-0.872,-0.3304,9.8763,-0.8987,-0.3385,9.7595,0.0018,-0.0043,-0.003
53474,47.78442,-1.698122,117.13,30.25,9.648001,202.8,14 / 22,5348143,2019-08-18 16:42:50:680,-0.9151,-0.3705,9.9919,-0.8963,-0.3375,9.7598,0.0129,-0.0049,-0.0008
53475,47.78442,-1.698122,117.13,30.25,9.648001,202.8,14 / 22,5348243,2019-08-18 16:42:50:780,-0.9959,-0.5291,9.4705,-0.8855,-0.328,9.7611,0.0094,-0.0003,-0.0009
53476,47.78442,-1.698122,117.13,30.25,9.648001,202.8,14 / 22,5348343,2019-08-18 16:42:50:880,-0.8936,-0.6321,9.6453,-0.8915,-0.3266,9.7606,-0.002,0.0059,-0.0035
53477,47.78442,-1.698122,117.13,30.25,9.648001,202.8,14 / 22,5348444,2019-08-18 16:42:50:981,-0.6841,-0.5249,9.7764,-0.8937,-0.3321,9.7602,-0.0106,0.0033,-0.0033
53478,47.78442,-1.698122,117.13,30.25,9.648001,202.8,14 / 22,5348543,2019-08-18 16:42:51:080,-0.8206,-0.2693,10.1912,-0.8966,-0.3427,9.7596,-0.0033,0.0056,-0.0014
53479,47.78442,-1.698122,117.13,30.25,9.648001,202.8,14 / 22,5348643,2019-08-18 16:42:51:180,-0.7505,-0.5471,10.0619,-0.9024,-0.3476,9.7589,-0.0028,-0.0042,-0.0013
53480,47.78442,-1.698122,117.13,30.25,9.648001,202.8,14 / 22,5348743,2019-08-18 16:42:51:280,-1.0486,-0.2508,10.1265,-0.9033,-0.3504,9.7587,-0.0028,-0.0042,-0.0013
53481,47.78442,-1.698122,117.13,30.25,9.648001,202.8,14 / 22,5348843,2019-08-18 16:42:51:380,-1.1198,-0.4854,9.8692,-0.8949,-0.3503,9.7594,0.0055,-0.0053,-0.0007
53482,47.78442,-1.698122,117.13,30.25,9.648001,202.8,14 / 22,5348944,2019-08-18 16:42:51:481,-1.4101,-0.7003,10.1636,-0.8997,-0.3496,9.759,0.0074,0.004,-0.0001
53483,47.78442,-1.698122,117.13,30.25,9.648001,202.8,14 / 22,5349043,2019-08-18 16:42:51:580,-1.227,-0.6045,9.8554,-0.9062,-0.348,9.7585,0.0025,0.001,-0.0012
53484,47.78442,-1.698122,117.13,30.25,9.648001,202.8,13 / 21,5349144,2019-08-18 16:42:51:681,-0.8319,-0.3454,10.0511,-0.9064,-0.3506,9.7584,0.0031,-0.0028,0.001
53485,47.78442,-1.698122,117.13,30.25,9.648001,202.8,13 / 21,5349244,2019-08-18 16:42:51:781,-0.9995,-0.4806,10.1517,-0.9071,-0.3454,9.7585,-0.0016,-0.0031,0.0014
53486,47.78442,-1.698122,117.13,30.25,9.648001,202.8,13 / 21,5349343,2019-08-18 16:42:51:880,-0.7128,-0.416,10.0894,-0.9064,-0.3483,9.7585,0.0027,-0.0047,-0.0007
53487,47.78442,-1.698122,117.13,30.25,9.648001,202.8,13 / 21,5349444,2019-08-18 16:42:51:981,-1.2198,-0.258,10.1241,-0.9023,-0.3395,9.7591,0.0049,-0.0058,-0.0034
53488,47.78442,-1.698122,117.13,30.25,9.648001,202.8,13 / 21,5349544,2019-08-18 16:42:52:081,-1.1055,-0.3639,9.346,-0.8993,-0.3383,9.7595,-0.0038,0.0053,-0.0027
53489,47.78442,-1.698122,117.13,30.25,9.648001,202.8,13 / 21,5349643,2019-08-18 16:42:52:180,-0.9642,-0.5441,9.9482,-0.9055,-0.3447,9.7587,0.0037,-0.0109,-0.0004
53490,47.78442,-1.698122,117.13,30.25,9.648001,202.8,13 / 21,5349743,2019-08-18 16:42:52:280,-0.9947,-0.3813,9.9937,-0.8961,-0.3435,9.7596,0.0005,-0.0247,0.0012
53491,47.78442,-1.698122,117.13,30.25,9.648001,202.8,13 / 21,5349843,2019-08-18 16:42:52:380,-0.8852,-0.4154,9.8602,-0.8796,-0.3382,9.7613,0.002,-0.0049,0.002
53492,47.78442,-1.698122,117.13,30.25,9.648001,202.8,13 / 21,5349943,2019-08-18 16:42:52:480,-1.0719,-0.5591,10.0158,-0.8776,-0.3375,9.7615,0.0044,-0.0099,0.001
53493,47.78442,-1.698122,117.13,30.25,9.648001,202.8,13 / 21,5350043,2019-08-18 16:42:52:580,-0.9223,-0.325,10.1145,-0.8686,-0.3332,9.7624,0.0047,-0.0024,0.0014
53494,47.78442,-1.698122,117.13,30.25,9.648001,202.8,14 / 22,5350143,2019-08-18 16:42:52:680,-0.9163,-0.3513,9.6944,-0.87,-0.3331,9.7623,-0.0043,-0.0017,0.0007
53495,47.78442,-1.698122,117.13,30.25,9.648001,202.8,14 / 22,5350243,2019-08-18 16:42:52:780,-0.784,-0.4232,10.5545,-0.8606,-0.3245,9.7634,0.0087,-0.0123,0.0028
53496,47.78442,-1.698122,117.13,30.25,9.648001,202.8,14 / 22,5350344,2019-08-18 16:42:52:881,-0.7996,-0.3567,10.5455,-0.8517,-0.3193,9.7644,0.0058,-0.0177,0.0031
53497,47.78442,-1.698122,117.13,30.25,9.648001,202.8,14 / 22,5350444,2019-08-18 16:42:52:981,-0.9947,-0.0473,9.8153,-0.8438,-0.3175,9.7651,-0.0047,-0.0026,0.0046
53498,47.78442,-1.698122,117.13,30.25,9.648001,202.8,14 / 22,5350544,2019-08-18 16:42:53:081,-0.9858,-0.1425,9.3418,-0.8471,-0.3201,9.7647,-0.0044,0.0075,0.0065
53499,47.78442,-1.698122,117.13,30.25,9.648001,202.8,14 / 22,5350643,2019-08-18 16:42:53:180,-0.9564,-0.501,9.2754,-0.857,-0.3183,9.7639,-0.0011,0.0043,0.0072
53500,47.78442,-1.698122,117.13,30.25,9.648001,202.8,14 / 22,5350743,2019-08-18 16:42:53:280,-1.0312,-0.1275,10.2756,-0.8526,-0.3149,9.7644,0.002,-0.0236,0.0053
53501,47.78442,-1.698122,117.13,30.25,9.648001,202.8,14 / 22,5350843,2019-08-18 16:42:53:380,-0.8864,-0.0934,10.4408,-0.8161,-0.3116,9.7677,-0.0169,-0.029,0.0044
53502,47.78442,-1.698122,117.13,30.25,9.648001,202.8,14 / 22,5350943,2019-08-18 16:42:53:480,-0.7924,-0.2274,9.8751,-0.802,-0.3171,9.7687,-0.0293,-0.0069,0.0056
53503,47.78442,-1.698122,117.13,30.25,9.648001,202.8,14 / 22,5351043,2019-08-18 16:42:53:580,-0.9415,-0.0287,9.847,-0.8036,-0.3442,9.7676,-0.0242,0.0029,0.0138
53504,47.78442,-1.698122,117.13,30.25,9.648001,202.8,Nov-20,5351143,2019-08-18 16:42:53:680,-0.8649,-0.2586,10.0314,-0.8061,-0.3544,9.767,-0.0179,-0.0088,0.0151
53505,47.78442,-1.698122,117.13,30.25,9.648001,202.8,Nov-20,5351243,2019-08-18 16:42:53:780,-0.9085,0.0575,9.9308,-0.7898,-0.3566,9.7683,-0.0065,-0.025,0.017
53506,47.78442,-1.698122,117.13,30.25,9.648001,202.8,Nov-20,5351343,2019-08-18 16:42:53:880,-0.7451,-0.1143,9.923,-0.777,-0.3513,9.7695,-0.0136,-0.0179,0.0158
53507,47.78442,-1.698122,117.13,30.25,9.648001,202.8,Nov-20,5351443,2019-08-18 16:42:53:980,-0.814,0.2173,10.0266,-0.7712,-0.3637,9.7695,-0.0218,0.0045,0.0138
53508,47.78442,-1.698122,117.13,30.25,9.648001,202.8,Nov-20,5351544,2019-08-18 16:42:54:081,-0.735,-0.1903,9.8739,-0.7782,-0.3694,9.7687,-0.0119,0.0054,0.0146
53509,47.78442,-1.698122,117.13,30.25,9.648001,202.8,Nov-20,5351643,2019-08-18 16:42:54:180,-0.7978,0.1335,10.0679,-0.7814,-0.3675,9.7686,-0.0128,-0.0145,0.0146
53510,47.78442,-1.698122,117.13,30.25,9.648001,202.8,Nov-20,5351744,2019-08-18 16:42:54:281,-0.7493,0.0982,9.9793,-0.7697,-0.3671,9.7695,-0.0136,-0.0124,0.0157
53511,47.78442,-1.698122,117.13,30.25,9.648001,202.8,Nov-20,5351843,2019-08-18 16:42:54:380,-0.9875,0.0473,10.029,-0.7649,-0.3694,9.7698,-0.0154,-0.0076,0.0173
53512,47.78442,-1.698122,117.13,30.25,9.648001,202.8,Nov-20,5351943,2019-08-18 16:42:54:480,-0.9002,-0.0012,9.7052,-0.7569,-0.3745,9.7702,-0.016,-0.0135,0.0171
53513,47.78442,-1.698122,117.13,30.25,9.648001,202.8,Nov-20,5352043,2019-08-18 16:42:54:580,-0.8517,0.2496,9.8099,-0.7482,-0.3801,9.7707,-0.0233,-0.0122,0.0172
53514,47.78442,-1.698122,117.13,30.25,9.648001,202.8,15 / 22,5352143,2019-08-18 16:42:54:680,-0.8259,0.0545,9.768,-0.7404,-0.3913,9.7708,-0.0187,-0.0032,0.0179
53515,47.78442,-1.698122,117.13,30.25,9.648001,202.8,15 / 22,5352243,2019-08-18 16:42:54:780,-0.8056,-0.1526,10.3079,-0.7403,-0.3961,9.7706,-0.0224,-0.0081,0.0185
53516,47.78442,-1.698122,117.13,30.25,9.648001,202.8,15 / 22,5352343,2019-08-18 16:42:54:880,-1.0067,-0.1245,10.0439,-0.7354,-0.4012,9.7708,-0.0137,-0.0146,0.0183
53517,47.78442,-1.698122,117.13,30.25,9.648001,202.8,15 / 22,5352443,2019-08-18 16:42:54:980,-0.8517,-0.0449,10.0858,-0.726,-0.4042,9.7714,-0.0108,-0.0121,0.0197
53518,47.78442,-1.698122,117.13,30.25,9.648001,202.8,15 / 22,5352543,2019-08-18 16:42:55:080,-0.8128,0.0126,9.5609,-0.7215,-0.396,9.7721,-0.0083,-0.0015,0.0222
53519,47.78442,-1.698122,117.13,30.25,9.648001,202.8,15 / 22,5352643,2019-08-18 16:42:55:180,-0.808,0.2442,10.008,-0.7236,-0.3939,9.772,-0.0068,0.0055,0.0212
53520,47.78442,-1.698122,117.13,30.25,9.648001,202.8,15 / 22,5352743,2019-08-18 16:42:55:280,-0.9977,0.2484,9.8817,-0.7277,-0.3835,9.7721,-0.0003,-0.0133,0.0224
53521,47.78442,-1.698122,117.13,30.25,9.648001,202.8,15 / 22,5352844,2019-08-18 16:42:55:381,-0.7721,0.1832,10.2708,-0.722,-0.3757,9.7728,-0.0014,-0.0193,0.0219
53522,47.78442,-1.698122,117.13,30.25,9.648001,202.8,15 / 22,5352944,2019-08-18 16:42:55:481,-0.8654,0.2299,9.8189,-0.7037,-0.3605,9.7747,-0.0118,-0.0132,0.0236
53523,47.78442,-1.698122,117.13,30.25,9.648001,202.8,15 / 22,5353043,2019-08-18 16:42:55:580,-0.9026,-0.1125,9.4149,-0.7001,-0.3623,9.7749,-0.0247,-0.0053,0.0231
53524,47.78442,-1.698122,117.13,30.25,9.648001,202.8,15 / 22,5353143,2019-08-18 16:42:55:680,-0.9756,0.1826,8.8343,-0.7114,-0.3823,9.7733,-0.0308,0.011,0.0252
53525,47.78442,-1.698122,117.13,30.25,9.648001,202.8,15 / 22,5353243,2019-08-18 16:42:55:780,-0.8319,0.2328,9.7512,-0.7218,-0.3897,9.7723,-0.0084,0.0056,0.0275
53526,47.78442,-1.698122,117.13,30.25,9.648001,202.8,15 / 22,5353343,2019-08-18 16:42:55:880,-1.0109,0.5034,10.3187,-0.735,-0.3803,9.7717,-0.0006,-0.0105,0.0281
53527,47.78442,-1.698122,117.13,30.25,9.648001,202.8,15 / 22,5353443,2019-08-18 16:42:55:980,-0.8553,0.1329,10.6024,-0.7235,-0.3717,9.7729,-0.0113,-0.0345,0.026
53528,47.78442,-1.698122,117.13,30.25,9.648001,202.8,15 / 22,5353543,2019-08-18 16:42:56:080,-1.0618,0.1161,10.5395,-0.6896,-0.3656,9.7755,-0.0202,-0.0416,0.0253
53529,47.78442,-1.698122,117.13,30.25,9.648001,202.8,15 / 22,5353644,2019-08-18 16:42:56:181,-1.1839,0.2652,10.3055,-0.6643,-0.3686,9.7772,-0.0175,-0.0271,0.035
53530,47.78442,-1.698122,117.13,30.25,9.648001,202.8,15 / 22,5353743,2019-08-18 16:42:56:280,-1.1288,0.601,10.2049,-0.6421,-0.3619,9.7789,-0.0166,-0.0224,0.0418
53531,47.78442,-1.698122,117.13,30.25,9.648001,202.8,15 / 22,5353843,2019-08-18 16:42:56:380,-0.7864,0.4016,10.2756,-0.6334,-0.3634,9.7794,-0.0285,-0.0229,0.0441
53532,47.78442,-1.698122,117.13,30.25,9.648001,202.8,15 / 22,5353944,2019-08-18 16:42:56:481,-0.7787,0.6327,9.0497,-0.6211,-0.3681,9.78,-0.0295,-0.0188,0.0425
53533,47.78442,-1.698122,117.13,30.25,9.648001,202.8,15 / 22,5354044,2019-08-18 16:42:56:581,-0.8565,0.3538,8.8803,-0.6191,-0.3738,9.78,-0.0409,-0.0014,0.0399
53534,47.78442,-1.698122,117.13,30.25,9.648001,202.8,13 / 19,5354143,2019-08-18 16:42:56:680,-0.872,0.7883,8.9905,-0.6273,-0.3966,9.7785,-0.0411,0.0005,0.041
53535,47.78442,-1.698122,117.13,30.25,9.648001,202.8,13 / 19,5354243,2019-08-18 16:42:56:780,-0.79,0.4304,9.3843,-0.6268,-0.3967,9.7786,-0.0171,-0.0196,0.0442
53536,47.78442,-1.698122,117.13,30.25,9.648001,202.8,13 / 19,5354343,2019-08-18 16:42:56:880,-0.6572,0.2173,10.6305,-0.611,-0.3788,9.7803,-0.0017,-0.0152,0.0427
53537,47.78442,-1.698122,117.13,30.25,9.648001,202.8,13 / 19,5354443,2019-08-18 16:42:56:980,-0.8487,0.6626,10.5341,-0.6064,-0.3662,9.781,-0.005,-0.0136,0.041
53538,47.78442,-1.698122,117.13,30.25,9.648001,202.8,13 / 19,5354544,2019-08-18 16:42:57:081,-0.6823,0.5345,10.0481,-0.6059,-0.3507,9.7816,-0.0224,0.0027,0.0401
53539,47.78442,-1.698122,117.13,30.25,9.648001,202.8,13 / 19,5354643,2019-08-18 16:42:57:180,-0.7547,0.5609,9.777,-0.6124,-0.3545,9.7811,-0.0314,0.001,0.0389
53540,47.78442,-1.698122,117.13,30.25,9.648001,202.8,13 / 19,5354743,2019-08-18 16:42:57:280,-0.8936,0.2281,9.0737,-0.6125,-0.3701,9.7805,-0.0217,-0.006,0.0298
53541,47.78442,-1.698122,117.13,30.25,9.648001,202.8,13 / 19,5354843,2019-08-18 16:42:57:380,-0.881,0.0251,9.5854,-0.6117,-0.3723,9.7805,-0.0182,-0.0069,0.0286
53542,47.78442,-1.698122,117.13,30.25,9.648001,202.8,13 / 19,5354943,2019-08-18 16:42:57:480,-0.8224,-0.0844,10.1325,-0.6049,-0.3741,9.7808,-0.0151,-0.0139,0.0281
53543,47.78442,-1.698122,117.13,30.25,9.648001,202.8,13 / 19,5355044,2019-08-18 16:42:57:581,-0.544,-0.1939,10.4761,-0.5793,-0.3718,9.7825,-0.0046,-0.017,0.0282
53544,47.78442,-1.698122,117.13,30.25,9.648001,202.8,16 / 22,5355144,2019-08-18 16:42:57:681,-0.4848,0.0269,10.1541,-0.5728,-0.367,9.783,-0.002,-0.0074,0.0285
53545,47.78442,-1.698122,117.13,30.25,9.648001,202.8,16 / 22,5355243,2019-08-18 16:42:57:780,-0.4596,0.0467,9.7057,-0.5718,-0.357,9.7835,-0.0019,0.0065,0.0304
53546,47.78442,-1.698122,117.13,30.25,9.648001,202.8,16 / 22,5355343,2019-08-18 16:42:57:880,-0.5925,0.1538,9.3652,-0.586,-0.3525,9.7828,-0.0052,0.0212,0.0309
53547,47.78442,-1.698122,117.13,30.25,9.648001,202.8,16 / 22,5355443,2019-08-18 16:42:57:980,-0.6613,0.1113,9.9901,-0.6153,-0.3488,9.7811,-0.0002,-0.002,0.0333
53548,47.78442,-1.698122,117.13,30.25,9.648001,202.8,16 / 22,5355543,2019-08-18 16:42:58:080,-0.6536,-0.0461,10.6018,-0.6183,-0.3457,9.781,0.0059,-0.0117,0.0341
53549,47.78442,-1.698122,117.13,30.25,9.648001,202.8,16 / 22,5355643,2019-08-18 16:42:58:180,-0.5135,0.0246,10.1349,-0.6146,-0.3227,9.7821,0.003,0.0079,0.0333
53550,47.78442,-1.698122,117.13,30.25,9.648001,202.8,16 / 22,5355744,2019-08-18 16:42:58:281,-1.0049,-0.1909,9.5818,-0.6286,-0.3117,9.7815,0.0004,0.0125,0.0301
53551,47.78442,-1.698122,117.13,30.25,9.648001,202.8,16 / 22,5355843,2019-08-18 16:42:58:380,-0.9798,-0.1287,9.2359,-0.6498,-0.3058,9.7803,-0.0018,0.0155,0.0299
53552,47.78442,-1.698122,117.13,30.25,9.648001,202.8,16 / 22,5355943,2019-08-18 16:42:58:480,-1.0283,-0.2466,9.8261,-0.6692,-0.3036,9.7791,-0.0027,0.0119,0.0316
53553,47.78442,-1.698122,117.13,30.25,9.648001,202.8,16 / 22,5356044,2019-08-18 16:42:58:581,-1.461,-0.2598,9.3909,-0.7047,-0.2983,9.7767,-0.0039,0.0095,0.0379
53554,47.78217,-1.69932,110.68,30.25,5.36,193.0,17 / 22,5356143,2019-08-18 16:42:58:680,-1.124,0.0168,9.9099,-0.7169,-0.2936,9.776,0.0093,0.0005,0.0399
53555,47.78217,-1.69932,110.68,30.25,5.36,193.0,17 / 22,5356243,2019-08-18 16:42:58:780,-1.0677,0.3107,9.8991,-0.7277,-0.2617,9.7761,0.0094,-0.0094,0.0437
53556,47.78217,-1.69932,110.68,30.25,5.36,193.0,17 / 22,5356343,2019-08-18 16:42:58:880,-1.2677,0.1856,9.8117,-0.731,-0.2521,9.7761,-0.0013,-0.0064,0.0416
53557,47.78217,-1.69932,110.68,30.25,5.36,193.0,17 / 22,5356444,2019-08-18 16:42:58:981,-1.5676,0.015,9.6878,-0.7581,-0.2462,9.7742,-0.0109,0.0135,0.0485
53558,47.78217,-1.69932,110.68,30.25,5.36,193.0,17 / 22,5356543,2019-08-18 16:42:59:080,-1.5634,0.1951,9.5621,-0.7771,-0.2437,9.7728,-0.0033,-0.0055,0.0527
53559,47.78217,-1.69932,110.68,30.25,5.36,193.0,17 / 22,5356643,2019-08-18 16:42:59:180,-1.3335,0.4525,9.9667,-0.793,-0.2272,9.7719,0.0045,-0.0162,0.0531
53560,47.78217,-1.69932,110.68,30.25,5.36,193.0,17 / 22,5356743,2019-08-18 16:42:59:280,-1.4658,0.4058,9.6902,-0.7929,-0.2117,9.7723,0.0042,-0.0104,0.0516
53561,47.78217,-1.69932,110.68,30.25,5.36,193.0,17 / 22,5356843,2019-08-18 16:42:59:380,-1.1043,0.8122,10.2456,-0.8019,-0.1823,9.7721,-0.003,-0.0077,0.0504
53562,47.78217,-1.69932,110.68,30.25,5.36,193.0,17 / 22,5356943,2019-08-18 16:42:59:480,-1.4173,0.5339,10.026,-0.8034,-0.1719,9.7722,-0.0028,-0.0126,0.0493
53563,47.78217,-1.69932,110.68,30.25,5.36,193.0,17 / 22,5357043,2019-08-18 16:42:59:580,-1.4808,0.2771,10.4467,-0.8014,-0.1533,9.7726,-0.0014,-0.0171,0.0505
53564,47.78217,-1.69932,110.68,30.25,5.36,193.0,Dec-17,5357143,2019-08-18 16:42:59:680,-1.452,0.1904,9.4095,-0.8001,-0.1407,9.7729,0.005,0.0015,0.0491
53565,47.78217,-1.69932,110.68,30.25,5.36,193.0,Dec-17,5357243,2019-08-18 16:42:59:780,-1.2826,0.3065,9.6758,-0.819,-0.1238,9.7716,-0.0096,0.0065,0.0477
53566,47.78217,-1.69932,110.68,30.25,5.36,193.0,Dec-17,5357343,2019-08-18 16:42:59:880,-1.3096,0.337,9.3843,-0.8356,-0.1183,9.7703,-0.0069,0.0112,0.0471
53567,47.78217,-1.69932,110.68,30.25,5.36,193.0,Dec-17,5357443,2019-08-18 16:42:59:980,-0.9271,0.3077,9.935,-0.8628,-0.1106,9.768,0.0043,0.0098,0.0477
53568,47.78217,-1.69932,110.68,30.25,5.36,193.0,Dec-17,5357544,2019-08-18 16:43:00:081,-1.3221,0.3777,9.9769,-0.8758,-0.097,9.767,0.0082,0.0064,0.0503
53569,47.78217,-1.69932,110.68,30.25,5.36,193.0,Dec-17,5357643,2019-08-18 16:43:00:180,-1.3299,0.1179,10.3157,-0.8933,-0.0679,9.7656,0.0085,0.0036,0.0517
53570,47.78217,-1.69932,110.68,30.25,5.36,193.0,Dec-17,5357743,2019-08-18 16:43:00:280,-1.3,-0.0694,10.2546,-0.906,-0.0542,9.7646,0.0053,0.0117,0.0502
53571,47.78217,-1.69932,110.68,30.25,5.36,193.0,Dec-17,5357844,2019-08-18 16:43:00:381,-1.6472,-0.0431,9.7901,-0.9431,-0.0351,9.7611,0.0066,0.0155,0.0477
53572,47.78217,-1.69932,110.68,30.25,5.36,193.0,Dec-17,5357944,2019-08-18 16:43:00:481,-1.2629,-0.1652,9.8805,-0.9591,-0.0239,9.7596,0.0064,0.0081,0.0439
53573,47.78217,-1.69932,110.68,30.25,5.36,193.0,Dec-17,5358044,2019-08-18 16:43:00:581,-1.1929,-0.0611,9.0761,-0.9752,-0.0183,9.758,-0.0099,-0.002,0.0323
53574,47.78217,-1.69932,110.68,30.25,5.36,193.0,15 / 19,5358143,2019-08-18 16:43:00:680,-1.1521,0.1179,9.7147,-0.9809,-0.0185,9.7575,-0.001,0.005,0.0295
53575,47.78217,-1.69932,110.68,30.25,5.36,193.0,15 / 19,5358243,2019-08-18 16:43:00:780,-1.3778,-0.0078,10.017,-0.9908,-0.0167,9.7565,0.0154,0.0061,0.0323
53576,47.78217,-1.69932,110.68,30.25,5.36,193.0,15 / 19,5358343,2019-08-18 16:43:00:880,-1.0546,-0.3208,9.9398,-1.0025,0.0024,9.7553,0.0201,-0.0013,0.0314
53577,47.78217,-1.69932,110.68,30.25,5.36,193.0,15 / 19,5358443,2019-08-18 16:43:00:980,-1.5771,0.015,9.5088,-1.0017,0.0102,9.7553,0.0058,0.0118,0.0319
53578,47.78217,-1.69932,110.68,30.25,5.36,193.0,15 / 19,5358543,2019-08-18 16:43:01:080,-1.4622,-0.3807,9.4334,-1.03,0.0195,9.7524,0.0039,0.0219,0.0327
53579,47.78217,-1.69932,110.68,30.25,5.36,193.0,15 / 19,5358643,2019-08-18 16:43:01:180,-0.8577,0.0629,9.923,-1.0395,0.0217,9.7514,0.009,0.0012,0.0316
53580,47.78217,-1.69932,110.68,30.25,5.36,193.0,15 / 19,5358743,2019-08-18 16:43:01:280,-1.1539,-0.1658,9.3035,-1.0507,0.0374,9.7501,0.0027,0.0104,0.0304
53581,47.78217,-1.69932,110.68,30.25,5.36,193.0,15 / 19,5358843,2019-08-18 16:43:01:380,-0.9403,-0.0126,10.026,-1.0592,0.0391,9.7492,0.0068,0.0091,0.0318
53582,47.78217,-1.69932,110.68,30.25,5.36,193.0,15 / 19,5358943,2019-08-18 16:43:01:480,-1.2677,-0.0712,9.6638,-1.0707,0.0493,9.7479,0.0065,0.0037,0.0298
53583,47.78217,-1.69932,110.68,30.25,5.36,193.0,15 / 19,5359044,2019-08-18 16:43:01:581,-1.2479,-0.0688,9.6082,-1.0709,0.0573,9.7478,0.0135,0.0067,0.0305
53584,47.78217,-1.69932,110.68,30.25,5.36,193.0,18 / 22,5359143,2019-08-18 16:43:01:680,-0.9744,-0.2005,9.3035,-1.0844,0.0703,9.7463,0.0094,0.0172,0.03
53585,47.78217,-1.69932,110.68,30.25,5.36,193.0,18 / 22,5359243,2019-08-18 16:43:01:780,-1.0492,-0.2448,10.1313,-1.0999,0.0789,9.7445,0.0161,0.0219,0.029
53586,47.78217,-1.69932,110.68,30.25,5.36,193.0,18 / 22,5359344,2019-08-18 16:43:01:881,-1.1348,-0.1377,10.175,-1.1212,0.1011,9.7418,0.0198,0.0147,0.0281
53587,47.78217,-1.69932,110.68,30.25,5.36,193.0,18 / 22,5359444,2019-08-18 16:43:01:981,-1.1246,0.1024,9.7213,-1.1336,0.115,9.7402,0.0145,0.0192,0.0296
53588,47.78217,-1.69932,110.68,30.25,5.36,193.0,18 / 22,5359543,2019-08-18 16:43:02:080,-1.1623,-0.0838,9.671,-1.1518,0.1332,9.7379,0.0179,0.0043,0.0306
53589,47.78217,-1.69932,110.68,30.25,5.36,193.0,18 / 22,5359644,2019-08-18 16:43:02:181,-1.1456,0.1107,9.504,-1.1536,0.1486,9.7374,0.0289,-0.0025,0.0296
53590,47.78217,-1.69932,110.68,30.25,5.36,193.0,18 / 22,5359743,2019-08-18 16:43:02:280,-1.145,-0.0144,9.2826,-1.1535,0.1749,9.737,0.0051,0.0118,0.0285
53591,47.78217,-1.69932,110.68,30.25,5.36,193.0,18 / 22,5359843,2019-08-18 16:43:02:380,-1.1707,0.0353,9.4609,-1.1632,0.1737,9.7359,0.0004,0.0214,0.0262
53592,47.78217,-1.69932,110.68,30.25,5.36,193.0,18 / 22,5359943,2019-08-18 16:43:02:480,-1.0253,-0.1526,9.6034,-1.1867,0.1788,9.7329,0.0062,0.0112,0.0277
53593,47.78217,-1.69932,110.68,30.25,5.36,193.0,18 / 22,5360044,2019-08-18 16:43:02:581,-1.2246,0.0724,9.8584,-1.1898,0.1837,9.7325,0.0016,-0.0016,0.0273
53594,47.78217,-1.69932,110.68,30.25,5.36,193.0,17 / 21,5360143,2019-08-18 16:43:02:680,-1.1079,0.0425,10.005,-1.1814,0.1883,9.7334,0.0091,-0.0063,0.0241
53595,47.78217,-1.69932,110.68,30.25,5.36,193.0,17 / 21,5360249,2019-08-18 16:43:02:786,-0.9516,0.1796,9.595,-1.1828,0.1982,9.733,0.0079,0.0096,0.0215
53596,47.78217,-1.69932,110.68,30.25,5.36,193.0,17 / 21,5360343,2019-08-18 16:43:02:880,-0.7326,-0.2502,10.0727,-1.1882,0.1984,9.7324,-0.0017,0.0114,0.0186
53597,47.78217,-1.69932,110.68,30.25,5.36,193.0,17 / 21,5360443,2019-08-18 16:43:02:980,-0.8577,-0.0467,9.6327,-1.1866,0.1915,9.7327,0.0059,0.0058,0.008
53598,47.78217,-1.69932,110.68,30.25,5.36,193.0,17 / 21,5360544,2019-08-18 16:43:03:081,-0.702,-0.3478,10.4767,-1.1792,0.1877,9.7337,0.0058,-0.0033,0.0061
53599,47.78217,-1.69932,110.68,30.25,5.36,193.0,17 / 21,5360644,2019-08-18 16:43:03:181,-0.6626,-0.3735,9.5094,-1.1693,0.1872,9.7349,0.0108,0.0012,0.0024
53600,47.78217,-1.69932,110.68,30.25,5.36,193.0,17 / 21,5360743,2019-08-18 16:43:03:280,-0.6458,-0.7284,9.2533,-1.1601,0.1787,9.7362,0.0166,0.0137,0.0012
53601,47.78217,-1.69932,110.68,30.25,5.36,193.0,17 / 21,5360844,2019-08-18 16:43:03:381,-0.8164,-0.1951,9.8081,-1.1618,0.1792,9.7359,0.013,0.0158,0.0008
53602,47.78217,-1.69932,110.68,30.25,5.36,193.0,17 / 21,5360943,2019-08-18 16:43:03:480,-0.6266,-0.4357,9.8883,-1.1614,0.1732,9.7361,0.0094,0.0092,0.0014
53603,47.78217,-1.69932,110.68,30.25,5.36,193.0,17 / 21,5361043,2019-08-18 16:43:03:580,-0.6398,-0.6069,9.422,-1.1606,0.1694,9.7363,0.0067,0.0135,0.0015
53604,47.78217,-1.69932,110.68,30.25,5.36,193.0,18 / 22,5361144,2019-08-18 16:43:03:681,-0.6422,-0.489,9.4855,-1.1624,0.166,9.7361,0.0162,0.017,0.0028
53605,47.78217,-1.69932,110.68,30.25,5.36,193.0,18 / 22,5361243,2019-08-18 16:43:03:780,-0.5626,-0.3555,9.7818,-1.168,0.1677,9.7354,0.0132,0.0178,0.0007
53606,47.78217,-1.69932,110.68,30.25,5.36,193.0,18 / 22,5361343,2019-08-18 16:43:03:880,-0.4698,-0.5195,9.0491,-1.1704,0.1656,9.7351,0.0108,0.0158,-0.0013
53607,47.78217,-1.69932,110.68,30.25,5.36,193.0,18 / 22,5361444,2019-08-18 16:43:03:981,-0.5937,-0.2304,9.5447,-1.1676,0.1575,9.7356,0.0022,-0.0035,-0.0015
53608,47.78217,-1.69932,110.68,30.25,5.36,193.0,18 / 22,5361543,2019-08-18 16:43:04:080,-0.7715,-0.2053,9.9254,-1.1544,0.1514,9.7373,0.0235,0.005,0.0003
53609,47.78217,-1.69932,110.68,30.25,5.36,193.0,18 / 22,5361644,2019-08-18 16:43:04:181,-0.4501,-0.3747,10.3318,-1.1407,0.1587,9.7388,0.0223,0.004,0.003
53610,47.78217,-1.69932,110.68,30.25,5.36,193.0,18 / 22,5361743,2019-08-18 16:43:04:280,-0.8672,-0.0778,10.1289,-1.1322,0.1622,9.7397,0.0116,0.0003,0.0009
53611,47.78217,-1.69932,110.68,30.25,5.36,193.0,18 / 22,5361844,2019-08-18 16:43:04:381,-0.8553,-0.4687,9.9601,-1.121,0.1628,9.741,0.007,-0.0004,0.0011
53612,47.78217,-1.69932,110.68,30.25,5.36,193.0,18 / 22,5361943,2019-08-18 16:43:04:480,-0.8523,-0.2604,9.9703,-1.1157,0.1594,9.7417,0.011,0.0013,0.0008
53613,47.78217,-1.69932,110.68,30.25,5.36,193.0,18 / 22,5362044,2019-08-18 16:43:04:581,-1.1845,-0.5561,9.5938,-1.1119,0.1578,9.7421,0.0068,0.0064,0.001
53614,47.78217,-1.69932,110.68,30.25,5.36,193.0,18 / 21,5362143,2019-08-18 16:43:04:680,-0.9959,-0.0993,9.5914,-1.1136,0.1525,9.742,0.0026,0.0118,0.0025
53615,47.78217,-1.69932,110.68,30.25,5.36,193.0,18 / 21,5362249,2019-08-18 16:43:04:786,-1.0031,-0.161,9.3287,-1.1249,0.1375,9.741,-0.0027,0.0027,0.0047
53616,47.78217,-1.69932,110.68,30.25,5.36,193.0,18 / 21,5362343,2019-08-18 16:43:04:880,-1.0702,-0.4806,10.084,-1.1252,0.1295,9.741,-0.0027,-0.0027,0.0051
53617,47.78217,-1.69932,110.68,30.25,5.36,193.0,18 / 21,5362443,2019-08-18 16:43:04:980,-1.4664,-0.4363,9.689,-1.127,0.114,9.741,-0.0018,0.0155,0.0082
53618,47.78217,-1.69932,110.68,30.25,5.36,193.0,18 / 21,5362543,2019-08-18 16:43:05:080,-1.3096,-0.7141,9.8656,-1.137,0.1071,9.7399,0.0008,0.0114,0.0099
53619,47.78217,-1.69932,110.68,30.25,5.36,193.0,18 / 21,5362643,2019-08-18 16:43:05:180,-1.2796,-0.3855,10.3552,-1.1492,0.1001,9.7386,0.0036,-0.0043,0.0084
53620,47.78217,-1.69932,110.68,30.25,5.36,193.0,18 / 21,5362744,2019-08-18 16:43:05:281,-1.1246,-0.2969,10.5341,-1.1474,0.0968,9.7388,0.0051,-0.0033,0.0071
53621,47.78217,-1.69932,110.68,30.25,5.36,193.0,18 / 21,5362843,2019-08-18 16:43:05:380,-1.2066,-0.2023,9.5998,-1.1441,0.0877,9.7393,0.0062,0.0013,0.0046
53622,47.78217,-1.69932,110.68,30.25,5.36,193.0,18 / 21,5362943,2019-08-18 16:43:05:480,-1.1629,-0.5094,10.1122,-1.151,0.0824,9.7385,-0.0036,0.0132,0.0056
53623,47.78217,-1.69932,110.68,30.25,5.36,193.0,18 / 21,5363043,2019-08-18 16:43:05:580,-1.303,-0.2095,9.7596,-1.1737,0.062,9.736,-0.0029,0.0087,0.0025
53624,47.78217,-1.69932,110.68,30.25,5.36,193.0,15 / 22,5363144,2019-08-18 16:43:05:681,-1.1767,-0.6847,9.6483,-1.1757,0.0525,9.7358,-0.0054,-0.0022,0.0018
53625,47.78217,-1.69932,110.68,30.25,5.36,193.0,15 / 22,5363243,2019-08-18 16:43:05:780,-1.1168,-0.3968,9.6094,-1.1759,0.0311,9.7358,-0.0056,-0.004,0.0033
53626,47.78217,-1.69932,110.68,30.25,5.36,193.0,15 / 22,5363343,2019-08-18 16:43:05:880,-1.2521,-0.1688,9.2736,-1.1776,0.0236,9.7357,-0.0125,0.0067,0.0015
53627,47.78217,-1.69932,110.68,30.25,5.36,193.0,15 / 22,5363444,2019-08-18 16:43:05:981,-1.2288,-0.4758,9.7889,-1.1891,-0.0072,9.7343,-0.0133,0.0108,0.0005
53628,47.78217,-1.69932,110.68,30.25,5.36,193.0,15 / 22,5363544,2019-08-18 16:43:06:081,-1.0169,-0.5267,9.7985,-1.1887,-0.0197,9.7343,0.0037,-0.0093,-0.0022
53629,47.78217,-1.69932,110.68,30.25,5.36,193.0,15 / 22,5363644,2019-08-18 16:43:06:181,-0.984,-0.4381,9.3065,-1.1762,-0.0358,9.7358,0.0029,-0.0059,-0.0031
53630,47.78217,-1.69932,110.68,30.25,5.36,193.0,15 / 22,5363743,2019-08-18 16:43:06:280,-1.3233,-0.2963,10.023,-1.1726,-0.0396,9.7362,0.0067,-0.004,-0.003
53631,47.78217,-1.69932,110.68,30.25,5.36,193.0,15 / 22,5363844,2019-08-18 16:43:06:381,-1.118,-0.7488,9.9649,-1.1535,-0.0516,9.7384,0.0053,-0.0109,-0.005
53632,47.78217,-1.69932,110.68,30.25,5.36,193.0,15 / 22,5363943,2019-08-18 16:43:06:480,-1.0959,-0.6758,9.6369,-1.1389,-0.0559,9.7401,0.0057,-0.0057,-0.004
53633,47.78217,-1.69932,110.68,30.25,5.36,193.0,15 / 22,5364043,2019-08-18 16:43:06:580,-0.6075,-0.6889,9.9063,-1.133,-0.0647,9.7408,0.0067,0.0191,-0.0035
53634,47.78217,-1.69932,110.68,30.25,5.36,193.0,Dec-20,5364143,2019-08-18 16:43:06:680,-0.8972,-0.4154,9.4543,-1.1445,-0.0686,9.7394,0.0031,0.0244,-0.0025
53635,47.78217,-1.69932,110.68,30.25,5.36,193.0,Dec-20,5364244,2019-08-18 16:43:06:781,-0.6308,-0.4705,9.2365,-1.1607,-0.0835,9.7374,-0.0046,0.0118,-0.0053
53636,47.78217,-1.69932,110.68,30.25,5.36,193.0,Dec-20,5364343,2019-08-18 16:43:06:880,-0.8487,-0.4932,9.3514,-1.1648,-0.0937,9.7368,-0.0007,0.0088,-0.0038
53637,47.78217,-1.69932,110.68,30.25,5.36,193.0,Dec-20,5364443,2019-08-18 16:43:06:980,-0.987,-0.1443,10.1277,-1.163,-0.0975,9.737,0.0135,-0.0077,-0.0001
53638,47.78217,-1.69932,110.68,30.25,5.36,193.0,Dec-20,5364543,2019-08-18 16:43:07:080,-0.9008,-0.3962,10.7556,-1.1449,-0.0938,9.7391,0.0099,-0.0075,0.0004
53639,47.78217,-1.69932,110.68,30.25,5.36,193.0,Dec-20,5364644,2019-08-18 16:43:07:181,-0.869,-0.2711,9.8033,-1.139,-0.0914,9.7399,0.0044,0.004,0.0005
53640,47.78217,-1.69932,110.68,30.25,5.36,193.0,Dec-20,5364743,2019-08-18 16:43:07:280,-0.9014,-0.3675,9.6573,-1.1356,-0.0943,9.7402,0.0053,0.0091,0.0006
53641,47.78217,-1.69932,110.68,30.25,5.36,193.0,Dec-20,5364844,2019-08-18 16:43:07:381,-0.7643,-0.2005,9.8302,-1.1419,-0.0985,9.7394,-0.0038,0.0031,-0.001
53642,47.78217,-1.69932,110.68,30.25,5.36,193.0,Dec-20,5364943,2019-08-18 16:43:07:480,-0.9391,-0.3789,10.0918,-1.1415,-0.11,9.7394,-0.0042,-0.0022,-0.0019
53643,47.78217,-1.69932,110.68,30.25,5.36,193.0,Dec-20,5365044,2019-08-18 16:43:07:581,-0.7428,-0.2466,9.5555,-1.1325,-0.1194,9.7403,-0.0029,-0.0072,-0.0021
53644,47.77975,-1.699626,99.73,29.9,6.432,184.6,13 / 20,5365143,2019-08-18 16:43:07:680,-0.9959,-0.6572,9.9362,-1.1266,-0.1322,9.7408,-0.012,0.0142,-0.0012
53645,47.77975,-1.699626,99.73,29.9,6.432,184.6,13 / 20,5365243,2019-08-18 16:43:07:780,-1.1133,-0.5866,10.2205,-1.1338,-0.1487,9.7397,-0.0123,0.006,-0.0017
53646,47.77975,-1.699626,99.73,29.9,6.432,184.6,13 / 20,5365343,2019-08-18 16:43:07:880,-1.4149,-0.6369,10.0014,-1.1358,-0.1667,9.7392,0.0037,-0.0114,-0.0017
53647,47.77975,-1.699626,99.73,29.9,6.432,184.6,13 / 20,5365443,2019-08-18 16:43:07:980,-1.2862,-0.9445,9.6429,-1.1286,-0.1717,9.74,0.004,-0.0092,-0.0008
53648,47.77975,-1.699626,99.73,29.9,6.432,184.6,13 / 20,5365543,2019-08-18 16:43:08:080,-1.2946,-0.3825,9.7039,-1.1239,-0.1822,9.7403,-0.0054,0.0019,-0.0033
53649,47.77975,-1.699626,99.73,29.9,6.432,184.6,13 / 20,5365643,2019-08-18 16:43:08:180,-1.1222,-0.5195,10.0194,-1.1242,-0.1917,9.7401,-0.0041,0.0019,-0.0024
53650,47.77975,-1.699626,99.73,29.9,6.432,184.6,13 / 20,5365744,2019-08-18 16:43:08:281,-1.1809,-0.2616,9.3376,-1.1268,-0.2028,9.7396,0.0017,-0.0009,-0.0008
53651,47.77975,-1.699626,99.73,29.9,6.432,184.6,13 / 20,5365843,2019-08-18 16:43:08:380,-1.0348,-0.4932,9.8811,-1.1266,-0.2062,9.7395,0.0045,-0.0017,-0.0024
53652,47.77975,-1.699626,99.73,29.9,6.432,184.6,13 / 20,5365943,2019-08-18 16:43:08:480,-1.1677,-0.586,9.2658,-1.1235,-0.212,9.7398,0.0065,0.0038,-0.0013
53653,47.77975,-1.699626,99.73,29.9,6.432,184.6,13 / 20,5366043,2019-08-18 16:43:08:580,-1.1276,-0.5968,9.4969,-1.1262,-0.2143,9.7394,0.0015,0.0056,-0.0026
53654,47.77975,-1.699626,99.73,29.9,6.432,184.6,14 / 21,5366143,2019-08-18 16:43:08:680,-1.2503,-0.5369,9.2903,-1.1277,-0.2286,9.7389,-0.0107,0.0006,-0.0066
53655,47.77975,-1.699626,99.73,29.9,6.432,184.6,14 / 21,5366243,2019-08-18 16:43:08:780,-1.2276,-0.7087,10.0272,-1.1323,-0.2452,9.738,-0.0053,0.0155,-0.0055
53656,47.77975,-1.699626,99.73,29.9,6.432,184.6,14 / 21,5366343,2019-08-18 16:43:08:880,-1.2994,-0.7518,9.9919,-1.1403,-0.2525,9.7369,0.0054,-0.0018,-0.0057
53657,47.77975,-1.699626,99.73,29.9,6.432,184.6,14 / 21,5366443,2019-08-18 16:43:08:980,-1.1312,-0.729,9.5932,-1.1344,-0.2567,9.7374,0.0036,-0.0036,-0.0067
53658,47.77975,-1.699626,99.73,29.9,6.432,184.6,14 / 21,5366543,2019-08-18 16:43:09:080,-1.1127,-0.7069,9.3185,-1.1303,-0.2628,9.7378,0.0017,0.0073,-0.0066
53659,47.77975,-1.699626,99.73,29.9,6.432,184.6,14 / 21,5366644,2019-08-18 16:43:09:181,-1.0121,-0.6674,10.0691,-1.139,-0.2709,9.7365,0.004,0.0121,-0.0093
53660,47.77975,-1.699626,99.73,29.9,6.432,184.6,14 / 21,5366745,2019-08-18 16:43:09:282,-1.0695,-0.7793,9.5753,-1.1462,-0.2834,9.7353,0.0026,0.0033,-0.0112
53661,47.77975,-1.699626,99.73,29.9,6.432,184.6,14 / 21,5366843,2019-08-18 16:43:09:380,-1.057,-0.8044,9.6279,-1.1441,-0.2907,9.7353,0.0097,0.0005,-0.012
53662,47.77975,-1.699626,99.73,29.9,6.432,184.6,14 / 21,5366943,2019-08-18 16:43:09:480,-0.9971,-1.0151,9.7901,-1.1349,-0.2971,9.7362,0.0104,-0.0025,-0.0104
53663,47.77975,-1.699626,99.73,29.9,6.432,184.6,14 / 21,5367043,2019-08-18 16:43:09:580,-0.9726,-0.7979,9.3586,-1.1296,-0.2975,9.7368,0.0112,-0.0018,-0.011
53664,47.77975,-1.699626,99.73,29.9,6.432,184.6,15 / 22,5367143,2019-08-18 16:43:09:680,-0.814,-0.8589,10.0493,-1.1284,-0.3022,9.7368,0.0067,0.0097,-0.0124
53665,47.77975,-1.699626,99.73,29.9,6.432,184.6,15 / 22,5367244,2019-08-18 16:43:09:781,-1.0582,-0.668,9.3664,-1.1315,-0.3066,9.7363,0.0017,0.0083,-0.0129
53666,47.77975,-1.699626,99.73,29.9,6.432,184.6,15 / 22,5367343,2019-08-18 16:43:09:880,-0.8816,-0.6895,10.0691,-1.1362,-0.3187,9.7354,0.0079,0.0043,-0.0144
53667,47.77975,-1.699626,99.73,29.9,6.432,184.6,15 / 22,5367443,2019-08-18 16:43:09:980,-0.8331,-0.9852,9.7758,-1.1355,-0.3216,9.7354,0.0065,0.0014,-0.0148
53668,47.77975,-1.699626,99.73,29.9,6.432,184.6,15 / 22,5367544,2019-08-18 16:43:10:081,-0.8571,-0.6165,10.0086,-1.1302,-0.3298,9.7357,-0.0023,0.0025,-0.0181
53669,47.77975,-1.699626,99.73,29.9,6.432,184.6,15 / 22,5367644,2019-08-18 16:43:10:181,-0.8493,-0.9343,10.1265,-1.1237,-0.3512,9.7357,0.0014,0.0043,-0.0216
53670,47.77975,-1.699626,99.73,29.9,6.432,184.6,15 / 22,5367743,2019-08-18 16:43:10:280,-0.7607,-1.0499,10.181,-1.1205,-0.3584,9.7358,-0.0005,0.0024,-0.0235
53671,47.77975,-1.699626,99.73,29.9,6.432,184.6,15 / 22,5367843,2019-08-18 16:43:10:380,-0.9702,-0.9122,9.9158,-1.1116,-0.3795,9.7361,0.0046,0.0015,-0.0232
53672,47.77975,-1.699626,99.73,29.9,6.432,184.6,15 / 22,5367944,2019-08-18 16:43:10:481,-0.7254,-1.0241,10.1648,-1.1071,-0.385,9.7363,0.0096,-0.0038,-0.0223
53673,47.77975,-1.699626,99.73,29.9,6.432,184.6,15 / 22,5368043,2019-08-18 16:43:10:580,-0.7655,-1.1702,9.8069,-1.0922,-0.3981,9.7375,0.007,-0.0002,-0.0233
53674,47.77975,-1.699626,99.73,29.9,6.432,184.6,13 / 20,5368143,2019-08-18 16:43:10:680,-0.8828,-1.0074,10.0559,-1.0905,-0.404,9.7375,0.0101,0.0084,-0.0235
53675,47.77975,-1.699626,99.73,29.9,6.432,184.6,13 / 20,5368244,2019-08-18 16:43:10:781,-0.6601,-1.0385,10.1337,-1.0916,-0.425,9.7364,0.0002,0.0042,-0.0253
53676,47.77975,-1.699626,99.73,29.9,6.432,184.6,13 / 20,5368343,2019-08-18 16:43:10:880,-0.8319,-0.8888,9.3257,-1.0877,-0.4304,9.7366,0.0115,0.0018,-0.0279
53677,47.77975,-1.699626,99.73,29.9,6.432,184.6,13 / 20,5368443,2019-08-18 16:43:10:980,-0.8553,-0.9296,9.4322,-1.0745,-0.4452,9.7374,0.0023,-0.0027,-0.0269
53678,47.77975,-1.699626,99.73,29.9,6.432,184.6,13 / 20,5368543,2019-08-18 16:43:11:080,-0.9792,-1.136,9.4962,-1.0683,-0.4615,9.7374,0.0047,0.0024,-0.0295
53679,47.77975,-1.699626,99.73,29.9,6.432,184.6,13 / 20,5368644,2019-08-18 16:43:11:181,-0.7439,-1.2869,10.1229,-1.0629,-0.4766,9.7372,0.0059,-0.005,-0.0295
53680,47.77975,-1.699626,99.73,29.9,6.432,184.6,13 / 20,5368743,2019-08-18 16:43:11:280,-0.7649,-1.2378,10.3354,-1.0524,-0.4865,9.7379,0.0076,-0.0053,-0.03
53681,47.77975,-1.699626,99.73,29.9,6.432,184.6,13 / 20,5368844,2019-08-18 16:43:11:381,-0.6853,-1.2719,9.8015,-1.04,-0.5053,9.7382,0.0053,0.0049,-0.0307
53682,47.77975,-1.699626,99.73,29.9,6.432,184.6,13 / 20,5368943,2019-08-18 16:43:11:480,-0.5973,-1.2977,9.6028,-1.0382,-0.5121,9.7381,0.0098,0.01,-0.031
53683,47.77975,-1.699626,99.73,29.9,6.432,184.6,13 / 20,5369043,2019-08-18 16:43:11:580,-0.389,-1.3617,9.8314,-1.0151,-0.5395,9.739,0.0015,0.0031,-0.0431
53684,47.77975,-1.699626,99.73,29.9,6.432,184.6,Dec-19,5369143,2019-08-18 16:43:11:680,-0.4207,-1.4844,10.3133,-1.0104,-0.5524,9.7388,-0.0002,0.0042,-0.0435
53685,47.77975,-1.699626,99.73,29.9,6.432,184.6,Dec-19,5369243,2019-08-18 16:43:11:780,-0.6308,-1.4646,10.4426,-0.9909,-0.5821,9.7391,0.0103,-0.0072,-0.0428
53686,47.77975,-1.699626,99.73,29.9,6.432,184.6,Dec-19,5369343,2019-08-18 16:43:11:880,-0.568,-1.6376,9.78,-0.9762,-0.5888,9.7402,0.0204,-0.0054,-0.0415
53687,47.77975,-1.699626,99.73,29.9,6.432,184.6,Dec-19,5369443,2019-08-18 16:43:11:980,-0.0514,-1.2623,9.9565,-0.9583,-0.601,9.7412,0.0107,0.006,-0.0391
