,GPS LATITUDE (degrees), GPS LONGITUDE (degrees), GPS ALTITUDE (m), GPS SPEED (Kmh), GPS ACCURACY (m), GPS ORIENTATION (Â°),GPS SATELLITES IN RANGE, TIME SINCE START (ms), DATE (YYYY-MO-DD HH-MI-SS_SSS), ACCELEROMETER X (m/s²) , ACCELEROMETER Y (m/s²), ACCELEROMETER Z (m/s²), GRAVITY X (m/s²), GRAVITY Y (m/s²), GRAVITY Z (m/s²), GYROSCOPE Yaw (rad/s), GYROSCOPE Pitch (rad/s), GYROSCOPE Roll (rad/s), MAGNETIC FIELD X (Î¼T), MAGNETIC FIELD Y (Î¼T), MAGNETIC FIELD Z (Î¼T), ORIENTATION (Yaw) (Â°), ORIENTATION (Pitch) (Â°), ORIENTATION (Roll ) (Â°)
30585,53.064358,-1.269814,209.92,27.48,6,146.41,17 / 18,4531113,2019-11-06 17:21:51:575,0.4455,-0.0171,10.8891,-0.0077,-0.0307,9.8065,0.1217,-0.149,0.0704,-19.06,-35.25,29.75,13.73,-88.21,-134.35
30586,53.064358,-1.269814,209.92,27.48,6,146.41,17 / 18,4531214,2019-11-06 17:21:51:676,-0.6024,0.8272,9.7066,0.019,-0.0172,9.8065,0.0435,0.0419,-0.0925,-18.69,-34.44,29.13,11.95,-88.25,-135.18
30587,53.064358,-1.269814,209.92,27.48,6,146.41,17 / 18,4531314,2019-11-06 17:21:51:776,2.4646,-1.2274,9.9175,0.0407,-0.005,9.8065,0.0776,0.0812,-0.1079,-18.94,-34.94,28.81,12.2,-88.24,-134.95
30588,53.064358,-1.269814,209.92,27.48,6,146.41,17 / 18,4531415,2019-11-06 17:21:51:877,1.2485,1.8259,9.6615,-0.0144,0.0051,9.8066,-0.01,0.1214,-0.0583,-18.37,-35.75,28.44,9.75,-88.32,-137.83
30589,53.064358,-1.269814,209.92,27.48,6,146.41,17 / 18,4531514,2019-11-06 17:21:51:976,-0.0369,-0.0365,9.571,0.0003,0.0139,9.8065,-0.0088,0.0461,-0.0275,-18.75,-36.25,29.5,10.47,-88.31,-137.5
30590,53.064358,-1.269814,209.92,27.48,6,146.41,17 / 18,4531614,2019-11-06 17:21:52:076,0.0876,1.0203,10.5881,-0.0247,-0.0052,9.8066,-0.0932,-0.0869,0.0553,-18.94,-35.5,28.63,12.88,-88.36,-134.26
30591,53.064358,-1.269814,209.92,27.48,6,146.41,17 / 18,4531714,2019-11-06 17:21:52:176,0.8719,-0.2012,9.9714,-0.0341,-0.0191,9.8065,-0.0964,-0.1931,0.1717,-19.31,-35.5,29.38,15.74,-88.2,-131.53
30592,53.064358,-1.269814,209.92,27.48,6,146.41,17 / 18,4531814,2019-11-06 17:21:52:276,-0.3903,2.307,9.9505,-0.0131,-0.0259,9.8065,-0.0076,-0.2769,0.1962,-19.06,-34.94,28.69,11.56,-88.07,-135.6
30593,53.064358,-1.269814,209.92,27.48,6,146.41,18 / 20,4531914,2019-11-06 17:21:52:376,-1.1856,-2.1663,9.9695,-0.0191,-0.0354,9.8065,-0.003,-0.2217,0.1913,-18.81,-34.94,29.44,3.52,-88.0,-143.38
30594,53.064358,-1.269814,209.92,27.48,6,146.41,18 / 20,4532013,2019-11-06 17:21:52:475,-2.0482,2.6669,9.7611,0.0164,0.0015,9.8066,0.0157,-0.0118,0.0489,-18.81,-36.25,29.13,2.08,-87.98,-144.76
30595,53.064358,-1.269814,209.92,27.48,6,146.41,18 / 20,4532113,2019-11-06 17:21:52:575,2.5561,-1.5921,9.2492,0.0206,0.0161,9.8066,0.1166,0.063,-0.1264,-19.19,-35.81,29.38,20.23,-88.28,-127.17
30596,53.064358,-1.269814,209.92,27.48,6,146.41,18 / 20,4532214,2019-11-06 17:21:52:676,-1.2326,-0.5002,9.7201,-0.0055,-0.0011,9.8066,0.14,0.1732,-0.197,-18.81,-35.37,29.25,27.36,-88.35,-120.18
30597,53.064358,-1.269814,209.92,27.48,6,146.41,18 / 20,4532314,2019-11-06 17:21:52:776,-0.0335,-2.405,9.4673,0.0344,-0.0114,9.8066,0.0304,0.2291,-0.123,-17.81,-35.87,29.13,14.98,-88.18,-133.7
30598,53.064358,-1.269814,209.92,27.48,6,146.41,18 / 20,4532413,2019-11-06 17:21:52:875,0.8418,1.0313,10.7423,-0.0145,-0.014,9.8065,-0.1078,0.306,-0.1364,-18.56,-35.31,28.88,10.84,-87.97,-136.32
30599,53.064358,-1.269814,209.92,27.48,6,146.41,18 / 20,4532514,2019-11-06 17:21:52:976,-1.0326,1.6712,9.6106,-0.0189,0.0278,9.8065,-0.093,0.1936,-0.1385,-19.44,-35.5,28.94,9.39,-88.0,-137.72
30600,53.064358,-1.269814,209.92,27.48,6,146.41,18 / 20,4532614,2019-11-06 17:21:53:076,0.2792,1.1685,9.0409,-0.0313,-0.009,9.8066,-0.0258,0.0888,-0.0172,-18.62,-35.75,28.69,17.35,-88.2,-129.99
30601,53.064358,-1.269814,209.92,27.48,6,146.41,18 / 20,4532714,2019-11-06 17:21:53:176,-0.2553,0.1558,9.9905,0.0003,-0.0113,9.8066,-0.0346,0.0738,0.011,-18.31,-34.87,28.38,15.95,-88.31,-131.81
30602,53.064358,-1.269814,209.92,27.48,6,146.41,18 / 20,4532814,2019-11-06 17:21:53:276,1.9318,-2.7616,9.4728,0.0287,-0.0181,9.8065,-0.1301,-0.0282,0.0626,-18.87,-35.19,28.75,5.23,-88.16,-141.71
30603,53.062386,-1.267741,211.41,29.7,6,145.39,19 / 20,4532913,2019-11-06 17:21:53:375,2.6429,-1.462,9.1908,-0.0241,-0.012,9.8066,-0.0756,-0.0836,0.1124,-19.37,-35.5,28.56,4.51,-87.96,-142.42
30604,53.062386,-1.267741,211.41,29.7,6,145.39,19 / 20,4533013,2019-11-06 17:21:53:475,-1.4928,-0.0593,9.4407,-0.029,-0.0006,9.8066,0.0571,-0.0964,0.1083,-18.75,-35.19,28.69,0.09,-87.86,-146.68
30605,53.062386,-1.267741,211.41,29.7,6,145.39,19 / 20,4533113,2019-11-06 17:21:53:575,-1.6263,1.86,9.3825,-0.0356,-0.0053,9.8065,0.082,-0.0977,0.0407,-18.87,-35.75,29.19,5.93,-87.92,-141.06
30606,53.062386,-1.267741,211.41,29.7,6,145.39,19 / 20,4533214,2019-11-06 17:21:53:676,2.3851,-2.1626,9.7111,-0.036,0.0081,9.8066,0.0396,0.0446,-0.121,-18.81,-35.37,28.63,9.65,-88.22,-137.43
30607,53.062386,-1.267741,211.41,29.7,6,145.39,19 / 20,4533313,2019-11-06 17:21:53:775,0.7952,0.0387,8.6711,0.0296,-0.0054,9.8066,0.1294,0.1018,-0.1192,-18.81,-35.0,28.31,12.58,-88.35,-133.63
30608,53.062386,-1.267741,211.41,29.7,6,145.39,19 / 20,4533413,2019-11-06 17:21:53:875,2.4214,-1.9788,8.8525,0.0409,-0.0201,9.8065,-0.0642,0.0966,-0.117,-18.81,-34.69,28.13,358.2,-88.14,-147.57
30609,53.062386,-1.267741,211.41,29.7,6,145.39,19 / 20,4533513,2019-11-06 17:21:53:975,-1.6936,2.1567,10.1454,0.0389,-0.0256,9.8065,-0.05,-0.0534,0.0016,-19.12,-35.25,29.25,354.48,-87.87,-152.08
30610,53.062386,-1.267741,211.41,29.7,6,145.39,19 / 20,4533613,2019-11-06 17:21:54:075,3.4429,-0.2434,9.7709,0.0347,0.0197,9.8065,0.0367,-0.0649,0.0506,-18.87,-35.5,28.5,355.84,-87.7,-150.76
30611,53.062386,-1.267741,211.41,29.7,6,145.39,19 / 20,4533713,2019-11-06 17:21:54:175,0.7935,3.0888,9.4455,-0.0366,0.0068,9.8065,-0.1584,-0.1197,0.1769,-19.25,-35.75,29.13,358.68,-87.79,-148.03
30612,53.062386,-1.267741,211.41,29.7,6,145.39,19 / 20,4533813,2019-11-06 17:21:54:275,0.1697,-1.7989,8.7798,-0.0457,0.0614,9.8063,-0.1972,-0.1084,0.1809,-19.31,-35.37,28.44,358.9,-88.08,-146.9
30613,53.062386,-1.267741,211.41,29.7,6,145.39,19 / 19,4533913,2019-11-06 17:21:54:375,0.0078,1.427,10.4664,-0.0163,-0.0065,9.8066,0.1054,-0.0091,0.0345,-19.25,-35.31,29.25,7.02,-88.49,-139.94
30614,53.062386,-1.267741,211.41,29.7,6,145.39,19 / 19,4534014,2019-11-06 17:21:54:476,-1.4052,-0.231,9.4342,-0.0403,-0.0089,9.8065,0.0949,0.0089,0.0105,-19.31,-35.62,28.75,5.56,-88.65,-141.34
30615,53.062386,-1.267741,211.41,29.7,6,145.39,19 / 19,4534114,2019-11-06 17:21:54:576,-0.8367,-1.4324,9.3911,0.0329,-0.0243,9.8065,0.1,0.1099,-0.0761,-19.69,-35.31,28.63,7.09,-88.49,-138.51
30616,53.062386,-1.267741,211.41,29.7,6,145.39,19 / 19,4534214,2019-11-06 17:21:54:676,-0.5699,2.7105,9.9452,0.0577,-0.0241,9.8064,0.1228,0.0905,-0.2264,-19.75,-35.62,28.31,6.93,-88.32,-137.75
30617,53.062386,-1.267741,211.41,29.7,6,145.39,19 / 19,4534313,2019-11-06 17:21:54:775,-0.0211,-2.4743,9.582,0.0272,-0.0007,9.8066,-0.0961,0.1519,-0.0944,-19.25,-35.44,28.56,355.35,-88.05,-151.26
30618,53.062386,-1.267741,211.41,29.7,6,145.39,19 / 19,4534413,2019-11-06 17:21:54:875,-0.7271,-1.9141,10.2128,0.0324,0.0064,9.8065,-0.1279,0.1082,-0.0225,-19.75,-36.06,28.69,348.81,-87.87,-156.17
30619,53.062386,-1.267741,211.41,29.7,6,145.39,19 / 19,4534513,2019-11-06 17:21:54:975,2.1638,-0.494,11.1434,-0.0106,0.0058,9.8066,-0.0944,0.0019,0.0442,-19.69,-35.87,28.13,347.01,-87.84,-156.93
30620,53.062386,-1.267741,211.41,29.7,6,145.39,19 / 19,4534613,2019-11-06 17:21:55:075,-1.7357,0.7066,9.7487,-0.0443,0.0196,9.8065,-0.0221,-0.1333,0.1274,-19.62,-35.81,28.94,343.14,-87.95,-161.65
30621,53.062386,-1.267741,211.41,29.7,6,145.39,19 / 19,4534713,2019-11-06 17:21:55:175,-1.847,0.1865,8.8932,-0.0055,-0.0105,9.8066,0.0339,-0.1115,0.0696,-19.56,-35.94,28.81,348.78,-88.2,-156.26
30622,53.062386,-1.267741,211.41,29.7,6,145.39,19 / 19,4534814,2019-11-06 17:21:55:276,1.3341,-0.4468,9.5485,-0.013,0.0047,9.8066,0.0003,-0.1131,0.0231,-19.56,-36.0,28.81,352.01,-88.47,-153.18
30623,53.062386,-1.267741,211.41,29.7,6,145.39,18 / 19,4534914,2019-11-06 17:21:55:376,-0.3822,2.0062,8.7521,0.0083,-0.0001,9.8066,0.0701,-0.0571,0.0232,-19.31,-35.94,29.19,355.77,-88.62,-150.89
30624,53.062386,-1.267741,211.41,29.7,6,145.39,18 / 19,4535014,2019-11-06 17:21:55:476,-0.4329,0.3504,8.3999,0.0249,-0.0157,9.8066,0.1267,-0.0348,-0.0934,-19.81,-35.81,27.75,0.23,-88.62,-144.24
30625,53.062386,-1.267741,211.41,29.7,6,145.39,18 / 19,4535114,2019-11-06 17:21:55:576,1.8071,1.3422,10.1135,-0.0149,0.0034,9.8066,0.0188,-0.0408,-0.0778,-19.69,-36.25,27.94,4.98,-88.56,-139.62
30626,53.062386,-1.267741,211.41,29.7,6,145.39,18 / 19,4535214,2019-11-06 17:21:55:676,-1.2717,-0.6605,8.908,-0.0157,-0.0057,9.8066,-0.0937,-0.0815,0.0525,-19.0,-35.5,28.31,357.55,-88.55,-148.23
30627,53.062386,-1.267741,211.41,29.7,6,145.39,18 / 19,4535314,2019-11-06 17:21:55:776,0.5654,0.4967,8.5228,-0.0238,-0.0266,9.8065,-0.0913,-0.0956,0.159,-19.37,-36.19,28.69,353.1,-88.42,-153.47
30628,53.062386,-1.267741,211.41,29.7,6,145.39,18 / 19,4535414,2019-11-06 17:21:55:876,0.4676,-0.5528,10.8571,-0.0193,-0.0198,9.8066,-0.1089,-0.0515,0.1766,-19.31,-36.31,28.25,341.09,-88.46,-164.21
30629,53.062386,-1.267741,211.41,29.7,6,145.39,18 / 19,4535514,2019-11-06 17:21:55:976,-0.284,0.4672,8.8106,0.033,-0.0156,9.8065,0.1207,0.0557,0.0182,-19.06,-36.0,28.44,342.18,-88.35,-163.12
30630,53.062386,-1.267741,211.41,29.7,6,145.39,18 / 19,4535613,2019-11-06 17:21:56:075,-0.4443,-0.4547,8.2718,0.0412,-0.0058,9.8065,0.1532,0.0807,-0.1432,-19.25,-35.87,28.81,343.73,-88.27,-162.53
30631,53.062386,-1.267741,211.41,29.7,6,145.39,18 / 19,4535713,2019-11-06 17:21:56:175,1.7646,-0.0464,10.7524,-0.0317,0.0126,9.8065,0.0511,0.171,-0.2201,-19.56,-36.19,28.63,353.27,-88.27,-151.93
30632,53.062386,-1.267741,211.41,29.7,6,145.39,18 / 19,4535814,2019-11-06 17:21:56:276,-0.9602,0.4735,8.4106,-0.0153,0.0244,9.8066,-0.0773,0.1871,-0.161,-19.44,-35.69,28.44,352.19,-88.13,-153.38
30633,53.062386,-1.267741,211.41,29.7,6,145.39,17 / 19,4535914,2019-11-06 17:21:56:376,0.3789,0.3623,8.4462,-0.0271,-0.0132,9.8065,-0.1274,0.0892,0.0502,-19.5,-35.94,28.81,350.24,-88.21,-156.21
30634,53.062386,-1.267741,211.41,29.7,6,145.39,17 / 19,4536014,2019-11-06 17:21:56:476,1.4549,-0.2288,10.9691,-0.0053,-0.0128,9.8066,-0.1043,-0.0019,0.1099,-19.06,-36.37,28.31,339.45,-88.23,-165.72
30635,53.062386,-1.267741,211.41,29.7,6,145.39,17 / 19,4536114,2019-11-06 17:21:56:576,1.9314,0.3092,10.7695,-0.0091,0.006,9.8065,-0.0025,-0.0003,0.1253,-19.56,-36.25,28.19,341.07,-88.22,-162.78
30636,53.062386,-1.267741,211.41,29.7,6,145.39,17 / 19,4536214,2019-11-06 17:21:56:676,-0.71,0.0093,8.6103,-0.0191,-0.0254,9.8065,0.089,0.0271,0.0059,-19.69,-35.87,28.31,344.1,-88.01,-159.78
30637,53.062386,-1.267741,211.41,29.7,6,145.39,17 / 19,4536313,2019-11-06 17:21:56:775,0.722,-0.0243,10.3033,-0.0295,-0.0119,9.8065,0.0948,0.2138,-0.2045,-19.37,-36.94,28.25,344.56,-88.15,-160.74
30638,53.062386,-1.267741,211.41,29.7,6,145.39,17 / 19,4536414,2019-11-06 17:21:56:876,-0.0951,1.7848,8.6893,0.0359,0.0227,9.8065,0.0489,0.2354,-0.2582,-19.37,-36.5,28.56,343.99,-88.38,-162.31
30639,53.062386,-1.267741,211.41,29.7,6,145.39,17 / 19,4536514,2019-11-06 17:21:56:976,-0.8166,1.3208,8.8789,0.0237,0.0104,9.8066,-0.0911,0.0213,-0.0364,-18.87,-36.44,27.81,341.96,-88.56,-163.4
30640,53.062386,-1.267741,211.41,29.7,6,145.39,17 / 19,4536614,2019-11-06 17:21:57:076,1.6329,0.1448,10.7432,-0.0145,0.0125,9.8066,-0.0719,-0.0745,0.0746,-19.56,-37.06,27.81,348.52,-88.68,-155.66
30641,53.062386,-1.267741,211.41,29.7,6,145.39,17 / 19,4536714,2019-11-06 17:21:57:176,-1.1044,2.0099,8.4516,-0.0264,0.0231,9.8066,-0.0733,-0.1877,0.1943,-19.56,-36.0,27.63,346.91,-88.65,-157.23
30642,53.062386,-1.267741,211.41,29.7,6,145.39,17 / 19,4536814,2019-11-06 17:21:57:276,-0.9341,2.6174,8.1258,-0.0352,-0.0243,9.8065,0.0258,-0.1866,0.1981,-19.87,-36.12,27.94,354.18,-88.72,-150.14
30643,53.062386,-1.267741,211.41,29.7,6,145.39,19 / 20,4536914,2019-11-06 17:21:57:376,1.7107,0.4562,9.7406,-0.0291,0.0129,9.8066,0.0667,0.0748,-0.1026,-19.62,-36.94,27.38,347.57,-89.04,-155.67
30644,53.062386,-1.267741,211.41,29.7,6,145.39,19 / 20,4537013,2019-11-06 17:21:57:475,-0.5424,-0.5223,9.0312,0.0385,0.0119,9.8066,0.0748,0.2753,-0.2139,-19.56,-36.44,27.81,346.36,-89.34,-157.93
30645,53.062386,-1.267741,211.41,29.7,6,145.39,19 / 20,4537113,2019-11-06 17:21:57:575,0.8337,2.1847,11.0192,0.0145,0.0088,9.8066,-0.0528,0.3497,-0.2517,-19.12,-36.75,27.88,344.51,-89.5,-161.18
30646,53.062386,-1.267741,211.41,29.7,6,145.39,19 / 20,4537214,2019-11-06 17:21:57:676,-0.486,1.7339,11.1456,-0.0138,0.0654,9.8063,-0.1429,0.0781,0.0109,-19.06,-36.5,27.5,31.19,-89.81,-114.75
30647,53.062386,-1.267741,211.41,29.7,6,145.39,19 / 20,4537314,2019-11-06 17:21:57:776,0.0313,-0.8516,8.2915,-0.0355,0.0185,9.8065,-0.1651,-0.0975,0.1555,-19.62,-36.62,27.94,68.79,-89.55,-76.13
30648,53.062386,-1.267741,211.41,29.7,6,145.39,19 / 20,4537414,2019-11-06 17:21:57:876,-1.1311,1.4137,10.6706,-0.0434,-0.0067,9.8065,-0.0187,-0.068,0.0693,-19.37,-36.31,27.88,83.88,-89.11,-62.9
30649,53.062386,-1.267741,211.41,29.7,6,145.39,19 / 20,4537514,2019-11-06 17:21:57:976,0.9188,0.9153,10.8597,-0.028,-0.0055,9.8066,0.0889,0.0447,0.0692,-19.94,-35.81,27.63,79.23,-89.12,-66.14
30650,53.062386,-1.267741,211.41,29.7,6,145.39,19 / 20,4537614,2019-11-06 17:21:58:076,-1.5668,-1.0759,9.0856,0.0388,0.0006,9.8065,0.1017,0.1917,-0.1413,-19.81,-36.37,28.06,81.08,-89.2,-64.22
30651,53.062386,-1.267741,211.41,29.7,6,145.39,19 / 20,4537714,2019-11-06 17:21:58:176,1.3863,0.6062,10.4784,0.0464,-0.0166,9.8065,0.1837,0.2231,-0.2632,-19.56,-36.5,27.88,81.59,-89.04,-63.87
30652,53.062386,-1.267741,211.41,29.7,6,145.39,19 / 20,4537814,2019-11-06 17:21:58:276,2.1057,-1.5703,10.9912,0.0415,0.0096,9.8065,-0.0873,0.1728,-0.1779,-19.62,-35.94,27.56,60.21,-89.3,-84.89
30653,53.062386,-1.267741,211.41,29.7,6,145.39,18 / 18,4537914,2019-11-06 17:21:58:376,-2.8113,3.4761,9.6701,0.0503,-0.0035,9.8065,-0.1406,0.1312,-0.1098,-19.44,-36.25,27.63,8.5,-89.23,-137.47
30654,53.062386,-1.267741,211.41,29.7,6,145.39,18 / 18,4538014,2019-11-06 17:21:58:476,2.5072,-1.7161,10.2271,-0.0213,-0.0203,9.8066,-0.0468,0.002,0.1339,-19.56,-35.94,27.63,1.85,-88.93,-142.65
30655,53.062386,-1.267741,211.41,29.7,6,145.39,18 / 18,4538113,2019-11-06 17:21:58:575,1.6051,-1.159,9.7814,-0.0416,-0.0092,9.8065,-0.1094,-0.1881,0.1683,-19.81,-36.12,27.81,352.38,-88.86,-151.92
30656,53.062386,-1.267741,211.41,29.7,6,145.39,18 / 18,4538213,2019-11-06 17:21:58:675,-0.0411,1.7654,9.3339,-0.0103,-0.0121,9.8065,0.0545,-0.3168,0.2003,-20.0,-35.75,27.75,2.12,-88.83,-142.39
30657,53.062386,-1.267741,211.41,29.7,6,145.39,18 / 18,4538314,2019-11-06 17:21:58:776,-2.6668,0.5089,11.1474,-0.0392,-0.0172,9.8065,0.1624,-0.2134,0.1957,-19.87,-35.0,26.75,2.82,-89.13,-140.7
30658,53.062386,-1.267741,211.41,29.7,6,145.39,18 / 18,4538413,2019-11-06 17:21:58:875,-3.1238,2.2091,11.1114,0.0102,0.0277,9.8066,0.009,-0.018,-0.0165,-19.81,-34.87,27.56,42.26,-89.29,-102.69
30659,53.062386,-1.267741,211.41,29.7,6,145.39,18 / 18,4538513,2019-11-06 17:21:58:975,2.4509,-0.6695,9.1439,0.0214,0.0086,9.8066,0.1442,0.0325,-0.091,-19.31,-35.19,27.5,67.94,-89.27,-78.6
30660,53.062386,-1.267741,211.41,29.7,6,145.39,18 / 18,4538614,2019-11-06 17:21:59:076,-1.5589,0.3376,9.4777,-0.0069,0.0187,9.8066,0.0519,0.1367,-0.1705,-19.0,-35.69,28.06,80.45,-89.11,-66.32
30661,53.062386,-1.267741,211.41,29.7,6,145.39,18 / 18,4538714,2019-11-06 17:21:59:176,0.2883,-1.5229,9.1323,0.0195,-0.0019,9.8066,-0.1224,0.0802,-0.0798,-19.37,-35.94,27.88,72.43,-89.16,-74.26
30662,53.062386,-1.267741,211.41,29.7,6,145.39,18 / 18,4538814,2019-11-06 17:21:59:276,-0.4266,4.0556,10.5431,-0.0112,-0.034,9.8066,-0.0931,0.0055,-0.0571,-19.19,-35.69,27.5,39.71,-89.26,-106.64
30663,53.062386,-1.267741,211.41,29.7,6,145.39,19 / 20,4538914,2019-11-06 17:21:59:376,-0.4945,-1.2874,9.5179,-0.0286,-0.007,9.8065,0.0065,0.0249,0.0394,-19.5,-36.5,27.56,1.39,-89.25,-144.47
30664,53.062386,-1.267741,211.41,29.7,6,145.39,19 / 20,4539014,2019-11-06 17:21:59:476,-3.2045,1.8697,10.0183,-0.0047,-0.0094,9.8065,-0.0957,-0.1709,0.2246,-19.75,-36.37,28.13,2.19,-89.34,-142.3
30665,53.062386,-1.267741,211.41,29.7,6,145.39,19 / 20,4539114,2019-11-06 17:21:59:576,2.4498,-2.6554,10.8756,-0.0279,-0.0201,9.8065,-0.0304,-0.2745,0.1958,-19.75,-36.62,27.25,40.47,-89.43,-103.41
30666,53.062386,-1.267741,211.41,29.7,6,145.39,19 / 20,4539214,2019-11-06 17:21:59:676,-1.6946,1.0573,9.5055,0.0277,0.0203,9.8066,0.1422,-0.1235,0.0598,-20.0,-36.44,27.69,88.09,-89.61,-56.78
30667,53.062386,-1.267741,211.41,29.7,6,145.39,19 / 20,4539313,2019-11-06 17:21:59:775,1.5445,-0.0484,8.674,0.045,-0.0212,9.8065,0.1249,-0.1139,0.0886,-19.37,-36.12,27.94,87.17,-89.43,-59.28
30668,53.062386,-1.267741,211.41,29.7,6,145.39,19 / 20,4539414,2019-11-06 17:21:59:876,-2.9129,2.0349,10.9,0.0374,0.0002,9.8066,-0.0102,0.0014,-0.031,-19.69,-36.37,28.0,28.1,-89.6,-116.57
30669,53.062386,-1.267741,211.41,29.7,6,145.39,19 / 20,4539514,2019-11-06 17:21:59:976,2.358,-0.9565,9.3553,0.0245,0.0048,9.8065,0.0855,0.1305,-0.1245,-19.87,-36.25,27.06,352.72,-89.24,-150.65
30670,53.062386,-1.267741,211.41,29.7,6,145.39,19 / 20,4539614,2019-11-06 17:22:00:076,1.0303,1.9555,10.0113,-0.0364,0.0038,9.8066,0.0894,0.2325,-0.1664,-19.75,-36.5,27.56,354.64,-89.25,-149.75
30671,53.062386,-1.267741,211.41,29.7,6,145.39,19 / 20,4539713,2019-11-06 17:22:00:175,-0.1162,-4.0952,9.7797,-0.0325,0.0181,9.8066,-0.0227,0.2662,-0.1981,-19.56,-36.75,27.06,30.24,-89.52,-113.5
30672,53.062386,-1.267741,211.41,29.7,6,145.39,19 / 20,4539813,2019-11-06 17:22:00:275,3.2266,0.7798,8.7152,-0.0415,-0.0248,9.8065,-0.1267,0.2013,-0.1111,-19.75,-37.0,27.0,49.12,-89.55,-94.72
30673,53.062386,-1.267741,211.41,29.7,6,145.39,18 / 19,4539914,2019-11-06 17:22:00:376,-0.2194,-0.9763,10.0859,0.0003,-0.0252,9.8066,-0.0795,0.1833,-0.0113,-19.75,-37.0,27.94,45.65,-89.72,-99.02
30674,53.062386,-1.267741,211.41,29.7,6,145.39,18 / 19,4540014,2019-11-06 17:22:00:476,2.2968,-1.5521,9.3886,0.03,-0.035,9.8065,-0.0771,0.1089,0.0173,-19.62,-35.94,27.38,346.28,-89.44,-157.05
30675,53.062386,-1.267741,211.41,29.7,6,145.39,18 / 19,4540113,2019-11-06 17:22:00:575,0.1932,-0.9601,9.0107,0.0233,-0.0008,9.8065,-0.0881,0.0354,0.0295,-20.12,-35.81,27.06,339.62,-89.3,-163.59
30676,53.062386,-1.267741,211.41,29.7,6,145.39,18 / 19,4540214,2019-11-06 17:22:00:676,1.15,-0.9002,10.7837,-0.0233,0.0231,9.8065,0.1921,0.0788,-0.0678,-20.44,-35.62,26.94,346.01,-89.38,-157.3
30677,53.062386,-1.267741,211.41,29.7,6,145.39,18 / 19,4540313,2019-11-06 17:22:00:775,-0.1457,3.2882,9.762,-0.0041,0.0457,9.8065,0.1167,0.081,-0.0857,-20.69,-34.87,26.75,6.45,-89.67,-135.71
30678,53.062386,-1.267741,211.41,29.7,6,145.39,18 / 19,4540414,2019-11-06 17:22:00:876,0.8623,3.2962,9.8131,-0.0346,-0.0016,9.8065,-0.0482,0.137,-0.0601,-19.75,-35.56,26.0,35.26,-89.51,-107.48
30679,53.062386,-1.267741,211.41,29.7,6,145.39,18 / 19,4540514,2019-11-06 17:22:00:976,-0.9901,-1.1886,9.7011,0.0094,0.0299,9.8065,0.0107,0.1769,-0.1647,-20.06,-35.75,26.56,48.02,-89.51,-95.85
30680,53.062386,-1.267741,211.41,29.7,6,145.39,18 / 19,4540614,2019-11-06 17:22:01:076,0.943,-0.9187,9.6477,-0.0049,-0.0281,9.8065,0.037,0.1553,-0.1323,-20.0,-35.81,27.19,58.47,-89.8,-85.18
30681,53.062386,-1.267741,211.41,29.7,6,145.39,18 / 19,4540714,2019-11-06 17:22:01:176,2.2949,-1.2349,10.2193,0.0083,-0.0104,9.8066,-0.0631,-0.0246,-0.0026,-19.69,-36.37,26.94,339.34,-89.61,-163.98
30682,53.062386,-1.267741,211.41,29.7,6,145.39,18 / 19,4540814,2019-11-06 17:22:01:276,-1.2758,0.4312,9.3711,0.0337,-0.0069,9.8066,-0.0813,-0.062,0.057,-19.62,-36.31,26.88,317.02,-89.35,174.03
30683,53.062386,-1.267741,211.41,29.7,6,145.39,19 / 20,4540915,2019-11-06 17:22:01:377,1.5645,0.4178,9.8237,0.0036,0.0071,9.8066,-0.027,-0.2862,0.1895,-19.87,-35.94,27.06,330.27,-89.45,-172.91
30684,53.062386,-1.267741,211.41,29.7,6,145.39,19 / 20,4541014,2019-11-06 17:22:01:476,-1.3979,-1.3634,11.3072,0.0049,0.0438,9.8065,0.0026,-0.3185,0.2412,-19.75,-36.06,27.38,353.54,-89.73,-149.9
30685,53.062386,-1.267741,211.41,29.7,6,145.39,19 / 20,4541114,2019-11-06 17:22:01:576,1.5151,-0.4176,8.7132,0.0097,0.0136,9.8066,0.036,0.0126,0.0612,-19.75,-36.31,27.44,32.23,-89.66,-111.43
30686,53.062386,-1.267741,211.41,29.7,6,145.39,19 / 20,4541214,2019-11-06 17:22:01:676,-0.1157,0.4398,10.7367,-0.0325,0.0095,9.8066,0.1117,0.0395,-0.065,-20.44,-36.12,26.69,65.11,-89.61,-78.74
30687,53.062386,-1.267741,211.41,29.7,6,145.39,19 / 20,4541313,2019-11-06 17:22:01:775,0.2437,-1.1998,11.0901,-0.0199,0.0107,9.8066,0.1297,0.1772,-0.2239,-19.87,-37.0,27.25,66.56,-89.71,-77.21
30688,53.062386,-1.267741,211.41,29.7,6,145.39,19 / 20,4541414,2019-11-06 17:22:01:876,1.4465,1.6361,9.5382,0.0046,-0.0288,9.8066,0.0256,0.2563,-0.2447,-20.0,-36.5,27.5,328.75,-89.71,-175.56
30689,53.062386,-1.267741,211.41,29.7,6,145.39,19 / 20,4541514,2019-11-06 17:22:01:976,-0.4068,-1.0226,10.0125,-0.0203,-0.0214,9.8066,-0.0843,0.157,-0.0752,-19.81,-35.94,27.56,287.72,-89.68,143.58
30690,53.062386,-1.267741,211.41,29.7,6,145.39,19 / 20,4541614,2019-11-06 17:22:02:076,-0.4352,-0.2723,9.9219,0.0147,-0.0015,9.8066,-0.0053,0.1397,-0.0555,-19.75,-36.31,27.25,293.17,-89.77,149.92
30691,53.062386,-1.267741,211.41,29.7,6,145.39,19 / 20,4541713,2019-11-06 17:22:02:175,1.5008,0.3499,9.8815,0.008,-0.0233,9.8066,-0.0631,0.0394,0.0319,-19.31,-36.56,27.81,292.45,-89.73,146.88
30692,53.062386,-1.267741,211.41,29.7,6,145.39,19 / 20,4541813,2019-11-06 17:22:02:275,-1.2103,-0.0825,9.3306,0.0036,0.017,9.8066,-0.0781,-0.0817,0.1099,-20.0,-36.37,27.44,307.48,-89.78,164.2
30693,53.060425,-1.265387,213.09,30.16,6,141.5,18 / 19,4541913,2019-11-06 17:22:02:375,1.9473,1.3779,10.0292,0.0312,0.021,9.8065,-0.0978,-0.1309,0.1023,-19.87,-36.69,26.88,325.7,-89.93,-177.73
30694,53.060425,-1.265387,213.09,30.16,6,141.5,18 / 19,4542014,2019-11-06 17:22:02:476,1.2026,1.4675,9.8837,-0.009,-0.0138,9.8065,0.0619,-0.1367,0.1256,-19.94,-37.06,26.63,244.93,-89.67,101.79
30695,53.060425,-1.265387,213.09,30.16,6,141.5,18 / 19,4542114,2019-11-06 17:22:02:576,0.0415,0.5964,10.1101,0.0097,0.0044,9.8066,0.0275,0.2252,-0.1464,-19.56,-36.94,27.0,229.65,-89.61,86.51
30696,53.060425,-1.265387,213.09,30.16,6,141.5,18 / 19,4542214,2019-11-06 17:22:02:676,0.6555,0.3285,11.7138,0.0435,-0.0211,9.8065,0.0397,0.097,-0.1403,-20.0,-36.56,27.88,199.14,-89.67,54.79
30697,53.060425,-1.265387,213.09,30.16,6,141.5,18 / 19,4542313,2019-11-06 17:22:02:775,2.552,1.749,9.4947,0.005,-0.05,9.8065,-0.0758,0.2853,-0.1227,-19.87,-36.37,26.81,227.43,-89.84,84.09
30698,53.060425,-1.265387,213.09,30.16,6,141.5,18 / 19,4542413,2019-11-06 17:22:02:875,-1.1038,0.9057,9.6516,0.0101,0.0072,9.8066,0.0458,0.267,-0.109,-19.62,-37.06,27.13,310.44,-89.88,167.07
30699,53.060425,-1.265387,213.09,30.16,6,141.5,18 / 19,4542513,2019-11-06 17:22:02:975,0.5252,-0.5691,10.4247,-0.026,-0.0158,9.8065,-0.0948,0.1247,-0.0656,-19.69,-36.12,27.44,343.51,-89.75,-159.89
30700,53.060425,-1.265387,213.09,30.16,6,141.5,18 / 19,4542613,2019-11-06 17:22:03:075,1.5731,-0.0245,10.0032,-0.0123,0.0036,9.8065,-0.0822,0.0462,0.062,-19.94,-36.5,26.63,315.4,-89.81,172.07
30701,53.060425,-1.265387,213.09,30.16,6,141.5,18 / 19,4542713,2019-11-06 17:22:03:175,-1.0398,-0.3879,8.941,0.0316,-0.0104,9.8065,0.0533,0.0351,0.0554,-20.25,-36.0,26.63,311.19,-89.74,167.92
30702,53.060425,-1.265387,213.09,30.16,6,141.5,18 / 19,4542813,2019-11-06 17:22:03:275,0.1755,0.4967,9.3859,0.0426,0.0062,9.8065,0.0717,0.1203,-0.0168,-20.69,-36.62,26.88,40.71,-89.72,-101.61
30703,53.060425,-1.265387,213.09,30.16,6,141.5,18 / 21,4542913,2019-11-06 17:22:03:375,-2.7539,-1.0344,10.4638,-0.0479,0.0157,9.8065,0.1105,0.1993,-0.2756,-20.25,-35.94,27.25,63.66,-89.45,-80.34
30704,53.060425,-1.265387,213.09,30.16,6,141.5,18 / 21,4543013,2019-11-06 17:22:03:475,-3.0324,-0.6795,10.4132,-0.0159,0.03,9.8066,0.065,0.1944,-0.2594,-20.19,-36.12,27.06,63.31,-89.38,-80.76
30705,53.060425,-1.265387,213.09,30.16,6,141.5,18 / 21,4543113,2019-11-06 17:22:03:575,1.1163,-0.3852,9.5744,-0.0323,-0.0149,9.8065,-0.0541,0.121,-0.1109,-20.37,-36.62,27.0,75.95,-89.37,-68.2
30706,53.060425,-1.265387,213.09,30.16,6,141.5,18 / 21,4543213,2019-11-06 17:22:03:675,-1.5833,0.9185,10.218,-0.0195,0.0022,9.8066,-0.0657,0.0238,0.0217,-20.56,-36.5,26.69,96.76,-89.36,-46.04
30707,53.060425,-1.265387,213.09,30.16,6,141.5,18 / 21,4543314,2019-11-06 17:22:03:776,-1.4741,1.0109,10.4267,0.0357,0.0162,9.8065,-0.1088,-0.0491,0.176,-20.12,-36.75,26.44,122.2,-89.44,-20.77
30708,53.060425,-1.265387,213.09,30.16,6,141.5,18 / 21,4543414,2019-11-06 17:22:03:876,2.3122,-0.3216,9.4291,0.038,0.0123,9.8065,0.0361,-0.0475,0.1239,-20.56,-36.69,26.63,113.83,-89.18,-29.1
30709,53.060425,-1.265387,213.09,30.16,6,141.5,18 / 21,4543514,2019-11-06 17:22:03:976,-3.2197,-1.3456,10.397,-0.0011,0.0156,9.8066,0.1244,0.0107,-0.0062,-20.31,-36.19,26.56,112.62,-89.13,-31.71
30710,53.060425,-1.265387,213.09,30.16,6,141.5,18 / 21,4543614,2019-11-06 17:22:04:076,-2.9124,-1.5747,10.258,0.0272,0.0358,9.8065,0.1602,0.1213,-0.1974,-20.44,-36.19,26.38,92.59,-89.21,-50.71
30711,53.060425,-1.265387,213.09,30.16,6,141.5,18 / 21,4543714,2019-11-06 17:22:04:176,-0.7571,1.7956,10.6125,-0.0247,-0.024,9.8066,0.0548,0.1,-0.2077,-20.37,-37.06,26.88,83.8,-89.4,-60.33
30712,53.060425,-1.265387,213.09,30.16,6,141.5,18 / 21,4543814,2019-11-06 17:22:04:276,1.6333,-0.7692,9.2021,0.004,0.0008,9.8066,-0.1238,-0.0308,0.0321,-20.5,-37.12,26.13,47.02,-89.84,-95.54
30713,53.060425,-1.265387,213.09,30.16,6,141.5,20 / 22,4543914,2019-11-06 17:22:04:376,1.1393,-1.3561,9.2362,0.0457,-0.0149,9.8064,0.0267,-0.1409,0.1064,-20.06,-37.19,26.69,315.24,-89.67,172.03
30714,53.060425,-1.265387,213.09,30.16,6,141.5,20 / 22,4544014,2019-11-06 17:22:04:476,1.2963,-0.0034,9.0504,-0.0215,-0.0347,9.8065,-0.0888,-0.2937,0.2403,-20.06,-36.44,26.69,336.1,-89.34,-167.08
30715,53.060425,-1.265387,213.09,30.16,6,141.5,20 / 22,4544113,2019-11-06 17:22:04:575,-3.2446,-0.4602,10.4291,-0.0555,-0.0172,9.8064,-0.0771,-0.3867,0.2786,-21.19,-37.0,26.44,348.49,-89.32,-152.43
30716,53.060425,-1.265387,213.09,30.16,6,141.5,20 / 22,4544213,2019-11-06 17:22:04:675,3.1796,2.1429,9.3895,-0.0055,-0.0369,9.8065,0.0975,-0.2611,0.1833,-20.5,-36.19,26.5,332.89,-89.27,-170.23
30717,53.060425,-1.265387,213.09,30.16,6,141.5,20 / 22,4544314,2019-11-06 17:22:04:776,1.1421,1.5654,9.7617,-0.0298,-0.0261,9.8065,0.1069,-0.2142,0.0761,-21.06,-36.75,27.0,307.83,-89.45,166.17
30718,53.060425,-1.265387,213.09,30.16,6,141.5,20 / 22,4544414,2019-11-06 17:22:04:876,1.9056,-0.6178,9.7852,0.0073,0.01,9.8066,0.2001,-0.1199,-0.019,-20.37,-36.19,26.75,308.27,-89.77,165.0
30719,53.060425,-1.265387,213.09,30.16,6,141.5,20 / 22,4544514,2019-11-06 17:22:04:976,-1.1291,2.5782,10.6437,-0.0016,0.011,9.8066,0.0313,-0.0453,-0.0618,-20.25,-36.25,26.81,123.47,-89.91,-20.08
30720,53.060425,-1.265387,213.09,30.16,6,141.5,20 / 22,4544614,2019-11-06 17:22:05:076,-1.4835,1.5537,10.741,-0.0482,0.0019,9.8065,-0.0209,-0.0734,0.0509,-20.44,-36.44,26.69,104.64,-89.5,-39.35
30721,53.060425,-1.265387,213.09,30.16,6,141.5,20 / 22,4544714,2019-11-06 17:22:05:176,0.5177,-2.5403,9.5455,-0.0262,-0.0075,9.8066,-0.0258,-0.121,0.1338,-20.31,-36.31,27.19,102.31,-89.25,-41.94
30722,53.060425,-1.265387,213.09,30.16,6,141.5,20 / 22,4544814,2019-11-06 17:22:05:276,2.9484,1.7728,10.4773,0.0013,-0.0177,9.8066,-0.0719,-0.4184,0.3369,-20.25,-36.25,26.81,107.27,-89.47,-36.74
30723,53.060425,-1.265387,213.09,30.16,6,141.5,18 / 21,4544914,2019-11-06 17:22:05:376,3.2978,-0.5166,10.083,-0.026,-0.0595,9.8064,0.0205,-0.4734,0.2845,-20.5,-36.19,27.0,160.59,-89.82,17.05
30724,53.060425,-1.265387,213.09,30.16,6,141.5,18 / 21,4545013,2019-11-06 17:22:05:475,-1.6244,1.8368,9.2298,0.0404,-0.0153,9.8065,0.1119,-0.2319,0.086,-20.69,-36.69,26.63,295.14,-89.78,153.23
30725,53.060425,-1.265387,213.09,30.16,6,141.5,18 / 21,4545113,2019-11-06 17:22:05:575,1.6129,-3.0086,10.147,0.0167,-0.0319,9.8066,0.0092,-0.171,0.08,-20.5,-36.87,26.56,302.62,-89.6,159.51
30726,53.060425,-1.265387,213.09,30.16,6,141.5,18 / 21,4545213,2019-11-06 17:22:05:675,2.028,-1.1569,10.6784,0.0201,-0.007,9.8066,0.1543,-0.0745,-0.085,-19.81,-36.75,26.31,309.99,-89.3,168.16
30727,53.060425,-1.265387,213.09,30.16,6,141.5,18 / 21,4545314,2019-11-06 17:22:05:776,-3.508,0.3215,9.3858,0.0125,-0.0099,9.8066,0.158,-0.0783,-0.1344,-20.12,-36.69,26.69,316.07,-89.12,173.27
30728,53.060425,-1.265387,213.09,30.16,6,141.5,18 / 21,4545414,2019-11-06 17:22:05:876,2.9273,0.4487,10.7381,-0.0607,-0.0142,9.8064,-0.16,-0.1781,0.1123,-19.81,-36.06,26.63,321.67,-89.16,178.76
30729,53.060425,-1.265387,213.09,30.16,6,141.5,18 / 21,4545513,2019-11-06 17:22:05:975,0.4437,0.9536,10.9645,-0.0695,-0.0128,9.8063,-0.0585,-0.2258,0.2336,-19.62,-36.31,27.13,301.34,-89.09,158.7
30730,53.060425,-1.265387,213.09,30.16,6,141.5,18 / 21,4545614,2019-11-06 17:22:06:076,2.1744,0.2311,8.1489,0.0023,-0.0065,9.8066,-0.0977,-0.1886,0.2251,-20.5,-36.37,26.94,294.99,-89.43,152.08
30731,53.060425,-1.265387,213.09,30.16,6,141.5,18 / 21,4545714,2019-11-06 17:22:06:176,-1.4621,0.7102,11.071,-0.0159,-0.0134,9.8065,0.0019,-0.1044,0.133,-20.31,-36.87,27.0,229.25,-89.67,86.06
30732,53.060425,-1.265387,213.09,30.16,6,141.5,18 / 21,4545814,2019-11-06 17:22:06:276,-1.3636,1.1984,10.7928,0.0083,0.0123,9.8066,0.2051,0.0204,-0.0475,-20.75,-36.37,26.63,169.94,-89.55,27.73
30733,53.060425,-1.265387,213.09,30.16,6,141.5,21 / 22,4545914,2019-11-06 17:22:06:376,0.77,-1.1824,9.0043,0.0193,-0.0045,9.8066,0.1346,0.0029,-0.0399,-21.06,-36.44,26.25,159.39,-89.34,18.07
30734,53.060425,-1.265387,213.09,30.16,6,141.5,21 / 22,4546014,2019-11-06 17:22:06:476,0.63,0.8357,10.9292,-0.046,0.0049,9.8065,0.0565,0.1233,-0.1918,-20.25,-36.44,26.06,144.25,-89.17,1.28
30735,53.060425,-1.265387,213.09,30.16,6,141.5,21 / 22,4546114,2019-11-06 17:22:06:576,0.3641,-0.5236,9.9358,-0.0565,-0.0044,9.8065,0.0184,0.0465,-0.16,-20.69,-36.5,26.69,168.63,-89.24,26.35
30736,53.060425,-1.265387,213.09,30.16,6,141.5,21 / 22,4546213,2019-11-06 17:22:06:675,3.0021,-0.0131,9.4804,-0.0324,-0.0204,9.8065,-0.0157,-0.0686,0.056,-20.25,-36.37,26.31,159.9,-89.18,17.16
30737,53.060425,-1.265387,213.09,30.16,6,141.5,21 / 22,4546314,2019-11-06 17:22:06:776,-0.6895,-1.2415,9.84,-0.0167,-0.0293,9.8066,-0.1039,0.0316,0.0574,-19.62,-36.69,25.94,177.61,-89.13,35.14
30738,53.060425,-1.265387,213.09,30.16,6,141.5,21 / 22,4546414,2019-11-06 17:22:06:876,1.3797,0.5101,11.2038,0.0162,-0.0084,9.8066,0.0188,0.1014,0.1586,-20.44,-36.62,26.0,176.08,-89.23,33.59
30739,53.060425,-1.265387,213.09,30.16,6,141.5,21 / 22,4546514,2019-11-06 17:22:06:976,2.7129,1.3147,9.2787,0.0657,0.0346,9.8064,0.0365,0.0483,0.0023,-21.0,-36.31,25.94,184.12,-89.34,43.09
30740,53.060425,-1.265387,213.09,30.16,6,141.5,21 / 22,4546614,2019-11-06 17:22:07:076,0.284,-2.1269,10.5659,-0.0156,0.0157,9.8066,0.045,0.0531,-0.0888,-20.0,-36.44,25.81,152.88,-89.46,10.18
30741,53.060425,-1.265387,213.09,30.16,6,141.5,21 / 22,4546713,2019-11-06 17:22:07:175,-0.8955,-1.7008,10.6339,-0.0033,0.0083,9.8066,0.0195,0.1855,-0.1668,-20.87,-36.37,25.44,161.31,-89.67,21.23
30742,53.060425,-1.265387,213.09,30.16,6,141.5,21 / 22,4546814,2019-11-06 17:22:07:276,-2.6725,0.2137,10.6651,0.0204,-0.0376,9.8065,-0.0777,-0.0539,0.0272,-20.37,-36.31,26.19,248.63,-89.66,106.55
30743,53.060425,-1.265387,213.09,30.16,6,141.5,22 / 24,4546914,2019-11-06 17:22:07:376,1.6626,-0.2489,10.3938,0.0112,-0.0082,9.8066,0.0102,-0.6785,0.3539,-20.75,-36.5,25.94,270.66,-89.34,130.3
30744,53.060425,-1.265387,213.09,30.16,6,141.5,22 / 24,4547014,2019-11-06 17:22:07:476,-3.3667,-4.855,10.0592,0.0816,0.0539,9.8061,-0.0309,-0.5567,0.3794,-20.81,-37.0,25.88,266.48,-89.02,126.49
30745,53.060425,-1.265387,213.09,30.16,6,141.5,22 / 24,4547114,2019-11-06 17:22:07:576,0.5811,2.7786,9.5936,0.0242,-0.0223,9.8065,-0.0351,-0.2201,0.1164,-20.44,-36.56,26.44,278.92,-89.01,137.59
30746,53.060425,-1.265387,213.09,30.16,6,141.5,22 / 24,4547214,2019-11-06 17:22:07:676,1.734,1.9768,9.6178,0.0333,0.0158,9.8066,0.0267,0.0015,0.0038,-20.06,-36.62,25.88,273.44,-88.93,132.22
30747,53.060425,-1.265387,213.09,30.16,6,141.5,22 / 24,4547314,2019-11-06 17:22:07:776,1.1281,1.1907,8.3992,-0.0052,-0.0252,9.8065,0.164,0.304,-0.2565,-19.81,-36.75,26.19,271.15,-88.69,130.19
30748,53.060425,-1.265387,213.09,30.16,6,141.5,22 / 24,4547414,2019-11-06 17:22:07:876,1.1702,3.0538,9.9807,-0.0436,0.0096,9.8065,0.0503,0.2923,-0.3681,-20.0,-37.12,26.25,269.36,-88.56,128.55
30749,53.060425,-1.265387,213.09,30.16,6,141.5,22 / 24,4547514,2019-11-06 17:22:07:976,-1.9003,-2.1173,9.52,-0.0602,-0.0458,9.8063,-0.0324,0.1649,-0.1256,-20.25,-37.06,26.0,264.6,-88.23,124.16
30750,53.060425,-1.265387,213.09,30.16,6,141.5,22 / 24,4547614,2019-11-06 17:22:08:076,-1.0901,-0.7349,8.4666,0.0253,-0.0138,9.8065,-0.2513,0.2666,-0.0552,-20.31,-36.94,25.88,271.32,-88.43,130.66
30751,53.060425,-1.265387,213.09,30.16,6,141.5,22 / 24,4547714,2019-11-06 17:22:08:176,0.4201,0.5989,10.441,0.0323,-0.0348,9.8065,-0.1276,-0.0161,0.2024,-20.44,-37.44,26.44,275.98,-88.57,135.17
30752,53.060425,-1.265387,213.09,30.16,6,141.5,22 / 24,4547814,2019-11-06 17:22:08:276,-0.7727,0.6465,11.4101,0.0041,-0.0001,9.8066,0.0057,-0.0876,0.1723,-20.25,-36.69,26.81,282.15,-88.74,140.03
30753,53.060425,-1.265387,213.09,30.16,6,141.5,22 / 23,4547915,2019-11-06 17:22:08:377,-0.7175,-0.2071,9.3776,-0.0108,0.0039,9.8066,0.1582,0.1376,-0.1835,-19.94,-37.25,26.31,290.31,-88.58,149.38
30754,53.060425,-1.265387,213.09,30.16,6,141.5,22 / 23,4548014,2019-11-06 17:22:08:476,-1.7233,-1.4876,8.6704,-0.0102,-0.0055,9.8066,-0.0184,0.0784,-0.2238,-20.31,-36.69,26.44,287.12,-88.43,146.39
30755,53.060425,-1.265387,213.09,30.16,6,141.5,22 / 23,4548113,2019-11-06 17:22:08:575,0.9048,1.1216,10.4746,-0.0229,-0.019,9.8066,-0.1053,0.1916,-0.0926,-20.56,-36.56,25.88,283.82,-88.53,144.33
30756,53.060425,-1.265387,213.09,30.16,6,141.5,22 / 23,4548213,2019-11-06 17:22:08:675,-0.5227,1.1008,7.9014,0.0499,0.0101,9.8064,-0.1687,0.0599,-0.0168,-20.25,-37.19,25.94,277.56,-88.46,136.86
30757,53.060425,-1.265387,213.09,30.16,6,141.5,22 / 23,4548314,2019-11-06 17:22:08:776,-2.0309,0.167,8.1691,0.0361,0.0075,9.8065,-0.1183,-0.0751,0.1336,-20.31,-37.06,25.69,275.46,-88.7,134.49
30758,53.060425,-1.265387,213.09,30.16,6,141.5,22 / 23,4548414,2019-11-06 17:22:08:876,0.142,0.5301,11.4927,-0.0365,0.0242,9.8065,-0.0164,-0.0707,0.16,-20.5,-36.75,25.63,266.01,-88.74,124.99
30759,53.060425,-1.265387,213.09,30.16,6,141.5,22 / 23,4548514,2019-11-06 17:22:08:976,-0.9004,0.2455,9.8556,0.0027,0.0336,9.8065,0.1063,0.0073,-0.1623,-19.5,-36.81,25.44,261.59,-88.33,120.77
30760,53.060425,-1.265387,213.09,30.16,6,141.5,22 / 23,4548614,2019-11-06 17:22:09:076,-1.4446,-1.6895,9.3972,0.0297,0.006,9.8065,0.1088,0.1587,-0.2981,-19.37,-37.25,25.69,254.13,-87.72,112.8
30761,53.060425,-1.265387,213.09,30.16,6,141.5,22 / 23,4548713,2019-11-06 17:22:09:175,0.643,0.5967,10.5849,-0.0186,0.0122,9.8066,0.0333,0.2781,-0.2985,-18.69,-37.5,25.44,246.67,-87.37,106.73
30762,53.060425,-1.265387,213.09,30.16,6,141.5,22 / 23,4548813,2019-11-06 17:22:09:275,-0.1218,0.953,8.9398,0.037,0.0258,9.8065,-0.1173,0.2081,-0.1656,-19.44,-37.5,25.06,241.09,-87.01,101.37
30763,53.060425,-1.265387,213.09,30.16,6,141.5,22 / 23,4548913,2019-11-06 17:22:09:375,1.7303,1.5467,9.0274,0.0091,0.0233,9.8066,-0.0837,-0.0815,0.1857,-18.75,-37.5,24.63,237.97,-87.2,97.97
30764,53.060425,-1.265387,213.09,30.16,6,141.5,22 / 23,4549014,2019-11-06 17:22:09:476,-0.2391,1.1593,9.2138,-0.0319,0.0096,9.8065,-0.0314,-0.0698,0.0849,-19.25,-37.75,25.75,232.84,-87.37,91.45
30765,53.060425,-1.265387,213.09,30.16,6,141.5,22 / 23,4549114,2019-11-06 17:22:09:576,-0.879,-0.4723,9.8607,-0.026,0.0196,9.8065,0.1287,0.0048,-0.0244,-19.44,-37.56,25.75,229.94,-87.45,88.37
30766,53.060425,-1.265387,213.09,30.16,6,141.5,22 / 23,4549214,2019-11-06 17:22:09:676,0.3478,1.428,9.7378,0.0117,-0.0059,9.8066,0.0585,0.0885,-0.1101,-19.5,-37.12,25.38,224.71,-87.28,84.17
30767,53.060425,-1.265387,213.09,30.16,6,141.5,22 / 23,4549314,2019-11-06 17:22:09:776,0.4538,2.8742,9.7297,-0.0067,0.0011,9.8065,-0.041,0.2515,-0.1229,-19.25,-38.0,25.19,220.81,-87.17,80.25
30768,53.060425,-1.265387,213.09,30.16,6,141.5,22 / 23,4549414,2019-11-06 17:22:09:876,-0.3746,-1.543,10.1209,0.0033,0.0284,9.8066,-0.0966,0.164,-0.1198,-19.44,-37.56,25.75,216.29,-87.1,74.43
30769,53.060425,-1.265387,213.09,30.16,6,141.5,22 / 23,4549514,2019-11-06 17:22:09:976,0.1664,1.1156,10.3854,0.0092,0.0041,9.8066,-0.0808,-0.0546,0.0465,-18.94,-37.81,25.75,210.75,-87.37,68.47
30770,53.060425,-1.265387,213.09,30.16,6,141.5,22 / 23,4549614,2019-11-06 17:22:10:076,-1.05,2.0047,10.0352,-0.026,0.0237,9.8065,-0.0879,-0.0813,0.0905,-18.81,-37.19,24.88,205.31,-87.39,63.83
30771,53.060425,-1.265387,213.09,30.16,6,141.5,22 / 23,4549714,2019-11-06 17:22:10:176,0.199,-1.0035,8.6916,-0.0171,0.0285,9.8066,-0.071,-0.094,0.1529,-19.69,-37.5,25.69,203.67,-87.45,62.37
30772,53.060425,-1.265387,213.09,30.16,6,141.5,22 / 23,4549814,2019-11-06 17:22:10:276,-0.5815,0.6236,10.1722,-0.0192,-0.0134,9.8066,0.0494,-0.036,0.0819,-18.81,-37.37,25.06,199.02,-87.46,57.21
30773,53.060425,-1.265387,213.09,30.16,6,141.5,22 / 23,4549914,2019-11-06 17:22:10:376,1.3598,0.3104,10.7397,-0.0131,-0.0241,9.8066,0.0921,0.0904,-0.0971,-18.75,-36.81,25.31,201.88,-87.63,60.14
30774,53.060425,-1.265387,213.09,30.16,6,141.5,22 / 23,4550014,2019-11-06 17:22:10:476,-1.5886,-2.0031,10.2223,0.0644,0.0016,9.8064,0.0642,0.2173,-0.2654,-19.5,-37.56,25.75,211.09,-87.33,68.85
30775,53.060425,-1.265387,213.09,30.16,6,141.5,22 / 23,4550113,2019-11-06 17:22:10:575,-0.6799,1.1385,9.5337,0.031,-0.0204,9.8065,-0.0239,0.0357,-0.0582,-19.06,-37.31,25.63,212.38,-87.39,70.11
30776,53.060425,-1.265387,213.09,30.16,6,141.5,22 / 23,4550213,2019-11-06 17:22:10:675,-0.6982,-1.2583,9.4836,-0.0152,0.0009,9.8065,-0.088,-0.1357,0.0986,-19.06,-37.19,24.94,212.9,-87.61,71.64
30777,53.060425,-1.265387,213.09,30.16,6,141.5,22 / 23,4550313,2019-11-06 17:22:10:775,-1.0178,-3.0088,9.9803,0.0126,-0.0143,9.8066,0.0302,-0.2907,0.1991,-19.06,-37.06,25.5,221.45,-87.66,79.37
30778,53.060425,-1.265387,213.09,30.16,6,141.5,22 / 23,4550413,2019-11-06 17:22:10:875,-0.8092,4.248,9.7172,-0.0156,-0.0531,9.8065,0.0344,-0.3901,0.2284,-19.25,-36.94,25.69,234.51,-87.61,92.89
30779,53.060425,-1.265387,213.09,30.16,6,141.5,22 / 23,4550513,2019-11-06 17:22:10:975,-2.2438,-2.3433,9.0403,-0.0307,-0.0207,9.8066,0.0166,-0.2828,0.1706,-19.12,-37.12,25.69,237.32,-87.47,95.9
30780,53.060425,-1.265387,213.09,30.16,6,141.5,22 / 23,4550613,2019-11-06 17:22:11:075,-0.5436,-0.8509,8.7176,-0.0052,-0.0047,9.8066,-0.0079,-0.1378,0.1049,-18.87,-37.81,25.63,236.48,-87.18,95.38
30781,53.060425,-1.265387,213.09,30.16,6,141.5,22 / 23,4550713,2019-11-06 17:22:11:175,-0.9054,-0.5543,9.1824,-0.0259,-0.0123,9.8066,0.0295,-0.1157,0.0202,-18.56,-37.75,25.25,231.56,-87.12,91.49
30782,53.060425,-1.265387,213.09,30.16,6,141.5,22 / 23,4550813,2019-11-06 17:22:11:275,-2.9479,-0.3376,9.0203,-0.0071,0.0176,9.8066,0.0641,0.0566,-0.1531,-19.06,-37.44,25.06,226.04,-87.31,85.52
30783,53.05856,-1.26275,213.89,30.23,6,139.58,21 / 23,4550914,2019-11-06 17:22:11:376,0.3505,-1.8291,9.3925,0.0273,0.0461,9.8064,-0.1016,0.0654,-0.1131,-19.0,-37.25,24.75,223.11,-87.34,82.46
30784,53.05856,-1.26275,213.89,30.23,6,139.58,21 / 23,4551014,2019-11-06 17:22:11:476,4.2823,-1.6459,11.3308,-0.0568,0.0086,9.8064,-0.1004,0.01,0.1137,-18.25,-37.75,25.0,218.1,-87.09,76.03
30785,53.05856,-1.26275,213.89,30.23,6,139.58,21 / 23,4551114,2019-11-06 17:22:11:576,-3.1651,2.3232,9.4972,-0.0582,0.0258,9.8064,-0.0743,-0.0934,0.1507,-18.81,-37.44,25.75,218.29,-86.96,76.58
30786,53.05856,-1.26275,213.89,30.23,6,139.58,21 / 23,4551215,2019-11-06 17:22:11:677,-2.1187,1.6486,8.9934,-0.0107,-0.019,9.8066,-0.042,-0.088,0.0945,-18.5,-37.0,26.19,213.16,-87.02,69.73
30787,53.05856,-1.26275,213.89,30.23,6,139.58,21 / 23,4551314,2019-11-06 17:22:11:776,1.8731,-1.0298,10.2896,0.0,-0.0008,9.8066,0.1201,0.0257,-0.0126,-19.0,-37.87,25.63,208.14,-86.96,65.96
30788,53.05856,-1.26275,213.89,30.23,6,139.58,21 / 23,4551414,2019-11-06 17:22:11:876,-2.0478,0.032,8.3445,0.0252,0.0139,9.8065,-0.0003,0.2303,-0.1657,-19.12,-37.44,25.75,206.02,-86.85,63.73
30789,53.05856,-1.26275,213.89,30.23,6,139.58,21 / 23,4551513,2019-11-06 17:22:11:975,-1.6962,-0.8079,8.0183,0.0574,0.0292,9.8064,-0.0012,0.3104,-0.2509,-19.12,-36.69,25.5,205.44,-86.64,63.21
30790,53.05856,-1.26275,213.89,30.23,6,139.58,21 / 23,4551614,2019-11-06 17:22:12:076,-0.8851,0.4264,11.2599,0.0043,0.0223,9.8066,-0.0667,0.2344,-0.2528,-18.5,-37.87,25.56,206.96,-86.75,63.39
30791,53.05856,-1.26275,213.89,30.23,6,139.58,21 / 23,4551714,2019-11-06 17:22:12:176,1.6632,-0.1974,9.5125,0.0229,0.013,9.8065,-0.1412,0.1892,-0.1195,-18.56,-37.25,25.56,214.69,-86.76,72.93
30792,53.05856,-1.26275,213.89,30.23,6,139.58,21 / 23,4551814,2019-11-06 17:22:12:276,0.7717,-1.9338,9.8229,0.0106,-0.0491,9.8064,-0.0598,-0.1167,0.1885,-18.94,-37.19,25.81,226.49,-86.69,85.36
30793,53.05856,-1.26275,213.89,30.23,6,139.58,20 / 22,4551914,2019-11-06 17:22:12:376,-0.849,0.9028,11.7704,-0.0224,-0.0304,9.8065,-0.13,-0.1979,0.2154,-18.25,-37.31,26.06,232.13,-86.56,89.95
30794,53.05856,-1.26275,213.89,30.23,6,139.58,20 / 22,4552014,2019-11-06 17:22:12:476,-4.0146,-0.472,9.3111,0.058,0.0098,9.8065,0.0379,-0.1367,0.1057,-18.37,-37.0,26.0,234.38,-86.46,92.39
30795,53.05856,-1.26275,213.89,30.23,6,139.58,20 / 22,4552114,2019-11-06 17:22:12:576,2.0708,0.171,9.9827,0.0398,0.0137,9.8065,0.1888,-0.0196,-0.0369,-18.87,-37.19,25.56,231.85,-86.64,91.01
30796,53.05856,-1.26275,213.89,30.23,6,139.58,20 / 22,4552213,2019-11-06 17:22:12:675,0.2544,-0.3039,10.6443,-0.0062,0.0429,9.8065,0.0732,0.1084,-0.1249,-18.37,-37.56,25.69,230.65,-86.56,88.49
30797,53.05856,-1.26275,213.89,30.23,6,139.58,20 / 22,4552313,2019-11-06 17:22:12:775,-0.8471,0.5809,9.1132,-0.0025,0.0318,9.8066,0.0103,0.0776,-0.1477,-18.5,-37.31,25.81,230.57,-86.75,88.15
30798,53.05856,-1.26275,213.89,30.23,6,139.58,20 / 22,4552414,2019-11-06 17:22:12:876,-0.7289,-0.0004,11.1239,-0.0271,0.0052,9.8066,-0.0922,-0.0414,-0.0012,-18.0,-37.62,26.0,228.04,-86.74,85.6
30799,53.05856,-1.26275,213.89,30.23,6,139.58,20 / 22,4552514,2019-11-06 17:22:12:976,-0.1873,1.6529,10.5304,-0.0279,0.003,9.8065,-0.1242,-0.0808,0.1159,-19.19,-37.62,25.31,222.46,-86.67,82.37
30800,53.05856,-1.26275,213.89,30.23,6,139.58,20 / 22,4552614,2019-11-06 17:22:13:076,-1.722,-1.3753,7.558,0.0385,0.0178,9.8065,0.1065,-0.0482,0.1243,-18.5,-37.12,25.56,224.43,-86.39,82.02
30801,53.05856,-1.26275,213.89,30.23,6,139.58,20 / 22,4552713,2019-11-06 17:22:13:175,2.658,3.6755,9.6046,0.0474,0.0384,9.8064,0.0496,-0.1734,0.1045,-18.37,-37.69,25.19,216.86,-86.48,75.17
30802,53.05856,-1.26275,213.89,30.23,6,139.58,20 / 22,4552813,2019-11-06 17:22:13:275,-3.4422,-2.499,10.9657,0.0567,0.0446,9.8063,0.2077,-0.5312,0.2885,-18.06,-37.87,25.81,217.81,-86.28,75.18
30803,53.05856,-1.26275,213.89,30.23,6,139.58,20 / 21,4552915,2019-11-06 17:22:13:377,2.7191,2.389,9.613,0.0241,0.0228,9.8065,0.2059,-0.5718,0.2856,-18.81,-37.75,25.88,219.63,-86.78,78.16
30804,53.05856,-1.26275,213.89,30.23,6,139.58,20 / 21,4553013,2019-11-06 17:22:13:475,-3.7063,-1.185,11.6076,0.022,0.0493,9.8065,0.006,-0.5715,0.2066,-18.0,-37.12,26.31,225.45,-86.74,82.81
30805,53.05856,-1.26275,213.89,30.23,6,139.58,20 / 21,4553114,2019-11-06 17:22:13:576,-4.15,-2.4212,10.0098,-0.0657,-0.0253,9.8063,-0.0492,-0.5991,0.2488,-19.0,-37.62,25.75,228.47,-87.11,87.15
30806,53.05856,-1.26275,213.89,30.23,6,139.58,20 / 21,4553214,2019-11-06 17:22:13:676,-6.0299,-3.1274,8.5803,0.064,0.0158,9.8064,-0.1153,-0.5168,0.3854,-17.94,-37.12,26.5,231.97,-86.68,88.6
30807,53.05856,-1.26275,213.89,30.23,6,139.58,20 / 21,4553313,2019-11-06 17:22:13:775,3.5606,0.313,11.1845,0.0113,-0.0464,9.8065,-0.1646,-0.5713,0.4282,-18.56,-37.37,26.13,225.33,-86.77,84.08
30808,53.05856,-1.26275,213.89,30.23,6,139.58,20 / 21,4553413,2019-11-06 17:22:13:875,-0.2015,2.3955,8.3925,0.0813,0.0496,9.8061,0.0209,-0.4978,0.3366,-18.69,-37.06,26.13,225.42,-86.52,84.38
30809,53.05856,-1.26275,213.89,30.23,6,139.58,20 / 21,4553513,2019-11-06 17:22:13:975,0.4872,3.0598,8.5185,0.0172,-0.0303,9.8066,0.2069,-0.2448,0.0921,-17.81,-37.44,26.19,224.09,-86.65,81.46
30810,53.05856,-1.26275,213.89,30.23,6,139.58,20 / 21,4553614,2019-11-06 17:22:14:076,1.5873,-1.093,11.5802,-0.0314,0.0363,9.8065,0.2269,-0.0914,-0.0701,-18.44,-37.12,26.31,223.91,-86.78,81.18
30811,53.05856,-1.26275,213.89,30.23,6,139.58,20 / 21,4553713,2019-11-06 17:22:14:175,-5.7639,-1.8274,9.0655,-0.0883,-0.0258,9.8062,0.1311,0.4337,-0.3706,-18.19,-37.81,26.88,223.15,-87.25,79.01
30812,53.05856,-1.26275,213.89,30.23,6,139.58,20 / 21,4553813,2019-11-06 17:22:14:275,-0.2109,0.0366,9.3902,-0.0575,-0.0436,9.8064,-0.0186,0.5924,-0.4204,-18.62,-37.12,26.31,224.71,-87.2,83.1
30813,53.05856,-1.26275,213.89,30.23,6,139.58,19 / 22,4553914,2019-11-06 17:22:14:376,-5.0008,-3.4098,10.835,-0.0615,-0.0507,9.8063,-0.1586,0.6259,-0.3473,-18.0,-37.44,26.81,229.14,-86.81,85.54
30814,53.05856,-1.26275,213.89,30.23,6,139.58,19 / 22,4554014,2019-11-06 17:22:14:476,0.1502,3.8893,9.2691,-0.0034,-0.0621,9.8064,-0.1233,0.5165,-0.2789,-18.44,-37.06,26.81,233.56,-86.97,90.0
30815,53.05856,-1.26275,213.89,30.23,6,139.58,19 / 22,4554113,2019-11-06 17:22:14:575,-0.0634,-2.8635,10.8203,0.0166,-0.0381,9.8065,-0.13,0.2382,-0.0102,-18.19,-37.31,26.56,233.41,-86.7,90.07
30816,53.05856,-1.26275,213.89,30.23,6,139.58,19 / 22,4554213,2019-11-06 17:22:14:675,3.0786,0.1583,10.4128,-0.0167,-0.0143,9.8066,-0.0527,0.0823,0.0453,-18.44,-37.44,26.94,236.4,-86.81,93.09
30817,53.05856,-1.26275,213.89,30.23,6,139.58,19 / 22,4554314,2019-11-06 17:22:14:776,-4.7437,0.0549,9.4084,-0.0039,0.0192,9.8066,0.0939,0.0664,-0.092,-18.12,-37.75,26.06,234.33,-86.8,92.11
30818,53.05856,-1.26275,213.89,30.23,6,139.58,19 / 22,4554414,2019-11-06 17:22:14:876,0.0893,-1.8002,11.3635,-0.0575,-0.0419,9.8063,0.0959,0.0789,-0.1097,-18.19,-36.94,25.88,238.31,-87.01,95.95
30819,53.05856,-1.26275,213.89,30.23,6,139.58,19 / 22,4554514,2019-11-06 17:22:14:976,-3.0706,-2.3382,11.4031,-0.0475,0.0187,9.8065,0.1137,0.0693,-0.1081,-18.81,-37.81,26.19,237.18,-86.81,96.47
30820,53.05856,-1.26275,213.89,30.23,6,139.58,19 / 22,4554614,2019-11-06 17:22:15:076,-0.5274,0.8093,8.6248,-0.0174,-0.0374,9.8065,-0.0131,-0.0777,-0.0385,-17.94,-36.56,25.94,234.75,-87.04,92.24
30821,53.05856,-1.26275,213.89,30.23,6,139.58,19 / 22,4554714,2019-11-06 17:22:15:176,0.0552,1.9556,10.9741,0.0235,0.0175,9.8066,-0.0993,-0.4006,0.1894,-17.81,-36.94,26.5,227.8,-87.13,83.88
30822,53.05856,-1.26275,213.89,30.23,6,139.58,19 / 22,4554814,2019-11-06 17:22:15:276,-2.4991,1.9323,10.766,0.0181,0.0277,9.8065,-0.0767,-0.4857,0.3022,-18.0,-37.44,26.56,221.14,-87.01,77.04
30823,53.05856,-1.26275,213.89,30.23,6,139.58,20 / 20,4554914,2019-11-06 17:22:15:376,2.1005,1.3217,8.8301,0.0856,0.0355,9.8062,-0.1042,-0.5107,0.3786,-18.06,-37.12,26.38,216.81,-86.68,73.79
30824,53.05856,-1.26275,213.89,30.23,6,139.58,20 / 20,4555014,2019-11-06 17:22:15:476,-4.1055,-2.7876,10.3763,-0.012,0.0228,9.8066,-0.0886,-0.5727,0.4185,-17.62,-37.56,27.19,215.18,-86.99,70.87
30825,53.05856,-1.26275,213.89,30.23,6,139.58,20 / 20,4555114,2019-11-06 17:22:15:576,-1.458,-3.8535,9.4161,0.0399,0.0328,9.8065,0.2701,-0.4967,0.2383,-17.75,-37.31,26.38,220.89,-87.41,77.54
30826,53.05856,-1.26275,213.89,30.23,6,139.58,20 / 20,4555213,2019-11-06 17:22:15:675,-2.6736,2.1263,10.2327,-0.0174,-0.0162,9.8066,0.1226,-0.3217,0.1341,-18.0,-37.62,26.94,232.01,-87.33,88.13
30827,53.05856,-1.26275,213.89,30.23,6,139.58,20 / 20,4555314,2019-11-06 17:22:15:776,0.9613,-1.2822,8.5409,-0.0129,0.0049,9.8066,0.1788,-0.0281,-0.1503,-17.37,-37.12,26.75,241.93,-87.0,97.17
30828,53.05856,-1.26275,213.89,30.23,6,139.58,20 / 20,4555414,2019-11-06 17:22:15:876,-2.0136,-1.0406,9.2834,0.0584,-0.0191,9.8064,0.1993,0.133,-0.1914,-17.56,-36.87,26.63,246.18,-86.76,103.22
30829,53.05856,-1.26275,213.89,30.23,6,139.58,20 / 20,4555514,2019-11-06 17:22:15:976,0.8458,0.0362,10.7835,0.0228,-0.0239,9.8065,-0.2093,0.1127,-0.0494,-17.62,-36.87,26.69,246.97,-86.82,103.97
30830,53.05856,-1.26275,213.89,30.23,6,139.58,20 / 20,4555614,2019-11-06 17:22:16:076,-4.6059,1.2372,9.1644,0.0155,0.0406,9.8065,-0.258,-0.0952,0.039,-17.5,-37.0,26.75,240.27,-86.94,95.52
30831,53.05856,-1.26275,213.89,30.23,6,139.58,20 / 20,4555714,2019-11-06 17:22:16:176,-4.2199,-0.6369,10.0996,0.0513,0.0404,9.8064,-0.0152,-0.3796,0.1845,-17.5,-37.19,26.5,236.2,-87.14,91.12
30832,53.05856,-1.26275,213.89,30.23,6,139.58,20 / 20,4555814,2019-11-06 17:22:16:276,-1.5257,-3.8968,11.1339,-0.0165,0.052,9.8064,0.0055,-0.2852,0.1568,-16.81,-36.69,27.0,230.72,-86.77,85.77
30833,53.05856,-1.26275,213.89,30.23,6,139.58,19 / 22,4555925,2019-11-06 17:22:16:387,-0.7888,1.5246,8.3387,-0.0168,0.0236,9.8066,0.116,-0.0361,0.0365,-17.44,-36.75,26.81,233.38,-86.81,88.51
30834,53.05856,-1.26275,213.89,30.23,6,139.58,19 / 22,4556014,2019-11-06 17:22:16:476,0.3627,-2.1457,9.6079,0.0283,-0.0324,9.8065,0.1868,-0.0272,-0.0417,-17.5,-37.19,26.69,233.5,-86.87,88.58
30835,53.05856,-1.26275,213.89,30.23,6,139.58,19 / 22,4556113,2019-11-06 17:22:16:575,2.0256,-0.4549,10.5992,-0.0336,0.0046,9.8065,0.115,0.0794,-0.2043,-18.06,-37.94,27.13,236.52,-86.94,93.17
30836,53.05856,-1.26275,213.89,30.23,6,139.58,19 / 22,4556213,2019-11-06 17:22:16:675,-4.5226,-1.8006,9.4116,-0.0225,-0.0063,9.8066,-0.0042,0.2995,-0.1929,-17.69,-36.87,26.88,239.61,-86.81,96.4
30837,53.05856,-1.26275,213.89,30.23,6,139.58,19 / 22,4556314,2019-11-06 17:22:16:776,0.8307,0.7526,11.4272,-0.0691,-0.0321,9.8063,0.0037,0.4284,-0.2804,-17.69,-37.25,26.5,238.17,-87.06,94.68
30838,53.05856,-1.26275,213.89,30.23,6,139.58,19 / 22,4556414,2019-11-06 17:22:16:876,-1.9286,-0.6114,11.6883,-0.046,-0.0052,9.8065,-0.0543,0.3807,-0.2089,-17.81,-37.44,27.31,235.09,-87.08,91.48
30839,53.05856,-1.26275,213.89,30.23,6,139.58,19 / 22,4556514,2019-11-06 17:22:16:976,1.8628,-0.5778,8.7355,-0.0102,-0.0278,9.8066,-0.1484,0.1966,-0.0411,-17.44,-36.87,27.63,237.44,-86.96,91.56
30840,53.05856,-1.26275,213.89,30.23,6,139.58,19 / 22,4556614,2019-11-06 17:22:17:076,0.157,-0.4709,11.2675,0.0188,-0.0204,9.8065,-0.1803,0.1456,0.045,-17.25,-36.81,27.5,233.42,-86.84,87.51
30841,53.05856,-1.26275,213.89,30.23,6,139.58,19 / 22,4556714,2019-11-06 17:22:17:176,0.436,-0.0277,11.1989,0.0162,-0.0171,9.8066,-0.0238,-0.0267,0.0422,-17.69,-37.0,27.81,234.37,-86.93,89.85
30842,53.05856,-1.26275,213.89,30.23,6,139.58,19 / 22,4556814,2019-11-06 17:22:17:276,-1.2862,0.6626,8.7948,0.0522,0.0003,9.8065,0.1776,0.0449,-0.0801,-17.31,-36.94,27.88,234.84,-87.07,88.78
30843,53.05856,-1.26275,213.89,30.23,6,139.58,18 / 20,4556913,2019-11-06 17:22:17:375,-1.422,-3.1361,10.7844,-0.0442,0.0141,9.8065,0.2806,0.0658,-0.1495,-17.87,-37.19,27.81,234.51,-87.09,89.85
30844,53.05856,-1.26275,213.89,30.23,6,139.58,18 / 20,4557013,2019-11-06 17:22:17:475,-1.4785,-1.6164,10.775,-0.024,0.0336,9.8065,0.1525,0.1139,-0.2161,-17.81,-36.81,27.44,238.12,-87.04,94.65
30845,53.05856,-1.26275,213.89,30.23,6,139.58,18 / 20,4557113,2019-11-06 17:22:17:575,0.8972,1.5281,8.9011,-0.0249,-0.0227,9.8065,-0.023,0.2156,-0.2354,-17.06,-36.94,28.0,242.49,-86.97,96.76
30846,53.05856,-1.26275,213.89,30.23,6,139.58,18 / 20,4557213,2019-11-06 17:22:17:675,-1.6795,-0.0363,9.8027,-0.0368,-0.006,9.8065,-0.1435,0.0938,0.0286,-17.37,-36.75,28.44,241.13,-86.7,95.62
30847,53.05856,-1.26275,213.89,30.23,6,139.58,18 / 20,4557314,2019-11-06 17:22:17:776,-1.2392,-0.5095,10.318,0.0243,-0.0307,9.8065,-0.1997,0.1237,0.0974,-17.12,-36.25,28.31,241.45,-86.88,95.7
30848,53.05856,-1.26275,213.89,30.23,6,139.58,18 / 20,4557414,2019-11-06 17:22:17:876,-1.7825,-2.2181,10.2046,0.0189,-0.0447,9.8065,-0.1921,0.185,0.0556,-16.62,-36.44,29.13,243.54,-87.13,96.65
30849,53.05856,-1.26275,213.89,30.23,6,139.58,18 / 20,4557514,2019-11-06 17:22:17:976,-2.6406,-0.3165,9.3717,-0.0534,-0.0229,9.8064,-0.0025,0.043,0.0373,-17.56,-36.44,28.63,237.87,-87.56,91.86
30850,53.05856,-1.26275,213.89,30.23,6,139.58,18 / 20,4557614,2019-11-06 17:22:18:076,-5.3337,-2.909,9.5285,0.015,0.0097,9.8065,0.1579,-0.0164,-0.0981,-17.44,-36.62,28.44,240.11,-87.74,93.57
30851,53.05856,-1.26275,213.89,30.23,6,139.58,18 / 20,4557714,2019-11-06 17:22:18:176,1.7271,-0.6532,10.4918,-0.0711,-0.0038,9.8064,0.2442,-0.0652,-0.1121,-16.37,-36.37,29.38,243.22,-87.8,94.23
30852,53.05856,-1.26275,213.89,30.23,6,139.58,18 / 20,4557814,2019-11-06 17:22:18:276,-0.3475,0.385,9.2369,-0.021,0.0156,9.8065,0.1163,-0.2254,-0.0431,-16.87,-36.31,29.0,246.93,-87.52,99.74
30853,53.05856,-1.26275,213.89,30.23,6,139.58,20 / 20,4557914,2019-11-06 17:22:18:376,-0.2465,-0.906,7.8676,0.065,-0.0303,9.8063,-0.0074,-0.4277,0.083,-16.06,-35.87,29.5,255.56,-87.27,106.42
30854,53.05856,-1.26275,213.89,30.23,6,139.58,20 / 20,4558014,2019-11-06 17:22:18:476,3.017,2.9886,11.709,0.0905,0.0062,9.8062,-0.1266,-0.563,0.3789,-15.5,-35.87,29.06,258.83,-86.79,109.64
30855,53.05856,-1.26275,213.89,30.23,6,139.58,20 / 20,4558114,2019-11-06 17:22:18:576,-4.3662,-2.2947,8.0425,0.083,0.0274,9.8062,-0.2175,-0.4661,0.4266,-15.37,-35.62,28.56,259.13,-86.87,109.85
30856,53.05856,-1.26275,213.89,30.23,6,139.58,20 / 20,4558213,2019-11-06 17:22:18:675,-1.3674,0.4922,8.3097,0.0917,0.0321,9.8061,-0.0029,-0.6054,0.434,-15.12,-35.44,28.38,260.47,-87.2,111.68
30857,53.05856,-1.26275,213.89,30.23,6,139.58,20 / 20,4558314,2019-11-06 17:22:18:776,-0.9721,-2.9174,12.3495,-0.0225,0.0709,9.8063,0.1075,-0.3538,0.2492,-14.62,-35.81,28.13,256.72,-87.07,108.11
30858,53.05856,-1.26275,213.89,30.23,6,139.58,20 / 20,4558413,2019-11-06 17:22:18:875,-2.3111,2.1608,7.3828,-0.0508,0.072,9.8062,0.3775,-0.1643,-0.1173,-14.56,-35.56,28.19,260.09,-87.07,111.53
30859,53.05856,-1.26275,213.89,30.23,6,139.58,20 / 20,4558513,2019-11-06 17:22:18:975,-2.1116,2.8735,8.7125,-0.0142,0.008,9.8066,0.3635,-0.1752,-0.1774,-14.37,-35.75,27.69,255.44,-86.97,105.36
30860,53.05856,-1.26275,213.89,30.23,6,139.58,20 / 20,4558614,2019-11-06 17:22:19:076,3.8913,-2.2107,11.88,0.0141,0.0171,9.8065,0.0131,-0.1729,0.0226,-14.12,-35.37,27.44,250.16,-86.8,101.0
30861,53.05856,-1.26275,213.89,30.23,6,139.58,20 / 20,4558714,2019-11-06 17:22:19:176,-5.2167,1.3885,9.0915,0.0548,0.0024,9.8064,-0.1549,-0.3082,0.1651,-14.44,-35.75,27.19,247.08,-86.85,97.89
30862,53.05856,-1.26275,213.89,30.23,6,139.58,20 / 20,4558814,2019-11-06 17:22:19:276,-3.7971,1.8804,8.558,0.0519,0.04,9.8064,-0.1482,-0.2289,0.2722,-14.87,-35.62,26.19,239.15,-87.27,91.92
30863,53.05856,-1.26275,213.89,30.23,6,139.58,21 / 22,4558914,2019-11-06 17:22:19:376,2.2374,-3.5589,11.0252,-0.0493,0.0552,9.8063,-0.129,-0.1542,0.2289,-14.5,-36.0,26.38,233.4,-87.16,84.45
30864,53.05856,-1.26275,213.89,30.23,6,139.58,21 / 22,4559013,2019-11-06 17:22:19:475,-2.4116,3.7132,8.6143,-0.0503,0.0476,9.8064,0.2974,-0.0548,-0.0298,-15.25,-36.12,26.75,235.89,-87.1,87.71
30865,53.05856,-1.26275,213.89,30.23,6,139.58,21 / 22,4559113,2019-11-06 17:22:19:575,-3.2517,2.6916,9.0889,0.0094,-0.0026,9.8066,0.2381,-0.0161,-0.1461,-16.31,-36.19,26.63,227.69,-87.13,80.74
30866,53.05856,-1.26275,213.89,30.23,6,139.58,21 / 22,4559213,2019-11-06 17:22:19:675,4.1716,-2.0675,11.6896,0.0128,0.0079,9.8065,0.2205,0.0204,-0.1651,-16.62,-35.5,25.56,221.38,-87.02,76.74
30867,53.05856,-1.26275,213.89,30.23,6,139.58,21 / 22,4559314,2019-11-06 17:22:19:776,-3.792,1.6328,8.1119,0.0594,-0.0047,9.8064,0.0661,0.0523,-0.1027,-16.62,-35.56,26.0,219.96,-86.97,75.35
30868,53.05856,-1.26275,213.89,30.23,6,139.58,21 / 22,4559414,2019-11-06 17:22:19:876,-3.6099,1.5755,8.7679,0.0505,-0.0043,9.8065,-0.1917,-0.0522,0.1529,-16.56,-36.25,25.88,211.59,-87.21,66.43
30869,53.05856,-1.26275,213.89,30.23,6,139.58,21 / 22,4559514,2019-11-06 17:22:19:976,2.0285,-1.18,11.5405,-0.0405,0.0276,9.8065,-0.139,-0.1238,0.1663,-16.69,-35.87,26.38,211.37,-87.13,66.25
30870,53.05856,-1.26275,213.89,30.23,6,139.58,21 / 22,4559614,2019-11-06 17:22:20:076,-0.9266,0.8004,9.2267,-0.0001,0.0047,9.8066,0.0172,-0.0825,0.1536,-16.31,-35.69,27.56,223.27,-87.1,75.19
30871,53.05856,-1.26275,213.89,30.23,6,139.58,21 / 22,4559714,2019-11-06 17:22:20:176,-0.4759,-0.2287,8.9253,0.0087,-0.0371,9.8065,0.1702,0.0006,-0.0136,-15.62,-35.19,27.56,233.67,-87.0,85.99
30872,53.05856,-1.26275,213.89,30.23,6,139.58,21 / 22,4559814,2019-11-06 17:22:20:276,0.3599,0.5169,10.9328,-0.0102,-0.033,9.8066,0.0657,0.1017,-0.0779,-16.19,-36.19,27.56,240.9,-87.19,93.36
30873,53.056625,-1.260289,213.01,30.23,6,146.83,19 / 20,4559914,2019-11-06 17:22:20:376,0.3226,-0.0714,7.9483,0.033,-0.0158,9.8065,0.0633,0.1291,-0.1069,-17.31,-35.5,27.13,241.23,-87.25,96.05
30874,53.056625,-1.260289,213.01,30.23,6,146.83,19 / 20,4560014,2019-11-06 17:22:20:476,-0.7084,1.6546,9.8748,0.0435,-0.031,9.8064,0.0171,0.1118,-0.1141,-17.44,-35.56,28.13,244.87,-87.38,98.72
30875,53.056625,-1.260289,213.01,30.23,6,146.83,19 / 20,4560114,2019-11-06 17:22:20:576,0.897,-2.2172,9.866,0.0321,0.0123,9.8066,-0.1246,0.1284,-0.0471,-17.44,-35.81,27.63,251.39,-87.08,105.67
30876,53.056625,-1.260289,213.01,30.23,6,146.83,19 / 20,4560213,2019-11-06 17:22:20:675,2.7347,-1.3864,10.0993,0.0118,-0.0026,9.8066,-0.0957,0.1387,0.0706,-17.19,-36.31,28.13,257.49,-86.7,112.28
30877,53.056625,-1.260289,213.01,30.23,6,146.83,19 / 20,4560313,2019-11-06 17:22:20:775,-1.3839,1.4494,10.5884,-0.0186,-0.0151,9.8065,-0.0661,0.0212,0.124,-17.44,-35.81,28.31,261.47,-86.59,116.43
30878,53.056625,-1.260289,213.01,30.23,6,146.83,19 / 20,4560413,2019-11-06 17:22:20:875,-0.0721,-2.3903,9.6367,-0.0378,-0.0219,9.8065,0.1141,0.0243,0.0087,-17.69,-35.12,28.56,264.53,-86.52,119.91
30879,53.056625,-1.260289,213.01,30.23,6,146.83,19 / 20,4560513,2019-11-06 17:22:20:975,-3.8736,-2.0504,8.5812,0.0524,-0.0161,9.8065,0.2199,0.0458,-0.1451,-17.62,-36.31,28.88,267.39,-86.47,122.94
30880,53.056625,-1.260289,213.01,30.23,6,146.83,19 / 20,4560613,2019-11-06 17:22:21:075,-0.3701,-0.2086,10.0164,-0.0092,-0.0247,9.8065,0.0632,-0.1068,-0.0894,-17.31,-36.31,29.25,264.61,-86.7,118.51
30881,53.056625,-1.260289,213.01,30.23,6,146.83,19 / 20,4560714,2019-11-06 17:22:21:176,1.4056,1.3968,9.6523,-0.0053,0.0057,9.8066,-0.0519,-0.2974,0.1354,-17.81,-36.19,29.19,262.83,-86.88,117.91
30882,53.056625,-1.260289,213.01,30.23,6,146.83,19 / 20,4560814,2019-11-06 17:22:21:276,-0.2038,0.3584,9.5319,-0.0467,-0.0105,9.8065,-0.1687,-0.3645,0.2773,-17.5,-36.31,29.25,264.91,-86.99,118.5
30883,53.056625,-1.260289,213.01,30.23,6,146.83,20 / 21,4560914,2019-11-06 17:22:21:376,-1.1019,0.5671,8.5771,-0.06,-0.0162,9.8064,-0.0742,-0.468,0.4085,-17.94,-35.87,29.94,265.11,-86.88,119.27
30884,53.056625,-1.260289,213.01,30.23,6,146.83,20 / 21,4561014,2019-11-06 17:22:21:476,-1.1199,-2.2933,11.739,-0.0868,-0.027,9.8062,-0.003,-0.4209,0.3432,-17.75,-35.69,30.0,263.16,-86.57,117.62
30885,53.056625,-1.260289,213.01,30.23,6,146.83,20 / 21,4561114,2019-11-06 17:22:21:576,0.1472,2.4653,8.9806,0.0011,-0.023,9.8065,0.1273,-0.3174,0.1104,-17.69,-35.5,28.88,262.08,-87.08,116.87
30886,53.056625,-1.260289,213.01,30.23,6,146.83,20 / 21,4561213,2019-11-06 17:22:21:675,-3.3788,0.1534,9.6354,-0.0153,-0.0135,9.8066,0.1604,-0.2843,0.0249,-17.25,-36.31,28.44,256.49,-87.44,110.48
30887,53.056625,-1.260289,213.01,30.23,6,146.83,20 / 21,4561313,2019-11-06 17:22:21:775,0.8607,-0.9215,9.7164,-0.0283,-0.0085,9.8065,0.0119,-0.0216,-0.0031,-17.0,-36.56,28.25,254.22,-87.71,107.97
30888,53.056625,-1.260289,213.01,30.23,6,146.83,20 / 21,4561414,2019-11-06 17:22:21:876,-2.627,-0.1269,9.2864,-0.0357,0.0083,9.8065,-0.0166,-0.1321,0.0956,-17.12,-35.94,29.19,249.13,-87.82,101.67
30889,53.056625,-1.260289,213.01,30.23,6,146.83,20 / 21,4561514,2019-11-06 17:22:21:976,-1.8981,0.2136,9.6177,-0.0326,0.0031,9.8065,-0.1428,-0.199,0.1462,-16.87,-36.06,28.94,247.53,-87.87,100.0
30890,53.056625,-1.260289,213.01,30.23,6,146.83,20 / 21,4561614,2019-11-06 17:22:22:076,-1.1203,-1.3742,10.1114,-0.0543,-0.0067,9.8065,-0.1153,-0.2886,0.214,-17.06,-36.37,29.19,247.06,-87.76,99.64
30891,53.056625,-1.260289,213.01,30.23,6,146.83,20 / 21,4561714,2019-11-06 17:22:22:176,0.7343,0.4487,8.5723,0.015,-0.024,9.8066,0.0328,-0.2576,0.1788,-16.44,-36.19,29.56,250.62,-87.87,100.81
30892,53.056625,-1.260289,213.01,30.23,6,146.83,20 / 21,4561814,2019-11-06 17:22:22:276,0.1757,0.2424,9.03,0.0097,-0.0323,9.8065,0.0894,-0.2385,0.0857,-16.12,-36.19,29.44,243.34,-87.94,94.21
