,GPS LATITUDE (degrees), GPS LONGITUDE (degrees), GPS ALTITUDE (m), GPS SPEED (Kmh), GPS ACCURACY (m), GPS ORIENTATION (Â°),GPS SATELLITES IN RANGE, TIME SINCE START (ms), DATE (YYYY-MO-DD HH-MI-SS_SSS), ACCELEROMETER X (m/s²) , ACCELEROMETER Y (m/s²), ACCELEROMETER Z (m/s²), GRAVITY X (m/s²), GRAVITY Y (m/s²), GRAVITY Z (m/s²), GYROSCOPE Yaw (rad/s), GYROSCOPE Pitch (rad/s), GYROSCOPE Roll (rad/s), MAGNETIC FIELD X (Î¼T), MAGNETIC FIELD Y (Î¼T), MAGNETIC FIELD Z (Î¼T), ORIENTATION (Yaw) (Â°), ORIENTATION (Pitch) (Â°), ORIENTATION (Roll ) (Â°)
3612,52.746853,-1.450363,185.03,25.96,6,36.83,24 / 24,361238,2019-11-08 10:03:18:849,0.0368,-0.2919,10.8741,0.0596,-0.0378,9.8063,0.0174,0.0154,0.0486,-21.75,-29.31,33.63,340.97,-81.16,-163.86
3613,52.746853,-1.450363,185.03,25.96,6,36.83,24 / 24,361338,2019-11-08 10:03:18:949,-0.4317,0.7412,9.8451,-0.0015,-0.0174,9.8065,-0.0049,-0.0987,0.0375,-21.94,-28.94,34.88,341.79,-81.04,-163.89
3614,52.746853,-1.450363,185.03,25.96,6,36.83,24 / 24,361438,2019-11-08 10:03:19:049,-0.535,-0.5792,10.3933,-0.0186,0.0152,9.8066,0.0408,-0.1086,0.0182,-22.06,-28.62,33.81,342.12,-81.03,-162.81
3615,52.746853,-1.450363,185.03,25.96,6,36.83,24 / 24,361538,2019-11-08 10:03:19:149,-0.2493,0.5041,9.4579,-0.0064,0.0252,9.8066,-0.0046,0.0278,-0.0033,-21.87,-28.25,32.81,341.94,-81.17,-162.24
3616,52.746853,-1.450363,185.03,25.96,6,36.83,24 / 24,361638,2019-11-08 10:03:19:249,-0.1157,1.0373,9.3584,-0.0204,-0.0002,9.8066,-0.0096,0.1121,-0.0462,-19.31,-29.31,32.44,345.57,-81.42,-161.91
3617,52.746853,-1.450363,185.03,25.96,6,36.83,24 / 24,361738,2019-11-08 10:03:19:349,-0.1196,0.0072,10.6968,0.0015,-0.0166,9.8065,0.0276,-0.0449,0.0252,-18.25,-27.94,35.44,350.22,-81.29,-161.41
3618,52.746853,-1.450363,185.03,25.96,6,36.83,24 / 24,361838,2019-11-08 10:03:19:449,-0.569,0.5611,9.3579,0.0111,-0.0247,9.8065,-0.0879,-0.0291,0.0731,-19.44,-27.44,33.13,346.98,-80.99,-161.5
3619,52.746853,-1.450363,185.03,25.96,6,36.83,24 / 24,361938,2019-11-08 10:03:19:549,1.025,0.3431,9.7593,0.0002,0.0231,9.8065,-0.0578,-0.034,0.0511,-22.37,-28.12,32.88,343.33,-81.14,-161.0
3620,52.746853,-1.450363,185.03,25.96,6,36.83,24 / 24,362039,2019-11-08 10:03:19:650,0.0009,0.2167,8.9149,0.0015,0.0068,9.8066,-0.0854,-0.1079,0.0669,-22.5,-30.31,30.5,341.22,-81.42,-161.05
3621,52.746853,-1.450363,185.03,25.96,6,36.83,24 / 24,362138,2019-11-08 10:03:19:749,-0.3974,0.8368,9.6255,-0.0048,-0.0094,9.8065,0.0709,-0.0738,0.016,-21.19,-29.5,35.13,346.28,-81.45,-161.17
3622,52.746853,-1.450363,185.03,25.96,6,36.83,24 / 24,362239,2019-11-08 10:03:19:850,0.5121,0.0862,10.6073,0.0229,-0.0067,9.8066,0.0906,-0.0682,-0.0355,-20.31,-28.0,31.0,344.14,-81.43,-161.09
3623,52.746853,-1.450363,185.03,25.96,6,36.83,24 / 24,362338,2019-11-08 10:03:19:949,-0.4961,0.3065,9.7691,0.0016,0.0084,9.8066,0.0803,0.0294,-0.0227,-23.0,-30.31,35.94,344.52,-81.32,-161.12
3624,52.746853,-1.450363,185.03,25.96,6,36.83,24 / 24,362439,2019-11-08 10:03:20:050,1.0035,0.3691,10.0315,-0.0068,-0.0056,9.8066,0.1482,0.0109,-0.0641,-25.12,-28.56,32.94,339.82,-81.21,-160.69
3625,52.746853,-1.450363,185.03,25.96,6,36.83,24 / 24,362538,2019-11-08 10:03:20:149,-0.2744,-0.9419,9.5567,-0.0166,-0.0001,9.8065,-0.0816,0.1397,-0.0433,-19.94,-28.69,35.38,348.38,-81.35,-160.5
3626,52.746853,-1.450363,185.03,25.96,6,36.83,24 / 24,362639,2019-11-08 10:03:20:250,1.7521,0.1538,9.4638,-0.0096,0.0012,9.8066,-0.0705,0.2151,-0.0791,-20.0,-26.56,34.56,349.72,-81.45,-159.41
3627,52.746853,-1.450363,185.03,25.96,6,36.83,24 / 24,362739,2019-11-08 10:03:20:350,-0.7923,-1.214,9.8384,-0.0121,-0.0109,9.8066,-0.051,0.0376,0.0482,-21.87,-26.06,35.69,348.02,-81.53,-159.35
3628,52.746853,-1.450363,185.03,25.96,6,36.83,24 / 24,362838,2019-11-08 10:03:20:449,-0.3493,-0.3313,9.2631,-0.0447,-0.0181,9.8064,-0.0918,-0.0184,0.1244,-24.62,-24.37,33.75,342.13,-81.54,-159.89
3629,52.746853,-1.450363,185.03,25.96,6,36.83,24 / 24,362938,2019-11-08 10:03:20:549,-1.9739,-2.0729,10.7329,-0.0204,-0.0141,9.8065,0.0945,-0.228,0.0908,-22.69,-26.94,30.56,342.19,-81.47,-159.23
3630,52.746853,-1.450363,185.03,25.96,6,36.83,24 / 24,363038,2019-11-08 10:03:20:649,-0.1273,-0.3461,10.3011,0.0026,-0.041,9.8065,0.0862,-0.3687,0.1093,-22.37,-28.94,32.44,344.41,-81.34,-159.18
3631,52.746853,-1.450363,185.03,25.96,6,36.83,24 / 24,363138,2019-11-08 10:03:20:749,2.6387,3.052,9.2895,0.0231,0.0249,9.8065,0.1226,-0.3743,0.1871,-21.87,-27.87,31.25,342.65,-81.27,-159.89
3632,52.746853,-1.450363,185.03,25.96,6,36.83,24 / 24,363238,2019-11-08 10:03:20:849,-0.5176,-0.3085,10.8488,0.0098,-0.0258,9.8065,0.0976,-0.2768,0.1809,-19.31,-30.37,33.88,349.0,-81.22,-160.39
3633,52.746853,-1.450363,185.03,25.96,6,36.83,24 / 24,363338,2019-11-08 10:03:20:949,3.4565,1.7681,9.2755,0.0429,0.0383,9.8064,-0.0395,0.0986,-0.0774,-19.5,-27.12,35.31,351.52,-81.23,-159.01
3634,52.746853,-1.450363,185.03,25.96,6,36.83,24 / 24,363438,2019-11-08 10:03:21:049,-3.4618,-1.6662,10.4019,0.0235,0.041,9.8065,-0.0905,0.2434,-0.1451,-20.87,-26.5,33.5,348.14,-81.14,-158.84
3635,52.746853,-1.450363,185.03,25.96,6,36.83,23 / 23,363539,2019-11-08 10:03:21:150,0.6964,1.1132,8.8501,-0.0058,0.0008,9.8066,-0.1733,0.5984,-0.2804,-23.25,-28.25,34.88,345.88,-81.26,-159.23
3636,52.746853,-1.450363,185.03,25.96,6,36.83,23 / 23,363639,2019-11-08 10:03:21:250,4.2526,1.8597,9.7672,0.023,0.0567,9.8064,-0.092,0.5304,-0.3074,-18.87,-25.37,34.56,351.17,-81.05,-159.37
3637,52.746853,-1.450363,185.03,25.96,6,36.83,23 / 23,363739,2019-11-08 10:03:21:350,-0.1073,0.5783,8.5824,-0.0441,-0.0269,9.8064,-0.1367,0.2863,-0.0905,-22.37,-26.56,31.5,342.87,-81.28,-160.66
3638,52.746853,-1.450363,185.03,25.96,6,36.83,23 / 23,363838,2019-11-08 10:03:21:449,3.2855,3.4594,9.1821,-0.0262,0.0043,9.8066,-0.0635,0.0639,0.0717,-22.37,-28.94,31.0,344.06,-81.34,-158.6
3639,52.746853,-1.450363,185.03,25.96,6,36.83,23 / 23,363938,2019-11-08 10:03:21:549,-2.1606,-1.5008,10.6002,-0.039,-0.069,9.8062,0.0477,-0.3868,0.2215,-21.25,-28.87,34.5,349.38,-81.54,-158.44
3640,52.746853,-1.450363,185.03,25.96,6,36.83,23 / 23,364038,2019-11-08 10:03:21:649,3.5717,3.2876,9.0641,-0.0327,-0.0477,9.8065,0.0385,-0.5105,0.3136,-20.5,-26.56,35.13,352.61,-81.25,-156.81
3641,52.746853,-1.450363,185.03,25.96,6,36.83,23 / 23,364138,2019-11-08 10:03:21:749,-0.7521,-1.4284,11.0447,0.0023,-0.0334,9.8065,0.1892,-0.5671,0.2909,-22.31,-25.62,34.5,348.71,-81.29,-157.94
3642,52.746853,-1.450363,185.03,25.96,6,36.83,23 / 23,364238,2019-11-08 10:03:21:849,-3.7057,-2.6446,10.047,-0.0169,-0.072,9.8063,0.1608,-0.3633,0.2314,-23.94,-29.69,30.69,341.22,-81.41,-158.73
3643,52.746853,-1.450363,185.03,25.96,6,36.83,23 / 23,364340,2019-11-08 10:03:21:951,0.6077,-0.509,10.6408,-0.0286,-0.0553,9.8064,0.0584,0.0787,-0.103,-22.69,-30.0,37.25,349.77,-81.02,-157.15
3644,52.746853,-1.450363,185.03,25.96,6,36.83,23 / 23,364439,2019-11-08 10:03:22:050,-4.4439,-2.6216,11.0847,0.0156,-0.0018,9.8066,-0.0006,0.2376,-0.2621,-22.19,-27.06,34.63,348.83,-81.05,-157.75
3645,52.746853,-1.450363,185.03,25.96,6,36.83,24 / 24,364539,2019-11-08 10:03:22:150,-0.2598,1.5008,9.5282,0.0322,0.0447,9.8064,-0.0901,0.5451,-0.2776,-22.5,-27.37,33.38,346.77,-80.9,-157.97
3646,52.746853,-1.450363,185.03,25.96,6,36.83,24 / 24,364638,2019-11-08 10:03:22:249,-4.7081,-2.2693,10.9849,0.0262,0.0473,9.8064,-0.1085,0.4999,-0.2596,-22.62,-27.0,34.56,345.27,-81.03,-159.78
3647,52.746853,-1.450363,185.03,25.96,6,36.83,24 / 24,364739,2019-11-08 10:03:22:350,-2.1242,-0.1249,9.3397,-0.0166,0.0143,9.8066,-0.1851,0.0917,-0.071,-22.69,-24.44,33.13,344.4,-80.82,-159.06
3648,52.746853,-1.450363,185.03,25.96,6,36.83,24 / 24,364838,2019-11-08 10:03:22:449,1.4497,4.0725,8.6116,0.0236,0.0032,9.8066,0.0999,-0.3357,0.2152,-22.19,-32.94,25.75,336.32,-80.78,-159.59
3649,52.746853,-1.450363,185.03,25.96,6,36.83,24 / 24,364938,2019-11-08 10:03:22:549,-0.7927,-0.684,7.4784,-0.0201,-0.0109,9.8065,0.0423,-0.2419,0.1121,-21.87,-42.75,32.38,341.81,-80.97,-160.36
3650,52.746853,-1.450363,185.03,25.96,6,36.83,24 / 24,365038,2019-11-08 10:03:22:649,0.5345,2.6377,8.8666,-0.054,0.0092,9.8064,0.0117,-0.1526,0.096,-22.0,-43.56,33.56,347.03,-81.26,-157.79
3651,52.746853,-1.450363,185.03,25.96,6,36.83,24 / 24,365138,2019-11-08 10:03:22:749,1.7881,2.0224,9.7775,-0.0043,-0.0082,9.8066,-0.0123,0.0356,-0.0047,-21.56,-43.12,34.5,347.26,-81.27,-158.45
3652,52.746853,-1.450363,185.03,25.96,6,36.83,24 / 24,365238,2019-11-08 10:03:22:849,2.1268,2.0477,9.1245,-0.0194,-0.0204,9.8066,-0.1411,0.1358,-0.0244,-22.19,-43.69,34.5,346.1,-80.97,-159.28
3653,52.746853,-1.450363,185.03,25.96,6,36.83,24 / 24,365339,2019-11-08 10:03:22:950,0.6472,3.2161,8.9923,-0.0217,0.0437,9.8065,-0.1744,0.336,-0.1521,-22.12,-43.69,34.0,345.73,-81.04,-158.8
3654,52.746853,-1.450363,185.03,25.96,6,36.83,24 / 24,365444,2019-11-08 10:03:23:055,-2.326,-1.8811,11.9123,0.0126,-0.0218,9.8065,-0.0148,0.4989,-0.2846,-22.19,-43.25,34.88,348.17,-81.31,-157.7
3655,52.746853,-1.450363,185.03,25.96,6,36.83,23 / 23,365539,2019-11-08 10:03:23:150,3.099,2.045,9.451,-0.0008,-0.0358,9.8065,0.0281,0.3098,-0.2287,-21.31,-43.06,34.94,348.52,-81.04,-158.51
3656,52.746853,-1.450363,185.03,25.96,6,36.83,23 / 23,365639,2019-11-08 10:03:23:250,-1.2647,-0.0076,9.5046,0.0185,0.0488,9.8064,-0.0202,-0.06,-0.0123,-20.94,-43.69,34.94,345.36,-81.29,-161.15
3657,52.746853,-1.450363,185.03,25.96,6,36.83,23 / 23,365739,2019-11-08 10:03:23:350,-0.9378,-1.8275,8.8108,-0.0325,0.0137,9.8065,-0.0326,-0.1743,0.1022,-21.81,-44.31,34.31,344.34,-81.55,-160.12
3658,52.746853,-1.450363,185.03,25.96,6,36.83,23 / 23,365839,2019-11-08 10:03:23:450,-1.6472,0.3834,8.6859,-0.0258,0.0376,9.8065,-0.0008,-0.2939,0.1964,-21.37,-44.06,34.56,348.88,-81.66,-158.31
3659,52.746853,-1.450363,185.03,25.96,6,36.83,23 / 23,365939,2019-11-08 10:03:23:550,-2.1482,-0.784,10.4069,0.004,-0.0141,9.8066,0.0558,-0.1867,0.0642,-21.56,-43.69,34.56,348.32,-81.96,-157.69
3660,52.746853,-1.450363,185.03,25.96,6,36.83,23 / 23,366038,2019-11-08 10:03:23:649,0.5777,-0.1439,11.9552,0.023,-0.0239,9.8065,-0.0358,-0.0122,0.007,-21.37,-43.5,34.38,346.18,-81.8,-159.88
3661,52.746853,-1.450363,185.03,25.96,6,36.83,23 / 23,366139,2019-11-08 10:03:23:750,0.0351,-0.7472,11.7827,0.0202,-0.0159,9.8066,0.0446,0.0833,0.0128,-21.69,-44.0,35.38,343.6,-81.82,-161.64
3662,52.746853,-1.450363,185.03,25.96,6,36.83,23 / 23,366239,2019-11-08 10:03:23:850,0.0762,-0.4547,11.5898,-0.0195,-0.0075,9.8066,0.015,0.1899,-0.2002,-21.56,-44.06,34.88,342.75,-81.76,-162.33
3663,52.746853,-1.450363,185.03,25.96,6,36.83,23 / 23,366339,2019-11-08 10:03:23:950,0.3353,0.4891,8.8166,-0.0498,0.0014,9.8065,-0.0279,0.0415,0.0125,-21.87,-44.31,34.38,342.94,-81.66,-161.33
3664,52.746853,-1.450363,185.03,25.96,6,36.83,23 / 23,366438,2019-11-08 10:03:24:049,-0.3068,-0.5405,8.8138,-0.0177,0.0065,9.8066,-0.0298,-0.001,0.1159,-22.06,-43.31,34.94,348.08,-81.68,-157.86
3665,52.746853,-1.450363,185.03,25.96,6,36.83,24 / 24,366538,2019-11-08 10:03:24:149,-1.3649,-0.4237,9.5871,-0.0195,-0.0106,9.8066,-0.0444,-0.0851,-0.0308,-21.37,-43.25,35.31,352.25,-81.64,-155.52
3666,52.746853,-1.450363,185.03,25.96,6,36.83,24 / 24,366638,2019-11-08 10:03:24:249,-0.3481,0.1325,10.2556,0.0036,-0.0275,9.8066,-0.0577,0.089,-0.0096,-22.69,-43.75,34.81,349.03,-81.42,-155.83
3667,52.746853,-1.450363,185.03,25.96,6,36.83,24 / 24,366739,2019-11-08 10:03:24:350,-0.214,-0.243,11.25,0.0171,-0.0166,9.8066,-0.0183,0.0907,-0.031,-21.81,-43.31,34.94,349.27,-81.29,-156.78
3668,52.746853,-1.450363,185.03,25.96,6,36.83,24 / 24,366839,2019-11-08 10:03:24:450,-0.1,-0.1141,10.4352,0.004,-0.0186,9.8065,-0.0737,0.0181,-0.0314,-21.81,-43.37,35.13,348.67,-81.2,-157.26
3669,52.746853,-1.450363,185.03,25.96,6,36.83,24 / 24,366938,2019-11-08 10:03:24:549,-0.7414,-0.2474,9.641,0.0037,-0.0112,9.8066,-0.0505,-0.0492,0.0462,-21.62,-43.37,35.0,348.59,-81.08,-157.29
3670,52.746853,-1.450363,185.03,25.96,6,36.83,24 / 24,367039,2019-11-08 10:03:24:650,-0.6201,-1.13,10.2029,0.025,0.0029,9.8066,0.0287,-0.0238,-0.0048,-21.25,-43.37,35.13,349.1,-81.08,-158.04
3671,52.746853,-1.450363,185.03,25.96,6,36.83,24 / 24,367139,2019-11-08 10:03:24:750,-0.629,-0.2003,9.9996,0.0147,0.0018,9.8066,0.0406,-0.1598,-0.0325,-21.75,-43.37,35.25,346.32,-81.13,-159.19
3672,52.746853,-1.450363,185.03,25.96,6,36.83,24 / 24,367239,2019-11-08 10:03:24:850,1.0601,0.3824,8.8673,0.0123,0.0279,9.8065,-0.0098,-0.0154,0.0154,-21.87,-43.5,35.5,345.16,-81.3,-160.99
3673,52.746853,-1.450363,185.03,25.96,6,36.83,24 / 24,367340,2019-11-08 10:03:24:951,0.1526,0.3204,9.8532,0.0145,-0.017,9.8066,0.0053,-0.0428,-0.009,-21.5,-44.0,34.88,345.24,-81.37,-161.28
3674,52.746853,-1.450363,185.03,25.96,6,36.83,24 / 24,367438,2019-11-08 10:03:25:049,1.0683,0.4247,9.3046,-0.004,-0.0135,9.8066,-0.0569,0.1514,-0.0526,-21.62,-43.62,34.63,343.4,-81.19,-161.59
3675,52.746853,-1.450363,185.03,25.96,6,36.83,24 / 24,367539,2019-11-08 10:03:25:150,1.0383,0.9871,10.0278,0.0231,-0.0045,9.8066,-0.0796,0.1317,0.0215,-21.19,-43.69,35.0,345.41,-81.18,-161.08
3676,52.746853,-1.450363,185.03,25.96,6,36.83,24 / 24,367639,2019-11-08 10:03:25:250,0.2016,0.1249,10.0508,-0.0055,-0.013,9.8066,0.0113,-0.0162,-0.0381,-21.06,-44.31,35.25,345.27,-81.06,-161.16
3677,52.746853,-1.450363,185.03,25.96,6,36.83,24 / 24,367740,2019-11-08 10:03:25:351,0.4773,0.9552,9.1943,0.0053,0.0159,9.8065,0.0477,-0.1034,0.0403,-21.56,-43.06,35.0,343.45,-80.99,-161.55
3678,52.746853,-1.450363,185.03,25.96,6,36.83,24 / 24,367839,2019-11-08 10:03:25:450,-0.2876,0.592,10.1034,0.0024,0.0171,9.8066,0.0719,-0.0858,0.0214,-21.0,-43.62,34.88,344.28,-80.94,-161.93
3679,52.746853,-1.450363,185.03,25.96,6,36.83,24 / 24,367939,2019-11-08 10:03:25:550,0.4838,1.0077,9.6752,-0.0293,0.0013,9.8066,0.1284,-0.1144,-0.0823,-20.5,-43.25,34.44,343.05,-80.9,-163.4
3680,52.746853,-1.450363,185.03,25.96,6,36.83,24 / 24,368039,2019-11-08 10:03:25:650,0.7798,0.2862,9.8324,0.0224,0.013,9.8066,0.0047,0.0239,0.0044,-21.12,-43.69,35.13,341.76,-80.9,-164.0
3681,52.746853,-1.450363,185.03,25.96,6,36.83,24 / 24,368139,2019-11-08 10:03:25:750,0.199,-0.0941,10.2379,0.0092,-0.0077,9.8065,-0.09,0.1877,0.0269,-21.06,-44.06,34.88,342.52,-80.93,-163.38
3682,52.746853,-1.450363,185.03,25.96,6,36.83,24 / 24,368239,2019-11-08 10:03:25:850,0.4378,-0.4374,10.2359,-0.0078,-0.0146,9.8066,0.0264,0.0629,-0.0639,-21.0,-43.69,34.75,342.58,-80.91,-163.32
3683,52.746853,-1.450363,185.03,25.96,6,36.83,24 / 24,368339,2019-11-08 10:03:25:950,0.7259,-0.0863,9.9761,0.0124,0.0049,9.8066,0.0215,0.0597,0.0368,-21.56,-44.19,34.81,341.12,-80.93,-163.39
3684,52.746853,-1.450363,185.03,25.96,6,36.83,24 / 24,368438,2019-11-08 10:03:26:049,0.7367,0.7116,9.9083,-0.0188,-0.0141,9.8066,0.0403,0.0523,-0.0475,-21.12,-44.06,34.31,341.91,-80.89,-163.07
3685,52.74849,-1.448274,186.84,25.2,6,36.38,24 / 24,368539,2019-11-08 10:03:26:150,-0.093,0.0018,9.5059,-0.0209,-0.0058,9.8065,0.0405,-0.0701,-0.0564,-21.62,-43.37,34.56,341.62,-81.01,-163.08
3686,52.74849,-1.448274,186.84,25.2,6,36.38,24 / 24,368638,2019-11-08 10:03:26:249,0.6103,-1.0159,10.5186,0.0068,-0.0176,9.8066,-0.0165,0.0342,0.0748,-21.87,-43.81,34.69,342.26,-81.09,-162.5
3687,52.74849,-1.448274,186.84,25.2,6,36.38,24 / 24,368738,2019-11-08 10:03:26:349,-0.2234,-0.0894,10.3556,0.0297,-0.0134,9.8066,0.0092,0.0468,-0.0715,-21.37,-43.75,34.44,342.58,-81.0,-162.56
3688,52.74849,-1.448274,186.84,25.2,6,36.38,24 / 24,368838,2019-11-08 10:03:26:449,0.4621,0.1363,10.7941,0.0173,-0.0071,9.8066,0.001,0.1036,-0.0332,-20.75,-43.31,34.31,341.71,-80.8,-163.27
3689,52.74849,-1.448274,186.84,25.2,6,36.38,24 / 24,368938,2019-11-08 10:03:26:549,-0.9647,-1.1912,9.4683,0.0159,-0.0049,9.8066,0.0837,0.1047,-0.0843,-21.31,-43.69,33.88,341.05,-80.7,-163.7
3690,52.74849,-1.448274,186.84,25.2,6,36.38,24 / 24,369038,2019-11-08 10:03:26:649,-1.3401,1.2303,10.3154,0.0227,-0.0073,9.8066,0.1145,-0.064,-0.0955,-21.94,-44.06,34.5,341.45,-80.59,-162.99
3691,52.74849,-1.448274,186.84,25.2,6,36.38,24 / 24,369138,2019-11-08 10:03:26:749,-0.1992,-0.3029,10.9628,-0.0047,0.0195,9.8065,0.0789,-0.0633,-0.0167,-21.94,-43.62,34.69,340.01,-80.45,-164.12
3692,52.74849,-1.448274,186.84,25.2,6,36.38,24 / 24,369238,2019-11-08 10:03:26:849,0.0971,-1.5253,9.5764,-0.0048,-0.0023,9.8066,0.067,-0.0224,-0.0293,-21.75,-44.12,33.88,338.71,-80.27,-164.27
3693,52.74849,-1.448274,186.84,25.2,6,36.38,24 / 24,369338,2019-11-08 10:03:26:949,-1.5006,-0.3004,10.8272,-0.0345,-0.0368,9.8065,-0.0015,0.129,-0.0544,-21.12,-43.62,34.31,339.12,-80.14,-165.04
3694,52.74849,-1.448274,186.84,25.2,6,36.38,24 / 24,369438,2019-11-08 10:03:27:049,-0.433,1.1405,9.6214,-0.0101,0.0048,9.8066,-0.0319,-0.0434,0.124,-21.31,-44.19,34.63,339.63,-79.9,-165.34
3695,52.74849,-1.448274,186.84,25.2,6,36.38,24 / 24,369539,2019-11-08 10:03:27:150,0.3097,-0.3583,10.0645,0.0034,0.0065,9.8065,-0.1474,-0.0462,-0.0231,-22.0,-43.62,34.5,337.67,-79.89,-165.79
3696,52.74849,-1.448274,186.84,25.2,6,36.38,24 / 24,369638,2019-11-08 10:03:27:249,-0.831,-0.2357,9.979,-0.0161,-0.0081,9.8066,-0.1226,-0.0254,0.0754,-22.69,-43.25,35.25,335.98,-80.04,-166.23
3697,52.74849,-1.448274,186.84,25.2,6,36.38,24 / 24,369738,2019-11-08 10:03:27:349,0.1449,-0.3455,9.5479,0.0132,-0.0084,9.8066,0.019,0.1108,0.0688,-22.25,-43.31,35.88,339.49,-80.18,-165.31
3698,52.74849,-1.448274,186.84,25.2,6,36.38,24 / 24,369839,2019-11-08 10:03:27:450,0.2913,-0.1865,9.7341,0.0127,-0.0007,9.8066,0.0548,-0.0841,-0.0241,-21.69,-43.12,34.56,339.23,-79.98,-164.64
3699,52.74849,-1.448274,186.84,25.2,6,36.38,24 / 24,369938,2019-11-08 10:03:27:549,-0.5553,-1.221,10.8527,-0.0078,-0.0016,9.8066,0.0291,-0.0618,0.0142,-22.0,-43.69,34.44,337.53,-79.87,-165.05
3700,52.74849,-1.448274,186.84,25.2,6,36.38,24 / 24,370039,2019-11-08 10:03:27:650,-0.2264,-1.7431,10.3709,-0.0016,0.0049,9.8066,0.0985,-0.1771,0.1225,-21.87,-43.37,34.94,337.82,-79.73,-165.69
3701,52.74849,-1.448274,186.84,25.2,6,36.38,24 / 24,370139,2019-11-08 10:03:27:750,-0.5402,-0.7511,10.1846,0.0072,0.0261,9.8066,-0.0245,-0.189,0.1439,-22.25,-43.44,34.88,337.82,-79.9,-165.76
3702,52.74849,-1.448274,186.84,25.2,6,36.38,24 / 24,370238,2019-11-08 10:03:27:849,0.8767,0.0194,10.3038,0.0319,-0.0004,9.8066,0.0321,0.0384,-0.0606,-21.94,-43.62,34.56,339.27,-79.94,-164.5
3703,52.74849,-1.448274,186.84,25.2,6,36.38,24 / 24,370339,2019-11-08 10:03:27:950,2.0781,0.5433,9.5878,0.0068,0.0115,9.8066,0.0541,-0.0616,0.0593,-21.87,-43.12,34.25,337.28,-79.87,-165.35
3704,52.74849,-1.448274,186.84,25.2,6,36.38,24 / 24,370438,2019-11-08 10:03:28:049,-0.2921,0.0987,10.0849,-0.0102,0.0031,9.8066,-0.063,0.0881,0.016,-22.25,-42.75,34.56,339.2,-79.96,-164.66
3705,52.74849,-1.448274,186.84,25.2,6,36.38,23 / 23,370539,2019-11-08 10:03:28:150,-0.0094,1.0068,8.3844,-0.0121,-0.0056,9.8065,-0.0869,0.1049,0.0043,-22.25,-42.37,33.88,339.72,-80.12,-163.55
3706,52.74849,-1.448274,186.84,25.2,6,36.38,23 / 23,370639,2019-11-08 10:03:28:250,-1.4687,0.3602,9.457,0.0341,0.036,9.8065,-0.0825,0.0144,-0.1148,-22.06,-42.81,34.06,339.73,-80.23,-163.51
3707,52.74849,-1.448274,186.84,25.2,6,36.38,23 / 23,370738,2019-11-08 10:03:28:349,-1.1456,1.2893,9.9215,0.0069,0.0118,9.8066,-0.0105,-0.0104,-0.0604,-21.12,-44.62,34.19,336.43,-80.31,-167.21
3708,52.74849,-1.448274,186.84,25.2,6,36.38,23 / 23,370838,2019-11-08 10:03:28:449,-1.3925,0.9852,9.7908,-0.0297,-0.0107,9.8065,0.0327,0.0646,-0.0414,-22.31,-44.81,33.19,331.55,-80.27,-169.15
3709,52.74849,-1.448274,186.84,25.2,6,36.38,23 / 23,370938,2019-11-08 10:03:28:549,1.163,0.0317,10.597,0.015,0.0063,9.8066,0.0158,-0.0929,0.0317,-21.94,-41.31,31.69,331.5,-80.28,-168.75
3710,52.74849,-1.448274,186.84,25.2,6,36.38,23 / 23,371038,2019-11-08 10:03:28:649,-0.1779,0.4093,9.5815,-0.0268,-0.0006,9.8065,-0.016,0.0877,0.0219,-22.0,-36.25,36.06,335.07,-80.4,-169.74
3711,52.74849,-1.448274,186.84,25.2,6,36.38,23 / 23,371138,2019-11-08 10:03:28:749,0.3113,0.3638,9.8255,-0.0385,-0.0091,9.8065,0.001,0.0253,0.0171,-21.37,-38.62,41.81,346.15,-80.55,-165.24
3712,52.74849,-1.448274,186.84,25.2,6,36.38,23 / 23,371238,2019-11-08 10:03:28:849,0.2673,-0.9107,11.251,0.0361,-0.0294,9.8065,0.0351,0.0009,-0.0887,-20.81,-43.75,41.25,344.78,-80.47,-165.51
3713,52.74849,-1.448274,186.84,25.2,6,36.38,23 / 23,371338,2019-11-08 10:03:28:949,1.1031,0.0697,10.3928,-0.0088,-0.0254,9.8066,0.0143,0.1238,-0.0167,-20.94,-45.62,36.56,339.04,-80.45,-167.43
3714,52.74849,-1.448274,186.84,25.2,6,36.38,23 / 23,371439,2019-11-08 10:03:29:050,-0.3998,-0.5961,10.9881,0.0176,-0.019,9.8066,-0.0461,0.0402,-0.1122,-21.5,-44.62,34.88,341.04,-80.31,-164.28
3715,52.74849,-1.448274,186.84,25.2,6,36.38,21 / 24,371539,2019-11-08 10:03:29:150,-1.0891,0.0452,9.9537,0.0308,-0.0031,9.8065,0.0105,0.0794,-0.1569,-21.44,-43.69,34.56,337.85,-80.17,-166.91
3716,52.74849,-1.448274,186.84,25.2,6,36.38,21 / 24,371638,2019-11-08 10:03:29:249,0.3342,1.6248,8.5386,0.0022,0.0201,9.8066,-0.0724,-0.076,0.0676,-21.31,-43.75,34.81,336.83,-80.22,-167.77
3717,52.74849,-1.448274,186.84,25.2,6,36.38,21 / 24,371739,2019-11-08 10:03:29:350,0.2435,0.4523,9.4637,0.0069,0.0311,9.8065,0.0016,-0.0734,-0.0291,-20.75,-43.87,33.88,334.28,-80.46,-169.15
3718,52.74849,-1.448274,186.84,25.2,6,36.38,21 / 24,371838,2019-11-08 10:03:29:449,-0.4214,0.1647,8.6207,-0.0061,0.0068,9.8066,-0.0048,-0.0498,0.0099,-21.06,-43.56,34.31,335.14,-80.57,-168.5
3719,52.74849,-1.448274,186.84,25.2,6,36.38,21 / 24,371938,2019-11-08 10:03:29:549,-1.095,-0.6891,10.2963,-0.0176,-0.0079,9.8066,-0.0608,-0.0315,0.0116,-21.25,-44.19,34.19,335.41,-80.55,-168.27
3720,52.74849,-1.448274,186.84,25.2,6,36.38,21 / 24,372038,2019-11-08 10:03:29:649,-0.8446,-0.2104,9.7213,-0.016,-0.024,9.8066,-0.0189,0.1647,-0.0324,-21.56,-43.94,34.75,336.51,-80.61,-167.07
3721,52.74849,-1.448274,186.84,25.2,6,36.38,21 / 24,372139,2019-11-08 10:03:29:750,-0.0082,1.863,9.8182,0.0098,-0.006,9.8066,-0.0296,0.1399,-0.0459,-21.31,-44.0,33.81,338.25,-80.63,-165.97
3722,52.74849,-1.448274,186.84,25.2,6,36.38,21 / 24,372238,2019-11-08 10:03:29:849,-1.7231,-0.4569,10.5562,0.0144,-0.0061,9.8066,-0.0006,0.2557,-0.1816,-21.19,-44.31,34.63,339.88,-80.59,-165.43
3723,52.74849,-1.448274,186.84,25.2,6,36.38,21 / 24,372338,2019-11-08 10:03:29:949,-0.8827,2.0302,9.807,-0.0021,0.0213,9.8066,-0.0331,-0.0014,-0.0197,-21.31,-43.69,34.31,337.69,-80.49,-166.36
3724,52.74849,-1.448274,186.84,25.2,6,36.38,21 / 24,372439,2019-11-08 10:03:30:050,1.4028,0.8477,9.7107,0.0414,0.021,9.8064,0.0273,0.0028,0.0805,-21.37,-44.0,34.13,335.54,-80.64,-168.21
3725,52.74849,-1.448274,186.84,25.2,6,36.38,21 / 24,372538,2019-11-08 10:03:30:149,1.8688,1.0953,8.2515,-0.0008,0.006,9.8066,0.0754,-0.1976,0.0428,-21.19,-43.5,34.75,337.89,-80.73,-167.22
3726,52.74849,-1.448274,186.84,25.2,6,36.38,21 / 24,372638,2019-11-08 10:03:30:249,1.0597,1.7412,9.5075,-0.0152,0.0215,9.8065,0.0197,-0.3087,0.2293,-21.37,-43.75,34.56,338.6,-80.75,-166.56
3727,52.74849,-1.448274,186.84,25.2,6,36.38,21 / 24,372739,2019-11-08 10:03:30:350,-1.3859,-2.3459,11.4614,0.0059,-0.0421,9.8065,0.0557,-0.2143,0.1732,-21.06,-43.75,34.81,338.71,-81.04,-166.59
3728,52.74849,-1.448274,186.84,25.2,6,36.38,21 / 24,372839,2019-11-08 10:03:30:450,0.6916,0.9842,8.6431,-0.0361,-0.0085,9.8066,0.1149,0.0401,-0.08,-20.87,-43.81,34.44,339.67,-81.14,-165.02
3729,52.74849,-1.448274,186.84,25.2,6,36.38,21 / 24,372938,2019-11-08 10:03:30:549,-0.9573,0.5258,9.3762,0.0009,0.02,9.8065,0.046,0.4501,-0.0962,-20.62,-44.75,34.69,340.53,-81.31,-165.11
3730,52.74849,-1.448274,186.84,25.2,6,36.38,21 / 24,373038,2019-11-08 10:03:30:649,-1.6053,-0.5071,11.4116,-0.0192,-0.0055,9.8066,-0.01,0.1538,-0.1825,-20.62,-44.31,34.44,341.1,-81.26,-163.88
3731,52.74849,-1.448274,186.84,25.2,6,36.38,21 / 24,373138,2019-11-08 10:03:30:749,1.5342,0.7885,9.2219,0.0146,-0.026,9.8066,-0.0489,0.1957,-0.0288,-21.5,-44.06,34.19,339.35,-81.15,-165.29
3732,52.74849,-1.448274,186.84,25.2,6,36.38,21 / 24,373238,2019-11-08 10:03:30:849,-2.0139,-1.694,9.6742,0.0322,0.019,9.8065,-0.0364,-0.1194,0.0729,-21.06,-44.0,35.06,340.45,-81.2,-165.21
3733,52.74849,-1.448274,186.84,25.2,6,36.38,21 / 24,373339,2019-11-08 10:03:30:950,0.5801,0.4431,9.3833,0.0096,0.0108,9.8066,0.0395,-0.2188,0.0906,-20.81,-44.19,34.94,339.82,-81.43,-165.83
3734,52.74849,-1.448274,186.84,25.2,6,36.38,21 / 24,373438,2019-11-08 10:03:31:049,1.4075,1.0444,9.1161,-0.0001,0.0179,9.8066,0.0371,-0.2155,0.1637,-21.37,-44.19,34.5,339.42,-81.51,-166.2
3735,52.74849,-1.448274,186.84,25.2,6,36.38,20 / 23,373542,2019-11-08 10:03:31:153,-1.9025,1.0918,10.0585,0.0097,0.0173,9.8065,0.0103,-0.1141,0.1051,-20.94,-44.06,34.31,338.99,-81.44,-165.72
3736,52.74849,-1.448274,186.84,25.2,6,36.38,20 / 23,373639,2019-11-08 10:03:31:250,-2.2308,3.5248,8.1013,0.0151,-0.0335,9.8065,-0.1394,0.0058,-0.0229,-20.69,-43.69,34.69,338.95,-81.24,-166.48
3737,52.74849,-1.448274,186.84,25.2,6,36.38,20 / 23,373739,2019-11-08 10:03:31:350,-1.4671,2.5866,11.8855,0.028,-0.0615,9.8064,-0.2032,-0.0145,0.1184,-20.81,-43.94,34.38,336.93,-81.32,-167.39
3738,52.74849,-1.448274,186.84,25.2,6,36.38,20 / 23,373838,2019-11-08 10:03:31:449,1.5402,-0.8056,8.4344,0.0268,-0.0186,9.8066,-0.0251,0.099,-0.0031,-21.06,-43.94,34.69,339.37,-81.02,-166.03
3739,52.74849,-1.448274,186.84,25.2,6,36.38,20 / 23,373938,2019-11-08 10:03:31:549,-0.7226,0.229,10.3905,0.0025,-0.0186,9.8066,-0.0297,0.0133,-0.109,-21.12,-43.44,34.88,338.97,-80.84,-166.37
3740,52.74849,-1.448274,186.84,25.2,6,36.38,20 / 23,374038,2019-11-08 10:03:31:649,0.1578,0.1635,9.8213,-0.0061,-0.0081,9.8066,0.0105,0.015,-0.0607,-21.37,-43.56,34.81,338.33,-80.68,-166.74
3741,52.74849,-1.448274,186.84,25.2,6,36.38,20 / 23,374139,2019-11-08 10:03:31:750,-1.3452,1.1395,9.555,0.0097,-0.0011,9.8066,0.0323,0.0333,-0.0324,-20.81,-44.25,34.69,337.87,-80.68,-167.13
3742,52.74849,-1.448274,186.84,25.2,6,36.38,20 / 23,374238,2019-11-08 10:03:31:849,-0.0411,0.6091,10.0124,0.0023,0.0001,9.8065,-0.0148,0.0303,-0.0769,-21.44,-44.06,34.75,337.78,-80.67,-167.2
3743,52.74849,-1.448274,186.84,25.2,6,36.38,20 / 23,374339,2019-11-08 10:03:31:950,-0.5184,0.3766,9.5132,0.0004,-0.0118,9.8065,-0.0456,0.0478,-0.0199,-20.87,-43.81,35.13,337.07,-80.66,-167.78
3744,52.74849,-1.448274,186.84,25.2,6,36.38,20 / 23,374439,2019-11-08 10:03:32:050,0.6388,0.5631,9.1637,-0.0054,-0.0161,9.8066,-0.0838,0.1441,-0.0753,-20.87,-43.87,34.69,337.3,-80.63,-167.58
3745,52.74849,-1.448274,186.84,25.2,6,36.38,21 / 23,374539,2019-11-08 10:03:32:150,0.0168,1.6643,9.563,0.0057,-0.0018,9.8066,-0.0495,0.1296,-0.0715,-21.44,-43.19,34.75,337.6,-80.6,-167.4
3746,52.74849,-1.448274,186.84,25.2,6,36.38,21 / 23,374639,2019-11-08 10:03:32:250,-0.3567,-0.0017,9.4778,0.0093,-0.0097,9.8066,-0.053,-0.1153,0.1405,-21.56,-43.44,34.5,336.36,-80.53,-167.25
3747,52.74849,-1.448274,186.84,25.2,6,36.38,21 / 23,374738,2019-11-08 10:03:32:349,0.6557,1.2282,9.3487,-0.011,0.0112,9.8066,-0.0069,-0.081,0.0938,-21.75,-43.87,34.56,337.71,-80.5,-166.03
3748,52.74849,-1.448274,186.84,25.2,6,36.38,21 / 23,374838,2019-11-08 10:03:32:449,0.3536,0.3358,9.4988,0.0071,0.023,9.8066,0.0374,-0.1488,0.0799,-21.81,-43.69,35.38,338.03,-80.63,-165.83
3749,52.74849,-1.448274,186.84,25.2,6,36.38,21 / 23,374938,2019-11-08 10:03:32:549,0.2517,1.0642,9.4009,0.0179,0.0144,9.8065,0.0109,0.0276,-0.0247,-20.75,-43.75,34.56,339.52,-80.62,-165.74
3750,52.74849,-1.448274,186.84,25.2,6,36.38,21 / 23,375038,2019-11-08 10:03:32:649,0.2551,-0.0819,9.7393,0.007,0.0132,9.8066,-0.0092,0.0038,-0.0733,-21.37,-43.56,35.38,338.14,-80.66,-166.89
3751,52.74849,-1.448274,186.84,25.2,6,36.38,21 / 23,375138,2019-11-08 10:03:32:749,0.1116,-0.0605,10.437,0.0189,-0.0024,9.8066,-0.0336,0.1235,0.0298,-20.62,-43.81,34.63,337.77,-80.85,-167.29
3752,52.74849,-1.448274,186.84,25.2,6,36.38,21 / 23,375238,2019-11-08 10:03:32:849,0.7904,0.4473,10.1063,-0.001,-0.0024,9.8066,-0.0043,0.1334,-0.0385,-20.44,-44.12,35.13,338.75,-80.81,-167.63
3753,52.74849,-1.448274,186.84,25.2,6,36.38,21 / 23,375339,2019-11-08 10:03:32:950,0.4225,-0.8477,10.6222,-0.0065,-0.0057,9.8066,-0.0469,0.0165,-0.0803,-20.56,-43.44,36.25,337.37,-80.89,-168.51
3754,52.74849,-1.448274,186.84,25.2,6,36.38,21 / 23,375439,2019-11-08 10:03:33:050,-1.3269,-0.505,10.163,0.0039,-0.002,9.8066,0.0016,-0.1286,0.1144,-21.5,-44.62,36.19,337.82,-81.05,-168.04
3755,52.74849,-1.448274,186.84,25.2,6,36.38,21 / 22,375545,2019-11-08 10:03:33:156,-0.3192,-1.3132,9.8418,-0.0233,-0.0042,9.8066,-0.0284,0.1458,-0.111,-20.69,-44.31,37.56,341.33,-81.17,-166.68
3756,52.74849,-1.448274,186.84,25.2,6,36.38,21 / 22,375638,2019-11-08 10:03:33:249,1.4863,0.9092,9.2119,-0.019,0.0202,9.8065,-0.077,0.1685,-0.1207,-21.06,-46.0,37.69,342.78,-81.31,-165.39
3757,52.74849,-1.448274,186.84,25.2,6,36.38,21 / 22,375738,2019-11-08 10:03:33:349,0.1464,0.1951,9.9826,-0.0095,0.0003,9.8066,-0.0443,0.0706,0.0451,-21.0,-47.62,37.06,343.51,-81.26,-163.94
3758,52.74849,-1.448274,186.84,25.2,6,36.38,21 / 22,375838,2019-11-08 10:03:33:449,0.6902,1.845,9.6377,-0.0098,-0.0047,9.8066,-0.0339,0.0233,-0.0303,-20.0,-47.75,31.69,340.87,-81.31,-163.3
3759,52.74849,-1.448274,186.84,25.2,6,36.38,21 / 22,375939,2019-11-08 10:03:33:550,1.0403,2.3069,10.3904,0.0053,0.0059,9.8066,0.1116,-0.1454,0.0571,-17.37,-39.75,24.5,336.6,-81.35,-164.41
3760,52.74849,-1.448274,186.84,25.2,6,36.38,21 / 22,376039,2019-11-08 10:03:33:650,0.592,2.2687,10.5462,0.0196,-0.0034,9.8066,0.0495,0.0183,-0.022,-14.5,-27.06,25.38,340.25,-81.36,-167.55
3761,52.74849,-1.448274,186.84,25.2,6,36.38,21 / 22,376139,2019-11-08 10:03:33:750,1.2321,-1.1917,9.6909,-0.0157,0.0052,9.8066,0.0628,-0.1844,0.1517,-12.75,-22.56,40.75,353.93,-80.97,-167.89
3762,52.74849,-1.448274,186.84,25.2,6,36.38,21 / 22,376239,2019-11-08 10:03:33:850,-1.6841,-1.7502,8.7027,-0.0413,0.0117,9.8065,-0.0423,-0.2102,0.1924,-14.44,-35.25,44.56,357.89,-81.1,-164.56
3763,52.74849,-1.448274,186.84,25.2,6,36.38,21 / 22,376338,2019-11-08 10:03:33:949,1.0418,1.278,8.7418,0.0169,0.0338,9.8065,-0.143,0.029,0.18,-19.19,-47.0,37.0,348.62,-81.1,-162.09
3764,52.74849,-1.448274,186.84,25.2,6,36.38,21 / 22,376438,2019-11-08 10:03:34:049,-1.2627,0.503,9.805,-0.0074,-0.0003,9.8066,-0.054,0.1004,0.048,-21.62,-49.31,30.13,335.66,-81.11,-163.0
3765,52.74849,-1.448274,186.84,25.2,6,36.38,21 / 22,376538,2019-11-08 10:03:34:149,1.6173,1.0953,9.7992,0.0131,0.0168,9.8065,-0.0542,0.1532,-0.1349,-23.94,-47.69,29.44,330.09,-80.99,-164.26
3766,52.74849,-1.448274,186.84,25.2,6,36.38,21 / 22,376639,2019-11-08 10:03:34:250,1.1398,0.7669,9.9202,-0.0028,-0.0059,9.8066,0.0063,0.1299,0.0432,-24.56,-46.06,32.13,332.69,-80.94,-164.31
3767,52.74849,-1.448274,186.84,25.2,6,36.38,21 / 22,376739,2019-11-08 10:03:34:350,-1.2316,0.572,9.5659,-0.0234,-0.0266,9.8065,0.0401,-0.0753,-0.0938,-23.37,-44.69,33.38,337.32,-81.05,-163.71
3768,52.74849,-1.448274,186.84,25.2,6,36.38,21 / 22,376838,2019-11-08 10:03:34:449,-0.3544,-0.3539,9.8523,0.0083,0.0057,9.8065,-0.0191,-0.0386,-0.0803,-22.37,-44.31,33.5,342.55,-80.93,-161.39
3769,52.74849,-1.448274,186.84,25.2,6,36.38,21 / 22,376938,2019-11-08 10:03:34:549,0.0414,-0.2086,9.3509,-0.0053,0.0028,9.8066,-0.0004,0.0886,0.1048,-22.5,-44.31,33.81,343.08,-80.84,-160.92
3770,52.74849,-1.448274,186.84,25.2,6,36.38,21 / 22,377038,2019-11-08 10:03:34:649,0.2186,0.7092,9.1295,0.0,0.0159,9.8066,-0.0308,0.0807,-0.041,-21.81,-43.62,34.44,342.55,-80.99,-161.42
3771,52.74849,-1.448274,186.84,25.2,6,36.38,21 / 22,377138,2019-11-08 10:03:34:749,0.4445,-0.0857,9.5934,0.0049,0.0267,9.8065,-0.087,0.072,-0.0557,-21.25,-43.56,34.44,343.86,-80.93,-161.48
3772,52.74849,-1.448274,186.84,25.2,6,36.38,21 / 22,377238,2019-11-08 10:03:34:849,-0.5835,1.3362,8.9959,-0.005,-0.0126,9.8066,-0.0119,0.0035,0.0821,-21.5,-43.94,34.25,343.28,-81.0,-161.98
3773,52.74849,-1.448274,186.84,25.2,6,36.38,21 / 22,377339,2019-11-08 10:03:34:950,-0.071,-1.1319,10.8518,0.0346,0.0109,9.8065,0.1357,-0.0216,-0.079,-22.19,-43.87,33.63,340.92,-81.1,-162.8
3774,52.74849,-1.448274,186.84,25.2,6,36.38,21 / 22,377438,2019-11-08 10:03:35:049,-0.3775,0.7108,9.2878,0.0111,-0.0053,9.8066,0.0823,-0.1488,-0.0862,-22.12,-43.87,34.19,342.86,-81.09,-161.2
3775,52.750126,-1.446277,188.87,24.9,4,35.49,22 / 24,377538,2019-11-08 10:03:35:149,-2.1549,-0.0125,9.9235,-0.0154,-0.0141,9.8066,0.0301,-0.0924,0.1759,-22.31,-43.87,34.06,343.37,-81.0,-160.74
3776,52.750126,-1.446277,188.87,24.9,4,35.49,22 / 24,377639,2019-11-08 10:03:35:250,-0.4176,-0.3503,10.7967,-0.0084,-0.0105,9.8066,-0.0009,-0.035,0.0788,-22.12,-43.56,34.13,344.19,-80.86,-160.02
3777,52.750126,-1.446277,188.87,24.9,4,35.49,22 / 24,377738,2019-11-08 10:03:35:349,0.6309,-0.0215,9.9446,-0.0021,0.0041,9.8066,0.0293,0.0075,0.0314,-21.75,-43.94,34.31,345.12,-80.8,-159.23
3778,52.750126,-1.446277,188.87,24.9,4,35.49,22 / 24,377838,2019-11-08 10:03:35:449,-0.3656,0.3467,10.2508,-0.0248,-0.0055,9.8065,0.0046,-0.0138,0.1186,-22.19,-43.62,34.06,346.25,-80.87,-158.32
3779,52.750126,-1.446277,188.87,24.9,4,35.49,22 / 24,377938,2019-11-08 10:03:35:549,2.6322,-0.2124,11.3686,0.0558,-0.0169,9.8064,0.1647,0.1355,-0.2457,-22.12,-43.31,34.5,348.93,-80.99,-156.99
3780,52.750126,-1.446277,188.87,24.9,4,35.49,22 / 24,378039,2019-11-08 10:03:35:650,-1.9684,-0.3092,10.1208,0.0111,0.0039,9.8066,-0.0664,0.1657,-0.101,-22.06,-43.12,33.94,348.59,-80.89,-156.46
3781,52.750126,-1.446277,188.87,24.9,4,35.49,22 / 24,378138,2019-11-08 10:03:35:749,0.439,1.7593,9.0209,-0.0149,0.0102,9.8066,-0.1165,0.2246,0.0676,-22.25,-44.06,34.69,346.03,-80.63,-159.24
3782,52.750126,-1.446277,188.87,24.9,4,35.49,22 / 24,378238,2019-11-08 10:03:35:849,-0.1241,0.1909,10.7423,0.0155,0.0248,9.8065,-0.1149,0.0988,0.0371,-22.06,-44.12,33.69,344.02,-80.65,-160.08
3783,52.750126,-1.446277,188.87,24.9,4,35.49,22 / 24,378339,2019-11-08 10:03:35:950,-0.273,-1.4257,9.6929,-0.0096,-0.004,9.8066,0.0013,-0.0506,0.0309,-21.75,-44.44,34.44,345.31,-80.68,-159.04
3784,52.750126,-1.446277,188.87,24.9,4,35.49,22 / 24,378439,2019-11-08 10:03:36:050,-0.4588,-1.2676,9.8049,0.0226,0.0074,9.8066,-0.0101,-0.1353,0.0796,-21.87,-43.81,34.81,345.73,-80.68,-159.5
3785,52.750126,-1.446277,188.87,24.9,4,35.49,21 / 24,378539,2019-11-08 10:03:36:150,-0.0585,-0.786,10.3438,0.0263,-0.015,9.8066,0.0685,-0.0871,-0.0261,-21.81,-43.75,34.69,345.27,-80.63,-159.86
3786,52.750126,-1.446277,188.87,24.9,4,35.49,21 / 24,378638,2019-11-08 10:03:36:249,-0.0412,-0.2111,10.1993,-0.0034,-0.0145,9.8066,-0.0022,-0.0848,0.0587,-22.19,-43.56,34.25,343.27,-80.54,-160.66
3787,52.750126,-1.446277,188.87,24.9,4,35.49,21 / 24,378738,2019-11-08 10:03:36:349,-0.319,0.8624,10.0597,0.001,-0.0074,9.8066,0.0331,0.0531,0.0307,-21.94,-43.31,35.38,342.61,-80.43,-162.04
3788,52.750126,-1.446277,188.87,24.9,4,35.49,21 / 24,378839,2019-11-08 10:03:36:450,1.177,0.4485,9.4604,0.0201,-0.0278,9.8066,-0.0617,0.2109,-0.1758,-21.87,-43.56,35.0,341.17,-80.21,-163.07
3789,52.750126,-1.446277,188.87,24.9,4,35.49,21 / 24,378939,2019-11-08 10:03:36:550,1.2862,0.5223,9.9062,0.0103,0.0073,9.8066,-0.0256,0.1878,-0.1228,-21.81,-44.25,35.06,340.84,-80.22,-163.34
3790,52.750126,-1.446277,188.87,24.9,4,35.49,21 / 24,379040,2019-11-08 10:03:36:651,-0.2385,0.0705,9.0126,0.0083,0.0099,9.8066,0.0138,0.018,-0.0111,-22.5,-43.75,34.56,340.26,-80.29,-163.85
3791,52.750126,-1.446277,188.87,24.9,4,35.49,21 / 24,379139,2019-11-08 10:03:36:750,-0.0702,0.6711,9.4447,0.0233,-0.0016,9.8066,0.0711,-0.0188,-0.0483,-21.75,-44.12,34.38,339.71,-80.35,-163.49
3792,52.750126,-1.446277,188.87,24.9,4,35.49,21 / 24,379238,2019-11-08 10:03:36:849,1.5524,-0.7207,9.4251,0.0023,-0.0007,9.8066,0.021,0.012,0.0109,-22.0,-44.12,34.56,339.74,-80.28,-164.27
3793,52.750126,-1.446277,188.87,24.9,4,35.49,21 / 24,379338,2019-11-08 10:03:36:949,1.376,1.0114,10.2235,0.0243,0.0121,9.8065,0.0076,0.2207,-0.086,-21.87,-43.75,35.19,338.94,-80.14,-164.86
3794,52.750126,-1.446277,188.87,24.9,4,35.49,21 / 24,379438,2019-11-08 10:03:37:049,1.5687,1.1492,9.8569,-0.0128,0.0005,9.8066,0.0155,0.1549,-0.1866,-21.25,-43.75,34.31,339.18,-80.2,-165.01
3795,52.750126,-1.446277,188.87,24.9,4,35.49,21 / 22,379540,2019-11-08 10:03:37:151,1.4428,1.2952,8.9778,-0.0258,-0.0003,9.8065,0.0258,0.2193,-0.1147,-21.44,-44.56,35.0,339.63,-80.29,-165.42
3796,52.750126,-1.446277,188.87,24.9,4,35.49,21 / 22,379638,2019-11-08 10:03:37:249,-0.085,-0.1626,10.3353,0.0126,0.0321,9.8066,-0.0275,0.0051,-0.0448,-20.75,-43.81,35.0,337.97,-80.43,-166.93
3797,52.750126,-1.446277,188.87,24.9,4,35.49,21 / 22,379738,2019-11-08 10:03:37:349,1.7282,1.6064,9.345,0.0013,0.0266,9.8065,0.0247,-0.1001,-0.0175,-20.87,-44.37,34.94,336.56,-80.37,-168.05
3798,52.750126,-1.446277,188.87,24.9,4,35.49,21 / 22,379838,2019-11-08 10:03:37:449,0.8124,1.6202,8.7791,0.0081,0.0175,9.8066,-0.0278,-0.1787,0.2337,-20.87,-44.0,34.44,334.59,-80.43,-168.88
3799,52.750126,-1.446277,188.87,24.9,4,35.49,21 / 22,379938,2019-11-08 10:03:37:549,-0.7888,-0.1135,10.1296,-0.0097,-0.0156,9.8066,0.033,-0.0963,0.1666,-21.25,-43.69,34.69,336.58,-80.6,-168.15
3800,52.750126,-1.446277,188.87,24.9,4,35.49,21 / 22,380038,2019-11-08 10:03:37:649,2.0383,0.3952,9.5186,-0.0204,-0.0134,9.8066,0.0084,0.0113,-0.0388,-21.37,-44.31,34.25,337.74,-80.56,-166.35
3801,52.750126,-1.446277,188.87,24.9,4,35.49,21 / 22,380138,2019-11-08 10:03:37:749,-0.2426,-0.4981,9.8975,-0.0134,-0.0067,9.8066,-0.0008,0.1506,-0.009,-21.12,-44.5,35.13,338.91,-80.64,-166.24
3802,52.750126,-1.446277,188.87,24.9,4,35.49,21 / 22,380238,2019-11-08 10:03:37:849,-0.4602,-0.6185,10.0302,-0.0079,-0.0196,9.8066,-0.0121,0.1804,-0.1262,-21.06,-44.44,34.44,339.03,-80.58,-165.31
3803,52.750126,-1.446277,188.87,24.9,4,35.49,21 / 22,380338,2019-11-08 10:03:37:949,-0.0507,0.2277,10.0908,-0.0002,0.0086,9.8066,-0.0072,0.1856,-0.0709,-21.37,-43.87,34.44,339.24,-80.59,-165.14
3804,52.750126,-1.446277,188.87,24.9,4,35.49,21 / 22,380438,2019-11-08 10:03:38:049,-1.0183,-1.6401,10.8664,-0.0022,-0.0105,9.8066,0.109,-0.0907,-0.0114,-21.75,-43.69,35.56,339.9,-80.52,-165.03
3805,52.750126,-1.446277,188.87,24.9,4,35.49,22 / 24,380539,2019-11-08 10:03:38:150,0.8078,-1.2357,10.366,-0.0046,0.0195,9.8065,0.0842,-0.1978,0.0232,-21.31,-43.75,34.31,338.86,-80.34,-165.34
3806,52.750126,-1.446277,188.87,24.9,4,35.49,22 / 24,380639,2019-11-08 10:03:38:250,-0.5262,-1.2964,10.297,-0.007,0.0155,9.8066,0.0456,-0.1516,0.041,-21.87,-44.31,34.75,338.34,-80.44,-165.49
3807,52.750126,-1.446277,188.87,24.9,4,35.49,22 / 24,380738,2019-11-08 10:03:38:349,-0.0161,-0.651,10.1472,-0.0014,-0.0088,9.8066,-0.006,-0.1285,0.0738,-21.37,-44.12,34.88,339.45,-80.39,-165.69
3808,52.750126,-1.446277,188.87,24.9,4,35.49,22 / 24,380838,2019-11-08 10:03:38:449,1.4561,0.037,9.5037,0.013,0.0038,9.8065,-0.0387,0.0475,0.0171,-21.19,-43.75,34.19,339.24,-80.39,-165.05
3809,52.750126,-1.446277,188.87,24.9,4,35.49,22 / 24,380938,2019-11-08 10:03:38:549,-1.4207,-0.6555,11.0424,-0.0015,-0.0174,9.8066,-0.083,0.1303,-0.0228,-21.5,-44.06,35.25,340.33,-80.44,-164.99
3810,52.750126,-1.446277,188.87,24.9,4,35.49,22 / 24,381039,2019-11-08 10:03:38:650,1.4853,0.3792,9.9012,0.005,-0.0372,9.8065,-0.0296,0.2327,-0.1655,-21.12,-44.19,33.88,339.15,-80.25,-165.06
3811,52.750126,-1.446277,188.87,24.9,4,35.49,22 / 24,381139,2019-11-08 10:03:38:750,1.123,1.2038,9.9975,0.0027,0.0006,9.8066,0.0254,0.0724,-0.0244,-21.62,-44.62,34.94,337.78,-80.1,-165.7
3812,52.750126,-1.446277,188.87,24.9,4,35.49,22 / 24,381239,2019-11-08 10:03:38:850,-0.5634,-0.2662,9.7072,-0.0046,-0.0152,9.8066,0.0165,-0.1812,0.1163,-21.62,-44.44,34.19,337.06,-80.05,-165.51
3813,52.750126,-1.446277,188.87,24.9,4,35.49,22 / 24,381338,2019-11-08 10:03:38:949,1.5499,0.3685,9.538,0.0087,0.0141,9.8066,-0.0094,-0.1641,0.0812,-22.0,-44.19,34.31,338.36,-80.05,-164.46
3814,52.750126,-1.446277,188.87,24.9,4,35.49,22 / 24,381439,2019-11-08 10:03:39:050,0.5219,1.6305,9.6949,0.0076,0.027,9.8066,0.0722,-0.1019,-0.0096,-21.94,-44.12,34.69,338.42,-80.11,-165.27
3815,52.750126,-1.446277,188.87,24.9,4,35.49,22 / 23,381539,2019-11-08 10:03:39:150,1.0442,0.1388,9.6849,-0.0116,-0.0041,9.8065,-0.0011,0.1296,-0.1807,-21.5,-43.44,34.56,339.25,-80.04,-165.79
3816,52.750126,-1.446277,188.87,24.9,4,35.49,22 / 23,381638,2019-11-08 10:03:39:249,3.062,2.2978,9.1772,-0.0009,0.0323,9.8065,0.0251,0.3677,-0.2944,-21.44,-44.25,34.25,337.59,-80.3,-166.36
3817,52.750126,-1.446277,188.87,24.9,4,35.49,22 / 23,381738,2019-11-08 10:03:39:349,-1.4072,-0.9801,9.4884,-0.0159,-0.0337,9.8065,-0.0536,0.4039,-0.2067,-20.87,-44.37,34.63,337.75,-80.45,-167.12
3818,52.750126,-1.446277,188.87,24.9,4,35.49,22 / 23,381838,2019-11-08 10:03:39:449,2.9107,3.6669,9.6957,-0.0141,-0.0322,9.8065,-0.0212,0.3496,-0.21,-21.75,-44.69,34.81,336.12,-80.49,-167.25
3819,52.750126,-1.446277,188.87,24.9,4,35.49,22 / 23,381938,2019-11-08 10:03:39:549,-0.4836,-1.1588,10.7539,-0.0019,-0.0353,9.8066,0.0499,-0.0982,0.0799,-21.44,-43.87,35.06,337.56,-80.35,-167.23
3820,52.750126,-1.446277,188.87,24.9,4,35.49,22 / 23,382038,2019-11-08 10:03:39:649,-3.0502,-2.1804,9.9483,-0.0448,-0.0488,9.8064,0.0054,-0.2481,0.2676,-21.44,-43.94,34.75,339.86,-80.06,-165.22
3821,52.750126,-1.446277,188.87,24.9,4,35.49,22 / 23,382138,2019-11-08 10:03:39:749,-2.0719,-0.408,9.1347,0.0002,0.0245,9.8066,0.0511,-0.5191,0.3097,-21.56,-43.87,34.0,337.98,-79.95,-164.72
3822,52.750126,-1.446277,188.87,24.9,4,35.49,22 / 23,382238,2019-11-08 10:03:39:849,-2.9417,-3.8712,11.0545,-0.0014,-0.007,9.8065,0.195,-0.5094,0.2935,-21.44,-43.75,34.63,340.24,-79.91,-164.85
3823,52.750126,-1.446277,188.87,24.9,4,35.49,22 / 23,382338,2019-11-08 10:03:39:949,2.3977,-0.7699,8.8449,-0.0223,0.0688,9.8064,-0.0017,-0.2598,0.0087,-22.19,-43.87,34.5,338.54,-79.98,-165.12
3824,52.750126,-1.446277,188.87,24.9,4,35.49,22 / 23,382439,2019-11-08 10:03:40:050,-2.913,-2.5622,10.1782,0.03,0.0577,9.8063,-0.0303,0.0856,0.0263,-21.69,-44.19,34.19,340.23,-80.23,-163.02
3825,52.750126,-1.446277,188.87,24.9,4,35.49,22 / 23,382538,2019-11-08 10:03:40:149,1.0597,0.3241,9.7602,-0.013,0.0083,9.8065,-0.1435,0.3768,-0.2202,-21.5,-44.06,34.56,342.35,-80.47,-163.35
3826,52.750126,-1.446277,188.87,24.9,4,35.49,22 / 23,382638,2019-11-08 10:03:40:249,3.5279,2.9271,8.9997,0.0079,0.0474,9.8065,-0.1363,0.5157,-0.3007,-21.94,-44.25,34.44,340.72,-80.71,-162.82
3827,52.750126,-1.446277,188.87,24.9,4,35.49,22 / 23,382739,2019-11-08 10:03:40:350,-3.2645,-2.1359,11.1387,-0.0036,-0.0483,9.8064,-0.0264,0.4315,-0.2055,-21.75,-43.81,34.69,342.37,-80.72,-162.28
3828,52.750126,-1.446277,188.87,24.9,4,35.49,22 / 23,382839,2019-11-08 10:03:40:450,1.8955,1.6699,9.2113,0.0026,-0.013,9.8066,-0.0561,0.314,-0.1657,-21.37,-44.56,34.31,341.87,-80.62,-162.92
3829,52.750126,-1.446277,188.87,24.9,4,35.49,22 / 23,382938,2019-11-08 10:03:40:549,-3.1131,-1.7627,9.586,-0.028,-0.0286,9.8065,-0.051,-0.0299,0.0383,-21.5,-44.25,34.19,340.79,-80.65,-163.89
3830,52.750126,-1.446277,188.87,24.9,4,35.49,22 / 23,383038,2019-11-08 10:03:40:649,-0.4053,-0.2259,9.6768,-0.0309,-0.0436,9.8064,0.0668,-0.1924,0.1868,-21.37,-44.25,34.13,342.54,-80.61,-162.45
3831,52.750126,-1.446277,188.87,24.9,4,35.49,22 / 23,383138,2019-11-08 10:03:40:749,-3.4951,-1.6984,10.4682,-0.0054,0.0,9.8066,0.0301,-0.5851,0.2513,-21.62,-44.06,34.19,340.18,-80.86,-163.33
3832,52.750126,-1.446277,188.87,24.9,4,35.49,22 / 23,383238,2019-11-08 10:03:40:849,-0.9904,-1.8069,11.0458,-0.0158,-0.0397,9.8066,0.0634,-0.5656,0.2934,-21.25,-43.69,34.44,340.83,-80.95,-163.98
3833,52.750126,-1.446277,188.87,24.9,4,35.49,22 / 23,383339,2019-11-08 10:03:40:950,4.8081,2.2502,9.8371,0.0178,0.0346,9.8066,0.1221,-0.3142,0.1845,-21.19,-43.69,34.56,341.96,-80.7,-163.76
3834,52.750126,-1.446277,188.87,24.9,4,35.49,22 / 23,383438,2019-11-08 10:03:41:049,0.2276,0.2258,10.8206,0.0046,-0.0023,9.8066,0.108,-0.1763,0.0005,-21.56,-44.06,34.31,339.23,-80.88,-164.12
3835,52.750126,-1.446277,188.87,24.9,4,35.49,22 / 23,383539,2019-11-08 10:03:41:150,-1.6664,-0.5934,9.3973,0.0203,0.0557,9.8064,-0.0195,0.2717,-0.136,-21.81,-44.25,34.31,341.01,-80.87,-162.64
3836,52.750126,-1.446277,188.87,24.9,4,35.49,22 / 23,383638,2019-11-08 10:03:41:249,-3.0604,-2.8198,10.8329,0.022,0.0323,9.8066,-0.0456,0.3844,-0.2241,-21.81,-43.75,34.69,342.96,-80.94,-161.87
3837,52.750126,-1.446277,188.87,24.9,4,35.49,22 / 23,383738,2019-11-08 10:03:41:349,1.6935,0.6288,9.7994,0.0202,0.0139,9.8066,-0.0363,0.6204,-0.3541,-21.25,-43.94,34.94,343.53,-80.89,-162.54
3838,52.750126,-1.446277,188.87,24.9,4,35.49,22 / 23,383838,2019-11-08 10:03:41:449,3.8215,2.608,9.6492,0.0512,0.055,9.8063,-0.0646,0.5195,-0.3503,-21.75,-43.94,34.69,338.92,-80.92,-165.21
3839,52.750126,-1.446277,188.87,24.9,4,35.49,22 / 23,383938,2019-11-08 10:03:41:549,0.1878,1.2998,8.6662,-0.0193,-0.0233,9.8065,-0.0555,0.1358,-0.0612,-21.5,-43.87,34.81,339.73,-80.86,-165.66
3840,52.750126,-1.446277,188.87,24.9,4,35.49,22 / 23,384039,2019-11-08 10:03:41:650,3.8371,2.4471,8.7458,-0.0033,0.0162,9.8065,-0.056,-0.0591,0.1176,-21.56,-44.69,34.63,338.46,-80.98,-165.55
3841,52.750126,-1.446277,188.87,24.9,4,35.49,22 / 23,384139,2019-11-08 10:03:41:750,-2.459,-1.0358,9.5465,-0.0388,-0.0432,9.8064,-0.0175,-0.4148,0.2447,-21.25,-43.81,34.63,339.2,-81.18,-166.24
3842,52.750126,-1.446277,188.87,24.9,4,35.49,22 / 23,384238,2019-11-08 10:03:41:849,3.7611,3.0041,9.0385,-0.0317,-0.0346,9.8064,0.051,-0.4889,0.3451,-21.12,-44.0,33.69,338.31,-81.2,-166.19
3843,52.750126,-1.446277,188.87,24.9,4,35.49,22 / 23,384338,2019-11-08 10:03:41:949,-2.3689,-1.5956,11.0928,-0.0342,-0.0591,9.8064,0.1061,-0.5391,0.3603,-21.25,-43.31,34.38,339.48,-81.11,-165.24
3844,52.750126,-1.446277,188.87,24.9,4,35.49,22 / 23,384441,2019-11-08 10:03:42:052,-1.9099,-1.9399,11.102,-0.0503,-0.0623,9.8063,0.0661,-0.4573,0.2483,-21.44,-44.12,34.88,344.13,-80.68,-161.97
3845,52.750126,-1.446277,188.87,24.9,4,35.49,24 / 24,384538,2019-11-08 10:03:42:149,-3.2828,-1.2297,11.0289,0.006,-0.0091,9.8066,0.1118,-0.1166,0.0779,-21.62,-43.62,33.94,341.65,-80.64,-162.03
3846,52.750126,-1.446277,188.87,24.9,4,35.49,24 / 24,384638,2019-11-08 10:03:42:249,-2.2192,-1.3025,10.2947,-0.0094,-0.0341,9.8065,0.0257,0.0259,-0.0802,-21.19,-43.5,35.0,343.92,-80.47,-162.14
3847,52.750126,-1.446277,188.87,24.9,4,35.49,24 / 24,384738,2019-11-08 10:03:42:349,3.0722,1.543,8.7356,-0.0281,-0.0319,9.8065,0.0038,0.2446,-0.2223,-20.87,-43.5,34.5,343.57,-80.58,-162.45
3848,52.750126,-1.446277,188.87,24.9,4,35.49,24 / 24,384838,2019-11-08 10:03:42:449,-1.9702,-0.3882,9.376,0.0163,-0.0017,9.8066,0.0008,0.4533,-0.2715,-20.69,-43.56,35.25,342.66,-80.81,-163.22
3849,52.750126,-1.446277,188.87,24.9,4,35.49,24 / 24,384939,2019-11-08 10:03:42:550,3.7468,2.1569,9.7715,-0.02,-0.024,9.8065,0.0138,0.4108,-0.3503,-20.94,-43.75,34.81,342.85,-80.78,-163.05
3850,52.750126,-1.446277,188.87,24.9,4,35.49,24 / 24,385038,2019-11-08 10:03:42:649,0.1402,-0.8532,10.0791,0.0247,0.0131,9.8066,-0.0384,0.3383,-0.2508,-20.25,-43.5,35.31,342.84,-80.82,-164.32
3851,52.750126,-1.446277,188.87,24.9,4,35.49,24 / 24,385138,2019-11-08 10:03:42:749,1.6188,2.0825,8.7811,-0.0189,-0.0009,9.8066,-0.0574,0.2326,-0.1485,-20.81,-43.37,34.94,343.41,-80.92,-162.71
3852,52.750126,-1.446277,188.87,24.9,4,35.49,24 / 24,385238,2019-11-08 10:03:42:849,-2.1764,-0.7561,10.2835,0.0232,0.0335,9.8065,-0.0216,0.1222,-0.0224,-20.5,-43.37,35.06,343.8,-81.04,-163.61
3853,52.750126,-1.446277,188.87,24.9,4,35.49,24 / 24,385338,2019-11-08 10:03:42:949,-1.149,-1.7006,10.4756,0.0151,0.0159,9.8066,0.0136,0.0417,0.0109,-20.0,-43.69,34.94,343.54,-81.09,-163.78
3854,52.750126,-1.446277,188.87,24.9,4,35.49,24 / 24,385438,2019-11-08 10:03:43:049,-2.9484,-0.926,10.6713,0.0337,0.0471,9.8064,0.0242,-0.2491,0.1863,-20.12,-43.44,34.31,342.97,-80.99,-163.5
3855,52.750126,-1.446277,188.87,24.9,4,35.49,24 / 24,385538,2019-11-08 10:03:43:149,-0.436,-1.1073,9.7531,0.0357,0.0374,9.8065,0.0761,-0.3437,0.2042,-20.44,-43.62,34.44,340.17,-81.12,-165.79
3856,52.750126,-1.446277,188.87,24.9,4,35.49,24 / 24,385638,2019-11-08 10:03:43:249,3.5259,1.1692,10.014,0.0026,0.0229,9.8066,-0.0684,-0.3412,0.311,-19.69,-43.56,35.5,342.51,-81.15,-165.41
3857,52.750126,-1.446277,188.87,24.9,4,35.49,24 / 24,385739,2019-11-08 10:03:43:350,0.5415,0.2595,9.1439,-0.021,-0.0315,9.8065,0.0841,-0.338,0.2908,-20.12,-43.44,34.94,341.84,-81.27,-165.32
3858,52.750126,-1.446277,188.87,24.9,4,35.49,24 / 24,385839,2019-11-08 10:03:43:450,2.6019,1.3928,9.5942,-0.0117,0.0159,9.8066,0.0941,-0.3478,0.1717,-20.25,-43.94,34.56,343.38,-81.18,-163.94
3859,52.750126,-1.446277,188.87,24.9,4,35.49,24 / 24,385939,2019-11-08 10:03:43:550,-2.0175,-1.107,10.1548,0.0198,0.0267,9.8066,0.031,-0.2332,0.1179,-20.0,-44.12,34.06,342.41,-81.27,-164.0
3860,52.750126,-1.446277,188.87,24.9,4,35.49,24 / 24,386039,2019-11-08 10:03:43:650,1.2561,-0.2696,10.526,-0.025,-0.0031,9.8066,-0.0232,-0.2536,0.2224,-20.0,-43.37,34.31,343.61,-81.2,-163.05
3861,52.750126,-1.446277,188.87,24.9,4,35.49,24 / 24,386138,2019-11-08 10:03:43:749,-4.0128,-2.355,10.1862,-0.0468,-0.0338,9.8065,-0.0613,-0.1719,0.1594,-20.37,-43.25,34.13,341.59,-81.16,-164.7
3862,52.750126,-1.446277,188.87,24.9,4,35.49,24 / 24,386238,2019-11-08 10:03:43:849,1.3656,-0.5074,10.4152,-0.0087,-0.0583,9.8064,-0.0683,0.163,-0.0875,-19.75,-43.25,34.25,341.96,-81.23,-164.43
3863,52.750126,-1.446277,188.87,24.9,4,35.49,24 / 24,386338,2019-11-08 10:03:43:949,-3.5012,-2.9952,10.9398,0.0041,-0.0453,9.8064,-0.0373,0.3531,-0.1456,-20.31,-43.37,34.44,342.36,-81.17,-164.06
3864,52.750126,-1.446277,188.87,24.9,4,35.49,24 / 24,386438,2019-11-08 10:03:44:049,0.1373,1.3823,8.9022,-0.0491,-0.0556,9.8063,-0.0552,0.4938,-0.3652,-20.44,-44.12,34.13,344.19,-80.96,-162.42
3865,52.75181,-1.444291,191.17,26.8,4,35.26,24 / 24,386539,2019-11-08 10:03:44:150,3.5482,1.6038,9.7459,0.0121,0.0085,9.8066,-0.0413,0.5069,-0.2634,-20.31,-43.75,33.75,344.0,-81.15,-162.64
3866,52.75181,-1.444291,191.17,26.8,4,35.26,24 / 24,386639,2019-11-08 10:03:44:250,-0.3149,2.0392,8.8207,-0.0349,-0.0162,9.8065,-0.095,0.2542,-0.2192,-20.69,-43.69,33.44,343.14,-81.27,-161.37
3867,52.75181,-1.444291,191.17,26.8,4,35.26,24 / 24,386738,2019-11-08 10:03:44:349,2.1824,2.1777,9.9516,0.0286,0.0239,9.8066,-0.1285,0.2699,-0.0911,-20.44,-43.5,33.38,343.71,-81.3,-162.18
3868,52.75181,-1.444291,191.17,26.8,4,35.26,24 / 24,386838,2019-11-08 10:03:44:449,-1.6923,-0.2919,10.8137,0.0343,0.0057,9.8066,-0.04,-0.2015,0.0944,-21.12,-43.87,33.69,342.81,-81.29,-162.48
3869,52.75181,-1.444291,191.17,26.8,4,35.26,24 / 24,386938,2019-11-08 10:03:44:549,2.6552,1.1621,10.4639,0.0379,0.0076,9.8065,-0.1376,-0.1814,0.2073,-20.5,-43.94,33.81,342.69,-81.23,-163.75
3870,52.75181,-1.444291,191.17,26.8,4,35.26,24 / 24,387039,2019-11-08 10:03:44:650,-1.7259,1.3135,8.8302,0.0218,0.0249,9.8065,-0.0344,-0.2063,0.1286,-20.44,-43.5,33.5,342.07,-81.42,-164.4
3871,52.75181,-1.444291,191.17,26.8,4,35.26,24 / 24,387139,2019-11-08 10:03:44:750,-1.4538,0.3547,9.8805,0.0148,-0.0044,9.8066,-0.0413,-0.0901,0.0585,-20.94,-43.69,33.75,341.11,-81.56,-163.99
3872,52.75181,-1.444291,191.17,26.8,4,35.26,24 / 24,387238,2019-11-08 10:03:44:849,1.1254,-0.2201,8.7989,0.0022,0.015,9.8066,-0.0529,0.0165,0.0051,-20.75,-44.31,33.25,339.73,-81.57,-164.32
3873,52.75181,-1.444291,191.17,26.8,4,35.26,24 / 24,387338,2019-11-08 10:03:44:949,-0.6895,0.4406,9.8329,0.0057,0.0035,9.8066,-0.0428,0.0077,0.019,-20.56,-43.94,34.06,341.35,-81.75,-163.87
3874,52.75181,-1.444291,191.17,26.8,4,35.26,24 / 24,387438,2019-11-08 10:03:45:049,-1.1249,0.1487,10.3546,-0.0047,-0.0113,9.8066,0.0124,0.0397,-0.0562,-20.56,-43.56,33.38,341.21,-81.69,-163.13
3875,52.75181,-1.444291,191.17,26.8,4,35.26,24 / 24,387538,2019-11-08 10:03:45:149,0.5947,2.0987,9.7225,0.007,0.0211,9.8065,0.0549,-0.1643,0.0249,-21.12,-43.81,33.69,341.24,-81.51,-163.87
3876,52.75181,-1.444291,191.17,26.8,4,35.26,24 / 24,387639,2019-11-08 10:03:45:250,-1.3678,-0.9992,10.8316,0.0294,0.0212,9.8065,0.0555,-0.2575,0.1023,-20.81,-44.31,33.94,339.39,-81.5,-165.41
3877,52.75181,-1.444291,191.17,26.8,4,35.26,24 / 24,387739,2019-11-08 10:03:45:350,-1.0354,-0.0679,9.7054,0.0042,0.0047,9.8066,-0.0246,-0.1909,0.0473,-20.56,-43.69,34.06,338.85,-81.64,-165.92
3878,52.75181,-1.444291,191.17,26.8,4,35.26,24 / 24,387839,2019-11-08 10:03:45:450,-0.6522,0.0859,10.4245,0.0276,0.0111,9.8066,0.0319,0.0098,0.0395,-20.69,-43.94,34.0,338.87,-81.56,-165.87
3879,52.75181,-1.444291,191.17,26.8,4,35.26,24 / 24,387939,2019-11-08 10:03:45:550,0.6135,-1.4674,10.8886,-0.0048,-0.0251,9.8066,-0.0006,0.0042,-0.0546,-21.12,-44.62,33.81,336.97,-81.41,-167.32
3880,52.75181,-1.444291,191.17,26.8,4,35.26,24 / 24,388039,2019-11-08 10:03:45:650,0.8947,2.5997,9.3655,0.0081,0.0171,9.8065,0.0634,0.0964,-0.0359,-20.87,-44.31,33.56,336.8,-81.31,-167.5
3881,52.75181,-1.444291,191.17,26.8,4,35.26,24 / 24,388138,2019-11-08 10:03:45:749,-0.3916,-0.1064,9.4302,-0.024,-0.0186,9.8065,0.0456,0.1588,-0.0756,-21.31,-44.81,34.0,336.62,-81.09,-167.45
3882,52.75181,-1.444291,191.17,26.8,4,35.26,24 / 24,388238,2019-11-08 10:03:45:849,0.5433,0.4592,10.0351,-0.0227,-0.0071,9.8065,0.0465,0.0964,-0.0815,-21.19,-44.31,33.75,339.11,-81.09,-165.47
3883,52.75181,-1.444291,191.17,26.8,4,35.26,24 / 24,388338,2019-11-08 10:03:45:949,-2.4804,-0.9582,10.0291,-0.0158,-0.0209,9.8066,-0.0884,0.2449,-0.1485,-21.69,-43.94,33.44,336.86,-81.13,-165.34
3884,52.75181,-1.444291,191.17,26.8,4,35.26,24 / 24,388438,2019-11-08 10:03:46:049,1.8554,2.3042,9.4864,0.0159,-0.0024,9.8066,-0.0772,0.4141,-0.1809,-21.19,-43.56,33.38,339.02,-81.09,-164.7
3885,52.75181,-1.444291,191.17,26.8,4,35.26,23 / 23,388538,2019-11-08 10:03:46:149,0.8608,0.0635,9.104,0.0197,0.0286,9.8065,-0.0383,0.3307,-0.235,-21.37,-44.19,33.56,338.83,-81.11,-165.7
3886,52.75181,-1.444291,191.17,26.8,4,35.26,23 / 23,388638,2019-11-08 10:03:46:249,1.0079,1.3913,9.6713,-0.0219,-0.0044,9.8066,-0.053,0.3525,-0.1341,-21.0,-44.31,34.25,341.2,-81.11,-163.74
3887,52.75181,-1.444291,191.17,26.8,4,35.26,23 / 23,388738,2019-11-08 10:03:46:349,-4.5093,-2.2733,10.6579,0.0228,0.0242,9.8066,-0.0315,0.3205,-0.2026,-21.25,-43.87,34.19,340.05,-81.12,-164.7
3888,52.75181,-1.444291,191.17,26.8,4,35.26,23 / 23,388838,2019-11-08 10:03:46:449,-0.522,-0.5638,10.6842,-0.029,-0.0567,9.8063,0.0249,0.1642,-0.0641,-21.62,-43.69,33.94,339.5,-81.12,-164.0
3889,52.75181,-1.444291,191.17,26.8,4,35.26,23 / 23,388938,2019-11-08 10:03:46:549,-3.6611,-2.4025,10.9955,-0.0158,-0.017,9.8065,0.1092,-0.2167,0.0858,-21.19,-43.62,34.06,341.73,-80.94,-163.24
3890,52.75181,-1.444291,191.17,26.8,4,35.26,23 / 23,389038,2019-11-08 10:03:46:649,-0.5648,0.8767,9.132,-0.0198,-0.0601,9.8064,0.0175,-0.3686,0.2153,-21.0,-44.31,33.81,342.49,-80.78,-162.55
3891,52.75181,-1.444291,191.17,26.8,4,35.26,23 / 23,389138,2019-11-08 10:03:46:749,3.5193,4.445,8.9145,0.0328,0.0302,9.8065,0.1729,-0.7143,0.3485,-21.56,-44.31,33.56,340.96,-80.9,-162.7
3892,52.75181,-1.444291,191.17,26.8,4,35.26,23 / 23,389238,2019-11-08 10:03:46:849,-0.3946,-1.0433,9.6735,0.0193,-0.0181,9.8066,0.1057,-0.6676,0.2818,-21.44,-44.25,33.63,339.6,-80.92,-164.98
3893,52.75181,-1.444291,191.17,26.8,4,35.26,23 / 23,389338,2019-11-08 10:03:46:949,4.1697,4.1922,8.3218,0.0214,0.0725,9.8063,0.0774,-0.2437,0.1296,-21.31,-44.25,33.44,338.64,-80.88,-164.91
3894,52.75181,-1.444291,191.17,26.8,4,35.26,23 / 23,389439,2019-11-08 10:03:47:050,-1.3689,-0.5781,9.3794,0.0162,0.0297,9.8065,-0.0024,-0.0563,0.0378,-21.12,-43.81,33.44,340.06,-81.1,-163.84
3895,52.75181,-1.444291,191.17,26.8,4,35.26,23 / 23,389538,2019-11-08 10:03:47:149,3.5073,3.2655,8.9098,0.0256,0.0408,9.8065,-0.0432,0.3193,-0.1688,-22.06,-44.06,33.75,340.33,-81.02,-163.26
3896,52.75181,-1.444291,191.17,26.8,4,35.26,23 / 23,389639,2019-11-08 10:03:47:250,-0.3578,-1.5005,10.4268,0.0385,0.0543,9.8063,-0.1017,0.4148,-0.2806,-21.5,-43.5,34.31,339.35,-81.1,-165.35
3897,52.75181,-1.444291,191.17,26.8,4,35.26,23 / 23,389738,2019-11-08 10:03:47:349,-2.3857,-1.9057,10.6749,0.0013,-0.0013,9.8066,-0.0715,0.498,-0.2606,-21.37,-43.62,33.94,339.59,-80.82,-164.95
3898,52.75181,-1.444291,191.17,26.8,4,35.26,23 / 23,389838,2019-11-08 10:03:47:449,-2.6253,-1.4577,11.4743,0.026,0.0495,9.8064,-0.1477,0.4595,-0.3248,-21.31,-43.87,34.0,338.26,-80.89,-166.08
3899,52.75181,-1.444291,191.17,26.8,4,35.26,23 / 23,389938,2019-11-08 10:03:47:549,-1.3662,-1.2838,9.4704,-0.02,-0.0161,9.8066,-0.1049,0.4156,-0.1347,-20.87,-43.81,34.19,338.13,-80.73,-166.12
3900,52.75181,-1.444291,191.17,26.8,4,35.26,23 / 23,390038,2019-11-08 10:03:47:649,2.6347,3.0509,8.4811,0.0085,0.0144,9.8066,-0.0186,0.2486,-0.1473,-21.12,-44.5,33.75,338.24,-80.67,-166.0
3901,52.75181,-1.444291,191.17,26.8,4,35.26,23 / 23,390138,2019-11-08 10:03:47:749,0.1559,-0.0399,9.2022,0.0157,0.0423,9.8065,-0.0566,0.1177,-0.007,-21.5,-44.0,33.5,337.89,-80.76,-166.33
3902,52.75181,-1.444291,191.17,26.8,4,35.26,23 / 23,390238,2019-11-08 10:03:47:849,3.0995,2.7506,8.5013,-0.0087,0.0056,9.8066,0.0088,0.095,0.0115,-20.75,-44.31,34.13,339.15,-80.81,-165.31
3903,52.75181,-1.444291,191.17,26.8,4,35.26,23 / 23,390338,2019-11-08 10:03:47:949,-1.1409,-1.1447,10.4107,-0.0323,-0.0456,9.8064,0.0167,-0.2827,0.1604,-21.06,-44.12,33.81,338.69,-80.91,-165.73
3904,52.75181,-1.444291,191.17,26.8,4,35.26,23 / 23,390438,2019-11-08 10:03:48:049,4.4083,1.6868,9.5091,-0.0194,-0.0332,9.8065,0.0175,-0.3969,0.2137,-21.44,-44.25,34.13,340.4,-80.72,-164.24
3905,52.75181,-1.444291,191.17,26.8,4,35.26,23 / 23,390539,2019-11-08 10:03:48:150,-2.0809,-1.2658,10.4808,-0.0119,0.0044,9.8066,0.0917,-0.4812,0.3741,-21.12,-44.06,34.0,339.78,-80.83,-164.79
3906,52.75181,-1.444291,191.17,26.8,4,35.26,23 / 23,390638,2019-11-08 10:03:48:249,-1.7224,-0.9857,9.4522,-0.0318,-0.051,9.8064,0.1327,-0.4913,0.3104,-20.69,-44.31,34.19,338.78,-80.98,-165.69
3907,52.75181,-1.444291,191.17,26.8,4,35.26,23 / 23,390739,2019-11-08 10:03:48:350,-2.6191,-1.2226,9.6657,0.0098,0.0149,9.8066,-0.0364,-0.2425,0.13,-21.25,-43.75,34.13,340.57,-80.76,-164.12
3908,52.75181,-1.444291,191.17,26.8,4,35.26,23 / 23,390839,2019-11-08 10:03:48:450,-1.0624,-0.2951,10.7378,-0.0266,-0.0432,9.8064,0.0331,-0.2004,0.1572,-21.25,-44.62,33.0,339.2,-80.69,-164.28
3909,52.75181,-1.444291,191.17,26.8,4,35.26,23 / 23,390939,2019-11-08 10:03:48:550,3.1614,1.8824,10.2635,0.0279,0.014,9.8066,0.024,0.0258,-0.0011,-21.06,-43.44,33.5,339.72,-80.68,-164.86
3910,52.75181,-1.444291,191.17,26.8,4,35.26,23 / 23,391039,2019-11-08 10:03:48:650,0.3405,1.261,9.6386,-0.0023,-0.0241,9.8066,0.0695,0.0908,-0.0732,-21.06,-44.94,34.19,338.77,-80.7,-165.49
3911,52.75181,-1.444291,191.17,26.8,4,35.26,23 / 23,391138,2019-11-08 10:03:48:749,2.7168,2.7637,9.102,0.0191,0.0531,9.8064,-0.0671,0.346,-0.1802,-20.75,-44.0,33.88,339.66,-80.62,-164.81
3912,52.75181,-1.444291,191.17,26.8,4,35.26,23 / 23,391239,2019-11-08 10:03:48:850,-2.436,-1.3346,9.357,0.0034,0.0049,9.8066,0.0052,0.3752,-0.2823,-21.12,-44.0,33.94,339.38,-80.88,-165.15
3913,52.75181,-1.444291,191.17,26.8,4,35.26,23 / 23,391339,2019-11-08 10:03:48:950,2.4418,1.2009,9.2309,0.0363,0.0461,9.8064,-0.0317,0.4211,-0.323,-21.37,-44.31,33.63,340.77,-80.94,-164.03
3914,52.75181,-1.444291,191.17,26.8,4,35.26,23 / 23,391438,2019-11-08 10:03:49:049,-2.5678,-2.4992,10.4097,0.0191,0.0173,9.8065,-0.0518,0.4646,-0.2631,-20.75,-44.0,33.94,339.42,-81.06,-165.19
3915,52.75181,-1.444291,191.17,26.8,4,35.26,23 / 23,391538,2019-11-08 10:03:49:149,-0.5617,1.2373,9.3059,-0.0034,0.0403,9.8064,-0.1338,0.3834,-0.2179,-20.75,-44.19,34.44,339.69,-80.97,-164.94
3916,52.75181,-1.444291,191.17,26.8,4,35.26,23 / 23,391638,2019-11-08 10:03:49:249,-3.0728,-2.3304,10.8985,0.0471,0.0295,9.8064,0.0442,0.251,-0.1946,-20.81,-44.0,34.31,337.22,-81.11,-167.05
3917,52.75181,-1.444291,191.17,26.8,4,35.26,23 / 23,391739,2019-11-08 10:03:49:350,1.7047,1.149,9.7058,0.0169,0.0198,9.8065,-0.0404,0.0646,-0.1119,-20.94,-43.69,33.63,338.15,-81.0,-166.22
3918,52.75181,-1.444291,191.17,26.8,4,35.26,23 / 23,391839,2019-11-08 10:03:49:450,2.0146,2.0043,9.0427,0.0006,0.0357,9.8066,-0.0479,-0.147,0.1395,-20.69,-44.37,34.69,339.43,-81.22,-166.07
3919,52.75181,-1.444291,191.17,26.8,4,35.26,23 / 23,391939,2019-11-08 10:03:49:550,0.3344,0.2605,9.8616,-0.0267,-0.0048,9.8066,-0.0682,-0.1709,0.1493,-20.5,-44.25,33.69,342.24,-81.32,-164.16
3920,52.75181,-1.444291,191.17,26.8,4,35.26,23 / 23,392038,2019-11-08 10:03:49:649,0.8164,-0.3174,10.0811,0.0231,0.0031,9.8066,0.0348,-0.1073,0.0849,-21.06,-43.62,33.31,340.33,-81.36,-163.73
3921,52.75181,-1.444291,191.17,26.8,4,35.26,23 / 23,392139,2019-11-08 10:03:49:750,-1.2582,-0.3629,10.1484,-0.0053,-0.0193,9.8065,-0.0067,-0.1503,0.1129,-21.5,-43.44,33.31,339.61,-81.19,-164.33
