,GPS LATITUDE (degrees), GPS LONGITUDE (degrees), GPS ALTITUDE (m), GPS SPEED (Kmh), GPS ACCURACY (m), GPS ORIENTATION (Â°),GPS SATELLITES IN RANGE, TIME SINCE START (ms), DATE (YYYY-MO-DD HH-MI-SS_SSS), ACCELEROMETER X (m/s²) , ACCELEROMETER Y (m/s²), ACCELEROMETER Z (m/s²), GRAVITY X (m/s²), GRAVITY Y (m/s²), GRAVITY Z (m/s²), GYROSCOPE Yaw (rad/s), GYROSCOPE Pitch (rad/s), GYROSCOPE Roll (rad/s), MAGNETIC FIELD X (Î¼T), MAGNETIC FIELD Y (Î¼T), MAGNETIC FIELD Z (Î¼T), ORIENTATION (Yaw) (Â°), ORIENTATION (Pitch) (Â°), ORIENTATION (Roll ) (Â°)
11216,52.604424,-1.641979,160.62,6.24,2,75.81,23 / 23,3395607,2020-01-08 17:17:50:583,1.9385,1.9357,9.7616,0.0152,0.0103,9.8065,-0.0925,-0.0431,-0.0061,-19.94,-35.19,6.63,297.11,-83.53,-162.44
11217,52.604424,-1.641979,160.62,6.24,2,75.81,23 / 23,3395708,2020-01-08 17:17:50:684,-0.009,-1.5121,9.3049,-0.0085,0.0322,9.8065,-0.0624,-0.2879,0.2399,-19.87,-34.87,7.13,296.81,-83.63,-162.87
11218,52.604424,-1.641979,160.62,6.24,2,75.81,23 / 23,3395808,2020-01-08 17:17:50:784,1.6393,-0.2821,9.7285,0.0093,0.0055,9.8066,0.0079,-0.0552,0.0784,-20.0,-35.75,6.63,298.38,-83.52,-160.99
11219,52.604424,-1.641979,160.62,6.24,2,75.81,23 / 23,3395908,2020-01-08 17:17:50:884,2.677,-1.9771,10.6633,0.0096,-0.0015,9.8066,-0.0159,-0.1663,0.0529,-19.69,-33.69,6.81,299.73,-83.42,-160.17
11220,52.604424,-1.641979,160.62,6.24,2,75.81,23 / 23,3396008,2020-01-08 17:17:50:984,-0.0801,-0.9153,9.4707,0.0173,0.0029,9.8065,-0.0874,0.0658,0.0403,-20.69,-34.44,7.19,300.28,-83.35,-159.11
11221,52.604424,-1.641979,160.62,6.24,2,75.81,23 / 23,3396108,2020-01-08 17:17:51:084,-0.029,-0.4091,9.8741,-0.0216,-0.0144,9.8066,-0.0129,-0.0765,-0.0528,-20.0,-33.87,7.44,301.25,-83.35,-158.69
11222,52.604424,-1.641979,160.62,6.24,2,75.81,23 / 23,3396208,2020-01-08 17:17:51:184,1.7912,-0.1165,10.4533,-0.0054,-0.0062,9.8066,0.0781,-0.0579,-0.0435,-20.37,-33.37,7.5,304.38,-83.31,-158.73
11223,52.604424,-1.641979,160.62,6.24,2,75.81,23 / 23,3396308,2020-01-08 17:17:51:284,0.9473,-1.5349,9.8485,-0.0019,0.0102,9.8065,0.0343,-0.1302,0.0599,-20.31,-34.06,7.13,301.18,-83.3,-158.67
11224,52.604424,-1.641979,160.62,6.24,2,75.81,23 / 23,3396408,2020-01-08 17:17:51:384,0.0929,-2.5371,9.4288,-0.0292,-0.0231,9.8066,0.0082,0.1037,-0.1191,-21.12,-34.5,8.44,306.28,-83.29,-156.15
11225,52.604424,-1.641979,160.62,6.24,2,75.81,23 / 23,3396508,2020-01-08 17:17:51:484,-0.0811,-3.0898,10.2068,-0.013,-0.0005,9.8066,-0.0194,-0.0567,0.0187,-20.37,-34.25,8.38,307.58,-83.38,-155.71
11226,52.604424,-1.641979,160.62,6.24,2,75.81,23 / 23,3396610,2020-01-08 17:17:51:586,0.5285,-1.5195,11.1625,0.0045,-0.0282,9.8065,0.0212,0.1147,-0.2195,-20.87,-33.75,7.88,307.0,-83.36,-155.6
11227,52.604424,-1.641979,160.62,6.24,2,75.81,23 / 23,3396708,2020-01-08 17:17:51:684,0.1087,-0.0094,10.0979,0.0389,0.0115,9.8065,-0.0228,-0.1179,0.1274,-20.5,-33.94,8.0,305.97,-83.22,-156.92
11228,52.604424,-1.641979,160.62,6.24,2,75.81,23 / 23,3396808,2020-01-08 17:17:51:784,0.1103,-1.3167,10.2627,-0.0083,0.0087,9.8066,0.097,-0.0393,0.0561,-21.44,-33.19,8.75,309.17,-83.11,-156.07
11229,52.604424,-1.641979,160.62,6.24,2,75.81,23 / 23,3396908,2020-01-08 17:17:51:884,-0.2673,-0.8137,10.8986,-0.0102,-0.0119,9.8066,0.1301,-0.1186,-0.048,-20.87,-33.69,8.5,308.52,-82.95,-156.22
11230,52.604424,-1.641979,160.62,6.24,2,75.81,23 / 23,3397008,2020-01-08 17:17:51:984,-0.3975,-2.4892,9.7211,-0.0253,-0.016,9.8066,0.0005,-0.0376,-0.0911,-21.06,-33.5,9.19,308.57,-82.9,-156.35
11231,52.604424,-1.641979,160.62,6.24,2,75.81,23 / 23,3397107,2020-01-08 17:17:52:083,-1.5776,-2.9177,10.3917,-0.0054,0.015,9.8066,-0.035,-0.2413,0.0606,-21.06,-33.44,9.44,309.12,-83.05,-156.05
11232,52.604424,-1.641979,160.62,6.24,2,75.81,23 / 23,3397208,2020-01-08 17:17:52:184,0.0439,-2.2184,10.7762,0.0195,-0.0178,9.8065,0.0371,0.1426,-0.0746,-20.87,-33.69,9.13,308.87,-83.03,-156.0
11233,52.604424,-1.641979,160.62,6.24,2,75.81,23 / 23,3397308,2020-01-08 17:17:52:284,1.9526,-0.3235,9.2184,0.0206,-0.0135,9.8066,0.0138,-0.1394,-0.0554,-20.5,-33.56,10.44,310.66,-82.73,-157.25
11234,52.604424,-1.641979,160.62,6.24,2,75.81,23 / 23,3397408,2020-01-08 17:17:52:384,0.3033,-0.373,9.8744,-0.0104,-0.0084,9.8066,0.0357,0.0983,-0.0387,-20.62,-33.44,11.0,311.94,-82.69,-157.86
11235,52.604424,-1.641979,160.62,6.24,2,75.81,23 / 23,3397508,2020-01-08 17:17:52:484,0.5438,0.6034,9.9089,-0.0096,-0.0272,9.8065,0.0063,0.0999,-0.1774,-20.56,-32.94,9.88,310.13,-82.64,-157.08
11236,52.604424,-1.641979,160.62,6.24,2,75.81,23 / 23,3397607,2020-01-08 17:17:52:583,-2.3018,-4.8451,10.1591,-0.0333,-0.0525,9.8064,0.1444,0.2708,-0.4209,-20.94,-31.94,10.63,311.78,-82.86,-158.43
11237,52.604424,-1.641979,160.62,6.24,2,75.81,23 / 23,3397708,2020-01-08 17:17:52:684,-1.453,-2.9405,9.2689,0.0199,0.0094,9.8065,0.0131,0.0262,0.01,-20.06,-32.56,10.56,311.56,-82.82,-159.22
11238,52.604424,-1.641979,160.62,6.24,2,75.81,23 / 23,3397809,2020-01-08 17:17:52:785,0.3621,-1.3761,10.6243,-0.0147,0.001,9.8066,0.166,0.1335,-0.0997,-19.69,-32.75,11.44,310.48,-82.7,-160.03
11239,52.604424,-1.641979,160.62,6.24,2,75.81,23 / 23,3397908,2020-01-08 17:17:52:884,1.9886,1.9396,10.6156,0.0147,-0.0041,9.8066,0.0398,0.0454,-0.2126,-19.56,-33.19,11.69,311.56,-82.68,-161.38
11240,52.604424,-1.641979,160.62,6.24,2,75.81,23 / 23,3398008,2020-01-08 17:17:52:984,-0.0977,-0.0877,10.1616,-0.0366,-0.0205,9.8065,0.1064,0.2754,-0.1926,-18.87,-33.12,11.81,312.15,-82.76,-161.98
11241,52.604424,-1.641979,160.62,6.24,2,75.81,23 / 23,3398107,2020-01-08 17:17:53:083,1.0542,3.0015,10.3051,-0.0249,-0.0341,9.8065,0.0583,0.346,-0.317,-18.56,-32.69,11.25,308.7,-82.75,-162.6
11242,52.604424,-1.641979,160.62,6.24,2,75.81,23 / 23,3398207,2020-01-08 17:17:53:183,-2.4342,-3.5107,9.2865,-0.0316,-0.0334,9.8065,0.1067,0.2183,-0.1815,-18.62,-32.94,11.19,306.64,-82.87,-164.56
11243,52.604424,-1.641979,160.62,6.24,2,75.81,23 / 23,3398308,2020-01-08 17:17:53:284,0.7994,0.6728,9.4184,-0.0035,-0.0549,9.8064,0.0216,0.3779,-0.3233,-17.69,-32.5,10.38,305.62,-82.69,-163.91
11244,52.604424,-1.641979,160.62,6.24,2,75.81,23 / 23,3398408,2020-01-08 17:17:53:384,-1.5876,-3.8474,10.606,-0.0158,-0.0381,9.8065,0.0553,0.0928,-0.1561,-17.75,-32.62,10.56,305.3,-82.64,-166.44
11245,52.604424,-1.641979,160.62,6.24,2,75.81,23 / 23,3398507,2020-01-08 17:17:53:483,-0.4538,0.8801,10.0407,-0.0015,-0.041,9.8065,-0.068,0.3129,-0.2065,-17.62,-32.12,10.19,304.26,-82.61,-165.01
11246,52.604424,-1.641979,160.62,6.24,2,75.81,23 / 23,3398608,2020-01-08 17:17:53:584,0.3068,-2.2607,10.7471,0.0077,-0.0159,9.8065,0.0524,-0.089,-0.1397,-17.69,-32.69,10.19,302.52,-82.69,-166.37
11247,52.604424,-1.641979,160.62,6.24,2,75.81,23 / 23,3398708,2020-01-08 17:17:53:684,0.0542,0.1284,8.8207,0.0324,-0.0054,9.8065,-0.0994,0.1178,-0.0184,-16.87,-32.94,10.13,300.78,-82.65,-168.82
11248,52.604424,-1.641979,160.62,6.24,2,75.81,23 / 23,3398808,2020-01-08 17:17:53:784,-0.5518,0.8261,9.8241,-0.0053,0.0314,9.8065,0.1304,-0.2119,0.0775,-17.81,-34.19,9.63,298.9,-82.74,-169.36
11249,52.604424,-1.641979,160.62,6.24,2,75.81,23 / 23,3398907,2020-01-08 17:17:53:883,-1.0501,2.4152,7.1435,0.0369,-0.008,9.8065,-0.1401,0.04,-0.0466,-17.44,-34.06,8.81,294.39,-82.68,-171.41
11250,52.604424,-1.641979,160.62,6.24,2,75.81,23 / 23,3399008,2020-01-08 17:17:53:984,-0.3281,0.0088,10.3516,-0.0262,0.0383,9.8065,0.2333,-0.3574,0.1996,-18.19,-34.62,8.88,293.07,-82.72,-171.54
11251,52.604424,-1.641979,160.62,6.24,2,75.81,23 / 23,3399107,2020-01-08 17:17:54:083,-1.699,-1.7889,10.4769,0.017,-0.0092,9.8065,-0.1033,-0.2155,-0.0111,-17.81,-34.62,8.25,289.41,-82.73,-172.08
11252,52.604424,-1.641979,160.62,6.24,2,75.81,23 / 23,3399208,2020-01-08 17:17:54:184,-0.6974,-1.1684,10.1962,0.005,0.0095,9.8066,-0.0331,-0.1848,0.1126,-19.0,-35.25,7.88,288.09,-82.96,-173.12
11253,52.604424,-1.641979,160.62,6.24,2,75.81,23 / 23,3399308,2020-01-08 17:17:54:284,-1.0579,-1.0938,9.0792,0.0262,-0.004,9.8066,-0.1253,-0.1359,0.0805,-20.75,-36.0,7.94,287.65,-82.95,-172.19
11254,52.604424,-1.641979,160.62,6.24,2,75.81,23 / 23,3399408,2020-01-08 17:17:54:384,1.0302,1.5118,10.8899,0.0371,0.0105,9.8065,-0.1384,-0.3647,0.1772,-21.56,-37.0,9.13,290.58,-83.07,-171.34
11255,52.604424,-1.641979,160.62,6.24,2,75.81,23 / 23,3399508,2020-01-08 17:17:54:484,-0.1265,1.2801,9.9891,0.0269,0.016,9.8066,-0.0788,-0.073,0.1492,-22.25,-37.87,10.63,295.3,-82.89,-171.08
11256,52.604424,-1.641979,160.62,6.24,2,75.81,23 / 23,3399608,2020-01-08 17:17:54:584,1.8295,-1.7934,12.4502,0.0355,-0.0029,9.8065,-0.0651,-0.2402,0.0074,-22.12,-38.37,11.81,298.68,-82.78,-170.06
11257,52.604424,-1.641979,160.62,6.24,2,75.81,23 / 23,3399707,2020-01-08 17:17:54:683,-1.2304,-3.2773,8.3275,0.0687,-0.0291,9.8063,-0.1917,-0.1205,0.1944,-23.75,-38.0,13.69,300.73,-82.47,-170.39
11258,52.604424,-1.641979,160.62,6.24,2,75.81,23 / 23,3399807,2020-01-08 17:17:54:783,0.1034,0.2013,10.7186,0.0241,0.0144,9.8065,0.0042,-0.3359,0.1654,-23.19,-37.87,15.06,306.47,-82.42,-167.91
11259,52.604424,-1.641979,160.62,6.24,2,75.81,23 / 23,3399907,2020-01-08 17:17:54:883,-3.4657,-3.6285,8.2221,0.0752,-0.0071,9.8063,-0.2273,-0.5283,0.1621,-21.5,-35.44,17.81,314.06,-82.28,-169.23
11260,52.604424,-1.641979,160.62,6.24,2,75.81,22 / 23,3400007,2020-01-08 17:17:54:983,1.9777,0.8422,10.6472,-0.0093,0.0137,9.8066,0.0754,-0.0031,-0.0805,-19.56,-34.75,18.5,318.15,-82.54,-168.81
11261,52.604424,-1.641979,160.62,6.24,2,75.81,22 / 23,3400108,2020-01-08 17:17:55:084,-0.5934,0.1728,10.302,0.0738,0.0181,9.8063,-0.1329,-0.0891,0.0814,-17.56,-32.62,19.13,319.5,-82.46,-170.61
11262,52.604424,-1.641979,160.62,6.24,2,75.81,22 / 23,3400208,2020-01-08 17:17:55:184,0.6588,-2.1608,10.6437,0.0176,0.0017,9.8066,0.0372,-0.2539,0.0064,-15.69,-31.19,18.13,321.36,-82.59,-170.8
11263,52.604424,-1.641979,160.62,6.24,2,75.81,22 / 23,3400308,2020-01-08 17:17:55:284,-1.6583,-1.7466,9.3223,0.0373,0.0033,9.8065,-0.1946,-0.2361,0.2162,-14.25,-30.69,16.94,320.6,-82.33,-172.8
11264,52.604424,-1.641979,160.62,6.24,2,75.81,22 / 23,3400408,2020-01-08 17:17:55:384,2.4073,-0.9274,12.2833,0.117,-0.0231,9.8058,-0.2803,-0.1648,0.1797,-15.44,-31.12,15.44,315.65,-82.42,-171.32
11265,52.604424,-1.641979,160.62,6.24,2,75.81,22 / 23,3400508,2020-01-08 17:17:55:484,-1.1488,-1.3129,10.2984,0.0575,-0.0145,9.8064,-0.2964,-0.2025,0.0575,-15.25,-31.62,14.75,311.68,-81.8,-173.72
11266,52.604424,-1.641979,160.62,6.24,2,75.81,22 / 23,3400608,2020-01-08 17:17:55:584,1.6163,1.6191,10.9662,0.056,-0.0315,9.8064,-0.3432,0.0374,-0.0636,-16.44,-31.75,14.31,307.91,-82.32,-173.85
11267,52.604424,-1.641979,160.62,6.24,2,75.81,22 / 23,3400708,2020-01-08 17:17:55:684,-1.3739,-0.0762,8.2705,0.028,0.0228,9.8066,-0.1525,-0.3333,0.1957,-17.5,-32.06,14.19,306.18,-82.31,-173.96
11268,52.604424,-1.641979,160.62,6.24,2,75.81,22 / 23,3400808,2020-01-08 17:17:55:784,0.871,0.9,8.4063,0.0371,-0.0333,9.8065,-0.283,0.1478,-0.0792,-18.0,-32.44,14.56,307.91,-82.4,-173.41
11269,52.604424,-1.641979,160.62,6.24,2,75.81,22 / 23,3400908,2020-01-08 17:17:55:884,-1.7801,-1.6001,9.2438,0.0223,0.0112,9.8066,-0.1515,-0.1466,0.1917,-18.12,-32.44,14.63,307.8,-82.27,-173.36
11270,52.604424,-1.641979,160.62,6.24,2,75.81,23 / 23,3401008,2020-01-08 17:17:55:984,0.8437,0.7507,11.7539,0.0789,0.0053,9.8063,-0.2198,-0.2259,0.2746,-18.0,-32.37,15.56,311.89,-82.32,-171.85
11271,52.604424,-1.641979,160.62,6.24,2,75.81,23 / 23,3401108,2020-01-08 17:17:56:084,0.4461,0.5784,11.2479,-0.0032,-0.0253,9.8065,-0.1898,0.0488,-0.0709,-17.81,-32.56,16.06,311.44,-82.2,-171.87
11272,52.604424,-1.641979,160.62,6.24,2,75.81,23 / 23,3401208,2020-01-08 17:17:56:184,-0.1447,-3.866,10.7269,0.0654,-0.0456,9.8063,-0.3155,-0.1235,0.0391,-17.12,-32.87,15.56,312.93,-82.47,-172.25
11273,52.604424,-1.641979,160.62,6.24,2,75.81,23 / 23,3401308,2020-01-08 17:17:56:284,-1.1628,-1.1502,8.1909,0.0123,-0.0217,9.8066,-0.0694,-0.0027,-0.0146,-17.37,-32.37,15.75,311.78,-82.11,-173.11
11274,52.604424,-1.641979,160.62,6.24,2,75.81,23 / 23,3401408,2020-01-08 17:17:56:384,-1.7923,-3.5721,10.9087,0.0385,0.0421,9.8065,0.0513,-0.4091,0.3198,-16.31,-31.87,16.0,310.75,-81.9,-175.23
11275,52.604424,-1.641979,160.62,6.24,2,75.81,23 / 23,3401507,2020-01-08 17:17:56:483,0.1874,-0.478,9.8487,0.0006,-0.027,9.8065,-0.0032,-0.1676,-0.1203,-16.0,-31.75,16.31,312.39,-81.82,-173.72
11276,52.604424,-1.641979,160.62,6.24,2,75.81,23 / 23,3401608,2020-01-08 17:17:56:584,2.8165,-0.0424,10.089,0.0127,0.0092,9.8066,-0.1021,-0.4019,0.1426,-16.31,-32.12,16.0,311.27,-81.87,-174.75
11277,52.604424,-1.641979,160.62,6.24,2,75.81,23 / 23,3401708,2020-01-08 17:17:56:684,1.7702,0.5172,10.5377,-0.0227,0.0317,9.8066,0.1132,-0.1248,0.1551,-14.94,-32.31,15.69,314.05,-81.94,-174.01
11278,52.604424,-1.641979,160.62,6.24,2,75.81,23 / 23,3401808,2020-01-08 17:17:56:784,-0.7238,-2.0514,9.841,0.014,0.0038,9.8065,-0.0938,-0.2097,-0.0064,-14.75,-31.25,15.69,315.01,-81.89,-173.4
11279,52.604424,-1.641979,160.62,6.24,2,75.81,23 / 23,3401908,2020-01-08 17:17:56:884,-0.96,-1.3412,10.9444,-0.0257,0.0085,9.8066,0.0797,-0.0911,0.0811,-15.0,-30.56,14.88,311.06,-82.03,-174.82
11280,52.604424,-1.641979,160.62,6.24,2,75.81,23 / 23,3402008,2020-01-08 17:17:56:984,2.2465,1.9206,9.9657,0.0529,0.042,9.8064,-0.0782,-0.3491,0.4363,-14.19,-31.31,13.88,311.71,-81.89,-173.45
11281,52.604424,-1.641979,160.62,6.24,2,75.81,23 / 23,3402108,2020-01-08 17:17:57:084,-1.8112,-2.6396,9.18,-0.0337,-0.0249,9.8065,0.0013,-0.1836,-0.1141,-15.31,-31.5,14.06,309.72,-81.74,-173.35
11282,52.604424,-1.641979,160.62,6.24,2,75.81,23 / 23,3402207,2020-01-08 17:17:57:183,0.7436,-0.9188,9.068,0.0296,-0.0034,9.8065,-0.0457,-0.3018,0.0983,-15.25,-30.81,13.5,308.66,-81.65,-174.14
11283,52.604424,-1.641979,160.62,6.24,2,75.81,23 / 23,3402308,2020-01-08 17:17:57:284,-1.6065,-1.1882,10.2684,0.0165,0.0249,9.8066,0.0726,-0.2539,0.1563,-14.56,-31.5,13.56,307.93,-81.36,-174.39
11284,52.604424,-1.641979,160.62,6.24,2,75.81,23 / 23,3402409,2020-01-08 17:17:57:385,1.5449,0.6461,10.1796,0.0088,0.0226,9.8066,-0.1056,-0.1901,0.0115,-15.37,-31.19,11.94,301.39,-81.36,-174.94
11285,52.604424,-1.641979,160.62,6.24,2,75.81,23 / 23,3402508,2020-01-08 17:17:57:484,0.9433,-0.4111,11.0381,-0.0041,0.0312,9.8065,-0.0115,-0.1044,0.099,-14.44,-32.44,10.38,295.31,-81.49,-175.44
11286,52.604424,-1.641979,160.62,6.24,2,75.81,23 / 23,3402608,2020-01-08 17:17:57:584,0.9357,0.7557,9.356,0.0206,-0.0058,9.8066,-0.1274,-0.0399,-0.0279,-15.5,-34.12,8.0,286.11,-81.63,-175.38
11287,52.604424,-1.641979,160.62,6.24,2,75.81,23 / 23,3402708,2020-01-08 17:17:57:684,-0.4184,-2.3226,7.9666,-0.0117,0.0164,9.8066,-0.0375,0.0167,0.2659,-16.94,-37.31,4.94,272.57,-81.48,-175.59
11288,52.604424,-1.641979,160.62,6.24,2,75.81,23 / 23,3402808,2020-01-08 17:17:57:784,1.823,-3.1738,10.182,0.0848,0.1033,9.8057,-0.2994,-0.2739,0.3398,-19.5,-48.5,-2.19,246.54,-80.76,-175.74
11289,52.604424,-1.641979,160.62,6.24,2,75.81,23 / 23,3402908,2020-01-08 17:17:57:884,0.9203,-6.1331,7.262,0.0477,0.0506,9.8064,-0.3873,-0.4535,0.2916,-21.37,-58.87,-5.44,240.53,-81.39,-175.28
11290,52.604298,-1.640805,161.82,12.17,3,120.49,23 / 23,3403008,2020-01-08 17:17:57:984,-0.4975,4.0579,16.8057,-0.0435,-0.088,9.8061,-0.7721,-0.4019,0.6895,-21.12,-83.69,1.0,245.47,-81.25,-173.56
11291,52.604298,-1.640805,161.82,12.17,3,120.49,23 / 23,3403108,2020-01-08 17:17:58:084,-1.6329,3.2505,2.7918,0.0065,-0.0865,9.8062,-0.8376,-0.0639,0.6923,-20.0,-96.12,12.81,274.7,-81.77,-172.82
11292,52.604298,-1.640805,161.82,12.17,3,120.49,23 / 23,3403208,2020-01-08 17:17:58:184,3.2066,2.7893,11.7613,-0.1325,-0.0194,9.8057,0.3866,-0.6475,0.2583,-18.94,-91.37,23.88,309.28,-82.39,-174.26
11293,52.604298,-1.640805,161.82,12.17,3,120.49,23 / 23,3403308,2020-01-08 17:17:58:284,-1.4874,-3.1333,13.4739,0.0609,-0.1187,9.8057,0.1144,-0.2964,0.1371,-18.5,-85.37,25.56,313.43,-82.42,-176.64
11294,52.604298,-1.640805,161.82,12.17,3,120.49,23 / 23,3403408,2020-01-08 17:17:58:384,0.7368,-0.4221,10.2203,0.0316,-0.0374,9.8065,0.3905,-0.2295,-0.0153,-15.75,-81.5,23.63,313.98,-81.65,-174.87
11295,52.604298,-1.640805,161.82,12.17,3,120.49,23 / 23,3403508,2020-01-08 17:17:58:484,1.5249,-2.3229,13.7725,0.0462,-0.0636,9.8063,0.4439,-0.1767,0.0605,-14.75,-77.19,21.75,312.26,-81.73,-175.12
11296,52.604298,-1.640805,161.82,12.17,3,120.49,23 / 23,3403609,2020-01-08 17:17:58:585,1.7729,0.8911,9.354,0.0842,-0.0467,9.8061,-0.1375,-0.1495,0.1786,-14.25,-75.0,19.38,305.03,-81.31,-174.93
11297,52.604298,-1.640805,161.82,12.17,3,120.49,23 / 23,3403708,2020-01-08 17:17:58:684,0.0631,-1.4183,11.8077,-0.0389,-0.0032,9.8065,0.1158,-0.217,0.0559,-11.19,-72.19,17.94,314.81,-81.62,-172.68
11298,52.604298,-1.640805,161.82,12.17,3,120.49,23 / 23,3403808,2020-01-08 17:17:58:784,0.0001,1.1887,8.2287,0.0041,-0.0252,9.8065,-0.2026,-0.1181,0.1989,-9.25,-71.37,16.75,317.38,-81.53,-172.68
11299,52.604298,-1.640805,161.82,12.17,3,120.49,23 / 23,3403908,2020-01-08 17:17:58:884,-1.3898,-2.0898,9.058,-0.0501,-0.0167,9.8064,0.0066,-0.1379,0.1109,-9.56,-71.81,16.88,314.52,-81.57,-172.16
11300,52.604298,-1.640805,161.82,12.17,3,120.49,24 / 24,3404007,2020-01-08 17:17:58:983,-0.5498,0.4756,9.1575,-0.0238,-0.0129,9.8066,-0.1955,-0.219,0.1491,-10.62,-70.19,18.5,323.18,-81.62,-170.23
11301,52.604298,-1.640805,161.82,12.17,3,120.49,24 / 24,3404108,2020-01-08 17:17:59:084,0.3273,1.435,10.4322,-0.0494,0.0026,9.8065,-0.1006,-0.1202,0.2143,-10.81,-69.56,20.56,328.43,-81.57,-170.52
11302,52.604298,-1.640805,161.82,12.17,3,120.49,24 / 24,3404208,2020-01-08 17:17:59:184,-0.5296,0.6914,9.2846,-0.0111,0.0008,9.8066,0.0396,-0.6849,0.5195,-9.87,-63.37,23.06,339.62,-81.75,-169.47
11303,52.604298,-1.640805,161.82,12.17,3,120.49,24 / 24,3404308,2020-01-08 17:17:59:284,-4.171,-3.0934,11.2027,-0.0263,-0.0669,9.8063,0.131,-0.2212,-0.0078,-9.87,-60.0,17.88,329.81,-81.55,-168.4
11304,52.604298,-1.640805,161.82,12.17,3,120.49,24 / 24,3404407,2020-01-08 17:17:59:383,-4.2531,-2.9195,10.7764,0.029,-0.0042,9.8066,0.1747,-0.7061,0.4709,-9.94,-62.25,17.0,322.94,-81.64,-170.25
11305,52.604298,-1.640805,161.82,12.17,3,120.49,24 / 24,3404508,2020-01-08 17:17:59:484,-1.9928,-1.0294,10.2412,-0.0233,-0.0677,9.8064,0.1223,-0.3024,0.0732,-9.0,-61.81,18.44,326.95,-81.65,-172.05
11306,52.604298,-1.640805,161.82,12.17,3,120.49,24 / 24,3404608,2020-01-08 17:17:59:584,5.9034,4.892,8.8685,0.0502,0.0867,9.806,-0.0223,-0.746,0.4259,-11.25,-59.19,19.25,321.96,-81.63,-173.68
11307,52.604298,-1.640805,161.82,12.17,3,120.49,24 / 24,3404708,2020-01-08 17:17:59:684,-0.9128,0.2677,10.4045,0.0038,0.0566,9.8065,0.0776,-0.5734,0.3499,-12.62,-57.0,17.81,316.97,-81.7,-172.17
11308,52.604298,-1.640805,161.82,12.17,3,120.49,24 / 24,3404809,2020-01-08 17:17:59:785,0.912,4.2027,8.392,0.0249,0.0478,9.8064,0.0428,-0.3061,0.2264,-12.44,-56.5,16.06,314.63,-81.58,-171.13
11309,52.604298,-1.640805,161.82,12.17,3,120.49,24 / 24,3404907,2020-01-08 17:17:59:883,-0.4572,-1.8671,10.3604,-0.0056,0.0241,9.8066,0.132,-0.506,0.1561,-10.0,-55.81,12.44,300.32,-81.49,-172.09
11310,52.604298,-1.640805,161.82,12.17,3,120.49,24 / 24,3405008,2020-01-08 17:17:59:984,-0.6715,6.4792,11.261,-0.0153,-0.0359,9.8065,0.0848,0.4038,-0.4413,-9.12,-58.87,7.75,270.55,-81.33,-172.76
11311,52.604298,-1.640805,161.82,12.17,3,120.49,24 / 24,3405107,2020-01-08 17:18:00:083,0.577,-5.796,8.7892,-0.0084,0.0939,9.8062,-0.0713,-0.515,0.2294,-8.5,-65.37,6.13,247.47,-81.44,-175.14
11312,52.604298,-1.640805,161.82,12.17,3,120.49,24 / 24,3405207,2020-01-08 17:18:00:183,0.1999,-8.4926,8.4375,-0.0021,-0.1089,9.806,0.2715,0.9349,-0.6826,-7.94,-74.19,7.0,243.6,-81.31,-175.8
11313,52.604298,-1.640805,161.82,12.17,3,120.49,24 / 24,3405308,2020-01-08 17:18:00:284,-7.8486,-1.5045,11.9449,0.0486,0.0324,9.8064,0.1244,-0.2226,-0.0154,-5.06,-86.12,22.0,340.05,-81.5,-175.85
11314,52.604298,-1.640805,161.82,12.17,3,120.49,24 / 24,3405408,2020-01-08 17:18:00:384,-0.3629,1.6269,4.579,-0.0233,-0.0521,9.8064,-0.8435,0.6143,-0.1124,-4.31,-75.81,40.56,357.25,-81.9,-176.44
11315,52.604298,-1.640805,161.82,12.17,3,120.49,24 / 24,3405508,2020-01-08 17:18:00:484,-0.3953,1.8583,6.0428,0.0279,0.056,9.8064,-0.3271,0.3373,0.2128,-6.12,-55.31,45.31,357.41,-82.21,-174.55
11316,52.604298,-1.640805,161.82,12.17,3,120.49,24 / 24,3405608,2020-01-08 17:18:00:584,0.3795,1.9963,10.7078,0.0396,-0.1247,9.8057,-0.3045,0.0371,-0.1234,-9.62,-40.0,36.06,349.27,-82.05,-173.53
11317,52.604298,-1.640805,161.82,12.17,3,120.49,24 / 24,3405708,2020-01-08 17:18:00:684,-4.9019,2.8665,6.7709,0.0959,-0.1236,9.8053,-0.3267,-0.2479,0.2083,-12.06,-37.25,28.94,338.66,-81.98,-175.24
11318,52.604298,-1.640805,161.82,12.17,3,120.49,24 / 24,3405808,2020-01-08 17:18:00:784,-3.1128,-0.0368,9.8863,-0.0005,-0.0108,9.8066,0.1819,0.2421,-0.0859,-13.37,-34.75,26.13,334.98,-81.96,-174.15
11319,52.604298,-1.640805,161.82,12.17,3,120.49,24 / 24,3405908,2020-01-08 17:18:00:884,1.7374,2.4258,10.0934,0.0285,-0.037,9.8065,-0.1571,-0.0258,-0.1402,-14.5,-34.94,24.31,330.57,-81.77,-173.82
11320,52.604298,-1.640805,161.82,12.17,3,120.49,24 / 24,3406009,2020-01-08 17:18:00:985,1.8143,0.7421,10.874,-0.0469,-0.0383,9.8064,0.0859,0.2664,-0.3619,-15.69,-34.75,22.5,326.75,-81.89,-172.6
11321,52.604298,-1.640805,161.82,12.17,3,120.49,24 / 24,3406107,2020-01-08 17:18:01:083,-1.6668,0.0823,8.8402,0.0743,-0.001,9.8063,-0.097,-0.0215,0.103,-16.25,-34.44,21.75,321.77,-81.77,-175.53
11322,52.604298,-1.640805,161.82,12.17,3,120.49,24 / 24,3406208,2020-01-08 17:18:01:184,-1.105,-1.6544,10.8184,-0.0274,-0.0065,9.8065,0.0684,0.2165,-0.2247,-16.25,-34.5,21.5,321.54,-81.79,-175.74
11323,52.604298,-1.640805,161.82,12.17,3,120.49,24 / 24,3406308,2020-01-08 17:18:01:284,0.8317,2.2645,9.5721,0.0181,-0.013,9.8066,-0.0189,0.0066,-0.0881,-16.31,-34.44,21.75,320.54,-81.83,-176.64
11324,52.604298,-1.640805,161.82,12.17,3,120.49,24 / 24,3406408,2020-01-08 17:18:01:384,-1.2416,0.4261,9.8134,-0.0186,-0.0003,9.8066,0.0113,0.1115,-0.0185,-16.37,-34.12,21.75,319.8,-81.81,-177.25
11325,52.604298,-1.640805,161.82,12.17,3,120.49,24 / 24,3406508,2020-01-08 17:18:01:484,1.2369,1.2561,9.7966,-0.0297,-0.0089,9.8065,-0.0143,0.1794,-0.2022,-15.75,-34.44,21.44,319.86,-81.97,-175.87
11326,52.604298,-1.640805,161.82,12.17,3,120.49,24 / 24,3406608,2020-01-08 17:18:01:584,-2.2678,-1.1178,10.5192,-0.0182,-0.0265,9.8066,-0.0716,-0.1581,0.0049,-15.62,-34.19,21.81,322.77,-82.08,-174.94
11327,52.604298,-1.640805,161.82,12.17,3,120.49,24 / 24,3406707,2020-01-08 17:18:01:683,0.276,1.8568,8.8831,0.016,-0.0236,9.8065,-0.1667,0.1328,-0.0244,-15.56,-34.0,22.06,322.97,-82.1,-174.79
11328,52.604298,-1.640805,161.82,12.17,3,120.49,24 / 24,3406808,2020-01-08 17:18:01:784,-1.2003,-1.3144,9.4624,0.0266,0.0055,9.8065,-0.1704,-0.4397,0.2739,-14.81,-33.87,21.63,325.41,-82.18,-174.38
11329,52.604298,-1.640805,161.82,12.17,3,120.49,24 / 24,3406908,2020-01-08 17:18:01:884,-2.6181,-2.7973,9.5117,-0.0391,-0.0142,9.8065,0.0948,0.0225,0.0,-14.12,-33.94,21.06,327.61,-82.2,-172.82
11330,52.604298,-1.640805,161.82,12.17,3,120.49,24 / 24,3407007,2020-01-08 17:18:01:983,-3.102,-0.2664,8.4899,0.0177,-0.0015,9.8066,-0.1322,-0.4622,0.0641,-14.37,-33.56,20.88,327.58,-82.18,-172.83
11331,52.604298,-1.640805,161.82,12.17,3,120.49,24 / 24,3407108,2020-01-08 17:18:02:084,-0.2648,-0.8305,9.7561,-0.006,0.0133,9.8066,-0.0159,-0.0308,0.1133,-13.75,-33.25,20.44,326.21,-82.35,-172.8
11332,52.604298,-1.640805,161.82,12.17,3,120.49,24 / 24,3407207,2020-01-08 17:18:02:183,-0.5121,0.2254,10.8709,0.0264,0.0243,9.8066,-0.1277,-0.4371,0.1599,-13.62,-32.94,19.19,323.97,-82.51,-173.24
11333,52.604298,-1.640805,161.82,12.17,3,120.49,24 / 24,3407308,2020-01-08 17:18:02:284,0.4936,1.2428,8.3292,0.0491,-0.0282,9.8064,-0.2058,-0.2154,0.1764,-14.0,-34.56,19.06,321.92,-82.63,-174.71
11334,52.604298,-1.640805,161.82,12.17,3,120.49,24 / 24,3407407,2020-01-08 17:18:02:383,3.0986,0.7415,11.3699,0.0594,0.0395,9.8063,0.1081,-0.743,0.3268,-13.37,-33.69,20.06,327.2,-82.56,-173.81
11335,52.604298,-1.640805,161.82,12.17,3,120.49,24 / 24,3407508,2020-01-08 17:18:02:484,-5.6633,-3.5694,10.5148,0.0599,0.0238,9.8064,0.0573,-0.7434,0.4035,-13.0,-34.0,20.0,323.53,-82.41,-176.76
11336,52.604298,-1.640805,161.82,12.17,3,120.49,24 / 24,3407608,2020-01-08 17:18:02:584,0.3469,0.5518,9.5198,0.0719,0.0287,9.8063,-0.0529,-0.3057,0.2752,-13.44,-34.06,19.63,325.79,-82.22,-174.7
11337,52.604298,-1.640805,161.82,12.17,3,120.49,24 / 24,3407708,2020-01-08 17:18:02:684,-3.7669,-3.0849,10.374,0.018,0.0219,9.8066,0.0086,-0.5586,0.2064,-13.56,-34.25,19.94,321.03,-82.11,-176.78
11338,52.604298,-1.640805,161.82,12.17,3,120.49,24 / 24,3407808,2020-01-08 17:18:02:784,-0.2567,-1.1428,10.7662,0.0348,-0.0156,9.8065,-0.1552,0.0487,-0.0382,-12.87,-33.69,19.69,322.03,-81.9,-177.54
11339,52.604298,-1.640805,161.82,12.17,3,120.49,24 / 24,3407908,2020-01-08 17:18:02:884,-1.8437,-3.1216,10.5606,0.0238,0.0129,9.8065,-0.099,-0.162,0.0439,-13.12,-33.94,19.81,322.29,-81.97,-177.39
11340,52.604298,-1.640805,161.82,12.17,3,120.49,24 / 24,3408008,2020-01-08 17:18:02:984,-0.1133,-0.3265,10.9638,0.0029,-0.042,9.8065,-0.078,0.0431,-0.2187,-13.06,-34.0,20.31,321.14,-82.02,-178.4
11341,52.604298,-1.640805,161.82,12.17,3,120.49,24 / 24,3408108,2020-01-08 17:18:03:084,-0.4425,-0.5514,9.8542,0.0542,-0.0013,9.8064,-0.0742,0.0541,0.1222,-12.5,-34.56,20.94,324.03,-81.82,-178.97
11342,52.604298,-1.640805,161.82,12.17,3,120.49,24 / 24,3408208,2020-01-08 17:18:03:184,-1.1356,-1.036,9.6347,-0.0242,-0.0003,9.8065,-0.0456,-0.1126,-0.0361,-12.19,-34.0,20.94,324.96,-81.9,-178.47
11343,52.604298,-1.640805,161.82,12.17,3,120.49,24 / 24,3408307,2020-01-08 17:18:03:283,-1.6238,-0.9627,9.2773,-0.0171,-0.0003,9.8065,-0.0735,-0.0614,0.1548,-12.5,-33.69,21.13,326.45,-82.16,-177.46
11344,52.604298,-1.640805,161.82,12.17,3,120.49,24 / 24,3408407,2020-01-08 17:18:03:383,-0.0631,0.3,10.0156,0.0223,0.0209,9.8066,0.0206,-0.27,0.2253,-12.81,-34.75,21.0,325.8,-82.32,-176.07
11345,52.604298,-1.640805,161.82,12.17,3,120.49,24 / 24,3408508,2020-01-08 17:18:03:484,-1.7275,-1.3539,9.2333,-0.0024,-0.0296,9.8066,-0.067,-0.2964,0.0382,-13.12,-34.06,20.81,327.81,-82.27,-174.52
11346,52.604298,-1.640805,161.82,12.17,3,120.49,24 / 24,3408608,2020-01-08 17:18:03:584,0.7386,-0.3946,9.7112,0.0132,0.017,9.8065,0.032,-0.2488,0.1306,-12.31,-34.19,20.63,330.4,-82.24,-174.24
11347,52.604298,-1.640805,161.82,12.17,3,120.49,24 / 24,3408708,2020-01-08 17:18:03:684,-2.0899,-2.2614,8.6177,0.0122,0.0002,9.8066,-0.1218,-0.2018,0.0492,-12.5,-34.25,21.25,330.85,-82.24,-173.87
11348,52.604298,-1.640805,161.82,12.17,3,120.49,24 / 24,3408808,2020-01-08 17:18:03:784,-1.4542,-0.061,9.4985,0.0263,-0.0067,9.8065,-0.1689,-0.4373,0.1987,-12.69,-33.87,21.38,328.98,-82.56,-173.76
11349,52.604298,-1.640805,161.82,12.17,3,120.49,24 / 24,3408907,2020-01-08 17:18:03:883,-8.9892,-3.511,10.4913,0.0027,-0.0125,9.8066,-0.0257,-0.8618,0.4333,-12.25,-33.87,21.5,336.28,-82.7,-170.95
11350,52.604298,-1.640805,161.82,12.17,3,120.49,24 / 24,3409007,2020-01-08 17:18:03:983,-0.6329,1.1484,8.6621,-0.0076,0.0497,9.8065,0.0927,0.0827,-0.2937,-11.25,-33.94,21.94,340.0,-82.87,-169.92
11351,52.604298,-1.640805,161.82,12.17,3,120.49,24 / 24,3409108,2020-01-08 17:18:04:084,-12.8679,-6.919,12.9139,0.069,0.1164,9.8057,0.3281,-1.2918,0.5951,-11.31,-33.25,22.31,335.73,-82.84,-173.59
11352,52.604298,-1.640805,161.82,12.17,3,120.49,24 / 24,3409208,2020-01-08 17:18:04:184,5.4812,1.2467,9.814,-0.0252,-0.0865,9.8062,-0.4415,0.9841,-0.6851,-11.62,-33.81,21.88,335.75,-82.88,-171.5
11353,52.604298,-1.640805,161.82,12.17,3,120.49,24 / 24,3409308,2020-01-08 17:18:04:284,4.6876,3.5946,6.1142,0.1137,0.0415,9.8059,-0.3483,-0.3248,0.3448,-11.19,-33.5,22.06,337.43,-82.87,-172.18
11354,52.604298,-1.640805,161.82,12.17,3,120.49,24 / 24,3409408,2020-01-08 17:18:04:384,6.8121,3.8769,7.9017,-0.1319,-0.0746,9.8055,-0.1945,-1.2322,0.6907,-11.0,-33.87,21.25,344.14,-82.71,-165.24
11355,52.604298,-1.640805,161.82,12.17,3,120.49,24 / 24,3409508,2020-01-08 17:18:04:484,-7.1131,2.7112,5.1037,0.1163,0.045,9.8058,-0.4082,-0.8493,0.6958,-10.81,-34.31,21.63,338.9,-82.9,-170.86
11356,52.604298,-1.640805,161.82,12.17,3,120.49,24 / 24,3409608,2020-01-08 17:18:04:584,-2.9765,-1.0989,10.4999,-0.0463,0.0679,9.8063,0.0929,-0.3919,0.1055,-11.0,-33.69,21.56,344.13,-83.1,-166.59
11357,52.604298,-1.640805,161.82,12.17,3,120.49,24 / 24,3409707,2020-01-08 17:18:04:683,1.6752,-0.3676,12.7668,0.0754,-0.0665,9.8061,-0.4038,-0.2235,0.1583,-10.69,-33.25,21.88,344.11,-83.07,-166.67
11358,52.604298,-1.640805,161.82,12.17,3,120.49,24 / 24,3409808,2020-01-08 17:18:04:784,-1.4232,-0.625,9.9658,0.0362,-0.02,9.8066,-0.2987,-0.0915,0.1203,-9.87,-33.5,21.81,345.38,-82.77,-167.58
11359,52.604298,-1.640805,161.82,12.17,3,120.49,24 / 24,3409907,2020-01-08 17:18:04:883,-1.6477,-1.0024,10.7117,0.0237,-0.0417,9.8065,-0.1624,0.054,0.0319,-10.75,-33.5,22.06,345.06,-83.03,-165.86
11360,52.604298,-1.640805,161.82,12.17,3,120.49,24 / 24,3410008,2020-01-08 17:18:04:984,-0.1863,0.4549,8.7531,-0.0053,-0.0284,9.8065,-0.1215,0.0254,-0.0537,-10.31,-34.12,21.56,347.96,-82.9,-165.43
11361,52.604298,-1.640805,161.82,12.17,3,120.49,24 / 24,3410108,2020-01-08 17:18:05:084,-1.0284,-0.0425,10.4604,-0.0045,-0.0229,9.8066,-0.0368,0.0511,-0.0308,-10.25,-34.19,21.88,348.6,-82.82,-164.88
11362,52.604298,-1.640805,161.82,12.17,3,120.49,24 / 24,3410208,2020-01-08 17:18:05:184,-0.6895,-0.7785,9.2708,0.0008,-0.0273,9.8066,-0.1016,-0.0003,-0.0598,-10.06,-33.56,22.25,348.79,-82.8,-164.72
11363,52.604298,-1.640805,161.82,12.17,3,120.49,24 / 24,3410308,2020-01-08 17:18:05:284,-0.1841,0.1118,9.9795,0.0102,-0.0047,9.8066,0.1456,-0.3433,0.0444,-10.06,-33.44,21.81,347.13,-82.78,-166.14
11364,52.604298,-1.640805,161.82,12.17,3,120.49,24 / 24,3410408,2020-01-08 17:18:05:384,1.0416,1.6405,8.1509,0.0262,-0.0248,9.8065,-0.0479,-0.0453,0.0791,-9.56,-34.12,21.88,346.24,-82.59,-166.73
11365,52.604298,-1.640805,161.82,12.17,3,120.49,24 / 24,3410508,2020-01-08 17:18:05:484,-0.2305,0.1514,9.2294,0.0148,0.0477,9.8065,0.0586,-0.5915,0.1476,-9.19,-34.44,22.31,349.41,-82.61,-166.32
11366,52.604298,-1.640805,161.82,12.17,3,120.49,24 / 24,3410608,2020-01-08 17:18:05:584,-7.4664,-2.9789,7.3283,-0.0038,0.0598,9.8064,-0.0678,-0.4482,0.1908,-9.56,-35.25,21.44,344.3,-83.05,-167.3
11367,52.604298,-1.640805,161.82,12.17,3,120.49,24 / 24,3410708,2020-01-08 17:18:05:684,-13.4971,-1.7632,13.2902,-0.0336,0.1787,9.8049,0.6708,-0.7363,0.7599,-9.69,-36.19,23.44,340.95,-83.98,-172.64
11368,52.604298,-1.640805,161.82,12.17,3,120.49,24 / 24,3410808,2020-01-08 17:18:05:784,7.0195,3.6252,13.3339,-0.3207,0.1064,9.8008,0.8922,0.7987,-0.5881,-9.31,-34.62,23.44,358.46,-83.56,-159.92
11369,52.604298,-1.640805,161.82,12.17,3,120.49,24 / 24,3410908,2020-01-08 17:18:05:884,11.4236,-2.054,12.1261,0.286,-0.0387,9.8024,-0.4682,-1.6943,1.3293,-9.06,-34.0,23.13,356.05,-82.87,-161.88
11370,52.604298,-1.640805,161.82,12.17,3,120.49,24 / 24,3411008,2020-01-08 17:18:05:984,9.0228,1.2711,10.723,0.031,0.013,9.8066,-0.2423,-0.1473,0.5969,-10.12,-34.37,23.81,345.27,-82.43,-169.48
11371,52.604298,-1.640805,161.82,12.17,3,120.49,24 / 24,3411108,2020-01-08 17:18:06:084,-3.2236,-1.9015,9.2738,0.1909,0.0471,9.8046,-0.2298,-1.2871,0.9259,-9.56,-33.87,23.88,350.8,-82.6,-164.96
11372,52.604298,-1.640805,161.82,12.17,3,120.49,24 / 24,3411208,2020-01-08 17:18:06:184,-8.5359,-3.0489,9.2521,0.0759,0.0387,9.8062,-0.1837,-1.0602,0.6162,-8.94,-34.06,23.0,346.81,-82.85,-169.48
11373,52.604298,-1.640805,161.82,12.17,3,120.49,24 / 24,3411308,2020-01-08 17:18:06:284,7.7382,1.6035,10.696,0.1202,-0.0093,9.8059,-0.1539,-0.5702,0.3313,-8.94,-34.12,23.56,345.42,-82.73,-171.49
11374,52.604298,-1.640805,161.82,12.17,3,120.49,24 / 24,3411408,2020-01-08 17:18:06:384,-5.5839,-1.7725,10.3966,0.1172,0.0331,9.8059,-0.1375,-1.1087,0.6838,-8.81,-33.75,23.75,346.46,-82.81,-170.65
11375,52.604298,-1.640805,161.82,12.17,3,120.49,24 / 24,3411508,2020-01-08 17:18:06:484,8.6552,1.6485,10.4938,0.0379,-0.005,9.8065,-0.0859,0.0869,-0.1187,-8.56,-34.19,22.63,348.42,-82.9,-168.17
11376,52.604298,-1.640805,161.82,12.17,3,120.49,24 / 24,3411608,2020-01-08 17:18:06:584,-0.229,0.2136,8.6975,0.1117,0.0386,9.8058,-0.0458,-0.7565,0.5192,-8.69,-33.81,23.0,344.1,-82.95,-171.76
11377,52.604298,-1.640805,161.82,12.17,3,120.49,24 / 24,3411707,2020-01-08 17:18:06:683,6.4386,1.413,9.6382,-0.0157,-0.0432,9.8065,-0.1312,0.4378,-0.2158,-9.44,-34.06,23.06,347.47,-83.02,-168.99
11378,52.604298,-1.640805,161.82,12.17,3,120.49,24 / 24,3411809,2020-01-08 17:18:06:785,-1.8703,0.3726,7.953,0.0707,0.0107,9.8063,-0.2064,-0.3239,0.152,-8.62,-33.5,22.25,346.18,-82.95,-169.13
11379,52.604298,-1.640805,161.82,12.17,3,120.49,24 / 24,3411907,2020-01-08 17:18:06:883,-5.4285,-2.1167,8.502,-0.113,-0.031,9.8058,0.104,0.9081,-0.5973,-9.0,-34.44,22.38,354.52,-82.97,-162.24
11380,52.603596,-1.639729,162.5,12.67,3,157.99,24 / 24,3412008,2020-01-08 17:18:06:984,-7.4406,-1.7932,11.2037,-0.0012,0.0862,9.8062,0.0985,-0.1121,-0.0655,-9.25,-33.44,22.56,352.5,-83.24,-164.9
11381,52.603596,-1.639729,162.5,12.67,3,157.99,24 / 24,3412108,2020-01-08 17:18:07:084,-7.0424,-3.5459,12.8295,-0.1058,-0.0903,9.8056,-0.1382,0.7415,-0.6231,-9.19,-34.37,22.19,348.83,-83.29,-166.99
11382,52.603596,-1.639729,162.5,12.67,3,157.99,24 / 24,3412207,2020-01-08 17:18:07:183,-1.4172,-1.9248,10.6614,0.0562,0.0228,9.8064,-0.0105,0.1729,0.1765,-9.69,-34.19,22.31,349.05,-82.88,-164.53
11383,52.603596,-1.639729,162.5,12.67,3,157.99,24 / 24,3412307,2020-01-08 17:18:07:283,-0.6013,-1.5346,11.6278,-0.0028,-0.0465,9.8065,-0.211,0.6135,-0.245,-10.44,-34.25,22.5,351.38,-82.84,-163.61
11384,52.603596,-1.639729,162.5,12.67,3,157.99,24 / 24,3412408,2020-01-08 17:18:07:384,6.0781,3.6429,7.9256,0.0046,-0.0522,9.8065,-0.2883,0.4631,-0.2988,-10.62,-34.12,22.63,347.54,-82.82,-164.74
11385,52.603596,-1.639729,162.5,12.67,3,157.99,24 / 24,3412508,2020-01-08 17:18:07:484,2.829,-0.1868,11.9204,-0.0599,-0.0361,9.8063,0.1337,0.4435,-0.3172,-10.31,-33.62,22.75,351.75,-82.92,-163.31
11386,52.603596,-1.639729,162.5,12.67,3,157.99,24 / 24,3412608,2020-01-08 17:18:07:584,2.7915,2.0362,7.9474,0.0236,-0.0558,9.8064,-0.208,0.3562,-0.0671,-10.12,-34.19,22.44,348.33,-82.86,-165.11
11387,52.603596,-1.639729,162.5,12.67,3,157.99,24 / 24,3412708,2020-01-08 17:18:07:684,2.4965,0.8784,8.0221,-0.0253,0.0344,9.8065,0.191,-0.1033,-0.0528,-10.37,-33.87,22.31,348.87,-83.02,-164.72
11388,52.603596,-1.639729,162.5,12.67,3,157.99,24 / 24,3412807,2020-01-08 17:18:07:783,4.9098,0.7307,9.5817,0.0119,0.0289,9.8066,0.1809,0.1722,0.0877,-10.06,-34.06,22.06,348.88,-83.19,-164.75
11389,52.603596,-1.639729,162.5,12.67,3,157.99,24 / 24,3412908,2020-01-08 17:18:07:884,-0.842,1.3134,8.5104,-0.0044,0.0561,9.8064,0.1929,-0.0698,0.178,-11.12,-34.69,21.94,347.62,-82.99,-163.59
11390,52.603596,-1.639729,162.5,12.67,3,157.99,24 / 24,3413008,2020-01-08 17:18:07:984,1.4049,0.2987,10.9362,-0.085,0.0101,9.8062,0.1946,0.3917,-0.1989,-11.19,-34.0,22.5,351.2,-83.19,-161.79
11391,52.603596,-1.639729,162.5,12.67,3,157.99,24 / 24,3413107,2020-01-08 17:18:08:083,-1.4097,-0.2962,9.1699,0.0157,0.0181,9.8066,-0.0223,-0.1086,0.2367,-11.5,-34.12,21.38,347.72,-83.12,-162.46
11392,52.603596,-1.639729,162.5,12.67,3,157.99,24 / 24,3413208,2020-01-08 17:18:08:184,4.6278,1.5464,9.712,-0.0632,-0.0133,9.8064,0.0395,0.3668,-0.1982,-11.62,-33.62,21.13,349.36,-83.04,-159.01
11393,52.603596,-1.639729,162.5,12.67,3,157.99,24 / 24,3413307,2020-01-08 17:18:08:283,3.2311,1.09,10.0262,-0.0066,-0.0027,9.8066,0.0263,-0.0657,0.0095,-12.0,-34.06,21.63,350.52,-83.0,-159.24
11394,52.603596,-1.639729,162.5,12.67,3,157.99,24 / 24,3413408,2020-01-08 17:18:08:384,3.0826,1.7861,9.3518,0.0017,-0.0011,9.8066,-0.0244,0.1238,0.0915,-11.94,-34.12,21.38,349.85,-82.96,-158.59
11395,52.603596,-1.639729,162.5,12.67,3,157.99,24 / 24,3413508,2020-01-08 17:18:08:484,2.3129,1.1627,10.5718,0.0146,0.0019,9.8065,0.027,0.0081,0.0892,-12.87,-33.81,20.94,349.01,-82.88,-157.29
11396,52.603596,-1.639729,162.5,12.67,3,157.99,24 / 24,3413607,2020-01-08 17:18:08:583,1.9457,0.276,10.4424,-0.0081,-0.0055,9.8066,0.0568,0.0981,0.0067,-12.44,-33.5,21.13,351.93,-82.84,-156.89
11397,52.603596,-1.639729,162.5,12.67,3,157.99,24 / 24,3413708,2020-01-08 17:18:08:684,2.4169,0.4831,9.7926,-0.0047,0.0121,9.8065,0.0593,0.1452,0.0667,-12.94,-34.0,21.19,349.97,-82.82,-156.47
11398,52.603596,-1.639729,162.5,12.67,3,157.99,24 / 24,3413808,2020-01-08 17:18:08:784,2.1847,0.6174,10.39,-0.026,0.0157,9.8066,0.0676,0.0958,-0.048,-12.81,-34.44,21.0,351.34,-82.81,-155.35
11399,52.603596,-1.639729,162.5,12.67,3,157.99,24 / 24,3413908,2020-01-08 17:18:08:884,3.0535,1.8959,9.9276,0.0042,0.0049,9.8066,-0.0137,0.1266,0.0309,-12.75,-34.37,21.0,351.54,-82.87,-155.2
11400,52.603596,-1.639729,162.5,12.67,3,157.99,24 / 24,3414007,2020-01-08 17:18:08:983,1.7169,1.0137,10.4384,0.0013,0.0193,9.8065,0.1092,0.0261,0.0548,-13.81,-34.25,20.13,347.97,-82.89,-154.89
11401,52.603596,-1.639729,162.5,12.67,3,157.99,24 / 24,3414108,2020-01-08 17:18:09:084,3.0284,2.063,8.522,-0.0166,0.0096,9.8065,0.0351,0.1326,-0.0363,-14.0,-33.94,19.63,347.92,-82.82,-154.91
11402,52.603596,-1.639729,162.5,12.67,3,157.99,24 / 24,3414208,2020-01-08 17:18:09:184,2.3937,0.9387,10.5758,-0.0112,0.0275,9.8066,0.0739,0.1417,0.0929,-14.0,-33.94,19.81,349.36,-82.96,-153.76
11403,52.603596,-1.639729,162.5,12.67,3,157.99,24 / 24,3414308,2020-01-08 17:18:09:284,2.361,1.5697,9.9801,-0.0156,0.0155,9.8066,0.0695,0.1717,0.0066,-14.94,-33.56,19.38,347.85,-82.99,-151.7
11404,52.603596,-1.639729,162.5,12.67,3,157.99,24 / 24,3414408,2020-01-08 17:18:09:384,2.358,1.8323,9.7498,-0.0138,-0.0116,9.8066,-0.0034,0.2583,-0.0471,-15.37,-34.5,19.44,348.48,-82.88,-151.15
11405,52.603596,-1.639729,162.5,12.67,3,157.99,24 / 24,3414508,2020-01-08 17:18:09:484,2.1243,0.0087,10.1686,-0.0217,-0.0122,9.8066,-0.0205,0.2932,-0.1155,-14.94,-34.19,19.06,349.2,-82.83,-150.55
11406,52.603596,-1.639729,162.5,12.67,3,157.99,24 / 24,3414607,2020-01-08 17:18:09:583,2.6138,2.0868,8.9866,0.0032,0.0005,9.8066,-0.0502,0.1232,0.0025,-15.12,-34.56,19.63,352.1,-82.9,-149.61
11407,52.603596,-1.639729,162.5,12.67,3,157.99,24 / 24,3414708,2020-01-08 17:18:09:684,2.9025,2.4683,9.711,0.0101,-0.0243,9.8066,-0.0428,0.2519,-0.081,-15.0,-34.69,18.75,350.23,-82.85,-149.66
11408,52.603596,-1.639729,162.5,12.67,3,157.99,24 / 24,3414807,2020-01-08 17:18:09:783,3.162,1.9461,9.7106,0.015,0.0016,9.8066,-0.0128,0.207,-0.0113,-15.75,-34.56,18.56,347.72,-82.9,-149.97
11409,52.603596,-1.639729,162.5,12.67,3,157.99,23 / 24,3414908,2020-01-08 17:18:09:884,1.4167,0.7373,10.2091,0.012,-0.0164,9.8065,-0.0191,0.1497,0.0467,-15.56,-34.37,18.31,346.07,-82.81,-149.75
11410,52.603596,-1.639729,162.5,12.67,3,157.99,23 / 24,3415008,2020-01-08 17:18:09:984,2.0644,1.5793,9.679,-0.0256,-0.0254,9.8066,0.0151,0.3183,-0.0875,-15.75,-34.06,18.13,347.05,-82.6,-148.87
11411,52.603596,-1.639729,162.5,12.67,3,157.99,23 / 24,3415108,2020-01-08 17:18:10:084,0.7608,0.8049,9.8128,-0.0042,-0.0001,9.8066,-0.025,0.0904,0.0797,-16.25,-34.12,17.81,347.71,-82.55,-148.32
11412,52.603596,-1.639729,162.5,12.67,3,157.99,23 / 24,3415208,2020-01-08 17:18:10:184,2.5535,1.4194,9.9472,-0.0258,-0.0094,9.8065,0.0226,0.1342,-0.0611,-16.56,-34.75,17.69,347.71,-82.6,-146.6
11413,52.603596,-1.639729,162.5,12.67,3,157.99,23 / 24,3415307,2020-01-08 17:18:10:283,2.7019,2.3214,9.7693,0.0006,0.0138,9.8066,0.0078,0.1267,0.0451,-16.62,-34.81,17.81,347.12,-82.69,-147.12
11414,52.603596,-1.639729,162.5,12.67,3,157.99,23 / 24,3415407,2020-01-08 17:18:10:383,2.7738,1.9209,10.0542,0.0025,0.0044,9.8066,-0.001,0.1041,0.0058,-16.25,-34.69,17.13,347.08,-82.67,-147.1
11415,52.603596,-1.639729,162.5,12.67,3,157.99,23 / 24,3415508,2020-01-08 17:18:10:484,2.9339,1.7052,9.9049,0.0017,0.011,9.8066,-0.021,0.0919,0.034,-16.5,-34.31,17.38,347.45,-82.62,-146.86
11416,52.603596,-1.639729,162.5,12.67,3,157.99,23 / 24,3415608,2020-01-08 17:18:10:584,1.9838,1.7496,9.5893,-0.0047,0.0054,9.8066,-0.0302,0.1492,-0.0118,-17.37,-34.12,17.56,348.36,-82.76,-146.18
11417,52.603596,-1.639729,162.5,12.67,3,157.99,23 / 24,3415709,2020-01-08 17:18:10:685,2.5437,2.3481,9.3561,-0.0037,0.0149,9.8066,0.0174,0.0316,0.0175,-17.25,-33.94,16.88,346.5,-82.82,-146.03
11418,52.603596,-1.639729,162.5,12.67,3,157.99,23 / 24,3415808,2020-01-08 17:18:10:784,1.3832,1.3646,10.431,0.0065,0.013,9.8066,0.071,0.0934,0.1131,-17.75,-34.56,17.19,344.83,-82.86,-145.78
11419,52.603596,-1.639729,162.5,12.67,3,157.99,23 / 24,3415907,2020-01-08 17:18:10:883,1.981,2.608,10.1309,0.0055,0.0042,9.8066,0.0029,0.1907,-0.0172,-17.12,-33.56,15.88,344.74,-82.75,-145.63
11420,52.603596,-1.639729,162.5,12.67,3,157.99,23 / 24,3416008,2020-01-08 17:18:10:984,0.7845,1.7195,9.7341,0.0058,0.0086,9.8066,-0.0317,0.0667,0.0275,-17.5,-34.19,15.88,343.59,-82.86,-146.62
11421,52.603596,-1.639729,162.5,12.67,3,157.99,23 / 24,3416108,2020-01-08 17:18:11:084,2.5629,3.6222,9.0542,0.0023,0.0133,9.8066,-0.0109,0.1297,0.0767,-17.5,-34.31,15.19,341.62,-82.93,-146.34
11422,52.603596,-1.639729,162.5,12.67,3,157.99,23 / 24,3416208,2020-01-08 17:18:11:184,1.814,3.1075,9.8262,-0.0039,0.0263,9.8066,0.0234,0.0854,-0.0578,-18.5,-34.37,15.44,340.13,-83.06,-146.12
11423,52.603596,-1.639729,162.5,12.67,3,157.99,23 / 24,3416308,2020-01-08 17:18:11:284,3.552,4.0769,9.7136,-0.0051,-0.0151,9.8066,0.0052,0.2923,-0.2041,-18.12,-34.5,14.19,336.51,-83.1,-147.11
11424,52.603596,-1.639729,162.5,12.67,3,157.99,23 / 24,3416408,2020-01-08 17:18:11:384,2.4047,2.5623,9.4936,0.0137,0.0126,9.8066,-0.0008,0.233,0.054,-18.25,-34.25,14.69,337.8,-83.18,-148.12
11425,52.603596,-1.639729,162.5,12.67,3,157.99,23 / 24,3416507,2020-01-08 17:18:11:483,2.5617,3.0242,9.0284,-0.0081,0.0013,9.8066,0.0829,0.2083,-0.076,-18.94,-34.56,13.5,333.81,-83.07,-147.87
11426,52.603596,-1.639729,162.5,12.67,3,157.99,23 / 24,3416608,2020-01-08 17:18:11:584,-0.7501,-0.978,10.6752,-0.0092,0.0377,9.8066,0.112,-0.1166,0.0652,-18.56,-34.81,14.0,333.62,-83.17,-148.1
11427,52.603596,-1.639729,162.5,12.67,3,157.99,23 / 24,3416708,2020-01-08 17:18:11:684,0.8414,1.2644,10.367,-0.0222,-0.0559,9.8064,0.0435,0.9891,-0.3784,-19.0,-34.75,13.75,333.34,-83.18,-148.34
11428,52.603596,-1.639729,162.5,12.67,3,157.99,23 / 24,3416808,2020-01-08 17:18:11:784,6.8389,7.5959,9.8525,0.003,-0.0277,9.8066,0.0383,0.5079,-0.3426,-19.0,-35.0,13.0,331.09,-83.04,-147.99
11429,52.603596,-1.639729,162.5,12.67,3,157.99,24 / 24,3416908,2020-01-08 17:18:11:884,4.2173,3.11,11.0116,-0.065,-0.0859,9.806,0.1779,0.7843,-0.4721,-19.06,-34.31,13.75,335.29,-82.85,-146.62
11430,52.603596,-1.639729,162.5,12.67,3,157.99,24 / 24,3417008,2020-01-08 17:18:11:984,4.1342,5.7438,8.6133,-0.0069,-0.0383,9.8065,-0.0716,0.683,-0.2337,-19.31,-35.0,13.19,330.62,-82.91,-148.28
11431,52.603596,-1.639729,162.5,12.67,3,157.99,24 / 24,3417107,2020-01-08 17:18:12:083,-0.8099,-0.8778,9.4633,-0.04,-0.043,9.8064,0.0731,0.3327,-0.1702,-19.69,-34.94,12.75,330.1,-83.04,-147.65
11432,52.603596,-1.639729,162.5,12.67,3,157.99,24 / 24,3417208,2020-01-08 17:18:12:184,2.2013,3.5736,8.6772,-0.0163,-0.0569,9.8064,0.0317,0.5701,-0.2441,-19.75,-34.62,12.38,330.45,-82.89,-145.06
11433,52.603596,-1.639729,162.5,12.67,3,157.99,24 / 24,3417307,2020-01-08 17:18:12:283,0.5367,-1.4887,10.8327,-0.0033,-0.0003,9.8066,0.0695,0.0407,0.0719,-20.0,-34.25,11.75,329.63,-82.85,-145.86
11434,52.603596,-1.639729,162.5,12.67,3,157.99,24 / 24,3417407,2020-01-08 17:18:12:383,0.8747,2.1679,9.9194,0.0011,-0.0404,9.8065,-0.0383,0.4906,-0.2346,-19.75,-34.56,12.06,329.4,-82.79,-145.86
11435,52.603596,-1.639729,162.5,12.67,3,157.99,24 / 24,3417507,2020-01-08 17:18:12:483,0.1897,-0.7041,10.4224,-0.0124,0.0221,9.8065,0.0727,-0.0455,0.0991,-20.06,-34.25,11.81,328.65,-83.01,-146.82
11436,52.603596,-1.639729,162.5,12.67,3,157.99,24 / 24,3417608,2020-01-08 17:18:12:584,1.7905,3.8035,9.7021,-0.0013,-0.0428,9.8065,-0.0014,0.3346,-0.1281,-19.75,-34.94,11.31,326.01,-82.85,-146.45
11437,52.603596,-1.639729,162.5,12.67,3,157.99,24 / 24,3417708,2020-01-08 17:18:12:684,0.5428,3.4741,8.6116,-0.0162,0.0298,9.8066,0.1637,-0.1689,0.1707,-19.81,-34.37,11.44,326.21,-82.79,-146.4
11438,52.603596,-1.639729,162.5,12.67,3,157.99,24 / 24,3417808,2020-01-08 17:18:12:784,3.6811,3.487,9.5047,-0.0013,-0.0225,9.8066,0.0496,0.2258,-0.0507,-19.94,-34.69,10.94,325.74,-82.77,-146.61
11439,52.603596,-1.639729,162.5,12.67,3,157.99,24 / 24,3417907,2020-01-08 17:18:12:883,1.6717,1.9863,9.182,-0.0031,0.0514,9.8064,0.0592,-0.2113,0.1966,-20.37,-34.94,11.19,324.79,-82.65,-147.28
11440,52.603596,-1.639729,162.5,12.67,3,157.99,24 / 24,3418007,2020-01-08 17:18:12:983,0.6153,-1.413,11.6487,-0.0191,0.0122,9.8066,0.1675,-0.0578,0.0208,-19.94,-34.37,11.31,323.91,-82.81,-148.36
11441,52.603596,-1.639729,162.5,12.67,3,157.99,24 / 24,3418108,2020-01-08 17:18:13:084,1.3157,2.1874,8.6877,0.0198,0.0225,9.8065,-0.0317,0.0778,0.095,-19.94,-34.37,10.94,320.86,-82.71,-150.85
11442,52.603596,-1.639729,162.5,12.67,3,157.99,24 / 24,3418208,2020-01-08 17:18:13:184,-0.2716,-1.2805,11.2402,-0.0447,0.0201,9.8064,0.1922,-0.3417,0.086,-20.69,-34.44,10.38,317.71,-82.68,-150.29
11443,52.603596,-1.639729,162.5,12.67,3,157.99,24 / 24,3418308,2020-01-08 17:18:13:284,0.1167,-0.0655,11.1174,0.0186,-0.026,9.8065,-0.1962,0.4573,-0.1664,-20.44,-34.87,10.5,321.09,-82.58,-150.32
11444,52.603596,-1.639729,162.5,12.67,3,157.99,24 / 24,3418407,2020-01-08 17:18:13:383,-1.2636,-3.4401,11.4033,0.0177,0.0349,9.8065,-0.0861,-0.0698,0.0379,-20.25,-34.5,10.56,320.62,-82.57,-150.91
11445,52.603596,-1.639729,162.5,12.67,3,157.99,24 / 24,3418508,2020-01-08 17:18:13:484,1.8499,1.0279,12.4343,0.0503,-0.0548,9.8063,-0.0093,0.4266,-0.2382,-20.0,-35.0,10.75,318.55,-82.6,-152.49
11446,52.603596,-1.639729,162.5,12.67,3,157.99,24 / 24,3418608,2020-01-08 17:18:13:584,0.7802,1.9162,9.4328,0.0835,0.002,9.8062,-0.193,0.0628,0.0376,-20.25,-34.69,11.06,315.63,-82.1,-154.39
11447,52.603596,-1.639729,162.5,12.67,3,157.99,24 / 24,3418709,2020-01-08 17:18:13:685,1.4398,1.0833,11.2056,-0.0066,-0.0016,9.8066,0.0522,0.1167,-0.0472,-19.81,-35.19,10.13,313.28,-82.17,-154.04
11448,52.603596,-1.639729,162.5,12.67,3,157.99,24 / 24,3418808,2020-01-08 17:18:13:784,0.1825,0.7137,9.5275,0.0228,-0.0022,9.8066,-0.0646,0.0634,-0.0245,-20.37,-34.5,10.5,316.05,-82.16,-154.34
11449,52.603596,-1.639729,162.5,12.67,3,157.99,24 / 24,3418908,2020-01-08 17:18:13:884,0.3939,-0.696,10.9604,0.0134,-0.0148,9.8066,0.0146,0.2199,-0.1305,-20.06,-34.56,10.81,314.96,-82.27,-155.16
11450,52.603596,-1.639729,162.5,12.67,3,157.99,24 / 24,3419008,2020-01-08 17:18:13:984,1.327,1.5235,9.7924,0.0264,-0.0115,9.8065,-0.0328,0.1514,-0.0551,-20.19,-34.44,10.81,313.43,-82.1,-156.51
11451,52.603596,-1.639729,162.5,12.67,3,157.99,24 / 24,3419108,2020-01-08 17:18:14:084,1.0694,0.5453,10.4338,0.0075,-0.0053,9.8066,-0.0247,0.1533,-0.0597,-20.06,-35.56,10.25,309.27,-82.11,-157.12
11452,52.603596,-1.639729,162.5,12.67,3,157.99,24 / 24,3419208,2020-01-08 17:18:14:184,-0.6873,0.9288,8.6672,0.0227,-0.0051,9.8065,-0.0927,0.0563,-0.0196,-20.0,-35.56,9.56,308.41,-82.11,-157.86
11453,52.603596,-1.639729,162.5,12.67,3,157.99,24 / 24,3419308,2020-01-08 17:18:14:284,1.1858,0.7874,10.8154,0.0189,0.0128,9.8066,-0.0551,0.0476,0.0378,-19.75,-34.94,9.75,307.37,-82.19,-159.15
11454,52.603596,-1.639729,162.5,12.67,3,157.99,24 / 24,3419408,2020-01-08 17:18:14:384,-0.4271,-0.0193,9.902,0.0068,-0.0006,9.8066,-0.0383,0.0337,-0.023,-19.75,-35.69,9.94,307.44,-82.33,-159.0
11455,52.603596,-1.639729,162.5,12.67,3,157.99,24 / 24,3419508,2020-01-08 17:18:14:484,0.379,0.8637,10.1188,0.0107,0.0067,9.8066,0.0003,-0.0509,-0.0249,-19.87,-35.44,10.31,307.05,-82.42,-159.73
11456,52.603596,-1.639729,162.5,12.67,3,157.99,24 / 24,3419607,2020-01-08 17:18:14:583,-0.5627,-0.7124,10.1259,0.0127,0.0178,9.8066,-0.0183,-0.1242,0.0872,-20.06,-35.19,9.88,305.36,-82.39,-161.18
11457,52.603596,-1.639729,162.5,12.67,3,157.99,24 / 24,3419708,2020-01-08 17:18:14:684,0.9884,1.0858,11.5144,0.0384,0.0073,9.8065,-0.1076,-0.0025,0.0017,-19.69,-35.56,10.19,304.53,-82.4,-161.63
11458,52.603596,-1.639729,162.5,12.67,3,157.99,24 / 24,3419808,2020-01-08 17:18:14:784,0.2048,-0.1618,10.5298,0.0259,0.0153,9.8066,-0.089,-0.0738,0.136,-19.5,-35.5,10.31,303.54,-82.29,-163.41
11459,52.603596,-1.639729,162.5,12.67,3,157.99,24 / 24,3419908,2020-01-08 17:18:14:884,0.3233,1.9886,11.2262,0.0342,-0.0058,9.8065,-0.0186,0.0786,-0.028,-20.19,-35.19,9.94,303.37,-82.18,-162.62
11460,52.603596,-1.639729,162.5,12.67,3,157.99,24 / 24,3420008,2020-01-08 17:18:14:984,0.7382,-0.0402,10.5976,0.0255,0.0041,9.8066,0.0212,-0.2242,0.0916,-19.62,-35.62,10.19,302.72,-81.95,-162.57
11461,52.603596,-1.639729,162.5,12.67,3,157.99,24 / 24,3420108,2020-01-08 17:18:15:084,0.1681,3.0649,9.7904,-0.0078,-0.0301,9.8066,-0.041,0.239,-0.1025,-20.62,-35.94,10.0,302.03,-81.84,-162.36
11462,52.603596,-1.639729,162.5,12.67,3,157.99,24 / 24,3420208,2020-01-08 17:18:15:184,-1.2783,-0.0207,10.3522,0.0072,0.0302,9.8065,0.0263,-0.0895,-0.0076,-20.12,-35.12,9.94,302.54,-81.84,-162.88
11463,52.603596,-1.639729,162.5,12.67,3,157.99,24 / 24,3420308,2020-01-08 17:18:15:284,-1.6337,-1.541,10.6446,0.0212,-0.0062,9.8065,-0.0596,0.3751,-0.2294,-19.81,-35.75,10.63,302.74,-81.67,-164.63
11464,52.603596,-1.639729,162.5,12.67,3,157.99,24 / 24,3420408,2020-01-08 17:18:15:384,-1.4511,-1.2939,9.4364,-0.003,0.0607,9.8064,-0.056,0.0182,-0.0402,-19.87,-35.31,10.81,301.72,-81.69,-165.86
11465,52.603596,-1.639729,162.5,12.67,3,157.99,24 / 24,3420508,2020-01-08 17:18:15:484,-0.8852,0.8703,9.213,-0.0044,-0.0136,9.8066,-0.0648,0.2387,-0.0936,-19.5,-35.31,10.0,298.06,-81.88,-167.65
11466,52.603596,-1.639729,162.5,12.67,3,157.99,24 / 24,3420607,2020-01-08 17:18:15:583,-0.0436,2.1868,9.815,0.0082,0.0115,9.8065,0.0614,0.1555,-0.1028,-19.69,-35.0,9.88,297.38,-82.04,-167.77
11467,52.603596,-1.639729,162.5,12.67,3,157.99,24 / 24,3420708,2020-01-08 17:18:15:684,-0.7084,-0.1248,8.7362,0.0429,0.0188,9.8065,0.0056,0.1586,-0.1305,-19.75,-35.25,10.44,296.65,-81.93,-168.26
11468,52.603596,-1.639729,162.5,12.67,3,157.99,24 / 24,3420808,2020-01-08 17:18:15:784,0.1024,1.3511,10.5248,0.0269,0.0245,9.8066,0.1353,0.1818,-0.1178,-18.87,-34.94,9.94,296.55,-81.82,-168.9
11469,52.603596,-1.639729,162.5,12.67,3,157.99,24 / 24,3420908,2020-01-08 17:18:15:884,-0.458,0.5011,9.2091,0.0124,0.0203,9.8065,0.0434,-0.1562,-0.0142,-19.44,-35.5,9.75,296.1,-81.91,-169.44
11470,52.602924,-1.638004,161.95,19.16,3,101.21,24 / 24,3421009,2020-01-08 17:18:15:985,0.1519,0.5206,10.4958,0.0096,0.0278,9.8066,-0.0421,-0.0502,-0.0099,-19.81,-35.31,10.19,293.62,-81.94,-171.03
11471,52.602924,-1.638004,161.95,19.16,3,101.21,24 / 24,3421108,2020-01-08 17:18:16:084,-1.8625,1.4816,8.3452,0.0475,0.0044,9.8065,-0.0602,-0.0893,0.046,-19.75,-35.25,9.44,288.88,-81.82,-172.65
11472,52.602924,-1.638004,161.95,19.16,3,101.21,24 / 24,3421208,2020-01-08 17:18:16:184,-0.1406,-0.1889,9.6692,-0.0097,0.0078,9.8066,0.087,-0.1522,0.0366,-19.25,-35.75,9.44,287.84,-81.83,-173.81
11473,52.602924,-1.638004,161.95,19.16,3,101.21,24 / 24,3421308,2020-01-08 17:18:16:284,-0.4855,1.471,8.8658,0.0165,-0.0063,9.8066,-0.1387,0.0234,0.0406,-18.94,-35.56,9.94,288.99,-81.79,-175.37
11474,52.602924,-1.638004,161.95,19.16,3,101.21,24 / 24,3421408,2020-01-08 17:18:16:384,0.15,1.2639,10.0563,-0.0278,-0.0051,9.8065,-0.0004,0.0818,-0.0023,-18.81,-35.5,10.19,287.87,-81.79,-176.79
11475,52.602924,-1.638004,161.95,19.16,3,101.21,24 / 24,3421508,2020-01-08 17:18:16:484,-0.8443,-1.4398,10.3308,0.0146,0.0288,9.8065,-0.0179,0.1285,-0.0501,-18.81,-35.75,9.75,287.06,-81.84,-177.26
11476,52.602924,-1.638004,161.95,19.16,3,101.21,24 / 24,3421607,2020-01-08 17:18:16:583,0.8268,2.14,9.9428,0.0058,0.0148,9.8066,0.0461,0.3914,-0.2071,-18.87,-35.94,9.44,284.7,-81.72,-176.56
11477,52.602924,-1.638004,161.95,19.16,3,101.21,24 / 24,3421708,2020-01-08 17:18:16:684,-1.48,-2.6716,9.2322,0.0144,0.0277,9.8066,0.0177,-0.1266,0.1125,-18.62,-35.62,9.56,287.89,-81.75,-176.33
11478,52.602924,-1.638004,161.95,19.16,3,101.21,24 / 24,3421807,2020-01-08 17:18:16:783,-0.838,-1.9328,10.6035,0.0136,-0.008,9.8065,0.0849,0.1104,-0.1104,-18.75,-35.87,8.88,285.58,-81.87,-176.0
11479,52.602924,-1.638004,161.95,19.16,3,101.21,24 / 24,3421908,2020-01-08 17:18:16:884,-1.1455,1.8062,9.0194,0.0259,0.0194,9.8066,-0.1493,-0.0755,0.0664,-18.75,-35.62,9.63,287.29,-81.9,-177.14
11480,52.602924,-1.638004,161.95,19.16,3,101.21,24 / 24,3422008,2020-01-08 17:18:16:984,-1.1134,0.9362,9.5026,0.0656,-0.0097,9.8064,-0.2204,0.1674,-0.045,-18.75,-35.25,9.56,287.52,-82.03,-177.51
11481,52.602924,-1.638004,161.95,19.16,3,101.21,24 / 24,3422107,2020-01-08 17:18:17:083,-0.9263,-0.6675,8.7739,0.0231,0.0078,9.8066,-0.1424,-0.0564,0.0062,-19.0,-35.87,9.56,285.76,-81.78,-178.38
11482,52.602924,-1.638004,161.95,19.16,3,101.21,24 / 24,3422208,2020-01-08 17:18:17:184,-0.4085,-1.2232,11.5085,0.0373,-0.0161,9.8065,-0.1521,0.0154,-0.0702,-18.94,-35.25,10.31,285.63,-81.66,-178.68
11483,52.602924,-1.638004,161.95,19.16,3,101.21,24 / 24,3422308,2020-01-08 17:18:17:284,-1.2236,0.0302,9.1585,0.0381,0.0222,9.8065,-0.1369,-0.0204,0.1405,-19.12,-36.0,9.5,285.0,-81.8,-179.13
11484,52.602924,-1.638004,161.95,19.16,3,101.21,24 / 24,3422408,2020-01-08 17:18:17:384,-1.4825,-0.8571,10.3144,0.0092,0.0105,9.8066,0.0339,-0.0025,-0.0579,-19.25,-35.69,9.88,285.67,-81.82,-178.53
11485,52.602924,-1.638004,161.95,19.16,3,101.21,24 / 24,3422507,2020-01-08 17:18:17:483,-0.5509,-1.0003,10.0532,-0.0009,0.0071,9.8065,0.0971,0.0005,0.0409,-19.75,-35.25,9.75,283.46,-81.75,179.78
11486,52.602924,-1.638004,161.95,19.16,3,101.21,24 / 24,3422608,2020-01-08 17:18:17:584,-2.9157,-0.976,8.6973,0.0113,0.0324,9.8065,-0.1199,-0.1075,0.1564,-18.81,-35.19,10.5,287.34,-81.68,-179.72
11487,52.602924,-1.638004,161.95,19.16,3,101.21,24 / 24,3422708,2020-01-08 17:18:17:684,-1.9412,0.3886,9.7801,-0.0071,-0.0136,9.8066,0.0168,0.0272,-0.1129,-18.5,-35.19,9.69,284.55,-81.76,179.42
11488,52.602924,-1.638004,161.95,19.16,3,101.21,24 / 24,3422808,2020-01-08 17:18:17:784,-1.3439,0.2009,9.6591,0.0081,0.0062,9.8065,-0.0148,-0.0586,0.0013,-18.37,-35.37,10.13,282.57,-81.67,177.7
11489,52.602924,-1.638004,161.95,19.16,3,101.21,24 / 24,3422907,2020-01-08 17:18:17:883,-0.4321,-0.5233,9.4932,0.0019,0.0125,9.8066,0.0535,-0.0564,-0.0266,-18.12,-35.44,10.31,282.23,-81.66,177.39
11490,52.602924,-1.638004,161.95,19.16,3,101.21,24 / 24,3423008,2020-01-08 17:18:17:984,-0.7279,-0.6789,9.1763,-0.0295,0.0125,9.8065,0.0783,-0.0014,-0.0317,-18.37,-35.69,10.0,281.02,-81.59,176.77
11491,52.602924,-1.638004,161.95,19.16,3,101.21,24 / 24,3423108,2020-01-08 17:18:18:084,-0.6107,0.1901,10.6818,-0.003,0.0074,9.8066,0.0488,0.0953,-0.0945,-18.31,-35.75,10.63,282.93,-81.69,175.68
11492,52.602924,-1.638004,161.95,19.16,3,101.21,24 / 24,3423208,2020-01-08 17:18:18:184,-1.8868,-0.5553,9.6616,-0.0059,0.0114,9.8065,-0.0155,-0.0384,-0.0192,-18.19,-35.25,11.06,282.26,-81.63,174.74
11493,52.602924,-1.638004,161.95,19.16,3,101.21,24 / 24,3423308,2020-01-08 17:18:18:284,-0.3212,0.5438,9.3819,-0.0039,0.0048,9.8066,-0.0132,0.0762,-0.0735,-18.37,-35.87,10.19,277.8,-81.66,173.55
11494,52.602924,-1.638004,161.95,19.16,3,101.21,24 / 24,3423407,2020-01-08 17:18:18:383,-1.4742,-2.0798,10.3092,0.0046,-0.0097,9.8066,-0.0214,0.0979,-0.1371,-17.87,-35.62,10.75,279.97,-81.61,173.0
11495,52.602924,-1.638004,161.95,19.16,3,101.21,24 / 24,3423507,2020-01-08 17:18:18:483,-0.6774,-0.1234,9.0316,0.0156,0.0025,9.8065,-0.0258,0.2165,-0.0998,-17.81,-35.87,10.56,278.23,-81.5,171.51
11496,52.602924,-1.638004,161.95,19.16,3,101.21,24 / 24,3423608,2020-01-08 17:18:18:584,-1.3672,-0.7066,10.6333,-0.0252,-0.0043,9.8066,0.0393,0.1604,-0.1676,-17.37,-35.31,10.94,278.48,-81.42,170.61
11497,52.602924,-1.638004,161.95,19.16,3,101.21,24 / 24,3423708,2020-01-08 17:18:18:684,-0.1011,1.5868,9.8663,0.0058,-0.0205,9.8066,-0.0495,0.2944,-0.2104,-17.0,-36.06,10.31,274.24,-81.55,169.52
11498,52.602924,-1.638004,161.95,19.16,3,101.21,24 / 24,3423807,2020-01-08 17:18:18:783,-2.3609,-2.641,9.1376,-0.0232,-0.0099,9.8065,0.0621,0.1547,-0.0913,-17.19,-35.44,11.0,275.96,-81.53,167.95
11499,52.602924,-1.638004,161.95,19.16,3,101.21,23 / 24,3423907,2020-01-08 17:18:18:883,-0.8426,1.5355,10.978,-0.0311,-0.0271,9.8065,0.1574,0.2346,-0.2548,-16.5,-35.06,10.94,277.04,-81.62,167.87
11500,52.602924,-1.638004,161.95,19.16,3,101.21,23 / 24,3424007,2020-01-08 17:18:18:983,-1.97,-1.4371,6.8681,0.0033,-0.0017,9.8066,-0.1404,-0.2316,0.0646,-16.5,-36.06,9.56,272.29,-81.45,166.97
11501,52.602924,-1.638004,161.95,19.16,3,101.21,23 / 24,3424107,2020-01-08 17:18:19:083,-0.6933,-0.9541,10.2541,-0.0569,0.0207,9.8064,0.0664,-0.1027,0.0655,-18.0,-36.0,10.06,270.9,-81.6,166.81
11502,52.602924,-1.638004,161.95,19.16,3,101.21,23 / 24,3424207,2020-01-08 17:18:19:183,0.7941,1.4524,11.8701,0.0719,0.0289,9.8063,-0.2856,-0.2218,0.1616,-17.37,-36.44,11.06,272.52,-81.34,165.33
11503,52.602924,-1.638004,161.95,19.16,3,101.21,23 / 24,3424308,2020-01-08 17:18:19:284,-1.563,0.9507,10.6358,0.0095,0.0104,9.8066,-0.0576,-0.1249,0.106,-17.31,-36.31,11.56,275.27,-81.53,164.97
11504,52.602924,-1.638004,161.95,19.16,3,101.21,23 / 24,3424408,2020-01-08 17:18:19:384,0.4362,1.6989,10.7532,0.0479,0.0139,9.8065,-0.0677,-0.3065,0.1531,-18.06,-35.56,11.0,272.37,-81.53,165.67
11505,52.602924,-1.638004,161.95,19.16,3,101.21,23 / 24,3424508,2020-01-08 17:18:19:484,-1.5227,-2.4764,8.7848,0.0226,0.0191,9.8066,-0.0741,-0.2649,0.233,-18.0,-35.75,11.56,274.56,-81.26,165.7
11506,52.602924,-1.638004,161.95,19.16,3,101.21,23 / 24,3424608,2020-01-08 17:18:19:584,-0.9166,0.6891,8.8754,0.0434,0.0163,9.8064,-0.1757,-0.1557,0.1396,-17.37,-35.69,10.63,273.0,-81.17,166.15
11507,52.602924,-1.638004,161.95,19.16,3,101.21,23 / 24,3424708,2020-01-08 17:18:19:684,-1.0841,-2.4406,9.4651,0.0132,0.0249,9.8066,-0.0839,-0.2954,0.1973,-18.37,-36.19,11.31,272.89,-81.37,166.48
11508,52.602924,-1.638004,161.95,19.16,3,101.21,23 / 24,3424807,2020-01-08 17:18:19:783,0.5757,1.2923,10.9328,0.0459,0.0147,9.8065,-0.1119,-0.1327,0.113,-19.0,-35.94,11.31,273.39,-81.55,167.44
11509,52.602924,-1.638004,161.95,19.16,3,101.21,23 / 24,3424908,2020-01-08 17:18:19:884,-1.1034,-1.4413,9.2109,0.0168,0.0201,9.8065,-0.0256,-0.2463,0.184,-17.81,-35.69,12.44,276.21,-81.34,167.19
11510,52.602924,-1.638004,161.95,19.16,3,101.21,23 / 24,3425010,2020-01-08 17:18:19:986,-0.5971,0.6618,9.3293,0.0182,0.0044,9.8066,-0.112,-0.0804,0.0498,-18.56,-35.94,12.44,276.68,-81.46,168.31
11511,52.602924,-1.638004,161.95,19.16,3,101.21,23 / 24,3425109,2020-01-08 17:18:20:085,-1.6215,-2.003,9.7969,0.0026,0.0243,9.8066,-0.0036,-0.2285,0.2085,-18.31,-35.37,11.38,275.13,-81.53,168.01
11512,52.602924,-1.638004,161.95,19.16,3,101.21,23 / 24,3425208,2020-01-08 17:18:20:184,-0.245,1.6958,9.795,0.0118,0.0065,9.8066,0.0088,-0.147,0.156,-17.56,-35.31,12.13,279.53,-81.58,169.6
11513,52.602924,-1.638004,161.95,19.16,3,101.21,23 / 24,3425308,2020-01-08 17:18:20:284,-0.6132,-1.5489,9.9239,-0.0062,0.0111,9.8066,-0.0309,-0.2247,0.1377,-18.0,-34.94,11.88,280.57,-81.64,170.5
11514,52.602924,-1.638004,161.95,19.16,3,101.21,23 / 24,3425408,2020-01-08 17:18:20:384,-0.0667,0.3646,9.6048,-0.0078,-0.0027,9.8066,0.0034,-0.1161,0.0323,-17.62,-36.12,11.94,281.2,-81.78,171.25
11515,52.602924,-1.638004,161.95,19.16,3,101.21,23 / 24,3425508,2020-01-08 17:18:20:484,-1.9623,-2.5532,10.0074,-0.0009,0.02,9.8066,0.0313,-0.2668,0.1763,-18.5,-35.87,12.0,282.23,-81.91,172.01
11516,52.602924,-1.638004,161.95,19.16,3,101.21,23 / 24,3425608,2020-01-08 17:18:20:584,-0.1469,-1.0551,10.0193,0.0034,-0.013,9.8066,-0.0316,0.03,-0.0952,-18.25,-35.25,11.69,284.19,-81.82,173.65
11517,52.602924,-1.638004,161.95,19.16,3,101.21,23 / 24,3425708,2020-01-08 17:18:20:684,-1.3493,-3.2647,9.4934,0.0055,0.029,9.8065,-0.0653,-0.1822,0.2019,-18.5,-35.56,11.25,280.78,-81.94,173.18
11518,52.602924,-1.638004,161.95,19.16,3,101.21,23 / 24,3425808,2020-01-08 17:18:20:784,-1.5914,-1.0853,10.841,-0.0022,-0.0045,9.8065,0.0448,0.0767,-0.0524,-18.75,-36.12,12.13,283.65,-82.0,174.14
11519,52.602924,-1.638004,161.95,19.16,3,101.21,23 / 24,3425908,2020-01-08 17:18:20:884,-0.1947,0.6083,11.4097,0.0255,-0.0065,9.8066,0.0381,-0.0066,-0.0623,-18.69,-35.37,12.25,283.65,-82.06,173.67
11520,52.602924,-1.638004,161.95,19.16,3,101.21,24 / 24,3426008,2020-01-08 17:18:20:984,2.9379,1.2029,13.3041,-0.0122,-0.0272,9.8065,0.3123,0.2951,-0.3223,-18.5,-35.56,11.94,283.75,-81.71,173.82
11521,52.602924,-1.638004,161.95,19.16,3,101.21,24 / 24,3426108,2020-01-08 17:18:21:084,-1.7717,-0.7015,7.7681,0.0755,0.0162,9.8063,-0.1473,-0.1784,-0.0315,-17.87,-34.94,11.81,280.49,-81.27,171.06
