,GPS LATITUDE (degrees), GPS LONGITUDE (degrees), GPS ALTITUDE (m), GPS SPEED (Kmh), GPS ACCURACY (m), GPS ORIENTATION (Â°),GPS SATELLITES IN RANGE, TIME SINCE START (ms), DATE (YYYY-MO-DD HH-MI-SS_SSS), ACCELEROMETER X (m/s²) , ACCELEROMETER Y (m/s²), ACCELEROMETER Z (m/s²), GRAVITY X (m/s²), GRAVITY Y (m/s²), GRAVITY Z (m/s²), GYROSCOPE Yaw (rad/s), GYROSCOPE Pitch (rad/s), GYROSCOPE Roll (rad/s), MAGNETIC FIELD X (Î¼T), MAGNETIC FIELD Y (Î¼T), MAGNETIC FIELD Z (Î¼T), ORIENTATION (Yaw) (Â°), ORIENTATION (Pitch) (Â°), ORIENTATION (Roll ) (Â°)
609,51.71715,-2.303545,0,0.0,3638.6943,0.0,Apr-20,304562,2020-03-21 14:34:01:874,-0.4811,-0.9166,9.39,-0.0123,-0.0058,9.8066,-0.0138,-0.0068,-0.0309,-27.1,-22.87,-46.12,124.19,-9.32,7.93
610,51.71715,-2.303545,0,0.0,3638.6943,0.0,Apr-20,305062,2020-03-21 14:34:02:374,-1.1673,0.0096,9.2942,-0.0051,-0.0036,9.8067,0.0096,-0.0122,-0.0234,-27.1,-22.12,-45.74,125.24,-9.65,7.05
611,51.71715,-2.303545,0,0.0,3638.6943,0.0,Apr-20,305562,2020-03-21 14:34:02:874,-1.115,-0.4246,8.7084,-0.0111,-0.0147,9.8066,0.0234,-0.0249,-0.0234,-27.1,-21.74,-45.3,126.12,-9.77,6.0
612,51.71715,-2.303545,0,0.0,3638.6943,0.0,Apr-20,306062,2020-03-21 14:34:03:374,-0.1025,-0.4956,10.4001,-0.0159,-0.0099,9.8066,-0.0149,-0.01,-0.0117,-27.1,-21.74,-45.3,126.39,-9.86,5.44
613,51.71715,-2.303545,0,0.0,3638.6943,0.0,Apr-20,306562,2020-03-21 14:34:03:874,0.0439,0.4535,9.6679,-0.0029,0.0066,9.8066,0.0746,0.0028,-0.0373,-27.47,-22.12,-45.74,126.35,-9.84,5.04
614,51.71715,-2.303545,0,0.0,3638.6943,0.0,Apr-20,307062,2020-03-21 14:34:04:374,0.4224,0.5315,9.7551,0.0019,0.0043,9.8067,0.016,0.007,-0.033,-27.47,-21.74,-46.12,125.97,-9.99,5.32
615,51.71715,-2.303545,0,0.0,3638.6943,0.0,Apr-20,307562,2020-03-21 14:34:04:874,0.1503,-0.8563,10.1683,0.0103,0.02,9.8066,-0.0991,0.0209,-0.0096,-28.22,-21.37,-46.99,127.84,-9.85,5.85
616,51.71715,-2.303545,0,0.0,3638.6943,0.0,Apr-20,308062,2020-03-21 14:34:05:374,-1.3311,-0.24,10.0752,-0.0001,0.0073,9.8066,-0.0959,0.0241,-0.0075,-28.66,-20.1,-46.92,129.83,-9.94,6.3
617,51.71715,-2.303545,0,0.0,3638.6943,0.0,Apr-14,308563,2020-03-21 14:34:05:875,-0.1368,-0.151,9.0422,0.0023,-0.0024,9.8067,0.0064,-0.0047,-0.0277,-27.91,-20.85,-46.92,127.23,-9.99,6.47
618,51.71715,-2.303545,0,0.0,3638.6943,0.0,Apr-14,309062,2020-03-21 14:34:06:374,0.4072,0.3249,9.2541,0.0137,0.0078,9.8066,0.0085,0.007,-0.0416,-28.66,-19.73,-45.67,129.88,-9.99,6.63
619,51.71715,-2.303545,0,0.0,3638.6943,0.0,Apr-14,309562,2020-03-21 14:34:06:874,-0.6906,0.1792,9.6485,-0.0148,-0.0064,9.8066,-0.017,0.0187,-0.0309,-28.28,-19.73,-46.11,128.45,-9.81,7.03
620,51.71715,-2.303545,0,0.0,3638.6943,0.0,Apr-14,310062,2020-03-21 14:34:07:374,0.2,-0.4404,10.3258,0.0043,0.0116,9.8066,-0.0778,0.0305,-0.0234,-28.66,-18.67,-46.92,129.91,-9.62,8.09
621,51.71715,-2.303545,0,0.0,3638.6943,0.0,Apr-14,310562,2020-03-21 14:34:07:874,0.7156,-0.1829,10.0827,-0.0008,0.0001,9.8067,-0.0245,-0.0111,-0.0266,-28.28,-18.67,-46.49,128.42,-9.65,8.79
622,51.71715,-2.303545,0,0.0,3638.6943,0.0,Apr-14,311062,2020-03-21 14:34:08:374,-0.1345,-0.0264,9.2616,0.0031,-0.0031,9.8067,-0.0011,0.0187,-0.0277,-28.97,-18.29,-46.49,130.98,-9.72,8.47
623,51.71715,-2.303545,0,0.0,3638.6943,0.0,Apr-14,311562,2020-03-21 14:34:08:874,0.7208,-0.0981,9.7761,-0.0004,-0.0057,9.8066,-0.0043,0.007,-0.0288,-28.66,-17.92,-46.11,131.05,-9.69,8.42
624,51.71715,-2.303545,0,0.0,3638.6943,0.0,Apr-14,312062,2020-03-21 14:34:09:374,-0.0786,-0.0538,10.1338,-0.0004,-0.0034,9.8067,0.0362,0.0049,-0.033,-28.97,-17.54,-47.36,130.99,-9.69,8.01
625,51.71715,-2.303545,0,0.0,3638.6943,0.0,Apr-14,312561,2020-03-21 14:34:09:873,-0.3274,-0.6739,9.687,0.0023,-0.001,9.8067,-0.0383,-0.0324,-0.0341,-28.97,-17.92,-45.67,131.61,-9.78,7.58
626,51.71715,-2.303545,0,0.0,3638.6943,0.0,Apr-14,313062,2020-03-21 14:34:10:374,-0.5872,-0.4837,9.4775,0.0006,-0.0116,9.8066,-0.0405,-0.0068,-0.032,-28.97,-17.17,-45.67,132.87,-9.85,7.39
627,51.71715,-2.303545,0,0.0,3638.6943,0.0,Apr-14,313562,2020-03-21 14:34:10:874,-0.4754,0.4793,9.8546,0.0118,0.0016,9.8066,0.0202,-0.01,-0.0416,-28.97,-16.04,-44.8,133.88,-9.94,7.99
628,51.71715,-2.303545,0,0.0,3638.6943,0.0,Apr-14,314062,2020-03-21 14:34:11:374,0.2791,-0.1258,9.4695,-0.0018,-0.0075,9.8066,0.0149,-0.0505,-0.0543,-28.97,-16.04,-45.24,133.93,-9.9,7.99
629,51.71715,-2.303545,0,0.0,3638.6943,0.0,Apr-14,314562,2020-03-21 14:34:11:874,-0.0008,0.2479,9.3898,-0.0067,-0.0046,9.8066,0.0043,0.0081,-0.0256,-29.95,-14.36,-46.05,137.48,-10.01,7.83
630,51.71715,-2.303545,0,0.0,3638.6943,0.0,Apr-14,315062,2020-03-21 14:34:12:374,-0.1916,0.4667,9.2877,-0.0002,0.006,9.8066,0.0181,0.0241,-0.0298,-29.26,-15.11,-45.67,135.29,-10.02,7.32
631,51.71715,-2.303545,0,0.0,3638.6943,0.0,Apr-14,315562,2020-03-21 14:34:12:874,-0.0643,0.5423,10.1212,-0.0093,0.0006,9.8066,0.0575,0.0166,-0.0341,-29.57,-14.73,-45.23,137.43,-10.17,6.71
632,51.71715,-2.303545,0,0.0,3638.6943,0.0,Apr-14,316061,2020-03-21 14:34:13:373,0.6422,1.2332,10.156,0.0062,0.0047,9.8066,0.098,0.0337,-0.0341,-29.95,-14.73,-46.55,136.31,-10.24,6.96
633,51.71715,-2.303545,0,0.0,3638.6943,0.0,Apr-14,316561,2020-03-21 14:34:13:873,0.1644,-0.2937,9.3776,0.0118,-0.006,9.8066,0.0064,-0.0068,-0.0202,-29.57,-14.36,-46.55,137.34,-10.37,7.16
634,51.71715,-2.303545,0,0.0,3638.6943,0.0,Apr-14,317063,2020-03-21 14:34:14:375,0.2655,-0.7451,9.0516,0.0019,-0.0049,9.8067,-0.0479,-0.0399,-0.0085,-29.95,-13.23,-47.42,138.37,-10.28,7.62
635,51.71715,-2.303545,0,0.0,3638.6943,0.0,Apr-14,317562,2020-03-21 14:34:14:874,-1.239,-1.1295,9.3276,-0.0066,-0.0053,9.8066,-0.0362,-0.0004,-0.0021,-29.95,-13.23,-46.98,138.93,-10.32,7.07
636,51.71715,-2.303545,0,0.0,3638.6943,0.0,Apr-14,318062,2020-03-21 14:34:15:374,-0.3322,-0.1233,8.7727,-0.0106,0.0171,9.8066,-0.0011,0.039,0.0064,-29.57,-12.54,-46.17,139.68,-10.24,6.85
637,51.71715,-2.303545,0,0.0,3638.6943,0.0,Apr-14,318561,2020-03-21 14:34:15:873,0.3531,0.4054,9.7158,-0.0091,-0.008,9.8066,0.0426,0.0081,-0.0053,-29.57,-11.79,-45.3,141.39,-10.32,6.99
638,51.71715,-2.303545,0,0.0,3638.6943,0.0,Apr-14,319062,2020-03-21 14:34:16:374,0.1978,0.1483,9.1785,-0.0039,-0.0078,9.8066,0.0149,0.04,0.0053,-29.2,-11.42,-44.48,142.57,-10.26,6.7
639,51.71715,-2.303545,0,0.0,3638.6943,0.0,Apr-14,319562,2020-03-21 14:34:16:874,0.1737,-0.2112,9.7111,-0.0336,0.0,9.8066,-0.0373,0.0496,0.0202,-29.2,-11.04,-44.92,142.79,-10.13,6.29
640,51.71715,-2.303545,0,0.0,3638.6943,0.0,Apr-14,320062,2020-03-21 14:34:17:374,-1.0591,-0.7542,10.5997,0.0014,0.0029,9.8066,-0.0895,-0.0004,0.0202,-29.2,-11.04,-44.92,142.52,-10.42,6.25
641,51.71715,-2.303545,0,0.0,3638.6943,0.0,Apr-14,320562,2020-03-21 14:34:17:874,-0.4869,-0.3008,9.1022,0.0061,0.0062,9.8066,-0.0298,0.0166,0.0011,-29.2,-11.42,-44.48,143.33,-10.57,5.81
642,51.71715,-2.303545,0,0.0,3638.6943,0.0,Apr-14,321062,2020-03-21 14:34:18:374,0.0693,-1.0471,9.763,-0.0106,-0.0088,9.8066,-0.0767,-0.0036,0.0149,-29.2,-11.04,-44.92,143.2,-10.53,5.62
643,51.71715,-2.303545,0,0.0,3638.6943,0.0,Apr-14,321562,2020-03-21 14:34:18:874,-0.3206,0.0576,9.7075,-0.01,-0.005,9.8066,0.0011,0.0017,0.0053,-29.2,-11.42,-45.36,143.35,-10.54,5.5
644,51.71715,-2.303545,0,0.0,3638.6943,0.0,Apr-14,322062,2020-03-21 14:34:19:374,-0.2156,0.7254,9.6104,-0.0077,-0.0125,9.8066,0.0416,0.0155,0.0096,-29.2,-11.04,-44.92,143.47,-10.45,5.48
645,51.71715,-2.303545,0,0.0,3638.6943,0.0,Apr-14,322561,2020-03-21 14:34:19:873,0.9376,1.1731,10.272,-0.0022,-0.0027,9.8066,0.032,0.0198,0.016,-28.88,-11.79,-45.36,141.81,-10.7,5.21
646,51.71715,-2.303545,0,0.0,3638.6943,0.0,Apr-14,323062,2020-03-21 14:34:20:374,0.2951,0.6655,9.8098,0.0026,0.0049,9.8066,0.0245,0.0006,-0.0021,-29.95,-11.42,-44.55,145.06,-10.66,5.06
647,51.71715,-2.303545,0,0.0,3638.6943,0.0,Apr-14,323562,2020-03-21 14:34:20:874,0.1208,-0.1236,9.8221,0.0013,-0.0065,9.8066,0.0053,-0.01,0.0011,-29.57,-11.04,-44.48,144.56,-10.67,5.76
648,51.71715,-2.303545,0,0.0,3638.6943,0.0,Apr-14,324062,2020-03-21 14:34:21:374,0.4098,-0.2896,10.4961,0.0022,0.0083,9.8066,-0.0671,0.0092,0.016,-29.57,-11.79,-45.8,142.45,-10.65,5.46
649,51.71715,-2.303545,0,0.0,3638.6943,0.0,Apr-14,324562,2020-03-21 14:34:21:874,-0.5894,-0.4044,8.9493,-0.0122,-0.0061,9.8066,0.0128,-0.0132,-0.0107,-29.95,-11.42,-45.36,144.78,-10.69,5.25
650,51.71715,-2.303545,0,0.0,3638.6943,0.0,Apr-14,325062,2020-03-21 14:34:22:374,-0.5332,-0.2264,9.3817,-0.0089,-0.0016,9.8066,-0.0085,-0.0345,0.0011,-29.2,-11.42,-44.92,143.13,-10.66,5.56
651,51.71715,-2.303545,0,0.0,3638.6943,0.0,Apr-14,325562,2020-03-21 14:34:22:874,0.6698,0.3961,9.8335,-0.0046,0.0036,9.8067,-0.0128,0.0177,0.017,-29.2,-11.79,-44.92,141.79,-10.61,5.3
652,51.71715,-2.303545,0,0.0,3638.6943,0.0,Apr-14,326062,2020-03-21 14:34:23:374,0.6033,0.3488,9.3817,0.0021,0.0042,9.8066,0.0234,0.0134,0.0075,-29.95,-11.42,-44.92,144.53,-10.59,5.52
653,51.71715,-2.303545,0,0.0,3638.6943,0.0,Apr-14,326562,2020-03-21 14:34:23:874,0.0222,0.6729,10.0195,-0.0087,-0.0121,9.8066,-0.0053,0.0017,0.0149,-29.57,-11.04,-44.92,144.43,-10.61,5.58
654,51.71715,-2.303545,0,0.0,3638.6943,0.0,Apr-14,327062,2020-03-21 14:34:24:374,1.0471,0.4647,10.267,0.0114,0.0053,9.8066,0.0437,-0.0185,-0.0149,-29.57,-11.79,-44.48,143.11,-10.71,5.52
655,51.71715,-2.303545,0,0.0,3638.6943,0.0,Apr-14,327562,2020-03-21 14:34:24:874,-0.2687,0.1476,9.6465,0.0053,-0.0068,9.8066,0.0277,-0.0239,-0.0064,-29.57,-11.04,-44.92,143.97,-10.78,5.81
656,51.71715,-2.303545,0,0.0,3638.6943,0.0,Apr-14,328061,2020-03-21 14:34:25:373,0.7817,0.665,9.9502,0.0045,0.0036,9.8066,0.0245,0.0326,0.0032,-29.57,-11.79,-44.48,142.54,-10.82,5.9
657,51.71715,-2.303545,0,0.0,3638.6943,0.0,Apr-14,328562,2020-03-21 14:34:25:874,-0.1085,-0.6462,9.9892,-0.0034,0.0037,9.8066,-0.0202,0.0209,0.0053,-29.2,-11.42,-44.48,143.51,-10.75,5.51
658,51.71715,-2.303545,0,0.0,3638.6943,0.0,Apr-14,329062,2020-03-21 14:34:26:374,0.056,-0.1807,9.922,0.0014,-0.0015,9.8066,-0.0224,-0.0185,0.0096,-29.2,-11.79,-44.05,141.34,-10.8,5.83
659,51.71715,-2.303545,0,0.0,3638.6943,0.0,Apr-14,329562,2020-03-21 14:34:26:874,-0.1211,-0.8078,9.3388,-0.0005,0.0065,9.8066,-0.0234,-0.042,-0.0096,-28.88,-11.79,-44.86,141.28,-10.7,5.62
660,51.71715,-2.303545,0,0.0,3638.6943,0.0,Apr-14,330062,2020-03-21 14:34:27:374,0.228,-0.1788,9.2326,0.0018,0.0089,9.8066,-0.0501,0.0123,0.0213,-29.26,-11.79,-44.86,140.85,-10.91,5.78
661,51.71715,-2.303545,0,0.0,3638.6943,0.0,Apr-14,330562,2020-03-21 14:34:27:874,0.3099,-0.265,9.9801,-0.0072,0.0045,9.8066,-0.0266,0.0081,0.0043,-29.57,-12.17,-44.48,142.89,-10.85,5.58
662,51.71715,-2.303545,0,0.0,3638.6943,0.0,Apr-14,331062,2020-03-21 14:34:28:374,-0.6368,-0.8843,9.2606,-0.0092,-0.0119,9.8066,-0.0405,0.0049,0.0075,-29.57,-11.79,-44.05,142.84,-10.86,5.61
663,51.71715,-2.303545,0,0.0,3638.6943,0.0,Apr-14,331562,2020-03-21 14:34:28:874,-0.0317,0.1095,9.6473,-0.0007,-0.002,9.8066,0.0202,0.0006,0.0064,-29.57,-12.17,-44.42,142.97,-10.9,5.47
664,51.71715,-2.303545,0,0.0,3638.6943,0.0,Apr-14,332062,2020-03-21 14:34:29:374,0.7118,0.4884,10.3429,0.0066,-0.0003,9.8066,0.0064,0.0155,0.0138,-29.57,-12.54,-44.86,140.67,-10.88,5.71
665,51.71715,-2.303545,0,0.0,3638.6943,0.0,Feb-14,332562,2020-03-21 14:34:29:874,1.0701,-0.0558,10.0341,0.0063,0.007,9.8066,-0.0064,0.006,0.0053,-29.95,-12.17,-44.42,142.85,-11.11,5.38
666,51.71715,-2.303545,0,0.0,3638.6943,0.0,Feb-14,333062,2020-03-21 14:34:30:374,-0.5475,-0.0909,9.5323,-0.0058,0.0065,9.8066,-0.017,0.0123,0.0075,-29.57,-12.17,-44.86,142.39,-10.98,5.53
667,51.71715,-2.303545,0,0.0,3638.6943,0.0,Feb-14,333562,2020-03-21 14:34:30:874,0.4951,0.2639,10.7759,0.0031,0.0023,9.8066,-0.0277,-0.0079,0.0053,-29.95,-12.54,-44.42,141.14,-11.04,5.51
668,51.71715,-2.303545,0,0.0,3638.6943,0.0,Feb-14,334062,2020-03-21 14:34:31:374,-0.4805,-0.005,9.2005,0.0067,0.0228,9.8066,-0.0501,0.0677,0.0245,-29.57,-12.17,-44.42,142.41,-11.24,5.64
669,51.71715,-2.303545,0,0.0,3638.6943,0.0,Feb-14,334562,2020-03-21 14:34:31:874,-0.3803,0.2284,8.699,-0.0048,0.0118,9.8066,0.0458,0.023,-0.0053,-29.57,-12.17,-44.42,142.33,-11.1,5.83
670,51.71715,-2.303545,0,0.0,3638.6943,0.0,Feb-14,335062,2020-03-21 14:34:32:374,-0.0062,0.4533,9.9092,-0.002,0.0064,9.8066,0.0501,-0.0154,-0.0139,-29.57,-12.17,-44.86,141.75,-11.14,5.92
671,51.71715,-2.303545,0,0.0,3638.6943,0.0,Feb-14,335562,2020-03-21 14:34:32:874,-0.2698,-0.6318,8.9959,-0.0099,-0.0053,9.8066,0.0,0.0273,-0.0011,-29.57,-11.79,-44.86,141.14,-11.18,6.39
672,51.71715,-2.303545,0,0.0,3638.6943,0.0,Feb-14,336062,2020-03-21 14:34:33:374,-0.0099,0.4013,9.3432,0.012,0.0114,9.8066,0.0969,-0.0068,-0.0213,-29.95,-12.17,-44.42,141.67,-11.25,6.25
673,51.71715,-2.303545,0,0.0,3638.6943,0.0,Feb-14,336562,2020-03-21 14:34:33:874,-1.2227,-0.2791,8.9291,-0.0091,-0.0014,9.8066,-0.0405,0.0006,0.0128,-29.95,-12.17,-45.3,141.12,-11.22,6.37
674,51.71715,-2.303545,0,0.0,3638.6943,0.0,Feb-14,337062,2020-03-21 14:34:34:374,-0.1967,0.1,9.0814,-0.0056,0.0023,9.8066,0.0139,0.0273,-0.0043,-29.95,-12.17,-44.42,141.56,-11.16,6.43
675,51.71715,-2.303545,0,0.0,3638.6943,0.0,Feb-14,337561,2020-03-21 14:34:34:873,0.6423,0.3566,10.9091,-0.0003,-0.0026,9.8067,0.0234,0.023,0.0117,-29.57,-12.17,-44.42,141.62,-11.21,6.33
676,51.71715,-2.303545,0,0.0,3638.6943,0.0,Feb-14,338062,2020-03-21 14:34:35:374,-0.0011,-0.427,10.1956,-0.0353,-0.0106,9.8066,-0.017,0.0305,0.0277,-29.95,-11.79,-44.42,142.16,-11.08,5.99
677,51.71715,-2.303545,0,0.0,3638.6943,0.0,Feb-14,338562,2020-03-21 14:34:35:874,-0.6809,-0.5619,10.4614,-0.0071,0.0055,9.8066,-0.098,0.04,0.0277,-29.57,-11.79,-44.42,141.9,-11.15,6.14
678,51.71715,-2.303545,0,0.0,3638.6943,0.0,Feb-14,339062,2020-03-21 14:34:36:374,-0.4486,-0.3127,9.8391,0.0069,0.0072,9.8066,0.032,-0.0441,-0.016,-29.57,-12.17,-44.86,141.51,-11.06,6.19
679,51.71715,-2.303545,0,0.0,3638.6943,0.0,Feb-14,339562,2020-03-21 14:34:36:874,-0.9249,0.0251,9.6103,-0.0024,-0.0134,9.8066,0.0234,-0.0164,0.0021,-30.32,-12.17,-44.86,141.11,-11.2,6.4
680,51.71715,-2.303545,0,0.0,3638.6943,0.0,Feb-14,340062,2020-03-21 14:34:37:374,0.5061,-0.026,8.675,0.0065,-0.0055,9.8066,0.0352,-0.0111,0.0021,-29.57,-12.17,-44.42,141.69,-11.18,6.3
681,51.71715,-2.303545,0,0.0,3638.6943,0.0,Feb-14,340562,2020-03-21 14:34:37:874,-0.7178,-0.5005,9.375,0.0047,-0.0051,9.8066,-0.0043,-0.0196,-0.0032,-29.57,-12.54,-44.42,140.39,-11.15,6.06
682,51.71715,-2.303545,0,0.0,3638.6943,0.0,Feb-14,341062,2020-03-21 14:34:38:374,0.618,0.4725,10.0227,-0.0061,-0.0044,9.8066,0.0075,0.0006,0.0075,-29.95,-12.17,-44.42,141.84,-11.31,6.05
683,51.71715,-2.303545,0,0.0,3638.6943,0.0,Feb-14,341562,2020-03-21 14:34:38:874,-0.1816,0.1579,9.4123,0.0009,0.0039,9.8067,-0.0298,0.0283,0.0128,-29.95,-12.54,-43.98,140.44,-11.4,5.77
684,51.71715,-2.303545,0,0.0,3638.6943,0.0,Feb-14,342062,2020-03-21 14:34:39:374,0.4213,-0.1658,10.072,0.0049,0.0013,9.8066,0.0011,0.0038,0.0053,-30.7,-12.54,-44.42,141.7,-11.59,5.61
685,51.71715,-2.303545,0,0.0,3638.6943,0.0,Feb-14,342562,2020-03-21 14:34:39:874,-0.1304,0.3279,9.6386,-0.0075,0.0031,9.8066,-0.0032,0.0038,0.0043,-30.32,-12.17,-43.98,141.72,-11.46,6.01
686,51.71715,-2.303545,0,0.0,3638.6943,0.0,Feb-14,343062,2020-03-21 14:34:40:374,1.1462,0.5251,10.1876,0.0041,0.0101,9.8066,-0.0043,0.04,0.0224,-30.32,-12.86,-44.42,140.06,-11.55,5.96
687,51.71715,-2.303545,0,0.0,3638.6943,0.0,Feb-14,343562,2020-03-21 14:34:40:874,0.3035,0.0816,10.0155,0.002,0.005,9.8066,-0.0064,0.0006,-0.0021,-30.32,-12.17,-44.86,141.09,-11.44,6.19
688,51.71715,-2.303545,0,0.0,3638.6943,0.0,Feb-14,344062,2020-03-21 14:34:41:374,-0.2145,-0.903,10.1748,0.007,-0.0071,9.8066,-0.0234,-0.0207,0.0053,-29.57,-12.54,-44.86,139.54,-11.51,6.08
689,51.71715,-2.303545,0,0.0,3638.6943,0.0,Feb-14,344562,2020-03-21 14:34:41:874,-0.477,-0.4691,9.0892,0.0014,0.0043,9.8067,-0.0053,-0.0271,-0.0021,-30.32,-12.86,-44.42,139.98,-11.46,6.13
690,51.71715,-2.303545,0,0.0,3638.6943,0.0,Feb-14,345062,2020-03-21 14:34:42:374,-0.675,-0.741,8.7802,-0.0025,-0.0026,9.8067,-0.0746,0.0358,0.0256,-29.95,-12.54,-43.98,139.96,-11.61,5.99
691,51.71715,-2.303545,0,0.0,3638.6943,0.0,Feb-14,345562,2020-03-21 14:34:42:874,0.259,0.5407,8.8827,-0.0031,0.0051,9.8066,0.0522,0.0166,0.0011,-30.32,-12.86,-45.3,139.57,-11.66,5.89
692,51.71715,-2.303545,0,0.0,3638.6943,0.0,Feb-14,346062,2020-03-21 14:34:43:374,0.6253,0.4512,9.4602,0.0029,-0.0047,9.8066,0.0511,-0.0058,-0.0021,-29.95,-12.86,-43.98,140.16,-11.74,5.69
693,51.71715,-2.303545,0,0.0,3638.6943,0.0,Feb-14,346562,2020-03-21 14:34:43:874,-0.6155,-0.0587,9.641,-0.0081,-0.0048,9.8066,-0.0234,0.0134,0.0181,-30.32,-12.86,-43.98,140.46,-11.77,5.39
694,51.71715,-2.303545,0,0.0,3638.6943,0.0,Feb-14,347062,2020-03-21 14:34:44:374,-0.0465,0.5084,10.0361,-0.0032,0.0032,9.8067,0.0703,-0.0228,-0.0011,-30.7,-12.54,-43.98,141.64,-11.87,5.39
695,51.71715,-2.303545,0,0.0,3638.6943,0.0,Feb-13,347562,2020-03-21 14:34:44:874,0.0148,-0.4373,10.0209,-0.0056,-0.0002,9.8066,-0.0213,0.0326,0.0373,-30.32,-12.86,-44.42,141.01,-11.94,4.74
696,51.71715,-2.303545,0,0.0,3638.6943,0.0,Feb-13,348062,2020-03-21 14:34:45:374,-0.4396,-0.5109,9.2317,-0.0047,-0.0054,9.8066,0.0107,-0.0132,0.0266,-30.7,-12.86,-43.98,142.87,-12.05,4.17
697,51.71715,-2.303545,0,0.0,3638.6943,0.0,Feb-14,348562,2020-03-21 14:34:45:874,0.05,-0.4865,9.4651,0.0017,-0.0066,9.8066,0.0469,-0.0015,0.0277,-30.32,-12.17,-43.55,143.89,-12.26,3.54
698,51.71715,-2.303545,0,0.0,3638.6943,0.0,Feb-14,349062,2020-03-21 14:34:46:374,-0.5459,-0.6161,9.0341,-0.022,-0.0144,9.8066,0.0139,-0.0111,0.0298,-30.7,-13.23,-44.42,144.19,-12.38,2.82
699,51.71715,-2.303545,0,0.0,3638.6943,0.0,Feb-14,349562,2020-03-21 14:34:46:874,-0.5551,0.1905,9.8602,-0.0098,-0.0058,9.8066,0.0107,-0.0047,0.0341,-30.7,-13.23,-43.98,144.88,-12.52,2.17
700,51.71715,-2.303545,0,0.0,3638.6943,0.0,Feb-14,350062,2020-03-21 14:34:47:374,-0.3284,0.0533,9.7192,-0.003,0.0132,9.8066,-0.0053,0.0326,0.0362,-30.7,-13.98,-43.61,143.78,-12.62,1.54
701,51.71715,-2.303545,0,0.0,3638.6943,0.0,Feb-14,350561,2020-03-21 14:34:47:873,0.6182,0.7016,9.57,0.0011,0.0086,9.8066,0.0298,-0.0015,0.0213,-31.07,-13.98,-44.05,142.91,-12.75,2.11
702,51.71715,-2.303545,0,0.0,3638.6943,0.0,Feb-14,351061,2020-03-21 14:34:48:373,0.0681,0.096,9.7899,-0.0013,-0.0015,9.8067,0.0149,-0.0164,0.0192,-30.7,-14.36,-44.05,142.39,-12.95,2.33
703,51.71715,-2.303545,0,0.0,3638.6943,0.0,Feb-14,351562,2020-03-21 14:34:48:874,-0.4044,-0.2915,10.0917,-0.0067,-0.0097,9.8066,-0.0458,0.0006,0.0415,-31.07,-14.73,-44.05,140.55,-13.06,2.35
704,51.71715,-2.303545,0,0.0,3638.6943,0.0,Feb-14,352062,2020-03-21 14:34:49:374,-0.9683,-0.8192,9.8301,-0.0086,-0.0124,9.8066,-0.0554,-0.0047,0.049,-31.45,-15.11,-44.05,140.16,-13.36,2.37
705,51.71715,-2.303545,0,0.0,3638.6943,0.0,Mar-15,352562,2020-03-21 14:34:49:874,-0.2035,0.8787,9.2356,0.0033,0.0025,9.8066,0.0682,-0.0036,0.0245,-31.07,-14.73,-44.48,140.09,-13.59,2.2
706,51.71715,-2.303545,0,0.0,3638.6943,0.0,Mar-15,353062,2020-03-21 14:34:50:374,0.0712,-0.2234,9.693,-0.0296,-0.0042,9.8066,-0.0181,-0.0207,0.033,-31.54,-14.48,-44.82,143.21,-13.91,1.55
707,51.71715,-2.303545,0,0.0,3638.6943,0.0,Mar-15,353562,2020-03-21 14:34:50:874,0.009,-0.3258,9.7052,-0.002,0.0061,9.8066,0.0,-0.0058,0.0298,-31.16,-15.23,-44.82,140.49,-13.98,1.15
708,51.71715,-2.303545,0,0.0,3638.6943,0.0,Mar-15,354062,2020-03-21 14:34:51:374,-0.0714,0.1155,8.8021,0.0012,0.002,9.8067,0.0607,-0.0047,0.0288,-31.54,-15.6,-44.82,140.35,-14.1,0.87
709,51.71715,-2.303545,0,0.0,3638.6943,0.0,Mar-15,354562,2020-03-21 14:34:51:874,0.0864,0.6705,10.3789,-0.0072,-0.0042,9.8066,0.0522,0.0123,0.0394,-31.54,-15.98,-44.38,140.64,-14.29,0.75
710,51.71715,-2.303545,0,0.0,3638.6943,0.0,Mar-15,355062,2020-03-21 14:34:52:374,-0.6572,-0.2477,9.22,-0.0067,0.0022,9.8066,0.0107,-0.026,0.0362,-31.16,-16.29,-44.38,139.75,-14.52,0.09
711,51.71715,-2.303545,0,0.0,3638.6943,0.0,Mar-15,355561,2020-03-21 14:34:52:873,1.092,0.5565,10.6181,0.0075,0.0163,9.8066,0.017,-0.0047,0.049,-31.16,-17.04,-44.82,136.92,-14.56,0.68
712,51.71715,-2.303545,0,0.0,3638.6943,0.0,Mar-15,356062,2020-03-21 14:34:53:374,-0.2314,0.4792,8.9183,0.0084,0.0138,9.8066,0.0224,0.0102,0.0181,-31.54,-16.66,-43.51,137.76,-14.8,1.28
713,51.71715,-2.303545,0,0.0,3638.6943,0.0,Mar-15,356562,2020-03-21 14:34:53:874,-0.2464,-0.3314,9.5316,0.0033,-0.0043,9.8067,0.0064,-0.0271,0.0128,-31.54,-16.66,-43.94,136.81,-14.82,2.14
714,51.71715,-2.303545,0,0.0,3638.6943,0.0,Mar-15,357062,2020-03-21 14:34:54:374,0.2808,0.1982,10.1297,0.0043,-0.0072,9.8066,-0.0096,0.0006,0.0426,-30.79,-16.66,-43.13,135.84,-14.64,2.36
715,51.71715,-2.303545,0,0.0,3638.6943,0.0,Mar-15,357562,2020-03-21 14:34:54:874,0.7352,0.5673,10.2598,0.0047,-0.0033,9.8066,0.0298,-0.0132,0.0277,-31.16,-17.79,-44.38,133.85,-14.57,2.54
716,51.71715,-2.303545,0,0.0,3638.6943,0.0,Mar-15,358062,2020-03-21 14:34:55:374,0.3123,-0.3984,9.92,0.0025,-0.0057,9.8066,-0.0383,-0.0526,0.0383,-30.04,-17.79,-44.44,132.58,-14.4,2.56
717,51.71715,-2.303545,0,0.0,3638.6943,0.0,Mar-15,358562,2020-03-21 14:34:55:874,-0.8407,0.0506,10.2109,0.0168,-0.0187,9.8066,-0.0714,-0.0303,0.0511,-30.04,-17.41,-45.32,133.39,-14.35,2.79
718,51.71715,-2.303545,0,0.0,3638.6943,0.0,Mar-15,359062,2020-03-21 14:34:56:374,0.0026,1.0594,8.5324,0.0092,0.0064,9.8066,0.1119,-0.0196,-0.0011,-29.35,-18.54,-44.44,130.05,-14.38,2.15
719,51.71715,-2.303545,0,0.0,3638.6943,0.0,Mar-15,359561,2020-03-21 14:34:56:873,0.339,0.1525,9.4252,0.0,-0.0123,9.8066,0.033,-0.058,0.0341,-29.15,-18.22,-45.73,130.48,-14.32,2.27
720,51.71715,-2.303545,0,0.0,3638.6943,0.0,Mar-15,360062,2020-03-21 14:34:57:374,-0.551,0.1149,9.0538,-0.0019,0.0012,9.8067,0.0309,-0.0249,0.0266,-29.46,-17.84,-45.29,131.68,-14.17,1.75
721,51.71715,-2.303545,0,0.0,3638.6943,0.0,Mar-15,360562,2020-03-21 14:34:57:874,0.3536,0.4765,9.7268,-0.0039,-0.0018,9.8067,0.0671,-0.0026,0.0288,-28.02,-18.22,-45.73,129.69,-13.9,2.05
722,51.71715,-2.303545,0,0.0,3638.6943,0.0,Mar-15,361062,2020-03-21 14:34:58:374,-0.6023,-0.7769,9.2135,-0.0022,0.0014,9.8067,-0.017,-0.0185,0.0373,-28.02,-18.59,-46.6,128.88,-13.38,1.82
723,51.71715,-2.303545,0,0.0,3638.6943,0.0,Mar-15,361562,2020-03-21 14:34:58:874,0.2716,-0.467,10.1316,0.0092,-0.0027,9.8066,-0.0138,-0.0036,0.0511,-27.65,-18.59,-46.54,128.93,-13.17,2.09
724,51.71715,-2.303545,0,0.0,3638.6943,0.0,Mar-15,362062,2020-03-21 14:34:59:374,-0.2024,0.3161,9.6476,-0.0052,0.0,9.8066,0.0043,0.0038,0.0405,-27.65,-19.34,-46.16,129.78,-12.87,2.11
725,51.71715,-2.303545,0,0.0,3638.6943,0.0,Mar-15,362562,2020-03-21 14:34:59:874,-0.004,0.475,9.081,0.0139,-0.0076,9.8066,0.0511,-0.0537,0.0106,-27.27,-18.97,-46.1,128.62,-12.4,2.33
726,51.71715,-2.303545,0,0.0,3638.6943,0.0,Mar-15,363062,2020-03-21 14:35:00:374,0.7818,0.2636,9.7771,0.019,0.003,9.8066,0.0575,-0.0026,0.0192,-26.15,-19.72,-46.98,125.83,-11.98,2.43
727,51.71715,-2.303545,0,0.0,3638.6943,0.0,Mar-15,363561,2020-03-21 14:35:00:873,0.3333,0.4179,9.619,-0.0072,0.0001,9.8066,0.032,0.0251,0.0426,-26.15,-19.34,-46.54,127.03,-11.79,2.81
728,51.71715,-2.303545,0,0.0,3638.6943,0.0,Mar-15,364062,2020-03-21 14:35:01:374,-0.0395,-0.6398,9.1817,-0.0021,-0.0035,9.8067,-0.0011,-0.0079,0.0415,-26.15,-20.41,-46.98,126.8,-11.34,2.41
729,51.71715,-2.303545,0,0.0,3638.6943,0.0,Mar-15,364562,2020-03-21 14:35:01:874,0.4493,-0.023,10.7836,-0.0008,-0.005,9.8066,-0.0415,0.0102,0.0586,-25.08,-20.03,-46.54,126.06,-10.81,2.26
730,51.71715,-2.303545,0,0.0,3638.6943,0.0,Mar-15,365062,2020-03-21 14:35:02:374,-0.002,0.0535,9.8588,0.001,-0.0082,9.8066,0.0128,0.0049,0.0298,-24.71,-20.41,-46.98,126.94,-10.48,1.82
731,51.71715,-2.303545,0,0.0,3638.6943,0.0,Mar-15,365562,2020-03-21 14:35:02:874,-0.3775,-0.6806,9.5753,-0.0004,-0.0086,9.8066,-0.033,-0.0143,0.0256,-24.43,-20.73,-47.83,123.98,-10.18,2.0
732,51.71715,-2.303545,0,0.0,3638.6943,0.0,Mar-15,366062,2020-03-21 14:35:03:374,1.2091,-0.4564,10.6747,0.0131,-0.0085,9.8066,-0.0533,-0.0026,0.032,-21.87,-17.8,-45.71,124.78,-9.67,2.95
733,51.71715,-2.303545,0,0.0,3638.6943,0.0,Mar-15,366561,2020-03-21 14:35:03:873,0.7218,0.2639,10.6082,0.0081,-0.0053,9.8066,-0.0863,0.0699,0.0469,-23.68,-20.36,-47.4,125.75,-9.23,3.35
734,51.71715,-2.303545,0,0.0,3638.6943,0.0,Mar-15,367061,2020-03-21 14:35:04:373,1.1161,-0.229,10.4855,0.0092,-0.0037,9.8066,0.016,-0.0249,0.0064,-23.68,-21.11,-47.02,124.41,-8.89,4.21
735,51.71715,-2.303545,0,0.0,3638.6943,0.0,Mar-14,367562,2020-03-21 14:35:04:874,0.3534,-0.1868,9.5633,0.003,-0.0103,9.8066,-0.0085,-0.0143,0.0192,-23.31,-21.86,-47.4,122.63,-8.47,3.81
736,51.71715,-2.303545,0,0.0,3638.6943,0.0,Mar-14,368062,2020-03-21 14:35:05:374,-0.6599,-0.8495,10.3504,-0.0024,-0.01,9.8066,-0.0852,-0.0271,0.0383,-22.18,-21.48,-47.83,122.27,-8.2,3.59
737,51.71715,-2.303545,0,0.0,3638.6943,0.0,Mar-15,368561,2020-03-21 14:35:05:873,-0.379,-0.0558,9.2921,-0.0062,0.0062,9.8066,-0.0256,-0.0047,0.017,-22.93,-21.48,-47.83,124.18,-7.88,3.83
738,51.71715,-2.303545,0,0.0,3638.6943,0.0,Mar-15,369062,2020-03-21 14:35:06:374,-0.0237,0.4247,9.3118,0.0033,0.0041,9.8066,0.0384,0.0134,0.0128,-22.56,-21.48,-46.96,124.53,-7.63,4.19
739,51.71715,-2.303545,0,0.0,3638.6943,0.0,Mar-15,369562,2020-03-21 14:35:06:874,0.8203,-0.342,10.4989,0.0018,-0.0005,9.8067,-0.0298,0.0219,0.0256,-22.56,-21.86,-47.83,123.39,-7.38,4.38
740,51.71715,-2.303545,0,0.0,3638.6943,0.0,Mar-15,370062,2020-03-21 14:35:07:374,0.5134,0.5572,9.5579,0.0188,0.0085,9.8066,0.0362,0.0102,0.0043,-22.56,-21.86,-47.4,123.84,-7.33,4.25
741,51.71715,-2.303545,0,0.0,3638.6943,0.0,Mar-15,370562,2020-03-21 14:35:07:874,-0.2185,-0.4859,9.1772,-0.0043,-0.0101,9.8066,-0.0011,-0.0196,-0.0032,-22.93,-21.48,-47.4,124.77,-7.22,4.58
742,51.71715,-2.303545,0,0.0,3638.6943,0.0,Mar-15,371062,2020-03-21 14:35:08:374,0.3403,0.1291,9.7679,-0.0031,0.0015,9.8067,-0.0256,-0.0058,0.0138,-22.56,-21.48,-46.96,124.63,-7.16,4.88
743,51.71715,-2.303545,0,0.0,3638.6943,0.0,Mar-15,371562,2020-03-21 14:35:08:874,-0.2942,0.0324,10.0807,0.0063,0.0028,9.8066,0.0021,0.0123,0.0266,-23.31,-21.11,-46.96,124.29,-7.24,5.18
744,51.71715,-2.303545,0,0.0,3638.6943,0.0,Mar-15,372062,2020-03-21 14:35:09:374,-0.5801,0.0089,9.7986,0.0084,0.0018,9.8066,-0.0202,-0.0132,0.0096,-22.56,-21.86,-46.96,123.4,-7.41,4.7
745,51.71715,-2.303545,0,0.0,3638.6943,0.0,Mar-15,372562,2020-03-21 14:35:09:874,0.2476,0.4288,10.5684,0.0028,0.0039,9.8066,-0.0075,0.0294,0.0298,-22.93,-21.11,-47.4,124.11,-7.52,4.93
746,51.71715,-2.303545,0,0.0,3638.6943,0.0,Mar-15,373061,2020-03-21 14:35:10:373,-1.0718,-0.5794,9.7405,-0.0048,-0.0006,9.8066,-0.0831,0.0134,0.0288,-22.56,-21.48,-46.52,123.99,-7.78,4.64
747,51.71715,-2.303545,0,0.0,3638.6943,0.0,Mar-15,373562,2020-03-21 14:35:10:874,-0.0516,-0.5591,9.9484,0.0062,0.0012,9.8066,-0.0543,0.0038,0.016,-23.31,-22.17,-46.96,122.72,-7.99,4.6
748,51.71715,-2.303545,0,0.0,3638.6943,0.0,Mar-15,374062,2020-03-21 14:35:11:374,-0.7601,-0.5336,10.2046,0.0045,0.017,9.8066,-0.0724,0.0155,0.017,-22.93,-21.86,-46.96,122.53,-8.14,4.58
749,51.71715,-2.303545,0,0.0,3638.6943,0.0,Mar-15,374562,2020-03-21 14:35:11:874,-0.5357,-0.4418,9.7537,-0.0007,-0.0057,9.8066,-0.0202,-0.0303,0.0117,-22.93,-22.17,-46.52,122.29,-8.38,4.47
750,51.71715,-2.303545,0,0.0,3638.6943,0.0,Mar-15,375062,2020-03-21 14:35:12:374,0.684,0.2783,10.2027,0.0093,0.0045,9.8066,0.0756,0.0017,0.0,-23.31,-22.17,-47.4,122.14,-8.57,4.31
751,51.71715,-2.303545,0,0.0,3638.6943,0.0,Mar-15,375562,2020-03-21 14:35:12:874,0.2999,0.0805,9.0596,-0.0016,-0.0065,9.8066,0.0341,-0.0079,0.0064,-23.31,-22.55,-46.96,120.92,-8.79,4.26
752,51.71715,-2.303545,0,0.0,3638.6943,0.0,Mar-15,376062,2020-03-21 14:35:13:374,0.6739,0.2631,9.7438,0.0022,0.0,9.8067,0.0458,0.0145,0.0096,-23.31,-22.17,-46.52,121.29,-9.15,4.42
753,51.71715,-2.303545,0,0.0,3638.6943,0.0,Mar-15,376562,2020-03-21 14:35:13:874,-0.4483,0.7228,9.1692,-0.0016,0.0024,9.8067,0.0149,0.0251,-0.0011,-23.31,-22.23,-46.52,121.05,-9.26,4.54
754,51.71715,-2.303545,0,0.0,3638.6943,0.0,Mar-15,377062,2020-03-21 14:35:14:374,1.2614,0.1073,10.3464,0.0029,0.0028,9.8066,0.0043,0.0177,0.0181,-23.31,-22.23,-46.15,121.14,-9.41,4.61
755,51.71715,-2.303545,0,0.0,3638.6943,0.0,Mar-15,377562,2020-03-21 14:35:14:874,0.1537,-0.8577,9.9681,0.0088,-0.0008,9.8066,-0.0735,0.0017,0.0373,-23.31,-22.23,-47.02,120.53,-9.58,4.65
756,51.71715,-2.303545,0,0.0,3638.6943,0.0,Mar-15,378062,2020-03-21 14:35:15:374,-0.5481,-0.8563,8.9045,0.0051,0.0012,9.8066,0.0,-0.0409,-0.0053,-23.31,-22.61,-46.15,119.55,-9.76,4.94
757,51.71715,-2.303545,0,0.0,3638.6943,0.0,Mar-15,378562,2020-03-21 14:35:15:874,-0.5237,0.7052,9.0512,-0.0098,-0.0048,9.8066,0.0522,0.0155,-0.0053,-22.93,-21.86,-47.02,119.62,-9.95,5.28
758,51.71715,-2.303545,0,0.0,3638.6943,0.0,Mar-15,379061,2020-03-21 14:35:16:373,0.359,0.1567,9.6852,-0.0005,0.0081,9.8066,0.0085,0.023,0.0021,-23.68,-22.23,-46.65,121.04,-10.08,5.3
759,51.71715,-2.303545,0,0.0,3638.6943,0.0,Mar-15,379562,2020-03-21 14:35:16:874,0.0513,-0.147,9.8013,-0.0066,0.0049,9.8066,0.0266,-0.0122,-0.0011,-22.93,-22.61,-46.65,118.35,-10.23,5.31
760,51.71715,-2.303545,0,0.0,3638.6943,0.0,Mar-15,380061,2020-03-21 14:35:17:373,0.3315,0.0121,9.084,-0.0054,0.0048,9.8066,0.0288,0.0198,0.0138,-22.18,-22.61,-46.21,116.84,-10.36,5.44
761,51.71715,-2.303545,0,0.0,3638.6943,0.0,Mar-15,380562,2020-03-21 14:35:17:874,1.1824,-0.4301,10.5417,-0.0093,-0.0098,9.8066,0.0192,-0.0196,0.0106,-23.31,-22.23,-47.08,118.85,-10.5,5.29
762,51.71715,-2.303545,0,0.0,3638.6943,0.0,Mar-15,381061,2020-03-21 14:35:18:373,0.266,0.3492,9.5172,-0.0002,0.0065,9.8066,0.0479,0.0092,-0.0085,-23.31,-22.61,-47.08,117.88,-10.69,5.01
763,51.71715,-2.303545,0,0.0,3638.6943,0.0,Mar-15,381562,2020-03-21 14:35:18:874,-0.9471,-0.6544,9.9422,-0.0066,-0.004,9.8066,-0.0415,-0.0143,0.0149,-23.68,-22.61,-47.08,119.4,-10.86,4.74
764,51.71715,-2.303545,0,0.0,3638.6943,0.0,Mar-15,382062,2020-03-21 14:35:19:374,0.0703,0.4128,10.0686,-0.0066,-0.0097,9.8066,0.0288,-0.01,0.0149,-23.31,-22.61,-46.65,117.64,-11.03,4.57
765,51.71715,-2.303545,0,0.0,3638.6943,0.0,Mar-15,382562,2020-03-21 14:35:19:874,-0.4762,0.5786,9.4399,-0.0178,-0.0125,9.8066,-0.0064,-0.0633,-0.0117,-23.31,-22.61,-47.02,117.56,-11.16,4.35
766,51.71715,-2.303545,0,0.0,3638.6943,0.0,Mar-15,383062,2020-03-21 14:35:20:374,-1.1479,-0.462,9.8283,0.0135,0.0181,9.8066,-0.0288,0.0422,0.0202,-23.31,-22.61,-46.65,117.02,-11.39,4.75
767,51.71715,-2.303545,0,0.0,3638.6943,0.0,Mar-15,383561,2020-03-21 14:35:20:873,-0.8813,-0.184,8.3273,0.0038,0.0084,9.8066,0.0447,-0.0249,-0.016,-23.31,-22.61,-46.58,117.11,-11.32,4.77
768,51.71715,-2.303545,0,0.0,3638.6943,0.0,Mar-15,384062,2020-03-21 14:35:21:374,-1.1209,0.1654,8.7868,-0.0094,0.002,9.8066,-0.0064,0.0113,0.0149,-22.93,-23.3,-47.46,117.01,-11.43,4.66
769,51.71715,-2.303545,0,0.0,3638.6943,0.0,Mar-15,384562,2020-03-21 14:35:21:874,0.0909,0.435,10.2138,-0.0095,-0.0002,9.8066,0.0266,0.0209,0.0053,-23.31,-23.3,-47.02,117.08,-11.45,4.47
770,51.71715,-2.303545,0,0.0,3638.6943,0.0,Mar-15,385061,2020-03-21 14:35:22:373,0.6376,-0.1007,9.6786,-0.0004,-0.0001,9.8067,0.0181,0.0038,0.0075,-22.93,-23.3,-46.58,116.85,-11.46,4.9
771,51.71715,-2.303545,0,0.0,3638.6943,0.0,Mar-15,385562,2020-03-21 14:35:22:874,-0.5737,-0.8752,9.4712,-0.0018,0.0,9.8067,-0.0437,-0.0047,0.0149,-22.93,-23.67,-47.02,116.16,-11.5,4.53
772,51.71715,-2.303545,0,0.0,3638.6943,0.0,Mar-15,386062,2020-03-21 14:35:23:374,-0.1037,-0.9335,8.6208,-0.0019,-0.004,9.8066,0.0277,-0.0154,0.0011,-22.62,-22.8,-47.69,116.57,-11.51,4.49
773,51.71715,-2.303545,0,0.0,3638.6943,0.0,Mar-15,386562,2020-03-21 14:35:23:874,-0.1549,0.4864,10.3657,0.0123,-0.0053,9.8066,-0.0011,-0.0313,0.0011,-22.62,-23.17,-47.25,117.15,-11.55,4.05
774,51.71715,-2.303545,0,0.0,3638.6943,0.0,Mar-15,387062,2020-03-21 14:35:24:374,0.7926,-0.0119,9.2736,0.0058,-0.0027,9.8066,0.033,-0.0249,0.0,-22.24,-22.8,-47.25,115.31,-11.45,4.61
775,51.71715,-2.303545,0,0.0,3638.6943,0.0,Mar-15,387562,2020-03-21 14:35:24:874,0.6968,0.1238,10.0753,0.0039,-0.0039,9.8066,-0.0149,-0.0132,0.0096,-22.24,-22.42,-47.63,115.69,-11.57,4.3
776,51.71715,-2.303545,0,0.0,3638.6943,0.0,Mar-15,388061,2020-03-21 14:35:25:373,-0.9304,0.0304,10.2009,0.0129,0.003,9.8066,0.032,-0.059,-0.0064,-22.62,-23.17,-47.63,116.65,-11.54,4.27
777,51.71715,-2.303545,0,0.0,3638.6943,0.0,Mar-15,388562,2020-03-21 14:35:25:874,0.518,-0.1472,9.8747,0.0079,0.0014,9.8066,0.0107,-0.0185,0.0075,-22.62,-23.55,-47.69,115.87,-11.45,4.46
778,51.71715,-2.303545,0,0.0,3638.6943,0.0,Mar-15,389061,2020-03-21 14:35:26:373,-0.5851,-0.3588,9.4125,-0.0039,0.0017,9.8067,0.0021,-0.01,0.0117,-22.62,-22.8,-47.63,116.73,-11.37,4.59
779,51.71715,-2.303545,0,0.0,3638.6943,0.0,Mar-15,389564,2020-03-21 14:35:26:876,0.0426,-0.633,9.5828,-0.002,-0.0088,9.8066,0.0352,0.0315,0.0106,-22.62,-23.17,-48.06,116.9,-11.23,4.65
780,51.71715,-2.303545,0,0.0,3638.6943,0.0,Mar-15,390062,2020-03-21 14:35:27:374,0.2382,-0.535,10.4727,-0.0106,0.0003,9.8066,-0.0586,0.0155,0.0394,-21.87,-22.8,-48.06,115.05,-11.2,5.06
781,51.71715,-2.303545,0,0.0,3638.6943,0.0,May-15,390562,2020-03-21 14:35:27:874,0.6411,0.5429,9.4235,0.0254,0.0198,9.8066,0.0586,0.0347,-0.0032,-22.24,-23.17,-48.5,114.73,-11.17,4.97
782,51.71715,-2.303545,0,0.0,3638.6943,0.0,May-15,391062,2020-03-21 14:35:28:374,0.2679,-0.1406,9.6075,0.0063,0.011,9.8066,0.0011,0.0251,0.0181,-21.87,-23.17,-48.06,115.05,-11.25,4.94
783,51.71715,-2.303545,0,0.0,3638.6943,0.0,May-15,391563,2020-03-21 14:35:28:875,-1.3246,-0.965,9.5277,-0.0042,-0.0007,9.8066,-0.0927,-0.0154,0.0309,-22.24,-22.8,-47.63,115.04,-11.31,4.74
784,51.71715,-2.303545,0,0.0,3638.6943,0.0,May-15,392062,2020-03-21 14:35:29:374,0.6436,0.0745,9.0355,-0.0063,-0.0034,9.8066,0.0117,-0.0217,0.0106,-22.24,-22.42,-48.06,115.57,-11.33,5.23
785,51.71715,-2.303545,0,0.0,3638.6943,0.0,May-15,392562,2020-03-21 14:35:29:874,-0.2243,-0.6842,9.1741,-0.0031,0.02,9.8066,-0.0256,0.0273,0.0106,-22.24,-23.17,-48.06,114.66,-11.37,5.38
786,51.71715,-2.303545,0,0.0,3638.6943,0.0,May-15,393063,2020-03-21 14:35:30:375,0.0558,-0.301,9.7185,0.0108,0.0087,9.8066,0.0117,-0.0047,0.0021,-21.56,-23.17,-48.06,114.9,-11.23,5.29
787,51.71715,-2.303545,0,0.0,3638.6943,0.0,May-15,393562,2020-03-21 14:35:30:874,0.2245,0.3748,9.5695,0.0018,0.0008,9.8066,-0.0032,-0.0047,0.0096,-21.87,-23.17,-48.06,114.54,-11.36,5.64
788,51.71715,-2.303545,0,0.0,3638.6943,0.0,May-15,394061,2020-03-21 14:35:31:373,-0.1438,0.3148,10.0567,0.0023,-0.003,9.8067,-0.0234,0.0187,0.0266,-22.24,-23.17,-48.06,114.86,-11.23,5.37
789,51.71715,-2.303545,0,0.0,3638.6943,0.0,May-15,394562,2020-03-21 14:35:31:874,-0.1075,-0.4923,9.5759,-0.0026,-0.0257,9.8066,-0.0192,-0.0079,0.016,-21.56,-22.8,-48.5,114.43,-11.2,5.49
790,51.71715,-2.303545,0,0.0,3638.6943,0.0,May-15,395062,2020-03-21 14:35:32:374,0.0639,0.2372,9.7832,0.0057,0.0051,9.8066,-0.016,0.0017,0.0128,-21.87,-23.55,-48.5,113.74,-11.14,5.63
791,51.71715,-2.303545,0,0.0,3638.6943,0.0,May-15,395563,2020-03-21 14:35:32:875,0.0185,-0.1645,9.8152,0.0073,0.004,9.8066,-0.0085,0.0081,-0.0011,-21.56,-23.17,-48.5,114.22,-11.15,6.1
792,51.71715,-2.303545,0,0.0,3638.6943,0.0,May-15,396062,2020-03-21 14:35:33:374,0.4876,-0.3359,8.6421,-0.0009,0.0099,9.8066,-0.0138,0.039,0.017,-21.56,-22.8,-47.63,114.66,-11.08,6.26
793,51.71715,-2.303545,0,0.0,3638.6943,0.0,May-15,396561,2020-03-21 14:35:33:873,-0.7861,-0.2321,9.8648,-0.0133,0.0046,9.8066,-0.0298,0.0273,0.016,-21.87,-22.8,-47.19,115.29,-10.86,6.44
794,51.71715,-2.303545,0,0.0,3638.6943,0.0,May-15,397061,2020-03-21 14:35:34:373,-0.3655,-0.5994,9.9282,-0.0068,0.0133,9.8066,0.0,0.0028,0.0053,-21.49,-23.55,-46.81,113.02,-10.96,5.9
795,51.71715,-2.303545,0,0.0,3638.6943,0.0,May-15,397562,2020-03-21 14:35:34:874,0.1547,-0.1791,9.1213,0.005,0.0004,9.8066,-0.0117,-0.0058,0.0106,-21.18,-23.55,-47.25,112.92,-11.01,5.97
796,51.71715,-2.303545,0,0.0,3638.6943,0.0,May-15,398062,2020-03-21 14:35:35:374,-1.2661,-0.3298,9.8513,-0.0134,-0.0009,9.8066,-0.0341,0.0017,0.0181,-21.87,-22.8,-47.69,115.06,-11.05,5.5
797,51.71715,-2.303545,0,0.0,3638.6943,0.0,May-15,398562,2020-03-21 14:35:35:874,0.3306,0.1371,9.5005,-0.0064,0.0022,9.8066,0.0181,0.0155,0.0096,-20.81,-23.55,-48.13,112.88,-10.95,5.34
798,51.71715,-2.303545,0,0.0,3638.6943,0.0,May-15,399062,2020-03-21 14:35:36:374,-0.4736,-0.4178,10.1479,-0.0061,-0.0037,9.8066,0.0522,-0.0164,-0.0053,-21.87,-23.17,-48.56,114.81,-10.98,5.39
799,51.71715,-2.303545,0,0.0,3638.6943,0.0,May-15,399561,2020-03-21 14:35:36:873,0.1573,0.3136,9.6943,-0.0035,-0.0006,9.8066,-0.0362,0.0123,0.0149,-20.81,-23.17,-48.56,113.03,-10.99,5.53
800,51.71715,-2.303545,0,0.0,3638.6943,0.0,May-15,400062,2020-03-21 14:35:37:374,-0.0987,0.5677,9.356,0.0039,0.0084,9.8066,-0.0724,-0.01,0.0245,-21.12,-23.23,-48.56,113.0,-11.07,5.34
801,51.71715,-2.303545,0,0.0,3638.6943,0.0,May-15,400562,2020-03-21 14:35:37:874,0.1586,0.2556,9.3493,-0.0028,0.0068,9.8066,0.0149,-0.0036,0.0,-21.12,-23.55,-48.56,112.33,-11.03,5.41
802,51.71715,-2.303545,0,0.0,3638.6943,0.0,May-15,401063,2020-03-21 14:35:38:375,-0.5154,-0.7691,9.8547,-0.0199,0.0006,9.8066,0.016,0.039,0.0117,-21.12,-23.55,-48.13,112.77,-10.99,5.43
803,51.71715,-2.303545,0,0.0,3638.6943,0.0,May-15,401562,2020-03-21 14:35:38:874,-0.2511,-0.1554,9.6335,-0.0028,0.0084,9.8066,-0.032,0.0305,0.0117,-20.81,-23.92,-48.19,112.53,-11.11,5.6
804,51.71715,-2.303545,0,0.0,3638.6943,0.0,May-15,402062,2020-03-21 14:35:39:374,-0.2809,0.4372,9.0972,-0.0021,-0.0019,9.8067,0.0234,0.0028,0.0075,-20.81,-23.92,-48.56,112.23,-11.0,5.76
805,51.71715,-2.303545,0,0.0,3638.6943,0.0,May-15,402561,2020-03-21 14:35:39:873,0.4623,-0.2758,9.3141,0.0052,0.0032,9.8066,0.0107,0.0187,0.016,-21.12,-23.92,-48.56,112.24,-11.0,5.75
806,51.71715,-2.303545,0,0.0,3638.6943,0.0,May-15,403061,2020-03-21 14:35:40:373,-0.0659,-0.6162,9.8167,0.002,-0.0012,9.8067,0.032,-0.0143,-0.0096,-20.81,-23.55,-47.25,112.8,-11.19,5.62
807,51.71715,-2.303545,0,0.0,3638.6943,0.0,May-15,403562,2020-03-21 14:35:40:874,0.6419,-0.1263,10.0398,0.0126,-0.0049,9.8066,0.0735,-0.0377,-0.0245,-20.81,-23.92,-47.69,112.53,-11.13,5.51
808,51.71715,-2.303545,0,0.0,3638.6943,0.0,May-15,404062,2020-03-21 14:35:41:374,0.0611,-0.7767,8.8814,-0.0076,0.0008,9.8066,-0.0288,0.0454,0.0234,-20.81,-23.92,-48.56,112.56,-11.14,4.48
809,51.71715,-2.303545,0,0.0,3638.6943,0.0,May-15,404562,2020-03-21 14:35:41:874,-1.5156,-0.5466,10.0292,0.0013,0.0039,9.8066,0.0309,0.0315,0.0149,-21.18,-24.3,-47.69,112.87,-11.16,4.6
810,51.71715,-2.303545,0,0.0,3638.6943,0.0,May-15,405062,2020-03-21 14:35:42:374,-0.4361,-0.1993,8.9934,-0.0082,0.001,9.8066,-0.016,0.0102,0.0224,-19.68,-23.92,-47.69,111.23,-11.08,4.65
811,51.71715,-2.303545,0,0.0,3638.6943,0.0,May-15,405561,2020-03-21 14:35:42:873,0.7849,0.6075,9.676,0.0099,0.0103,9.8066,-0.0277,0.007,0.0106,-20.81,-24.3,-48.13,112.65,-11.26,4.78
812,51.71715,-2.303545,0,0.0,3638.6943,0.0,May-15,406062,2020-03-21 14:35:43:374,-0.3253,-0.1403,9.8346,0.002,-0.0024,9.8067,0.0128,-0.0217,0.0011,-20.43,-24.3,-48.56,110.43,-11.28,4.89
813,51.71715,-2.303545,0,0.0,3638.6943,0.0,May-15,406562,2020-03-21 14:35:43:874,0.4075,-0.227,9.3004,0.0154,-0.0011,9.8066,0.0586,-0.0303,-0.0032,-20.06,-24.3,-47.69,110.78,-11.29,5.01
814,51.71715,-2.303545,0,0.0,3638.6943,0.0,May-15,407062,2020-03-21 14:35:44:374,1.137,1.2189,9.5681,0.0084,-0.0101,9.8066,0.0842,-0.0281,-0.0096,-20.06,-23.17,-47.25,111.62,-11.4,5.22
815,51.71715,-2.303545,0,0.0,3638.6943,0.0,May-15,407561,2020-03-21 14:35:44:873,-0.1186,0.3172,8.8586,-0.0065,0.0019,9.8066,0.0469,0.0134,0.0,-19.31,-24.67,-47.25,108.78,-11.31,5.07
816,51.71715,-2.303545,0,0.0,3638.6943,0.0,May-15,408062,2020-03-21 14:35:45:374,0.5145,0.1294,9.9043,-0.0017,0.0042,9.8066,0.0266,0.0092,0.0106,-20.43,-23.92,-48.13,110.67,-11.34,5.1
817,51.71715,-2.303545,0,0.0,3638.6943,0.0,May-15,408562,2020-03-21 14:35:45:874,-0.2552,-0.2834,10.3173,0.0032,-0.003,9.8066,-0.049,0.0145,0.0128,-20.43,-24.3,-47.69,110.6,-11.42,4.92
818,51.71715,-2.303545,0,0.0,3638.6943,0.0,May-15,409062,2020-03-21 14:35:46:374,0.5935,0.767,9.6585,-0.0097,-0.005,9.8066,0.0341,-0.0399,-0.0032,-20.06,-24.3,-48.06,110.39,-11.5,5.22
819,51.71715,-2.303545,0,0.0,3638.6943,0.0,May-15,409562,2020-03-21 14:35:46:874,-0.0948,0.4617,8.808,0.0182,0.0062,9.8066,0.081,-0.0143,-0.016,-20.43,-24.67,-48.5,109.26,-11.53,5.47
820,51.71715,-2.303545,0,0.0,3638.6943,0.0,May-15,410062,2020-03-21 14:35:47:374,0.2573,0.211,9.9733,-0.0056,-0.0037,9.8066,0.0384,-0.0058,0.0053,-19.31,-24.3,-48.06,108.47,-11.49,5.76
821,51.71715,-2.303545,0,0.0,3638.6943,0.0,May-15,410561,2020-03-21 14:35:47:873,-0.2195,0.177,9.9446,-0.0053,-0.004,9.8066,0.0011,0.0134,0.0085,-19.68,-24.67,-48.06,109.72,-11.44,5.66
822,51.71715,-2.303545,0,0.0,3638.6943,0.0,May-15,411061,2020-03-21 14:35:48:373,0.4821,0.1654,9.2793,-0.0024,0.0105,9.8066,0.0149,0.0337,0.0128,-18.93,-25.05,-47.63,108.08,-11.41,5.59
823,51.71715,-2.303545,0,0.0,3638.6943,0.0,May-15,411561,2020-03-21 14:35:48:873,0.3523,-0.5425,9.7607,0.0032,0.0033,9.8066,-0.0224,0.0017,0.0149,-21.12,-26.37,-45.8,111.59,-11.49,5.33
824,51.71715,-2.303545,0,0.0,3638.6943,0.0,May-15,412062,2020-03-21 14:35:49:374,-0.6082,-0.3243,10.4188,0.0038,-0.0006,9.8066,0.0202,-0.0153,-0.0032,-20.75,-23.81,-47.49,112.68,-11.3,5.54
825,51.71715,-2.303545,0,0.0,3638.6943,0.0,May-15,412562,2020-03-21 14:35:49:874,-0.9339,0.0825,10.0735,-0.0067,0.0024,9.8066,0.0192,-0.0207,0.0011,-20.0,-23.81,-48.37,110.29,-11.46,5.69
826,51.71715,-2.303545,0,0.0,3638.6943,0.0,May-15,413062,2020-03-21 14:35:50:374,-0.5838,0.0472,10.1992,-0.0055,-0.0009,9.8066,0.0213,-0.0143,0.0043,-19.62,-23.81,-48.37,110.3,-11.57,5.18
827,51.71715,-2.303545,0,0.0,3638.6943,0.0,May-15,413561,2020-03-21 14:35:50:873,-0.3363,0.2434,9.5863,-0.001,-0.0001,9.8067,0.0128,-0.01,0.0011,-19.62,-24.18,-48.37,110.23,-11.56,5.41
828,51.71715,-2.303545,0,0.0,3638.6943,0.0,May-15,414061,2020-03-21 14:35:51:373,0.1396,-0.0685,9.3462,-0.0117,0.0003,9.8066,-0.0682,0.0006,0.0266,-19.62,-23.43,-47.93,110.66,-11.67,5.51
829,51.71715,-2.303545,0,0.0,3638.6943,0.0,May-15,414562,2020-03-21 14:35:51:874,0.9803,0.2146,9.5473,-0.0011,-0.0021,9.8067,-0.0245,-0.0239,0.0106,-19.25,-23.06,-48.37,108.98,-11.6,5.42
830,51.71715,-2.303545,0,0.0,3638.6943,0.0,May-15,415062,2020-03-21 14:35:52:374,0.5752,0.1349,9.6103,0.0086,0.0004,9.8066,0.0245,0.0049,0.0032,-19.62,-23.81,-48.37,110.28,-11.57,5.21
831,51.71715,-2.303545,0,0.0,3638.6943,0.0,May-15,415562,2020-03-21 14:35:52:874,0.8383,0.3389,9.8001,0.0065,0.0019,9.8066,0.0629,-0.009,-0.0043,-19.62,-23.81,-48.37,110.08,-11.68,5.34
832,51.71715,-2.303545,0,0.0,3638.6943,0.0,May-15,416062,2020-03-21 14:35:53:374,0.0738,0.3623,9.7707,0.0043,0.0026,9.8067,0.033,-0.0217,-0.0021,-19.62,-23.81,-47.05,110.51,-11.73,5.05
833,51.71715,-2.303545,0,0.0,3638.6943,0.0,May-15,416562,2020-03-21 14:35:53:874,-0.4132,-0.1053,9.5555,-0.0015,0.0002,9.8066,-0.0277,0.0049,0.0138,-19.25,-23.06,-46.68,109.35,-11.62,5.56
834,51.71715,-2.303545,0,0.0,3638.6943,0.0,May-15,417062,2020-03-21 14:35:54:374,-0.05,-0.1486,10.1337,-0.0012,0.0071,9.8066,-0.0021,-0.009,0.0106,-19.25,-23.43,-47.12,108.99,-11.83,5.68
835,51.71715,-2.303545,0,0.0,3638.6943,0.0,May-15,417562,2020-03-21 14:35:54:874,-0.3832,-0.444,9.4191,0.0166,0.0003,9.8066,0.0831,-0.0153,-0.0149,-20.0,-23.43,-46.68,110.74,-11.82,5.85
836,51.71715,-2.303545,0,0.0,3638.6943,0.0,May-15,418062,2020-03-21 14:35:55:374,0.9539,0.2529,8.6763,0.0041,0.007,9.8066,-0.0948,0.0187,0.0245,-19.62,-23.43,-47.99,109.99,-11.88,6.5
837,51.71715,-2.303545,0,0.0,3638.6943,0.0,May-15,418561,2020-03-21 14:35:55:873,0.2658,0.4042,9.8198,0.0173,0.0089,9.8066,0.0554,0.0092,-0.0096,-20.0,-23.43,-47.12,110.51,-11.75,6.84
838,51.71715,-2.303545,0,0.0,3638.6943,0.0,May-15,419062,2020-03-21 14:35:56:374,0.4373,0.1857,9.8044,0.0109,0.0039,9.8066,0.0128,0.0123,-0.0011,-20.37,-23.43,-47.55,109.91,-11.85,6.86
839,51.71715,-2.303545,0,0.0,3638.6943,0.0,May-15,419562,2020-03-21 14:35:56:874,-0.8856,-0.0984,8.8313,-0.002,0.0024,9.8067,0.0501,0.0496,0.0053,-20.0,-23.81,-48.05,109.05,-12.05,6.87
840,51.71715,-2.303545,0,0.0,3638.6943,0.0,May-15,420062,2020-03-21 14:35:57:374,-0.3097,-0.8024,10.389,-0.0119,-0.0077,9.8066,0.0192,0.0017,0.0053,-20.37,-23.81,-48.49,108.9,-12.19,6.65
841,51.71715,-2.303545,0,0.0,3638.6943,0.0,May-15,420562,2020-03-21 14:35:57:874,0.5226,0.678,10.1332,-0.0119,-0.0046,9.8066,-0.1108,-0.0185,0.0277,-20.37,-23.43,-48.49,109.41,-12.26,6.52
842,51.71715,-2.303545,0,0.0,3638.6943,0.0,May-15,421061,2020-03-21 14:35:58:373,0.5704,0.5632,9.2429,0.0008,0.0058,9.8066,0.0075,-0.0004,0.0053,-20.37,-23.81,-48.49,108.35,-12.6,6.48
843,51.71715,-2.303545,0,0.0,3638.6943,0.0,May-15,421562,2020-03-21 14:35:58:874,0.1768,0.1557,9.3978,-0.0055,0.005,9.8066,-0.0192,0.0198,0.0064,-20.75,-23.43,-48.49,110.74,-12.59,6.27
844,51.71715,-2.303545,0,0.0,3638.6943,0.0,May-15,422062,2020-03-21 14:35:59:374,-0.0126,0.6206,9.3466,-0.0008,-0.0053,9.8066,-0.0373,0.0155,0.0138,-20.75,-23.43,-48.87,110.0,-12.74,6.43
845,51.71715,-2.303545,0,0.0,3638.6943,0.0,May-15,422562,2020-03-21 14:35:59:874,0.9225,0.6488,10.2144,0.0011,0.0007,9.8067,-0.0522,-0.0111,0.016,-20.37,-23.81,-47.62,108.06,-12.82,6.34
846,51.71715,-2.303545,0,0.0,3638.6943,0.0,May-15,423062,2020-03-21 14:36:00:374,-0.3255,-0.4602,9.2518,0.0025,0.0088,9.8066,0.0724,0.0219,-0.0053,-20.37,-23.81,-47.99,107.9,-12.96,6.15
847,51.71715,-2.303545,0,0.0,3638.6943,0.0,May-15,423562,2020-03-21 14:36:00:874,0.2895,-0.1805,10.0665,0.0114,-0.0116,9.8066,-0.0543,-0.0185,0.0085,-20.75,-23.06,-47.55,109.51,-13.42,6.12
848,51.71715,-2.303545,0,0.0,3638.6943,0.0,May-15,424062,2020-03-21 14:36:01:374,0.1165,-0.0183,8.6314,0.0106,0.007,9.8066,0.033,-0.0122,-0.0085,-20.37,-23.06,-47.99,107.52,-13.5,6.43
849,51.71715,-2.303545,0,0.0,3638.6943,0.0,May-15,424562,2020-03-21 14:36:01:874,-0.6647,-0.2992,9.8375,-0.0048,-0.0019,9.8066,-0.0352,0.0102,0.0245,-20.75,-23.43,-47.55,109.19,-13.57,6.41
850,51.71715,-2.303545,0,0.0,3638.6943,0.0,May-15,425063,2020-03-21 14:36:02:375,0.4048,-0.0785,10.1367,0.0089,0.0039,9.8066,-0.016,-0.01,0.0043,-21.12,-23.81,-47.99,108.16,-13.84,6.7
851,51.71715,-2.303545,0,0.0,3638.6943,0.0,May-15,425562,2020-03-21 14:36:02:874,0.676,-0.1774,9.7875,0.0101,0.0053,9.8066,0.0053,0.0358,0.0075,-21.12,-23.43,-47.99,108.52,-13.93,6.86
852,51.71715,-2.303545,0,0.0,3638.6943,0.0,May-15,426062,2020-03-21 14:36:03:374,0.2507,0.0492,10.1436,0.0022,-0.0003,9.8066,0.0426,-0.0153,-0.0032,-21.12,-23.81,-47.55,107.81,-14.04,6.93
853,51.71715,-2.303545,0,0.0,3638.6943,0.0,May-15,426562,2020-03-21 14:36:03:874,0.1443,0.3056,9.5528,0.0142,0.0079,9.8066,0.0139,0.0241,0.0032,-20.37,-23.06,-47.99,106.34,-14.16,7.11
854,51.71715,-2.303545,0,0.0,3638.6943,0.0,May-15,427066,2020-03-21 14:36:04:378,-0.6336,-0.2237,9.9125,0.0012,0.004,9.8066,-0.0874,0.0592,0.0586,-21.12,-23.81,-48.43,107.56,-14.21,6.91
855,51.71715,-2.303545,0,0.0,3638.6943,0.0,May-15,427562,2020-03-21 14:36:04:874,0.1994,0.1523,9.0486,-0.0021,0.0097,9.8066,-0.0021,0.0518,0.017,-20.75,-24.18,-47.12,108.12,-14.21,6.61
856,51.71715,-2.303545,0,0.0,3638.6943,0.0,May-15,428062,2020-03-21 14:36:05:374,-0.5443,-0.4521,9.2954,-0.0019,-0.0081,9.8066,-0.0298,-0.0153,0.0096,-21.12,-23.43,-47.12,108.41,-14.31,7.02
857,51.71715,-2.303545,0,0.0,3638.6943,0.0,May-15,428562,2020-03-21 14:36:05:874,1.0308,0.2848,9.7684,0.0128,0.0061,9.8066,0.0501,-0.0111,-0.0085,-21.43,-23.43,-47.99,107.95,-14.27,7.11
858,51.71715,-2.303545,0,0.0,3638.6943,0.0,May-15,429062,2020-03-21 14:36:06:374,-1.6335,-0.2478,10.5382,-0.0149,-0.0051,9.8066,0.0661,-0.0175,-0.016,-21.43,-23.81,-47.99,107.3,-14.39,6.87
859,51.71715,-2.303545,0,0.0,3638.6943,0.0,May-15,429562,2020-03-21 14:36:06:874,0.1496,0.5339,9.2867,0.0126,0.004,9.8066,0.0501,-0.0143,-0.0107,-21.43,-23.43,-47.93,107.71,-14.41,7.19
860,51.71715,-2.303545,0,0.0,3638.6943,0.0,May-15,430062,2020-03-21 14:36:07:374,0.4668,0.0704,9.7677,-0.0015,-0.0064,9.8066,0.032,0.0102,0.0,-21.43,-23.81,-47.93,107.04,-14.53,7.11
861,51.71715,-2.303545,0,0.0,3638.6943,0.0,May-15,430562,2020-03-21 14:36:07:874,-1.2635,-0.7231,11.6179,-0.0287,0.0185,9.8066,-0.1577,0.1061,0.0842,-21.81,-23.81,-47.12,109.62,-14.3,6.87
862,51.71715,-2.303545,0,0.0,3638.6943,0.0,May-15,431062,2020-03-21 14:36:08:374,0.7152,0.3089,9.8845,0.0074,0.0139,9.8066,0.0266,0.0134,-0.0021,-21.43,-23.81,-47.12,107.73,-14.45,6.85
863,51.71715,-2.303545,0,0.0,3638.6943,0.0,May-15,431562,2020-03-21 14:36:08:874,-0.0262,0.5133,10.076,0.0012,-0.0053,9.8066,0.0202,0.0017,0.0053,-21.81,-23.43,-47.55,109.84,-14.18,6.98
864,51.71715,-2.303545,0,0.0,3638.6943,0.0,May-15,432062,2020-03-21 14:36:09:374,-0.9032,-0.4812,9.1658,0.0048,-0.0011,9.8067,0.0021,-0.0196,-0.0117,-21.81,-24.18,-47.12,109.51,-14.44,6.52
865,51.71715,-2.303545,0,0.0,3638.6943,0.0,May-15,432562,2020-03-21 14:36:09:874,0.1745,0.6414,10.2306,-0.0138,0.0039,9.8066,0.0511,-0.0185,0.0011,-21.43,-23.43,-47.12,108.51,-14.31,6.64
866,51.71715,-2.303545,0,0.0,3638.6943,0.0,May-15,433061,2020-03-21 14:36:10:373,0.5972,-0.1736,9.37,0.0028,-0.0001,9.8067,0.0266,0.0028,-0.0021,-21.43,-23.81,-47.49,108.1,-14.24,6.5
867,51.71715,-2.303545,0,0.0,3638.6943,0.0,May-15,433562,2020-03-21 14:36:10:874,0.0133,0.152,10.3,-0.0029,-0.0037,9.8066,0.0266,0.0038,-0.0021,-21.43,-24.56,-47.49,107.84,-14.08,6.37
868,51.71715,-2.303545,0,0.0,3638.6943,0.0,May-15,434062,2020-03-21 14:36:11:374,0.4877,-0.7069,9.7407,-0.0236,-0.009,9.8066,0.049,0.0092,0.0043,-21.43,-24.18,-47.93,107.74,-14.18,6.33
869,51.71715,-2.303545,0,0.0,3638.6943,0.0,May-15,434562,2020-03-21 14:36:11:874,1.4023,0.2378,10.0152,0.0,-0.007,9.8066,-0.0021,-0.0132,0.0021,-21.81,-24.56,-47.49,109.2,-14.31,6.28
870,51.71715,-2.303545,0,0.0,3638.6943,0.0,May-15,435062,2020-03-21 14:36:12:374,0.0712,-0.3898,9.3389,-0.013,0.0057,9.8066,-0.0352,0.0219,0.0213,-21.43,-23.81,-47.49,108.24,-14.22,6.05
871,51.71715,-2.303545,0,0.0,3638.6943,0.0,May-15,435562,2020-03-21 14:36:12:874,0.7246,0.0189,10.9809,0.0145,-0.0155,9.8066,-0.0096,-0.0356,0.0106,-21.12,-24.18,-46.68,108.0,-14.34,6.33
872,51.71715,-2.303545,0,0.0,3638.6943,0.0,May-15,436064,2020-03-21 14:36:13:376,0.7393,0.328,9.3986,0.0118,0.0007,9.8066,-0.0138,-0.0185,-0.0043,-21.12,-24.18,-46.68,108.0,-14.35,6.23
873,50.989292,-3.688199,0,0.0,3000.0,0.0,May-15,436562,2020-03-21 14:36:13:874,-0.6977,0.4665,9.5026,0.0029,0.0102,9.8066,-0.0064,-0.0313,0.0,-21.12,-24.18,-46.24,107.5,-15.02,6.31
874,50.989292,-3.688199,0,0.0,3000.0,0.0,May-15,437062,2020-03-21 14:36:14:374,-0.2089,0.0399,9.9639,0.0029,0.0127,9.8066,0.0213,-0.0175,0.0,-21.43,-24.18,-46.68,105.69,-15.88,6.12
875,50.989292,-3.688199,0,0.0,3000.0,0.0,May-15,437561,2020-03-21 14:36:14:873,-1.209,-0.4082,8.6505,-0.0025,0.0172,9.8066,0.082,-0.0068,-0.0128,-21.43,-24.18,-45.8,105.35,-16.47,6.07
876,50.989292,-3.688199,0,0.0,3000.0,0.0,May-15,438061,2020-03-21 14:36:15:373,-0.5471,0.192,10.0421,-0.0055,-0.0013,9.8066,0.0128,-0.0164,0.0053,-21.12,-24.18,-47.12,104.0,-16.96,6.17
877,50.989292,-3.688199,0,0.0,3000.0,0.0,May-15,438562,2020-03-21 14:36:15:874,-0.1127,0.2889,9.636,0.0026,0.0089,9.8066,0.0107,-0.0079,-0.0032,-21.06,-24.18,-47.12,103.07,-17.55,6.0
878,50.989292,-3.688199,0,0.0,3000.0,0.0,May-15,439062,2020-03-21 14:36:16:374,-0.0097,-0.8118,10.0832,0.017,-0.0077,9.8066,0.0021,0.0337,0.0181,-21.43,-24.18,-47.99,102.27,-17.66,6.26
879,50.989292,-3.688199,0,0.0,3000.0,0.0,May-15,439562,2020-03-21 14:36:16:874,0.0117,-0.2781,9.1102,0.0056,-0.0073,9.8066,0.0085,0.0198,0.0021,-21.43,-24.56,-47.62,103.06,-16.93,6.54
880,50.989292,-3.688199,0,0.0,3000.0,0.0,May-15,440062,2020-03-21 14:36:17:374,-0.0186,-0.5141,10.147,-0.0002,-0.0046,9.8066,-0.0032,-0.0196,0.0,-21.43,-24.18,-47.18,105.28,-16.11,6.56
881,50.989292,-3.688199,0,0.0,3000.0,0.0,May-15,440561,2020-03-21 14:36:17:873,-0.2086,0.5279,9.8018,0.0015,-0.0057,9.8066,-0.0554,-0.0228,-0.0043,-21.06,-24.18,-47.62,105.83,-15.41,6.34
882,50.989292,-3.688199,0,0.0,3000.0,0.0,May-15,441061,2020-03-21 14:36:18:373,0.5366,0.4295,10.0764,0.0001,-0.0019,9.8067,-0.0511,-0.0249,0.0053,-21.43,-24.18,-48.49,106.46,-14.95,6.82
883,50.989292,-3.688199,0,0.0,3000.0,0.0,May-15,441562,2020-03-21 14:36:18:874,0.0792,-0.2639,10.4026,-0.0045,-0.0079,9.8066,-0.0341,-0.0196,0.0138,-21.06,-24.18,-47.62,106.99,-14.68,6.24
884,50.989292,-3.688199,0,0.0,3000.0,0.0,May-15,442062,2020-03-21 14:36:19:374,0.1959,-0.6001,8.963,0.0029,-0.0031,9.8067,0.0213,-0.0026,0.0106,-20.75,-24.93,-48.05,106.78,-14.57,5.67
885,50.989292,-3.688199,0,0.0,3000.0,0.0,May-15,442562,2020-03-21 14:36:19:874,-0.9729,-0.5417,10.3361,0.0067,-0.0055,9.8066,0.0682,-0.0217,-0.0107,-20.75,-24.93,-48.05,107.2,-14.29,5.68
886,50.989292,-3.688199,0,0.0,3000.0,0.0,May-15,443062,2020-03-21 14:36:20:374,-0.3629,-0.0972,9.4086,0.0031,-0.0003,9.8067,0.0533,-0.009,-0.0032,-20.75,-24.56,-48.05,106.88,-14.46,6.02
887,50.989292,-3.688199,0,0.0,3000.0,0.0,May-15,443562,2020-03-21 14:36:20:874,0.4876,0.1834,9.5589,-0.0046,-0.0026,9.8067,-0.0298,0.007,0.0106,-21.06,-24.93,-47.62,107.22,-14.26,5.8
888,50.989292,-3.688199,0,0.0,3000.0,0.0,May-15,444062,2020-03-21 14:36:21:374,0.1005,0.1699,10.6333,0.0093,-0.0109,9.8066,-0.0224,0.0241,0.0256,-21.06,-24.18,-47.99,107.87,-14.09,6.36
889,50.989292,-3.688199,0,0.0,3000.0,0.0,May-15,444562,2020-03-21 14:36:21:874,0.1486,0.3928,9.7679,0.0113,-0.0049,9.8066,-0.0021,-0.0281,-0.0085,-20.75,-24.93,-47.55,107.47,-14.08,5.91
890,50.989292,-3.688199,0,0.0,3000.0,0.0,May-15,445061,2020-03-21 14:36:22:373,-0.4144,-0.3123,9.1588,-0.0112,-0.0015,9.8066,-0.0405,0.006,0.0309,-20.75,-24.18,-47.55,108.24,-13.82,6.47
891,50.989292,-3.688199,0,0.0,3000.0,0.0,May-15,445562,2020-03-21 14:36:22:874,-0.9177,-0.4452,11.3115,0.0052,0.0033,9.8066,0.1151,-0.0793,-0.0405,-20.37,-24.93,-47.99,106.07,-13.94,5.3
892,50.989292,-3.688199,0,0.0,3000.0,0.0,May-15,446062,2020-03-21 14:36:23:374,-1.2587,0.1409,9.9474,-0.0271,-0.0048,9.8066,0.0256,-0.0271,0.0149,-20.0,-25.31,-47.99,106.33,-13.78,5.27
893,50.989292,-3.688199,0,0.0,3000.0,0.0,May-15,446562,2020-03-21 14:36:23:874,-0.6117,-0.0182,8.3877,-0.0056,0.0165,9.8066,0.0288,0.0219,0.0181,-22.93,-24.18,-47.55,112.34,-13.73,4.76
894,50.989292,-3.688199,0,0.0,3000.0,0.0,May-15,447062,2020-03-21 14:36:24:374,-0.4308,-0.3875,10.1951,0.0022,-0.0024,9.8067,0.0117,-0.0015,0.016,-23.32,-16.51,-52.76,115.56,-13.91,4.05
895,50.989292,-3.688199,0,0.0,3000.0,0.0,May-15,447562,2020-03-21 14:36:24:874,0.2892,0.5994,11.383,-0.0079,0.003,9.8066,0.0543,-0.043,0.0181,-17.28,-22.05,-53.06,99.14,-13.97,3.34
896,50.989292,-3.688199,0,0.0,3000.0,0.0,May-15,448061,2020-03-21 14:36:25:373,0.3797,-0.0066,9.5739,-0.0054,0.003,9.8066,0.0405,-0.0047,0.0234,-10.17,-23.71,-54.17,83.29,-14.04,2.63
897,50.989292,-3.688199,0,0.0,3000.0,0.0,May-15,448561,2020-03-21 14:36:25:873,0.5071,-0.4019,9.879,-0.0017,-0.008,9.8066,0.0618,-0.0356,0.0053,-21.52,-11.73,-54.77,120.11,-14.1,1.96
898,50.989292,-3.688199,0,0.0,3000.0,0.0,May-15,449062,2020-03-21 14:36:26:374,0.172,0.8011,10.1848,0.0027,0.0088,9.8066,0.0224,-0.0068,0.016,-20.99,-21.41,-51.97,109.28,-14.02,1.95
899,50.989292,-3.688199,0,0.0,3000.0,0.0,May-15,449562,2020-03-21 14:36:26:874,0.5803,-0.055,7.4564,-0.0014,0.003,9.8066,0.0362,0.0081,0.0224,-9.62,-20.06,-48.05,85.6,-13.95,2.12
900,50.989292,-3.688199,0,0.0,3000.0,0.0,May-15,450062,2020-03-21 14:36:27:374,0.9672,-0.0143,10.8095,0.0183,-0.008,9.8066,-0.0011,-0.01,0.0202,-14.43,-23.75,-48.05,94.81,-14.05,2.44
901,50.989292,-3.688199,0,0.0,3000.0,0.0,May-15,450562,2020-03-21 14:36:27:874,0.5399,0.4401,9.0553,0.0148,0.0135,9.8066,0.032,-0.009,0.0149,-14.8,-24.43,-48.43,96.54,-14.26,2.61
902,50.989292,-3.688199,0,0.0,3000.0,0.0,May-15,451062,2020-03-21 14:36:28:374,0.2936,0.0837,9.4538,0.0172,0.0076,9.8066,0.0437,0.0017,-0.0096,-14.43,-24.81,-48.43,94.41,-14.23,3.1
903,50.989292,-3.688199,0,0.0,3000.0,0.0,May-15,451562,2020-03-21 14:36:28:874,-0.4121,0.3979,9.9624,-0.0014,-0.0017,9.8067,-0.0607,0.0209,0.0192,-14.43,-25.18,-48.43,94.41,-14.29,4.02
904,50.989292,-3.688199,0,0.0,3000.0,0.0,May-15,452062,2020-03-21 14:36:29:374,-0.2867,-0.4456,10.1422,0.0173,-0.0007,9.8066,0.0341,0.0038,-0.0107,-14.43,-24.81,-47.99,93.85,-14.69,4.89
905,50.989292,-3.688199,0,0.0,3000.0,0.0,May-15,452562,2020-03-21 14:36:29:874,0.3015,-0.317,9.4897,0.0098,-0.019,9.8066,0.0288,-0.0548,-0.0149,-14.8,-24.81,-47.99,96.03,-14.56,5.58
906,50.989292,-3.688199,0,0.0,3000.0,0.0,May-15,453062,2020-03-21 14:36:30:374,0.6277,-0.6788,9.8011,0.0046,-0.0037,9.8066,-0.0682,-0.0079,0.0096,-14.05,-24.81,-48.43,95.66,-13.65,6.18
907,50.989292,-3.688199,0,0.0,3000.0,0.0,May-15,453561,2020-03-21 14:36:30:873,0.3619,-0.898,10.4026,-0.0058,-0.0173,9.8066,0.0639,-0.0068,-0.0224,-15.18,-24.06,-47.99,98.96,-12.86,6.13
908,50.989292,-3.688199,0,0.0,3000.0,0.0,May-15,454062,2020-03-21 14:36:31:374,-2.1096,0.2605,8.2297,0.0066,-0.009,9.8066,0.0661,0.0113,0.0064,-14.43,-24.81,-47.99,97.69,-12.34,6.26
909,50.989292,-3.688199,0,0.0,3000.0,0.0,May-15,454562,2020-03-21 14:36:31:874,0.2599,0.3626,8.8107,0.0074,0.0008,9.8066,0.0096,0.0209,0.0138,-14.43,-24.81,-47.99,98.2,-12.01,6.24
910,50.989292,-3.688199,0,0.0,3000.0,0.0,May-15,455062,2020-03-21 14:36:32:374,-0.3314,0.4334,9.387,-0.0006,-0.0046,9.8066,-0.0032,0.0369,0.0096,-14.43,-24.43,-47.55,99.0,-11.65,6.18
911,50.989292,-3.688199,0,0.0,3000.0,0.0,May-15,455562,2020-03-21 14:36:32:874,-0.7836,0.1872,9.4637,0.0,0.0044,9.8067,0.0064,0.0369,-0.0032,-14.8,-24.81,-47.55,100.7,-11.55,6.42
912,50.989292,-3.688199,0,0.0,3000.0,0.0,May-15,456061,2020-03-21 14:36:33:373,-0.0369,-0.0786,9.4678,-0.0013,-0.004,9.8067,0.0053,0.0102,0.0043,-14.43,-23.75,-46.74,99.67,-11.47,6.5
913,50.989292,-3.688199,0,0.0,3000.0,0.0,May-15,456562,2020-03-21 14:36:33:874,0.1923,0.8769,9.6386,0.0068,-0.0036,9.8066,-0.0096,-0.0153,0.0128,-14.43,-24.43,-47.62,99.48,-11.34,6.48
914,50.989292,-3.688199,0,0.0,3000.0,0.0,May-15,457062,2020-03-21 14:36:34:374,0.6723,0.1272,8.8632,0.003,0.0058,9.8066,-0.0394,0.0283,0.0138,-14.05,-24.43,-47.18,100.15,-11.18,6.23
915,50.989292,-3.688199,0,0.0,3000.0,0.0,May-15,457562,2020-03-21 14:36:34:874,-0.064,-0.6231,10.6447,0.0018,-0.0093,9.8066,0.0181,-0.0281,-0.0096,-14.05,-24.12,-47.62,99.85,-11.09,6.59
916,50.989292,-3.688199,0,0.0,3000.0,0.0,May-15,458061,2020-03-21 14:36:35:373,-0.4947,0.3342,9.5872,0.0077,-0.0004,9.8066,0.0554,0.0123,-0.016,-14.05,-24.5,-47.62,99.88,-11.06,6.76
917,50.989292,-3.688199,0,0.0,3000.0,0.0,May-15,458562,2020-03-21 14:36:35:874,-0.632,-0.7571,8.7491,-0.0095,0.0006,9.8066,0.0021,0.04,0.0075,-14.05,-24.12,-47.24,100.49,-10.94,6.58
918,50.989292,-3.688199,0,0.0,3000.0,0.0,May-15,459062,2020-03-21 14:36:36:374,-1.1663,-0.9754,9.4018,-0.0093,0.0015,9.8066,0.0234,0.0315,-0.0043,-14.43,-24.12,-47.68,100.18,-10.87,6.77
919,50.989292,-3.688199,0,0.0,3000.0,0.0,May-15,459562,2020-03-21 14:36:36:874,1.0604,-0.0833,10.4859,0.0102,0.0071,9.8066,0.0,0.0113,0.0064,-13.68,-24.5,-47.68,100.48,-10.7,6.38
920,50.989292,-3.688199,0,0.0,3000.0,0.0,May-15,460062,2020-03-21 14:36:37:374,-0.8066,-0.2642,9.3686,0.0009,-0.0003,9.8066,-0.017,-0.0068,-0.0064,-14.05,-24.5,-47.68,100.32,-10.81,6.24
921,50.989292,-3.688199,0,0.0,3000.0,0.0,May-15,460562,2020-03-21 14:36:37:874,-0.5221,0.1257,9.7643,0.0029,0.0016,9.8067,0.0224,0.0134,0.0021,-14.05,-24.12,-47.68,100.29,-10.82,6.38
922,50.989292,-3.688199,0,0.0,3000.0,0.0,May-15,461062,2020-03-21 14:36:38:374,0.6268,-0.2782,10.0604,0.0023,0.0097,9.8066,0.0021,0.0209,-0.0032,-14.43,-24.12,-48.12,100.0,-10.99,6.61
923,50.989292,-3.688199,0,0.0,3000.0,0.0,May-15,461562,2020-03-21 14:36:38:874,-0.0427,-0.5284,9.6055,0.0161,0.0085,9.8066,0.0906,0.0155,-0.0298,-14.43,-24.5,-48.12,100.37,-10.79,6.03
924,50.989292,-3.688199,0,0.0,3000.0,0.0,May-15,462062,2020-03-21 14:36:39:374,-0.41,-0.2889,10.4318,-0.0001,-0.0061,9.8066,-0.0106,-0.0207,-0.0032,-14.43,-24.5,-47.68,100.21,-10.88,6.14
925,50.989292,-3.688199,0,0.0,3000.0,0.0,May-15,462562,2020-03-21 14:36:39:874,0.075,-0.1857,9.2295,0.0047,0.0022,9.8066,0.0064,0.0123,-0.0032,-15.18,-24.87,-47.68,101.69,-10.93,5.88
926,50.989292,-3.688199,0,0.0,3000.0,0.0,May-15,463062,2020-03-21 14:36:40:374,-0.3117,0.5229,9.2177,-0.0064,0.0067,9.8066,-0.0469,0.0294,0.0245,-14.43,-24.12,-47.68,100.1,-10.95,6.17
927,50.989292,-3.688199,0,0.0,3000.0,0.0,May-15,463562,2020-03-21 14:36:40:874,-0.5641,0.6536,9.8922,0.0004,0.006,9.8066,-0.0213,0.0081,0.0064,-14.43,-24.5,-48.12,100.02,-11.0,6.28
928,50.989292,-3.688199,0,0.0,3000.0,0.0,May-15,464062,2020-03-21 14:36:41:374,0.2694,0.0872,9.0693,-0.0065,0.0041,9.8066,-0.0128,-0.0313,-0.0107,-14.43,-24.87,-48.05,100.0,-10.8,6.55
