,GPS LATITUDE (degrees),GPS LONGITUDE (degrees), GPS ALTITUDE (m),GPS SPEED (Kmh),GPS ACCURACY (m),GPS ORIENTATION (Â°), SATELLITES IN RANGE, TIME SINCE START (ms), DATE (YYYY-MO-DD HH-MI-SS_SSS),ACCELEROMETER X (m/s²) , ACCELEROMETER Y (m/s²), ACCELEROMETER Z (m/s²), GRAVITY X (m/s²), GRAVITY Y (m/s²), GRAVITY Z (m/s²), GYROSCOPE Yaw (rad/s), GYROSCOPE Pitch (rad/s), GYROSCOPE Roll (rad/s)
18862,46.416924,-0.40296,124.54,35.44,5.36,117.7,Nov-18,1886146,2019-08-18 22:51:15:679,-0.1186,-0.1326,9.0945,-0.3634,-0.0816,9.7996,0.0081,0.0119,-0.0117
18863,46.416924,-0.40296,124.54,35.44,5.36,117.7,Nov-18,1886246,2019-08-18 22:51:15:779,-0.373,0.0398,9.7703,-0.3747,-0.0806,9.7992,0.0092,0.0066,-0.0128
18864,46.416924,-0.40296,124.54,35.44,5.36,117.7,Nov-18,1886346,2019-08-18 22:51:15:879,-0.5921,-0.1236,10.3778,-0.3714,-0.0776,9.7993,0.0049,-0.0073,-0.0128
18865,46.416924,-0.40296,124.54,35.44,5.36,117.7,Nov-18,1886446,2019-08-18 22:51:15:979,-0.4754,-0.0387,10.4191,-0.3594,-0.0834,9.7997,-0.0078,-0.0169,-0.0128
18866,46.416924,-0.40296,124.54,35.44,5.36,117.7,Nov-18,1886545,2019-08-18 22:51:16:078,-0.4107,-0.0141,9.8367,-0.3573,-0.0952,9.7997,-0.0025,0.0055,-0.0106
18867,46.416924,-0.40296,124.54,35.44,5.36,117.7,Nov-18,1886645,2019-08-18 22:51:16:178,-0.2784,-0.1775,9.477,-0.3686,-0.0861,9.7993,0.0124,0.014,-0.0085
18868,46.416924,-0.40296,124.54,35.44,5.36,117.7,Nov-18,1886746,2019-08-18 22:51:16:279,-0.4203,-0.1386,9.2274,-0.3803,-0.073,9.799,0.0113,0.0066,-0.0085
18869,46.416924,-0.40296,124.54,35.44,5.36,117.7,Nov-18,1886845,2019-08-18 22:51:16:378,-0.4514,0.1403,9.1825,-0.3928,-0.0722,9.7985,-0.0046,-0.003,-0.0106
18870,46.416924,-0.40296,124.54,35.44,5.36,117.7,Nov-18,1886945,2019-08-18 22:51:16:478,-0.4969,0.2241,10.2611,-0.3976,-0.0706,9.7983,0.0007,-0.0051,-0.0106
18871,46.416924,-0.40296,124.54,35.44,5.36,117.7,Nov-18,1887045,2019-08-18 22:51:16:578,-0.6005,-0.0865,10.1845,-0.4022,-0.0823,9.7981,-0.0164,0.0034,-0.0106
18872,46.416924,-0.40296,124.54,35.44,5.36,117.7,Nov-18,1887146,2019-08-18 22:51:16:679,-0.3982,-0.2607,10.194,-0.4142,-0.0737,9.7976,0.0177,0.0023,-0.0128
18873,46.416924,-0.40296,124.54,35.44,5.36,117.7,Nov-18,1887245,2019-08-18 22:51:16:778,-0.4371,-0.1392,10.1204,-0.423,-0.0696,9.7973,0.0049,-0.0126,-0.0106
18874,46.416924,-0.40296,124.54,35.44,5.36,117.7,Nov-18,1887345,2019-08-18 22:51:16:878,-0.4778,-0.1524,10.224,-0.3953,-0.0816,9.7983,-0.011,-0.0243,-0.0117
18875,46.416924,-0.40296,124.54,35.44,5.36,117.7,Nov-18,1887445,2019-08-18 22:51:16:978,-0.552,0.1194,10.0695,-0.399,-0.0789,9.7982,0.0049,0.0204,-0.0096
18876,46.416924,-0.40296,124.54,35.44,5.36,117.7,Nov-18,1887546,2019-08-18 22:51:17:079,-0.3634,-0.1248,9.8056,-0.4055,-0.0707,9.798,0.0071,0.0108,-0.0085
18877,46.416924,-0.40296,124.54,35.44,5.36,117.7,Nov-18,1887645,2019-08-18 22:51:17:178,-0.4006,0.2912,9.45,-0.3888,-0.0862,9.7986,-0.0174,-0.0137,-0.0106
18878,46.416924,-0.40296,124.54,35.44,5.36,117.7,Nov-18,1887745,2019-08-18 22:51:17:278,-0.0977,-0.2242,10.361,-0.3725,-0.0793,9.7993,0.0145,0.0002,-0.0106
18879,46.416924,-0.40296,124.54,35.44,5.36,117.7,Nov-18,1887845,2019-08-18 22:51:17:378,-0.0648,-0.223,9.5308,-0.3692,-0.0621,9.7995,0.0199,0.0034,-0.0074
18880,46.416924,-0.40296,124.54,35.44,5.36,117.7,Nov-18,1887945,2019-08-18 22:51:17:478,-0.1204,0.275,9.3926,-0.3591,-0.055,9.7999,0.0018,-0.0009,-0.0085
18881,46.416924,-0.40296,124.54,35.44,5.36,117.7,Nov-18,1888045,2019-08-18 22:51:17:578,-0.1102,0.3893,9.7541,-0.3018,-0.0316,9.802,-0.0036,0.0045,-0.0096
18882,46.416924,-0.40296,124.54,35.44,5.36,117.7,Nov-18,1888146,2019-08-18 22:51:17:679,-0.1414,0.1158,9.9007,-0.2758,-0.0202,9.8028,-0.0014,0.0002,-0.0074
18883,46.416924,-0.40296,124.54,35.44,5.36,117.7,Nov-18,1888245,2019-08-18 22:51:17:778,-0.0648,0.0074,9.8565,-0.2572,-0.018,9.8033,-0.0057,-0.0115,-0.0064
18884,46.416924,-0.40296,124.54,35.44,5.36,117.7,Nov-18,1888345,2019-08-18 22:51:17:878,-0.0755,-0.2703,10.2509,-0.2592,0.0023,9.8032,0.0071,0.0066,-0.0064
18885,46.416924,-0.40296,124.54,35.44,5.36,117.7,Nov-18,1888446,2019-08-18 22:51:17:979,-0.4544,-0.0045,10.1306,-0.2766,0.0255,9.8027,-0.0068,0.0045,-0.0074
18886,46.416924,-0.40296,124.54,35.44,5.36,117.7,Nov-18,1888546,2019-08-18 22:51:18:079,-0.5137,0.0625,9.7421,-0.2964,0.0237,9.8021,-0.0025,0.0066,-0.0096
18887,46.416924,-0.40296,124.54,35.44,5.36,117.7,Nov-18,1888645,2019-08-18 22:51:18:178,-0.5472,0.1619,9.7284,-0.3069,0.0214,9.8018,0.0028,0.0066,-0.0096
18888,46.416924,-0.40296,124.54,35.44,5.36,117.7,Nov-18,1888745,2019-08-18 22:51:18:278,-0.7962,-0.0734,9.8858,-0.3188,0.0186,9.8015,-0.0014,0.0023,-0.0096
18889,46.416924,-0.40296,124.54,35.44,5.36,117.7,Nov-18,1888845,2019-08-18 22:51:18:378,-0.5915,-0.1548,10.2407,-0.326,0.0153,9.8012,-0.0014,-0.0009,-0.0106
18890,46.416924,-0.40296,124.54,35.44,5.36,117.7,Nov-18,1888946,2019-08-18 22:51:18:479,-0.5903,-0.156,9.4674,-0.3339,0.0147,9.801,0.0018,-0.0009,-0.0106
18891,46.416924,-0.40296,124.54,35.44,5.36,117.7,Nov-18,1889045,2019-08-18 22:51:18:578,-0.6166,-0.1608,9.808,-0.3336,0.0126,9.801,-0.0036,-0.0062,-0.0106
18892,46.416924,-0.40296,124.54,35.44,5.36,117.7,Nov-18,1889145,2019-08-18 22:51:18:678,-0.397,-0.0291,9.6523,-0.3365,0.0097,9.8009,0.0092,-0.0062,-0.0096
18893,46.416924,-0.40296,124.54,35.44,5.36,117.7,Nov-18,1889245,2019-08-18 22:51:18:778,-0.2695,0.123,9.9055,-0.3319,0.009,9.801,-0.0014,0.0002,-0.0085
18894,46.416924,-0.40296,124.54,35.44,5.36,117.7,Nov-18,1889346,2019-08-18 22:51:18:879,-0.221,-0.0255,10.1904,-0.3143,0.0074,9.8016,-0.0025,0.0002,-0.0085
18895,46.416924,-0.40296,124.54,35.44,5.36,117.7,Nov-18,1889445,2019-08-18 22:51:18:978,-0.2784,-0.1051,10.1731,-0.2987,0.0161,9.8021,-0.0004,-0.0115,-0.0074
18896,46.416924,-0.40296,124.54,35.44,5.36,117.7,Nov-18,1889545,2019-08-18 22:51:19:078,-0.0157,-0.2643,9.2956,-0.2587,0.0112,9.8032,-0.0046,0.0023,-0.0096
18897,46.416924,-0.40296,124.54,35.44,5.36,117.7,Nov-18,1889645,2019-08-18 22:51:19:178,0.022,0.1469,9.7894,-0.2441,0.0294,9.8036,-0.0089,-0.003,-0.0096
18898,46.416924,-0.40296,124.54,35.44,5.36,117.7,Nov-18,1889745,2019-08-18 22:51:19:278,-0.3335,0.1804,9.4692,-0.2417,0.0234,9.8036,-0.0078,0.0076,-0.0106
18899,46.416924,-0.40296,124.54,35.44,5.36,117.7,Nov-18,1889845,2019-08-18 22:51:19:378,-0.4544,-0.0243,9.2729,-0.2513,0.0223,9.8034,0.0028,0.0108,-0.0096
18900,46.416924,-0.40296,124.54,35.44,5.36,117.7,Nov-18,1889946,2019-08-18 22:51:19:479,-0.4023,0.2756,9.6607,-0.2593,0.024,9.8032,0.0049,-0.003,-0.0085
18901,46.416924,-0.40296,124.54,35.44,5.36,117.7,Nov-18,1890046,2019-08-18 22:51:19:579,-0.4796,-0.0997,9.5853,-0.2664,0.0237,9.803,0.0007,0.0002,-0.0106
18902,46.416924,-0.40296,124.54,35.44,5.36,117.7,Nov-18,1890146,2019-08-18 22:51:19:679,-0.3611,-0.211,9.6098,-0.2881,0.0177,9.8024,-0.0014,0.0066,-0.0128
18903,46.416924,-0.40296,124.54,35.44,5.36,117.7,Nov-18,1890245,2019-08-18 22:51:19:778,-0.3586,0.041,8.8838,-0.3007,0.0112,9.802,-0.0046,0.0076,-0.0149
18904,46.416924,-0.40296,124.54,35.44,5.36,117.7,Nov-18,1890345,2019-08-18 22:51:19:878,-0.7058,-0.3152,9.9151,-0.3124,-0.0022,9.8017,0.0018,-0.0019,-0.017
18905,46.416924,-0.40296,124.54,35.44,5.36,117.7,Nov-18,1890445,2019-08-18 22:51:19:978,-0.6663,-0.1793,9.7553,-0.3161,-0.006,9.8016,0.0092,-0.003,-0.0149
18906,46.416924,-0.40296,124.54,35.44,5.36,117.7,Nov-18,1890546,2019-08-18 22:51:20:079,-0.7693,-0.1003,10.2748,-0.3694,-0.0573,9.7995,-0.0004,-0.0009,-0.0138
18907,46.416924,-0.40296,124.54,35.44,5.36,117.7,Nov-18,1890646,2019-08-18 22:51:20:179,-0.5897,-0.3146,9.2429,-0.4119,-0.0951,9.7975,0.0124,0.0034,-0.0138
18908,46.416924,-0.40296,124.54,35.44,5.36,117.7,Nov-18,1890746,2019-08-18 22:51:20:279,-0.4203,-0.0542,9.1154,-0.4227,-0.0871,9.7971,-0.0025,-0.0041,-0.0074
18909,46.416924,-0.40296,124.54,35.44,5.36,117.7,Nov-18,1890845,2019-08-18 22:51:20:378,-0.3156,0.3025,9.6637,-0.4271,-0.0699,9.7971,0.0167,-0.0009,-0.0021
18910,46.416924,-0.40296,124.54,35.44,5.36,117.7,Nov-18,1890945,2019-08-18 22:51:20:478,-0.5298,-0.0201,9.7936,-0.4348,-0.0523,9.7969,0.0145,0.0045,0.0
18911,46.416924,-0.40296,124.54,35.44,5.36,117.7,Nov-18,1891045,2019-08-18 22:51:20:578,-0.4466,0.5348,9.8463,-0.436,-0.0426,9.7969,-0.0057,-0.0041,-0.0032
18912,46.416924,-0.40296,124.54,35.44,5.36,117.7,Nov-18,1891146,2019-08-18 22:51:20:679,-0.7405,0.3636,10.045,-0.4368,-0.0327,9.7969,-0.0025,0.0013,-0.0042
18913,46.416924,-0.40296,124.54,35.44,5.36,117.7,Nov-18,1891246,2019-08-18 22:51:20:779,-0.4826,0.1505,9.5991,-0.4401,0.007,9.7968,-0.0036,-0.0019,-0.0042
18914,46.416924,-0.40296,124.54,35.44,5.36,117.7,Nov-18,1891346,2019-08-18 22:51:20:879,-0.7052,0.3043,9.471,-0.4289,0.0309,9.7972,-0.0057,-0.0073,-0.0096
18915,46.416924,-0.40296,124.54,35.44,5.36,117.7,Nov-18,1891446,2019-08-18 22:51:20:979,0.0268,0.0368,9.7733,-0.4261,0.0284,9.7973,-0.0004,-0.003,-0.0106
18916,46.416924,-0.40296,124.54,35.44,5.36,117.7,Nov-18,1891546,2019-08-18 22:51:21:079,-0.5215,-0.3176,9.8882,-0.426,0.0218,9.7974,-0.0089,0.0002,-0.0106
18917,46.416924,-0.40296,124.54,35.44,5.36,117.7,Nov-18,1891645,2019-08-18 22:51:21:178,-0.3281,-0.0955,10.0809,-0.439,0.0181,9.7968,0.0039,0.0119,-0.0117
18918,46.416924,-0.40296,124.54,35.44,5.36,117.7,Nov-18,1891746,2019-08-18 22:51:21:279,-0.8351,-0.2458,9.6799,-0.4461,0.0137,9.7965,-0.0025,0.0034,-0.0128
18919,46.416924,-0.40296,124.54,35.44,5.36,117.7,Nov-18,1891845,2019-08-18 22:51:21:378,-0.7525,0.0487,9.9265,-0.4486,0.0054,9.7964,-0.01,-0.003,-0.0128
18920,46.416924,-0.40296,124.54,35.44,5.36,117.7,Nov-18,1891946,2019-08-18 22:51:21:479,-0.7543,-0.0668,9.2932,-0.4526,0.0018,9.7962,0.0007,-0.0041,-0.0106
18921,46.416924,-0.40296,124.54,35.44,5.36,117.7,Nov-18,1892045,2019-08-18 22:51:21:578,-0.3227,-0.0955,9.7834,-0.4782,-0.0222,9.795,0.0071,0.0023,-0.0106
18922,46.416924,-0.40296,124.54,35.44,5.36,117.7,Nov-18,1892146,2019-08-18 22:51:21:679,-0.4395,0.196,9.6619,-0.5071,-0.0162,9.7935,0.0028,-0.0009,-0.0096
18923,46.416924,-0.40296,124.54,35.44,5.36,117.7,Nov-18,1892246,2019-08-18 22:51:21:779,-0.3239,-0.135,10.2838,-0.497,-0.0293,9.794,-0.0004,0.0002,-0.0117
18924,46.416924,-0.40296,124.54,35.44,5.36,117.7,Nov-18,1892346,2019-08-18 22:51:21:879,-0.8123,-0.3278,9.7511,-0.4897,-0.0348,9.7944,-0.0014,-0.0105,-0.0117
18925,46.416924,-0.40296,124.54,35.44,5.36,117.7,Nov-18,1892445,2019-08-18 22:51:21:978,-0.4502,-0.1482,9.5404,-0.4822,-0.0406,9.7947,0.006,-0.0073,-0.0128
18926,46.416924,-0.40296,124.54,35.44,5.36,117.7,Nov-18,1892545,2019-08-18 22:51:22:078,-0.446,-0.3188,9.3962,-0.456,-0.0396,9.796,0.0018,0.0013,-0.0096
18927,46.416924,-0.40296,124.54,35.44,5.36,117.7,Nov-18,1892645,2019-08-18 22:51:22:178,-0.1426,0.0104,9.5644,-0.4209,-0.0505,9.7975,0.0007,0.0098,-0.0106
18928,46.416924,-0.40296,124.54,35.44,5.36,117.7,Nov-18,1892745,2019-08-18 22:51:22:278,-0.2312,0.3702,10.4861,-0.3762,-0.0526,9.7993,0.0039,0.0023,-0.0117
18929,46.416924,-0.40296,124.54,35.44,5.36,117.7,Nov-18,1892846,2019-08-18 22:51:22:379,-0.1617,-0.3122,10.0749,-0.3611,-0.0504,9.7999,0.0039,-0.0062,-0.0128
18930,46.416924,-0.40296,124.54,35.44,5.36,117.7,Nov-18,1892945,2019-08-18 22:51:22:478,-0.2814,-0.3828,9.5859,-0.3551,-0.0501,9.8001,0.0018,-0.0009,-0.0128
18931,46.416924,-0.40296,124.54,35.44,5.36,117.7,Nov-18,1893045,2019-08-18 22:51:22:578,-0.2503,-0.0794,9.4949,-0.3433,-0.0608,9.8005,-0.0089,-0.0019,-0.0128
18932,46.416924,-0.40296,124.54,35.44,5.36,117.7,Nov-18,1893146,2019-08-18 22:51:22:679,-0.1905,-0.1296,10.0013,-0.3299,-0.0644,9.8009,-0.0004,-0.0126,-0.0128
18933,46.416924,-0.40296,124.54,35.44,5.36,117.7,Nov-18,1893246,2019-08-18 22:51:22:779,-0.048,-0.0219,9.7577,-0.3026,-0.0661,9.8018,0.006,0.0087,-0.0096
18934,46.416924,-0.40296,124.54,35.44,5.36,117.7,Nov-18,1893345,2019-08-18 22:51:22:878,-0.2593,0.2253,9.4045,-0.2813,-0.0679,9.8024,-0.0057,0.0076,-0.0085
18935,46.416924,-0.40296,124.54,35.44,5.36,117.7,Nov-18,1893446,2019-08-18 22:51:22:979,-0.1468,-0.2254,9.966,-0.2786,-0.0698,9.8024,0.0092,0.0002,-0.0096
18936,46.416924,-0.40296,124.54,35.44,5.36,117.7,Nov-18,1893546,2019-08-18 22:51:23:079,-0.218,-0.3517,9.4776,-0.2467,-0.0482,9.8034,0.0018,-0.0019,-0.0074
18937,46.416924,-0.40296,124.54,35.44,5.36,117.7,Nov-18,1893645,2019-08-18 22:51:23:178,-0.0708,0.0493,9.8002,-0.2106,-0.0337,9.8043,-0.0068,0.0098,-0.0106
18938,46.416924,-0.40296,124.54,35.44,5.36,117.7,Nov-18,1893746,2019-08-18 22:51:23:279,-0.2132,0.2487,9.5841,-0.1956,-0.0249,9.8047,-0.0068,0.0002,-0.0085
18939,46.416924,-0.40296,124.54,35.44,5.36,117.7,Nov-18,1893845,2019-08-18 22:51:23:378,-0.1719,0.1505,9.7589,-0.2028,-0.0293,9.8045,0.0135,0.0013,-0.0085
18940,46.416924,-0.40296,124.54,35.44,5.36,117.7,Nov-18,1893945,2019-08-18 22:51:23:478,-0.2946,-0.2452,10.9644,-0.2039,-0.0154,9.8045,0.0177,-0.0083,-0.0096
18941,46.416924,-0.40296,124.54,35.44,5.36,117.7,Nov-18,1894046,2019-08-18 22:51:23:579,-0.5292,-0.0129,9.5733,-0.2108,-0.0125,9.8044,-0.0025,0.0076,-0.0117
18942,46.416924,-0.40296,124.54,35.44,5.36,117.7,Nov-18,1894145,2019-08-18 22:51:23:678,-0.6023,0.1014,9.2747,-0.2223,-0.016,9.8041,-0.0057,0.0055,-0.0117
18943,46.416924,-0.40296,124.54,35.44,5.36,117.7,Nov-18,1894245,2019-08-18 22:51:23:778,-0.2395,-0.2451,8.6857,-0.2341,-0.0159,9.8038,0.0028,0.0002,-0.0096
18944,46.416924,-0.40296,124.54,35.44,5.36,117.7,Nov-18,1894346,2019-08-18 22:51:23:879,-0.1928,0.0428,9.6823,-0.2332,-0.0252,9.8038,-0.0164,-0.0062,-0.0085
18945,46.41544,-0.399296,129.8,36.07,4.288,123.2,13 / 18,1894445,2019-08-18 22:51:23:978,-0.2252,0.2654,10.0923,-0.2485,-0.037,9.8034,-0.0025,0.0066,-0.0117
18946,46.41544,-0.399296,129.8,36.07,4.288,123.2,13 / 18,1894545,2019-08-18 22:51:24:078,-0.5376,0.2493,9.6565,-0.2894,-0.057,9.8022,-0.0036,0.0034,-0.0096
18947,46.41544,-0.399296,129.8,36.07,4.288,123.2,13 / 18,1894645,2019-08-18 22:51:24:178,-0.6274,-0.244,9.5003,-0.3351,-0.0473,9.8008,0.0039,0.0002,-0.0106
18948,46.41544,-0.399296,129.8,36.07,4.288,123.2,13 / 18,1894746,2019-08-18 22:51:24:279,-0.5711,-0.2164,9.2381,-0.3777,-0.0639,9.7992,-0.0004,-0.0009,-0.0096
18949,46.41544,-0.399296,129.8,36.07,4.288,123.2,13 / 18,1894845,2019-08-18 22:51:24:378,-0.3209,-0.1727,9.5243,-0.3954,-0.0598,9.7985,0.0081,0.0045,-0.0117
18950,46.41544,-0.399296,129.8,36.07,4.288,123.2,13 / 18,1894945,2019-08-18 22:51:24:478,-0.446,0.1415,10.0911,-0.3984,-0.0682,9.7983,-0.01,-0.003,-0.0106
18951,46.41544,-0.399296,129.8,36.07,4.288,123.2,13 / 18,1895045,2019-08-18 22:51:24:578,-0.3389,-0.0476,9.4608,-0.4391,-0.0833,9.7965,0.0039,-0.003,-0.0128
18952,46.41544,-0.399296,129.8,36.07,4.288,123.2,13 / 18,1895145,2019-08-18 22:51:24:678,-0.5167,-0.2906,9.9283,-0.4403,-0.0944,9.7963,-0.0036,-0.0083,-0.0096
18953,46.41544,-0.399296,129.8,36.07,4.288,123.2,13 / 18,1895246,2019-08-18 22:51:24:779,-0.625,-0.3643,9.7577,-0.4396,-0.0902,9.7964,0.0071,-0.0019,-0.0106
18954,46.41544,-0.399296,129.8,36.07,4.288,123.2,13 / 18,1895346,2019-08-18 22:51:24:879,-0.5621,-0.044,8.8706,-0.4489,-0.0883,9.796,0.0018,0.0076,-0.0096
18955,46.41544,-0.399296,129.8,36.07,4.288,123.2,13 / 18,1895446,2019-08-18 22:51:24:979,-0.4442,0.1104,9.565,-0.4479,-0.0857,9.796,0.006,-0.0083,-0.0117
18956,46.41544,-0.399296,129.8,36.07,4.288,123.2,13 / 18,1895546,2019-08-18 22:51:25:079,-0.2395,-0.056,9.8571,-0.4455,-0.0815,9.7962,0.006,-0.0041,-0.0106
18957,46.41544,-0.399296,129.8,36.07,4.288,123.2,13 / 18,1895646,2019-08-18 22:51:25:179,-0.1851,-0.0758,9.8116,-0.4534,-0.0902,9.7957,0.0049,0.0002,-0.0128
18958,46.41544,-0.399296,129.8,36.07,4.288,123.2,13 / 18,1895745,2019-08-18 22:51:25:278,-0.5089,-0.3427,10.3311,-0.4578,-0.1228,9.7952,-0.0057,-0.0051,-0.016
18959,46.41544,-0.399296,129.8,36.07,4.288,123.2,13 / 18,1895845,2019-08-18 22:51:25:378,-0.6693,-0.2332,9.0837,-0.4687,-0.1514,9.7943,-0.0121,0.0045,-0.0181
18960,46.41544,-0.399296,129.8,36.07,4.288,123.2,13 / 18,1895946,2019-08-18 22:51:25:479,-0.3545,-0.2589,9.4093,-0.4988,-0.1874,9.7922,-0.0078,0.0087,-0.017
18961,46.41544,-0.399296,129.8,36.07,4.288,123.2,13 / 18,1896045,2019-08-18 22:51:25:578,-0.6178,-0.4948,9.2184,-0.5101,-0.2167,9.791,-0.0089,0.0013,-0.016
18962,46.41544,-0.399296,129.8,36.07,4.288,123.2,13 / 18,1896145,2019-08-18 22:51:25:678,-0.5262,-0.3098,10.3724,-0.5114,-0.2258,9.7907,0.006,-0.0105,-0.017
18963,46.41544,-0.399296,129.8,36.07,4.288,123.2,13 / 18,1896246,2019-08-18 22:51:25:779,-0.6525,-0.4433,10.2401,-0.5042,-0.2225,9.7912,0.0124,-0.0009,-0.0149
18964,46.41544,-0.399296,129.8,36.07,4.288,123.2,13 / 18,1896345,2019-08-18 22:51:25:878,-0.783,-0.205,9.7146,-0.5125,-0.2092,9.791,0.0135,0.0098,-0.0149
18965,46.41544,-0.399296,129.8,36.07,4.288,123.2,13 / 18,1896445,2019-08-18 22:51:25:978,-0.8704,-0.2984,9.5356,-0.5197,-0.2069,9.7907,0.0113,0.0108,-0.016
18966,46.41544,-0.399296,129.8,36.07,4.288,123.2,13 / 18,1896550,2019-08-18 22:51:26:083,-0.376,0.0787,9.6422,-0.532,-0.183,9.7905,0.022,-0.0019,-0.0128
18967,46.41544,-0.399296,129.8,36.07,4.288,123.2,13 / 18,1896646,2019-08-18 22:51:26:179,-0.5083,-0.135,9.8343,-0.5406,-0.1956,9.7898,0.0103,-0.0062,-0.0128
18968,46.41544,-0.399296,129.8,36.07,4.288,123.2,13 / 18,1896745,2019-08-18 22:51:26:278,-0.4502,-0.1446,10.394,-0.545,-0.1944,9.7896,0.0049,-0.0009,-0.0106
18969,46.41544,-0.399296,129.8,36.07,4.288,123.2,13 / 18,1896846,2019-08-18 22:51:26:379,-1.0135,0.0661,9.6326,-0.573,-0.1711,9.7884,0.0049,0.0076,-0.0096
18970,46.41544,-0.399296,129.8,36.07,4.288,123.2,13 / 18,1896945,2019-08-18 22:51:26:478,-0.865,-0.2458,9.8343,-0.5976,-0.1619,9.7871,-0.0036,0.013,-0.0064
18971,46.41544,-0.399296,129.8,36.07,4.288,123.2,13 / 18,1897046,2019-08-18 22:51:26:579,-1.1056,0.1092,9.8475,-0.6101,-0.1623,9.7863,-0.0057,0.0076,-0.0074
18972,46.41544,-0.399296,129.8,36.07,4.288,123.2,13 / 18,1897146,2019-08-18 22:51:26:679,-0.6178,0.1583,9.1992,-0.6339,-0.1616,9.7848,-0.0089,0.0108,-0.0053
18973,46.41544,-0.399296,129.8,36.07,4.288,123.2,13 / 18,1897246,2019-08-18 22:51:26:779,-0.859,0.1385,9.2717,-0.6503,-0.1461,9.784,0.0113,0.0108,-0.0032
18974,46.41544,-0.399296,129.8,36.07,4.288,123.2,13 / 18,1897345,2019-08-18 22:51:26:878,-0.7621,0.4049,9.6458,-0.6475,-0.1247,9.7845,0.0071,-0.019,-0.0032
18975,46.41544,-0.399296,129.8,36.07,4.288,123.2,13 / 18,1897446,2019-08-18 22:51:26:979,-0.6855,-0.056,10.3832,-0.6498,-0.117,9.7844,-0.0004,-0.003,-0.0032
18976,46.41544,-0.399296,129.8,36.07,4.288,123.2,13 / 18,1897546,2019-08-18 22:51:27:079,-0.7782,-0.0734,10.2659,-0.67,-0.1057,9.7832,-0.0004,0.0066,-0.0032
18977,46.41544,-0.399296,129.8,36.07,4.288,123.2,13 / 18,1897645,2019-08-18 22:51:27:178,-0.722,0.3007,9.4471,-0.6772,-0.1037,9.7827,-0.0078,-0.0009,-0.0042
18978,46.41544,-0.399296,129.8,36.07,4.288,123.2,13 / 18,1897745,2019-08-18 22:51:27:278,-0.7321,0.1349,9.0933,-0.6858,-0.0852,9.7823,0.0092,0.0002,-0.0042
18979,46.41544,-0.399296,129.8,36.07,4.288,123.2,13 / 18,1897845,2019-08-18 22:51:27:378,-0.8088,0.3654,9.6374,-0.7095,-0.0271,9.7809,-0.0078,-0.0094,-0.0042
18980,46.41544,-0.399296,129.8,36.07,4.288,123.2,13 / 18,1897945,2019-08-18 22:51:27:478,-0.6699,0.2726,10.0222,-0.7222,0.0006,9.78,0.0007,0.0002,-0.0011
18981,46.41544,-0.399296,129.8,36.07,4.288,123.2,13 / 18,1898046,2019-08-18 22:51:27:579,-0.5071,0.1846,9.9612,-0.7288,0.0168,9.7795,0.022,0.0066,-0.0011
18982,46.41544,-0.399296,129.8,36.07,4.288,123.2,13 / 18,1898146,2019-08-18 22:51:27:679,-0.7944,0.2026,9.3267,-0.7336,0.0304,9.7791,-0.0025,0.0013,-0.0032
18983,46.41544,-0.399296,129.8,36.07,4.288,123.2,13 / 18,1898246,2019-08-18 22:51:27:779,-0.8183,0.4013,9.9265,-0.7324,0.0347,9.7792,-0.0078,-0.0009,-0.0053
18984,46.41544,-0.399296,129.8,36.07,4.288,123.2,13 / 18,1898345,2019-08-18 22:51:27:878,-0.8471,0.0224,9.3788,-0.7288,0.0313,9.7795,-0.0153,0.0002,-0.0064
18985,46.41544,-0.399296,129.8,36.07,4.288,123.2,13 / 18,1898446,2019-08-18 22:51:27:979,-0.6968,0.0452,9.6625,-0.7217,0.0298,9.78,-0.0078,-0.0051,-0.0085
18986,46.41544,-0.399296,129.8,36.07,4.288,123.2,13 / 18,1898546,2019-08-18 22:51:28:079,-0.5262,0.2912,9.8313,-0.7111,0.0251,9.7808,-0.0046,-0.0062,-0.0096
18987,46.41544,-0.399296,129.8,36.07,4.288,123.2,13 / 18,1898645,2019-08-18 22:51:28:178,-0.4269,-0.156,9.3902,-0.71,0.015,9.7809,-0.011,0.0034,-0.0128
18988,46.41544,-0.399296,129.8,36.07,4.288,123.2,13 / 18,1898745,2019-08-18 22:51:28:278,-0.3269,-0.0051,8.8419,-0.7023,-0.012,9.7815,-0.0174,-0.0083,-0.016
18989,46.41544,-0.399296,129.8,36.07,4.288,123.2,13 / 18,1898845,2019-08-18 22:51:28:378,-0.1174,-0.0572,10.0779,-0.6951,-0.0312,9.7819,-0.0068,-0.0009,-0.0149
18990,46.41544,-0.399296,129.8,36.07,4.288,123.2,13 / 18,1898945,2019-08-18 22:51:28:478,-0.607,-0.3792,9.9534,-0.6785,-0.0431,9.7831,-0.0036,-0.0126,-0.0149
18991,46.41544,-0.399296,129.8,36.07,4.288,123.2,13 / 18,1899045,2019-08-18 22:51:28:578,-0.4221,-0.4636,9.565,-0.6651,-0.0498,9.7839,0.0018,-0.0019,-0.0128
18992,46.41544,-0.399296,129.8,36.07,4.288,123.2,13 / 18,1899146,2019-08-18 22:51:28:679,-0.8052,-0.3906,10.0318,-0.6214,-0.0887,9.7865,-0.0025,0.0098,-0.0149
18993,46.41544,-0.399296,129.8,36.07,4.288,123.2,13 / 18,1899246,2019-08-18 22:51:28:779,-0.7327,-0.1793,8.9407,-0.597,-0.1271,9.7876,0.0113,0.0076,-0.0138
18994,46.41544,-0.399296,129.8,36.07,4.288,123.2,13 / 18,1899346,2019-08-18 22:51:28:879,-0.4191,-0.1536,9.0562,-0.598,-0.1297,9.7875,-0.0046,0.0013,-0.0138
18995,46.41544,-0.399296,129.8,36.07,4.288,123.2,13 / 18,1899445,2019-08-18 22:51:28:978,-0.2856,0.047,9.6517,-0.6002,-0.1295,9.7874,0.0071,0.0034,-0.0128
18996,46.41544,-0.399296,129.8,36.07,4.288,123.2,13 / 18,1899546,2019-08-18 22:51:29:079,-0.2952,-0.2392,9.4686,-0.6043,-0.148,9.7869,0.0049,0.0076,-0.0128
18997,46.41544,-0.399296,129.8,36.07,4.288,123.2,13 / 18,1899645,2019-08-18 22:51:29:178,-0.3245,-0.2547,9.9091,-0.5987,-0.156,9.7871,0.0039,-0.0009,-0.016
18998,46.41544,-0.399296,129.8,36.07,4.288,123.2,13 / 18,1899746,2019-08-18 22:51:29:279,-0.7615,-0.1039,10.3574,-0.5964,-0.1592,9.7872,-0.0025,-0.0051,-0.0149
18999,46.41544,-0.399296,129.8,36.07,4.288,123.2,13 / 18,1899845,2019-08-18 22:51:29:378,-0.7609,-0.4684,9.7218,-0.6013,-0.1593,9.7869,0.0039,0.0098,-0.016
19000,46.41544,-0.399296,129.8,36.07,4.288,123.2,13 / 18,1899945,2019-08-18 22:51:29:478,-0.8746,-0.4169,9.2836,-0.6146,-0.159,9.7861,0.006,0.013,-0.0149
19001,46.41544,-0.399296,129.8,36.07,4.288,123.2,13 / 18,1900046,2019-08-18 22:51:29:579,-0.801,-0.22,9.5093,-0.6271,-0.1731,9.785,-0.0036,-0.003,-0.0181
19002,46.41544,-0.399296,129.8,36.07,4.288,123.2,13 / 18,1900145,2019-08-18 22:51:29:678,-0.798,-0.1811,9.8451,-0.6304,-0.1733,9.7848,0.0071,-0.0019,-0.017
19003,46.41544,-0.399296,129.8,36.07,4.288,123.2,13 / 18,1900245,2019-08-18 22:51:29:778,-0.5466,-0.4211,9.6823,-0.6397,-0.1759,9.7842,0.0018,0.0013,-0.0149
19004,46.41544,-0.399296,129.8,36.07,4.288,123.2,13 / 18,1900345,2019-08-18 22:51:29:878,-0.522,-0.1877,10.1934,-0.6955,-0.1876,9.7802,0.0071,0.0002,-0.0117
19005,46.41544,-0.399296,129.8,36.07,4.288,123.2,13 / 18,1900446,2019-08-18 22:51:29:979,-0.5388,-0.2877,10.06,-0.7437,-0.192,9.7765,0.0103,0.0045,-0.0128
19006,46.41544,-0.399296,129.8,36.07,4.288,123.2,13 / 18,1900545,2019-08-18 22:51:30:078,-0.6352,-0.2805,9.9397,-0.7496,-0.1874,9.7762,0.0092,0.0045,-0.0128
19007,46.41544,-0.399296,129.8,36.07,4.288,123.2,13 / 18,1900646,2019-08-18 22:51:30:179,-0.9548,-0.3176,10.0612,-0.7874,-0.1742,9.7734,-0.0036,0.0002,-0.0128
19008,46.41544,-0.399296,129.8,36.07,4.288,123.2,13 / 18,1900745,2019-08-18 22:51:30:278,-1.3056,-0.232,9.3704,-0.7939,-0.164,9.7731,0.0071,-0.0041,-0.0117
19009,46.41544,-0.399296,129.8,36.07,4.288,123.2,13 / 18,1900845,2019-08-18 22:51:30:378,-1.0661,-0.3708,9.0993,-0.8144,-0.1586,9.7715,0.0092,-0.0051,-0.0096
19010,46.41544,-0.399296,129.8,36.07,4.288,123.2,13 / 18,1900946,2019-08-18 22:51:30:479,-1.02,-0.0261,9.5458,-0.8149,-0.1491,9.7716,0.0124,0.0013,-0.0096
19011,46.41544,-0.399296,129.8,36.07,4.288,123.2,13 / 18,1901046,2019-08-18 22:51:30:579,-0.716,0.3121,9.3363,-0.815,-0.1383,9.7718,0.006,0.0013,-0.0096
19012,46.41544,-0.399296,129.8,36.07,4.288,123.2,13 / 18,1901146,2019-08-18 22:51:30:679,-0.4748,0.1367,10.0157,-0.8096,-0.1287,9.7723,0.0081,-0.003,-0.0064
19013,46.41544,-0.399296,129.8,36.07,4.288,123.2,13 / 18,1901246,2019-08-18 22:51:30:779,-0.7052,0.3001,9.5763,-0.8143,-0.1101,9.7722,0.0039,0.0045,-0.0011
19014,46.41544,-0.399296,129.8,36.07,4.288,123.2,13 / 18,1901346,2019-08-18 22:51:30:879,-0.3886,0.0505,9.9229,-0.8095,-0.097,9.7727,0.0049,-0.0009,-0.0011
19015,46.41544,-0.399296,129.8,36.07,4.288,123.2,13 / 18,1901445,2019-08-18 22:51:30:978,-0.5352,0.2516,10.4311,-0.8102,-0.0786,9.7728,0.0039,0.0055,-0.0011
19016,46.41544,-0.399296,129.8,36.07,4.288,123.2,13 / 18,1901545,2019-08-18 22:51:31:078,-0.6483,0.2115,10.0049,-0.8071,-0.0624,9.7732,0.0049,0.0034,0.0
19017,46.41544,-0.399296,129.8,36.07,4.288,123.2,13 / 18,1901645,2019-08-18 22:51:31:178,-0.7776,0.4121,9.969,-0.7749,0.0211,9.776,-0.0078,-0.0019,-0.0011
19018,46.41544,-0.399296,129.8,36.07,4.288,123.2,13 / 18,1901745,2019-08-18 22:51:31:278,-0.8519,0.3791,9.875,-0.7364,0.0783,9.7787,-0.0036,-0.003,-0.0011
19019,46.41544,-0.399296,129.8,36.07,4.288,123.2,13 / 18,1901845,2019-08-18 22:51:31:378,-0.4622,0.3678,9.7738,-0.7153,0.0928,9.7801,0.0039,-0.0094,-0.0011
19020,46.41544,-0.399296,129.8,36.07,4.288,123.2,13 / 18,1901946,2019-08-18 22:51:31:479,-0.4676,0.3684,9.6901,-0.7021,0.1055,9.7809,0.006,-0.0073,0.0
19021,46.41544,-0.399296,129.8,36.07,4.288,123.2,13 / 18,1902045,2019-08-18 22:51:31:578,-0.1629,0.2133,9.2597,-0.684,0.1108,9.7821,-0.0046,0.0034,-0.0021
19022,46.41544,-0.399296,129.8,36.07,4.288,123.2,13 / 18,1902145,2019-08-18 22:51:31:678,-0.2222,0.5719,9.5111,-0.673,0.121,9.7828,0.0039,-0.003,0.0011
19023,46.41544,-0.399296,129.8,36.07,4.288,123.2,13 / 18,1902245,2019-08-18 22:51:31:778,-0.394,0.7095,9.5267,-0.6588,0.1442,9.7834,0.0071,0.0013,0.0032
19024,46.41544,-0.399296,129.8,36.07,4.288,123.2,13 / 18,1902346,2019-08-18 22:51:31:879,-0.0013,0.4923,10.0576,-0.6124,0.1812,9.7858,0.0039,0.0055,0.0011
19025,46.41544,-0.399296,129.8,36.07,4.288,123.2,13 / 18,1902446,2019-08-18 22:51:31:979,-0.1348,0.272,9.5237,-0.5,0.2527,9.7906,-0.0046,-0.0041,-0.0021
19026,46.41544,-0.399296,129.8,36.07,4.288,123.2,13 / 18,1902545,2019-08-18 22:51:32:078,-0.0695,0.4953,9.7738,-0.484,0.2479,9.7916,-0.0153,-0.0083,-0.0032
19027,46.41544,-0.399296,129.8,36.07,4.288,123.2,13 / 18,1902646,2019-08-18 22:51:32:179,-0.1647,0.1014,9.6877,-0.4614,0.2417,9.7928,-0.0036,-0.0009,-0.0074
19028,46.41544,-0.399296,129.8,36.07,4.288,123.2,13 / 18,1902745,2019-08-18 22:51:32:278,-0.1976,0.1068,9.9726,-0.4451,0.2269,9.7939,-0.0142,0.0023,-0.0106
19029,46.41544,-0.399296,129.8,36.07,4.288,123.2,13 / 18,1902845,2019-08-18 22:51:32:378,-0.2766,0.2672,9.1143,-0.4362,0.2087,9.7947,-0.0195,0.0045,-0.0128
19030,46.41544,-0.399296,129.8,36.07,4.288,123.2,13 / 18,1902945,2019-08-18 22:51:32:478,-0.0989,-0.1488,9.6278,-0.4243,0.1917,9.7956,-0.0142,-0.0019,-0.0138
19031,46.41544,-0.399296,129.8,36.07,4.288,123.2,13 / 18,1903045,2019-08-18 22:51:32:578,-0.0324,-0.144,9.8008,-0.3995,0.1723,9.797,-0.0014,-0.003,-0.0106
19032,46.41544,-0.399296,129.8,36.07,4.288,123.2,13 / 18,1903145,2019-08-18 22:51:32:678,0.1364,-0.0285,9.7314,-0.3658,0.1503,9.7987,0.0081,-0.0009,-0.0085
19033,46.41544,-0.399296,129.8,36.07,4.288,123.2,13 / 18,1903246,2019-08-18 22:51:32:779,0.1076,0.275,10.0336,-0.3487,0.1167,9.7998,0.0071,0.0162,-0.0096
19034,46.41544,-0.399296,129.8,36.07,4.288,123.2,13 / 18,1903346,2019-08-18 22:51:32:879,-0.1085,-0.0434,9.8092,-0.3497,0.0593,9.8002,-0.0217,0.0045,-0.0117
19035,46.413704,-0.396139,124.45,34.56,4.288,128.5,13 / 18,1903446,2019-08-18 22:51:32:979,-0.3215,0.1254,9.8343,-0.3502,0.0452,9.8003,-0.0142,0.0034,-0.0138
19036,46.413704,-0.396139,124.45,34.56,4.288,128.5,13 / 18,1903546,2019-08-18 22:51:33:079,-0.6124,-0.1009,9.4111,-0.3475,0.0339,9.8004,-0.0089,0.0023,-0.0128
19037,46.413704,-0.396139,124.45,34.56,4.288,128.5,13 / 18,1903645,2019-08-18 22:51:33:178,-0.5951,-0.0111,9.6033,-0.3285,0.027,9.8011,0.0071,-0.0041,-0.0085
19038,46.413704,-0.396139,124.45,34.56,4.288,128.5,13 / 18,1903745,2019-08-18 22:51:33:278,-0.2413,-0.0171,9.4542,-0.3011,-0.0245,9.802,-0.0004,-0.0051,-0.0106
19039,46.413704,-0.396139,124.45,34.56,4.288,128.5,13 / 18,1903845,2019-08-18 22:51:33:378,0.0238,-0.1422,9.9648,-0.293,-0.0223,9.8022,0.0081,-0.0051,-0.0106
19040,46.413704,-0.396139,124.45,34.56,4.288,128.5,13 / 18,1903945,2019-08-18 22:51:33:478,-0.1348,0.0284,10.2521,-0.2914,-0.0163,9.8023,0.0028,0.0002,-0.0085
19041,46.413704,-0.396139,124.45,34.56,4.288,128.5,13 / 18,1904046,2019-08-18 22:51:33:579,0.0933,0.1266,9.7254,-0.2902,-0.0179,9.8023,-0.0057,0.0013,-0.0085
19042,46.413704,-0.396139,124.45,34.56,4.288,128.5,13 / 18,1904146,2019-08-18 22:51:33:679,-0.2808,-0.0943,9.7164,-0.2872,-0.0186,9.8024,-0.0004,0.0013,-0.0096
19043,46.413704,-0.396139,124.45,34.56,4.288,128.5,13 / 18,1904245,2019-08-18 22:51:33:778,-0.3443,0.0344,9.7493,-0.2865,-0.0135,9.8025,0.0028,0.0066,-0.0106
19044,46.413704,-0.396139,124.45,34.56,4.288,128.5,13 / 18,1904345,2019-08-18 22:51:33:878,-0.5011,0.1301,9.2196,-0.2837,-0.02,9.8025,-0.0025,0.0023,-0.0096
19045,46.413704,-0.396139,124.45,34.56,4.288,128.5,13 / 18,1904445,2019-08-18 22:51:33:978,-0.2323,-0.074,9.4315,-0.2705,-0.0195,9.8029,0.0039,-0.0137,-0.0117
19046,46.413704,-0.396139,124.45,34.56,4.288,128.5,13 / 18,1904546,2019-08-18 22:51:34:079,-0.0193,0.1792,10.0522,-0.2459,-0.018,9.8036,0.0049,-0.0115,-0.0085
19047,46.413704,-0.396139,124.45,34.56,4.288,128.5,13 / 18,1904646,2019-08-18 22:51:34:179,0.0975,0.1906,9.5925,-0.2437,-0.0199,9.8036,-0.0004,0.0098,-0.0096
19048,46.413704,-0.396139,124.45,34.56,4.288,128.5,13 / 18,1904746,2019-08-18 22:51:34:279,0.3231,-0.077,9.7846,-0.2558,-0.0233,9.8033,-0.0036,0.0172,-0.0096
19049,46.413704,-0.396139,124.45,34.56,4.288,128.5,13 / 18,1904846,2019-08-18 22:51:34:379,-0.4239,-0.0315,9.1274,-0.2652,-0.0223,9.803,-0.0046,0.0087,-0.0085
19050,46.413704,-0.396139,124.45,34.56,4.288,128.5,13 / 18,1904946,2019-08-18 22:51:34:479,-0.3341,0.1026,9.6021,-0.2801,-0.0284,9.8026,-0.0046,0.0023,-0.0096
19051,46.413704,-0.396139,124.45,34.56,4.288,128.5,13 / 18,1905046,2019-08-18 22:51:34:579,-0.862,-0.1428,10.0372,-0.284,-0.0251,9.8025,0.0039,-0.003,-0.0106
19052,46.413704,-0.396139,124.45,34.56,4.288,128.5,13 / 18,1905146,2019-08-18 22:51:34:679,-0.7327,-0.1213,10.0276,-0.2911,-0.0249,9.8023,-0.0004,0.0002,-0.0117
19053,46.413704,-0.396139,124.45,34.56,4.288,128.5,13 / 18,1905246,2019-08-18 22:51:34:779,-0.5831,-0.1709,9.7984,-0.2984,-0.0353,9.802,-0.0089,0.0034,-0.0117
19054,46.413704,-0.396139,124.45,34.56,4.288,128.5,13 / 18,1905345,2019-08-18 22:51:34:878,-0.4556,-0.1261,9.5997,-0.309,-0.0463,9.8017,-0.0089,-0.0009,-0.0117
19055,46.413704,-0.396139,124.45,34.56,4.288,128.5,13 / 18,1905445,2019-08-18 22:51:34:978,-0.3844,0.0751,9.0891,-0.316,-0.0546,9.8014,-0.0068,-0.003,-0.0138
19056,46.413704,-0.396139,124.45,34.56,4.288,128.5,13 / 18,1905546,2019-08-18 22:51:35:079,-0.1851,-0.3104,10.0809,-0.3728,-0.102,9.799,0.0018,0.0023,-0.016
19057,46.413704,-0.396139,124.45,34.56,4.288,128.5,13 / 18,1905645,2019-08-18 22:51:35:178,-0.6364,-0.4756,9.9486,-0.3898,-0.1381,9.7979,-0.0068,0.0002,-0.0181
19058,46.413704,-0.396139,124.45,34.56,4.288,128.5,13 / 18,1905745,2019-08-18 22:51:35:278,-0.5215,-0.6169,9.7499,-0.389,-0.1666,9.7975,0.0039,0.0023,-0.0192
19059,46.413704,-0.396139,124.45,34.56,4.288,128.5,13 / 18,1905845,2019-08-18 22:51:35:378,-0.8082,-0.5139,9.6703,-0.3934,-0.2096,9.7965,0.0071,0.0045,-0.0181
19060,46.413704,-0.396139,124.45,34.56,4.288,128.5,13 / 18,1905945,2019-08-18 22:51:35:478,-0.5155,-0.1985,9.4081,-0.378,-0.2598,9.7959,-0.0078,-0.0094,-0.0192
19061,46.413704,-0.396139,124.45,34.56,4.288,128.5,13 / 18,1906045,2019-08-18 22:51:35:578,-0.3209,-0.3978,9.5853,-0.3797,-0.2824,9.7952,0.0049,-0.003,-0.0181
19062,46.413704,-0.396139,124.45,34.56,4.288,128.5,13 / 18,1906146,2019-08-18 22:51:35:679,-0.0707,-0.2039,9.6984,-0.3738,-0.3031,9.7948,0.006,0.0023,-0.016
19063,46.413704,-0.396139,124.45,34.56,4.288,128.5,13 / 18,1906245,2019-08-18 22:51:35:778,0.1214,-0.3804,10.0306,-0.3644,-0.3106,9.795,0.0007,0.0013,-0.016
19064,46.413704,-0.396139,124.45,34.56,4.288,128.5,13 / 18,1906345,2019-08-18 22:51:35:878,-0.2755,-0.4109,10.0612,-0.3352,-0.3239,9.7956,-0.0004,-0.0062,-0.017
19065,46.413704,-0.396139,124.45,34.56,4.288,128.5,13 / 18,1906445,2019-08-18 22:51:35:978,-0.476,-0.1877,9.5165,-0.3293,-0.3249,9.7957,-0.0046,-0.0041,-0.017
19066,46.413704,-0.396139,124.45,34.56,4.288,128.5,13 / 18,1906546,2019-08-18 22:51:36:079,-0.5831,-0.3313,10.1037,-0.3228,-0.3306,9.7958,-0.0046,-0.0051,-0.016
19067,46.413704,-0.396139,124.45,34.56,4.288,128.5,13 / 18,1906646,2019-08-18 22:51:36:179,-0.2904,-0.2763,9.3627,-0.3239,-0.3286,9.7958,0.0028,0.0087,-0.0149
19068,46.413704,-0.396139,124.45,34.56,4.288,128.5,13 / 18,1906746,2019-08-18 22:51:36:279,-0.0037,-0.1524,9.9965,-0.3198,-0.3281,9.7959,-0.0078,-0.003,-0.0138
19069,46.413704,-0.396139,124.45,34.56,4.288,128.5,13 / 18,1906845,2019-08-18 22:51:36:378,-0.3545,-0.1925,10.3574,-0.3195,-0.3312,9.7958,-0.0025,-0.0009,-0.0149
19070,46.413704,-0.396139,124.45,34.56,4.288,128.5,13 / 18,1906945,2019-08-18 22:51:36:478,-0.4885,-0.4205,10.0013,-0.3345,-0.3335,9.7953,-0.0036,0.014,-0.0128
19071,46.413704,-0.396139,124.45,34.56,4.288,128.5,13 / 18,1907046,2019-08-18 22:51:36:579,-0.6172,-0.22,10.2156,-0.3602,-0.3246,9.7947,0.0092,0.0098,-0.0117
19072,46.413704,-0.396139,124.45,34.56,4.288,128.5,13 / 18,1907146,2019-08-18 22:51:36:679,-1.4283,-0.3948,9.9384,-0.4029,-0.301,9.7937,0.0124,0.0002,-0.0117
19073,46.413704,-0.396139,124.45,34.56,4.288,128.5,13 / 18,1907246,2019-08-18 22:51:36:779,-1.105,-0.0021,9.483,-0.4379,-0.275,9.793,0.0124,-0.0051,-0.0117
19074,46.413704,-0.396139,124.45,34.56,4.288,128.5,13 / 18,1907346,2019-08-18 22:51:36:879,-0.7052,0.1505,9.3148,-0.4939,-0.2622,9.7907,-0.0068,0.0066,-0.0117
19075,46.413704,-0.396139,124.45,34.56,4.288,128.5,13 / 18,1907446,2019-08-18 22:51:36:979,-0.2778,-0.5091,9.6464,-0.5636,-0.2443,9.7874,-0.0046,-0.0051,-0.0149
19076,46.413704,-0.396139,124.45,34.56,4.288,128.5,13 / 18,1907546,2019-08-18 22:51:37:079,-0.3958,-0.3876,10.4813,-0.563,-0.2386,9.7876,0.0103,-0.0073,-0.0117
19077,46.413704,-0.396139,124.45,34.56,4.288,128.5,13 / 18,1907646,2019-08-18 22:51:37:179,-0.6358,-0.2374,9.8283,-0.5772,-0.227,9.787,0.0081,0.0108,-0.0106
19078,46.413704,-0.396139,124.45,34.56,4.288,128.5,13 / 18,1907745,2019-08-18 22:51:37:278,-0.7046,-0.1727,9.4788,-0.5845,-0.216,9.7868,0.0071,0.0013,-0.0106
19079,46.413704,-0.396139,124.45,34.56,4.288,128.5,13 / 18,1907845,2019-08-18 22:51:37:378,-0.5508,-0.2529,9.0807,-0.5892,-0.211,9.7867,0.0007,0.0002,-0.0117
19080,46.413704,-0.396139,124.45,34.56,4.288,128.5,13 / 18,1907946,2019-08-18 22:51:37:479,-0.8716,0.1619,9.3836,-0.6104,-0.179,9.786,0.0018,-0.003,-0.0117
19081,46.413704,-0.396139,124.45,34.56,4.288,128.5,13 / 18,1908046,2019-08-18 22:51:37:579,-0.6807,-0.0399,9.802,-0.6123,-0.1697,9.786,0.0081,-0.003,-0.0106
19082,46.413704,-0.396139,124.45,34.56,4.288,128.5,13 / 18,1908146,2019-08-18 22:51:37:679,-0.4059,-0.1649,9.799,-0.6175,-0.1639,9.7858,0.0039,0.0034,-0.0096
19083,46.413704,-0.396139,124.45,34.56,4.288,128.5,13 / 18,1908246,2019-08-18 22:51:37:779,-0.3275,-0.1021,10.1839,-0.6377,-0.1455,9.7848,0.0071,-0.0051,-0.0106
19084,46.413704,-0.396139,124.45,34.56,4.288,128.5,13 / 18,1908346,2019-08-18 22:51:37:879,-0.3048,-0.2272,10.1066,-0.6342,-0.1362,9.7852,-0.0014,-0.0041,-0.0096
19085,46.413704,-0.396139,124.45,34.56,4.288,128.5,13 / 18,1908446,2019-08-18 22:51:37:979,-0.6873,-0.0812,9.8804,-0.6318,-0.1258,9.7855,0.0049,0.0045,-0.0106
19086,46.413704,-0.396139,124.45,34.56,4.288,128.5,13 / 18,1908546,2019-08-18 22:51:38:079,-0.9021,-0.2086,9.9833,-0.6214,-0.0854,9.7866,0.0028,-0.003,-0.0106
19087,46.413704,-0.396139,124.45,34.56,4.288,128.5,13 / 18,1908646,2019-08-18 22:51:38:179,-0.5346,0.2684,10.2012,-0.5981,-0.0786,9.7881,0.006,-0.003,-0.0085
19088,46.413704,-0.396139,124.45,34.56,4.288,128.5,13 / 18,1908746,2019-08-18 22:51:38:279,-0.6364,-0.2583,10.2168,-0.5937,-0.0739,9.7884,0.006,0.0002,-0.0085
19089,46.413704,-0.396139,124.45,34.56,4.288,128.5,13 / 18,1908845,2019-08-18 22:51:38:378,-0.1635,-0.1248,10.0947,-0.5937,-0.0634,9.7885,0.0039,0.0013,-0.0085
19090,46.413704,-0.396139,124.45,34.56,4.288,128.5,13 / 18,1908945,2019-08-18 22:51:38:478,-0.303,0.0589,9.8469,-0.5935,-0.0569,9.7885,0.0081,0.0023,-0.0096
19091,46.413704,-0.396139,124.45,34.56,4.288,128.5,13 / 18,1909045,2019-08-18 22:51:38:578,-0.4137,0.0529,9.5697,-0.5874,-0.0516,9.7889,-0.0004,0.0002,-0.0096
19092,46.413704,-0.396139,124.45,34.56,4.288,128.5,13 / 18,1909145,2019-08-18 22:51:38:678,-0.5819,0.0948,10.2682,-0.5696,-0.0528,9.79,-0.0004,0.0013,-0.0117
19093,46.413704,-0.396139,124.45,34.56,4.288,128.5,13 / 18,1909245,2019-08-18 22:51:38:778,-0.7842,0.0912,9.7966,-0.5277,-0.0455,9.7923,-0.0036,-0.0062,-0.0106
19094,46.413704,-0.396139,124.45,34.56,4.288,128.5,13 / 18,1909345,2019-08-18 22:51:38:878,-0.6364,0.093,9.5596,-0.5213,-0.0436,9.7927,0.0049,-0.0009,-0.0096
19095,46.413704,-0.396139,124.45,34.56,4.288,128.5,13 / 18,1909445,2019-08-18 22:51:38:978,-0.6178,0.1469,9.4925,-0.5198,-0.0326,9.7928,0.0071,0.0076,-0.0096
19096,46.413704,-0.396139,124.45,34.56,4.288,128.5,13 / 18,1909545,2019-08-18 22:51:39:078,-0.4496,-0.0279,9.4141,-0.5351,-0.0427,9.7919,0.0007,0.0034,-0.0085
19097,46.413704,-0.396139,124.45,34.56,4.288,128.5,13 / 18,1909646,2019-08-18 22:51:39:179,-0.4311,-0.0303,9.0448,-0.5454,-0.0362,9.7914,0.0039,0.0002,-0.0096
19098,46.413704,-0.396139,124.45,34.56,4.288,128.5,13 / 18,1909746,2019-08-18 22:51:39:279,-0.2832,-0.1997,10.0749,-0.5498,-0.0343,9.7912,0.0028,0.0045,-0.0096
19099,46.413704,-0.396139,124.45,34.56,4.288,128.5,13 / 18,1909846,2019-08-18 22:51:39:379,-0.6675,-0.0327,10.2072,-0.555,-0.0371,9.7909,-0.0078,0.0023,-0.0096
19100,46.413704,-0.396139,124.45,34.56,4.288,128.5,13 / 18,1909945,2019-08-18 22:51:39:478,-0.8417,-0.129,9.4979,-0.552,-0.0379,9.791,0.0018,-0.0105,-0.0106
19101,46.413704,-0.396139,124.45,34.56,4.288,128.5,13 / 18,1910045,2019-08-18 22:51:39:578,-0.5837,-0.2781,9.231,-0.55,-0.0363,9.7911,0.0007,-0.0009,-0.0106
19102,46.413704,-0.396139,124.45,34.56,4.288,128.5,13 / 18,1910146,2019-08-18 22:51:39:679,-0.7561,0.3899,9.2094,-0.5545,-0.0293,9.7909,0.0018,0.0066,-0.0106
19103,46.413704,-0.396139,124.45,34.56,4.288,128.5,13 / 18,1910245,2019-08-18 22:51:39:778,-0.212,-0.059,9.5757,-0.566,-0.0303,9.7903,0.006,0.0066,-0.0085
19104,46.413704,-0.396139,124.45,34.56,4.288,128.5,13 / 18,1910346,2019-08-18 22:51:39:879,-0.1713,-0.0889,10.4167,-0.5684,-0.0233,9.7901,0.0081,-0.0083,-0.0064
19105,46.413704,-0.396139,124.45,34.56,4.288,128.5,13 / 18,1910446,2019-08-18 22:51:39:979,-0.3856,0.1541,10.0223,-0.5443,-0.0149,9.7915,0.0028,-0.0083,-0.0085
19106,46.413704,-0.396139,124.45,34.56,4.288,128.5,13 / 18,1910546,2019-08-18 22:51:40:079,-0.0911,-0.1254,9.6871,-0.547,-0.0134,9.7914,-0.0004,0.0055,-0.0096
19107,46.413704,-0.396139,124.45,34.56,4.288,128.5,13 / 18,1910645,2019-08-18 22:51:40:178,-0.6861,0.0446,9.228,-0.543,-0.0094,9.7916,0.0081,-0.0019,-0.0085
19108,46.413704,-0.396139,124.45,34.56,4.288,128.5,13 / 18,1910746,2019-08-18 22:51:40:279,-0.7699,0.1726,9.872,-0.5207,-0.0213,9.7928,0.0007,0.0023,-0.0085
19109,46.413704,-0.396139,124.45,34.56,4.288,128.5,13 / 18,1910846,2019-08-18 22:51:40:379,-0.8225,0.2229,9.6374,-0.501,-0.0092,9.7938,-0.0014,0.0013,-0.0096
19110,46.413704,-0.396139,124.45,34.56,4.288,128.5,13 / 18,1910945,2019-08-18 22:51:40:478,-0.4131,0.3708,9.3106,-0.4892,0.0079,9.7944,-0.0046,0.0013,-0.0085
19111,46.413704,-0.396139,124.45,34.56,4.288,128.5,13 / 18,1911046,2019-08-18 22:51:40:579,-0.294,-0.1967,9.2507,-0.4926,0.0226,9.7942,0.0113,0.0002,-0.0074
19112,46.413704,-0.396139,124.45,34.56,4.288,128.5,13 / 18,1911145,2019-08-18 22:51:40:678,-0.4017,0.1277,10.0636,-0.4857,0.0316,9.7946,-0.01,0.0023,-0.0074
19113,46.413704,-0.396139,124.45,34.56,4.288,128.5,13 / 18,1911246,2019-08-18 22:51:40:779,-0.4586,0.2493,9.7966,-0.4819,0.039,9.7947,-0.0132,0.0023,-0.0074
19114,46.413704,-0.396139,124.45,34.56,4.288,128.5,13 / 18,1911346,2019-08-18 22:51:40:879,-0.4694,-0.2535,9.5434,-0.4755,0.0654,9.7949,0.0167,0.0066,-0.0053
19115,46.413704,-0.396139,124.45,34.56,4.288,128.5,13 / 18,1911445,2019-08-18 22:51:40:978,-0.8255,0.2235,9.0735,-0.4931,0.0685,9.794,0.0028,0.0023,-0.0042
19116,46.413704,-0.396139,124.45,34.56,4.288,128.5,13 / 18,1911546,2019-08-18 22:51:41:079,-0.9626,0.0948,9.7469,-0.5058,0.0693,9.7934,-0.0004,0.0023,-0.0064
19117,46.413704,-0.396139,124.45,34.56,4.288,128.5,13 / 18,1911646,2019-08-18 22:51:41:179,-0.9309,0.3947,10.1294,-0.5115,0.0723,9.793,-0.0004,0.0013,-0.0074
19118,46.413704,-0.396139,124.45,34.56,4.288,128.5,13 / 18,1911745,2019-08-18 22:51:41:278,-0.6519,-0.1386,9.7924,-0.5238,0.0742,9.7924,0.0028,0.0002,-0.0085
19119,46.413704,-0.396139,124.45,34.56,4.288,128.5,13 / 18,1911845,2019-08-18 22:51:41:378,-0.44,0.2924,10.0636,-0.5249,0.0765,9.7923,0.0018,-0.0051,-0.0085
19120,46.413704,-0.396139,124.45,34.56,4.288,128.5,13 / 18,1911945,2019-08-18 22:51:41:478,-0.5358,0.2367,9.3824,-0.5262,0.0783,9.7922,0.0028,-0.0073,-0.0096
19121,46.413704,-0.396139,124.45,34.56,4.288,128.5,13 / 18,1912046,2019-08-18 22:51:41:579,-0.613,0.1451,10.0564,-0.5306,0.0752,9.792,-0.0078,-0.0062,-0.0085
19122,46.413704,-0.396139,124.45,34.56,4.288,128.5,13 / 18,1912146,2019-08-18 22:51:41:679,-1.0123,-0.0369,9.9923,-0.5452,0.068,9.7912,0.0081,0.0013,-0.0106
19123,46.413704,-0.396139,124.45,34.56,4.288,128.5,13 / 18,1912245,2019-08-18 22:51:41:778,-0.8375,-0.0225,9.6931,-0.5398,0.0404,9.7917,-0.0078,-0.0009,-0.0085
19124,46.413704,-0.396139,124.45,34.56,4.288,128.5,13 / 18,1912346,2019-08-18 22:51:41:879,-0.6699,0.1631,9.4548,-0.5307,0.0415,9.7922,0.0018,-0.0073,-0.0085
19125,46.411835,-0.393024,126.36,35.21,4.288,133.5,13 / 18,1912445,2019-08-18 22:51:41:978,-0.5202,0.2379,9.7302,-0.5327,0.0304,9.7921,-0.0185,0.0076,-0.0074
19126,46.411835,-0.393024,126.36,35.21,4.288,133.5,13 / 18,1912545,2019-08-18 22:51:42:078,-0.4718,-0.1398,9.1131,-0.5478,0.0192,9.7913,0.0039,0.0119,-0.0096
19127,46.411835,-0.393024,126.36,35.21,4.288,133.5,13 / 18,1912645,2019-08-18 22:51:42:178,-0.2072,0.105,9.7391,-0.5506,0.0354,9.7911,0.0284,-0.0019,-0.0053
19128,46.411835,-0.393024,126.36,35.21,4.288,133.5,13 / 18,1912746,2019-08-18 22:51:42:279,-0.716,-0.1859,10.7447,-0.5408,0.0449,9.7916,-0.0025,-0.0062,-0.0074
19129,46.411835,-0.393024,126.36,35.21,4.288,133.5,13 / 18,1912846,2019-08-18 22:51:42:379,-0.9674,-0.15,10.8219,-0.536,0.0557,9.7918,0.0177,-0.0105,-0.0085
19130,46.411835,-0.393024,126.36,35.21,4.288,133.5,13 / 18,1912946,2019-08-18 22:51:42:479,-0.9704,0.1601,10.0031,-0.53,0.0537,9.7922,-0.0238,0.0002,-0.0074
19131,46.411835,-0.393024,126.36,35.21,4.288,133.5,13 / 18,1913046,2019-08-18 22:51:42:579,-0.6992,0.2451,9.2591,-0.5242,0.0219,9.7926,-0.0526,-0.0051,-0.0106
19132,46.411835,-0.393024,126.36,35.21,4.288,133.5,13 / 18,1913146,2019-08-18 22:51:42:679,-0.2437,0.2457,9.2453,-0.5096,-0.0217,9.7934,-0.0313,-0.0083,-0.0096
19133,46.411835,-0.393024,126.36,35.21,4.288,133.5,13 / 18,1913245,2019-08-18 22:51:42:778,-0.1408,0.2792,9.2944,-0.5074,-0.017,9.7935,0.0124,0.0045,-0.0064
19134,46.411835,-0.393024,126.36,35.21,4.288,133.5,13 / 18,1913346,2019-08-18 22:51:42:879,-0.1701,-0.226,10.4364,-0.5009,0.0043,9.7939,0.0209,0.0045,-0.0042
19135,46.411835,-0.393024,126.36,35.21,4.288,133.5,13 / 18,1913446,2019-08-18 22:51:42:979,-0.1982,-0.1901,9.9983,-0.5053,0.0306,9.7936,0.0433,0.0076,-0.0053
19136,46.411835,-0.393024,126.36,35.21,4.288,133.5,13 / 18,1913545,2019-08-18 22:51:43:078,-0.3371,-0.0177,10.1288,-0.5026,0.0627,9.7936,0.0124,0.0045,-0.0053
19137,46.411835,-0.393024,126.36,35.21,4.288,133.5,13 / 18,1913645,2019-08-18 22:51:43:178,-0.8513,0.3456,9.128,-0.5089,0.054,9.7933,-0.0121,0.0162,-0.0106
19138,46.411835,-0.393024,126.36,35.21,4.288,133.5,13 / 18,1913746,2019-08-18 22:51:43:279,-0.4365,0.0954,9.6416,-0.4912,0.0601,9.7942,0.0145,-0.0201,-0.0096
19139,46.411835,-0.393024,126.36,35.21,4.288,133.5,13 / 18,1913846,2019-08-18 22:51:43:379,-0.3521,0.2971,10.2958,-0.4738,0.0727,9.7949,0.022,-0.0105,-0.0085
19140,46.411835,-0.393024,126.36,35.21,4.288,133.5,13 / 18,1913946,2019-08-18 22:51:43:479,-0.3736,0.8604,10.5963,-0.4678,0.0433,9.7954,-0.0259,0.0151,-0.0128
19141,46.411835,-0.393024,126.36,35.21,4.288,133.5,13 / 18,1914046,2019-08-18 22:51:43:579,-0.388,-0.7001,10.2689,-0.4735,0.0285,9.7952,-0.0217,0.0108,-0.0138
19142,46.411835,-0.393024,126.36,35.21,4.288,133.5,13 / 18,1914146,2019-08-18 22:51:43:679,-0.0869,-0.1099,10.1456,-0.4625,0.0254,9.7957,0.0135,-0.0051,-0.0106
19143,46.411835,-0.393024,126.36,35.21,4.288,133.5,13 / 18,1914246,2019-08-18 22:51:43:779,-0.6029,-0.727,9.0849,-0.4677,0.0181,9.7955,-0.01,0.0247,-0.0064
19144,46.411835,-0.393024,126.36,35.21,4.288,133.5,13 / 18,1914346,2019-08-18 22:51:43:879,-0.4676,0.2014,9.2016,-0.4762,0.0022,9.7951,0.0028,0.0066,-0.0042
19145,46.411835,-0.393024,126.36,35.21,4.288,133.5,13 / 18,1914446,2019-08-18 22:51:43:979,-0.5753,0.2469,9.8481,-0.4633,0.0342,9.7956,0.0294,-0.0115,-0.0011
19146,46.411835,-0.393024,126.36,35.21,4.288,133.5,13 / 18,1914546,2019-08-18 22:51:44:079,-0.4556,0.19,10.4263,-0.4473,0.0517,9.7963,0.0167,-0.0158,-0.0021
19147,46.411835,-0.393024,126.36,35.21,4.288,133.5,13 / 18,1914646,2019-08-18 22:51:44:179,-0.2796,0.2498,10.3012,-0.4401,0.0639,9.7966,0.0081,0.0002,-0.0032
19148,46.411835,-0.393024,126.36,35.21,4.288,133.5,13 / 18,1914746,2019-08-18 22:51:44:279,-0.0265,0.5102,10.4999,-0.4278,0.0755,9.797,0.0028,-0.0094,-0.0021
19149,46.411835,-0.393024,126.36,35.21,4.288,133.5,13 / 18,1914845,2019-08-18 22:51:44:378,-0.2306,0.3259,10.2036,-0.4049,0.1174,9.7976,-0.0004,-0.0019,-0.0011
19150,46.411835,-0.393024,126.36,35.21,4.288,133.5,13 / 18,1914945,2019-08-18 22:51:44:478,-0.4281,0.6479,9.3573,-0.4065,0.1026,9.7977,-0.0473,0.0108,-0.0032
19151,46.411835,-0.393024,126.36,35.21,4.288,133.5,13 / 18,1915045,2019-08-18 22:51:44:578,-0.7962,0.3121,8.6725,-0.4147,0.0961,9.7974,0.0081,0.0045,-0.0032
19152,46.411835,-0.393024,126.36,35.21,4.288,133.5,13 / 18,1915146,2019-08-18 22:51:44:679,-0.8537,0.3582,9.0825,-0.4197,0.1133,9.797,0.0252,0.0087,-0.0011
19153,46.411835,-0.393024,126.36,35.21,4.288,133.5,13 / 18,1915246,2019-08-18 22:51:44:779,-0.5897,0.2169,9.9001,-0.4194,0.1214,9.7969,0.0039,-0.003,-0.0042
19154,46.411835,-0.393024,126.36,35.21,4.288,133.5,13 / 18,1915346,2019-08-18 22:51:44:879,-0.4275,0.1242,10.1899,-0.4187,0.1112,9.7971,-0.0142,-0.0051,-0.0096
19155,46.411835,-0.393024,126.36,35.21,4.288,133.5,13 / 18,1915446,2019-08-18 22:51:44:979,-0.1893,0.1182,10.0372,-0.4269,0.1113,9.7967,0.0092,0.0087,-0.0085
19156,46.411835,-0.393024,126.36,35.21,4.288,133.5,13 / 18,1915545,2019-08-18 22:51:45:078,-0.4772,0.1798,9.7625,-0.4333,0.1065,9.7965,-0.0057,0.0055,-0.0074
19157,46.411835,-0.393024,126.36,35.21,4.288,133.5,13 / 18,1915646,2019-08-18 22:51:45:179,-0.5729,-0.0734,9.6793,-0.4359,0.0987,9.7965,0.0018,-0.0009,-0.0096
19158,46.411835,-0.393024,126.36,35.21,4.288,133.5,13 / 18,1915746,2019-08-18 22:51:45:279,-0.6316,-0.0452,9.6374,-0.4188,0.0932,9.7973,0.0145,-0.0051,-0.0096
19159,46.411835,-0.393024,126.36,35.21,4.288,133.5,13 / 18,1915845,2019-08-18 22:51:45:378,-0.4873,-0.0081,9.6416,-0.399,0.0699,9.7983,0.0071,-0.0051,-0.0106
19160,46.411835,-0.393024,126.36,35.21,4.288,133.5,13 / 18,1915946,2019-08-18 22:51:45:479,-0.2563,-0.0129,10.0881,-0.3873,0.0523,9.7989,-0.0036,-0.0041,-0.0128
19161,46.411835,-0.393024,126.36,35.21,4.288,133.5,13 / 18,1916046,2019-08-18 22:51:45:579,-0.2138,-0.0255,10.4448,-0.3624,0.029,9.7999,-0.0206,-0.0264,-0.016
19162,46.411835,-0.393024,126.36,35.21,4.288,133.5,13 / 18,1916146,2019-08-18 22:51:45:679,-0.2174,0.1583,10.5316,-0.3507,0.0125,9.8004,-0.0142,-0.0062,-0.0181
19163,46.411835,-0.393024,126.36,35.21,4.288,133.5,13 / 18,1916246,2019-08-18 22:51:45:779,-0.3221,-0.2877,10.0462,-0.3558,-0.0097,9.8002,-0.0089,0.0162,-0.0181
19164,46.411835,-0.393024,126.36,35.21,4.288,133.5,13 / 18,1916346,2019-08-18 22:51:45:879,-0.5807,-0.2691,9.2687,-0.3585,-0.0281,9.8001,-0.0153,0.0034,-0.0181
19165,46.411835,-0.393024,126.36,35.21,4.288,133.5,13 / 18,1916445,2019-08-18 22:51:45:978,-0.1994,-0.56,9.8457,-0.3301,-0.0403,9.801,0.0188,-0.0073,-0.017
19166,46.411835,-0.393024,126.36,35.21,4.288,133.5,13 / 18,1916545,2019-08-18 22:51:46:078,-0.2,-0.4343,10.0456,-0.328,-0.0338,9.8011,0.0252,0.0119,-0.0074
19167,46.411835,-0.393024,126.36,35.21,4.288,133.5,13 / 18,1916646,2019-08-18 22:51:46:179,-0.0043,-0.153,9.9582,-0.3354,-0.0277,9.8009,0.0092,0.0066,-0.0064
19168,46.411835,-0.393024,126.36,35.21,4.288,133.5,13 / 18,1916746,2019-08-18 22:51:46:279,-0.0336,0.1086,9.7044,-0.3366,-0.0216,9.8008,0.0081,0.0087,-0.0042
19169,46.411835,-0.393024,126.36,35.21,4.288,133.5,13 / 18,1916846,2019-08-18 22:51:46:379,-0.3335,0.2696,8.9137,-0.3284,-0.0125,9.8011,0.0049,-0.003,-0.0074
19170,46.411835,-0.393024,126.36,35.21,4.288,133.5,13 / 18,1916946,2019-08-18 22:51:46:479,-0.0965,-0.0387,10.0169,-0.3184,-0.0099,9.8015,-0.0025,-0.0083,-0.0074
19171,46.411835,-0.393024,126.36,35.21,4.288,133.5,13 / 18,1917046,2019-08-18 22:51:46:579,-0.54,0.3163,9.6841,-0.3065,0.0007,9.8019,0.0113,0.0076,-0.0064
19172,46.411835,-0.393024,126.36,35.21,4.288,133.5,13 / 18,1917146,2019-08-18 22:51:46:679,-0.1025,-0.1542,10.4341,-0.3018,0.0064,9.802,0.006,-0.0041,-0.0074
19173,46.411835,-0.393024,126.36,35.21,4.288,133.5,13 / 18,1917246,2019-08-18 22:51:46:779,-0.0145,-0.0237,9.5123,-0.2959,0.0076,9.8022,-0.0078,0.0023,-0.0074
19174,46.411835,-0.393024,126.36,35.21,4.288,133.5,13 / 18,1917346,2019-08-18 22:51:46:879,0.0298,-0.2697,9.8786,-0.2919,0.0039,9.8023,-0.0057,-0.0041,-0.0106
19175,46.411835,-0.393024,126.36,35.21,4.288,133.5,13 / 18,1917446,2019-08-18 22:51:46:979,-0.4377,0.1373,10.2282,-0.2898,0.0021,9.8024,0.0007,-0.0009,-0.0138
19176,46.411835,-0.393024,126.36,35.21,4.288,133.5,13 / 18,1917545,2019-08-18 22:51:47:078,-0.7028,0.1984,10.2826,-0.2911,-0.003,9.8023,-0.0068,0.0034,-0.0192
19177,46.411835,-0.393024,126.36,35.21,4.288,133.5,13 / 18,1917645,2019-08-18 22:51:47:178,-0.6825,-0.0363,9.4321,-0.2879,-0.0331,9.8024,-0.0164,-0.0073,-0.0245
19178,46.411835,-0.393024,126.36,35.21,4.288,133.5,13 / 18,1917746,2019-08-18 22:51:47:279,-0.1653,-0.5307,9.8582,-0.2846,-0.0572,9.8024,-0.0153,0.0013,-0.0234
19179,46.411835,-0.393024,126.36,35.21,4.288,133.5,13 / 18,1917846,2019-08-18 22:51:47:379,0.0795,-0.8455,10.5292,-0.2818,-0.084,9.8022,0.0039,-0.0019,-0.0202
19180,46.411835,-0.393024,126.36,35.21,4.288,133.5,13 / 18,1917946,2019-08-18 22:51:47:479,-0.3808,-0.6677,10.0163,-0.2811,-0.0838,9.8023,0.0188,0.0002,-0.017
19181,46.411835,-0.393024,126.36,35.21,4.288,133.5,13 / 18,1918045,2019-08-18 22:51:47:578,-0.6555,-0.0794,9.526,-0.2833,-0.0893,9.8022,0.006,0.0045,-0.017
19182,46.411835,-0.393024,126.36,35.21,4.288,133.5,13 / 18,1918146,2019-08-18 22:51:47:679,-0.5364,-0.0698,9.4399,-0.282,-0.0902,9.8022,0.006,0.0045,-0.016
19183,46.411835,-0.393024,126.36,35.21,4.288,133.5,13 / 18,1918245,2019-08-18 22:51:47:778,-0.1869,-0.1871,10.1952,-0.2741,-0.0896,9.8024,0.0018,-0.0083,-0.0128
19184,46.411835,-0.393024,126.36,35.21,4.288,133.5,13 / 18,1918345,2019-08-18 22:51:47:878,-0.0115,-0.3774,9.7601,-0.2681,-0.087,9.8026,0.006,-0.0041,-0.0096
19185,46.411835,-0.393024,126.36,35.21,4.288,133.5,13 / 18,1918445,2019-08-18 22:51:47:978,-0.0271,-0.0859,10.06,-0.2673,-0.0797,9.8027,0.0081,-0.0019,-0.0085
19186,46.411835,-0.393024,126.36,35.21,4.288,133.5,13 / 18,1918545,2019-08-18 22:51:48:078,-0.4353,0.032,9.0813,-0.2624,-0.0696,9.8029,0.0018,0.0023,-0.0074
19187,46.411835,-0.393024,126.36,35.21,4.288,133.5,13 / 18,1918645,2019-08-18 22:51:48:178,-0.4514,0.0709,9.5638,-0.2575,-0.0731,9.803,-0.0132,0.0002,-0.0085
19188,46.411835,-0.393024,126.36,35.21,4.288,133.5,13 / 18,1918745,2019-08-18 22:51:48:278,-0.3144,0.0511,9.2399,-0.2616,-0.0708,9.8029,-0.0036,0.0055,-0.0096
19189,46.411835,-0.393024,126.36,35.21,4.288,133.5,13 / 18,1918845,2019-08-18 22:51:48:378,0.1675,-0.0853,9.9349,-0.2573,-0.0655,9.8031,0.0039,-0.0073,-0.0074
19190,46.411835,-0.393024,126.36,35.21,4.288,133.5,13 / 18,1918945,2019-08-18 22:51:48:478,-0.1791,0.0936,9.8732,-0.253,-0.0623,9.8032,0.0018,-0.0009,-0.0064
19191,46.411835,-0.393024,126.36,35.21,4.288,133.5,13 / 18,1919045,2019-08-18 22:51:48:578,-0.4825,0.1056,9.6416,-0.2646,-0.0446,9.803,0.0018,0.0013,-0.0053
19192,46.411835,-0.393024,126.36,35.21,4.288,133.5,13 / 18,1919146,2019-08-18 22:51:48:679,-0.6448,0.3504,9.5398,-0.2935,-0.0002,9.8023,-0.0014,0.014,-0.0053
19193,46.411835,-0.393024,126.36,35.21,4.288,133.5,13 / 18,1919246,2019-08-18 22:51:48:779,-0.4269,-0.0357,9.8421,-0.3251,0.0281,9.8012,-0.0036,0.0066,-0.0064
19194,46.411835,-0.393024,126.36,35.21,4.288,133.5,13 / 18,1919346,2019-08-18 22:51:48:879,-0.0905,-0.0452,9.9654,-0.3658,0.057,9.7997,-0.011,-0.0169,-0.0053
19195,46.411835,-0.393024,126.36,35.21,4.288,133.5,13 / 18,1919446,2019-08-18 22:51:48:979,-0.2832,0.0332,10.1048,-0.3602,0.0539,9.7999,-0.0078,-0.0051,-0.0064
19196,46.411835,-0.393024,126.36,35.21,4.288,133.5,13 / 18,1919545,2019-08-18 22:51:49:078,-0.6687,0.2534,9.7685,-0.3633,0.051,9.7998,-0.0089,-0.0009,-0.0085
19197,46.411835,-0.393024,126.36,35.21,4.288,133.5,13 / 18,1919646,2019-08-18 22:51:49:179,-0.5789,0.1427,9.559,-0.3664,0.0434,9.7997,-0.0046,0.0119,-0.0106
19198,46.411835,-0.393024,126.36,35.21,4.288,133.5,13 / 18,1919746,2019-08-18 22:51:49:279,-0.5466,-0.2278,9.5225,-0.3748,0.0345,9.7994,0.0028,0.0045,-0.0149
19199,46.411835,-0.393024,126.36,35.21,4.288,133.5,13 / 18,1919846,2019-08-18 22:51:49:379,0.0466,-0.3176,10.1545,-0.3675,0.0224,9.7997,-0.0014,-0.0105,-0.0181
19200,46.411835,-0.393024,126.36,35.21,4.288,133.5,13 / 18,1919945,2019-08-18 22:51:49:478,-0.3485,-0.299,9.6571,-0.3625,0.0118,9.7999,0.0028,-0.0062,-0.017
19201,46.411835,-0.393024,126.36,35.21,4.288,133.5,13 / 18,1920045,2019-08-18 22:51:49:578,-0.3437,-0.3242,9.6374,-0.3567,0.008,9.8002,0.0124,0.0013,-0.017
19202,46.411835,-0.393024,126.36,35.21,4.288,133.5,13 / 18,1920146,2019-08-18 22:51:49:679,-0.5005,0.1032,10.285,-0.3525,0.0034,9.8003,0.0103,0.0002,-0.017
19203,46.411835,-0.393024,126.36,35.21,4.288,133.5,13 / 18,1920245,2019-08-18 22:51:49:778,-0.5209,-0.2212,9.9863,-0.3469,-0.0233,9.8005,-0.0089,-0.0019,-0.0181
19204,46.411835,-0.393024,126.36,35.21,4.288,133.5,13 / 18,1920346,2019-08-18 22:51:49:879,0.1824,-0.6468,9.6087,-0.3444,-0.0393,9.8005,0.0039,-0.003,-0.0192
19205,46.411835,-0.393024,126.36,35.21,4.288,133.5,13 / 18,1920445,2019-08-18 22:51:49:978,-0.2808,-0.4977,9.6003,-0.3416,-0.045,9.8006,-0.0004,0.0023,-0.0181
19206,46.411835,-0.393024,126.36,35.21,4.288,133.5,13 / 18,1920545,2019-08-18 22:51:50:078,-0.5993,-0.3481,9.9307,-0.3357,-0.0591,9.8007,0.0007,-0.0041,-0.017
19207,46.411835,-0.393024,126.36,35.21,4.288,133.5,13 / 18,1920646,2019-08-18 22:51:50:179,-0.6795,-0.3056,9.5656,-0.3382,-0.0678,9.8006,0.0028,0.0076,-0.0149
19208,46.411835,-0.393024,126.36,35.21,4.288,133.5,13 / 18,1920746,2019-08-18 22:51:50:279,-0.2006,-0.3433,9.8086,-0.3494,-0.072,9.8002,0.006,0.0055,-0.0128
19209,46.411835,-0.393024,126.36,35.21,4.288,133.5,13 / 18,1920845,2019-08-18 22:51:50:378,-0.3832,-0.211,10.2246,-0.3568,-0.0742,9.7999,0.0039,0.0034,-0.0149
19210,46.411835,-0.393024,126.36,35.21,4.288,133.5,13 / 18,1920946,2019-08-18 22:51:50:479,-0.6597,-0.3074,9.471,-0.3549,-0.0796,9.7999,-0.0004,-0.0051,-0.016
19211,46.411835,-0.393024,126.36,35.21,4.288,133.5,13 / 18,1921046,2019-08-18 22:51:50:579,-0.5238,0.0003,9.8176,-0.357,-0.0874,9.7998,-0.0025,0.0013,-0.0149
19212,46.411835,-0.393024,126.36,35.21,4.288,133.5,13 / 18,1921145,2019-08-18 22:51:50:678,-0.2324,-0.2422,9.781,-0.36,-0.0944,9.7996,0.0007,0.0034,-0.016
19213,46.411835,-0.393024,126.36,35.21,4.288,133.5,13 / 18,1921246,2019-08-18 22:51:50:779,-0.0306,-0.2015,9.8295,-0.3655,-0.1025,9.7993,-0.0004,0.0034,-0.016
19214,46.411835,-0.393024,126.36,35.21,4.288,133.5,13 / 18,1921346,2019-08-18 22:51:50:879,-0.139,-0.4421,9.6631,-0.3728,-0.1305,9.7987,-0.0014,-0.0019,-0.017
19215,46.409702,-0.390145,127.27,36.61,5.36,139.1,14 / 18,1921445,2019-08-18 22:51:50:978,-0.7285,-0.3517,9.5889,-0.3879,-0.1687,9.7975,0.0018,-0.0019,-0.016
19216,46.409702,-0.390145,127.27,36.61,5.36,139.1,14 / 18,1921545,2019-08-18 22:51:51:078,-0.7411,-0.1362,9.5243,-0.4626,-0.2186,9.7933,-0.0025,0.013,-0.0138
19217,46.409702,-0.390145,127.27,36.61,5.36,139.1,14 / 18,1921645,2019-08-18 22:51:51:178,-0.6932,-0.2404,9.7433,-0.4805,-0.2236,9.7923,-0.0025,0.0066,-0.0128
19218,46.409702,-0.390145,127.27,36.61,5.36,139.1,14 / 18,1921745,2019-08-18 22:51:51:278,-0.771,-0.1272,10.0552,-0.5063,-0.2195,9.7911,0.0049,0.0013,-0.0021
19219,46.409702,-0.390145,127.27,36.61,5.36,139.1,14 / 18,1921846,2019-08-18 22:51:51:379,-0.9279,-0.1177,10.0743,-0.5236,-0.1993,9.7906,0.0177,0.0023,0.0022
19220,46.409702,-0.390145,127.27,36.61,5.36,139.1,14 / 18,1921946,2019-08-18 22:51:51:479,-1.2319,0.3486,9.6512,-0.5429,-0.1651,9.7902,0.0124,0.0013,0.0011
19221,46.409702,-0.390145,127.27,36.61,5.36,139.1,14 / 18,1922046,2019-08-18 22:51:51:579,-1.0111,0.2433,10.3724,-0.5541,-0.1532,9.7898,-0.0025,-0.0019,0.0
19222,46.409702,-0.390145,127.27,36.61,5.36,139.1,14 / 18,1922146,2019-08-18 22:51:51:679,-0.8914,0.0224,9.6464,-0.5819,-0.138,9.7884,-0.0068,0.0034,-0.0011
19223,46.409702,-0.390145,127.27,36.61,5.36,139.1,14 / 18,1922246,2019-08-18 22:51:51:779,-0.8794,0.3797,9.5686,-0.6898,-0.0456,9.7823,-0.01,-0.0041,-0.0021
19224,46.409702,-0.390145,127.27,36.61,5.36,139.1,14 / 18,1922345,2019-08-18 22:51:51:878,-1.2224,0.2032,9.8529,-0.7353,-0.0238,9.779,-0.01,-0.0062,-0.0042
19225,46.409702,-0.390145,127.27,36.61,5.36,139.1,14 / 18,1922445,2019-08-18 22:51:51:978,-1.3235,0.2594,9.9486,-0.7869,0.0046,9.775,0.0028,0.0002,-0.0053
19226,46.409702,-0.390145,127.27,36.61,5.36,139.1,14 / 18,1922545,2019-08-18 22:51:52:078,-1.3558,0.0009,9.5997,-0.8464,0.015,9.77,0.0103,0.0013,-0.0053
19227,46.409702,-0.390145,127.27,36.61,5.36,139.1,14 / 18,1922645,2019-08-18 22:51:52:178,-0.695,0.0188,9.9624,-0.9012,0.031,9.7651,-0.0036,0.0055,-0.0053
19228,46.409702,-0.390145,127.27,36.61,5.36,139.1,14 / 18,1922746,2019-08-18 22:51:52:279,-1.0141,-0.0608,9.2747,-0.914,0.0273,9.7639,0.0039,-0.0019,-0.0064
19229,46.409702,-0.390145,127.27,36.61,5.36,139.1,14 / 18,1922846,2019-08-18 22:51:52:379,-0.9979,0.0912,9.4877,-0.9257,0.0247,9.7628,-0.0025,-0.0019,-0.0074
19230,46.409702,-0.390145,127.27,36.61,5.36,139.1,14 / 18,1922946,2019-08-18 22:51:52:479,-1.2702,0.2678,9.7218,-0.9282,0.0183,9.7626,-0.011,-0.0041,-0.0074
19231,46.409702,-0.390145,127.27,36.61,5.36,139.1,14 / 18,1923046,2019-08-18 22:51:52:579,-1.3546,0.0799,9.735,-0.9457,0.0134,9.7609,0.0007,-0.0019,-0.0074
19232,46.409702,-0.390145,127.27,36.61,5.36,139.1,14 / 18,1923146,2019-08-18 22:51:52:679,-0.874,-0.1261,9.8696,-0.9677,0.0036,9.7588,0.0007,0.0023,-0.0074
19233,46.409702,-0.390145,127.27,36.61,5.36,139.1,14 / 18,1923246,2019-08-18 22:51:52:779,-0.6633,-0.3296,9.881,-0.9864,-0.0015,9.7569,0.0007,0.0034,-0.0096
19234,46.409702,-0.390145,127.27,36.61,5.36,139.1,14 / 18,1923346,2019-08-18 22:51:52:879,-0.713,0.0056,9.6877,-1.0209,-0.0292,9.7533,0.0135,0.0002,-0.0138
19235,46.409702,-0.390145,127.27,36.61,5.36,139.1,14 / 18,1923446,2019-08-18 22:51:52:979,-1.2655,-0.1811,9.7356,-1.0212,-0.0335,9.7533,-0.0132,0.0034,-0.017
19236,46.409702,-0.390145,127.27,36.61,5.36,139.1,14 / 18,1923546,2019-08-18 22:51:53:079,-1.2852,-0.0818,9.5027,-1.0229,-0.054,9.753,-0.0025,0.0034,-0.016
19237,46.409702,-0.390145,127.27,36.61,5.36,139.1,14 / 18,1923645,2019-08-18 22:51:53:178,-1.3427,-0.4558,9.3178,-0.9916,-0.1274,9.7556,0.006,-0.0073,-0.0149
19238,46.409702,-0.390145,127.27,36.61,5.36,139.1,14 / 18,1923746,2019-08-18 22:51:53:279,-0.7429,-0.3697,9.4608,-0.9749,-0.1559,9.7568,0.0103,-0.0062,-0.0128
19239,46.409702,-0.390145,127.27,36.61,5.36,139.1,14 / 18,1923846,2019-08-18 22:51:53:379,-0.5125,-0.2781,10.2353,-0.9504,-0.188,9.7587,0.0113,-0.0094,-0.0128
19240,46.409702,-0.390145,127.27,36.61,5.36,139.1,14 / 18,1923946,2019-08-18 22:51:53:479,-0.5705,-0.4828,9.8008,-0.9474,-0.1868,9.759,0.0018,0.0055,-0.0149
