,GPS LATITUDE (degrees),GPS LONGITUDE (degrees), GPS ALTITUDE (m),GPS SPEED (Kmh),GPS ACCURACY (m),GPS ORIENTATION (Â°), SATELLITES IN RANGE, TIME SINCE START (ms), DATE (YYYY-MO-DD HH-MI-SS_SSS),ACCELEROMETER X (m/s²) , ACCELEROMETER Y (m/s²), ACCELEROMETER Z (m/s²), GRAVITY X (m/s²), GRAVITY Y (m/s²), GRAVITY Z (m/s²), GYROSCOPE Yaw (rad/s), GYROSCOPE Pitch (rad/s), GYROSCOPE Roll (rad/s)
7384,48.458958,-2.529409,123.85,28.28,3.216,101.4,14 / 20,738411,2019-08-18 15:26:00:948,-1.1013,-0.0539,9.7596,-1.032,-0.4428,9.7421,-0.0011,0.0034,0.0038
7385,48.458958,-2.529409,123.85,28.28,3.216,101.4,14 / 20,738512,2019-08-18 15:26:01:049,-1.194,-0.3495,10.1283,-1.038,-0.4317,9.742,0.0038,-0.0046,0.0026
7386,48.458958,-2.529409,123.85,28.28,3.216,101.4,14 / 20,738611,2019-08-18 15:26:01:148,-1.3365,-0.0437,9.4759,-1.0332,-0.4277,9.7427,0.002,-0.0075,0.0032
7387,48.458958,-2.529409,123.85,28.28,3.216,101.4,14 / 20,738712,2019-08-18 15:26:01:249,-1.1917,-0.258,9.7836,-1.0211,-0.4227,9.7442,-0.0027,-0.0078,0.0025
7388,48.458958,-2.529409,123.85,28.28,3.216,101.4,14 / 20,738811,2019-08-18 15:26:01:348,-1.2707,0.0293,9.4603,-1.0266,-0.4219,9.7436,-0.0181,0.0172,0.0029
7389,48.458958,-2.529409,123.85,28.28,3.216,101.4,14 / 20,738911,2019-08-18 15:26:01:448,-1.1067,-0.1436,9.443,-1.0536,-0.4344,9.7402,-0.0125,0.0143,0.0033
7390,48.458958,-2.529409,123.85,28.28,3.216,101.4,14 / 20,739011,2019-08-18 15:26:01:548,-1.0989,-0.0694,9.5094,-1.054,-0.4379,9.74,-0.0011,-0.0043,0.0028
7391,48.458958,-2.529409,123.85,28.28,3.216,101.4,14 / 20,739111,2019-08-18 15:26:01:648,-1.1665,-0.255,10.1385,-1.053,-0.4315,9.7404,-0.0013,-0.0024,0.0034
7392,48.458958,-2.529409,123.85,28.28,3.216,101.4,13 / 19,739211,2019-08-18 15:26:01:748,-1.1982,-0.1035,10.6042,-1.0498,-0.4279,9.7409,-0.0056,-0.0163,0.0024
7393,48.458958,-2.529409,123.85,28.28,3.216,101.4,13 / 19,739310,2019-08-18 15:26:01:847,-0.975,-0.0622,10.4168,-1.0245,-0.4336,9.7433,-0.0169,-0.0135,-0.001
7394,48.458958,-2.529409,123.85,28.28,3.216,101.4,13 / 19,739411,2019-08-18 15:26:01:948,-1.2419,-0.0461,9.7225,-1.0224,-0.4437,9.7431,-0.0134,0.0077,0.0002
7395,48.458958,-2.529409,123.85,28.28,3.216,101.4,13 / 19,739511,2019-08-18 15:26:02:048,-1.2599,-0.2245,9.7943,-1.035,-0.4457,9.7417,0.0148,0.006,0.0047
7396,48.458958,-2.529409,123.85,28.28,3.216,101.4,13 / 19,739611,2019-08-18 15:26:02:148,-1.2826,-0.2526,9.5142,-1.0355,-0.4297,9.7424,0.0095,-0.0084,0.0048
7397,48.458958,-2.529409,123.85,28.28,3.216,101.4,13 / 19,739711,2019-08-18 15:26:02:248,-1.3156,-0.17,10.2139,-1.0189,-0.4168,9.7447,0.0018,-0.0162,0.0029
7398,48.458958,-2.529409,123.85,28.28,3.216,101.4,13 / 19,739811,2019-08-18 15:26:02:348,-1.1246,-0.2328,10.6191,-1.0119,-0.4135,9.7455,-0.0033,-0.0182,0.0017
7399,48.458958,-2.529409,123.85,28.28,3.216,101.4,13 / 19,739912,2019-08-18 15:26:02:449,-1.2605,-0.1796,10.2887,-1.0055,-0.4137,9.7462,-0.0059,-0.0004,0.0024
7400,48.458958,-2.529409,123.85,28.28,3.216,101.4,13 / 19,740011,2019-08-18 15:26:02:548,-1.0175,-0.2682,9.6405,-1.0045,-0.4188,9.7461,-0.0097,-0.0112,0.002
7401,48.458958,-2.529409,123.85,28.28,3.216,101.4,13 / 19,740111,2019-08-18 15:26:02:648,-1.2988,-0.3508,9.4591,-0.9996,-0.4194,9.7466,-0.0038,-0.0102,0.0011
7402,48.458958,-2.529409,123.85,28.28,3.216,101.4,Dec-18,740212,2019-08-18 15:26:02:749,-1.3072,-0.1508,9.756,-0.992,-0.4218,9.7472,-0.0093,-0.0117,-0.0007
7403,48.458958,-2.529409,123.85,28.28,3.216,101.4,Dec-18,740311,2019-08-18 15:26:02:848,-0.9283,-0.4034,10.0744,-0.9903,-0.425,9.7473,-0.0066,-0.0112,0.0013
7404,48.458958,-2.529409,123.85,28.28,3.216,101.4,Dec-18,740411,2019-08-18 15:26:02:948,-1.2976,0.0497,9.7722,-0.9797,-0.4228,9.7484,0.0014,0.0037,0.0021
7405,48.458958,-2.529409,123.85,28.28,3.216,101.4,Dec-18,740511,2019-08-18 15:26:03:048,-1.1552,-0.2879,9.8362,-0.9842,-0.4203,9.7481,-0.0045,-0.0029,0.0011
7406,48.458958,-2.529409,123.85,28.28,3.216,101.4,Dec-18,740612,2019-08-18 15:26:03:149,-1.054,-0.5369,9.5735,-0.9773,-0.4201,9.7488,0.0004,-0.0103,0.0008
7407,48.458958,-2.529409,123.85,28.28,3.216,101.4,Dec-18,740711,2019-08-18 15:26:03:248,-1.1791,-0.3154,9.6579,-0.9801,-0.4121,9.7488,0.0092,0.0038,-0.0031
7408,48.458958,-2.529409,123.85,28.28,3.216,101.4,Dec-18,740811,2019-08-18 15:26:03:348,-0.9738,-0.4944,10.084,-0.9802,-0.4096,9.7489,0.0012,-0.0068,-0.005
7409,48.458958,-2.529409,123.85,28.28,3.216,101.4,Dec-18,740911,2019-08-18 15:26:03:448,-1.1839,-0.2514,10.3534,-0.9756,-0.4093,9.7494,-0.0034,-0.0163,-0.0047
7410,48.458958,-2.529409,123.85,28.28,3.216,101.4,Dec-18,741011,2019-08-18 15:26:03:548,-1.1755,-0.3831,10.2738,-0.9663,-0.4102,9.7503,-0.0075,-0.0081,-0.0029
7411,48.458958,-2.529409,123.85,28.28,3.216,101.4,Dec-18,741111,2019-08-18 15:26:03:648,-1.1767,-0.3232,10.1134,-0.9629,-0.4127,9.7505,-0.0002,-0.0098,-0.0032
7412,48.458958,-2.529409,123.85,28.28,3.216,101.4,14 / 19,741212,2019-08-18 15:26:03:749,-1.2389,-0.2418,9.9529,-0.9398,-0.4148,9.7527,0.0024,-0.0153,-0.0014
7413,48.458958,-2.529409,123.85,28.28,3.216,101.4,14 / 19,741311,2019-08-18 15:26:03:848,-0.9289,-0.556,10.3145,-0.9332,-0.4141,9.7534,-0.0072,-0.0068,-0.0024
7414,48.458958,-2.529409,123.85,28.28,3.216,101.4,14 / 19,741411,2019-08-18 15:26:03:948,-1.0312,-0.4202,10.1517,-0.9299,-0.4193,9.7534,-0.0033,-0.0015,-0.0024
7415,48.458958,-2.529409,123.85,28.28,3.216,101.4,14 / 19,741511,2019-08-18 15:26:04:048,-0.9774,-0.1844,9.9398,-0.9229,-0.4222,9.754,-0.0013,-0.0122,-0.0044
7416,48.458958,-2.529409,123.85,28.28,3.216,101.4,14 / 19,741611,2019-08-18 15:26:04:148,-1.036,-0.5914,9.862,-0.9192,-0.4213,9.7544,0.0016,-0.0076,-0.0038
7417,48.458958,-2.529409,123.85,28.28,3.216,101.4,14 / 19,741712,2019-08-18 15:26:04:249,-1.1246,-0.4669,10.0505,-0.9115,-0.4229,9.755,-0.0059,-0.0099,-0.0031
7418,48.458958,-2.529409,123.85,28.28,3.216,101.4,14 / 19,741812,2019-08-18 15:26:04:349,-1.124,-0.4806,9.9368,-0.9029,-0.4228,9.7558,0.0001,-0.0136,-0.003
7419,48.458958,-2.529409,123.85,28.28,3.216,101.4,14 / 19,741911,2019-08-18 15:26:04:448,-1.0612,-0.4363,10.2564,-0.897,-0.4249,9.7563,0.0005,-0.0124,0.0002
7420,48.458958,-2.529409,123.85,28.28,3.216,101.4,14 / 19,742011,2019-08-18 15:26:04:548,-1.3419,0.0928,10.1217,-0.8864,-0.4179,9.7576,0.0029,-0.0175,0.0024
7421,48.458958,-2.529409,123.85,28.28,3.216,101.4,14 / 19,742111,2019-08-18 15:26:04:648,-1.0163,-0.3148,9.8668,-0.8846,-0.4136,9.7579,-0.0055,-0.001,0.0107
7422,48.458958,-2.529409,123.85,28.28,3.216,101.4,14 / 18,742211,2019-08-18 15:26:04:748,-1.3132,-0.0437,9.5795,-0.8894,-0.4121,9.7575,-0.0098,-0.0058,0.0109
7423,48.458958,-2.529409,123.85,28.28,3.216,101.4,14 / 18,742311,2019-08-18 15:26:04:848,-1.3634,-0.073,9.4789,-0.8971,-0.4149,9.7567,-0.0116,0.0016,0.0106
7424,48.458958,-2.529409,123.85,28.28,3.216,101.4,14 / 18,742411,2019-08-18 15:26:04:948,-1.1941,-0.0664,9.8249,-0.9108,-0.4112,9.7556,0.0017,-0.0177,0.0111
7425,48.458958,-2.529409,123.85,28.28,3.216,101.4,14 / 18,742511,2019-08-18 15:26:05:048,-1.3168,-0.003,10.4276,-0.9057,-0.4005,9.7565,0.0036,-0.0186,0.011
7426,48.458958,-2.529409,123.85,28.28,3.216,101.4,14 / 18,742611,2019-08-18 15:26:05:148,-1.0348,0.0174,9.9996,-0.8929,-0.3922,9.758,-0.0139,-0.0088,0.0093
7427,48.458958,-2.529409,123.85,28.28,3.216,101.4,14 / 18,742711,2019-08-18 15:26:05:248,-1.2832,-0.158,9.6638,-0.8983,-0.3949,9.7574,-0.0068,0.002,0.0111
7428,48.458958,-2.529409,123.85,28.28,3.216,101.4,14 / 18,742811,2019-08-18 15:26:05:348,-1.4137,-0.2675,10.0278,-0.9005,-0.3924,9.7573,-0.0006,-0.0177,0.0092
7429,48.458958,-2.529409,123.85,28.28,3.216,101.4,14 / 18,742911,2019-08-18 15:26:05:448,-1.2288,-0.4196,9.8332,-0.8941,-0.3832,9.7583,-0.0021,-0.0127,0.0071
7430,48.458958,-2.529409,123.85,28.28,3.216,101.4,14 / 18,743011,2019-08-18 15:26:05:548,-1.1264,0.1742,9.8584,-0.8879,-0.3853,9.7588,-0.0107,-0.0149,0.0049
7431,48.458958,-2.529409,123.85,28.28,3.216,101.4,14 / 18,743111,2019-08-18 15:26:05:648,-1.1923,-0.2215,9.859,-0.8826,-0.3964,9.7588,-0.0113,-0.0131,0.0021
7432,48.458958,-2.529409,123.85,28.28,3.216,101.4,13 / 18,743212,2019-08-18 15:26:05:749,-1.148,-0.3226,9.9523,-0.8802,-0.3986,9.7589,-0.0041,-0.0104,0.0019
7433,48.458958,-2.529409,123.85,28.28,3.216,101.4,13 / 18,743312,2019-08-18 15:26:05:849,-1.3593,-0.3424,9.6207,-0.87,-0.4053,9.7596,-0.0089,-0.0129,0.0008
7434,48.458958,-2.529409,123.85,28.28,3.216,101.4,13 / 18,743411,2019-08-18 15:26:05:948,-1.0672,-0.4274,9.5501,-0.8732,-0.4095,9.7591,-0.0011,0.0078,0.0032
7435,48.458958,-2.529409,123.85,28.28,3.216,101.4,13 / 18,743511,2019-08-18 15:26:06:048,-0.9331,-0.4262,9.9368,-0.8874,-0.4097,9.7578,0.0037,0.0084,0.0038
7436,48.458958,-2.529409,123.85,28.28,3.216,101.4,13 / 18,743612,2019-08-18 15:26:06:149,-1.0929,-0.3148,10.1439,-0.8993,-0.4017,9.7571,0.0118,-0.0088,0.0022
7437,48.458958,-2.529409,123.85,28.28,3.216,101.4,13 / 18,743711,2019-08-18 15:26:06:248,-1.1372,-0.3328,9.7997,-0.8929,-0.3886,9.7582,0.0092,-0.0137,0.0003
7438,48.458958,-2.529409,123.85,28.28,3.216,101.4,13 / 18,743811,2019-08-18 15:26:06:348,-1.1707,-0.2837,10.3342,-0.8952,-0.3809,9.7583,0.0122,-0.0074,-0.0007
7439,48.458958,-2.529409,123.85,28.28,3.216,101.4,13 / 18,743911,2019-08-18 15:26:06:448,-0.9319,-0.4022,10.3588,-0.8858,-0.3657,9.7597,0.0088,-0.0077,-0.0012
7440,48.458958,-2.529409,123.85,28.28,3.216,101.4,13 / 18,744012,2019-08-18 15:26:06:549,-1.0253,-0.3717,9.8374,-0.887,-0.3599,9.7598,0.0064,0.0021,-0.0003
7441,48.458958,-2.529409,123.85,28.28,3.216,101.4,13 / 18,744112,2019-08-18 15:26:06:649,-1.5328,-0.2837,9.3921,-0.9024,-0.3586,9.7585,-0.008,-0.0033,-0.0026
7442,48.458523,-2.526004,116.38,28.53,3.216,100.4,14 / 18,744211,2019-08-18 15:26:06:748,-0.9588,-0.519,9.6824,-0.9013,-0.3632,9.7584,-0.0054,-0.0112,-0.001
7443,48.458523,-2.526004,116.38,28.53,3.216,100.4,14 / 18,744312,2019-08-18 15:26:06:849,-1.057,-0.2466,9.9673,-0.8925,-0.37,9.7589,-0.003,-0.0092,-0.0007
7444,48.458523,-2.526004,116.38,28.53,3.216,100.4,14 / 18,744411,2019-08-18 15:26:06:948,-1.03,-0.3896,10.497,-0.8908,-0.3718,9.759,-0.0028,-0.0094,-0.0003
7445,48.458523,-2.526004,116.38,28.53,3.216,100.4,14 / 18,744512,2019-08-18 15:26:07:049,-1.1258,-0.3418,9.8853,-0.8809,-0.3699,9.76,0.0028,-0.0114,0.0009
7446,48.458523,-2.526004,116.38,28.53,3.216,100.4,14 / 18,744611,2019-08-18 15:26:07:148,-1.2336,-0.3927,9.7339,-0.8787,-0.3701,9.7602,-0.0066,-0.0153,-0.0001
7447,48.458523,-2.526004,116.38,28.53,3.216,100.4,14 / 18,744711,2019-08-18 15:26:07:248,-1.1438,-0.5112,10.2385,-0.8712,-0.3785,9.7605,-0.0021,-0.0181,-0.0007
7448,48.458523,-2.526004,116.38,28.53,3.216,100.4,14 / 18,744811,2019-08-18 15:26:07:348,-0.7805,-0.3567,10.1134,-0.8629,-0.3751,9.7614,0.0016,-0.0049,-0.0031
7449,48.458523,-2.526004,116.38,28.53,3.216,100.4,14 / 18,744911,2019-08-18 15:26:07:448,-1.0426,-0.1269,10.284,-0.86,-0.3754,9.7617,0.0011,-0.0016,-0.0033
7450,48.458523,-2.526004,116.38,28.53,3.216,100.4,14 / 18,745011,2019-08-18 15:26:07:548,-1.0348,-0.5411,9.589,-0.8637,-0.3744,9.7614,-0.0009,-0.0008,-0.0026
7451,48.458523,-2.526004,116.38,28.53,3.216,100.4,14 / 18,745111,2019-08-18 15:26:07:648,-1.2431,-0.3944,10.1104,-0.8696,-0.373,9.7609,0.0043,-0.0026,-0.0028
7452,48.458523,-2.526004,116.38,28.53,3.216,100.4,14 / 18,745211,2019-08-18 15:26:07:748,-0.9337,-0.4902,10.4204,-0.8642,-0.3708,9.7615,0.005,-0.0276,-0.002
7453,48.458523,-2.526004,116.38,28.53,3.216,100.4,14 / 18,745311,2019-08-18 15:26:07:848,-0.9714,-0.4776,9.856,-0.8362,-0.3614,9.7642,0.0071,-0.0235,-0.0022
7454,48.458523,-2.526004,116.38,28.53,3.216,100.4,14 / 18,745411,2019-08-18 15:26:07:948,-0.9187,-0.1885,10.0391,-0.8329,-0.3561,9.7647,0.0023,-0.0011,-0.0037
7455,48.458523,-2.526004,116.38,28.53,3.216,100.4,14 / 18,745511,2019-08-18 15:26:08:048,-0.8415,-0.2442,9.9458,-0.8321,-0.3548,9.7648,0.0003,-0.005,-0.0058
7456,48.458523,-2.526004,116.38,28.53,3.216,100.4,14 / 18,745611,2019-08-18 15:26:08:148,-0.6326,-0.4836,10.6078,-0.8262,-0.3556,9.7653,-0.0056,-0.0107,-0.0056
7457,48.458523,-2.526004,116.38,28.53,3.216,100.4,14 / 18,745711,2019-08-18 15:26:08:248,-1.045,-0.2987,9.7752,-0.8081,-0.359,9.7667,-0.0021,-0.0254,-0.0044
7458,48.458523,-2.526004,116.38,28.53,3.216,100.4,14 / 18,745811,2019-08-18 15:26:08:348,-0.7948,-0.0808,9.9518,-0.7926,-0.3602,9.7679,-0.0048,-0.0226,-0.0031
7459,48.458523,-2.526004,116.38,28.53,3.216,100.4,14 / 18,745912,2019-08-18 15:26:08:449,-0.8283,-0.234,9.3227,-0.7775,-0.3635,9.769,-0.011,0.0049,-0.0034
7460,48.458523,-2.526004,116.38,28.53,3.216,100.4,14 / 18,746011,2019-08-18 15:26:08:548,-1.0307,-0.2388,9.6447,-0.788,-0.3701,9.7679,0.0042,0.0153,-0.0006
7461,48.458523,-2.526004,116.38,28.53,3.216,100.4,14 / 18,746111,2019-08-18 15:26:08:648,-0.7834,-0.2173,9.847,-0.7955,-0.3649,9.7675,0.0061,-0.0083,-0.0016
7462,48.458523,-2.526004,116.38,28.53,3.216,100.4,13 / 18,746212,2019-08-18 15:26:08:749,-0.8002,-0.0748,10.3384,-0.7892,-0.3531,9.7685,0.0022,-0.0136,-0.0014
7463,48.458523,-2.526004,116.38,28.53,3.216,100.4,13 / 18,746311,2019-08-18 15:26:08:848,-0.5901,-0.3436,10.1361,-0.7828,-0.3511,9.7691,-0.0065,-0.0132,-0.0038
7464,48.458523,-2.526004,116.38,28.53,3.216,100.4,13 / 18,746411,2019-08-18 15:26:08:948,-0.8385,-0.1143,9.9242,-0.766,-0.3546,9.7703,-0.0044,-0.0148,-0.0043
7465,48.458523,-2.526004,116.38,28.53,3.216,100.4,13 / 18,746511,2019-08-18 15:26:09:048,-0.8289,-0.3053,10.3378,-0.7621,-0.3565,9.7705,-0.0046,-0.0069,-0.0066
7466,48.458523,-2.526004,116.38,28.53,3.216,100.4,13 / 18,746612,2019-08-18 15:26:09:149,-0.9265,-0.3244,9.7345,-0.7468,-0.3598,9.7716,-0.0006,-0.0206,-0.0066
7467,48.458523,-2.526004,116.38,28.53,3.216,100.4,13 / 18,746712,2019-08-18 15:26:09:249,-0.6835,-0.6351,10.1744,-0.7362,-0.3611,9.7723,-0.0148,-0.0046,-0.004
7468,48.458523,-2.526004,116.38,28.53,3.216,100.4,13 / 18,746812,2019-08-18 15:26:09:349,-0.8361,-0.3107,9.8368,-0.7303,-0.377,9.7721,-0.0085,-0.013,-0.004
7469,48.458523,-2.526004,116.38,28.53,3.216,100.4,13 / 18,746911,2019-08-18 15:26:09:448,-0.6733,-0.4166,9.9476,-0.7264,-0.3798,9.7723,0.0103,-0.0077,-0.0019
7470,48.458523,-2.526004,116.38,28.53,3.216,100.4,13 / 18,747012,2019-08-18 15:26:09:549,-1.0378,-0.2927,10.1894,-0.713,-0.3632,9.774,0.0118,-0.0198,-0.0027
7471,48.458523,-2.526004,116.38,28.53,3.216,100.4,13 / 18,747111,2019-08-18 15:26:09:648,-0.8349,-0.4477,10.017,-0.6991,-0.3537,9.7753,0.0013,-0.0209,-0.0051
7472,48.458523,-2.526004,116.38,28.53,3.216,100.4,15 / 20,747211,2019-08-18 15:26:09:748,-0.7619,-0.2023,9.4274,-0.6796,-0.3532,9.7767,-0.0074,-0.0024,-0.0044
7473,48.458523,-2.526004,116.38,28.53,3.216,100.4,15 / 20,747311,2019-08-18 15:26:09:848,-0.8421,-0.4914,9.4777,-0.6799,-0.3598,9.7764,-0.007,0.0146,-0.0049
7474,48.458523,-2.526004,116.38,28.53,3.216,100.4,15 / 20,747412,2019-08-18 15:26:09:949,-0.7535,-0.1706,9.6034,-0.6912,-0.3624,9.7755,0.0088,-0.0021,-0.0019
7475,48.458523,-2.526004,116.38,28.53,3.216,100.4,15 / 20,747511,2019-08-18 15:26:10:048,-0.8828,-0.2346,10.117,-0.6926,-0.3535,9.7758,0.0012,-0.0078,-0.0047
7476,48.458523,-2.526004,116.38,28.53,3.216,100.4,15 / 20,747611,2019-08-18 15:26:10:148,-0.8631,-0.091,10.2798,-0.6915,-0.3521,9.7759,0.0053,0.003,-0.0045
7477,48.458523,-2.526004,116.38,28.53,3.216,100.4,15 / 20,747711,2019-08-18 15:26:10:248,-0.9187,-0.3867,10.2959,-0.6885,-0.3499,9.7762,0.0024,-0.0062,-0.0032
7478,48.458523,-2.526004,116.38,28.53,3.216,100.4,15 / 20,747811,2019-08-18 15:26:10:348,-0.6937,-0.3813,10.1505,-0.6712,-0.3427,9.7777,0.0041,-0.018,-0.0044
7479,48.458523,-2.526004,116.38,28.53,3.216,100.4,15 / 20,747911,2019-08-18 15:26:10:448,-0.9474,-0.0676,9.6004,-0.6621,-0.3444,9.7782,-0.0065,-0.004,-0.0049
7480,48.458523,-2.526004,116.38,28.53,3.216,100.4,15 / 20,748011,2019-08-18 15:26:10:548,-0.6937,-0.3699,9.85,-0.6712,-0.346,9.7775,-0.002,-0.0004,-0.006
7481,48.458523,-2.526004,116.38,28.53,3.216,100.4,15 / 20,748111,2019-08-18 15:26:10:648,-0.7649,-0.1329,10.1337,-0.6648,-0.348,9.7779,0.01,-0.0144,-0.0042
7482,48.458523,-2.526004,116.38,28.53,3.216,100.4,15 / 20,748211,2019-08-18 15:26:10:748,-0.6099,-0.0958,10.6335,-0.6469,-0.33,9.7797,0.0083,-0.0267,-0.0032
7483,48.458523,-2.526004,116.38,28.53,3.216,100.4,15 / 20,748311,2019-08-18 15:26:10:848,-0.8696,-0.2029,9.6375,-0.6395,-0.3223,9.7805,-0.0108,-0.0128,-0.0009
7484,48.458523,-2.526004,116.38,28.53,3.216,100.4,15 / 20,748411,2019-08-18 15:26:10:948,-0.6314,-0.1317,9.7967,-0.6345,-0.3237,9.7807,-0.0002,0.0112,-0.0008
7485,48.458523,-2.526004,116.38,28.53,3.216,100.4,15 / 20,748511,2019-08-18 15:26:11:048,-0.5488,0.0676,10.3767,-0.6414,-0.321,9.7804,-0.009,-0.0245,0.0022
7486,48.458523,-2.526004,116.38,28.53,3.216,100.4,15 / 20,748611,2019-08-18 15:26:11:148,-0.6979,-0.1933,10.5024,-0.6238,-0.3165,9.7817,0.003,-0.0103,0.0011
7487,48.458523,-2.526004,116.38,28.53,3.216,100.4,15 / 20,748711,2019-08-18 15:26:11:248,-0.5069,-0.3328,10.1259,-0.6153,-0.3093,9.7824,0.0012,-0.0184,0.0035
7488,48.458523,-2.526004,116.38,28.53,3.216,100.4,15 / 20,748811,2019-08-18 15:26:11:348,-0.8092,0.2484,9.8799,-0.5987,-0.307,9.7835,-0.0119,-0.0111,0.0014
7489,48.458523,-2.526004,116.38,28.53,3.216,100.4,15 / 20,748911,2019-08-18 15:26:11:448,-0.7284,0.167,10.3977,-0.5963,-0.3059,9.7837,-0.0083,-0.0062,0.0006
7490,48.458523,-2.526004,116.38,28.53,3.216,100.4,15 / 20,749011,2019-08-18 15:26:11:548,-0.7457,0.0479,10.1044,-0.5805,-0.3089,9.7846,-0.0052,-0.0212,0.0021
7491,48.458523,-2.526004,116.38,28.53,3.216,100.4,15 / 20,749111,2019-08-18 15:26:11:648,-0.6177,0.0287,9.7411,-0.5697,-0.3037,9.7854,0.0094,-0.0159,0.0027
7492,48.458523,-2.526004,116.38,28.53,3.216,100.4,15 / 20,749211,2019-08-18 15:26:11:748,-0.7086,-0.2418,9.9314,-0.5657,-0.2864,9.7861,-0.002,0.0018,0.0035
7493,48.458523,-2.526004,116.38,28.53,3.216,100.4,15 / 20,749311,2019-08-18 15:26:11:848,-0.8235,0.2478,10.0206,-0.5671,-0.2866,9.786,-0.0106,-0.0017,0.0024
7494,48.458523,-2.526004,116.38,28.53,3.216,100.4,15 / 20,749411,2019-08-18 15:26:11:948,-0.8696,0.0174,10.2444,-0.5687,-0.2876,9.7859,-0.0203,-0.0196,-0.0015
7495,48.458523,-2.526004,116.38,28.53,3.216,100.4,15 / 20,749511,2019-08-18 15:26:12:048,-0.9983,0.1526,10.4689,-0.5495,-0.3052,9.7865,-0.0191,-0.0129,-0.001
7496,48.458523,-2.526004,116.38,28.53,3.216,100.4,15 / 20,749611,2019-08-18 15:26:12:148,-0.5117,-0.3023,10.1505,-0.5481,-0.3141,9.7863,-0.0025,-0.0075,0.0012
7497,48.458523,-2.526004,116.38,28.53,3.216,100.4,15 / 20,749711,2019-08-18 15:26:12:248,-0.9989,-0.085,10.3217,-0.5461,-0.3176,9.7863,-0.0074,-0.0219,-0.0005
7498,48.458523,-2.526004,116.38,28.53,3.216,100.4,15 / 20,749811,2019-08-18 15:26:12:348,-0.7924,0.0024,9.4424,-0.5474,-0.319,9.7862,-0.0017,-0.0003,-0.0008
7499,48.458523,-2.526004,116.38,28.53,3.216,100.4,15 / 20,749911,2019-08-18 15:26:12:448,-0.7751,-0.2723,9.5381,-0.5568,-0.3232,9.7855,0.0007,0.0066,-0.0006
7500,48.458523,-2.526004,116.38,28.53,3.216,100.4,15 / 20,750011,2019-08-18 15:26:12:548,-0.9558,-0.2514,9.7901,-0.5669,-0.3225,9.7849,0.0086,-0.0053,0.0019
7501,48.458523,-2.526004,116.38,28.53,3.216,100.4,15 / 20,750112,2019-08-18 15:26:12:649,-1.0444,-0.3537,9.4268,-0.5753,-0.3097,9.7849,0.0132,0.0101,0.0033
7502,48.458523,-2.526004,116.38,28.53,3.216,100.4,16 / 20,750211,2019-08-18 15:26:12:748,-1.0642,-0.2466,10.1313,-0.5844,-0.3028,9.7845,0.0103,0.0023,0.002
7503,48.458523,-2.526004,116.38,28.53,3.216,100.4,16 / 20,750311,2019-08-18 15:26:12:848,-1.0366,-0.2957,9.9494,-0.5958,-0.2849,9.7844,0.003,-0.0094,0.0004
7504,48.458523,-2.526004,116.38,28.53,3.216,100.4,16 / 20,750412,2019-08-18 15:26:12:949,-1.1216,-0.1514,9.7141,-0.5964,-0.2828,9.7844,-0.001,-0.0014,0.0002
7505,48.458523,-2.526004,116.38,28.53,3.216,100.4,16 / 20,750512,2019-08-18 15:26:13:049,-1.1911,0.0246,9.6172,-0.5988,-0.2803,9.7843,-0.0016,-0.0189,0.0055
7506,48.458523,-2.526004,116.38,28.53,3.216,100.4,16 / 20,750611,2019-08-18 15:26:13:148,-1.1581,0.1389,9.9362,-0.5956,-0.2767,9.7846,0.0055,0.0033,0.009
7507,48.458523,-2.526004,116.38,28.53,3.216,100.4,16 / 20,750711,2019-08-18 15:26:13:248,-0.9774,0.0389,10.3665,-0.6193,-0.2615,9.7836,0.0092,-0.0005,0.0147
7508,48.458523,-2.526004,116.38,28.53,3.216,100.4,16 / 20,750812,2019-08-18 15:26:13:349,-1.0145,-0.0305,10.0008,-0.6242,-0.2499,9.7836,0.0164,-0.0048,0.0161
7509,48.458523,-2.526004,116.38,28.53,3.216,100.4,16 / 20,750911,2019-08-18 15:26:13:448,-1.1318,-0.0988,10.1744,-0.6284,-0.2171,9.7841,-0.0183,-0.0166,0.0116
7510,48.458523,-2.526004,116.38,28.53,3.216,100.4,16 / 20,751011,2019-08-18 15:26:13:548,-1.1629,-0.498,8.4745,-0.6489,-0.2179,9.7827,-0.0053,0.0387,0.01
7511,48.458523,-2.526004,116.38,28.53,3.216,100.4,16 / 20,751111,2019-08-18 15:26:13:648,-1.1384,0.407,9.9248,-0.6765,-0.2059,9.7811,0.0184,0.0005,0.0191
7512,48.458523,-2.526004,116.38,28.53,3.216,100.4,14 / 19,751212,2019-08-18 15:26:13:749,-1.1138,0.0772,10.4037,-0.6798,-0.181,9.7814,0.019,-0.0135,0.0172
7513,48.458523,-2.526004,116.38,28.53,3.216,100.4,14 / 19,751312,2019-08-18 15:26:13:849,-1.2372,0.2287,10.0906,-0.6789,-0.1589,9.7818,-0.0083,-0.0177,0.0111
7514,48.458523,-2.526004,116.38,28.53,3.216,100.4,14 / 19,751411,2019-08-18 15:26:13:948,-0.9139,0.3017,10.1523,-0.6733,-0.1593,9.7822,-0.0097,-0.0009,0.0085
7515,48.458523,-2.526004,116.38,28.53,3.216,100.4,14 / 19,751511,2019-08-18 15:26:14:048,-0.8541,0.0706,9.3478,-0.6796,-0.1601,9.7818,-0.0113,-0.0012,0.01
7516,48.458523,-2.526004,116.38,28.53,3.216,100.4,14 / 19,751611,2019-08-18 15:26:14:148,-1.2521,0.3795,10.2061,-0.6862,-0.1593,9.7813,0.003,-0.0061,0.0093
7517,48.458523,-2.526004,116.38,28.53,3.216,100.4,14 / 19,751711,2019-08-18 15:26:14:248,-0.7793,0.0048,9.9553,-0.6848,-0.1445,9.7816,0.0042,-0.0113,0.0086
7518,48.458523,-2.526004,116.38,28.53,3.216,100.4,14 / 19,751811,2019-08-18 15:26:14:348,-0.787,0.0269,10.0068,-0.6854,-0.1404,9.7817,-0.0179,0.002,0.0015
7519,48.458523,-2.526004,116.38,28.53,3.216,100.4,14 / 19,751912,2019-08-18 15:26:14:449,-0.7302,0.0407,10.4324,-0.6897,-0.1528,9.7812,-0.0119,0.0002,0.0001
7520,48.458523,-2.526004,116.38,28.53,3.216,100.4,14 / 19,752011,2019-08-18 15:26:14:548,-0.8361,0.1514,10.4432,-0.6907,-0.1499,9.7811,0.0043,-0.0093,0.0016
7521,48.458523,-2.526004,116.38,28.53,3.216,100.4,14 / 19,752112,2019-08-18 15:26:14:649,-0.6967,0.1891,10.5748,-0.682,-0.136,9.782,0.0083,-0.0086,0.0007
7522,48.458523,-2.526004,116.38,28.53,3.216,100.4,15 / 20,752211,2019-08-18 15:26:14:748,-0.5243,-0.161,9.9775,-0.6746,-0.1347,9.7825,-0.0129,-0.0122,-0.001
7523,48.458523,-2.526004,116.38,28.53,3.216,100.4,15 / 20,752311,2019-08-18 15:26:14:848,-0.535,-0.0443,9.8117,-0.6624,-0.1451,9.7832,-0.007,-0.0035,-0.0022
7524,48.458523,-2.526004,116.38,28.53,3.216,100.4,15 / 20,752411,2019-08-18 15:26:14:948,-0.623,-0.0922,9.6609,-0.6573,-0.1477,9.7835,-0.0084,-0.0058,-0.0039
7525,48.458523,-2.526004,116.38,28.53,3.216,100.4,15 / 20,752511,2019-08-18 15:26:15:048,-0.5716,0.0293,9.9883,-0.6486,-0.152,9.784,-0.003,-0.0139,-0.0026
7526,48.458523,-2.526004,116.38,28.53,3.216,100.4,15 / 20,752611,2019-08-18 15:26:15:148,-0.4088,-0.0551,9.6459,-0.6361,-0.1525,9.7848,-0.0006,-0.0065,-0.0044
7527,48.458523,-2.526004,116.38,28.53,3.216,100.4,15 / 20,752711,2019-08-18 15:26:15:248,-0.4016,0.2783,9.9051,-0.6262,-0.1573,9.7854,-0.0098,-0.0041,-0.0043
7528,48.458523,-2.526004,116.38,28.53,3.216,100.4,15 / 20,752811,2019-08-18 15:26:15:348,-0.3052,0.097,9.6399,-0.6208,-0.1626,9.7856,-0.0092,-0.0032,-0.0045
7529,48.458523,-2.526004,116.38,28.53,3.216,100.4,15 / 20,752911,2019-08-18 15:26:15:448,-0.5476,-0.1329,9.5992,-0.615,-0.1677,9.7859,0.0018,0.005,-0.0037
7530,48.458523,-2.526004,116.38,28.53,3.216,100.4,15 / 20,753011,2019-08-18 15:26:15:548,-0.2855,-0.1137,9.6477,-0.6166,-0.1641,9.7859,0.0012,0.0056,-0.0038
7531,48.458523,-2.526004,116.38,28.53,3.216,100.4,15 / 20,753112,2019-08-18 15:26:15:649,-0.3794,-0.082,9.9907,-0.6168,-0.1618,9.7859,0.0009,0.0047,-0.004
7532,48.458153,-2.522663,112.51,27.56,4.288,100.4,15 / 20,753212,2019-08-18 15:26:15:749,-0.556,0.0042,10.2283,-0.6087,-0.1605,9.7864,-0.002,-0.0139,-0.0027
7533,48.458153,-2.522663,112.51,27.56,4.288,100.4,15 / 20,753311,2019-08-18 15:26:15:848,-0.6967,-0.2514,9.6902,-0.6036,-0.1576,9.7868,-0.0134,-0.0048,-0.0042
7534,48.458153,-2.522663,112.51,27.56,4.288,100.4,15 / 20,753411,2019-08-18 15:26:15:948,-0.4231,0.1305,9.8901,-0.5924,-0.1705,9.7873,-0.0132,0.0018,-0.0045
7535,48.458153,-2.522663,112.51,27.56,4.288,100.4,15 / 20,753511,2019-08-18 15:26:16:048,-0.489,-0.231,9.9344,-0.5924,-0.1729,9.7872,-0.0034,0.0054,-0.0049
7536,48.458153,-2.522663,112.51,27.56,4.288,100.4,15 / 20,753611,2019-08-18 15:26:16:148,-0.4854,0.1754,9.9338,-0.5863,-0.1737,9.7876,-0.0032,-0.0112,-0.0038
7537,48.458153,-2.522663,112.51,27.56,4.288,100.4,15 / 20,753711,2019-08-18 15:26:16:248,-0.4255,-0.2496,9.6938,-0.573,-0.1727,9.7884,0.0008,-0.0167,-0.004
7538,48.458153,-2.522663,112.51,27.56,4.288,100.4,15 / 20,753812,2019-08-18 15:26:16:349,-0.3758,0.1939,9.8476,-0.5518,-0.1717,9.7896,-0.0048,-0.0128,-0.0041
7539,48.458153,-2.522663,112.51,27.56,4.288,100.4,15 / 20,753911,2019-08-18 15:26:16:448,-0.4111,-0.0012,10.0529,-0.5474,-0.1726,9.7898,-0.0115,-0.0062,-0.0025
7540,48.458153,-2.522663,112.51,27.56,4.288,100.4,15 / 20,754011,2019-08-18 15:26:16:548,-0.5949,0.1245,9.6609,-0.5385,-0.1829,9.7901,-0.0115,-0.0016,-0.0032
7541,48.458153,-2.522663,112.51,27.56,4.288,100.4,15 / 20,754112,2019-08-18 15:26:16:649,-0.5805,-0.2059,9.835,-0.5356,-0.1876,9.7902,-0.0122,-0.0071,-0.0025
7542,48.458153,-2.522663,112.51,27.56,4.288,100.4,15 / 19,754211,2019-08-18 15:26:16:748,-0.5099,0.2855,9.522,-0.5203,-0.1929,9.7909,-0.0079,-0.0154,-0.0022
7543,48.458153,-2.522663,112.51,27.56,4.288,100.4,15 / 19,754311,2019-08-18 15:26:16:848,-0.6189,-0.1694,9.6034,-0.5099,-0.1941,9.7915,-0.0165,0.001,-0.0001
7544,48.458153,-2.522663,112.51,27.56,4.288,100.4,15 / 19,754411,2019-08-18 15:26:16:948,-0.6015,0.1963,9.1275,-0.5058,-0.2053,9.7914,-0.011,0.0075,-0.0002
7545,48.458153,-2.522663,112.51,27.56,4.288,100.4,15 / 19,754512,2019-08-18 15:26:17:049,-0.7194,-0.0287,9.3921,-0.5111,-0.21,9.7911,-0.0133,0.0134,0.003
7546,48.458153,-2.522663,112.51,27.56,4.288,100.4,15 / 19,754611,2019-08-18 15:26:17:148,-0.2831,0.2807,9.7057,-0.5119,-0.2115,9.791,-0.011,-0.0089,-0.0014
7547,48.458153,-2.522663,112.51,27.56,4.288,100.4,15 / 19,754711,2019-08-18 15:26:17:248,-0.3088,0.0862,9.7147,-0.5111,-0.2136,9.791,0.0094,0.0023,0.0028
7548,48.458153,-2.522663,112.51,27.56,4.288,100.4,15 / 19,754811,2019-08-18 15:26:17:348,-0.6835,-0.0114,9.7123,-0.5226,-0.1932,9.7908,0.0048,0.0124,0.0029
7549,48.458153,-2.522663,112.51,27.56,4.288,100.4,15 / 19,754911,2019-08-18 15:26:17:448,-0.656,0.2418,10.1648,-0.5263,-0.1882,9.7907,-0.0124,-0.0013,0.0027
7550,48.458153,-2.522663,112.51,27.56,4.288,100.4,15 / 19,755012,2019-08-18 15:26:17:549,-0.5596,-0.0647,9.9051,-0.5289,-0.1868,9.7906,-0.0035,-0.0077,0.0021
7551,48.458153,-2.522663,112.51,27.56,4.288,100.4,15 / 19,755111,2019-08-18 15:26:17:648,-0.5967,-0.1048,10.0463,-0.5169,-0.1832,9.7913,0.0067,-0.0172,0.0053
7552,48.458153,-2.522663,112.51,27.56,4.288,100.4,16 / 20,755211,2019-08-18 15:26:17:748,-0.5147,0.1012,9.7153,-0.505,-0.1607,9.7923,0.0088,-0.0042,0.004
7553,48.458153,-2.522663,112.51,27.56,4.288,100.4,16 / 20,755311,2019-08-18 15:26:17:848,-0.6637,0.073,10.1158,-0.5052,-0.157,9.7924,-0.0047,-0.0038,0.0014
7554,48.458153,-2.522663,112.51,27.56,4.288,100.4,16 / 20,755411,2019-08-18 15:26:17:948,-0.562,0.158,10.2103,-0.5028,-0.1556,9.7925,-0.008,-0.0058,0.0011
7555,48.458153,-2.522663,112.51,27.56,4.288,100.4,16 / 20,755511,2019-08-18 15:26:18:048,-0.635,-0.0186,9.7273,-0.503,-0.1565,9.7925,-0.0126,-0.0083,0.002
7556,48.458153,-2.522663,112.51,27.56,4.288,100.4,16 / 20,755611,2019-08-18 15:26:18:148,-0.6769,0.1215,10.0679,-0.4987,-0.1653,9.7926,-0.0105,-0.0031,0.002
7557,48.458153,-2.522663,112.51,27.56,4.288,100.4,16 / 20,755711,2019-08-18 15:26:18:248,-0.8678,0.1066,9.3664,-0.4949,-0.1691,9.7927,-0.0119,-0.003,0.0011
7558,48.458153,-2.522663,112.51,27.56,4.288,100.4,16 / 20,755811,2019-08-18 15:26:18:348,-0.72,0.2287,9.8566,-0.5039,-0.1813,9.792,-0.0156,-0.0004,-0.0042
7559,48.458153,-2.522663,112.51,27.56,4.288,100.4,16 / 20,755911,2019-08-18 15:26:18:448,-0.7936,-0.2011,9.7327,-0.5061,-0.1877,9.7918,-0.0085,-0.0053,-0.0062
7560,48.458153,-2.522663,112.51,27.56,4.288,100.4,16 / 20,756012,2019-08-18 15:26:18:549,-0.4423,-0.0455,10.4707,-0.4961,-0.1994,9.7921,-0.0131,0.0006,-0.0055
7561,48.458153,-2.522663,112.51,27.56,4.288,100.4,16 / 20,756111,2019-08-18 15:26:18:648,-0.3962,-0.1449,9.7955,-0.501,-0.2048,9.7917,0.0019,0.0005,-0.0034
7562,48.458153,-2.522663,112.51,27.56,4.288,100.4,16 / 20,756212,2019-08-18 15:26:18:749,-0.544,-0.1861,10.3187,-0.4993,-0.1925,9.792,0.0124,-0.0074,-0.0007
7563,48.458153,-2.522663,112.51,27.56,4.288,100.4,16 / 20,756312,2019-08-18 15:26:18:849,-0.6452,0.1472,9.7566,-0.4945,-0.1807,9.7925,0.0116,-0.0047,-0.0016
7564,48.458153,-2.522663,112.51,27.56,4.288,100.4,16 / 20,756412,2019-08-18 15:26:18:949,-0.6859,-0.1215,9.9308,-0.4847,-0.1774,9.7931,-0.0055,-0.0162,-0.0033
7565,48.458153,-2.522663,112.51,27.56,4.288,100.4,16 / 20,756511,2019-08-18 15:26:19:048,-0.4674,0.0503,10.0098,-0.4774,-0.1779,9.7934,-0.0112,-0.0034,-0.0025
7566,48.458153,-2.522663,112.51,27.56,4.288,100.4,16 / 20,756611,2019-08-18 15:26:19:148,-0.3758,-0.1107,9.334,-0.4783,-0.1857,9.7932,-0.0107,0.0008,-0.0025
7567,48.458153,-2.522663,112.51,27.56,4.288,100.4,16 / 20,756711,2019-08-18 15:26:19:248,-0.4806,-0.0006,9.8123,-0.4779,-0.1922,9.7931,-0.0042,-0.0028,-0.0016
7568,48.458153,-2.522663,112.51,27.56,4.288,100.4,16 / 20,756811,2019-08-18 15:26:19:348,-0.4662,-0.091,9.8117,-0.4698,-0.1903,9.7935,-0.0019,-0.0116,-0.0012
7569,48.458153,-2.522663,112.51,27.56,4.288,100.4,16 / 20,756911,2019-08-18 15:26:19:448,-0.544,-0.0814,9.8961,-0.4677,-0.1847,9.7938,-0.0001,0.0055,0.0029
7570,48.458153,-2.522663,112.51,27.56,4.288,100.4,16 / 20,757011,2019-08-18 15:26:19:548,-0.6057,0.1431,9.4256,-0.4766,-0.1819,9.7934,-0.0066,0.0077,0.0037
7571,48.458153,-2.522663,112.51,27.56,4.288,100.4,16 / 20,757112,2019-08-18 15:26:19:649,-0.5775,-0.0688,9.7375,-0.4888,-0.1855,9.7927,-0.0027,0.0085,0.0026
7572,48.458153,-2.522663,112.51,27.56,4.288,100.4,15 / 20,757211,2019-08-18 15:26:19:748,-0.6338,-0.0503,10.1858,-0.4947,-0.1838,9.7924,0.0062,0.0029,0.0028
7573,48.458153,-2.522663,112.51,27.56,4.288,100.4,15 / 20,757311,2019-08-18 15:26:19:848,-0.6799,-0.1442,10.512,-0.4975,-0.1665,9.7926,0.0125,-0.0068,0.0028
7574,48.458153,-2.522663,112.51,27.56,4.288,100.4,15 / 20,757411,2019-08-18 15:26:19:948,-0.6248,-0.0658,10.0008,-0.4956,-0.1538,9.7929,0.008,-0.0074,0.0036
7575,48.458153,-2.522663,112.51,27.56,4.288,100.4,15 / 20,757511,2019-08-18 15:26:20:048,-0.7577,0.2083,9.7273,-0.5002,-0.1446,9.7928,-0.011,0.0092,0.0011
7576,48.458153,-2.522663,112.51,27.56,4.288,100.4,15 / 20,757611,2019-08-18 15:26:20:148,-0.7625,0.331,9.7698,-0.5075,-0.149,9.7924,-0.015,-0.0086,0.0009
7577,48.458153,-2.522663,112.51,27.56,4.288,100.4,15 / 20,757711,2019-08-18 15:26:20:248,-0.5763,-0.1365,10.3157,-0.5032,-0.1538,9.7925,-0.0052,-0.0064,0.0015
7578,48.458153,-2.522663,112.51,27.56,4.288,100.4,15 / 20,757811,2019-08-18 15:26:20:348,-0.7661,-0.0928,9.6154,-0.5059,-0.1506,9.7924,0.0007,-0.0096,0.0013
7579,48.458153,-2.522663,112.51,27.56,4.288,100.4,15 / 20,757911,2019-08-18 15:26:20:448,-0.6979,-0.0509,9.7704,-0.5003,-0.1428,9.7928,-0.0073,0.0043,0.0008
7580,48.458153,-2.522663,112.51,27.56,4.288,100.4,15 / 20,758011,2019-08-18 15:26:20:548,-0.6099,0.0934,9.2957,-0.5069,-0.1464,9.7924,-0.0141,0.0072,0.0006
7581,48.458153,-2.522663,112.51,27.56,4.288,100.4,15 / 20,758111,2019-08-18 15:26:20:648,-0.8714,-0.0305,10.0948,-0.52,-0.1444,9.7918,0.0051,-0.0044,0.0029
7582,48.458153,-2.522663,112.51,27.56,4.288,100.4,15 / 20,758211,2019-08-18 15:26:20:748,-1.0091,0.1538,9.5896,-0.516,-0.1406,9.7921,0.0019,-0.0105,0.0015
7583,48.458153,-2.522663,112.51,27.56,4.288,100.4,15 / 20,758312,2019-08-18 15:26:20:849,-0.7523,-0.1137,9.7806,-0.5182,-0.1427,9.7919,-0.013,-0.0052,-0.0021
7584,48.458153,-2.522663,112.51,27.56,4.288,100.4,15 / 20,758411,2019-08-18 15:26:20:948,-0.5327,0.3047,10.0529,-0.5165,-0.1468,9.7919,-0.0117,-0.0217,-0.0031
7585,48.458153,-2.522663,112.51,27.56,4.288,100.4,15 / 20,758512,2019-08-18 15:26:21:049,-0.6135,0.0293,10.3438,-0.4984,-0.1571,9.7927,-0.0114,-0.0159,-0.0029
7586,48.458153,-2.522663,112.51,27.56,4.288,100.4,15 / 20,758611,2019-08-18 15:26:21:148,-0.6302,0.1161,9.3245,-0.5001,-0.1701,9.7924,-0.0108,0.0068,-0.0002
7587,48.458153,-2.522663,112.51,27.56,4.288,100.4,15 / 20,758711,2019-08-18 15:26:21:248,-1.0354,-0.176,9.2167,-0.5085,-0.182,9.7918,-0.0138,0.002,-0.001
7588,48.458153,-2.522663,112.51,27.56,4.288,100.4,15 / 20,758811,2019-08-18 15:26:21:348,-0.6757,-0.2233,9.5142,-0.5124,-0.1855,9.7915,-0.0082,0.0016,-0.0024
7589,48.458153,-2.522663,112.51,27.56,4.288,100.4,15 / 20,758912,2019-08-18 15:26:21:449,-0.5991,-0.1616,10.1235,-0.5105,-0.1869,9.7916,0.0012,-0.0099,-0.0016
7590,48.458153,-2.522663,112.51,27.56,4.288,100.4,15 / 20,759011,2019-08-18 15:26:21:548,-0.6176,0.0275,10.1966,-0.5097,-0.1805,9.7917,0.0055,-0.009,-0.0005
7591,48.458153,-2.522663,112.51,27.56,4.288,100.4,15 / 20,759111,2019-08-18 15:26:21:648,-0.7559,-0.146,10.2558,-0.5044,-0.1828,9.792,-0.0014,-0.0127,-0.0004
7592,48.458153,-2.522663,112.51,27.56,4.288,100.4,15 / 20,759211,2019-08-18 15:26:21:748,-0.6667,-0.1227,10.0002,-0.4972,-0.183,9.7923,-0.0122,-0.0249,-0.0028
7593,48.458153,-2.522663,112.51,27.56,4.288,100.4,15 / 20,759311,2019-08-18 15:26:21:848,-0.4854,-0.0162,10.0655,-0.4799,-0.1944,9.793,-0.0157,-0.0077,-0.003
7594,48.458153,-2.522663,112.51,27.56,4.288,100.4,15 / 20,759411,2019-08-18 15:26:21:948,-0.7092,0.0581,9.8404,-0.477,-0.203,9.7929,-0.02,-0.0052,-0.0024
7595,48.458153,-2.522663,112.51,27.56,4.288,100.4,15 / 20,759512,2019-08-18 15:26:22:049,-0.538,-0.1508,10.1427,-0.4712,-0.2103,9.7931,-0.0052,-0.0136,0.0006
7596,48.458153,-2.522663,112.51,27.56,4.288,100.4,15 / 20,759611,2019-08-18 15:26:22:148,-0.4471,-0.1957,9.7111,-0.4658,-0.2106,9.7933,-0.0076,-0.0075,-0.0004
7597,48.458153,-2.522663,112.51,27.56,4.288,100.4,15 / 20,759711,2019-08-18 15:26:22:248,-0.4626,0.0617,9.8027,-0.4599,-0.2253,9.7933,-0.017,-0.0062,0.0008
7598,48.458153,-2.522663,112.51,27.56,4.288,100.4,15 / 20,759811,2019-08-18 15:26:22:348,-0.6889,0.1077,10.2636,-0.4561,-0.2346,9.7932,-0.0206,-0.0128,0.001
7599,48.458153,-2.522663,112.51,27.56,4.288,100.4,15 / 20,759912,2019-08-18 15:26:22:449,-0.5799,0.0706,9.516,-0.4434,-0.2522,9.7934,-0.026,-0.0044,0.002
7600,48.458153,-2.522663,112.51,27.56,4.288,100.4,15 / 20,760012,2019-08-18 15:26:22:549,-0.5578,0.094,9.3598,-0.445,-0.2661,9.7929,-0.0218,-0.0012,0.001
7601,48.458153,-2.522663,112.51,27.56,4.288,100.4,15 / 20,760111,2019-08-18 15:26:22:648,-0.4124,0.0305,10.0655,-0.4405,-0.2679,9.7931,-0.0028,-0.0173,0.0027
7602,48.458153,-2.522663,112.51,27.56,4.288,100.4,14 / 20,760211,2019-08-18 15:26:22:748,-0.453,0.024,9.8745,-0.421,-0.2603,9.7941,0.0051,-0.0046,0.0025
7603,48.458153,-2.522663,112.51,27.56,4.288,100.4,14 / 20,760311,2019-08-18 15:26:22:848,-0.4052,-0.1006,9.9625,-0.4226,-0.2512,9.7943,0.0051,-0.0046,0.0025
7604,48.458153,-2.522663,112.51,27.56,4.288,100.4,14 / 20,760411,2019-08-18 15:26:22:948,-0.5147,-0.164,9.4065,-0.4297,-0.2552,9.7939,-0.0176,0.0041,0.0006
7605,48.458153,-2.522663,112.51,27.56,4.288,100.4,14 / 20,760511,2019-08-18 15:26:23:048,-0.3657,0.3167,9.8883,-0.4343,-0.2614,9.7935,-0.0109,0.0051,0.0019
7606,48.458153,-2.522663,112.51,27.56,4.288,100.4,14 / 20,760612,2019-08-18 15:26:23:149,-0.4219,-0.0413,10.0367,-0.4447,-0.2609,9.7931,0.0012,0.0018,0.0036
7607,48.458153,-2.522663,112.51,27.56,4.288,100.4,14 / 20,760711,2019-08-18 15:26:23:248,-0.4716,-0.067,10.4324,-0.438,-0.2589,9.7934,0.0016,-0.0132,0.0047
7608,48.458153,-2.522663,112.51,27.56,4.288,100.4,14 / 20,760811,2019-08-18 15:26:23:348,-0.5273,0.0,9.7626,-0.4345,-0.2431,9.794,0.0028,0.0074,0.002
7609,48.458153,-2.522663,112.51,27.56,4.288,100.4,14 / 20,760911,2019-08-18 15:26:23:448,-0.6105,-0.0036,9.6399,-0.4413,-0.237,9.7939,-0.0037,0.0005,0.0017
7610,48.458153,-2.522663,112.51,27.56,4.288,100.4,14 / 20,761011,2019-08-18 15:26:23:548,-0.6117,0.1838,9.9553,-0.4455,-0.233,9.7938,-0.009,-0.0051,0.0038
7611,48.458153,-2.522663,112.51,27.56,4.288,100.4,14 / 20,761111,2019-08-18 15:26:23:648,-0.5925,-0.261,10.0218,-0.4426,-0.2335,9.7939,-0.0018,-0.0013,0.0038
7612,48.458153,-2.522663,112.51,27.56,4.288,100.4,14 / 20,761211,2019-08-18 15:26:23:748,-0.6781,0.1838,9.4053,-0.4618,-0.2225,9.7932,-0.0036,0.0103,0.0039
7613,48.458153,-2.522663,112.51,27.56,4.288,100.4,14 / 20,761311,2019-08-18 15:26:23:848,-0.5686,0.0754,9.5112,-0.4658,-0.2222,9.7931,-0.0024,0.0005,0.0026
7614,48.458153,-2.522663,112.51,27.56,4.288,100.4,14 / 20,761411,2019-08-18 15:26:23:948,-0.5548,0.7428,9.9859,-0.463,-0.2143,9.7934,-0.0053,-0.0061,0.0029
7615,48.458153,-2.522663,112.51,27.56,4.288,100.4,14 / 20,761512,2019-08-18 15:26:24:049,-0.4728,-0.1891,10.1948,-0.4619,-0.2159,9.7934,-0.0003,-0.0052,0.0021
7616,48.458153,-2.522663,112.51,27.56,4.288,100.4,14 / 20,761611,2019-08-18 15:26:24:148,-0.6673,0.2921,9.8243,-0.4607,-0.2073,9.7936,0.0049,0.0065,0.0045
7617,48.458153,-2.522663,112.51,27.56,4.288,100.4,14 / 20,761711,2019-08-18 15:26:24:248,-0.6745,-0.1634,9.6321,-0.472,-0.201,9.7932,-0.0003,0.0092,0.0034
7618,48.458153,-2.522663,112.51,27.56,4.288,100.4,14 / 20,761811,2019-08-18 15:26:24:348,-0.5632,-0.1215,10.2217,-0.4841,-0.1851,9.7929,0.014,0.0001,0.0036
7619,48.458153,-2.522663,112.51,27.56,4.288,100.4,14 / 20,761911,2019-08-18 15:26:24:448,-0.5303,0.4639,10.2708,-0.4777,-0.1769,9.7934,0.0158,-0.0098,0.0024
7620,48.458153,-2.522663,112.51,27.56,4.288,100.4,14 / 20,762011,2019-08-18 15:26:24:548,-0.5686,0.0623,10.266,-0.4686,-0.151,9.7943,0.0101,-0.0126,-0.0007
7621,48.458153,-2.522663,112.51,27.56,4.288,100.4,14 / 20,762111,2019-08-18 15:26:24:648,-0.316,0.0982,9.8817,-0.4635,-0.145,9.7946,-0.0022,0.0022,0.0002
7622,48.45775,-2.519337,111.1,27.96,5.36,100.3,Nov-17,762211,2019-08-18 15:26:24:748,-0.5602,0.352,9.4879,-0.4625,-0.1429,9.7947,-0.0073,0.009,0.0002
7623,48.45775,-2.519337,111.1,27.96,5.36,100.3,Nov-17,762311,2019-08-18 15:26:24:848,-0.4698,0.0491,9.9027,-0.4726,-0.1429,9.7942,-0.0033,0.005,0.0007
7624,48.45775,-2.519337,111.1,27.96,5.36,100.3,Nov-17,762411,2019-08-18 15:26:24:948,-0.7278,0.1975,9.9398,-0.4739,-0.1377,9.7942,-0.0005,-0.0139,-0.0005
7625,48.45775,-2.519337,111.1,27.96,5.36,100.3,Nov-17,762511,2019-08-18 15:26:25:048,-0.7487,-0.0557,9.5579,-0.4664,-0.1372,9.7946,-0.0002,0.0005,-0.0022
7626,48.45775,-2.519337,111.1,27.96,5.36,100.3,Nov-17,762611,2019-08-18 15:26:25:148,-0.4794,-0.1389,9.4879,-0.4791,-0.1339,9.794,-0.0011,0.0057,-0.0027
7627,48.45775,-2.519337,111.1,27.96,5.36,100.3,Nov-17,762711,2019-08-18 15:26:25:248,-0.6212,-0.3107,9.8829,-0.4782,-0.133,9.7941,0.0029,0.0054,-0.0036
7628,48.45775,-2.519337,111.1,27.96,5.36,100.3,Nov-17,762811,2019-08-18 15:26:25:348,-0.6913,-0.3184,9.929,-0.4761,-0.1348,9.7942,-0.0098,-0.0072,-0.0048
7629,48.45775,-2.519337,111.1,27.96,5.36,100.3,Nov-17,762911,2019-08-18 15:26:25:448,-0.7092,0.0712,10.0098,-0.4725,-0.1427,9.7942,-0.012,-0.0067,-0.0049
7630,48.45775,-2.519337,111.1,27.96,5.36,100.3,Nov-17,763011,2019-08-18 15:26:25:548,-0.1819,-0.2358,10.1349,-0.473,-0.1482,9.7941,-0.0005,-0.0125,-0.0064
7631,48.45775,-2.519337,111.1,27.96,5.36,100.3,Nov-17,763111,2019-08-18 15:26:25:648,-0.4949,-0.0006,10.3007,-0.4564,-0.1509,9.7949,-0.0029,-0.0224,-0.0058
7632,48.45775,-2.519337,111.1,27.96,5.36,100.3,Nov-17,763211,2019-08-18 15:26:25:748,-0.7565,0.0497,9.3748,-0.4426,-0.1617,9.7953,-0.0167,-0.0133,-0.0076
7633,48.45775,-2.519337,111.1,27.96,5.36,100.3,Nov-17,763311,2019-08-18 15:26:25:848,-0.5506,-0.1059,9.6812,-0.4382,-0.1806,9.7952,-0.0114,-0.0044,-0.0071
7634,48.45775,-2.519337,111.1,27.96,5.36,100.3,Nov-17,763411,2019-08-18 15:26:25:948,-0.6266,-0.0652,9.37,-0.4364,-0.1834,9.7952,-0.0183,-0.012,-0.0059
7635,48.45775,-2.519337,111.1,27.96,5.36,100.3,Nov-17,763511,2019-08-18 15:26:26:048,-0.4722,-0.2227,9.7967,-0.4245,-0.2069,9.7953,-0.0195,-0.0067,-0.0052
7636,48.45775,-2.519337,111.1,27.96,5.36,100.3,Nov-17,763611,2019-08-18 15:26:26:148,-0.7002,-0.2675,9.7955,-0.4222,-0.22,9.7951,-0.0105,-0.0058,-0.0044
7637,48.45775,-2.519337,111.1,27.96,5.36,100.3,Nov-17,763712,2019-08-18 15:26:26:249,-0.568,-0.2125,9.8835,-0.4202,-0.2303,9.7949,-0.0024,-0.0022,-0.0046
7638,48.45775,-2.519337,111.1,27.96,5.36,100.3,Nov-17,763811,2019-08-18 15:26:26:348,-0.5374,-0.255,9.3712,-0.422,-0.2308,9.7948,-0.022,-0.0022,-0.0049
7639,48.45775,-2.519337,111.1,27.96,5.36,100.3,Nov-17,763911,2019-08-18 15:26:26:448,-0.4614,-0.1436,9.9128,-0.4218,-0.2579,9.7942,-0.0144,-0.0157,-0.004
7640,48.45775,-2.519337,111.1,27.96,5.36,100.3,Nov-17,764011,2019-08-18 15:26:26:548,-0.4902,-0.1395,9.9392,-0.4174,-0.2635,9.7942,0.0088,-0.0091,-0.0029
7641,48.45775,-2.519337,111.1,27.96,5.36,100.3,Nov-17,764111,2019-08-18 15:26:26:648,-0.5129,-0.2945,10.2103,-0.4215,-0.2479,9.7945,0.0061,0.015,0.0005
7642,48.45775,-2.519337,111.1,27.96,5.36,100.3,14 / 20,764211,2019-08-18 15:26:26:748,-0.6685,-0.2831,10.075,-0.4328,-0.2427,9.7941,0.004,0.002,-0.0015
7643,48.45775,-2.519337,111.1,27.96,5.36,100.3,14 / 20,764311,2019-08-18 15:26:26:848,-0.5476,0.1329,9.8841,-0.4321,-0.2344,9.7943,-0.0024,-0.0161,-0.0022
7644,48.45775,-2.519337,111.1,27.96,5.36,100.3,14 / 20,764411,2019-08-18 15:26:26:948,-0.6775,-0.0138,9.9523,-0.4267,-0.2389,9.7944,-0.0213,-0.0162,-0.0011
7645,48.45775,-2.519337,111.1,27.96,5.36,100.3,14 / 20,764511,2019-08-18 15:26:27:048,-0.6159,-0.2622,9.6441,-0.437,-0.2543,9.7936,-0.0062,0.0146,-0.0004
7646,48.45775,-2.519337,111.1,27.96,5.36,100.3,14 / 20,764613,2019-08-18 15:26:27:150,-0.6302,0.0826,9.8458,-0.4455,-0.2544,9.7932,-0.002,0.001,0.0005
7647,48.45775,-2.519337,111.1,27.96,5.36,100.3,14 / 20,764711,2019-08-18 15:26:27:248,-0.4931,-0.0186,9.3628,-0.4522,-0.255,9.7929,-0.0031,-0.0058,-0.0011
7648,48.45775,-2.519337,111.1,27.96,5.36,100.3,14 / 20,764811,2019-08-18 15:26:27:348,-0.6553,-0.0054,10.0828,-0.4549,-0.2565,9.7927,-0.0074,0.002,0.0022
7649,48.45775,-2.519337,111.1,27.96,5.36,100.3,14 / 20,764911,2019-08-18 15:26:27:448,-0.884,-0.2951,10.1223,-0.471,-0.2408,9.7924,0.012,0.0003,0.0034
7650,48.45775,-2.519337,111.1,27.96,5.36,100.3,14 / 20,765011,2019-08-18 15:26:27:548,-0.6847,-0.4447,9.9817,-0.4718,-0.2317,9.7926,0.0135,0.0043,0.0031
7651,48.45775,-2.519337,111.1,27.96,5.36,100.3,14 / 20,765111,2019-08-18 15:26:27:648,-0.6583,0.1604,9.6698,-0.476,-0.2222,9.7926,-0.0005,-0.005,0.0009
7652,48.45775,-2.519337,111.1,27.96,5.36,100.3,13 / 19,765211,2019-08-18 15:26:27:748,-0.8206,0.2041,9.9583,-0.4796,-0.2175,9.7925,0.0021,-0.0035,-0.0009
7653,48.45775,-2.519337,111.1,27.96,5.36,100.3,13 / 19,765311,2019-08-18 15:26:27:848,-0.6985,-0.0215,10.3492,-0.482,-0.2096,9.7926,-0.009,-0.0159,0.0002
7654,48.45775,-2.519337,111.1,27.96,5.36,100.3,13 / 19,765411,2019-08-18 15:26:27:948,-0.7104,-0.0622,9.8255,-0.4768,-0.2113,9.7928,-0.0061,-0.0054,-0.0002
7655,48.45775,-2.519337,111.1,27.96,5.36,100.3,13 / 19,765511,2019-08-18 15:26:28:048,-0.7475,0.0587,9.5124,-0.4756,-0.2132,9.7928,-0.0002,-0.0005,0.0012
7656,48.45775,-2.519337,111.1,27.96,5.36,100.3,13 / 19,765612,2019-08-18 15:26:28:149,-0.632,-0.1909,9.7273,-0.4722,-0.2137,9.7929,-0.014,-0.023,0.0
7657,48.45775,-2.519337,111.1,27.96,5.36,100.3,13 / 19,765712,2019-08-18 15:26:28:249,-0.7104,-0.2227,9.7195,-0.4599,-0.2216,9.7934,-0.0053,-0.0033,-0.0013
7658,48.45775,-2.519337,111.1,27.96,5.36,100.3,13 / 19,765811,2019-08-18 15:26:28:348,-0.7356,-0.1766,9.8727,-0.4589,-0.2222,9.7934,-0.0108,0.0042,-0.0006
7659,48.45775,-2.519337,111.1,27.96,5.36,100.3,13 / 19,765911,2019-08-18 15:26:28:448,-0.8295,-0.1185,9.7369,-0.4675,-0.2255,9.7929,0.0,0.0074,0.0015
7660,48.45775,-2.519337,111.1,27.96,5.36,100.3,13 / 19,766011,2019-08-18 15:26:28:548,-0.398,-0.2873,9.5609,-0.485,-0.2189,9.7922,0.01,-0.0014,0.0009
7661,48.45775,-2.519337,111.1,27.96,5.36,100.3,13 / 19,766112,2019-08-18 15:26:28:649,-0.7763,0.0132,9.9362,-0.4885,-0.2106,9.7922,0.0012,-0.0007,-0.0004
7662,48.45775,-2.519337,111.1,27.96,5.36,100.3,14 / 20,766211,2019-08-18 15:26:28:748,-0.8631,-0.0652,9.9625,-0.4946,-0.2057,9.792,-0.0071,-0.0092,0.0015
7663,48.45775,-2.519337,111.1,27.96,5.36,100.3,14 / 20,766311,2019-08-18 15:26:28:848,-0.7392,-0.073,9.8638,-0.492,-0.2069,9.7921,-0.005,-0.0105,0.0002
7664,48.45775,-2.519337,111.1,27.96,5.36,100.3,14 / 20,766411,2019-08-18 15:26:28:948,-0.7523,-0.1802,9.4567,-0.4896,-0.2146,9.7921,-0.015,-0.0082,-0.0006
7665,48.45775,-2.519337,111.1,27.96,5.36,100.3,14 / 20,766511,2019-08-18 15:26:29:048,-0.6631,-0.2538,9.7165,-0.492,-0.2222,9.7918,-0.0117,0.0032,0.0005
7666,48.45775,-2.519337,111.1,27.96,5.36,100.3,14 / 20,766611,2019-08-18 15:26:29:148,-0.8259,-0.3089,10.1158,-0.4998,-0.2328,9.7911,-0.0061,0.0035,-0.0013
7667,48.45775,-2.519337,111.1,27.96,5.36,100.3,14 / 20,766711,2019-08-18 15:26:29:248,-0.4722,-0.0054,9.3993,-0.5056,-0.2343,9.7908,-0.0065,0.0083,-0.0013
7668,48.45775,-2.519337,111.1,27.96,5.36,100.3,14 / 20,766811,2019-08-18 15:26:29:348,-0.8523,-0.0694,9.4041,-0.5201,-0.2361,9.79,0.0058,0.0013,0.0012
7669,48.45775,-2.519337,111.1,27.96,5.36,100.3,14 / 20,766911,2019-08-18 15:26:29:448,-0.8158,0.1508,9.455,-0.5278,-0.2294,9.7897,0.003,0.0002,0.0029
7670,48.45775,-2.519337,111.1,27.96,5.36,100.3,14 / 20,767011,2019-08-18 15:26:29:548,-0.9702,-0.0227,10.2815,-0.5411,-0.2143,9.7894,0.0124,-0.0052,0.0025
7671,48.45775,-2.519337,111.1,27.96,5.36,100.3,14 / 20,767111,2019-08-18 15:26:29:648,-0.729,0.0365,10.3552,-0.5421,-0.2036,9.7895,0.0093,-0.012,0.0025
7672,48.45775,-2.519337,111.1,27.96,5.36,100.3,14 / 20,767211,2019-08-18 15:26:29:748,-0.6476,-0.1269,9.8404,-0.5299,-0.1938,9.7904,-0.0047,-0.0013,0.0007
7673,48.45775,-2.519337,111.1,27.96,5.36,100.3,14 / 20,767311,2019-08-18 15:26:29:848,-0.711,0.0557,9.0719,-0.5315,-0.1942,9.7903,-0.0058,0.0051,0.0026
7674,48.45775,-2.519337,111.1,27.96,5.36,100.3,14 / 20,767412,2019-08-18 15:26:29:949,-0.9624,0.3017,9.8841,-0.5411,-0.1956,9.7898,-0.0065,0.0033,0.0045
7675,48.45775,-2.519337,111.1,27.96,5.36,100.3,14 / 20,767512,2019-08-18 15:26:30:049,-0.723,-0.1514,9.9529,-0.5472,-0.1959,9.7894,-0.0028,0.0062,0.0042
7676,48.45775,-2.519337,111.1,27.96,5.36,100.3,14 / 20,767611,2019-08-18 15:26:30:148,-0.7571,-0.1041,9.6932,-0.5572,-0.1833,9.7891,0.0027,0.0004,0.0049
7677,48.45775,-2.519337,111.1,27.96,5.36,100.3,14 / 20,767711,2019-08-18 15:26:30:248,-0.7505,0.0647,10.1044,-0.5607,-0.1767,9.789,0.0123,0.0021,0.0066
7678,48.45775,-2.519337,111.1,27.96,5.36,100.3,14 / 20,767811,2019-08-18 15:26:30:348,-0.7104,0.0509,10.3438,-0.5673,-0.1589,9.7889,0.0035,-0.0016,0.0076
7679,48.45775,-2.519337,111.1,27.96,5.36,100.3,14 / 20,767911,2019-08-18 15:26:30:448,-0.7439,-0.0599,10.1014,-0.5688,-0.1516,9.789,0.0042,-0.0047,0.0068
7680,48.45775,-2.519337,111.1,27.96,5.36,100.3,14 / 20,768011,2019-08-18 15:26:30:548,-0.7805,0.0102,9.8524,-0.5816,-0.1411,9.7884,0.0021,0.0072,0.0036
7681,48.45775,-2.519337,111.1,27.96,5.36,100.3,14 / 20,768111,2019-08-18 15:26:30:648,-0.6512,0.2682,9.2077,-0.5869,-0.1382,9.7881,-0.0011,0.0072,0.0015
7682,48.45775,-2.519337,111.1,27.96,5.36,100.3,14 / 20,768211,2019-08-18 15:26:30:748,-0.7924,0.0299,10.111,-0.5768,-0.1401,9.7887,-0.0091,-0.0148,-0.0028
7683,48.45775,-2.519337,111.1,27.96,5.36,100.3,14 / 20,768311,2019-08-18 15:26:30:848,-0.4728,0.1975,9.6615,-0.5688,-0.1435,9.7891,-0.0066,-0.0108,-0.0014
7684,48.45775,-2.519337,111.1,27.96,5.36,100.3,14 / 20,768412,2019-08-18 15:26:30:949,-0.8499,-0.1969,10.1475,-0.5521,-0.1424,9.7901,0.0017,-0.0181,-0.0011
7685,48.45775,-2.519337,111.1,27.96,5.36,100.3,14 / 20,768511,2019-08-18 15:26:31:048,-0.4758,-0.1095,9.5902,-0.5604,-0.1368,9.7897,-0.0107,-0.0036,-0.0043
7686,48.45775,-2.519337,111.1,27.96,5.36,100.3,14 / 20,768612,2019-08-18 15:26:31:149,-0.5662,0.088,9.7506,-0.5544,-0.149,9.7898,-0.012,-0.002,-0.0032
7687,48.45775,-2.519337,111.1,27.96,5.36,100.3,14 / 20,768711,2019-08-18 15:26:31:248,-0.4955,-0.1568,10.0553,-0.5522,-0.1531,9.7899,-0.0106,-0.0078,-0.0027
7688,48.45775,-2.519337,111.1,27.96,5.36,100.3,14 / 20,768812,2019-08-18 15:26:31:349,-0.7643,0.1814,9.6094,-0.5428,-0.1592,9.7903,-0.0094,-0.011,-0.0035
7689,48.45775,-2.519337,111.1,27.96,5.36,100.3,14 / 20,768911,2019-08-18 15:26:31:448,-0.7038,0.1131,9.8009,-0.5332,-0.1621,9.7908,-0.0031,-0.0148,-0.0019
7690,48.45775,-2.519337,111.1,27.96,5.36,100.3,14 / 20,769011,2019-08-18 15:26:31:548,-0.5704,0.1281,9.6626,-0.5291,-0.1581,9.7911,-0.0088,-0.0019,0.0006
7691,48.45775,-2.519337,111.1,27.96,5.36,100.3,14 / 20,769112,2019-08-18 15:26:31:649,-0.6015,0.0287,10.0744,-0.5259,-0.1625,9.7912,-0.0107,-0.0058,0.0036
7692,48.45775,-2.519337,111.1,27.96,5.36,100.3,14 / 20,769211,2019-08-18 15:26:31:748,-0.7128,0.1814,9.7399,-0.5256,-0.1611,9.7912,-0.0087,-0.0041,0.0033
7693,48.45775,-2.519337,111.1,27.96,5.36,100.3,14 / 20,769311,2019-08-18 15:26:31:848,-0.5177,0.0048,9.4879,-0.5277,-0.1605,9.7911,0.0009,0.0128,0.0047
7694,48.45775,-2.519337,111.1,27.96,5.36,100.3,14 / 20,769411,2019-08-18 15:26:31:948,-0.6769,0.1155,9.7752,-0.5326,-0.1557,9.7909,-0.0009,0.0059,0.0064
7695,48.45775,-2.519337,111.1,27.96,5.36,100.3,14 / 20,769511,2019-08-18 15:26:32:048,-0.5416,0.1071,10.1726,-0.539,-0.1425,9.7908,-0.0027,-0.014,0.006
7696,48.45775,-2.519337,111.1,27.96,5.36,100.3,14 / 20,769612,2019-08-18 15:26:32:149,-0.7619,0.0563,9.8805,-0.5329,-0.1389,9.7912,-0.0061,-0.0045,0.0033
7697,48.45775,-2.519337,111.1,27.96,5.36,100.3,14 / 20,769711,2019-08-18 15:26:32:248,-0.8289,0.1089,9.6417,-0.5323,-0.138,9.7912,-0.006,0.0007,0.003
7698,48.45775,-2.519337,111.1,27.96,5.36,100.3,14 / 20,769811,2019-08-18 15:26:32:348,-0.5207,0.1071,9.358,-0.536,-0.1332,9.7911,-0.0004,-0.0007,0.0056
7699,48.45775,-2.519337,111.1,27.96,5.36,100.3,14 / 20,769911,2019-08-18 15:26:32:448,-0.8667,0.0766,10.2205,-0.5387,-0.1221,9.7911,0.0013,-0.0099,0.0034
7700,48.45775,-2.519337,111.1,27.96,5.36,100.3,14 / 20,770011,2019-08-18 15:26:32:548,-0.7523,0.1083,10.3845,-0.534,-0.1179,9.7914,-0.0053,-0.0181,0.0021
7701,48.45775,-2.519337,111.1,27.96,5.36,100.3,14 / 20,770111,2019-08-18 15:26:32:648,-0.6697,-0.0467,9.7159,-0.5231,-0.1179,9.792,-0.0079,-0.0067,0.0017
7702,48.45775,-2.519337,111.1,27.96,5.36,100.3,14 / 20,770211,2019-08-18 15:26:32:748,-0.8098,0.015,9.4166,-0.5242,-0.1205,9.7919,-0.0025,-0.0007,0.0033
7703,48.45775,-2.519337,111.1,27.96,5.36,100.3,14 / 20,770311,2019-08-18 15:26:32:848,-0.5997,0.3573,9.8027,-0.5263,-0.1152,9.7918,0.0041,-0.0002,0.0034
7704,48.45775,-2.519337,111.1,27.96,5.36,100.3,14 / 20,770411,2019-08-18 15:26:32:948,-0.7876,0.0096,10.1044,-0.5264,-0.1111,9.7919,-0.0062,-0.0029,0.0034
7705,48.45775,-2.519337,111.1,27.96,5.36,100.3,14 / 20,770511,2019-08-18 15:26:33:048,-0.6751,0.0712,9.8901,-0.5299,-0.1157,9.7916,-0.0145,-0.0035,0.003
7706,48.45775,-2.519337,111.1,27.96,5.36,100.3,14 / 20,770612,2019-08-18 15:26:33:149,-0.7517,0.3484,9.3837,-0.5306,-0.121,9.7915,-0.0095,-0.0029,0.002
7707,48.45775,-2.519337,111.1,27.96,5.36,100.3,14 / 20,770713,2019-08-18 15:26:33:250,-0.5548,0.3549,9.7207,-0.5312,-0.1273,9.7914,-0.0043,0.0022,0.0016
7708,48.45775,-2.519337,111.1,27.96,5.36,100.3,14 / 20,770811,2019-08-18 15:26:33:348,-0.5225,-0.0197,10.3228,-0.5317,-0.1246,9.7914,0.0021,-0.0133,0.0016
7709,48.45775,-2.519337,111.1,27.96,5.36,100.3,14 / 20,770911,2019-08-18 15:26:33:448,-0.8774,0.0521,10.0691,-0.5221,-0.1168,9.792,0.0,-0.014,0.0016
7710,48.45775,-2.519337,111.1,27.96,5.36,100.3,14 / 20,771011,2019-08-18 15:26:33:548,-0.7068,-0.0772,9.5094,-0.5132,-0.1143,9.7925,-0.0091,-0.0228,0.0018
7711,48.45775,-2.519337,111.1,27.96,5.36,100.3,14 / 20,771111,2019-08-18 15:26:33:648,-0.641,0.319,9.6848,-0.4996,-0.1241,9.7931,-0.0251,-0.0048,-0.0003
7712,48.45732,-2.516009,116.49,27.82,5.36,100.4,14 / 20,771211,2019-08-18 15:26:33:748,-0.5111,0.1467,9.8524,-0.5065,-0.1404,9.7926,-0.0208,0.004,0.0014
7713,48.45732,-2.516009,116.49,27.82,5.36,100.4,14 / 20,771311,2019-08-18 15:26:33:848,-0.9259,-0.006,9.7309,-0.5132,-0.1541,9.792,-0.015,-0.0026,0.0044
7714,48.45732,-2.516009,116.49,27.82,5.36,100.4,14 / 20,771411,2019-08-18 15:26:33:948,-0.5362,-0.0329,10.2127,-0.5058,-0.1545,9.7924,0.0014,-0.0179,0.0027
7715,48.45732,-2.516009,116.49,27.82,5.36,100.4,14 / 20,771511,2019-08-18 15:26:34:048,-0.5572,0.5393,9.8757,-0.4865,-0.1465,9.7935,-0.0006,-0.0169,0.0029
7716,48.45732,-2.516009,116.49,27.82,5.36,100.4,14 / 20,771611,2019-08-18 15:26:34:148,-0.5644,-0.1592,9.6986,-0.4808,-0.1505,9.7937,-0.0223,-0.0194,-0.0003
7717,48.45732,-2.516009,116.49,27.82,5.36,100.4,14 / 20,771712,2019-08-18 15:26:34:249,-0.6189,0.0611,10.5294,-0.4663,-0.1727,9.794,-0.0238,-0.0151,-0.0021
7718,48.45732,-2.516009,116.49,27.82,5.36,100.4,14 / 20,771812,2019-08-18 15:26:34:349,-0.5973,-0.2819,10.1008,-0.4615,-0.1803,9.7941,-0.0155,-0.0075,-0.0001
7719,48.45732,-2.516009,116.49,27.82,5.36,100.4,14 / 20,771911,2019-08-18 15:26:34:448,-0.48,0.164,9.7034,-0.4614,-0.1818,9.7941,-0.0064,-0.0023,0.0051
7720,48.45732,-2.516009,116.49,27.82,5.36,100.4,14 / 20,772011,2019-08-18 15:26:34:548,-0.5626,-0.1844,10.3779,-0.46,-0.1852,9.7941,-0.0024,-0.0033,0.0047
7721,48.45732,-2.516009,116.49,27.82,5.36,100.4,14 / 20,772111,2019-08-18 15:26:34:648,-0.6123,0.082,10.169,-0.4598,-0.1818,9.7942,-0.0011,-0.0062,0.0015
7722,48.45732,-2.516009,116.49,27.82,5.36,100.4,13 / 19,772211,2019-08-18 15:26:34:748,-0.5428,-0.246,9.9242,-0.4512,-0.1784,9.7946,0.0007,-0.0127,0.001
7723,48.45732,-2.516009,116.49,27.82,5.36,100.4,13 / 19,772311,2019-08-18 15:26:34:848,-0.5087,0.2454,9.5914,-0.4501,-0.1736,9.7948,-0.0081,-0.009,0.0002
7724,48.45732,-2.516009,116.49,27.82,5.36,100.4,13 / 19,772411,2019-08-18 15:26:34:948,-0.5817,-0.2083,9.8961,-0.4411,-0.1787,9.7951,0.0007,-0.0086,-0.0015
7725,48.45732,-2.516009,116.49,27.82,5.36,100.4,13 / 19,772512,2019-08-18 15:26:35:049,-0.6003,-0.0778,9.8889,-0.4398,-0.1771,9.7952,0.0031,-0.0031,-0.003
7726,48.45732,-2.516009,116.49,27.82,5.36,100.4,13 / 19,772611,2019-08-18 15:26:35:148,-0.4949,-0.3316,9.5028,-0.4501,-0.172,9.7948,0.0036,0.0109,-0.0026
7727,48.45732,-2.516009,116.49,27.82,5.36,100.4,13 / 19,772711,2019-08-18 15:26:35:248,-0.3944,-0.2418,9.9224,-0.4596,-0.1682,9.7944,0.0103,0.0098,-0.0022
7728,48.45732,-2.516009,116.49,27.82,5.36,100.4,13 / 19,772811,2019-08-18 15:26:35:348,-0.4231,-0.0281,10.5551,-0.4518,-0.1506,9.7951,0.0162,-0.0194,-0.0035
7729,48.45732,-2.516009,116.49,27.82,5.36,100.4,13 / 19,772911,2019-08-18 15:26:35:448,-0.486,0.0551,10.7676,-0.4292,-0.1367,9.7963,0.0078,-0.0158,-0.004
7730,48.45732,-2.516009,116.49,27.82,5.36,100.4,13 / 19,773011,2019-08-18 15:26:35:548,-0.3327,-0.1179,10.3037,-0.416,-0.1312,9.7969,-0.0013,-0.0042,-0.0053
7731,48.45732,-2.516009,116.49,27.82,5.36,100.4,13 / 19,773111,2019-08-18 15:26:35:648,-0.4776,-0.0347,9.3634,-0.417,-0.1355,9.7968,-0.0078,0.0021,-0.0048
7732,48.45732,-2.516009,116.49,27.82,5.36,100.4,13 / 19,773212,2019-08-18 15:26:35:749,-0.407,0.0156,9.2903,-0.4225,-0.1433,9.7965,-0.0109,0.006,-0.0033
7733,48.45732,-2.516009,116.49,27.82,5.36,100.4,13 / 19,773311,2019-08-18 15:26:35:848,-0.5524,-0.0455,9.7584,-0.4263,-0.1471,9.7963,-0.0053,0.0037,-0.0048
7734,48.45732,-2.516009,116.49,27.82,5.36,100.4,13 / 19,773411,2019-08-18 15:26:35:948,-0.5512,-0.0239,10.33,-0.4182,-0.1384,9.7968,0.0069,-0.0119,-0.0049
7735,48.45732,-2.516009,116.49,27.82,5.36,100.4,13 / 19,773512,2019-08-18 15:26:36:049,-0.4854,-0.2011,10.3713,-0.4077,-0.1331,9.7973,0.009,-0.0041,-0.0071
7736,48.45732,-2.516009,116.49,27.82,5.36,100.4,13 / 19,773611,2019-08-18 15:26:36:148,-0.313,-0.0317,10.6245,-0.3834,-0.134,9.7982,0.0033,-0.0066,-0.0091
7737,48.45732,-2.516009,116.49,27.82,5.36,100.4,13 / 19,773711,2019-08-18 15:26:36:248,-0.2292,-0.0581,10.4809,-0.3802,-0.1343,9.7984,-0.0021,-0.0017,-0.0071
7738,48.45732,-2.516009,116.49,27.82,5.36,100.4,13 / 19,773811,2019-08-18 15:26:36:348,-0.5835,-0.2741,9.7016,-0.3761,-0.1357,9.7985,-0.0059,-0.0027,-0.0046
7739,48.45732,-2.516009,116.49,27.82,5.36,100.4,13 / 19,773911,2019-08-18 15:26:36:448,-0.4824,-0.1867,9.8464,-0.3716,-0.1377,9.7986,-0.0053,-0.0127,-0.0049
7740,48.45732,-2.516009,116.49,27.82,5.36,100.4,13 / 19,774011,2019-08-18 15:26:36:548,-0.5015,-0.3992,9.999,-0.3563,-0.1377,9.7992,0.0029,-0.0062,-0.002
7741,48.45732,-2.516009,116.49,27.82,5.36,100.4,13 / 19,774111,2019-08-18 15:26:36:648,-0.5297,0.0964,9.9679,-0.3552,-0.1363,9.7993,0.0,-0.0084,-0.0004
7742,48.45732,-2.516009,116.49,27.82,5.36,100.4,13 / 19,774212,2019-08-18 15:26:36:749,-0.4201,-0.1083,10.1882,-0.348,-0.134,9.7996,-0.0077,-0.0157,0.0006
7743,48.45732,-2.516009,116.49,27.82,5.36,100.4,13 / 19,774311,2019-08-18 15:26:36:848,-0.4273,0.4274,9.7357,-0.3425,-0.1335,9.7998,-0.0054,-0.007,-0.0001
7744,48.45732,-2.516009,116.49,27.82,5.36,100.4,13 / 19,774411,2019-08-18 15:26:36:948,-0.3004,-0.1167,9.4017,-0.3405,-0.1382,9.7998,-0.0105,-0.0047,0.0014
7745,48.45732,-2.516009,116.49,27.82,5.36,100.4,13 / 19,774511,2019-08-18 15:26:37:048,-0.453,0.2945,10.0864,-0.3421,-0.1362,9.7997,0.0015,-0.012,0.0047
7746,48.45732,-2.516009,116.49,27.82,5.36,100.4,13 / 19,774612,2019-08-18 15:26:37:149,-0.5141,-0.0257,10.5282,-0.3353,-0.1231,9.8001,0.0042,-0.0095,0.0055
7747,48.45732,-2.516009,116.49,27.82,5.36,100.4,13 / 19,774711,2019-08-18 15:26:37:248,-0.6572,0.2275,10.4761,-0.3316,-0.1137,9.8004,0.0022,-0.016,0.0048
7748,48.45732,-2.516009,116.49,27.82,5.36,100.4,13 / 19,774811,2019-08-18 15:26:37:348,-0.462,0.0144,10.0296,-0.3214,-0.1038,9.8008,-0.0056,-0.0166,0.0029
7749,48.45732,-2.516009,116.49,27.82,5.36,100.4,13 / 19,774911,2019-08-18 15:26:37:448,-0.4596,0.3849,9.5513,-0.3199,-0.1084,9.8008,-0.0139,-0.0026,0.0022
7750,48.45732,-2.516009,116.49,27.82,5.36,100.4,13 / 19,775011,2019-08-18 15:26:37:548,-0.1442,-0.0461,10.2055,-0.3255,-0.1056,9.8007,0.0025,-0.0003,0.0041
7751,48.45732,-2.516009,116.49,27.82,5.36,100.4,13 / 19,775111,2019-08-18 15:26:37:648,-0.4543,0.243,10.4378,-0.3238,-0.0941,9.8009,0.0032,-0.0057,0.0058
7752,48.45732,-2.516009,116.49,27.82,5.36,100.4,14 / 20,775211,2019-08-18 15:26:37:748,-0.5614,0.3202,10.0373,-0.323,-0.0831,9.801,0.0066,-0.007,0.0054
7753,48.45732,-2.516009,116.49,27.82,5.36,100.4,14 / 20,775311,2019-08-18 15:26:37:848,-0.4219,0.3645,9.5501,-0.32,-0.0712,9.8012,0.0033,0.0059,0.0051
7754,48.45732,-2.516009,116.49,27.82,5.36,100.4,14 / 20,775411,2019-08-18 15:26:37:948,-0.3848,0.2245,10.2253,-0.3246,-0.0631,9.8011,0.0035,-0.0017,0.0047
7755,48.45732,-2.516009,116.49,27.82,5.36,100.4,14 / 20,775511,2019-08-18 15:26:38:048,-0.3291,0.188,10.5347,-0.3268,-0.0478,9.8011,0.0148,-0.0154,0.0024
7756,48.45732,-2.516009,116.49,27.82,5.36,100.4,14 / 20,775611,2019-08-18 15:26:38:148,-0.2711,0.328,10.1044,-0.3177,-0.0359,9.8014,0.015,-0.0055,0.0029
7757,48.45732,-2.516009,116.49,27.82,5.36,100.4,14 / 20,775711,2019-08-18 15:26:38:248,-0.2867,0.2574,9.9206,-0.3118,-0.0138,9.8017,0.0098,-0.0116,0.0026
7758,48.45732,-2.516009,116.49,27.82,5.36,100.4,14 / 20,775811,2019-08-18 15:26:38:348,-0.4255,0.5339,9.92,-0.3065,-0.0044,9.8019,0.0033,-0.0056,0.0019
7759,48.45732,-2.516009,116.49,27.82,5.36,100.4,14 / 20,775911,2019-08-18 15:26:38:448,-0.1622,0.2125,10.0631,-0.2927,0.0002,9.8023,-0.0024,-0.0036,0.0018
7760,48.45732,-2.516009,116.49,27.82,5.36,100.4,14 / 20,776011,2019-08-18 15:26:38:548,-0.5788,0.5746,10.4132,-0.2904,0.0009,9.8024,-0.0103,-0.0152,0.0002
7761,48.45732,-2.516009,116.49,27.82,5.36,100.4,14 / 20,776111,2019-08-18 15:26:38:648,-0.6416,0.2454,10.4857,-0.2698,-0.0044,9.8029,-0.0101,-0.0292,-0.0005
7762,48.45732,-2.516009,116.49,27.82,5.36,100.4,13 / 18,776211,2019-08-18 15:26:38:748,-0.4219,0.3992,9.9063,-0.253,-0.0058,9.8034,-0.0027,-0.0286,0.0005
7763,48.45732,-2.516009,116.49,27.82,5.36,100.4,13 / 18,776311,2019-08-18 15:26:38:848,-0.1508,0.1185,10.0643,-0.2202,-0.0043,9.8042,-0.0072,-0.0104,-0.0003
7764,48.45732,-2.516009,116.49,27.82,5.36,100.4,13 / 18,776411,2019-08-18 15:26:38:948,-0.1352,0.3472,9.7734,-0.2201,-0.0084,9.8042,-0.0116,-0.001,-0.0022
7765,48.45732,-2.516009,116.49,27.82,5.36,100.4,13 / 18,776511,2019-08-18 15:26:39:048,-0.1047,0.2999,10.0553,-0.2143,-0.0165,9.8043,-0.0124,-0.0112,-0.0041
