,GPS LATITUDE (degrees), GPS LONGITUDE (degrees), GPS ALTITUDE (m), GPS SPEED (Kmh), GPS ACCURACY (m), GPS ORIENTATION (Â°),GPS SATELLITES IN RANGE, TIME SINCE START (ms), DATE (YYYY-MO-DD HH-MI-SS_SSS), ACCELEROMETER X (m/s²) , ACCELEROMETER Y (m/s²), ACCELEROMETER Z (m/s²), GRAVITY X (m/s²), GRAVITY Y (m/s²), GRAVITY Z (m/s²), GYROSCOPE Yaw (rad/s), GYROSCOPE Pitch (rad/s), GYROSCOPE Roll (rad/s), MAGNETIC FIELD X (Î¼T), MAGNETIC FIELD Y (Î¼T), MAGNETIC FIELD Z (Î¼T), ORIENTATION (Yaw) (Â°), ORIENTATION (Pitch) (Â°), ORIENTATION (Roll ) (Â°)
31600,52.20703,-0.934178,133.28,24.21,12,117.43,21 / 21,3160011,2020-01-08 11:08:26:685,0.6352,-0.2964,10.3415,-0.0254,-0.0388,9.8065,-0.01,0.414,-0.2002,-25.25,-31.0,25.13,355.36,-85.47,-139.3
31601,52.20703,-0.934178,133.28,24.21,12,117.43,21 / 21,3160111,2020-01-08 11:08:26:785,1.9328,2.1728,8.9609,0.0124,0.0484,9.8064,0.0311,0.1745,-0.1508,-25.37,-30.94,24.88,353.63,-85.53,-140.92
31602,52.20703,-0.934178,133.28,24.21,12,117.43,20 / 21,3160211,2020-01-08 11:08:26:885,-2.4075,-3.5376,10.9935,-0.0333,-0.0313,9.8065,0.0794,-0.1891,0.1982,-25.81,-30.69,25.0,353.86,-85.22,-139.55
31603,52.20703,-0.934178,133.28,24.21,12,117.43,20 / 21,3160311,2020-01-08 11:08:26:985,4.8836,0.3258,11.2068,-0.0235,-0.0748,9.8062,0.1082,-0.2868,0.2793,-25.94,-30.5,24.0,350.96,-85.04,-141.06
31604,52.20703,-0.934178,133.28,24.21,12,117.43,20 / 21,3160410,2020-01-08 11:08:27:084,-1.6269,-3.0561,10.7716,-0.0647,-0.0071,9.8064,-0.0162,-0.4706,0.1183,-25.62,-30.0,24.44,345.89,-85.15,-145.77
31605,52.20703,-0.934178,133.28,24.21,12,117.43,20 / 21,3160511,2020-01-08 11:08:27:185,3.1639,1.959,11.0615,-0.0557,-0.0228,9.8065,-0.1459,-0.4618,0.3101,-26.0,-30.37,24.81,351.18,-85.1,-142.04
31606,52.20703,-0.934178,133.28,24.21,12,117.43,20 / 21,3160610,2020-01-08 11:08:27:284,1.0883,2.8047,8.0884,-0.0142,0.0741,9.8063,-0.1873,-0.343,0.235,-25.75,-30.12,25.06,349.46,-85.56,-143.71
31607,52.20703,-0.934178,133.28,24.21,12,117.43,20 / 21,3160711,2020-01-08 11:08:27:385,2.3381,0.6008,10.369,-0.0469,-0.04,9.8064,-0.252,0.2614,-0.2004,-26.12,-30.44,24.0,346.02,-85.57,-145.74
31608,52.20703,-0.934178,133.28,24.21,12,117.43,20 / 21,3160811,2020-01-08 11:08:27:485,2.7631,3.6824,7.3573,-0.0271,-0.0678,9.8063,-0.2715,0.4779,-0.2969,-25.87,-30.31,24.38,352.93,-85.47,-139.29
31609,52.20703,-0.934178,133.28,24.21,12,117.43,20 / 21,3160911,2020-01-08 11:08:27:585,-3.0778,-3.048,9.9003,-0.0687,-0.0191,9.8063,0.0748,0.5616,-0.1811,-26.56,-30.31,24.31,356.77,-85.65,-134.65
31610,52.20703,-0.934178,133.28,24.21,12,117.43,20 / 21,3161011,2020-01-08 11:08:27:685,0.0204,0.0321,11.5153,-0.0204,-0.0392,9.8065,0.1091,0.2959,-0.2645,-26.06,-31.31,24.5,356.09,-85.46,-137.51
31611,52.20703,-0.934178,133.28,24.21,12,117.43,20 / 21,3161111,2020-01-08 11:08:27:785,-2.3208,-1.9914,9.8865,0.0376,0.0119,9.8066,0.0033,0.055,0.0898,-26.06,-30.31,24.5,348.81,-85.57,-144.32
31612,52.20703,-0.934178,133.28,24.21,12,117.43,20 / 21,3161212,2020-01-08 11:08:27:886,-0.3349,0.3514,9.8714,-0.0115,-0.0058,9.8065,-0.0199,-0.0501,0.1868,-26.5,-30.69,24.44,349.96,-85.47,-142.03
31613,52.20703,-0.934178,133.28,24.21,12,117.43,20 / 21,3161311,2020-01-08 11:08:27:985,2.7513,4.7945,9.5072,0.0285,0.0592,9.8064,-0.0064,-0.522,0.2681,-26.19,-30.56,24.94,353.96,-85.44,-139.48
31614,52.20703,-0.934178,133.28,24.21,12,117.43,20 / 21,3161411,2020-01-08 11:08:28:085,-1.4636,-0.0655,9.0379,0.0383,0.0283,9.8065,-0.0358,-0.5667,0.3966,-25.94,-30.19,24.94,352.65,-85.68,-140.75
31615,52.20703,-0.934178,133.28,24.21,12,117.43,20 / 21,3161511,2020-01-08 11:08:28:185,2.5016,2.5789,9.6459,0.0405,0.041,9.8064,0.0201,-0.5585,0.3216,-26.62,-30.56,24.56,352.88,-85.71,-139.45
31616,52.20703,-0.934178,133.28,24.21,12,117.43,20 / 21,3161611,2020-01-08 11:08:28:285,-4.1079,-4.1398,11.4032,0.0551,0.0765,9.8061,0.045,-0.4574,0.2487,-26.0,-30.44,25.31,352.66,-85.79,-140.75
31617,52.20703,-0.934178,133.28,24.21,12,117.43,20 / 21,3161710,2020-01-08 11:08:28:384,-2.7149,-0.9934,9.2058,-0.0295,-0.0039,9.8066,0.1681,0.238,-0.1618,-26.69,-30.31,24.69,352.51,-85.59,-139.79
31618,52.20703,-0.934178,133.28,24.21,12,117.43,20 / 21,3161811,2020-01-08 11:08:28:485,-5.1527,-4.3728,10.333,-0.0103,0.0225,9.8066,0.1038,0.3782,-0.3874,-26.25,-29.87,25.25,354.14,-85.59,-139.35
31619,52.20703,-0.934178,133.28,24.21,12,117.43,20 / 21,3161910,2020-01-08 11:08:28:584,-2.0762,-1.3595,9.7626,-0.0593,-0.1056,9.8059,-0.0219,0.6364,-0.4373,-26.56,-30.56,24.31,350.32,-85.69,-140.66
31620,52.20703,-0.934178,133.28,24.21,12,117.43,20 / 21,3162011,2020-01-08 11:08:28:685,3.6889,3.7433,9.2057,-0.0068,0.01,9.8066,-0.0359,0.7204,-0.3125,-25.75,-30.25,24.25,354.72,-85.38,-137.61
31621,52.20703,-0.934178,133.28,24.21,12,117.43,20 / 21,3162111,2020-01-08 11:08:28:785,-4.6214,-3.3458,11.892,-0.0139,-0.0808,9.8063,-0.1181,0.5137,-0.3136,-25.37,-30.5,22.94,353.69,-85.45,-138.46
31622,52.20703,-0.934178,133.28,24.21,12,117.43,19 / 21,3162211,2020-01-08 11:08:28:885,1.8866,3.522,9.6641,0.0114,-0.0877,9.8062,-0.0245,0.3027,-0.2678,-25.5,-32.81,20.69,349.56,-85.07,-139.54
31623,52.20703,-0.934178,133.28,24.21,12,117.43,19 / 21,3162311,2020-01-08 11:08:28:985,-2.1439,-3.9842,9.9838,-0.0036,0.0298,9.8065,0.0647,-0.3394,0.2294,-23.69,-37.5,19.81,346.59,-85.36,-141.9
31624,52.206062,-0.931288,132.28,25.91,8,119.63,19 / 21,3162411,2020-01-08 11:08:29:085,-1.1742,-2.4305,9.7623,-0.0376,-0.0457,9.8065,0.0008,-0.5056,0.2572,-23.37,-41.94,22.19,352.58,-85.36,-140.33
31625,52.206062,-0.931288,132.28,25.91,8,119.63,19 / 21,3162511,2020-01-08 11:08:29:185,-2.4719,-1.0674,9.6021,0.0032,0.0831,9.8062,0.095,-0.5942,0.2721,-24.0,-39.5,28.38,358.49,-85.93,-140.8
31626,52.206062,-0.931288,132.28,25.91,8,119.63,19 / 21,3162610,2020-01-08 11:08:29:284,-2.2346,-3.1568,11.4746,-0.0193,-0.0713,9.8063,0.1304,-0.558,0.2635,-24.37,-35.37,30.06,2.24,-85.82,-139.26
31627,52.206062,-0.931288,132.28,25.91,8,119.63,19 / 21,3162711,2020-01-08 11:08:29:385,1.6602,2.7586,9.004,0.0148,-0.0893,9.8062,0.0523,0.1512,-0.0187,-25.81,-32.5,28.44,357.93,-85.42,-139.05
31628,52.206062,-0.931288,132.28,25.91,8,119.63,19 / 21,3162811,2020-01-08 11:08:29:485,-0.7551,-2.7801,13.6398,0.0208,-0.0043,9.8066,-0.1672,0.3138,-0.1945,-26.06,-31.75,28.0,358.87,-85.11,-138.17
31629,52.206062,-0.931288,132.28,25.91,8,119.63,19 / 21,3162911,2020-01-08 11:08:29:585,-1.3918,-1.917,11.3882,0.0215,-0.0539,9.8064,-0.2681,0.3867,-0.0803,-26.87,-31.69,26.81,354.21,-84.87,-140.34
31630,52.206062,-0.931288,132.28,25.91,8,119.63,19 / 21,3163011,2020-01-08 11:08:29:685,-0.6547,-1.5497,9.9998,-0.0072,0.0895,9.8062,-0.1792,0.3995,-0.1264,-26.37,-31.25,26.38,354.44,-85.44,-140.17
31631,52.206062,-0.931288,132.28,25.91,8,119.63,19 / 21,3163111,2020-01-08 11:08:29:785,-0.3043,-0.5382,9.1621,0.0158,0.04,9.8065,-0.0373,0.0549,-0.0864,-26.19,-32.31,25.31,352.41,-85.25,-140.89
31632,52.206062,-0.931288,132.28,25.91,8,119.63,20 / 21,3163212,2020-01-08 11:08:29:886,3.8066,3.7492,8.4143,0.0107,0.0386,9.8065,0.0603,-0.2047,0.0941,-26.19,-31.5,25.06,353.59,-85.24,-139.81
31633,52.206062,-0.931288,132.28,25.91,8,119.63,20 / 21,3163311,2020-01-08 11:08:29:985,0.2241,-1.4274,10.1907,0.0421,0.0835,9.8061,0.1108,-0.6446,0.3687,-26.37,-31.5,25.5,352.68,-85.55,-141.82
31634,52.206062,-0.931288,132.28,25.91,8,119.63,20 / 21,3163410,2020-01-08 11:08:30:084,2.6903,2.7793,9.5628,-0.0219,-0.0159,9.8066,0.0893,-0.5399,0.2898,-25.81,-31.25,25.5,355.62,-85.3,-139.06
31635,52.206062,-0.931288,132.28,25.91,8,119.63,20 / 21,3163511,2020-01-08 11:08:30:185,1.1652,0.6213,11.1252,0.0034,0.0161,9.8066,0.1025,-0.3605,0.092,-26.37,-31.31,25.5,353.7,-85.39,-140.85
31636,52.206062,-0.931288,132.28,25.91,8,119.63,20 / 21,3163611,2020-01-08 11:08:30:285,-2.1676,-4.2877,11.1765,-0.0302,-0.0832,9.8062,0.0437,0.0017,0.0655,-26.44,-31.19,25.5,353.29,-85.05,-141.2
31637,52.206062,-0.931288,132.28,25.91,8,119.63,20 / 21,3163710,2020-01-08 11:08:30:384,-2.4732,-2.3012,10.506,-0.0155,-0.053,9.8064,-0.1905,0.316,-0.1895,-26.44,-31.25,26.0,351.76,-85.31,-142.65
31638,52.206062,-0.931288,132.28,25.91,8,119.63,20 / 21,3163811,2020-01-08 11:08:30:485,-1.924,-2.5396,11.4569,-0.0182,-0.0169,9.8065,-0.231,0.4558,-0.1641,-26.12,-31.5,25.44,352.35,-85.17,-140.94
31639,52.206062,-0.931288,132.28,25.91,8,119.63,20 / 21,3163910,2020-01-08 11:08:30:584,0.871,1.0663,8.6101,0.016,-0.0586,9.8064,-0.1854,0.3092,-0.148,-26.37,-31.75,25.56,354.5,-84.97,-140.06
31640,52.206062,-0.931288,132.28,25.91,8,119.63,20 / 21,3164011,2020-01-08 11:08:30:685,1.6178,1.9836,8.9644,-0.0013,0.0431,9.8065,-0.1035,-0.0049,0.0352,-26.5,-31.44,25.75,355.49,-85.29,-139.18
31641,52.206062,-0.931288,132.28,25.91,8,119.63,20 / 21,3164111,2020-01-08 11:08:30:785,-1.2508,-2.5625,11.6257,0.0094,-0.0055,9.8065,0.0119,-0.2701,0.0918,-26.75,-31.94,25.94,355.38,-85.14,-138.19
31642,52.206062,-0.931288,132.28,25.91,8,119.63,20 / 21,3164211,2020-01-08 11:08:30:885,1.2079,1.9733,8.6331,-0.0249,0.0511,9.8065,0.0343,-0.4664,0.2765,-26.81,-31.06,25.63,354.42,-84.96,-139.07
31643,52.206062,-0.931288,132.28,25.91,8,119.63,19 / 21,3164311,2020-01-08 11:08:30:985,-1.3918,-1.5515,11.0151,0.0298,0.0676,9.8064,0.0834,-0.5646,0.3018,-25.69,-31.37,25.25,354.23,-85.29,-139.22
31644,52.206062,-0.931288,132.28,25.91,8,119.63,19 / 21,3164411,2020-01-08 11:08:31:085,3.5113,4.0576,9.1639,-0.0417,0.0154,9.8065,0.0087,-0.3103,0.0976,-26.75,-31.62,25.25,353.11,-85.14,-139.15
31645,52.206062,-0.931288,132.28,25.91,8,119.63,19 / 21,3164511,2020-01-08 11:08:31:185,-2.1108,-1.263,8.6008,0.0382,0.0415,9.8064,-0.132,-0.1782,0.0174,-26.31,-31.12,25.56,356.26,-85.45,-138.47
31646,52.206062,-0.931288,132.28,25.91,8,119.63,19 / 21,3164611,2020-01-08 11:08:31:285,-2.9481,-2.5947,11.1034,-0.0062,-0.0583,9.8065,-0.1452,0.269,-0.1064,-26.5,-31.12,25.19,357.16,-85.37,-136.51
31647,52.206062,-0.931288,132.28,25.91,8,119.63,19 / 21,3164711,2020-01-08 11:08:31:385,-0.1161,0.385,9.7841,0.0289,-0.0131,9.8065,-0.1108,0.5018,-0.1766,-26.56,-31.12,25.06,353.64,-85.53,-138.72
31648,52.206062,-0.931288,132.28,25.91,8,119.63,19 / 21,3164811,2020-01-08 11:08:31:485,-1.6329,-3.1987,11.6267,0.0001,-0.0351,9.8065,-0.1796,0.2462,-0.1863,-26.25,-31.44,25.5,354.48,-85.31,-140.12
31649,52.206062,-0.931288,132.28,25.91,8,119.63,19 / 21,3164910,2020-01-08 11:08:31:584,1.2982,2.5673,9.2665,0.0089,-0.0552,9.8065,-0.2009,0.1115,-0.0282,-26.25,-31.06,25.25,352.48,-85.3,-140.85
31650,52.206062,-0.931288,132.28,25.91,8,119.63,19 / 21,3165010,2020-01-08 11:08:31:684,-2.207,-2.1223,10.5984,0.0339,0.0199,9.8065,-0.1086,-0.2048,0.1851,-26.31,-31.19,26.5,355.75,-85.28,-140.03
31651,52.206062,-0.931288,132.28,25.91,8,119.63,19 / 21,3165110,2020-01-08 11:08:31:784,-2.0191,0.5511,8.1295,0.0323,-0.0398,9.8064,-0.0838,-0.3075,0.1698,-26.44,-30.5,26.06,353.55,-85.21,-140.99
31652,52.206062,-0.931288,132.28,25.91,8,119.63,19 / 21,3165211,2020-01-08 11:08:31:885,1.6958,2.6103,9.9376,0.0189,0.0405,9.8065,0.0908,-0.4536,0.1617,-26.94,-31.19,25.81,353.13,-85.27,-140.3
31653,52.206062,-0.931288,132.28,25.91,8,119.63,19 / 20,3165311,2020-01-08 11:08:31:985,-2.0404,-2.5687,12.073,0.0606,0.0388,9.8063,0.1429,-0.3311,0.2816,-26.12,-31.06,25.88,350.05,-85.45,-144.26
31654,52.206062,-0.931288,132.28,25.91,8,119.63,19 / 20,3165411,2020-01-08 11:08:32:085,1.0607,-0.7461,10.4493,0.0073,0.0365,9.8065,0.0466,-0.1259,0.031,-26.56,-30.44,25.38,346.26,-85.42,-145.61
31655,52.206062,-0.931288,132.28,25.91,8,119.63,19 / 20,3165511,2020-01-08 11:08:32:185,-2.5751,-2.1388,10.624,0.0002,0.0402,9.8065,-0.1637,-0.039,-0.0687,-26.5,-30.56,25.25,347.1,-85.18,-145.81
31656,52.206062,-0.931288,132.28,25.91,8,119.63,19 / 20,3165611,2020-01-08 11:08:32:285,2.2119,0.8605,9.743,0.031,-0.0219,9.8065,-0.2072,0.2505,-0.0018,-26.25,-31.06,26.19,349.74,-85.36,-144.53
31657,52.206062,-0.931288,132.28,25.91,8,119.63,19 / 20,3165710,2020-01-08 11:08:32:384,0.1511,0.3357,8.1057,0.0275,0.003,9.8066,-0.1512,0.1394,0.0055,-26.25,-30.44,26.0,351.67,-85.46,-142.77
31658,52.206062,-0.931288,132.28,25.91,8,119.63,19 / 20,3165810,2020-01-08 11:08:32:484,0.2221,-0.0773,10.1998,0.0379,-0.0145,9.8065,-0.0452,0.0381,-0.0689,-26.5,-30.62,26.44,350.59,-85.53,-143.77
31659,52.206062,-0.931288,132.28,25.91,8,119.63,19 / 20,3165911,2020-01-08 11:08:32:585,-0.1024,-0.2114,8.6963,0.0456,-0.0235,9.8064,0.0981,0.0077,-0.063,-25.62,-29.94,26.44,344.61,-85.39,-149.34
31660,52.206062,-0.931288,132.28,25.91,8,119.63,19 / 20,3166011,2020-01-08 11:08:32:685,1.5314,0.3541,11.4872,-0.0276,0.0042,9.8065,0.2534,-0.0542,-0.0644,-26.19,-30.5,26.19,343.57,-85.26,-150.29
31661,52.206062,-0.931288,132.28,25.91,8,119.63,19 / 20,3166110,2020-01-08 11:08:32:784,1.109,-1.3488,11.5418,0.0256,-0.0057,9.8065,0.2612,0.0819,-0.0216,-26.25,-30.12,26.38,345.28,-85.15,-148.66
31662,52.206062,-0.931288,132.28,25.91,8,119.63,20 / 21,3166214,2020-01-08 11:08:32:888,2.3461,1.2452,8.4408,-0.0488,0.0141,9.8064,0.0082,0.2853,-0.2555,-25.75,-30.56,26.0,346.33,-85.2,-147.67
31663,52.206062,-0.931288,132.28,25.91,8,119.63,20 / 21,3166311,2020-01-08 11:08:32:985,0.4018,-1.3204,10.2789,-0.0088,0.05,9.8065,-0.0683,0.3462,-0.1359,-26.0,-30.5,26.44,349.23,-85.43,-145.04
31664,52.206062,-0.931288,132.28,25.91,8,119.63,20 / 21,3166410,2020-01-08 11:08:33:084,-2.652,-2.8081,9.2488,-0.0492,-0.0431,9.8063,-0.0046,0.4817,-0.3683,-25.06,-30.56,26.19,351.84,-85.22,-143.67
31665,52.206062,-0.931288,132.28,25.91,8,119.63,20 / 21,3166511,2020-01-08 11:08:33:185,-0.5881,-2.0068,10.3202,-0.0118,0.0161,9.8066,-0.0915,0.2291,-0.305,-25.62,-30.81,25.63,348.94,-85.47,-145.3
31666,52.206062,-0.931288,132.28,25.91,8,119.63,20 / 21,3166610,2020-01-08 11:08:33:284,-1.0887,-3.1552,12.7059,0.0041,-0.0687,9.8063,0.1519,-0.0003,0.1153,-25.81,-30.81,25.5,352.79,-84.94,-141.65
31667,52.206062,-0.931288,132.28,25.91,8,119.63,20 / 21,3166711,2020-01-08 11:08:33:385,0.4743,1.3549,8.5611,0.0413,-0.0727,9.8062,0.2065,-0.0978,-0.0485,-25.69,-31.25,25.25,350.21,-84.89,-142.88
31668,52.206062,-0.931288,132.28,25.91,8,119.63,20 / 21,3166811,2020-01-08 11:08:33:485,-1.2117,-2.2594,11.3396,0.0293,-0.0014,9.8066,0.1963,-0.2668,0.0683,-25.31,-30.75,26.13,354.21,-85.25,-141.49
31669,52.206062,-0.931288,132.28,25.91,8,119.63,20 / 21,3166911,2020-01-08 11:08:33:585,0.8528,2.5769,8.7664,0.0233,-0.0525,9.8064,0.2116,-0.4382,0.1768,-25.81,-30.94,25.19,350.49,-85.26,-142.68
31670,52.206062,-0.931288,132.28,25.91,8,119.63,20 / 21,3167011,2020-01-08 11:08:33:685,0.2099,-0.2833,9.1967,-0.0207,0.0452,9.8064,0.0151,-0.2274,0.1246,-25.81,-31.37,25.94,352.55,-85.54,-141.94
31671,52.206062,-0.931288,132.28,25.91,8,119.63,20 / 21,3167111,2020-01-08 11:08:33:785,-1.9774,-2.6834,12.3023,-0.0188,0.0047,9.8065,-0.0844,0.1361,-0.0245,-26.31,-31.0,26.06,353.18,-85.33,-141.33
31672,52.206062,-0.931288,132.28,25.91,8,119.63,20 / 21,3167210,2020-01-08 11:08:33:884,1.0607,0.4502,10.7003,0.0009,0.0207,9.8066,-0.031,0.2704,-0.0998,-25.94,-31.25,25.56,353.34,-85.08,-141.16
31673,52.206062,-0.931288,132.28,25.91,8,119.63,20 / 20,3167310,2020-01-08 11:08:33:984,-2.0864,-1.9364,10.8288,0.0189,0.0342,9.8066,-0.1219,0.3039,-0.2748,-26.12,-30.81,26.25,350.9,-85.13,-143.42
31674,52.206062,-0.931288,132.28,25.91,8,119.63,20 / 20,3167410,2020-01-08 11:08:34:084,0.9692,1.1396,9.5826,0.0191,0.027,9.8066,-0.1063,0.2724,-0.2805,-26.44,-31.25,26.13,351.48,-85.2,-142.89
31675,52.206062,-0.931288,132.28,25.91,8,119.63,20 / 20,3167511,2020-01-08 11:08:34:185,-1.2951,-2.0133,11.6051,-0.0147,0.0403,9.8065,-0.0742,0.1246,-0.0097,-25.44,-30.62,25.44,353.39,-85.47,-141.14
31676,52.206062,-0.931288,132.28,25.91,8,119.63,20 / 20,3167611,2020-01-08 11:08:34:285,-1.4256,-1.006,9.5662,0.0315,-0.0506,9.8064,-0.0398,-0.1145,0.0362,-25.75,-31.81,25.06,350.63,-85.27,-142.53
31677,52.206062,-0.931288,132.28,25.91,8,119.63,20 / 20,3167711,2020-01-08 11:08:34:385,0.0282,1.0412,9.2522,-0.017,-0.0088,9.8066,0.0332,-0.2796,0.1797,-26.0,-31.31,25.69,352.68,-85.32,-141.79
31678,52.206062,-0.931288,132.28,25.91,8,119.63,20 / 20,3167811,2020-01-08 11:08:34:485,-2.2269,-1.5889,11.3854,-0.0152,-0.048,9.8065,0.0641,-0.3859,0.3677,-25.81,-31.31,25.56,354.21,-85.0,-140.35
31679,52.206062,-0.931288,132.28,25.91,8,119.63,20 / 20,3167911,2020-01-08 11:08:34:585,1.1341,1.3784,9.1867,-0.0251,-0.0627,9.8063,0.0679,-0.2288,0.1018,-26.19,-31.31,25.88,354.58,-84.95,-140.0
31680,52.206062,-0.931288,132.28,25.91,8,119.63,20 / 20,3168011,2020-01-08 11:08:34:685,0.255,0.5775,9.9432,0.0093,0.0156,9.8066,0.0268,-0.1157,-0.0203,-25.69,-31.31,26.0,353.88,-84.92,-140.64
31681,52.206062,-0.931288,132.28,25.91,8,119.63,20 / 20,3168111,2020-01-08 11:08:34:785,-0.6825,0.3327,8.8929,0.0011,-0.0231,9.8066,-0.0494,0.2064,-0.1168,-26.0,-31.56,26.06,353.58,-84.95,-140.91
31682,52.206062,-0.931288,132.28,25.91,8,119.63,20 / 20,3168210,2020-01-08 11:08:34:884,0.3268,1.3985,9.2942,0.0158,0.054,9.8065,-0.0614,0.3009,-0.2006,-26.25,-31.31,25.88,354.12,-85.11,-140.44
31683,52.206062,-0.931288,132.28,25.91,8,119.63,19 / 20,3168311,2020-01-08 11:08:34:985,-1.7438,-1.7222,11.3821,-0.0055,0.0107,9.8066,-0.1503,0.2912,-0.1002,-25.94,-31.69,26.31,353.63,-85.25,-140.89
31684,52.206062,-0.931288,132.28,25.91,8,119.63,19 / 20,3168411,2020-01-08 11:08:35:085,0.47,0.6906,9.2103,-0.0053,0.0172,9.8066,-0.1401,0.2321,-0.0667,-26.5,-31.25,26.81,354.62,-85.11,-141.06
31685,52.206062,-0.931288,132.28,25.91,8,119.63,19 / 20,3168518,2020-01-08 11:08:35:192,-2.0373,-1.5628,10.9844,-0.0214,0.0481,9.8064,-0.0403,0.0013,-0.0012,-25.94,-31.62,26.38,354.56,-85.15,-140.02
31686,52.206062,-0.931288,132.28,25.91,8,119.63,19 / 20,3168611,2020-01-08 11:08:35:285,1.2599,2.1524,9.2784,0.0032,-0.0201,9.8066,0.0508,-0.1149,0.0834,-26.12,-32.06,26.56,354.6,-85.17,-141.07
31687,52.206062,-0.931288,132.28,25.91,8,119.63,19 / 20,3168711,2020-01-08 11:08:35:385,-0.8232,1.3681,8.7038,0.0212,0.0133,9.8066,0.0845,-0.281,0.0545,-26.06,-30.81,26.31,351.75,-85.14,-142.63
31688,52.206062,-0.931288,132.28,25.91,8,119.63,19 / 20,3168811,2020-01-08 11:08:35:485,-1.661,-1.2257,10.1878,-0.0174,-0.0268,9.8066,-0.0074,-0.1731,0.1371,-26.19,-31.56,26.06,352.59,-85.2,-141.84
31689,52.206062,-0.931288,132.28,25.91,8,119.63,19 / 20,3168911,2020-01-08 11:08:35:585,-2.4674,0.4835,8.2141,0.0046,-0.0109,9.8065,-0.2222,-0.1432,0.1173,-25.87,-31.31,26.63,354.87,-85.17,-140.84
31690,52.206062,-0.931288,132.28,25.91,8,119.63,19 / 20,3169011,2020-01-08 11:08:35:685,-0.1764,-0.9225,10.3272,-0.0424,0.0061,9.8065,-0.2033,-0.098,0.1238,-26.56,-31.31,26.5,353.2,-85.19,-141.31
31691,52.206062,-0.931288,132.28,25.91,8,119.63,19 / 20,3169110,2020-01-08 11:08:35:784,0.4054,-0.5617,11.1511,0.006,-0.0056,9.8066,-0.0951,-0.0854,-0.0218,-25.87,-31.44,25.88,354.24,-85.2,-140.33
31692,52.206062,-0.931288,132.28,25.91,8,119.63,19 / 19,3169211,2020-01-08 11:08:35:885,-0.9762,-0.5686,11.4529,-0.0046,-0.0234,9.8066,0.0443,-0.0534,0.1176,-26.06,-31.5,26.5,352.87,-85.15,-142.69
31693,52.206062,-0.931288,132.28,25.91,8,119.63,19 / 19,3169311,2020-01-08 11:08:35:985,-1.4023,-0.2163,9.3482,0.052,0.0158,9.8064,0.019,0.0815,-0.0428,-26.75,-32.06,26.44,348.2,-84.98,-144.8
31694,52.206062,-0.931288,132.28,25.91,8,119.63,19 / 19,3169410,2020-01-08 11:08:36:084,-0.1369,1.6087,8.7843,0.0307,0.0242,9.8065,0.0524,0.028,-0.1237,-26.06,-31.81,26.56,355.0,-84.95,-140.69
31695,52.206062,-0.931288,132.28,25.91,8,119.63,19 / 19,3169511,2020-01-08 11:08:36:185,-0.0392,0.482,8.6038,0.0061,-0.0015,9.8065,0.0368,-0.0847,0.0213,-26.44,-31.87,26.5,354.91,-85.11,-140.78
31696,52.206062,-0.931288,132.28,25.91,8,119.63,19 / 19,3169611,2020-01-08 11:08:36:285,0.6296,-0.0108,10.3006,0.0258,-0.04,9.8064,0.0859,-0.0597,0.0855,-25.56,-31.31,26.0,352.28,-85.2,-142.15
31697,52.206062,-0.931288,132.28,25.91,8,119.63,19 / 19,3169711,2020-01-08 11:08:36:385,1.2318,1.3497,8.7906,0.0238,-0.0333,9.8065,-0.1036,0.0725,-0.0741,-25.69,-31.5,26.56,351.98,-84.93,-143.49
31698,52.206062,-0.931288,132.28,25.91,8,119.63,19 / 19,3169811,2020-01-08 11:08:36:485,-0.212,-0.8356,10.8002,-0.01,0.0036,9.8066,-0.1576,0.2663,-0.0423,-25.75,-31.0,26.81,352.32,-84.97,-143.18
31699,52.206062,-0.931288,132.28,25.91,8,119.63,19 / 19,3169911,2020-01-08 11:08:36:585,-1.2454,-1.6435,11.9212,0.0001,-0.0054,9.8066,-0.0151,0.1618,-0.1109,-25.94,-31.25,26.25,352.88,-84.92,-141.56
31700,52.206062,-0.931288,132.28,25.91,8,119.63,19 / 19,3170011,2020-01-08 11:08:36:685,-0.0394,-0.8027,9.4602,-0.0247,0.0577,9.8064,0.0798,0.1033,-0.1368,-25.62,-31.94,26.75,355.06,-85.14,-140.65
31701,52.206062,-0.931288,132.28,25.91,8,119.63,19 / 19,3170111,2020-01-08 11:08:36:785,-1.7956,-2.9713,10.366,-0.0165,0.0399,9.8065,0.1023,-0.3035,0.1645,-26.0,-30.69,26.13,352.48,-85.1,-141.96
31702,52.206062,-0.931288,132.28,25.91,8,119.63,19 / 19,3170212,2020-01-08 11:08:36:886,-0.4762,-0.6227,10.7771,0.0163,-0.0176,9.8066,0.1021,-0.401,0.2533,-25.94,-31.37,26.81,353.59,-85.17,-142.02
31703,52.206062,-0.931288,132.28,25.91,8,119.63,20 / 20,3170311,2020-01-08 11:08:36:985,-0.0701,-1.4322,10.5872,0.0273,0.017,9.8065,-0.0063,-0.1132,0.0307,-26.06,-31.25,26.44,350.14,-85.14,-144.13
31704,52.206062,-0.931288,132.28,25.91,8,119.63,20 / 20,3170411,2020-01-08 11:08:37:085,-1.0371,-1.2108,10.0435,-0.015,-0.0358,9.8065,0.0519,0.2205,-0.1125,-26.0,-31.31,26.44,349.51,-85.19,-144.72
31705,52.206062,-0.931288,132.28,25.91,8,119.63,20 / 20,3170511,2020-01-08 11:08:37:185,4.731,1.6667,11.0054,-0.0432,-0.0266,9.8064,0.0162,0.366,-0.3145,-25.44,-31.5,26.25,352.99,-84.99,-142.58
31706,52.206062,-0.931288,132.28,25.91,8,119.63,20 / 20,3170610,2020-01-08 11:08:37:284,0.6387,-0.2334,10.5868,-0.0882,-0.0141,9.8062,-0.0103,0.2348,-0.0596,-25.62,-30.62,26.38,354.98,-85.0,-139.64
31707,52.206062,-0.931288,132.28,25.91,8,119.63,20 / 20,3170711,2020-01-08 11:08:37:385,1.566,-0.9754,11.1291,-0.0046,0.013,9.8066,0.0886,0.1669,0.0464,-26.0,-31.37,26.75,352.07,-85.14,-143.43
31708,52.206062,-0.931288,132.28,25.91,8,119.63,20 / 20,3170811,2020-01-08 11:08:37:485,0.9133,0.9288,8.4191,-0.003,0.0409,9.8066,0.2369,0.0389,-0.1124,-26.06,-31.56,27.06,351.72,-85.02,-143.72
31709,52.206062,-0.931288,132.28,25.91,8,119.63,20 / 20,3170911,2020-01-08 11:08:37:585,0.4285,0.6585,10.2591,0.0452,-0.0026,9.8064,0.1682,0.0696,-0.1668,-25.37,-31.44,26.38,352.8,-85.2,-142.78
31710,52.206062,-0.931288,132.28,25.91,8,119.63,20 / 20,3171011,2020-01-08 11:08:37:685,0.3202,0.9087,8.096,0.0158,-0.0144,9.8065,-0.0097,0.0832,0.0183,-25.0,-31.81,26.06,351.19,-85.04,-144.23
31711,52.206062,-0.931288,132.28,25.91,8,119.63,20 / 20,3171111,2020-01-08 11:08:37:785,0.5471,1.0458,9.3132,-0.0124,0.0026,9.8066,-0.146,0.2073,0.053,-25.94,-31.75,26.25,351.85,-85.15,-142.52
31712,52.206062,-0.931288,132.28,25.91,8,119.63,20 / 20,3171211,2020-01-08 11:08:37:885,-0.1482,-1.193,11.7775,0.0413,-0.0418,9.8064,-0.17,0.2286,-0.1281,-26.37,-31.62,27.0,355.41,-85.18,-140.33
31713,52.205,-0.928379,130.77,25.55,8,122.57,20 / 20,3171311,2020-01-08 11:08:37:985,-0.3907,-1.0321,9.105,0.0062,-0.0483,9.8064,-0.1325,0.1324,-0.035,-26.56,-31.37,26.13,351.11,-84.9,-142.12
31714,52.205,-0.928379,130.77,25.55,8,122.57,20 / 20,3171411,2020-01-08 11:08:38:085,-1.6255,-1.4267,10.7454,0.022,0.0253,9.8066,-0.0516,-0.1513,0.0639,-25.81,-31.62,26.5,354.99,-85.04,-140.7
31715,52.205,-0.928379,130.77,25.55,8,122.57,20 / 20,3171511,2020-01-08 11:08:38:185,1.6984,0.6371,9.752,0.0161,-0.0136,9.8066,0.0622,-0.2668,0.1101,-25.25,-31.75,25.88,353.47,-85.12,-142.14
31716,52.205,-0.928379,130.77,25.55,8,122.57,20 / 20,3171611,2020-01-08 11:08:38:285,2.9243,2.0685,9.1608,0.0154,0.045,9.8065,0.0713,-0.4856,0.271,-25.37,-31.37,26.13,352.29,-84.97,-143.22
31717,52.205,-0.928379,130.77,25.55,8,122.57,20 / 20,3171711,2020-01-08 11:08:38:385,-1.9301,-2.3181,10.9233,-0.0023,0.0606,9.8064,0.085,-0.4105,0.3192,-25.75,-31.0,26.44,351.2,-85.17,-143.14
31718,52.205,-0.928379,130.77,25.55,8,122.57,20 / 20,3171810,2020-01-08 11:08:38:484,2.0217,2.1788,8.6902,0.0093,-0.007,9.8066,-0.0575,0.1027,-0.0635,-25.44,-31.12,26.75,355.5,-84.97,-141.35
31719,52.205,-0.928379,130.77,25.55,8,122.57,20 / 20,3171910,2020-01-08 11:08:38:584,-0.7174,-0.147,9.2194,0.008,0.0289,9.8065,-0.1872,0.3043,-0.2317,-25.87,-31.12,26.81,353.52,-85.11,-142.08
31720,52.205,-0.928379,130.77,25.55,8,122.57,20 / 20,3172011,2020-01-08 11:08:38:685,-3.2783,-1.6592,10.3635,-0.0116,-0.0477,9.8064,-0.0258,0.438,-0.1826,-25.87,-31.19,26.38,352.66,-85.3,-141.81
31721,52.205,-0.928379,130.77,25.55,8,122.57,20 / 20,3172111,2020-01-08 11:08:38:785,0.0426,1.7035,8.9924,-0.0128,-0.0355,9.8065,0.0567,0.2906,-0.1458,-25.62,-30.94,26.25,354.41,-85.07,-140.17
31722,52.205,-0.928379,130.77,25.55,8,122.57,19 / 20,3172211,2020-01-08 11:08:38:885,-2.4124,-1.5676,10.4686,-0.0488,-0.011,9.8065,0.0692,-0.0062,-0.0267,-25.87,-30.87,27.31,359.51,-85.19,-136.53
31723,52.205,-0.928379,130.77,25.55,8,122.57,19 / 20,3172311,2020-01-08 11:08:38:985,0.001,0.3506,9.9607,-0.0314,-0.0356,9.8064,0.084,-0.2447,0.0438,-26.19,-32.12,26.88,359.82,-85.11,-136.25
31724,52.205,-0.928379,130.77,25.55,8,122.57,19 / 20,3172410,2020-01-08 11:08:39:084,0.4179,0.7243,9.5915,-0.0059,0.0346,9.8065,0.0707,-0.1573,0.1179,-26.25,-31.25,27.13,358.9,-84.98,-137.1
31725,52.205,-0.928379,130.77,25.55,8,122.57,19 / 20,3172511,2020-01-08 11:08:39:185,0.1456,-0.9871,10.9198,-0.0135,0.0192,9.8065,0.0146,-0.1018,0.0864,-26.12,-30.81,26.88,359.58,-85.12,-136.47
31726,52.205,-0.928379,130.77,25.55,8,122.57,19 / 20,3172611,2020-01-08 11:08:39:285,-1.0599,0.6925,8.6137,-0.0102,0.0088,9.8066,-0.0261,0.0852,-0.0503,-26.06,-31.06,26.69,357.89,-85.1,-138.03
31727,52.205,-0.928379,130.77,25.55,8,122.57,19 / 20,3172711,2020-01-08 11:08:39:385,0.4924,1.7404,9.561,-0.0352,0.0206,9.8066,-0.0393,0.1506,-0.0305,-25.44,-31.56,27.06,0.09,-85.19,-137.12
31728,52.205,-0.928379,130.77,25.55,8,122.57,19 / 20,3172811,2020-01-08 11:08:39:485,-1.1428,-1.1011,10.2248,-0.0177,-0.042,9.8064,-0.0018,0.1498,-0.1159,-25.81,-30.94,26.44,356.45,-85.34,-138.3
31729,52.205,-0.928379,130.77,25.55,8,122.57,19 / 20,3172910,2020-01-08 11:08:39:584,0.1241,1.2006,9.1156,0.0065,-0.0272,9.8065,0.0353,-0.0752,-0.0797,-26.25,-31.19,25.94,356.93,-85.22,-137.84
31730,52.205,-0.928379,130.77,25.55,8,122.57,19 / 20,3173011,2020-01-08 11:08:39:685,-0.1575,-0.9198,11.1579,0.0224,0.0097,9.8065,0.1267,-0.2084,0.1556,-26.44,-31.44,26.69,359.27,-85.23,-136.76
31731,52.205,-0.928379,130.77,25.55,8,122.57,19 / 20,3173111,2020-01-08 11:08:39:785,-1.133,-0.9994,10.8567,-0.0057,-0.0254,9.8066,0.0443,-0.101,0.1286,-25.69,-31.62,26.63,358.5,-85.15,-137.46
31732,52.205,-0.928379,130.77,25.55,8,122.57,19 / 20,3173210,2020-01-08 11:08:39:884,1.6236,1.9294,8.8636,-0.0083,0.0347,9.8065,-0.1072,0.0459,-0.087,-26.06,-31.5,27.25,357.05,-85.12,-138.81
31733,52.205,-0.928379,130.77,25.55,8,122.57,19 / 19,3173311,2020-01-08 11:08:39:985,-1.108,-1.0215,10.3592,-0.0132,0.061,9.8064,-0.1694,0.1442,-0.0686,-25.69,-31.19,27.0,359.37,-85.33,-136.67
31734,52.205,-0.928379,130.77,25.55,8,122.57,19 / 19,3173411,2020-01-08 11:08:40:085,-1.8835,-0.2993,9.177,-0.0061,-0.039,9.8065,-0.1923,0.1766,0.0709,-26.31,-31.5,26.25,359.7,-85.37,-135.28
31735,52.205,-0.928379,130.77,25.55,8,122.57,19 / 19,3173510,2020-01-08 11:08:40:184,1.6102,1.0518,9.7083,-0.0222,-0.0119,9.8066,-0.0933,-0.0681,-0.002,-25.5,-30.81,26.56,2.6,-85.29,-134.79
31736,52.205,-0.928379,130.77,25.55,8,122.57,19 / 19,3173611,2020-01-08 11:08:40:285,-2.0937,-1.1261,9.8518,0.0171,-0.0084,9.8065,-0.0201,-0.2273,0.1431,-26.0,-31.69,27.06,358.48,-85.12,-137.48
31737,52.205,-0.928379,130.77,25.55,8,122.57,19 / 19,3173711,2020-01-08 11:08:40:385,2.1771,1.2861,9.9691,-0.0348,-0.0149,9.8065,-0.0692,-0.2069,0.1925,-25.44,-30.94,27.0,0.55,-85.2,-136.69
31738,52.205,-0.928379,130.77,25.55,8,122.57,19 / 19,3173811,2020-01-08 11:08:40:485,-0.9287,0.9162,8.512,-0.0305,0.0216,9.8065,-0.2181,-0.0832,0.1179,-25.81,-30.5,26.44,356.84,-85.31,-137.93
31739,52.205,-0.928379,130.77,25.55,8,122.57,19 / 19,3173911,2020-01-08 11:08:40:585,2.0976,1.3133,11.6766,0.0107,0.0022,9.8066,-0.2209,-0.2522,0.2005,-25.62,-30.81,26.69,355.45,-85.3,-140.3
31740,52.205,-0.928379,130.77,25.55,8,122.57,19 / 19,3174010,2020-01-08 11:08:40:684,-3.5932,-1.2465,8.6675,0.0808,-0.006,9.8063,-0.2041,-0.266,0.2898,-25.94,-30.31,26.75,354.02,-85.27,-141.64
31741,52.205,-0.928379,130.77,25.55,8,122.57,19 / 19,3174111,2020-01-08 11:08:40:785,1.0576,1.7069,9.7079,0.0164,0.0322,9.8065,-0.1271,-0.355,0.2299,-25.75,-30.56,26.56,357.26,-85.18,-138.62
31742,52.205,-0.928379,130.77,25.55,8,122.57,18 / 19,3174211,2020-01-08 11:08:40:885,1.4028,1.6491,10.3571,0.0352,0.0187,9.8065,-0.0291,-0.3643,0.1433,-25.69,-30.25,27.19,357.19,-85.35,-138.7
31743,52.205,-0.928379,130.77,25.55,8,122.57,18 / 19,3174311,2020-01-08 11:08:40:985,2.6495,2.39,9.2033,-0.0217,-0.0212,9.8065,-0.0272,-0.0702,0.0951,-25.69,-30.5,26.94,357.95,-85.41,-137.99
31744,52.205,-0.928379,130.77,25.55,8,122.57,18 / 19,3174410,2020-01-08 11:08:41:084,-0.8239,0.3961,8.3396,0.0259,0.0153,9.8066,-0.1107,0.0098,0.0277,-25.87,-29.5,27.5,359.16,-85.34,-137.91
31745,52.205,-0.928379,130.77,25.55,8,122.57,18 / 19,3174511,2020-01-08 11:08:41:185,-1.0255,-0.4016,11.4359,0.011,-0.0335,9.8065,-0.2419,0.0776,0.0063,-25.69,-30.94,27.63,0.15,-85.2,-136.99
31746,52.205,-0.928379,130.77,25.55,8,122.57,18 / 19,3174611,2020-01-08 11:08:41:285,-0.0293,0.4428,8.7626,0.0662,-0.0288,9.8064,-0.2119,-0.0517,0.0218,-25.56,-30.44,27.0,356.46,-85.23,-139.37
31747,52.205,-0.928379,130.77,25.55,8,122.57,18 / 19,3174710,2020-01-08 11:08:41:384,2.1539,0.1779,11.8284,-0.0039,0.011,9.8066,-0.063,-0.2615,0.1624,-25.81,-30.62,26.56,357.19,-85.2,-138.68
31748,52.205,-0.928379,130.77,25.55,8,122.57,18 / 19,3174811,2020-01-08 11:08:41:485,2.7752,2.2551,10.8594,0.0697,0.0193,9.8063,-0.019,-0.2462,0.1272,-25.5,-30.62,27.06,1.67,-85.14,-135.66
31749,52.205,-0.928379,130.77,25.55,8,122.57,18 / 19,3174910,2020-01-08 11:08:41:584,1.8021,0.6188,10.7156,0.0191,-0.0025,9.8066,-0.1547,0.0183,0.0727,-25.69,-30.31,26.88,358.29,-85.37,-137.67
31750,52.205,-0.928379,130.77,25.55,8,122.57,18 / 19,3175011,2020-01-08 11:08:41:685,-0.8235,0.2759,8.7625,0.0132,0.0188,9.8066,-0.0824,0.0805,-0.0103,-25.06,-30.69,26.56,1.8,-85.44,-135.53
31751,52.205,-0.928379,130.77,25.55,8,122.57,18 / 19,3175111,2020-01-08 11:08:41:785,0.9265,0.0666,10.5278,-0.0157,-0.0182,9.8066,-0.0229,0.0162,-0.0976,-25.75,-30.56,26.5,359.22,-85.55,-136.81
31752,52.205,-0.928379,130.77,25.55,8,122.57,18 / 19,3175210,2020-01-08 11:08:41:884,-0.9924,-1.0401,10.373,0.019,0.0103,9.8066,0.0841,-0.1126,0.033,-26.12,-30.69,26.56,359.31,-85.49,-136.72
31753,52.205,-0.928379,130.77,25.55,8,122.57,18 / 19,3175311,2020-01-08 11:08:41:985,1.8285,1.3857,10.3158,-0.0152,0.0023,9.8066,0.0647,0.2728,-0.1494,-25.37,-31.25,26.56,3.37,-85.3,-134.07
31754,52.205,-0.928379,130.77,25.55,8,122.57,18 / 19,3175411,2020-01-08 11:08:42:085,0.0856,0.5851,10.061,-0.0115,-0.001,9.8066,0.0646,0.3393,-0.2924,-25.87,-31.19,27.06,0.97,-85.35,-135.18
31755,52.205,-0.928379,130.77,25.55,8,122.57,18 / 19,3175510,2020-01-08 11:08:42:184,-2.6089,-0.9039,9.1046,-0.0569,-0.0158,9.8065,0.095,0.2431,-0.1907,-25.5,-31.5,26.63,0.12,-85.44,-137.09
31756,52.205,-0.928379,130.77,25.55,8,122.57,18 / 19,3175611,2020-01-08 11:08:42:285,0.0103,-0.4828,9.067,0.0019,0.0046,9.8065,0.075,0.1971,-0.1159,-25.44,-31.31,26.69,2.79,-85.4,-134.61
31757,52.205,-0.928379,130.77,25.55,8,122.57,18 / 19,3175711,2020-01-08 11:08:42:385,-0.4978,0.8267,8.5871,-0.0298,0.0092,9.8065,0.1271,0.1647,-0.0465,-25.56,-31.12,27.25,3.1,-85.44,-133.19
31758,52.205,-0.928379,130.77,25.55,8,122.57,18 / 19,3175810,2020-01-08 11:08:42:484,0.1701,1.8945,10.2074,-0.0337,-0.0095,9.8066,0.0604,0.2079,-0.1588,-26.25,-30.87,27.0,2.03,-85.41,-134.19
31759,52.205,-0.928379,130.77,25.55,8,122.57,18 / 19,3175911,2020-01-08 11:08:42:585,-0.5404,0.3873,8.5466,-0.0439,-0.016,9.8065,-0.0976,0.1334,-0.0503,-25.44,-31.31,26.94,1.1,-85.37,-136.18
31760,52.205,-0.928379,130.77,25.55,8,122.57,18 / 19,3176011,2020-01-08 11:08:42:685,1.7754,2.0207,10.6886,-0.0477,-0.0033,9.8065,-0.1528,0.0339,0.0446,-25.62,-31.19,27.38,4.23,-85.23,-132.15
31761,52.205,-0.928379,130.77,25.55,8,122.57,18 / 19,3176111,2020-01-08 11:08:42:785,1.3268,-0.7179,10.8921,0.0302,-0.0145,9.8066,-0.0758,-0.2723,0.1615,-25.87,-31.19,26.81,0.42,-85.16,-135.69
31762,52.205,-0.928379,130.77,25.55,8,122.57,18 / 19,3176211,2020-01-08 11:08:42:885,2.1455,1.473,10.2436,-0.0163,-0.0259,9.8066,-0.0838,-0.2666,0.1734,-25.44,-31.0,27.38,2.98,-85.15,-134.45
31763,52.205,-0.928379,130.77,25.55,8,122.57,18 / 19,3176310,2020-01-08 11:08:42:984,-0.1346,0.4413,9.3222,-0.0142,-0.0016,9.8066,-0.1114,-0.2187,0.0593,-26.0,-31.19,26.25,0.89,-85.16,-134.17
31764,52.205,-0.928379,130.77,25.55,8,122.57,18 / 19,3176411,2020-01-08 11:08:43:085,-2.5318,-1.0511,8.5224,-0.058,-0.0049,9.8064,-0.1181,-0.1698,0.1519,-26.0,-31.37,26.94,0.79,-85.28,-135.35
31765,52.205,-0.928379,130.77,25.55,8,122.57,18 / 19,3176511,2020-01-08 11:08:43:185,-1.4953,-0.8367,9.5538,-0.0083,0.0185,9.8065,-0.0442,-0.195,0.0665,-25.5,-31.12,26.69,4.59,-85.4,-132.93
31766,52.205,-0.928379,130.77,25.55,8,122.57,18 / 19,3176610,2020-01-08 11:08:43:284,-1.5769,-0.5123,9.4058,-0.0424,-0.036,9.8065,-0.0093,-0.1989,0.0439,-25.75,-31.75,26.63,1.02,-85.48,-135.14
31767,52.205,-0.928379,130.77,25.55,8,122.57,18 / 19,3176711,2020-01-08 11:08:43:385,0.8436,2.1449,9.7934,-0.0234,0.0064,9.8066,0.0437,0.1918,-0.0222,-25.56,-31.87,26.69,2.77,-85.46,-133.51
31768,52.205,-0.928379,130.77,25.55,8,122.57,18 / 19,3176810,2020-01-08 11:08:43:484,1.0316,-0.7848,10.8564,0.0499,-0.0218,9.8064,0.1011,0.2665,-0.1371,-25.06,-31.12,27.0,4.63,-85.44,-132.9
31769,52.205,-0.928379,130.77,25.55,8,122.57,18 / 19,3176911,2020-01-08 11:08:43:585,0.2952,-0.0832,9.7592,-0.0438,-0.0231,9.8065,0.2173,0.3898,-0.3538,-25.81,-31.62,27.13,2.72,-85.25,-133.56
31770,52.205,-0.928379,130.77,25.55,8,122.57,18 / 19,3177011,2020-01-08 11:08:43:685,-3.1251,-1.5809,9.0637,-0.0003,0.0021,9.8066,0.1602,0.3979,-0.3844,-25.19,-31.87,26.94,1.76,-85.28,-135.58
31771,52.205,-0.928379,130.77,25.55,8,122.57,18 / 19,3177110,2020-01-08 11:08:43:784,3.2745,1.1357,11.0747,-0.0714,-0.0227,9.8064,0.0749,0.3561,-0.2598,-25.44,-31.19,27.0,3.22,-85.26,-134.22
31772,52.205,-0.928379,130.77,25.55,8,122.57,18 / 19,3177212,2020-01-08 11:08:43:886,-2.2556,-1.8988,9.4357,0.0332,0.0112,9.8066,0.0687,0.4021,-0.2684,-25.19,-31.56,27.38,1.11,-85.24,-136.18
31773,52.205,-0.928379,130.77,25.55,8,122.57,18 / 19,3177311,2020-01-08 11:08:43:985,1.2055,0.8662,9.265,-0.0537,-0.0326,9.8064,0.0037,0.1086,-0.2889,-25.31,-30.87,26.88,1.35,-85.13,-135.95
31774,52.205,-0.928379,130.77,25.55,8,122.57,18 / 19,3177410,2020-01-08 11:08:44:084,1.5052,1.8404,9.4102,0.0073,0.0192,9.8066,0.1665,-0.0051,0.2117,-25.12,-31.19,27.38,359.08,-85.41,-138.06
31775,52.205,-0.928379,130.77,25.55,8,122.57,18 / 19,3177511,2020-01-08 11:08:44:185,1.3845,1.7878,10.8709,-0.0031,0.0471,9.8065,0.0578,-0.1045,0.2169,-25.44,-31.25,26.94,0.77,-85.43,-136.48
31776,52.205,-0.928379,130.77,25.55,8,122.57,18 / 19,3177611,2020-01-08 11:08:44:285,1.0912,-0.1583,10.4919,0.0813,0.0045,9.8062,-0.1726,-0.2556,0.0925,-25.19,-31.25,27.81,4.49,-85.25,-134.07
31777,52.205,-0.928379,130.77,25.55,8,122.57,18 / 19,3177711,2020-01-08 11:08:44:385,-4.1539,-1.5863,8.477,0.0224,0.003,9.8066,-0.2037,-0.2987,0.3003,-25.19,-30.69,26.94,0.21,-85.37,-137.01
31778,52.205,-0.928379,130.77,25.55,8,122.57,18 / 19,3177811,2020-01-08 11:08:44:485,-0.7481,-0.1302,9.9467,0.0752,0.0377,9.8062,-0.0134,-0.314,0.2653,-24.87,-31.06,27.38,357.6,-85.5,-139.44
31779,52.205,-0.928379,130.77,25.55,8,122.57,18 / 19,3177911,2020-01-08 11:08:44:585,0.8773,0.0622,10.7656,0.0169,0.0192,9.8066,-0.0493,-0.3146,0.1483,-25.37,-31.56,27.81,1.02,-85.39,-137.29
31780,52.205,-0.928379,130.77,25.55,8,122.57,18 / 19,3178011,2020-01-08 11:08:44:685,2.9188,1.3212,10.7671,0.0665,-0.0164,9.8063,-0.2522,-0.2723,0.1701,-25.0,-30.37,27.75,1.71,-85.49,-136.64
31781,52.205,-0.928379,130.77,25.55,8,122.57,18 / 19,3178111,2020-01-08 11:08:44:785,-1.9007,-0.9173,8.8567,0.0653,0.0193,9.8064,-0.2328,-0.2458,0.2866,-24.69,-31.06,26.75,355.18,-85.55,-141.69
31782,52.205,-0.928379,130.77,25.55,8,122.57,18 / 19,3178211,2020-01-08 11:08:44:885,1.208,0.2652,10.3294,0.0444,0.0145,9.8065,-0.048,-0.2821,0.1911,-24.19,-31.0,26.94,356.34,-85.51,-141.77
31783,52.205,-0.928379,130.77,25.55,8,122.57,18 / 19,3178311,2020-01-08 11:08:44:985,-1.3496,-1.1214,9.5276,0.0286,0.0062,9.8065,0.0251,-0.0895,0.0686,-24.5,-31.25,27.38,357.64,-85.41,-140.56
31784,52.205,-0.928379,130.77,25.55,8,122.57,18 / 19,3178411,2020-01-08 11:08:45:085,0.2779,-0.7289,9.4626,-0.0327,-0.0067,9.8065,0.0406,-0.1019,-0.0282,-23.87,-31.5,28.81,0.22,-85.34,-140.19
31785,52.205,-0.928379,130.77,25.55,8,122.57,18 / 19,3178511,2020-01-08 11:08:45:185,-3.3185,-2.1987,9.0609,0.0393,0.0168,9.8065,-0.0049,-0.0593,0.0625,-23.19,-31.37,28.44,2.89,-85.29,-137.92
31786,52.205,-0.928379,130.77,25.55,8,122.57,18 / 19,3178611,2020-01-08 11:08:45:285,0.335,-0.0286,10.5203,-0.0099,-0.0032,9.8066,0.0454,0.1374,-0.0774,-23.06,-31.81,28.19,6.76,-85.03,-134.38
31787,52.205,-0.928379,130.77,25.55,8,122.57,18 / 19,3178711,2020-01-08 11:08:45:385,0.6756,0.137,9.0616,0.0347,-0.0066,9.8065,-0.0081,0.1931,-0.2271,-22.19,-31.87,29.06,6.85,-85.02,-136.51
31788,52.205,-0.928379,130.77,25.55,8,122.57,18 / 19,3178811,2020-01-08 11:08:45:485,-0.3222,-1.2697,10.8524,0.0087,-0.0245,9.8065,-0.1167,0.1108,-0.0811,-21.12,-32.44,28.31,6.76,-85.09,-136.92
31789,52.205,-0.928379,130.77,25.55,8,122.57,18 / 19,3178911,2020-01-08 11:08:45:585,0.2975,-0.3263,10.4859,0.028,0.0184,9.8065,-0.2055,0.1498,0.0536,-20.69,-32.06,28.06,5.49,-85.06,-138.09
31790,52.205,-0.928379,130.77,25.55,8,122.57,18 / 19,3179010,2020-01-08 11:08:45:684,-0.6217,-0.1862,8.7407,0.0228,-0.0263,9.8066,-0.1961,0.0563,-0.0225,-21.25,-31.44,27.56,7.52,-85.16,-136.19
31791,52.205,-0.928379,130.77,25.55,8,122.57,18 / 19,3179110,2020-01-08 11:08:45:784,1.1339,-0.0616,10.8104,-0.0028,-0.0078,9.8066,-0.1827,-0.1095,-0.0332,-20.81,-32.25,28.0,6.56,-85.22,-137.09
31792,52.205,-0.928379,130.77,25.55,8,122.57,18 / 20,3179210,2020-01-08 11:08:45:884,-2.5202,-1.6544,9.6637,0.053,0.0024,9.8065,-0.0999,-0.0681,0.2797,-21.56,-33.75,27.94,3.19,-85.25,-138.91
31793,52.205,-0.928379,130.77,25.55,8,122.57,18 / 20,3179311,2020-01-08 11:08:45:985,2.0647,1.3267,8.4363,-0.021,-0.0447,9.8065,-0.1285,-0.1167,0.1451,-22.44,-35.0,26.88,3.08,-85.1,-138.03
31794,52.205,-0.928379,130.77,25.55,8,122.57,18 / 20,3179411,2020-01-08 11:08:46:085,0.8919,0.0854,10.4382,0.0179,-0.0019,9.8065,0.135,-0.1688,0.05,-24.31,-35.81,25.94,356.87,-85.18,-140.14
31795,52.205,-0.928379,130.77,25.55,8,122.57,18 / 20,3179510,2020-01-08 11:08:46:184,-1.5937,0.2122,7.9836,0.0589,-0.0398,9.8063,0.2272,-0.0976,-0.0435,-25.69,-34.94,24.56,349.85,-85.04,-143.14
31796,52.205,-0.928379,130.77,25.55,8,122.57,18 / 20,3179611,2020-01-08 11:08:46:285,2.0619,1.501,10.375,-0.0077,0.0296,9.8065,0.1719,-0.0181,-0.1218,-25.75,-33.44,24.88,351.83,-85.34,-141.41
31797,52.205,-0.928379,130.77,25.55,8,122.57,18 / 20,3179711,2020-01-08 11:08:46:385,-0.387,-1.6254,10.9503,0.0306,0.0179,9.8065,0.109,0.0271,0.008,-25.31,-33.06,24.94,353.11,-85.17,-141.33
31798,52.205,-0.928379,130.77,25.55,8,122.57,18 / 20,3179810,2020-01-08 11:08:46:484,1.0099,-0.1184,9.9745,0.0089,0.0291,9.8065,-0.0822,0.1484,-0.0779,-24.0,-31.56,25.88,355.22,-85.11,-141.68
31799,52.205,-0.928379,130.77,25.55,8,122.57,18 / 20,3179911,2020-01-08 11:08:46:585,-1.0405,-0.2723,9.5,0.0083,0.0321,9.8065,-0.0402,0.1825,-0.1236,-24.25,-31.56,26.19,353.82,-85.29,-142.99
31800,52.205,-0.928379,130.77,25.55,8,122.57,18 / 20,3180010,2020-01-08 11:08:46:684,2.0201,1.0822,9.6927,0.0033,-0.0103,9.8066,-0.0266,0.2999,-0.2137,-24.62,-31.87,26.56,355.11,-85.36,-141.73
31801,52.205,-0.928379,130.77,25.55,8,122.57,18 / 20,3180110,2020-01-08 11:08:46:784,0.8815,0.7592,9.3066,0.0383,0.0157,9.8066,0.0322,0.2306,-0.1899,-24.87,-31.31,27.13,354.27,-85.51,-142.54
31802,52.205,-0.928379,130.77,25.55,8,122.57,19 / 20,3180211,2020-01-08 11:08:46:885,-1.5816,0.2389,10.2858,0.0054,-0.0214,9.8066,0.1279,0.2103,-0.1261,-24.75,-30.94,27.06,353.35,-85.5,-143.39
31803,52.205,-0.928379,130.77,25.55,8,122.57,19 / 20,3180311,2020-01-08 11:08:46:985,-1.1279,-0.2843,8.9679,0.0607,-0.0287,9.8063,0.2496,0.1251,-0.1283,-24.31,-31.12,27.56,352.32,-85.27,-146.53
31804,52.20393,-0.925717,129.56,23.64,6,124.75,19 / 20,3180410,2020-01-08 11:08:47:084,2.1725,-0.7169,12.0596,-0.0534,0.01,9.8064,0.2536,0.1423,-0.0678,-24.69,-31.12,28.19,356.83,-85.32,-141.19
31805,52.20393,-0.925717,129.56,23.64,6,124.75,19 / 20,3180510,2020-01-08 11:08:47:184,-2.9579,-2.9839,10.2744,-0.0111,-0.0384,9.8066,0.0597,0.2553,-0.3761,-25.12,-30.37,27.63,359.52,-85.14,-138.69
31806,52.20393,-0.925717,129.56,23.64,6,124.75,19 / 20,3180611,2020-01-08 11:08:47:285,0.8172,-0.2678,8.3774,-0.0777,-0.0527,9.8062,0.14,0.2452,-0.3081,-24.5,-30.69,27.94,4.57,-84.81,-135.2
31807,52.20393,-0.925717,129.56,23.64,6,124.75,19 / 20,3180711,2020-01-08 11:08:47:385,0.2254,-1.7197,8.4525,-0.01,0.017,9.8066,0.227,0.4018,-0.0199,-24.62,-30.12,26.44,358.54,-84.93,-137.47
31808,52.20393,-0.925717,129.56,23.64,6,124.75,19 / 20,3180811,2020-01-08 11:08:47:485,2.0609,1.9431,10.4543,-0.0741,0.031,9.8062,0.2083,0.2461,-0.3258,-25.12,-30.94,26.5,4.52,-85.19,-133.02
31809,52.20393,-0.925717,129.56,23.64,6,124.75,19 / 20,3180911,2020-01-08 11:08:47:585,-3.3305,-0.74,8.8788,-0.009,-0.0262,9.8066,0.2397,0.1627,-0.3203,-24.87,-31.06,27.25,358.71,-85.42,-138.4
31810,52.20393,-0.925717,129.56,23.64,6,124.75,19 / 20,3181011,2020-01-08 11:08:47:685,0.6099,0.1431,11.968,-0.0462,0.0107,9.8065,0.1664,0.11,-0.0221,-25.06,-30.75,27.31,355.92,-85.37,-141.0
31811,52.20393,-0.925717,129.56,23.64,6,124.75,19 / 20,3181115,2020-01-08 11:08:47:789,-1.4494,-1.2328,9.6798,0.0212,0.0067,9.8066,-0.0116,0.0775,-0.079,-24.62,-31.5,27.44,353.26,-85.14,-143.44
31812,52.20393,-0.925717,129.56,23.64,6,124.75,19 / 20,3181211,2020-01-08 11:08:47:885,0.3434,0.1078,9.7722,-0.04,-0.0146,9.8065,-0.0769,-0.0605,-0.0717,-24.12,-30.81,27.38,357.18,-85.17,-140.97
31813,52.20393,-0.925717,129.56,23.64,6,124.75,20 / 20,3181311,2020-01-08 11:08:47:985,-1.1099,-0.5061,8.3201,0.0199,0.0323,9.8066,0.0517,0.0549,0.0838,-25.25,-31.31,28.0,357.95,-85.26,-140.14
31814,52.20393,-0.925717,129.56,23.64,6,124.75,20 / 20,3181411,2020-01-08 11:08:48:085,-0.7747,0.0414,9.9259,-0.0496,-0.0018,9.8064,0.0542,-0.0323,-0.0415,-24.44,-31.5,27.56,0.7,-85.4,-138.75
31815,52.20393,-0.925717,129.56,23.64,6,124.75,20 / 20,3181511,2020-01-08 11:08:48:185,0.1827,-0.394,9.9017,-0.0022,-0.0139,9.8066,0.014,0.0443,-0.0308,-25.56,-31.12,27.56,355.36,-85.39,-141.44
31816,52.20393,-0.925717,129.56,23.64,6,124.75,20 / 20,3181610,2020-01-08 11:08:48:284,-0.789,-0.2552,9.7886,-0.0311,-0.0106,9.8065,-0.0021,-0.01,0.0283,-24.5,-31.37,27.88,359.8,-85.26,-139.58
31817,52.20393,-0.925717,129.56,23.64,6,124.75,20 / 20,3181711,2020-01-08 11:08:48:385,-1.9384,-0.8237,10.1815,0.0038,0.0157,9.8066,-0.0066,-0.111,0.1081,-25.37,-31.62,27.69,359.15,-85.35,-139.03
31818,52.20393,-0.925717,129.56,23.64,6,124.75,20 / 20,3181810,2020-01-08 11:08:48:484,1.3022,-0.0744,11.1168,-0.0254,-0.0031,9.8066,0.0567,-0.11,0.0926,-24.81,-30.87,27.31,359.47,-85.25,-137.69
31819,52.20393,-0.925717,129.56,23.64,6,124.75,20 / 20,3181911,2020-01-08 11:08:48:585,-1.3169,-0.586,8.7479,0.0149,0.0111,9.8066,-0.0458,-0.193,0.0654,-25.19,-31.37,27.88,357.75,-85.24,-140.33
31820,52.20393,-0.925717,129.56,23.64,6,124.75,20 / 20,3182011,2020-01-08 11:08:48:685,0.3916,-0.4228,10.0577,-0.0175,0.0315,9.8065,-0.0632,-0.0943,0.0817,-25.06,-31.31,27.56,358.97,-85.38,-139.2
31821,52.20393,-0.925717,129.56,23.64,6,124.75,20 / 20,3182111,2020-01-08 11:08:48:785,0.8834,0.3663,9.3193,0.0134,0.0159,9.8065,-0.0371,-0.0859,0.0875,-24.56,-30.87,27.88,359.62,-85.39,-138.6
31822,52.20393,-0.925717,129.56,23.64,6,124.75,19 / 20,3182211,2020-01-08 11:08:48:885,1.5518,1.0564,11.0749,-0.0392,0.0002,9.8065,-0.0815,-0.0565,0.1425,-25.0,-31.69,27.5,0.72,-85.43,-137.57
31823,52.20393,-0.925717,129.56,23.64,6,124.75,19 / 20,3182310,2020-01-08 11:08:48:984,-0.7219,-0.8503,9.6977,0.0075,-0.0229,9.8066,-0.1602,-0.0656,0.003,-25.37,-31.25,27.81,358.3,-85.23,-139.81
31824,52.20393,-0.925717,129.56,23.64,6,124.75,19 / 20,3182410,2020-01-08 11:08:49:084,-0.2351,-0.4956,9.1428,-0.0143,0.0043,9.8066,-0.1993,-0.0592,-0.0119,-24.81,-31.44,27.75,358.73,-85.3,-139.42
31825,52.20393,-0.925717,129.56,23.64,6,124.75,19 / 20,3182511,2020-01-08 11:08:49:185,-2.0179,-1.5402,10.254,0.02,-0.0032,9.8065,-0.0044,-0.0572,0.2089,-25.62,-31.25,28.19,357.6,-85.15,-139.34
31826,52.20393,-0.925717,129.56,23.64,6,124.75,19 / 20,3182610,2020-01-08 11:08:49:284,1.0059,-0.6676,10.0601,-0.0107,-0.0351,9.8066,0.01,-0.1741,0.0025,-25.5,-31.62,27.63,359.41,-85.09,-138.78
31827,52.20393,-0.925717,129.56,23.64,6,124.75,19 / 20,3182710,2020-01-08 11:08:49:384,0.2113,0.2563,8.9544,-0.0039,0.0227,9.8065,-0.0237,-0.0547,0.0503,-25.06,-31.31,28.13,358.16,-85.1,-139.95
31828,52.20393,-0.925717,129.56,23.64,6,124.75,19 / 20,3182811,2020-01-08 11:08:49:485,1.0629,-0.4518,10.7099,-0.0203,0.0027,9.8066,-0.0545,-0.065,0.0969,-25.06,-31.19,28.44,359.4,-85.08,-138.8
31829,52.20393,-0.925717,129.56,23.64,6,124.75,19 / 20,3182911,2020-01-08 11:08:49:585,-0.0456,-0.5559,9.0138,-0.0173,0.0071,9.8066,-0.0855,-0.1758,0.1283,-25.31,-31.37,28.19,0.35,-84.95,-137.92
31830,52.20393,-0.925717,129.56,23.64,6,124.75,19 / 20,3183011,2020-01-08 11:08:49:685,1.5089,0.644,10.9282,-0.0431,0.0065,9.8065,-0.1406,-0.0228,0.1419,-25.81,-30.69,27.5,2.57,-85.03,-134.74
31831,52.20393,-0.925717,129.56,23.64,6,124.75,19 / 20,3183110,2020-01-08 11:08:49:784,-1.8935,0.6267,7.6964,0.0035,-0.0115,9.8066,-0.3144,-0.0808,0.017,-25.62,-30.5,28.0,359.29,-85.04,-137.78
31832,52.20393,-0.925717,129.56,23.64,6,124.75,19 / 20,3183211,2020-01-08 11:08:49:885,0.033,-0.1745,10.2333,-0.0661,0.0486,9.8063,-0.3642,-0.1401,0.0963,-25.06,-31.37,27.63,1.84,-85.2,-136.53
31833,52.20393,-0.925717,129.56,23.64,6,124.75,18 / 20,3183311,2020-01-08 11:08:49:985,-2.0018,-0.7092,9.1457,0.0045,0.0174,9.8066,-0.1652,-0.1549,0.349,-25.12,-31.5,28.0,0.84,-85.07,-137.47
31834,52.20393,-0.925717,129.56,23.64,6,124.75,18 / 20,3183411,2020-01-08 11:08:50:085,3.9458,2.2668,10.3707,-0.0941,-0.0185,9.8062,-0.1882,-0.3226,0.3377,-25.25,-30.5,26.94,1.94,-85.16,-135.41
31835,52.20393,-0.925717,129.56,23.64,6,124.75,18 / 20,3183511,2020-01-08 11:08:50:185,-0.0379,0.3831,8.5204,-0.0162,0.0159,9.8066,-0.2451,-0.3365,0.2476,-25.37,-31.69,27.69,1.22,-85.36,-137.11
31836,52.20393,-0.925717,129.56,23.64,6,124.75,18 / 20,3183611,2020-01-08 11:08:50:285,3.1447,1.9457,11.2578,-0.0674,0.0106,9.8063,-0.1314,-0.2038,0.1984,-25.12,-31.37,28.06,2.74,-85.32,-135.69
31837,52.20393,-0.925717,129.56,23.64,6,124.75,18 / 20,3183711,2020-01-08 11:08:50:385,0.4302,-1.553,10.8925,0.0536,-0.0193,9.8064,0.0763,-0.1369,0.1362,-25.37,-30.75,27.94,358.24,-85.1,-139.87
31838,52.20393,-0.925717,129.56,23.64,6,124.75,18 / 20,3183811,2020-01-08 11:08:50:485,-1.7479,-0.9598,8.6759,0.0067,-0.0322,9.8066,0.1661,-0.1074,0.0263,-25.62,-31.81,27.69,359.12,-85.12,-137.93
31839,52.20393,-0.925717,129.56,23.64,6,124.75,18 / 20,3183911,2020-01-08 11:08:50:585,3.6618,0.9445,10.8485,0.0747,0.0073,9.8063,0.1925,-0.021,-0.0596,-25.06,-30.87,27.06,356.47,-85.27,-140.47
31840,52.20393,-0.925717,129.56,23.64,6,124.75,18 / 20,3184011,2020-01-08 11:08:50:685,-1.46,-2.1447,10.008,0.0342,-0.0098,9.8066,0.0919,0.1633,-0.1658,-25.37,-31.31,28.13,359.73,-85.3,-138.49
31841,52.20393,-0.925717,129.56,23.64,6,124.75,18 / 20,3184111,2020-01-08 11:08:50:785,0.2547,-0.4708,10.0947,0.0477,0.0313,9.8064,0.0989,0.2798,-0.1575,-24.94,-31.87,27.25,356.79,-85.48,-140.18
31842,52.20393,-0.925717,129.56,23.64,6,124.75,18 / 20,3184211,2020-01-08 11:08:50:885,-1.941,-1.2996,10.5048,0.0193,0.0122,9.8066,-0.0021,0.2839,-0.2159,-25.5,-30.94,27.94,359.7,-85.47,-138.52
31843,52.20393,-0.925717,129.56,23.64,6,124.75,18 / 19,3184311,2020-01-08 11:08:50:985,1.0305,1.3714,9.6529,0.0241,0.0113,9.8065,-0.054,0.1652,-0.1573,-25.06,-31.44,28.0,0.64,-85.34,-137.64
31844,52.20393,-0.925717,129.56,23.64,6,124.75,18 / 19,3184411,2020-01-08 11:08:51:085,0.642,-0.9195,9.9773,-0.0039,0.0053,9.8066,-0.0691,0.2593,-0.0401,-24.81,-31.19,28.31,359.68,-85.23,-138.54
31845,52.20393,-0.925717,129.56,23.64,6,124.75,18 / 19,3184511,2020-01-08 11:08:51:185,2.5426,-0.1701,9.6958,0.0187,0.0121,9.8066,-0.0339,0.1957,-0.2367,-25.56,-31.25,27.63,357.44,-85.19,-139.5
31846,52.20393,-0.925717,129.56,23.64,6,124.75,18 / 19,3184611,2020-01-08 11:08:51:285,0.1806,-1.2292,8.561,0.0051,0.027,9.8066,0.0517,0.0937,-0.0842,-25.25,-31.06,27.75,1.1,-85.14,-137.22
31847,52.20393,-0.925717,129.56,23.64,6,124.75,18 / 19,3184711,2020-01-08 11:08:51:385,-0.5882,-0.6521,10.58,0.0096,-0.0173,9.8066,0.0624,-0.032,0.027,-25.0,-31.81,27.38,0.58,-85.13,-136.66
31848,52.20393,-0.925717,129.56,23.64,6,124.75,18 / 19,3184811,2020-01-08 11:08:51:485,-0.4111,0.1994,10.4426,0.0367,0.0038,9.8065,0.2144,-0.0542,-0.1273,-24.31,-31.69,27.31,0.28,-85.41,-138.1
31849,52.20393,-0.925717,129.56,23.64,6,124.75,18 / 19,3184911,2020-01-08 11:08:51:585,0.4052,-1.0952,10.1898,0.0503,-0.0012,9.8065,0.1586,-0.0227,-0.2092,-24.94,-31.44,27.75,357.82,-85.33,-140.27
31850,52.20393,-0.925717,129.56,23.64,6,124.75,18 / 19,3185011,2020-01-08 11:08:51:685,-0.5496,0.3649,9.6566,0.0026,-0.0114,9.8066,0.1588,0.1891,-0.0116,-24.81,-30.81,27.88,0.34,-85.32,-137.92
31851,52.20393,-0.925717,129.56,23.64,6,124.75,18 / 19,3185111,2020-01-08 11:08:51:785,1.82,0.5672,10.4033,0.0434,0.0022,9.8065,0.0995,0.1252,-0.168,-25.31,-31.69,27.5,358.67,-85.32,-139.47
31852,52.20393,-0.925717,129.56,23.64,6,124.75,18 / 19,3185210,2020-01-08 11:08:51:884,1.393,1.0511,10.6351,0.0048,0.0056,9.8066,0.1504,0.1247,-0.0767,-25.44,-31.69,27.56,0.72,-85.32,-137.57
31853,52.20393,-0.925717,129.56,23.64,6,124.75,19 / 19,3185311,2020-01-08 11:08:51:985,0.6635,0.3077,9.2816,0.0549,0.0036,9.8064,0.2097,0.2263,-0.2127,-25.25,-31.75,26.81,1.95,-85.36,-135.4
31854,52.20393,-0.925717,129.56,23.64,6,124.75,19 / 19,3185411,2020-01-08 11:08:52:085,-1.3653,1.002,9.2822,-0.0223,0.0021,9.8065,0.2067,0.1594,-0.1559,-24.06,-31.5,27.56,3.66,-85.36,-136.0
31855,52.20393,-0.925717,129.56,23.64,6,124.75,19 / 19,3185511,2020-01-08 11:08:52:185,1.7097,0.8812,11.2421,0.0523,-0.023,9.8064,0.2605,0.2115,-0.1174,-25.12,-31.75,27.63,357.91,-85.27,-140.17
31856,52.20393,-0.925717,129.56,23.64,6,124.75,19 / 19,3185611,2020-01-08 11:08:52:285,1.2124,-0.0293,11.2033,0.0018,0.0085,9.8066,0.1751,0.1724,-0.1001,-25.37,-30.62,27.56,359.52,-85.27,-138.69
31857,52.20393,-0.925717,129.56,23.64,6,124.75,19 / 19,3185711,2020-01-08 11:08:52:385,-3.038,-1.8637,8.9792,0.0323,0.016,9.8065,0.1213,0.2203,-0.223,-25.56,-31.06,28.0,359.58,-85.13,-137.51
31858,52.20393,-0.925717,129.56,23.64,6,124.75,19 / 19,3185811,2020-01-08 11:08:52:485,0.0033,-0.2703,10.6444,-0.0757,-0.0085,9.8063,0.0969,0.1462,-0.1731,-25.56,-31.0,27.19,1.02,-84.99,-135.14
31859,52.20393,-0.925717,129.56,23.64,6,124.75,19 / 19,3185911,2020-01-08 11:08:52:585,1.0974,-0.6488,9.6808,-0.0129,-0.0155,9.8066,0.1132,0.0852,0.1255,-24.81,-31.44,28.13,359.75,-85.06,-138.47
31860,52.20393,-0.925717,129.56,23.64,6,124.75,19 / 19,3186010,2020-01-08 11:08:52:684,0.6029,-0.6117,10.4507,-0.0417,-0.0174,9.8065,0.0952,0.0402,-0.1295,-25.44,-31.37,27.44,358.7,-84.89,-138.4
31861,52.20393,-0.925717,129.56,23.64,6,124.75,19 / 19,3186111,2020-01-08 11:08:52:785,-0.3796,-0.9095,9.7107,0.008,0.0089,9.8066,0.0665,0.0074,-0.2514,-25.19,-30.81,27.38,358.89,-85.02,-138.23
31862,52.20393,-0.925717,129.56,23.64,6,124.75,19 / 19,3186211,2020-01-08 11:08:52:885,0.019,0.2419,9.514,0.0271,0.0275,9.8065,0.0388,0.1142,0.0815,-25.62,-31.31,28.0,0.34,-85.06,-136.81
31863,52.20393,-0.925717,129.56,23.64,6,124.75,19 / 19,3186311,2020-01-08 11:08:52:985,-0.3417,0.1204,9.5837,-0.0208,-0.0037,9.8066,-0.0653,0.0637,0.0687,-24.87,-30.62,26.63,359.16,-85.17,-137.98
31864,52.20393,-0.925717,129.56,23.64,6,124.75,19 / 19,3186411,2020-01-08 11:08:53:085,-1.4911,-1.8512,11.0204,-0.015,0.0116,9.8066,0.0868,-0.1843,0.2349,-25.12,-31.06,28.06,358.57,-85.19,-139.57
31865,52.20393,-0.925717,129.56,23.64,6,124.75,19 / 19,3186511,2020-01-08 11:08:53:185,1.8648,1.5974,9.0431,-0.0514,-0.0418,9.8063,0.1448,0.1218,0.2327,-24.94,-30.94,28.25,1.23,-85.12,-137.1
31866,52.20393,-0.925717,129.56,23.64,6,124.75,19 / 19,3186611,2020-01-08 11:08:53:285,-0.0346,-0.3548,9.5484,-0.0377,-0.0131,9.8065,0.0073,-0.1339,-0.2046,-24.94,-30.94,27.63,1.83,-85.08,-136.55
31867,52.20393,-0.925717,129.56,23.64,6,124.75,19 / 19,3186711,2020-01-08 11:08:53:385,0.8952,-0.3018,9.6538,0.0107,0.0089,9.8066,-0.0041,0.0376,-0.0092,-25.5,-31.31,27.75,0.25,-84.84,-138.01
31868,52.20393,-0.925717,129.56,23.64,6,124.75,19 / 19,3186811,2020-01-08 11:08:53:485,-0.8717,-1.3756,10.5457,-0.0062,-0.0211,9.8066,0.0179,0.003,0.1158,-25.19,-31.44,27.25,358.96,-84.68,-138.16
31869,52.20393,-0.925717,129.56,23.64,6,124.75,19 / 19,3186911,2020-01-08 11:08:53:585,-0.6306,-0.5525,8.2752,0.0245,-0.0221,9.8066,0.1456,0.0325,-0.1991,-24.75,-30.75,27.06,357.24,-84.86,-139.75
31870,52.20393,-0.925717,129.56,23.64,6,124.75,19 / 19,3187011,2020-01-08 11:08:53:685,1.3361,0.5919,10.2821,0.0374,0.0091,9.8065,0.2511,-0.0021,-0.1245,-25.37,-31.62,27.25,359.02,-84.93,-138.1
31871,52.20393,-0.925717,129.56,23.64,6,124.75,19 / 19,3187111,2020-01-08 11:08:53:785,-0.3976,0.0057,9.3335,0.0437,-0.0136,9.8065,0.0672,0.2444,-0.0418,-24.87,-31.87,27.44,356.04,-84.92,-140.85
31872,52.20393,-0.925717,129.56,23.64,6,124.75,19 / 19,3187211,2020-01-08 11:08:53:885,1.5876,0.6449,9.7713,-0.0017,0.0176,9.8066,0.0311,0.1921,-0.1592,-25.0,-31.94,28.38,356.56,-85.11,-141.42
31873,52.20393,-0.925717,129.56,23.64,6,124.75,19 / 19,3187311,2020-01-08 11:08:53:985,-0.3993,-0.9996,9.6684,0.0212,0.0148,9.8065,0.0386,0.0687,-0.0986,-24.75,-31.56,27.81,355.05,-85.11,-142.81
31874,52.20393,-0.925717,129.56,23.64,6,124.75,19 / 19,3187411,2020-01-08 11:08:54:085,0.1065,-0.771,9.2758,0.0115,0.0069,9.8066,-0.0132,0.0473,0.003,-25.19,-31.37,27.44,354.31,-85.08,-142.46
31875,52.20393,-0.925717,129.56,23.64,6,124.75,19 / 19,3187511,2020-01-08 11:08:54:185,0.0735,-0.4283,10.0744,-0.0097,-0.0112,9.8065,-0.0177,0.0379,-0.0001,-25.06,-31.69,27.75,357.01,-85.02,-141.0
31876,52.20393,-0.925717,129.56,23.64,6,124.75,19 / 19,3187611,2020-01-08 11:08:54:285,0.8868,-0.2385,9.948,0.0085,-0.0038,9.8066,0.0197,0.072,-0.0988,-25.5,-31.62,28.13,356.71,-84.97,-141.27
31877,52.20393,-0.925717,129.56,23.64,6,124.75,19 / 19,3187710,2020-01-08 11:08:54:384,0.5697,-0.0892,10.2007,0.0079,0.0077,9.8066,-0.0166,-0.1681,0.0475,-25.31,-31.12,27.69,356.13,-84.89,-141.81
31878,52.20393,-0.925717,129.56,23.64,6,124.75,19 / 19,3187811,2020-01-08 11:08:54:485,0.0296,-0.7795,9.6387,0.0235,0.0037,9.8066,0.0136,-0.1086,0.1705,-24.87,-31.44,27.19,353.37,-84.87,-143.31
31879,52.20393,-0.925717,129.56,23.64,6,124.75,19 / 19,3187911,2020-01-08 11:08:54:585,0.3716,-0.0349,10.0937,0.0057,0.0077,9.8066,-0.0452,-0.0156,-0.0552,-25.31,-31.0,28.13,356.59,-84.72,-141.38
31880,52.20393,-0.925717,129.56,23.64,6,124.75,19 / 19,3188011,2020-01-08 11:08:54:685,1.5738,0.6197,9.7667,0.0085,-0.0019,9.8066,0.0103,0.0885,-0.1284,-24.94,-31.25,28.06,354.99,-84.75,-142.85
31881,52.20393,-0.925717,129.56,23.64,6,124.75,19 / 19,3188111,2020-01-08 11:08:54:785,0.1449,-1.0563,10.4478,-0.0027,-0.0218,9.8066,-0.1084,0.0297,0.1059,-25.31,-30.87,28.5,356.77,-84.56,-142.2
31882,52.20393,-0.925717,129.56,23.64,6,124.75,19 / 19,3188211,2020-01-08 11:08:54:885,-0.7643,-0.4555,8.7639,0.0125,-0.0389,9.8065,-0.1109,-0.024,0.0841,-25.25,-31.37,28.38,358.01,-84.37,-140.06
31883,52.20393,-0.925717,129.56,23.64,6,124.75,19 / 19,3188311,2020-01-08 11:08:54:985,0.0283,-1.1851,11.293,0.0038,-0.0216,9.8066,-0.0353,-0.0261,-0.0777,-25.12,-30.81,28.44,0.06,-84.37,-138.19
31884,52.20393,-0.925717,129.56,23.64,6,124.75,19 / 19,3188411,2020-01-08 11:08:55:085,-0.4922,-0.7468,10.0943,0.0402,-0.0034,9.8065,0.0578,-0.0637,-0.0821,-25.75,-30.75,28.69,357.7,-84.33,-140.23
31885,52.20393,-0.925717,129.56,23.64,6,124.75,19 / 19,3188510,2020-01-08 11:08:55:184,0.3993,-0.1441,10.6144,0.0105,0.0034,9.8066,0.0157,0.0966,-0.0268,-24.69,-30.44,28.5,358.59,-84.41,-140.54
31886,52.20393,-0.925717,129.56,23.64,6,124.75,19 / 19,3188612,2020-01-08 11:08:55:286,0.5242,-0.5274,10.057,0.0143,-0.0078,9.8066,0.0665,0.0519,-0.0985,-24.94,-31.06,29.31,357.17,-84.4,-141.83
31887,52.20393,-0.925717,129.56,23.64,6,124.75,19 / 19,3188711,2020-01-08 11:08:55:385,-1.0928,-1.399,9.0926,-0.0232,-0.0069,9.8066,0.2443,0.1464,-0.1795,-25.31,-31.12,28.19,354.78,-84.36,-143.01
31888,52.20393,-0.925717,129.56,23.64,6,124.75,19 / 19,3188811,2020-01-08 11:08:55:485,1.2447,0.8901,9.7959,0.0354,-0.0041,9.8065,0.2434,0.1539,-0.2428,-24.44,-30.69,28.88,354.93,-84.33,-145.02
31889,52.20393,-0.925717,129.56,23.64,6,124.75,19 / 19,3188911,2020-01-08 11:08:55:585,0.3526,-0.4227,11.1683,-0.0108,-0.0033,9.8066,0.1045,0.0769,-0.0456,-24.81,-30.75,28.5,354.75,-84.46,-144.05
31890,52.20393,-0.925717,129.56,23.64,6,124.75,19 / 19,3189011,2020-01-08 11:08:55:685,1.999,-0.6828,12.2818,-0.0235,0.01,9.8066,0.0589,0.0894,0.037,-25.69,-30.94,29.44,354.27,-84.41,-143.38
31891,52.20393,-0.925717,129.56,23.64,6,124.75,19 / 19,3189111,2020-01-08 11:08:55:785,-0.4217,-2.5259,10.241,-0.0224,-0.039,9.8065,-0.1341,0.1986,-0.2014,-24.69,-30.81,28.69,355.6,-84.12,-143.25
31892,52.20393,-0.925717,129.56,23.64,6,124.75,19 / 19,3189211,2020-01-08 11:08:55:885,0.9082,1.0706,9.2387,0.0059,0.023,9.8065,-0.1166,0.1188,-0.3002,-25.12,-30.81,29.0,354.25,-84.47,-144.51
31893,52.20393,-0.925717,129.56,23.64,6,124.75,19 / 19,3189310,2020-01-08 11:08:55:984,0.6107,0.1069,9.5934,0.0236,0.0133,9.8065,0.1157,0.1688,0.1003,-24.69,-31.25,28.5,355.61,-84.38,-143.26
31894,52.20281,-0.923189,129.03,24.58,6,128.34,19 / 19,3189411,2020-01-08 11:08:56:085,-1.3722,0.2803,9.0256,0.021,-0.0514,9.8065,0.217,0.2031,-0.1459,-25.12,-31.06,29.19,352.4,-84.24,-146.18
31895,52.20281,-0.923189,129.03,24.58,6,128.34,19 / 19,3189510,2020-01-08 11:08:56:184,2.1592,1.2295,10.0417,-0.0219,0.0287,9.8065,0.217,0.0069,-0.2724,-24.87,-31.12,29.63,351.92,-84.33,-147.6
31896,52.20281,-0.923189,129.03,24.58,6,128.34,19 / 19,3189611,2020-01-08 11:08:56:285,-0.0956,-1.4803,12.4543,0.0216,0.0289,9.8065,0.1349,0.0837,-0.0301,-24.81,-30.31,29.0,351.2,-84.39,-147.32
31897,52.20281,-0.923189,129.03,24.58,6,128.34,19 / 19,3189711,2020-01-08 11:08:56:385,0.5734,0.3357,9.8446,0.0108,-0.0179,9.8066,0.0605,0.0938,0.0073,-24.75,-31.0,29.38,351.64,-84.29,-146.89
31898,52.20281,-0.923189,129.03,24.58,6,128.34,19 / 19,3189811,2020-01-08 11:08:56:485,-0.2195,-1.0739,11.1472,-0.0041,0.0144,9.8065,-0.0863,0.1148,-0.0608,-24.87,-30.06,28.81,352.24,-84.27,-146.36
31899,52.20281,-0.923189,129.03,24.58,6,128.34,19 / 19,3189911,2020-01-08 11:08:56:585,0.5219,0.0351,9.1166,-0.0175,-0.015,9.8066,-0.1402,0.0601,-0.0628,-25.12,-31.19,29.31,352.53,-84.19,-146.05
31900,52.20281,-0.923189,129.03,24.58,6,128.34,19 / 19,3190011,2020-01-08 11:08:56:685,-1.7869,-0.0456,8.6427,-0.0564,0.0109,9.8064,-0.1669,-0.2352,0.1002,-24.06,-30.81,29.06,355.27,-84.44,-144.72
31901,52.20281,-0.923189,129.03,24.58,6,128.34,19 / 19,3190111,2020-01-08 11:08:56:785,-0.4659,-0.0948,9.8167,0.022,0.0425,9.8065,0.0461,-0.0177,0.2699,-24.19,-30.69,29.0,352.82,-84.69,-146.99
31902,52.20281,-0.923189,129.03,24.58,6,128.34,19 / 19,3190211,2020-01-08 11:08:56:885,-1.4953,-0.9477,9.6912,0.0777,-0.0028,9.8063,0.1181,0.0906,-0.0996,-23.44,-30.56,29.19,357.09,-84.58,-144.25
31903,52.20281,-0.923189,129.03,24.58,6,128.34,19 / 19,3190311,2020-01-08 11:08:56:985,2.6687,-0.245,10.6883,-0.0298,-0.0481,9.8064,-0.0051,0.1472,-0.2377,-24.19,-30.12,29.25,353.03,-84.48,-146.79
31904,52.20281,-0.923189,129.03,24.58,6,128.34,19 / 19,3190411,2020-01-08 11:08:57:085,0.2857,-0.0086,10.1528,0.0172,-0.0215,9.8066,-0.0515,0.1339,0.1257,-23.94,-30.94,29.13,352.36,-84.61,-147.41
31905,52.20281,-0.923189,129.03,24.58,6,128.34,19 / 19,3190510,2020-01-08 11:08:57:184,-2.0672,-1.2246,10.0871,0.0048,-0.0105,9.8066,-0.0528,0.0017,-0.0268,-24.0,-30.56,28.56,354.73,-84.38,-145.21
