,GPS LATITUDE (degrees), GPS LONGITUDE (degrees), GPS ALTITUDE (m), GPS SPEED (Kmh), GPS ACCURACY (m), GPS ORIENTATION (Â°),GPS SATELLITES IN RANGE, TIME SINCE START (ms), DATE (YYYY-MO-DD HH-MI-SS_SSS), ACCELEROMETER X (m/s²) , ACCELEROMETER Y (m/s²), ACCELEROMETER Z (m/s²), GRAVITY X (m/s²), GRAVITY Y (m/s²), GRAVITY Z (m/s²), GYROSCOPE Yaw (rad/s), GYROSCOPE Pitch (rad/s), GYROSCOPE Roll (rad/s), MAGNETIC FIELD X (Î¼T), MAGNETIC FIELD Y (Î¼T), MAGNETIC FIELD Z (Î¼T), ORIENTATION (Yaw) (Â°), ORIENTATION (Pitch) (Â°), ORIENTATION (Roll ) (Â°)
5060,52.397995,-1.438411,142.24,7.34,3,87.75,17 / 17,537320,2019-09-04 19:30:17:493,0.8887,-0.9222,9.7221,0.0023,0.0049,9.8066,-0.0431,0.0054,0.0004,-9.87,-30.12,24.13,73.72,-86.65,-87.4
5061,52.397995,-1.438411,142.24,7.34,3,87.75,17 / 17,537421,2019-09-04 19:30:17:594,0.9191,-0.5583,9.99,-0.0049,0.0169,9.8066,-0.0414,0.0286,0.0076,-10.19,-30.0,23.06,77.69,-86.62,-82.8
5062,52.397995,-1.438411,142.24,7.34,3,87.75,17 / 17,537520,2019-09-04 19:30:17:693,0.0389,-0.9191,9.4282,-0.0018,-0.005,9.8066,0.0097,0.0591,0.03,-10.19,-29.81,22.88,78.83,-86.54,-81.75
5063,52.397995,-1.438411,142.24,7.34,3,87.75,17 / 17,537620,2019-09-04 19:30:17:793,1.1764,-0.5918,9.496,0.0047,-0.0054,9.8065,0.0028,0.0419,0.0091,-9.94,-29.94,23.13,77.37,-86.55,-83.18
5064,52.397995,-1.438411,142.24,7.34,3,87.75,17 / 17,537720,2019-09-04 19:30:17:893,0.7478,-0.4236,10.2859,-0.0033,-0.0002,9.8065,-0.0043,0.0442,0.0074,-10.25,-30.5,23.38,75.94,-86.52,-84.63
5065,52.397995,-1.438411,142.24,7.34,3,87.75,17 / 17,537820,2019-09-04 19:30:17:993,0.9511,-0.3023,10.0542,0.003,-0.0119,9.8066,0.0262,0.0511,-0.0131,-10.44,-29.81,22.63,74.46,-86.5,-86.11
5066,52.397995,-1.438411,142.24,7.34,3,87.75,17 / 17,537920,2019-09-04 19:30:18:093,1.6446,-0.616,9.9951,0.0131,-0.0096,9.8066,0.036,0.0937,0.0149,-10.0,-29.87,23.75,72.1,-86.6,-89.06
5067,52.397995,-1.438411,142.24,7.34,3,87.75,17 / 17,538020,2019-09-04 19:30:18:193,1.2402,-1.1489,9.366,0.0105,-0.0131,9.8066,0.0187,0.0825,-0.0203,-9.81,-29.87,23.44,66.11,-86.69,-94.05
5068,52.397995,-1.438411,142.24,7.34,3,87.75,17 / 17,538121,2019-09-04 19:30:18:294,1.7384,-0.5853,9.0207,-0.0014,0.0155,9.8066,-0.0781,0.1113,0.0136,-9.81,-29.75,23.38,65.32,-86.82,-94.67
5069,52.397995,-1.438411,142.24,7.34,3,87.75,17 / 17,538220,2019-09-04 19:30:18:393,1.1287,-0.1209,10.0211,-0.0027,0.0249,9.8066,-0.0624,0.0859,-0.0306,-10.31,-29.94,23.38,70.19,-86.85,-89.88
5070,52.397995,-1.438411,142.24,7.34,3,87.75,17 / 17,538321,2019-09-04 19:30:18:494,1.5331,0.2358,9.9573,0.015,-0.0059,9.8066,0.056,0.0838,-0.0257,-10.31,-30.19,22.63,75.28,-87.01,-84.71
5071,52.397995,-1.438411,142.24,7.34,3,87.75,17 / 17,538421,2019-09-04 19:30:18:594,2.0119,-0.4412,9.7422,0.008,-0.0173,9.8065,0.0406,0.1003,0.0292,-9.87,-30.12,22.94,69.04,-87.16,-90.66
5072,52.397995,-1.438411,142.24,7.34,3,87.75,17 / 17,538520,2019-09-04 19:30:18:693,1.5856,-0.5039,10.2194,0.0012,0.0078,9.8066,-0.0098,0.1032,-0.0083,-10.56,-30.0,23.13,64.6,-87.12,-92.93
5073,52.397995,-1.438411,142.24,7.34,3,87.75,17 / 17,538621,2019-09-04 19:30:18:794,1.7397,-0.2526,10.1731,0.0091,0.0051,9.8066,-0.0039,0.0996,-0.0159,-10.69,-29.94,22.63,66.0,-87.23,-91.45
5074,52.397995,-1.438411,142.24,7.34,3,87.75,17 / 17,538721,2019-09-04 19:30:18:894,1.776,-0.2292,9.594,0.0027,-0.0031,9.8066,0.0115,0.0792,-0.0322,-10.69,-29.69,23.44,64.68,-87.3,-92.66
5075,52.397995,-1.438411,142.24,7.34,3,87.75,17 / 17,538821,2019-09-04 19:30:18:994,2.0815,0.0604,9.644,0.0039,0.0005,9.8066,0.0016,0.0727,-0.0374,-10.75,-29.81,23.13,64.04,-87.32,-93.27
5076,52.397995,-1.438411,142.24,7.34,3,87.75,17 / 17,538920,2019-09-04 19:30:19:093,1.8055,0.3615,9.557,0.0054,0.0076,9.8066,-0.0168,0.1112,-0.0305,-11.5,-30.12,22.69,64.22,-87.37,-93.04
5077,52.397995,-1.438411,142.24,7.34,3,87.75,17 / 17,539022,2019-09-04 19:30:19:195,1.8647,-0.0691,10.106,-0.0051,0.01,9.8066,-0.0274,0.1256,0.0158,-11.06,-30.19,22.13,65.89,-87.48,-90.37
5078,52.397995,-1.438411,142.24,7.34,3,87.75,17 / 17,539121,2019-09-04 19:30:19:294,2.0471,0.6795,10.1123,0.0039,-0.002,9.8066,0.0028,0.1399,0.007,-11.0,-30.12,22.25,67.66,-87.54,-88.57
5079,52.397995,-1.438411,142.24,7.34,3,87.75,17 / 17,539221,2019-09-04 19:30:19:394,1.9932,0.5663,9.1476,-0.0035,-0.013,9.8065,0.0125,0.1166,0.0106,-11.25,-29.94,22.06,64.93,-87.51,-91.28
5080,52.397995,-1.438411,142.24,7.34,3,87.75,17 / 17,539321,2019-09-04 19:30:19:494,1.5076,0.3384,9.6801,-0.0116,-0.0022,9.8066,-0.015,0.099,0.0132,-11.75,-30.31,22.06,61.54,-87.35,-92.67
5081,52.397995,-1.438411,142.24,7.34,3,87.75,17 / 17,539421,2019-09-04 19:30:19:594,1.9326,0.9578,9.7544,-0.009,0.0035,9.8066,-0.0023,0.1196,0.0295,-11.69,-29.75,22.06,63.05,-87.22,-91.34
5082,52.397995,-1.438411,142.24,7.34,3,87.75,17 / 17,539520,2019-09-04 19:30:19:693,1.7649,0.5062,9.8193,-0.0018,-0.0183,9.8066,0.0296,0.122,0.0301,-12.44,-30.06,22.5,63.97,-87.04,-91.59
5083,52.397995,-1.438411,142.24,7.34,3,87.75,17 / 17,539620,2019-09-04 19:30:19:793,2.2558,0.283,10.786,0.005,-0.0163,9.8066,0.017,0.1523,0.0333,-12.44,-29.5,21.63,57.5,-86.91,-96.95
5084,52.397995,-1.438411,142.24,7.34,3,87.75,17 / 17,539720,2019-09-04 19:30:19:893,1.9846,0.3737,9.3521,0.0036,-0.0061,9.8066,0.021,0.0787,-0.0684,-12.31,-29.44,21.75,54.65,-86.87,-99.74
5085,52.397995,-1.438411,142.24,7.34,3,87.75,17 / 17,539820,2019-09-04 19:30:19:993,2.4191,0.6573,9.6586,0.0122,0.0132,9.8066,-0.0191,0.1168,-0.0652,-12.81,-29.56,21.88,51.36,-87.03,-100.83
5086,52.397995,-1.438411,142.24,7.34,3,87.75,17 / 17,539921,2019-09-04 19:30:20:094,1.7109,1.0398,9.377,-0.0022,0.0175,9.8066,-0.0455,0.142,-0.0118,-12.87,-29.81,21.25,53.23,-87.16,-97.81
5087,52.397995,-1.438411,142.24,7.34,3,87.75,17 / 17,540021,2019-09-04 19:30:20:194,1.9467,1.0729,9.2864,-0.0124,0.0067,9.8066,-0.0194,0.1185,-0.0146,-13.31,-30.0,21.38,56.26,-87.25,-94.79
5088,52.397995,-1.438411,142.24,7.34,3,87.75,17 / 17,540121,2019-09-04 19:30:20:294,2.2309,0.7345,10.0746,-0.0073,-0.0018,9.8066,0.0157,0.1298,0.022,-13.12,-29.62,20.81,59.2,-87.13,-92.07
5089,52.397995,-1.438411,142.24,7.34,3,87.75,17 / 17,540221,2019-09-04 19:30:20:394,1.5785,1.1678,10.015,0.0053,-0.0151,9.8066,0.039,0.1463,0.0178,-13.87,-29.62,21.06,54.14,-87.06,-95.04
5090,52.397995,-1.438411,142.24,7.34,3,87.75,17 / 17,540320,2019-09-04 19:30:20:493,1.833,0.7943,9.0745,0.0024,-0.0184,9.8066,0.023,0.1019,-0.0136,-13.81,-29.37,21.44,51.13,-87.0,-97.91
5091,52.397995,-1.438411,142.24,7.34,3,87.75,17 / 17,540421,2019-09-04 19:30:20:594,1.5635,0.5177,9.8472,-0.0088,0.0102,9.8065,-0.0387,0.1605,0.0331,-13.69,-29.56,21.44,49.76,-86.86,-99.44
5092,52.397995,-1.438411,142.24,7.34,3,87.75,17 / 17,540520,2019-09-04 19:30:20:693,1.8257,1.819,10.4158,0.0034,0.0086,9.8066,0.021,0.0883,-0.0492,-14.0,-29.75,20.63,53.29,-86.92,-95.99
5093,52.397995,-1.438411,142.24,7.34,3,87.75,17 / 17,540620,2019-09-04 19:30:20:793,1.8697,0.7263,9.561,0.006,-0.0097,9.8066,0.0413,0.0866,-0.0484,-13.75,-29.25,21.19,51.15,-86.99,-97.9
5094,52.397995,-1.438411,142.24,7.34,3,87.75,17 / 17,540721,2019-09-04 19:30:20:894,1.7948,0.6699,9.0413,-0.0082,0.0003,9.8066,-0.05,0.1615,0.0302,-14.37,-29.62,20.75,50.04,-86.95,-99.1
5095,52.397995,-1.438411,142.24,7.34,3,87.75,17 / 17,540820,2019-09-04 19:30:20:993,1.7954,1.1866,9.6668,-0.0082,0.0103,9.8066,-0.0247,0.1197,0.0138,-14.56,-29.44,20.69,51.97,-86.95,-95.24
5096,52.397995,-1.438411,142.24,7.34,3,87.75,17 / 17,540921,2019-09-04 19:30:21:094,0.939,1.2971,9.0333,-0.0014,0.0004,9.8066,0.0079,0.1451,0.0374,-14.69,-29.87,20.25,52.76,-86.93,-93.34
5097,52.397995,-1.438411,142.24,7.34,3,87.75,17 / 17,541021,2019-09-04 19:30:21:194,1.1306,1.0823,9.6661,-0.0056,-0.0103,9.8066,0.0158,0.1277,0.0366,-15.0,-29.37,19.5,52.41,-86.85,-93.66
5098,52.397995,-1.438411,142.24,7.34,3,87.75,17 / 17,541121,2019-09-04 19:30:21:294,1.5751,1.2228,10.334,-0.0031,-0.0101,9.8066,0.0146,0.137,0.0349,-15.62,-29.75,19.31,47.76,-86.68,-95.16
5099,52.397995,-1.438411,142.24,7.34,3,87.75,17 / 17,541220,2019-09-04 19:30:21:393,1.8662,0.7849,9.7266,-0.0025,-0.0053,9.8066,0.0019,0.1175,0.012,-15.62,-29.81,19.63,48.54,-86.58,-95.86
5100,52.39738,-1.437683,142.34,13.0,3,139.98,17 / 17,541320,2019-09-04 19:30:21:493,1.7019,0.7606,9.4261,-0.0125,0.0079,9.8066,-0.0155,0.1034,0.0065,-15.44,-29.5,19.94,51.17,-86.48,-95.2
5101,52.39738,-1.437683,142.34,13.0,3,139.98,17 / 17,541421,2019-09-04 19:30:21:594,1.3769,1.0201,9.2122,-0.0161,0.0106,9.8066,-0.0356,0.1291,0.025,-15.94,-29.75,19.44,52.33,-86.43,-91.04
5102,52.39738,-1.437683,142.34,13.0,3,139.98,17 / 17,541520,2019-09-04 19:30:21:693,1.3605,1.5724,10.4603,-0.0068,-0.0011,9.8066,0.0003,0.1273,0.0305,-16.31,-29.62,19.31,55.08,-86.34,-88.5
5103,52.39738,-1.437683,142.34,13.0,3,139.98,17 / 17,541620,2019-09-04 19:30:21:793,1.3665,1.2829,9.863,0.0096,-0.0058,9.8066,0.045,0.132,-0.0157,-16.19,-29.62,19.13,54.69,-86.32,-88.9
5104,52.39738,-1.437683,142.34,13.0,3,139.98,17 / 17,541720,2019-09-04 19:30:21:893,1.7902,0.6471,10.1345,0.0035,-0.0092,9.8065,0.0235,0.1224,0.0028,-16.44,-29.31,19.44,50.31,-86.39,-92.89
5105,52.39738,-1.437683,142.34,13.0,3,139.98,17 / 17,541820,2019-09-04 19:30:21:993,1.7385,1.176,9.7575,0.0084,-0.0014,9.8066,-0.0118,0.1236,-0.0151,-16.44,-28.94,19.19,47.85,-86.44,-95.18
5106,52.39738,-1.437683,142.34,13.0,3,139.98,17 / 17,541920,2019-09-04 19:30:22:093,1.6536,1.1384,10.2489,0.0017,0.0097,9.8066,-0.0188,0.1393,0.0008,-16.37,-29.37,18.69,48.73,-86.54,-94.26
5107,52.39738,-1.437683,142.34,13.0,3,139.98,17 / 17,542021,2019-09-04 19:30:22:194,1.3355,1.6341,9.8247,0.0032,0.0093,9.8066,-0.0035,0.1292,-0.0265,-16.62,-29.75,18.88,48.81,-86.68,-92.36
5108,52.39738,-1.437683,142.34,13.0,3,139.98,17 / 17,542121,2019-09-04 19:30:22:294,1.7779,1.1603,9.6041,0.0016,0.0065,9.8066,-0.008,0.1364,0.0081,-16.19,-29.62,18.88,50.99,-86.78,-91.98
5109,52.39738,-1.437683,142.34,13.0,3,139.98,17 / 17,542221,2019-09-04 19:30:22:394,1.7257,0.7978,9.4183,0.0093,0.0028,9.8066,0.0134,0.1105,-0.0294,-16.37,-30.06,18.69,50.87,-86.87,-92.01
5110,52.39738,-1.437683,142.34,13.0,3,139.98,17 / 17,542320,2019-09-04 19:30:22:493,2.235,0.9199,10.9871,0.0028,0.0069,9.8066,-0.0069,0.1195,-0.0317,-16.94,-29.69,18.75,47.52,-87.07,-93.24
5111,52.39738,-1.437683,142.34,13.0,3,139.98,17 / 17,542421,2019-09-04 19:30:22:594,1.9381,1.0158,9.8233,-0.0057,0.0108,9.8066,-0.0338,0.191,0.061,-17.31,-30.0,18.5,50.58,-87.14,-90.23
5112,52.39738,-1.437683,142.34,13.0,3,139.98,17 / 17,542520,2019-09-04 19:30:22:693,1.2469,1.7292,10.7322,0.0065,0.0058,9.8066,-0.01,0.1675,0.0267,-17.25,-29.94,17.81,50.91,-87.2,-88.4
5113,52.39738,-1.437683,142.34,13.0,3,139.98,17 / 17,542620,2019-09-04 19:30:22:793,1.9491,1.52,9.6469,0.0095,0.0012,9.8066,0.021,0.066,-0.0185,-16.37,-29.56,17.44,50.16,-87.32,-89.25
5114,52.39738,-1.437683,142.34,13.0,3,139.98,17 / 17,542721,2019-09-04 19:30:22:894,1.4171,0.8285,10.1326,-0.0045,-0.004,9.8066,-0.0074,0.1483,0.0432,-17.56,-30.19,17.5,46.95,-87.26,-90.44
5115,52.39738,-1.437683,142.34,13.0,3,139.98,17 / 17,542821,2019-09-04 19:30:22:994,1.2539,1.0779,9.823,-0.0075,0.0034,9.8066,-0.0225,0.1205,0.0108,-17.44,-29.5,17.13,49.1,-87.2,-88.49
5116,52.39738,-1.437683,142.34,13.0,3,139.98,17 / 17,542921,2019-09-04 19:30:23:094,0.9647,0.963,10.0152,-0.0038,0.0041,9.8066,-0.0118,0.1029,0.0169,-16.81,-29.62,16.88,50.97,-87.21,-86.76
5117,52.39738,-1.437683,142.34,13.0,3,139.98,17 / 17,543021,2019-09-04 19:30:23:194,1.0142,1.8408,10.1634,0.0106,-0.0066,9.8066,0.0399,0.0961,0.0144,-16.81,-29.81,16.75,50.18,-87.2,-87.54
5118,52.39738,-1.437683,142.34,13.0,3,139.98,17 / 17,543121,2019-09-04 19:30:23:294,0.7919,0.9286,10.7568,0.0117,-0.0202,9.8066,0.068,0.1188,0.0231,-17.25,-29.81,17.56,47.19,-87.16,-92.01
5119,52.39738,-1.437683,142.34,13.0,3,139.98,17 / 17,543221,2019-09-04 19:30:23:394,0.9742,0.9232,8.9233,0.0153,-0.0126,9.8066,0.0212,0.0722,0.0119,-17.5,-29.06,17.44,39.51,-87.1,-97.75
5120,52.39738,-1.437683,142.34,13.0,3,139.98,17 / 17,543321,2019-09-04 19:30:23:494,0.6897,0.9497,8.9096,-0.0084,0.0135,9.8066,-0.035,0.0265,-0.0384,-17.75,-29.37,16.81,34.77,-87.11,-100.56
5121,52.39738,-1.437683,142.34,13.0,3,139.98,17 / 17,543420,2019-09-04 19:30:23:593,0.5668,0.3447,10.1783,-0.0165,0.0118,9.8065,-0.039,0.0567,-0.0036,-18.0,-29.81,17.25,41.8,-87.11,-93.93
5122,52.39738,-1.437683,142.34,13.0,3,139.98,17 / 17,543520,2019-09-04 19:30:23:693,0.2322,1.5289,10.1084,0.0012,-0.0014,9.8066,0.0105,0.0597,0.0094,-17.87,-29.25,16.56,44.97,-87.15,-90.8
5123,52.39738,-1.437683,142.34,13.0,3,139.98,17 / 17,543620,2019-09-04 19:30:23:793,0.4623,0.407,9.4738,0.0011,-0.0038,9.8066,-0.0053,0.0651,0.0168,-17.62,-29.37,16.56,43.83,-87.11,-91.91
5124,52.39738,-1.437683,142.34,13.0,3,139.98,17 / 17,543720,2019-09-04 19:30:23:893,0.3625,0.5964,9.8331,-0.003,0.0029,9.8066,-0.009,0.0581,0.013,-17.94,-29.75,15.81,42.31,-87.12,-91.78
5125,52.39738,-1.437683,142.34,13.0,3,139.98,17 / 17,543820,2019-09-04 19:30:23:993,-0.2057,1.4104,10.9791,-0.0092,0.0057,9.8066,-0.0152,0.0154,-0.0131,-17.62,-29.87,16.69,45.03,-87.12,-90.84
5126,52.39738,-1.437683,142.34,13.0,3,139.98,17 / 17,543921,2019-09-04 19:30:24:094,-0.2857,1.315,11.2761,0.0147,0.0026,9.8066,0.0105,0.1179,0.1023,-17.5,-29.69,16.75,51.39,-87.01,-86.57
5127,52.39738,-1.437683,142.34,13.0,3,139.98,17 / 17,544021,2019-09-04 19:30:24:194,0.1349,-0.4771,9.1073,0.021,-0.0352,9.8066,0.0893,0.0308,-0.0083,-18.12,-29.69,16.44,40.11,-87.03,-93.94
5128,52.39738,-1.437683,142.34,13.0,3,139.98,17 / 17,544121,2019-09-04 19:30:24:294,-0.1283,-0.268,10.9116,0.0132,0.0054,9.8066,0.0158,-0.0289,-0.0699,-18.56,-28.75,17.31,33.04,-87.13,-100.59
5129,52.39738,-1.437683,142.34,13.0,3,139.98,17 / 17,544220,2019-09-04 19:30:24:393,-0.0105,0.6022,9.4528,-0.0158,0.0166,9.8065,-0.056,-0.029,-0.0498,-18.56,-28.62,16.69,36.28,-87.25,-97.42
5130,52.39738,-1.437683,142.34,13.0,3,139.98,17 / 17,544321,2019-09-04 19:30:24:494,0.3401,0.5959,9.2819,-0.0102,0.0129,9.8065,-0.0386,0.0226,-0.0042,-18.44,-29.5,15.69,41.96,-87.31,-91.87
5131,52.39738,-1.437683,142.34,13.0,3,139.98,17 / 17,544420,2019-09-04 19:30:24:593,0.6231,-0.6251,8.2284,0.0009,0.0047,9.8066,-0.0216,0.0286,-0.0236,-18.37,-30.25,15.75,45.27,-87.33,-88.76
5132,52.39738,-1.437683,142.34,13.0,3,139.98,17 / 17,544521,2019-09-04 19:30:24:694,0.1559,0.9232,11.0127,0.0022,-0.0138,9.8066,0.0213,0.0273,0.0276,-17.62,-29.94,15.56,46.31,-87.42,-87.68
5133,52.39738,-1.437683,142.34,13.0,3,139.98,17 / 17,544620,2019-09-04 19:30:24:793,-0.2842,-0.4391,9.149,0.017,-0.0238,9.8065,0.1136,0.0905,0.0659,-18.19,-30.5,15.75,38.77,-87.3,-95.0
5134,52.39738,-1.437683,142.34,13.0,3,139.98,17 / 17,544721,2019-09-04 19:30:24:894,0.3714,-0.1554,9.8503,0.0134,-0.0251,9.8066,0.0146,0.0703,0.0645,-17.56,-30.87,16.44,30.51,-87.13,-103.03
5135,52.39738,-1.437683,142.34,13.0,3,139.98,17 / 17,544821,2019-09-04 19:30:24:994,0.293,-0.0812,8.8203,-0.0104,0.008,9.8066,-0.0643,0.0009,-0.004,-18.19,-31.37,16.56,31.31,-87.1,-103.97
5136,52.39738,-1.437683,142.34,13.0,3,139.98,17 / 17,544921,2019-09-04 19:30:25:094,-0.2074,0.5728,9.7535,-0.0301,0.0231,9.8065,-0.0892,0.0135,0.0179,-18.44,-30.44,16.69,38.77,-87.12,-96.81
5137,52.39738,-1.437683,142.34,13.0,3,139.98,17 / 17,545020,2019-09-04 19:30:25:193,0.3304,0.3887,10.2862,-0.0019,0.0076,9.8066,0.0354,0.023,-0.0051,-18.62,-30.12,16.75,44.43,-87.14,-89.79
5138,52.39738,-1.437683,142.34,13.0,3,139.98,17 / 17,545120,2019-09-04 19:30:25:293,0.4195,0.4421,10.7998,0.0181,-0.0112,9.8066,0.0656,0.0147,-0.0007,-18.87,-29.19,16.94,40.97,-87.25,-92.94
5139,52.39738,-1.437683,142.34,13.0,3,139.98,17 / 17,545220,2019-09-04 19:30:25:393,0.383,-0.6932,9.6953,0.0086,-0.0158,9.8066,0.0234,0.0041,0.0025,-19.19,-28.31,16.56,32.54,-87.19,-100.98
5140,52.39738,-1.437683,142.34,13.0,3,139.98,17 / 17,545320,2019-09-04 19:30:25:493,0.6497,-0.179,10.2708,-0.0041,0.0011,9.8066,-0.0126,-0.0146,-0.0027,-18.37,-29.06,16.75,31.98,-87.18,-103.16
5141,52.39738,-1.437683,142.34,13.0,3,139.98,17 / 17,545421,2019-09-04 19:30:25:594,0.3677,-0.0872,9.229,-0.0065,0.0071,9.8066,-0.0384,0.0075,0.0227,-18.37,-29.5,15.81,32.96,-87.18,-100.55
5142,52.39738,-1.437683,142.34,13.0,3,139.98,17 / 17,545520,2019-09-04 19:30:25:693,-0.2858,-0.0209,10.0965,-0.0056,0.0115,9.8066,-0.0242,0.0025,-0.0083,-18.44,-29.44,16.25,35.54,-87.22,-98.08
5143,52.39738,-1.437683,142.34,13.0,3,139.98,17 / 17,545620,2019-09-04 19:30:25:793,0.1062,0.3467,9.8412,0.0102,0.0048,9.8066,0.0293,-0.0117,-0.0174,-18.56,-29.5,15.69,35.6,-87.3,-96.36
5144,52.39738,-1.437683,142.34,13.0,3,139.98,17 / 17,545720,2019-09-04 19:30:25:893,0.4981,-0.6188,8.7879,0.0086,-0.0051,9.8066,0.0233,-0.016,-0.0141,-18.31,-29.44,16.0,33.06,-87.42,-100.29
5145,52.39738,-1.437683,142.34,13.0,3,139.98,17 / 17,545820,2019-09-04 19:30:25:993,0.372,0.5288,9.8569,0.0025,0.0023,9.8066,0.0004,-0.0496,-0.0055,-18.62,-29.44,16.31,29.44,-87.45,-102.15
5146,52.39738,-1.437683,142.34,13.0,3,139.98,17 / 17,545921,2019-09-04 19:30:26:094,-0.3541,-0.2241,10.0159,0.0017,-0.0005,9.8066,0.0093,-0.0316,-0.0086,-18.75,-29.31,16.25,30.21,-87.39,-101.45
5147,52.39738,-1.437683,142.34,13.0,3,139.98,17 / 17,546021,2019-09-04 19:30:26:194,0.1289,-0.1885,9.6794,0.0013,0.0006,9.8066,0.0046,-0.0582,-0.0586,-18.62,-29.0,16.13,29.0,-87.43,-102.58
5148,52.39738,-1.437683,142.34,13.0,3,139.98,17 / 17,546120,2019-09-04 19:30:26:293,0.236,0.183,10.0189,0.0043,0.0034,9.8066,-0.0002,-0.0036,-0.0021,-18.69,-29.37,16.38,29.12,-87.45,-102.45
5149,52.39738,-1.437683,142.34,13.0,3,139.98,17 / 17,546221,2019-09-04 19:30:26:394,-0.6978,0.3826,10.8243,0.0108,-0.002,9.8066,0.0317,-0.0149,-0.0372,-18.31,-29.94,16.81,31.6,-87.51,-103.37
5150,52.39738,-1.437683,142.34,13.0,3,139.98,17 / 17,546321,2019-09-04 19:30:26:494,0.5098,-0.4264,10.2411,0.0067,-0.0027,9.8066,0.0085,0.0088,0.012,-18.87,-29.62,17.06,25.0,-87.62,-108.02
5151,52.39738,-1.437683,142.34,13.0,3,139.98,17 / 17,546420,2019-09-04 19:30:26:593,0.2005,-0.5523,9.7835,-0.0074,0.0031,9.8066,-0.046,0.0328,0.0478,-17.94,-29.56,16.81,27.64,-87.62,-107.08
5152,52.39738,-1.437683,142.34,13.0,3,139.98,17 / 17,546520,2019-09-04 19:30:26:693,-0.2106,-0.1392,9.6228,-0.0114,0.0097,9.8066,-0.0385,0.0124,0.0237,-18.31,-29.31,16.44,30.55,-87.64,-102.55
5153,52.39738,-1.437683,142.34,13.0,3,139.98,17 / 17,546621,2019-09-04 19:30:26:794,-0.07,-0.0699,9.8628,-0.0073,0.0102,9.8066,-0.0109,-0.0245,-0.0232,-18.37,-29.5,16.38,36.46,-87.68,-96.85
5154,52.39738,-1.437683,142.34,13.0,3,139.98,17 / 17,546720,2019-09-04 19:30:26:893,-0.4298,-0.1032,10.1753,-0.0012,0.0017,9.8066,0.0185,-0.0111,-0.016,-18.44,-29.31,16.31,37.82,-87.72,-95.52
5155,52.39738,-1.437683,142.34,13.0,3,139.98,17 / 17,546820,2019-09-04 19:30:26:993,0.3751,-0.2301,9.4736,0.0174,-0.0002,9.8066,0.0418,-0.0167,-0.0262,-18.62,-29.31,16.44,33.21,-87.82,-98.31
5156,52.39738,-1.437683,142.34,13.0,3,139.98,17 / 17,546920,2019-09-04 19:30:27:093,0.1774,-0.1516,9.7174,0.0104,-0.0005,9.8066,0.0154,0.0171,-0.0025,-18.5,-29.44,16.38,27.5,-87.92,-105.31
5157,52.39738,-1.437683,142.34,13.0,3,139.98,17 / 17,547021,2019-09-04 19:30:27:194,-0.1318,-0.2331,9.6766,0.0063,0.0044,9.8066,-0.0186,0.0138,0.0137,-18.0,-30.0,16.31,23.79,-88.03,-108.84
5158,52.39738,-1.437683,142.34,13.0,3,139.98,17 / 17,547120,2019-09-04 19:30:27:293,0.4352,0.3595,9.6304,-0.0093,0.0039,9.8066,-0.0236,0.0217,0.0259,-18.12,-28.81,16.25,24.59,-88.11,-108.0
5159,52.39738,-1.437683,142.34,13.0,3,139.98,17 / 17,547220,2019-09-04 19:30:27:393,-0.0709,0.2869,9.6088,0.0001,0.0084,9.8066,-0.009,-0.0108,-0.0064,-18.0,-29.19,15.5,27.28,-88.15,-105.39
5160,52.39738,-1.437683,142.34,13.0,3,139.98,17 / 17,547320,2019-09-04 19:30:27:493,0.3698,-0.7039,10.0189,0.0079,0.0015,9.8066,0.0138,-0.0404,-0.0408,-18.19,-29.81,15.75,27.69,-88.26,-104.96
5161,52.39738,-1.437683,142.34,13.0,3,139.98,17 / 17,547421,2019-09-04 19:30:27:594,-0.2731,0.5965,9.9372,0.0037,-0.0018,9.8065,0.0122,-0.0469,-0.0204,-18.12,-29.37,15.88,24.46,-88.29,-108.03
5162,52.39738,-1.437683,142.34,13.0,3,139.98,17 / 17,547521,2019-09-04 19:30:27:694,0.1003,0.0451,9.6492,0.0067,0.0028,9.8066,0.011,-0.0035,-0.0046,-18.0,-29.62,15.94,23.97,-88.29,-108.53
5163,52.39738,-1.437683,142.34,13.0,3,139.98,17 / 17,547621,2019-09-04 19:30:27:794,-0.3744,0.1899,9.53,0.0054,0.0054,9.8066,-0.0099,-0.0026,-0.0116,-18.37,-30.0,16.38,21.93,-88.39,-110.46
5164,52.39738,-1.437683,142.34,13.0,3,139.98,17 / 17,547720,2019-09-04 19:30:27:893,-0.2008,-0.0681,10.004,0.0065,0.0037,9.8066,0.0059,0.0293,0.0077,-18.0,-29.37,16.31,21.54,-88.46,-110.79
5165,52.39738,-1.437683,142.34,13.0,3,139.98,17 / 17,547820,2019-09-04 19:30:27:993,-0.2752,0.0605,9.5929,0.0136,0.0013,9.8066,0.0271,-0.0218,-0.0192,-18.06,-28.56,16.75,19.89,-88.52,-114.07
5166,52.39738,-1.437683,142.34,13.0,3,139.98,17 / 17,547921,2019-09-04 19:30:28:094,0.0632,-0.3308,9.2035,0.0038,-0.0023,9.8066,0.0093,-0.0262,-0.023,-17.94,-28.62,15.88,9.59,-88.56,-122.33
5167,52.39738,-1.437683,142.34,13.0,3,139.98,17 / 17,548021,2019-09-04 19:30:28:194,0.0803,0.1242,9.7153,-0.008,0.0074,9.8066,-0.0477,-0.0062,-0.0011,-17.75,-28.81,15.88,12.29,-88.6,-119.71
5168,52.39738,-1.437683,142.34,13.0,3,139.98,17 / 17,548121,2019-09-04 19:30:28:294,-0.2907,0.1513,9.786,-0.0097,0.0067,9.8066,-0.0277,-0.0136,0.0068,-17.75,-29.25,16.13,19.68,-88.71,-112.48
5169,52.39738,-1.437683,142.34,13.0,3,139.98,17 / 17,548222,2019-09-04 19:30:28:395,-0.2553,0.1917,10.556,-0.0011,-0.0046,9.8066,0.0328,-0.0026,0.0128,-18.5,-29.25,15.44,22.19,-88.71,-108.22
5170,52.39738,-1.437683,142.34,13.0,3,139.98,17 / 17,548320,2019-09-04 19:30:28:493,0.1047,0.1809,9.895,0.0075,-0.0119,9.8066,0.0309,-0.0193,-0.0007,-18.25,-30.25,15.56,18.29,-88.64,-113.87
5171,52.39738,-1.437683,142.34,13.0,3,139.98,17 / 17,548421,2019-09-04 19:30:28:594,0.2491,-0.0041,10.2451,0.0039,-0.003,9.8066,0.0001,-0.003,-0.0105,-18.19,-30.25,16.75,16.06,-88.54,-117.79
5172,52.39738,-1.437683,142.34,13.0,3,139.98,17 / 17,548521,2019-09-04 19:30:28:694,-0.0331,-0.1357,9.6695,-0.0073,0.0015,9.8066,-0.0099,-0.0189,-0.0069,-18.37,-29.5,16.75,16.01,-88.57,-117.82
5173,52.39738,-1.437683,142.34,13.0,3,139.98,17 / 17,548621,2019-09-04 19:30:28:794,-0.2395,0.3742,9.1773,-0.0088,0.0031,9.8066,-0.0164,0.03,0.0321,-18.06,-29.19,16.19,20.09,-88.58,-112.13
5174,52.39738,-1.437683,142.34,13.0,3,139.98,17 / 17,548721,2019-09-04 19:30:28:894,0.0733,0.0618,9.9164,0.0054,-0.0042,9.8066,0.0171,0.0214,0.0208,-18.31,-29.62,15.88,21.7,-88.58,-110.6
5175,52.39738,-1.437683,142.34,13.0,3,139.98,17 / 17,548821,2019-09-04 19:30:28:994,0.4198,-0.2363,9.7223,0.0038,-0.0033,9.8066,-0.0131,0.023,0.0187,-19.06,-29.69,16.38,15.13,-88.54,-115.44
5176,52.39738,-1.437683,142.34,13.0,3,139.98,17 / 17,548920,2019-09-04 19:30:29:093,-0.1054,0.0854,9.7331,-0.0107,0.0037,9.8065,-0.0394,0.0106,0.0119,-18.81,-28.87,16.69,20.58,-88.53,-111.84
5177,52.39738,-1.437683,142.34,13.0,3,139.98,17 / 17,549020,2019-09-04 19:30:29:193,-0.2256,0.3762,9.7877,-0.0018,0.0173,9.8066,-0.0193,0.0017,-0.0273,-19.06,-28.62,15.75,26.15,-88.6,-104.68
5178,52.39738,-1.437683,142.34,13.0,3,139.98,17 / 17,549121,2019-09-04 19:30:29:294,-0.0811,0.5421,9.9931,0.0091,0.0051,9.8066,0.0249,-0.0162,-0.0568,-18.31,-29.06,15.31,30.58,-88.77,-100.0
5179,52.39738,-1.437683,142.34,13.0,3,139.98,17 / 17,549220,2019-09-04 19:30:29:393,0.9433,-0.0538,9.6916,0.0137,-0.0041,9.8066,0.0281,-0.0025,-0.0372,-19.0,-29.56,16.38,21.17,-88.86,-109.43
5180,52.39738,-1.437683,142.34,13.0,3,139.98,17 / 17,549321,2019-09-04 19:30:29:494,0.0891,-0.3079,9.3306,-0.0244,-0.0055,9.8066,-0.0474,0.0447,0.0595,-19.06,-29.56,16.13,17.76,-88.83,-112.78
5181,52.39738,-1.437683,142.34,13.0,3,139.98,17 / 17,549421,2019-09-04 19:30:29:594,1.1342,1.1903,10.5885,-0.0259,0.0183,9.8066,0.0618,-0.1986,-0.2506,-19.0,-29.69,15.44,30.36,-88.77,-98.71
5182,52.39738,-1.437683,142.34,13.0,3,139.98,17 / 17,549520,2019-09-04 19:30:29:693,-1.0774,1.5509,9.4794,0.0502,-0.042,9.8064,0.1774,0.0125,0.0003,-19.19,-30.06,16.0,31.39,-88.91,-99.4
5183,52.39738,-1.437683,142.34,13.0,3,139.98,17 / 17,549620,2019-09-04 19:30:29:793,0.1835,0.1037,9.4849,0.014,-0.0105,9.8066,-0.0087,0.2145,0.1437,-19.0,-29.25,16.63,355.05,-88.61,-136.63
5184,52.39738,-1.437683,142.34,13.0,3,139.98,17 / 17,549721,2019-09-04 19:30:29:894,0.6175,0.2825,10.1647,-0.0203,0.0178,9.8066,-0.0854,0.1103,0.0632,-18.81,-28.62,15.94,354.38,-88.67,-135.57
5185,52.39738,-1.437683,142.34,13.0,3,139.98,17 / 17,549820,2019-09-04 19:30:29:993,0.0452,0.9446,9.4707,-0.0089,0.0249,9.8065,-0.0444,0.0509,-0.0094,-18.62,-29.12,15.75,8.04,-89.08,-122.21
5186,52.39738,-1.437683,142.34,13.0,3,139.98,17 / 17,549921,2019-09-04 19:30:30:094,-0.0285,0.7648,9.469,-0.0038,0.0069,9.8066,-0.0167,0.0238,-0.0223,-18.69,-29.37,15.81,15.72,-89.26,-114.62
5187,52.39738,-1.437683,142.34,13.0,3,139.98,17 / 17,550020,2019-09-04 19:30:30:193,0.1384,-0.1841,9.7475,-0.0021,-0.0015,9.8066,-0.0042,0.0299,-0.0086,-18.44,-29.69,15.5,22.04,-89.33,-109.91
5188,52.39738,-1.437683,142.34,13.0,3,139.98,17 / 17,550120,2019-09-04 19:30:30:293,0.0071,0.4237,9.4859,-0.0009,0.0055,9.8066,-0.0101,0.0424,0.0031,-18.75,-29.75,15.63,20.54,-89.35,-109.84
5189,52.39738,-1.437683,142.34,13.0,3,139.98,17 / 17,550220,2019-09-04 19:30:30:393,0.4385,-0.0152,10.8406,0.011,0.003,9.8066,0.015,0.0374,-0.0219,-18.44,-29.81,16.0,14.78,-89.48,-117.02
5190,52.39673,-1.436294,142.09,13.51,3,122.97,17 / 17,550321,2019-09-04 19:30:30:494,0.512,0.4479,10.1037,0.0235,-0.0042,9.8066,0.0214,0.0521,0.0095,-18.31,-30.37,15.06,357.63,-89.47,-132.15
5191,52.39673,-1.436294,142.09,13.51,3,122.97,17 / 17,550420,2019-09-04 19:30:30:593,0.2935,-0.0057,10.0395,0.0034,0.0038,9.8066,-0.0127,0.0709,0.0226,-18.56,-30.06,15.69,351.72,-89.41,-138.28
5192,52.39673,-1.436294,142.09,13.51,3,122.97,17 / 17,550521,2019-09-04 19:30:30:694,0.3473,0.6642,9.7685,0.0,0.0019,9.8066,0.0009,0.0514,0.0211,-18.69,-29.12,16.81,350.43,-89.47,-141.29
5193,52.39673,-1.436294,142.09,13.51,3,122.97,17 / 17,550621,2019-09-04 19:30:30:794,0.2556,0.0464,9.8675,0.0005,-0.0063,9.8066,0.0083,0.0262,-0.0071,-18.75,-29.12,15.44,349.14,-89.4,-139.01
5194,52.39673,-1.436294,142.09,13.51,3,122.97,17 / 17,550721,2019-09-04 19:30:30:894,0.4713,0.3996,9.5232,-0.0019,0.0044,9.8066,-0.0106,0.0328,0.002,-18.75,-29.06,15.5,348.13,-89.37,-141.82
5195,52.39673,-1.436294,142.09,13.51,3,122.97,17 / 17,550820,2019-09-04 19:30:30:993,-0.5115,0.6691,10.2161,-0.0064,-0.0027,9.8066,0.0029,0.0185,0.0159,-19.0,-29.25,15.19,354.79,-89.42,-133.44
5196,52.39673,-1.436294,142.09,13.51,3,122.97,17 / 17,550921,2019-09-04 19:30:31:094,0.0044,0.1764,9.6888,0.0103,-0.0048,9.8066,0.0299,0.0727,0.028,-18.25,-28.81,15.0,352.53,-89.36,-137.17
5197,52.39673,-1.436294,142.09,13.51,3,122.97,17 / 17,551020,2019-09-04 19:30:31:193,0.608,0.1155,9.6561,0.0093,-0.0043,9.8066,0.0007,0.0326,0.0038,-18.69,-29.5,15.25,341.98,-89.26,-146.03
5198,52.39673,-1.436294,142.09,13.51,3,122.97,17 / 17,551121,2019-09-04 19:30:31:294,-0.1273,0.2119,10.1626,-0.0079,0.0055,9.8066,-0.0292,0.0611,0.0147,-18.62,-29.19,15.69,344.06,-89.24,-145.79
5199,52.39673,-1.436294,142.09,13.51,3,122.97,17 / 17,551220,2019-09-04 19:30:31:393,0.3957,0.5183,9.8174,-0.0025,0.0059,9.8066,-0.011,0.0689,0.0267,-19.0,-29.69,15.31,347.82,-89.33,-140.29
5200,52.39673,-1.436294,142.09,13.51,3,122.97,16 / 17,551320,2019-09-04 19:30:31:493,0.503,0.0926,9.0328,0.0035,-0.0157,9.8066,0.0035,0.0322,-0.0035,-19.0,-29.31,15.31,348.48,-89.36,-139.66
5201,52.39673,-1.436294,142.09,13.51,3,122.97,16 / 17,551421,2019-09-04 19:30:31:594,0.2754,0.3455,10.0776,-0.0104,0.0039,9.8066,-0.03,0.0323,-0.0227,-18.94,-29.12,14.75,353.99,-89.3,-134.22
5202,52.39673,-1.436294,142.09,13.51,3,122.97,16 / 17,551521,2019-09-04 19:30:31:694,0.1551,0.7441,9.911,-0.0083,0.0022,9.8066,0.011,0.033,-0.0088,-19.19,-29.5,14.63,6.62,-89.42,-121.75
5203,52.39673,-1.436294,142.09,13.51,3,122.97,16 / 17,551621,2019-09-04 19:30:31:794,0.5528,0.4965,10.5665,0.005,-0.0169,9.8066,0.0494,0.0414,0.0237,-19.12,-28.69,15.13,10.52,-89.38,-117.9
5204,52.39673,-1.436294,142.09,13.51,3,122.97,16 / 17,551720,2019-09-04 19:30:31:893,0.6125,0.1899,8.9677,0.0022,-0.022,9.8066,0.0367,0.0184,0.0121,-19.5,-28.31,15.19,0.59,-89.02,-127.71
5205,52.39673,-1.436294,142.09,13.51,3,122.97,16 / 17,551820,2019-09-04 19:30:31:993,0.5054,0.5552,10.4047,-0.0048,0.008,9.8066,-0.0347,0.0757,0.0077,-19.25,-29.25,15.0,359.96,-88.88,-128.33
5206,52.39673,-1.436294,142.09,13.51,3,122.97,16 / 17,551920,2019-09-04 19:30:32:093,0.0144,0.0653,8.3408,-0.0193,0.0,9.8066,-0.039,0.071,0.0221,-19.0,-29.87,14.69,7.2,-88.97,-121.25
5207,52.39673,-1.436294,142.09,13.51,3,122.97,16 / 17,552020,2019-09-04 19:30:32:193,1.1033,0.0818,10.22,-0.0066,0.009,9.8066,-0.0589,0.0519,-0.0151,-19.44,-29.37,15.13,19.74,-89.02,-108.94
5208,52.39673,-1.436294,142.09,13.51,3,122.97,16 / 17,552120,2019-09-04 19:30:32:293,-0.5011,1.8279,9.3813,0.0007,0.0077,9.8066,0.0177,0.0349,-0.0054,-19.31,-29.0,14.94,34.71,-89.16,-94.15
5209,52.39673,-1.436294,142.09,13.51,3,122.97,16 / 17,552223,2019-09-04 19:30:32:396,0.2546,0.3397,10.0912,0.0132,-0.0092,9.8066,0.0521,0.0472,0.0017,-19.56,-29.12,14.31,29.59,-89.2,-95.88
5210,52.39673,-1.436294,142.09,13.51,3,122.97,17 / 17,552321,2019-09-04 19:30:32:494,0.1474,0.1785,10.7297,0.0066,-0.0111,9.8066,0.0234,0.0472,0.0164,-19.69,-29.19,14.5,11.8,-89.08,-115.29
5211,52.39673,-1.436294,142.09,13.51,3,122.97,17 / 17,552420,2019-09-04 19:30:32:593,0.0005,0.275,10.11,-0.0036,-0.009,9.8066,0.0072,0.0237,0.0053,-19.19,-28.87,14.75,8.91,-88.94,-119.58
5212,52.39673,-1.436294,142.09,13.51,3,122.97,17 / 17,552520,2019-09-04 19:30:32:693,0.1607,0.3286,9.8118,-0.0016,-0.0039,9.8065,-0.0009,0.0187,-0.0239,-18.87,-29.25,14.5,9.98,-88.88,-118.55
5213,52.39673,-1.436294,142.09,13.51,3,122.97,17 / 17,552621,2019-09-04 19:30:32:794,0.1342,0.517,10.6229,-0.0018,-0.0088,9.8066,0.0092,0.0256,0.0097,-19.0,-29.06,14.94,10.09,-88.8,-118.45
5214,52.39673,-1.436294,142.09,13.51,3,122.97,17 / 17,552720,2019-09-04 19:30:32:893,0.1796,0.0916,10.3894,-0.0031,-0.0107,9.8066,0.0121,0.0482,0.04,-19.81,-28.19,14.63,9.64,-88.7,-117.47
5215,52.39673,-1.436294,142.09,13.51,3,122.97,17 / 17,552820,2019-09-04 19:30:32:993,0.4066,0.2137,9.2169,-0.0072,-0.0101,9.8066,-0.0066,0.01,0.0113,-20.25,-28.44,14.19,8.7,-88.55,-116.54
5216,52.39673,-1.436294,142.09,13.51,3,122.97,17 / 17,552920,2019-09-04 19:30:33:093,0.6634,0.5838,9.036,-0.0243,0.0047,9.8066,-0.0524,0.0318,0.0424,-20.12,-28.75,13.5,16.24,-88.42,-109.28
5217,52.39673,-1.436294,142.09,13.51,3,122.97,17 / 17,553020,2019-09-04 19:30:33:193,-0.0862,0.3345,10.2743,-0.0255,0.0048,9.8066,-0.0475,0.0424,0.0286,-20.44,-28.75,14.06,31.65,-88.33,-94.4
5218,52.39673,-1.436294,142.09,13.51,3,122.97,17 / 17,553120,2019-09-04 19:30:33:293,-0.0755,0.2761,9.403,-0.0027,0.0039,9.8066,0.0085,0.0112,-0.0172,-20.12,-28.5,13.75,36.76,-88.31,-89.41
5219,52.39673,-1.436294,142.09,13.51,3,122.97,17 / 17,553220,2019-09-04 19:30:33:393,0.0714,0.1762,10.612,0.0079,-0.0068,9.8066,0.0352,0.0514,0.0266,-20.12,-28.87,13.69,34.44,-88.34,-91.68
5220,52.39673,-1.436294,142.09,13.51,3,122.97,17 / 17,553320,2019-09-04 19:30:33:493,0.2082,-0.4615,10.2281,0.0141,-0.0063,9.8066,0.0376,0.0737,0.0218,-20.5,-29.06,13.69,27.6,-88.32,-98.33
5221,52.39673,-1.436294,142.09,13.51,3,122.97,17 / 17,553421,2019-09-04 19:30:33:594,0.2069,0.3322,9.6263,-0.0029,-0.0094,9.8066,0.0,0.0179,0.0121,-20.37,-28.75,13.88,22.19,-88.31,-103.57
5222,52.39673,-1.436294,142.09,13.51,3,122.97,17 / 17,553520,2019-09-04 19:30:33:693,-0.0674,0.2716,9.8333,-0.0145,-0.0056,9.8066,-0.0065,-0.0027,-0.0196,-21.0,-28.81,13.5,24.0,-88.13,-100.58
5223,52.39673,-1.436294,142.09,13.51,3,122.97,17 / 17,553620,2019-09-04 19:30:33:793,-0.2023,0.1651,9.3082,-0.008,0.0082,9.8066,-0.0161,0.0358,0.0085,-20.62,-28.5,13.69,29.82,-88.09,-94.94
5224,52.39673,-1.436294,142.09,13.51,3,122.97,17 / 17,553721,2019-09-04 19:30:33:894,-0.2903,0.536,10.2023,-0.0079,0.0026,9.8066,-0.0047,0.0425,0.0143,-20.56,-28.94,13.75,32.96,-88.07,-91.95
5225,52.39673,-1.436294,142.09,13.51,3,122.97,17 / 17,553820,2019-09-04 19:30:33:993,-0.8398,0.484,10.648,0.009,-0.0065,9.8066,0.0571,0.0438,-0.001,-21.25,-28.75,13.75,32.28,-88.06,-92.62
5226,52.39673,-1.436294,142.09,13.51,3,122.97,17 / 17,553920,2019-09-04 19:30:34:093,0.3334,0.0292,10.6709,0.0276,-0.0141,9.8065,0.066,0.0292,-0.0208,-20.44,-28.25,13.44,21.49,-88.09,-102.37
5227,52.39673,-1.436294,142.09,13.51,3,122.97,17 / 17,554020,2019-09-04 19:30:34:193,0.0924,0.1773,9.3484,0.0099,-0.0023,9.8066,0.0101,0.0045,-0.036,-20.31,-28.44,13.94,13.52,-88.07,-111.99
5228,52.39673,-1.436294,142.09,13.51,3,122.97,17 / 17,554120,2019-09-04 19:30:34:293,-0.6755,0.3781,10.1214,-0.0129,0.0008,9.8066,-0.0003,0.0018,-0.0151,-20.5,-28.81,13.31,11.73,-88.14,-111.76
5229,52.39673,-1.436294,142.09,13.51,3,122.97,17 / 17,554220,2019-09-04 19:30:34:393,-0.4008,0.709,10.0749,0.0033,-0.0036,9.8066,0.0161,0.0289,0.01,-20.75,-27.81,13.63,14.89,-88.09,-109.35
5230,52.39673,-1.436294,142.09,13.51,3,122.97,17 / 17,554321,2019-09-04 19:30:34:494,-0.2655,0.2937,10.7344,0.0086,-0.0102,9.8066,0.0332,0.0636,0.0375,-21.0,-28.81,13.63,12.59,-87.99,-111.61
5231,52.39673,-1.436294,142.09,13.51,3,122.97,17 / 17,554420,2019-09-04 19:30:34:593,-0.0419,0.1178,9.9883,0.0122,-0.0086,9.8066,0.0294,0.0326,0.0018,-20.94,-29.0,14.0,6.83,-87.85,-117.16
5232,52.39673,-1.436294,142.09,13.51,3,122.97,17 / 17,554521,2019-09-04 19:30:34:694,-0.4933,0.1651,9.436,-0.0019,0.0099,9.8066,-0.0365,0.0508,-0.0081,-21.12,-28.94,14.38,4.6,-87.81,-119.29
5233,52.39673,-1.436294,142.09,13.51,3,122.97,17 / 17,554621,2019-09-04 19:30:34:794,0.1332,0.4446,10.0275,-0.0056,0.016,9.8066,-0.0226,0.0447,-0.0004,-21.19,-28.69,13.88,6.72,-87.94,-117.26
5234,52.39673,-1.436294,142.09,13.51,3,122.97,17 / 17,554720,2019-09-04 19:30:34:893,-0.1372,0.2921,9.7225,0.0071,0.0013,9.8066,0.0146,0.0165,-0.017,-21.12,-28.5,13.31,6.92,-88.1,-115.11
5235,52.39673,-1.436294,142.09,13.51,3,122.97,17 / 17,554820,2019-09-04 19:30:34:993,-0.085,0.1206,9.5817,-0.0031,0.0028,9.8066,-0.0119,0.0201,-0.0145,-20.87,-28.75,13.56,7.86,-88.13,-116.12
5236,52.39673,-1.436294,142.09,13.51,3,122.97,17 / 17,554920,2019-09-04 19:30:35:093,-0.8058,0.5704,9.7177,-0.0017,0.0008,9.8066,0.0073,0.0164,0.0021,-21.25,-28.37,13.13,7.01,-88.18,-115.01
5237,52.39673,-1.436294,142.09,13.51,3,122.97,17 / 17,555020,2019-09-04 19:30:35:193,-0.1869,0.0954,10.4361,0.0063,0.0043,9.8066,0.0198,0.0244,-0.0222,-21.12,-29.0,12.88,5.86,-88.21,-116.12
5238,52.39673,-1.436294,142.09,13.51,3,122.97,17 / 17,555120,2019-09-04 19:30:35:293,-0.538,0.786,11.0209,0.0085,0.008,9.8066,0.0392,-0.0255,-0.0639,-21.25,-29.37,13.69,4.57,-88.31,-119.27
5239,52.39673,-1.436294,142.09,13.51,3,122.97,17 / 17,555220,2019-09-04 19:30:35:393,-0.2004,-0.1445,9.5296,0.0161,0.0008,9.8066,0.0296,-0.0049,-0.0503,-20.69,-28.87,13.88,359.21,-88.35,-124.46
5240,52.39673,-1.436294,142.09,13.51,3,122.97,17 / 17,555320,2019-09-04 19:30:35:493,-0.2497,0.369,9.8905,-0.0031,0.0107,9.8065,-0.0193,-0.049,-0.0531,-20.75,-28.87,13.75,351.53,-88.42,-131.89
5241,52.39673,-1.436294,142.09,13.51,3,122.97,17 / 17,555421,2019-09-04 19:30:35:594,-0.9345,0.6656,10.3149,-0.0053,0.01,9.8066,-0.008,0.0071,0.006,-21.37,-29.62,13.31,352.36,-88.61,-129.17
5242,52.39673,-1.436294,142.09,13.51,3,122.97,17 / 17,555521,2019-09-04 19:30:35:694,-0.6461,0.4605,10.0267,0.0048,-0.0045,9.8066,0.0183,-0.0062,-0.0155,-20.69,-28.94,13.69,353.52,-88.62,-129.99
5243,52.39673,-1.436294,142.09,13.51,3,122.97,17 / 17,555620,2019-09-04 19:30:35:793,-0.5047,0.4267,8.9717,0.0018,-0.0004,9.8066,-0.0105,-0.0121,0.0051,-20.81,-29.06,13.56,351.44,-88.57,-132.0
5244,52.39673,-1.436294,142.09,13.51,3,122.97,17 / 17,555721,2019-09-04 19:30:35:894,-1.1984,0.5053,10.2252,-0.0015,0.0083,9.8066,0.0021,-0.0232,-0.0512,-20.94,-29.5,13.63,355.95,-88.6,-127.62
5245,52.39673,-1.436294,142.09,13.51,3,122.97,17 / 17,555821,2019-09-04 19:30:35:994,-0.2331,0.0375,9.8464,0.0071,0.0079,9.8066,0.0127,0.0269,-0.0021,-20.69,-29.44,14.25,355.48,-88.69,-128.1
5246,52.39673,-1.436294,142.09,13.51,3,122.97,17 / 17,555920,2019-09-04 19:30:36:093,-0.836,0.3867,10.4575,0.0026,0.0078,9.8066,-0.008,0.0148,-0.0199,-20.25,-29.06,13.13,349.33,-88.77,-133.42
5247,52.39673,-1.436294,142.09,13.51,3,122.97,17 / 17,556020,2019-09-04 19:30:36:193,-1.243,0.3147,10.8773,0.0066,0.0081,9.8066,0.0201,0.0011,-0.0362,-20.69,-29.5,12.94,344.41,-88.9,-137.0
5248,52.39673,-1.436294,142.09,13.51,3,122.97,17 / 17,556120,2019-09-04 19:30:36:293,-0.0748,-0.0512,10.2315,0.0136,-0.0001,9.8066,0.0206,0.005,-0.0102,-20.25,-29.75,13.94,338.32,-88.88,-146.16
5249,52.39673,-1.436294,142.09,13.51,3,122.97,17 / 17,556220,2019-09-04 19:30:36:393,-1.0046,0.4751,9.863,0.0037,-0.0013,9.8066,-0.0001,-0.0036,0.0086,-20.44,-28.75,13.25,330.69,-88.8,-151.61
5250,52.39673,-1.436294,142.09,13.51,3,122.97,17 / 17,556320,2019-09-04 19:30:36:493,-1.0036,0.5906,9.9729,0.0008,0.0029,9.8066,0.0027,-0.0089,-0.0168,-20.31,-29.44,13.75,335.08,-88.85,-149.33
5251,52.39673,-1.436294,142.09,13.51,3,122.97,17 / 17,556421,2019-09-04 19:30:36:594,-0.947,0.7192,9.8471,0.0001,0.0008,9.8066,0.0034,0.0125,0.0122,-20.5,-29.25,13.81,335.28,-88.87,-149.15
5252,52.39673,-1.436294,142.09,13.51,3,122.97,17 / 17,556520,2019-09-04 19:30:36:693,-0.9773,0.6566,9.3496,-0.0008,-0.0065,9.8066,0.0074,-0.0048,0.008,-20.37,-28.81,13.75,334.25,-88.82,-150.13
5253,52.39673,-1.436294,142.09,13.51,3,122.97,17 / 17,556621,2019-09-04 19:30:36:794,-0.8659,0.2819,8.9957,-0.001,0.0024,9.8066,-0.0272,0.0375,0.0276,-20.62,-29.12,13.25,333.43,-88.79,-147.69
5254,52.39673,-1.436294,142.09,13.51,3,122.97,17 / 17,556720,2019-09-04 19:30:36:893,-1.5219,0.7325,9.73,-0.0156,0.0105,9.8066,-0.0373,0.0287,0.0161,-20.5,-29.12,13.63,342.5,-88.9,-142.1
5255,52.39673,-1.436294,142.09,13.51,3,122.97,17 / 17,556821,2019-09-04 19:30:36:994,-0.6898,0.8697,9.9318,-0.0038,0.0049,9.8066,-0.0041,0.0412,0.0305,-20.5,-29.06,12.44,345.66,-89.11,-135.03
5256,52.39673,-1.436294,142.09,13.51,3,122.97,17 / 17,556921,2019-09-04 19:30:37:094,-1.0929,0.5149,9.3198,0.0044,-0.0067,9.8066,0.0091,0.036,0.044,-21.06,-30.19,12.88,348.95,-89.05,-132.59
5257,52.39673,-1.436294,142.09,13.51,3,122.97,17 / 17,557020,2019-09-04 19:30:37:193,-1.308,0.2485,9.4367,-0.0042,-0.0043,9.8066,-0.0142,-0.0007,-0.0251,-20.62,-29.94,13.25,348.74,-88.97,-132.77
5258,52.39673,-1.436294,142.09,13.51,3,122.97,17 / 17,557120,2019-09-04 19:30:37:293,-0.9525,0.3595,9.9043,0.0,0.0149,9.8066,-0.0151,0.0583,0.0214,-20.69,-29.69,12.75,350.86,-89.1,-130.73
5259,52.39673,-1.436294,142.09,13.51,3,122.97,17 / 17,557222,2019-09-04 19:30:37:395,-0.9647,0.5075,10.3702,0.0068,0.005,9.8066,0.001,0.0514,0.0261,-20.87,-29.69,13.88,349.28,-89.22,-134.24
5260,52.39673,-1.436294,142.09,13.51,3,122.97,17 / 17,557320,2019-09-04 19:30:37:493,-0.2235,0.7203,9.7124,0.0171,-0.0024,9.8066,0.0405,0.0225,-0.0062,-20.87,-28.87,13.56,335.27,-89.19,-148.03
5261,52.39673,-1.436294,142.09,13.51,3,122.97,17 / 17,557421,2019-09-04 19:30:37:594,-0.7677,0.6434,9.7101,0.0042,-0.0048,9.8066,0.008,0.0326,0.0107,-20.69,-29.12,13.5,326.09,-89.04,-156.98
5262,52.39673,-1.436294,142.09,13.51,3,122.97,17 / 17,557521,2019-09-04 19:30:37:694,-0.8005,1.0686,10.1524,-0.0057,0.0073,9.8066,-0.0111,-0.0011,-0.0397,-20.81,-28.75,13.81,324.37,-89.05,-158.68
5263,52.39673,-1.436294,142.09,13.51,3,122.97,17 / 17,557621,2019-09-04 19:30:37:794,-0.5674,1.0878,9.9645,-0.0013,0.0044,9.8066,0.0064,0.0177,-0.0066,-20.44,-29.87,13.25,324.47,-89.15,-157.93
5264,52.39673,-1.436294,142.09,13.51,3,122.97,17 / 17,557721,2019-09-04 19:30:37:894,-0.2082,0.4486,10.0892,-0.0004,0.0006,9.8066,0.012,0.034,-0.0157,-21.12,-29.06,13.75,324.2,-89.18,-158.93
5265,52.39673,-1.436294,142.09,13.51,3,122.97,17 / 17,557820,2019-09-04 19:30:37:993,-0.7599,0.6597,10.4127,0.0017,0.0013,9.8066,0.0193,0.0477,-0.0172,-20.37,-29.69,13.06,319.25,-89.19,-163.11
5266,52.39673,-1.436294,142.09,13.51,3,122.97,17 / 17,557920,2019-09-04 19:30:38:093,-0.5965,0.8356,10.3962,0.016,0.0048,9.8066,0.0449,0.0727,-0.0394,-20.56,-29.56,13.56,310.06,-89.12,-172.83
5267,52.39673,-1.436294,142.09,13.51,3,122.97,17 / 17,558021,2019-09-04 19:30:38:194,0.5363,0.9763,8.8735,0.0162,0.0013,9.8066,0.0213,0.0767,0.0016,-20.87,-29.81,13.0,295.39,-88.89,174.85
5268,52.39673,-1.436294,142.09,13.51,3,122.97,17 / 17,558121,2019-09-04 19:30:38:294,-0.3938,1.3066,9.4685,-0.0143,0.0191,9.8066,-0.0713,0.1155,-0.0037,-20.25,-29.56,12.56,295.86,-88.91,174.07
5269,52.39673,-1.436294,142.09,13.51,3,122.97,17 / 17,558221,2019-09-04 19:30:38:394,-0.2343,2.0153,10.5213,-0.0218,0.0226,9.8065,-0.0658,0.1359,0.0061,-20.81,-29.81,12.63,285.43,-89.18,164.63
5270,52.39673,-1.436294,142.09,13.51,3,122.97,17 / 17,558321,2019-09-04 19:30:38:494,-0.3525,1.6533,10.0491,0.002,0.0048,9.8066,0.0239,0.1147,-0.0091,-20.44,-29.62,12.13,262.75,-89.54,142.38
5271,52.39673,-1.436294,142.09,13.51,3,122.97,17 / 17,558420,2019-09-04 19:30:38:593,-0.4137,1.3737,9.4925,0.0143,-0.0108,9.8065,0.0539,0.117,-0.0054,-20.5,-29.37,11.94,269.74,-89.39,149.53
5272,52.39673,-1.436294,142.09,13.51,3,122.97,17 / 17,558521,2019-09-04 19:30:38:694,-0.0947,1.2428,9.8513,0.0078,-0.0009,9.8066,0.0131,0.138,-0.0026,-20.37,-29.37,12.06,276.09,-89.21,156.1
5273,52.39673,-1.436294,142.09,13.51,3,122.97,17 / 17,558621,2019-09-04 19:30:38:794,-0.3828,1.3917,9.7047,-0.0088,-0.0038,9.8066,-0.0114,0.1433,-0.0047,-21.06,-29.56,11.81,275.51,-89.18,156.78
5274,52.39673,-1.436294,142.09,13.51,3,122.97,17 / 17,558720,2019-09-04 19:30:38:893,-0.1214,1.4066,10.3728,-0.0048,0.0103,9.8065,-0.0088,0.1637,-0.0375,-20.94,-29.62,11.44,266.41,-89.25,149.72
5275,52.39673,-1.436294,142.09,13.51,3,122.97,17 / 17,558820,2019-09-04 19:30:38:993,0.1646,1.7681,9.2126,0.0016,0.0067,9.8066,0.002,0.1463,-0.0131,-20.87,-29.44,10.75,258.13,-89.25,141.38
5276,52.39673,-1.436294,142.09,13.51,3,122.97,17 / 17,558920,2019-09-04 19:30:39:093,0.4957,1.5872,9.9139,-0.0022,-0.0013,9.8066,0.0046,0.1581,-0.0106,-21.25,-29.62,10.75,257.74,-89.28,140.98
5277,52.39673,-1.436294,142.09,13.51,3,122.97,17 / 17,559021,2019-09-04 19:30:39:194,-0.0165,1.277,9.8876,-0.0036,-0.0019,9.8066,-0.0158,0.177,0.0047,-20.94,-28.94,10.19,255.2,-89.31,140.56
5278,52.39673,-1.436294,142.09,13.51,3,122.97,17 / 17,559120,2019-09-04 19:30:39:293,0.3021,1.2365,10.0397,-0.0025,0.0079,9.8066,-0.0028,0.19,-0.0157,-20.94,-29.87,10.31,249.86,-89.35,135.18
5279,52.39673,-1.436294,142.09,13.51,3,122.97,17 / 17,559220,2019-09-04 19:30:39:393,0.7094,1.6968,9.9681,0.0009,0.0032,9.8066,-0.003,0.2149,0.0084,-21.19,-29.31,9.69,242.72,-89.31,128.02
5280,52.396294,-1.434801,142.04,9.68,3,100.99,17 / 17,559320,2019-09-04 19:30:39:493,0.3504,1.3186,9.8847,0.0019,0.0211,9.8065,-0.0068,0.1967,-0.0596,-21.19,-30.19,8.81,236.12,-89.28,123.7
5281,52.396294,-1.434801,142.04,9.68,3,100.99,17 / 17,559421,2019-09-04 19:30:39:594,0.7239,2.1905,10.3389,0.0011,0.0214,9.8066,-0.0211,0.2216,-0.0278,-20.81,-29.19,8.63,219.36,-89.02,106.95
5282,52.396294,-1.434801,142.04,9.68,3,100.99,17 / 17,559520,2019-09-04 19:30:39:693,0.3752,1.9472,9.6624,-0.0097,0.008,9.8066,-0.0183,0.2289,0.0102,-20.62,-30.12,8.31,209.18,-88.94,99.02
5283,52.396294,-1.434801,142.04,9.68,3,100.99,17 / 17,559620,2019-09-04 19:30:39:793,0.806,1.4477,9.8061,-0.0076,0.0007,9.8066,-0.0268,0.2543,0.036,-21.37,-29.44,7.63,201.94,-88.95,91.59
5284,52.396294,-1.434801,142.04,9.68,3,100.99,17 / 17,559720,2019-09-04 19:30:39:893,-0.2076,1.4837,10.036,0.001,0.0012,9.8066,0.0074,0.2083,-0.0361,-21.0,-30.19,7.31,194.95,-88.99,86.86
5285,52.396294,-1.434801,142.04,9.68,3,100.99,17 / 17,559820,2019-09-04 19:30:39:993,-0.1757,1.7802,9.7236,0.007,0.0041,9.8066,0.0135,0.2065,-0.0224,-21.06,-29.12,6.94,195.87,-88.92,87.82
5286,52.396294,-1.434801,142.04,9.68,3,100.99,17 / 17,559921,2019-09-04 19:30:40:094,0.6433,1.9136,9.5517,0.0096,-0.0013,9.8066,0.0054,0.22,0.0233,-21.69,-29.69,6.38,199.17,-88.85,94.41
5287,52.396294,-1.434801,142.04,9.68,3,100.99,17 / 17,560020,2019-09-04 19:30:40:193,0.2705,0.8338,9.9373,-0.001,-0.0037,9.8066,-0.0077,0.2257,0.0244,-21.94,-29.5,6.38,203.21,-88.88,98.51
5288,52.396294,-1.434801,142.04,9.68,3,100.99,17 / 17,560120,2019-09-04 19:30:40:293,0.5719,0.9373,9.6804,-0.0041,0.0182,9.8066,-0.0312,0.2037,-0.0073,-20.62,-29.81,5.31,199.32,-88.8,96.47
5289,52.396294,-1.434801,142.04,9.68,3,100.99,17 / 17,560221,2019-09-04 19:30:40:394,0.6182,0.9904,8.5064,-0.0094,-0.002,9.8066,-0.0208,0.1365,0.004,-21.12,-29.0,4.94,192.6,-88.68,89.59
5290,52.396294,-1.434801,142.04,9.68,3,100.99,17 / 17,560320,2019-09-04 19:30:40:493,-0.1514,-0.3968,9.8451,-0.0179,-0.0157,9.8066,-0.0178,0.0971,-0.011,-20.81,-29.25,4.81,186.71,-88.83,83.5
5291,52.396294,-1.434801,142.04,9.68,3,100.99,17 / 17,560421,2019-09-04 19:30:40:594,0.3429,0.0591,10.4097,0.0,0.0051,9.8066,0.0161,0.1269,0.0192,-21.56,-29.06,4.44,177.23,-88.9,76.86
5292,52.396294,-1.434801,142.04,9.68,3,100.99,17 / 17,560520,2019-09-04 19:30:40:693,0.3464,0.1576,10.1428,0.0167,-0.0029,9.8066,0.0587,0.0855,0.0378,-20.75,-29.44,4.63,185.84,-88.87,82.6
5293,52.396294,-1.434801,142.04,9.68,3,100.99,17 / 17,560621,2019-09-04 19:30:40:794,0.7629,-0.4394,9.7439,0.0165,-0.0018,9.8066,0.0262,0.0763,0.0052,-21.31,-29.69,4.81,201.9,-88.84,99.11
5294,52.396294,-1.434801,142.04,9.68,3,100.99,17 / 17,560720,2019-09-04 19:30:40:893,0.8957,-1.1146,10.3332,0.0013,-0.0029,9.8066,-0.0018,0.0592,0.0348,-20.75,-29.56,4.56,206.5,-88.79,103.86
5295,52.396294,-1.434801,142.04,9.68,3,100.99,17 / 17,560820,2019-09-04 19:30:40:993,0.9331,-0.8664,10.0011,0.0001,0.0026,9.8066,0.0006,0.0242,0.0082,-21.62,-29.31,4.63,206.39,-88.79,104.27
5296,52.396294,-1.434801,142.04,9.68,3,100.99,17 / 17,560921,2019-09-04 19:30:41:094,1.0961,-1.1486,9.6973,0.0049,0.0117,9.8066,0.0019,-0.0218,-0.0336,-20.44,-29.56,4.25,204.47,-88.67,103.96
5297,52.396294,-1.434801,142.04,9.68,3,100.99,17 / 17,561021,2019-09-04 19:30:41:194,0.7238,-1.3307,9.5637,0.0024,0.0275,9.8066,-0.0039,-0.0262,-0.0874,-21.37,-29.69,4.5,204.28,-88.51,101.73
5298,52.396294,-1.434801,142.04,9.68,3,100.99,17 / 17,561120,2019-09-04 19:30:41:293,1.0798,-1.1615,9.1582,0.0021,0.0354,9.8066,-0.0331,-0.0256,-0.0657,-20.44,-30.06,4.31,196.87,-87.97,96.41
5299,52.396294,-1.434801,142.04,9.68,3,100.99,17 / 17,561220,2019-09-04 19:30:41:393,0.3974,-1.3284,9.4459,-0.0143,0.0284,9.8065,-0.0429,-0.0562,-0.0575,-21.25,-29.69,4.44,191.88,-87.63,91.77
5300,52.396294,-1.434801,142.04,9.68,3,100.99,17 / 17,561320,2019-09-04 19:30:41:493,0.3332,-1.5417,10.2166,-0.011,0.0239,9.8066,-0.0276,-0.0616,-0.038,-20.06,-29.37,4.5,188.0,-87.17,84.51
5301,52.396294,-1.434801,142.04,9.68,3,100.99,17 / 17,561421,2019-09-04 19:30:41:594,0.7141,-1.2521,9.8414,-0.0009,0.017,9.8066,-0.0019,-0.0711,-0.0087,-20.06,-30.5,4.25,182.92,-86.83,81.84
5302,52.396294,-1.434801,142.04,9.68,3,100.99,17 / 17,561520,2019-09-04 19:30:41:693,0.0242,-1.829,10.5824,0.0058,0.0001,9.8066,0.034,-0.1077,0.0046,-20.19,-30.25,5.25,185.83,-86.74,82.26
5303,52.396294,-1.434801,142.04,9.68,3,100.99,17 / 17,561620,2019-09-04 19:30:41:793,0.0503,-1.9275,10.6084,0.0128,-0.0084,9.8065,0.06,-0.1586,0.0007,-20.31,-29.81,5.44,187.29,-86.77,83.84
5304,52.396294,-1.434801,142.04,9.68,3,100.99,17 / 17,561721,2019-09-04 19:30:41:894,-0.0663,-2.7636,10.0577,0.0187,-0.0202,9.8065,0.0584,-0.1436,0.0298,-19.94,-30.25,5.69,195.35,-86.94,89.79
5305,52.396294,-1.434801,142.04,9.68,3,100.99,17 / 17,561821,2019-09-04 19:30:41:994,0.3233,-2.712,9.9819,0.0055,-0.0127,9.8066,0.0216,-0.2039,0.0004,-20.37,-29.94,6.56,203.0,-87.09,95.29
5306,52.396294,-1.434801,142.04,9.68,3,100.99,17 / 17,561920,2019-09-04 19:30:42:093,-0.534,-2.6535,9.7668,-0.014,-0.0079,9.8066,-0.0253,-0.2055,0.0295,-19.81,-30.37,6.88,201.92,-87.21,94.08
5307,52.396294,-1.434801,142.04,9.68,3,100.99,17 / 17,562021,2019-09-04 19:30:42:194,-0.9544,-3.079,10.0334,-0.0115,-0.0053,9.8066,0.0003,-0.1993,0.0321,-20.44,-30.12,7.5,200.68,-87.39,90.14
5308,52.396294,-1.434801,142.04,9.68,3,100.99,17 / 17,562120,2019-09-04 19:30:42:293,-0.6625,-2.6568,10.4415,0.0095,-0.0058,9.8065,0.0586,-0.2337,-0.0151,-20.75,-29.81,7.5,199.36,-87.46,89.62
5309,52.396294,-1.434801,142.04,9.68,3,100.99,17 / 17,562221,2019-09-04 19:30:42:394,-0.5694,-2.0395,9.9248,0.0199,-0.0094,9.8065,0.0773,-0.2139,0.0245,-20.19,-29.19,8.44,203.91,-87.47,93.47
5310,52.396294,-1.434801,142.04,9.68,3,100.99,17 / 17,562321,2019-09-04 19:30:42:494,0.1059,-2.9771,9.7867,0.0054,-0.0086,9.8066,0.002,-0.1962,0.0555,-20.12,-29.5,8.31,212.3,-87.48,102.29
5311,52.396294,-1.434801,142.04,9.68,3,100.99,17 / 17,562421,2019-09-04 19:30:42:594,-0.6103,-2.7492,10.2818,-0.0103,-0.0041,9.8066,-0.0082,-0.1851,0.047,-20.37,-29.81,8.75,214.69,-87.57,102.33
5312,52.396294,-1.434801,142.04,9.68,3,100.99,17 / 17,562520,2019-09-04 19:30:42:693,-0.412,-2.5967,9.9714,0.0044,-0.0096,9.8066,0.0311,-0.2141,0.0198,-20.06,-30.19,9.56,217.29,-87.62,102.64
5313,52.396294,-1.434801,142.04,9.68,3,100.99,17 / 17,562620,2019-09-04 19:30:42:793,-0.4849,-2.8608,9.7052,0.0087,-0.0135,9.8066,0.0391,-0.2052,0.0219,-20.25,-30.25,10.56,224.41,-87.69,107.7
5314,52.396294,-1.434801,142.04,9.68,3,100.99,17 / 17,562720,2019-09-04 19:30:42:893,-0.2112,-2.4423,9.8841,0.0018,0.0003,9.8066,-0.0089,-0.1859,0.0092,-20.37,-29.37,10.31,225.35,-87.66,110.93
5315,52.396294,-1.434801,142.04,9.68,3,100.99,17 / 17,562820,2019-09-04 19:30:42:993,-0.3848,-2.1638,10.1939,-0.0094,0.001,9.8066,-0.0022,-0.1957,-0.0101,-20.0,-29.81,10.81,226.51,-87.66,109.9
5316,52.396294,-1.434801,142.04,9.68,3,100.99,17 / 17,562920,2019-09-04 19:30:43:093,0.1434,-1.9778,9.5027,-0.0009,0.0025,9.8066,-0.0159,-0.1458,0.011,-19.69,-29.69,11.63,226.76,-87.72,107.92
5317,52.396294,-1.434801,142.04,9.68,3,100.99,17 / 17,563020,2019-09-04 19:30:43:193,0.2027,-1.0184,9.9313,-0.0071,0.0037,9.8066,-0.0155,-0.0868,0.0453,-20.31,-28.94,11.63,224.11,-87.75,105.07
5318,52.396294,-1.434801,142.04,9.68,3,100.99,17 / 17,563121,2019-09-04 19:30:43:294,0.1965,-1.1053,9.3919,-0.0064,-0.0079,9.8066,0.006,-0.0753,0.0432,-19.69,-29.87,12.06,223.67,-87.88,104.58
5319,52.396294,-1.434801,142.04,9.68,3,100.99,17 / 17,563220,2019-09-04 19:30:43:393,1.1058,-0.7829,9.8863,-0.0046,-0.0139,9.8066,0.0101,-0.0725,0.0287,-20.44,-29.19,12.31,226.0,-88.07,106.75
5320,52.396294,-1.434801,142.04,9.68,3,100.99,17 / 17,563321,2019-09-04 19:30:43:494,0.918,-0.8403,9.8057,-0.0125,-0.0257,9.8066,-0.009,-0.0149,0.0668,-19.94,-29.5,12.25,228.63,-88.27,109.26
5321,52.396294,-1.434801,142.04,9.68,3,100.99,17 / 17,563421,2019-09-04 19:30:43:594,0.5739,-1.0878,9.3593,-0.0246,-0.0204,9.8066,-0.0426,-0.0004,0.0843,-20.37,-28.31,12.13,232.83,-88.59,113.21
5322,52.396294,-1.434801,142.04,9.68,3,100.99,17 / 17,563520,2019-09-04 19:30:43:693,1.0912,-0.8654,9.4908,-0.018,-0.0045,9.8066,-0.04,0.0231,0.0425,-20.37,-29.44,11.94,229.22,-89.07,109.13
5323,52.396294,-1.434801,142.04,9.68,3,100.99,17 / 17,563621,2019-09-04 19:30:43:794,0.6945,-0.4861,9.933,-0.0203,-0.0014,9.8066,-0.0306,0.0193,0.0004,-20.62,-29.19,11.75,211.63,-89.32,92.31
5324,52.396294,-1.434801,142.04,9.68,3,100.99,17 / 17,563721,2019-09-04 19:30:43:894,1.1172,0.0858,10.2611,0.0061,-0.002,9.8066,0.0251,0.0748,0.0086,-21.37,-28.87,11.19,204.41,-89.36,87.09
5325,52.396294,-1.434801,142.04,9.68,3,100.99,17 / 17,563820,2019-09-04 19:30:43:993,1.3587,0.2758,9.6056,0.0143,0.0003,9.8066,0.012,0.1157,0.0244,-20.94,-28.81,11.31,218.54,-89.28,101.45
5326,52.396294,-1.434801,142.04,9.68,3,100.99,17 / 17,563921,2019-09-04 19:30:44:094,2.3059,0.6455,9.0486,-0.0084,-0.0028,9.8066,-0.05,0.081,0.0046,-20.94,-28.5,11.88,225.86,-89.23,106.75
5327,52.396294,-1.434801,142.04,9.68,3,100.99,17 / 17,564021,2019-09-04 19:30:44:194,1.3681,0.343,9.5411,-0.0257,0.0016,9.8065,-0.0483,0.0886,-0.0183,-21.12,-28.69,11.25,212.44,-89.38,95.19
5328,52.396294,-1.434801,142.04,9.68,3,100.99,17 / 17,564120,2019-09-04 19:30:44:293,1.374,1.2959,10.0201,-0.0171,0.016,9.8065,-0.0326,0.1459,-0.0252,-21.0,-29.5,10.88,176.73,-89.34,59.04
5329,52.396294,-1.434801,142.04,9.68,3,100.99,17 / 17,564220,2019-09-04 19:30:44:393,1.5671,1.4537,10.7772,-0.0008,-0.0045,9.8066,0.0206,0.1274,-0.0063,-20.87,-29.19,10.25,166.12,-89.18,50.41
5330,52.396294,-1.434801,142.04,9.68,3,100.99,17 / 17,564321,2019-09-04 19:30:44:494,1.6277,0.9441,10.5724,0.0275,-0.0171,9.8065,0.094,0.1657,0.006,-21.12,-28.69,9.56,172.89,-89.29,57.32
5331,52.396294,-1.434801,142.04,9.68,3,100.99,17 / 17,564420,2019-09-04 19:30:44:593,2.0459,0.7489,9.5703,0.0194,-0.0201,9.8066,0.0458,0.1673,0.0271,-20.69,-29.62,10.38,207.03,-89.45,91.89
5332,52.396294,-1.434801,142.04,9.68,3,100.99,17 / 17,564520,2019-09-04 19:30:44:693,2.0894,0.8333,9.9759,-0.0099,0.0082,9.8066,-0.0432,0.1582,-0.0214,-21.75,-28.69,9.56,234.04,-89.45,120.12
5333,52.396294,-1.434801,142.04,9.68,3,100.99,17 / 17,564621,2019-09-04 19:30:44:794,1.0036,0.8156,10.1358,-0.0153,0.0088,9.8066,-0.0405,0.1781,0.0054,-21.81,-29.56,9.25,202.71,-89.48,90.71
5334,52.396294,-1.434801,142.04,9.68,3,100.99,17 / 17,564720,2019-09-04 19:30:44:893,1.5257,1.0742,9.5925,0.0115,0.0025,9.8066,0.0095,0.2117,0.0446,-21.69,-28.87,9.0,201.48,-89.4,89.49
5335,52.396294,-1.434801,142.04,9.68,3,100.99,17 / 17,564821,2019-09-04 19:30:44:994,0.7425,0.4759,9.9937,0.0122,-0.0066,9.8066,0.0115,0.1933,0.031,-22.06,-29.31,8.13,216.0,-89.31,106.52
5336,52.396294,-1.434801,142.04,9.68,3,100.99,17 / 17,564921,2019-09-04 19:30:45:094,0.8223,1.1278,10.224,0.0114,0.0013,9.8066,0.0082,0.1626,0.0405,-22.19,-29.0,8.56,224.62,-89.27,112.99
5337,52.396294,-1.434801,142.04,9.68,3,100.99,17 / 17,565021,2019-09-04 19:30:45:194,1.3968,-0.1345,10.1757,0.0094,-0.0157,9.8065,0.032,0.0912,0.0118,-21.5,-28.69,8.56,231.58,-89.19,119.19
5338,52.396294,-1.434801,142.04,9.68,3,100.99,17 / 17,565120,2019-09-04 19:30:45:293,0.6936,-0.5072,9.6783,0.0103,0.0032,9.8066,-0.0101,0.1293,0.0269,-22.0,-29.06,8.63,246.95,-89.14,135.66
5339,52.396294,-1.434801,142.04,9.68,3,100.99,17 / 17,565220,2019-09-04 19:30:45:393,0.5927,-0.0168,10.0592,-0.0019,-0.0015,9.8066,-0.011,0.0593,-0.0168,-21.75,-29.19,8.44,245.13,-89.11,136.14
5340,52.396294,-1.434801,142.04,9.68,3,100.99,17 / 17,565320,2019-09-04 19:30:45:493,0.1439,-0.6943,9.9669,0.01,-0.0011,9.8066,0.0096,0.0847,0.0162,-22.0,-29.06,8.44,245.39,-89.1,136.42
5341,52.396294,-1.434801,142.04,9.68,3,100.99,17 / 17,565421,2019-09-04 19:30:45:594,0.6218,-1.0344,9.8297,0.0129,-0.0076,9.8066,0.0264,-0.0081,-0.038,-21.75,-28.87,7.94,254.84,-88.98,146.07
5342,52.396294,-1.434801,142.04,9.68,3,100.99,17 / 17,565520,2019-09-04 19:30:45:693,-0.1281,-0.8205,9.4194,-0.0089,-0.0007,9.8066,-0.0248,0.0106,-0.0107,-21.44,-28.87,8.19,256.77,-88.9,147.29
5343,52.396294,-1.434801,142.04,9.68,3,100.99,17 / 17,565621,2019-09-04 19:30:45:794,0.0758,-0.7204,10.4279,0.0003,0.0042,9.8066,-0.0131,-0.0303,-0.0646,-22.06,-28.94,7.88,254.0,-88.99,145.22
5344,52.396294,-1.434801,142.04,9.68,3,100.99,17 / 17,565720,2019-09-04 19:30:45:893,-0.0707,-0.4756,10.0403,0.0065,0.0016,9.8066,0.0046,0.0063,-0.0241,-21.69,-29.0,8.06,248.7,-88.97,139.9
5345,52.396294,-1.434801,142.04,9.68,3,100.99,17 / 17,565820,2019-09-04 19:30:45:993,0.1453,-0.6833,9.5113,0.0031,-0.0007,9.8066,-0.0079,0.017,0.0019,-21.44,-29.0,8.75,252.02,-88.87,140.18
5346,52.396294,-1.434801,142.04,9.68,3,100.99,17 / 17,565920,2019-09-04 19:30:46:093,0.1158,-0.2049,9.6895,-0.0104,-0.0067,9.8066,-0.0311,-0.0256,0.0051,-21.69,-29.06,7.88,248.09,-88.9,139.37
5347,52.396294,-1.434801,142.04,9.68,3,100.99,17 / 17,566021,2019-09-04 19:30:46:194,0.0941,-0.8856,9.762,-0.012,-0.0057,9.8066,-0.0218,-0.0537,-0.0491,-21.37,-28.81,8.06,250.83,-89.13,141.03
5348,52.396294,-1.434801,142.04,9.68,3,100.99,17 / 17,566120,2019-09-04 19:30:46:293,0.2271,-0.5948,9.9592,-0.0015,0.0041,9.8066,0.0054,0.0129,0.0225,-21.62,-29.31,8.19,245.69,-89.17,136.63
5349,52.396294,-1.434801,142.04,9.68,3,100.99,17 / 17,566220,2019-09-04 19:30:46:393,0.2185,-0.6093,9.94,0.0058,-0.0004,9.8066,0.0138,0.004,0.0036,-21.5,-29.37,8.19,246.91,-89.17,137.05
5350,52.396294,-1.434801,142.04,9.68,3,100.99,17 / 17,566320,2019-09-04 19:30:46:493,0.0795,-0.8976,10.4582,0.0102,0.0022,9.8066,0.0177,0.0356,0.0198,-21.31,-29.12,8.19,250.8,-89.05,141.1
5351,52.396294,-1.434801,142.04,9.68,3,100.99,17 / 17,566421,2019-09-04 19:30:46:594,-0.0138,-0.7687,10.0189,0.007,-0.0048,9.8066,0.0152,-0.0164,0.0095,-21.19,-28.94,8.06,254.86,-88.91,145.36
5352,52.396294,-1.434801,142.04,9.68,3,100.99,17 / 17,566520,2019-09-04 19:30:46:693,0.1867,-0.4456,9.3677,0.0051,-0.0042,9.8066,0.0096,-0.0126,0.0206,-21.94,-28.25,8.0,257.56,-88.82,148.95
5353,52.396294,-1.434801,142.04,9.68,3,100.99,17 / 17,566620,2019-09-04 19:30:46:793,0.0978,-0.8422,9.6103,-0.0078,-0.007,9.8066,-0.0112,-0.0459,-0.0272,-22.12,-28.69,7.94,263.17,-88.85,154.6
5354,52.396294,-1.434801,142.04,9.68,3,100.99,17 / 17,566720,2019-09-04 19:30:46:893,-0.1617,-0.85,9.878,-0.0104,-0.0032,9.8066,-0.0209,0.0075,0.0579,-21.87,-29.37,8.0,263.54,-88.93,154.87
5355,52.396294,-1.434801,142.04,9.68,3,100.99,17 / 17,566820,2019-09-04 19:30:46:993,-0.17,-0.7632,9.5543,-0.0068,-0.0075,9.8066,-0.0157,-0.013,0.0326,-22.37,-28.94,8.19,266.55,-89.03,157.77
5356,52.396294,-1.434801,142.04,9.68,3,100.99,17 / 17,566921,2019-09-04 19:30:47:094,-0.445,-0.9118,9.5849,-0.0044,-0.0005,9.8066,-0.0145,-0.039,0.0046,-22.69,-29.37,8.06,273.88,-89.11,165.76
5357,52.396294,-1.434801,142.04,9.68,3,100.99,17 / 17,567020,2019-09-04 19:30:47:193,-0.3554,-1.1876,9.8664,-0.0073,-0.0056,9.8066,-0.0285,-0.0541,0.004,-22.62,-29.31,8.06,279.75,-89.2,171.51
5358,52.396294,-1.434801,142.04,9.68,3,100.99,17 / 17,567120,2019-09-04 19:30:47:293,-0.3201,-0.7814,9.4626,-0.0052,-0.0006,9.8066,-0.0155,-0.037,0.0063,-22.62,-29.12,8.19,281.19,-89.25,172.89
5359,52.396294,-1.434801,142.04,9.68,3,100.99,17 / 17,567221,2019-09-04 19:30:47:394,-0.2772,-1.2406,10.1122,-0.0018,-0.0059,9.8066,-0.0103,-0.0567,0.002,-22.69,-29.06,7.94,285.61,-89.3,177.24
5360,52.396294,-1.434801,142.04,9.68,3,100.99,17 / 17,567320,2019-09-04 19:30:47:493,-0.3639,-0.9561,9.7141,-0.0041,-0.004,9.8066,-0.0102,-0.043,0.0132,-22.31,-29.06,8.56,292.26,-89.32,-179.22
5361,52.396294,-1.434801,142.04,9.68,3,100.99,17 / 17,567421,2019-09-04 19:30:47:594,-0.3767,-0.7775,9.2503,0.0017,-0.0001,9.8066,-0.005,-0.0565,-0.0006,-22.56,-29.5,8.94,294.36,-89.34,-176.3
5362,52.396294,-1.434801,142.04,9.68,3,100.99,17 / 17,567520,2019-09-04 19:30:47:693,-0.7427,-0.8285,10.0186,-0.0007,0.001,9.8066,-0.0149,-0.0192,0.0264,-22.25,-28.81,8.44,292.71,-89.36,-176.54
5363,52.396294,-1.434801,142.04,9.68,3,100.99,17 / 17,567621,2019-09-04 19:30:47:794,-0.6317,-1.0249,9.7862,-0.0005,-0.0087,9.8066,0.0122,-0.0754,-0.0217,-22.31,-28.94,8.94,301.85,-89.35,-169.72
5364,52.396294,-1.434801,142.04,9.68,3,100.99,17 / 17,567721,2019-09-04 19:30:47:894,-0.2164,-0.7807,9.7854,0.0052,0.0006,9.8066,-0.0009,-0.0462,0.0071,-22.94,-28.81,8.94,299.49,-89.3,-171.17
5365,52.396294,-1.434801,142.04,9.68,3,100.99,17 / 17,567821,2019-09-04 19:30:47:994,-0.1941,-0.9444,9.9046,-0.0014,-0.004,9.8066,-0.0077,-0.0508,-0.0064,-22.19,-28.87,9.06,300.26,-89.28,-171.22
5366,52.396294,-1.434801,142.04,9.68,3,100.99,17 / 17,567920,2019-09-04 19:30:48:093,-0.6256,-0.8347,9.4509,0.0009,0.0012,9.8066,0.0001,-0.043,-0.0045,-21.75,-29.06,8.88,302.13,-89.27,-169.37
5367,52.396294,-1.434801,142.04,9.68,3,100.99,17 / 17,568021,2019-09-04 19:30:48:194,-0.14,-0.7355,9.7312,-0.0008,-0.0007,9.8066,-0.0198,-0.0237,0.0149,-21.75,-29.25,9.44,300.02,-89.27,-171.46
5368,52.396294,-1.434801,142.04,9.68,3,100.99,17 / 17,568120,2019-09-04 19:30:48:293,-0.9597,-0.7079,9.5256,-0.006,0.0046,9.8066,-0.0236,-0.0209,0.0233,-21.94,-29.12,9.56,304.39,-89.35,-169.41
5369,52.396294,-1.434801,142.04,9.68,3,100.99,17 / 17,568222,2019-09-04 19:30:48:395,-0.8954,-0.7129,9.9777,-0.0094,-0.0035,9.8066,-0.0191,-0.053,0.0091,-22.0,-29.31,9.25,311.61,-89.46,-160.15
5370,52.39621,-1.433399,141.96,11.91,3,97.87,17 / 17,568321,2019-09-04 19:30:48:494,-0.5255,-0.4041,9.3758,-0.0012,0.0004,9.8066,-0.0133,-0.0357,0.0145,-21.81,-29.12,9.0,317.9,-89.48,-153.92
5371,52.39621,-1.433399,141.96,11.91,3,97.87,17 / 17,568421,2019-09-04 19:30:48:594,-0.5691,-0.9169,10.3947,-0.0003,-0.0071,9.8066,-0.0005,-0.0199,0.0252,-21.87,-29.75,9.13,329.55,-89.43,-142.34
5372,52.39621,-1.433399,141.96,11.91,3,97.87,17 / 17,568520,2019-09-04 19:30:48:693,-0.6641,-0.7841,9.6108,0.0014,-0.0026,9.8066,-0.0027,-0.0237,0.0216,-21.56,-29.56,8.88,333.09,-89.35,-138.79
