,GPS LATITUDE (degrees), GPS LONGITUDE (degrees), GPS ALTITUDE (m), GPS SPEED (Kmh), GPS ACCURACY (m), GPS ORIENTATION (Â°),GPS SATELLITES IN RANGE, TIME SINCE START (ms), DATE (YYYY-MO-DD HH-MI-SS_SSS), ACCELEROMETER X (m/s²) , ACCELEROMETER Y (m/s²), ACCELEROMETER Z (m/s²), GRAVITY X (m/s²), GRAVITY Y (m/s²), GRAVITY Z (m/s²), GYROSCOPE Yaw (rad/s), GYROSCOPE Pitch (rad/s), GYROSCOPE Roll (rad/s), MAGNETIC FIELD X (Î¼T), MAGNETIC FIELD Y (Î¼T), MAGNETIC FIELD Z (Î¼T), ORIENTATION (Yaw) (Â°), ORIENTATION (Pitch) (Â°), ORIENTATION (Roll ) (Â°)
29577,52.43595,-1.569524,171.25,12.37,4.0,159.84,23 / 25,2961928,2019-09-07 10:02:47:207,-0.2474,0.2207,9.4084,-0.0087,-0.0018,9.8066,0.0019,-0.0199,0.0105,-3.75,-32.81,30.44,23.98,-82.85,-151.75
29578,52.43595,-1.569524,171.25,12.37,4.0,159.84,23 / 25,2962028,2019-09-07 10:02:47:307,-0.681,0.1221,9.9529,-0.0095,-0.0141,9.8066,-0.0094,-0.0593,0.0054,-3.81,-32.37,30.44,25.12,-82.67,-150.75
29579,52.43595,-1.569524,171.25,12.37,4.0,159.84,24 / 25,2962127,2019-09-07 10:02:47:406,-0.5051,0.1356,10.0924,-0.0067,-0.0107,9.8066,0.014,-0.0286,0.0031,-3.5,-32.62,30.06,27.35,-82.62,-150.84
29580,52.43595,-1.569524,171.25,12.37,4.0,159.84,24 / 25,2962227,2019-09-07 10:02:47:506,-0.8378,-0.1379,9.8896,-0.0054,-0.0298,9.8065,-0.056,-0.0494,0.0612,-3.69,-32.31,30.81,25.34,-82.38,-150.84
29581,52.43595,-1.569524,171.25,12.37,4.0,159.84,24 / 25,2962327,2019-09-07 10:02:47:606,0.1256,-0.5481,9.3174,-0.0165,0.0175,9.8065,0.0423,-0.0234,0.0013,-3.75,-32.56,30.81,27.57,-82.39,-149.0
29582,52.43595,-1.569524,171.25,12.37,4.0,159.84,24 / 25,2962427,2019-09-07 10:02:47:706,-0.7612,-1.1794,9.9227,-0.0218,0.0134,9.8066,0.1908,-0.0847,0.1183,-3.37,-32.81,30.19,31.47,-82.36,-147.41
29583,52.43595,-1.569524,171.25,12.37,4.0,159.84,24 / 25,2962528,2019-09-07 10:02:47:807,-1.1119,0.0753,9.4174,-0.0215,0.0102,9.8065,-0.0881,-0.0005,-0.0139,-3.69,-32.5,29.63,31.39,-82.23,-145.53
29584,52.43595,-1.569524,171.25,12.37,4.0,159.84,24 / 25,2962628,2019-09-07 10:02:47:907,-1.4917,-1.8911,10.0001,-0.0324,0.0072,9.8065,0.0869,-0.1296,0.1052,-4.0,-32.62,29.75,34.74,-81.97,-142.93
29585,52.43595,-1.569524,171.25,12.37,4.0,159.84,24 / 25,2962727,2019-09-07 10:02:48:006,-1.7374,0.5394,10.1267,-0.0128,-0.041,9.8065,-0.0985,-0.04,-0.0117,-4.19,-32.94,29.75,36.69,-81.77,-141.37
29586,52.43595,-1.569524,171.25,12.37,4.0,159.84,24 / 25,2962827,2019-09-07 10:02:48:106,-1.1068,-0.1866,10.26,-0.0118,-0.0263,9.8066,-0.0304,-0.0859,0.0026,-4.12,-32.94,30.0,36.68,-81.46,-141.6
29587,52.43595,-1.569524,171.25,12.37,4.0,159.84,24 / 25,2962928,2019-09-07 10:02:48:207,-1.5953,0.7944,9.7824,0.0043,0.0015,9.8066,-0.0405,-0.1177,-0.001,-3.94,-32.75,29.75,36.48,-81.41,-141.81
29588,52.43595,-1.569524,171.25,12.37,4.0,159.84,24 / 25,2963027,2019-09-07 10:02:48:306,-0.6441,-0.3817,9.8455,-0.0016,0.007,9.8066,-0.0025,-0.1022,0.0005,-3.44,-32.94,29.94,38.33,-81.39,-142.13
29589,52.43519,-1.569717,168.05,11.3,4.0,214.04,24 / 25,2963128,2019-09-07 10:02:48:407,-0.7405,0.414,9.9705,-0.0074,0.0198,9.8066,0.0306,-0.0904,0.0177,-3.12,-33.25,29.69,38.91,-81.43,-141.6
29590,52.43519,-1.569717,168.05,11.3,4.0,214.04,24 / 25,2963227,2019-09-07 10:02:48:506,-2.6004,0.683,10.2318,0.0093,0.0007,9.8066,0.0057,-0.0636,-0.111,-2.81,-33.06,29.19,39.04,-81.33,-141.58
29591,52.43519,-1.569717,168.05,11.3,4.0,214.04,24 / 25,2963327,2019-09-07 10:02:48:606,-1.0803,-0.0161,9.9002,0.0335,-0.0084,9.8065,0.0969,-0.0263,-0.1235,-2.81,-32.94,29.25,35.49,-81.47,-144.52
29592,52.43519,-1.569717,168.05,11.3,4.0,214.04,24 / 25,2963427,2019-09-07 10:02:48:706,-2.212,0.6937,10.3409,-0.0031,-0.012,9.8066,-0.0051,-0.1236,-0.0108,-2.31,-33.75,28.38,35.7,-81.36,-146.65
29593,52.43519,-1.569717,168.05,11.3,4.0,214.04,24 / 25,2963528,2019-09-07 10:02:48:807,0.7944,-1.6682,9.0106,0.0197,0.0073,9.8066,-0.0384,-0.021,-0.1084,-1.56,-33.19,29.69,33.2,-81.28,-148.54
29594,52.43519,-1.569717,168.05,11.3,4.0,214.04,24 / 25,2963627,2019-09-07 10:02:48:906,-1.937,0.2257,9.8775,0.0066,0.0426,9.8065,0.0101,-0.1985,0.09,-2.44,-33.12,29.44,33.13,-81.54,-148.46
29595,52.43519,-1.569717,168.05,11.3,4.0,214.04,24 / 25,2963727,2019-09-07 10:02:49:006,-0.3427,0.4482,9.425,0.0073,0.06,9.8064,-0.0432,-0.0959,0.0793,-1.75,-33.31,29.25,34.07,-81.72,-147.53
29596,52.43519,-1.569717,168.05,11.3,4.0,214.04,24 / 25,2963827,2019-09-07 10:02:49:106,-0.4865,-0.4903,9.5607,0.0019,-0.0186,9.8066,-0.072,-0.1728,0.0446,-2.19,-33.56,27.88,35.02,-81.72,-146.94
29597,52.43519,-1.569717,168.05,11.3,4.0,214.04,24 / 25,2963927,2019-09-07 10:02:49:206,-0.6807,3.027,11.6368,-0.0128,-0.0572,9.8065,-0.1952,-0.2277,0.0053,-1.75,-33.5,27.81,35.07,-81.52,-146.88
29598,52.43519,-1.569717,168.05,11.3,4.0,214.04,24 / 25,2964027,2019-09-07 10:02:49:306,-1.6335,2.2866,12.2776,0.013,0.1448,9.8055,0.3128,-0.214,0.1391,-1.12,-33.0,27.75,42.44,-82.0,-142.17
29599,52.43519,-1.569717,168.05,11.3,4.0,214.04,24 / 25,2964127,2019-09-07 10:02:49:406,0.7037,3.9097,9.4956,-0.0086,0.1162,9.8059,0.4019,-0.0522,-0.1046,-1.0,-33.37,27.94,43.32,-81.76,-141.62
29600,52.43519,-1.569717,168.05,11.3,4.0,214.04,24 / 25,2964227,2019-09-07 10:02:49:506,-2.6214,-0.9499,10.1053,-0.0185,-0.0422,9.8065,0.0244,-0.0354,-0.0437,-1.37,-32.56,28.19,40.57,-81.09,-144.58
29601,52.43519,-1.569717,168.05,11.3,4.0,214.04,24 / 25,2964328,2019-09-07 10:02:49:607,-1.5629,-0.3308,9.7452,-0.0127,0.0008,9.8066,-0.015,-0.0701,-0.0146,-1.5,-32.37,28.19,39.78,-80.67,-145.39
29602,52.43519,-1.569717,168.05,11.3,4.0,214.04,24 / 25,2964428,2019-09-07 10:02:49:707,-0.3812,0.6201,10.1772,0.0026,0.0078,9.8066,-0.1719,-0.0475,-0.0151,-1.62,-33.94,27.63,38.54,-80.8,-144.7
29603,52.43519,-1.569717,168.05,11.3,4.0,214.04,24 / 25,2964527,2019-09-07 10:02:49:806,-0.975,-0.1391,9.9323,-0.0065,0.0218,9.8066,0.0658,-0.0983,0.0359,-1.69,-33.44,27.31,39.66,-81.08,-143.4
29604,52.43519,-1.569717,168.05,11.3,4.0,214.04,24 / 25,2964627,2019-09-07 10:02:49:906,-1.5376,0.9338,10.1796,-0.0017,-0.0402,9.8066,-0.156,-0.0356,-0.0324,-0.94,-33.5,26.56,41.59,-80.98,-143.98
29605,52.43519,-1.569717,168.05,11.3,4.0,214.04,24 / 25,2964727,2019-09-07 10:02:50:006,-0.2528,1.4246,9.8642,0.0048,-0.0158,9.8065,-0.008,-0.0934,0.0062,-1.19,-33.81,27.44,41.31,-81.12,-144.32
29606,52.43519,-1.569717,168.05,11.3,4.0,214.04,24 / 25,2964827,2019-09-07 10:02:50:106,-0.7456,-0.4151,9.7826,0.0097,-0.0321,9.8066,-0.0978,-0.0461,0.0042,-1.06,-33.31,27.25,40.12,-81.25,-145.0
29607,52.43519,-1.569717,168.05,11.3,4.0,214.04,24 / 25,2964928,2019-09-07 10:02:50:207,0.1213,-0.4174,9.7012,0.0048,-0.0218,9.8066,-0.0478,-0.0183,-0.0228,-0.81,-33.37,26.44,38.45,-81.26,-146.58
29608,52.43519,-1.569717,168.05,11.3,4.0,214.04,24 / 25,2965027,2019-09-07 10:02:50:306,-0.3653,0.4622,10.2847,0.0155,0.0122,9.8066,0.0686,-0.0965,0.0259,-0.56,-33.31,26.5,37.57,-81.31,-147.12
29609,52.43519,-1.569717,168.05,11.3,4.0,214.04,23 / 24,2965128,2019-09-07 10:02:50:407,0.5502,0.5109,9.6601,0.0049,0.0076,9.8066,0.102,-0.0346,-0.0288,-0.44,-32.87,27.19,39.31,-81.42,-147.67
29610,52.43519,-1.569717,168.05,11.3,4.0,214.04,23 / 24,2965227,2019-09-07 10:02:50:506,-0.5219,0.415,10.232,-0.0021,0.0015,9.8066,0.0226,-0.002,-0.0353,-0.12,-32.87,26.88,38.85,-81.29,-148.18
29611,52.43519,-1.569717,168.05,11.3,4.0,214.04,23 / 24,2965327,2019-09-07 10:02:50:606,0.6313,0.9242,9.8273,0.0065,-0.0107,9.8066,0.009,-0.0403,0.0236,-0.37,-33.69,26.5,38.13,-81.22,-149.05
29612,52.43519,-1.569717,168.05,11.3,4.0,214.04,23 / 24,2965427,2019-09-07 10:02:50:706,0.0686,-0.0153,9.9324,-0.0001,-0.0028,9.8066,0.0209,0.0042,-0.0238,-0.5,-32.81,26.63,37.76,-81.14,-149.22
29613,52.43519,-1.569717,168.05,11.3,4.0,214.04,23 / 24,2965527,2019-09-07 10:02:50:806,0.069,-0.3096,10.0285,0.0097,-0.0216,9.8065,-0.1172,-0.0292,0.0166,0.69,-32.44,26.88,38.91,-81.1,-150.2
29614,52.43519,-1.569717,168.05,11.3,4.0,214.04,23 / 24,2965628,2019-09-07 10:02:50:907,0.6997,-0.1115,10.3805,0.0207,0.0124,9.8065,0.1616,0.0102,-0.0191,0.0,-33.0,26.06,35.95,-81.14,-150.99
29615,52.43519,-1.569717,168.05,11.3,4.0,214.04,23 / 24,2965727,2019-09-07 10:02:51:006,0.6835,-1.5491,9.7511,0.0115,-0.0052,9.8066,0.1947,0.0268,-0.0139,0.13,-33.12,26.94,33.68,-81.18,-152.62
29616,52.43519,-1.569717,168.05,11.3,4.0,214.04,23 / 24,2965827,2019-09-07 10:02:51:106,0.4963,0.0302,9.7579,-0.0122,-0.0052,9.8066,-0.0521,0.0236,-0.0624,0.63,-32.87,27.25,35.37,-80.93,-153.52
29617,52.43519,-1.569717,168.05,11.3,4.0,214.04,23 / 24,2965927,2019-09-07 10:02:51:206,0.8599,-0.0656,10.1532,0.0124,0.0116,9.8065,0.0544,-0.0006,-0.0409,0.0,-32.87,27.06,32.39,-80.91,-153.9
29618,52.43519,-1.569717,168.05,11.3,4.0,214.04,23 / 24,2966027,2019-09-07 10:02:51:306,1.5378,-0.6766,9.9422,0.0024,-0.0234,9.8066,0.0181,0.0556,-0.0512,0.38,-32.44,27.56,31.14,-80.88,-154.58
29619,52.43519,-1.569717,168.05,11.3,4.0,214.04,24 / 25,2966127,2019-09-07 10:02:51:406,0.9593,-0.4932,9.5506,0.0066,0.0027,9.8065,0.0194,0.0633,-0.0203,0.94,-32.81,27.75,32.87,-80.84,-155.37
29620,52.43519,-1.569717,168.05,11.3,4.0,214.04,24 / 25,2966228,2019-09-07 10:02:51:507,1.447,-0.8169,9.5608,-0.013,-0.0041,9.8066,-0.0893,0.202,-0.1189,-0.19,-32.69,27.63,31.52,-80.88,-154.44
29621,52.43519,-1.569717,168.05,11.3,4.0,214.04,24 / 25,2966327,2019-09-07 10:02:51:606,1.5906,0.0778,8.7068,-0.0089,0.0057,9.8066,-0.0563,0.1212,0.0478,0.44,-32.81,27.44,32.96,-81.17,-153.23
29622,52.43519,-1.569717,168.05,11.3,4.0,214.04,24 / 25,2966427,2019-09-07 10:02:51:706,2.1596,0.5366,9.1168,-0.0425,0.033,9.8064,-0.0745,0.1227,0.0045,-0.06,-33.0,27.19,35.86,-81.31,-150.69
29623,52.43519,-1.569717,168.05,11.3,4.0,214.04,24 / 25,2966528,2019-09-07 10:02:51:807,2.0853,1.2023,10.2149,-0.0302,0.0153,9.8066,-0.0908,0.0848,0.0696,-0.94,-33.37,27.0,39.18,-81.28,-145.77
29624,52.43519,-1.569717,168.05,11.3,4.0,214.04,24 / 25,2966627,2019-09-07 10:02:51:906,1.476,-0.8524,10.0524,-0.0471,-0.0262,9.8065,-0.0353,0.1085,-0.0125,-1.37,-33.5,27.25,42.3,-81.33,-143.07
29625,52.43519,-1.569717,168.05,11.3,4.0,214.04,24 / 25,2966727,2019-09-07 10:02:52:006,0.453,0.6133,11.3171,-0.0431,-0.0419,9.8064,-0.0675,0.0476,0.0667,-1.81,-33.31,27.31,43.81,-80.74,-140.18
29626,52.43519,-1.569717,168.05,11.3,4.0,214.04,24 / 25,2966827,2019-09-07 10:02:52:106,0.6096,-1.0288,11.3715,-0.0299,-0.0682,9.8063,-0.0985,0.2614,-0.175,-2.19,-32.75,27.5,46.03,-80.41,-138.45
29627,52.43519,-1.569717,168.05,11.3,4.0,214.04,24 / 25,2966928,2019-09-07 10:02:52:207,1.4704,-0.1091,10.111,-0.0115,-0.0891,9.8062,-0.0687,0.15,0.0234,-2.62,-33.0,28.19,42.72,-80.43,-139.21
29628,52.43519,-1.569717,168.05,11.3,4.0,214.04,24 / 25,2967027,2019-09-07 10:02:52:306,1.1655,-0.3851,10.3313,-0.0092,0.0239,9.8065,0.1681,0.1902,-0.0796,-2.31,-33.06,28.19,44.91,-80.36,-139.46
29629,52.43519,-1.569717,168.05,11.3,4.0,214.04,24 / 25,2967127,2019-09-07 10:02:52:406,1.5328,-0.3406,10.9214,0.0193,0.0553,9.8064,0.4421,0.1335,-0.0549,-2.56,-33.56,28.06,42.17,-80.71,-139.65
29630,52.43519,-1.569717,168.05,11.3,4.0,214.04,24 / 25,2967227,2019-09-07 10:02:52:506,3.4275,-1.1356,8.6394,0.0269,-0.0601,9.8063,-0.1833,0.0751,0.0185,-2.62,-33.12,29.06,38.86,-80.85,-142.11
29631,52.43519,-1.569717,168.05,11.3,4.0,214.04,24 / 25,2967327,2019-09-07 10:02:52:606,-2.4327,0.2577,11.0883,0.0132,0.0554,9.8064,0.1417,-0.2397,0.164,-2.44,-33.0,29.25,39.52,-81.04,-143.37
29632,52.43519,-1.569717,168.05,11.3,4.0,214.04,24 / 25,2967427,2019-09-07 10:02:52:706,0.7231,0.3561,10.876,0.0583,0.0115,9.8064,0.2632,0.0426,-0.091,-2.25,-32.37,29.38,36.35,-81.08,-145.87
29633,52.43519,-1.569717,168.05,11.3,4.0,214.04,24 / 25,2967527,2019-09-07 10:02:52:806,1.182,-0.5592,9.8529,0.0234,0.0725,9.8063,0.3453,-0.025,0.0517,-2.75,-31.87,29.19,31.68,-81.5,-147.6
29634,52.43519,-1.569717,168.05,11.3,4.0,214.04,24 / 25,2967627,2019-09-07 10:02:52:906,1.7499,0.0286,10.3788,-0.0111,-0.0094,9.8066,0.0386,0.0985,-0.0246,-2.75,-32.62,29.13,30.55,-81.18,-148.92
29635,52.43519,-1.569717,168.05,11.3,4.0,214.04,24 / 25,2967727,2019-09-07 10:02:53:006,1.7979,-0.338,10.3174,0.0104,0.056,9.8065,0.1932,0.1054,0.0607,-2.31,-33.25,28.81,34.63,-81.5,-147.2
29636,52.43519,-1.569717,168.05,11.3,4.0,214.04,24 / 25,2967828,2019-09-07 10:02:53:107,1.0803,0.0475,10.4742,-0.0207,-0.0355,9.8065,0.0757,0.2539,-0.0944,-2.31,-32.81,29.56,33.33,-81.65,-148.18
29637,52.43519,-1.569717,168.05,11.3,4.0,214.04,24 / 25,2967927,2019-09-07 10:02:53:206,2.6044,1.5273,11.4815,0.0061,-0.0048,9.8066,0.136,0.1011,-0.0116,-2.37,-32.94,30.44,32.85,-81.41,-148.75
29638,52.43519,-1.569717,168.05,11.3,4.0,214.04,24 / 25,2968027,2019-09-07 10:02:53:306,4.5121,-0.4956,10.0615,0.0338,-0.0167,9.8065,0.1128,0.1044,-0.1001,-2.75,-31.87,30.63,27.33,-81.38,-151.47
29639,52.43519,-1.569717,168.05,11.3,4.0,214.04,24 / 25,2968127,2019-09-07 10:02:53:406,2.6602,-0.9143,9.4254,0.046,0.0271,9.8064,0.1802,0.1104,-0.0509,-2.25,-31.81,30.69,27.33,-81.65,-153.18
29640,52.43519,-1.569717,168.05,11.3,4.0,214.04,24 / 25,2968227,2019-09-07 10:02:53:506,3.7975,-0.29,8.9178,0.0091,0.0326,9.8066,-0.1196,0.1961,-0.0447,-3.19,-32.31,30.5,24.85,-81.97,-153.3
29641,52.43519,-1.569717,168.05,11.3,4.0,214.04,24 / 25,2968327,2019-09-07 10:02:53:606,3.6779,0.8589,9.2643,0.0199,0.0158,9.8066,-0.0645,0.2048,0.0041,-2.87,-33.06,30.56,25.81,-82.62,-152.25
29642,52.43519,-1.569717,168.05,11.3,4.0,214.04,24 / 25,2968427,2019-09-07 10:02:53:706,4.106,0.7558,9.1699,-0.0076,0.0319,9.8066,0.0529,0.098,0.1524,-3.87,-32.25,30.63,26.51,-82.93,-149.54
29643,52.43519,-1.569717,168.05,11.3,4.0,214.04,24 / 25,2968527,2019-09-07 10:02:53:806,0.9577,-0.6787,10.6011,-0.0279,0.0163,9.8066,0.0825,0.1895,-0.0273,-3.94,-32.5,31.06,28.35,-82.69,-148.04
29644,52.43519,-1.569717,168.05,11.3,4.0,214.04,24 / 25,2968627,2019-09-07 10:02:53:906,3.283,-0.7939,9.8347,0.0033,-0.0239,9.8066,0.1267,0.1411,-0.019,-4.44,-32.06,30.63,28.47,-82.4,-148.1
29645,52.43519,-1.569717,168.05,11.3,4.0,214.04,24 / 25,2968727,2019-09-07 10:02:54:006,2.3479,-1.111,10.4131,0.0086,-0.0148,9.8066,0.0567,0.2076,-0.0309,-4.94,-31.81,31.44,25.65,-82.24,-148.81
29646,52.43519,-1.569717,168.05,11.3,4.0,214.04,24 / 25,2968827,2019-09-07 10:02:54:106,3.6151,0.3678,9.4332,-0.0061,0.035,9.8065,0.0666,0.2402,-0.0455,-5.31,-32.69,30.94,24.35,-82.42,-149.96
29647,52.43519,-1.569717,168.05,11.3,4.0,214.04,24 / 25,2968928,2019-09-07 10:02:54:207,1.8824,-0.0144,10.0204,0.0014,0.0346,9.8065,0.0852,0.1374,-0.0254,-5.06,-32.25,31.63,25.58,-82.67,-148.85
29648,52.43519,-1.569717,168.05,11.3,4.0,214.04,24 / 25,2969028,2019-09-07 10:02:54:307,1.4267,0.1536,10.0738,-0.0091,-0.0046,9.8066,-0.0154,0.2505,-0.0412,-6.19,-32.06,31.5,23.75,-82.67,-148.71
29649,52.43519,-1.569717,168.05,11.3,4.0,214.04,23 / 24,2969128,2019-09-07 10:02:54:407,2.6681,0.4766,9.8555,-0.0054,-0.0123,9.8065,-0.0178,0.1512,0.0179,-5.94,-32.69,31.44,23.47,-82.64,-148.81
29650,52.43519,-1.569717,168.05,11.3,4.0,214.04,23 / 24,2969227,2019-09-07 10:02:54:506,2.3167,-0.9113,9.6138,-0.0028,-0.0059,9.8066,0.0082,0.1786,-0.0242,-6.19,-32.5,32.06,24.34,-82.5,-148.26
29651,52.43519,-1.569717,168.05,11.3,4.0,214.04,23 / 24,2969327,2019-09-07 10:02:54:606,1.2657,-1.0945,9.7796,0.0003,-0.0204,9.8065,0.0351,0.0704,0.0573,-6.62,-32.25,31.94,22.69,-82.45,-147.99
29652,52.43519,-1.569717,168.05,11.3,4.0,214.04,23 / 24,2969428,2019-09-07 10:02:54:707,0.6169,-1.2437,9.8921,-0.0053,0.0025,9.8066,-0.0775,0.1117,-0.0845,-6.81,-32.0,31.69,23.36,-82.46,-147.4
29653,52.43519,-1.569717,168.05,11.3,4.0,214.04,23 / 24,2969527,2019-09-07 10:02:54:806,1.4706,0.6193,10.4305,0.0204,0.001,9.8066,-0.0699,0.056,-0.0091,-6.94,-31.87,32.13,22.3,-82.61,-148.26
29654,52.43519,-1.569717,168.05,11.3,4.0,214.04,23 / 24,2969627,2019-09-07 10:02:54:906,0.7567,0.3137,10.7482,-0.0115,0.0114,9.8066,0.1973,0.1275,-0.0151,-7.19,-31.87,31.75,22.09,-82.61,-148.45
29655,52.43519,-1.569717,168.05,11.3,4.0,214.04,23 / 24,2969727,2019-09-07 10:02:55:006,0.705,-0.8205,10.0768,0.0033,0.0219,9.8065,0.1877,0.0107,0.0578,-7.62,-31.44,31.94,19.91,-82.64,-148.56
29656,52.43519,-1.569717,168.05,11.3,4.0,214.04,23 / 24,2969827,2019-09-07 10:02:55:106,1.1445,-0.5404,9.4735,-0.008,-0.0206,9.8065,-0.0971,0.0446,-0.0092,-7.12,-31.75,32.5,22.28,-82.48,-148.61
29657,52.43519,-1.569717,168.05,11.3,4.0,214.04,23 / 24,2969927,2019-09-07 10:02:55:206,0.8021,0.3213,9.2095,-0.002,-0.0066,9.8066,-0.0983,0.0449,-0.0035,-7.19,-31.5,31.75,22.96,-82.33,-147.71
29658,52.43519,-1.569717,168.05,11.3,4.0,214.04,23 / 24,2970028,2019-09-07 10:02:55:307,1.7525,-0.325,9.2086,-0.006,0.0099,9.8066,0.0004,-0.1021,0.1115,-7.94,-31.75,32.19,22.02,-82.48,-146.85
29659,52.43519,-1.569717,168.05,11.3,4.0,214.04,24 / 25,2970127,2019-09-07 10:02:55:406,1.148,0.6723,9.7611,-0.0092,0.0045,9.8065,-0.023,0.0715,-0.079,-7.5,-31.75,31.94,25.58,-82.42,-145.47
29660,52.43519,-1.569717,168.05,11.3,4.0,214.04,24 / 25,2970228,2019-09-07 10:02:55:507,1.2683,0.9925,10.0219,0.0049,0.0011,9.8066,0.0582,-0.01,0.1254,-7.56,-31.31,32.75,24.45,-82.47,-144.95
29661,52.43519,-1.569717,168.05,11.3,4.0,214.04,24 / 25,2970327,2019-09-07 10:02:55:606,-0.1188,-0.9301,9.3569,0.0018,-0.0035,9.8066,0.0546,0.021,0.0705,-7.25,-31.19,32.25,25.69,-82.39,-145.29
29662,52.43519,-1.569717,168.05,11.3,4.0,214.04,24 / 25,2970427,2019-09-07 10:02:55:706,1.0198,-0.4518,9.4503,-0.0069,0.0053,9.8066,-0.0247,0.0438,-0.0482,-7.12,-31.31,31.69,25.6,-82.25,-145.43
29663,52.43519,-1.569717,168.05,11.3,4.0,214.04,24 / 25,2970527,2019-09-07 10:02:55:806,0.0482,-0.0999,9.88,-0.0015,0.0268,9.8066,-0.0355,-0.0186,0.0091,-8.25,-30.94,31.0,23.67,-82.33,-145.02
29664,52.43519,-1.569717,168.05,11.3,4.0,214.04,24 / 25,2970627,2019-09-07 10:02:55:906,0.6482,0.1859,9.4175,0.0083,-0.008,9.8065,-0.1031,0.0846,-0.0482,-9.25,-31.25,31.13,22.29,-82.41,-144.46
29665,52.43519,-1.569717,168.05,11.3,4.0,214.04,24 / 25,2970727,2019-09-07 10:02:56:006,-0.556,-0.1937,9.3019,0.0071,-0.0287,9.8065,-0.0964,-0.0231,0.0464,-9.06,-31.62,31.38,21.36,-82.47,-145.34
29666,52.43519,-1.569717,168.05,11.3,4.0,214.04,24 / 25,2970827,2019-09-07 10:02:56:106,-0.4172,0.2148,10.0083,0.0054,0.0343,9.8066,0.0642,0.0276,-0.0469,-8.81,-31.19,32.19,21.61,-82.55,-145.4
29667,52.43519,-1.569717,168.05,11.3,4.0,214.04,24 / 25,2970927,2019-09-07 10:02:56:206,-0.3084,-0.8924,9.5885,0.0158,0.0372,9.8065,0.0822,-0.129,0.0424,-8.5,-31.87,32.44,22.48,-82.97,-146.24
29668,52.43519,-1.569717,168.05,11.3,4.0,214.04,24 / 25,2971027,2019-09-07 10:02:56:306,0.787,0.0672,9.994,0.021,0.0161,9.8066,0.0178,-0.0035,-0.0782,-7.75,-32.37,32.31,19.54,-83.09,-148.79
29669,52.43519,-1.569717,168.05,11.3,4.0,214.04,24 / 25,2971127,2019-09-07 10:02:56:406,0.1814,-0.2867,9.5807,0.011,0.0182,9.8066,0.1341,-0.0637,0.013,-7.19,-31.81,32.19,20.14,-83.2,-149.94
29670,52.43519,-1.569717,168.05,11.3,4.0,214.04,24 / 25,2971227,2019-09-07 10:02:56:506,0.8356,0.1542,9.7711,0.0148,-0.0167,9.8066,-0.0789,0.0191,-0.0128,-8.12,-31.94,31.75,16.61,-83.19,-151.35
29671,52.43519,-1.569717,168.05,11.3,4.0,214.04,24 / 25,2971328,2019-09-07 10:02:56:607,0.1267,0.9997,10.0302,-0.0035,0.0116,9.8066,-0.0273,0.0085,0.0255,-8.25,-32.25,31.5,16.53,-83.33,-151.38
29672,52.43519,-1.569717,168.05,11.3,4.0,214.04,24 / 25,2971427,2019-09-07 10:02:56:706,-0.4848,0.185,10.4154,-0.0032,0.0146,9.8066,-0.0005,-0.0136,-0.0088,-7.06,-31.81,31.88,18.53,-83.3,-151.33
29673,52.43519,-1.569717,168.05,11.3,4.0,214.04,24 / 25,2971527,2019-09-07 10:02:56:806,-0.6353,-0.6923,9.8751,0.0089,-0.029,9.8065,0.0228,0.0707,-0.0955,-7.19,-32.19,32.06,17.68,-83.26,-152.09
29674,52.43519,-1.569717,168.05,11.3,4.0,214.04,24 / 25,2971628,2019-09-07 10:02:56:907,-1.4111,-0.3731,10.6108,0.021,-0.0022,9.8065,-0.055,-0.0881,0.0863,-7.56,-31.75,31.81,13.0,-83.14,-154.55
29675,52.43519,-1.569717,168.05,11.3,4.0,214.04,24 / 25,2971727,2019-09-07 10:02:57:006,0.7458,-1.0287,8.7575,0.0022,0.0056,9.8066,0.0503,-0.1519,0.03,-7.75,-32.37,32.25,11.68,-83.07,-155.73
29676,52.43519,-1.569717,168.05,11.3,4.0,214.04,24 / 25,2971827,2019-09-07 10:02:57:106,0.626,0.2404,9.3708,-0.0052,0.0562,9.8064,0.0456,0.0192,-0.1149,-7.44,-31.94,32.0,14.19,-83.27,-155.18
29677,52.43519,-1.569717,168.05,11.3,4.0,214.04,24 / 25,2971927,2019-09-07 10:02:57:206,-1.0785,-2.0057,10.4158,-0.0057,-0.0168,9.8066,-0.0225,0.0274,0.0123,-7.75,-32.0,31.81,11.9,-83.38,-155.46
29678,52.43519,-1.569717,168.05,11.3,4.0,214.04,24 / 25,2972027,2019-09-07 10:02:57:306,-0.0017,1.1812,10.3666,-0.0016,-0.0088,9.8066,-0.014,0.0368,-0.1059,-7.37,-32.94,31.56,13.44,-83.54,-155.81
29679,52.43436,-1.570522,164.89,12.85,3.0,195.73,24 / 25,2972127,2019-09-07 10:02:57:406,0.357,-0.5567,10.4317,0.0218,-0.0334,9.8065,-0.0154,0.0049,-0.0376,-7.37,-32.31,32.19,11.6,-83.44,-157.42
29680,52.43436,-1.570522,164.89,12.85,3.0,195.73,24 / 25,2972227,2019-09-07 10:02:57:506,-0.5111,0.2953,9.5553,0.0005,0.0019,9.8066,-0.129,-0.0559,0.085,-7.56,-32.19,31.81,7.25,-83.07,-159.61
29681,52.43436,-1.570522,164.89,12.85,3.0,195.73,24 / 25,2972327,2019-09-07 10:02:57:606,0.7026,1.4572,10.4385,-0.0052,0.0052,9.8066,0.1321,-0.078,0.0272,-7.06,-32.5,32.06,8.43,-82.92,-160.31
29682,52.43436,-1.570522,164.89,12.85,3.0,195.73,24 / 25,2972427,2019-09-07 10:02:57:706,1.3088,-0.3813,10.2623,-0.0147,0.0026,9.8066,-0.0413,-0.0451,0.0452,-7.12,-33.12,32.25,9.26,-82.9,-159.62
29683,52.43436,-1.570522,164.89,12.85,3.0,195.73,24 / 25,2972528,2019-09-07 10:02:57:807,-0.0431,-0.5664,8.9479,0.0252,0.0044,9.8065,-0.0367,-0.0582,0.1336,-7.31,-33.0,33.69,8.69,-82.82,-160.77
29684,52.43436,-1.570522,164.89,12.85,3.0,195.73,24 / 25,2972627,2019-09-07 10:02:57:906,1.3117,-0.9495,8.6625,-0.0032,0.0056,9.8066,-0.1048,-0.0315,0.0845,-8.12,-30.94,33.44,9.45,-82.66,-158.1
29685,52.43436,-1.570522,164.89,12.85,3.0,195.73,24 / 25,2972727,2019-09-07 10:02:58:006,1.0819,1.8731,9.5869,0.0077,0.0022,9.8066,-0.066,-0.0854,-0.0414,-7.75,-31.94,32.19,10.83,-82.94,-156.5
29686,52.43436,-1.570522,164.89,12.85,3.0,195.73,24 / 25,2972827,2019-09-07 10:02:58:106,-1.1011,0.9791,9.9389,-0.031,0.0125,9.8065,-0.0338,-0.1246,0.1145,-7.19,-32.12,31.56,14.86,-83.3,-154.57
29687,52.43436,-1.570522,164.89,12.85,3.0,195.73,24 / 25,2972928,2019-09-07 10:02:58:207,0.7278,0.4005,9.7513,-0.0124,0.0123,9.8066,0.1017,-0.0356,0.0983,-7.75,-32.44,31.5,15.39,-83.27,-152.4
29688,52.43436,-1.570522,164.89,12.85,3.0,195.73,24 / 25,2973027,2019-09-07 10:02:58:306,0.0148,-0.6397,10.4125,-0.0053,-0.0347,9.8065,0.1198,-0.0519,0.0612,-7.94,-31.75,32.38,14.72,-82.93,-153.09
29689,52.43436,-1.570522,164.89,12.85,3.0,195.73,24 / 25,2973127,2019-09-07 10:02:58:406,0.7155,0.6879,10.1895,-0.001,-0.0052,9.8066,0.0276,0.0098,-0.0002,-7.94,-31.69,32.38,14.81,-82.86,-153.03
29690,52.43436,-1.570522,164.89,12.85,3.0,195.73,24 / 25,2973227,2019-09-07 10:02:58:506,-0.0027,-0.6394,10.0026,-0.0152,-0.016,9.8065,0.0675,-0.0341,0.0468,-7.94,-32.31,31.56,15.92,-82.77,-152.08
29691,52.43436,-1.570522,164.89,12.85,3.0,195.73,24 / 25,2973328,2019-09-07 10:02:58:607,-0.1213,-0.2011,9.4356,-0.0085,-0.0037,9.8066,-0.0602,0.0166,0.0304,-8.19,-31.81,32.38,17.27,-82.56,-150.97
29692,52.43436,-1.570522,164.89,12.85,3.0,195.73,24 / 25,2973427,2019-09-07 10:02:58:706,-0.5252,-0.1565,9.5672,-0.0095,0.0093,9.8066,-0.0743,-0.0255,0.0429,-8.0,-32.06,31.25,17.22,-82.54,-150.65
29693,52.43436,-1.570522,164.89,12.85,3.0,195.73,24 / 25,2973527,2019-09-07 10:02:58:806,-0.6988,0.463,9.7095,-0.0085,0.0191,9.8066,0.0449,0.0087,0.0121,-8.69,-31.44,31.31,16.55,-82.57,-149.42
29694,52.43436,-1.570522,164.89,12.85,3.0,195.73,24 / 25,2973628,2019-09-07 10:02:58:907,0.1173,0.1333,10.3707,0.0142,-0.0109,9.8066,0.128,-0.034,-0.0038,-10.44,-31.69,31.63,14.05,-82.57,-150.42
29695,52.43436,-1.570522,164.89,12.85,3.0,195.73,24 / 25,2973727,2019-09-07 10:02:59:006,-0.745,-0.0611,10.7011,0.0121,-0.0125,9.8066,-0.0579,-0.0155,0.0103,-10.37,-30.69,32.69,13.11,-82.51,-151.66
29696,52.43436,-1.570522,164.89,12.85,3.0,195.73,24 / 25,2973827,2019-09-07 10:02:59:106,0.0062,-0.4041,10.4873,0.0215,-0.0077,9.8066,-0.021,-0.0203,-0.0379,-9.37,-30.37,32.63,13.67,-82.4,-152.76
29697,52.43436,-1.570522,164.89,12.85,3.0,195.73,24 / 25,2973927,2019-09-07 10:02:59:206,-0.6749,0.1324,9.7711,0.0113,0.0217,9.8066,0.0754,-0.002,-0.0672,-8.56,-29.69,32.63,11.22,-82.44,-154.91
29698,52.43436,-1.570522,164.89,12.85,3.0,195.73,24 / 25,2974028,2019-09-07 10:02:59:307,0.1832,0.5657,9.9684,0.0028,-0.01,9.8066,0.0344,0.0085,0.0145,-9.87,-30.5,31.69,8.21,-82.36,-155.48
29699,52.43436,-1.570522,164.89,12.85,3.0,195.73,24 / 25,2974127,2019-09-07 10:02:59:406,0.2998,-0.6337,9.4712,-0.0034,0.0177,9.8066,-0.103,-0.0076,0.059,-10.87,-31.31,31.88,7.01,-82.49,-154.92
29700,52.43436,-1.570522,164.89,12.85,3.0,195.73,24 / 25,2974227,2019-09-07 10:02:59:506,0.127,0.5234,9.1686,-0.0166,0.0224,9.8066,-0.0819,0.0038,0.0104,-10.81,-31.19,32.13,7.86,-82.48,-154.18
29701,52.43436,-1.570522,164.89,12.85,3.0,195.73,24 / 25,2974327,2019-09-07 10:02:59:606,-0.6532,-0.2974,9.7912,-0.0286,0.0168,9.8065,0.0677,-0.0062,0.1003,-11.19,-30.62,32.5,11.43,-82.56,-151.54
29702,52.43436,-1.570522,164.89,12.85,3.0,195.73,24 / 25,2974427,2019-09-07 10:02:59:706,-1.2288,-0.1873,10.4118,-0.0112,-0.0126,9.8066,0.0213,-0.0511,0.1242,-10.94,-30.5,32.13,11.93,-82.41,-150.59
29703,52.43436,-1.570522,164.89,12.85,3.0,195.73,24 / 25,2974527,2019-09-07 10:02:59:806,0.3686,0.3412,9.6389,-0.0139,0.0121,9.8066,0.0282,-0.0495,0.0613,-10.87,-30.37,32.0,12.87,-82.27,-149.79
29704,52.43436,-1.570522,164.89,12.85,3.0,195.73,24 / 25,2974627,2019-09-07 10:02:59:906,-1.8248,0.2749,10.0714,-0.0145,0.0083,9.8066,-0.0647,-0.1159,0.0502,-11.06,-31.12,31.75,14.32,-82.14,-148.62
29705,52.43436,-1.570522,164.89,12.85,3.0,195.73,24 / 25,2974728,2019-09-07 10:03:00:007,-0.116,0.3334,9.8706,-0.0422,0.0383,9.8064,0.1555,-0.0503,0.107,-11.5,-30.94,31.19,15.5,-82.19,-147.07
29706,52.43436,-1.570522,164.89,12.85,3.0,195.73,24 / 25,2974827,2019-09-07 10:03:00:106,-1.2957,1.0118,9.6487,-0.007,-0.0173,9.8066,0.1047,-0.0398,0.0421,-11.62,-31.5,31.5,13.99,-82.31,-147.25
29707,52.43436,-1.570522,164.89,12.85,3.0,195.73,24 / 25,2974927,2019-09-07 10:03:00:206,1.2032,0.2186,9.9875,-0.0146,-0.0023,9.8065,-0.0011,0.0948,-0.0624,-13.0,-31.56,32.31,13.06,-82.2,-146.58
29708,52.43436,-1.570522,164.89,12.85,3.0,195.73,24 / 25,2975027,2019-09-07 10:03:00:306,-1.4674,-0.0814,9.8557,0.0296,-0.0742,9.8063,0.1471,-0.0054,-0.0271,-12.69,-31.87,32.44,13.12,-82.17,-146.53
29709,52.43436,-1.570522,164.89,12.85,3.0,195.73,23 / 24,2975127,2019-09-07 10:03:00:406,1.6718,0.8728,8.802,0.0031,-0.0902,9.8062,-0.261,0.0174,0.0413,-11.31,-31.12,33.75,16.64,-81.66,-147.67
29710,52.43436,-1.570522,164.89,12.85,3.0,195.73,23 / 24,2975227,2019-09-07 10:03:00:506,-0.0458,-0.1452,9.0663,-0.0211,0.0524,9.8065,-0.2743,-0.0148,0.0369,-11.25,-30.37,32.25,18.81,-81.93,-144.69
29711,52.43436,-1.570522,164.89,12.85,3.0,195.73,23 / 24,2975327,2019-09-07 10:03:00:606,-0.181,0.166,9.537,-0.0195,0.0064,9.8066,0.0377,0.0392,0.017,-12.12,-31.62,31.5,18.54,-81.94,-143.46
29712,52.43436,-1.570522,164.89,12.85,3.0,195.73,23 / 24,2975427,2019-09-07 10:03:00:706,0.6714,0.3725,9.2333,0.0017,-0.0058,9.8065,0.0847,0.0717,-0.0039,-12.12,-31.5,32.0,18.96,-81.92,-143.04
29713,52.43436,-1.570522,164.89,12.85,3.0,195.73,23 / 24,2975528,2019-09-07 10:03:00:807,-0.1952,-1.4758,9.701,-0.0006,-0.0139,9.8066,-0.0216,0.0331,0.0079,-13.0,-31.19,32.44,17.57,-81.75,-142.72
29714,52.43436,-1.570522,164.89,12.85,3.0,195.73,23 / 24,2975628,2019-09-07 10:03:00:907,0.1058,0.5049,10.1231,-0.0021,0.0025,9.8066,-0.0573,0.029,-0.0015,-12.56,-31.25,32.94,18.41,-81.63,-142.58
29715,52.43436,-1.570522,164.89,12.85,3.0,195.73,23 / 24,2975728,2019-09-07 10:03:01:007,-0.5537,-1.4645,10.3361,0.0068,-0.0027,9.8066,0.0071,-0.0097,-0.0517,-11.56,-30.87,33.5,20.18,-81.54,-143.09
29716,52.43436,-1.570522,164.89,12.85,3.0,195.73,23 / 24,2975827,2019-09-07 10:03:01:106,-0.6718,-0.3691,10.358,0.0055,-0.0158,9.8065,-0.1508,-0.0393,0.0861,-10.62,-30.31,33.69,20.93,-81.46,-143.91
29717,52.43436,-1.570522,164.89,12.85,3.0,195.73,23 / 24,2975927,2019-09-07 10:03:01:206,-1.4393,0.6028,8.4822,0.0215,-0.0272,9.8066,0.097,-0.0914,-0.0427,-10.31,-30.62,33.13,20.87,-81.47,-145.21
29718,52.43436,-1.570522,164.89,12.85,3.0,195.73,23 / 24,2976027,2019-09-07 10:03:01:306,-0.4664,0.8794,9.2106,-0.0144,0.0464,9.8065,-0.1626,-0.0436,0.0149,-10.31,-30.69,31.75,17.41,-81.51,-147.76
29719,52.43436,-1.570522,164.89,12.85,3.0,195.73,24 / 25,2976128,2019-09-07 10:03:01:407,0.6526,-0.6221,9.7502,0.0085,0.0407,9.8065,0.0039,0.081,-0.1203,-10.94,-31.31,31.5,14.71,-81.56,-148.43
29720,52.43436,-1.570522,164.89,12.85,3.0,195.73,24 / 25,2976227,2019-09-07 10:03:01:506,-0.0521,0.8446,9.8235,0.009,0.0148,9.8066,-0.0453,0.0837,0.0198,-12.37,-32.19,32.06,10.14,-82.08,-150.7
29721,52.43436,-1.570522,164.89,12.85,3.0,195.73,24 / 25,2976327,2019-09-07 10:03:01:606,-0.7687,1.0849,9.7791,0.0202,0.0082,9.8066,-0.0118,0.0452,0.0017,-11.69,-31.06,33.63,9.58,-82.2,-152.18
29722,52.43436,-1.570522,164.89,12.85,3.0,195.73,24 / 25,2976427,2019-09-07 10:03:01:706,-0.0334,-0.5678,8.6498,-0.0005,0.0114,9.8066,-0.1393,0.1223,-0.0234,-9.94,-30.56,32.38,10.35,-82.26,-153.67
29723,52.43436,-1.570522,164.89,12.85,3.0,195.73,24 / 25,2976528,2019-09-07 10:03:01:807,-0.898,0.3563,9.2062,-0.0179,0.0467,9.8064,-0.0342,-0.0069,0.0094,-11.19,-30.81,30.31,7.93,-82.45,-153.01
29724,52.43436,-1.570522,164.89,12.85,3.0,195.73,24 / 25,2976628,2019-09-07 10:03:01:907,2.6466,1.9023,8.3384,0.0164,0.0076,9.8066,-0.256,-0.0323,-0.0236,-12.87,-32.37,31.25,3.93,-82.37,-153.85
29725,52.43436,-1.570522,164.89,12.85,3.0,195.73,24 / 25,2976727,2019-09-07 10:03:02:006,-2.7714,2.2443,9.0115,0.013,0.0157,9.8066,-0.1408,-0.0714,0.0191,-12.5,-32.12,33.5,6.94,-82.35,-154.5
29726,52.43436,-1.570522,164.89,12.85,3.0,195.73,24 / 25,2976827,2019-09-07 10:03:02:106,-2.2472,-0.616,9.848,0.0071,0.0768,9.8063,0.1123,-0.1064,0.1649,-10.0,-31.12,35.06,7.99,-82.39,-157.04
29727,52.43436,-1.570522,164.89,12.85,3.0,195.73,24 / 25,2976927,2019-09-07 10:03:02:206,-0.0875,0.3035,10.0552,-0.0398,0.0718,9.8062,-0.0706,0.0889,-0.0374,-9.06,-31.25,33.69,10.18,-82.42,-156.26
29728,52.43436,-1.570522,164.89,12.85,3.0,195.73,24 / 25,2977033,2019-09-07 10:03:02:312,-1.5333,1.415,10.3309,0.0042,-0.0085,9.8066,0.1735,0.0603,-0.0594,-8.56,-31.87,32.75,9.27,-82.54,-156.67
29729,52.43436,-1.570522,164.89,12.85,3.0,195.73,24 / 25,2977127,2019-09-07 10:03:02:406,-0.438,0.506,10.3295,0.0145,0.0057,9.8066,0.2396,-0.0508,0.0169,-9.0,-32.06,33.44,7.15,-82.68,-158.51
29730,52.43436,-1.570522,164.89,12.85,3.0,195.73,24 / 25,2977227,2019-09-07 10:03:02:506,-0.0795,0.2107,9.889,0.0162,-0.0366,9.8065,-0.0868,0.0279,-0.0185,-8.5,-32.12,32.63,7.71,-82.67,-159.65
29731,52.43436,-1.570522,164.89,12.85,3.0,195.73,24 / 25,2977328,2019-09-07 10:03:02:607,-0.5928,-0.4229,10.3094,0.0009,-0.0177,9.8066,-0.0234,0.0303,-0.031,-8.69,-31.81,32.56,4.63,-82.54,-160.72
29732,52.43436,-1.570522,164.89,12.85,3.0,195.73,24 / 25,2977427,2019-09-07 10:03:02:706,0.3465,-1.6862,9.5493,-0.0131,-0.0588,9.8064,-0.0986,0.0859,-0.0807,-8.94,-32.37,32.38,4.76,-82.51,-160.17
29733,52.43436,-1.570522,164.89,12.85,3.0,195.73,24 / 25,2977528,2019-09-07 10:03:02:807,0.1342,-0.9888,9.9551,0.0143,-0.0516,9.8065,0.02,0.0343,-0.0146,-9.06,-31.87,32.38,4.96,-82.71,-159.98
29734,52.43436,-1.570522,164.89,12.85,3.0,195.73,24 / 25,2977628,2019-09-07 10:03:02:907,-0.8933,0.0251,10.2057,-0.0082,-0.0319,9.8066,-0.2257,0.1646,-0.1113,-9.06,-31.94,33.13,4.9,-82.91,-160.45
29735,52.43436,-1.570522,164.89,12.85,3.0,195.73,24 / 25,2977727,2019-09-07 10:03:03:006,-0.9684,1.1063,9.1026,0.0313,-0.0674,9.8063,-0.3335,0.0476,-0.0448,-9.37,-31.81,32.19,3.94,-82.62,-160.87
29736,52.43436,-1.570522,164.89,12.85,3.0,195.73,24 / 25,2977827,2019-09-07 10:03:03:106,0.5129,-0.0965,9.6196,-0.0127,0.0526,9.8064,0.1569,0.026,-0.0195,-8.56,-31.81,32.13,3.13,-82.82,-161.57
29737,52.43436,-1.570522,164.89,12.85,3.0,195.73,24 / 25,2977927,2019-09-07 10:03:03:206,0.9374,1.6117,8.5984,0.0011,0.0321,9.8065,-0.0484,-0.0001,0.0421,-8.62,-32.06,32.75,4.02,-83.17,-161.2
29738,52.43436,-1.570522,164.89,12.85,3.0,195.73,24 / 25,2978027,2019-09-07 10:03:03:306,0.3998,0.6494,10.1346,-0.0325,0.0581,9.8064,0.1895,0.071,0.0724,-9.31,-32.06,32.13,5.97,-83.26,-159.03
29739,52.43436,-1.570522,164.89,12.85,3.0,195.73,24 / 25,2978127,2019-09-07 10:03:03:406,-0.9785,0.6261,10.7718,-0.0274,0.0414,9.8065,0.113,-0.0031,0.0599,-9.5,-32.62,32.38,7.4,-83.15,-157.82
29740,52.43436,-1.570522,164.89,12.85,3.0,195.73,24 / 25,2978227,2019-09-07 10:03:03:506,0.7416,-1.7159,9.9566,0.0161,-0.0049,9.8066,0.0454,-0.0051,-0.0202,-9.31,-32.12,32.81,7.97,-83.05,-157.73
29741,52.43436,-1.570522,164.89,12.85,3.0,195.73,24 / 25,2978327,2019-09-07 10:03:03:606,1.1123,-1.0082,9.9014,0.0128,-0.0347,9.8065,-0.0749,0.04,-0.0752,-9.56,-32.44,31.81,3.89,-82.97,-159.24
29742,52.43436,-1.570522,164.89,12.85,3.0,195.73,24 / 25,2978428,2019-09-07 10:03:03:707,1.0815,1.7036,9.186,-0.0034,0.0454,9.8065,-0.1236,0.1332,-0.0623,-9.5,-32.31,31.94,5.55,-83.37,-159.39
29743,52.43436,-1.570522,164.89,12.85,3.0,195.73,24 / 25,2978527,2019-09-07 10:03:03:806,-0.1829,1.45,9.6433,-0.0042,0.028,9.8065,-0.0892,0.0161,0.0347,-9.44,-32.5,32.38,5.38,-83.51,-159.53
29744,52.43436,-1.570522,164.89,12.85,3.0,195.73,24 / 25,2978627,2019-09-07 10:03:03:906,-0.0618,0.6498,9.6602,0.001,0.0022,9.8066,-0.0056,0.0909,-0.0775,-9.94,-32.69,31.94,4.35,-83.5,-158.81
29745,52.43436,-1.570522,164.89,12.85,3.0,195.73,24 / 25,2978728,2019-09-07 10:03:04:007,0.6006,0.1294,9.5464,-0.0108,-0.01,9.8066,0.0485,0.0226,0.0833,-9.69,-32.5,32.25,4.68,-83.42,-158.51
29746,52.43436,-1.570522,164.89,12.85,3.0,195.73,24 / 25,2978828,2019-09-07 10:03:04:107,1.2894,1.5053,9.2521,-0.0034,0.0212,9.8066,-0.0068,0.0311,0.0001,-10.12,-32.62,32.44,5.44,-83.33,-157.86
29747,52.43436,-1.570522,164.89,12.85,3.0,195.73,24 / 25,2978928,2019-09-07 10:03:04:207,-0.5936,0.231,9.7786,-0.0085,0.0145,9.8065,0.0088,0.072,0.0079,-10.12,-32.06,32.06,6.76,-83.52,-156.65
29748,52.43436,-1.570522,164.89,12.85,3.0,195.73,24 / 25,2979027,2019-09-07 10:03:04:306,0.3197,-0.2559,10.1943,0.0019,-0.0151,9.8066,0.0057,0.0331,0.1096,-10.87,-32.5,32.06,5.16,-83.56,-156.45
29749,52.43436,-1.570522,164.89,12.85,3.0,195.73,24 / 25,2979128,2019-09-07 10:03:04:407,-0.3114,-0.8571,10.5899,-0.0174,-0.0089,9.8066,0.1383,0.0299,0.0063,-10.5,-32.44,32.25,9.1,-83.5,-154.58
29750,52.43436,-1.570522,164.89,12.85,3.0,195.73,24 / 25,2979227,2019-09-07 10:03:04:506,0.6521,-2.1058,9.3209,0.0073,-0.0826,9.8063,-0.2462,0.1523,-0.0864,-10.56,-32.0,32.44,7.29,-83.54,-154.56
29751,52.43436,-1.570522,164.89,12.85,3.0,195.73,24 / 25,2979327,2019-09-07 10:03:04:606,0.2251,2.2869,10.443,0.0026,-0.0295,9.8066,-0.0029,0.0405,0.0572,-11.12,-32.44,31.81,8.08,-83.14,-153.91
29752,52.43436,-1.570522,164.89,12.85,3.0,195.73,24 / 25,2979428,2019-09-07 10:03:04:707,0.4872,0.1787,10.4692,-0.0109,0.0053,9.8066,-0.036,0.1456,-0.1266,-11.06,-33.12,32.5,9.92,-83.19,-152.83
29753,52.43436,-1.570522,164.89,12.85,3.0,195.73,24 / 25,2979527,2019-09-07 10:03:04:806,2.8555,0.9373,9.6574,-0.0046,0.0052,9.8066,0.0053,0.1947,-0.1304,-11.62,-32.0,32.44,7.94,-83.25,-152.43
29754,52.43436,-1.570522,164.89,12.85,3.0,195.73,24 / 25,2979627,2019-09-07 10:03:04:906,0.0502,0.0499,10.0552,-0.016,-0.0045,9.8065,0.0532,0.1147,0.0491,-11.75,-31.62,32.81,10.15,-83.27,-151.02
29755,52.43436,-1.570522,164.89,12.85,3.0,195.73,24 / 25,2979727,2019-09-07 10:03:05:006,1.0972,0.3135,10.0262,-0.007,-0.0027,9.8066,-0.0898,0.1298,-0.0395,-12.25,-32.69,32.13,9.39,-83.13,-151.2
29756,52.43436,-1.570522,164.89,12.85,3.0,195.73,24 / 25,2979827,2019-09-07 10:03:05:106,0.7436,2.6025,10.7981,0.0062,0.0203,9.8066,0.2387,0.0248,-0.0154,-12.06,-32.31,32.5,10.15,-83.1,-151.05
29757,52.43436,-1.570522,164.89,12.85,3.0,195.73,24 / 25,2979928,2019-09-07 10:03:05:207,1.8062,0.1643,9.1724,0.0151,0.005,9.8066,0.1702,0.0681,-0.0015,-12.0,-32.06,33.13,7.88,-82.98,-153.07
29758,52.43436,-1.570522,164.89,12.85,3.0,195.73,24 / 25,2980027,2019-09-07 10:03:05:306,2.1645,-0.6014,9.2199,0.0059,0.0167,9.8066,-0.0613,0.0326,-0.0156,-12.5,-32.94,32.94,6.79,-82.79,-154.08
29759,52.43436,-1.570522,164.89,12.85,3.0,195.73,24 / 25,2980128,2019-09-07 10:03:05:407,2.3183,0.0078,8.9465,0.0112,0.0518,9.8064,-0.1022,0.158,-0.1292,-12.0,-32.69,32.31,5.36,-83.18,-154.74
29760,52.43436,-1.570522,164.89,12.85,3.0,195.73,24 / 25,2980227,2019-09-07 10:03:05:506,2.3251,1.6961,8.8616,0.0123,0.0338,9.8065,-0.0518,0.1505,0.0054,-12.0,-32.5,32.56,4.44,-83.74,-156.04
29761,52.43436,-1.570522,164.89,12.85,3.0,195.73,24 / 25,2980327,2019-09-07 10:03:05:606,-0.2003,-0.4602,9.3615,0.0024,0.0078,9.8066,-0.0287,0.0005,0.115,-12.87,-32.75,31.88,2.49,-83.81,-155.67
29762,52.43436,-1.570522,164.89,12.85,3.0,195.73,24 / 25,2980427,2019-09-07 10:03:05:706,0.76,-0.1023,9.6531,-0.032,0.0147,9.8066,-0.014,0.1426,0.0213,-12.81,-32.62,32.25,4.16,-83.7,-154.19
29763,52.43436,-1.570522,164.89,12.85,3.0,195.73,24 / 25,2980527,2019-09-07 10:03:05:806,0.8871,-0.218,10.0955,-0.0402,0.0124,9.8065,0.0353,0.2059,-0.0296,-13.31,-32.12,32.75,8.56,-83.58,-150.85
29764,52.43436,-1.570522,164.89,12.85,3.0,195.73,24 / 25,2980627,2019-09-07 10:03:05:906,-1.1245,1.7199,9.9229,-0.0369,-0.0195,9.8066,0.058,0.209,-0.1543,-13.75,-32.25,32.63,6.32,-83.39,-151.38
29765,52.43436,-1.570522,164.89,12.85,3.0,195.73,24 / 25,2980728,2019-09-07 10:03:06:007,-1.661,2.4457,9.8748,-0.019,0.0232,9.8066,-0.0527,0.0499,0.024,-14.56,-32.12,32.69,8.03,-83.33,-148.4
29766,52.43436,-1.570522,164.89,12.85,3.0,195.73,24 / 25,2980828,2019-09-07 10:03:06:107,-0.4503,1.0527,10.3133,0.0335,0.0027,9.8065,0.0537,-0.0482,0.0584,-13.87,-32.06,32.63,7.29,-83.45,-150.5
29767,52.43436,-1.570522,164.89,12.85,3.0,195.73,24 / 25,2980927,2019-09-07 10:03:06:206,-1.1213,1.88,10.2117,0.0061,-0.0039,9.8066,-0.0333,-0.0157,0.0284,-13.94,-32.44,32.94,6.99,-83.41,-150.79
29768,52.43436,-1.570522,164.89,12.85,3.0,195.73,24 / 25,2981027,2019-09-07 10:03:06:306,0.35,0.5716,9.6495,0.0144,0.0116,9.8066,-0.1059,-0.0358,-0.0495,-13.81,-32.31,33.38,6.9,-83.35,-150.87
29769,52.433353,-1.570884,163.8,11.86,3.0,178.55,23 / 24,2981127,2019-09-07 10:03:06:406,-0.5474,2.1143,8.839,0.0003,0.0001,9.8066,-0.123,0.0545,-0.026,-14.25,-32.25,33.06,5.68,-83.5,-151.94
29770,52.433353,-1.570884,163.8,11.86,3.0,178.55,23 / 24,2981227,2019-09-07 10:03:06:506,-1.2308,2.0877,9.998,0.0014,0.0032,9.8066,0.0537,0.028,0.0145,-14.37,-32.5,32.38,6.07,-83.5,-150.97
29771,52.433353,-1.570884,163.8,11.86,3.0,178.55,23 / 24,2981327,2019-09-07 10:03:06:606,-0.1384,2.3089,10.0452,-0.0013,-0.0364,9.8066,-0.0474,0.0798,0.0508,-14.75,-32.44,32.06,4.99,-83.52,-150.43
29772,52.433353,-1.570884,163.8,11.86,3.0,178.55,23 / 24,2981427,2019-09-07 10:03:06:706,0.3461,0.8344,9.7014,-0.0024,0.0164,9.8066,-0.0385,0.0611,-0.022,-14.37,-32.06,32.81,7.96,-83.55,-149.9
29773,52.433353,-1.570884,163.8,11.86,3.0,178.55,23 / 24,2981527,2019-09-07 10:03:06:806,0.0168,0.3054,9.8186,-0.013,0.0003,9.8066,0.1002,0.0544,0.0151,-15.25,-31.87,32.63,6.17,-83.46,-150.04
29774,52.433353,-1.570884,163.8,11.86,3.0,178.55,23 / 24,2981627,2019-09-07 10:03:06:906,0.4282,-0.0577,9.9251,0.0062,-0.0182,9.8065,0.0786,0.0602,0.0156,-14.62,-31.81,32.75,6.01,-83.39,-150.2
29775,52.433353,-1.570884,163.8,11.86,3.0,178.55,23 / 24,2981727,2019-09-07 10:03:07:006,-0.087,0.0019,9.8299,0.0251,-0.0202,9.8065,-0.1212,0.1076,-0.0762,-14.75,-31.75,32.75,4.46,-83.3,-151.58
29776,52.433353,-1.570884,163.8,11.86,3.0,178.55,23 / 24,2981828,2019-09-07 10:03:07:107,-0.1759,0.1741,10.0005,-0.0094,0.024,9.8065,-0.0372,0.0155,0.0061,-15.06,-31.37,33.19,3.46,-83.35,-152.47
29777,52.433353,-1.570884,163.8,11.86,3.0,178.55,23 / 24,2981927,2019-09-07 10:03:07:206,1.332,-1.0441,9.5246,-0.0135,0.0201,9.8066,-0.0268,0.1257,-0.0551,-14.81,-30.94,33.56,4.75,-83.47,-151.93
29778,52.433353,-1.570884,163.8,11.86,3.0,178.55,23 / 24,2982027,2019-09-07 10:03:07:306,0.8543,0.1115,9.6014,-0.0051,0.0113,9.8066,-0.0816,0.0548,0.0229,-15.0,-30.44,33.19,4.08,-83.52,-151.89
29779,52.433353,-1.570884,163.8,11.86,3.0,178.55,24 / 25,2982127,2019-09-07 10:03:07:406,0.7058,-0.5137,10.221,-0.0156,0.028,9.8066,0.0523,0.0628,-0.0156,-16.87,-29.06,31.06,0.39,-83.58,-150.9
29780,52.433353,-1.570884,163.8,11.86,3.0,178.55,24 / 25,2982228,2019-09-07 10:03:07:507,0.7393,0.3987,9.4127,0.0176,-0.0211,9.8066,0.052,0.079,-0.0095,-19.94,-29.94,28.31,354.0,-83.54,-149.83
29781,52.433353,-1.570884,163.8,11.86,3.0,178.55,24 / 25,2982327,2019-09-07 10:03:07:606,0.4729,-0.6653,9.6873,0.0097,-0.0304,9.8066,-0.0658,0.0678,0.0358,-19.81,-30.87,28.06,354.45,-83.36,-149.4
29782,52.433353,-1.570884,163.8,11.86,3.0,178.55,24 / 25,2982428,2019-09-07 10:03:07:707,-0.2588,0.1344,10.286,-0.0189,0.0452,9.8064,-0.0901,0.0898,0.0341,-17.94,-30.44,33.81,4.52,-83.25,-148.02
29783,52.433353,-1.570884,163.8,11.86,3.0,178.55,24 / 25,2982527,2019-09-07 10:03:07:806,-0.2116,-0.6445,10.6244,-0.0248,0.0381,9.8065,0.2116,-0.044,0.0894,-17.56,-30.5,35.63,7.44,-83.47,-146.67
29784,52.433353,-1.570884,163.8,11.86,3.0,178.55,24 / 25,2982627,2019-09-07 10:03:07:906,1.2438,-0.9818,10.1929,0.0235,-0.0403,9.8065,0.163,0.102,-0.0648,-16.06,-30.37,33.06,7.28,-83.1,-147.62
29785,52.433353,-1.570884,163.8,11.86,3.0,178.55,24 / 25,2982728,2019-09-07 10:03:08:007,0.1913,-0.5944,10.0761,0.0304,-0.0061,9.8066,-0.0269,0.0065,-0.0717,-17.25,-31.0,31.06,3.46,-83.23,-148.18
29786,52.433353,-1.570884,163.8,11.86,3.0,178.55,24 / 25,2982828,2019-09-07 10:03:08:107,0.8755,1.7364,9.865,-0.0088,0.0312,9.8065,-0.0563,0.0725,-0.1094,-20.0,-32.12,31.56,357.11,-83.3,-150.58
29787,52.433353,-1.570884,163.8,11.86,3.0,178.55,24 / 25,2982927,2019-09-07 10:03:08:206,0.8185,-0.0731,10.2283,0.0025,0.0316,9.8066,0.0384,0.145,-0.0534,-20.5,-31.0,34.81,357.94,-83.41,-152.12
29788,52.433353,-1.570884,163.8,11.86,3.0,178.55,24 / 25,2983028,2019-09-07 10:03:08:307,1.5577,0.774,9.7219,0.0232,-0.0184,9.8066,0.0964,0.0575,0.0027,-17.81,-30.06,34.19,356.18,-83.26,-155.55
29789,52.433353,-1.570884,163.8,11.86,3.0,178.55,24 / 25,2983129,2019-09-07 10:03:08:408,0.9674,-0.1597,9.6548,0.0145,0.0028,9.8066,0.029,0.1032,0.0068,-18.19,-29.94,32.38,352.84,-83.33,-157.08
29790,52.433353,-1.570884,163.8,11.86,3.0,178.55,24 / 25,2983227,2019-09-07 10:03:08:506,0.5333,0.0153,10.7917,0.0014,0.0263,9.8066,0.1101,0.1039,-0.0101,-19.5,-30.19,32.31,350.62,-83.48,-157.76
29791,52.433353,-1.570884,163.8,11.86,3.0,178.55,24 / 25,2983327,2019-09-07 10:03:08:606,2.4434,1.2851,9.4505,0.0315,-0.0012,9.8066,-0.0468,0.1459,-0.1122,-19.62,-31.12,33.31,348.2,-83.48,-159.44
29792,52.433353,-1.570884,163.8,11.86,3.0,178.55,24 / 25,2983428,2019-09-07 10:03:08:707,1.2807,0.2194,9.4352,0.0176,-0.0003,9.8066,0.0255,0.103,-0.0397,-18.94,-29.56,32.44,345.28,-83.38,-162.57
29793,52.433353,-1.570884,163.8,11.86,3.0,178.55,24 / 25,2983527,2019-09-07 10:03:08:806,1.2931,0.5083,9.9205,-0.0042,0.0136,9.8066,0.1002,0.1772,-0.0173,-20.0,-29.06,31.63,342.36,-83.39,-163.98
29794,52.433353,-1.570884,163.8,11.86,3.0,178.55,24 / 25,2983627,2019-09-07 10:03:08:906,1.4675,-0.2227,9.9894,-0.0032,0.0245,9.8065,0.1399,0.1187,0.0197,-20.81,-29.31,31.81,340.2,-83.58,-164.77
29795,52.433353,-1.570884,163.8,11.86,3.0,178.55,24 / 25,2983728,2019-09-07 10:03:09:007,1.74,-0.7497,10.3821,0.0103,-0.0203,9.8066,-0.0279,0.1469,0.0078,-21.44,-30.44,32.13,339.52,-83.43,-165.28
29796,52.433353,-1.570884,163.8,11.86,3.0,178.55,24 / 25,2983828,2019-09-07 10:03:09:107,0.5117,0.2992,9.6451,0.009,-0.0009,9.8066,-0.0115,0.0896,0.0168,-21.81,-30.62,32.25,337.49,-83.41,-165.86
29797,52.433353,-1.570884,163.8,11.86,3.0,178.55,24 / 25,2983927,2019-09-07 10:03:09:206,0.7056,-0.7555,9.8589,-0.0083,-0.003,9.8066,0.0402,0.151,-0.0258,-21.37,-30.31,33.56,341.15,-83.31,-165.41
29798,52.433353,-1.570884,163.8,11.86,3.0,178.55,24 / 25,2984027,2019-09-07 10:03:09:306,1.3944,0.7383,9.9943,-0.0035,0.002,9.8066,-0.0018,0.1577,-0.0448,-20.56,-30.19,33.06,340.76,-83.35,-164.97
29799,52.433353,-1.570884,163.8,11.86,3.0,178.55,24 / 25,2984127,2019-09-07 10:03:09:406,-0.0941,0.4552,9.8884,0.0009,0.0078,9.8065,-0.0459,0.1093,-0.0138,-20.25,-29.19,32.38,340.74,-83.47,-165.49
29800,52.433353,-1.570884,163.8,11.86,3.0,178.55,24 / 25,2984228,2019-09-07 10:03:09:507,1.523,0.2669,10.0483,-0.004,0.0021,9.8066,-0.0162,0.1676,-0.1045,-20.81,-29.81,31.81,338.68,-83.55,-166.09
29801,52.433353,-1.570884,163.8,11.86,3.0,178.55,24 / 25,2984327,2019-09-07 10:03:09:606,0.767,-0.6553,10.0038,0.0225,-0.0253,9.8065,-0.0713,0.1204,-0.0316,-21.56,-30.44,31.69,335.45,-83.49,-167.81
29802,52.433353,-1.570884,163.8,11.86,3.0,178.55,24 / 25,2984427,2019-09-07 10:03:09:706,0.6211,0.2347,9.545,0.0104,-0.0056,9.8066,-0.0091,0.0938,-0.0111,-21.5,-30.81,31.94,335.73,-83.54,-168.71
29803,52.433353,-1.570884,163.8,11.86,3.0,178.55,24 / 25,2984527,2019-09-07 10:03:09:806,1.0532,-0.6782,9.5209,0.0179,-0.0084,9.8066,-0.0726,0.1187,-0.0534,-22.19,-31.19,32.56,334.83,-83.52,-169.19
29804,52.433353,-1.570884,163.8,11.86,3.0,178.55,24 / 25,2984627,2019-09-07 10:03:09:906,0.7717,0.2116,10.0374,0.0047,-0.011,9.8066,-0.0535,0.1146,-0.0151,-22.0,-31.0,33.06,333.88,-83.49,-170.05
29805,52.433353,-1.570884,163.8,11.86,3.0,178.55,24 / 25,2984727,2019-09-07 10:03:10:006,0.8826,-0.401,9.5697,-0.0002,0.0013,9.8066,0.08,0.0691,-0.0102,-21.0,-30.37,34.06,336.05,-83.53,-170.14
29806,52.433353,-1.570884,163.8,11.86,3.0,178.55,24 / 25,2984828,2019-09-07 10:03:10:107,0.9505,-0.9306,10.0496,0.016,-0.0288,9.8065,0.0372,0.0689,-0.0137,-19.06,-30.62,34.5,339.24,-83.34,-170.3
29807,52.433353,-1.570884,163.8,11.86,3.0,178.55,24 / 25,2984927,2019-09-07 10:03:10:206,-0.32,0.152,10.2757,-0.0004,0.0075,9.8066,0.0207,0.0414,0.0117,-18.5,-31.25,32.25,337.86,-83.25,-170.5
29808,52.433353,-1.570884,163.8,11.86,3.0,178.55,24 / 25,2985027,2019-09-07 10:03:10:306,0.3402,-0.9414,10.4515,-0.0011,0.0077,9.8066,0.0673,0.0146,0.0032,-19.0,-31.56,32.0,335.71,-83.16,-171.02
29809,52.433353,-1.570884,163.8,11.86,3.0,178.55,23 / 24,2985128,2019-09-07 10:03:10:407,0.2454,-0.6161,10.3326,0.0392,-0.0227,9.8064,-0.0715,0.0155,-0.0495,-18.5,-31.94,31.63,336.27,-83.07,-171.79
29810,52.433353,-1.570884,163.8,11.86,3.0,178.55,23 / 24,2985227,2019-09-07 10:03:10:506,-0.2411,-0.2525,9.9812,0.03,-0.0103,9.8065,-0.0456,0.0287,-0.0451,-19.0,-31.69,32.94,332.44,-82.86,-174.67
29811,52.433353,-1.570884,163.8,11.86,3.0,178.55,23 / 24,2985327,2019-09-07 10:03:10:606,-0.1094,-0.271,9.5053,0.0171,0.017,9.8066,-0.119,-0.017,-0.0601,-19.06,-31.69,32.56,329.62,-83.08,-177.32
29812,52.433353,-1.570884,163.8,11.86,3.0,178.55,23 / 24,2985427,2019-09-07 10:03:10:706,0.1242,-0.4839,9.4805,0.0034,0.0207,9.8066,0.0121,0.0187,-0.0857,-18.37,-31.87,32.5,329.56,-83.31,-178.78
29813,52.433353,-1.570884,163.8,11.86,3.0,178.55,23 / 24,2985527,2019-09-07 10:03:10:806,-0.2788,-0.0647,9.7933,0.012,0.0131,9.8066,-0.0578,0.0219,-0.0383,-18.81,-31.25,32.38,325.66,-83.35,179.66
29814,52.433353,-1.570884,163.8,11.86,3.0,178.55,23 / 24,2985627,2019-09-07 10:03:10:906,-1.3527,-0.5124,10.2215,-0.0051,-0.0069,9.8066,-0.0058,0.0019,-0.0229,-18.87,-31.69,32.25,324.32,-83.36,178.54
29815,52.433353,-1.570884,163.8,11.86,3.0,178.55,23 / 24,2985727,2019-09-07 10:03:11:006,0.9476,-0.7563,10.0567,0.0185,-0.0095,9.8065,0.1037,-0.009,0.0763,-18.69,-31.75,32.19,323.69,-83.32,177.97
29816,52.433353,-1.570884,163.8,11.86,3.0,178.55,23 / 24,2985827,2019-09-07 10:03:11:106,-0.0312,-1.0326,10.0708,0.0145,-0.0268,9.8065,0.0505,-0.0095,0.0411,-18.25,-31.69,32.44,325.4,-83.11,178.36
29817,52.433353,-1.570884,163.8,11.86,3.0,178.55,23 / 24,2985928,2019-09-07 10:03:11:207,-1.1353,-0.4258,9.7691,-0.0171,0.0152,9.8065,-0.0414,-0.0496,0.0145,-18.69,-31.62,31.75,325.41,-83.28,179.58
29818,52.433353,-1.570884,163.8,11.86,3.0,178.55,23 / 24,2986028,2019-09-07 10:03:11:307,-0.4967,-0.2847,10.2064,-0.022,0.0277,9.8065,-0.0208,-0.0104,0.0295,-18.37,-31.31,32.31,327.58,-83.42,-179.91
29819,52.433353,-1.570884,163.8,11.86,3.0,178.55,24 / 25,2986128,2019-09-07 10:03:11:407,-1.7245,-0.9373,9.7398,-0.0041,-0.0004,9.8066,0.0615,0.0159,0.0263,-18.19,-31.44,32.19,328.32,-83.41,-179.23
29820,52.433353,-1.570884,163.8,11.86,3.0,178.55,24 / 25,2986227,2019-09-07 10:03:11:506,-0.8067,-0.8281,10.331,-0.0021,-0.0064,9.8066,0.0446,0.0013,0.0132,-18.87,-31.81,32.38,326.82,-83.37,-179.19
29821,52.433353,-1.570884,163.8,11.86,3.0,178.55,24 / 25,2986327,2019-09-07 10:03:11:606,-0.0367,0.3691,10.3329,0.0002,-0.0142,9.8066,-0.027,0.0472,-0.1099,-18.37,-32.0,32.19,327.16,-83.34,179.84
29822,52.433353,-1.570884,163.8,11.86,3.0,178.55,24 / 25,2986428,2019-09-07 10:03:11:707,-1.4228,0.3583,10.1584,0.0191,0.0137,9.8066,-0.0265,-0.0486,-0.0794,-18.0,-31.44,31.81,325.26,-83.37,177.99
29823,52.433353,-1.570884,163.8,11.86,3.0,178.55,24 / 25,2986527,2019-09-07 10:03:11:806,0.1372,-0.1496,9.4821,0.0157,0.0083,9.8066,-0.0942,-0.0205,0.0417,-17.69,-32.31,32.38,323.01,-83.41,176.0
29824,52.433353,-1.570884,163.8,11.86,3.0,178.55,24 / 25,2986628,2019-09-07 10:03:11:907,-0.5898,0.3673,9.2119,0.0196,-0.0271,9.8065,-0.21,0.1058,-0.0737,-18.25,-31.56,31.5,321.59,-83.24,174.81
29825,52.433353,-1.570884,163.8,11.86,3.0,178.55,24 / 25,2986727,2019-09-07 10:03:12:006,0.7346,0.1192,9.546,-0.069,0.056,9.8062,0.1996,0.1147,-0.0554,-17.87,-31.94,32.5,321.85,-83.19,174.24
29826,52.433353,-1.570884,163.8,11.86,3.0,178.55,24 / 25,2986827,2019-09-07 10:03:12:106,-2.0237,1.0443,8.34,-0.0276,0.0401,9.8065,-0.0808,0.0013,0.0251,-18.37,-31.56,31.69,322.72,-83.49,175.69
29827,52.433353,-1.570884,163.8,11.86,3.0,178.55,24 / 25,2986927,2019-09-07 10:03:12:206,-0.522,0.0957,9.0312,-0.0416,0.0399,9.8065,0.1017,0.0281,0.0685,-18.25,-31.94,31.94,324.26,-83.8,176.94
29828,52.433353,-1.570884,163.8,11.86,3.0,178.55,24 / 25,2987027,2019-09-07 10:03:12:306,-0.7629,-0.8123,10.074,-0.0375,0.0485,9.8064,0.0818,-0.0154,0.0354,-17.94,-31.94,32.06,325.43,-83.99,177.91
29829,52.433353,-1.570884,163.8,11.86,3.0,178.55,24 / 25,2987128,2019-09-07 10:03:12:407,-0.1208,-0.2669,10.4455,0.0147,-0.0276,9.8066,0.0007,0.0023,-0.0337,-17.94,-32.06,32.31,326.02,-83.99,178.45
29830,52.433353,-1.570884,163.8,11.86,3.0,178.55,24 / 25,2987229,2019-09-07 10:03:12:508,-0.2899,-0.0402,10.0017,0.006,-0.0182,9.8066,0.0388,0.0184,-0.0489,-18.44,-31.87,31.69,326.64,-83.74,179.15
29831,52.433353,-1.570884,163.8,11.86,3.0,178.55,24 / 25,2987327,2019-09-07 10:03:12:606,-0.8672,-0.6073,9.998,-0.002,-0.012,9.8065,0.0005,0.0029,0.0093,-18.44,-31.81,31.94,326.49,-83.68,179.05
29832,52.433353,-1.570884,163.8,11.86,3.0,178.55,24 / 25,2987427,2019-09-07 10:03:12:706,0.0396,-0.1585,9.5813,-0.0068,-0.0085,9.8066,-0.0409,0.0496,-0.0092,-18.5,-31.0,31.56,327.61,-83.66,-180.0
29833,52.433353,-1.570884,163.8,11.86,3.0,178.55,24 / 25,2987527,2019-09-07 10:03:12:806,-0.8124,-0.3257,9.3083,-0.014,0.0265,9.8066,0.1002,0.0257,-0.0026,-18.5,-31.81,31.81,328.26,-83.88,-179.42
29834,52.433353,-1.570884,163.8,11.86,3.0,178.55,24 / 25,2987629,2019-09-07 10:03:12:908,-0.8455,-0.6417,10.3404,-0.0165,0.0286,9.8065,0.1142,-0.0354,0.014,-18.87,-31.62,32.0,326.68,-83.93,-179.6
29835,52.433353,-1.570884,163.8,11.86,3.0,178.55,24 / 25,2987727,2019-09-07 10:03:13:006,-0.7758,-0.3551,9.9548,0.0264,-0.0201,9.8065,-0.048,0.0389,-0.0353,-18.31,-31.56,31.94,327.75,-83.92,-179.92
29836,52.433353,-1.570884,163.8,11.86,3.0,178.55,24 / 25,2987827,2019-09-07 10:03:13:106,-0.7432,0.5235,9.5961,0.0198,-0.0116,9.8066,-0.0949,-0.0312,0.036,-17.94,-31.44,31.69,325.7,-83.68,178.23
29837,52.433353,-1.570884,163.8,11.86,3.0,178.55,24 / 25,2987927,2019-09-07 10:03:13:206,-0.3752,0.4094,9.9441,-0.0049,0.0293,9.8065,0.048,0.0161,-0.0643,-17.81,-32.06,32.06,325.75,-83.61,178.41
29838,52.433353,-1.570884,163.8,11.86,3.0,178.55,24 / 25,2988027,2019-09-07 10:03:13:306,-0.9087,0.908,10.2589,-0.0049,0.0264,9.8066,0.0987,-0.0141,-0.0102,-18.06,-31.44,32.44,323.96,-83.77,176.57
29839,52.433353,-1.570884,163.8,11.86,3.0,178.55,24 / 25,2988127,2019-09-07 10:03:13:406,-0.7357,0.4081,9.7037,0.0003,0.0101,9.8066,0.012,-0.0306,-0.0297,-17.87,-31.62,31.88,323.38,-83.7,176.18
29840,52.433353,-1.570884,163.8,11.86,3.0,178.55,24 / 25,2988227,2019-09-07 10:03:13:506,-0.1599,-0.5387,9.9274,0.0059,0.0107,9.8066,-0.0136,-0.0268,-0.0471,-17.62,-32.0,32.0,321.49,-83.6,174.5
29841,52.433353,-1.570884,163.8,11.86,3.0,178.55,24 / 25,2988327,2019-09-07 10:03:13:606,-0.6622,-0.3275,10.094,-0.005,0.004,9.8065,0.0762,-0.0212,-0.0206,-18.12,-31.81,32.63,322.39,-83.56,174.53
29842,52.433353,-1.570884,163.8,11.86,3.0,178.55,24 / 25,2988427,2019-09-07 10:03:13:706,-0.0255,1.4767,9.8305,-0.0054,0.0187,9.8066,-0.0466,0.037,-0.0087,-17.56,-31.75,32.13,321.3,-83.42,174.43
29843,52.433353,-1.570884,163.8,11.86,3.0,178.55,24 / 25,2988528,2019-09-07 10:03:13:807,-1.1529,2.2743,9.2127,-0.0127,0.0194,9.8065,-0.1153,-0.0828,0.0179,-18.31,-31.75,32.31,321.28,-83.47,174.39
29844,52.433353,-1.570884,163.8,11.86,3.0,178.55,24 / 25,2988627,2019-09-07 10:03:13:906,-0.5609,-0.2316,9.9861,-0.0064,0.008,9.8066,0.0424,0.0022,-0.0285,-18.31,-32.06,32.0,323.02,-83.43,176.0
29845,52.433353,-1.570884,163.8,11.86,3.0,178.55,24 / 25,2988727,2019-09-07 10:03:14:006,-0.9994,-0.1887,9.9049,-0.0215,0.0354,9.8065,0.0097,-0.0382,0.0906,-17.87,-31.62,31.88,323.2,-83.59,176.08
29846,52.433353,-1.570884,163.8,11.86,3.0,178.55,24 / 25,2988827,2019-09-07 10:03:14:106,-0.6602,-1.5507,9.1976,-0.0019,-0.0458,9.8064,-0.0434,0.0426,0.0166,-18.12,-31.31,31.88,325.58,-83.31,178.32
29847,52.433353,-1.570884,163.8,11.86,3.0,178.55,24 / 25,2988927,2019-09-07 10:03:14:206,-1.3643,-0.9649,9.95,-0.0051,-0.014,9.8066,-0.0164,-0.0638,0.038,-18.5,-31.19,32.56,328.16,-83.41,179.81
29848,52.433353,-1.570884,163.8,11.86,3.0,178.55,24 / 25,2989027,2019-09-07 10:03:14:306,-0.4962,-0.9192,9.8595,0.0109,-0.0115,9.8066,0.0171,-0.0458,-0.0097,-18.5,-31.37,32.69,329.47,-83.48,-179.02
29849,52.433353,-1.570884,163.8,11.86,3.0,178.55,24 / 25,2989127,2019-09-07 10:03:14:406,-0.5209,-0.5833,9.8304,0.0119,-0.0213,9.8065,0.0752,-0.0343,-0.0181,-18.06,-31.5,32.13,328.45,-83.56,-179.18
29850,52.433353,-1.570884,163.8,11.86,3.0,178.55,24 / 25,2989227,2019-09-07 10:03:14:506,-1.0403,-0.4049,9.8281,0.0127,0.0179,9.8066,-0.0704,0.0003,-0.0337,-17.56,-31.81,31.94,326.3,-83.5,178.97
29851,52.433353,-1.570884,163.8,11.86,3.0,178.55,24 / 25,2989327,2019-09-07 10:03:14:606,-0.9207,-0.7748,9.5578,0.0109,0.0126,9.8066,0.0006,-0.0053,-0.0579,-17.69,-31.44,32.19,324.1,-83.44,176.88
29852,52.433353,-1.570884,163.8,11.86,3.0,178.55,24 / 25,2989427,2019-09-07 10:03:14:706,-0.5581,-0.7357,9.8822,0.0165,-0.0036,9.8066,-0.0401,-0.0023,-0.0573,-17.5,-31.75,32.0,323.92,-83.37,175.53
29853,52.433353,-1.570884,163.8,11.86,3.0,178.55,24 / 25,2989527,2019-09-07 10:03:14:806,-0.5328,0.1566,9.4346,0.013,0.003,9.8066,-0.0301,-0.0444,-0.0269,-16.94,-31.5,32.0,321.97,-83.3,173.67
29854,52.433353,-1.570884,163.8,11.86,3.0,178.55,24 / 25,2989627,2019-09-07 10:03:14:906,0.1696,1.1634,9.8699,0.0012,0.0258,9.8065,0.017,0.0631,-0.1209,-17.0,-32.31,32.0,320.33,-83.25,172.31
29855,52.433353,-1.570884,163.8,11.86,3.0,178.55,24 / 25,2989727,2019-09-07 10:03:15:006,-1.6532,0.6704,10.1566,0.0041,0.0109,9.8066,-0.0946,-0.0458,0.0186,-17.5,-31.87,32.56,319.12,-83.3,170.36
29856,52.433353,-1.570884,163.8,11.86,3.0,178.55,24 / 25,2989827,2019-09-07 10:03:15:106,-1.4868,0.4802,10.4103,0.0021,-0.0175,9.8066,0.1459,-0.0087,0.0183,-16.62,-31.19,32.0,318.64,-83.17,170.69
29857,52.433353,-1.570884,163.8,11.86,3.0,178.55,24 / 25,2989927,2019-09-07 10:03:15:206,0.3731,0.8271,9.3193,0.01,-0.048,9.8065,-0.0258,0.1021,-0.0859,-16.75,-31.56,32.44,319.52,-83.08,171.68
29858,52.433353,-1.570884,163.8,11.86,3.0,178.55,24 / 25,2990027,2019-09-07 10:03:15:306,-1.4811,1.3252,9.9458,-0.0263,0.025,9.8066,0.104,0.0691,0.0549,-17.5,-31.44,32.44,319.52,-83.07,171.56
29859,52.4324,-1.570431,163.33,12.78,3.0,162.05,24 / 25,2990127,2019-09-07 10:03:15:406,-0.568,-0.5598,9.3598,-0.0046,-0.0074,9.8065,0.0304,0.026,0.0912,-17.5,-31.12,32.06,319.72,-83.2,171.66
29860,52.4324,-1.570431,163.33,12.78,3.0,162.05,24 / 25,2990227,2019-09-07 10:03:15:506,-0.3398,-0.0789,9.2748,-0.0249,0.0418,9.8065,0.1202,-0.0143,-0.008,-17.19,-31.12,32.88,322.21,-83.42,173.02
29861,52.4324,-1.570431,163.33,12.78,3.0,162.05,24 / 25,2990328,2019-09-07 10:03:15:607,-1.028,-1.7146,9.7987,-0.0176,0.0213,9.8066,0.0766,-0.0444,0.0804,-17.62,-31.87,32.69,321.15,-83.44,173.45
29862,52.4324,-1.570431,163.33,12.78,3.0,162.05,24 / 25,2990427,2019-09-07 10:03:15:706,0.0244,-0.8291,9.8015,0.0124,-0.0271,9.8066,-0.1105,0.0858,-0.0132,-17.69,-32.06,32.31,320.57,-83.51,173.71
29863,52.4324,-1.570431,163.33,12.78,3.0,162.05,24 / 25,2990527,2019-09-07 10:03:15:806,-2.5613,2.5152,10.9897,0.0102,-0.0192,9.8066,-0.1364,0.0215,0.0452,-17.19,-31.75,32.56,323.49,-83.46,174.28
29864,52.4324,-1.570431,163.33,12.78,3.0,162.05,24 / 25,2990627,2019-09-07 10:03:15:906,1.3814,-1.0526,8.2944,-0.0201,0.0033,9.8066,0.0964,0.0817,-0.085,-17.19,-31.44,32.5,322.78,-83.47,173.52
29865,52.4324,-1.570431,163.33,12.78,3.0,162.05,24 / 25,2990727,2019-09-07 10:03:16:006,-0.5832,-0.8899,9.9607,0.0005,0.0228,9.8065,0.0858,-0.1134,0.0581,-17.5,-32.12,32.0,322.17,-83.75,173.7
29866,52.4324,-1.570431,163.33,12.78,3.0,162.05,24 / 25,2990827,2019-09-07 10:03:16:106,-0.4662,1.3163,10.6246,0.0274,0.0008,9.8065,0.0441,0.0029,-0.0375,-17.0,-31.87,31.88,320.87,-83.94,172.39
29867,52.4324,-1.570431,163.33,12.78,3.0,162.05,24 / 25,2990927,2019-09-07 10:03:16:206,-0.4856,0.6192,11.3252,0.0247,-0.0327,9.8065,0.1551,-0.0157,0.0007,-16.87,-31.69,31.88,320.4,-83.63,172.14
29868,52.4324,-1.570431,163.33,12.78,3.0,162.05,24 / 25,2991027,2019-09-07 10:03:16:306,-0.0024,-0.3025,11.1056,0.0306,-0.0308,9.8065,0.0212,0.0241,-0.0231,-17.31,-31.25,32.44,321.68,-83.13,173.51
29869,52.4324,-1.570431,163.33,12.78,3.0,162.05,23 / 24,2991127,2019-09-07 10:03:16:406,0.1878,0.0713,10.1692,0.0271,-0.0355,9.8065,-0.0454,0.066,-0.0215,-17.31,-31.06,32.38,320.89,-82.69,173.05
29870,52.4324,-1.570431,163.33,12.78,3.0,162.05,23 / 24,2991227,2019-09-07 10:03:16:506,0.0923,1.04,9.333,-0.0257,0.0364,9.8065,0.0442,0.0213,0.0158,-17.75,-31.06,33.13,320.83,-82.6,173.53
29871,52.4324,-1.570431,163.33,12.78,3.0,162.05,23 / 24,2991327,2019-09-07 10:03:16:606,-0.4773,1.3532,9.4877,-0.0229,0.053,9.8064,-0.0513,0.1053,-0.0374,-17.37,-31.5,32.44,321.34,-82.81,173.39
29872,52.4324,-1.570431,163.33,12.78,3.0,162.05,23 / 24,2991427,2019-09-07 10:03:16:706,1.5577,-0.0251,9.9005,-0.0007,-0.0131,9.8066,0.154,0.0876,-0.0688,-18.19,-30.87,32.38,318.85,-83.0,172.32
29873,52.4324,-1.570431,163.33,12.78,3.0,162.05,23 / 24,2991527,2019-09-07 10:03:16:806,-0.5061,-0.7892,9.7536,0.0233,-0.0064,9.8066,0.1494,-0.049,0.0602,-18.0,-31.0,32.19,318.74,-82.85,172.3
29874,52.4324,-1.570431,163.33,12.78,3.0,162.05,23 / 24,2991628,2019-09-07 10:03:16:907,0.0745,2.4858,10.4491,-0.0172,0.0164,9.8065,0.2008,-0.05,0.017,-18.19,-31.37,32.69,321.35,-82.63,173.99
29875,52.4324,-1.570431,163.33,12.78,3.0,162.05,23 / 24,2991727,2019-09-07 10:03:17:006,-0.0545,-0.4519,9.1651,0.0066,0.0168,9.8066,-0.0425,-0.1278,0.0445,-18.44,-31.25,32.38,321.32,-82.74,174.73
29876,52.4324,-1.570431,163.33,12.78,3.0,162.05,23 / 24,2991827,2019-09-07 10:03:17:106,-0.294,-0.1826,8.4663,-0.0383,0.0513,9.8063,0.0492,0.029,-0.0551,-18.37,-31.69,31.88,321.92,-83.32,175.06
29877,52.4324,-1.570431,163.33,12.78,3.0,162.05,23 / 24,2991927,2019-09-07 10:03:17:206,-0.2819,0.424,10.1498,-0.0248,0.0495,9.8064,-0.0373,-0.0243,-0.0522,-18.94,-32.0,31.56,318.75,-83.77,173.16
29878,52.4324,-1.570431,163.33,12.78,3.0,162.05,23 / 24,2992028,2019-09-07 10:03:17:307,-1.0098,0.6821,10.4867,0.03,-0.0153,9.8065,0.1285,-0.0277,0.0489,-18.94,-31.87,31.94,318.99,-84.03,173.22
29879,52.4324,-1.570431,163.33,12.78,3.0,162.05,24 / 25,2992127,2019-09-07 10:03:17:406,0.1098,-1.4229,10.1754,-0.0002,-0.0504,9.8065,0.2028,0.1315,-0.229,-18.37,-31.56,31.88,319.37,-83.73,172.47
29880,52.4324,-1.570431,163.33,12.78,3.0,162.05,24 / 25,2992227,2019-09-07 10:03:17:506,0.8266,0.8872,10.99,0.0635,-0.0747,9.8061,-0.2135,0.1623,-0.1518,-18.56,-31.62,32.06,316.93,-83.49,171.65
29881,52.4324,-1.570431,163.33,12.78,3.0,162.05,24 / 25,2992328,2019-09-07 10:03:17:607,0.5342,0.3607,10.614,0.0707,-0.0622,9.8061,-0.161,0.0069,0.0428,-18.81,-31.56,32.13,314.55,-82.71,169.96
29882,52.4324,-1.570431,163.33,12.78,3.0,162.05,24 / 25,2992427,2019-09-07 10:03:17:706,1.1989,1.7509,9.1649,-0.0076,0.0162,9.8065,-0.1334,0.0855,-0.0974,-18.81,-32.0,32.06,314.41,-82.9,169.7
