,GPS LATITUDE (degrees), GPS LONGITUDE (degrees), GPS ALTITUDE (m), GPS SPEED (Kmh), GPS ACCURACY (m), GPS ORIENTATION (Â°),GPS SATELLITES IN RANGE, TIME SINCE START (ms), DATE (YYYY-MO-DD HH-MI-SS_SSS), ACCELEROMETER X (m/s²) , ACCELEROMETER Y (m/s²), ACCELEROMETER Z (m/s²), GRAVITY X (m/s²), GRAVITY Y (m/s²), GRAVITY Z (m/s²), GYROSCOPE Yaw (rad/s), GYROSCOPE Pitch (rad/s), GYROSCOPE Roll (rad/s), MAGNETIC FIELD X (Î¼T), MAGNETIC FIELD Y (Î¼T), MAGNETIC FIELD Z (Î¼T), ORIENTATION (Yaw) (Â°), ORIENTATION (Pitch) (Â°), ORIENTATION (Roll ) (Â°)
32148,52.40808,-1.603373,189.85,2.97,3,345.84,28 / 28,3217721,2019-09-08 11:01:24:345,-0.5289,-1.1447,9.5685,-0.0043,0.0057,9.8066,-0.0358,-0.436,0.0599,-20.56,-30.0,4.19,276.05,-80.34,-170.9
32149,52.40808,-1.603373,189.85,2.97,3,345.84,28 / 28,3217821,2019-09-08 11:01:24:445,-0.4147,-1.7975,9.9621,-0.0089,-0.0024,9.8066,-0.0195,-0.461,0.0873,-21.81,-29.31,3.88,277.29,-80.47,-170.45
32150,52.40808,-1.603373,189.85,2.97,3,345.84,29 / 29,3217921,2019-09-08 11:01:24:545,-0.4927,-1.6229,10.1324,-0.0034,-0.0041,9.8066,-0.0285,-0.4533,0.0921,-22.06,-29.62,3.13,274.64,-80.56,-170.13
32151,52.40808,-1.603373,189.85,2.97,3,345.84,29 / 29,3218022,2019-09-08 11:01:24:646,-0.5805,-1.4385,10.1451,-0.0079,0.0001,9.8066,-0.0311,-0.462,0.0718,-23.0,-29.37,2.94,275.66,-80.64,-169.86
32152,52.40808,-1.603373,189.85,2.97,3,345.84,29 / 29,3218122,2019-09-08 11:01:24:746,0.1282,-1.3493,9.6928,-0.0093,0.0008,9.8066,-0.012,-0.4723,0.0587,-23.69,-29.62,2.69,275.46,-80.76,-170.01
32153,52.40808,-1.603373,189.85,2.97,3,345.84,29 / 29,3218222,2019-09-08 11:01:24:846,-0.5134,-1.4214,9.6664,-0.0076,0.0017,9.8066,-0.0189,-0.5041,0.089,-24.69,-29.25,3.69,278.17,-80.8,-170.24
32154,52.40808,-1.603373,189.85,2.97,3,345.84,29 / 29,3218321,2019-09-08 11:01:24:945,-0.4943,-1.656,9.6063,-0.0156,0.0065,9.8066,-0.0119,-0.493,0.0454,-25.25,-28.94,3.5,278.06,-80.95,-170.52
32155,52.40808,-1.603373,189.85,2.97,3,345.84,29 / 29,3218421,2019-09-08 11:01:25:045,-0.4648,-1.9347,9.9593,-0.0037,0.0098,9.8066,-0.0543,-0.5209,0.0468,-26.0,-28.87,3.69,277.28,-81.1,-171.52
32156,52.40808,-1.603373,189.85,2.97,3,345.84,29 / 29,3218521,2019-09-08 11:01:25:145,-0.4902,-1.5286,9.7529,-0.0008,0.0134,9.8066,-0.0421,-0.5427,0.0664,-26.69,-29.06,4.31,276.5,-81.21,-172.46
32157,52.40808,-1.603373,189.85,2.97,3,345.84,29 / 29,3218621,2019-09-08 11:01:25:245,-0.433,-1.3721,9.4809,-0.0104,0.0022,9.8066,-0.0095,-0.5443,0.0591,-27.5,-29.0,4.13,276.07,-81.26,-172.94
32158,52.40808,-1.603373,189.85,2.97,3,345.84,29 / 29,3218721,2019-09-08 11:01:25:345,-0.2354,-1.202,9.7017,-0.0094,-0.0035,9.8065,-0.0172,-0.5587,0.0917,-27.75,-28.56,4.13,276.12,-81.36,-173.02
32159,52.40808,-1.603373,189.85,2.97,3,345.84,29 / 29,3218822,2019-09-08 11:01:25:446,-0.1282,-1.57,9.7592,-0.0079,-0.0183,9.8065,-0.084,-0.5535,0.0849,-28.06,-28.75,4.69,279.46,-81.52,-171.94
32160,52.40808,-1.603373,189.85,2.97,3,345.84,27 / 28,3218922,2019-09-08 11:01:25:546,-1.1492,-1.2193,9.794,-0.0198,-0.0109,9.8065,-0.0962,-0.5709,0.1046,-29.19,-28.62,5.0,281.73,-81.72,-169.87
32161,52.40808,-1.603373,189.85,2.97,3,345.84,27 / 28,3219021,2019-09-08 11:01:25:645,-0.7802,-1.6984,10.3677,-0.0158,-0.003,9.8066,-0.0554,-0.5414,0.0596,-31.06,-28.31,5.63,285.86,-81.93,-168.0
32162,52.40808,-1.603373,189.85,2.97,3,345.84,27 / 28,3219122,2019-09-08 11:01:25:746,-0.6415,-1.9662,10.9304,-0.0117,0.0033,9.8066,0.062,-0.5417,0.0489,-31.37,-28.06,6.38,286.03,-82.07,-167.96
32163,52.40808,-1.603373,189.85,2.97,3,345.84,27 / 28,3219222,2019-09-08 11:01:25:846,-0.8295,-1.2655,10.3475,0.0088,0.0273,9.8065,0.0316,-0.5245,-0.0026,-31.94,-27.94,7.31,286.02,-82.08,-169.62
32164,52.40808,-1.603373,189.85,2.97,3,345.84,27 / 28,3219322,2019-09-08 11:01:25:946,0.6063,-0.8921,9.5096,0.0204,0.0337,9.8065,0.0165,-0.4633,-0.036,-31.37,-27.94,8.25,283.59,-81.98,-173.88
32165,52.40808,-1.603373,189.85,2.97,3,345.84,27 / 28,3219422,2019-09-08 11:01:26:046,0.3723,0.6015,8.9783,0.0171,0.0199,9.8065,-0.013,-0.4028,0.0042,-31.62,-28.44,8.75,282.05,-81.88,-176.79
32166,52.40808,-1.603373,189.85,2.97,3,345.84,27 / 28,3219521,2019-09-08 11:01:26:145,1.6504,-0.237,9.135,0.0116,0.0015,9.8066,-0.0301,-0.3897,0.0732,-31.37,-27.69,9.63,282.3,-81.73,-178.44
32167,52.40808,-1.603373,189.85,2.97,3,345.84,27 / 28,3219621,2019-09-08 11:01:26:245,0.4829,0.1811,9.4715,-0.0023,-0.0228,9.8066,0.0224,-0.329,0.1152,-33.37,-27.56,10.19,283.5,-81.7,-176.61
32168,52.40808,-1.603373,189.85,2.97,3,345.84,27 / 28,3219721,2019-09-08 11:01:26:345,0.5162,-0.7719,10.2852,-0.0117,-0.0247,9.8065,0.0135,-0.291,0.1263,-32.94,-27.25,10.31,286.0,-81.71,-174.41
32169,52.40808,-1.603373,189.85,2.97,3,345.84,27 / 28,3219822,2019-09-08 11:01:26:446,0.3355,-1.4415,10.3894,-0.0064,-0.0118,9.8066,-0.0449,-0.2496,0.04,-33.44,-26.69,11.13,289.36,-81.68,-172.74
32170,52.40808,-1.603373,189.85,2.97,3,345.84,27 / 27,3219921,2019-09-08 11:01:26:545,0.4286,-1.2071,10.1047,-0.0036,0.0041,9.8066,-0.0528,-0.2453,0.0047,-33.62,-27.12,11.19,289.84,-81.74,-171.98
32171,52.40808,-1.603373,189.85,2.97,3,345.84,27 / 27,3220022,2019-09-08 11:01:26:646,-0.0291,-0.01,9.8302,-0.0095,0.0138,9.8066,0.0238,-0.2023,-0.0068,-33.12,-27.0,11.06,289.03,-82.0,-173.32
32172,52.40808,-1.603373,189.85,2.97,3,345.84,27 / 27,3220122,2019-09-08 11:01:26:746,0.3772,-0.1108,9.6764,-0.0049,0.0147,9.8065,0.0031,-0.202,0.0021,-33.69,-26.87,11.06,287.6,-82.05,-174.4
32173,52.40808,-1.603373,189.85,2.97,3,345.84,27 / 27,3220222,2019-09-08 11:01:26:846,0.8209,0.0263,9.535,0.0066,-0.0027,9.8066,0.0294,-0.1205,0.0155,-33.94,-26.69,10.88,286.97,-82.02,-175.0
32174,52.40808,-1.603373,189.85,2.97,3,345.84,27 / 27,3220321,2019-09-08 11:01:26:945,1.4271,-0.302,10.0947,-0.0082,-0.0091,9.8066,0.0472,-0.1375,0.0596,-33.25,-27.19,11.69,289.19,-81.89,-174.68
32175,52.40808,-1.603373,189.85,2.97,3,345.84,27 / 27,3220422,2019-09-08 11:01:27:046,0.8665,-0.9683,10.3761,0.0206,-0.0133,9.8066,-0.0766,-0.0949,0.0171,-33.06,-26.87,12.25,290.97,-81.9,-172.96
32176,52.40808,-1.603373,189.85,2.97,3,345.84,27 / 27,3220522,2019-09-08 11:01:27:146,1.2883,-0.7811,10.5072,0.0283,-0.007,9.8066,-0.0837,-0.0941,0.0338,-33.56,-27.12,11.38,289.08,-81.74,-172.72
32177,52.40808,-1.603373,189.85,2.97,3,345.84,27 / 27,3220621,2019-09-08 11:01:27:245,0.5524,-0.1087,9.7781,-0.0277,0.0085,9.8066,0.0583,-0.0932,0.0163,-34.44,-26.44,11.81,291.21,-81.92,-172.57
32178,52.40808,-1.603373,189.85,2.97,3,345.84,27 / 27,3220721,2019-09-08 11:01:27:345,-0.2404,0.0048,9.541,-0.0262,0.0125,9.8065,0.0497,-0.0818,0.0184,-34.69,-26.44,11.06,288.87,-81.91,-172.93
32179,52.40808,-1.603373,189.85,2.97,3,345.84,27 / 27,3220822,2019-09-08 11:01:27:446,1.299,-0.7227,9.9144,0.009,-0.0089,9.8066,0.1078,-0.0703,0.0214,-34.44,-26.12,11.5,290.9,-81.83,-172.8
32180,52.408344,-1.603358,190.21,4.26,3,68.2,27 / 27,3220922,2019-09-08 11:01:27:546,0.6215,-0.3274,9.4941,0.0106,-0.0197,9.8066,-0.0156,-0.0468,0.017,-35.25,-26.44,10.88,289.76,-81.57,-171.82
32181,52.408344,-1.603358,190.21,4.26,3,68.2,27 / 27,3221021,2019-09-08 11:01:27:645,0.4417,-0.7837,9.4516,-0.0293,0.0038,9.8065,0.0374,-0.0605,0.0229,-36.0,-25.56,10.75,289.6,-81.52,-171.63
32182,52.408344,-1.603358,190.21,4.26,3,68.2,27 / 27,3221122,2019-09-08 11:01:27:746,0.3828,-0.4189,9.941,-0.0306,-0.0002,9.8065,0.0583,-0.0348,-0.0118,-36.69,-25.37,10.75,290.18,-81.7,-171.1
32183,52.408344,-1.603358,190.21,4.26,3,68.2,27 / 27,3221221,2019-09-08 11:01:27:845,0.3859,0.1246,9.6601,0.001,0.004,9.8066,-0.0586,-0.0736,0.0,-37.12,-24.87,11.44,289.96,-81.71,-171.33
32184,52.408344,-1.603358,190.21,4.26,3,68.2,27 / 27,3221321,2019-09-08 11:01:27:945,-0.2427,-0.7115,9.6515,-0.009,-0.0027,9.8066,-0.0474,-0.0682,0.0175,-38.37,-24.94,11.44,289.94,-81.78,-171.1
32185,52.408344,-1.603358,190.21,4.26,3,68.2,27 / 27,3221421,2019-09-08 11:01:28:045,1.2804,0.0448,9.7643,0.0118,-0.0062,9.8066,-0.0302,-0.1083,0.0587,-38.25,-24.44,12.63,293.51,-81.77,-170.62
32186,52.408344,-1.603358,190.21,4.26,3,68.2,27 / 27,3221522,2019-09-08 11:01:28:146,0.7032,-0.5258,9.9369,0.0151,-0.0072,9.8066,-0.0096,-0.0797,0.0298,-37.81,-25.37,14.44,295.29,-81.76,-170.08
32187,52.408344,-1.603358,190.21,4.26,3,68.2,27 / 27,3221621,2019-09-08 11:01:28:245,0.1416,-0.5192,9.8507,-0.0111,0.0015,9.8065,0.0456,-0.0886,0.0071,-38.19,-24.94,14.81,296.63,-81.71,-170.1
32188,52.408344,-1.603358,190.21,4.26,3,68.2,27 / 27,3221721,2019-09-08 11:01:28:345,0.3249,-0.3682,9.595,-0.0197,0.015,9.8066,0.0692,-0.0716,0.003,-36.5,-25.37,15.19,297.33,-81.79,-170.34
32189,52.408344,-1.603358,190.21,4.26,3,68.2,27 / 27,3221821,2019-09-08 11:01:28:445,0.7503,-0.2507,9.7438,-0.0231,0.0019,9.8065,0.0416,-0.0637,0.0092,-36.5,-25.25,14.94,297.49,-81.76,-170.17
32190,52.408344,-1.603358,190.21,4.26,3,68.2,29 / 29,3221922,2019-09-08 11:01:28:546,1.0295,-0.221,9.8798,0.0054,-0.0014,9.8066,0.0087,-0.0604,-0.0247,-36.25,-26.06,14.81,297.38,-81.74,-170.08
32191,52.408344,-1.603358,190.21,4.26,3,68.2,29 / 29,3222021,2019-09-08 11:01:28:645,-0.3171,-0.9927,10.2787,-0.0079,-0.0066,9.8066,0.0092,0.0032,-0.0507,-36.25,-26.06,15.5,298.77,-81.76,-170.14
32192,52.408344,-1.603358,190.21,4.26,3,68.2,29 / 29,3222122,2019-09-08 11:01:28:746,0.4823,0.0477,9.879,-0.0031,-0.0002,9.8066,0.0097,-0.0526,0.0331,-35.81,-25.19,14.06,296.44,-81.77,-169.77
32193,52.408344,-1.603358,190.21,4.26,3,68.2,29 / 29,3222221,2019-09-08 11:01:28:845,-0.023,0.0415,9.3576,-0.0056,0.0108,9.8066,-0.0448,-0.0347,0.0162,-35.81,-26.06,14.44,296.21,-81.77,-169.8
32194,52.408344,-1.603358,190.21,4.26,3,68.2,29 / 29,3222322,2019-09-08 11:01:28:946,-0.1161,-0.3765,9.8186,0.0106,-0.0055,9.8066,-0.0911,-0.0448,0.0127,-35.87,-26.0,14.75,297.75,-81.76,-169.73
32195,52.408344,-1.603358,190.21,4.26,3,68.2,29 / 29,3222421,2019-09-08 11:01:29:045,-0.6877,-0.0105,10.0968,-0.0081,-0.0038,9.8066,0.0378,0.001,-0.0318,-35.31,-26.31,14.63,298.4,-81.84,-169.63
32196,52.408344,-1.603358,190.21,4.26,3,68.2,29 / 29,3222522,2019-09-08 11:01:29:146,-0.3567,-0.3311,10.2914,0.0012,-0.0015,9.8066,0.0421,-0.0647,0.0056,-35.5,-25.69,14.44,297.18,-81.84,-169.34
32197,52.408344,-1.603358,190.21,4.26,3,68.2,29 / 29,3222621,2019-09-08 11:01:29:245,0.0794,-0.0513,9.5912,0.0037,-0.0001,9.8066,-0.0032,-0.0344,-0.013,-35.37,-25.12,14.38,297.18,-81.72,-169.46
32198,52.408344,-1.603358,190.21,4.26,3,68.2,29 / 29,3222721,2019-09-08 11:01:29:345,0.0731,-0.4764,9.8344,0.0044,0.0019,9.8066,0.0109,-0.0335,-0.009,-34.81,-25.0,14.13,296.81,-81.56,-169.71
32199,52.408344,-1.603358,190.21,4.26,3,68.2,29 / 29,3222821,2019-09-08 11:01:29:445,-0.1161,0.0666,9.7284,0.0107,-0.0026,9.8065,-0.0168,0.0183,-0.0307,-35.25,-25.06,14.5,297.53,-81.38,-170.35
32200,52.408344,-1.603358,190.21,4.26,3,68.2,26 / 27,3222922,2019-09-08 11:01:29:546,0.3303,-0.2888,9.5579,0.0021,0.0027,9.8066,0.009,-0.0442,0.0288,-35.87,-25.25,14.63,296.6,-81.35,-170.76
32201,52.408344,-1.603358,190.21,4.26,3,68.2,26 / 27,3223021,2019-09-08 11:01:29:645,0.1568,-0.0344,9.9776,-0.0088,0.0082,9.8066,-0.0389,-0.0171,-0.0236,-35.44,-25.25,15.13,297.19,-81.33,-170.64
32202,52.408344,-1.603358,190.21,4.26,3,68.2,26 / 27,3223121,2019-09-08 11:01:29:745,0.0774,0.3243,9.9806,-0.0177,0.0144,9.8065,-0.02,-0.0002,-0.0236,-35.44,-25.81,14.44,295.15,-81.48,-171.05
32203,52.408344,-1.603358,190.21,4.26,3,68.2,26 / 27,3223221,2019-09-08 11:01:29:845,0.094,0.5514,10.2255,0.0123,-0.0046,9.8065,-0.0235,0.0042,0.0298,-34.69,-25.69,14.81,296.29,-81.58,-171.47
32204,52.408344,-1.603358,190.21,4.26,3,68.2,26 / 27,3223321,2019-09-08 11:01:29:945,0.8691,-0.2751,10.2801,0.021,-0.0139,9.8065,-0.0746,0.0445,-0.0324,-35.25,-26.62,14.5,296.51,-81.52,-171.03
32205,52.408344,-1.603358,190.21,4.26,3,68.2,26 / 27,3223421,2019-09-08 11:01:30:045,0.1259,0.3487,9.0906,-0.0225,0.0221,9.8066,0.0525,0.0047,0.0464,-35.0,-26.0,14.06,294.44,-81.7,-171.88
32206,52.408344,-1.603358,190.21,4.26,3,68.2,26 / 27,3223521,2019-09-08 11:01:30:145,-0.2196,0.1953,9.3317,-0.0292,0.0097,9.8065,0.0448,0.0289,0.0318,-35.06,-26.06,14.19,294.48,-81.67,-171.83
32207,52.408344,-1.603358,190.21,4.26,3,68.2,26 / 27,3223622,2019-09-08 11:01:30:246,0.1938,0.4787,9.8586,0.0339,-0.0156,9.8065,-0.0497,0.03,0.0073,-34.56,-26.87,14.5,295.97,-81.69,-171.66
32208,52.408344,-1.603358,190.21,4.26,3,68.2,26 / 27,3223721,2019-09-08 11:01:30:345,0.3677,0.166,9.7219,0.0323,-0.0074,9.8066,-0.0895,0.0388,-0.0004,-35.31,-26.37,14.25,294.44,-81.48,-171.73
32209,52.408344,-1.603358,190.21,4.26,3,68.2,26 / 27,3223822,2019-09-08 11:01:30:446,-0.0485,-0.4006,10.106,-0.0241,0.0007,9.8066,0.1262,0.0003,0.0693,-34.94,-26.69,14.06,294.22,-81.56,-171.79
32210,52.408344,-1.603358,190.21,4.26,3,68.2,26 / 28,3223921,2019-09-08 11:01:30:545,1.0982,-0.3653,10.3481,-0.0248,0.0074,9.8065,0.1655,0.0069,0.0453,-35.37,-26.44,14.0,295.01,-81.69,-171.32
32211,52.408344,-1.603358,190.21,4.26,3,68.2,26 / 28,3224021,2019-09-08 11:01:30:645,-0.4607,0.7561,10.4389,0.0299,-0.0085,9.8066,-0.0562,0.0156,0.0045,-35.25,-26.19,13.94,294.73,-81.41,-171.41
32212,52.408344,-1.603358,190.21,4.26,3,68.2,26 / 28,3224121,2019-09-08 11:01:30:745,0.1319,-0.039,10.1412,0.0205,-0.0056,9.8066,-0.0205,0.0235,0.0114,-35.31,-26.81,14.38,294.4,-81.36,-171.47
32213,52.408344,-1.603358,190.21,4.26,3,68.2,26 / 28,3224221,2019-09-08 11:01:30:845,0.0432,0.619,9.8139,-0.0012,0.0084,9.8066,0.0518,0.0398,-0.0441,-35.31,-26.81,14.06,294.19,-81.25,-171.6
32214,52.408344,-1.603358,190.21,4.26,3,68.2,26 / 28,3224321,2019-09-08 11:01:30:945,0.1005,0.5955,9.7765,0.0098,0.0038,9.8066,0.0556,-0.0027,-0.0289,-34.44,-26.75,14.06,293.69,-81.19,-172.47
32215,52.408344,-1.603358,190.21,4.26,3,68.2,26 / 28,3224421,2019-09-08 11:01:31:045,-0.1595,0.7863,9.5448,-0.0037,0.0054,9.8065,0.0558,0.0263,-0.0284,-34.5,-26.44,14.5,295.03,-81.15,-172.86
32216,52.408344,-1.603358,190.21,4.26,3,68.2,26 / 28,3224521,2019-09-08 11:01:31:145,0.2672,0.1786,10.0308,0.0136,-0.0136,9.8065,0.0384,0.0201,-0.018,-34.69,-26.69,14.06,292.87,-81.1,-172.76
32217,52.408344,-1.603358,190.21,4.26,3,68.2,26 / 28,3224621,2019-09-08 11:01:31:245,-1.1996,0.8693,9.5708,-0.0298,-0.0036,9.8065,0.0575,0.0284,0.0396,-34.87,-25.94,14.25,293.94,-81.34,-172.11
32218,52.408344,-1.603358,190.21,4.26,3,68.2,26 / 28,3224721,2019-09-08 11:01:31:345,-0.2051,0.2364,9.9514,-0.0238,-0.0021,9.8065,0.0194,0.0603,0.0077,-34.87,-27.19,14.0,294.45,-81.36,-171.43
32219,52.408344,-1.603358,190.21,4.26,3,68.2,26 / 28,3224821,2019-09-08 11:01:31:445,0.0724,-0.1159,9.3138,-0.0058,-0.0037,9.8066,-0.0353,0.0241,0.0579,-35.06,-26.75,13.56,294.78,-81.41,-171.15
32220,52.408344,-1.603358,190.21,4.26,3,68.2,27 / 28,3224922,2019-09-08 11:01:31:546,-1.4353,1.2919,9.5348,-0.0441,0.0053,9.8065,0.0489,0.0462,0.0219,-34.69,-27.12,13.63,296.49,-81.6,-169.65
32221,52.408344,-1.603358,190.21,4.26,3,68.2,27 / 28,3225021,2019-09-08 11:01:31:645,-0.1961,0.7708,10.0254,0.0172,-0.0113,9.8066,-0.1088,0.0424,0.0064,-35.25,-27.44,13.38,295.68,-81.63,-168.96
32222,52.408344,-1.603358,190.21,4.26,3,68.2,27 / 28,3225121,2019-09-08 11:01:31:745,-0.5591,0.8072,8.9895,0.0092,-0.0158,9.8065,-0.1211,0.0662,0.0022,-34.44,-26.69,12.81,297.17,-81.57,-167.9
32223,52.408344,-1.603358,190.21,4.26,3,68.2,27 / 28,3225221,2019-09-08 11:01:31:845,-0.9838,0.9626,9.7782,-0.0113,-0.0006,9.8066,0.0868,0.0343,0.013,-34.81,-27.44,13.19,298.17,-81.71,-166.64
32224,52.408344,-1.603358,190.21,4.26,3,68.2,27 / 28,3225321,2019-09-08 11:01:31:945,-0.8327,0.8864,10.4066,-0.009,0.0003,9.8066,0.0316,0.056,0.014,-35.25,-26.56,13.06,298.38,-81.75,-166.47
32225,52.408344,-1.603358,190.21,4.26,3,68.2,27 / 28,3225421,2019-09-08 11:01:32:045,-0.1422,0.7758,9.9723,-0.0035,-0.0088,9.8066,-0.0591,-0.0273,0.0476,-34.62,-26.94,12.81,299.0,-81.74,-165.87
32226,52.408344,-1.603358,190.21,4.26,3,68.2,27 / 28,3225521,2019-09-08 11:01:32:145,-0.9615,0.2088,9.8534,0.0012,-0.0058,9.8065,0.0002,0.0321,-0.0141,-35.0,-27.25,13.0,300.09,-81.7,-164.8
32227,52.408344,-1.603358,190.21,4.26,3,68.2,27 / 28,3225622,2019-09-08 11:01:32:246,-0.382,0.3396,9.7657,0.0141,-0.0092,9.8066,-0.0069,-0.0209,-0.0019,-35.81,-25.94,13.63,301.52,-81.6,-164.61
32228,52.408344,-1.603358,190.21,4.26,3,68.2,27 / 28,3225722,2019-09-08 11:01:32:346,-1.1629,0.2532,10.2938,-0.0015,0.0031,9.8066,0.0328,0.0452,-0.0137,-34.81,-26.94,13.56,301.81,-81.5,-164.51
32229,52.408344,-1.603358,190.21,4.26,3,68.2,27 / 28,3225821,2019-09-08 11:01:32:445,-1.0804,0.6084,10.1058,0.0192,-0.0004,9.8066,0.0215,0.0135,0.0002,-34.87,-26.87,12.5,299.91,-81.49,-164.83
32230,52.408344,-1.603358,190.21,4.26,3,68.2,27 / 28,3225921,2019-09-08 11:01:32:545,-1.8881,1.1807,9.9554,-0.0217,-0.0037,9.8066,0.1162,0.0139,0.0458,-34.94,-26.19,13.56,301.05,-81.28,-165.27
32231,52.408344,-1.603358,190.21,4.26,3,68.2,27 / 28,3226021,2019-09-08 11:01:32:645,-2.1057,0.7633,10.4412,-0.022,-0.016,9.8065,0.2287,0.0047,0.0456,-35.0,-27.06,13.31,300.82,-81.18,-163.75
32232,52.408344,-1.603358,190.21,4.26,3,68.2,27 / 28,3226122,2019-09-08 11:01:32:746,-0.7149,-0.0931,9.3501,0.0436,-0.0171,9.8065,-0.17,0.0458,-0.0329,-35.56,-26.94,13.06,299.92,-80.67,-163.86
32233,52.408344,-1.603358,190.21,4.26,3,68.2,27 / 28,3226222,2019-09-08 11:01:32:846,0.083,1.2388,7.4799,0.013,0.0078,9.8066,-0.2085,0.0343,-0.0705,-35.12,-26.62,13.94,301.46,-80.79,-164.34
32234,52.408344,-1.603358,190.21,4.26,3,68.2,27 / 28,3226322,2019-09-08 11:01:32:946,-1.468,1.2204,13.1991,-0.0107,0.005,9.8066,0.0672,-0.1005,-0.0027,-35.81,-26.94,13.31,299.46,-81.05,-164.56
32235,52.408344,-1.603358,190.21,4.26,3,68.2,27 / 28,3226421,2019-09-08 11:01:33:045,-3.013,1.3043,13.9203,0.0986,-0.0078,9.8061,-0.1004,-0.0216,-0.0072,-34.81,-26.5,13.25,298.11,-80.68,-166.18
32236,52.408344,-1.603358,190.21,4.26,3,68.2,27 / 28,3226521,2019-09-08 11:01:33:145,1.9961,0.8039,9.6343,0.1217,-0.0246,9.8058,0.0421,-0.1482,0.0511,-34.81,-26.62,14.56,299.85,-80.5,-167.12
32237,52.408344,-1.603358,190.21,4.26,3,68.2,27 / 28,3226621,2019-09-08 11:01:33:245,1.4652,0.4621,7.3653,0.1172,-0.0198,9.8058,0.0293,-0.081,-0.0064,-34.94,-27.81,15.06,296.38,-79.31,-169.29
32238,52.408344,-1.603358,190.21,4.26,3,68.2,27 / 28,3226721,2019-09-08 11:01:33:345,3.2222,-1.0479,7.5242,0.0799,-0.0274,9.8062,-0.476,-0.0031,0.0578,-35.06,-27.31,15.19,296.35,-78.95,-169.32
32239,52.408344,-1.603358,190.21,4.26,3,68.2,27 / 28,3226822,2019-09-08 11:01:33:446,-2.1153,0.3613,10.304,-0.0904,0.0067,9.8062,-0.6001,0.0104,0.0544,-34.75,-27.31,13.56,298.0,-79.98,-167.05
32240,52.408344,-1.603358,190.21,4.26,3,68.2,28 / 28,3226922,2019-09-08 11:01:33:546,-2.2035,0.6338,12.1592,-0.1081,0.0388,9.8059,-0.0724,0.0194,-0.0003,-34.94,-27.0,12.69,301.09,-81.55,-163.75
32241,52.408344,-1.603358,190.21,4.26,3,68.2,28 / 28,3227022,2019-09-08 11:01:33:646,-2.6221,0.9644,12.0611,-0.0255,0.0231,9.8066,-0.1018,-0.0393,0.0033,-34.75,-26.56,11.75,301.87,-82.78,-162.36
32242,52.408344,-1.603358,190.21,4.26,3,68.2,28 / 28,3227122,2019-09-08 11:01:33:746,-0.5053,0.5576,8.7596,0.0584,-0.0192,9.8064,0.0166,-0.0055,-0.028,-34.69,-26.12,12.81,302.28,-82.47,-163.42
32243,52.408344,-1.603358,190.21,4.26,3,68.2,28 / 28,3227222,2019-09-08 11:01:33:846,-0.0806,0.4819,8.5695,0.0568,-0.0289,9.8064,0.2223,-0.049,0.054,-35.12,-26.56,13.19,299.81,-81.45,-164.89
32244,52.408344,-1.603358,190.21,4.26,3,68.2,28 / 28,3227322,2019-09-08 11:01:33:946,0.6314,-0.4215,9.9496,0.0041,-0.0151,9.8066,0.0634,-0.0187,0.0358,-35.69,-26.25,13.13,300.88,-80.91,-163.32
32245,52.408344,-1.603358,190.21,4.26,3,68.2,28 / 28,3227422,2019-09-08 11:01:34:046,0.2547,-1.3027,11.0369,-0.0002,-0.0088,9.8066,-0.2223,0.0587,-0.0072,-35.19,-25.87,13.0,302.35,-81.04,-162.4
32246,52.408344,-1.603358,190.21,4.26,3,68.2,28 / 28,3227522,2019-09-08 11:01:34:146,-1.9066,0.3841,9.6275,-0.0359,0.0242,9.8065,-0.2209,-0.0216,0.0062,-35.31,-26.87,12.69,303.01,-81.37,-161.81
32247,52.408344,-1.603358,190.21,4.26,3,68.2,28 / 28,3227621,2019-09-08 11:01:34:245,-1.3728,-0.0927,9.6731,-0.0313,0.0156,9.8066,0.2809,0.018,-0.0449,-35.62,-26.44,12.5,302.36,-81.75,-162.47
32248,52.408344,-1.603358,190.21,4.26,3,68.2,28 / 28,3227722,2019-09-08 11:01:34:346,0.5234,-0.4834,10.6494,-0.0392,0.0003,9.8065,0.0132,-0.0766,0.0802,-35.25,-26.06,13.63,304.05,-81.63,-162.66
32249,52.408344,-1.603358,190.21,4.26,3,68.2,28 / 28,3227822,2019-09-08 11:01:34:446,0.8398,-0.9461,10.0623,0.042,-0.0181,9.8064,-0.0424,-0.0725,-0.0238,-35.37,-26.06,13.5,304.17,-81.09,-162.19
32250,52.408344,-1.603358,190.21,4.26,3,68.2,27 / 27,3227921,2019-09-08 11:01:34:545,-1.6133,-0.2843,9.5819,-0.0418,0.0178,9.8065,0.0611,-0.0408,-0.0461,-35.62,-26.56,13.13,301.29,-81.07,-162.84
32251,52.408344,-1.603358,190.21,4.26,3,68.2,27 / 27,3228021,2019-09-08 11:01:34:645,-1.1222,-0.6336,10.1021,-0.009,0.0102,9.8065,0.0102,-0.1014,0.0119,-35.0,-26.44,13.81,302.71,-81.23,-163.66
32252,52.408344,-1.603358,190.21,4.26,3,68.2,27 / 27,3228121,2019-09-08 11:01:34:745,1.864,-3.4854,10.7615,0.0468,-0.0349,9.8064,-0.0692,-0.0695,0.0404,-34.81,-27.25,13.81,302.41,-81.24,-163.76
32253,52.408344,-1.603358,190.21,4.26,3,68.2,27 / 27,3228221,2019-09-08 11:01:34:845,0.4972,0.6221,9.613,0.0652,-0.0167,9.8064,-0.1741,0.0349,-0.0793,-36.12,-26.75,14.13,301.3,-80.86,-164.13
32254,52.408344,-1.603358,190.21,4.26,3,68.2,27 / 27,3228321,2019-09-08 11:01:34:945,-1.5775,-1.0916,9.9208,-0.0736,0.0187,9.8063,0.0835,-0.0548,-0.0393,-35.12,-26.81,14.06,302.25,-81.39,-164.01
32255,52.408344,-1.603358,190.21,4.26,3,68.2,27 / 27,3228421,2019-09-08 11:01:35:045,-1.3527,0.1686,10.2981,-0.055,0.0485,9.8063,-0.0478,-0.1006,0.0019,-35.12,-26.94,14.19,300.89,-81.56,-165.41
32256,52.408344,-1.603358,190.21,4.26,3,68.2,27 / 27,3228521,2019-09-08 11:01:35:145,0.1885,-2.4492,11.3458,0.0668,-0.0286,9.8063,-0.1677,0.0023,-0.0444,-35.12,-25.87,14.38,301.0,-81.82,-165.68
32257,52.408344,-1.603358,190.21,4.26,3,68.2,27 / 27,3228621,2019-09-08 11:01:35:245,1.4257,-0.8175,11.2565,0.1063,-0.0572,9.8059,-0.1223,0.0766,-0.0601,-34.87,-26.5,14.88,301.28,-81.35,-166.55
32258,52.408344,-1.603358,190.21,4.26,3,68.2,27 / 27,3228721,2019-09-08 11:01:35:345,0.5185,-1.0901,10.9186,0.0924,-0.0391,9.8061,-0.0403,-0.1575,0.0909,-35.06,-26.25,14.25,300.0,-81.38,-166.33
32259,52.408344,-1.603358,190.21,4.26,3,68.2,27 / 27,3228821,2019-09-08 11:01:35:445,-0.5069,-1.3482,10.2425,-0.0815,0.024,9.8062,0.063,-0.1222,0.0343,-35.19,-26.0,14.13,301.68,-81.88,-165.07
32260,52.408344,-1.603358,190.21,4.26,3,68.2,28 / 29,3228921,2019-09-08 11:01:35:545,1.0876,0.0353,10.3182,0.0616,-0.0164,9.8064,-0.2118,-0.1611,0.0489,-34.69,-26.25,14.94,302.02,-81.69,-166.07
32261,52.408344,-1.603358,190.21,4.26,3,68.2,28 / 29,3229021,2019-09-08 11:01:35:645,-1.5404,0.1356,11.4434,0.0534,-0.0286,9.8064,-0.1465,-0.0531,-0.0914,-35.31,-26.56,14.13,301.57,-81.86,-164.98
32262,52.408344,-1.603358,190.21,4.26,3,68.2,28 / 29,3229121,2019-09-08 11:01:35:745,2.9984,-0.8088,10.185,0.0256,-0.0195,9.8065,-0.4413,-0.1423,0.076,-35.5,-26.31,14.88,303.78,-82.57,-164.97
32263,52.408344,-1.603358,190.21,4.26,3,68.2,28 / 29,3229221,2019-09-08 11:01:35:845,-3.2083,-0.6252,9.6275,0.0583,-0.0313,9.8064,-0.5428,-0.1824,0.1634,-35.12,-25.37,14.56,306.39,-82.7,-162.72
32264,52.408344,-1.603358,190.21,4.26,3,68.2,28 / 29,3229321,2019-09-08 11:01:35:945,-2.973,0.1223,12.4669,-0.0467,0.0003,9.8065,0.4216,-0.1329,0.0232,-34.81,-25.69,13.94,307.6,-83.14,-160.24
32265,52.408344,-1.603358,190.21,4.26,3,68.2,28 / 29,3229421,2019-09-08 11:01:36:045,-2.6318,0.4813,12.7056,-0.0452,0.0387,9.8065,0.5582,-0.2513,0.0747,-35.75,-25.44,14.44,308.12,-83.34,-159.55
32266,52.408344,-1.603358,190.21,4.26,3,68.2,28 / 29,3229521,2019-09-08 11:01:36:145,0.6535,0.2387,10.0543,0.2158,-0.056,9.804,-0.2315,-0.1867,0.1226,-35.75,-25.69,15.81,304.59,-81.92,-164.69
32267,52.408344,-1.603358,190.21,4.26,3,68.2,28 / 29,3229621,2019-09-08 11:01:36:245,-0.9016,-3.1948,8.3772,0.1706,-0.0429,9.805,-0.1559,-0.3554,0.2235,-35.5,-25.37,16.44,302.54,-81.21,-166.88
32268,52.408344,-1.603358,190.21,4.26,3,68.2,28 / 29,3229721,2019-09-08 11:01:36:345,0.2545,-0.7863,10.5371,-0.0345,0.0056,9.8065,0.2662,-0.1782,-0.0114,-36.12,-25.56,17.56,304.6,-80.82,-166.72
32269,52.408344,-1.603358,190.21,4.26,3,68.2,28 / 29,3229822,2019-09-08 11:01:36:446,0.357,-0.8401,11.0424,-0.0789,0.0333,9.8062,0.1933,-0.1565,-0.0244,-31.56,-27.62,14.44,301.91,-81.38,-165.53
32270,52.408516,-1.602536,191.35,6.41,2,81.13,28 / 29,3229922,2019-09-08 11:01:36:546,-0.4674,-0.0226,10.9881,-0.0595,0.0327,9.8063,-0.0701,-0.1182,-0.0016,-27.06,-29.87,9.25,294.6,-81.77,-165.66
32271,52.408516,-1.602536,191.35,6.41,2,81.13,28 / 29,3230021,2019-09-08 11:01:36:645,-1.7957,-0.0792,9.1556,-0.0267,0.0117,9.8065,0.0577,-0.1068,-0.0172,-27.06,-29.69,9.06,294.85,-82.2,-165.87
32272,52.408516,-1.602536,191.35,6.41,2,81.13,28 / 29,3230122,2019-09-08 11:01:36:746,-0.4969,-0.4809,9.3608,-0.0165,0.0069,9.8065,0.0855,-0.1166,-0.0055,-27.0,-30.81,9.88,295.8,-82.02,-166.51
32273,52.408516,-1.602536,191.35,6.41,2,81.13,28 / 29,3230222,2019-09-08 11:01:36:846,-0.4127,-0.3986,10.0128,0.0457,-0.0046,9.8065,-0.0701,-0.0753,-0.0113,-26.75,-29.62,9.75,295.02,-81.9,-167.37
32274,52.408516,-1.602536,191.35,6.41,2,81.13,28 / 29,3230321,2019-09-08 11:01:36:945,-0.8028,-0.2571,9.944,0.0349,0.0006,9.8066,-0.0837,-0.0858,0.0175,-26.44,-29.37,10.13,294.28,-81.69,-168.58
32275,52.408516,-1.602536,191.35,6.41,2,81.13,28 / 29,3230421,2019-09-08 11:01:37:045,-0.9285,0.1596,9.6939,-0.0255,0.0181,9.8065,0.1034,-0.0628,-0.0116,-27.19,-30.75,10.81,294.78,-81.72,-169.09
32276,52.408516,-1.602536,191.35,6.41,2,81.13,28 / 29,3230521,2019-09-08 11:01:37:145,-0.5583,0.3625,9.3058,-0.0252,0.0148,9.8066,0.0892,-0.0728,0.0103,-26.75,-30.37,10.13,291.98,-81.86,-170.21
32277,52.408516,-1.602536,191.35,6.41,2,81.13,28 / 29,3230621,2019-09-08 11:01:37:245,0.0277,-0.0533,9.811,0.0196,-0.0063,9.8066,-0.0366,-0.0402,0.0103,-27.0,-30.12,10.5,293.35,-81.66,-170.64
32278,52.408516,-1.602536,191.35,6.41,2,81.13,28 / 29,3230722,2019-09-08 11:01:37:346,-0.6073,-0.5766,10.1626,0.0141,-0.0016,9.8066,-0.0071,-0.0108,-0.0494,-26.75,-30.37,10.44,291.2,-81.66,-170.75
32279,52.408516,-1.602536,191.35,6.41,2,81.13,27 / 28,3230821,2019-09-08 11:01:37:445,-0.4484,-0.0422,9.7361,-0.0098,0.0117,9.8066,0.0041,-0.0092,-0.0258,-26.94,-29.94,10.0,290.85,-81.78,-171.2
32280,52.408516,-1.602536,191.35,6.41,2,81.13,27 / 28,3230921,2019-09-08 11:01:37:545,-0.1225,0.1587,9.6534,0.0005,0.0018,9.8066,-0.0352,-0.0189,0.0265,-26.37,-30.44,10.63,292.78,-81.83,-171.87
32281,52.408516,-1.602536,191.35,6.41,2,81.13,27 / 28,3231021,2019-09-08 11:01:37:645,-0.4278,0.1874,9.815,-0.0074,-0.003,9.8066,0.0004,-0.0074,0.0011,-26.37,-30.5,10.81,293.17,-81.89,-171.56
32282,52.408516,-1.602536,191.35,6.41,2,81.13,27 / 28,3231121,2019-09-08 11:01:37:745,-0.1957,-0.1736,10.0189,0.007,0.0015,9.8066,-0.0149,-0.0167,0.0079,-26.81,-30.25,10.44,290.56,-81.9,-171.6
32283,52.408516,-1.602536,191.35,6.41,2,81.13,27 / 28,3231222,2019-09-08 11:01:37:846,-0.2199,-0.1324,10.1452,0.0115,-0.003,9.8066,-0.0197,0.0037,-0.013,-26.31,-30.37,10.75,292.81,-81.86,-171.87
32284,52.408516,-1.602536,191.35,6.41,2,81.13,27 / 28,3231321,2019-09-08 11:01:37:945,-0.2892,-0.16,9.677,-0.0103,0.0027,9.8066,-0.0036,0.0109,-0.0354,-26.56,-30.25,10.56,292.26,-81.9,-171.93
32285,52.408516,-1.602536,191.35,6.41,2,81.13,27 / 28,3231421,2019-09-08 11:01:38:045,-0.4397,0.1001,9.8022,-0.0091,0.0019,9.8066,0.0144,-0.0092,-0.0047,-26.37,-29.81,9.88,290.65,-82.02,-172.09
32286,52.408516,-1.602536,191.35,6.41,2,81.13,27 / 28,3231521,2019-09-08 11:01:38:145,0.1912,-0.2715,10.0416,0.0038,-0.0028,9.8066,-0.0512,-0.0012,-0.0077,-27.19,-29.37,10.0,290.48,-82.04,-172.09
32287,52.408516,-1.602536,191.35,6.41,2,81.13,27 / 28,3231621,2019-09-08 11:01:38:245,-0.5226,0.1553,10.0744,0.0078,-0.011,9.8066,-0.0564,0.0019,-0.0221,-27.31,-29.31,11.06,292.9,-82.05,-171.72
32288,52.408516,-1.602536,191.35,6.41,2,81.13,27 / 28,3231722,2019-09-08 11:01:38:346,-0.3283,0.2147,9.5865,-0.0023,-0.0045,9.8066,0.0248,-0.0027,-0.0021,-27.75,-28.94,11.19,292.7,-82.09,-171.46
32289,52.408516,-1.602536,191.35,6.41,2,81.13,27 / 28,3231821,2019-09-08 11:01:38:445,-0.3371,-0.2611,10.2812,0.0072,-0.0083,9.8066,-0.024,-0.0102,-0.0419,-26.75,-29.0,11.56,295.83,-82.02,-170.81
32290,52.408516,-1.602536,191.35,6.41,2,81.13,28 / 28,3231921,2019-09-08 11:01:38:545,-0.2526,-0.3979,9.9202,-0.0011,0.006,9.8066,0.0097,-0.022,-0.0267,-26.62,-29.37,10.94,293.6,-82.01,-171.02
32291,52.408516,-1.602536,191.35,6.41,2,81.13,28 / 28,3232021,2019-09-08 11:01:38:645,-0.0038,0.5597,9.965,-0.0001,-0.0038,9.8066,0.024,0.0134,-0.0419,-26.69,-28.87,11.13,293.29,-82.04,-171.34
32292,52.408516,-1.602536,191.35,6.41,2,81.13,28 / 28,3232122,2019-09-08 11:01:38:746,-0.1086,-0.3726,9.8589,-0.0029,-0.015,9.8066,-0.0749,0.0238,-0.0186,-26.5,-29.5,11.38,294.97,-82.12,-170.37
32293,52.408516,-1.602536,191.35,6.41,2,81.13,28 / 28,3232221,2019-09-08 11:01:38:845,-0.6175,-0.1469,9.6807,0.0058,-0.0046,9.8066,-0.1165,0.0224,0.0143,-26.56,-29.12,11.19,294.87,-82.16,-169.96
32294,52.408516,-1.602536,191.35,6.41,2,81.13,28 / 28,3232322,2019-09-08 11:01:38:946,-0.633,-0.6014,10.0276,-0.0238,-0.0006,9.8065,0.0567,-0.0003,-0.008,-26.87,-29.37,11.06,295.5,-82.21,-169.41
32295,52.408516,-1.602536,191.35,6.41,2,81.13,28 / 28,3232422,2019-09-08 11:01:39:046,-0.4034,0.604,10.2862,-0.0215,0.0132,9.8065,0.0803,-0.0036,-0.0164,-27.19,-29.19,12.13,297.87,-82.4,-169.24
32296,52.408516,-1.602536,191.35,6.41,2,81.13,28 / 28,3232522,2019-09-08 11:01:39:146,-0.1716,-0.0641,10.4741,0.0308,-0.0121,9.8066,-0.1156,-0.0117,-0.0007,-27.12,-28.5,10.38,293.84,-82.37,-169.46
32297,52.408516,-1.602536,191.35,6.41,2,81.13,28 / 28,3232622,2019-09-08 11:01:39:246,-0.3261,0.6648,9.3292,0.0283,-0.0134,9.8065,-0.0915,0.0142,-0.0087,-27.31,-28.69,10.44,293.55,-82.11,-169.24
32298,52.408516,-1.602536,191.35,6.41,2,81.13,28 / 28,3232721,2019-09-08 11:01:39:345,-0.3886,0.2705,9.5679,-0.0229,-0.0078,9.8066,0.0918,-0.0231,0.0623,-27.56,-29.5,10.56,295.45,-82.1,-168.86
32299,52.408516,-1.602536,191.35,6.41,2,81.13,28 / 28,3232821,2019-09-08 11:01:39:445,-1.1549,0.4204,9.3901,-0.035,0.0163,9.8066,0.0516,0.0066,0.0063,-26.69,-29.69,10.25,294.82,-82.26,-167.94
32300,52.408516,-1.602536,191.35,6.41,2,81.13,28 / 29,3232921,2019-09-08 11:01:39:545,-0.3987,0.1091,10.1165,0.0205,-0.0036,9.8066,-0.0431,-0.0213,0.0051,-26.94,-28.62,10.75,296.91,-82.35,-168.22
32301,52.408516,-1.602536,191.35,6.41,2,81.13,28 / 29,3233022,2019-09-08 11:01:39:646,-0.3431,0.1181,9.7649,0.0117,0.0011,9.8066,-0.053,-0.0177,0.0022,-27.0,-29.44,10.75,296.6,-82.33,-168.5
32302,52.408516,-1.602536,191.35,6.41,2,81.13,28 / 29,3233121,2019-09-08 11:01:39:745,-0.7963,0.3295,9.5402,-0.0197,0.0007,9.8066,0.0732,-0.0288,0.0089,-26.25,-29.56,10.44,294.95,-82.43,-168.44
32303,52.408516,-1.602536,191.35,6.41,2,81.13,28 / 29,3233222,2019-09-08 11:01:39:846,-0.387,0.5126,9.6192,-0.0247,0.0067,9.8066,0.0323,0.0119,-0.0242,-26.5,-29.06,11.06,298.15,-82.56,-167.79
32304,52.408516,-1.602536,191.35,6.41,2,81.13,28 / 29,3233321,2019-09-08 11:01:39:945,-0.3304,0.2208,9.8412,0.0027,-0.0011,9.8066,-0.0307,0.0013,0.0231,-26.5,-30.37,11.0,298.03,-82.56,-167.67
32305,52.408516,-1.602536,191.35,6.41,2,81.13,28 / 29,3233421,2019-09-08 11:01:40:045,-0.6015,0.4724,9.8408,-0.0034,0.0044,9.8066,0.0,-0.0053,0.0142,-26.87,-30.0,10.81,297.4,-82.63,-167.8
32306,52.408516,-1.602536,191.35,6.41,2,81.13,28 / 29,3233522,2019-09-08 11:01:40:146,-0.5889,0.2404,9.7314,-0.0032,-0.0096,9.8066,0.0643,0.0177,0.0169,-26.5,-29.19,10.88,298.15,-82.62,-167.86
32307,52.408516,-1.602536,191.35,6.41,2,81.13,28 / 29,3233621,2019-09-08 11:01:40:245,-0.7318,-0.0306,9.72,-0.001,-0.0087,9.8066,0.0163,-0.0131,-0.0054,-27.37,-30.44,10.88,298.34,-82.58,-166.87
32308,52.408516,-1.602536,191.35,6.41,2,81.13,28 / 29,3233721,2019-09-08 11:01:40:345,-1.2234,0.6381,9.3424,-0.0141,0.0116,9.8066,0.1199,-0.0039,-0.0034,-27.0,-29.62,10.88,297.95,-82.55,-167.2
32309,52.408516,-1.602536,191.35,6.41,2,81.13,27 / 29,3233822,2019-09-08 11:01:40:446,-0.7188,0.0459,10.4017,0.0005,-0.0031,9.8066,0.0945,-0.0273,0.0302,-26.94,-29.62,11.25,297.74,-82.47,-167.32
32310,52.408516,-1.602536,191.35,6.41,2,81.13,27 / 29,3233921,2019-09-08 11:01:40:545,-0.9884,0.5267,9.5262,-0.0069,-0.0036,9.8066,-0.0798,0.0025,0.0438,-26.44,-29.75,11.56,300.34,-82.4,-167.29
32311,52.408516,-1.602536,191.35,6.41,2,81.13,27 / 29,3234022,2019-09-08 11:01:40:646,-1.4449,-0.1779,9.8888,0.001,-0.0167,9.8066,-0.0345,0.0139,0.0012,-26.69,-29.87,10.81,298.33,-82.27,-166.57
32312,52.408516,-1.602536,191.35,6.41,2,81.13,27 / 29,3234121,2019-09-08 11:01:40:745,-0.6014,-0.4344,10.1303,0.0284,-0.0192,9.8065,0.0044,-0.0143,0.0262,-27.19,-29.62,11.25,298.74,-82.24,-166.16
32313,52.408516,-1.602536,191.35,6.41,2,81.13,27 / 29,3234221,2019-09-08 11:01:40:845,-0.9075,0.4398,10.1612,0.036,-0.0193,9.8065,-0.0115,0.0367,-0.0158,-27.25,-29.75,11.13,298.96,-81.95,-165.68
32314,52.408516,-1.602536,191.35,6.41,2,81.13,27 / 29,3234321,2019-09-08 11:01:40:945,-1.3493,1.0901,9.4733,-0.0271,0.0084,9.8065,0.0726,0.0524,-0.0144,-27.69,-30.0,10.94,298.57,-82.11,-165.7
32315,52.408516,-1.602536,191.35,6.41,2,81.13,27 / 29,3234421,2019-09-08 11:01:41:045,1.2752,4.0263,8.0108,-0.0647,0.0233,9.8063,0.0234,0.2282,-0.1697,-27.44,-30.06,11.19,300.58,-82.62,-164.8
32316,52.408516,-1.602536,191.35,6.41,2,81.13,27 / 29,3234521,2019-09-08 11:01:41:145,-0.2836,2.2165,10.2584,-0.0047,0.0208,9.8066,-0.1269,0.0022,0.0153,-26.87,-30.31,10.75,299.61,-82.9,-165.98
32317,52.408516,-1.602536,191.35,6.41,2,81.13,27 / 29,3234621,2019-09-08 11:01:41:245,-1.0158,1.7561,11.0043,0.0184,0.0047,9.8066,-0.1178,0.0896,-0.0379,-27.44,-30.25,9.81,297.79,-83.24,-166.1
32318,52.408516,-1.602536,191.35,6.41,2,81.13,27 / 29,3234721,2019-09-08 11:01:41:345,-2.0745,1.9147,10.3942,-0.0449,0.0221,9.8064,0.1075,0.2084,-0.0597,-27.5,-30.19,9.38,294.88,-83.45,-167.12
32319,52.408516,-1.602536,191.35,6.41,2,81.13,27 / 29,3234822,2019-09-08 11:01:41:446,-0.9685,1.7479,9.7194,-0.0385,0.0207,9.8065,0.1504,0.1616,0.0137,-27.31,-29.44,8.63,293.78,-83.54,-168.47
32320,52.408516,-1.602536,191.35,6.41,2,81.13,26 / 26,3234921,2019-09-08 11:01:41:545,-1.1321,0.5749,8.8248,-0.0033,-0.0046,9.8066,0.0939,0.2964,-0.1993,-27.19,-29.69,9.56,295.62,-83.72,-168.65
32321,52.408516,-1.602536,191.35,6.41,2,81.13,26 / 26,3235021,2019-09-08 11:01:41:645,0.1101,2.5661,9.5774,0.0366,0.0085,9.8065,-0.2419,0.1753,-0.1104,-26.25,-30.25,8.75,292.87,-83.6,-169.63
32322,52.408516,-1.602536,191.35,6.41,2,81.13,26 / 26,3235122,2019-09-08 11:01:41:746,-0.6972,2.8705,9.6568,0.0408,0.0237,9.8064,-0.1742,0.2865,-0.0863,-26.31,-30.56,7.31,284.68,-83.45,-172.95
32323,52.408516,-1.602536,191.35,6.41,2,81.13,26 / 26,3235221,2019-09-08 11:01:41:845,-1.4865,1.7073,9.7816,-0.0502,0.0023,9.8065,0.1638,0.3462,-0.0318,-26.37,-30.19,6.88,284.07,-83.42,-173.75
32324,52.408516,-1.602536,191.35,6.41,2,81.13,26 / 26,3235321,2019-09-08 11:01:41:945,0.9674,1.5531,10.8407,-0.0536,0.0082,9.8065,0.1498,0.3459,-0.0521,-26.0,-30.44,6.38,282.62,-83.78,-173.44
32325,52.408516,-1.602536,191.35,6.41,2,81.13,26 / 26,3235421,2019-09-08 11:01:42:045,0.4503,1.5202,10.2964,0.0469,-0.0122,9.8065,-0.1724,0.3229,-0.0531,-24.87,-30.81,5.94,282.25,-83.57,-173.54
32326,52.408516,-1.602536,191.35,6.41,2,81.13,26 / 26,3235521,2019-09-08 11:01:42:145,0.0373,2.2881,9.9424,0.0466,-0.0087,9.8065,-0.1106,0.3055,-0.0456,-25.31,-31.19,5.63,282.4,-83.53,-173.35
32327,52.408516,-1.602536,191.35,6.41,2,81.13,26 / 26,3235621,2019-09-08 11:01:42:245,-1.1681,1.2183,9.9908,-0.0122,-0.0005,9.8066,0.1997,0.4018,-0.0423,-25.5,-30.87,5.19,280.41,-83.48,-172.97
32328,52.408516,-1.602536,191.35,6.41,2,81.13,26 / 26,3235721,2019-09-08 11:01:42:345,0.3059,2.8135,9.8465,-0.024,0.0024,9.8066,0.1774,0.4437,-0.0489,-25.25,-30.87,5.25,279.61,-83.39,-173.66
32329,52.408516,-1.602536,191.35,6.41,2,81.13,26 / 26,3235821,2019-09-08 11:01:42:445,0.4216,2.4774,10.16,0.0283,-0.0184,9.8066,0.0261,0.3677,-0.0043,-24.5,-30.12,5.38,280.91,-83.27,-172.64
32330,52.408516,-1.602536,191.35,6.41,2,81.13,27 / 28,3235921,2019-09-08 11:01:42:545,-0.3832,2.2738,9.8666,0.019,-0.0068,9.8066,-0.1074,0.4002,0.0224,-25.06,-31.19,3.69,279.56,-83.14,-171.11
32331,52.408516,-1.602536,191.35,6.41,2,81.13,27 / 28,3236022,2019-09-08 11:01:42:646,-0.2728,2.413,9.9174,-0.0065,-0.0085,9.8066,0.0754,0.4615,-0.0326,-25.25,-31.19,2.94,278.43,-83.19,-170.0
32332,52.408516,-1.602536,191.35,6.41,2,81.13,27 / 28,3236122,2019-09-08 11:01:42:746,-0.1948,1.491,9.741,-0.0099,-0.006,9.8066,0.0597,0.4343,-0.0552,-24.5,-31.31,1.94,277.42,-83.26,-168.61
32333,52.408516,-1.602536,191.35,6.41,2,81.13,27 / 28,3236221,2019-09-08 11:01:42:845,-0.4671,2.3702,9.7322,-0.0245,-0.0057,9.8066,-0.0214,0.4712,-0.0444,-23.12,-31.5,0.94,274.62,-83.43,-168.95
32334,52.408516,-1.602536,191.35,6.41,2,81.13,27 / 28,3236321,2019-09-08 11:01:42:945,-1.6245,2.2075,9.745,-0.0252,-0.0055,9.8065,-0.0103,0.5148,-0.0695,-22.81,-31.25,0.44,273.72,-83.78,-167.82
32335,52.408516,-1.602536,191.35,6.41,2,81.13,27 / 28,3236422,2019-09-08 11:01:43:046,-1.324,2.2708,9.8119,-0.0022,-0.003,9.8066,0.0101,0.4983,-0.0201,-22.87,-31.31,-0.37,273.68,-83.94,-168.09
32336,52.408516,-1.602536,191.35,6.41,2,81.13,27 / 28,3236521,2019-09-08 11:01:43:145,-0.7266,2.9188,9.7961,-0.0009,0.0005,9.8066,0.0058,0.4944,-0.0317,-22.25,-31.37,-1.5,271.14,-84.05,-167.82
32337,52.408516,-1.602536,191.35,6.41,2,81.13,27 / 28,3236621,2019-09-08 11:01:43:245,-0.7584,2.2825,9.8478,-0.0223,-0.0146,9.8066,0.0256,0.5054,-0.0137,-22.06,-31.69,-2.56,266.12,-84.05,-167.51
32338,52.408516,-1.602536,191.35,6.41,2,81.13,27 / 28,3236721,2019-09-08 11:01:43:345,-0.9278,1.7128,9.714,-0.026,-0.0173,9.8066,0.0411,0.5203,-0.0259,-20.56,-31.5,-2.81,267.0,-84.08,-166.19
32339,52.408516,-1.602536,191.35,6.41,2,81.13,27 / 28,3236821,2019-09-08 11:01:43:445,-0.4325,1.1076,9.9398,-0.0106,-0.0087,9.8066,0.0332,0.5238,-0.0424,-20.06,-31.44,-3.87,265.39,-84.22,-164.5
32340,52.408516,-1.602536,191.35,6.41,2,81.13,29 / 29,3236922,2019-09-08 11:01:43:546,-1.0384,2.1035,9.8424,-0.0256,0.0204,9.8066,0.0376,0.5397,-0.108,-19.37,-31.75,-4.31,261.44,-84.45,-167.6
32341,52.408516,-1.602536,191.35,6.41,2,81.13,29 / 29,3237022,2019-09-08 11:01:43:646,-0.6145,2.1556,10.319,0.0173,0.0176,9.8065,0.0228,0.4854,-0.0697,-18.12,-32.37,-5.0,254.75,-84.4,-170.47
32342,52.408516,-1.602536,191.35,6.41,2,81.13,29 / 29,3237121,2019-09-08 11:01:43:745,-0.8035,2.0387,10.3405,0.0209,0.02,9.8066,0.0345,0.5161,-0.0787,-17.19,-32.12,-5.31,252.05,-84.35,-171.85
32343,52.408516,-1.602536,191.35,6.41,2,81.13,29 / 29,3237221,2019-09-08 11:01:43:845,-0.5387,2.2565,9.5791,0.0046,-0.0065,9.8066,0.0727,0.5574,-0.0098,-17.19,-32.12,-6.06,248.14,-84.16,-172.83
32344,52.408516,-1.602536,191.35,6.41,2,81.13,29 / 29,3237321,2019-09-08 11:01:43:945,-1.287,1.7425,9.6298,0.011,-0.0109,9.8065,0.0457,0.5191,0.0023,-15.75,-32.37,-6.12,247.55,-83.89,-171.35
32345,52.408516,-1.602536,191.35,6.41,2,81.13,29 / 29,3237421,2019-09-08 11:01:44:045,0.4354,1.6245,9.5402,0.0189,0.0049,9.8066,0.0845,0.5129,-0.0167,-14.81,-32.25,-6.19,246.34,-83.73,-170.51
32346,52.408516,-1.602536,191.35,6.41,2,81.13,29 / 29,3237521,2019-09-08 11:01:44:145,1.0924,1.7302,10.2031,0.0169,0.0033,9.8066,0.0904,0.4733,-0.054,-14.81,-32.25,-6.69,243.97,-83.45,-169.66
32347,52.408516,-1.602536,191.35,6.41,2,81.13,29 / 29,3237621,2019-09-08 11:01:44:245,-0.6884,1.5771,9.9872,-0.0147,-0.0109,9.8066,0.0444,0.4073,0.0124,-13.62,-32.19,-6.56,241.22,-83.42,-170.47
32348,52.408516,-1.602536,191.35,6.41,2,81.13,29 / 29,3237721,2019-09-08 11:01:44:345,-0.4084,1.4007,9.7187,-0.0252,-0.0246,9.8065,0.1878,0.3665,-0.0611,-13.5,-33.06,-6.12,242.06,-83.4,-169.72
32349,52.408516,-1.602536,191.35,6.41,2,81.13,29 / 29,3237822,2019-09-08 11:01:44:446,-0.2243,1.219,10.1202,-0.0237,-0.0265,9.8066,0.225,0.3198,0.0172,-12.62,-32.62,-6.62,239.51,-83.37,-169.45
32350,52.408516,-1.602536,191.35,6.41,2,81.13,26 / 26,3237921,2019-09-08 11:01:44:545,-0.1161,0.6956,9.3506,0.0564,0.035,9.8064,-0.1602,0.2812,-0.011,-12.62,-32.56,-7.06,240.1,-83.06,-168.17
32351,52.408516,-1.602536,191.35,6.41,2,81.13,26 / 26,3238021,2019-09-08 11:01:44:645,-0.1474,0.2796,9.1115,-0.0426,-0.0452,9.8064,0.2747,0.2915,-0.0335,-11.87,-32.56,-6.19,240.66,-82.96,-167.63
32352,52.408516,-1.602536,191.35,6.41,2,81.13,26 / 26,3238121,2019-09-08 11:01:44:745,-0.4361,0.8598,9.5085,-0.0389,-0.0582,9.8064,0.2328,0.1738,0.069,-11.44,-32.81,-6.25,240.02,-83.22,-165.83
32353,52.408516,-1.602536,191.35,6.41,2,81.13,26 / 26,3238221,2019-09-08 11:01:44:845,1.1109,0.6663,10.1832,0.0158,0.0083,9.8065,-0.113,0.1745,0.0534,-11.56,-33.0,-7.5,240.89,-83.03,-164.36
32354,52.408516,-1.602536,191.35,6.41,2,81.13,26 / 26,3238321,2019-09-08 11:01:44:945,0.377,0.7662,10.0407,-0.0026,-0.0092,9.8066,-0.0419,0.2298,-0.052,-11.06,-32.25,-7.0,239.62,-83.2,-163.48
32355,52.408516,-1.602536,191.35,6.41,2,81.13,26 / 26,3238421,2019-09-08 11:01:45:045,0.3197,0.0794,10.3778,0.0162,0.007,9.8065,-0.0707,0.1265,-0.0396,-10.81,-33.12,-6.44,242.08,-83.29,-163.61
32356,52.408516,-1.602536,191.35,6.41,2,81.13,26 / 26,3238522,2019-09-08 11:01:45:146,1.3161,1.2122,10.3375,0.0206,0.012,9.8066,0.0457,0.1063,-0.0462,-10.87,-33.19,-7.0,239.46,-83.17,-163.15
32357,52.408516,-1.602536,191.35,6.41,2,81.13,26 / 26,3238622,2019-09-08 11:01:45:246,0.9875,0.0703,9.6501,0.0002,-0.0047,9.8066,0.0153,0.1496,-0.0352,-11.0,-32.44,-6.31,242.29,-83.14,-163.52
32358,52.408516,-1.602536,191.35,6.41,2,81.13,26 / 26,3238721,2019-09-08 11:01:45:345,0.8152,0.2033,9.6091,0.0146,-0.0117,9.8066,-0.0238,0.0565,0.0249,-10.87,-32.87,-5.69,242.13,-83.01,-162.89
32359,52.408516,-1.602536,191.35,6.41,2,81.13,26 / 26,3238821,2019-09-08 11:01:45:445,1.7883,0.2325,10.4239,-0.0077,-0.0201,9.8066,0.1607,-0.019,0.0167,-10.56,-33.25,-6.75,240.05,-83.0,-162.07
32360,52.40865,-1.601954,190.51,5.02,3,356.23,28 / 29,3238922,2019-09-08 11:01:45:546,1.7955,1.027,10.165,0.0205,0.0167,9.8065,-0.1253,-0.0275,0.0222,-10.56,-32.87,-6.31,242.48,-83.01,-162.47
32361,52.40865,-1.601954,190.51,5.02,3,356.23,28 / 29,3239022,2019-09-08 11:01:45:646,-0.1361,0.3467,9.4146,-0.0244,-0.0114,9.8066,-0.0767,0.0137,-0.0049,-10.25,-32.69,-6.62,235.69,-83.04,-163.74
32362,52.40865,-1.601954,190.51,5.02,3,356.23,28 / 29,3239121,2019-09-08 11:01:45:745,1.0539,0.5503,10.6829,0.0427,0.0228,9.8065,0.0174,0.1378,-0.1071,-10.44,-33.5,-7.12,235.67,-83.07,-163.84
32363,52.40865,-1.601954,190.51,5.02,3,356.23,28 / 29,3239222,2019-09-08 11:01:45:846,0.9735,1.6673,9.6396,0.0167,0.0202,9.8065,0.0112,0.0076,-0.0043,-10.56,-32.75,-7.06,237.68,-82.8,-164.42
32364,52.40865,-1.601954,190.51,5.02,3,356.23,28 / 29,3239322,2019-09-08 11:01:45:946,1.1785,0.8556,9.7617,-0.0042,-0.0188,9.8066,-0.0227,-0.0275,0.0132,-10.5,-32.75,-6.81,236.32,-82.87,-162.6
32365,52.40865,-1.601954,190.51,5.02,3,356.23,28 / 29,3239421,2019-09-08 11:01:46:045,-0.1828,0.6002,10.2051,-0.0239,-0.0368,9.8065,0.0605,0.0355,-0.0485,-10.62,-32.69,-7.0,240.53,-82.97,-161.44
32366,52.40865,-1.601954,190.51,5.02,3,356.23,28 / 29,3239521,2019-09-08 11:01:46:145,1.1431,-0.5071,10.848,0.0401,0.0281,9.8064,-0.1068,0.0522,-0.013,-10.56,-33.0,-6.69,241.28,-83.1,-160.87
32367,52.40865,-1.601954,190.51,5.02,3,356.23,28 / 29,3239621,2019-09-08 11:01:46:245,0.3069,1.3965,10.3283,0.0353,0.0499,9.8064,-0.1199,0.0362,0.0101,-10.87,-32.94,-6.87,241.46,-83.15,-160.77
32368,52.40865,-1.601954,190.51,5.02,3,356.23,28 / 29,3239722,2019-09-08 11:01:46:346,0.5091,0.4721,9.5694,-0.0225,-0.0169,9.8065,0.2043,-0.0008,0.002,-10.81,-32.62,-6.87,239.45,-82.66,-162.01
32369,52.40865,-1.601954,190.51,5.02,3,356.23,30 / 30,3239822,2019-09-08 11:01:46:446,0.3865,0.4884,10.325,-0.0198,-0.0229,9.8065,0.2288,-0.0658,0.0463,-10.5,-32.94,-6.94,235.87,-82.61,-162.54
32370,52.40865,-1.601954,190.51,5.02,3,356.23,30 / 30,3239921,2019-09-08 11:01:46:545,2.3975,0.7063,10.6052,0.0537,0.0378,9.8063,-0.3342,-0.0307,0.0667,-10.5,-33.31,-6.0,239.03,-82.47,-161.55
32371,52.40865,-1.601954,190.51,5.02,3,356.23,30 / 30,3240021,2019-09-08 11:01:46:645,-0.7217,-1.0706,9.4166,0.0008,0.0197,9.8066,-0.264,-0.0065,0.0201,-11.37,-32.94,-6.25,241.77,-82.27,-161.51
32372,52.40865,-1.601954,190.51,5.02,3,356.23,30 / 30,3240121,2019-09-08 11:01:46:745,0.5981,-0.4939,9.1985,-0.0275,-0.023,9.8066,0.1862,-0.0056,-0.0303,-11.25,-32.69,-7.06,239.48,-82.39,-161.37
32373,52.40865,-1.601954,190.51,5.02,3,356.23,30 / 30,3240222,2019-09-08 11:01:46:846,1.012,0.2764,9.8268,-0.0307,-0.01,9.8065,0.0709,0.0206,-0.049,-10.81,-32.87,-7.0,239.42,-82.69,-162.12
32374,52.40865,-1.601954,190.51,5.02,3,356.23,30 / 30,3240322,2019-09-08 11:01:46:946,0.5815,-2.1405,9.6257,-0.0195,-0.0166,9.8065,-0.0631,0.0203,0.0002,-10.94,-32.12,-7.25,239.74,-82.88,-162.66
32375,52.40865,-1.601954,190.51,5.02,3,356.23,30 / 30,3240421,2019-09-08 11:01:47:045,-1.3692,0.2374,10.1197,-0.0194,-0.0395,9.8065,0.0144,0.0348,-0.0516,-10.56,-32.81,-6.44,242.2,-82.93,-162.6
32376,52.40865,-1.601954,190.51,5.02,3,356.23,30 / 30,3240521,2019-09-08 11:01:47:145,1.5724,-1.2099,10.1586,0.0294,0.0232,9.8065,-0.0591,-0.0267,0.0253,-10.69,-32.75,-6.62,239.27,-82.9,-162.76
32377,52.40865,-1.601954,190.51,5.02,3,356.23,30 / 30,3240622,2019-09-08 11:01:47:246,0.5935,-0.0993,8.9526,0.0023,0.0261,9.8066,-0.0208,0.004,-0.0665,-10.37,-32.19,-6.94,234.95,-82.67,-164.29
32378,52.40865,-1.601954,190.51,5.02,3,356.23,30 / 30,3240722,2019-09-08 11:01:47:346,0.5181,-0.2213,6.8562,-0.064,-0.0691,9.8061,0.0658,0.1102,-0.0286,-10.06,-32.75,-6.5,235.23,-82.33,-165.87
32379,52.40865,-1.601954,190.51,5.02,3,356.23,30 / 30,3240821,2019-09-08 11:01:47:445,-0.4215,-1.4606,8.3458,-0.0609,-0.0968,9.806,-0.0003,-0.0522,0.0282,-10.44,-32.81,-7.31,235.35,-82.88,-163.78
32380,52.40865,-1.601954,190.51,5.02,3,356.23,28 / 28,3240921,2019-09-08 11:01:47:545,1.1773,-0.3564,10.2654,0.0149,0.0132,9.8066,-0.0191,-0.0381,0.032,-10.62,-32.37,-6.5,241.96,-82.83,-163.18
32381,52.40865,-1.601954,190.51,5.02,3,356.23,28 / 28,3241023,2019-09-08 11:01:47:647,0.6535,-0.2762,10.8991,0.0045,0.0025,9.8065,0.0777,-0.0441,0.0538,-10.94,-32.56,-7.31,239.76,-83.07,-162.57
32382,52.40865,-1.601954,190.51,5.02,3,356.23,28 / 28,3241121,2019-09-08 11:01:47:745,-0.638,-1.0173,7.4864,0.0224,0.0117,9.8065,0.2448,-0.0726,0.0195,-11.31,-32.56,-7.81,238.51,-83.28,-161.56
32383,52.40865,-1.601954,190.51,5.02,3,356.23,28 / 28,3241221,2019-09-08 11:01:47:845,3.6205,0.955,8.8601,0.0018,0.0073,9.8065,0.2407,-0.0297,0.1622,-11.06,-32.81,-7.25,239.55,-82.87,-162.36
32384,52.40865,-1.601954,190.51,5.02,3,356.23,28 / 28,3241322,2019-09-08 11:01:47:946,0.9076,0.0655,9.4915,0.0321,0.0208,9.8065,-0.0435,-0.0267,0.0234,-11.62,-32.37,-7.56,239.85,-82.53,-162.14
32385,52.40865,-1.601954,190.51,5.02,3,356.23,28 / 28,3241422,2019-09-08 11:01:48:046,-0.1476,-0.3291,10.1377,0.0053,0.0019,9.8066,0.0073,0.0036,-0.0473,-11.37,-32.0,-6.94,239.06,-82.21,-162.0
32386,52.40865,-1.601954,190.51,5.02,3,356.23,28 / 28,3241521,2019-09-08 11:01:48:145,-0.1229,-0.2767,9.9442,-0.0061,-0.0068,9.8066,-0.0477,0.0207,-0.0394,-11.44,-32.75,-7.0,238.71,-82.23,-161.93
32387,52.40865,-1.601954,190.51,5.02,3,356.23,28 / 28,3241621,2019-09-08 11:01:48:245,-0.1844,-0.7013,10.0134,-0.0058,-0.002,9.8066,-0.0801,-0.0425,0.0246,-11.31,-32.37,-7.37,239.57,-82.36,-161.72
32388,52.40865,-1.601954,190.51,5.02,3,356.23,28 / 28,3241721,2019-09-08 11:01:48:345,0.5304,-0.4604,9.7768,-0.0038,-0.0037,9.8066,-0.0489,-0.0385,0.0275,-11.25,-31.94,-7.19,239.93,-82.41,-161.41
32389,52.40865,-1.601954,190.51,5.02,3,356.23,28 / 28,3241821,2019-09-08 11:01:48:445,0.2831,-0.4268,10.125,0.0033,0.0062,9.8065,-0.0919,-0.0431,-0.039,-11.75,-32.69,-7.0,242.39,-82.36,-161.19
32390,52.40865,-1.601954,190.51,5.02,3,356.23,29 / 29,3241921,2019-09-08 11:01:48:545,-0.2591,0.2113,9.2906,-0.0069,-0.0101,9.8066,-0.0589,0.038,-0.047,-11.94,-32.5,-6.94,242.44,-82.31,-161.53
32391,52.40865,-1.601954,190.51,5.02,3,356.23,29 / 29,3242022,2019-09-08 11:01:48:646,0.037,0.512,9.6527,0.0001,-0.0061,9.8066,0.022,-0.04,0.0698,-11.37,-32.44,-6.62,240.24,-82.33,-160.88
32392,52.40865,-1.601954,190.51,5.02,3,356.23,29 / 29,3242122,2019-09-08 11:01:48:746,-0.4459,-0.3847,9.616,-0.0169,-0.0085,9.8066,-0.0179,0.0108,-0.0199,-11.69,-32.25,-6.62,242.92,-82.37,-161.11
32393,52.40865,-1.601954,190.51,5.02,3,356.23,29 / 29,3242221,2019-09-08 11:01:48:845,0.8231,0.0527,9.7624,-0.0129,-0.0082,9.8065,-0.0498,-0.0087,0.0244,-11.19,-32.06,-7.25,239.91,-82.37,-161.35
32394,52.40865,-1.601954,190.51,5.02,3,356.23,29 / 29,3242322,2019-09-08 11:01:48:946,0.5505,-1.1849,9.6422,-0.0099,-0.0066,9.8066,-0.0872,-0.0674,0.0764,-11.44,-32.62,-6.75,239.43,-82.3,-161.23
32395,52.40865,-1.601954,190.51,5.02,3,356.23,29 / 29,3242421,2019-09-08 11:01:49:045,0.4701,-0.1163,9.8735,-0.0185,-0.0116,9.8066,0.026,0.0115,-0.025,-11.62,-32.25,-7.19,242.19,-82.4,-162.03
32396,52.40865,-1.601954,190.51,5.02,3,356.23,29 / 29,3242522,2019-09-08 11:01:49:146,0.2073,-0.2645,9.7901,0.013,0.0218,9.8065,-0.0157,0.012,-0.011,-11.0,-32.87,-7.0,239.12,-82.43,-161.9
32397,52.40865,-1.601954,190.51,5.02,3,356.23,29 / 29,3242622,2019-09-08 11:01:49:246,0.0185,-0.8936,9.8781,0.0181,0.0148,9.8066,0.0499,0.0017,-0.014,-12.06,-32.75,-7.94,239.02,-82.36,-162.29
32398,52.40865,-1.601954,190.51,5.02,3,356.23,29 / 29,3242722,2019-09-08 11:01:49:346,-0.5508,-1.1387,9.713,-0.0014,0.0037,9.8066,0.1128,-0.0367,0.0271,-11.5,-32.31,-6.94,238.58,-82.41,-163.0
32399,52.40865,-1.601954,190.51,5.02,3,356.23,28 / 29,3242821,2019-09-08 11:01:49:445,0.1081,-0.1168,10.2,0.0057,0.0219,9.8066,-0.1335,-0.0025,-0.0361,-11.31,-32.69,-7.25,236.89,-82.24,-164.15
32400,52.40865,-1.601954,190.51,5.02,3,356.23,28 / 29,3242922,2019-09-08 11:01:49:546,0.241,0.2342,9.3069,0.0054,-0.0034,9.8066,-0.0231,-0.044,0.013,-11.37,-33.37,-7.37,235.79,-82.16,-165.29
32401,52.40865,-1.601954,190.51,5.02,3,356.23,28 / 29,3243022,2019-09-08 11:01:49:646,0.4134,-0.3648,9.2864,0.0025,-0.0119,9.8066,-0.0517,0.0218,-0.005,-11.5,-32.62,-6.44,239.1,-82.11,-164.32
32402,52.40865,-1.601954,190.51,5.02,3,356.23,28 / 29,3243121,2019-09-08 11:01:49:745,-0.3938,-1.3574,10.4361,-0.0207,-0.0213,9.8066,-0.0954,0.0146,0.0006,-12.37,-33.0,-7.56,237.92,-82.17,-163.21
32403,52.40865,-1.601954,190.51,5.02,3,356.23,28 / 29,3243221,2019-09-08 11:01:49:845,-0.5877,-0.9525,10.0134,-0.0266,-0.016,9.8066,-0.0217,-0.0201,-0.0233,-11.5,-32.87,-7.75,235.92,-82.55,-163.08
32404,52.40865,-1.601954,190.51,5.02,3,356.23,28 / 29,3243322,2019-09-08 11:01:49:946,-0.3044,-0.4209,9.8248,0.0094,0.0105,9.8066,-0.0095,-0.0085,-0.0331,-11.62,-33.0,-7.94,238.25,-82.51,-163.49
32405,52.40865,-1.601954,190.51,5.02,3,356.23,28 / 29,3243421,2019-09-08 11:01:50:045,0.4304,-0.9956,9.46,0.0148,0.0175,9.8066,0.0397,-0.0164,-0.0055,-11.94,-31.94,-7.19,240.68,-82.31,-163.59
32406,52.40865,-1.601954,190.51,5.02,3,356.23,28 / 29,3243522,2019-09-08 11:01:50:146,-0.0295,-0.7081,10.0792,0.0038,0.0029,9.8066,0.0464,0.022,-0.0124,-11.56,-32.5,-7.31,240.4,-82.18,-163.66
32407,52.40865,-1.601954,190.51,5.02,3,356.23,28 / 29,3243622,2019-09-08 11:01:50:246,0.2834,-0.6576,10.132,-0.0032,0.0063,9.8066,-0.069,-0.0167,-0.0116,-11.87,-32.31,-7.56,237.65,-82.18,-164.03
32408,52.40865,-1.601954,190.51,5.02,3,356.23,28 / 29,3243721,2019-09-08 11:01:50:345,-1.0264,-1.225,9.6684,-0.0164,-0.0025,9.8065,-0.0528,0.0085,-0.0247,-11.56,-32.44,-6.87,239.29,-82.25,-165.1
32409,52.40865,-1.601954,190.51,5.02,3,356.23,28 / 29,3243822,2019-09-08 11:01:50:446,-0.557,-0.4228,10.0981,-0.0064,-0.0082,9.8066,0.0344,0.0074,-0.0222,-11.56,-32.94,-7.5,238.6,-82.35,-165.61
32410,52.40865,-1.601954,190.51,5.02,3,356.23,28 / 28,3243922,2019-09-08 11:01:50:546,0.0218,-0.9875,9.5846,0.0026,0.0114,9.8066,0.0095,-0.0445,0.0023,-12.25,-32.62,-7.75,235.2,-82.3,-166.68
32411,52.40865,-1.601954,190.51,5.02,3,356.23,28 / 28,3244022,2019-09-08 11:01:50:646,0.1025,-0.594,9.4702,0.0074,0.0089,9.8066,0.0172,0.004,-0.0021,-10.87,-32.25,-7.12,235.02,-82.28,-167.0
32412,52.40865,-1.601954,190.51,5.02,3,356.23,28 / 28,3244122,2019-09-08 11:01:50:746,0.1356,-1.3198,9.8986,-0.0064,0.0,9.8066,0.0145,-0.0375,0.013,-11.19,-33.31,-7.75,232.09,-82.35,-167.28
32413,52.40865,-1.601954,190.51,5.02,3,356.23,28 / 28,3244222,2019-09-08 11:01:50:846,-0.6705,-1.5411,10.1996,-0.0141,0.0026,9.8065,0.046,0.0281,-0.069,-11.75,-32.25,-6.94,236.87,-82.44,-168.3
32414,52.40865,-1.601954,190.51,5.02,3,356.23,28 / 28,3244322,2019-09-08 11:01:50:946,-1.0389,-0.5927,9.8297,0.0072,0.0155,9.8066,0.0734,-0.0561,0.0119,-11.31,-32.25,-7.06,233.56,-82.52,-169.22
32415,52.40865,-1.601954,190.51,5.02,3,356.23,28 / 28,3244422,2019-09-08 11:01:51:046,-0.5159,-1.6582,9.9991,0.0099,0.0188,9.8065,-0.0115,0.0038,-0.0416,-11.25,-32.56,-7.81,229.77,-82.39,-170.18
32416,52.40865,-1.601954,190.51,5.02,3,356.23,28 / 28,3244522,2019-09-08 11:01:51:146,-0.8767,-0.8963,9.5403,-0.0057,0.0101,9.8065,0.0543,-0.0035,-0.0227,-11.19,-32.06,-6.94,231.36,-82.33,-171.52
32417,52.40865,-1.601954,190.51,5.02,3,356.23,28 / 28,3244622,2019-09-08 11:01:51:246,-0.2031,-0.8712,9.8284,-0.0045,0.0056,9.8066,-0.0507,0.0075,-0.0385,-11.44,-32.5,-7.06,230.81,-82.3,-172.12
32418,52.40865,-1.601954,190.51,5.02,3,356.23,28 / 28,3244722,2019-09-08 11:01:51:346,-0.8806,-1.3152,10.1924,-0.0076,0.0062,9.8066,-0.0215,0.0118,-0.0342,-11.62,-32.56,-7.69,230.22,-82.36,-172.76
32419,52.40865,-1.601954,190.51,5.02,3,356.23,27 / 29,3244821,2019-09-08 11:01:51:445,-1.0475,-1.2656,9.8614,-0.0153,-0.0007,9.8066,0.024,0.011,-0.0268,-11.06,-32.62,-6.75,229.07,-82.41,-174.01
32420,52.40865,-1.601954,190.51,5.02,3,356.23,27 / 29,3244921,2019-09-08 11:01:51:545,-0.7507,-1.0681,9.7696,0.0097,0.0109,9.8066,0.0731,0.0204,-0.0132,-11.06,-32.87,-7.12,228.93,-82.36,-174.09
32421,52.40865,-1.601954,190.51,5.02,3,356.23,27 / 29,3245022,2019-09-08 11:01:51:646,-0.1825,-1.3662,9.6733,0.0118,0.0109,9.8066,-0.0645,0.0246,-0.0233,-11.37,-32.81,-7.19,229.09,-82.4,-173.95
32422,52.40865,-1.601954,190.51,5.02,3,356.23,27 / 29,3245121,2019-09-08 11:01:51:745,-0.2391,-1.4377,9.7018,-0.0149,0.0007,9.8065,-0.0543,-0.0138,-0.018,-10.94,-32.25,-7.0,229.51,-82.46,-174.02
32423,52.40865,-1.601954,190.51,5.02,3,356.23,27 / 29,3245221,2019-09-08 11:01:51:845,-1.0254,-1.5931,9.8779,-0.0197,-0.0118,9.8065,0.0354,-0.0071,-0.0041,-11.06,-32.81,-7.69,225.93,-82.64,-175.32
32424,52.40865,-1.601954,190.51,5.02,3,356.23,27 / 29,3245321,2019-09-08 11:01:51:945,-0.502,-1.1788,10.2757,0.0097,0.0247,9.8066,0.029,0.0199,-0.0382,-11.37,-32.62,-8.06,225.44,-82.73,-176.07
32425,52.40865,-1.601954,190.51,5.02,3,356.23,27 / 29,3245421,2019-09-08 11:01:52:045,-0.5702,-0.7869,9.5491,0.0402,0.0399,9.8064,-0.0855,-0.0423,0.0628,-11.44,-32.25,-7.81,224.9,-82.57,-176.86
32426,52.40865,-1.601954,190.51,5.02,3,356.23,27 / 29,3245522,2019-09-08 11:01:52:146,-0.9966,-1.6373,9.0847,-0.0287,-0.0446,9.8065,-0.1061,-0.0272,0.0056,-11.87,-32.75,-7.25,232.0,-82.85,-174.43
32427,52.40865,-1.601954,190.51,5.02,3,356.23,27 / 29,3245622,2019-09-08 11:01:52:246,0.8414,-1.3781,10.3104,-0.0284,-0.0332,9.8065,-0.0022,-0.0385,-0.0183,-11.5,-32.69,-7.75,227.42,-82.84,-173.86
32428,52.40865,-1.601954,190.51,5.02,3,356.23,27 / 29,3245722,2019-09-08 11:01:52:346,0.2694,-1.2904,10.0473,0.013,0.0128,9.8066,-0.0501,-0.0917,0.0015,-11.69,-32.75,-7.19,232.65,-82.9,-173.73
32429,52.40865,-1.601954,190.51,5.02,3,356.23,27 / 29,3245822,2019-09-08 11:01:52:446,0.8382,-1.0469,9.2753,-0.0025,-0.0067,9.8066,-0.0431,-0.0627,0.0013,-11.19,-32.81,-6.87,230.36,-83.03,-173.63
32430,52.40865,-1.601954,190.51,5.02,3,356.23,29 / 29,3245922,2019-09-08 11:01:52:546,0.0781,-1.499,9.5872,-0.0279,-0.0394,9.8065,-0.0365,-0.0879,0.0624,-12.5,-32.87,-7.19,234.26,-83.45,-172.89
32431,52.40865,-1.601954,190.51,5.02,3,356.23,29 / 29,3246021,2019-09-08 11:01:52:645,0.7219,-1.9306,9.984,-0.0035,-0.0361,9.8065,-0.0334,-0.1499,0.0792,-12.56,-32.25,-7.12,238.85,-83.58,-170.97
32432,52.40865,-1.601954,190.51,5.02,3,356.23,29 / 29,3246121,2019-09-08 11:01:52:745,1.2351,-1.9938,9.8916,0.0026,-0.0097,9.8066,-0.0559,-0.1917,0.041,-12.69,-32.62,-6.37,243.51,-83.7,-168.7
32433,52.40865,-1.601954,190.51,5.02,3,356.23,29 / 29,3246221,2019-09-08 11:01:52:845,0.0497,-2.5374,10.1815,0.0078,-0.0075,9.8066,0.0222,-0.2488,0.0547,-13.12,-32.69,-7.06,242.43,-83.77,-166.93
32434,52.40865,-1.601954,190.51,5.02,3,356.23,29 / 29,3246321,2019-09-08 11:01:52:945,0.0051,-2.4523,9.8867,-0.0101,0.0057,9.8066,0.0186,-0.2161,-0.0213,-13.56,-33.12,-7.37,244.86,-83.73,-166.62
32435,52.40865,-1.601954,190.51,5.02,3,356.23,29 / 29,3246422,2019-09-08 11:01:53:046,1.028,-2.5311,10.1492,0.0107,0.0128,9.8066,0.0148,-0.2829,0.0202,-14.06,-32.5,-7.37,243.95,-83.59,-167.73
32436,52.40865,-1.601954,190.51,5.02,3,356.23,29 / 29,3246521,2019-09-08 11:01:53:145,0.6191,-2.608,9.9205,0.0234,-0.0023,9.8066,0.045,-0.3555,0.0877,-14.94,-32.19,-5.94,248.45,-83.29,-167.38
32437,52.40865,-1.601954,190.51,5.02,3,356.23,29 / 29,3246621,2019-09-08 11:01:53:245,1.2559,-2.8587,9.6397,0.0184,-0.0058,9.8066,0.0471,-0.3838,0.0631,-15.75,-33.25,-5.87,250.66,-83.08,-166.15
32438,52.40865,-1.601954,190.51,5.02,3,356.23,29 / 29,3246721,2019-09-08 11:01:53:345,0.3671,-2.8363,10.3461,0.0226,0.0102,9.8066,0.0219,-0.3903,0.0374,-16.31,-33.0,-6.0,250.37,-82.82,-165.98
32439,52.40865,-1.601954,190.51,5.02,3,356.23,29 / 29,3246824,2019-09-08 11:01:53:448,0.6732,-3.0257,10.0836,0.007,0.011,9.8066,0.0489,-0.4385,0.0309,-16.62,-32.37,-5.06,254.53,-82.66,-166.25
32440,52.40865,-1.601954,190.51,5.02,3,356.23,28 / 28,3246922,2019-09-08 11:01:53:546,0.047,-2.9825,10.0546,0.004,0.0191,9.8065,0.0162,-0.4465,0.0271,-17.19,-32.75,-4.37,255.21,-82.45,-167.67
32441,52.40865,-1.601954,190.51,5.02,3,356.23,28 / 28,3247021,2019-09-08 11:01:53:645,-0.3322,-2.9104,9.7387,0.0001,0.0118,9.8066,0.0469,-0.4522,0.0309,-17.62,-32.62,-4.31,254.5,-82.3,-169.63
32442,52.40865,-1.601954,190.51,5.02,3,356.23,28 / 28,3247122,2019-09-08 11:01:53:746,0.0606,-2.3591,9.96,0.0178,0.0215,9.8065,0.0237,-0.5003,0.0555,-17.81,-33.56,-3.69,252.08,-82.0,-171.29
32443,52.40865,-1.601954,190.51,5.02,3,356.23,28 / 28,3247221,2019-09-08 11:01:53:845,0.9259,-2.5085,8.9406,0.0121,0.0171,9.8066,-0.0175,-0.4981,0.0315,-18.94,-33.0,-3.94,252.69,-81.86,-172.18
32444,52.40865,-1.601954,190.51,5.02,3,356.23,28 / 28,3247321,2019-09-08 11:01:53:945,0.1238,-2.277,9.0258,-0.0136,-0.0138,9.8066,-0.0342,-0.5231,0.0962,-20.06,-33.12,-3.0,255.8,-81.86,-172.75
32445,52.40865,-1.601954,190.51,5.02,3,356.23,28 / 28,3247422,2019-09-08 11:01:54:046,0.4822,-2.9472,9.7504,-0.0238,-0.0121,9.8066,-0.0685,-0.508,0.0408,-20.87,-33.44,-2.25,260.93,-82.18,-171.48
32446,52.40865,-1.601954,190.51,5.02,3,356.23,28 / 28,3247521,2019-09-08 11:01:54:145,-0.0477,-2.7923,10.0343,-0.0304,0.0019,9.8065,-0.115,-0.5108,0.0487,-21.44,-32.87,-1.5,263.88,-82.55,-171.67
32447,52.40865,-1.601954,190.51,5.02,3,356.23,28 / 28,3247621,2019-09-08 11:01:54:245,-0.4977,-2.591,10.094,-0.0313,0.0006,9.8066,-0.0905,-0.5153,0.0354,-21.56,-31.94,-1.0,265.08,-83.1,-172.27
32448,52.40865,-1.601954,190.51,5.02,3,356.23,28 / 28,3247721,2019-09-08 11:01:54:345,-0.732,-2.6381,10.0756,-0.027,-0.0009,9.8066,-0.0532,-0.5297,0.0587,-22.25,-31.31,-0.37,268.26,-83.61,-172.68
32449,52.40865,-1.601954,190.51,5.02,3,356.23,28 / 28,3247821,2019-09-08 11:01:54:445,-0.5483,-2.95,9.6419,-0.0075,-0.0119,9.8066,-0.0314,-0.5523,0.0774,-23.37,-32.12,-0.75,267.24,-83.81,-171.63
32450,52.40916,-1.601964,190.1,4.36,3,41.01,29 / 29,3247922,2019-09-08 11:01:54:546,-1.0859,-2.8183,9.1272,-0.004,-0.0232,9.8066,0.0252,-0.5614,0.1402,-23.94,-31.37,-0.19,272.63,-83.96,-169.51
32451,52.40916,-1.601964,190.1,4.36,3,41.01,29 / 29,3248021,2019-09-08 11:01:54:645,-0.2798,-3.0923,9.2943,-0.0014,-0.0221,9.8066,-0.0116,-0.5797,0.1138,-24.0,-31.62,0.19,274.65,-83.88,-167.12
32452,52.40916,-1.601964,190.1,4.36,3,41.01,29 / 29,3248122,2019-09-08 11:01:54:746,-0.4527,-3.145,9.9021,0.0002,-0.004,9.8066,-0.0554,-0.5788,0.0706,-24.37,-31.56,1.31,278.48,-83.84,-165.69
32453,52.40916,-1.601964,190.1,4.36,3,41.01,29 / 29,3248221,2019-09-08 11:01:54:845,-0.5363,-2.5263,9.8258,-0.0055,-0.0002,9.8066,-0.0419,-0.5795,0.06,-25.25,-31.12,1.94,281.83,-83.92,-165.27
32454,52.40916,-1.601964,190.1,4.36,3,41.01,29 / 29,3248322,2019-09-08 11:01:54:946,-0.3807,-2.0479,10.1013,-0.0068,-0.0143,9.8066,-0.0457,-0.5919,0.079,-26.0,-30.5,2.06,283.01,-84.0,-164.56
