,GPS LATITUDE (degrees),GPS LONGITUDE (degrees), GPS ALTITUDE (m),GPS SPEED (Kmh),GPS ACCURACY (m),GPS ORIENTATION (Â°), SATELLITES IN RANGE, TIME SINCE START (ms), DATE (YYYY-MO-DD HH-MI-SS_SSS),ACCELEROMETER X (m/s²) , ACCELEROMETER Y (m/s²), ACCELEROMETER Z (m/s²), GRAVITY X (m/s²), GRAVITY Y (m/s²), GRAVITY Z (m/s²), GYROSCOPE Yaw (rad/s), GYROSCOPE Pitch (rad/s), GYROSCOPE Roll (rad/s)
82226,47.16746,-1.621581,67.75,24.21,4.288,227.5,Dec-19,8223796,2019-08-18 17:30:46:333,-0.8259,-0.562,10.02,-0.8791,-0.4586,9.7564,0.002,-0.0077,-0.004
82227,47.16746,-1.621581,67.75,24.21,4.288,227.5,Dec-19,8223897,2019-08-18 17:30:46:434,-0.8996,-0.3699,9.6375,-0.8746,-0.4627,9.7566,0.0119,0.0052,-0.0035
82228,47.16746,-1.621581,67.75,24.21,4.288,227.5,Dec-19,8223997,2019-08-18 17:30:46:534,-0.7433,-0.5369,9.859,-0.8757,-0.464,9.7564,0.0005,-0.0048,-0.004
82229,47.16746,-1.621581,67.75,24.21,4.288,227.5,13 / 21,8224097,2019-08-18 17:30:46:634,-0.8218,-0.562,9.6411,-0.8725,-0.4628,9.7568,0.0013,-0.001,-0.0042
82230,47.16746,-1.621581,67.75,24.21,4.288,227.5,13 / 21,8224197,2019-08-18 17:30:46:734,-0.8337,-0.5776,9.5262,-0.8744,-0.4641,9.7566,0.0058,0.0105,-0.004
82231,47.16746,-1.621581,67.75,24.21,4.288,227.5,13 / 21,8224297,2019-08-18 17:30:46:834,-0.6901,-0.4471,9.3789,-0.8835,-0.4627,9.7558,0.0074,0.0073,-0.0042
82232,47.16746,-1.621581,67.75,24.21,4.288,227.5,13 / 21,8224397,2019-08-18 17:30:46:934,-0.55,-0.3466,9.6662,-0.8869,-0.4587,9.7557,0.0085,0.0066,-0.0039
82233,47.16746,-1.621581,67.75,24.21,4.288,227.5,13 / 21,8224497,2019-08-18 17:30:47:034,-0.3872,-0.4722,9.85,-0.8896,-0.4483,9.7559,0.0071,0.0025,-0.0039
82234,47.16746,-1.621581,67.75,24.21,4.288,227.5,13 / 21,8224597,2019-08-18 17:30:47:134,-0.8403,-0.5968,9.8266,-0.8885,-0.4444,9.7562,-0.0023,-0.0013,-0.0068
82235,47.16746,-1.621581,67.75,24.21,4.288,227.5,13 / 21,8224697,2019-08-18 17:30:47:234,-0.5404,-0.4633,9.9057,-0.8803,-0.4465,9.7569,-0.0024,-0.002,-0.0056
82236,47.16746,-1.621581,67.75,24.21,4.288,227.5,13 / 21,8224797,2019-08-18 17:30:47:334,-0.6793,-0.4202,9.9739,-0.877,-0.4464,9.7572,0.001,0.0028,-0.0057
82237,47.16746,-1.621581,67.75,24.21,4.288,227.5,13 / 21,8224897,2019-08-18 17:30:47:434,-0.4303,-0.2221,9.6166,-0.8673,-0.4414,9.7582,-0.0019,-0.0036,-0.0061
82238,47.16746,-1.621581,67.75,24.21,4.288,227.5,13 / 21,8224997,2019-08-18 17:30:47:534,-0.8583,-0.3292,9.3981,-0.8614,-0.4464,9.7585,-0.0064,-0.0095,-0.0068
82239,47.16746,-1.621581,67.75,24.21,4.288,227.5,13 / 21,8225097,2019-08-18 17:30:47:634,-0.5362,-0.2825,10.1253,-0.8374,-0.4467,9.7606,0.0057,-0.0095,-0.0056
82240,47.16746,-1.621581,67.75,24.21,4.288,227.5,13 / 21,8225197,2019-08-18 17:30:47:734,-0.4315,-0.5387,9.692,-0.8294,-0.4353,9.7618,0.0177,0.0017,-0.0032
82241,47.16746,-1.621581,67.75,24.21,4.288,227.5,13 / 21,8225297,2019-08-18 17:30:47:834,-0.3663,-0.2227,10.0876,-0.8237,-0.409,9.7634,0.0067,0.0069,-0.0025
82242,47.16746,-1.621581,67.75,24.21,4.288,227.5,13 / 21,8225397,2019-08-18 17:30:47:934,-0.4985,-0.2203,10.0457,-0.823,-0.4011,9.7638,0.0015,0.0031,-0.0022
82243,47.16746,-1.621581,67.75,24.21,4.288,227.5,13 / 21,8225497,2019-08-18 17:30:48:034,-0.3908,0.1089,9.8644,-0.8061,-0.3872,9.7658,0.0125,-0.0143,-0.0026
82244,47.16746,-1.621581,67.75,24.21,4.288,227.5,13 / 21,8225597,2019-08-18 17:30:48:134,-0.5081,-0.2059,9.6471,-0.7942,-0.376,9.7672,0.0076,-0.0052,-0.0028
82245,47.16746,-1.621581,67.75,24.21,4.288,227.5,13 / 21,8225697,2019-08-18 17:30:48:234,-0.395,-0.234,9.8524,-0.7817,-0.363,9.7687,-0.0056,0.0054,-0.0035
82246,47.16746,-1.621581,67.75,24.21,4.288,227.5,13 / 21,8225797,2019-08-18 17:30:48:334,-0.3423,-0.1478,9.9039,-0.7793,-0.363,9.7689,-0.0038,0.0031,-0.0025
82247,47.16746,-1.621581,67.75,24.21,4.288,227.5,13 / 21,8225897,2019-08-18 17:30:48:434,-0.3878,-0.0658,9.9703,-0.765,-0.3582,9.7702,-0.0051,-0.0057,-0.0031
82248,47.16746,-1.621581,67.75,24.21,4.288,227.5,13 / 21,8225997,2019-08-18 17:30:48:534,-0.5674,-0.1041,9.8937,-0.7525,-0.3592,9.7711,-0.0052,-0.0072,-0.0019
82249,47.16746,-1.621581,67.75,24.21,4.288,227.5,Sep-16,8226097,2019-08-18 17:30:48:634,-0.5811,-0.0186,9.9272,-0.734,-0.3513,9.7728,-0.0036,-0.0113,-0.0022
82250,47.16746,-1.621581,67.75,24.21,4.288,227.5,Sep-16,8226197,2019-08-18 17:30:48:734,-0.222,-0.1496,10.0212,-0.7183,-0.3493,9.7741,0.0012,-0.0064,-0.0009
82251,47.16746,-1.621581,67.75,24.21,4.288,227.5,Sep-16,8226297,2019-08-18 17:30:48:834,-0.3256,0.0216,9.756,-0.7057,-0.3394,9.7753,-0.0029,0.0011,-0.0006
82252,47.16746,-1.621581,67.75,24.21,4.288,227.5,Sep-16,8226397,2019-08-18 17:30:48:934,-0.5387,-0.1131,9.6854,-0.7043,-0.3404,9.7754,0.002,0.0033,-0.0001
82253,47.16746,-1.621581,67.75,24.21,4.288,227.5,Sep-16,8226497,2019-08-18 17:30:49:034,-0.6787,0.0665,9.5806,-0.6933,-0.3335,9.7764,-0.0069,-0.0089,-0.0015
82254,47.16746,-1.621581,67.75,24.21,4.288,227.5,Sep-16,8226597,2019-08-18 17:30:49:134,-0.474,-0.2239,9.7626,-0.6878,-0.3344,9.7768,0.0025,-0.0048,-0.0008
82255,47.16746,-1.621581,67.75,24.21,4.288,227.5,Sep-16,8226697,2019-08-18 17:30:49:234,-0.38,-0.094,10.0008,-0.6669,-0.3231,9.7786,0.0034,-0.0135,-0.0012
82256,47.16746,-1.621581,67.75,24.21,4.288,227.5,Sep-16,8226797,2019-08-18 17:30:49:334,-0.3675,-0.1293,9.6471,-0.6576,-0.3192,9.7794,-0.0056,0.0033,-0.0001
82257,47.16746,-1.621581,67.75,24.21,4.288,227.5,Sep-16,8226897,2019-08-18 17:30:49:434,-0.4189,-0.0365,9.9661,-0.6519,-0.3243,9.7796,-0.0125,0.0026,-0.0023
82258,47.16746,-1.621581,67.75,24.21,4.288,227.5,Sep-16,8226998,2019-08-18 17:30:49:535,-0.4512,-0.1454,9.829,-0.6494,-0.323,9.7798,-0.0028,-0.0038,-0.0022
82259,47.16746,-1.621581,67.75,24.21,4.288,227.5,14 / 21,8227097,2019-08-18 17:30:49:634,-0.4908,-0.2167,9.7698,-0.6401,-0.32,9.7805,0.0007,0.0034,-0.0016
82260,47.166195,-1.623564,53.74,23.14,5.36,227.4,14 / 21,8227197,2019-08-18 17:30:49:734,-0.3669,-0.0988,10.096,-0.6401,-0.3168,9.7806,0.0058,0.0031,-0.0006
82261,47.166195,-1.623564,53.74,23.14,5.36,227.4,14 / 21,8227297,2019-08-18 17:30:49:834,-0.3435,-0.1646,10.1038,-0.6328,-0.3113,9.7813,0.0099,0.0046,-0.0008
82262,47.166195,-1.623564,53.74,23.14,5.36,227.4,14 / 21,8227397,2019-08-18 17:30:49:934,-0.5919,-0.07,10.0254,-0.6343,-0.3006,9.7815,0.0113,0.0051,0.0006
82263,47.166195,-1.623564,53.74,23.14,5.36,227.4,14 / 21,8227497,2019-08-18 17:30:50:034,-0.6212,-0.0383,10.0044,-0.633,-0.294,9.7818,-0.001,-0.0041,-0.0022
82264,47.166195,-1.623564,53.74,23.14,5.36,227.4,14 / 21,8227597,2019-08-18 17:30:50:134,-0.6883,-0.1808,10.0511,-0.6244,-0.2913,9.7824,-0.0033,0.0006,-0.0013
82265,47.166195,-1.623564,53.74,23.14,5.36,227.4,14 / 21,8227697,2019-08-18 17:30:50:234,-0.647,-0.1,10.0679,-0.6257,-0.2898,9.7824,0.0073,-0.0023,-0.0013
82266,47.166195,-1.623564,53.74,23.14,5.36,227.4,14 / 21,8227797,2019-08-18 17:30:50:334,-0.3064,-0.1808,9.8602,-0.6173,-0.2787,9.7832,0.009,-0.0038,-0.0011
82267,47.166195,-1.623564,53.74,23.14,5.36,227.4,14 / 21,8227897,2019-08-18 17:30:50:434,-0.4967,-0.2053,9.8913,-0.6159,-0.2733,9.7835,-0.0023,0.0086,-0.0018
82268,47.166195,-1.623564,53.74,23.14,5.36,227.4,14 / 21,8227997,2019-08-18 17:30:50:534,-0.5536,-0.3059,9.7477,-0.6191,-0.2745,9.7832,-0.0008,0.0057,-0.0023
82269,47.166195,-1.623564,53.74,23.14,5.36,227.4,13 / 20,8228097,2019-08-18 17:30:50:634,-0.5398,-0.3005,9.8566,-0.6167,-0.271,9.7835,0.003,-0.0006,-0.0022
82270,47.166195,-1.623564,53.74,23.14,5.36,227.4,13 / 20,8228197,2019-08-18 17:30:50:734,-0.1969,-0.3202,9.9194,-0.59,-0.2636,9.7853,-0.0037,-0.0013,-0.0028
82271,47.166195,-1.623564,53.74,23.14,5.36,227.4,13 / 20,8228298,2019-08-18 17:30:50:835,-0.5057,-0.2256,10.0511,-0.5881,-0.2632,9.7855,-0.001,0.0033,-0.0026
82272,47.166195,-1.623564,53.74,23.14,5.36,227.4,13 / 20,8228397,2019-08-18 17:30:50:934,-0.4543,-0.1191,9.8332,-0.5872,-0.2617,9.7856,0.0045,0.0056,-0.0031
82273,47.166195,-1.623564,53.74,23.14,5.36,227.4,13 / 20,8228497,2019-08-18 17:30:51:034,-0.4824,-0.2484,9.6321,-0.5897,-0.2547,9.7856,0.0026,0.0059,-0.0009
82274,47.166195,-1.623564,53.74,23.14,5.36,227.4,13 / 20,8228597,2019-08-18 17:30:51:134,-0.4728,0.0156,10.4288,-0.5885,-0.2467,9.7859,0.0006,-0.0021,-0.0008
82275,47.166195,-1.623564,53.74,23.14,5.36,227.4,13 / 20,8228697,2019-08-18 17:30:51:234,-0.4369,-0.0329,10.1481,-0.5836,-0.2441,9.7862,0.0053,-0.0098,0.0009
82276,47.166195,-1.623564,53.74,23.14,5.36,227.4,13 / 20,8228797,2019-08-18 17:30:51:334,-0.2334,-0.0413,9.9434,-0.5564,-0.2334,9.7881,0.0021,-0.007,0.0017
82277,47.166195,-1.623564,53.74,23.14,5.36,227.4,13 / 20,8228897,2019-08-18 17:30:51:434,-0.3962,0.015,9.7171,-0.5381,-0.2032,9.7898,0.0091,0.0022,0.003
82278,47.166195,-1.623564,53.74,23.14,5.36,227.4,13 / 20,8228997,2019-08-18 17:30:51:534,-0.3579,-0.1413,9.6028,-0.5343,-0.1915,9.7902,-0.004,0.0141,0.0013
82279,47.166195,-1.623564,53.74,23.14,5.36,227.4,13 / 20,8229097,2019-08-18 17:30:51:634,-0.3471,-0.2975,9.6309,-0.5419,-0.1911,9.7898,-0.0051,0.0075,-0.0004
82280,47.166195,-1.623564,53.74,23.14,5.36,227.4,13 / 20,8229197,2019-08-18 17:30:51:734,-0.4536,0.1203,10.0852,-0.5397,-0.1828,9.7901,0.0105,-0.0031,0.0012
82281,47.166195,-1.623564,53.74,23.14,5.36,227.4,13 / 20,8229296,2019-08-18 17:30:51:833,-0.407,-0.0257,9.8979,-0.5377,-0.1724,9.7904,0.0067,0.0025,0.0022
82282,47.166195,-1.623564,53.74,23.14,5.36,227.4,13 / 20,8229397,2019-08-18 17:30:51:934,-0.4973,0.0772,10.0774,-0.5371,-0.1646,9.7905,-0.0029,0.0,0.0029
82283,47.166195,-1.623564,53.74,23.14,5.36,227.4,13 / 20,8229497,2019-08-18 17:30:52:034,-0.3309,0.0575,9.8087,-0.537,-0.1612,9.7906,-0.0006,0.0034,0.0043
82284,47.166195,-1.623564,53.74,23.14,5.36,227.4,13 / 20,8229597,2019-08-18 17:30:52:134,-0.5698,0.1568,9.8123,-0.5377,-0.1532,9.7907,0.0013,0.0014,0.0058
82285,47.166195,-1.623564,53.74,23.14,5.36,227.4,13 / 20,8229698,2019-08-18 17:30:52:235,-0.5027,0.1209,9.8314,-0.5371,-0.1482,9.7908,0.0022,0.0012,0.0065
82286,47.166195,-1.623564,53.74,23.14,5.36,227.4,13 / 20,8229797,2019-08-18 17:30:52:334,-0.6679,0.0647,9.9452,-0.5384,-0.1414,9.7908,-0.0072,-0.0007,0.0065
82287,47.166195,-1.623564,53.74,23.14,5.36,227.4,13 / 20,8229898,2019-08-18 17:30:52:435,-0.383,0.0437,10.084,-0.5432,-0.1434,9.7905,-0.0093,0.0081,0.0065
82288,47.166195,-1.623564,53.74,23.14,5.36,227.4,13 / 20,8229997,2019-08-18 17:30:52:534,-0.462,0.067,9.7327,-0.5405,-0.1428,9.7907,-0.003,-0.0098,0.0042
82289,47.166195,-1.623564,53.74,23.14,5.36,227.4,13 / 20,8230097,2019-08-18 17:30:52:634,-0.465,0.0192,10.0685,-0.535,-0.1373,9.7911,0.0038,-0.0092,0.0039
82290,47.166195,-1.623564,53.74,23.14,5.36,227.4,13 / 20,8230197,2019-08-18 17:30:52:734,-0.3058,0.185,9.8057,-0.5273,-0.1335,9.7916,-0.0034,-0.0013,0.0064
82291,47.166195,-1.623564,53.74,23.14,5.36,227.4,13 / 20,8230297,2019-08-18 17:30:52:834,-0.5488,0.1275,10.026,-0.5256,-0.1385,9.7916,-0.0025,0.0031,0.0045
82292,47.166195,-1.623564,53.74,23.14,5.36,227.4,13 / 20,8230397,2019-08-18 17:30:52:934,-0.4764,-0.0575,10.0679,-0.5193,-0.1333,9.792,0.0029,-0.0059,0.0063
82293,47.166195,-1.623564,53.74,23.14,5.36,227.4,13 / 20,8230497,2019-08-18 17:30:53:034,-0.5494,-0.1263,9.7016,-0.5174,-0.1265,9.7922,0.0023,-0.0004,0.0076
82294,47.166195,-1.623564,53.74,23.14,5.36,227.4,13 / 20,8230597,2019-08-18 17:30:53:134,-0.6584,-0.0186,9.5777,-0.5185,-0.1234,9.7922,-0.0004,0.003,0.0058
82295,47.166195,-1.623564,53.74,23.14,5.36,227.4,13 / 20,8230697,2019-08-18 17:30:53:234,-0.6099,-0.1287,9.8919,-0.5255,-0.1248,9.7918,0.0051,0.0092,0.0055
82296,47.166195,-1.623564,53.74,23.14,5.36,227.4,13 / 20,8230797,2019-08-18 17:30:53:334,-0.8409,-0.1053,9.5058,-0.5392,-0.1214,9.7911,0.0085,0.0046,0.0046
82297,47.166195,-1.623564,53.74,23.14,5.36,227.4,13 / 20,8230897,2019-08-18 17:30:53:434,-0.8235,-0.2274,10.075,-0.5514,-0.1126,9.7905,0.0054,-0.0029,0.0051
82298,47.166195,-1.623564,53.74,23.14,5.36,227.4,13 / 20,8230998,2019-08-18 17:30:53:535,-1.0492,-0.1401,9.7548,-0.5489,-0.1118,9.7906,-0.0042,-0.0135,0.0046
82299,47.166195,-1.623564,53.74,23.14,5.36,227.4,Dec-19,8231098,2019-08-18 17:30:53:635,-0.4189,0.1886,9.9314,-0.5385,-0.1281,9.791,-0.0078,0.006,0.0038
82300,47.166195,-1.623564,53.74,23.14,5.36,227.4,Dec-19,8231198,2019-08-18 17:30:53:735,-0.6332,-0.097,9.7243,-0.546,-0.1337,9.7905,0.0219,0.0237,0.0045
82301,47.166195,-1.623564,53.74,23.14,5.36,227.4,Dec-19,8231296,2019-08-18 17:30:53:833,-0.4758,-0.5501,9.8009,-0.5769,-0.1102,9.789,0.018,-0.0044,0.0028
82302,47.166195,-1.623564,53.74,23.14,5.36,227.4,Dec-19,8231397,2019-08-18 17:30:53:934,-0.8523,0.0305,9.786,-0.568,-0.1084,9.7896,-0.0011,-0.0199,-0.0035
82303,47.166195,-1.623564,53.74,23.14,5.36,227.4,Dec-19,8231497,2019-08-18 17:30:54:034,-0.5686,-0.1909,9.3813,-0.5512,-0.1313,9.7903,-0.0219,-0.0041,-0.0058
82304,47.166195,-1.623564,53.74,23.14,5.36,227.4,Dec-19,8231597,2019-08-18 17:30:54:134,-0.2214,-0.2664,9.6656,-0.5537,-0.1392,9.79,-0.0087,0.0057,-0.0042
82305,47.166195,-1.623564,53.74,23.14,5.36,227.4,Dec-19,8231697,2019-08-18 17:30:54:234,-0.535,-0.1718,9.9643,-0.5497,-0.1541,9.79,-0.0053,-0.0077,-0.0029
82306,47.166195,-1.623564,53.74,23.14,5.36,227.4,Dec-19,8231797,2019-08-18 17:30:54:334,-0.1328,-0.3681,10.4318,-0.5339,-0.154,9.7909,0.0178,-0.0185,-0.0028
82307,47.166195,-1.623564,53.74,23.14,5.36,227.4,Dec-19,8231897,2019-08-18 17:30:54:434,-0.2052,-0.0395,9.0844,-0.5177,-0.1343,9.7921,0.0159,-0.0005,-0.0029
82308,47.166195,-1.623564,53.74,23.14,5.36,227.4,Dec-19,8231997,2019-08-18 17:30:54:534,-0.8008,-0.5249,9.9613,-0.521,-0.1362,9.7919,-0.0044,0.0059,-0.0063
82309,47.166195,-1.623564,53.74,23.14,5.36,227.4,13 / 20,8232097,2019-08-18 17:30:54:634,-0.4489,-0.3771,10.0433,-0.5222,-0.1628,9.7914,-0.0234,0.0014,-0.0089
82310,47.166195,-1.623564,53.74,23.14,5.36,227.4,13 / 20,8232197,2019-08-18 17:30:54:734,-0.4782,-0.3675,9.6782,-0.5219,-0.1782,9.7911,-0.0151,0.001,-0.0085
82311,47.166195,-1.623564,53.74,23.14,5.36,227.4,13 / 20,8232297,2019-08-18 17:30:54:834,-0.6919,-0.6027,9.8751,-0.5285,-0.1902,9.7906,0.0085,0.0018,-0.0058
82312,47.166195,-1.623564,53.74,23.14,5.36,227.4,13 / 20,8232397,2019-08-18 17:30:54:934,-0.4728,-0.7027,9.9428,-0.5274,-0.1943,9.7905,0.0001,-0.0022,-0.0078
82313,47.166195,-1.623564,53.74,23.14,5.36,227.4,13 / 20,8232497,2019-08-18 17:30:55:034,-0.4159,-0.4872,10.19,-0.5314,-0.2046,9.7901,-0.0226,-0.0032,-0.0083
82314,47.166195,-1.623564,53.74,23.14,5.36,227.4,13 / 20,8232597,2019-08-18 17:30:55:134,-0.7888,-0.3633,9.8626,-0.5297,-0.2269,9.7897,-0.0287,-0.0042,-0.0117
82315,47.166195,-1.623564,53.74,23.14,5.36,227.4,13 / 20,8232697,2019-08-18 17:30:55:234,-0.6171,-0.8068,10.2205,-0.528,-0.2519,9.7892,0.0152,0.0011,-0.0085
82316,47.166195,-1.623564,53.74,23.14,5.36,227.4,13 / 20,8232797,2019-08-18 17:30:55:334,-0.7745,-0.4016,9.8823,-0.537,-0.2449,9.7889,0.0117,0.0104,-0.0063
82317,47.166195,-1.623564,53.74,23.14,5.36,227.4,13 / 20,8232897,2019-08-18 17:30:55:434,-0.6985,-0.5728,9.5783,-0.5552,-0.2429,9.7879,0.0093,0.0093,-0.0072
82318,47.166195,-1.623564,53.74,23.14,5.36,227.4,13 / 20,8232997,2019-08-18 17:30:55:534,-0.6709,-0.7236,9.701,-0.5634,-0.2464,9.7874,0.0026,0.0037,-0.0081
82319,47.166195,-1.623564,53.74,23.14,5.36,227.4,13 / 20,8233097,2019-08-18 17:30:55:634,-0.8583,-0.7626,9.9045,-0.5754,-0.2578,9.7864,-0.0055,0.0034,-0.0137
82320,47.166195,-1.623564,53.74,23.14,5.36,227.4,13 / 20,8233197,2019-08-18 17:30:55:734,-0.568,-0.8529,10.1104,-0.57,-0.2762,9.7862,-0.0082,-0.0126,-0.018
82321,47.166195,-1.623564,53.74,23.14,5.36,227.4,13 / 20,8233297,2019-08-18 17:30:55:834,-0.571,-0.9242,9.6166,-0.5576,-0.2938,9.7864,0.0004,-0.006,-0.0217
82322,47.166195,-1.623564,53.74,23.14,5.36,227.4,13 / 20,8233397,2019-08-18 17:30:55:934,-0.5895,-0.7949,10.1702,-0.5615,-0.3077,9.7857,0.0022,0.0073,-0.0208
82323,47.166195,-1.623564,53.74,23.14,5.36,227.4,13 / 20,8233497,2019-08-18 17:30:56:034,-0.8607,-0.9804,9.6638,-0.5615,-0.3235,9.7852,0.0067,0.0018,-0.0223
82324,47.166195,-1.623564,53.74,23.14,5.36,227.4,13 / 20,8233597,2019-08-18 17:30:56:134,-0.3681,-0.823,9.6447,-0.5669,-0.3249,9.7849,0.0099,0.0033,-0.0212
82325,47.166195,-1.623564,53.74,23.14,5.36,227.4,13 / 20,8233697,2019-08-18 17:30:56:234,-0.5728,-0.8003,9.3819,-0.5677,-0.3362,9.7844,0.0022,0.0032,-0.0215
82326,47.166195,-1.623564,53.74,23.14,5.36,227.4,13 / 20,8233797,2019-08-18 17:30:56:334,-0.4141,-0.7919,9.4789,-0.5715,-0.3471,9.7838,-0.0076,0.0065,-0.021
82327,47.166195,-1.623564,53.74,23.14,5.36,227.4,13 / 20,8233897,2019-08-18 17:30:56:434,-0.4997,-0.7003,9.668,-0.5731,-0.3712,9.7829,-0.0021,0.0074,-0.0226
82328,47.166195,-1.623564,53.74,23.14,5.36,227.4,13 / 20,8233998,2019-08-18 17:30:56:535,-0.4812,-0.7027,9.5507,-0.5763,-0.3788,9.7824,-0.009,0.0082,-0.0213
82329,47.166195,-1.623564,53.74,23.14,5.36,227.4,13 / 21,8234097,2019-08-18 17:30:56:634,-0.4794,-0.7961,9.8045,-0.5788,-0.3972,9.7815,-0.0173,0.01,-0.0199
82330,47.166195,-1.623564,53.74,23.14,5.36,227.4,13 / 21,8234197,2019-08-18 17:30:56:734,-0.3639,-0.6913,9.4328,-0.5844,-0.419,9.7803,-0.0078,0.0063,-0.0207
82331,47.166195,-1.623564,53.74,23.14,5.36,227.4,13 / 21,8234297,2019-08-18 17:30:56:834,-0.6434,-0.6255,9.2856,-0.5809,-0.4311,9.7799,0.0017,-0.004,-0.02
82332,47.166195,-1.623564,53.74,23.14,5.36,227.4,13 / 21,8234397,2019-08-18 17:30:56:934,-0.4201,-0.6165,9.8985,-0.5699,-0.432,9.7805,0.0074,-0.0056,-0.0191
82333,47.166195,-1.623564,53.74,23.14,5.36,227.4,13 / 21,8234497,2019-08-18 17:30:57:034,-0.3663,-0.6871,10.3791,-0.5599,-0.4292,9.7812,0.0128,-0.0133,-0.0215
82334,47.166195,-1.623564,53.74,23.14,5.36,227.4,13 / 21,8234597,2019-08-18 17:30:57:134,-0.2549,-0.9307,10.4174,-0.5186,-0.4358,9.7832,-0.0005,-0.0225,-0.0304
82335,47.166195,-1.623564,53.74,23.14,5.36,227.4,13 / 21,8234697,2019-08-18 17:30:57:234,0.027,-1.0187,10.2965,-0.5007,-0.4443,9.7838,0.0294,0.007,-0.0271
82336,47.166195,-1.623564,53.74,23.14,5.36,227.4,13 / 21,8234797,2019-08-18 17:30:57:334,-0.3483,-0.8446,9.8817,-0.4963,-0.4265,9.7848,0.0311,0.0146,-0.0251
82337,47.166195,-1.623564,53.74,23.14,5.36,227.4,13 / 21,8234897,2019-08-18 17:30:57:434,0.1036,-0.4513,10.2408,-0.504,-0.4163,9.7848,0.0261,0.028,-0.0232
82338,47.166195,-1.623564,53.74,23.14,5.36,227.4,13 / 21,8234997,2019-08-18 17:30:57:534,-0.2681,-0.6452,9.5148,-0.5253,-0.3932,9.7847,0.0212,0.0205,-0.0267
82339,47.166195,-1.623564,53.74,23.14,5.36,227.4,13 / 21,8235097,2019-08-18 17:30:57:634,-0.2675,-0.6662,10.6293,-0.5258,-0.3991,9.7844,0.0052,-0.0156,-0.0314
82340,47.166195,-1.623564,53.74,23.14,5.36,227.4,14 / 22,8235197,2019-08-18 17:30:57:734,-0.5213,-1.002,10.4473,-0.4974,-0.405,9.7857,0.0112,-0.0265,-0.0295
82341,47.166195,-1.623564,53.74,23.14,5.36,227.4,14 / 22,8235297,2019-08-18 17:30:57:834,-0.538,-0.8469,10.2289,-0.4827,-0.4086,9.7862,0.0072,-0.0019,-0.0269
82342,47.166195,-1.623564,53.74,23.14,5.36,227.4,14 / 22,8235397,2019-08-18 17:30:57:934,-0.5656,-0.829,9.9392,-0.4866,-0.4234,9.7854,-0.0018,0.0009,-0.0292
82343,47.166195,-1.623564,53.74,23.14,5.36,227.4,14 / 22,8235497,2019-08-18 17:30:58:034,-0.5757,-0.89,10.017,-0.4865,-0.4364,9.7848,0.0028,-0.0133,-0.0319
82344,47.166195,-1.623564,53.74,23.14,5.36,227.4,14 / 22,8235598,2019-08-18 17:30:58:135,-0.4135,-1.0247,9.7285,-0.4743,-0.4386,9.7854,0.0077,-0.0086,-0.0299
82345,47.166195,-1.623564,53.74,23.14,5.36,227.4,14 / 22,8235697,2019-08-18 17:30:58:234,-0.5692,-0.8428,9.5962,-0.4687,-0.4452,9.7853,0.0047,0.006,-0.0287
82346,47.166195,-1.623564,53.74,23.14,5.36,227.4,14 / 22,8235798,2019-08-18 17:30:58:335,-0.4794,-0.75,9.9715,-0.4736,-0.4704,9.7839,-0.0173,-0.0147,-0.0305
82347,47.166195,-1.623564,53.74,23.14,5.36,227.4,14 / 22,8235897,2019-08-18 17:30:58:434,-0.1951,-0.9014,9.7752,-0.4637,-0.4899,9.7834,-0.0133,-0.0127,-0.0312
82348,47.166195,-1.623564,53.74,23.14,5.36,227.4,14 / 22,8235997,2019-08-18 17:30:58:534,-0.6338,-0.8847,10.0361,-0.4567,-0.5088,9.7828,0.002,0.0033,-0.0277
82349,47.166195,-1.623564,53.74,23.14,5.36,227.4,14 / 20,8236097,2019-08-18 17:30:58:634,-0.2908,-0.9792,9.7099,-0.4554,-0.517,9.7824,-0.0134,-0.0061,-0.0276
82350,47.16492,-1.625665,61.47,23.46,10.72,231.5,14 / 20,8236197,2019-08-18 17:30:58:734,-0.6715,-0.9032,9.6207,-0.4417,-0.5533,9.7811,-0.0165,-0.0062,-0.0273
82351,47.16492,-1.625665,61.47,23.46,10.72,231.5,14 / 20,8236297,2019-08-18 17:30:58:834,-0.5967,-0.7709,9.9404,-0.443,-0.5652,9.7803,0.0098,-0.0032,-0.0218
82352,47.16492,-1.625665,61.47,23.46,10.72,231.5,14 / 20,8236397,2019-08-18 17:30:58:934,-0.4578,-0.8841,9.8141,-0.4383,-0.5625,9.7807,0.0202,-0.0035,-0.0198
82353,47.16492,-1.625665,61.47,23.46,10.72,231.5,14 / 20,8236497,2019-08-18 17:30:59:034,-0.4267,-0.9038,9.8488,-0.4341,-0.5533,9.7814,0.0245,-0.0053,-0.0194
82354,47.16492,-1.625665,61.47,23.46,10.72,231.5,14 / 20,8236597,2019-08-18 17:30:59:134,-0.2902,-0.4836,9.2365,-0.4406,-0.5294,9.7824,0.0101,0.0217,-0.0186
82355,47.16492,-1.625665,61.47,23.46,10.72,231.5,14 / 20,8236697,2019-08-18 17:30:59:234,-0.1933,-0.507,9.1958,-0.4586,-0.5364,9.7812,-0.0086,0.0261,-0.0194
82356,47.16492,-1.625665,61.47,23.46,10.72,231.5,14 / 20,8236797,2019-08-18 17:30:59:334,-0.4135,-0.5692,9.2119,-0.4751,-0.5633,9.7789,-0.0187,0.0109,-0.0226
82357,47.16492,-1.625665,61.47,23.46,10.72,231.5,14 / 20,8236898,2019-08-18 17:30:59:435,-0.304,-0.9535,9.8685,-0.4683,-0.5776,9.7784,-0.0003,-0.0091,-0.0246
82358,47.16492,-1.625665,61.47,23.46,10.72,231.5,14 / 20,8237000,2019-08-18 17:30:59:537,-0.4632,-0.5932,9.7147,-0.4586,-0.5808,9.7787,0.0077,-0.0094,-0.0223
82359,47.16492,-1.625665,61.47,23.46,10.72,231.5,13 / 20,8237097,2019-08-18 17:30:59:634,-0.3507,-0.6123,9.7674,-0.4459,-0.5721,9.7798,0.01,0.0035,-0.0239
82360,47.16492,-1.625665,61.47,23.46,10.72,231.5,13 / 20,8237197,2019-08-18 17:30:59:734,-0.4219,-0.8194,9.8189,-0.4438,-0.5709,9.78,0.0008,0.0118,-0.0304
82361,47.16492,-1.625665,61.47,23.46,10.72,231.5,13 / 20,8237298,2019-08-18 17:30:59:835,-0.0263,-0.9331,9.6285,-0.4475,-0.5769,9.7794,0.0076,0.0201,-0.0288
82362,47.16492,-1.625665,61.47,23.46,10.72,231.5,13 / 20,8237397,2019-08-18 17:30:59:934,-0.2035,-0.6602,9.7477,-0.4521,-0.5766,9.7792,0.0041,0.0027,-0.0292
82363,47.16492,-1.625665,61.47,23.46,10.72,231.5,13 / 20,8237497,2019-08-18 17:31:00:034,-0.1238,-0.6889,10.5485,-0.428,-0.576,9.7804,0.0103,-0.0201,-0.0335
82364,47.16492,-1.625665,61.47,23.46,10.72,231.5,13 / 20,8237597,2019-08-18 17:31:00:134,0.0898,-1.0313,10.1876,-0.4017,-0.575,9.7815,0.0047,-0.0187,-0.0321
82365,47.16492,-1.625665,61.47,23.46,10.72,231.5,13 / 20,8237697,2019-08-18 17:31:00:234,-0.3818,-0.9379,9.7949,-0.3804,-0.5819,9.782,-0.0126,-0.0106,-0.0295
82366,47.16492,-1.625665,61.47,23.46,10.72,231.5,13 / 20,8237797,2019-08-18 17:31:00:334,-0.4554,-0.9331,9.7051,-0.3686,-0.6009,9.7813,-0.0133,0.0138,-0.0301
82367,47.16492,-1.625665,61.47,23.46,10.72,231.5,13 / 20,8237898,2019-08-18 17:31:00:435,-0.5231,-1.0313,9.7153,-0.3816,-0.6222,9.7795,-0.007,0.0266,-0.0285
82368,47.16492,-1.625665,61.47,23.46,10.72,231.5,13 / 20,8237996,2019-08-18 17:31:00:533,-0.5177,-0.8912,9.9841,-0.4065,-0.6411,9.7772,-0.0086,0.0227,-0.0294
82369,47.16492,-1.625665,61.47,23.46,10.72,231.5,16 / 21,8238098,2019-08-18 17:31:00:635,-0.4572,-1.0822,9.4735,-0.4147,-0.6703,9.7749,-0.0051,0.0015,-0.032
82370,47.16492,-1.625665,61.47,23.46,10.72,231.5,16 / 21,8238197,2019-08-18 17:31:00:734,-0.5775,-1.1055,9.865,-0.4181,-0.6746,9.7745,0.0064,0.0015,-0.0321
82371,47.16492,-1.625665,61.47,23.46,10.72,231.5,16 / 21,8238297,2019-08-18 17:31:00:834,-0.4902,-1.2635,9.6908,-0.4039,-0.6775,9.7749,0.0096,-0.0156,-0.0321
82372,47.16492,-1.625665,61.47,23.46,10.72,231.5,16 / 21,8238397,2019-08-18 17:31:00:934,-0.6631,-1.0684,10.3187,-0.3965,-0.6855,9.7746,0.0094,0.0118,-0.0362
82373,47.16492,-1.625665,61.47,23.46,10.72,231.5,16 / 21,8238497,2019-08-18 17:31:01:034,-0.6548,-1.1378,9.9505,-0.4119,-0.6902,9.7737,0.0091,0.0122,-0.0349
82374,47.16492,-1.625665,61.47,23.46,10.72,231.5,16 / 21,8238597,2019-08-18 17:31:01:134,-0.4662,-1.4078,10.2468,-0.4085,-0.6953,9.7734,0.0022,-0.0099,-0.0378
82375,47.16492,-1.625665,61.47,23.46,10.72,231.5,16 / 21,8238697,2019-08-18 17:31:01:234,0.0144,-0.7955,9.744,-0.4011,-0.7096,9.7727,-0.0041,-0.0046,-0.0387
82376,47.16492,-1.625665,61.47,23.46,10.72,231.5,16 / 21,8238797,2019-08-18 17:31:01:334,-0.2256,-1.2049,9.6291,-0.3953,-0.7199,9.7722,0.0029,-0.0031,-0.0354
82377,47.16492,-1.625665,61.47,23.46,10.72,231.5,16 / 21,8238897,2019-08-18 17:31:01:434,-0.0939,-0.9948,9.9667,-0.3872,-0.7316,9.7717,0.0067,0.0086,-0.0385
82378,47.16492,-1.625665,61.47,23.46,10.72,231.5,16 / 21,8238999,2019-08-18 17:31:01:536,-0.4357,-1.1534,9.862,-0.3917,-0.7376,9.771,0.0005,0.0109,-0.0376
82379,47.16492,-1.625665,61.47,23.46,10.72,231.5,17 / 22,8239097,2019-08-18 17:31:01:634,-0.3327,-0.9906,10.3019,-0.3948,-0.7504,9.7699,-0.004,-0.0029,-0.0369
82380,47.16492,-1.625665,61.47,23.46,10.72,231.5,17 / 22,8239197,2019-08-18 17:31:01:734,-0.3746,-1.0828,9.9811,-0.3907,-0.7576,9.7695,0.0135,0.0058,-0.0373
82381,47.16492,-1.625665,61.47,23.46,10.72,231.5,17 / 22,8239297,2019-08-18 17:31:01:834,-0.2023,-1.3407,9.8368,-0.3943,-0.7466,9.7702,0.0167,0.0062,-0.0377
82382,47.16492,-1.625665,61.47,23.46,10.72,231.5,17 / 22,8239397,2019-08-18 17:31:01:934,-0.3447,-1.0241,9.8368,-0.3939,-0.7469,9.7702,0.0049,0.0049,-0.037
82383,47.16492,-1.625665,61.47,23.46,10.72,231.5,17 / 22,8239497,2019-08-18 17:31:02:034,-0.3375,-1.0229,10.275,-0.3858,-0.7595,9.7696,-0.0022,-0.0033,-0.0402
82384,47.16492,-1.625665,61.47,23.46,10.72,231.5,17 / 22,8239597,2019-08-18 17:31:02:134,-0.1586,-0.89,10.2594,-0.384,-0.7658,9.7692,-0.0032,-0.0003,-0.0394
82385,47.16492,-1.625665,61.47,23.46,10.72,231.5,17 / 22,8239698,2019-08-18 17:31:02:235,-0.3692,-1.2629,10.1804,-0.3718,-0.7766,9.7688,0.0067,-0.0051,-0.0389
82386,47.16492,-1.625665,61.47,23.46,10.72,231.5,17 / 22,8239797,2019-08-18 17:31:02:334,-0.4201,-1.2372,9.7889,-0.3661,-0.7795,9.7688,0.0058,-0.0053,-0.0374
82387,47.16492,-1.625665,61.47,23.46,10.72,231.5,17 / 22,8239897,2019-08-18 17:31:02:434,-0.5943,-1.1121,10.0493,-0.3691,-0.7914,9.7677,0.0004,0.0081,-0.0372
82388,47.16492,-1.625665,61.47,23.46,10.72,231.5,17 / 22,8239997,2019-08-18 17:31:02:534,-0.4375,-1.2635,10.0828,-0.368,-0.7988,9.7671,0.0041,-0.005,-0.0408
82389,47.16492,-1.625665,61.47,23.46,10.72,231.5,18 / 22,8240097,2019-08-18 17:31:02:634,-0.5207,-1.2492,9.6261,-0.3626,-0.805,9.7668,0.0042,-0.0079,-0.0396
82390,47.16492,-1.625665,61.47,23.46,10.72,231.5,18 / 22,8240197,2019-08-18 17:31:02:734,-0.465,-1.0816,9.6567,-0.3549,-0.8123,9.7665,0.0016,-0.0016,-0.038
82391,47.16492,-1.625665,61.47,23.46,10.72,231.5,18 / 22,8240300,2019-08-18 17:31:02:837,-0.3788,-1.0079,9.6848,-0.3656,-0.8264,9.7649,0.0014,0.0118,-0.0365
82392,47.16492,-1.625665,61.47,23.46,10.72,231.5,18 / 22,8240397,2019-08-18 17:31:02:934,-0.3543,-1.2456,9.4807,-0.3783,-0.8322,9.764,0.004,0.0158,-0.0367
82393,47.16492,-1.625665,61.47,23.46,10.72,231.5,18 / 22,8240497,2019-08-18 17:31:03:034,-0.3345,-1.0983,9.2245,-0.3908,-0.835,9.7632,0.0043,0.0209,-0.037
82394,47.16492,-1.625665,61.47,23.46,10.72,231.5,18 / 22,8240597,2019-08-18 17:31:03:134,-0.5332,-1.1085,9.6106,-0.4129,-0.8516,9.7609,0.0066,0.0109,-0.0371
82395,47.16492,-1.625665,61.47,23.46,10.72,231.5,18 / 22,8240697,2019-08-18 17:31:03:234,-0.4746,-1.157,9.9913,-0.4166,-0.8529,9.7606,0.0076,0.0023,-0.038
82396,47.16492,-1.625665,61.47,23.46,10.72,231.5,18 / 22,8240796,2019-08-18 17:31:03:333,-0.55,-1.0008,9.8865,-0.4099,-0.8576,9.7605,0.0041,-0.005,-0.0373
82397,47.16492,-1.625665,61.47,23.46,10.72,231.5,18 / 22,8240897,2019-08-18 17:31:03:434,-0.486,-1.0762,9.9787,-0.4079,-0.8584,9.7605,-0.0007,0.0,-0.0372
82398,47.16492,-1.625665,61.47,23.46,10.72,231.5,18 / 22,8240997,2019-08-18 17:31:03:534,-0.4507,-0.9427,9.7548,-0.4037,-0.8683,9.7598,-0.0022,-0.0004,-0.0355
82399,47.16492,-1.625665,61.47,23.46,10.72,231.5,18 / 22,8241097,2019-08-18 17:31:03:634,-0.7978,-1.2959,9.7171,-0.4009,-0.872,9.7596,0.0002,-0.0087,-0.0357
82400,47.16492,-1.625665,61.47,23.46,10.72,231.5,18 / 22,8241197,2019-08-18 17:31:03:734,-0.4489,-1.072,10.0218,-0.3859,-0.8711,9.7603,-0.0007,-0.0101,-0.0339
82401,47.16492,-1.625665,61.47,23.46,10.72,231.5,18 / 22,8241296,2019-08-18 17:31:03:833,-0.638,-1.005,9.8943,-0.3778,-0.8738,9.7603,0.0058,-0.0072,-0.0335
82402,47.16492,-1.625665,61.47,23.46,10.72,231.5,18 / 22,8241397,2019-08-18 17:31:03:934,-0.5039,-0.8769,10.0828,-0.3661,-0.8733,9.7608,0.01,-0.0019,-0.0307
82403,47.16492,-1.625665,61.47,23.46,10.72,231.5,18 / 22,8241497,2019-08-18 17:31:04:034,-0.4351,-0.8535,9.8494,-0.3633,-0.8738,9.7609,-0.0044,-0.0028,-0.0309
82404,47.16492,-1.625665,61.47,23.46,10.72,231.5,18 / 22,8241597,2019-08-18 17:31:04:134,-0.4219,-0.8434,9.7327,-0.3532,-0.8807,9.7606,0.0141,-0.0074,-0.0305
82405,47.16492,-1.625665,61.47,23.46,10.72,231.5,18 / 22,8241697,2019-08-18 17:31:04:234,-0.4171,-1.1971,9.9901,-0.3477,-0.8743,9.7614,0.0103,-0.0055,-0.0316
82406,47.16492,-1.625665,61.47,23.46,10.72,231.5,18 / 22,8241797,2019-08-18 17:31:04:334,-0.371,-0.9601,9.9278,-0.3412,-0.8656,9.7624,0.0098,0.0001,-0.0316
82407,47.16492,-1.625665,61.47,23.46,10.72,231.5,18 / 22,8241896,2019-08-18 17:31:04:433,-0.201,-1.1193,9.996,-0.3429,-0.8632,9.7626,0.0026,0.0028,-0.0347
82408,47.16492,-1.625665,61.47,23.46,10.72,231.5,18 / 22,8241997,2019-08-18 17:31:04:534,-0.1801,-1.0014,9.583,-0.3423,-0.8685,9.7621,0.0053,0.0082,-0.0399
82409,47.16492,-1.625665,61.47,23.46,10.72,231.5,18 / 22,8242097,2019-08-18 17:31:04:634,-0.2597,-1.0923,9.7117,-0.3412,-0.8769,9.7614,0.0021,0.0055,-0.0445
82410,47.16492,-1.625665,61.47,23.46,10.72,231.5,18 / 22,8242197,2019-08-18 17:31:04:734,-0.1556,-1.1827,10.2007,-0.3399,-0.8803,9.7611,0.004,0.0091,-0.0407
82411,47.16492,-1.625665,61.47,23.46,10.72,231.5,18 / 22,8242297,2019-08-18 17:31:04:834,-0.3273,-1.4934,10.2917,-0.3399,-0.8832,9.7609,0.0292,0.0131,-0.041
82412,47.16492,-1.625665,61.47,23.46,10.72,231.5,18 / 22,8242397,2019-08-18 17:31:04:934,-0.3154,-0.9176,9.4023,-0.342,-0.8595,9.7629,-0.0055,0.0034,-0.0398
82413,47.16492,-1.625665,61.47,23.46,10.72,231.5,18 / 22,8242497,2019-08-18 17:31:05:034,-0.3004,-0.9505,9.8871,-0.3389,-0.8721,9.7619,-0.0112,-0.0031,-0.0424
82414,47.16492,-1.625665,61.47,23.46,10.72,231.5,18 / 22,8242597,2019-08-18 17:31:05:134,-0.2962,-0.9697,9.9565,-0.3159,-0.8853,9.7615,-0.0014,-0.0123,-0.0459
82415,47.16492,-1.625665,61.47,23.46,10.72,231.5,18 / 22,8242697,2019-08-18 17:31:05:234,-0.3483,-1.0786,10.2109,-0.3,-0.8933,9.7613,-0.0069,-0.0227,-0.0444
82416,47.16492,-1.625665,61.47,23.46,10.72,231.5,18 / 22,8242797,2019-08-18 17:31:05:334,-0.155,-1.1319,10.2666,-0.2714,-0.8896,9.7624,0.0272,-0.0053,-0.038
82417,47.16492,-1.625665,61.47,23.46,10.72,231.5,18 / 22,8242897,2019-08-18 17:31:05:434,-0.216,-1.163,9.9248,-0.267,-0.8742,9.764,0.0253,0.0038,-0.0375
82418,47.16492,-1.625665,61.47,23.46,10.72,231.5,18 / 22,8243000,2019-08-18 17:31:05:537,-0.2513,-0.8757,9.8111,-0.2661,-0.8627,9.765,0.0049,0.002,-0.0403
82419,47.16492,-1.625665,61.47,23.46,10.72,231.5,18 / 22,8243099,2019-08-18 17:31:05:636,-0.1945,-0.9367,9.6561,-0.2633,-0.8677,9.7646,-0.0087,-0.0016,-0.0435
82420,47.16492,-1.625665,61.47,23.46,10.72,231.5,18 / 22,8243197,2019-08-18 17:31:05:734,-0.2681,-0.8739,10.0146,-0.2498,-0.8881,9.7632,-0.0174,-0.0122,-0.0434
82421,47.16492,-1.625665,61.47,23.46,10.72,231.5,18 / 22,8243297,2019-08-18 17:31:05:834,-0.0951,-1.1726,9.7446,-0.2413,-0.8947,9.7628,-0.0067,-0.0091,-0.0409
82422,47.16492,-1.625665,61.47,23.46,10.72,231.5,18 / 22,8243397,2019-08-18 17:31:05:934,-0.1999,-1.1929,9.7207,-0.2344,-0.9008,9.7624,0.0106,0.0074,-0.0387
82423,47.16492,-1.625665,61.47,23.46,10.72,231.5,18 / 22,8243497,2019-08-18 17:31:06:034,-0.316,-1.0499,9.9039,-0.2335,-0.8931,9.7631,0.0161,0.0047,-0.0384
82424,47.16492,-1.625665,61.47,23.46,10.72,231.5,18 / 22,8243597,2019-08-18 17:31:06:134,-0.1783,-0.896,9.5669,-0.2186,-0.8864,9.7641,0.0049,-0.0054,-0.037
82425,47.16492,-1.625665,61.47,23.46,10.72,231.5,18 / 22,8243697,2019-08-18 17:31:06:234,-0.1113,-0.9828,9.8338,-0.2214,-0.8972,9.763,-0.0381,-0.0031,-0.0404
82426,47.16492,-1.625665,61.47,23.46,10.72,231.5,18 / 22,8243797,2019-08-18 17:31:06:334,0.1455,-0.9655,10.5036,-0.2166,-0.9241,9.7606,-0.0154,-0.0016,-0.0411
82427,47.16492,-1.625665,61.47,23.46,10.72,231.5,18 / 22,8243897,2019-08-18 17:31:06:434,-0.1514,-1.054,9.507,-0.2132,-0.9403,9.7591,0.0015,0.0327,-0.0395
82428,47.16492,-1.625665,61.47,23.46,10.72,231.5,18 / 22,8243997,2019-08-18 17:31:06:534,-0.2232,-1.1738,9.5944,-0.2277,-0.9439,9.7585,0.0108,-0.0068,-0.0416
82429,47.16492,-1.625665,61.47,23.46,10.72,231.5,18 / 22,8244098,2019-08-18 17:31:06:635,-0.073,-1.0109,9.7369,-0.2151,-0.9387,9.7593,0.0008,-0.0089,-0.0431
82430,47.16492,-1.625665,61.47,23.46,10.72,231.5,18 / 22,8244196,2019-08-18 17:31:06:733,-0.1316,-1.0469,9.9811,-0.206,-0.94,9.7593,0.0042,0.0024,-0.0432
82431,47.16492,-1.625665,61.47,23.46,10.72,231.5,18 / 22,8244297,2019-08-18 17:31:06:834,-0.3088,-1.2456,9.5866,-0.1995,-0.9402,9.7594,0.009,0.0053,-0.0423
82432,47.16492,-1.625665,61.47,23.46,10.72,231.5,18 / 22,8244397,2019-08-18 17:31:06:934,0.1868,-1.1684,10.0146,-0.2019,-0.9353,9.7599,0.0081,0.0173,-0.0407
82433,47.16492,-1.625665,61.47,23.46,10.72,231.5,18 / 22,8244497,2019-08-18 17:31:07:034,-0.4447,-1.0121,10.0242,-0.2,-0.9212,9.7612,0.0291,-0.0038,-0.0394
82434,47.16492,-1.625665,61.47,23.46,10.72,231.5,18 / 22,8244597,2019-08-18 17:31:07:134,-0.2256,-0.8457,10.2444,-0.1878,-0.9105,9.7625,0.0128,-0.0145,-0.0406
82435,47.16492,-1.625665,61.47,23.46,10.72,231.5,18 / 22,8244697,2019-08-18 17:31:07:234,-0.237,-0.8044,9.5256,-0.1687,-0.8941,9.7643,0.0034,-0.0012,-0.0307
82436,47.16492,-1.625665,61.47,23.46,10.72,231.5,18 / 22,8244798,2019-08-18 17:31:07:335,0.024,-0.6021,9.5124,-0.1721,-0.8942,9.7643,-0.0092,0.0178,-0.027
82437,47.16492,-1.625665,61.47,23.46,10.72,231.5,18 / 22,8244897,2019-08-18 17:31:07:434,-0.0095,-0.7811,9.4705,-0.1846,-0.8978,9.7637,-0.0055,0.0127,-0.0291
82438,47.16492,-1.625665,61.47,23.46,10.72,231.5,18 / 22,8244997,2019-08-18 17:31:07:534,-0.0299,-0.8691,9.4807,-0.1804,-0.8928,9.7643,0.0045,-0.0013,-0.0306
82439,47.16492,-1.625665,61.47,23.46,10.72,231.5,18 / 22,8245097,2019-08-18 17:31:07:634,-0.1298,-0.7751,9.2916,-0.1715,-0.8816,9.7654,0.0031,-0.0003,-0.0282
82440,47.16397,-1.62812,68.49,22.45,4.288,249.5,18 / 22,8245197,2019-08-18 17:31:07:734,0.0551,-0.7374,9.9721,-0.1705,-0.8793,9.7657,-0.0025,0.0049,-0.0276
82441,47.16397,-1.62812,68.49,22.45,4.288,249.5,18 / 22,8245297,2019-08-18 17:31:07:834,-0.1777,-0.8416,9.8542,-0.1703,-0.8675,9.7667,0.0031,-0.0013,-0.0283
82442,47.16397,-1.62812,68.49,22.45,4.288,249.5,18 / 22,8245397,2019-08-18 17:31:07:934,0.0988,-0.4304,10.0487,-0.1635,-0.8585,9.7676,0.0109,-0.0058,-0.0285
82443,47.16397,-1.62812,68.49,22.45,4.288,249.5,18 / 22,8245498,2019-08-18 17:31:08:035,0.0402,-0.6309,10.0637,-0.1452,-0.8379,9.7697,0.0107,-0.0038,-0.0274
82444,47.16397,-1.62812,68.49,22.45,4.288,249.5,18 / 22,8245597,2019-08-18 17:31:08:134,0.1467,-0.6752,10.2097,-0.1395,-0.8306,9.7704,0.0136,0.0,-0.0278
82445,47.16397,-1.62812,68.49,22.45,4.288,249.5,18 / 22,8245697,2019-08-18 17:31:08:234,-0.0436,-0.7506,9.7542,-0.1236,-0.8071,9.7726,0.0053,-0.0136,-0.032
82446,47.16397,-1.62812,68.49,22.45,4.288,249.5,18 / 22,8245797,2019-08-18 17:31:08:334,0.2939,-0.6135,9.8949,-0.1116,-0.805,9.7729,-0.0073,0.0003,-0.0426
82447,47.16397,-1.62812,68.49,22.45,4.288,249.5,18 / 22,8245897,2019-08-18 17:31:08:434,-0.0197,-0.9726,9.6201,-0.1015,-0.8181,9.7719,-0.0112,0.0148,-0.0454
82448,47.16397,-1.62812,68.49,22.45,4.288,249.5,18 / 22,8245997,2019-08-18 17:31:08:534,-0.1011,-1.0535,9.8362,-0.1064,-0.8281,9.771,-0.0118,0.0092,-0.0465
82449,47.16397,-1.62812,68.49,22.45,4.288,249.5,18 / 22,8246097,2019-08-18 17:31:08:634,-0.155,-1.4018,9.771,-0.108,-0.8387,9.7701,0.0114,0.0009,-0.0438
82450,47.16397,-1.62812,68.49,22.45,4.288,249.5,18 / 22,8246197,2019-08-18 17:31:08:734,0.0438,-0.9984,9.8057,-0.106,-0.8387,9.7701,0.0008,0.0077,-0.0402
82451,47.16397,-1.62812,68.49,22.45,4.288,249.5,18 / 22,8246297,2019-08-18 17:31:08:834,-0.146,-0.9385,10.0026,-0.1205,-0.8509,9.7689,-0.0082,0.0042,-0.0354
82452,47.16397,-1.62812,68.49,22.45,4.288,249.5,18 / 22,8246397,2019-08-18 17:31:08:934,0.0168,-0.9439,9.6387,-0.1169,-0.8548,9.7686,0.0072,0.0065,-0.0331
82453,47.16397,-1.62812,68.49,22.45,4.288,249.5,18 / 22,8246497,2019-08-18 17:31:09:034,0.03,-0.8422,9.8093,-0.1203,-0.8505,9.769,0.0062,-0.0001,-0.0291
82454,47.16397,-1.62812,68.49,22.45,4.288,249.5,18 / 22,8246597,2019-08-18 17:31:09:134,0.2239,-0.996,10.1187,-0.1215,-0.843,9.7696,0.015,0.0055,-0.0306
82455,47.16397,-1.62812,68.49,22.45,4.288,249.5,18 / 22,8246697,2019-08-18 17:31:09:234,-0.1598,-1.0169,9.8332,-0.125,-0.8258,9.771,0.0121,0.0074,-0.0298
82456,47.16397,-1.62812,68.49,22.45,4.288,249.5,18 / 22,8246797,2019-08-18 17:31:09:334,-0.152,-0.8332,9.777,-0.1279,-0.8187,9.7716,0.0103,0.0066,-0.0313
82457,47.16397,-1.62812,68.49,22.45,4.288,249.5,18 / 22,8246897,2019-08-18 17:31:09:434,-0.2555,-0.8128,9.7075,-0.13,-0.804,9.7728,0.012,0.0014,-0.0325
82458,47.16397,-1.62812,68.49,22.45,4.288,249.5,18 / 22,8246997,2019-08-18 17:31:09:534,0.2694,-0.8787,9.9111,-0.1265,-0.7962,9.7735,0.0097,0.0028,-0.0325
82459,47.16397,-1.62812,68.49,22.45,4.288,249.5,18 / 22,8247097,2019-08-18 17:31:09:634,0.1174,-0.7811,9.9547,-0.1216,-0.789,9.7741,0.0191,0.0156,-0.0302
82460,47.16397,-1.62812,68.49,22.45,4.288,249.5,18 / 22,8247197,2019-08-18 17:31:09:734,-0.0377,-0.8811,10.1846,-0.129,-0.7698,9.7755,0.0083,-0.0013,-0.03
82461,47.16397,-1.62812,68.49,22.45,4.288,249.5,18 / 22,8247297,2019-08-18 17:31:09:834,-0.1029,-0.662,9.9619,-0.1247,-0.7619,9.7762,0.0058,-0.0013,-0.0316
82462,47.16397,-1.62812,68.49,22.45,4.288,249.5,18 / 22,8247397,2019-08-18 17:31:09:934,-0.1562,-0.556,10.0511,-0.1205,-0.7491,9.7773,0.0068,-0.0095,-0.0322
82463,47.16397,-1.62812,68.49,22.45,4.288,249.5,18 / 22,8247497,2019-08-18 17:31:10:034,0.0503,-0.5782,10.4827,-0.1063,-0.7436,9.7778,0.0057,-0.0153,-0.0326
82464,47.16397,-1.62812,68.49,22.45,4.288,249.5,18 / 22,8247597,2019-08-18 17:31:10:134,0.1629,-0.7314,9.9164,-0.0842,-0.7351,9.7787,0.0016,-0.0077,-0.0328
82465,47.16397,-1.62812,68.49,22.45,4.288,249.5,18 / 22,8247697,2019-08-18 17:31:10:234,-0.1981,-0.5602,9.6214,-0.0808,-0.7337,9.7788,-0.0038,0.0012,-0.0305
82466,47.16397,-1.62812,68.49,22.45,4.288,249.5,18 / 22,8247797,2019-08-18 17:31:10:334,-0.046,-0.823,10.3606,-0.0774,-0.7415,9.7783,-0.0099,0.0027,-0.0342
82467,47.16397,-1.62812,68.49,22.45,4.288,249.5,18 / 22,8247897,2019-08-18 17:31:10:434,0.203,-0.726,9.9769,-0.0716,-0.7461,9.778,0.012,-0.0053,-0.0329
82468,47.16397,-1.62812,68.49,22.45,4.288,249.5,18 / 22,8247997,2019-08-18 17:31:10:534,-0.0789,-0.5638,9.7446,-0.0596,-0.733,9.779,0.0086,0.0018,-0.0302
82469,47.16397,-1.62812,68.49,22.45,4.288,249.5,18 / 22,8248098,2019-08-18 17:31:10:635,0.1844,-0.6668,10.0613,-0.0604,-0.7281,9.7794,0.0071,-0.0024,-0.0293
82470,47.16397,-1.62812,68.49,22.45,4.288,249.5,18 / 22,8248197,2019-08-18 17:31:10:734,-0.0682,-0.5728,9.8404,-0.0508,-0.7137,9.7805,0.0139,-0.002,-0.0282
82471,47.16397,-1.62812,68.49,22.45,4.288,249.5,18 / 22,8248297,2019-08-18 17:31:10:834,0.1802,-0.7236,9.8727,-0.0502,-0.7068,9.781,0.008,0.0017,-0.0289
82472,47.16397,-1.62812,68.49,22.45,4.288,249.5,18 / 22,8248397,2019-08-18 17:31:10:934,-0.0484,-0.6704,10.163,-0.0493,-0.7035,9.7813,-0.0009,0.01,-0.0327
82473,47.16397,-1.62812,68.49,22.45,4.288,249.5,18 / 22,8248497,2019-08-18 17:31:11:034,0.3029,-1.0504,9.3101,-0.0541,-0.7073,9.781,0.0134,0.0114,-0.0339
82474,47.16397,-1.62812,68.49,22.45,4.288,249.5,18 / 22,8248597,2019-08-18 17:31:11:134,0.2167,-0.4375,10.6425,-0.0411,-0.6962,9.7818,0.0088,0.0137,-0.0384
82475,47.16397,-1.62812,68.49,22.45,4.288,249.5,18 / 22,8248697,2019-08-18 17:31:11:234,0.1904,-0.6428,9.6016,-0.0491,-0.6858,9.7825,0.0004,0.0108,-0.0324
82476,47.16397,-1.62812,68.49,22.45,4.288,249.5,18 / 22,8248797,2019-08-18 17:31:11:334,-0.2489,-0.6165,9.4825,-0.0373,-0.689,9.7823,0.0039,0.0074,-0.0244
82477,47.16397,-1.62812,68.49,22.45,4.288,249.5,18 / 22,8248897,2019-08-18 17:31:11:434,0.03,-0.395,9.8027,-0.0526,-0.675,9.7832,-0.003,-0.0004,-0.0267
82478,47.16397,-1.62812,68.49,22.45,4.288,249.5,18 / 22,8248997,2019-08-18 17:31:11:534,-0.1765,-0.6482,9.9218,-0.0535,-0.6763,9.7832,0.0099,0.0011,-0.0262
82479,47.16397,-1.62812,68.49,22.45,4.288,249.5,18 / 22,8249097,2019-08-18 17:31:11:634,-0.295,-0.7733,10.5844,-0.0592,-0.6687,9.7836,0.0058,0.0039,-0.0311
82480,47.16397,-1.62812,68.49,22.45,4.288,249.5,18 / 22,8249197,2019-08-18 17:31:11:734,-0.2418,-0.8266,9.4615,-0.0636,-0.6744,9.7832,-0.0013,0.0123,-0.034
82481,47.16397,-1.62812,68.49,22.45,4.288,249.5,18 / 22,8249297,2019-08-18 17:31:11:834,-0.1041,-1.2175,9.9164,-0.0586,-0.6777,9.783,0.0013,-0.0022,-0.0336
82482,47.16397,-1.62812,68.49,22.45,4.288,249.5,18 / 22,8249397,2019-08-18 17:31:11:934,-0.1412,-0.823,9.6453,-0.0591,-0.6798,9.7829,-0.0004,-0.0022,-0.0341
82483,47.16397,-1.62812,68.49,22.45,4.288,249.5,18 / 22,8249497,2019-08-18 17:31:12:034,-0.0245,-0.9373,9.8991,-0.0609,-0.6841,9.7826,-0.0029,0.0042,-0.0362
82484,47.16397,-1.62812,68.49,22.45,4.288,249.5,18 / 22,8249597,2019-08-18 17:31:12:134,-0.3052,-0.9756,9.8069,-0.0645,-0.6988,9.7815,0.0001,0.008,-0.0401
82485,47.16397,-1.62812,68.49,22.45,4.288,249.5,18 / 22,8249697,2019-08-18 17:31:12:234,-0.1442,-1.1324,10.0481,-0.0647,-0.7069,9.7809,-0.0041,-0.0006,-0.0417
82486,47.16397,-1.62812,68.49,22.45,4.288,249.5,18 / 22,8249797,2019-08-18 17:31:12:334,-0.082,-0.9978,9.9697,-0.0632,-0.7221,9.7798,-0.001,-0.0029,-0.0444
82487,47.16397,-1.62812,68.49,22.45,4.288,249.5,18 / 22,8249897,2019-08-18 17:31:12:434,-0.2256,-1.0558,10.1241,-0.0552,-0.7241,9.7797,0.0105,-0.0176,-0.0431
82488,47.16397,-1.62812,68.49,22.45,4.288,249.5,18 / 22,8249997,2019-08-18 17:31:12:534,-0.471,-0.9194,9.3113,-0.0298,-0.734,9.7791,-0.0127,-0.0254,-0.044
82489,47.16397,-1.62812,68.49,22.45,4.288,249.5,18 / 22,8250098,2019-08-18 17:31:12:635,-0.2214,-0.908,9.8153,-0.0302,-0.737,9.7789,0.0074,0.0033,-0.0405
82490,47.16397,-1.62812,68.49,22.45,4.288,249.5,18 / 22,8250197,2019-08-18 17:31:12:734,-0.1628,-1.0445,9.7099,-0.0369,-0.7402,9.7786,-0.0138,0.0252,-0.0427
82491,47.16397,-1.62812,68.49,22.45,4.288,249.5,18 / 22,8250297,2019-08-18 17:31:12:834,0.1084,-0.908,9.5387,-0.0512,-0.7537,9.7775,-0.0153,0.0265,-0.0466
82492,47.16397,-1.62812,68.49,22.45,4.288,249.5,18 / 22,8250397,2019-08-18 17:31:12:934,-0.0574,-1.1881,9.7901,-0.0637,-0.7684,9.7763,0.0,-0.0099,-0.0521
82493,47.16397,-1.62812,68.49,22.45,4.288,249.5,18 / 22,8250497,2019-08-18 17:31:13:034,0.0384,-1.1726,10.1906,-0.0574,-0.7845,9.775,0.0117,-0.0435,-0.0507
82494,47.16397,-1.62812,68.49,22.45,4.288,249.5,18 / 22,8250597,2019-08-18 17:31:13:134,0.0001,-1.0582,9.7165,-0.0267,-0.7849,9.7752,-0.0023,-0.0186,-0.0475
82495,47.16397,-1.62812,68.49,22.45,4.288,249.5,18 / 22,8250697,2019-08-18 17:31:13:234,0.2,-1.093,9.6519,-0.0279,-0.8037,9.7736,-0.0018,0.0266,-0.0408
82496,47.16397,-1.62812,68.49,22.45,4.288,249.5,18 / 22,8250797,2019-08-18 17:31:13:334,0.1569,-1.0151,10.0529,-0.0378,-0.8042,9.7735,0.0157,-0.015,-0.0439
82497,47.16397,-1.62812,68.49,22.45,4.288,249.5,18 / 22,8250897,2019-08-18 17:31:13:434,0.3017,-1.0564,9.9523,-0.0142,-0.7938,9.7745,0.0189,-0.023,-0.0435
82498,47.16397,-1.62812,68.49,22.45,4.288,249.5,18 / 22,8250998,2019-08-18 17:31:13:535,0.1976,-0.9601,10.275,0.0085,-0.7853,9.7751,0.0061,-0.0059,-0.0426
82499,47.16397,-1.62812,68.49,22.45,4.288,249.5,18 / 22,8251098,2019-08-18 17:31:13:635,0.0623,-0.8906,9.9751,0.0254,-0.785,9.7751,-0.0033,-0.0034,-0.0407
82500,47.16397,-1.62812,68.49,22.45,4.288,249.5,18 / 22,8251197,2019-08-18 17:31:13:734,0.2275,-0.7913,9.9476,0.0243,-0.7891,9.7748,-0.0023,0.0107,-0.0403
82501,47.16397,-1.62812,68.49,22.45,4.288,249.5,18 / 22,8251296,2019-08-18 17:31:13:833,0.2503,-1.2498,9.5495,0.0216,-0.7975,9.7741,-0.0014,0.0051,-0.0435
82502,47.16397,-1.62812,68.49,22.45,4.288,249.5,18 / 22,8251397,2019-08-18 17:31:13:934,0.2311,-0.8984,10.3217,0.0284,-0.798,9.7741,0.0022,-0.0139,-0.0462
82503,47.16397,-1.62812,68.49,22.45,4.288,249.5,18 / 22,8251497,2019-08-18 17:31:14:034,0.3005,-0.9307,9.7632,0.0523,-0.8007,9.7738,0.0024,-0.0049,-0.046
82504,47.16397,-1.62812,68.49,22.45,4.288,249.5,18 / 22,8251597,2019-08-18 17:31:14:134,-0.2352,-1.0678,9.5423,0.0549,-0.7996,9.7738,0.0019,0.0032,-0.0449
82505,47.16397,-1.62812,68.49,22.45,4.288,249.5,18 / 22,8251697,2019-08-18 17:31:14:234,-0.1789,-1.336,9.9009,0.0522,-0.8123,9.7728,-0.0053,0.0067,-0.0477
82506,47.16397,-1.62812,68.49,22.45,4.288,249.5,18 / 22,8251797,2019-08-18 17:31:14:334,-0.3908,-1.0834,9.683,0.0489,-0.8212,9.7721,-0.0107,0.008,-0.0471
82507,47.16397,-1.62812,68.49,22.45,4.288,249.5,18 / 22,8251897,2019-08-18 17:31:14:434,-0.1448,-1.2534,9.9033,0.0343,-0.8462,9.77,-0.0073,0.0064,-0.047
82508,47.16397,-1.62812,68.49,22.45,4.288,249.5,18 / 22,8251996,2019-08-18 17:31:14:533,-0.6985,-1.3922,9.7518,0.0326,-0.8536,9.7694,-0.002,0.0055,-0.0472
82509,47.16397,-1.62812,68.49,22.45,4.288,249.5,18 / 22,8252096,2019-08-18 17:31:14:633,-0.38,-1.3198,9.2903,0.021,-0.8772,9.7673,0.0024,0.0025,-0.0418
82510,47.16397,-1.62812,68.49,22.45,4.288,249.5,18 / 22,8252197,2019-08-18 17:31:14:734,-0.3028,-1.2175,9.8847,0.0138,-0.8804,9.767,0.0081,0.0042,-0.038
82511,47.16397,-1.62812,68.49,22.45,4.288,249.5,18 / 22,8252297,2019-08-18 17:31:14:834,-0.1221,-0.9667,9.4657,0.0074,-0.884,9.7667,0.0051,0.001,-0.0343
82512,47.16397,-1.62812,68.49,22.45,4.288,249.5,18 / 22,8252397,2019-08-18 17:31:14:934,-0.2418,-1.1941,9.7357,0.0008,-0.8857,9.7666,0.0026,0.0033,-0.0322
82513,47.16397,-1.62812,68.49,22.45,4.288,249.5,18 / 22,8252497,2019-08-18 17:31:15:034,-0.3351,-1.0397,9.8213,-0.0067,-0.8839,9.7667,0.0027,-0.0041,-0.032
82514,47.16397,-1.62812,68.49,22.45,4.288,249.5,18 / 22,8252597,2019-08-18 17:31:15:134,-0.3154,-0.9697,10.3121,-0.0078,-0.8819,9.7669,0.0125,0.0066,-0.0319
82515,47.16397,-1.62812,68.49,22.45,4.288,249.5,18 / 22,8252697,2019-08-18 17:31:15:234,-0.55,-0.9002,9.8506,-0.0195,-0.8701,9.768,0.0058,-0.0016,-0.0315
82516,47.16397,-1.62812,68.49,22.45,4.288,249.5,18 / 22,8252797,2019-08-18 17:31:15:334,-0.207,-0.7129,9.7237,-0.0207,-0.8697,9.768,-0.0013,-0.0045,-0.0318
82517,47.16397,-1.62812,68.49,22.45,4.288,249.5,18 / 22,8252897,2019-08-18 17:31:15:434,-0.3884,-1.0451,9.7919,-0.0221,-0.8686,9.7681,0.0044,-0.0042,-0.0287
82518,47.16397,-1.62812,68.49,22.45,4.288,249.5,18 / 22,8252997,2019-08-18 17:31:15:534,-0.1687,-1.0876,9.5986,-0.0202,-0.8659,9.7683,0.0072,-0.0036,-0.03
82519,47.16397,-1.62812,68.49,22.45,4.288,249.5,18 / 22,8253097,2019-08-18 17:31:15:634,-0.137,-0.8559,9.1359,-0.0338,-0.8634,9.7685,-0.0027,0.0188,-0.031
82520,47.16397,-1.62812,68.49,22.45,4.288,249.5,18 / 22,8253197,2019-08-18 17:31:15:734,-0.3674,-0.9876,10.1313,-0.0462,-0.8645,9.7684,0.0023,-0.0002,-0.0322
82521,47.16397,-1.62812,68.49,22.45,4.288,249.5,18 / 22,8253297,2019-08-18 17:31:15:834,-0.1867,-0.7973,9.7746,-0.0468,-0.8565,9.7691,0.0132,-0.0027,-0.0334
82522,47.16397,-1.62812,68.49,22.45,4.288,249.5,18 / 22,8253397,2019-08-18 17:31:15:934,-0.1657,-0.9984,9.8674,-0.0436,-0.8502,9.7696,0.0084,-0.0054,-0.032
82523,47.16397,-1.62812,68.49,22.45,4.288,249.5,18 / 22,8253497,2019-08-18 17:31:16:034,0.0408,-0.9307,9.9487,-0.0446,-0.8414,9.7704,0.0108,0.0069,-0.0303
82524,47.16397,-1.62812,68.49,22.45,4.288,249.5,18 / 22,8253597,2019-08-18 17:31:16:134,-0.1382,-0.808,10.2642,-0.0492,-0.836,9.7708,0.0084,0.0081,-0.0298
82525,47.16397,-1.62812,68.49,22.45,4.288,249.5,18 / 22,8253698,2019-08-18 17:31:16:235,-0.1651,-0.6781,9.8057,-0.0508,-0.8358,9.7708,0.0044,-0.0086,-0.0338
82526,47.16397,-1.62812,68.49,22.45,4.288,249.5,18 / 22,8253797,2019-08-18 17:31:16:334,-0.3435,-0.8212,9.8674,-0.0431,-0.8275,9.7716,0.0026,0.0009,-0.0337
82527,47.16397,-1.62812,68.49,22.45,4.288,249.5,18 / 22,8253897,2019-08-18 17:31:16:434,-0.2406,-0.9996,9.768,-0.0417,-0.8275,9.7716,-0.0051,-0.0021,-0.0325
82528,47.16397,-1.62812,68.49,22.45,4.288,249.5,18 / 22,8253997,2019-08-18 17:31:16:534,0.103,-0.8541,10.3534,-0.0368,-0.8344,9.771,0.0016,-0.0008,-0.0339
82529,47.16397,-1.62812,68.49,22.45,4.288,249.5,18 / 22,8254097,2019-08-18 17:31:16:634,0.1156,-0.8374,9.8243,-0.0328,-0.8318,9.7713,-0.0048,0.0012,-0.039
82530,47.163616,-1.630881,67.89,23.92,3.216,267.7,18 / 22,8254197,2019-08-18 17:31:16:734,0.0671,-0.6039,9.7459,-0.0228,-0.8396,9.7706,-0.0056,0.0004,-0.0389
82531,47.163616,-1.630881,67.89,23.92,3.216,267.7,18 / 22,8254297,2019-08-18 17:31:16:834,-0.0442,-1.0421,9.7477,-0.0196,-0.8428,9.7704,0.0007,-0.0016,-0.0395
82532,47.163616,-1.630881,67.89,23.92,3.216,267.7,18 / 22,8254397,2019-08-18 17:31:16:934,-0.1909,-0.9804,9.9116,-0.0173,-0.8447,9.7702,0.0008,0.001,-0.0385
82533,47.163616,-1.630881,67.89,23.92,3.216,267.7,18 / 22,8254497,2019-08-18 17:31:17:034,-0.5578,-1.154,10.1403,-0.0184,-0.8506,9.7697,-0.0021,-0.0037,-0.0409
82534,47.163616,-1.630881,67.89,23.92,3.216,267.7,18 / 22,8254597,2019-08-18 17:31:17:134,-0.401,-1.2228,9.7686,-0.0156,-0.8586,9.769,0.0031,-0.0063,-0.0414
82535,47.163616,-1.630881,67.89,23.92,3.216,267.7,18 / 22,8254697,2019-08-18 17:31:17:234,-0.3489,-1.0666,10.0296,-0.0126,-0.8627,9.7686,0.0002,-0.0005,-0.041
82536,47.163616,-1.630881,67.89,23.92,3.216,267.7,18 / 22,8254797,2019-08-18 17:31:17:334,0.0479,-1.1091,9.6878,-0.0107,-0.8719,9.7678,0.0019,-0.005,-0.0426
82537,47.163616,-1.630881,67.89,23.92,3.216,267.7,18 / 22,8254898,2019-08-18 17:31:17:435,-0.0149,-1.1133,9.6495,-0.0115,-0.8761,9.7674,0.0002,-0.0013,-0.0423
82538,47.163616,-1.630881,67.89,23.92,3.216,267.7,18 / 22,8254997,2019-08-18 17:31:17:534,-0.2034,-1.1851,9.5238,-0.0219,-0.882,9.7669,0.0039,0.0122,-0.0405
82539,47.163616,-1.630881,67.89,23.92,3.216,267.7,18 / 22,8255096,2019-08-18 17:31:17:633,-0.0951,-1.2462,9.7351,-0.0289,-0.8869,9.7664,-0.002,0.0114,-0.0439
82540,47.163616,-1.630881,67.89,23.92,3.216,267.7,18 / 22,8255197,2019-08-18 17:31:17:734,-0.158,-1.2653,9.8554,-0.035,-0.8974,9.7654,0.0106,0.0028,-0.0436
82541,47.163616,-1.630881,67.89,23.92,3.216,267.7,18 / 22,8255297,2019-08-18 17:31:17:834,0.0156,-1.0367,9.7596,-0.0355,-0.8947,9.7657,0.0067,-0.0037,-0.0413
82542,47.163616,-1.630881,67.89,23.92,3.216,267.7,18 / 22,8255397,2019-08-18 17:31:17:934,-0.0442,-1.339,10.032,-0.0252,-0.8936,9.7658,0.008,-0.0113,-0.0416
82543,47.163616,-1.630881,67.89,23.92,3.216,267.7,18 / 22,8255497,2019-08-18 17:31:18:034,0.0156,-1.2348,10.0086,-0.0138,-0.8927,9.7659,0.0101,-0.0131,-0.0417
82544,47.163616,-1.630881,67.89,23.92,3.216,267.7,18 / 22,8255597,2019-08-18 17:31:18:134,-0.0424,-1.0223,9.762,-0.0023,-0.8891,9.7663,0.0008,0.0084,-0.0416
82545,47.163616,-1.630881,67.89,23.92,3.216,267.7,18 / 22,8255697,2019-08-18 17:31:18:234,-0.137,-1.224,9.8781,-0.0123,-0.8941,9.7658,-0.0021,0.0174,-0.0417
82546,47.163616,-1.630881,67.89,23.92,3.216,267.7,18 / 22,8255797,2019-08-18 17:31:18:334,-0.1622,-1.1534,10.1289,-0.0197,-0.8988,9.7654,0.0049,-0.0036,-0.0416
82547,47.163616,-1.630881,67.89,23.92,3.216,267.7,18 / 22,8255897,2019-08-18 17:31:18:434,-0.1262,-1.3874,9.9368,-0.0208,-0.8993,9.7653,0.007,0.0033,-0.042
82548,47.163616,-1.630881,67.89,23.92,3.216,267.7,18 / 22,8255997,2019-08-18 17:31:18:534,-0.2621,-1.3222,9.9314,-0.03,-0.9032,9.7649,-0.0023,0.0012,-0.0416
82549,47.163616,-1.630881,67.89,23.92,3.216,267.7,17 / 22,8256097,2019-08-18 17:31:18:634,-0.4764,-1.0355,10.023,-0.0283,-0.9147,9.7639,-0.0068,-0.0063,-0.0403
82550,47.163616,-1.630881,67.89,23.92,3.216,267.7,17 / 22,8256197,2019-08-18 17:31:18:734,-0.307,-1.2755,10.011,-0.031,-0.9175,9.7636,0.004,-0.0051,-0.038
82551,47.163616,-1.630881,67.89,23.92,3.216,267.7,17 / 22,8256297,2019-08-18 17:31:18:834,-0.0861,-0.9708,9.7213,-0.0299,-0.918,9.7635,0.0079,-0.0017,-0.0362
82552,47.163616,-1.630881,67.89,23.92,3.216,267.7,17 / 22,8256397,2019-08-18 17:31:18:934,-0.3453,-1.151,9.7309,-0.0291,-0.9131,9.764,0.0078,-0.0027,-0.0371
82553,47.163616,-1.630881,67.89,23.92,3.216,267.7,17 / 22,8256497,2019-08-18 17:31:19:034,-0.2076,-1.1564,9.8871,-0.0275,-0.9145,9.7639,-0.0004,-0.0038,-0.0393
82554,47.163616,-1.630881,67.89,23.92,3.216,267.7,17 / 22,8256597,2019-08-18 17:31:19:134,0.015,-1.0181,9.78,-0.0254,-0.9208,9.7633,0.002,0.0002,-0.0407
82555,47.163616,-1.630881,67.89,23.92,3.216,267.7,17 / 22,8256697,2019-08-18 17:31:19:234,-0.1651,-1.3892,10.1092,-0.0291,-0.9228,9.7631,-0.0005,0.0023,-0.0408
82556,47.163616,-1.630881,67.89,23.92,3.216,267.7,17 / 22,8256797,2019-08-18 17:31:19:334,-0.1526,-1.1714,9.932,-0.0313,-0.926,9.7628,0.0054,0.0044,-0.0416
82557,47.163616,-1.630881,67.89,23.92,3.216,267.7,17 / 22,8256897,2019-08-18 17:31:19:434,-0.149,-1.1546,9.8865,-0.0303,-0.9327,9.7622,-0.0034,-0.0011,-0.04
82558,47.163616,-1.630881,67.89,23.92,3.216,267.7,17 / 22,8256997,2019-08-18 17:31:19:534,-0.1011,-1.0522,9.8907,-0.029,-0.9376,9.7617,0.0012,0.0027,-0.0406
82559,47.163616,-1.630881,67.89,23.92,3.216,267.7,16 / 22,8257097,2019-08-18 17:31:19:634,-0.067,-1.0044,10.1804,-0.0262,-0.9446,9.761,0.0009,-0.0047,-0.0411
82560,47.163616,-1.630881,67.89,23.92,3.216,267.7,16 / 22,8257197,2019-08-18 17:31:19:734,-0.0586,-0.9565,9.6776,-0.0234,-0.9456,9.7609,0.0012,0.0064,-0.0393
82561,47.163616,-1.630881,67.89,23.92,3.216,267.7,16 / 22,8257298,2019-08-18 17:31:19:835,-0.0496,-1.2731,9.8889,-0.0272,-0.9507,9.7604,0.0004,0.0089,-0.038
82562,47.163616,-1.630881,67.89,23.92,3.216,267.7,16 / 22,8257397,2019-08-18 17:31:19:934,-0.0742,-1.0247,9.7662,-0.0329,-0.9461,9.7609,0.0096,-0.0007,-0.0344
82563,47.163616,-1.630881,67.89,23.92,3.216,267.7,16 / 22,8257497,2019-08-18 17:31:20:034,0.0025,-1.1373,9.668,-0.0333,-0.9354,9.7619,0.0053,0.01,-0.0349
82564,47.163616,-1.630881,67.89,23.92,3.216,267.7,16 / 22,8257597,2019-08-18 17:31:20:134,-0.1633,-0.8613,10.0272,-0.0407,-0.9358,9.7618,0.0003,0.0039,-0.0361
82565,47.163616,-1.630881,67.89,23.92,3.216,267.7,16 / 22,8257697,2019-08-18 17:31:20:234,-0.1466,-0.9445,9.747,-0.0459,-0.9362,9.7617,0.0037,0.0033,-0.0362
82566,47.163616,-1.630881,67.89,23.92,3.216,267.7,16 / 22,8257797,2019-08-18 17:31:20:334,-0.0789,-0.7949,10.0248,-0.0498,-0.9306,9.7623,0.0094,0.0014,-0.0337
82567,47.163616,-1.630881,67.89,23.92,3.216,267.7,16 / 22,8257897,2019-08-18 17:31:20:434,-0.1173,-0.8912,9.8225,-0.0485,-0.919,9.7634,0.0037,-0.0056,-0.0334
82568,47.163616,-1.630881,67.89,23.92,3.216,267.7,16 / 22,8257997,2019-08-18 17:31:20:534,-0.0843,-0.6213,9.9619,-0.0393,-0.9199,9.7633,0.0071,0.0011,-0.0292
82569,47.163616,-1.630881,67.89,23.92,3.216,267.7,16 / 22,8258098,2019-08-18 17:31:20:635,0.0072,-0.911,10.1924,-0.0416,-0.905,9.7647,0.0165,-0.0026,-0.0261
82570,47.163616,-1.630881,67.89,23.92,3.216,267.7,16 / 22,8258197,2019-08-18 17:31:20:734,-0.2843,-0.7913,9.8524,-0.0399,-0.8904,9.7661,0.0079,0.0059,-0.0237
82571,47.163616,-1.630881,67.89,23.92,3.216,267.7,16 / 22,8258296,2019-08-18 17:31:20:833,0.0833,-0.6506,9.7566,-0.0458,-0.8813,9.7669,0.0015,0.0044,-0.0233
82572,47.163616,-1.630881,67.89,23.92,3.216,267.7,16 / 22,8258397,2019-08-18 17:31:20:934,-0.043,-0.7183,9.9577,-0.0531,-0.8746,9.7674,0.006,-0.0011,-0.0237
82573,47.163616,-1.630881,67.89,23.92,3.216,267.7,16 / 22,8258497,2019-08-18 17:31:21:034,-0.237,-0.7033,10.1463,-0.0546,-0.8534,9.7693,0.0111,-0.0062,-0.0219
82574,47.163616,-1.630881,67.89,23.92,3.216,267.7,16 / 22,8258597,2019-08-18 17:31:21:134,-0.2968,-0.562,10.1205,-0.0525,-0.8439,9.7701,0.0111,-0.0078,-0.0239
82575,47.163616,-1.630881,67.89,23.92,3.216,267.7,16 / 22,8258697,2019-08-18 17:31:21:234,-0.2477,-0.5848,9.7841,-0.0457,-0.8329,9.7711,-0.0146,-0.0005,-0.0269
82576,47.163616,-1.630881,67.89,23.92,3.216,267.7,16 / 22,8258797,2019-08-18 17:31:21:334,0.0007,-0.6656,9.4298,-0.0466,-0.8382,9.7707,-0.0139,0.0009,-0.0269
82577,47.163616,-1.630881,67.89,23.92,3.216,267.7,16 / 22,8258897,2019-08-18 17:31:21:434,-0.1747,-0.9367,9.6028,-0.0495,-0.8473,9.7699,-0.0025,0.0068,-0.0294
82578,47.163616,-1.630881,67.89,23.92,3.216,267.7,16 / 22,8258997,2019-08-18 17:31:21:534,-0.1352,-0.7566,9.8554,-0.0511,-0.8483,9.7698,-0.0035,-0.0064,-0.029
82579,47.163616,-1.630881,67.89,23.92,3.216,267.7,16 / 22,8259097,2019-08-18 17:31:21:634,-0.1011,-1.0325,9.9996,-0.034,-0.8453,9.7701,-0.0035,-0.0147,-0.0366
82580,47.163616,-1.630881,67.89,23.92,3.216,267.7,16 / 22,8259197,2019-08-18 17:31:21:734,0.1108,-1.1714,9.4753,-0.0241,-0.8487,9.7698,0.0041,0.0139,-0.042
82581,47.163616,-1.630881,67.89,23.92,3.216,267.7,16 / 22,8259297,2019-08-18 17:31:21:834,0.0988,-1.3456,9.5022,-0.0371,-0.8522,9.7695,-0.0023,0.0206,-0.0445
82582,47.163616,-1.630881,67.89,23.92,3.216,267.7,16 / 22,8259397,2019-08-18 17:31:21:934,-0.4273,-1.0535,9.4095,-0.0518,-0.8585,9.7689,0.0048,0.0157,-0.047
82583,47.163616,-1.630881,67.89,23.92,3.216,267.7,16 / 22,8259497,2019-08-18 17:31:22:034,-0.3076,-1.2863,9.9356,-0.0657,-0.8617,9.7685,0.0139,0.0153,-0.0462
82584,47.163616,-1.630881,67.89,23.92,3.216,267.7,16 / 22,8259597,2019-08-18 17:31:22:134,-0.134,-1.2408,9.8213,-0.0715,-0.862,9.7684,0.0103,-0.0018,-0.0469
82585,47.163616,-1.630881,67.89,23.92,3.216,267.7,16 / 22,8259697,2019-08-18 17:31:22:234,-0.0813,-1.2641,9.9589,-0.0665,-0.8629,9.7684,0.014,-0.0065,-0.046
82586,47.163616,-1.630881,67.89,23.92,3.216,267.7,16 / 22,8259797,2019-08-18 17:31:22:334,0.0521,-1.4736,10.1289,-0.0616,-0.8576,9.7689,0.0037,0.0004,-0.0424
82587,47.163616,-1.630881,67.89,23.92,3.216,267.7,16 / 22,8259897,2019-08-18 17:31:22:434,-0.1789,-1.2546,9.6854,-0.0586,-0.8662,9.7681,0.0018,-0.001,-0.0444
82588,47.163616,-1.630881,67.89,23.92,3.216,267.7,16 / 22,8259997,2019-08-18 17:31:22:534,-0.0694,-1.2025,9.5818,-0.0606,-0.8661,9.7681,0.0074,0.0047,-0.0442
82589,47.163616,-1.630881,67.89,23.92,3.216,267.7,17 / 22,8260097,2019-08-18 17:31:22:634,-0.4267,-1.087,9.929,-0.0616,-0.8679,9.768,0.0034,-0.0008,-0.0448
82590,47.163616,-1.630881,67.89,23.92,3.216,267.7,17 / 22,8260197,2019-08-18 17:31:22:734,-0.0377,-1.2587,9.8691,-0.0555,-0.8772,9.7672,0.0046,-0.0054,-0.0467
82591,47.163616,-1.630881,67.89,23.92,3.216,267.7,17 / 22,8260297,2019-08-18 17:31:22:834,-0.0215,-1.4138,10.0356,-0.0502,-0.8804,9.7669,0.0068,-0.0055,-0.0464
82592,47.163616,-1.630881,67.89,23.92,3.216,267.7,17 / 22,8260397,2019-08-18 17:31:22:934,0.0294,-1.3282,10.0559,-0.0389,-0.8841,9.7666,0.0054,-0.0023,-0.047
82593,47.163616,-1.630881,67.89,23.92,3.216,267.7,17 / 22,8260497,2019-08-18 17:31:23:034,0.0869,-1.0373,10.0744,-0.0364,-0.8854,9.7665,0.0008,-0.003,-0.0477
82594,47.163616,-1.630881,67.89,23.92,3.216,267.7,17 / 22,8260597,2019-08-18 17:31:23:134,-0.043,-1.0439,9.9583,-0.0258,-0.8918,9.766,0.0014,-0.0018,-0.0466
82595,47.163616,-1.630881,67.89,23.92,3.216,267.7,17 / 22,8260697,2019-08-18 17:31:23:234,0.2012,-1.169,10.105,-0.0192,-0.8948,9.7657,0.0053,-0.0037,-0.0462
82596,47.163616,-1.630881,67.89,23.92,3.216,267.7,17 / 22,8260797,2019-08-18 17:31:23:334,0.0886,-0.8895,10.0296,-0.0001,-0.9013,9.7651,0.0016,-0.0047,-0.045
82597,47.163616,-1.630881,67.89,23.92,3.216,267.7,17 / 22,8260897,2019-08-18 17:31:23:434,0.1611,-1.0475,9.8949,0.0056,-0.9003,9.7652,0.0083,0.0037,-0.0417
82598,47.163616,-1.630881,67.89,23.92,3.216,267.7,17 / 22,8260997,2019-08-18 17:31:23:534,0.1928,-0.9978,9.7865,0.01,-0.8949,9.7657,0.0062,-0.0034,-0.0421
82599,47.163616,-1.630881,67.89,23.92,3.216,267.7,17 / 22,8261097,2019-08-18 17:31:23:634,0.3921,-1.2558,9.8548,0.0174,-0.893,9.7659,-0.0033,-0.0042,-0.0425
82600,47.163616,-1.630881,67.89,23.92,3.216,267.7,17 / 22,8261197,2019-08-18 17:31:23:734,0.2407,-1.0032,9.6758,0.027,-0.8988,9.7653,-0.002,0.0081,-0.0425
82601,47.163616,-1.630881,67.89,23.92,3.216,267.7,17 / 22,8261297,2019-08-18 17:31:23:834,0.3293,-1.0594,9.5477,0.0235,-0.9,9.7652,-0.0017,0.0091,-0.0432
82602,47.163616,-1.630881,67.89,23.92,3.216,267.7,17 / 22,8261397,2019-08-18 17:31:23:934,0.2586,-0.8386,10.3025,0.0282,-0.9072,9.7646,0.0013,-0.0031,-0.0436
82603,47.163616,-1.630881,67.89,23.92,3.216,267.7,17 / 22,8261498,2019-08-18 17:31:24:035,0.1168,-1.1025,10.2037,0.0406,-0.9135,9.7639,0.0048,-0.0043,-0.0433
82604,47.163616,-1.630881,67.89,23.92,3.216,267.7,17 / 22,8261597,2019-08-18 17:31:24:134,-0.1526,-1.0499,10.1433,0.0522,-0.911,9.7641,0.0007,0.0112,-0.0423
82605,47.163616,-1.630881,67.89,23.92,3.216,267.7,17 / 22,8261697,2019-08-18 17:31:24:234,-0.1286,-1.2845,9.6106,0.0475,-0.9155,9.7637,0.0051,0.014,-0.0422
