,GPS LATITUDE (degrees), GPS LONGITUDE (degrees), GPS ALTITUDE (m), GPS SPEED (Kmh), GPS ACCURACY (m), GPS ORIENTATION (Â°),GPS SATELLITES IN RANGE, TIME SINCE START (ms), DATE (YYYY-MO-DD HH-MI-SS_SSS), ACCELEROMETER X (m/s²) , ACCELEROMETER Y (m/s²), ACCELEROMETER Z (m/s²), GRAVITY X (m/s²), GRAVITY Y (m/s²), GRAVITY Z (m/s²), GYROSCOPE Yaw (rad/s), GYROSCOPE Pitch (rad/s), GYROSCOPE Roll (rad/s), MAGNETIC FIELD X (Î¼T), MAGNETIC FIELD Y (Î¼T), MAGNETIC FIELD Z (Î¼T), ORIENTATION (Yaw) (Â°), ORIENTATION (Pitch) (Â°), ORIENTATION (Roll ) (Â°)
20698,53.187553,-1.876038,377.64,12.77,4,319.05,20 / 20,2069193,2019-11-06 14:01:49:986,-3.1372,-3.724,10.1611,0.0409,0.0201,9.8065,-0.0388,0.566,-0.3174,2.44,-37.5,1.56,139.25,-84.1,156.05
20699,53.187553,-1.876038,377.64,12.77,4,319.05,20 / 20,2069293,2019-11-06 14:01:50:086,0.2632,-0.9505,10.16,-0.0309,0.0102,9.8066,-0.0633,0.3302,-0.1292,1.81,-37.87,-0.06,150.49,-83.91,156.35
20700,53.187553,-1.876038,377.64,12.77,4,319.05,20 / 20,2069393,2019-11-06 14:01:50:186,2.9996,-1.2492,10.0766,0.0225,-0.0001,9.8066,0.0064,0.5132,-0.322,1.94,-37.94,-0.94,152.19,-83.79,156.54
20701,53.187553,-1.876038,377.64,12.77,4,319.05,20 / 20,2069493,2019-11-06 14:01:50:286,3.7802,-0.8734,9.7672,-0.0179,-0.0005,9.8066,-0.0056,0.2058,-0.1509,2.5,-37.62,-0.37,137.3,-83.6,153.68
20702,53.187553,-1.876038,377.64,12.77,4,319.05,20 / 20,2069593,2019-11-06 14:01:50:386,-1.5829,-2.7857,10.064,0.0304,0.0308,9.8065,-0.075,0.4435,-0.2628,3.5,-36.62,3.25,82.51,-83.53,153.03
20703,53.187553,-1.876038,377.64,12.77,4,319.05,20 / 20,2069693,2019-11-06 14:01:50:486,-0.3204,1.847,10.2649,0.0221,-0.0438,9.8065,-0.0113,0.2725,-0.1297,4.13,-35.94,13.56,342.12,-83.28,151.39
20704,53.187553,-1.876038,377.64,12.77,4,319.05,20 / 20,2069793,2019-11-06 14:01:50:586,1.28,2.7723,9.2973,0.0128,-0.0456,9.8065,-0.0955,0.4725,-0.1304,-14.94,-41.62,20.88,285.13,-83.32,151.37
20705,53.187553,-1.876038,377.64,12.77,4,319.05,20 / 20,2069893,2019-11-06 14:01:50:686,-1.4325,-1.3732,9.2995,0.0026,-0.0437,9.8065,-0.1146,-0.1347,0.1999,-1.69,-39.0,-1.31,191.83,-83.19,153.41
20706,53.187553,-1.876038,377.64,12.77,4,319.05,20 / 20,2069994,2019-11-06 14:01:50:787,2.9676,-2.5347,8.2022,0.0703,-0.055,9.8062,-0.0618,0.5811,-0.2373,0.63,-38.44,-1.81,161.93,-83.73,153.41
20707,53.187553,-1.876038,377.64,12.77,4,319.05,20 / 20,2070094,2019-11-06 14:01:50:887,-5.3107,1.1834,9.1224,0.0627,-0.0316,9.8064,-0.2554,0.7326,-0.371,0.94,-38.5,-1.81,161.68,-83.94,154.03
20708,53.187553,-1.876038,377.64,12.77,4,319.05,20 / 20,2070193,2019-11-06 14:01:50:986,-0.1729,-2.6652,10.9642,0.0722,-0.0162,9.8063,-0.0221,0.3548,-0.1298,-0.87,-38.75,-1.87,180.21,-84.3,154.0
20709,53.187553,-1.876038,377.64,12.77,4,319.05,20 / 20,2070293,2019-11-06 14:01:51:086,-4.9631,2.3335,9.3877,0.0726,-0.0104,9.8063,-0.1592,0.7328,-0.2158,-7.44,-40.94,0.25,223.06,-84.21,156.77
20710,53.187553,-1.876038,377.64,12.77,4,319.05,20 / 20,2070393,2019-11-06 14:01:51:186,-2.1971,0.1529,11.1641,0.004,-0.0406,9.8065,-0.0345,-0.0006,0.1409,-8.5,-39.94,27.19,315.32,-84.23,157.75
20711,53.187553,-1.876038,377.64,12.77,4,319.05,20 / 20,2070493,2019-11-06 14:01:51:286,0.6582,1.4853,11.1701,-0.0948,-0.0075,9.8061,0.125,0.5292,-0.2927,2.19,-36.81,5.19,16.02,-84.05,162.8
20712,53.187553,-1.876038,377.64,12.77,4,319.05,20 / 20,2070593,2019-11-06 14:01:51:386,7.1972,-2.6615,9.5107,-0.0161,-0.0124,9.8066,0.0169,-0.3592,0.2649,2.25,-37.56,1.38,147.99,-83.79,162.14
20713,53.187553,-1.876038,377.64,12.77,4,319.05,20 / 20,2070693,2019-11-06 14:01:51:486,1.126,-3.6652,9.114,0.0621,-0.0016,9.8064,-0.0103,0.1212,-0.0386,1.75,-37.87,0.38,150.63,-84.02,164.45
20714,53.187553,-1.876038,377.64,12.77,4,319.05,20 / 20,2070793,2019-11-06 14:01:51:586,-1.9247,-4.3739,9.8906,-0.0472,-0.0279,9.8065,-0.0425,-0.4497,0.3334,1.88,-38.62,0.5,145.73,-84.21,165.72
20715,53.187553,-1.876038,377.64,12.77,4,319.05,20 / 20,2070893,2019-11-06 14:01:51:686,0.1635,-2.5004,9.5562,0.0089,-0.0066,9.8066,0.0668,-0.2185,-0.0374,1.69,-37.62,1.0,143.02,-84.42,164.39
20716,53.187553,-1.876038,377.64,12.77,4,319.05,20 / 20,2070993,2019-11-06 14:01:51:786,2.7404,-1.3305,8.8143,0.0026,-0.0447,9.8065,0.1168,-0.2568,0.1795,2.69,-37.12,4.81,34.5,-84.09,161.65
20717,53.187553,-1.876038,377.64,12.77,4,319.05,20 / 20,2071093,2019-11-06 14:01:51:886,1.4482,2.7292,10.1074,0.0016,-0.009,9.8066,-0.0101,0.1227,-0.0045,1.31,-37.25,21.31,342.07,-83.99,162.69
20718,53.187553,-1.876038,377.64,12.77,4,319.05,20 / 20,2071193,2019-11-06 14:01:51:986,-2.2458,1.8637,8.7181,0.0024,0.0178,9.8065,-0.0496,-0.2815,0.0699,-9.94,-39.75,1.5,241.22,-84.21,160.17
20719,53.187553,-1.876038,377.64,12.77,4,319.05,20 / 20,2071293,2019-11-06 14:01:52:086,-1.3874,-4.1441,10.0367,-0.0404,0.0353,9.8065,0.0537,0.1699,0.0934,-1.75,-39.56,-1.5,195.22,-84.24,159.81
20720,53.187553,-1.876038,377.64,12.77,4,319.05,20 / 20,2071395,2019-11-06 14:01:52:188,-1.2663,-4.3296,9.8376,0.0095,0.0155,9.8066,0.0524,0.0029,-0.1315,0.0,-38.87,-1.5,176.01,-84.18,160.06
20721,53.187553,-1.876038,377.64,12.77,4,319.05,20 / 20,2071493,2019-11-06 14:01:52:286,1.0487,-5.0477,9.2329,-0.0099,0.0332,9.8066,0.0836,-0.1114,0.1552,0.5,-38.56,-0.94,165.2,-83.74,160.1
20722,53.187553,-1.876038,377.64,12.77,4,319.05,20 / 20,2071593,2019-11-06 14:01:52:386,-2.9045,-3.1226,9.7252,0.0059,0.0109,9.8066,-0.0111,0.0588,-0.0763,-2.12,-39.19,-0.37,200.61,-83.39,162.75
20723,53.187553,-1.876038,377.64,12.77,4,319.05,20 / 20,2071693,2019-11-06 14:01:52:486,-3.8589,-1.9871,9.2502,-0.0252,0.0287,9.8066,-0.0742,0.3242,-0.1798,-12.37,-41.5,4.38,249.35,-83.39,161.34
20724,53.187553,-1.876038,377.64,12.77,4,319.05,20 / 20,2071793,2019-11-06 14:01:52:586,0.5441,4.5708,8.823,-0.0146,0.0158,9.8066,-0.0958,0.1305,-0.083,1.56,-35.56,14.44,345.82,-83.72,161.69
20725,53.187553,-1.876038,377.64,12.77,4,319.05,20 / 20,2071893,2019-11-06 14:01:52:686,-1.1029,4.5919,9.5338,0.0315,0.0115,9.8065,-0.071,0.3282,-0.1577,2.38,-36.69,3.69,45.45,-83.95,160.15
20726,53.187553,-1.876038,377.64,12.77,4,319.05,20 / 20,2071993,2019-11-06 14:01:52:786,-0.3753,-4.8504,9.6198,0.0068,0.0029,9.8066,-0.0112,0.2153,-0.1972,1.94,-38.06,0.44,149.69,-84.1,158.83
20727,53.187553,-1.876038,377.64,12.77,4,319.05,20 / 21,2072093,2019-11-06 14:01:52:886,4.7955,-4.5187,9.287,-0.0441,0.0036,9.8065,0.0031,-0.1933,0.0459,1.81,-37.56,-0.19,150.22,-83.96,156.71
20728,53.187553,-1.876038,377.64,12.77,4,319.05,20 / 21,2072194,2019-11-06 14:01:52:987,1.1848,-4.066,9.7594,0.0157,0.0207,9.8065,0.0289,0.3446,-0.2437,2.63,-37.62,-0.25,137.05,-83.75,156.84
20729,53.187553,-1.876038,377.64,12.77,4,319.05,20 / 21,2072294,2019-11-06 14:01:53:087,1.0652,-3.5693,9.3345,-0.0148,0.0006,9.8066,0.0069,-0.0075,-0.0486,2.56,-36.81,1.25,130.96,-83.56,155.09
20730,53.187553,-1.876038,377.64,12.77,4,319.05,20 / 21,2072393,2019-11-06 14:01:53:186,2.7036,4.4739,9.9194,-0.0072,0.0157,9.8066,-0.0308,0.2468,-0.167,3.25,-36.06,8.63,346.04,-83.57,153.58
20731,53.187553,-1.876038,377.64,12.77,4,319.05,20 / 21,2072493,2019-11-06 14:01:53:286,0.4,4.4556,9.6438,0.0075,0.0137,9.8065,-0.0428,-0.0635,0.0144,-10.81,-40.62,25.56,299.99,-83.6,151.18
20732,53.187553,-1.876038,377.64,12.77,4,319.05,20 / 21,2072593,2019-11-06 14:01:53:386,-3.9539,-3.4353,8.805,-0.0083,-0.0335,9.8065,-0.032,0.3403,-0.2185,-6.87,-39.37,0.06,217.15,-83.5,149.41
20733,53.187553,-1.876038,377.64,12.77,4,319.05,20 / 21,2072693,2019-11-06 14:01:53:486,-0.8088,-4.239,8.92,0.0084,-0.0047,9.8066,0.0499,-0.1601,-0.006,-0.12,-39.31,-1.81,170.1,-83.62,148.27
20734,53.187553,-1.876038,377.64,12.77,4,319.05,20 / 21,2072793,2019-11-06 14:01:53:586,1.0661,-3.2038,10.1061,0.0026,-0.0038,9.8066,-0.0734,0.1178,-0.0853,0.69,-38.37,-2.44,159.99,-83.62,146.35
20735,53.187553,-1.876038,377.64,12.77,4,319.05,20 / 21,2072893,2019-11-06 14:01:53:686,-0.6573,-2.6676,9.647,0.0076,-0.0032,9.8066,-0.081,0.1972,-0.1269,0.0,-38.56,-2.12,168.82,-83.71,144.42
20736,53.187553,-1.876038,377.64,12.77,4,319.05,20 / 21,2072993,2019-11-06 14:01:53:786,-2.7348,-1.3572,9.1472,-0.0058,-0.0235,9.8066,-0.0409,0.0369,-0.0035,-4.19,-39.37,-2.25,193.32,-83.98,141.99
20737,53.187553,-1.876038,377.64,12.77,4,319.05,21 / 21,2073094,2019-11-06 14:01:53:887,-1.8067,3.3878,9.2784,-0.0224,-0.0327,9.8065,0.0246,-0.2753,0.1315,-13.06,-41.75,21.63,282.14,-84.17,142.22
20738,53.187553,-1.876038,377.64,12.77,4,319.05,21 / 21,2073193,2019-11-06 14:01:53:986,-2.6467,2.1711,9.8017,-0.0173,0.0154,9.8066,0.0143,-0.0138,0.0191,1.81,-35.94,9.56,321.01,-84.32,142.58
20739,53.187553,-1.876038,377.64,12.77,4,319.05,21 / 21,2073293,2019-11-06 14:01:54:086,0.5917,-2.924,9.8721,-0.0276,-0.02,9.8066,-0.0021,-0.2399,0.0709,2.38,-37.31,0.25,144.9,-84.62,142.85
20740,53.187553,-1.876038,377.64,12.77,4,319.05,21 / 21,2073393,2019-11-06 14:01:54:186,1.8237,-2.5697,9.7564,-0.0054,-0.0208,9.8066,0.0105,-0.0731,0.0413,1.94,-37.75,-1.06,143.68,-84.74,139.77
20741,53.187553,-1.876038,377.64,12.77,4,319.05,21 / 21,2073493,2019-11-06 14:01:54:286,-1.1803,-2.6482,9.4778,0.0212,-0.009,9.8066,-0.0324,0.1457,-0.1032,2.0,-38.19,-1.81,142.3,-84.84,139.71
20742,53.187553,-1.876038,377.64,12.77,4,319.05,21 / 21,2073593,2019-11-06 14:01:54:386,-0.0485,-2.4762,9.6433,-0.0016,0.0002,9.8066,0.0294,-0.0892,0.029,2.5,-38.12,-0.56,127.07,-84.82,138.45
20743,53.187553,-1.876038,377.64,12.77,4,319.05,21 / 21,2073693,2019-11-06 14:01:54:486,-1.3711,-2.13,9.5841,0.0217,-0.0035,9.8066,0.0213,0.0981,-0.047,2.31,-37.19,1.69,156.08,-84.9,139.3
20744,53.187553,-1.876038,377.64,12.77,4,319.05,21 / 21,2073793,2019-11-06 14:01:54:586,-1.0432,2.7086,9.5767,0.0024,0.0028,9.8066,0.0075,-0.0703,0.0307,2.75,-36.19,9.06,327.55,-84.91,139.63
20745,53.187553,-1.876038,377.64,12.77,4,319.05,21 / 21,2073893,2019-11-06 14:01:54:686,-1.8676,1.1737,9.3855,-0.0093,0.0033,9.8066,-0.0073,-0.1381,0.0514,-17.0,-41.81,11.81,254.75,-84.95,139.38
20746,53.187553,-1.876038,377.64,12.77,4,319.05,21 / 21,2073995,2019-11-06 14:01:54:788,-1.0787,-3.2899,9.9168,-0.0138,0.0055,9.8066,0.0159,-0.1275,0.0433,-2.81,-38.62,-2.44,187.22,-85.03,137.65
20747,53.187553,-1.876038,377.64,12.77,4,319.05,21 / 21,2074093,2019-11-06 14:01:54:886,-1.3025,-2.5931,9.9998,0.001,-0.0147,9.8066,0.0149,-0.1097,0.0412,0.06,-39.19,-2.37,163.96,-85.13,136.8
20748,53.187553,-1.876038,377.64,12.77,4,319.05,21 / 21,2074193,2019-11-06 14:01:54:986,0.0195,-2.7158,9.7697,-0.0131,-0.0103,9.8066,0.0249,-0.1229,0.03,0.13,-38.94,-3.31,158.6,-85.17,135.1
20749,53.187553,-1.876038,377.64,12.77,4,319.05,21 / 21,2074293,2019-11-06 14:01:55:086,-1.5749,-1.5398,9.6372,-0.0005,-0.0146,9.8066,-0.0153,-0.0176,0.0096,-0.69,-38.75,-3.44,166.66,-85.26,134.66
20750,53.187553,-1.876038,377.64,12.77,4,319.05,21 / 21,2074393,2019-11-06 14:01:55:186,-1.2848,-1.1056,9.7863,-0.012,0.0105,9.8066,0.0197,-0.1109,0.0495,-5.94,-39.44,-2.44,197.44,-85.35,134.43
20751,53.187553,-1.876038,377.64,12.77,4,319.05,21 / 21,2074493,2019-11-06 14:01:55:286,-1.663,0.9143,9.9769,-0.0068,0.0028,9.8066,0.0057,-0.0107,0.0045,-4.19,-37.75,24.69,297.9,-85.38,133.22
20752,53.187553,-1.876038,377.64,12.77,4,319.05,21 / 21,2074593,2019-11-06 14:01:55:386,-0.6553,1.4261,9.7766,0.0032,0.0075,9.8066,0.0088,-0.075,0.0538,1.94,-36.56,4.44,308.28,-85.49,132.56
20753,53.187553,-1.876038,377.64,12.77,4,319.05,21 / 21,2074693,2019-11-06 14:01:55:486,1.6178,-1.1318,9.7042,0.0058,-0.002,9.8066,0.001,-0.0438,0.0435,2.88,-37.19,0.0,107.35,-85.62,132.91
20754,53.187553,-1.876038,377.64,12.77,4,319.05,21 / 21,2074794,2019-11-06 14:01:55:587,0.6353,-2.0921,9.7357,-0.0074,-0.006,9.8066,-0.0087,-0.056,0.0378,1.31,-37.81,-1.75,147.9,-85.74,132.35
20755,53.187553,-1.876038,377.64,12.77,4,319.05,21 / 21,2074893,2019-11-06 14:01:55:686,0.4923,-1.6388,9.7832,-0.0034,-0.0097,9.8066,0.0096,-0.0732,0.0219,1.63,-37.62,-1.44,132.97,-85.83,131.74
20756,53.187553,-1.876038,377.64,12.77,4,319.05,21 / 21,2074993,2019-11-06 14:01:55:786,-0.1754,-1.1781,9.8083,-0.0106,-0.0101,9.8066,-0.0022,-0.0556,0.0236,1.88,-37.62,-0.87,131.87,-85.91,130.8
20757,53.187553,-1.876038,377.64,12.77,4,319.05,20 / 21,2075093,2019-11-06 14:01:55:886,0.0219,1.6158,9.7465,0.0067,-0.0123,9.8066,0.0122,-0.0469,0.019,2.44,-36.12,3.88,308.65,-85.98,128.31
20758,53.187553,-1.876038,377.64,12.77,4,319.05,20 / 21,2075193,2019-11-06 14:01:55:986,-0.3298,1.5397,9.8063,0.0016,0.0128,9.8066,0.0109,-0.0161,-0.0066,-1.19,-37.81,23.69,298.48,-86.13,126.32
20759,53.187553,-1.876038,377.64,12.77,4,319.05,20 / 21,2075293,2019-11-06 14:01:56:086,-1.5476,-0.5561,9.7899,-0.0069,0.0083,9.8066,-0.0024,-0.0362,0.0274,-15.12,-41.0,5.25,226.4,-86.2,125.06
20760,53.187553,-1.876038,377.64,12.77,4,319.05,20 / 21,2075394,2019-11-06 14:01:56:187,-0.8621,-1.2615,9.761,-0.0079,-0.0068,9.8066,0.0052,0.0109,0.0005,-1.19,-38.81,-3.0,158.27,-86.36,123.02
20761,53.187553,-1.876038,377.64,12.77,4,319.05,20 / 21,2075493,2019-11-06 14:01:56:286,0.0857,-1.2499,9.8441,-0.0051,-0.0098,9.8066,0.0057,-0.0307,-0.0011,-0.19,-38.25,-2.62,146.95,-86.44,121.62
20762,53.187553,-1.876038,377.64,12.77,4,319.05,20 / 21,2075593,2019-11-06 14:01:56:386,0.2677,-0.4329,9.9696,-0.004,-0.0156,9.8066,0.0278,-0.0034,-0.012,0.31,-38.44,-2.69,145.76,-86.52,120.14
20763,53.187553,-1.876038,377.64,12.77,4,319.05,20 / 21,2075693,2019-11-06 14:01:56:486,0.6366,0.2144,9.9719,0.0003,0.0005,9.8066,0.0355,-0.0243,0.0015,-2.81,-39.06,-2.81,169.46,-86.61,118.76
20764,53.187553,-1.876038,377.64,12.77,4,319.05,20 / 21,2075793,2019-11-06 14:01:56:586,0.3018,-0.453,9.8378,0.0041,-0.0048,9.8066,0.0257,0.0223,-0.0098,-14.94,-41.62,8.63,234.71,-86.62,120.34
20765,53.187553,-1.876038,377.64,12.77,4,319.05,20 / 21,2075893,2019-11-06 14:01:56:686,-0.4403,-0.4784,9.6673,-0.004,0.002,9.8066,-0.0009,0.0088,0.0005,-0.87,-36.62,21.44,292.09,-86.65,120.32
20766,53.187553,-1.876038,377.64,12.77,4,319.05,20 / 21,2075993,2019-11-06 14:01:56:786,-0.5522,0.1472,9.8185,-0.0007,0.0115,9.8066,-0.0105,0.0308,-0.008,2.38,-37.0,1.44,12.69,-86.75,117.35
20767,53.18802,-1.876816,380.29,0.0,4,318.27,21 / 21,2076093,2019-11-06 14:01:56:886,0.4824,0.1935,9.9823,-0.0004,-0.0087,9.8066,-0.0032,0.0104,-0.0082,1.63,-37.25,-0.25,106.91,-86.8,115.27
20768,53.18802,-1.876816,380.29,0.0,4,318.27,21 / 21,2076193,2019-11-06 14:01:56:986,0.1403,0.1897,9.7632,0.0013,-0.007,9.8066,-0.0041,0.0013,-0.0142,2.5,-37.31,-1.12,80.8,-86.87,113.15
20769,53.18802,-1.876816,380.29,0.0,4,318.27,21 / 21,2076294,2019-11-06 14:01:57:087,0.465,0.3954,9.7883,0.0016,-0.0085,9.8066,0.001,0.0078,0.0043,2.38,-37.5,-1.37,106.86,-86.91,111.71
20770,53.18802,-1.876816,380.29,0.0,4,318.27,21 / 21,2076393,2019-11-06 14:01:57:186,0.0971,0.6398,9.8268,0.0099,0.0,9.8066,-0.0016,0.024,-0.0209,2.31,-36.56,0.25,94.63,-87.0,109.87
20771,53.18802,-1.876816,380.29,0.0,4,318.27,21 / 21,2076493,2019-11-06 14:01:57:286,-0.4539,0.0445,9.8272,0.0005,0.0079,9.8066,-0.0031,0.0203,-0.0049,2.56,-35.56,6.44,300.78,-87.03,108.09
20772,53.18802,-1.876816,380.29,0.0,4,318.27,21 / 21,2076593,2019-11-06 14:01:57:386,-0.3613,-0.5424,9.8404,-0.0041,0.006,9.8066,0.0047,0.0152,-0.0044,-9.44,-40.0,26.31,263.04,-87.07,106.35
20773,53.18802,-1.876816,380.29,0.0,4,318.27,21 / 21,2076693,2019-11-06 14:01:57:486,0.4752,-0.2278,9.8571,-0.0104,-0.0005,9.8066,-0.0021,-0.0242,0.0069,-4.75,-38.94,-2.25,174.19,-87.13,103.9
20774,53.18802,-1.876816,380.29,0.0,4,318.27,21 / 21,2076793,2019-11-06 14:01:57:586,0.4251,-0.2452,9.8667,-0.0041,-0.0092,9.8065,-0.0026,-0.0024,-0.0152,-1.0,-38.5,-2.44,151.29,-87.18,101.09
20775,53.18802,-1.876816,380.29,0.0,4,318.27,21 / 21,2076893,2019-11-06 14:01:57:686,0.4543,0.1621,9.846,-0.0011,-0.0068,9.8066,-0.0071,-0.0092,0.0196,0.25,-38.25,-2.12,137.76,-87.21,99.35
20776,53.18802,-1.876816,380.29,0.0,4,318.27,21 / 21,2076993,2019-11-06 14:01:57:786,0.752,0.1111,9.8239,-0.0007,-0.008,9.8066,-0.0009,0.0278,-0.0083,-0.19,-38.19,-2.69,125.97,-87.27,96.75
20777,53.18802,-1.876816,380.29,0.0,4,318.27,21 / 21,2077093,2019-11-06 14:01:57:886,0.5808,-0.2294,9.8344,-0.0077,-0.0092,9.8066,0.0026,0.0058,0.0134,-4.69,-39.69,-2.12,167.11,-87.29,94.42
20778,53.18802,-1.876816,380.29,0.0,4,318.27,21 / 21,2077193,2019-11-06 14:01:57:986,-0.097,-0.7713,9.8677,-0.0072,0.0045,9.8066,0.0094,0.0071,0.0056,-14.87,-41.44,20.19,231.82,-87.32,92.12
20779,53.18802,-1.876816,380.29,0.0,4,318.27,21 / 21,2077293,2019-11-06 14:01:58:086,-0.1818,-0.1216,9.7789,-0.0057,0.0053,9.8066,-0.0102,0.0269,-0.0258,2.06,-36.06,6.69,272.4,-87.37,89.55
20780,53.18802,-1.876816,380.29,0.0,4,318.27,21 / 21,2077393,2019-11-06 14:01:58:186,-0.4468,0.3052,9.9183,-0.0009,0.0079,9.8066,-0.0009,-0.0204,0.0006,2.13,-37.31,0.38,336.96,-87.38,86.3
20781,53.18802,-1.876816,380.29,0.0,4,318.27,21 / 21,2077493,2019-11-06 14:01:58:286,-0.0235,0.5063,9.8377,0.0052,-0.0046,9.8065,-0.0105,-0.0069,-0.0151,1.94,-37.75,-1.25,66.01,-87.41,84.74
20782,53.18802,-1.876816,380.29,0.0,4,318.27,21 / 21,2077593,2019-11-06 14:01:58:386,0.5307,0.1627,9.7508,0.0024,-0.0031,9.8066,-0.0027,-0.0046,-0.0023,1.13,-37.44,-1.75,102.59,-87.42,82.57
20783,53.18802,-1.876816,380.29,0.0,4,318.27,21 / 21,2077693,2019-11-06 14:01:58:486,-0.4045,0.0767,9.8479,0.0044,-0.0045,9.8066,0.0031,0.0142,0.0039,2.0,-37.25,-0.5,314.07,-87.43,80.71
20784,53.18802,-1.876816,380.29,0.0,4,318.27,21 / 21,2077793,2019-11-06 14:01:58:586,-0.4937,-0.4006,9.8366,0.0003,0.0064,9.8066,0.0016,0.0061,0.0078,2.31,-37.12,2.0,267.57,-87.43,78.43
20785,53.18802,-1.876816,380.29,0.0,4,318.27,21 / 21,2077893,2019-11-06 14:01:58:686,-0.3985,-0.3318,9.7816,0.0004,0.0066,9.8066,0.0056,0.0103,-0.0022,2.31,-35.87,16.25,257.32,-87.43,75.78
20786,53.18802,-1.876816,380.29,0.0,4,318.27,21 / 21,2077993,2019-11-06 14:01:58:786,0.0747,-0.5217,9.8251,-0.0039,0.0047,9.8065,0.0068,-0.0312,-0.0033,-17.37,-41.81,14.75,203.2,-87.42,73.64
20787,53.18802,-1.876816,380.29,0.0,4,318.27,21 / 21,2078093,2019-11-06 14:01:58:886,0.7139,-0.1138,9.8464,-0.0047,0.0014,9.8066,-0.0099,-0.0225,0.0102,-3.25,-39.25,-2.0,144.91,-87.41,72.31
20788,53.18802,-1.876816,380.29,0.0,4,318.27,21 / 21,2078193,2019-11-06 14:01:58:986,0.4807,0.1619,9.7382,-0.0046,-0.0021,9.8066,-0.01,-0.0133,0.0051,-0.31,-38.25,-2.37,118.82,-87.41,69.97
20789,53.18802,-1.876816,380.29,0.0,4,318.27,21 / 21,2078293,2019-11-06 14:01:59:086,0.7057,0.1725,9.8448,-0.0041,-0.0058,9.8066,-0.009,-0.0119,0.007,0.13,-38.5,-2.69,102.61,-87.4,68.45
20790,53.18802,-1.876816,380.29,0.0,4,318.27,21 / 21,2078394,2019-11-06 14:01:59:187,0.5703,0.0389,9.936,-0.0066,-0.0054,9.8066,-0.0102,0.002,0.012,-0.56,-38.44,-3.0,115.15,-87.4,67.1
20791,53.18802,-1.876816,380.29,0.0,4,318.27,21 / 21,2078493,2019-11-06 14:01:59:286,0.5408,-0.4415,9.863,-0.0068,-0.0001,9.8066,0.0125,0.0142,0.0001,-10.81,-40.62,1.38,162.3,-87.36,64.14
20792,53.18802,-1.876816,380.29,0.0,4,318.27,21 / 21,2078593,2019-11-06 14:01:59:386,-0.2253,-0.5359,9.8997,-0.004,0.0047,9.8066,0.0188,-0.0149,-0.0078,-5.62,-38.5,25.75,226.45,-87.36,62.15
20793,53.18802,-1.876816,380.29,0.0,4,318.27,21 / 21,2078693,2019-11-06 14:01:59:486,-0.4086,-0.5825,9.7978,-0.0019,0.0058,9.8065,-0.0094,0.0273,-0.0053,1.88,-36.0,5.25,246.7,-87.35,61.41
20794,53.18802,-1.876816,380.29,0.0,4,318.27,21 / 21,2078793,2019-11-06 14:01:59:586,-0.3603,-0.5628,9.8196,-0.0027,0.0055,9.8066,0.0015,0.0402,-0.0091,1.94,-37.31,0.0,269.56,-87.32,59.5
20795,53.18802,-1.876816,380.29,0.0,4,318.27,21 / 21,2078894,2019-11-06 14:01:59:687,-0.4441,0.3054,9.8667,0.0042,0.002,9.8066,0.0055,0.0078,-0.0071,1.88,-37.44,-1.19,334.26,-87.3,57.5
20796,53.18802,-1.876816,380.29,0.0,4,318.27,21 / 21,2078993,2019-11-06 14:01:59:786,-0.6158,0.196,9.8858,0.0049,0.0021,9.8066,0.0032,0.0083,-0.0087,1.63,-38.06,-1.31,327.4,-87.3,56.47
20797,53.18802,-1.876816,380.29,0.0,4,318.27,21 / 21,2079093,2019-11-06 14:01:59:886,-0.6914,-0.4834,9.808,-0.001,0.0055,9.8066,-0.0042,-0.0077,-0.0194,2.25,-37.19,0.19,263.49,-87.27,54.56
20798,53.18802,-1.876816,380.29,0.0,4,318.27,21 / 21,2079193,2019-11-06 14:01:59:986,-0.4757,-0.4315,9.8544,0.0001,0.0038,9.8066,-0.0089,0.0354,-0.0024,2.5,-36.62,3.69,251.32,-87.26,54.05
20799,53.18802,-1.876816,380.29,0.0,4,318.27,21 / 21,2079293,2019-11-06 14:02:00:086,-0.163,-0.7151,9.8332,-0.0038,0.0032,9.8066,0.0022,0.0204,-0.0121,0.06,-37.62,22.5,229.62,-87.25,53.05
20800,53.18802,-1.876816,380.29,0.0,4,318.27,21 / 21,2079393,2019-11-06 14:02:00:186,0.3724,-0.509,9.8116,-0.0032,0.0012,9.8066,0.0005,0.0321,0.009,-16.25,-41.62,8.38,169.54,-87.24,51.81
20801,53.18802,-1.876816,380.29,0.0,4,318.27,21 / 21,2079493,2019-11-06 14:02:00:286,0.8575,-0.1517,9.8738,-0.0022,-0.0026,9.8066,0.0024,-0.0081,-0.0066,-1.75,-38.62,-2.37,127.17,-87.24,50.3
20802,53.18802,-1.876816,380.29,0.0,4,318.27,21 / 21,2079593,2019-11-06 14:02:00:386,0.6487,0.3732,9.8199,-0.0013,-0.0018,9.8066,-0.0016,-0.0077,-0.0024,-0.44,-38.0,-2.81,87.33,-87.24,49.8
20803,53.18802,-1.876816,380.29,0.0,4,318.27,21 / 21,2079693,2019-11-06 14:02:00:486,0.8663,0.2252,9.9987,0.0007,-0.0031,9.8066,-0.0015,-0.0057,-0.0101,-0.56,-38.5,-3.06,101.65,-87.26,48.96
20804,53.18802,-1.876816,380.29,0.0,4,318.27,21 / 21,2079794,2019-11-06 14:02:00:587,0.833,0.1832,9.7865,-0.0006,-0.0019,9.8066,-0.0076,0.0424,0.0066,-2.81,-38.94,-2.56,116.76,-87.26,48.65
20805,53.18802,-1.876816,380.29,0.0,4,318.27,21 / 21,2079894,2019-11-06 14:02:00:687,0.3832,-0.6028,9.7665,0.0011,0.0011,9.8066,0.0012,0.0088,0.0077,-14.0,-41.37,5.63,163.4,-87.27,48.12
20806,53.18802,-1.876816,380.29,0.0,4,318.27,21 / 21,2079993,2019-11-06 14:02:00:786,-0.2315,-0.8188,9.8546,-0.0041,0.0005,9.8066,0.0024,0.0143,-0.0038,2.63,-35.5,11.88,235.48,-87.26,47.81
20807,53.18802,-1.876816,380.29,0.0,4,318.27,20 / 21,2080093,2019-11-06 14:02:00:886,-0.5426,-0.6249,9.8776,0.003,0.0004,9.8066,0.0155,-0.0304,0.0128,2.44,-36.81,2.19,239.7,-87.25,47.57
20808,53.18802,-1.876816,380.29,0.0,4,318.27,20 / 21,2080194,2019-11-06 14:02:00:987,-0.4739,-0.2491,9.8174,-0.0005,0.0012,9.8066,-0.0043,-0.0107,-0.0073,1.25,-37.75,-0.81,171.86,-87.27,47.3
20809,53.18802,-1.876816,380.29,0.0,4,318.27,20 / 21,2080293,2019-11-06 14:02:01:086,0.6952,-0.5542,9.7689,-0.0008,-0.0019,9.8066,0.0085,-0.0449,0.0025,2.0,-37.87,-1.12,298.53,-87.27,47.27
20810,53.18802,-1.876816,380.29,0.0,4,318.27,20 / 21,2080394,2019-11-06 14:02:01:187,-0.5128,-0.1841,9.8491,-0.0011,-0.0012,9.8066,-0.0107,-0.0099,0.0022,2.25,-37.37,-0.5,259.04,-87.3,47.96
20811,53.18802,-1.876816,380.29,0.0,4,318.27,20 / 21,2080493,2019-11-06 14:02:01:286,-0.7797,-0.3785,9.8107,0.0009,-0.0044,9.8066,-0.005,-0.0063,0.0149,2.5,-36.75,0.5,267.07,-87.32,48.68
20812,53.18802,-1.876816,380.29,0.0,4,318.27,20 / 21,2080593,2019-11-06 14:02:01:386,-0.384,-0.6855,9.7873,-0.0008,-0.0021,9.8066,0.0058,0.0316,-0.0003,2.25,-36.44,6.06,234.84,-87.35,48.83
20813,53.18802,-1.876816,380.29,0.0,4,318.27,20 / 21,2080693,2019-11-06 14:02:01:486,0.0834,-0.5986,9.8145,0.0033,-0.0024,9.8066,0.0093,-0.0028,0.0101,-14.62,-41.75,21.63,193.95,-87.37,49.23
20814,53.18802,-1.876816,380.29,0.0,4,318.27,20 / 21,2080793,2019-11-06 14:02:01:586,0.7092,-0.1644,9.8111,0.003,-0.0008,9.8066,0.0067,-0.014,-0.0015,-5.12,-39.44,-1.87,131.9,-87.42,49.66
20815,53.18802,-1.876816,380.29,0.0,4,318.27,20 / 21,2080893,2019-11-06 14:02:01:686,0.6298,0.1351,9.8278,0.0047,0.0007,9.8066,-0.0034,-0.0211,-0.0101,-0.75,-38.25,-2.5,118.43,-87.44,50.05
20816,53.18802,-1.876816,380.29,0.0,4,318.27,20 / 21,2080993,2019-11-06 14:02:01:786,0.6772,-0.0418,9.8412,0.0011,0.004,9.8066,-0.0003,-0.0217,0.0111,0.25,-38.31,-2.0,104.81,-87.49,51.29
20817,53.18802,-1.876816,380.29,0.0,4,318.27,20 / 21,2081093,2019-11-06 14:02:01:886,0.6217,0.5477,9.7328,0.0022,0.0015,9.8066,0.0075,0.0001,-0.0069,-0.94,-38.37,-2.62,100.71,-87.56,52.12
20818,53.18802,-1.876816,380.29,0.0,4,318.27,20 / 21,2081193,2019-11-06 14:02:01:986,0.8446,-0.0244,9.871,0.0018,0.0028,9.8066,0.006,0.025,-0.0188,-3.12,-39.12,-2.94,118.24,-87.58,53.29
20819,53.18802,-1.876816,380.29,0.0,4,318.27,20 / 21,2081293,2019-11-06 14:02:02:086,0.0133,-0.6259,9.791,0.0023,-0.001,9.8066,0.0072,0.007,0.0002,-10.81,-40.19,25.88,209.41,-87.62,53.98
20820,53.18802,-1.876816,380.29,0.0,4,318.27,20 / 21,2081394,2019-11-06 14:02:02:187,-0.5775,-0.6709,9.8998,0.0014,-0.0053,9.8066,-0.0094,-0.0109,0.0019,2.5,-36.06,7.19,247.85,-87.65,54.99
20821,53.18802,-1.876816,380.29,0.0,4,318.27,20 / 21,2081493,2019-11-06 14:02:02:286,-0.3558,-0.4919,9.7601,-0.0024,-0.0047,9.8066,-0.0059,-0.0034,-0.0046,2.31,-37.44,1.0,257.98,-87.68,55.53
20822,53.18802,-1.876816,380.29,0.0,4,318.27,20 / 21,2081593,2019-11-06 14:02:02:386,-0.573,0.3066,9.8626,-0.0022,-0.0027,9.8066,-0.0057,0.0168,-0.0023,2.06,-37.69,-1.0,340.86,-87.73,57.04
20823,53.18802,-1.876816,380.29,0.0,4,318.27,20 / 21,2081693,2019-11-06 14:02:02:486,-0.5799,0.3617,9.8352,-0.0036,0.0047,9.8066,0.0048,0.0245,-0.0147,1.88,-37.75,-1.31,345.8,-87.79,58.5
20824,53.18802,-1.876816,380.29,0.0,4,318.27,20 / 21,2081793,2019-11-06 14:02:02:586,-0.2149,0.3134,9.7576,-0.0076,0.0014,9.8066,0.0025,0.0254,-0.0019,1.94,-37.94,-1.0,350.98,-87.82,60.23
20825,53.18802,-1.876816,380.29,0.0,4,318.27,20 / 21,2081893,2019-11-06 14:02:02:686,-0.257,-0.5498,9.8141,-0.0047,-0.003,9.8066,-0.0086,-0.0009,-0.0194,2.38,-36.25,1.94,259.5,-87.88,62.06
20826,53.18802,-1.876816,380.29,0.0,4,318.27,20 / 21,2081993,2019-11-06 14:02:02:786,-0.307,-0.4742,9.8288,0.0004,-0.005,9.8066,-0.0043,0.0134,0.0061,2.81,-36.25,13.38,251.06,-87.9,63.43
20827,53.18802,-1.876816,380.29,0.0,4,318.27,20 / 20,2082093,2019-11-06 14:02:02:886,0.0942,-0.4913,9.8248,-0.0004,-0.0057,9.8066,-0.0049,0.0299,-0.0162,-17.62,-42.25,17.94,198.85,-87.92,64.95
20828,53.18802,-1.876816,380.29,0.0,4,318.27,20 / 20,2082193,2019-11-06 14:02:02:986,0.6281,0.1871,9.8735,0.0058,0.0013,9.8066,0.0104,0.0165,0.004,-1.5,-38.44,-2.06,123.57,-87.97,66.89
20829,53.18802,-1.876816,380.29,0.0,4,318.27,20 / 20,2082293,2019-11-06 14:02:03:086,0.4443,0.1959,9.7687,0.0037,0.0007,9.8066,-0.0026,0.0051,-0.0089,-0.19,-38.0,-3.0,94.82,-88.02,68.91
20830,53.18802,-1.876816,380.29,0.0,4,318.27,20 / 20,2082393,2019-11-06 14:02:03:186,0.3237,0.5615,9.8109,0.0051,0.0029,9.8066,-0.0036,0.0195,-0.0219,0.38,-38.06,-2.87,95.93,-88.05,70.48
20831,53.18802,-1.876816,380.29,0.0,4,318.27,20 / 20,2082494,2019-11-06 14:02:03:287,0.7389,0.2639,9.8648,0.0044,0.0,9.8066,-0.0163,0.003,-0.0106,-1.19,-38.56,-2.44,127.25,-88.05,72.55
20832,53.18802,-1.876816,380.29,0.0,4,318.27,20 / 20,2082593,2019-11-06 14:02:03:386,0.334,0.0226,9.8223,0.003,0.001,9.8066,-0.0074,0.0525,-0.0032,-9.62,-40.19,-0.56,159.88,-88.06,72.94
20833,53.18802,-1.876816,380.29,0.0,4,318.27,20 / 20,2082693,2019-11-06 14:02:03:486,-0.2671,-0.5204,9.8246,-0.0034,-0.0043,9.8066,0.0059,-0.0012,-0.0181,-7.25,-38.37,25.88,236.69,-88.07,74.03
20834,53.18802,-1.876816,380.29,0.0,4,318.27,20 / 20,2082793,2019-11-06 14:02:03:586,-0.4363,-0.4882,9.784,-0.0002,-0.0042,9.8066,0.0043,-0.0152,0.0076,2.63,-35.75,3.31,285.36,-88.09,76.16
20835,53.18802,-1.876816,380.29,0.0,4,318.27,20 / 20,2082893,2019-11-06 14:02:03:686,-1.353,0.0309,9.963,-0.0038,-0.0033,9.8066,0.0101,0.0377,-0.0027,2.25,-37.19,-0.44,333.11,-88.12,79.04
20836,53.18802,-1.876816,380.29,0.0,4,318.27,20 / 20,2082993,2019-11-06 14:02:03:786,-0.5074,0.6746,9.8359,-0.0064,0.0111,9.8066,0.016,0.0646,-0.0042,1.63,-37.75,-1.19,38.45,-88.14,81.79
20837,53.18802,-1.876816,380.29,0.0,4,318.27,20 / 21,2083093,2019-11-06 14:02:03:886,-1.3253,1.8733,10.1413,-0.0116,0.0177,9.8065,0.0576,0.0025,0.002,1.56,-37.0,-1.06,53.98,-88.18,92.19
20838,53.18802,-1.876816,380.29,0.0,4,318.27,20 / 21,2083193,2019-11-06 14:02:03:986,-3.9726,1.4083,9.8693,-0.0186,0.012,9.8066,0.0389,0.0551,-0.0491,1.63,-38.12,0.19,25.24,-88.17,100.22
20839,53.18802,-1.876816,380.29,0.0,4,318.27,20 / 21,2083293,2019-11-06 14:02:04:086,-1.5426,1.2943,9.7955,-0.0117,0.0181,9.8066,0.0201,0.1041,-0.025,1.94,-37.69,-0.19,43.68,-88.07,107.42
20840,53.18802,-1.876816,380.29,0.0,4,318.27,20 / 21,2083393,2019-11-06 14:02:04:186,-3.8831,2.8512,9.5298,-0.0064,0.009,9.8066,0.0023,0.1134,-0.0095,1.81,-38.0,0.13,58.45,-88.06,115.15
20841,53.18802,-1.876816,380.29,0.0,4,318.27,20 / 21,2083493,2019-11-06 14:02:04:286,-2.2628,2.5686,9.599,-0.0068,0.0003,9.8066,-0.0032,0.0455,-0.0091,2.31,-38.12,0.31,64.95,-88.02,118.52
20842,53.18802,-1.876816,380.29,0.0,4,318.27,20 / 21,2083593,2019-11-06 14:02:04:386,-3.2327,-0.6852,9.9252,-0.0044,0.0059,9.8066,0.0124,0.0409,-0.0394,2.19,-38.25,0.56,9.02,-87.97,120.15
20843,53.18802,-1.876816,380.29,0.0,4,318.27,20 / 21,2083693,2019-11-06 14:02:04:486,-2.6507,3.7197,9.9715,-0.0071,0.0038,9.8066,0.0293,-0.0855,-0.0332,1.81,-37.87,-0.5,79.47,-87.78,122.98
20844,53.18802,-1.876816,380.29,0.0,4,318.27,20 / 21,2083793,2019-11-06 14:02:04:586,-0.8114,2.4517,10.0584,-0.0108,0.0089,9.8066,-0.0184,-0.0763,-0.0263,1.75,-37.62,-0.62,103.67,-87.62,123.89
20845,53.18802,-1.876816,380.29,0.0,4,318.27,20 / 21,2083894,2019-11-06 14:02:04:687,0.43,3.5388,9.8573,-0.0053,-0.0059,9.8066,-0.0421,-0.0132,0.0196,1.75,-37.56,-0.69,102.99,-87.58,121.98
20846,53.18802,-1.876816,380.29,0.0,4,318.27,20 / 21,2083994,2019-11-06 14:02:04:787,-1.3386,2.8581,10.1225,0.0127,0.0034,9.8065,0.0198,0.0375,-0.0947,1.5,-37.56,-1.37,101.71,-87.55,119.77
20847,53.18802,-1.876816,380.29,0.0,4,318.27,21 / 21,2084093,2019-11-06 14:02:04:886,0.713,2.7135,9.9205,-0.0087,-0.0022,9.8066,0.0183,-0.1607,0.0083,1.56,-37.56,-0.81,104.15,-87.37,118.44
20848,53.18802,-1.876816,380.29,0.0,4,318.27,21 / 21,2084195,2019-11-06 14:02:04:988,-0.9771,2.1427,9.9642,-0.0094,0.015,9.8066,-0.0132,-0.014,-0.006,1.69,-37.06,-0.81,106.75,-87.22,119.98
20849,53.18802,-1.876816,380.29,0.0,4,318.27,21 / 21,2084294,2019-11-06 14:02:05:087,0.6397,3.5884,9.621,-0.0229,0.0002,9.8066,-0.0146,-0.1781,0.001,1.94,-37.31,-1.69,111.5,-87.2,119.95
20850,53.18802,-1.876816,380.29,0.0,4,318.27,21 / 21,2084393,2019-11-06 14:02:05:186,0.1353,2.6835,9.9485,-0.0088,-0.0018,9.8066,0.0604,-0.0905,0.0052,2.06,-37.87,-1.69,114.71,-86.92,118.77
20851,53.18802,-1.876816,380.29,0.0,4,318.27,21 / 21,2084493,2019-11-06 14:02:05:286,-0.0133,3.3759,9.9556,-0.0169,0.0141,9.8066,0.0136,-0.2755,0.0399,1.0,-38.0,-1.44,142.75,-86.74,119.99
20852,53.18802,-1.876816,380.29,0.0,4,318.27,21 / 21,2084593,2019-11-06 14:02:05:386,2.6998,1.888,9.6302,-0.0162,0.0196,9.8066,0.0159,-0.115,0.0617,1.25,-37.56,-1.5,143.97,-86.63,120.43
20853,53.18802,-1.876816,380.29,0.0,4,318.27,21 / 21,2084693,2019-11-06 14:02:05:486,0.6215,1.9778,10.2516,-0.0218,0.0138,9.8066,-0.0034,-0.1798,0.0073,2.0,-36.87,-1.19,121.78,-86.37,122.25
20854,53.18802,-1.876816,380.29,0.0,4,318.27,21 / 21,2084793,2019-11-06 14:02:05:586,1.5958,3.0009,10.0894,-0.0122,-0.0044,9.8066,0.0615,-0.2062,0.0818,1.63,-37.5,-1.0,123.19,-86.27,122.12
20855,53.18802,-1.876816,380.29,0.0,4,318.27,21 / 21,2084893,2019-11-06 14:02:05:686,0.503,1.7817,9.3122,-0.0327,-0.0206,9.8066,-0.0668,-0.1583,0.0873,1.63,-37.81,-1.56,124.27,-86.31,123.58
20856,53.18802,-1.876816,380.29,0.0,4,318.27,21 / 21,2084993,2019-11-06 14:02:05:786,0.2462,1.0203,9.8623,-0.0271,-0.001,9.8066,-0.0414,-0.1405,-0.0361,1.81,-37.75,-1.69,121.7,-86.16,116.67
20857,53.18802,-1.876816,380.29,0.0,4,318.27,21 / 21,2085093,2019-11-06 14:02:05:886,-0.7473,1.3922,10.5642,-0.0411,0.0174,9.8065,0.0284,-0.2237,0.0715,2.06,-36.81,-2.06,123.19,-85.8,114.8
20858,53.18802,-1.876816,380.29,0.0,4,318.27,21 / 21,2085194,2019-11-06 14:02:05:987,1.7331,0.4344,10.106,-0.0152,0.0133,9.8066,0.0339,-0.0994,0.0027,2.19,-36.87,-1.25,128.95,-85.68,116.02
20859,53.18802,-1.876816,380.29,0.0,4,318.27,21 / 21,2085294,2019-11-06 14:02:06:087,1.4677,2.1202,9.4195,0.0197,0.0056,9.8065,-0.0284,-0.2158,0.0596,1.63,-37.0,-3.0,124.37,-85.67,118.24
20860,53.18802,-1.876816,380.29,0.0,4,318.27,21 / 21,2085393,2019-11-06 14:02:06:186,1.7025,1.0966,9.8516,-0.0026,0.0003,9.8066,0.028,-0.1216,0.0578,1.5,-37.94,-1.12,129.82,-85.78,118.93
20861,53.18802,-1.876816,380.29,0.0,4,318.27,21 / 21,2085493,2019-11-06 14:02:06:286,2.916,1.0471,10.6696,-0.0174,0.0297,9.8065,0.1068,-0.2256,0.0732,1.88,-37.5,-1.19,128.9,-85.81,122.02
20862,53.18802,-1.876816,380.29,0.0,4,318.27,21 / 21,2085594,2019-11-06 14:02:06:387,0.8347,1.7551,9.7784,-0.0155,0.0263,9.8066,0.004,-0.0484,-0.0467,1.56,-37.31,-1.69,132.28,-85.33,125.19
20863,53.18802,-1.876816,380.29,0.0,4,318.27,21 / 21,2085693,2019-11-06 14:02:06:486,-1.0524,1.7419,8.9135,-0.0022,0.0092,9.8066,-0.033,-0.0127,-0.0431,1.63,-37.0,-1.87,134.62,-85.03,125.87
20864,53.18802,-1.876816,380.29,0.0,4,318.27,21 / 21,2085793,2019-11-06 14:02:06:586,2.4138,0.8472,9.5827,-0.004,0.0089,9.8066,-0.0132,0.1681,-0.107,1.31,-37.06,-1.69,148.73,-84.98,126.66
20865,53.18802,-1.876816,380.29,0.0,4,318.27,21 / 21,2085893,2019-11-06 14:02:06:686,-0.7581,1.8263,9.367,0.0148,-0.019,9.8066,-0.0459,0.108,-0.1418,1.38,-37.56,-2.56,144.69,-85.06,126.43
20866,53.18802,-1.876816,380.29,0.0,4,318.27,21 / 21,2085993,2019-11-06 14:02:06:786,1.6866,1.4969,10.4092,-0.0405,-0.0126,9.8065,0.0045,-0.121,0.0083,1.44,-37.19,-2.31,147.73,-84.98,123.73
20867,53.188095,-1.876913,382.37,6.6,4,327.6,21 / 21,2086094,2019-11-06 14:02:06:887,2.2289,1.766,10.367,-0.039,0.0124,9.8065,-0.0964,-0.2614,0.0814,1.75,-36.94,-2.44,133.51,-84.93,121.42
20868,53.188095,-1.876913,382.37,6.6,4,327.6,21 / 21,2086193,2019-11-06 14:02:06:986,-0.0851,1.9365,9.3835,-0.0284,-0.0131,9.8066,0.0921,-0.2984,0.0835,1.31,-36.87,-3.0,140.88,-84.94,118.72
20869,53.188095,-1.876913,382.37,6.6,4,327.6,21 / 21,2086293,2019-11-06 14:02:07:086,-0.2989,1.7733,10.0501,-0.0021,0.0084,9.8066,0.0398,-0.0843,-0.0221,1.31,-37.5,-2.19,146.76,-84.91,119.75
20870,53.188095,-1.876913,382.37,6.6,4,327.6,21 / 21,2086393,2019-11-06 14:02:07:186,1.8803,-0.0543,9.8691,-0.0366,0.0154,9.8065,-0.0553,-0.0989,0.0976,1.06,-36.94,-2.5,146.8,-84.91,119.86
20871,53.188095,-1.876913,382.37,6.6,4,327.6,21 / 21,2086494,2019-11-06 14:02:07:287,0.7515,1.9323,9.8431,-0.0018,-0.011,9.8066,-0.0182,-0.0489,-0.1009,1.38,-37.12,-3.06,141.11,-84.74,117.23
20872,53.188095,-1.876913,382.37,6.6,4,327.6,21 / 21,2086593,2019-11-06 14:02:07:386,-1.6764,1.4583,8.6401,-0.0256,-0.018,9.8066,0.0634,-0.1088,0.0674,1.19,-36.75,-2.87,140.69,-84.52,114.06
20873,53.188095,-1.876913,382.37,6.6,4,327.6,21 / 21,2086693,2019-11-06 14:02:07:486,-1.4639,1.9438,10.3055,0.0038,-0.0135,9.8066,-0.0705,-0.1048,0.1126,1.5,-37.44,-3.19,128.65,-84.64,113.83
20874,53.188095,-1.876913,382.37,6.6,4,327.6,21 / 21,2086793,2019-11-06 14:02:07:586,0.1783,0.9212,9.8,-0.0091,0.0049,9.8066,-0.0497,-0.1847,0.127,1.44,-36.75,-3.0,138.43,-84.78,111.99
20875,53.188095,-1.876913,382.37,6.6,4,327.6,21 / 21,2086893,2019-11-06 14:02:07:686,-1.123,1.8934,9.557,0.0028,-0.006,9.8066,0.0254,0.1404,0.0088,1.25,-36.81,-2.87,137.6,-84.95,112.07
20876,53.188095,-1.876913,382.37,6.6,4,327.6,21 / 21,2086993,2019-11-06 14:02:07:786,0.8275,1.3401,9.8898,0.0035,0.0063,9.8066,-0.002,0.042,-0.0402,1.44,-36.56,-4.12,133.77,-84.87,112.47
20877,53.188095,-1.876913,382.37,6.6,4,327.6,20 / 21,2087093,2019-11-06 14:02:07:886,-2.2057,2.2384,10.0789,0.0294,-0.0012,9.8065,-0.0454,0.3098,-0.0229,1.88,-37.37,-3.12,126.57,-84.92,113.32
20878,53.188095,-1.876913,382.37,6.6,4,327.6,20 / 21,2087193,2019-11-06 14:02:07:986,-2.2548,2.197,9.997,0.0002,0.0047,9.8066,0.0458,-0.2076,0.1455,1.75,-37.44,-3.44,126.55,-85.08,115.2
20879,53.188095,-1.876913,382.37,6.6,4,327.6,20 / 21,2087293,2019-11-06 14:02:08:086,-1.2588,0.7951,10.0587,0.0092,-0.004,9.8066,0.0048,0.0397,0.0474,1.69,-36.75,-2.56,126.19,-85.28,116.86
20880,53.188095,-1.876913,382.37,6.6,4,327.6,20 / 21,2087393,2019-11-06 14:02:08:186,-0.3949,1.6186,9.5457,0.0054,0.0041,9.8066,-0.009,0.0833,0.0292,1.75,-37.62,-3.06,127.53,-85.27,117.6
20881,53.188095,-1.876913,382.37,6.6,4,327.6,20 / 21,2087493,2019-11-06 14:02:08:286,0.5149,2.0088,9.6836,0.022,-0.0028,9.8066,-0.0498,0.184,0.0042,1.56,-36.44,-2.56,125.3,-85.43,118.48
20882,53.188095,-1.876913,382.37,6.6,4,327.6,20 / 21,2087594,2019-11-06 14:02:08:387,0.8357,0.8207,9.9211,-0.013,-0.03,9.8066,-0.0406,-0.0161,0.0343,2.75,-37.44,-2.44,109.14,-85.58,116.94
20883,53.188095,-1.876913,382.37,6.6,4,327.6,20 / 21,2087693,2019-11-06 14:02:08:486,-1.4201,0.4874,9.8814,0.0058,-0.0082,9.8066,-0.0442,-0.119,0.0964,2.75,-36.25,-2.94,106.17,-85.6,112.38
20884,53.188095,-1.876913,382.37,6.6,4,327.6,20 / 21,2087793,2019-11-06 14:02:08:586,-2.3225,-0.0507,9.9,-0.0288,0.0019,9.8066,-0.0194,-0.0945,0.0706,2.63,-36.37,-3.25,106.41,-85.45,111.1
20885,53.188095,-1.876913,382.37,6.6,4,327.6,20 / 21,2087893,2019-11-06 14:02:08:686,-2.052,1.6203,9.3638,0.0057,0.0115,9.8066,-0.0413,0.1401,-0.0157,2.5,-36.31,-2.69,106.06,-85.51,111.31
20886,53.188095,-1.876913,382.37,6.6,4,327.6,20 / 21,2087994,2019-11-06 14:02:08:787,-1.2921,-1.5028,7.5463,-0.0063,-0.0275,9.8065,-0.086,0.2271,0.1373,2.75,-36.87,-3.31,103.93,-85.66,109.04
20887,53.188095,-1.876913,382.37,6.6,4,327.6,21 / 21,2088094,2019-11-06 14:02:08:887,-3.3035,2.6901,11.3787,0.0479,-0.0962,9.806,0.2532,0.2241,-0.2959,2.38,-36.37,-2.94,111.47,-86.12,106.17
20888,53.188095,-1.876913,382.37,6.6,4,327.6,21 / 21,2088194,2019-11-06 14:02:08:987,-0.3125,1.9188,11.4663,0.0755,-0.0526,9.8062,0.1925,0.134,-0.2334,2.25,-36.56,-3.06,116.54,-85.91,109.31
20889,53.188095,-1.876913,382.37,6.6,4,327.6,21 / 21,2088293,2019-11-06 14:02:09:086,-3.893,-0.1233,8.2785,-0.0148,0.0219,9.8065,-0.2325,0.5896,0.0132,2.38,-36.19,-3.0,113.17,-86.31,110.57
20890,53.188095,-1.876913,382.37,6.6,4,327.6,21 / 21,2088394,2019-11-06 14:02:09:187,0.5397,1.2283,10.9342,0.004,0.0609,9.8064,-0.1764,-0.028,0.1968,2.75,-36.56,-2.87,102.45,-86.58,116.93
20891,53.188095,-1.876913,382.37,6.6,4,327.6,21 / 21,2088494,2019-11-06 14:02:09:287,-0.4299,1.0607,8.5251,0.1086,-0.0167,9.806,-0.0615,-0.7817,0.4655,1.75,-37.25,-3.25,113.04,-87.19,119.16
20892,53.188095,-1.876913,382.37,6.6,4,327.6,21 / 21,2088593,2019-11-06 14:02:09:386,5.7808,2.4867,9.9772,0.024,-0.062,9.8063,-0.0123,-0.3891,0.1612,2.69,-37.56,-2.62,90.62,-87.52,112.81
20893,53.188095,-1.876913,382.37,6.6,4,327.6,21 / 21,2088693,2019-11-06 14:02:09:486,-1.3783,0.2675,9.8569,0.0756,0.0002,9.8063,-0.0903,0.2639,-0.139,2.44,-36.5,-3.12,93.35,-87.89,105.46
20894,53.188095,-1.876913,382.37,6.6,4,327.6,21 / 21,2088793,2019-11-06 14:02:09:586,-0.0901,0.2709,9.4846,-0.0181,-0.0152,9.8065,0.1236,-0.325,0.2396,1.81,-36.62,-3.25,86.04,-88.06,99.49
20895,53.188095,-1.876913,382.37,6.6,4,327.6,21 / 21,2088894,2019-11-06 14:02:09:687,-2.0522,-0.2313,9.5872,0.0476,0.0229,9.8064,-0.0014,0.0533,-0.2203,1.75,-36.69,-3.69,92.76,-88.14,103.74
20896,53.188095,-1.876913,382.37,6.6,4,327.6,21 / 21,2088993,2019-11-06 14:02:09:786,-0.4868,1.0558,10.1159,-0.0507,0.0008,9.8065,0.0739,-0.502,0.2114,1.94,-37.06,-3.81,97.75,-87.57,103.95
20897,53.188095,-1.876913,382.37,6.6,4,327.6,20 / 21,2089093,2019-11-06 14:02:09:886,-1.966,-0.0303,10.2656,-0.0161,0.0094,9.8066,0.0096,-0.1534,0.0952,1.94,-37.25,-3.12,96.74,-87.73,106.65
20898,53.188095,-1.876913,382.37,6.6,4,327.6,20 / 21,2089193,2019-11-06 14:02:09:986,3.3431,0.8675,8.5927,-0.0535,0.0073,9.8064,-0.1539,-0.5117,0.2527,1.5,-37.0,-4.0,97.74,-87.55,103.8
20899,53.188095,-1.876913,382.37,6.6,4,327.6,20 / 21,2089293,2019-11-06 14:02:10:086,2.7162,1.6143,10.1328,0.0036,-0.0344,9.8066,0.0866,-0.4284,0.0624,1.63,-36.87,-4.19,88.75,-87.86,97.31
20900,53.188095,-1.876913,382.37,6.6,4,327.6,20 / 21,2089393,2019-11-06 14:02:10:186,-0.472,-0.1669,8.7497,-0.0198,-0.0247,9.8066,0.0913,-0.4572,0.0376,1.06,-36.62,-4.69,102.5,-87.93,98.99
20901,53.188095,-1.876913,382.37,6.6,4,327.6,20 / 21,2089493,2019-11-06 14:02:10:286,1.8356,1.2954,8.9578,-0.0461,-0.005,9.8064,0.0199,-0.4045,0.2623,0.81,-37.06,-4.56,99.05,-87.81,94.47
20902,53.188095,-1.876913,382.37,6.6,4,327.6,20 / 21,2089593,2019-11-06 14:02:10:386,-0.6337,1.4119,10.3952,-0.0375,0.0084,9.8066,-0.0468,-0.3166,0.1622,0.44,-36.62,-5.0,110.5,-87.85,95.4
20903,53.188095,-1.876913,382.37,6.6,4,327.6,20 / 21,2089694,2019-11-06 14:02:10:487,3.3717,-2.7305,9.6106,-0.0161,-0.005,9.8066,-0.0793,-0.4753,0.1929,0.06,-36.5,-5.37,103.86,-88.05,90.1
20904,53.188095,-1.876913,382.37,6.6,4,327.6,20 / 21,2089793,2019-11-06 14:02:10:586,0.2664,-0.8748,9.4847,-0.0131,-0.0162,9.8066,-0.0382,-0.2527,0.178,0.13,-36.87,-6.0,84.95,-88.33,74.6
20905,53.188095,-1.876913,382.37,6.6,4,327.6,20 / 21,2089893,2019-11-06 14:02:10:686,2.6548,-0.6131,9.4476,0.0084,-0.0359,9.8066,0.0957,-0.3625,-0.0072,-0.56,-37.0,-6.12,83.86,-88.51,65.33
20906,53.188095,-1.876913,382.37,6.6,4,327.6,20 / 21,2089993,2019-11-06 14:02:10:786,1.1521,1.8941,10.5132,-0.0192,-0.0096,9.8066,0.1252,-0.2862,0.0358,-0.44,-36.87,-5.5,81.02,-88.61,70.8
20907,53.188095,-1.876913,382.37,6.6,4,327.6,20 / 21,2090093,2019-11-06 14:02:10:886,3.7639,0.149,9.7834,-0.0457,0.0272,9.8065,-0.0554,-0.2774,0.145,-1.25,-36.5,-6.56,90.81,-88.47,74.86
20908,53.188095,-1.876913,382.37,6.6,4,327.6,20 / 21,2090193,2019-11-06 14:02:10:986,1.9108,-0.6036,9.7638,-0.0244,0.0209,9.8066,-0.0019,-0.1587,-0.0354,-0.69,-36.5,-6.12,99.29,-88.34,80.09
20909,53.188095,-1.876913,382.37,6.6,4,327.6,20 / 21,2090293,2019-11-06 14:02:11:086,2.9669,-1.1471,10.2229,-0.0586,0.0297,9.8063,-0.0585,0.2858,-0.2336,-0.94,-36.81,-6.5,107.32,-88.05,86.47
20910,53.188095,-1.876913,382.37,6.6,4,327.6,20 / 21,2090393,2019-11-06 14:02:11:186,-2.563,0.5824,9.7837,-0.0139,0.0101,9.8066,-0.0014,0.1068,-0.0797,-0.44,-35.81,-7.0,100.36,-87.92,89.76
20911,53.188095,-1.876913,382.37,6.6,4,327.6,20 / 21,2090493,2019-11-06 14:02:11:286,0.5231,0.4831,9.6304,-0.0524,0.0159,9.8065,0.0251,-0.2166,0.1391,-1.12,-36.81,-6.44,112.74,-87.73,90.43
20912,53.188095,-1.876913,382.37,6.6,4,327.6,20 / 21,2090593,2019-11-06 14:02:11:386,-2.3685,1.0263,9.6159,0.0162,-0.0194,9.8065,-0.033,0.2409,-0.1654,-0.81,-36.62,-6.31,113.18,-87.72,90.9
20913,53.188095,-1.876913,382.37,6.6,4,327.6,20 / 21,2090693,2019-11-06 14:02:11:486,3.2935,-1.2988,9.8718,-0.0273,-0.004,9.8066,-0.0267,-0.2011,0.1222,-1.06,-36.5,-7.37,105.85,-87.7,86.39
20914,53.188095,-1.876913,382.37,6.6,4,327.6,20 / 21,2090793,2019-11-06 14:02:11:586,-0.8465,0.8664,10.159,0.0295,-0.0253,9.8065,0.012,0.2603,-0.1593,-0.87,-36.44,-7.0,97.94,-87.93,79.31
20915,53.188095,-1.876913,382.37,6.6,4,327.6,20 / 21,2090893,2019-11-06 14:02:11:686,-0.8027,1.318,9.3376,-0.0223,0.0338,9.8065,0.007,0.3061,-0.1832,-1.06,-36.56,-7.37,104.08,-87.83,84.89
20916,53.188095,-1.876913,382.37,6.6,4,327.6,20 / 21,2090993,2019-11-06 14:02:11:786,-1.5275,3.5881,10.0716,0.0301,-0.0077,9.8065,-0.031,0.3904,-0.1356,-1.5,-36.81,-7.37,103.25,-88.1,85.42
20917,53.188095,-1.876913,382.37,6.6,4,327.6,21 / 21,2091093,2019-11-06 14:02:11:886,2.5063,-1.0023,8.4938,-0.0485,0.045,9.8064,0.1627,0.0027,0.0823,-1.31,-37.31,-7.06,106.32,-87.8,87.08
20918,53.188095,-1.876913,382.37,6.6,4,327.6,21 / 21,2091193,2019-11-06 14:02:11:986,4.1692,-1.0824,10.8589,-0.0318,-0.0291,9.8065,-0.0114,0.5869,-0.4274,-1.37,-36.62,-7.19,100.65,-88.22,83.34
20919,53.188095,-1.876913,382.37,6.6,4,327.6,21 / 21,2091293,2019-11-06 14:02:12:086,-3.1486,3.411,9.8021,-0.0325,0.01,9.8066,-0.044,0.727,-0.0875,-1.31,-37.0,-7.06,113.76,-88.08,96.39
20920,53.188095,-1.876913,382.37,6.6,4,327.6,21 / 21,2091393,2019-11-06 14:02:12:186,2.9274,-0.9572,10.1264,-0.0895,0.0211,9.8061,0.0021,0.1071,-0.2466,-1.62,-37.06,-7.25,121.63,-87.98,96.94
20921,53.188095,-1.876913,382.37,6.6,4,327.6,21 / 21,2091494,2019-11-06 14:02:12:287,-1.134,1.0579,9.7083,-0.0258,0.0142,9.8065,0.0653,-0.2768,0.0028,-1.5,-36.37,-6.87,114.53,-88.39,98.91
20922,53.188095,-1.876913,382.37,6.6,4,327.6,21 / 21,2091593,2019-11-06 14:02:12:386,-0.8174,-0.1171,9.6334,-0.0319,-0.0112,9.8065,0.1294,-0.1696,0.1174,-1.81,-35.94,-7.62,117.84,-88.11,96.49
20923,53.188095,-1.876913,382.37,6.6,4,327.6,21 / 21,2091693,2019-11-06 14:02:12:486,-1.9372,0.5399,9.0852,0.0228,0.0394,9.8065,0.0557,0.1415,-0.0448,-1.44,-36.87,-7.19,129.4,-87.91,112.81
20924,53.188095,-1.876913,382.37,6.6,4,327.6,21 / 21,2091793,2019-11-06 14:02:12:586,0.8655,-1.7599,10.3855,-0.0381,0.0056,9.8065,0.0807,-0.2192,0.1529,-1.44,-35.87,-7.19,128.63,-87.6,110.95
20925,53.188095,-1.876913,382.37,6.6,4,327.6,21 / 21,2091893,2019-11-06 14:02:12:686,0.8326,-0.4106,9.2187,-0.0052,-0.0039,9.8066,-0.0349,0.1197,0.0431,-1.0,-35.69,-7.31,128.19,-87.54,110.18
20926,53.188095,-1.876913,382.37,6.6,4,327.6,21 / 21,2091993,2019-11-06 14:02:12:786,2.1007,0.558,10.2923,-0.0334,-0.0005,9.8065,0.0182,-0.1684,0.0556,-1.12,-36.75,-7.19,124.78,-87.38,105.34
20927,53.188095,-1.876913,382.37,6.6,4,327.6,21 / 21,2092093,2019-11-06 14:02:12:886,-0.3808,-1.9478,9.5847,0.0041,-0.0039,9.8066,-0.0509,0.0299,-0.0125,-1.0,-37.12,-8.0,123.09,-87.27,105.42
20928,53.188095,-1.876913,382.37,6.6,4,327.6,21 / 21,2092193,2019-11-06 14:02:12:986,-0.8447,0.8427,9.5583,0.0094,0.0113,9.8066,-0.008,-0.0341,0.0856,-0.19,-36.37,-7.56,119.72,-87.21,108.77
20929,53.188095,-1.876913,382.37,6.6,4,327.6,21 / 21,2092293,2019-11-06 14:02:13:086,-0.1144,0.8146,8.745,0.0078,0.0006,9.8066,-0.06,0.061,0.101,0.0,-35.31,-3.62,130.03,-87.28,111.54
20930,53.188095,-1.876913,382.37,6.6,4,327.6,21 / 21,2092393,2019-11-06 14:02:13:186,-0.5061,-0.4322,8.7613,-0.0062,0.0226,9.8066,-0.0478,0.1312,-0.1265,-1.12,-35.12,12.75,275.32,-87.46,106.53
20931,53.188095,-1.876913,382.37,6.6,4,327.6,21 / 21,2092493,2019-11-06 14:02:13:286,0.2206,1.2784,9.5826,-0.0044,0.0199,9.8065,-0.0297,0.1373,-0.0243,-19.62,-39.62,3.94,200.11,-87.72,100.32
20932,53.188095,-1.876913,382.37,6.6,4,327.6,21 / 21,2092593,2019-11-06 14:02:13:386,-0.2895,0.1118,9.4265,-0.0072,0.0021,9.8066,-0.0508,0.1555,-0.0907,-4.06,-37.12,-10.25,126.26,-87.68,98.03
20933,53.188095,-1.876913,382.37,6.6,4,327.6,21 / 21,2092694,2019-11-06 14:02:13:487,1.5499,1.1332,9.4804,-0.0033,-0.0175,9.8066,-0.0292,-0.0372,0.0833,-2.81,-37.12,-10.12,122.83,-87.7,99.28
20934,53.188095,-1.876913,382.37,6.6,4,327.6,21 / 21,2092794,2019-11-06 14:02:13:587,1.8679,-1.2544,9.3139,0.0009,0.0182,9.8066,-0.0623,0.1281,-0.0324,-2.69,-37.06,-9.94,125.31,-87.56,101.55
20935,53.188095,-1.876913,382.37,6.6,4,327.6,21 / 21,2092894,2019-11-06 14:02:13:687,-0.1304,0.2987,10.2552,-0.0285,-0.001,9.8066,-0.0774,-0.1258,0.0948,-4.44,-37.19,-9.87,129.55,-87.39,100.84
20936,53.188095,-1.876913,382.37,6.6,4,327.6,21 / 21,2092993,2019-11-06 14:02:13:786,1.1342,-2.2507,9.1298,-0.016,0.0283,9.8065,-0.0221,0.2378,-0.1411,-14.5,-39.25,-4.5,175.6,-87.36,101.01
20937,53.188095,-1.876913,382.37,6.6,4,327.6,20 / 21,2093093,2019-11-06 14:02:13:886,1.8394,1.1384,9.1115,0.0415,0.0182,9.8065,-0.0421,0.2373,-0.1799,-6.25,-37.06,17.56,255.15,-87.41,98.46
20938,53.188095,-1.876913,382.37,6.6,4,327.6,20 / 21,2093193,2019-11-06 14:02:13:986,-0.9027,-1.5464,9.8753,-0.0138,0.0148,9.8065,0.0008,0.1558,-0.1434,0.0,-34.56,-4.81,111.78,-87.28,93.8
20939,53.188095,-1.876913,382.37,6.6,4,327.6,20 / 21,2093294,2019-11-06 14:02:14:087,-0.3776,1.5273,8.9269,-0.0231,-0.0106,9.8066,-0.0995,0.1263,-0.0511,-0.12,-35.56,-8.12,102.02,-87.16,89.43
20940,53.188095,-1.876913,382.37,6.6,4,327.6,20 / 21,2093393,2019-11-06 14:02:14:186,0.7052,-1.4947,10.2948,0.0016,-0.011,9.8066,-0.0889,-0.0586,0.0272,-1.25,-35.62,-9.5,106.41,-87.29,89.68
20941,53.188095,-1.876913,382.37,6.6,4,327.6,20 / 21,2093493,2019-11-06 14:02:14:286,1.3611,-3.2546,9.9626,0.0121,-0.0317,9.8065,-0.0529,0.0648,-0.0159,-0.25,-35.5,-9.94,92.12,-87.41,83.0
20942,53.188095,-1.876913,382.37,6.6,4,327.6,20 / 21,2093593,2019-11-06 14:02:14:386,1.4771,-4.0585,9.5155,-0.0258,0.004,9.8066,-0.0332,-0.1195,-0.0465,0.0,-34.62,-7.94,92.78,-87.29,80.83
20943,53.188095,-1.876913,382.37,6.6,4,327.6,20 / 21,2093694,2019-11-06 14:02:14:487,1.6082,0.7181,9.3557,-0.0081,-0.0031,9.8066,-0.0205,-0.0457,0.0092,-0.12,-35.0,-3.69,100.25,-87.28,76.15
20944,53.188095,-1.876913,382.37,6.6,4,327.6,20 / 21,2093793,2019-11-06 14:02:14:586,-0.706,-2.4643,9.3765,0.0111,-0.0183,9.8065,0.0087,-0.1752,0.1159,-13.31,-38.56,17.44,219.52,-87.11,80.24
20945,53.188095,-1.876913,382.37,6.6,4,327.6,20 / 21,2093893,2019-11-06 14:02:14:686,2.4993,1.674,9.4612,0.0147,-0.002,9.8066,0.075,-0.0628,-0.0935,-10.0,-37.37,-8.56,138.37,-86.95,84.81
20946,53.188095,-1.876913,382.37,6.6,4,327.6,20 / 21,2093993,2019-11-06 14:02:14:786,1.2184,1.0571,9.1095,0.0028,0.0267,9.8065,-0.1066,-0.0082,-0.0203,-3.75,-36.25,-11.25,118.38,-86.9,90.0
20947,53.188095,-1.876913,382.37,6.6,4,327.6,19 / 21,2094093,2019-11-06 14:02:14:886,-0.5491,-3.2551,9.8304,-0.0183,-0.0338,9.8065,-0.083,-0.0577,-0.0319,-2.69,-36.06,-11.56,101.24,-86.88,78.25
20948,53.188095,-1.876913,382.37,6.6,4,327.6,19 / 21,2094193,2019-11-06 14:02:14:986,0.126,-0.9195,9.3512,-0.0135,-0.0147,9.8066,-0.0385,0.0144,-0.0905,-2.94,-36.12,-11.75,94.32,-86.85,71.11
20949,53.188095,-1.876913,382.37,6.6,4,327.6,19 / 21,2094293,2019-11-06 14:02:15:086,0.997,-2.4893,9.9443,-0.0086,0.0077,9.8066,0.0384,0.0981,-0.1327,-6.0,-36.81,-11.19,103.25,-86.95,65.86
20950,53.188095,-1.876913,382.37,6.6,4,327.6,19 / 21,2094393,2019-11-06 14:02:15:186,1.303,-1.4985,9.3583,0.0111,-0.0266,9.8065,-0.0022,-0.0148,-0.0081,-17.31,-39.12,13.63,193.42,-87.05,65.14
20951,53.188095,-1.876913,382.37,6.6,4,327.6,19 / 21,2094493,2019-11-06 14:02:15:286,-0.6866,-2.3714,9.3934,-0.0061,0.0229,9.8066,-0.0462,-0.2067,0.0245,-1.31,-33.5,1.38,187.57,-86.94,62.01
20952,53.188095,-1.876913,382.37,6.6,4,327.6,19 / 21,2094593,2019-11-06 14:02:15:386,-0.7424,0.956,9.6366,0.0078,-0.0133,9.8065,0.0031,0.2002,-0.1287,-1.44,-34.56,-7.19,82.12,-86.91,58.63
20953,53.188095,-1.876913,382.37,6.6,4,327.6,19 / 21,2094693,2019-11-06 14:02:15:486,2.4001,-0.7747,8.8427,-0.0128,0.0189,9.8065,0.0287,-0.0755,0.0045,-1.37,-35.31,-10.25,77.04,-86.85,60.57
20954,53.188095,-1.876913,382.37,6.6,4,327.6,19 / 21,2094794,2019-11-06 14:02:15:587,-0.1877,0.7713,10.6136,-0.0015,-0.0291,9.8066,-0.0383,-0.0025,-0.1211,-2.0,-35.0,-10.5,78.51,-86.82,56.4
20955,53.188095,-1.876913,382.37,6.6,4,327.6,19 / 21,2094894,2019-11-06 14:02:15:687,2.2015,1.8975,9.9596,-0.0045,-0.0266,9.8065,-0.0807,0.1522,-0.0901,-2.0,-34.69,-11.37,78.61,-86.75,58.25
20956,53.188095,-1.876913,382.37,6.6,4,327.6,19 / 21,2094993,2019-11-06 14:02:15:786,-0.3654,-0.4487,9.2908,0.0086,-0.0016,9.8066,-0.0387,0.1871,-0.063,-1.44,-34.75,-8.31,78.33,-86.62,56.66
20957,53.18884,-1.877703,385.38,14.74,4,334.29,18 / 20,2095093,2019-11-06 14:02:15:886,0.1744,1.391,9.8289,0.0084,0.0346,9.8065,-0.0169,-0.172,0.1707,-0.94,-33.5,-2.37,125.5,-86.7,55.17
20958,53.18884,-1.877703,385.38,14.74,4,334.29,18 / 20,2095194,2019-11-06 14:02:15:987,-0.4119,-2.1046,10.2091,-0.0056,-0.0038,9.8066,0.0338,-0.2057,0.0544,-18.12,-38.94,12.94,181.68,-86.78,56.01
20959,53.18884,-1.877703,385.38,14.74,4,334.29,18 / 20,2095293,2019-11-06 14:02:16:086,0.5018,1.9101,8.8098,-0.0018,0.0222,9.8066,0.1203,-0.2126,0.0547,-6.69,-35.75,-11.06,100.47,-86.9,59.57
20960,53.18884,-1.877703,385.38,14.74,4,334.29,18 / 20,2095393,2019-11-06 14:02:16:186,2.9637,0.9294,9.4265,-0.0209,0.0355,9.8066,0.0602,-0.3582,0.1669,-5.0,-35.62,-11.81,94.56,-87.06,63.79
20961,53.18884,-1.877703,385.38,14.74,4,334.29,18 / 20,2095493,2019-11-06 14:02:16:286,-1.2127,0.9982,9.9381,-0.0193,0.0117,9.8066,-0.0263,0.0718,-0.0466,-4.06,-35.25,-12.19,91.62,-87.16,65.28
20962,53.18884,-1.877703,385.38,14.74,4,334.29,18 / 20,2095594,2019-11-06 14:02:16:387,0.5603,-0.355,10.4048,-0.0191,0.0369,9.8065,0.0134,0.2928,-0.1586,-4.94,-35.62,-11.87,100.37,-86.97,69.49
20963,53.18884,-1.877703,385.38,14.74,4,334.29,18 / 20,2095693,2019-11-06 14:02:16:486,-2.0603,1.9467,8.9743,-0.0022,0.0106,9.8066,-0.0616,0.1399,-0.1027,-10.62,-37.12,-11.25,122.86,-86.81,71.51
20964,53.18884,-1.877703,385.38,14.74,4,334.29,18 / 20,2095793,2019-11-06 14:02:16:586,-1.534,-1.3401,9.6355,-0.0054,0.0435,9.8065,-0.0536,0.2967,-0.1159,-15.31,-37.56,15.56,204.82,-86.68,70.35
20965,53.18884,-1.877703,385.38,14.74,4,334.29,18 / 20,2095893,2019-11-06 14:02:16:686,1.9815,-1.7645,10.0048,0.0183,-0.0335,9.8065,-0.0488,0.2475,-0.1874,-0.69,-32.81,-5.19,99.5,-86.88,67.82
20966,53.18884,-1.877703,385.38,14.74,4,334.29,18 / 20,2095995,2019-11-06 14:02:16:788,2.0177,0.34,10.6425,-0.0206,0.0081,9.8066,0.0372,-0.0064,0.1154,-1.06,-34.37,-8.94,87.31,-86.72,68.56
20967,53.18884,-1.877703,385.38,14.74,4,334.29,18 / 20,2096093,2019-11-06 14:02:16:886,0.5084,-0.1263,9.9289,0.0151,-0.0088,9.8066,0.013,0.2437,-0.1174,-2.12,-34.62,-11.0,89.78,-86.93,69.81
20968,53.18884,-1.877703,385.38,14.74,4,334.29,18 / 20,2096193,2019-11-06 14:02:16:986,-2.6671,-1.893,10.8133,0.0139,0.0021,9.8066,0.0148,-0.0383,-0.1075,-2.44,-35.06,-11.0,91.76,-86.99,71.99
20969,53.18884,-1.877703,385.38,14.74,4,334.29,18 / 20,2096293,2019-11-06 14:02:17:086,1.877,0.7135,9.9631,0.0121,0.0226,9.8066,-0.0408,0.1008,0.0056,-2.25,-34.5,-10.06,98.42,-87.09,77.47
20970,53.18884,-1.877703,385.38,14.74,4,334.29,18 / 20,2096393,2019-11-06 14:02:17:186,-3.2392,-0.4839,8.4978,0.0224,0.0239,9.8065,-0.2337,0.3951,-0.1695,-1.37,-34.19,-7.12,98.74,-87.07,76.56
20971,53.18884,-1.877703,385.38,14.74,4,334.29,18 / 20,2096494,2019-11-06 14:02:17:287,-7.3828,-1.08,9.7816,0.0745,0.0212,9.8063,0.0121,-0.7312,0.3377,-1.44,-33.87,8.31,232.29,-86.89,69.81
20972,53.18884,-1.877703,385.38,14.74,4,334.29,18 / 20,2096594,2019-11-06 14:02:17:387,0.9371,-2.8906,9.5931,0.0228,0.0531,9.8064,0.0362,0.7315,-0.2489,-13.69,-37.62,-8.19,141.29,-86.57,76.03
20973,53.18884,-1.877703,385.38,14.74,4,334.29,18 / 20,2096694,2019-11-06 14:02:17:487,-4.1397,4.1019,9.6742,-0.0229,0.0254,9.8065,-0.126,-0.0443,-0.0733,-5.5,-36.06,-12.25,112.93,-86.53,81.46
20974,53.18884,-1.877703,385.38,14.74,4,334.29,18 / 20,2096794,2019-11-06 14:02:17:587,0.9158,-3.6283,9.2973,-0.0969,0.0234,9.8061,-0.0498,-0.6828,0.3855,-4.12,-35.81,-12.31,105.72,-86.41,77.42
20975,53.18884,-1.877703,385.38,14.74,4,334.29,18 / 20,2096893,2019-11-06 14:02:17:686,-2.218,1.1218,9.0484,-0.0083,0.0052,9.8065,-0.1368,0.1325,-0.1184,-3.87,-36.25,-12.25,99.47,-86.51,71.2
20976,53.18884,-1.877703,385.38,14.74,4,334.29,18 / 20,2096993,2019-11-06 14:02:17:786,2.7265,-2.5302,10.0014,-0.0618,0.032,9.8063,0.0519,-0.3958,0.1965,-5.81,-36.62,-12.5,106.85,-86.19,70.19
20977,53.18884,-1.877703,385.38,14.74,4,334.29,18 / 19,2097093,2019-11-06 14:02:17:886,-2.5723,1.8765,10.1764,0.0038,0.021,9.8066,0.0034,0.1888,-0.129,-15.31,-38.94,-7.19,140.92,-86.21,70.36
20978,53.18884,-1.877703,385.38,14.74,4,334.29,18 / 19,2097193,2019-11-06 14:02:17:986,0.6822,0.4275,9.4301,0.0434,0.0361,9.8064,-0.0612,-0.2038,0.1185,-1.25,-33.31,6.06,227.27,-85.88,73.3
20979,53.18884,-1.877703,385.38,14.74,4,334.29,18 / 19,2097293,2019-11-06 14:02:18:086,-1.9936,0.7442,9.069,0.0018,0.0313,9.8066,-0.1194,0.1347,0.0289,-0.81,-34.0,-7.31,102.71,-85.88,74.87
20980,53.18884,-1.877703,385.38,14.74,4,334.29,18 / 19,2097394,2019-11-06 14:02:18:187,-0.1252,-4.9671,10.8999,-0.0103,0.0234,9.8065,0.0297,0.2302,-0.0446,-1.37,-34.44,-10.19,95.74,-85.96,76.29
20981,53.18884,-1.877703,385.38,14.74,4,334.29,18 / 19,2097494,2019-11-06 14:02:18:287,-2.0364,-0.9812,9.9389,0.0062,0.0024,9.8066,0.0512,-0.0775,0.0162,-1.5,-35.19,-11.81,98.67,-86.11,82.65
20982,53.18884,-1.877703,385.38,14.74,4,334.29,18 / 19,2097593,2019-11-06 14:02:18:386,1.9954,1.1238,9.7692,-0.0126,0.0203,9.8066,0.0069,-0.2658,0.2,-2.0,-34.94,-11.25,106.43,-86.24,84.79
20983,53.18884,-1.877703,385.38,14.74,4,334.29,18 / 19,2097693,2019-11-06 14:02:18:486,-1.6263,0.4939,9.7068,-0.0076,-0.0137,9.8066,-0.0058,-0.0325,0.0018,-1.5,-34.81,-9.44,104.12,-86.52,84.65
20984,53.18884,-1.877703,385.38,14.74,4,334.29,18 / 19,2097793,2019-11-06 14:02:18:586,2.4684,-1.2243,9.808,-0.0302,0.0137,9.8066,0.0206,-0.2661,0.1548,-1.94,-33.75,-2.69,138.3,-86.56,82.56
20985,53.18884,-1.877703,385.38,14.74,4,334.29,18 / 19,2097893,2019-11-06 14:02:18:686,-0.4936,2.1881,10.4407,-0.0141,-0.0073,9.8066,0.0584,0.2282,-0.1338,-14.37,-38.94,16.19,218.22,-86.76,83.04
20986,53.18884,-1.877703,385.38,14.74,4,334.29,18 / 19,2097993,2019-11-06 14:02:18:786,3.0302,-1.9608,9.5205,-0.0027,0.03,9.8065,0.0907,-0.1678,0.0797,-11.0,-37.37,-10.44,139.94,-86.66,86.9
20987,53.18884,-1.877703,385.38,14.74,4,334.29,17 / 20,2098093,2019-11-06 14:02:18:886,-0.7739,-1.7104,10.292,0.036,-0.0258,9.8065,-0.0041,0.3019,-0.1893,-4.75,-36.31,-12.06,119.75,-86.95,89.8
20988,53.18884,-1.877703,385.38,14.74,4,334.29,17 / 20,2098193,2019-11-06 14:02:18:986,-1.5518,0.2442,10.295,-0.0148,0.0138,9.8066,0.0433,-0.3952,0.2053,-3.81,-35.62,-12.06,115.16,-87.0,89.0
20989,53.18884,-1.877703,385.38,14.74,4,334.29,17 / 20,2098293,2019-11-06 14:02:19:086,-0.8478,-0.8995,9.6781,0.0149,-0.0053,9.8066,0.0027,-0.1389,0.0285,-4.75,-36.69,-12.37,119.71,-87.19,90.14
20990,53.18884,-1.877703,385.38,14.74,4,334.29,17 / 20,2098393,2019-11-06 14:02:19:186,-0.9278,0.3238,8.9848,-0.0575,0.0178,9.8065,0.0603,-0.37,0.2256,-9.12,-37.12,-11.44,131.84,-86.93,86.63
20991,53.18884,-1.877703,385.38,14.74,4,334.29,17 / 20,2098493,2019-11-06 14:02:19:286,-1.9927,-3.734,10.3027,-0.0132,0.0264,9.8065,-0.0095,-0.3782,0.0099,-18.69,-39.5,11.69,207.1,-86.96,87.2
20992,53.18884,-1.877703,385.38,14.74,4,334.29,17 / 20,2098593,2019-11-06 14:02:19:386,5.4303,1.5286,7.3458,-0.0067,0.0321,9.8066,0.0914,-0.1736,0.1338,-1.44,-34.06,1.56,213.07,-86.83,86.89
20993,53.18884,-1.877703,385.38,14.74,4,334.29,17 / 20,2098694,2019-11-06 14:02:19:487,9.9735,-4.0807,9.4634,-0.0571,-0.0131,9.8064,0.2604,-0.8093,0.1127,-2.19,-34.87,-8.19,110.5,-87.15,85.09
20994,53.18884,-1.877703,385.38,14.74,4,334.29,17 / 20,2098793,2019-11-06 14:02:19:586,-1.2967,-1.8365,9.216,0.212,-0.0796,9.8039,-0.1171,1.9766,-1.206,-1.69,-35.25,-10.25,109.6,-88.07,92.05
20995,53.18884,-1.877703,385.38,14.74,4,334.29,17 / 20,2098893,2019-11-06 14:02:19:686,-16.3152,5.7131,9.0611,-0.0384,-0.0398,9.8064,0.1318,0.1921,-0.5955,-2.06,-35.56,-10.12,111.02,-87.02,89.85
20996,53.18884,-1.877703,385.38,14.74,4,334.29,17 / 20,2098993,2019-11-06 14:02:19:786,-3.7646,3.1694,10.6034,0.2338,-0.0879,9.8034,-0.1225,1.8873,-1.0773,-1.75,-35.94,-9.75,113.54,-87.66,94.63
20997,53.18884,-1.877703,385.38,14.74,4,334.29,18 / 19,2099093,2019-11-06 14:02:19:886,-8.8815,3.9546,8.6158,0.1131,-0.0142,9.8059,-0.2392,1.2772,-0.6838,-2.37,-34.81,-8.12,119.27,-86.92,93.78
20998,53.18884,-1.877703,385.38,14.74,4,334.29,18 / 19,2099193,2019-11-06 14:02:19:986,3.4284,-12.0054,11.259,0.0549,-0.1543,9.8052,-0.0342,0.9588,-0.4499,-1.81,-33.31,-1.0,167.63,-86.38,92.7
20999,53.18884,-1.877703,385.38,14.74,4,334.29,18 / 19,2099293,2019-11-06 14:02:20:086,4.2964,6.0936,8.8,-0.1121,-0.1297,9.8051,-0.2665,1.4182,-0.6921,-21.69,-39.87,5.56,200.13,-87.24,96.52
21000,53.18884,-1.877703,385.38,14.74,4,334.29,18 / 19,2099393,2019-11-06 14:02:20:186,6.1847,-5.4699,9.9447,0.0374,-0.0354,9.8064,-0.0235,-0.0077,0.0422,-8.12,-37.0,-11.44,135.04,-87.16,93.57
21001,53.18884,-1.877703,385.38,14.74,4,334.29,18 / 19,2099493,2019-11-06 14:02:20:286,-6.44,1.611,9.4302,0.1168,-0.0663,9.8057,0.1339,-1.0041,0.4832,-4.62,-36.06,-12.56,119.03,-87.37,92.06
21002,53.18884,-1.877703,385.38,14.74,4,334.29,18 / 19,2099593,2019-11-06 14:02:20:386,1.2977,-0.8746,9.7253,-0.0121,0.0019,9.8066,0.0665,-0.2757,0.123,-4.0,-36.0,-12.75,114.06,-86.97,89.64
21003,53.18884,-1.877703,385.38,14.74,4,334.29,18 / 19,2099693,2019-11-06 14:02:20:486,-6.309,1.5721,9.5183,0.0706,-0.0259,9.8063,0.0173,-0.8599,0.3833,-5.0,-36.81,-11.87,120.4,-87.06,90.58
21004,53.18884,-1.877703,385.38,14.74,4,334.29,18 / 19,2099793,2019-11-06 14:02:20:586,2.7272,-2.9144,9.1739,-0.0399,0.0189,9.8065,0.0656,-0.5223,0.2742,-10.69,-37.69,-10.81,136.06,-86.92,85.87
21005,53.18884,-1.877703,385.38,14.74,4,334.29,18 / 19,2099893,2019-11-06 14:02:20:686,0.0687,3.5454,9.4024,-0.0213,-0.068,9.8063,0.0728,-0.567,0.3541,-11.25,-36.87,16.81,226.27,-86.93,83.2
21006,53.18884,-1.877703,385.38,14.74,4,334.29,18 / 19,2099993,2019-11-06 14:02:20:786,1.3362,-4.0129,10.6666,-0.0095,0.017,9.8065,0.121,-0.4063,0.0637,-2.62,-34.0,-3.31,147.21,-86.7,87.79
21007,53.18884,-1.877703,385.38,14.74,4,334.29,18 / 18,2100093,2019-11-06 14:02:20:886,-0.4353,-0.8588,9.8867,0.0138,-0.006,9.8065,0.0783,-0.2514,0.1344,-2.62,-35.25,-9.12,119.08,-86.71,90.01
21008,53.18884,-1.877703,385.38,14.74,4,334.29,18 / 18,2100194,2019-11-06 14:02:20:987,0.0303,0.4146,10.0591,-0.0369,-0.0108,9.8065,-0.0218,-0.3761,0.1067,-2.87,-35.44,-10.75,112.91,-86.61,88.04
21009,53.18884,-1.877703,385.38,14.74,4,334.29,18 / 18,2100294,2019-11-06 14:02:21:087,2.4346,-2.4732,9.4476,-0.0139,0.0049,9.8066,-0.0214,-0.0979,0.1933,-3.06,-35.56,-10.56,111.23,-86.66,86.12
