,GPS LATITUDE (degrees),GPS LONGITUDE (degrees), GPS ALTITUDE (m),GPS SPEED (Kmh),GPS ACCURACY (m),GPS ORIENTATION (Â°), SATELLITES IN RANGE, TIME SINCE START (ms), DATE (YYYY-MO-DD HH-MI-SS_SSS),ACCELEROMETER X (m/s²) , ACCELEROMETER Y (m/s²), ACCELEROMETER Z (m/s²), GRAVITY X (m/s²), GRAVITY Y (m/s²), GRAVITY Z (m/s²), GYROSCOPE Yaw (rad/s), GYROSCOPE Pitch (rad/s), GYROSCOPE Roll (rad/s)
71036,48.443424,-2.478682,131.88,30.19,9.648001,335.6,Jun-23,2162761,2019-08-12 17:08:43:203,-0.0602,-0.4949,10.2231,-0.0803,-0.4907,9.794,-0.0006,0.0149,-0.0254
71037,48.443424,-2.478682,131.88,30.19,9.648001,335.6,Jun-23,2162761,2019-08-12 17:08:43:203,-0.0602,-0.4949,10.2231,-0.0803,-0.4907,9.794,-0.0006,0.0149,-0.0254
71038,48.443424,-2.478682,131.88,30.19,9.648001,335.6,Jun-23,2162762,2019-08-12 17:08:43:204,-0.0602,-0.4949,10.2231,-0.0803,-0.4907,9.794,-0.0006,0.0149,-0.0254
71039,48.443424,-2.478682,131.88,30.19,9.648001,335.6,Jun-23,2162831,2019-08-12 17:08:43:273,-0.0602,-0.4949,10.2231,-0.0803,-0.4907,9.794,-0.0006,0.0149,-0.0254
71040,48.443424,-2.478682,131.88,30.19,9.648001,335.6,0 / 23,2163170,2019-08-12 17:08:43:612,-0.0602,-0.4949,10.2231,-0.0803,-0.4907,9.794,-0.0006,0.0149,-0.0254
71041,48.443424,-2.478682,131.88,30.19,9.648001,335.6,0 / 23,2163170,2019-08-12 17:08:43:612,-0.0602,-0.4949,10.2231,-0.0803,-0.4907,9.794,-0.0006,0.0149,-0.0254
71042,48.443424,-2.478682,131.88,30.19,9.648001,335.6,0 / 23,2163171,2019-08-12 17:08:43:613,-0.0602,-0.4949,10.2231,-0.0803,-0.4907,9.794,-0.0006,0.0149,-0.0254
71043,48.443424,-2.478682,131.88,30.19,9.648001,335.6,0 / 23,2163171,2019-08-12 17:08:43:613,-0.0602,-0.4949,10.2231,-0.0803,-0.4907,9.794,-0.0006,0.0149,-0.0254
71044,48.443424,-2.478682,131.88,30.19,9.648001,335.6,0 / 23,2163172,2019-08-12 17:08:43:614,-0.0602,-0.4949,10.2231,-0.0803,-0.4907,9.794,-0.0006,0.0149,-0.0254
71045,48.443424,-2.478682,131.88,30.19,9.648001,335.6,0 / 23,2163172,2019-08-12 17:08:43:614,-0.0602,-0.4949,10.2231,-0.0803,-0.4907,9.794,-0.0006,0.0149,-0.0254
71046,48.443424,-2.478682,131.88,30.19,9.648001,335.6,0 / 23,2163173,2019-08-12 17:08:43:615,-0.0602,-0.4949,10.2231,-0.0803,-0.4907,9.794,-0.0006,0.0149,-0.0254
71047,48.443424,-2.478682,131.88,30.19,9.648001,335.6,0 / 23,2163173,2019-08-12 17:08:43:615,-0.0602,-0.4949,10.2231,-0.0803,-0.4907,9.794,-0.0006,0.0149,-0.0254
71048,48.443424,-2.478682,131.88,30.19,9.648001,335.6,0 / 23,2163188,2019-08-12 17:08:43:630,-0.0602,-0.4949,10.2231,-0.0803,-0.4907,9.794,-0.0006,0.0149,-0.0254
71049,48.445793,-2.480355,128.21,30.04,4.288,335.7,0 / 23,2163284,2019-08-12 17:08:43:726,-0.0602,-0.4949,10.2231,-0.0803,-0.4907,9.794,-0.0006,0.0149,-0.0254
71050,48.445793,-2.480355,128.21,30.04,4.288,335.7,16 / 23,2163637,2019-08-12 17:08:44:079,-0.0602,-0.4949,10.2231,-0.0803,-0.4907,9.794,-0.0006,0.0149,-0.0254
71051,48.445793,-2.480355,128.21,30.04,4.288,335.7,16 / 23,2163638,2019-08-12 17:08:44:080,-0.0602,-0.4949,10.2231,-0.0803,-0.4907,9.794,-0.0006,0.0149,-0.0254
71052,48.445793,-2.480355,128.21,30.04,4.288,335.7,16 / 23,2163638,2019-08-12 17:08:44:080,-0.0602,-0.4949,10.2231,-0.0803,-0.4907,9.794,-0.0006,0.0149,-0.0254
71053,48.445793,-2.480355,128.21,30.04,4.288,335.7,16 / 23,2163638,2019-08-12 17:08:44:080,-0.0602,-0.4949,10.2231,-0.0803,-0.4907,9.794,-0.0006,0.0149,-0.0254
71054,48.445793,-2.480355,128.21,30.04,4.288,335.7,16 / 23,2163639,2019-08-12 17:08:44:081,-0.0602,-0.4949,10.2231,-0.0803,-0.4907,9.794,-0.0006,0.0149,-0.0254
71055,48.445793,-2.480355,128.21,30.04,4.288,335.7,16 / 23,2163639,2019-08-12 17:08:44:081,-0.0602,-0.4949,10.2231,-0.0803,-0.4907,9.794,-0.0006,0.0149,-0.0254
71056,48.445793,-2.480355,128.21,30.04,4.288,335.7,16 / 23,2163640,2019-08-12 17:08:44:082,-0.0602,-0.4949,10.2231,-0.0803,-0.4907,9.794,-0.0006,0.0149,-0.0254
71057,48.445793,-2.480355,128.21,30.04,4.288,335.7,16 / 23,2163640,2019-08-12 17:08:44:082,-0.0602,-0.4949,10.2231,-0.0803,-0.4907,9.794,-0.0006,0.0149,-0.0254
71058,48.445793,-2.480355,128.21,30.04,4.288,335.7,16 / 23,2163641,2019-08-12 17:08:44:083,-0.0602,-0.4949,10.2231,-0.0803,-0.4907,9.794,-0.0006,0.0149,-0.0254
71059,48.445793,-2.480355,128.21,30.04,4.288,335.7,16 / 23,2163641,2019-08-12 17:08:44:083,-0.0602,-0.4949,10.2231,-0.0803,-0.4907,9.794,-0.0006,0.0149,-0.0254
71060,48.445793,-2.480355,128.21,30.04,4.288,335.7,16 / 23,2163642,2019-08-12 17:08:44:084,-0.0602,-0.4949,10.2231,-0.0803,-0.4907,9.794,-0.0006,0.0149,-0.0254
71061,48.445793,-2.480355,128.21,30.04,4.288,335.7,16 / 23,2163642,2019-08-12 17:08:44:084,-0.0602,-0.4949,10.2231,-0.0803,-0.4907,9.794,-0.0006,0.0149,-0.0254
71062,48.445793,-2.480355,128.21,30.04,4.288,335.7,16 / 23,2163644,2019-08-12 17:08:44:086,-0.0602,-0.4949,10.2231,-0.0803,-0.4907,9.794,-0.0006,0.0149,-0.0254
71063,48.445793,-2.480355,128.21,30.04,4.288,335.7,16 / 23,2163644,2019-08-12 17:08:44:086,-0.0602,-0.4949,10.2231,-0.0803,-0.4907,9.794,-0.0006,0.0149,-0.0254
71064,48.445793,-2.480355,128.21,30.04,4.288,335.7,16 / 23,2163645,2019-08-12 17:08:44:087,-0.0602,-0.4949,10.2231,-0.0803,-0.4907,9.794,-0.0006,0.0149,-0.0254
71065,48.445793,-2.480355,128.21,30.04,4.288,335.7,16 / 23,2163646,2019-08-12 17:08:44:088,-0.0602,-0.4949,10.2231,-0.0803,-0.4907,9.794,-0.0006,0.0149,-0.0254
71066,48.445793,-2.480355,128.21,30.04,4.288,335.7,16 / 23,2163648,2019-08-12 17:08:44:090,-0.0602,-0.4949,10.2231,-0.0803,-0.4907,9.794,-0.0006,0.0149,-0.0254
71067,48.445793,-2.480355,128.21,30.04,4.288,335.7,16 / 23,2163651,2019-08-12 17:08:44:093,-0.0602,-0.4949,10.2231,-0.0803,-0.4907,9.794,-0.0006,0.0149,-0.0254
71068,48.445793,-2.480355,128.21,30.04,4.288,335.7,16 / 23,2163652,2019-08-12 17:08:44:094,-0.0602,-0.4949,10.2231,-0.0803,-0.4907,9.794,-0.0006,0.0149,-0.0254
71069,48.445793,-2.480355,128.21,30.04,4.288,335.7,16 / 23,2163653,2019-08-12 17:08:44:095,-0.0602,-0.4949,10.2231,-0.0803,-0.4907,9.794,-0.0006,0.0149,-0.0254
71070,48.445793,-2.480355,128.21,30.04,4.288,335.7,16 / 23,2163653,2019-08-12 17:08:44:095,-0.0602,-0.4949,10.2231,-0.0803,-0.4907,9.794,-0.0006,0.0149,-0.0254
71071,48.445793,-2.480355,128.21,30.04,4.288,335.7,16 / 23,2163654,2019-08-12 17:08:44:096,-0.0602,-0.4949,10.2231,-0.0803,-0.4907,9.794,-0.0006,0.0149,-0.0254
71072,48.445793,-2.480355,128.21,30.04,4.288,335.7,16 / 23,2163654,2019-08-12 17:08:44:096,-0.0602,-0.4949,10.2231,-0.0803,-0.4907,9.794,-0.0006,0.0149,-0.0254
71073,48.445793,-2.480355,128.21,30.04,4.288,335.7,16 / 23,2163655,2019-08-12 17:08:44:097,-0.0602,-0.4949,10.2231,-0.0803,-0.4907,9.794,-0.0006,0.0149,-0.0254
71074,48.445793,-2.480355,128.21,30.04,4.288,335.7,16 / 23,2163655,2019-08-12 17:08:44:097,-0.0602,-0.4949,10.2231,-0.0803,-0.4907,9.794,-0.0006,0.0149,-0.0254
71075,48.445793,-2.480355,128.21,30.04,4.288,335.7,16 / 23,2163655,2019-08-12 17:08:44:097,-0.0602,-0.4949,10.2231,-0.0803,-0.4907,9.794,-0.0006,0.0149,-0.0254
71076,48.445793,-2.480355,128.21,30.04,4.288,335.7,16 / 23,2163656,2019-08-12 17:08:44:098,-0.0602,-0.4949,10.2231,-0.0803,-0.4907,9.794,-0.0006,0.0149,-0.0254
71077,48.445793,-2.480355,128.21,30.04,4.288,335.7,16 / 23,2163656,2019-08-12 17:08:44:098,-0.0602,-0.4949,10.2231,-0.0803,-0.4907,9.794,-0.0006,0.0149,-0.0254
71078,48.445793,-2.480355,128.21,30.04,4.288,335.7,16 / 23,2163657,2019-08-12 17:08:44:099,-0.0602,-0.4949,10.2231,-0.0803,-0.4907,9.794,-0.0006,0.0149,-0.0254
71079,48.445793,-2.480355,128.21,30.04,4.288,335.7,16 / 23,2163657,2019-08-12 17:08:44:099,-0.0602,-0.4949,10.2231,-0.0803,-0.4907,9.794,-0.0006,0.0149,-0.0254
71080,48.445793,-2.480355,128.21,30.04,4.288,335.7,16 / 23,2163657,2019-08-12 17:08:44:099,-0.0602,-0.4949,10.2231,-0.0803,-0.4907,9.794,-0.0006,0.0149,-0.0254
71081,48.445793,-2.480355,128.21,30.04,4.288,335.7,16 / 23,2163658,2019-08-12 17:08:44:100,-0.0602,-0.4949,10.2231,-0.0803,-0.4907,9.794,-0.0006,0.0149,-0.0254
71082,48.445793,-2.480355,128.21,30.04,4.288,335.7,16 / 23,2163662,2019-08-12 17:08:44:104,-0.0602,-0.4949,10.2231,-0.0803,-0.4907,9.794,-0.0006,0.0149,-0.0254
71083,48.445793,-2.480355,128.21,30.04,4.288,335.7,16 / 23,2163662,2019-08-12 17:08:44:104,-0.0602,-0.4949,10.2231,-0.0803,-0.4907,9.794,-0.0006,0.0149,-0.0254
71084,48.445793,-2.480355,128.21,30.04,4.288,335.7,16 / 23,2163663,2019-08-12 17:08:44:105,-0.0602,-0.4949,10.2231,-0.0803,-0.4907,9.794,-0.0006,0.0149,-0.0254
71085,48.445793,-2.480355,128.21,30.04,4.288,335.7,16 / 23,2163663,2019-08-12 17:08:44:105,-0.0602,-0.4949,10.2231,-0.0803,-0.4907,9.794,-0.0006,0.0149,-0.0254
71086,48.445793,-2.480355,128.21,30.04,4.288,335.7,16 / 23,2163664,2019-08-12 17:08:44:106,-0.0602,-0.4949,10.2231,-0.0803,-0.4907,9.794,-0.0006,0.0149,-0.0254
71087,48.445793,-2.480355,128.21,30.04,4.288,335.7,16 / 23,2163664,2019-08-12 17:08:44:106,-0.0602,-0.4949,10.2231,-0.0803,-0.4907,9.794,-0.0006,0.0149,-0.0254
71088,48.445793,-2.480355,128.21,30.04,4.288,335.7,16 / 23,2163665,2019-08-12 17:08:44:107,-0.0602,-0.4949,10.2231,-0.0803,-0.4907,9.794,-0.0006,0.0149,-0.0254
71089,48.445793,-2.480355,128.21,30.04,4.288,335.7,16 / 23,2163665,2019-08-12 17:08:44:107,-0.0602,-0.4949,10.2231,-0.0803,-0.4907,9.794,-0.0006,0.0149,-0.0254
71090,48.445793,-2.480355,128.21,30.04,4.288,335.7,16 / 23,2163666,2019-08-12 17:08:44:108,-0.0602,-0.4949,10.2231,-0.0803,-0.4907,9.794,-0.0006,0.0149,-0.0254
71091,48.445793,-2.480355,128.21,30.04,4.288,335.7,16 / 23,2163666,2019-08-12 17:08:44:108,-0.0602,-0.4949,10.2231,-0.0803,-0.4907,9.794,-0.0006,0.0149,-0.0254
71092,48.445793,-2.480355,128.21,30.04,4.288,335.7,16 / 23,2163666,2019-08-12 17:08:44:108,-0.0602,-0.4949,10.2231,-0.0803,-0.4907,9.794,-0.0006,0.0149,-0.0254
71093,48.445793,-2.480355,128.21,30.04,4.288,335.7,16 / 23,2163667,2019-08-12 17:08:44:109,-0.0602,-0.4949,10.2231,-0.0803,-0.4907,9.794,-0.0006,0.0149,-0.0254
71094,48.445793,-2.480355,128.21,30.04,4.288,335.7,16 / 23,2163667,2019-08-12 17:08:44:109,-0.0602,-0.4949,10.2231,-0.0803,-0.4907,9.794,-0.0006,0.0149,-0.0254
71095,48.445793,-2.480355,128.21,30.04,4.288,335.7,16 / 23,2163667,2019-08-12 17:08:44:109,-0.0602,-0.4949,10.2231,-0.0803,-0.4907,9.794,-0.0006,0.0149,-0.0254
71096,48.445793,-2.480355,128.21,30.04,4.288,335.7,16 / 23,2163668,2019-08-12 17:08:44:110,-0.0602,-0.4949,10.2231,-0.0803,-0.4907,9.794,-0.0006,0.0149,-0.0254
71097,48.445793,-2.480355,128.21,30.04,4.288,335.7,16 / 23,2163668,2019-08-12 17:08:44:110,-0.0602,-0.4949,10.2231,-0.0803,-0.4907,9.794,-0.0006,0.0149,-0.0254
71098,48.445793,-2.480355,128.21,30.04,4.288,335.7,16 / 23,2163669,2019-08-12 17:08:44:111,-0.0602,-0.4949,10.2231,-0.0803,-0.4907,9.794,-0.0006,0.0149,-0.0254
71099,48.445793,-2.480355,128.21,30.04,4.288,335.7,16 / 23,2163669,2019-08-12 17:08:44:111,-0.0602,-0.4949,10.2231,-0.0803,-0.4907,9.794,-0.0006,0.0149,-0.0254
71100,48.445793,-2.480355,128.21,30.04,4.288,335.7,16 / 23,2163671,2019-08-12 17:08:44:113,-0.0602,-0.4949,10.2231,-0.0803,-0.4907,9.794,-0.0006,0.0149,-0.0254
71101,48.445793,-2.480355,128.21,30.04,4.288,335.7,16 / 23,2163672,2019-08-12 17:08:44:114,-0.0602,-0.4949,10.2231,-0.0803,-0.4907,9.794,-0.0006,0.0149,-0.0254
71102,48.445793,-2.480355,128.21,30.04,4.288,335.7,16 / 23,2163672,2019-08-12 17:08:44:114,-0.0602,-0.4949,10.2231,-0.0803,-0.4907,9.794,-0.0006,0.0149,-0.0254
71103,48.445793,-2.480355,128.21,30.04,4.288,335.7,16 / 23,2163673,2019-08-12 17:08:44:115,-0.0602,-0.4949,10.2231,-0.0803,-0.4907,9.794,-0.0006,0.0149,-0.0254
71104,48.445793,-2.480355,128.21,30.04,4.288,335.7,16 / 23,2163673,2019-08-12 17:08:44:115,-0.0602,-0.4949,10.2231,-0.0803,-0.4907,9.794,-0.0006,0.0149,-0.0254
71105,48.445793,-2.480355,128.21,30.04,4.288,335.7,16 / 23,2163673,2019-08-12 17:08:44:115,-0.0602,-0.4949,10.2231,-0.0803,-0.4907,9.794,-0.0006,0.0149,-0.0254
71106,48.445793,-2.480355,128.21,30.04,4.288,335.7,16 / 23,2163674,2019-08-12 17:08:44:116,-0.0602,-0.4949,10.2231,-0.0803,-0.4907,9.794,-0.0006,0.0149,-0.0254
71107,48.445793,-2.480355,128.21,30.04,4.288,335.7,16 / 23,2163674,2019-08-12 17:08:44:116,-0.0602,-0.4949,10.2231,-0.0803,-0.4907,9.794,-0.0006,0.0149,-0.0254
71108,48.445793,-2.480355,128.21,30.04,4.288,335.7,16 / 23,2163674,2019-08-12 17:08:44:116,-0.0602,-0.4949,10.2231,-0.0803,-0.4907,9.794,-0.0006,0.0149,-0.0254
71109,48.445793,-2.480355,128.21,30.04,4.288,335.7,16 / 23,2163675,2019-08-12 17:08:44:117,-0.0602,-0.4949,10.2231,-0.0803,-0.4907,9.794,-0.0006,0.0149,-0.0254
71110,48.445793,-2.480355,128.21,30.04,4.288,335.7,16 / 23,2163675,2019-08-12 17:08:44:117,-0.0602,-0.4949,10.2231,-0.0803,-0.4907,9.794,-0.0006,0.0149,-0.0254
71111,48.445793,-2.480355,128.21,30.04,4.288,335.7,16 / 23,2163676,2019-08-12 17:08:44:118,-0.0602,-0.4949,10.2231,-0.0803,-0.4907,9.794,-0.0006,0.0149,-0.0254
71112,48.445793,-2.480355,128.21,30.04,4.288,335.7,16 / 23,2163676,2019-08-12 17:08:44:118,-0.0602,-0.4949,10.2231,-0.0803,-0.4907,9.794,-0.0006,0.0149,-0.0254
71113,48.445793,-2.480355,128.21,30.04,4.288,335.7,16 / 23,2163677,2019-08-12 17:08:44:119,-0.0602,-0.4949,10.2231,-0.0803,-0.4907,9.794,-0.0006,0.0149,-0.0254
71114,48.445793,-2.480355,128.21,30.04,4.288,335.7,16 / 23,2163677,2019-08-12 17:08:44:119,-0.0602,-0.4949,10.2231,-0.0803,-0.4907,9.794,-0.0006,0.0149,-0.0254
71115,48.445793,-2.480355,128.21,30.04,4.288,335.7,16 / 23,2163677,2019-08-12 17:08:44:119,-0.0602,-0.4949,10.2231,-0.0803,-0.4907,9.794,-0.0006,0.0149,-0.0254
71116,48.445793,-2.480355,128.21,30.04,4.288,335.7,16 / 23,2163678,2019-08-12 17:08:44:120,-0.0602,-0.4949,10.2231,-0.0803,-0.4907,9.794,-0.0006,0.0149,-0.0254
71117,48.445793,-2.480355,128.21,30.04,4.288,335.7,16 / 23,2163678,2019-08-12 17:08:44:120,-0.0602,-0.4949,10.2231,-0.0803,-0.4907,9.794,-0.0006,0.0149,-0.0254
71118,48.445793,-2.480355,128.21,30.04,4.288,335.7,16 / 23,2163679,2019-08-12 17:08:44:121,-0.0602,-0.4949,10.2231,-0.0803,-0.4907,9.794,-0.0006,0.0149,-0.0254
71119,48.445793,-2.480355,128.21,30.04,4.288,335.7,16 / 23,2163679,2019-08-12 17:08:44:121,-0.0602,-0.4949,10.2231,-0.0803,-0.4907,9.794,-0.0006,0.0149,-0.0254
71120,48.445793,-2.480355,128.21,30.04,4.288,335.7,16 / 23,2163679,2019-08-12 17:08:44:121,-0.0602,-0.4949,10.2231,-0.0803,-0.4907,9.794,-0.0006,0.0149,-0.0254
71121,48.445793,-2.480355,128.21,30.04,4.288,335.7,16 / 23,2163680,2019-08-12 17:08:44:122,-0.0602,-0.4949,10.2231,-0.0803,-0.4907,9.794,-0.0006,0.0149,-0.0254
71122,48.445793,-2.480355,128.21,30.04,4.288,335.7,16 / 23,2163680,2019-08-12 17:08:44:122,-0.0602,-0.4949,10.2231,-0.0803,-0.4907,9.794,-0.0006,0.0149,-0.0254
71123,48.445793,-2.480355,128.21,30.04,4.288,335.7,16 / 23,2163680,2019-08-12 17:08:44:122,-0.0602,-0.4949,10.2231,-0.0803,-0.4907,9.794,-0.0006,0.0149,-0.0254
71124,48.445793,-2.480355,128.21,30.04,4.288,335.7,16 / 23,2163681,2019-08-12 17:08:44:123,-0.0602,-0.4949,10.2231,-0.0803,-0.4907,9.794,-0.0006,0.0149,-0.0254
71125,48.445793,-2.480355,128.21,30.04,4.288,335.7,16 / 23,2163681,2019-08-12 17:08:44:123,-0.0602,-0.4949,10.2231,-0.0803,-0.4907,9.794,-0.0006,0.0149,-0.0254
71126,48.445793,-2.480355,128.21,30.04,4.288,335.7,16 / 23,2163682,2019-08-12 17:08:44:124,-0.0602,-0.4949,10.2231,-0.0803,-0.4907,9.794,-0.0006,0.0149,-0.0254
71127,48.445793,-2.480355,128.21,30.04,4.288,335.7,16 / 23,2163682,2019-08-12 17:08:44:124,-0.0602,-0.4949,10.2231,-0.0803,-0.4907,9.794,-0.0006,0.0149,-0.0254
71128,48.445793,-2.480355,128.21,30.04,4.288,335.7,16 / 23,2163682,2019-08-12 17:08:44:124,-0.0602,-0.4949,10.2231,-0.0803,-0.4907,9.794,-0.0006,0.0149,-0.0254
71129,48.445793,-2.480355,128.21,30.04,4.288,335.7,16 / 23,2163754,2019-08-12 17:08:44:196,-0.0602,-0.4949,10.2231,-0.0803,-0.4907,9.794,-0.0006,0.0149,-0.0254
71130,48.445793,-2.480355,128.21,30.04,4.288,335.7,16 / 23,2163855,2019-08-12 17:08:44:297,-0.0602,-0.4949,10.2231,-0.0803,-0.4907,9.794,-0.0006,0.0149,-0.0254
71131,48.445793,-2.480355,128.21,30.04,4.288,335.7,16 / 23,2163954,2019-08-12 17:08:44:396,-0.0602,-0.4949,10.2231,-0.0803,-0.4907,9.794,-0.0006,0.0149,-0.0254
71132,48.445793,-2.480355,128.21,30.04,4.288,335.7,16 / 23,2164054,2019-08-12 17:08:44:496,-0.32,0.0091,9.5623,-0.2329,0.2126,9.8016,-0.0006,0.0149,-0.0254
71133,48.445793,-2.480355,128.21,30.04,4.288,335.7,16 / 23,2164154,2019-08-12 17:08:44:596,-0.2494,0.3299,9.4797,-0.2337,0.2133,9.8015,0.0037,0.0011,0.0001
71134,48.445793,-2.480355,128.21,30.04,4.288,335.7,16 / 23,2164254,2019-08-12 17:08:44:696,-0.3918,0.1109,9.4928,-0.234,0.2062,9.8017,-0.0027,0.0011,-0.0009
71135,48.445793,-2.480355,128.21,30.04,4.288,335.7,16 / 23,2164354,2019-08-12 17:08:44:796,-0.3032,0.1791,9.6473,-0.2264,0.1955,9.8021,-0.0091,-0.0053,-0.002
71136,48.445793,-2.480355,128.21,30.04,4.288,335.7,16 / 23,2164454,2019-08-12 17:08:44:896,-0.3451,0.148,10.1488,-0.215,0.1861,9.8025,-0.0123,-0.0075,-0.002
71137,48.445793,-2.480355,128.21,30.04,4.288,335.7,16 / 23,2164554,2019-08-12 17:08:44:996,-0.1991,0.1408,10.0794,-0.2017,0.1789,9.8029,-0.0176,0.0,0.0001
71138,48.445793,-2.480355,128.21,30.04,4.288,335.7,16 / 23,2164654,2019-08-12 17:08:45:096,-0.0243,0.2413,9.5371,-0.2101,0.1704,9.8029,-0.0144,0.016,0.0023
71139,48.445793,-2.480355,128.21,30.04,4.288,335.7,16 / 23,2164754,2019-08-12 17:08:45:196,-0.2482,0.4077,9.2187,-0.2305,0.1726,9.8024,0.0037,0.0149,0.0033
71140,48.445793,-2.480355,128.21,30.04,4.288,335.7,16 / 23,2164854,2019-08-12 17:08:45:296,-0.1285,0.2725,9.7622,-0.2268,0.1776,9.8024,0.0069,-0.0053,0.0033
71141,48.445793,-2.480355,128.21,30.04,4.288,335.7,16 / 23,2164954,2019-08-12 17:08:45:396,-0.32,0.3958,9.7622,-0.2057,0.1788,9.8029,-0.008,-0.0192,0.0012
71142,48.445793,-2.480355,128.21,30.04,4.288,335.7,16 / 23,2165054,2019-08-12 17:08:45:496,-0.2458,0.233,9.773,-0.1919,0.174,9.8032,-0.007,-0.0139,-0.0009
71143,48.445793,-2.480355,128.21,30.04,4.288,335.7,16 / 23,2165154,2019-08-12 17:08:45:596,-0.3044,0.1204,9.7897,-0.187,0.1677,9.8034,-0.0059,0.0043,-0.0009
71144,48.445793,-2.480355,128.21,30.04,4.288,335.7,16 / 23,2165253,2019-08-12 17:08:45:695,-0.2123,0.0522,9.913,-0.1935,0.1645,9.8034,-0.0016,0.0138,0.0012
71145,48.445793,-2.480355,128.21,30.04,4.288,335.7,16 / 23,2165354,2019-08-12 17:08:45:796,-0.0542,0.0498,10.0842,-0.2028,0.17,9.8031,0.0079,0.0096,0.0033
71146,48.445793,-2.480355,128.21,30.04,4.288,335.7,16 / 23,2165454,2019-08-12 17:08:45:896,-0.1357,0.1516,10.35,-0.1967,0.1788,9.803,0.0101,-0.0107,0.0055
71147,48.445793,-2.480355,128.21,30.04,4.288,335.7,16 / 23,2165554,2019-08-12 17:08:45:996,-0.2027,0.312,9.9693,-0.1912,0.1839,9.8031,-0.0016,-0.0021,0.0033
71148,48.445793,-2.480355,128.21,30.04,4.288,335.7,16 / 23,2165654,2019-08-12 17:08:46:096,-0.1273,0.1719,10.3775,-0.187,0.1838,9.8031,0.0016,-0.0085,0.0001
71149,48.445793,-2.480355,128.21,30.04,4.288,335.7,16 / 23,2165754,2019-08-12 17:08:46:196,-0.0219,0.2593,9.7598,-0.1758,0.1846,9.8033,-0.0006,-0.0043,-0.0031
71150,48.445793,-2.480355,128.21,30.04,4.288,335.7,16 / 23,2166187,2019-08-12 17:08:46:629,-0.2781,0.1181,9.7754,-0.1859,0.1941,9.803,0.0016,-0.0011,-0.0009
71151,48.445793,-2.480355,128.21,30.04,4.288,335.7,16 / 23,2166188,2019-08-12 17:08:46:630,-0.2781,0.1181,9.7754,-0.1859,0.1941,9.803,0.0016,-0.0011,-0.0009
71152,48.445793,-2.480355,128.21,30.04,4.288,335.7,16 / 23,2166189,2019-08-12 17:08:46:631,-0.2781,0.1181,9.7754,-0.1859,0.1941,9.803,0.0016,-0.0011,-0.0009
71153,48.445793,-2.480355,128.21,30.04,4.288,335.7,16 / 23,2166189,2019-08-12 17:08:46:631,-0.2781,0.1181,9.7754,-0.1859,0.1941,9.803,0.0016,-0.0011,-0.0009
71154,48.445793,-2.480355,128.21,30.04,4.288,335.7,16 / 23,2166190,2019-08-12 17:08:46:632,-0.2781,0.1181,9.7754,-0.1859,0.1941,9.803,0.0016,-0.0011,-0.0009
71155,48.445793,-2.480355,128.21,30.04,4.288,335.7,16 / 23,2166190,2019-08-12 17:08:46:632,-0.2781,0.1181,9.7754,-0.1859,0.1941,9.803,0.0016,-0.0011,-0.0009
71156,48.445793,-2.480355,128.21,30.04,4.288,335.7,16 / 23,2166191,2019-08-12 17:08:46:633,-0.2781,0.1181,9.7754,-0.1859,0.1941,9.803,0.0016,-0.0011,-0.0009
71157,48.445793,-2.480355,128.21,30.04,4.288,335.7,16 / 23,2166191,2019-08-12 17:08:46:633,-0.2781,0.1181,9.7754,-0.1859,0.1941,9.803,0.0016,-0.0011,-0.0009
71158,48.445793,-2.480355,128.21,30.04,4.288,335.7,16 / 23,2166195,2019-08-12 17:08:46:637,-0.2781,0.1181,9.7754,-0.1859,0.1941,9.803,0.0016,-0.0011,-0.0009
71159,48.445793,-2.480355,128.21,30.04,4.288,335.7,16 / 23,2166196,2019-08-12 17:08:46:638,-0.2781,0.1181,9.7754,-0.1859,0.1941,9.803,0.0016,-0.0011,-0.0009
71160,48.445793,-2.480355,128.21,30.04,4.288,335.7,16 / 23,2166196,2019-08-12 17:08:46:638,-0.2781,0.1181,9.7754,-0.1859,0.1941,9.803,0.0016,-0.0011,-0.0009
71161,48.445793,-2.480355,128.21,30.04,4.288,335.7,16 / 23,2166197,2019-08-12 17:08:46:639,-0.2781,0.1181,9.7754,-0.1859,0.1941,9.803,0.0016,-0.0011,-0.0009
71162,48.445793,-2.480355,128.21,30.04,4.288,335.7,16 / 23,2166197,2019-08-12 17:08:46:639,-0.2781,0.1181,9.7754,-0.1859,0.1941,9.803,0.0016,-0.0011,-0.0009
71163,48.445793,-2.480355,128.21,30.04,4.288,335.7,16 / 23,2166199,2019-08-12 17:08:46:641,-0.2781,0.1181,9.7754,-0.1859,0.1941,9.803,0.0016,-0.0011,-0.0009
71164,48.445793,-2.480355,128.21,30.04,4.288,335.7,16 / 23,2166200,2019-08-12 17:08:46:642,-0.2781,0.1181,9.7754,-0.1859,0.1941,9.803,0.0016,-0.0011,-0.0009
71165,48.445793,-2.480355,128.21,30.04,4.288,335.7,16 / 23,2166202,2019-08-12 17:08:46:644,-0.2781,0.1181,9.7754,-0.1859,0.1941,9.803,0.0016,-0.0011,-0.0009
71166,48.445793,-2.480355,128.21,30.04,4.288,335.7,16 / 23,2166203,2019-08-12 17:08:46:645,-0.2781,0.1181,9.7754,-0.1859,0.1941,9.803,0.0016,-0.0011,-0.0009
71167,48.445793,-2.480355,128.21,30.04,4.288,335.7,16 / 23,2166206,2019-08-12 17:08:46:648,-0.2781,0.1181,9.7754,-0.1859,0.1941,9.803,0.0016,-0.0011,-0.0009
71168,48.445793,-2.480355,128.21,30.04,4.288,335.7,16 / 23,2166207,2019-08-12 17:08:46:649,-0.2781,0.1181,9.7754,-0.1859,0.1941,9.803,0.0016,-0.0011,-0.0009
71169,48.445793,-2.480355,128.21,30.04,4.288,335.7,16 / 23,2166207,2019-08-12 17:08:46:649,-0.2781,0.1181,9.7754,-0.1859,0.1941,9.803,0.0016,-0.0011,-0.0009
71170,48.445793,-2.480355,128.21,30.04,4.288,335.7,16 / 23,2166208,2019-08-12 17:08:46:650,-0.2781,0.1181,9.7754,-0.1859,0.1941,9.803,0.0016,-0.0011,-0.0009
71171,48.445793,-2.480355,128.21,30.04,4.288,335.7,16 / 23,2166208,2019-08-12 17:08:46:650,-0.2781,0.1181,9.7754,-0.1859,0.1941,9.803,0.0016,-0.0011,-0.0009
71172,48.445793,-2.480355,128.21,30.04,4.288,335.7,16 / 23,2166209,2019-08-12 17:08:46:651,-0.2781,0.1181,9.7754,-0.1859,0.1941,9.803,0.0016,-0.0011,-0.0009
71173,48.445793,-2.480355,128.21,30.04,4.288,335.7,16 / 23,2166209,2019-08-12 17:08:46:651,-0.2781,0.1181,9.7754,-0.1859,0.1941,9.803,0.0016,-0.0011,-0.0009
71174,48.445793,-2.480355,128.21,30.04,4.288,335.7,16 / 23,2166209,2019-08-12 17:08:46:651,-0.2781,0.1181,9.7754,-0.1859,0.1941,9.803,0.0016,-0.0011,-0.0009
71175,48.445793,-2.480355,128.21,30.04,4.288,335.7,16 / 23,2166210,2019-08-12 17:08:46:652,-0.2781,0.1181,9.7754,-0.1859,0.1941,9.803,0.0016,-0.0011,-0.0009
71176,48.445793,-2.480355,128.21,30.04,4.288,335.7,16 / 23,2166211,2019-08-12 17:08:46:653,-0.2781,0.1181,9.7754,-0.1859,0.1941,9.803,0.0016,-0.0011,-0.0009
71177,48.445793,-2.480355,128.21,30.04,4.288,335.7,16 / 23,2166211,2019-08-12 17:08:46:653,-0.2781,0.1181,9.7754,-0.1859,0.1941,9.803,0.0016,-0.0011,-0.0009
71178,48.445793,-2.480355,128.21,30.04,4.288,335.7,16 / 23,2166212,2019-08-12 17:08:46:654,-0.2781,0.1181,9.7754,-0.1859,0.1941,9.803,0.0016,-0.0011,-0.0009
71179,48.445793,-2.480355,128.21,30.04,4.288,335.7,16 / 23,2166213,2019-08-12 17:08:46:655,-0.2781,0.1181,9.7754,-0.1859,0.1941,9.803,0.0016,-0.0011,-0.0009
71180,48.445793,-2.480355,128.21,30.04,4.288,335.7,16 / 23,2166213,2019-08-12 17:08:46:655,-0.2781,0.1181,9.7754,-0.1859,0.1941,9.803,0.0016,-0.0011,-0.0009
71181,48.445793,-2.480355,128.21,30.04,4.288,335.7,16 / 23,2166213,2019-08-12 17:08:46:655,-0.2781,0.1181,9.7754,-0.1859,0.1941,9.803,0.0016,-0.0011,-0.0009
71182,48.445793,-2.480355,128.21,30.04,4.288,335.7,16 / 23,2166214,2019-08-12 17:08:46:656,-0.2781,0.1181,9.7754,-0.1859,0.1941,9.803,0.0016,-0.0011,-0.0009
71183,48.445793,-2.480355,128.21,30.04,4.288,335.7,16 / 23,2166214,2019-08-12 17:08:46:656,-0.2781,0.1181,9.7754,-0.1859,0.1941,9.803,0.0016,-0.0011,-0.0009
71184,48.445793,-2.480355,128.21,30.04,4.288,335.7,16 / 23,2166214,2019-08-12 17:08:46:656,-0.2781,0.1181,9.7754,-0.1859,0.1941,9.803,0.0016,-0.0011,-0.0009
71185,48.445793,-2.480355,128.21,30.04,4.288,335.7,16 / 23,2166220,2019-08-12 17:08:46:662,-0.1141,0.0055,9.8987,-0.1859,0.1941,9.803,0.0016,-0.0011,-0.0009
71186,48.445793,-2.480355,128.21,30.04,4.288,335.7,16 / 23,2166220,2019-08-12 17:08:46:662,-0.1141,0.0055,9.8987,-0.1859,0.1941,9.803,0.0016,-0.0011,-0.0009
71187,48.445793,-2.480355,128.21,30.04,4.288,335.7,16 / 23,2166221,2019-08-12 17:08:46:663,-0.1141,0.0055,9.8987,-0.1859,0.1941,9.803,0.0016,-0.0011,-0.0009
71188,48.445793,-2.480355,128.21,30.04,4.288,335.7,16 / 23,2166221,2019-08-12 17:08:46:663,-0.1141,0.0055,9.8987,-0.1859,0.1941,9.803,0.0016,-0.0011,-0.0009
71189,48.445793,-2.480355,128.21,30.04,4.288,335.7,16 / 23,2166222,2019-08-12 17:08:46:664,-0.1141,0.0055,9.8987,-0.1859,0.1941,9.803,0.0016,-0.0011,-0.0009
71190,48.445793,-2.480355,128.21,30.04,4.288,335.7,16 / 23,2166222,2019-08-12 17:08:46:664,-0.1141,0.0055,9.8987,-0.1859,0.1941,9.803,0.0016,-0.0011,-0.0009
71191,48.445793,-2.480355,128.21,30.04,4.288,335.7,16 / 23,2166223,2019-08-12 17:08:46:665,-0.1141,0.0055,9.8987,-0.1859,0.1941,9.803,0.0016,-0.0011,-0.0009
71192,48.445793,-2.480355,128.21,30.04,4.288,335.7,16 / 23,2166223,2019-08-12 17:08:46:665,-0.1141,0.0055,9.8987,-0.1859,0.1941,9.803,0.0016,-0.0011,-0.0009
71193,48.445793,-2.480355,128.21,30.04,4.288,335.7,16 / 23,2166223,2019-08-12 17:08:46:665,-0.1141,0.0055,9.8987,-0.1859,0.1941,9.803,0.0016,-0.0011,-0.0009
71194,48.445793,-2.480355,128.21,30.04,4.288,335.7,16 / 23,2166224,2019-08-12 17:08:46:666,-0.1141,0.0055,9.8987,-0.1859,0.1941,9.803,0.0016,-0.0011,-0.0009
71195,48.445793,-2.480355,128.21,30.04,4.288,335.7,16 / 23,2166224,2019-08-12 17:08:46:666,-0.1141,0.0055,9.8987,-0.1859,0.1941,9.803,0.0016,-0.0011,-0.0009
71196,48.445793,-2.480355,128.21,30.04,4.288,335.7,16 / 23,2166225,2019-08-12 17:08:46:667,-0.1141,0.0055,9.8987,-0.1859,0.1941,9.803,0.0016,-0.0011,-0.0009
71197,48.445793,-2.480355,128.21,30.04,4.288,335.7,16 / 23,2166225,2019-08-12 17:08:46:667,-0.1141,0.0055,9.8987,-0.1859,0.1941,9.803,0.0016,-0.0011,-0.0009
71198,48.445793,-2.480355,128.21,30.04,4.288,335.7,16 / 23,2166226,2019-08-12 17:08:46:668,-0.1141,0.0055,9.8987,-0.1859,0.1941,9.803,0.0016,-0.0011,-0.0009
71199,48.445793,-2.480355,128.21,30.04,4.288,335.7,16 / 23,2166226,2019-08-12 17:08:46:668,-0.1141,0.0055,9.8987,-0.1859,0.1941,9.803,0.0016,-0.0011,-0.0009
71200,48.445793,-2.480355,128.21,30.04,4.288,335.7,16 / 23,2166229,2019-08-12 17:08:46:671,-0.1141,0.0055,9.8987,-0.1859,0.1941,9.803,0.0069,-0.0053,-0.0009
71201,48.445793,-2.480355,128.21,30.04,4.288,335.7,16 / 23,2166278,2019-08-12 17:08:46:720,-0.1979,0.0163,9.0906,-0.1859,0.1941,9.803,0.0069,-0.0053,-0.0009
71202,48.445793,-2.480355,128.21,30.04,4.288,335.7,16 / 23,2166378,2019-08-12 17:08:46:820,-0.2877,-0.0495,9.2343,-0.1859,0.1941,9.803,-0.007,0.0107,0.0108
71203,48.445793,-2.480355,128.21,30.04,4.288,335.7,16 / 23,2166478,2019-08-12 17:08:46:920,-0.3643,0.1647,9.9573,-0.3611,0.0439,9.7999,-0.0048,-0.0192,0.0108
71204,48.445793,-2.480355,128.21,30.04,4.288,335.7,16 / 23,2166578,2019-08-12 17:08:47:020,-0.3188,0.1013,8.5723,-0.3449,0.0481,9.8005,0.0122,-0.0032,0.0119
71205,48.445793,-2.480355,128.21,30.04,4.288,335.7,16 / 23,2166939,2019-08-12 17:08:47:381,-0.1692,-0.101,9.4258,-0.3674,0.0494,9.7996,0.0016,0.0373,0.015
71206,48.445793,-2.480355,128.21,30.04,4.288,335.7,16 / 23,2166940,2019-08-12 17:08:47:382,-0.1692,-0.101,9.4258,-0.3674,0.0494,9.7996,0.0016,0.0373,0.015
71207,48.445793,-2.480355,128.21,30.04,4.288,335.7,16 / 23,2166940,2019-08-12 17:08:47:382,-0.1692,-0.101,9.4258,-0.3674,0.0494,9.7996,0.0016,0.0373,0.015
71208,48.445793,-2.480355,128.21,30.04,4.288,335.7,16 / 23,2166940,2019-08-12 17:08:47:382,-0.1692,-0.101,9.4258,-0.3674,0.0494,9.7996,0.0016,0.0373,0.015
71209,48.445793,-2.480355,128.21,30.04,4.288,335.7,16 / 23,2166940,2019-08-12 17:08:47:382,-0.1692,-0.101,9.4258,-0.3674,0.0494,9.7996,0.0016,0.0373,0.015
71210,48.445793,-2.480355,128.21,30.04,4.288,335.7,16 / 23,2166940,2019-08-12 17:08:47:382,-0.1692,-0.101,9.4258,-0.3674,0.0494,9.7996,0.0016,0.0373,0.015
71211,48.445793,-2.480355,128.21,30.04,4.288,335.7,16 / 23,2166940,2019-08-12 17:08:47:382,-0.1692,-0.101,9.4258,-0.3674,0.0494,9.7996,0.0016,0.0373,0.015
71212,48.445793,-2.480355,128.21,30.04,4.288,335.7,16 / 23,2166941,2019-08-12 17:08:47:383,-0.1692,-0.101,9.4258,-0.3674,0.0494,9.7996,0.0016,0.0373,0.015
71213,48.445793,-2.480355,128.21,30.04,4.288,335.7,16 / 23,2166941,2019-08-12 17:08:47:383,-0.1692,-0.101,9.4258,-0.3674,0.0494,9.7996,0.0016,0.0373,0.015
71214,48.445793,-2.480355,128.21,30.04,4.288,335.7,16 / 23,2166941,2019-08-12 17:08:47:383,-0.1692,-0.101,9.4258,-0.3674,0.0494,9.7996,0.0016,0.0373,0.015
71215,48.445793,-2.480355,128.21,30.04,4.288,335.7,16 / 23,2166941,2019-08-12 17:08:47:383,-0.1692,-0.101,9.4258,-0.3674,0.0494,9.7996,0.0016,0.0373,0.015
71216,48.445793,-2.480355,128.21,30.04,4.288,335.7,Jun-23,2166945,2019-08-12 17:08:47:387,-0.1692,-0.101,9.4258,-0.3674,0.0494,9.7996,0.0016,0.0373,0.015
71217,48.445793,-2.480355,128.21,30.04,4.288,335.7,Jun-23,2166945,2019-08-12 17:08:47:387,-0.1692,-0.101,9.4258,-0.3674,0.0494,9.7996,0.0016,0.0373,0.015
71218,48.445793,-2.480355,128.21,30.04,4.288,335.7,Jun-23,2166982,2019-08-12 17:08:47:424,-0.1692,-0.101,9.4258,-0.3674,0.0494,9.7996,0.0016,0.0373,0.015
71219,48.445793,-2.480355,128.21,30.04,4.288,335.7,Jun-23,2167082,2019-08-12 17:08:47:524,-0.1692,-0.101,9.4258,-0.3674,0.0494,9.7996,0.0016,0.0373,0.015
71220,48.445793,-2.480355,128.21,30.04,4.288,335.7,Jun-23,2167333,2019-08-12 17:08:47:775,-0.1692,-0.101,9.4258,-0.3674,0.0494,9.7996,0.0016,0.0373,0.015
71221,48.445793,-2.480355,128.21,30.04,4.288,335.7,Jun-23,2167334,2019-08-12 17:08:47:776,-0.1692,-0.101,9.4258,-0.3674,0.0494,9.7996,0.0016,0.0373,0.015
71222,48.445793,-2.480355,128.21,30.04,4.288,335.7,Jun-23,2167334,2019-08-12 17:08:47:776,-0.1692,-0.101,9.4258,-0.3674,0.0494,9.7996,0.0016,0.0373,0.015
71223,48.445793,-2.480355,128.21,30.04,4.288,335.7,0 / 23,2167334,2019-08-12 17:08:47:776,-0.1692,-0.101,9.4258,-0.3674,0.0494,9.7996,0.0016,0.0373,0.015
71224,48.445793,-2.480355,128.21,30.04,4.288,335.7,0 / 23,2167334,2019-08-12 17:08:47:776,-0.1692,-0.101,9.4258,-0.3674,0.0494,9.7996,0.0016,0.0373,0.015
71225,48.445793,-2.480355,128.21,30.04,4.288,335.7,0 / 23,2167334,2019-08-12 17:08:47:776,-0.1692,-0.101,9.4258,-0.3674,0.0494,9.7996,0.0016,0.0373,0.015
71226,48.445793,-2.480355,128.21,30.04,4.288,335.7,0 / 23,2167335,2019-08-12 17:08:47:777,-0.1692,-0.101,9.4258,-0.3674,0.0494,9.7996,0.0016,0.0373,0.015
71227,48.445793,-2.480355,128.21,30.04,4.288,335.7,0 / 23,2167335,2019-08-12 17:08:47:777,-0.1692,-0.101,9.4258,-0.3674,0.0494,9.7996,0.0016,0.0373,0.015
71228,48.45031,-2.48355,127.16,30.66,8.576,331.3,0 / 23,2167376,2019-08-12 17:08:47:818,-0.1692,-0.101,9.4258,-0.3674,0.0494,9.7996,0.0016,0.0373,0.015
71229,48.45031,-2.48355,127.16,30.66,8.576,331.3,15 / 23,2167724,2019-08-12 17:08:48:166,-0.1692,-0.101,9.4258,-0.3674,0.0494,9.7996,0.0016,0.0373,0.015
71230,48.45031,-2.48355,127.16,30.66,8.576,331.3,15 / 23,2167725,2019-08-12 17:08:48:167,-0.1692,-0.101,9.4258,-0.3674,0.0494,9.7996,0.0016,0.0373,0.015
71231,48.45031,-2.48355,127.16,30.66,8.576,331.3,15 / 23,2167725,2019-08-12 17:08:48:167,-0.1692,-0.101,9.4258,-0.3674,0.0494,9.7996,0.0016,0.0373,0.015
71232,48.45031,-2.48355,127.16,30.66,8.576,331.3,15 / 23,2167725,2019-08-12 17:08:48:167,-0.1692,-0.101,9.4258,-0.3674,0.0494,9.7996,0.0016,0.0373,0.015
71233,48.45031,-2.48355,127.16,30.66,8.576,331.3,15 / 23,2167729,2019-08-12 17:08:48:171,-0.1692,-0.101,9.4258,-0.3674,0.0494,9.7996,0.0016,0.0373,0.015
71234,48.45031,-2.48355,127.16,30.66,8.576,331.3,15 / 23,2167729,2019-08-12 17:08:48:171,-0.1692,-0.101,9.4258,-0.3674,0.0494,9.7996,0.0016,0.0373,0.015
71235,48.45031,-2.48355,127.16,30.66,8.576,331.3,15 / 23,2167730,2019-08-12 17:08:48:172,-0.1692,-0.101,9.4258,-0.3674,0.0494,9.7996,0.0016,0.0373,0.015
71236,48.45031,-2.48355,127.16,30.66,8.576,331.3,15 / 23,2167733,2019-08-12 17:08:48:175,-0.1692,-0.101,9.4258,-0.3674,0.0494,9.7996,0.0016,0.0373,0.015
71237,48.45031,-2.48355,127.16,30.66,8.576,331.3,15 / 23,2167734,2019-08-12 17:08:48:176,-0.1692,-0.101,9.4258,-0.3674,0.0494,9.7996,0.0016,0.0373,0.015
71238,48.45031,-2.48355,127.16,30.66,8.576,331.3,15 / 23,2167735,2019-08-12 17:08:48:177,-0.1692,-0.101,9.4258,-0.3674,0.0494,9.7996,0.0016,0.0373,0.015
71239,48.45031,-2.48355,127.16,30.66,8.576,331.3,15 / 23,2167735,2019-08-12 17:08:48:177,-0.1692,-0.101,9.4258,-0.3674,0.0494,9.7996,0.0016,0.0373,0.015
71240,48.45031,-2.48355,127.16,30.66,8.576,331.3,15 / 23,2167736,2019-08-12 17:08:48:178,-0.1692,-0.101,9.4258,-0.3674,0.0494,9.7996,0.0016,0.0373,0.015
71241,48.45031,-2.48355,127.16,30.66,8.576,331.3,15 / 23,2167736,2019-08-12 17:08:48:178,-0.1692,-0.101,9.4258,-0.3674,0.0494,9.7996,0.0016,0.0373,0.015
71242,48.45031,-2.48355,127.16,30.66,8.576,331.3,15 / 23,2167736,2019-08-12 17:08:48:178,-0.1692,-0.101,9.4258,-0.3674,0.0494,9.7996,0.0016,0.0373,0.015
71243,48.45031,-2.48355,127.16,30.66,8.576,331.3,15 / 23,2167737,2019-08-12 17:08:48:179,-0.1692,-0.101,9.4258,-0.3674,0.0494,9.7996,0.0016,0.0373,0.015
71244,48.45031,-2.48355,127.16,30.66,8.576,331.3,15 / 23,2167737,2019-08-12 17:08:48:179,-0.1692,-0.101,9.4258,-0.3674,0.0494,9.7996,0.0016,0.0373,0.015
71245,48.45031,-2.48355,127.16,30.66,8.576,331.3,15 / 23,2167737,2019-08-12 17:08:48:179,-0.1692,-0.101,9.4258,-0.3674,0.0494,9.7996,0.0016,0.0373,0.015
71246,48.45031,-2.48355,127.16,30.66,8.576,331.3,15 / 23,2167737,2019-08-12 17:08:48:179,-0.1692,-0.101,9.4258,-0.3674,0.0494,9.7996,0.0016,0.0373,0.015
71247,48.45031,-2.48355,127.16,30.66,8.576,331.3,15 / 23,2167738,2019-08-12 17:08:48:180,-0.1692,-0.101,9.4258,-0.3674,0.0494,9.7996,0.0016,0.0373,0.015
71248,48.45031,-2.48355,127.16,30.66,8.576,331.3,15 / 23,2167738,2019-08-12 17:08:48:180,-0.1692,-0.101,9.4258,-0.3674,0.0494,9.7996,0.0016,0.0373,0.015
71249,48.45031,-2.48355,127.16,30.66,8.576,331.3,15 / 23,2167738,2019-08-12 17:08:48:180,-0.1692,-0.101,9.4258,-0.3674,0.0494,9.7996,0.0016,0.0373,0.015
71250,48.45031,-2.48355,127.16,30.66,8.576,331.3,15 / 23,2167738,2019-08-12 17:08:48:180,-0.1692,-0.101,9.4258,-0.3674,0.0494,9.7996,0.0016,0.0373,0.015
71251,48.45031,-2.48355,127.16,30.66,8.576,331.3,15 / 23,2167738,2019-08-12 17:08:48:180,-0.1692,-0.101,9.4258,-0.3674,0.0494,9.7996,0.0016,0.0373,0.015
71252,48.45031,-2.48355,127.16,30.66,8.576,331.3,15 / 23,2167738,2019-08-12 17:08:48:180,-0.1692,-0.101,9.4258,-0.3674,0.0494,9.7996,0.0016,0.0373,0.015
71253,48.45031,-2.48355,127.16,30.66,8.576,331.3,15 / 23,2167738,2019-08-12 17:08:48:180,-0.1692,-0.101,9.4258,-0.3674,0.0494,9.7996,0.0016,0.0373,0.015
71254,48.45031,-2.48355,127.16,30.66,8.576,331.3,15 / 23,2167738,2019-08-12 17:08:48:180,-0.1692,-0.101,9.4258,-0.3674,0.0494,9.7996,0.0016,0.0373,0.015
71255,48.45031,-2.48355,127.16,30.66,8.576,331.3,15 / 23,2167739,2019-08-12 17:08:48:181,-0.1692,-0.101,9.4258,-0.3674,0.0494,9.7996,0.0016,0.0373,0.015
71256,48.45031,-2.48355,127.16,30.66,8.576,331.3,15 / 23,2167739,2019-08-12 17:08:48:181,-0.1692,-0.101,9.4258,-0.3674,0.0494,9.7996,0.0016,0.0373,0.015
71257,48.45031,-2.48355,127.16,30.66,8.576,331.3,15 / 23,2167739,2019-08-12 17:08:48:181,-0.1692,-0.101,9.4258,-0.3674,0.0494,9.7996,0.0016,0.0373,0.015
71258,48.45031,-2.48355,127.16,30.66,8.576,331.3,15 / 23,2167739,2019-08-12 17:08:48:181,-0.1692,-0.101,9.4258,-0.3674,0.0494,9.7996,0.0016,0.0373,0.015
71259,48.45031,-2.48355,127.16,30.66,8.576,331.3,15 / 23,2167739,2019-08-12 17:08:48:181,-0.1692,-0.101,9.4258,-0.3674,0.0494,9.7996,0.0016,0.0373,0.015
71260,48.45031,-2.48355,127.16,30.66,8.576,331.3,15 / 23,2167739,2019-08-12 17:08:48:181,-0.1692,-0.101,9.4258,-0.3674,0.0494,9.7996,0.0016,0.0373,0.015
71261,48.45031,-2.48355,127.16,30.66,8.576,331.3,15 / 23,2167739,2019-08-12 17:08:48:181,-0.1692,-0.101,9.4258,-0.3674,0.0494,9.7996,0.0016,0.0373,0.015
71262,48.45031,-2.48355,127.16,30.66,8.576,331.3,15 / 23,2167739,2019-08-12 17:08:48:181,-0.1692,-0.101,9.4258,-0.3674,0.0494,9.7996,0.0016,0.0373,0.015
71263,48.45031,-2.48355,127.16,30.66,8.576,331.3,15 / 23,2167739,2019-08-12 17:08:48:181,-0.1692,-0.101,9.4258,-0.3674,0.0494,9.7996,0.0016,0.0373,0.015
71264,48.45031,-2.48355,127.16,30.66,8.576,331.3,15 / 23,2167740,2019-08-12 17:08:48:182,-0.1692,-0.101,9.4258,-0.3674,0.0494,9.7996,0.0016,0.0373,0.015
71265,48.45031,-2.48355,127.16,30.66,8.576,331.3,15 / 23,2167740,2019-08-12 17:08:48:182,-0.1692,-0.101,9.4258,-0.3674,0.0494,9.7996,0.0016,0.0373,0.015
71266,48.45031,-2.48355,127.16,30.66,8.576,331.3,15 / 23,2167740,2019-08-12 17:08:48:182,-0.1692,-0.101,9.4258,-0.3674,0.0494,9.7996,0.0016,0.0373,0.015
71267,48.45031,-2.48355,127.16,30.66,8.576,331.3,15 / 23,2167740,2019-08-12 17:08:48:182,-0.1692,-0.101,9.4258,-0.3674,0.0494,9.7996,0.0016,0.0373,0.015
71268,48.45031,-2.48355,127.16,30.66,8.576,331.3,15 / 23,2167740,2019-08-12 17:08:48:182,-0.1692,-0.101,9.4258,-0.3674,0.0494,9.7996,0.0016,0.0373,0.015
71269,48.45031,-2.48355,127.16,30.66,8.576,331.3,15 / 23,2167740,2019-08-12 17:08:48:182,-0.1692,-0.101,9.4258,-0.3674,0.0494,9.7996,0.0016,0.0373,0.015
71270,48.45031,-2.48355,127.16,30.66,8.576,331.3,15 / 23,2167740,2019-08-12 17:08:48:182,-0.1692,-0.101,9.4258,-0.3674,0.0494,9.7996,0.0016,0.0373,0.015
71271,48.45031,-2.48355,127.16,30.66,8.576,331.3,15 / 23,2167740,2019-08-12 17:08:48:182,-0.1692,-0.101,9.4258,-0.3674,0.0494,9.7996,0.0016,0.0373,0.015
71272,48.45031,-2.48355,127.16,30.66,8.576,331.3,15 / 23,2167740,2019-08-12 17:08:48:182,-0.1692,-0.101,9.4258,-0.3674,0.0494,9.7996,0.0016,0.0373,0.015
71273,48.45031,-2.48355,127.16,30.66,8.576,331.3,15 / 23,2167740,2019-08-12 17:08:48:182,-0.1692,-0.101,9.4258,-0.3674,0.0494,9.7996,0.0016,0.0373,0.015
71274,48.45031,-2.48355,127.16,30.66,8.576,331.3,15 / 23,2167741,2019-08-12 17:08:48:183,-0.1692,-0.101,9.4258,-0.3674,0.0494,9.7996,0.0016,0.0373,0.015
71275,48.45031,-2.48355,127.16,30.66,8.576,331.3,15 / 23,2167741,2019-08-12 17:08:48:183,-0.1692,-0.101,9.4258,-0.3674,0.0494,9.7996,0.0016,0.0373,0.015
71276,48.45031,-2.48355,127.16,30.66,8.576,331.3,15 / 23,2167741,2019-08-12 17:08:48:183,-0.1692,-0.101,9.4258,-0.3674,0.0494,9.7996,0.0016,0.0373,0.015
71277,48.45031,-2.48355,127.16,30.66,8.576,331.3,15 / 23,2167741,2019-08-12 17:08:48:183,-0.1692,-0.101,9.4258,-0.3674,0.0494,9.7996,0.0016,0.0373,0.015
71278,48.45031,-2.48355,127.16,30.66,8.576,331.3,15 / 23,2167741,2019-08-12 17:08:48:183,-0.1692,-0.101,9.4258,-0.3674,0.0494,9.7996,0.0016,0.0373,0.015
71279,48.45031,-2.48355,127.16,30.66,8.576,331.3,15 / 23,2167741,2019-08-12 17:08:48:183,-0.1692,-0.101,9.4258,-0.3674,0.0494,9.7996,0.0016,0.0373,0.015
71280,48.45031,-2.48355,127.16,30.66,8.576,331.3,15 / 23,2167741,2019-08-12 17:08:48:183,-0.1692,-0.101,9.4258,-0.3674,0.0494,9.7996,0.0016,0.0373,0.015
71281,48.45031,-2.48355,127.16,30.66,8.576,331.3,15 / 23,2167741,2019-08-12 17:08:48:183,-0.1692,-0.101,9.4258,-0.3674,0.0494,9.7996,0.0016,0.0373,0.015
71282,48.45031,-2.48355,127.16,30.66,8.576,331.3,15 / 23,2167742,2019-08-12 17:08:48:184,-0.1692,-0.101,9.4258,-0.3674,0.0494,9.7996,0.0016,0.0373,0.015
71283,48.45031,-2.48355,127.16,30.66,8.576,331.3,15 / 23,2167742,2019-08-12 17:08:48:184,-0.1692,-0.101,9.4258,-0.3674,0.0494,9.7996,0.0016,0.0373,0.015
71284,48.45031,-2.48355,127.16,30.66,8.576,331.3,15 / 23,2167742,2019-08-12 17:08:48:184,-0.1692,-0.101,9.4258,-0.3674,0.0494,9.7996,0.0016,0.0373,0.015
71285,48.45031,-2.48355,127.16,30.66,8.576,331.3,15 / 23,2167742,2019-08-12 17:08:48:184,-0.1692,-0.101,9.4258,-0.3674,0.0494,9.7996,0.0016,0.0373,0.015
71286,48.45031,-2.48355,127.16,30.66,8.576,331.3,15 / 23,2167742,2019-08-12 17:08:48:184,-0.1692,-0.101,9.4258,-0.3674,0.0494,9.7996,0.0016,0.0373,0.015
71287,48.45031,-2.48355,127.16,30.66,8.576,331.3,15 / 23,2167742,2019-08-12 17:08:48:184,-0.1692,-0.101,9.4258,-0.3674,0.0494,9.7996,0.0016,0.0373,0.015
71288,48.45031,-2.48355,127.16,30.66,8.576,331.3,15 / 23,2167742,2019-08-12 17:08:48:184,-0.1692,-0.101,9.4258,-0.3674,0.0494,9.7996,0.0016,0.0373,0.015
71289,48.45031,-2.48355,127.16,30.66,8.576,331.3,15 / 23,2167742,2019-08-12 17:08:48:184,-0.1692,-0.101,9.4258,-0.3674,0.0494,9.7996,0.0016,0.0373,0.015
71290,48.45031,-2.48355,127.16,30.66,8.576,331.3,15 / 23,2167743,2019-08-12 17:08:48:185,-0.1692,-0.101,9.4258,-0.3674,0.0494,9.7996,0.0016,0.0373,0.015
71291,48.45031,-2.48355,127.16,30.66,8.576,331.3,15 / 23,2167743,2019-08-12 17:08:48:185,-0.1692,-0.101,9.4258,-0.3674,0.0494,9.7996,0.0016,0.0373,0.015
71292,48.45031,-2.48355,127.16,30.66,8.576,331.3,15 / 23,2167743,2019-08-12 17:08:48:185,-0.1692,-0.101,9.4258,-0.3674,0.0494,9.7996,0.0016,0.0373,0.015
71293,48.45031,-2.48355,127.16,30.66,8.576,331.3,15 / 23,2167743,2019-08-12 17:08:48:185,-0.1692,-0.101,9.4258,-0.3674,0.0494,9.7996,0.0016,0.0373,0.015
71294,48.45031,-2.48355,127.16,30.66,8.576,331.3,15 / 23,2167743,2019-08-12 17:08:48:185,-0.1692,-0.101,9.4258,-0.3674,0.0494,9.7996,0.0016,0.0373,0.015
71295,48.45031,-2.48355,127.16,30.66,8.576,331.3,15 / 23,2167743,2019-08-12 17:08:48:185,-0.1692,-0.101,9.4258,-0.3674,0.0494,9.7996,0.0016,0.0373,0.015
71296,48.45031,-2.48355,127.16,30.66,8.576,331.3,15 / 23,2167743,2019-08-12 17:08:48:185,-0.1692,-0.101,9.4258,-0.3674,0.0494,9.7996,0.0016,0.0373,0.015
71297,48.45031,-2.48355,127.16,30.66,8.576,331.3,15 / 23,2167744,2019-08-12 17:08:48:186,-0.1692,-0.101,9.4258,-0.3674,0.0494,9.7996,0.0016,0.0373,0.015
71298,48.45031,-2.48355,127.16,30.66,8.576,331.3,15 / 23,2167744,2019-08-12 17:08:48:186,-0.1692,-0.101,9.4258,-0.3674,0.0494,9.7996,0.0016,0.0373,0.015
71299,48.45031,-2.48355,127.16,30.66,8.576,331.3,15 / 23,2167744,2019-08-12 17:08:48:186,-0.1692,-0.101,9.4258,-0.3674,0.0494,9.7996,0.0016,0.0373,0.015
71300,48.45031,-2.48355,127.16,30.66,8.576,331.3,15 / 23,2167745,2019-08-12 17:08:48:187,-0.1692,-0.101,9.4258,-0.3674,0.0494,9.7996,0.0016,0.0373,0.015
71301,48.45031,-2.48355,127.16,30.66,8.576,331.3,15 / 23,2167745,2019-08-12 17:08:48:187,-0.1692,-0.101,9.4258,-0.3674,0.0494,9.7996,0.0016,0.0373,0.015
71302,48.45031,-2.48355,127.16,30.66,8.576,331.3,15 / 23,2167745,2019-08-12 17:08:48:187,-0.1692,-0.101,9.4258,-0.3674,0.0494,9.7996,0.0016,0.0373,0.015
71303,48.45031,-2.48355,127.16,30.66,8.576,331.3,15 / 23,2167745,2019-08-12 17:08:48:187,-0.1692,-0.101,9.4258,-0.3674,0.0494,9.7996,0.0016,0.0373,0.015
71304,48.45031,-2.48355,127.16,30.66,8.576,331.3,15 / 23,2167746,2019-08-12 17:08:48:188,-0.1692,-0.101,9.4258,-0.3674,0.0494,9.7996,0.0016,0.0373,0.015
71305,48.45031,-2.48355,127.16,30.66,8.576,331.3,15 / 23,2167746,2019-08-12 17:08:48:188,-0.1692,-0.101,9.4258,-0.3674,0.0494,9.7996,0.0016,0.0373,0.015
71306,48.45031,-2.48355,127.16,30.66,8.576,331.3,15 / 23,2167746,2019-08-12 17:08:48:188,-0.1692,-0.101,9.4258,-0.3674,0.0494,9.7996,0.0016,0.0373,0.015
71307,48.45031,-2.48355,127.16,30.66,8.576,331.3,15 / 23,2167746,2019-08-12 17:08:48:188,-0.1692,-0.101,9.4258,-0.3674,0.0494,9.7996,0.0016,0.0373,0.015
71308,48.45031,-2.48355,127.16,30.66,8.576,331.3,15 / 23,2167775,2019-08-12 17:08:48:217,-0.1692,-0.101,9.4258,-0.3674,0.0494,9.7996,0.0016,0.0373,0.015
71309,48.45031,-2.48355,127.16,30.66,8.576,331.3,0 / 23,2168176,2019-08-12 17:08:48:618,-0.1692,-0.101,9.4258,-0.3674,0.0494,9.7996,0.0016,0.0373,0.015
71310,48.45031,-2.48355,127.16,30.66,8.576,331.3,0 / 23,2168176,2019-08-12 17:08:48:618,-0.1692,-0.101,9.4258,-0.3674,0.0494,9.7996,0.0016,0.0373,0.015
71311,48.45031,-2.48355,127.16,30.66,8.576,331.3,0 / 23,2168177,2019-08-12 17:08:48:619,-0.1692,-0.101,9.4258,-0.3674,0.0494,9.7996,0.0016,0.0373,0.015
71312,48.45031,-2.48355,127.16,30.66,8.576,331.3,0 / 23,2168177,2019-08-12 17:08:48:619,-0.1692,-0.101,9.4258,-0.3674,0.0494,9.7996,0.0016,0.0373,0.015
71313,48.45031,-2.48355,127.16,30.66,8.576,331.3,0 / 23,2168178,2019-08-12 17:08:48:620,-0.1692,-0.101,9.4258,-0.3674,0.0494,9.7996,0.0016,0.0373,0.015
71314,48.45031,-2.48355,127.16,30.66,8.576,331.3,0 / 23,2168178,2019-08-12 17:08:48:620,-0.1692,-0.101,9.4258,-0.3674,0.0494,9.7996,0.0016,0.0373,0.015
71315,48.45031,-2.48355,127.16,30.66,8.576,331.3,0 / 23,2168178,2019-08-12 17:08:48:620,-0.1692,-0.101,9.4258,-0.3674,0.0494,9.7996,0.0016,0.0373,0.015
71316,48.45031,-2.48355,127.16,30.66,8.576,331.3,0 / 23,2168179,2019-08-12 17:08:48:621,-0.1692,-0.101,9.4258,-0.3674,0.0494,9.7996,0.0016,0.0373,0.015
71317,48.45031,-2.48355,127.16,30.66,8.576,331.3,0 / 23,2168179,2019-08-12 17:08:48:621,-0.1692,-0.101,9.4258,-0.3674,0.0494,9.7996,0.0016,0.0373,0.015
71318,48.452217,-2.485878,123.47,30.7,15.008,314.1,0 / 23,2168192,2019-08-12 17:08:48:634,-0.1692,-0.101,9.4258,-0.3674,0.0494,9.7996,0.0016,0.0373,0.015
71319,48.452217,-2.485878,123.47,30.7,15.008,314.1,0 / 23,2168293,2019-08-12 17:08:48:735,-0.1692,-0.101,9.4258,-0.3674,0.0494,9.7996,0.0016,0.0373,0.015
71320,48.452217,-2.485878,123.47,30.7,15.008,314.1,Aug-23,2168629,2019-08-12 17:08:49:071,-0.1692,-0.101,9.4258,-0.3674,0.0494,9.7996,0.0016,0.0373,0.015
71321,48.452217,-2.485878,123.47,30.7,15.008,314.1,Aug-23,2168629,2019-08-12 17:08:49:071,-0.1692,-0.101,9.4258,-0.3674,0.0494,9.7996,0.0016,0.0373,0.015
71322,48.452217,-2.485878,123.47,30.7,15.008,314.1,Aug-23,2168630,2019-08-12 17:08:49:072,-0.1692,-0.101,9.4258,-0.3674,0.0494,9.7996,0.0016,0.0373,0.015
71323,48.452217,-2.485878,123.47,30.7,15.008,314.1,Aug-23,2168630,2019-08-12 17:08:49:072,-0.1692,-0.101,9.4258,-0.3674,0.0494,9.7996,0.0016,0.0373,0.015
71324,48.452217,-2.485878,123.47,30.7,15.008,314.1,Aug-23,2168631,2019-08-12 17:08:49:073,-0.1692,-0.101,9.4258,-0.3674,0.0494,9.7996,0.0016,0.0373,0.015
71325,48.452217,-2.485878,123.47,30.7,15.008,314.1,Aug-23,2168631,2019-08-12 17:08:49:073,-0.1692,-0.101,9.4258,-0.3674,0.0494,9.7996,0.0016,0.0373,0.015
71326,48.452217,-2.485878,123.47,30.7,15.008,314.1,Aug-23,2168632,2019-08-12 17:08:49:074,-0.1692,-0.101,9.4258,-0.3674,0.0494,9.7996,0.0016,0.0373,0.015
71327,48.452217,-2.485878,123.47,30.7,15.008,314.1,Aug-23,2168632,2019-08-12 17:08:49:074,-0.1692,-0.101,9.4258,-0.3674,0.0494,9.7996,0.0016,0.0373,0.015
71328,48.452217,-2.485878,123.47,30.7,15.008,314.1,Aug-23,2168632,2019-08-12 17:08:49:074,-0.1692,-0.101,9.4258,-0.3674,0.0494,9.7996,0.0016,0.0373,0.015
71329,48.452217,-2.485878,123.47,30.7,15.008,314.1,Aug-23,2168633,2019-08-12 17:08:49:075,-0.1692,-0.101,9.4258,-0.3674,0.0494,9.7996,0.0016,0.0373,0.015
71330,48.452217,-2.485878,123.47,30.7,15.008,314.1,Aug-23,2168633,2019-08-12 17:08:49:075,-0.1692,-0.101,9.4258,-0.3674,0.0494,9.7996,0.0016,0.0373,0.015
71331,48.452217,-2.485878,123.47,30.7,15.008,314.1,Aug-23,2168633,2019-08-12 17:08:49:075,-0.1692,-0.101,9.4258,-0.3674,0.0494,9.7996,0.0016,0.0373,0.015
71332,48.452217,-2.485878,123.47,30.7,15.008,314.1,Aug-23,2168634,2019-08-12 17:08:49:076,-0.1692,-0.101,9.4258,-0.3674,0.0494,9.7996,0.0016,0.0373,0.015
71333,48.452217,-2.485878,123.47,30.7,15.008,314.1,Aug-23,2168634,2019-08-12 17:08:49:076,-0.1692,-0.101,9.4258,-0.3674,0.0494,9.7996,0.0016,0.0373,0.015
71334,48.452217,-2.485878,123.47,30.7,15.008,314.1,Aug-23,2168639,2019-08-12 17:08:49:081,-0.1692,-0.101,9.4258,-0.3674,0.0494,9.7996,0.0016,0.0373,0.015
71335,48.452217,-2.485878,123.47,30.7,15.008,314.1,Aug-23,2168640,2019-08-12 17:08:49:082,-0.1692,-0.101,9.4258,-0.3674,0.0494,9.7996,0.0016,0.0373,0.015
71336,48.452217,-2.485878,123.47,30.7,15.008,314.1,Aug-23,2168641,2019-08-12 17:08:49:083,-0.1692,-0.101,9.4258,-0.3674,0.0494,9.7996,0.0016,0.0373,0.015
71337,48.452217,-2.485878,123.47,30.7,15.008,314.1,Aug-23,2168642,2019-08-12 17:08:49:084,-0.1692,-0.101,9.4258,-0.3674,0.0494,9.7996,0.0016,0.0373,0.015
71338,48.452217,-2.485878,123.47,30.7,15.008,314.1,Aug-23,2168642,2019-08-12 17:08:49:084,-0.1692,-0.101,9.4258,-0.3674,0.0494,9.7996,0.0016,0.0373,0.015
71339,48.452217,-2.485878,123.47,30.7,15.008,314.1,Aug-23,2168643,2019-08-12 17:08:49:085,-0.1692,-0.101,9.4258,-0.3674,0.0494,9.7996,0.0016,0.0373,0.015
71340,48.452217,-2.485878,123.47,30.7,15.008,314.1,Aug-23,2168643,2019-08-12 17:08:49:085,-0.1692,-0.101,9.4258,-0.3674,0.0494,9.7996,0.0016,0.0373,0.015
71341,48.452217,-2.485878,123.47,30.7,15.008,314.1,Aug-23,2168643,2019-08-12 17:08:49:085,-0.1692,-0.101,9.4258,-0.3674,0.0494,9.7996,0.0016,0.0373,0.015
71342,48.452217,-2.485878,123.47,30.7,15.008,314.1,Aug-23,2168644,2019-08-12 17:08:49:086,-0.1692,-0.101,9.4258,-0.3674,0.0494,9.7996,0.0016,0.0373,0.015
71343,48.452217,-2.485878,123.47,30.7,15.008,314.1,Aug-23,2168644,2019-08-12 17:08:49:086,-0.1692,-0.101,9.4258,-0.3674,0.0494,9.7996,0.0016,0.0373,0.015
71344,48.452217,-2.485878,123.47,30.7,15.008,314.1,Aug-23,2168647,2019-08-12 17:08:49:089,-0.1692,-0.101,9.4258,-0.3674,0.0494,9.7996,0.0016,0.0373,0.015
71345,48.452217,-2.485878,123.47,30.7,15.008,314.1,Aug-23,2168649,2019-08-12 17:08:49:091,-0.1692,-0.101,9.4258,-0.3674,0.0494,9.7996,0.0016,0.0373,0.015
71346,48.452217,-2.485878,123.47,30.7,15.008,314.1,Aug-23,2168649,2019-08-12 17:08:49:091,-0.1692,-0.101,9.4258,-0.3674,0.0494,9.7996,0.0016,0.0373,0.015
71347,48.452217,-2.485878,123.47,30.7,15.008,314.1,Aug-23,2168650,2019-08-12 17:08:49:092,-0.1692,-0.101,9.4258,-0.3674,0.0494,9.7996,0.0016,0.0373,0.015
71348,48.452217,-2.485878,123.47,30.7,15.008,314.1,Aug-23,2168650,2019-08-12 17:08:49:092,-0.1692,-0.101,9.4258,-0.3674,0.0494,9.7996,0.0016,0.0373,0.015
71349,48.452217,-2.485878,123.47,30.7,15.008,314.1,Aug-23,2168651,2019-08-12 17:08:49:093,-0.1692,-0.101,9.4258,-0.3674,0.0494,9.7996,0.0016,0.0373,0.015
71350,48.452217,-2.485878,123.47,30.7,15.008,314.1,Aug-23,2168651,2019-08-12 17:08:49:093,-0.1692,-0.101,9.4258,-0.3674,0.0494,9.7996,0.0016,0.0373,0.015
71351,48.452217,-2.485878,123.47,30.7,15.008,314.1,Aug-23,2168652,2019-08-12 17:08:49:094,-0.1692,-0.101,9.4258,-0.3674,0.0494,9.7996,0.0016,0.0373,0.015
71352,48.452217,-2.485878,123.47,30.7,15.008,314.1,Aug-23,2168652,2019-08-12 17:08:49:094,-0.1692,-0.101,9.4258,-0.3674,0.0494,9.7996,0.0016,0.0373,0.015
71353,48.452217,-2.485878,123.47,30.7,15.008,314.1,Aug-23,2168652,2019-08-12 17:08:49:094,-0.1692,-0.101,9.4258,-0.3674,0.0494,9.7996,0.0016,0.0373,0.015
71354,48.452217,-2.485878,123.47,30.7,15.008,314.1,Aug-23,2168653,2019-08-12 17:08:49:095,-0.1692,-0.101,9.4258,-0.3674,0.0494,9.7996,0.0016,0.0373,0.015
71355,48.452217,-2.485878,123.47,30.7,15.008,314.1,Aug-23,2168653,2019-08-12 17:08:49:095,-0.1692,-0.101,9.4258,-0.3674,0.0494,9.7996,0.0016,0.0373,0.015
71356,48.452217,-2.485878,123.47,30.7,15.008,314.1,Aug-23,2168654,2019-08-12 17:08:49:096,-0.1692,-0.101,9.4258,-0.3674,0.0494,9.7996,0.0016,0.0373,0.015
71357,48.452217,-2.485878,123.47,30.7,15.008,314.1,Aug-23,2168654,2019-08-12 17:08:49:096,-0.1692,-0.101,9.4258,-0.3674,0.0494,9.7996,0.0016,0.0373,0.015
71358,48.452217,-2.485878,123.47,30.7,15.008,314.1,Aug-23,2168654,2019-08-12 17:08:49:096,-0.1692,-0.101,9.4258,-0.3674,0.0494,9.7996,0.0016,0.0373,0.015
71359,48.452217,-2.485878,123.47,30.7,15.008,314.1,Aug-23,2168655,2019-08-12 17:08:49:097,-0.1692,-0.101,9.4258,-0.3674,0.0494,9.7996,0.0016,0.0373,0.015
71360,48.452217,-2.485878,123.47,30.7,15.008,314.1,Aug-23,2168655,2019-08-12 17:08:49:097,-0.1692,-0.101,9.4258,-0.3674,0.0494,9.7996,0.0016,0.0373,0.015
71361,48.452217,-2.485878,123.47,30.7,15.008,314.1,Aug-23,2168656,2019-08-12 17:08:49:098,-0.1692,-0.101,9.4258,-0.3674,0.0494,9.7996,0.0016,0.0373,0.015
71362,48.452217,-2.485878,123.47,30.7,15.008,314.1,Aug-23,2168656,2019-08-12 17:08:49:098,-0.1692,-0.101,9.4258,-0.3674,0.0494,9.7996,0.0016,0.0373,0.015
71363,48.452217,-2.485878,123.47,30.7,15.008,314.1,Aug-23,2168656,2019-08-12 17:08:49:098,-0.1692,-0.101,9.4258,-0.3674,0.0494,9.7996,0.0016,0.0373,0.015
71364,48.452217,-2.485878,123.47,30.7,15.008,314.1,Aug-23,2168657,2019-08-12 17:08:49:099,-0.1692,-0.101,9.4258,-0.3674,0.0494,9.7996,0.0016,0.0373,0.015
71365,48.452217,-2.485878,123.47,30.7,15.008,314.1,Aug-23,2168657,2019-08-12 17:08:49:099,-0.1692,-0.101,9.4258,-0.3674,0.0494,9.7996,0.0016,0.0373,0.015
71366,48.452217,-2.485878,123.47,30.7,15.008,314.1,Aug-23,2168657,2019-08-12 17:08:49:099,-0.1692,-0.101,9.4258,-0.3674,0.0494,9.7996,0.0016,0.0373,0.015
71367,48.452217,-2.485878,123.47,30.7,15.008,314.1,Aug-23,2168658,2019-08-12 17:08:49:100,-0.1692,-0.101,9.4258,-0.3674,0.0494,9.7996,0.0016,0.0373,0.015
71368,48.452217,-2.485878,123.47,30.7,15.008,314.1,Aug-23,2168662,2019-08-12 17:08:49:104,-0.1692,-0.101,9.4258,-0.3674,0.0494,9.7996,0.0016,0.0373,0.015
71369,48.452217,-2.485878,123.47,30.7,15.008,314.1,Aug-23,2168663,2019-08-12 17:08:49:105,-0.1692,-0.101,9.4258,-0.3674,0.0494,9.7996,0.0016,0.0373,0.015
71370,48.452217,-2.485878,123.47,30.7,15.008,314.1,Aug-23,2168664,2019-08-12 17:08:49:106,-0.1692,-0.101,9.4258,-0.3674,0.0494,9.7996,0.0016,0.0373,0.015
71371,48.452217,-2.485878,123.47,30.7,15.008,314.1,Aug-23,2168666,2019-08-12 17:08:49:108,-0.1692,-0.101,9.4258,-0.3674,0.0494,9.7996,0.0016,0.0373,0.015
71372,48.452217,-2.485878,123.47,30.7,15.008,314.1,Aug-23,2168666,2019-08-12 17:08:49:108,-0.1692,-0.101,9.4258,-0.3674,0.0494,9.7996,0.0016,0.0373,0.015
71373,48.452217,-2.485878,123.47,30.7,15.008,314.1,Aug-23,2168667,2019-08-12 17:08:49:109,-0.1692,-0.101,9.4258,-0.3674,0.0494,9.7996,0.0016,0.0373,0.015
71374,48.452217,-2.485878,123.47,30.7,15.008,314.1,Aug-23,2168668,2019-08-12 17:08:49:110,-0.1692,-0.101,9.4258,-0.3674,0.0494,9.7996,0.0016,0.0373,0.015
71375,48.452217,-2.485878,123.47,30.7,15.008,314.1,Aug-23,2168668,2019-08-12 17:08:49:110,-0.1692,-0.101,9.4258,-0.3674,0.0494,9.7996,0.0016,0.0373,0.015
71376,48.452217,-2.485878,123.47,30.7,15.008,314.1,Aug-23,2168669,2019-08-12 17:08:49:111,-0.1692,-0.101,9.4258,-0.3674,0.0494,9.7996,0.0016,0.0373,0.015
71377,48.452217,-2.485878,123.47,30.7,15.008,314.1,Aug-23,2168670,2019-08-12 17:08:49:112,-0.1692,-0.101,9.4258,-0.3674,0.0494,9.7996,0.0016,0.0373,0.015
71378,48.452217,-2.485878,123.47,30.7,15.008,314.1,Aug-23,2168670,2019-08-12 17:08:49:112,-0.1692,-0.101,9.4258,-0.3674,0.0494,9.7996,0.0016,0.0373,0.015
71379,48.452217,-2.485878,123.47,30.7,15.008,314.1,Aug-23,2168671,2019-08-12 17:08:49:113,-0.1692,-0.101,9.4258,-0.3674,0.0494,9.7996,0.0016,0.0373,0.015
71380,48.452217,-2.485878,123.47,30.7,15.008,314.1,Aug-23,2168672,2019-08-12 17:08:49:114,-0.1692,-0.101,9.4258,-0.3674,0.0494,9.7996,0.0016,0.0373,0.015
71381,48.452217,-2.485878,123.47,30.7,15.008,314.1,Aug-23,2168672,2019-08-12 17:08:49:114,-0.1692,-0.101,9.4258,-0.3674,0.0494,9.7996,0.0016,0.0373,0.015
71382,48.452217,-2.485878,123.47,30.7,15.008,314.1,Aug-23,2168673,2019-08-12 17:08:49:115,-0.1692,-0.101,9.4258,-0.3674,0.0494,9.7996,0.0016,0.0373,0.015
71383,48.452217,-2.485878,123.47,30.7,15.008,314.1,Aug-23,2168673,2019-08-12 17:08:49:115,-0.1692,-0.101,9.4258,-0.3674,0.0494,9.7996,0.0016,0.0373,0.015
71384,48.452217,-2.485878,123.47,30.7,15.008,314.1,Aug-23,2168674,2019-08-12 17:08:49:116,-0.1692,-0.101,9.4258,-0.3674,0.0494,9.7996,0.0016,0.0373,0.015
71385,48.452217,-2.485878,123.47,30.7,15.008,314.1,Aug-23,2168674,2019-08-12 17:08:49:116,-0.1692,-0.101,9.4258,-0.3674,0.0494,9.7996,0.0016,0.0373,0.015
71386,48.452217,-2.485878,123.47,30.7,15.008,314.1,Aug-23,2168675,2019-08-12 17:08:49:117,-0.1692,-0.101,9.4258,-0.3674,0.0494,9.7996,0.0016,0.0373,0.015
71387,48.452217,-2.485878,123.47,30.7,15.008,314.1,Aug-23,2168676,2019-08-12 17:08:49:118,-0.1692,-0.101,9.4258,-0.3674,0.0494,9.7996,0.0016,0.0373,0.015
71388,48.452217,-2.485878,123.47,30.7,15.008,314.1,Aug-23,2168676,2019-08-12 17:08:49:118,-0.1692,-0.101,9.4258,-0.3674,0.0494,9.7996,0.0016,0.0373,0.015
71389,48.452217,-2.485878,123.47,30.7,15.008,314.1,Aug-23,2168677,2019-08-12 17:08:49:119,-0.1692,-0.101,9.4258,-0.3674,0.0494,9.7996,0.0016,0.0373,0.015
71390,48.452217,-2.485878,123.47,30.7,15.008,314.1,Aug-23,2168677,2019-08-12 17:08:49:119,-0.1692,-0.101,9.4258,-0.3674,0.0494,9.7996,0.0016,0.0373,0.015
71391,48.452217,-2.485878,123.47,30.7,15.008,314.1,Aug-23,2168678,2019-08-12 17:08:49:120,-0.1692,-0.101,9.4258,-0.3674,0.0494,9.7996,0.0016,0.0373,0.015
71392,48.452217,-2.485878,123.47,30.7,15.008,314.1,Aug-23,2168678,2019-08-12 17:08:49:120,-0.1692,-0.101,9.4258,-0.3674,0.0494,9.7996,0.0016,0.0373,0.015
71393,48.452217,-2.485878,123.47,30.7,15.008,314.1,Aug-23,2168679,2019-08-12 17:08:49:121,-0.1692,-0.101,9.4258,-0.3674,0.0494,9.7996,0.0016,0.0373,0.015
71394,48.452217,-2.485878,123.47,30.7,15.008,314.1,Aug-23,2168679,2019-08-12 17:08:49:121,-0.1692,-0.101,9.4258,-0.3674,0.0494,9.7996,0.0016,0.0373,0.015
71395,48.452217,-2.485878,123.47,30.7,15.008,314.1,Aug-23,2168680,2019-08-12 17:08:49:122,-0.1692,-0.101,9.4258,-0.3674,0.0494,9.7996,0.0016,0.0373,0.015
71396,48.452217,-2.485878,123.47,30.7,15.008,314.1,Aug-23,2168680,2019-08-12 17:08:49:122,-0.1692,-0.101,9.4258,-0.3674,0.0494,9.7996,0.0016,0.0373,0.015
71397,48.452217,-2.485878,123.47,30.7,15.008,314.1,Aug-23,2168681,2019-08-12 17:08:49:123,-0.1692,-0.101,9.4258,-0.3674,0.0494,9.7996,0.0016,0.0373,0.015
71398,48.452217,-2.485878,123.47,30.7,15.008,314.1,Aug-23,2168681,2019-08-12 17:08:49:123,-0.1692,-0.101,9.4258,-0.3674,0.0494,9.7996,0.0016,0.0373,0.015
71399,48.452217,-2.485878,123.47,30.7,15.008,314.1,Aug-23,2168747,2019-08-12 17:08:49:189,-0.1692,-0.101,9.4258,-0.3674,0.0494,9.7996,0.0016,0.0373,0.015
71400,48.452217,-2.485878,123.47,30.7,15.008,314.1,Aug-23,2169103,2019-08-12 17:08:49:545,-0.1692,-0.101,9.4258,-0.3674,0.0494,9.7996,0.0016,0.0373,0.015
71401,48.452217,-2.485878,123.47,30.7,15.008,314.1,Aug-23,2169104,2019-08-12 17:08:49:546,-0.1692,-0.101,9.4258,-0.3674,0.0494,9.7996,0.0016,0.0373,0.015
71402,48.452217,-2.485878,123.47,30.7,15.008,314.1,Aug-23,2169104,2019-08-12 17:08:49:546,-0.1692,-0.101,9.4258,-0.3674,0.0494,9.7996,0.0016,0.0373,0.015
71403,48.452217,-2.485878,123.47,30.7,15.008,314.1,Aug-23,2169104,2019-08-12 17:08:49:546,-0.1692,-0.101,9.4258,-0.3674,0.0494,9.7996,0.0016,0.0373,0.015
71404,48.452217,-2.485878,123.47,30.7,15.008,314.1,Aug-23,2169105,2019-08-12 17:08:49:547,-0.1692,-0.101,9.4258,-0.3674,0.0494,9.7996,0.0016,0.0373,0.015
71405,48.452217,-2.485878,123.47,30.7,15.008,314.1,Aug-23,2169105,2019-08-12 17:08:49:547,-0.1692,-0.101,9.4258,-0.3674,0.0494,9.7996,0.0016,0.0373,0.015
71406,48.452217,-2.485878,123.47,30.7,15.008,314.1,Aug-23,2169105,2019-08-12 17:08:49:547,-0.1692,-0.101,9.4258,-0.3674,0.0494,9.7996,0.0016,0.0373,0.015
71407,48.452217,-2.485878,123.47,30.7,15.008,314.1,Aug-23,2169106,2019-08-12 17:08:49:548,-0.1692,-0.101,9.4258,-0.3674,0.0494,9.7996,0.0016,0.0373,0.015
71408,48.452217,-2.485878,123.47,30.7,15.008,314.1,Aug-23,2169114,2019-08-12 17:08:49:556,-0.1692,-0.101,9.4258,-0.3674,0.0494,9.7996,0.0016,0.0373,0.015
71409,48.45367,-2.488909,136.12,30.17,12.864,297.9,0 / 23,2169215,2019-08-12 17:08:49:657,-0.1692,-0.101,9.4258,-0.3674,0.0494,9.7996,0.0016,0.0373,0.015
71410,48.45367,-2.488909,136.12,30.17,12.864,297.9,0 / 23,2169585,2019-08-12 17:08:50:027,-0.1692,-0.101,9.4258,-0.3674,0.0494,9.7996,0.0016,0.0373,0.015
71411,48.45367,-2.488909,136.12,30.17,12.864,297.9,0 / 23,2169586,2019-08-12 17:08:50:028,-0.1692,-0.101,9.4258,-0.3674,0.0494,9.7996,0.0016,0.0373,0.015
71412,48.45367,-2.488909,136.12,30.17,12.864,297.9,0 / 23,2169587,2019-08-12 17:08:50:029,-0.1692,-0.101,9.4258,-0.3674,0.0494,9.7996,0.0016,0.0373,0.015
71413,48.45367,-2.488909,136.12,30.17,12.864,297.9,0 / 23,2169587,2019-08-12 17:08:50:029,-0.1692,-0.101,9.4258,-0.3674,0.0494,9.7996,0.0016,0.0373,0.015
71414,48.45367,-2.488909,136.12,30.17,12.864,297.9,0 / 23,2169587,2019-08-12 17:08:50:029,-0.1692,-0.101,9.4258,-0.3674,0.0494,9.7996,0.0016,0.0373,0.015
71415,48.45367,-2.488909,136.12,30.17,12.864,297.9,0 / 23,2169588,2019-08-12 17:08:50:030,-0.1692,-0.101,9.4258,-0.3674,0.0494,9.7996,0.0016,0.0373,0.015
71416,48.45367,-2.488909,136.12,30.17,12.864,297.9,0 / 23,2169589,2019-08-12 17:08:50:031,-0.1692,-0.101,9.4258,-0.3674,0.0494,9.7996,0.0016,0.0373,0.015
71417,48.45367,-2.488909,136.12,30.17,12.864,297.9,0 / 23,2169590,2019-08-12 17:08:50:032,-0.1692,-0.101,9.4258,-0.3674,0.0494,9.7996,0.0016,0.0373,0.015
