,GPS LATITUDE (degrees),GPS LONGITUDE (degrees), GPS ALTITUDE (m),GPS SPEED (Kmh),GPS ACCURACY (m),GPS ORIENTATION (Â°), SATELLITES IN RANGE, TIME SINCE START (ms), DATE (YYYY-MO-DD HH-MI-SS_SSS),ACCELEROMETER X (m/s²) , ACCELEROMETER Y (m/s²), ACCELEROMETER Z (m/s²), GRAVITY X (m/s²), GRAVITY Y (m/s²), GRAVITY Z (m/s²), GYROSCOPE Yaw (rad/s), GYROSCOPE Pitch (rad/s), GYROSCOPE Roll (rad/s)
35632,45.998474,-0.543247,120.1,35.85,8.576,192.5,Nov-15,3563145,2019-08-18 23:19:12:678,0.0131,0.7245,10.4161,-0.2559,0.7525,9.7744,-0.0046,0.0045,0.0139
35633,45.998474,-0.543247,120.1,35.85,8.576,192.5,Nov-15,3563245,2019-08-18 23:19:12:778,-0.5867,0.949,9.2268,-0.2543,0.7505,9.7746,-0.0089,0.0045,0.0139
35634,45.998474,-0.543247,120.1,35.85,8.576,192.5,Nov-15,3563345,2019-08-18 23:19:12:878,-0.4149,0.9723,9.623,-0.2519,0.7488,9.7748,-0.0068,-0.0041,0.0149
35635,45.998474,-0.543247,120.1,35.85,8.576,192.5,Nov-15,3563445,2019-08-18 23:19:12:978,-0.0486,0.6838,9.5674,-0.2546,0.7527,9.7744,0.0007,0.0108,0.0139
35636,45.998474,-0.543247,120.1,35.85,8.576,192.5,Nov-15,3563546,2019-08-18 23:19:13:079,0.1693,0.618,9.7595,-0.2355,0.7695,9.7736,0.0145,-0.0009,0.0139
35637,45.998474,-0.543247,120.1,35.85,8.576,192.5,Nov-15,3563646,2019-08-18 23:19:13:179,-0.1545,0.7484,10.2832,-0.2139,0.7889,9.7725,0.0156,-0.0126,0.0128
35638,45.998474,-0.543247,120.1,35.85,8.576,192.5,Nov-15,3563745,2019-08-18 23:19:13:278,-0.3796,0.9196,9.9905,-0.2068,0.7995,9.7718,0.0124,-0.0019,0.0139
35639,45.998474,-0.543247,120.1,35.85,8.576,192.5,Nov-15,3563845,2019-08-18 23:19:13:378,-0.6501,0.9214,9.7481,-0.2185,0.8028,9.7713,-0.0036,0.0119,0.0149
35640,45.998474,-0.543247,120.1,35.85,8.576,192.5,Nov-15,3563945,2019-08-18 23:19:13:478,0.0986,0.7215,9.7074,-0.2277,0.8112,9.7704,0.006,0.0098,0.0149
35641,45.998474,-0.543247,120.1,35.85,8.576,192.5,Nov-15,3564046,2019-08-18 23:19:13:579,0.1974,0.8777,9.6488,-0.2367,0.8338,9.7683,0.006,0.0055,0.0139
35642,45.998474,-0.543247,120.1,35.85,8.576,192.5,Nov-15,3564145,2019-08-18 23:19:13:678,-0.2264,0.9603,10.0223,-0.2398,0.8458,9.7672,0.0071,-0.0041,0.0149
35643,45.998474,-0.543247,120.1,35.85,8.576,192.5,Nov-15,3564245,2019-08-18 23:19:13:778,-0.8423,0.8951,9.5458,-0.2429,0.8537,9.7664,0.0007,0.0023,0.0128
35644,45.998474,-0.543247,120.1,35.85,8.576,192.5,Nov-15,3564346,2019-08-18 23:19:13:879,-0.7573,0.8681,9.559,-0.2515,0.8574,9.7659,0.0049,0.0045,0.0128
35645,45.998474,-0.543247,120.1,35.85,8.576,192.5,Nov-15,3564446,2019-08-18 23:19:13:979,-0.2156,0.9729,9.6158,-0.2615,0.8639,9.765,-0.0004,0.0055,0.016
35646,45.998474,-0.543247,120.1,35.85,8.576,192.5,Nov-15,3564545,2019-08-18 23:19:14:078,-0.1432,0.8215,10.3467,-0.2869,0.8832,9.7626,0.0018,-0.0009,0.016
35647,45.998474,-0.543247,120.1,35.85,8.576,192.5,Nov-15,3564646,2019-08-18 23:19:14:179,-0.2323,0.8903,9.8169,-0.2835,0.8768,9.7633,-0.01,-0.0009,0.0149
35648,45.998474,-0.543247,120.1,35.85,8.576,192.5,Nov-15,3564745,2019-08-18 23:19:14:278,-0.8106,1.1022,9.7834,-0.2965,0.8743,9.7631,-0.0078,-0.0009,0.0128
35649,45.998474,-0.543247,120.1,35.85,8.576,192.5,Nov-15,3564845,2019-08-18 23:19:14:378,-0.4831,0.9663,9.5183,-0.3105,0.8818,9.762,-0.0068,-0.0073,0.0149
35650,45.998474,-0.543247,120.1,35.85,8.576,192.5,Nov-15,3564945,2019-08-18 23:19:14:478,-0.2407,0.9633,9.9283,-0.3067,0.881,9.7622,-0.0057,-0.0019,0.0171
35651,45.998474,-0.543247,120.1,35.85,8.576,192.5,Nov-15,3565045,2019-08-18 23:19:14:578,0.2202,0.6132,10.0695,-0.3005,0.8907,9.7615,0.0092,0.0023,0.0171
35652,45.998474,-0.543247,120.1,35.85,8.576,192.5,Nov-15,3565145,2019-08-18 23:19:14:678,-0.112,1.0729,9.5195,-0.2793,0.9074,9.7606,-0.0014,0.0076,0.0171
35653,45.998474,-0.543247,120.1,35.85,8.576,192.5,Nov-15,3565245,2019-08-18 23:19:14:778,-0.534,0.9669,9.7056,-0.2483,0.9167,9.7605,0.006,-0.0019,0.016
35654,45.998474,-0.543247,120.1,35.85,8.576,192.5,Nov-15,3565345,2019-08-18 23:19:14:878,-0.3706,0.8963,9.5482,-0.2437,0.9216,9.7602,-0.0036,-0.0009,0.0128
35655,45.998474,-0.543247,120.1,35.85,8.576,192.5,Nov-15,3565445,2019-08-18 23:19:14:978,0.1801,1.0777,10.1869,-0.2377,0.931,9.7595,-0.0057,-0.0009,0.0128
35656,45.998474,-0.543247,120.1,35.85,8.576,192.5,Nov-15,3565545,2019-08-18 23:19:15:078,0.2052,0.7676,10.1414,-0.2322,0.9298,9.7597,0.0049,-0.0041,0.0117
35657,45.998474,-0.543247,120.1,35.85,8.576,192.5,Nov-15,3565645,2019-08-18 23:19:15:178,-0.1647,0.7682,9.5847,-0.2184,0.9385,9.7592,0.0124,-0.0019,0.0128
35658,45.998474,-0.543247,120.1,35.85,8.576,192.5,Nov-15,3565745,2019-08-18 23:19:15:278,-0.8159,0.922,9.1849,-0.2197,0.9397,9.759,0.0039,0.0066,0.0128
35659,45.998474,-0.543247,120.1,35.85,8.576,192.5,Nov-15,3565846,2019-08-18 23:19:15:379,-0.525,0.8867,9.4219,-0.23,0.936,9.7592,-0.0014,0.0002,0.0107
35660,45.998474,-0.543247,120.1,35.85,8.576,192.5,Nov-15,3565946,2019-08-18 23:19:15:479,0.0867,0.6335,10.0707,-0.239,0.9037,9.762,-0.0046,0.0023,0.0085
35661,45.998474,-0.543247,120.1,35.85,8.576,192.5,Nov-15,3566045,2019-08-18 23:19:15:578,0.0083,0.7874,9.5374,-0.2533,0.8461,9.7668,-0.0068,0.0066,0.0043
35662,45.998474,-0.543247,120.1,35.85,8.576,192.5,Nov-15,3566146,2019-08-18 23:19:15:679,-0.3892,0.7514,9.6613,-0.2575,0.8075,9.77,-0.0089,0.0034,0.0022
35663,45.998474,-0.543247,120.1,35.85,8.576,192.5,Nov-15,3566245,2019-08-18 23:19:15:778,-0.7447,0.5587,9.5542,-0.2798,0.7283,9.7756,0.0007,-0.0041,0.0011
35664,45.998474,-0.543247,120.1,35.85,8.576,192.5,Nov-15,3566345,2019-08-18 23:19:15:878,0.0244,0.2397,10.127,-0.2735,0.7119,9.777,-0.0057,-0.0126,-0.0011
35665,45.998474,-0.543247,120.1,35.85,8.576,192.5,Nov-15,3566445,2019-08-18 23:19:15:978,0.0633,0.4294,10.2138,-0.2658,0.6723,9.78,-0.0142,-0.0009,-0.0096
35666,45.998474,-0.543247,120.1,35.85,8.576,192.5,Nov-15,3566545,2019-08-18 23:19:16:078,-0.2282,0.1242,9.5889,-0.2609,0.6049,9.7845,-0.011,0.0087,-0.0106
35667,45.998474,-0.543247,120.1,35.85,8.576,192.5,Nov-15,3566645,2019-08-18 23:19:16:178,-0.6891,0.1218,9.942,-0.2636,0.5317,9.7887,-0.0068,0.0055,-0.0106
35668,45.998474,-0.543247,120.1,35.85,8.576,192.5,Nov-15,3566746,2019-08-18 23:19:16:279,-0.1456,0.0038,9.6541,-0.2683,0.5042,9.79,-0.0036,-0.0019,-0.0096
35669,45.998474,-0.543247,120.1,35.85,8.576,192.5,Nov-15,3566845,2019-08-18 23:19:16:378,0.0783,0.1535,9.9618,-0.2677,0.4841,9.791,-0.0078,-0.003,-0.0085
35670,45.998474,-0.543247,120.1,35.85,8.576,192.5,Nov-15,3566946,2019-08-18 23:19:16:479,-0.0522,-0.0668,10.3485,-0.2619,0.3807,9.7958,-0.0057,0.0023,-0.0074
35671,45.998474,-0.543247,120.1,35.85,8.576,192.5,Nov-15,3567046,2019-08-18 23:19:16:579,-0.607,0.0158,9.1579,-0.2595,0.3667,9.7964,-0.0089,-0.0041,-0.0074
35672,45.998474,-0.543247,120.1,35.85,8.576,192.5,Nov-15,3567146,2019-08-18 23:19:16:679,-0.5209,0.2457,10.0001,-0.2624,0.3466,9.797,-0.0195,-0.0019,-0.0085
35673,45.998474,-0.543247,120.1,35.85,8.576,192.5,Nov-15,3567245,2019-08-18 23:19:16:778,-0.2383,-0.2278,10.106,-0.262,0.3204,9.7979,-0.0057,-0.0019,-0.0074
35674,45.998474,-0.543247,120.1,35.85,8.576,192.5,Nov-15,3567345,2019-08-18 23:19:16:878,-0.1851,0.0434,10.0145,-0.2591,0.307,9.7984,0.006,-0.0051,-0.0064
35675,45.998474,-0.543247,120.1,35.85,8.576,192.5,Nov-15,3567446,2019-08-18 23:19:16:979,-0.561,-0.0309,9.4141,-0.2562,0.3052,9.7985,0.0124,-0.0051,-0.0074
35676,45.998474,-0.543247,120.1,35.85,8.576,192.5,Nov-15,3567545,2019-08-18 23:19:17:078,-0.5861,-0.0746,9.9588,-0.2716,0.3053,9.7981,0.0145,0.0034,-0.0042
35677,45.998474,-0.543247,120.1,35.85,8.576,192.5,Nov-15,3567646,2019-08-18 23:19:17:179,-0.2018,0.0122,9.7074,-0.2857,0.3037,9.7978,0.006,0.014,-0.0064
35678,45.998474,-0.543247,120.1,35.85,8.576,192.5,Nov-15,3567746,2019-08-18 23:19:17:279,-0.1725,0.0529,9.6769,-0.2995,0.2889,9.7978,-0.0142,0.0066,-0.0096
35679,45.998474,-0.543247,120.1,35.85,8.576,192.5,Nov-15,3567845,2019-08-18 23:19:17:378,-0.6095,0.205,9.5638,-0.3286,0.2427,9.7981,-0.0068,0.0023,-0.0096
35680,45.998474,-0.543247,120.1,35.85,8.576,192.5,Nov-15,3567946,2019-08-18 23:19:17:479,-0.956,-0.0973,9.7852,-0.351,0.2302,9.7977,0.0156,-0.0062,0.0
35681,45.998474,-0.543247,120.1,35.85,8.576,192.5,Nov-15,3568045,2019-08-18 23:19:17:578,-0.6938,0.2481,10.2467,-0.355,0.2326,9.7975,0.0018,-0.0051,0.0032
35682,45.998474,-0.543247,120.1,35.85,8.576,192.5,Nov-15,3568145,2019-08-18 23:19:17:678,-0.2725,-0.2452,9.0765,-0.3741,0.2473,9.7964,0.0071,0.0119,0.0053
35683,45.998474,-0.543247,120.1,35.85,8.576,192.5,Nov-15,3568246,2019-08-18 23:19:17:779,-0.6669,0.609,9.7062,-0.3848,0.2596,9.7957,0.0018,0.0045,0.0064
35684,45.998474,-0.543247,120.1,35.85,8.576,192.5,Nov-15,3568345,2019-08-18 23:19:17:878,-1.0003,0.7143,10.2862,-0.3863,0.2679,9.7954,-0.0036,-0.0105,0.0085
35685,45.995537,-0.544037,118.67,37.04,8.576,189.1,Nov-15,3568445,2019-08-18 23:19:17:978,-0.5795,0.7455,9.8912,-0.4142,0.3286,9.7924,0.006,-0.0094,0.0107
35686,45.995537,-0.544037,118.67,37.04,8.576,189.1,Nov-15,3568546,2019-08-18 23:19:18:079,-0.039,0.5348,9.8421,-0.4543,0.4052,9.7877,0.0007,0.0034,0.0096
35687,45.995537,-0.544037,118.67,37.04,8.576,189.1,Nov-15,3568646,2019-08-18 23:19:18:179,-0.2707,0.4923,9.8457,-0.4574,0.4089,9.7874,-0.0046,0.0066,0.0107
35688,45.995537,-0.544037,118.67,37.04,8.576,189.1,Nov-15,3568746,2019-08-18 23:19:18:279,-0.786,0.8765,9.5907,-0.4623,0.4317,9.7862,0.0092,-0.0009,0.0128
35689,45.995537,-0.544037,118.67,37.04,8.576,189.1,Nov-15,3568846,2019-08-18 23:19:18:379,-0.2695,0.621,9.7379,-0.486,0.5177,9.7809,0.0113,0.0023,0.0128
35690,45.995537,-0.544037,118.67,37.04,8.576,189.1,Nov-15,3568946,2019-08-18 23:19:18:479,-0.1132,0.6832,9.7786,-0.484,0.5386,9.7799,0.0007,0.0034,0.0128
35691,45.995537,-0.544037,118.67,37.04,8.576,189.1,Nov-15,3569046,2019-08-18 23:19:18:579,-0.3281,0.6646,9.8463,-0.4806,0.5488,9.7795,0.006,-0.0041,0.0128
35692,45.995537,-0.544037,118.67,37.04,8.576,189.1,Nov-15,3569146,2019-08-18 23:19:18:679,-0.6938,0.6036,9.4063,-0.4861,0.6008,9.7762,-0.0068,-0.0009,0.0128
35693,45.995537,-0.544037,118.67,37.04,8.576,189.1,Nov-15,3569246,2019-08-18 23:19:18:779,-0.5735,1.0896,9.8008,-0.496,0.6169,9.7747,-0.0057,0.0034,0.0107
35694,45.995537,-0.544037,118.67,37.04,8.576,189.1,Nov-15,3569346,2019-08-18 23:19:18:879,-0.4766,0.7772,9.9277,-0.4996,0.6241,9.774,-0.0004,0.0055,0.0139
35695,45.995537,-0.544037,118.67,37.04,8.576,189.1,Nov-15,3569446,2019-08-18 23:19:18:979,-0.118,0.8412,9.9959,-0.5045,0.6284,9.7735,-0.0068,0.0076,0.0139
35696,45.995537,-0.544037,118.67,37.04,8.576,189.1,Nov-15,3569545,2019-08-18 23:19:19:078,-0.6597,0.9933,9.8541,-0.5027,0.6729,9.7706,0.0028,-0.0051,0.0139
35697,45.995537,-0.544037,118.67,37.04,8.576,189.1,Nov-15,3569646,2019-08-18 23:19:19:179,-1.0165,0.9597,10.0971,-0.5276,0.7258,9.7655,0.006,-0.0041,0.0149
35698,45.995537,-0.544037,118.67,37.04,8.576,189.1,Nov-15,3569746,2019-08-18 23:19:19:279,-0.4215,0.8179,9.9564,-0.5711,0.7735,9.7594,0.0081,0.0087,0.0139
35699,45.995537,-0.544037,118.67,37.04,8.576,189.1,Nov-15,3569846,2019-08-18 23:19:19:379,-0.2772,0.7101,10.2916,-0.5869,0.7953,9.7567,0.0039,0.0087,0.0149
35700,45.995537,-0.544037,118.67,37.04,8.576,189.1,Nov-15,3569945,2019-08-18 23:19:19:478,-1.0578,0.7269,9.3716,-0.6103,0.7965,9.7552,-0.0014,0.0108,0.0096
35701,45.995537,-0.544037,118.67,37.04,8.576,189.1,Nov-15,3570045,2019-08-18 23:19:19:578,-1.2313,0.9214,9.7649,-0.6253,0.7971,9.7542,0.006,0.0023,0.0096
35702,45.995537,-0.544037,118.67,37.04,8.576,189.1,Nov-15,3570146,2019-08-18 23:19:19:679,-1.305,0.451,9.2609,-0.6545,0.7809,9.7536,-0.0195,0.0119,0.0107
35703,45.995537,-0.544037,118.67,37.04,8.576,189.1,Nov-15,3570246,2019-08-18 23:19:19:779,-0.7764,0.7101,9.1334,-0.6755,0.7691,9.7531,-0.0164,0.0162,0.0107
35704,45.995537,-0.544037,118.67,37.04,8.576,189.1,Nov-15,3570346,2019-08-18 23:19:19:879,-0.7639,0.7036,10.8854,-0.6924,0.7588,9.7527,0.0007,-0.0158,0.0128
35705,45.995537,-0.544037,118.67,37.04,8.576,189.1,Nov-15,3570445,2019-08-18 23:19:19:978,-1.111,0.5797,11.6186,-0.6667,0.762,9.7542,0.0135,-0.0573,0.0096
35706,45.995537,-0.544037,118.67,37.04,8.576,189.1,Nov-15,3570546,2019-08-18 23:19:20:079,-0.2377,1.2279,11.8041,-0.6424,0.7263,9.7586,-0.0515,-0.0211,0.0064
35707,45.995537,-0.544037,118.67,37.04,8.576,189.1,Nov-15,3570645,2019-08-18 23:19:20:178,-0.8279,0.5653,8.715,-0.6593,0.6959,9.7597,-0.0451,0.0279,0.0107
35708,45.995537,-0.544037,118.67,37.04,8.576,189.1,Nov-15,3570745,2019-08-18 23:19:20:278,-0.8273,0.4731,8.709,-0.6824,0.6747,9.7596,-0.0078,-0.0041,0.016
35709,45.995537,-0.544037,118.67,37.04,8.576,189.1,Nov-15,3570845,2019-08-18 23:19:20:378,-0.8878,0.6922,9.5943,-0.6843,0.689,9.7585,0.0284,-0.0115,0.016
35710,45.995537,-0.544037,118.67,37.04,8.576,189.1,Nov-15,3570945,2019-08-18 23:19:20:478,-1.1398,0.7293,10.5065,-0.6817,0.7265,9.7559,0.0305,-0.0009,0.0117
35711,45.995537,-0.544037,118.67,37.04,8.576,189.1,Nov-15,3571046,2019-08-18 23:19:20:579,-0.8967,0.9615,9.6314,-0.7156,0.7438,9.7522,0.0092,0.0258,0.0128
35712,45.995537,-0.544037,118.67,37.04,8.576,189.1,Nov-15,3571145,2019-08-18 23:19:20:678,-0.9668,1.1112,9.6775,-0.7325,0.761,9.7496,0.0124,0.0108,0.0224
35713,45.995537,-0.544037,118.67,37.04,8.576,189.1,Nov-15,3571245,2019-08-18 23:19:20:778,-0.3185,0.7065,9.8451,-0.7339,0.7948,9.7468,0.0199,-0.0009,0.0256
35714,45.995537,-0.544037,118.67,37.04,8.576,189.1,Nov-15,3571345,2019-08-18 23:19:20:878,-0.7794,1.01,9.2226,-0.7241,0.8123,9.7461,0.0039,-0.0115,0.0224
35715,45.995537,-0.544037,118.67,37.04,8.576,189.1,Nov-15,3571446,2019-08-18 23:19:20:979,-0.9763,1.1339,9.6218,-0.7134,0.8162,9.7465,-0.0014,-0.0041,0.0085
35716,45.995537,-0.544037,118.67,37.04,8.576,189.1,Nov-15,3571546,2019-08-18 23:19:21:079,-0.613,0.9089,10.2724,-0.6789,0.805,9.7499,-0.011,-0.0201,-0.0021
35717,45.995537,-0.544037,118.67,37.04,8.576,189.1,Nov-15,3571645,2019-08-18 23:19:21:178,0.1621,0.2989,10.2264,-0.6585,0.7753,9.7538,-0.011,0.0013,-0.0064
35718,45.995537,-0.544037,118.67,37.04,8.576,189.1,Nov-15,3571746,2019-08-18 23:19:21:279,0.2645,0.1272,10.0043,-0.6458,0.7528,9.7564,-0.011,0.0023,-0.0053
35719,45.995537,-0.544037,118.67,37.04,8.576,189.1,Nov-15,3571845,2019-08-18 23:19:21:378,-0.2294,0.4061,9.1167,-0.6244,0.7245,9.7599,0.0028,0.0066,-0.0032
35720,45.995537,-0.544037,118.67,37.04,8.576,189.1,Nov-15,3571946,2019-08-18 23:19:21:479,-0.3981,0.4282,9.7439,-0.609,0.7112,9.7618,0.0028,-0.0009,-0.0011
35721,45.995537,-0.544037,118.67,37.04,8.576,189.1,Nov-15,3572046,2019-08-18 23:19:21:579,-0.3449,0.2624,10.1479,-0.5858,0.6943,9.7645,-0.0089,-0.0094,-0.0021
35722,45.995537,-0.544037,118.67,37.04,8.576,189.1,Nov-15,3572146,2019-08-18 23:19:21:679,0.274,0.1164,9.5763,-0.5557,0.6685,9.768,0.0028,-0.0019,-0.0032
35723,45.995537,-0.544037,118.67,37.04,8.576,189.1,Nov-15,3572246,2019-08-18 23:19:21:779,0.4231,0.3049,10.0324,-0.4774,0.6097,9.776,-0.0036,0.0013,-0.0032
35724,45.995537,-0.544037,118.67,37.04,8.576,189.1,Nov-15,3572345,2019-08-18 23:19:21:878,-0.0899,0.2367,9.8744,-0.369,0.5324,9.7852,-0.0036,0.0013,-0.0021
35725,45.995537,-0.544037,118.67,37.04,8.576,189.1,Nov-15,3572445,2019-08-18 23:19:21:978,-0.2419,0.2217,9.8062,-0.3552,0.5112,9.7869,-0.0036,0.0034,-0.0032
35726,45.995537,-0.544037,118.67,37.04,8.576,189.1,Nov-15,3572546,2019-08-18 23:19:22:079,-0.0324,0.1714,9.8181,-0.3454,0.5087,9.7874,0.0018,0.0013,-0.0021
35727,45.995537,-0.544037,118.67,37.04,8.576,189.1,Nov-15,3572646,2019-08-18 23:19:22:179,0.2944,0.1535,9.9714,-0.2727,0.4561,9.7922,0.0049,0.0002,0.0011
35728,45.995537,-0.544037,118.67,37.04,8.576,189.1,Nov-15,3572745,2019-08-18 23:19:22:278,0.0909,0.5455,9.8606,-0.2622,0.4525,9.7927,-0.0046,-0.0019,0.0022
35729,45.995537,-0.544037,118.67,37.04,8.576,189.1,Nov-15,3572845,2019-08-18 23:19:22:378,-0.3317,0.4276,9.374,-0.2556,0.4323,9.7938,-0.0228,0.0066,0.0011
35730,45.995537,-0.544037,118.67,37.04,8.576,189.1,Nov-15,3572946,2019-08-18 23:19:22:479,-0.2653,0.5593,9.8912,-0.254,0.42,9.7944,-0.0185,0.0034,0.0
35731,45.995537,-0.544037,118.67,37.04,8.576,189.1,Nov-15,3573046,2019-08-18 23:19:22:579,0.201,0.1098,9.6541,-0.2471,0.4036,9.7952,-0.0142,-0.0041,0.0
35732,45.995537,-0.544037,118.67,37.04,8.576,189.1,Nov-15,3573145,2019-08-18 23:19:22:678,0.1537,0.4198,9.9079,-0.2408,0.3873,9.796,-0.0142,0.0045,-0.0011
35733,45.995537,-0.544037,118.67,37.04,8.576,189.1,Nov-15,3573246,2019-08-18 23:19:22:779,-0.3143,0.2947,10.0564,-0.2231,0.3843,9.7966,0.006,-0.0105,0.0022
35734,45.995537,-0.544037,118.67,37.04,8.576,189.1,Nov-15,3573345,2019-08-18 23:19:22:878,-0.4083,0.4103,10.0013,-0.2196,0.3906,9.7964,0.0124,0.0002,0.0032
35735,45.995537,-0.544037,118.67,37.04,8.576,189.1,Nov-15,3573446,2019-08-18 23:19:22:979,0.0065,0.5383,9.8636,-0.2184,0.3995,9.7961,0.0007,-0.0009,0.0053
35736,45.995537,-0.544037,118.67,37.04,8.576,189.1,Nov-15,3573546,2019-08-18 23:19:23:079,0.2309,0.3468,9.7427,-0.2191,0.4045,9.7959,0.0039,0.0066,0.0064
35737,45.995537,-0.544037,118.67,37.04,8.576,189.1,Nov-15,3573646,2019-08-18 23:19:23:179,0.0107,0.451,9.7493,-0.2146,0.4155,9.7955,0.0028,-0.0009,0.0085
35738,45.995537,-0.544037,118.67,37.04,8.576,189.1,Nov-15,3573746,2019-08-18 23:19:23:279,-0.5669,0.621,9.7379,-0.2124,0.4219,9.7953,-0.0004,-0.0019,0.0075
35739,45.995537,-0.544037,118.67,37.04,8.576,189.1,Nov-15,3573846,2019-08-18 23:19:23:379,-0.4305,0.7317,10.4951,-0.2071,0.4342,9.7948,0.0124,-0.0073,0.0085
35740,45.995537,-0.544037,118.67,37.04,8.576,189.1,Nov-15,3573945,2019-08-18 23:19:23:478,0.0544,0.6239,9.9516,-0.2038,0.4591,9.7938,0.0113,0.0013,0.0128
35741,45.995537,-0.544037,118.67,37.04,8.576,189.1,Nov-15,3574046,2019-08-18 23:19:23:579,-0.3287,0.8119,9.945,-0.2119,0.484,9.7924,0.0081,0.0013,0.0107
35742,45.995537,-0.544037,118.67,37.04,8.576,189.1,Nov-15,3574145,2019-08-18 23:19:23:678,-0.7327,0.8933,9.6506,-0.2158,0.493,9.7919,-0.0036,0.0023,0.0085
35743,45.995537,-0.544037,118.67,37.04,8.576,189.1,Nov-15,3574245,2019-08-18 23:19:23:778,-0.5298,0.7072,9.4913,-0.2391,0.4799,9.792,-0.0313,0.0045,-0.0032
35744,45.995537,-0.544037,118.67,37.04,8.576,189.1,Nov-15,3574345,2019-08-18 23:19:23:878,-0.2641,0.1906,9.8696,-0.2488,0.4459,9.7933,-0.0398,0.0023,-0.0096
35745,45.995537,-0.544037,118.67,37.04,8.576,189.1,Nov-15,3574446,2019-08-18 23:19:23:979,-0.4999,0.0625,9.647,-0.2647,0.3956,9.7951,-0.0142,0.0023,-0.0117
35746,45.995537,-0.544037,118.67,37.04,8.576,189.1,Nov-15,3574545,2019-08-18 23:19:24:078,-0.6262,-0.2487,9.6601,-0.2696,0.3722,9.7959,-0.0036,-0.0041,-0.0106
35747,45.995537,-0.544037,118.67,37.04,8.576,189.1,Nov-15,3574646,2019-08-18 23:19:24:179,-0.2359,-0.1961,10.0408,-0.2714,0.3563,9.7964,0.0156,0.0002,-0.0074
35748,45.995537,-0.544037,118.67,37.04,8.576,189.1,Nov-15,3574745,2019-08-18 23:19:24:278,-0.0791,-0.0644,9.9391,-0.283,0.2667,9.7989,0.0103,0.0055,-0.0042
35749,45.995537,-0.544037,118.67,37.04,8.576,189.1,Nov-15,3574846,2019-08-18 23:19:24:379,-0.37,0.0487,10.0659,-0.288,0.2182,9.8,0.0113,-0.0041,-0.0053
35750,45.995537,-0.544037,118.67,37.04,8.576,189.1,Nov-15,3574946,2019-08-18 23:19:24:479,-0.5406,0.0835,10.0228,-0.2802,0.2273,9.8,0.0113,-0.0009,0.0011
35751,45.995537,-0.544037,118.67,37.04,8.576,189.1,Nov-15,3575046,2019-08-18 23:19:24:579,-0.221,0.2582,9.9738,-0.2933,0.2432,9.7992,0.0231,0.0108,0.0032
35752,45.995537,-0.544037,118.67,37.04,8.576,189.1,Nov-15,3575146,2019-08-18 23:19:24:679,-0.4891,0.2074,9.3172,-0.3065,0.2583,9.7985,0.0135,0.0055,0.0053
35753,45.995537,-0.544037,118.67,37.04,8.576,189.1,Nov-15,3575246,2019-08-18 23:19:24:779,-0.8369,0.3253,9.401,-0.3379,0.2704,9.7971,0.006,0.0162,0.0032
35754,45.995537,-0.544037,118.67,37.04,8.576,189.1,Nov-15,3575346,2019-08-18 23:19:24:879,-0.7992,0.3845,9.969,-0.3658,0.2707,9.7961,-0.0078,-0.0041,0.0
35755,45.995537,-0.544037,118.67,37.04,8.576,189.1,Nov-15,3575446,2019-08-18 23:19:24:979,-0.7004,0.1798,10.2653,-0.3796,0.2699,9.7956,-0.0025,-0.003,0.0
35756,45.995537,-0.544037,118.67,37.04,8.576,189.1,Nov-15,3575546,2019-08-18 23:19:25:079,-1.0655,0.0697,10.0432,-0.4691,0.2737,9.7916,0.0018,0.0013,0.0032
35757,45.995537,-0.544037,118.67,37.04,8.576,189.1,Nov-15,3575645,2019-08-18 23:19:25:178,-1.1206,0.4546,9.4476,-0.5853,0.2894,9.7849,0.0007,0.0066,0.0053
35758,45.995537,-0.544037,118.67,37.04,8.576,189.1,Nov-15,3575745,2019-08-18 23:19:25:278,-1.1487,0.3953,9.2902,-0.6413,0.2986,9.7811,0.0103,-0.0009,0.0064
35759,45.995537,-0.544037,118.67,37.04,8.576,189.1,Nov-15,3575846,2019-08-18 23:19:25:379,-1.0075,0.6174,9.948,-0.6994,0.3131,9.7767,0.0081,0.0076,0.0085
35760,45.995537,-0.544037,118.67,37.04,8.576,189.1,Nov-15,3575945,2019-08-18 23:19:25:478,-0.7824,0.1349,9.5039,-0.7189,0.3436,9.7742,0.0209,-0.003,0.0075
35761,45.995537,-0.544037,118.67,37.04,8.576,189.1,Nov-15,3576045,2019-08-18 23:19:25:578,-0.8129,0.4306,9.632,-0.7291,0.3512,9.7732,0.0049,0.0023,0.0064
35762,45.995537,-0.544037,118.67,37.04,8.576,189.1,Nov-15,3576145,2019-08-18 23:19:25:678,-1.5953,0.5773,9.7062,-0.7542,0.3586,9.771,-0.0089,0.0013,0.0043
35763,45.995537,-0.544037,118.67,37.04,8.576,189.1,Nov-15,3576245,2019-08-18 23:19:25:778,-1.2912,0.5276,9.3393,-0.7651,0.3557,9.7703,-0.0132,-0.0041,0.0053
35764,45.995537,-0.544037,118.67,37.04,8.576,189.1,Nov-15,3576346,2019-08-18 23:19:25:879,-0.9871,0.533,10.3323,-0.7752,0.3546,9.7695,-0.011,-0.0051,0.0053
35765,45.995537,-0.544037,118.67,37.04,8.576,189.1,Nov-15,3576446,2019-08-18 23:19:25:979,-1.0302,0.2612,8.7755,-0.8185,0.3751,9.7652,0.0113,0.0098,0.0064
35766,45.995537,-0.544037,118.67,37.04,8.576,189.1,Nov-15,3576546,2019-08-18 23:19:26:079,-1.366,0.2415,9.2944,-0.8463,0.3968,9.762,0.0124,0.0023,0.0075
35767,45.995537,-0.544037,118.67,37.04,8.576,189.1,Nov-15,3576645,2019-08-18 23:19:26:178,-1.5857,0.6868,9.5195,-0.855,0.3968,9.7612,-0.01,0.0013,0.0075
35768,45.995537,-0.544037,118.67,37.04,8.576,189.1,Nov-15,3576745,2019-08-18 23:19:26:278,-1.0278,0.5252,9.614,-0.8709,0.4075,9.7594,0.0081,-0.0051,0.0064
35769,45.995537,-0.544037,118.67,37.04,8.576,189.1,Nov-15,3576846,2019-08-18 23:19:26:379,-0.5304,0.5354,10.0127,-0.8719,0.4084,9.7593,-0.0036,-0.0073,0.0043
35770,45.995537,-0.544037,118.67,37.04,8.576,189.1,Nov-15,3576945,2019-08-18 23:19:26:478,-0.7764,0.6898,9.6164,-0.9273,0.4397,9.7528,-0.0068,0.0108,0.0043
35771,45.995537,-0.544037,118.67,37.04,8.576,189.1,Nov-15,3577045,2019-08-18 23:19:26:578,-1.4259,0.5503,10.1647,-0.9549,0.4421,9.75,0.0039,-0.0009,0.0053
35772,45.995537,-0.544037,118.67,37.04,8.576,189.1,Nov-15,3577145,2019-08-18 23:19:26:678,-1.5994,0.5928,10.0366,-1.0093,0.4551,9.744,0.0145,0.0023,0.0075
35773,45.995537,-0.544037,118.67,37.04,8.576,189.1,Nov-15,3577245,2019-08-18 23:19:26:778,-1.4408,0.4947,9.7356,-1.0409,0.4679,9.74,0.0071,-0.0041,0.0085
35774,45.995537,-0.544037,118.67,37.04,8.576,189.1,Nov-15,3577346,2019-08-18 23:19:26:879,-0.6136,0.5378,9.5949,-1.0466,0.4667,9.7395,-0.0036,0.0013,0.0032
35775,45.992622,-0.544553,116.12,36.16,7.504,186.0,13 / 15,3577445,2019-08-18 23:19:26:978,-1.1332,0.515,9.8732,-1.0485,0.4741,9.7389,0.0145,0.0076,0.0053
35776,45.992622,-0.544553,116.12,36.16,7.504,186.0,13 / 15,3577545,2019-08-18 23:19:27:078,-1.2379,0.4246,9.4937,-1.055,0.4901,9.7374,0.0156,0.0034,0.0043
35777,45.992622,-0.544553,116.12,36.16,7.504,186.0,13 / 15,3577645,2019-08-18 23:19:27:178,-1.4869,0.2008,9.9025,-1.0554,0.4963,9.7371,0.0071,-0.0041,0.0043
35778,45.992622,-0.544553,116.12,36.16,7.504,186.0,13 / 15,3577745,2019-08-18 23:19:27:278,-1.1954,0.6934,9.7691,-1.0714,0.4902,9.7356,-0.0036,-0.0009,0.0022
35779,45.992622,-0.544553,116.12,36.16,7.504,186.0,13 / 15,3577846,2019-08-18 23:19:27:379,-0.7902,0.5677,9.5973,-1.0883,0.4961,9.7334,-0.0068,0.0034,0.0022
35780,45.992622,-0.544553,116.12,36.16,7.504,186.0,13 / 15,3577945,2019-08-18 23:19:27:478,-0.479,0.2397,9.632,-1.0918,0.4682,9.7344,-0.0014,0.0055,0.0053
35781,45.992622,-0.544553,116.12,36.16,7.504,186.0,13 / 15,3578045,2019-08-18 23:19:27:578,-1.1134,0.4444,9.9528,-1.0847,0.4682,9.7352,0.0177,0.0066,0.0075
35782,45.992622,-0.544553,116.12,36.16,7.504,186.0,13 / 15,3578146,2019-08-18 23:19:27:679,-1.3786,0.5455,10.2186,-1.0748,0.4713,9.7362,0.0028,-0.0115,0.0064
35783,45.992622,-0.544553,116.12,36.16,7.504,186.0,13 / 15,3578245,2019-08-18 23:19:27:778,-1.6018,0.7903,9.3004,-1.0779,0.4776,9.7355,-0.0014,0.0045,0.0043
35784,45.992622,-0.544553,116.12,36.16,7.504,186.0,13 / 15,3578345,2019-08-18 23:19:27:878,-1.2822,0.366,9.8666,-1.0908,0.4771,9.7341,-0.0089,0.0087,0.0053
35785,45.992622,-0.544553,116.12,36.16,7.504,186.0,13 / 15,3578446,2019-08-18 23:19:27:979,-0.8064,0.6096,9.6589,-1.1045,0.4818,9.7323,-0.0046,0.0045,0.0043
35786,45.992622,-0.544553,116.12,36.16,7.504,186.0,13 / 15,3578546,2019-08-18 23:19:28:079,-0.7136,0.4971,10.0031,-1.0993,0.4977,9.7321,0.0092,-0.0158,0.0064
35787,45.992622,-0.544553,116.12,36.16,7.504,186.0,13 / 15,3578645,2019-08-18 23:19:28:178,-0.8004,0.5785,9.9869,-1.0904,0.5118,9.7324,0.0252,-0.0041,0.0096
35788,45.992622,-0.544553,116.12,36.16,7.504,186.0,13 / 15,3578745,2019-08-18 23:19:28:278,-1.2553,0.6449,9.9636,-1.091,0.539,9.7309,0.0167,0.0013,0.0117
35789,45.992622,-0.544553,116.12,36.16,7.504,186.0,13 / 15,3578846,2019-08-18 23:19:28:379,-1.5132,0.9214,9.787,-1.0913,0.5498,9.7302,-0.0004,-0.0041,0.0085
35790,45.992622,-0.544553,116.12,36.16,7.504,186.0,13 / 15,3578946,2019-08-18 23:19:28:479,-1.5575,0.5934,9.7733,-1.1031,0.561,9.7283,-0.0004,-0.003,0.0064
35791,45.992622,-0.544553,116.12,36.16,7.504,186.0,13 / 15,3579045,2019-08-18 23:19:28:578,-1.1517,0.8137,9.1484,-1.1143,0.5597,9.7271,-0.0132,0.0087,0.0053
35792,45.992622,-0.544553,116.12,36.16,7.504,186.0,13 / 15,3579146,2019-08-18 23:19:28:679,-0.8171,0.7353,9.7415,-1.1212,0.5558,9.7265,-0.011,0.0034,0.0043
35793,45.992622,-0.544553,116.12,36.16,7.504,186.0,13 / 15,3579246,2019-08-18 23:19:28:779,-0.6172,0.3295,10.0504,-1.1163,0.5433,9.7277,-0.0195,-0.003,0.0064
35794,45.992622,-0.544553,116.12,36.16,7.504,186.0,13 / 15,3579345,2019-08-18 23:19:28:878,-0.7627,0.4827,9.4435,-1.1089,0.556,9.7279,-0.0046,0.0108,0.0085
35795,45.992622,-0.544553,116.12,36.16,7.504,186.0,13 / 15,3579445,2019-08-18 23:19:28:978,-0.965,0.597,9.5686,-1.1091,0.5655,9.7273,0.0156,0.0023,0.0107
35796,45.992622,-0.544553,116.12,36.16,7.504,186.0,13 / 15,3579545,2019-08-18 23:19:29:078,-1.2882,0.6658,9.5697,-1.0988,0.5743,9.728,-0.011,0.0023,0.0075
35797,45.992622,-0.544553,116.12,36.16,7.504,186.0,13 / 15,3579645,2019-08-18 23:19:29:178,-1.5312,0.4821,9.5763,-1.0973,0.5799,9.7278,-0.0132,-0.0137,0.0064
35798,45.992622,-0.544553,116.12,36.16,7.504,186.0,13 / 15,3579745,2019-08-18 23:19:29:278,-1.5001,0.7329,9.5267,-1.0898,0.5738,9.729,-0.0057,-0.0051,0.0064
35799,45.992622,-0.544553,116.12,36.16,7.504,186.0,13 / 15,3579846,2019-08-18 23:19:29:379,-1.1876,0.7245,9.6553,-1.0877,0.5742,9.7292,0.0007,0.0013,0.0096
35800,45.992622,-0.544553,116.12,36.16,7.504,186.0,13 / 15,3579945,2019-08-18 23:19:29:478,-0.968,0.597,9.9804,-1.0876,0.5769,9.7291,-0.0025,0.0034,0.0096
35801,45.992622,-0.544553,116.12,36.16,7.504,186.0,13 / 15,3580045,2019-08-18 23:19:29:578,-0.795,0.4875,9.6613,-1.0763,0.5748,9.7304,-0.0068,-0.0062,0.0085
35802,45.992622,-0.544553,116.12,36.16,7.504,186.0,13 / 15,3580145,2019-08-18 23:19:29:678,-0.5795,0.2498,9.9666,-1.0576,0.5769,9.7324,0.0039,-0.0009,0.0053
35803,45.992622,-0.544553,116.12,36.16,7.504,186.0,13 / 15,3580246,2019-08-18 23:19:29:779,-0.9871,0.6563,9.565,-1.0454,0.5754,9.7338,-0.0089,-0.0041,0.0075
35804,45.992622,-0.544553,116.12,36.16,7.504,186.0,13 / 15,3580345,2019-08-18 23:19:29:878,-0.6334,0.8077,9.7248,-1.0094,0.571,9.7378,-0.0121,-0.0073,0.0075
35805,45.992622,-0.544553,116.12,36.16,7.504,186.0,13 / 15,3580447,2019-08-18 23:19:29:980,-1.026,0.5581,9.6458,-0.9587,0.5869,9.742,0.0007,0.0002,0.0096
35806,45.992622,-0.544553,116.12,36.16,7.504,186.0,13 / 15,3580545,2019-08-18 23:19:30:078,-0.7148,0.5689,9.3668,-0.9464,0.5864,9.7432,-0.0025,-0.0009,0.0075
35807,45.992622,-0.544553,116.12,36.16,7.504,186.0,13 / 15,3580645,2019-08-18 23:19:30:178,-0.8519,0.7879,9.2938,-0.9275,0.5749,9.7458,-0.0057,0.0055,0.0022
35808,45.992622,-0.544553,116.12,36.16,7.504,186.0,13 / 15,3580746,2019-08-18 23:19:30:279,-0.5711,0.4593,9.6398,-0.9158,0.5636,9.7475,-0.0121,0.0045,0.0
35809,45.992622,-0.544553,116.12,36.16,7.504,186.0,13 / 15,3580846,2019-08-18 23:19:30:379,-0.4843,0.5288,10.1976,-0.879,0.5413,9.7522,-0.0089,-0.0137,-0.0032
35810,45.992622,-0.544553,116.12,36.16,7.504,186.0,13 / 15,3580945,2019-08-18 23:19:30:478,-0.44,0.2504,9.6649,-0.8579,0.5298,9.7547,-0.0036,-0.003,-0.0021
35811,45.992622,-0.544553,116.12,36.16,7.504,186.0,13 / 15,3581049,2019-08-18 23:19:30:582,0.0286,0.1325,10.3766,-0.7732,0.4821,9.7642,-0.0164,-0.0094,-0.0042
35812,45.992622,-0.544553,116.12,36.16,7.504,186.0,13 / 15,3581146,2019-08-18 23:19:30:679,-0.3275,0.1367,9.626,-0.65,0.457,9.7744,-0.0014,-0.003,-0.0042
35813,45.992622,-0.544553,116.12,36.16,7.504,186.0,13 / 15,3581246,2019-08-18 23:19:30:779,-0.0941,0.12,9.5997,-0.6307,0.4593,9.7756,0.0167,0.0055,0.0
35814,45.992622,-0.544553,116.12,36.16,7.504,186.0,13 / 15,3581345,2019-08-18 23:19:30:878,-0.2132,0.4127,9.4758,-0.6215,0.4566,9.7763,0.006,0.0076,-0.0011
35815,45.992622,-0.544553,116.12,36.16,7.504,186.0,13 / 15,3581445,2019-08-18 23:19:30:978,-0.2521,0.0505,9.3764,-0.6012,0.4577,9.7775,0.0113,-0.0051,-0.0032
35816,45.992622,-0.544553,116.12,36.16,7.504,186.0,13 / 15,3581545,2019-08-18 23:19:31:078,-0.1863,0.2062,9.784,-0.5861,0.4608,9.7783,0.0135,-0.0019,-0.0042
35817,45.992622,-0.544553,116.12,36.16,7.504,186.0,13 / 15,3581645,2019-08-18 23:19:31:178,-0.1468,0.1876,9.5356,-0.4756,0.4021,9.7869,-0.0089,0.0013,-0.0032
35818,45.992622,-0.544553,116.12,36.16,7.504,186.0,13 / 15,3581745,2019-08-18 23:19:31:278,-0.0558,0.3492,10.2551,-0.415,0.3791,9.7905,-0.011,-0.0073,-0.0042
35819,45.992622,-0.544553,116.12,36.16,7.504,186.0,13 / 15,3581846,2019-08-18 23:19:31:379,-0.0977,0.4043,9.4363,-0.3387,0.3495,9.7946,0.0018,0.0055,-0.0042
35820,45.992622,-0.544553,116.12,36.16,7.504,186.0,13 / 15,3581945,2019-08-18 23:19:31:478,-0.0396,0.0865,10.4083,-0.3015,0.3199,9.7968,0.0071,-0.0041,-0.0032
35821,45.992622,-0.544553,116.12,36.16,7.504,186.0,13 / 15,3582046,2019-08-18 23:19:31:579,-0.1707,0.1708,9.3944,-0.2658,0.2964,9.7986,0.0018,0.0013,-0.0021
35822,45.992622,-0.544553,116.12,36.16,7.504,186.0,13 / 15,3582145,2019-08-18 23:19:31:678,-0.0953,0.2151,9.2854,-0.2557,0.2927,9.7989,0.006,-0.0051,-0.0021
35823,45.992622,-0.544553,116.12,36.16,7.504,186.0,13 / 15,3582246,2019-08-18 23:19:31:779,-0.6873,0.1768,9.717,-0.2171,0.2735,9.8004,-0.0025,-0.0009,-0.0032
35824,45.992622,-0.544553,116.12,36.16,7.504,186.0,13 / 15,3582345,2019-08-18 23:19:31:878,-0.3718,0.3785,9.4189,-0.2256,0.2744,9.8002,0.0007,0.0055,-0.0021
35825,45.992622,-0.544553,116.12,36.16,7.504,186.0,13 / 15,3582445,2019-08-18 23:19:31:978,-0.3934,0.3336,9.5296,-0.2396,0.2881,9.7995,0.0156,0.0098,0.0043
35826,45.992622,-0.544553,116.12,36.16,7.504,186.0,13 / 15,3582545,2019-08-18 23:19:32:078,-0.0857,0.4216,9.4189,-0.2604,0.3312,9.7976,0.0007,0.0087,0.0075
35827,45.992622,-0.544553,116.12,36.16,7.504,186.0,13 / 15,3582646,2019-08-18 23:19:32:179,-0.1767,0.5653,9.9193,-0.2738,0.3697,9.7959,0.0018,-0.0009,0.0085
35828,45.992622,-0.544553,116.12,36.16,7.504,186.0,13 / 15,3582746,2019-08-18 23:19:32:279,-0.1701,0.679,10.1599,-0.2803,0.3979,9.7946,0.0145,-0.0041,0.0096
35829,45.992622,-0.544553,116.12,36.16,7.504,186.0,13 / 15,3582846,2019-08-18 23:19:32:379,-0.3976,0.7772,9.7068,-0.276,0.4126,9.7941,0.0049,-0.0083,0.0096
35830,45.992622,-0.544553,116.12,36.16,7.504,186.0,13 / 15,3582946,2019-08-18 23:19:32:479,-0.5346,0.7377,9.307,-0.2911,0.4223,9.7932,-0.0078,0.0087,0.0096
35831,45.992622,-0.544553,116.12,36.16,7.504,186.0,13 / 15,3583046,2019-08-18 23:19:32:579,-0.6549,0.7209,9.7523,-0.2998,0.4298,9.7926,-0.0014,0.0034,0.0085
35832,45.992622,-0.544553,116.12,36.16,7.504,186.0,13 / 15,3583146,2019-08-18 23:19:32:679,-0.8495,0.91,9.4614,-0.3241,0.4711,9.79,0.0049,0.0034,0.0096
35833,45.992622,-0.544553,116.12,36.16,7.504,186.0,13 / 15,3583245,2019-08-18 23:19:32:778,-0.5083,0.7317,10.1737,-0.3655,0.5101,9.7865,-0.0174,-0.0062,0.0085
35834,45.992622,-0.544553,116.12,36.16,7.504,186.0,13 / 15,3583346,2019-08-18 23:19:32:879,0.3183,0.9968,10.3832,-0.3716,0.4831,9.7877,-0.0451,0.0066,0.0075
35835,45.992622,-0.544553,116.12,36.16,7.504,186.0,13 / 15,3583446,2019-08-18 23:19:32:979,-0.0372,0.5419,10.2994,-0.374,0.4775,9.7879,-0.0142,-0.0062,0.0096
35836,45.992622,-0.544553,116.12,36.16,7.504,186.0,13 / 15,3583545,2019-08-18 23:19:33:078,-0.2695,0.6353,9.8858,-0.381,0.4739,9.7878,-0.0089,0.0087,0.0117
35837,45.992622,-0.544553,116.12,36.16,7.504,186.0,13 / 15,3583645,2019-08-18 23:19:33:178,-0.5077,0.7197,9.3758,-0.3958,0.4815,9.7868,0.0018,0.0151,0.0117
35838,45.992622,-0.544553,116.12,36.16,7.504,186.0,13 / 15,3583745,2019-08-18 23:19:33:278,-0.6926,0.6892,9.9181,-0.406,0.5022,9.7854,0.0305,0.0076,0.0128
35839,45.992622,-0.544553,116.12,36.16,7.504,186.0,13 / 15,3583846,2019-08-18 23:19:33:379,-0.9321,0.9053,9.8559,-0.4118,0.5441,9.7829,0.0231,-0.0062,0.0117
35840,45.992622,-0.544553,116.12,36.16,7.504,186.0,13 / 15,3583945,2019-08-18 23:19:33:478,-0.8453,0.7185,9.8654,-0.4143,0.5684,9.7814,0.0113,-0.003,0.0096
35841,45.992622,-0.544553,116.12,36.16,7.504,186.0,13 / 15,3584046,2019-08-18 23:19:33:579,-0.7471,0.667,9.8511,-0.4245,0.5752,9.7806,-0.0025,0.0055,0.0096
35842,45.992622,-0.544553,116.12,36.16,7.504,186.0,13 / 15,3584146,2019-08-18 23:19:33:679,-0.5011,0.6916,9.5817,-0.4342,0.586,9.7795,0.0049,-0.0041,0.0096
35843,45.992622,-0.544553,116.12,36.16,7.504,186.0,13 / 15,3584246,2019-08-18 23:19:33:779,-0.1492,0.4079,9.7278,-0.4718,0.6097,9.7763,-0.0068,-0.0041,0.0096
35844,45.992622,-0.544553,116.12,36.16,7.504,186.0,13 / 15,3584345,2019-08-18 23:19:33:878,-0.2755,0.6527,9.7116,-0.4987,0.6247,9.774,0.0018,0.0045,0.0096
35845,45.992622,-0.544553,116.12,36.16,7.504,186.0,13 / 15,3584445,2019-08-18 23:19:33:978,-0.6801,0.7275,9.5925,-0.5229,0.6464,9.7713,-0.0078,-0.0083,0.0107
35846,45.992622,-0.544553,116.12,36.16,7.504,186.0,13 / 15,3584546,2019-08-18 23:19:34:079,-0.9518,0.8059,9.2633,-0.5422,0.6429,9.7705,-0.0078,0.0119,0.0085
35847,45.992622,-0.544553,116.12,36.16,7.504,186.0,13 / 15,3584645,2019-08-18 23:19:34:178,-0.9871,0.6862,9.3668,-0.5527,0.6491,9.7695,0.0092,0.0087,0.0085
35848,45.992622,-0.544553,116.12,36.16,7.504,186.0,13 / 15,3584745,2019-08-18 23:19:34:278,-0.9362,0.6593,9.2687,-0.5762,0.6543,9.7678,-0.0046,-0.0019,0.0075
35849,45.992622,-0.544553,116.12,36.16,7.504,186.0,13 / 15,3584845,2019-08-18 23:19:34:378,-0.8022,0.6838,9.4842,-0.5684,0.6406,9.7692,-0.0121,-0.0126,0.0011
35850,45.992622,-0.544553,116.12,36.16,7.504,186.0,13 / 15,3584945,2019-08-18 23:19:34:478,-0.4341,0.123,9.7529,-0.5706,0.6183,9.7705,-0.011,0.0087,-0.0053
35851,45.992622,-0.544553,116.12,36.16,7.504,186.0,13 / 15,3585046,2019-08-18 23:19:34:579,-0.3257,0.3331,9.4913,-0.5731,0.5992,9.7715,-0.0121,0.0013,-0.0064
35852,45.992622,-0.544553,116.12,36.16,7.504,186.0,13 / 15,3585145,2019-08-18 23:19:34:678,-0.9674,0.6946,9.5302,-0.5718,0.5641,9.7737,-0.0164,0.0023,-0.0042
35853,45.992622,-0.544553,116.12,36.16,7.504,186.0,13 / 15,3585246,2019-08-18 23:19:34:779,0.0699,0.4133,9.5656,-0.5788,0.5532,9.7739,0.0092,0.0194,-0.0053
35854,45.992622,-0.544553,116.12,36.16,7.504,186.0,13 / 15,3585347,2019-08-18 23:19:34:880,-0.1198,0.0571,10.118,-0.5705,0.5562,9.7742,0.0209,-0.0201,-0.0042
35855,45.992622,-0.544553,116.12,36.16,7.504,186.0,13 / 15,3585445,2019-08-18 23:19:34:978,-0.1641,0.4037,10.6017,-0.5517,0.5395,9.7762,-0.011,-0.0211,-0.0064
35856,45.992622,-0.544553,116.12,36.16,7.504,186.0,13 / 15,3585545,2019-08-18 23:19:35:078,-0.4131,0.1116,10.6004,-0.5475,0.5073,9.7782,-0.011,0.0002,-0.0064
35857,45.992622,-0.544553,116.12,36.16,7.504,186.0,13 / 15,3585645,2019-08-18 23:19:35:178,-0.7369,0.108,10.1587,-0.5573,0.4934,9.7784,-0.0078,0.014,-0.0032
35858,45.992622,-0.544553,116.12,36.16,7.504,186.0,13 / 15,3585745,2019-08-18 23:19:35:278,-0.9003,0.3755,9.465,-0.5576,0.4845,9.7788,0.006,-0.0083,0.0
35859,45.992622,-0.544553,116.12,36.16,7.504,186.0,13 / 15,3585846,2019-08-18 23:19:35:379,-0.9207,0.2624,9.8403,-0.559,0.4783,9.779,0.0028,0.0045,-0.0032
35860,45.992622,-0.544553,116.12,36.16,7.504,186.0,13 / 15,3585946,2019-08-18 23:19:35:479,-0.6956,-0.2146,7.2426,-0.5613,0.4519,9.7801,-0.0142,0.0172,-0.0042
35861,45.992622,-0.544553,116.12,36.16,7.504,186.0,13 / 15,3586045,2019-08-18 23:19:35:578,-0.3634,0.4677,10.1575,-0.5807,0.4357,9.7797,-0.0046,0.0183,-0.0032
35862,45.992622,-0.544553,116.12,36.16,7.504,186.0,13 / 15,3586146,2019-08-18 23:19:35:679,-0.2844,0.2463,10.3012,-0.5757,0.4238,9.7806,-0.0014,-0.0158,-0.0011
35863,45.992622,-0.544553,116.12,36.16,7.504,186.0,13 / 15,3586246,2019-08-18 23:19:35:779,-0.0785,0.2666,10.2287,-0.5649,0.4161,9.7815,0.0007,-0.0105,-0.0011
35864,45.992622,-0.544553,116.12,36.16,7.504,186.0,13 / 15,3586345,2019-08-18 23:19:35:878,-0.2473,0.2935,9.7906,-0.5759,0.4157,9.7809,0.0124,0.0119,-0.0011
35865,45.989742,-0.544799,106.69,34.83,5.36,183.9,14 / 15,3586446,2019-08-18 23:19:35:979,-0.461,0.3013,9.7775,-0.5783,0.4132,9.7809,-0.0036,-0.0041,-0.0011
35866,45.989742,-0.544799,106.69,34.83,5.36,183.9,14 / 15,3586546,2019-08-18 23:19:36:079,-0.7782,0.3911,9.4267,-0.5943,0.3777,9.7813,-0.0057,0.0023,-0.0021
35867,45.989742,-0.544799,106.69,34.83,5.36,183.9,14 / 15,3586645,2019-08-18 23:19:36:178,-0.7902,0.2349,9.5512,-0.598,0.3657,9.7816,0.0039,-0.0051,0.0
35868,45.989742,-0.544799,106.69,34.83,5.36,183.9,14 / 15,3586746,2019-08-18 23:19:36:279,-1.0769,0.1421,10.9841,-0.6049,0.3544,9.7816,0.0007,-0.0083,0.0011
35869,45.989742,-0.544799,106.69,34.83,5.36,183.9,14 / 15,3586846,2019-08-18 23:19:36:379,-1.5623,0.1649,7.6873,-0.6231,0.3543,9.7804,-0.0057,0.0204,0.0011
35870,45.989742,-0.544799,106.69,34.83,5.36,183.9,14 / 15,3586945,2019-08-18 23:19:36:478,-0.2354,0.2989,10.2784,-0.6124,0.3551,9.7811,0.006,-0.0105,0.0043
35871,45.989742,-0.544799,106.69,34.83,5.36,183.9,14 / 15,3587046,2019-08-18 23:19:36:579,-0.7543,0.1912,10.1019,-0.5982,0.3712,9.7813,0.0156,-0.0232,0.0043
35872,45.989742,-0.544799,106.69,34.83,5.36,183.9,14 / 15,3587145,2019-08-18 23:19:36:678,-0.1797,0.1589,9.55,-0.5807,0.3768,9.7822,0.0028,-0.0105,0.0022
35873,45.989742,-0.544799,106.69,34.83,5.36,183.9,14 / 15,3587246,2019-08-18 23:19:36:779,-0.4035,0.3959,9.8708,-0.5812,0.38,9.782,-0.0046,0.0045,0.0022
35874,45.989742,-0.544799,106.69,34.83,5.36,183.9,14 / 15,3587346,2019-08-18 23:19:36:879,-0.5041,0.5539,9.6709,-0.5839,0.3919,9.7814,0.0071,0.0034,0.0022
35875,45.989742,-0.544799,106.69,34.83,5.36,183.9,14 / 15,3587446,2019-08-18 23:19:36:979,-0.6256,0.275,9.2776,-0.5888,0.3992,9.7808,0.0007,0.0055,0.0032
35876,45.989742,-0.544799,106.69,34.83,5.36,183.9,14 / 15,3587546,2019-08-18 23:19:37:079,-0.6723,0.5761,9.7625,-0.5819,0.3983,9.7813,-0.0025,-0.0094,0.0022
35877,45.989742,-0.544799,106.69,34.83,5.36,183.9,14 / 15,3587646,2019-08-18 23:19:37:179,-0.7298,0.2522,9.6924,-0.5664,0.4075,9.7818,-0.0014,0.0013,0.0
35878,45.989742,-0.544799,106.69,34.83,5.36,183.9,14 / 15,3587745,2019-08-18 23:19:37:278,-0.5675,0.5162,10.027,-0.5622,0.3993,9.7824,-0.011,-0.0041,-0.0011
35879,45.989742,-0.544799,106.69,34.83,5.36,183.9,14 / 15,3587845,2019-08-18 23:19:37:378,-0.4814,0.4563,10.1198,-0.5573,0.3944,9.7829,-0.0089,-0.0019,-0.0011
35880,45.989742,-0.544799,106.69,34.83,5.36,183.9,14 / 15,3587946,2019-08-18 23:19:37:479,-0.5562,0.515,9.9169,-0.5651,0.3905,9.7826,0.0018,0.0098,0.0
35881,45.989742,-0.544799,106.69,34.83,5.36,183.9,14 / 15,3588046,2019-08-18 23:19:37:579,-0.288,-0.0022,9.6984,-0.5763,0.3881,9.782,0.0018,0.0087,-0.0021
35882,45.989742,-0.544799,106.69,34.83,5.36,183.9,14 / 15,3588146,2019-08-18 23:19:37:679,-0.4269,0.1002,9.6625,-0.579,0.3845,9.782,0.0007,0.0002,-0.0032
35883,45.989742,-0.544799,106.69,34.83,5.36,183.9,14 / 15,3588245,2019-08-18 23:19:37:778,-0.7094,0.2546,10.036,-0.5809,0.3482,9.7832,-0.0078,-0.0083,-0.0064
35884,45.989742,-0.544799,106.69,34.83,5.36,183.9,14 / 15,3588345,2019-08-18 23:19:37:878,-0.6208,-0.0638,9.6661,-0.5822,0.3403,9.7834,0.0018,0.0045,-0.0053
35885,45.989742,-0.544799,106.69,34.83,5.36,183.9,14 / 15,3588445,2019-08-18 23:19:37:978,-0.7998,0.1361,9.8187,-0.5851,0.338,9.7833,0.006,-0.0009,-0.0042
35886,45.989742,-0.544799,106.69,34.83,5.36,183.9,14 / 15,3588546,2019-08-18 23:19:38:079,-0.7489,0.3977,9.7074,-0.5857,0.3266,9.7837,0.0049,-0.0051,-0.0021
35887,45.989742,-0.544799,106.69,34.83,5.36,183.9,14 / 15,3588646,2019-08-18 23:19:38:179,-0.6843,0.1631,9.8684,-0.5805,0.2928,9.7851,0.0071,-0.0083,-0.0011
35888,45.989742,-0.544799,106.69,34.83,5.36,183.9,14 / 15,3588746,2019-08-18 23:19:38:279,-0.4347,0.2792,9.6595,-0.5718,0.2799,9.786,-0.0025,0.0013,-0.0011
35889,45.989742,-0.544799,106.69,34.83,5.36,183.9,14 / 15,3588846,2019-08-18 23:19:38:379,-0.4478,0.3797,9.6799,-0.5793,0.2785,9.7856,-0.0025,0.0076,-0.0011
35890,45.989742,-0.544799,106.69,34.83,5.36,183.9,14 / 15,3588946,2019-08-18 23:19:38:479,-0.1079,0.2343,9.6254,-0.5792,0.2802,9.7855,-0.0025,0.0002,-0.0011
35891,45.989742,-0.544799,106.69,34.83,5.36,183.9,14 / 15,3589045,2019-08-18 23:19:38:578,-0.1731,0.3109,9.6601,-0.5587,0.2845,9.7866,-0.0046,0.0002,-0.0032
35892,45.989742,-0.544799,106.69,34.83,5.36,183.9,14 / 15,3589146,2019-08-18 23:19:38:679,-0.2689,0.2133,9.9307,-0.5489,0.2821,9.7872,-0.0025,-0.0094,0.0
35893,45.989742,-0.544799,106.69,34.83,5.36,183.9,14 / 15,3589246,2019-08-18 23:19:38:779,-0.4622,0.4007,9.6284,-0.5448,0.2875,9.7873,0.0018,0.0023,-0.0011
35894,45.989742,-0.544799,106.69,34.83,5.36,183.9,14 / 15,3589346,2019-08-18 23:19:38:879,-0.4592,0.293,9.4692,-0.5235,0.2917,9.7883,0.0081,0.0013,-0.0011
35895,45.989742,-0.544799,106.69,34.83,5.36,183.9,14 / 15,3589445,2019-08-18 23:19:38:978,-0.5526,0.1876,9.7236,-0.4905,0.2947,9.7899,-0.0046,0.0013,-0.0021
35896,45.989742,-0.544799,106.69,34.83,5.36,183.9,14 / 15,3589546,2019-08-18 23:19:39:079,-0.5885,0.5635,9.808,-0.4705,0.3107,9.7904,-0.0089,-0.003,-0.0032
35897,45.989742,-0.544799,106.69,34.83,5.36,183.9,14 / 15,3589645,2019-08-18 23:19:39:178,-0.3539,0.3301,9.8158,-0.4339,0.3125,9.7921,0.0039,-0.003,-0.0042
35898,45.989742,-0.544799,106.69,34.83,5.36,183.9,14 / 15,3589745,2019-08-18 23:19:39:278,-0.4209,0.2103,9.6673,-0.4251,0.3017,9.7928,-0.0004,0.0045,-0.0042
35899,45.989742,-0.544799,106.69,34.83,5.36,183.9,14 / 15,3589845,2019-08-18 23:19:39:378,-0.1025,0.3031,9.9109,-0.4195,0.2945,9.7932,-0.0089,-0.0009,-0.0021
35900,45.989742,-0.544799,106.69,34.83,5.36,183.9,14 / 15,3589945,2019-08-18 23:19:39:478,-0.1946,0.2068,9.702,-0.4199,0.2897,9.7934,-0.0046,0.0119,-0.0021
35901,45.989742,-0.544799,106.69,34.83,5.36,183.9,14 / 15,3590045,2019-08-18 23:19:39:578,-0.2713,0.2678,9.7745,-0.4222,0.2838,9.7934,0.0113,-0.0041,0.0011
35902,45.989742,-0.544799,106.69,34.83,5.36,183.9,14 / 15,3590146,2019-08-18 23:19:39:679,-0.4035,0.3259,9.3776,-0.418,0.2876,9.7935,-0.0057,-0.0009,-0.0011
35903,45.989742,-0.544799,106.69,34.83,5.36,183.9,14 / 15,3590246,2019-08-18 23:19:39:779,-0.4538,0.4348,9.8259,-0.4212,0.2924,9.7932,0.0007,-0.0094,-0.0021
35904,45.989742,-0.544799,106.69,34.83,5.36,183.9,14 / 15,3590346,2019-08-18 23:19:39:879,-0.5843,0.3749,10.0246,-0.4246,0.2837,9.7933,-0.0164,-0.003,-0.0032
35905,45.989742,-0.544799,106.69,34.83,5.36,183.9,14 / 15,3590445,2019-08-18 23:19:39:978,-0.8788,0.3025,9.5171,-0.4352,0.2746,9.7931,-0.0057,0.0023,-0.0042
35906,45.989742,-0.544799,106.69,34.83,5.36,183.9,14 / 15,3590545,2019-08-18 23:19:40:078,-0.6675,0.2169,10.0468,-0.4326,0.2781,9.7932,0.0039,-0.0041,-0.0021
35907,45.989742,-0.544799,106.69,34.83,5.36,183.9,14 / 15,3590645,2019-08-18 23:19:40:178,-0.4927,0.1595,9.1909,-0.4409,0.2798,9.7927,0.0039,0.014,-0.0021
35908,45.989742,-0.544799,106.69,34.83,5.36,183.9,14 / 15,3590746,2019-08-18 23:19:40:279,-0.1055,0.4049,9.8205,-0.4354,0.2824,9.7929,-0.0036,-0.0062,-0.0021
35909,45.989742,-0.544799,106.69,34.83,5.36,183.9,14 / 15,3590845,2019-08-18 23:19:40:378,-0.0193,0.1272,10.1617,-0.4144,0.2738,9.7941,0.0007,-0.003,-0.0032
35910,45.989742,-0.544799,106.69,34.83,5.36,183.9,14 / 15,3590946,2019-08-18 23:19:40:479,0.0795,0.1272,10.1324,-0.3964,0.2803,9.7946,0.0071,-0.0105,-0.0021
35911,45.989742,-0.544799,106.69,34.83,5.36,183.9,14 / 15,3591045,2019-08-18 23:19:40:578,-0.0869,0.2193,9.4393,-0.389,0.2771,9.795,-0.0142,0.0119,-0.0021
35912,45.989742,-0.544799,106.69,34.83,5.36,183.9,14 / 15,3591146,2019-08-18 23:19:40:679,-0.4203,0.281,9.7469,-0.3918,0.2765,9.7949,0.0018,-0.0051,-0.0021
35913,45.989742,-0.544799,106.69,34.83,5.36,183.9,14 / 15,3591245,2019-08-18 23:19:40:778,-0.61,0.5222,9.8768,-0.3848,0.2777,9.7952,0.0018,-0.0083,-0.0011
35914,45.989742,-0.544799,106.69,34.83,5.36,183.9,14 / 15,3591345,2019-08-18 23:19:40:878,-0.6944,0.3821,9.8517,-0.3837,0.2829,9.7951,0.0039,0.0002,0.0011
35915,45.989742,-0.544799,106.69,34.83,5.36,183.9,14 / 15,3591446,2019-08-18 23:19:40:979,-0.5981,0.3827,9.6889,-0.3834,0.2844,9.795,0.0018,0.0045,0.0
35916,45.989742,-0.544799,106.69,34.83,5.36,183.9,14 / 15,3591545,2019-08-18 23:19:41:078,-0.6597,0.6317,9.4159,-0.3926,0.3009,9.7942,-0.0153,0.0023,-0.0011
35917,45.989742,-0.544799,106.69,34.83,5.36,183.9,14 / 15,3591646,2019-08-18 23:19:41:179,-0.2341,0.3498,10.4149,-0.3802,0.3011,9.7947,-0.0036,-0.0137,-0.0032
35918,45.989742,-0.544799,106.69,34.83,5.36,183.9,14 / 15,3591746,2019-08-18 23:19:41:279,-0.0887,0.1259,9.6559,-0.3891,0.3064,9.7941,0.006,0.0183,-0.0021
35919,45.989742,-0.544799,106.69,34.83,5.36,183.9,14 / 15,3591846,2019-08-18 23:19:41:379,-0.215,0.1481,9.4907,-0.3998,0.3135,9.7935,0.0124,0.0119,-0.0011
35920,45.989742,-0.544799,106.69,34.83,5.36,183.9,14 / 15,3591946,2019-08-18 23:19:41:479,-0.2042,0.0463,9.6254,-0.3996,0.3187,9.7933,0.0018,0.0045,-0.0021
35921,45.989742,-0.544799,106.69,34.83,5.36,183.9,14 / 15,3592045,2019-08-18 23:19:41:578,-0.5011,0.3372,10.0013,-0.4012,0.3187,9.7933,0.0039,-0.0019,-0.0021
35922,45.989742,-0.544799,106.69,34.83,5.36,183.9,14 / 15,3592146,2019-08-18 23:19:41:679,-0.4454,0.0739,9.5715,-0.3969,0.3148,9.7936,-0.0046,-0.0051,-0.0032
35923,45.989742,-0.544799,106.69,34.83,5.36,183.9,14 / 15,3592246,2019-08-18 23:19:41:779,-0.9763,0.5222,10.0438,-0.3997,0.3032,9.7938,-0.0046,-0.003,-0.0032
35924,45.989742,-0.544799,106.69,34.83,5.36,183.9,14 / 15,3592345,2019-08-18 23:19:41:878,-0.7531,0.2917,9.526,-0.3997,0.2987,9.7939,0.0071,-0.0019,0.0
35925,45.989742,-0.544799,106.69,34.83,5.36,183.9,14 / 15,3592446,2019-08-18 23:19:41:979,-0.449,0.5018,10.0175,-0.3991,0.2969,9.794,-0.0004,-0.0019,-0.0021
35926,45.989742,-0.544799,106.69,34.83,5.36,183.9,14 / 15,3592545,2019-08-18 23:19:42:078,-0.3185,0.2528,10.2048,-0.3962,0.2969,9.7941,-0.0014,-0.0062,-0.0011
35927,45.989742,-0.544799,106.69,34.83,5.36,183.9,14 / 15,3592646,2019-08-18 23:19:42:179,-0.2802,0.3241,9.6075,-0.4011,0.2974,9.7939,-0.0036,0.0076,-0.0011
35928,45.989742,-0.544799,106.69,34.83,5.36,183.9,14 / 15,3592745,2019-08-18 23:19:42:278,-0.1587,0.126,9.617,-0.3987,0.3003,9.7939,-0.0004,-0.0073,-0.0032
35929,45.989742,-0.544799,106.69,34.83,5.36,183.9,14 / 15,3592845,2019-08-18 23:19:42:378,-0.2042,0.448,9.6907,-0.4088,0.2997,9.7935,-0.0142,0.0045,-0.0032
35930,45.989742,-0.544799,106.69,34.83,5.36,183.9,14 / 15,3592945,2019-08-18 23:19:42:478,-0.4826,0.1451,9.2842,-0.4239,0.2921,9.7931,-0.0057,0.0002,-0.0021
35931,45.989742,-0.544799,106.69,34.83,5.36,183.9,14 / 15,3593046,2019-08-18 23:19:42:579,-0.5568,0.1068,9.4081,-0.426,0.2865,9.7932,-0.0046,0.0023,-0.0011
35932,45.989742,-0.544799,106.69,34.83,5.36,183.9,14 / 15,3593146,2019-08-18 23:19:42:679,-0.801,0.3869,9.7188,-0.4387,0.3113,9.7919,0.006,0.0108,-0.0011
35933,45.989742,-0.544799,106.69,34.83,5.36,183.9,14 / 15,3593246,2019-08-18 23:19:42:779,-0.6448,0.4384,9.6972,-0.4362,0.3184,9.7918,0.0113,-0.0062,-0.0011
35934,45.989742,-0.544799,106.69,34.83,5.36,183.9,14 / 15,3593346,2019-08-18 23:19:42:879,-0.5251,0.3654,10.0791,-0.4336,0.3216,9.7918,0.0028,-0.0009,-0.0011
35935,45.989742,-0.544799,106.69,34.83,5.36,183.9,14 / 15,3593445,2019-08-18 23:19:42:978,-0.2485,0.2487,9.9259,-0.4173,0.3224,9.7925,0.0039,-0.0094,-0.0011
35936,45.989742,-0.544799,106.69,34.83,5.36,183.9,14 / 15,3593545,2019-08-18 23:19:43:078,-0.0672,0.1595,9.6338,-0.3991,0.328,9.793,0.0103,0.0076,-0.0021
35937,45.989742,-0.544799,106.69,34.83,5.36,183.9,14 / 15,3593646,2019-08-18 23:19:43:179,-0.2258,0.3492,9.5326,-0.3991,0.3301,9.793,0.0018,0.0002,-0.0042
35938,45.989742,-0.544799,106.69,34.83,5.36,183.9,14 / 15,3593745,2019-08-18 23:19:43:278,-0.203,0.3624,9.3854,-0.3959,0.3251,9.7933,-0.0068,0.0002,-0.0032
35939,45.989742,-0.544799,106.69,34.83,5.36,183.9,14 / 15,3593846,2019-08-18 23:19:43:379,-0.3407,0.3779,10.4323,-0.382,0.3138,9.7942,0.006,-0.0126,-0.0032
35940,45.989742,-0.544799,106.69,34.83,5.36,183.9,14 / 15,3593945,2019-08-18 23:19:43:478,-0.476,0.1978,9.7924,-0.3781,0.3132,9.7944,-0.0036,0.0055,-0.0021
35941,45.989742,-0.544799,106.69,34.83,5.36,183.9,14 / 15,3594045,2019-08-18 23:19:43:578,-0.6029,0.3953,9.6715,-0.3844,0.3137,9.7941,0.0018,0.0119,-0.0011
35942,45.989742,-0.544799,106.69,34.83,5.36,183.9,14 / 15,3594146,2019-08-18 23:19:43:679,-0.44,0.4988,9.9654,-0.386,0.3223,9.7938,0.0071,-0.0009,0.0
35943,45.989742,-0.544799,106.69,34.83,5.36,183.9,14 / 15,3594245,2019-08-18 23:19:43:778,-0.3539,0.4318,9.7403,-0.3799,0.3244,9.7939,0.0018,-0.0062,0.0
35944,45.989742,-0.544799,106.69,34.83,5.36,183.9,14 / 15,3594348,2019-08-18 23:19:43:881,-0.1635,0.2924,10.1857,-0.3497,0.3386,9.7946,-0.0004,0.0002,0.0011
35945,45.989742,-0.544799,106.69,34.83,5.36,183.9,14 / 15,3594445,2019-08-18 23:19:43:978,-0.0929,0.2445,9.4171,-0.3455,0.3494,9.7943,-0.0014,0.013,0.0
35946,45.989742,-0.544799,106.69,34.83,5.36,183.9,14 / 15,3594546,2019-08-18 23:19:44:079,-0.3419,0.3708,9.7601,-0.3468,0.3531,9.7942,0.0007,-0.0073,-0.0011
35947,45.989742,-0.544799,106.69,34.83,5.36,183.9,14 / 15,3594645,2019-08-18 23:19:44:178,-0.5628,0.5862,9.6368,-0.3445,0.3488,9.7944,-0.0089,0.0002,0.0
35948,45.989742,-0.544799,106.69,34.83,5.36,183.9,14 / 15,3594745,2019-08-18 23:19:44:278,-0.3694,0.4803,9.6613,-0.3418,0.3412,9.7948,-0.0078,-0.0083,-0.0011
35949,45.989742,-0.544799,106.69,34.83,5.36,183.9,14 / 15,3594846,2019-08-18 23:19:44:379,-0.4694,0.5503,9.8223,-0.3324,0.3479,9.7948,0.0039,-0.0019,-0.0011
35950,45.989742,-0.544799,106.69,34.83,5.36,183.9,14 / 15,3594946,2019-08-18 23:19:44:479,-0.3616,0.5916,9.5506,-0.3229,0.3481,9.7952,-0.0036,0.0013,0.0
35951,45.989742,-0.544799,106.69,34.83,5.36,183.9,14 / 15,3595045,2019-08-18 23:19:44:578,-0.0983,0.3666,10.1084,-0.32,0.351,9.7951,-0.0025,0.0119,0.0
35952,45.989742,-0.544799,106.69,34.83,5.36,183.9,14 / 15,3595146,2019-08-18 23:19:44:679,-0.1174,0.005,9.532,-0.3285,0.3466,9.795,-0.0057,0.0098,-0.0011
35953,45.989742,-0.544799,106.69,34.83,5.36,183.9,14 / 15,3595245,2019-08-18 23:19:44:778,0.0005,0.451,9.7212,-0.322,0.348,9.7952,0.0007,-0.0105,0.0
35954,45.989742,-0.544799,106.69,34.83,5.36,183.9,14 / 15,3595345,2019-08-18 23:19:44:878,-0.3431,0.2594,9.4961,-0.3123,0.3482,9.7955,0.0018,-0.003,0.0011
35955,45.986897,-0.545117,97.12,35.1,6.432,184.6,13 / 15,3595446,2019-08-18 23:19:44:979,-0.4227,0.2744,10.0869,-0.3058,0.3548,9.7955,0.0028,-0.0083,0.0022
35956,45.986897,-0.545117,97.12,35.1,6.432,184.6,13 / 15,3595545,2019-08-18 23:19:45:078,-0.4287,0.4917,9.9199,-0.3071,0.3581,9.7953,0.0039,0.0076,0.0022
35957,45.986897,-0.545117,97.12,35.1,6.432,184.6,13 / 15,3595646,2019-08-18 23:19:45:179,-0.4017,0.7544,10.1946,-0.3117,0.3623,9.795,-0.0025,-0.003,0.0022
35958,45.986897,-0.545117,97.12,35.1,6.432,184.6,13 / 15,3595746,2019-08-18 23:19:45:279,-0.2222,0.342,9.4099,-0.3138,0.3577,9.7951,-0.0057,0.0076,0.0022
35959,45.986897,-0.545117,97.12,35.1,6.432,184.6,13 / 15,3595846,2019-08-18 23:19:45:379,-0.0923,0.2552,9.8541,-0.3213,0.36,9.7948,0.0028,0.0098,0.0022
35960,45.986897,-0.545117,97.12,35.1,6.432,184.6,13 / 15,3595946,2019-08-18 23:19:45:479,-0.0989,0.3331,9.7098,-0.3156,0.3717,9.7945,0.0071,-0.0051,0.0032
35961,45.986897,-0.545117,97.12,35.1,6.432,184.6,13 / 15,3596046,2019-08-18 23:19:45:579,-0.4592,0.5294,9.8984,-0.3153,0.3838,9.7941,0.0103,-0.003,0.0022
35962,45.986897,-0.545117,97.12,35.1,6.432,184.6,13 / 15,3596145,2019-08-18 23:19:45:678,-0.698,0.512,9.6027,-0.313,0.3911,9.7938,0.0028,-0.0083,0.0022
35963,45.986897,-0.545117,97.12,35.1,6.432,184.6,13 / 15,3596245,2019-08-18 23:19:45:778,-0.4556,0.5144,9.5751,-0.324,0.3992,9.7932,0.0039,0.0076,-0.0021
35964,45.986897,-0.545117,97.12,35.1,6.432,184.6,13 / 15,3596345,2019-08-18 23:19:45:878,-0.5741,0.7113,9.6775,-0.3571,0.4108,9.7915,-0.0068,-0.0062,0.0
35965,45.986897,-0.545117,97.12,35.1,6.432,184.6,13 / 15,3596445,2019-08-18 23:19:45:978,-0.3437,0.4773,10.1174,-0.3659,0.4034,9.7915,-0.0121,0.0034,-0.0011
35966,45.986897,-0.545117,97.12,35.1,6.432,184.6,13 / 15,3596546,2019-08-18 23:19:46:079,-0.3383,-0.053,10.464,-0.3682,0.3928,9.7919,0.0007,-0.0105,0.0022
35967,45.986897,-0.545117,97.12,35.1,6.432,184.6,13 / 15,3596646,2019-08-18 23:19:46:179,-0.4436,0.2864,9.1232,-0.3757,0.3895,9.7917,-0.0046,0.013,0.0011
35968,45.986897,-0.545117,97.12,35.1,6.432,184.6,13 / 15,3596745,2019-08-18 23:19:46:278,-0.4317,0.4546,9.2831,-0.3856,0.391,9.7913,0.0007,0.0066,0.0
35969,45.986897,-0.545117,97.12,35.1,6.432,184.6,13 / 15,3596846,2019-08-18 23:19:46:379,-0.5951,0.6832,9.1974,-0.4068,0.4074,9.7897,-0.0004,0.0045,0.0
35970,45.986897,-0.545117,97.12,35.1,6.432,184.6,13 / 15,3596945,2019-08-18 23:19:46:478,-0.7321,0.4671,9.7816,-0.4229,0.3851,9.79,-0.0068,0.0013,-0.0011
35971,45.986897,-0.545117,97.12,35.1,6.432,184.6,13 / 15,3597046,2019-08-18 23:19:46:579,-0.7531,0.4629,10.0713,-0.4273,0.3818,9.7899,-0.0004,-0.003,-0.0042
35972,45.986897,-0.545117,97.12,35.1,6.432,184.6,13 / 15,3597146,2019-08-18 23:19:46:679,-0.2856,0.1295,10.0755,-0.4246,0.3759,9.7902,-0.0025,0.0002,-0.0064
35973,45.986897,-0.545117,97.12,35.1,6.432,184.6,13 / 15,3597245,2019-08-18 23:19:46:778,0.1136,-0.2865,9.8918,-0.4185,0.3625,9.791,-0.0025,-0.0009,-0.0074
35974,45.986897,-0.545117,97.12,35.1,6.432,184.6,13 / 15,3597345,2019-08-18 23:19:46:878,0.0933,0.1547,9.565,-0.4198,0.3504,9.7914,-0.0089,0.0076,-0.0064
35975,45.986897,-0.545117,97.12,35.1,6.432,184.6,13 / 15,3597446,2019-08-18 23:19:46:979,-0.3371,0.2187,10.1629,-0.4147,0.3359,9.7921,-0.0068,-0.0094,-0.0074
35976,45.986897,-0.545117,97.12,35.1,6.432,184.6,13 / 15,3597545,2019-08-18 23:19:47:078,-0.4586,0.1074,9.7272,-0.4127,0.3234,9.7926,-0.0057,0.0045,-0.0053
35977,45.986897,-0.545117,97.12,35.1,6.432,184.6,13 / 15,3597645,2019-08-18 23:19:47:178,-0.795,0.1828,9.7882,-0.3994,0.2981,9.794,0.0007,-0.0105,-0.0053
35978,45.986897,-0.545117,97.12,35.1,6.432,184.6,13 / 15,3597745,2019-08-18 23:19:47:278,-0.4975,0.369,9.3836,-0.3979,0.2913,9.7942,-0.0057,0.0076,-0.0042
35979,45.986897,-0.545117,97.12,35.1,6.432,184.6,13 / 15,3597846,2019-08-18 23:19:47:379,-0.3485,0.0463,10.063,-0.4035,0.2823,9.7943,0.0028,0.0045,-0.0032
35980,45.986897,-0.545117,97.12,35.1,6.432,184.6,13 / 15,3597945,2019-08-18 23:19:47:478,-0.0839,0.0745,9.9343,-0.3979,0.2792,9.7946,-0.0004,-0.003,-0.0011
35981,45.986897,-0.545117,97.12,35.1,6.432,184.6,13 / 15,3598045,2019-08-18 23:19:47:578,0.113,0.1738,9.8553,-0.358,0.2753,9.7962,0.0018,-0.003,-0.0021
35982,45.986897,-0.545117,97.12,35.1,6.432,184.6,13 / 15,3598145,2019-08-18 23:19:47:678,-0.1348,0.3229,9.3411,-0.3461,0.2669,9.7969,-0.0046,-0.0019,-0.0032
35983,45.986897,-0.545117,97.12,35.1,6.432,184.6,13 / 15,3598245,2019-08-18 23:19:47:778,-0.2126,0.3055,9.5572,-0.3336,0.2786,9.797,-0.0004,0.0098,-0.0064
35984,45.986897,-0.545117,97.12,35.1,6.432,184.6,13 / 15,3598346,2019-08-18 23:19:47:879,-0.7202,0.4839,9.8523,-0.3353,0.2723,9.7971,0.0071,-0.0041,-0.0032
35985,45.986897,-0.545117,97.12,35.1,6.432,184.6,13 / 15,3598446,2019-08-18 23:19:47:979,-0.5586,0.1068,9.8403,-0.3326,0.2601,9.7976,0.0103,0.0034,-0.0011
35986,45.986897,-0.545117,97.12,35.1,6.432,184.6,13 / 15,3598546,2019-08-18 23:19:48:079,-0.2958,0.3767,9.899,-0.3212,0.2631,9.7979,-0.0078,-0.0019,-0.0011
35987,45.986897,-0.545117,97.12,35.1,6.432,184.6,13 / 15,3598646,2019-08-18 23:19:48:179,-0.0235,0.005,10.0941,-0.3199,0.2641,9.7979,-0.0014,0.0098,-0.0021
35988,45.986897,-0.545117,97.12,35.1,6.432,184.6,13 / 15,3598745,2019-08-18 23:19:48:278,0.0262,0.3462,9.796,-0.3201,0.2688,9.7977,0.0081,-0.0105,-0.0021
35989,45.986897,-0.545117,97.12,35.1,6.432,184.6,13 / 15,3598845,2019-08-18 23:19:48:378,-0.3138,0.3899,9.4518,-0.3087,0.2771,9.7979,0.0028,-0.0083,-0.0021
35990,45.986897,-0.545117,97.12,35.1,6.432,184.6,13 / 15,3598946,2019-08-18 23:19:48:479,-0.3784,0.4827,9.8672,-0.3056,0.2784,9.7979,-0.0089,-0.0041,0.0
35991,45.986897,-0.545117,97.12,35.1,6.432,184.6,13 / 15,3599045,2019-08-18 23:19:48:578,-0.5897,0.3971,9.632,-0.3166,0.3026,9.7969,0.006,0.0108,0.0011
35992,45.986897,-0.545117,97.12,35.1,6.432,184.6,13 / 15,3599145,2019-08-18 23:19:48:678,-0.443,0.108,9.9456,-0.3378,0.3125,9.7958,0.0049,0.0087,0.0011
35993,45.986897,-0.545117,97.12,35.1,6.432,184.6,13 / 15,3599245,2019-08-18 23:19:48:778,-0.4311,0.2546,10.1617,-0.3399,0.3202,9.7955,0.0103,-0.0041,0.0
35994,45.986897,-0.545117,97.12,35.1,6.432,184.6,13 / 15,3599346,2019-08-18 23:19:48:879,-0.4395,0.3241,9.5404,-0.3522,0.3187,9.7951,-0.011,0.0023,-0.0021
35995,45.986897,-0.545117,97.12,35.1,6.432,184.6,13 / 15,3599446,2019-08-18 23:19:48:979,-0.5233,0.3827,9.617,-0.3618,0.3142,9.7949,-0.0057,0.0002,0.0
35996,45.986897,-0.545117,97.12,35.1,6.432,184.6,13 / 15,3599546,2019-08-18 23:19:49:079,-0.8806,0.433,9.283,-0.383,0.3159,9.7941,-0.0004,0.014,0.0011
35997,45.986897,-0.545117,97.12,35.1,6.432,184.6,13 / 15,3599646,2019-08-18 23:19:49:179,-1.1715,0.5671,9.9385,-0.4091,0.3111,9.7932,-0.0036,-0.0019,-0.0011
35998,45.986897,-0.545117,97.12,35.1,6.432,184.6,13 / 15,3599745,2019-08-18 23:19:49:278,-1.0721,0.591,10.033,-0.4336,0.3001,9.7925,-0.0089,0.0034,-0.0021
35999,45.986897,-0.545117,97.12,35.1,6.432,184.6,13 / 15,3599846,2019-08-18 23:19:49:379,-1.0236,0.2947,10.3197,-0.4995,0.2827,9.7898,-0.0078,-0.0062,-0.0021
36000,45.986897,-0.545117,97.12,35.1,6.432,184.6,13 / 15,3599945,2019-08-18 23:19:49:478,-0.9865,-0.138,9.5703,-0.6013,0.2711,9.7844,0.0039,0.0119,-0.0011
36001,45.986897,-0.545117,97.12,35.1,6.432,184.6,13 / 15,3600046,2019-08-18 23:19:49:579,-0.6298,0.2074,9.1657,-0.6204,0.2759,9.7831,0.0103,0.0108,0.0011
36002,45.986897,-0.545117,97.12,35.1,6.432,184.6,13 / 15,3600145,2019-08-18 23:19:49:678,-0.8052,0.263,9.3393,-0.6368,0.2797,9.782,0.006,0.0023,-0.0011
36003,45.986897,-0.545117,97.12,35.1,6.432,184.6,13 / 15,3600246,2019-08-18 23:19:49:779,-1.1368,0.3624,9.7619,-0.6588,0.282,9.7804,-0.0057,-0.003,0.0
36004,45.986897,-0.545117,97.12,35.1,6.432,184.6,13 / 15,3600346,2019-08-18 23:19:49:879,-1.2978,0.3067,9.7308,-0.6747,0.2729,9.7796,-0.0046,0.0002,-0.0021
36005,45.986897,-0.545117,97.12,35.1,6.432,184.6,13 / 15,3600446,2019-08-18 23:19:49:979,-1.293,0.1403,9.4572,-0.6948,0.2722,9.7782,0.0018,0.0108,0.0011
36006,45.986897,-0.545117,97.12,35.1,6.432,184.6,13 / 15,3600545,2019-08-18 23:19:50:078,-1.1685,0.3612,10.1563,-0.8091,0.2672,9.7696,0.0071,-0.0051,0.0032
36007,45.986897,-0.545117,97.12,35.1,6.432,184.6,13 / 15,3600645,2019-08-18 23:19:50:178,-0.9422,0.1439,9.7302,-0.8598,0.2648,9.7653,0.0071,-0.0009,0.0043
36008,45.986897,-0.545117,97.12,35.1,6.432,184.6,13 / 15,3600746,2019-08-18 23:19:50:279,-0.862,0.3061,9.4129,-0.92,0.3069,9.7586,0.0113,-0.0062,0.0032
36009,45.986897,-0.545117,97.12,35.1,6.432,184.6,13 / 15,3600846,2019-08-18 23:19:50:379,-0.8459,0.506,9.3387,-0.946,0.3165,9.7558,0.0071,0.0108,0.0043
36010,45.986897,-0.545117,97.12,35.1,6.432,184.6,13 / 15,3600946,2019-08-18 23:19:50:479,-0.9183,0.3187,9.3429,-0.9655,0.3316,9.7534,0.0124,0.0034,0.0064
36011,45.986897,-0.545117,97.12,35.1,6.432,184.6,13 / 15,3601045,2019-08-18 23:19:50:578,-0.801,0.5587,9.5117,-0.9616,0.346,9.7533,0.0145,-0.0083,0.0053
36012,45.986897,-0.545117,97.12,35.1,6.432,184.6,13 / 15,3601146,2019-08-18 23:19:50:679,-1.1122,0.5318,9.7936,-0.9593,0.3622,9.7529,0.0071,-0.0041,0.0032
36013,45.986897,-0.545117,97.12,35.1,6.432,184.6,13 / 15,3601246,2019-08-18 23:19:50:779,-0.9596,0.6832,9.2585,-0.9551,0.4027,9.7517,-0.0025,0.0002,0.0032
36014,45.986897,-0.545117,97.12,35.1,6.432,184.6,13 / 15,3601346,2019-08-18 23:19:50:879,-0.7764,0.7221,9.9043,-0.9319,0.4223,9.7531,-0.0174,0.0087,0.0032
