,GPS LATITUDE (degrees), GPS LONGITUDE (degrees), GPS ALTITUDE (m), GPS SPEED (Kmh), GPS ACCURACY (m), GPS ORIENTATION (Â°),GPS SATELLITES IN RANGE, TIME SINCE START (ms), DATE (YYYY-MO-DD HH-MI-SS_SSS), ACCELEROMETER X (m/s²) , ACCELEROMETER Y (m/s²), ACCELEROMETER Z (m/s²), GRAVITY X (m/s²), GRAVITY Y (m/s²), GRAVITY Z (m/s²), GYROSCOPE Yaw (rad/s), GYROSCOPE Pitch (rad/s), GYROSCOPE Roll (rad/s), MAGNETIC FIELD X (Î¼T), MAGNETIC FIELD Y (Î¼T), MAGNETIC FIELD Z (Î¼T), ORIENTATION (Yaw) (Â°), ORIENTATION (Pitch) (Â°), ORIENTATION (Roll ) (Â°)
55610,52.48665,-1.368635,171.22,8.38,4,94.98,25 / 25,5374610,2019-09-08 13:36:33:849,-4.4527,2.4156,9.6451,-0.0796,0.0234,9.8062,0.2777,0.0613,-0.1136,-26.44,-32.62,11.25,305.44,-77.92,-155.22
55611,52.48665,-1.368635,171.22,8.38,4,94.98,24 / 24,5374710,2019-09-08 13:36:33:949,-1.5327,-0.8379,11.7374,-0.0684,0.0246,9.8063,0.4892,-0.0545,-0.026,-26.94,-32.37,12.56,309.48,-78.14,-155.75
55612,52.48665,-1.368635,171.22,8.38,4,94.98,24 / 24,5374809,2019-09-08 13:36:34:048,-0.6717,2.1034,10.7537,0.179,-0.058,9.8048,-0.3361,0.0252,0.0956,-26.94,-32.56,11.94,302.03,-76.92,-158.64
55613,52.48665,-1.368635,171.22,8.38,4,94.98,24 / 24,5374910,2019-09-08 13:36:34:149,-1.2465,0.4093,7.0508,0.1917,-0.1073,9.8042,-0.3941,0.015,0.1112,-27.62,-32.81,12.56,304.5,-76.43,-157.48
55614,52.48665,-1.368635,171.22,8.38,4,94.98,24 / 24,5375010,2019-09-08 13:36:34:249,-2.7626,-1.6076,8.8017,-0.207,0.0023,9.8044,0.0751,-0.0017,-0.0164,-27.31,-33.25,11.13,302.65,-76.67,-155.86
55615,52.48665,-1.368635,171.22,8.38,4,94.98,24 / 24,5375110,2019-09-08 13:36:34:349,0.3266,-1.4443,11.6561,-0.1848,0.0335,9.8048,0.0345,-0.0025,-0.0809,-27.56,-32.94,11.38,308.29,-78.22,-152.31
55616,52.48665,-1.368635,171.22,8.38,4,94.98,24 / 24,5375210,2019-09-08 13:36:34:449,1.1816,-0.5129,12.8421,0.1203,-0.0609,9.8057,0.0785,0.0554,0.0241,-27.0,-33.0,11.25,309.42,-78.66,-152.17
55617,52.48665,-1.368635,171.22,8.38,4,94.98,24 / 24,5375310,2019-09-08 13:36:34:549,0.5407,-0.5946,13.3253,0.1064,-0.0173,9.806,0.3039,-0.0082,-0.0008,-27.25,-33.06,11.69,309.82,-77.84,-152.95
55618,52.48665,-1.368635,171.22,8.38,4,94.98,24 / 24,5375410,2019-09-08 13:36:34:649,-2.6601,0.5782,8.5335,0.0402,0.0114,9.8065,-0.1306,-0.001,0.0157,-27.75,-33.75,11.69,305.55,-77.44,-155.41
55619,52.48665,-1.368635,171.22,8.38,4,94.98,24 / 24,5375510,2019-09-08 13:36:34:749,-0.9111,1.0794,8.4776,0.0163,-0.0019,9.8066,-0.0762,-0.0387,0.0204,-27.0,-33.44,12.81,306.44,-77.0,-156.87
55620,52.48665,-1.368635,171.22,8.38,4,94.98,24 / 24,5375610,2019-09-08 13:36:34:849,1.4225,-0.0257,10.4955,0.055,-0.0203,9.8064,-0.0645,0.0249,-0.0754,-26.81,-32.5,12.81,306.98,-76.83,-156.59
55621,52.48665,-1.368635,171.22,8.38,4,94.98,24 / 25,5375711,2019-09-08 13:36:34:950,-1.7375,-0.8885,9.9732,-0.0066,-0.0065,9.8066,0.026,-0.158,0.0848,-27.31,-33.19,12.19,305.61,-76.97,-155.63
55622,52.48665,-1.368635,171.22,8.38,4,94.98,24 / 25,5375810,2019-09-08 13:36:35:049,-2.9341,1.6503,9.3775,-0.0762,0.0236,9.8062,-0.0709,-0.0432,0.0867,-27.06,-32.62,11.44,305.37,-77.23,-154.15
55623,52.48665,-1.368635,171.22,8.38,4,94.98,24 / 25,5375909,2019-09-08 13:36:35:148,-1.9169,0.2017,9.4804,-0.0458,-0.0086,9.8065,0.0419,-0.0628,0.0818,-27.37,-33.12,11.0,307.82,-77.65,-152.51
55624,52.48665,-1.368635,171.22,8.38,4,94.98,24 / 25,5376010,2019-09-08 13:36:35:249,0.0407,0.5375,10.4587,0.0294,-0.0292,9.8065,0.1304,-0.0563,0.1082,-27.56,-32.94,12.06,308.89,-77.07,-152.53
55625,52.48665,-1.368635,171.22,8.38,4,94.98,24 / 25,5376110,2019-09-08 13:36:35:349,-0.4768,0.7483,10.3987,0.0245,-0.0231,9.8065,0.1016,-0.0138,0.0152,-27.94,-32.5,11.94,309.56,-76.67,-151.93
55626,52.48665,-1.368635,171.22,8.38,4,94.98,24 / 25,5376211,2019-09-08 13:36:35:450,-0.9431,0.0399,9.5062,-0.0231,-0.0059,9.8066,-0.0107,0.0365,-0.0153,-27.31,-32.25,11.56,310.06,-76.47,-151.74
55627,52.48665,-1.368635,171.22,8.38,4,94.98,24 / 25,5376310,2019-09-08 13:36:35:549,-0.881,-0.4884,10.683,-0.0158,0.0002,9.8065,0.0342,-0.0912,0.0091,-27.06,-32.12,12.0,310.73,-76.51,-151.22
55628,52.48665,-1.368635,171.22,8.38,4,94.98,24 / 25,5376410,2019-09-08 13:36:35:649,-1.205,0.7737,11.1182,0.0273,0.0178,9.8066,0.0802,-0.0475,0.0225,-27.5,-32.75,12.38,310.37,-76.57,-151.22
55629,52.48665,-1.368635,171.22,8.38,4,94.98,24 / 25,5376510,2019-09-08 13:36:35:749,-1.4146,0.8077,10.9703,0.0,0.0166,9.8065,0.1872,-0.0124,-0.0761,-27.25,-32.12,12.0,308.87,-76.5,-152.76
55630,52.48665,-1.368635,171.22,8.38,4,94.98,24 / 25,5376610,2019-09-08 13:36:35:849,-0.6934,2.0449,10.0087,0.0732,0.0106,9.8063,0.0129,0.08,-0.1075,-27.12,-32.87,13.31,306.59,-76.07,-155.77
55631,52.48665,-1.368635,171.22,8.38,4,94.98,24 / 24,5376710,2019-09-08 13:36:35:949,0.2225,0.8026,8.9438,0.0057,0.0116,9.8066,0.1816,-0.0036,0.0513,-27.0,-32.75,12.69,305.17,-75.93,-156.81
55632,52.48665,-1.368635,171.22,8.38,4,94.98,24 / 24,5376809,2019-09-08 13:36:36:048,1.521,1.684,9.0661,0.0108,-0.0251,9.8066,0.0136,0.1168,-0.0195,-26.81,-32.81,12.25,302.49,-75.69,-156.87
55633,52.48665,-1.368635,171.22,8.38,4,94.98,24 / 24,5376910,2019-09-08 13:36:36:149,-1.5892,-0.0821,9.6337,-0.0745,0.0239,9.8063,0.0333,-0.0269,-0.0891,-27.44,-32.5,12.25,305.29,-76.15,-155.41
55634,52.48665,-1.368635,171.22,8.38,4,94.98,24 / 24,5377010,2019-09-08 13:36:36:249,-0.2011,0.2639,9.7488,-0.0753,0.0607,9.8061,-0.0084,-0.01,-0.0613,-27.31,-33.19,12.13,304.05,-76.6,-156.56
55635,52.48665,-1.368635,171.22,8.38,4,94.98,24 / 24,5377110,2019-09-08 13:36:36:349,0.4009,1.1726,9.8923,0.0379,0.0273,9.8065,-0.1809,-0.0085,-0.0658,-26.5,-33.56,12.19,303.71,-77.19,-157.52
55636,52.48665,-1.368635,171.22,8.38,4,94.98,24 / 24,5377210,2019-09-08 13:36:36:449,-0.3025,0.0437,9.8951,0.0191,0.0044,9.8066,-0.1073,-0.0454,0.043,-26.94,-33.31,11.31,299.9,-77.39,-159.06
55637,52.48665,-1.368635,171.22,8.38,4,94.98,24 / 24,5377310,2019-09-08 13:36:36:549,0.3219,1.1118,10.0633,0.0184,0.0039,9.8066,0.04,0.0289,-0.0879,-26.19,-33.69,11.19,300.37,-77.52,-158.75
55638,52.48665,-1.368635,171.22,8.38,4,94.98,24 / 24,5377410,2019-09-08 13:36:36:649,1.3112,0.3078,9.8867,0.025,0.0134,9.8066,0.0194,-0.0092,0.041,-26.31,-33.5,11.81,301.82,-77.47,-159.85
55639,52.48665,-1.368635,171.22,8.38,4,94.98,24 / 24,5377510,2019-09-08 13:36:36:749,0.8035,-0.2355,10.3596,-0.001,0.0065,9.8066,0.0457,0.0007,-0.049,-25.75,-33.56,11.69,301.05,-77.34,-159.98
55640,52.48665,-1.368635,171.22,8.38,4,94.98,24 / 24,5377610,2019-09-08 13:36:36:849,0.9592,0.2034,9.3612,-0.0047,0.0023,9.8066,0.0365,0.0193,-0.0383,-26.06,-33.87,12.0,300.61,-77.38,-160.42
55641,52.48665,-1.368635,171.22,8.38,4,94.98,23 / 24,5377710,2019-09-08 13:36:36:949,0.0074,0.5545,9.3379,-0.0175,0.0105,9.8065,0.0384,0.0243,-0.0756,-26.37,-33.75,11.31,297.82,-77.37,-160.8
55642,52.48665,-1.368635,171.22,8.38,4,94.98,23 / 24,5377809,2019-09-08 13:36:37:048,1.8307,1.1884,11.3059,-0.0488,0.0041,9.8064,0.1961,-0.0253,-0.006,-26.25,-33.87,11.31,298.72,-77.66,-160.36
55643,52.48665,-1.368635,171.22,8.38,4,94.98,23 / 24,5377910,2019-09-08 13:36:37:149,-0.2995,-0.095,10.7076,0.0528,-0.002,9.8064,-0.1728,0.06,-0.0481,-26.0,-33.87,11.56,301.09,-77.79,-160.47
55644,52.48665,-1.368635,171.22,8.38,4,94.98,23 / 24,5378011,2019-09-08 13:36:37:250,1.5855,1.9742,9.2874,0.0891,-0.0271,9.8062,-0.2226,0.0619,-0.0662,-26.62,-34.06,11.13,296.6,-77.3,-161.47
55645,52.48665,-1.368635,171.22,8.38,4,94.98,23 / 24,5378110,2019-09-08 13:36:37:349,0.813,0.6372,9.0672,-0.0888,0.0084,9.8062,0.2378,0.008,-0.064,-25.87,-33.69,11.75,300.67,-77.53,-160.53
55646,52.48665,-1.368635,171.22,8.38,4,94.98,23 / 24,5378210,2019-09-08 13:36:37:449,1.1733,-0.066,9.9059,-0.0925,0.0274,9.8061,0.095,-0.025,-0.045,-25.81,-33.56,11.75,299.91,-77.44,-161.09
55647,52.48665,-1.368635,171.22,8.38,4,94.98,23 / 24,5378310,2019-09-08 13:36:37:549,1.5027,0.4605,10.5923,0.0392,-0.0021,9.8065,-0.0697,0.0003,-0.0242,-26.19,-33.81,11.63,299.69,-77.64,-161.51
55648,52.48665,-1.368635,171.22,8.38,4,94.98,23 / 24,5378410,2019-09-08 13:36:37:649,0.2394,0.736,9.2068,0.0162,-0.0162,9.8066,0.0679,0.0119,-0.0167,-26.19,-34.0,11.44,298.14,-77.8,-161.04
55649,52.48665,-1.368635,171.22,8.38,4,94.98,23 / 24,5378510,2019-09-08 13:36:37:749,-1.2158,-0.767,9.6888,-0.0232,0.0045,9.8066,-0.1771,-0.0113,0.0022,-26.69,-33.81,11.0,298.67,-78.11,-160.59
55650,52.48665,-1.368635,171.22,8.38,4,94.98,23 / 24,5378610,2019-09-08 13:36:37:849,0.7473,0.1728,8.4817,-0.0114,0.0311,9.8065,-0.1443,0.0184,-0.0253,-25.69,-33.62,11.06,298.53,-78.44,-161.47
55651,52.48665,-1.368635,171.22,8.38,4,94.98,25 / 25,5378710,2019-09-08 13:36:37:949,-0.4297,-0.1617,8.0545,-0.092,0.0557,9.806,0.2377,-0.0559,-0.0842,-26.31,-34.56,10.69,296.95,-79.07,-163.28
55652,52.48665,-1.368635,171.22,8.38,4,94.98,25 / 25,5378810,2019-09-08 13:36:38:049,0.9624,0.6835,10.2845,-0.1315,0.0581,9.8055,0.1553,-0.0317,-0.0647,-25.5,-33.56,10.69,296.26,-79.4,-165.07
55653,52.48665,-1.368635,171.22,8.38,4,94.98,25 / 25,5378910,2019-09-08 13:36:38:149,1.3526,0.4568,11.7827,0.0801,-0.0103,9.8062,-0.0015,0.0167,-0.0578,-26.25,-33.87,10.56,295.02,-79.48,-165.89
55654,52.48665,-1.368635,171.22,8.38,4,94.98,25 / 25,5379010,2019-09-08 13:36:38:249,-1.3674,0.2096,9.6075,0.0732,0.0023,9.8064,0.0826,0.094,-0.1606,-25.62,-33.25,10.25,290.95,-78.99,-167.34
55655,52.48665,-1.368635,171.22,8.38,4,94.98,25 / 25,5379110,2019-09-08 13:36:38:349,-0.2973,0.7111,8.5019,-0.0405,0.0112,9.8065,0.221,0.0333,-0.0166,-26.25,-33.94,10.19,288.08,-78.71,-169.26
55656,52.48665,-1.368635,171.22,8.38,4,94.98,25 / 25,5379210,2019-09-08 13:36:38:449,-0.5874,1.4257,9.6017,-0.0591,-0.0079,9.8064,0.1072,0.0709,-0.0495,-25.75,-33.62,10.88,290.58,-78.78,-169.09
55657,52.48665,-1.368635,171.22,8.38,4,94.98,25 / 25,5379310,2019-09-08 13:36:38:549,2.2696,-0.9226,9.9375,0.0894,-0.031,9.8062,-0.2799,-0.1366,0.2156,-26.62,-33.87,9.5,289.02,-78.52,-167.87
55658,52.48665,-1.368635,171.22,8.38,4,94.98,25 / 25,5379410,2019-09-08 13:36:38:649,0.1679,-0.1279,9.2303,0.0904,-0.0369,9.8061,-0.2279,-0.01,0.0366,-26.81,-34.19,9.25,290.26,-78.84,-165.07
55659,52.48665,-1.368635,171.22,8.38,4,94.98,25 / 25,5379510,2019-09-08 13:36:38:749,-0.0051,0.3446,9.6175,-0.0663,0.0151,9.8064,0.1175,0.1368,-0.0807,-26.62,-34.62,9.69,293.82,-78.93,-163.58
55660,52.48665,-1.368635,171.22,8.38,4,94.98,25 / 25,5379610,2019-09-08 13:36:38:849,-1.6667,-1.259,9.7395,0.0139,-0.006,9.8066,-0.1341,0.0989,-0.0913,-27.44,-34.31,8.56,292.81,-79.17,-163.12
55661,52.48665,-1.368635,171.22,8.38,4,94.98,23 / 24,5379710,2019-09-08 13:36:38:949,-0.1295,1.0554,9.5261,-0.0725,0.0129,9.8064,0.3072,0.0261,-0.0528,-26.87,-34.12,9.56,293.72,-79.06,-164.19
55662,52.48665,-1.368635,171.22,8.38,4,94.98,23 / 24,5379810,2019-09-08 13:36:39:049,0.0211,2.0587,8.9162,-0.0714,0.0348,9.8063,0.0426,0.0433,-0.0646,-26.06,-34.5,8.94,291.22,-79.42,-165.15
55663,52.48665,-1.368635,171.22,8.38,4,94.98,23 / 24,5379910,2019-09-08 13:36:39:149,-0.4907,-1.0567,9.4502,-0.057,0.0328,9.8064,0.164,0.0673,-0.0638,-25.87,-34.25,9.25,289.57,-79.55,-166.85
55664,52.48665,-1.368635,171.22,8.38,4,94.98,23 / 24,5380010,2019-09-08 13:36:39:249,-0.4435,1.363,9.511,-0.1058,0.0239,9.806,0.1196,0.0818,-0.1199,-26.06,-33.94,9.0,288.06,-79.93,-168.75
55665,52.48665,-1.368635,171.22,8.38,4,94.98,23 / 24,5380110,2019-09-08 13:36:39:349,-0.5272,2.9807,9.7771,0.0272,0.0138,9.8066,0.1373,-0.0281,0.0515,-25.62,-33.56,8.44,283.91,-79.96,-170.59
55666,52.48665,-1.368635,171.22,8.38,4,94.98,23 / 24,5380210,2019-09-08 13:36:39:449,-0.3502,1.1937,10.2716,-0.0106,-0.0255,9.8065,0.1153,0.1,-0.0158,-26.44,-33.25,8.88,287.15,-79.85,-169.86
55667,52.48665,-1.368635,171.22,8.38,4,94.98,23 / 24,5380310,2019-09-08 13:36:39:549,-0.3143,-0.0518,9.8192,0.0163,-0.019,9.8066,0.1074,0.1229,-0.0864,-25.81,-33.31,9.5,289.55,-79.7,-169.51
55668,52.48665,-1.368635,171.22,8.38,4,94.98,23 / 24,5380410,2019-09-08 13:36:39:649,0.1133,0.6751,9.5277,-0.025,0.0239,9.8065,0.1156,-0.0177,0.1268,-26.0,-33.62,9.63,288.11,-79.56,-170.32
55669,52.48665,-1.368635,171.22,8.38,4,94.98,23 / 24,5380510,2019-09-08 13:36:39:749,-0.4691,-0.1661,10.7905,0.0198,-0.0126,9.8065,-0.0694,0.1031,0.0052,-25.37,-33.06,9.13,288.18,-79.43,-168.63
55670,52.48665,-1.368635,171.22,8.38,4,94.98,23 / 24,5380610,2019-09-08 13:36:39:849,-0.6174,0.9181,10.2112,-0.0316,-0.0292,9.8065,0.038,0.0792,0.068,-25.81,-33.5,8.31,287.37,-79.86,-167.55
55671,52.48665,-1.368635,171.22,8.38,4,94.98,23 / 24,5380710,2019-09-08 13:36:39:949,-1.4419,-0.0929,10.2106,-0.002,0.0025,9.8066,0.128,0.0112,-0.0027,-25.06,-33.69,8.44,290.02,-80.01,-165.09
55672,52.48665,-1.368635,171.22,8.38,4,94.98,24 / 25,5380810,2019-09-08 13:36:40:049,0.6041,2.5238,9.5047,-0.0253,0.0227,9.8065,0.1831,0.1452,-0.1043,-25.37,-34.0,8.19,289.47,-80.45,-166.19
55673,52.48665,-1.368635,171.22,8.38,4,94.98,24 / 25,5380909,2019-09-08 13:36:40:148,-1.4071,1.1786,10.6008,0.0046,-0.0289,9.8065,-0.023,0.0173,0.1078,-24.87,-34.25,7.44,287.18,-80.76,-166.51
55674,52.48665,-1.368635,171.22,8.38,4,94.98,24 / 25,5381010,2019-09-08 13:36:40:249,-1.773,-0.4024,10.4969,-0.0275,-0.0113,9.8065,0.133,0.0782,-0.0245,-25.25,-34.81,7.25,289.59,-80.76,-163.9
55675,52.48665,-1.368635,171.22,8.38,4,94.98,24 / 25,5381110,2019-09-08 13:36:40:349,-0.6472,1.0199,10.371,0.0657,0.0069,9.8063,-0.0339,0.0457,-0.098,-24.75,-33.81,8.19,289.38,-80.34,-166.12
55676,52.48665,-1.368635,171.22,8.38,4,94.98,24 / 25,5381210,2019-09-08 13:36:40:449,-0.7729,0.7272,8.2655,0.0316,0.0228,9.8065,-0.0707,0.0095,-0.0651,-25.06,-34.94,7.63,287.15,-80.35,-167.88
55677,52.48665,-1.368635,171.22,8.38,4,94.98,24 / 25,5381310,2019-09-08 13:36:40:549,-1.5438,1.9999,8.0861,-0.0807,0.0211,9.8062,0.1033,0.0468,0.0065,-24.94,-34.62,7.19,283.24,-80.37,-169.37
55678,52.48665,-1.368635,171.22,8.38,4,94.98,24 / 25,5381410,2019-09-08 13:36:40:649,-1.4245,0.5323,10.561,-0.0713,0.0119,9.8063,0.0241,0.0358,-0.0673,-24.5,-34.56,6.81,284.52,-81.09,-169.32
55679,52.48665,-1.368635,171.22,8.38,4,94.98,24 / 25,5381510,2019-09-08 13:36:40:749,-2.5069,1.0001,10.5964,0.0176,0.0129,9.8065,0.0587,0.1428,-0.1169,-24.25,-35.0,7.0,284.24,-81.41,-170.04
55680,52.48665,-1.368635,171.22,8.38,4,94.98,24 / 25,5381610,2019-09-08 13:36:40:849,-1.0394,2.6644,8.9886,0.0377,0.0147,9.8065,0.0338,0.0822,-0.0586,-24.19,-34.37,7.06,281.5,-81.21,-172.75
55681,52.48665,-1.368635,171.22,8.38,4,94.98,24 / 25,5381709,2019-09-08 13:36:40:948,-3.1677,2.0668,8.931,-0.0658,-0.011,9.8064,0.0314,0.0756,0.0708,-24.69,-33.87,6.75,281.87,-81.32,-172.35
55682,52.48665,-1.368635,171.22,8.38,4,94.98,24 / 25,5381810,2019-09-08 13:36:41:049,-1.8011,-0.4656,11.3358,-0.1105,-0.013,9.806,0.1683,-0.0137,0.1155,-24.37,-34.19,7.75,286.58,-81.43,-170.5
55683,52.48665,-1.368635,171.22,8.38,4,94.98,24 / 25,5381910,2019-09-08 13:36:41:149,-1.1001,1.4425,11.8267,0.1008,-0.0007,9.8061,-0.0517,-0.0107,0.027,-24.81,-33.12,7.25,285.51,-81.55,-169.49
55684,52.48665,-1.368635,171.22,8.38,4,94.98,24 / 25,5382010,2019-09-08 13:36:41:249,-3.7338,1.4794,8.6998,0.1112,-0.0079,9.806,0.0617,0.1542,-0.1363,-23.75,-33.37,7.81,285.73,-80.92,-170.95
55685,52.48665,-1.368635,171.22,8.38,4,94.98,24 / 25,5382110,2019-09-08 13:36:41:349,-3.8675,1.8585,7.9713,-0.0692,0.0002,9.8063,-0.0445,0.0845,0.0402,-22.75,-32.81,7.94,284.6,-80.74,-172.05
55686,52.48665,-1.368635,171.22,8.38,4,94.98,24 / 25,5382210,2019-09-08 13:36:41:449,-3.4245,1.4043,7.9003,-0.0617,0.0038,9.8064,-0.161,0.0739,0.0119,-21.31,-31.94,7.94,286.83,-80.95,-171.3
55687,52.48665,-1.368635,171.22,8.38,4,94.98,24 / 25,5382310,2019-09-08 13:36:41:549,0.4455,2.1222,11.6863,0.0332,-0.0181,9.8065,0.2415,0.0503,0.0531,-19.62,-32.19,6.94,284.71,-80.69,-170.56
55688,52.48665,-1.368635,171.22,8.38,4,94.98,24 / 25,5382410,2019-09-08 13:36:41:649,-0.0358,-0.5379,9.371,0.071,-0.0082,9.8064,-0.0416,0.0084,0.1402,-20.12,-32.75,4.56,279.67,-80.45,-168.84
55689,52.48665,-1.368635,171.22,8.38,4,94.98,24 / 25,5382510,2019-09-08 13:36:41:749,-0.9964,0.9411,8.1748,-0.0758,-0.0356,9.8062,0.0238,0.0389,0.0923,-21.25,-33.44,3.0,275.81,-80.35,-166.98
55690,52.48665,-1.368635,171.22,8.38,4,94.98,24 / 25,5382610,2019-09-08 13:36:41:849,0.039,0.5282,9.7916,-0.1035,-0.0156,9.806,-0.043,0.07,0.0086,-23.06,-33.5,2.44,277.68,-80.88,-164.05
55691,52.48664,-1.367574,171.44,6.86,4,78.57,25 / 26,5382710,2019-09-08 13:36:41:949,-0.2085,0.3858,10.4389,0.0119,-0.0153,9.8066,-0.0839,0.1271,-0.0693,-24.37,-33.94,2.75,280.73,-81.04,-163.69
55692,52.48664,-1.367574,171.44,6.86,4,78.57,25 / 26,5382810,2019-09-08 13:36:42:049,-1.2431,0.6875,10.5395,-0.0742,-0.025,9.8063,-0.0293,0.0534,-0.0093,-24.69,-33.5,3.44,283.84,-81.47,-161.86
55693,52.48664,-1.367574,171.44,6.86,4,78.57,25 / 26,5382910,2019-09-08 13:36:42:149,-1.1833,0.3377,10.7607,0.0052,-0.0155,9.8066,0.028,0.0542,0.0311,-25.06,-33.75,3.25,284.71,-81.72,-161.03
55694,52.48664,-1.367574,171.44,6.86,4,78.57,25 / 26,5383010,2019-09-08 13:36:42:249,0.1141,-0.5949,10.1156,0.028,-0.0122,9.8066,0.2257,0.0086,0.0415,-24.62,-34.69,3.56,287.32,-81.4,-160.09
55695,52.48664,-1.367574,171.44,6.86,4,78.57,25 / 26,5383110,2019-09-08 13:36:42:349,0.8012,0.952,9.0472,0.0413,0.0176,9.8065,-0.0628,0.0672,-0.0083,-24.56,-34.44,3.63,284.88,-80.96,-162.12
55696,52.48664,-1.367574,171.44,6.86,4,78.57,25 / 26,5383210,2019-09-08 13:36:42:449,0.9589,0.5207,9.6477,0.0015,-0.0029,9.8066,-0.0256,0.0441,-0.0111,-25.25,-34.81,3.81,284.35,-80.92,-162.21
55697,52.48664,-1.367574,171.44,6.86,4,78.57,25 / 26,5383310,2019-09-08 13:36:42:549,0.3252,-0.3866,10.4002,-0.0093,-0.0103,9.8066,-0.0339,0.0398,0.0308,-25.12,-34.19,4.06,285.53,-81.18,-161.8
55698,52.48664,-1.367574,171.44,6.86,4,78.57,25 / 26,5383410,2019-09-08 13:36:42:649,-0.9403,-0.3298,10.7874,-0.0149,0.0053,9.8065,-0.0516,0.0293,0.0509,-24.94,-34.81,3.56,286.16,-81.45,-161.25
55699,52.48664,-1.367574,171.44,6.86,4,78.57,25 / 26,5383510,2019-09-08 13:36:42:749,1.2598,0.686,10.1765,0.0079,0.0015,9.8066,0.1204,-0.026,0.0041,-24.62,-34.69,3.63,285.59,-81.48,-161.83
55700,52.48664,-1.367574,171.44,6.86,4,78.57,25 / 26,5383610,2019-09-08 13:36:42:849,0.5905,1.088,9.4445,0.0214,0.0173,9.8066,0.1058,-0.1235,0.1029,-24.62,-34.44,4.44,284.5,-81.24,-162.88
55701,52.48664,-1.367574,171.44,6.86,4,78.57,24 / 25,5383709,2019-09-08 13:36:42:948,1.8458,-0.0917,9.967,0.0274,-0.0174,9.8066,0.0022,-0.0129,-0.057,-24.94,-34.31,4.69,287.41,-80.71,-161.68
55702,52.48664,-1.367574,171.44,6.86,4,78.57,24 / 25,5383810,2019-09-08 13:36:43:049,0.7118,-0.3805,10.1861,0.0049,0.0001,9.8066,-0.0437,-0.0618,0.0201,-25.06,-34.0,4.81,287.73,-80.71,-161.38
55703,52.48664,-1.367574,171.44,6.86,4,78.57,24 / 25,5383910,2019-09-08 13:36:43:149,0.7823,0.1426,10.4869,0.0259,-0.0156,9.8065,-0.1214,-0.0136,0.0025,-25.25,-34.37,4.31,286.99,-80.97,-160.14
55704,52.48664,-1.367574,171.44,6.86,4,78.57,24 / 25,5384010,2019-09-08 13:36:43:249,-0.6001,-1.6664,10.4125,0.0654,0.001,9.8064,-0.1248,-0.0677,-0.023,-25.25,-34.5,4.69,289.33,-80.71,-159.88
55705,52.48664,-1.367574,171.44,6.86,4,78.57,24 / 25,5384110,2019-09-08 13:36:43:349,-0.6845,0.9151,8.7125,-0.047,0.0242,9.8064,0.2601,-0.1198,0.0282,-24.5,-34.12,4.94,286.34,-80.61,-162.51
55706,52.48664,-1.367574,171.44,6.86,4,78.57,24 / 25,5384210,2019-09-08 13:36:43:449,1.7431,-0.0898,9.6072,-0.0504,0.0085,9.8065,0.2218,-0.0718,-0.0022,-25.44,-34.31,4.75,284.92,-80.64,-163.95
55707,52.48664,-1.367574,171.44,6.86,4,78.57,24 / 25,5384310,2019-09-08 13:36:43:549,0.2043,-0.9251,9.7652,0.0095,-0.0256,9.8065,-0.0646,-0.0517,0.0526,-25.06,-34.0,5.31,285.04,-80.27,-163.31
55708,52.48664,-1.367574,171.44,6.86,4,78.57,24 / 25,5384410,2019-09-08 13:36:43:649,-1.9757,-0.3752,9.5665,-0.0699,-0.0195,9.8063,-0.0838,-0.0342,0.1359,-24.94,-34.12,5.38,287.23,-80.64,-161.76
55709,52.48664,-1.367574,171.44,6.86,4,78.57,24 / 25,5384510,2019-09-08 13:36:43:749,0.3301,-0.1102,11.3199,0.0563,-0.0218,9.8065,-0.0301,-0.0108,-0.1164,-26.0,-34.31,4.63,291.48,-81.0,-158.27
55710,52.48664,-1.367574,171.44,6.86,4,78.57,24 / 25,5384610,2019-09-08 13:36:43:849,0.9256,0.218,10.507,0.0467,0.0222,9.8064,0.0999,-0.0069,-0.0915,-25.06,-33.75,4.75,290.22,-80.86,-159.26
55711,52.48664,-1.367574,171.44,6.86,4,78.57,24 / 24,5384710,2019-09-08 13:36:43:949,1.2455,-2.293,9.5219,-0.0019,0.0065,9.8066,-0.2013,0.091,-0.2225,-25.06,-34.87,4.69,288.37,-80.84,-160.6
55712,52.48664,-1.367574,171.44,6.86,4,78.57,24 / 24,5384810,2019-09-08 13:36:44:049,2.5352,1.3683,10.5017,-0.0311,0.0201,9.8066,-0.0936,0.015,0.0262,-25.25,-34.69,5.19,285.2,-80.72,-163.43
55713,52.48664,-1.367574,171.44,6.86,4,78.57,24 / 24,5384910,2019-09-08 13:36:44:149,0.3377,-0.6848,9.6298,0.0548,-0.0486,9.8063,-0.0004,0.1386,-0.097,-26.06,-34.37,6.19,290.11,-79.81,-160.19
55714,52.48664,-1.367574,171.44,6.86,4,78.57,24 / 24,5385010,2019-09-08 13:36:44:249,1.0952,-3.3741,9.7946,0.0444,0.0189,9.8065,-0.0726,-0.1829,0.1975,-25.94,-33.75,6.0,289.51,-79.75,-160.67
55715,52.48664,-1.367574,171.44,6.86,4,78.57,24 / 24,5385110,2019-09-08 13:36:44:349,-0.287,3.8173,9.6385,-0.0637,0.0261,9.8063,0.0145,0.0503,-0.0873,-25.81,-34.12,6.56,291.16,-80.01,-161.67
55716,52.48664,-1.367574,171.44,6.86,4,78.57,24 / 24,5385210,2019-09-08 13:36:44:449,0.6341,-0.7137,10.2449,-0.0951,-0.001,9.8061,0.1013,-0.1306,0.0989,-25.81,-34.25,5.63,290.91,-80.81,-160.75
55717,52.48664,-1.367574,171.44,6.86,4,78.57,24 / 24,5385310,2019-09-08 13:36:44:549,-0.5914,0.6559,9.7788,0.0404,-0.016,9.8065,0.0526,-0.0069,0.0385,-25.19,-34.06,5.63,291.41,-80.84,-160.41
55718,52.48664,-1.367574,171.44,6.86,4,78.57,24 / 24,5385410,2019-09-08 13:36:44:649,-0.186,0.2392,8.6382,0.053,-0.0008,9.8064,-0.0603,-0.0415,-0.0309,-26.25,-33.81,6.13,290.69,-80.15,-160.1
55719,52.48664,-1.367574,171.44,6.86,4,78.57,24 / 24,5385510,2019-09-08 13:36:44:749,0.7443,-1.0908,8.7308,-0.0545,-0.0079,9.8064,-0.0193,-0.1095,0.101,-26.06,-34.0,5.94,290.44,-80.34,-160.58
55720,52.48664,-1.367574,171.44,6.86,4,78.57,24 / 24,5385610,2019-09-08 13:36:44:849,-1.7778,0.1035,10.2824,0.0105,-0.0167,9.8065,-0.264,0.0894,-0.1506,-26.62,-34.0,5.69,290.47,-80.18,-160.3
55721,52.48664,-1.367574,171.44,6.86,4,78.57,24 / 24,5385710,2019-09-08 13:36:44:949,0.4355,1.2499,7.8542,-0.0518,0.0329,9.8063,-0.016,0.0034,-0.0603,-26.0,-34.31,6.44,288.61,-80.37,-162.33
55722,52.48664,-1.367574,171.44,6.86,4,78.57,24 / 24,5385810,2019-09-08 13:36:45:049,0.2084,-0.7127,9.3178,0.047,0.0102,9.8065,0.034,-0.1246,0.0799,-25.75,-34.44,5.88,287.05,-80.53,-164.02
55723,52.48664,-1.367574,171.44,6.86,4,78.57,24 / 24,5385910,2019-09-08 13:36:45:149,-0.336,0.1739,9.4737,-0.0691,0.0212,9.8063,-0.3938,0.0014,-0.0438,-25.62,-34.31,4.81,286.05,-81.11,-163.53
55724,52.48664,-1.367574,171.44,6.86,4,78.57,24 / 24,5386010,2019-09-08 13:36:45:249,-1.4253,0.8322,9.2322,-0.0293,0.0216,9.8065,-0.4171,0.0554,-0.0301,-25.81,-34.56,5.25,284.37,-81.33,-165.1
55725,52.48664,-1.367574,171.44,6.86,4,78.57,24 / 24,5386110,2019-09-08 13:36:45:349,0.5982,2.9249,10.3559,0.0219,0.0023,9.8066,0.2202,0.1024,-0.0328,-24.81,-34.37,5.25,283.62,-81.49,-166.37
55726,52.48664,-1.367574,171.44,6.86,4,78.57,24 / 24,5386210,2019-09-08 13:36:45:449,1.8466,0.384,11.1447,0.0617,-0.0091,9.8064,0.2194,0.0381,-0.0177,-25.06,-34.37,4.69,283.46,-81.25,-166.19
55727,52.48664,-1.367574,171.44,6.86,4,78.57,24 / 24,5386310,2019-09-08 13:36:45:549,-1.2596,0.9555,9.1701,-0.0349,0.0031,9.8065,-0.1429,0.0828,-0.006,-24.81,-34.5,4.94,282.81,-81.36,-166.97
55728,52.48664,-1.367574,171.44,6.86,4,78.57,24 / 24,5386410,2019-09-08 13:36:45:649,-0.1681,0.8598,9.9156,-0.0173,0.0183,9.8066,-0.1596,0.0087,0.0629,-24.75,-34.25,4.56,282.02,-81.48,-167.89
55729,52.48664,-1.367574,171.44,6.86,4,78.57,24 / 24,5386510,2019-09-08 13:36:45:749,0.1045,-0.4937,10.1074,0.0192,-0.0061,9.8066,0.2748,0.0712,-0.0392,-25.5,-33.5,4.94,282.17,-81.15,-167.64
55730,52.48664,-1.367574,171.44,6.86,4,78.57,24 / 24,5386610,2019-09-08 13:36:45:849,2.3665,0.0951,9.5957,0.01,-0.0127,9.8065,0.2921,-0.0016,0.0266,-25.69,-33.37,4.44,279.35,-80.9,-167.84
55731,52.48664,-1.367574,171.44,6.86,4,78.57,24 / 24,5386710,2019-09-08 13:36:45:949,3.2057,0.3739,9.7464,-0.0385,-0.0058,9.8065,-0.0437,-0.0241,0.0566,-25.5,-34.0,4.0,279.07,-80.88,-167.62
55732,52.48664,-1.367574,171.44,6.86,4,78.57,24 / 25,5386810,2019-09-08 13:36:46:049,-0.5952,0.405,9.2508,0.036,-0.0038,9.8066,-0.1542,-0.0872,0.1023,-25.44,-34.19,5.25,281.79,-81.01,-167.46
55733,52.48664,-1.367574,171.44,6.86,4,78.57,24 / 25,5386910,2019-09-08 13:36:46:149,-0.8825,-1.0107,9.3153,-0.0727,-0.0172,9.8063,-0.1171,-0.0259,0.0824,-25.19,-34.12,4.88,284.16,-81.77,-166.24
55734,52.48664,-1.367574,171.44,6.86,4,78.57,24 / 25,5387010,2019-09-08 13:36:46:249,1.47,-3.8174,11.706,-0.0599,-0.0039,9.8064,0.3581,-0.173,0.1416,-25.19,-34.12,5.19,284.8,-81.87,-165.76
55735,52.48664,-1.367574,171.44,6.86,4,78.57,24 / 25,5387110,2019-09-08 13:36:46:349,2.8099,1.141,9.9025,0.0817,0.0359,9.8061,0.4137,0.0299,-0.1302,-25.25,-34.5,4.94,285.08,-81.64,-165.17
55736,52.48664,-1.367574,171.44,6.86,4,78.57,24 / 25,5387210,2019-09-08 13:36:46:449,0.7766,-0.2711,10.8213,0.0828,0.0206,9.8063,-0.2636,-0.0635,0.0132,-25.31,-34.81,4.44,278.96,-81.32,-168.0
55737,52.48664,-1.367574,171.44,6.86,4,78.57,24 / 25,5387310,2019-09-08 13:36:46:549,-0.5006,-0.1341,10.4292,0.0548,-0.0626,9.8063,0.1887,-0.2237,0.2077,-25.44,-34.5,4.81,283.03,-81.62,-167.12
55738,52.48664,-1.367574,171.44,6.86,4,78.57,24 / 25,5387410,2019-09-08 13:36:46:649,-0.0484,-3.0468,10.5996,0.0515,0.0215,9.8064,-0.1106,-0.2602,0.1694,-25.19,-34.31,4.81,282.84,-81.36,-166.93
55739,52.48664,-1.367574,171.44,6.86,4,78.57,24 / 25,5387510,2019-09-08 13:36:46:749,0.8348,1.1825,9.9046,-0.0076,0.0172,9.8066,-0.0978,0.0809,-0.1604,-24.69,-34.56,4.81,281.31,-81.43,-168.17
55740,52.48664,-1.367574,171.44,6.86,4,78.57,24 / 25,5387610,2019-09-08 13:36:46:849,-0.6285,-3.564,9.0461,0.084,-0.0275,9.8062,-0.0268,-0.1625,0.2217,-24.75,-34.56,5.06,281.8,-81.06,-167.18
55741,52.48664,-1.367574,171.44,6.86,4,78.57,23 / 24,5387710,2019-09-08 13:36:46:949,-0.8069,0.4367,9.0834,-0.097,0.0277,9.8061,-0.1993,0.0744,-0.1397,-25.31,-34.62,5.25,280.79,-80.87,-167.86
55742,52.48664,-1.367574,171.44,6.86,4,78.57,23 / 24,5387810,2019-09-08 13:36:47:049,-0.0165,-0.9945,10.0405,-0.0993,-0.0033,9.8061,0.1719,-0.0469,-0.0641,-25.0,-34.81,5.69,283.97,-81.52,-168.03
55743,52.48664,-1.367574,171.44,6.86,4,78.57,23 / 24,5387910,2019-09-08 13:36:47:149,-0.3404,1.2104,9.1968,0.0582,0.0097,9.8064,0.1111,-0.0369,-0.0268,-25.25,-35.37,5.31,280.38,-81.61,-169.34
55744,52.48664,-1.367574,171.44,6.86,4,78.57,23 / 24,5388011,2019-09-08 13:36:47:250,-1.3402,-0.0782,12.8737,0.0831,-0.0274,9.8062,-0.0263,-0.2357,0.1776,-25.19,-34.81,5.25,280.2,-81.2,-168.93
55745,52.48664,-1.367574,171.44,6.86,4,78.57,23 / 24,5388110,2019-09-08 13:36:47:349,0.4095,-0.9291,11.3446,0.0811,-0.0122,9.8063,-0.0485,-0.0083,-0.0261,-25.12,-34.94,5.56,281.36,-80.66,-169.31
55746,52.48664,-1.367574,171.44,6.86,4,78.57,23 / 24,5388210,2019-09-08 13:36:47:449,-0.3751,-1.5581,9.3149,0.1245,0.0016,9.8058,0.4832,-0.131,-0.0279,-25.19,-34.5,7.06,281.68,-79.71,-170.33
55747,52.48664,-1.367574,171.44,6.86,4,78.57,23 / 24,5388310,2019-09-08 13:36:47:549,3.1037,-0.0508,8.9418,0.0017,0.0012,9.8066,0.2788,-0.073,-0.108,-25.75,-34.75,7.63,280.5,-79.0,-172.19
55748,52.48664,-1.367574,171.44,6.86,4,78.57,23 / 24,5388410,2019-09-08 13:36:47:649,1.4388,-0.6046,9.2938,-0.0334,0.0068,9.8065,-0.0426,-0.0662,-0.0466,-25.12,-34.81,7.56,280.92,-79.3,-172.32
55749,52.48664,-1.367574,171.44,6.86,4,78.57,23 / 24,5388510,2019-09-08 13:36:47:749,-0.4666,1.4389,8.975,-0.0047,0.0142,9.8066,0.0517,0.0049,-0.0719,-25.12,-34.62,6.5,279.05,-79.87,-172.69
55750,52.48664,-1.367574,171.44,6.86,4,78.57,23 / 24,5388610,2019-09-08 13:36:47:849,-0.7387,-0.7814,9.0597,0.0223,0.0143,9.8066,-0.0905,-0.0916,0.0591,-25.19,-35.12,7.0,278.74,-80.1,-173.34
55751,52.48664,-1.367574,171.44,6.86,4,78.57,25 / 26,5388710,2019-09-08 13:36:47:949,-1.7731,0.1348,8.9361,-0.0504,-0.0079,9.8064,-0.0471,0.0224,0.0612,-25.44,-34.19,6.94,280.58,-80.43,-172.38
55752,52.48664,-1.367574,171.44,6.86,4,78.57,25 / 26,5388810,2019-09-08 13:36:48:049,1.0454,0.361,10.4363,-0.0451,-0.0019,9.8065,0.0591,0.0096,0.027,-25.5,-35.25,6.81,280.05,-80.2,-172.2
55753,52.48664,-1.367574,171.44,6.86,4,78.57,25 / 26,5388909,2019-09-08 13:36:48:148,-0.75,-1.9741,8.992,-0.0172,-0.0191,9.8065,-0.1941,-0.0916,0.107,-25.19,-35.06,7.44,280.39,-79.99,-171.56
55754,52.48664,-1.367574,171.44,6.86,4,78.57,25 / 26,5389010,2019-09-08 13:36:48:249,-0.2973,-0.2202,9.3134,-0.0874,0.0193,9.8061,0.1065,-0.0934,-0.0918,-25.06,-34.87,6.75,281.08,-80.44,-171.55
55755,52.48664,-1.367574,171.44,6.86,4,78.57,25 / 26,5389110,2019-09-08 13:36:48:349,-0.4713,0.8476,9.8015,0.0389,0.0302,9.8065,0.0947,-0.0773,-0.0255,-24.44,-34.94,7.0,278.83,-80.91,-174.54
55756,52.48664,-1.367574,171.44,6.86,4,78.57,25 / 26,5389210,2019-09-08 13:36:48:449,-1.481,-0.5414,10.2648,0.038,0.0052,9.8065,-0.13,-0.0503,0.021,-24.12,-35.62,5.88,273.71,-81.15,-177.21
55757,52.48664,-1.367574,171.44,6.86,4,78.57,25 / 26,5389310,2019-09-08 13:36:48:549,-0.6568,-0.4218,9.7297,-0.0042,0.003,9.8066,0.0136,-0.0368,0.0668,-23.94,-35.31,6.44,272.85,-81.01,-178.23
55758,52.48664,-1.367574,171.44,6.86,4,78.57,25 / 26,5389410,2019-09-08 13:36:48:649,0.5045,0.129,10.1472,0.0028,0.0036,9.8066,0.0908,-0.0117,-0.0119,-23.87,-35.69,6.56,273.77,-80.64,-178.74
55759,52.48664,-1.367574,171.44,6.86,4,78.57,25 / 26,5389510,2019-09-08 13:36:48:749,-0.8001,0.1776,10.0593,0.0229,-0.0005,9.8066,0.0467,-0.044,0.0253,-23.69,-35.56,7.13,273.37,-80.47,-178.88
55760,52.48664,-1.367574,171.44,6.86,4,78.57,25 / 26,5389610,2019-09-08 13:36:48:849,-0.5511,-0.5403,10.1089,-0.0047,-0.0013,9.8065,-0.0644,0.0192,-0.0218,-24.69,-35.06,6.44,271.75,-80.52,-178.59
55761,52.48664,-1.367574,171.44,6.86,4,78.57,24 / 25,5389710,2019-09-08 13:36:48:949,-1.0059,0.2614,9.2694,-0.0443,0.0032,9.8065,-0.0773,-0.036,0.0191,-23.81,-34.87,7.38,274.28,-80.63,-178.6
55762,52.48664,-1.367574,171.44,6.86,4,78.57,24 / 25,5389809,2019-09-08 13:36:49:048,0.4104,0.45,9.9369,-0.0397,0.0043,9.8065,-0.0685,-0.0154,-0.0116,-24.06,-34.87,6.94,274.12,-80.82,-179.04
55763,52.48664,-1.367574,171.44,6.86,4,78.57,24 / 25,5389910,2019-09-08 13:36:49:149,-0.5725,0.1858,9.9789,0.0409,0.0039,9.8065,-0.072,-0.0214,0.0658,-24.62,-35.62,6.75,272.43,-80.43,-179.67
55764,52.48664,-1.367574,171.44,6.86,4,78.57,24 / 25,5390010,2019-09-08 13:36:49:249,-0.8628,0.4498,9.5348,0.0216,0.0016,9.8066,0.0468,0.0426,-0.0409,-24.25,-34.81,6.94,272.5,-80.44,179.91
55765,52.48664,-1.367574,171.44,6.86,4,78.57,24 / 25,5390110,2019-09-08 13:36:49:349,-0.0394,0.5959,10.2717,-0.0204,0.0018,9.8065,0.0146,0.0312,-0.045,-24.25,-35.31,6.69,272.45,-80.33,-179.99
55766,52.48664,-1.367574,171.44,6.86,4,78.57,24 / 25,5390210,2019-09-08 13:36:49:449,1.2005,1.0589,10.2166,-0.0292,-0.0107,9.8065,-0.0573,0.0221,0.0307,-24.44,-35.31,6.38,270.44,-80.43,-179.79
55767,52.48664,-1.367574,171.44,6.86,4,78.57,24 / 25,5390310,2019-09-08 13:36:49:549,-0.1145,0.0568,10.4465,0.0113,-0.0113,9.8066,-0.1024,-0.0057,0.0589,-24.37,-35.06,5.75,271.17,-80.33,-178.9
55768,52.48664,-1.367574,171.44,6.86,4,78.57,24 / 25,5390410,2019-09-08 13:36:49:649,-0.2565,1.0111,9.5525,0.0139,0.0029,9.8066,0.143,0.0137,0.0014,-24.25,-35.12,5.38,269.02,-80.29,-178.62
55769,52.48664,-1.367574,171.44,6.86,4,78.57,24 / 25,5390510,2019-09-08 13:36:49:749,0.0567,-0.6911,10.7829,-0.0022,-0.0129,9.8066,0.1349,-0.025,0.0401,-26.12,-35.19,5.94,272.62,-80.33,-177.43
55770,52.48664,-1.367574,171.44,6.86,4,78.57,24 / 25,5390610,2019-09-08 13:36:49:849,-0.1832,0.5898,11.0989,-0.0264,0.0034,9.8065,-0.0722,-0.0187,0.0269,-25.87,-34.12,6.31,272.32,-80.42,-178.23
55771,52.48664,-1.367574,171.44,6.86,4,78.57,25 / 25,5390710,2019-09-08 13:36:49:949,-0.6101,0.2479,9.603,0.0437,-0.0101,9.8065,0.0388,0.071,-0.0543,-26.25,-34.0,7.5,277.23,-80.45,-177.73
55772,52.48664,-1.367574,171.44,6.86,4,78.57,25 / 25,5390810,2019-09-08 13:36:50:049,-0.8882,0.8923,9.8679,0.0609,0.0055,9.8064,-0.0848,0.0217,-0.0501,-24.31,-34.37,6.06,272.58,-80.01,-177.43
55773,52.48664,-1.367574,171.44,6.86,4,78.57,25 / 25,5390909,2019-09-08 13:36:50:148,-0.5791,0.8307,9.1219,-0.0381,-0.0069,9.8066,-0.1228,0.0371,0.0124,-23.62,-34.06,5.31,269.96,-80.02,-177.69
55774,52.48664,-1.367574,171.44,6.86,4,78.57,25 / 25,5391010,2019-09-08 13:36:50:249,-0.4419,0.0454,9.8526,-0.0246,-0.0068,9.8065,0.0778,0.0263,0.005,-24.12,-34.31,4.63,270.93,-80.24,-177.02
55775,52.48664,-1.367574,171.44,6.86,4,78.57,25 / 25,5391110,2019-09-08 13:36:50:349,-0.6923,0.6824,9.9735,-0.003,-0.003,9.8066,0.0462,0.0394,-0.0329,-26.0,-35.12,4.06,268.82,-80.28,-176.77
55776,52.48664,-1.367574,171.44,6.86,4,78.57,25 / 25,5391210,2019-09-08 13:36:50:449,-0.6772,0.887,9.5317,0.0,-0.0082,9.8066,-0.0267,0.0222,0.0286,-27.37,-34.94,4.13,269.42,-80.29,-176.34
55777,52.48664,-1.367574,171.44,6.86,4,78.57,25 / 25,5391309,2019-09-08 13:36:50:548,-1.0379,0.5968,9.4251,0.0062,0.0007,9.8066,-0.0075,0.0133,0.0376,-28.12,-34.87,5.81,274.17,-80.38,-175.95
55778,52.48664,-1.367574,171.44,6.86,4,78.57,25 / 25,5391410,2019-09-08 13:36:50:649,-1.2913,0.843,9.9286,-0.0085,-0.0148,9.8066,0.0162,0.0142,0.0512,-28.06,-34.56,7.13,276.92,-80.51,-175.42
55779,52.48664,-1.367574,171.44,6.86,4,78.57,25 / 25,5391510,2019-09-08 13:36:50:749,-1.0525,0.2188,9.9725,0.0015,-0.0101,9.8066,-0.0145,0.0239,0.0159,-25.5,-34.19,7.63,280.42,-80.61,-175.04
55780,52.48664,-1.367574,171.44,6.86,4,78.57,25 / 25,5391610,2019-09-08 13:36:50:849,-1.1125,-0.0009,10.2339,-0.0074,0.0008,9.8066,0.1248,-0.0242,0.0405,-24.81,-35.06,6.13,276.02,-80.6,-174.45
55781,52.486763,-1.366427,171.58,9.75,4,79.05,24 / 24,5391710,2019-09-08 13:36:50:949,-0.9724,0.9214,9.2194,-0.0185,-0.002,9.8065,0.1602,-0.0187,0.0228,-24.62,-35.06,6.0,276.48,-80.54,-173.91
55782,52.486763,-1.366427,171.58,9.75,4,79.05,24 / 24,5391810,2019-09-08 13:36:51:049,-0.8589,0.3142,9.9414,-0.0056,0.0023,9.8066,-0.0068,0.0533,0.0406,-24.62,-34.44,5.56,276.57,-80.36,-173.94
55783,52.486763,-1.366427,171.58,9.75,4,79.05,24 / 24,5391909,2019-09-08 13:36:51:148,-1.6628,0.0606,9.4708,-0.0538,-0.0019,9.8065,0.0396,0.084,-0.0623,-24.06,-35.19,5.81,276.43,-80.45,-173.84
55784,52.486763,-1.366427,171.58,9.75,4,79.05,24 / 24,5392010,2019-09-08 13:36:51:249,0.25,0.4021,9.5283,-0.0312,0.0096,9.8065,0.0306,-0.0019,0.0212,-25.0,-35.0,5.19,274.23,-80.77,-174.18
55785,52.486763,-1.366427,171.58,9.75,4,79.05,24 / 24,5392110,2019-09-08 13:36:51:349,-0.9733,0.3856,9.612,-0.0087,-0.0162,9.8066,-0.0237,0.0846,-0.0204,-24.87,-35.19,4.94,274.23,-80.76,-174.16
55786,52.486763,-1.366427,171.58,9.75,4,79.05,24 / 24,5392210,2019-09-08 13:36:51:449,-1.6385,0.0634,10.0611,-0.0328,-0.0043,9.8066,0.0607,-0.0041,0.0633,-24.31,-35.37,4.94,275.23,-80.84,-173.22
55787,52.486763,-1.366427,171.58,9.75,4,79.05,24 / 24,5392310,2019-09-08 13:36:51:549,-1.472,0.5821,9.9819,0.0141,0.0027,9.8066,-0.0477,-0.0003,0.1105,-24.75,-35.12,4.56,275.39,-80.68,-172.89
55788,52.486763,-1.366427,171.58,9.75,4,79.05,24 / 24,5392410,2019-09-08 13:36:51:649,-2.0302,0.0558,9.779,-0.0316,-0.0035,9.8065,0.0044,0.0013,0.0617,-24.25,-34.87,5.19,276.37,-80.73,-171.93
55789,52.486763,-1.366427,171.58,9.75,4,79.05,24 / 24,5392510,2019-09-08 13:36:51:749,-0.9698,0.7316,9.9555,0.0147,0.0024,9.8066,-0.015,-0.0105,0.0097,-24.19,-35.06,4.63,276.57,-80.67,-171.64
55790,52.486763,-1.366427,171.58,9.75,4,79.05,24 / 24,5392610,2019-09-08 13:36:51:849,0.6955,0.1404,10.2541,0.0038,0.0018,9.8066,0.0759,-0.0257,-0.0121,-24.69,-34.94,4.69,276.52,-80.64,-171.71
55791,52.486763,-1.366427,171.58,9.75,4,79.05,23 / 25,5392710,2019-09-08 13:36:51:949,-0.1051,0.2838,10.3155,0.0466,0.0113,9.8064,-0.1299,-0.0026,0.0101,-24.44,-35.25,4.63,276.12,-80.75,-172.21
55792,52.486763,-1.366427,171.58,9.75,4,79.05,23 / 25,5392810,2019-09-08 13:36:52:049,-0.6131,0.9981,9.8124,0.0298,0.0101,9.8065,-0.0673,0.0568,-0.0453,-24.31,-35.19,4.69,274.45,-80.48,-173.45
55793,52.486763,-1.366427,171.58,9.75,4,79.05,23 / 25,5392910,2019-09-08 13:36:52:149,-0.6767,1.1227,9.7909,-0.0122,-0.0005,9.8066,0.0808,0.0672,-0.0384,-24.69,-35.06,3.88,271.63,-80.55,-174.13
55794,52.486763,-1.366427,171.58,9.75,4,79.05,23 / 25,5393010,2019-09-08 13:36:52:249,-0.8558,0.7066,9.7415,0.0069,0.0019,9.8066,0.0047,0.0535,-0.0204,-24.31,-35.06,4.44,270.98,-80.45,-174.47
55795,52.486763,-1.366427,171.58,9.75,4,79.05,23 / 25,5393110,2019-09-08 13:36:52:349,-0.4392,0.4771,9.3448,-0.0449,0.0052,9.8065,0.0316,0.0851,-0.0328,-24.69,-34.87,4.06,270.8,-80.45,-174.83
55796,52.486763,-1.366427,171.58,9.75,4,79.05,23 / 25,5393209,2019-09-08 13:36:52:448,-1.7151,0.5664,9.9848,-0.0523,-0.0039,9.8065,0.042,0.0811,-0.0913,-23.81,-34.94,3.88,270.83,-80.92,-175.34
55797,52.486763,-1.366427,171.58,9.75,4,79.05,23 / 25,5393310,2019-09-08 13:36:52:549,-0.5091,0.5245,10.2856,0.0107,0.0072,9.8066,0.0035,0.0493,0.0034,-24.19,-35.31,3.81,270.14,-81.02,-176.17
55798,52.486763,-1.366427,171.58,9.75,4,79.05,23 / 25,5393410,2019-09-08 13:36:52:649,-0.6235,1.893,9.7416,-0.0039,0.006,9.8066,0.0325,0.1113,-0.1179,-23.81,-35.56,3.31,266.73,-81.1,-176.98
55799,52.486763,-1.366427,171.58,9.75,4,79.05,23 / 25,5393509,2019-09-08 13:36:52:748,-0.6821,0.9239,10.3823,0.0052,0.0055,9.8066,0.098,0.091,-0.0156,-23.94,-35.81,3.31,265.31,-81.13,-178.49
55800,52.486763,-1.366427,171.58,9.75,4,79.05,23 / 25,5393610,2019-09-08 13:36:52:849,-0.4349,1.2426,10.5323,-0.0185,0.004,9.8065,0.1374,0.0815,-0.0018,-23.69,-35.31,3.13,265.04,-81.12,-179.13
55801,52.486763,-1.366427,171.58,9.75,4,79.05,26 / 26,5393710,2019-09-08 13:36:52:949,-0.8762,-0.0669,10.6196,0.0241,0.0005,9.8066,-0.1191,0.1547,-0.0508,-24.06,-34.81,2.5,264.89,-81.07,-179.2
55802,52.486763,-1.366427,171.58,9.75,4,79.05,26 / 26,5393810,2019-09-08 13:36:53:049,-0.8616,0.4182,10.0995,0.0199,-0.0035,9.8066,-0.0796,0.1532,-0.0639,-24.06,-33.81,3.19,264.77,-80.88,-179.44
55803,52.486763,-1.366427,171.58,9.75,4,79.05,26 / 26,5393910,2019-09-08 13:36:53:149,-0.8481,0.6783,10.6359,0.0294,-0.0098,9.8065,0.0969,0.1255,0.007,-24.5,-33.56,3.0,264.85,-80.82,-179.26
55804,52.486763,-1.366427,171.58,9.75,4,79.05,26 / 26,5394010,2019-09-08 13:36:53:249,-0.205,1.1055,10.6945,0.0312,0.0,9.8065,0.0433,0.1365,-0.0393,-24.44,-33.94,3.31,265.24,-80.55,-178.46
55805,52.486763,-1.366427,171.58,9.75,4,79.05,26 / 26,5394110,2019-09-08 13:36:53:349,-1.1797,1.5528,10.3217,-0.0115,-0.0036,9.8066,-0.1006,0.0731,-0.0046,-23.69,-34.19,2.75,265.3,-80.56,-178.43
55806,52.486763,-1.366427,171.58,9.75,4,79.05,26 / 26,5394210,2019-09-08 13:36:53:449,-1.3624,1.2742,9.6241,-0.0017,-0.0151,9.8066,-0.0942,0.1184,-0.0374,-23.56,-34.69,3.13,265.16,-80.52,-178.1
55807,52.486763,-1.366427,171.58,9.75,4,79.05,26 / 26,5394310,2019-09-08 13:36:53:549,-1.0204,1.4296,9.7369,0.0042,0.009,9.8066,0.1152,0.0391,0.0143,-22.69,-35.44,2.25,262.88,-80.48,-177.57
55808,52.486763,-1.366427,171.58,9.75,4,79.05,26 / 26,5394410,2019-09-08 13:36:53:649,-0.806,1.3799,9.5705,0.0132,-0.0002,9.8066,0.0195,0.0286,0.0101,-23.31,-35.81,2.25,262.58,-80.44,-177.4
55809,52.486763,-1.366427,171.58,9.75,4,79.05,26 / 26,5394510,2019-09-08 13:36:53:749,-1.4023,-0.1084,9.6479,-0.0102,-0.0082,9.8066,-0.0512,0.0873,-0.0171,-22.62,-36.12,2.19,262.5,-80.49,-177.57
55810,52.486763,-1.366427,171.58,9.75,4,79.05,26 / 26,5394610,2019-09-08 13:36:53:849,-1.9599,0.2516,9.8166,-0.0144,-0.0091,9.8066,-0.0181,0.0073,0.0676,-23.0,-35.94,2.31,263.0,-80.52,-177.09
55811,52.486763,-1.366427,171.58,9.75,4,79.05,22 / 24,5394710,2019-09-08 13:36:53:949,-0.608,0.5524,9.5964,-0.0085,-0.0259,9.8065,-0.0028,0.0109,0.0844,-23.44,-35.37,2.31,264.86,-80.59,-175.69
55812,52.486763,-1.366427,171.58,9.75,4,79.05,22 / 24,5394810,2019-09-08 13:36:54:049,0.5272,-0.1041,9.6003,0.0167,-0.019,9.8066,0.0309,0.0061,0.0613,-24.37,-36.0,1.94,265.91,-80.57,-174.57
55813,52.486763,-1.366427,171.58,9.75,4,79.05,22 / 24,5394910,2019-09-08 13:36:54:149,-1.1576,-0.3928,9.6485,0.0076,-0.0062,9.8066,0.0369,0.0468,0.0228,-23.37,-35.37,2.06,267.5,-80.54,-172.89
55814,52.486763,-1.366427,171.58,9.75,4,79.05,22 / 24,5395009,2019-09-08 13:36:54:248,-0.6344,0.3452,10.1045,-0.0227,-0.0199,9.8065,-0.006,0.0336,0.0373,-24.5,-35.81,2.0,270.06,-80.76,-170.62
55815,52.486763,-1.366427,171.58,9.75,4,79.05,22 / 24,5395110,2019-09-08 13:36:54:349,0.1231,0.6119,10.4984,-0.0291,-0.0368,9.8065,0.0663,0.0105,0.0655,-23.56,-35.62,2.31,272.38,-80.8,-168.35
55816,52.486763,-1.366427,171.58,9.75,4,79.05,22 / 24,5395210,2019-09-08 13:36:54:449,1.451,0.5928,10.0674,0.0523,-0.0051,9.8064,0.1392,0.0019,0.0903,-23.69,-34.94,2.19,274.62,-80.83,-166.56
55817,52.486763,-1.366427,171.58,9.75,4,79.05,22 / 24,5395310,2019-09-08 13:36:54:549,-1.0793,0.1863,9.1975,0.0585,-0.0123,9.8064,-0.0758,-0.0089,-0.0175,-24.75,-35.69,1.56,275.61,-80.47,-165.01
55818,52.486763,-1.366427,171.58,9.75,4,79.05,22 / 24,5395410,2019-09-08 13:36:54:649,-0.6606,-0.7276,9.5901,-0.0373,-0.0178,9.8065,-0.0668,-0.0845,0.0448,-24.31,-35.31,2.0,275.75,-80.61,-165.1
55819,52.486763,-1.366427,171.58,9.75,4,79.05,22 / 24,5395510,2019-09-08 13:36:54:749,-0.4221,0.4656,10.1867,-0.0275,-0.0012,9.8066,0.0815,-0.0691,0.0277,-24.69,-35.75,1.63,276.49,-80.82,-164.67
55820,52.486763,-1.366427,171.58,9.75,4,79.05,22 / 24,5395610,2019-09-08 13:36:54:849,-1.146,0.0191,9.608,-0.0057,0.0016,9.8066,0.1081,0.0173,-0.0192,-24.06,-35.12,1.88,276.48,-80.71,-164.53
55821,52.486763,-1.366427,171.58,9.75,4,79.05,25 / 25,5395710,2019-09-08 13:36:54:949,-0.4612,0.0047,9.9551,0.0135,-0.0082,9.8066,0.0367,-0.006,0.0408,-24.94,-35.12,2.38,277.37,-80.62,-163.89
55822,52.486763,-1.366427,171.58,9.75,4,79.05,25 / 25,5395810,2019-09-08 13:36:55:049,0.5067,-0.6618,9.868,0.0072,-0.0118,9.8065,0.0463,-0.0718,0.0823,-24.62,-34.75,2.75,280.71,-80.63,-162.98
55823,52.486763,-1.366427,171.58,9.75,4,79.05,25 / 25,5395910,2019-09-08 13:36:55:149,-0.1531,-0.3937,9.5572,0.011,-0.0112,9.8066,-0.0378,-0.0774,0.0921,-25.75,-35.31,2.5,282.13,-80.6,-161.8
55824,52.486763,-1.366427,171.58,9.75,4,79.05,25 / 25,5396010,2019-09-08 13:36:55:249,-1.0832,-0.2869,9.7805,-0.0094,-0.0001,9.8066,-0.0722,-0.0022,-0.0324,-25.69,-35.0,2.31,280.86,-80.65,-160.87
55825,52.486763,-1.366427,171.58,9.75,4,79.05,25 / 25,5396113,2019-09-08 13:36:55:352,0.0159,-0.7024,9.6811,-0.0097,-0.0133,9.8066,0.0749,-0.0792,0.0385,-24.56,-34.75,2.06,281.59,-80.74,-159.96
55826,52.486763,-1.366427,171.58,9.75,4,79.05,25 / 25,5396210,2019-09-08 13:36:55:449,-0.3124,-0.1671,10.1534,0.039,-0.0121,9.8066,0.1397,-0.0867,0.0365,-25.94,-34.87,2.88,284.71,-80.69,-159.45
55827,52.486763,-1.366427,171.58,9.75,4,79.05,25 / 25,5396310,2019-09-08 13:36:55:549,-1.2634,-0.9083,10.2419,0.0441,-0.0085,9.8064,-0.1025,-0.1042,0.0999,-25.75,-34.87,2.31,283.21,-80.71,-158.68
55828,52.486763,-1.366427,171.58,9.75,4,79.05,25 / 25,5396410,2019-09-08 13:36:55:649,-0.6886,-0.4252,9.4036,-0.0361,-0.0072,9.8065,-0.1032,-0.0331,0.0488,-26.12,-34.44,1.88,284.22,-80.75,-158.14
55829,52.486763,-1.366427,171.58,9.75,4,79.05,25 / 25,5396510,2019-09-08 13:36:55:749,-1.1449,-0.8172,10.9295,-0.0242,-0.0173,9.8065,0.1479,-0.0946,0.0596,-25.81,-34.37,3.19,288.06,-80.9,-156.91
55830,52.486763,-1.366427,171.58,9.75,4,79.05,25 / 25,5396610,2019-09-08 13:36:55:849,0.9801,-0.9624,10.2399,0.0264,0.0033,9.8065,0.2043,-0.1072,0.0723,-25.87,-34.37,2.56,288.84,-80.76,-155.99
55831,52.486763,-1.366427,171.58,9.75,4,79.05,25 / 25,5396710,2019-09-08 13:36:55:949,-0.3256,-0.6177,11.4051,0.0263,-0.0239,9.8065,-0.0695,-0.1062,0.0886,-26.62,-34.19,2.69,289.43,-80.46,-155.24
55832,52.486763,-1.366427,171.58,9.75,4,79.05,25 / 25,5396810,2019-09-08 13:36:56:049,-1.524,-0.7328,10.211,0.0285,-0.0243,9.8065,-0.0041,-0.1141,0.0443,-26.56,-34.37,3.44,290.33,-80.15,-154.0
55833,52.486763,-1.366427,171.58,9.75,4,79.05,25 / 25,5396910,2019-09-08 13:36:56:149,-1.5056,-1.1631,9.4068,0.0103,-0.0002,9.8066,0.0908,-0.1211,0.0238,-27.44,-34.19,3.0,290.26,-80.02,-153.9
55834,52.486763,-1.366427,171.58,9.75,4,79.05,25 / 25,5397010,2019-09-08 13:36:56:249,-1.6744,-0.8216,9.5629,-0.0215,-0.0102,9.8066,-0.0228,-0.1079,0.0349,-26.94,-33.69,3.81,292.37,-79.75,-153.73
55835,52.486763,-1.366427,171.58,9.75,4,79.05,25 / 25,5397110,2019-09-08 13:36:56:349,0.7283,-1.3248,10.7943,-0.0607,-0.0003,9.8064,0.1791,-0.083,-0.0005,-27.69,-34.31,4.63,295.29,-79.78,-153.28
55836,52.486763,-1.366427,171.58,9.75,4,79.05,25 / 25,5397210,2019-09-08 13:36:56:449,-0.2938,-0.1097,10.8068,0.0577,0.0177,9.8064,0.1763,-0.0749,0.0112,-26.62,-33.56,4.5,294.1,-79.81,-154.35
55837,52.486763,-1.366427,171.58,9.75,4,79.05,25 / 25,5397309,2019-09-08 13:36:56:548,-1.5426,-0.592,10.1442,0.0375,0.0294,9.8064,-0.0647,-0.0921,-0.0329,-26.69,-34.44,4.63,291.44,-79.68,-156.64
55838,52.486763,-1.366427,171.58,9.75,4,79.05,25 / 25,5397410,2019-09-08 13:36:56:649,-1.1184,-0.7482,9.3624,-0.0296,0.0184,9.8066,-0.0974,-0.0675,-0.0372,-26.5,-33.87,4.56,290.18,-79.88,-158.02
55839,52.486763,-1.366427,171.58,9.75,4,79.05,25 / 25,5397510,2019-09-08 13:36:56:749,0.2648,-1.0807,10.1229,-0.0124,0.0332,9.8066,0.0863,-0.0728,-0.1075,-26.12,-34.19,4.81,287.84,-79.85,-160.15
55840,52.486763,-1.366427,171.58,9.75,4,79.05,25 / 25,5397610,2019-09-08 13:36:56:849,1.0859,-0.4466,9.6391,0.0386,0.0273,9.8065,0.0026,-0.0446,-0.0421,-26.0,-34.81,5.13,285.23,-79.89,-162.3
55841,52.486763,-1.366427,171.58,9.75,4,79.05,25 / 25,5397710,2019-09-08 13:36:56:949,-1.845,-1.4973,9.3607,0.0182,0.019,9.8066,0.203,-0.1802,0.0833,-26.19,-34.94,5.25,282.97,-79.84,-164.38
55842,52.486763,-1.366427,171.58,9.75,4,79.05,25 / 25,5397809,2019-09-08 13:36:57:048,-0.6237,-1.275,10.6443,0.0011,-0.0019,9.8066,0.19,-0.1343,0.0034,-25.81,-35.31,6.13,285.0,-79.98,-164.84
55843,52.486763,-1.366427,171.58,9.75,4,79.05,25 / 25,5397910,2019-09-08 13:36:57:149,-0.1421,-0.5338,10.2831,-0.0247,0.0202,9.8066,-0.0365,-0.1372,0.0876,-26.44,-34.81,6.06,284.34,-80.19,-165.77
55844,52.486763,-1.366427,171.58,9.75,4,79.05,25 / 25,5398010,2019-09-08 13:36:57:249,-1.0127,0.0665,9.8117,0.0266,0.0021,9.8066,0.0778,-0.1174,0.0327,-25.31,-34.81,6.06,283.86,-80.07,-166.06
55845,52.486763,-1.366427,171.58,9.75,4,79.05,25 / 25,5398110,2019-09-08 13:36:57:349,-0.7665,-0.5391,9.5394,0.0267,0.004,9.8066,-0.0938,-0.2032,0.1472,-25.87,-35.0,5.56,283.81,-80.21,-166.3
55846,52.486763,-1.366427,171.58,9.75,4,79.05,25 / 25,5398210,2019-09-08 13:36:57:449,-1.8789,-0.7835,9.0916,-0.0459,0.006,9.8065,-0.167,-0.0921,0.0106,-25.37,-34.75,5.88,283.59,-80.31,-166.67
55847,52.486763,-1.366427,171.58,9.75,4,79.05,25 / 25,5398309,2019-09-08 13:36:57:548,-0.7367,-1.0059,9.9421,-0.0391,0.0017,9.8065,0.1122,-0.1407,-0.0179,-25.81,-34.5,6.63,286.96,-80.69,-166.48
55848,52.486763,-1.366427,171.58,9.75,4,79.05,25 / 25,5398409,2019-09-08 13:36:57:648,-2.2156,-1.1951,10.1808,0.0101,0.0078,9.8066,0.0496,-0.1729,0.015,-26.25,-34.25,6.5,286.5,-80.81,-167.07
55849,52.486763,-1.366427,171.58,9.75,4,79.05,25 / 25,5398510,2019-09-08 13:36:57:749,-1.2403,2.738,9.4344,-0.0366,0.0255,9.8065,0.0875,-0.27,0.1047,-25.56,-34.62,6.94,284.74,-81.06,-168.76
55850,52.486763,-1.366427,171.58,9.75,4,79.05,25 / 25,5398610,2019-09-08 13:36:57:849,-0.5956,-0.9779,11.0252,0.0176,-0.0011,9.8066,-0.1343,-0.1183,0.0124,-25.94,-34.0,7.0,285.43,-80.9,-168.22
55851,52.486763,-1.366427,171.58,9.75,4,79.05,25 / 25,5398710,2019-09-08 13:36:57:949,-3.352,-1.5369,9.1168,0.0294,0.0232,9.8065,0.2464,-0.0928,-0.0511,-26.75,-34.62,7.69,286.12,-80.95,-169.24
55852,52.486763,-1.366427,171.58,9.75,4,79.05,25 / 25,5398809,2019-09-08 13:36:58:048,-1.6775,-0.1535,9.7067,-0.0178,0.0175,9.8065,0.2243,-0.1378,-0.0291,-25.56,-33.94,7.69,286.01,-80.89,-169.8
55853,52.486763,-1.366427,171.58,9.75,4,79.05,25 / 25,5398910,2019-09-08 13:36:58:149,-0.9407,0.0569,10.3385,-0.0156,0.0149,9.8066,-0.1164,-0.1879,0.0027,-26.37,-34.0,7.19,282.3,-80.95,-171.3
55854,52.486763,-1.366427,171.58,9.75,4,79.05,25 / 25,5399009,2019-09-08 13:36:58:248,-2.1503,-0.8599,9.3729,0.0146,0.0014,9.8066,-0.1704,-0.1846,0.038,-26.06,-33.87,8.06,284.38,-80.88,-171.35
55855,52.486763,-1.366427,171.58,9.75,4,79.05,25 / 25,5399110,2019-09-08 13:36:58:349,-2.5089,-0.9295,9.4867,0.0094,0.0063,9.8066,0.1453,-0.069,-0.0517,-25.5,-33.87,8.38,283.83,-80.83,-172.03
55856,52.486763,-1.366427,171.58,9.75,4,79.05,25 / 25,5399210,2019-09-08 13:36:58:449,-0.6934,-0.7473,10.3772,-0.0277,0.018,9.8065,0.1101,-0.1053,-0.0015,-26.12,-34.06,7.75,282.82,-81.1,-173.14
55857,52.486763,-1.366427,171.58,9.75,4,79.05,25 / 25,5399310,2019-09-08 13:36:58:549,-0.6975,0.4893,10.3093,-0.0248,0.0,9.8066,-0.0172,-0.104,0.0375,-25.62,-34.44,8.69,284.88,-81.15,-173.34
55858,52.486763,-1.366427,171.58,9.75,4,79.05,25 / 25,5399410,2019-09-08 13:36:58:649,-0.8182,-0.8262,10.3475,0.0338,-0.0085,9.8065,-0.0197,-0.1375,0.0718,-25.44,-34.12,8.88,284.89,-81.27,-173.8
55859,52.486763,-1.366427,171.58,9.75,4,79.05,25 / 25,5399510,2019-09-08 13:36:58:749,-2.0439,-0.1203,9.7303,0.0374,-0.0018,9.8066,0.0061,-0.0846,-0.0183,-25.69,-35.06,8.75,283.61,-81.09,-174.15
55860,52.486763,-1.366427,171.58,9.75,4,79.05,25 / 25,5399610,2019-09-08 13:36:58:849,-1.3527,0.0878,9.9136,-0.0253,0.0033,9.8066,0.0218,-0.1069,0.0157,-26.06,-34.19,8.5,283.55,-81.12,-174.58
55861,52.486763,-1.366427,171.58,9.75,4,79.05,23 / 23,5399710,2019-09-08 13:36:58:949,-0.9964,0.2171,10.1227,-0.0283,0.0073,9.8066,0.0167,-0.1219,0.0294,-25.87,-33.94,9.56,285.98,-81.27,-174.52
55862,52.486763,-1.366427,171.58,9.75,4,79.05,23 / 23,5399809,2019-09-08 13:36:59:048,-1.5462,-0.048,9.9184,0.0118,-0.0008,9.8066,-0.0019,-0.0944,0.0112,-25.44,-34.44,8.94,283.83,-81.24,-174.78
55863,52.486763,-1.366427,171.58,9.75,4,79.05,23 / 23,5399910,2019-09-08 13:36:59:149,-1.8194,-0.1733,9.7504,-0.0002,0.0066,9.8066,0.0855,-0.0561,-0.0336,-26.19,-33.87,8.44,281.24,-81.29,-174.92
55864,52.486763,-1.366427,171.58,9.75,4,79.05,23 / 23,5400010,2019-09-08 13:36:59:249,-0.8558,0.4333,9.5023,-0.0009,-0.0004,9.8065,0.0748,-0.0916,-0.0005,-25.69,-34.0,9.0,283.12,-81.32,-175.25
55865,52.486763,-1.366427,171.58,9.75,4,79.05,23 / 23,5400110,2019-09-08 13:36:59:349,-1.5548,0.255,9.9744,0.0003,-0.0064,9.8066,0.003,-0.0737,0.0353,-25.94,-34.06,9.69,285.92,-81.36,-174.68
55866,52.486763,-1.366427,171.58,9.75,4,79.05,23 / 23,5400210,2019-09-08 13:36:59:449,-1.8443,0.5424,9.3807,-0.017,-0.0031,9.8066,-0.0755,-0.0327,-0.0135,-25.87,-34.37,9.44,283.23,-81.39,-175.23
55867,52.486763,-1.366427,171.58,9.75,4,79.05,23 / 23,5400310,2019-09-08 13:36:59:549,-1.812,0.517,9.8818,-0.0197,-0.0043,9.8066,0.0815,-0.0673,0.0411,-26.12,-34.31,9.31,283.9,-81.52,-174.75
55868,52.486763,-1.366427,171.58,9.75,4,79.05,23 / 23,5400410,2019-09-08 13:36:59:649,-1.2733,0.3652,10.0733,0.0292,-0.0011,9.8065,0.0902,-0.02,-0.0114,-25.5,-34.12,9.38,283.97,-81.37,-174.82
55869,52.486763,-1.366427,171.58,9.75,4,79.05,23 / 23,5400510,2019-09-08 13:36:59:749,-1.7601,0.4149,10.0431,0.0171,0.004,9.8066,-0.0107,-0.0224,0.005,-25.25,-34.56,9.69,285.44,-81.4,-175.28
55870,52.486763,-1.366427,171.58,9.75,4,79.05,23 / 23,5400610,2019-09-08 13:36:59:849,-1.7358,0.4686,9.8867,0.0084,0.0153,9.8066,0.0031,-0.0349,-0.0336,-25.0,-35.0,9.5,284.81,-81.39,-175.86
55871,52.48692,-1.365438,171.61,4.3,3,91.17,25 / 25,5400710,2019-09-08 13:36:59:949,-1.7777,0.7203,9.3951,-0.0008,0.0139,9.8066,-0.0014,-0.0319,-0.0063,-25.75,-34.75,9.63,283.13,-81.35,-177.04
55872,52.48692,-1.365438,171.61,4.3,3,91.17,25 / 25,5400809,2019-09-08 13:37:00:048,-1.2223,0.8102,9.6328,-0.0055,0.0027,9.8066,0.0182,-0.0187,0.0249,-25.31,-34.56,9.5,282.63,-81.45,-178.04
55873,52.48692,-1.365438,171.61,4.3,3,91.17,25 / 25,5400910,2019-09-08 13:37:00:149,-0.2518,0.3389,10.1417,-0.0087,-0.0047,9.8066,0.0238,-0.0055,0.0389,-25.44,-34.44,10.0,283.17,-81.56,-177.98
55874,52.48692,-1.365438,171.61,4.3,3,91.17,25 / 25,5401010,2019-09-08 13:37:00:249,-0.9796,-0.062,10.1867,0.0041,-0.0056,9.8066,0.0377,-0.0345,0.0413,-25.5,-35.19,10.13,283.97,-81.53,-176.86
55875,52.48692,-1.365438,171.61,4.3,3,91.17,25 / 25,5401110,2019-09-08 13:37:00:349,-0.7507,0.3192,9.6154,0.0034,0.01,9.8066,-0.0652,-0.022,-0.0472,-25.19,-34.37,9.56,283.97,-81.51,-177.15
55876,52.48692,-1.365438,171.61,4.3,3,91.17,25 / 25,5401210,2019-09-08 13:37:00:449,-0.0906,-0.3883,9.5101,-0.008,0.0164,9.8066,-0.0216,-0.0352,-0.0079,-25.75,-33.75,9.5,282.99,-81.55,-177.75
55877,52.48692,-1.365438,171.61,4.3,3,91.17,25 / 25,5401310,2019-09-08 13:37:00:549,-0.0772,0.2817,9.4503,-0.0075,0.0139,9.8066,-0.0298,-0.0187,-0.0318,-24.94,-33.94,9.69,282.01,-81.81,-179.44
55878,52.48692,-1.365438,171.61,4.3,3,91.17,25 / 25,5401410,2019-09-08 13:37:00:649,-0.2525,0.5119,9.8883,-0.0158,0.0116,9.8066,0.0258,-0.0258,-0.0071,-24.75,-34.31,9.81,281.56,-81.92,179.98
55879,52.48692,-1.365438,171.61,4.3,3,91.17,25 / 25,5401510,2019-09-08 13:37:00:749,0.329,0.2488,9.8238,-0.0051,0.0025,9.8066,0.0333,-0.0227,0.0318,-25.12,-34.62,9.63,280.84,-82.01,179.46
55880,52.48692,-1.365438,171.61,4.3,3,91.17,25 / 25,5401610,2019-09-08 13:37:00:849,-0.3312,-0.1662,9.6894,-0.0038,-0.0072,9.8066,-0.0277,0.0074,0.0094,-24.56,-33.94,9.38,279.74,-81.97,-179.72
55881,52.48692,-1.365438,171.61,4.3,3,91.17,24 / 24,5401711,2019-09-08 13:37:00:950,0.4241,-0.7193,10.1515,-0.0076,-0.0114,9.8066,0.0268,-0.0225,-0.0039,-25.31,-34.12,9.63,282.72,-82.01,-179.02
55882,52.48692,-1.365438,171.61,4.3,3,91.17,24 / 24,5401811,2019-09-08 13:37:01:050,-0.2069,-0.0254,9.6161,0.016,-0.0042,9.8066,-0.0602,-0.0437,0.0046,-25.0,-34.31,9.94,282.84,-82.21,-179.15
55883,52.48692,-1.365438,171.61,4.3,3,91.17,24 / 24,5401910,2019-09-08 13:37:01:149,-0.3335,0.1251,9.4862,0.0197,0.0009,9.8066,-0.0909,-0.0424,0.0046,-24.94,-34.19,10.13,282.7,-82.15,-179.21
55884,52.48692,-1.365438,171.61,4.3,3,91.17,24 / 24,5402010,2019-09-08 13:37:01:249,-0.3603,-0.1898,9.6248,-0.0253,-0.0064,9.8065,0.0897,-0.0464,0.0146,-24.69,-34.25,9.75,283.04,-82.13,-178.85
55885,52.48692,-1.365438,171.61,4.3,3,91.17,24 / 24,5402110,2019-09-08 13:37:01:349,1.1857,-0.9334,10.2606,-0.0311,-0.0011,9.8066,0.1051,-0.0458,0.0331,-24.75,-33.87,9.69,284.15,-82.29,-177.99
55886,52.48692,-1.365438,171.61,4.3,3,91.17,24 / 24,5402210,2019-09-08 13:37:01:449,0.6659,-0.4963,9.7802,0.0066,-0.0067,9.8066,-0.0712,-0.0509,0.0063,-25.06,-33.69,9.88,285.17,-82.19,-176.88
55887,52.48692,-1.365438,171.61,4.3,3,91.17,24 / 24,5402310,2019-09-08 13:37:01:549,0.0633,0.0672,9.3786,0.0032,-0.0046,9.8066,-0.0503,-0.0543,-0.0242,-25.0,-33.62,10.31,285.54,-82.27,-176.62
55888,52.48692,-1.365438,171.61,4.3,3,91.17,24 / 24,5402410,2019-09-08 13:37:01:649,0.5192,-1.2652,9.9538,-0.004,0.003,9.8066,0.0454,-0.0913,0.0103,-24.87,-33.87,10.69,288.18,-82.29,-176.21
55889,52.48692,-1.365438,171.61,4.3,3,91.17,24 / 24,5402510,2019-09-08 13:37:01:749,0.7949,-0.7685,9.9674,-0.0027,0.0034,9.8066,0.066,-0.0839,-0.0003,-25.62,-34.0,10.5,287.28,-82.38,-176.66
55890,52.48692,-1.365438,171.61,4.3,3,91.17,24 / 24,5402610,2019-09-08 13:37:01:849,0.924,-0.4519,9.8446,0.0002,0.0013,9.8066,-0.0866,-0.1219,0.0139,-24.87,-34.06,10.44,285.26,-82.45,-177.13
55891,52.48692,-1.365438,171.61,4.3,3,91.17,24 / 24,5402710,2019-09-08 13:37:01:949,0.5443,-0.2248,9.3966,0.0032,0.0026,9.8066,-0.128,-0.0941,-0.05,-25.06,-33.94,10.94,287.46,-82.52,-177.18
55892,52.48692,-1.365438,171.61,4.3,3,91.17,24 / 24,5402810,2019-09-08 13:37:02:049,0.0469,-0.7732,10.2793,-0.0186,-0.0051,9.8065,0.0268,-0.0828,-0.0429,-24.81,-33.94,11.31,287.99,-82.69,-176.89
55893,52.48692,-1.365438,171.61,4.3,3,91.17,24 / 24,5402910,2019-09-08 13:37:02:149,1.0134,-0.1867,9.8776,-0.0234,0.0091,9.8066,0.046,-0.0821,-0.0342,-25.0,-34.12,10.56,287.9,-82.81,-177.12
55894,52.48692,-1.365438,171.61,4.3,3,91.17,24 / 24,5403010,2019-09-08 13:37:02:249,0.5565,-0.8388,9.5617,0.0098,-0.0061,9.8066,-0.0727,-0.0866,0.0114,-24.94,-34.31,11.25,287.64,-82.86,-177.44
55895,52.48692,-1.365438,171.61,4.3,3,91.17,24 / 24,5403110,2019-09-08 13:37:02:349,0.6284,-0.6772,9.7177,0.0272,0.002,9.8066,-0.0497,-0.0943,-0.0149,-25.19,-34.0,11.75,289.08,-82.79,-178.0
55896,52.48692,-1.365438,171.61,4.3,3,91.17,24 / 24,5403210,2019-09-08 13:37:02:449,0.2615,-0.4077,9.8691,-0.0105,0.0107,9.8066,0.0281,-0.0991,-0.0178,-24.81,-34.37,11.69,287.9,-82.86,-179.21
55897,52.48692,-1.365438,171.61,4.3,3,91.17,24 / 24,5403310,2019-09-08 13:37:02:549,1.6452,-0.7956,9.9312,0.0014,0.0189,9.8066,0.0452,-0.0983,-0.0764,-24.75,-34.94,11.5,285.86,-82.86,179.08
55898,52.48692,-1.365438,171.61,4.3,3,91.17,24 / 24,5403410,2019-09-08 13:37:02:649,0.7939,0.2411,10.2907,-0.0005,0.008,9.8066,0.0575,-0.1091,-0.0093,-24.0,-34.62,11.31,282.7,-82.66,177.76
55899,52.48692,-1.365438,171.61,4.3,3,91.17,24 / 24,5403510,2019-09-08 13:37:02:749,0.8029,-0.4453,9.9065,-0.0023,0.0078,9.8066,0.0887,-0.1139,0.0102,-24.62,-34.5,11.88,284.01,-82.67,177.27
55900,52.48692,-1.365438,171.61,4.3,3,91.17,24 / 24,5403610,2019-09-08 13:37:02:849,-0.5391,-0.1418,9.5678,0.0196,-0.0082,9.8066,-0.0568,-0.053,-0.0464,-24.19,-34.44,12.63,286.92,-82.66,177.44
55901,52.48692,-1.365438,171.61,4.3,3,91.17,24 / 24,5403710,2019-09-08 13:37:02:949,0.0755,-0.3763,9.7499,0.0257,-0.015,9.8066,-0.039,-0.0649,-0.0122,-23.75,-35.06,12.31,283.81,-82.42,177.06
55902,52.48692,-1.365438,171.61,4.3,3,91.17,25 / 25,5403810,2019-09-08 13:37:03:049,1.0518,-0.1371,9.522,0.0099,-0.0017,9.8066,0.0662,-0.077,0.0441,-24.12,-34.5,12.56,285.47,-82.3,176.49
55903,52.48692,-1.365438,171.61,4.3,3,91.17,25 / 25,5403910,2019-09-08 13:37:03:149,0.202,-0.3394,9.8951,0.0105,-0.0039,9.8066,-0.0087,-0.076,0.0294,-24.19,-34.12,13.19,285.32,-82.1,176.61
55904,52.48692,-1.365438,171.61,4.3,3,91.17,25 / 25,5404010,2019-09-08 13:37:03:249,0.4425,-0.1191,10.2546,0.0089,0.0008,9.8066,0.0506,-0.0691,0.0201,-23.94,-34.62,13.38,284.65,-82.05,176.31
55905,52.48692,-1.365438,171.61,4.3,3,91.17,25 / 25,5404109,2019-09-08 13:37:03:348,1.0807,-0.9318,10.2598,0.0097,-0.0001,9.8066,0.0484,-0.0761,0.0178,-23.56,-34.31,13.38,284.83,-81.98,176.29
55906,52.48692,-1.365438,171.61,4.3,3,91.17,25 / 25,5404210,2019-09-08 13:37:03:449,0.845,-0.1835,9.7333,0.0049,-0.0093,9.8066,-0.0475,-0.0456,0.0674,-24.25,-34.62,12.75,284.37,-81.95,176.17
55907,52.48692,-1.365438,171.61,4.3,3,91.17,25 / 25,5404310,2019-09-08 13:37:03:549,1.4841,-0.3459,10.0663,0.0096,-0.0302,9.8065,0.0629,-0.032,0.0673,-24.19,-34.0,13.38,286.43,-81.87,177.96
55908,52.48692,-1.365438,171.61,4.3,3,91.17,25 / 25,5404410,2019-09-08 13:37:03:649,0.1618,-0.2694,9.4729,-0.0162,-0.0251,9.8066,0.0004,-0.0307,0.0812,-25.19,-34.19,14.0,289.33,-81.78,179.57
55909,52.48692,-1.365438,171.61,4.3,3,91.17,25 / 25,5404510,2019-09-08 13:37:03:749,0.417,-0.5439,9.798,-0.0134,-0.0146,9.8066,-0.0264,-0.0512,0.0283,-24.81,-34.31,14.0,292.29,-81.71,-177.56
55910,52.48692,-1.365438,171.61,4.3,3,91.17,25 / 25,5404610,2019-09-08 13:37:03:849,0.8999,-0.492,10.2208,-0.0131,-0.0071,9.8066,0.0988,-0.0311,0.0376,-24.75,-33.69,13.81,294.08,-81.65,-175.81
55911,52.48692,-1.365438,171.61,4.3,3,91.17,24 / 25,5404710,2019-09-08 13:37:03:949,1.8012,0.2947,10.4854,-0.0281,-0.0131,9.8066,0.0332,0.0189,0.0117,-25.06,-34.12,14.0,295.47,-81.7,-174.57
55912,52.48692,-1.365438,171.61,4.3,3,91.17,24 / 25,5404810,2019-09-08 13:37:04:049,0.3978,-0.2998,9.9777,-0.0072,-0.0173,9.8066,-0.0891,-0.03,0.0686,-25.0,-34.25,13.75,297.15,-81.78,-173.1
55913,52.48692,-1.365438,171.61,4.3,3,91.17,24 / 25,5404910,2019-09-08 13:37:04:149,0.5646,0.1535,9.3359,0.0088,-0.0254,9.8065,-0.0872,-0.0026,0.0167,-26.0,-33.56,13.5,298.92,-81.78,-170.78
55914,52.48692,-1.365438,171.61,4.3,3,91.17,24 / 25,5405010,2019-09-08 13:37:04:249,0.4825,0.1823,9.6745,-0.0414,-0.0026,9.8065,0.1222,-0.0324,0.0044,-25.19,-33.62,14.06,301.16,-81.8,-169.44
55915,52.48692,-1.365438,171.61,4.3,3,91.17,24 / 25,5405110,2019-09-08 13:37:04:349,1.1585,-0.9081,10.0097,-0.0285,0.0066,9.8065,0.1096,-0.0881,0.0286,-25.62,-33.69,13.31,300.51,-82.02,-167.71
55916,52.48692,-1.365438,171.61,4.3,3,91.17,24 / 25,5405210,2019-09-08 13:37:04:449,2.1659,0.7213,9.7792,0.0047,0.018,9.8066,0.0092,0.0573,-0.119,-25.62,-33.5,13.38,300.98,-82.13,-167.63
55917,52.48692,-1.365438,171.61,4.3,3,91.17,24 / 25,5405309,2019-09-08 13:37:04:548,0.526,-0.1447,10.4618,0.0198,0.0085,9.8066,0.0721,-0.0641,0.0409,-25.06,-34.12,13.88,302.24,-82.3,-168.99
55918,52.48692,-1.365438,171.61,4.3,3,91.17,24 / 25,5405409,2019-09-08 13:37:04:648,-1.0041,0.7489,9.2319,-0.0547,0.0138,9.8065,0.0073,-0.0061,-0.009,-25.25,-34.0,12.31,298.85,-82.26,-168.2
