,GPS LATITUDE (degrees),GPS LONGITUDE (degrees), GPS ALTITUDE (m),GPS SPEED (Kmh),GPS ACCURACY (m),GPS ORIENTATION (Â°), SATELLITES IN RANGE, TIME SINCE START (ms), DATE (YYYY-MO-DD HH-MI-SS_SSS),ACCELEROMETER X (m/s²) , ACCELEROMETER Y (m/s²), ACCELEROMETER Z (m/s²), GRAVITY X (m/s²), GRAVITY Y (m/s²), GRAVITY Z (m/s²), GYROSCOPE Yaw (rad/s), GYROSCOPE Pitch (rad/s), GYROSCOPE Roll (rad/s)
34569,48.09902,-1.714483,68.59,24.07,9.648001,156.6,13 / 21,3457644,2019-08-18 16:11:20:181,-0.389,-0.0587,10.1553,-0.565,-0.3113,9.7854,-0.0077,-0.0013,0.0106
34570,48.09902,-1.714483,68.59,24.07,9.648001,156.6,13 / 21,3457743,2019-08-18 16:11:20:280,-0.4973,0.0557,9.6764,-0.5677,-0.309,9.7853,-0.0078,0.0083,0.0119
34571,48.09902,-1.714483,68.59,24.07,9.648001,156.6,13 / 21,3457843,2019-08-18 16:11:20:380,-0.6356,-0.1879,9.6321,-0.5739,-0.307,9.785,-0.0048,0.0058,0.0106
34572,48.09902,-1.714483,68.59,24.07,9.648001,156.6,13 / 21,3457944,2019-08-18 16:11:20:481,-0.6955,-0.1371,9.8464,-0.5746,-0.3074,9.785,-0.0132,0.002,0.0126
34573,48.09902,-1.714483,68.59,24.07,9.648001,156.6,13 / 21,3458044,2019-08-18 16:11:20:581,-1.1719,-0.2891,9.6752,-0.5923,-0.3109,9.7838,-0.0013,0.0065,0.0123
34574,48.09902,-1.714483,68.59,24.07,9.648001,156.6,Nov-21,3458144,2019-08-18 16:11:20:681,-0.7817,-0.5411,9.9601,-0.6034,-0.3029,9.7834,-0.0025,0.0083,0.0112
34575,48.09902,-1.714483,68.59,24.07,9.648001,156.6,Nov-21,3458243,2019-08-18 16:11:20:780,-0.9678,-0.1173,9.5848,-0.6208,-0.3083,9.7821,-0.0074,0.0094,0.0097
34576,48.09902,-1.714483,68.59,24.07,9.648001,156.6,Nov-21,3458343,2019-08-18 16:11:20:880,-0.9229,-0.2388,9.5944,-0.6257,-0.3108,9.7817,-0.0083,0.0002,0.009
34577,48.09902,-1.714483,68.59,24.07,9.648001,156.6,Nov-21,3458444,2019-08-18 16:11:20:981,-0.8774,-0.4304,9.6704,-0.6172,-0.3209,9.7819,-0.01,-0.019,0.0089
34578,48.09902,-1.714483,68.59,24.07,9.648001,156.6,Nov-21,3458543,2019-08-18 16:11:21:080,-0.9289,-0.2233,9.6926,-0.6151,-0.3152,9.7823,0.0054,-0.0138,0.0081
34579,48.09902,-1.714483,68.59,24.07,9.648001,156.6,Nov-21,3458643,2019-08-18 16:11:21:180,-0.7637,-0.3418,9.9936,-0.6118,-0.3153,9.7825,-0.0044,-0.0005,0.0085
34580,48.09902,-1.714483,68.59,24.07,9.648001,156.6,Nov-21,3458744,2019-08-18 16:11:21:281,-0.732,-0.2394,10.0445,-0.6167,-0.3169,9.7821,-0.0046,-0.0004,0.0087
34581,48.09902,-1.714483,68.59,24.07,9.648001,156.6,Nov-21,3458843,2019-08-18 16:11:21:380,-0.708,-0.1622,10.0792,-0.6225,-0.3206,9.7816,-0.0123,0.0001,0.009
34582,48.09902,-1.714483,68.59,24.07,9.648001,156.6,Nov-21,3458943,2019-08-18 16:11:21:480,-0.9169,-0.6967,10.0206,-0.6274,-0.3285,9.7811,-0.0165,-0.0062,0.0092
34583,48.09902,-1.714483,68.59,24.07,9.648001,156.6,Nov-21,3459043,2019-08-18 16:11:21:580,-0.9235,-0.1329,10.2636,-0.6234,-0.3322,9.7812,0.0002,-0.0107,0.0092
34584,48.09902,-1.714483,68.59,24.07,9.648001,156.6,Oct-21,3459143,2019-08-18 16:11:21:680,-0.3507,-0.2173,9.5735,-0.6188,-0.3297,9.7816,0.0003,-0.0097,0.0108
34585,48.09902,-1.714483,68.59,24.07,9.648001,156.6,Oct-21,3459244,2019-08-18 16:11:21:781,-0.7002,-0.1071,9.6309,-0.6205,-0.3248,9.7816,-0.0115,-0.0035,0.01
34586,48.09902,-1.714483,68.59,24.07,9.648001,156.6,Oct-21,3459343,2019-08-18 16:11:21:880,-0.8176,-0.2729,9.4496,-0.619,-0.327,9.7816,-0.0102,-0.004,0.0088
34587,48.09902,-1.714483,68.59,24.07,9.648001,156.6,Oct-21,3459443,2019-08-18 16:11:21:980,-0.8104,-0.0437,9.9344,-0.6149,-0.3252,9.7819,0.003,-0.0058,0.0092
34588,48.09902,-1.714483,68.59,24.07,9.648001,156.6,Oct-21,3459543,2019-08-18 16:11:22:080,-0.7356,-0.3909,9.8183,-0.6065,-0.3257,9.7825,-0.016,-0.0093,0.0087
34589,48.09902,-1.714483,68.59,24.07,9.648001,156.6,Oct-21,3459643,2019-08-18 16:11:22:180,-0.9995,-0.0491,9.4484,-0.5998,-0.3335,9.7826,-0.0088,-0.0031,0.0078
34590,48.09902,-1.714483,68.59,24.07,9.648001,156.6,Oct-21,3459743,2019-08-18 16:11:22:280,-0.4393,-0.2221,10.4396,-0.5981,-0.3317,9.7828,0.0011,-0.0119,0.0099
34591,48.09902,-1.714483,68.59,24.07,9.648001,156.6,Oct-21,3459843,2019-08-18 16:11:22:380,-0.7242,-0.1251,9.6938,-0.5847,-0.3256,9.7838,-0.002,-0.0058,0.0092
34592,48.09902,-1.714483,68.59,24.07,9.648001,156.6,Oct-21,3459944,2019-08-18 16:11:22:481,-0.6985,-0.2113,10.2091,-0.583,-0.3251,9.7839,-0.0101,-0.0121,0.0074
34593,48.09902,-1.714483,68.59,24.07,9.648001,156.6,Oct-21,3460043,2019-08-18 16:11:22:580,-0.8493,-0.1796,10.1439,-0.5741,-0.3286,9.7843,-0.0044,-0.0039,0.0082
34594,48.09902,-1.714483,68.59,24.07,9.648001,156.6,Oct-20,3460144,2019-08-18 16:11:22:681,-0.6093,-0.073,10.0146,-0.5775,-0.3267,9.7842,-0.0103,0.0086,0.0103
34595,48.09902,-1.714483,68.59,24.07,9.648001,156.6,Oct-20,3460243,2019-08-18 16:11:22:780,-0.48,-0.0443,9.4155,-0.5847,-0.33,9.7836,-0.0131,0.0046,0.0084
34596,48.09902,-1.714483,68.59,24.07,9.648001,156.6,Oct-20,3460343,2019-08-18 16:11:22:880,-0.8313,-0.313,9.6004,-0.6045,-0.3367,9.7822,-0.0134,-0.0013,0.0084
34597,48.09902,-1.714483,68.59,24.07,9.648001,156.6,Oct-20,3460443,2019-08-18 16:11:22:980,-0.7218,-0.2209,9.7339,-0.6036,-0.344,9.782,-0.0096,-0.0113,0.0086
34598,48.09902,-1.714483,68.59,24.07,9.648001,156.6,Oct-20,3460543,2019-08-18 16:11:23:080,-0.8954,-0.4687,10.2738,-0.6036,-0.3403,9.7821,0.0067,-0.0108,0.0102
34599,48.09902,-1.714483,68.59,24.07,9.648001,156.6,Oct-20,3460643,2019-08-18 16:11:23:180,-0.6763,-0.3268,9.841,-0.5989,-0.3361,9.7826,0.0073,-0.0105,0.011
34600,48.09902,-1.714483,68.59,24.07,9.648001,156.6,Oct-20,3460744,2019-08-18 16:11:23:281,-0.8164,-0.337,9.7632,-0.608,-0.3345,9.7821,-0.0171,0.0057,0.0076
34601,48.09902,-1.714483,68.59,24.07,9.648001,156.6,Oct-20,3460844,2019-08-18 16:11:23:381,-0.7284,-0.2221,9.4705,-0.6154,-0.3446,9.7813,-0.0232,0.009,0.0069
34602,48.09902,-1.714483,68.59,24.07,9.648001,156.6,Oct-20,3460943,2019-08-18 16:11:23:480,-0.9008,-0.1981,9.7093,-0.6166,-0.3665,9.7804,-0.012,-0.0239,0.007
34603,48.09902,-1.714483,68.59,24.07,9.648001,156.6,Oct-20,3461043,2019-08-18 16:11:23:580,-0.7104,-0.3825,9.759,-0.6071,-0.3724,9.7808,-0.0057,-0.0031,0.0087
34604,48.09902,-1.714483,68.59,24.07,9.648001,156.6,Dec-22,3461144,2019-08-18 16:11:23:681,-0.8481,-0.3609,10.2127,-0.6164,-0.3731,9.7801,0.0019,0.0069,0.0098
34605,48.09902,-1.714483,68.59,24.07,9.648001,156.6,Dec-22,3461243,2019-08-18 16:11:23:780,-0.8631,-0.228,10.3438,-0.6177,-0.369,9.7802,0.0035,-0.0098,0.0108
34606,48.09902,-1.714483,68.59,24.07,9.648001,156.6,Dec-22,3461343,2019-08-18 16:11:23:880,-1.1007,-0.2245,9.9715,-0.6117,-0.3603,9.7809,0.0073,-0.0038,0.0085
34607,48.09902,-1.714483,68.59,24.07,9.648001,156.6,Dec-22,3461443,2019-08-18 16:11:23:980,-0.8571,-0.3244,10.0116,-0.6156,-0.359,9.7807,-0.0061,-0.0034,0.0088
34608,48.09902,-1.714483,68.59,24.07,9.648001,156.6,Dec-22,3461543,2019-08-18 16:11:24:080,-0.7032,-0.1484,9.7692,-0.6319,-0.3657,9.7794,-0.0121,0.0038,0.0108
34609,48.09902,-1.714483,68.59,24.07,9.648001,156.6,Dec-22,3461643,2019-08-18 16:11:24:180,-0.638,-0.2693,9.6788,-0.6359,-0.3732,9.7789,-0.0143,-0.0003,0.0102
34610,48.09902,-1.714483,68.59,24.07,9.648001,156.6,Dec-22,3461743,2019-08-18 16:11:24:280,-1.0767,-0.3944,9.5112,-0.6345,-0.3862,9.7785,-0.0058,-0.0082,0.0084
34611,48.09902,-1.714483,68.59,24.07,9.648001,156.6,Dec-22,3461843,2019-08-18 16:11:24:380,-0.5356,-0.1939,9.7854,-0.6326,-0.3869,9.7786,0.0026,-0.0056,0.0096
34612,48.09902,-1.714483,68.59,24.07,9.648001,156.6,Dec-22,3461943,2019-08-18 16:11:24:480,-0.9977,-0.4453,9.6052,-0.6363,-0.38,9.7786,-0.0074,-0.0017,0.0097
34613,48.09902,-1.714483,68.59,24.07,9.648001,156.6,Dec-22,3462043,2019-08-18 16:11:24:580,-0.5602,-0.0491,9.9589,-0.6353,-0.38,9.7787,-0.0041,-0.0079,0.0106
34614,48.097336,-1.71324,69.72,23.46,9.648001,151.5,Dec-22,3462143,2019-08-18 16:11:24:680,-0.7362,0.006,9.9978,-0.6291,-0.3782,9.7791,0.0018,-0.0101,0.0092
34615,48.097336,-1.71324,69.72,23.46,9.648001,151.5,Dec-22,3462243,2019-08-18 16:11:24:780,-0.5638,-0.1802,9.8817,-0.6214,-0.3724,9.7799,-0.0006,-0.0097,0.0101
34616,48.097336,-1.71324,69.72,23.46,9.648001,151.5,Dec-22,3462343,2019-08-18 16:11:24:880,-0.6799,-0.2526,9.4083,-0.609,-0.3652,9.7809,-0.0048,-0.0061,0.0088
34617,48.097336,-1.71324,69.72,23.46,9.648001,151.5,Dec-22,3462443,2019-08-18 16:11:24:980,-0.869,0.0868,9.3376,-0.6093,-0.367,9.7808,-0.0123,0.002,0.0094
34618,48.097336,-1.71324,69.72,23.46,9.648001,151.5,Dec-22,3462543,2019-08-18 16:11:25:080,-0.568,-0.1844,9.5789,-0.6132,-0.3769,9.7802,-0.0201,-0.004,0.009
34619,48.097336,-1.71324,69.72,23.46,9.648001,151.5,Dec-22,3462644,2019-08-18 16:11:25:181,-0.6805,-0.2526,9.7405,-0.6153,-0.3852,9.7797,-0.0104,-0.0001,0.0088
34620,48.097336,-1.71324,69.72,23.46,9.648001,151.5,Dec-22,3462743,2019-08-18 16:11:25:280,-0.5548,0.1,9.519,-0.6074,-0.3895,9.7801,-0.0052,-0.006,0.0084
34621,48.097336,-1.71324,69.72,23.46,9.648001,151.5,Dec-22,3462843,2019-08-18 16:11:25:380,-0.7272,-0.0916,10.163,-0.6069,-0.3837,9.7803,0.0057,0.0016,0.0106
34622,48.097336,-1.71324,69.72,23.46,9.648001,151.5,Dec-22,3462943,2019-08-18 16:11:25:480,-0.3698,0.0581,10.1786,-0.5884,-0.3721,9.7819,-0.0015,-0.0144,0.0094
34623,48.097336,-1.71324,69.72,23.46,9.648001,151.5,Dec-22,3463043,2019-08-18 16:11:25:580,-0.6051,-0.173,9.9266,-0.5852,-0.373,9.7821,-0.0113,-0.0035,0.0075
34624,48.097336,-1.71324,69.72,23.46,9.648001,151.5,Dec-22,3463143,2019-08-18 16:11:25:680,-0.4351,-0.0551,10.0338,-0.5824,-0.3816,9.7819,-0.0096,-0.0031,0.008
34625,48.097336,-1.71324,69.72,23.46,9.648001,151.5,Dec-22,3463243,2019-08-18 16:11:25:780,-0.6781,-0.018,10.1259,-0.5765,-0.371,9.7827,0.0094,-0.0168,0.0092
34626,48.097336,-1.71324,69.72,23.46,9.648001,151.5,Dec-22,3463343,2019-08-18 16:11:25:880,-0.4016,-0.2753,10.2917,-0.5534,-0.353,9.7847,-0.0008,-0.0162,0.0104
34627,48.097336,-1.71324,69.72,23.46,9.648001,151.5,Dec-22,3463444,2019-08-18 16:11:25:981,-0.5428,0.0994,10.0709,-0.5493,-0.3534,9.7849,-0.0199,0.0,0.0097
34628,48.097336,-1.71324,69.72,23.46,9.648001,151.5,Dec-22,3463543,2019-08-18 16:11:26:080,-0.2364,0.1042,9.947,-0.5489,-0.3595,9.7847,-0.0196,0.0018,0.0086
34629,48.097336,-1.71324,69.72,23.46,9.648001,151.5,Dec-22,3463643,2019-08-18 16:11:26:180,-0.2525,0.17,10.0613,-0.5413,-0.3684,9.7848,0.0013,-0.0034,0.0088
34630,48.097336,-1.71324,69.72,23.46,9.648001,151.5,Dec-22,3463746,2019-08-18 16:11:26:283,-0.6129,-0.1957,9.6327,-0.5388,-0.3623,9.7851,-0.0015,0.0028,0.0103
34631,48.097336,-1.71324,69.72,23.46,9.648001,151.5,Dec-22,3463843,2019-08-18 16:11:26:380,-0.7428,-0.3549,10.1253,-0.5421,-0.3555,9.7852,-0.0013,0.0011,0.0108
34632,48.097336,-1.71324,69.72,23.46,9.648001,151.5,Dec-22,3463943,2019-08-18 16:11:26:480,-0.9319,-0.1347,9.7171,-0.5463,-0.3534,9.785,-0.0014,0.0033,0.0106
34633,48.097336,-1.71324,69.72,23.46,9.648001,151.5,Dec-22,3464043,2019-08-18 16:11:26:580,-0.9756,-0.3926,9.6507,-0.5603,-0.3571,9.7841,-0.0068,0.001,0.01
34634,48.097336,-1.71324,69.72,23.46,9.648001,151.5,13 / 22,3464143,2019-08-18 16:11:26:680,-0.8134,-0.1748,9.4663,-0.5676,-0.3588,9.7836,-0.0009,0.0039,0.0106
34635,48.097336,-1.71324,69.72,23.46,9.648001,151.5,13 / 22,3464243,2019-08-18 16:11:26:780,-0.8122,-0.258,9.6166,-0.585,-0.3545,9.7828,0.0029,0.0011,0.009
34636,48.097336,-1.71324,69.72,23.46,9.648001,151.5,13 / 22,3464343,2019-08-18 16:11:26:880,-0.7763,-0.2574,9.361,-0.5861,-0.3515,9.7828,0.0033,-0.0085,0.0089
34637,48.097336,-1.71324,69.72,23.46,9.648001,151.5,13 / 22,3464443,2019-08-18 16:11:26:980,-1.0708,-0.1814,10.0349,-0.5774,-0.3509,9.7833,-0.0101,-0.0103,0.0089
34638,48.097336,-1.71324,69.72,23.46,9.648001,151.5,13 / 22,3464544,2019-08-18 16:11:27:081,-0.8936,-0.4016,10.0421,-0.5795,-0.3524,9.7832,-0.0036,0.0025,0.0091
34639,48.097336,-1.71324,69.72,23.46,9.648001,151.5,13 / 22,3464644,2019-08-18 16:11:27:181,-0.8253,-0.3244,9.61,-0.5992,-0.3607,9.7817,-0.0102,0.0063,0.0088
34640,48.097336,-1.71324,69.72,23.46,9.648001,151.5,13 / 22,3464744,2019-08-18 16:11:27:281,-1.1192,-0.4788,9.8476,-0.6074,-0.3648,9.781,-0.0015,-0.0094,0.008
34641,48.097336,-1.71324,69.72,23.46,9.648001,151.5,13 / 22,3464844,2019-08-18 16:11:27:381,-0.8307,-0.2909,9.7291,-0.598,-0.3612,9.7817,-0.0003,-0.0195,0.0073
34642,48.097336,-1.71324,69.72,23.46,9.648001,151.5,13 / 22,3464943,2019-08-18 16:11:27:480,-0.9492,-0.4645,9.9937,-0.5852,-0.3651,9.7824,-0.0029,-0.0122,0.0088
34643,48.097336,-1.71324,69.72,23.46,9.648001,151.5,13 / 22,3465044,2019-08-18 16:11:27:581,-0.3333,-0.3747,9.3849,-0.5802,-0.3662,9.7826,-0.012,-0.0059,0.0073
34644,48.097336,-1.71324,69.72,23.46,9.648001,151.5,Dec-22,3465146,2019-08-18 16:11:27:683,-0.6404,-0.2556,9.689,-0.5816,-0.3695,9.7824,-0.0181,-0.0026,0.0069
34645,48.097336,-1.71324,69.72,23.46,9.648001,151.5,Dec-22,3465243,2019-08-18 16:11:27:780,-0.3998,-0.331,9.2688,-0.574,-0.3874,9.7822,-0.0151,-0.0026,0.0071
34646,48.097336,-1.71324,69.72,23.46,9.648001,151.5,Dec-22,3465343,2019-08-18 16:11:27:880,-0.6123,-0.2693,9.531,-0.5709,-0.3908,9.7822,-0.0011,-0.0025,0.0092
34647,48.097336,-1.71324,69.72,23.46,9.648001,151.5,Dec-22,3465443,2019-08-18 16:11:27:980,-0.659,-0.158,10.1529,-0.5629,-0.3759,9.7833,0.0076,-0.0165,0.0103
34648,48.097336,-1.71324,69.72,23.46,9.648001,151.5,Dec-22,3465544,2019-08-18 16:11:28:081,-0.459,-0.1281,9.7099,-0.5535,-0.3642,9.7842,0.0048,-0.0198,0.0092
34649,48.097336,-1.71324,69.72,23.46,9.648001,151.5,Dec-22,3465643,2019-08-18 16:11:28:180,-0.234,0.0856,9.835,-0.5365,-0.3546,9.7855,-0.0117,0.0058,0.0095
34650,48.097336,-1.71324,69.72,23.46,9.648001,151.5,Dec-22,3465744,2019-08-18 16:11:28:281,-0.3986,0.0174,9.5783,-0.5414,-0.3545,9.7853,-0.0063,0.0103,0.0111
34651,48.097336,-1.71324,69.72,23.46,9.648001,151.5,Dec-22,3465843,2019-08-18 16:11:28:380,-0.2741,0.091,10.7215,-0.54,-0.341,9.7858,0.0072,-0.0046,0.0102
34652,48.097336,-1.71324,69.72,23.46,9.648001,151.5,Dec-22,3465944,2019-08-18 16:11:28:481,-0.371,0.1526,10.023,-0.5219,-0.3291,9.7872,0.0029,-0.0117,0.0106
34653,48.097336,-1.71324,69.72,23.46,9.648001,151.5,Dec-22,3466043,2019-08-18 16:11:28:580,-0.5105,0.0251,10.0583,-0.5104,-0.3125,9.7884,-0.0045,0.0003,0.0109
34654,48.097336,-1.71324,69.72,23.46,9.648001,151.5,Oct-22,3466144,2019-08-18 16:11:28:681,-0.5476,0.1413,9.5058,-0.5069,-0.311,9.7886,-0.0061,0.0027,0.0102
34655,48.097336,-1.71324,69.72,23.46,9.648001,151.5,Oct-22,3466243,2019-08-18 16:11:28:780,-0.5177,-0.0359,9.9212,-0.5141,-0.3125,9.7882,-0.0125,0.0073,0.009
34656,48.097336,-1.71324,69.72,23.46,9.648001,151.5,Oct-22,3466344,2019-08-18 16:11:28:881,-0.5865,0.0275,10.284,-0.5266,-0.3173,9.7874,-0.0158,0.007,0.0094
34657,48.097336,-1.71324,69.72,23.46,9.648001,151.5,Oct-22,3466443,2019-08-18 16:11:28:980,-0.6751,-0.2837,10.1606,-0.5221,-0.3275,9.7873,-0.0083,-0.0096,0.009
34658,48.097336,-1.71324,69.72,23.46,9.648001,151.5,Oct-22,3466544,2019-08-18 16:11:29:081,-0.8152,-0.4262,10.2097,-0.5164,-0.324,9.7877,-0.0011,-0.0194,0.01
34659,48.097336,-1.71324,69.72,23.46,9.648001,151.5,Oct-22,3466643,2019-08-18 16:11:29:180,-1.0067,-0.3358,9.8859,-0.5085,-0.3231,9.7881,-0.0072,0.0003,0.0103
34660,48.097336,-1.71324,69.72,23.46,9.648001,151.5,Oct-22,3466743,2019-08-18 16:11:29:280,-0.7451,-0.2514,10.4659,-0.5136,-0.3327,9.7875,0.0022,0.0005,0.0091
34661,48.097336,-1.71324,69.72,23.46,9.648001,151.5,Oct-22,3466843,2019-08-18 16:11:29:380,-0.3178,-0.1431,9.6291,-0.5197,-0.3289,9.7873,-0.011,-0.0013,0.0072
34662,48.097336,-1.71324,69.72,23.46,9.648001,151.5,Oct-22,3466943,2019-08-18 16:11:29:480,-0.3794,-0.0491,10.0577,-0.5318,-0.3351,9.7865,-0.0068,0.0002,0.0084
34663,48.097336,-1.71324,69.72,23.46,9.648001,151.5,Oct-22,3467043,2019-08-18 16:11:29:580,-0.7104,0.0766,9.9853,-0.537,-0.3336,9.7863,0.0077,-0.0071,0.0105
34664,48.097336,-1.71324,69.72,23.46,9.648001,151.5,Dec-22,3467143,2019-08-18 16:11:29:680,-0.7451,-0.0377,9.9362,-0.525,-0.3182,9.7874,0.0066,-0.0142,0.0114
34665,48.097336,-1.71324,69.72,23.46,9.648001,151.5,Dec-22,3467243,2019-08-18 16:11:29:780,-0.5147,-0.1167,9.8781,-0.5165,-0.3102,9.7881,0.0008,-0.0045,0.0106
34666,48.097336,-1.71324,69.72,23.46,9.648001,151.5,Dec-22,3467343,2019-08-18 16:11:29:880,-0.4656,-0.1287,9.9805,-0.5141,-0.3096,9.7883,-0.0164,-0.0112,0.0096
34667,48.097336,-1.71324,69.72,23.46,9.648001,151.5,Dec-22,3467443,2019-08-18 16:11:29:980,-0.5626,-0.1287,9.6674,-0.5083,-0.3157,9.7884,-0.0144,-0.0081,0.01
34668,48.097336,-1.71324,69.72,23.46,9.648001,151.5,Dec-22,3467543,2019-08-18 16:11:30:080,-0.6619,-0.0072,9.349,-0.4978,-0.3223,9.7887,-0.0139,-0.0081,0.0113
34669,48.097336,-1.71324,69.72,23.46,9.648001,151.5,Dec-22,3467643,2019-08-18 16:11:30:180,-0.2885,0.0946,9.9164,-0.4955,-0.3221,9.7888,-0.0061,-0.0076,0.0104
34670,48.097336,-1.71324,69.72,23.46,9.648001,151.5,Dec-22,3467744,2019-08-18 16:11:30:281,-0.3142,-0.1419,9.95,-0.4901,-0.3159,9.7893,-0.0065,-0.0016,0.0131
34671,48.097336,-1.71324,69.72,23.46,9.648001,151.5,Dec-22,3467844,2019-08-18 16:11:30:381,-0.5051,-0.1311,9.996,-0.4838,-0.3166,9.7896,-0.0125,-0.0091,0.0113
34672,48.097336,-1.71324,69.72,23.46,9.648001,151.5,Dec-22,3467943,2019-08-18 16:11:30:480,-0.6159,0.0066,10.0445,-0.4804,-0.3156,9.7898,-0.0088,-0.0032,0.0108
34673,48.097336,-1.71324,69.72,23.46,9.648001,151.5,Dec-22,3468043,2019-08-18 16:11:30:580,-0.6003,-0.1071,10.3827,-0.4806,-0.3151,9.7898,-0.006,-0.0105,0.0117
34674,48.097336,-1.71324,69.72,23.46,9.648001,151.5,13 / 22,3468145,2019-08-18 16:11:30:682,-0.7703,-0.0168,9.5549,-0.4793,-0.3135,9.7899,-0.0033,-0.0039,0.013
34675,48.097336,-1.71324,69.72,23.46,9.648001,151.5,13 / 22,3468243,2019-08-18 16:11:30:780,-1.1067,-0.2705,10.0218,-0.4937,-0.3142,9.7892,-0.0157,0.0092,0.0106
34676,48.097336,-1.71324,69.72,23.46,9.648001,151.5,13 / 22,3468343,2019-08-18 16:11:30:880,-0.8391,-0.2472,9.5591,-0.5118,-0.3297,9.7877,-0.0149,0.0015,0.0112
34677,48.097336,-1.71324,69.72,23.46,9.648001,151.5,13 / 22,3468443,2019-08-18 16:11:30:980,-1.3281,-0.5034,9.8572,-0.5213,-0.3353,9.787,-0.0118,-0.0008,0.0106
34678,48.097336,-1.71324,69.72,23.46,9.648001,151.5,13 / 22,3468543,2019-08-18 16:11:31:080,-1.2342,-0.6847,10.3228,-0.529,-0.3264,9.7869,0.0079,-0.0055,0.0105
34679,48.097336,-1.71324,69.72,23.46,9.648001,151.5,13 / 22,3468644,2019-08-18 16:11:31:181,-1.0307,-0.3885,9.7309,-0.5316,-0.3212,9.787,0.0055,-0.0099,0.0114
34680,48.097336,-1.71324,69.72,23.46,9.648001,151.5,13 / 22,3468743,2019-08-18 16:11:31:280,-0.6673,-0.422,9.2652,-0.5493,-0.3151,9.7862,-0.0026,0.0146,0.0115
34681,48.097336,-1.71324,69.72,23.46,9.648001,151.5,13 / 22,3468844,2019-08-18 16:11:31:381,-1.2114,-0.4489,9.5866,-0.5628,-0.3168,9.7854,-0.0006,0.0087,0.0138
34682,48.097336,-1.71324,69.72,23.46,9.648001,151.5,13 / 22,3468943,2019-08-18 16:11:31:480,-0.9103,-0.1077,10.0703,-0.5816,-0.306,9.7846,0.0151,-0.0035,0.0131
34683,48.097336,-1.71324,69.72,23.46,9.648001,151.5,13 / 22,3469043,2019-08-18 16:11:31:580,-0.96,-0.0754,9.7542,-0.5822,-0.2989,9.7848,-0.0073,-0.0065,0.0124
34684,48.097336,-1.71324,69.72,23.46,9.648001,151.5,15 / 22,3469143,2019-08-18 16:11:31:680,-0.8732,0.2113,9.6573,-0.581,-0.3014,9.7848,-0.0123,-0.0142,0.0137
34685,48.097336,-1.71324,69.72,23.46,9.648001,151.5,15 / 22,3469243,2019-08-18 16:11:31:780,-1.1761,-0.0521,9.8386,-0.5863,-0.3009,9.7845,0.0009,0.0006,0.0187
34686,48.097336,-1.71324,69.72,23.46,9.648001,151.5,15 / 22,3469343,2019-08-18 16:11:31:880,-0.975,0.234,9.8171,-0.5975,-0.279,9.7845,-0.0029,-0.0132,0.0269
34687,48.097336,-1.71324,69.72,23.46,9.648001,151.5,15 / 22,3469443,2019-08-18 16:11:31:980,-0.9558,0.1724,10.0529,-0.5984,-0.2757,9.7845,-0.0034,-0.0017,0.0275
34688,48.097336,-1.71324,69.72,23.46,9.648001,151.5,15 / 22,3469543,2019-08-18 16:11:32:080,-1.0881,-0.1024,9.665,-0.6087,-0.2651,9.7842,-0.0038,-0.0068,0.0266
34689,48.097336,-1.71324,69.72,23.46,9.648001,151.5,15 / 22,3469643,2019-08-18 16:11:32:180,-0.6386,0.2173,9.4825,-0.6112,-0.2626,9.7841,-0.0083,-0.0076,0.0189
34690,48.097336,-1.71324,69.72,23.46,9.648001,151.5,15 / 22,3469743,2019-08-18 16:11:32:280,-0.9804,0.0329,10.0523,-0.6051,-0.2607,9.7845,-0.0052,-0.0083,0.0156
34691,48.097336,-1.71324,69.72,23.46,9.648001,151.5,15 / 22,3469843,2019-08-18 16:11:32:380,-0.565,-0.1957,10.2127,-0.6059,-0.2598,9.7845,-0.0088,-0.0065,0.0115
34692,48.097336,-1.71324,69.72,23.46,9.648001,151.5,15 / 22,3469943,2019-08-18 16:11:32:480,-0.9205,-0.0036,10.1732,-0.5963,-0.2679,9.7848,-0.0186,-0.0185,0.0112
34693,48.097336,-1.71324,69.72,23.46,9.648001,151.5,15 / 22,3470043,2019-08-18 16:11:32:580,-0.4219,0.0018,10.342,-0.587,-0.2685,9.7854,-0.0078,-0.0121,0.0105
34694,48.097336,-1.71324,69.72,23.46,9.648001,151.5,15 / 22,3470143,2019-08-18 16:11:32:680,-0.729,-0.2233,9.7375,-0.5788,-0.2662,9.7859,0.001,0.0007,0.0127
34695,48.097336,-1.71324,69.72,23.46,9.648001,151.5,15 / 22,3470243,2019-08-18 16:11:32:780,-0.4129,-0.0072,9.8302,-0.5755,-0.2526,9.7865,-0.011,0.0052,0.0122
34696,48.097336,-1.71324,69.72,23.46,9.648001,151.5,15 / 22,3470343,2019-08-18 16:11:32:880,-0.5123,-0.2981,9.7494,-0.578,-0.2566,9.7862,-0.0205,0.0134,0.0118
34697,48.097336,-1.71324,69.72,23.46,9.648001,151.5,15 / 22,3470444,2019-08-18 16:11:32:981,-0.4135,0.1197,10.087,-0.5892,-0.2742,9.7851,-0.0065,-0.0056,0.0085
34698,48.097336,-1.71324,69.72,23.46,9.648001,151.5,15 / 22,3470543,2019-08-18 16:11:33:080,-0.7535,-0.0239,10.7341,-0.5795,-0.272,9.7857,-0.0004,-0.0229,0.0085
34699,48.097336,-1.71324,69.72,23.46,9.648001,151.5,15 / 22,3470643,2019-08-18 16:11:33:180,-1.0019,-0.1287,10.3971,-0.5485,-0.261,9.7878,0.0054,-0.0296,0.0093
34700,48.097336,-1.71324,69.72,23.46,9.648001,151.5,15 / 22,3470743,2019-08-18 16:11:33:280,-0.8852,-0.2274,10.196,-0.5332,-0.2532,9.7889,0.0034,-0.0186,0.0089
34701,48.097336,-1.71324,69.72,23.46,9.648001,151.5,15 / 22,3470843,2019-08-18 16:11:33:380,-0.8116,-0.2544,10.0463,-0.5324,-0.2625,9.7887,-0.0209,0.0087,0.0078
34702,48.097336,-1.71324,69.72,23.46,9.648001,151.5,15 / 22,3470943,2019-08-18 16:11:33:480,-0.7781,-0.2472,9.3484,-0.5503,-0.281,9.7872,-0.0186,0.0069,0.0079
34703,48.097336,-1.71324,69.72,23.46,9.648001,151.5,15 / 22,3471043,2019-08-18 16:11:33:580,-0.8146,-0.2765,9.3161,-0.5653,-0.3059,9.7856,-0.0144,0.0011,0.0066
34704,48.095707,-1.711735,74.73,23.38,9.648001,146.1,15 / 22,3471143,2019-08-18 16:11:33:680,-0.9133,-0.3304,9.4334,-0.5702,-0.3118,9.7851,-0.0077,0.0037,0.0054
34705,48.095707,-1.711735,74.73,23.38,9.648001,146.1,15 / 22,3471243,2019-08-18 16:11:33:780,-0.9145,-0.3861,9.9631,-0.5756,-0.3243,9.7844,-0.0101,-0.0131,0.0051
34706,48.095707,-1.711735,74.73,23.38,9.648001,146.1,15 / 22,3471344,2019-08-18 16:11:33:881,-0.9391,-0.2496,9.8105,-0.5686,-0.3269,9.7847,-0.0015,-0.0125,0.0056
34707,48.095707,-1.711735,74.73,23.38,9.648001,146.1,15 / 22,3471443,2019-08-18 16:11:33:980,-0.972,-0.3268,9.9338,-0.5705,-0.3299,9.7845,-0.0049,-0.0043,0.0046
34708,48.095707,-1.711735,74.73,23.38,9.648001,146.1,15 / 22,3471543,2019-08-18 16:11:34:080,-0.79,-0.2789,9.6405,-0.5759,-0.3355,9.784,-0.0141,0.0031,0.0047
34709,48.095707,-1.711735,74.73,23.38,9.648001,146.1,15 / 22,3471643,2019-08-18 16:11:34:180,-0.7014,-0.4932,9.865,-0.588,-0.354,9.7826,-0.0104,0.0027,0.0046
34710,48.095707,-1.711735,74.73,23.38,9.648001,146.1,15 / 22,3471743,2019-08-18 16:11:34:280,-0.6117,-0.2412,9.7548,-0.5982,-0.3579,9.7818,0.0007,0.0048,0.0049
34711,48.095707,-1.711735,74.73,23.38,9.648001,146.1,15 / 22,3471843,2019-08-18 16:11:34:380,-1.0139,-0.3226,10.327,-0.598,-0.3529,9.782,0.0069,-0.0155,0.0035
34712,48.095707,-1.711735,74.73,23.38,9.648001,146.1,15 / 22,3471943,2019-08-18 16:11:34:480,-0.7547,-0.4687,10.1966,-0.589,-0.3492,9.7827,0.0019,-0.0183,-0.0003
34713,48.095707,-1.711735,74.73,23.38,9.648001,146.1,15 / 22,3472043,2019-08-18 16:11:34:580,-0.4752,-0.2173,10.0343,-0.5706,-0.3458,9.7839,-0.0052,-0.0065,-0.0008
34714,48.095707,-1.711735,74.73,23.38,9.648001,146.1,15 / 23,3472143,2019-08-18 16:11:34:680,-0.574,-0.2699,9.4466,-0.5675,-0.3477,9.784,0.0012,0.0028,0.0003
34715,48.095707,-1.711735,74.73,23.38,9.648001,146.1,15 / 23,3472243,2019-08-18 16:11:34:780,-0.3651,-0.5165,10.1409,-0.5656,-0.3396,9.7844,0.0059,-0.0038,-0.0005
34716,48.095707,-1.711735,74.73,23.38,9.648001,146.1,15 / 23,3472344,2019-08-18 16:11:34:881,-0.5392,-0.395,9.6249,-0.5548,-0.3351,9.7852,0.0052,-0.013,-0.0002
34717,48.095707,-1.711735,74.73,23.38,9.648001,146.1,15 / 23,3472443,2019-08-18 16:11:34:980,-0.3824,-0.1395,9.9164,-0.5431,-0.3391,9.7857,-0.012,-0.0013,-0.0022
34718,48.095707,-1.711735,74.73,23.38,9.648001,146.1,15 / 23,3472544,2019-08-18 16:11:35:081,-0.4842,-0.3549,9.7542,-0.536,-0.3421,9.786,0.0002,-0.0125,-0.001
34719,48.095707,-1.711735,74.73,23.38,9.648001,146.1,15 / 23,3472643,2019-08-18 16:11:35:180,-0.2992,-0.322,10.0146,-0.5155,-0.3429,9.7871,-0.007,-0.0105,-0.0009
34720,48.095707,-1.711735,74.73,23.38,9.648001,146.1,15 / 23,3472744,2019-08-18 16:11:35:281,-0.6176,-0.4435,9.9571,-0.5124,-0.3426,9.7873,0.0035,-0.0076,-0.0003
34721,48.095707,-1.711735,74.73,23.38,9.648001,146.1,15 / 23,3472843,2019-08-18 16:11:35:380,-0.5404,-0.249,9.4286,-0.5123,-0.3385,9.7874,-0.0026,0.011,-0.0003
34722,48.095707,-1.711735,74.73,23.38,9.648001,146.1,15 / 23,3472943,2019-08-18 16:11:35:480,-0.5943,-0.2963,9.4023,-0.5219,-0.3429,9.7867,-0.0125,0.0132,0.0
34723,48.095707,-1.711735,74.73,23.38,9.648001,146.1,15 / 23,3473044,2019-08-18 16:11:35:581,-0.5165,-0.3896,9.9625,-0.5105,-0.3649,9.7866,-0.0118,-0.0205,-0.0035
34724,48.095707,-1.711735,74.73,23.38,9.648001,146.1,15 / 23,3473143,2019-08-18 16:11:35:680,-0.5901,-0.407,9.9458,-0.5018,-0.3671,9.7869,0.0016,-0.0138,-0.0015
34725,48.095707,-1.711735,74.73,23.38,9.648001,146.1,15 / 23,3473243,2019-08-18 16:11:35:780,-0.2298,-0.4932,10.0296,-0.4853,-0.3674,9.7877,-0.002,-0.0017,0.0006
34726,48.095707,-1.711735,74.73,23.38,9.648001,146.1,15 / 23,3473343,2019-08-18 16:11:35:880,-0.4429,-0.3723,9.7357,-0.4942,-0.3747,9.787,-0.0101,0.0142,0.0009
34727,48.095707,-1.711735,74.73,23.38,9.648001,146.1,15 / 23,3473443,2019-08-18 16:11:35:980,-0.3184,-0.3974,10.2061,-0.4996,-0.3777,9.7866,0.0071,-0.0199,-0.0003
34728,48.095707,-1.711735,74.73,23.38,9.648001,146.1,15 / 23,3473543,2019-08-18 16:11:36:080,-0.4153,-0.2634,10.0637,-0.4811,-0.363,9.7881,0.0139,-0.0148,0.0013
34729,48.095707,-1.711735,74.73,23.38,9.648001,146.1,15 / 23,3473643,2019-08-18 16:11:36:180,-0.3878,-0.1419,9.6525,-0.4706,-0.355,9.7889,0.0012,-0.0033,0.0015
34730,48.095707,-1.711735,74.73,23.38,9.648001,146.1,15 / 23,3473744,2019-08-18 16:11:36:281,-0.2034,-0.0574,10.1666,-0.4746,-0.3531,9.7888,-0.0129,0.0105,0.0043
34731,48.095707,-1.711735,74.73,23.38,9.648001,146.1,15 / 23,3473843,2019-08-18 16:11:36:380,-0.4764,-0.0928,9.8632,-0.4754,-0.3565,9.7886,-0.0092,-0.0071,0.0062
34732,48.095707,-1.711735,74.73,23.38,9.648001,146.1,15 / 23,3473943,2019-08-18 16:11:36:480,-0.1651,0.1125,10.4641,-0.4609,-0.3403,9.7899,0.0067,-0.009,0.013
34733,48.095707,-1.711735,74.73,23.38,9.648001,146.1,15 / 23,3474043,2019-08-18 16:11:36:580,-0.3327,0.1048,9.9781,-0.4552,-0.3314,9.7905,-0.0011,-0.006,0.0167
34734,48.095707,-1.711735,74.73,23.38,9.648001,146.1,15 / 23,3474143,2019-08-18 16:11:36:680,-0.4908,0.5148,10.2373,-0.4436,-0.3071,9.7918,-0.0073,-0.0042,0.0164
34735,48.095707,-1.711735,74.73,23.38,9.648001,146.1,15 / 23,3474243,2019-08-18 16:11:36:780,-0.3776,0.331,10.7861,-0.4373,-0.2986,9.7923,-0.0046,-0.0024,0.0148
34736,48.095707,-1.711735,74.73,23.38,9.648001,146.1,15 / 23,3474344,2019-08-18 16:11:36:881,0.0336,0.1844,10.5647,-0.4271,-0.2863,9.7932,-0.0057,-0.0117,0.0163
34737,48.095707,-1.711735,74.73,23.38,9.648001,146.1,15 / 23,3474443,2019-08-18 16:11:36:980,-0.2041,0.4896,9.929,-0.422,-0.2764,9.7937,-0.002,-0.0078,0.0164
34738,48.095707,-1.711735,74.73,23.38,9.648001,146.1,15 / 23,3474544,2019-08-18 16:11:37:081,-0.3148,0.2975,9.9254,-0.3965,-0.2509,9.7954,0.0025,-0.0123,0.0166
34739,48.095707,-1.711735,74.73,23.38,9.648001,146.1,15 / 23,3474643,2019-08-18 16:11:37:180,-0.4776,0.3154,9.9015,-0.3937,-0.2458,9.7957,-0.0155,-0.0067,0.0138
34740,48.095707,-1.711735,74.73,23.38,9.648001,146.1,15 / 23,3474743,2019-08-18 16:11:37:280,-0.3022,0.1443,9.607,-0.3838,-0.2451,9.7961,-0.0117,-0.0001,0.014
34741,48.095707,-1.711735,74.73,23.38,9.648001,146.1,15 / 23,3474843,2019-08-18 16:11:37:380,-0.243,0.2382,9.6297,-0.3865,-0.2362,9.7962,-0.0083,0.0013,0.0138
34742,48.095707,-1.711735,74.73,23.38,9.648001,146.1,15 / 23,3474943,2019-08-18 16:11:37:480,-0.0173,0.4172,10.0589,-0.384,-0.2281,9.7965,-0.0052,-0.0135,0.0135
34743,48.095707,-1.711735,74.73,23.38,9.648001,146.1,15 / 23,3475044,2019-08-18 16:11:37:581,-0.2358,0.0114,10.6532,-0.3744,-0.2219,9.797,-0.0018,-0.0262,0.0131
34744,48.095707,-1.711735,74.73,23.38,9.648001,146.1,16 / 23,3475143,2019-08-18 16:11:37:680,-0.1825,0.1754,10.0882,-0.348,-0.2002,9.7984,0.0076,-0.008,0.0129
34745,48.095707,-1.711735,74.73,23.38,9.648001,146.1,16 / 23,3475243,2019-08-18 16:11:37:780,-0.1795,0.0347,9.4849,-0.3391,-0.1896,9.7989,0.0012,-0.0031,0.0137
34746,48.095707,-1.711735,74.73,23.38,9.648001,146.1,16 / 23,3475343,2019-08-18 16:11:37:880,-0.5207,0.2807,9.258,-0.3454,-0.1789,9.7989,-0.0162,0.0105,0.0123
34747,48.095707,-1.711735,74.73,23.38,9.648001,146.1,16 / 23,3475443,2019-08-18 16:11:37:980,-0.2142,0.2903,9.5914,-0.3542,-0.1813,9.7986,-0.0143,0.0146,0.0124
34748,48.095707,-1.711735,74.73,23.38,9.648001,146.1,16 / 23,3475543,2019-08-18 16:11:38:080,-0.0676,0.1514,9.6207,-0.3663,-0.1725,9.7983,0.0088,0.0097,0.0151
34749,48.095707,-1.711735,74.73,23.38,9.648001,146.1,16 / 23,3475647,2019-08-18 16:11:38:184,-0.2196,0.4765,10.1924,-0.3657,-0.1532,9.7986,0.0149,0.0028,0.0148
34750,48.095707,-1.711735,74.73,23.38,9.648001,146.1,16 / 23,3475744,2019-08-18 16:11:38:281,-0.2669,0.4639,9.6214,-0.3629,-0.1247,9.7991,0.0055,-0.0037,0.0146
34751,48.095707,-1.711735,74.73,23.38,9.648001,146.1,16 / 23,3475843,2019-08-18 16:11:38:380,-0.2783,0.4298,10.2385,-0.363,-0.1104,9.7993,0.0034,0.0029,0.0155
34752,48.095707,-1.711735,74.73,23.38,9.648001,146.1,16 / 23,3475943,2019-08-18 16:11:38:480,-0.3058,0.179,10.3103,-0.3559,-0.0817,9.7999,0.0105,-0.0136,0.0155
34753,48.095707,-1.711735,74.73,23.38,9.648001,146.1,16 / 23,3476043,2019-08-18 16:11:38:580,-0.371,0.3777,10.7299,-0.3381,-0.0742,9.8005,-0.0007,-0.0295,0.014
34754,48.095707,-1.711735,74.73,23.38,9.648001,146.1,17 / 23,3476143,2019-08-18 16:11:38:680,-0.5518,0.2951,10.2941,-0.3149,-0.0736,9.8013,-0.0206,-0.0373,0.0123
34755,48.095707,-1.711735,74.73,23.38,9.648001,146.1,17 / 23,3476243,2019-08-18 16:11:38:780,-0.1873,0.1066,9.3831,-0.2668,-0.0887,9.8026,-0.0299,-0.0236,0.0122
34756,48.095707,-1.711735,74.73,23.38,9.648001,146.1,17 / 23,3476343,2019-08-18 16:11:38:880,-0.4117,0.4681,9.5711,-0.2753,-0.1032,9.8022,-0.0108,0.0128,0.0165
34757,48.095707,-1.711735,74.73,23.38,9.648001,146.1,17 / 23,3476444,2019-08-18 16:11:38:981,-0.2244,0.1287,9.6052,-0.2818,-0.1007,9.8021,-0.0074,0.0016,0.0148
34758,48.095707,-1.711735,74.73,23.38,9.648001,146.1,17 / 23,3476543,2019-08-18 16:11:39:080,-0.3633,0.0431,9.8685,-0.278,-0.0983,9.8022,-0.0074,-0.0091,0.012
34759,48.095707,-1.711735,74.73,23.38,9.648001,146.1,17 / 23,3476644,2019-08-18 16:11:39:181,-0.5081,0.267,10.1409,-0.2749,-0.1,9.8023,-0.0034,-0.0016,0.0094
34760,48.095707,-1.711735,74.73,23.38,9.648001,146.1,17 / 23,3476743,2019-08-18 16:11:39:280,-0.3363,0.0814,9.5298,-0.2746,-0.0989,9.8023,-0.0111,-0.0079,0.0099
34761,48.095707,-1.711735,74.73,23.38,9.648001,146.1,17 / 23,3476843,2019-08-18 16:11:39:380,-0.4674,0.1143,10.0296,-0.279,-0.1064,9.8021,-0.0176,-0.0011,0.0087
34762,48.095707,-1.711735,74.73,23.38,9.648001,146.1,17 / 23,3476944,2019-08-18 16:11:39:481,-0.3705,0.0233,9.6387,-0.28,-0.1125,9.802,-0.002,-0.0042,0.0074
34763,48.095707,-1.711735,74.73,23.38,9.648001,146.1,17 / 23,3477043,2019-08-18 16:11:39:580,-0.5165,0.0796,9.8656,-0.2755,-0.1145,9.8021,0.0021,-0.0091,0.0065
34764,48.095707,-1.711735,74.73,23.38,9.648001,146.1,17 / 23,3477143,2019-08-18 16:11:39:680,-0.2178,0.106,10.1666,-0.27,-0.1118,9.8023,-0.0015,-0.0162,0.0078
34765,48.095707,-1.711735,74.73,23.38,9.648001,146.1,17 / 23,3477244,2019-08-18 16:11:39:781,-0.535,0.0,9.9452,-0.2579,-0.1039,9.8027,0.0051,0.0002,0.0092
34766,48.095707,-1.711735,74.73,23.38,9.648001,146.1,17 / 23,3477343,2019-08-18 16:11:39:880,-0.4519,0.3083,9.9051,-0.2591,-0.1021,9.8027,-0.0022,0.0087,0.0085
34767,48.095707,-1.711735,74.73,23.38,9.648001,146.1,17 / 23,3477443,2019-08-18 16:11:39:980,-0.3399,0.0832,9.5034,-0.2589,-0.106,9.8027,-0.0145,-0.0143,0.0087
34768,48.095707,-1.711735,74.73,23.38,9.648001,146.1,17 / 23,3477543,2019-08-18 16:11:40:080,-0.5117,0.1377,9.4328,-0.2566,-0.1075,9.8027,-0.0149,-0.0023,0.0063
34769,48.095707,-1.711735,74.73,23.38,9.648001,146.1,17 / 23,3477644,2019-08-18 16:11:40:181,-0.5733,0.0629,9.6028,-0.2599,-0.116,9.8025,-0.0085,0.0023,0.0069
34770,48.095707,-1.711735,74.73,23.38,9.648001,146.1,17 / 23,3477743,2019-08-18 16:11:40:280,-0.638,0.0024,9.6602,-0.2582,-0.1146,9.8026,0.0012,-0.0031,0.0065
34771,48.095707,-1.711735,74.73,23.38,9.648001,146.1,17 / 23,3477843,2019-08-18 16:11:40:380,-0.4979,-0.0383,9.6609,-0.255,-0.1163,9.8026,-0.0118,0.0004,0.0092
34772,48.095707,-1.711735,74.73,23.38,9.648001,146.1,17 / 23,3477943,2019-08-18 16:11:40:480,-0.456,-0.0401,10.0086,-0.2624,-0.1228,9.8024,-0.014,-0.0031,0.0079
34773,48.095707,-1.711735,74.73,23.38,9.648001,146.1,17 / 23,3478043,2019-08-18 16:11:40:580,-0.4255,-0.1682,9.947,-0.2633,-0.1378,9.8021,0.0091,-0.0023,0.0082
34774,48.095707,-1.711735,74.73,23.38,9.648001,146.1,18 / 23,3478144,2019-08-18 16:11:40:681,-0.4896,-0.0575,9.8895,-0.2663,-0.1321,9.8021,0.0025,-0.0106,0.0086
34775,48.095707,-1.711735,74.73,23.38,9.648001,146.1,18 / 23,3478243,2019-08-18 16:11:40:780,-0.5901,0.0461,9.8524,-0.266,-0.1278,9.8022,0.001,-0.0002,0.0094
34776,48.095707,-1.711735,74.73,23.38,9.648001,146.1,18 / 23,3478343,2019-08-18 16:11:40:880,-0.4908,-0.1652,9.8518,-0.2691,-0.1245,9.8022,0.0013,-0.007,0.0106
34777,48.095707,-1.711735,74.73,23.38,9.648001,146.1,18 / 23,3478443,2019-08-18 16:11:40:980,-0.0329,0.0736,10.4192,-0.2754,-0.1196,9.8021,-0.0096,-0.0053,0.0088
34778,48.095707,-1.711735,74.73,23.38,9.648001,146.1,18 / 23,3478543,2019-08-18 16:11:41:080,-0.3944,0.2688,9.3634,-0.2687,-0.124,9.8022,-0.0047,-0.0125,0.0078
34779,48.095707,-1.711735,74.73,23.38,9.648001,146.1,18 / 23,3478644,2019-08-18 16:11:41:181,-0.1388,0.1856,10.5198,-0.259,-0.1241,9.8024,0.0025,0.0011,0.0094
34780,48.095707,-1.711735,74.73,23.38,9.648001,146.1,18 / 23,3478743,2019-08-18 16:11:41:280,-0.2454,0.249,9.5908,-0.2593,-0.1184,9.8025,0.0076,0.0006,0.0107
34781,48.095707,-1.711735,74.73,23.38,9.648001,146.1,18 / 23,3478843,2019-08-18 16:11:41:380,-0.2926,0.3214,9.9368,-0.2652,-0.1049,9.8025,0.0038,0.0105,0.0107
34782,48.095707,-1.711735,74.73,23.38,9.648001,146.1,18 / 23,3478944,2019-08-18 16:11:41:481,-0.0658,0.3903,10.2792,-0.2639,-0.1035,9.8026,-0.0061,-0.0063,0.0097
34783,48.095707,-1.711735,74.73,23.38,9.648001,146.1,18 / 23,3479043,2019-08-18 16:11:41:580,-0.1915,0.0635,10.4102,-0.2611,-0.0991,9.8027,-0.0045,-0.0057,0.0091
34784,48.095707,-1.711735,74.73,23.38,9.648001,146.1,18 / 23,3479143,2019-08-18 16:11:41:680,-0.243,0.3741,10.3217,-0.2504,-0.0995,9.8029,-0.002,-0.0181,0.0097
34785,48.095707,-1.711735,74.73,23.38,9.648001,146.1,18 / 23,3479244,2019-08-18 16:11:41:781,-0.6655,0.1544,9.3801,-0.2361,-0.0945,9.8034,-0.0085,-0.0048,0.0099
34786,48.095707,-1.711735,74.73,23.38,9.648001,146.1,18 / 23,3479343,2019-08-18 16:11:41:880,-0.2872,0.012,9.9619,-0.231,-0.0998,9.8034,-0.0047,-0.0101,0.0097
34787,48.095707,-1.711735,74.73,23.38,9.648001,146.1,18 / 23,3479443,2019-08-18 16:11:41:980,-0.3333,0.3214,9.6148,-0.2249,-0.0973,9.8036,-0.0104,-0.0102,0.0094
34788,48.095707,-1.711735,74.73,23.38,9.648001,146.1,18 / 23,3479544,2019-08-18 16:11:42:081,-0.1927,0.1826,9.7698,-0.217,-0.1056,9.8037,-0.007,0.0011,0.0089
34789,48.095707,-1.711735,74.73,23.38,9.648001,146.1,18 / 23,3479643,2019-08-18 16:11:42:180,-0.1496,0.2269,9.9452,-0.2216,-0.0962,9.8037,0.0064,0.0038,0.0098
34790,48.095707,-1.711735,74.73,23.38,9.648001,146.1,18 / 23,3479743,2019-08-18 16:11:42:280,-0.38,0.17,9.7943,-0.2137,-0.0924,9.8039,0.011,-0.0071,0.01
34791,48.095707,-1.711735,74.73,23.38,9.648001,146.1,18 / 23,3479843,2019-08-18 16:11:42:380,-0.1867,0.4884,9.6453,-0.2043,-0.0745,9.8042,0.0054,-0.001,0.0084
34792,48.095707,-1.711735,74.73,23.38,9.648001,146.1,18 / 23,3479943,2019-08-18 16:11:42:480,-0.3543,-0.0533,9.6549,-0.2044,-0.0719,9.8043,-0.0055,-0.0018,0.0072
34793,48.095707,-1.711735,74.73,23.38,9.648001,146.1,18 / 23,3480043,2019-08-18 16:11:42:580,-0.7146,0.4142,9.7153,-0.2031,-0.0724,9.8043,-0.0118,-0.0018,0.0097
34794,48.094128,-1.710032,80.42,24.79,9.648001,141.8,18 / 23,3480143,2019-08-18 16:11:42:680,-0.535,-0.0305,9.8703,-0.2142,-0.084,9.804,-0.0097,0.0069,0.0092
34795,48.094128,-1.710032,80.42,24.79,9.648001,141.8,18 / 23,3480243,2019-08-18 16:11:42:780,-0.5009,-0.0856,10.2085,-0.2242,-0.0892,9.8037,-0.0028,0.0072,0.0087
34796,48.094128,-1.710032,80.42,24.79,9.648001,141.8,18 / 23,3480344,2019-08-18 16:11:42:881,-0.6649,-0.1568,10.5024,-0.2387,-0.0945,9.8033,0.0025,-0.0021,0.0077
34797,48.094128,-1.710032,80.42,24.79,9.648001,141.8,18 / 23,3480443,2019-08-18 16:11:42:980,-0.6134,-0.0832,10.606,-0.2434,-0.091,9.8032,0.0002,-0.0108,0.0082
34798,48.094128,-1.710032,80.42,24.79,9.648001,141.8,18 / 23,3480543,2019-08-18 16:11:43:080,-0.6254,-0.1969,9.8985,-0.2449,-0.0909,9.8032,-0.0096,-0.0071,0.0087
34799,48.094128,-1.710032,80.42,24.79,9.648001,141.8,18 / 23,3480644,2019-08-18 16:11:43:181,-0.6458,0.1071,9.6644,-0.2459,-0.0986,9.8031,-0.0145,-0.007,0.0085
34800,48.094128,-1.710032,80.42,24.79,9.648001,141.8,18 / 23,3480743,2019-08-18 16:11:43:280,-0.7805,-0.2735,9.8889,-0.2554,-0.1097,9.8027,-0.0079,-0.0072,0.0079
34801,48.094128,-1.710032,80.42,24.79,9.648001,141.8,18 / 23,3480844,2019-08-18 16:11:43:381,-0.823,-0.0856,9.6034,-0.2569,-0.1122,9.8026,-0.0024,-0.0089,0.0094
34802,48.094128,-1.710032,80.42,24.79,9.648001,141.8,18 / 23,3480943,2019-08-18 16:11:43:480,-0.6194,-0.0886,9.9069,-0.2582,-0.113,9.8026,-0.0011,-0.0135,0.0083
34803,48.094128,-1.710032,80.42,24.79,9.648001,141.8,18 / 23,3481044,2019-08-18 16:11:43:581,-0.55,-0.1,9.5106,-0.2583,-0.1117,9.8026,-0.0069,-0.0036,0.0069
34804,48.094128,-1.710032,80.42,24.79,9.648001,141.8,18 / 23,3481143,2019-08-18 16:11:43:680,-0.6254,-0.2167,9.4166,-0.2669,-0.1211,9.8023,-0.0116,0.0066,0.0093
34805,48.094128,-1.710032,80.42,24.79,9.648001,141.8,18 / 23,3481244,2019-08-18 16:11:43:781,-0.7829,-0.2502,9.9829,-0.275,-0.1278,9.802,-0.0069,-0.0049,0.0083
34806,48.094128,-1.710032,80.42,24.79,9.648001,141.8,18 / 23,3481343,2019-08-18 16:11:43:880,-0.6691,-0.0425,9.9679,-0.2764,-0.1353,9.8018,-0.0058,-0.0181,0.008
34807,48.094128,-1.710032,80.42,24.79,9.648001,141.8,18 / 23,3481443,2019-08-18 16:11:43:980,-0.5764,-0.1119,10.199,-0.2686,-0.1381,9.802,-0.0021,-0.0257,0.0079
34808,48.094128,-1.710032,80.42,24.79,9.648001,141.8,18 / 23,3481543,2019-08-18 16:11:44:080,-0.4076,0.2107,8.7361,-0.2535,-0.1419,9.8023,-0.0201,-0.0189,0.0079
34809,48.094128,-1.710032,80.42,24.79,9.648001,141.8,18 / 23,3481643,2019-08-18 16:11:44:180,-0.9929,-0.1401,8.9857,-0.2535,-0.1549,9.8021,-0.0211,0.0055,0.0083
34810,48.094128,-1.710032,80.42,24.79,9.648001,141.8,18 / 23,3481743,2019-08-18 16:11:44:280,-0.7481,-0.0754,10.0338,-0.2695,-0.176,9.8014,-0.0051,-0.0056,0.0082
34811,48.094128,-1.710032,80.42,24.79,9.648001,141.8,18 / 23,3481843,2019-08-18 16:11:44:380,-0.7691,-0.1365,9.9332,-0.2689,-0.1778,9.8014,0.0029,-0.0082,0.008
34812,48.094128,-1.710032,80.42,24.79,9.648001,141.8,18 / 23,3481943,2019-08-18 16:11:44:480,-0.4046,-0.2843,10.1092,-0.2724,-0.1678,9.8014,0.006,-0.0076,0.0092
34813,48.094128,-1.710032,80.42,24.79,9.648001,141.8,18 / 23,3482043,2019-08-18 16:11:44:580,-0.6919,0.2179,10.2564,-0.2751,-0.1636,9.8014,0.0003,-0.0046,0.0086
34814,48.094128,-1.710032,80.42,24.79,9.648001,141.8,18 / 23,3482143,2019-08-18 16:11:44:680,-0.3782,-0.3071,9.8572,-0.2836,-0.16,9.8012,-0.0032,-0.004,0.0078
34815,48.094128,-1.710032,80.42,24.79,9.648001,141.8,18 / 23,3482243,2019-08-18 16:11:44:780,-0.5219,0.2107,9.5992,-0.2818,-0.1636,9.8012,-0.0136,-0.0118,0.0078
34816,48.094128,-1.710032,80.42,24.79,9.648001,141.8,18 / 23,3482344,2019-08-18 16:11:44:881,-0.5728,-0.0353,10.1828,-0.2743,-0.1761,9.8012,-0.0075,-0.0109,0.0061
34817,48.094128,-1.710032,80.42,24.79,9.648001,141.8,18 / 23,3482444,2019-08-18 16:11:44:981,-0.5476,-0.0497,9.6441,-0.2718,-0.1788,9.8013,-0.0018,-0.008,0.006
34818,48.094128,-1.710032,80.42,24.79,9.648001,141.8,18 / 23,3482543,2019-08-18 16:11:45:080,-0.4339,-0.1508,8.9881,-0.2664,-0.1809,9.8014,-0.0142,-0.0109,0.005
34819,48.094128,-1.710032,80.42,24.79,9.648001,141.8,18 / 23,3482643,2019-08-18 16:11:45:180,-0.1041,0.2334,10.0176,-0.2638,-0.1886,9.8013,-0.0042,-0.0008,0.0015
34820,48.094128,-1.710032,80.42,24.79,9.648001,141.8,18 / 23,3482744,2019-08-18 16:11:45:281,-0.2358,0.0114,9.7632,-0.2643,-0.1944,9.8012,-0.0013,0.0056,0.002
34821,48.094128,-1.710032,80.42,24.79,9.648001,141.8,18 / 23,3482843,2019-08-18 16:11:45:380,-0.207,-0.1526,9.8524,-0.2657,-0.199,9.801,-0.0053,0.0075,-0.0002
34822,48.094128,-1.710032,80.42,24.79,9.648001,141.8,18 / 23,3482944,2019-08-18 16:11:45:481,-0.2507,-0.2023,9.4364,-0.2703,-0.2051,9.8008,-0.0083,-0.0082,-0.0006
34823,48.094128,-1.710032,80.42,24.79,9.648001,141.8,18 / 23,3483043,2019-08-18 16:11:45:580,-0.2567,-0.1012,9.6345,-0.2679,-0.2046,9.8009,0.0005,0.0025,0.0014
34824,48.094128,-1.710032,80.42,24.79,9.648001,141.8,18 / 23,3483144,2019-08-18 16:11:45:681,-0.0771,-0.1191,10.0302,-0.2634,-0.2075,9.8009,-0.0049,-0.0005,0.0014
34825,48.094128,-1.710032,80.42,24.79,9.648001,141.8,18 / 23,3483243,2019-08-18 16:11:45:780,-0.2531,-0.0197,9.9224,-0.2648,-0.2038,9.801,0.0057,-0.0024,0.0009
34826,48.094128,-1.710032,80.42,24.79,9.648001,141.8,18 / 23,3483343,2019-08-18 16:11:45:880,-0.5207,-0.2915,10.5593,-0.2578,-0.1966,9.8013,0.0016,-0.0059,0.0037
34827,48.094128,-1.710032,80.42,24.79,9.648001,141.8,18 / 23,3483443,2019-08-18 16:11:45:980,-0.2669,-0.0551,10.445,-0.2594,-0.1947,9.8013,0.0064,-0.0066,0.0037
34828,48.094128,-1.710032,80.42,24.79,9.648001,141.8,18 / 23,3483543,2019-08-18 16:11:46:080,-0.5261,-0.3364,9.5244,-0.2586,-0.1846,9.8015,-0.0037,-0.0017,0.0037
34829,48.094128,-1.710032,80.42,24.79,9.648001,141.8,18 / 23,3483643,2019-08-18 16:11:46:180,-0.7769,-0.2921,9.7644,-0.2628,-0.1859,9.8014,-0.0129,-0.0033,0.0022
34830,48.094128,-1.710032,80.42,24.79,9.648001,141.8,18 / 23,3483743,2019-08-18 16:11:46:280,-0.2878,-0.0611,10.093,-0.2535,-0.1916,9.8015,-0.0118,-0.0296,0.0024
34831,48.094128,-1.710032,80.42,24.79,9.648001,141.8,18 / 23,3483844,2019-08-18 16:11:46:381,-0.5201,-0.1808,9.2826,-0.2398,-0.1984,9.8017,-0.0101,-0.0039,0.0039
34832,48.094128,-1.710032,80.42,24.79,9.648001,141.8,18 / 23,3483943,2019-08-18 16:11:46:480,-0.486,-0.0982,9.7147,-0.2559,-0.2068,9.8011,-0.0106,0.005,0.0041
34833,48.094128,-1.710032,80.42,24.79,9.648001,141.8,18 / 23,3484043,2019-08-18 16:11:46:580,-0.799,-0.4058,9.8799,-0.2666,-0.2123,9.8007,-0.0059,0.0003,0.005
34834,48.094128,-1.710032,80.42,24.79,9.648001,141.8,18 / 23,3484143,2019-08-18 16:11:46:680,-0.9977,-0.7655,9.7949,-0.2847,-0.2168,9.8001,0.0011,0.0103,0.0042
34835,48.094128,-1.710032,80.42,24.79,9.648001,141.8,18 / 23,3484243,2019-08-18 16:11:46:780,-0.8325,-0.2664,9.7758,-0.3007,-0.2192,9.7996,-0.0014,0.0144,0.0056
34836,48.094128,-1.710032,80.42,24.79,9.648001,141.8,18 / 23,3484343,2019-08-18 16:11:46:880,-0.7637,-0.3184,10.3642,-0.3282,-0.2207,9.7987,0.0025,-0.0063,0.0082
34837,48.094128,-1.710032,80.42,24.79,9.648001,141.8,18 / 23,3484443,2019-08-18 16:11:46:980,-0.9678,-0.2215,9.7674,-0.33,-0.2183,9.7987,-0.0009,-0.0159,0.0081
34838,48.094128,-1.710032,80.42,24.79,9.648001,141.8,18 / 23,3484544,2019-08-18 16:11:47:081,-0.9888,-0.1826,9.4867,-0.3264,-0.225,9.7986,-0.0206,-0.0156,0.0081
34839,48.094128,-1.710032,80.42,24.79,9.648001,141.8,18 / 23,3484643,2019-08-18 16:11:47:180,-0.8786,-0.3196,10.1834,-0.334,-0.2388,9.7981,-0.0242,-0.0063,0.0083
34840,48.094128,-1.710032,80.42,24.79,9.648001,141.8,18 / 23,3484743,2019-08-18 16:11:47:280,-0.6901,-0.3142,9.9637,-0.3535,-0.2497,9.7971,-0.0083,-0.0089,0.0104
34841,48.094128,-1.710032,80.42,24.79,9.648001,141.8,18 / 23,3484844,2019-08-18 16:11:47:381,-1.4371,-0.1275,9.6896,-0.3512,-0.2548,9.797,-0.0036,-0.0058,0.0109
34842,48.094128,-1.710032,80.42,24.79,9.648001,141.8,18 / 23,3484943,2019-08-18 16:11:47:480,-0.9469,-0.176,10.0966,-0.3564,-0.2572,9.7968,0.0051,-0.0073,0.0104
34843,48.094128,-1.710032,80.42,24.79,9.648001,141.8,18 / 23,3485043,2019-08-18 16:11:47:580,-0.7852,-0.158,9.5304,-0.3651,-0.2476,9.7967,-0.0038,-0.0061,0.0122
34844,48.094128,-1.710032,80.42,24.79,9.648001,141.8,18 / 23,3485143,2019-08-18 16:11:47:680,-0.6835,-0.1544,9.4532,-0.3647,-0.2481,9.7967,-0.0074,-0.0027,0.01
34845,48.094128,-1.710032,80.42,24.79,9.648001,141.8,18 / 23,3485244,2019-08-18 16:11:47:781,-0.6075,-0.1945,9.9536,-0.3694,-0.2611,9.7962,-0.0095,-0.006,0.0007
34846,48.094128,-1.710032,80.42,24.79,9.648001,141.8,18 / 23,3485343,2019-08-18 16:11:47:880,-0.2346,-0.1335,10.3462,-0.3666,-0.2649,9.7962,-0.0038,-0.0154,-0.002
34847,48.094128,-1.710032,80.42,24.79,9.648001,141.8,18 / 23,3485443,2019-08-18 16:11:47:980,-0.0879,-0.3208,10.2738,-0.3452,-0.2694,9.7969,-0.0002,-0.0105,-0.0016
34848,48.094128,-1.710032,80.42,24.79,9.648001,141.8,18 / 23,3485543,2019-08-18 16:11:48:080,-0.5398,-0.149,9.8692,-0.3364,-0.2695,9.7972,-0.0038,-0.0146,-0.0015
34849,48.094128,-1.710032,80.42,24.79,9.648001,141.8,18 / 23,3485643,2019-08-18 16:11:48:180,0.0539,-0.0688,10.7047,-0.3286,-0.2639,9.7976,0.0058,-0.009,-0.0005
34850,48.094128,-1.710032,80.42,24.79,9.648001,141.8,18 / 23,3485743,2019-08-18 16:11:48:280,-0.2579,0.1915,10.579,-0.3199,-0.2588,9.798,0.0053,-0.0102,0.0029
34851,48.094128,-1.710032,80.42,24.79,9.648001,141.8,18 / 23,3485843,2019-08-18 16:11:48:380,-0.5069,-0.0916,10.1966,-0.3108,-0.2498,9.7985,-0.0079,0.0064,0.0101
34852,48.094128,-1.710032,80.42,24.79,9.648001,141.8,18 / 23,3485943,2019-08-18 16:11:48:480,-0.7104,-0.2125,9.8638,-0.3239,-0.2548,9.798,-0.0146,0.0049,0.0117
34853,48.094128,-1.710032,80.42,24.79,9.648001,141.8,18 / 23,3486043,2019-08-18 16:11:48:580,-0.6601,-0.0437,9.9476,-0.3508,-0.2712,9.7966,-0.0105,0.0003,0.0124
34854,48.094128,-1.710032,80.42,24.79,9.648001,141.8,19 / 23,3486144,2019-08-18 16:11:48:681,-0.6901,-0.1802,9.7961,-0.3586,-0.2733,9.7963,-0.0073,-0.0049,0.0111
34855,48.094128,-1.710032,80.42,24.79,9.648001,141.8,19 / 23,3486243,2019-08-18 16:11:48:780,-0.7751,-0.079,8.9647,-0.3776,-0.2737,9.7956,-0.0044,-0.0052,0.0108
34856,48.094128,-1.710032,80.42,24.79,9.648001,141.8,19 / 23,3486343,2019-08-18 16:11:48:880,-0.8307,-0.2454,9.4173,-0.3777,-0.2781,9.7954,-0.0224,-0.0005,0.0097
34857,48.094128,-1.710032,80.42,24.79,9.648001,141.8,19 / 23,3486443,2019-08-18 16:11:48:980,-0.8086,-0.1868,9.5813,-0.3992,-0.3045,9.7938,-0.0266,0.0123,0.0101
34858,48.094128,-1.710032,80.42,24.79,9.648001,141.8,19 / 23,3486544,2019-08-18 16:11:49:081,-0.884,-0.3047,9.6489,-0.4203,-0.3149,9.7926,-0.0018,0.0047,0.0128
34859,48.094128,-1.710032,80.42,24.79,9.648001,141.8,19 / 23,3486643,2019-08-18 16:11:49:180,-1.2108,-0.3298,9.6291,-0.4363,-0.3178,9.7918,0.0014,0.0019,0.0089
34860,48.094128,-1.710032,80.42,24.79,9.648001,141.8,19 / 23,3486744,2019-08-18 16:11:49:281,-0.7631,-0.3358,9.938,-0.4474,-0.3163,9.7913,0.0053,-0.0022,0.0083
34861,48.094128,-1.710032,80.42,24.79,9.648001,141.8,19 / 23,3486843,2019-08-18 16:11:49:380,-1.051,-0.4064,10.4886,-0.4541,-0.311,9.7912,-0.0022,-0.0186,0.0058
34862,48.094128,-1.710032,80.42,24.79,9.648001,141.8,19 / 23,3486944,2019-08-18 16:11:49:481,-1.0061,-0.5453,10.0828,-0.4471,-0.3137,9.7914,-0.0051,-0.0221,0.0036
34863,48.094128,-1.710032,80.42,24.79,9.648001,141.8,19 / 23,3487043,2019-08-18 16:11:49:580,-0.8732,-0.6255,9.6872,-0.4359,-0.317,9.7918,-0.0087,-0.0052,-0.001
34864,48.094128,-1.710032,80.42,24.79,9.648001,141.8,19 / 23,3487143,2019-08-18 16:11:49:680,-0.5871,-0.2993,9.6082,-0.4365,-0.3279,9.7914,-0.0088,0.0062,-0.0005
34865,48.094128,-1.710032,80.42,24.79,9.648001,141.8,19 / 23,3487243,2019-08-18 16:11:49:780,-0.7972,-0.316,9.4963,-0.4538,-0.3416,9.7902,-0.0068,0.0043,0.0001
34866,48.094128,-1.710032,80.42,24.79,9.648001,141.8,19 / 23,3487343,2019-08-18 16:11:49:880,-0.5608,-0.5124,9.8799,-0.4563,-0.3462,9.7899,-0.0011,-0.0074,-0.0002
34867,48.094128,-1.710032,80.42,24.79,9.648001,141.8,19 / 23,3487444,2019-08-18 16:11:49:981,-0.6398,-0.4238,9.759,-0.4494,-0.3367,9.7906,0.0134,-0.0026,0.0007
34868,48.094128,-1.710032,80.42,24.79,9.648001,141.8,19 / 23,3487544,2019-08-18 16:11:50:081,-0.6272,-0.1101,9.6543,-0.4477,-0.3296,9.7909,0.003,-0.0092,-0.0003
34869,48.094128,-1.710032,80.42,24.79,9.648001,141.8,19 / 23,3487643,2019-08-18 16:11:50:180,-0.6829,-0.3394,9.5286,-0.4452,-0.3354,9.7908,-0.0079,0.0013,-0.0005
34870,48.094128,-1.710032,80.42,24.79,9.648001,141.8,19 / 23,3487744,2019-08-18 16:11:50:281,-0.7739,-0.404,9.5316,-0.4493,-0.3404,9.7904,-0.0173,0.0015,-0.0003
34871,48.094128,-1.710032,80.42,24.79,9.648001,141.8,19 / 23,3487843,2019-08-18 16:11:50:380,-0.6811,-0.5321,9.8554,-0.4786,-0.3584,9.7884,-0.0105,0.011,0.0003
34872,48.094128,-1.710032,80.42,24.79,9.648001,141.8,19 / 23,3487943,2019-08-18 16:11:50:480,-0.8858,-0.4956,10.2738,-0.481,-0.3642,9.7881,-0.0048,-0.0203,-0.0016
34873,48.094128,-1.710032,80.42,24.79,9.648001,141.8,19 / 23,3488043,2019-08-18 16:11:50:580,-0.9433,-0.5848,10.3115,-0.4684,-0.3722,9.7884,-0.0046,-0.0398,-0.0015
34874,48.094128,-1.710032,80.42,24.79,9.648001,141.8,19 / 23,3488143,2019-08-18 16:11:50:680,-0.7242,-0.2191,10.0146,-0.4531,-0.3724,9.7891,-0.0011,-0.013,-0.0012
34875,48.094128,-1.710032,80.42,24.79,9.648001,141.8,19 / 23,3488243,2019-08-18 16:11:50:780,-0.7176,-0.4148,9.8757,-0.4438,-0.3813,9.7892,-0.0124,0.0078,0.0015
34876,48.094128,-1.710032,80.42,24.79,9.648001,141.8,19 / 23,3488344,2019-08-18 16:11:50:881,-0.8433,-0.2269,9.4274,-0.4632,-0.3889,9.788,-0.0019,0.0022,0.001
34877,48.094128,-1.710032,80.42,24.79,9.648001,141.8,19 / 23,3488444,2019-08-18 16:11:50:981,-0.4818,-0.3238,9.5022,-0.468,-0.3927,9.7876,-0.0043,-0.0103,0.0004
34878,48.094128,-1.710032,80.42,24.79,9.648001,141.8,19 / 23,3488544,2019-08-18 16:11:51:081,-0.5398,-0.5656,9.4065,-0.4614,-0.3972,9.7877,-0.007,-0.0138,-0.0011
34879,48.094128,-1.710032,80.42,24.79,9.648001,141.8,19 / 23,3488643,2019-08-18 16:11:51:180,-0.7003,-0.3801,9.7333,-0.4585,-0.4081,9.7874,-0.0144,-0.0061,-0.0016
34880,48.094128,-1.710032,80.42,24.79,9.648001,141.8,19 / 23,3488743,2019-08-18 16:11:51:280,-0.5883,-0.4758,9.7794,-0.4631,-0.4221,9.7866,-0.0133,0.003,-0.0018
34881,48.094128,-1.710032,80.42,24.79,9.648001,141.8,19 / 23,3488844,2019-08-18 16:11:51:381,-0.8014,-0.3298,9.5579,-0.4626,-0.4323,9.7862,-0.0023,-0.0073,-0.0007
34882,48.094128,-1.710032,80.42,24.79,9.648001,141.8,19 / 23,3488943,2019-08-18 16:11:51:480,-0.404,-0.0658,9.6441,-0.4518,-0.4279,9.7869,-0.0025,-0.012,0.0004
34883,48.094128,-1.710032,80.42,24.79,9.648001,141.8,19 / 23,3489043,2019-08-18 16:11:51:580,-0.1598,-0.1909,9.5651,-0.4447,-0.432,9.787,-0.0074,0.0032,0.0011
34884,48.092617,-1.708093,84.93,23.6,3.216,138.8,19 / 23,3489143,2019-08-18 16:11:51:680,-0.4465,-0.3089,9.5465,-0.4386,-0.4348,9.7872,0.0002,0.0021,0.0009
34885,48.092617,-1.708093,84.93,23.6,3.216,138.8,19 / 23,3489244,2019-08-18 16:11:51:781,-0.6206,-0.3801,9.3783,-0.4408,-0.4268,9.7874,-0.002,0.002,0.0033
34886,48.092617,-1.708093,84.93,23.6,3.216,138.8,19 / 23,3489343,2019-08-18 16:11:51:880,-0.3501,-0.337,9.6291,-0.4417,-0.4257,9.7874,0.0041,0.0094,0.0019
34887,48.092617,-1.708093,84.93,23.6,3.216,138.8,19 / 23,3489443,2019-08-18 16:11:51:980,-0.3555,-0.0455,9.7357,-0.4284,-0.4108,9.7887,-0.0007,-0.0159,-0.0003
34888,48.092617,-1.708093,84.93,23.6,3.216,138.8,19 / 23,3489543,2019-08-18 16:11:52:080,-0.1759,-0.3208,10.5311,-0.4158,-0.4101,9.7892,-0.0072,-0.0225,-0.0005
34889,48.092617,-1.708093,84.93,23.6,3.216,138.8,19 / 23,3489643,2019-08-18 16:11:52:180,-0.2034,0.0946,9.8769,-0.3886,-0.4039,9.7906,-0.0042,-0.0061,0.0011
34890,48.092617,-1.708093,84.93,23.6,3.216,138.8,19 / 23,3489743,2019-08-18 16:11:52:280,0.1347,-0.2185,9.8105,-0.3855,-0.4021,9.7908,-0.0045,0.011,0.0024
34891,48.092617,-1.708093,84.93,23.6,3.216,138.8,19 / 23,3489844,2019-08-18 16:11:52:381,-0.1185,-0.17,9.6513,-0.3948,-0.3966,9.7907,-0.0001,0.0165,0.0025
34892,48.092617,-1.708093,84.93,23.6,3.216,138.8,19 / 23,3489943,2019-08-18 16:11:52:480,-0.3621,-0.3699,10.1445,-0.3993,-0.3937,9.7906,-0.0002,0.0099,0.0015
34893,48.092617,-1.708093,84.93,23.6,3.216,138.8,19 / 23,3490043,2019-08-18 16:11:52:580,-0.5548,-0.1814,9.8093,-0.3989,-0.3907,9.7907,0.0012,-0.0121,-0.0017
34894,48.092617,-1.708093,84.93,23.6,3.216,138.8,19 / 23,3490144,2019-08-18 16:11:52:681,-0.7799,-0.3699,9.774,-0.3884,-0.3866,9.7913,-0.0065,-0.0117,-0.0004
34895,48.092617,-1.708093,84.93,23.6,3.216,138.8,19 / 23,3490244,2019-08-18 16:11:52:781,-0.5799,-0.2322,10.108,-0.3882,-0.3877,9.7913,-0.0093,0.0047,-0.0004
34896,48.092617,-1.708093,84.93,23.6,3.216,138.8,19 / 23,3490343,2019-08-18 16:11:52:880,-0.468,-0.2975,9.7027,-0.4019,-0.3889,9.7907,-0.0061,-0.0028,0.0005
34897,48.092617,-1.708093,84.93,23.6,3.216,138.8,19 / 23,3490443,2019-08-18 16:11:52:980,-0.4512,-0.1287,10.0595,-0.4007,-0.3933,9.7906,-0.0028,-0.0049,0.0002
34898,48.092617,-1.708093,84.93,23.6,3.216,138.8,19 / 23,3490543,2019-08-18 16:11:53:080,-0.5033,-0.2077,10.3953,-0.3999,-0.3921,9.7906,-0.0029,-0.0199,-0.0004
34899,48.092617,-1.708093,84.93,23.6,3.216,138.8,19 / 23,3490644,2019-08-18 16:11:53:181,-0.62,-0.2053,10.6,-0.3906,-0.3934,9.791,-0.0061,-0.0288,-0.0005
34900,48.092617,-1.708093,84.93,23.6,3.216,138.8,19 / 23,3490743,2019-08-18 16:11:53:280,-0.5817,-0.2915,10.2612,-0.363,-0.3994,9.7918,-0.007,-0.0234,-0.0016
34901,48.092617,-1.708093,84.93,23.6,3.216,138.8,19 / 23,3490843,2019-08-18 16:11:53:380,-0.4327,-0.4136,9.6956,-0.3568,-0.4047,9.7918,-0.0156,-0.0073,-0.0017
34902,48.092617,-1.708093,84.93,23.6,3.216,138.8,19 / 23,3490943,2019-08-18 16:11:53:480,-0.4973,-0.5608,9.58,-0.3577,-0.4265,9.7908,-0.0132,0.0034,-0.0009
34903,48.092617,-1.708093,84.93,23.6,3.216,138.8,19 / 23,3491043,2019-08-18 16:11:53:580,-0.5327,-0.495,9.3903,-0.3628,-0.4312,9.7904,-0.0105,-0.0012,-0.0002
34904,48.092617,-1.708093,84.93,23.6,3.216,138.8,19 / 23,3491144,2019-08-18 16:11:53:681,-0.4046,-0.3663,9.3508,-0.3664,-0.4402,9.7899,-0.0068,0.0074,0.0009
34905,48.092617,-1.708093,84.93,23.6,3.216,138.8,19 / 23,3491244,2019-08-18 16:11:53:781,-0.2466,-0.4435,9.75,-0.3728,-0.4411,9.7896,-0.0156,-0.0013,-0.0008
34906,48.092617,-1.708093,84.93,23.6,3.216,138.8,19 / 23,3491343,2019-08-18 16:11:53:880,-0.4961,-0.1676,10.0984,-0.3727,-0.4533,9.7891,-0.0165,-0.0115,0.001
34907,48.092617,-1.708093,84.93,23.6,3.216,138.8,19 / 23,3491444,2019-08-18 16:11:53:981,-0.8355,-0.5417,9.8584,-0.3709,-0.4588,9.7889,-0.0063,-0.0108,-0.0006
34908,48.092617,-1.708093,84.93,23.6,3.216,138.8,19 / 23,3491543,2019-08-18 16:11:54:080,-0.8678,-0.7296,10.0361,-0.3729,-0.4591,9.7888,-0.0023,-0.0107,0.0012
34909,48.092617,-1.708093,84.93,23.6,3.216,138.8,19 / 23,3491644,2019-08-18 16:11:54:181,-1.0139,-0.4274,9.6794,-0.3744,-0.4578,9.7888,0.0037,-0.009,0.0012
34910,48.092617,-1.708093,84.93,23.6,3.216,138.8,19 / 23,3491743,2019-08-18 16:11:54:280,-0.7799,-0.5189,9.8129,-0.4025,-0.4481,9.7881,0.0155,0.0255,0.0024
34911,48.092617,-1.708093,84.93,23.6,3.216,138.8,19 / 23,3491843,2019-08-18 16:11:54:380,-0.6595,-0.5106,9.6333,-0.4189,-0.4451,9.7876,-0.0083,-0.0074,0.0015
34912,48.092617,-1.708093,84.93,23.6,3.216,138.8,19 / 23,3491943,2019-08-18 16:11:54:480,-1.0803,-0.2262,9.5878,-0.4221,-0.4547,9.787,-0.0126,-0.0139,0.0005
34913,48.092617,-1.708093,84.93,23.6,3.216,138.8,19 / 23,3492044,2019-08-18 16:11:54:581,-0.9175,-0.507,9.173,-0.4298,-0.4559,9.7866,0.0065,0.01,0.0014
34914,48.092617,-1.708093,84.93,23.6,3.216,138.8,19 / 23,3492143,2019-08-18 16:11:54:680,-0.7236,-0.489,9.1132,-0.4452,-0.4537,9.786,-0.0011,-0.0013,0.0021
34915,48.092617,-1.708093,84.93,23.6,3.216,138.8,19 / 23,3492243,2019-08-18 16:11:54:780,-0.9702,-0.0993,10.3857,-0.4498,-0.4502,9.786,0.0045,0.0043,0.0006
34916,48.092617,-1.708093,84.93,23.6,3.216,138.8,19 / 23,3492343,2019-08-18 16:11:54:880,-1.0205,-0.4561,9.9919,-0.4334,-0.4403,9.7872,0.0069,-0.0274,-0.0004
34917,48.092617,-1.708093,84.93,23.6,3.216,138.8,19 / 23,3492444,2019-08-18 16:11:54:981,-0.9582,-0.1999,9.3125,-0.4391,-0.4427,9.7868,-0.0231,0.0154,-0.0009
34918,48.092617,-1.708093,84.93,23.6,3.216,138.8,19 / 23,3492543,2019-08-18 16:11:55:080,-0.553,-0.5267,9.2251,-0.4579,-0.4701,9.7847,-0.0146,-0.0154,-0.0029
34919,48.092617,-1.708093,84.93,23.6,3.216,138.8,19 / 23,3492643,2019-08-18 16:11:55:180,-0.2262,-0.079,10.4881,-0.4511,-0.4752,9.7847,0.0048,-0.0031,0.0006
34920,48.092617,-1.708093,84.93,23.6,3.216,138.8,19 / 23,3492743,2019-08-18 16:11:55:280,-0.4536,-0.1161,9.6411,-0.4491,-0.4527,9.7859,0.017,-0.0008,0.0046
34921,48.092617,-1.708093,84.93,23.6,3.216,138.8,19 / 23,3492843,2019-08-18 16:11:55:380,-0.4207,0.1808,9.7907,-0.4434,-0.4391,9.7868,0.0059,-0.0058,0.0019
34922,48.092617,-1.708093,84.93,23.6,3.216,138.8,19 / 23,3492943,2019-08-18 16:11:55:480,-0.2968,-0.2143,10.2917,-0.446,-0.4337,9.7869,-0.0191,-0.0048,-0.0002
34923,48.092617,-1.708093,84.93,23.6,3.216,138.8,19 / 23,3493044,2019-08-18 16:11:55:581,-0.1083,-0.2466,10.3217,-0.4423,-0.4417,9.7867,-0.0079,-0.0085,-0.0015
34924,48.092617,-1.708093,84.93,23.6,3.216,138.8,19 / 23,3493144,2019-08-18 16:11:55:681,-0.4758,-0.1598,10.0469,-0.4256,-0.4441,9.7873,-0.0079,-0.0147,0.0002
34925,48.092617,-1.708093,84.93,23.6,3.216,138.8,19 / 23,3493244,2019-08-18 16:11:55:781,-0.459,-0.1646,9.7536,-0.4123,-0.4436,9.7879,-0.0068,-0.0005,0.0007
34926,48.092617,-1.708093,84.93,23.6,3.216,138.8,19 / 23,3493343,2019-08-18 16:11:55:880,-0.5141,-0.4938,9.9619,-0.4126,-0.4482,9.7877,-0.0103,0.0101,0.0015
34927,48.092617,-1.708093,84.93,23.6,3.216,138.8,19 / 23,3493443,2019-08-18 16:11:55:980,-0.4118,-0.1245,10.2444,-0.4215,-0.4542,9.7871,-0.017,0.0068,-0.0005
34928,48.092617,-1.708093,84.93,23.6,3.216,138.8,19 / 23,3493544,2019-08-18 16:11:56:081,-0.6356,-0.3609,9.9865,-0.4277,-0.4658,9.7862,-0.0062,-0.0055,-0.0004
34929,48.092617,-1.708093,84.93,23.6,3.216,138.8,19 / 23,3493643,2019-08-18 16:11:56:180,-0.7439,-0.2927,9.8177,-0.4278,-0.4646,9.7863,0.0027,-0.004,0.0003
34930,48.092617,-1.708093,84.93,23.6,3.216,138.8,19 / 23,3493743,2019-08-18 16:11:56:280,-0.7176,-0.5441,9.7776,-0.4276,-0.4611,9.7865,0.0025,-0.0051,-0.0013
34931,48.092617,-1.708093,84.93,23.6,3.216,138.8,19 / 23,3493843,2019-08-18 16:11:56:380,-0.7822,-0.4818,10.1972,-0.4242,-0.4564,9.7868,-0.0002,-0.0062,-0.0016
34932,48.092617,-1.708093,84.93,23.6,3.216,138.8,19 / 23,3493943,2019-08-18 16:11:56:480,-0.6949,-0.161,9.6824,-0.4234,-0.4554,9.7869,-0.0055,-0.0029,-0.0003
34933,48.092617,-1.708093,84.93,23.6,3.216,138.8,19 / 23,3494044,2019-08-18 16:11:56:581,-0.4572,-0.4124,10.029,-0.4284,-0.4495,9.787,0.0039,0.0011,-0.0018
34934,48.092617,-1.708093,84.93,23.6,3.216,138.8,19 / 23,3494145,2019-08-18 16:11:56:682,-0.5907,-0.5692,9.8733,-0.4275,-0.4495,9.787,-0.0035,-0.0114,-0.0022
34935,48.092617,-1.708093,84.93,23.6,3.216,138.8,19 / 23,3494244,2019-08-18 16:11:56:781,-0.5321,-0.3681,9.7213,-0.4253,-0.4493,9.7871,-0.0084,-0.0094,0.0001
34936,48.092617,-1.708093,84.93,23.6,3.216,138.8,19 / 23,3494343,2019-08-18 16:11:56:880,-0.6955,-0.1359,9.595,-0.4206,-0.4526,9.7872,-0.0137,-0.015,0.0018
34937,48.092617,-1.708093,84.93,23.6,3.216,138.8,19 / 23,3494443,2019-08-18 16:11:56:980,-0.4638,-0.4046,9.6375,-0.4084,-0.4621,9.7872,-0.013,-0.01,0.0016
34938,48.092617,-1.708093,84.93,23.6,3.216,138.8,19 / 23,3494544,2019-08-18 16:11:57:081,-0.5464,0.0473,9.2413,-0.4057,-0.4654,9.7872,-0.0162,-0.0057,0.0006
34939,48.092617,-1.708093,84.93,23.6,3.216,138.8,19 / 23,3494643,2019-08-18 16:11:57:180,-0.3944,-0.5608,9.446,-0.3969,-0.477,9.787,-0.0101,-0.0076,-0.0001
34940,48.092617,-1.708093,84.93,23.6,3.216,138.8,19 / 23,3494743,2019-08-18 16:11:57:280,-0.4794,-0.0814,9.6896,-0.3962,-0.4781,9.787,-0.0104,-0.0112,-0.0006
34941,48.092617,-1.708093,84.93,23.6,3.216,138.8,19 / 23,3494843,2019-08-18 16:11:57:380,-0.3112,-0.3106,9.8398,-0.3836,-0.4817,9.7873,-0.0073,-0.0084,0.0005
