,GPS LATITUDE (degrees), GPS LONGITUDE (degrees), GPS ALTITUDE (m), GPS SPEED (Kmh), GPS ACCURACY (m), GPS ORIENTATION (Â°),GPS SATELLITES IN RANGE, TIME SINCE START (ms), DATE (YYYY-MO-DD HH-MI-SS_SSS), ACCELEROMETER X (m/s²) , ACCELEROMETER Y (m/s²), ACCELEROMETER Z (m/s²), GRAVITY X (m/s²), GRAVITY Y (m/s²), GRAVITY Z (m/s²), GYROSCOPE Yaw (rad/s), GYROSCOPE Pitch (rad/s), GYROSCOPE Roll (rad/s), MAGNETIC FIELD X (Î¼T), MAGNETIC FIELD Y (Î¼T), MAGNETIC FIELD Z (Î¼T), ORIENTATION (Yaw) (Â°), ORIENTATION (Pitch) (Â°), ORIENTATION (Roll ) (Â°)
64760,51.248432,-2.928553,48,23.54,9,237.3,16 / 21,6476023,2019-08-16 14:37:09:803,-0.0882,-0.5183,9.8809,0.0035,0.0061,9.8066,-0.0139,-0.024,-0.0123,-2.84,28.71,-8.21,261.84,8.61,-0.04
64761,51.248432,-2.928553,48,23.54,9,237.3,16 / 21,6476123,2019-08-16 14:37:09:903,-0.3278,-0.1753,10.0977,0.0226,0.0013,9.8066,-0.0501,-0.0389,-0.0304,-2.84,28.71,-8.21,261.84,8.61,-0.04
64762,51.248432,-2.928553,48,23.54,9,237.3,16 / 21,6476223,2019-08-16 14:37:10:003,-0.1319,0.0254,9.683,0.0271,0.004,9.8066,-0.0671,-0.0059,-0.0165,-3.73,28.5,-8.59,259.67,8.64,-0.17
64763,51.248432,-2.928553,48,23.54,9,237.3,16 / 21,6476324,2019-08-16 14:37:10:104,-0.1187,-0.4552,10.0774,0.0591,0.0053,9.8065,-0.0309,-0.0336,-0.0219,-3.03,28.28,-9.53,261.01,8.73,-0.51
64764,51.248432,-2.928553,48,23.54,9,237.3,16 / 21,6476423,2019-08-16 14:37:10:203,-0.1396,0.0107,10.2023,0.0314,-0.0004,9.8066,-0.0362,0.0037,-0.0346,-3.03,28.28,-9.53,261.01,8.73,-0.51
64765,51.248432,-2.928553,48,23.54,9,237.3,16 / 21,6476522,2019-08-16 14:37:10:302,0.2627,-0.2968,8.7415,0.0796,-0.0195,9.8063,-0.0149,-0.0591,-0.024,-2.18,28.16,-10.12,263.09,8.69,-0.99
64766,51.248432,-2.928553,48,23.54,9,237.3,16 / 21,6476623,2019-08-16 14:37:10:403,0.3165,-0.4421,9.5663,0.046,-0.0152,9.8065,-0.0373,0.0101,-0.024,-2.24,28.11,-10.25,263.09,8.69,-0.99
64767,51.248432,-2.928553,48,23.54,9,237.3,16 / 21,6476723,2019-08-16 14:37:10:503,0.3761,-0.1432,10.2416,0.0844,-0.027,9.8063,-0.0309,0.0623,-0.024,-0.83,27.77,-11.33,264.9,8.59,-1.51
64768,51.24832,-2.928835,48,23.5,9,238.0,16 / 21,6476823,2019-08-16 14:37:10:603,0.0274,-0.5114,9.6115,0.0301,-0.0172,9.8066,-0.0053,-0.0538,-0.0037,-1.68,27.95,-10.78,262.99,8.51,-1.69
64769,51.24832,-2.928835,48,23.5,9,238.0,16 / 21,6476923,2019-08-16 14:37:10:703,-0.2219,-0.0815,10.356,0.0297,-0.0489,9.8065,-0.0053,-0.0538,-0.0037,-1.68,27.95,-10.78,262.99,8.51,-1.69
64770,51.24832,-2.928835,48,23.5,9,238.0,16 / 21,6477023,2019-08-16 14:37:10:803,0.1009,0.057,9.9863,0.0099,-0.0521,9.8065,0.0501,-0.0165,-0.0059,-1.67,27.9,-10.9,262.99,8.51,-1.69
64771,51.24832,-2.928835,48,23.5,9,238.0,16 / 21,6477123,2019-08-16 14:37:10:903,-0.1129,0.2466,9.7034,-0.0014,0.016,9.8066,-0.0234,0.0506,-0.0101,-0.88,28.5,-9.34,265.65,8.21,-1.79
64772,51.24832,-2.928835,48,23.5,9,238.0,16 / 21,6477223,2019-08-16 14:37:11:003,-0.1983,0.4019,9.3332,-0.0087,-0.0005,9.8066,0.0224,-0.0048,-0.0059,-0.83,28.65,-8.87,265.78,8.3,-1.77
64773,51.24832,-2.928835,48,23.5,9,238.0,16 / 21,6477323,2019-08-16 14:37:11:103,-0.4825,-0.0586,10.2516,-0.044,-0.0095,9.8065,0.0234,0.0165,-0.0346,-0.8,28.81,-8.33,265.78,8.3,-1.77
64774,51.24832,-2.928835,48,23.5,9,238.0,16 / 21,6477424,2019-08-16 14:37:11:204,-0.133,0.0742,9.3563,-0.0661,-0.001,9.8064,0.0181,-0.0282,-0.0314,-1.65,29.09,-7.14,264.35,8.27,-1.38
64775,51.24832,-2.928835,48,23.5,9,238.0,16 / 21,6477523,2019-08-16 14:37:11:303,-0.1927,0.2833,10.1656,-0.0022,0.0044,9.8066,-0.0021,0.0123,-0.0197,-1.65,29.09,-7.14,264.35,8.27,-1.38
64776,51.24832,-2.928835,48,23.5,9,238.0,16 / 21,6477623,2019-08-16 14:37:11:403,-0.0398,0.0478,9.9461,-0.004,-0.0161,9.8066,-0.0021,0.0123,-0.0197,-0.05,29.18,-6.97,268.21,8.29,-1.37
64777,51.24832,-2.928835,48,23.5,9,238.0,16 / 21,6477723,2019-08-16 14:37:11:503,-0.2033,-0.0631,10.2873,-0.0051,-0.0149,9.8066,-0.0234,0.0186,0.0144,-0.81,28.46,-9.46,265.58,8.21,-1.34
64778,51.248215,-2.929125,48,23.67,9,238.9,15 / 21,6477823,2019-08-16 14:37:11:603,0.0795,0.2794,10.5115,-0.0126,0.0014,9.8066,-0.0224,0.041,0.0293,-1.61,28.35,-9.69,263.29,8.21,-1.27
64779,51.248215,-2.929125,48,23.67,9,238.9,15 / 21,6477923,2019-08-16 14:37:11:703,0.0455,-0.4955,10.3088,-0.0426,-0.0746,9.8063,0.0202,0.041,-0.0165,-1.61,28.35,-9.69,263.29,8.21,-1.27
64780,51.248215,-2.929125,48,23.67,9,238.9,15 / 21,6478023,2019-08-16 14:37:11:803,0.2567,-0.4464,10.0239,-0.0177,-0.0017,9.8066,0.0607,-0.0357,-0.0187,-1.54,27.91,-10.9,263.14,7.75,-1.07
64781,51.248215,-2.929125,48,23.67,9,238.9,15 / 21,6478123,2019-08-16 14:37:11:903,0.6101,0.5803,9.1792,-0.0371,0.0268,9.8065,0.032,-0.0304,0.0165,-0.85,28.29,-9.94,265.32,7.88,-0.83
64782,51.248215,-2.929125,48,23.67,9,238.9,15 / 21,6478223,2019-08-16 14:37:12:003,-0.0569,0.6099,9.9139,-0.0441,0.0443,9.8065,0.0383,-0.0112,0.0186,-0.82,28.09,-10.5,265.19,8.11,-0.55
64783,51.248215,-2.929125,48,23.67,9,238.9,15 / 21,6478324,2019-08-16 14:37:12:104,-0.1501,0.8135,8.9936,-0.0467,0.0363,9.8065,0.0224,-0.0389,-0.0006,-0.82,28.09,-10.5,265.19,8.11,-0.55
64784,51.248215,-2.929125,48,23.67,9,238.9,15 / 21,6478423,2019-08-16 14:37:12:203,-0.169,0.69,9.6045,-0.0486,0.0279,9.8065,0.0224,-0.0389,-0.0006,-1.61,28.35,-9.69,263.08,8.3,-0.26
64785,51.248215,-2.929125,48,23.67,9,238.9,15 / 21,6478523,2019-08-16 14:37:12:303,-0.0357,0.4838,9.633,-0.0954,0.0468,9.8061,0.0266,0.041,-0.0112,-1.57,28.43,-9.45,263.08,8.3,-0.26
64786,51.248215,-2.929125,48,23.67,9,238.9,15 / 21,6478624,2019-08-16 14:37:12:404,-0.148,0.4027,9.6851,-0.1226,0.0395,9.8058,0.0032,0.0101,0.009,-1.57,28.43,-9.45,263.08,8.3,-0.26
64787,51.248215,-2.929125,48,23.67,9,238.9,15 / 21,6478723,2019-08-16 14:37:12:503,-0.1447,0.3199,10.1494,-0.0258,-0.007,9.8066,-0.0139,0.0005,0.0005,-0.81,28.42,-9.58,264.9,8.44,0.49
64788,51.248104,-2.929415,48,23.81,9,239.5,16 / 21,6478823,2019-08-16 14:37:12:603,-0.5742,-0.1578,10.396,-0.0259,-0.01,9.8066,-0.0693,0.0037,-0.0187,-1.53,28.45,-9.38,263.18,8.37,0.64
64789,51.248104,-2.929415,48,23.81,9,239.5,16 / 21,6478923,2019-08-16 14:37:12:703,0.2031,0.0128,10.5421,0.0541,0.005,9.8065,-0.0202,-0.0304,-0.0165,-2.36,28.84,-7.92,263.18,8.37,0.64
64790,51.248104,-2.929415,48,23.81,9,239.5,16 / 21,6479023,2019-08-16 14:37:12:803,0.4528,0.1388,10.1064,0.02,0.0003,9.8066,0.0128,0.0101,-0.0251,-1.63,28.76,-8.38,263.74,8.44,0.32
64791,51.248104,-2.929415,48,23.81,9,239.5,16 / 21,6479123,2019-08-16 14:37:12:903,0.5661,0.6973,9.4374,0.0256,0.0008,9.8066,-0.0032,0.0314,0.0016,-1.63,28.76,-8.38,263.74,8.44,0.32
64792,51.248104,-2.929415,48,23.81,9,239.5,16 / 21,6479223,2019-08-16 14:37:13:003,0.3588,0.6443,9.504,-0.0081,0.0201,9.8066,0.032,0.0101,-0.0325,-1.55,28.7,-8.58,263.47,8.46,0.17
64793,51.248104,-2.929415,48,23.81,9,239.5,16 / 21,6479323,2019-08-16 14:37:13:103,0.1384,-0.0529,10.0911,-0.0122,0.0136,9.8066,0.032,0.0101,-0.0325,-2.32,28.34,-9.55,263.47,8.46,0.17
64794,51.248104,-2.929415,48,23.81,9,239.5,16 / 21,6479423,2019-08-16 14:37:13:203,-0.128,0.0387,9.9278,-0.0122,-0.0109,9.8066,-0.0192,0.0549,0.0026,-1.57,28.34,-9.72,262.91,8.53,0.25
64795,51.248104,-2.929415,48,23.81,9,239.5,16 / 21,6479523,2019-08-16 14:37:13:303,-0.1245,-0.4062,10.0049,-0.0198,-0.0185,9.8066,-0.0043,0.0144,-0.0123,-0.79,28.48,-9.39,265.23,8.41,0.36
64796,51.248104,-2.929415,48,23.81,9,239.5,16 / 21,6479623,2019-08-16 14:37:13:403,0.1312,0.3713,9.3941,-0.0127,0.0216,9.8066,0.0064,0.024,-0.0069,-0.79,28.48,-9.39,265.23,8.41,0.36
64797,51.248104,-2.929415,48,23.81,9,239.5,16 / 21,6479724,2019-08-16 14:37:13:504,0.2136,0.4356,9.6591,0.0059,0.0051,9.8066,-0.0256,-0.0282,0.0016,-0.81,28.42,-9.58,264.88,8.53,0.44
64798,51.247997,-2.929703,48,23.73,9,239.5,16 / 21,6479823,2019-08-16 14:37:13:603,0.3392,0.7419,9.4214,0.0208,0.0068,9.8066,-0.0107,0.0037,0.008,-0.05,28.26,-10.06,264.88,8.53,0.44
64799,51.247997,-2.929703,48,23.73,9,239.5,16 / 21,6479922,2019-08-16 14:37:13:702,-0.0935,0.3266,11.149,0.0473,0.0126,9.8065,0.0351,-0.0218,-0.0048,-0.05,28.58,-9.11,267.31,8.63,0.17
64800,51.247997,-2.929703,48,23.73,9,239.5,16 / 21,6480023,2019-08-16 14:37:13:803,0.2091,-0.0172,9.2546,-0.0258,-0.0148,9.8066,0.0351,-0.0218,-0.0048,-0.84,27.95,-10.87,267.31,8.63,0.17
64801,51.247997,-2.929703,48,23.73,9,239.5,16 / 21,6480123,2019-08-16 14:37:13:903,0.2997,-0.3281,9.7765,-0.034,-0.0061,9.8066,0.0351,-0.0037,0.0101,-1.5,28.53,-9.16,265.36,8.53,0.32
64802,51.247997,-2.929703,48,23.73,9,239.5,16 / 21,6480224,2019-08-16 14:37:14:004,-0.2926,-0.7567,9.3428,-0.0556,-0.0151,9.8065,0.0256,0.0858,0.0069,-2.85,28.64,-8.47,261.76,8.42,0.64
64803,51.247997,-2.929703,48,23.73,9,239.5,16 / 21,6480324,2019-08-16 14:37:14:104,-0.315,-0.2735,9.7747,0.0019,0.013,9.8066,-0.0224,-0.008,0.0005,-2.85,28.64,-8.47,261.76,8.42,0.64
64804,51.247997,-2.929703,48,23.73,9,239.5,16 / 21,6480424,2019-08-16 14:37:14:204,-0.2076,-0.356,10.5744,0.0194,0.0056,9.8066,-0.0245,-0.0112,-0.0048,-1.57,29.09,-7.18,263.96,8.49,0.64
64805,51.247997,-2.929703,48,23.73,9,239.5,16 / 21,6480524,2019-08-16 14:37:14:304,0.1372,-0.2676,10.0976,0.0167,0.0066,9.8066,-0.0288,0.0059,0.009,-2.32,29.08,-7.02,263.97,8.54,0.54
64806,51.247997,-2.929703,48,23.73,9,239.5,16 / 21,6480623,2019-08-16 14:37:14:403,-0.0037,-0.344,9.398,0.0053,0.0023,9.8066,-0.0266,-0.0304,-0.0005,-1.57,28.39,-9.57,262.85,8.56,0.51
64807,51.247997,-2.929703,48,23.73,9,239.5,16 / 21,6480723,2019-08-16 14:37:14:503,-0.1243,0.3416,10.5883,0.0116,-0.0015,9.8066,-0.0266,-0.0304,-0.0005,-1.57,28.39,-9.57,262.85,8.56,0.51
64808,51.247887,-2.929988,48,23.65,9,239.6,16 / 21,6480823,2019-08-16 14:37:14:603,0.1154,-0.5332,10.2237,0.0064,-0.0041,9.8066,0.0106,0.0293,-0.0123,-0.8,28.13,-10.4,264.87,8.54,0.47
64809,51.247887,-2.929988,48,23.65,9,239.6,16 / 21,6480923,2019-08-16 14:37:14:703,0.2241,-0.2468,9.6789,0.0108,-0.0007,9.8066,-0.0096,0.0389,-0.0091,-0.05,27.85,-11.15,266.59,8.54,0.41
64810,51.247887,-2.929988,48,23.65,9,239.6,16 / 21,6481024,2019-08-16 14:37:14:804,0.1199,0.1107,9.5885,0.004,-0.0129,9.8066,-0.0021,-0.0069,-0.0059,-0.05,28.26,-10.06,266.59,8.54,0.41
64811,51.247887,-2.929988,48,23.65,9,239.6,16 / 21,6481123,2019-08-16 14:37:14:903,0.3649,0.5043,9.9148,-0.003,-0.0164,9.8066,0.0021,-0.0091,-0.0251,-0.05,28.26,-10.06,266.59,8.54,0.41
64812,51.247887,-2.929988,48,23.65,9,239.6,16 / 21,6481223,2019-08-16 14:37:15:003,-0.051,0.6725,8.7437,-0.0185,0.0162,9.8066,0.0234,0.0602,0.0293,-0.83,28.57,-9.11,265.37,8.44,0.42
64813,51.247887,-2.929988,48,23.65,9,239.6,16 / 21,6481323,2019-08-16 14:37:15:103,-0.0782,0.2483,9.8664,-0.0433,0.0257,9.8065,0.0181,0.0112,0.024,-0.85,28.5,-9.34,265.37,8.44,0.42
64814,51.247887,-2.929988,48,23.65,9,239.6,16 / 21,6481423,2019-08-16 14:37:15:203,-0.3786,0.1171,9.0878,-0.0486,-0.0106,9.8065,-0.0234,0.0421,0.0165,-1.55,28.11,-10.35,262.81,8.57,0.69
64815,51.247887,-2.929988,48,23.65,9,239.6,16 / 21,6481523,2019-08-16 14:37:15:303,-0.3067,-0.0655,10.5095,-0.0671,-0.0265,9.8064,-0.0234,0.0421,0.0165,-2.27,28.42,-9.33,262.81,8.57,0.69
64816,51.247887,-2.929988,48,23.65,9,239.6,16 / 21,6481623,2019-08-16 14:37:15:403,-0.0894,-0.0491,10.4173,-0.0824,-0.0239,9.8063,0.0085,0.0016,0.0048,-2.91,28.62,-8.52,261.39,8.37,1.15
64817,51.247887,-2.929988,48,23.65,9,239.6,16 / 21,6481722,2019-08-16 14:37:15:502,-0.1121,0.0713,9.7503,-0.0008,0.0009,9.8067,-0.0085,-0.0293,-0.0155,-2.91,28.62,-8.52,261.39,8.37,1.15
64818,51.247784,-2.930281,49,23.72,9,239.9,16 / 21,6481823,2019-08-16 14:37:15:603,0.7248,-0.2265,9.0187,0.0082,-0.0361,9.8066,-0.0298,0.0453,0.0165,-1.58,28.65,-8.76,263.32,8.38,1.16
64819,51.247784,-2.930281,49,23.72,9,239.9,16 / 21,6481923,2019-08-16 14:37:15:703,0.2753,0.5373,8.5732,0.0273,-0.0244,9.8066,-0.0107,-0.0772,0.0144,-3.76,28.7,-7.88,259.83,8.26,0.98
64820,51.247784,-2.930281,49,23.72,9,239.9,16 / 21,6482022,2019-08-16 14:37:15:802,0.2136,-0.2546,9.1908,-0.017,0.0376,9.8066,0.0735,-0.0005,-0.0091,-2.3,28.66,-8.57,263.32,8.52,0.93
64821,51.247784,-2.930281,49,23.72,9,239.9,16 / 21,6482123,2019-08-16 14:37:15:903,0.2112,-0.028,9.9226,-0.0384,0.026,9.8065,0.0106,0.0165,0.025,-2.3,28.66,-8.57,263.32,8.52,0.93
64822,51.247784,-2.930281,49,23.72,9,239.9,16 / 21,6482223,2019-08-16 14:37:16:003,0.1285,-0.2872,10.2531,-0.0277,0.0136,9.8066,0.0213,-0.008,0.0186,-1.52,28.24,-10.01,262.69,8.65,1.17
64823,51.247784,-2.930281,49,23.72,9,239.9,16 / 21,6482323,2019-08-16 14:37:16:103,-0.2011,0.0918,9.4968,-0.0655,0.0228,9.8064,0.0213,-0.008,0.0186,-0.78,28.22,-10.16,264.59,8.73,1.58
64824,51.247784,-2.930281,49,23.72,9,239.9,16 / 21,6482423,2019-08-16 14:37:16:203,-0.2885,0.1104,9.5208,-0.0323,-0.0154,9.8066,-0.0096,0.0368,0.025,-0.78,28.22,-10.16,264.59,8.73,1.58
64825,51.247784,-2.930281,49,23.72,9,239.9,16 / 21,6482523,2019-08-16 14:37:16:303,-0.1554,0.0334,10.4618,-0.0262,-0.0162,9.8066,0.0074,-0.0186,-0.0123,-0.83,28.61,-8.99,265.08,8.62,1.76
64826,51.247784,-2.930281,49,23.72,9,239.9,16 / 21,6482624,2019-08-16 14:37:16:404,0.1324,-0.2019,10.1448,-0.0223,-0.0122,9.8066,-0.0522,0.0495,-0.0006,-1.6,28.31,-9.8,262.59,8.54,1.88
64827,51.247784,-2.930281,49,23.72,9,239.9,16 / 21,6482724,2019-08-16 14:37:16:504,0.1918,-0.3513,10.107,0.0281,-0.0032,9.8066,-0.0096,0.0133,-0.008,-0.83,28.34,-9.81,264.64,8.54,1.71
64828,51.247673,-2.930573,49,23.67,9,239.8,16 / 21,6482823,2019-08-16 14:37:16:603,0.1842,-0.4516,10.7321,0.0306,0.0085,9.8066,-0.0096,0.0112,-0.0176,-0.83,28.34,-9.81,264.64,8.54,1.71
64829,51.247673,-2.930573,49,23.67,9,239.8,16 / 21,6482923,2019-08-16 14:37:16:703,0.1097,-0.0961,10.2657,0.0195,-0.0081,9.8066,0.0117,0.025,-0.0037,-1.57,28.39,-9.57,262.64,8.64,1.41
64830,51.247673,-2.930573,49,23.67,9,239.8,16 / 21,6483023,2019-08-16 14:37:16:803,0.2859,-0.0748,9.6918,0.0108,-0.0153,9.8066,0.0117,0.025,-0.0037,-2.38,28.26,-9.79,262.68,8.61,1.29
64831,51.247673,-2.930573,49,23.67,9,239.8,16 / 21,6483123,2019-08-16 14:37:16:903,0.4481,-0.2124,10.1908,-0.0025,-0.023,9.8066,-0.0021,0.0144,0.0197,-2.38,28.26,-9.79,262.68,8.61,1.29
64832,51.247673,-2.930573,49,23.67,9,239.8,16 / 21,6483223,2019-08-16 14:37:17:003,-0.1434,-0.3226,10.3811,-0.0165,0.0002,9.8066,0.0106,-0.0144,0.0218,-1.63,28.83,-8.13,263.56,8.47,1.28
64833,51.247673,-2.930573,49,23.67,9,239.8,16 / 21,6483323,2019-08-16 14:37:17:103,-0.1359,-0.1864,9.0757,-0.0138,-0.0062,9.8066,0.0138,0.0048,-0.0027,-1.59,28.89,-7.93,263.55,8.46,1.38
64834,51.247673,-2.930573,49,23.67,9,239.8,16 / 21,6483423,2019-08-16 14:37:17:203,0.0984,-0.0432,9.7888,-0.0181,-0.0142,9.8066,-0.0011,-0.0037,0.0069,-1.59,28.89,-7.93,263.55,8.46,1.38
64835,51.247673,-2.930573,49,23.67,9,239.8,16 / 21,6483524,2019-08-16 14:37:17:304,-0.2525,0.3245,9.6968,-0.0078,0.0204,9.8066,-0.0181,0.0485,0.0069,-1.55,28.94,-7.74,263.56,8.37,1.48
64836,51.247673,-2.930573,49,23.67,9,239.8,16 / 21,6483623,2019-08-16 14:37:17:403,0.017,-0.3168,9.9474,-0.008,0.028,9.8066,-0.0064,0.0442,-0.0112,-2.23,28.52,-9.04,263.56,8.37,1.48
64837,51.247673,-2.930573,49,23.67,9,239.8,16 / 21,6483723,2019-08-16 14:37:17:503,0.1129,0.4344,9.6141,-0.0124,0.0275,9.8066,-0.0128,0.0016,-0.0027,-0.04,28.43,-9.58,266.71,8.52,1.57
64838,51.24756,-2.930857,49,23.68,9,239.4,16 / 21,6483823,2019-08-16 14:37:17:603,0.1653,-0.1612,9.3418,0.0248,-0.0169,9.8066,-0.0384,0.0336,0.0048,-0.81,28.42,-9.58,266.71,8.52,1.57
64839,51.24756,-2.930857,49,23.68,9,239.4,16 / 21,6483923,2019-08-16 14:37:17:703,0.3661,-0.0151,9.9949,0.0176,-0.0017,9.8066,-0.0384,0.0336,0.0048,-1.64,28.22,-10.05,262.78,8.31,1.33
64840,51.24756,-2.930857,49,23.68,9,239.4,16 / 21,6484023,2019-08-16 14:37:17:803,-0.0767,-0.2974,10.5522,0.0422,0.0271,9.8065,0.0043,-0.0272,-0.0037,-1.64,28.22,-10.05,262.78,8.31,1.33
64841,51.24756,-2.930857,49,23.68,9,239.4,16 / 21,6484123,2019-08-16 14:37:17:903,0.0257,0.5143,10.8938,-0.0043,-0.0185,9.8066,0.0021,-0.0272,0.0048,-0.82,28.05,-10.61,264.46,8.5,1.1
64842,51.24756,-2.930857,49,23.68,9,239.4,16 / 21,6484223,2019-08-16 14:37:18:003,-0.106,0.3611,10.2873,0.0114,-0.0184,9.8066,0.033,0.0165,-0.0133,-1.55,28.15,-10.24,264.46,8.5,1.1
64843,51.24756,-2.930857,49,23.68,9,239.4,16 / 21,6484323,2019-08-16 14:37:18:103,0.2745,0.4355,9.7982,0.0274,-0.041,9.8065,-0.0128,0.0346,0.0026,-1.54,27.87,-11.01,262.57,8.28,0.92
64844,51.24756,-2.930857,49,23.68,9,239.4,16 / 21,6484423,2019-08-16 14:37:18:203,0.285,-0.2846,10.3371,-0.0121,-0.0285,9.8066,0.0202,0.0101,0.009,-1.54,27.87,-11.01,262.57,8.28,0.92
64845,51.24756,-2.930857,49,23.68,9,239.4,16 / 21,6484523,2019-08-16 14:37:18:303,-0.2132,0.0118,9.9334,-0.0153,-0.011,9.8066,-0.0171,-0.008,0.008,-2.34,28.6,-8.75,263.44,8.1,0.97
64846,51.24756,-2.930857,49,23.68,9,239.4,16 / 21,6484624,2019-08-16 14:37:18:404,0.2831,0.292,9.7312,-0.0028,-0.0079,9.8066,-0.0043,0.0272,-0.0144,-2.34,28.6,-8.75,263.45,8.03,1.05
64847,51.24756,-2.930857,49,23.68,9,239.4,16 / 21,6484724,2019-08-16 14:37:18:504,0.3169,0.5861,9.6026,-0.0009,0.0142,9.8066,-0.0043,0.0272,-0.0144,-1.62,28.58,-8.98,263.42,8.11,1.06
64848,51.24745,-2.931149,49,23.77,9,239.6,16 / 21,6484823,2019-08-16 14:37:18:603,0.3473,0.2162,10.3156,0.0204,0.0249,9.8066,-0.032,-0.0442,0.0208,-1.62,28.58,-8.98,263.42,8.11,1.06
64849,51.24745,-2.931149,49,23.77,9,239.6,16 / 21,6484923,2019-08-16 14:37:18:703,0.5568,0.1359,8.8516,0.0372,0.0271,9.8065,-0.0096,0.0208,-0.0048,-2.25,28.2,-9.99,262.87,8.29,0.86
64850,51.24745,-2.931149,49,23.77,9,239.6,16 / 21,6485023,2019-08-16 14:37:18:803,0.2035,0.4941,9.9883,0.0033,0.0026,9.8066,0.0202,-0.0389,-0.0101,-1.58,28.65,-8.76,263.41,8.26,0.87
64851,51.24745,-2.931149,49,23.77,9,239.6,16 / 21,6485123,2019-08-16 14:37:18:903,0.6584,-0.2324,8.987,0.0076,0.0082,9.8066,0.0042,-0.0559,-0.0016,-1.58,28.65,-8.76,263.41,8.26,0.87
64852,51.24745,-2.931149,49,23.77,9,239.6,16 / 21,6485223,2019-08-16 14:37:19:003,0.1502,0.0051,8.1218,-0.0042,0.0093,9.8066,0.0,-0.0123,-0.0059,-0.82,28.09,-10.5,264.88,8.31,0.83
64853,51.24745,-2.931149,49,23.77,9,239.6,16 / 21,6485323,2019-08-16 14:37:19:103,0.3941,0.0634,10.2132,0.0079,-0.0053,9.8066,-0.0501,-0.0091,0.0282,-1.65,28.26,-9.93,262.85,8.37,0.86
64854,51.24745,-2.931149,49,23.77,9,239.6,16 / 21,6485423,2019-08-16 14:37:19:203,-0.8668,0.1286,10.8925,0.0118,-0.0291,9.8066,0.0554,0.0261,0.0048,-1.59,28.06,-10.49,262.85,8.37,0.86
64855,51.24745,-2.931149,49,23.77,9,239.6,16 / 21,6485523,2019-08-16 14:37:19:303,0.1923,0.5328,9.7693,-0.0142,-0.025,9.8066,0.0149,-0.0186,0.0197,-1.59,28.06,-10.49,262.89,8.21,0.92
64856,51.24745,-2.931149,49,23.77,9,239.6,16 / 21,6485623,2019-08-16 14:37:19:403,-0.1851,-0.0325,9.719,-0.0373,0.0106,9.8066,0.0149,-0.0186,0.0197,-1.59,28.06,-10.49,262.89,8.21,0.92
64857,51.24745,-2.931149,49,23.77,9,239.6,16 / 21,6485722,2019-08-16 14:37:19:502,-0.2801,-0.3257,8.847,-0.0103,-0.0021,9.8066,-0.0107,0.0101,-0.0006,-2.3,28.11,-10.23,262.84,8.25,1.15
64858,51.247345,-2.931441,49,23.69,9,239.5,16 / 21,6485823,2019-08-16 14:37:19:603,-0.3729,0.1592,9.9411,-0.0102,0.0259,9.8066,0.0074,-0.0368,-0.008,-1.51,28.81,-8.24,263.64,8.23,1.21
64859,51.247345,-2.931441,49,23.69,9,239.5,16 / 21,6485923,2019-08-16 14:37:19:703,0.06,0.1885,8.7494,-0.0103,0.0857,9.8063,-0.0352,-0.0229,0.0112,-2.31,28.9,-7.73,263.48,8.72,1.33
64860,51.247345,-2.931441,49,23.69,9,239.5,16 / 21,6486024,2019-08-16 14:37:19:804,-0.1734,0.0942,9.8187,-0.0041,-0.0226,9.8066,-0.0053,0.0421,0.024,-2.31,28.9,-7.73,263.48,8.72,1.33
64861,51.247345,-2.931441,49,23.69,9,239.5,16 / 21,6486123,2019-08-16 14:37:19:903,-0.4334,-0.2018,10.5746,-0.0157,-0.0199,9.8066,0.0021,0.0037,-0.0016,-2.34,28.6,-8.75,263.22,8.58,1.33
64862,51.247345,-2.931441,49,23.69,9,239.5,16 / 21,6486223,2019-08-16 14:37:20:003,-0.3103,-0.2612,10.0262,-0.0037,-0.0356,9.8066,-0.0213,0.0453,0.0058,-2.91,28.62,-8.52,261.31,8.46,1.41
64863,51.247345,-2.931441,49,23.69,9,239.5,16 / 21,6486324,2019-08-16 14:37:20:104,-0.1145,-0.709,10.1972,0.0031,-0.0672,9.8064,0.0096,0.0091,0.0016,-2.27,28.46,-9.22,263.15,8.07,1.33
64864,51.247345,-2.931441,49,23.69,9,239.5,16 / 21,6486423,2019-08-16 14:37:20:203,-0.0708,0.185,9.6041,-0.0076,-0.0001,9.8066,0.0074,-0.0165,0.0271,-2.27,28.46,-9.22,263.15,8.07,1.33
64865,51.247345,-2.931441,49,23.69,9,239.5,16 / 21,6486523,2019-08-16 14:37:20:303,-0.4728,0.2597,9.6826,-0.0066,0.0157,9.8066,0.0074,-0.0165,0.0271,-1.59,28.06,-10.49,262.86,8.07,1.38
64866,51.247345,-2.931441,49,23.69,9,239.5,16 / 21,6486623,2019-08-16 14:37:20:403,-0.4646,0.171,10.19,-0.004,0.0516,9.8065,-0.0171,-0.041,-0.0027,-1.65,28.26,-9.93,262.74,8.36,1.44
64867,51.247345,-2.931441,49,23.69,9,239.5,16 / 21,6486723,2019-08-16 14:37:20:503,0.2753,-0.2652,8.8882,0.0143,0.03,9.8066,-0.0256,-0.0389,-0.0069,-1.65,28.26,-9.93,262.74,8.36,1.44
64868,51.24723,-2.931735,50,23.65,9,239.4,16 / 21,6486823,2019-08-16 14:37:20:603,0.0192,0.0524,9.5494,0.0336,0.0409,9.8065,-0.0085,0.0325,0.0005,-1.61,28.35,-9.69,262.68,8.62,1.27
64869,51.24723,-2.931735,50,23.65,9,239.4,16 / 21,6486923,2019-08-16 14:37:20:703,-0.1314,-0.0581,9.8622,0.0075,-0.0073,9.8066,-0.0256,0.0442,0.0325,-0.05,28.3,-9.94,266.74,8.59,1.23
64870,51.24723,-2.931735,50,23.65,9,239.4,16 / 21,6487023,2019-08-16 14:37:20:803,-0.379,-0.2874,10.3842,-0.0085,-0.046,9.8065,-0.0181,0.0005,0.0069,-0.77,27.99,-10.77,266.74,8.59,1.23
64871,51.24723,-2.931735,50,23.65,9,239.4,16 / 21,6487123,2019-08-16 14:37:20:903,0.4398,0.1723,10.0467,-0.0072,-0.0855,9.8063,0.0288,0.0602,-0.0048,-0.77,27.99,-10.77,266.74,8.59,1.23
64872,51.24723,-2.931735,50,23.65,9,239.4,16 / 21,6487223,2019-08-16 14:37:21:003,0.2472,-0.2474,9.4246,-0.0242,-0.0211,9.8066,0.0288,0.0602,-0.0048,-1.53,28.5,-9.23,263.4,8.09,1.24
64873,51.24723,-2.931735,50,23.65,9,239.4,16 / 21,6487324,2019-08-16 14:37:21:104,0.2224,0.5447,9.9058,-0.0036,0.0051,9.8066,-0.0298,-0.0218,0.008,-2.91,28.65,-8.41,261.76,7.95,1.37
64874,51.24723,-2.931735,50,23.65,9,239.4,16 / 21,6487423,2019-08-16 14:37:21:203,-0.0757,0.5412,8.5353,-0.0024,0.055,9.8065,0.0053,0.0144,0.0101,-2.91,28.65,-8.41,261.76,7.95,1.37
64875,51.24723,-2.931735,50,23.65,9,239.4,16 / 21,6487523,2019-08-16 14:37:21:303,-0.2284,-0.2108,9.4306,0.016,0.041,9.8066,-0.0128,-0.0336,0.0112,-2.36,28.84,-7.92,263.59,8.26,1.43
64876,51.24723,-2.931735,50,23.65,9,239.4,16 / 21,6487623,2019-08-16 14:37:21:403,0.1206,-0.4052,9.3099,0.0217,0.0737,9.8063,-0.0224,0.0048,-0.0027,-2.34,28.6,-8.75,263.18,8.7,1.35
64877,51.24723,-2.931735,50,23.65,9,239.4,16 / 21,6487723,2019-08-16 14:37:21:503,0.0546,-0.1441,9.5458,0.0189,0.0051,9.8066,-0.0064,-0.0112,0.008,-2.22,28.65,-8.63,263.18,8.7,1.35
64878,51.247124,-2.932027,51,23.68,9,239.3,16 / 21,6487823,2019-08-16 14:37:21:603,-0.1723,-0.1879,10.2271,0.0307,-0.0165,9.8066,-0.0043,0.0367,-0.0059,-2.22,28.65,-8.63,263.18,8.7,1.35
64879,51.247124,-2.932027,51,23.68,9,239.3,16 / 21,6487923,2019-08-16 14:37:21:703,-0.0735,-0.7807,10.8976,-0.0143,-0.0155,9.8066,0.0074,0.0335,-0.0048,-1.53,28.5,-9.23,263.26,8.52,1.22
64880,51.247124,-2.932027,51,23.68,9,239.3,16 / 21,6488024,2019-08-16 14:37:21:804,0.1319,0.2844,8.9143,-0.0251,-0.0396,9.8065,0.0074,0.0335,-0.0048,-0.84,28.04,-10.64,263.26,8.52,1.22
64881,51.247124,-2.932027,51,23.68,9,239.3,16 / 21,6488123,2019-08-16 14:37:21:903,0.0447,0.432,9.3188,-0.0302,-0.0084,9.8066,0.0032,0.0016,0.0303,-1.66,28.54,-9.09,263.32,8.27,1.34
64882,51.247124,-2.932027,51,23.68,9,239.3,16 / 21,6488223,2019-08-16 14:37:22:003,-0.0527,0.1768,9.3082,-0.0558,0.0039,9.8065,0.0085,0.0218,0.0218,-1.65,28.26,-9.93,262.73,8.25,1.67
64883,51.247124,-2.932027,51,23.68,9,239.3,16 / 21,6488323,2019-08-16 14:37:22:103,0.0314,-0.0117,10.0858,-0.0024,0.0106,9.8066,-0.0171,-0.0272,-0.0112,-1.65,28.26,-9.93,262.73,8.25,1.67
64884,51.247124,-2.932027,51,23.68,9,239.3,16 / 21,6488423,2019-08-16 14:37:22:203,0.1935,0.2756,9.4006,0.0065,0.0165,9.8066,-0.0426,0.0037,0.0026,-1.54,27.91,-10.9,262.41,8.31,1.69
64885,51.247124,-2.932027,51,23.68,9,239.3,16 / 21,6488524,2019-08-16 14:37:22:304,0.5473,0.141,9.9494,0.0196,0.0122,9.8066,-0.0224,0.0282,-0.0048,-2.36,28.01,-10.47,262.7,8.4,1.58
64886,51.247124,-2.932027,51,23.68,9,239.3,16 / 21,6488624,2019-08-16 14:37:22:404,0.3513,0.1129,9.7632,0.01,0.0237,9.8066,0.0117,-0.025,0.0069,-2.36,28.01,-10.47,262.7,8.4,1.58
64887,51.247124,-2.932027,51,23.68,9,239.3,16 / 21,6488723,2019-08-16 14:37:22:503,0.4374,0.5783,8.6086,0.0271,0.0299,9.8066,0.017,-0.0975,0.0122,-1.61,28.35,-9.69,262.65,8.59,1.45
64888,51.247013,-2.932315,51,23.75,9,239.1,16 / 21,6488823,2019-08-16 14:37:22:603,-0.0549,0.5831,9.5374,-0.0125,-0.0146,9.8066,0.017,-0.0975,0.0122,-2.2,28.39,-9.44,262.93,8.69,1.46
64889,51.247013,-2.932315,51,23.75,9,239.1,16 / 21,6488923,2019-08-16 14:37:22:703,-0.0007,-0.504,10.0484,-0.0221,-0.017,9.8066,-0.0021,-0.0549,0.0176,-3.83,28.42,-8.8,258.96,8.57,1.57
64890,51.247013,-2.932315,51,23.75,9,239.1,16 / 21,6489023,2019-08-16 14:37:22:803,-0.2038,0.3356,10.1812,-0.0197,-0.0048,9.8066,-0.0064,-0.025,0.0154,-3.83,28.42,-8.8,258.96,8.57,1.57
64891,51.247013,-2.932315,51,23.75,9,239.1,16 / 21,6489123,2019-08-16 14:37:22:903,-0.2854,-0.249,9.5234,0.0171,-0.0105,9.8066,-0.0053,0.0144,0.0048,-3.0,28.0,-10.34,260.63,8.52,1.68
64892,51.247013,-2.932315,51,23.75,9,239.1,16 / 21,6489224,2019-08-16 14:37:23:004,-0.0391,-0.2485,10.1954,0.0309,-0.0129,9.8066,-0.033,-0.024,0.0154,-2.36,28.01,-10.47,262.69,8.48,1.49
64893,51.247013,-2.932315,51,23.75,9,239.1,16 / 21,6489323,2019-08-16 14:37:23:103,0.1423,0.212,10.1281,-0.0039,0.0177,9.8066,0.0011,-0.0357,0.0048,-1.61,28.35,-9.69,262.69,8.48,1.49
64894,51.247013,-2.932315,51,23.75,9,239.1,16 / 21,6489423,2019-08-16 14:37:23:203,0.2075,-0.0306,9.522,-0.0006,0.0562,9.8065,-0.0085,0.009,0.0037,-1.61,28.35,-9.69,262.69,8.48,1.49
64895,51.247013,-2.932315,51,23.75,9,239.1,16 / 21,6489524,2019-08-16 14:37:23:304,0.3909,-0.0275,10.4122,0.0025,0.0038,9.8066,0.016,0.0538,0.0005,-1.63,27.96,-10.75,262.24,8.8,1.54
64896,51.247013,-2.932315,51,23.75,9,239.1,16 / 21,6489623,2019-08-16 14:37:23:403,0.4544,-0.2351,9.7654,0.0059,-0.0032,9.8066,0.016,-0.0325,0.0112,-0.87,28.2,-10.2,264.59,8.79,1.5
64897,51.247013,-2.932315,51,23.75,9,239.1,16 / 21,6489723,2019-08-16 14:37:23:503,0.1529,-0.5232,9.806,0.0022,-0.0103,9.8066,0.016,-0.0325,0.0112,-1.63,28.01,-10.63,264.59,8.79,1.5
64898,51.246906,-2.932596,50,23.6,9,238.5,16 / 21,6489823,2019-08-16 14:37:23:603,0.4997,0.357,9.6453,-0.0069,0.0043,9.8066,-0.0053,-0.0069,0.0271,-1.55,28.15,-10.24,262.6,8.73,1.48
64899,51.246906,-2.932596,50,23.6,9,238.5,16 / 21,6489923,2019-08-16 14:37:23:703,-0.0378,0.1574,9.449,-0.0093,-0.0056,9.8066,-0.0032,0.0186,0.0165,-1.55,28.15,-10.24,262.6,8.73,1.48
64900,51.246906,-2.932596,50,23.6,9,238.5,16 / 21,6490024,2019-08-16 14:37:23:804,0.3525,0.0585,10.2061,-0.0074,0.0026,9.8066,0.0096,0.073,0.0229,-2.86,28.19,-9.86,260.6,8.69,1.53
64901,51.246906,-2.932596,50,23.6,9,238.5,16 / 21,6490123,2019-08-16 14:37:23:903,0.1886,0.0096,9.9243,-0.0139,0.0191,9.8066,0.0,-0.0101,0.024,-2.24,28.88,-7.8,263.41,8.79,1.63
64902,51.246906,-2.932596,50,23.6,9,238.5,16 / 21,6490223,2019-08-16 14:37:24:003,0.2942,0.2313,9.432,-0.0197,0.0115,9.8066,0.0224,0.0975,0.0176,-2.24,28.88,-7.8,263.41,8.79,1.63
64903,51.246906,-2.932596,50,23.6,9,238.5,16 / 21,6490323,2019-08-16 14:37:24:103,-0.2744,-0.0326,9.7531,-0.0204,-0.0046,9.8066,0.017,0.0197,0.0069,-3.0,28.82,-7.78,261.43,8.84,1.75
64904,51.246906,-2.932596,50,23.6,9,238.5,16 / 21,6490422,2019-08-16 14:37:24:202,-0.4175,-0.5115,9.3068,-0.045,-0.0028,9.8065,0.017,0.0197,0.0069,-3.02,29.0,-7.06,261.71,8.79,2.01
64905,51.246906,-2.932596,50,23.6,9,238.5,16 / 21,6490523,2019-08-16 14:37:24:303,-0.1519,0.4473,10.1785,-0.0299,-0.0144,9.8066,0.0415,0.073,-0.0133,-2.88,28.41,-9.2,260.79,8.68,2.18
64906,51.246906,-2.932596,50,23.6,9,238.5,16 / 21,6490623,2019-08-16 14:37:24:403,-0.116,-0.3057,9.07,-0.0189,0.0034,9.8066,-0.0021,0.0698,-0.0016,-2.88,28.41,-9.2,260.79,8.68,2.18
64907,51.246906,-2.932596,50,23.6,9,238.5,16 / 21,6490723,2019-08-16 14:37:24:503,0.0996,0.4297,8.8167,0.0113,0.0103,9.8066,-0.0011,-0.0176,-0.0101,-2.25,28.31,-9.67,262.47,8.63,2.31
64908,51.2468,-2.932881,50,23.52,9,238.3,16 / 21,6490823,2019-08-16 14:37:24:603,-0.006,0.1699,8.2487,-0.0116,0.0237,9.8066,-0.0139,0.0016,0.0026,-2.31,28.22,-9.92,262.45,8.7,2.25
64909,51.2468,-2.932881,50,23.52,9,238.3,16 / 21,6490924,2019-08-16 14:37:24:704,-0.0526,0.4481,9.8217,-0.0402,0.0488,9.8064,0.0192,-0.0005,-0.0037,-2.37,28.12,-10.17,262.3,8.95,2.52
64910,51.2468,-2.932881,50,23.52,9,238.3,16 / 21,6491023,2019-08-16 14:37:24:803,0.4483,0.333,10.0855,-0.0146,0.0128,9.8066,-0.0011,0.0101,0.009,-2.37,28.12,-10.17,262.3,8.95,2.52
64911,51.2468,-2.932881,50,23.52,9,238.3,16 / 21,6491123,2019-08-16 14:37:24:903,0.1106,0.035,9.5607,-0.0223,-0.0021,9.8066,0.0192,0.0069,0.0005,-2.33,28.5,-9.07,262.59,9.01,2.62
64912,51.2468,-2.932881,50,23.52,9,238.3,16 / 21,6491223,2019-08-16 14:37:25:003,0.0836,-0.0015,9.8032,-0.037,-0.0225,9.8066,0.0192,0.0069,0.0005,-3.83,28.42,-8.8,258.6,8.85,2.82
64913,51.2468,-2.932881,50,23.52,9,238.3,16 / 21,6491323,2019-08-16 14:37:25:103,0.4482,0.2218,10.087,0.0043,-0.0024,9.8066,-0.0107,0.0442,-0.0059,-3.83,28.42,-8.8,258.6,8.85,2.82
64914,51.2468,-2.932881,50,23.52,9,238.3,16 / 21,6491424,2019-08-16 14:37:25:204,0.6145,0.3781,9.5384,0.0141,-0.0018,9.8066,-0.0362,0.0027,-0.0069,-4.55,28.81,-7.01,257.72,8.84,2.79
64915,51.2468,-2.932881,50,23.52,9,238.3,16 / 21,6491523,2019-08-16 14:37:25:303,0.3309,0.2224,9.0666,0.018,-0.0092,9.8066,0.0,-0.0282,0.0058,-4.46,29.05,-6.0,259.96,8.81,2.67
64916,51.2468,-2.932881,50,23.52,9,238.3,16 / 21,6491622,2019-08-16 14:37:25:402,0.5522,-0.1601,10.2478,0.0112,-0.0165,9.8066,0.0117,0.0016,0.0122,-4.46,29.05,-6.0,259.96,8.81,2.67
64917,51.2468,-2.932881,50,23.52,9,238.3,16 / 21,6491723,2019-08-16 14:37:25:503,0.0131,-0.1928,9.7758,-0.0003,0.004,9.8066,0.0128,-0.025,0.0058,-5.2,28.94,-5.97,258.09,8.73,2.59
64918,51.246685,-2.933178,50,23.63,9,237.9,16 / 21,6491824,2019-08-16 14:37:25:604,-0.1303,0.005,10.0208,-0.0086,-0.0117,9.8066,0.0128,0.0144,0.0314,-4.46,29.05,-6.0,258.09,8.73,2.59
64919,51.246685,-2.933178,50,23.63,9,237.9,16 / 21,6491923,2019-08-16 14:37:25:703,-0.2827,-0.2971,10.557,0.0063,-0.02,9.8066,0.0053,-0.0069,0.0293,-5.17,28.76,-6.81,257.8,8.65,2.63
64920,51.246685,-2.933178,50,23.63,9,237.9,16 / 21,6492023,2019-08-16 14:37:25:803,-0.2688,-0.6497,10.3191,-0.0146,-0.0058,9.8066,0.0469,0.0016,0.0069,-4.24,28.32,-8.94,258.76,8.55,2.57
64921,51.246685,-2.933178,50,23.63,9,237.9,16 / 21,6492123,2019-08-16 14:37:25:903,-0.2877,-0.2621,10.5315,-0.0414,-0.0182,9.8065,0.0469,0.0016,0.0069,-4.24,28.32,-8.94,258.77,8.4,2.78
64922,51.246685,-2.933178,50,23.63,9,237.9,16 / 21,6492223,2019-08-16 14:37:26:003,-0.1226,0.4492,10.1867,-0.0176,-0.0097,9.8066,-0.0192,-0.0346,0.0357,-4.24,28.32,-8.94,258.77,8.4,2.78
64923,51.246685,-2.933178,50,23.63,9,237.9,16 / 21,6492324,2019-08-16 14:37:26:104,0.5999,0.3691,11.3957,0.0,-0.0009,9.8066,-0.0245,0.0549,-0.0251,-3.65,28.57,-8.38,259.44,8.32,2.88
64924,51.246685,-2.933178,50,23.63,9,237.9,16 / 21,6492423,2019-08-16 14:37:26:203,0.1745,-0.118,10.3079,0.0153,0.0092,9.8066,-0.0139,-0.1912,-0.0101,-3.67,28.79,-7.57,259.44,8.39,2.8
64925,51.246685,-2.933178,50,23.63,9,237.9,16 / 21,6492523,2019-08-16 14:37:26:303,0.3603,0.5421,10.5344,0.0211,0.0117,9.8066,0.0245,-0.1848,-0.0155,-2.33,28.38,-9.44,259.44,8.39,2.8
64926,51.246685,-2.933178,50,23.63,9,237.9,16 / 21,6492623,2019-08-16 14:37:26:403,-0.236,-0.0084,9.4199,0.0139,-0.01,9.8066,0.0032,0.0016,-0.0133,-3.73,28.5,-8.59,259.17,8.35,2.7
64927,51.246685,-2.933178,50,23.63,9,237.9,16 / 21,6492723,2019-08-16 14:37:26:503,-0.33,-0.3085,10.0835,-0.0288,-0.0166,9.8066,0.0181,0.008,0.0069,-4.44,28.15,-9.36,259.17,8.35,2.7
64928,51.246567,-2.933461,50,23.65,9,237.5,16 / 21,6492822,2019-08-16 14:37:26:602,-0.1368,-0.4001,9.5026,-0.0264,-0.042,9.8065,0.0181,0.008,0.0069,-4.44,28.15,-9.36,259.17,8.35,2.7
64929,51.246567,-2.933461,50,23.65,9,237.5,16 / 21,6492923,2019-08-16 14:37:26:703,0.0359,-0.0177,10.3213,0.004,-0.0115,9.8066,0.0053,0.0016,0.0016,-4.52,28.63,-7.73,257.62,8.08,2.81
64930,51.246567,-2.933461,50,23.65,9,237.5,16 / 21,6493023,2019-08-16 14:37:26:803,0.208,0.4184,10.1963,0.0074,0.0223,9.8066,0.0011,-0.0719,0.0218,-4.55,28.81,-7.01,257.93,8.02,2.77
64931,51.246567,-2.933461,50,23.65,9,237.5,16 / 21,6493123,2019-08-16 14:37:26:903,-0.0168,-0.0915,9.8289,-0.0048,0.0437,9.8066,0.0117,-0.0293,0.0186,-3.61,29.02,-6.7,259.76,8.26,2.86
64932,51.246567,-2.933461,50,23.65,9,237.5,16 / 21,6493223,2019-08-16 14:37:27:003,-0.5038,0.1578,10.3761,-0.0053,0.0031,9.8066,-0.0021,0.0421,0.008,-3.61,29.02,-6.7,259.76,8.26,2.86
64933,51.246567,-2.933461,50,23.65,9,237.5,16 / 21,6493323,2019-08-16 14:37:27:103,-0.2571,-0.2935,9.981,-0.0184,0.0037,9.8066,-0.0021,0.0506,0.0101,-3.67,28.79,-7.57,259.44,8.26,2.97
64934,51.246567,-2.933461,50,23.65,9,237.5,16 / 21,6493423,2019-08-16 14:37:27:203,-0.0079,-0.1641,9.426,-0.0091,-0.0132,9.8066,-0.0181,0.0016,0.0144,-3.67,28.79,-7.57,259.44,8.26,2.97
64935,51.246567,-2.933461,50,23.65,9,237.5,16 / 21,6493523,2019-08-16 14:37:27:303,-0.0105,-0.1976,9.4,0.0078,-0.0049,9.8066,-0.0064,0.0048,0.008,-4.44,28.15,-9.36,258.79,8.18,3.0
64936,51.246567,-2.933461,50,23.65,9,237.5,16 / 21,6493624,2019-08-16 14:37:27:404,-0.224,-0.6333,9.9469,0.0124,-0.0082,9.8066,-0.0064,0.0048,0.008,-3.03,28.24,-9.65,260.51,8.14,2.92
64937,51.246567,-2.933461,50,23.65,9,237.5,16 / 21,6493723,2019-08-16 14:37:27:503,0.0489,0.234,8.771,-0.0072,0.0095,9.8066,0.0298,0.0144,0.0069,-3.1,28.15,-9.89,260.49,8.19,2.97
64938,51.24645,-2.933732,51,23.55,9,236.6,16 / 21,6493823,2019-08-16 14:37:27:603,-0.0348,-0.3199,9.0059,-0.0408,0.0416,9.8065,0.0128,-0.0378,0.0325,-3.1,28.15,-9.89,260.49,8.19,2.97
64939,51.24645,-2.933732,51,23.55,9,236.6,16 / 21,6493923,2019-08-16 14:37:27:703,-0.1496,0.2323,9.6172,-0.0165,0.0025,9.8066,-0.0139,0.0463,0.0112,-3.14,28.47,-8.93,260.67,8.39,3.25
64940,51.24645,-2.933732,51,23.55,9,236.6,16 / 21,6494024,2019-08-16 14:37:27:804,-0.3334,0.2138,10.8671,-0.038,0.0151,9.8066,0.0043,0.0005,0.0122,-3.76,27.92,-10.31,260.67,8.39,3.25
64941,51.24645,-2.933732,51,23.55,9,236.6,16 / 21,6494123,2019-08-16 14:37:27:903,-0.4178,-0.2061,10.3127,-0.0186,-0.001,9.8066,0.017,-0.0219,0.0122,-3.71,28.29,-9.28,258.6,8.44,3.49
64942,51.24645,-2.933732,51,23.55,9,236.6,16 / 21,6494224,2019-08-16 14:37:28:004,0.1005,0.0868,9.6531,-0.0267,-0.0224,9.8066,-0.0075,-0.0112,0.0133,-4.38,28.48,-8.36,258.94,8.28,3.62
64943,51.24645,-2.933732,51,23.55,9,236.6,16 / 21,6494324,2019-08-16 14:37:28:104,-0.3605,0.1563,10.354,-0.0004,-0.0221,9.8066,-0.0075,-0.0112,0.0133,-4.38,28.48,-8.36,258.94,8.28,3.62
64944,51.24645,-2.933732,51,23.55,9,236.6,16 / 21,6494423,2019-08-16 14:37:28:203,-0.2995,-0.1906,8.4535,-0.0016,-0.0061,9.8066,-0.0032,-0.0144,-0.0123,-4.35,28.28,-9.03,258.68,8.16,3.59
64945,51.24645,-2.933732,51,23.55,9,236.6,16 / 21,6494524,2019-08-16 14:37:28:304,-0.5077,0.4137,9.8739,0.0035,0.0019,9.8066,0.0426,-0.0208,-0.0059,-4.52,28.63,-7.73,258.68,8.16,3.59
64946,51.24645,-2.933732,51,23.55,9,236.6,16 / 21,6494623,2019-08-16 14:37:28:403,0.2196,-0.0727,10.4357,0.0183,-0.0067,9.8066,-0.0064,0.0218,0.0154,-5.26,28.51,-7.7,257.46,8.14,3.48
64947,51.24645,-2.933732,51,23.55,9,236.6,16 / 21,6494723,2019-08-16 14:37:28:503,0.057,0.3426,9.9,-0.0171,-0.0156,9.8066,0.0053,0.0868,0.0325,-5.26,28.51,-7.7,257.46,8.14,3.48
64948,51.24633,-2.934015,51,23.71,10,236.2,16 / 21,6494823,2019-08-16 14:37:28:603,0.098,0.458,9.8895,-0.0042,-0.0083,9.8066,-0.0128,0.0026,0.0112,-5.14,27.85,-9.88,256.45,8.03,3.56
64949,51.24633,-2.934015,51,23.71,10,236.2,16 / 21,6494923,2019-08-16 14:37:28:703,0.1285,-0.4057,9.7976,-0.0037,-0.0164,9.8066,0.017,-0.008,0.0058,-5.3,27.94,-9.55,256.45,8.03,3.56
64950,51.24633,-2.934015,51,23.71,10,236.2,16 / 21,6495023,2019-08-16 14:37:28:803,-0.0287,0.2022,9.5196,-0.0071,0.0325,9.8066,-0.016,-0.0272,-0.0037,-4.51,27.82,-10.27,256.48,7.93,3.56
64951,51.24633,-2.934015,51,23.71,10,236.2,16 / 21,6495123,2019-08-16 14:37:28:903,-0.0616,-0.015,9.0308,-0.0118,0.042,9.8066,-0.016,-0.0272,-0.0037,-5.3,27.94,-9.55,256.37,8.15,3.68
64952,51.24633,-2.934015,51,23.71,10,236.2,16 / 21,6495223,2019-08-16 14:37:29:003,-0.0652,0.0483,9.7478,0.0197,0.005,9.8066,-0.0085,0.0559,0.0165,-5.3,27.94,-9.55,256.37,8.15,3.68
64953,51.24633,-2.934015,51,23.71,10,236.2,16 / 21,6495323,2019-08-16 14:37:29:103,0.1591,0.1183,10.3366,0.0543,0.0026,9.8065,-0.0224,-0.0474,0.0133,-4.56,28.1,-9.47,256.72,8.24,3.38
64954,51.24633,-2.934015,51,23.71,10,236.2,16 / 21,6495423,2019-08-16 14:37:29:203,0.2179,-0.1202,9.7959,-0.0109,0.0041,9.8066,0.0011,0.0495,0.0335,-4.56,28.1,-9.47,256.72,8.24,3.38
64955,51.24633,-2.934015,51,23.71,10,236.2,16 / 21,6495523,2019-08-16 14:37:29:303,-0.1552,0.2615,9.6231,-0.0218,-0.0218,9.8066,-0.0032,0.0133,0.0357,-4.45,28.19,-9.25,258.68,8.25,3.44
64956,51.24633,-2.934015,51,23.71,10,236.2,16 / 21,6495623,2019-08-16 14:37:29:403,-0.0038,-0.0452,9.9003,0.0096,0.0003,9.8066,-0.0064,-0.0197,0.0026,-5.99,27.58,-10.18,254.43,8.14,3.66
64957,51.24633,-2.934015,51,23.71,10,236.2,16 / 21,6495723,2019-08-16 14:37:29:503,0.0335,0.3594,9.4366,0.0117,-0.0095,9.8066,-0.0011,0.0495,0.008,-5.53,28.35,-8.09,255.06,8.15,3.61
64958,51.246204,-2.934272,50,23.65,9,234.9,16 / 21,6495823,2019-08-16 14:37:29:603,0.0607,-0.317,9.9686,0.0219,-0.005,9.8066,-0.0416,0.0442,0.008,-5.53,28.35,-8.09,255.06,8.15,3.61
64959,51.246204,-2.934272,50,23.65,9,234.9,16 / 21,6495924,2019-08-16 14:37:29:704,-0.0988,0.084,9.8909,0.0167,-0.0046,9.8066,-0.0416,0.0442,0.008,-5.31,27.98,-9.43,256.72,8.16,3.48
64960,51.246204,-2.934272,50,23.65,9,234.9,16 / 21,6496023,2019-08-16 14:37:29:803,0.5244,-0.4414,10.727,0.011,-0.0108,9.8066,-0.0085,0.0207,-0.0101,-6.1,28.1,-8.57,254.8,8.16,3.38
64961,51.246204,-2.934272,50,23.65,9,234.9,16 / 21,6496123,2019-08-16 14:37:29:903,0.4464,0.4998,9.954,0.019,-0.0128,9.8066,-0.0075,-0.0101,0.0005,-6.05,27.84,-9.39,254.85,8.11,3.25
64962,51.246204,-2.934272,50,23.65,9,234.9,16 / 21,6496223,2019-08-16 14:37:30:003,0.3322,0.6151,9.0241,0.0065,0.0002,9.8066,0.0011,0.0378,0.0122,-6.05,27.84,-9.39,254.85,8.11,3.25
64963,51.246204,-2.934272,50,23.65,9,234.9,16 / 21,6496323,2019-08-16 14:37:30:103,0.4273,0.5586,9.6356,0.0012,0.003,9.8067,-0.0266,0.0239,0.0229,-6.19,27.73,-9.61,254.55,8.12,3.21
64964,51.246204,-2.934272,50,23.65,9,234.9,16 / 21,6496423,2019-08-16 14:37:30:203,0.0378,-0.1238,9.305,0.006,0.0192,9.8066,-0.0011,-0.0357,0.009,-5.62,28.0,-9.17,254.82,8.24,3.21
64965,51.246204,-2.934272,50,23.65,9,234.9,16 / 21,6496523,2019-08-16 14:37:30:303,0.397,0.1513,9.1166,0.0022,0.0138,9.8066,-0.0021,-0.0091,-0.0069,-5.62,28.0,-9.17,254.82,8.24,3.21
64966,51.246204,-2.934272,50,23.65,9,234.9,16 / 21,6496623,2019-08-16 14:37:30:403,0.3598,0.627,9.2703,0.0265,-0.0167,9.8066,-0.0288,-0.041,0.0122,-5.62,28.0,-9.17,254.78,8.42,3.12
64967,51.246204,-2.934272,50,23.65,9,234.9,16 / 21,6496723,2019-08-16 14:37:30:503,0.2789,0.2674,9.0765,0.0187,-0.0035,9.8066,-0.0288,-0.041,0.0122,-5.56,27.72,-10.02,254.53,8.36,2.94
64968,51.24608,-2.934559,50,23.64,10,234.1,16 / 21,6496822,2019-08-16 14:37:30:602,-0.0534,-0.1489,10.4863,0.0146,0.0081,9.8066,0.0181,0.0069,0.009,-5.56,27.72,-10.02,254.53,8.36,2.94
64969,51.24608,-2.934559,50,23.64,10,234.1,16 / 21,6496923,2019-08-16 14:37:30:703,0.3364,0.2112,10.0178,0.0164,-0.0135,9.8066,-0.0181,-0.0432,0.008,-5.38,27.59,-10.48,256.45,8.43,2.87
64970,51.24608,-2.934559,50,23.64,10,234.1,16 / 21,6497023,2019-08-16 14:37:30:803,0.2724,-0.488,8.8695,0.0032,0.0238,9.8066,0.0032,-0.0634,-0.0112,-5.25,27.71,-10.23,256.5,8.38,2.76
64971,51.24608,-2.934559,50,23.64,10,234.1,16 / 21,6497123,2019-08-16 14:37:30:903,0.1568,-0.2303,10.064,0.0142,0.0257,9.8066,-0.0234,0.0218,0.0037,-5.77,27.94,-9.29,254.83,8.54,2.71
64972,51.24608,-2.934559,50,23.64,10,234.1,16 / 21,6497223,2019-08-16 14:37:31:003,0.2867,0.0213,10.0747,0.0162,0.0211,9.8066,-0.0117,-0.0474,0.025,-5.63,28.04,-9.05,254.83,8.54,2.71
64973,51.24608,-2.934559,50,23.64,10,234.1,16 / 21,6497323,2019-08-16 14:37:31:103,0.6037,-0.0042,9.8534,0.0133,0.022,9.8066,0.016,0.0282,0.008,-7.17,27.68,-9.07,252.9,8.69,2.67
64974,51.24608,-2.934559,50,23.64,10,234.1,16 / 21,6497424,2019-08-16 14:37:31:204,-0.1375,-0.5735,10.2681,-0.0043,-0.021,9.8066,-0.0043,0.0239,0.0005,-7.17,27.68,-9.07,252.9,8.69,2.67
64975,51.24608,-2.934559,50,23.64,10,234.1,16 / 21,6497524,2019-08-16 14:37:31:304,0.1888,-0.347,9.8624,-0.0015,0.0099,9.8066,-0.0043,0.0239,0.0005,-6.28,27.32,-10.68,253.71,8.45,2.64
64976,51.24608,-2.934559,50,23.64,10,234.1,16 / 21,6497623,2019-08-16 14:37:31:403,0.3141,-0.0457,8.937,0.0038,0.0218,9.8066,0.0043,-0.0283,0.0346,-6.28,27.32,-10.68,253.71,8.45,2.64
64977,51.24608,-2.934559,50,23.64,10,234.1,16 / 21,6497724,2019-08-16 14:37:31:504,-0.0098,-0.1643,10.0613,-0.0068,-0.0092,9.8066,0.0277,-0.007,0.0037,-6.28,27.32,-10.68,253.66,8.58,2.66
64978,51.245953,-2.934823,50,23.73,10,233.6,15 / 21,6497823,2019-08-16 14:37:31:603,-0.0466,0.1967,10.617,-0.0074,-0.0503,9.8065,-0.0053,-0.0272,0.0271,-5.51,27.47,-10.73,253.66,8.58,2.66
64979,51.245953,-2.934823,50,23.73,10,233.6,15 / 21,6497923,2019-08-16 14:37:31:703,0.1535,-0.0834,9.595,-0.0104,0.007,9.8066,0.0309,-0.0549,0.0133,-5.77,27.21,-11.23,253.78,8.28,2.61
64980,51.245953,-2.934823,50,23.73,10,233.6,15 / 21,6498023,2019-08-16 14:37:31:803,0.0012,0.1515,10.6641,-0.0222,0.012,9.8066,0.0138,-0.0197,0.0133,-5.71,26.92,-11.94,253.78,8.28,2.61
64981,51.245953,-2.934823,50,23.73,10,233.6,15 / 21,6498123,2019-08-16 14:37:31:903,0.3021,-0.0512,10.3483,-0.0144,-0.0207,9.8066,0.0288,0.0346,0.0101,-5.71,26.92,-11.94,253.78,8.28,2.61
64982,51.245953,-2.934823,50,23.73,10,233.6,15 / 21,6498224,2019-08-16 14:37:32:004,-0.1538,-0.5237,9.429,0.0048,-0.004,9.8066,-0.0149,0.0612,0.0154,-5.65,27.33,-11.0,253.83,8.14,2.66
64983,51.245953,-2.934823,50,23.73,10,233.6,15 / 21,6498323,2019-08-16 14:37:32:103,0.1288,-0.2657,9.7946,0.0188,-0.0133,9.8066,-0.0213,-0.0016,-0.0059,-6.45,27.23,-10.82,253.88,8.1,2.53
64984,51.245953,-2.934823,50,23.73,10,233.6,15 / 21,6498423,2019-08-16 14:37:32:203,0.3683,0.105,9.1725,0.0205,0.0188,9.8066,-0.0213,-0.0016,-0.0059,-6.45,27.23,-10.82,253.88,8.1,2.53
64985,51.245953,-2.934823,50,23.73,10,233.6,15 / 21,6498522,2019-08-16 14:37:32:302,0.1865,-0.1296,9.4711,0.0317,0.007,9.8066,-0.0288,0.009,0.0005,-6.99,27.8,-8.85,253.09,8.24,2.45
64986,51.245953,-2.934823,50,23.73,10,233.6,15 / 21,6498623,2019-08-16 14:37:32:403,0.4327,0.1826,10.7086,0.066,0.0188,9.8064,-0.0107,0.0112,-0.0006,-7.11,27.45,-9.79,252.21,8.46,2.11
64987,51.245953,-2.934823,50,23.73,10,233.6,15 / 21,6498723,2019-08-16 14:37:32:503,0.4869,-0.3822,10.6247,0.0144,0.0012,9.8066,0.0085,-0.04,-0.0048,-7.11,27.45,-9.79,252.21,8.46,2.11
64988,51.24582,-2.935099,50,23.93,10,233.1,15 / 21,6498823,2019-08-16 14:37:32:603,0.1459,0.3583,9.7394,-0.002,-0.0081,9.8066,0.0106,0.0154,0.0048,-8.05,27.13,-9.97,250.34,8.41,2.02
64989,51.24582,-2.935099,50,23.93,10,233.1,15 / 21,6498924,2019-08-16 14:37:32:704,-0.0559,-0.2419,8.9897,-0.0096,-0.0065,9.8066,-0.0021,0.0484,0.0186,-6.99,27.8,-8.85,253.15,8.36,2.02
64990,51.24582,-2.935099,50,23.93,10,233.1,15 / 21,6499023,2019-08-16 14:37:32:803,-0.1595,-0.2697,9.5196,-0.0041,-0.0101,9.8066,-0.0277,0.0474,0.0101,-7.67,27.4,-9.5,250.67,8.3,2.03
64991,51.24582,-2.935099,50,23.93,10,233.1,15 / 21,6499123,2019-08-16 14:37:32:903,0.0449,-0.6929,10.9492,0.0169,0.0126,9.8066,-0.0128,0.0303,0.0069,-7.67,27.4,-9.5,250.67,8.3,2.03
64992,51.24582,-2.935099,50,23.93,10,233.1,15 / 21,6499223,2019-08-16 14:37:33:003,0.3383,0.0787,10.1028,0.0128,-0.0027,9.8066,-0.0128,0.0303,0.0069,-6.37,26.91,-11.64,253.6,8.4,1.96
64993,51.24582,-2.935099,50,23.93,10,233.1,15 / 21,6499323,2019-08-16 14:37:33:103,0.1757,-0.4172,10.0987,0.0275,0.0018,9.8066,-0.0149,0.0133,0.0005,-6.43,27.18,-10.94,253.93,8.45,1.8
64994,51.24582,-2.935099,50,23.93,10,233.1,15 / 21,6499423,2019-08-16 14:37:33:203,0.4345,0.1127,9.0785,0.0118,0.0122,9.8066,0.0064,-0.0101,-0.0069,-6.43,27.18,-10.94,253.93,8.45,1.8
64995,51.24582,-2.935099,50,23.93,10,233.1,15 / 21,6499523,2019-08-16 14:37:33:303,-0.2114,0.0538,9.5563,0.0126,0.0095,9.8066,-0.0075,-0.0101,0.0293,-5.59,27.05,-11.7,253.6,8.53,1.75
64996,51.24582,-2.935099,50,23.93,10,233.1,15 / 21,6499623,2019-08-16 14:37:33:403,-0.1288,-0.2618,9.5181,0.0016,-0.0025,9.8066,-0.016,0.058,0.0112,-5.59,27.05,-11.7,253.6,8.53,1.75
64997,51.24582,-2.935099,50,23.93,10,233.1,15 / 21,6499723,2019-08-16 14:37:33:503,-0.1223,0.1586,10.2835,0.0088,-0.0091,9.8066,-0.0128,0.0144,-0.0101,-6.15,26.74,-12.13,253.61,8.52,1.73
64998,51.24569,-2.935367,50,23.78,10,232.7,16 / 21,6499823,2019-08-16 14:37:33:603,0.1935,0.1231,9.9637,0.0168,-0.0046,9.8066,-0.0128,0.0144,-0.0101,-7.21,27.02,-10.87,252.01,8.48,1.67
64999,51.24569,-2.935367,50,23.78,10,232.7,16 / 21,6499923,2019-08-16 14:37:33:703,0.3395,-0.385,10.224,0.0217,-0.0039,9.8066,-0.032,0.0271,0.0144,-7.21,27.02,-10.87,252.01,8.48,1.67
65000,51.24569,-2.935367,50,23.78,10,232.7,16 / 21,6500022,2019-08-16 14:37:33:802,-0.4257,-0.1086,9.4416,-0.0029,0.0023,9.8066,0.0128,-0.0155,0.0133,-7.1,28.23,-7.26,253.82,8.5,1.54
65001,51.24569,-2.935367,50,23.78,10,232.7,16 / 21,6500123,2019-08-16 14:37:33:903,-0.6989,-0.0648,9.3491,-0.0228,0.0118,9.8066,0.0181,-0.0272,0.0282,-7.1,28.23,-7.26,253.81,8.51,1.56
65002,51.24569,-2.935367,50,23.78,10,232.7,16 / 21,6500223,2019-08-16 14:37:34:003,-0.7198,-0.0381,9.616,-0.0359,0.0273,9.8065,-0.0032,-0.0016,0.025,-7.8,27.86,-7.95,251.58,8.6,1.81
65003,51.24569,-2.935367,50,23.78,10,232.7,16 / 21,6500324,2019-08-16 14:37:34:104,-0.3397,0.3513,9.2794,-0.0062,0.0192,9.8066,-0.0128,-0.024,0.0026,-7.8,27.86,-7.95,251.58,8.6,1.81
65004,51.24569,-2.935367,50,23.78,10,232.7,16 / 21,6500424,2019-08-16 14:37:34:204,-0.3944,-0.0496,10.3168,0.0037,0.0238,9.8066,-0.0245,0.0303,0.0101,-6.83,27.91,-8.64,253.09,8.7,1.88
65005,51.24569,-2.935367,50,23.78,10,232.7,16 / 21,6500523,2019-08-16 14:37:34:303,-0.0269,0.1828,9.7287,0.0074,0.0248,9.8066,0.0288,0.0175,-0.0016,-6.07,27.16,-11.21,253.09,8.7,1.88
65006,51.24569,-2.935367,50,23.78,10,232.7,16 / 21,6500623,2019-08-16 14:37:34:403,-0.1145,-0.1896,10.0687,-0.0004,-0.0112,9.8066,0.0288,0.0175,-0.0016,-6.28,27.32,-10.68,253.79,8.74,1.89
65007,51.24569,-2.935367,50,23.78,10,232.7,16 / 21,6500722,2019-08-16 14:37:34:502,-0.1919,0.3719,9.7626,-0.0083,-0.0141,9.8066,0.0309,0.0175,-0.0144,-6.28,27.32,-10.68,253.79,8.74,1.89
65008,51.245552,-2.935637,50,23.72,10,232.4,16 / 21,6500823,2019-08-16 14:37:34:603,-0.2631,0.4135,9.5171,0.01,-0.0114,9.8066,-0.0064,0.0548,-0.0133,-6.72,26.85,-11.57,251.57,8.65,1.92
65009,51.245552,-2.935637,50,23.72,10,232.4,16 / 21,6500923,2019-08-16 14:37:34:703,-0.2348,-0.0024,9.9153,-0.009,-0.0083,9.8066,-0.0096,-0.0112,0.0282,-7.19,26.97,-10.99,251.89,8.59,1.95
65010,51.245552,-2.935637,50,23.72,10,232.4,16 / 21,6501023,2019-08-16 14:37:34:803,-0.129,-0.1979,10.6545,-0.0297,0.0005,9.8066,0.0,0.0442,0.0346,-7.19,26.97,-10.99,251.89,8.59,1.95
65011,51.245552,-2.935637,50,23.72,10,232.4,16 / 21,6501124,2019-08-16 14:37:34:904,-0.3946,-0.1785,10.0457,0.0019,0.016,9.8066,-0.0234,-0.041,0.0165,-7.19,26.97,-10.99,251.87,8.54,2.12
65012,51.245552,-2.935637,50,23.72,10,232.4,16 / 21,6501223,2019-08-16 14:37:35:003,-0.0525,-0.0442,8.7441,0.0072,0.0268,9.8066,-0.0075,-0.008,0.0186,-8.37,26.79,-10.6,249.9,8.7,2.13
65013,51.245552,-2.935637,50,23.72,10,232.4,16 / 21,6501323,2019-08-16 14:37:35:103,-0.0962,-0.1705,8.5539,0.0014,0.0122,9.8066,0.0085,-0.0208,0.008,-7.95,26.79,-10.91,249.88,8.77,2.14
65014,51.245552,-2.935637,50,23.72,10,232.4,16 / 21,6501423,2019-08-16 14:37:35:203,-0.5607,-0.3118,9.909,0.0141,0.0009,9.8066,0.0085,-0.0208,0.008,-7.95,26.79,-10.91,249.88,8.77,2.14
65015,51.245552,-2.935637,50,23.72,10,232.4,16 / 21,6501524,2019-08-16 14:37:35:304,-0.2874,-0.2727,9.4469,-0.0212,-0.0118,9.8066,0.017,0.0431,0.0271,-7.65,27.33,-9.73,250.18,8.81,2.14
65016,51.245552,-2.935637,50,23.72,10,232.4,16 / 21,6501623,2019-08-16 14:37:35:403,-0.3079,0.0063,9.7245,-0.0313,-0.0298,9.8066,0.0117,-0.0187,0.0197,-8.86,27.12,-9.29,250.18,8.81,2.14
65017,51.245552,-2.935637,50,23.72,10,232.4,16 / 21,6501724,2019-08-16 14:37:35:504,-0.3873,-0.1288,9.7027,-0.0421,-0.0303,9.8065,0.0,0.0154,0.0357,-8.86,27.12,-9.29,250.18,8.81,2.14
65018,51.245422,-2.935903,50,23.65,10,231.6,16 / 21,6501823,2019-08-16 14:37:35:603,-0.2692,0.0064,9.6846,-0.0112,0.0128,9.8066,0.0117,-0.0283,-0.0016,-7.83,27.19,-9.96,250.21,8.56,2.31
65019,51.245422,-2.935903,50,23.65,10,231.6,16 / 21,6501923,2019-08-16 14:37:35:703,-0.2673,0.0419,9.4192,-0.0065,0.0004,9.8066,-0.0139,0.0367,0.0154,-6.77,26.92,-11.36,251.77,8.6,2.4
65020,51.245422,-2.935903,50,23.65,10,231.6,16 / 21,6502023,2019-08-16 14:37:35:803,-0.1099,0.2927,8.922,0.0016,-0.0144,9.8066,-0.0181,-0.0315,0.0176,-6.77,26.92,-11.36,251.77,8.6,2.4
65021,51.245422,-2.935903,50,23.65,10,231.6,16 / 21,6502123,2019-08-16 14:37:35:903,0.1269,0.1488,10.2248,0.0059,0.0045,9.8066,0.0117,-0.0165,0.0176,-7.36,26.76,-11.38,251.81,8.53,2.37
65022,51.245422,-2.935903,50,23.65,10,231.6,16 / 21,6502223,2019-08-16 14:37:36:003,0.1206,0.0694,9.938,0.0012,0.0058,9.8066,-0.0011,-0.0027,0.0239,-8.22,26.89,-10.46,250.2,8.56,2.37
65023,51.245422,-2.935903,50,23.65,10,231.6,16 / 21,6502323,2019-08-16 14:37:36:103,0.0889,0.1512,9.3009,-0.0033,-0.0169,9.8066,0.0149,-0.0581,0.0026,-8.22,26.89,-10.46,250.2,8.56,2.37
65024,51.245422,-2.935903,50,23.65,10,231.6,16 / 21,6502424,2019-08-16 14:37:36:204,0.0114,0.115,8.9692,-0.0035,0.0163,9.8066,0.0149,-0.0581,0.0026,-8.13,26.58,-11.3,249.93,8.46,2.35
65025,51.245422,-2.935903,50,23.65,10,231.6,16 / 21,6502523,2019-08-16 14:37:36:303,-0.3725,-0.1455,9.6585,-0.0056,0.018,9.8066,0.0106,-0.0464,0.025,-6.93,26.77,-11.63,251.47,8.54,2.41
65026,51.245422,-2.935903,50,23.65,10,231.6,16 / 21,6502623,2019-08-16 14:37:36:403,-0.2804,0.028,9.6119,-0.0082,0.0292,9.8066,0.0011,-0.0432,0.025,-8.01,27.0,-10.33,251.47,8.54,2.41
65027,51.245422,-2.935903,50,23.65,10,231.6,16 / 21,6502723,2019-08-16 14:37:36:503,-0.5408,-0.0232,10.0201,-0.0185,0.0008,9.8066,0.0309,-0.0251,-0.0101,-8.11,27.33,-9.36,250.44,8.69,2.51
65028,51.245285,-2.936175,51,23.66,10,231.0,16 / 21,6502823,2019-08-16 14:37:36:603,-0.3734,-0.0321,11.158,-0.0248,-0.0228,9.8066,-0.0192,0.0527,0.0186,-8.02,27.04,-10.21,250.44,8.69,2.51
65029,51.245285,-2.936175,51,23.66,10,231.0,16 / 21,6502923,2019-08-16 14:37:36:703,0.0074,-0.0218,10.0526,-0.025,-0.0416,9.8065,0.0085,-0.0389,0.0058,-8.02,27.04,-10.21,250.44,8.69,2.51
65030,51.245285,-2.936175,51,23.66,10,231.0,16 / 21,6503022,2019-08-16 14:37:36:802,-0.1497,0.2158,9.1699,-0.0048,0.001,9.8066,-0.0117,-0.0293,0.0122,-8.02,27.04,-10.21,250.2,8.41,2.56
65031,51.245285,-2.936175,51,23.66,10,231.0,16 / 21,6503123,2019-08-16 14:37:36:903,-0.4998,-0.4228,9.4443,-0.0128,-0.0026,9.8066,0.0213,0.0623,0.0165,-8.56,27.0,-9.89,248.32,8.37,2.63
65032,51.245285,-2.936175,51,23.66,10,231.0,16 / 21,6503222,2019-08-16 14:37:37:002,-0.1886,0.0191,8.7062,-0.0046,0.0062,9.8066,0.0213,0.0623,0.0165,-8.56,27.0,-9.89,248.32,8.37,2.63
65033,51.245285,-2.936175,51,23.66,10,231.0,16 / 21,6503323,2019-08-16 14:37:37:103,-0.3628,0.3646,9.4955,0.0041,0.0208,9.8066,-0.0117,-0.073,-0.0027,-9.06,26.55,-10.63,247.97,8.49,2.65
65034,51.245285,-2.936175,51,23.66,10,231.0,16 / 21,6503423,2019-08-16 14:37:37:203,0.1673,-0.1059,9.6789,0.0245,0.0134,9.8066,0.0,-0.0091,0.0016,-7.27,26.43,-12.19,247.97,8.49,2.65
65035,51.245285,-2.936175,51,23.66,10,231.0,16 / 21,6503523,2019-08-16 14:37:37:303,-0.0545,0.5105,10.1537,-0.0012,-0.02,9.8066,-0.0117,0.0474,0.0176,-8.54,26.19,-11.87,246.87,8.62,2.55
65036,51.245285,-2.936175,51,23.66,10,231.0,16 / 21,6503623,2019-08-16 14:37:37:403,0.2897,0.0713,9.3552,-0.0108,-0.0457,9.8065,-0.0075,0.0751,0.0154,-8.54,26.19,-11.87,246.87,8.62,2.55
65037,51.245285,-2.936175,51,23.66,10,231.0,16 / 21,6503723,2019-08-16 14:37:37:503,0.1747,-0.2505,9.5852,0.0032,-0.0166,9.8066,-0.0053,0.0026,0.0154,-8.3,27.14,-9.72,250.23,8.35,2.5
65038,51.245144,-2.936444,51,23.65,10,230.3,16 / 21,6503823,2019-08-16 14:37:37:603,0.1876,-0.1999,9.5587,0.0103,-0.0291,9.8066,-0.0181,-0.0155,0.008,-8.79,26.1,-11.9,247.08,8.21,2.39
65039,51.245144,-2.936444,51,23.65,10,230.3,16 / 21,6503922,2019-08-16 14:37:37:702,-0.2075,0.1182,9.3159,0.0158,0.0131,9.8066,0.0096,0.0112,-0.0091,-8.79,26.1,-11.9,247.08,8.21,2.39
65040,51.245144,-2.936444,51,23.65,10,230.3,16 / 21,6504023,2019-08-16 14:37:37:803,0.0519,-0.0014,10.2654,0.0387,0.0434,9.8065,0.0096,0.0112,-0.0091,-8.65,26.88,-10.14,248.37,8.53,2.27
65041,51.245144,-2.936444,51,23.65,10,230.3,16 / 21,6504123,2019-08-16 14:37:37:903,0.323,-0.0474,10.4638,0.012,0.0166,9.8066,0.0032,0.0186,-0.0037,-8.1,27.29,-9.48,250.52,8.65,2.24
65042,51.245144,-2.936444,51,23.65,10,230.3,16 / 21,6504223,2019-08-16 14:37:38:003,-0.2149,-0.3613,10.3832,0.0026,-0.0088,9.8066,0.0053,0.0122,-0.0123,-8.1,27.29,-9.48,250.52,8.65,2.24
65043,51.245144,-2.936444,51,23.65,10,230.3,16 / 21,6504323,2019-08-16 14:37:38:103,0.3599,-0.2642,9.7842,0.0078,-0.0189,9.8066,-0.0224,0.0261,0.0058,-8.17,27.55,-8.61,251.18,8.61,2.21
65044,51.245144,-2.936444,51,23.65,10,230.3,16 / 21,6504423,2019-08-16 14:37:38:203,0.2606,-0.3903,9.2113,0.0018,-0.004,9.8066,0.0447,-0.0293,-0.0037,-7.53,27.38,-9.67,250.28,8.52,2.13
65045,51.245144,-2.936444,51,23.65,10,230.3,16 / 21,6504523,2019-08-16 14:37:38:303,-0.2986,0.2538,10.686,-0.0171,0.0084,9.8066,-0.0107,-0.0389,0.0165,-7.53,27.38,-9.67,250.28,8.52,2.13
65046,51.245144,-2.936444,51,23.65,10,230.3,16 / 21,6504624,2019-08-16 14:37:38:404,0.1324,0.3105,10.1821,-0.0127,-0.0347,9.8066,-0.0011,0.0293,0.0282,-7.79,27.45,-9.27,250.55,8.53,2.24
65047,51.245144,-2.936444,51,23.65,10,230.3,16 / 21,6504723,2019-08-16 14:37:38:503,0.2681,-0.6484,10.6666,-0.0046,-0.0292,9.8066,0.0064,-0.0016,0.0218,-5.16,27.43,-11.01,255.85,8.36,2.21
65048,51.245007,-2.936717,51,23.75,10,229.6,15 / 21,6504823,2019-08-16 14:37:38:603,0.2771,-0.3107,9.9521,0.0113,0.0181,9.8066,0.0064,-0.0016,0.0218,-2.78,27.59,-11.44,255.85,8.36,2.21
65049,51.245007,-2.936717,51,23.75,10,229.6,15 / 21,6504923,2019-08-16 14:37:38:703,0.432,-0.1612,8.8058,0.0283,0.0274,9.8066,-0.0192,0.0112,0.0218,2.81,26.32,-14.11,271.67,8.55,2.09
65050,51.245007,-2.936717,51,23.75,10,229.6,15 / 21,6505023,2019-08-16 14:37:38:803,0.7618,-0.2555,8.5347,0.0018,0.0183,9.8066,0.0149,-0.057,0.0112,2.81,26.32,-14.11,271.67,8.55,2.09
65051,51.245007,-2.936717,51,23.75,10,229.6,15 / 21,6505124,2019-08-16 14:37:38:904,0.6909,0.4502,10.1334,0.0019,0.0117,9.8066,-0.0064,-0.0347,-0.0112,-0.04,19.34,-22.93,258.94,8.62,2.08
65052,51.245007,-2.936717,51,23.75,10,229.6,15 / 21,6505223,2019-08-16 14:37:39:003,-0.1089,-0.1267,10.6814,0.0038,0.0197,9.8066,-0.0075,0.0005,0.0112,-10.78,19.54,-20.05,233.95,8.74,2.08
65053,51.245007,-2.936717,51,23.75,10,229.6,15 / 21,6505323,2019-08-16 14:37:39:103,-0.0395,0.3183,10.4425,-0.0169,-0.0057,9.8066,0.0405,0.0144,0.009,-15.08,21.62,-14.32,233.95,8.74,2.08
65054,51.245007,-2.936717,51,23.75,10,229.6,15 / 21,6505423,2019-08-16 14:37:39:203,0.0224,0.2389,10.0804,-0.0355,-0.021,9.8066,-0.0149,0.0282,0.0293,-13.98,25.11,-8.6,238.11,8.65,2.14
65055,51.245007,-2.936717,51,23.75,10,229.6,15 / 21,6505523,2019-08-16 14:37:39:303,0.1967,0.4096,10.5317,-0.0439,-0.0003,9.8066,0.0085,-0.024,0.0133,-13.15,25.43,-8.98,238.11,8.65,2.14
65056,51.245007,-2.936717,51,23.75,10,229.6,15 / 21,6505624,2019-08-16 14:37:39:404,-0.0163,0.5724,8.5777,-0.0592,0.0436,9.8064,0.0085,-0.024,0.0133,-13.15,25.43,-8.98,238.11,8.65,2.14
65057,51.245007,-2.936717,51,23.75,10,229.6,15 / 21,6505723,2019-08-16 14:37:39:503,0.1627,0.453,10.6016,-0.0133,0.0114,9.8066,0.0128,0.0122,0.0058,-9.95,26.59,-9.69,246.42,8.69,2.57
65058,51.24488,-2.936985,52,23.65,10,229.1,15 / 21,6505823,2019-08-16 14:37:39:603,0.2984,0.222,9.6258,-0.0001,-0.0115,9.8066,-0.0117,0.0335,0.0218,-10.04,26.83,-8.92,246.75,8.63,2.54
65059,51.24488,-2.936985,52,23.65,10,229.1,15 / 21,6505923,2019-08-16 14:37:39:703,0.0885,-0.0872,9.838,-0.0067,0.0201,9.8066,0.016,-0.0059,0.0271,-10.04,26.83,-8.92,246.75,8.63,2.54
65060,51.24488,-2.936985,52,23.65,10,229.1,15 / 21,6506023,2019-08-16 14:37:39:803,-0.0043,0.0554,8.7217,-0.0159,0.0458,9.8065,-0.0309,-0.0112,0.0122,-11.42,26.07,-9.5,244.03,8.83,2.74
65061,51.24488,-2.936985,52,23.65,10,229.1,15 / 21,6506123,2019-08-16 14:37:39:903,0.1265,0.2023,9.4825,0.0222,0.0093,9.8066,-0.0213,-0.057,0.008,-11.42,26.07,-9.5,244.03,8.83,2.74
65062,51.24488,-2.936985,52,23.65,10,229.1,15 / 21,6506223,2019-08-16 14:37:40:003,-0.0578,0.1229,9.3867,0.0168,0.0156,9.8066,0.0287,0.0112,0.0218,-10.43,26.24,-10.15,245.52,8.94,2.64
65063,51.24488,-2.936985,52,23.65,10,229.1,15 / 21,6506324,2019-08-16 14:37:40:104,-0.6803,-0.2855,10.0372,-0.0076,-0.0095,9.8066,0.0287,0.0112,0.0218,-10.94,25.37,-11.68,242.07,9.07,2.7
65064,51.24488,-2.936985,52,23.65,10,229.1,15 / 21,6506423,2019-08-16 14:37:40:203,-0.3254,0.109,11.3022,-0.0232,-0.0233,9.8066,-0.0224,-0.0261,0.024,-10.94,25.37,-11.68,242.07,9.07,2.7
65065,51.24488,-2.936985,52,23.65,10,229.1,15 / 21,6506523,2019-08-16 14:37:40:303,-0.0815,0.1386,9.2803,-0.0021,0.0018,9.8067,0.0234,-0.0123,0.0133,-11.68,25.1,-11.56,240.34,8.89,2.76
65066,51.24488,-2.936985,52,23.65,10,229.1,15 / 21,6506623,2019-08-16 14:37:40:403,0.1119,0.2452,10.0432,0.0205,0.0047,9.8066,0.0085,-0.0506,-0.0091,-10.68,25.61,-11.4,240.34,8.89,2.76
65067,51.24488,-2.936985,52,23.65,10,229.1,15 / 21,6506724,2019-08-16 14:37:40:504,0.4819,0.5609,9.2765,0.0523,0.0263,9.8065,-0.0171,-0.0528,0.0016,-11.4,25.35,-11.29,242.42,9.17,2.57
65068,51.244736,-2.937238,52,23.51,10,228.4,15 / 21,6506823,2019-08-16 14:37:40:603,-0.4684,-0.4564,9.5029,0.0268,0.0153,9.8066,0.0,0.0186,0.0144,-11.4,25.35,-11.29,242.42,9.17,2.57
65069,51.244736,-2.937238,52,23.51,10,228.4,15 / 21,6506923,2019-08-16 14:37:40:703,0.4707,-0.264,10.3011,0.0148,-0.0003,9.8066,0.0021,0.0101,0.0058,-11.72,25.74,-10.01,241.9,9.32,2.47
65070,51.244736,-2.937238,52,23.51,10,228.4,15 / 21,6507022,2019-08-16 14:37:40:802,0.0145,-0.0525,9.5888,0.028,0.01,9.8066,-0.0011,0.0058,0.0048,-10.33,26.25,-10.21,245.45,9.45,2.35
65071,51.244736,-2.937238,52,23.51,10,228.4,15 / 21,6507123,2019-08-16 14:37:40:903,0.0697,0.0182,10.352,-0.0077,-0.0109,9.8066,0.0021,0.0293,0.009,-11.27,25.87,-10.19,245.45,9.45,2.35
65072,51.244736,-2.937238,52,23.51,10,228.4,15 / 21,6507223,2019-08-16 14:37:41:003,0.17,0.2229,10.4403,-0.0329,-0.0576,9.8064,0.0021,0.0293,0.009,-11.27,25.87,-10.19,245.45,9.45,2.35
65073,51.244736,-2.937238,52,23.51,10,228.4,15 / 21,6507323,2019-08-16 14:37:41:103,0.3854,-0.0607,10.2688,-0.005,-0.0071,9.8066,0.0138,0.0442,0.0176,-11.72,25.74,-10.01,241.99,9.07,2.39
65074,51.244736,-2.937238,52,23.51,10,228.4,15 / 21,6507424,2019-08-16 14:37:41:204,0.4138,0.086,9.5716,-0.0053,0.0128,9.8066,0.0149,-0.0517,0.0069,-10.0,26.19,-10.67,245.19,9.12,2.45
65075,51.244736,-2.937238,52,23.51,10,228.4,15 / 21,6507524,2019-08-16 14:37:41:304,0.1209,0.1529,9.338,0.0063,0.0226,9.8066,0.0064,-0.0091,0.0069,-10.0,26.19,-10.67,245.19,9.12,2.45
65076,51.244736,-2.937238,52,23.51,10,228.4,15 / 21,6507623,2019-08-16 14:37:41:403,0.2873,-0.1607,9.9485,0.0268,0.0232,9.8066,-0.0266,-0.007,-0.0219,-9.4,25.92,-11.82,246.65,9.25,2.47
65077,51.244736,-2.937238,52,23.51,10,228.4,15 / 21,6507723,2019-08-16 14:37:41:503,0.3763,-0.485,9.3648,0.0793,0.0296,9.8063,-0.0352,0.042,-0.0027,-9.18,25.71,-12.43,246.64,9.6,2.11
65078,51.244625,-2.937526,48,23.35,9,227.2,15 / 21,6507823,2019-08-16 14:37:41:603,-0.1522,-0.8046,10.671,0.0455,-0.0132,9.8065,0.0074,0.0293,0.0101,-9.18,25.71,-12.43,246.64,9.6,2.11
65079,51.244625,-2.937526,48,23.35,9,227.2,15 / 21,6507923,2019-08-16 14:37:41:703,0.2885,-0.4992,10.5516,0.0389,-0.0485,9.8065,0.0074,0.0293,0.0101,-10.19,25.63,-11.8,244.97,9.43,1.78
65080,51.244625,-2.937526,48,23.35,9,227.2,15 / 21,6508023,2019-08-16 14:37:41:803,0.0913,-0.5426,10.4814,-0.0305,-0.0321,9.8066,0.0202,0.0378,0.0186,-9.4,25.92,-11.82,246.87,9.18,1.87
65081,51.244625,-2.937526,48,23.35,9,227.2,15 / 21,6508123,2019-08-16 14:37:41:903,-0.1933,-0.4507,10.9869,-0.0112,-0.0222,9.8066,0.0042,0.009,0.0144,-9.4,25.92,-11.82,246.87,9.18,1.87
65082,51.244625,-2.937526,48,23.35,9,227.2,15 / 21,6508223,2019-08-16 14:37:42:003,0.0007,0.3575,10.321,-0.0215,-0.0034,9.8066,-0.0128,-0.0038,-0.0006,-10.31,25.52,-11.95,245.08,9.03,1.88
