,GPS LATITUDE (degrees),GPS LONGITUDE (degrees), GPS ALTITUDE (m),GPS SPEED (Kmh),GPS ACCURACY (m),GPS ORIENTATION (Â°), SATELLITES IN RANGE, TIME SINCE START (ms), DATE (YYYY-MO-DD HH-MI-SS_SSS),ACCELEROMETER X (m/s²) , ACCELEROMETER Y (m/s²), ACCELEROMETER Z (m/s²), GRAVITY X (m/s²), GRAVITY Y (m/s²), GRAVITY Z (m/s²), GYROSCOPE Yaw (rad/s), GYROSCOPE Pitch (rad/s), GYROSCOPE Roll (rad/s)
83342,47.17092,-1.656523,77.49,25.61,3.216,291.8,16 / 22,8335397,2019-08-18 17:32:37:934,-0.6386,-0.0742,9.4951,-0.8946,-0.1834,9.764,-0.0029,0.0009,0.004
83343,47.17092,-1.656523,77.49,25.61,3.216,291.8,16 / 22,8335498,2019-08-18 17:32:38:035,-0.4997,-0.1909,9.3741,-0.8927,-0.1832,9.7642,-0.0028,0.006,0.003
83344,47.17092,-1.656523,77.49,25.61,3.216,291.8,16 / 22,8335597,2019-08-18 17:32:38:134,-0.8541,-0.1766,10.0882,-0.8935,-0.1843,9.7641,-0.0046,0.0071,0.0005
83345,47.17092,-1.656523,77.49,25.61,3.216,291.8,16 / 22,8335697,2019-08-18 17:32:38:234,-0.8014,-0.3142,9.5405,-0.8837,-0.1865,9.765,-0.0014,-0.0052,-0.0003
83346,47.17092,-1.656523,77.49,25.61,3.216,291.8,16 / 22,8335797,2019-08-18 17:32:38:334,-0.5554,-0.2083,10.7143,-0.8782,-0.1816,9.7656,0.0073,-0.0074,0.0019
83347,47.17092,-1.656523,77.49,25.61,3.216,291.8,16 / 22,8335897,2019-08-18 17:32:38:434,-0.5566,-0.2251,9.9619,-0.8692,-0.1742,9.7665,0.0021,0.0069,0.0026
83348,47.17092,-1.656523,77.49,25.61,3.216,291.8,16 / 22,8335997,2019-08-18 17:32:38:534,-0.4973,-0.2801,9.7255,-0.8646,-0.1753,9.7669,-0.0084,-0.0042,0.0
83349,47.17092,-1.656523,77.49,25.61,3.216,291.8,17 / 22,8336097,2019-08-18 17:32:38:634,-0.6224,-0.1844,9.6184,-0.8497,-0.1825,9.7681,-0.0055,0.0057,0.0002
83350,47.17092,-1.656523,77.49,25.61,3.216,291.8,17 / 22,8336197,2019-08-18 17:32:38:734,-0.6895,-0.2059,9.692,-0.8472,-0.1825,9.7683,-0.0038,-0.0031,0.0008
83351,47.17092,-1.656523,77.49,25.61,3.216,291.8,17 / 22,8336297,2019-08-18 17:32:38:834,-0.5362,0.1263,9.3304,-0.8371,-0.1775,9.7692,0.0085,0.0062,0.002
83352,47.17092,-1.656523,77.49,25.61,3.216,291.8,17 / 22,8336397,2019-08-18 17:32:38:934,-0.483,-0.1855,10.0733,-0.8374,-0.1741,9.7693,0.0108,0.0012,0.0012
83353,47.17092,-1.656523,77.49,25.61,3.216,291.8,17 / 22,8336497,2019-08-18 17:32:39:034,-0.6039,-0.0479,9.7273,-0.8252,-0.159,9.7706,0.0007,0.001,0.002
83354,47.17092,-1.656523,77.49,25.61,3.216,291.8,17 / 22,8336597,2019-08-18 17:32:39:134,-0.6572,-0.0186,10.1918,-0.8199,-0.1612,9.771,-0.0023,0.0087,0.0003
83355,47.17092,-1.656523,77.49,25.61,3.216,291.8,17 / 22,8336697,2019-08-18 17:32:39:234,-0.4495,-0.3023,10.0583,-0.8238,-0.1616,9.7706,-0.003,-0.0001,0.0014
83356,47.17092,-1.656523,77.49,25.61,3.216,291.8,17 / 22,8336797,2019-08-18 17:32:39:334,-0.8367,-0.3328,9.2934,-0.8134,-0.1596,9.7716,-0.0003,-0.013,0.0021
83357,47.17092,-1.656523,77.49,25.61,3.216,291.8,17 / 22,8336897,2019-08-18 17:32:39:434,-0.5356,-0.3118,9.5699,-0.7929,-0.1543,9.7733,-0.003,-0.0038,0.0055
83358,47.17092,-1.656523,77.49,25.61,3.216,291.8,17 / 22,8336997,2019-08-18 17:32:39:534,-0.5404,0.319,10.1588,-0.7972,-0.1507,9.773,-0.0051,0.0142,0.0101
83359,47.17092,-1.656523,77.49,25.61,3.216,291.8,17 / 22,8337097,2019-08-18 17:32:39:634,-0.7601,0.2771,9.0013,-0.803,-0.1492,9.7726,-0.0087,0.0082,0.0092
83360,47.17092,-1.656523,77.49,25.61,3.216,291.8,17 / 22,8337197,2019-08-18 17:32:39:734,-0.6488,-0.1311,9.8015,-0.8048,-0.1371,9.7726,0.0105,0.0047,0.0125
83361,47.17092,-1.656523,77.49,25.61,3.216,291.8,17 / 22,8337297,2019-08-18 17:32:39:834,-0.4542,0.2777,10.5317,-0.8011,-0.1135,9.7732,0.0081,-0.0045,0.0112
83362,47.17092,-1.656523,77.49,25.61,3.216,291.8,17 / 22,8337397,2019-08-18 17:32:39:934,-0.7116,0.1293,10.53,-0.7972,-0.1005,9.7737,0.0024,-0.012,0.0092
83363,47.17092,-1.656523,77.49,25.61,3.216,291.8,17 / 22,8337497,2019-08-18 17:32:40:034,-1.0139,0.0802,10.0373,-0.7784,-0.0845,9.7753,-0.0008,-0.0066,0.0094
83364,47.17092,-1.656523,77.49,25.61,3.216,291.8,17 / 22,8337597,2019-08-18 17:32:40:134,-0.7104,0.3065,9.6459,-0.7743,-0.0819,9.7757,0.0005,0.0018,0.0096
83365,47.17092,-1.656523,77.49,25.61,3.216,291.8,17 / 22,8337697,2019-08-18 17:32:40:234,-0.7415,0.3717,9.7219,-0.7761,-0.0718,9.7756,-0.0015,0.0064,0.0109
83366,47.17092,-1.656523,77.49,25.61,3.216,291.8,17 / 22,8337797,2019-08-18 17:32:40:334,-0.4405,0.1544,9.9045,-0.7748,-0.0692,9.7757,-0.0001,0.001,0.0123
83367,47.17092,-1.656523,77.49,25.61,3.216,291.8,17 / 22,8337897,2019-08-18 17:32:40:434,-0.6027,0.2191,10.1954,-0.7684,-0.0573,9.7763,-0.0074,-0.0046,0.0127
83368,47.17092,-1.656523,77.49,25.61,3.216,291.8,17 / 22,8337997,2019-08-18 17:32:40:534,-0.5021,0.1221,9.3927,-0.7711,-0.0546,9.7761,-0.002,0.0101,0.0122
83369,47.17092,-1.656523,77.49,25.61,3.216,291.8,17 / 22,8338097,2019-08-18 17:32:40:634,-0.7649,0.234,9.9667,-0.7754,-0.0482,9.7758,0.003,-0.0018,0.0096
83370,47.17092,-1.656523,77.49,25.61,3.216,291.8,17 / 22,8338197,2019-08-18 17:32:40:734,-0.8002,0.0419,9.5328,-0.7731,-0.0367,9.7761,0.0026,-0.0074,0.0095
83371,47.17092,-1.656523,77.49,25.61,3.216,291.8,17 / 22,8338297,2019-08-18 17:32:40:834,-0.8726,0.2658,9.9889,-0.7614,-0.0227,9.777,0.0056,0.0015,0.0113
83372,47.17092,-1.656523,77.49,25.61,3.216,291.8,17 / 22,8338397,2019-08-18 17:32:40:934,-0.9289,0.2909,9.8793,-0.7584,-0.0215,9.7773,-0.004,-0.0056,0.0117
83373,47.17092,-1.656523,77.49,25.61,3.216,291.8,17 / 22,8338497,2019-08-18 17:32:41:034,-0.8535,0.4573,9.9326,-0.7548,-0.009,9.7776,-0.0051,-0.0027,0.0133
83374,47.17092,-1.656523,77.49,25.61,3.216,291.8,17 / 22,8338597,2019-08-18 17:32:41:134,-1.1037,0.2418,9.3544,-0.7585,-0.0051,9.7773,-0.0058,0.0121,0.0171
83375,47.17092,-1.656523,77.49,25.61,3.216,291.8,17 / 22,8338697,2019-08-18 17:32:41:234,-0.735,0.5136,9.4035,-0.768,-0.0028,9.7765,-0.0016,0.0077,0.0178
83376,47.17092,-1.656523,77.49,25.61,3.216,291.8,17 / 22,8338797,2019-08-18 17:32:41:334,-0.7158,0.4429,9.4915,-0.7746,0.0102,9.776,-0.0133,-0.0069,0.0189
83377,47.17092,-1.656523,77.49,25.61,3.216,291.8,17 / 22,8338897,2019-08-18 17:32:41:434,-0.8044,0.2927,10.3851,-0.7695,0.0084,9.7764,-0.0078,-0.0058,0.0189
83378,47.17092,-1.656523,77.49,25.61,3.216,291.8,17 / 22,8338997,2019-08-18 17:32:41:534,-0.4554,0.4663,9.6273,-0.7664,0.0143,9.7766,-0.0029,-0.0022,0.0184
83379,47.17092,-1.656523,77.49,25.61,3.216,291.8,17 / 22,8339097,2019-08-18 17:32:41:634,-1.0103,0.4136,9.926,-0.7656,0.0237,9.7767,0.0016,-0.005,0.0191
83380,47.17092,-1.656523,77.49,25.61,3.216,291.8,17 / 22,8339197,2019-08-18 17:32:41:734,-0.9798,0.4699,10.2917,-0.7543,0.0405,9.7775,0.0034,-0.0072,0.0179
83381,47.17092,-1.656523,77.49,25.61,3.216,291.8,17 / 22,8339297,2019-08-18 17:32:41:834,-0.474,0.0694,10.0535,-0.7518,0.0476,9.7777,-0.0062,0.0056,0.0178
83382,47.17092,-1.656523,77.49,25.61,3.216,291.8,17 / 22,8339397,2019-08-18 17:32:41:934,-0.7044,0.27,9.8871,-0.7569,0.0521,9.7773,-0.0105,0.0037,0.0202
83383,47.17092,-1.656523,77.49,25.61,3.216,291.8,17 / 22,8339498,2019-08-18 17:32:42:035,-0.7074,0.2292,9.5908,-0.759,0.0522,9.7771,-0.0083,0.0017,0.0212
83384,47.17092,-1.656523,77.49,25.61,3.216,291.8,17 / 22,8339597,2019-08-18 17:32:42:134,-0.987,0.8452,9.0138,-0.7666,0.0658,9.7764,-0.0027,0.0028,0.0215
83385,47.17092,-1.656523,77.49,25.61,3.216,291.8,17 / 22,8339697,2019-08-18 17:32:42:234,-0.7122,0.27,10.1283,-0.764,0.0678,9.7766,-0.0056,0.0,0.0205
83386,47.17092,-1.656523,77.49,25.61,3.216,291.8,17 / 22,8339797,2019-08-18 17:32:42:334,-0.9403,0.4753,9.8057,-0.757,0.0842,9.777,0.0074,-0.0095,0.0206
83387,47.17092,-1.656523,77.49,25.61,3.216,291.8,17 / 22,8339897,2019-08-18 17:32:42:434,-0.656,0.3986,9.9518,-0.7526,0.0928,9.7773,0.0034,-0.006,0.02
83388,47.17092,-1.656523,77.49,25.61,3.216,291.8,17 / 22,8339997,2019-08-18 17:32:42:534,-0.6943,0.3669,10.0655,-0.7561,0.1126,9.7768,-0.0001,0.0007,0.0206
83389,47.17092,-1.656523,77.49,25.61,3.216,291.8,17 / 22,8340097,2019-08-18 17:32:42:634,-0.9947,0.185,10.0457,-0.7538,0.1227,9.7769,0.0087,0.0056,0.0224
83390,47.17092,-1.656523,77.49,25.61,3.216,291.8,17 / 22,8340197,2019-08-18 17:32:42:734,-1.4227,0.2526,9.118,-0.7607,0.1429,9.7761,0.0042,0.0001,0.0215
83391,47.17092,-1.656523,77.49,25.61,3.216,291.8,17 / 22,8340297,2019-08-18 17:32:42:834,-0.8625,0.6692,9.5214,-0.7603,0.1467,9.776,-0.0095,0.0074,0.0187
83392,47.17092,-1.656523,77.49,25.61,3.216,291.8,17 / 22,8340397,2019-08-18 17:32:42:934,-0.6931,0.1682,9.8237,-0.768,0.1482,9.7754,-0.0023,0.0042,0.0191
83393,47.17092,-1.656523,77.49,25.61,3.216,291.8,17 / 22,8340497,2019-08-18 17:32:43:034,-0.7224,0.5866,10.005,-0.7665,0.1531,9.7754,-0.0042,0.0005,0.021
83394,47.17092,-1.656523,77.49,25.61,3.216,291.8,17 / 22,8340597,2019-08-18 17:32:43:134,-0.5099,0.5327,10.2534,-0.7533,0.1574,9.7764,-0.0089,-0.0195,0.0195
83395,47.17092,-1.656523,77.49,25.61,3.216,291.8,17 / 22,8340697,2019-08-18 17:32:43:234,-0.4369,0.3699,8.2734,-0.7353,0.1535,9.7778,-0.0317,-0.0228,0.0089
83396,47.17092,-1.656523,77.49,25.61,3.216,291.8,17 / 22,8340797,2019-08-18 17:32:43:334,0.1455,0.097,8.9498,-0.7088,0.1326,9.7801,-0.0127,0.0465,0.0074
83397,47.17092,-1.656523,77.49,25.61,3.216,291.8,17 / 22,8340897,2019-08-18 17:32:43:434,-0.3058,0.0605,9.3298,-0.7434,0.1248,9.7776,-0.0092,0.0573,0.0099
83398,47.17092,-1.656523,77.49,25.61,3.216,291.8,17 / 22,8340997,2019-08-18 17:32:43:534,-0.9223,-0.2532,9.6908,-0.7646,0.1188,9.7761,0.0006,-0.0191,0.0051
83399,47.17092,-1.656523,77.49,25.61,3.216,291.8,17 / 22,8341098,2019-08-18 17:32:43:635,-0.711,0.4364,11.4936,-0.7485,0.1202,9.7773,0.009,-0.0402,0.0031
83400,47.17092,-1.656523,77.49,25.61,3.216,291.8,17 / 22,8341197,2019-08-18 17:32:43:734,-0.4955,0.0826,10.6802,-0.6898,0.1293,9.7815,-0.0066,-0.0382,0.0024
83401,47.17092,-1.656523,77.49,25.61,3.216,291.8,17 / 22,8341297,2019-08-18 17:32:43:834,-0.4662,-0.0557,9.6902,-0.6661,0.1218,9.7832,-0.0265,-0.0137,0.0029
83402,47.17092,-1.656523,77.49,25.61,3.216,291.8,17 / 22,8341397,2019-08-18 17:32:43:934,-0.2286,0.3412,8.8157,-0.6736,0.0956,9.783,-0.006,0.0093,0.0076
83403,47.17092,-1.656523,77.49,25.61,3.216,291.8,17 / 22,8341497,2019-08-18 17:32:44:034,-1.1695,-0.2855,9.109,-0.6716,0.0871,9.7832,-0.0093,0.0031,0.0087
83404,47.17092,-1.656523,77.49,25.61,3.216,291.8,17 / 22,8341597,2019-08-18 17:32:44:134,-0.2196,0.0377,9.6716,-0.6579,0.0931,9.7841,0.0128,-0.0175,0.01
83405,47.17092,-1.656523,77.49,25.61,3.216,291.8,17 / 22,8341698,2019-08-18 17:32:44:235,-0.0466,0.2706,9.8674,-0.6494,0.1091,9.7845,0.0117,0.0014,0.0057
83406,47.17092,-1.656523,77.49,25.61,3.216,291.8,17 / 22,8341797,2019-08-18 17:32:44:334,-0.5452,0.009,10.3647,-0.6407,0.1169,9.785,0.0003,0.0014,0.0075
83407,47.17092,-1.656523,77.49,25.61,3.216,291.8,17 / 22,8341898,2019-08-18 17:32:44:435,-0.6242,0.2185,9.7919,-0.6401,0.113,9.7851,-0.0219,0.0123,0.0032
83408,47.17092,-1.656523,77.49,25.61,3.216,291.8,17 / 22,8341997,2019-08-18 17:32:44:534,-0.3405,0.3849,9.996,-0.6484,0.1018,9.7847,-0.0093,0.0152,0.0056
83409,47.17092,-1.656523,77.49,25.61,3.216,291.8,18 / 22,8342097,2019-08-18 17:32:44:634,-0.301,0.2287,9.8955,-0.6545,0.0957,9.7843,0.013,0.0065,0.0087
83410,47.17092,-1.656523,77.49,25.61,3.216,291.8,18 / 22,8342197,2019-08-18 17:32:44:734,-0.5674,0.2173,9.9901,-0.6567,0.1065,9.7841,0.0209,0.0076,0.0089
83411,47.17092,-1.656523,77.49,25.61,3.216,291.8,18 / 22,8342297,2019-08-18 17:32:44:834,-0.5033,0.0305,10.4881,-0.6465,0.1313,9.7844,0.0131,-0.0123,0.0071
83412,47.17092,-1.656523,77.49,25.61,3.216,291.8,18 / 22,8342397,2019-08-18 17:32:44:934,-0.6147,-0.1927,9.8895,-0.6329,0.1386,9.7852,-0.0042,-0.0142,0.0038
83413,47.17092,-1.656523,77.49,25.61,3.216,291.8,18 / 22,8342497,2019-08-18 17:32:45:034,-0.6553,0.4591,10.0882,-0.61,0.1256,9.7869,-0.0068,-0.0024,0.0009
83414,47.17092,-1.656523,77.49,25.61,3.216,291.8,18 / 22,8342597,2019-08-18 17:32:45:134,0.1443,0.6542,9.6279,-0.5998,0.1213,9.7875,0.0101,0.0191,0.0142
83415,47.17092,-1.656523,77.49,25.61,3.216,291.8,18 / 22,8342697,2019-08-18 17:32:45:234,-0.3938,0.5004,8.5332,-0.6133,0.1329,9.7865,-0.0089,0.0177,0.0159
83416,47.17092,-1.656523,77.49,25.61,3.216,291.8,18 / 22,8342797,2019-08-18 17:32:45:334,-0.3154,0.4411,9.3245,-0.6266,0.1279,9.7858,-0.0151,0.02,0.0169
83417,47.17092,-1.656523,77.49,25.61,3.216,291.8,18 / 22,8342897,2019-08-18 17:32:45:434,-0.7014,0.3442,10.0816,-0.6416,0.1413,9.7846,0.015,-0.0047,0.0204
83418,47.17092,-1.656523,77.49,25.61,3.216,291.8,18 / 22,8342998,2019-08-18 17:32:45:535,-0.3782,0.3932,9.8973,-0.6348,0.1546,9.7849,0.0008,-0.0052,0.0129
83419,47.17092,-1.656523,77.49,25.61,3.216,291.8,19 / 22,8343097,2019-08-18 17:32:45:634,-0.4111,0.4926,10.7137,-0.6294,0.1695,9.785,-0.002,0.0153,0.0101
83420,47.17092,-1.656523,77.49,25.61,3.216,291.8,19 / 22,8343197,2019-08-18 17:32:45:734,-0.878,0.4364,10.4288,-0.6356,0.1706,9.7845,-0.0019,-0.0197,0.0144
83421,47.17092,-1.656523,77.49,25.61,3.216,291.8,19 / 22,8343297,2019-08-18 17:32:45:834,-1.0672,0.2753,10.3492,-0.6238,0.1749,9.7852,0.0067,0.0032,0.0152
83422,47.17092,-1.656523,77.49,25.61,3.216,291.8,19 / 22,8343397,2019-08-18 17:32:45:934,-1.2204,0.0826,9.291,-0.6298,0.1753,9.7848,-0.0081,0.0184,0.0197
83423,47.17092,-1.656523,77.49,25.61,3.216,291.8,19 / 22,8343497,2019-08-18 17:32:46:034,-1.0953,0.1975,9.1808,-0.6656,0.1643,9.7827,-0.0157,0.0128,0.021
83424,47.17092,-1.656523,77.49,25.61,3.216,291.8,19 / 22,8343597,2019-08-18 17:32:46:134,-1.2228,0.0497,9.8141,-0.6826,0.1584,9.7816,-0.0205,0.0056,0.0234
83425,47.17092,-1.656523,77.49,25.61,3.216,291.8,19 / 22,8343697,2019-08-18 17:32:46:234,-1.2318,0.0886,9.7435,-0.7191,0.137,9.7793,-0.0146,0.0157,0.0239
83426,47.17092,-1.656523,77.49,25.61,3.216,291.8,19 / 22,8343797,2019-08-18 17:32:46:334,-1.1534,0.3759,9.7291,-0.737,0.1396,9.7779,-0.0003,-0.0178,0.0261
83427,47.17092,-1.656523,77.49,25.61,3.216,291.8,19 / 22,8343897,2019-08-18 17:32:46:434,-1.5801,0.2682,10.415,-0.7322,0.1387,9.7783,-0.01,-0.0276,0.023
83428,47.17092,-1.656523,77.49,25.61,3.216,291.8,19 / 22,8343997,2019-08-18 17:32:46:534,-0.9277,0.1233,9.9901,-0.7294,0.1278,9.7787,-0.0173,-0.0018,0.021
83429,47.17092,-1.656523,77.49,25.61,3.216,291.8,19 / 22,8344097,2019-08-18 17:32:46:634,-0.9953,-0.0239,10.7095,-0.7338,0.1101,9.7785,-0.0155,-0.0054,0.0209
83430,47.171593,-1.659496,78.28,27.58,3.216,286.2,19 / 22,8344197,2019-08-18 17:32:46:734,-1.1444,-0.2771,9.422,-0.7382,0.0989,9.7783,-0.0239,-0.002,0.0201
83431,47.171593,-1.659496,78.28,27.58,3.216,286.2,19 / 22,8344297,2019-08-18 17:32:46:834,-1.0648,-0.0658,9.3191,-0.757,0.0834,9.777,0.0104,0.0116,0.0133
83432,47.171593,-1.659496,78.28,27.58,3.216,286.2,19 / 22,8344397,2019-08-18 17:32:46:934,-0.8954,-0.234,9.6507,-0.7676,0.0902,9.7761,0.0192,0.0026,0.0107
83433,47.171593,-1.659496,78.28,27.58,3.216,286.2,19 / 22,8344497,2019-08-18 17:32:47:034,-0.978,-0.2562,10.3797,-0.7752,0.1059,9.7754,0.0102,-0.0083,0.0058
83434,47.171593,-1.659496,78.28,27.58,3.216,286.2,19 / 22,8344597,2019-08-18 17:32:47:134,-1.0468,-0.1341,10.6383,-0.769,0.1067,9.7759,-0.0025,-0.0164,0.0042
83435,47.171593,-1.659496,78.28,27.58,3.216,286.2,19 / 22,8344697,2019-08-18 17:32:47:234,-0.6865,0.0623,9.8404,-0.7521,0.0935,9.7773,-0.0118,0.0009,0.0053
83436,47.171593,-1.659496,78.28,27.58,3.216,286.2,19 / 22,8344798,2019-08-18 17:32:47:335,-0.5674,0.1209,9.4119,-0.7594,0.0872,9.7768,-0.0064,0.0204,0.0065
83437,47.171593,-1.659496,78.28,27.58,3.216,286.2,19 / 22,8344896,2019-08-18 17:32:47:433,-0.808,0.0383,9.8177,-0.7808,0.0946,9.7751,0.028,0.0115,0.0122
83438,47.171593,-1.659496,78.28,27.58,3.216,286.2,19 / 22,8344997,2019-08-18 17:32:47:534,-0.6476,-0.0108,10.1032,-0.7796,0.1141,9.7749,0.0265,0.0007,0.0118
83439,47.171593,-1.659496,78.28,27.58,3.216,286.2,19 / 22,8345097,2019-08-18 17:32:47:634,-0.5602,0.1922,10.6497,-0.7735,0.1251,9.7753,-0.0018,-0.0206,0.0065
83440,47.171593,-1.659496,78.28,27.58,3.216,286.2,19 / 22,8345197,2019-08-18 17:32:47:734,-0.6105,0.2957,9.8488,-0.7469,0.127,9.7773,-0.0166,-0.0051,0.0083
83441,47.171593,-1.659496,78.28,27.58,3.216,286.2,19 / 22,8345297,2019-08-18 17:32:47:834,-0.7182,0.0934,9.6962,-0.7426,0.12,9.7778,-0.0125,0.0139,0.0119
83442,47.171593,-1.659496,78.28,27.58,3.216,286.2,19 / 22,8345397,2019-08-18 17:32:47:934,-0.7086,0.2221,9.4328,-0.7488,0.1105,9.7774,0.0099,0.0171,0.0169
83443,47.171593,-1.659496,78.28,27.58,3.216,286.2,19 / 22,8345497,2019-08-18 17:32:48:034,-0.708,0.3639,9.8566,-0.755,0.1179,9.7768,0.0235,0.0164,0.0159
83444,47.171593,-1.659496,78.28,27.58,3.216,286.2,19 / 22,8345597,2019-08-18 17:32:48:134,-0.4106,0.3717,9.6489,-0.7636,0.1521,9.7757,0.0086,0.0082,0.0135
83445,47.171593,-1.659496,78.28,27.58,3.216,286.2,19 / 22,8345697,2019-08-18 17:32:48:234,-0.4058,0.3478,8.8522,-0.7654,0.1606,9.7754,-0.005,0.0129,0.0132
83446,47.171593,-1.659496,78.28,27.58,3.216,286.2,19 / 22,8345797,2019-08-18 17:32:48:334,-0.8259,-0.1622,9.8572,-0.7709,0.1578,9.775,-0.0105,-0.0037,0.0142
83447,47.171593,-1.659496,78.28,27.58,3.216,286.2,19 / 22,8345898,2019-08-18 17:32:48:435,-0.6284,0.4723,10.5934,-0.7669,0.1582,9.7753,0.0104,-0.0123,0.0132
83448,47.171593,-1.659496,78.28,27.58,3.216,286.2,19 / 22,8345997,2019-08-18 17:32:48:534,-0.6464,0.3184,10.2462,-0.7474,0.1715,9.7766,0.0086,-0.0139,0.0136
83449,47.171593,-1.659496,78.28,27.58,3.216,286.2,19 / 22,8346097,2019-08-18 17:32:48:634,-0.6913,0.2077,10.2163,-0.7307,0.1783,9.7778,-0.0025,-0.0018,0.0152
83450,47.171593,-1.659496,78.28,27.58,3.216,286.2,19 / 22,8346197,2019-08-18 17:32:48:734,-0.5907,0.3531,10.3264,-0.7299,0.1851,9.7777,0.0069,0.0062,0.0178
83451,47.171593,-1.659496,78.28,27.58,3.216,286.2,19 / 22,8346297,2019-08-18 17:32:48:834,-0.4501,0.4483,9.8308,-0.7302,0.1959,9.7775,0.0068,-0.0077,0.0155
83452,47.171593,-1.659496,78.28,27.58,3.216,286.2,19 / 22,8346397,2019-08-18 17:32:48:934,-0.2968,0.6267,9.838,-0.7207,0.2041,9.778,-0.0023,0.0005,0.0158
83453,47.171593,-1.659496,78.28,27.58,3.216,286.2,19 / 22,8346498,2019-08-18 17:32:49:035,-0.9606,0.2191,9.838,-0.726,0.205,9.7776,-0.0103,0.007,0.0185
83454,47.171593,-1.659496,78.28,27.58,3.216,286.2,19 / 22,8346597,2019-08-18 17:32:49:134,-0.7631,0.6039,9.1413,-0.7333,0.2048,9.7771,-0.0059,0.0001,0.02
83455,47.171593,-1.659496,78.28,27.58,3.216,286.2,19 / 22,8346697,2019-08-18 17:32:49:234,-0.5608,0.182,9.8356,-0.7274,0.2062,9.7775,-0.0072,0.0002,0.0205
83456,47.171593,-1.659496,78.28,27.58,3.216,286.2,19 / 22,8346797,2019-08-18 17:32:49:334,-0.7984,0.4328,10.0242,-0.7346,0.2078,9.7769,-0.0089,0.0027,0.0191
83457,47.171593,-1.659496,78.28,27.58,3.216,286.2,19 / 22,8346897,2019-08-18 17:32:49:434,-0.9061,0.6195,10.2426,-0.7383,0.21,9.7766,-0.004,-0.0035,0.0179
83458,47.171593,-1.659496,78.28,27.58,3.216,286.2,19 / 22,8346997,2019-08-18 17:32:49:534,-0.975,-0.3376,9.3304,-0.7291,0.2094,9.7773,-0.003,-0.0138,0.0168
83459,47.171593,-1.659496,78.28,27.58,3.216,286.2,19 / 22,8347097,2019-08-18 17:32:49:634,-1.118,0.4699,9.2455,-0.7305,0.209,9.7772,-0.0191,0.0177,0.0188
83460,47.171593,-1.659496,78.28,27.58,3.216,286.2,19 / 22,8347197,2019-08-18 17:32:49:734,-0.8457,0.0982,9.191,-0.7512,0.2014,9.7758,-0.0039,0.0148,0.0201
83461,47.171593,-1.659496,78.28,27.58,3.216,286.2,19 / 22,8347297,2019-08-18 17:32:49:834,-0.6829,0.6524,9.7321,-0.7419,0.2055,9.7764,0.0049,-0.0154,0.0203
83462,47.171593,-1.659496,78.28,27.58,3.216,286.2,19 / 22,8347397,2019-08-18 17:32:49:934,-0.4022,0.3274,9.6543,-0.7294,0.2148,9.7771,-0.0067,0.0005,0.0178
83463,47.171593,-1.659496,78.28,27.58,3.216,286.2,19 / 22,8347497,2019-08-18 17:32:50:034,-0.6745,0.2897,9.7524,-0.7326,0.215,9.7769,0.004,0.0104,0.0175
83464,47.171593,-1.659496,78.28,27.58,3.216,286.2,19 / 22,8347596,2019-08-18 17:32:50:133,-0.9433,0.3963,9.4927,-0.7468,0.2275,9.7755,0.0215,0.0141,0.0191
83465,47.171593,-1.659496,78.28,27.58,3.216,286.2,19 / 22,8347696,2019-08-18 17:32:50:233,-0.6374,0.3723,10.0607,-0.7561,0.2439,9.7744,0.017,0.0113,0.0187
83466,47.171593,-1.659496,78.28,27.58,3.216,286.2,19 / 22,8347797,2019-08-18 17:32:50:334,-1.4359,0.27,10.3965,-0.7652,0.2668,9.7731,0.0226,-0.0049,0.0149
83467,47.171593,-1.659496,78.28,27.58,3.216,286.2,19 / 22,8347897,2019-08-18 17:32:50:434,-0.8439,0.3825,11.1046,-0.7643,0.2809,9.7728,0.0227,-0.0031,0.0131
83468,47.171593,-1.659496,78.28,27.58,3.216,286.2,19 / 22,8347997,2019-08-18 17:32:50:534,-0.9702,0.1275,10.7825,-0.7436,0.3138,9.7734,0.0244,-0.0405,0.0099
83469,47.171593,-1.659496,78.28,27.58,3.216,286.2,19 / 22,8348097,2019-08-18 17:32:50:634,-0.7775,0.1149,9.6214,-0.7234,0.321,9.7747,0.0026,-0.043,0.0053
83470,47.171593,-1.659496,78.28,27.58,3.216,286.2,19 / 22,8348197,2019-08-18 17:32:50:734,-0.6248,0.0718,7.8568,-0.7044,0.2691,9.7776,-0.0567,0.021,0.0019
83471,47.171593,-1.659496,78.28,27.58,3.216,286.2,19 / 22,8348297,2019-08-18 17:32:50:834,-0.9199,-0.1323,7.6503,-0.7314,0.2309,9.7766,-0.0392,0.0394,0.0067
83472,47.171593,-1.659496,78.28,27.58,3.216,286.2,19 / 22,8348397,2019-08-18 17:32:50:934,-0.884,0.0216,9.0856,-0.7773,0.1802,9.7741,-0.0114,0.0119,0.0108
83473,47.171593,-1.659496,78.28,27.58,3.216,286.2,19 / 22,8348497,2019-08-18 17:32:51:034,-1.0307,0.1413,9.7423,-0.7792,0.1797,9.774,0.0024,-0.0044,0.0119
83474,47.171593,-1.659496,78.28,27.58,3.216,286.2,19 / 22,8348597,2019-08-18 17:32:51:134,-0.8104,-0.0479,11.3955,-0.7743,0.1751,9.7745,-0.0085,-0.0109,0.0047
83475,47.171593,-1.659496,78.28,27.58,3.216,286.2,19 / 22,8348697,2019-08-18 17:32:51:234,-0.7811,-0.2251,10.5473,-0.7675,0.1565,9.7753,-0.0048,-0.0038,0.0038
83476,47.171593,-1.659496,78.28,27.58,3.216,286.2,19 / 22,8348797,2019-08-18 17:32:51:334,-0.7116,-0.2915,10.0834,-0.7649,0.1491,9.7756,-0.0105,-0.0031,0.0029
83477,47.171593,-1.659496,78.28,27.58,3.216,286.2,19 / 22,8348897,2019-08-18 17:32:51:434,-0.9624,-0.0898,9.2622,-0.7632,0.1259,9.7761,-0.0118,-0.0052,0.0035
83478,47.171593,-1.659496,78.28,27.58,3.216,286.2,19 / 22,8348997,2019-08-18 17:32:51:534,-0.7505,-0.2053,9.7249,-0.7598,0.1144,9.7765,-0.0142,-0.0082,0.0053
83479,47.171593,-1.659496,78.28,27.58,3.216,286.2,19 / 22,8349097,2019-08-18 17:32:51:634,-0.9666,0.164,9.6998,-0.7443,0.0986,9.7779,-0.0138,-0.0077,0.0087
83480,47.171593,-1.659496,78.28,27.58,3.216,286.2,19 / 22,8349197,2019-08-18 17:32:51:734,-0.6943,-0.1646,9.9518,-0.7418,0.0871,9.7782,-0.017,-0.0013,0.0071
83481,47.171593,-1.659496,78.28,27.58,3.216,286.2,19 / 22,8349297,2019-08-18 17:32:51:834,-1.0073,-0.0778,9.9924,-0.7533,0.0643,9.7775,-0.0075,0.0051,0.0078
83482,47.171593,-1.659496,78.28,27.58,3.216,286.2,19 / 22,8349397,2019-08-18 17:32:51:934,-0.9121,-0.2287,9.853,-0.7604,0.0587,9.7769,-0.0032,0.0008,0.0067
83483,47.171593,-1.659496,78.28,27.58,3.216,286.2,19 / 22,8349497,2019-08-18 17:32:52:034,-0.7882,-0.1574,9.8135,-0.7605,0.0496,9.777,-0.0018,0.0047,0.0056
83484,47.171593,-1.659496,78.28,27.58,3.216,286.2,19 / 22,8349597,2019-08-18 17:32:52:134,-0.972,0.006,9.2467,-0.7668,0.0439,9.7765,-0.0002,0.0087,0.0056
83485,47.171593,-1.659496,78.28,27.58,3.216,286.2,19 / 22,8349697,2019-08-18 17:32:52:234,-0.8499,-0.4058,10.2785,-0.7703,0.0398,9.7763,0.0,-0.0117,0.0061
83486,47.171593,-1.659496,78.28,27.58,3.216,286.2,19 / 22,8349797,2019-08-18 17:32:52:334,-0.7433,-0.2286,9.537,-0.7609,0.0365,9.777,0.0026,0.0015,0.0062
83487,47.171593,-1.659496,78.28,27.58,3.216,286.2,19 / 22,8349897,2019-08-18 17:32:52:434,-0.8654,-0.0012,9.9739,-0.7619,0.0327,9.777,-0.005,0.0072,0.0082
83488,47.171593,-1.659496,78.28,27.58,3.216,286.2,19 / 22,8349997,2019-08-18 17:32:52:534,-0.8768,-0.082,9.3652,-0.7681,0.0265,9.7765,0.0052,0.0049,0.0062
83489,47.171593,-1.659496,78.28,27.58,3.216,286.2,18 / 22,8350097,2019-08-18 17:32:52:634,-0.4794,-0.1083,9.1814,-0.7805,0.0246,9.7755,0.0015,0.0158,0.0078
83490,47.171593,-1.659496,78.28,27.58,3.216,286.2,18 / 22,8350197,2019-08-18 17:32:52:734,-0.8601,-0.0263,9.5387,-0.7923,0.0183,9.7746,-0.0119,0.0159,0.0051
83491,47.171593,-1.659496,78.28,27.58,3.216,286.2,18 / 22,8350297,2019-08-18 17:32:52:834,-0.9882,-0.1562,9.6914,-0.8065,0.0006,9.7734,-0.0068,0.0021,0.0065
83492,47.171593,-1.659496,78.28,27.58,3.216,286.2,18 / 22,8350397,2019-08-18 17:32:52:934,-1.0073,-0.0682,10.4671,-0.8049,0.003,9.7736,0.0154,-0.0017,0.0075
83493,47.171593,-1.659496,78.28,27.58,3.216,286.2,18 / 22,8350497,2019-08-18 17:32:53:034,-0.6572,-0.2975,10.0002,-0.8041,0.0189,9.7736,0.0211,0.0005,0.0069
83494,47.171593,-1.659496,78.28,27.58,3.216,286.2,18 / 22,8350597,2019-08-18 17:32:53:134,-0.8786,-0.1215,10.2474,-0.805,0.026,9.7735,0.0148,-0.0059,0.0051
83495,47.171593,-1.659496,78.28,27.58,3.216,286.2,18 / 22,8350697,2019-08-18 17:32:53:234,-0.6943,0.0156,9.5292,-0.7985,0.034,9.774,0.0001,-0.0036,0.0065
83496,47.171593,-1.659496,78.28,27.58,3.216,286.2,18 / 22,8350796,2019-08-18 17:32:53:333,-0.7469,-0.07,9.1916,-0.7987,0.0319,9.774,-0.0066,-0.0002,0.0054
83497,47.171593,-1.659496,78.28,27.58,3.216,286.2,18 / 22,8350897,2019-08-18 17:32:53:434,-0.823,-0.0251,9.7482,-0.805,0.025,9.7735,0.006,0.0046,0.008
83498,47.171593,-1.659496,78.28,27.58,3.216,286.2,18 / 22,8350997,2019-08-18 17:32:53:534,-1.0881,0.2909,9.7476,-0.8094,0.0298,9.7731,0.0048,0.0038,0.0122
83499,47.171593,-1.659496,78.28,27.58,3.216,286.2,18 / 22,8351097,2019-08-18 17:32:53:634,-0.9445,-0.009,9.3376,-0.8209,0.0321,9.7722,-0.005,0.0127,0.0203
83500,47.171593,-1.659496,78.28,27.58,3.216,286.2,18 / 22,8351197,2019-08-18 17:32:53:734,-1.0725,0.2305,9.349,-0.8352,0.033,9.771,-0.0035,0.0179,0.0217
83501,47.171593,-1.659496,78.28,27.58,3.216,286.2,18 / 22,8351297,2019-08-18 17:32:53:834,-1.0863,0.4896,9.8344,-0.8671,0.0346,9.7682,0.0004,0.0109,0.0224
83502,47.171593,-1.659496,78.28,27.58,3.216,286.2,18 / 22,8351397,2019-08-18 17:32:53:934,-1.1468,0.3795,10.3252,-0.873,0.0449,9.7676,0.0122,0.0051,0.0232
83503,47.171593,-1.659496,78.28,27.58,3.216,286.2,18 / 22,8351497,2019-08-18 17:32:54:034,-1.315,0.3957,10.6808,-0.8793,0.0834,9.7668,0.0192,-0.0101,0.0302
83504,47.171593,-1.659496,78.28,27.58,3.216,286.2,18 / 22,8351597,2019-08-18 17:32:54:134,-1.1581,0.595,10.5168,-0.8712,0.1036,9.7673,0.026,-0.0202,0.0323
83505,47.171593,-1.659496,78.28,27.58,3.216,286.2,18 / 22,8351697,2019-08-18 17:32:54:234,-1.2539,0.5177,9.9835,-0.8673,0.1236,9.7674,0.0044,0.003,0.033
83506,47.171593,-1.659496,78.28,27.58,3.216,286.2,18 / 22,8351797,2019-08-18 17:32:54:334,-1.1115,0.741,9.7662,-0.8791,0.1436,9.7661,-0.0034,0.0156,0.0321
83507,47.171593,-1.659496,78.28,27.58,3.216,286.2,18 / 22,8351897,2019-08-18 17:32:54:434,-1.2144,0.6548,9.528,-0.8953,0.1523,9.7645,0.0031,0.0107,0.0323
83508,47.171593,-1.659496,78.28,27.58,3.216,286.2,18 / 22,8351997,2019-08-18 17:32:54:534,-1.1198,0.6722,9.1581,-0.9114,0.1696,9.7627,-0.0066,0.0022,0.0305
83509,47.171593,-1.659496,78.28,27.58,3.216,286.2,17 / 21,8352097,2019-08-18 17:32:54:634,-1.1557,0.6518,9.4041,-0.9172,0.1753,9.7621,-0.0101,0.0078,0.0282
83510,47.171593,-1.659496,78.28,27.58,3.216,286.2,17 / 21,8352197,2019-08-18 17:32:54:734,-1.0103,0.4298,10.0529,-0.9289,0.181,9.7609,0.0045,0.0029,0.0264
83511,47.171593,-1.659496,78.28,27.58,3.216,286.2,17 / 21,8352297,2019-08-18 17:32:54:834,-1.1288,0.4573,10.91,-0.9341,0.195,9.7601,0.0133,-0.012,0.0265
83512,47.171593,-1.659496,78.28,27.58,3.216,286.2,17 / 21,8352397,2019-08-18 17:32:54:934,-0.9702,0.1969,10.8418,-0.912,0.2162,9.7618,-0.0057,-0.0274,0.0201
83513,47.171593,-1.659496,78.28,27.58,3.216,286.2,17 / 21,8352497,2019-08-18 17:32:55:034,-0.8553,0.4489,9.8901,-0.8964,0.2153,9.7632,-0.023,-0.011,0.0202
83514,47.171593,-1.659496,78.28,27.58,3.216,286.2,17 / 21,8352597,2019-08-18 17:32:55:134,-0.8601,0.48,9.4406,-0.8805,0.2,9.765,-0.023,-0.001,0.0228
83515,47.171593,-1.659496,78.28,27.58,3.216,286.2,17 / 21,8352697,2019-08-18 17:32:55:234,-0.8421,0.3107,8.4745,-0.8813,0.1925,9.7651,-0.0177,0.009,0.0246
83516,47.171593,-1.659496,78.28,27.58,3.216,286.2,17 / 21,8352797,2019-08-18 17:32:55:334,-0.9145,0.1461,9.7189,-0.8947,0.1922,9.7639,0.0044,0.0023,0.022
83517,47.171593,-1.659496,78.28,27.58,3.216,286.2,17 / 21,8352897,2019-08-18 17:32:55:434,-0.9881,0.2586,9.7878,-0.8937,0.1976,9.7638,-0.0073,-0.0048,0.0126
83518,47.171593,-1.659496,78.28,27.58,3.216,286.2,17 / 21,8352997,2019-08-18 17:32:55:534,-0.8307,0.1125,10.1726,-0.8901,0.1925,9.7643,-0.0123,0.0091,0.0106
83519,47.171593,-1.659496,78.28,27.58,3.216,286.2,17 / 21,8353097,2019-08-18 17:32:55:634,-0.7589,-0.0545,10.0667,-0.8989,0.1895,9.7635,-0.0079,0.0161,0.0113
83520,47.172066,-1.662714,83.42,27.75,3.216,278.1,17 / 21,8353197,2019-08-18 17:32:55:734,-0.7439,-0.091,10.1397,-0.9083,0.1816,9.7628,-0.0009,0.0025,0.0109
83521,47.172066,-1.662714,83.42,27.75,3.216,278.1,17 / 21,8353297,2019-08-18 17:32:55:834,-0.7631,-0.0156,9.8063,-0.9093,0.1782,9.7628,0.0046,0.0064,0.0078
83522,47.172066,-1.662714,83.42,27.75,3.216,278.1,17 / 21,8353397,2019-08-18 17:32:55:934,-0.717,-0.1766,10.1379,-0.9165,0.1804,9.7621,0.0035,0.0046,0.0062
83523,47.172066,-1.662714,83.42,27.75,3.216,278.1,17 / 21,8353497,2019-08-18 17:32:56:034,-0.7858,0.1036,10.1924,-0.9177,0.1818,9.7619,0.007,-0.0045,0.0055
83524,47.172066,-1.662714,83.42,27.75,3.216,278.1,17 / 21,8353597,2019-08-18 17:32:56:134,-1.0366,0.091,10.2313,-0.9019,0.1837,9.7634,0.009,-0.0134,0.0052
83525,47.172066,-1.662714,83.42,27.75,3.216,278.1,17 / 21,8353697,2019-08-18 17:32:56:234,-0.8373,-0.0545,10.1582,-0.8983,0.1868,9.7636,0.0006,0.001,0.0047
83526,47.172066,-1.662714,83.42,27.75,3.216,278.1,17 / 21,8353797,2019-08-18 17:32:56:334,-0.6416,0.0503,9.537,-0.9028,0.1783,9.7634,-0.0003,0.0099,0.004
83527,47.172066,-1.662714,83.42,27.75,3.216,278.1,17 / 21,8353897,2019-08-18 17:32:56:434,-0.7781,-0.0778,9.513,-0.9083,0.1716,9.763,-0.0022,0.0116,0.0087
83528,47.172066,-1.662714,83.42,27.75,3.216,278.1,17 / 21,8353997,2019-08-18 17:32:56:534,-0.7002,-0.0263,9.8919,-0.9253,0.169,9.7614,-0.0089,0.0047,0.0065
83529,47.172066,-1.662714,83.42,27.75,3.216,278.1,18 / 22,8354097,2019-08-18 17:32:56:634,-0.8014,-0.0742,10.1122,-0.9242,0.1607,9.7617,-0.0096,-0.0118,0.0042
83530,47.172066,-1.662714,83.42,27.75,3.216,278.1,18 / 22,8354197,2019-08-18 17:32:56:734,-0.902,-0.1263,10.3276,-0.901,0.1449,9.7641,-0.0136,-0.0182,0.0047
83531,47.172066,-1.662714,83.42,27.75,3.216,278.1,18 / 22,8354297,2019-08-18 17:32:56:834,-1.0732,0.0174,10.1181,-0.893,0.1368,9.7649,-0.0084,-0.0116,0.0072
83532,47.172066,-1.662714,83.42,27.75,3.216,278.1,18 / 22,8354397,2019-08-18 17:32:56:934,-0.723,0.0665,10.0768,-0.8719,0.1232,9.767,-0.0058,-0.0165,0.008
83533,47.172066,-1.662714,83.42,27.75,3.216,278.1,18 / 22,8354497,2019-08-18 17:32:57:034,-1.06,0.0192,9.182,-0.8587,0.1112,9.7684,-0.0171,-0.0133,0.0071
83534,47.172066,-1.662714,83.42,27.75,3.216,278.1,18 / 22,8354597,2019-08-18 17:32:57:134,-0.6619,-0.0257,10.3241,-0.8543,0.0926,9.7689,-0.005,0.0045,0.0075
83535,47.172066,-1.662714,83.42,27.75,3.216,278.1,18 / 22,8354697,2019-08-18 17:32:57:234,-0.6631,-0.0647,9.7961,-0.8554,0.0923,9.7688,0.0076,-0.0016,0.0077
83536,47.172066,-1.662714,83.42,27.75,3.216,278.1,18 / 22,8354797,2019-08-18 17:32:57:334,-0.5392,0.0264,9.9422,-0.8508,0.1023,9.7691,0.0055,0.0033,0.0066
83537,47.172066,-1.662714,83.42,27.75,3.216,278.1,18 / 22,8354897,2019-08-18 17:32:57:434,-0.7003,0.2406,9.7405,-0.8547,0.103,9.7688,0.0022,0.0066,0.0065
83538,47.172066,-1.662714,83.42,27.75,3.216,278.1,18 / 22,8354997,2019-08-18 17:32:57:534,-0.7517,-0.0168,10.1553,-0.8548,0.1058,9.7688,-0.0006,-0.0073,0.0053
83539,47.172066,-1.662714,83.42,27.75,3.216,278.1,18 / 22,8355096,2019-08-18 17:32:57:633,-0.8684,-0.1826,10.1894,-0.8442,0.0985,9.7698,-0.0068,-0.0043,0.0055
83540,47.172066,-1.662714,83.42,27.75,3.216,278.1,18 / 22,8355197,2019-08-18 17:32:57:734,-0.9139,-0.1879,9.9069,-0.8404,0.0925,9.7701,-0.0039,-0.0059,0.0051
83541,47.172066,-1.662714,83.42,27.75,3.216,278.1,18 / 22,8355297,2019-08-18 17:32:57:834,-0.6194,0.0868,9.4783,-0.8311,0.0886,9.771,0.002,0.0072,0.0075
83542,47.172066,-1.662714,83.42,27.75,3.216,278.1,18 / 22,8355397,2019-08-18 17:32:57:934,-0.5817,-0.0389,8.9881,-0.8315,0.0855,9.771,-0.0115,0.0158,0.0077
83543,47.172066,-1.662714,83.42,27.75,3.216,278.1,18 / 22,8355497,2019-08-18 17:32:58:034,-0.6536,0.1143,9.2874,-0.8535,0.0696,9.7692,-0.0071,0.0159,0.0071
83544,47.172066,-1.662714,83.42,27.75,3.216,278.1,18 / 22,8355598,2019-08-18 17:32:58:135,-0.7242,0.0676,9.3035,-0.8619,0.0629,9.7685,-0.0061,0.0039,0.0053
83545,47.172066,-1.662714,83.42,27.75,3.216,278.1,18 / 22,8355697,2019-08-18 17:32:58:234,-0.8487,0.0491,9.9128,-0.8543,0.0495,9.7692,-0.0128,-0.0194,0.0024
83546,47.172066,-1.662714,83.42,27.75,3.216,278.1,18 / 22,8355797,2019-08-18 17:32:58:334,-0.5757,-0.082,10.2307,-0.8378,0.0382,9.7707,-0.0153,-0.0231,0.0036
83547,47.172066,-1.662714,83.42,27.75,3.216,278.1,18 / 22,8355897,2019-08-18 17:32:58:434,-0.9145,-0.2155,10.3133,-0.8021,0.0122,9.7738,-0.0291,-0.0358,0.0038
83548,47.172066,-1.662714,83.42,27.75,3.216,278.1,18 / 22,8355997,2019-08-18 17:32:58:534,-1.0241,-0.2292,10.5078,-0.7819,-0.0067,9.7754,-0.0487,-0.0477,-0.0004
83549,47.172066,-1.662714,83.42,27.75,3.216,278.1,15 / 20,8356097,2019-08-18 17:32:58:634,-0.2627,-0.0964,9.1192,-0.735,-0.0689,9.7788,-0.0318,-0.0145,0.0018
83550,47.172066,-1.662714,83.42,27.75,3.216,278.1,15 / 20,8356197,2019-08-18 17:32:58:734,-0.5823,-0.4172,9.2832,-0.7298,-0.0771,9.7791,0.0174,0.0157,0.0093
83551,47.172066,-1.662714,83.42,27.75,3.216,278.1,15 / 20,8356298,2019-08-18 17:32:58:835,-0.8367,-0.0054,9.3335,-0.7417,-0.0531,9.7784,0.0265,0.0005,0.0101
83552,47.172066,-1.662714,83.42,27.75,3.216,278.1,15 / 20,8356397,2019-08-18 17:32:58:934,-0.6787,-0.1329,9.9727,-0.7381,-0.0431,9.7787,0.0151,0.015,0.0042
83553,47.172066,-1.662714,83.42,27.75,3.216,278.1,15 / 20,8356497,2019-08-18 17:32:59:034,-0.4584,0.0174,9.7518,-0.7484,-0.0304,9.778,0.0003,0.0093,0.0044
83554,47.172066,-1.662714,83.42,27.75,3.216,278.1,15 / 20,8356597,2019-08-18 17:32:59:134,-0.6595,-0.231,9.8063,-0.7535,-0.0325,9.7776,0.0132,0.0241,0.0058
83555,47.172066,-1.662714,83.42,27.75,3.216,278.1,15 / 20,8356697,2019-08-18 17:32:59:234,-0.6637,0.1652,9.6214,-0.7789,-0.0156,9.7757,0.0226,0.0189,0.0085
83556,47.172066,-1.662714,83.42,27.75,3.216,278.1,15 / 20,8356798,2019-08-18 17:32:59:335,-0.7799,-0.0132,9.7632,-0.7796,-0.0019,9.7756,0.0183,0.0091,0.009
83557,47.172066,-1.662714,83.42,27.75,3.216,278.1,15 / 20,8356897,2019-08-18 17:32:59:434,-0.7852,0.0144,9.9404,-0.7883,0.0154,9.7749,0.0094,0.0082,0.0103
83558,47.172066,-1.662714,83.42,27.75,3.216,278.1,15 / 20,8356997,2019-08-18 17:32:59:534,-0.6637,-0.176,9.6842,-0.7894,0.0193,9.7748,0.0047,0.0,0.0105
83559,47.172066,-1.662714,83.42,27.75,3.216,278.1,17 / 22,8357097,2019-08-18 17:32:59:634,-0.5955,0.1191,10.1636,-0.8046,0.0343,9.7735,0.0202,0.0091,0.0082
83560,47.172066,-1.662714,83.42,27.75,3.216,278.1,17 / 22,8357197,2019-08-18 17:32:59:734,-1.1971,-0.2448,10.491,-0.8017,0.0502,9.7737,0.0208,0.0033,0.0061
83561,47.172066,-1.662714,83.42,27.75,3.216,278.1,17 / 22,8357298,2019-08-18 17:32:59:835,-0.8996,0.1095,10.2283,-0.7744,0.0266,9.776,-0.0292,-0.02,-0.0045
83562,47.172066,-1.662714,83.42,27.75,3.216,278.1,17 / 22,8357397,2019-08-18 17:32:59:934,-0.6613,-0.2352,9.2167,-0.7628,0.0068,9.7769,-0.0239,-0.0066,-0.0053
83563,47.172066,-1.662714,83.42,27.75,3.216,278.1,17 / 22,8357497,2019-08-18 17:33:00:034,-0.4872,-0.3597,9.5836,-0.7574,-0.0248,9.7773,-0.0007,0.0022,-0.0052
83564,47.172066,-1.662714,83.42,27.75,3.216,278.1,17 / 22,8357597,2019-08-18 17:33:00:134,-0.5943,-0.3262,9.6285,-0.7535,-0.0296,9.7776,0.0069,-0.0068,-0.0061
83565,47.172066,-1.662714,83.42,27.75,3.216,278.1,17 / 22,8357697,2019-08-18 17:33:00:234,-0.556,-0.431,9.7883,-0.7214,-0.0491,9.78,-0.014,-0.0131,-0.0119
83566,47.172066,-1.662714,83.42,27.75,3.216,278.1,17 / 22,8357797,2019-08-18 17:33:00:334,-0.4662,-0.2209,9.5274,-0.7123,-0.0647,9.7805,-0.0181,0.0037,-0.0139
83567,47.172066,-1.662714,83.42,27.75,3.216,278.1,17 / 22,8357897,2019-08-18 17:33:00:434,-0.471,-0.6596,9.4669,-0.7202,-0.0964,9.7797,-0.0051,0.0138,-0.0108
83568,47.172066,-1.662714,83.42,27.75,3.216,278.1,17 / 22,8357997,2019-08-18 17:33:00:534,-0.5141,-0.4705,9.7099,-0.7247,-0.1024,9.7793,0.0021,0.0147,-0.0106
83569,47.172066,-1.662714,83.42,27.75,3.216,278.1,15 / 22,8358097,2019-08-18 17:33:00:634,-0.6476,-0.0796,9.9978,-0.7223,-0.1174,9.7793,-0.0007,-0.0004,-0.0108
83570,47.172066,-1.662714,83.42,27.75,3.216,278.1,15 / 22,8358197,2019-08-18 17:33:00:734,-0.5542,-0.656,10.3959,-0.7096,-0.1258,9.7801,0.0133,-0.0099,-0.0113
83571,47.172066,-1.662714,83.42,27.75,3.216,278.1,15 / 22,8358297,2019-08-18 17:33:00:834,-0.2645,-0.3579,10.1582,-0.6986,-0.1248,9.7809,0.0088,0.0082,-0.0104
83572,47.172066,-1.662714,83.42,27.75,3.216,278.1,15 / 22,8358397,2019-08-18 17:33:00:934,-0.4554,-0.2969,9.5878,-0.6975,-0.1324,9.7809,-0.0053,0.0086,-0.0098
83573,47.172066,-1.662714,83.42,27.75,3.216,278.1,15 / 22,8358498,2019-08-18 17:33:01:035,-0.1466,-0.6135,9.683,-0.6972,-0.1418,9.7808,-0.0053,0.0171,-0.0112
83574,47.172066,-1.662714,83.42,27.75,3.216,278.1,15 / 22,8358597,2019-08-18 17:33:01:134,-0.6518,-0.8326,9.9865,-0.7196,-0.1424,9.7792,0.0159,0.0309,-0.0067
83575,47.172066,-1.662714,83.42,27.75,3.216,278.1,15 / 22,8358697,2019-08-18 17:33:01:234,-0.8032,-0.018,9.9673,-0.7249,-0.1302,9.779,0.0375,-0.015,0.0001
83576,47.172066,-1.662714,83.42,27.75,3.216,278.1,15 / 22,8358797,2019-08-18 17:33:01:334,-0.6601,-0.0688,9.3095,-0.6867,-0.1048,9.782,-0.0262,-0.0089,0.0069
83577,47.172066,-1.662714,83.42,27.75,3.216,278.1,15 / 22,8358898,2019-08-18 17:33:01:435,-0.6817,0.2999,8.3704,-0.6823,-0.1163,9.7822,-0.0253,0.0307,0.0123
83578,47.172066,-1.662714,83.42,27.75,3.216,278.1,15 / 22,8358997,2019-08-18 17:33:01:534,-0.6877,0.3017,9.5423,-0.7325,-0.1275,9.7784,0.0208,0.0324,0.0187
83579,47.172066,-1.662714,83.42,27.75,3.216,278.1,14 / 21,8359097,2019-08-18 17:33:01:634,-0.8074,0.0509,10.6359,-0.7538,-0.1044,9.7771,0.0301,0.006,0.0179
83580,47.172066,-1.662714,83.42,27.75,3.216,278.1,14 / 21,8359197,2019-08-18 17:33:01:734,-1.3126,-0.1257,10.5569,-0.7496,-0.0608,9.7778,0.0241,-0.0195,0.0119
83581,47.172066,-1.662714,83.42,27.75,3.216,278.1,14 / 21,8359297,2019-08-18 17:33:01:834,-1.1007,0.0072,9.036,-0.7491,-0.0461,9.7779,-0.006,0.027,0.01
83582,47.172066,-1.662714,83.42,27.75,3.216,278.1,14 / 21,8359397,2019-08-18 17:33:01:934,-0.6793,0.07,9.8584,-0.7824,-0.075,9.7751,-0.0238,0.0067,0.0086
83583,47.172066,-1.662714,83.42,27.75,3.216,278.1,14 / 21,8359497,2019-08-18 17:33:02:034,-0.6242,0.067,10.3701,-0.78,-0.0734,9.7753,0.0261,-0.014,0.0128
83584,47.172066,-1.662714,83.42,27.75,3.216,278.1,14 / 21,8359597,2019-08-18 17:33:02:134,-1.0085,0.0281,10.354,-0.7567,-0.0421,9.7773,0.0208,-0.0208,0.0132
83585,47.172066,-1.662714,83.42,27.75,3.216,278.1,14 / 21,8359697,2019-08-18 17:33:02:234,-1.0025,0.1197,10.2205,-0.7438,-0.0294,9.7784,-0.0145,-0.0394,0.0033
83586,47.172066,-1.662714,83.42,27.75,3.216,278.1,14 / 21,8359797,2019-08-18 17:33:02:334,-0.6769,-0.2424,10.099,-0.6996,-0.0462,9.7816,-0.0217,-0.022,-0.0024
83587,47.172066,-1.662714,83.42,27.75,3.216,278.1,14 / 21,8359897,2019-08-18 17:33:02:434,-0.8439,-0.1616,9.7297,-0.6938,-0.062,9.7819,-0.0208,-0.0104,-0.0053
83588,47.172066,-1.662714,83.42,27.75,3.216,278.1,14 / 21,8359997,2019-08-18 17:33:02:534,-0.3399,-0.3172,9.2024,-0.6695,-0.0991,9.7833,-0.0228,-0.0157,-0.0091
83589,47.172066,-1.662714,83.42,27.75,3.216,278.1,13 / 20,8360097,2019-08-18 17:33:02:634,-0.2663,-0.3801,9.3903,-0.6593,-0.117,9.7838,-0.0224,-0.0112,-0.0138
83590,47.172066,-1.662714,83.42,27.75,3.216,278.1,13 / 20,8360197,2019-08-18 17:33:02:734,-0.2926,-0.4399,9.6411,-0.6413,-0.1586,9.7844,-0.0175,0.0014,-0.0151
83591,47.172066,-1.662714,83.42,27.75,3.216,278.1,13 / 20,8360297,2019-08-18 17:33:02:834,-0.574,-0.501,9.7129,-0.6455,-0.1747,9.7838,0.0004,0.005,-0.0148
83592,47.172066,-1.662714,83.42,27.75,3.216,278.1,13 / 20,8360397,2019-08-18 17:33:02:934,-0.4961,-0.6057,10.2259,-0.6437,-0.1894,9.7837,-0.0023,0.0074,-0.0148
83593,47.172066,-1.662714,83.42,27.75,3.216,278.1,13 / 20,8360497,2019-08-18 17:33:03:034,-0.3471,-0.8224,9.9775,-0.6411,-0.1922,9.7838,0.0127,-0.0037,-0.0126
83594,47.172066,-1.662714,83.42,27.75,3.216,278.1,13 / 20,8360597,2019-08-18 17:33:03:134,-0.4135,-0.6279,9.9116,-0.63,-0.187,9.7846,0.0189,0.0142,-0.0099
83595,47.172066,-1.662714,83.42,27.75,3.216,278.1,13 / 20,8360697,2019-08-18 17:33:03:234,-0.3585,-0.2215,9.4256,-0.6361,-0.18,9.7843,0.0219,0.0309,-0.0081
83596,47.172066,-1.662714,83.42,27.75,3.216,278.1,13 / 20,8360797,2019-08-18 17:33:03:334,-0.3651,-0.6955,9.7668,-0.6707,-0.1693,9.7822,0.0153,0.0224,-0.0087
83597,47.172066,-1.662714,83.42,27.75,3.216,278.1,13 / 20,8360897,2019-08-18 17:33:03:434,-0.4931,-0.4681,9.3131,-0.6785,-0.1657,9.7817,0.005,0.0081,-0.0081
83598,47.172066,-1.662714,83.42,27.75,3.216,278.1,13 / 20,8360997,2019-08-18 17:33:03:534,-0.3525,-0.6123,10.0625,-0.6845,-0.1607,9.7814,0.0217,0.0159,-0.0067
83599,47.172066,-1.662714,83.42,27.75,3.216,278.1,15 / 22,8361098,2019-08-18 17:33:03:635,-0.5153,-0.4076,10.6856,-0.6907,-0.1495,9.7812,0.0362,0.008,-0.006
83600,47.172066,-1.662714,83.42,27.75,3.216,278.1,15 / 22,8361197,2019-08-18 17:33:03:734,-0.741,-0.0108,10.8208,-0.6742,-0.12,9.7827,0.0173,-0.0186,-0.009
83601,47.172066,-1.662714,83.42,27.75,3.216,278.1,15 / 22,8361297,2019-08-18 17:33:03:834,-0.6021,-0.3992,10.6179,-0.6594,-0.1171,9.7838,0.0081,-0.0154,-0.0112
83602,47.172066,-1.662714,83.42,27.75,3.216,278.1,15 / 22,8361397,2019-08-18 17:33:03:934,-0.4435,-0.4465,9.3502,-0.6529,-0.1267,9.7841,-0.0047,0.0027,-0.0108
83603,47.172066,-1.662714,83.42,27.75,3.216,278.1,15 / 22,8361497,2019-08-18 17:33:04:034,-0.3926,-0.7326,9.2742,-0.6503,-0.1368,9.7841,-0.0123,-0.0027,-0.0119
83604,47.172066,-1.662714,83.42,27.75,3.216,278.1,15 / 22,8361597,2019-08-18 17:33:04:134,-0.4686,-0.2239,8.9222,-0.6447,-0.1515,9.7843,-0.0144,0.0027,-0.0111
83605,47.172066,-1.662714,83.42,27.75,3.216,278.1,15 / 22,8361698,2019-08-18 17:33:04:235,-0.4776,-0.2879,9.4831,-0.6387,-0.172,9.7843,-0.0013,-0.0254,-0.0083
83606,47.172066,-1.662714,83.42,27.75,3.216,278.1,15 / 22,8361797,2019-08-18 17:33:04:334,-0.7625,-0.1646,10.2319,-0.6227,-0.1769,9.7853,-0.0148,-0.0244,-0.0103
83607,47.172066,-1.662714,83.42,27.75,3.216,278.1,15 / 22,8361897,2019-08-18 17:33:04:434,-0.5332,-0.3927,9.747,-0.5977,-0.2115,9.7861,-0.0183,0.0042,-0.0086
83608,47.172066,-1.662714,83.42,27.75,3.216,278.1,15 / 22,8361997,2019-08-18 17:33:04:534,-0.3339,-0.7266,9.1102,-0.6006,-0.2256,9.7856,-0.0194,0.0187,-0.0079
83609,47.172344,-1.666003,81.88,28.39,4.288,277.7,13 / 21,8362097,2019-08-18 17:33:04:634,-0.7457,-0.741,9.4262,-0.626,-0.2564,9.7833,0.0085,0.0082,-0.0022
83610,47.172344,-1.666003,81.88,28.39,4.288,277.7,13 / 21,8362197,2019-08-18 17:33:04:734,-1.0378,-0.5034,10.0248,-0.6329,-0.252,9.783,0.0219,-0.0109,0.0001
83611,47.172344,-1.666003,81.88,28.39,4.288,277.7,13 / 21,8362297,2019-08-18 17:33:04:834,-1.0378,-0.2861,11.3829,-0.6118,-0.233,9.7848,-0.0127,-0.0462,-0.004
83612,47.172344,-1.666003,81.88,28.39,4.288,277.7,13 / 21,8362397,2019-08-18 17:33:04:934,-0.9247,-0.1071,9.4645,-0.5913,-0.2451,9.7857,-0.0161,-0.0235,-0.004
83613,47.172344,-1.666003,81.88,28.39,4.288,277.7,13 / 21,8362497,2019-08-18 17:33:05:034,-0.7158,0.0377,8.4027,-0.6208,-0.3009,9.7824,-0.024,0.0627,0.0029
83614,47.172344,-1.666003,81.88,28.39,4.288,277.7,13 / 21,8362597,2019-08-18 17:33:05:134,-1.0654,-0.6273,8.5613,-0.6688,-0.3155,9.7787,-0.004,0.034,0.0052
83615,47.172344,-1.666003,81.88,28.39,4.288,277.7,13 / 21,8362697,2019-08-18 17:33:05:234,-1.1719,-0.252,9.8153,-0.6899,-0.2976,9.7778,0.0199,-0.0176,0.0067
83616,47.172344,-1.666003,81.88,28.39,4.288,277.7,13 / 21,8362797,2019-08-18 17:33:05:334,-1.2048,-0.6051,10.4497,-0.6768,-0.2851,9.7791,0.0159,-0.028,0.0065
83617,47.172344,-1.666003,81.88,28.39,4.288,277.7,13 / 21,8362897,2019-08-18 17:33:05:434,-0.8487,-0.2221,11.3248,-0.6654,-0.2791,9.7801,0.0002,-0.0101,0.0007
83618,47.172344,-1.666003,81.88,28.39,4.288,277.7,13 / 21,8362997,2019-08-18 17:33:05:534,-1.3281,-0.3053,10.3606,-0.6643,-0.2804,9.7801,-0.0096,-0.0125,0.005
83619,47.172344,-1.666003,81.88,28.39,4.288,277.7,15 / 22,8363098,2019-08-18 17:33:05:635,-0.7799,-0.2059,9.5214,-0.6667,-0.2892,9.7797,-0.0066,-0.0034,0.0078
83620,47.172344,-1.666003,81.88,28.39,4.288,277.7,15 / 22,8363197,2019-08-18 17:33:05:734,-1.0193,-0.2238,9.7034,-0.6718,-0.285,9.7795,0.0159,0.0018,0.0142
83621,47.172344,-1.666003,81.88,28.39,4.288,277.7,15 / 22,8363297,2019-08-18 17:33:05:834,-0.8241,-0.2544,9.1383,-0.685,-0.2592,9.7793,0.0175,-0.0008,0.0133
83622,47.172344,-1.666003,81.88,28.39,4.288,277.7,15 / 22,8363398,2019-08-18 17:33:05:935,-1.1593,-0.2334,9.4472,-0.6878,-0.2548,9.7792,-0.0123,0.0039,0.0087
83623,47.172344,-1.666003,81.88,28.39,4.288,277.7,15 / 22,8363497,2019-08-18 17:33:06:034,-0.79,0.0808,9.5777,-0.7046,-0.2626,9.7778,-0.0103,0.0067,0.0076
83624,47.172344,-1.666003,81.88,28.39,4.288,277.7,15 / 22,8363597,2019-08-18 17:33:06:134,-0.8481,0.0347,9.7668,-0.7115,-0.2563,9.7774,-0.0047,-0.0013,0.0088
83625,47.172344,-1.666003,81.88,28.39,4.288,277.7,15 / 22,8363697,2019-08-18 17:33:06:234,-0.8218,-0.0814,9.6525,-0.717,-0.2593,9.777,-0.0042,-0.0037,0.0066
83626,47.172344,-1.666003,81.88,28.39,4.288,277.7,15 / 22,8363797,2019-08-18 17:33:06:334,-0.6889,0.07,9.3933,-0.7236,-0.2476,9.7768,0.0214,0.0081,0.0114
83627,47.172344,-1.666003,81.88,28.39,4.288,277.7,15 / 22,8363897,2019-08-18 17:33:06:434,-0.9181,-0.4555,9.5818,-0.7399,-0.2241,9.7761,-0.0022,-0.0068,0.009
83628,47.172344,-1.666003,81.88,28.39,4.288,277.7,15 / 22,8363997,2019-08-18 17:33:06:534,-1.0953,0.0922,9.8727,-0.74,-0.2254,9.7761,-0.0071,-0.0083,0.0077
83629,47.172344,-1.666003,81.88,28.39,4.288,277.7,15 / 22,8364097,2019-08-18 17:33:06:634,-0.8744,-0.2837,10.3671,-0.7445,-0.2309,9.7756,-0.0007,0.0018,0.0009
83630,47.172344,-1.666003,81.88,28.39,4.288,277.7,15 / 22,8364197,2019-08-18 17:33:06:734,-0.957,-0.34,9.7069,-0.7455,-0.235,9.7755,-0.0017,-0.0081,0.0029
83631,47.172344,-1.666003,81.88,28.39,4.288,277.7,15 / 22,8364297,2019-08-18 17:33:06:834,-0.8858,-0.5979,9.8512,-0.7388,-0.2415,9.7758,-0.0078,-0.0075,-0.0002
83632,47.172344,-1.666003,81.88,28.39,4.288,277.7,15 / 22,8364397,2019-08-18 17:33:06:934,-0.8786,-0.1957,9.5064,-0.7437,-0.2415,9.7754,0.0014,0.0037,0.0003
83633,47.172344,-1.666003,81.88,28.39,4.288,277.7,15 / 22,8364496,2019-08-18 17:33:07:033,-0.7805,-0.5549,9.7165,-0.7507,-0.2418,9.7749,0.0013,-0.0018,0.0012
83634,47.172344,-1.666003,81.88,28.39,4.288,277.7,15 / 22,8364597,2019-08-18 17:33:07:134,-0.7763,-0.4411,9.8847,-0.7524,-0.2401,9.7748,0.0085,0.0058,0.0009
83635,47.172344,-1.666003,81.88,28.39,4.288,277.7,15 / 22,8364697,2019-08-18 17:33:07:234,-0.9157,-0.088,9.7776,-0.7623,-0.2363,9.7741,0.0209,0.0098,0.004
83636,47.172344,-1.666003,81.88,28.39,4.288,277.7,15 / 22,8364797,2019-08-18 17:33:07:334,-1.0887,-0.2688,10.2786,-0.7756,-0.2125,9.7736,0.0191,-0.0073,0.0033
83637,47.172344,-1.666003,81.88,28.39,4.288,277.7,15 / 22,8364897,2019-08-18 17:33:07:434,-0.629,-0.4244,10.1289,-0.7703,-0.201,9.7743,0.0081,0.0039,-0.0001
83638,47.172344,-1.666003,81.88,28.39,4.288,277.7,15 / 22,8364998,2019-08-18 17:33:07:535,-1.1168,-0.6255,10.1271,-0.781,-0.202,9.7734,-0.0075,-0.0086,-0.0015
83639,47.172344,-1.666003,81.88,28.39,4.288,277.7,17 / 22,8365097,2019-08-18 17:33:07:634,-1.3862,-0.428,9.9087,-0.7812,-0.2101,9.7732,-0.0052,-0.0253,-0.0033
83640,47.172344,-1.666003,81.88,28.39,4.288,277.7,17 / 22,8365197,2019-08-18 17:33:07:734,-0.9744,-0.4232,9.1665,-0.7661,-0.2207,9.7742,-0.0204,-0.0117,-0.0022
83641,47.172344,-1.666003,81.88,28.39,4.288,277.7,17 / 22,8365297,2019-08-18 17:33:07:834,-0.9229,-0.7655,9.5028,-0.7573,-0.2439,9.7743,-0.0191,0.0087,-0.0006
83642,47.172344,-1.666003,81.88,28.39,4.288,277.7,17 / 22,8365397,2019-08-18 17:33:07:934,-0.8391,-0.3867,9.6986,-0.7772,-0.269,9.7721,0.0053,0.0125,0.0038
83643,47.172344,-1.666003,81.88,28.39,4.288,277.7,17 / 22,8365497,2019-08-18 17:33:08:034,-0.8607,-0.6817,9.9272,-0.7873,-0.2671,9.7713,0.0095,0.0136,0.0043
83644,47.172344,-1.666003,81.88,28.39,4.288,277.7,17 / 22,8365597,2019-08-18 17:33:08:134,-1.1516,-0.1754,10.2456,-0.8103,-0.2616,9.7696,0.0055,-0.0083,0.0038
83645,47.172344,-1.666003,81.88,28.39,4.288,277.7,17 / 22,8365697,2019-08-18 17:33:08:234,-1.0486,-0.6488,9.6573,-0.8091,-0.259,9.7698,0.0066,0.0008,0.0034
83646,47.172344,-1.666003,81.88,28.39,4.288,277.7,17 / 22,8365797,2019-08-18 17:33:08:334,-1.7501,-0.6464,9.6716,-0.8358,-0.2678,9.7673,-0.0026,0.0183,0.0033
83647,47.172344,-1.666003,81.88,28.39,4.288,277.7,17 / 22,8365897,2019-08-18 17:33:08:434,-1.6005,-0.7183,9.7542,-0.8541,-0.2752,9.7655,0.0032,0.0099,0.0042
83648,47.172344,-1.666003,81.88,28.39,4.288,277.7,17 / 22,8365997,2019-08-18 17:33:08:534,-1.4981,-0.8727,10.2774,-0.8718,-0.2771,9.7639,0.0,-0.0095,0.004
83649,47.172344,-1.666003,81.88,28.39,4.288,277.7,15 / 20,8366097,2019-08-18 17:33:08:634,-1.7405,-0.6883,10.1313,-0.8765,-0.2815,9.7633,-0.0023,0.001,0.001
83650,47.172344,-1.666003,81.88,28.39,4.288,277.7,15 / 20,8366198,2019-08-18 17:33:08:735,-1.2659,-0.5154,9.6417,-0.8983,-0.3058,9.7606,-0.0186,0.0023,0.002
83651,47.172344,-1.666003,81.88,28.39,4.288,277.7,15 / 20,8366297,2019-08-18 17:33:08:834,-1.5083,-0.802,9.094,-0.9275,-0.3258,9.7573,-0.0102,0.0245,0.0018
83652,47.172344,-1.666003,81.88,28.39,4.288,277.7,15 / 20,8366397,2019-08-18 17:33:08:934,-1.4897,-1.388,9.5735,-0.9762,-0.3503,9.7517,0.0005,0.0187,-0.0028
83653,47.172344,-1.666003,81.88,28.39,4.288,277.7,15 / 20,8366496,2019-08-18 17:33:09:033,-1.6394,-1.2085,9.5411,-0.9946,-0.3589,9.7495,0.0076,0.0028,-0.0049
83654,47.172344,-1.666003,81.88,28.39,4.288,277.7,15 / 20,8366597,2019-08-18 17:33:09:134,-1.5508,-1.1229,9.7255,-1.0106,-0.3677,9.7475,0.0062,-0.0126,-0.0118
83655,47.172344,-1.666003,81.88,28.39,4.288,277.7,15 / 20,8366697,2019-08-18 17:33:09:234,-1.7028,-0.972,9.7297,-1.0199,-0.3787,9.7461,-0.0369,-0.028,-0.0167
83656,47.172344,-1.666003,81.88,28.39,4.288,277.7,15 / 20,8366797,2019-08-18 17:33:09:334,-1.7908,-1.0642,10.6269,-1.0082,-0.4422,9.7447,0.0166,-0.0072,-0.0148
83657,47.172344,-1.666003,81.88,28.39,4.288,277.7,15 / 20,8366897,2019-08-18 17:33:09:434,-1.5622,-1.9555,9.5818,-1.0105,-0.4443,9.7443,0.0166,-0.0072,-0.0148
83658,47.172344,-1.666003,81.88,28.39,4.288,277.7,15 / 20,8366997,2019-08-18 17:33:09:534,-1.3958,-1.4964,10.6209,-1.0158,-0.4111,9.7452,0.066,-0.0002,-0.014
83659,47.172344,-1.666003,81.88,28.39,4.288,277.7,16 / 21,8367097,2019-08-18 17:33:09:634,-0.8619,-0.7482,9.437,-1.0022,-0.408,9.7468,-0.0105,-0.0201,-0.0289
83660,47.172344,-1.666003,81.88,28.39,4.288,277.7,16 / 21,8367198,2019-08-18 17:33:09:735,-0.9636,-0.7961,8.5045,-0.9884,-0.4699,9.7454,-0.0339,-0.0007,-0.038
83661,47.172344,-1.666003,81.88,28.39,4.288,277.7,16 / 21,8367297,2019-08-18 17:33:09:834,-0.6978,-1.3599,8.6996,-0.9845,-0.5006,9.7443,-0.015,0.0051,-0.0371
83662,47.172344,-1.666003,81.88,28.39,4.288,277.7,16 / 21,8367397,2019-08-18 17:33:09:934,-0.7296,-1.5024,9.4807,-0.9904,-0.5455,9.7412,0.0042,0.0208,-0.0353
83663,47.172344,-1.666003,81.88,28.39,4.288,277.7,16 / 21,8367497,2019-08-18 17:33:10:034,-0.5907,-1.3868,9.349,-0.9997,-0.5619,9.7394,0.0086,0.0226,-0.0331
83664,47.172344,-1.666003,81.88,28.39,4.288,277.7,16 / 21,8367597,2019-08-18 17:33:10:134,-0.6266,-1.3958,10.0523,-1.0173,-0.5755,9.7367,0.0131,0.0144,-0.0331
83665,47.172344,-1.666003,81.88,28.39,4.288,277.7,16 / 21,8367697,2019-08-18 17:33:10:234,-0.7158,-1.6113,10.6724,-1.0151,-0.5871,9.7363,0.0059,-0.0014,-0.0371
83666,47.172344,-1.666003,81.88,28.39,4.288,277.7,16 / 21,8367797,2019-08-18 17:33:10:334,-0.5853,-1.2055,10.357,-1.004,-0.6074,9.7362,0.0066,0.0012,-0.0401
83667,47.172344,-1.666003,81.88,28.39,4.288,277.7,16 / 21,8367896,2019-08-18 17:33:10:433,-0.4962,-1.5072,9.9128,-0.9956,-0.6231,9.7361,0.0113,0.0012,-0.041
83668,47.172344,-1.666003,81.88,28.39,4.288,277.7,16 / 21,8367997,2019-08-18 17:33:10:534,-0.4788,-1.4371,9.8332,-0.9891,-0.6285,9.7364,0.0013,0.0021,-0.0429
83669,47.172344,-1.666003,81.88,28.39,4.288,277.7,15 / 19,8368097,2019-08-18 17:33:10:634,-0.4818,-1.5461,9.8195,-0.9809,-0.6554,9.7354,-0.0023,0.007,-0.0448
83670,47.172344,-1.666003,81.88,28.39,4.288,277.7,15 / 19,8368197,2019-08-18 17:33:10:734,-0.6973,-1.4431,9.7734,-0.9751,-0.6754,9.7346,-0.0263,-0.0188,-0.0521
83671,47.172344,-1.666003,81.88,28.39,4.288,277.7,15 / 19,8368297,2019-08-18 17:33:10:834,-0.5733,-1.6442,9.9021,-0.9369,-0.7396,9.7337,-0.0021,0.0026,-0.0518
83672,47.172344,-1.666003,81.88,28.39,4.288,277.7,15 / 19,8368397,2019-08-18 17:33:10:934,-0.7003,-1.6352,9.9512,-0.9292,-0.7617,9.7328,0.0106,0.0114,-0.0487
83673,47.172344,-1.666003,81.88,28.39,4.288,277.7,15 / 19,8368497,2019-08-18 17:33:11:034,-0.5757,-1.555,9.3227,-0.9234,-0.7825,9.7317,0.0139,0.0115,-0.0441
83674,47.172344,-1.666003,81.88,28.39,4.288,277.7,15 / 19,8368597,2019-08-18 17:33:11:134,-0.6296,-1.081,10.3151,-0.918,-0.7941,9.7312,-0.0031,-0.0003,-0.0426
83675,47.172344,-1.666003,81.88,28.39,4.288,277.7,15 / 19,8368697,2019-08-18 17:33:11:234,-0.7248,-1.2839,10.2325,-0.903,-0.8136,9.731,0.0176,-0.0072,-0.0374
83676,47.172344,-1.666003,81.88,28.39,4.288,277.7,15 / 19,8368797,2019-08-18 17:33:11:334,-0.4507,-1.4545,9.4813,-0.8894,-0.8117,9.7324,0.0392,0.013,-0.032
83677,47.172344,-1.666003,81.88,28.39,4.288,277.7,15 / 19,8368897,2019-08-18 17:33:11:434,-0.5165,-1.2276,9.5651,-0.9028,-0.7982,9.7323,-0.0033,0.0213,-0.0328
83678,47.172344,-1.666003,81.88,28.39,4.288,277.7,15 / 19,8368997,2019-08-18 17:33:11:534,-0.4836,-1.0517,10.0296,-0.9103,-0.8084,9.7308,-0.0046,0.0115,-0.0354
83679,47.172344,-1.666003,81.88,28.39,4.288,277.7,16 / 20,8369097,2019-08-18 17:33:11:634,-0.8283,-1.406,10.2971,-0.8855,-0.8218,9.732,0.0118,-0.034,-0.0366
83680,47.172344,-1.666003,81.88,28.39,4.288,277.7,16 / 20,8369197,2019-08-18 17:33:11:734,-0.5392,-1.1905,10.7682,-0.8585,-0.8228,9.7343,0.0077,-0.04,-0.0343
83681,47.172344,-1.666003,81.88,28.39,4.288,277.7,16 / 20,8369297,2019-08-18 17:33:11:834,-0.6572,-0.9714,10.3211,-0.8116,-0.826,9.738,0.006,-0.006,-0.0333
83682,47.172344,-1.666003,81.88,28.39,4.288,277.7,16 / 20,8369397,2019-08-18 17:33:11:934,-0.5201,-1.1965,10.0343,-0.8109,-0.8295,9.7378,0.0118,0.0164,-0.0336
83683,47.172344,-1.666003,81.88,28.39,4.288,277.7,16 / 20,8369497,2019-08-18 17:33:12:034,-0.7397,-1.2055,10.1062,-0.8179,-0.8323,9.737,0.0059,0.0006,-0.0386
83684,47.172344,-1.666003,81.88,28.39,4.288,277.7,16 / 20,8369597,2019-08-18 17:33:12:134,-0.5237,-1.1097,9.938,-0.8063,-0.8384,9.7374,-0.004,-0.0187,-0.041
83685,47.172344,-1.666003,81.88,28.39,4.288,277.7,16 / 20,8369697,2019-08-18 17:33:12:234,-0.4022,-1.0535,9.7626,-0.77,-0.8595,9.7385,0.0044,-0.011,-0.0369
83686,47.172344,-1.666003,81.88,28.39,4.288,277.7,16 / 20,8369797,2019-08-18 17:33:12:334,-0.72,-1.1396,9.6615,-0.7707,-0.8562,9.7388,0.0121,0.0203,-0.0293
83687,47.172344,-1.666003,81.88,28.39,4.288,277.7,16 / 20,8369897,2019-08-18 17:33:12:434,-0.535,-1.2216,9.868,-0.7839,-0.8525,9.738,0.0076,0.0183,-0.0283
83688,47.172344,-1.666003,81.88,28.39,4.288,277.7,16 / 20,8369997,2019-08-18 17:33:12:534,-0.6572,-0.8481,9.8572,-0.7861,-0.8551,9.7376,0.0103,0.0027,-0.0323
83689,47.172344,-1.666003,81.88,28.39,4.288,277.7,18 / 22,8370097,2019-08-18 17:33:12:634,-0.8457,-0.9481,9.7656,-0.7803,-0.8541,9.7382,0.0004,-0.0015,-0.0311
83690,47.172344,-1.666003,81.88,28.39,4.288,277.7,18 / 22,8370197,2019-08-18 17:33:12:734,-0.702,-0.9744,9.9942,-0.7706,-0.8681,9.7377,-0.0182,-0.0031,-0.0316
83691,47.172344,-1.666003,81.88,28.39,4.288,277.7,18 / 22,8370297,2019-08-18 17:33:12:834,-0.41,-1.1342,9.5675,-0.7662,-0.8892,9.7362,-0.0001,0.0051,-0.028
83692,47.172344,-1.666003,81.88,28.39,4.288,277.7,18 / 22,8370397,2019-08-18 17:33:12:934,-0.6685,-0.7793,8.9121,-0.7639,-0.8926,9.736,-0.0065,0.0045,-0.0282
83693,47.172344,-1.666003,81.88,28.39,4.288,277.7,18 / 22,8370497,2019-08-18 17:33:13:034,-0.5554,-1.0271,9.7554,-0.7656,-0.903,9.7349,0.0002,0.0015,-0.0239
83694,47.172344,-1.666003,81.88,28.39,4.288,277.7,18 / 22,8370597,2019-08-18 17:33:13:134,-0.6003,-0.9589,10.2666,-0.7603,-0.9045,9.7352,-0.0055,-0.0197,-0.0244
83695,47.172344,-1.666003,81.88,28.39,4.288,277.7,18 / 22,8370697,2019-08-18 17:33:13:234,-0.6542,-0.8649,10.3564,-0.7099,-0.927,9.7369,-0.0255,-0.0318,-0.0303
83696,47.172344,-1.666003,81.88,28.39,4.288,277.7,18 / 22,8370797,2019-08-18 17:33:13:334,-0.4327,-0.7242,8.9246,-0.6935,-0.9421,9.7366,-0.0368,-0.004,-0.0312
83697,47.172344,-1.666003,81.88,28.39,4.288,277.7,18 / 22,8370898,2019-08-18 17:33:13:435,-0.5548,-1.2576,8.9887,-0.715,-0.9962,9.7297,-0.0183,0.0362,-0.0248
83698,47.172344,-1.666003,81.88,28.39,4.288,277.7,18 / 22,8370997,2019-08-18 17:33:13:534,-0.9367,-1.2815,9.3221,-0.7267,-1.0013,9.7283,0.0072,0.0162,-0.0245
83699,47.172344,-1.666003,81.88,28.39,4.288,277.7,14 / 18,8371100,2019-08-18 17:33:13:637,-0.638,-0.9738,9.9565,-0.7273,-0.997,9.7287,0.0123,-0.0102,-0.0243
83700,47.17267,-1.669049,81.93,23.91,3.216,284.8,14 / 18,8371197,2019-08-18 17:33:13:734,-0.6189,-0.9421,11.0285,-0.6975,-0.9777,9.7328,0.0187,-0.0168,-0.0246
83701,47.17267,-1.669049,81.93,23.91,3.216,284.8,14 / 18,8371299,2019-08-18 17:33:13:836,-0.4602,-1.2354,10.0721,-0.6896,-0.959,9.7353,0.0127,0.0027,-0.0238
83702,47.17267,-1.669049,81.93,23.91,3.216,284.8,14 / 18,8371397,2019-08-18 17:33:13:934,-0.4638,-0.9846,9.8739,-0.6899,-0.9527,9.7358,0.011,0.0078,-0.0289
83703,47.17267,-1.669049,81.93,23.91,3.216,284.8,14 / 18,8371497,2019-08-18 17:33:14:034,-0.7787,-1.2809,9.1706,-0.6888,-0.956,9.7356,0.0114,-0.0004,-0.0368
83704,47.17267,-1.669049,81.93,23.91,3.216,284.8,14 / 18,8371597,2019-08-18 17:33:14:134,-0.9014,-1.087,9.2574,-0.6836,-0.9518,9.7364,0.0189,0.0036,-0.0326
83705,47.17267,-1.669049,81.93,23.91,3.216,284.8,14 / 18,8371697,2019-08-18 17:33:14:234,-0.5979,-1.3048,9.6076,-0.6824,-0.9449,9.7371,0.0195,0.0111,-0.0313
83706,47.17267,-1.669049,81.93,23.91,3.216,284.8,14 / 18,8371797,2019-08-18 17:33:14:334,-0.6853,-1.1025,9.5178,-0.6877,-0.9399,9.7372,0.0052,0.0113,-0.0312
83707,47.17267,-1.669049,81.93,23.91,3.216,284.8,14 / 18,8371897,2019-08-18 17:33:14:434,-1.0247,-1.2336,10.1187,-0.6918,-0.937,9.7372,0.01,-0.0074,-0.0337
83708,47.17267,-1.669049,81.93,23.91,3.216,284.8,14 / 18,8371997,2019-08-18 17:33:14:534,-0.9085,-0.9714,9.8177,-0.6625,-0.9385,9.7391,-0.0175,-0.0261,-0.036
83709,47.17267,-1.669049,81.93,23.91,3.216,284.8,15 / 20,8372097,2019-08-18 17:33:14:634,-0.4902,-0.7805,9.7261,-0.6427,-0.9558,9.7388,-0.0324,-0.0072,-0.0362
83710,47.17267,-1.669049,81.93,23.91,3.216,284.8,15 / 20,8372196,2019-08-18 17:33:14:733,-0.5273,-1.1803,9.4358,-0.6412,-0.9948,9.735,-0.0057,0.0144,-0.0324
83711,47.17267,-1.669049,81.93,23.91,3.216,284.8,15 / 20,8372297,2019-08-18 17:33:14:834,-0.4752,-1.1444,9.5417,-0.6464,-1.0024,9.7339,0.0025,0.0085,-0.0309
83712,47.17267,-1.669049,81.93,23.91,3.216,284.8,15 / 20,8372397,2019-08-18 17:33:14:934,-0.4913,-0.7428,9.8608,-0.6437,-1.0015,9.7341,-0.0002,0.0008,-0.0283
83713,47.17267,-1.669049,81.93,23.91,3.216,284.8,15 / 20,8372497,2019-08-18 17:33:15:034,-0.6757,-0.9008,9.9751,-0.6387,-1.0082,9.7338,-0.011,-0.0063,-0.0301
83714,47.17267,-1.669049,81.93,23.91,3.216,284.8,15 / 20,8372597,2019-08-18 17:33:15:134,-0.5315,-1.1654,9.6896,-0.6291,-1.0209,9.7331,-0.007,-0.0013,-0.031
83715,47.17267,-1.669049,81.93,23.91,3.216,284.8,15 / 20,8372698,2019-08-18 17:33:15:235,-0.5297,-0.9954,9.592,-0.6243,-1.0265,9.7328,-0.0071,-0.0047,-0.029
83716,47.17267,-1.669049,81.93,23.91,3.216,284.8,15 / 20,8372797,2019-08-18 17:33:15:334,-0.644,-1.2222,9.8536,-0.6169,-1.0251,9.7334,0.0194,-0.0005,-0.027
83717,47.17267,-1.669049,81.93,23.91,3.216,284.8,15 / 20,8372898,2019-08-18 17:33:15:435,-0.6518,-1.2629,9.7159,-0.6144,-1.0121,9.7349,0.0281,0.0051,-0.0264
83718,47.17267,-1.669049,81.93,23.91,3.216,284.8,15 / 20,8372997,2019-08-18 17:33:15:534,-0.6775,-1.2725,9.5328,-0.6321,-0.9919,9.7359,0.0139,0.0197,-0.0236
83719,47.17267,-1.669049,81.93,23.91,3.216,284.8,16 / 20,8373096,2019-08-18 17:33:15:633,-0.7763,-0.6129,9.194,-0.6358,-0.9885,9.736,-0.0024,-0.0117,-0.027
83720,47.17267,-1.669049,81.93,23.91,3.216,284.8,16 / 20,8373197,2019-08-18 17:33:15:734,-0.7104,-0.8601,9.7662,-0.6256,-0.9917,9.7363,-0.0039,-0.0063,-0.0262
83721,47.17267,-1.669049,81.93,23.91,3.216,284.8,16 / 20,8373297,2019-08-18 17:33:15:834,-0.6554,-1.06,9.5064,-0.6212,-0.9978,9.736,-0.0088,-0.0036,-0.0276
83722,47.17267,-1.669049,81.93,23.91,3.216,284.8,16 / 20,8373397,2019-08-18 17:33:15:934,-0.8804,-0.9373,9.7093,-0.6203,-1.0089,9.7349,-0.0042,0.0062,-0.0256
