,GPS LATITUDE (degrees), GPS LONGITUDE (degrees), GPS ALTITUDE (m), GPS SPEED (Kmh), GPS ACCURACY (m), GPS ORIENTATION (Â°),GPS SATELLITES IN RANGE, TIME SINCE START (ms), DATE (YYYY-MO-DD HH-MI-SS_SSS), ACCELEROMETER X (m/s²) , ACCELEROMETER Y (m/s²), ACCELEROMETER Z (m/s²), GRAVITY X (m/s²), GRAVITY Y (m/s²), GRAVITY Z (m/s²), GYROSCOPE Yaw (rad/s), GYROSCOPE Pitch (rad/s), GYROSCOPE Roll (rad/s), MAGNETIC FIELD X (Î¼T), MAGNETIC FIELD Y (Î¼T), MAGNETIC FIELD Z (Î¼T), ORIENTATION (Yaw) (Â°), ORIENTATION (Pitch) (Â°), ORIENTATION (Roll ) (Â°)
58502,52.62026,-1.62945,157.34,22.35,4,206.85,21 / 23,7322814,2019-11-06 18:08:23:276,2.2492,0.198,9.1583,0.0161,0.0102,9.8066,0.0849,-0.2639,0.1452,-3.19,-37.19,31.88,353.01,-88.99,178.51
58503,52.6186,-1.630732,158.65,22.12,4,203.76,20 / 22,7322914,2019-11-06 18:08:23:376,-2.156,0.6291,10.2414,0.0235,0.0191,9.8066,0.0726,-0.279,0.1536,-3.19,-36.75,31.94,354.53,-88.99,-180.0
58504,52.6186,-1.630732,158.65,22.12,4,203.76,20 / 22,7323013,2019-11-06 18:08:23:475,1.4143,0.5365,9.3337,0.0167,0.0151,9.8066,0.0648,-0.2358,0.0506,-3.0,-36.94,31.44,358.13,-88.92,-176.3
58505,52.6186,-1.630732,158.65,22.12,4,203.76,20 / 22,7323113,2019-11-06 18:08:23:575,-0.4672,-0.0102,9.7481,0.0283,0.0198,9.8065,0.0551,-0.1732,0.1082,-3.37,-36.31,31.38,346.77,-88.96,172.57
58506,52.6186,-1.630732,158.65,22.12,4,203.76,20 / 22,7323214,2019-11-06 18:08:23:676,2.2771,-0.504,9.6039,0.019,0.0221,9.8066,-0.0137,-0.1792,0.1037,-3.0,-37.19,31.13,345.88,-88.99,171.7
58507,52.6186,-1.630732,158.65,22.12,4,203.76,20 / 22,7323314,2019-11-06 18:08:23:776,-1.3652,0.4615,9.9806,0.0221,0.008,9.8066,0.0519,-0.1903,0.1034,-3.81,-37.06,31.44,344.7,-89.1,172.34
58508,52.6186,-1.630732,158.65,22.12,4,203.76,20 / 22,7323414,2019-11-06 18:08:23:876,1.4235,0.1538,10.2318,0.0032,0.0003,9.8066,0.003,0.0496,-0.0391,-3.69,-36.37,31.06,349.9,-89.04,177.44
58509,52.6186,-1.630732,158.65,22.12,4,203.76,20 / 22,7323514,2019-11-06 18:08:23:976,-1.2183,0.3028,9.4614,0.0167,-0.0068,9.8066,-0.0123,0.0283,-0.0483,-3.31,-36.44,30.75,346.2,-88.97,172.02
58510,52.6186,-1.630732,158.65,22.12,4,203.76,20 / 22,7323614,2019-11-06 18:08:24:076,-0.1157,1.0236,10.2955,-0.0081,0.0126,9.8066,-0.0565,0.0703,-0.0349,-2.87,-36.94,30.94,354.76,-89.13,-179.62
58511,52.6186,-1.630732,158.65,22.12,4,203.76,20 / 22,7323714,2019-11-06 18:08:24:176,-1.8706,-0.6579,10.6704,0.0338,0.0005,9.8066,-0.1152,0.1414,-0.0594,-2.81,-36.75,31.56,347.05,-89.17,172.62
58512,52.6186,-1.630732,158.65,22.12,4,203.76,20 / 22,7323814,2019-11-06 18:08:24:276,0.0758,0.8694,9.6984,-0.0034,-0.01,9.8066,0.0034,0.2006,-0.088,-3.12,-36.37,31.63,348.58,-89.11,174.14
58513,52.6186,-1.630732,158.65,22.12,4,203.76,20 / 22,7323914,2019-11-06 18:08:24:376,1.1344,0.9442,10.1617,0.0027,0.0123,9.8066,0.066,0.1524,-0.1647,-3.25,-36.44,31.63,342.82,-89.01,168.5
58514,52.6186,-1.630732,158.65,22.12,4,203.76,20 / 22,7324013,2019-11-06 18:08:24:475,1.4229,-0.852,10.1416,-0.0135,0.0014,9.8066,0.0519,0.1773,-0.0741,-3.19,-36.69,31.38,341.86,-89.03,167.75
58515,52.6186,-1.630732,158.65,22.12,4,203.76,20 / 22,7324113,2019-11-06 18:08:24:575,1.3829,0.9068,8.7568,0.0109,-0.0191,9.8065,-0.0242,0.1466,-0.0471,-3.06,-36.25,31.44,343.6,-88.95,169.47
58516,52.6186,-1.630732,158.65,22.12,4,203.76,20 / 22,7324213,2019-11-06 18:08:24:675,-0.4776,0.6444,10.1797,-0.0011,-0.0059,9.8066,-0.1121,0.1697,-0.0092,-2.5,-36.81,31.75,343.37,-89.07,167.26
58517,52.6186,-1.630732,158.65,22.12,4,203.76,20 / 22,7324314,2019-11-06 18:08:24:776,0.4618,-0.0008,9.8931,-0.0098,0.0103,9.8066,-0.0101,0.1512,-0.0831,-2.62,-36.56,31.19,335.86,-89.2,161.78
58518,52.6186,-1.630732,158.65,22.12,4,203.76,20 / 22,7324414,2019-11-06 18:08:24:876,0.6696,0.0223,10.7281,-0.0074,-0.0024,9.8066,0.1185,-0.0071,-0.089,-2.62,-36.44,32.06,333.77,-88.83,159.71
58519,52.6186,-1.630732,158.65,22.12,4,203.76,20 / 22,7324514,2019-11-06 18:08:24:976,-0.2076,0.1152,9.5188,0.012,-0.0117,9.8066,0.0889,-0.0293,-0.0377,-2.12,-36.0,31.5,336.11,-88.71,160.27
58520,52.6186,-1.630732,158.65,22.12,4,203.76,20 / 22,7324614,2019-11-06 18:08:25:076,-0.3766,0.0043,9.5109,0.0038,0.0014,9.8066,0.0061,-0.088,0.1173,-1.94,-36.31,31.25,346.0,-88.98,169.98
58521,52.6186,-1.630732,158.65,22.12,4,203.76,20 / 22,7324714,2019-11-06 18:08:25:176,0.4028,-0.2177,10.3099,-0.0226,-0.0025,9.8066,-0.0461,-0.0484,0.1466,-2.62,-35.94,31.06,3.39,-89.02,-171.15
58522,52.6186,-1.630732,158.65,22.12,4,203.76,20 / 22,7324814,2019-11-06 18:08:25:276,0.3325,1.1149,9.6477,-0.0019,0.0128,9.8066,0.0739,-0.0527,0.0478,-2.62,-36.12,31.44,5.92,-89.02,-168.67
58523,52.6186,-1.630732,158.65,22.12,4,203.76,20 / 22,7324914,2019-11-06 18:08:25:376,1.3186,-1.2963,9.8721,0.0042,-0.0188,9.8066,0.0546,-0.0789,-0.0025,-3.06,-36.81,31.38,4.03,-88.84,-170.54
58524,52.6186,-1.630732,158.65,22.12,4,203.76,20 / 22,7325013,2019-11-06 18:08:25:475,-1.3807,0.6189,10.2402,0.0185,-0.021,9.8065,-0.0638,-0.1511,0.0943,-3.19,-36.31,31.06,2.48,-88.84,-172.05
58525,52.6186,-1.630732,158.65,22.12,4,203.76,20 / 22,7325113,2019-11-06 18:08:25:575,0.9693,0.1439,9.9338,-0.0173,0.0151,9.8066,-0.0725,-0.0023,0.1196,-3.12,-36.56,30.88,357.53,-88.84,-176.88
58526,52.6186,-1.630732,158.65,22.12,4,203.76,20 / 22,7325214,2019-11-06 18:08:25:676,0.5437,0.5633,10.208,-0.0174,0.0093,9.8066,0.023,-0.0183,-0.0859,-3.5,-36.37,30.5,350.93,-88.88,176.66
58527,52.6186,-1.630732,158.65,22.12,4,203.76,20 / 22,7325313,2019-11-06 18:08:25:775,-0.3728,-0.2972,9.9467,0.0004,0.0031,9.8066,0.0468,0.0047,-0.0022,-3.31,-36.25,30.94,358.92,-88.97,-175.53
58528,52.6186,-1.630732,158.65,22.12,4,203.76,20 / 22,7325413,2019-11-06 18:08:25:875,0.474,0.8567,9.6135,0.0089,0.0098,9.8066,-0.041,0.052,-0.0578,-3.75,-35.75,30.88,349.35,-89.03,176.91
58529,52.6186,-1.630732,158.65,22.12,4,203.76,20 / 22,7325513,2019-11-06 18:08:25:975,0.5292,-0.6921,9.1456,0.0193,0.0151,9.8066,0.0238,0.0515,-0.0401,-3.62,-36.62,30.81,344.98,-89.14,172.6
58530,52.6186,-1.630732,158.65,22.12,4,203.76,20 / 22,7325613,2019-11-06 18:08:26:075,0.7689,0.602,10.1713,0.0158,-0.0038,9.8066,0.0715,0.0852,-0.0479,-3.69,-36.19,30.5,342.68,-89.12,170.33
58531,52.6186,-1.630732,158.65,22.12,4,203.76,20 / 22,7325714,2019-11-06 18:08:26:176,-1.7226,0.8913,9.3748,0.0263,-0.0048,9.8066,0.0519,0.1539,-0.1918,-4.06,-36.75,30.69,331.28,-89.09,159.15
58532,52.6186,-1.630732,158.65,22.12,4,203.76,20 / 22,7325814,2019-11-06 18:08:26:276,0.1564,1.1449,9.9542,0.0316,-0.0109,9.8065,0.022,0.1909,-0.1184,-3.81,-36.44,31.19,339.14,-89.21,166.82
58533,52.6186,-1.630732,158.65,22.12,4,203.76,21 / 22,7325915,2019-11-06 18:08:26:377,-0.8723,-0.8557,11.1867,0.0107,0.0058,9.8066,-0.1445,0.1485,-0.0668,-3.81,-36.56,31.13,332.46,-89.11,160.31
58534,52.6186,-1.630732,158.65,22.12,4,203.76,21 / 22,7326014,2019-11-06 18:08:26:476,0.4479,0.7035,8.6292,-0.0012,0.0269,9.8066,-0.1715,0.167,0.0143,-3.75,-36.75,30.88,336.24,-88.88,164.12
58535,52.6186,-1.630732,158.65,22.12,4,203.76,21 / 22,7326114,2019-11-06 18:08:26:576,-1.2022,-0.0115,9.1871,0.0019,-0.0141,9.8065,-0.0959,0.1794,0.042,-3.75,-36.87,30.81,332.89,-89.03,160.77
58536,52.6186,-1.630732,158.65,22.12,4,203.76,21 / 22,7326214,2019-11-06 18:08:26:676,1.8045,-1.1071,9.889,-0.0459,0.0084,9.8065,0.044,0.1063,-0.1015,-3.31,-36.56,30.94,347.33,-89.2,173.07
58537,52.6186,-1.630732,158.65,22.12,4,203.76,21 / 22,7326315,2019-11-06 18:08:26:777,1.5556,0.1176,9.7808,-0.0113,-0.0142,9.8066,0.1315,0.0796,-0.1035,-3.69,-37.0,31.31,337.69,-89.05,165.47
58538,52.6186,-1.630732,158.65,22.12,4,203.76,21 / 22,7326414,2019-11-06 18:08:26:876,-1.2232,1.6993,9.7184,-0.0286,0.0171,9.8066,-0.055,-0.0135,0.077,-3.94,-36.81,31.19,353.03,-89.14,-179.49
58539,52.6186,-1.630732,158.65,22.12,4,203.76,21 / 22,7326513,2019-11-06 18:08:26:975,-2.3395,0.228,9.7278,0.005,0.0089,9.8066,-0.0487,0.0206,0.0559,-4.25,-35.75,30.75,5.15,-89.28,-167.57
58540,52.6186,-1.630732,158.65,22.12,4,203.76,21 / 22,7326613,2019-11-06 18:08:27:075,1.3406,-0.6254,11.1286,-0.0075,-0.0143,9.8066,0.054,-0.0034,-0.0099,-3.94,-37.56,31.31,4.01,-89.19,-168.71
58541,52.6186,-1.630732,158.65,22.12,4,203.76,21 / 22,7326713,2019-11-06 18:08:27:175,-0.8142,0.7047,9.0026,0.0402,0.0068,9.8065,0.0941,-0.0058,-0.0863,-3.87,-36.12,31.56,359.9,-89.28,-172.97
58542,52.6186,-1.630732,158.65,22.12,4,203.76,21 / 22,7326813,2019-11-06 18:08:27:275,0.027,0.6386,8.7956,0.0195,-0.0139,9.8065,0.0851,-0.0318,-0.0896,-4.19,-36.75,31.13,357.0,-89.39,-175.61
58543,52.6186,-1.630732,158.65,22.12,4,203.76,20 / 22,7326913,2019-11-06 18:08:27:375,-0.2256,-0.6825,10.1941,-0.0172,0.0298,9.8066,-0.0359,-0.1344,0.0747,-3.87,-36.44,31.13,3.58,-89.52,-169.1
58544,52.6186,-1.630732,158.65,22.12,4,203.76,20 / 22,7327016,2019-11-06 18:08:27:478,-0.9672,1.1582,9.3203,-0.0383,0.0102,9.8065,-0.0648,-0.1214,0.1559,-4.0,-36.37,31.19,349.32,-89.37,176.81
58545,52.6186,-1.630732,158.65,22.12,4,203.76,20 / 22,7327114,2019-11-06 18:08:27:576,0.8088,0.6657,9.9161,-0.0075,0.0039,9.8066,-0.0313,-0.1997,0.0821,-4.19,-37.25,31.56,0.27,-89.32,-172.61
58546,52.6186,-1.630732,158.65,22.12,4,203.76,20 / 22,7327213,2019-11-06 18:08:27:675,-2.243,0.5813,9.5587,-0.0332,0.0155,9.8065,-0.0393,-0.1754,0.0956,-3.81,-36.19,31.25,11.33,-89.38,-161.46
58547,52.6186,-1.630732,158.65,22.12,4,203.76,20 / 22,7327313,2019-11-06 18:08:27:775,0.3263,0.6792,8.9863,-0.0116,-0.0096,9.8066,-0.1161,-0.1435,0.101,-4.25,-36.81,31.0,1.18,-89.35,-171.48
58548,52.6186,-1.630732,158.65,22.12,4,203.76,20 / 22,7327413,2019-11-06 18:08:27:875,-2.4791,-0.5152,10.5474,-0.0238,0.0065,9.8065,-0.0447,-0.0185,0.0241,-3.94,-36.94,30.75,0.54,-89.43,-172.11
58549,52.6186,-1.630732,158.65,22.12,4,203.76,20 / 22,7327514,2019-11-06 18:08:27:976,1.7086,0.5308,9.3322,-0.0403,-0.0337,9.8064,-0.0333,0.0174,-0.0169,-4.31,-36.5,31.19,24.29,-89.38,-148.66
58550,52.6186,-1.630732,158.65,22.12,4,203.76,20 / 22,7327614,2019-11-06 18:08:28:076,-2.4197,0.9334,10.3097,-0.033,-0.0147,9.8066,0.0087,0.0123,0.0105,-3.5,-36.62,31.19,17.11,-89.45,-157.55
58551,52.6186,-1.630732,158.65,22.12,4,203.76,20 / 22,7327714,2019-11-06 18:08:28:176,2.8913,-0.0955,10.4825,-0.0445,-0.0179,9.8065,0.0293,0.2097,-0.1506,-3.75,-36.44,31.25,26.94,-89.25,-146.1
58552,52.6186,-1.630732,158.65,22.12,4,203.76,20 / 22,7327817,2019-11-06 18:08:28:279,-0.8203,-0.0498,8.1809,-0.0054,0.0262,9.8066,-0.0368,0.2819,-0.1765,-3.87,-36.5,30.88,21.6,-89.43,-151.29
58553,52.6186,-1.630732,158.65,22.12,4,203.76,18 / 22,7327913,2019-11-06 18:08:28:375,2.455,1.6059,8.7574,-0.0465,0.0103,9.8065,-0.1316,0.4038,-0.1436,-3.87,-37.06,30.69,24.6,-89.4,-148.34
58554,52.6186,-1.630732,158.65,22.12,4,203.76,18 / 22,7328013,2019-11-06 18:08:28:475,-3.1538,-1.2218,10.2607,0.0255,-0.0088,9.8065,-0.0811,0.3763,-0.1584,-4.06,-37.37,31.31,23.33,-89.44,-149.58
58555,52.6186,-1.630732,158.65,22.12,4,203.76,18 / 22,7328114,2019-11-06 18:08:28:576,-0.4989,1.0465,9.6899,-0.0103,-0.0263,9.8066,0.0261,0.2869,-0.1479,-3.37,-37.31,31.44,14.73,-89.27,-159.96
58556,52.6186,-1.630732,158.65,22.12,4,203.76,18 / 22,7328215,2019-11-06 18:08:28:677,1.8065,0.8845,9.7885,0.0377,0.0032,9.8066,0.0855,0.2193,-0.1564,-3.69,-37.06,31.0,20.11,-89.24,-152.84
58557,52.6186,-1.630732,158.65,22.12,4,203.76,18 / 22,7328313,2019-11-06 18:08:28:775,0.7503,-0.2492,9.533,-0.0233,0.0067,9.8065,0.0109,0.0715,-0.1101,-3.75,-37.0,30.56,21.38,-89.24,-151.59
58558,52.6186,-1.630732,158.65,22.12,4,203.76,18 / 22,7328414,2019-11-06 18:08:28:876,0.3795,0.2484,9.5666,0.0084,0.0197,9.8066,0.0062,0.0157,0.0168,-3.94,-36.69,31.06,18.87,-89.36,-154.02
58559,52.6186,-1.630732,158.65,22.12,4,203.76,18 / 22,7328514,2019-11-06 18:08:28:976,-0.8697,0.667,10.4869,0.0128,-0.0034,9.8066,0.0014,-0.0089,-0.037,-3.75,-36.5,30.94,15.58,-89.27,-157.29
58560,52.6186,-1.630732,158.65,22.12,4,203.76,18 / 22,7328614,2019-11-06 18:08:29:076,0.5615,0.0137,10.3431,0.0155,-0.0081,9.8066,0.0002,0.0136,-0.0257,-3.06,-36.75,31.13,6.64,-89.29,-167.93
58561,52.6186,-1.630732,158.65,22.12,4,203.76,18 / 22,7328713,2019-11-06 18:08:29:175,0.363,-0.3979,9.6171,0.0033,0.0262,9.8066,0.0479,0.0161,-0.0365,-3.37,-36.62,30.88,358.25,-89.41,-176.2
58562,52.6186,-1.630732,158.65,22.12,4,203.76,18 / 22,7328813,2019-11-06 18:08:29:275,-0.4196,0.2019,9.6035,-0.0278,0.0171,9.8066,-0.0097,0.0224,-0.0091,-3.69,-36.94,31.25,353.83,-89.44,-178.74
58563,52.6186,-1.630732,158.65,22.12,4,203.76,18 / 22,7328914,2019-11-06 18:08:29:376,0.1498,0.6456,10.0265,-0.0015,0.0011,9.8066,0.0063,-0.0067,0.0658,-3.56,-36.62,31.06,8.62,-89.55,-164.11
58564,52.6186,-1.630732,158.65,22.12,4,203.76,18 / 22,7329014,2019-11-06 18:08:29:476,-0.6585,1.7714,9.7052,0.0127,-0.0014,9.8066,0.0436,0.0574,-0.0318,-3.94,-36.75,31.63,12.46,-89.48,-160.55
58565,52.6186,-1.630732,158.65,22.12,4,203.76,18 / 22,7329113,2019-11-06 18:08:29:575,0.9357,0.3201,10.0317,-0.0054,-0.0063,9.8066,0.0148,0.0951,-0.0937,-3.19,-36.5,31.56,15.31,-89.45,-159.49
58566,52.6186,-1.630732,158.65,22.12,4,203.76,18 / 22,7329213,2019-11-06 18:08:29:675,0.6105,0.1493,8.9889,-0.0012,0.0117,9.8066,-0.0007,-0.0025,0.0124,-4.0,-37.06,31.94,359.64,-89.4,-173.23
58567,52.6186,-1.630732,158.65,22.12,4,203.76,18 / 22,7329314,2019-11-06 18:08:29:776,-0.0828,1.236,8.836,0.0074,-0.0192,9.8066,-0.0215,0.0395,-0.0237,-3.56,-36.5,32.25,356.8,-89.34,-176.03
58568,52.6186,-1.630732,158.65,22.12,4,203.76,18 / 22,7329414,2019-11-06 18:08:29:876,0.6951,1.6519,10.5992,0.0205,-0.0497,9.8065,-0.1252,-0.0199,0.1518,-3.5,-36.37,31.44,354.96,-89.39,-179.45
58569,52.6186,-1.630732,158.65,22.12,4,203.76,18 / 22,7329514,2019-11-06 18:08:29:976,-0.5115,1.0754,10.0228,0.0051,0.0286,9.8066,0.1045,0.039,0.0889,-3.44,-36.81,31.75,357.33,-89.4,-177.28
58570,52.6186,-1.630732,158.65,22.12,4,203.76,18 / 22,7329613,2019-11-06 18:08:30:075,-0.7516,-0.8122,10.4845,-0.0074,0.0293,9.8065,0.0559,0.0447,-0.1739,-3.19,-37.25,32.38,0.98,-89.38,-173.67
58571,52.6186,-1.630732,158.65,22.12,4,203.76,18 / 22,7329713,2019-11-06 18:08:30:175,0.7854,-0.9424,9.2359,-0.0157,-0.0035,9.8066,0.0469,-0.0308,-0.0669,-3.12,-37.81,31.81,351.38,-89.26,176.86
58572,52.6186,-1.630732,158.65,22.12,4,203.76,18 / 22,7329817,2019-11-06 18:08:30:279,2.2855,-1.2093,9.8158,0.031,-0.012,9.8065,-0.0637,-0.1195,0.177,-3.37,-38.12,31.19,356.23,-89.26,-178.18
58573,52.6186,-1.630732,158.65,22.12,4,203.76,18 / 23,7329913,2019-11-06 18:08:30:375,1.8512,0.0804,10.3393,-0.0057,0.0,9.8066,-0.0582,-0.1224,0.0922,-3.56,-37.62,30.38,353.62,-89.12,-178.66
58574,52.6186,-1.630732,158.65,22.12,4,203.76,18 / 23,7330014,2019-11-06 18:08:30:476,0.0684,1.1372,8.9697,0.0146,0.0136,9.8066,0.0999,-0.1129,0.0086,-3.25,-37.31,30.06,353.18,-89.07,179.03
58575,52.6186,-1.630732,158.65,22.12,4,203.76,18 / 23,7330114,2019-11-06 18:08:30:576,-0.1346,-0.3687,10.7939,-0.0082,0.0171,9.8066,0.1014,-0.0471,-0.0075,-3.5,-36.87,30.56,348.83,-89.14,174.55
58576,52.6186,-1.630732,158.65,22.12,4,203.76,18 / 23,7330213,2019-11-06 18:08:30:675,0.3137,0.3214,10.1251,0.003,-0.003,9.8066,-0.079,-0.0731,0.0454,-3.12,-36.69,31.25,347.24,-89.0,173.03
58577,52.6186,-1.630732,158.65,22.12,4,203.76,18 / 23,7330314,2019-11-06 18:08:30:776,-0.4164,0.6885,10.187,0.0263,-0.0064,9.8066,-0.1492,-0.0764,0.1668,-3.87,-36.44,31.06,344.57,-89.06,172.21
58578,52.6186,-1.630732,158.65,22.12,4,203.76,18 / 23,7330414,2019-11-06 18:08:30:876,0.3312,0.9163,9.2493,0.0099,0.0088,9.8066,0.0435,-0.0382,0.0386,-4.25,-37.25,30.69,352.74,-88.93,-179.75
58579,52.6186,-1.630732,158.65,22.12,4,203.76,18 / 23,7330514,2019-11-06 18:08:30:976,-0.4527,0.2091,9.2923,-0.0162,0.015,9.8065,0.1132,-0.1122,-0.0416,-3.75,-37.06,30.44,350.13,-88.88,177.96
58580,52.6186,-1.630732,158.65,22.12,4,203.76,18 / 23,7330615,2019-11-06 18:08:31:077,1.2449,-0.2796,10.5816,0.0024,0.0103,9.8066,0.0693,-0.0902,-0.0121,-3.75,-37.62,31.13,348.79,-88.71,176.45
58581,52.6186,-1.630732,158.65,22.12,4,203.76,18 / 23,7330713,2019-11-06 18:08:31:175,-0.93,-0.062,9.364,0.0294,-0.0176,9.8065,0.0024,-0.074,0.0803,-4.5,-36.75,30.56,347.32,-88.67,175.02
58582,52.6186,-1.630732,158.65,22.12,4,203.76,18 / 23,7330813,2019-11-06 18:08:31:275,0.0523,0.5287,9.4685,0.0141,0.0064,9.8066,-0.0394,-0.036,0.0442,-4.5,-36.94,31.0,348.39,-88.75,176.04
58583,52.6186,-1.630732,158.65,22.12,4,203.76,20 / 22,7330913,2019-11-06 18:08:31:375,-1.0188,-0.1567,10.5736,0.009,0.0117,9.8066,-0.0207,-0.0035,-0.0032,-3.81,-37.12,30.63,348.16,-88.73,175.82
58584,52.6186,-1.630732,158.65,22.12,4,203.76,20 / 22,7331014,2019-11-06 18:08:31:476,1.0194,0.4168,9.5049,0.0116,0.016,9.8066,0.0205,0.0086,-0.0016,-4.06,-37.37,30.94,348.25,-88.62,175.94
58585,52.6186,-1.630732,158.65,22.12,4,203.76,20 / 22,7331114,2019-11-06 18:08:31:576,-0.9165,0.5556,9.7599,0.0121,0.0107,9.8065,0.0028,0.0148,-0.0161,-3.81,-37.62,31.25,344.52,-88.72,172.29
58586,52.6186,-1.630732,158.65,22.12,4,203.76,20 / 22,7331213,2019-11-06 18:08:31:675,0.1187,0.0124,9.4961,0.0102,0.001,9.8066,-0.0494,-0.0402,0.036,-3.31,-36.94,32.0,351.9,-88.85,177.44
58587,52.6186,-1.630732,158.65,22.12,4,203.76,20 / 22,7331313,2019-11-06 18:08:31:775,-0.2913,-0.706,10.1541,-0.0016,0.014,9.8066,-0.0635,-0.0131,0.0449,-3.69,-36.87,31.38,352.55,-88.95,-179.94
58588,52.6186,-1.630732,158.65,22.12,4,203.76,20 / 22,7331413,2019-11-06 18:08:31:875,0.2316,-1.0475,9.9598,-0.0098,0.0001,9.8066,0.0123,0.0175,-0.0309,-3.25,-36.69,31.0,354.32,-88.74,-180.0
58589,52.6186,-1.630732,158.65,22.12,4,203.76,20 / 22,7331513,2019-11-06 18:08:31:975,0.4796,0.1882,9.3071,0.0091,-0.0034,9.8066,0.0126,-0.0167,-0.0711,-3.81,-36.87,30.81,348.53,-88.67,176.19
58590,52.6186,-1.630732,158.65,22.12,4,203.76,20 / 22,7331613,2019-11-06 18:08:32:075,-1.4278,-1.3545,11.007,0.0152,-0.022,9.8065,-0.0736,-0.2594,0.214,-4.12,-36.69,31.75,354.44,-88.73,-178.29
58591,52.6186,-1.630732,158.65,22.12,4,203.76,20 / 22,7331713,2019-11-06 18:08:32:175,2.7114,-1.1508,10.5261,-0.0578,-0.0157,9.8064,-0.1161,-0.3148,0.2834,-4.25,-37.12,31.75,359.37,-88.7,-173.49
58592,52.6186,-1.630732,158.65,22.12,4,203.76,20 / 22,7331814,2019-11-06 18:08:32:276,-4.2987,-0.861,10.1103,-0.0454,0.019,9.8065,0.07,-0.4163,0.2783,-3.81,-36.69,31.56,349.5,-88.51,176.94
58593,52.61703,-1.63182,159.12,20.32,6,201.78,17 / 21,7331914,2019-11-06 18:08:32:376,1.0926,-0.1216,10.2244,0.0218,0.0227,9.8065,0.1622,-0.4097,0.1573,-3.69,-36.94,31.75,357.31,-88.47,-175.48
58594,52.61703,-1.63182,159.12,20.32,6,201.78,17 / 21,7332014,2019-11-06 18:08:32:476,-2.7298,-0.9698,10.7247,0.0093,0.0423,9.8065,0.1638,-0.3371,0.098,-3.56,-37.12,31.25,357.27,-88.76,-175.31
58595,52.61703,-1.63182,159.12,20.32,6,201.78,17 / 21,7332113,2019-11-06 18:08:32:575,1.022,0.2719,9.3185,-0.0165,0.0189,9.8066,0.0648,-0.2746,0.0756,-4.12,-36.94,31.13,359.3,-88.62,-173.32
58596,52.61703,-1.63182,159.12,20.32,6,201.78,17 / 21,7332213,2019-11-06 18:08:32:675,0.6001,-1.0016,9.7822,0.0402,0.0068,9.8065,-0.076,-0.2508,0.1299,-4.0,-36.94,31.69,352.76,-88.68,-179.92
58597,52.61703,-1.63182,159.12,20.32,6,201.78,17 / 21,7332314,2019-11-06 18:08:32:776,2.2368,-0.0989,9.4523,0.0015,-0.0164,9.8066,-0.1029,-0.1886,0.1347,-4.25,-37.12,31.38,349.49,-88.61,177.15
58598,52.61703,-1.63182,159.12,20.32,6,201.78,17 / 21,7332413,2019-11-06 18:08:32:875,-1.6101,0.2007,9.9226,0.0361,0.0082,9.8066,0.0073,-0.1756,0.0981,-3.62,-37.12,30.94,343.09,-88.78,170.86
58599,52.61703,-1.63182,159.12,20.32,6,201.78,17 / 21,7332514,2019-11-06 18:08:32:976,-0.4286,0.228,10.1155,-0.0034,0.0007,9.8066,0.0698,-0.1306,0.031,-3.81,-36.94,30.5,344.27,-88.78,172.02
58600,52.61703,-1.63182,159.12,20.32,6,201.78,17 / 21,7332613,2019-11-06 18:08:33:075,-1.9487,0.0823,10.1879,0.0144,0.0052,9.8066,-0.0008,-0.0385,0.0203,-3.5,-37.0,31.38,344.9,-88.77,170.81
58601,52.61703,-1.63182,159.12,20.32,6,201.78,17 / 21,7332713,2019-11-06 18:08:33:175,0.7654,0.0454,10.2359,0.0006,-0.0124,9.8066,-0.0759,-0.0143,0.0134,-3.87,-36.19,31.25,342.94,-88.81,170.7
58602,52.61703,-1.63182,159.12,20.32,6,201.78,17 / 21,7332813,2019-11-06 18:08:33:275,0.434,-0.0404,9.5041,0.024,-0.0043,9.8065,-0.0293,0.0199,0.0498,-4.37,-36.5,30.88,338.05,-88.69,165.97
58603,52.61703,-1.63182,159.12,20.32,6,201.78,17 / 22,7332913,2019-11-06 18:08:33:375,0.9873,0.0379,9.6253,0.0038,-0.0143,9.8066,-0.0395,0.1185,-0.0404,-3.5,-36.5,30.38,339.62,-88.67,165.89
58604,52.61703,-1.63182,159.12,20.32,6,201.78,17 / 22,7333013,2019-11-06 18:08:33:475,0.9135,-0.2227,9.9842,0.0017,-0.0106,9.8066,-0.0019,0.1096,-0.0919,-3.87,-36.69,31.13,335.93,-88.59,163.97
58605,52.61703,-1.63182,159.12,20.32,6,201.78,17 / 22,7333113,2019-11-06 18:08:33:575,-0.6738,-1.5296,9.6591,-0.0148,-0.0144,9.8066,-0.0312,0.2248,-0.0914,-4.25,-36.69,31.13,332.8,-88.56,160.94
58606,52.61703,-1.63182,159.12,20.32,6,201.78,17 / 22,7333214,2019-11-06 18:08:33:676,0.1772,-0.5535,10.4284,-0.0225,0.0095,9.8065,-0.0484,0.285,-0.1306,-3.75,-36.56,31.0,337.01,-88.59,165.03
58607,52.61703,-1.63182,159.12,20.32,6,201.78,17 / 22,7333314,2019-11-06 18:08:33:776,-2.0506,0.8195,9.099,-0.0378,0.001,9.8065,0.1167,0.3227,-0.1732,-3.75,-36.94,31.38,335.36,-88.57,163.42
58608,52.61703,-1.63182,159.12,20.32,6,201.78,17 / 22,7333414,2019-11-06 18:08:33:876,3.3669,-0.5995,10.5687,-0.0366,0.001,9.8065,0.1216,0.2969,-0.2219,-3.94,-37.75,31.0,343.3,-88.56,171.16
58609,52.61703,-1.63182,159.12,20.32,6,201.78,17 / 22,7333513,2019-11-06 18:08:33:975,0.7317,-1.0712,11.6811,-0.0495,-0.0043,9.8065,0.067,0.2734,-0.1602,-4.25,-36.87,31.44,349.9,-88.52,177.56
58610,52.61703,-1.63182,159.12,20.32,6,201.78,17 / 22,7333614,2019-11-06 18:08:34:076,1.5397,1.2289,9.0125,0.0026,-0.0447,9.8065,-0.0252,0.2713,-0.1108,-4.19,-36.69,31.0,346.3,-88.28,174.14
58611,52.61703,-1.63182,159.12,20.32,6,201.78,17 / 22,7333714,2019-11-06 18:08:34:176,-0.9925,-1.3981,10.8623,-0.0046,-0.0309,9.8066,-0.1688,0.1668,-0.0219,-4.12,-36.87,31.69,343.85,-88.31,171.52
58612,52.61703,-1.63182,159.12,20.32,6,201.78,17 / 22,7333813,2019-11-06 18:08:34:275,2.0674,0.4362,9.9429,-0.0356,0.0187,9.8066,-0.0814,0.1435,0.0181,-4.37,-36.69,30.94,347.04,-88.4,174.82
58613,52.61703,-1.63182,159.12,20.32,6,201.78,17 / 21,7333914,2019-11-06 18:08:34:376,-2.4,-1.3687,9.5767,-0.0453,0.0184,9.8065,0.0527,0.0308,-0.0894,-4.56,-36.44,31.44,340.45,-88.38,170.24
58614,52.61703,-1.63182,159.12,20.32,6,201.78,17 / 21,7334013,2019-11-06 18:08:34:475,1.857,-0.1024,8.8842,-0.0195,-0.01,9.8066,0.0395,0.0233,-0.0605,-3.94,-37.5,31.38,347.24,-88.56,174.98
58615,52.61703,-1.63182,159.12,20.32,6,201.78,17 / 21,7334114,2019-11-06 18:08:34:576,-0.228,-0.3588,10.1273,-0.008,-0.0022,9.8066,-0.0279,-0.0796,0.0545,-3.94,-36.69,32.13,344.07,-88.65,171.62
58616,52.61703,-1.63182,159.12,20.32,6,201.78,17 / 21,7334214,2019-11-06 18:08:34:676,1.8643,-0.5959,10.3687,-0.0232,-0.0066,9.8066,-0.0785,-0.1406,0.1111,-3.94,-36.94,31.31,351.47,-88.78,179.04
58617,52.61703,-1.63182,159.12,20.32,6,201.78,17 / 21,7334314,2019-11-06 18:08:34:776,-1.9659,0.0776,9.729,-0.0042,-0.0051,9.8066,-0.0093,-0.1519,0.1233,-4.5,-36.44,31.44,352.9,-88.76,-179.57
58618,52.61703,-1.63182,159.12,20.32,6,201.78,17 / 21,7334414,2019-11-06 18:08:34:876,-0.1448,-1.1355,10.7904,-0.0252,0.0038,9.8065,0.0261,-0.1593,0.0402,-4.19,-37.19,30.94,353.31,-88.66,-179.15
58619,52.61703,-1.63182,159.12,20.32,6,201.78,17 / 21,7334514,2019-11-06 18:08:34:976,-1.3884,0.3866,10.3361,0.0104,0.036,9.8065,0.0845,-0.1419,0.0593,-3.94,-37.12,32.25,344.62,-88.82,172.11
58620,52.61703,-1.63182,159.12,20.32,6,201.78,17 / 21,7334614,2019-11-06 18:08:35:076,-0.0332,1.392,9.0059,-0.0021,-0.0015,9.8066,0.0804,-0.0996,0.0382,-3.94,-37.12,31.25,344.28,-88.92,171.98
58621,52.61703,-1.63182,159.12,20.32,6,201.78,17 / 21,7334713,2019-11-06 18:08:35:175,0.6318,0.4552,9.4403,0.003,-0.0014,9.8066,0.0664,0.0507,-0.0738,-4.5,-37.19,31.44,336.55,-88.99,164.38
58622,52.61703,-1.63182,159.12,20.32,6,201.78,17 / 21,7334813,2019-11-06 18:08:35:275,-0.5458,-0.1791,10.1467,0.0177,-0.0144,9.8066,0.0705,0.0667,-0.0398,-4.25,-37.12,31.56,337.69,-88.93,165.28
58623,52.61703,-1.63182,159.12,20.32,6,201.78,19 / 21,7334915,2019-11-06 18:08:35:377,0.4508,-0.1863,9.7496,0.0057,-0.0146,9.8066,-0.0382,0.0761,-0.0465,-4.75,-37.37,31.31,337.25,-88.86,166.94
58624,52.61703,-1.63182,159.12,20.32,6,201.78,19 / 21,7335014,2019-11-06 18:08:35:476,1.009,-0.6766,10.4871,-0.001,-0.0003,9.8066,0.0182,0.0778,0.0064,-3.94,-37.19,31.44,339.62,-88.71,167.51
58625,52.61703,-1.63182,159.12,20.32,6,201.78,19 / 21,7335114,2019-11-06 18:08:35:576,0.3224,0.2783,10.2778,-0.0267,0.009,9.8065,0.0266,-0.044,-0.0524,-4.0,-36.87,31.13,340.88,-88.67,168.76
58626,52.61703,-1.63182,159.12,20.32,6,201.78,19 / 21,7335213,2019-11-06 18:08:35:675,0.5799,0.6395,9.8341,0.0021,-0.0099,9.8066,0.0902,-0.013,-0.0153,-4.25,-37.0,31.38,339.53,-88.63,167.45
58627,52.61703,-1.63182,159.12,20.32,6,201.78,19 / 21,7335314,2019-11-06 18:08:35:776,-1.0562,-0.2878,10.0702,-0.0188,-0.019,9.8066,0.0549,0.0089,-0.0108,-5.06,-36.75,31.69,338.03,-88.51,167.56
58628,52.61703,-1.63182,159.12,20.32,6,201.78,19 / 21,7335414,2019-11-06 18:08:35:876,-0.4409,-0.0625,9.2294,0.0034,-0.0121,9.8066,0.0905,-0.0289,-0.0349,-4.62,-36.81,31.06,343.01,-88.43,172.72
58629,52.61703,-1.63182,159.12,20.32,6,201.78,19 / 21,7335514,2019-11-06 18:08:35:976,-0.4262,0.2822,9.5806,0.0026,-0.0103,9.8066,0.0576,-0.0389,-0.0363,-4.62,-37.25,31.38,345.82,-88.55,175.41
58630,52.61703,-1.63182,159.12,20.32,6,201.78,19 / 21,7335613,2019-11-06 18:08:36:075,0.7546,0.6676,9.5883,-0.014,0.0033,9.8065,-0.0261,-0.1616,0.1233,-4.37,-36.94,31.25,352.0,-88.69,179.57
58631,52.61703,-1.63182,159.12,20.32,6,201.78,19 / 21,7335713,2019-11-06 18:08:36:175,-1.7263,0.6243,9.3293,-0.0146,0.0105,9.8065,-0.0625,-0.1451,0.1223,-4.37,-36.81,30.88,353.06,-88.72,-179.4
58632,52.61703,-1.63182,159.12,20.32,6,201.78,19 / 21,7335813,2019-11-06 18:08:36:275,-1.0352,0.1403,9.3668,-0.0038,-0.0117,9.8066,0.0315,-0.0736,0.0348,-4.69,-36.75,31.06,344.48,-88.6,174.09
58633,52.61703,-1.63182,159.12,20.32,6,201.78,21 / 22,7335914,2019-11-06 18:08:36:376,0.3823,-0.4947,10.6088,-0.0087,0.0051,9.8066,0.0315,-0.0736,0.0348,-4.81,-36.62,31.13,346.27,-88.65,175.82
58634,52.61703,-1.63182,159.12,20.32,6,201.78,21 / 22,7336013,2019-11-06 18:08:36:475,0.1241,-0.7637,10.4325,-0.0105,-0.0047,9.8066,0.0603,-0.1124,0.0811,-4.19,-37.37,31.81,342.9,-88.54,170.52
58635,52.61703,-1.63182,159.12,20.32,6,201.78,21 / 22,7336113,2019-11-06 18:08:36:575,-0.9343,-0.4303,9.7673,-0.0319,-0.0165,9.8065,-0.0572,-0.1616,0.1627,-4.37,-37.37,31.63,341.21,-88.62,168.86
58636,52.61703,-1.63182,159.12,20.32,6,201.78,21 / 22,7336214,2019-11-06 18:08:36:676,1.2796,0.3711,10.0195,-0.0106,-0.0015,9.8066,-0.0213,-0.099,0.0637,-4.12,-36.87,31.44,347.49,-88.58,175.21
58637,52.61703,-1.63182,159.12,20.32,6,201.78,21 / 22,7336314,2019-11-06 18:08:36:776,-0.2774,0.8123,9.832,-0.0124,0.0047,9.8066,0.0335,-0.1117,0.0283,-4.87,-36.5,31.5,350.83,-88.66,179.95
58638,52.61703,-1.63182,159.12,20.32,6,201.78,21 / 22,7336414,2019-11-06 18:08:36:876,1.033,0.5668,9.2931,-0.0031,-0.003,9.8066,0.0626,-0.1197,0.0229,-4.5,-36.87,31.38,349.64,-88.85,177.24
58639,52.61703,-1.63182,159.12,20.32,6,201.78,21 / 22,7336514,2019-11-06 18:08:36:976,-0.1522,0.3335,9.8623,-0.0001,-0.0043,9.8066,0.0347,-0.0949,0.0013,-4.56,-36.87,31.69,342.03,-88.93,171.29
58640,52.61703,-1.63182,159.12,20.32,6,201.78,21 / 22,7336614,2019-11-06 18:08:37:076,1.3563,-0.1792,9.7657,-0.0193,0.0101,9.8066,-0.0131,-0.0688,0.0446,-4.12,-36.69,31.81,343.6,-89.07,171.03
58641,52.61703,-1.63182,159.12,20.32,6,201.78,21 / 22,7336714,2019-11-06 18:08:37:176,-0.8385,-0.573,9.1801,-0.0097,0.0079,9.8065,-0.0186,-0.0415,0.0344,-4.31,-36.87,31.75,337.86,-89.1,165.38
58642,52.61703,-1.63182,159.12,20.32,6,201.78,21 / 22,7336813,2019-11-06 18:08:37:275,0.5693,-1.4034,10.1742,-0.0183,-0.0029,9.8066,-0.011,0.0441,0.0226,-4.31,-36.62,31.13,339.87,-89.15,167.57
58643,52.61703,-1.63182,159.12,20.32,6,201.78,20 / 21,7336914,2019-11-06 18:08:37:376,-1.422,0.3285,10.7099,-0.0042,0.0037,9.8066,0.0173,0.0803,-0.0091,-4.37,-36.5,32.19,342.37,-89.05,169.81
58644,52.61703,-1.63182,159.12,20.32,6,201.78,20 / 21,7337013,2019-11-06 18:08:37:475,1.7869,-0.0388,10.6605,-0.0096,-0.0238,9.8066,-0.0712,0.0443,-0.0722,-5.25,-36.81,32.0,346.45,-89.0,175.6
58645,52.61703,-1.63182,159.12,20.32,6,201.78,20 / 21,7337113,2019-11-06 18:08:37:575,-0.2545,0.0991,8.8479,0.0491,0.0081,9.8065,-0.1488,0.1438,0.0405,-5.19,-36.19,31.94,338.25,-88.98,167.55
58646,52.61703,-1.63182,159.12,20.32,6,201.78,20 / 21,7337214,2019-11-06 18:08:37:676,1.2327,0.916,8.8744,0.0032,0.0013,9.8066,-0.0935,0.1416,-0.0674,-4.5,-36.19,31.81,342.88,-89.04,170.32
58647,52.61703,-1.63182,159.12,20.32,6,201.78,20 / 21,7337314,2019-11-06 18:08:37:776,-0.5464,-0.4287,10.2749,0.0071,0.0305,9.8066,0.0421,0.2044,-0.1552,-4.81,-36.56,31.75,328.78,-89.14,158.18
58648,52.61703,-1.63182,159.12,20.32,6,201.78,20 / 21,7337414,2019-11-06 18:08:37:876,-0.7084,0.6729,10.1558,-0.0223,-0.0002,9.8066,0.0728,0.1227,-0.1431,-4.06,-36.5,31.44,330.08,-89.02,158.0
58649,52.61703,-1.63182,159.12,20.32,6,201.78,20 / 21,7337514,2019-11-06 18:08:37:976,-0.4075,-1.3849,10.068,0.0226,-0.0152,9.8066,-0.0019,0.0992,-0.0057,-5.0,-37.31,31.56,336.75,-89.0,166.09
58650,52.61703,-1.63182,159.12,20.32,6,201.78,20 / 21,7337613,2019-11-06 18:08:38:075,-0.2067,-0.6087,8.788,-0.0083,-0.0136,9.8066,-0.1545,0.1821,0.0106,-4.62,-37.25,32.0,348.02,-89.13,177.11
58651,52.61703,-1.63182,159.12,20.32,6,201.78,20 / 21,7337713,2019-11-06 18:08:38:175,1.4377,-1.3815,9.9933,-0.0279,0.0332,9.8065,-0.1025,0.113,0.0,-4.31,-37.0,32.19,357.85,-89.4,-175.0
58652,52.61703,-1.63182,159.12,20.32,6,201.78,20 / 21,7337814,2019-11-06 18:08:38:276,1.1605,-0.373,9.9986,-0.0359,0.0272,9.8065,0.0747,0.1674,-0.0842,-4.12,-36.81,31.31,353.64,-89.35,-178.92
58653,52.61703,-1.63182,159.12,20.32,6,201.78,19 / 21,7337914,2019-11-06 18:08:38:376,-0.187,-0.2752,9.6841,0.0035,0.003,9.8066,0.0349,0.1921,-0.154,-3.81,-36.94,31.38,5.52,-89.54,-167.18
58654,52.61703,-1.63182,159.12,20.32,6,201.78,19 / 21,7338013,2019-11-06 18:08:38:475,-0.7044,-1.059,10.3932,-0.0039,-0.0182,9.8066,0.0063,0.0865,-0.0565,-4.37,-36.81,32.31,3.44,-89.51,-169.47
58655,52.61703,-1.63182,159.12,20.32,6,201.78,19 / 21,7338114,2019-11-06 18:08:38:576,-0.601,-1.0381,10.1099,0.0017,-0.0064,9.8066,0.0321,0.0658,0.0111,-4.31,-36.62,31.38,1.86,-89.37,-170.81
58656,52.61703,-1.63182,159.12,20.32,6,201.78,19 / 21,7338214,2019-11-06 18:08:38:676,-0.3445,-0.9194,10.0471,-0.0267,-0.0039,9.8066,0.0687,0.0986,-0.0935,-3.81,-36.5,31.5,357.01,-89.26,-175.82
58657,52.61703,-1.63182,159.12,20.32,6,201.78,19 / 21,7338314,2019-11-06 18:08:38:776,1.5417,-1.0095,9.2572,0.0071,-0.0188,9.8066,0.0864,0.0217,-0.0794,-4.25,-36.87,31.25,346.0,-89.17,173.59
58658,52.61703,-1.63182,159.12,20.32,6,201.78,19 / 21,7338414,2019-11-06 18:08:38:876,0.3363,0.4525,9.2481,-0.009,-0.0127,9.8066,-0.0323,0.0302,-0.0079,-3.94,-36.94,31.69,344.28,-89.21,171.65
58659,52.61703,-1.63182,159.12,20.32,6,201.78,19 / 21,7338514,2019-11-06 18:08:38:976,0.6714,-0.1657,10.3275,-0.0049,0.0163,9.8066,-0.0317,0.0665,-0.001,-4.12,-36.69,31.19,341.58,-89.32,169.18
58660,52.61703,-1.63182,159.12,20.32,6,201.78,19 / 21,7338614,2019-11-06 18:08:39:076,-1.482,-0.1857,9.997,-0.0218,-0.0019,9.8066,0.0162,-0.0814,-0.0049,-4.25,-36.69,31.69,335.82,-89.19,163.32
58661,52.61703,-1.63182,159.12,20.32,6,201.78,19 / 21,7338714,2019-11-06 18:08:39:176,-0.5704,1.1916,9.2981,-0.0011,-0.0029,9.8066,0.1233,-0.022,0.0131,-3.56,-37.12,30.88,339.24,-89.19,166.94
58662,52.61703,-1.63182,159.12,20.32,6,201.78,19 / 21,7338814,2019-11-06 18:08:39:276,0.2353,0.0105,10.1859,-0.0124,-0.0021,9.8066,0.0233,0.0083,-0.0456,-4.75,-36.56,31.06,337.5,-89.37,166.95
58663,52.61703,-1.63182,159.12,20.32,6,201.78,19 / 20,7338918,2019-11-06 18:08:39:380,-0.587,0.3059,9.508,-0.0002,-0.0081,9.8066,0.0848,-0.061,0.0327,-4.25,-36.62,31.06,346.91,-89.44,174.41
58664,52.61703,-1.63182,159.12,20.32,6,201.78,19 / 20,7339014,2019-11-06 18:08:39:476,-0.8607,-0.0901,9.3431,0.009,-0.012,9.8066,-0.0154,-0.0456,0.0332,-4.5,-36.69,31.44,351.01,-89.48,178.46
58665,52.61703,-1.63182,159.12,20.32,6,201.78,19 / 20,7339113,2019-11-06 18:08:39:575,0.4942,-0.5495,10.4268,-0.0022,0.0056,9.8066,-0.0714,-0.0488,0.0568,-4.75,-36.06,31.63,343.68,-89.39,172.75
58666,52.61703,-1.63182,159.12,20.32,6,201.78,19 / 20,7339213,2019-11-06 18:08:39:675,-0.7472,0.2917,9.8482,-0.008,0.0056,9.8066,-0.0357,-0.0242,0.073,-4.25,-36.62,31.19,336.88,-89.26,164.58
58667,52.61703,-1.63182,159.12,20.32,6,201.78,19 / 20,7339314,2019-11-06 18:08:39:776,0.1594,0.6758,9.6091,0.0093,0.0047,9.8066,0.0545,-0.0691,-0.0562,-4.25,-36.5,31.75,328.34,-89.23,155.92
58668,52.61703,-1.63182,159.12,20.32,6,201.78,19 / 20,7339414,2019-11-06 18:08:39:876,-0.9751,0.528,10.0079,-0.003,0.0074,9.8066,0.0059,-0.083,0.0686,-4.44,-36.44,31.94,322.57,-89.47,150.06
58669,52.61703,-1.63182,159.12,20.32,6,201.78,19 / 20,7339514,2019-11-06 18:08:39:976,1.0535,0.3925,10.0381,-0.0147,0.0045,9.8066,-0.0071,-0.0753,0.0712,-4.69,-36.69,31.5,312.57,-89.5,141.88
58670,52.61703,-1.63182,159.12,20.32,6,201.78,19 / 20,7339613,2019-11-06 18:08:40:075,1.0853,0.8804,10.3514,-0.0034,0.0133,9.8066,0.0022,0.0342,-0.0156,-4.19,-36.75,31.19,302.61,-89.43,130.53
58671,52.61703,-1.63182,159.12,20.32,6,201.78,19 / 20,7339713,2019-11-06 18:08:40:175,-0.4273,0.8987,9.3381,0.0234,-0.0057,9.8066,0.0247,-0.023,-0.0208,-4.37,-37.37,31.25,289.01,-89.4,117.04
58672,52.61703,-1.63182,159.12,20.32,6,201.78,19 / 20,7339813,2019-11-06 18:08:40:275,0.2746,1.3057,9.8716,0.0003,-0.0175,9.8066,-0.0116,-0.0242,0.0165,-4.12,-36.75,31.25,292.97,-89.4,120.97
58673,52.61703,-1.63182,159.12,20.32,6,201.78,20 / 21,7339914,2019-11-06 18:08:40:376,-0.0595,1.1336,10.0207,-0.0015,0.0105,9.8066,0.0155,-0.0103,0.0233,-4.69,-37.37,31.31,297.46,-89.42,127.24
58674,52.61703,-1.63182,159.12,20.32,6,201.78,20 / 21,7340014,2019-11-06 18:08:40:476,0.4997,0.1149,9.3665,-0.0102,-0.0075,9.8066,-0.0134,-0.0463,0.0424,-4.75,-36.81,31.44,306.71,-89.53,136.32
58675,52.61703,-1.63182,159.12,20.32,6,201.78,20 / 21,7340114,2019-11-06 18:08:40:576,0.1539,-0.0013,10.1403,-0.0169,0.0083,9.8066,-0.1201,0.0257,0.0585,-5.19,-37.12,30.88,317.28,-89.53,146.82
58676,52.61703,-1.63182,159.12,20.32,6,201.78,20 / 21,7340214,2019-11-06 18:08:40:676,-0.4953,0.8709,10.0736,-0.0177,0.0021,9.8066,-0.0397,-0.0214,0.083,-4.37,-37.06,31.94,320.12,-89.47,147.63
58677,52.61703,-1.63182,159.12,20.32,6,201.78,20 / 21,7340314,2019-11-06 18:08:40:776,0.937,-0.313,10.1717,0.011,-0.0209,9.8066,0.0634,0.0346,-0.0785,-4.75,-36.31,31.56,331.49,-89.43,160.67
58678,52.61703,-1.63182,159.12,20.32,6,201.78,20 / 21,7340413,2019-11-06 18:08:40:875,-1.7471,0.0137,9.5411,0.0084,-0.0054,9.8066,-0.0074,0.0848,-0.092,-4.62,-36.62,31.63,340.51,-89.38,169.63
58679,52.61703,-1.63182,159.12,20.32,6,201.78,20 / 21,7340513,2019-11-06 18:08:40:975,-0.2218,0.705,10.2827,-0.035,0.0055,9.8066,-0.0381,0.0775,-0.0424,-5.37,-37.44,31.56,347.56,-89.4,176.59
58680,52.61703,-1.63182,159.12,20.32,6,201.78,20 / 21,7340613,2019-11-06 18:08:41:075,-2.8894,0.6668,10.203,-0.0136,0.0205,9.8066,-0.048,0.0665,-0.0664,-4.94,-36.56,30.88,349.09,-89.53,178.36
58681,52.61703,-1.63182,159.12,20.32,6,201.78,20 / 21,7340713,2019-11-06 18:08:41:175,2.1541,0.678,9.904,-0.0484,-0.0022,9.8065,-0.1206,0.1422,-0.0461,-4.56,-36.56,31.56,351.23,-89.49,-179.8
58682,52.61703,-1.63182,159.12,20.32,6,201.78,20 / 21,7340813,2019-11-06 18:08:41:275,-1.3555,0.5891,9.5345,-0.0139,0.012,9.8065,-0.1067,0.1232,-0.0149,-4.19,-37.25,31.81,329.02,-89.41,156.49
58683,52.615463,-1.632811,159.32,20.64,4,199.62,21 / 22,7340913,2019-11-06 18:08:41:375,1.926,0.787,9.8962,-0.0185,-0.0072,9.8066,0.0454,0.2358,-0.1646,-4.31,-37.12,31.63,329.82,-89.53,157.22
58684,52.615463,-1.632811,159.32,20.64,4,199.62,21 / 22,7341014,2019-11-06 18:08:41:476,-2.098,0.1032,9.4352,0.0436,-0.008,9.8065,0.0374,0.2602,-0.2219,-4.62,-36.69,31.13,305.0,-89.36,134.78
58685,52.615463,-1.632811,159.32,20.64,4,199.62,21 / 22,7341114,2019-11-06 18:08:41:576,-0.8394,-0.5064,10.1417,-0.0051,-0.0192,9.8066,-0.0701,0.2774,-0.0728,-4.75,-36.94,32.25,302.37,-89.5,131.74
58686,52.615463,-1.632811,159.32,20.64,4,199.62,21 / 22,7341214,2019-11-06 18:08:41:676,-3.3535,0.8892,10.0048,0.0035,0.025,9.8066,-0.1249,0.3393,-0.1145,-4.0,-37.06,31.38,302.53,-89.55,130.33
58687,52.615463,-1.632811,159.32,20.64,4,199.62,21 / 22,7341313,2019-11-06 18:08:41:775,-0.0051,0.8505,9.8178,-0.0549,0.0166,9.8064,0.0172,0.3139,-0.2035,-4.25,-36.56,31.94,299.72,-89.61,127.23
58688,52.615463,-1.632811,159.32,20.64,4,199.62,21 / 22,7341414,2019-11-06 18:08:41:876,1.6921,2.0242,10.1796,0.0222,-0.0021,9.8066,0.0812,0.3512,-0.1951,-4.56,-36.5,31.63,306.26,-89.74,135.37
58689,52.615463,-1.632811,159.32,20.64,4,199.62,21 / 22,7341514,2019-11-06 18:08:41:976,3.7169,0.8077,9.6987,-0.037,-0.0251,9.8065,0.0375,0.3513,-0.2408,-3.37,-36.19,31.44,341.66,-89.78,167.27
58690,52.615463,-1.632811,159.32,20.64,4,199.62,21 / 22,7341614,2019-11-06 18:08:42:076,-1.9093,-0.6176,10.4093,0.0197,-0.0011,9.8065,-0.0231,0.2569,-0.1561,-3.87,-36.94,31.31,298.33,-89.68,126.02
58691,52.615463,-1.632811,159.32,20.64,4,199.62,21 / 22,7341714,2019-11-06 18:08:42:176,-1.0181,0.2513,9.1652,-0.0408,0.0,9.8065,-0.0672,0.1405,-0.041,-3.75,-36.5,30.25,291.62,-89.59,119.67
58692,52.615463,-1.632811,159.32,20.64,4,199.62,21 / 22,7341814,2019-11-06 18:08:42:276,3.4789,-0.9086,10.2632,-0.0038,0.0012,9.8066,-0.0048,0.0677,0.0086,-4.12,-36.56,31.38,293.63,-89.56,121.46
58693,52.615463,-1.632811,159.32,20.64,4,199.62,22 / 22,7341914,2019-11-06 18:08:42:376,1.8141,-0.0072,10.0692,-0.0204,-0.0022,9.8066,0.0983,0.0545,-0.1561,-4.06,-36.37,30.81,280.88,-89.31,109.02
58694,52.615463,-1.632811,159.32,20.64,4,199.62,22 / 22,7342014,2019-11-06 18:08:42:476,-0.1677,1.4975,9.894,0.0269,-0.0094,9.8066,-0.0446,0.0299,-0.0256,-4.5,-36.56,31.06,276.71,-89.3,104.89
58695,52.615463,-1.632811,159.32,20.64,4,199.62,22 / 22,7342113,2019-11-06 18:08:42:575,-0.2182,0.5249,9.3143,-0.0101,-0.0035,9.8066,-0.1603,0.0253,0.1224,-4.5,-36.81,31.63,278.89,-89.39,106.71
58696,52.615463,-1.632811,159.32,20.64,4,199.62,22 / 22,7342213,2019-11-06 18:08:42:675,-0.973,0.6014,9.8453,-0.0279,0.023,9.8066,-0.075,-0.017,0.0825,-4.62,-36.37,31.56,281.48,-89.41,111.01
58697,52.615463,-1.632811,159.32,20.64,4,199.62,22 / 22,7342314,2019-11-06 18:08:42:776,-0.4181,0.3657,9.9996,-0.0316,0.011,9.8066,-0.0093,-0.0541,0.017,-4.5,-36.5,30.94,291.79,-89.43,119.76
58698,52.615463,-1.632811,159.32,20.64,4,199.62,22 / 22,7342414,2019-11-06 18:08:42:876,0.0152,0.0524,9.3663,-0.0022,-0.0186,9.8066,0.1184,0.0273,-0.0724,-4.19,-36.81,31.38,305.27,-89.56,133.05
58699,52.615463,-1.632811,159.32,20.64,4,199.62,22 / 22,7342514,2019-11-06 18:08:42:976,-1.0265,-0.5415,9.5332,0.0216,-0.0345,9.8065,0.1611,-0.0314,-0.0884,-4.5,-36.5,31.44,300.54,-89.67,128.22
58700,52.615463,-1.632811,159.32,20.64,4,199.62,22 / 22,7342614,2019-11-06 18:08:43:076,0.1963,0.3623,9.914,-0.0022,0.0005,9.8066,-0.0043,0.0925,-0.0561,-4.87,-36.56,31.63,301.12,-89.66,130.33
58701,52.615463,-1.632811,159.32,20.64,4,199.62,22 / 22,7342714,2019-11-06 18:08:43:176,1.4952,0.1491,9.794,0.0251,-0.0078,9.8066,-0.0502,0.169,-0.0365,-4.5,-36.87,31.44,298.08,-89.52,125.94
58702,52.615463,-1.632811,159.32,20.64,4,199.62,22 / 22,7342814,2019-11-06 18:08:43:276,1.4957,0.2384,9.6189,-0.0075,0.0106,9.8065,-0.0694,0.0801,-0.022,-4.75,-36.87,31.63,306.7,-89.52,136.03
58703,52.615463,-1.632811,159.32,20.64,4,199.62,21 / 22,7342914,2019-11-06 18:08:43:376,-0.385,0.3553,10.2437,0.0007,0.0202,9.8066,-0.0221,0.0549,0.0218,-4.37,-36.62,31.75,315.41,-89.45,142.98
58704,52.615463,-1.632811,159.32,20.64,4,199.62,21 / 22,7343014,2019-11-06 18:08:43:476,0.4164,0.3109,9.7037,0.0055,-0.0125,9.8066,-0.0127,0.0118,-0.0079,-4.0,-36.56,31.5,307.73,-89.4,135.4
58705,52.615463,-1.632811,159.32,20.64,4,199.62,21 / 22,7343114,2019-11-06 18:08:43:576,-0.7113,-1.0457,10.344,0.0096,-0.004,9.8066,0.048,0.0331,-0.0573,-4.31,-36.19,31.25,313.64,-89.48,141.42
58706,52.615463,-1.632811,159.32,20.64,4,199.62,21 / 22,7343213,2019-11-06 18:08:43:675,1.134,-0.855,9.2081,-0.0047,-0.0237,9.8066,0.0489,0.0094,-0.0004,-4.44,-36.75,31.31,324.52,-89.53,152.2
58707,52.615463,-1.632811,159.32,20.64,4,199.62,21 / 22,7343313,2019-11-06 18:08:43:775,0.3728,0.1601,10.0007,0.0067,-0.0043,9.8066,0.0109,0.0545,-0.036,-4.87,-36.94,31.0,330.67,-89.65,160.03
58708,52.615463,-1.632811,159.32,20.64,4,199.62,21 / 22,7343413,2019-11-06 18:08:43:875,0.7814,-0.4727,9.788,-0.0157,-0.0187,9.8066,-0.0017,0.0796,0.0181,-4.75,-36.56,31.63,340.55,-89.48,169.63
58709,52.615463,-1.632811,159.32,20.64,4,199.62,21 / 22,7343513,2019-11-06 18:08:43:975,-1.0015,-0.4373,9.3904,0.0018,0.0332,9.8065,-0.1068,0.092,-0.0413,-4.25,-37.25,31.5,339.39,-89.38,166.77
58710,52.615463,-1.632811,159.32,20.64,4,199.62,21 / 22,7343613,2019-11-06 18:08:44:075,0.6539,0.0868,10.0795,-0.0096,0.006,9.8066,-0.1593,0.0705,0.0563,-4.31,-37.12,31.69,306.61,-89.65,134.06
58711,52.615463,-1.632811,159.32,20.64,4,199.62,21 / 22,7343713,2019-11-06 18:08:44:175,-0.1191,-0.8372,10.4393,-0.0024,0.004,9.8066,-0.0357,0.0165,0.0172,-5.06,-36.62,31.69,262.07,-89.67,91.33
58712,52.615463,-1.632811,159.32,20.64,4,199.62,21 / 22,7343813,2019-11-06 18:08:44:275,0.0075,0.9786,9.0665,-0.007,-0.0149,9.8066,0.0439,0.0505,-0.0423,-4.5,-36.44,31.38,253.06,-89.7,80.74
58713,52.615463,-1.632811,159.32,20.64,4,199.62,21 / 21,7343914,2019-11-06 18:08:44:376,1.1964,-1.4421,10.9193,0.0158,-0.0333,9.8065,0.2048,0.0676,-0.0636,-4.56,-36.69,31.56,229.08,-89.81,58.13
58714,52.615463,-1.632811,159.32,20.64,4,199.62,21 / 21,7344013,2019-11-06 18:08:44:475,-0.0564,-0.7651,11.698,-0.0247,0.0332,9.8065,0.1063,-0.1136,-0.0883,-4.94,-36.69,31.5,162.52,-89.88,-8.64
58715,52.615463,-1.632811,159.32,20.64,4,199.62,21 / 21,7344113,2019-11-06 18:08:44:575,-0.26,-2.3031,9.7078,-0.0447,0.0083,9.8064,-0.0646,-0.1174,0.0697,-5.06,-36.75,31.94,71.32,-89.81,-100.01
58716,52.615463,-1.632811,159.32,20.64,4,199.62,21 / 21,7344214,2019-11-06 18:08:44:676,2.2414,0.5293,9.5531,0.0129,0.0078,9.8066,0.0271,-0.2831,0.2209,-4.25,-36.37,31.19,313.18,-89.88,140.63
58717,52.615463,-1.632811,159.32,20.64,4,199.62,21 / 21,7344314,2019-11-06 18:08:44:776,0.6271,-0.44,8.2363,-0.0134,-0.0421,9.8065,0.0923,-0.2259,0.1012,-4.69,-36.94,31.69,312.95,-89.88,141.93
58718,52.615463,-1.632811,159.32,20.64,4,199.62,21 / 21,7344414,2019-11-06 18:08:44:876,0.4963,1.0622,10.2164,-0.005,0.0173,9.8066,0.0633,-0.0601,-0.0547,-4.06,-37.19,31.38,346.15,-89.83,173.55
58719,52.615463,-1.632811,159.32,20.64,4,199.62,21 / 21,7344514,2019-11-06 18:08:44:976,-1.9339,-0.345,10.0216,-0.0196,0.0086,9.8065,0.08,-0.0584,-0.1037,-4.94,-36.62,31.0,327.37,-89.72,156.71
58720,52.615463,-1.632811,159.32,20.64,4,199.62,21 / 21,7344613,2019-11-06 18:08:45:075,0.1324,0.2083,9.4522,-0.0168,-0.0088,9.8066,-0.0041,0.0718,-0.0258,-4.62,-37.0,31.69,322.07,-89.62,151.21
58721,52.615463,-1.632811,159.32,20.64,4,199.62,21 / 21,7344715,2019-11-06 18:08:45:177,-0.5663,-1.08,10.7018,-0.022,-0.005,9.8066,-0.1101,-0.0161,0.0268,-5.0,-36.31,31.06,324.57,-89.53,154.05
58722,52.615463,-1.632811,159.32,20.64,4,199.62,21 / 21,7344813,2019-11-06 18:08:45:275,0.2278,0.1557,9.0144,-0.0099,-0.0221,9.8066,-0.0526,0.1001,-0.0194,-5.06,-36.5,31.75,328.38,-89.57,157.51
58723,52.615463,-1.632811,159.32,20.64,4,199.62,23 / 24,7344914,2019-11-06 18:08:45:376,-0.2244,0.4923,8.8597,-0.0191,-0.0157,9.8065,0.0028,0.0292,-0.0654,-5.37,-36.69,31.63,330.69,-89.73,159.72
58724,52.615463,-1.632811,159.32,20.64,4,199.62,23 / 24,7345013,2019-11-06 18:08:45:475,1.2338,-0.8147,10.3491,-0.0233,0.0196,9.8066,0.0908,0.1095,-0.0587,-4.81,-37.31,31.13,337.42,-89.71,166.71
58725,52.615463,-1.632811,159.32,20.64,4,199.62,23 / 24,7345113,2019-11-06 18:08:45:575,-1.4304,-0.5623,9.7425,-0.0109,-0.0107,9.8066,0.076,0.0536,-0.1051,-4.81,-36.12,31.56,349.78,-89.74,178.71
58726,52.615463,-1.632811,159.32,20.64,4,199.62,23 / 24,7345214,2019-11-06 18:08:45:676,0.3573,0.2226,10.0614,-0.0036,-0.0139,9.8066,-0.0384,0.2045,-0.0524,-5.12,-36.69,31.38,331.43,-89.58,160.83
58727,52.615463,-1.632811,159.32,20.64,4,199.62,23 / 24,7345314,2019-11-06 18:08:45:776,-2.0393,-1.7221,10.1991,-0.0044,-0.0125,9.8066,-0.0192,0.3043,-0.1586,-4.56,-36.69,31.0,319.04,-89.66,148.47
58728,52.615463,-1.632811,159.32,20.64,4,199.62,23 / 24,7345413,2019-11-06 18:08:45:875,0.8855,0.4788,9.3908,-0.0483,0.0013,9.8064,-0.0695,0.2966,-0.1614,-5.19,-36.87,31.13,351.15,-89.81,-179.65
58729,52.615463,-1.632811,159.32,20.64,4,199.62,23 / 24,7345516,2019-11-06 18:08:45:978,-3.5895,0.1105,9.793,-0.0128,-0.0094,9.8066,-0.0315,0.3963,-0.1182,-5.0,-36.44,31.44,349.03,-89.89,178.22
58730,52.615463,-1.632811,159.32,20.64,4,199.62,23 / 24,7345614,2019-11-06 18:08:46:076,2.293,1.8567,9.2645,-0.0486,-0.0213,9.8065,-0.0485,0.3289,-0.1364,-4.94,-36.75,31.56,62.81,-89.68,-108.64
58731,52.615463,-1.632811,159.32,20.64,4,199.62,23 / 24,7345714,2019-11-06 18:08:46:176,0.0047,-0.5333,9.885,0.0095,-0.0119,9.8066,0.0132,0.2525,-0.1167,-4.81,-37.0,31.5,18.8,-89.6,-152.47
58732,52.615463,-1.632811,159.32,20.64,4,199.62,23 / 24,7345813,2019-11-06 18:08:46:275,3.0341,-0.794,9.1521,-0.0343,-0.0258,9.8065,-0.0306,0.1968,-0.1357,-4.81,-36.5,31.56,20.8,-89.42,-150.55
58733,52.615463,-1.632811,159.32,20.64,4,199.62,22 / 22,7345913,2019-11-06 18:08:46:375,-0.293,-2.3368,10.4145,0.0187,0.0066,9.8066,-0.0477,0.047,0.0487,-5.19,-36.75,31.63,4.62,-89.39,-166.55
58734,52.615463,-1.632811,159.32,20.64,4,199.62,22 / 22,7346014,2019-11-06 18:08:46:476,1.5688,0.4265,10.1067,-0.0138,-0.0145,9.8066,-0.0917,0.0791,0.0809,-4.81,-36.62,32.13,10.9,-89.5,-160.33
58735,52.615463,-1.632811,159.32,20.64,4,199.62,22 / 22,7346114,2019-11-06 18:08:46:576,1.0186,-0.3751,9.931,0.0368,0.004,9.8065,0.0808,0.0504,-0.1017,-5.25,-37.37,32.06,11.86,-89.55,-159.37
58736,52.615463,-1.632811,159.32,20.64,4,199.62,22 / 22,7346213,2019-11-06 18:08:46:675,2.3049,-0.3785,9.4611,-0.0685,0.0284,9.8063,0.1436,0.0318,-0.1659,-4.87,-36.94,32.0,16.87,-89.7,-154.35
58737,52.615463,-1.632811,159.32,20.64,4,199.62,22 / 22,7346313,2019-11-06 18:08:46:775,-1.7529,-1.6434,9.6084,-0.0301,0.0513,9.8064,0.1036,0.0261,-0.1114,-4.37,-36.25,31.69,33.95,-89.88,-139.0
58738,52.615463,-1.632811,159.32,20.64,4,199.62,22 / 22,7346414,2019-11-06 18:08:46:876,0.0624,-1.0145,9.45,-0.0089,-0.0331,9.8065,-0.0056,0.0044,-0.0297,-4.37,-36.37,31.19,355.11,-89.77,-177.51
58739,52.615463,-1.632811,159.32,20.64,4,199.62,22 / 22,7346513,2019-11-06 18:08:46:975,-0.0243,-0.6149,10.7211,0.0138,-0.0164,9.8066,-0.134,0.0724,0.0517,-4.44,-36.75,31.38,3.43,-89.83,-169.23
58740,52.615463,-1.632811,159.32,20.64,4,199.62,22 / 22,7346613,2019-11-06 18:08:47:075,2.0398,-1.0745,11.1911,-0.0348,-0.007,9.8065,-0.0983,0.0092,0.0534,-4.31,-36.87,31.81,25.15,-89.78,-147.84
58741,52.615463,-1.632811,159.32,20.64,4,199.62,22 / 22,7346713,2019-11-06 18:08:47:175,-1.563,0.1488,9.3498,-0.0107,0.018,9.8066,0.0853,-0.0249,-0.0564,-4.69,-37.06,31.75,6.08,-89.77,-165.07
58742,52.615463,-1.632811,159.32,20.64,4,199.62,22 / 22,7346813,2019-11-06 18:08:47:275,0.2541,0.2765,9.3837,-0.0156,-0.0017,9.8066,0.1006,-0.0603,-0.0826,-5.06,-37.0,31.5,3.75,-89.83,-167.39
58743,52.615463,-1.632811,159.32,20.64,4,199.62,22 / 23,7346913,2019-11-06 18:08:47:375,1.7021,0.0252,9.8729,0.0119,0.0091,9.8066,0.0075,-0.1724,0.1166,-4.94,-36.81,31.5,10.66,-89.97,-160.46
58744,52.615463,-1.632811,159.32,20.64,4,199.62,22 / 23,7347014,2019-11-06 18:08:47:476,-1.6571,-0.0776,10.0321,0.0131,-0.0027,9.8066,0.0401,-0.1833,0.121,-4.19,-37.12,31.44,81.69,-89.85,-91.13
58745,52.615463,-1.632811,159.32,20.64,4,199.62,22 / 23,7347114,2019-11-06 18:08:47:576,-0.2164,-0.3845,9.6456,0.0187,0.0103,9.8066,0.0491,-0.1907,0.0509,-4.62,-37.31,31.69,86.09,-89.81,-85.25
58746,52.615463,-1.632811,159.32,20.64,4,199.62,22 / 23,7347214,2019-11-06 18:08:47:676,-0.5138,0.2436,9.7125,0.0162,0.0108,9.8066,-0.0324,-0.1089,0.0703,-4.69,-37.0,31.81,87.05,-89.88,-84.21
58747,52.615463,-1.632811,159.32,20.64,4,199.62,22 / 23,7347313,2019-11-06 18:08:47:775,0.2779,1.205,9.2858,0.0182,0.0297,9.8065,-0.0473,0.0306,0.0075,-4.19,-37.0,31.44,174.46,-89.79,1.78
58748,52.615463,-1.632811,159.32,20.64,4,199.62,22 / 23,7347414,2019-11-06 18:08:47:876,-0.6657,1.1943,9.5528,-0.0073,0.0239,9.8066,0.0002,0.1075,-0.0466,-4.19,-37.0,31.44,192.6,-89.76,20.02
58749,52.615463,-1.632811,159.32,20.64,4,199.62,22 / 23,7347514,2019-11-06 18:08:47:976,1.0719,-1.2051,9.8175,0.0082,0.0027,9.8066,0.0263,-0.0118,-0.0437,-4.44,-36.62,31.38,207.12,-89.7,34.63
58750,52.615463,-1.632811,159.32,20.64,4,199.62,22 / 23,7347613,2019-11-06 18:08:48:075,0.3356,0.9317,9.7708,0.0009,0.0202,9.8066,-0.1584,0.0024,0.0725,-4.19,-37.19,30.81,195.95,-89.56,23.45
58751,52.615463,-1.632811,159.32,20.64,4,199.62,22 / 23,7347713,2019-11-06 18:08:48:175,-0.4792,-1.0516,9.6202,-0.0185,-0.0113,9.8066,-0.0619,-0.0863,0.0607,-4.12,-36.44,31.44,217.23,-89.54,44.9
58752,52.615463,-1.632811,159.32,20.64,4,199.62,22 / 23,7347814,2019-11-06 18:08:48:276,1.3725,0.8512,9.9813,-0.0199,-0.0142,9.8065,0.0701,-0.1147,-0.0012,-4.12,-37.56,31.75,238.2,-89.68,65.64
58753,52.615463,-1.632811,159.32,20.64,4,199.62,22 / 23,7347914,2019-11-06 18:08:48:376,-0.987,0.2996,10.0204,-0.016,-0.0039,9.8066,0.0946,-0.1724,0.131,-3.5,-37.0,31.56,237.4,-89.77,62.97
58754,52.615463,-1.632811,159.32,20.64,4,199.62,22 / 23,7348014,2019-11-06 18:08:48:476,1.3796,-0.2377,9.6079,-0.0263,-0.0109,9.8066,0.0191,-0.1626,0.0649,-4.31,-36.94,31.69,212.93,-89.75,40.21
58755,52.615463,-1.632811,159.32,20.64,4,199.62,22 / 23,7348114,2019-11-06 18:08:48:576,-1.1009,-1.0088,9.4039,-0.0105,-0.0028,9.8066,-0.0471,-0.1088,0.0926,-4.5,-37.0,31.56,209.78,-89.72,37.06
58756,52.615463,-1.632811,159.32,20.64,4,199.62,22 / 23,7348213,2019-11-06 18:08:48:675,0.7815,0.0034,10.2759,-0.0274,0.0069,9.8066,-0.0089,-0.0941,0.0908,-4.62,-36.62,30.69,181.18,-89.71,10.35
58757,52.615463,-1.632811,159.32,20.64,4,199.62,22 / 23,7348313,2019-11-06 18:08:48:775,0.6866,-0.3062,10.2944,-0.0081,0.0127,9.8066,0.0427,0.037,-0.0102,-5.06,-36.87,31.56,218.65,-89.76,47.7
58758,52.615463,-1.632811,159.32,20.64,4,199.62,22 / 23,7348413,2019-11-06 18:08:48:875,-0.1134,-1.449,8.9001,0.0097,-0.0037,9.8066,-0.0025,0.0444,-0.0578,-4.44,-36.87,30.69,230.1,-89.73,57.7
58759,52.615463,-1.632811,159.32,20.64,4,199.62,22 / 23,7348513,2019-11-06 18:08:48:975,0.262,-0.8579,10.4399,-0.0027,-0.0115,9.8066,0.1277,0.1457,-0.1017,-4.25,-36.87,30.75,205.54,-89.71,33.04
58760,52.615463,-1.632811,159.32,20.64,4,199.62,22 / 23,7348613,2019-11-06 18:08:49:075,-1.7723,-2.0292,10.0726,0.0376,-0.0267,9.8065,0.1559,0.2176,-0.1689,-4.81,-36.25,31.5,210.74,-89.69,39.79
58761,52.615463,-1.632811,159.32,20.64,4,199.62,22 / 23,7348714,2019-11-06 18:08:49:176,1.1242,1.0552,9.5835,0.0131,-0.0077,9.8066,-0.0307,0.2582,-0.101,-4.5,-37.31,30.75,176.27,-89.81,3.61
58762,52.615463,-1.632811,159.32,20.64,4,199.62,22 / 23,7348814,2019-11-06 18:08:49:276,-0.1418,-1.5943,10.3373,0.0093,0.0203,9.8066,-0.1395,0.2258,-0.031,-4.69,-37.25,31.25,206.51,-89.85,35.75
58763,52.615463,-1.632811,159.32,20.64,4,199.62,22 / 23,7348916,2019-11-06 18:08:49:378,2.169,-0.664,10.0049,-0.0153,0.0147,9.8065,-0.0154,0.1604,-0.1113,-5.19,-37.0,32.06,177.42,-89.79,6.29
58764,52.615463,-1.632811,159.32,20.64,4,199.62,22 / 23,7349013,2019-11-06 18:08:49:475,-1.3066,0.3798,9.6802,0.0291,-0.0042,9.8066,0.0261,0.0645,-0.0791,-5.19,-36.87,31.56,194.68,-89.74,23.64
58765,52.615463,-1.632811,159.32,20.64,4,199.62,22 / 23,7349113,2019-11-06 18:08:49:575,-0.1803,-0.6878,10.6588,0.0043,-0.0192,9.8066,0.0506,0.0579,-0.0501,-5.0,-36.87,31.5,174.55,-89.74,3.4
58766,52.615463,-1.632811,159.32,20.64,4,199.62,22 / 23,7349214,2019-11-06 18:08:49:676,-0.2671,-1.3045,10.8351,-0.0019,0.0088,9.8066,-0.0128,-0.0275,0.0392,-5.06,-36.94,31.19,157.74,-89.8,-13.18
58767,52.615463,-1.632811,159.32,20.64,4,199.62,22 / 23,7349314,2019-11-06 18:08:49:776,-0.7808,0.5753,9.4706,-0.0028,-0.0052,9.8066,-0.0711,-0.031,0.0271,-4.31,-36.87,30.94,123.3,-89.91,-49.44
58768,52.615463,-1.632811,159.32,20.64,4,199.62,22 / 23,7349415,2019-11-06 18:08:49:877,0.1273,-0.5948,10.0267,-0.0041,0.0074,9.8066,-0.0532,0.0364,0.0344,-4.31,-36.62,31.5,70.22,-89.96,-102.7
58769,52.615463,-1.632811,159.32,20.64,4,199.62,22 / 23,7349514,2019-11-06 18:08:49:976,0.0511,-0.213,10.1889,-0.005,-0.0009,9.8066,0.0518,-0.0027,-0.0297,-4.19,-36.81,31.5,359.79,-89.88,-173.09
58770,52.615463,-1.632811,159.32,20.64,4,199.62,22 / 23,7349614,2019-11-06 18:08:50:076,-0.616,-0.6345,8.9165,-0.0003,-0.0043,9.8066,0.0452,0.0215,0.0491,-4.69,-36.62,31.56,24.19,-89.84,-147.0
58771,52.615463,-1.632811,159.32,20.64,4,199.62,22 / 23,7349713,2019-11-06 18:08:50:175,-0.3467,-0.6638,10.5465,-0.0081,-0.008,9.8066,0.0667,0.0302,0.026,-4.94,-36.44,31.31,117.66,-89.91,-53.28
58772,52.615463,-1.632811,159.32,20.64,4,199.62,22 / 23,7349814,2019-11-06 18:08:50:276,-1.3651,-0.28,9.5379,0.0363,-0.0022,9.8065,-0.0265,0.0331,-0.0265,-4.69,-36.87,31.69,55.83,-89.94,-115.35
58773,52.613903,-1.633693,160.03,21.04,4,199.04,21 / 23,7349914,2019-11-06 18:08:50:376,1.2832,-0.0377,10.0964,0.006,-0.0142,9.8066,0.0442,0.0516,-0.0053,-4.56,-36.75,31.5,33.68,-89.93,-137.49
58774,52.613903,-1.633693,160.03,21.04,4,199.04,21 / 23,7350013,2019-11-06 18:08:50:475,-0.9166,0.2734,9.1248,0.0271,-0.0088,9.8066,0.0892,-0.0011,-0.0992,-5.25,-36.69,31.75,17.17,-89.89,-153.98
58775,52.613903,-1.633693,160.03,21.04,4,199.04,21 / 23,7350114,2019-11-06 18:08:50:576,0.0423,0.7967,8.8606,0.0104,-0.0111,9.8066,0.115,-0.0447,-0.0535,-4.69,-37.19,31.19,43.31,-89.86,-127.64
58776,52.613903,-1.633693,160.03,21.04,4,199.04,21 / 23,7350214,2019-11-06 18:08:50:676,-0.6721,-0.8548,9.9384,-0.003,0.0296,9.8066,-0.0635,-0.0348,0.068,-4.62,-37.06,31.25,260.83,-90.0,90.0
58777,52.613903,-1.633693,160.03,21.04,4,199.04,21 / 23,7350313,2019-11-06 18:08:50:775,-0.1118,-0.7649,9.7948,-0.0009,-0.0013,9.8066,-0.0907,-0.0473,0.066,-4.69,-36.87,31.44,288.21,-89.89,117.5
58778,52.613903,-1.633693,160.03,21.04,4,199.04,21 / 23,7350413,2019-11-06 18:08:50:875,-0.909,-0.0337,10.1361,0.0213,-0.0063,9.8065,0.0208,-0.065,0.0327,-4.19,-37.25,31.38,285.49,-89.8,113.06
58779,52.613903,-1.633693,160.03,21.04,4,199.04,21 / 23,7350513,2019-11-06 18:08:50:975,1.0812,-0.2169,9.92,0.0009,-0.01,9.8065,0.0089,-0.0255,0.0485,-4.94,-36.87,31.13,274.01,-89.81,103.4
58780,52.613903,-1.633693,160.03,21.04,4,199.04,21 / 23,7350613,2019-11-06 18:08:51:075,-0.6798,-0.5318,9.2346,0.0118,-0.0063,9.8066,0.1073,-0.0282,-0.0008,-4.12,-36.94,31.88,296.65,-89.82,123.95
58781,52.613903,-1.633693,160.03,21.04,4,199.04,21 / 23,7350713,2019-11-06 18:08:51:175,0.0285,-0.6389,9.068,0.0212,-0.0123,9.8066,0.027,0.0431,-0.0624,-4.56,-36.87,31.5,334.44,-89.86,163.39
58782,52.613903,-1.633693,160.03,21.04,4,199.04,21 / 23,7350813,2019-11-06 18:08:51:275,0.2749,-0.476,10.4453,-0.0123,0.0099,9.8065,0.068,0.0119,-0.0389,-5.0,-36.44,31.5,334.18,-89.81,163.15
58783,52.613903,-1.633693,160.03,21.04,4,199.04,23 / 24,7350913,2019-11-06 18:08:51:375,-1.2828,0.4892,9.1589,-0.0235,0.0175,9.8066,0.0151,-0.0939,0.0253,-5.37,-36.19,31.31,342.19,-89.77,171.43
58784,52.613903,-1.633693,160.03,21.04,4,199.04,23 / 24,7351014,2019-11-06 18:08:51:476,-1.3451,0.598,9.0644,0.0043,0.0127,9.8066,-0.1123,-0.1418,0.0956,-4.5,-36.81,30.81,329.49,-89.84,156.94
58785,52.613903,-1.633693,160.03,21.04,4,199.04,23 / 24,7351114,2019-11-06 18:08:51:576,0.3878,-0.8952,10.4558,-0.0318,-0.0002,9.8065,-0.1001,-0.1165,0.0662,-4.94,-36.19,31.19,357.54,-89.79,-173.29
58786,52.613903,-1.633693,160.03,21.04,4,199.04,23 / 24,7351213,2019-11-06 18:08:51:675,0.7937,1.4188,8.3573,0.0425,-0.0185,9.8065,-0.1181,-0.1075,0.1285,-4.75,-37.06,30.75,309.27,-89.58,138.81
58787,52.613903,-1.633693,160.03,21.04,4,199.04,23 / 24,7351313,2019-11-06 18:08:51:775,0.6837,0.0773,8.7064,0.0339,-0.0403,9.8065,-0.07,-0.0198,0.0483,-5.5,-36.25,30.56,265.79,-89.72,95.27
58788,52.613903,-1.633693,160.03,21.04,4,199.04,23 / 24,7351413,2019-11-06 18:08:51:875,1.4264,0.5788,10.5107,-0.0092,-0.0159,9.8066,0.1493,0.0955,-0.1747,-4.06,-36.31,30.56,297.4,-89.55,125.21
58789,52.613903,-1.633693,160.03,21.04,4,199.04,23 / 24,7351513,2019-11-06 18:08:51:975,-1.4571,-0.1008,9.3072,-0.0324,-0.0013,9.8066,0.1345,0.0107,-0.1101,-4.44,-36.94,30.94,300.18,-89.45,128.1
58790,52.613903,-1.633693,160.03,21.04,4,199.04,23 / 24,7351613,2019-11-06 18:08:52:075,0.8979,0.0714,10.7059,-0.0269,0.0041,9.8066,-0.0512,0.0861,-0.039,-4.25,-36.87,30.69,315.31,-89.54,143.04
58791,52.613903,-1.633693,160.03,21.04,4,199.04,23 / 24,7351713,2019-11-06 18:08:52:175,0.4436,-0.1829,10.4201,-0.0006,-0.0107,9.8066,-0.0702,0.016,0.038,-4.94,-36.75,30.88,308.52,-89.48,138.16
58792,52.613903,-1.633693,160.03,21.04,4,199.04,23 / 24,7351813,2019-11-06 18:08:52:275,-0.1938,0.2795,9.587,0.0152,-0.0248,9.8066,-0.021,0.0435,0.0435,-4.37,-36.75,30.81,315.52,-89.4,143.37
58793,52.613903,-1.633693,160.03,21.04,4,199.04,22 / 23,7351913,2019-11-06 18:08:52:375,0.3074,-1.1396,10.2376,0.0069,-0.0119,9.8066,-0.0024,0.0406,-0.0321,-4.81,-36.81,31.13,321.14,-89.48,150.69
58794,52.613903,-1.633693,160.03,21.04,4,199.04,22 / 23,7352014,2019-11-06 18:08:52:476,-1.121,0.3457,9.2671,-0.0187,0.0179,9.8065,0.1089,0.0459,-0.0581,-4.25,-36.44,31.13,324.75,-89.51,152.42
58795,52.613903,-1.633693,160.03,21.04,4,199.04,22 / 23,7352114,2019-11-06 18:08:52:576,-1.1154,0.4288,10.5197,-0.02,0.0284,9.8065,0.0952,0.1101,-0.1495,-4.62,-37.06,31.13,322.19,-89.47,151.73
58796,52.613903,-1.633693,160.03,21.04,4,199.04,22 / 23,7352214,2019-11-06 18:08:52:676,-0.7349,0.0482,9.6854,-0.0054,-0.0214,9.8065,0.0506,-0.0928,-0.063,-4.37,-36.81,31.69,324.0,-89.39,151.54
58797,52.613903,-1.633693,160.03,21.04,4,199.04,22 / 23,7352313,2019-11-06 18:08:52:775,1.2075,-0.3422,10.6371,-0.011,-0.0148,9.8066,-0.2905,-0.0065,0.4089,-4.87,-37.0,31.81,325.39,-89.35,154.69
58798,52.613903,-1.633693,160.03,21.04,4,199.04,22 / 23,7352413,2019-11-06 18:08:52:875,5.9652,-0.2093,10.6336,0.0128,-0.0184,9.8066,-0.1052,-0.1413,0.4269,-5.44,-37.44,31.88,4.81,-89.56,-166.35
58799,52.613903,-1.633693,160.03,21.04,4,199.04,22 / 23,7352513,2019-11-06 18:08:52:975,-4.8764,0.6464,7.9214,0.1087,0.0339,9.8059,0.2475,0.1729,-0.2094,-5.06,-36.94,30.88,43.39,-89.39,-127.94
58800,52.613903,-1.633693,160.03,21.04,4,199.04,22 / 23,7352614,2019-11-06 18:08:53:076,-3.6843,-0.3199,11.5646,-0.1373,0.0068,9.8056,0.1923,-0.0628,-0.2489,-5.12,-37.12,31.5,30.76,-89.51,-140.65
58801,52.613903,-1.633693,160.03,21.04,4,199.04,22 / 23,7352714,2019-11-06 18:08:53:176,-6.2922,-1.1775,11.3549,0.0475,0.0551,9.8063,0.0558,-0.38,0.2397,-5.0,-36.56,31.0,1.1,-89.5,-169.75
58802,52.613903,-1.633693,160.03,21.04,4,199.04,22 / 23,7352814,2019-11-06 18:08:53:276,-0.1628,0.209,9.4388,-0.0218,-0.0164,9.8065,0.017,-0.4913,0.3229,-5.69,-37.19,30.5,8.39,-89.65,-160.72
58803,52.613903,-1.633693,160.03,21.04,4,199.04,22 / 24,7352914,2019-11-06 18:08:53:376,6.3595,0.072,9.3796,0.1078,0.0257,9.806,0.0812,-0.6062,0.322,-5.56,-39.25,31.0,285.92,-89.56,117.39
58804,52.613903,-1.633693,160.03,21.04,4,199.04,22 / 24,7353013,2019-11-06 18:08:53:475,3.1479,0.5308,9.4874,-0.0196,0.0258,9.8066,0.0937,-0.6265,0.2856,-5.0,-38.5,32.38,325.66,-89.86,154.63
58805,52.613903,-1.633693,160.03,21.04,4,199.04,22 / 24,7353113,2019-11-06 18:08:53:575,2.076,0.3716,9.7556,0.06,0.0456,9.8063,0.1007,-0.5721,0.2811,-4.62,-36.81,32.25,8.04,-89.87,-163.1
58806,52.613903,-1.633693,160.03,21.04,4,199.04,22 / 24,7353213,2019-11-06 18:08:53:675,-3.8004,-1.7596,9.7416,0.0236,0.0004,9.8065,0.0625,-0.5505,0.2514,-4.69,-37.06,31.25,265.47,-89.81,94.85
58807,52.613903,-1.633693,160.03,21.04,4,199.04,22 / 24,7353314,2019-11-06 18:08:53:776,-0.016,0.324,10.1005,0.059,0.0155,9.8064,-0.006,-0.4464,0.2687,-5.0,-37.12,31.31,274.52,-89.97,103.71
58808,52.613903,-1.633693,160.03,21.04,4,199.04,22 / 24,7353414,2019-11-06 18:08:53:876,-2.8116,0.7213,10.7449,0.0405,0.0029,9.8065,0.0055,-0.3893,0.2666,-4.25,-36.56,31.81,266.15,-89.78,93.53
58809,52.613903,-1.633693,160.03,21.04,4,199.04,22 / 24,7353513,2019-11-06 18:08:53:975,3.3657,0.3549,9.5375,0.0413,0.012,9.8066,0.0665,-0.299,0.1013,-4.31,-36.81,31.88,292.14,-89.59,119.69
58810,52.613903,-1.633693,160.03,21.04,4,199.04,22 / 24,7353614,2019-11-06 18:08:54:076,-0.8996,1.0781,9.812,0.0406,0.012,9.8065,-0.0088,-0.227,0.1234,-3.87,-37.25,31.81,298.55,-89.6,126.08
