,GPS LATITUDE (degrees), GPS LONGITUDE (degrees), GPS ALTITUDE (m), GPS SPEED (Kmh), GPS ACCURACY (m), GPS ORIENTATION (Â°),GPS SATELLITES IN RANGE, TIME SINCE START (ms), DATE (YYYY-MO-DD HH-MI-SS_SSS), ACCELEROMETER X (m/s²) , ACCELEROMETER Y (m/s²), ACCELEROMETER Z (m/s²), GRAVITY X (m/s²), GRAVITY Y (m/s²), GRAVITY Z (m/s²), GYROSCOPE Yaw (rad/s), GYROSCOPE Pitch (rad/s), GYROSCOPE Roll (rad/s), MAGNETIC FIELD X (Î¼T), MAGNETIC FIELD Y (Î¼T), MAGNETIC FIELD Z (Î¼T), ORIENTATION (Yaw) (Â°), ORIENTATION (Pitch) (Â°), ORIENTATION (Roll ) (Â°)
18626,53.118183,-1.433667,194.12,12.79,4,71.01,20 / 22,3335214,2019-11-06 17:01:55:676,-0.5167,0.8253,9.2489,-0.0053,-0.0155,9.8066,0.0342,0.1693,-0.1387,-24.56,-37.25,6.88,204.8,-87.78,100.47
18627,53.118183,-1.433667,194.12,12.79,4,71.01,20 / 22,3335313,2019-11-06 17:01:55:775,0.4196,0.5888,9.8133,0.0148,0.0395,9.8065,-0.0151,-0.2067,0.0058,-24.5,-36.06,9.63,212.4,-87.58,101.55
18628,53.118183,-1.433667,194.12,12.79,4,71.01,20 / 22,3335413,2019-11-06 17:01:55:875,1.6765,2.4828,9.8345,-0.0172,-0.0448,9.8065,0.022,0.229,-0.2147,-33.31,-39.56,33.06,238.26,-87.55,105.02
18629,53.118183,-1.433667,194.12,12.79,4,71.01,20 / 22,3335514,2019-11-06 17:01:55:976,-1.296,-0.3145,8.8876,0.0179,0.0279,9.8065,-0.1033,0.0261,0.1447,-38.37,-39.62,8.44,205.05,-87.44,104.25
18630,53.118183,-1.433667,194.12,12.79,4,71.01,20 / 22,3335614,2019-11-06 17:01:56:076,-1.0022,-0.0847,10.3188,-0.0118,-0.026,9.8066,-0.1435,-0.0759,0.074,-28.81,-38.5,4.5,196.08,-87.72,97.1
18631,53.118183,-1.433667,194.12,12.79,4,71.01,20 / 22,3335714,2019-11-06 17:01:56:176,0.8241,3.4575,8.847,-0.0304,-0.0067,9.8066,-0.093,0.2718,-0.0211,-27.19,-37.5,3.94,186.74,-88.15,88.61
18632,53.118183,-1.433667,194.12,12.79,4,71.01,20 / 22,3335814,2019-11-06 17:01:56:276,-1.7792,-2.6094,10.6961,0.0117,0.0184,9.8066,0.0005,-0.3842,0.319,-27.0,-37.81,4.44,185.98,-88.41,87.78
18633,53.118183,-1.433667,194.12,12.79,4,71.01,21 / 22,3335915,2019-11-06 17:01:56:377,-2.4264,-1.615,8.785,-0.0142,-0.0199,9.8066,-0.1728,0.2017,-0.0252,-29.62,-38.0,4.19,182.33,-88.54,84.81
18634,53.118183,-1.433667,194.12,12.79,4,71.01,21 / 22,3336014,2019-11-06 17:01:56:476,-2.3203,-5.5337,10.3364,-0.0051,0.0702,9.8064,-0.0029,-0.5081,0.3163,-43.62,-40.94,19.06,184.4,-88.34,71.15
18635,53.118183,-1.433667,194.12,12.79,4,71.01,21 / 22,3336113,2019-11-06 17:01:56:575,0.3635,1.0224,9.2809,-0.0233,-0.0022,9.8066,0.058,0.0253,-0.0353,-26.31,-36.0,26.19,198.9,-88.42,64.39
18636,53.118183,-1.433667,194.12,12.79,4,71.01,21 / 22,3336213,2019-11-06 17:01:56:675,2.5967,3.0153,8.7493,0.0026,0.0688,9.8063,0.1124,-0.5323,0.2411,-24.87,-35.31,10.0,179.22,-88.6,67.39
18637,53.118183,-1.433667,194.12,12.79,4,71.01,21 / 22,3336313,2019-11-06 17:01:56:775,0.8846,2.8092,8.984,-0.0284,0.0283,9.8065,0.016,-0.1719,0.1107,-25.25,-36.56,5.69,167.85,-88.17,63.8
18638,53.118183,-1.433667,194.12,12.79,4,71.01,21 / 22,3336413,2019-11-06 17:01:56:875,2.6376,1.9328,9.6713,-0.0097,0.0565,9.8064,-0.0546,-0.5791,0.3347,-25.19,-36.44,4.75,158.09,-88.37,55.93
18639,53.118183,-1.433667,194.12,12.79,4,71.01,21 / 22,3336514,2019-11-06 17:01:56:976,-4.1128,-5.6447,10.0446,-0.0467,0.0215,9.8065,-0.0645,-0.5151,0.3732,-25.69,-35.94,4.81,139.22,-87.98,36.55
18640,53.118183,-1.433667,194.12,12.79,4,71.01,21 / 22,3336615,2019-11-06 17:01:57:077,-3.4805,-1.5781,9.8013,-0.0311,0.0944,9.8061,-0.0874,-0.7269,0.5125,-25.81,-35.69,5.75,129.49,-87.47,23.88
18641,53.118183,-1.433667,194.12,12.79,4,71.01,21 / 22,3336713,2019-11-06 17:01:57:175,-0.6555,-6.0465,10.7235,-0.0083,0.0464,9.8064,0.1016,-0.6433,0.34,-26.06,-35.0,10.81,125.88,-87.41,10.37
18642,53.118183,-1.433667,194.12,12.79,4,71.01,21 / 22,3336814,2019-11-06 17:01:57:276,2.6909,2.4329,9.8137,0.0564,0.0676,9.8062,0.1026,-0.6878,0.2208,-33.25,-38.5,32.06,139.36,-87.35,3.85
18643,53.118183,-1.433667,194.12,12.79,4,71.01,20 / 22,3336914,2019-11-06 17:01:57:376,-3.597,-1.8762,11.0847,0.0503,0.0709,9.8062,0.2088,-0.5226,0.2092,-40.37,-38.87,8.81,123.49,-87.46,18.82
18644,53.118183,-1.433667,194.12,12.79,4,71.01,20 / 22,3337014,2019-11-06 17:01:57:476,1.8494,0.583,10.3207,0.0346,0.0781,9.8063,0.1176,-0.1806,-0.0364,-29.44,-37.44,3.56,127.14,-87.83,27.12
18645,53.118183,-1.433667,194.12,12.79,4,71.01,20 / 22,3337114,2019-11-06 17:01:57:576,-0.9967,-2.1838,9.8325,0.0649,0.0438,9.8063,0.0012,-0.2439,0.1258,-27.56,-37.56,3.19,149.41,-87.74,51.76
18646,53.118183,-1.433667,194.12,12.79,4,71.01,20 / 22,3337214,2019-11-06 17:01:57:676,4.1592,0.9675,9.4027,0.0433,0.0232,9.8065,0.0823,-0.1862,0.1659,-27.0,-37.62,3.38,152.55,-87.89,54.87
18647,53.118183,-1.433667,194.12,12.79,4,71.01,20 / 22,3337314,2019-11-06 17:01:57:776,1.4076,0.3393,10.0839,0.0046,-0.0205,9.8066,-0.0278,0.0406,-0.0322,-29.37,-37.75,3.38,157.39,-88.26,60.62
18648,53.118183,-1.433667,194.12,12.79,4,71.01,20 / 22,3337414,2019-11-06 17:01:57:876,-1.7645,-5.2889,9.2757,-0.0221,-0.0019,9.8066,-0.0274,-0.0626,0.0249,-43.81,-41.44,21.81,165.14,-88.1,48.17
18649,53.118183,-1.433667,194.12,12.79,4,71.01,20 / 22,3337514,2019-11-06 17:01:57:976,0.7239,-1.1271,10.2137,-0.0729,-0.0084,9.8063,0.0209,0.3065,-0.2928,-25.56,-35.0,23.25,174.24,-87.87,42.53
18650,53.118183,-1.433667,194.12,12.79,4,71.01,20 / 22,3337614,2019-11-06 17:01:58:076,-1.299,-2.6808,10.3201,0.0059,0.0164,9.8066,0.1236,-0.2656,-0.0347,-24.81,-35.44,9.5,163.63,-87.64,50.97
18651,53.118183,-1.433667,194.12,12.79,4,71.01,20 / 22,3337714,2019-11-06 17:01:58:176,-0.0786,1.206,10.0789,0.0183,-0.0189,9.8066,0.0168,0.2047,-0.0119,-24.62,-37.12,5.56,162.17,-87.63,57.64
18652,53.118183,-1.433667,194.12,12.79,4,71.01,20 / 22,3337813,2019-11-06 17:01:58:275,3.8374,2.0177,9.4485,0.0169,0.0453,9.8065,0.0105,-0.6211,0.3732,-25.12,-36.37,5.75,161.88,-87.79,57.43
18653,53.118183,-1.433667,194.12,12.79,4,71.01,22 / 23,3337913,2019-11-06 17:01:58:375,-0.6688,4.8782,11.0108,-0.0577,-0.0561,9.8062,-0.0123,0.1393,-0.0799,-25.87,-36.87,5.25,151.35,-87.84,49.04
18654,53.118183,-1.433667,194.12,12.79,4,71.01,22 / 23,3338013,2019-11-06 17:01:58:475,0.1537,-2.968,9.1193,-0.014,0.0617,9.8064,0.0566,-0.6268,0.3275,-24.94,-36.0,8.31,153.69,-87.5,44.45
18655,53.118183,-1.433667,194.12,12.79,4,71.01,22 / 23,3338114,2019-11-06 17:01:58:576,-0.7738,-4.7722,10.3415,-0.0271,-0.0541,9.8064,0.054,-0.0362,-0.0943,-24.75,-34.94,12.38,154.14,-87.8,37.31
18656,53.118183,-1.433667,194.12,12.79,4,71.01,22 / 23,3338213,2019-11-06 17:01:58:675,-1.9969,-4.1653,10.1028,0.0517,0.0309,9.8064,0.0782,-0.508,0.2986,-32.62,-38.06,33.5,176.87,-88.0,40.93
18657,53.118183,-1.433667,194.12,12.79,4,71.01,22 / 23,3338313,2019-11-06 17:01:58:775,-2.0012,-1.4407,9.5212,0.0133,-0.0258,9.8066,-0.0524,-0.1778,0.052,-33.81,-38.81,6.13,147.71,-88.15,46.6
18658,53.118183,-1.433667,194.12,12.79,4,71.01,22 / 23,3338413,2019-11-06 17:01:58:875,0.8834,2.0283,10.3715,0.027,0.0454,9.8064,0.0287,-0.4869,0.1885,-28.81,-38.0,5.25,143.88,-88.21,42.75
18659,53.118183,-1.433667,194.12,12.79,4,71.01,22 / 23,3338513,2019-11-06 17:01:58:975,0.6855,0.318,9.8327,0.0402,0.0222,9.8065,0.0707,-0.2513,0.1814,-27.75,-37.37,5.13,154.88,-88.35,53.85
18660,53.118183,-1.433667,194.12,12.79,4,71.01,22 / 23,3338613,2019-11-06 17:01:59:075,-2.1107,-0.7733,9.4324,-0.0086,0.0693,9.8064,0.1346,-0.2976,0.1806,-27.69,-37.5,5.88,163.2,-88.23,60.45
18661,53.118183,-1.433667,194.12,12.79,4,71.01,22 / 23,3338713,2019-11-06 17:01:59:175,1.5015,-2.2901,10.4752,0.0045,-0.0232,9.8066,0.0903,0.004,-0.1744,-30.25,-38.12,5.63,167.47,-88.4,65.74
18662,53.118183,-1.433667,194.12,12.79,4,71.01,22 / 23,3338813,2019-11-06 17:01:59:275,-1.7932,2.0144,9.2101,-0.031,0.0351,9.8064,0.1053,-0.4232,0.1077,-42.62,-41.19,17.06,183.21,-88.24,71.72
18663,53.118183,-1.433667,194.12,12.79,4,71.01,20 / 22,3338913,2019-11-06 17:01:59:375,-0.4741,0.7896,9.4498,-0.0043,0.0125,9.8066,-0.0454,-0.2025,0.153,-25.12,-34.87,19.44,187.78,-88.08,60.84
18664,53.118183,-1.433667,194.12,12.79,4,71.01,20 / 22,3339014,2019-11-06 17:01:59:476,-1.446,0.184,10.2452,0.016,0.0167,9.8065,0.0733,-0.3892,0.1342,-24.75,-35.75,11.06,168.99,-88.24,54.8
18665,53.118183,-1.433667,194.12,12.79,4,71.01,20 / 22,3339113,2019-11-06 17:01:59:575,2.2665,-4.4886,9.666,0.0033,-0.0075,9.8066,0.1148,-0.3478,0.1036,-26.31,-36.31,8.56,168.83,-88.44,59.34
18666,53.118183,-1.433667,194.12,12.79,4,71.01,20 / 22,3339213,2019-11-06 17:01:59:675,1.6009,-1.4058,10.161,0.0134,0.0285,9.8066,0.0794,-0.2188,0.0589,-25.25,-36.75,7.81,179.11,-88.74,71.34
18667,53.118183,-1.433667,194.12,12.79,4,71.01,20 / 22,3339314,2019-11-06 17:01:59:776,4.1258,-3.6665,9.3611,0.006,0.0356,9.8065,-0.1152,-0.2808,0.1819,-25.56,-37.31,8.5,186.52,-88.54,77.64
18668,53.118183,-1.433667,194.12,12.79,4,71.01,20 / 22,3339414,2019-11-06 17:01:59:876,-0.8271,1.2575,10.5285,-0.0046,0.0399,9.8065,-0.0429,-0.2529,0.0923,-25.0,-35.62,9.56,168.03,-88.56,55.84
18669,53.118183,-1.433667,194.12,12.79,4,71.01,20 / 22,3339514,2019-11-06 17:01:59:976,-1.7079,-0.269,10.3869,-0.0047,0.0308,9.8065,-0.0344,-0.382,0.1825,-24.75,-35.62,15.19,170.81,-88.23,49.5
18670,53.118183,-1.433667,194.12,12.79,4,71.01,20 / 22,3339613,2019-11-06 17:02:00:075,3.6304,3.1984,9.5109,0.04,0.0188,9.8065,-0.088,-0.3555,0.1447,-40.06,-40.44,35.06,180.03,-88.16,48.84
18671,53.118183,-1.433667,194.12,12.79,4,71.01,20 / 22,3339713,2019-11-06 17:02:00:175,2.8844,-6.2042,8.7709,0.0243,0.0902,9.8062,0.1789,-0.7892,0.4855,-33.94,-38.0,8.19,150.06,-88.17,45.84
18672,53.118183,-1.433667,194.12,12.79,4,71.01,20 / 22,3339814,2019-11-06 17:02:00:276,1.4356,2.3113,9.7657,-0.02,0.0316,9.8065,0.0253,-0.2779,0.1369,-28.62,-38.31,7.06,143.35,-88.8,38.87
18673,53.118183,-1.433667,194.12,12.79,4,71.01,22 / 23,3339913,2019-11-06 17:02:00:375,-1.3534,-7.8288,10.7423,-0.0353,0.1043,9.806,0.215,-0.8809,0.3721,-27.5,-37.31,8.38,140.8,-88.43,33.01
18674,53.118183,-1.433667,194.12,12.79,4,71.01,22 / 23,3340014,2019-11-06 17:02:00:476,-3.8277,2.4519,10.9676,-0.0468,0.0308,9.8064,0.0446,0.0029,-0.0262,-28.0,-37.31,8.5,138.77,-88.47,29.69
18675,53.118183,-1.433667,194.12,12.79,4,71.01,22 / 23,3340113,2019-11-06 17:02:00:575,-2.2586,-7.6143,11.0231,0.0652,0.1039,9.8058,-0.0684,-0.7992,0.3662,-31.37,-37.44,8.75,145.23,-88.52,38.08
18676,53.118183,-1.433667,194.12,12.79,4,71.01,22 / 23,3340214,2019-11-06 17:02:00:676,2.4016,3.0113,9.1334,0.0286,-0.0327,9.8065,-0.2293,0.3644,-0.0627,-44.12,-41.31,24.44,148.79,-88.52,29.56
18677,53.118183,-1.433667,194.12,12.79,4,71.01,22 / 23,3340314,2019-11-06 17:02:00:776,3.4525,-2.756,8.8232,0.0287,0.0585,9.8064,0.2282,-0.446,0.1305,-26.19,-34.56,20.44,158.79,-88.69,30.72
18678,53.118183,-1.433667,194.12,12.79,4,71.01,22 / 23,3340414,2019-11-06 17:02:00:876,2.5105,4.3019,9.2453,-0.0528,-0.0452,9.8064,0.0808,0.3515,-0.3711,-25.5,-36.37,13.25,156.64,-88.91,38.62
18679,53.118183,-1.433667,194.12,12.79,4,71.01,22 / 23,3340514,2019-11-06 17:02:00:976,-0.2665,-1.2769,10.6161,0.0068,0.0693,9.8063,0.1806,-0.0819,0.0378,-26.25,-36.25,10.13,148.86,-88.86,37.06
18680,53.118183,-1.433667,194.12,12.79,4,71.01,22 / 23,3340614,2019-11-06 17:02:01:076,-2.5819,-2.8314,9.138,-0.0462,-0.049,9.8064,0.1752,0.1539,-0.2541,-26.31,-36.81,10.63,145.99,-89.29,32.54
18681,53.118183,-1.433667,194.12,12.79,4,71.01,22 / 23,3340714,2019-11-06 17:02:01:176,-2.9407,-4.9921,8.8497,0.0437,0.0371,9.8064,-0.1286,-0.3477,0.1695,-26.0,-36.87,11.0,172.37,-89.11,59.28
18682,53.118183,-1.433667,194.12,12.79,4,71.01,22 / 23,3340814,2019-11-06 17:02:01:276,1.4517,-0.3844,10.0087,-0.0076,-0.033,9.8065,-0.2052,0.0956,0.032,-25.75,-36.06,12.63,162.85,-89.15,45.97
18683,53.118183,-1.433667,194.12,12.79,4,71.01,21 / 22,3340914,2019-11-06 17:02:01:376,-2.5036,-1.7572,9.2113,-0.009,0.0171,9.8066,-0.1364,-0.245,0.1614,-25.75,-34.69,18.38,136.44,-88.97,10.96
18684,53.118183,-1.433667,194.12,12.79,4,71.01,21 / 22,3341014,2019-11-06 17:02:01:476,-2.1318,-2.2573,10.238,-0.0085,-0.0033,9.8066,-0.2349,0.0684,-0.0901,-43.5,-40.94,34.19,129.67,-88.52,0.5
18685,53.118183,-1.433667,194.12,12.79,4,71.01,21 / 22,3341114,2019-11-06 17:02:01:576,-1.8632,-5.698,10.7782,-0.0198,0.0532,9.8064,0.1149,-0.4433,0.173,-33.87,-38.12,10.63,112.74,-88.21,3.07
18686,53.118183,-1.433667,194.12,12.79,4,71.01,21 / 22,3341214,2019-11-06 17:02:01:676,2.949,4.9004,7.7793,0.0059,0.025,9.8066,0.0545,0.058,-0.1498,-28.44,-37.25,8.81,113.57,-88.27,3.76
18687,53.118183,-1.433667,194.12,12.79,4,71.01,21 / 22,3341313,2019-11-06 17:02:01:775,-2.6367,-0.5316,10.6678,0.0238,0.0906,9.8062,-0.0017,-0.5606,0.2502,-28.44,-36.62,9.31,130.33,-88.4,20.99
18688,53.118183,-1.433667,194.12,12.79,4,71.01,21 / 22,3341414,2019-11-06 17:02:01:876,1.3734,1.409,9.2388,-0.0044,0.0254,9.8066,0.0151,0.0772,0.0025,-28.56,-37.44,9.44,123.73,-88.27,14.75
18689,53.118183,-1.433667,194.12,12.79,4,71.01,21 / 22,3341513,2019-11-06 17:02:01:975,1.4536,-0.9331,9.8284,-0.0268,0.0405,9.8065,0.1339,-0.1677,-0.0249,-31.12,-37.87,10.06,130.62,-88.1,21.08
18690,53.118183,-1.433667,194.12,12.79,4,71.01,21 / 22,3341615,2019-11-06 17:02:02:077,-0.6924,-1.001,9.3873,-0.0472,-0.0244,9.8065,-0.0403,0.088,-0.1782,-41.75,-40.25,36.13,146.06,-88.08,14.7
18691,53.118183,-1.433667,194.12,12.79,4,71.01,21 / 22,3341713,2019-11-06 17:02:02:175,-0.3326,-1.2401,8.6878,-0.0018,0.0428,9.8065,-0.1322,-0.2296,0.1916,-26.5,-35.0,20.5,145.22,-87.71,14.95
18692,53.118183,-1.433667,194.12,12.79,4,71.01,21 / 22,3341813,2019-11-06 17:02:02:275,0.9684,0.6671,9.5833,-0.0031,-0.0178,9.8066,-0.1173,0.0523,0.0348,-26.44,-35.19,12.75,124.49,-87.49,5.45
18693,53.118183,-1.433667,194.12,12.79,4,71.01,17 / 19,3341914,2019-11-06 17:02:02:376,-1.4655,0.6646,9.9549,-0.0351,0.0298,9.8065,-0.0334,0.0223,0.0992,-26.0,-36.75,9.94,114.52,-87.11,0.01
18694,53.118183,-1.433667,194.12,12.79,4,71.01,17 / 19,3342013,2019-11-06 17:02:02:475,-1.7413,-0.3503,9.1112,0.0148,-0.0113,9.8066,-0.0992,-0.0225,0.025,-26.94,-36.25,9.88,111.29,-86.9,-2.62
18695,53.118183,-1.433667,194.12,12.79,4,71.01,17 / 19,3342113,2019-11-06 17:02:02:575,0.1922,2.0149,10.9045,-0.0344,-0.0035,9.8066,0.0876,0.1977,-0.1536,-26.44,-36.44,9.56,110.99,-86.82,-3.87
18696,53.118183,-1.433667,194.12,12.79,4,71.01,17 / 19,3342214,2019-11-06 17:02:02:676,-0.2924,1.1367,8.4824,-0.0238,0.0224,9.8066,0.1738,-0.096,-0.0226,-26.0,-35.87,11.69,120.11,-86.7,1.79
18697,53.118183,-1.433667,194.12,12.79,4,71.01,17 / 19,3342314,2019-11-06 17:02:02:776,2.2202,1.089,8.1878,-0.0032,-0.0064,9.8066,0.0662,0.1003,-0.0568,-25.62,-34.94,17.94,132.74,-86.84,5.52
18698,53.118183,-1.433667,194.12,12.79,4,71.01,17 / 19,3342416,2019-11-06 17:02:02:878,0.857,0.5739,9.4399,0.0003,0.0315,9.8065,-0.0561,-0.1566,0.1364,-40.06,-40.12,34.94,138.21,-86.98,5.54
18699,53.118183,-1.433667,194.12,12.79,4,71.01,17 / 19,3342513,2019-11-06 17:02:02:975,-1.2802,-1.1302,10.0891,-0.0235,-0.0145,9.8065,0.0264,0.0869,-0.0399,-32.69,-37.44,7.38,108.6,-86.6,3.11
18700,53.118183,-1.433667,194.12,12.79,4,71.01,17 / 19,3342613,2019-11-06 17:02:03:075,-2.688,-1.3719,10.8041,-0.0281,0.027,9.8065,0.1227,-0.2264,-0.0275,-29.0,-37.12,5.81,109.33,-86.51,3.55
18701,53.118183,-1.433667,194.12,12.79,4,71.01,17 / 19,3342713,2019-11-06 17:02:03:175,-0.7388,-0.2855,11.4268,-0.0028,0.0331,9.8065,0.3459,-0.0989,0.0708,-28.12,-38.12,7.06,118.33,-86.45,10.23
18702,53.118183,-1.433667,194.12,12.79,4,71.01,17 / 19,3342813,2019-11-06 17:02:03:275,2.5995,1.338,7.7462,-0.0276,0.0215,9.8065,0.2518,-0.2203,-0.1037,-28.81,-38.12,6.0,119.98,-86.95,14.94
18703,53.118183,-1.433667,194.12,12.79,4,71.01,19 / 20,3342915,2019-11-06 17:02:03:377,-1.7501,2.9526,8.2219,0.0269,0.0057,9.8066,-0.0605,-0.1809,0.2379,-31.44,-38.62,5.38,120.52,-87.07,18.25
18704,53.118183,-1.433667,194.12,12.79,4,71.01,19 / 20,3343014,2019-11-06 17:02:03:476,-1.0212,0.6541,10.9604,0.0346,0.0233,9.8065,0.0375,-0.343,0.3708,-42.87,-40.62,31.0,137.56,-86.92,10.2
18705,53.118183,-1.433667,194.12,12.79,4,71.01,19 / 20,3343114,2019-11-06 17:02:03:576,-0.8941,-1.596,9.3873,-0.009,-0.0552,9.8064,-0.1147,0.0997,0.0126,-26.25,-34.62,19.56,135.07,-87.19,5.42
18706,53.118183,-1.433667,194.12,12.79,4,71.01,19 / 20,3343214,2019-11-06 17:02:03:676,-1.9924,-1.1027,8.9006,0.013,0.0686,9.8064,-0.0907,-0.7268,0.4122,-25.69,-36.06,8.44,114.66,-86.98,3.95
18707,53.118183,-1.433667,194.12,12.79,4,71.01,19 / 20,3343314,2019-11-06 17:02:03:776,-1.636,-1.3102,10.3724,-0.0178,0.0651,9.8063,-0.0218,-0.3633,0.2977,-26.31,-36.44,7.31,104.88,-86.63,-4.53
18708,53.118183,-1.433667,194.12,12.79,4,71.01,19 / 20,3343413,2019-11-06 17:02:03:875,2.8836,5.3792,9.475,0.0384,0.1245,9.8058,0.0322,-0.5835,0.4059,-26.69,-36.69,6.69,96.68,-86.32,-12.7
18709,53.118183,-1.433667,194.12,12.79,4,71.01,19 / 20,3343513,2019-11-06 17:02:03:975,-1.0348,-4.5846,11.4755,-0.0154,0.0209,9.8066,0.2114,-0.4322,0.0694,-27.0,-36.25,6.19,104.34,-86.52,-2.56
18710,53.118183,-1.433667,194.12,12.79,4,71.01,19 / 20,3343613,2019-11-06 17:02:04:075,0.373,0.3592,10.4474,0.016,0.1116,9.806,0.1305,-0.4557,0.2854,-25.31,-35.62,8.06,110.37,-86.76,-1.53
18711,53.118183,-1.433667,194.12,12.79,4,71.01,19 / 20,3343713,2019-11-06 17:02:04:175,-4.5004,-0.2968,9.8944,0.0458,0.0535,9.8063,0.0436,-0.4138,0.1346,-26.0,-34.19,14.06,130.13,-86.79,9.05
18712,53.118183,-1.433667,194.12,12.79,4,71.01,19 / 20,3343813,2019-11-06 17:02:04:275,4.5106,-0.5137,10.6793,0.0374,-0.0091,9.8066,-0.2628,0.0075,0.1451,-43.94,-41.5,26.94,134.27,-87.09,11.12
18713,53.11835,-1.431905,192.28,14.4,4,83.83,18 / 20,3343913,2019-11-06 17:02:04:375,-3.6827,3.7571,8.3818,0.0195,0.0519,9.8064,0.0603,-0.006,-0.0071,-32.06,-39.12,5.25,112.56,-87.07,10.45
18714,53.11835,-1.431905,192.28,14.4,4,83.83,18 / 20,3344014,2019-11-06 17:02:04:476,-1.8721,-1.2957,7.7061,-0.062,-0.0711,9.8061,0.2034,0.0334,-0.2621,-28.37,-38.12,4.63,119.04,-87.3,15.79
18715,53.11835,-1.431905,192.28,14.4,4,83.83,18 / 20,3344114,2019-11-06 17:02:04:576,0.0241,-5.5727,10.0422,-0.0331,0.1059,9.806,0.1961,-0.8196,0.3139,-27.5,-37.75,5.25,121.34,-87.2,17.57
18716,53.11835,-1.431905,192.28,14.4,4,83.83,18 / 20,3344214,2019-11-06 17:02:04:676,3.2897,7.6494,9.3003,-0.0044,0.0191,9.8065,-0.1348,0.2765,-0.237,-28.06,-38.31,4.44,120.27,-87.41,19.15
18717,53.11835,-1.431905,192.28,14.4,4,83.83,18 / 20,3344314,2019-11-06 17:02:04:776,0.4311,-0.345,9.5238,0.0197,0.1527,9.8054,0.0436,-0.669,0.4441,-31.06,-39.06,3.88,128.93,-86.86,28.57
18718,53.11835,-1.431905,192.28,14.4,4,83.83,18 / 20,3344414,2019-11-06 17:02:04:876,2.1928,3.692,9.0547,-0.0028,0.0055,9.8066,-0.0288,0.1757,-0.1293,-40.0,-40.19,31.88,155.37,-86.92,25.74
18719,53.11835,-1.431905,192.28,14.4,4,83.83,18 / 20,3344513,2019-11-06 17:02:04:975,-2.4421,-0.8405,9.4432,0.0478,0.0515,9.8063,0.0539,-0.3693,0.147,-25.19,-35.44,15.38,153.95,-86.89,31.38
18720,53.11835,-1.431905,192.28,14.4,4,83.83,18 / 20,3344613,2019-11-06 17:02:05:075,-0.8566,-2.963,10.3149,0.0046,-0.0681,9.8064,-0.1619,0.6031,-0.2228,-25.19,-35.94,8.06,141.38,-86.91,31.03
18721,53.11835,-1.431905,192.28,14.4,4,83.83,18 / 20,3344714,2019-11-06 17:02:05:176,0.8398,0.1537,8.884,-0.0261,0.0092,9.8066,-0.0561,0.2968,-0.0231,-25.44,-36.87,5.63,130.5,-86.82,23.57
18722,53.11835,-1.431905,192.28,14.4,4,83.83,18 / 20,3344814,2019-11-06 17:02:05:276,-0.5237,-1.5888,11.0423,-0.0135,-0.0659,9.8063,0.0052,0.3167,-0.3141,-25.44,-37.19,4.5,127.54,-86.71,22.49
18723,53.11835,-1.431905,192.28,14.4,4,83.83,17 / 19,3344914,2019-11-06 17:02:05:376,0.7945,1.393,9.3132,0.0373,-0.0042,9.8065,-0.0272,0.1031,0.0856,-24.81,-37.0,5.06,127.79,-86.93,22.99
18724,53.11835,-1.431905,192.28,14.4,4,83.83,17 / 19,3345013,2019-11-06 17:02:05:475,-1.9044,-2.0122,10.238,-0.0228,-0.0372,9.8065,-0.1244,0.4061,-0.1069,-25.06,-36.37,7.13,124.07,-86.9,14.9
18725,53.11835,-1.431905,192.28,14.4,4,83.83,17 / 19,3345113,2019-11-06 17:02:05:575,-2.418,-1.5286,9.941,-0.0328,-0.011,9.8066,-0.1807,0.0544,-0.0059,-24.69,-35.56,15.56,138.46,-86.5,13.08
18726,53.11835,-1.431905,192.28,14.4,4,83.83,17 / 19,3345214,2019-11-06 17:02:05:676,-0.3463,0.1406,8.5023,0.01,-0.0298,9.8066,-0.2028,0.3511,-0.0165,-41.5,-41.44,30.25,138.45,-86.1,10.24
18727,53.11835,-1.431905,192.28,14.4,4,83.83,17 / 19,3345314,2019-11-06 17:02:05:776,-0.0808,3.5311,9.3513,-0.0246,-0.0383,9.8065,0.0026,0.3194,-0.2976,-30.62,-38.94,3.06,106.59,-86.13,6.45
18728,53.11835,-1.431905,192.28,14.4,4,83.83,17 / 19,3345414,2019-11-06 17:02:05:876,-0.4471,-1.7506,10.9766,-0.0312,-0.0269,9.8065,0.1652,0.0111,-0.0563,-27.56,-38.31,3.13,111.72,-85.98,10.59
18729,53.11835,-1.431905,192.28,14.4,4,83.83,17 / 19,3345514,2019-11-06 17:02:05:976,-1.5058,2.7161,10.5329,-0.0017,-0.0304,9.8066,0.0116,0.2062,-0.1841,-26.94,-37.81,2.25,108.68,-85.94,9.07
18730,53.11835,-1.431905,192.28,14.4,4,83.83,17 / 19,3345614,2019-11-06 17:02:06:076,-0.1778,-2.0001,10.5063,0.0076,-0.0498,9.8065,0.0352,0.1665,-0.0613,-28.19,-38.25,3.06,109.08,-86.18,8.12
18731,53.11835,-1.431905,192.28,14.4,4,83.83,17 / 19,3345714,2019-11-06 17:02:06:176,0.4541,3.9239,8.963,0.0314,-0.0478,9.8064,-0.0463,0.4317,-0.1945,-32.25,-39.19,2.63,108.97,-86.45,9.57
18732,53.11835,-1.431905,192.28,14.4,4,83.83,17 / 19,3345814,2019-11-06 17:02:06:276,-1.5489,-1.411,10.419,0.0268,-0.0108,9.8066,-0.0936,0.0787,0.0419,-41.69,-41.87,28.0,136.68,-86.43,11.0
18733,53.11835,-1.431905,192.28,14.4,4,83.83,20 / 22,3345914,2019-11-06 17:02:06:376,0.7433,-0.2174,9.212,0.0006,-0.041,9.8065,0.0649,0.0953,-0.001,-25.12,-35.25,12.19,131.44,-86.61,12.64
18734,53.11835,-1.431905,192.28,14.4,4,83.83,20 / 22,3346014,2019-11-06 17:02:06:476,-0.1901,-0.7181,9.0458,-0.0107,0.0318,9.8065,0.1274,-0.1648,0.1754,-25.44,-36.5,6.19,118.32,-86.74,10.84
18735,53.11835,-1.431905,192.28,14.4,4,83.83,20 / 22,3346114,2019-11-06 17:02:06:576,1.4707,-1.6803,10.3797,-0.0268,-0.0346,9.8065,0.1371,-0.168,0.0544,-25.37,-36.87,5.19,113.88,-86.88,8.45
18736,53.11835,-1.431905,192.28,14.4,4,83.83,20 / 22,3346214,2019-11-06 17:02:06:676,-0.4815,3.7168,8.643,-0.0134,0.0442,9.8065,0.2129,-0.16,0.1705,-25.56,-36.75,4.25,112.66,-86.66,9.6
18737,53.11835,-1.431905,192.28,14.4,4,83.83,20 / 22,3346313,2019-11-06 17:02:06:775,-1.2511,1.0512,10.3353,0.0384,-0.0008,9.8065,-0.0379,-0.058,0.0921,-25.81,-36.5,3.81,109.64,-87.04,7.1
18738,53.11835,-1.431905,192.28,14.4,4,83.83,20 / 22,3346413,2019-11-06 17:02:06:875,0.5152,1.2239,9.6128,0.0138,0.0356,9.8066,-0.077,-0.1562,0.1718,-25.87,-36.69,4.94,108.13,-86.98,3.25
18739,53.11835,-1.431905,192.28,14.4,4,83.83,20 / 22,3346514,2019-11-06 17:02:06:976,0.9084,0.2335,9.7113,-0.0141,-0.0198,9.8066,0.0876,-0.0934,-0.0616,-25.06,-34.87,16.69,128.9,-86.87,1.91
18740,53.11835,-1.431905,192.28,14.4,4,83.83,20 / 22,3346614,2019-11-06 17:02:07:076,0.3476,0.6195,10.3613,-0.0155,-0.0181,9.8066,0.1151,-0.0191,0.0223,-43.44,-41.25,25.31,124.18,-86.9,1.93
18741,53.11835,-1.431905,192.28,14.4,4,83.83,20 / 22,3346714,2019-11-06 17:02:07:176,-1.5557,-0.8074,9.9195,0.0258,-0.0066,9.8066,-0.1105,-0.0981,0.1403,-32.06,-37.75,2.13,93.15,-87.09,-3.86
18742,53.11835,-1.431905,192.28,14.4,4,83.83,20 / 22,3346814,2019-11-06 17:02:07:276,0.6198,2.0387,9.848,0.0281,0.0141,9.8065,0.0114,0.0673,0.028,-28.19,-37.75,1.75,91.01,-87.17,-6.92
18743,53.11835,-1.431905,192.28,14.4,4,83.83,19 / 21,3346914,2019-11-06 17:02:07:376,2.7779,-2.4417,10.8884,-0.0126,0.061,9.8064,0.192,-0.5108,0.2012,-28.12,-37.56,2.38,94.48,-87.2,-3.39
18744,53.11835,-1.431905,192.28,14.4,4,83.83,19 / 21,3347014,2019-11-06 17:02:07:476,-3.9667,2.6357,9.0262,0.0442,0.0222,9.8065,-0.0098,0.1804,0.0873,-28.44,-37.12,1.38,89.06,-87.32,-6.53
18745,53.11835,-1.431905,192.28,14.4,4,83.83,19 / 21,3347114,2019-11-06 17:02:07:576,-1.0327,2.464,11.436,-0.0263,-0.0016,9.8065,0.1677,0.0611,-0.013,-34.87,-39.56,3.31,90.57,-87.68,-6.98
18746,53.11835,-1.431905,192.28,14.4,4,83.83,19 / 21,3347214,2019-11-06 17:02:07:676,1.6778,0.0215,11.4824,-0.0603,-0.0011,9.8064,0.2934,0.0214,-0.0871,-40.44,-39.56,29.94,116.99,-87.69,-11.51
18747,53.11835,-1.431905,192.28,14.4,4,83.83,19 / 21,3347313,2019-11-06 17:02:07:775,-3.7371,0.4159,8.6479,0.0408,0.0077,9.8065,-0.1847,-0.1117,0.1629,-26.19,-34.69,11.94,105.18,-87.69,-12.32
18748,53.11835,-1.431905,192.28,14.4,4,83.83,19 / 21,3347414,2019-11-06 17:02:07:876,1.8208,0.8946,11.3502,0.0487,0.0065,9.8064,-0.14,0.0701,0.1279,-26.31,-35.94,4.56,86.26,-87.74,-17.71
18749,53.11835,-1.431905,192.28,14.4,4,83.83,19 / 21,3347514,2019-11-06 17:02:07:976,1.2855,0.9824,10.9562,0.003,0.0035,9.8066,-0.0324,0.0589,0.0301,-26.69,-36.81,3.06,78.92,-87.6,-20.64
18750,53.11835,-1.431905,192.28,14.4,4,83.83,19 / 21,3347614,2019-11-06 17:02:08:076,-1.2993,1.0162,9.569,-0.0054,0.0024,9.8066,-0.0426,0.1837,-0.0337,-26.69,-36.0,2.5,76.58,-87.43,-23.1
18751,53.11835,-1.431905,192.28,14.4,4,83.83,19 / 21,3347714,2019-11-06 17:02:08:176,1.1894,2.6402,10.9249,-0.0117,0.009,9.8066,0.2188,-0.0494,-0.0572,-26.44,-36.06,3.13,80.66,-87.45,-19.39
18752,53.11835,-1.431905,192.28,14.4,4,83.83,19 / 21,3347814,2019-11-06 17:02:08:276,1.8973,3.3981,10.2989,0.0368,-0.027,9.8065,0.0929,0.2707,-0.1252,-25.81,-35.87,5.63,84.01,-88.11,-21.52
18753,53.11835,-1.431905,192.28,14.4,4,83.83,17 / 18,3347914,2019-11-06 17:02:08:376,-1.1415,1.9308,10.2132,0.0253,0.0042,9.8066,0.0395,0.1275,0.0225,-26.5,-34.69,13.31,85.88,-88.62,-32.34
18754,53.11835,-1.431905,192.28,14.4,4,83.83,17 / 18,3348014,2019-11-06 17:02:08:476,-2.8994,-0.5155,9.01,-0.0584,-0.0235,9.8064,-0.0844,0.2505,-0.2261,-46.12,-41.81,19.38,72.73,-88.39,-41.02
18755,53.11835,-1.431905,192.28,14.4,4,83.83,17 / 18,3348114,2019-11-06 17:02:08:576,-2.7472,-1.395,9.3433,-0.0391,0.0181,9.8065,-0.1883,-0.0544,0.1241,-31.94,-37.69,1.63,70.2,-88.08,-25.53
18756,53.11835,-1.431905,192.28,14.4,4,83.83,17 / 18,3348214,2019-11-06 17:02:08:676,0.0286,0.5676,9.9576,-0.0025,0.002,9.8066,-0.046,0.087,0.0366,-29.37,-37.44,1.56,71.82,-87.51,-25.16
18757,53.11835,-1.431905,192.28,14.4,4,83.83,17 / 18,3348313,2019-11-06 17:02:08:775,-0.4443,1.986,9.5675,0.0153,-0.0031,9.8065,0.0314,0.0725,-0.0816,-28.44,-37.19,1.5,72.29,-87.47,-25.0
18758,53.11835,-1.431905,192.28,14.4,4,83.83,17 / 18,3348414,2019-11-06 17:02:08:876,-1.7214,2.424,10.9548,0.0314,-0.033,9.8065,-0.0422,0.4445,-0.1316,-29.94,-37.75,1.06,69.54,-87.77,-25.03
18759,53.11835,-1.431905,192.28,14.4,4,83.83,17 / 18,3348514,2019-11-06 17:02:08:976,1.934,4.2687,9.601,0.0271,-0.0389,9.8064,-0.1286,0.5006,-0.1148,-33.44,-38.19,1.38,61.34,-87.86,-32.58
18760,53.11835,-1.431905,192.28,14.4,4,83.83,17 / 18,3348613,2019-11-06 17:02:09:075,-1.9812,-0.3049,10.9718,-0.0056,-0.0355,9.8065,0.0004,0.3701,-0.023,-37.75,-38.69,30.81,95.96,-87.69,-35.08
18761,53.11835,-1.431905,192.28,14.4,4,83.83,17 / 18,3348713,2019-11-06 17:02:09:175,1.4577,2.2591,10.6642,-0.0103,-0.0896,9.8061,0.0386,0.5602,-0.3195,-26.44,-34.75,10.5,72.16,-87.83,-43.36
18762,53.11835,-1.431905,192.28,14.4,4,83.83,17 / 18,3348813,2019-11-06 17:02:09:275,-1.4135,-1.1632,8.9847,-0.0442,-0.0327,9.8065,0.2325,0.1387,-0.0135,-26.62,-35.75,4.94,60.36,-88.03,-42.39
18763,53.11835,-1.431905,192.28,14.4,4,83.83,19 / 21,3348914,2019-11-06 17:02:09:376,-1.0588,5.1165,9.7621,-0.0219,0.0732,9.8063,-0.1918,-0.273,0.2989,-26.69,-36.19,2.75,66.7,-88.23,-31.8
18764,53.11835,-1.431905,192.28,14.4,4,83.83,19 / 21,3349013,2019-11-06 17:02:09:475,-0.5262,-3.7613,11.7005,-0.0565,0.0235,9.8064,0.4092,-0.7483,0.2626,-27.19,-36.87,2.75,68.88,-87.91,-30.13
18765,53.11835,-1.431905,192.28,14.4,4,83.83,19 / 21,3349113,2019-11-06 17:02:09:575,0.3697,3.773,10.0516,-0.0535,0.0253,9.8064,0.2513,0.2613,0.0134,-26.37,-36.25,2.19,62.06,-87.68,-35.19
18766,53.11835,-1.431905,192.28,14.4,4,83.83,19 / 21,3349214,2019-11-06 17:02:09:676,2.5171,-1.593,8.929,0.0081,-0.0013,9.8066,0.0106,-0.2559,-0.0781,-26.06,-35.69,5.06,68.73,-87.75,-35.03
18767,53.11835,-1.431905,192.28,14.4,4,83.83,19 / 21,3349313,2019-11-06 17:02:09:775,-1.4381,-2.3609,10.3987,-0.0382,-0.0526,9.8064,0.0529,0.6105,-0.2742,-25.31,-34.75,13.81,93.18,-87.56,-29.05
18768,53.11835,-1.431905,192.28,14.4,4,83.83,19 / 21,3349413,2019-11-06 17:02:09:875,-2.5234,0.9863,10.4613,0.0745,0.0034,9.8063,-0.31,0.4383,0.0164,-43.19,-40.44,24.94,88.51,-87.5,-33.68
18769,53.11835,-1.431905,192.28,14.4,4,83.83,19 / 21,3349514,2019-11-06 17:02:09:976,-0.1061,-3.929,9.9069,0.067,-0.0628,9.8061,-0.1022,0.4599,-0.1699,-31.44,-37.44,-0.06,50.54,-87.58,-41.72
18770,53.11835,-1.431905,192.28,14.4,4,83.83,19 / 21,3349614,2019-11-06 17:02:10:076,0.9203,3.1247,10.1442,0.0077,-0.0718,9.8063,0.1035,0.5095,-0.2964,-28.81,-37.19,-0.19,51.56,-87.7,-40.77
18771,53.11835,-1.431905,192.28,14.4,4,83.83,19 / 21,3349714,2019-11-06 17:02:10:176,1.4983,-0.3287,9.8905,-0.0073,-0.0179,9.8066,0.0702,-0.011,-0.0395,-27.81,-37.06,0.19,50.19,-88.13,-41.73
18772,53.11835,-1.431905,192.28,14.4,4,83.83,19 / 21,3349817,2019-11-06 17:02:10:279,-1.6913,3.6167,9.5354,0.0318,-0.0267,9.8065,-0.0123,0.3837,-0.1812,-28.56,-37.5,0.31,42.95,-88.16,-48.67
18773,53.11835,-1.431905,192.28,14.4,4,83.83,19 / 21,3349914,2019-11-06 17:02:10:376,2.5882,-0.6367,9.5215,0.0053,-0.0263,9.8066,-0.0015,0.0124,-0.0357,-34.69,-38.5,0.88,54.55,-88.24,-38.66
18774,53.11835,-1.431905,192.28,14.4,4,83.83,19 / 21,3350014,2019-11-06 17:02:10:476,1.3754,0.6365,9.8866,-0.0235,-0.0535,9.8064,-0.0628,0.4742,-0.1812,-40.87,-39.81,27.25,81.32,-88.08,-43.6
18775,53.11835,-1.431905,192.28,14.4,4,83.83,19 / 21,3350114,2019-11-06 17:02:10:576,-1.7149,-0.9072,10.4053,-0.02,0.005,9.8066,0.055,-0.1487,0.0331,-26.56,-35.12,8.38,72.46,-87.85,-36.6
18776,53.11835,-1.431905,192.28,14.4,4,83.83,19 / 21,3350214,2019-11-06 17:02:10:676,-0.0679,2.1723,10.0671,0.0218,-0.049,9.8064,0.1142,0.2043,0.0114,-25.87,-36.25,3.0,55.71,-87.87,-43.31
18777,53.11835,-1.431905,192.28,14.4,4,83.83,19 / 21,3350314,2019-11-06 17:02:10:776,-0.0391,1.4239,10.4441,-0.0032,0.0001,9.8066,0.0502,-0.0941,0.0273,-26.25,-35.69,1.38,42.4,-87.94,-51.74
18778,53.11835,-1.431905,192.28,14.4,4,83.83,19 / 21,3350414,2019-11-06 17:02:10:876,0.6128,2.4308,9.1832,0.0275,-0.01,9.8066,0.1054,0.1471,-0.0208,-26.56,-36.87,1.25,36.61,-88.08,-57.09
18779,53.11835,-1.431905,192.28,14.4,4,83.83,19 / 21,3350514,2019-11-06 17:02:10:976,-0.1359,-1.2198,10.3041,0.0265,0.0058,9.8065,0.0565,0.0497,0.016,-26.37,-36.62,2.06,28.63,-88.21,-67.0
18780,53.11835,-1.431905,192.28,14.4,4,83.83,19 / 21,3350614,2019-11-06 17:02:11:076,1.592,2.2767,9.2673,0.0287,-0.0337,9.8065,-0.0208,0.3506,-0.1603,-25.31,-35.69,3.38,22.75,-88.34,-75.02
18781,53.11835,-1.431905,192.28,14.4,4,83.83,19 / 21,3350714,2019-11-06 17:02:11:176,-0.3304,-1.0552,10.3559,-0.0005,-0.0212,9.8066,0.0382,0.109,-0.0508,-25.5,-34.06,17.44,45.95,-88.46,-79.52
18782,53.11835,-1.431905,192.28,14.4,4,83.83,19 / 21,3350814,2019-11-06 17:02:11:276,0.9017,1.6811,8.5784,-0.0054,-0.0278,9.8065,-0.1007,0.2787,-0.0558,-45.19,-40.81,18.25,33.27,-88.54,-79.21
18783,53.11835,-1.431905,192.28,14.4,4,83.83,20 / 21,3350914,2019-11-06 17:02:11:376,-0.2391,1.4979,10.7317,-0.015,0.0162,9.8066,-0.1476,-0.0054,0.0916,-31.75,-38.06,-0.37,24.3,-88.47,-66.45
18784,53.11835,-1.431905,192.28,14.4,4,83.83,20 / 21,3351013,2019-11-06 17:02:11:475,0.6946,1.3432,9.4821,-0.0319,-0.0165,9.8066,0.0592,0.2033,-0.0651,-28.25,-36.62,-1.06,36.75,-88.26,-52.6
18785,53.11835,-1.431905,192.28,14.4,4,83.83,20 / 21,3351114,2019-11-06 17:02:11:576,-0.3971,-1.6849,10.2813,0.0075,0.0049,9.8066,0.0696,-0.0793,0.1166,-28.0,-36.69,-1.0,31.69,-88.4,-57.38
18786,53.11835,-1.431905,192.28,14.4,4,83.83,20 / 21,3351214,2019-11-06 17:02:11:676,-0.385,1.2658,10.4617,-0.0074,-0.0427,9.8065,0.09,0.0726,-0.1068,-28.56,-37.44,-1.25,25.77,-88.3,-63.21
18787,53.11835,-1.431905,192.28,14.4,4,83.83,20 / 21,3351314,2019-11-06 17:02:11:776,-0.9347,2.8669,9.6311,-0.0188,0.0246,9.8066,0.0603,-0.2278,0.0595,-33.44,-38.44,-0.69,23.49,-88.45,-65.5
18788,53.11835,-1.431905,192.28,14.4,4,83.83,20 / 21,3351414,2019-11-06 17:02:11:876,-0.1743,1.1867,9.5277,0.0418,0.0288,9.8065,-0.0591,-0.0438,0.1747,-35.0,-37.81,28.44,68.51,-88.63,-61.24
18789,53.11835,-1.431905,192.28,14.4,4,83.83,20 / 21,3351514,2019-11-06 17:02:11:976,-1.9278,-0.0389,9.8378,0.0238,0.0148,9.8065,-0.0093,0.0913,0.058,-25.62,-35.0,7.5,47.0,-88.58,-61.45
18790,53.11835,-1.431905,192.28,14.4,4,83.83,20 / 21,3351614,2019-11-06 17:02:12:076,1.5259,1.2476,10.0485,0.0081,-0.0368,9.8066,0.1112,0.2107,-0.1359,-25.5,-35.5,2.75,23.91,-88.78,-73.62
18791,53.11835,-1.431905,192.28,14.4,4,83.83,20 / 21,3351714,2019-11-06 17:02:12:176,-0.6336,-1.2455,10.1509,-0.0337,0.006,9.8065,0.0657,-0.2571,0.1399,-26.19,-35.87,0.31,21.65,-88.82,-68.96
18792,53.11835,-1.431905,192.28,14.4,4,83.83,20 / 21,3351814,2019-11-06 17:02:12:276,0.693,-1.6104,9.963,-0.0148,0.0097,9.8066,-0.0058,-0.2218,0.1356,-25.44,-35.75,0.13,19.38,-88.7,-71.25
18793,53.11835,-1.431905,192.28,14.4,4,83.83,21 / 22,3351914,2019-11-06 17:02:12:376,-2.9708,1.071,10.1747,-0.0076,0.0256,9.8066,0.0173,-0.223,0.1341,-25.19,-35.87,0.44,21.12,-88.45,-69.69
18794,53.11835,-1.431905,192.28,14.4,4,83.83,21 / 22,3352014,2019-11-06 17:02:12:476,-2.4385,-2.5475,11.1918,0.0049,0.0347,9.8065,0.14,-0.2904,0.1025,-25.25,-35.31,2.44,28.99,-88.64,-66.51
18795,53.11835,-1.431905,192.28,14.4,4,83.83,21 / 22,3352114,2019-11-06 17:02:12:576,-1.9716,3.8134,9.2423,0.0064,0.0823,9.8063,0.0476,-0.3,0.1947,-25.44,-34.81,17.31,54.37,-89.14,-70.66
18796,53.11835,-1.431905,192.28,14.4,4,83.83,21 / 22,3352214,2019-11-06 17:02:12:676,-0.5608,-1.9989,9.0975,0.0083,0.0343,9.8066,0.0216,-0.2989,-0.0482,-44.94,-41.12,17.94,40.99,-89.13,-71.3
18797,53.11835,-1.431905,192.28,14.4,4,83.83,21 / 22,3352313,2019-11-06 17:02:12:775,-0.0986,-0.6005,10.2243,0.0128,0.0083,9.8066,-0.1221,-0.2606,-0.0985,-31.56,-37.87,-0.37,25.82,-89.41,-64.48
18798,53.11835,-1.431905,192.28,14.4,4,83.83,21 / 22,3352413,2019-11-06 17:02:12:875,-1.7115,-4.2436,9.6339,-0.0112,0.0662,9.8064,0.0357,-0.2193,0.1762,-27.37,-37.56,-1.0,68.06,-89.56,-20.39
18799,53.11835,-1.431905,192.28,14.4,4,83.83,21 / 22,3352513,2019-11-06 17:02:12:975,-4.1894,-0.8372,9.3459,-0.0351,0.0581,9.8064,-0.0724,-0.1174,-0.039,-26.37,-37.31,-1.0,83.26,-89.48,-5.27
18800,53.11835,-1.431905,192.28,14.4,4,83.83,21 / 22,3352614,2019-11-06 17:02:13:076,1.0579,-2.6264,9.6108,-0.0496,0.0418,9.8064,-0.0114,-0.2835,0.0443,-27.5,-37.31,-0.75,122.95,-88.78,33.67
18801,53.11835,-1.431905,192.28,14.4,4,83.83,21 / 22,3352714,2019-11-06 17:02:13:176,-0.4534,-0.8555,10.1319,0.0423,0.0272,9.8065,0.024,-0.14,0.0352,-35.25,-39.06,1.56,147.96,-88.9,54.04
18802,53.11835,-1.431905,192.28,14.4,4,83.83,21 / 22,3352813,2019-11-06 17:02:13:275,-2.2926,-2.4103,10.3388,0.0145,0.044,9.8065,0.0374,-0.4129,0.1245,-36.0,-38.87,28.81,190.9,-88.82,62.23
18803,53.118664,-1.430037,186.41,14.14,4,66.83,21 / 23,3352914,2019-11-06 17:02:13:376,0.5875,-1.4386,9.3922,0.0106,0.0421,9.8065,-0.0859,0.1659,-0.2168,-24.69,-35.19,10.75,177.04,-88.64,63.2
18804,53.118664,-1.430037,186.41,14.14,4,66.83,21 / 23,3353014,2019-11-06 17:02:13:476,0.9308,-0.5487,9.1564,0.041,0.0618,9.8063,0.0182,-0.1848,0.1528,-23.94,-36.25,3.38,169.12,-87.74,71.37
18805,53.118664,-1.430037,186.41,14.14,4,66.83,21 / 23,3353114,2019-11-06 17:02:13:576,2.0641,-0.9055,8.5786,-0.0081,0.0631,9.8064,-0.0033,0.045,-0.3138,-24.5,-36.81,1.75,170.34,-87.91,75.04
18806,53.118664,-1.430037,186.41,14.14,4,66.83,21 / 23,3353214,2019-11-06 17:02:13:676,-5.1797,-4.3942,10.6848,-0.0379,-0.0006,9.8065,0.0335,-0.3606,0.0942,-24.37,-36.81,2.06,163.27,-87.4,67.37
18807,53.118664,-1.430037,186.41,14.14,4,66.83,21 / 23,3353313,2019-11-06 17:02:13:775,2.9176,-1.6559,8.2632,-0.0179,-0.0287,9.8066,-0.176,-0.0975,0.0431,-24.5,-37.31,2.25,153.16,-87.11,56.42
18808,53.118664,-1.430037,186.41,14.14,4,66.83,21 / 23,3353413,2019-11-06 17:02:13:875,0.7982,2.4185,10.878,-0.0409,0.0267,9.8064,-0.072,-0.693,0.2092,-23.37,-36.5,4.88,155.68,-86.78,51.42
18809,53.118664,-1.430037,186.41,14.14,4,66.83,21 / 23,3353513,2019-11-06 17:02:13:975,0.3954,-1.341,10.6819,-0.0457,-0.0359,9.8064,0.0306,-0.4347,0.1033,-23.69,-35.94,21.13,184.37,-86.53,53.48
18810,53.118664,-1.430037,186.41,14.14,4,66.83,21 / 23,3353613,2019-11-06 17:02:14:075,1.8801,1.1178,9.3878,-0.0096,0.0219,9.8066,-0.0931,-0.5423,0.1397,-43.25,-42.25,17.13,168.98,-85.87,56.72
18811,53.118664,-1.430037,186.41,14.14,4,66.83,21 / 23,3353713,2019-11-06 17:02:14:175,-2.2513,-4.8802,10.1061,-0.0546,-0.0299,9.8064,0.0105,-0.5687,0.1884,-28.81,-38.69,1.5,152.7,-85.23,55.9
18812,53.118664,-1.430037,186.41,14.14,4,66.83,21 / 23,3353813,2019-11-06 17:02:14:275,-1.7954,1.0265,9.9014,0.011,-0.034,9.8066,-0.0309,-0.2285,0.1119,-25.25,-38.25,1.75,153.1,-84.95,55.16
18813,53.118664,-1.430037,186.41,14.14,4,66.83,19 / 21,3353913,2019-11-06 17:02:14:375,-0.8986,-2.8949,10.4976,0.0434,-0.002,9.8065,0.1036,-0.3791,0.0646,-24.94,-38.0,2.31,157.36,-84.92,59.9
18814,53.118664,-1.430037,186.41,14.14,4,66.83,19 / 21,3354013,2019-11-06 17:02:14:475,-0.9933,-0.637,10.7176,0.0402,-0.0291,9.8064,-0.0395,-0.0329,0.0018,-25.94,-38.31,2.0,162.21,-85.17,65.72
18815,53.118664,-1.430037,186.41,14.14,4,66.83,19 / 21,3354113,2019-11-06 17:02:14:575,-1.2917,-2.7591,10.8528,0.0009,-0.0208,9.8066,0.0958,-0.2484,0.0756,-31.06,-39.69,3.13,162.32,-85.05,64.92
18816,53.118664,-1.430037,186.41,14.14,4,66.83,19 / 21,3354213,2019-11-06 17:02:14:675,0.5672,0.2216,9.9429,-0.0051,-0.0191,9.8065,0.0735,-0.1654,-0.1042,-30.25,-38.56,31.94,200.18,-85.31,64.71
18817,53.118664,-1.430037,186.41,14.14,4,66.83,19 / 21,3354314,2019-11-06 17:02:14:776,-1.3305,-1.4276,10.8994,0.0081,-0.0116,9.8066,0.0581,-0.3183,0.1487,-23.37,-36.25,11.25,180.98,-85.34,65.53
18818,53.118664,-1.430037,186.41,14.14,4,66.83,19 / 21,3354413,2019-11-06 17:02:14:875,-1.3819,-1.5255,10.3079,-0.0053,-0.008,9.8066,-0.1091,0.043,0.0024,-23.37,-37.0,6.31,172.17,-85.27,66.58
18819,53.118664,-1.430037,186.41,14.14,4,66.83,19 / 21,3354514,2019-11-06 17:02:14:976,2.7193,-1.4279,10.0256,-0.0141,-0.0125,9.8065,-0.0126,-0.0544,0.0368,-23.62,-37.37,4.94,169.4,-85.44,66.4
18820,53.118664,-1.430037,186.41,14.14,4,66.83,19 / 21,3354614,2019-11-06 17:02:15:076,1.6015,-2.0559,10.1505,0.0405,-0.0424,9.8065,-0.0383,0.1291,0.0137,-23.62,-37.62,4.81,169.72,-85.68,66.79
18821,53.118664,-1.430037,186.41,14.14,4,66.83,19 / 21,3354713,2019-11-06 17:02:15:175,-2.7857,-3.8327,10.2299,-0.0085,0.0274,9.8065,0.0166,-0.1748,-0.0165,-23.75,-36.69,5.94,171.74,-85.94,66.85
18822,53.118664,-1.430037,186.41,14.14,4,66.83,19 / 21,3354813,2019-11-06 17:02:15:275,0.0585,0.2608,9.2936,-0.0364,-0.0433,9.8065,0.0694,-0.0408,-0.1135,-23.37,-36.44,8.63,172.0,-86.15,59.86
18823,53.118664,-1.430037,186.41,14.14,4,66.83,19 / 20,3354913,2019-11-06 17:02:15:375,2.8684,-4.513,9.0181,0.0139,-0.0342,9.8065,0.0418,-0.2229,0.1671,-23.5,-35.69,19.5,190.08,-86.26,59.82
18824,53.118664,-1.430037,186.41,14.14,4,66.83,19 / 20,3355014,2019-11-06 17:02:15:476,-0.0375,-0.4243,9.9066,-0.0361,-0.0053,9.8066,-0.0752,-0.0278,-0.0551,-44.12,-41.94,23.06,178.72,-86.46,61.06
18825,53.118664,-1.430037,186.41,14.14,4,66.83,19 / 20,3355114,2019-11-06 17:02:15:576,0.5549,-1.4313,9.7022,-0.0176,0.0153,9.8066,-0.0333,-0.047,0.0614,-27.94,-38.19,3.69,156.02,-86.38,55.95
18826,53.118664,-1.430037,186.41,14.14,4,66.83,19 / 20,3355214,2019-11-06 17:02:15:676,-0.0207,-2.8614,10.5376,0.0149,0.005,9.8066,0.0359,0.1566,-0.083,-26.37,-38.25,5.19,160.24,-86.37,57.63
18827,53.118664,-1.430037,186.41,14.14,4,66.83,19 / 20,3355313,2019-11-06 17:02:15:775,0.7687,-1.5324,10.958,0.0106,0.047,9.8065,-0.027,0.1204,-0.1073,-25.94,-38.25,5.25,165.55,-86.53,63.45
18828,53.118664,-1.430037,186.41,14.14,4,66.83,19 / 20,3355413,2019-11-06 17:02:15:875,0.1378,-3.9397,9.4144,0.0053,0.0164,9.8066,-0.0975,0.2214,0.0847,-27.81,-38.87,5.38,168.0,-86.37,66.86
18829,53.118664,-1.430037,186.41,14.14,4,66.83,19 / 20,3355513,2019-11-06 17:02:15:975,0.4488,1.1348,9.1074,0.0096,0.0045,9.8066,0.0271,0.0066,-0.1851,-35.31,-39.87,7.88,168.25,-86.58,64.62
18830,53.118664,-1.430037,186.41,14.14,4,66.83,19 / 20,3355613,2019-11-06 17:02:16:075,0.3007,-0.6377,7.9778,-0.0172,-0.0255,9.8065,0.0399,-0.171,0.0588,-36.31,-39.75,34.31,194.21,-87.15,61.39
18831,53.118664,-1.430037,186.41,14.14,4,66.83,19 / 20,3355713,2019-11-06 17:02:16:175,2.3817,-2.8992,9.1805,-0.0425,-0.0463,9.8064,-0.0275,-0.1322,0.1115,-25.81,-35.69,12.5,169.71,-87.61,52.63
18832,53.118664,-1.430037,186.41,14.14,4,66.83,19 / 20,3355813,2019-11-06 17:02:16:275,0.3916,-0.465,8.6311,-0.0233,-0.0058,9.8066,0.0884,-0.2324,-0.028,-25.75,-36.81,8.06,151.02,-87.52,42.31
18833,53.118664,-1.430037,186.41,14.14,4,66.83,19 / 20,3355913,2019-11-06 17:02:16:375,0.1418,-2.116,9.8473,-0.0364,-0.0052,9.8065,-0.126,-0.2031,0.1838,-25.87,-36.56,6.94,142.26,-87.65,35.24
18834,53.118664,-1.430037,186.41,14.14,4,66.83,19 / 20,3356014,2019-11-06 17:02:16:476,-1.9703,-0.8906,10.4136,0.003,-0.0282,9.8065,-0.1294,0.1388,0.0781,-25.69,-37.06,6.88,142.65,-87.63,35.64
18835,53.118664,-1.430037,186.41,14.14,4,66.83,19 / 20,3356114,2019-11-06 17:02:16:576,2.7227,1.2673,7.8108,-0.0061,0.0356,9.8065,0.0916,0.2116,-0.2272,-25.44,-37.0,7.5,151.6,-87.64,42.29
18836,53.118664,-1.430037,186.41,14.14,4,66.83,19 / 20,3356214,2019-11-06 17:02:16:676,-0.4165,-1.5879,9.2928,0.0518,0.0573,9.8063,0.0777,-0.0309,-0.0595,-24.75,-35.25,10.19,163.64,-87.42,50.9
18837,53.118664,-1.430037,186.41,14.14,4,66.83,19 / 20,3356314,2019-11-06 17:02:16:776,0.7995,-1.2683,9.7677,0.0432,-0.0209,9.8065,0.0631,-0.0393,-0.0482,-27.56,-36.87,29.69,186.94,-87.3,50.25
18838,53.118664,-1.430037,186.41,14.14,4,66.83,19 / 20,3356413,2019-11-06 17:02:16:875,0.635,0.9235,9.4676,-0.0457,0.0037,9.8065,-0.0105,-0.1217,0.1164,-43.12,-40.94,16.06,154.08,-86.99,42.52
18839,53.118664,-1.430037,186.41,14.14,4,66.83,19 / 20,3356513,2019-11-06 17:02:16:975,-0.3687,0.5211,9.4757,-0.0377,-0.0209,9.8065,-0.1273,-0.0959,0.0492,-30.19,-37.62,5.13,144.41,-86.87,42.71
18840,53.118664,-1.430037,186.41,14.14,4,66.83,19 / 20,3356613,2019-11-06 17:02:17:075,1.6256,0.7396,7.9684,-0.015,-0.0161,9.8066,-0.0414,-0.2173,0.1377,-27.62,-37.12,4.75,138.34,-86.71,35.41
18841,53.118664,-1.430037,186.41,14.14,4,66.83,19 / 20,3356713,2019-11-06 17:02:17:175,-0.2266,-2.0161,10.5539,-0.013,-0.0393,9.8065,0.0236,-0.0988,0.0099,-27.31,-37.87,4.44,134.13,-86.35,32.11
18842,53.118664,-1.430037,186.41,14.14,4,66.83,19 / 20,3356813,2019-11-06 17:02:17:275,0.7507,0.5599,9.0915,-0.0017,-0.0063,9.8066,0.0323,-0.1144,0.0241,-28.25,-37.5,4.0,127.95,-86.21,25.96
18843,53.118664,-1.430037,186.41,14.14,4,66.83,20 / 21,3356913,2019-11-06 17:02:17:375,-2.3037,-0.9566,10.2819,0.0287,-0.0225,9.8065,0.0485,-0.1168,0.0308,-40.44,-40.19,10.31,132.04,-86.24,25.35
18844,53.118664,-1.430037,186.41,14.14,4,66.83,20 / 21,3357013,2019-11-06 17:02:17:475,1.1531,0.4371,9.596,-0.007,0.0036,9.8066,0.0024,-0.0842,-0.0659,-31.69,-37.12,32.69,162.53,-86.15,25.76
18845,53.118664,-1.430037,186.41,14.14,4,66.83,20 / 21,3357114,2019-11-06 17:02:17:576,1.1463,-0.9489,10.6846,-0.0134,-0.0061,9.8066,0.0354,-0.1143,0.1271,-25.87,-35.06,12.5,147.06,-86.21,28.07
18846,53.118664,-1.430037,186.41,14.14,4,66.83,20 / 21,3357214,2019-11-06 17:02:17:676,4.0268,-0.1797,9.1791,0.0222,-0.0043,9.8065,-0.0562,0.0107,0.0171,-24.81,-36.44,6.81,140.22,-86.23,31.29
18847,53.118664,-1.430037,186.41,14.14,4,66.83,20 / 21,3357314,2019-11-06 17:02:17:776,-1.4408,-1.1181,10.2833,0.0122,-0.0183,9.8066,0.0576,-0.1223,0.1186,-25.5,-36.81,5.94,138.06,-86.1,30.88
18848,53.118664,-1.430037,186.41,14.14,4,66.83,20 / 21,3357414,2019-11-06 17:02:17:876,2.8578,0.6023,8.8047,0.0297,-0.0193,9.8065,0.0589,-0.0693,0.0196,-25.62,-37.37,5.44,137.36,-86.33,33.06
18849,53.118664,-1.430037,186.41,14.14,4,66.83,20 / 21,3357514,2019-11-06 17:02:17:976,0.6496,-2.3694,10.2501,-0.0251,-0.0195,9.8065,0.0123,-0.1911,0.2082,-24.81,-36.94,6.81,139.18,-86.42,30.26
18850,53.118664,-1.430037,186.41,14.14,4,66.83,20 / 21,3357614,2019-11-06 17:02:18:076,-0.4657,-1.5177,10.9859,-0.0371,0.003,9.8066,-0.2513,0.2005,-0.0792,-24.94,-36.0,9.81,143.65,-86.07,28.79
18851,53.118664,-1.430037,186.41,14.14,4,66.83,20 / 21,3357714,2019-11-06 17:02:18:176,0.5112,-0.4889,9.7383,0.0132,0.0254,9.8065,0.0648,0.1426,-0.0758,-25.19,-36.0,24.63,163.44,-85.93,27.29
18852,53.118664,-1.430037,186.41,14.14,4,66.83,20 / 21,3357814,2019-11-06 17:02:18:276,-0.4248,-0.9068,10.0182,0.0049,0.0331,9.8066,-0.0447,-0.0576,-0.0192,-38.25,-39.75,8.75,136.17,-85.69,29.87
18853,53.118664,-1.430037,186.41,14.14,4,66.83,21 / 22,3357914,2019-11-06 17:02:18:376,-0.5,-0.191,9.9468,-0.0071,-0.0204,9.8066,0.0379,0.1272,0.0351,-28.37,-37.94,4.31,132.7,-85.82,30.51
18854,53.118664,-1.430037,186.41,14.14,4,66.83,21 / 22,3358014,2019-11-06 17:02:18:476,-2.2844,-1.5689,10.4827,0.0248,-0.0103,9.8066,-0.004,0.0067,0.1103,-27.5,-38.25,3.94,130.55,-85.95,27.9
18855,53.118664,-1.430037,186.41,14.14,4,66.83,21 / 22,3358114,2019-11-06 17:02:18:576,3.5893,1.7849,8.8659,-0.0058,-0.0072,9.8066,-0.0314,0.2682,-0.1253,-27.5,-37.94,4.13,124.51,-85.86,21.4
18856,53.118664,-1.430037,186.41,14.14,4,66.83,21 / 22,3358213,2019-11-06 17:02:18:675,0.6175,0.5669,9.266,-0.0077,0.0477,9.8065,0.1672,-0.2995,0.0705,-29.06,-37.81,4.19,123.35,-85.71,20.9
18857,53.118664,-1.430037,186.41,14.14,4,66.83,21 / 22,3358313,2019-11-06 17:02:18:775,0.8996,3.0141,9.4951,0.0014,-0.0194,9.8065,-0.0766,0.1963,-0.0514,-38.25,-39.69,7.63,128.59,-86.03,23.56
18858,53.118664,-1.430037,186.41,14.14,4,66.83,21 / 22,3358417,2019-11-06 17:02:18:879,-3.5316,1.3283,10.9518,0.0202,0.0228,9.8065,0.1789,-0.2202,0.0307,-27.25,-36.37,26.88,161.1,-86.08,24.94
18859,53.118664,-1.430037,186.41,14.14,4,66.83,21 / 22,3358513,2019-11-06 17:02:18:975,-0.1053,-2.0555,10.7707,0.0078,-0.0517,9.8064,0.0144,0.0375,0.0043,-25.31,-35.81,10.94,142.06,-86.31,25.37
18860,53.118664,-1.430037,186.41,14.14,4,66.83,21 / 22,3358616,2019-11-06 17:02:19:078,0.5012,-1.075,9.3251,-0.0376,-0.0068,9.8065,0.0238,-0.3839,0.1839,-26.25,-36.56,7.25,127.49,-86.47,18.62
18861,53.118664,-1.430037,186.41,14.14,4,66.83,21 / 22,3358713,2019-11-06 17:02:19:175,0.2247,-1.6518,10.2534,-0.0281,-0.0772,9.8062,-0.0246,-0.1227,0.1882,-25.81,-37.12,6.63,119.56,-86.83,10.74
18862,53.118664,-1.430037,186.41,14.14,4,66.83,21 / 22,3358813,2019-11-06 17:02:19:275,2.2176,2.9272,8.313,0.0164,-0.0114,9.8066,0.0316,-0.3093,0.1222,-25.81,-36.5,5.63,119.55,-86.89,12.94
18863,53.118664,-1.430037,186.41,14.14,4,66.83,19 / 21,3358913,2019-11-06 17:02:19:375,-3.2396,-2.5575,10.4319,-0.002,-0.0417,9.8065,0.0773,-0.4466,0.2181,-26.25,-36.62,6.94,119.57,-86.84,10.75
18864,53.118664,-1.430037,186.41,14.14,4,66.83,19 / 21,3359013,2019-11-06 17:02:19:475,0.4754,2.0786,9.8374,-0.006,-0.0442,9.8065,-0.0429,0.1737,-0.0629,-26.0,-35.69,9.94,121.49,-86.88,7.05
18865,53.118664,-1.430037,186.41,14.14,4,66.83,19 / 21,3359113,2019-11-06 17:02:19:575,-0.552,0.2025,10.5808,0.0258,-0.0172,9.8066,0.2103,0.0525,0.0392,-33.87,-38.12,33.0,142.22,-87.2,6.73
18866,53.118664,-1.430037,186.41,14.14,4,66.83,19 / 21,3359214,2019-11-06 17:02:19:676,-1.93,2.0029,10.4099,0.011,-0.0031,9.8066,-0.0024,0.022,-0.1209,-40.37,-39.12,9.38,112.06,-87.11,6.86
18867,53.118664,-1.430037,186.41,14.14,4,66.83,19 / 21,3359314,2019-11-06 17:02:19:776,-1.7476,-2.4842,10.0297,-0.0217,-0.0037,9.8065,-0.0512,-0.2259,0.1256,-30.75,-37.25,4.75,106.4,-86.95,3.8
18868,53.118664,-1.430037,186.41,14.14,4,66.83,19 / 21,3359414,2019-11-06 17:02:19:876,0.572,1.1332,10.2779,0.014,-0.0654,9.8064,-0.1067,-0.0367,0.0384,-28.12,-37.19,4.56,105.27,-87.02,1.43
18869,53.118664,-1.430037,186.41,14.14,4,66.83,19 / 21,3359514,2019-11-06 17:02:19:976,1.0514,-5.4153,10.6439,0.021,-0.0049,9.8066,0.1396,-0.3873,0.1482,-28.06,-37.31,4.81,103.4,-86.97,-0.55
18870,53.118664,-1.430037,186.41,14.14,4,66.83,19 / 21,3359614,2019-11-06 17:02:20:076,-3.1092,2.3216,9.7327,0.0323,-0.0686,9.8063,-0.0315,0.5161,-0.2019,-29.62,-36.94,4.31,93.64,-87.47,-7.04
18871,53.118664,-1.430037,186.41,14.14,4,66.83,19 / 21,3359714,2019-11-06 17:02:20:176,2.3044,3.7879,9.2858,0.0224,0.0564,9.8064,0.1058,-0.0062,-0.0337,-44.19,-40.37,17.38,113.35,-87.65,0.41
18872,53.118664,-1.430037,186.41,14.14,4,66.83,19 / 21,3359813,2019-11-06 17:02:20:275,1.0326,1.7073,9.1124,0.0066,-0.0038,9.8066,-0.0609,0.4484,-0.2757,-28.87,-35.75,28.81,130.91,-87.72,-5.58
18873,53.118664,-1.430037,186.41,14.14,4,66.83,19 / 20,3359913,2019-11-06 17:02:20:375,1.1838,0.3743,9.9418,0.0198,0.06,9.8064,0.0676,0.2024,-0.1119,-26.81,-35.12,11.75,106.63,-87.65,-9.98
18874,53.118664,-1.430037,186.41,14.14,4,66.83,19 / 20,3360013,2019-11-06 17:02:20:475,-2.0779,-3.3896,9.9769,0.021,0.0291,9.8065,-0.0046,0.3462,-0.2142,-26.37,-36.19,7.13,109.43,-87.63,1.39
18875,53.118664,-1.430037,186.41,14.14,4,66.83,19 / 20,3360113,2019-11-06 17:02:20:575,-1.4225,-0.0866,10.0844,0.0004,0.0714,9.8063,-0.14,0.2805,-0.224,-26.31,-36.44,5.56,110.2,-87.45,3.99
18876,53.118664,-1.430037,186.41,14.14,4,66.83,19 / 20,3360214,2019-11-06 17:02:20:676,-3.1724,-1.4743,10.8528,0.0441,0.0373,9.8064,-0.0403,0.0657,-0.0108,-25.81,-37.56,6.44,125.0,-87.66,19.29
18877,53.118664,-1.430037,186.41,14.14,4,66.83,19 / 20,3360314,2019-11-06 17:02:20:776,0.1745,-0.0242,9.7132,-0.0058,-0.0131,9.8066,0.0249,0.332,-0.1438,-25.31,-36.94,7.69,132.64,-87.82,22.66
18878,53.118664,-1.430037,186.41,14.14,4,66.83,19 / 20,3360414,2019-11-06 17:02:20:876,-0.372,-6.0788,11.2177,0.0079,0.0447,9.8065,0.2912,-0.6421,0.3335,-25.75,-35.81,12.0,141.82,-87.77,25.33
18879,53.118664,-1.430037,186.41,14.14,4,66.83,19 / 20,3360514,2019-11-06 17:02:20:976,-2.1029,-0.8171,10.9831,-0.0174,-0.0707,9.8063,0.0534,-0.2092,0.0049,-28.5,-36.62,29.56,163.13,-88.07,25.66
18880,53.118664,-1.430037,186.41,14.14,4,66.83,19 / 20,3360614,2019-11-06 17:02:21:076,2.183,3.798,9.4157,0.0355,-0.0163,9.8066,0.099,-0.4144,0.2308,-37.25,-38.62,7.75,134.42,-88.5,31.13
18881,53.118664,-1.430037,186.41,14.14,4,66.83,19 / 20,3360714,2019-11-06 17:02:21:176,-0.9605,2.4437,10.0481,0.0168,-0.0564,9.8064,0.0697,-0.1796,0.1073,-29.5,-38.12,5.06,141.89,-88.35,40.8
18882,53.118664,-1.430037,186.41,14.14,4,66.83,19 / 20,3360814,2019-11-06 17:02:21:276,2.2557,2.374,10.5522,0.0115,-0.0188,9.8065,0.1268,-0.3586,0.2158,-28.19,-37.75,5.0,142.96,-88.62,41.73
18883,53.118664,-1.430037,186.41,14.14,4,66.83,20 / 22,3360914,2019-11-06 17:02:21:376,-2.2321,-3.1436,10.9699,0.0061,-0.0671,9.8064,0.0565,-0.33,0.2167,-28.81,-37.56,4.88,132.98,-89.02,32.27
18884,53.118664,-1.430037,186.41,14.14,4,66.83,20 / 22,3361014,2019-11-06 17:02:21:476,-3.5693,1.0192,9.9143,0.0149,-0.0396,9.8065,0.0209,-0.2581,0.1426,-30.12,-38.31,5.38,135.0,-89.07,34.72
18885,53.118664,-1.430037,186.41,14.14,4,66.83,20 / 22,3361113,2019-11-06 17:02:21:575,-2.1707,-3.9663,10.5297,0.0225,-0.0302,9.8066,0.1515,-0.5243,0.2018,-40.19,-40.06,10.63,142.41,-88.87,36.37
18886,53.118664,-1.430037,186.41,14.14,4,66.83,20 / 22,3361213,2019-11-06 17:02:21:675,-1.6049,-1.2648,10.4497,-0.0232,-0.0323,9.8065,-0.1433,0.5802,-0.2667,-26.81,-35.69,26.06,170.74,-88.93,36.66
18887,53.118664,-1.430037,186.41,14.14,4,66.83,20 / 22,3361313,2019-11-06 17:02:21:775,-1.7244,-2.3713,10.0369,0.0199,0.0641,9.8064,-0.0018,0.2134,-0.0497,-25.62,-35.5,12.44,151.95,-88.86,36.52
18888,53.118664,-1.430037,186.41,14.14,4,66.83,20 / 22,3361413,2019-11-06 17:02:21:875,6.3382,-0.5455,9.2827,0.0748,-0.0169,9.8063,-0.4732,0.1699,-0.0848,-25.87,-36.0,8.44,170.56,-89.19,63.29
18889,53.118664,-1.430037,186.41,14.14,4,66.83,20 / 22,3361513,2019-11-06 17:02:21:975,-3.1269,-0.9479,6.74,-0.0929,-0.0652,9.8059,0.0762,-0.4036,0.368,-26.37,-36.5,7.44,177.49,-89.38,72.38
18890,53.118664,-1.430037,186.41,14.14,4,66.83,20 / 22,3361614,2019-11-06 17:02:22:076,2.691,1.8717,9.5175,-0.0437,-0.0121,9.8065,0.201,0.0239,-0.138,-26.69,-36.62,6.94,121.73,-89.54,16.67
18891,53.118664,-1.430037,186.41,14.14,4,66.83,20 / 22,3361714,2019-11-06 17:02:22:176,2.538,2.2019,10.1254,0.0399,0.0551,9.8064,-0.0512,0.2848,-0.2319,-25.87,-36.37,8.06,155.14,-89.17,47.58
18892,53.118664,-1.430037,186.41,14.14,4,66.83,20 / 22,3361814,2019-11-06 17:02:22:276,-0.4686,-2.073,12.3774,-0.0287,0.0428,9.8064,-0.186,0.0386,-0.0973,-25.75,-35.31,11.5,135.66,-88.71,19.79
18893,53.118896,-1.428034,180.59,15.39,3,81.54,20 / 21,3361914,2019-11-06 17:02:22:376,2.332,-1.9513,11.1775,-0.0687,-0.0899,9.8059,0.0976,0.07,0.2007,-25.56,-35.19,24.69,179.22,-89.08,45.34
18894,53.118896,-1.428034,180.59,15.39,3,81.54,20 / 21,3362014,2019-11-06 17:02:22:476,0.6619,0.5754,9.5164,0.0451,-0.0296,9.8065,0.0762,-0.3397,0.1145,-38.37,-38.62,9.31,356.79,-89.83,-106.53
18895,53.118896,-1.428034,180.59,15.39,3,81.54,20 / 21,3362114,2019-11-06 17:02:22:576,-3.6537,-2.1869,10.6079,0.0162,-0.0492,9.8064,0.0523,-0.2169,0.1756,-30.94,-38.06,6.94,356.48,-89.21,-106.19
18896,53.118896,-1.428034,180.59,15.39,3,81.54,20 / 21,3362213,2019-11-06 17:02:22:675,0.4591,-0.6274,8.8811,-0.0275,-0.0068,9.8066,-0.0846,-0.0299,-0.0714,-29.94,-37.87,5.5,6.13,-88.93,-95.32
18897,53.118896,-1.428034,180.59,15.39,3,81.54,20 / 21,3362313,2019-11-06 17:02:22:775,-0.1197,-0.1947,9.2548,-0.0122,0.0189,9.8066,0.0214,-0.0834,-0.0303,-29.37,-37.44,5.13,26.38,-89.26,-73.82
18898,53.118896,-1.428034,180.59,15.39,3,81.54,20 / 21,3362414,2019-11-06 17:02:22:876,-0.6285,-0.0898,9.4653,0.0058,0.0192,9.8066,0.0216,0.02,-0.0162,-30.12,-37.81,5.19,56.37,-89.56,-43.55
18899,53.118896,-1.428034,180.59,15.39,3,81.54,20 / 21,3362514,2019-11-06 17:02:22:976,-0.4322,-0.1446,9.6978,-0.0003,-0.0037,9.8066,-0.0499,0.0391,0.0267,-40.06,-40.06,9.31,84.45,-89.61,-18.6
18900,53.118896,-1.428034,180.59,15.39,3,81.54,20 / 21,3362614,2019-11-06 17:02:23:076,0.022,0.0667,9.5684,-0.0074,-0.0195,9.8065,0.0245,-0.2667,0.1417,-27.56,-35.0,25.69,90.5,-89.67,-42.68
18901,53.118896,-1.428034,180.59,15.39,3,81.54,20 / 21,3362714,2019-11-06 17:02:23:176,-1.563,-2.767,10.5133,-0.0243,-0.057,9.8064,0.0444,-0.3167,0.2243,-26.69,-35.31,12.0,34.86,-89.51,-79.43
18902,53.118896,-1.428034,180.59,15.39,3,81.54,20 / 21,3362814,2019-11-06 17:02:23:276,-1.5452,0.1996,9.3121,-0.0065,-0.0466,9.8065,0.0168,-0.0082,-0.0333,-27.25,-36.0,7.81,24.48,-88.87,-82.63
18903,53.118896,-1.428034,180.59,15.39,3,81.54,20 / 21,3362914,2019-11-06 17:02:23:376,-0.7817,-2.1024,9.2524,0.0064,0.005,9.8066,0.1548,-0.1256,0.0324,-27.44,-36.19,6.94,30.27,-88.77,-75.07
18904,53.118896,-1.428034,180.59,15.39,3,81.54,20 / 21,3363014,2019-11-06 17:02:23:476,-1.7675,0.1015,9.1082,-0.0498,-0.0147,9.8065,0.0176,0.4422,-0.366,-27.5,-36.0,6.81,38.25,-88.86,-67.2
18905,53.118896,-1.428034,180.59,15.39,3,81.54,20 / 21,3363114,2019-11-06 17:02:23:576,0.1361,3.589,8.8317,0.0111,0.0004,9.8066,-0.1245,0.2087,-0.0243,-26.56,-35.87,7.38,56.63,-88.95,-49.05
18906,53.118896,-1.428034,180.59,15.39,3,81.54,20 / 21,3363213,2019-11-06 17:02:23:675,4.6522,-1.0706,8.9057,0.0295,-0.0307,9.8065,-0.0692,0.2939,-0.1715,-26.5,-35.37,12.31,62.4,-89.01,-53.45
18907,53.118896,-1.428034,180.59,15.39,3,81.54,20 / 21,3363313,2019-11-06 17:02:23:775,1.5659,4.5375,9.343,-0.0028,-0.0456,9.8065,-0.0434,0.4825,-0.34,-33.06,-37.75,33.13,79.99,-89.2,-55.65
18908,53.118896,-1.428034,180.59,15.39,3,81.54,20 / 21,3363414,2019-11-06 17:02:23:876,-1.7529,-3.7276,9.733,-0.0275,-0.0383,9.8065,0.0717,0.2214,-0.1893,-42.12,-39.5,11.38,91.58,-89.36,-13.67
18909,53.118896,-1.428034,180.59,15.39,3,81.54,20 / 21,3363514,2019-11-06 17:02:23:976,1.8515,4.597,8.8717,0.0274,-0.0526,9.8064,-0.0541,0.6327,-0.2724,-29.62,-38.12,4.81,93.02,-89.37,-7.23
18910,53.118896,-1.428034,180.59,15.39,3,81.54,20 / 21,3363614,2019-11-06 17:02:24:076,-0.603,-1.0887,10.3797,0.0066,0.0266,9.8066,-0.0037,-0.2595,0.0955,-28.75,-37.25,5.31,118.83,-89.42,18.42
18911,53.118896,-1.428034,180.59,15.39,3,81.54,20 / 21,3363714,2019-11-06 17:02:24:176,0.7106,-0.2518,9.809,-0.0101,-0.0219,9.8066,-0.0265,0.2059,-0.1176,-28.06,-37.94,4.94,124.22,-89.32,23.35
18912,53.118896,-1.428034,180.59,15.39,3,81.54,20 / 21,3363814,2019-11-06 17:02:24:276,-1.8309,-2.6806,9.4561,-0.0328,0.0188,9.8065,0.0594,-0.1629,0.0585,-30.75,-38.25,5.44,124.96,-88.95,24.76
18913,53.118896,-1.428034,180.59,15.39,3,81.54,20 / 23,3363914,2019-11-06 17:02:24:376,-0.9031,2.899,9.3032,-0.0237,-0.003,9.8065,-0.0287,0.2455,-0.15,-42.56,-41.37,13.88,139.89,-88.88,31.21
18914,53.118896,-1.428034,180.59,15.39,3,81.54,20 / 23,3364014,2019-11-06 17:02:24:476,0.0073,0.389,10.2791,-0.0032,0.0007,9.8066,0.0313,-0.1452,0.0547,-29.37,-36.31,31.0,176.12,-88.7,39.14
18915,53.118896,-1.428034,180.59,15.39,3,81.54,20 / 23,3364114,2019-11-06 17:02:24:576,2.6268,2.7462,9.5832,-0.0094,-0.0486,9.8065,-0.0316,0.1926,-0.0331,-25.69,-35.5,9.75,145.2,-88.84,33.34
18916,53.118896,-1.428034,180.59,15.39,3,81.54,20 / 23,3364213,2019-11-06 17:02:24:675,-3.8352,1.1433,10.5575,0.0076,-0.0071,9.8066,0.0796,-0.1416,0.1399,-26.37,-36.37,7.38,130.37,-89.04,24.33
18917,53.118896,-1.428034,180.59,15.39,3,81.54,20 / 23,3364313,2019-11-06 17:02:24:775,-1.3478,-4.968,9.4795,0.0011,-0.0441,9.8065,-0.147,0.078,0.1656,-27.25,-37.06,6.5,99.9,-89.35,-5.49
18918,53.118896,-1.428034,180.59,15.39,3,81.54,20 / 23,3364413,2019-11-06 17:02:24:875,-0.9237,-1.2945,9.2338,0.007,0.1282,9.8058,-0.0024,-0.3867,0.2656,-25.69,-37.25,5.69,125.04,-88.81,20.7
18919,53.118896,-1.428034,180.59,15.39,3,81.54,20 / 23,3364514,2019-11-06 17:02:24:976,-0.4653,-2.8211,9.4215,-0.066,0.0783,9.8061,0.1545,-0.5082,-0.0195,-26.25,-36.87,6.81,128.67,-88.34,21.83
18920,53.118896,-1.428034,180.59,15.39,3,81.54,20 / 23,3364614,2019-11-06 17:02:25:076,0.8308,-0.1225,9.5051,-0.0185,0.014,9.8066,0.0079,0.2049,-0.1251,-25.62,-35.94,10.13,147.2,-88.22,34.93
18921,53.118896,-1.428034,180.59,15.39,3,81.54,20 / 23,3364714,2019-11-06 17:02:25:176,0.369,-2.1946,11.0206,0.0587,-0.002,9.8064,0.0717,-0.081,0.1125,-35.25,-39.5,32.94,176.13,-88.08,42.71
18922,53.118896,-1.428034,180.59,15.39,3,81.54,20 / 23,3364814,2019-11-06 17:02:25:276,1.6657,-0.4948,11.4114,0.0276,-0.0246,9.8065,-0.0347,0.274,-0.2449,-37.19,-39.37,8.25,157.39,-88.35,54.54
18923,53.118896,-1.428034,180.59,15.39,3,81.54,20 / 21,3364914,2019-11-06 17:02:25:376,0.1197,0.9166,10.7921,0.028,0.0089,9.8066,0.0763,0.0332,0.0711,-28.69,-37.5,4.31,164.7,-88.32,66.29
18924,53.118896,-1.428034,180.59,15.39,3,81.54,20 / 21,3365013,2019-11-06 17:02:25:475,-0.1766,-1.3638,9.1638,0.0089,-0.0025,9.8066,0.0718,0.2432,-0.1233,-27.5,-37.94,4.0,171.23,-88.43,72.47
18925,53.118896,-1.428034,180.59,15.39,3,81.54,20 / 21,3365113,2019-11-06 17:02:25:575,-2.3962,0.1754,9.5767,0.0277,-0.0184,9.8065,-0.1151,0.2275,0.002,-26.87,-37.62,4.06,179.33,-88.39,80.87
18926,53.118896,-1.428034,180.59,15.39,3,81.54,20 / 21,3365214,2019-11-06 17:02:25:676,0.4954,-2.0198,9.8234,-0.0041,-0.0055,9.8066,-0.161,0.2427,-0.0697,-28.94,-38.5,4.94,170.19,-88.39,70.05
18927,53.118896,-1.428034,180.59,15.39,3,81.54,20 / 21,3365314,2019-11-06 17:02:25:776,1.3007,1.0345,9.9417,0.005,-0.0201,9.8065,0.0499,0.3464,-0.0493,-43.5,-41.75,18.88,181.03,-88.25,67.22
18928,53.118896,-1.428034,180.59,15.39,3,81.54,20 / 21,3365413,2019-11-06 17:02:25:875,0.3689,-1.3269,9.8422,0.0387,0.0359,9.8064,0.11,-0.2623,0.1021,-26.75,-35.44,26.75,205.99,-88.45,71.61
18929,53.118896,-1.428034,180.59,15.39,3,81.54,20 / 21,3365513,2019-11-06 17:02:25:975,0.331,-2.4346,10.6034,0.0059,0.0071,9.8066,0.1032,-0.2999,0.1099,-25.31,-34.75,10.5,196.77,-88.14,83.7
18930,53.118896,-1.428034,180.59,15.39,3,81.54,20 / 21,3365614,2019-11-06 17:02:26:076,-0.6878,-0.0593,9.5892,0.0113,0.0032,9.8066,0.0412,0.1039,0.0308,-25.62,-35.37,6.5,194.39,-88.24,89.89
18931,53.118896,-1.428034,180.59,15.39,3,81.54,20 / 21,3365713,2019-11-06 17:02:26:175,1.5745,-0.5906,10.7366,0.0054,-0.0268,9.8066,0.1368,0.0218,-0.172,-26.0,-35.5,6.25,198.04,-88.3,95.72
18932,53.118896,-1.428034,180.59,15.39,3,81.54,20 / 21,3365813,2019-11-06 17:02:26:275,-4.1505,1.2441,10.097,0.0388,0.0135,9.8065,0.1956,-0.1265,0.0038,-25.5,-35.5,5.44,208.47,-87.95,108.49
18933,53.118896,-1.428034,180.59,15.39,3,81.54,19 / 22,3365914,2019-11-06 17:02:26:376,3.644,-1.2176,9.9906,0.0507,0.0138,9.8065,0.1525,-0.0541,-0.0109,-25.06,-35.75,7.0,227.34,-87.29,124.43
18934,53.118896,-1.428034,180.59,15.39,3,81.54,19 / 22,3366013,2019-11-06 17:02:26:475,-1.6713,2.7562,10.1952,0.0009,-0.0113,9.8066,0.0707,0.1296,-0.1304,-24.75,-34.94,12.56,242.04,-87.12,127.7
18935,53.118896,-1.428034,180.59,15.39,3,81.54,19 / 22,3366114,2019-11-06 17:02:26:576,-1.47,1.623,9.67,-0.0132,0.0037,9.8066,-0.067,0.0165,-0.0262,-32.94,-38.5,33.06,259.42,-87.09,126.74
18936,53.118896,-1.428034,180.59,15.39,3,81.54,19 / 22,3366214,2019-11-06 17:02:26:676,1.0763,-0.2955,10.6112,0.0067,-0.0255,9.8065,-0.0683,0.1035,-0.0097,-36.5,-38.62,6.81,224.38,-87.12,125.49
