,GPS LATITUDE (degrees), GPS LONGITUDE (degrees), GPS ALTITUDE (m), GPS SPEED (Kmh), GPS ACCURACY (m), GPS ORIENTATION (Â°),GPS SATELLITES IN RANGE, TIME SINCE START (ms), DATE (YYYY-MO-DD HH-MI-SS_SSS), ACCELEROMETER X (m/s²) , ACCELEROMETER Y (m/s²), ACCELEROMETER Z (m/s²), GRAVITY X (m/s²), GRAVITY Y (m/s²), GRAVITY Z (m/s²), GYROSCOPE Yaw (rad/s), GYROSCOPE Pitch (rad/s), GYROSCOPE Roll (rad/s), MAGNETIC FIELD X (Î¼T), MAGNETIC FIELD Y (Î¼T), MAGNETIC FIELD Z (Î¼T), ORIENTATION (Yaw) (Â°), ORIENTATION (Pitch) (Â°), ORIENTATION (Roll ) (Â°)
55922,53.732132,-1.609565,203.56,24.78,4,300.96,21 / 21,5592238,2019-11-08 11:30:29:849,0.2184,0.5366,9.1148,-0.0266,-0.0267,9.8065,0.1217,0.143,-0.0154,5.69,-45.19,37.44,18.32,-81.54,-174.26
55923,53.732132,-1.609565,203.56,24.78,4,300.96,21 / 21,5592338,2019-11-08 11:30:29:949,1.266,-1.2049,11.3162,0.0321,-0.0475,9.8064,0.1772,0.1352,-0.2078,5.63,-45.0,36.69,18.99,-81.51,-173.73
55924,53.732132,-1.609565,203.56,24.78,4,300.96,21 / 21,5592438,2019-11-08 11:30:30:049,-1.5095,-1.1809,11.7942,0.0203,0.0206,9.8066,-0.0442,0.095,-0.0533,5.5,-44.87,37.56,17.67,-81.44,-174.52
55925,53.732132,-1.609565,203.56,24.78,4,300.96,21 / 21,5592540,2019-11-08 11:30:30:151,-0.4199,0.1622,9.9232,0.0062,0.0042,9.8066,-0.0407,-0.0326,0.0867,5.13,-44.94,37.5,15.42,-81.26,-174.97
55926,53.732132,-1.609565,203.56,24.78,4,300.96,21 / 21,5592639,2019-11-08 11:30:30:250,1.8068,0.6502,9.6145,0.016,0.0087,9.8065,-0.042,-0.1871,0.1148,5.25,-44.5,37.5,16.2,-81.28,-174.25
55927,53.732132,-1.609565,203.56,24.78,4,300.96,21 / 21,5592738,2019-11-08 11:30:30:349,-1.089,0.057,9.3246,0.0047,0.0224,9.8066,-0.028,-0.2557,0.1489,5.25,-44.94,37.81,16.35,-81.55,-174.1
55928,53.732132,-1.609565,203.56,24.78,4,300.96,21 / 21,5592838,2019-11-08 11:30:30:449,3.1782,-0.4767,9.0801,0.0236,0.0138,9.8066,-0.0086,0.0559,-0.0108,4.13,-45.06,37.5,16.03,-81.55,-172.88
55929,53.732132,-1.609565,203.56,24.78,4,300.96,21 / 21,5592938,2019-11-08 11:30:30:549,1.2621,-0.2156,9.9178,0.0247,-0.0064,9.8066,0.0358,0.1984,-0.1909,4.31,-44.75,37.88,16.03,-81.55,-172.88
55930,53.732132,-1.609565,203.56,24.78,4,300.96,21 / 21,5593038,2019-11-08 11:30:30:649,-1.6552,0.7185,10.8038,-0.0077,-0.0055,9.8066,-0.0321,0.2099,-0.1,5.13,-44.87,37.94,16.76,-81.55,-173.76
55931,53.732132,-1.609565,203.56,24.78,4,300.96,21 / 21,5593139,2019-11-08 11:30:30:750,3.1541,0.5831,8.9993,-0.015,0.0017,9.8065,0.0594,0.1783,-0.0383,4.38,-44.44,38.0,15.01,-81.46,-173.7
55932,53.732132,-1.609565,203.56,24.78,4,300.96,21 / 21,5593239,2019-11-08 11:30:30:850,-1.1567,-0.0425,9.8446,-0.0283,-0.0033,9.8065,-0.0472,-0.1299,-0.0256,5.19,-44.81,37.56,14.71,-81.64,-175.42
55933,53.732132,-1.609565,203.56,24.78,4,300.96,21 / 21,5593339,2019-11-08 11:30:30:950,-1.6972,0.4493,9.7126,-0.0249,0.0118,9.8065,-0.012,-0.135,0.2059,5.13,-45.19,38.19,15.58,-81.68,-174.69
55934,53.732132,-1.609565,203.56,24.78,4,300.96,21 / 21,5593439,2019-11-08 11:30:31:050,-0.0099,1.2304,10.0342,-0.0019,-0.0051,9.8066,0.0056,-0.2461,0.0565,4.56,-44.75,38.0,16.49,-81.75,-173.91
55935,53.732132,-1.609565,203.56,24.78,4,300.96,20 / 21,5593539,2019-11-08 11:30:31:150,-2.4747,1.0782,10.2028,0.0127,0.0018,9.8066,-0.0246,-0.1712,0.0691,4.5,-44.87,37.88,16.57,-81.72,-173.86
55936,53.732132,-1.609565,203.56,24.78,4,300.96,20 / 21,5593638,2019-11-08 11:30:31:249,0.6598,1.3146,9.1315,-0.0307,0.0045,9.8065,-0.0016,0.1074,-0.0169,4.13,-45.5,37.81,15.84,-81.67,-173.0
55937,53.732132,-1.609565,203.56,24.78,4,300.96,20 / 21,5593738,2019-11-08 11:30:31:349,-1.7054,1.2111,9.5852,0.0303,0.0058,9.8065,0.0412,0.1807,-0.2042,4.5,-45.19,38.25,16.2,-81.81,-174.13
55938,53.732132,-1.609565,203.56,24.78,4,300.96,20 / 21,5593839,2019-11-08 11:30:31:450,-0.397,0.6672,10.4009,-0.0028,-0.0115,9.8066,-0.0005,0.1752,-0.0332,4.94,-45.19,37.88,17.43,-81.9,-173.07
55939,53.732132,-1.609565,203.56,24.78,4,300.96,20 / 21,5593939,2019-11-08 11:30:31:550,1.6901,0.5941,10.0576,-0.007,0.0079,9.8066,-0.0297,0.1228,-0.014,4.63,-45.44,38.31,17.04,-81.82,-173.43
55940,53.732132,-1.609565,203.56,24.78,4,300.96,20 / 21,5594039,2019-11-08 11:30:31:650,0.5911,-1.1226,10.1044,-0.0069,0.0143,9.8066,0.0752,-0.0019,-0.1519,4.81,-45.31,37.88,16.55,-81.76,-173.86
55941,53.732132,-1.609565,203.56,24.78,4,300.96,20 / 21,5594139,2019-11-08 11:30:31:750,-0.6643,0.868,10.007,0.0166,0.0003,9.8066,-0.0281,-0.0548,-0.0479,4.5,-44.5,37.88,16.93,-81.92,-173.42
55942,53.732132,-1.609565,203.56,24.78,4,300.96,20 / 21,5594239,2019-11-08 11:30:31:850,0.362,0.4959,8.7605,-0.0139,0.0233,9.8065,0.0008,0.0868,0.0734,4.44,-44.94,38.0,15.74,-81.9,-173.0
55943,53.732132,-1.609565,203.56,24.78,4,300.96,20 / 21,5594339,2019-11-08 11:30:31:950,-0.4189,1.3216,9.4148,0.0189,0.0033,9.8066,-0.0384,0.0824,-0.1088,4.44,-45.12,38.25,15.5,-82.03,-173.15
55944,53.732132,-1.609565,203.56,24.78,4,300.96,20 / 21,5594439,2019-11-08 11:30:32:050,-0.781,0.4869,9.9254,0.0056,0.0027,9.8066,0.0362,-0.0643,0.0576,4.75,-45.12,37.75,18.04,-82.07,-172.49
55945,53.732132,-1.609565,203.56,24.78,4,300.96,20 / 20,5594538,2019-11-08 11:30:32:149,0.6413,1.3672,9.4949,-0.0184,0.0016,9.8066,0.0025,-0.1046,0.1302,5.0,-45.0,37.94,16.16,-82.16,-174.03
55946,53.732132,-1.609565,203.56,24.78,4,300.96,20 / 20,5594639,2019-11-08 11:30:32:250,-0.9148,0.5456,10.1865,0.0028,-0.0018,9.8066,0.0451,-0.1748,0.0034,4.69,-45.19,38.63,16.3,-82.14,-173.67
55947,53.732132,-1.609565,203.56,24.78,4,300.96,20 / 20,5594738,2019-11-08 11:30:32:349,-0.2533,-0.209,10.3438,-0.0237,-0.0042,9.8066,0.0368,-0.1232,0.086,5.25,-45.06,38.19,17.09,-82.07,-173.29
55948,53.732132,-1.609565,203.56,24.78,4,300.96,20 / 20,5594838,2019-11-08 11:30:32:449,1.731,1.0472,9.6527,0.012,0.0088,9.8066,-0.0924,0.0902,-0.0217,4.38,-45.12,37.63,13.51,-81.88,-174.86
55949,53.732132,-1.609565,203.56,24.78,4,300.96,20 / 20,5594938,2019-11-08 11:30:32:549,-1.1246,1.2875,9.1063,0.0171,-0.0103,9.8066,0.0012,0.1752,-0.1214,5.06,-45.06,38.5,14.07,-81.82,-175.64
55950,53.732132,-1.609565,203.56,24.78,4,300.96,20 / 20,5595038,2019-11-08 11:30:32:649,0.217,-0.1256,9.897,0.0165,-0.0003,9.8066,0.0334,-0.017,-0.0581,4.38,-44.75,38.75,13.58,-81.93,-174.58
55951,53.732132,-1.609565,203.56,24.78,4,300.96,20 / 20,5595139,2019-11-08 11:30:32:750,-0.04,-0.1499,9.6799,-0.0111,0.0122,9.8065,-0.0356,0.0135,0.085,4.75,-44.75,38.06,14.44,-81.97,-175.53
55952,53.732132,-1.609565,203.56,24.78,4,300.96,20 / 20,5595239,2019-11-08 11:30:32:850,1.1353,0.3241,10.054,0.0152,-0.0042,9.8066,0.0252,0.0938,-0.1193,4.5,-44.44,37.75,14.12,-81.89,-175.78
55953,53.732132,-1.609565,203.56,24.78,4,300.96,20 / 20,5595339,2019-11-08 11:30:32:950,-0.2373,0.407,9.9349,0.0046,-0.0032,9.8066,0.0526,0.0784,-0.1162,4.69,-44.5,37.94,13.8,-81.86,-176.06
55954,53.732132,-1.609565,203.56,24.78,4,300.96,20 / 20,5595439,2019-11-08 11:30:33:050,1.1061,0.0458,9.4158,0.0025,0.0128,9.8066,-0.0665,0.068,0.002,5.19,-45.25,38.19,14.2,-81.91,-175.76
55955,53.732132,-1.609565,203.56,24.78,4,300.96,21 / 22,5595539,2019-11-08 11:30:33:150,-0.7604,0.5795,9.7176,0.0078,0.0142,9.8066,-0.0961,0.106,0.0654,4.69,-44.62,38.25,13.68,-82.01,-176.16
55956,53.732132,-1.609565,203.56,24.78,4,300.96,21 / 22,5595638,2019-11-08 11:30:33:249,0.5783,-0.6661,9.7596,-0.0075,-0.0017,9.8066,0.0252,-0.1057,-0.0057,4.88,-44.62,38.38,14.51,-81.99,-175.48
55957,53.732132,-1.609565,203.56,24.78,4,300.96,21 / 22,5595738,2019-11-08 11:30:33:349,1.4612,-0.9526,10.2745,-0.0191,0.0003,9.8066,0.0094,-0.1081,0.1369,5.31,-44.81,38.63,15.67,-81.9,-174.28
55958,53.732132,-1.609565,203.56,24.78,4,300.96,21 / 22,5595838,2019-11-08 11:30:33:449,-0.1187,0.1775,9.9359,-0.0154,-0.0041,9.8066,0.0005,-0.0299,0.1027,4.31,-44.69,38.38,13.13,-81.91,-175.17
55959,53.732132,-1.609565,203.56,24.78,4,300.96,21 / 22,5595938,2019-11-08 11:30:33:549,0.9275,0.5333,8.9774,0.0012,-0.0027,9.8066,0.064,-0.0207,-0.107,4.69,-45.25,39.06,15.15,-81.88,-174.73
55960,53.732132,-1.609565,203.56,24.78,4,300.96,21 / 22,5596038,2019-11-08 11:30:33:649,0.1301,-0.9701,9.6935,-0.0013,-0.0117,9.8066,0.0347,0.0878,0.0027,4.13,-45.25,38.13,12.95,-81.98,-175.29
55961,53.732132,-1.609565,203.56,24.78,4,300.96,21 / 22,5596138,2019-11-08 11:30:33:749,-0.7585,-0.9973,10.4312,0.0071,0.0208,9.8066,-0.1566,0.0783,-0.0622,4.63,-45.44,37.88,14.24,-81.84,-175.75
55962,53.732132,-1.609565,203.56,24.78,4,300.96,21 / 22,5596238,2019-11-08 11:30:33:849,-0.8152,0.4116,9.7731,-0.0134,0.0021,9.8066,-0.1917,0.0095,-0.0297,4.88,-45.06,37.69,14.67,-82.08,-175.31
55963,53.732132,-1.609565,203.56,24.78,4,300.96,21 / 22,5596339,2019-11-08 11:30:33:950,0.8989,-0.4731,10.7069,-0.0192,-0.0052,9.8066,-0.1776,-0.0019,0.1645,5.06,-45.19,37.81,15.36,-82.23,-174.68
55964,53.732132,-1.609565,203.56,24.78,4,300.96,21 / 22,5596438,2019-11-08 11:30:34:049,0.4418,0.7057,9.3234,-0.0006,0.0038,9.8065,-0.1151,0.0521,0.0424,4.69,-45.19,37.69,15.58,-82.3,-174.47
55965,53.73317,-1.612485,206.28,24.56,4,301.28,21 / 21,5596538,2019-11-08 11:30:34:149,0.7881,1.5287,9.9306,-0.0206,-0.0141,9.8065,0.0308,0.1084,-0.1791,4.06,-44.56,38.38,14.63,-82.44,-173.74
55966,53.73317,-1.612485,206.28,24.56,4,301.28,21 / 21,5596638,2019-11-08 11:30:34:249,0.7551,0.495,9.7524,-0.0136,0.0016,9.8065,0.0105,0.1221,-0.0196,5.13,-44.94,38.06,16.18,-82.38,-173.94
55967,53.73317,-1.612485,206.28,24.56,4,301.28,21 / 21,5596738,2019-11-08 11:30:34:349,-0.2772,-1.5241,10.3806,0.0234,0.0188,9.8065,-0.0054,0.005,-0.06,5.06,-45.37,38.25,15.38,-82.65,-174.52
55968,53.73317,-1.612485,206.28,24.56,4,301.28,21 / 21,5596839,2019-11-08 11:30:34:450,0.4923,-0.3286,9.4709,-0.001,0.0287,9.8066,-0.0661,-0.0266,-0.0422,4.94,-45.62,37.94,16.15,-82.86,-173.84
55969,53.73317,-1.612485,206.28,24.56,4,301.28,21 / 21,5596939,2019-11-08 11:30:34:550,1.3119,1.0302,9.7288,0.0047,0.0126,9.8066,0.0071,-0.0783,0.0842,4.75,-44.62,37.94,16.38,-83.08,-173.52
55970,53.73317,-1.612485,206.28,24.56,4,301.28,21 / 21,5597039,2019-11-08 11:30:34:650,0.5457,-0.3404,9.3695,0.0133,-0.002,9.8066,-0.0293,0.0392,0.0271,4.63,-45.37,38.0,16.59,-83.21,-173.29
55971,53.73317,-1.612485,206.28,24.56,4,301.28,21 / 21,5597139,2019-11-08 11:30:34:750,1.6855,0.5405,9.8344,-0.0179,0.0185,9.8066,0.0385,0.1446,-0.1713,5.0,-44.56,37.88,18.24,-83.34,-171.82
55972,53.73317,-1.612485,206.28,24.56,4,301.28,21 / 21,5597238,2019-11-08 11:30:34:849,1.1441,0.5467,9.4066,0.0025,0.0121,9.8066,0.0075,0.1268,-0.1176,4.81,-45.5,37.5,17.76,-83.31,-172.24
55973,53.73317,-1.612485,206.28,24.56,4,301.28,21 / 21,5597338,2019-11-08 11:30:34:949,0.2157,-0.3667,10.1598,0.0225,0.0046,9.8065,-0.0738,-0.0448,0.1302,4.88,-45.0,38.0,17.66,-83.27,-172.35
55974,53.73317,-1.612485,206.28,24.56,4,301.28,21 / 21,5597438,2019-11-08 11:30:35:049,1.0156,-0.6275,9.6662,-0.0004,0.0023,9.8066,0.0079,-0.0706,0.0523,5.06,-45.25,38.25,17.23,-83.38,-172.68
55975,53.73317,-1.612485,206.28,24.56,4,301.28,20 / 21,5597538,2019-11-08 11:30:35:149,1.1051,-0.9752,10.4963,-0.0028,0.0269,9.8065,0.1195,-0.0127,-0.0398,4.81,-44.69,38.69,15.85,-83.53,-173.57
55976,53.73317,-1.612485,206.28,24.56,4,301.28,20 / 21,5597638,2019-11-08 11:30:35:249,-0.0982,0.0534,9.3372,0.0097,-0.0083,9.8065,0.0061,0.1027,-0.0429,5.13,-45.0,37.94,15.34,-83.37,-174.31
55977,53.73317,-1.612485,206.28,24.56,4,301.28,20 / 21,5597739,2019-11-08 11:30:35:350,-0.4018,0.866,10.007,-0.0051,-0.0167,9.8065,-0.0594,0.0354,0.0106,5.06,-45.12,38.56,15.53,-83.32,-173.92
55978,53.73317,-1.612485,206.28,24.56,4,301.28,20 / 21,5597839,2019-11-08 11:30:35:450,0.4793,0.398,9.1462,0.0296,-0.0157,9.8066,0.0267,0.0389,0.044,4.69,-45.31,37.63,16.18,-83.32,-173.6
55979,53.73317,-1.612485,206.28,24.56,4,301.28,20 / 21,5597939,2019-11-08 11:30:35:550,1.0163,-0.1867,10.2775,-0.009,0.018,9.8066,0.012,-0.0766,-0.1774,4.69,-45.06,37.19,14.89,-83.27,-174.98
55980,53.73317,-1.612485,206.28,24.56,4,301.28,20 / 21,5598039,2019-11-08 11:30:35:650,-0.9123,0.4636,10.0092,-0.011,-0.0021,9.8066,-0.0195,-0.0377,-0.0099,5.31,-44.87,37.44,12.32,-83.45,-177.14
55981,53.73317,-1.612485,206.28,24.56,4,301.28,20 / 21,5598139,2019-11-08 11:30:35:750,1.8179,0.251,9.6954,0.0059,-0.029,9.8066,-0.0746,0.1208,-0.0131,5.44,-45.0,37.44,12.71,-83.28,-176.85
55982,53.73317,-1.612485,206.28,24.56,4,301.28,20 / 21,5598240,2019-11-08 11:30:35:851,-0.0023,1.012,10.5059,-0.0209,-0.0015,9.8065,-0.0082,0.0605,-0.1089,4.56,-45.06,37.88,12.52,-83.4,-176.74
55983,53.73317,-1.612485,206.28,24.56,4,301.28,20 / 21,5598339,2019-11-08 11:30:35:950,1.02,-2.4262,9.8649,0.0005,0.0309,9.8065,0.1426,-0.0332,0.0314,5.25,-44.62,37.75,13.73,-83.52,-175.65
55984,53.73317,-1.612485,206.28,24.56,4,301.28,20 / 21,5598438,2019-11-08 11:30:36:049,0.4712,-0.8183,10.1489,-0.0071,0.0289,9.8066,0.0094,-0.0117,0.0574,5.38,-44.81,37.94,15.26,-83.57,-174.31
55985,53.73317,-1.612485,206.28,24.56,4,301.28,20 / 22,5598538,2019-11-08 11:30:36:149,1.6415,1.3239,8.4313,-0.0047,-0.0204,9.8066,-0.1432,0.1569,-0.0544,4.38,-44.87,37.5,14.93,-83.87,-173.02
55986,53.73317,-1.612485,206.28,24.56,4,301.28,20 / 22,5598638,2019-11-08 11:30:36:249,-0.0109,0.735,10.2369,-0.0052,-0.0049,9.8066,-0.0903,0.0373,-0.0306,4.94,-44.44,37.94,16.85,-83.85,-172.78
55987,53.73317,-1.612485,206.28,24.56,4,301.28,20 / 22,5598739,2019-11-08 11:30:36:350,0.086,0.5944,10.6247,-0.003,-0.0018,9.8066,-0.0207,-0.0286,0.0886,5.0,-44.87,38.38,18.41,-83.85,-171.46
55988,53.73317,-1.612485,206.28,24.56,4,301.28,20 / 22,5598839,2019-11-08 11:30:36:450,0.0319,0.6569,9.8124,-0.0037,0.0022,9.8066,0.0803,-0.032,-0.059,4.5,-44.56,38.19,18.23,-83.66,-171.69
55989,53.73317,-1.612485,206.28,24.56,4,301.28,20 / 22,5598938,2019-11-08 11:30:36:549,0.4427,-0.7733,10.8385,0.0121,-0.0164,9.8066,0.0521,-0.0238,-0.0253,4.5,-44.81,37.63,17.94,-83.5,-172.01
55990,53.73317,-1.612485,206.28,24.56,4,301.28,20 / 22,5599038,2019-11-08 11:30:36:649,-0.499,-0.4482,10.0971,0.0024,-0.0129,9.8066,-0.1138,0.1059,-0.0196,4.75,-44.75,38.13,17.49,-83.41,-172.44
55991,53.73317,-1.612485,206.28,24.56,4,301.28,20 / 22,5599138,2019-11-08 11:30:36:749,1.1953,1.1926,9.2681,-0.0106,0.0101,9.8066,-0.103,0.0916,-0.1159,4.69,-44.5,38.69,16.94,-83.51,-172.58
55992,53.73317,-1.612485,206.28,24.56,4,301.28,20 / 22,5599238,2019-11-08 11:30:36:849,-0.577,0.539,9.9187,-0.0038,-0.0059,9.8066,0.0246,0.0882,-0.06,4.88,-45.19,37.81,16.48,-83.58,-173.25
55993,53.73317,-1.612485,206.28,24.56,4,301.28,20 / 22,5599338,2019-11-08 11:30:36:949,-0.7692,-0.5255,10.0612,0.0025,-0.0029,9.8066,0.0048,-0.0003,-0.0871,4.81,-44.81,38.69,15.32,-83.51,-174.04
55994,53.73317,-1.612485,206.28,24.56,4,301.28,20 / 22,5599439,2019-11-08 11:30:37:050,-0.0054,1.4604,9.1968,0.0029,0.0236,9.8066,0.0372,0.0789,0.0459,4.5,-44.87,37.94,16.5,-83.65,-173.2
55995,53.73317,-1.612485,206.28,24.56,4,301.28,21 / 23,5599539,2019-11-08 11:30:37:150,0.5657,-0.1048,9.8095,-0.0198,0.0003,9.8066,-0.0159,0.0748,0.0059,4.75,-45.19,37.81,16.98,-83.82,-172.72
55996,53.73317,-1.612485,206.28,24.56,4,301.28,21 / 23,5599639,2019-11-08 11:30:37:250,0.687,0.6558,10.3068,0.0,-0.017,9.8066,0.0349,0.013,-0.0622,4.31,-45.31,37.31,16.63,-83.67,-171.82
55997,53.73317,-1.612485,206.28,24.56,4,301.28,21 / 23,5599738,2019-11-08 11:30:37:349,0.0712,0.2333,9.6822,0.0159,-0.0112,9.8066,0.0067,0.0462,-0.0371,4.56,-44.81,38.19,18.79,-83.55,-171.25
55998,53.73317,-1.612485,206.28,24.56,4,301.28,21 / 23,5599838,2019-11-08 11:30:37:449,-0.0238,-0.452,10.7128,0.0121,-0.0218,9.8065,-0.0718,0.0376,-0.0355,4.88,-44.94,37.94,19.44,-83.67,-170.64
55999,53.73317,-1.612485,206.28,24.56,4,301.28,21 / 23,5599938,2019-11-08 11:30:37:549,0.2424,-0.4572,10.8764,0.0015,0.005,9.8066,-0.0995,0.0613,0.0163,4.31,-45.94,37.81,16.66,-83.61,-171.65
56000,53.73317,-1.612485,206.28,24.56,4,301.28,21 / 23,5600038,2019-11-08 11:30:37:649,-0.8818,0.2308,8.7569,-0.0155,0.0144,9.8066,0.0273,0.0481,-0.0733,4.13,-45.37,38.06,15.24,-83.42,-172.9
56001,53.73317,-1.612485,206.28,24.56,4,301.28,21 / 23,5600138,2019-11-08 11:30:37:749,0.2677,-1.3504,10.9326,0.0145,-0.0121,9.8066,0.1157,-0.0369,-0.1477,4.94,-45.5,37.75,16.39,-83.36,-173.41
56002,53.73317,-1.612485,206.28,24.56,4,301.28,21 / 23,5600239,2019-11-08 11:30:37:850,0.1646,-0.9945,10.0051,0.009,-0.0055,9.8066,0.0157,0.0614,0.0214,5.13,-45.31,38.13,15.81,-83.36,-173.91
56003,53.73317,-1.612485,206.28,24.56,4,301.28,21 / 23,5600339,2019-11-08 11:30:37:950,1.2487,-0.5332,9.7655,-0.0082,0.0075,9.8066,-0.0601,0.0901,-0.003,4.56,-44.56,37.88,15.5,-83.43,-174.15
56004,53.73317,-1.612485,206.28,24.56,4,301.28,21 / 23,5600438,2019-11-08 11:30:38:049,0.2095,-0.5279,9.1847,-0.0064,0.0119,9.8066,0.0435,-0.0282,-0.0256,4.69,-44.87,37.88,15.39,-83.37,-174.27
56005,53.73317,-1.612485,206.28,24.56,4,301.28,20 / 22,5600538,2019-11-08 11:30:38:149,0.0814,-0.9246,9.8543,0.0117,0.0005,9.8066,0.05,0.0117,-0.0443,5.94,-44.44,38.06,17.27,-83.44,-174.03
56006,53.73317,-1.612485,206.28,24.56,4,301.28,20 / 22,5600639,2019-11-08 11:30:38:250,0.8596,-0.3873,9.5736,0.0204,0.0009,9.8066,0.0138,-0.0565,0.0967,5.69,-44.19,38.56,16.97,-83.45,-174.01
56007,53.73317,-1.612485,206.28,24.56,4,301.28,20 / 22,5600739,2019-11-08 11:30:38:350,0.1171,-1.3698,10.0711,-0.0133,0.0052,9.8066,-0.0104,-0.0024,0.0708,5.5,-45.44,38.38,15.61,-83.45,-175.52
56008,53.73317,-1.612485,206.28,24.56,4,301.28,20 / 22,5600838,2019-11-08 11:30:38:449,-0.8504,-1.2328,10.3001,-0.0086,0.0139,9.8066,0.0364,-0.1449,-0.0001,5.31,-44.62,38.94,13.82,-83.4,-175.37
56009,53.73317,-1.612485,206.28,24.56,4,301.28,20 / 22,5600938,2019-11-08 11:30:38:549,0.6933,0.5434,9.7644,-0.0227,0.0004,9.8066,0.0508,-0.1265,0.1212,5.5,-44.5,38.81,17.29,-83.48,-173.72
56010,53.73317,-1.612485,206.28,24.56,4,301.28,20 / 22,5601038,2019-11-08 11:30:38:649,0.2662,-0.0603,10.0315,-0.0079,-0.0002,9.8066,-0.0519,0.0186,-0.0112,5.0,-45.0,38.63,15.33,-83.56,-174.01
56011,53.73317,-1.612485,206.28,24.56,4,301.28,20 / 22,5601138,2019-11-08 11:30:38:749,-1.0147,0.1933,10.418,0.0155,0.0107,9.8066,-0.1626,0.0471,-0.0918,4.63,-44.69,37.81,16.24,-83.53,-173.48
56012,53.73317,-1.612485,206.28,24.56,4,301.28,20 / 22,5601239,2019-11-08 11:30:38:850,0.3693,-0.6863,9.1783,0.0076,0.0082,9.8066,-0.057,0.096,-0.0284,4.13,-44.62,37.81,14.57,-83.34,-173.51
56013,53.73317,-1.612485,206.28,24.56,4,301.28,20 / 22,5601339,2019-11-08 11:30:38:950,-0.4685,-0.4577,9.8924,0.0055,0.0024,9.8066,-0.0052,0.0297,-0.0206,4.88,-45.06,37.19,16.58,-83.37,-173.49
56014,53.73317,-1.612485,206.28,24.56,4,301.28,20 / 22,5601439,2019-11-08 11:30:39:050,-0.7015,-0.8477,9.9026,0.0102,0.002,9.8066,-0.0561,-0.0391,0.0011,4.88,-45.25,37.94,16.7,-83.43,-173.11
56015,53.73317,-1.612485,206.28,24.56,4,301.28,22 / 22,5601539,2019-11-08 11:30:39:150,-1.6091,-0.8851,10.0846,-0.0162,-0.0159,9.8066,0.0001,0.0357,0.0197,4.44,-45.44,37.81,15.44,-83.24,-172.79
56016,53.73317,-1.612485,206.28,24.56,4,301.28,22 / 22,5601639,2019-11-08 11:30:39:250,-0.9082,-0.7393,9.8928,0.0102,-0.0041,9.8066,0.0292,0.1579,-0.1284,4.88,-45.37,37.75,17.08,-83.17,-172.88
56017,53.73317,-1.612485,206.28,24.56,4,301.28,22 / 22,5601739,2019-11-08 11:30:39:350,-0.1831,-1.0443,9.8473,0.0147,0.0079,9.8066,-0.058,0.0263,-0.1341,4.56,-45.5,38.13,18.24,-83.12,-171.9
56018,53.73317,-1.612485,206.28,24.56,4,301.28,22 / 22,5601839,2019-11-08 11:30:39:450,-0.6268,0.7341,9.4266,-0.0061,-0.0074,9.8066,-0.0016,-0.0406,0.0338,4.06,-45.25,37.63,16.12,-83.15,-172.24
56019,53.73317,-1.612485,206.28,24.56,4,301.28,22 / 22,5601938,2019-11-08 11:30:39:549,-0.5278,-1.4104,9.9144,0.0063,0.0019,9.8066,-0.0415,-0.0063,-0.0149,4.69,-45.19,37.44,17.68,-83.07,-172.67
56020,53.73317,-1.612485,206.28,24.56,4,301.28,22 / 22,5602038,2019-11-08 11:30:39:649,0.2635,-0.4897,9.4099,-0.0073,0.0065,9.8066,0.0204,-0.0442,0.0571,4.25,-45.37,38.0,16.01,-83.06,-172.36
56021,53.73317,-1.612485,206.28,24.56,4,301.28,22 / 22,5602138,2019-11-08 11:30:39:749,-0.6134,-0.2074,9.6016,-0.0093,-0.0027,9.8066,0.0128,-0.0349,0.0233,4.56,-45.06,36.94,18.77,-83.13,-171.71
56022,53.73317,-1.612485,206.28,24.56,4,301.28,22 / 22,5602238,2019-11-08 11:30:39:849,-0.9222,0.0184,9.2667,-0.0053,0.019,9.8066,-0.0291,-0.0338,0.0263,3.94,-44.62,37.81,16.48,-83.07,-171.96
56023,53.73317,-1.612485,206.28,24.56,4,301.28,22 / 22,5602338,2019-11-08 11:30:39:949,0.1123,-1.2872,10.2668,-0.0041,0.0076,9.8066,0.0015,-0.175,0.0832,4.13,-45.0,37.19,16.89,-83.18,-171.78
56024,53.73317,-1.612485,206.28,24.56,4,301.28,22 / 22,5602438,2019-11-08 11:30:40:049,-1.2402,-0.8699,10.913,-0.0168,-0.0083,9.8065,0.0064,-0.1292,0.1148,4.56,-45.31,37.94,17.3,-83.19,-172.69
56025,53.73317,-1.612485,206.28,24.56,4,301.28,21 / 21,5602538,2019-11-08 11:30:40:149,-0.0571,-0.5623,8.67,0.0045,-0.0254,9.8066,0.1071,-0.0571,-0.063,4.31,-44.94,38.06,15.12,-83.1,-173.11
56026,53.73317,-1.612485,206.28,24.56,4,301.28,21 / 21,5602638,2019-11-08 11:30:40:249,-0.1383,-0.9511,10.0409,0.0023,-0.0096,9.8066,0.0602,0.032,-0.0473,4.19,-45.12,37.31,15.17,-83.2,-173.25
56027,53.73317,-1.612485,206.28,24.56,4,301.28,21 / 21,5602738,2019-11-08 11:30:40:349,-0.8046,0.9383,9.3482,0.0012,-0.0062,9.8066,0.0415,0.0158,-0.0887,4.19,-45.31,37.13,14.65,-83.22,-173.68
56028,53.73317,-1.612485,206.28,24.56,4,301.28,21 / 21,5602839,2019-11-08 11:30:40:450,0.6419,0.3527,9.5844,0.0014,0.0068,9.8066,-0.1146,0.157,0.0216,4.75,-44.5,36.81,15.81,-82.94,-174.26
56029,53.73317,-1.612485,206.28,24.56,4,301.28,21 / 21,5602939,2019-11-08 11:30:40:550,-0.3423,-1.0253,10.1809,0.02,0.0061,9.8066,-0.0191,-0.115,0.0221,4.13,-44.81,37.31,13.37,-82.87,-174.89
56030,53.73317,-1.612485,206.28,24.56,4,301.28,21 / 21,5603038,2019-11-08 11:30:40:649,-0.4375,-1.2708,9.6391,-0.0074,0.0116,9.8066,0.0157,-0.0781,0.0009,4.06,-45.06,37.5,13.05,-82.85,-174.96
56031,53.73317,-1.612485,206.28,24.56,4,301.28,21 / 21,5603138,2019-11-08 11:30:40:749,1.1587,-2.2894,9.7781,-0.0065,0.0065,9.8066,-0.0116,-0.0698,0.0064,4.19,-44.87,36.94,13.15,-82.87,-175.07
56032,53.73317,-1.612485,206.28,24.56,4,301.28,21 / 21,5603238,2019-11-08 11:30:40:849,-0.7065,-0.7157,10.9742,-0.0111,-0.0128,9.8066,-0.0524,-0.0087,0.0519,3.81,-45.06,36.69,12.15,-82.93,-175.91
56033,53.73317,-1.612485,206.28,24.56,4,301.28,21 / 21,5603338,2019-11-08 11:30:40:949,-1.1367,-0.0411,10.0105,0.0,-0.0306,9.8065,0.0628,0.0055,-0.0847,3.44,-45.0,36.63,11.05,-82.96,-175.3
56034,53.73317,-1.612485,206.28,24.56,4,301.28,21 / 21,5603438,2019-11-08 11:30:41:049,1.1584,1.8703,9.124,-0.001,-0.0366,9.8065,0.0735,-0.0713,0.1234,4.44,-45.12,37.0,13.05,-82.86,-175.16
56035,53.73317,-1.612485,206.28,24.56,4,301.28,21 / 21,5603538,2019-11-08 11:30:41:149,-2.7602,-2.5017,11.4067,-0.005,0.0416,9.8066,-0.0956,0.0315,-0.1898,4.0,-44.5,37.44,15.24,-82.73,-173.3
56036,53.73317,-1.612485,206.28,24.56,4,301.28,21 / 21,5603639,2019-11-08 11:30:41:250,-1.704,-0.8867,8.7617,-0.0007,0.0387,9.8065,-0.0118,-0.1194,0.0945,3.69,-45.31,37.69,14.54,-82.89,-173.68
56037,53.73317,-1.612485,206.28,24.56,4,301.28,21 / 21,5603739,2019-11-08 11:30:41:350,1.54,0.5728,8.76,0.0312,0.0045,9.8065,-0.0422,-0.0812,0.0799,4.13,-45.19,37.25,14.62,-83.18,-173.72
56038,53.73317,-1.612485,206.28,24.56,4,301.28,21 / 21,5603839,2019-11-08 11:30:41:450,-0.8043,-1.615,10.0226,-0.0172,-0.0147,9.8066,0.0065,0.0856,-0.1019,3.63,-45.12,37.56,15.0,-83.19,-173.18
56039,53.73317,-1.612485,206.28,24.56,4,301.28,21 / 21,5603939,2019-11-08 11:30:41:550,-0.0297,-0.4429,10.1228,-0.013,0.004,9.8066,0.0756,0.1519,-0.028,3.56,-44.75,37.38,14.41,-83.02,-173.96
56040,53.73317,-1.612485,206.28,24.56,4,301.28,21 / 21,5604039,2019-11-08 11:30:41:650,-0.7242,-1.6483,10.9741,0.0122,-0.0037,9.8066,0.0002,0.1178,-0.093,3.5,-45.06,37.06,15.36,-82.81,-173.23
56041,53.73317,-1.612485,206.28,24.56,4,301.28,21 / 21,5604139,2019-11-08 11:30:41:750,-0.1591,-0.888,9.5357,-0.0188,-0.0167,9.8065,-0.0574,0.2205,-0.0705,4.31,-44.19,37.63,14.67,-82.71,-173.57
56042,53.73317,-1.612485,206.28,24.56,4,301.28,21 / 21,5604239,2019-11-08 11:30:41:850,4.1084,-1.5576,9.2324,0.0521,0.0086,9.8065,0.0019,0.2436,-0.0587,4.56,-44.12,37.5,16.69,-82.71,-173.33
56043,53.73317,-1.612485,206.28,24.56,4,301.28,21 / 21,5604339,2019-11-08 11:30:41:950,-1.7837,-0.5775,10.0746,-0.0028,0.0092,9.8066,0.0475,-0.1228,0.0333,4.19,-44.56,38.13,13.74,-82.87,-174.36
56044,53.73317,-1.612485,206.28,24.56,4,301.28,21 / 21,5604439,2019-11-08 11:30:42:050,4.1429,-0.6468,8.4266,-0.043,-0.0081,9.8065,0.0718,-0.4014,0.2693,4.56,-45.06,38.06,16.0,-82.77,-173.95
56045,53.73317,-1.612485,206.28,24.56,4,301.28,21 / 22,5604538,2019-11-08 11:30:42:149,4.0314,-1.465,8.9958,0.0568,0.0104,9.8064,0.0456,-0.4242,0.1494,6.0,-45.81,37.69,15.71,-82.9,-175.67
56046,53.73317,-1.612485,206.28,24.56,4,301.28,21 / 22,5604639,2019-11-08 11:30:42:250,4.0356,-1.7571,9.7939,-0.0023,0.0105,9.8066,0.087,-0.3528,0.2033,6.25,-44.06,39.0,10.81,-82.99,-179.48
56047,53.73317,-1.612485,206.28,24.56,4,301.28,21 / 22,5604739,2019-11-08 11:30:42:350,3.1416,2.9238,10.0095,0.0192,-0.0264,9.8065,-0.1816,0.0207,0.071,4.06,-43.12,40.25,8.19,-82.88,-178.66
56048,53.73317,-1.612485,206.28,24.56,4,301.28,21 / 22,5604839,2019-11-08 11:30:42:450,-1.8932,5.3084,11.8113,-0.0205,-0.0751,9.8063,-0.1192,0.014,0.0454,2.19,-44.0,38.5,6.6,-83.02,-177.29
56049,53.73317,-1.612485,206.28,24.56,4,301.28,21 / 22,5604939,2019-11-08 11:30:42:550,-0.2293,-1.7775,10.1846,0.0299,0.0376,9.8065,-0.0731,0.093,-0.0834,2.0,-45.75,36.44,7.73,-82.45,-176.81
56050,53.73317,-1.612485,206.28,24.56,4,301.28,21 / 22,5605039,2019-11-08 11:30:42:650,-4.7046,-0.4823,9.155,-0.0715,0.0102,9.8063,-0.0273,0.361,-0.2454,3.0,-44.44,35.44,7.35,-82.95,-178.73
56051,53.73317,-1.612485,206.28,24.56,4,301.28,21 / 22,5605138,2019-11-08 11:30:42:749,3.2611,-1.2638,9.9496,-0.0382,-0.0106,9.8065,-0.0143,0.6131,-0.338,3.56,-44.94,35.69,11.3,-82.85,-176.86
56052,53.73317,-1.612485,206.28,24.56,4,301.28,21 / 22,5605238,2019-11-08 11:30:42:849,2.1681,-0.5209,9.6593,-0.0572,-0.015,9.8064,-0.0926,0.3683,-0.1907,3.56,-45.0,36.94,10.81,-82.8,-177.08
56053,53.73317,-1.612485,206.28,24.56,4,301.28,21 / 22,5605338,2019-11-08 11:30:42:949,4.9398,-1.7496,9.6312,-0.0805,-0.0099,9.8062,0.007,0.1985,-0.0283,3.81,-45.0,36.88,15.35,-82.55,-173.33
56054,53.73317,-1.612485,206.28,24.56,4,301.28,21 / 22,5605438,2019-11-08 11:30:43:049,2.5867,-1.0443,8.9774,0.029,0.0168,9.8066,0.0427,-0.3729,0.1896,4.38,-44.94,37.38,16.61,-82.5,-172.28
56055,53.734215,-1.615295,208.63,26.71,6,302.68,21 / 23,5605540,2019-11-08 11:30:43:151,-5.8904,-0.5868,9.5462,-0.0405,0.0108,9.8065,0.0282,-0.5139,0.2927,4.19,-45.12,37.5,15.35,-82.66,-173.06
56056,53.734215,-1.615295,208.63,26.71,6,302.68,21 / 23,5605638,2019-11-08 11:30:43:249,4.8686,-0.6939,8.7125,0.0131,-0.0015,9.8066,0.0539,-0.5243,0.3552,4.0,-44.94,36.69,15.02,-82.82,-173.51
56057,53.734215,-1.615295,208.63,26.71,6,302.68,21 / 23,5605738,2019-11-08 11:30:43:349,-2.5219,1.0604,9.8781,-0.0688,-0.0109,9.8064,0.011,-0.6105,0.3405,4.13,-45.12,37.19,12.04,-82.85,-176.02
56058,53.734215,-1.615295,208.63,26.71,6,302.68,21 / 23,5605839,2019-11-08 11:30:43:450,4.7518,0.2123,9.4118,-0.0606,-0.012,9.8064,0.1004,-0.3403,0.2131,3.81,-44.94,37.5,15.1,-82.65,-173.28
56059,53.734215,-1.615295,208.63,26.71,6,302.68,21 / 23,5605939,2019-11-08 11:30:43:550,-2.6357,0.3572,9.4643,-0.0436,0.0067,9.8065,0.0269,-0.1184,0.0959,3.88,-45.0,37.25,13.27,-82.77,-175.01
56060,53.734215,-1.615295,208.63,26.71,6,302.68,21 / 23,5606039,2019-11-08 11:30:43:650,-3.2643,0.1838,10.7249,-0.0755,0.01,9.8063,-0.1511,0.1514,-0.1145,3.5,-45.0,37.56,12.06,-82.7,-175.84
56061,53.734215,-1.615295,208.63,26.71,6,302.68,21 / 23,5606139,2019-11-08 11:30:43:750,-4.3409,-0.6673,11.3369,-0.0348,0.0244,9.8065,-0.2146,0.1178,0.0452,4.0,-44.94,37.81,12.49,-82.62,-175.5
56062,53.734215,-1.615295,208.63,26.71,6,302.68,21 / 23,5606238,2019-11-08 11:30:43:849,-0.3767,1.3169,8.2184,-0.0273,-0.047,9.8065,-0.0332,0.2329,-0.1165,4.0,-45.19,37.0,12.85,-82.58,-175.41
56063,53.734215,-1.615295,208.63,26.71,6,302.68,21 / 23,5606338,2019-11-08 11:30:43:949,2.8707,-1.544,9.3781,0.0339,0.0479,9.8064,0.0043,0.1845,-0.2313,4.81,-45.0,37.06,13.47,-82.81,-176.34
56064,53.734215,-1.615295,208.63,26.71,6,302.68,21 / 23,5606438,2019-11-08 11:30:44:049,2.6928,-2.0085,10.7107,-0.0351,0.0066,9.8065,0.0778,0.5066,-0.3821,4.75,-45.5,37.75,11.41,-83.04,-177.78
56065,53.734215,-1.615295,208.63,26.71,6,302.68,21 / 23,5606538,2019-11-08 11:30:44:149,3.4558,0.2683,9.6483,0.0386,-0.0176,9.8065,-0.0349,0.5164,-0.3528,4.25,-44.87,37.31,10.22,-83.0,-177.52
56066,53.734215,-1.615295,208.63,26.71,6,302.68,21 / 23,5606638,2019-11-08 11:30:44:249,-3.0972,-0.6409,10.1096,-0.0451,-0.0036,9.8065,-0.0874,0.2528,-0.1803,4.69,-45.19,37.06,10.89,-82.94,-178.49
56067,53.734215,-1.615295,208.63,26.71,6,302.68,21 / 23,5606739,2019-11-08 11:30:44:350,1.977,-1.1166,9.8008,-0.0174,0.0116,9.8065,-0.0367,0.1458,-0.076,4.88,-45.0,37.5,11.05,-82.97,-178.11
56068,53.734215,-1.615295,208.63,26.71,6,302.68,21 / 23,5606840,2019-11-08 11:30:44:451,-0.9922,-0.7573,10.5349,-0.0339,-0.0013,9.8065,0.0619,0.0331,-0.0584,3.94,-44.69,37.06,10.29,-83.0,-177.46
56069,53.734215,-1.615295,208.63,26.71,6,302.68,21 / 23,5606939,2019-11-08 11:30:44:550,0.8643,0.2134,9.7557,0.0051,-0.0059,9.8066,0.007,-0.0128,-0.0836,4.31,-45.06,37.13,10.63,-82.94,-177.19
56070,53.734215,-1.615295,208.63,26.71,6,302.68,21 / 23,5607039,2019-11-08 11:30:44:650,-0.9136,0.3532,9.3916,-0.0213,0.0044,9.8066,0.0311,0.1945,-0.0035,4.63,-44.87,37.19,12.8,-82.87,-176.89
56071,53.734215,-1.615295,208.63,26.71,6,302.68,21 / 23,5607140,2019-11-08 11:30:44:751,-0.1983,-0.504,9.9209,0.0129,0.008,9.8066,-0.0402,0.1054,-0.1588,4.69,-45.62,37.38,12.46,-82.98,-177.19
56072,53.734215,-1.615295,208.63,26.71,6,302.68,21 / 23,5607239,2019-11-08 11:30:44:850,-1.1813,0.3037,10.3157,-0.0273,-0.0055,9.8066,0.0448,0.0996,-0.0082,4.63,-45.62,36.75,12.92,-82.96,-176.81
56073,53.734215,-1.615295,208.63,26.71,6,302.68,21 / 23,5607339,2019-11-08 11:30:44:950,2.7949,-0.1923,9.5822,-0.0141,0.0015,9.8065,-0.0235,0.0948,0.0161,5.0,-45.25,37.75,13.39,-82.94,-176.12
56074,53.734215,-1.615295,208.63,26.71,6,302.68,21 / 23,5607438,2019-11-08 11:30:45:049,-1.2721,-0.8604,10.2635,-0.0536,-0.0079,9.8064,0.0351,-0.0615,-0.0189,4.63,-45.31,38.0,13.42,-82.93,-176.1
56075,53.734215,-1.615295,208.63,26.71,6,302.68,22 / 22,5607538,2019-11-08 11:30:45:149,3.1398,-1.3432,9.7364,-0.0175,-0.0067,9.8065,-0.0478,-0.125,0.0887,4.38,-45.31,37.0,14.5,-82.83,-173.95
56076,53.734215,-1.615295,208.63,26.71,6,302.68,22 / 22,5607638,2019-11-08 11:30:45:249,-2.6116,-0.211,10.0356,-0.063,-0.0015,9.8064,0.0622,-0.2277,0.1191,4.31,-45.31,37.63,11.88,-82.88,-175.94
56077,53.734215,-1.615295,208.63,26.71,6,302.68,22 / 22,5607739,2019-11-08 11:30:45:350,3.3009,-0.4575,9.2635,-0.0185,-0.0186,9.8065,0.0407,-0.3848,0.1249,4.75,-45.19,37.81,15.61,-82.82,-174.27
56078,53.734215,-1.615295,208.63,26.71,6,302.68,22 / 22,5607838,2019-11-08 11:30:45:449,-3.3964,1.191,10.5719,-0.0409,-0.0095,9.8065,0.065,-0.5017,0.3158,4.69,-45.0,37.81,13.51,-82.96,-176.01
56079,53.734215,-1.615295,208.63,26.71,6,302.68,22 / 22,5607938,2019-11-08 11:30:45:549,-0.7398,-0.8233,10.4502,-0.0603,-0.0148,9.8064,-0.0035,-0.4242,0.3695,4.13,-45.44,37.56,10.24,-82.92,-177.33
56080,53.734215,-1.615295,208.63,26.71,6,302.68,22 / 22,5608038,2019-11-08 11:30:45:649,-3.4426,1.4738,9.6531,-0.0228,-0.0059,9.8065,0.0425,-0.4472,0.1635,4.31,-45.5,37.44,11.67,-82.83,-176.34
56081,53.734215,-1.615295,208.63,26.71,6,302.68,22 / 22,5608138,2019-11-08 11:30:45:749,2.9077,-0.9828,9.3572,-0.0699,-0.0026,9.8063,0.0337,-0.5274,0.3232,4.56,-45.06,36.88,16.19,-82.69,-174.08
56082,53.734215,-1.615295,208.63,26.71,6,302.68,22 / 22,5608238,2019-11-08 11:30:45:849,0.8218,0.1732,9.6524,-0.0326,-0.0109,9.8065,0.1596,-0.3014,0.1814,4.25,-45.25,37.44,12.06,-82.95,-175.98
56083,53.734215,-1.615295,208.63,26.71,6,302.68,22 / 22,5608338,2019-11-08 11:30:45:949,1.5474,-1.5111,8.5258,-0.0179,-0.0233,9.8065,0.1215,-0.224,-0.0031,3.94,-44.87,36.44,14.03,-82.77,-174.59
56084,53.734215,-1.615295,208.63,26.71,6,302.68,22 / 22,5608439,2019-11-08 11:30:46:050,0.1035,-0.1203,10.6837,0.0124,-0.0106,9.8066,0.0656,-0.0202,0.0597,4.69,-45.19,37.06,16.84,-83.06,-173.39
56085,53.734215,-1.615295,208.63,26.71,6,302.68,22 / 22,5608539,2019-11-08 11:30:46:150,-0.1275,0.1018,9.8033,-0.0251,0.009,9.8066,0.0023,-0.1687,0.1175,4.13,-45.81,37.56,13.07,-82.99,-174.94
56086,53.734215,-1.615295,208.63,26.71,6,302.68,22 / 22,5608638,2019-11-08 11:30:46:249,-2.7243,0.5735,9.1488,-0.0039,0.001,9.8066,-0.1178,-0.2168,0.1148,4.25,-45.56,37.63,14.63,-82.97,-173.61
56087,53.734215,-1.615295,208.63,26.71,6,302.68,22 / 22,5608739,2019-11-08 11:30:46:350,1.4904,0.6543,9.6805,-0.0512,0.0078,9.8064,-0.1107,-0.1173,0.1795,4.13,-45.31,37.13,17.7,-83.05,-171.14
56088,53.734215,-1.615295,208.63,26.71,6,302.68,22 / 22,5608839,2019-11-08 11:30:46:450,0.4498,0.4243,10.2367,-0.0182,-0.0115,9.8066,0.0299,-0.152,0.0637,4.13,-45.19,37.31,18.14,-83.07,-170.75
56089,53.734215,-1.615295,208.63,26.71,6,302.68,22 / 22,5608939,2019-11-08 11:30:46:550,1.5003,0.6378,9.0541,-0.0312,-0.0098,9.8066,0.0935,-0.0043,-0.0624,3.88,-45.06,37.56,18.91,-82.92,-169.93
56090,53.734215,-1.615295,208.63,26.71,6,302.68,22 / 22,5609039,2019-11-08 11:30:46:650,-0.9328,0.9703,9.835,0.0082,0.0037,9.8066,0.0074,-0.0738,-0.0633,4.06,-45.5,37.13,17.54,-83.04,-171.28
56091,53.734215,-1.615295,208.63,26.71,6,302.68,22 / 22,5609139,2019-11-08 11:30:46:750,-1.8473,1.1328,10.3687,-0.0387,-0.0025,9.8065,-0.0354,-0.0213,-0.0125,3.94,-45.75,37.19,15.03,-83.17,-173.43
56092,53.734215,-1.615295,208.63,26.71,6,302.68,22 / 22,5609239,2019-11-08 11:30:46:850,-3.5328,0.7699,10.5019,0.0082,0.0112,9.8066,-0.0692,0.0607,-0.0992,4.31,-45.06,36.56,14.97,-83.04,-173.47
56093,53.734215,-1.615295,208.63,26.71,6,302.68,22 / 22,5609339,2019-11-08 11:30:46:950,-0.3599,-0.8972,10.1992,-0.0448,-0.0139,9.8065,-0.0855,0.2787,-0.161,3.94,-45.37,37.06,14.41,-83.0,-173.97
56094,53.734215,-1.615295,208.63,26.71,6,302.68,22 / 22,5609439,2019-11-08 11:30:47:050,3.3245,-1.4687,8.5532,0.0244,0.0306,9.8065,-0.1031,0.3279,-0.234,4.25,-45.69,37.0,14.32,-83.04,-174.07
56095,53.734215,-1.615295,208.63,26.71,6,302.68,24 / 24,5609539,2019-11-08 11:30:47:150,-1.7435,-0.0746,9.6228,-0.0248,-0.0016,9.8066,-0.0127,0.1866,-0.2036,4.0,-45.37,37.0,14.61,-83.21,-173.73
56096,53.734215,-1.615295,208.63,26.71,6,302.68,24 / 24,5609639,2019-11-08 11:30:47:250,-1.3755,0.8474,9.0113,0.0155,0.0149,9.8066,-0.039,0.2311,-0.1408,4.06,-45.75,37.0,14.44,-83.36,-173.87
56097,53.734215,-1.615295,208.63,26.71,6,302.68,24 / 24,5609739,2019-11-08 11:30:47:350,-1.34,0.4655,11.1514,-0.0143,0.0121,9.8066,-0.0759,0.1969,-0.2558,3.56,-45.31,37.44,13.07,-83.31,-175.01
56098,53.734215,-1.615295,208.63,26.71,6,302.68,24 / 24,5609839,2019-11-08 11:30:47:450,2.0746,0.9142,9.0453,0.004,0.02,9.8066,-0.1101,0.2869,-0.1554,3.81,-44.94,36.94,13.17,-83.23,-174.95
56099,53.734215,-1.615295,208.63,26.71,6,302.68,24 / 24,5609939,2019-11-08 11:30:47:550,0.1262,-0.1983,10.4264,-0.0165,0.0035,9.8065,-0.0177,0.2607,-0.195,4.38,-44.94,36.69,14.22,-83.23,-174.05
56100,53.734215,-1.615295,208.63,26.71,6,302.68,24 / 24,5610038,2019-11-08 11:30:47:649,1.0682,-0.3656,10.5553,0.0269,-0.007,9.8066,-0.0503,0.2098,-0.2362,3.88,-44.94,36.81,16.35,-83.12,-172.27
56101,53.734215,-1.615295,208.63,26.71,6,302.68,24 / 24,5610138,2019-11-08 11:30:47:749,-4.1568,-0.5458,9.7229,-0.01,0.0223,9.8065,0.0196,0.2939,-0.2096,4.19,-45.31,36.31,16.29,-83.25,-172.51
56102,53.734215,-1.615295,208.63,26.71,6,302.68,24 / 24,5610239,2019-11-08 11:30:47:850,1.6501,-0.5471,9.5525,0.0508,0.0043,9.8065,-0.1204,0.1914,-0.1295,3.38,-45.0,36.19,15.7,-83.19,-171.46
56103,53.734215,-1.615295,208.63,26.71,6,302.68,24 / 24,5610339,2019-11-08 11:30:47:950,-2.7811,0.6724,8.777,0.048,0.0308,9.8064,0.1019,-0.2108,0.1521,3.94,-45.69,35.75,17.7,-83.22,-171.37
56104,53.734215,-1.615295,208.63,26.71,6,302.68,24 / 24,5610439,2019-11-08 11:30:48:050,0.8164,-0.7322,10.1957,0.0601,-0.0062,9.8064,0.0871,-0.0601,0.0709,4.25,-45.75,36.88,16.23,-83.37,-172.33
56105,53.734215,-1.615295,208.63,26.71,6,302.68,22 / 23,5610539,2019-11-08 11:30:48:150,-1.9361,-0.067,10.8227,0.0241,0.0022,9.8066,0.1573,-0.2721,0.0571,4.13,-45.25,36.75,13.21,-83.29,-174.9
56106,53.734215,-1.615295,208.63,26.71,6,302.68,22 / 23,5610638,2019-11-08 11:30:48:249,1.0432,-0.2328,9.5428,0.0132,0.0122,9.8065,0.1019,-0.1965,0.204,3.63,-45.25,37.13,12.54,-83.08,-175.53
56107,53.734215,-1.615295,208.63,26.71,6,302.68,22 / 23,5610739,2019-11-08 11:30:48:350,-1.3318,-0.136,9.6174,0.0112,0.007,9.8066,-0.0032,-0.2359,0.095,3.75,-44.81,36.94,14.22,-83.1,-174.09
56108,53.734215,-1.615295,208.63,26.71,6,302.68,22 / 23,5610838,2019-11-08 11:30:48:449,-0.996,0.0004,9.7989,-0.001,-0.0001,9.8066,-0.0029,-0.2341,0.1754,3.38,-45.0,35.94,14.14,-83.14,-172.81
56109,53.734215,-1.615295,208.63,26.71,6,302.68,22 / 23,5610939,2019-11-08 11:30:48:550,-3.0845,-0.5566,9.8933,0.0412,0.0093,9.8065,0.0339,-0.3263,0.1595,2.75,-44.56,36.25,14.54,-83.12,-172.47
56110,53.734215,-1.615295,208.63,26.71,6,302.68,22 / 23,5611038,2019-11-08 11:30:48:649,1.0936,-0.7161,10.0715,0.0179,-0.0052,9.8066,-0.0436,-0.3013,0.1716,3.69,-45.0,36.44,16.43,-83.08,-172.45
56111,53.734215,-1.615295,208.63,26.71,6,302.68,22 / 23,5611138,2019-11-08 11:30:48:749,1.8204,-0.4997,9.0838,0.051,0.0044,9.8065,-0.0278,-0.3492,0.2292,3.44,-44.87,36.63,12.75,-83.22,-173.78
56112,53.734215,-1.615295,208.63,26.71,6,302.68,22 / 23,5611238,2019-11-08 11:30:48:849,2.4393,-0.9983,9.6613,0.012,-0.0287,9.8066,-0.0745,-0.2983,0.2502,2.81,-45.5,36.69,14.1,-83.26,-172.62
56113,53.734215,-1.615295,208.63,26.71,6,302.68,22 / 23,5611339,2019-11-08 11:30:48:950,0.7599,-0.7828,9.0475,0.0337,0.0056,9.8065,0.0039,-0.1823,0.0268,3.69,-45.19,36.25,17.14,-83.1,-171.84
56114,53.734215,-1.615295,208.63,26.71,6,302.68,22 / 23,5611439,2019-11-08 11:30:49:050,-3.2591,0.2141,10.7087,-0.0329,-0.0224,9.8066,-0.012,-0.1125,0.0395,3.5,-44.87,36.44,14.76,-83.19,-173.83
56115,53.734215,-1.615295,208.63,26.71,6,302.68,22 / 24,5611538,2019-11-08 11:30:49:149,-1.967,-0.7892,9.888,0.0246,-0.0113,9.8065,0.0258,-0.0711,0.0343,3.25,-44.81,36.75,13.31,-82.96,-173.38
56116,53.734215,-1.615295,208.63,26.71,6,302.68,22 / 24,5611639,2019-11-08 11:30:49:250,-1.3511,-1.0349,10.6961,0.0409,0.0056,9.8066,-0.1028,-0.0118,-0.0504,3.0,-44.87,36.5,12.6,-83.0,-173.97
56117,53.734215,-1.615295,208.63,26.71,6,302.68,22 / 24,5611739,2019-11-08 11:30:49:350,2.5172,-0.7181,9.9528,0.029,0.0051,9.8066,0.0575,-0.0285,0.0029,3.19,-44.5,36.31,12.55,-83.03,-174.14
56118,53.734215,-1.615295,208.63,26.71,6,302.68,22 / 24,5611839,2019-11-08 11:30:49:450,0.3201,-0.1895,10.8649,-0.0242,-0.0187,9.8066,-0.0629,0.134,-0.1033,3.38,-45.37,36.19,13.06,-82.94,-173.79
56119,53.734215,-1.615295,208.63,26.71,6,302.68,22 / 24,5611939,2019-11-08 11:30:49:550,0.5691,-0.7057,8.9101,0.0101,-0.0241,9.8066,-0.0741,0.0736,-0.1053,3.31,-44.94,36.25,13.87,-82.87,-173.12
56120,53.734215,-1.615295,208.63,26.71,6,302.68,22 / 24,5612038,2019-11-08 11:30:49:649,-2.7709,-1.1604,9.8367,0.0054,-0.0037,9.8066,-0.052,0.1998,-0.0529,3.5,-45.25,36.5,14.93,-82.91,-173.56
56121,53.734215,-1.615295,208.63,26.71,6,302.68,22 / 24,5612138,2019-11-08 11:30:49:749,0.9698,-0.3406,9.0533,0.008,-0.0155,9.8066,-0.0779,0.2306,-0.1314,4.06,-45.12,36.0,14.39,-82.96,-174.22
56122,53.734215,-1.615295,208.63,26.71,6,302.68,22 / 24,5612238,2019-11-08 11:30:49:849,-1.3782,-0.4381,10.0427,-0.0308,-0.0036,9.8065,-0.0193,0.1311,-0.1029,3.31,-44.81,36.94,11.47,-83.02,-174.92
56123,53.734215,-1.615295,208.63,26.71,6,302.68,22 / 24,5612338,2019-11-08 11:30:49:949,1.3091,-1.3484,11.0285,0.006,-0.0203,9.8065,0.0967,0.0813,-0.1418,4.06,-44.75,36.63,14.12,-82.87,-174.25
56124,53.734215,-1.615295,208.63,26.71,6,302.68,22 / 24,5612439,2019-11-08 11:30:50:050,0.6956,-2.8727,11.2875,-0.0143,0.0068,9.8066,-0.0484,0.1285,-0.1288,3.13,-45.0,36.63,12.3,-82.78,-174.29
56125,53.734215,-1.615295,208.63,26.71,6,302.68,24 / 25,5612539,2019-11-08 11:30:50:150,1.3818,0.7532,8.0565,0.0259,0.001,9.8065,-0.3667,0.1306,-0.0311,3.44,-44.62,36.25,13.98,-83.04,-172.97
56126,53.734215,-1.615295,208.63,26.71,6,302.68,24 / 25,5612640,2019-11-08 11:30:50:251,0.8554,-1.6902,10.2415,-0.0101,0.0001,9.8066,-0.045,-0.0257,0.0633,3.38,-44.94,36.13,14.76,-83.04,-172.31
56127,53.734215,-1.615295,208.63,26.71,6,302.68,24 / 25,5612738,2019-11-08 11:30:50:349,0.4077,-0.7565,10.5549,-0.0154,0.0246,9.8065,-0.02,-0.0662,-0.0569,3.38,-44.69,36.19,15.4,-83.1,-171.75
56128,53.734215,-1.615295,208.63,26.71,6,302.68,24 / 25,5612838,2019-11-08 11:30:50:449,0.0806,1.5618,8.1994,-0.0084,0.0531,9.8065,0.2216,-0.0264,-0.1282,3.5,-45.25,36.13,16.15,-82.89,-172.76
56129,53.734215,-1.615295,208.63,26.71,6,302.68,24 / 25,5612938,2019-11-08 11:30:50:549,-0.0717,0.1408,7.9905,-0.0041,-0.0166,9.8066,0.227,-0.0301,-0.073,4.0,-45.06,35.94,17.33,-83.08,-171.69
56130,53.734215,-1.615295,208.63,26.71,6,302.68,24 / 25,5613038,2019-11-08 11:30:50:649,2.0471,-3.4812,11.3424,-0.0299,0.0504,9.8064,0.1014,0.0758,-0.2298,3.69,-44.81,35.38,19.77,-83.22,-169.8
56131,53.734215,-1.615295,208.63,26.71,6,302.68,24 / 25,5613138,2019-11-08 11:30:50:749,-1.4268,-1.0506,9.6321,-0.0191,-0.0141,9.8065,-0.056,0.121,-0.1484,3.13,-46.12,35.19,16.18,-83.06,-171.36
56132,53.734215,-1.615295,208.63,26.71,6,302.68,24 / 25,5613238,2019-11-08 11:30:50:849,-0.9864,-1.4436,9.861,-0.0293,-0.009,9.8065,-0.0458,0.2498,-0.0665,3.44,-46.44,36.44,16.01,-82.87,-171.37
56133,53.734215,-1.615295,208.63,26.71,6,302.68,24 / 25,5613338,2019-11-08 11:30:50:949,-2.7965,0.0827,10.4959,0.0059,-0.0147,9.8066,-0.0218,0.3338,-0.2336,3.38,-45.44,36.5,17.57,-83.02,-169.73
56134,53.734215,-1.615295,208.63,26.71,6,302.68,24 / 25,5613438,2019-11-08 11:30:51:049,-1.0662,0.5949,9.7834,-0.0521,-0.001,9.8064,0.0625,0.3935,-0.2685,2.81,-44.87,36.56,18.91,-82.89,-168.65
56135,53.734215,-1.615295,208.63,26.71,6,302.68,22 / 23,5613539,2019-11-08 11:30:51:150,1.8121,-0.817,9.6377,-0.0426,0.0078,9.8065,0.0557,0.3515,-0.1677,3.44,-45.06,36.38,18.82,-82.96,-168.9
56136,53.734215,-1.615295,208.63,26.71,6,302.68,22 / 23,5613638,2019-11-08 11:30:51:249,-3.5607,-0.5641,9.9678,-0.0335,0.0181,9.8065,0.0627,0.2682,-0.2276,2.81,-45.5,35.94,17.29,-82.92,-170.21
56137,53.734215,-1.615295,208.63,26.71,6,302.68,22 / 23,5613738,2019-11-08 11:30:51:349,0.4233,0.0851,8.4594,0.0354,0.0282,9.8065,0.1738,0.1567,-0.1489,2.75,-45.25,35.63,20.29,-82.99,-167.64
56138,53.734215,-1.615295,208.63,26.71,6,302.68,22 / 23,5613839,2019-11-08 11:30:51:450,-1.4801,-1.6405,10.9028,0.0096,0.0073,9.8066,0.0843,-0.0974,-0.0188,3.25,-45.19,36.31,18.63,-82.91,-169.08
56139,53.734215,-1.615295,208.63,26.71,6,302.68,22 / 23,5613939,2019-11-08 11:30:51:550,-1.4607,-1.0736,8.7236,-0.0149,0.0412,9.8065,0.0358,-0.1493,-0.0444,3.31,-45.12,35.56,16.91,-82.82,-170.58
56140,53.734215,-1.615295,208.63,26.71,6,302.68,22 / 23,5614039,2019-11-08 11:30:51:650,-0.288,1.0898,11.0035,0.0086,0.0006,9.8066,0.0933,-0.055,0.0249,2.94,-44.81,35.75,16.93,-83.0,-170.48
56141,53.734215,-1.615295,208.63,26.71,6,302.68,22 / 23,5614138,2019-11-08 11:30:51:749,-2.761,0.8611,10.5774,-0.0421,0.0032,9.8065,-0.0249,0.0042,-0.0622,3.5,-45.44,35.88,18.07,-82.75,-171.2
56142,53.734215,-1.615295,208.63,26.71,6,302.68,22 / 23,5614238,2019-11-08 11:30:51:849,1.6175,-1.798,11.0147,-0.0272,-0.0042,9.8066,0.0552,0.1692,-0.1245,2.88,-45.56,36.5,17.36,-82.8,-170.06
56143,53.734215,-1.615295,208.63,26.71,6,302.68,22 / 23,5614338,2019-11-08 11:30:51:949,-1.2183,-0.1346,9.8411,-0.0259,0.0022,9.8066,0.0269,0.2392,-0.184,2.75,-45.37,36.13,17.85,-82.55,-169.89
56144,53.734215,-1.615295,208.63,26.71,6,302.68,22 / 23,5614438,2019-11-08 11:30:52:049,0.4628,-0.9213,9.518,-0.0262,0.0287,9.8065,0.0173,0.1171,-0.1267,2.81,-45.12,36.25,18.66,-82.75,-169.12
56145,53.73549,-1.618318,210.91,28.41,6,310.25,21 / 22,5614538,2019-11-08 11:30:52:149,-1.9119,-1.8883,10.0609,0.0155,-0.0075,9.8066,-0.1458,0.0732,-0.0139,2.44,-45.87,35.69,16.94,-82.83,-169.02
56146,53.73549,-1.618318,210.91,28.41,6,310.25,21 / 22,5614639,2019-11-08 11:30:52:250,0.1705,-1.4454,10.2267,0.0103,-0.0259,9.8066,-0.1263,0.0403,0.0083,3.0,-46.12,35.25,20.56,-82.83,-167.78
56147,53.73549,-1.618318,210.91,28.41,6,310.25,21 / 22,5614740,2019-11-08 11:30:52:351,0.6621,-0.8285,9.7688,0.0097,-0.0136,9.8066,-0.0762,-0.0313,0.0366,2.5,-45.62,35.94,19.46,-82.83,-168.48
56148,53.73549,-1.618318,210.91,28.41,6,310.25,21 / 22,5614839,2019-11-08 11:30:52:450,-1.6142,-1.1898,9.9463,0.011,-0.0081,9.8066,0.0041,-0.1658,0.1145,2.69,-45.56,35.44,18.88,-82.65,-169.27
56149,53.73549,-1.618318,210.91,28.41,6,310.25,21 / 22,5614938,2019-11-08 11:30:52:549,-1.6907,-0.3715,9.3512,0.0111,0.0313,9.8065,0.0498,-0.2609,0.1121,2.38,-45.75,35.63,17.51,-82.6,-168.64
56150,53.73549,-1.618318,210.91,28.41,6,310.25,21 / 22,5615039,2019-11-08 11:30:52:650,-2.6809,-0.0988,9.8234,0.047,0.0014,9.8065,-0.048,-0.0985,0.1042,2.75,-45.44,35.06,19.07,-82.88,-168.94
56151,53.73549,-1.618318,210.91,28.41,6,310.25,21 / 22,5615139,2019-11-08 11:30:52:750,0.1981,-1.6335,10.5255,0.0104,-0.0228,9.8066,0.0169,-0.2028,0.0464,2.75,-45.37,34.75,19.46,-82.8,-168.65
56152,53.73549,-1.618318,210.91,28.41,6,310.25,21 / 22,5615240,2019-11-08 11:30:52:851,1.2886,-0.2934,9.3028,0.0456,-0.0039,9.8065,-0.0426,0.0249,0.0643,2.63,-45.25,34.81,20.1,-82.66,-168.18
56153,53.73549,-1.618318,210.91,28.41,6,310.25,21 / 22,5615339,2019-11-08 11:30:52:950,0.3604,-0.8756,10.2915,0.0005,-0.0241,9.8066,-0.1051,-0.0554,0.0949,2.56,-45.31,35.13,18.34,-82.69,-169.64
56154,53.73549,-1.618318,210.91,28.41,6,310.25,21 / 22,5615439,2019-11-08 11:30:53:050,-1.4492,0.2904,9.099,0.0024,0.001,9.8066,-0.1229,-0.0965,0.0905,2.19,-45.25,35.19,17.11,-82.57,-169.1
56155,53.73549,-1.618318,210.91,28.41,6,310.25,24 / 24,5615539,2019-11-08 11:30:53:150,0.3859,-0.4279,10.758,0.0287,-0.0261,9.8066,-0.0518,-0.0347,0.0575,2.75,-45.94,34.94,19.99,-82.49,-168.43
56156,53.73549,-1.618318,210.91,28.41,6,310.25,24 / 24,5615639,2019-11-08 11:30:53:250,0.9372,-1.6055,10.9224,-0.0037,-0.0042,9.8066,-0.023,-0.1013,0.0628,2.13,-45.31,34.5,14.95,-82.49,-170.93
56157,53.73549,-1.618318,210.91,28.41,6,310.25,24 / 24,5615739,2019-11-08 11:30:53:350,-0.2957,0.5837,8.8252,0.0137,-0.03,9.8066,0.0503,-0.0651,0.0574,2.56,-45.12,34.94,16.86,-82.5,-170.95
56158,53.73549,-1.618318,210.91,28.41,6,310.25,24 / 24,5615839,2019-11-08 11:30:53:450,0.0649,-1.0425,11.1801,-0.0085,-0.0316,9.8065,-0.0091,-0.052,0.1,2.38,-45.37,35.19,15.04,-82.45,-170.87
56159,53.73549,-1.618318,210.91,28.41,6,310.25,24 / 24,5615939,2019-11-08 11:30:53:550,-0.0437,-0.7937,9.6143,0.0298,-0.0241,9.8065,0.035,0.0635,-0.0148,2.31,-45.0,34.88,16.62,-82.33,-169.6
56160,53.73549,-1.618318,210.91,28.41,6,310.25,24 / 24,5616038,2019-11-08 11:30:53:649,2.0283,-0.0444,10.1864,0.0404,-0.0143,9.8065,0.0284,0.0651,-0.1029,2.19,-44.87,34.69,16.11,-82.35,-170.01
56161,53.73549,-1.618318,210.91,28.41,6,310.25,24 / 24,5616138,2019-11-08 11:30:53:749,-1.3008,-0.7324,9.5341,0.0448,-0.0166,9.8065,0.0212,0.0254,0.0356,2.75,-44.75,34.88,14.57,-82.25,-172.95
56162,53.73549,-1.618318,210.91,28.41,6,310.25,24 / 24,5616238,2019-11-08 11:30:53:849,-0.6541,-1.5392,9.0115,0.0188,0.0254,9.8066,-0.0062,-0.18,-0.0234,2.88,-44.87,34.69,14.36,-82.23,-173.13
56163,53.73549,-1.618318,210.91,28.41,6,310.25,24 / 24,5616339,2019-11-08 11:30:53:950,1.3523,-0.6276,9.7621,-0.0188,0.0162,9.8066,0.1134,0.0068,0.0276,2.13,-45.06,34.75,13.22,-82.48,-172.36
56164,53.73549,-1.618318,210.91,28.41,6,310.25,24 / 24,5616439,2019-11-08 11:30:54:050,0.0225,-1.2581,9.2157,-0.0098,0.0016,9.8066,0.0568,0.1432,-0.1261,2.88,-45.0,34.56,15.58,-82.37,-172.07
56165,53.73549,-1.618318,210.91,28.41,6,310.25,24 / 24,5616538,2019-11-08 11:30:54:149,-3.0397,0.3037,10.2989,-0.0341,0.0017,9.8065,0.0749,0.3084,-0.2859,2.06,-44.94,35.31,12.61,-82.17,-172.96
56166,53.73549,-1.618318,210.91,28.41,6,310.25,24 / 24,5616638,2019-11-08 11:30:54:249,-0.8624,-0.1337,9.1181,-0.053,0.0085,9.8064,0.0136,0.2978,-0.1939,2.31,-45.12,35.19,14.62,-82.15,-171.32
56167,53.73549,-1.618318,210.91,28.41,6,310.25,24 / 24,5616738,2019-11-08 11:30:54:349,-0.1449,-2.633,10.5926,-0.0354,-0.0076,9.8065,-0.1049,0.1935,-0.2153,2.0,-45.31,34.94,16.55,-82.02,-169.79
56168,53.73549,-1.618318,210.91,28.41,6,310.25,24 / 24,5616839,2019-11-08 11:30:54:450,1.2662,-0.4541,9.1537,-0.0096,0.0301,9.8066,-0.068,0.2298,-0.1533,1.81,-45.25,34.19,14.67,-81.8,-171.58
56169,53.73549,-1.618318,210.91,28.41,6,310.25,24 / 24,5616941,2019-11-08 11:30:54:552,0.9217,-0.9055,9.3041,-0.032,0.0219,9.8065,-0.1613,0.1144,-0.0455,2.5,-45.19,34.88,17.88,-82.0,-170.32
56170,53.73549,-1.618318,210.91,28.41,6,310.25,24 / 24,5617039,2019-11-08 11:30:54:650,-2.3919,-1.8344,9.1229,-0.0323,-0.0075,9.8066,-0.065,-0.0684,-0.0333,2.31,-44.75,34.88,15.02,-81.96,-171.06
56171,53.73549,-1.618318,210.91,28.41,6,310.25,24 / 24,5617139,2019-11-08 11:30:54:750,1.374,-0.2054,11.4508,0.0039,-0.0325,9.8066,-0.1095,-0.0245,0.0378,2.38,-44.19,34.88,14.28,-81.75,-171.68
56172,53.73549,-1.618318,210.91,28.41,6,310.25,24 / 24,5617238,2019-11-08 11:30:54:849,0.1393,-1.88,11.5198,-0.0383,0.0193,9.8065,-0.0823,-0.1051,0.0658,2.5,-44.44,34.81,15.08,-81.85,-172.61
56173,53.73549,-1.618318,210.91,28.41,6,310.25,24 / 24,5617338,2019-11-08 11:30:54:949,1.6826,-0.0477,9.0981,0.0068,-0.038,9.8065,-0.0501,-0.0308,0.115,2.56,-45.0,34.81,16.44,-81.89,-171.55
56174,53.73549,-1.618318,210.91,28.41,6,310.25,24 / 24,5617438,2019-11-08 11:30:55:049,-1.4891,0.9774,9.9521,-0.0211,-0.0081,9.8066,-0.0916,-0.0458,0.0482,1.94,-44.06,34.63,15.32,-81.8,-170.81
56175,53.73549,-1.618318,210.91,28.41,6,310.25,22 / 24,5617540,2019-11-08 11:30:55:151,-1.0019,1.4743,10.2105,-0.0132,-0.008,9.8066,-0.125,-0.0436,0.0665,1.81,-44.12,34.88,16.59,-81.95,-169.71
56176,53.73549,-1.618318,210.91,28.41,6,310.25,22 / 24,5617638,2019-11-08 11:30:55:249,1.0244,1.7963,9.3284,0.0284,-0.0388,9.8065,-0.1133,-0.0397,0.1485,2.25,-43.94,35.69,17.47,-81.95,-168.82
56177,53.73549,-1.618318,210.91,28.41,6,310.25,22 / 24,5617738,2019-11-08 11:30:55:349,2.3559,0.7633,9.2922,-0.026,-0.0299,9.8065,0.0659,-0.2311,0.1107,2.63,-44.5,35.38,18.75,-81.58,-169.72
56178,53.73549,-1.618318,210.91,28.41,6,310.25,22 / 24,5617838,2019-11-08 11:30:55:449,0.5668,0.9481,10.0371,-0.0068,0.0226,9.8065,0.0897,-0.2949,0.1358,2.5,-45.75,34.81,17.99,-81.73,-170.42
56179,53.73549,-1.618318,210.91,28.41,6,310.25,22 / 24,5617938,2019-11-08 11:30:55:549,1.8427,0.4914,9.0341,0.0337,0.0002,9.8066,0.0358,-0.1647,0.1808,2.56,-45.25,34.19,20.37,-81.79,-168.62
56180,53.73549,-1.618318,210.91,28.41,6,310.25,22 / 24,5618038,2019-11-08 11:30:55:649,-1.2879,-0.9326,9.9262,-0.0145,-0.0124,9.8066,0.0413,-0.0383,0.0156,2.06,-43.37,33.69,17.23,-81.63,-169.43
56181,53.73549,-1.618318,210.91,28.41,6,310.25,22 / 24,5618139,2019-11-08 11:30:55:750,2.6059,0.1947,9.15,-0.0207,0.0125,9.8066,-0.0261,0.3357,-0.2456,2.0,-44.06,33.94,17.78,-81.72,-169.02
56182,53.73549,-1.618318,210.91,28.41,6,310.25,22 / 24,5618238,2019-11-08 11:30:55:849,0.6592,1.3534,9.4907,-0.0223,-0.0177,9.8065,-0.0326,0.3846,-0.2579,1.88,-43.94,34.13,16.12,-81.79,-170.35
56183,53.73549,-1.618318,210.91,28.41,6,310.25,22 / 24,5618339,2019-11-08 11:30:55:950,3.2952,-1.0547,9.9215,-0.0565,-0.0246,9.8064,0.0019,0.2075,-0.1646,1.44,-43.44,33.81,15.15,-81.55,-169.48
56184,53.73549,-1.618318,210.91,28.41,6,310.25,22 / 24,5618439,2019-11-08 11:30:56:050,-0.5551,1.5769,9.8701,-0.0297,0.0158,9.8065,-0.081,0.1175,-0.0745,2.38,-43.87,35.0,17.14,-81.73,-169.35
56185,53.73549,-1.618318,210.91,28.41,6,310.25,23 / 23,5618539,2019-11-08 11:30:56:150,-2.8743,-0.0496,11.328,-0.0422,-0.0094,9.8065,0.1258,-0.0716,-0.018,1.56,-43.62,34.44,17.34,-81.75,-169.37
56186,53.73549,-1.618318,210.91,28.41,6,310.25,23 / 23,5618638,2019-11-08 11:30:56:249,0.5005,0.6312,9.7112,-0.0095,0.0196,9.8066,0.1217,-0.1758,-0.092,1.94,-43.44,34.69,17.13,-81.44,-169.41
56187,53.73549,-1.618318,210.91,28.41,6,310.25,23 / 23,5618738,2019-11-08 11:30:56:349,0.0458,0.2606,10.0716,0.0286,0.0069,9.8066,0.122,0.0254,-0.0392,2.0,-42.75,34.56,16.34,-81.56,-170.0
56188,53.73549,-1.618318,210.91,28.41,6,310.25,23 / 23,5618838,2019-11-08 11:30:56:449,-1.6279,0.3786,9.5122,-0.0099,-0.0101,9.8065,-0.1412,-0.0199,-0.049,1.56,-43.12,35.5,16.4,-81.77,-169.71
56189,53.73549,-1.618318,210.91,28.41,6,310.25,23 / 23,5618938,2019-11-08 11:30:56:549,-2.606,0.979,9.6434,0.0499,-0.0406,9.8064,-0.1351,0.1744,-0.0348,1.94,-43.37,34.63,18.77,-81.81,-167.91
56190,53.73549,-1.618318,210.91,28.41,6,310.25,23 / 23,5619038,2019-11-08 11:30:56:649,1.1323,0.0722,10.421,-0.0193,-0.0261,9.8066,-0.128,0.2396,-0.1679,2.5,-43.37,35.25,17.91,-81.6,-170.32
56191,53.73549,-1.618318,210.91,28.41,6,310.25,23 / 23,5619138,2019-11-08 11:30:56:749,0.4212,1.6148,8.9521,0.02,0.0238,9.8065,-0.0677,0.1738,-0.1262,2.31,-42.87,34.69,16.04,-81.73,-170.18
56192,53.73549,-1.618318,210.91,28.41,6,310.25,23 / 23,5619238,2019-11-08 11:30:56:849,0.1984,0.6982,9.9732,0.0229,-0.0105,9.8066,0.0171,-0.1139,0.0261,2.69,-44.0,34.94,19.73,-81.87,-168.78
56193,53.73549,-1.618318,210.91,28.41,6,310.25,23 / 23,5619338,2019-11-08 11:30:56:949,-2.4774,0.0289,10.5513,0.0372,0.0012,9.8066,-0.1565,-0.0051,0.0243,3.06,-43.19,34.38,18.48,-81.95,-169.94
56194,53.73549,-1.618318,210.91,28.41,6,310.25,23 / 23,5619438,2019-11-08 11:30:57:049,0.6897,0.6303,8.9906,0.0105,0.012,9.8066,-0.0789,-0.0372,0.0649,2.69,-42.87,34.44,19.91,-81.99,-168.75
56195,53.73549,-1.618318,210.91,28.41,6,310.25,23 / 23,5619538,2019-11-08 11:30:57:149,-0.7445,-0.2292,10.3166,-0.0133,-0.0215,9.8065,0.0037,0.0312,0.1442,2.69,-42.81,35.13,19.39,-81.97,-168.94
56196,53.73549,-1.618318,210.91,28.41,6,310.25,23 / 23,5619638,2019-11-08 11:30:57:249,0.3501,0.7103,10.2981,0.0147,0.0121,9.8065,0.0211,0.0003,-0.0774,3.63,-42.5,34.75,21.04,-81.92,-169.12
56197,53.73549,-1.618318,210.91,28.41,6,310.25,23 / 23,5619738,2019-11-08 11:30:57:349,2.1854,0.824,10.2072,-0.0214,-0.0198,9.8066,0.1291,-0.0313,0.044,3.63,-42.81,34.5,22.31,-81.55,-168.34
56198,53.73549,-1.618318,210.91,28.41,6,310.25,23 / 23,5619839,2019-11-08 11:30:57:450,-1.214,1.6969,9.2656,-0.0118,0.0207,9.8065,0.0215,-0.2015,0.1578,3.69,-43.0,34.44,21.23,-81.55,-169.53
56199,53.73549,-1.618318,210.91,28.41,6,310.25,23 / 23,5619939,2019-11-08 11:30:57:550,-2.1376,-1.1634,10.2079,-0.0411,0.0145,9.8065,0.0612,-0.2595,0.126,3.25,-42.81,33.44,18.74,-81.81,-170.04
56200,53.73549,-1.618318,210.91,28.41,6,310.25,23 / 23,5620038,2019-11-08 11:30:57:649,1.5343,-0.7552,8.7256,-0.0118,-0.0112,9.8066,0.117,-0.1951,0.0849,3.25,-43.0,33.63,19.18,-81.71,-169.47
56201,53.73549,-1.618318,210.91,28.41,6,310.25,23 / 23,5620139,2019-11-08 11:30:57:750,1.4174,-0.5404,9.3231,-0.0216,-0.0145,9.8066,0.0433,-0.2626,0.0784,3.25,-43.0,33.19,18.96,-81.47,-170.02
56202,53.73549,-1.618318,210.91,28.41,6,310.25,23 / 23,5620238,2019-11-08 11:30:57:849,0.6253,-2.2583,11.2928,-0.007,0.0263,9.8066,0.181,-0.0832,-0.0267,2.56,-43.5,33.81,19.24,-81.63,-169.46
56203,53.73549,-1.618318,210.91,28.41,6,310.25,23 / 23,5620338,2019-11-08 11:30:57:949,-2.7301,-0.5354,8.6399,0.0186,-0.0437,9.8065,0.1565,0.0363,-0.1197,2.88,-42.56,33.63,20.08,-81.66,-168.76
56204,53.73549,-1.618318,210.91,28.41,6,310.25,23 / 23,5620439,2019-11-08 11:30:58:050,-1.0712,1.9444,10.5105,0.0322,-0.0371,9.8065,0.0627,0.3167,-0.2279,2.75,-42.5,33.75,21.38,-81.59,-167.64
56205,53.73549,-1.618318,210.91,28.41,6,310.25,23 / 23,5620539,2019-11-08 11:30:58:150,-4.243,-0.313,9.6118,0.0585,0.0092,9.8064,0.0035,0.4459,-0.2958,3.25,-42.25,33.44,19.52,-81.71,-169.37
56206,53.73549,-1.618318,210.91,28.41,6,310.25,23 / 23,5620638,2019-11-08 11:30:58:249,3.6429,0.4196,10.0347,-0.0049,-0.035,9.8065,-0.0908,0.5405,-0.3296,3.31,-42.75,33.81,20.62,-81.93,-168.18
56207,53.73549,-1.618318,210.91,28.41,6,310.25,23 / 23,5620738,2019-11-08 11:30:58:349,1.4232,-0.3639,8.751,0.0383,-0.0225,9.8065,-0.0245,0.2818,-0.2413,3.56,-42.06,33.81,23.73,-81.67,-167.31
56208,53.73549,-1.618318,210.91,28.41,6,310.25,23 / 23,5620838,2019-11-08 11:30:58:449,-2.6493,-0.2482,11.1187,0.0323,0.043,9.8064,-0.0301,0.0019,-0.0283,4.13,-42.69,33.63,22.58,-81.66,-168.36
56209,53.73549,-1.618318,210.91,28.41,6,310.25,23 / 23,5620938,2019-11-08 11:30:58:549,0.9907,1.3229,10.2145,-0.0084,0.0225,9.8066,-0.0717,-0.1272,0.058,4.0,-42.06,33.31,24.57,-81.84,-166.85
56210,53.73549,-1.618318,210.91,28.41,6,310.25,23 / 23,5621039,2019-11-08 11:30:58:650,-1.1692,-1.5438,10.4632,-0.0091,-0.0437,9.8064,0.0022,-0.1628,0.0846,3.81,-42.12,32.94,23.39,-81.63,-167.94
56211,53.73549,-1.618318,210.91,28.41,6,310.25,23 / 23,5621138,2019-11-08 11:30:58:749,-1.9942,-1.8956,10.2794,-0.0531,0.0444,9.8063,-0.0564,-0.3792,0.2485,3.56,-41.62,32.44,25.44,-81.52,-166.67
56212,53.73549,-1.618318,210.91,28.41,6,310.25,23 / 23,5621239,2019-11-08 11:30:58:850,-3.7203,2.697,9.5707,-0.0003,0.0253,9.8066,-0.0431,-0.3302,0.2551,3.13,-42.69,32.19,22.88,-81.67,-167.02
56213,53.73549,-1.618318,210.91,28.41,6,310.25,23 / 23,5621339,2019-11-08 11:30:58:950,-1.6691,-0.4098,11.0659,-0.0538,-0.0058,9.8065,-0.0474,-0.1752,0.1876,3.56,-42.69,32.81,22.58,-81.61,-168.71
56214,53.73549,-1.618318,210.91,28.41,6,310.25,23 / 23,5621438,2019-11-08 11:30:59:049,3.8234,-0.7934,8.0521,0.0245,0.052,9.8064,-0.1441,0.0082,-0.014,2.38,-42.37,32.25,21.76,-81.49,-166.16
56215,53.73549,-1.618318,210.91,28.41,6,310.25,24 / 24,5621538,2019-11-08 11:30:59:149,-1.682,1.908,10.1143,-0.0112,0.0089,9.8066,-0.1692,0.2262,-0.1208,2.06,-42.06,32.25,22.61,-81.7,-165.35
56216,53.73549,-1.618318,210.91,28.41,6,310.25,24 / 24,5621640,2019-11-08 11:30:59:251,1.3616,-0.15,8.8337,-0.0028,-0.0457,9.8065,-0.182,0.245,-0.0925,1.44,-42.69,31.88,18.3,-81.45,-167.28
56217,53.73549,-1.618318,210.91,28.41,6,310.25,24 / 24,5621739,2019-11-08 11:30:59:350,1.4279,-2.7191,11.1674,0.0216,0.0202,9.8066,-0.1051,0.0622,0.0331,1.13,-42.12,32.19,18.18,-81.58,-167.23
56218,53.73549,-1.618318,210.91,28.41,6,310.25,24 / 24,5621838,2019-11-08 11:30:59:449,0.7876,0.5256,10.1607,-0.0238,-0.008,9.8066,0.0005,-0.0865,0.072,1.25,-42.37,32.94,17.59,-81.64,-167.53
56219,53.73549,-1.618318,210.91,28.41,6,310.25,24 / 24,5621938,2019-11-08 11:30:59:549,1.0206,-0.6055,9.6747,0.0171,-0.0101,9.8066,-0.0881,-0.0974,0.1448,0.81,-42.5,33.06,17.44,-81.38,-167.76
56220,53.73549,-1.618318,210.91,28.41,6,310.25,24 / 24,5622038,2019-11-08 11:30:59:649,-2.9948,-0.1256,9.4635,-0.036,0.0037,9.8065,0.1033,-0.2739,0.1399,1.06,-42.5,32.38,17.99,-81.59,-167.38
56221,53.73549,-1.618318,210.91,28.41,6,310.25,24 / 24,5622138,2019-11-08 11:30:59:749,-0.2162,2.3626,8.3027,0.0089,-0.0341,9.8066,0.1529,-0.1998,0.0474,0.75,-42.94,33.63,18.88,-81.54,-166.45
56222,53.73549,-1.618318,210.91,28.41,6,310.25,24 / 24,5622238,2019-11-08 11:30:59:849,-0.6813,0.4316,11.5204,-0.0203,-0.0247,9.8066,0.1699,-0.1329,0.0874,1.63,-43.75,33.31,21.62,-81.66,-166.15
56223,53.73549,-1.618318,210.91,28.41,6,310.25,24 / 24,5622338,2019-11-08 11:30:59:949,-0.3214,0.7137,8.7177,0.0096,-0.0003,9.8066,0.1002,-0.0408,-0.0674,1.38,-43.69,33.44,21.14,-81.64,-164.81
56224,53.73549,-1.618318,210.91,28.41,6,310.25,24 / 24,5622438,2019-11-08 11:31:00:049,-0.9739,0.4909,10.4632,0.0123,-0.0197,9.8065,0.0601,-0.0008,-0.0301,1.31,-43.44,33.56,21.22,-81.66,-164.48
56225,53.73549,-1.618318,210.91,28.41,6,310.25,22 / 23,5622538,2019-11-08 11:31:00:149,-0.9695,0.4855,10.0979,0.0365,0.0109,9.8065,0.0462,-0.1382,0.0667,0.81,-44.19,33.19,19.66,-81.71,-165.97
56226,53.73549,-1.618318,210.91,28.41,6,310.25,22 / 23,5622639,2019-11-08 11:31:00:250,-0.3534,-0.1738,11.2559,-0.002,-0.0251,9.8066,0.1087,-0.1085,0.0566,1.75,-44.44,32.94,21.97,-81.74,-165.81
56227,53.73549,-1.618318,210.91,28.41,6,310.25,22 / 23,5622739,2019-11-08 11:31:00:350,-0.0834,0.3133,9.3053,0.0069,0.0065,9.8066,0.0966,-0.0591,-0.0142,1.38,-44.12,33.13,20.21,-81.62,-165.57
56228,53.73549,-1.618318,210.91,28.41,6,310.25,22 / 23,5622839,2019-11-08 11:31:00:450,-0.4283,1.4457,9.148,-0.0035,-0.0092,9.8066,0.073,-0.1033,0.0267,1.19,-44.25,33.19,19.45,-81.71,-166.15
56229,53.73549,-1.618318,210.91,28.41,6,310.25,22 / 23,5622938,2019-11-08 11:31:00:549,0.494,0.4815,9.6352,-0.0112,-0.0034,9.8066,0.0625,-0.0385,-0.0734,0.44,-44.44,32.69,17.27,-81.52,-166.25
56230,53.73549,-1.618318,210.91,28.41,6,310.25,22 / 23,5623038,2019-11-08 11:31:00:649,1.0609,-0.8479,10.0693,-0.0019,0.0127,9.8066,0.0344,0.058,-0.1369,1.13,-44.94,33.06,19.58,-81.41,-166.28
