,GPS LATITUDE (degrees), GPS LONGITUDE (degrees), GPS ALTITUDE (m), GPS SPEED (Kmh), GPS ACCURACY (m), GPS ORIENTATION (Â°),GPS SATELLITES IN RANGE, TIME SINCE START (ms), DATE (YYYY-MO-DD HH-MI-SS_SSS), ACCELEROMETER X (m/s²) , ACCELEROMETER Y (m/s²), ACCELEROMETER Z (m/s²), GRAVITY X (m/s²), GRAVITY Y (m/s²), GRAVITY Z (m/s²), GYROSCOPE Yaw (rad/s), GYROSCOPE Pitch (rad/s), GYROSCOPE Roll (rad/s), MAGNETIC FIELD X (Î¼T), MAGNETIC FIELD Y (Î¼T), MAGNETIC FIELD Z (Î¼T), ORIENTATION (Yaw) (Â°), ORIENTATION (Pitch) (Â°), ORIENTATION (Roll ) (Â°)
20168,52.750683,-1.674918,137.22,13.32,4,347.83,23 / 23,2016820,2019-11-06 11:15:24:163,-1.0688,0.6441,11.4411,0.0198,0.0491,9.8065,0.0591,0.0305,-0.0516,-15.5,-37.31,-4.19,105.43,-84.94,18.69
20169,52.750683,-1.674918,137.22,13.32,4,347.83,23 / 23,2016920,2019-11-06 11:15:24:263,-0.2922,0.7549,10.038,0.0426,0.0445,9.8064,0.0193,-0.133,0.0228,-15.56,-37.69,-3.94,108.95,-84.97,22.19
20170,52.750805,-1.674954,136.77,13.02,4,351.67,23 / 23,2017020,2019-11-06 11:15:24:363,0.4313,-1.8011,9.4403,0.0124,0.0156,9.8066,-0.2183,-0.0394,0.0272,-15.0,-37.81,-4.44,110.04,-85.01,23.45
20171,52.750805,-1.674954,136.77,13.02,4,351.67,23 / 23,2017120,2019-11-06 11:15:24:463,-0.5861,-1.6586,8.9962,-0.1404,-0.0068,9.8056,-0.046,0.0754,-0.1167,-15.19,-38.31,-4.25,108.77,-84.24,20.28
20172,52.750805,-1.674954,136.77,13.02,4,351.67,23 / 23,2017220,2019-11-06 11:15:24:563,0.5561,0.8812,9.9359,-0.0408,0.0088,9.8065,0.0273,0.1521,-0.0545,-15.56,-37.87,-3.81,108.77,-84.24,20.28
20173,52.750805,-1.674954,136.77,13.02,4,351.67,23 / 23,2017320,2019-11-06 11:15:24:663,1.7855,-0.7823,9.6019,-0.0103,-0.0157,9.8065,-0.0138,0.0791,-0.0751,-15.44,-38.0,-3.81,109.05,-84.0,20.01
20174,52.750805,-1.674954,136.77,13.02,4,351.67,23 / 23,2017420,2019-11-06 11:15:24:763,2.5365,-1.4244,9.4101,-0.0189,-0.0706,9.8063,0.0216,-0.0092,0.0375,-15.44,-37.87,-4.0,105.25,-84.01,15.92
20175,52.750805,-1.674954,136.77,13.02,4,351.67,23 / 23,2017520,2019-11-06 11:15:24:863,2.4205,-1.0188,10.3219,0.0813,-0.0531,9.8062,0.1371,-0.2798,0.1811,-15.87,-38.44,-4.0,105.25,-84.01,15.92
20176,52.750805,-1.674954,136.77,13.02,4,351.67,23 / 23,2017620,2019-11-06 11:15:24:963,0.7988,3.0306,10.7716,0.0514,-0.017,9.8064,-0.0051,-0.6043,0.355,-16.56,-37.81,-4.0,102.39,-84.55,14.09
20177,52.750805,-1.674954,136.77,13.02,4,351.67,23 / 23,2017720,2019-11-06 11:15:25:063,1.5108,2.7884,10.3804,0.0004,0.0065,9.8066,-0.0144,-0.0078,0.0885,-15.94,-37.56,-3.87,100.1,-84.93,12.57
20178,52.750805,-1.674954,136.77,13.02,4,351.67,23 / 23,2017820,2019-11-06 11:15:25:163,1.2592,-2.8656,9.6861,-0.0448,-0.0726,9.8062,-0.0594,0.4,-0.2498,-16.56,-38.0,-3.56,95.78,-84.73,7.52
20179,52.750805,-1.674954,136.77,13.02,4,351.67,23 / 23,2017921,2019-11-06 11:15:25:264,2.7262,-8.0841,10.1868,-0.0254,-0.069,9.8063,-0.0992,-0.2144,0.111,-16.62,-37.94,-4.06,95.78,-84.73,7.52
20180,52.750916,-1.674982,136.36,12.88,4,352.87,22 / 23,2018019,2019-11-06 11:15:25:362,2.2633,-2.3768,10.0738,-0.0211,0.0684,9.8063,0.1048,-0.6331,0.2786,-15.87,-38.25,-4.19,89.38,-84.53,0.66
20181,52.750916,-1.674982,136.36,12.88,4,352.87,22 / 23,2018119,2019-11-06 11:15:25:462,2.0121,4.5209,10.2423,0.0486,0.0042,9.8065,0.1153,-0.8187,0.4147,-16.06,-37.69,-3.5,102.25,-84.42,10.05
20182,52.750916,-1.674982,136.36,12.88,4,352.87,22 / 23,2018220,2019-11-06 11:15:25:563,3.8649,-1.0086,10.3093,0.1261,0.0357,9.8057,0.0829,0.4528,-0.4873,-16.37,-37.94,-3.56,102.25,-84.42,10.05
20183,52.750916,-1.674982,136.36,12.88,4,352.87,22 / 23,2018320,2019-11-06 11:15:25:663,3.7698,-3.8217,10.2729,0.0272,0.0185,9.8066,-0.0835,0.4547,-0.2612,-15.62,-37.87,-3.56,108.35,-85.39,18.75
20184,52.750916,-1.674982,136.36,12.88,4,352.87,22 / 23,2018420,2019-11-06 11:15:25:763,3.2,-1.4492,9.8603,0.0048,0.0558,9.8065,-0.0555,0.3,-0.3017,-15.75,-38.19,-3.12,112.27,-85.44,23.04
20185,52.750916,-1.674982,136.36,12.88,4,352.87,22 / 23,2018521,2019-11-06 11:15:25:864,2.6347,4.8545,8.9708,-0.0001,0.1348,9.8057,0.1011,-0.0349,-0.0411,-15.62,-38.69,-3.56,117.81,-85.09,31.58
20186,52.750916,-1.674982,136.36,12.88,4,352.87,22 / 23,2018620,2019-11-06 11:15:25:963,1.8947,2.3999,8.8489,0.0214,0.0271,9.8066,-0.0178,-0.5385,0.2483,-15.69,-38.06,-3.75,117.81,-85.09,31.58
20187,52.750916,-1.674982,136.36,12.88,4,352.87,22 / 23,2018720,2019-11-06 11:15:26:063,2.1228,-6.4535,9.5008,0.038,-0.0808,9.8061,0.0851,-0.0968,0.1136,-15.75,-37.69,-4.0,118.22,-85.18,32.49
20188,52.750916,-1.674982,136.36,12.88,4,352.87,22 / 23,2018820,2019-11-06 11:15:26:163,1.9558,-4.1533,9.9262,0.0466,-0.1275,9.8057,-0.0599,0.4659,-0.2826,-16.0,-37.87,-3.81,110.53,-85.74,25.37
20189,52.750916,-1.674982,136.36,12.88,4,352.87,22 / 23,2018920,2019-11-06 11:15:26:263,1.8682,-0.8972,10.3383,-0.0124,0.0199,9.8066,-0.0183,0.5135,-0.3237,-16.25,-37.62,-4.31,110.53,-85.74,25.37
20190,52.751026,-1.675001,135.95,12.8,6,354.89,22 / 23,2019020,2019-11-06 11:15:26:363,0.8423,4.1692,10.9458,0.0951,0.1135,9.8055,0.1187,-0.6187,0.3855,-16.19,-38.0,-4.19,111.78,-85.63,26.47
20191,52.751026,-1.675001,135.95,12.8,6,354.89,22 / 23,2019120,2019-11-06 11:15:26:463,2.347,-0.1511,9.639,0.161,0.1546,9.8041,0.1497,-0.4291,0.1003,-15.87,-37.81,-3.56,127.01,-85.99,43.71
20192,52.751026,-1.675001,135.95,12.8,6,354.89,22 / 23,2019220,2019-11-06 11:15:26:563,2.4442,-2.5617,9.9218,0.019,-0.0271,9.8065,-0.0477,0.0267,0.061,-16.06,-37.56,-3.37,129.09,-86.17,42.82
20193,52.751026,-1.675001,135.95,12.8,6,354.89,22 / 23,2019320,2019-11-06 11:15:26:663,0.9118,-5.2538,10.2195,-0.0808,-0.0772,9.806,-0.1965,0.5271,-0.1485,-16.12,-37.94,-4.0,129.09,-86.17,42.82
20194,52.751026,-1.675001,135.95,12.8,6,354.89,22 / 23,2019419,2019-11-06 11:15:26:762,4.4675,5.7287,9.6046,-0.0367,0.003,9.8065,0.0162,-0.1977,0.0818,-17.25,-38.12,-3.31,120.85,-86.04,33.41
20195,52.751026,-1.675001,135.95,12.8,6,354.89,22 / 23,2019520,2019-11-06 11:15:26:863,4.1315,6.966,10.8431,0.0236,0.0429,9.8065,-0.0668,-0.8597,0.8227,-16.69,-36.81,-4.19,121.45,-86.02,37.53
20196,52.751026,-1.675001,135.95,12.8,6,354.89,22 / 23,2019620,2019-11-06 11:15:26:963,0.4638,-4.5806,11.8421,0.0546,-0.0952,9.806,0.1471,-0.467,0.236,-17.19,-37.62,-3.81,121.45,-86.02,37.53
20197,52.751026,-1.675001,135.95,12.8,6,354.89,22 / 23,2019720,2019-11-06 11:15:27:063,-0.0129,-8.3561,11.5958,0.0506,-0.0888,9.8061,0.0543,0.459,-0.3414,-17.5,-37.44,-3.19,118.98,-86.57,32.38
20198,52.751026,-1.675001,135.95,12.8,6,354.89,22 / 23,2019820,2019-11-06 11:15:27:163,0.8339,-2.6349,10.9319,0.0169,-0.0248,9.8065,0.0517,0.3379,-0.3393,-18.0,-37.5,-2.94,104.98,-87.44,19.44
20199,52.751026,-1.675001,135.95,12.8,6,354.89,22 / 23,2019920,2019-11-06 11:15:27:263,0.6486,4.5095,10.3361,0.0008,0.0573,9.8065,-0.037,-0.5625,0.2721,-17.87,-37.81,-3.37,112.12,-87.34,26.46
20200,52.75114,-1.675012,135.59,12.68,6,357.63,21 / 22,2020020,2019-11-06 11:15:27:363,0.1079,1.0327,10.1077,-0.0276,0.0678,9.8063,0.0456,-0.6488,0.3425,-17.31,-37.75,-3.19,112.12,-87.34,26.46
20201,52.75114,-1.675012,135.59,12.68,6,357.63,21 / 22,2020120,2019-11-06 11:15:27:463,0.6928,-2.6529,10.2394,0.0197,0.0868,9.8061,0.1785,-0.1398,-0.1607,-16.81,-38.06,-3.19,126.23,-86.82,40.62
20202,52.75114,-1.675012,135.59,12.68,6,357.63,21 / 22,2020222,2019-11-06 11:15:27:565,1.5676,-4.5871,11.345,0.0146,0.0292,9.8065,-0.0728,0.3758,-0.2927,-16.75,-37.94,-3.62,136.13,-86.48,54.11
20203,52.75114,-1.675012,135.59,12.68,6,357.63,21 / 22,2020320,2019-11-06 11:15:27:663,-1.3483,0.168,11.2469,0.0505,0.0737,9.8062,0.2097,0.0823,-0.2024,-16.62,-37.69,-3.12,136.13,-86.48,54.11
20204,52.75114,-1.675012,135.59,12.68,6,357.63,21 / 22,2020420,2019-11-06 11:15:27:763,-0.6024,-0.0887,11.0043,0.0774,0.0519,9.8061,0.1286,-0.1095,0.0235,-16.5,-38.19,-2.75,153.53,-86.22,70.26
20205,52.75114,-1.675012,135.59,12.68,6,357.63,21 / 22,2020520,2019-11-06 11:15:27:863,1.9117,-0.9091,9.2948,0.0027,0.0321,9.8066,0.0636,-0.1619,0.0057,-16.5,-37.62,-3.31,165.81,-85.84,84.09
20206,52.75114,-1.675012,135.59,12.68,6,357.63,21 / 22,2020620,2019-11-06 11:15:27:963,0.4482,-3.106,9.7795,-0.0279,0.0256,9.8066,-0.046,-0.0834,-0.1164,-16.87,-37.75,-3.69,165.81,-85.84,84.09
20207,52.75114,-1.675012,135.59,12.68,6,357.63,21 / 22,2020720,2019-11-06 11:15:28:063,0.5528,-2.3168,9.6847,-0.049,0.0297,9.8064,0.0003,0.1353,-0.0838,-16.62,-37.69,-3.69,164.53,-85.65,82.49
20208,52.75114,-1.675012,135.59,12.68,6,357.63,21 / 22,2020820,2019-11-06 11:15:28:163,0.0787,-0.4768,10.4039,0.0104,0.0134,9.8066,0.0162,0.0063,-0.0826,-16.31,-37.81,-3.44,163.31,-85.38,80.88
20209,52.75114,-1.675012,135.59,12.68,6,357.63,21 / 22,2020920,2019-11-06 11:15:28:263,1.1475,-3.0413,10.2016,0.0346,0.0235,9.8065,0.0285,0.0288,0.0768,-16.44,-38.31,-3.0,165.76,-85.3,83.72
20210,52.75114,-1.675012,135.59,12.68,6,357.63,22 / 22,2021020,2019-11-06 11:15:28:363,2.1903,-1.9254,10.0839,-0.0376,-0.0044,9.8065,0.0582,-0.144,-0.1223,-16.69,-37.75,-2.81,165.76,-85.3,83.72
20211,52.751263,-1.675015,135.3,13.56,6,1.08,22 / 22,2021120,2019-11-06 11:15:28:463,-0.616,-0.5409,11.0566,-0.0888,-0.0175,9.8062,-0.1315,-0.2323,0.1545,-16.25,-38.19,-3.25,160.6,-85.26,81.07
20212,52.751263,-1.675015,135.3,13.56,6,1.08,22 / 22,2021220,2019-11-06 11:15:28:563,0.3818,-1.3797,10.9844,-0.0934,0.0175,9.8061,0.076,-0.123,-0.0212,-16.5,-38.37,-3.25,159.09,-84.96,75.59
20213,52.751263,-1.675015,135.3,13.56,6,1.08,22 / 22,2021320,2019-11-06 11:15:28:663,2.1046,-4.8546,9.6147,0.0824,0.0399,9.8062,0.0783,0.0105,0.0608,-16.69,-38.19,-2.44,159.09,-84.96,75.59
20214,52.751263,-1.675015,135.3,13.56,6,1.08,22 / 22,2021420,2019-11-06 11:15:28:763,1.2211,-3.8531,9.7591,0.0113,0.0486,9.8065,-0.0258,-0.008,-0.0386,-15.87,-38.56,-2.37,167.16,-84.89,81.58
20215,52.751263,-1.675015,135.3,13.56,6,1.08,22 / 22,2021520,2019-11-06 11:15:28:863,0.9673,-2.411,9.274,-0.0212,-0.0039,9.8066,-0.0433,-0.2254,0.0807,-16.31,-38.12,-2.69,165.42,-84.62,82.94
20216,52.751263,-1.675015,135.3,13.56,6,1.08,22 / 22,2021620,2019-11-06 11:15:28:963,0.1426,0.0628,10.0834,-0.0464,-0.0287,9.8064,0.0887,-0.2334,0.0325,-16.56,-37.94,-3.12,162.97,-84.71,79.63
20217,52.751263,-1.675015,135.3,13.56,6,1.08,22 / 22,2021720,2019-11-06 11:15:29:063,-0.4216,0.8096,10.0773,-0.0086,0.0292,9.8066,-0.0494,0.0497,-0.1119,-16.19,-38.44,-2.19,162.97,-84.71,79.63
20218,52.751263,-1.675015,135.3,13.56,6,1.08,22 / 22,2021820,2019-11-06 11:15:29:163,-1.098,-2.0949,10.9449,0.0124,-0.0095,9.8066,0.0218,-0.0835,-0.0326,-16.0,-38.12,-2.56,162.75,-84.53,79.66
20219,52.751263,-1.675015,135.3,13.56,6,1.08,22 / 22,2021920,2019-11-06 11:15:29:263,2.1775,-1.3412,10.686,0.0353,0.0069,9.8065,0.1251,-0.0287,0.0481,-16.37,-38.56,-2.56,164.12,-84.74,81.35
20220,52.751392,-1.675003,135.02,13.95,6,3.77,21 / 21,2022020,2019-11-06 11:15:29:363,7.1544,-1.5115,9.791,0.0726,-0.0074,9.8063,-0.1006,0.1834,-0.151,-16.31,-38.37,-2.06,164.12,-84.74,81.35
20221,52.751392,-1.675003,135.02,13.95,6,3.77,21 / 21,2022120,2019-11-06 11:15:29:463,2.6898,-0.0217,8.6194,-0.1062,-0.0419,9.8059,-0.2304,0.0737,0.0072,-16.56,-37.94,-2.12,168.37,-84.94,83.13
20222,52.751392,-1.675003,135.02,13.95,6,3.77,21 / 21,2022220,2019-11-06 11:15:29:563,2.1619,-0.3823,9.7095,-0.0241,-0.0248,9.8065,-0.103,-0.1547,-0.0445,-16.75,-38.0,-2.75,155.44,-85.02,70.96
20223,52.751392,-1.675003,135.02,13.95,6,3.77,21 / 21,2022320,2019-11-06 11:15:29:663,0.8964,-0.1535,10.273,-0.0519,-0.0747,9.8062,0.0362,0.0297,0.2326,-17.0,-38.5,-2.5,155.44,-85.02,70.96
20224,52.751392,-1.675003,135.02,13.95,6,3.77,21 / 21,2022420,2019-11-06 11:15:29:763,-2.1905,-0.0629,12.6518,0.1387,-0.025,9.8056,0.3814,0.1218,-0.242,-17.75,-37.69,-2.81,153.45,-85.26,65.42
20225,52.751392,-1.675003,135.02,13.95,6,3.77,21 / 21,2022521,2019-11-06 11:15:29:864,2.679,0.3432,11.3845,0.0462,0.0113,9.8064,-0.018,0.0837,-0.0705,-17.62,-38.0,-2.62,164.5,-85.84,81.69
20226,52.751392,-1.675003,135.02,13.95,6,3.77,21 / 21,2022620,2019-11-06 11:15:29:963,3.8584,-0.2198,10.1302,0.0506,-0.0113,9.8065,-0.1091,-0.0362,-0.0433,-17.75,-38.12,-2.62,167.78,-85.97,85.5
20227,52.751392,-1.675003,135.02,13.95,6,3.77,21 / 21,2022720,2019-11-06 11:15:30:063,2.7518,1.15,9.5962,-0.0422,0.0151,9.8065,-0.0935,-0.0491,0.0454,-17.75,-38.31,-2.12,167.78,-85.97,85.5
20228,52.751392,-1.675003,135.02,13.95,6,3.77,21 / 21,2022820,2019-11-06 11:15:30:163,0.2608,-1.3548,9.5504,-0.017,-0.0107,9.8065,0.1019,0.0711,0.0031,-17.37,-38.44,-2.37,165.17,-85.83,82.44
20229,52.751392,-1.675003,135.02,13.95,6,3.77,21 / 21,2022920,2019-11-06 11:15:30:263,-0.3922,-0.9099,9.6114,0.0114,-0.0007,9.8066,0.0706,-0.0608,-0.0193,-17.87,-38.12,-2.75,165.92,-85.85,83.32
20230,52.75152,-1.674982,134.82,14.03,6,5.63,22 / 22,2023020,2019-11-06 11:15:30:363,2.7713,-1.4698,9.0787,0.0592,-0.0555,9.8063,-0.0519,0.0055,-0.0409,-17.5,-38.06,-2.25,165.92,-85.85,83.32
20231,52.75152,-1.674982,134.82,14.03,6,5.63,22 / 22,2023120,2019-11-06 11:15:30:463,-1.6593,-1.2756,9.0806,-0.0141,-0.0238,9.8066,-0.0519,0.0055,-0.0409,-18.12,-37.94,-2.19,171.97,-86.24,87.23
20232,52.75152,-1.674982,134.82,14.03,6,5.63,22 / 22,2023219,2019-11-06 11:15:30:562,2.1755,-0.687,10.4388,0.0109,-0.0466,9.8065,-0.0046,0.0619,-0.0572,-18.44,-38.44,-2.44,170.53,-86.36,85.64
20233,52.75152,-1.674982,134.82,14.03,6,5.63,22 / 22,2023320,2019-11-06 11:15:30:663,2.0149,0.3251,11.1488,0.025,-0.0008,9.8066,0.1278,0.1345,-0.0688,-18.06,-38.56,-2.5,173.98,-86.58,89.56
20234,52.75152,-1.674982,134.82,14.03,6,5.63,22 / 22,2023420,2019-11-06 11:15:30:763,0.6408,-1.126,10.7321,0.0466,-0.0175,9.8064,-0.0368,0.2209,-0.1045,-18.62,-38.62,-1.87,178.27,-86.7,94.08
20235,52.75152,-1.674982,134.82,14.03,6,5.63,22 / 22,2023519,2019-11-06 11:15:30:862,1.2192,-2.9024,10.5614,0.0542,-0.0683,9.8062,0.0693,-0.1403,0.0903,-18.37,-38.31,-1.56,178.27,-86.7,94.08
20236,52.75152,-1.674982,134.82,14.03,6,5.63,22 / 22,2023620,2019-11-06 11:15:30:963,0.6416,0.0386,9.272,0.0015,-0.0591,9.8065,0.1099,-0.1911,0.1615,-18.81,-38.44,-1.62,186.42,-87.09,100.09
20237,52.75152,-1.674982,134.82,14.03,6,5.63,22 / 22,2023719,2019-11-06 11:15:31:062,-1.1036,-0.1569,9.809,-0.0014,-0.094,9.8062,-0.0025,0.105,-0.0983,-19.06,-38.06,-1.0,187.75,-87.64,101.39
20238,52.75152,-1.674982,134.82,14.03,6,5.63,22 / 22,2023820,2019-11-06 11:15:31:163,0.5832,-1.8882,9.0018,-0.0117,-0.0115,9.8066,0.0179,-0.1719,0.0881,-19.37,-38.25,-1.12,187.48,-87.65,101.09
20239,52.75152,-1.674982,134.82,14.03,6,5.63,22 / 22,2023921,2019-11-06 11:15:31:264,1.2875,0.8441,8.3577,-0.0473,0.0558,9.8064,-0.1324,0.09,-0.1261,-18.87,-38.69,-1.87,187.48,-87.65,101.09
20240,52.75165,-1.67496,134.69,14.43,6,5.0,21 / 22,2024020,2019-11-06 11:15:31:363,1.1775,-0.6345,8.5573,0.0075,-0.0145,9.8065,0.0684,0.064,0.0384,-17.69,-38.44,-2.62,176.69,-87.16,92.69
20241,52.75165,-1.67496,134.69,14.43,6,5.0,21 / 22,2024119,2019-11-06 11:15:31:462,0.1274,-1.998,9.1456,0.0375,0.0288,9.8065,0.0497,0.1189,-0.2718,-18.75,-38.12,-1.81,180.94,-86.99,97.04
20242,52.75165,-1.67496,134.69,14.43,6,5.0,21 / 22,2024220,2019-11-06 11:15:31:563,-0.8223,-0.2001,9.0249,-0.0118,-0.0531,9.8064,-0.1536,0.0055,-0.0915,-19.06,-38.69,-2.25,180.94,-86.99,97.04
20243,52.75165,-1.67496,134.69,14.43,6,5.0,21 / 22,2024320,2019-11-06 11:15:31:663,-3.4144,0.6827,9.2437,0.0093,-0.0715,9.8063,0.2623,-0.1718,0.1791,-18.62,-37.75,-2.06,179.4,-87.3,95.68
20244,52.75165,-1.67496,134.69,14.43,6,5.0,21 / 22,2024421,2019-11-06 11:15:31:764,-1.586,0.4929,8.9563,0.0083,-0.0039,9.8066,-0.3096,0.0135,-0.0158,-18.87,-38.31,-2.5,180.86,-87.72,96.94
20245,52.75165,-1.67496,134.69,14.43,6,5.0,21 / 22,2024520,2019-11-06 11:15:31:863,-0.7473,-3.999,10.913,-0.0453,0.0016,9.8065,0.2368,-0.0628,0.1201,-18.94,-38.31,-1.87,174.73,-87.7,90.32
20246,52.75165,-1.67496,134.69,14.43,6,5.0,21 / 22,2024620,2019-11-06 11:15:31:963,-0.9816,-2.1713,10.374,-0.1011,-0.0291,9.806,-0.0206,0.1843,0.1002,-18.81,-38.87,-2.06,174.73,-87.7,90.32
20247,52.75165,-1.67496,134.69,14.43,6,5.0,21 / 22,2024720,2019-11-06 11:15:32:063,-0.3572,-1.1514,9.0367,-0.0244,0.0425,9.8065,-0.0911,-0.0632,-0.0282,-18.44,-38.25,-2.62,157.21,-87.73,74.86
20248,52.75165,-1.67496,134.69,14.43,6,5.0,21 / 22,2024820,2019-11-06 11:15:32:163,1.2116,1.6612,7.8578,0.0207,-0.0249,9.8065,0.1431,0.1468,-0.0572,-18.5,-38.69,-2.37,160.99,-87.66,75.7
20249,52.75165,-1.67496,134.69,14.43,6,5.0,21 / 22,2024920,2019-11-06 11:15:32:263,1.7134,1.8508,11.164,0.0866,-0.0255,9.8062,0.0327,0.2344,-0.1188,-18.37,-38.69,-2.62,160.99,-87.66,75.7
20250,52.751785,-1.674941,134.56,14.61,6,4.34,21 / 23,2025020,2019-11-06 11:15:32:363,1.5304,0.7231,8.8367,0.0167,0.0315,9.8066,0.0383,0.1159,-0.146,-18.31,-38.12,-2.37,175.02,-87.76,90.95
20251,52.751785,-1.674941,134.56,14.61,6,4.34,21 / 23,2025120,2019-11-06 11:15:32:463,2.5165,-0.1725,9.1386,-0.0231,0.0656,9.8064,0.0164,-0.2734,0.0515,-18.94,-38.06,-2.56,175.02,-87.76,90.95
20252,52.751785,-1.674941,134.56,14.61,6,4.34,21 / 23,2025220,2019-11-06 11:15:32:563,1.0773,-3.6123,8.4181,-0.0764,0.0811,9.8059,-0.0354,-0.468,0.2813,-18.12,-38.31,-3.12,173.09,-87.36,88.76
20253,52.751785,-1.674941,134.56,14.61,6,4.34,21 / 23,2025320,2019-11-06 11:15:32:663,0.4813,3.5448,9.2186,-0.0152,-0.0355,9.8065,0.0712,-0.3727,0.1296,-17.81,-38.06,-2.69,161.17,-86.63,78.4
20254,52.751785,-1.674941,134.56,14.61,6,4.34,21 / 23,2025420,2019-11-06 11:15:32:763,0.5621,2.6289,10.7407,-0.0168,-0.085,9.8062,0.0383,0.3957,-0.0175,-17.81,-38.12,-2.81,161.17,-86.63,78.4
20255,52.751785,-1.674941,134.56,14.61,6,4.34,21 / 23,2025520,2019-11-06 11:15:32:863,1.3699,0.4803,11.2931,0.099,-0.1882,9.8043,0.0894,0.3996,-0.2904,-18.5,-38.19,-2.69,156.43,-87.05,73.47
20256,52.751785,-1.674941,134.56,14.61,6,4.34,21 / 23,2025620,2019-11-06 11:15:32:963,2.4689,-3.6403,10.7125,-0.0068,0.0368,9.8065,-0.1375,0.4001,-0.021,-18.87,-38.19,-2.87,159.43,-88.55,77.4
20257,52.751785,-1.674941,134.56,14.61,6,4.34,21 / 23,2025720,2019-11-06 11:15:33:063,2.301,-0.0229,9.8473,-0.0116,0.1023,9.8061,-0.0074,0.0069,-0.1034,-18.25,-37.81,-2.37,166.19,-87.96,81.51
20258,52.751785,-1.674941,134.56,14.61,6,4.34,21 / 23,2025820,2019-11-06 11:15:33:163,0.1454,1.2515,9.8684,-0.0415,0.0823,9.8061,-0.2731,-0.1751,0.0929,-17.87,-39.0,-3.06,166.19,-87.96,81.51
20259,52.751785,-1.674941,134.56,14.61,6,4.34,21 / 23,2025920,2019-11-06 11:15:33:263,1.3649,-1.3579,9.9649,-0.0613,-0.0019,9.8064,0.0392,-0.3011,0.2664,-17.69,-38.31,-3.12,161.07,-87.43,78.82
20260,52.751926,-1.674927,134.42,15.07,6,2.04,21 / 22,2026020,2019-11-06 11:15:33:363,0.9125,-3.4508,10.3679,-0.0781,-0.0393,9.8062,0.1681,-0.0745,-0.0097,-17.87,-38.0,-3.06,150.51,-87.45,67.38
20261,52.751926,-1.674927,134.42,15.07,6,2.04,21 / 22,2026120,2019-11-06 11:15:33:463,-0.4025,0.8015,10.752,0.0095,-0.0021,9.8066,-0.1558,0.0637,0.0549,-18.31,-37.81,-3.31,150.51,-87.45,67.38
20262,52.751926,-1.674927,134.42,15.07,6,2.04,21 / 22,2026220,2019-11-06 11:15:33:563,0.6601,0.238,12.5118,0.0327,-0.0229,9.8065,0.174,0.0858,0.0065,-17.87,-38.25,-2.94,151.37,-87.49,68.34
20263,52.751926,-1.674927,134.42,15.07,6,2.04,21 / 22,2026319,2019-11-06 11:15:33:662,1.0295,2.3592,10.6693,0.0125,0.0449,9.8065,-0.1185,-0.0745,-0.065,-18.0,-38.25,-3.56,154.11,-87.81,74.68
20264,52.751926,-1.674927,134.42,15.07,6,2.04,21 / 22,2026419,2019-11-06 11:15:33:762,-0.4982,-3.1324,12.1593,-0.0058,0.0116,9.8066,0.1101,-0.2901,0.2415,-17.44,-37.94,-3.62,161.46,-87.49,82.98
20265,52.751926,-1.674927,134.42,15.07,6,2.04,21 / 22,2026520,2019-11-06 11:15:33:863,0.0752,1.5277,12.0028,-0.0031,0.0647,9.8063,0.1878,-0.3012,-0.0125,-17.31,-37.94,-3.37,161.46,-87.49,82.98
20266,52.751926,-1.674927,134.42,15.07,6,2.04,21 / 22,2026622,2019-11-06 11:15:33:965,0.7834,2.4068,10.3638,0.0313,-0.0087,9.8066,-0.0122,-0.0124,0.0721,-17.44,-38.25,-2.81,173.14,-87.03,92.38
20267,52.751926,-1.674927,134.42,15.07,6,2.04,21 / 22,2026720,2019-11-06 11:15:34:063,1.7931,-0.5459,10.9519,0.0006,-0.0551,9.8065,0.066,-0.0809,0.0006,-17.81,-37.81,-2.44,175.7,-87.35,91.63
20268,52.751926,-1.674927,134.42,15.07,6,2.04,21 / 22,2026820,2019-11-06 11:15:34:163,1.0982,3.9948,9.3842,-0.0829,-0.0856,9.8059,-0.1255,-0.1745,0.2536,-17.69,-37.62,-3.0,175.7,-87.35,91.63
20269,52.751926,-1.674927,134.42,15.07,6,2.04,21 / 22,2026920,2019-11-06 11:15:34:263,1.472,-0.6679,10.106,-0.0223,0.0322,9.8066,0.121,-0.2026,-0.0426,-17.12,-37.94,-3.75,159.94,-87.75,78.26
20270,52.752056,-1.674925,134.33,14.58,6,358.76,20 / 20,2027020,2019-11-06 11:15:34:363,2.1992,1.7618,10.153,-0.0094,0.0646,9.8064,-0.1245,-0.0246,0.023,-16.62,-38.44,-3.56,158.77,-87.37,79.97
20271,52.752056,-1.674925,134.33,14.58,6,358.76,20 / 20,2027120,2019-11-06 11:15:34:463,1.3034,-0.5304,11.3275,0.0136,0.1235,9.8059,0.19,-0.052,-0.0687,-16.87,-38.06,-3.56,164.47,-86.71,85.82
20272,52.752056,-1.674925,134.33,14.58,6,358.76,20 / 20,2027220,2019-11-06 11:15:34:563,0.268,-1.748,10.9132,0.0626,0.0661,9.8061,-0.0158,-0.0339,0.0842,-16.44,-37.94,-3.81,164.47,-86.71,85.82
20273,52.752056,-1.674925,134.33,14.58,6,358.76,20 / 20,2027320,2019-11-06 11:15:34:663,-0.4504,0.9485,9.0322,0.0549,0.0116,9.8065,0.2207,-0.006,-0.057,-16.44,-38.0,-2.87,173.44,-86.41,93.12
20274,52.752056,-1.674925,134.33,14.58,6,358.76,20 / 20,2027420,2019-11-06 11:15:34:763,1.4451,0.6773,8.7729,0.1009,-0.0109,9.8061,-0.0721,0.0976,0.066,-16.31,-38.56,-2.94,181.74,-86.49,102.61
20275,52.752056,-1.674925,134.33,14.58,6,358.76,20 / 20,2027520,2019-11-06 11:15:34:863,0.2946,0.8549,8.1914,-0.0775,0.0164,9.8062,-0.0418,-0.026,-0.0343,-16.25,-37.87,-3.12,181.74,-86.49,102.61
20276,52.752056,-1.674925,134.33,14.58,6,358.76,20 / 20,2027620,2019-11-06 11:15:34:963,-1.2364,-1.033,9.2834,-0.0356,-0.005,9.8065,0.0074,0.0544,0.0057,-16.37,-38.12,-3.62,172.42,-86.38,95.38
20277,52.752056,-1.674925,134.33,14.58,6,358.76,20 / 20,2027720,2019-11-06 11:15:35:063,0.8382,0.2587,8.5544,0.0249,0.0129,9.8065,-0.0523,-0.0153,0.0329,-16.12,-37.69,-3.5,171.77,-86.38,91.19
20278,52.752056,-1.674925,134.33,14.58,6,358.76,20 / 20,2027820,2019-11-06 11:15:35:163,1.6258,-0.2555,9.3979,0.0736,-0.0049,9.8063,-0.0185,0.1127,-0.095,-15.81,-38.06,-2.94,177.72,-86.45,98.01
20279,52.752056,-1.674925,134.33,14.58,6,358.76,20 / 20,2027920,2019-11-06 11:15:35:263,0.3183,1.2107,9.2956,-0.0075,-0.012,9.8065,-0.0964,0.0955,0.0968,-16.25,-37.69,-3.75,177.72,-86.45,98.01
20280,52.752193,-1.674936,134.33,14.67,6,355.95,22 / 22,2028020,2019-11-06 11:15:35:363,1.3318,0.2642,9.6994,0.0264,-0.032,9.8065,0.014,-0.136,0.0616,-16.37,-37.69,-3.12,176.28,-86.64,96.4
20281,52.752193,-1.674936,134.33,14.67,6,355.95,22 / 22,2028120,2019-11-06 11:15:35:463,2.3399,0.311,8.6778,0.0439,-0.054,9.8064,0.1108,-0.1072,0.0901,-16.0,-38.0,-3.56,177.14,-86.96,100.83
20282,52.752193,-1.674936,134.33,14.67,6,355.95,22 / 22,2028220,2019-11-06 11:15:35:563,1.9886,0.2714,9.4674,0.0052,0.04,9.8065,0.026,-0.07,0.1033,-15.69,-38.19,-2.75,177.14,-86.96,100.83
20283,52.752193,-1.674936,134.33,14.67,6,355.95,22 / 22,2028320,2019-11-06 11:15:35:663,1.7786,0.0949,10.2814,0.057,-0.0104,9.8065,0.1567,-0.0117,-0.1138,-15.81,-37.75,-3.12,180.84,-86.73,101.57
20284,52.752193,-1.674936,134.33,14.67,6,355.95,22 / 22,2028420,2019-11-06 11:15:35:763,1.0391,-0.6588,9.9852,0.0513,0.0211,9.8065,-0.0527,0.102,-0.0457,-16.19,-37.94,-3.56,182.23,-86.59,106.57
20285,52.752193,-1.674936,134.33,14.67,6,355.95,22 / 22,2028521,2019-11-06 11:15:35:864,-0.3185,-1.4508,10.0738,-0.0147,0.0789,9.8063,-0.0146,0.223,-0.1399,-15.81,-37.87,-3.12,183.82,-86.13,105.03
20286,52.752193,-1.674936,134.33,14.67,6,355.95,22 / 22,2028620,2019-11-06 11:15:35:963,-2.0543,1.3251,9.8545,0.0058,0.046,9.8065,-0.1317,0.1872,-0.0429,-15.56,-37.87,-3.25,183.82,-86.13,105.03
20287,52.752193,-1.674936,134.33,14.67,6,355.95,22 / 22,2028720,2019-11-06 11:15:36:063,0.2305,0.2104,10.0272,-0.0005,-0.0047,9.8066,0.0858,0.0983,-0.085,-15.62,-38.0,-3.44,183.97,-85.86,105.25
20288,52.752193,-1.674936,134.33,14.67,6,355.95,22 / 22,2028820,2019-11-06 11:15:36:163,1.6973,-0.2198,9.7184,0.011,0.0735,9.8063,-0.0198,-0.0624,0.06,-15.37,-38.37,-3.62,180.63,-85.42,105.68
20289,52.752193,-1.674936,134.33,14.67,6,355.95,22 / 22,2028920,2019-11-06 11:15:36:263,1.0105,-0.264,8.7687,0.0317,-0.0057,9.8065,0.065,0.0383,0.0906,-14.5,-38.5,-3.12,180.63,-85.42,105.68
20290,52.75232,-1.674954,134.34,14.53,6,353.76,21 / 21,2029020,2019-11-06 11:15:36:363,1.8305,-0.4189,9.1671,0.0093,-0.0053,9.8066,0.0408,0.1119,-0.1421,-14.5,-38.44,-3.56,181.72,-85.45,108.02
20291,52.75232,-1.674954,134.34,14.53,6,353.76,21 / 21,2029120,2019-11-06 11:15:36:463,-0.3166,1.1902,8.131,-0.0786,-0.0308,9.8062,-0.1093,0.1184,-0.0195,-14.75,-37.69,-4.0,186.21,-85.48,108.72
20292,52.75232,-1.674954,134.34,14.53,6,353.76,21 / 21,2029220,2019-11-06 11:15:36:563,2.255,-1.183,9.5908,-0.0303,-0.018,9.8065,-0.0342,-0.0841,0.0115,-15.75,-37.06,-3.37,181.95,-85.69,102.9
20293,52.75232,-1.674954,134.34,14.53,6,353.76,21 / 21,2029320,2019-11-06 11:15:36:663,1.8449,-1.865,9.3372,0.0024,-0.0024,9.8066,0.0387,-0.1821,0.1585,-14.75,-37.69,-4.06,173.58,-85.76,97.37
20294,52.75232,-1.674954,134.34,14.53,6,353.76,21 / 21,2029420,2019-11-06 11:15:36:763,-0.6076,-1.2763,9.9888,0.0223,-0.0059,9.8066,0.1322,0.1366,-0.1364,-14.69,-37.69,-3.75,173.58,-85.76,97.37
20295,52.75232,-1.674954,134.34,14.53,6,353.76,21 / 21,2029520,2019-11-06 11:15:36:863,-0.7773,-1.7343,10.687,0.027,0.019,9.8065,0.1114,0.0089,-0.0527,-15.31,-38.06,-3.62,177.55,-85.74,102.04
20296,52.75232,-1.674954,134.34,14.53,6,353.76,21 / 21,2029620,2019-11-06 11:15:36:963,0.9834,0.2873,9.3149,-0.0058,-0.0195,9.8066,-0.0688,-0.0651,0.1013,-14.69,-38.12,-3.75,180.96,-85.48,106.08
20297,52.75232,-1.674954,134.34,14.53,6,353.76,21 / 21,2029720,2019-11-06 11:15:37:063,0.0022,-1.4157,9.8938,-0.0117,-0.0289,9.8065,0.0176,-0.2384,0.0367,-14.69,-38.19,-3.69,180.24,-85.65,105.21
20298,52.75232,-1.674954,134.34,14.53,6,353.76,21 / 21,2029820,2019-11-06 11:15:37:163,0.1021,-3.9398,9.6685,-0.0408,0.0103,9.8065,0.0237,0.0264,-0.1135,-14.12,-37.62,-3.69,180.24,-85.65,105.21
20299,52.75232,-1.674954,134.34,14.53,6,353.76,21 / 21,2029920,2019-11-06 11:15:37:263,0.8217,-1.3655,9.2765,0.0002,-0.0045,9.8066,-0.0024,0.1361,-0.0863,-14.5,-37.81,-3.5,180.75,-85.53,103.0
20300,52.752457,-1.674978,134.37,15.09,6,353.22,23 / 23,2030020,2019-11-06 11:15:37:363,0.8156,1.2649,8.322,-0.006,0.0314,9.8065,-0.1514,0.196,-0.0247,-15.25,-37.75,-3.37,181.03,-85.35,102.54
20301,52.752457,-1.674978,134.37,15.09,6,353.22,23 / 23,2030120,2019-11-06 11:15:37:463,-0.5674,0.9476,8.7419,-0.0679,0.0011,9.8064,0.0338,-0.0517,-0.1536,-14.37,-37.94,-4.0,181.03,-85.35,102.54
20302,52.752457,-1.674978,134.37,15.09,6,353.22,23 / 23,2030219,2019-11-06 11:15:37:562,-0.3963,-0.8912,8.9138,-0.1156,0.0769,9.8056,-0.0254,-0.1511,-0.0056,-14.19,-38.0,-5.31,173.14,-85.33,97.66
20303,52.752457,-1.674978,134.37,15.09,6,353.22,23 / 23,2030320,2019-11-06 11:15:37:663,0.3072,0.7018,9.7018,-0.1214,0.108,9.8053,0.1048,0.1144,0.0028,-14.0,-38.06,-4.37,167.93,-84.59,90.98
20304,52.752457,-1.674978,134.37,15.09,6,353.22,23 / 23,2030421,2019-11-06 11:15:37:764,0.5816,-2.9517,11.2326,0.0209,0.0603,9.8064,-0.1256,0.2589,-0.1863,-13.62,-38.19,-4.25,169.61,-84.26,92.91
20305,52.752457,-1.674978,134.37,15.09,6,353.22,23 / 23,2030521,2019-11-06 11:15:37:864,1.0474,-0.0252,10.5211,0.0688,-0.0353,9.8063,0.0597,0.1042,0.1011,-13.62,-37.5,-4.31,169.61,-84.26,92.91
20306,52.752457,-1.674978,134.37,15.09,6,353.22,23 / 23,2030621,2019-11-06 11:15:37:964,-2.2992,2.7387,9.8443,0.0293,-0.009,9.8065,-0.0156,-0.3712,0.1909,-13.87,-37.69,-4.56,169.51,-84.53,96.67
20307,52.752457,-1.674978,134.37,15.09,6,353.22,23 / 23,2030721,2019-11-06 11:15:38:064,0.4748,-3.2262,10.4888,-0.0164,0.089,9.8062,-0.0001,-0.1828,0.2264,-13.81,-37.31,-4.56,169.64,-84.0,96.67
20308,52.752457,-1.674978,134.37,15.09,6,353.22,23 / 23,2030819,2019-11-06 11:15:38:162,2.4637,-4.5401,10.5495,0.0096,0.0828,9.8063,-0.003,0.3416,-0.3735,-13.25,-36.62,-4.62,169.64,-84.0,96.67
20309,52.752457,-1.674978,134.37,15.09,6,353.22,23 / 23,2030920,2019-11-06 11:15:38:263,2.2743,-1.9303,10.1832,0.0136,0.0002,9.8066,-0.1024,0.5747,-0.1499,-13.0,-37.44,-4.69,172.94,-83.53,97.93
20310,52.75259,-1.675008,134.39,15.86,6,350.61,22 / 22,2031023,2019-11-06 11:15:38:366,1.0922,5.9401,9.4917,-0.0089,-0.028,9.8066,0.0061,-0.3411,0.2942,-12.87,-37.56,-4.69,171.32,-83.65,99.8
20311,52.75259,-1.675008,134.39,15.86,6,350.61,22 / 22,2031120,2019-11-06 11:15:38:463,-1.385,4.942,10.2833,-0.0212,-0.0832,9.8063,-0.1089,-0.5874,0.4371,-13.44,-37.0,-4.25,172.76,-84.11,97.89
20312,52.75259,-1.675008,134.39,15.86,6,350.61,22 / 22,2031220,2019-11-06 11:15:38:563,1.2013,-3.7516,10.6334,0.0048,-0.0129,9.8066,0.1621,-0.3682,0.2406,-13.5,-37.19,-5.0,172.76,-84.11,97.89
20313,52.75259,-1.675008,134.39,15.86,6,350.61,22 / 22,2031320,2019-11-06 11:15:38:663,3.9676,-1.5224,11.5368,0.0547,-0.0258,9.8064,0.1218,-0.0611,0.0756,-14.0,-37.12,-4.81,170.62,-84.32,98.02
20314,52.75259,-1.675008,134.39,15.86,6,350.61,22 / 22,2031420,2019-11-06 11:15:38:763,1.1939,1.8324,11.2438,0.0451,-0.0085,9.8065,0.2023,0.4179,-0.1851,-14.0,-37.19,-5.12,174.15,-84.69,102.48
20315,52.75259,-1.675008,134.39,15.86,6,350.61,22 / 22,2031519,2019-11-06 11:15:38:862,0.6527,0.4335,11.0932,0.0721,0.0091,9.8063,-0.2309,0.2778,-0.2493,-14.5,-37.87,-4.44,174.15,-84.69,102.48
20316,52.75259,-1.675008,134.39,15.86,6,350.61,22 / 22,2031620,2019-11-06 11:15:38:963,0.6726,0.5171,10.425,-0.0512,0.0139,9.8065,-0.1096,-0.3524,0.2049,-13.25,-37.5,-4.44,178.77,-84.32,105.53
20317,52.75259,-1.675008,134.39,15.86,6,350.61,22 / 22,2031720,2019-11-06 11:15:39:063,1.3824,-3.0118,9.8694,-0.0276,0.0458,9.8065,0.0723,-0.4067,0.0693,-13.31,-38.06,-3.94,174.15,-84.09,99.6
20318,52.75259,-1.675008,134.39,15.86,6,350.61,22 / 22,2031820,2019-11-06 11:15:39:163,1.2656,-3.3762,9.8542,-0.0569,0.0375,9.8063,-0.0953,0.4688,-0.4863,-13.37,-37.19,-5.0,168.81,-83.83,96.73
20319,52.75259,-1.675008,134.39,15.86,6,350.61,22 / 22,2031919,2019-11-06 11:15:39:262,-1.7825,6.6595,9.2421,0.0051,-0.0857,9.8062,-0.08,0.8294,-0.3183,-13.75,-37.12,-4.56,168.81,-83.83,96.73
20320,52.75273,-1.675043,134.42,16.46,6,351.08,22 / 22,2032021,2019-11-06 11:15:39:364,-0.3352,5.3909,9.8705,0.0214,-0.0619,9.8064,-0.1164,0.4454,-0.2103,-13.69,-37.44,-4.75,172.09,-84.33,96.04
20321,52.75273,-1.675043,134.42,16.46,6,351.08,22 / 22,2032122,2019-11-06 11:15:39:465,1.1851,-5.5954,8.8656,0.0051,-0.0117,9.8066,0.0257,-0.3091,0.2207,-13.81,-37.75,-4.5,172.24,-84.4,96.24
20322,52.75273,-1.675043,134.42,16.46,6,351.08,22 / 22,2032220,2019-11-06 11:15:39:563,2.5231,-5.1295,8.8562,-0.0206,-0.013,9.8066,0.1472,-0.5978,0.2966,-13.69,-37.25,-4.94,172.24,-84.4,96.24
20323,52.75273,-1.675043,134.42,16.46,6,351.08,22 / 22,2032320,2019-11-06 11:15:39:663,-0.1679,1.2442,8.4837,0.015,-0.0522,9.8064,-0.0042,0.1,-0.0854,-13.56,-37.12,-5.0,168.05,-84.46,94.91
20324,52.75273,-1.675043,134.42,16.46,6,351.08,22 / 22,2032419,2019-11-06 11:15:39:762,-0.3109,6.1143,9.0,-0.0315,-0.0034,9.8066,-0.1721,0.8099,-0.603,-13.56,-37.25,-4.75,168.12,-84.77,95.15
20325,52.75273,-1.675043,134.42,16.46,6,351.08,22 / 22,2032519,2019-11-06 11:15:39:862,3.7158,-2.3583,9.1879,-0.1498,0.1465,9.8043,-0.0755,0.7506,-0.4641,-13.0,-37.0,-5.5,162.74,-83.72,88.92
20326,52.75273,-1.675043,134.42,16.46,6,351.08,22 / 22,2032619,2019-11-06 11:15:39:962,4.208,-6.0795,10.4723,-0.0416,0.0699,9.8063,0.1477,-0.729,0.5292,-13.5,-37.12,-5.5,162.74,-83.72,88.92
20327,52.75273,-1.675043,134.42,16.46,6,351.08,22 / 22,2032720,2019-11-06 11:15:40:063,3.7014,-0.1951,10.9672,0.0313,-0.0299,9.8065,0.1006,-0.6289,0.3046,-12.87,-37.31,-5.12,159.25,-83.26,87.97
20328,52.75273,-1.675043,134.42,16.46,6,351.08,22 / 22,2032820,2019-11-06 11:15:40:163,1.1382,6.4315,10.7015,0.0063,-0.1049,9.806,-0.0114,0.0022,0.2719,-13.06,-37.5,-4.44,166.34,-83.89,89.59
20329,52.75273,-1.675043,134.42,16.46,6,351.08,22 / 22,2032920,2019-11-06 11:15:40:263,0.5499,5.1872,10.7214,-0.005,-0.1168,9.8059,0.0786,0.6605,-0.5609,-13.25,-37.44,-5.12,166.34,-83.89,89.59
20330,52.752876,-1.675082,134.46,16.57,6,350.13,22 / 22,2033020,2019-11-06 11:15:40:363,0.098,-4.005,9.7903,-0.0263,0.069,9.8063,-0.0453,0.6289,-0.4042,-13.31,-37.0,-5.19,161.16,-84.54,87.6
20331,52.752876,-1.675082,134.46,16.57,6,350.13,22 / 22,2033120,2019-11-06 11:15:40:463,0.3312,-6.8697,11.3808,-0.0187,0.0651,9.8063,0.1623,-0.1102,-0.0245,-13.19,-37.19,-5.44,162.11,-83.82,88.2
20332,52.752876,-1.675082,134.46,16.57,6,350.13,22 / 22,2033219,2019-11-06 11:15:40:562,0.8948,-2.15,10.3442,0.0368,-0.0563,9.8064,-0.1626,0.2545,-0.081,-13.12,-37.44,-5.19,164.03,-83.42,90.37
20333,52.752876,-1.675082,134.46,16.57,6,350.13,22 / 22,2033319,2019-11-06 11:15:40:662,-2.712,4.3165,10.7147,0.0837,-0.0829,9.8059,0.0729,0.679,-0.3585,-13.31,-38.25,-5.25,164.03,-83.42,90.37
20334,52.752876,-1.675082,134.46,16.57,6,350.13,22 / 22,2033420,2019-11-06 11:15:40:763,-1.5535,-6.4706,10.598,0.0239,0.0624,9.8064,0.0386,0.7506,-0.5706,-13.0,-37.19,-5.19,169.22,-83.99,97.33
20335,52.752876,-1.675082,134.46,16.57,6,350.13,22 / 22,2033520,2019-11-06 11:15:40:863,0.6888,-8.5625,10.7503,0.0054,0.04,9.8065,0.107,-0.584,0.2433,-13.19,-37.94,-4.75,172.39,-83.11,101.0
20336,52.752876,-1.675082,134.46,16.57,6,350.13,22 / 22,2033620,2019-11-06 11:15:40:963,-0.5903,0.4889,10.1585,0.0071,0.0506,9.8065,0.15,-0.9297,0.5645,-12.69,-37.62,-4.87,172.39,-83.11,101.0
20337,52.752876,-1.675082,134.46,16.57,6,350.13,22 / 22,2033719,2019-11-06 11:15:41:062,-1.5262,5.675,10.1483,0.048,-0.048,9.8064,0.086,-0.2829,0.0777,-12.81,-37.62,-5.31,171.91,-82.83,101.64
20338,52.752876,-1.675082,134.46,16.57,6,350.13,22 / 22,2033820,2019-11-06 11:15:41:163,0.2761,2.6473,10.3725,-0.0149,0.0411,9.8065,0.0857,0.4122,-0.3197,-12.81,-37.56,-5.25,175.1,-83.06,104.56
20339,52.752876,-1.675082,134.46,16.57,6,350.13,22 / 22,2033920,2019-11-06 11:15:41:263,0.1042,-3.0267,10.7218,-0.0469,0.0512,9.8063,0.0704,0.1365,-0.0856,-12.0,-37.75,-5.12,172.63,-82.74,102.6
20340,52.75303,-1.675121,134.52,17.18,6,350.6,21 / 21,2034020,2019-11-06 11:15:41:363,1.4409,1.6515,12.0582,0.0151,0.0454,9.8064,0.1976,-0.43,0.2205,-12.31,-37.62,-5.19,172.63,-82.74,102.6
20341,52.75303,-1.675121,134.52,17.18,6,350.6,21 / 21,2034120,2019-11-06 11:15:41:463,-3.1954,1.4481,11.0616,0.1162,-0.1013,9.8053,0.1375,-0.857,0.5055,-12.75,-37.5,-4.81,173.38,-82.48,103.52
20342,52.75303,-1.675121,134.52,17.18,6,350.6,21 / 21,2034220,2019-11-06 11:15:41:563,-1.9206,1.0064,9.3557,0.1525,-0.116,9.8047,0.137,-0.7676,0.5028,-13.0,-37.87,-4.69,179.49,-83.21,110.37
20343,52.75303,-1.675121,134.52,17.18,6,350.6,21 / 21,2034320,2019-11-06 11:15:41:663,2.9037,-7.1446,9.8864,-0.0072,0.0381,9.8066,-0.1232,0.082,0.1236,-12.94,-37.69,-4.19,179.49,-83.21,110.37
20344,52.75303,-1.675121,134.52,17.18,6,350.6,21 / 21,2034420,2019-11-06 11:15:41:763,3.8308,-6.739,10.6388,0.0381,-0.0857,9.8062,-0.065,1.0503,-0.5948,-13.06,-37.31,-4.56,180.29,-82.99,110.04
20345,52.75303,-1.675121,134.52,17.18,6,350.6,21 / 21,2034519,2019-11-06 11:15:41:862,-2.1514,6.7818,10.1552,0.0163,-0.0681,9.8063,-0.0184,1.0,-0.6238,-13.25,-37.94,-4.69,180.75,-83.48,112.02
20346,52.75303,-1.675121,134.52,17.18,6,350.6,21 / 21,2034620,2019-11-06 11:15:41:963,0.4824,-1.7262,9.7419,0.0267,-0.1175,9.8058,-0.0545,0.3527,-0.043,-13.19,-37.44,-4.94,182.06,-84.17,113.64
20347,52.75303,-1.675121,134.52,17.18,6,350.6,21 / 21,2034719,2019-11-06 11:15:42:062,1.8148,-5.388,9.4306,-0.032,0.015,9.8065,0.1073,-0.6602,0.3086,-14.06,-37.62,-4.62,182.06,-84.17,113.64
20348,52.75303,-1.675121,134.52,17.18,6,350.6,21 / 21,2034819,2019-11-06 11:15:42:162,0.8741,-4.0812,9.8615,-0.013,-0.0333,9.8065,0.0237,-0.6143,0.4959,-13.75,-37.44,-4.81,184.63,-84.08,111.8
20349,52.75303,-1.675121,134.52,17.18,6,350.6,21 / 21,2034920,2019-11-06 11:15:42:263,-0.567,6.5118,10.5405,0.0307,-0.033,9.8065,0.1388,-0.0924,-0.0012,-14.19,-37.56,-4.69,182.04,-84.49,112.18
20350,52.753185,-1.675161,134.62,17.87,6,351.2,21 / 21,2035020,2019-11-06 11:15:42:363,-0.0493,6.251,9.5257,0.0303,-0.0001,9.8066,-0.0756,0.8142,-0.4478,-14.0,-37.81,-4.06,182.04,-84.49,112.18
20351,52.753185,-1.675161,134.62,17.87,6,351.2,21 / 21,2035119,2019-11-06 11:15:42:462,3.3671,-7.5081,10.4975,-0.0264,0.0552,9.8064,-0.1272,0.3077,-0.1655,-13.31,-38.0,-5.25,185.48,-84.48,114.02
20352,52.753185,-1.675161,134.62,17.87,6,351.2,21 / 21,2035220,2019-11-06 11:15:42:563,1.5786,-4.8995,10.6631,-0.0012,0.0158,9.8066,0.1027,-0.572,0.2772,-13.62,-37.62,-4.56,180.56,-83.97,110.36
20353,52.753185,-1.675161,134.62,17.87,6,351.2,21 / 21,2035320,2019-11-06 11:15:42:663,-0.2585,3.4693,9.2363,0.0162,-0.044,9.8065,0.1579,-0.7178,0.3472,-13.87,-37.12,-4.94,181.18,-84.02,111.13
20354,52.753185,-1.675161,134.62,17.87,6,351.2,21 / 21,2035420,2019-11-06 11:15:42:763,-1.5413,3.1095,8.7219,0.0249,-0.0687,9.8064,0.0582,-0.5864,0.3926,-14.06,-37.25,-4.94,181.18,-84.02,111.13
20355,52.753185,-1.675161,134.62,17.87,6,351.2,21 / 21,2035520,2019-11-06 11:15:42:863,2.9877,-7.4149,10.3456,-0.0285,0.0079,9.8065,-0.0012,0.6159,-0.3678,-13.62,-37.81,-4.87,182.21,-84.42,112.39
20356,52.753185,-1.675161,134.62,17.87,6,351.2,21 / 21,2035620,2019-11-06 11:15:42:963,3.0159,-6.2502,10.1787,0.0033,0.0073,9.8066,-0.0826,0.7339,-0.4532,-13.69,-37.44,-4.56,181.18,-84.19,111.13
20357,52.753185,-1.675161,134.62,17.87,6,351.2,21 / 21,2035720,2019-11-06 11:15:43:063,1.1357,3.0041,9.3741,0.0052,-0.0169,9.8066,-0.0727,0.3096,-0.1303,-14.31,-37.44,-4.06,181.18,-84.19,111.13
20358,52.753185,-1.675161,134.62,17.87,6,351.2,21 / 21,2035820,2019-11-06 11:15:43:163,-3.0829,3.573,8.3017,-0.0439,-0.0696,9.8063,-0.0395,-0.322,0.0868,-13.87,-37.0,-4.69,184.39,-84.29,111.45
20359,52.753185,-1.675161,134.62,17.87,6,351.2,21 / 21,2035920,2019-11-06 11:15:43:263,-1.0205,-1.1784,10.416,-0.0087,0.0493,9.8065,0.113,-0.4471,0.2817,-14.31,-37.44,-4.5,181.5,-84.59,107.79
20360,52.753345,-1.675201,134.72,18.01,6,350.01,23 / 23,2036020,2019-11-06 11:15:43:363,1.3554,-9.3238,8.8974,-0.01,0.1143,9.8059,-0.0104,0.537,-0.2715,-13.31,-37.5,-4.94,176.89,-83.93,107.07
20361,52.753345,-1.675201,134.72,18.01,6,350.01,23 / 23,2036120,2019-11-06 11:15:43:463,2.7782,-12.0831,8.7746,0.024,0.0421,9.8065,0.0038,1.2853,-0.8864,-13.44,-37.31,-4.37,176.89,-83.93,107.07
20362,52.753345,-1.675201,134.72,18.01,6,350.01,23 / 23,2036220,2019-11-06 11:15:43:563,0.5251,-2.8619,8.6693,0.0362,-0.0931,9.8061,-0.1232,0.8535,-0.4298,-13.19,-37.56,-4.5,178.0,-83.69,108.47
20363,52.753345,-1.675201,134.72,18.01,6,350.01,23 / 23,2036320,2019-11-06 11:15:43:663,-4.9074,7.0809,8.2983,0.0471,-0.076,9.8062,0.2719,-1.0295,0.5708,-13.19,-37.69,-5.37,179.98,-84.13,111.01
20364,52.753345,-1.675201,134.72,18.01,6,350.01,23 / 23,2036420,2019-11-06 11:15:43:763,-1.7764,2.6537,10.1025,-0.017,0.0106,9.8065,0.1051,-0.4958,0.3178,-13.69,-37.0,-4.75,179.98,-84.13,111.01
20365,52.753345,-1.675201,134.72,18.01,6,350.01,23 / 23,2036519,2019-11-06 11:15:43:862,2.502,-4.775,10.5348,0.0072,-0.0635,9.8064,0.1251,0.2864,-0.1947,-13.31,-37.37,-4.62,180.32,-84.07,110.05
20366,52.753345,-1.675201,134.72,18.01,6,350.01,23 / 23,2036620,2019-11-06 11:15:43:963,2.1691,-7.6071,8.7687,-0.0403,0.0507,9.8064,-0.1357,0.9225,-0.5986,-13.62,-37.44,-5.0,178.54,-84.26,107.84
20367,52.753345,-1.675201,134.72,18.01,6,350.01,23 / 23,2036720,2019-11-06 11:15:44:063,-1.8221,4.1536,9.3424,-0.0086,0.0061,9.8066,-0.0214,-0.2144,0.0737,-13.12,-37.37,-5.5,175.69,-83.73,105.51
20368,52.753345,-1.675201,134.72,18.01,6,350.01,23 / 23,2036820,2019-11-06 11:15:44:163,-0.97,3.1796,10.4463,0.0306,-0.0254,9.8065,0.1503,-0.7174,0.4353,-13.5,-37.31,-5.19,175.69,-83.73,105.51
20369,52.753345,-1.675201,134.72,18.01,6,350.01,23 / 23,2036920,2019-11-06 11:15:44:263,2.7178,-8.0473,10.4608,0.0432,-0.031,9.8065,0.1459,-0.808,0.469,-13.62,-37.12,-4.06,179.64,-84.08,109.2
20370,52.7535,-1.67524,134.82,17.9,6,351.26,23 / 23,2037020,2019-11-06 11:15:44:363,-1.7255,4.5261,10.9559,-0.0125,0.0652,9.8064,-0.0143,-0.101,0.0691,-13.62,-37.69,-4.75,181.14,-84.16,111.09
20371,52.7535,-1.67524,134.82,17.9,6,351.26,23 / 23,2037120,2019-11-06 11:15:44:463,-0.6827,1.2071,10.7037,0.0176,0.0248,9.8065,-0.052,0.4252,-0.2262,-14.37,-38.0,-4.25,181.14,-84.16,111.09
20372,52.7535,-1.67524,134.82,17.9,6,351.26,23 / 23,2037219,2019-11-06 11:15:44:562,-2.0046,-2.0175,9.7765,0.0378,-0.0035,9.8065,0.0627,0.4132,-0.2741,-13.94,-37.31,-4.12,185.64,-84.11,113.03
20373,52.7535,-1.67524,134.82,17.9,6,351.26,23 / 23,2037320,2019-11-06 11:15:44:663,2.6304,-5.1651,9.3814,0.0164,0.0186,9.8065,0.0993,0.1199,-0.1703,-14.56,-37.87,-4.31,189.26,-84.04,116.49
20374,52.7535,-1.67524,134.82,17.9,6,351.26,23 / 23,2037421,2019-11-06 11:15:44:764,3.2766,-2.9517,8.2176,-0.0291,0.0265,9.8065,-0.1055,-0.2634,0.2765,-14.44,-37.12,-4.0,189.26,-84.04,116.49
20375,52.7535,-1.67524,134.82,17.9,6,351.26,23 / 23,2037520,2019-11-06 11:15:44:863,-0.7559,-1.9488,8.0182,-0.0484,-0.0225,9.8065,0.0581,0.1453,-0.1114,-13.81,-37.31,-5.0,181.9,-83.95,110.79
20376,52.7535,-1.67524,134.82,17.9,6,351.26,23 / 23,2037620,2019-11-06 11:15:44:963,-2.1525,1.9624,10.2733,0.0244,0.0283,9.8065,-0.0376,0.401,-0.2428,-13.31,-37.5,-4.31,179.61,-84.02,106.6
20377,52.7535,-1.67524,134.82,17.9,6,351.26,23 / 23,2037720,2019-11-06 11:15:45:063,0.796,0.1074,10.7582,0.0697,0.0209,9.8063,0.0032,0.4346,-0.2549,-13.69,-37.56,-4.25,183.53,-83.89,110.44
20378,52.7535,-1.67524,134.82,17.9,6,351.26,23 / 23,2037821,2019-11-06 11:15:45:164,1.6653,-6.8521,9.7652,-0.002,0.0148,9.8066,-0.1057,-0.0509,-0.0471,-13.81,-38.06,-4.12,183.53,-83.89,110.44
20379,52.7535,-1.67524,134.82,17.9,6,351.26,23 / 23,2037919,2019-11-06 11:15:45:262,-0.4453,-1.8853,9.0364,-0.0626,0.0337,9.8063,0.0531,-0.5999,0.3374,-13.81,-37.56,-4.31,180.76,-83.48,106.93
20380,52.75367,-1.675279,134.92,18.17,6,350.84,22 / 22,2038021,2019-11-06 11:15:45:364,-1.3852,2.9654,8.8714,-0.0906,0.0485,9.806,-0.1227,-0.0086,0.1538,-13.81,-37.37,-5.12,174.39,-83.19,102.43
20381,52.75367,-1.675279,134.92,18.17,6,350.84,22 / 22,2038120,2019-11-06 11:15:45:463,-0.3828,5.7694,9.5717,-0.0263,-0.1016,9.8061,-0.1309,0.6806,-0.3439,-14.19,-37.12,-4.94,174.39,-83.19,102.43
20382,52.75367,-1.675279,134.92,18.17,6,350.84,22 / 22,2038219,2019-11-06 11:15:45:562,-1.4193,-0.6755,9.5597,-0.0273,-0.0319,9.8065,-0.0017,0.8144,-0.5024,-14.12,-37.12,-4.87,170.9,-83.76,100.49
20383,52.75367,-1.675279,134.92,18.17,6,350.84,22 / 22,2038320,2019-11-06 11:15:45:663,0.986,-5.875,10.0221,-0.0007,-0.0359,9.8065,0.0237,-0.4291,0.2327,-13.44,-36.81,-5.37,168.31,-84.06,96.21
20384,52.75367,-1.675279,134.92,18.17,6,350.84,22 / 22,2038420,2019-11-06 11:15:45:763,0.4948,-4.6403,10.6449,0.0079,0.0242,9.8066,0.0642,-0.6963,0.3652,-14.0,-37.31,-5.69,166.97,-83.93,96.91
20385,52.75367,-1.675279,134.92,18.17,6,350.84,22 / 22,2038520,2019-11-06 11:15:45:863,-1.1254,3.5222,10.4645,-0.0073,0.0488,9.8065,0.0274,-0.3177,0.2067,-13.75,-37.5,-4.94,166.97,-83.93,96.91
20386,52.75367,-1.675279,134.92,18.17,6,350.84,22 / 22,2038620,2019-11-06 11:15:45:963,-2.284,2.1544,10.4692,-0.029,-0.021,9.8065,-0.0651,0.1643,-0.0748,-14.31,-37.31,-4.75,170.33,-83.46,97.32
20387,52.75367,-1.675279,134.92,18.17,6,350.84,22 / 22,2038720,2019-11-06 11:15:46:063,-0.3186,-4.0974,9.8796,0.0106,-0.014,9.8066,-0.0524,0.3581,-0.3077,-13.44,-37.37,-5.5,168.25,-83.61,95.91
20388,52.75367,-1.675279,134.92,18.17,6,350.84,22 / 22,2038820,2019-11-06 11:15:46:163,0.6655,-6.3279,9.1805,-0.0199,-0.0192,9.8065,-0.0139,-0.3028,0.0844,-13.94,-37.06,-5.5,168.25,-83.61,95.91
20389,52.75367,-1.675279,134.92,18.17,6,350.84,22 / 22,2038920,2019-11-06 11:15:46:263,-0.9902,-5.4924,8.3163,-0.0781,0.0088,9.8063,-0.0651,-0.6062,0.4002,-12.81,-37.19,-5.19,166.76,-83.51,93.94
20390,52.75384,-1.675301,134.98,18.31,4,351.56,23 / 23,2039020,2019-11-06 11:15:46:363,-4.1939,4.1063,9.3042,-0.0127,0.03,9.8065,0.0532,-0.0981,0.0686,-12.62,-36.62,-5.56,159.86,-83.19,88.71
20391,52.75384,-1.675301,134.98,18.31,4,351.56,23 / 23,2039120,2019-11-06 11:15:46:463,-1.0076,1.8652,10.7423,0.0034,0.0588,9.8064,0.0371,0.5375,-0.2758,-13.0,-37.44,-5.87,160.92,-82.87,89.81
20392,52.75384,-1.675301,134.98,18.31,4,351.56,23 / 23,2039220,2019-11-06 11:15:46:563,1.0184,-3.3884,10.7334,0.1125,-0.0844,9.8056,-0.0268,0.4272,-0.1606,-13.44,-37.06,-5.44,160.92,-82.87,89.81
20393,52.75384,-1.675301,134.98,18.31,4,351.56,23 / 23,2039319,2019-11-06 11:15:46:662,1.5402,-4.2504,9.7825,0.1413,-0.1246,9.8048,-0.0488,0.0789,-0.0589,-13.5,-37.69,-4.56,167.41,-83.81,94.84
20394,52.75384,-1.675301,134.98,18.31,4,351.56,23 / 23,2039419,2019-11-06 11:15:46:762,-2.8231,3.1843,9.895,-0.0279,-0.0144,9.8066,0.0322,-0.4613,0.1509,-12.44,-38.0,-5.5,165.1,-83.85,93.19
20395,52.75384,-1.675301,134.98,18.31,4,351.56,23 / 23,2039519,2019-11-06 11:15:46:862,-4.6931,6.1507,10.667,-0.0218,0.0266,9.8066,0.023,0.0092,0.0272,-12.81,-38.06,-5.37,165.1,-83.85,93.19
20396,52.75384,-1.675301,134.98,18.31,4,351.56,23 / 23,2039620,2019-11-06 11:15:46:963,-0.6101,1.7379,10.7013,-0.0078,0.0479,9.8065,0.0026,0.9324,-0.556,-12.69,-37.75,-5.19,165.51,-83.67,92.43
20397,52.75384,-1.675301,134.98,18.31,4,351.56,23 / 23,2039720,2019-11-06 11:15:47:063,2.8818,-10.2564,11.1833,-0.0004,0.0088,9.8065,-0.2676,1.0248,-0.526,-13.0,-37.12,-4.87,166.05,-83.21,92.84
20398,52.75384,-1.675301,134.98,18.31,4,351.56,23 / 23,2039819,2019-11-06 11:15:47:162,-0.4875,-4.3069,10.9416,0.0266,-0.0878,9.8062,-0.0851,0.4419,-0.1936,-12.5,-37.44,-5.69,161.8,-83.75,93.09
20399,52.75384,-1.675301,134.98,18.31,4,351.56,23 / 23,2039920,2019-11-06 11:15:47:263,-2.2404,4.4124,11.8336,-0.0204,-0.0007,9.8065,-0.048,-0.5485,0.3691,-13.06,-37.25,-4.81,161.8,-83.75,93.09
20400,52.754005,-1.675333,135.04,17.99,4,351.57,21 / 22,2040020,2019-11-06 11:15:47:363,-0.5472,1.3843,11.3446,0.0173,0.0599,9.8064,0.0354,-0.2435,0.1267,-12.87,-37.06,-4.44,168.21,-83.27,91.66
20401,52.754005,-1.675333,135.04,17.99,4,351.57,21 / 22,2040120,2019-11-06 11:15:47:463,1.4256,-0.1593,9.4977,0.057,0.0456,9.8063,0.0231,0.1394,0.0044,-12.31,-37.06,-3.75,169.86,-83.07,94.81
20402,52.754005,-1.675333,135.04,17.99,4,351.57,21 / 22,2040220,2019-11-06 11:15:47:563,0.0941,-0.4203,9.1967,-0.0003,-0.0067,9.8066,-0.0573,0.0021,0.0544,-13.0,-36.87,-4.56,169.86,-83.07,94.81
20403,52.754005,-1.675333,135.04,17.99,4,351.57,21 / 22,2040320,2019-11-06 11:15:47:663,-1.1222,-1.8786,9.1787,-0.0367,-0.0817,9.8062,0.0159,0.3251,-0.1586,-13.31,-36.5,-5.0,168.44,-83.1,94.74
20404,52.754005,-1.675333,135.04,17.99,4,351.57,21 / 22,2040420,2019-11-06 11:15:47:763,-0.4491,-5.8914,9.1701,-0.0478,-0.1063,9.8059,0.007,-0.2373,0.1688,-13.25,-36.62,-5.06,164.51,-83.64,91.13
20405,52.754005,-1.675333,135.04,17.99,4,351.57,21 / 22,2040520,2019-11-06 11:15:47:863,-0.8219,-3.6124,8.6647,-0.05,-0.0009,9.8065,-0.0701,-0.7129,0.4566,-13.94,-37.69,-4.19,166.5,-83.57,88.61
20406,52.754005,-1.675333,135.04,17.99,4,351.57,21 / 22,2040620,2019-11-06 11:15:47:963,-2.401,5.1444,10.2846,-0.043,-0.0918,9.8061,0.1211,-0.5052,0.3386,-13.94,-37.12,-4.37,166.5,-83.57,88.61
20407,52.754005,-1.675333,135.04,17.99,4,351.57,21 / 22,2040720,2019-11-06 11:15:48:063,-1.1959,3.3957,11.3121,0.0219,-0.0804,9.8063,0.0597,-0.0999,0.0533,-13.94,-37.44,-4.56,160.32,-84.02,85.06
20408,52.754005,-1.675333,135.04,17.99,4,351.57,21 / 22,2040820,2019-11-06 11:15:48:163,3.8181,-7.8341,11.3341,0.1262,-0.1417,9.8048,-0.0743,0.7995,-0.3896,-15.0,-37.94,-4.19,167.51,-85.03,89.86
20409,52.754005,-1.675333,135.04,17.99,4,351.57,21 / 22,2040919,2019-11-06 11:15:48:262,3.5062,1.2808,8.9918,0.0378,0.0383,9.8064,-0.1406,0.6149,-0.2646,-14.94,-37.69,-4.06,167.51,-85.03,89.86
20410,52.754166,-1.675369,135.12,17.64,4,351.63,22 / 22,2041020,2019-11-06 11:15:48:363,2.1819,3.6228,7.5847,0.0207,-0.0183,9.8065,0.1245,0.077,-0.0179,-14.12,-37.31,-4.25,166.16,-84.85,92.8
20411,52.754166,-1.675369,135.12,17.64,4,351.63,22 / 22,2041120,2019-11-06 11:15:48:463,-1.1623,-2.569,7.9555,0.0001,0.0239,9.8066,0.1045,0.0448,-0.0795,-14.69,-37.44,-4.69,169.09,-85.14,95.42
20412,52.754166,-1.675369,135.12,17.64,4,351.63,22 / 22,2041220,2019-11-06 11:15:48:563,-1.2809,3.0547,9.9852,0.0265,0.0656,9.8063,0.0238,0.1627,-0.1321,-14.44,-37.56,-4.56,170.42,-84.79,97.9
20413,52.754166,-1.675369,135.12,17.64,4,351.63,22 / 22,2041320,2019-11-06 11:15:48:663,-1.656,1.8297,11.0166,0.0402,-0.0204,9.8065,0.0802,-0.1982,0.0648,-14.75,-36.81,-4.69,170.42,-84.79,97.9
20414,52.754166,-1.675369,135.12,17.64,4,351.63,22 / 22,2041420,2019-11-06 11:15:48:763,0.6491,-6.2462,11.6308,0.0402,0.0297,9.8065,0.1535,-0.5423,0.3469,-14.31,-38.0,-4.62,175.51,-85.1,104.2
20415,52.754166,-1.675369,135.12,17.64,4,351.63,22 / 22,2041520,2019-11-06 11:15:48:863,-2.3827,-1.8812,9.9666,0.0224,0.0807,9.8063,0.1163,-0.5172,0.1773,-14.5,-37.5,-4.0,180.04,-84.64,105.99
20416,52.754166,-1.675369,135.12,17.64,4,351.63,22 / 22,2041620,2019-11-06 11:15:48:963,-1.0081,-0.085,9.2485,-0.0472,0.0321,9.8064,-0.1107,0.1023,-0.2031,-14.06,-37.75,-4.19,180.04,-84.64,105.99
20417,52.754166,-1.675369,135.12,17.64,4,351.63,22 / 22,2041720,2019-11-06 11:15:49:063,-2.1238,-0.0304,10.2948,-0.0346,-0.0047,9.8065,0.0391,-0.0489,0.0476,-14.62,-37.56,-4.31,174.76,-84.44,103.14
20418,52.754166,-1.675369,135.12,17.64,4,351.63,22 / 22,2041819,2019-11-06 11:15:49:162,-0.8777,-0.0314,10.4129,-0.0225,0.0125,9.8066,0.1072,-0.3881,0.1284,-14.37,-37.56,-4.19,176.75,-84.36,101.88
20419,52.754166,-1.675369,135.12,17.64,4,351.63,22 / 22,2041920,2019-11-06 11:15:49:263,0.1988,-2.1764,10.6784,0.1062,-0.0235,9.806,0.093,-0.3922,0.3625,-14.62,-38.0,-4.19,182.71,-84.49,108.27
20420,52.754314,-1.675404,135.18,16.91,4,351.6,23 / 23,2042023,2019-11-06 11:15:49:366,-0.6296,-6.6674,9.1457,0.0244,-0.0258,9.8066,-0.0306,0.4995,-0.2811,-14.87,-38.06,-4.0,182.71,-84.49,108.27
20421,52.754314,-1.675404,135.18,16.91,4,351.6,23 / 23,2042120,2019-11-06 11:15:49:463,-1.3559,-5.3713,9.5032,0.0009,0.0209,9.8066,0.0589,0.6573,-0.4625,-15.0,-37.87,-4.12,184.03,-84.64,109.87
20422,52.754314,-1.675404,135.18,16.91,4,351.6,23 / 23,2042220,2019-11-06 11:15:49:563,-0.5774,-3.4217,10.861,0.0212,0.0258,9.8065,0.0482,0.128,0.0432,-14.25,-38.12,-3.94,185.3,-84.66,112.51
20423,52.754314,-1.675404,135.18,16.91,4,351.6,23 / 23,2042320,2019-11-06 11:15:49:663,-3.6128,3.8196,9.355,0.0211,0.0299,9.8066,0.0885,-0.2958,0.1244,-14.44,-38.0,-4.06,185.3,-84.66,112.51
20424,52.754314,-1.675404,135.18,16.91,4,351.6,23 / 23,2042420,2019-11-06 11:15:49:763,-4.6579,1.8601,10.5854,0.0127,-0.0367,9.8065,0.0256,-0.2229,0.0766,-14.87,-37.5,-4.25,185.78,-84.51,112.04
20425,52.754314,-1.675404,135.18,16.91,4,351.6,23 / 23,2042520,2019-11-06 11:15:49:863,-2.9633,-4.914,10.4693,0.0383,-0.0653,9.8063,0.0338,0.0723,-0.0017,-15.37,-38.19,-4.62,184.11,-84.9,113.41
20426,52.754314,-1.675404,135.18,16.91,4,351.6,23 / 23,2042620,2019-11-06 11:15:49:963,-2.2242,-4.0454,9.9728,0.0553,-0.0802,9.8061,-0.1644,0.3325,-0.1135,-15.31,-38.37,-3.19,193.75,-85.33,117.78
20427,52.754314,-1.675404,135.18,16.91,4,351.6,23 / 23,2042720,2019-11-06 11:15:50:063,-2.5037,-0.6273,9.4251,-0.0605,0.0386,9.8063,-0.1008,0.3411,-0.2365,-14.87,-37.94,-4.19,193.75,-85.33,117.78
20428,52.754314,-1.675404,135.18,16.91,4,351.6,23 / 23,2042820,2019-11-06 11:15:50:163,-2.9167,-0.7977,10.4581,-0.0216,0.0238,9.8065,-0.0666,0.1259,-0.0337,-14.94,-37.87,-4.19,183.78,-85.0,109.5
20429,52.754314,-1.675404,135.18,16.91,4,351.6,23 / 23,2042920,2019-11-06 11:15:50:263,-2.3102,-1.3117,10.5226,-0.0084,0.043,9.8065,0.0917,0.24,-0.1244,-14.31,-37.81,-4.06,182.3,-84.75,108.78
20430,52.754456,-1.675439,135.27,14.79,4,350.37,21 / 21,2043020,2019-11-06 11:15:50:363,-1.7106,2.3239,11.0027,0.0782,0.1008,9.8058,0.0395,0.3524,-0.2793,-14.62,-37.56,-3.81,182.3,-84.75,108.78
20431,52.754456,-1.675439,135.27,14.79,4,350.37,21 / 21,2043122,2019-11-06 11:15:50:465,-1.0718,-3.4381,11.5793,0.0871,-0.0356,9.8061,-0.1641,0.2755,0.1076,-14.06,-39.0,-3.12,185.61,-84.13,113.02
20432,52.754456,-1.675439,135.27,14.79,4,350.37,21 / 21,2043220,2019-11-06 11:15:50:563,-2.8785,-1.7619,9.9196,0.1025,-0.0009,9.806,0.0347,0.0524,0.0775,-13.56,-38.44,-3.19,193.16,-84.05,118.78
20433,52.754456,-1.675439,135.27,14.79,4,350.37,21 / 21,2043320,2019-11-06 11:15:50:663,-2.1559,-0.539,9.5119,0.0076,-0.003,9.8066,-0.178,0.0745,0.0672,-14.37,-38.37,-3.37,193.53,-84.06,119.24
20434,52.754456,-1.675439,135.27,14.79,4,350.37,21 / 21,2043420,2019-11-06 11:15:50:763,-0.4144,-0.8905,9.4289,-0.0603,-0.0325,9.8064,-0.0499,0.1152,-0.0724,-14.06,-38.5,-3.12,193.53,-84.06,119.24
20435,52.754456,-1.675439,135.27,14.79,4,350.37,21 / 21,2043520,2019-11-06 11:15:50:863,-2.8533,0.9124,8.6293,-0.0507,-0.005,9.8065,0.0095,0.0217,0.0317,-13.5,-38.12,-3.5,190.37,-84.31,116.23
20436,52.754456,-1.675439,135.27,14.79,4,350.37,21 / 21,2043620,2019-11-06 11:15:50:963,-2.4157,-2.9195,9.5198,-0.0607,-0.1743,9.8049,-0.0679,0.1596,-0.0036,-14.25,-37.81,-4.44,186.82,-85.38,114.18
20437,52.754456,-1.675439,135.27,14.79,4,350.37,21 / 21,2043720,2019-11-06 11:15:51:063,-2.5014,1.0879,9.7285,0.0087,-0.0508,9.8064,-0.1237,0.2289,0.0853,-14.37,-38.44,-3.31,186.82,-85.38,114.18
20438,52.754456,-1.675439,135.27,14.79,4,350.37,21 / 21,2043820,2019-11-06 11:15:51:163,-2.002,-2.1524,10.0544,0.0324,-0.0699,9.8063,0.057,0.4215,-0.1964,-14.25,-38.31,-3.19,191.04,-85.66,115.31
20439,52.754456,-1.675439,135.27,14.79,4,350.37,21 / 21,2043920,2019-11-06 11:15:51:263,-0.1148,-2.2945,9.7014,0.0017,0.0276,9.8066,-0.041,0.3511,-0.1267,-14.19,-38.0,-3.19,195.81,-86.2,120.62
20440,52.754578,-1.675474,135.38,12.67,4,346.54,23 / 23,2044020,2019-11-06 11:15:51:363,-1.8544,-1.3446,10.1608,0.0254,0.0782,9.8062,0.0016,-0.008,0.004,-14.5,-38.0,-2.69,195.81,-86.2,120.62
20441,52.754578,-1.675474,135.38,12.67,4,346.54,23 / 23,2044120,2019-11-06 11:15:51:463,-2.1172,3.8928,9.126,-0.0009,0.1557,9.8053,-0.07,0.4808,-0.2949,-13.62,-38.19,-2.44,195.73,-85.72,120.86
20442,52.754578,-1.675474,135.38,12.67,4,346.54,23 / 23,2044220,2019-11-06 11:15:51:563,-4.4732,2.5951,10.159,-0.0287,-0.0178,9.8066,-0.0764,0.5714,-0.2464,-13.19,-37.69,-2.94,189.79,-84.6,115.36
20443,52.754578,-1.675474,135.38,12.67,4,346.54,23 / 23,2044321,2019-11-06 11:15:51:664,-2.7679,-1.5604,9.493,-0.0609,-0.0481,9.8062,-0.1873,0.3086,-0.1231,-13.37,-38.06,-3.12,187.17,-84.92,111.94
20444,52.754578,-1.675474,135.38,12.67,4,346.54,23 / 23,2044419,2019-11-06 11:15:51:762,-0.6205,-0.972,9.9973,-0.049,-0.0745,9.8062,0.0574,-0.08,0.1713,-13.0,-37.87,-3.12,187.17,-84.92,111.94
20445,52.754578,-1.675474,135.38,12.67,4,346.54,23 / 23,2044519,2019-11-06 11:15:51:862,-3.9995,2.367,11.9022,-0.0225,0.0112,9.8065,-0.0911,0.0705,0.2599,-11.81,-38.06,-2.62,184.96,-85.39,109.08
20446,52.754578,-1.675474,135.38,12.67,4,346.54,23 / 23,2044619,2019-11-06 11:15:51:962,-2.2764,0.5907,10.8938,0.0144,0.0006,9.8066,0.1484,0.1761,-0.1796,-12.06,-37.75,-2.62,184.88,-85.37,110.11
20447,52.754578,-1.675474,135.38,12.67,4,346.54,23 / 23,2044721,2019-11-06 11:15:52:064,-0.4426,1.4079,11.1252,0.1013,-0.0242,9.8061,0.0324,0.2363,0.0759,-12.0,-38.44,-2.81,191.0,-85.43,117.68
20448,52.754578,-1.675474,135.38,12.67,4,346.54,23 / 23,2044820,2019-11-06 11:15:52:163,0.602,-0.0427,11.1676,0.0189,-0.0312,9.8065,-0.0079,0.1444,0.0273,-11.75,-37.94,-2.06,191.0,-85.43,117.68
20449,52.754578,-1.675474,135.38,12.67,4,346.54,23 / 23,2044920,2019-11-06 11:15:52:263,0.0099,1.7695,10.154,0.0211,-0.0545,9.8065,-0.1306,-0.0734,0.2382,-12.12,-38.06,-2.75,193.9,-85.69,121.08
20450,52.754677,-1.675525,135.46,11.43,6,338.33,23 / 23,2045020,2019-11-06 11:15:52:363,-1.6427,3.8871,10.0132,-0.0067,-0.0177,9.8066,0.0552,-0.189,0.1362,-11.75,-38.06,-2.25,201.18,-86.21,124.88
20451,52.754677,-1.675525,135.46,11.43,6,338.33,23 / 23,2045120,2019-11-06 11:15:52:463,0.8568,-0.1958,10.0517,-0.0334,-0.0229,9.8065,0.0479,-0.0359,0.1344,-12.06,-37.94,-2.44,201.18,-86.21,124.88
20452,52.754677,-1.675525,135.46,11.43,6,338.33,23 / 23,2045220,2019-11-06 11:15:52:563,-0.6333,-0.9599,10.2831,-0.0107,0.0161,9.8066,-0.1005,0.3867,-0.0855,-12.31,-38.31,-3.12,193.97,-86.49,122.02
20453,52.754677,-1.675525,135.46,11.43,6,338.33,23 / 23,2045320,2019-11-06 11:15:52:663,-0.7768,2.9119,10.7176,0.0059,-0.0249,9.8066,0.1205,0.6832,-0.244,-11.25,-38.44,-2.44,199.39,-86.4,123.72
20454,52.754677,-1.675525,135.46,11.43,6,338.33,23 / 23,2045420,2019-11-06 11:15:52:763,-1.6783,4.1029,10.2351,0.0684,-0.0237,9.8063,0.0182,0.5703,-0.3359,-11.06,-38.31,-1.31,209.19,-86.38,130.42
20455,52.754677,-1.675525,135.46,11.43,6,338.33,23 / 23,2045520,2019-11-06 11:15:52:863,0.7422,-2.5386,10.4603,0.0428,0.0873,9.8061,0.0453,-0.0873,0.2032,-10.37,-38.31,-1.44,209.19,-86.38,130.42
20456,52.754677,-1.675525,135.46,11.43,6,338.33,23 / 23,2045620,2019-11-06 11:15:52:963,0.9367,-1.391,10.7997,-0.0028,0.0052,9.8066,0.1642,-0.2002,0.0974,-10.37,-38.37,-0.94,205.67,-85.89,128.08
20457,52.754677,-1.675525,135.46,11.43,6,338.33,23 / 23,2045720,2019-11-06 11:15:53:063,-1.8162,2.8197,10.9976,-0.0099,0.0149,9.8066,0.0514,0.1488,-0.1034,-9.44,-38.06,-1.56,198.81,-85.83,126.84
20458,52.754677,-1.675525,135.46,11.43,6,338.33,23 / 23,2045820,2019-11-06 11:15:53:163,0.0737,4.1799,10.8116,0.033,0.1055,9.806,0.1339,0.5634,-0.3037,-9.12,-38.37,-1.19,198.81,-85.83,126.84
20459,52.754677,-1.675525,135.46,11.43,6,338.33,23 / 23,2045920,2019-11-06 11:15:53:263,1.5772,1.5091,10.8014,0.0294,0.0862,9.8061,-0.0252,0.7042,-0.3783,-8.12,-38.19,0.31,207.35,-85.19,126.65
20460,52.75476,-1.675599,135.53,10.84,6,326.72,23 / 23,2046022,2019-11-06 11:15:53:365,-0.2649,1.1947,9.9226,-0.0161,0.0494,9.8065,-0.0834,0.656,-0.1962,-7.69,-38.25,0.44,206.12,-84.35,127.89
20461,52.75476,-1.675599,135.53,10.84,6,326.72,23 / 23,2046120,2019-11-06 11:15:53:463,-0.7458,6.0638,9.7102,-0.066,0.1343,9.8054,-0.0702,-0.0479,0.2702,-7.56,-38.0,0.0,206.12,-84.35,127.89
20462,52.75476,-1.675599,135.53,10.84,6,326.72,23 / 23,2046220,2019-11-06 11:15:53:563,0.3283,0.763,10.7451,-0.0088,-0.0201,9.8066,0.0443,-0.1258,0.068,-6.62,-37.81,-0.12,199.99,-83.78,121.5
20463,52.75476,-1.675599,135.53,10.84,6,326.72,23 / 23,2046320,2019-11-06 11:15:53:663,-0.7341,-2.7152,10.5353,0.0001,-0.0585,9.8064,0.0308,0.0532,0.2024,-6.87,-37.94,0.63,206.56,-84.11,122.59
20464,52.75476,-1.675599,135.53,10.84,6,326.72,23 / 23,2046421,2019-11-06 11:15:53:764,1.6886,-0.378,10.8596,0.0291,0.0089,9.8065,-0.043,0.5336,-0.2295,-6.94,-37.44,1.13,208.94,-84.45,124.88
20465,52.75476,-1.675599,135.53,10.84,6,326.72,23 / 23,2046520,2019-11-06 11:15:53:863,0.5665,1.4417,10.2992,0.0637,0.0132,9.8063,0.032,0.2994,-0.0309,-6.81,-38.06,0.94,208.94,-84.45,124.88
20466,52.75476,-1.675599,135.53,10.84,6,326.72,23 / 23,2046620,2019-11-06 11:15:53:963,0.9794,0.7757,9.9658,0.0038,0.0072,9.8066,-0.0584,0.0434,0.0516,-6.44,-38.25,1.38,210.22,-84.15,129.35
20467,52.75476,-1.675599,135.53,10.84,6,326.72,23 / 23,2046720,2019-11-06 11:15:54:063,1.1112,-0.5426,9.3708,-0.0442,-0.0302,9.8065,-0.0237,-0.0139,0.1924,-6.0,-38.31,1.5,215.88,-84.26,127.95
20468,52.75476,-1.675599,135.53,10.84,6,326.72,23 / 23,2046820,2019-11-06 11:15:54:163,-0.2099,0.0257,9.8621,-0.065,-0.0689,9.8061,-0.0843,0.0422,0.0526,-5.56,-37.75,1.13,210.19,-84.81,127.15
20469,52.75476,-1.675599,135.53,10.84,6,326.72,23 / 23,2046921,2019-11-06 11:15:54:264,-0.3805,2.0826,9.886,0.0148,-0.0115,9.8066,0.0469,0.4352,-0.2023,-6.37,-37.37,1.94,210.19,-84.81,127.15
20470,52.754833,-1.675697,135.58,11.15,6,316.42,23 / 23,2047020,2019-11-06 11:15:54:363,0.2166,2.7202,10.5904,0.052,-0.0206,9.8064,0.0236,0.133,0.0478,-6.19,-37.81,2.38,218.99,-84.75,130.69
20471,52.754833,-1.675697,135.58,11.15,6,316.42,23 / 23,2047121,2019-11-06 11:15:54:464,1.9,-1.4896,10.1083,0.0574,-0.0433,9.8063,0.012,-0.0995,0.1791,-6.19,-37.81,2.44,222.05,-84.72,135.26
20472,52.754833,-1.675697,135.58,11.15,6,316.42,23 / 23,2047220,2019-11-06 11:15:54:563,1.8086,-2.5439,10.6901,0.0089,-0.0088,9.8066,0.1285,-0.2466,0.1195,-6.12,-38.06,3.0,222.05,-84.72,135.26
20473,52.754833,-1.675697,135.58,11.15,6,316.42,23 / 23,2047321,2019-11-06 11:15:54:664,0.5253,0.0025,10.7322,-0.0085,-0.0211,9.8066,0.0222,0.0159,-0.0039,-5.75,-37.94,2.38,222.61,-84.72,136.06
20474,52.754833,-1.675697,135.58,11.15,6,316.42,23 / 23,2047420,2019-11-06 11:15:54:763,-0.327,0.0817,10.4027,0.0515,-0.0024,9.8064,0.1113,0.1732,-0.1415,-5.56,-38.06,3.44,231.11,-84.87,137.71
20475,52.754833,-1.675697,135.58,11.15,6,316.42,23 / 23,2047520,2019-11-06 11:15:54:863,1.4173,1.4583,8.5938,0.1111,0.0114,9.806,-0.0809,0.1096,0.0321,-5.5,-38.12,3.31,231.79,-84.31,141.3
