,GPS LATITUDE (degrees), GPS LONGITUDE (degrees), GPS ALTITUDE (m), GPS SPEED (Kmh), GPS ACCURACY (m), GPS ORIENTATION (Â°),GPS SATELLITES IN RANGE, TIME SINCE START (ms), DATE (YYYY-MO-DD HH-MI-SS_SSS), ACCELEROMETER X (m/s²) , ACCELEROMETER Y (m/s²), ACCELEROMETER Z (m/s²), GRAVITY X (m/s²), GRAVITY Y (m/s²), GRAVITY Z (m/s²), GYROSCOPE Yaw (rad/s), GYROSCOPE Pitch (rad/s), GYROSCOPE Roll (rad/s), MAGNETIC FIELD X (Î¼T), MAGNETIC FIELD Y (Î¼T), MAGNETIC FIELD Z (Î¼T), ORIENTATION (Yaw) (Â°), ORIENTATION (Pitch) (Â°), ORIENTATION (Roll ) (Â°)
7902,53.16837,-1.602329,156.92,16.0,4,134.32,20 / 20,2262814,2019-11-06 16:44:03:276,-0.5089,-1.3988,10.6019,-0.0116,-0.0291,9.8065,0.0076,0.1282,-0.1127,-24.44,-36.25,25.63,242.0,-89.01,105.59
7903,53.16837,-1.602329,156.92,16.0,4,134.32,17 / 18,2262915,2019-11-06 16:44:03:377,0.382,0.9276,8.7535,0.0046,-0.0108,9.8066,-0.0783,0.1623,-0.0552,-23.44,-36.06,27.0,251.36,-89.04,112.71
7904,53.16837,-1.602329,156.92,16.0,4,134.32,17 / 18,2263014,2019-11-06 16:44:03:476,0.8027,-0.5631,9.4041,-0.0219,-0.0033,9.8066,-0.0177,0.1693,-0.0928,-23.31,-35.06,31.31,244.73,-89.02,102.1
7905,53.16837,-1.602329,156.92,16.0,4,134.32,17 / 18,2263113,2019-11-06 16:44:03:575,-0.4271,0.0112,9.7182,-0.0024,-0.003,9.8066,-0.0226,0.0557,-0.0887,-29.19,-37.0,50.94,247.56,-89.07,97.72
7906,53.16837,-1.602329,156.92,16.0,4,134.32,17 / 18,2263213,2019-11-06 16:44:03:675,-0.939,-1.8116,9.9318,0.0084,-0.0068,9.8065,0.0069,0.0452,-0.0643,-32.56,-37.75,25.81,228.64,-88.92,101.14
7907,53.16837,-1.602329,156.92,16.0,4,134.32,17 / 18,2263313,2019-11-06 16:44:03:775,-0.5004,1.5291,10.3039,0.0209,-0.0066,9.8066,-0.1481,0.1349,-0.0391,-26.44,-35.81,24.13,234.83,-88.72,103.18
7908,53.16837,-1.602329,156.92,16.0,4,134.32,17 / 18,2263413,2019-11-06 16:44:03:875,-0.1043,-0.4047,9.2552,0.0338,0.0096,9.8065,-0.1385,-0.1791,0.1607,-25.06,-35.87,23.88,221.22,-88.7,88.27
7909,53.16837,-1.602329,156.92,16.0,4,134.32,17 / 18,2263513,2019-11-06 16:44:03:975,-0.3212,-2.5617,10.6797,-0.0329,0.0118,9.8065,0.1798,-0.1665,0.0203,-24.81,-35.75,23.75,216.18,-88.67,83.16
7910,53.16837,-1.602329,156.92,16.0,4,134.32,17 / 18,2263613,2019-11-06 16:44:04:075,0.1293,-0.4275,11.0174,-0.0126,0.0232,9.8066,0.1897,-0.1859,-0.0156,-27.56,-35.87,23.69,216.85,-88.78,86.96
7911,53.16837,-1.602329,156.92,16.0,4,134.32,17 / 18,2263713,2019-11-06 16:44:04:175,-2.0338,-1.5941,9.4398,0.0494,0.0039,9.8065,-0.0736,-0.1554,0.0863,-39.87,-39.75,34.38,226.2,-88.61,96.59
7912,53.16837,-1.602329,156.92,16.0,4,134.32,17 / 18,2263813,2019-11-06 16:44:04:275,1.5997,-0.0877,10.2583,0.0586,0.0127,9.8064,-0.0749,-0.1078,0.1091,-22.5,-33.69,38.13,247.75,-88.17,99.12
7913,53.167534,-1.600647,158.71,15.98,4,128.61,17 / 18,2263913,2019-11-06 16:44:04:375,-0.7704,0.0785,9.1422,0.0083,0.0394,9.8065,-0.0061,-0.1435,-0.0411,-22.19,-34.12,28.38,232.77,-88.1,92.36
7914,53.167534,-1.600647,158.71,15.98,4,128.61,17 / 18,2264014,2019-11-06 16:44:04:476,0.3093,1.4924,9.193,-0.0004,0.0282,9.8066,-0.08,0.001,-0.0719,-22.5,-36.0,25.44,225.89,-87.87,88.87
7915,53.167534,-1.600647,158.71,15.98,4,128.61,17 / 18,2264114,2019-11-06 16:44:04:576,-1.5575,0.3738,8.7285,0.0205,0.0095,9.8066,-0.0214,-0.0623,0.1153,-22.75,-35.75,24.5,220.15,-87.65,84.34
7916,53.167534,-1.600647,158.71,15.98,4,128.61,17 / 18,2264214,2019-11-06 16:44:04:676,-1.4651,1.7926,10.4126,-0.0433,0.0291,9.8065,-0.0933,-0.2038,-0.0671,-22.0,-36.19,24.25,220.91,-87.8,84.99
7917,53.167534,-1.600647,158.71,15.98,4,128.61,17 / 18,2264314,2019-11-06 16:44:04:776,-3.1127,-1.6118,10.9103,0.0224,0.0531,9.8064,0.0606,-0.3998,0.2625,-22.25,-35.19,25.19,206.97,-87.62,69.43
7918,53.167534,-1.600647,158.71,15.98,4,128.61,17 / 18,2264414,2019-11-06 16:44:04:876,1.2758,1.7542,10.4641,0.0137,0.0125,9.8066,0.0442,0.0848,-0.105,-21.5,-34.12,32.13,215.86,-87.61,70.35
7919,53.167534,-1.600647,158.71,15.98,4,128.61,17 / 18,2264514,2019-11-06 16:44:04:976,1.4767,0.0818,9.7273,0.0546,0.0192,9.8064,-0.0208,-0.1177,0.0086,-32.56,-38.56,52.25,220.71,-87.37,74.17
7920,53.167534,-1.600647,158.71,15.98,4,128.61,17 / 18,2264614,2019-11-06 16:44:05:076,1.6966,2.2263,9.6365,-0.016,-0.0106,9.8065,-0.0443,0.2426,-0.2241,-32.37,-38.37,26.38,202.94,-87.16,74.85
7921,53.167534,-1.600647,158.71,15.98,4,128.61,17 / 18,2264714,2019-11-06 16:44:05:176,-1.553,-1.3556,9.797,0.0334,0.0402,9.8064,-0.0308,-0.1847,0.0956,-23.44,-37.31,22.75,207.17,-86.89,73.75
7922,53.167534,-1.600647,158.71,15.98,4,128.61,17 / 18,2264814,2019-11-06 16:44:05:276,-1.4616,-1.2821,9.2698,-0.0046,-0.0183,9.8066,-0.0282,0.3305,-0.1723,-23.25,-37.0,23.06,206.66,-86.79,73.26
7923,53.167534,-1.600647,158.71,15.98,4,128.61,16 / 18,2264915,2019-11-06 16:44:05:377,1.1616,1.928,10.3271,0.0104,0.0223,9.8066,0.0716,-0.1387,0.0271,-23.0,-38.12,23.88,208.96,-86.67,74.55
7924,53.167534,-1.600647,158.71,15.98,4,128.61,16 / 18,2265013,2019-11-06 16:44:05:475,0.3311,2.3118,9.732,-0.0279,-0.0116,9.8066,-0.0694,0.354,-0.1246,-27.19,-39.44,22.75,201.18,-86.82,71.98
7925,53.167534,-1.600647,158.71,15.98,4,128.61,16 / 18,2265113,2019-11-06 16:44:05:575,0.7315,0.4165,9.5124,0.0277,0.0483,9.8064,-0.0763,0.1298,-0.1023,-40.12,-42.0,42.0,204.14,-86.98,68.6
7926,53.167534,-1.600647,158.71,15.98,4,128.61,16 / 18,2265213,2019-11-06 16:44:05:675,-4.601,-1.2742,10.9197,-0.0094,0.0082,9.8066,-0.0885,0.4961,-0.1996,-22.19,-34.69,43.06,218.15,-86.93,66.58
7927,53.167534,-1.600647,158.71,15.98,4,128.61,16 / 18,2265314,2019-11-06 16:44:05:776,-0.8127,0.0675,10.1594,-0.0311,-0.0224,9.8066,0.0537,0.3237,-0.1949,-22.0,-35.94,27.5,207.26,-87.09,66.74
7928,53.167534,-1.600647,158.71,15.98,4,128.61,16 / 18,2265414,2019-11-06 16:44:05:876,-0.8511,-3.079,9.3614,-0.0741,-0.0349,9.8062,-0.0257,0.2471,-0.1615,-22.94,-36.31,25.0,203.72,-87.02,67.57
7929,53.167534,-1.600647,158.71,15.98,4,128.61,16 / 18,2265514,2019-11-06 16:44:05:976,1.2714,1.6045,9.3592,-0.0485,-0.0264,9.8065,-0.1241,0.451,-0.1236,-23.19,-36.69,24.31,190.08,-87.29,54.37
7930,53.167534,-1.600647,158.71,15.98,4,128.61,16 / 18,2265613,2019-11-06 16:44:06:075,-1.9839,-1.1617,10.0439,-0.0276,-0.0322,9.8065,-0.0419,0.1887,-0.0421,-22.94,-37.12,25.13,184.54,-87.4,47.37
7931,53.167534,-1.600647,158.71,15.98,4,128.61,16 / 18,2265713,2019-11-06 16:44:06:175,2.5283,1.5493,9.5203,-0.0364,-0.0552,9.8064,-0.0238,0.3948,-0.175,-22.5,-35.75,25.38,184.37,-87.47,45.92
7932,53.167534,-1.600647,158.71,15.98,4,128.61,16 / 18,2265814,2019-11-06 16:44:06:276,-2.1999,-0.3338,10.234,-0.014,-0.0147,9.8066,0.0297,0.1089,-0.0238,-22.56,-35.0,31.5,191.82,-87.48,47.97
7933,53.167534,-1.600647,158.71,15.98,4,128.61,16 / 17,2265914,2019-11-06 16:44:06:376,0.8849,1.5948,10.5403,-0.0381,-0.0342,9.8065,-0.0099,0.3293,-0.1199,-38.37,-40.62,49.44,188.73,-87.67,46.75
7934,53.167534,-1.600647,158.71,15.98,4,128.61,16 / 17,2266014,2019-11-06 16:44:06:476,-1.336,-1.7336,10.3911,-0.0096,-0.0068,9.8066,0.067,0.0916,-0.054,-31.25,-37.62,24.38,177.33,-87.71,49.48
7935,53.167534,-1.600647,158.71,15.98,4,128.61,16 / 17,2266114,2019-11-06 16:44:06:576,0.7215,1.2741,10.3293,-0.0092,-0.0454,9.8065,-0.0112,0.3579,-0.1804,-25.56,-37.37,23.56,184.95,-87.88,52.43
7936,53.167534,-1.600647,158.71,15.98,4,128.61,16 / 17,2266213,2019-11-06 16:44:06:675,-1.8038,-1.8928,9.7768,-0.0185,-0.009,9.8066,-0.0166,-0.0778,-0.0071,-24.25,-37.0,23.38,187.24,-87.85,53.75
7937,53.167534,-1.600647,158.71,15.98,4,128.61,16 / 17,2266313,2019-11-06 16:44:06:775,0.7984,2.1776,9.2659,-0.0253,-0.017,9.8065,-0.0988,0.2817,-0.0739,-25.25,-36.81,23.63,183.51,-87.79,49.82
7938,53.167534,-1.600647,158.71,15.98,4,128.61,16 / 17,2266414,2019-11-06 16:44:06:876,0.8421,0.1915,9.3886,0.0132,0.0067,9.8066,0.0243,-0.2176,0.1343,-28.69,-37.25,23.5,175.6,-87.79,45.82
7939,53.167534,-1.600647,158.71,15.98,4,128.61,16 / 17,2266514,2019-11-06 16:44:06:976,0.2946,1.2303,10.1297,-0.012,-0.0154,9.8066,0.0357,0.0355,-0.0374,-41.0,-40.31,42.13,183.0,-87.86,47.38
7940,53.167534,-1.600647,158.71,15.98,4,128.61,16 / 17,2266613,2019-11-06 16:44:07:075,-0.4225,-2.0483,10.183,0.0175,0.0166,9.8066,0.0183,-0.2682,0.1429,-22.56,-33.62,35.06,195.35,-87.74,49.13
7941,53.167534,-1.600647,158.71,15.98,4,128.61,16 / 17,2266713,2019-11-06 16:44:07:175,-1.0807,-1.5914,9.876,0.0028,-0.0009,9.8066,0.0038,0.0598,-0.0326,-21.94,-35.31,27.63,189.05,-87.69,47.55
7942,53.167534,-1.600647,158.71,15.98,4,128.61,16 / 17,2266814,2019-11-06 16:44:07:276,-2.2166,-2.5031,8.9884,0.0463,0.022,9.8064,0.0063,-0.2923,0.2013,-22.37,-36.06,25.19,185.6,-87.68,47.18
7943,53.167534,-1.600647,158.71,15.98,4,128.61,16 / 18,2266915,2019-11-06 16:44:07:377,0.3182,-0.2163,9.8714,-0.0306,0.0058,9.8065,0.109,-0.0159,-0.0751,-23.19,-35.87,23.94,187.24,-87.56,51.34
7944,53.167534,-1.600647,158.71,15.98,4,128.61,16 / 18,2267014,2019-11-06 16:44:07:476,0.455,2.7905,9.0591,-0.0069,0.0561,9.8064,0.1162,-0.362,0.1194,-22.75,-35.5,24.56,189.55,-87.53,52.58
7945,53.167534,-1.600647,158.71,15.98,4,128.61,16 / 18,2267113,2019-11-06 16:44:07:575,0.6235,0.7089,10.9575,0.003,0.0085,9.8066,0.178,-0.1325,0.0586,-22.0,-35.56,25.81,187.85,-87.25,48.48
7946,53.167534,-1.600647,158.71,15.98,4,128.61,16 / 18,2267213,2019-11-06 16:44:07:675,-0.836,-0.8447,9.2415,0.0654,0.0076,9.8064,0.0378,-0.2185,0.187,-22.62,-34.81,34.13,204.51,-87.21,59.55
7947,53.167534,-1.600647,158.71,15.98,4,128.61,16 / 18,2267313,2019-11-06 16:44:07:775,1.0126,-3.0628,11.1824,-0.0337,-0.0391,9.8065,-0.005,0.2996,-0.1972,-37.81,-41.0,49.81,205.53,-87.57,63.42
7948,53.167534,-1.600647,158.71,15.98,4,128.61,16 / 18,2267414,2019-11-06 16:44:07:876,-0.8578,-4.2742,11.1699,-0.0368,0.046,9.8065,0.2092,-0.492,0.1648,-31.06,-39.0,23.38,191.65,-87.54,65.57
7949,53.167534,-1.600647,158.71,15.98,4,128.61,16 / 18,2267514,2019-11-06 16:44:07:976,-0.4931,1.9164,8.472,-0.0106,-0.0309,9.8066,-0.1057,0.0958,0.0012,-24.94,-38.94,22.19,188.63,-87.51,57.71
7950,53.167534,-1.600647,158.71,15.98,4,128.61,16 / 18,2267614,2019-11-06 16:44:08:076,1.7615,2.4375,10.6514,0.024,-0.0006,9.8065,0.0707,-0.4549,0.1975,-24.25,-38.5,23.69,190.74,-87.73,56.2
7951,53.167534,-1.600647,158.71,15.98,4,128.61,16 / 18,2267714,2019-11-06 16:44:08:176,0.8489,-0.0725,10.1616,0.0212,-0.0127,9.8066,-0.0112,-0.1582,0.1891,-25.25,-37.94,24.31,194.81,-88.09,61.51
7952,53.167534,-1.600647,158.71,15.98,4,128.61,16 / 18,2267814,2019-11-06 16:44:08:276,1.3372,-0.2896,10.6473,0.0249,0.0137,9.8066,-0.0787,-0.2212,0.114,-31.0,-38.19,24.06,190.43,-88.26,62.99
7953,53.167534,-1.600647,158.71,15.98,4,128.61,17 / 20,2267918,2019-11-06 16:44:08:380,-3.1044,-1.5848,8.8214,0.0196,0.038,9.8065,-0.0138,-0.4773,0.3374,-39.75,-40.25,50.31,198.5,-88.13,57.53
7954,53.167534,-1.600647,158.71,15.98,4,128.61,17 / 20,2268014,2019-11-06 16:44:08:476,0.854,1.5517,8.5557,0.0496,0.0194,9.8064,-0.1089,-0.2074,0.2091,-23.12,-34.25,37.63,194.62,-88.43,46.1
7955,53.167534,-1.600647,158.71,15.98,4,128.61,17 / 20,2268114,2019-11-06 16:44:08:576,-2.962,-3.0375,10.9399,0.0086,0.0485,9.8065,0.1551,-0.5604,0.3493,-23.19,-34.94,28.06,183.47,-88.36,42.96
7956,53.167534,-1.600647,158.71,15.98,4,128.61,17 / 20,2268214,2019-11-06 16:44:08:676,2.9099,0.9007,9.0592,0.018,0.0007,9.8065,0.1224,-0.1895,0.1353,-23.44,-35.56,25.44,168.59,-88.87,30.97
7957,53.167534,-1.600647,158.71,15.98,4,128.61,17 / 20,2268314,2019-11-06 16:44:08:776,-3.5757,-2.0356,9.9366,0.0317,0.0297,9.8065,0.0551,-0.5408,0.288,-23.75,-35.31,25.38,171.79,-89.19,35.51
7958,53.167534,-1.600647,158.71,15.98,4,128.61,17 / 20,2268413,2019-11-06 16:44:08:875,3.0574,1.9439,9.2251,-0.0213,0.0089,9.8066,-0.0345,0.0169,-0.0127,-24.0,-35.62,24.63,147.79,-89.14,11.15
7959,53.167534,-1.600647,158.71,15.98,4,128.61,17 / 20,2268513,2019-11-06 16:44:08:975,-0.5947,-1.3226,10.0943,0.0202,0.0479,9.8065,0.0701,-0.2633,0.2114,-23.44,-35.06,26.81,144.96,-88.99,4.82
7960,53.167534,-1.600647,158.71,15.98,4,128.61,17 / 20,2268613,2019-11-06 16:44:09:075,0.4266,-0.3887,10.4516,0.0157,0.0255,9.8065,0.0499,-0.1098,0.0178,-23.5,-34.12,33.0,136.5,-89.03,-9.18
7961,53.167534,-1.600647,158.71,15.98,4,128.61,17 / 20,2268713,2019-11-06 16:44:09:175,-1.1769,-0.9789,10.3089,0.0339,0.0216,9.8065,0.0787,-0.1408,0.104,-41.69,-40.5,47.19,146.66,-89.03,8.12
7962,53.167534,-1.600647,158.71,15.98,4,128.61,17 / 20,2268813,2019-11-06 16:44:09:275,0.136,-0.7535,9.6898,0.006,0.0031,9.8066,-0.0037,0.0094,0.0323,-31.31,-37.87,24.31,135.63,-89.15,7.3
7963,53.167534,-1.600647,158.71,15.98,4,128.61,16 / 19,2268913,2019-11-06 16:44:09:375,1.3342,-0.2623,9.295,-0.001,-0.0164,9.8065,-0.0198,0.062,-0.0406,-26.69,-37.25,23.56,138.15,-89.16,5.94
7964,53.167534,-1.600647,158.71,15.98,4,128.61,16 / 19,2269013,2019-11-06 16:44:09:475,-1.2757,0.4339,10.2601,0.0086,-0.0144,9.8065,0.021,-0.0985,0.0409,-26.5,-36.0,23.31,136.01,-89.15,3.91
7965,53.167534,-1.600647,158.71,15.98,4,128.61,16 / 19,2269114,2019-11-06 16:44:09:576,1.0633,-1.8083,9.7607,0.0181,-0.0275,9.8065,0.0714,-0.0083,-0.0032,-27.12,-36.75,23.81,121.46,-89.48,-10.62
7966,53.167534,-1.600647,158.71,15.98,4,128.61,16 / 19,2269214,2019-11-06 16:44:09:676,-0.4654,-0.9057,10.2934,0.0069,-0.0053,9.8066,0.0026,-0.0646,0.0583,-32.31,-37.87,23.69,85.39,-89.74,-41.73
7967,53.167534,-1.600647,158.71,15.98,4,128.61,16 / 19,2269314,2019-11-06 16:44:09:776,-0.5299,0.0217,9.4353,-0.0009,-0.0153,9.8066,-0.0891,0.0595,0.036,-40.75,-40.44,49.56,81.83,-89.62,-59.05
7968,53.167534,-1.600647,158.71,15.98,4,128.61,16 / 19,2269414,2019-11-06 16:44:09:876,-0.1074,0.6088,10.688,0.0126,0.0137,9.8066,-0.0952,-0.1048,0.0898,-24.56,-33.69,37.56,100.63,-89.41,-46.45
7969,53.167534,-1.600647,158.71,15.98,4,128.61,16 / 19,2269513,2019-11-06 16:44:09:975,-1.0479,-0.0215,9.8566,-0.0183,0.0018,9.8065,-0.0368,0.2383,-0.0467,-23.94,-35.19,28.56,105.69,-89.2,-35.41
7970,53.167534,-1.600647,158.71,15.98,4,128.61,16 / 19,2269613,2019-11-06 16:44:10:075,1.9207,0.7381,9.6155,0.0039,0.0285,9.8065,0.0539,-0.0178,0.0096,-24.31,-35.12,25.13,113.13,-89.15,-23.83
7971,53.167534,-1.600647,158.71,15.98,4,128.61,16 / 19,2269713,2019-11-06 16:44:10:175,0.6319,1.7342,9.2628,-0.0164,-0.0282,9.8065,0.0003,0.0909,-0.0546,-24.12,-35.5,25.0,114.07,-89.24,-22.79
7972,53.167534,-1.600647,158.71,15.98,4,128.61,16 / 19,2269813,2019-11-06 16:44:10:275,0.3169,1.0274,10.8978,0.0298,0.0233,9.8065,0.0435,-0.2997,0.1587,-24.25,-36.06,24.94,106.59,-89.38,-30.19
7973,53.167534,-1.600647,158.71,15.98,4,128.61,17 / 18,2269914,2019-11-06 16:44:10:376,-1.5977,-2.0389,9.656,0.0279,-0.0016,9.8066,0.0756,-0.02,0.106,-23.62,-35.25,26.44,113.85,-89.61,-23.8
7974,53.167534,-1.600647,158.71,15.98,4,128.61,17 / 18,2270013,2019-11-06 16:44:10:475,3.2278,1.9963,9.7801,0.0413,0.0361,9.8065,0.0427,-0.5355,0.2707,-24.0,-34.19,35.81,161.93,-89.83,15.58
7975,53.167534,-1.600647,158.71,15.98,4,128.61,17 / 18,2270113,2019-11-06 16:44:10:575,0.9974,1.9102,10.5861,0.0024,0.0298,9.8065,0.0555,-0.2684,0.1327,-40.12,-40.19,50.25,107.72,-89.76,-33.77
7976,53.167534,-1.600647,158.71,15.98,4,128.61,17 / 18,2270214,2019-11-06 16:44:10:676,0.4948,1.5762,8.6855,0.033,0.0783,9.8062,0.1168,-0.5736,0.3433,-32.25,-37.44,24.88,81.77,-89.66,-46.54
7977,53.167534,-1.600647,158.71,15.98,4,128.61,17 / 18,2270315,2019-11-06 16:44:10:777,-3.0411,-3.9016,10.6769,0.0001,0.0195,9.8066,0.0722,-0.3118,0.0749,-26.62,-36.37,24.06,141.15,-89.73,9.34
7978,53.167534,-1.600647,158.71,15.98,4,128.61,17 / 18,2270414,2019-11-06 16:44:10:876,1.2543,-0.7953,9.1136,0.0322,0.0574,9.8064,0.0837,-0.3554,0.1929,-25.69,-36.75,23.06,159.61,-89.88,28.07
7979,53.167534,-1.600647,158.71,15.98,4,128.61,17 / 18,2270514,2019-11-06 16:44:10:976,-3.329,-3.6248,8.9657,0.0255,0.0231,9.8065,-0.1631,-0.5225,0.2441,-26.31,-36.31,23.88,198.34,-89.68,65.73
7980,53.167534,-1.600647,158.71,15.98,4,128.61,17 / 18,2270613,2019-11-06 16:44:11:075,0.9935,3.499,9.7809,0.0213,0.0434,9.8065,-0.0827,-0.1901,0.1161,-31.44,-37.94,23.5,156.95,-89.22,28.91
7981,53.167534,-1.600647,158.71,15.98,4,128.61,17 / 18,2270713,2019-11-06 16:44:11:175,-2.5068,-4.0826,10.3637,0.0524,0.0633,9.8062,0.0891,-0.6274,0.283,-39.62,-39.62,49.69,169.86,-89.29,28.44
7982,53.167534,-1.600647,158.71,15.98,4,128.61,17 / 18,2270813,2019-11-06 16:44:11:275,2.7383,2.8503,9.45,-0.0036,0.0043,9.8066,0.0262,0.3048,-0.1124,-24.25,-34.31,34.5,178.17,-89.55,32.6
7983,53.167534,-1.600647,158.71,15.98,4,128.61,16 / 18,2270914,2019-11-06 16:44:11:376,1.3528,1.8982,9.8721,0.0395,0.0489,9.8064,-0.0006,-0.4732,0.1481,-23.25,-35.69,28.0,183.54,-89.42,42.97
7984,53.167534,-1.600647,158.71,15.98,4,128.61,16 / 18,2271013,2019-11-06 16:44:11:475,2.7059,2.8802,9.9082,-0.0206,-0.0268,9.8066,-0.011,0.4873,-0.1889,-24.44,-35.75,24.94,145.43,-89.62,9.04
7985,53.167534,-1.600647,158.71,15.98,4,128.61,16 / 18,2271114,2019-11-06 16:44:11:576,-1.7186,-1.1869,10.3004,0.0231,0.019,9.8065,0.0089,-0.1837,0.0602,-23.75,-36.0,25.63,169.99,-89.56,32.62
7986,53.167534,-1.600647,158.71,15.98,4,128.61,16 / 18,2271214,2019-11-06 16:44:11:676,-3.8673,-2.5893,9.8039,-0.0363,-0.0458,9.8064,-0.0182,0.5061,-0.3142,-24.0,-36.37,25.69,186.64,-89.6,49.4
7987,53.167534,-1.600647,158.71,15.98,4,128.61,16 / 18,2271313,2019-11-06 16:44:11:775,-1.2299,-3.2001,9.41,-0.0002,0.0183,9.8066,-0.0171,0.1382,-0.0582,-23.56,-35.69,27.75,178.92,-89.54,39.52
7988,53.167534,-1.600647,158.71,15.98,4,128.61,16 / 18,2271413,2019-11-06 16:44:11:875,-4.5543,-2.825,9.8652,-0.0573,-0.0545,9.8062,-0.0921,0.6075,-0.2814,-22.94,-34.56,35.44,200.67,-89.33,54.17
7989,53.167534,-1.600647,158.71,15.98,4,128.61,16 / 18,2271514,2019-11-06 16:44:11:976,2.4803,3.4716,9.5565,-0.0765,-0.0164,9.8063,-0.0923,0.6464,-0.3169,-38.44,-39.75,50.06,159.21,-89.29,16.29
7990,53.167534,-1.600647,158.71,15.98,4,128.61,16 / 18,2271614,2019-11-06 16:44:12:076,-1.2114,-2.8967,10.2537,-0.0253,-0.0818,9.8062,-0.0159,0.2768,-0.1679,-28.5,-37.56,23.5,122.32,-89.37,-8.82
7991,53.167534,-1.600647,158.71,15.98,4,128.61,16 / 18,2271713,2019-11-06 16:44:12:175,2.6378,3.055,9.765,-0.0395,-0.0699,9.8063,-0.0646,0.5848,-0.2679,-25.69,-37.56,23.13,124.49,-89.37,-7.58
7992,53.167534,-1.600647,158.71,15.98,4,128.61,16 / 18,2271813,2019-11-06 16:44:12:275,-0.6492,-1.4637,10.0357,0.0171,-0.0241,9.8066,0.0654,-0.1407,0.0789,-24.56,-36.94,23.81,149.91,-89.46,15.79
7993,53.167534,-1.600647,158.71,15.98,4,128.61,15 / 17,2271914,2019-11-06 16:44:12:376,3.7209,3.8825,9.6099,-0.045,-0.0461,9.8064,0.003,0.4705,-0.2861,-26.12,-37.69,23.69,139.63,-89.6,6.65
7994,53.167534,-1.600647,158.71,15.98,4,128.61,15 / 17,2272013,2019-11-06 16:44:12:475,-3.7336,-3.3649,9.9641,-0.0021,0.0349,9.8065,0.0689,-0.2947,0.205,-30.69,-38.75,25.5,152.05,-89.47,21.82
7995,53.167534,-1.600647,158.71,15.98,4,128.61,15 / 17,2272113,2019-11-06 16:44:12:575,-0.1812,-1.1062,9.6349,-0.0493,-0.0611,9.8063,-0.0785,0.3003,-0.2166,-40.25,-40.44,49.88,153.58,-89.3,12.05
7996,53.167534,-1.600647,158.71,15.98,4,128.61,15 / 17,2272214,2019-11-06 16:44:12:676,-4.2561,-0.3787,10.2276,0.0234,0.0263,9.8065,-0.0264,-0.3655,0.2695,-23.56,-34.44,33.25,167.68,-89.07,23.55
7997,53.167534,-1.600647,158.71,15.98,4,128.61,15 / 17,2272314,2019-11-06 16:44:12:776,-0.5148,2.3214,9.4192,-0.0252,-0.0309,9.8066,-0.0561,0.182,-0.1402,-23.87,-35.37,27.56,140.67,-89.05,0.71
7998,53.167534,-1.600647,158.71,15.98,4,128.61,15 / 17,2272414,2019-11-06 16:44:12:876,0.3221,0.3558,10.2849,0.0078,-0.0063,9.8066,0.0339,-0.2539,0.0986,-23.37,-36.0,25.63,148.14,-89.01,9.09
7999,53.167534,-1.600647,158.71,15.98,4,128.61,15 / 17,2272514,2019-11-06 16:44:12:976,2.1841,3.3982,10.0644,0.0103,-0.0308,9.8066,-0.0155,0.2242,-0.0717,-24.0,-36.25,24.56,139.49,-89.26,2.82
8000,53.167534,-1.600647,158.71,15.98,4,128.61,15 / 17,2272614,2019-11-06 16:44:13:076,-1.372,0.3836,9.6996,0.0335,0.0331,9.8065,0.0663,-0.5731,0.2583,-23.81,-36.5,25.5,142.9,-89.22,5.13
8001,53.167534,-1.600647,158.71,15.98,4,128.61,15 / 17,2272714,2019-11-06 16:44:13:176,-2.8238,-2.9602,10.5911,-0.0177,-0.0029,9.8066,0.0331,0.0608,0.0442,-22.56,-35.37,27.44,147.56,-89.23,7.58
8002,53.167534,-1.600647,158.71,15.98,4,128.61,15 / 17,2272813,2019-11-06 16:44:13:275,-1.9672,-1.4312,10.5471,0.0327,0.0415,9.8064,0.0767,-0.5192,0.1837,-22.75,-34.0,39.0,175.76,-89.2,26.25
8003,53.166847,-1.599149,161.27,12.06,4,127.61,15 / 18,2272917,2019-11-06 16:44:13:379,-1.6786,-1.9566,10.1465,-0.0081,-0.0057,9.8066,0.0456,0.0329,0.0433,-40.56,-40.19,48.69,147.6,-89.3,7.29
8004,53.166847,-1.599149,161.27,12.06,4,127.61,15 / 18,2273015,2019-11-06 16:44:13:477,0.1138,1.6812,9.8759,-0.0018,0.0296,9.8065,0.001,-0.3724,0.1656,-30.31,-37.5,24.25,138.08,-89.2,8.9
8005,53.166847,-1.599149,161.27,12.06,4,127.61,15 / 18,2273113,2019-11-06 16:44:13:575,0.7483,2.0448,9.82,-0.0389,-0.0192,9.8065,-0.048,0.133,0.0207,-26.31,-36.69,23.13,117.72,-89.05,-14.67
8006,53.166847,-1.599149,161.27,12.06,4,127.61,15 / 18,2273213,2019-11-06 16:44:13:675,-0.3803,-1.6568,11.3617,-0.0033,0.0454,9.8065,0.0825,-0.2518,0.0616,-26.0,-36.69,23.63,129.88,-89.01,-3.62
8007,53.166847,-1.599149,161.27,12.06,4,127.61,15 / 18,2273314,2019-11-06 16:44:13:776,-1.2247,-2.5991,10.2348,-0.0103,-0.0491,9.8064,0.064,0.0556,0.1374,-26.87,-36.94,23.63,117.93,-89.37,-14.27
8008,53.166847,-1.599149,161.27,12.06,4,127.61,15 / 18,2273413,2019-11-06 16:44:13:875,-0.0554,-2.773,11.3898,0.0354,0.0256,9.8065,0.1339,0.0244,-0.1426,-34.19,-38.19,25.0,119.64,-89.74,-6.89
8009,53.166847,-1.599149,161.27,12.06,4,127.61,15 / 18,2273514,2019-11-06 16:44:13:976,-0.9336,-0.3656,9.3583,-0.003,-0.005,9.8066,-0.0531,-0.0065,0.0949,-36.12,-38.62,53.19,173.71,-89.88,27.88
8010,53.166847,-1.599149,161.27,12.06,4,127.61,15 / 18,2273614,2019-11-06 16:44:14:076,-0.2376,-0.2742,8.6456,0.0312,0.0487,9.8064,-0.0155,-0.1005,0.2197,-23.94,-35.19,33.94,199.38,-89.43,54.76
8011,53.166847,-1.599149,161.27,12.06,4,127.61,15 / 18,2273714,2019-11-06 16:44:14:176,1.8282,1.4421,8.676,0.0181,-0.0259,9.8066,0.0852,0.2353,-0.2776,-23.81,-36.44,27.06,159.01,-89.13,20.33
8012,53.166847,-1.599149,161.27,12.06,4,127.61,15 / 18,2273814,2019-11-06 16:44:14:276,-0.8482,-1.1518,11.1586,0.0026,0.0316,9.8065,0.1196,-0.3756,0.2101,-24.37,-36.25,25.38,142.44,-88.91,5.58
8013,53.166847,-1.599149,161.27,12.06,4,127.61,15 / 16,2273914,2019-11-06 16:44:14:376,-0.6411,-3.1803,8.8727,-0.019,-0.0813,9.8063,0.091,-0.1075,0.0873,-24.06,-35.81,25.06,146.86,-89.26,10.27
8014,53.166847,-1.599149,161.27,12.06,4,127.61,15 / 16,2274014,2019-11-06 16:44:14:476,-0.425,2.1897,10.3543,-0.0126,-0.0223,9.8066,0.0146,-0.3234,0.3115,-24.19,-36.44,25.5,82.87,-89.64,-54.78
8015,53.166847,-1.599149,161.27,12.06,4,127.61,15 / 16,2274114,2019-11-06 16:44:14:576,-1.8458,1.8859,9.3498,-0.0508,0.0265,9.8064,0.0118,-0.0836,-0.0533,-23.44,-35.5,28.25,80.91,-89.11,-60.54
8016,53.166847,-1.599149,161.27,12.06,4,127.61,15 / 16,2274213,2019-11-06 16:44:14:675,-1.2532,-1.3163,10.7326,-0.0006,0.0013,9.8066,-0.0532,-0.073,-0.0059,-22.94,-33.94,39.56,103.29,-89.06,-47.49
8017,53.166847,-1.599149,161.27,12.06,4,127.61,15 / 16,2274313,2019-11-06 16:44:14:775,0.3838,0.0461,8.9122,0.0098,-0.0192,9.8065,0.0594,0.3304,-0.1691,-42.0,-41.37,44.81,91.06,-89.16,-46.47
8018,53.166847,-1.599149,161.27,12.06,4,127.61,15 / 16,2274413,2019-11-06 16:44:14:875,-2.541,-5.1485,10.2122,0.0095,0.0151,9.8066,0.0943,-0.2581,0.1852,-27.94,-38.06,23.5,93.25,-89.55,-37.81
8019,53.166847,-1.599149,161.27,12.06,4,127.61,15 / 16,2274513,2019-11-06 16:44:14:975,4.585,-0.0962,9.3257,-0.0585,-0.0413,9.8064,-0.002,0.3339,-0.2542,-25.5,-38.06,23.69,82.06,-89.4,-52.43
8020,53.166847,-1.599149,161.27,12.06,4,127.61,15 / 16,2274614,2019-11-06 16:44:15:076,1.9252,1.9903,9.1447,-0.018,0.071,9.8063,0.0619,-0.5054,0.2208,-25.81,-36.87,23.69,103.81,-89.39,-29.52
8021,53.166847,-1.599149,161.27,12.06,4,127.61,15 / 16,2274714,2019-11-06 16:44:15:176,4.4312,0.454,10.7432,-0.0235,-0.0151,9.8065,-0.0529,-0.0095,0.0582,-27.37,-36.69,23.88,116.59,-88.95,-16.01
8022,53.166847,-1.599149,161.27,12.06,4,127.61,15 / 16,2274814,2019-11-06 16:44:15:276,-1.364,1.6974,8.8885,0.0462,0.0661,9.8062,0.0871,-0.4988,0.3237,-33.31,-38.31,24.69,103.5,-88.8,-24.71
8023,53.166847,-1.599149,161.27,12.06,4,127.61,17 / 19,2274914,2019-11-06 16:44:15:376,-4.2293,-1.4467,11.0649,-0.0121,-0.0029,9.8066,0.111,-0.2469,0.0484,-36.31,-38.69,52.94,126.27,-89.04,-20.01
8024,53.166847,-1.599149,161.27,12.06,4,127.61,17 / 19,2275013,2019-11-06 16:44:15:475,-0.6922,-0.527,10.3509,0.0288,0.0749,9.8062,0.0949,-0.3555,0.128,-23.94,-34.31,31.63,143.0,-88.91,-0.68
8025,53.166847,-1.599149,161.27,12.06,4,127.61,17 / 19,2275113,2019-11-06 16:44:15:575,-0.3848,-2.6807,8.766,0.0229,0.0309,9.8066,-0.1398,-0.2729,0.1324,-23.44,-36.5,26.25,141.12,-88.89,1.9
8026,53.166847,-1.599149,161.27,12.06,4,127.61,17 / 19,2275214,2019-11-06 16:44:15:676,3.0426,-1.8494,9.8373,0.0288,0.0062,9.8065,-0.0348,-0.023,0.0457,-24.06,-36.44,25.69,135.25,-88.58,-3.05
8027,53.166847,-1.599149,161.27,12.06,4,127.61,17 / 19,2275313,2019-11-06 16:44:15:775,0.7508,-2.458,9.5147,0.0055,0.0338,9.8065,0.1978,-0.173,0.0294,-23.81,-36.12,24.75,141.32,-88.68,4.3
8028,53.166847,-1.599149,161.27,12.06,4,127.61,17 / 19,2275414,2019-11-06 16:44:15:876,2.7514,-1.633,10.0064,-0.0297,-0.0158,9.8066,0.0811,0.0578,-0.1626,-23.75,-36.0,25.81,147.94,-89.03,10.13
8029,53.166847,-1.599149,161.27,12.06,4,127.61,17 / 19,2275514,2019-11-06 16:44:15:976,-0.4544,-1.4276,9.4146,0.0229,0.0094,9.8066,-0.0813,-0.1735,0.1505,-23.44,-34.75,28.63,146.09,-89.02,3.99
8030,53.166847,-1.599149,161.27,12.06,4,127.61,17 / 19,2275614,2019-11-06 16:44:16:076,1.42,0.9186,8.9133,0.0094,0.0065,9.8066,-0.0513,0.0036,-0.0454,-24.69,-35.56,47.25,157.76,-88.83,5.48
8031,53.166847,-1.599149,161.27,12.06,4,127.61,17 / 19,2275714,2019-11-06 16:44:16:176,-0.6172,-2.0081,9.5889,0.0086,0.0582,9.8064,0.1082,-0.234,0.0783,-41.94,-39.44,35.44,140.78,-88.69,10.39
8032,53.166847,-1.599149,161.27,12.06,4,127.61,17 / 19,2275814,2019-11-06 16:44:16:276,1.4028,-2.4567,10.8564,0.0108,-0.0274,9.8066,-0.2567,0.2447,-0.1814,-27.87,-37.44,23.56,145.95,-88.74,14.64
8033,53.166847,-1.599149,161.27,12.06,4,127.61,15 / 17,2275914,2019-11-06 16:44:16:376,-0.3473,-2.2385,9.8899,-0.0056,0.0638,9.8064,-0.0428,-0.08,0.1221,-24.62,-37.06,23.81,148.45,-88.31,13.69
8034,53.166847,-1.599149,161.27,12.06,4,127.61,15 / 17,2276014,2019-11-06 16:44:16:476,-0.6293,0.9111,10.0616,-0.0523,-0.0353,9.8064,0.0371,0.4154,-0.2597,-25.0,-36.75,22.56,141.92,-88.14,8.07
8035,53.166847,-1.599149,161.27,12.06,4,127.61,15 / 17,2276114,2019-11-06 16:44:16:576,2.3524,2.7045,10.0401,-0.0072,-0.0115,9.8066,-0.0695,0.1835,-0.1099,-27.25,-37.12,23.0,130.13,-88.15,-1.76
8036,53.166847,-1.599149,161.27,12.06,4,127.61,15 / 17,2276213,2019-11-06 16:44:16:675,1.5202,1.9936,8.6092,-0.0078,-0.0858,9.8062,-0.1469,0.576,-0.2842,-35.19,-39.12,26.0,134.06,-87.97,6.17
8037,53.166847,-1.599149,161.27,12.06,4,127.61,15 / 17,2276314,2019-11-06 16:44:16:776,-2.8556,0.6486,10.045,-0.0416,0.018,9.8065,0.0723,0.3689,-0.3089,-34.31,-38.62,52.94,146.89,-88.04,-1.08
8038,53.166847,-1.599149,161.27,12.06,4,127.61,15 / 17,2276414,2019-11-06 16:44:16:876,-3.042,-3.0129,9.497,-0.0502,-0.0746,9.8062,-0.1572,0.5945,-0.3366,-23.31,-35.25,29.31,141.93,-88.16,-0.71
8039,53.166847,-1.599149,161.27,12.06,4,127.61,15 / 17,2276514,2019-11-06 16:44:16:976,5.1276,3.7527,9.9169,-0.0702,-0.0061,9.8064,0.0201,0.7598,-0.4797,-22.87,-35.94,25.69,145.51,-87.72,5.69
8040,53.166847,-1.599149,161.27,12.06,4,127.61,15 / 17,2276614,2019-11-06 16:44:17:076,-2.7368,0.3782,9.5852,-0.056,-0.0596,9.8063,-0.1277,0.4307,-0.271,-22.87,-36.56,24.63,158.89,-87.49,20.54
8041,53.166847,-1.599149,161.27,12.06,4,127.61,15 / 17,2276714,2019-11-06 16:44:17:176,4.2116,4.4198,8.4807,-0.0649,-0.0584,9.8062,-0.1147,0.7929,-0.3646,-23.37,-36.06,24.38,148.99,-87.43,11.36
8042,53.166847,-1.599149,161.27,12.06,4,127.61,15 / 17,2276814,2019-11-06 16:44:17:276,-2.7433,-3.1979,10.821,-0.0487,-0.0391,9.8064,-0.0615,0.2105,-0.1619,-22.87,-36.75,24.75,153.33,-87.19,14.59
8043,53.166847,-1.599149,161.27,12.06,4,127.61,16 / 16,2276913,2019-11-06 16:44:17:375,2.0558,0.4208,9.7461,0.0341,0.0378,9.8065,-0.0525,0.5152,-0.2186,-22.5,-35.75,28.0,151.56,-87.16,8.38
8044,53.166847,-1.599149,161.27,12.06,4,127.61,16 / 16,2277014,2019-11-06 16:44:17:476,-4.0185,-3.1022,10.798,0.0518,0.0147,9.8065,-0.029,0.1795,-0.0805,-22.37,-34.56,42.75,168.63,-87.41,15.37
8045,53.166847,-1.599149,161.27,12.06,4,127.61,16 / 16,2277114,2019-11-06 16:44:17:576,1.5838,-0.0842,9.4458,0.0084,0.0216,9.8066,-0.0541,0.5344,-0.2255,-37.5,-38.81,28.63,143.03,-87.65,13.79
8046,53.166847,-1.599149,161.27,12.06,4,127.61,16 / 16,2277213,2019-11-06 16:44:17:675,-3.2554,-4.0109,10.7391,0.0279,0.0711,9.8063,0.035,-0.2166,0.0775,-27.06,-37.62,23.0,147.62,-87.4,15.73
8047,53.166847,-1.599149,161.27,12.06,4,127.61,16 / 16,2277313,2019-11-06 16:44:17:775,1.6144,2.0919,8.8465,0.0065,-0.0052,9.8066,-0.0387,0.3464,-0.205,-25.44,-37.12,22.63,149.5,-87.44,15.49
8048,53.166847,-1.599149,161.27,12.06,4,127.61,16 / 16,2277414,2019-11-06 16:44:17:876,2.4128,2.0187,9.2804,0.0196,0.0442,9.8065,-0.0043,-0.4041,0.2047,-24.94,-37.19,22.25,153.8,-87.28,21.14
8049,53.166847,-1.599149,161.27,12.06,4,127.61,16 / 16,2277514,2019-11-06 16:44:17:976,2.7681,3.4831,8.2759,-0.0421,-0.0217,9.8065,-0.0279,0.0756,-0.0251,-27.31,-38.37,21.69,153.76,-86.99,23.17
8050,53.166847,-1.599149,161.27,12.06,4,127.61,16 / 16,2277614,2019-11-06 16:44:18:076,0.7807,0.5991,10.4896,-0.0423,0.0042,9.8065,0.0611,-0.464,0.292,-35.12,-39.87,24.25,139.6,-86.61,13.14
8051,53.166847,-1.599149,161.27,12.06,4,127.61,16 / 16,2277713,2019-11-06 16:44:18:175,-2.8499,-1.0819,9.8952,-0.0563,-0.0343,9.8064,0.0186,-0.2523,0.1586,-26.31,-36.12,46.44,151.62,-86.69,0.06
8052,53.166847,-1.599149,161.27,12.06,4,127.61,16 / 16,2277813,2019-11-06 16:44:18:275,-0.3396,-0.1413,9.9242,-0.0007,-0.0302,9.8066,0.0268,-0.0037,0.0853,-23.69,-35.31,29.25,141.76,-87.0,-0.31
8053,53.166847,-1.599149,161.27,12.06,4,127.61,16 / 17,2277914,2019-11-06 16:44:18:376,0.821,-0.9726,10.5395,0.006,0.0122,9.8066,0.0518,0.0384,-0.057,-24.12,-36.69,25.44,137.29,-87.23,-0.86
8054,53.166847,-1.599149,161.27,12.06,4,127.61,16 / 17,2278013,2019-11-06 16:44:18:475,-2.3577,-2.0614,10.0079,0.0286,0.0438,9.8065,-0.07,0.2681,-0.1352,-23.87,-36.56,24.31,141.05,-87.1,4.09
8055,53.166847,-1.599149,161.27,12.06,4,127.61,16 / 17,2278113,2019-11-06 16:44:18:575,1.9375,1.6696,10.0883,-0.0052,0.0291,9.8065,-0.1227,0.357,-0.1282,-23.87,-37.25,24.56,142.49,-86.98,4.39
8056,53.166847,-1.599149,161.27,12.06,4,127.61,16 / 17,2278214,2019-11-06 16:44:18:676,-0.7219,-0.9569,9.5772,0.0375,0.0254,9.8065,-0.0046,-0.2653,0.1938,-23.37,-36.44,25.44,148.14,-86.92,9.07
8057,53.166847,-1.599149,161.27,12.06,4,127.61,16 / 17,2278314,2019-11-06 16:44:18:776,-1.3735,-1.5663,10.5947,-0.0156,-0.041,9.8065,0.073,-0.02,-0.0049,-23.12,-34.62,29.56,144.89,-87.15,0.88
8058,53.166847,-1.599149,161.27,12.06,4,127.61,16 / 17,2278414,2019-11-06 16:44:18:876,-0.7293,-0.1006,10.3544,0.0032,0.0023,9.8066,0.0241,-0.1549,0.0614,-27.31,-35.5,50.44,153.2,-87.05,0.78
8059,53.166847,-1.599149,161.27,12.06,4,127.61,16 / 17,2278514,2019-11-06 16:44:18:976,0.1061,0.2386,9.5408,-0.0157,0.0101,9.8065,-0.0786,0.0355,-0.004,-40.19,-37.31,31.69,129.36,-87.03,-0.92
8060,53.166847,-1.599149,161.27,12.06,4,127.61,16 / 17,2278614,2019-11-06 16:44:19:076,0.8776,-0.5479,9.8692,0.0082,0.0054,9.8066,0.0098,-0.0523,0.0316,-29.19,-34.06,23.13,128.98,-86.97,-1.56
8061,53.166847,-1.599149,161.27,12.06,4,127.61,16 / 17,2278714,2019-11-06 16:44:19:176,1.344,-0.3981,9.5278,0.0076,-0.0192,9.8065,0.069,-0.0619,-0.0206,-27.56,-34.25,21.31,129.45,-87.0,0.37
8062,53.166847,-1.599149,161.27,12.06,4,127.61,16 / 17,2278814,2019-11-06 16:44:19:276,0.2063,1.056,10.3339,0.0008,-0.0072,9.8066,0.0579,-0.1261,0.0199,-26.87,-36.06,20.44,128.65,-87.18,-0.21
8063,53.166847,-1.599149,161.27,12.06,4,127.61,16 / 17,2278914,2019-11-06 16:44:19:376,-0.0203,-1.1426,10.4018,0.0102,-0.0187,9.8065,0.0749,-0.1873,0.063,-27.56,-37.31,21.31,129.76,-87.38,0.79
8064,53.166847,-1.599149,161.27,12.06,4,127.61,16 / 17,2279014,2019-11-06 16:44:19:476,0.2684,-0.7073,10.2282,0.0079,-0.0109,9.8066,-0.0726,0.1351,-0.0543,-40.0,-40.37,30.5,132.4,-87.47,3.17
8065,53.166847,-1.599149,161.27,12.06,4,127.61,16 / 17,2279113,2019-11-06 16:44:19:575,-1.449,-1.3042,9.8389,0.0239,0.0024,9.8066,0.0148,-0.0498,0.0167,-27.69,-36.06,49.63,155.57,-87.57,4.2
8066,53.166847,-1.599149,161.27,12.06,4,127.61,16 / 17,2279213,2019-11-06 16:44:19:675,0.4227,-0.259,9.5778,-0.0359,-0.0258,9.8065,-0.0516,0.4532,-0.2334,-23.5,-35.62,27.81,141.23,-87.61,-0.84
8067,53.166847,-1.599149,161.27,12.06,4,127.61,16 / 17,2279314,2019-11-06 16:44:19:776,2.6852,1.8756,9.8436,-0.0001,0.0002,9.8066,0.025,0.1371,-0.0708,-23.19,-36.0,24.81,142.3,-87.53,3.34
8068,53.166847,-1.599149,161.27,12.06,4,127.61,16 / 17,2279414,2019-11-06 16:44:19:876,0.8433,-0.4692,10.2314,-0.0474,-0.0591,9.8063,-0.0051,0.5236,-0.2398,-23.5,-35.62,23.5,143.01,-87.51,5.19
8069,53.166847,-1.599149,161.27,12.06,4,127.61,16 / 17,2279514,2019-11-06 16:44:19:976,2.2001,2.285,9.0436,-0.0198,-0.0567,9.8064,-0.1205,0.4974,-0.1861,-23.94,-36.12,23.81,133.9,-87.6,-2.91
8070,53.166847,-1.599149,161.27,12.06,4,127.61,16 / 17,2279614,2019-11-06 16:44:20:076,-2.6029,-1.026,10.6142,-0.0214,-0.035,9.8065,-0.0201,0.0638,-0.0267,-23.5,-35.94,25.19,139.38,-87.53,0.31
8071,53.166847,-1.599149,161.27,12.06,4,127.61,16 / 17,2279714,2019-11-06 16:44:20:176,0.8682,2.2492,9.927,-0.0316,-0.0447,9.8065,-0.0287,0.2618,-0.1366,-23.12,-34.44,29.0,135.94,-87.64,-7.13
8072,53.166847,-1.599149,161.27,12.06,4,127.61,16 / 17,2279814,2019-11-06 16:44:20:276,-0.6051,-0.3812,9.9648,0.008,-0.0096,9.8066,-0.0339,-0.1386,0.0785,-33.56,-38.56,52.0,143.27,-87.7,-4.39
8073,53.166847,-1.599149,161.27,12.06,4,127.61,17 / 17,2279914,2019-11-06 16:44:20:376,0.2866,-1.3053,9.0305,0.0145,-0.0102,9.8065,0.0134,-0.0979,0.0134,-35.5,-38.19,25.94,123.28,-87.78,-4.92
8074,53.166847,-1.599149,161.27,12.06,4,127.61,17 / 17,2280013,2019-11-06 16:44:20:475,0.1598,-0.956,10.0532,0.0094,-0.0094,9.8066,-0.0095,0.0729,-0.0234,-27.87,-36.69,22.69,126.21,-87.78,-5.0
8075,53.166847,-1.599149,161.27,12.06,4,127.61,17 / 17,2280113,2019-11-06 16:44:20:575,-0.4001,-0.69,9.2391,0.0113,0.0004,9.8066,0.0692,0.0485,-0.0084,-25.69,-36.0,22.31,127.53,-87.84,-4.5
8076,53.166847,-1.599149,161.27,12.06,4,127.61,17 / 17,2280214,2019-11-06 16:44:20:676,-1.5898,-0.1534,10.4396,0.0076,-0.0369,9.8065,-0.0199,0.187,-0.1251,-25.31,-35.75,22.13,128.32,-88.03,-4.69
8077,53.166847,-1.599149,161.27,12.06,4,127.61,17 / 17,2280314,2019-11-06 16:44:20:776,1.4683,0.589,9.8458,-0.0096,-0.0087,9.8066,0.0437,0.1557,-0.0329,-28.0,-37.12,22.31,122.8,-88.21,-6.9
8078,53.166847,-1.599149,161.27,12.06,4,127.61,17 / 17,2280414,2019-11-06 16:44:20:876,-0.402,-2.6618,10.1389,-0.0222,0.002,9.8066,0.1018,0.0045,0.0252,-41.75,-41.0,38.38,123.2,-88.13,-10.06
8079,53.166847,-1.599149,161.27,12.06,4,127.61,17 / 17,2280513,2019-11-06 16:44:20:975,1.5579,1.3506,9.1461,-0.0491,-0.0228,9.8065,-0.0857,0.2634,-0.1665,-24.69,-35.31,42.88,137.29,-88.13,-13.41
8080,53.166847,-1.599149,161.27,12.06,4,127.61,17 / 17,2280613,2019-11-06 16:44:21:075,1.3477,1.8642,9.8321,0.023,0.0219,9.8066,-0.0002,-0.3805,0.2612,-23.69,-34.62,28.06,128.19,-87.94,-12.72
8081,53.166847,-1.599149,161.27,12.06,4,127.61,17 / 17,2280713,2019-11-06 16:44:21:175,1.585,1.5912,9.9861,-0.0209,-0.0082,9.8066,-0.0005,-0.029,0.0042,-23.69,-35.56,23.75,121.8,-87.89,-15.09
8082,53.166847,-1.599149,161.27,12.06,4,127.61,17 / 17,2280813,2019-11-06 16:44:21:275,0.8263,0.0805,9.8326,0.0279,0.0524,9.8064,0.0654,-0.386,0.2332,-23.44,-36.12,23.31,121.63,-87.84,-15.39
8083,53.166847,-1.599149,161.27,12.06,4,127.61,16 / 17,2280914,2019-11-06 16:44:21:376,-2.5027,-2.2675,10.6242,0.0002,0.0091,9.8066,0.0909,-0.2385,0.0848,-23.94,-36.19,23.81,126.51,-87.81,-10.33
8084,53.166847,-1.599149,161.27,12.06,4,127.61,16 / 17,2281013,2019-11-06 16:44:21:475,0.0841,-1.2877,9.845,0.0385,0.0267,9.8065,0.058,-0.2811,0.1164,-23.56,-35.31,25.31,132.04,-88.07,-5.57
8085,53.166847,-1.599149,161.27,12.06,4,127.61,16 / 17,2281113,2019-11-06 16:44:21:575,-1.6498,-0.6891,9.7387,0.0097,0.0167,9.8066,-0.0018,-0.2425,0.1142,-23.19,-34.44,30.13,136.93,-88.08,-6.76
8086,53.166847,-1.599149,161.27,12.06,4,127.61,16 / 17,2281213,2019-11-06 16:44:21:675,0.3157,0.2865,9.9444,0.0082,0.0098,9.8066,-0.0171,-0.0199,0.0263,-30.81,-37.37,49.94,138.02,-88.0,-11.0
8087,53.166847,-1.599149,161.27,12.06,4,127.61,16 / 17,2281313,2019-11-06 16:44:21:775,-0.5554,0.0783,10.2613,0.0009,0.0162,9.8065,0.0485,-0.1228,0.089,-32.31,-37.69,22.44,116.99,-87.94,-9.31
8088,53.166847,-1.599149,161.27,12.06,4,127.61,16 / 17,2281414,2019-11-06 16:44:21:876,0.5797,-0.7078,8.874,0.0106,0.0134,9.8066,0.0349,-0.1694,0.1451,-26.44,-36.62,22.0,118.14,-88.1,-13.91
8089,53.166847,-1.599149,161.27,12.06,4,127.61,16 / 17,2281514,2019-11-06 16:44:21:976,-0.4288,-1.9611,10.6397,-0.023,-0.0113,9.8065,0.0615,-0.0001,-0.036,-25.75,-37.0,21.69,113.67,-88.12,-18.43
8090,53.166847,-1.599149,161.27,12.06,4,127.61,16 / 17,2281614,2019-11-06 16:44:22:076,1.5887,-1.234,9.7499,-0.0053,0.0052,9.8066,0.0039,-0.0455,0.0159,-26.62,-38.31,21.19,115.06,-88.11,-14.71
8091,53.166847,-1.599149,161.27,12.06,4,127.61,16 / 17,2281713,2019-11-06 16:44:22:175,-2.5902,-0.159,10.2273,0.027,-0.0169,9.8066,-0.0124,-0.115,0.0619,-28.81,-38.44,21.63,112.15,-88.24,-16.73
8092,53.166847,-1.599149,161.27,12.06,4,127.61,16 / 17,2281814,2019-11-06 16:44:22:276,0.0148,-0.1854,9.2483,-0.0084,-0.0008,9.8066,0.0339,0.0323,-0.0059,-42.56,-42.06,33.94,110.48,-88.33,-19.04
8093,53.16625,-1.597919,163.75,11.03,4,128.62,16 / 17,2281915,2019-11-06 16:44:22:377,-0.7706,-0.1414,9.6864,-0.0015,0.0197,9.8066,-0.0119,0.0239,-0.0026,-26.37,-36.25,36.5,126.21,-88.28,-19.78
8094,53.16625,-1.597919,163.75,11.03,4,128.62,16 / 17,2282013,2019-11-06 16:44:22:475,-2.5687,-0.8399,10.3909,-0.0254,-0.0231,9.8065,0.0289,0.1194,-0.0522,-25.75,-37.25,29.63,122.68,-88.22,-17.79
8095,53.16625,-1.597919,163.75,11.03,4,128.62,16 / 17,2282113,2019-11-06 16:44:22:575,1.4257,0.4598,9.9269,-0.0176,-0.0209,9.8065,-0.0093,0.1147,-0.1236,-23.5,-38.0,28.88,119.87,-88.19,-23.31
8096,53.16625,-1.597919,163.75,11.03,4,128.62,16 / 17,2282214,2019-11-06 16:44:22:676,-1.1064,-0.0956,10.1203,-0.0238,-0.0232,9.8066,-0.0008,0.2394,-0.0541,-19.75,-36.94,27.56,118.15,-88.28,-27.93
8097,53.16625,-1.597919,163.75,11.03,4,128.62,16 / 17,2282314,2019-11-06 16:44:22:776,2.2621,2.9271,9.4017,-0.0305,-0.0498,9.8064,-0.0435,0.4543,-0.27,-18.81,-36.5,24.5,113.49,-88.34,-31.02
8098,53.16625,-1.597919,163.75,11.03,4,128.62,16 / 17,2282414,2019-11-06 16:44:22:876,-0.38,0.3284,9.2136,-0.0321,0.0023,9.8065,0.0651,-0.2283,0.091,-19.62,-35.19,23.5,116.58,-88.46,-25.14
8099,53.16625,-1.597919,163.75,11.03,4,128.62,16 / 17,2282514,2019-11-06 16:44:22:976,0.0777,3.8189,9.6915,-0.042,-0.0239,9.8065,-0.1126,0.1794,-0.1631,-22.69,-34.37,30.5,113.14,-88.08,-31.83
8100,53.16625,-1.597919,163.75,11.03,4,128.62,16 / 17,2282614,2019-11-06 16:44:23:076,0.2782,-0.7571,9.3348,0.0189,0.0195,9.8066,-0.052,-0.2563,0.1964,-36.5,-39.62,49.81,120.89,-87.91,-24.5
8101,53.16625,-1.597919,163.75,11.03,4,128.62,16 / 17,2282714,2019-11-06 16:44:23:176,-0.1102,-0.8353,9.8388,0.0061,-0.012,9.8066,0.0604,0.0201,-0.0746,-33.44,-38.37,23.63,102.82,-87.93,-25.07
8102,53.16625,-1.597919,163.75,11.03,4,128.62,16 / 17,2282814,2019-11-06 16:44:23:276,-0.3993,0.0061,9.8946,0.0054,0.0045,9.8066,0.0559,-0.0511,-0.0018,-26.5,-37.37,21.88,109.14,-88.15,-22.99
8103,53.16625,-1.597919,163.75,11.03,4,128.62,16 / 17,2282914,2019-11-06 16:44:23:376,0.4869,1.039,9.2797,0.0037,-0.0125,9.8066,0.0195,0.1333,-0.0776,-25.87,-36.75,21.75,106.68,-88.29,-25.33
8104,53.16625,-1.597919,163.75,11.03,4,128.62,16 / 17,2283014,2019-11-06 16:44:23:476,0.5766,-0.1656,9.7356,0.0128,-0.0019,9.8065,0.0303,-0.106,0.0092,-26.31,-37.62,21.75,106.33,-88.47,-25.54
8105,53.16625,-1.597919,163.75,11.03,4,128.62,16 / 17,2283114,2019-11-06 16:44:23:576,0.7057,0.3072,9.9585,0.0056,0.0015,9.8066,0.0251,-0.0124,0.0298,-30.06,-38.0,22.75,103.27,-88.65,-25.52
8106,53.16625,-1.597919,163.75,11.03,4,128.62,16 / 17,2283214,2019-11-06 16:44:23:676,-1.0826,-1.1081,10.4692,0.0121,-0.0048,9.8066,-0.0075,-0.0183,0.0443,-41.12,-40.31,44.94,111.3,-88.69,-27.16
8107,53.16625,-1.597919,163.75,11.03,4,128.62,16 / 17,2283314,2019-11-06 16:44:23:776,0.3728,-0.2564,9.5697,-0.0062,-0.0205,9.8066,0.0081,0.1218,-0.0862,-23.75,-33.37,37.75,119.03,-88.81,-29.46
8108,53.16625,-1.597919,163.75,11.03,4,128.62,16 / 17,2283413,2019-11-06 16:44:23:875,-0.017,-0.8803,9.972,0.0268,0.0027,9.8066,0.0882,-0.191,0.066,-23.75,-35.31,25.88,110.16,-89.06,-28.0
8109,53.16625,-1.597919,163.75,11.03,4,128.62,16 / 17,2283513,2019-11-06 16:44:23:975,-0.6977,-1.0498,10.0044,0.0177,-0.0185,9.8066,0.0285,-0.0918,0.0449,-23.75,-36.06,24.88,91.95,-89.25,-45.0
8110,53.16625,-1.597919,163.75,11.03,4,128.62,16 / 17,2283613,2019-11-06 16:44:24:075,-0.9535,0.1327,10.3352,0.0119,-0.0016,9.8066,-0.0181,0.0358,-0.0243,-23.81,-35.81,23.81,88.18,-89.31,-47.55
8111,53.16625,-1.597919,163.75,11.03,4,128.62,16 / 17,2283713,2019-11-06 16:44:24:175,-0.9735,0.1548,9.8735,-0.0057,0.0043,9.8066,-0.0669,-0.0217,0.0446,-23.56,-36.31,24.5,95.9,-89.33,-40.95
8112,53.16625,-1.597919,163.75,11.03,4,128.62,16 / 17,2283813,2019-11-06 16:44:24:275,0.1949,-0.6099,9.6735,-0.0055,0.0192,9.8066,-0.0574,-0.1223,0.0824,-23.12,-35.06,26.75,107.39,-89.1,-33.03
8113,53.16625,-1.597919,163.75,11.03,4,128.62,16 / 18,2283913,2019-11-06 16:44:24:375,-1.2974,-0.6896,10.2771,-0.0066,0.0167,9.8066,0.0207,-0.045,0.0141,-23.75,-34.31,31.88,119.16,-88.83,-24.84
8114,53.16625,-1.597919,163.75,11.03,4,128.62,16 / 18,2284013,2019-11-06 16:44:24:475,1.1294,-1.8334,9.7613,0.0068,-0.0071,9.8066,0.0764,-0.0251,0.0387,-42.87,-39.06,47.19,113.19,-88.86,-24.99
8115,53.16625,-1.597919,163.75,11.03,4,128.62,16 / 18,2284113,2019-11-06 16:44:24:575,0.8382,-0.7324,9.2524,0.003,-0.0128,9.8066,0.0136,0.0279,-0.0315,-31.69,-35.31,22.5,93.18,-89.03,-33.38
8116,53.16625,-1.597919,163.75,11.03,4,128.62,16 / 18,2284213,2019-11-06 16:44:24:675,-0.1041,-1.4179,9.7834,-0.0226,-0.0179,9.8066,-0.0214,0.0944,-0.1012,-26.75,-34.0,21.25,98.78,-89.09,-29.99
8117,53.16625,-1.597919,163.75,11.03,4,128.62,16 / 18,2284314,2019-11-06 16:44:24:776,-0.1584,-0.6061,10.2679,0.0058,0.011,9.8066,-0.0739,0.1132,0.0089,-25.31,-34.81,22.06,103.37,-88.91,-29.08
8118,53.16625,-1.597919,163.75,11.03,4,128.62,16 / 18,2284414,2019-11-06 16:44:24:876,-0.138,0.0218,9.9041,0.01,-0.0154,9.8066,-0.0361,0.1114,-0.059,-25.25,-35.69,21.88,104.91,-88.8,-27.69
8119,53.16625,-1.597919,163.75,11.03,4,128.62,16 / 18,2284513,2019-11-06 16:44:24:975,-0.3403,0.689,10.1474,0.0001,0.0242,9.8066,0.0417,-0.1888,0.0455,-29.19,-36.81,22.56,106.12,-88.86,-23.38
8120,53.16625,-1.597919,163.75,11.03,4,128.62,16 / 18,2284614,2019-11-06 16:44:25:076,1.3189,0.607,10.1204,-0.005,-0.0067,9.8066,0.0221,0.038,-0.0638,-37.37,-38.94,50.44,115.29,-88.96,-28.8
8121,53.16625,-1.597919,163.75,11.03,4,128.62,16 / 18,2284714,2019-11-06 16:44:25:176,-0.599,0.0941,9.9153,0.0145,-0.0024,9.8066,-0.0224,-0.0237,0.1006,-23.37,-34.12,33.56,114.89,-89.02,-31.77
8122,53.16625,-1.597919,163.75,11.03,4,128.62,16 / 18,2284813,2019-11-06 16:44:25:275,1.291,-0.1353,10.0552,0.0331,0.0169,9.8065,-0.0578,-0.0592,0.1419,-23.37,-35.75,26.38,96.62,-88.98,-42.94
8123,53.16625,-1.597919,163.75,11.03,4,128.62,15 / 19,2284914,2019-11-06 16:44:25:376,-0.4096,-0.5969,10.4342,-0.0144,-0.0022,9.8065,0.0384,-0.0438,-0.0225,-23.37,-37.0,24.75,99.43,-89.01,-39.02
8124,53.16625,-1.597919,163.75,11.03,4,128.62,15 / 19,2285014,2019-11-06 16:44:25:476,-0.1206,-0.2529,9.7581,-0.0015,-0.0055,9.8066,-0.0056,0.0778,-0.0361,-23.56,-36.44,24.63,100.28,-89.07,-36.83
8125,53.16625,-1.597919,163.75,11.03,4,128.62,15 / 19,2285115,2019-11-06 16:44:25:577,-0.0085,0.1398,9.7475,-0.0079,0.0051,9.8066,0.0024,0.0149,-0.0594,-23.87,-36.62,24.25,99.68,-89.07,-36.33
8126,53.16625,-1.597919,163.75,11.03,4,128.62,15 / 19,2285214,2019-11-06 16:44:25:676,0.3029,-1.9889,9.9289,0.0033,0.0094,9.8066,0.0172,-0.1732,0.0494,-22.87,-35.37,27.5,117.16,-89.07,-24.23
8127,53.16625,-1.597919,163.75,11.03,4,128.62,15 / 19,2285314,2019-11-06 16:44:25:776,-0.3015,0.1254,9.488,0.0098,0.0061,9.8066,-0.0572,0.0447,0.0786,-22.94,-34.56,35.88,123.79,-89.04,-24.29
8128,53.16625,-1.597919,163.75,11.03,4,128.62,15 / 19,2285413,2019-11-06 16:44:25:875,1.6294,0.2167,9.6913,0.0248,0.0106,9.8066,0.0333,-0.1677,0.1055,-39.81,-40.31,48.63,114.44,-88.95,-26.94
8129,53.16625,-1.597919,163.75,11.03,4,128.62,15 / 19,2285514,2019-11-06 16:44:25:976,0.1367,-0.4506,9.6747,-0.0067,-0.0035,9.8065,0.0765,-0.0417,0.0145,-28.87,-37.62,23.06,100.03,-89.05,-29.35
8130,53.16625,-1.597919,163.75,11.03,4,128.62,15 / 19,2285613,2019-11-06 16:44:26:075,0.6473,-0.5755,9.7213,-0.0174,0.001,9.8066,0.0472,-0.0355,-0.046,-26.25,-37.12,22.75,93.62,-89.09,-38.84
8131,53.16625,-1.597919,163.75,11.03,4,128.62,15 / 19,2285713,2019-11-06 16:44:26:175,-0.0848,-0.2549,9.9033,0.0024,-0.0109,9.8066,-0.0038,0.0378,0.0443,-25.81,-36.81,23.56,89.28,-89.05,-44.43
8132,53.16625,-1.597919,163.75,11.03,4,128.62,15 / 19,2285814,2019-11-06 16:44:26:276,0.0337,-2.4296,10.374,0.0093,0.0009,9.8066,0.0795,-0.0649,0.0809,-27.06,-36.81,22.63,76.14,-88.99,-55.3
8133,53.16625,-1.597919,163.75,11.03,4,128.62,15 / 16,2285914,2019-11-06 16:44:26:376,0.0754,-1.2234,10.1348,-0.0055,-0.0149,9.8065,-0.0053,-0.0734,-0.068,-32.62,-37.81,24.06,63.6,-89.01,-63.25
8134,53.16625,-1.597919,163.75,11.03,4,128.62,15 / 16,2286013,2019-11-06 16:44:26:475,2.2151,0.6103,9.8139,0.0292,0.0046,9.8065,0.0274,-0.1935,0.1593,-39.25,-39.06,50.69,83.21,-89.12,-59.92
8135,53.16625,-1.597919,163.75,11.03,4,128.62,15 / 16,2286114,2019-11-06 16:44:26:576,0.0815,-0.8754,10.1294,0.0197,0.0065,9.8066,0.0363,-0.1822,0.0241,-24.12,-34.19,32.06,70.52,-89.25,-73.21
8136,53.16625,-1.597919,163.75,11.03,4,128.62,15 / 16,2286214,2019-11-06 16:44:26:676,2.8735,0.0869,9.1039,0.0099,-0.004,9.8066,-0.0588,-0.1307,0.0373,-23.75,-35.31,26.25,60.99,-89.31,-76.9
8137,53.16625,-1.597919,163.75,11.03,4,128.62,15 / 16,2286314,2019-11-06 16:44:26:776,-0.8476,-3.5066,9.9413,0.0183,0.0369,9.8065,0.0708,-0.3076,0.2555,-24.31,-35.62,24.63,62.09,-89.33,-74.69
8138,53.16625,-1.597919,163.75,11.03,4,128.62,15 / 16,2286414,2019-11-06 16:44:26:876,1.6447,-1.2992,9.6575,0.0262,0.0457,9.8065,-0.0163,-0.3353,0.1586,-24.75,-36.5,24.5,63.43,-89.3,-72.21
8139,53.16625,-1.597919,163.75,11.03,4,128.62,15 / 16,2286514,2019-11-06 16:44:26:976,-3.6637,-3.5006,10.7542,0.0256,0.0387,9.8065,0.0793,-0.5217,0.3394,-24.19,-36.44,24.88,67.85,-89.17,-69.12
8140,53.16625,-1.597919,163.75,11.03,4,128.62,15 / 16,2286614,2019-11-06 16:44:27:076,3.0218,2.8298,8.7766,0.0084,0.0616,9.8064,0.0895,-0.3542,0.0703,-24.75,-36.06,26.63,62.37,-88.83,-75.85
8141,53.16625,-1.597919,163.75,11.03,4,128.62,15 / 16,2286714,2019-11-06 16:44:27:176,-4.2935,-1.5295,10.7151,0.0597,0.0734,9.8061,-0.0045,-0.6865,0.476,-24.12,-34.56,42.31,95.08,-88.98,-55.91
8142,53.16625,-1.597919,163.75,11.03,4,128.62,15 / 16,2286814,2019-11-06 16:44:27:276,3.4305,2.5259,9.0455,0.0006,0.0154,9.8066,0.0302,0.1084,-0.1016,-43.44,-41.25,41.94,72.46,-88.72,-62.7
8143,53.16625,-1.597919,163.75,11.03,4,128.62,18 / 19,2286914,2019-11-06 16:44:27:376,-0.2093,-0.438,10.1153,0.0392,0.0692,9.8063,0.0236,-0.411,0.2543,-29.56,-38.19,23.94,75.64,-88.97,-54.01
8144,53.16625,-1.597919,163.75,11.03,4,128.62,18 / 19,2287014,2019-11-06 16:44:27:476,0.8041,3.4752,9.7797,-0.0045,0.0084,9.8065,-0.0296,0.187,-0.1116,-26.19,-38.75,22.63,74.48,-88.84,-58.27
8145,53.16625,-1.597919,163.75,11.03,4,128.62,18 / 19,2287114,2019-11-06 16:44:27:576,-1.1298,-2.008,9.0839,0.0426,0.0391,9.8064,-0.0617,-0.268,0.1552,-25.19,-38.62,23.63,87.36,-88.97,-47.63
8146,53.16625,-1.597919,163.75,11.03,4,128.62,18 / 19,2287214,2019-11-06 16:44:27:676,0.222,-1.4445,10.2014,-0.01,-0.0305,9.8066,-0.1146,0.3182,-0.1632,-25.56,-38.87,23.31,85.18,-88.87,-47.59
8147,53.16625,-1.597919,163.75,11.03,4,128.62,18 / 19,2287313,2019-11-06 16:44:27:775,-2.6625,-3.3974,10.6141,0.0164,0.0524,9.8064,-0.0157,-0.1392,0.1095,-30.56,-39.62,24.31,84.65,-88.74,-44.38
8148,53.16625,-1.597919,163.75,11.03,4,128.62,18 / 19,2287413,2019-11-06 16:44:27:875,0.3905,-1.6552,10.7304,-0.0251,-0.0495,9.8065,0.0213,0.346,-0.1714,-30.69,-36.56,52.94,95.35,-88.72,-55.09
8149,53.16625,-1.597919,163.75,11.03,4,128.62,18 / 19,2287513,2019-11-06 16:44:27:975,2.2724,-0.2013,8.2767,0.0382,-0.0221,9.8065,-0.1412,0.0659,-0.0204,-22.31,-32.94,31.69,87.93,-89.01,-58.4
8150,53.16625,-1.597919,163.75,11.03,4,128.62,18 / 19,2287613,2019-11-06 16:44:28:075,-1.5227,-2.423,10.5668,-0.0005,-0.0113,9.8066,0.0102,0.3061,0.0149,-22.12,-34.19,26.0,88.73,-89.07,-51.96
8151,53.16625,-1.597919,163.75,11.03,4,128.62,18 / 19,2287713,2019-11-06 16:44:28:175,1.0297,2.602,9.4935,-0.0281,-0.0333,9.8066,-0.0853,0.2778,-0.3988,-22.25,-34.75,24.75,91.54,-89.16,-47.99
8152,53.16625,-1.597919,163.75,11.03,4,128.62,18 / 19,2287813,2019-11-06 16:44:28:275,-2.0763,-2.1434,10.2925,-0.0178,-0.0262,9.8065,0.0104,0.3433,-0.092,-22.44,-34.75,25.31,127.85,-89.39,-11.31
8153,53.16625,-1.597919,163.75,11.03,4,128.62,17 / 17,2287913,2019-11-06 16:44:28:375,0.9059,0.7797,9.7382,-0.0151,-0.0543,9.8064,-0.0826,0.44,-0.2933,-22.87,-36.37,24.56,106.68,-89.58,-31.13
8154,53.16625,-1.597919,163.75,11.03,4,128.62,17 / 17,2288013,2019-11-06 16:44:28:475,-2.4048,-2.5638,10.2576,-0.0282,-0.0385,9.8065,-0.0954,0.3414,-0.1463,-22.0,-35.5,28.75,109.34,-89.62,-33.81
8155,53.16625,-1.597919,163.75,11.03,4,128.62,17 / 17,2288114,2019-11-06 16:44:28:576,3.9502,1.4983,8.9185,-0.0438,-0.037,9.8065,-0.0727,0.5762,-0.2699,-22.69,-34.94,42.19,126.64,-89.52,-24.93
8156,53.16625,-1.597919,163.75,11.03,4,128.62,17 / 17,2288213,2019-11-06 16:44:28:675,-0.6142,-0.7303,10.1931,-0.0507,-0.0435,9.8063,0.0,0.3658,-0.2187,-42.31,-40.87,39.69,130.52,-89.51,-3.34
8157,53.16625,-1.597919,163.75,11.03,4,128.62,17 / 17,2288313,2019-11-06 16:44:28:775,3.6137,3.5159,7.8453,-0.0306,-0.0584,9.8063,-0.1891,0.5597,-0.298,-28.0,-38.94,22.13,99.18,-89.28,-29.76
8158,53.16625,-1.597919,163.75,11.03,4,128.62,17 / 17,2288414,2019-11-06 16:44:28:876,-2.5912,-1.9962,10.5519,-0.0278,-0.037,9.8065,-0.0023,0.2189,-0.1082,-26.37,-37.69,23.06,113.55,-89.11,-18.84
8159,53.16625,-1.597919,163.75,11.03,4,128.62,17 / 17,2288513,2019-11-06 16:44:28:975,3.4051,0.8034,9.6949,-0.0117,-0.0704,9.8063,-0.017,0.4662,-0.2343,-25.56,-37.37,22.75,90.46,-89.15,-41.95
8160,53.16625,-1.597919,163.75,11.03,4,128.62,17 / 17,2288613,2019-11-06 16:44:29:075,-1.942,-2.0373,10.2773,-0.0077,-0.0039,9.8066,0.0321,0.007,0.0582,-27.31,-37.81,22.94,86.67,-89.32,-44.47
8161,53.16625,-1.597919,163.75,11.03,4,128.62,17 / 17,2288713,2019-11-06 16:44:29:175,1.6528,2.5082,9.3825,-0.0127,-0.0638,9.8063,-0.0853,0.3948,-0.2757,-35.06,-39.25,24.56,66.61,-89.29,-59.52
8162,53.16625,-1.597919,163.75,11.03,4,128.62,17 / 17,2288813,2019-11-06 16:44:29:275,-1.3134,-0.006,10.211,0.0024,-0.017,9.8066,0.014,0.0303,0.0362,-33.81,-37.25,52.44,96.73,-89.5,-50.38
8163,53.16625,-1.597919,163.75,11.03,4,128.62,19 / 19,2288914,2019-11-06 16:44:29:376,1.2019,1.6182,9.6429,-0.0259,-0.0364,9.8065,0.0125,0.2386,-0.1963,-23.0,-34.56,29.69,65.94,-89.53,-76.99
8164,53.16625,-1.597919,163.75,11.03,4,128.62,19 / 19,2289013,2019-11-06 16:44:29:475,-2.7936,-1.024,11.0124,0.0039,0.0196,9.8066,0.036,-0.1459,0.0787,-23.25,-34.87,26.13,76.77,-89.69,-62.04
8165,53.16625,-1.597919,163.75,11.03,4,128.62,19 / 19,2289113,2019-11-06 16:44:29:575,0.3411,-0.3793,9.6446,-0.0073,-0.0236,9.8066,-0.0313,0.0262,-0.0183,-23.5,-36.44,24.19,93.22,-89.7,-43.32
8166,53.16625,-1.597919,163.75,11.03,4,128.62,19 / 19,2289214,2019-11-06 16:44:29:676,1.7562,-0.417,9.7882,0.0164,0.0036,9.8066,0.0053,-0.1192,0.0714,-23.69,-36.06,24.06,103.6,-89.74,-31.66
8167,53.16625,-1.597919,163.75,11.03,4,128.62,19 / 19,2289313,2019-11-06 16:44:29:775,-0.1662,-0.1476,10.2968,-0.0149,0.0108,9.8066,0.0744,-0.0831,0.0122,-23.62,-36.62,24.25,97.44,-89.63,-37.96
8168,53.16625,-1.597919,163.75,11.03,4,128.62,19 / 19,2289414,2019-11-06 16:44:29:876,-0.2643,-0.1317,9.3928,-0.0159,0.0134,9.8066,-0.0314,0.0813,-0.0286,-22.75,-35.56,27.69,93.42,-89.65,-47.54
8169,53.16625,-1.597919,163.75,11.03,4,128.62,19 / 19,2289514,2019-11-06 16:44:29:976,0.1188,1.2328,10.4101,-0.0134,-0.001,9.8066,-0.0165,0.0796,-0.0642,-26.69,-36.87,48.56,114.34,-89.52,-37.09
8170,53.16625,-1.597919,163.75,11.03,4,128.62,19 / 19,2289614,2019-11-06 16:44:30:076,-0.9542,0.0843,9.7585,0.0075,-0.0194,9.8066,-0.0239,-0.0114,0.012,-41.0,-40.06,32.94,98.11,-89.55,-31.07
8171,53.16625,-1.597919,163.75,11.03,4,128.62,19 / 19,2289714,2019-11-06 16:44:30:176,0.2378,1.2203,10.3123,-0.0031,-0.0203,9.8065,0.0657,0.1586,-0.0716,-27.62,-37.44,23.81,63.85,-89.58,-67.13
8172,53.16625,-1.597919,163.75,11.03,4,128.62,19 / 19,2289813,2019-11-06 16:44:30:275,-0.2902,-0.3496,10.2137,0.0004,-0.0071,9.8066,-0.0704,-0.0203,0.045,-24.94,-37.87,22.88,59.13,-89.6,-73.87
8173,53.16625,-1.597919,163.75,11.03,4,128.62,19 / 20,2289913,2019-11-06 16:44:30:375,0.5656,1.3085,9.7613,-0.0287,-0.0075,9.8065,0.104,0.1366,-0.0986,-25.0,-37.44,23.44,70.17,-89.49,-62.96
8174,53.16625,-1.597919,163.75,11.03,4,128.62,19 / 20,2290014,2019-11-06 16:44:30:476,-1.3869,0.156,9.9102,0.0033,-0.0053,9.8066,-0.0524,0.0241,-0.0109,-26.0,-37.81,23.25,72.9,-89.6,-59.02
8175,53.16625,-1.597919,163.75,11.03,4,128.62,19 / 20,2290114,2019-11-06 16:44:30:576,-0.9339,-0.8797,10.0436,-0.023,-0.0043,9.8066,0.0597,0.0009,-0.0103,-38.44,-40.0,29.63,73.63,-89.52,-55.04
8176,53.16625,-1.597919,163.75,11.03,4,128.62,19 / 20,2290213,2019-11-06 16:44:30:675,0.4661,0.2403,9.8568,0.0032,-0.0013,9.8066,0.0033,-0.006,0.0154,-28.75,-36.19,51.88,88.06,-89.58,-63.04
8177,53.16625,-1.597919,163.75,11.03,4,128.62,19 / 20,2290313,2019-11-06 16:44:30:775,-0.5928,-2.3664,9.9414,0.0029,0.006,9.8066,0.001,-0.1922,0.0769,-23.25,-34.44,31.13,73.92,-89.56,-69.88
8178,53.16625,-1.597919,163.75,11.03,4,128.62,19 / 20,2290414,2019-11-06 16:44:30:876,-1.5374,-1.0213,10.0196,-0.031,-0.0096,9.8065,-0.0582,0.2433,-0.1117,-23.56,-36.25,25.75,74.01,-89.29,-63.98
8179,53.16625,-1.597919,163.75,11.03,4,128.62,19 / 20,2290514,2019-11-06 16:44:30:976,-2.9742,-1.9447,10.5672,0.0226,0.0154,9.8066,-0.01,-0.0927,0.0073,-23.75,-36.62,25.25,79.68,-89.41,-57.11
8180,53.16625,-1.597919,163.75,11.03,4,128.62,19 / 20,2290614,2019-11-06 16:44:31:076,-0.5096,-0.5338,9.425,-0.018,-0.037,9.8065,-0.0223,0.3816,-0.2352,-23.75,-36.37,24.56,90.19,-89.46,-46.54
8181,53.16625,-1.597919,163.75,11.03,4,128.62,19 / 20,2290714,2019-11-06 16:44:31:176,1.638,2.0732,9.7664,0.0038,-0.0003,9.8066,0.0247,0.0105,-0.0705,-23.87,-35.69,26.06,78.48,-89.56,-59.25
8182,53.16625,-1.597919,163.75,11.03,4,128.62,19 / 20,2290814,2019-11-06 16:44:31:276,1.1129,1.8349,10.1313,-0.0411,-0.0333,9.8064,-0.0215,0.3839,-0.2142,-23.19,-34.44,28.88,102.14,-89.58,-39.82
8183,53.16564,-1.596723,164.14,11.87,4,130.5,20 / 20,2290914,2019-11-06 16:44:31:376,-0.77,0.0197,9.8111,0.0102,0.0115,9.8066,-0.0528,-0.0184,-0.0479,-22.5,-34.31,43.31,115.23,-89.46,-38.02
8184,53.16564,-1.596723,164.14,11.87,4,130.5,20 / 20,2291014,2019-11-06 16:44:31:476,-2.0371,-2.4836,9.9473,-0.0092,-0.0149,9.8066,0.0045,0.4312,-0.2367,-40.94,-39.5,35.5,88.43,-89.37,-43.3
8185,53.16564,-1.596723,164.14,11.87,4,130.5,20 / 20,2291113,2019-11-06 16:44:31:575,-1.7621,-2.4126,9.661,0.0356,0.0534,9.8064,-0.0521,0.1424,-0.0769,-26.56,-36.94,23.25,107.23,-89.5,-23.69
8186,53.16564,-1.596723,164.14,11.87,4,130.5,20 / 20,2291214,2019-11-06 16:44:31:676,-2.0084,-0.579,10.2174,-0.0001,0.0149,9.8065,-0.0395,0.509,-0.3258,-25.0,-36.62,24.38,97.85,-89.45,-36.57
8187,53.16564,-1.596723,164.14,11.87,4,130.5,20 / 20,2291314,2019-11-06 16:44:31:776,2.9544,2.1466,9.9552,0.0617,0.0449,9.8063,0.0562,0.2016,-0.1404,-25.06,-37.06,23.38,94.47,-89.4,-38.79
8188,53.16564,-1.596723,164.14,11.87,4,130.5,20 / 20,2291413,2019-11-06 16:44:31:875,2.64,0.8421,9.5264,0.013,0.0157,9.8066,-0.0224,0.5166,-0.3211,-26.37,-37.62,23.5,137.05,-89.72,4.14
8189,53.16564,-1.596723,164.14,11.87,4,130.5,20 / 20,2291514,2019-11-06 16:44:31:976,0.207,0.8502,9.9789,0.012,0.0565,9.8064,-0.0341,0.1679,-0.0498,-36.75,-40.06,28.44,18.82,-89.91,-108.32
8190,53.16564,-1.596723,164.14,11.87,4,130.5,20 / 20,2291614,2019-11-06 16:44:32:076,-3.5051,-1.2335,9.801,0.0211,0.0125,9.8065,-0.0228,0.4342,-0.1968,-30.25,-37.81,52.94,226.46,-89.78,76.07
8191,53.16564,-1.596723,164.14,11.87,4,130.5,20 / 20,2291714,2019-11-06 16:44:32:176,-2.6101,0.0238,9.7314,0.053,0.0375,9.8064,-0.0367,0.1905,-0.1664,-22.56,-35.19,29.75,209.23,-89.73,66.83
8192,53.16564,-1.596723,164.14,11.87,4,130.5,20 / 20,2291814,2019-11-06 16:44:32:276,-0.5564,-1.2662,10.2216,-0.0018,0.0095,9.8066,-0.0899,0.3366,-0.1261,-21.87,-36.75,26.19,164.42,-89.88,24.62
8193,53.16564,-1.596723,164.14,11.87,4,130.5,18 / 20,2291913,2019-11-06 16:44:32:375,3.5103,2.9818,9.2262,0.0284,0.0457,9.8064,-0.0477,0.346,-0.2058,-23.94,-37.06,24.81,54.6,-89.88,-81.67
8194,53.16564,-1.596723,164.14,11.87,4,130.5,18 / 20,2292014,2019-11-06 16:44:32:476,-3.2709,-2.5333,10.093,0.014,0.0134,9.8066,-0.0104,0.4363,-0.2581,-23.37,-36.62,24.94,43.74,-89.91,-93.72
8195,53.16564,-1.596723,164.14,11.87,4,130.5,18 / 20,2292114,2019-11-06 16:44:32:576,1.8282,1.0907,9.2411,0.0443,0.0278,9.8065,0.0254,0.6267,-0.2303,-23.12,-35.81,26.25,302.74,-89.83,164.38
8196,53.16564,-1.596723,164.14,11.87,4,130.5,18 / 20,2292214,2019-11-06 16:44:32:676,-4.2773,-3.0232,10.8056,0.0406,0.0595,9.8064,0.0004,0.1986,-0.1652,-23.12,-35.31,29.38,316.53,-89.86,175.04
8197,53.16564,-1.596723,164.14,11.87,4,130.5,18 / 20,2292314,2019-11-06 16:44:32:776,0.8184,0.2965,9.9326,0.018,0.0125,9.8066,-0.0407,0.5385,-0.2203,-23.81,-35.56,45.25,9.42,-89.77,-142.54
8198,53.16564,-1.596723,164.14,11.87,4,130.5,18 / 20,2292414,2019-11-06 16:44:32:876,-2.8546,-2.8799,11.0315,0.034,0.0483,9.8065,0.0687,-0.2175,0.1018,-34.56,-37.69,27.19,262.62,-89.82,135.13
8199,53.16564,-1.596723,164.14,11.87,4,130.5,18 / 20,2292514,2019-11-06 16:44:32:976,-0.2427,0.2467,9.7894,-0.0168,-0.0149,9.8065,-0.057,0.1313,-0.0361,-26.06,-37.19,23.88,286.51,-89.77,154.03
8200,53.16564,-1.596723,164.14,11.87,4,130.5,18 / 20,2292614,2019-11-06 16:44:33:076,1.5933,1.8901,9.1671,0.031,0.008,9.8065,0.0727,-0.2351,0.1885,-24.81,-37.44,24.75,277.92,-89.48,143.45
8201,53.16564,-1.596723,164.14,11.87,4,130.5,18 / 20,2292714,2019-11-06 16:44:33:176,-0.444,-1.3299,10.3373,0.0101,-0.017,9.8065,0.0315,0.0499,-0.1143,-25.69,-37.0,24.19,270.66,-89.44,138.54
8202,53.16564,-1.596723,164.14,11.87,4,130.5,18 / 20,2292814,2019-11-06 16:44:33:276,-2.0272,-1.5486,10.224,-0.008,0.0263,9.8065,-0.0771,-0.2175,0.0666,-26.81,-37.94,24.56,251.36,-89.58,118.97
8203,53.16564,-1.596723,164.14,11.87,4,130.5,17 / 17,2292914,2019-11-06 16:44:33:376,-0.5925,-0.1823,10.891,-0.0103,-0.0296,9.8065,0.0853,-0.0822,0.0296,-35.5,-39.75,28.69,238.76,-89.38,109.58
8204,53.16564,-1.596723,164.14,11.87,4,130.5,17 / 17,2293014,2019-11-06 16:44:33:476,0.8315,1.813,8.6833,0.0172,0.0001,9.8066,0.1489,-0.1951,0.0668,-22.37,-34.87,43.19,265.24,-89.36,112.8
8205,53.16564,-1.596723,164.14,11.87,4,130.5,17 / 17,2293113,2019-11-06 16:44:33:575,-0.9707,0.2147,10.3342,-0.0278,0.0084,9.8066,-0.1422,-0.2119,0.1394,-22.31,-35.37,29.31,263.98,-89.37,121.77
8206,53.16564,-1.596723,164.14,11.87,4,130.5,17 / 17,2293213,2019-11-06 16:44:33:675,2.2297,2.8969,8.9274,-0.0397,-0.0035,9.8065,-0.095,-0.2349,0.2351,-22.94,-36.56,25.13,245.85,-89.5,108.96
8207,53.16564,-1.596723,164.14,11.87,4,130.5,17 / 17,2293314,2019-11-06 16:44:33:776,-0.7673,-0.8195,10.2368,-0.0145,-0.0319,9.8066,0.1306,-0.2157,0.0489,-23.31,-36.62,24.38,247.84,-89.53,112.11
8208,53.16564,-1.596723,164.14,11.87,4,130.5,17 / 17,2293414,2019-11-06 16:44:33:876,-0.2972,1.4322,10.0939,-0.0004,-0.0221,9.8066,-0.0098,-0.0062,-0.0146,-23.44,-36.62,24.38,248.41,-89.57,112.64
8209,53.16564,-1.596723,164.14,11.87,4,130.5,17 / 17,2293514,2019-11-06 16:44:33:976,-1.1093,-1.5021,9.7156,-0.0045,-0.0001,9.8066,-0.0315,-0.2008,0.0692,-23.19,-36.81,25.44,234.49,-89.58,97.48
8210,53.16564,-1.596723,164.14,11.87,4,130.5,17 / 17,2293614,2019-11-06 16:44:34:076,-0.635,1.8249,10.2701,-0.0353,-0.0186,9.8066,0.0089,-0.0213,-0.001,-22.56,-35.37,31.56,205.13,-89.7,60.95
