,GPS LATITUDE (degrees),GPS LONGITUDE (degrees), GPS ALTITUDE (m),GPS SPEED (Kmh),GPS ACCURACY (m),GPS ORIENTATION (Â°), SATELLITES IN RANGE, TIME SINCE START (ms), DATE (YYYY-MO-DD HH-MI-SS_SSS),ACCELEROMETER X (m/s²) , ACCELEROMETER Y (m/s²), ACCELEROMETER Z (m/s²), GRAVITY X (m/s²), GRAVITY Y (m/s²), GRAVITY Z (m/s²), GYROSCOPE Yaw (rad/s), GYROSCOPE Pitch (rad/s), GYROSCOPE Roll (rad/s)
13910,47.193466,-1.842804,52.72,19.84,12.864,98.7,13 / 20,1391014,2019-08-18 21:14:20:126,2.3845,-0.8509,9.1172,2.5482,-0.9891,9.418,-0.0061,0.0031,0.0063
13911,47.193466,-1.842804,52.72,19.84,12.864,98.7,13 / 20,1391114,2019-08-18 21:14:20:226,2.4683,-0.9898,9.2848,2.5411,-0.9904,9.4198,-0.0019,0.017,0.0046
13912,47.193466,-1.842804,52.72,19.84,12.864,98.7,13 / 20,1391214,2019-08-18 21:14:20:326,2.6581,-1.0879,9.3555,2.5163,-0.9881,9.4267,0.0059,0.0089,0.0023
13913,47.193466,-1.842804,52.72,19.84,12.864,98.7,15 / 20,1391314,2019-08-18 21:14:20:426,2.3564,-0.7354,9.4458,2.5084,-0.9813,9.4295,0.0028,-0.0027,0.0022
13914,47.193466,-1.842804,52.72,19.84,12.864,98.7,15 / 20,1391415,2019-08-18 21:14:20:527,2.6198,-0.9694,9.7769,2.5201,-0.9805,9.4265,-0.0045,-0.0178,0.0012
13915,47.193466,-1.842804,52.72,19.84,12.864,98.7,15 / 20,1391514,2019-08-18 21:14:20:626,2.4102,-0.9981,9.7655,2.5283,-0.9827,9.424,-0.0064,-0.0136,0.0008
13916,47.193466,-1.842804,52.72,19.84,12.864,98.7,15 / 20,1391615,2019-08-18 21:14:20:727,2.4779,-1.0526,9.9151,2.5303,-0.9828,9.4235,0.0155,0.0048,-0.0056
13917,47.193466,-1.842804,52.72,19.84,12.864,98.7,15 / 20,1391714,2019-08-18 21:14:20:826,2.281,-1.1514,9.8277,2.5217,-0.9684,9.4273,0.0141,-0.004,-0.0057
13918,47.193466,-1.842804,52.72,19.84,12.864,98.7,15 / 20,1391814,2019-08-18 21:14:20:926,2.3989,-1.31,9.9133,2.5262,-0.9641,9.4265,-0.0038,-0.0213,-0.0068
13919,47.193466,-1.842804,52.72,19.84,12.864,98.7,15 / 20,1391915,2019-08-18 21:14:21:027,2.342,-1.0209,9.7332,2.5437,-0.9673,9.4215,-0.0004,-0.0092,-0.0096
13920,47.193466,-1.842804,52.72,19.84,12.864,98.7,15 / 20,1392014,2019-08-18 21:14:21:126,2.3402,-1.1825,9.6554,2.5418,-0.9684,9.4219,0.0068,0.0043,-0.0083
13921,47.193466,-1.842804,52.72,19.84,12.864,98.7,15 / 20,1392114,2019-08-18 21:14:21:226,2.4396,-1.2729,9.7559,2.5339,-0.9656,9.4243,0.0004,-0.0039,-0.0062
13922,47.193466,-1.842804,52.72,19.84,12.864,98.7,15 / 20,1392214,2019-08-18 21:14:21:326,2.4091,-1.1196,9.5721,2.536,-0.9634,9.424,0.014,-0.0191,-0.0078
13923,47.193466,-1.842804,52.72,19.84,12.864,98.7,15 / 20,1392314,2019-08-18 21:14:21:426,2.3863,-1.2771,9.4943,2.5509,-0.9474,9.4216,0.0168,0.0045,-0.0015
13924,47.193466,-1.842804,52.72,19.84,12.864,98.7,15 / 20,1392414,2019-08-18 21:14:21:526,2.2642,-0.8683,9.228,2.5478,-0.9375,9.4234,0.0044,0.0121,0.0026
13925,47.193466,-1.842804,52.72,19.84,12.864,98.7,15 / 20,1392514,2019-08-18 21:14:21:626,2.415,-0.879,9.5045,2.5287,-0.9371,9.4286,-0.0126,0.0009,0.0082
13926,47.193466,-1.842804,52.72,19.84,12.864,98.7,15 / 20,1392615,2019-08-18 21:14:21:727,2.506,-0.8419,9.3177,2.5267,-0.9427,9.4286,-0.0091,0.0091,0.0068
13927,47.193466,-1.842804,52.72,19.84,12.864,98.7,15 / 20,1392714,2019-08-18 21:14:21:826,2.2935,-1.0281,8.9514,2.5121,-0.9551,9.4312,0.0014,0.0099,0.0034
13928,47.193466,-1.842804,52.72,19.84,12.864,98.7,15 / 20,1392814,2019-08-18 21:14:21:926,2.3426,-0.8856,9.2453,2.5054,-0.9543,9.4331,-0.0039,0.0172,0.0074
13929,47.193466,-1.842804,52.72,19.84,12.864,98.7,15 / 20,1392915,2019-08-18 21:14:22:027,2.518,-0.8844,8.7605,2.4832,-0.9537,9.439,0.0152,0.0188,0.0018
13930,47.193466,-1.842804,52.72,19.84,12.864,98.7,15 / 20,1393014,2019-08-18 21:14:22:126,2.5976,-1.1837,9.5602,2.473,-0.9423,9.4428,0.0195,0.0113,-0.0013
13931,47.193466,-1.842804,52.72,19.84,12.864,98.7,15 / 20,1393114,2019-08-18 21:14:22:226,2.6269,-0.7653,10.1276,2.4753,-0.891,9.4472,0.0456,-0.0146,-0.0128
13932,47.193466,-1.842804,52.72,19.84,12.864,98.7,15 / 20,1393214,2019-08-18 21:14:22:326,2.6167,-0.7413,10.0641,2.4897,-0.8672,9.4456,0.0309,-0.0334,-0.0096
13933,47.193466,-1.842804,52.72,19.84,12.864,98.7,15 / 20,1393314,2019-08-18 21:14:22:426,3.1249,-1.061,10.4772,2.5375,-0.8383,9.4355,-0.0267,-0.0322,0.0036
13934,47.19314,-1.840516,55.29,20.17,10.72,101.3,15 / 20,1393414,2019-08-18 21:14:22:526,2.4863,-0.8557,9.5476,2.5575,-0.8622,9.4279,-0.0436,-0.0336,0.0066
13935,47.19314,-1.840516,55.29,20.17,10.72,101.3,15 / 20,1393514,2019-08-18 21:14:22:626,2.8119,-0.9353,9.6769,2.5749,-0.8958,9.4201,0.0003,0.0119,0.0031
13936,47.19314,-1.840516,55.29,20.17,10.72,101.3,15 / 20,1393614,2019-08-18 21:14:22:726,2.5539,-0.8467,9.2591,2.569,-0.8896,9.4223,0.0504,-0.0057,-0.0068
13937,47.19314,-1.840516,55.29,20.17,10.72,101.3,15 / 20,1393714,2019-08-18 21:14:22:826,2.8418,-0.7946,9.9666,2.581,-0.8323,9.4242,0.044,-0.0181,-0.0097
13938,47.19314,-1.840516,55.29,20.17,10.72,101.3,15 / 20,1393815,2019-08-18 21:14:22:927,2.7317,-0.6187,9.8882,2.597,-0.8174,9.4211,-0.019,-0.0238,0.0047
13939,47.19314,-1.840516,55.29,20.17,10.72,101.3,15 / 20,1393914,2019-08-18 21:14:23:026,2.5826,-0.5408,9.061,2.6217,-0.8397,9.4123,-0.0371,0.0004,0.0101
13940,47.19314,-1.840516,55.29,20.17,10.72,101.3,15 / 20,1394014,2019-08-18 21:14:23:126,2.5623,-0.8533,8.9155,2.6094,-0.8601,9.4139,-0.0247,0.0204,0.0094
13941,47.19314,-1.840516,55.29,20.17,10.72,101.3,15 / 20,1394114,2019-08-18 21:14:23:226,2.7227,-1.0795,9.2268,2.5904,-0.8609,9.4191,0.0114,0.0101,0.0035
13942,47.19314,-1.840516,55.29,20.17,10.72,101.3,15 / 20,1394215,2019-08-18 21:14:23:327,2.6664,-0.6815,10.2252,2.6024,-0.8419,9.4175,0.0278,-0.0328,-0.0087
13943,47.19314,-1.840516,55.29,20.17,10.72,101.3,16 / 20,1394314,2019-08-18 21:14:23:426,2.9214,-1.1789,10.1797,2.6427,-0.8029,9.4097,0.0377,-0.0363,-0.0132
13944,47.19314,-1.840516,55.29,20.17,10.72,101.3,16 / 20,1394414,2019-08-18 21:14:23:526,2.9011,-0.8611,10.2168,2.6683,-0.7809,9.4043,0.0139,-0.0272,-0.0062
13945,47.19314,-1.840516,55.29,20.17,10.72,101.3,16 / 20,1394514,2019-08-18 21:14:23:626,2.6748,-0.8078,9.5368,2.6951,-0.7684,9.3977,-0.0104,-0.0135,0.0026
13946,47.19314,-1.840516,55.29,20.17,10.72,101.3,16 / 20,1394614,2019-08-18 21:14:23:726,2.828,-0.6336,9.3992,2.7018,-0.778,9.395,-0.0306,-0.0064,0.0095
13947,47.19314,-1.840516,55.29,20.17,10.72,101.3,16 / 20,1394714,2019-08-18 21:14:23:826,2.6239,-0.4696,9.3579,2.7043,-0.7948,9.3928,-0.0258,0.0035,0.0121
13948,47.19314,-1.840516,55.29,20.17,10.72,101.3,16 / 20,1394814,2019-08-18 21:14:23:926,2.67,-0.6755,9.6751,2.7018,-0.8334,9.3902,-0.0174,-0.0069,0.0073
13949,47.19314,-1.840516,55.29,20.17,10.72,101.3,16 / 20,1394914,2019-08-18 21:14:24:026,2.8041,-0.9233,9.8427,2.7095,-0.8397,9.3874,0.0016,-0.0196,0.0009
13950,47.19314,-1.840516,55.29,20.17,10.72,101.3,16 / 20,1395014,2019-08-18 21:14:24:126,2.8244,-0.8054,9.9103,2.746,-0.8376,9.377,-0.0068,-0.0345,0.0019
13951,47.19314,-1.840516,55.29,20.17,10.72,101.3,16 / 20,1395115,2019-08-18 21:14:24:227,2.8957,-0.4864,9.0718,2.7605,-0.8444,9.3721,-0.0195,0.0353,0.0126
13952,47.19314,-1.840516,55.29,20.17,10.72,101.3,16 / 20,1395214,2019-08-18 21:14:24:326,2.6359,-0.6294,8.6869,2.7242,-0.8608,9.3813,0.0019,0.0448,0.0085
13953,47.19314,-1.840516,55.29,20.17,10.72,101.3,16 / 20,1395314,2019-08-18 21:14:24:426,2.6994,-0.7731,9.0903,2.6958,-0.8536,9.3901,0.0192,0.0324,0.004
13954,47.19314,-1.840516,55.29,20.17,10.72,101.3,16 / 20,1395415,2019-08-18 21:14:24:527,2.9837,-0.9461,9.7385,2.6972,-0.7969,9.3947,0.0522,-0.0161,-0.0107
13955,47.19314,-1.840516,55.29,20.17,10.72,101.3,16 / 20,1395514,2019-08-18 21:14:24:626,3.0543,-0.8024,10.2563,2.7104,-0.7682,9.3933,0.0346,-0.0146,-0.0069
13956,47.19314,-1.840516,55.29,20.17,10.72,101.3,16 / 20,1395615,2019-08-18 21:14:24:727,2.8125,-0.5301,9.8463,2.729,-0.7325,9.3908,0.0062,-0.0074,0.0002
13957,47.19314,-1.840516,55.29,20.17,10.72,101.3,16 / 20,1395714,2019-08-18 21:14:24:826,2.9017,-0.8102,9.6589,2.7325,-0.7452,9.3888,-0.0594,-0.0201,0.0174
13958,47.19314,-1.840516,55.29,20.17,10.72,101.3,16 / 20,1395814,2019-08-18 21:14:24:926,2.9914,-0.7767,9.8786,2.7585,-0.8178,9.3751,-0.0506,-0.0174,0.0133
13959,47.19314,-1.840516,55.29,20.17,10.72,101.3,16 / 20,1395914,2019-08-18 21:14:25:026,2.9777,-0.9568,9.8936,2.7659,-0.8465,9.3704,-0.0291,-0.0444,0.0048
13960,47.19314,-1.840516,55.29,20.17,10.72,101.3,16 / 20,1396015,2019-08-18 21:14:25:127,3.323,-0.8934,9.8319,2.8298,-0.8729,9.3488,-0.0013,-0.0583,-0.0034
13961,47.19314,-1.840516,55.29,20.17,10.72,101.3,16 / 20,1396114,2019-08-18 21:14:25:226,2.8244,-0.8066,8.5708,2.8432,-0.8681,9.3452,0.0093,-0.0245,-0.0006
13962,47.19314,-1.840516,55.29,20.17,10.72,101.3,16 / 20,1396215,2019-08-18 21:14:25:327,2.6102,-0.9981,8.0536,2.7984,-0.8421,9.3611,0.0286,0.0722,0.0062
13963,47.19314,-1.840516,55.29,20.17,10.72,101.3,16 / 20,1396314,2019-08-18 21:14:25:426,2.512,-0.6474,8.3487,2.7515,-0.8243,9.3766,0.0181,0.049,0.0067
13964,47.19314,-1.840516,55.29,20.17,10.72,101.3,16 / 20,1396414,2019-08-18 21:14:25:526,2.6533,-0.7282,8.7318,2.7179,-0.8029,9.3882,0.006,0.0087,0.0062
13965,47.19314,-1.840516,55.29,20.17,10.72,101.3,16 / 20,1396516,2019-08-18 21:14:25:628,2.8298,-0.7545,9.3543,2.7172,-0.7994,9.3887,0.0078,0.0001,0.0025
13966,47.19314,-1.840516,55.29,20.17,10.72,101.3,16 / 20,1396615,2019-08-18 21:14:25:727,2.8777,-0.7144,9.5823,2.7187,-0.7849,9.3895,0.018,0.0105,0.0007
13967,47.19314,-1.840516,55.29,20.17,10.72,101.3,16 / 20,1396714,2019-08-18 21:14:25:826,2.6551,-0.7898,9.5674,2.7108,-0.7743,9.3927,0.0128,0.0148,0.0032
13968,47.19314,-1.840516,55.29,20.17,10.72,101.3,16 / 20,1396814,2019-08-18 21:14:25:926,2.8095,-0.484,9.459,2.7054,-0.7478,9.3964,0.0241,-0.0018,-0.0023
13969,47.19314,-1.840516,55.29,20.17,10.72,101.3,16 / 20,1396914,2019-08-18 21:14:26:026,3.0082,-0.6737,9.3638,2.7108,-0.7411,9.3954,0.0219,-0.002,-0.0023
13970,47.19314,-1.840516,55.29,20.17,10.72,101.3,16 / 20,1397014,2019-08-18 21:14:26:126,2.8687,-0.5313,9.5428,2.714,-0.7132,9.3966,0.0224,0.0072,-0.0023
13971,47.19314,-1.840516,55.29,20.17,10.72,101.3,16 / 20,1397114,2019-08-18 21:14:26:226,2.7682,-0.7539,9.6434,2.7099,-0.7023,9.3986,0.0101,-0.0023,0.003
13972,47.19314,-1.840516,55.29,20.17,10.72,101.3,16 / 20,1397214,2019-08-18 21:14:26:326,2.9747,-0.9377,9.5219,2.7192,-0.6908,9.3967,0.0068,-0.0132,-0.0004
13973,47.19314,-1.840516,55.29,20.17,10.72,101.3,16 / 20,1397314,2019-08-18 21:14:26:426,2.9346,-0.7719,9.9905,2.7293,-0.684,9.3943,-0.0015,-0.0204,0.0016
13974,47.19314,-1.840516,55.29,20.17,10.72,101.3,16 / 20,1397415,2019-08-18 21:14:26:527,3.0375,-0.6953,9.6111,2.7564,-0.6807,9.3866,0.0051,-0.0203,-0.0022
13975,47.19314,-1.840516,55.29,20.17,10.72,101.3,16 / 20,1397514,2019-08-18 21:14:26:626,2.7508,-0.7396,9.5117,2.7654,-0.688,9.3835,-0.0267,-0.0078,0.0085
13976,47.19314,-1.840516,55.29,20.17,10.72,101.3,16 / 20,1397614,2019-08-18 21:14:26:726,2.6413,-0.7497,9.1723,2.7649,-0.7302,9.3804,-0.0367,0.0064,0.0135
13977,47.19314,-1.840516,55.29,20.17,10.72,101.3,16 / 20,1397714,2019-08-18 21:14:26:826,2.6964,-0.7467,9.5584,2.7513,-0.7499,9.3829,-0.0066,0.0115,0.0062
13978,47.19314,-1.840516,55.29,20.17,10.72,101.3,16 / 20,1397814,2019-08-18 21:14:26:926,2.9059,-0.6348,9.811,2.7526,-0.7514,9.3824,0.0116,-0.0282,-0.0024
13979,47.19314,-1.840516,55.29,20.17,10.72,101.3,16 / 20,1397915,2019-08-18 21:14:27:027,3.0645,-0.6773,10.112,2.7739,-0.7436,9.3767,-0.0034,-0.0365,0.0003
13980,47.19314,-1.840516,55.29,20.17,10.72,101.3,16 / 20,1398014,2019-08-18 21:14:27:126,2.8226,-0.8754,9.9624,2.821,-0.7811,9.3596,-0.0471,-0.0323,0.013
13981,47.19314,-1.840516,55.29,20.17,10.72,101.3,16 / 20,1398115,2019-08-18 21:14:27:227,2.6455,-0.7928,8.9251,2.8323,-0.8087,9.3538,-0.0553,-0.0067,0.0181
13982,47.19314,-1.840516,55.29,20.17,10.72,101.3,16 / 20,1398214,2019-08-18 21:14:27:326,2.579,-0.8527,8.4163,2.8289,-0.8401,9.3521,-0.0324,0.0292,0.0181
13983,47.19314,-1.840516,55.29,20.17,10.72,101.3,15 / 20,1398314,2019-08-18 21:14:27:426,2.4438,-0.9538,8.0536,2.7908,-0.8905,9.3589,-0.0114,0.0364,0.0166
13984,47.19314,-1.840516,55.29,20.17,10.72,101.3,15 / 20,1398414,2019-08-18 21:14:27:526,2.5808,-0.7264,9.0418,2.7711,-0.8947,9.3644,0.0085,0.014,0.006
13985,47.19314,-1.840516,55.29,20.17,10.72,101.3,15 / 20,1398516,2019-08-18 21:14:27:628,2.7335,-0.9293,9.4039,2.7503,-0.8861,9.3713,0.0181,0.0028,0.0017
13986,47.19314,-1.840516,55.29,20.17,10.72,101.3,15 / 20,1398614,2019-08-18 21:14:27:726,2.8538,-0.9856,10.1132,2.751,-0.8791,9.3717,-0.002,-0.0064,0.0
13987,47.19314,-1.840516,55.29,20.17,10.72,101.3,15 / 20,1398714,2019-08-18 21:14:27:826,2.7849,-1.3225,9.5536,2.7569,-0.8898,9.369,-0.0202,-0.005,-0.0047
13988,47.19314,-1.840516,55.29,20.17,10.72,101.3,15 / 20,1398814,2019-08-18 21:14:27:926,2.8053,-1.4453,9.4129,2.7593,-0.9135,9.366,-0.0122,0.0076,-0.0215
13989,47.19314,-1.840516,55.29,20.17,10.72,101.3,15 / 20,1398915,2019-08-18 21:14:28:027,2.8651,-1.6499,9.2483,2.753,-0.9376,9.3655,-0.0067,0.0067,-0.0196
13990,47.19314,-1.840516,55.29,20.17,10.72,101.3,15 / 20,1399014,2019-08-18 21:14:28:126,2.8358,-1.4393,9.3998,2.7492,-0.9487,9.3655,-0.0077,0.0033,-0.0194
13991,47.19314,-1.840516,55.29,20.17,10.72,101.3,15 / 20,1399114,2019-08-18 21:14:28:226,2.7137,-1.4548,9.3597,2.7478,-0.9597,9.3648,-0.0031,0.0028,-0.0188
13992,47.19314,-1.840516,55.29,20.17,10.72,101.3,15 / 20,1399215,2019-08-18 21:14:28:327,2.7993,-1.3124,9.6069,2.7477,-0.9644,9.3643,0.0055,0.0019,-0.0203
13993,47.19314,-1.840516,55.29,20.17,10.72,101.3,15 / 20,1399314,2019-08-18 21:14:28:426,2.7365,-1.4022,9.295,2.7463,-0.9559,9.3656,0.0087,0.0049,-0.0155
13994,47.19314,-1.840516,55.29,20.17,10.72,101.3,15 / 20,1399414,2019-08-18 21:14:28:526,2.7766,-1.2304,9.4668,2.7446,-0.955,9.3662,0.0105,0.0076,-0.0154
13995,47.19314,-1.840516,55.29,20.17,10.72,101.3,15 / 20,1399514,2019-08-18 21:14:28:626,2.8089,-1.2322,9.6284,2.7378,-0.9436,9.3693,0.0021,0.0014,-0.0116
13996,47.19314,-1.840516,55.29,20.17,10.72,101.3,15 / 20,1399615,2019-08-18 21:14:28:727,2.6042,-0.9371,9.4052,2.7369,-0.9436,9.3696,0.0003,0.0019,-0.0062
13997,47.19314,-1.840516,55.29,20.17,10.72,101.3,15 / 20,1399714,2019-08-18 21:14:28:826,2.7089,-0.9233,9.3704,2.7259,-0.9376,9.3734,-0.0065,0.0096,0.0057
13998,47.19314,-1.840516,55.29,20.17,10.72,101.3,15 / 20,1399814,2019-08-18 21:14:28:926,2.697,-0.9239,9.4195,2.7189,-0.9426,9.3749,-0.0172,0.0083,0.0094
13999,47.19314,-1.840516,55.29,20.17,10.72,101.3,15 / 20,1399914,2019-08-18 21:14:29:026,2.3863,-0.8317,9.3872,2.7047,-0.97,9.3763,-0.0236,0.0054,0.0117
14000,47.19314,-1.840516,55.29,20.17,10.72,101.3,15 / 20,1400014,2019-08-18 21:14:29:126,2.7287,-0.8652,9.4536,2.6963,-0.9863,9.377,-0.0177,0.0066,0.009
14001,47.19314,-1.840516,55.29,20.17,10.72,101.3,15 / 20,1400114,2019-08-18 21:14:29:226,2.7095,-0.9526,9.535,2.6899,-0.9949,9.3779,0.0006,-0.0038,0.0035
14002,47.19314,-1.840516,55.29,20.17,10.72,101.3,15 / 20,1400215,2019-08-18 21:14:29:327,2.6251,-0.7635,9.7691,2.6944,-0.9974,9.3763,-0.0044,-0.0122,0.0029
14003,47.19314,-1.840516,55.29,20.17,10.72,101.3,14 / 20,1400314,2019-08-18 21:14:29:426,2.7843,-1.2717,9.8187,2.7179,-0.9965,9.3697,0.0049,-0.0232,0.001
14004,47.19314,-1.840516,55.29,20.17,10.72,101.3,14 / 20,1400414,2019-08-18 21:14:29:526,2.8645,-1.0993,9.4393,2.7277,-0.9929,9.3672,0.0102,0.0011,0.0017
14005,47.19314,-1.840516,55.29,20.17,10.72,101.3,14 / 20,1400514,2019-08-18 21:14:29:626,2.8292,-0.9437,9.5883,2.7218,-0.9768,9.3706,0.0177,0.01,0.0012
14006,47.19314,-1.840516,55.29,20.17,10.72,101.3,14 / 20,1400614,2019-08-18 21:14:29:726,2.7287,-1.0352,9.7266,2.7172,-0.9592,9.3738,0.0214,-0.0085,-0.0031
14007,47.19314,-1.840516,55.29,20.17,10.72,101.3,14 / 20,1400714,2019-08-18 21:14:29:826,2.5383,-0.8778,9.5219,2.7278,-0.9367,9.373,0.0137,-0.012,-0.0005
14008,47.19314,-1.840516,55.29,20.17,10.72,101.3,14 / 20,1400814,2019-08-18 21:14:29:926,2.6413,-1.1927,9.6913,2.7262,-0.9308,9.374,0.0067,0.0004,0.0017
14009,47.19314,-1.840516,55.29,20.17,10.72,101.3,14 / 20,1400914,2019-08-18 21:14:30:026,2.7035,-1.2633,9.392,2.7199,-0.9067,9.3782,0.0234,0.0017,-0.0047
14010,47.19314,-1.840516,55.29,20.17,10.72,101.3,14 / 20,1401014,2019-08-18 21:14:30:126,2.5898,-0.8916,9.8163,2.714,-0.8821,9.3822,0.0352,-0.003,-0.0092
14011,47.19314,-1.840516,55.29,20.17,10.72,101.3,14 / 20,1401114,2019-08-18 21:14:30:226,2.5407,-0.7934,9.5344,2.7227,-0.8539,9.3823,-0.0122,-0.0135,0.0047
14012,47.19314,-1.840516,55.29,20.17,10.72,101.3,14 / 20,1401214,2019-08-18 21:14:30:326,2.53,-0.7856,9.149,2.7256,-0.8619,9.3808,-0.013,0.0023,0.0047
14013,47.19314,-1.840516,55.29,20.17,10.72,101.3,Dec-20,1401315,2019-08-18 21:14:30:427,2.6545,-1.0724,9.3255,2.7183,-0.8727,9.3819,-0.0045,0.0222,0.0041
14014,47.19314,-1.840516,55.29,20.17,10.72,101.3,Dec-20,1401414,2019-08-18 21:14:30:526,2.6078,-0.9239,9.0466,2.687,-0.8875,9.3895,-0.0008,0.0116,0.0019
14015,47.19314,-1.840516,55.29,20.17,10.72,101.3,Dec-20,1401514,2019-08-18 21:14:30:626,2.5671,-0.9371,9.5668,2.6806,-0.8894,9.3911,-0.0015,0.0068,0.0061
14016,47.19314,-1.840516,55.29,20.17,10.72,101.3,Dec-20,1401615,2019-08-18 21:14:30:727,2.4366,-0.6049,9.4297,2.6689,-0.8954,9.3939,-0.0126,-0.0071,0.0053
14017,47.19314,-1.840516,55.29,20.17,10.72,101.3,Dec-20,1401714,2019-08-18 21:14:30:826,2.4803,-0.8874,9.3746,2.6696,-0.9032,9.393,-0.03,0.0085,0.0098
14018,47.19314,-1.840516,55.29,20.17,10.72,101.3,Dec-20,1401814,2019-08-18 21:14:30:926,2.5341,-1.1083,9.7762,2.6537,-0.9354,9.3943,-0.0203,0.0106,0.0074
14019,47.19314,-1.840516,55.29,20.17,10.72,101.3,Dec-20,1401915,2019-08-18 21:14:31:027,2.5204,-0.9401,9.6512,2.6498,-0.9469,9.3943,-0.0091,-0.0124,0.0031
14020,47.19314,-1.840516,55.29,20.17,10.72,101.3,Dec-20,1402014,2019-08-18 21:14:31:126,2.5689,-0.9323,9.4806,2.6604,-0.9638,9.3896,-0.0115,-0.0154,0.0022
14021,47.19314,-1.840516,55.29,20.17,10.72,101.3,Dec-20,1402117,2019-08-18 21:14:31:229,2.5856,-1.1436,9.6338,2.664,-0.9715,9.3877,-0.017,-0.0006,0.0082
14022,47.19314,-1.840516,55.29,20.17,10.72,101.3,Dec-20,1402214,2019-08-18 21:14:31:326,2.4773,-1.2902,9.5243,2.6622,-0.9881,9.3865,0.0011,-0.0064,0.0014
14023,47.19283,-1.838256,50.85,19.51,13.936001,101.3,Dec-20,1402314,2019-08-18 21:14:31:426,2.6521,-1.1238,9.6715,2.6648,-0.988,9.3858,0.0183,0.0008,-0.0023
14024,47.19283,-1.838256,50.85,19.51,13.936001,101.3,Dec-20,1402414,2019-08-18 21:14:31:526,2.6461,-1.1585,9.6105,2.6605,-0.965,9.3894,0.0287,0.0024,-0.0057
14025,47.19283,-1.838256,50.85,19.51,13.936001,101.3,Dec-20,1402513,2019-08-18 21:14:31:625,2.5336,-0.9538,9.459,2.6559,-0.9447,9.3928,0.0198,0.0001,-0.002
14026,47.19283,-1.838256,50.85,19.51,13.936001,101.3,Dec-20,1402614,2019-08-18 21:14:31:726,2.5365,-1.0849,9.3052,2.6459,-0.9149,9.3985,0.0106,0.0092,0.0023
14027,47.19283,-1.838256,50.85,19.51,13.936001,101.3,Dec-20,1402714,2019-08-18 21:14:31:826,2.618,-0.9335,9.4548,2.6392,-0.9121,9.4007,0.0057,0.0097,0.0009
14028,47.19283,-1.838256,50.85,19.51,13.936001,101.3,Dec-20,1402815,2019-08-18 21:14:31:927,2.5976,-1.0311,9.4034,2.621,-0.9071,9.4063,-0.0003,0.0093,0.0029
14029,47.19283,-1.838256,50.85,19.51,13.936001,101.3,Dec-20,1402914,2019-08-18 21:14:32:026,2.4946,-1.0622,9.5195,2.6144,-0.9076,9.408,0.0042,0.0064,0.0016
14030,47.19283,-1.838256,50.85,19.51,13.936001,101.3,Dec-20,1403014,2019-08-18 21:14:32:126,2.4276,-0.9945,9.7589,2.6089,-0.9031,9.41,-0.0086,-0.0012,0.005
14031,47.19283,-1.838256,50.85,19.51,13.936001,101.3,Dec-20,1403114,2019-08-18 21:14:32:226,2.5036,-1.1951,9.4955,2.6059,-0.9098,9.4102,-0.004,0.0019,0.0036
14032,47.19283,-1.838256,50.85,19.51,13.936001,101.3,Dec-20,1403215,2019-08-18 21:14:32:327,2.2283,-0.9125,9.2154,2.5969,-0.9051,9.4132,0.0023,0.0082,0.0018
14033,47.19283,-1.838256,50.85,19.51,13.936001,101.3,Dec-19,1403314,2019-08-18 21:14:32:426,2.503,-0.9012,10.0205,2.5884,-0.9064,9.4154,0.0047,0.007,0.0026
14034,47.19283,-1.838256,50.85,19.51,13.936001,101.3,Dec-19,1403414,2019-08-18 21:14:32:526,2.4677,-0.8455,9.6679,2.5817,-0.8899,9.4188,0.0091,-0.0077,-0.0013
14035,47.19283,-1.838256,50.85,19.51,13.936001,101.3,Dec-19,1403515,2019-08-18 21:14:32:627,2.8424,-1.1304,9.8397,2.59,-0.8831,9.4171,0.0129,-0.02,-0.0051
14036,47.19283,-1.838256,50.85,19.51,13.936001,101.3,Dec-19,1403614,2019-08-18 21:14:32:726,2.5503,-0.979,9.6835,2.6045,-0.872,9.4142,0.0019,-0.0064,-0.0041
14037,47.19283,-1.838256,50.85,19.51,13.936001,101.3,Dec-19,1403714,2019-08-18 21:14:32:826,2.7035,-1.3848,9.3052,2.5985,-0.875,9.4155,0.0092,0.0144,-0.009
14038,47.19283,-1.838256,50.85,19.51,13.936001,101.3,Dec-19,1403814,2019-08-18 21:14:32:926,2.4935,-1.0867,9.3501,2.5839,-0.8678,9.4202,0.0132,0.0075,-0.011
14039,47.19283,-1.838256,50.85,19.51,13.936001,101.3,Dec-19,1403915,2019-08-18 21:14:33:027,2.6174,-1.0969,9.2848,2.5822,-0.8571,9.4217,0.0205,0.0092,-0.0128
14040,47.19283,-1.838256,50.85,19.51,13.936001,101.3,Dec-19,1404014,2019-08-18 21:14:33:126,2.6263,-1.1759,9.4488,2.5729,-0.8375,9.426,0.0115,0.0085,-0.013
14041,47.19283,-1.838256,50.85,19.51,13.936001,101.3,Dec-19,1404114,2019-08-18 21:14:33:226,2.6862,-1.2609,9.5075,2.5705,-0.832,9.4271,0.0185,0.0126,-0.0146
14042,47.19283,-1.838256,50.85,19.51,13.936001,101.3,Dec-19,1404214,2019-08-18 21:14:33:326,2.5904,-1.1508,9.3465,2.5573,-0.8152,9.4322,0.0123,0.0129,-0.0155
14043,47.19283,-1.838256,50.85,19.51,13.936001,101.3,Nov-20,1404314,2019-08-18 21:14:33:426,2.7616,-0.9119,9.5733,2.5574,-0.8148,9.4322,-0.0032,-0.0053,-0.0074
14044,47.19283,-1.838256,50.85,19.51,13.936001,101.3,Nov-20,1404414,2019-08-18 21:14:33:526,2.609,-1.0849,9.2968,2.5728,-0.8276,9.4269,-0.0237,-0.0135,-0.0052
14045,47.19283,-1.838256,50.85,19.51,13.936001,101.3,Nov-20,1404514,2019-08-18 21:14:33:626,2.7413,-0.9586,9.4626,2.5805,-0.8446,9.4233,-0.0175,0.0015,-0.0083
14046,47.19283,-1.838256,50.85,19.51,13.936001,101.3,Nov-20,1404614,2019-08-18 21:14:33:726,2.5288,-0.8736,9.1095,2.5788,-0.8555,9.4228,-0.0154,0.0139,-0.0064
14047,47.19283,-1.838256,50.85,19.51,13.936001,101.3,Nov-20,1404714,2019-08-18 21:14:33:826,2.5844,-1.0275,9.225,2.5658,-0.8644,9.4255,0.0119,0.0157,-0.0112
14048,47.19283,-1.838256,50.85,19.51,13.936001,101.3,Nov-20,1404815,2019-08-18 21:14:33:927,2.7305,-1.0562,9.3938,2.5579,-0.8526,9.4287,0.006,-0.005,-0.0132
14049,47.19283,-1.838256,50.85,19.51,13.936001,101.3,Nov-20,1404915,2019-08-18 21:14:34:027,2.1672,-0.8665,9.3662,2.5624,-0.8448,9.4282,-0.0001,-0.003,-0.0108
14050,47.19283,-1.838256,50.85,19.51,13.936001,101.3,Nov-20,1405014,2019-08-18 21:14:34:126,2.4821,-1.0496,9.0412,2.5617,-0.8434,9.4285,0.0122,0.0312,-0.0125
14051,47.19283,-1.838256,50.85,19.51,13.936001,101.3,Nov-20,1405115,2019-08-18 21:14:34:227,2.6132,-1.2118,9.1956,2.5298,-0.8299,9.4383,0.0262,0.0289,-0.0152
14052,47.19283,-1.838256,50.85,19.51,13.936001,101.3,Nov-20,1405214,2019-08-18 21:14:34:326,2.6293,-1.1502,9.4566,2.5224,-0.8136,9.4417,0.0345,0.0081,-0.0184
14053,47.19283,-1.838256,50.85,19.51,13.936001,101.3,Nov-20,1405315,2019-08-18 21:14:34:427,2.667,-1.0119,9.6158,2.5441,-0.7819,9.4386,0.0105,-0.0173,-0.0158
14054,47.19283,-1.838256,50.85,19.51,13.936001,101.3,Nov-20,1405414,2019-08-18 21:14:34:526,2.6688,-1.1681,9.6829,2.5501,-0.7787,9.4372,-0.0011,0.0131,-0.0124
14055,47.19283,-1.838256,50.85,19.51,13.936001,101.3,Nov-20,1405515,2019-08-18 21:14:34:627,2.6766,-1.043,9.9139,2.5357,-0.7777,9.4412,0.0083,0.014,-0.0158
14056,47.19283,-1.838256,50.85,19.51,13.936001,101.3,Nov-20,1405614,2019-08-18 21:14:34:726,2.7538,-1.2304,9.3638,2.5355,-0.7731,9.4416,-0.005,-0.0181,-0.0107
14057,47.19283,-1.838256,50.85,19.51,13.936001,101.3,Nov-20,1405714,2019-08-18 21:14:34:826,2.4091,-0.9401,9.0137,2.5576,-0.7783,9.4352,0.016,0.0186,-0.0156
14058,47.19283,-1.838256,50.85,19.51,13.936001,101.3,Nov-20,1405814,2019-08-18 21:14:34:926,2.5742,-1.1717,9.3836,2.5462,-0.7669,9.4392,0.0231,0.0394,-0.017
14059,47.19283,-1.838256,50.85,19.51,13.936001,101.3,Nov-20,1405914,2019-08-18 21:14:35:026,2.694,-0.9263,9.8547,2.5162,-0.7554,9.4482,0.0069,-0.0086,-0.0105
14060,47.19283,-1.838256,50.85,19.51,13.936001,101.3,Nov-20,1406014,2019-08-18 21:14:35:126,2.7059,-0.7713,9.6703,2.5255,-0.7526,9.4459,-0.0088,-0.0139,-0.0117
14061,47.19283,-1.838256,50.85,19.51,13.936001,101.3,Nov-20,1406115,2019-08-18 21:14:35:227,2.4539,-0.9413,9.6907,2.5313,-0.7664,9.4433,-0.028,0.0099,-0.0059
14062,47.19283,-1.838256,50.85,19.51,13.936001,101.3,Nov-20,1406214,2019-08-18 21:14:35:326,2.7167,-1.2016,9.6589,2.5263,-0.7809,9.4434,-0.0294,0.0032,-0.0032
14063,47.19283,-1.838256,50.85,19.51,13.936001,101.3,Dec-20,1406314,2019-08-18 21:14:35:426,2.6754,-0.715,9.6284,2.5319,-0.8167,9.4389,-0.0254,-0.0091,-0.0065
14064,47.19283,-1.838256,50.85,19.51,13.936001,101.3,Dec-20,1406414,2019-08-18 21:14:35:526,2.7496,-1.2154,9.3136,2.5378,-0.8277,9.4364,-0.0112,-0.0081,-0.0119
14065,47.19283,-1.838256,50.85,19.51,13.936001,101.3,Dec-20,1406514,2019-08-18 21:14:35:626,2.5797,-0.9419,9.4357,2.5443,-0.8553,9.4321,-0.0169,0.0028,-0.0083
14066,47.19283,-1.838256,50.85,19.51,13.936001,101.3,Dec-20,1406614,2019-08-18 21:14:35:726,2.7029,-1.377,9.5769,2.5416,-0.8626,9.4322,0.0028,0.0013,-0.0155
14067,47.19283,-1.838256,50.85,19.51,13.936001,101.3,Dec-20,1406714,2019-08-18 21:14:35:826,2.6563,-1.2747,9.6631,2.5449,-0.8659,9.431,0.0019,-0.0054,-0.021
14068,47.19283,-1.838256,50.85,19.51,13.936001,101.3,Dec-20,1406814,2019-08-18 21:14:35:926,2.8711,-1.4255,9.6104,2.5502,-0.8675,9.4294,-0.0025,-0.0026,-0.0386
14069,47.19283,-1.838256,50.85,19.51,13.936001,101.3,Dec-20,1406915,2019-08-18 21:14:36:027,2.7012,-1.5482,9.1645,2.5615,-0.8807,9.4252,-0.0028,0.0045,-0.0486
14070,47.19283,-1.838256,50.85,19.51,13.936001,101.3,Dec-20,1407014,2019-08-18 21:14:36:126,2.6646,-1.6182,9.2346,2.559,-0.8883,9.4251,-0.0112,0.0191,-0.0491
14071,47.19283,-1.838256,50.85,19.51,13.936001,101.3,Dec-20,1407114,2019-08-18 21:14:36:226,2.5695,-1.5177,9.0795,2.5483,-0.9048,9.4264,-0.0024,0.0161,-0.0507
14072,47.19283,-1.838256,50.85,19.51,13.936001,101.3,Dec-20,1407214,2019-08-18 21:14:36:326,2.7047,-1.5596,9.4644,2.5432,-0.9042,9.4279,0.016,0.0169,-0.0596
14073,47.19283,-1.838256,50.85,19.51,13.936001,101.3,13 / 20,1407315,2019-08-18 21:14:36:427,2.825,-1.708,9.535,2.5424,-0.9008,9.4284,0.005,0.0042,-0.0569
14074,47.19283,-1.838256,50.85,19.51,13.936001,101.3,13 / 20,1407415,2019-08-18 21:14:36:527,2.7951,-1.6811,9.1741,2.5579,-0.8959,9.4247,0.0068,-0.0054,-0.0615
14075,47.19283,-1.838256,50.85,19.51,13.936001,101.3,13 / 20,1407514,2019-08-18 21:14:36:626,2.6054,-1.7302,8.6905,2.5617,-0.895,9.4238,0.0046,0.0204,-0.0618
14076,47.19283,-1.838256,50.85,19.51,13.936001,101.3,13 / 20,1407614,2019-08-18 21:14:36:726,2.6114,-1.7391,8.8222,2.5432,-0.8906,9.4292,0.0251,0.0582,-0.073
14077,47.19283,-1.838256,50.85,19.51,13.936001,101.3,13 / 20,1407714,2019-08-18 21:14:36:826,2.6281,-2.0797,9.2358,2.5197,-0.8831,9.4362,0.0477,0.0235,-0.0849
14078,47.19283,-1.838256,50.85,19.51,13.936001,101.3,13 / 20,1407814,2019-08-18 21:14:36:926,2.776,-1.8361,9.8469,2.4993,-0.8468,9.4449,0.0239,-0.0008,-0.0816
14079,47.19283,-1.838256,50.85,19.51,13.936001,101.3,13 / 20,1407914,2019-08-18 21:14:37:026,3.0645,-1.8834,10.7082,2.5113,-0.8386,9.4425,-0.0351,-0.0459,-0.075
14080,47.19283,-1.838256,50.85,19.51,13.936001,101.3,13 / 20,1408014,2019-08-18 21:14:37:126,3.3039,-1.8307,10.7076,2.5803,-0.87,9.421,-0.0418,-0.0476,-0.071
14081,47.19283,-1.838256,50.85,19.51,13.936001,101.3,13 / 20,1408114,2019-08-18 21:14:37:226,2.6323,-2.4634,8.8042,2.616,-0.9036,9.408,-0.0408,0.0154,-0.0642
14082,47.19283,-1.838256,50.85,19.51,13.936001,101.3,13 / 20,1408214,2019-08-18 21:14:37:326,2.8628,-2.2443,8.7264,2.6182,-0.9525,9.4026,-0.0151,0.0311,-0.073
14083,47.19283,-1.838256,50.85,19.51,13.936001,101.3,15 / 20,1408314,2019-08-18 21:14:37:426,2.9304,-2.2018,9.3758,2.6101,-0.9803,9.402,-0.006,-0.0097,-0.0816
14084,47.19283,-1.838256,50.85,19.51,13.936001,101.3,15 / 20,1408415,2019-08-18 21:14:37:527,2.9849,-1.9151,9.5967,2.6457,-1.006,9.3893,-0.0285,-0.0247,-0.0799
14085,47.19283,-1.838256,50.85,19.51,13.936001,101.3,15 / 20,1408514,2019-08-18 21:14:37:626,2.8388,-1.7643,9.0347,2.6665,-1.0231,9.3816,-0.0385,0.0054,-0.0752
14086,47.19283,-1.838256,50.85,19.51,13.936001,101.3,15 / 20,1408614,2019-08-18 21:14:37:726,2.9124,-2.1515,9.0263,2.6746,-1.0727,9.3737,-0.0285,0.0262,-0.0735
14087,47.19283,-1.838256,50.85,19.51,13.936001,101.3,15 / 20,1408714,2019-08-18 21:14:37:826,2.8849,-1.9672,9.0346,2.6643,-1.0848,9.3752,-0.021,0.02,-0.0742
14088,47.19283,-1.838256,50.85,19.51,13.936001,101.3,15 / 20,1408815,2019-08-18 21:14:37:927,3.1315,-2.0246,9.5075,2.6683,-1.1086,9.3713,-0.0414,-0.0209,-0.0746
14089,47.19283,-1.838256,50.85,19.51,13.936001,101.3,15 / 20,1408914,2019-08-18 21:14:38:026,3.1806,-1.9121,8.9862,2.6876,-1.1304,9.3632,-0.0376,-0.0231,-0.0758
14090,47.19283,-1.838256,50.85,19.51,13.936001,101.3,15 / 20,1409014,2019-08-18 21:14:38:126,3.0723,-1.8421,8.8192,2.729,-1.1758,9.3456,-0.0322,0.0,-0.0759
14091,47.19283,-1.838256,50.85,19.51,13.936001,101.3,15 / 20,1409114,2019-08-18 21:14:38:226,3.0776,-2.0444,8.7827,2.7226,-1.1915,9.3455,-0.0199,0.0394,-0.0727
14092,47.19283,-1.838256,50.85,19.51,13.936001,101.3,15 / 20,1409214,2019-08-18 21:14:38:326,3.2925,-1.9037,9.3722,2.7159,-1.2109,9.345,0.0064,0.0083,-0.0849
14093,47.19283,-1.838256,50.85,19.51,13.936001,101.3,15 / 20,1409314,2019-08-18 21:14:38:426,3.1016,-2.0875,9.0921,2.7266,-1.2038,9.3428,-0.004,0.0152,-0.0804
14094,47.19283,-1.838256,50.85,19.51,13.936001,101.3,15 / 20,1409414,2019-08-18 21:14:38:526,3.2267,-1.8924,9.3668,2.7271,-1.2021,9.3428,-0.0008,0.0203,-0.0785
14095,47.19283,-1.838256,50.85,19.51,13.936001,101.3,15 / 20,1409514,2019-08-18 21:14:38:626,3.2386,-1.8122,9.6733,2.7315,-1.1992,9.3419,-0.0018,0.001,-0.0831
14096,47.19283,-1.838256,50.85,19.51,13.936001,101.3,15 / 20,1409614,2019-08-18 21:14:38:726,3.3446,-1.978,9.4883,2.7648,-1.2086,9.3309,-0.0185,-0.0116,-0.0803
14097,47.19283,-1.838256,50.85,19.51,13.936001,101.3,15 / 20,1409714,2019-08-18 21:14:38:826,3.1794,-2.0707,9.2615,2.7852,-1.2122,9.3243,-0.0161,-0.0014,-0.0792
14098,47.19283,-1.838256,50.85,19.51,13.936001,101.3,15 / 20,1409814,2019-08-18 21:14:38:926,3.2147,-1.696,9.5225,2.8082,-1.2196,9.3165,-0.0154,-0.0054,-0.0782
14099,47.19283,-1.838256,50.85,19.51,13.936001,101.3,15 / 20,1409914,2019-08-18 21:14:39:026,3.1848,-2.1043,9.3273,2.8234,-1.2273,9.3109,-0.0092,-0.0072,-0.082
14100,47.19283,-1.838256,50.85,19.51,13.936001,101.3,15 / 20,1410014,2019-08-18 21:14:39:126,3.1351,-1.9097,9.1939,2.8477,-1.2432,9.3014,-0.0212,0.0097,-0.0796
14101,47.19283,-1.838256,50.85,19.51,13.936001,101.3,15 / 20,1410114,2019-08-18 21:14:39:226,3.1812,-1.9037,8.9299,2.8523,-1.2434,9.2999,-0.0128,0.0093,-0.0803
14102,47.19283,-1.838256,50.85,19.51,13.936001,101.3,15 / 20,1410214,2019-08-18 21:14:39:326,3.3589,-2.1198,9.2585,2.8799,-1.284,9.2859,-0.0395,-0.0022,-0.0827
14103,47.19283,-1.838256,50.85,19.51,13.936001,101.3,16 / 20,1410314,2019-08-18 21:14:39:426,3.4697,-2.1432,9.2621,2.8896,-1.2935,9.2816,-0.0141,0.0051,-0.094
14104,47.19283,-1.838256,50.85,19.51,13.936001,101.3,16 / 20,1410415,2019-08-18 21:14:39:527,3.2057,-2.0677,8.8958,2.9077,-1.3228,9.2718,-0.0348,0.015,-0.0899
14105,47.19283,-1.838256,50.85,19.51,13.936001,101.3,16 / 20,1410514,2019-08-18 21:14:39:626,3.3129,-2.1162,9.0221,2.9074,-1.3311,9.2707,-0.009,0.0227,-0.0966
14106,47.19283,-1.838256,50.85,19.51,13.936001,101.3,16 / 20,1410614,2019-08-18 21:14:39:726,3.1704,-2.2653,8.894,2.9099,-1.3408,9.2685,-0.0161,0.0189,-0.0964
14107,47.19283,-1.838256,50.85,19.51,13.936001,101.3,16 / 20,1410714,2019-08-18 21:14:39:826,3.4314,-2.1084,9.0783,2.9107,-1.3387,9.2686,0.0005,0.0264,-0.0944
14108,47.19283,-1.838256,50.85,19.51,13.936001,101.3,16 / 20,1410814,2019-08-18 21:14:39:926,3.1519,-2.145,9.5308,2.9185,-1.3418,9.2657,-0.0197,-0.0127,-0.09
14109,47.19283,-1.838256,50.85,19.51,13.936001,101.3,16 / 20,1410914,2019-08-18 21:14:40:026,3.2644,-1.9055,9.3291,2.9418,-1.3459,9.2577,-0.0206,-0.002,-0.0865
14110,47.19283,-1.838256,50.85,19.51,13.936001,101.3,16 / 20,1411014,2019-08-18 21:14:40:126,3.2392,-1.9857,8.9245,2.9518,-1.3516,9.2537,-0.0179,0.0243,-0.0813
14111,47.19283,-1.838256,50.85,19.51,13.936001,101.3,16 / 20,1411114,2019-08-18 21:14:40:226,3.1285,-1.7906,8.6671,2.9486,-1.3642,9.2528,-0.0145,0.0265,-0.0819
14112,47.19283,-1.838256,50.85,19.51,13.936001,101.3,16 / 20,1411214,2019-08-18 21:14:40:326,3.3793,-2.0354,9.1789,2.9453,-1.3683,9.2533,-0.0197,0.0124,-0.0776
14113,47.19283,-1.838256,50.85,19.51,13.936001,101.3,16 / 20,1411314,2019-08-18 21:14:40:426,3.1608,-1.7978,9.2028,2.9498,-1.3703,9.2516,-0.0127,0.0052,-0.0777
14114,47.19236,-1.836047,49.84,18.96,11.792,114.1,16 / 20,1411414,2019-08-18 21:14:40:526,3.1878,-1.3704,9.0257,2.9566,-1.374,9.2488,-0.0053,0.0084,-0.0736
14115,47.19236,-1.836047,49.84,18.96,11.792,114.1,16 / 20,1411514,2019-08-18 21:14:40:626,3.2835,-1.7798,9.483,2.9687,-1.3662,9.2461,-0.0119,0.0107,-0.0689
14116,47.19236,-1.836047,49.84,18.96,11.792,114.1,16 / 20,1411614,2019-08-18 21:14:40:726,3.2081,-1.708,9.6984,2.9752,-1.3685,9.2437,-0.0206,-0.0187,-0.0709
14117,47.19236,-1.836047,49.84,18.96,11.792,114.1,16 / 20,1411714,2019-08-18 21:14:40:826,3.0872,-1.4387,9.5727,3.0114,-1.3755,9.2309,-0.0282,-0.0239,-0.0683
14118,47.19236,-1.836047,49.84,18.96,11.792,114.1,16 / 20,1411815,2019-08-18 21:14:40:927,3.1638,-1.623,9.4087,3.0358,-1.3828,9.2218,-0.0289,-0.016,-0.066
14119,47.19236,-1.836047,49.84,18.96,11.792,114.1,16 / 20,1411915,2019-08-18 21:14:41:027,3.2973,-1.8092,9.3249,3.0555,-1.4111,9.211,-0.0453,-0.0035,-0.0594
14120,47.19236,-1.836047,49.84,18.96,11.792,114.1,16 / 20,1412015,2019-08-18 21:14:41:127,3.3087,-1.6158,9.3932,3.066,-1.4387,9.2033,-0.0446,-0.0013,-0.0596
14121,47.19236,-1.836047,49.84,18.96,11.792,114.1,16 / 20,1412114,2019-08-18 21:14:41:226,3.2309,-1.5249,9.3363,3.0914,-1.4754,9.1889,-0.0419,-0.0172,-0.0642
14122,47.19236,-1.836047,49.84,18.96,11.792,114.1,16 / 20,1412215,2019-08-18 21:14:41:327,3.3931,-1.6841,9.371,3.1114,-1.4918,9.1795,-0.0289,-0.006,-0.0606
14123,47.19236,-1.836047,49.84,18.96,11.792,114.1,16 / 20,1412314,2019-08-18 21:14:41:426,3.2057,-1.7206,9.1011,3.1235,-1.5146,9.1717,-0.0358,0.02,-0.0544
14124,47.19236,-1.836047,49.84,18.96,11.792,114.1,16 / 20,1412414,2019-08-18 21:14:41:526,3.1333,-1.7643,8.9359,3.119,-1.5256,9.1714,-0.0352,0.0223,-0.0561
14125,47.19236,-1.836047,49.84,18.96,11.792,114.1,16 / 20,1412515,2019-08-18 21:14:41:627,3.1764,-1.6601,9.2417,3.1108,-1.5495,9.1702,-0.0289,0.0157,-0.0603
14126,47.19236,-1.836047,49.84,18.96,11.792,114.1,16 / 20,1412614,2019-08-18 21:14:41:726,3.1411,-1.8493,9.4435,3.1189,-1.5564,9.1663,-0.0278,-0.0117,-0.0627
14127,47.19236,-1.836047,49.84,18.96,11.792,114.1,16 / 20,1412714,2019-08-18 21:14:41:826,3.1806,-1.8702,9.2932,3.1475,-1.5723,9.1538,-0.0367,0.0018,-0.0535
14128,47.19236,-1.836047,49.84,18.96,11.792,114.1,16 / 20,1412814,2019-08-18 21:14:41:926,3.0764,-1.5249,9.0825,3.1509,-1.5839,9.1506,-0.035,0.0175,-0.0509
14129,47.19236,-1.836047,49.84,18.96,11.792,114.1,16 / 20,1412914,2019-08-18 21:14:42:026,3.1872,-1.5404,8.9161,3.1362,-1.6114,9.1508,-0.0421,0.0246,-0.05
14130,47.19236,-1.836047,49.84,18.96,11.792,114.1,16 / 20,1413015,2019-08-18 21:14:42:127,3.2895,-1.6446,9.0418,3.1286,-1.6277,9.1506,-0.0328,0.0141,-0.0531
14131,47.19236,-1.836047,49.84,18.96,11.792,114.1,16 / 20,1413114,2019-08-18 21:14:42:226,3.2841,-1.8205,9.3543,3.1416,-1.6369,9.1445,-0.0125,-0.0059,-0.0526
14132,47.19236,-1.836047,49.84,18.96,11.792,114.1,16 / 20,1413214,2019-08-18 21:14:42:326,3.2704,-1.5883,9.3651,3.149,-1.6242,9.1442,0.0015,0.0045,-0.0509
14133,47.19236,-1.836047,49.84,18.96,11.792,114.1,16 / 20,1413315,2019-08-18 21:14:42:427,3.1644,-1.234,9.4662,3.1478,-1.6061,9.1478,-0.0113,0.0074,-0.0376
14134,47.19236,-1.836047,49.84,18.96,11.792,114.1,16 / 20,1413414,2019-08-18 21:14:42:526,3.2416,-1.3166,9.5626,3.1485,-1.5946,9.1496,-0.0003,0.0004,-0.041
14135,47.19236,-1.836047,49.84,18.96,11.792,114.1,16 / 20,1413514,2019-08-18 21:14:42:626,3.2428,-1.2831,9.5662,3.1673,-1.5617,9.1487,0.0035,-0.0133,-0.0404
14136,47.19236,-1.836047,49.84,18.96,11.792,114.1,16 / 20,1413615,2019-08-18 21:14:42:727,3.1094,-1.0634,9.2088,3.1757,-1.5545,9.1471,-0.0079,-0.011,-0.0369
14137,47.19236,-1.836047,49.84,18.96,11.792,114.1,16 / 20,1413714,2019-08-18 21:14:42:826,3.1997,-1.0329,9.0891,3.1675,-1.5383,9.1526,-0.0099,0.0148,-0.018
14138,47.19236,-1.836047,49.84,18.96,11.792,114.1,16 / 20,1413814,2019-08-18 21:14:42:926,2.9771,-0.982,9.4512,3.157,-1.5304,9.1576,-0.0032,0.0077,-0.0117
14139,47.19236,-1.836047,49.84,18.96,11.792,114.1,16 / 20,1413914,2019-08-18 21:14:43:026,2.8891,-0.8317,9.5739,3.1493,-1.49,9.1669,0.0172,-0.0063,-0.0172
14140,47.19236,-1.836047,49.84,18.96,11.792,114.1,16 / 20,1414014,2019-08-18 21:14:43:126,3.1537,-0.9107,9.9857,3.1523,-1.4617,9.1704,0.024,-0.0123,-0.0164
14141,47.19236,-1.836047,49.84,18.96,11.792,114.1,16 / 20,1414115,2019-08-18 21:14:43:227,2.7999,-0.3774,9.7559,3.1666,-1.4049,9.1744,0.0164,-0.0211,-0.0026
14142,47.19236,-1.836047,49.84,18.96,11.792,114.1,16 / 20,1414214,2019-08-18 21:14:43:326,2.7736,-0.4475,9.5386,3.1624,-1.3794,9.1797,0.0066,0.0061,0.0034
14143,47.19236,-1.836047,49.84,18.96,11.792,114.1,16 / 20,1414315,2019-08-18 21:14:43:427,2.858,-0.3242,9.5889,3.1532,-1.3662,9.1848,0.0085,0.0075,0.0044
14144,47.19236,-1.836047,49.84,18.96,11.792,114.1,15 / 20,1414414,2019-08-18 21:14:43:526,2.7233,-0.4534,9.6128,3.1301,-1.3282,9.1983,0.0132,0.0039,0.0013
14145,47.19236,-1.836047,49.84,18.96,11.792,114.1,15 / 20,1414514,2019-08-18 21:14:43:626,2.5922,-0.8886,9.0191,3.1252,-1.3093,9.2027,0.0288,-0.0001,-0.003
14146,47.19236,-1.836047,49.84,18.96,11.792,114.1,15 / 20,1414614,2019-08-18 21:14:43:726,2.77,-0.2703,9.1316,3.1147,-1.2486,9.2147,0.0132,-0.0004,0.0024
14147,47.19236,-1.836047,49.84,18.96,11.792,114.1,15 / 20,1414714,2019-08-18 21:14:43:826,3.0704,-0.1554,9.4542,3.1113,-1.2315,9.2181,0.0085,0.0073,0.0045
14148,47.19236,-1.836047,49.84,18.96,11.792,114.1,15 / 20,1414814,2019-08-18 21:14:43:926,2.8442,-0.4714,9.1771,3.0821,-1.1958,9.2326,0.0001,0.0118,0.0071
14149,47.19236,-1.836047,49.84,18.96,11.792,114.1,15 / 20,1414914,2019-08-18 21:14:44:026,2.5797,-0.2595,9.2663,3.0745,-1.1824,9.2369,0.0096,0.002,0.0035
14150,47.19236,-1.836047,49.84,18.96,11.792,114.1,15 / 20,1415014,2019-08-18 21:14:44:126,2.7718,-0.138,9.7852,3.0738,-1.1594,9.24,-0.0035,-0.0161,0.0049
14151,47.19236,-1.836047,49.84,18.96,11.792,114.1,15 / 20,1415114,2019-08-18 21:14:44:226,2.9011,-0.6073,9.4273,3.0785,-1.1488,9.2398,-0.0036,-0.0021,0.0042
14152,47.19236,-1.836047,49.84,18.96,11.792,114.1,15 / 20,1415214,2019-08-18 21:14:44:326,2.7616,-0.4774,9.0394,3.0671,-1.1339,9.2454,0.0005,0.0118,0.0051
14153,47.19236,-1.836047,49.84,18.96,11.792,114.1,14 / 20,1415314,2019-08-18 21:14:44:426,2.8723,-0.2589,9.2172,3.0514,-1.1193,9.2524,0.0278,0.0133,0.0015
14154,47.19236,-1.836047,49.84,18.96,11.792,114.1,14 / 20,1415414,2019-08-18 21:14:44:526,2.7221,-0.2386,9.7164,3.0283,-1.065,9.2664,0.0337,0.0082,-0.0005
14155,47.19236,-1.836047,49.84,18.96,11.792,114.1,14 / 20,1415514,2019-08-18 21:14:44:626,2.5036,-0.3529,9.8092,3.0212,-1.0275,9.2729,0.0364,0.0,-0.0024
14156,47.19236,-1.836047,49.84,18.96,11.792,114.1,14 / 20,1415614,2019-08-18 21:14:44:726,2.6551,-0.2805,9.3034,3.0127,-1.0014,9.2785,-0.0081,-0.0047,0.0078
14157,47.19236,-1.836047,49.84,18.96,11.792,114.1,14 / 20,1415714,2019-08-18 21:14:44:826,2.8454,-0.372,9.9558,3.0061,-0.9992,9.2809,-0.0148,0.011,0.0063
14158,47.19236,-1.836047,49.84,18.96,11.792,114.1,14 / 20,1415814,2019-08-18 21:14:44:926,2.6144,-0.2158,9.2645,2.9801,-0.9968,9.2896,0.0119,0.0075,0.0048
14159,47.19236,-1.836047,49.84,18.96,11.792,114.1,14 / 20,1415914,2019-08-18 21:14:45:026,2.7395,-0.3888,9.7481,2.9714,-0.9795,9.2942,0.0253,-0.0032,-0.0021
14160,47.19236,-1.836047,49.84,18.96,11.792,114.1,14 / 20,1416014,2019-08-18 21:14:45:126,2.755,-0.6785,10.0546,2.9784,-0.9412,9.2959,-0.0002,-0.027,0.0031
14161,47.19236,-1.836047,49.84,18.96,11.792,114.1,14 / 20,1416114,2019-08-18 21:14:45:226,2.6551,-0.4894,10.036,2.9885,-0.9357,9.2932,-0.0121,-0.0231,0.0044
14162,47.19236,-1.836047,49.84,18.96,11.792,114.1,14 / 20,1416214,2019-08-18 21:14:45:326,2.6078,-0.3924,9.4195,2.9967,-0.9429,9.2898,-0.028,-0.0058,0.0111
14163,47.19236,-1.836047,49.84,18.96,11.792,114.1,14 / 20,1416314,2019-08-18 21:14:45:426,2.7981,-0.6857,9.5147,2.9944,-0.9566,9.2892,-0.0307,-0.0041,0.0134
14164,47.19236,-1.836047,49.84,18.96,11.792,114.1,14 / 20,1416414,2019-08-18 21:14:45:526,2.5976,-0.6025,9.0556,2.9955,-0.9813,9.2862,-0.0187,-0.0088,0.0122
14165,47.19236,-1.836047,49.84,18.96,11.792,114.1,14 / 20,1416514,2019-08-18 21:14:45:626,2.7371,-0.3313,9.0795,2.9916,-0.9862,9.287,-0.0202,0.0029,0.0127
14166,47.19236,-1.836047,49.84,18.96,11.792,114.1,14 / 20,1416614,2019-08-18 21:14:45:726,2.5719,-0.487,9.1627,2.9656,-0.9821,9.2958,0.0041,0.0168,0.0078
14167,47.19236,-1.836047,49.84,18.96,11.792,114.1,14 / 20,1416714,2019-08-18 21:14:45:826,2.4324,-0.481,9.3561,2.9548,-0.9727,9.3002,-0.0032,-0.0144,0.0073
14168,47.19236,-1.836047,49.84,18.96,11.792,114.1,14 / 20,1416814,2019-08-18 21:14:45:926,2.8257,-0.7485,9.9205,2.9601,-0.9614,9.2997,-0.007,-0.0145,0.0053
14169,47.19236,-1.836047,49.84,18.96,11.792,114.1,14 / 20,1416914,2019-08-18 21:14:46:026,2.5246,-0.3822,9.3692,2.9647,-0.9746,9.2968,-0.0312,0.0063,0.0148
14170,47.19236,-1.836047,49.84,18.96,11.792,114.1,14 / 20,1417014,2019-08-18 21:14:46:126,2.512,-0.4894,8.9084,2.932,-1.0073,9.3037,-0.0305,0.0314,0.0171
14171,47.19236,-1.836047,49.84,18.96,11.792,114.1,14 / 20,1417114,2019-08-18 21:14:46:226,2.5186,-0.5037,8.6851,2.9089,-1.0192,9.3097,-0.028,0.0337,0.0179
14172,47.19236,-1.836047,49.84,18.96,11.792,114.1,14 / 20,1417214,2019-08-18 21:14:46:326,2.4833,-0.4702,8.7713,2.8684,-1.0138,9.3228,0.0008,0.0222,0.0117
14173,47.19236,-1.836047,49.84,18.96,11.792,114.1,13 / 20,1417314,2019-08-18 21:14:46:426,2.4791,-0.3756,9.0334,2.8535,-1.0091,9.3279,-0.0044,0.0084,0.0099
14174,47.19236,-1.836047,49.84,18.96,11.792,114.1,13 / 20,1417414,2019-08-18 21:14:46:526,2.6652,-0.5127,9.3459,2.8377,-1.0166,9.3319,-0.0265,0.0188,0.0123
14175,47.19236,-1.836047,49.84,18.96,11.792,114.1,13 / 20,1417515,2019-08-18 21:14:46:627,2.5551,-0.7701,8.9999,2.8229,-1.0248,9.3355,-0.0204,0.039,0.0129
14176,47.19236,-1.836047,49.84,18.96,11.792,114.1,13 / 20,1417614,2019-08-18 21:14:46:726,2.357,-0.712,8.6995,2.7645,-1.0415,9.3511,-0.0116,0.0309,0.0128
14177,47.19236,-1.836047,49.84,18.96,11.792,114.1,13 / 20,1417714,2019-08-18 21:14:46:826,2.5581,-0.5097,8.8275,2.746,-1.0467,9.356,-0.0172,0.0209,0.0137
14178,47.19236,-1.836047,49.84,18.96,11.792,114.1,13 / 20,1417815,2019-08-18 21:14:46:927,2.3743,-0.5606,9.1262,2.7275,-1.0556,9.3604,-0.0213,0.025,0.0132
14179,47.19236,-1.836047,49.84,18.96,11.792,114.1,13 / 20,1417914,2019-08-18 21:14:47:026,2.4905,-0.7557,8.8772,2.6889,-1.07,9.3699,-0.0107,0.0291,0.0097
14180,47.19236,-1.836047,49.84,18.96,11.792,114.1,13 / 20,1418015,2019-08-18 21:14:47:127,2.5407,-0.7437,9.0412,2.6715,-1.0698,9.3749,-0.0017,0.0258,0.0046
14181,47.19236,-1.836047,49.84,18.96,11.792,114.1,13 / 20,1418114,2019-08-18 21:14:47:226,2.4749,-0.9544,9.1609,2.6417,-1.0656,9.3838,0.0009,0.0191,0.0009
14182,47.19236,-1.836047,49.84,18.96,11.792,114.1,13 / 20,1418214,2019-08-18 21:14:47:326,2.4013,-0.4786,8.7282,2.6305,-1.0644,9.3871,-0.0001,0.0319,0.0022
14183,47.19236,-1.836047,49.84,18.96,11.792,114.1,13 / 20,1418314,2019-08-18 21:14:47:426,2.2917,-0.6629,8.6145,2.5857,-1.0561,9.4005,0.0052,0.045,0.0008
14184,47.19236,-1.836047,49.84,18.96,11.792,114.1,13 / 20,1418414,2019-08-18 21:14:47:526,2.3666,-0.8251,8.9006,2.5599,-1.052,9.408,0.0147,0.0389,-0.0032
14185,47.19236,-1.836047,49.84,18.96,11.792,114.1,13 / 20,1418516,2019-08-18 21:14:47:628,2.4677,-0.9491,9.1322,2.5128,-1.0279,9.4234,0.017,0.0291,-0.0052
14186,47.19236,-1.836047,49.84,18.96,11.792,114.1,13 / 20,1418614,2019-08-18 21:14:47:726,2.506,-0.9838,9.3034,2.5035,-1.0153,9.4272,0.015,0.0154,-0.0056
14187,47.19236,-1.836047,49.84,18.96,11.792,114.1,13 / 20,1418714,2019-08-18 21:14:47:826,2.4527,-0.7096,9.2411,2.4987,-1.002,9.4299,-0.0008,0.0047,-0.0048
14188,47.19236,-1.836047,49.84,18.96,11.792,114.1,13 / 20,1418815,2019-08-18 21:14:47:927,2.4863,-0.9125,9.1992,2.4877,-1.0102,9.4319,-0.0197,0.0153,-0.0007
14189,47.19236,-1.836047,49.84,18.96,11.792,114.1,13 / 20,1418914,2019-08-18 21:14:48:026,2.4073,-0.706,9.5518,2.4768,-1.0204,9.4337,-0.0068,0.0081,-0.0054
14190,47.19236,-1.836047,49.84,18.96,11.792,114.1,13 / 20,1419015,2019-08-18 21:14:48:127,2.5581,-1.1807,9.5296,2.4715,-1.0175,9.4354,0.0005,0.0096,-0.0044
14191,47.19236,-1.836047,49.84,18.96,11.792,114.1,13 / 20,1419115,2019-08-18 21:14:48:227,2.445,-0.9544,9.3698,2.4627,-1.014,9.4381,0.0112,0.0015,-0.0086
14192,47.19236,-1.836047,49.84,18.96,11.792,114.1,13 / 20,1419214,2019-08-18 21:14:48:326,2.5719,-1.0077,9.6631,2.465,-1.0032,9.4386,0.0132,-0.0117,-0.0115
14193,47.19236,-1.836047,49.84,18.96,11.792,114.1,Dec-20,1419316,2019-08-18 21:14:48:428,2.585,-0.7455,9.5847,2.4884,-0.9901,9.4339,-0.0089,-0.009,-0.005
14194,47.19236,-1.836047,49.84,18.96,11.792,114.1,Dec-20,1419414,2019-08-18 21:14:48:526,2.5599,-1.046,9.2268,2.4911,-0.9924,9.4329,-0.0171,0.01,-0.0012
14195,47.19236,-1.836047,49.84,18.96,11.792,114.1,Dec-20,1419514,2019-08-18 21:14:48:626,2.4067,-0.7958,9.3591,2.4729,-1.0184,9.4349,-0.0126,0.0121,0.001
14196,47.19236,-1.836047,49.84,18.96,11.792,114.1,Dec-20,1419614,2019-08-18 21:14:48:726,2.4366,-0.8808,9.4105,2.4719,-1.0101,9.4361,-0.013,-0.0006,0.0013
14197,47.19236,-1.836047,49.84,18.96,11.792,114.1,Dec-20,1419714,2019-08-18 21:14:48:826,2.6365,-0.8246,9.4494,2.4775,-0.9926,9.4365,-0.0038,-0.0052,-0.0004
14198,47.19236,-1.836047,49.84,18.96,11.792,114.1,Dec-20,1419814,2019-08-18 21:14:48:926,2.4611,-0.9077,9.726,2.479,-0.9949,9.4359,-0.0074,0.0031,0.0018
14199,47.19236,-1.836047,49.84,18.96,11.792,114.1,Dec-20,1419915,2019-08-18 21:14:49:027,2.4905,-0.9664,9.5494,2.4746,-0.994,9.4371,-0.0012,0.0009,-0.0005
14200,47.19236,-1.836047,49.84,18.96,11.792,114.1,Dec-20,1420014,2019-08-18 21:14:49:126,2.4707,-0.8323,9.3752,2.4721,-0.9894,9.4382,0.0048,0.009,-0.001
14201,47.19236,-1.836047,49.84,18.96,11.792,114.1,Dec-20,1420114,2019-08-18 21:14:49:226,2.4534,-0.6516,9.3627,2.4523,-0.9716,9.4452,0.0121,0.0118,-0.0001
14202,47.19236,-1.836047,49.84,18.96,11.792,114.1,Dec-20,1420214,2019-08-18 21:14:49:326,2.4019,-0.7426,9.4602,2.4473,-0.9567,9.4481,0.0169,0.0045,0.0023
14203,47.19236,-1.836047,49.84,18.96,11.792,114.1,Dec-20,1420314,2019-08-18 21:14:49:426,2.6042,-0.5923,9.8086,2.4417,-0.9303,9.4521,0.0125,0.0048,0.0113
14204,47.191544,-1.834214,47.82,16.01,16.08,125.3,Dec-20,1420415,2019-08-18 21:14:49:527,2.2361,-0.4894,9.4608,2.439,-0.9197,9.4539,0.0018,-0.0076,0.0123
14205,47.191544,-1.834214,47.82,16.01,16.08,125.3,Dec-20,1420514,2019-08-18 21:14:49:626,2.3731,-0.5744,9.9127,2.4412,-0.9093,9.4543,-0.0019,-0.0037,0.0131
14206,47.191544,-1.834214,47.82,16.01,16.08,125.3,Dec-20,1420614,2019-08-18 21:14:49:726,2.2905,-0.6258,9.2836,2.4395,-0.9116,9.4545,-0.0095,0.0078,0.0126
14207,47.191544,-1.834214,47.82,16.01,16.08,125.3,Dec-20,1420714,2019-08-18 21:14:49:826,2.2929,-0.6869,9.2208,2.4237,-0.9171,9.4581,-0.0055,0.0045,0.0103
14208,47.191544,-1.834214,47.82,16.01,16.08,125.3,Dec-20,1420815,2019-08-18 21:14:49:927,2.433,-0.6953,9.6362,2.4215,-0.9017,9.4601,-0.0115,0.0048,0.0126
14209,47.191544,-1.834214,47.82,16.01,16.08,125.3,Dec-20,1420914,2019-08-18 21:14:50:026,2.3666,-0.7126,9.1957,2.4143,-0.8702,9.4649,-0.0194,0.005,0.0144
14210,47.191544,-1.834214,47.82,16.01,16.08,125.3,Dec-20,1421014,2019-08-18 21:14:50:126,2.6174,-0.6695,9.5398,2.4128,-0.8593,9.4663,-0.0211,0.0079,0.0155
14211,47.191544,-1.834214,47.82,16.01,16.08,125.3,Dec-20,1421115,2019-08-18 21:14:50:227,2.3522,-0.7988,9.5763,2.4071,-0.8669,9.467,-0.0276,-0.0179,0.0103
14212,47.191544,-1.834214,47.82,16.01,16.08,125.3,Dec-20,1421214,2019-08-18 21:14:50:326,2.4976,-0.7036,9.2926,2.4249,-0.8991,9.4595,-0.0319,0.0003,0.0124
14213,47.191544,-1.834214,47.82,16.01,16.08,125.3,Dec-20,1421314,2019-08-18 21:14:50:426,2.4552,-0.7378,10.024,2.4195,-0.9122,9.4596,-0.0392,0.0067,0.0165
14214,47.191544,-1.834214,47.82,16.01,16.08,125.3,Dec-20,1421415,2019-08-18 21:14:50:527,2.7568,-1.0963,10.6531,2.4187,-0.9633,9.4548,-0.0404,-0.0397,0.0106
14215,47.191544,-1.834214,47.82,16.01,16.08,125.3,Dec-20,1421514,2019-08-18 21:14:50:626,2.831,-1.459,10.9273,2.4494,-0.9711,9.4461,-0.0024,-0.0576,-0.0051
14216,47.191544,-1.834214,47.82,16.01,16.08,125.3,Dec-20,1421614,2019-08-18 21:14:50:726,2.4264,-0.9413,9.2034,2.4946,-0.9428,9.4371,0.0313,-0.0032,-0.0024
14217,47.191544,-1.834214,47.82,16.01,16.08,125.3,Dec-20,1421715,2019-08-18 21:14:50:827,2.5192,-0.7264,8.7982,2.473,-0.9272,9.4443,0.0229,0.0517,0.0072
14218,47.191544,-1.834214,47.82,16.01,16.08,125.3,Dec-20,1421814,2019-08-18 21:14:50:926,2.2462,-0.8844,8.9874,2.4044,-0.9131,9.4634,0.0125,0.0358,0.004
14219,47.191544,-1.834214,47.82,16.01,16.08,125.3,Dec-20,1421914,2019-08-18 21:14:51:026,2.4527,-0.8114,9.3908,2.4007,-0.9087,9.4647,-0.014,-0.0263,-0.0005
14220,47.191544,-1.834214,47.82,16.01,16.08,125.3,Dec-20,1422014,2019-08-18 21:14:51:126,2.5946,-0.8676,10.0695,2.4334,-0.9193,9.4554,-0.0059,-0.0245,-0.0024
14221,47.191544,-1.834214,47.82,16.01,16.08,125.3,Dec-20,1422114,2019-08-18 21:14:51:226,2.4252,-0.991,9.7559,2.4405,-0.9177,9.4537,0.0094,0.0077,-0.0014
14222,47.191544,-1.834214,47.82,16.01,16.08,125.3,Dec-20,1422214,2019-08-18 21:14:51:326,2.4617,-0.9018,9.638,2.4269,-0.9044,9.4585,0.0125,0.0087,-0.0017
14223,47.191544,-1.834214,47.82,16.01,16.08,125.3,Dec-20,1422314,2019-08-18 21:14:51:426,2.4312,-1.0855,9.5554,2.421,-0.8992,9.4605,0.011,-0.0099,-0.0047
14224,47.191544,-1.834214,47.82,16.01,16.08,125.3,Dec-20,1422414,2019-08-18 21:14:51:526,2.3773,-0.8431,8.9975,2.4357,-0.8827,9.4582,0.0072,0.0012,-0.0047
14225,47.191544,-1.834214,47.82,16.01,16.08,125.3,Dec-20,1422514,2019-08-18 21:14:51:626,2.4204,-0.8305,9.3543,2.4343,-0.8799,9.4589,-0.0026,0.0074,0.0004
14226,47.191544,-1.834214,47.82,16.01,16.08,125.3,Dec-20,1422614,2019-08-18 21:14:51:726,2.7077,-0.9389,10.2629,2.4349,-0.8819,9.4585,-0.0039,-0.0149,-0.0036
14227,47.191544,-1.834214,47.82,16.01,16.08,125.3,Dec-20,1422714,2019-08-18 21:14:51:826,2.5946,-0.8359,9.7751,2.451,-0.8911,9.4535,-0.022,-0.0304,-0.0006
14228,47.191544,-1.834214,47.82,16.01,16.08,125.3,Dec-20,1422814,2019-08-18 21:14:51:926,2.4366,-0.9095,9.4453,2.4805,-0.9481,9.4402,-0.0667,-0.0104,0.0139
14229,47.191544,-1.834214,47.82,16.01,16.08,125.3,Dec-20,1422914,2019-08-18 21:14:52:026,2.6628,-0.9359,9.0795,2.4818,-0.9853,9.4361,-0.0624,0.0001,0.0137
14230,47.191544,-1.834214,47.82,16.01,16.08,125.3,Dec-20,1423014,2019-08-18 21:14:52:126,2.3821,-1.1759,9.1454,2.4693,-1.0533,9.4321,-0.0259,0.0128,0.0091
14231,47.191544,-1.834214,47.82,16.01,16.08,125.3,Dec-20,1423114,2019-08-18 21:14:52:226,2.6604,-1.1047,9.462,2.464,-1.0637,9.4322,0.0045,0.0034,0.0013
14232,47.191544,-1.834214,47.82,16.01,16.08,125.3,Dec-20,1423215,2019-08-18 21:14:52:327,2.412,-1.0502,9.6386,2.4654,-1.069,9.4313,-0.0025,-0.0045,0.0013
14233,47.191544,-1.834214,47.82,16.01,16.08,125.3,14 / 20,1423314,2019-08-18 21:14:52:426,2.5491,-0.964,9.9265,2.4684,-1.0721,9.4302,-0.0201,-0.0056,0.0061
14234,47.191544,-1.834214,47.82,16.01,16.08,125.3,14 / 20,1423414,2019-08-18 21:14:52:526,2.6766,-1.1855,9.5973,2.4794,-1.1065,9.4233,-0.038,-0.0141,0.0086
14235,47.191544,-1.834214,47.82,16.01,16.08,125.3,14 / 20,1423514,2019-08-18 21:14:52:626,2.5707,-0.9167,9.9804,2.4908,-1.1324,9.4172,-0.0609,-0.0222,0.0153
14236,47.191544,-1.834214,47.82,16.01,16.08,125.3,14 / 20,1423614,2019-08-18 21:14:52:726,2.6515,-1.0263,9.3369,2.5165,-1.2168,9.3998,-0.0667,-0.0197,0.0172
14237,47.191544,-1.834214,47.82,16.01,16.08,125.3,14 / 20,1423714,2019-08-18 21:14:52:826,2.5431,-1.3585,9.6104,2.5244,-1.2595,9.3921,-0.0461,-0.0018,0.0171
14238,47.191544,-1.834214,47.82,16.01,16.08,125.3,14 / 20,1423814,2019-08-18 21:14:52:926,2.6581,-1.2759,9.3034,2.5228,-1.2957,9.3876,-0.0104,0.0032,0.0103
14239,47.191544,-1.834214,47.82,16.01,16.08,125.3,14 / 20,1423914,2019-08-18 21:14:53:026,2.3564,-1.2531,9.1585,2.518,-1.2803,9.391,0.0605,0.0236,-0.0021
14240,47.191544,-1.834214,47.82,16.01,16.08,125.3,14 / 20,1424015,2019-08-18 21:14:53:127,2.8023,-1.1406,10.3413,2.5016,-1.2225,9.4031,0.0291,-0.0345,0.0031
14241,47.191544,-1.834214,47.82,16.01,16.08,125.3,14 / 20,1424114,2019-08-18 21:14:53:226,2.9064,-1.1101,10.6322,2.5286,-1.1986,9.3989,0.0081,-0.0659,0.0001
14242,47.191544,-1.834214,47.82,16.01,16.08,125.3,14 / 20,1424214,2019-08-18 21:14:53:326,2.4899,-0.9509,9.8092,2.5664,-1.1921,9.3895,-0.0133,-0.024,0.0095
14243,47.191544,-1.834214,47.82,16.01,16.08,125.3,14 / 20,1424314,2019-08-18 21:14:53:426,2.3971,-1.0849,9.0388,2.6089,-1.201,9.3766,-0.0226,0.001,0.0209
14244,47.191544,-1.834214,47.82,16.01,16.08,125.3,14 / 20,1424414,2019-08-18 21:14:53:526,2.5862,-0.9604,8.6127,2.6043,-1.2142,9.3762,-0.018,0.0222,0.0221
14245,47.191544,-1.834214,47.82,16.01,16.08,125.3,14 / 20,1424514,2019-08-18 21:14:53:626,2.3564,-0.8455,8.4253,2.5759,-1.2406,9.3806,-0.0133,0.0278,0.0218
14246,47.191544,-1.834214,47.82,16.01,16.08,125.3,14 / 20,1424614,2019-08-18 21:14:53:726,2.6646,-1.1011,9.6458,2.5539,-1.2527,9.385,-0.0061,-0.0041,0.0168
14247,47.191544,-1.834214,47.82,16.01,16.08,125.3,14 / 20,1424714,2019-08-18 21:14:53:826,3.0112,-0.8748,10.3371,2.5563,-1.2622,9.3831,-0.0117,-0.0295,0.0148
14248,47.191544,-1.834214,47.82,16.01,16.08,125.3,14 / 20,1424814,2019-08-18 21:14:53:926,3.2458,-1.1753,10.4472,2.577,-1.2682,9.3766,0.0073,-0.0249,0.0167
14249,47.191544,-1.834214,47.82,16.01,16.08,125.3,14 / 20,1424914,2019-08-18 21:14:54:026,2.7335,-0.5702,10.1845,2.5977,-1.2539,9.3728,0.0129,-0.0146,0.0235
14250,47.191544,-1.834214,47.82,16.01,16.08,125.3,14 / 20,1425014,2019-08-18 21:14:54:126,2.4575,-0.6276,9.5961,2.5941,-1.2392,9.3758,-0.0008,0.0059,0.0451
14251,47.191544,-1.834214,47.82,16.01,16.08,125.3,14 / 20,1425115,2019-08-18 21:14:54:227,2.7281,-0.296,9.6811,2.5815,-1.2385,9.3794,-0.0178,-0.0065,0.0481
14252,47.191544,-1.834214,47.82,16.01,16.08,125.3,14 / 20,1425214,2019-08-18 21:14:54:326,2.7544,-0.5295,10.1707,2.5867,-1.2396,9.3778,-0.0006,-0.0367,0.0395
14253,47.191544,-1.834214,47.82,16.01,16.08,125.3,14 / 20,1425314,2019-08-18 21:14:54:426,2.9687,-0.5438,10.3179,2.6242,-1.2287,9.3688,-0.0076,-0.0249,0.0426
14254,47.191544,-1.834214,47.82,16.01,16.08,125.3,14 / 20,1425414,2019-08-18 21:14:54:526,2.834,-0.8024,10.5837,2.6339,-1.2294,9.366,-0.0129,-0.0068,0.0459
14255,47.191544,-1.834214,47.82,16.01,16.08,125.3,14 / 20,1425515,2019-08-18 21:14:54:627,2.3223,-0.3864,9.2854,2.6284,-1.2372,9.3665,0.0081,-0.004,0.0428
14256,47.191544,-1.834214,47.82,16.01,16.08,125.3,14 / 20,1425615,2019-08-18 21:14:54:727,2.9478,-0.5474,9.9402,2.6276,-1.2296,9.3677,0.0074,-0.0072,0.0428
14257,47.191544,-1.834214,47.82,16.01,16.08,125.3,14 / 20,1425714,2019-08-18 21:14:54:826,2.5671,-0.5833,9.3393,2.6278,-1.214,9.3697,0.0058,-0.0042,0.043
14258,47.191544,-1.834214,47.82,16.01,16.08,125.3,14 / 20,1425814,2019-08-18 21:14:54:926,2.6174,-0.624,9.38,2.6265,-1.2074,9.3709,0.0071,-0.0012,0.0418
14259,47.191544,-1.834214,47.82,16.01,16.08,125.3,14 / 20,1425914,2019-08-18 21:14:55:026,2.2941,-0.4397,8.709,2.6202,-1.1882,9.3751,0.0078,0.0082,0.0442
14260,47.191544,-1.834214,47.82,16.01,16.08,125.3,14 / 20,1426014,2019-08-18 21:14:55:126,2.6299,-0.2547,8.6881,2.6078,-1.1759,9.3801,0.0078,0.0185,0.0461
14261,47.191544,-1.834214,47.82,16.01,16.08,125.3,14 / 20,1426115,2019-08-18 21:14:55:227,2.4875,-0.4463,9.1454,2.5843,-1.1671,9.3877,0.0045,0.0114,0.0448
14262,47.191544,-1.834214,47.82,16.01,16.08,125.3,14 / 20,1426215,2019-08-18 21:14:55:327,2.9537,-0.3535,9.7882,2.5787,-1.1642,9.3896,-0.0042,-0.0145,0.0454
14263,47.191544,-1.834214,47.82,16.01,16.08,125.3,14 / 20,1426314,2019-08-18 21:14:55:426,2.4539,-0.4277,9.9821,2.586,-1.159,9.3883,0.001,-0.0178,0.0432
14264,47.191544,-1.834214,47.82,16.01,16.08,125.3,14 / 20,1426414,2019-08-18 21:14:55:526,2.8586,-0.5277,9.8978,2.5984,-1.1549,9.3854,-0.0026,-0.0181,0.0434
14265,47.191544,-1.834214,47.82,16.01,16.08,125.3,14 / 20,1426514,2019-08-18 21:14:55:626,2.673,-0.4858,9.1448,2.6081,-1.1546,9.3827,-0.0069,-0.005,0.0485
14266,47.191544,-1.834214,47.82,16.01,16.08,125.3,14 / 20,1426614,2019-08-18 21:14:55:726,2.8125,-0.4654,9.5159,2.607,-1.1605,9.3823,-0.017,-0.0013,0.0529
14267,47.191544,-1.834214,47.82,16.01,16.08,125.3,14 / 20,1426714,2019-08-18 21:14:55:826,2.7269,-0.4888,9.6033,2.6206,-1.1759,9.3766,-0.0163,-0.0273,0.0498
14268,47.191544,-1.834214,47.82,16.01,16.08,125.3,14 / 20,1426815,2019-08-18 21:14:55:927,2.6503,-0.2996,10.1821,2.6356,-1.1724,9.3728,0.0287,-0.0282,0.0411
14269,47.191544,-1.834214,47.82,16.01,16.08,125.3,14 / 20,1426914,2019-08-18 21:14:56:026,3.0196,-0.5241,10.1097,2.667,-1.1192,9.3704,0.0491,-0.0276,0.0415
14270,47.191544,-1.834214,47.82,16.01,16.08,125.3,14 / 20,1427014,2019-08-18 21:14:56:126,2.6946,-0.0105,9.7403,2.6768,-1.0861,9.3715,0.0358,-0.008,0.0585
14271,47.191544,-1.834214,47.82,16.01,16.08,125.3,14 / 20,1427114,2019-08-18 21:14:56:226,2.7873,0.0918,10.0402,2.6786,-1.0301,9.3773,0.027,-0.0065,0.0607
14272,47.191544,-1.834214,47.82,16.01,16.08,125.3,14 / 20,1427215,2019-08-18 21:14:56:327,2.3444,0.0631,8.9227,2.6812,-1.0212,9.3776,-0.0034,-0.0114,0.0648
14273,47.191544,-1.834214,47.82,16.01,16.08,125.3,14 / 20,1427314,2019-08-18 21:14:56:426,2.6856,0.0033,9.213,2.6854,-1.0194,9.3766,-0.0058,-0.0049,0.0632
14274,47.191544,-1.834214,47.82,16.01,16.08,125.3,14 / 20,1427414,2019-08-18 21:14:56:526,2.8209,0.041,9.1555,2.689,-1.0261,9.3748,-0.0112,0.0065,0.0668
14275,47.191544,-1.834214,47.82,16.01,16.08,125.3,14 / 20,1427514,2019-08-18 21:14:56:626,2.6916,-0.0207,9.1741,2.6689,-1.0269,9.3805,0.0102,0.0074,0.0609
14276,47.191544,-1.834214,47.82,16.01,16.08,125.3,14 / 20,1427614,2019-08-18 21:14:56:726,2.6449,-0.1093,9.2076,2.6613,-1.0154,9.3839,0.0154,0.0087,0.0602
14277,47.191544,-1.834214,47.82,16.01,16.08,125.3,14 / 20,1427714,2019-08-18 21:14:56:826,2.7975,-0.1614,9.6877,2.6551,-1.0051,9.3867,0.0019,-0.002,0.0639
14278,47.191544,-1.834214,47.82,16.01,16.08,125.3,14 / 20,1427814,2019-08-18 21:14:56:926,2.676,0.0236,10.3096,2.649,-0.9881,9.3902,0.0022,-0.0195,0.0593
14279,47.191544,-1.834214,47.82,16.01,16.08,125.3,14 / 20,1427914,2019-08-18 21:14:57:026,3.0974,-0.5498,10.4263,2.6608,-0.9864,9.3871,0.0033,-0.0249,0.0578
14280,47.191544,-1.834214,47.82,16.01,16.08,125.3,14 / 20,1428014,2019-08-18 21:14:57:126,2.7688,-0.6342,10.063,2.6895,-0.9755,9.38,0.004,-0.0261,0.0578
14281,47.191544,-1.834214,47.82,16.01,16.08,125.3,14 / 20,1428114,2019-08-18 21:14:57:226,3.2285,-0.4505,9.7158,2.6985,-0.972,9.3778,0.011,-0.0228,0.0549
14282,47.191544,-1.834214,47.82,16.01,16.08,125.3,14 / 20,1428214,2019-08-18 21:14:57:326,3.0704,-0.3732,9.7954,2.7235,-0.9542,9.3724,0.0092,-0.0246,0.0561
14283,47.191544,-1.834214,47.82,16.01,16.08,125.3,13 / 20,1428314,2019-08-18 21:14:57:426,2.7664,-0.6342,9.3369,2.7376,-0.9407,9.3697,0.0224,-0.0159,0.0544
14284,47.191544,-1.834214,47.82,16.01,16.08,125.3,13 / 20,1428414,2019-08-18 21:14:57:526,2.4162,0.02,9.1532,2.7473,-0.9152,9.3694,0.0194,-0.0059,0.0569
14285,47.191544,-1.834214,47.82,16.01,16.08,125.3,13 / 20,1428514,2019-08-18 21:14:57:626,2.6563,-0.0177,8.803,2.742,-0.9092,9.3715,0.0092,0.0136,0.0609
14286,47.191544,-1.834214,47.82,16.01,16.08,125.3,13 / 20,1428614,2019-08-18 21:14:57:726,2.4647,-0.2709,9.1364,2.7239,-0.9035,9.3773,0.0141,-0.0141,0.0574
14287,47.191544,-1.834214,47.82,16.01,16.08,125.3,13 / 20,1428714,2019-08-18 21:14:57:826,3.1106,-0.4181,10.7375,2.7299,-0.8944,9.3765,0.0155,-0.0385,0.0544
14288,47.191544,-1.834214,47.82,16.01,16.08,125.3,13 / 20,1428814,2019-08-18 21:14:57:926,2.8304,-0.4822,10.2682,2.7779,-0.8723,9.3644,0.0063,-0.0468,0.0543
14289,47.191544,-1.834214,47.82,16.01,16.08,125.3,13 / 20,1428914,2019-08-18 21:14:58:026,2.5036,-0.2823,9.0688,2.7997,-0.8678,9.3584,0.001,-0.0112,0.0587
14290,47.191544,-1.834214,47.82,16.01,16.08,125.3,13 / 20,1429014,2019-08-18 21:14:58:126,2.6473,-0.2039,8.7683,2.782,-0.8754,9.3629,-0.0079,0.0177,0.0679
14291,47.191544,-1.834214,47.82,16.01,16.08,125.3,13 / 20,1429115,2019-08-18 21:14:58:227,2.7119,-0.3511,9.1502,2.7705,-0.8807,9.3659,0.0046,-0.0123,0.063
