,GPS LATITUDE (degrees), GPS LONGITUDE (degrees), GPS ALTITUDE (m), GPS SPEED (Kmh), GPS ACCURACY (m), GPS ORIENTATION (Â°),GPS SATELLITES IN RANGE, TIME SINCE START (ms), DATE (YYYY-MO-DD HH-MI-SS_SSS), ACCELEROMETER X (m/s²) , ACCELEROMETER Y (m/s²), ACCELEROMETER Z (m/s²), GRAVITY X (m/s²), GRAVITY Y (m/s²), GRAVITY Z (m/s²), GYROSCOPE Yaw (rad/s), GYROSCOPE Pitch (rad/s), GYROSCOPE Roll (rad/s), MAGNETIC FIELD X (Î¼T), MAGNETIC FIELD Y (Î¼T), MAGNETIC FIELD Z (Î¼T), ORIENTATION (Yaw) (Â°), ORIENTATION (Pitch) (Â°), ORIENTATION (Roll ) (Â°)
41737,51.633644,-2.455806,72,24.7,10,28.4,14 / 22,4173788,2019-08-31 09:35:05:510,-0.1052,-0.4745,10.1283,-0.0121,-0.0219,9.8066,-0.0117,0.0272,-0.0023,10.97,-16.59,-22.46,54.9,-1.82,1.66
41738,51.633644,-2.455806,72,24.7,10,28.4,14 / 22,4173888,2019-08-31 09:35:05:610,-0.2771,-0.159,8.647,-0.0057,-0.0033,9.8066,-0.0117,0.0272,-0.0023,11.49,-15.87,-22.72,55.04,-1.7,1.72
41739,51.633644,-2.455806,72,24.7,10,28.4,14 / 22,4173988,2019-08-31 09:35:05:710,-0.1245,-0.163,9.9642,-0.0233,-0.0408,9.8065,-0.0075,-0.0272,0.003,11.65,-15.92,-22.61,52.82,-1.66,1.7
41740,51.633644,-2.455806,72,24.7,10,28.4,14 / 22,4174088,2019-08-31 09:35:05:810,0.0184,0.0783,9.7457,-0.0156,-0.0385,9.8066,-0.0075,-0.0261,-0.0055,12.24,-14.78,-23.06,51.35,-1.43,1.77
41741,51.633644,-2.455806,72,24.7,10,28.4,14 / 22,4174189,2019-08-31 09:35:05:911,0.2456,0.0727,10.4436,0.0194,0.0605,9.8064,-0.0501,0.0644,0.0201,12.24,-14.78,-23.06,51.35,-1.43,1.77
41742,51.633644,-2.455806,72,24.7,10,28.4,14 / 22,4174287,2019-08-31 09:35:06:009,0.3598,0.2932,10.9981,0.0253,0.0269,9.8066,0.0224,0.025,0.0041,11.09,-13.96,-24.13,51.38,-1.77,1.63
41743,51.633644,-2.455806,72,24.7,10,28.4,14 / 22,4174389,2019-08-31 09:35:06:111,-0.176,-0.0768,9.1747,0.0418,0.0395,9.8065,0.0138,-0.0357,-0.0066,7.54,-15.52,-24.54,61.99,-2.11,1.68
41744,51.63383,-2.455633,71,24.73,10,28.8,14 / 22,4174488,2019-08-31 09:35:06:210,0.7167,0.0326,9.8414,0.0021,-0.0239,9.8066,0.0447,-0.025,-0.0183,7.54,-15.52,-24.54,61.99,-2.11,1.68
41745,51.63383,-2.455633,71,24.73,10,28.8,14 / 22,4174588,2019-08-31 09:35:06:310,0.178,-0.2801,8.6885,0.0064,-0.0144,9.8066,0.0096,0.0538,-0.013,6.76,-18.43,-22.68,67.42,-1.99,1.76
41746,51.63383,-2.455633,71,24.73,10,28.8,14 / 22,4174687,2019-08-31 09:35:06:409,0.4214,0.545,9.9105,-0.0014,0.0031,9.8066,0.0096,0.0538,-0.013,8.68,-17.78,-22.55,62.38,-2.0,1.74
41747,51.63383,-2.455633,71,24.73,10,28.8,14 / 22,4174788,2019-08-31 09:35:06:510,0.2439,-0.0416,10.7913,-0.0229,-0.0031,9.8066,-0.0405,-0.0666,0.0222,10.14,-17.23,-22.37,62.38,-2.0,1.74
41748,51.63383,-2.455633,71,24.73,10,28.8,14 / 22,4174888,2019-08-31 09:35:06:610,-0.468,0.1602,7.6497,0.0638,0.009,9.8064,0.0756,0.0719,-0.0226,10.4,-16.93,-22.48,58.62,-1.99,1.61
41749,51.63383,-2.455633,71,24.73,10,28.8,14 / 22,4174987,2019-08-31 09:35:06:709,-0.7026,0.0031,10.2084,0.086,0.0297,9.8062,0.0075,-0.0314,0.003,10.4,-16.93,-22.48,58.62,-1.99,1.61
41750,51.63383,-2.455633,71,24.73,10,28.8,14 / 22,4175088,2019-08-31 09:35:06:810,0.5536,0.2308,9.4445,0.0043,0.0221,9.8066,-0.0107,0.0421,-0.0119,10.95,-16.23,-22.73,54.58,-2.4,1.95
41751,51.63383,-2.455633,71,24.73,10,28.8,14 / 22,4175188,2019-08-31 09:35:06:910,1.0479,0.1801,10.1515,-0.0303,-0.0289,9.8066,-0.0394,-0.0762,0.0083,10.75,-16.36,-22.73,54.58,-2.4,1.95
41752,51.63383,-2.455633,71,24.73,10,28.8,14 / 22,4175288,2019-08-31 09:35:07:010,-0.2445,0.4707,8.8006,-0.0623,-0.0085,9.8065,0.0181,0.0943,-0.0215,11.11,-16.8,-22.24,56.22,-2.15,1.68
41753,51.63383,-2.455633,71,24.73,10,28.8,14 / 22,4175388,2019-08-31 09:35:07:110,0.6618,0.198,9.9619,0.0559,0.0759,9.8062,0.0181,0.0943,-0.0215,11.11,-16.8,-22.24,56.22,-2.15,1.68
41754,51.634037,-2.455458,71,24.76,10,29.3,14 / 22,4175487,2019-08-31 09:35:07:209,-0.2537,-0.6107,11.7871,0.061,0.0334,9.8064,0.0011,-0.0549,0.0201,10.16,-16.53,-22.88,58.0,-2.7,1.71
41755,51.634037,-2.455458,71,24.76,10,29.3,14 / 22,4175588,2019-08-31 09:35:07:310,-0.9281,0.0334,8.9466,0.032,-0.0274,9.8066,-0.0362,-0.0517,-0.0534,10.42,-16.96,-22.45,58.0,-2.7,1.71
41756,51.634037,-2.455458,71,24.76,10,29.3,14 / 22,4175688,2019-08-31 09:35:07:410,-0.6306,0.246,9.3527,-0.0462,-0.003,9.8065,-0.049,0.0027,-0.0428,10.08,-16.83,-22.7,58.01,-2.54,1.49
41757,51.634037,-2.455458,71,24.76,10,29.3,14 / 22,4175788,2019-08-31 09:35:07:510,-0.5242,0.3754,12.0554,-0.0178,0.0803,9.8063,0.0352,0.0506,0.0009,10.08,-16.83,-22.7,58.01,-2.54,1.49
41758,51.634037,-2.455458,71,24.76,10,29.3,14 / 22,4175888,2019-08-31 09:35:07:610,0.1888,0.2196,10.0475,0.0088,0.1265,9.8058,0.0522,-0.0559,-0.0385,10.15,-17.31,-22.3,57.3,-3.2,1.14
41759,51.634037,-2.455458,71,24.76,10,29.3,14 / 22,4175988,2019-08-31 09:35:07:710,0.507,0.0045,10.1208,-0.0038,0.0003,9.8067,0.0085,0.0229,-0.0268,10.17,-16.56,-22.85,57.41,-3.16,1.43
41760,51.634037,-2.455458,71,24.76,10,29.3,14 / 22,4176088,2019-08-31 09:35:07:810,0.0474,0.062,9.9895,0.0099,0.0262,9.8066,0.0085,0.0229,-0.0268,10.17,-16.56,-22.85,57.41,-3.16,1.43
41761,51.634037,-2.455458,71,24.76,10,29.3,14 / 22,4176189,2019-08-31 09:35:07:911,-0.1497,-0.1762,9.3681,0.0111,0.0077,9.8066,0.0011,-0.0485,-0.0076,10.16,-16.53,-22.88,57.25,-3.32,1.39
41762,51.634037,-2.455458,71,24.76,10,29.3,14 / 22,4176287,2019-08-31 09:35:08:009,1.0089,0.4652,10.19,0.0388,0.0024,9.8066,0.0309,0.0581,-0.0055,10.16,-16.53,-22.88,57.25,-3.32,1.39
41763,51.634037,-2.455458,71,24.76,10,29.3,14 / 22,4176388,2019-08-31 09:35:08:110,-0.1032,-0.4757,9.9274,-0.0175,0.0048,9.8066,-0.0522,-0.0506,-0.0098,9.82,-17.12,-22.59,57.25,-3.46,1.58
41764,51.63423,-2.455278,71,24.89,10,29.9,14 / 22,4176487,2019-08-31 09:35:08:209,0.1892,0.2191,9.4715,-0.0586,0.0376,9.8064,-0.0511,0.0229,0.0041,10.45,-16.75,-22.59,57.25,-3.46,1.58
41765,51.63423,-2.455278,71,24.89,10,29.9,14 / 22,4176588,2019-08-31 09:35:08:310,0.0681,0.0324,9.151,-0.08,0.048,9.8062,-0.0128,-0.0581,0.0115,9.97,-16.65,-22.88,56.92,-3.44,1.03
41766,51.63423,-2.455278,71,24.89,10,29.9,14 / 22,4176688,2019-08-31 09:35:08:410,0.3064,0.0642,10.0816,0.0054,-0.0039,9.8066,0.0181,0.009,0.0105,10.16,-16.53,-22.88,56.92,-3.44,1.03
41767,51.63423,-2.455278,71,24.89,10,29.9,14 / 22,4176789,2019-08-31 09:35:08:511,0.7162,-0.1277,9.7611,0.0075,-0.015,9.8066,0.0021,-0.0645,-0.0023,10.08,-16.83,-22.7,57.01,-3.39,1.12
41768,51.63423,-2.455278,71,24.89,10,29.9,14 / 22,4176889,2019-08-31 09:35:08:611,-0.24,-0.2568,9.1167,0.0119,0.0083,9.8066,0.0021,-0.0645,-0.0023,10.08,-16.83,-22.7,57.01,-3.39,1.12
41769,51.63423,-2.455278,71,24.89,10,29.9,14 / 22,4176989,2019-08-31 09:35:08:711,0.0886,0.138,10.0037,0.0242,0.0313,9.8066,0.0373,0.073,-0.0236,9.7,-16.91,-22.81,56.97,-3.47,1.15
41770,51.63423,-2.455278,71,24.89,10,29.9,14 / 22,4177088,2019-08-31 09:35:08:810,0.5336,0.0379,9.881,0.0261,0.0005,9.8066,0.0586,0.0591,-0.0524,9.63,-17.14,-22.66,56.77,-3.7,1.17
41771,51.63423,-2.455278,71,24.89,10,29.9,14 / 22,4177187,2019-08-31 09:35:08:909,0.8762,0.0125,8.3116,-0.0037,0.0077,9.8066,0.0,0.0272,-0.0108,9.7,-16.91,-22.81,56.78,-3.79,1.3
41772,51.63423,-2.455278,71,24.89,10,29.9,14 / 22,4177288,2019-08-31 09:35:09:010,-0.0194,0.0419,10.1943,-0.0134,-0.0026,9.8066,0.0043,-0.0101,-0.0204,9.7,-16.91,-22.81,56.78,-3.79,1.3
41773,51.63423,-2.455278,71,24.89,10,29.9,14 / 22,4177388,2019-08-31 09:35:09:110,-0.861,-0.2333,8.9078,-0.0031,-0.0453,9.8065,-0.0043,-0.0091,0.0051,10.2,-17.04,-22.49,56.91,-3.73,1.24
41774,51.634422,-2.455095,71,24.85,10,30.7,14 / 21,4177487,2019-08-31 09:35:09:209,0.2078,-0.1946,9.4202,-0.0113,-0.0411,9.8066,-0.032,0.0676,-0.0002,10.13,-17.28,-22.34,56.91,-3.73,1.24
41775,51.634422,-2.455095,71,24.85,10,30.7,14 / 21,4177588,2019-08-31 09:35:09:310,-0.8936,-0.3162,10.4297,0.0083,-0.0005,9.8066,-0.017,0.0016,0.0126,9.63,-17.14,-22.66,56.8,-3.75,1.28
41776,51.634422,-2.455095,71,24.85,10,30.7,14 / 21,4177688,2019-08-31 09:35:09:410,-0.6874,-0.7436,9.8297,0.0013,-0.0302,9.8066,-0.017,0.0016,0.0126,9.63,-17.14,-22.66,56.8,-3.75,1.28
41777,51.634422,-2.455095,71,24.85,10,30.7,14 / 21,4177787,2019-08-31 09:35:09:509,0.1656,0.2558,8.3209,-0.0319,-0.0292,9.8066,-0.0554,-0.024,0.0051,9.93,-17.35,-22.37,57.08,-3.51,1.22
41778,51.634422,-2.455095,71,24.85,10,30.7,14 / 21,4177888,2019-08-31 09:35:09:610,0.3466,-0.144,10.3985,-0.0024,0.014,9.8066,-0.0352,0.025,0.0019,10.17,-17.77,-21.93,58.31,-3.63,1.01
41779,51.634422,-2.455095,71,24.85,10,30.7,14 / 21,4177988,2019-08-31 09:35:09:710,-0.3702,-0.4583,10.5772,-0.0061,-0.0157,9.8066,0.0138,0.0208,-0.0215,10.17,-17.77,-21.93,58.31,-3.63,1.01
41780,51.634422,-2.455095,71,24.85,10,30.7,14 / 21,4178088,2019-08-31 09:35:09:810,0.2101,-0.3225,9.5617,-0.031,-0.0412,9.8065,0.0181,-0.0485,-0.0098,9.93,-17.35,-22.37,56.95,-3.53,1.03
41781,51.634422,-2.455095,71,24.85,10,30.7,14 / 21,4178187,2019-08-31 09:35:09:909,-0.1975,0.1361,9.9125,-0.025,-0.0473,9.8065,-0.0032,0.0112,0.0062,10.07,-17.59,-22.12,56.95,-3.53,1.03
41782,51.634422,-2.455095,71,24.85,10,30.7,14 / 21,4178288,2019-08-31 09:35:10:010,-0.5704,-0.2592,12.0292,0.0056,-0.0204,9.8066,-0.0554,-0.0719,0.0126,9.69,-17.67,-22.22,58.52,-3.45,1.12
41783,51.634422,-2.455095,71,24.85,10,30.7,14 / 21,4178389,2019-08-31 09:35:10:111,-0.0151,0.1709,8.9777,-0.0017,0.0294,9.8066,-0.0554,-0.0719,0.0126,10.17,-17.77,-21.93,58.52,-3.45,1.12
41784,51.63461,-2.454907,72,24.95,10,31.7,14 / 22,4178488,2019-08-31 09:35:10:210,0.2807,-0.0945,10.9216,-0.0218,0.0178,9.8066,-0.0011,0.0165,-0.0321,10.17,-17.77,-21.93,58.52,-3.45,1.12
41785,51.63461,-2.454907,72,24.95,10,31.7,14 / 22,4178589,2019-08-31 09:35:10:311,0.1906,-0.3933,9.6874,-0.0041,0.0099,9.8066,0.0224,0.025,0.0073,9.95,-17.38,-22.34,57.02,-3.48,1.07
41786,51.63461,-2.454907,72,24.95,10,31.7,14 / 22,4178688,2019-08-31 09:35:10:410,0.7223,-0.3015,9.3407,0.0154,-0.0107,9.8066,-0.0096,-0.0048,-0.0066,9.85,-17.62,-22.19,57.02,-3.48,1.07
41787,51.63461,-2.454907,72,24.95,10,31.7,14 / 22,4178787,2019-08-31 09:35:10:509,-0.1889,0.3624,9.7615,0.0395,-0.0093,9.8066,-0.033,-0.041,0.0062,9.85,-17.62,-22.19,57.02,-3.48,1.07
41788,51.63461,-2.454907,72,24.95,10,31.7,14 / 22,4178887,2019-08-31 09:35:10:609,-0.5241,-0.1704,9.9403,-0.0324,-0.017,9.8066,0.032,0.0474,-0.0012,9.87,-17.65,-22.16,58.52,-3.56,1.3
41789,51.63461,-2.454907,72,24.95,10,31.7,14 / 22,4178988,2019-08-31 09:35:10:710,0.9054,0.4379,9.4466,0.0204,-0.0286,9.8066,0.049,0.0165,-0.0172,9.61,-17.94,-22.04,58.61,-3.38,1.19
41790,51.63461,-2.454907,72,24.95,10,31.7,14 / 22,4179087,2019-08-31 09:35:10:809,0.5401,-0.419,10.9978,0.0347,0.0027,9.8066,0.049,0.0165,-0.0172,9.19,-17.53,-22.54,60.99,-3.3,1.38
41791,51.63461,-2.454907,72,24.95,10,31.7,14 / 22,4179187,2019-08-31 09:35:10:909,-0.4383,0.1646,9.9063,0.0533,0.0025,9.8065,-0.0032,0.0463,0.0233,9.19,-17.53,-22.54,60.99,-3.3,1.38
41792,51.63461,-2.454907,72,24.95,10,31.7,14 / 22,4179288,2019-08-31 09:35:11:010,-0.7074,-0.6497,11.0793,-0.004,0.0191,9.8066,-0.033,-0.0591,0.0105,9.51,-18.18,-21.89,58.8,-3.46,1.64
41793,51.63478,-2.454707,72,24.93,11,33.1,14 / 22,4179388,2019-08-31 09:35:11:110,0.5351,0.2526,9.3537,-0.0053,-0.0216,9.8066,0.0533,0.0197,-0.0215,8.7,-18.62,-21.85,62.47,-3.34,1.68
41794,51.63478,-2.454707,72,24.93,11,33.1,14 / 22,4179488,2019-08-31 09:35:11:210,0.1441,-0.2517,9.2402,0.0296,-0.0253,9.8066,0.0405,0.0389,-0.0044,8.35,-17.95,-22.54,63.69,-3.29,1.9
41795,51.63478,-2.454707,72,24.93,11,33.1,14 / 22,4179587,2019-08-31 09:35:11:309,-0.7465,-0.0519,10.8979,0.0334,-0.0099,9.8066,0.0437,0.0527,-0.0439,8.35,-17.95,-22.54,63.69,-3.29,1.9
41796,51.63478,-2.454707,72,24.93,11,33.1,14 / 22,4179688,2019-08-31 09:35:11:410,0.1085,-0.2556,10.4842,0.026,-0.0104,9.8066,-0.017,-0.0538,-0.0183,8.49,-17.4,-22.92,62.5,-3.3,2.06
41797,51.63478,-2.454707,72,24.93,11,33.1,14 / 22,4179788,2019-08-31 09:35:11:510,0.5645,0.1631,8.6917,-0.0264,-0.0026,9.8066,-0.0085,-0.0069,-0.0108,9.12,-16.98,-22.99,60.02,-3.28,2.0
41798,51.63478,-2.454707,72,24.93,11,33.1,14 / 22,4179888,2019-08-31 09:35:11:610,-0.1002,0.0663,9.4175,-0.0493,0.0098,9.8065,-0.0085,-0.0069,-0.0108,9.35,-16.96,-22.91,60.02,-3.28,2.0
41799,51.63478,-2.454707,72,24.93,11,33.1,14 / 22,4179988,2019-08-31 09:35:11:710,-0.1672,-0.1238,8.8723,-0.0879,0.0191,9.8062,-0.0277,-0.0336,-0.0076,9.59,-16.6,-23.07,57.5,-3.12,1.5
41800,51.63478,-2.454707,72,24.93,11,33.1,14 / 22,4180088,2019-08-31 09:35:11:810,0.3824,0.154,9.7288,-0.0166,0.0036,9.8066,-0.0032,0.0453,-0.0226,9.59,-16.6,-23.07,57.5,-3.12,1.5
41801,51.63478,-2.454707,72,24.93,11,33.1,14 / 22,4180188,2019-08-31 09:35:11:910,-0.0609,0.0129,9.5972,-0.0129,0.0182,9.8066,0.0149,0.0346,-0.0268,9.9,-16.89,-22.73,57.47,-3.08,1.4
41802,51.63478,-2.454707,72,24.93,11,33.1,14 / 22,4180288,2019-08-31 09:35:12:010,-0.2889,0.3267,10.6576,0.0276,0.023,9.8066,0.0256,0.0421,-0.0172,10.15,-17.31,-22.3,57.44,-3.13,1.28
41803,51.634964,-2.454508,72,25.22,11,33.6,14 / 22,4180388,2019-08-31 09:35:12:110,-0.6612,0.2191,9.6472,0.0411,0.0275,9.8065,0.0064,-0.0368,0.0137,9.73,-16.89,-22.81,57.19,-3.4,1.4
41804,51.634964,-2.454508,72,25.22,11,33.6,14 / 22,4180487,2019-08-31 09:35:12:209,-0.0482,-0.2512,8.7849,0.0083,-0.0133,9.8066,-0.017,-0.0559,0.0019,9.73,-16.89,-22.81,57.19,-3.4,1.4
41805,51.634964,-2.454508,72,25.22,11,33.6,14 / 22,4180588,2019-08-31 09:35:12:310,-1.0197,-0.4363,9.8086,-0.0103,-0.0396,9.8066,-0.0107,0.0367,-0.0162,9.17,-17.07,-22.9,59.8,-3.17,1.47
41806,51.634964,-2.454508,72,25.22,11,33.6,14 / 22,4180688,2019-08-31 09:35:12:410,-0.5416,-0.2787,9.0469,-0.0221,0.0077,9.8066,-0.0053,0.0133,-0.0098,9.65,-17.17,-22.63,59.8,-3.17,1.47
41807,51.634964,-2.454508,72,25.22,11,33.6,14 / 22,4180788,2019-08-31 09:35:12:510,0.2832,-0.2903,9.4594,-0.0104,0.0067,9.8066,-0.0053,0.0133,-0.0098,9.57,-17.45,-22.44,57.47,-3.14,1.34
41808,51.634964,-2.454508,72,25.22,11,33.6,14 / 22,4180888,2019-08-31 09:35:12:610,0.0655,-0.2622,9.5255,-0.0018,-0.0101,9.8066,0.0181,0.0282,-0.0087,9.57,-17.45,-22.44,57.47,-3.14,1.34
41809,51.634964,-2.454508,72,25.22,11,33.6,14 / 22,4180987,2019-08-31 09:35:12:709,-0.3254,-0.4538,11.8892,0.0025,-0.0077,9.8066,0.016,0.0261,-0.0098,8.9,-17.36,-22.79,59.81,-3.09,1.36
41810,51.634964,-2.454508,72,25.22,11,33.6,14 / 22,4181088,2019-08-31 09:35:12:810,0.1985,-0.306,9.1852,-0.0062,0.0021,9.8066,-0.017,-0.0005,-0.0076,9.1,-17.35,-22.72,59.86,-3.06,1.4
41811,51.634964,-2.454508,72,25.22,11,33.6,14 / 22,4181188,2019-08-31 09:35:12:910,0.0046,0.5416,9.2021,-0.0324,-0.0252,9.8066,-0.0298,0.0485,-0.0226,9.5,-17.73,-22.26,59.86,-3.06,1.4
41812,51.634964,-2.454508,72,25.22,11,33.6,14 / 22,4181288,2019-08-31 09:35:13:010,-0.0215,-0.161,9.5436,-0.0801,-0.0178,9.8063,-0.0501,0.0101,0.0062,9.01,-17.59,-22.57,61.33,-2.73,1.04
41813,51.634964,-2.454508,72,25.22,11,33.6,14 / 22,4181388,2019-08-31 09:35:13:110,-0.3497,0.1598,9.5142,-0.0239,0.0094,9.8066,0.0096,-0.0016,-0.0162,9.01,-17.59,-22.57,61.33,-2.73,1.04
41814,51.635143,-2.454313,72,25.39,12,34.2,14 / 22,4181487,2019-08-31 09:35:13:209,-0.5038,0.3861,9.9368,-0.0006,0.0096,9.8066,0.0096,-0.0016,-0.0162,9.31,-17.75,-22.32,61.36,-2.71,0.9
41815,51.635143,-2.454313,72,25.39,12,34.2,14 / 22,4181589,2019-08-31 09:35:13:311,-0.6534,-0.2526,10.2575,0.0071,0.0374,9.8066,0.0032,0.0282,-0.0289,8.75,-17.91,-22.42,61.36,-2.71,0.9
41816,51.635143,-2.454313,72,25.39,12,34.2,14 / 22,4181687,2019-08-31 09:35:13:409,-0.533,0.0897,9.6002,-0.0332,-0.0064,9.8066,-0.0139,-0.0506,-0.0172,9.21,-17.99,-22.17,61.09,-2.92,0.73
41817,51.635143,-2.454313,72,25.39,12,34.2,14 / 22,4181787,2019-08-31 09:35:13:509,-0.1149,-0.1835,9.878,-0.0198,0.0128,9.8066,0.0234,0.058,-0.0226,9.15,-18.29,-21.95,61.09,-2.92,0.73
41818,51.635143,-2.454313,72,25.39,12,34.2,14 / 22,4181888,2019-08-31 09:35:13:610,0.0802,-0.3499,9.4959,-0.0033,-0.0001,9.8066,0.0575,-0.0091,-0.0215,8.63,-17.66,-22.66,60.98,-2.91,0.71
41819,51.635143,-2.454313,72,25.39,12,34.2,14 / 22,4181988,2019-08-31 09:35:13:710,-0.2495,-0.169,9.9278,-0.0066,-0.0545,9.8065,0.0266,-0.0453,-0.0481,8.63,-17.66,-22.66,60.98,-2.91,0.71
41820,51.635143,-2.454313,72,25.39,12,34.2,14 / 22,4182088,2019-08-31 09:35:13:810,0.1912,-0.3078,9.4094,-0.0228,-0.0228,9.8066,-0.0224,-0.0197,-0.0066,9.57,-17.45,-22.44,57.63,-2.61,0.84
41821,51.635143,-2.454313,72,25.39,12,34.2,14 / 22,4182188,2019-08-31 09:35:13:910,-0.1428,-0.2096,10.5716,-0.0216,-0.0156,9.8066,0.0224,0.0463,-0.014,9.04,-18.07,-22.17,57.63,-2.61,0.84
41822,51.635143,-2.454313,72,25.39,12,34.2,14 / 22,4182288,2019-08-31 09:35:14:010,0.0656,0.0055,10.0555,0.003,-0.008,9.8066,0.0224,0.0463,-0.014,9.08,-17.32,-22.75,60.01,-2.58,0.88
41823,51.635143,-2.454313,72,25.39,12,34.2,14 / 22,4182389,2019-08-31 09:35:14:111,-0.3914,0.0064,10.891,0.0336,0.0012,9.8066,0.0224,0.041,-0.0215,8.77,-18.36,-22.04,60.01,-2.58,0.88
41824,51.635326,-2.454104,72,25.47,11,35.3,14 / 22,4182487,2019-08-31 09:35:14:209,-0.0284,0.0312,9.8811,0.0317,0.0126,9.8066,-0.0575,-0.04,-0.0076,8.77,-18.36,-22.04,60.01,-2.58,0.88
41825,51.635326,-2.454104,72,25.47,11,35.3,14 / 22,4182588,2019-08-31 09:35:14:310,-0.207,0.4023,9.8783,0.0135,0.0468,9.8065,-0.0139,0.0314,-0.0503,8.3,-18.25,-22.32,63.64,-2.85,0.81
41826,51.635326,-2.454104,72,25.47,11,35.3,14 / 22,4182688,2019-08-31 09:35:14:410,-0.3313,-0.0369,9.5871,-0.0099,-0.0243,9.8066,0.0,-0.057,-0.0098,8.67,-18.15,-22.26,61.16,-2.73,0.55
41827,51.635326,-2.454104,72,25.47,11,35.3,14 / 22,4182788,2019-08-31 09:35:14:510,-0.1982,0.0889,8.3491,-0.022,-0.0419,9.8065,-0.0181,0.0112,-0.0151,8.56,-17.93,-22.48,61.41,-2.45,0.55
41828,51.635326,-2.454104,72,25.47,11,35.3,14 / 22,4182887,2019-08-31 09:35:14:609,-0.2156,-0.3289,10.1291,-0.0269,0.0045,9.8066,-0.0309,0.0282,-0.0332,8.56,-17.93,-22.48,61.41,-2.45,0.55
41829,51.635326,-2.454104,72,25.47,11,35.3,14 / 22,4182989,2019-08-31 09:35:14:711,-0.0171,-0.3358,9.6634,-0.0568,-0.0001,9.8065,-0.0266,-0.024,0.0158,8.59,-18.41,-22.08,61.41,-2.45,0.55
41830,51.635326,-2.454104,72,25.47,11,35.3,14 / 22,4183087,2019-08-31 09:35:14:809,-0.1258,-0.4758,10.9807,-0.0095,-0.0273,9.8066,-0.0266,-0.024,0.0158,8.59,-18.41,-22.08,61.4,-2.29,0.26
41831,51.635326,-2.454104,72,25.47,11,35.3,14 / 22,4183187,2019-08-31 09:35:14:909,-0.0267,0.1711,9.6511,0.0546,0.0011,9.8065,0.0501,0.058,-0.0236,8.51,-18.22,-22.26,61.57,-2.12,0.29
41832,51.635326,-2.454104,72,25.47,11,35.3,14 / 22,4183289,2019-08-31 09:35:15:011,0.7408,0.0623,10.1103,0.0853,-0.0118,9.8063,0.0394,0.0144,-0.0247,8.27,-17.76,-22.72,61.57,-2.12,0.29
41833,51.635326,-2.454104,72,25.47,11,35.3,14 / 22,4183387,2019-08-31 09:35:15:109,0.2218,-0.0133,9.4675,0.0904,-0.0268,9.8062,-0.0298,-0.0517,-0.0076,9.19,-17.53,-22.54,61.67,-2.24,0.83
41834,51.63555,-2.453871,72,26.26,12,35.1,14 / 22,4183488,2019-08-31 09:35:15:210,-0.0378,-0.063,9.4612,-0.0102,-0.0011,9.8066,-0.0384,0.0261,-0.0066,9.19,-17.53,-22.54,61.67,-2.24,0.83
41835,51.63555,-2.453871,72,26.26,12,35.1,14 / 22,4183588,2019-08-31 09:35:15:310,0.0428,0.1109,9.5479,-0.0056,0.0244,9.8066,0.0192,0.0559,-0.0002,8.81,-17.61,-22.64,61.68,-2.2,0.78
41836,51.63555,-2.453871,72,26.26,12,35.1,14 / 22,4183689,2019-08-31 09:35:15:411,0.4785,0.4044,10.0271,0.0264,0.0232,9.8066,-0.0149,-0.0506,0.0041,8.51,-18.22,-22.26,61.68,-2.2,0.78
41837,51.63555,-2.453871,72,26.26,12,35.1,14 / 22,4183788,2019-08-31 09:35:15:510,-0.2444,-0.1844,11.1385,-0.0051,-0.0223,9.8066,-0.016,0.0442,-0.0034,8.3,-18.25,-22.32,64.09,-2.4,0.85
41838,51.63555,-2.453871,72,26.26,12,35.1,14 / 22,4183887,2019-08-31 09:35:15:609,0.1242,0.1261,9.8576,-0.0068,0.012,9.8066,-0.016,0.0442,-0.0034,8.97,-18.33,-21.99,61.75,-2.27,0.88
41839,51.63555,-2.453871,72,26.26,12,35.1,14 / 22,4183987,2019-08-31 09:35:15:709,0.0673,0.234,8.8278,-0.0146,0.0209,9.8066,-0.0256,-0.0506,0.0158,8.97,-18.33,-21.99,61.75,-2.27,0.88
41840,51.63555,-2.453871,72,26.26,12,35.1,14 / 22,4184088,2019-08-31 09:35:15:810,0.2139,-0.1024,8.7484,-0.029,-0.0353,9.8065,0.0032,-0.008,0.0009,8.21,-18.48,-22.16,64.1,-2.33,0.75
41841,51.63555,-2.453871,72,26.26,12,35.1,14 / 22,4184187,2019-08-31 09:35:15:909,0.6399,-0.0802,9.1791,-0.0333,-0.0791,9.8063,-0.0362,-0.0282,0.0307,8.97,-18.33,-21.99,62.09,-1.83,0.77
41842,51.63555,-2.453871,72,26.26,12,35.1,14 / 22,4184288,2019-08-31 09:35:16:010,0.2758,-0.2079,10.4038,0.0186,-0.0095,9.8066,0.0043,0.0495,0.0094,8.97,-18.33,-21.99,62.15,-1.83,0.9
41843,51.63555,-2.453871,72,26.26,12,35.1,14 / 22,4184388,2019-08-31 09:35:16:110,0.3191,-0.2926,10.2503,0.0377,0.0267,9.8065,-0.0107,0.0687,0.0051,8.97,-18.33,-21.99,62.15,-1.83,0.9
41844,51.63575,-2.453639,71,26.41,12,35.8,14 / 22,4184488,2019-08-31 09:35:16:210,0.5949,0.0852,10.3365,0.0587,0.045,9.8064,0.033,0.0495,-0.0226,8.67,-18.15,-22.26,61.89,-2.23,1.08
41845,51.63575,-2.453639,71,26.41,12,35.8,14 / 22,4184587,2019-08-31 09:35:16:309,1.2304,0.3914,9.4278,0.023,0.0116,9.8066,0.033,0.0495,-0.0226,8.38,-18.68,-21.93,65.46,-2.35,1.16
41846,51.63575,-2.453639,71,26.41,12,35.8,14 / 22,4184688,2019-08-31 09:35:16:410,0.8245,-0.2966,8.4965,0.0212,0.0036,9.8066,-0.0245,-0.0762,0.0051,8.06,-18.54,-22.16,65.44,-2.42,1.27
41847,51.63575,-2.453639,71,26.41,12,35.8,14 / 22,4184788,2019-08-31 09:35:16:510,-0.335,-0.2991,8.392,-0.0204,-0.0313,9.8066,0.0181,-0.0432,-0.0151,8.06,-18.54,-22.16,65.44,-2.42,1.27
41848,51.63575,-2.453639,71,26.41,12,35.8,14 / 22,4184888,2019-08-31 09:35:16:610,-0.4057,-0.0235,10.1542,-0.0531,-0.0228,9.8065,-0.0362,-0.1305,0.0201,8.93,-19.01,-21.42,63.29,-2.2,1.24
41849,51.63575,-2.453639,71,26.41,12,35.8,14 / 22,4184988,2019-08-31 09:35:16:710,0.04,0.0316,9.1552,-0.0654,-0.052,9.8063,-0.0149,-0.0069,-0.0034,8.91,-18.62,-21.77,63.29,-2.2,1.24
41850,51.63575,-2.453639,71,26.41,12,35.8,14 / 22,4185088,2019-08-31 09:35:16:810,-0.4489,-0.0547,10.3279,0.0107,-0.0047,9.8066,0.0362,-0.0016,-0.0055,9.09,-18.58,-21.73,63.52,-1.76,1.03
41851,51.63575,-2.453639,71,26.41,12,35.8,14 / 22,4185188,2019-08-31 09:35:16:910,-0.3621,-0.0946,10.0725,0.0454,0.0303,9.8065,0.0075,0.1017,-0.0098,9.09,-18.58,-21.73,63.52,-1.76,1.03
41852,51.63575,-2.453639,71,26.41,12,35.8,14 / 22,4185287,2019-08-31 09:35:17:009,0.0075,-0.3061,10.8154,0.033,0.0476,9.8065,0.0043,0.0218,-0.0162,8.11,-19.4,-21.4,65.81,-2.04,1.19
41853,51.63575,-2.453639,71,26.41,12,35.8,14 / 22,4185388,2019-08-31 09:35:17:110,0.1269,0.1816,10.1293,0.0165,0.0344,9.8066,-0.0064,-0.0432,0.0009,8.65,-18.87,-21.66,65.81,-2.04,1.19
41854,51.635845,-2.453406,72,24.96,12,38.9,Dec-22,4185487,2019-08-31 09:35:17:209,0.2004,-0.14,9.6456,-0.006,-0.0076,9.8066,-0.0064,-0.0432,0.0009,8.56,-19.08,-21.51,63.16,-2.26,1.2
41855,51.635845,-2.453406,72,24.96,12,38.9,Dec-22,4185588,2019-08-31 09:35:17:310,0.2321,-0.2462,10.6148,-0.0057,-0.0048,9.8066,-0.0202,-0.0155,0.0094,8.55,-18.65,-21.89,63.19,-2.22,1.18
41856,51.635845,-2.453406,72,24.96,12,38.9,Dec-22,4185688,2019-08-31 09:35:17:410,-0.041,-0.2115,8.7678,-0.0091,-0.0203,9.8066,0.0288,-0.0282,-0.0194,8.55,-18.65,-21.89,63.19,-2.22,1.18
41857,51.635845,-2.453406,72,24.96,12,38.9,Dec-22,4185787,2019-08-31 09:35:17:509,-0.0844,-0.062,9.7897,-0.0159,-0.0262,9.8066,-0.0011,0.0027,0.003,8.73,-19.06,-21.46,63.53,-1.91,1.21
41858,51.635845,-2.453406,72,24.96,12,38.9,Dec-22,4185888,2019-08-31 09:35:17:610,-0.1491,-0.1183,9.3634,-0.001,0.0021,9.8066,-0.016,0.009,-0.0044,8.55,-18.65,-21.89,63.62,-1.73,1.2
41859,51.635845,-2.453406,72,24.96,12,38.9,Dec-22,4185988,2019-08-31 09:35:17:710,0.2911,0.3337,10.043,0.0088,0.0269,9.8066,-0.0277,0.0218,0.0041,8.55,-18.65,-21.89,63.62,-1.73,1.2
41860,51.635845,-2.453406,72,24.96,12,38.9,Dec-22,4186088,2019-08-31 09:35:17:810,-0.5868,0.0364,9.6125,0.0033,0.0114,9.8066,0.0,0.0346,-0.0044,8.18,-19.16,-21.59,65.87,-1.89,1.17
41861,51.635845,-2.453406,72,24.96,12,38.9,Dec-22,4186188,2019-08-31 09:35:17:910,0.4476,0.2007,9.5407,0.0077,0.0142,9.8066,0.0,0.0346,-0.0044,8.55,-18.65,-21.89,63.41,-1.96,1.16
41862,51.635845,-2.453406,72,24.96,12,38.9,Dec-22,4186287,2019-08-31 09:35:18:009,0.245,0.0119,9.2936,0.0076,0.0162,9.8066,-0.0149,0.0037,-0.0055,9.03,-19.22,-21.19,63.41,-1.96,1.16
41863,51.635845,-2.453406,72,24.96,12,38.9,Dec-22,4186388,2019-08-31 09:35:18:110,0.6706,0.131,10.1315,-0.0138,0.0101,9.8066,-0.0479,-0.0357,0.0169,8.18,-19.16,-21.59,65.75,-1.98,1.06
41864,51.636032,-2.453175,72,25.27,12,38.6,Dec-22,4186487,2019-08-31 09:35:18:209,0.1148,-0.0069,9.6689,-0.0182,-0.0103,9.8066,0.0075,0.0069,-0.0236,8.41,-19.56,-21.14,65.75,-1.98,1.06
41865,51.636032,-2.453175,72,25.27,12,38.6,Dec-22,4186588,2019-08-31 09:35:18:310,0.1393,-0.4507,10.5158,-0.0372,-0.0233,9.8066,0.0064,-0.0037,0.0158,8.56,-19.08,-21.51,63.46,-1.76,0.92
41866,51.636032,-2.453175,72,25.27,12,38.6,Dec-22,4186688,2019-08-31 09:35:18:410,-0.0396,-0.184,9.3838,0.0102,-0.0147,9.8066,0.0245,0.0016,-0.014,8.56,-19.08,-21.51,63.46,-1.76,0.92
41867,51.636032,-2.453175,72,25.27,12,38.6,Dec-22,4186788,2019-08-31 09:35:18:510,0.6657,0.121,10.2703,0.0036,0.0073,9.8066,-0.0224,0.0165,-0.0023,7.97,-19.86,-21.03,67.01,-1.79,1.01
41868,51.636032,-2.453175,72,25.27,12,38.6,Dec-22,4186888,2019-08-31 09:35:18:610,0.0951,0.0528,9.2445,-0.0167,0.0112,9.8066,0.0011,0.0272,0.0041,7.97,-19.86,-21.03,67.01,-1.79,1.01
41869,51.636032,-2.453175,72,25.27,12,38.6,Dec-22,4186987,2019-08-31 09:35:18:709,-0.1687,-0.2066,9.7444,0.0033,0.0094,9.8066,0.0011,0.0272,0.0041,8.13,-19.85,-20.97,66.94,-1.81,0.89
41870,51.636032,-2.453175,72,25.27,12,38.6,Dec-22,4187088,2019-08-31 09:35:18:810,-0.1756,-0.0764,8.9589,-0.0047,-0.0072,9.8066,0.0138,0.0304,-0.0247,8.11,-19.4,-21.4,65.83,-1.87,0.89
41871,51.636032,-2.453175,72,25.27,12,38.6,Dec-22,4187188,2019-08-31 09:35:18:910,0.5861,0.3176,9.4629,-0.0111,-0.03,9.8066,-0.0053,0.0208,0.0158,8.11,-19.4,-21.4,65.83,-1.87,0.89
41872,51.636032,-2.453175,72,25.27,12,38.6,Dec-22,4187287,2019-08-31 09:35:19:009,-0.1896,-0.21,9.4949,-0.0058,-0.0108,9.8066,-0.017,-0.0155,0.0307,8.48,-19.32,-21.32,66.0,-1.68,0.9
41873,51.636032,-2.453175,72,25.27,12,38.6,Dec-22,4187388,2019-08-31 09:35:19:110,0.0166,-0.2275,10.2741,-0.0012,-0.0003,9.8067,-0.0362,0.0218,0.0371,8.34,-19.79,-20.95,67.12,-1.61,0.9
41874,51.636284,-2.45294,71,26.55,12,36.9,Dec-22,4187488,2019-08-31 09:35:19:210,-0.3617,0.0435,10.2021,0.0014,0.0041,9.8066,0.0202,0.0506,-0.014,8.11,-19.4,-21.4,67.12,-1.61,0.9
41875,51.636284,-2.45294,71,26.55,12,36.9,Dec-22,4187588,2019-08-31 09:35:19:310,0.2893,-0.0139,10.1236,0.0047,0.0271,9.8066,-0.0011,0.0335,-0.013,7.89,-19.67,-21.23,66.97,-1.77,0.86
41876,51.636284,-2.45294,71,26.55,12,36.9,Dec-22,4187689,2019-08-31 09:35:19:411,-0.4267,0.2461,9.0285,-0.0035,0.02,9.8066,-0.0011,0.0335,-0.013,7.89,-19.67,-21.23,66.97,-1.77,0.86
41877,51.636284,-2.45294,71,26.55,12,36.9,Dec-22,4187788,2019-08-31 09:35:19:510,0.2016,-0.0911,9.3315,-0.0169,-0.0277,9.8066,0.0298,0.0027,-0.0119,7.96,-19.44,-21.41,65.82,-1.84,0.79
41878,51.636284,-2.45294,71,26.55,12,36.9,Dec-22,4187888,2019-08-31 09:35:19:610,0.1594,-0.0676,9.0409,-0.018,-0.0389,9.8066,-0.0032,-0.0325,0.0041,8.41,-19.56,-21.14,65.82,-1.84,0.79
41879,51.636284,-2.45294,71,26.55,12,36.9,Dec-22,4187988,2019-08-31 09:35:19:710,0.2675,0.0697,8.7266,-0.0132,0.0003,9.8066,-0.0085,0.0229,0.0094,8.41,-19.56,-21.14,67.09,-1.59,0.79
41880,51.636284,-2.45294,71,26.55,12,36.9,Dec-22,4188088,2019-08-31 09:35:19:810,-0.0548,0.1687,9.028,-0.0095,0.007,9.8066,-0.0085,0.008,0.0062,8.11,-19.4,-21.4,67.09,-1.59,0.79
41881,51.636284,-2.45294,71,26.55,12,36.9,Dec-22,4188188,2019-08-31 09:35:19:910,-0.3316,0.1375,10.4826,-0.0107,0.013,9.8066,0.0096,0.0005,-0.0055,8.11,-19.4,-21.4,67.09,-1.59,0.79
41882,51.636284,-2.45294,71,26.55,12,36.9,Dec-22,4188287,2019-08-31 09:35:20:009,-0.6889,0.0263,10.3826,0.0093,0.0169,9.8066,0.0224,0.0517,-0.0023,8.26,-19.6,-21.15,67.02,-1.64,0.7
41883,51.636284,-2.45294,71,26.55,12,36.9,Dec-22,4188388,2019-08-31 09:35:20:110,0.1065,0.1708,9.7731,0.0276,0.0275,9.8066,-0.0234,0.0154,0.0201,7.96,-19.44,-21.41,65.81,-1.85,0.79
41884,51.63653,-2.452719,70,27.02,12,35.7,Dec-22,4188488,2019-08-31 09:35:20:210,-0.2728,-0.0782,10.3251,0.0181,-0.0082,9.8066,-0.0298,-0.0155,0.0232,8.04,-19.63,-21.21,66.92,-1.85,0.9
41885,51.63653,-2.452719,70,27.02,12,35.7,Dec-22,4188587,2019-08-31 09:35:20:309,0.5864,0.1147,10.6342,0.0081,-0.0198,9.8066,-0.0298,-0.0155,0.0232,8.04,-19.63,-21.21,66.92,-1.85,0.9
41886,51.63653,-2.452719,70,27.02,12,35.7,Dec-22,4188688,2019-08-31 09:35:20:410,0.5864,0.1147,10.6342,0.0034,-0.0158,9.8066,-0.0192,0.0016,0.0009,8.04,-19.63,-21.21,66.92,-1.85,0.9
41887,51.63653,-2.452719,70,27.02,12,35.7,Dec-22,4188788,2019-08-31 09:35:20:510,-0.5403,0.0561,9.3808,-0.0121,0.0046,9.8066,0.0053,0.0229,-0.0087,8.11,-19.4,-21.4,65.95,-1.77,0.96
41888,51.63653,-2.452719,70,27.02,12,35.7,Dec-22,4188888,2019-08-31 09:35:20:610,-0.2927,0.1938,9.0163,-0.0102,-0.0025,9.8066,-0.0043,0.0218,0.003,8.34,-19.79,-20.95,67.02,-1.73,0.91
41889,51.63653,-2.452719,70,27.02,12,35.7,Dec-22,4188988,2019-08-31 09:35:20:710,-0.592,-0.292,9.0134,-0.0054,-0.0141,9.8066,-0.0469,-0.0911,0.0488,7.98,-19.89,-20.99,67.02,-1.73,0.91
41890,51.63653,-2.452719,70,27.02,12,35.7,Dec-22,4189088,2019-08-31 09:35:20:810,-0.0011,-0.0546,10.004,-0.0063,-0.0063,9.8066,-0.0032,-0.0272,-0.0002,7.98,-19.89,-20.99,67.02,-1.73,0.91
41891,51.63653,-2.452719,70,27.02,12,35.7,Dec-22,4189187,2019-08-31 09:35:20:909,-0.0797,0.0196,10.2287,-0.0195,0.0041,9.8066,-0.0053,-0.0027,0.0009,8.05,-20.08,-20.79,67.05,-1.68,0.89
41892,51.63653,-2.452719,70,27.02,12,35.7,Dec-22,4189288,2019-08-31 09:35:21:010,-0.1473,0.0539,9.9163,-0.0121,0.0023,9.8066,0.0128,-0.0123,-0.0045,8.5,-19.78,-20.9,64.68,-1.66,0.77
41893,51.63653,-2.452719,70,27.02,12,35.7,Dec-22,4189387,2019-08-31 09:35:21:109,-0.2685,-0.3421,11.0007,0.0002,0.0032,9.8066,0.0128,-0.0123,-0.0045,8.68,-19.76,-20.84,64.66,-1.64,0.7
41894,51.63671,-2.452485,70,26.08,12,37.5,Dec-22,4189489,2019-08-31 09:35:21:211,0.3002,0.0166,10.6523,0.0201,0.0215,9.8066,-0.0064,0.0506,0.0041,8.68,-19.76,-20.84,64.66,-1.64,0.7
41895,51.63671,-2.452485,70,26.08,12,37.5,Dec-22,4189588,2019-08-31 09:35:21:310,0.1621,0.2388,9.9631,0.0114,0.0137,9.8066,-0.0245,-0.0048,0.0105,9.43,-20.02,-20.26,64.61,-1.81,0.76
41896,51.63671,-2.452485,70,26.08,12,37.5,Dec-22,4189689,2019-08-31 09:35:21:411,0.3635,0.3275,8.6696,-0.0079,0.0141,9.8066,-0.0245,-0.0155,0.0105,9.16,-19.9,-20.49,64.61,-1.81,0.76
41897,51.63671,-2.452485,70,26.08,12,37.5,Dec-22,4189788,2019-08-31 09:35:21:510,0.0501,0.135,9.6205,-0.0248,-0.0021,9.8066,-0.0192,-0.0304,0.003,10.11,-20.13,-19.81,62.27,-1.86,0.68
41898,51.63671,-2.452485,70,26.08,12,37.5,Dec-22,4189888,2019-08-31 09:35:21:610,-0.1208,0.2919,9.3931,-0.0429,-0.01,9.8066,0.0128,-0.0378,-0.014,11.4,-20.5,-18.7,61.37,-1.69,0.49
41899,51.63671,-2.452485,70,26.08,12,37.5,Dec-22,4189988,2019-08-31 09:35:21:710,-0.7474,0.2559,9.5565,-0.0393,-0.0139,9.8066,-0.0043,0.0282,0.0019,11.4,-20.5,-18.7,61.37,-1.69,0.49
41900,51.63671,-2.452485,70,26.08,12,37.5,Dec-22,4190088,2019-08-31 09:35:21:810,-0.3509,0.1398,9.3977,0.0027,0.0074,9.8066,0.0202,0.0293,-0.0034,13.83,-22.31,-14.53,56.92,-1.51,0.32
41901,51.63671,-2.452485,70,26.08,12,37.5,Dec-22,4190188,2019-08-31 09:35:21:910,-0.1767,-0.1594,10.0731,0.0128,0.0222,9.8066,0.0202,0.0293,-0.0034,10.03,-26.72,-9.24,69.24,-1.66,0.31
41902,51.63671,-2.452485,70,26.08,12,37.5,Dec-22,4190288,2019-08-31 09:35:22:010,-0.0992,-0.2506,11.3718,0.0027,0.0197,9.8066,0.0117,0.041,-0.0034,10.03,-26.72,-9.24,69.24,-1.66,0.31
41903,51.63671,-2.452485,70,26.08,12,37.5,Dec-22,4190387,2019-08-31 09:35:22:109,-0.0027,0.1139,10.131,0.0029,0.0013,9.8066,-0.016,0.0144,0.0318,-1.06,-28.2,-10.18,91.42,-1.77,0.29
41904,51.636887,-2.452262,71,25.29,12,38.0,Dec-22,4190488,2019-08-31 09:35:22:210,-0.393,0.38,9.9238,0.0128,0.011,9.8066,-0.0021,-0.0389,0.0137,-2.67,-26.7,-13.41,91.42,-1.77,0.29
41905,51.636887,-2.452262,71,25.29,12,38.0,Dec-22,4190587,2019-08-31 09:35:22:309,0.6718,0.5346,9.6119,0.0173,0.0127,9.8066,-0.0096,-0.0176,0.0126,-0.87,-24.6,-17.15,91.04,-1.85,0.39
41906,51.636887,-2.452262,71,25.29,12,38.0,Dec-22,4190687,2019-08-31 09:35:22:409,-0.053,-0.0886,10.1976,-0.0036,-0.0154,9.8066,-0.0224,-0.0176,0.0115,5.5,-21.73,-19.94,73.38,-1.76,0.37
41907,51.636887,-2.452262,71,25.29,12,38.0,Dec-22,4190788,2019-08-31 09:35:22:510,-0.3373,-0.4509,9.4554,-0.0224,-0.0176,9.8066,0.032,0.0495,-0.0077,9.73,-20.23,-19.91,73.38,-1.76,0.37
41908,51.636887,-2.452262,71,25.29,12,38.0,Dec-22,4190888,2019-08-31 09:35:22:610,-0.1483,0.1917,10.2689,-0.0177,0.0024,9.8066,0.0383,0.0399,0.019,9.73,-20.23,-19.91,73.38,-1.76,0.37
41909,51.636887,-2.452262,71,25.29,12,38.0,Dec-22,4190988,2019-08-31 09:35:22:710,0.1965,0.1568,9.4565,0.0139,-0.0236,9.8066,0.0383,0.0399,0.019,11.76,-20.3,-18.69,57.95,-1.85,0.39
41910,51.636887,-2.452262,71,25.29,12,38.0,Dec-22,4191089,2019-08-31 09:35:22:811,-0.0156,0.3552,9.2108,0.0362,-0.0394,9.8065,0.0341,-0.0453,0.0179,11.39,-19.54,-19.71,57.95,-1.85,0.39
41911,51.636887,-2.452262,71,25.29,12,38.0,Dec-22,4191188,2019-08-31 09:35:22:910,-0.3706,-0.2048,9.0829,0.0479,-0.0493,9.8064,-0.0032,0.0229,0.0168,11.39,-19.54,-19.71,57.95,-1.85,0.39
41912,51.636887,-2.452262,71,25.29,12,38.0,Dec-22,4191288,2019-08-31 09:35:23:010,0.32,-0.2029,9.8124,-0.0005,-0.0115,9.8066,-0.0309,-0.0474,0.0211,10.29,-20.49,-19.35,62.44,-1.76,0.78
41913,51.636887,-2.452262,71,25.29,12,38.0,Dec-22,4191387,2019-08-31 09:35:23:109,0.449,-0.0015,9.424,-0.0017,-0.0133,9.8066,0.0064,-0.024,-0.0023,6.93,-22.7,-18.34,72.08,-1.7,0.8
41914,51.637066,-2.452048,71,25.1,12,37.7,Dec-22,4191488,2019-08-31 09:35:23:210,0.3809,0.016,10.0445,0.0059,-0.0084,9.8066,-0.0085,0.0176,0.0083,11.48,-22.55,-16.11,72.08,-1.7,0.8
41915,51.637066,-2.452048,71,25.1,12,37.7,Dec-22,4191587,2019-08-31 09:35:23:309,0.0792,-0.094,9.6651,0.0197,0.0082,9.8066,-0.0032,-0.0123,-0.0013,11.48,-22.55,-16.11,72.08,-1.7,0.8
41916,51.637066,-2.452048,71,25.1,12,37.7,Dec-22,4191688,2019-08-31 09:35:23:410,0.2044,0.2198,9.6434,0.0097,0.0102,9.8066,0.0053,0.0069,-0.0034,10.13,-19.39,-20.53,61.17,-1.78,0.9
41917,51.637066,-2.452048,71,25.1,12,37.7,Dec-22,4191788,2019-08-31 09:35:23:510,0.4058,0.2247,9.616,0.0104,0.0132,9.8066,0.0053,0.0069,-0.0034,9.22,-19.17,-21.15,61.17,-1.78,0.9
41918,51.637066,-2.452048,71,25.1,12,37.7,Dec-22,4191888,2019-08-31 09:35:23:610,-0.493,-0.0389,9.4318,-0.008,-0.0036,9.8066,0.016,0.0421,-0.0098,9.13,-19.38,-21.01,63.37,-1.91,0.88
41919,51.637066,-2.452048,71,25.1,12,37.7,Dec-22,4191989,2019-08-31 09:35:23:711,-0.4918,0.043,10.0947,-0.0028,-0.0226,9.8066,-0.0139,-0.0474,0.035,9.13,-19.38,-21.01,63.37,-1.91,0.88
41920,51.637066,-2.452048,71,25.1,12,37.7,Dec-22,4192087,2019-08-31 09:35:23:809,0.3058,0.0036,9.5474,0.0027,-0.0041,9.8066,-0.0053,0.0229,-0.0013,8.69,-19.68,-20.91,64.63,-1.79,0.92
41921,51.637066,-2.452048,71,25.1,12,37.7,Dec-22,4192188,2019-08-31 09:35:23:910,0.0376,0.0139,8.9126,-0.0054,-0.0052,9.8066,-0.0107,0.0176,0.0009,8.02,-19.6,-21.25,64.63,-1.79,0.92
41922,51.637066,-2.452048,71,25.1,12,37.7,Dec-22,4192287,2019-08-31 09:35:24:009,0.097,-0.0156,9.3755,0.0039,0.0013,9.8066,-0.0107,0.0144,0.0179,8.69,-19.68,-20.91,64.63,-1.8,0.94
41923,51.637066,-2.452048,71,25.1,12,37.7,Dec-22,4192389,2019-08-31 09:35:24:111,0.587,0.331,9.9721,0.0176,0.0039,9.8066,0.017,0.0357,0.0073,8.52,-19.7,-20.96,64.61,-1.87,1.02
41924,51.63721,-2.451814,71,25.09,13,39.0,Oct-22,4192488,2019-08-31 09:35:24:210,-0.685,-0.3325,10.63,0.0232,0.0074,9.8066,-0.0234,-0.0698,0.0499,8.52,-19.7,-20.96,64.61,-1.87,1.02
41925,51.63721,-2.451814,71,25.09,13,39.0,Oct-22,4192588,2019-08-31 09:35:24:310,0.2673,0.0975,9.784,0.0301,0.0092,9.8066,-0.0234,-0.0698,0.0499,8.4,-19.53,-21.17,66.9,-1.99,1.16
41926,51.63721,-2.451814,71,25.09,13,39.0,Oct-22,4192688,2019-08-31 09:35:24:410,0.5908,0.2479,9.1972,0.0064,-0.0095,9.8066,0.0277,-0.0346,-0.0055,8.4,-19.94,-20.78,66.95,-1.96,1.21
41927,51.63721,-2.451814,71,25.09,13,39.0,Oct-22,4192787,2019-08-31 09:35:24:509,0.6004,-0.0626,9.3478,-0.009,-0.0453,9.8065,-0.0266,-0.1049,0.0382,8.4,-19.94,-20.78,66.95,-1.96,1.21
41928,51.63721,-2.451814,71,25.09,13,39.0,Oct-22,4192888,2019-08-31 09:35:24:610,-0.5278,-0.3061,9.9161,0.0017,-0.0141,9.8066,-0.0181,-0.0389,0.0307,8.4,-19.53,-21.17,67.19,-1.69,1.27
41929,51.63721,-2.451814,71,25.09,13,39.0,Oct-22,4192988,2019-08-31 09:35:24:710,0.1477,-0.1425,8.9908,0.0094,-0.003,9.8066,0.0064,0.0644,0.02,8.08,-19.4,-21.4,66.17,-1.7,1.33
41930,51.63721,-2.451814,71,25.09,13,39.0,Oct-22,4193088,2019-08-31 09:35:24:810,0.442,0.4435,10.1772,0.0198,0.0226,9.8066,-0.0298,-0.0048,0.0105,8.08,-19.4,-21.4,66.17,-1.7,1.33
41931,51.63721,-2.451814,71,25.09,13,39.0,Oct-22,4193188,2019-08-31 09:35:24:910,-0.3794,0.0308,9.6728,0.0029,0.0129,9.8066,-0.0107,0.0027,0.0296,7.94,-19.38,-21.48,66.04,-1.87,1.38
41932,51.63721,-2.451814,71,25.09,13,39.0,Oct-22,4193288,2019-08-31 09:35:25:010,-0.4762,0.0644,8.9399,0.0103,0.017,9.8066,0.0043,-0.0187,0.0019,7.94,-19.38,-21.48,66.04,-1.87,1.38
41933,51.63721,-2.451814,71,25.09,13,39.0,Oct-22,4193388,2019-08-31 09:35:25:110,-0.4865,0.1087,9.7702,0.0037,-0.0005,9.8066,0.0043,-0.0187,0.0019,8.46,-19.33,-21.32,65.95,-1.98,1.39
41934,51.63741,-2.451554,70,25.55,12,38.9,Oct-22,4193488,2019-08-31 09:35:25:210,0.6546,-0.0671,9.7052,-0.001,-0.0179,9.8066,0.0064,0.0154,-0.0087,8.02,-19.6,-21.25,65.95,-1.98,1.39
41935,51.63741,-2.451554,70,25.55,12,38.9,Oct-22,4193588,2019-08-31 09:35:25:310,0.1836,0.035,9.928,-0.0085,-0.0385,9.8066,-0.0043,-0.0325,-0.0023,8.02,-19.6,-21.25,67.21,-1.75,1.44
41936,51.63741,-2.451554,70,25.55,12,38.9,Oct-22,4193688,2019-08-31 09:35:25:410,-0.2759,-0.4872,10.5663,-0.0179,0.0032,9.8066,-0.0149,0.0176,0.0051,8.02,-19.6,-21.25,67.21,-1.75,1.44
41937,51.63741,-2.451554,70,25.55,12,38.9,Oct-22,4193788,2019-08-31 09:35:25:510,0.3411,0.4456,10.1441,0.0017,0.0131,9.8066,-0.0064,-0.0112,0.0083,8.4,-19.53,-21.17,67.12,-1.76,1.23
41938,51.63741,-2.451554,70,25.55,12,38.9,Oct-22,4193888,2019-08-31 09:35:25:610,-0.5275,-0.0543,10.3216,-0.0156,0.0171,9.8066,-0.0192,-0.0059,0.003,8.31,-19.73,-21.02,67.05,-1.83,1.21
41939,51.63741,-2.451554,70,25.55,12,38.9,Oct-22,4193988,2019-08-31 09:35:25:710,-0.3198,0.0164,10.7093,-0.0392,0.0383,9.8065,-0.0362,-0.0133,0.0137,7.95,-19.83,-21.06,67.05,-1.83,1.21
41940,51.63741,-2.451554,70,25.55,12,38.9,Oct-22,4194087,2019-08-31 09:35:25:809,-0.2718,0.0762,9.4481,-0.0528,0.0635,9.8063,0.0192,0.0218,-0.0055,7.66,-20.12,-20.89,66.69,-2.06,0.78
41941,51.63741,-2.451554,70,25.55,12,38.9,Oct-22,4194188,2019-08-31 09:35:25:910,-0.5815,0.1984,9.7995,-0.0077,-0.0116,9.8066,0.0192,0.0218,-0.0055,7.66,-20.12,-20.89,66.69,-2.06,0.78
41942,51.63741,-2.451554,70,25.55,12,38.9,Oct-22,4194287,2019-08-31 09:35:26:009,0.1732,-0.0014,8.9059,-0.0056,-0.0202,9.8066,0.0234,-0.0325,-0.0183,7.95,-19.83,-21.06,66.76,-1.97,0.76
41943,51.63741,-2.451554,70,25.55,12,38.9,Nov-22,4194388,2019-08-31 09:35:26:110,-0.0591,-0.1584,8.9704,-0.0144,-0.0253,9.8066,0.0011,0.0367,-0.0077,7.95,-19.83,-21.06,66.76,-1.97,0.76
41944,51.637615,-2.451329,72,25.85,12,37.5,Nov-22,4194488,2019-08-31 09:35:26:210,-0.5964,0.1346,10.2512,-0.0091,-0.0111,9.8066,-0.0117,-0.024,0.0254,7.95,-19.83,-21.06,66.81,-1.89,0.74
41945,51.637615,-2.451329,72,25.85,12,37.5,Nov-22,4194587,2019-08-31 09:35:26:309,-0.3783,-0.2464,10.2637,0.0029,0.0049,9.8066,-0.0096,-0.0112,0.0222,7.95,-19.83,-21.06,66.81,-1.89,0.74
41946,51.637615,-2.451329,72,25.85,12,37.5,Nov-22,4194687,2019-08-31 09:35:26:409,-0.1244,-0.1834,9.3971,0.0128,0.0036,9.8066,0.0106,0.0314,-0.0034,7.95,-19.83,-21.06,66.81,-1.89,0.74
41947,51.637615,-2.451329,72,25.85,12,37.5,Nov-22,4194788,2019-08-31 09:35:26:510,-0.071,-0.4513,9.9897,-0.0213,-0.0086,9.8066,0.0043,-0.0538,-0.0109,8.1,-19.79,-21.04,66.8,-1.94,0.8
41948,51.637615,-2.451329,72,25.85,12,37.5,Nov-22,4194887,2019-08-31 09:35:26:609,-0.3332,-0.0689,9.9966,-0.0369,-0.0183,9.8066,0.0043,-0.0538,-0.0109,7.87,-19.61,-21.29,66.89,-1.76,0.64
41949,51.637615,-2.451329,72,25.85,12,37.5,Nov-22,4194988,2019-08-31 09:35:26:710,-0.4321,-0.1051,10.3553,-0.0104,0.0013,9.8066,-0.0149,-0.0187,0.0126,7.87,-19.61,-21.29,66.89,-1.76,0.64
41950,51.637615,-2.451329,72,25.85,12,37.5,Nov-22,4195088,2019-08-31 09:35:26:810,0.0012,-0.337,10.2629,0.0003,0.0098,9.8066,0.0011,0.0272,0.0019,8.32,-19.76,-20.99,66.88,-1.74,0.58
41951,51.637615,-2.451329,72,25.85,12,37.5,Nov-22,4195188,2019-08-31 09:35:26:910,0.1367,0.1469,9.968,0.0011,0.0294,9.8066,-0.0032,0.0048,-0.0023,8.32,-19.76,-20.99,66.88,-1.74,0.58
41952,51.637615,-2.451329,72,25.85,12,37.5,Nov-22,4195288,2019-08-31 09:35:27:010,-0.0124,0.1701,9.4593,0.0035,0.0158,9.8066,0.0075,-0.0027,0.0094,8.11,-19.82,-21.01,66.72,-1.9,0.52
41953,51.637615,-2.451329,72,25.85,12,37.5,Nov-22,4195388,2019-08-31 09:35:27:110,-0.0828,0.1177,8.8775,0.0063,0.0118,9.8066,0.0298,-0.0112,0.0019,7.95,-19.83,-21.06,66.66,-1.98,0.53
41954,51.637756,-2.451088,72,25.36,12,38.7,Nov-22,4195488,2019-08-31 09:35:27:210,0.5348,0.1988,9.1861,0.0158,-0.0177,9.8066,0.0075,-0.0495,0.003,7.95,-19.83,-21.06,66.66,-1.98,0.53
41955,51.637756,-2.451088,72,25.36,12,38.7,Nov-22,4195588,2019-08-31 09:35:27:310,-0.4263,-0.0712,9.1822,-0.0006,-0.0194,9.8066,0.0075,-0.0495,0.003,8.55,-19.55,-21.09,64.41,-1.92,0.66
41956,51.637756,-2.451088,72,25.36,12,38.7,Nov-22,4195688,2019-08-31 09:35:27:410,-0.0288,-0.0824,10.5924,-0.0048,-0.0273,9.8066,0.0234,-0.0005,-0.0204,8.02,-19.6,-21.25,64.41,-1.92,0.66
41957,51.637756,-2.451088,72,25.36,12,38.7,Nov-22,4195788,2019-08-31 09:35:27:510,0.143,-0.3136,10.5777,0.0008,-0.0052,9.8066,0.0138,0.0208,-0.0077,8.49,-19.74,-20.93,66.93,-1.75,0.71
41958,51.637756,-2.451088,72,25.36,12,38.7,Nov-22,4195888,2019-08-31 09:35:27:610,0.0432,0.0924,9.7194,0.0094,0.0081,9.8066,0.0,0.0005,0.0062,8.49,-19.74,-20.93,66.93,-1.75,0.71
41959,51.637756,-2.451088,72,25.36,12,38.7,Nov-22,4195992,2019-08-31 09:35:27:714,0.083,0.0465,9.9114,0.0187,0.0235,9.8066,0.0107,0.0261,0.0115,7.87,-19.61,-21.29,66.89,-1.81,0.74
41960,51.637756,-2.451088,72,25.36,12,38.7,Nov-22,4196088,2019-08-31 09:35:27:810,0.4682,-0.0895,10.0005,0.0185,0.0306,9.8066,0.0107,0.0261,0.0126,7.95,-19.83,-21.06,66.89,-1.81,0.74
41961,51.637756,-2.451088,72,25.36,12,38.7,Nov-22,4196188,2019-08-31 09:35:27:910,0.269,0.0902,9.6151,-0.0034,0.0109,9.8066,-0.017,0.0144,0.0104,8.32,-19.76,-20.99,66.72,-2.02,0.77
41962,51.637756,-2.451088,72,25.36,12,38.7,Nov-22,4196288,2019-08-31 09:35:28:010,-0.7088,-0.4115,10.2025,-0.0123,0.0115,9.8066,-0.0192,-0.073,0.0222,7.58,-19.9,-21.13,66.72,-2.02,0.77
41963,51.637756,-2.451088,72,25.36,12,38.7,Nov-22,4196389,2019-08-31 09:35:28:111,0.2142,-0.0181,10.0171,-0.03,-0.0056,9.8066,0.0149,0.0005,-0.0087,8.02,-19.6,-21.25,66.75,-1.92,0.62
41964,51.63795,-2.450869,73,25.68,12,37.9,Nov-22,4196488,2019-08-31 09:35:28:210,-0.2911,-0.3395,9.6618,-0.0101,-0.0109,9.8066,0.0149,0.0005,-0.0087,8.02,-19.6,-21.25,66.75,-1.92,0.62
41965,51.63795,-2.450869,73,25.68,12,37.9,Nov-22,4196588,2019-08-31 09:35:28:310,0.1938,-0.0849,9.1236,-0.008,-0.0293,9.8066,0.0075,-0.0432,-0.0002,8.02,-19.6,-21.25,66.91,-1.74,0.64
41966,51.63795,-2.450869,73,25.68,12,37.9,Nov-22,4196687,2019-08-31 09:35:28:409,-0.2181,-0.213,9.9796,0.0188,-0.0037,9.8066,0.0266,0.0218,-0.013,8.02,-19.6,-21.25,66.93,-1.77,0.75
41967,51.63795,-2.450869,73,25.68,12,37.9,Nov-22,4196788,2019-08-31 09:35:28:510,0.314,0.2805,9.2705,0.0091,-0.0052,9.8066,0.0138,-0.024,-0.0013,8.32,-19.76,-20.99,66.93,-1.77,0.75
41968,51.63795,-2.450869,73,25.68,12,37.9,Nov-22,4196888,2019-08-31 09:35:28:610,0.0704,-0.0941,9.052,0.016,-0.007,9.8066,0.0415,0.0058,-0.0141,8.32,-19.76,-20.99,66.93,-1.77,0.75
41969,51.63795,-2.450869,73,25.68,12,37.9,Nov-22,4196988,2019-08-31 09:35:28:710,-0.0001,-0.0797,9.1905,0.0069,0.0037,9.8066,-0.0011,0.0122,-0.0023,8.3,-19.31,-21.4,65.91,-1.76,0.86
41970,51.63795,-2.450869,73,25.68,12,37.9,Nov-22,4197088,2019-08-31 09:35:28:810,0.23,0.2907,10.0977,0.0049,0.0082,9.8066,-0.0256,-0.0176,0.0051,7.95,-19.83,-21.06,66.93,-1.82,0.86
41971,51.63795,-2.450869,73,25.68,12,37.9,Nov-22,4197188,2019-08-31 09:35:28:910,-0.1437,0.0807,9.6333,-0.0119,0.0155,9.8066,-0.0085,-0.0005,0.0147,7.95,-19.83,-21.06,66.93,-1.82,0.86
41972,51.63795,-2.450869,73,25.68,12,37.9,Nov-22,4197287,2019-08-31 09:35:29:009,-0.3464,0.1699,10.3501,-0.0162,0.021,9.8066,-0.0117,-0.0314,0.0211,8.25,-19.57,-21.19,66.93,-1.82,0.86
41973,51.63795,-2.450869,73,25.68,12,37.9,Nov-22,4197388,2019-08-31 09:35:29:110,-0.06,-0.2137,8.8479,0.0143,0.0067,9.8066,0.0075,0.0069,0.0019,8.25,-19.57,-21.19,66.81,-1.9,0.73
41974,51.6381,-2.450641,74,25.36,12,38.5,Nov-22,4197488,2019-08-31 09:35:29:210,-0.3258,-0.2861,9.9199,0.0109,0.0004,9.8066,0.0075,0.0069,0.0019,7.95,-19.83,-21.06,66.81,-1.9,0.73
41975,51.6381,-2.450641,74,25.36,12,38.5,Nov-22,4197588,2019-08-31 09:35:29:310,-0.2673,0.3016,9.6464,-0.0011,-0.0188,9.8066,-0.0213,-0.0325,0.0041,8.41,-19.97,-20.74,66.91,-1.79,0.76
41976,51.6381,-2.450641,74,25.36,12,38.5,Nov-22,4197688,2019-08-31 09:35:29:410,-0.4217,-0.1682,9.1168,-0.0241,-0.0014,9.8066,-0.0117,0.0186,0.0104,8.41,-19.97,-20.74,66.91,-1.79,0.76
41977,51.6381,-2.450641,74,25.36,12,38.5,Nov-22,4197788,2019-08-31 09:35:29:510,-0.1246,-0.002,10.1665,-0.007,0.015,9.8066,-0.0064,0.0304,0.019,8.41,-19.56,-21.14,66.92,-1.73,0.64
41978,51.6381,-2.450641,74,25.36,12,38.5,Nov-22,4197888,2019-08-31 09:35:29:610,0.1993,-0.1541,10.2132,-0.0024,0.0342,9.8066,0.0043,0.0453,0.0062,8.25,-19.57,-21.19,66.73,-1.91,0.55
41979,51.6381,-2.450641,74,25.36,12,38.5,Nov-22,4197988,2019-08-31 09:35:29:710,-0.0966,0.2913,9.1095,-0.0045,0.0099,9.8066,-0.0245,0.0005,0.0094,8.25,-19.57,-21.19,66.73,-1.91,0.55
41980,51.6381,-2.450641,74,25.36,12,38.5,Nov-22,4198088,2019-08-31 09:35:29:810,-0.0185,0.0602,9.5537,-0.0106,0.0025,9.8066,-0.0447,-0.0112,0.0158,8.25,-19.57,-21.19,66.62,-1.96,0.4
41981,51.6381,-2.450641,74,25.36,12,38.5,Nov-22,4198188,2019-08-31 09:35:29:910,-0.0163,-0.34,9.2167,-0.019,-0.0024,9.8066,-0.0064,-0.0187,0.0019,8.26,-20.01,-20.77,66.61,-1.95,0.33
41982,51.6381,-2.450641,74,25.36,12,38.5,Nov-22,4198287,2019-08-31 09:35:30:009,0.3627,0.43,9.2236,-0.0278,-0.0037,9.8066,-0.0064,-0.0187,0.0019,8.26,-20.01,-20.77,66.62,-1.86,0.19
41983,51.6381,-2.450641,74,25.36,12,38.5,Nov-22,4198387,2019-08-31 09:35:30:109,0.2548,0.1346,8.6479,0.0019,-0.0158,9.8066,-0.0138,-0.0666,0.0275,8.26,-20.01,-20.77,66.62,-1.86,0.19
41984,51.63829,-2.450422,74,25.65,12,37.8,Nov-22,4198488,2019-08-31 09:35:30:210,-0.1041,-0.0804,9.9152,-0.0031,0.0091,9.8066,-0.0096,-0.0016,0.0083,8.34,-19.79,-20.95,66.71,-1.78,0.24
41985,51.63829,-2.450422,74,25.65,12,37.8,Nov-22,4198587,2019-08-31 09:35:30:309,-0.3259,-0.1533,10.3466,-0.0001,0.035,9.8066,-0.0021,0.0538,0.0062,7.95,-19.83,-21.06,66.51,-1.97,0.16
41986,51.63829,-2.450422,74,25.65,12,37.8,Nov-22,4198688,2019-08-31 09:35:30:410,0.0982,-0.1917,10.6193,0.009,0.0296,9.8066,0.0043,0.0421,0.0136,7.95,-19.83,-21.06,66.51,-1.97,0.16
41987,51.63829,-2.450422,74,25.65,12,37.8,Nov-22,4198787,2019-08-31 09:35:30:509,0.4774,-0.1893,10.0355,0.0201,0.0416,9.8065,0.0309,-0.0421,-0.0013,7.21,-20.21,-20.97,68.72,-2.24,0.17
41988,51.63829,-2.450422,74,25.65,12,37.8,Nov-22,4198887,2019-08-31 09:35:30:609,-0.1659,-0.2201,8.8969,0.0086,0.0005,9.8066,0.0309,-0.0421,-0.0013,7.51,-19.71,-21.33,68.72,-2.24,0.17
41989,51.63829,-2.450422,74,25.65,12,37.8,Nov-22,4198988,2019-08-31 09:35:30:710,0.4477,-0.1053,9.8795,-0.0186,-0.0121,9.8066,-0.0117,-0.0783,0.0115,8.34,-19.79,-20.95,66.57,-1.96,0.27
41990,51.63829,-2.450422,74,25.65,12,37.8,Nov-22,4199088,2019-08-31 09:35:30:810,0.1273,-0.2303,8.0386,-0.0255,-0.0157,9.8066,-0.0192,-0.0559,0.0062,8.16,-19.36,-21.41,66.57,-1.96,0.27
41991,51.63829,-2.450422,74,25.65,12,37.8,Nov-22,4199188,2019-08-31 09:35:30:910,0.3626,-0.2222,10.4695,-0.0272,-0.0091,9.8066,-0.0096,0.0378,0.0104,8.16,-19.36,-21.41,66.57,-1.96,0.27
41992,51.63829,-2.450422,74,25.65,12,37.8,Nov-22,4199288,2019-08-31 09:35:31:010,0.2891,-0.1929,9.9757,0.0012,0.0052,9.8067,-0.0032,0.0186,0.0286,7.81,-19.87,-21.08,66.61,-1.85,0.14
41993,51.63829,-2.450422,74,25.65,12,37.8,Nov-22,4199388,2019-08-31 09:35:31:110,-0.2367,0.0755,10.2605,0.0067,0.0021,9.8066,0.0277,0.0122,0.0009,7.9,-20.08,-20.84,66.59,-1.88,0.14
41994,51.63847,-2.450201,75,25.69,11,38.0,Nov-21,4199488,2019-08-31 09:35:31:210,0.2562,-0.1983,9.7379,0.0222,0.0263,9.8066,0.0021,0.0655,0.004,7.74,-19.68,-21.27,66.44,-2.07,0.2
41995,51.63847,-2.450201,75,25.69,11,38.0,Nov-21,4199587,2019-08-31 09:35:31:309,0.3239,-0.0026,10.2738,0.0084,0.0142,9.8066,0.0021,0.0655,0.004,7.74,-19.68,-21.27,66.44,-2.07,0.2
41996,51.63847,-2.450201,75,25.69,11,38.0,Nov-21,4199689,2019-08-31 09:35:31:411,0.1749,0.5391,9.1319,-0.0075,-0.0033,9.8066,0.0064,-0.0325,0.0051,7.88,-19.64,-21.26,66.36,-2.17,0.21
41997,51.63847,-2.450201,75,25.69,11,38.0,Nov-21,4199788,2019-08-31 09:35:31:510,-0.0568,-0.3494,9.1596,-0.0089,-0.0114,9.8066,0.0149,-0.0059,0.0094,7.52,-20.15,-20.91,66.43,-2.09,0.19
41998,51.63847,-2.450201,75,25.69,11,38.0,Nov-21,4199888,2019-08-31 09:35:31:610,-0.6478,-0.1376,9.8597,0.0122,-0.0052,9.8066,0.0565,0.0399,-0.0205,7.88,-19.64,-21.26,66.46,-2.09,0.26
41999,51.63847,-2.450201,75,25.69,11,38.0,Nov-21,4199987,2019-08-31 09:35:31:709,-0.3671,-0.0677,8.7092,0.0145,-0.0001,9.8066,-0.0192,0.025,0.0264,7.88,-19.64,-21.26,66.46,-2.09,0.26
42000,51.63847,-2.450201,75,25.69,11,38.0,Nov-21,4200088,2019-08-31 09:35:31:810,0.0227,0.0654,10.0798,0.0087,-0.0019,9.8066,0.0032,-0.0208,0.0104,8.04,-19.63,-21.21,66.76,-1.85,0.49
42001,51.63847,-2.450201,75,25.69,11,38.0,Nov-21,4200188,2019-08-31 09:35:31:910,-0.3691,0.2881,10.7433,0.0113,0.0192,9.8066,-0.0586,-0.008,0.0381,7.97,-19.86,-21.03,66.77,-1.86,0.54
42002,51.63847,-2.450201,75,25.69,11,38.0,Nov-21,4200288,2019-08-31 09:35:32:010,-0.8552,0.0457,9.6619,0.0076,0.0628,9.8064,0.0021,-0.0495,0.0115,7.97,-19.86,-21.03,66.77,-1.86,0.54
42003,51.63847,-2.450201,75,25.69,11,38.0,Nov-21,4200388,2019-08-31 09:35:32:110,-0.927,-0.1884,9.644,0.0008,0.0374,9.8066,0.0021,-0.0495,0.0115,8.04,-19.63,-21.21,66.56,-2.06,0.46
42004,51.638657,-2.44997,74,25.87,12,37.7,Nov-22,4200488,2019-08-31 09:35:32:210,-0.0728,-0.1831,10.1563,0.0191,-0.0537,9.8065,0.0469,-0.0282,-0.0013,8.04,-19.63,-21.21,66.56,-2.06,0.46
42005,51.638657,-2.44997,74,25.87,12,37.7,Nov-22,4200589,2019-08-31 09:35:32:311,0.2733,0.0767,9.733,-0.0161,0.0292,9.8066,-0.0298,0.0953,0.0051,8.5,-19.78,-20.9,64.51,-1.82,0.69
42006,51.638657,-2.44997,74,25.87,12,37.7,Nov-22,4200689,2019-08-31 09:35:32:411,-0.2108,-0.2229,11.4745,0.0029,0.0654,9.8064,-0.0671,0.0112,0.0115,7.66,-19.7,-21.29,66.7,-1.93,0.53
42007,51.638657,-2.44997,74,25.87,12,37.7,Nov-22,4200788,2019-08-31 09:35:32:510,0.002,-0.0729,8.392,-0.0338,0.0915,9.8062,-0.0085,-0.0123,-0.0045,7.68,-20.15,-20.86,66.19,-2.34,0.14
42008,51.638657,-2.44997,74,25.87,12,37.7,Nov-22,4200888,2019-08-31 09:35:32:610,-0.1289,-0.3312,9.4883,-0.0242,-0.0207,9.8066,0.0426,0.0144,0.004,7.68,-20.15,-20.86,66.19,-2.34,0.14
42009,51.638657,-2.44997,74,25.87,12,37.7,Nov-22,4200988,2019-08-31 09:35:32:710,-0.2469,-0.0903,9.4791,0.028,-0.0142,9.8066,0.0224,0.0165,-0.0023,8.26,-19.6,-21.15,66.44,-2.04,0.13
42010,51.638657,-2.44997,74,25.87,12,37.7,Nov-22,4201088,2019-08-31 09:35:32:810,0.3849,-0.066,9.9676,0.0496,-0.0379,9.8065,0.0224,0.0165,-0.0023,7.97,-19.86,-21.03,66.44,-2.04,0.13
42011,51.638657,-2.44997,74,25.87,12,37.7,Nov-22,4201187,2019-08-31 09:35:32:909,0.2052,0.1376,10.5424,0.0107,-0.004,9.8066,-0.0064,-0.0059,0.0083,7.96,-19.44,-21.41,65.59,-1.95,0.48
42012,51.638657,-2.44997,74,25.87,12,37.7,Nov-22,4201288,2019-08-31 09:35:33:010,-0.3627,0.2678,10.1652,0.023,0.0308,9.8066,-0.0213,0.0293,0.0104,7.95,-19.41,-21.45,65.41,-2.17,0.53
42013,51.638657,-2.44997,74,25.87,12,37.7,Nov-22,4201388,2019-08-31 09:35:33:110,0.5319,0.463,9.5695,0.0126,0.0227,9.8066,-0.0064,0.0485,-0.0013,7.95,-19.41,-21.45,65.41,-2.17,0.53
42014,51.638847,-2.44974,75,25.92,12,37.7,Nov-22,4201488,2019-08-31 09:35:33:210,-0.1681,0.1051,10.4517,-0.0173,0.0056,9.8066,-0.0053,-0.0091,-0.0098,7.51,-19.71,-21.33,66.37,-2.32,0.54
42015,51.638847,-2.44974,75,25.92,12,37.7,Nov-22,4201588,2019-08-31 09:35:33:310,-0.5872,-0.163,8.3465,-0.0382,-0.0081,9.8066,0.0096,-0.0432,-0.0013,7.97,-19.86,-21.03,66.34,-2.31,0.44
42016,51.638847,-2.44974,75,25.92,12,37.7,Nov-22,4201692,2019-08-31 09:35:33:414,-0.1215,-0.182,10.286,-0.0486,-0.0285,9.8065,0.0756,0.1774,-0.0098,7.97,-19.86,-21.03,66.34,-2.31,0.44
42017,51.638847,-2.44974,75,25.92,12,37.7,Nov-22,4201788,2019-08-31 09:35:33:510,1.1566,0.4226,7.0964,0.0403,-0.0418,9.8065,0.0756,0.1774,-0.0098,8.34,-19.79,-20.95,66.49,-2.04,0.24
42018,51.638847,-2.44974,75,25.92,12,37.7,Nov-22,4201888,2019-08-31 09:35:33:610,-0.5344,0.3015,11.5521,0.0341,-0.0389,9.8065,0.0501,0.1145,-0.0247,8.41,-19.56,-21.14,66.73,-1.91,0.56
42019,51.638847,-2.44974,75,25.92,12,37.7,Nov-22,4201987,2019-08-31 09:35:33:709,0.1782,0.0751,9.6024,0.0708,-0.046,9.8063,-0.0011,-0.0378,0.0179,7.95,-19.41,-21.45,65.93,-1.83,1.04
42020,51.638847,-2.44974,75,25.92,12,37.7,Nov-22,4202088,2019-08-31 09:35:33:810,-0.1355,0.6127,9.5051,0.0238,0.0259,9.8066,0.0011,0.0272,-0.0023,7.97,-19.86,-21.03,65.93,-1.83,1.04
42021,51.638847,-2.44974,75,25.92,12,37.7,Nov-22,4202188,2019-08-31 09:35:33:910,0.1987,-0.1849,10.6007,0.0628,0.1141,9.8058,0.017,0.0612,0.003,7.97,-19.86,-21.03,65.93,-1.83,1.04
42022,51.638847,-2.44974,75,25.92,12,37.7,Nov-22,4202288,2019-08-31 09:35:34:010,0.4475,-0.1424,9.4595,0.0048,-0.0512,9.8065,0.0309,0.0261,-0.0173,7.96,-19.44,-21.41,65.3,-2.59,1.11
42023,51.63904,-2.449515,75,26.17,12,37.5,Nov-22,4202387,2019-08-31 09:35:34:109,0.129,-0.2814,9.0332,-0.0143,-0.0615,9.8064,-0.0128,0.0889,0.0008,7.33,-19.33,-21.74,65.3,-2.59,1.11
42024,51.63904,-2.449515,75,26.17,12,37.5,Nov-21,4202489,2019-08-31 09:35:34:211,0.0134,-0.0168,9.7704,-0.0046,-0.0126,9.8066,-0.0128,0.0889,0.0008,7.41,-19.95,-21.15,69.12,-2.23,1.18
42025,51.63904,-2.449515,75,26.17,12,37.5,Nov-21,4202589,2019-08-31 09:35:34:311,0.7233,-0.3618,9.9174,-0.011,-0.0119,9.8066,-0.0309,0.0027,0.0222,7.8,-19.66,-21.28,66.77,-2.14,1.14
42026,51.63904,-2.449515,75,26.17,12,37.5,Nov-21,4202688,2019-08-31 09:35:34:410,0.604,0.0808,10.3724,-0.0051,-0.0355,9.8066,-0.0064,0.0112,0.003,7.8,-19.66,-21.28,66.77,-2.14,1.14
42027,51.63904,-2.449515,75,26.17,12,37.5,Nov-21,4202789,2019-08-31 09:35:34:511,-0.4666,-0.021,8.7399,-0.0211,-0.0261,9.8066,0.0075,0.0144,-0.0055,8.25,-19.57,-21.19,66.96,-1.94,1.2
42028,51.63904,-2.449515,75,26.17,12,37.5,Nov-21,4202888,2019-08-31 09:35:34:610,-0.489,0.1188,10.085,-0.0491,0.0041,9.8065,-0.0256,-0.0218,0.0115,7.88,-19.64,-21.26,66.93,-1.85,0.93
42029,51.63904,-2.449515,75,26.17,12,37.5,Nov-21,4202989,2019-08-31 09:35:34:711,-0.3921,-0.1943,11.3784,0.0031,0.0368,9.8066,-0.0096,-0.0272,0.0285,7.59,-19.51,-21.49,66.93,-1.85,0.93
42030,51.63904,-2.449515,75,26.17,12,37.5,Nov-21,4203088,2019-08-31 09:35:34:810,0.1921,-0.0324,9.0389,0.0066,0.0477,9.8065,-0.0575,-0.024,0.0008,7.88,-19.64,-21.26,66.67,-2.12,0.85
42031,51.63904,-2.449515,75,26.17,12,37.5,Nov-21,4203188,2019-08-31 09:35:34:910,-0.4946,0.2281,10.1202,-0.0132,0.0438,9.8065,0.0032,0.008,0.0275,7.88,-19.64,-21.26,66.67,-2.12,0.85
42032,51.63904,-2.449515,75,26.17,12,37.5,Nov-21,4203289,2019-08-31 09:35:35:011,-0.116,-0.053,10.1267,0.0246,-0.0032,9.8066,0.0032,0.008,0.0275,7.97,-19.86,-21.03,66.43,-2.32,0.68
42033,51.63904,-2.449515,75,26.17,12,37.5,Nov-21,4203388,2019-08-31 09:35:35:110,0.5252,0.0419,9.4062,0.0389,-0.0634,9.8064,0.0352,0.0058,0.0253,7.96,-19.44,-21.41,65.37,-2.36,0.82
42034,51.63915,-2.449281,76,24.94,11,39.7,Nov-22,4203488,2019-08-31 09:35:35:210,0.393,-0.4444,10.4088,0.0512,-0.1263,9.8057,0.0394,-0.0687,0.0094,7.96,-19.44,-21.41,65.37,-2.36,0.82
42035,51.63915,-2.449281,76,24.94,11,39.7,Nov-22,4203588,2019-08-31 09:35:35:310,0.2679,0.076,10.3589,0.0252,0.0216,9.8066,-0.0447,0.0453,0.0221,8.5,-19.35,-21.29,66.09,-1.82,1.4
42036,51.63915,-2.449281,76,24.94,11,39.7,Nov-22,4203689,2019-08-31 09:35:35:411,0.192,0.0235,11.972,0.014,0.071,9.8064,-0.0149,0.0442,0.0349,8.11,-19.4,-21.4,65.98,-1.99,1.48
42037,51.63915,-2.449281,76,24.94,11,39.7,Nov-22,4203788,2019-08-31 09:35:35:510,-0.1741,-0.0254,9.9099,0.0103,0.0664,9.8064,-0.0064,-0.0346,0.0413,8.13,-19.85,-20.97,66.67,-2.37,1.38
42038,51.63915,-2.449281,76,24.94,11,39.7,Nov-22,4203888,2019-08-31 09:35:35:610,-0.238,-0.1282,8.5443,0.0216,-0.0239,9.8066,0.0064,-0.0229,0.0062,8.13,-19.85,-20.97,66.67,-2.37,1.38
42039,51.63915,-2.449281,76,24.94,11,39.7,Nov-22,4203988,2019-08-31 09:35:35:710,0.0172,0.3921,8.4485,0.0034,-0.0072,9.8066,0.016,-0.0176,0.0179,8.13,-19.85,-20.97,66.8,-2.29,1.55
42040,51.63915,-2.449281,76,24.94,11,39.7,Nov-22,4204090,2019-08-31 09:35:35:812,-0.2361,0.3083,9.545,0.0026,-0.0059,9.8066,0.016,-0.0176,0.0179,7.6,-19.96,-21.07,66.83,-2.27,1.58
42041,51.63915,-2.449281,76,24.94,11,39.7,Nov-22,4204189,2019-08-31 09:35:35:911,-0.5224,-0.1699,9.4972,-0.0071,-0.0126,9.8066,-0.0117,-0.0037,0.0136,7.6,-19.96,-21.07,66.83,-2.27,1.58
42042,51.63915,-2.449281,76,24.94,11,39.7,Nov-22,4204288,2019-08-31 09:35:36:010,-0.7259,0.2038,9.6222,-0.0363,-0.0781,9.8063,-0.0053,-0.0059,-0.0173,8.41,-19.56,-21.14,67.25,-1.76,1.56
42043,51.639362,-2.449067,77,25.71,12,37.8,Nov-22,4204388,2019-08-31 09:35:36:110,-0.4243,0.2619,11.0105,0.0037,0.0726,9.8064,-0.0213,0.041,0.0307,8.13,-19.85,-20.97,67.12,-1.84,1.4
42044,51.639362,-2.449067,77,25.71,12,37.8,Nov-22,4204488,2019-08-31 09:35:36:210,-0.2499,0.0651,9.8895,0.0238,0.0859,9.8062,0.0117,0.0133,0.0168,8.13,-19.85,-20.97,67.12,-1.84,1.4
42045,51.639362,-2.449067,77,25.71,12,37.8,Nov-22,4204588,2019-08-31 09:35:36:310,0.0003,-0.1159,9.6323,0.0071,-0.0284,9.8066,0.0138,-0.0197,-0.0055,8.22,-20.07,-20.73,66.66,-2.36,1.33
42046,51.639362,-2.449067,77,25.71,12,37.8,Nov-22,4204688,2019-08-31 09:35:36:410,-0.1311,-0.1174,9.7053,-0.0122,-0.02,9.8066,-0.0213,0.0495,0.0019,8.44,-20.03,-20.67,66.77,-2.22,1.31
42047,51.639362,-2.449067,77,25.71,12,37.8,Nov-22,4204788,2019-08-31 09:35:36:510,0.0945,0.3393,10.894,-0.0158,0.0327,9.8066,0.0298,0.0495,0.0179,8.44,-20.03,-20.67,66.77,-2.22,1.31
42048,51.639362,-2.449067,77,25.71,12,37.8,Nov-22,4204888,2019-08-31 09:35:36:610,-0.2505,-0.2442,9.8195,0.0129,0.0026,9.8066,0.0298,0.0495,0.0179,7.76,-20.37,-20.61,66.59,-2.36,1.15
42049,51.639362,-2.449067,77,25.71,12,37.8,Nov-22,4204987,2019-08-31 09:35:36:709,-0.4824,-0.0165,8.8078,0.0389,-0.0243,9.8065,0.017,-0.0368,0.004,8.07,-20.11,-20.75,66.59,-2.36,1.15
42050,51.639362,-2.449067,77,25.71,12,37.8,Nov-22,4205089,2019-08-31 09:35:36:811,0.6202,0.4946,9.361,0.0217,-0.0246,9.8066,-0.0085,-0.0229,0.0051,8.12,-19.43,-21.37,65.66,-2.28,1.33
42051,51.639362,-2.449067,77,25.71,12,37.8,Nov-22,4205188,2019-08-31 09:35:36:910,-0.1524,0.371,9.6257,-0.0187,0.03,9.8066,0.0032,-0.0304,-0.013,7.74,-19.5,-21.45,65.49,-2.39,1.16
42052,51.639362,-2.449067,77,25.71,12,37.8,Nov-22,4205288,2019-08-31 09:35:37:010,-0.2411,0.2837,9.043,-0.0202,-0.0502,9.8065,-0.0032,-0.0155,0.0179,8.03,-19.21,-21.6,65.49,-2.39,1.16
42053,51.639362,-2.449067,77,25.71,12,37.8,Nov-22,4205387,2019-08-31 09:35:37:109,-0.4685,-0.3096,9.0484,-0.04,-0.0635,9.8064,-0.0384,-0.0091,0.0136,8.03,-19.21,-21.6,65.49,-2.39,1.16
42054,51.639557,-2.448836,77,25.9,12,37.6,Nov-22,4205488,2019-08-31 09:35:37:210,-0.4786,-0.0238,10.2561,-0.0094,0.02,9.8066,-0.0192,0.0229,0.0221,8.07,-20.11,-20.75,66.9,-1.96,1.1
42055,51.639557,-2.448836,77,25.9,12,37.6,Nov-22,4205588,2019-08-31 09:35:37:310,0.0631,0.0247,10.3625,-0.0028,0.046,9.8065,0.0085,0.0623,-0.0077,8.26,-19.6,-21.15,66.9,-1.96,1.1
42056,51.639557,-2.448836,77,25.9,12,37.6,Nov-22,4205688,2019-08-31 09:35:37:410,-0.4173,-0.4743,10.1523,0.0085,0.0582,9.8065,0.0085,0.0623,-0.0077,8.26,-19.6,-21.15,66.9,-1.96,1.1
42057,51.639557,-2.448836,77,25.9,12,37.6,Nov-22,4205788,2019-08-31 09:35:37:510,-0.3881,-0.563,10.1288,0.0116,-0.006,9.8066,0.0043,-0.0378,-0.0098,7.67,-19.73,-21.26,66.59,-2.29,1.01
42058,51.639557,-2.448836,77,25.9,12,37.6,Nov-22,4205888,2019-08-31 09:35:37:610,0.41,0.214,10.4727,-0.0044,-0.0211,9.8066,0.017,0.0197,-0.0013,8.05,-19.66,-21.18,66.7,-2.17,1.03
42059,51.639557,-2.448836,77,25.9,12,37.6,Nov-22,4205988,2019-08-31 09:35:37:710,-0.4616,-0.001,9.9366,-0.0192,0.0025,9.8066,0.0011,-0.0059,-0.0002,8.05,-19.66,-21.18,66.7,-2.17,1.03
42060,51.639557,-2.448836,77,25.9,12,37.6,Nov-22,4206088,2019-08-31 09:35:37:810,-0.0675,-0.2555,9.3768,0.0011,0.0148,9.8066,0.0224,-0.0229,0.0104,7.89,-19.67,-21.23,66.68,-2.14,0.93
