,GPS LATITUDE (degrees), GPS LONGITUDE (degrees), GPS ALTITUDE (m), GPS SPEED (Kmh), GPS ACCURACY (m), GPS ORIENTATION (Â°),GPS SATELLITES IN RANGE, TIME SINCE START (ms), DATE (YYYY-MO-DD HH-MI-SS_SSS), ACCELEROMETER X (m/s²) , ACCELEROMETER Y (m/s²), ACCELEROMETER Z (m/s²), GRAVITY X (m/s²), GRAVITY Y (m/s²), GRAVITY Z (m/s²), GYROSCOPE Yaw (rad/s), GYROSCOPE Pitch (rad/s), GYROSCOPE Roll (rad/s), MAGNETIC FIELD X (Î¼T), MAGNETIC FIELD Y (Î¼T), MAGNETIC FIELD Z (Î¼T), ORIENTATION (Yaw) (Â°), ORIENTATION (Pitch) (Â°), ORIENTATION (Roll ) (Â°)
18244,52.365936,-1.237009,175.69,6.09,3,348.7,16 / 16,1855720,2019-09-04 19:52:15:893,-0.2676,-2.1484,9.4159,-0.0019,0.0023,9.8066,0.0186,0.0115,0.0123,-0.31,-31.0,-13.5,212.46,-86.45,-143.04
18245,52.365936,-1.237009,175.69,6.09,3,348.7,16 / 16,1855820,2019-09-04 19:52:15:993,-0.0978,-1.2034,9.9123,0.0004,0.0079,9.8066,0.006,0.0078,0.0228,-0.56,-30.19,-13.06,215.31,-86.37,-144.31
18246,52.365936,-1.237009,175.69,6.09,3,348.7,16 / 16,1855921,2019-09-04 19:52:16:094,-0.1794,-1.6723,10.21,-0.0037,-0.0016,9.8066,0.0051,-0.0082,-0.0227,-0.37,-30.81,-13.0,210.97,-86.35,-144.6
18247,52.365936,-1.237009,175.69,6.09,3,348.7,16 / 16,1856021,2019-09-04 19:52:16:194,0.1032,-1.5075,9.9677,-0.0021,0.0043,9.8066,0.0165,0.0242,0.011,-0.69,-30.81,-13.56,214.64,-86.39,-144.96
18248,52.365936,-1.237009,175.69,6.09,3,348.7,16 / 16,1856121,2019-09-04 19:52:16:294,0.0066,-1.2101,10.0115,0.005,0.006,9.8066,0.0192,0.0059,0.0171,-0.44,-30.62,-13.87,210.58,-86.3,-145.3
18249,52.365936,-1.237009,175.69,6.09,3,348.7,16 / 16,1856220,2019-09-04 19:52:16:393,-0.3128,-1.4896,9.5438,0.0066,0.0011,9.8066,0.0089,-0.0137,0.0068,-0.5,-31.12,-13.06,210.71,-86.23,-144.75
18250,52.365936,-1.237009,175.69,6.09,3,348.7,16 / 16,1856321,2019-09-04 19:52:16:494,-0.0093,-1.4875,9.8446,0.007,-0.0027,9.8066,0.0032,0.0143,0.0137,-0.56,-30.5,-12.87,216.02,-86.17,-143.25
18251,52.365936,-1.237009,175.69,6.09,3,348.7,16 / 16,1856420,2019-09-04 19:52:16:593,-0.1254,-1.4605,9.885,-0.0029,0.0077,9.8066,0.0205,0.0207,0.0127,-0.87,-31.12,-13.0,216.61,-86.16,-142.4
18252,52.365936,-1.237009,175.69,6.09,3,348.7,16 / 16,1856521,2019-09-04 19:52:16:694,-0.4327,-1.5901,9.4845,0.0053,0.0029,9.8066,0.0068,0.0005,0.0235,-0.56,-30.75,-13.12,216.2,-86.06,-142.72
18253,52.365936,-1.237009,175.69,6.09,3,348.7,16 / 16,1856620,2019-09-04 19:52:16:793,-0.4165,-1.8204,9.1204,0.0056,-0.0123,9.8066,-0.0364,0.0058,0.0098,-0.69,-30.5,-13.94,217.57,-86.06,-141.44
18254,52.365936,-1.237009,175.69,6.09,3,348.7,16 / 16,1856721,2019-09-04 19:52:16:894,0.2097,-2.7699,10.0008,0.0086,-0.0209,9.8065,-0.0472,0.0035,0.0151,-1.31,-30.5,-12.87,221.37,-86.22,-137.33
18255,52.365936,-1.237009,175.69,6.09,3,348.7,16 / 16,1856821,2019-09-04 19:52:16:994,-0.2305,-3.0298,9.9971,0.0026,-0.0115,9.8066,-0.0153,-0.0039,0.0044,-1.12,-30.81,-12.81,223.44,-86.34,-135.02
18256,52.365936,-1.237009,175.69,6.09,3,348.7,16 / 16,1856921,2019-09-04 19:52:17:094,-0.0023,-2.9034,10.1021,-0.0018,0.0008,9.8066,0.0114,0.0183,-0.0061,-0.69,-30.5,-13.25,225.08,-86.39,-133.48
18257,52.365936,-1.237009,175.69,6.09,3,348.7,16 / 16,1857020,2019-09-04 19:52:17:193,-0.1135,-2.7463,9.6898,-0.0038,-0.0006,9.8066,0.0009,0.0147,-0.0131,-0.37,-31.0,-13.31,220.25,-86.43,-134.29
18258,52.365936,-1.237009,175.69,6.09,3,348.7,16 / 16,1857120,2019-09-04 19:52:17:293,-0.5243,-2.6262,9.8917,0.002,-0.0057,9.8066,-0.0076,0.0167,0.0121,-0.62,-30.25,-13.25,224.76,-86.48,-133.97
18259,52.365936,-1.237009,175.69,6.09,3,348.7,16 / 16,1857220,2019-09-04 19:52:17:393,-0.4161,-2.5335,9.6111,0.0078,-0.0048,9.8066,0.0055,0.0201,0.0294,-1.06,-31.0,-12.94,225.68,-86.49,-132.78
18260,52.365936,-1.237009,175.69,6.09,3,348.7,16 / 16,1857320,2019-09-04 19:52:17:493,0.1179,-2.4989,9.9348,0.0135,0.0004,9.8066,0.0164,0.0087,0.0299,-0.87,-30.87,-13.0,227.55,-86.37,-130.52
18261,52.365936,-1.237009,175.69,6.09,3,348.7,16 / 16,1857421,2019-09-04 19:52:17:594,0.2372,-2.2396,9.9308,0.005,0.0078,9.8066,0.033,0.0189,0.0136,-1.31,-30.5,-12.69,227.67,-86.25,-130.39
18262,52.365936,-1.237009,175.69,6.09,3,348.7,16 / 16,1857521,2019-09-04 19:52:17:694,0.2477,-1.8987,9.7249,-0.0002,0.0095,9.8066,0.0306,0.0102,-0.0198,-1.0,-30.75,-12.62,226.32,-86.15,-131.5
18263,52.365936,-1.237009,175.69,6.09,3,348.7,16 / 16,1857620,2019-09-04 19:52:17:793,0.0413,-1.9293,9.7496,-0.007,-0.0003,9.8066,-0.0069,0.0109,-0.0219,-0.5,-31.06,-12.69,220.84,-86.13,-133.18
18264,52.365936,-1.237009,175.69,6.09,3,348.7,16 / 16,1857720,2019-09-04 19:52:17:893,-0.2474,-2.0258,10.4814,-0.0029,-0.0054,9.8066,0.0083,0.0119,-0.0049,-0.69,-31.06,-12.75,224.99,-86.28,-133.19
18265,52.365936,-1.237009,175.69,6.09,3,348.7,16 / 16,1857821,2019-09-04 19:52:17:994,-0.1812,-1.7512,9.8681,-0.0019,0.0115,9.8066,0.0401,0.0254,0.0112,-0.37,-30.56,-13.25,220.01,-86.27,-134.33
18266,52.365936,-1.237009,175.69,6.09,3,348.7,16 / 16,1857921,2019-09-04 19:52:18:094,-0.0127,-1.6637,9.6467,0.0013,0.0113,9.8066,0.0237,0.0231,0.0116,-0.31,-31.06,-12.62,218.16,-86.11,-136.16
18267,52.365936,-1.237009,175.69,6.09,3,348.7,16 / 16,1858021,2019-09-04 19:52:18:194,-0.05,-1.7965,9.7225,0.0037,0.0011,9.8066,0.013,0.0044,0.0034,-0.56,-30.75,-12.94,221.95,-86.05,-136.23
18268,52.365936,-1.237009,175.69,6.09,3,348.7,16 / 16,1858121,2019-09-04 19:52:18:294,0.0917,-1.4833,9.9406,0.0022,0.0042,9.8066,0.0251,0.006,-0.0061,-0.87,-30.62,-12.75,222.17,-86.01,-135.92
18269,52.365936,-1.237009,175.69,6.09,3,348.7,16 / 16,1858220,2019-09-04 19:52:18:393,-0.0123,-1.3969,9.6271,-0.0027,0.0075,9.8066,0.0216,0.0028,-0.0119,-1.25,-30.94,-11.69,220.96,-85.94,-137.01
18270,52.365936,-1.237009,175.69,6.09,3,348.7,16 / 16,1858321,2019-09-04 19:52:18:494,-0.0587,-1.3635,9.724,-0.0041,0.0019,9.8066,0.0085,0.0217,-0.0034,-1.5,-30.81,-12.25,219.8,-85.93,-138.31
18271,52.365936,-1.237009,175.69,6.09,3,348.7,16 / 16,1858420,2019-09-04 19:52:18:593,-0.2155,-1.4001,9.934,-0.0042,0.0014,9.8066,0.0159,0.0109,-0.0027,-1.31,-31.12,-11.75,219.16,-85.95,-139.08
18272,52.365936,-1.237009,175.69,6.09,3,348.7,16 / 16,1858520,2019-09-04 19:52:18:693,-0.174,-1.2466,9.7271,-0.0012,0.003,9.8066,0.0171,0.0097,0.0026,-0.94,-31.37,-12.12,218.33,-85.95,-140.02
18273,52.365936,-1.237009,175.69,6.09,3,348.7,16 / 16,1858620,2019-09-04 19:52:18:793,-0.0428,-1.1449,9.7977,0.002,0.0012,9.8066,0.019,0.001,-0.0078,-1.25,-31.0,-12.25,218.34,-85.92,-139.98
18274,52.365936,-1.237009,175.69,6.09,3,348.7,16 / 16,1858720,2019-09-04 19:52:18:893,-0.0564,-1.1964,9.7997,-0.0011,0.0038,9.8066,0.0139,0.0161,0.0038,-0.75,-31.06,-12.0,218.16,-85.9,-140.13
18275,52.365936,-1.237009,175.69,6.09,3,348.7,16 / 16,1858820,2019-09-04 19:52:18:993,-0.0165,-0.968,9.8082,-0.0005,-0.0025,9.8066,0.0146,0.0086,0.0073,-1.06,-31.62,-11.94,217.63,-85.9,-140.53
18276,52.365936,-1.237009,175.69,6.09,3,348.7,16 / 16,1858920,2019-09-04 19:52:19:093,-0.1131,-0.8814,9.7919,0.0005,-0.0019,9.8066,0.0211,-0.0101,-0.0105,-0.69,-31.5,-11.69,218.08,-85.93,-140.28
18277,52.365936,-1.237009,175.69,6.09,3,348.7,16 / 16,1859021,2019-09-04 19:52:19:194,-0.1034,-0.6148,9.8703,-0.0009,-0.002,9.8066,0.0162,0.0064,0.0083,-1.25,-31.81,-11.94,218.11,-85.96,-140.08
18278,52.365936,-1.237009,175.69,6.09,3,348.7,16 / 16,1859120,2019-09-04 19:52:19:293,-0.1734,-0.4326,9.7823,0.0017,-0.0019,9.8066,0.0201,-0.0016,0.0085,-0.56,-31.69,-11.87,218.44,-85.97,-139.73
18279,52.365936,-1.237009,175.69,6.09,3,348.7,16 / 16,1859220,2019-09-04 19:52:19:393,-0.0718,-0.2109,9.8372,0.0018,-0.0031,9.8066,0.019,-0.0044,-0.0046,-1.19,-32.0,-11.5,218.83,-85.98,-139.11
18280,52.365936,-1.237009,175.69,6.09,3,348.7,16 / 17,1859320,2019-09-04 19:52:19:493,-0.0353,-0.2892,9.7766,0.001,-0.0027,9.8066,0.0118,0.0116,0.0116,-0.69,-31.37,-11.81,219.67,-85.99,-138.55
18281,52.365936,-1.237009,175.69,6.09,3,348.7,16 / 17,1859421,2019-09-04 19:52:19:594,0.0428,-0.0843,9.8314,0.0012,-0.0044,9.8066,0.0188,0.0005,-0.0059,-1.06,-31.37,-11.31,220.11,-86.03,-137.95
18282,52.365936,-1.237009,175.69,6.09,3,348.7,16 / 17,1859520,2019-09-04 19:52:19:693,-0.0195,-0.064,9.8807,-0.0003,-0.0048,9.8066,0.0116,0.0085,-0.0079,-0.44,-31.81,-11.5,216.15,-86.08,-137.18
18283,52.365936,-1.237009,175.69,6.09,3,348.7,16 / 17,1859620,2019-09-04 19:52:19:793,-0.1246,-0.2344,9.8486,0.0003,-0.0056,9.8066,0.0101,0.004,0.0044,-0.37,-31.87,-10.69,216.61,-86.13,-136.73
18284,52.365936,-1.237009,175.69,6.09,3,348.7,16 / 17,1859721,2019-09-04 19:52:19:894,-0.0399,-0.1027,9.8471,-0.0002,-0.0053,9.8066,0.0051,0.0129,0.0111,-0.62,-31.69,-11.31,222.07,-86.21,-135.8
18285,52.365936,-1.237009,175.69,6.09,3,348.7,16 / 17,1859821,2019-09-04 19:52:19:994,-0.0266,-0.0992,9.8052,0.0017,-0.0054,9.8066,0.0131,0.0083,-0.0002,-0.81,-31.62,-11.37,222.77,-86.25,-135.08
18286,52.365936,-1.237009,175.69,6.09,3,348.7,16 / 17,1859921,2019-09-04 19:52:20:094,-0.0294,-0.1028,9.8576,-0.0006,-0.0039,9.8066,0.0065,0.0113,-0.0016,-0.94,-31.25,-11.31,223.62,-86.28,-134.42
18287,52.365936,-1.237009,175.69,6.09,3,348.7,16 / 17,1860021,2019-09-04 19:52:20:194,-0.033,-0.1612,9.8877,0.0,-0.0035,9.8066,0.0069,0.0078,-0.0028,-0.87,-30.75,-10.69,224.47,-86.33,-133.54
18288,52.365936,-1.237009,175.69,6.09,3,348.7,16 / 17,1860121,2019-09-04 19:52:20:294,-0.007,-0.15,9.8384,-0.0005,-0.0042,9.8066,0.0046,0.0073,0.0037,-0.56,-31.56,-11.31,225.07,-86.38,-132.73
18289,52.365936,-1.237009,175.69,6.09,3,348.7,16 / 17,1860220,2019-09-04 19:52:20:393,-0.0406,-0.3496,9.784,0.0006,-0.0049,9.8066,0.0053,-0.0012,0.0084,-0.31,-31.19,-10.56,221.33,-86.42,-132.05
18290,52.365936,-1.237009,175.69,6.09,3,348.7,16 / 17,1860321,2019-09-04 19:52:20:494,-0.0695,-0.3584,9.8084,0.0009,-0.0058,9.8066,0.0054,0.0086,0.0043,-0.75,-31.37,-10.87,227.19,-86.47,-130.78
18291,52.365936,-1.237009,175.69,6.09,3,348.7,16 / 17,1860420,2019-09-04 19:52:20:593,-0.0227,-0.2927,9.8743,0.0009,-0.006,9.8066,0.0071,-0.0111,-0.0108,-0.69,-31.44,-10.94,228.0,-86.51,-129.93
18292,52.365936,-1.237009,175.69,6.09,3,348.7,16 / 17,1860520,2019-09-04 19:52:20:693,-0.0635,-0.2153,9.8077,-0.0007,-0.0055,9.8066,0.0047,0.0073,0.0045,-0.25,-31.75,-11.87,224.44,-86.55,-129.15
18293,52.365936,-1.237009,175.69,6.09,3,348.7,16 / 17,1860621,2019-09-04 19:52:20:794,-0.0754,-0.1297,9.9085,-0.002,-0.0038,9.8066,0.0019,0.0184,0.0116,-0.62,-31.31,-11.81,230.11,-86.62,-128.01
18294,52.365936,-1.237009,175.69,6.09,3,348.7,16 / 17,1860720,2019-09-04 19:52:20:893,-0.0645,0.0871,9.9032,0.0015,-0.0045,9.8066,0.0058,0.0113,0.0053,-0.44,-30.81,-11.69,226.72,-86.67,-127.05
18295,52.365936,-1.237009,175.69,6.09,3,348.7,16 / 17,1860820,2019-09-04 19:52:20:993,0.0102,0.3373,9.7635,-0.0008,-0.0026,9.8066,0.0033,0.0058,-0.0042,0.0,-31.0,-10.69,226.8,-86.68,-126.4
18296,52.365936,-1.237009,175.69,6.09,3,348.7,16 / 17,1860920,2019-09-04 19:52:21:093,-0.0912,0.31,9.8733,-0.0019,-0.0032,9.8066,0.0094,-0.0062,-0.0185,-0.56,-31.25,-11.56,232.21,-86.73,-125.93
18297,52.365936,-1.237009,175.69,6.09,3,348.7,16 / 17,1861021,2019-09-04 19:52:21:194,-0.1138,0.4683,9.897,-0.001,-0.0012,9.8066,0.0133,0.0058,-0.0051,-0.37,-30.87,-11.06,227.53,-86.78,-125.8
18298,52.365936,-1.237009,175.69,6.09,3,348.7,16 / 17,1861120,2019-09-04 19:52:21:293,-0.2352,0.5311,9.7994,-0.001,0.0012,9.8066,0.0072,0.0238,0.0183,-0.12,-31.87,-11.31,227.49,-86.81,-125.69
18299,52.365936,-1.237009,175.69,6.09,3,348.7,16 / 17,1861220,2019-09-04 19:52:21:393,-0.24,1.392,10.4136,0.0028,0.002,9.8066,0.0288,0.0029,-0.0024,-0.5,-31.06,-10.81,227.41,-86.79,-125.96
18300,52.365936,-1.237009,175.69,6.09,3,348.7,16 / 17,1861321,2019-09-04 19:52:21:494,-0.2946,1.7614,9.504,-0.0022,0.0158,9.8066,0.0498,0.0045,-0.0008,0.06,-30.94,-10.94,226.12,-86.7,-127.2
18301,52.365936,-1.237009,175.69,6.09,3,348.7,16 / 17,1861421,2019-09-04 19:52:21:594,-0.4191,3.0586,10.5063,-0.003,0.0242,9.8065,0.0714,0.0116,0.0015,-0.25,-31.5,-10.69,223.3,-86.57,-130.1
18302,52.365936,-1.237009,175.69,6.09,3,348.7,16 / 17,1861520,2019-09-04 19:52:21:693,-0.5344,3.3546,9.9332,-0.0029,0.02,9.8065,0.0519,0.0187,-0.0007,-0.25,-31.81,-9.94,217.4,-86.28,-135.39
18303,52.365936,-1.237009,175.69,6.09,3,348.7,16 / 17,1861620,2019-09-04 19:52:21:793,-0.279,3.3138,9.795,-0.0019,0.0099,9.8066,0.0149,0.0077,-0.0155,0.0,-31.31,-10.0,214.8,-86.08,-138.32
18304,52.365936,-1.237009,175.69,6.09,3,348.7,16 / 17,1861721,2019-09-04 19:52:21:894,-0.2621,2.4803,9.8542,-0.0017,-0.0068,9.8066,-0.0196,0.0133,-0.0141,-0.37,-31.62,-9.75,214.18,-86.09,-138.83
18305,52.365936,-1.237009,175.69,6.09,3,348.7,16 / 17,1861820,2019-09-04 19:52:21:993,-0.1567,1.6562,9.3354,-0.0038,-0.0208,9.8066,-0.0618,0.0287,-0.0061,-0.75,-31.94,-9.87,220.91,-86.31,-137.15
18306,52.365936,-1.237009,175.69,6.09,3,348.7,16 / 17,1861921,2019-09-04 19:52:22:094,-0.4708,1.3266,9.5937,-0.002,-0.0226,9.8066,-0.0517,0.0272,-0.0117,-0.19,-31.5,-10.37,218.67,-86.56,-134.71
18307,52.365936,-1.237009,175.69,6.09,3,348.7,16 / 17,1862020,2019-09-04 19:52:22:193,-0.2902,1.1856,9.7467,0.0029,-0.0144,9.8066,-0.0298,0.0255,0.0152,-0.56,-31.25,-9.94,226.18,-86.75,-132.32
18308,52.365936,-1.237009,175.69,6.09,3,348.7,16 / 17,1862120,2019-09-04 19:52:22:293,-0.0121,1.7045,10.4079,0.0041,-0.0076,9.8065,-0.0201,0.0259,0.012,0.06,-31.37,-10.12,224.79,-86.84,-128.34
18309,52.365936,-1.237009,175.69,6.09,3,348.7,16 / 17,1862221,2019-09-04 19:52:22:394,0.2207,1.6573,9.8288,-0.0039,-0.0094,9.8066,-0.0187,0.0201,-0.0246,-0.12,-31.56,-10.87,227.21,-86.94,-126.29
18310,52.365936,-1.237009,175.69,6.09,3,348.7,16 / 17,1862320,2019-09-04 19:52:22:493,-0.0179,2.4367,9.8758,-0.0075,-0.0076,9.8066,-0.0102,0.0237,-0.0264,-0.12,-30.87,-10.94,227.79,-87.07,-126.12
18311,52.365936,-1.237009,175.69,6.09,3,348.7,16 / 17,1862421,2019-09-04 19:52:22:594,-0.6062,2.1542,10.1891,-0.0096,-0.0105,9.8065,-0.0475,0.0228,-0.0175,0.69,-31.25,-10.81,222.92,-87.3,-126.76
18312,52.365936,-1.237009,175.69,6.09,3,348.7,16 / 17,1862521,2019-09-04 19:52:22:694,-0.5703,2.2854,10.3031,-0.0001,-0.0269,9.8066,-0.07,-0.003,0.0006,0.31,-30.75,-10.69,230.31,-87.52,-124.33
18313,52.365936,-1.237009,175.69,6.09,3,348.7,16 / 17,1862620,2019-09-04 19:52:22:793,-0.3275,1.8714,10.1187,0.0107,-0.0278,9.8065,-0.079,-0.021,0.0366,0.44,-30.31,-10.0,236.5,-87.69,-117.72
18314,52.365936,-1.237009,175.69,6.09,3,348.7,16 / 17,1862720,2019-09-04 19:52:22:893,0.4401,1.5113,9.9997,0.0167,-0.0269,9.8066,-0.063,-0.0115,0.0236,-0.12,-31.06,-11.12,249.83,-87.68,-104.04
18315,52.365936,-1.237009,175.69,6.09,3,348.7,16 / 17,1862821,2019-09-04 19:52:22:994,1.1767,1.0568,9.6183,0.0009,-0.0219,9.8066,-0.0366,-0.0376,-0.019,-0.87,-30.44,-11.37,264.84,-87.63,-93.93
18316,52.365936,-1.237009,175.69,6.09,3,348.7,16 / 17,1862923,2019-09-04 19:52:23:096,1.0074,0.8638,9.4591,-0.011,-0.0043,9.8066,0.0002,-0.0623,-0.0264,-0.31,-30.25,-11.12,262.97,-87.7,-90.8
18317,52.365936,-1.237009,175.69,6.09,3,348.7,16 / 17,1863021,2019-09-04 19:52:23:194,0.5469,0.2737,9.6279,-0.0052,0.0013,9.8066,-0.0135,-0.1206,-0.006,-0.56,-30.06,-10.62,268.06,-87.87,-91.34
18318,52.365936,-1.237009,175.69,6.09,3,348.7,16 / 17,1863120,2019-09-04 19:52:23:293,1.2215,-0.2306,10.0426,-0.0079,-0.006,9.8066,-0.0217,-0.1344,-0.0238,-0.56,-29.19,-11.44,269.78,-87.97,-90.07
18319,52.365936,-1.237009,175.69,6.09,3,348.7,16 / 17,1863221,2019-09-04 19:52:23:394,1.0629,0.0605,10.0777,-0.0106,-0.0062,9.8066,-0.0151,-0.1771,-0.0028,-1.25,-29.25,-11.06,272.26,-88.09,-87.93
18320,52.365936,-1.237009,175.69,6.09,3,348.7,16 / 16,1863321,2019-09-04 19:52:23:494,1.1101,-0.1504,10.3314,-0.0014,0.0016,9.8066,0.0,-0.2046,-0.0015,-1.62,-29.5,-11.56,278.95,-88.13,-86.1
18321,52.365936,-1.237009,175.69,6.09,3,348.7,16 / 16,1863420,2019-09-04 19:52:23:593,1.0483,-0.3371,9.923,-0.0001,0.0013,9.8066,0.0012,-0.2379,-0.0332,-1.69,-29.25,-11.69,278.72,-88.14,-86.35
18322,52.365936,-1.237009,175.69,6.09,3,348.7,16 / 16,1863521,2019-09-04 19:52:23:694,1.3582,-0.0573,9.5724,-0.0051,-0.0046,9.8066,-0.0287,-0.2615,-0.0164,-2.06,-29.44,-11.31,277.82,-88.29,-88.07
18323,52.365936,-1.237009,175.69,6.09,3,348.7,16 / 16,1863620,2019-09-04 19:52:23:793,1.343,-0.0004,9.6018,-0.0078,-0.002,9.8066,-0.0126,-0.2862,-0.018,-2.5,-29.56,-12.37,280.57,-88.38,-84.95
18324,52.365936,-1.237009,175.69,6.09,3,348.7,16 / 16,1863720,2019-09-04 19:52:23:893,0.6455,-0.1118,10.031,0.0072,0.0003,9.8066,0.0031,-0.3122,0.027,-2.37,-29.62,-11.25,281.99,-88.42,-84.17
18325,52.365936,-1.237009,175.69,6.09,3,348.7,16 / 16,1863820,2019-09-04 19:52:23:993,3.0919,1.2983,10.041,0.0157,0.0172,9.8066,0.0402,-0.3734,-0.0217,-4.0,-29.12,-11.19,285.35,-88.24,-90.42
18326,52.365936,-1.237009,175.69,6.09,3,348.7,16 / 16,1863920,2019-09-04 19:52:24:093,2.7754,1.515,9.9813,0.0175,0.0014,9.8065,0.011,-0.3991,0.0542,-4.5,-29.87,-11.75,277.77,-88.28,-96.61
18327,52.365936,-1.237009,175.69,6.09,3,348.7,16 / 16,1864020,2019-09-04 19:52:24:193,2.874,0.9434,9.6974,-0.0025,0.0049,9.8066,-0.0123,-0.4571,-0.0264,-4.75,-29.69,-11.12,281.18,-88.09,-98.59
18328,52.365936,-1.237009,175.69,6.09,3,348.7,16 / 16,1864120,2019-09-04 19:52:24:293,1.8428,-1.3049,10.0331,-0.0114,-0.0015,9.8066,-0.0336,-0.4488,0.0364,-5.62,-29.5,-10.94,285.32,-88.22,-99.3
18329,52.365936,-1.237009,175.69,6.09,3,348.7,16 / 16,1864220,2019-09-04 19:52:24:393,1.8551,-1.2274,9.4757,0.0039,0.0014,9.8066,-0.0064,-0.5155,0.0165,-5.75,-29.06,-10.5,289.03,-88.2,-97.69
18330,52.36612,-1.237057,175.66,3.93,3,8.0,16 / 16,1864320,2019-09-04 19:52:24:493,1.3243,-0.9177,10.3031,0.0232,0.0018,9.8066,0.0198,-0.581,0.081,-7.12,-29.06,-10.75,288.93,-88.11,-99.54
18331,52.36612,-1.237057,175.66,3.93,3,8.0,16 / 16,1864421,2019-09-04 19:52:24:594,2.5211,-1.3993,9.7875,0.0559,-0.0142,9.8064,0.018,-0.6327,0.1356,-9.0,-28.87,-10.69,290.91,-87.38,-103.35
18332,52.36612,-1.237057,175.66,3.93,3,8.0,16 / 16,1864521,2019-09-04 19:52:24:694,2.1356,-1.8092,8.8937,0.0247,-0.0247,9.8065,-0.054,-0.6579,0.0955,-10.56,-29.31,-9.94,298.48,-86.83,-103.75
18333,52.36612,-1.237057,175.66,3.93,3,8.0,16 / 16,1864621,2019-09-04 19:52:24:794,2.7117,-2.834,8.9658,0.0105,-0.0295,9.8066,-0.0966,-0.672,0.0621,-10.87,-28.75,-10.31,300.07,-86.47,-101.63
18334,52.36612,-1.237057,175.66,3.93,3,8.0,16 / 16,1864721,2019-09-04 19:52:24:894,2.8689,-3.2632,9.6536,-0.0106,-0.0165,9.8066,-0.1028,-0.7261,-0.0113,-12.37,-28.62,-10.69,306.04,-86.12,-95.78
18335,52.36612,-1.237057,175.66,3.93,3,8.0,16 / 16,1864820,2019-09-04 19:52:24:993,2.0449,-3.3753,9.4743,-0.0439,0.0183,9.8065,-0.0923,-0.7145,-0.123,-13.19,-28.87,-10.94,314.48,-86.47,-90.93
18336,52.36612,-1.237057,175.66,3.93,3,8.0,16 / 16,1864920,2019-09-04 19:52:25:093,0.1773,-2.1644,10.4864,-0.0392,0.0207,9.8065,-0.0682,-0.7128,-0.0799,-13.37,-28.25,-10.06,322.53,-87.12,-86.87
18337,52.36612,-1.237057,175.66,3.93,3,8.0,16 / 16,1865021,2019-09-04 19:52:25:194,-0.0945,-0.6131,10.8539,-0.0094,-0.0025,9.8066,-0.0502,-0.7414,0.0293,-14.37,-28.37,-9.56,331.28,-87.48,-81.18
18338,52.36612,-1.237057,175.66,3.93,3,8.0,16 / 16,1865120,2019-09-04 19:52:25:293,0.7533,-0.8079,10.0816,0.0168,-0.0325,9.8066,-0.0652,-0.7439,0.1981,-15.31,-29.19,-9.37,336.06,-87.17,-81.05
18339,52.36612,-1.237057,175.66,3.93,3,8.0,16 / 16,1865220,2019-09-04 19:52:25:393,1.5646,-2.4334,9.4916,0.0373,-0.086,9.8061,-0.0714,-0.7658,0.1996,-17.12,-28.5,-9.12,338.32,-86.33,-81.77
18340,52.36612,-1.237057,175.66,3.93,3,8.0,16 / 16,1865320,2019-09-04 19:52:25:493,1.9436,-4.0776,9.3413,0.0346,-0.0582,9.8064,-0.0555,-0.7344,0.1551,-18.56,-27.87,-8.06,341.49,-84.85,-83.39
18341,52.36612,-1.237057,175.66,3.93,3,8.0,16 / 16,1865421,2019-09-04 19:52:25:594,1.4462,-4.52,9.6157,0.0248,-0.027,9.8065,-0.0331,-0.756,0.0382,-19.44,-27.25,-6.94,341.01,-83.97,-86.05
18342,52.36612,-1.237057,175.66,3.93,3,8.0,16 / 16,1865520,2019-09-04 19:52:25:693,1.3046,-4.8441,10.0661,0.0223,0.0528,9.8064,0.033,-0.7917,-0.1653,-20.06,-28.37,-5.62,341.6,-84.03,-89.08
18343,52.36612,-1.237057,175.66,3.93,3,8.0,16 / 16,1865620,2019-09-04 19:52:25:793,0.8988,-1.7701,10.4751,0.0226,0.0632,9.8064,0.0114,-0.7909,-0.1227,-19.69,-29.12,-4.19,339.41,-84.93,-96.67
18344,52.36612,-1.237057,175.66,3.93,3,8.0,16 / 16,1865721,2019-09-04 19:52:25:894,0.5018,0.3229,10.0477,0.0002,0.0308,9.8065,-0.0279,-0.7288,-0.05,-20.31,-29.19,-3.81,335.16,-85.4,-100.72
18345,52.36612,-1.237057,175.66,3.93,3,8.0,16 / 16,1865821,2019-09-04 19:52:25:994,1.0543,-0.165,10.1972,0.0159,-0.0061,9.8066,-0.0132,-0.6453,0.0575,-20.62,-28.81,-2.0,339.65,-85.61,-102.76
18346,52.36612,-1.237057,175.66,3.93,3,8.0,16 / 16,1865922,2019-09-04 19:52:26:095,0.3175,-1.274,9.8367,0.0107,-0.038,9.8065,-0.0254,-0.5811,0.1219,-21.56,-29.25,-0.62,340.92,-85.25,-104.37
18347,52.36612,-1.237057,175.66,3.93,3,8.0,16 / 16,1866021,2019-09-04 19:52:26:194,0.7963,-1.7072,9.3852,0.0206,-0.0418,9.8065,0.0121,-0.5339,0.1144,-21.81,-28.94,0.13,343.02,-84.49,-104.78
18348,52.36612,-1.237057,175.66,3.93,3,8.0,16 / 16,1866121,2019-09-04 19:52:26:294,1.1081,-2.1018,9.2188,0.0233,-0.0181,9.8065,0.0123,-0.4384,0.0423,-22.12,-28.69,0.63,343.8,-84.02,-106.52
18349,52.36612,-1.237057,175.66,3.93,3,8.0,16 / 16,1866227,2019-09-04 19:52:26:400,0.4142,-1.5664,10.0721,0.0168,0.0108,9.8066,0.0072,-0.4548,-0.0855,-23.37,-28.56,2.75,345.77,-83.85,-109.7
18350,52.36612,-1.237057,175.66,3.93,3,8.0,15 / 16,1866321,2019-09-04 19:52:26:494,0.6818,-0.3848,10.5153,0.0116,0.0181,9.8066,-0.0075,-0.318,0.0095,-22.31,-29.0,2.94,342.77,-84.06,-112.61
18351,52.36612,-1.237057,175.66,3.93,3,8.0,15 / 16,1866420,2019-09-04 19:52:26:593,1.5026,-0.2263,10.0738,0.0103,0.0127,9.8066,-0.0193,-0.3015,-0.0461,-22.5,-28.87,4.19,343.94,-84.14,-114.18
18352,52.36612,-1.237057,175.66,3.93,3,8.0,15 / 16,1866521,2019-09-04 19:52:26:694,1.1457,-0.16,9.7634,0.001,-0.0017,9.8066,-0.0027,-0.2064,0.0746,-23.25,-28.81,4.63,343.86,-84.31,-116.38
18353,52.36612,-1.237057,175.66,3.93,3,8.0,15 / 16,1866620,2019-09-04 19:52:26:793,1.0533,-1.3183,10.2153,0.003,-0.007,9.8066,0.0153,-0.2282,-0.0148,-22.69,-28.81,5.25,343.6,-84.15,-116.55
18354,52.36612,-1.237057,175.66,3.93,3,8.0,15 / 16,1866720,2019-09-04 19:52:26:893,1.0069,-0.3321,9.3642,0.0108,0.0171,9.8065,-0.0323,-0.1324,0.0268,-22.25,-28.37,5.88,345.24,-84.23,-118.14
18355,52.36612,-1.237057,175.66,3.93,3,8.0,15 / 16,1866820,2019-09-04 19:52:26:993,1.2257,0.0202,9.445,-0.0033,0.0099,9.8066,-0.028,-0.1232,-0.0046,-22.75,-28.5,5.5,344.64,-84.29,-118.13
18356,52.36612,-1.237057,175.66,3.93,3,8.0,15 / 16,1866920,2019-09-04 19:52:27:093,0.6861,0.4047,9.9759,-0.0067,-0.0013,9.8066,-0.0259,-0.0987,0.026,-22.44,-28.69,5.63,345.79,-84.36,-117.64
18357,52.36612,-1.237057,175.66,3.93,3,8.0,15 / 16,1867021,2019-09-04 19:52:27:194,0.6347,-1.2059,10.7235,0.0015,0.0062,9.8066,-0.013,-0.0405,-0.0026,-22.19,-28.81,6.06,346.36,-84.37,-117.15
18358,52.36612,-1.237057,175.66,3.93,3,8.0,15 / 16,1867120,2019-09-04 19:52:27:293,1.3146,-0.5481,10.6579,0.0232,0.0152,9.8065,0.0301,-0.0604,-0.0192,-22.62,-28.25,6.06,344.39,-84.48,-118.42
18359,52.36612,-1.237057,175.66,3.93,3,8.0,15 / 16,1867220,2019-09-04 19:52:27:393,0.6296,-0.5462,10.8168,0.0153,0.0021,9.8066,0.0311,-0.0986,-0.073,-22.31,-28.75,6.5,343.07,-84.55,-122.52
18360,52.36612,-1.237057,175.66,3.93,3,8.0,15 / 15,1867320,2019-09-04 19:52:27:493,2.438,-1.4055,10.4248,0.0165,0.0044,9.8066,-0.0284,0.1246,0.1195,-21.94,-29.0,7.0,340.61,-84.51,-124.67
18361,52.36612,-1.237057,175.66,3.93,3,8.0,15 / 15,1867421,2019-09-04 19:52:27:594,1.806,-0.7664,8.2703,-0.0171,0.0001,9.8065,-0.0688,-0.0227,-0.0451,-22.44,-28.94,7.0,340.4,-84.56,-124.88
18362,52.36612,-1.237057,175.66,3.93,3,8.0,15 / 15,1867521,2019-09-04 19:52:27:694,1.901,-0.5978,8.6537,-0.0563,0.0309,9.8064,-0.15,0.0668,0.0516,-21.75,-28.62,6.56,343.83,-84.98,-122.01
18363,52.36612,-1.237057,175.66,3.93,3,8.0,15 / 15,1867621,2019-09-04 19:52:27:794,0.6753,2.194,9.0275,-0.0716,0.0161,9.8063,-0.168,0.034,0.0703,-22.75,-28.75,5.69,348.16,-85.48,-115.29
18364,52.36612,-1.237057,175.66,3.93,3,8.0,15 / 15,1867721,2019-09-04 19:52:27:894,-0.6328,0.0285,11.9582,-0.0292,0.0135,9.8065,-0.0065,0.0373,0.0294,-21.56,-28.87,4.56,2.24,-85.75,-100.78
18365,52.36612,-1.237057,175.66,3.93,3,8.0,15 / 15,1867821,2019-09-04 19:52:27:994,-1.7056,0.9192,12.1412,0.0427,0.0039,9.8065,0.1807,0.0502,0.0148,-22.12,-29.44,4.75,0.82,-85.88,-102.06
18366,52.36612,-1.237057,175.66,3.93,3,8.0,15 / 15,1867920,2019-09-04 19:52:28:093,1.1013,0.7497,10.5129,0.1172,-0.0353,9.8059,0.2831,0.0566,0.0515,-22.0,-29.31,6.75,349.87,-85.62,-116.78
18367,52.36612,-1.237057,175.66,3.93,3,8.0,15 / 15,1868021,2019-09-04 19:52:28:194,2.4651,0.124,10.1761,0.1129,-0.0331,9.8059,0.2494,0.0412,0.045,-21.94,-29.44,7.25,328.14,-84.32,-135.61
18368,52.36612,-1.237057,175.66,3.93,3,8.0,15 / 15,1868120,2019-09-04 19:52:28:293,2.0673,-0.3042,9.7263,0.0416,-0.0145,9.8065,-0.0911,0.0554,0.0609,-22.62,-28.56,8.06,324.67,-83.74,-140.03
18369,52.36612,-1.237057,175.66,3.93,3,8.0,15 / 15,1868220,2019-09-04 19:52:28:393,1.0647,0.2521,8.7603,-0.0599,0.0039,9.8064,-0.1574,0.0367,0.0356,-21.75,-28.56,6.81,324.97,-83.91,-138.13
18370,52.36612,-1.237057,175.66,3.93,3,8.0,16 / 16,1868321,2019-09-04 19:52:28:494,-0.4659,0.8268,9.8631,-0.0488,-0.0004,9.8065,-0.0957,0.0035,0.018,-22.31,-28.62,6.19,332.65,-84.48,-129.28
18371,52.36612,-1.237057,175.66,3.93,3,8.0,16 / 16,1868420,2019-09-04 19:52:28:593,-0.2337,0.1112,10.1449,-0.0239,-0.0075,9.8066,-0.0335,0.0337,0.0413,-22.12,-29.12,6.19,339.61,-84.71,-123.23
18372,52.36612,-1.237057,175.66,3.93,3,8.0,16 / 16,1868521,2019-09-04 19:52:28:694,0.2022,0.7379,9.9688,0.0124,-0.0157,9.8066,0.0597,0.0289,0.0369,-22.94,-28.69,6.13,339.38,-84.65,-122.86
18373,52.36612,-1.237057,175.66,3.93,3,8.0,16 / 16,1868620,2019-09-04 19:52:28:793,1.3208,0.2356,10.3529,0.0194,-0.0187,9.8066,0.0559,0.0159,0.0147,-22.25,-28.81,6.5,340.21,-84.28,-124.92
18374,52.36612,-1.237057,175.66,3.93,3,8.0,16 / 16,1868721,2019-09-04 19:52:28:894,1.205,-0.0955,10.2588,0.0098,-0.0153,9.8066,-0.0084,0.0361,0.0479,-23.25,-29.06,6.31,336.01,-84.06,-125.55
18375,52.36612,-1.237057,175.66,3.93,3,8.0,16 / 16,1868821,2019-09-04 19:52:28:994,0.3057,0.0187,9.7224,-0.0118,-0.0113,9.8066,-0.031,0.0173,0.0315,-22.62,-28.81,6.63,339.2,-83.98,-125.05
18376,52.36612,-1.237057,175.66,3.93,3,8.0,16 / 16,1868920,2019-09-04 19:52:29:093,0.3534,0.0032,9.9215,-0.0077,-0.0094,9.8066,-0.0165,-0.0207,-0.0129,-23.19,-29.19,6.5,342.1,-83.89,-122.47
18377,52.36612,-1.237057,175.66,3.93,3,8.0,16 / 16,1869020,2019-09-04 19:52:29:193,0.5529,0.0517,9.8881,0.0044,-0.006,9.8066,0.013,0.0306,0.0373,-22.87,-29.06,6.31,340.34,-83.81,-121.64
18378,52.36612,-1.237057,175.66,3.93,3,8.0,16 / 16,1869121,2019-09-04 19:52:29:294,0.6875,-0.2308,9.3637,0.0036,-0.0061,9.8066,-0.0018,0.0529,0.0503,-23.19,-28.94,6.5,342.79,-83.69,-121.79
18379,52.36612,-1.237057,175.66,3.93,3,8.0,16 / 16,1869221,2019-09-04 19:52:29:394,0.6281,0.2364,9.5606,0.0006,-0.0052,9.8066,0.0103,0.0232,0.0214,-23.37,-28.75,7.06,342.6,-83.59,-121.91
18380,52.36612,-1.237057,175.66,3.93,3,8.0,15 / 16,1869321,2019-09-04 19:52:29:494,0.4988,0.0357,9.73,-0.0015,0.0017,9.8066,-0.0249,0.0434,0.0232,-23.19,-28.75,6.06,339.99,-83.56,-121.82
18381,52.36612,-1.237057,175.66,3.93,3,8.0,15 / 16,1869421,2019-09-04 19:52:29:594,0.7616,0.4235,10.3106,0.0011,-0.0028,9.8066,-0.0134,0.037,0.0295,-23.25,-28.75,7.44,343.06,-83.57,-121.51
18382,52.36612,-1.237057,175.66,3.93,3,8.0,15 / 16,1869520,2019-09-04 19:52:29:693,0.6559,-0.0669,10.1832,-0.0004,0.0006,9.8066,-0.0125,0.0465,0.0377,-23.81,-28.19,6.19,339.96,-83.53,-121.45
18383,52.36612,-1.237057,175.66,3.93,3,8.0,15 / 16,1869620,2019-09-04 19:52:29:793,1.0229,0.3982,10.3633,-0.0013,-0.0019,9.8066,-0.014,0.0125,0.0089,-23.44,-28.44,6.88,343.36,-83.52,-121.31
18384,52.36612,-1.237057,175.66,3.93,3,8.0,15 / 16,1869720,2019-09-04 19:52:29:893,0.5887,0.0445,10.2388,0.0044,0.0026,9.8065,0.0115,-0.0358,-0.0404,-23.25,-28.62,6.94,343.48,-83.5,-121.13
18385,52.36612,-1.237057,175.66,3.93,3,8.0,15 / 16,1869821,2019-09-04 19:52:29:994,0.3565,0.2474,9.111,0.0108,0.0061,9.8066,0.0182,0.013,-0.0116,-23.06,-28.62,6.88,341.91,-83.55,-122.5
18386,52.36612,-1.237057,175.66,3.93,3,8.0,15 / 16,1869920,2019-09-04 19:52:30:093,-0.0054,0.1731,9.5115,0.0101,0.0027,9.8066,0.0022,0.0264,0.0101,-23.25,-28.25,6.5,340.82,-83.53,-123.52
18387,52.36612,-1.237057,175.66,3.93,3,8.0,15 / 16,1870021,2019-09-04 19:52:30:194,0.6224,-0.203,9.9066,0.0035,0.0086,9.8066,0.0063,0.0182,0.0058,-22.5,-28.37,6.94,340.67,-83.51,-124.27
18388,52.36612,-1.237057,175.66,3.93,3,8.0,15 / 16,1870121,2019-09-04 19:52:30:294,0.1863,-0.1476,10.2913,0.0032,0.0082,9.8066,0.0149,0.0083,-0.0006,-23.19,-28.25,6.06,336.16,-83.61,-125.29
18389,52.36612,-1.237057,175.66,3.93,3,8.0,15 / 16,1870221,2019-09-04 19:52:30:394,0.6448,0.0646,9.7426,0.0103,0.0083,9.8066,0.018,0.0112,-0.0075,-22.87,-28.5,6.75,337.32,-83.68,-126.65
18390,52.36612,-1.237057,175.66,3.93,3,8.0,15 / 15,1870320,2019-09-04 19:52:30:493,1.0499,0.408,9.9196,0.0019,-0.0036,9.8066,-0.0115,-0.0427,-0.0305,-23.62,-28.87,6.13,333.23,-83.63,-127.3
18391,52.36612,-1.237057,175.66,3.93,3,8.0,15 / 15,1870420,2019-09-04 19:52:30:593,0.1971,-0.0882,9.13,-0.0095,0.0026,9.8066,-0.0429,0.0078,0.0149,-23.62,-29.0,6.0,333.44,-83.69,-127.15
18392,52.36612,-1.237057,175.66,3.93,3,8.0,15 / 15,1870521,2019-09-04 19:52:30:694,-0.0205,0.8862,9.9086,-0.0183,-0.0038,9.8066,-0.0341,-0.0521,-0.0245,-23.69,-29.06,7.13,337.94,-83.75,-125.48
18393,52.36612,-1.237057,175.66,3.93,3,8.0,15 / 15,1870621,2019-09-04 19:52:30:794,0.4914,-0.0608,9.6497,-0.0027,-0.0021,9.8066,-0.0008,0.0241,0.0203,-23.69,-28.94,6.94,339.69,-83.79,-123.96
18394,52.36612,-1.237057,175.66,3.93,3,8.0,15 / 15,1870720,2019-09-04 19:52:30:893,0.1002,0.1752,9.9443,0.0185,0.0001,9.8066,0.0352,-0.0193,-0.0157,-23.81,-28.0,6.56,339.42,-83.73,-124.26
18395,52.36612,-1.237057,175.66,3.93,3,8.0,15 / 15,1870820,2019-09-04 19:52:30:993,0.6447,0.4257,10.2338,0.0155,-0.0012,9.8066,0.0113,0.0391,0.0453,-24.25,-28.12,6.13,334.26,-83.59,-126.49
18396,52.36612,-1.237057,175.66,3.93,3,8.0,15 / 15,1870920,2019-09-04 19:52:31:093,0.6458,0.3828,10.0976,-0.0042,-0.0131,9.8066,-0.0002,-0.0035,-0.0176,-23.06,-28.31,6.44,334.26,-83.5,-126.89
18397,52.36612,-1.237057,175.66,3.93,3,8.0,15 / 15,1871020,2019-09-04 19:52:31:193,0.0923,0.0235,10.2438,-0.0002,0.0032,9.8066,0.0049,0.0142,0.0071,-23.0,-28.06,5.75,334.53,-83.47,-126.64
18398,52.36612,-1.237057,175.66,3.93,3,8.0,15 / 15,1871120,2019-09-04 19:52:31:293,0.4446,0.2556,9.3876,0.0033,0.0017,9.8066,0.0123,0.0069,-0.0094,-23.12,-28.69,6.5,336.78,-83.46,-126.9
18399,52.36612,-1.237057,175.66,3.93,3,8.0,15 / 15,1871221,2019-09-04 19:52:31:394,-0.0492,0.241,8.6981,0.0052,0.002,9.8066,0.0171,-0.0387,-0.0341,-23.12,-28.37,6.44,333.35,-83.44,-127.66
18400,52.36612,-1.237057,175.66,3.93,3,8.0,15 / 15,1871321,2019-09-04 19:52:31:494,-0.0375,0.2041,9.7926,-0.0023,-0.0012,9.8065,-0.0135,-0.0057,-0.0016,-23.44,-28.06,5.88,332.48,-83.45,-128.43
18401,52.36612,-1.237057,175.66,3.93,3,8.0,15 / 15,1871420,2019-09-04 19:52:31:593,0.0625,0.2024,9.848,-0.0056,0.0022,9.8066,-0.0201,-0.0278,-0.0232,-22.62,-28.81,6.25,332.73,-83.5,-128.11
18402,52.36612,-1.237057,175.66,3.93,3,8.0,15 / 15,1871521,2019-09-04 19:52:31:694,0.0159,0.7165,10.3515,-0.003,-0.0003,9.8066,-0.0037,-0.0166,-0.0155,-22.94,-28.62,6.0,333.6,-83.53,-127.37
18403,52.36612,-1.237057,175.66,3.93,3,8.0,15 / 15,1871620,2019-09-04 19:52:31:793,-0.4405,0.4739,9.8934,0.0015,-0.0078,9.8066,-0.0062,0.016,0.0325,-23.19,-28.0,6.38,334.3,-83.48,-126.84
18404,52.36612,-1.237057,175.66,3.93,3,8.0,15 / 15,1871721,2019-09-04 19:52:31:894,-0.0192,0.0782,9.4512,0.0062,-0.0025,9.8065,-0.0042,-0.0199,-0.0041,-22.37,-28.06,6.31,334.51,-83.33,-127.07
18405,52.36612,-1.237057,175.66,3.93,3,8.0,15 / 15,1871821,2019-09-04 19:52:31:994,-0.4359,0.486,9.8622,0.0029,-0.0057,9.8066,0.0102,-0.0361,-0.015,-22.87,-27.75,6.5,336.49,-83.28,-127.18
18406,52.36612,-1.237057,175.66,3.93,3,8.0,15 / 15,1871921,2019-09-04 19:52:32:094,-0.3804,0.2039,10.2484,-0.0036,-0.0104,9.8066,0.0023,-0.0056,0.0071,-22.62,-27.62,6.13,334.31,-83.22,-126.69
18407,52.36612,-1.237057,175.66,3.93,3,8.0,15 / 15,1872021,2019-09-04 19:52:32:194,0.0911,0.4462,9.6354,0.0042,0.0026,9.8066,-0.0006,-0.0272,-0.0175,-22.87,-27.87,6.69,337.25,-83.12,-126.43
18408,52.36612,-1.237057,175.66,3.93,3,8.0,15 / 15,1872121,2019-09-04 19:52:32:294,0.4937,-0.1871,10.0774,0.0048,-0.0036,9.8066,-0.0116,-0.0094,-0.0067,-23.25,-27.62,6.13,334.03,-83.06,-126.85
18409,52.36612,-1.237057,175.66,3.93,3,8.0,15 / 15,1872221,2019-09-04 19:52:32:394,-0.314,0.124,9.2296,-0.0007,-0.0008,9.8066,-0.0163,0.0007,0.0013,-22.56,-27.94,6.56,336.86,-83.06,-126.74
18410,52.36612,-1.237057,175.66,3.93,3,8.0,15 / 15,1872320,2019-09-04 19:52:32:493,-0.6985,0.0782,9.9226,-0.0073,-0.0101,9.8066,-0.023,0.0537,0.0601,-23.37,-28.12,5.81,335.01,-83.11,-126.02
18411,52.36612,-1.237057,175.66,3.93,3,8.0,15 / 15,1872421,2019-09-04 19:52:32:594,-0.2941,0.0485,10.6675,0.0069,0.0092,9.8066,0.0062,0.0249,-0.0073,-22.56,-28.69,6.44,335.24,-83.11,-125.7
18412,52.36612,-1.237057,175.66,3.93,3,8.0,15 / 15,1872521,2019-09-04 19:52:32:694,0.4498,0.6661,9.7981,0.008,-0.0064,9.8066,0.0287,0.0079,0.0104,-22.81,-28.62,6.31,333.96,-83.16,-126.83
18413,52.36612,-1.237057,175.66,3.93,3,8.0,15 / 15,1872621,2019-09-04 19:52:32:794,-0.4737,-0.8215,11.6417,0.0024,-0.0113,9.8066,0.0208,-0.0649,-0.0601,-23.5,-28.19,6.63,335.84,-83.01,-127.6
18414,52.36612,-1.237057,175.66,3.93,3,8.0,15 / 15,1872721,2019-09-04 19:52:32:894,0.0715,-0.1631,10.0618,0.0138,0.0178,9.8066,0.0192,-0.0462,-0.1039,-22.75,-29.06,6.25,331.58,-83.06,-128.84
18415,52.36612,-1.237057,175.66,3.93,3,8.0,15 / 15,1872820,2019-09-04 19:52:32:993,-0.378,1.2132,9.5142,0.0128,0.0034,9.8066,0.0345,-0.0443,-0.0311,-22.69,-28.56,6.38,330.19,-83.13,-130.08
18416,52.36612,-1.237057,175.66,3.93,3,8.0,15 / 15,1872920,2019-09-04 19:52:33:093,-0.2614,-0.2539,9.8636,-0.0086,-0.0026,9.8066,-0.0213,0.0117,-0.0247,-23.0,-29.25,6.19,329.35,-83.16,-130.84
18417,52.36612,-1.237057,175.66,3.93,3,8.0,15 / 15,1873020,2019-09-04 19:52:33:193,-0.0297,0.4506,10.0818,-0.0097,0.0182,9.8065,-0.0141,0.002,-0.0398,-22.44,-29.06,5.94,330.3,-83.34,-130.59
18418,52.36612,-1.237057,175.66,3.93,3,8.0,15 / 15,1873120,2019-09-04 19:52:33:293,-0.2743,0.5761,9.3282,-0.0006,0.0028,9.8066,0.0031,-0.0006,0.0051,-22.5,-29.06,6.19,329.69,-83.53,-131.25
18419,52.36612,-1.237057,175.66,3.93,3,8.0,15 / 15,1873221,2019-09-04 19:52:33:394,0.3216,0.1636,10.1579,0.0028,-0.0032,9.8066,-0.0005,0.047,0.052,-22.12,-29.69,6.44,329.12,-83.55,-131.61
18420,52.366142,-1.236117,173.66,10.68,4,93.66,15 / 16,1873321,2019-09-04 19:52:33:494,0.2143,0.6497,10.0679,0.007,-0.0023,9.8066,0.0195,-0.0272,-0.0198,-22.81,-29.56,7.25,330.75,-83.5,-132.05
18421,52.366142,-1.236117,173.66,10.68,4,93.66,15 / 16,1873420,2019-09-04 19:52:33:593,-0.3766,0.246,9.7086,0.0036,-0.0004,9.8066,0.0161,-0.0446,-0.0512,-22.37,-28.56,6.56,330.84,-83.5,-132.67
18422,52.366142,-1.236117,173.66,10.68,4,93.66,15 / 16,1873520,2019-09-04 19:52:33:693,-0.6719,0.2158,9.6084,-0.0007,0.0091,9.8066,0.0011,-0.0059,-0.0181,-22.62,-29.0,7.0,330.14,-83.57,-132.77
18423,52.366142,-1.236117,173.66,10.68,4,93.66,15 / 16,1873621,2019-09-04 19:52:33:794,-0.9844,0.4719,10.1208,0.0036,0.0096,9.8065,-0.0035,0.0677,0.0535,-22.44,-28.69,6.25,326.83,-83.63,-133.83
18424,52.366142,-1.236117,173.66,10.68,4,93.66,15 / 16,1873721,2019-09-04 19:52:33:894,0.204,0.5797,10.3306,0.0052,-0.0014,9.8066,-0.0007,0.0305,0.015,-22.75,-28.69,6.19,325.3,-83.65,-134.74
18425,52.366142,-1.236117,173.66,10.68,4,93.66,15 / 16,1873821,2019-09-04 19:52:33:994,-0.1301,0.2845,9.6709,-0.008,0.0009,9.8065,-0.0037,0.0112,0.0316,-22.25,-29.12,6.19,325.66,-83.59,-134.83
18426,52.366142,-1.236117,173.66,10.68,4,93.66,15 / 16,1873920,2019-09-04 19:52:34:093,0.0344,0.5419,10.1159,-0.0164,-0.0082,9.8066,-0.0353,0.0219,0.0393,-22.5,-28.87,5.75,326.36,-83.61,-134.22
18427,52.366142,-1.236117,173.66,10.68,4,93.66,15 / 16,1874020,2019-09-04 19:52:34:193,-0.7214,0.3525,9.4898,-0.0062,-0.0067,9.8066,-0.0192,0.0406,0.0719,-23.12,-29.31,5.63,328.51,-83.59,-131.86
18428,52.366142,-1.236117,173.66,10.68,4,93.66,15 / 16,1874120,2019-09-04 19:52:34:293,-0.1279,-0.1669,9.8344,-0.0044,-0.0124,9.8066,0.0031,-0.0098,0.0081,-22.87,-29.25,6.19,330.42,-83.46,-130.09
18429,52.366142,-1.236117,173.66,10.68,4,93.66,15 / 16,1874220,2019-09-04 19:52:34:393,-0.659,0.332,9.9862,-0.001,-0.0036,9.8066,0.015,-0.0224,-0.0107,-22.44,-28.69,6.44,330.87,-83.42,-130.15
18430,52.366142,-1.236117,173.66,10.68,4,93.66,15 / 15,1874321,2019-09-04 19:52:34:494,-1.1224,0.9147,10.3211,0.0074,0.0168,9.8066,0.0131,0.0389,-0.0008,-22.87,-28.87,6.06,328.86,-83.4,-131.43
18431,52.366142,-1.236117,173.66,10.68,4,93.66,15 / 15,1874421,2019-09-04 19:52:34:594,-0.2063,0.6317,10.4282,-0.0011,-0.019,9.8066,0.0233,-0.0694,-0.0611,-22.25,-28.94,6.0,328.3,-83.37,-132.35
18432,52.366142,-1.236117,173.66,10.68,4,93.66,15 / 15,1874521,2019-09-04 19:52:34:694,-0.6408,0.5897,10.1125,-0.0024,-0.0043,9.8066,0.0223,-0.1078,-0.1301,-23.0,-28.87,6.56,330.75,-83.27,-132.05
18433,52.366142,-1.236117,173.66,10.68,4,93.66,15 / 15,1874621,2019-09-04 19:52:34:794,-0.097,1.5125,9.3474,-0.0137,0.0091,9.8066,-0.0393,0.0741,0.0616,-23.19,-28.75,6.0,326.31,-83.44,-133.69
18434,52.366142,-1.236117,173.66,10.68,4,93.66,15 / 15,1874721,2019-09-04 19:52:34:894,-0.3797,0.138,9.4796,-0.0132,-0.0142,9.8066,-0.0169,-0.0402,-0.0053,-22.25,-29.25,6.38,328.6,-83.55,-132.22
18435,52.366142,-1.236117,173.66,10.68,4,93.66,15 / 15,1874820,2019-09-04 19:52:34:993,0.7582,0.93,10.4994,-0.0012,-0.0123,9.8066,0.0214,-0.0923,-0.0885,-22.44,-28.75,6.25,328.69,-83.56,-132.14
18436,52.366142,-1.236117,173.66,10.68,4,93.66,15 / 15,1874920,2019-09-04 19:52:35:093,-0.1312,0.1528,9.7955,-0.0003,-0.0112,9.8066,0.021,-0.0995,-0.0949,-23.12,-29.31,6.31,328.72,-83.41,-131.55
18437,52.366142,-1.236117,173.66,10.68,4,93.66,15 / 15,1875021,2019-09-04 19:52:35:194,-0.3389,-0.0523,9.4532,0.0062,-0.0047,9.8066,0.0205,-0.0084,0.0115,-22.81,-29.25,6.25,328.41,-83.34,-131.78
18438,52.366142,-1.236117,173.66,10.68,4,93.66,15 / 15,1875120,2019-09-04 19:52:35:293,0.3104,0.1337,10.0735,0.0066,-0.0106,9.8066,0.0066,0.023,0.043,-22.69,-29.12,6.0,327.8,-83.25,-132.25
18439,52.366142,-1.236117,173.66,10.68,4,93.66,15 / 15,1875220,2019-09-04 19:52:35:393,-0.0855,0.0313,9.5496,-0.0082,-0.0025,9.8066,-0.0003,-0.0063,-0.0087,-22.5,-28.75,6.06,328.45,-83.06,-132.0
18440,52.366142,-1.236117,173.66,10.68,4,93.66,15 / 15,1875321,2019-09-04 19:52:35:494,-0.3056,0.2371,9.6302,-0.0089,0.0009,9.8066,-0.0055,-0.0295,-0.0332,-22.75,-28.94,5.88,329.05,-83.09,-131.05
18441,52.366142,-1.236117,173.66,10.68,4,93.66,15 / 15,1875420,2019-09-04 19:52:35:593,-0.0336,0.3311,9.6807,-0.0117,0.0018,9.8066,-0.0218,0.0378,0.0798,-23.12,-29.19,6.19,329.82,-83.17,-130.44
18442,52.366142,-1.236117,173.66,10.68,4,93.66,15 / 15,1875521,2019-09-04 19:52:35:694,-0.3889,0.5579,10.4014,-0.0144,-0.0098,9.8066,-0.019,0.0365,0.0466,-23.12,-29.12,5.94,332.4,-83.16,-128.19
18443,52.366142,-1.236117,173.66,10.68,4,93.66,15 / 15,1875623,2019-09-04 19:52:35:796,-1.035,0.0257,9.861,0.0101,-0.009,9.8066,0.0203,0.0,0.0355,-23.5,-28.75,6.5,336.34,-83.08,-127.08
18444,52.366142,-1.236117,173.66,10.68,4,93.66,15 / 15,1875721,2019-09-04 19:52:35:894,-0.3039,0.4919,10.0051,0.0112,-0.0077,9.8066,0.0554,0.0256,0.058,-23.12,-28.56,6.25,332.94,-82.94,-127.59
18445,52.366142,-1.236117,173.66,10.68,4,93.66,15 / 15,1875821,2019-09-04 19:52:35:994,0.337,0.2519,9.6588,0.0079,-0.0011,9.8066,-0.0002,-0.008,-0.0059,-23.81,-28.87,6.56,332.89,-82.76,-129.36
18446,52.366142,-1.236117,173.66,10.68,4,93.66,15 / 15,1875920,2019-09-04 19:52:36:093,-0.4421,-0.8781,10.3965,-0.002,0.0027,9.8066,-0.03,0.0465,0.0271,-23.25,-29.31,6.25,330.43,-82.76,-129.63
18447,52.366142,-1.236117,173.66,10.68,4,93.66,15 / 15,1876020,2019-09-04 19:52:36:193,0.1361,0.0922,10.4153,-0.0009,0.0087,9.8066,0.004,0.052,0.0404,-23.12,-28.94,6.44,330.12,-82.87,-129.97
18448,52.366142,-1.236117,173.66,10.68,4,93.66,15 / 15,1876120,2019-09-04 19:52:36:293,0.0575,0.787,10.2805,0.0027,0.0103,9.8065,-0.0079,0.1051,0.1153,-22.87,-29.12,7.0,332.4,-82.94,-130.4
18449,52.366142,-1.236117,173.66,10.68,4,93.66,15 / 15,1876220,2019-09-04 19:52:36:393,-0.896,-0.1157,9.7973,-0.0078,0.0109,9.8066,-0.0265,0.0302,0.0357,-23.19,-28.19,6.13,330.68,-82.91,-129.66
18450,52.366142,-1.236117,173.66,10.68,4,93.66,15 / 15,1876321,2019-09-04 19:52:36:494,-0.5774,0.6052,9.9518,0.0072,-0.0003,9.8066,0.0004,0.0328,0.0382,-23.31,-28.5,6.94,333.43,-82.97,-129.66
18451,52.366142,-1.236117,173.66,10.68,4,93.66,15 / 15,1876420,2019-09-04 19:52:36:593,-0.7006,0.3325,9.6741,0.004,-0.005,9.8065,0.0052,0.0151,0.019,-22.5,-28.0,7.13,333.37,-82.93,-130.27
18452,52.366142,-1.236117,173.66,10.68,4,93.66,15 / 15,1876521,2019-09-04 19:52:36:694,-0.0102,-0.1403,9.727,0.0,0.0014,9.8066,-0.0035,0.0114,0.0063,-23.37,-28.69,6.25,329.39,-82.88,-130.61
18453,52.366142,-1.236117,173.66,10.68,4,93.66,15 / 15,1876621,2019-09-04 19:52:36:794,0.1716,0.2389,9.7581,-0.0057,0.0011,9.8066,-0.0279,-0.0189,-0.0151,-23.06,-28.56,6.0,330.27,-82.91,-129.87
18454,52.366142,-1.236117,173.66,10.68,4,93.66,15 / 15,1876720,2019-09-04 19:52:36:893,-0.4539,0.3576,10.4596,-0.0104,0.0021,9.8066,-0.0366,0.0305,0.042,-22.81,-29.12,6.63,334.24,-83.03,-128.87
18455,52.366142,-1.236117,173.66,10.68,4,93.66,15 / 15,1876820,2019-09-04 19:52:36:993,-0.4868,0.4475,9.7083,0.0038,0.0035,9.8066,0.0207,-0.0122,-0.0178,-23.5,-28.75,6.13,332.49,-83.05,-128.04
18456,52.366142,-1.236117,173.66,10.68,4,93.66,15 / 15,1876921,2019-09-04 19:52:37:094,-0.4697,0.676,9.1698,0.0057,-0.0033,9.8066,0.026,-0.028,-0.0204,-22.75,-28.81,6.0,332.19,-83.03,-128.29
18457,52.366142,-1.236117,173.66,10.68,4,93.66,15 / 15,1877021,2019-09-04 19:52:37:194,0.3315,-0.3137,10.4256,0.0083,-0.0026,9.8066,0.0043,-0.0067,-0.0323,-23.06,-28.37,6.38,331.36,-82.93,-129.09
18458,52.366142,-1.236117,173.66,10.68,4,93.66,15 / 15,1877121,2019-09-04 19:52:37:294,0.1641,0.1035,9.4889,-0.0005,0.0092,9.8066,-0.0122,0.0338,0.0256,-23.25,-28.44,5.75,330.47,-83.06,-129.93
18459,52.366142,-1.236117,173.66,10.68,4,93.66,15 / 15,1877221,2019-09-04 19:52:37:394,-0.0037,0.7123,10.2123,0.0032,0.0054,9.8066,0.0038,0.0463,0.0099,-23.06,-28.31,6.31,330.83,-83.14,-129.67
18460,52.366142,-1.236117,173.66,10.68,4,93.66,16 / 16,1877320,2019-09-04 19:52:37:493,-0.5169,0.2199,9.8983,0.0002,0.0059,9.8066,0.0216,-0.0383,-0.0848,-23.12,-28.62,6.75,332.76,-83.19,-130.24
18461,52.366142,-1.236117,173.66,10.68,4,93.66,16 / 16,1877421,2019-09-04 19:52:37:594,-2.7108,0.6265,8.8035,0.0169,0.0064,9.8066,0.0489,-0.0653,-0.1009,-22.5,-29.06,6.25,328.06,-83.22,-132.45
18462,52.366142,-1.236117,173.66,10.68,4,93.66,16 / 16,1877521,2019-09-04 19:52:37:694,-0.1328,0.1587,10.3081,0.02,0.0196,9.8066,0.0192,0.0228,-0.0264,-22.94,-28.94,6.06,324.97,-83.24,-134.73
18463,52.366142,-1.236117,173.66,10.68,4,93.66,16 / 16,1877620,2019-09-04 19:52:37:793,-0.1435,0.5013,9.7948,0.0012,0.0087,9.8066,-0.032,-0.0045,-0.0227,-22.19,-29.0,6.5,325.58,-83.32,-137.14
18464,52.366142,-1.236117,173.66,10.68,4,93.66,16 / 16,1877721,2019-09-04 19:52:37:894,-0.6226,0.2054,9.1051,-0.0086,0.0115,9.8066,-0.0383,0.0223,0.003,-22.5,-29.5,6.13,322.92,-83.53,-137.19
18465,52.366142,-1.236117,173.66,10.68,4,93.66,16 / 16,1877821,2019-09-04 19:52:37:994,0.0438,0.4513,10.0911,-0.0055,0.0005,9.8066,-0.0177,0.0298,0.0293,-22.25,-29.37,5.81,323.51,-83.66,-136.78
18466,52.366142,-1.236117,173.66,10.68,4,93.66,16 / 16,1877921,2019-09-04 19:52:38:094,-0.3348,0.4725,8.8117,-0.0033,0.002,9.8066,-0.0122,-0.0026,0.0057,-22.56,-29.5,6.38,323.72,-83.72,-136.2
18467,52.366142,-1.236117,173.66,10.68,4,93.66,16 / 16,1878021,2019-09-04 19:52:38:194,-0.5286,0.3941,9.9116,0.0013,-0.0015,9.8066,0.01,0.0038,0.0062,-22.62,-29.12,6.25,324.14,-83.71,-135.81
18468,52.366142,-1.236117,173.66,10.68,4,93.66,16 / 16,1878121,2019-09-04 19:52:38:294,-0.555,0.5297,9.3313,0.0013,-0.0085,9.8066,-0.0101,0.0177,0.0578,-21.81,-29.25,6.56,327.33,-83.68,-135.87
18469,52.366142,-1.236117,173.66,10.68,4,93.66,16 / 16,1878220,2019-09-04 19:52:38:393,-0.5791,0.2937,10.0647,-0.007,-0.0096,9.8066,-0.0379,-0.0082,0.0335,-22.19,-29.06,6.56,328.5,-83.57,-134.77
18470,52.366142,-1.236117,173.66,10.68,4,93.66,15 / 15,1878320,2019-09-04 19:52:38:493,-0.3879,0.1744,9.4163,-0.016,-0.0126,9.8066,-0.0153,-0.0233,-0.0041,-22.81,-28.69,6.38,328.82,-83.51,-131.54
18471,52.366142,-1.236117,173.66,10.68,4,93.66,15 / 15,1878421,2019-09-04 19:52:38:594,-0.3697,-0.343,10.6018,0.0089,-0.0036,9.8066,0.0464,0.0066,0.0063,-22.56,-28.37,6.63,333.26,-83.42,-130.07
18472,52.366142,-1.236117,173.66,10.68,4,93.66,15 / 15,1878521,2019-09-04 19:52:38:694,-1.1365,0.6748,10.0244,0.0112,0.0015,9.8065,0.0394,0.0225,0.0195,-22.81,-28.44,6.88,331.43,-83.32,-131.61
18473,52.366142,-1.236117,173.66,10.68,4,93.66,15 / 15,1878621,2019-09-04 19:52:38:794,-0.2128,0.4783,10.2285,0.0024,0.0065,9.8066,0.0027,-0.0183,-0.0265,-23.37,-28.56,6.56,330.36,-83.28,-132.39
18474,52.366142,-1.236117,173.66,10.68,4,93.66,15 / 15,1878721,2019-09-04 19:52:38:894,-0.559,0.1148,9.4256,-0.0036,0.0073,9.8066,-0.0161,-0.0096,-0.0306,-23.62,-28.12,5.75,327.01,-83.35,-132.75
18475,52.366142,-1.236117,173.66,10.68,4,93.66,15 / 15,1878820,2019-09-04 19:52:38:993,-0.7934,0.5133,9.6234,-0.0064,0.007,9.8066,-0.0024,0.0197,-0.0139,-23.19,-28.56,6.13,327.46,-83.5,-132.72
18476,52.366142,-1.236117,173.66,10.68,4,93.66,15 / 15,1878920,2019-09-04 19:52:39:093,-1.0589,0.3689,9.6158,0.0056,0.0079,9.8066,0.0306,0.0049,-0.0057,-22.56,-28.56,6.38,326.56,-83.56,-133.56
18477,52.366142,-1.236117,173.66,10.68,4,93.66,15 / 15,1879020,2019-09-04 19:52:39:193,-0.3083,0.7219,9.4645,0.0114,0.0106,9.8066,0.0148,-0.0104,-0.0316,-23.0,-28.94,6.19,324.96,-83.56,-134.97
18478,52.366142,-1.236117,173.66,10.68,4,93.66,15 / 15,1879120,2019-09-04 19:52:39:293,-0.8272,0.2934,9.2647,-0.0047,0.0085,9.8066,-0.0358,0.0112,-0.0135,-23.44,-29.37,6.13,324.25,-83.63,-135.65
18479,52.366142,-1.236117,173.66,10.68,4,93.66,15 / 15,1879220,2019-09-04 19:52:39:393,-0.7853,0.3091,9.7422,-0.0109,0.0023,9.8066,-0.0193,0.0087,0.0035,-22.25,-29.81,5.81,324.86,-83.81,-135.54
18480,52.366142,-1.236117,173.66,10.68,4,93.66,16 / 16,1879320,2019-09-04 19:52:39:493,-0.6799,0.5803,10.2762,-0.0049,0.0004,9.8066,0.0092,-0.0018,-0.0055,-22.62,-29.0,6.25,325.32,-83.89,-134.9
18481,52.366142,-1.236117,173.66,10.68,4,93.66,16 / 16,1879421,2019-09-04 19:52:39:594,-0.5511,0.46,9.7445,0.0066,-0.0032,9.8066,0.0201,-0.0033,-0.0002,-23.0,-29.44,5.88,325.29,-83.91,-134.94
18482,52.366142,-1.236117,173.66,10.68,4,93.66,16 / 16,1879521,2019-09-04 19:52:39:694,-0.5788,0.2974,9.9994,0.0039,-0.0035,9.8066,0.0125,0.0086,-0.0024,-22.75,-29.06,6.44,324.81,-83.79,-135.29
18483,52.366142,-1.236117,173.66,10.68,4,93.66,16 / 16,1879620,2019-09-04 19:52:39:793,-0.5957,0.3522,9.7909,0.0,-0.0034,9.8066,-0.0054,0.028,0.0376,-22.69,-29.25,6.13,324.74,-83.76,-135.33
18484,52.366142,-1.236117,173.66,10.68,4,93.66,16 / 16,1879720,2019-09-04 19:52:39:893,-0.2215,0.3347,9.6857,-0.0074,-0.01,9.8066,-0.0091,-0.0014,0.035,-22.25,-29.06,5.69,326.21,-83.73,-134.45
18485,52.366142,-1.236117,173.66,10.68,4,93.66,16 / 16,1879821,2019-09-04 19:52:39:994,-0.7292,0.2839,9.1618,-0.0086,-0.0096,9.8066,-0.0018,-0.027,0.0044,-23.0,-29.06,6.19,326.92,-83.69,-133.33
18486,52.366142,-1.236117,173.66,10.68,4,93.66,16 / 16,1879921,2019-09-04 19:52:40:094,-0.9835,0.6883,9.7948,-0.006,-0.0085,9.8066,-0.0113,-0.0076,0.0295,-22.87,-28.87,6.31,327.92,-83.67,-132.44
18487,52.366142,-1.236117,173.66,10.68,4,93.66,16 / 16,1880021,2019-09-04 19:52:40:194,-0.6972,0.1409,9.7072,-0.026,-0.0327,9.8065,-0.0097,0.0086,0.044,-22.69,-29.06,6.19,328.25,-83.66,-132.14
18488,52.366142,-1.236117,173.66,10.68,4,93.66,16 / 16,1880120,2019-09-04 19:52:40:293,-0.7391,0.557,10.466,-0.0032,-0.0121,9.8066,0.0004,-0.0075,0.0284,-22.87,-28.62,6.0,331.01,-83.51,-129.62
18489,52.366142,-1.236117,173.66,10.68,4,93.66,16 / 16,1880220,2019-09-04 19:52:40:393,-0.7304,0.1564,10.2372,0.0039,-0.0121,9.8066,0.0171,0.0084,0.0267,-23.56,-28.69,6.38,331.6,-83.32,-128.54
18490,52.366142,-1.236117,173.66,10.68,4,93.66,15 / 15,1880321,2019-09-04 19:52:40:494,-0.4279,-0.0288,9.7035,0.0027,-0.0097,9.8066,0.018,-0.0177,0.0131,-23.5,-28.56,6.19,332.06,-83.14,-128.47
18491,52.366142,-1.236117,173.66,10.68,4,93.66,15 / 15,1880420,2019-09-04 19:52:40:593,-0.9061,-0.4061,9.9023,0.0107,0.005,9.8066,-0.0009,0.0198,-0.0035,-23.12,-28.69,7.0,334.67,-83.05,-128.51
18492,52.366142,-1.236117,173.66,10.68,4,93.66,15 / 15,1880520,2019-09-04 19:52:40:693,-0.3644,0.365,9.0913,0.001,0.0021,9.8066,0.0,-0.0079,-0.0057,-23.5,-28.0,6.19,331.15,-83.08,-129.36
18493,52.366142,-1.236117,173.66,10.68,4,93.66,15 / 15,1880620,2019-09-04 19:52:40:793,-0.685,0.4736,10.2392,-0.0052,0.0019,9.8066,-0.0343,0.0121,0.0123,-22.94,-27.94,6.06,331.43,-83.11,-129.13
18494,52.366142,-1.236117,173.66,10.68,4,93.66,15 / 15,1880721,2019-09-04 19:52:40:894,-0.8874,0.44,9.8096,-0.0106,0.0038,9.8066,-0.0154,0.0322,0.0145,-23.19,-28.56,6.0,333.5,-83.2,-127.26
18495,52.366142,-1.236117,173.66,10.68,4,93.66,15 / 15,1880820,2019-09-04 19:52:40:993,-0.8998,0.512,9.9236,0.0006,0.0045,9.8066,0.0047,0.0121,-0.005,-22.94,-28.31,5.75,334.07,-83.21,-126.89
18496,52.366142,-1.236117,173.66,10.68,4,93.66,15 / 15,1880920,2019-09-04 19:52:41:093,-0.5146,0.1314,9.9417,-0.0003,0.0059,9.8066,-0.0076,0.0346,0.0201,-23.37,-28.69,5.38,330.87,-83.26,-127.18
18497,52.366142,-1.236117,173.66,10.68,4,93.66,15 / 15,1881021,2019-09-04 19:52:41:194,-0.3597,0.5787,9.0175,-0.0029,0.0046,9.8066,0.0,-0.0065,-0.0196,-23.44,-29.25,5.31,330.99,-83.32,-127.12
18498,52.366142,-1.236117,173.66,10.68,4,93.66,15 / 15,1881121,2019-09-04 19:52:41:294,-0.6779,0.9454,8.8561,0.0018,0.0126,9.8066,-0.0122,0.024,-0.0043,-22.94,-29.12,5.75,334.08,-83.33,-126.84
18499,52.366142,-1.236117,173.66,10.68,4,93.66,15 / 15,1881221,2019-09-04 19:52:41:394,-1.0651,0.1055,10.0523,-0.0061,0.004,9.8066,-0.0104,0.005,0.0112,-23.25,-29.25,6.06,334.31,-83.46,-126.71
18500,52.366142,-1.236117,173.66,10.68,4,93.66,14 / 15,1881320,2019-09-04 19:52:41:493,-0.5735,0.9967,10.9498,0.0055,0.0087,9.8066,0.0236,-0.0295,-0.0567,-22.94,-29.5,6.19,334.12,-83.54,-126.92
18501,52.366142,-1.236117,173.66,10.68,4,93.66,14 / 15,1881421,2019-09-04 19:52:41:594,-0.3539,0.0691,9.2822,0.0138,-0.0075,9.8066,0.0104,0.0373,0.0557,-22.25,-28.75,6.0,332.13,-83.49,-129.11
18502,52.366142,-1.236117,173.66,10.68,4,93.66,14 / 15,1881520,2019-09-04 19:52:41:693,-0.3174,-0.7804,9.7216,-0.003,-0.0085,9.8066,-0.0012,-0.0204,-0.0251,-22.69,-28.87,5.88,331.12,-83.36,-129.43
18503,52.366142,-1.236117,173.66,10.68,4,93.66,14 / 15,1881620,2019-09-04 19:52:41:793,-0.5485,0.1775,9.534,-0.0117,-0.0007,9.8066,-0.0322,0.0013,0.0332,-22.44,-28.75,5.5,333.33,-83.39,-128.0
18504,52.366142,-1.236117,173.66,10.68,4,93.66,14 / 15,1881720,2019-09-04 19:52:41:893,-1.2311,-0.0238,9.3822,-0.0068,-0.0089,9.8066,0.0113,-0.0374,-0.0344,-22.94,-29.12,6.06,334.51,-83.41,-126.51
18505,52.366142,-1.236117,173.66,10.68,4,93.66,14 / 15,1881821,2019-09-04 19:52:41:994,-1.2497,0.3607,9.4003,0.0146,-0.0029,9.8066,0.0289,-0.0273,-0.0572,-23.25,-28.5,6.06,333.48,-83.36,-127.5
18506,52.366142,-1.236117,173.66,10.68,4,93.66,14 / 15,1881921,2019-09-04 19:52:42:094,-0.3427,-0.7727,9.5176,-0.001,0.0096,9.8066,-0.0025,-0.0171,-0.0285,-23.12,-28.75,6.06,332.19,-83.36,-128.49
18507,52.366142,-1.236117,173.66,10.68,4,93.66,14 / 15,1882020,2019-09-04 19:52:42:193,-0.4243,0.4477,9.0018,-0.0096,0.0032,9.8066,-0.0125,-0.0527,-0.0614,-22.87,-28.81,6.38,332.12,-83.49,-128.63
18508,52.366142,-1.236117,173.66,10.68,4,93.66,14 / 15,1882120,2019-09-04 19:52:42:293,-0.7735,0.8754,9.9569,-0.0123,0.0065,9.8066,-0.0334,0.0106,0.0129,-22.81,-28.56,6.44,332.96,-83.59,-127.96
18509,52.366142,-1.236117,173.66,10.68,4,93.66,14 / 15,1882221,2019-09-04 19:52:42:394,-1.1065,0.8317,9.48,-0.0063,0.0045,9.8066,-0.0002,0.0071,0.0106,-23.0,-29.06,6.31,334.32,-83.75,-126.86
18510,52.366116,-1.234346,170.81,13.58,4,91.91,14 / 15,1882321,2019-09-04 19:52:42:494,-0.572,-0.0647,10.283,0.0059,-0.0113,9.8066,0.0155,-0.001,0.0062,-22.94,-28.69,5.81,334.8,-83.75,-126.44
18511,52.366116,-1.234346,170.81,13.58,4,91.91,14 / 15,1882421,2019-09-04 19:52:42:594,-0.0817,0.8461,8.8108,-0.0001,-0.0084,9.8066,-0.0121,0.0061,0.0311,-23.31,-28.25,5.88,334.83,-83.64,-126.47
18512,52.366116,-1.234346,170.81,13.58,4,91.91,14 / 15,1882520,2019-09-04 19:52:42:693,-0.7168,0.5961,9.4107,-0.0164,-0.0135,9.8066,-0.0487,-0.0169,0.0374,-23.5,-28.44,6.25,337.07,-83.51,-124.44
18513,52.366116,-1.234346,170.81,13.58,4,91.91,14 / 15,1882620,2019-09-04 19:52:42:793,-1.4856,0.6413,10.0124,-0.0193,-0.023,9.8065,-0.008,-0.0279,0.0598,-23.06,-28.19,5.88,341.45,-83.44,-120.6
18514,52.366116,-1.234346,170.81,13.58,4,91.91,14 / 15,1882721,2019-09-04 19:52:42:894,-1.0332,0.701,9.6588,0.0113,-0.0297,9.8066,0.0622,-0.0511,0.0336,-23.37,-28.06,5.75,342.32,-83.12,-119.73
18515,52.366116,-1.234346,170.81,13.58,4,91.91,14 / 15,1882820,2019-09-04 19:52:42:993,-0.6795,-1.1454,12.3449,0.0197,-0.013,9.8065,0.0787,-0.0022,0.0038,-23.62,-27.5,6.44,340.31,-82.67,-120.88
18516,52.366116,-1.234346,170.81,13.58,4,91.91,14 / 15,1882920,2019-09-04 19:52:43:093,-1.3591,-0.8127,9.6153,0.0316,0.0058,9.8066,0.0655,0.0224,-0.0141,-23.69,-27.81,6.13,337.09,-82.57,-123.5
18517,52.366116,-1.234346,170.81,13.58,4,91.91,14 / 15,1883021,2019-09-04 19:52:43:194,0.2828,-0.9976,10.5658,0.0153,0.0233,9.8065,0.0035,-0.039,-0.1061,-23.25,-27.69,6.38,334.92,-82.49,-125.76
18518,52.366116,-1.234346,170.81,13.58,4,91.91,14 / 15,1883121,2019-09-04 19:52:43:294,-0.3821,1.0045,10.33,-0.0167,0.0225,9.8066,-0.0752,0.0407,0.015,-22.69,-28.12,5.94,333.71,-82.85,-127.0
18519,52.366116,-1.234346,170.81,13.58,4,91.91,14 / 15,1883220,2019-09-04 19:52:43:393,-1.2478,1.3206,8.9121,-0.027,0.0069,9.8065,-0.069,0.0691,0.0897,-23.06,-28.0,6.38,336.31,-83.25,-124.97
18520,52.366116,-1.234346,170.81,13.58,4,91.91,14 / 16,1883320,2019-09-04 19:52:43:493,-1.3673,0.4004,10.3386,0.0009,0.004,9.8066,0.0203,0.0234,0.0263,-22.19,-28.0,6.31,338.97,-83.3,-123.21
18521,52.366116,-1.234346,170.81,13.58,4,91.91,14 / 16,1883420,2019-09-04 19:52:43:593,-0.6327,0.0612,10.2329,0.0158,-0.011,9.8066,0.0707,0.0067,0.0242,-23.44,-28.19,6.44,337.03,-83.2,-124.32
18522,52.366116,-1.234346,170.81,13.58,4,91.91,14 / 16,1883520,2019-09-04 19:52:43:693,-0.6829,-0.0776,9.5389,0.0101,-0.0031,9.8066,0.0076,0.0204,0.0328,-23.69,-28.5,6.13,334.78,-83.02,-125.73
18523,52.366116,-1.234346,170.81,13.58,4,91.91,14 / 16,1883621,2019-09-04 19:52:43:794,-0.8708,0.1242,10.116,0.0,0.0115,9.8066,-0.0088,0.0031,-0.0243,-23.12,-28.5,6.75,337.87,-82.93,-125.81
18524,52.366116,-1.234346,170.81,13.58,4,91.91,14 / 16,1883721,2019-09-04 19:52:43:894,-1.8167,1.2841,8.6575,-0.0107,0.0019,9.8066,-0.044,0.0352,0.0277,-23.62,-27.87,6.06,334.57,-83.14,-125.97
18525,52.366116,-1.234346,170.81,13.58,4,91.91,14 / 16,1883820,2019-09-04 19:52:43:993,-0.9147,0.595,9.8895,-0.0129,0.0007,9.8066,-0.0306,-0.008,-0.0359,-23.75,-28.06,5.88,336.18,-83.29,-124.64
18526,52.366116,-1.234346,170.81,13.58,4,91.91,14 / 16,1883920,2019-09-04 19:52:44:093,-1.5756,1.5801,10.0514,0.0009,-0.002,9.8066,0.0043,-0.0586,-0.0888,-23.62,-27.5,6.56,339.43,-83.44,-124.22
18527,52.366116,-1.234346,170.81,13.58,4,91.91,14 / 16,1884021,2019-09-04 19:52:44:194,-0.8649,1.2001,9.0901,0.0008,0.0121,9.8065,0.0046,-0.0298,-0.0494,-23.0,-28.5,5.94,337.18,-83.48,-124.33
18528,52.366116,-1.234346,170.81,13.58,4,91.91,14 / 16,1884121,2019-09-04 19:52:44:294,-0.1261,0.1657,10.2186,-0.0009,0.0066,9.8066,0.0019,0.0449,0.0165,-22.81,-28.62,6.06,336.98,-83.58,-124.44
18529,52.366116,-1.234346,170.81,13.58,4,91.91,15 / 15,1884220,2019-09-04 19:52:44:393,-0.5438,1.4307,9.7026,-0.0013,0.003,9.8066,0.0049,0.0271,0.0349,-22.81,-29.06,6.56,339.39,-83.65,-124.73
18530,52.366116,-1.234346,170.81,13.58,4,91.91,15 / 15,1884321,2019-09-04 19:52:44:494,-1.357,1.7208,9.532,-0.0025,-0.0064,9.8066,-0.0035,0.0391,0.0521,-23.19,-29.06,5.94,336.09,-83.68,-125.28
18531,52.366116,-1.234346,170.81,13.58,4,91.91,15 / 15,1884420,2019-09-04 19:52:44:593,-1.9591,0.4897,9.4236,-0.0166,-0.0255,9.8066,0.0067,-0.0434,0.0014,-23.12,-28.5,6.31,336.81,-83.62,-124.72
18532,52.366116,-1.234346,170.81,13.58,4,91.91,15 / 15,1884520,2019-09-04 19:52:44:693,-1.0937,0.3321,10.3783,-0.0044,-0.0015,9.8066,-0.0103,-0.0041,-0.0049,-23.69,-28.31,6.56,341.95,-83.45,-121.93
18533,52.366116,-1.234346,170.81,13.58,4,91.91,15 / 15,1884620,2019-09-04 19:52:44:793,-0.896,0.1508,10.7473,0.0096,0.012,9.8066,0.0326,0.0285,-0.0315,-23.69,-27.69,6.38,338.98,-83.54,-122.32
18534,52.366116,-1.234346,170.81,13.58,4,91.91,15 / 15,1884720,2019-09-04 19:52:44:893,-1.0149,0.6255,9.0033,0.0273,0.0134,9.8065,0.0438,0.0275,-0.0241,-23.75,-28.12,6.5,338.46,-83.6,-125.05
18535,52.366116,-1.234346,170.81,13.58,4,91.91,15 / 15,1884820,2019-09-04 19:52:44:993,-0.4173,0.0658,9.0745,-0.0007,0.013,9.8066,-0.0346,0.0334,0.0016,-23.75,-27.56,5.75,333.09,-83.71,-127.58
18536,52.366116,-1.234346,170.81,13.58,4,91.91,15 / 15,1884920,2019-09-04 19:52:45:093,-1.3601,0.8905,9.685,-0.0222,0.0101,9.8066,-0.051,-0.0256,-0.0253,-23.75,-28.0,6.06,334.56,-83.92,-126.4
18537,52.366116,-1.234346,170.81,13.58,4,91.91,15 / 15,1885020,2019-09-04 19:52:45:193,-1.7817,0.4673,9.1622,-0.0149,-0.0014,9.8066,-0.0127,-0.0098,-0.0024,-23.37,-28.87,5.44,334.44,-84.09,-124.57
18538,52.366116,-1.234346,170.81,13.58,4,91.91,15 / 15,1885120,2019-09-04 19:52:45:293,-1.5256,0.4517,9.1745,-0.0034,-0.0152,9.8066,0.0051,0.0396,0.0766,-23.25,-28.62,6.13,339.09,-84.08,-122.86
18539,52.366116,-1.234346,170.81,13.58,4,91.91,15 / 15,1885220,2019-09-04 19:52:45:393,-0.8791,2.0186,8.6784,-0.0048,-0.0192,9.8066,-0.0136,0.0943,0.1283,-23.44,-28.56,5.69,340.66,-83.81,-121.36
18540,52.366116,-1.234346,170.81,13.58,4,91.91,15 / 15,1885321,2019-09-04 19:52:45:494,-2.3607,-0.3387,10.9449,-0.0112,-0.0265,9.8065,-0.0179,0.0728,0.0855,-23.75,-28.06,5.44,340.49,-83.48,-118.68
18541,52.366116,-1.234346,170.81,13.58,4,91.91,15 / 15,1885421,2019-09-04 19:52:45:594,-1.9055,1.4627,10.6061,0.0084,0.0036,9.8066,0.0394,0.0677,0.0219,-23.69,-28.0,5.94,344.2,-83.32,-117.68
18542,52.366116,-1.234346,170.81,13.58,4,91.91,15 / 15,1885520,2019-09-04 19:52:45:693,-2.2692,0.1934,7.9823,0.0355,-0.0017,9.8065,0.0884,0.0309,-0.0262,-23.5,-27.62,6.13,341.8,-83.1,-120.16
18543,52.366116,-1.234346,170.81,13.58,4,91.91,15 / 15,1885621,2019-09-04 19:52:45:794,-1.4841,1.072,9.1446,0.01,0.0242,9.8066,-0.0019,0.0645,-0.0524,-23.44,-28.31,6.38,338.36,-83.0,-123.07
18544,52.366116,-1.234346,170.81,13.58,4,91.91,15 / 15,1885721,2019-09-04 19:52:45:894,-1.3543,1.37,9.4613,-0.0156,0.0273,9.8065,-0.0545,0.0235,-0.0584,-23.37,-29.19,6.0,336.6,-83.48,-124.73
18545,52.366116,-1.234346,170.81,13.58,4,91.91,15 / 15,1885820,2019-09-04 19:52:45:993,-1.4583,0.9247,9.5629,-0.0104,0.0177,9.8065,-0.0278,0.0398,-0.0038,-23.31,-28.69,6.56,340.21,-83.96,-124.16
18546,52.366116,-1.234346,170.81,13.58,4,91.91,15 / 15,1885920,2019-09-04 19:52:46:093,-1.7465,0.7365,9.8766,-0.0074,0.0025,9.8066,0.0223,0.0168,-0.0459,-23.56,-28.75,5.81,337.61,-84.07,-123.67
18547,52.366116,-1.234346,170.81,13.58,4,91.91,15 / 15,1886020,2019-09-04 19:52:46:193,-2.246,0.4318,9.97,0.0098,0.0105,9.8066,0.0206,0.0267,-0.0054,-22.25,-27.56,5.13,334.14,-84.21,-125.42
18548,52.366116,-1.234346,170.81,13.58,4,91.91,15 / 15,1886120,2019-09-04 19:52:46:293,-1.0517,1.0596,9.5297,0.0157,0.0132,9.8066,0.0248,0.0408,-0.0104,-22.44,-27.81,5.69,335.06,-84.23,-127.1
18549,52.366116,-1.234346,170.81,13.58,4,91.91,15 / 15,1886221,2019-09-04 19:52:46:394,-1.5847,0.3219,9.8289,0.002,0.0082,9.8066,0.003,0.0203,-0.0239,-23.06,-28.62,5.69,332.18,-84.34,-129.1
18550,52.366116,-1.234346,170.81,13.58,4,91.91,15 / 16,1886321,2019-09-04 19:52:46:494,-1.9755,0.3901,9.6031,-0.0067,0.011,9.8066,-0.0076,-0.0327,-0.0572,-22.25,-29.44,6.19,332.01,-84.44,-129.81
18551,52.366116,-1.234346,170.81,13.58,4,91.91,15 / 16,1886420,2019-09-04 19:52:46:593,-1.788,0.8106,9.1679,-0.0038,0.011,9.8066,-0.0091,-0.021,-0.0191,-23.12,-29.12,6.0,331.37,-84.65,-130.02
18552,52.366116,-1.234346,170.81,13.58,4,91.91,15 / 16,1886521,2019-09-04 19:52:46:694,-1.8044,0.1681,9.4715,-0.0102,-0.0006,9.8066,-0.0411,0.0111,0.05,-22.06,-29.62,6.5,335.71,-84.71,-129.02
