,GPS LATITUDE (degrees),GPS LONGITUDE (degrees), GPS ALTITUDE (m),GPS SPEED (Kmh),GPS ACCURACY (m),GPS ORIENTATION (Â°), SATELLITES IN RANGE, TIME SINCE START (ms), DATE (YYYY-MO-DD HH-MI-SS_SSS),ACCELEROMETER X (m/s²) , ACCELEROMETER Y (m/s²), ACCELEROMETER Z (m/s²), GRAVITY X (m/s²), GRAVITY Y (m/s²), GRAVITY Z (m/s²), GYROSCOPE Yaw (rad/s), GYROSCOPE Pitch (rad/s), GYROSCOPE Roll (rad/s)
44732,46.955254,-1.35582,91.65,34.69,3.216,166.8,16 / 19,4473210,2019-08-09 21:28:41:948,-0.7373,-0.1765,9.7638,-0.7059,-0.199,9.7792,-0.0114,-0.0027,-0.0049
44733,46.955254,-1.35582,91.65,34.69,3.216,166.8,16 / 19,4473310,2019-08-09 21:28:42:048,0.1372,-0.3327,9.4149,-0.6801,-0.2116,9.7808,-0.0011,0.0139,0.0052
44734,46.955254,-1.35582,91.65,34.69,3.216,166.8,16 / 19,4473410,2019-08-09 21:28:42:148,-0.0387,-0.3704,9.5232,-0.6915,-0.2071,9.78,0.0098,-0.0179,-0.0061
44735,46.955254,-1.35582,91.65,34.69,3.216,166.8,16 / 19,4473510,2019-08-09 21:28:42:248,0.0277,0.1737,9.6202,-0.6792,-0.1969,9.7811,0.0037,-0.0206,-0.0059
44736,46.955254,-1.35582,91.65,34.69,3.216,166.8,16 / 20,4473610,2019-08-09 21:28:42:348,-1.9613,-0.0448,9.8889,-0.6817,-0.198,9.7809,-0.0073,-0.0063,0.0003
44737,46.955254,-1.35582,91.65,34.69,3.216,166.8,16 / 20,4473710,2019-08-09 21:28:42:448,-1.4094,-0.0819,9.7129,-0.6721,-0.1883,9.7818,0.0163,-0.0146,-0.0276
44738,46.955254,-1.35582,91.65,34.69,3.216,166.8,16 / 20,4473810,2019-08-09 21:28:42:548,-1.2658,0.1563,10.1002,-0.6819,-0.175,9.7813,-0.0005,-0.0007,-0.0087
44739,46.955254,-1.35582,91.65,34.69,3.216,166.8,16 / 20,4473911,2019-08-09 21:28:42:649,-0.3003,-0.0879,9.7626,-0.6804,-0.1641,9.7816,0.004,-0.0149,-0.0034
44740,46.955254,-1.35582,91.65,34.69,3.216,166.8,16 / 20,4474011,2019-08-09 21:28:42:749,-0.0525,0.1641,9.9464,-0.6761,-0.16,9.782,-0.0021,0.0183,-0.0219
44741,46.955254,-1.35582,91.65,34.69,3.216,166.8,16 / 20,4474111,2019-08-09 21:28:42:849,0.1528,-0.031,9.8859,-0.6913,-0.1516,9.7811,-0.0064,-0.0046,0.0015
44742,46.955254,-1.35582,91.65,34.69,3.216,166.8,16 / 20,4474210,2019-08-09 21:28:42:948,-1.2993,-0.3183,9.4418,-0.6895,-0.1531,9.7812,-0.0064,-0.0046,0.0015
44743,46.955254,-1.35582,91.65,34.69,3.216,166.8,16 / 20,4474310,2019-08-09 21:28:43:048,-1.0928,-0.4578,9.1641,-0.6721,-0.1581,9.7823,0.0014,-0.0279,0.0221
44744,46.955254,-1.35582,91.65,34.69,3.216,166.8,16 / 20,4474411,2019-08-09 21:28:43:149,-0.6056,-0.0968,9.789,-0.6798,-0.1578,9.7818,-0.003,0.0029,0.0058
44745,46.955254,-1.35582,91.65,34.69,3.216,166.8,16 / 20,4474511,2019-08-09 21:28:43:249,-0.4972,-0.3494,9.3957,-0.6681,-0.1662,9.7825,-0.0074,-0.019,0.0064
44746,46.955254,-1.35582,91.65,34.69,3.216,166.8,17 / 21,4474610,2019-08-09 21:28:43:348,-0.1782,-0.3973,9.1389,-0.6522,-0.1753,9.7834,-0.0084,0.0122,-0.0055
44747,46.955254,-1.35582,91.65,34.69,3.216,166.8,17 / 21,4474710,2019-08-09 21:28:43:448,-0.6511,-0.0603,10.5922,-0.6954,-0.1844,9.7802,-0.0003,0.0162,0.017
44748,46.955254,-1.35582,91.65,34.69,3.216,166.8,17 / 21,4474811,2019-08-09 21:28:43:549,-0.9875,-0.3363,10.0667,-0.6992,-0.1841,9.78,0.0078,-0.0201,0.0061
44749,46.955254,-1.35582,91.65,34.69,3.216,166.8,17 / 21,4474911,2019-08-09 21:28:43:649,-0.6014,-0.1657,9.5992,-0.6818,-0.167,9.7815,0.021,-0.0146,-0.0122
44750,46.955254,-1.35582,91.65,34.69,3.216,166.8,17 / 21,4475010,2019-08-09 21:28:43:748,-1.2502,0.1851,10.2044,-0.6803,-0.1551,9.7818,-0.0197,-0.0165,0.0019
44751,46.955254,-1.35582,91.65,34.69,3.216,166.8,17 / 21,4475110,2019-08-09 21:28:43:848,0.0301,-0.1358,9.7602,-0.6866,-0.1645,9.7812,-0.014,-0.0182,0.0201
44752,46.955254,-1.35582,91.65,34.69,3.216,166.8,17 / 21,4475211,2019-08-09 21:28:43:949,0.3767,-0.1597,9.1916,-0.676,-0.1716,9.7818,-0.0024,-0.0312,-0.0036
44753,46.955254,-1.35582,91.65,34.69,3.216,166.8,17 / 21,4475310,2019-08-09 21:28:44:048,0.3156,-0.1441,10.5084,-0.6707,-0.1736,9.7821,-0.0041,0.0448,0.0001
44754,46.955254,-1.35582,91.65,34.69,3.216,166.8,17 / 21,4475410,2019-08-09 21:28:44:148,-1.1317,-0.5128,9.4723,-0.6682,-0.1806,9.7822,-0.0164,-0.0542,0.0204
44755,46.955254,-1.35582,91.65,34.69,3.216,166.8,17 / 21,4475510,2019-08-09 21:28:44:248,-1.4837,-0.7846,8.7786,-0.6345,-0.2,9.7841,0.0002,-0.0451,0.0122
44756,46.955254,-1.35582,91.65,34.69,3.216,166.8,17 / 19,4475610,2019-08-09 21:28:44:348,-1.0671,-0.5571,9.8734,-0.6515,-0.2061,9.7828,-0.0019,0.0371,0.0102
44757,46.955254,-1.35582,91.65,34.69,3.216,166.8,17 / 19,4475710,2019-08-09 21:28:44:448,-0.3979,-0.2644,10.597,-0.6651,-0.2182,9.7816,-0.0097,0.0321,0.0074
44758,46.955254,-1.35582,91.65,34.69,3.216,166.8,17 / 19,4475810,2019-08-09 21:28:44:548,-0.6068,-0.5488,9.6459,-0.6699,-0.2221,9.7812,0.0185,-0.0238,-0.0018
44759,46.955254,-1.35582,91.65,34.69,3.216,166.8,17 / 19,4475910,2019-08-09 21:28:44:648,-0.3003,0.0061,9.2257,-0.6634,-0.2048,9.782,0.0255,-0.0037,-0.0116
44760,46.955254,-1.35582,91.65,34.69,3.216,166.8,17 / 19,4476010,2019-08-09 21:28:44:748,-0.7438,-0.0609,9.6004,-0.6594,-0.1918,9.7826,0.0139,-0.002,-0.0154
44761,46.955254,-1.35582,91.65,34.69,3.216,166.8,17 / 19,4476110,2019-08-09 21:28:44:848,-0.4296,-0.2088,9.531,-0.6422,-0.1876,9.7838,-0.0051,-0.0054,0.0053
44762,46.955254,-1.35582,91.65,34.69,3.216,166.8,17 / 19,4476210,2019-08-09 21:28:44:948,-0.6804,-0.0544,9.4346,-0.6649,-0.1871,9.7823,0.0049,-0.0066,0.0036
44763,46.955254,-1.35582,91.65,34.69,3.216,166.8,17 / 19,4476310,2019-08-09 21:28:45:048,-0.1231,0.0498,10.202,-0.6487,-0.1814,9.7835,0.0043,-0.0225,0.004
44764,46.955254,-1.35582,91.65,34.69,3.216,166.8,17 / 19,4476411,2019-08-09 21:28:45:149,-0.7223,-0.1663,9.8602,-0.664,-0.1797,9.7825,0.0043,0.0082,-0.0094
44765,46.955254,-1.35582,91.65,34.69,3.216,166.8,17 / 19,4476510,2019-08-09 21:28:45:248,-0.9043,0.1887,10.0733,-0.6707,-0.1822,9.782,-0.0203,-0.0289,0.0172
44766,46.955254,-1.35582,91.65,34.69,3.216,166.8,16 / 20,4476610,2019-08-09 21:28:45:348,-0.8582,-0.5134,9.5974,-0.6647,-0.1885,9.7823,-0.0062,0.0082,-0.0066
44767,46.955254,-1.35582,91.65,34.69,3.216,166.8,16 / 20,4476710,2019-08-09 21:28:45:448,-0.1429,0.1917,10.1272,-0.6505,-0.1879,9.7832,0.0147,0.0127,-0.0026
44768,46.955254,-1.35582,91.65,34.69,3.216,166.8,16 / 20,4476810,2019-08-09 21:28:45:548,1.1655,0.2359,10.6628,-0.6945,-0.1818,9.7803,-0.0095,0.011,-0.0149
44769,46.955254,-1.35582,91.65,34.69,3.216,166.8,16 / 20,4476910,2019-08-09 21:28:45:648,-2.579,-0.5679,8.781,-0.6513,-0.1758,9.7834,0.012,-0.0328,0.022
44770,46.955254,-1.35582,91.65,34.69,3.216,166.8,16 / 20,4477010,2019-08-09 21:28:45:748,-2.321,-0.1675,8.9737,-0.6517,-0.1578,9.7837,0.0163,-0.0252,0.0126
44771,46.955254,-1.35582,91.65,34.69,3.216,166.8,16 / 20,4477110,2019-08-09 21:28:45:848,-1.4795,0.1013,9.8362,-0.6285,-0.1572,9.7852,-0.0158,0.0143,-0.0119
44772,46.955254,-1.35582,91.65,34.69,3.216,166.8,16 / 20,4477210,2019-08-09 21:28:45:948,0.8968,0.0666,10.0511,-0.649,-0.1713,9.7836,-0.0229,0.0067,0.0126
44773,46.955254,-1.35582,91.65,34.69,3.216,166.8,16 / 20,4477310,2019-08-09 21:28:46:048,-0.2548,-0.3871,9.8458,-0.656,-0.1835,9.783,-0.0077,0.0135,-0.0001
44774,46.955254,-1.35582,91.65,34.69,3.216,166.8,16 / 20,4477411,2019-08-09 21:28:46:149,-1.1353,-0.6804,9.2245,-0.642,-0.1917,9.7837,0.002,-0.0348,0.0189
44775,46.955254,-1.35582,91.65,34.69,3.216,166.8,16 / 20,4477511,2019-08-09 21:28:46:249,-0.1148,-0.3123,9.373,-0.635,-0.1887,9.7843,0.0149,-0.0146,-0.0026
44776,46.952496,-1.354873,93.46,34.94,3.216,166.8,15 / 20,4477611,2019-08-09 21:28:46:349,-0.1184,-0.1094,10.0918,-0.6358,-0.1797,9.7844,-0.0031,-0.0116,0.0028
44777,46.952496,-1.354873,93.46,34.94,3.216,166.8,15 / 20,4477711,2019-08-09 21:28:46:449,-0.5942,-0.0831,9.4203,-0.6346,-0.1822,9.7844,-0.0026,-0.0033,-0.0138
44778,46.952496,-1.354873,93.46,34.94,3.216,166.8,15 / 20,4477811,2019-08-09 21:28:46:549,-0.8701,-0.1364,9.6136,-0.6515,-0.1823,9.7833,-0.0063,0.0145,-0.0003
44779,46.952496,-1.354873,93.46,34.94,3.216,166.8,15 / 20,4477910,2019-08-09 21:28:46:648,-0.6205,-0.0364,10.1188,-0.6633,-0.1804,9.7825,-0.0131,0.0066,0.0057
44780,46.952496,-1.354873,93.46,34.94,3.216,166.8,15 / 20,4478010,2019-08-09 21:28:46:748,-0.6499,-0.1806,9.4394,-0.644,-0.1834,9.7838,0.0157,0.0047,-0.0102
44781,46.952496,-1.354873,93.46,34.94,3.216,166.8,15 / 20,4478110,2019-08-09 21:28:46:848,0.0355,0.127,9.9961,-0.6548,-0.1751,9.7832,0.004,0.0213,-0.0176
44782,46.952496,-1.354873,93.46,34.94,3.216,166.8,15 / 20,4478210,2019-08-09 21:28:46:948,0.1743,-0.1693,10.1104,-0.6646,-0.1702,9.7826,-0.0035,-0.039,-0.0025
44783,46.952496,-1.354873,93.46,34.94,3.216,166.8,15 / 20,4478310,2019-08-09 21:28:47:048,-0.3171,-0.4033,9.1743,-0.6505,-0.1676,9.7836,0.0121,-0.0016,0.0117
44784,46.952496,-1.354873,93.46,34.94,3.216,166.8,15 / 20,4478410,2019-08-09 21:28:47:148,-1.1455,-0.0825,9.1862,-0.6451,-0.1542,9.7842,0.0042,0.0092,-0.015
44785,46.952496,-1.354873,93.46,34.94,3.216,166.8,15 / 20,4478510,2019-08-09 21:28:47:248,-1.4411,-0.0663,10.1086,-0.6464,-0.1552,9.7841,-0.018,0.0034,0.0064
44786,46.952496,-1.354873,93.46,34.94,3.216,166.8,14 / 18,4478610,2019-08-09 21:28:47:348,-1.5094,-0.4308,9.3837,-0.6402,-0.1612,9.7844,0.0135,-0.0282,0.0012
44787,46.952496,-1.354873,93.46,34.94,3.216,166.8,14 / 18,4478710,2019-08-09 21:28:47:448,-0.6882,0.0067,9.6459,-0.6395,-0.1539,9.7846,-0.0006,0.0183,-0.0105
44788,46.952496,-1.354873,93.46,34.94,3.216,166.8,14 / 18,4478810,2019-08-09 21:28:47:548,-0.8857,0.1659,9.9685,-0.6361,-0.1545,9.7848,-0.0185,0.0021,0.0005
44789,46.952496,-1.354873,93.46,34.94,3.216,166.8,14 / 18,4478910,2019-08-09 21:28:47:648,-1.1425,-0.2956,9.6812,-0.6441,-0.1615,9.7841,0.0042,0.005,0.0033
44790,46.952496,-1.354873,93.46,34.94,3.216,166.8,14 / 18,4479010,2019-08-09 21:28:47:748,-1.0162,-0.207,9.0988,-0.6385,-0.1584,9.7846,0.0099,-0.0264,-0.0158
44791,46.952496,-1.354873,93.46,34.94,3.216,166.8,14 / 18,4479110,2019-08-09 21:28:47:848,0.7346,-0.1298,9.6166,-0.6417,-0.1478,9.7845,0.0187,-0.0111,0.0055
44792,46.952496,-1.354873,93.46,34.94,3.216,166.8,14 / 18,4479210,2019-08-09 21:28:47:948,0.822,-0.1274,9.862,-0.6365,-0.1482,9.7848,-0.0104,-0.0022,0.0034
44793,46.952496,-1.354873,93.46,34.94,3.216,166.8,14 / 18,4479310,2019-08-09 21:28:48:048,0.3575,-0.1447,9.7225,-0.6258,-0.1527,9.7855,0.0033,0.0212,-0.0218
44794,46.952496,-1.354873,93.46,34.94,3.216,166.8,14 / 18,4479410,2019-08-09 21:28:48:148,-1.2682,0.0348,9.8195,-0.632,-0.1525,9.7851,-0.0017,-0.0122,-0.0008
44795,46.952496,-1.354873,93.46,34.94,3.216,166.8,14 / 18,4479510,2019-08-09 21:28:48:248,-1.3394,-0.2489,9.5382,-0.6238,-0.1538,9.7856,-0.0004,0.0009,0.0035
44796,46.952496,-1.354873,93.46,34.94,3.216,166.8,15 / 21,4479610,2019-08-09 21:28:48:348,-1.1951,-0.4763,9.4394,-0.6213,-0.1541,9.7857,0.0012,0.0219,-0.0091
44797,46.952496,-1.354873,93.46,34.94,3.216,166.8,15 / 21,4479710,2019-08-09 21:28:48:448,-0.7612,-0.192,9.9793,-0.6399,-0.156,9.7845,0.0025,-0.0089,0.0182
44798,46.952496,-1.354873,93.46,34.94,3.216,166.8,15 / 21,4479810,2019-08-09 21:28:48:548,-0.8276,-0.3333,9.9811,-0.6299,-0.1578,9.7851,-0.0079,-0.0098,0.0164
44799,46.952496,-1.354873,93.46,34.94,3.216,166.8,15 / 21,4479910,2019-08-09 21:28:48:648,-0.8187,-0.3943,9.3987,-0.643,-0.1722,9.784,-0.0036,-0.0178,-0.0003
44800,46.952496,-1.354873,93.46,34.94,3.216,166.8,15 / 21,4480010,2019-08-09 21:28:48:748,-0.5721,-0.2621,10.1445,-0.6322,-0.1801,9.7846,-0.0008,0.0322,0.0054
44801,46.952496,-1.354873,93.46,34.94,3.216,166.8,15 / 21,4480110,2019-08-09 21:28:48:848,-0.8396,-0.4512,9.9248,-0.6422,-0.1888,9.7838,0.0005,0.0086,0.0135
44802,46.952496,-1.354873,93.46,34.94,3.216,166.8,15 / 21,4480210,2019-08-09 21:28:48:948,-0.6876,-0.2764,9.4933,-0.614,-0.1923,9.7855,0.0102,-0.0269,-0.0035
44803,46.952496,-1.354873,93.46,34.94,3.216,166.8,15 / 21,4480310,2019-08-09 21:28:49:048,0.0486,-0.1693,9.5322,-0.6103,-0.1869,9.7859,0.004,0.0208,-0.0126
44804,46.952496,-1.354873,93.46,34.94,3.216,166.8,15 / 21,4480410,2019-08-09 21:28:49:148,-0.6546,0.2006,10.439,-0.626,-0.182,9.785,-0.0118,0.0178,0.0004
44805,46.952496,-1.354873,93.46,34.94,3.216,166.8,15 / 21,4480510,2019-08-09 21:28:49:248,-1.3831,-0.3261,9.2551,-0.6293,-0.1908,9.7846,-0.005,-0.0241,0.0005
44806,46.952496,-1.354873,93.46,34.94,3.216,166.8,15 / 19,4480610,2019-08-09 21:28:49:348,-0.0806,-0.1052,9.282,-0.6272,-0.1855,9.7848,0.0139,-0.0125,-0.0049
44807,46.952496,-1.354873,93.46,34.94,3.216,166.8,15 / 19,4480710,2019-08-09 21:28:49:448,0.1438,0.2114,9.9081,-0.6289,-0.1659,9.7851,0.0037,-0.0181,-0.0153
44808,46.952496,-1.354873,93.46,34.94,3.216,166.8,15 / 19,4480810,2019-08-09 21:28:49:548,0.1678,-0.1364,9.528,-0.6284,-0.1664,9.7851,-0.0079,-0.0226,-0.0022
44809,46.952496,-1.354873,93.46,34.94,3.216,166.8,15 / 19,4480910,2019-08-09 21:28:49:648,-1.8512,-0.1956,9.4628,-0.6024,-0.1693,9.7867,0.0001,-0.0124,-0.0023
44810,46.952496,-1.354873,93.46,34.94,3.216,166.8,15 / 19,4481010,2019-08-09 21:28:49:748,-1.5663,-0.189,10.1427,-0.6146,-0.1739,9.7858,-0.0191,0.0085,0.0099
44811,46.952496,-1.354873,93.46,34.94,3.216,166.8,15 / 19,4481110,2019-08-09 21:28:49:848,-0.8749,-0.4967,9.8817,-0.6125,-0.1962,9.7855,-0.0076,0.0208,-0.0059
44812,46.952496,-1.354873,93.46,34.94,3.216,166.8,15 / 19,4481211,2019-08-09 21:28:49:949,0.0032,-0.2692,9.6555,-0.6123,-0.2046,9.7854,0.0002,-0.0277,0.0217
44813,46.952496,-1.354873,93.46,34.94,3.216,166.8,15 / 19,4481310,2019-08-09 21:28:50:048,-0.3374,-0.1914,9.8518,-0.6058,-0.2113,9.7856,-0.0017,-0.0128,0.009
44814,46.952496,-1.354873,93.46,34.94,3.216,166.8,15 / 19,4481410,2019-08-09 21:28:50:148,-0.2788,-0.213,9.5711,-0.6002,-0.2119,9.786,0.0004,-0.0067,-0.0025
44815,46.952496,-1.354873,93.46,34.94,3.216,166.8,15 / 19,4481510,2019-08-09 21:28:50:248,-0.0346,-0.101,9.7375,-0.5986,-0.2098,9.7861,0.0066,-0.0076,-0.0018
44816,46.952496,-1.354873,93.46,34.94,3.216,166.8,Nov-17,4481611,2019-08-09 21:28:50:349,-0.2722,0.0109,9.8883,-0.5887,-0.2047,9.7868,-0.0001,0.0263,-0.0132
44817,46.952496,-1.354873,93.46,34.94,3.216,166.8,Nov-17,4481711,2019-08-09 21:28:50:449,-0.8396,-0.1022,9.7429,-0.595,-0.2025,9.7865,-0.0083,-0.012,-0.0081
44818,46.952496,-1.354873,93.46,34.94,3.216,166.8,Nov-17,4481811,2019-08-09 21:28:50:549,-0.7007,-0.2728,9.4472,-0.5847,-0.2032,9.7871,-0.001,-0.0117,0.0021
44819,46.952496,-1.354873,93.46,34.94,3.216,166.8,Nov-17,4481910,2019-08-09 21:28:50:648,-0.605,0.0486,9.9787,-0.6008,-0.1994,9.7862,-0.0006,0.0207,-0.0063
44820,46.952496,-1.354873,93.46,34.94,3.216,166.8,Nov-17,4482010,2019-08-09 21:28:50:748,-0.3255,-0.2297,10.2074,-0.5912,-0.1983,9.7868,-0.003,0.0023,0.0053
44821,46.952496,-1.354873,93.46,34.94,3.216,166.8,Nov-17,4482110,2019-08-09 21:28:50:848,-1.3837,-0.3165,9.3873,-0.5857,-0.1982,9.7871,0.0074,-0.029,0.0057
44822,46.952496,-1.354873,93.46,34.94,3.216,166.8,Nov-17,4482210,2019-08-09 21:28:50:948,-0.9066,-0.1609,9.0863,-0.5746,-0.1914,9.7879,0.013,-0.0182,-0.0094
44823,46.952496,-1.354873,93.46,34.94,3.216,166.8,Nov-17,4482310,2019-08-09 21:28:51:048,-0.5721,0.0684,9.7141,-0.5742,-0.1857,9.7881,-0.0056,-0.0243,-0.0069
44824,46.952496,-1.354873,93.46,34.94,3.216,166.8,Nov-17,4482410,2019-08-09 21:28:51:148,-0.165,-0.0981,10.1104,-0.588,-0.1879,9.7872,-0.0065,0.0216,0.0109
44825,46.952496,-1.354873,93.46,34.94,3.216,166.8,Nov-17,4482510,2019-08-09 21:28:51:248,0.4383,0.057,10.0062,-0.5953,-0.1851,9.7868,0.0004,0.0228,-0.0157
44826,46.952496,-1.354873,93.46,34.94,3.216,166.8,15 / 21,4482610,2019-08-09 21:28:51:348,0.7843,-0.1794,9.5322,-0.6071,-0.1836,9.7861,0.0022,-0.05,0.003
44827,46.952496,-1.354873,93.46,34.94,3.216,166.8,15 / 21,4482710,2019-08-09 21:28:51:448,0.6125,-0.0352,9.0641,-0.5712,-0.175,9.7884,0.0224,-0.0427,0.0057
44828,46.952496,-1.354873,93.46,34.94,3.216,166.8,15 / 21,4482810,2019-08-09 21:28:51:548,-0.8941,-0.1639,9.2503,-0.557,-0.1561,9.7896,0.0063,0.0181,-0.0073
44829,46.952496,-1.354873,93.46,34.94,3.216,166.8,15 / 21,4482910,2019-08-09 21:28:51:648,-0.8246,-0.0202,10.448,-0.5747,-0.1575,9.7885,-0.0204,0.0042,0.0081
44830,46.952496,-1.354873,93.46,34.94,3.216,166.8,15 / 21,4483010,2019-08-09 21:28:51:748,-0.0022,-0.0657,10.0164,-0.5834,-0.1713,9.7878,-0.0178,0.0203,-0.0158
44831,46.952496,-1.354873,93.46,34.94,3.216,166.8,15 / 21,4483110,2019-08-09 21:28:51:848,-2.0391,-0.5996,9.3083,-0.5747,-0.1752,9.7882,0.0117,0.0176,-0.0407
44832,46.952496,-1.354873,93.46,34.94,3.216,166.8,15 / 21,4483211,2019-08-09 21:28:51:949,-1.4657,-0.3452,10.0655,-0.5732,-0.165,9.7885,0.0148,0.0045,0.0244
44833,46.952496,-1.354873,93.46,34.94,3.216,166.8,15 / 21,4483310,2019-08-09 21:28:52:048,-0.7271,-0.3758,9.5352,-0.5717,-0.1525,9.7888,0.014,0.0129,0.0011
44834,46.952496,-1.354873,93.46,34.94,3.216,166.8,15 / 21,4483410,2019-08-09 21:28:52:148,-0.6595,0.3539,9.7459,-0.5684,-0.1526,9.789,0.0072,-0.0147,0.0013
44835,46.952496,-1.354873,93.46,34.94,3.216,166.8,15 / 21,4483510,2019-08-09 21:28:52:248,-0.778,0.1192,9.9464,-0.5629,-0.1429,9.7894,0.0008,0.0144,-0.0082
44836,46.952496,-1.354873,93.46,34.94,3.216,166.8,15 / 21,4483611,2019-08-09 21:28:52:349,-0.6092,0.0109,9.6393,-0.5697,-0.1348,9.7892,-0.0074,0.0005,-0.0014
44837,46.952496,-1.354873,93.46,34.94,3.216,166.8,15 / 21,4483710,2019-08-09 21:28:52:448,-0.5619,0.0468,10.2079,-0.5839,-0.1385,9.7883,-0.0038,0.0194,-0.0047
44838,46.952496,-1.354873,93.46,34.94,3.216,166.8,15 / 21,4483810,2019-08-09 21:28:52:548,-0.2075,-0.0065,9.3951,-0.5793,-0.1456,9.7884,-0.008,-0.0125,-0.0038
44839,46.952496,-1.354873,93.46,34.94,3.216,166.8,15 / 21,4483911,2019-08-09 21:28:52:649,-0.517,0.0761,9.7141,-0.5543,-0.144,9.7899,0.0035,0.0201,-0.025
44840,46.952496,-1.354873,93.46,34.94,3.216,166.8,15 / 21,4484010,2019-08-09 21:28:52:748,0.0109,-0.1082,9.5765,-0.5499,-0.1385,9.7902,-0.0039,-0.0223,0.0099
44841,46.952496,-1.354873,93.46,34.94,3.216,166.8,15 / 21,4484111,2019-08-09 21:28:52:849,-1.5351,-0.3363,9.598,-0.5368,-0.1445,9.7909,-0.0016,0.0285,-0.0155
44842,46.952496,-1.354873,93.46,34.94,3.216,166.8,15 / 21,4484210,2019-08-09 21:28:52:948,-1.5609,-0.052,10.6688,-0.5758,-0.1499,9.7886,-0.0149,0.0359,0.0111
44843,46.952496,-1.354873,93.46,34.94,3.216,166.8,15 / 21,4484310,2019-08-09 21:28:53:048,0.3324,-0.2435,10.2026,-0.5822,-0.1549,9.7881,-0.0079,-0.0047,0.0056
44844,46.952496,-1.354873,93.46,34.94,3.216,166.8,15 / 21,4484410,2019-08-09 21:28:53:148,0.2115,-0.2207,9.5052,-0.5783,-0.1542,9.7884,0.0212,0.0149,-0.0104
44845,46.952496,-1.354873,93.46,34.94,3.216,166.8,15 / 21,4484510,2019-08-09 21:28:53:248,-0.9054,-0.28,9.3293,-0.5944,-0.1452,9.7875,0.0111,-0.0359,0.0034
44846,46.952496,-1.354873,93.46,34.94,3.216,166.8,14 / 20,4484611,2019-08-09 21:28:53:349,0.3755,-0.0933,9.3293,-0.5467,-0.1276,9.7906,0.0062,0.0208,-0.023
44847,46.952496,-1.354873,93.46,34.94,3.216,166.8,14 / 20,4484710,2019-08-09 21:28:53:448,-0.2536,-0.0143,9.3407,-0.5376,-0.1204,9.7912,0.0009,-0.0494,0.0112
44848,46.952496,-1.354873,93.46,34.94,3.216,166.8,14 / 20,4484810,2019-08-09 21:28:53:548,0.2677,-0.0137,9.7249,-0.5007,-0.1202,9.7931,-0.0014,0.0223,0.0031
44849,46.952496,-1.354873,93.46,34.94,3.216,166.8,14 / 20,4484910,2019-08-09 21:28:53:648,-0.6702,0.1827,10.6485,-0.5154,-0.1225,9.7923,-0.0194,0.0425,-0.0049
44850,46.952496,-1.354873,93.46,34.94,3.216,166.8,14 / 20,4485010,2019-08-09 21:28:53:748,-0.7085,-0.5368,9.7884,-0.5044,-0.1498,9.7925,-0.0069,0.0066,0.0
44851,46.952496,-1.354873,93.46,34.94,3.216,166.8,14 / 20,4485110,2019-08-09 21:28:53:848,-0.6726,0.051,9.7417,-0.4853,-0.1513,9.7935,-0.0039,-0.0035,0.0042
44852,46.952496,-1.354873,93.46,34.94,3.216,166.8,14 / 20,4485210,2019-08-09 21:28:53:948,0.9728,-0.207,9.868,-0.4912,-0.1583,9.7931,-0.0099,0.0417,-0.0055
44853,46.952496,-1.354873,93.46,34.94,3.216,166.8,14 / 20,4485311,2019-08-09 21:28:54:049,0.1019,-0.4937,9.771,-0.4947,-0.1666,9.7927,-0.0059,-0.0198,0.0149
44854,46.952496,-1.354873,93.46,34.94,3.216,166.8,14 / 20,4485410,2019-08-09 21:28:54:148,-1.0413,-0.3476,9.3778,-0.4852,-0.163,9.7933,0.0135,0.0163,-0.0005
44855,46.952496,-1.354873,93.46,34.94,3.216,166.8,14 / 20,4485510,2019-08-09 21:28:54:248,-1.0766,-0.1052,9.941,-0.4977,-0.1599,9.7927,-0.0067,0.0,0.0058
44856,46.952496,-1.354873,93.46,34.94,3.216,166.8,13 / 19,4485611,2019-08-09 21:28:54:349,-0.8348,-0.2674,9.7818,-0.5015,-0.1691,9.7924,-0.0066,0.0145,-0.0046
44857,46.952496,-1.354873,93.46,34.94,3.216,166.8,13 / 19,4485710,2019-08-09 21:28:54:448,-0.5643,0.0235,9.6657,-0.4913,-0.1701,9.7929,0.0002,-0.0148,0.0107
44858,46.952496,-1.354873,93.46,34.94,3.216,166.8,13 / 19,4485811,2019-08-09 21:28:54:549,-0.4122,-0.2501,9.6172,-0.489,-0.1733,9.7929,-0.0015,-0.0074,-0.0034
44859,46.952496,-1.354873,93.46,34.94,3.216,166.8,13 / 19,4485911,2019-08-09 21:28:54:649,-0.6469,-0.3423,9.4646,-0.4866,-0.1721,9.7931,0.0109,-0.0145,0.0168
44860,46.952496,-1.354873,93.46,34.94,3.216,166.8,13 / 19,4486010,2019-08-09 21:28:54:748,0.3018,-0.3123,9.601,-0.487,-0.1732,9.793,0.0071,0.0045,0.0104
44861,46.952496,-1.354873,93.46,34.94,3.216,166.8,13 / 19,4486110,2019-08-09 21:28:54:848,0.1618,-0.1537,9.838,-0.4907,-0.1733,9.7928,0.0056,0.0134,-0.0258
44862,46.952496,-1.354873,93.46,34.94,3.216,166.8,13 / 19,4486211,2019-08-09 21:28:54:949,-0.4081,0.0666,10.0182,-0.4918,-0.1752,9.7927,-0.0086,-0.004,0.0007
44863,46.952496,-1.354873,93.46,34.94,3.216,166.8,13 / 19,4486311,2019-08-09 21:28:55:049,-0.5332,-0.605,9.4167,-0.4824,-0.1796,9.7931,0.0098,-0.0021,-0.0012
44864,46.952496,-1.354873,93.46,34.94,3.216,166.8,13 / 19,4486410,2019-08-09 21:28:55:148,-0.338,0.0265,10.1666,-0.4935,-0.167,9.7928,-0.0029,0.0253,-0.0014
44865,46.952496,-1.354873,93.46,34.94,3.216,166.8,13 / 19,4486510,2019-08-09 21:28:55:248,-0.0645,-0.0388,10.1649,-0.4832,-0.1692,9.7933,-0.0015,-0.0552,0.0354
44866,46.94976,-1.353949,95.76,33.46,3.216,167.1,15 / 21,4486610,2019-08-09 21:28:55:348,-0.9623,-0.4691,9.1599,-0.457,-0.1735,9.7945,0.0092,-0.0341,0.0019
44867,46.94976,-1.353949,95.76,33.46,3.216,167.1,15 / 21,4486710,2019-08-09 21:28:55:448,-0.4182,-0.1286,9.6513,-0.4568,-0.1755,9.7944,-0.008,0.0089,0.002
44868,46.94976,-1.353949,95.76,33.46,3.216,167.1,15 / 21,4486810,2019-08-09 21:28:55:548,0.3461,-0.4374,10.0565,-0.4434,-0.1817,9.7949,-0.0185,-0.006,0.0216
44869,46.94976,-1.353949,95.76,33.46,3.216,167.1,15 / 21,4486910,2019-08-09 21:28:55:648,-0.3177,-0.6463,9.8003,-0.4513,-0.2058,9.7941,-0.0061,0.0232,-0.0006
44870,46.94976,-1.353949,95.76,33.46,3.216,167.1,15 / 21,4487010,2019-08-09 21:28:55:748,-0.9456,-0.6577,9.631,-0.4724,-0.2117,9.793,0.0072,-0.0215,0.029
44871,46.94976,-1.353949,95.76,33.46,3.216,167.1,15 / 21,4487110,2019-08-09 21:28:55:848,-1.0401,-0.3087,9.5172,-0.4567,-0.2126,9.7937,0.0162,-0.0312,-0.005
44872,46.94976,-1.353949,95.76,33.46,3.216,167.1,15 / 21,4487210,2019-08-09 21:28:55:948,0.154,0.0899,9.6776,-0.4454,-0.2036,9.7944,-0.0014,0.0525,-0.0144
44873,46.94976,-1.353949,95.76,33.46,3.216,167.1,15 / 21,4487310,2019-08-09 21:28:56:048,-0.4476,-0.1591,9.6375,-0.444,-0.2002,9.7946,-0.0123,-0.034,0.0027
44874,46.94976,-1.353949,95.76,33.46,3.216,167.1,15 / 21,4487410,2019-08-09 21:28:56:148,-0.7714,0.233,10.2798,-0.4444,-0.2026,9.7945,0.004,0.0433,-0.037
44875,46.94976,-1.353949,95.76,33.46,3.216,167.1,15 / 21,4487510,2019-08-09 21:28:56:248,-0.4823,-0.1651,9.8518,-0.4633,-0.1909,9.7938,0.0062,-0.0181,0.004
44876,46.94976,-1.353949,95.76,33.46,3.216,167.1,14 / 21,4487610,2019-08-09 21:28:56:348,-0.7157,-0.2064,9.2179,-0.4832,-0.1891,9.7929,0.0042,-0.0606,0.0101
44877,46.94976,-1.353949,95.76,33.46,3.216,167.1,14 / 21,4487710,2019-08-09 21:28:56:448,-1.3651,0.039,9.6621,-0.4727,-0.1743,9.7937,0.0032,-0.0097,-0.0023
44878,46.94976,-1.353949,95.76,33.46,3.216,167.1,14 / 21,4487811,2019-08-09 21:28:56:549,-0.2153,-0.0077,9.941,-0.4722,-0.1689,9.7938,-0.0002,-0.0197,-0.003
44879,46.94976,-1.353949,95.76,33.46,3.216,167.1,14 / 21,4487910,2019-08-09 21:28:56:648,-0.329,-0.0544,9.6202,-0.4605,-0.1648,9.7944,0.0031,-0.018,-0.0069
44880,46.94976,-1.353949,95.76,33.46,3.216,167.1,14 / 21,4488010,2019-08-09 21:28:56:748,-0.7534,-0.0143,9.6711,-0.457,-0.161,9.7947,0.0058,0.0006,-0.0055
44881,46.94976,-1.353949,95.76,33.46,3.216,167.1,14 / 21,4488111,2019-08-09 21:28:56:849,-0.3302,0.0061,9.6507,-0.4496,-0.1534,9.7951,-0.0038,0.0113,-0.003
44882,46.94976,-1.353949,95.76,33.46,3.216,167.1,14 / 21,4488210,2019-08-09 21:28:56:948,-0.2291,-0.0178,10.0643,-0.4567,-0.1545,9.7948,-0.0105,-0.0029,-0.0049
44883,46.94976,-1.353949,95.76,33.46,3.216,167.1,14 / 21,4488310,2019-08-09 21:28:57:048,-0.9934,-0.0532,10.117,-0.4628,-0.164,9.7944,-0.0057,0.0059,-0.004
44884,46.94976,-1.353949,95.76,33.46,3.216,167.1,14 / 21,4488410,2019-08-09 21:28:57:148,-0.4775,-0.1609,10.1248,-0.4764,-0.1674,9.7936,-0.0069,0.0023,0.0081
44885,46.94976,-1.353949,95.76,33.46,3.216,167.1,14 / 21,4488510,2019-08-09 21:28:57:248,-0.1609,-0.204,9.8698,-0.4761,-0.1732,9.7936,0.0089,-0.0246,0.0063
44886,46.94976,-1.353949,95.76,33.46,3.216,167.1,14 / 20,4488611,2019-08-09 21:28:57:349,-0.1142,-0.2106,9.3377,-0.4788,-0.1695,9.7935,0.0045,-0.0536,-0.006
44887,46.94976,-1.353949,95.76,33.46,3.216,167.1,14 / 20,4488711,2019-08-09 21:28:57:449,-0.9916,-0.1507,9.5076,-0.4532,-0.1596,9.7949,0.0033,0.0032,0.0037
44888,46.94976,-1.353949,95.76,33.46,3.216,167.1,14 / 20,4488811,2019-08-09 21:28:57:549,-0.4404,0.1911,10.2109,-0.4502,-0.1614,9.795,-0.0058,0.0086,-0.0081
44889,46.94976,-1.353949,95.76,33.46,3.216,167.1,14 / 20,4488910,2019-08-09 21:28:57:648,-0.4045,-0.1471,9.2964,-0.4453,-0.179,9.7949,-0.0178,-0.0222,0.0165
44890,46.94976,-1.353949,95.76,33.46,3.216,167.1,14 / 20,4489010,2019-08-09 21:28:57:748,-0.2309,-0.4817,9.2377,-0.4347,-0.1893,9.7952,-0.0057,-0.0104,0.0055
44891,46.94976,-1.353949,95.76,33.46,3.216,167.1,14 / 20,4489110,2019-08-09 21:28:57:848,0.2085,0.0366,10.1924,-0.4384,-0.1942,9.7949,-0.0084,-0.0033,0.0069
44892,46.94976,-1.353949,95.76,33.46,3.216,167.1,14 / 20,4489210,2019-08-09 21:28:57:948,0.7005,-0.2543,9.6214,-0.4361,-0.1959,9.795,0.0085,0.0145,0.0027
44893,46.94976,-1.353949,95.76,33.46,3.216,167.1,14 / 20,4489311,2019-08-09 21:28:58:049,-1.4807,-0.0059,9.7447,-0.4126,-0.1922,9.7961,0.0088,-0.0013,0.0164
44894,46.94976,-1.353949,95.76,33.46,3.216,167.1,14 / 20,4489411,2019-08-09 21:28:58:149,-0.9102,0.1528,10.2516,-0.4326,-0.192,9.7952,-0.0032,0.0323,-0.0157
44895,46.94976,-1.353949,95.76,33.46,3.216,167.1,14 / 20,4489510,2019-08-09 21:28:58:248,-0.1399,-0.1184,10.0637,-0.4332,-0.1993,9.7951,-0.0042,-0.0612,0.0263
44896,46.94976,-1.353949,95.76,33.46,3.216,167.1,14 / 20,4489610,2019-08-09 21:28:58:348,-0.3075,-0.5841,9.4556,-0.4323,-0.2011,9.7951,0.0088,0.025,-0.0206
44897,46.94976,-1.353949,95.76,33.46,3.216,167.1,14 / 20,4489711,2019-08-09 21:28:58:449,-0.3985,-0.0699,9.8327,-0.4358,-0.187,9.7952,0.0024,0.0081,-0.0057
44898,46.94976,-1.353949,95.76,33.46,3.216,167.1,14 / 20,4489810,2019-08-09 21:28:58:548,-0.6978,-0.2495,10.0272,-0.4344,-0.1819,9.7953,-0.0003,0.0108,0.0038
44899,46.94976,-1.353949,95.76,33.46,3.216,167.1,14 / 20,4489910,2019-08-09 21:28:58:648,-0.2213,-0.271,8.8361,-0.4216,-0.1771,9.796,0.0166,0.076,-0.0217
44900,46.94976,-1.353949,95.76,33.46,3.216,167.1,14 / 20,4490010,2019-08-09 21:28:58:748,-0.1279,0.1929,9.7177,-0.4356,-0.1702,9.7955,0.0013,-0.0368,0.0104
44901,46.94976,-1.353949,95.76,33.46,3.216,167.1,14 / 20,4490110,2019-08-09 21:28:58:848,0.4203,-0.0502,9.5992,-0.4545,-0.1702,9.7946,0.0035,-0.001,-0.0112
44902,46.94976,-1.353949,95.76,33.46,3.216,167.1,14 / 20,4490210,2019-08-09 21:28:58:948,-1.0844,0.0857,9.9877,-0.4587,-0.1613,9.7946,0.0001,-0.0147,-0.0083
44903,46.94976,-1.353949,95.76,33.46,3.216,167.1,14 / 20,4490311,2019-08-09 21:28:59:049,-0.2081,0.0851,9.6447,-0.4499,-0.157,9.7951,0.0079,-0.0053,-0.005
44904,46.94976,-1.353949,95.76,33.46,3.216,167.1,14 / 20,4490411,2019-08-09 21:28:59:149,-0.5774,0.3335,10.3193,-0.4637,-0.1496,9.7945,-0.0012,0.0299,-0.0282
44905,46.94976,-1.353949,95.76,33.46,3.216,167.1,14 / 20,4490511,2019-08-09 21:28:59:249,-1.0533,-0.2207,9.9428,-0.4643,-0.1471,9.7945,-0.0041,0.0133,0.0104
44906,46.94976,-1.353949,95.76,33.46,3.216,167.1,16 / 21,4490610,2019-08-09 21:28:59:348,-1.0736,-0.2902,9.5627,-0.4744,-0.1523,9.794,0.0038,-0.0054,-0.0078
44907,46.94976,-1.353949,95.76,33.46,3.216,167.1,16 / 21,4490710,2019-08-09 21:28:59:448,-1.7327,-0.3931,9.1575,-0.4979,-0.152,9.7928,0.0004,-0.0605,0.0312
44908,46.94976,-1.353949,95.76,33.46,3.216,167.1,16 / 21,4490810,2019-08-09 21:28:59:548,-0.8803,-0.213,9.4975,-0.4591,-0.1471,9.7948,0.0049,0.051,-0.015
44909,46.94976,-1.353949,95.76,33.46,3.216,167.1,16 / 21,4490910,2019-08-09 21:28:59:648,-0.9755,0.2419,10.6712,-0.4901,-0.1442,9.7933,-0.0139,-0.0238,0.0131
44910,46.94976,-1.353949,95.76,33.46,3.216,167.1,16 / 21,4491010,2019-08-09 21:28:59:748,-1.3017,-0.368,9.7297,-0.4872,-0.1605,9.7932,-0.0019,-0.0411,0.0079
44911,46.94976,-1.353949,95.76,33.46,3.216,167.1,16 / 21,4491111,2019-08-09 21:28:59:849,-0.5625,-0.0352,9.9141,-0.4783,-0.1647,9.7936,0.0023,0.0306,-0.0234
44912,46.94976,-1.353949,95.76,33.46,3.216,167.1,16 / 21,4491211,2019-08-09 21:28:59:949,-1.3621,-0.2148,10.2091,-0.5015,-0.1676,9.7924,-0.0124,-0.0288,0.0084
44913,46.94976,-1.353949,95.76,33.46,3.216,167.1,16 / 21,4491311,2019-08-09 21:29:00:049,-1.1096,-0.2662,9.859,-0.4911,-0.1765,9.7928,-0.0055,0.0095,-0.0036
44914,46.94976,-1.353949,95.76,33.46,3.216,167.1,16 / 21,4491411,2019-08-09 21:29:00:149,-0.9527,-0.0897,9.8009,-0.4964,-0.1824,9.7924,-0.0017,0.0025,0.0121
44915,46.94976,-1.353949,95.76,33.46,3.216,167.1,16 / 21,4491511,2019-08-09 21:29:00:249,-1.6177,-0.2489,9.8267,-0.4959,-0.1835,9.7924,-0.0047,0.0233,-0.0103
44916,46.94976,-1.353949,95.76,33.46,3.216,167.1,16 / 21,4491611,2019-08-09 21:29:00:349,-0.9605,-0.128,9.8518,-0.5053,-0.1891,9.7918,0.0031,0.0032,0.0097
44917,46.94976,-1.353949,95.76,33.46,3.216,167.1,16 / 21,4491710,2019-08-09 21:29:00:448,-0.0549,-0.2597,9.7644,-0.5183,-0.1886,9.7911,0.0079,-0.0152,0.0054
44918,46.94976,-1.353949,95.76,33.46,3.216,167.1,16 / 21,4491810,2019-08-09 21:29:00:548,-1.6488,-0.5057,9.4502,-0.5156,-0.1763,9.7915,0.0069,-0.0121,0.0064
44919,46.94976,-1.353949,95.76,33.46,3.216,167.1,16 / 21,4491910,2019-08-09 21:29:00:648,-1.7943,-0.3201,9.9691,-0.5069,-0.1763,9.792,0.0018,0.0367,-0.0062
44920,46.94976,-1.353949,95.76,33.46,3.216,167.1,16 / 21,4492010,2019-08-09 21:29:00:748,-1.1323,-0.3758,10.008,-0.521,-0.1845,9.7911,-0.0063,0.0279,0.0062
44921,46.94976,-1.353949,95.76,33.46,3.216,167.1,16 / 21,4492110,2019-08-09 21:29:00:848,-1.3238,-0.5248,9.3029,-0.504,-0.1873,9.7919,0.0029,-0.0353,0.0201
44922,46.94976,-1.353949,95.76,33.46,3.216,167.1,16 / 21,4492210,2019-08-09 21:29:00:948,-0.1118,-0.2136,9.6507,-0.5215,-0.1848,9.791,0.0072,-0.0099,0.0104
44923,46.94976,-1.353949,95.76,33.46,3.216,167.1,16 / 21,4492311,2019-08-09 21:29:01:049,0.8561,-0.3704,9.4077,-0.5151,-0.1936,9.7912,-0.0088,-0.0105,0.0188
44924,46.94976,-1.353949,95.76,33.46,3.216,167.1,16 / 21,4492411,2019-08-09 21:29:01:149,-2.1905,-0.5601,9.7064,-0.5148,-0.2082,9.7909,-0.0092,-0.0026,0.0053
44925,46.94976,-1.353949,95.76,33.46,3.216,167.1,16 / 21,4492511,2019-08-09 21:29:01:249,-0.9246,-0.5577,9.4933,-0.5136,-0.2154,9.7908,-0.0055,-0.013,0.0146
44926,46.94976,-1.353949,95.76,33.46,3.216,167.1,16 / 21,4492611,2019-08-09 21:29:01:349,-0.7253,-0.3554,10.1625,-0.5227,-0.2311,9.79,-0.0095,0.0268,0.0002
44927,46.94976,-1.353949,95.76,33.46,3.216,167.1,16 / 21,4492711,2019-08-09 21:29:01:449,-1.4992,-1.2443,9.4227,-0.5079,-0.2466,9.7904,-0.0005,-0.0047,0.0473
44928,46.94976,-1.353949,95.76,33.46,3.216,167.1,16 / 21,4492811,2019-08-09 21:29:01:549,0.0935,-0.623,9.282,-0.5137,-0.2533,9.7899,0.0038,-0.0063,0.0072
44929,46.94976,-1.353949,95.76,33.46,3.216,167.1,16 / 21,4492910,2019-08-09 21:29:01:648,-0.2626,-0.453,9.677,-0.5043,-0.2619,9.7902,-0.0138,0.0086,0.0385
44930,46.94976,-1.353949,95.76,33.46,3.216,167.1,16 / 21,4493011,2019-08-09 21:29:01:749,-1.0964,-1.1174,9.5328,-0.5015,-0.2817,9.7898,0.0081,0.0232,0.0296
44931,46.94976,-1.353949,95.76,33.46,3.216,167.1,16 / 21,4493111,2019-08-09 21:29:01:849,0.1731,-0.7313,9.8129,-0.5107,-0.2896,9.7891,0.0062,0.0101,0.0135
44932,46.94976,-1.353949,95.76,33.46,3.216,167.1,16 / 21,4493211,2019-08-09 21:29:01:949,0.0217,-0.7535,10.0344,-0.5248,-0.3109,9.7877,-0.0081,-0.0329,0.0386
44933,46.94976,-1.353949,95.76,33.46,3.216,167.1,16 / 21,4493311,2019-08-09 21:29:02:049,-0.5912,-1.0444,9.4143,-0.5087,-0.3222,9.7881,0.0007,-0.0055,0.0284
44934,46.94976,-1.353949,95.76,33.46,3.216,167.1,16 / 21,4493411,2019-08-09 21:29:02:149,-0.265,-0.7337,9.7884,-0.5148,-0.3311,9.7875,0.0037,-0.0091,0.0108
44935,46.94976,-1.353949,95.76,33.46,3.216,167.1,16 / 21,4493511,2019-08-09 21:29:02:249,-0.523,-0.6667,9.4735,-0.5082,-0.3342,9.7878,-0.0005,-0.0114,0.0117
44936,46.94976,-1.353949,95.76,33.46,3.216,167.1,14 / 19,4493610,2019-08-09 21:29:02:348,-0.9342,-0.7182,10.1361,-0.5123,-0.341,9.7873,-0.0143,0.0094,0.0135
44937,46.94976,-1.353949,95.76,33.46,3.216,167.1,14 / 19,4493711,2019-08-09 21:29:02:449,0.3796,-0.8786,9.2473,-0.4971,-0.3685,9.7871,-0.0056,-0.0212,0.0212
44938,46.94976,-1.353949,95.76,33.46,3.216,167.1,14 / 19,4493810,2019-08-09 21:29:02:548,-0.6169,-0.8941,9.0976,-0.5169,-0.3743,9.7859,0.0107,0.0054,0.0012
44939,46.94976,-1.353949,95.76,33.46,3.216,167.1,14 / 19,4493910,2019-08-09 21:29:02:648,-1.0563,-0.8409,10.02,-0.5297,-0.3749,9.7852,-0.0071,0.0025,0.0277
44940,46.94976,-1.353949,95.76,33.46,3.216,167.1,14 / 19,4494011,2019-08-09 21:29:02:749,0.4168,-0.7157,10.02,-0.5258,-0.3827,9.7851,0.0195,-0.0149,0.0138
44941,46.94976,-1.353949,95.76,33.46,3.216,167.1,14 / 19,4494111,2019-08-09 21:29:02:849,-0.3332,-0.4368,9.8763,-0.5296,-0.3696,9.7854,0.0063,0.0169,-0.0093
44942,46.94976,-1.353949,95.76,33.46,3.216,167.1,14 / 19,4494210,2019-08-09 21:29:02:948,-0.028,-1.0635,10.0517,-0.5076,-0.3766,9.7863,0.0047,0.0254,0.0426
44943,46.94976,-1.353949,95.76,33.46,3.216,167.1,14 / 19,4494311,2019-08-09 21:29:03:049,-0.4727,-0.1842,9.4592,-0.5047,-0.3761,9.7864,0.0146,0.0099,0.0239
44944,46.94976,-1.353949,95.76,33.46,3.216,167.1,14 / 19,4494411,2019-08-09 21:29:03:149,-0.7474,-0.4853,8.9324,-0.5042,-0.3686,9.7867,0.0083,-0.0479,0.004
44945,46.94976,-1.353949,95.76,33.46,3.216,167.1,14 / 19,4494511,2019-08-09 21:29:03:249,0.2563,-0.2746,9.7536,-0.4957,-0.3662,9.7873,-0.017,-0.0005,0.0104
44946,46.94976,-1.353949,95.76,33.46,3.216,167.1,15 / 21,4494611,2019-08-09 21:29:03:349,-1.0216,-0.7331,10.2091,-0.5066,-0.3788,9.7862,-0.0237,0.0151,0.0262
44947,46.94976,-1.353949,95.76,33.46,3.216,167.1,15 / 21,4494710,2019-08-09 21:29:03:448,-1.2059,-0.7756,9.9715,-0.5214,-0.4091,9.7842,-0.0048,0.0074,0.0414
44948,46.94976,-1.353949,95.76,33.46,3.216,167.1,15 / 21,4494810,2019-08-09 21:29:03:548,-0.7708,-1.042,9.6453,-0.5328,-0.4188,9.7832,0.0056,-0.0004,0.0091
44949,46.94976,-1.353949,95.76,33.46,3.216,167.1,15 / 21,4494910,2019-08-09 21:29:03:648,-0.1255,-0.6337,9.7854,-0.5256,-0.4227,9.7834,0.0036,-0.0169,0.0371
44950,46.94976,-1.353949,95.76,33.46,3.216,167.1,15 / 21,4495011,2019-08-09 21:29:03:749,-0.326,-0.8187,9.355,-0.509,-0.4326,9.7839,-0.0038,-0.023,0.0178
44951,46.94976,-1.353949,95.76,33.46,3.216,167.1,15 / 21,4495111,2019-08-09 21:29:03:849,0.2946,-0.6451,9.613,-0.4855,-0.4391,9.7848,0.001,0.0221,-0.002
44952,46.94976,-1.353949,95.76,33.46,3.216,167.1,15 / 21,4495210,2019-08-09 21:29:03:948,-0.5224,-0.8702,10.0751,-0.4895,-0.4436,9.7844,-0.0101,0.0068,0.026
44953,46.94976,-1.353949,95.76,33.46,3.216,167.1,15 / 21,4495310,2019-08-09 21:29:04:048,-0.3338,-1.0557,9.2874,-0.4926,-0.4681,9.7831,0.0044,0.0191,0.0049
44954,46.94976,-1.353949,95.76,33.46,3.216,167.1,15 / 21,4495410,2019-08-09 21:29:04:148,0.3216,-0.45,9.8596,-0.497,-0.4703,9.7827,-0.0108,-0.0009,0.003
44955,46.94976,-1.353949,95.76,33.46,3.216,167.1,15 / 21,4495511,2019-08-09 21:29:04:249,-0.5589,-1.0593,9.531,-0.492,-0.484,9.7823,0.0014,-0.0069,0.0348
44956,46.947178,-1.35301,97.73,32.49,3.216,163.9,15 / 20,4495611,2019-08-09 21:29:04:349,0.5688,-0.8139,9.8422,-0.4879,-0.4843,9.7825,-0.0063,0.038,-0.0027
44957,46.947178,-1.35301,97.73,32.49,3.216,163.9,15 / 20,4495710,2019-08-09 21:29:04:448,0.2348,-0.7343,9.9643,-0.5034,-0.4956,9.7812,-0.0091,-0.0095,0.0361
44958,46.947178,-1.35301,97.73,32.49,3.216,163.9,15 / 20,4495810,2019-08-09 21:29:04:548,-0.4559,-0.8899,9.7135,-0.5067,-0.5043,9.7806,-0.0084,0.0058,0.0231
44959,46.947178,-1.35301,97.73,32.49,3.216,163.9,15 / 20,4495911,2019-08-09 21:29:04:649,0.5203,-0.9414,9.2389,-0.489,-0.5123,9.781,-0.0005,0.0018,0.0149
44960,46.947178,-1.35301,97.73,32.49,3.216,163.9,15 / 20,4496011,2019-08-09 21:29:04:749,0.1468,-0.9031,10.1152,-0.5038,-0.5195,9.7799,-0.0143,0.0059,0.026
44961,46.947178,-1.35301,97.73,32.49,3.216,163.9,15 / 20,4496111,2019-08-09 21:29:04:849,0.0594,-0.9264,9.9775,-0.4951,-0.5475,9.7788,-0.0102,0.0048,0.0145
44962,46.947178,-1.35301,97.73,32.49,3.216,163.9,15 / 20,4496210,2019-08-09 21:29:04:948,0.8022,-1.0743,9.6028,-0.4954,-0.5628,9.7779,0.0046,-0.0408,0.0313
44963,46.947178,-1.35301,97.73,32.49,3.216,163.9,15 / 20,4496310,2019-08-09 21:29:05:048,0.8387,-0.7397,10.1277,-0.5052,-0.579,9.7765,-0.0069,-0.0173,0.0445
44964,46.947178,-1.35301,97.73,32.49,3.216,163.9,15 / 20,4496411,2019-08-09 21:29:05:149,-0.3159,-1.1359,9.3119,-0.4981,-0.5934,9.776,-0.0137,-0.0288,0.0276
44965,46.947178,-1.35301,97.73,32.49,3.216,163.9,15 / 20,4496510,2019-08-09 21:29:05:248,-0.1776,-1.2335,9.1461,-0.4906,-0.6207,9.7747,-0.0117,0.0376,0.0017
44966,46.947178,-1.35301,97.73,32.49,3.216,163.9,14 / 18,4496610,2019-08-09 21:29:05:348,0.0211,-0.9492,9.7345,-0.4985,-0.6261,9.7739,-0.0219,-0.0207,0.0208
44967,46.947178,-1.35301,97.73,32.49,3.216,163.9,14 / 18,4496711,2019-08-09 21:29:05:449,-0.9611,-1.1246,10.3899,-0.5415,-0.6648,9.7691,-0.0043,0.0253,0.0267
44968,46.947178,-1.35301,97.73,32.49,3.216,163.9,14 / 18,4496811,2019-08-09 21:29:05:549,-1.1455,-1.1461,10.3606,-0.5691,-0.6679,9.7673,0.0115,0.001,0.019
44969,46.947178,-1.35301,97.73,32.49,3.216,163.9,14 / 18,4496910,2019-08-09 21:29:05:648,-1.2089,-1.021,9.7662,-0.5644,-0.6577,9.7683,0.0104,-0.0003,0.0151
44970,46.947178,-1.35301,97.73,32.49,3.216,163.9,14 / 18,4497010,2019-08-09 21:29:05:748,-1.3238,-0.9234,9.8734,-0.5828,-0.6598,9.7671,-0.0105,0.009,0.0245
44971,46.947178,-1.35301,97.73,32.49,3.216,163.9,14 / 18,4497111,2019-08-09 21:29:05:849,-1.5788,-1.1754,9.9763,-0.5702,-0.6711,9.767,0.0036,-0.0405,0.0335
44972,46.947178,-1.35301,97.73,32.49,3.216,163.9,14 / 18,4497211,2019-08-09 21:29:05:949,-2.2073,-1.0689,9.4466,-0.5588,-0.6791,9.7671,0.0063,0.0105,0.02
44973,46.947178,-1.35301,97.73,32.49,3.216,163.9,14 / 18,4497311,2019-08-09 21:29:06:049,-1.498,-1.0354,9.5076,-0.5345,-0.6852,9.7681,-0.0106,-0.0033,0.0332
44974,46.947178,-1.35301,97.73,32.49,3.216,163.9,14 / 18,4497410,2019-08-09 21:29:06:148,-0.8576,-1.0216,9.2413,-0.5204,-0.7107,9.767,-0.017,-0.0329,0.0288
44975,46.947178,-1.35301,97.73,32.49,3.216,163.9,14 / 18,4497510,2019-08-09 21:29:06:248,-0.7337,-1.0605,9.7872,-0.5138,-0.7206,9.7666,-0.0013,0.0236,0.0202
44976,46.947178,-1.35301,97.73,32.49,3.216,163.9,16 / 21,4497610,2019-08-09 21:29:06:348,-0.3554,-1.2185,9.7908,-0.531,-0.7432,9.764,-0.0196,-0.0097,0.0438
44977,46.947178,-1.35301,97.73,32.49,3.216,163.9,16 / 21,4497710,2019-08-09 21:29:06:448,-1.6153,-1.2006,9.9643,-0.5281,-0.759,9.763,-0.0084,0.0123,0.0196
44978,46.947178,-1.35301,97.73,32.49,3.216,163.9,16 / 21,4497810,2019-08-09 21:29:06:548,-0.6014,-0.9408,9.4029,-0.5416,-0.7679,9.7615,0.0087,-0.0115,0.0166
44979,46.947178,-1.35301,97.73,32.49,3.216,163.9,16 / 21,4497911,2019-08-09 21:29:06:649,-0.4224,-0.5865,10.5659,-0.5372,-0.7668,9.7619,-0.0191,-0.0151,0.037
44980,46.947178,-1.35301,97.73,32.49,3.216,163.9,16 / 21,4498010,2019-08-09 21:29:06:748,-1.604,-1.042,9.9943,-0.5526,-0.7815,9.7598,0.0018,-0.0199,0.0167
44981,46.947178,-1.35301,97.73,32.49,3.216,163.9,16 / 21,4498110,2019-08-09 21:29:06:848,-0.9761,-0.8869,9.7369,-0.5446,-0.7783,9.7605,0.0207,0.0231,0.0115
44982,46.947178,-1.35301,97.73,32.49,3.216,163.9,16 / 21,4498210,2019-08-09 21:29:06:948,-1.0222,-0.6559,10.4791,-0.571,-0.7601,9.7605,0.0007,0.0255,0.0131
44983,46.947178,-1.35301,97.73,32.49,3.216,163.9,16 / 21,4498310,2019-08-09 21:29:07:048,0.3419,-0.8343,9.6543,-0.5535,-0.7593,9.7615,-0.0029,-0.0146,0.0298
44984,46.947178,-1.35301,97.73,32.49,3.216,163.9,16 / 21,4498410,2019-08-09 21:29:07:148,0.8435,-0.8229,9.3969,-0.5454,-0.7539,9.7624,0.0189,0.0008,0.016
44985,46.947178,-1.35301,97.73,32.49,3.216,163.9,16 / 21,4498511,2019-08-09 21:29:07:249,-0.1902,-0.8552,10.0434,-0.5589,-0.7473,9.7622,-0.0096,-0.0295,0.0467
44986,46.947178,-1.35301,97.73,32.49,3.216,163.9,15 / 19,4498610,2019-08-09 21:29:07:348,-0.098,-1.0641,9.5011,-0.5456,-0.7563,9.7622,-0.0033,-0.0055,0.0212
44987,46.947178,-1.35301,97.73,32.49,3.216,163.9,15 / 19,4498710,2019-08-09 21:29:07:448,-0.368,-0.6092,9.9637,-0.5459,-0.7571,9.7621,-0.0038,0.0154,0.0267
44988,46.947178,-1.35301,97.73,32.49,3.216,163.9,15 / 19,4498811,2019-08-09 21:29:07:549,-0.3039,-1.1946,9.7141,-0.5546,-0.7622,9.7612,-0.0078,-0.0125,0.035
44989,46.947178,-1.35301,97.73,32.49,3.216,163.9,15 / 19,4498910,2019-08-09 21:29:07:648,-1.0473,-0.9007,9.376,-0.5481,-0.768,9.7612,-0.0003,-0.0108,0.0174
44990,46.947178,-1.35301,97.73,32.49,3.216,163.9,15 / 19,4499010,2019-08-09 21:29:07:748,-0.4571,-0.8049,9.4137,-0.5409,-0.7566,9.7624,0.0127,0.0011,0.0159
44991,46.947178,-1.35301,97.73,32.49,3.216,163.9,15 / 19,4499111,2019-08-09 21:29:07:849,0.1061,-0.3578,10.2002,-0.5372,-0.7542,9.7628,-0.0137,0.0413,0.0058
44992,46.947178,-1.35301,97.73,32.49,3.216,163.9,15 / 19,4499211,2019-08-09 21:29:07:949,-0.2363,-0.8175,10.0266,-0.5622,-0.764,9.7607,0.0018,-0.0047,0.0199
44993,46.947178,-1.35301,97.73,32.49,3.216,163.9,15 / 19,4499311,2019-08-09 21:29:08:049,-0.1656,-0.9635,9.1371,-0.5611,-0.7649,9.7607,0.0092,0.0108,0.0004
44994,46.947178,-1.35301,97.73,32.49,3.216,163.9,15 / 19,4499411,2019-08-09 21:29:08:149,0.1546,-0.4105,9.5986,-0.566,-0.7593,9.7608,-0.0118,-0.0034,0.026
44995,46.947178,-1.35301,97.73,32.49,3.216,163.9,15 / 19,4499510,2019-08-09 21:29:08:248,-0.5415,-0.9115,9.686,-0.5684,-0.7659,9.7602,-0.0033,-0.0198,0.0231
44996,46.947178,-1.35301,97.73,32.49,3.216,163.9,16 / 20,4499610,2019-08-09 21:29:08:348,-0.6666,-0.5667,10.2109,-0.5857,-0.7632,9.7593,-0.0019,-0.009,0.0231
44997,46.947178,-1.35301,97.73,32.49,3.216,163.9,16 / 20,4499710,2019-08-09 21:29:08:448,-0.8204,-0.7169,9.7106,-0.5911,-0.761,9.7592,0.0013,-0.0021,0.0126
44998,46.947178,-1.35301,97.73,32.49,3.216,163.9,16 / 20,4499810,2019-08-09 21:29:08:548,-0.2734,-0.863,8.9402,-0.575,-0.7434,9.7615,0.0141,-0.0055,0.0052
44999,46.947178,-1.35301,97.73,32.49,3.216,163.9,16 / 20,4499911,2019-08-09 21:29:08:649,0.333,-0.4009,9.9176,-0.5781,-0.7399,9.7616,-0.0027,0.0081,0.0127
45000,46.947178,-1.35301,97.73,32.49,3.216,163.9,16 / 20,4500010,2019-08-09 21:29:08:748,0.0989,-0.7792,9.6902,-0.5678,-0.7455,9.7618,-0.0051,0.0026,0.014
45001,46.947178,-1.35301,97.73,32.49,3.216,163.9,16 / 20,4500110,2019-08-09 21:29:08:848,-1.1305,-0.5799,9.9141,-0.5769,-0.7474,9.7611,-0.0045,0.0233,0.004
45002,46.947178,-1.35301,97.73,32.49,3.216,163.9,16 / 20,4500210,2019-08-09 21:29:08:948,-0.3739,-0.6194,9.7417,-0.5958,-0.75,9.7598,-0.0038,0.0192,0.0281
45003,46.947178,-1.35301,97.73,32.49,3.216,163.9,16 / 20,4500310,2019-08-09 21:29:09:048,-0.0717,-0.4189,9.5687,-0.5922,-0.7531,9.7597,-0.0027,-0.0313,-0.0017
45004,46.947178,-1.35301,97.73,32.49,3.216,163.9,16 / 20,4500410,2019-08-09 21:29:09:148,-0.508,-0.6619,9.7381,-0.5945,-0.7481,9.76,0.0004,-0.0062,0.0126
45005,46.947178,-1.35301,97.73,32.49,3.216,163.9,16 / 20,4500510,2019-08-09 21:29:09:248,-0.1106,-0.4907,10.3672,-0.612,-0.7469,9.759,-0.0035,0.0475,0.0031
45006,46.947178,-1.35301,97.73,32.49,3.216,163.9,17 / 21,4500610,2019-08-09 21:29:09:348,-1.0383,-0.8863,9.1772,-0.59,-0.7428,9.7607,0.0151,0.003,0.0225
45007,46.947178,-1.35301,97.73,32.49,3.216,163.9,17 / 21,4500710,2019-08-09 21:29:09:448,-1.4962,-0.7774,9.5184,-0.5741,-0.7306,9.7625,-0.0056,0.0218,-0.0028
45008,46.947178,-1.35301,97.73,32.49,3.216,163.9,17 / 21,4500810,2019-08-09 21:29:09:548,0.3701,-0.277,9.9991,-0.5835,-0.7311,9.7619,-0.0231,-0.0151,0.0412
45009,46.947178,-1.35301,97.73,32.49,3.216,163.9,17 / 21,4500910,2019-08-09 21:29:09:648,-0.9013,-1.1413,9.6028,-0.5805,-0.7515,9.7606,-0.001,0.0029,0.0025
45010,46.947178,-1.35301,97.73,32.49,3.216,163.9,17 / 21,4501011,2019-08-09 21:29:09:749,-1.6949,-0.9306,8.9223,-0.5936,-0.7547,9.7595,0.0063,-0.0177,0.0177
45011,46.947178,-1.35301,97.73,32.49,3.216,163.9,17 / 21,4501110,2019-08-09 21:29:09:848,-0.2249,-0.4416,9.4526,-0.5863,-0.7396,9.7611,0.0031,0.0137,0.002
45012,46.947178,-1.35301,97.73,32.49,3.216,163.9,17 / 21,4501210,2019-08-09 21:29:09:948,-0.5726,-0.5081,10.4977,-0.582,-0.7372,9.7616,-0.0109,0.0217,0.0086
45013,46.947178,-1.35301,97.73,32.49,3.216,163.9,17 / 21,4501310,2019-08-09 21:29:10:048,-0.2117,-0.6679,10.0314,-0.604,-0.7343,9.7605,0.0013,0.0274,0.0115
45014,46.947178,-1.35301,97.73,32.49,3.216,163.9,17 / 21,4501410,2019-08-09 21:29:10:148,-1.2969,-0.6906,9.3496,-0.6044,-0.7321,9.7606,0.0082,-0.0065,0.013
45015,46.947178,-1.35301,97.73,32.49,3.216,163.9,17 / 21,4501510,2019-08-09 21:29:10:248,-0.6876,-0.5248,9.0545,-0.5918,-0.7216,9.7621,0.0002,-0.03,0.0255
45016,46.947178,-1.35301,97.73,32.49,3.216,163.9,15 / 19,4501610,2019-08-09 21:29:10:348,-0.25,-0.4739,9.5992,-0.5994,-0.7204,9.7618,-0.0083,-0.0149,0.0178
45017,46.947178,-1.35301,97.73,32.49,3.216,163.9,15 / 19,4501711,2019-08-09 21:29:10:449,-1.2436,-0.8121,9.3197,-0.5808,-0.7201,9.7629,0.0001,-0.0018,0.0257
45018,46.947178,-1.35301,97.73,32.49,3.216,163.9,15 / 19,4501810,2019-08-09 21:29:10:548,-0.8073,-0.5428,10.1738,-0.5949,-0.7222,9.7619,-0.0019,0.0218,0.014
45019,46.947178,-1.35301,97.73,32.49,3.216,163.9,15 / 19,4501911,2019-08-09 21:29:10:649,-0.2105,-1.0084,9.6543,-0.6107,-0.7301,9.7604,-0.0143,-0.0039,0.036
45020,46.947178,-1.35301,97.73,32.49,3.216,163.9,15 / 19,4502011,2019-08-09 21:29:10:749,-0.8163,-1.1832,9.3831,-0.6092,-0.7352,9.7601,0.0048,0.002,0.0236
45021,46.947178,-1.35301,97.73,32.49,3.216,163.9,15 / 19,4502110,2019-08-09 21:29:10:848,0.2079,-0.6475,9.8901,-0.6209,-0.7346,9.7594,-0.0055,0.0059,0.025
45022,46.947178,-1.35301,97.73,32.49,3.216,163.9,15 / 19,4502210,2019-08-09 21:29:10:948,0.1127,-1.0641,9.446,-0.6163,-0.7416,9.7591,-0.0063,-0.0016,0.0317
45023,46.947178,-1.35301,97.73,32.49,3.216,163.9,15 / 19,4502310,2019-08-09 21:29:11:048,-0.9408,-0.7505,10.123,-0.6286,-0.7552,9.7573,-0.0135,0.017,0.0289
45024,46.947178,-1.35301,97.73,32.49,3.216,163.9,15 / 19,4502410,2019-08-09 21:29:11:148,-0.3931,-1.258,9.3712,-0.6365,-0.7602,9.7564,-0.0011,-0.0651,0.0464
45025,46.947178,-1.35301,97.73,32.49,3.216,163.9,15 / 19,4502510,2019-08-09 21:29:11:248,-1.3358,-1.0665,9.4137,-0.6134,-0.7684,9.7572,-0.0032,0.0107,-0.003
45026,46.947178,-1.35301,97.73,32.49,3.216,163.9,13 / 19,4502610,2019-08-09 21:29:11:348,-0.6804,-0.9893,9.8925,-0.6215,-0.7738,9.7563,-0.0117,0.0122,0.0355
45027,46.947178,-1.35301,97.73,32.49,3.216,163.9,13 / 19,4502710,2019-08-09 21:29:11:448,-0.9563,-1.2568,9.4646,-0.6141,-0.7829,9.756,0.0083,0.0162,-0.0064
45028,46.947178,-1.35301,97.73,32.49,3.216,163.9,13 / 19,4502810,2019-08-09 21:29:11:548,-1.4657,-0.8702,10.0092,-0.6215,-0.7842,9.7555,0.0088,0.0089,0.0275
45029,46.947178,-1.35301,97.73,32.49,3.216,163.9,13 / 19,4502910,2019-08-09 21:29:11:648,-0.6199,-1.1641,9.3389,-0.6227,-0.7814,9.7556,0.0027,-0.0112,0.0191
45030,46.947178,-1.35301,97.73,32.49,3.216,163.9,13 / 19,4503010,2019-08-09 21:29:11:748,-0.6068,-0.7858,9.7536,-0.6305,-0.7837,9.7549,0.0071,0.0152,-0.006
45031,46.947178,-1.35301,97.73,32.49,3.216,163.9,13 / 19,4503110,2019-08-09 21:29:11:848,-0.0046,-0.6936,9.7477,-0.6296,-0.779,9.7554,0.0033,-0.0013,0.0225
45032,46.947178,-1.35301,97.73,32.49,3.216,163.9,13 / 19,4503211,2019-08-09 21:29:11:949,0.7077,-0.6038,9.7764,-0.6299,-0.7757,9.7556,0.0035,-0.0246,0.0168
45033,46.947178,-1.35301,97.73,32.49,3.216,163.9,13 / 19,4503310,2019-08-09 21:29:12:048,-0.936,-0.8396,9.1599,-0.6087,-0.767,9.7576,0.0082,-0.0233,0.0303
45034,46.947178,-1.35301,97.73,32.49,3.216,163.9,13 / 19,4503410,2019-08-09 21:29:12:148,-0.1626,-0.4835,9.8967,-0.6197,-0.7639,9.7572,0.0077,0.0235,-0.006
45035,46.947178,-1.35301,97.73,32.49,3.216,163.9,13 / 19,4503510,2019-08-09 21:29:12:248,-0.8306,-0.8887,9.874,-0.6273,-0.7665,9.7565,-0.0121,-0.0112,0.0225
45036,46.947178,-1.35301,97.73,32.49,3.216,163.9,15 / 21,4503610,2019-08-09 21:29:12:348,-0.0483,-0.6918,10.3306,-0.6479,-0.7718,9.7547,-0.0085,0.0318,0.0141
45037,46.947178,-1.35301,97.73,32.49,3.216,163.9,15 / 21,4503711,2019-08-09 21:29:12:449,0.3168,-1.0635,9.297,-0.6159,-0.7679,9.7571,0.0109,-0.0251,0.0418
45038,46.947178,-1.35301,97.73,32.49,3.216,163.9,15 / 21,4503810,2019-08-09 21:29:12:548,0.4359,-0.4871,10.0852,-0.6307,-0.7629,9.7566,0.0014,-0.0105,0.0222
45039,46.947178,-1.35301,97.73,32.49,3.216,163.9,15 / 21,4503910,2019-08-09 21:29:12:648,-1.0443,-0.5434,10.1068,-0.6258,-0.7574,9.7573,-0.0139,0.024,0.0136
45040,46.947178,-1.35301,97.73,32.49,3.216,163.9,15 / 21,4504010,2019-08-09 21:29:12:748,-1.1131,-1.0186,9.4191,-0.6186,-0.7647,9.7572,0.009,0.0166,0.0131
45041,46.947178,-1.35301,97.73,32.49,3.216,163.9,15 / 21,4504110,2019-08-09 21:29:12:848,-0.9072,-0.5859,10.0128,-0.6327,-0.7597,9.7567,-0.0027,0.0087,0.0105
45042,46.947178,-1.35301,97.73,32.49,3.216,163.9,15 / 21,4504210,2019-08-09 21:29:12:948,-0.2153,-0.8714,9.8279,-0.6326,-0.765,9.7563,-0.0089,0.0113,-0.0004
45043,46.947178,-1.35301,97.73,32.49,3.216,163.9,15 / 21,4504310,2019-08-09 21:29:13:048,-0.6696,-0.7391,9.5029,-0.6344,-0.77,9.7558,0.0001,-0.0323,0.0222
45044,46.947178,-1.35301,97.73,32.49,3.216,163.9,15 / 21,4504410,2019-08-09 21:29:13:148,-1.7871,-0.6038,9.674,-0.6201,-0.7669,9.7569,0.0059,-0.0096,0.0067
45045,46.947178,-1.35301,97.73,32.49,3.216,163.9,15 / 21,4504510,2019-08-09 21:29:13:248,0.2408,-0.4362,10.4857,-0.6407,-0.7649,9.7558,-0.0087,0.035,0.0058
45046,46.94474,-1.351629,98.96,32.2,3.216,154.9,15 / 21,4504610,2019-08-09 21:29:13:348,-0.6158,-0.7918,9.4855,-0.631,-0.7714,9.7559,-0.0008,-0.0077,0.0226
45047,46.94474,-1.351629,98.96,32.2,3.216,154.9,15 / 21,4504710,2019-08-09 21:29:13:448,-0.9276,-0.6134,10.0116,-0.6207,-0.7689,9.7567,0.0024,0.0148,0.0107
45048,46.94474,-1.351629,98.96,32.2,3.216,154.9,15 / 21,4504810,2019-08-09 21:29:13:548,-0.5918,-0.3399,10.3791,-0.6583,-0.7618,9.7548,-0.0098,0.013,0.0231
45049,46.94474,-1.351629,98.96,32.2,3.216,154.9,15 / 21,4504910,2019-08-09 21:29:13:648,-1.6363,-1.0809,9.2227,-0.6449,-0.7646,9.7555,-0.0065,-0.0281,0.0225
45050,46.94474,-1.351629,98.96,32.2,3.216,154.9,15 / 21,4505010,2019-08-09 21:29:13:748,-1.6171,-0.4548,9.8315,-0.6352,-0.7508,9.7572,0.0112,0.0347,0.0026
45051,46.94474,-1.351629,98.96,32.2,3.216,154.9,15 / 21,4505110,2019-08-09 21:29:13:848,0.4359,-0.5182,9.7501,-0.6363,-0.7447,9.7576,-0.0067,-0.0292,0.0221
45052,46.94474,-1.351629,98.96,32.2,3.216,154.9,15 / 21,4505210,2019-08-09 21:29:13:948,-0.2057,-0.7211,9.5591,-0.6325,-0.7591,9.7567,-0.0065,0.0119,0.0094
45053,46.94474,-1.351629,98.96,32.2,3.216,154.9,15 / 21,4505310,2019-08-09 21:29:14:048,-0.4027,-0.7038,9.2796,-0.6396,-0.7558,9.7565,0.0022,-0.0155,0.0191
45054,46.94474,-1.351629,98.96,32.2,3.216,154.9,15 / 21,4505410,2019-08-09 21:29:14:148,-1.2628,-0.602,9.4717,-0.6304,-0.7555,9.7572,-0.0021,-0.0054,0.0129
45055,46.94474,-1.351629,98.96,32.2,3.216,154.9,15 / 21,4505510,2019-08-09 21:29:14:248,-0.4063,-0.6463,9.8171,-0.6369,-0.7582,9.7565,-0.0072,0.0053,0.0276
45056,46.94474,-1.351629,98.96,32.2,3.216,154.9,15 / 21,4505612,2019-08-09 21:29:14:350,0.5,-0.696,9.5304,-0.6337,-0.759,9.7567,0.0046,-0.0213,0.01
45057,46.94474,-1.351629,98.96,32.2,3.216,154.9,15 / 21,4505711,2019-08-09 21:29:14:449,-1.3065,-0.7116,9.7818,-0.6469,-0.7497,9.7565,0.0164,0.0217,0.0147
45058,46.94474,-1.351629,98.96,32.2,3.216,154.9,15 / 21,4505811,2019-08-09 21:29:14:549,-0.5816,-0.5649,9.868,-0.6478,-0.7455,9.7568,0.0016,-0.0161,0.0412
45059,46.94474,-1.351629,98.96,32.2,3.216,154.9,15 / 21,4505910,2019-08-09 21:29:14:648,-0.3213,-0.55,9.6495,-0.6444,-0.7418,9.7573,0.0042,0.0035,-0.0043
45060,46.94474,-1.351629,98.96,32.2,3.216,154.9,15 / 21,4506010,2019-08-09 21:29:14:748,-0.5906,-0.772,9.5352,-0.6558,-0.736,9.757,0.0035,-0.0093,0.0333
45061,46.94474,-1.351629,98.96,32.2,3.216,154.9,15 / 21,4506110,2019-08-09 21:29:14:848,0.1935,-0.8899,9.6417,-0.6404,-0.7328,9.7582,0.0041,0.0212,0.0133
45062,46.94474,-1.351629,98.96,32.2,3.216,154.9,15 / 21,4506210,2019-08-09 21:29:14:948,-0.4051,-0.9977,9.4185,-0.6453,-0.7355,9.7577,-0.0024,-0.0009,0.0096
45063,46.94474,-1.351629,98.96,32.2,3.216,154.9,15 / 21,4506310,2019-08-09 21:29:15:048,-0.0112,-1.0695,9.4622,-0.6407,-0.736,9.758,0.0063,-0.011,0.0368
45064,46.94474,-1.351629,98.96,32.2,3.216,154.9,15 / 21,4506411,2019-08-09 21:29:15:149,-0.7133,-0.7403,9.9991,-0.6477,-0.7378,9.7574,-0.0072,0.0055,0.0135
45065,46.94474,-1.351629,98.96,32.2,3.216,154.9,15 / 21,4506510,2019-08-09 21:29:15:248,-1.0126,-0.8169,10.3468,-0.6592,-0.7445,9.7561,-0.0099,0.0094,0.0255
45066,46.94474,-1.351629,98.96,32.2,3.216,154.9,14 / 20,4506611,2019-08-09 21:29:15:349,-0.2237,-1.0486,9.929,-0.6557,-0.7411,9.7566,0.0172,0.0349,0.0354
45067,46.94474,-1.351629,98.96,32.2,3.216,154.9,14 / 20,4506711,2019-08-09 21:29:15:449,-0.9246,-0.2291,9.4807,-0.6497,-0.7449,9.7567,-0.0067,0.0223,-0.0172
45068,46.94474,-1.351629,98.96,32.2,3.216,154.9,14 / 20,4506811,2019-08-09 21:29:15:549,0.4958,-1.0031,9.7135,-0.669,-0.7577,9.7544,-0.012,0.0366,0.0288
45069,46.94474,-1.351629,98.96,32.2,3.216,154.9,14 / 20,4506910,2019-08-09 21:29:15:648,-0.2428,-0.9899,9.6417,-0.6537,-0.7636,9.755,0.0071,0.004,0.0079
45070,46.94474,-1.351629,98.96,32.2,3.216,154.9,14 / 20,4507011,2019-08-09 21:29:15:749,-0.4841,-0.605,9.5418,-0.6654,-0.7546,9.7549,0.0061,0.0145,0.0184
45071,46.94474,-1.351629,98.96,32.2,3.216,154.9,14 / 20,4507110,2019-08-09 21:29:15:848,-0.4931,-0.8361,9.7824,-0.664,-0.7526,9.7552,0.001,-0.0106,0.0152
45072,46.94474,-1.351629,98.96,32.2,3.216,154.9,14 / 20,4507210,2019-08-09 21:29:15:948,-1.0868,-0.629,9.4987,-0.6689,-0.7487,9.7551,0.0105,-0.0242,0.0117
45073,46.94474,-1.351629,98.96,32.2,3.216,154.9,14 / 20,4507310,2019-08-09 21:29:16:048,-0.7654,-0.6709,9.4095,-0.6577,-0.7367,9.7568,0.008,0.0003,0.01
45074,46.94474,-1.351629,98.96,32.2,3.216,154.9,14 / 20,4507410,2019-08-09 21:29:16:148,-0.6966,-0.787,9.6459,-0.6556,-0.7327,9.7572,-0.0074,0.0014,0.0254
45075,46.94474,-1.351629,98.96,32.2,3.216,154.9,14 / 20,4507510,2019-08-09 21:29:16:248,-1.847,-0.4739,9.9147,-0.6619,-0.7437,9.756,-0.0201,0.0185,0.0156
45076,46.94474,-1.351629,98.96,32.2,3.216,154.9,13 / 19,4507611,2019-08-09 21:29:16:349,0.248,-0.6619,9.6315,-0.6582,-0.7542,9.7554,-0.0226,-0.0345,0.0183
45077,46.94474,-1.351629,98.96,32.2,3.216,154.9,13 / 19,4507710,2019-08-09 21:29:16:448,0.2043,-0.6367,9.929,-0.6664,-0.7711,9.7536,-0.0013,0.0032,0.0216
45078,46.94474,-1.351629,98.96,32.2,3.216,154.9,13 / 19,4507810,2019-08-09 21:29:16:548,-0.778,-0.5368,10.2469,-0.6735,-0.768,9.7533,-0.0002,0.0155,0.0053
45079,46.94474,-1.351629,98.96,32.2,3.216,154.9,13 / 19,4507910,2019-08-09 21:29:16:648,-0.2446,-0.7648,10.2929,-0.6971,-0.7696,9.7515,-0.0109,0.0135,0.008
45080,46.94474,-1.351629,98.96,32.2,3.216,154.9,13 / 19,4508010,2019-08-09 21:29:16:748,-0.5242,-0.7146,9.6549,-0.6949,-0.7711,9.7516,0.0022,-0.0065,0.0193
45081,46.94474,-1.351629,98.96,32.2,3.216,154.9,13 / 19,4508110,2019-08-09 21:29:16:848,-0.8324,-0.5374,9.8482,-0.701,-0.7639,9.7517,0.003,0.0028,0.0046
45082,46.94474,-1.351629,98.96,32.2,3.216,154.9,13 / 19,4508211,2019-08-09 21:29:16:949,-0.3446,-0.793,9.6118,-0.6947,-0.7607,9.7524,-0.0006,-0.0204,0.0322
45083,46.94474,-1.351629,98.96,32.2,3.216,154.9,13 / 19,4508311,2019-08-09 21:29:17:049,-1.9038,-0.7056,9.5873,-0.6892,-0.7598,9.7528,-0.0032,0.0056,0.0077
45084,46.94474,-1.351629,98.96,32.2,3.216,154.9,13 / 19,4508410,2019-08-09 21:29:17:148,-1.3819,-0.9324,9.0857,-0.6931,-0.758,9.7527,0.0016,-0.0075,0.0204
45085,46.94474,-1.351629,98.96,32.2,3.216,154.9,13 / 19,4508510,2019-08-09 21:29:17:248,-0.1692,-0.6559,9.9667,-0.6878,-0.7598,9.7529,-0.0164,0.0355,0.0066
45086,46.94474,-1.351629,98.96,32.2,3.216,154.9,15 / 21,4508610,2019-08-09 21:29:17:348,-1.1975,-0.5679,10.4222,-0.6968,-0.7647,9.7519,-0.0164,0.0355,0.0066
45087,46.94474,-1.351629,98.96,32.2,3.216,154.9,15 / 21,4508710,2019-08-09 21:29:17:448,-0.6876,-0.9504,9.6974,-0.7048,-0.7861,9.7497,-0.01,0.0045,0.0293
45088,46.94474,-1.351629,98.96,32.2,3.216,154.9,15 / 21,4508810,2019-08-09 21:29:17:548,-0.247,-0.7589,10.1319,-0.71,-0.7868,9.7492,-0.0007,0.0258,0.0131
45089,46.94474,-1.351629,98.96,32.2,3.216,154.9,15 / 21,4508910,2019-08-09 21:29:17:648,-0.4883,-0.9564,10.0182,-0.7291,-0.7891,9.7476,-0.0023,0.0015,0.0223
45090,46.94474,-1.351629,98.96,32.2,3.216,154.9,15 / 21,4509010,2019-08-09 21:29:17:748,-0.0423,-0.9019,9.7662,-0.7196,-0.7874,9.7485,0.0064,0.0027,0.0136
45091,46.94474,-1.351629,98.96,32.2,3.216,154.9,15 / 21,4509110,2019-08-09 21:29:17:848,0.0558,-0.6182,10.2415,-0.7343,-0.7859,9.7475,-0.0124,-0.0255,0.015
45092,46.94474,-1.351629,98.96,32.2,3.216,154.9,15 / 21,4509210,2019-08-09 21:29:17:948,-0.9779,-1.1096,9.5878,-0.7287,-0.7955,9.7471,-0.0091,0.0297,0.0308
45093,46.94474,-1.351629,98.96,32.2,3.216,154.9,15 / 21,4509310,2019-08-09 21:29:18:048,-0.505,-1.0683,9.4023,-0.7194,-0.8055,9.747,-0.0052,0.0226,0.0217
45094,46.94474,-1.351629,98.96,32.2,3.216,154.9,15 / 21,4509410,2019-08-09 21:29:18:148,-0.1848,-1.182,9.9015,-0.7234,-0.815,9.7459,-0.0077,0.0003,0.0359
45095,46.94474,-1.351629,98.96,32.2,3.216,154.9,15 / 21,4509510,2019-08-09 21:29:18:248,-0.8737,-1.0384,9.9919,-0.7398,-0.8301,9.7434,-0.011,0.0109,0.0295
45096,46.94474,-1.351629,98.96,32.2,3.216,154.9,14 / 20,4509610,2019-08-09 21:29:18:348,-0.5373,-1.1018,10.0242,-0.7411,-0.839,9.7425,-0.0101,0.0086,0.0332
45097,46.94474,-1.351629,98.96,32.2,3.216,154.9,14 / 20,4509711,2019-08-09 21:29:18:449,-0.7432,-1.1814,9.6645,-0.7447,-0.8527,9.7411,0.0022,-0.0012,0.0271
45098,46.94474,-1.351629,98.96,32.2,3.216,154.9,14 / 20,4509810,2019-08-09 21:29:18:548,-0.0603,-1.1952,9.3963,-0.7304,-0.8549,9.742,0.0036,-0.0189,0.0301
45099,46.94474,-1.351629,98.96,32.2,3.216,154.9,14 / 20,4509910,2019-08-09 21:29:18:648,0.3288,-1.0755,10.0176,-0.7389,-0.8647,9.7405,-0.0074,-0.0071,0.0213
45100,46.94474,-1.351629,98.96,32.2,3.216,154.9,14 / 20,4510010,2019-08-09 21:29:18:748,-0.9647,-1.2317,9.7507,-0.736,-0.8726,9.74,-0.0057,-0.02,0.0169
45101,46.94474,-1.351629,98.96,32.2,3.216,154.9,14 / 20,4510111,2019-08-09 21:29:18:849,0.0714,-1.1659,9.5693,-0.7335,-0.8788,9.7396,0.0059,0.004,0.0236
45102,46.94474,-1.351629,98.96,32.2,3.216,154.9,14 / 20,4510211,2019-08-09 21:29:18:949,-0.3889,-0.942,10.4408,-0.7547,-0.8797,9.7379,0.0028,0.0314,0.0166
45103,46.94474,-1.351629,98.96,32.2,3.216,154.9,14 / 20,4510310,2019-08-09 21:29:19:048,-1.3615,-1.3969,9.8428,-0.7533,-0.8878,9.7373,-0.0073,-0.0172,0.0391
45104,46.94474,-1.351629,98.96,32.2,3.216,154.9,14 / 20,4510410,2019-08-09 21:29:19:148,0.2749,-1.1671,9.4286,-0.7499,-0.8908,9.7373,0.0059,0.0034,0.0231
45105,46.94474,-1.351629,98.96,32.2,3.216,154.9,14 / 20,4510510,2019-08-09 21:29:19:248,-0.9444,-0.9863,9.7351,-0.7438,-0.8862,9.7387,0.0059,0.0065,0.0244
45106,46.94474,-1.351629,98.96,32.2,3.216,154.9,15 / 20,4510610,2019-08-09 21:29:19:348,-1.501,-1.0491,9.5873,-0.735,-0.8807,9.7393,-0.0094,0.0325,0.0161
45107,46.94474,-1.351629,98.96,32.2,3.216,154.9,15 / 20,4510710,2019-08-09 21:29:19:448,0.4257,-0.9103,9.862,-0.7499,-0.887,9.7376,-0.0019,-0.0253,0.0277
45108,46.94474,-1.351629,98.96,32.2,3.216,154.9,15 / 20,4510810,2019-08-09 21:29:19:548,-0.8677,-0.8588,10.1343,-0.7589,-0.8854,9.7371,0.0034,-0.0166,0.0124
45109,46.94474,-1.351629,98.96,32.2,3.216,154.9,15 / 20,4510911,2019-08-09 21:29:19:649,-0.6965,-0.9462,9.4903,-0.7516,-0.8811,9.738,0.0026,-0.006,0.0139
45110,46.94474,-1.351629,98.96,32.2,3.216,154.9,15 / 20,4511010,2019-08-09 21:29:19:748,-1.0539,-0.9522,9.6118,-0.7497,-0.8697,9.7392,0.0131,-0.0047,0.0094
45111,46.94474,-1.351629,98.96,32.2,3.216,154.9,15 / 20,4511110,2019-08-09 21:29:19:848,-0.8917,-0.6535,9.6567,-0.7431,-0.8593,9.7406,0.0042,-0.0056,0.003
45112,46.94474,-1.351629,98.96,32.2,3.216,154.9,15 / 20,4511210,2019-08-09 21:29:19:948,-0.7498,-0.9097,9.8458,-0.7479,-0.8496,9.7411,-0.0023,0.0151,0.0122
