,GPS LATITUDE (degrees),GPS LONGITUDE (degrees), GPS ALTITUDE (m),GPS SPEED (Kmh),GPS ACCURACY (m),GPS ORIENTATION (Â°), SATELLITES IN RANGE, TIME SINCE START (ms), DATE (YYYY-MO-DD HH-MI-SS_SSS),ACCELEROMETER X (m/s²) , ACCELEROMETER Y (m/s²), ACCELEROMETER Z (m/s²), GRAVITY X (m/s²), GRAVITY Y (m/s²), GRAVITY Z (m/s²), GYROSCOPE Yaw (rad/s), GYROSCOPE Pitch (rad/s), GYROSCOPE Roll (rad/s)
53700,45.70727,0.083862,149.58,20.72,3.216,120.1,15 / 19,5370010,2019-08-10 00:04:47:237,0.5215,-0.4523,9.0934,0.5346,-0.5737,9.7752,0.0119,-0.018,0.0009
53701,45.70727,0.083862,149.58,20.72,3.216,120.1,15 / 19,5370110,2019-08-10 00:04:47:337,0.8046,-0.517,9.6357,0.5311,-0.5766,9.7753,-0.0158,-0.0071,-0.0169
53702,45.70727,0.083862,149.58,20.72,3.216,120.1,15 / 19,5370210,2019-08-10 00:04:47:437,0.7375,-0.3165,10.5569,0.5118,-0.5852,9.7758,-0.0065,-0.0148,0.0069
53703,45.70727,0.083862,149.58,20.72,3.216,120.1,15 / 19,5370310,2019-08-10 00:04:47:537,0.1713,-1.0347,10.0727,0.5045,-0.612,9.7745,0.0337,-0.0005,0.0072
53704,45.70727,0.083862,149.58,20.72,3.216,120.1,15 / 19,5370410,2019-08-10 00:04:47:637,0.4287,-1.4902,9.8111,0.5192,-0.6236,9.773,0.0273,0.0232,-0.004
53705,45.70727,0.083862,149.58,20.72,3.216,120.1,15 / 19,5370510,2019-08-10 00:04:47:737,0.9351,0.1779,9.7453,0.5281,-0.6361,9.7717,-0.0204,0.0065,-0.0195
53706,45.70727,0.083862,149.58,20.72,3.216,120.1,14 / 19,5370610,2019-08-10 00:04:47:837,0.9901,-0.1058,9.8752,0.5368,-0.6288,9.7717,0.0532,-0.0001,-0.0356
53707,45.70727,0.083862,149.58,20.72,3.216,120.1,14 / 19,5370710,2019-08-10 00:04:47:937,0.3503,-1.1969,9.8368,0.5338,-0.6044,9.7734,0.0157,-0.0078,0.0223
53708,45.70727,0.083862,149.58,20.72,3.216,120.1,14 / 19,5370810,2019-08-10 00:04:48:037,0.0313,-0.6582,9.0456,0.5236,-0.6143,9.7734,0.0034,0.0022,-0.0253
53709,45.70727,0.083862,149.58,20.72,3.216,120.1,14 / 19,5370910,2019-08-10 00:04:48:137,0.4819,-0.3961,10.1505,0.5234,-0.6301,9.7724,0.005,-0.0145,-0.0094
53710,45.70727,0.083862,149.58,20.72,3.216,120.1,14 / 19,5371010,2019-08-10 00:04:48:237,0.2587,-0.3554,10.09,0.5039,-0.6477,9.7723,0.0174,-0.0213,0.0073
53711,45.70727,0.083862,149.58,20.72,3.216,120.1,14 / 19,5371110,2019-08-10 00:04:48:337,-0.052,-0.6199,9.4699,0.4855,-0.6705,9.7716,-0.009,0.0021,0.0277
53712,45.70727,0.083862,149.58,20.72,3.216,120.1,14 / 19,5371210,2019-08-10 00:04:48:437,0.6436,-1.0012,9.9913,0.4823,-0.6728,9.7716,-0.0702,0.0188,0.0496
53713,45.70727,0.083862,149.58,20.72,3.216,120.1,14 / 19,5371310,2019-08-10 00:04:48:537,0.3551,-0.2542,9.7896,0.4802,-0.669,9.772,0.0196,0.0229,0.0014
53714,45.70727,0.083862,149.58,20.72,3.216,120.1,14 / 19,5371411,2019-08-10 00:04:48:638,0.5783,-1.2807,10.6587,0.5089,-0.6759,9.7701,-0.0199,0.0175,0.0184
53715,45.70727,0.083862,149.58,20.72,3.216,120.1,14 / 19,5371511,2019-08-10 00:04:48:738,0.2569,0.1175,8.8337,0.5159,-0.6151,9.7737,0.0049,0.0055,0.0049
53716,45.70727,0.083862,149.58,20.72,3.216,120.1,15 / 19,5371611,2019-08-10 00:04:48:838,0.4137,-0.836,9.2706,0.518,-0.6457,9.7717,-0.0166,0.0048,0.0249
53717,45.70727,0.083862,149.58,20.72,3.216,120.1,15 / 19,5371710,2019-08-10 00:04:48:937,0.5376,-0.3171,9.4646,0.5176,-0.663,9.7705,0.0179,0.0083,0.0096
53718,45.70727,0.083862,149.58,20.72,3.216,120.1,15 / 19,5371810,2019-08-10 00:04:49:037,-0.1364,-1.3771,9.4969,0.5194,-0.6452,9.7716,-0.0208,0.0106,0.0019
53719,45.70727,0.083862,149.58,20.72,3.216,120.1,15 / 19,5371910,2019-08-10 00:04:49:137,0.9021,-0.9581,10.5713,0.5206,-0.6675,9.77,0.0473,-0.0052,-0.0113
53720,45.70727,0.083862,149.58,20.72,3.216,120.1,15 / 19,5372010,2019-08-10 00:04:49:237,0.212,-0.8085,8.693,0.5129,-0.6459,9.7719,-0.0049,0.0074,-0.0116
53721,45.70727,0.083862,149.58,20.72,3.216,120.1,15 / 19,5372111,2019-08-10 00:04:49:338,1.1936,-1.1305,10.26,0.5042,-0.664,9.7711,0.0241,-0.0164,-0.0059
53722,45.70727,0.083862,149.58,20.72,3.216,120.1,15 / 19,5372211,2019-08-10 00:04:49:438,0.7304,-0.8875,9.4185,0.4955,-0.6051,9.7754,0.0899,-0.0179,-0.0833
53723,45.70727,0.083862,149.58,20.72,3.216,120.1,15 / 19,5372310,2019-08-10 00:04:49:537,-0.2818,-0.5086,8.523,0.4946,-0.5634,9.778,0.1563,-0.0044,-0.1435
53724,45.70727,0.083862,149.58,20.72,3.216,120.1,15 / 19,5372410,2019-08-10 00:04:49:637,0.886,-1.4435,11.1626,0.482,-0.6575,9.7727,-0.0815,0.0168,0.0798
53725,45.70727,0.083862,149.58,20.72,3.216,120.1,15 / 19,5372510,2019-08-10 00:04:49:737,0.4017,-0.6032,10.6604,0.5,-0.6749,9.7706,0.0881,0.0046,-0.0335
53726,45.70727,0.083862,149.58,20.72,3.216,120.1,15 / 19,5372610,2019-08-10 00:04:49:837,0.2785,-0.8169,9.6489,0.5034,-0.6658,9.7711,0.0055,0.0154,0.0234
53727,45.70727,0.083862,149.58,20.72,3.216,120.1,15 / 19,5372710,2019-08-10 00:04:49:937,0.8866,-0.6098,10.2199,0.519,-0.7056,9.7675,-0.0083,-0.002,0.0094
53728,45.70727,0.083862,149.58,20.72,3.216,120.1,15 / 19,5372810,2019-08-10 00:04:50:037,0.728,-0.426,9.9572,0.5215,-0.693,9.7682,0.0459,-0.0086,-0.0146
53729,45.70727,0.083862,149.58,20.72,3.216,120.1,15 / 19,5372910,2019-08-10 00:04:50:137,0.13,-1.5345,9.0001,0.5086,-0.7104,9.7677,-0.0169,-0.0064,0.0079
53730,45.70727,0.083862,149.58,20.72,3.216,120.1,15 / 19,5373010,2019-08-10 00:04:50:237,0.6184,-0.8719,9.9745,0.5025,-0.7387,9.7659,0.0291,0.0033,-0.03
53731,45.70727,0.083862,149.58,20.72,3.216,120.1,15 / 19,5373110,2019-08-10 00:04:50:337,0.5125,-0.6457,10.1469,0.5023,-0.7468,9.7653,-0.0024,-0.019,0.0023
53732,45.70727,0.083862,149.58,20.72,3.216,120.1,15 / 19,5373210,2019-08-10 00:04:50:437,0.4933,-0.6594,9.5011,0.4891,-0.7245,9.7676,-0.0099,-0.0126,-0.0019
53733,45.70727,0.083862,149.58,20.72,3.216,120.1,15 / 19,5373310,2019-08-10 00:04:50:537,0.6597,-1.0287,9.4472,0.4631,-0.7253,9.7688,0.0038,-0.0339,-0.0086
53734,45.70727,0.083862,149.58,20.72,3.216,120.1,15 / 19,5373410,2019-08-10 00:04:50:637,0.4119,-1.5034,9.619,0.4428,-0.7451,9.7683,0.0012,-0.0471,0.0176
53735,45.70727,0.083862,149.58,20.72,3.216,120.1,15 / 19,5373510,2019-08-10 00:04:50:737,0.8974,-0.4625,9.9919,0.4035,-0.7368,9.7706,0.0369,-0.0136,-0.0615
53736,45.70727,0.083862,149.58,20.72,3.216,120.1,15 / 19,5373610,2019-08-10 00:04:50:837,0.0869,-0.283,9.5549,0.4049,-0.7194,9.7718,-0.0176,-0.0096,0.0292
53737,45.70727,0.083862,149.58,20.72,3.216,120.1,15 / 19,5373711,2019-08-10 00:04:50:938,0.394,-0.9743,9.6465,0.383,-0.7288,9.772,-0.0223,-0.0096,0.0044
53738,45.70727,0.083862,149.58,20.72,3.216,120.1,15 / 19,5373810,2019-08-10 00:04:51:037,0.8542,-0.7187,10.4456,0.3814,-0.7246,9.7724,0.0156,-0.0103,0.0025
53739,45.70727,0.083862,149.58,20.72,3.216,120.1,15 / 19,5373910,2019-08-10 00:04:51:137,0.6549,-0.8881,10.0284,0.3672,-0.7655,9.7698,0.0294,-0.0215,-0.0076
53740,45.70727,0.083862,149.58,20.72,3.216,120.1,15 / 19,5374010,2019-08-10 00:04:51:237,0.5681,-1.2323,9.2012,0.3626,-0.7581,9.7706,0.0194,0.003,0.0061
53741,45.70727,0.083862,149.58,20.72,3.216,120.1,15 / 19,5374110,2019-08-10 00:04:51:337,0.209,-1.0443,9.3143,0.3664,-0.7533,9.7708,-0.0408,-0.0031,0.0002
53742,45.70727,0.083862,149.58,20.72,3.216,120.1,15 / 19,5374211,2019-08-10 00:04:51:438,1.1475,-1.3903,10.0188,0.3566,-0.7625,9.7705,0.0137,-0.0201,-0.049
53743,45.70727,0.083862,149.58,20.72,3.216,120.1,15 / 19,5374311,2019-08-10 00:04:51:538,0.5783,-1.9523,9.9057,0.3503,-0.7565,9.7711,-0.0282,0.0142,-0.0176
53744,45.70727,0.083862,149.58,20.72,3.216,120.1,15 / 19,5374411,2019-08-10 00:04:51:638,1.0745,-1.7722,10.6323,0.3583,-0.7747,9.7694,0.0248,-0.0014,-0.0274
53745,45.70727,0.083862,149.58,20.72,3.216,120.1,15 / 19,5374511,2019-08-10 00:04:51:738,-0.2112,0.0522,9.0881,0.3768,-0.7585,9.77,-0.0129,0.0201,-0.0748
53746,45.70727,0.083862,149.58,20.72,3.216,120.1,15 / 19,5374610,2019-08-10 00:04:51:837,0.5795,-0.9276,9.9081,0.3995,-0.7776,9.7676,0.0259,0.0248,0.0115
53747,45.70727,0.083862,149.58,20.72,3.216,120.1,15 / 19,5374710,2019-08-10 00:04:51:937,0.5053,-1.0299,10.0374,0.4192,-0.7859,9.7661,0.0444,-0.0046,-0.0544
53748,45.70727,0.083862,149.58,20.72,3.216,120.1,15 / 19,5374810,2019-08-10 00:04:52:037,0.9129,-0.8594,10.0326,0.4244,-0.7973,9.765,-0.0217,-0.0004,0.0153
53749,45.70727,0.083862,149.58,20.72,3.216,120.1,15 / 19,5374910,2019-08-10 00:04:52:137,0.2557,-0.7115,9.464,0.4196,-0.8166,9.7636,0.0277,-0.0018,-0.0116
53750,45.70727,0.083862,149.58,20.72,3.216,120.1,15 / 19,5375010,2019-08-10 00:04:52:237,0.8788,-0.9934,10.6599,0.4151,-0.8487,9.761,0.0433,-0.0191,-0.0219
53751,45.70727,0.083862,149.58,20.72,3.216,120.1,15 / 19,5375110,2019-08-10 00:04:52:337,0.4556,-1.8188,9.8883,0.405,-0.8556,9.7609,0.0567,0.0056,-0.0188
53752,45.70727,0.083862,149.58,20.72,3.216,120.1,15 / 19,5375210,2019-08-10 00:04:52:437,0.862,-1.1904,9.7076,0.4136,-0.8575,9.7603,-0.0209,0.003,-0.0395
53753,45.70727,0.083862,149.58,20.72,3.216,120.1,15 / 19,5375311,2019-08-10 00:04:52:538,0.2617,-1.9529,8.9414,0.4235,-0.8604,9.7596,0.0228,0.0197,-0.0304
53754,45.70727,0.083862,149.58,20.72,3.216,120.1,15 / 19,5375411,2019-08-10 00:04:52:638,0.2282,0.2408,9.0372,0.4425,-0.8358,9.7609,0.0188,0.0273,-0.0068
53755,45.70727,0.083862,149.58,20.72,3.216,120.1,15 / 19,5375510,2019-08-10 00:04:52:737,0.6902,-1.6836,9.2964,0.4622,-0.8399,9.7597,0.0188,0.0273,-0.0068
53756,45.706448,0.085909,146.28,20.88,3.216,120.2,15 / 19,5375610,2019-08-10 00:04:52:837,0.9776,-0.7606,9.2497,0.4742,-0.7989,9.7626,-0.0262,0.0092,-0.0409
53757,45.706448,0.085909,146.28,20.88,3.216,120.2,15 / 19,5375710,2019-08-10 00:04:52:937,0.7363,-0.8995,9.9913,0.4893,-0.8028,9.7615,0.019,-0.004,-0.0154
53758,45.706448,0.085909,146.28,20.88,3.216,120.2,15 / 19,5375810,2019-08-10 00:04:53:037,-0.1376,-1.1377,9.865,0.4921,-0.817,9.7602,-0.0035,0.0177,0.0331
53759,45.706448,0.085909,146.28,20.88,3.216,120.2,15 / 19,5375910,2019-08-10 00:04:53:137,-0.0514,-1.0156,9.7997,0.5043,-0.8412,9.7575,0.0115,0.0423,0.0188
53760,45.706448,0.085909,146.28,20.88,3.216,120.2,15 / 19,5376010,2019-08-10 00:04:53:237,-0.1034,-0.7654,9.1689,0.5494,-0.8486,9.7544,-0.036,0.0307,0.0021
53761,45.706448,0.085909,146.28,20.88,3.216,120.2,15 / 19,5376110,2019-08-10 00:04:53:337,0.4562,-1.5639,9.1928,0.559,-0.8459,9.7541,-0.0186,0.0348,0.0124
53762,45.706448,0.085909,146.28,20.88,3.216,120.2,15 / 19,5376210,2019-08-10 00:04:53:437,0.6681,-1.2921,9.8045,0.5841,-0.8273,9.7542,-0.0049,-0.0193,0.0008
53763,45.706448,0.085909,146.28,20.88,3.216,120.2,15 / 19,5376310,2019-08-10 00:04:53:537,-0.2716,-0.9988,8.8851,0.5695,-0.8293,9.7549,-0.0494,-0.0017,0.059
53764,45.706448,0.085909,146.28,20.88,3.216,120.2,15 / 19,5376410,2019-08-10 00:04:53:637,0.4371,-0.9821,9.8386,0.57,-0.8126,9.7563,-0.0036,0.0069,0.0022
53765,45.706448,0.085909,146.28,20.88,3.216,120.2,15 / 19,5376510,2019-08-10 00:04:53:737,0.6472,-0.5966,10.281,0.5722,-0.8382,9.754,0.0141,-0.0049,-0.0027
53766,45.706448,0.085909,146.28,20.88,3.216,120.2,15 / 19,5376610,2019-08-10 00:04:53:837,0.6974,-1.1377,9.7381,0.566,-0.8419,9.754,-0.0032,0.0019,-0.0028
53767,45.706448,0.085909,146.28,20.88,3.216,120.2,15 / 19,5376710,2019-08-10 00:04:53:937,0.2952,-1.6195,9.4717,0.5736,-0.8493,9.753,0.0051,0.0029,-0.0231
53768,45.706448,0.085909,146.28,20.88,3.216,120.2,15 / 19,5376810,2019-08-10 00:04:54:037,0.8578,-0.8486,9.5789,0.584,-0.8623,9.7512,0.0586,0.0093,-0.055
53769,45.706448,0.085909,146.28,20.88,3.216,120.2,15 / 19,5376911,2019-08-10 00:04:54:138,1.1062,-1.4663,9.8674,0.6106,-0.8548,9.7502,0.0041,0.031,-0.0122
53770,45.706448,0.085909,146.28,20.88,3.216,120.2,15 / 19,5377010,2019-08-10 00:04:54:237,0.7094,-1.6393,9.5561,0.6598,-0.8694,9.7457,0.0066,0.0378,-0.0125
53771,45.706448,0.085909,146.28,20.88,3.216,120.2,15 / 19,5377113,2019-08-10 00:04:54:340,1.4881,-0.8426,9.2221,0.6819,-0.8568,9.7453,-0.0331,0.0327,-0.0461
53772,45.706448,0.085909,146.28,20.88,3.216,120.2,15 / 19,5377210,2019-08-10 00:04:54:437,1.7144,-1.1437,9.9583,0.7275,-0.8713,9.7407,0.0448,0.017,-0.074
53773,45.706448,0.085909,146.28,20.88,3.216,120.2,15 / 19,5377310,2019-08-10 00:04:54:537,1.6449,-0.2782,9.4909,0.7473,-0.8354,9.7424,0.045,-0.0262,-0.0729
53774,45.706448,0.085909,146.28,20.88,3.216,120.2,15 / 19,5377410,2019-08-10 00:04:54:637,0.2312,-1.2987,9.1946,0.735,-0.8309,9.7437,-0.0689,0.0034,0.0536
53775,45.706448,0.085909,146.28,20.88,3.216,120.2,15 / 19,5377510,2019-08-10 00:04:54:737,0.4418,-0.7109,9.5735,0.724,-0.8927,9.7391,-0.0649,-0.0252,0.046
53776,45.706448,0.085909,146.28,20.88,3.216,120.2,15 / 19,5377610,2019-08-10 00:04:54:837,0.1234,-1.7255,9.5849,0.6992,-0.8802,9.742,0.0201,0.0173,-0.0027
53777,45.706448,0.085909,146.28,20.88,3.216,120.2,15 / 19,5377710,2019-08-10 00:04:54:937,1.3241,0.5191,10.7466,0.7,-0.9022,9.7399,0.0303,0.0059,0.0112
53778,45.706448,0.085909,146.28,20.88,3.216,120.2,15 / 19,5377810,2019-08-10 00:04:55:037,0.5604,-0.2135,9.4801,0.7096,-0.9159,9.738,-0.0031,0.0203,0.0111
53779,45.706448,0.085909,146.28,20.88,3.216,120.2,15 / 19,5377910,2019-08-10 00:04:55:137,0.0324,-0.0435,9.13,0.719,-0.8616,9.7422,-0.0329,0.0337,0.0362
53780,45.706448,0.085909,146.28,20.88,3.216,120.2,15 / 19,5378011,2019-08-10 00:04:55:238,1.5779,-1.5579,10.108,0.7367,-0.8619,9.7409,-0.1016,0.0207,0.091
53781,45.706448,0.085909,146.28,20.88,3.216,120.2,15 / 19,5378111,2019-08-10 00:04:55:338,1.1619,-0.8857,10.336,0.7337,-0.8622,9.7411,0.1317,0.0075,-0.0591
53782,45.706448,0.085909,146.28,20.88,3.216,120.2,15 / 19,5378210,2019-08-10 00:04:55:437,0.3563,-0.8857,9.5675,0.7361,-0.8251,9.7441,0.1703,-0.0192,-0.1173
53783,45.706448,0.085909,146.28,20.88,3.216,120.2,15 / 19,5378310,2019-08-10 00:04:55:537,0.9548,-0.6415,10.6293,0.7294,-0.8558,9.742,-0.1519,0.0006,0.1402
53784,45.706448,0.085909,146.28,20.88,3.216,120.2,15 / 19,5378411,2019-08-10 00:04:55:638,0.8902,-1.0006,10.9328,0.7033,-0.8595,9.7436,-0.0897,-0.0053,0.0467
53785,45.706448,0.085909,146.28,20.88,3.216,120.2,15 / 19,5378511,2019-08-10 00:04:55:738,0.5191,-1.3418,10.2756,0.6877,-0.9042,9.7406,-0.0449,-0.005,0.0435
53786,45.706448,0.085909,146.28,20.88,3.216,120.2,15 / 19,5378610,2019-08-10 00:04:55:837,0.2371,-1.0252,9.5154,0.6666,-0.9047,9.742,0.0057,-0.0066,0.0174
53787,45.706448,0.085909,146.28,20.88,3.216,120.2,15 / 19,5378710,2019-08-10 00:04:55:937,1.4324,-1.7931,10.0338,0.6551,-0.8942,9.7438,0.0486,-0.0186,-0.0555
53788,45.706448,0.085909,146.28,20.88,3.216,120.2,15 / 19,5378810,2019-08-10 00:04:56:037,1.4893,-0.8618,10.33,0.663,-0.8285,9.7491,0.1253,-0.0058,-0.1061
53789,45.706448,0.085909,146.28,20.88,3.216,120.2,15 / 19,5378910,2019-08-10 00:04:56:137,-0.0053,-1.1508,9.592,0.6618,-0.8581,9.7466,-0.0875,0.0173,0.0665
53790,45.706448,0.085909,146.28,20.88,3.216,120.2,15 / 19,5379010,2019-08-10 00:04:56:237,0.5191,-1.1287,10.3654,0.6644,-0.9032,9.7423,-0.0142,0.0106,-0.0136
53791,45.706448,0.085909,146.28,20.88,3.216,120.2,15 / 19,5379110,2019-08-10 00:04:56:337,0.8183,-0.8629,10.2061,0.6767,-0.9271,9.7392,-0.0027,-0.0017,-0.0182
53792,45.706448,0.085909,146.28,20.88,3.216,120.2,15 / 19,5379210,2019-08-10 00:04:56:437,0.1881,-1.1694,9.4406,0.6798,-0.9284,9.7389,-0.0467,0.0249,0.0283
53793,45.706448,0.085909,146.28,20.88,3.216,120.2,15 / 19,5379310,2019-08-10 00:04:56:537,1.1398,-1.3053,10.2373,0.6962,-0.9302,9.7376,-0.058,-0.0078,0.0296
53794,45.706448,0.085909,146.28,20.88,3.216,120.2,15 / 19,5379411,2019-08-10 00:04:56:638,0.3138,-0.9665,9.4789,0.6878,-0.9088,9.7402,0.0011,0.0016,0.0136
53795,45.706448,0.085909,146.28,20.88,3.216,120.2,15 / 19,5379511,2019-08-10 00:04:56:738,1.7299,-0.3015,10.3354,0.6879,-0.9309,9.7381,-0.0076,-0.0029,0.0495
53796,45.706448,0.085909,146.28,20.88,3.216,120.2,14 / 19,5379610,2019-08-10 00:04:56:837,1.2589,-0.8252,9.6375,0.6848,-0.9242,9.739,0.0186,-0.0111,-0.0409
53797,45.706448,0.085909,146.28,20.88,3.216,120.2,14 / 19,5379710,2019-08-10 00:04:56:937,0.6902,-1.1957,9.877,0.6968,-0.9437,9.7362,-0.0245,0.0232,0.029
53798,45.706448,0.085909,146.28,20.88,3.216,120.2,14 / 19,5379810,2019-08-10 00:04:57:037,0.9704,-1.5806,9.0348,0.7085,-0.9199,9.7377,0.0042,0.0225,-0.0423
53799,45.706448,0.085909,146.28,20.88,3.216,120.2,14 / 19,5379910,2019-08-10 00:04:57:137,1.5336,-0.6391,9.8889,0.7489,-0.9262,9.734,0.0108,0.0042,-0.0278
53800,45.706448,0.085909,146.28,20.88,3.216,120.2,14 / 19,5380010,2019-08-10 00:04:57:237,0.7914,-0.0711,9.212,0.7533,-0.9366,9.7327,-0.0036,-0.0022,0.0044
53801,45.706448,0.085909,146.28,20.88,3.216,120.2,14 / 19,5380111,2019-08-10 00:04:57:338,0.8177,-1.5549,9.619,0.7532,-0.928,9.7336,-0.0004,-0.0025,-0.0328
53802,45.706448,0.085909,146.28,20.88,3.216,120.2,14 / 19,5380210,2019-08-10 00:04:57:437,1.1745,-0.8234,9.604,0.7559,-0.9301,9.7331,-0.0092,-0.0076,-0.0094
53803,45.706448,0.085909,146.28,20.88,3.216,120.2,14 / 19,5380311,2019-08-10 00:04:57:538,1.1805,0.1456,10.1397,0.7535,-0.9424,9.7321,0.0009,-0.0222,-0.0052
53804,45.706448,0.085909,146.28,20.88,3.216,120.2,14 / 19,5380411,2019-08-10 00:04:57:638,1.1206,-1.0718,10.0475,0.7384,-0.9557,9.732,0.0245,-0.0298,-0.0452
53805,45.706448,0.085909,146.28,20.88,3.216,120.2,14 / 19,5380511,2019-08-10 00:04:57:738,1.1134,-1.0491,9.677,0.7218,-0.9695,9.7319,0.0056,-0.0183,-0.0132
53806,45.706448,0.085909,146.28,20.88,3.216,120.2,14 / 19,5380611,2019-08-10 00:04:57:838,1.8149,-1.0946,10.4869,0.7142,-0.9926,9.7301,-0.0433,-0.0228,0.0146
53807,45.706448,0.085909,146.28,20.88,3.216,120.2,14 / 19,5380710,2019-08-10 00:04:57:937,1.0165,-0.8522,9.9147,0.6905,-0.9712,9.734,0.0182,-0.0385,-0.0242
53808,45.706448,0.085909,146.28,20.88,3.216,120.2,14 / 19,5380810,2019-08-10 00:04:58:037,0.528,-1.2149,8.4015,0.6788,-0.9396,9.7379,-0.0712,-0.0181,0.0041
53809,45.706448,0.085909,146.28,20.88,3.216,120.2,14 / 19,5380910,2019-08-10 00:04:58:137,0.394,-1.7404,8.9408,0.6718,-0.9168,9.7406,0.0826,0.0243,-0.0244
53810,45.706448,0.085909,146.28,20.88,3.216,120.2,14 / 19,5381010,2019-08-10 00:04:58:237,1.5941,-1.3232,10.9639,0.6742,-0.973,9.7349,0.0321,0.007,-0.0301
53811,45.706448,0.085909,146.28,20.88,3.216,120.2,14 / 19,5381110,2019-08-10 00:04:58:337,1.2146,-1.0455,10.5491,0.7022,-0.9619,9.7341,0.1293,0.0086,-0.1012
53812,45.706448,0.085909,146.28,20.88,3.216,120.2,14 / 19,5381210,2019-08-10 00:04:58:437,0.7256,-1.2353,9.6651,0.7107,-0.9933,9.7303,-0.1597,0.0383,0.1319
53813,45.706448,0.085909,146.28,20.88,3.216,120.2,14 / 19,5381311,2019-08-10 00:04:58:538,1.0404,-1.173,10.536,0.7545,-0.9684,9.7295,-0.0731,0.0241,0.0227
53814,45.706448,0.085909,146.28,20.88,3.216,120.2,14 / 19,5381411,2019-08-10 00:04:58:638,0.1522,-1.5932,9.276,0.7595,-0.941,9.7318,0.0115,0.0246,0.0321
53815,45.706448,0.085909,146.28,20.88,3.216,120.2,14 / 19,5381510,2019-08-10 00:04:58:737,1.3876,0.2013,10.2834,0.7905,-0.9694,9.7265,-0.0044,0.0159,0.0276
53816,45.706448,0.085909,146.28,20.88,3.216,120.2,14 / 19,5381610,2019-08-10 00:04:58:837,1.0925,-0.0788,9.7644,0.7945,-0.9569,9.7275,0.029,-0.0032,-0.0227
53817,45.706448,0.085909,146.28,20.88,3.216,120.2,14 / 19,5381710,2019-08-10 00:04:58:937,1.0799,-0.7325,10.2516,0.7807,-0.9902,9.7252,0.0154,-0.0312,0.0264
53818,45.706448,0.085909,146.28,20.88,3.216,120.2,14 / 19,5381811,2019-08-10 00:04:59:038,-0.0214,-1.4202,8.5925,0.7668,-0.9461,9.7307,-0.0597,-0.0073,0.0087
53819,45.706448,0.085909,146.28,20.88,3.216,120.2,14 / 19,5381911,2019-08-10 00:04:59:138,0.8082,-1.2604,9.8584,0.7599,-0.9536,9.7306,-0.0215,-0.0094,0.029
53820,45.706448,0.085909,146.28,20.88,3.216,120.2,14 / 19,5382010,2019-08-10 00:04:59:237,0.4598,-1.8272,9.7441,0.7442,-0.967,9.7304,-0.0327,-0.004,0.0318
53821,45.706448,0.085909,146.28,20.88,3.216,120.2,14 / 19,5382110,2019-08-10 00:04:59:337,0.886,-0.1573,9.5322,0.7318,-0.9438,9.7337,0.0043,-0.0134,-0.014
53822,45.706448,0.085909,146.28,20.88,3.216,120.2,14 / 19,5382210,2019-08-10 00:04:59:437,1.0308,-1.9104,9.8315,0.7219,-0.9353,9.7352,0.0108,-0.0129,-0.0086
53823,45.706448,0.085909,146.28,20.88,3.216,120.2,14 / 19,5382310,2019-08-10 00:04:59:537,0.9069,-0.7792,10.0733,0.7118,-0.9251,9.7369,0.0447,-0.0317,-0.0199
53824,45.706448,0.085909,146.28,20.88,3.216,120.2,14 / 19,5382411,2019-08-10 00:04:59:638,-0.0651,-0.2189,8.8049,0.6792,-0.8618,9.7451,-0.1044,-0.019,0.0618
53825,45.706448,0.085909,146.28,20.88,3.216,120.2,14 / 19,5382511,2019-08-10 00:04:59:738,0.7501,-1.7961,10.1451,0.6518,-0.9537,9.7384,-0.1398,-0.0235,0.1058
53826,45.706448,0.085909,146.28,20.88,3.216,120.2,14 / 19,5382610,2019-08-10 00:04:59:837,1.5582,-1.4304,11.9174,0.6225,-0.9358,9.742,-0.0542,-0.0226,0.0703
53827,45.706448,0.085909,146.28,20.88,3.216,120.2,14 / 19,5382710,2019-08-10 00:04:59:937,-0.7804,0.3659,7.812,0.6145,-0.8355,9.7516,0.0266,-0.0063,0.0091
53828,45.706448,0.085909,146.28,20.88,3.216,120.2,14 / 19,5382810,2019-08-10 00:05:00:037,0.0726,0.4509,9.7028,0.5959,-0.8924,9.7478,0.0123,-0.0019,0.0391
53829,45.706448,0.085909,146.28,20.88,3.216,120.2,14 / 19,5382910,2019-08-10 00:05:00:137,-0.5817,-0.3314,8.8409,0.5816,-0.9335,9.7448,0.0496,0.0183,-0.0396
53830,45.706448,0.085909,146.28,20.88,3.216,120.2,14 / 19,5383010,2019-08-10 00:05:00:237,1.3085,-1.8398,10.3031,0.5907,-0.9404,9.7436,-0.0505,-0.0108,0.0379
53831,45.706448,0.085909,146.28,20.88,3.216,120.2,14 / 19,5383110,2019-08-10 00:05:00:337,-0.0759,-0.7073,8.7672,0.5881,-0.8665,9.7506,-0.0276,-0.0027,0.0219
53832,45.706448,0.085909,146.28,20.88,3.216,120.2,14 / 19,5383210,2019-08-10 00:05:00:437,-0.0532,-0.2758,9.7824,0.5697,-0.8838,9.7501,0.0014,-0.008,0.0331
53833,45.706448,0.085909,146.28,20.88,3.216,120.2,14 / 19,5383310,2019-08-10 00:05:00:537,0.5777,-0.5864,10.1762,0.5592,-0.9034,9.7489,0.0123,0.0019,-0.0045
53834,45.706448,0.085909,146.28,20.88,3.216,120.2,14 / 19,5383410,2019-08-10 00:05:00:637,0.3784,-0.8893,9.786,0.5817,-0.9036,9.7476,-0.054,0.035,0.0486
53835,45.706448,0.085909,146.28,20.88,3.216,120.2,14 / 19,5383510,2019-08-10 00:05:00:737,1.2128,-1.161,10.4151,0.5927,-0.9088,9.7464,-0.1025,0.0198,0.0555
53836,45.706448,0.085909,146.28,20.88,3.216,120.2,14 / 19,5383610,2019-08-10 00:05:00:837,0.3006,-0.1267,8.602,0.6183,-0.8935,9.7463,0.0298,0.0127,-0.0237
53837,45.706448,0.085909,146.28,20.88,3.216,120.2,14 / 19,5383711,2019-08-10 00:05:00:938,1.2529,0.075,9.8081,0.6247,-0.8831,9.7468,-0.0154,-0.0209,0.0229
53838,45.706448,0.085909,146.28,20.88,3.216,120.2,14 / 19,5383810,2019-08-10 00:05:01:037,1.1224,-0.2333,10.0224,0.6038,-0.8788,9.7485,0.0199,-0.0297,-0.0266
53839,45.706448,0.085909,146.28,20.88,3.216,120.2,14 / 19,5383910,2019-08-10 00:05:01:137,0.7166,-1.1036,10.0134,0.584,-0.8827,9.7494,0.0126,-0.0345,0.0047
53840,45.706448,0.085909,146.28,20.88,3.216,120.2,14 / 19,5384010,2019-08-10 00:05:01:237,1.1469,-1.65,10.2666,0.569,-0.9179,9.747,0.0585,-0.0048,-0.0538
53841,45.706448,0.085909,146.28,20.88,3.216,120.2,14 / 19,5384111,2019-08-10 00:05:01:338,0.3227,-0.6433,9.7393,0.5733,-0.8994,9.7485,0.0299,0.006,-0.0218
53842,45.706448,0.085909,146.28,20.88,3.216,120.2,14 / 19,5384210,2019-08-10 00:05:01:437,0.8542,-1.0748,9.6387,0.585,-0.8973,9.748,0.0301,-0.0093,-0.0622
53843,45.706448,0.085909,146.28,20.88,3.216,120.2,14 / 19,5384310,2019-08-10 00:05:01:537,1.117,-0.4518,10.433,0.5773,-0.9324,9.7451,-0.0988,-0.0017,0.077
53844,45.706448,0.085909,146.28,20.88,3.216,120.2,14 / 19,5384410,2019-08-10 00:05:01:637,0.8082,0.3455,10.1409,0.5871,-0.9004,9.7476,-0.0532,0.0265,0.0159
53845,45.706448,0.085909,146.28,20.88,3.216,120.2,14 / 19,5384510,2019-08-10 00:05:01:737,0.2677,-1.2299,9.1868,0.6043,-0.8713,9.7492,0.0363,0.0172,-0.0278
53846,45.705563,0.088118,143.31,22.44,3.216,120.1,14 / 19,5384610,2019-08-10 00:05:01:837,0.452,-0.921,8.9019,0.6223,-0.8488,9.75,0.0119,0.0289,0.0189
53847,45.705563,0.088118,143.31,22.44,3.216,120.1,14 / 19,5384710,2019-08-10 00:05:01:937,1.6342,-0.2105,10.6838,0.6252,-0.901,9.7451,0.0567,-0.0072,-0.0554
53848,45.705563,0.088118,143.31,22.44,3.216,120.1,14 / 19,5384810,2019-08-10 00:05:02:037,-0.1178,-1.2753,9.6172,0.6218,-0.9424,9.7414,0.1005,-0.0149,-0.0388
53849,45.705563,0.088118,143.31,22.44,3.216,120.1,14 / 19,5384911,2019-08-10 00:05:02:138,0.3431,-0.9683,9.4526,0.6199,-0.9087,9.7448,-0.0689,-0.0092,0.0587
53850,45.705563,0.088118,143.31,22.44,3.216,120.1,14 / 19,5385010,2019-08-10 00:05:02:237,1.8885,-1.5866,10.7712,0.6129,-0.9656,9.7397,-0.0611,-0.0053,0.0244
53851,45.705563,0.088118,143.31,22.44,3.216,120.1,14 / 19,5385110,2019-08-10 00:05:02:337,2.4949,-1.2544,10.9172,0.6259,-0.9179,9.7435,-0.011,0.0057,0.0164
53852,45.705563,0.088118,143.31,22.44,3.216,120.1,14 / 19,5385210,2019-08-10 00:05:02:437,-0.283,-1.504,8.5931,0.644,-0.8804,9.7458,-0.0504,0.0201,0.0026
53853,45.705563,0.088118,143.31,22.44,3.216,120.1,14 / 19,5385310,2019-08-10 00:05:02:537,1.187,-1.1317,9.6525,0.6623,-0.923,9.7406,0.0176,0.0185,-0.0443
53854,45.705563,0.088118,143.31,22.44,3.216,120.1,14 / 19,5385410,2019-08-10 00:05:02:637,1.1194,-1.1084,10.3893,0.6736,-0.8859,9.7433,0.0717,-0.0002,-0.0331
53855,45.705563,0.088118,143.31,22.44,3.216,120.1,14 / 19,5385511,2019-08-10 00:05:02:738,0.0289,-0.9055,8.0621,0.6866,-0.8541,9.7452,-0.1105,0.0151,0.0488
53856,45.705563,0.088118,143.31,22.44,3.216,120.1,14 / 19,5385611,2019-08-10 00:05:02:838,1.0284,-1.5184,9.701,0.6914,-0.9158,9.7393,-0.0699,0.0053,0.0051
53857,45.705563,0.088118,143.31,22.44,3.216,120.1,14 / 19,5385711,2019-08-10 00:05:02:938,0.6041,-0.5858,9.4628,0.7127,-0.8881,9.7403,0.028,0.012,0.0386
53858,45.705563,0.088118,143.31,22.44,3.216,120.1,14 / 19,5385810,2019-08-10 00:05:03:037,0.9063,-1.4675,10.2457,0.7091,-0.897,9.7398,0.0021,-0.0095,-0.079
53859,45.705563,0.088118,143.31,22.44,3.216,120.1,14 / 19,5385911,2019-08-10 00:05:03:138,1.7293,-1.8739,10.6425,0.7088,-0.8966,9.7398,0.0659,-0.0131,-0.0457
53860,45.705563,0.088118,143.31,22.44,3.216,120.1,14 / 19,5386011,2019-08-10 00:05:03:238,0.2132,0.3144,8.3985,0.7176,-0.8851,9.7402,-0.1,0.0134,0.0249
53861,45.705563,0.088118,143.31,22.44,3.216,120.1,14 / 19,5386110,2019-08-10 00:05:03:337,0.5268,-0.4272,9.6232,0.7247,-0.9159,9.7369,-0.102,0.0147,0.0381
53862,45.705563,0.088118,143.31,22.44,3.216,120.1,14 / 19,5386210,2019-08-10 00:05:03:437,0.886,-1.3226,10.2912,0.7276,-0.8967,9.7384,-0.0417,0.0115,-0.0196
53863,45.705563,0.088118,143.31,22.44,3.216,120.1,14 / 19,5386310,2019-08-10 00:05:03:537,0.8985,-1.2275,9.598,0.7592,-0.9012,9.7356,-0.0075,0.023,0.0123
53864,45.705563,0.088118,143.31,22.44,3.216,120.1,14 / 19,5386410,2019-08-10 00:05:03:637,1.1092,-1.8553,10.2612,0.7681,-0.9129,9.7338,0.0368,0.0128,-0.0237
53865,45.705563,0.088118,143.31,22.44,3.216,120.1,14 / 19,5386511,2019-08-10 00:05:03:738,1.2996,-1.0677,10.023,0.7875,-0.915,9.7321,0.0514,0.0064,-0.0394
53866,45.705563,0.088118,143.31,22.44,3.216,120.1,14 / 19,5386611,2019-08-10 00:05:03:838,0.977,-0.8079,10.0553,0.796,-0.929,9.73,-0.017,-0.0061,0.0049
53867,45.705563,0.088118,143.31,22.44,3.216,120.1,14 / 19,5386711,2019-08-10 00:05:03:938,1.0691,-1.9475,9.4238,0.7859,-0.9291,9.7309,-0.0017,-0.004,-0.0164
53868,45.705563,0.088118,143.31,22.44,3.216,120.1,14 / 19,5386810,2019-08-10 00:05:04:037,1.1817,-1.8512,9.7345,0.7881,-0.9066,9.7328,-0.005,-0.0062,0.0062
53869,45.705563,0.088118,143.31,22.44,3.216,120.1,14 / 19,5386911,2019-08-10 00:05:04:138,0.4526,0.1791,8.9743,0.7858,-0.8933,9.7342,-0.0326,0.0033,-0.0154
53870,45.705563,0.088118,143.31,22.44,3.216,120.1,14 / 19,5387011,2019-08-10 00:05:04:238,0.5628,-0.8875,9.4191,0.7836,-0.9148,9.7324,-0.0943,0.0038,0.022
53871,45.705563,0.088118,143.31,22.44,3.216,120.1,14 / 19,5387110,2019-08-10 00:05:04:337,1.6264,0.2959,10.6982,0.7798,-0.9274,9.7315,0.0988,-0.0191,-0.082
53872,45.705563,0.088118,143.31,22.44,3.216,120.1,14 / 19,5387210,2019-08-10 00:05:04:437,0.4197,-0.7468,8.4829,0.7874,-0.8512,9.7379,-0.0846,0.0046,0.0399
53873,45.705563,0.088118,143.31,22.44,3.216,120.1,14 / 19,5387310,2019-08-10 00:05:04:537,1.6378,-1.1185,9.2946,0.7844,-0.8875,9.7349,-0.0503,-0.0199,-0.034
53874,45.705563,0.088118,143.31,22.44,3.216,120.1,14 / 19,5387410,2019-08-10 00:05:04:637,1.354,-1.4717,9.3963,0.7762,-0.8679,9.7373,-0.0125,-0.0049,0.0177
53875,45.705563,0.088118,143.31,22.44,3.216,120.1,14 / 19,5387511,2019-08-10 00:05:04:738,0.5448,-0.4787,9.5178,0.7767,-0.8655,9.7375,0.0336,-0.0062,-0.0188
53876,45.705563,0.088118,143.31,22.44,3.216,120.1,14 / 18,5387611,2019-08-10 00:05:04:838,0.9273,-0.2937,9.3227,0.7821,-0.8718,9.7365,-0.0583,-0.0209,-0.0176
53877,45.705563,0.088118,143.31,22.44,3.216,120.1,14 / 18,5387711,2019-08-10 00:05:04:938,1.1392,-0.5499,9.4891,0.7547,-0.8468,9.7408,0.0027,-0.026,-0.0016
53878,45.705563,0.088118,143.31,22.44,3.216,120.1,14 / 18,5387810,2019-08-10 00:05:05:037,1.0817,-0.8743,10.2612,0.7413,-0.8852,9.7384,-0.0385,-0.0132,-0.0004
53879,45.705563,0.088118,143.31,22.44,3.216,120.1,14 / 18,5387911,2019-08-10 00:05:05:138,1.7245,-1.1598,10.4073,0.7529,-0.88,9.738,-0.0363,0.0035,0.0016
53880,45.705563,0.088118,143.31,22.44,3.216,120.1,14 / 18,5388011,2019-08-10 00:05:05:238,1.0805,-1.8595,10.5641,0.7541,-0.8495,9.7406,0.0577,0.0053,-0.0286
53881,45.705563,0.088118,143.31,22.44,3.216,120.1,14 / 18,5388110,2019-08-10 00:05:05:337,1.7473,-1.0144,10.7179,0.7605,-0.8838,9.7371,-0.0274,0.0056,-0.0016
53882,45.705563,0.088118,143.31,22.44,3.216,120.1,14 / 18,5388211,2019-08-10 00:05:05:438,1.8526,-1.1155,10.5443,0.7585,-0.9311,9.7328,0.0474,-0.0022,-0.0628
53883,45.705563,0.088118,143.31,22.44,3.216,120.1,14 / 18,5388311,2019-08-10 00:05:05:538,1.1691,-0.3949,9.4298,0.7603,-0.9006,9.7356,-0.0202,-0.0083,-0.0408
53884,45.705563,0.088118,143.31,22.44,3.216,120.1,14 / 18,5388411,2019-08-10 00:05:05:638,0.5771,-0.9467,9.3598,0.772,-0.8938,9.7353,-0.0187,0.0096,-0.0108
53885,45.705563,0.088118,143.31,22.44,3.216,120.1,14 / 18,5388511,2019-08-10 00:05:05:738,0.4436,-0.4015,9.2287,0.7897,-0.8922,9.734,0.0446,0.0106,-0.064
53886,45.705563,0.088118,143.31,22.44,3.216,120.1,15 / 19,5388610,2019-08-10 00:05:05:837,0.1396,-0.7792,9.9171,0.8117,-0.8881,9.7326,0.0645,0.0172,-0.0643
53887,45.705563,0.088118,143.31,22.44,3.216,120.1,15 / 19,5388710,2019-08-10 00:05:05:937,1.2942,-0.9707,10.5419,0.8481,-0.8951,9.7288,-0.0581,0.0574,0.0489
53888,45.705563,0.088118,143.31,22.44,3.216,120.1,15 / 19,5388810,2019-08-10 00:05:06:037,1.6515,-0.0651,10.199,0.8702,-0.9341,9.7232,0.058,0.0253,-0.0658
53889,45.705563,0.088118,143.31,22.44,3.216,120.1,15 / 19,5388910,2019-08-10 00:05:06:137,0.8519,0.1396,8.8325,0.8739,-0.8836,9.7276,-0.0275,-0.0144,-0.0052
53890,45.705563,0.088118,143.31,22.44,3.216,120.1,15 / 19,5389011,2019-08-10 00:05:06:238,0.0061,0.8758,9.5633,0.8268,-0.8772,9.7323,-0.0675,-0.0573,0.1097
53891,45.705563,0.088118,143.31,22.44,3.216,120.1,15 / 19,5389110,2019-08-10 00:05:06:337,0.7184,-0.5248,8.8911,0.7933,-0.8214,9.7399,0.04,-0.0586,-0.0558
53892,45.705563,0.088118,143.31,22.44,3.216,120.1,15 / 19,5389211,2019-08-10 00:05:06:438,1.2828,-0.6062,10.3965,0.7322,-0.8368,9.7434,0.0177,-0.0178,0.0098
53893,45.705563,0.088118,143.31,22.44,3.216,120.1,15 / 19,5389310,2019-08-10 00:05:06:537,0.7004,-0.9575,9.5406,0.7283,-0.8103,9.7459,0.0223,0.0061,-0.013
53894,45.705563,0.088118,143.31,22.44,3.216,120.1,15 / 19,5389410,2019-08-10 00:05:06:637,0.6005,-1.1197,9.6944,0.7188,-0.7977,9.7477,-0.0443,-0.0091,-0.0155
53895,45.705563,0.088118,143.31,22.44,3.216,120.1,15 / 19,5389510,2019-08-10 00:05:06:737,0.0103,-0.35,8.8875,0.7128,-0.8001,9.7479,-0.0393,0.0042,0.0257
53896,45.705563,0.088118,143.31,22.44,3.216,120.1,13 / 16,5389611,2019-08-10 00:05:06:838,1.0165,-0.2033,9.9141,0.7256,-0.7972,9.7472,-0.007,0.0102,-0.0103
53897,45.705563,0.088118,143.31,22.44,3.216,120.1,13 / 16,5389710,2019-08-10 00:05:06:937,0.8692,-1.6267,9.9949,0.7265,-0.8056,9.7465,-0.0089,-0.0175,0.0049
53898,45.705563,0.088118,143.31,22.44,3.216,120.1,13 / 16,5389810,2019-08-10 00:05:07:037,0.8866,-1.2879,9.9709,0.7206,-0.7946,9.7478,0.0334,0.0137,-0.0029
53899,45.705563,0.088118,143.31,22.44,3.216,120.1,13 / 16,5389910,2019-08-10 00:05:07:137,0.4323,-1.7135,9.9063,0.7246,-0.7814,9.7486,0.017,-0.0032,0.0164
53900,45.705563,0.088118,143.31,22.44,3.216,120.1,13 / 16,5390010,2019-08-10 00:05:07:237,0.9279,-0.4458,9.9314,0.7143,-0.7928,9.7484,0.0233,-0.0116,-0.0212
53901,45.705563,0.088118,143.31,22.44,3.216,120.1,13 / 16,5390110,2019-08-10 00:05:07:337,0.7202,-1.2778,10.166,0.707,-0.8069,9.7478,-0.0077,0.0011,0.016
53902,45.705563,0.088118,143.31,22.44,3.216,120.1,13 / 16,5390211,2019-08-10 00:05:07:438,0.4891,-0.7558,9.3371,0.706,-0.7983,9.7486,-0.0198,0.0166,-0.0096
53903,45.705563,0.088118,143.31,22.44,3.216,120.1,13 / 16,5390311,2019-08-10 00:05:07:538,1.2421,-0.5589,10.2493,0.7137,-0.8288,9.7455,0.0341,0.011,-0.0344
53904,45.705563,0.088118,143.31,22.44,3.216,120.1,13 / 16,5390411,2019-08-10 00:05:07:638,0.6735,-1.2496,9.4789,0.7246,-0.7943,9.7475,0.0002,0.0133,-0.0277
53905,45.705563,0.088118,143.31,22.44,3.216,120.1,13 / 16,5390511,2019-08-10 00:05:07:738,0.5813,-0.8312,9.4849,0.7314,-0.7834,9.7479,0.0131,0.0074,-0.0381
53906,45.705563,0.088118,143.31,22.44,3.216,120.1,15 / 18,5390611,2019-08-10 00:05:07:838,1.3959,-1.1006,10.1984,0.7442,-0.7525,9.7494,-0.0508,-0.0045,0.0521
53907,45.705563,0.088118,143.31,22.44,3.216,120.1,15 / 18,5390710,2019-08-10 00:05:07:937,1.46,-1.2873,10.0086,0.7315,-0.7809,9.7481,-0.0058,0.0085,0.0222
53908,45.705563,0.088118,143.31,22.44,3.216,120.1,15 / 18,5390810,2019-08-10 00:05:08:037,0.4053,-1.0808,9.1916,0.7353,-0.7612,9.7494,-0.031,0.0154,0.0374
53909,45.705563,0.088118,143.31,22.44,3.216,120.1,15 / 18,5390910,2019-08-10 00:05:08:137,1.5127,-1.9451,10.0787,0.7337,-0.7807,9.7479,0.0666,0.0047,-0.0562
53910,45.705563,0.088118,143.31,22.44,3.216,120.1,15 / 18,5391010,2019-08-10 00:05:08:237,0.1737,-1.2789,9.5525,0.7512,-0.7712,9.7474,0.0106,0.0328,0.0129
53911,45.705563,0.088118,143.31,22.44,3.216,120.1,15 / 18,5391111,2019-08-10 00:05:08:338,1.126,0.3365,9.4604,0.7634,-0.7803,9.7457,0.0473,0.0151,-0.0647
53912,45.705563,0.088118,143.31,22.44,3.216,120.1,15 / 18,5391211,2019-08-10 00:05:08:438,0.7968,-1.4819,9.5017,0.7827,-0.7986,9.7427,0.0005,0.0096,-0.0096
53913,45.705563,0.088118,143.31,22.44,3.216,120.1,15 / 18,5391311,2019-08-10 00:05:08:538,1.7102,-1.917,10.3247,0.7854,-0.8243,9.7403,0.0459,-0.0105,-0.0535
53914,45.705563,0.088118,143.31,22.44,3.216,120.1,15 / 18,5391411,2019-08-10 00:05:08:638,0.382,0.1528,9.5579,0.7748,-0.8109,9.7423,0.0011,-0.0004,-0.0244
53915,45.705563,0.088118,143.31,22.44,3.216,120.1,15 / 18,5391511,2019-08-10 00:05:08:738,1.3265,0.2162,9.7764,0.777,-0.829,9.7406,0.01,-0.0099,-0.0345
53916,45.705563,0.088118,143.31,22.44,3.216,120.1,15 / 18,5391610,2019-08-10 00:05:08:837,0.9542,-0.5685,9.4077,0.7661,-0.8042,9.7435,0.0224,-0.0056,-0.0376
53917,45.705563,0.088118,143.31,22.44,3.216,120.1,15 / 18,5391710,2019-08-10 00:05:08:937,0.4281,0.2498,9.0456,0.769,-0.7802,9.7453,-0.041,0.0015,0.0054
53918,45.705563,0.088118,143.31,22.44,3.216,120.1,15 / 18,5391810,2019-08-10 00:05:09:037,0.2994,0.1414,9.0019,0.7611,-0.7828,9.7457,0.011,0.0048,-0.004
53919,45.705563,0.088118,143.31,22.44,3.216,120.1,15 / 18,5391910,2019-08-10 00:05:09:137,0.9327,0.1199,10.0338,0.7574,-0.8072,9.744,-0.0319,-0.0079,0.0342
53920,45.705563,0.088118,143.31,22.44,3.216,120.1,15 / 18,5392010,2019-08-10 00:05:09:237,0.1976,-0.8127,9.5962,0.7423,-0.8111,9.7448,0.0212,-0.0062,-0.0304
53921,45.705563,0.088118,143.31,22.44,3.216,120.1,15 / 18,5392110,2019-08-10 00:05:09:337,0.1893,-0.7965,9.3502,0.7449,-0.7937,9.7461,-0.015,0.0068,0.0262
53922,45.705563,0.088118,143.31,22.44,3.216,120.1,15 / 18,5392210,2019-08-10 00:05:09:437,1.1763,-0.3721,10.3217,0.7441,-0.8171,9.7442,0.0026,-0.0148,-0.0038
53923,45.705563,0.088118,143.31,22.44,3.216,120.1,15 / 18,5392310,2019-08-10 00:05:09:537,0.312,-0.5146,9.0372,0.7295,-0.8033,9.7464,-0.0314,-0.006,0.0023
53924,45.705563,0.088118,143.31,22.44,3.216,120.1,15 / 18,5392410,2019-08-10 00:05:09:637,0.9494,-0.8713,9.7824,0.7353,-0.7947,9.7467,0.0203,-0.009,-0.0421
53925,45.705563,0.088118,143.31,22.44,3.216,120.1,15 / 18,5392511,2019-08-10 00:05:09:738,0.6244,-2.0924,9.7602,0.7257,-0.813,9.7459,0.0157,-0.0024,-0.0322
53926,45.705563,0.088118,143.31,22.44,3.216,120.1,14 / 17,5392611,2019-08-10 00:05:09:838,0.6723,-0.757,9.8596,0.7257,-0.8125,9.746,-0.0094,0.0152,0.0228
53927,45.705563,0.088118,143.31,22.44,3.216,120.1,14 / 17,5392711,2019-08-10 00:05:09:938,0.7651,-1.5226,9.9619,0.7396,-0.8216,9.7441,0.0209,0.0096,-0.006
53928,45.705563,0.088118,143.31,22.44,3.216,120.1,14 / 17,5392810,2019-08-10 00:05:10:037,0.5131,-1.3627,9.4789,0.7395,-0.8205,9.7442,-0.0211,0.0015,0.0023
53929,45.705563,0.088118,143.31,22.44,3.216,120.1,14 / 17,5392911,2019-08-10 00:05:10:138,0.3377,-0.0417,9.847,0.7425,-0.831,9.7431,0.0028,0.0004,0.0266
53930,45.705563,0.088118,143.31,22.44,3.216,120.1,14 / 17,5393010,2019-08-10 00:05:10:237,0.786,-1.7422,9.5825,0.7515,-0.8165,9.7437,0.0087,0.0154,-0.0461
53931,45.705563,0.088118,143.31,22.44,3.216,120.1,14 / 17,5393110,2019-08-10 00:05:10:337,0.1204,-1.0695,8.848,0.7614,-0.8087,9.7435,-0.0621,0.0037,-0.0166
53932,45.705563,0.088118,143.31,22.44,3.216,120.1,14 / 17,5393210,2019-08-10 00:05:10:437,0.3401,-0.3643,8.2429,0.7601,-0.8416,9.7409,-0.0757,0.0034,-0.0411
53933,45.705563,0.088118,143.31,22.44,3.216,120.1,14 / 17,5393311,2019-08-10 00:05:10:538,1.4444,-1.1371,10.3528,0.7703,-0.8321,9.7409,0.0345,0.002,-0.016
53934,45.705563,0.088118,143.31,22.44,3.216,120.1,14 / 17,5393411,2019-08-10 00:05:10:638,1.0093,-1.1024,9.9619,0.7701,-0.7917,9.7443,-0.0087,0.0007,-0.0188
53935,45.705563,0.088118,143.31,22.44,3.216,120.1,14 / 17,5393511,2019-08-10 00:05:10:738,1.0434,-0.9617,10.1086,0.7871,-0.8141,9.7411,-0.0181,-0.003,-0.0579
53936,45.70458,0.09034,139.89,22.98,3.216,124.5,15 / 18,5393611,2019-08-10 00:05:10:838,1.3391,-0.8204,9.6405,0.7915,-0.8054,9.7414,-0.0181,-0.003,-0.0579
53937,45.70458,0.09034,139.89,22.98,3.216,124.5,15 / 18,5393710,2019-08-10 00:05:10:937,0.977,-0.526,9.7937,0.8114,-0.8194,9.7386,-0.0056,0.0063,-0.0135
53938,45.70458,0.09034,139.89,22.98,3.216,124.5,15 / 18,5393811,2019-08-10 00:05:11:038,1.1056,0.5909,8.9283,0.8209,-0.8423,9.7359,-0.0237,0.0249,-0.0331
53939,45.70458,0.09034,139.89,22.98,3.216,124.5,15 / 18,5393911,2019-08-10 00:05:11:138,1.2708,-1.7662,9.6483,0.8647,-0.8339,9.7328,0.0037,-0.0001,-0.0514
53940,45.70458,0.09034,139.89,22.98,3.216,124.5,15 / 18,5394010,2019-08-10 00:05:11:237,0.9901,-1.4453,9.1802,0.8757,-0.833,9.7319,-0.0136,-0.0035,-0.0159
53941,45.70458,0.09034,139.89,22.98,3.216,124.5,15 / 18,5394110,2019-08-10 00:05:11:337,0.8531,-0.7762,9.1371,0.8869,-0.8119,9.7327,-0.0082,-0.0112,-0.0594
53942,45.70458,0.09034,139.89,22.98,3.216,124.5,15 / 18,5394210,2019-08-10 00:05:11:437,1.8598,-1.3711,9.7572,0.8778,-0.8238,9.7325,-0.0408,-0.0023,0.0338
53943,45.70458,0.09034,139.89,22.98,3.216,124.5,15 / 18,5394310,2019-08-10 00:05:11:537,1.7263,-1.6195,10.2774,0.8794,-0.8252,9.7322,-0.0312,-0.0061,0.012
53944,45.70458,0.09034,139.89,22.98,3.216,124.5,15 / 18,5394410,2019-08-10 00:05:11:637,1.299,-1.8907,10.111,0.8718,-0.8039,9.7347,0.0424,-0.0159,-0.0429
53945,45.70458,0.09034,139.89,22.98,3.216,124.5,15 / 18,5394510,2019-08-10 00:05:11:737,1.1332,-0.4715,9.9302,0.8683,-0.8156,9.734,-0.0056,0.013,-0.0015
53946,45.70458,0.09034,139.89,22.98,3.216,124.5,14 / 17,5394610,2019-08-10 00:05:11:837,1.9909,-1.006,10.1236,0.8814,-0.8437,9.7305,0.0501,0.0061,-0.0953
53947,45.70458,0.09034,139.89,22.98,3.216,124.5,14 / 17,5394711,2019-08-10 00:05:11:938,1.9161,-1.0491,10.0829,0.9113,-0.8617,9.7261,0.0223,-0.0022,-0.0738
53948,45.70458,0.09034,139.89,22.98,3.216,124.5,14 / 17,5394810,2019-08-10 00:05:12:037,1.1847,-2.2121,9.9524,0.9315,-0.8602,9.7243,-0.0066,0.0235,-0.0195
53949,45.70458,0.09034,139.89,22.98,3.216,124.5,14 / 17,5394910,2019-08-10 00:05:12:137,1.3648,-2.4539,10.1014,0.9647,-0.8368,9.7231,-0.0674,0.0148,-0.0229
53950,45.70458,0.09034,139.89,22.98,3.216,124.5,14 / 17,5395010,2019-08-10 00:05:12:237,1.7976,-0.9815,9.4753,0.9796,-0.8746,9.7183,-0.0792,0.0122,-0.0177
53951,45.70458,0.09034,139.89,22.98,3.216,124.5,14 / 17,5395111,2019-08-10 00:05:12:338,1.5031,-0.7169,8.7259,1.0072,-0.8392,9.7186,0.013,-0.0009,-0.0666
53952,45.70458,0.09034,139.89,22.98,3.216,124.5,14 / 17,5395211,2019-08-10 00:05:12:438,2.0077,-1.7799,9.5238,1.0145,-0.8347,9.7183,-0.0068,-0.0034,-0.0527
53953,45.70458,0.09034,139.89,22.98,3.216,124.5,14 / 17,5395311,2019-08-10 00:05:12:538,1.4564,-1.601,10.2008,1.0224,-0.8642,9.7148,0.0228,-0.0009,-0.0472
53954,45.70458,0.09034,139.89,22.98,3.216,124.5,14 / 17,5395410,2019-08-10 00:05:12:637,1.7569,-0.7151,10.5611,1.0342,-0.9015,9.7102,0.0692,0.0076,-0.0481
53955,45.70458,0.09034,139.89,22.98,3.216,124.5,14 / 17,5395510,2019-08-10 00:05:12:737,1.1386,-1.6937,9.8404,1.0736,-0.9157,9.7046,0.0271,0.0413,-0.0513
53956,45.70458,0.09034,139.89,22.98,3.216,124.5,15 / 17,5395610,2019-08-10 00:05:12:837,1.8233,-1.4932,9.838,1.1016,-0.9209,9.701,-0.0541,0.0152,-0.0331
53957,45.70458,0.09034,139.89,22.98,3.216,124.5,15 / 17,5395710,2019-08-10 00:05:12:937,0.9692,-0.9964,8.5889,1.1255,-0.8758,9.7024,0.0336,0.0243,-0.068
53958,45.70458,0.09034,139.89,22.98,3.216,124.5,15 / 17,5395810,2019-08-10 00:05:13:037,0.4281,-1.085,8.3488,1.1657,-0.8405,9.7008,0.0327,0.0157,-0.0822
53959,45.70458,0.09034,139.89,22.98,3.216,124.5,15 / 17,5395910,2019-08-10 00:05:13:137,1.4941,-1.2807,9.9081,1.1623,-0.8946,9.6963,0.0174,0.0077,-0.0138
53960,45.70458,0.09034,139.89,22.98,3.216,124.5,15 / 17,5396010,2019-08-10 00:05:13:237,2.6858,-1.3442,10.7005,1.1821,-0.895,9.6939,0.0648,-0.0153,-0.1
53961,45.70458,0.09034,139.89,22.98,3.216,124.5,15 / 17,5396111,2019-08-10 00:05:13:338,1.4678,-1.3083,9.9613,1.1774,-0.9109,9.693,-0.0681,0.003,0.0535
53962,45.70458,0.09034,139.89,22.98,3.216,124.5,15 / 17,5396211,2019-08-10 00:05:13:438,1.3385,-0.499,9.3095,1.1861,-0.8675,9.6959,-0.1017,0.0082,0.0255
53963,45.70458,0.09034,139.89,22.98,3.216,124.5,15 / 17,5396310,2019-08-10 00:05:13:537,0.6807,-0.6582,9.3269,1.1756,-0.869,9.6971,-0.0284,-0.0016,-0.0537
53964,45.70458,0.09034,139.89,22.98,3.216,124.5,15 / 17,5396410,2019-08-10 00:05:13:637,2.0621,-0.5882,9.6399,1.181,-0.8688,9.6964,0.043,-0.0035,0.0006
53965,45.70458,0.09034,139.89,22.98,3.216,124.5,15 / 17,5396510,2019-08-10 00:05:13:737,1.521,-0.8636,9.7542,1.1698,-0.8218,9.7019,-0.0101,-0.0266,-0.0479
53966,45.70458,0.09034,139.89,22.98,3.216,124.5,16 / 18,5396610,2019-08-10 00:05:13:837,0.9518,-0.766,9.5118,1.1437,-0.8681,9.701,-0.0132,-0.0191,-0.0051
53967,45.70458,0.09034,139.89,22.98,3.216,124.5,16 / 18,5396710,2019-08-10 00:05:13:937,1.1511,-1.1407,10.6449,1.1367,-0.9232,9.6967,0.0827,0.0021,-0.0457
53968,45.70458,0.09034,139.89,22.98,3.216,124.5,16 / 18,5396810,2019-08-10 00:05:14:037,1.0937,-1.0473,10.0829,1.1492,-0.9418,9.6934,0.0583,0.0192,-0.0626
53969,45.70458,0.09034,139.89,22.98,3.216,124.5,16 / 18,5396910,2019-08-10 00:05:14:137,1.3427,-1.1616,8.283,1.1781,-0.9267,9.6914,0.0163,0.0251,-0.0726
53970,45.70458,0.09034,139.89,22.98,3.216,124.5,16 / 18,5397010,2019-08-10 00:05:14:237,1.5959,-0.9665,9.6166,1.2056,-0.8862,9.6918,0.0238,-0.0025,-0.0477
53971,45.70458,0.09034,139.89,22.98,3.216,124.5,16 / 18,5397110,2019-08-10 00:05:14:337,2.0412,-1.4884,10.0966,1.2052,-0.9125,9.6894,-0.053,-0.0393,-0.0257
53972,45.70458,0.09034,139.89,22.98,3.216,124.5,16 / 18,5397210,2019-08-10 00:05:14:437,1.5276,-1.4435,10.111,1.1606,-0.9024,9.6958,-0.0154,-0.0365,-0.0194
53973,45.70458,0.09034,139.89,22.98,3.216,124.5,16 / 18,5397310,2019-08-10 00:05:14:537,1.3648,-1.1443,10.2139,1.1544,-0.8844,9.6982,0.0464,-0.0189,-0.0492
53974,45.70458,0.09034,139.89,22.98,3.216,124.5,16 / 18,5397410,2019-08-10 00:05:14:637,0.8878,-0.4069,9.4622,1.1389,-0.9064,9.698,0.0243,0.01,-0.0649
53975,45.70458,0.09034,139.89,22.98,3.216,124.5,16 / 18,5397510,2019-08-10 00:05:14:737,1.3295,-1.0114,9.7764,1.137,-0.9198,9.697,-0.0085,0.0122,-0.0129
53976,45.70458,0.09034,139.89,22.98,3.216,124.5,14 / 16,5397610,2019-08-10 00:05:14:837,0.7968,-1.194,8.6709,1.1506,-0.8815,9.6989,0.0105,-0.0128,-0.11
53977,45.70458,0.09034,139.89,22.98,3.216,124.5,14 / 16,5397710,2019-08-10 00:05:14:937,1.606,-1.3238,11.1261,1.1343,-0.9704,9.6924,-0.0157,0.0154,0.1097
53978,45.70458,0.09034,139.89,22.98,3.216,124.5,14 / 16,5397810,2019-08-10 00:05:15:037,0.6639,-2.0026,8.2746,1.1401,-0.8649,9.7017,-0.1671,0.0299,0.1587
53979,45.70458,0.09034,139.89,22.98,3.216,124.5,14 / 16,5397910,2019-08-10 00:05:15:137,1.193,-0.7031,9.9667,1.1187,-0.9043,9.7006,-0.0611,-0.0022,0.0002
53980,45.70458,0.09034,139.89,22.98,3.216,124.5,14 / 16,5398010,2019-08-10 00:05:15:237,1.3373,0.2869,9.756,1.1211,-0.9224,9.6986,0.1219,-0.0131,-0.0411
53981,45.70458,0.09034,139.89,22.98,3.216,124.5,14 / 16,5398110,2019-08-10 00:05:15:337,0.9638,-0.8671,11.5726,1.1044,-0.9547,9.6974,0.097,-0.0216,-0.0132
53982,45.70458,0.09034,139.89,22.98,3.216,124.5,14 / 16,5398211,2019-08-10 00:05:15:438,1.0542,-2.0397,10.5802,1.0839,-1.0383,9.6911,-0.0172,-0.0097,-0.0051
53983,45.70458,0.09034,139.89,22.98,3.216,124.5,14 / 16,5398311,2019-08-10 00:05:15:538,0.6424,-0.596,9.9961,1.0798,-1.0347,9.692,-0.0024,0.0105,-0.0124
53984,45.70458,0.09034,139.89,22.98,3.216,124.5,14 / 16,5398410,2019-08-10 00:05:15:637,0.4861,-0.265,8.7241,1.0952,-0.98,9.6959,-0.0571,0.0267,0.0118
53985,45.70458,0.09034,139.89,22.98,3.216,124.5,14 / 16,5398510,2019-08-10 00:05:15:737,0.6053,0.3042,8.55,1.0987,-0.9742,9.6961,-0.0551,0.0307,0.0168
53986,45.70458,0.09034,139.89,22.98,3.216,124.5,15 / 17,5398610,2019-08-10 00:05:15:837,1.1703,-0.3769,8.9983,1.1246,-0.9607,9.6945,0.041,0.0099,-0.0518
53987,45.70458,0.09034,139.89,22.98,3.216,124.5,15 / 17,5398710,2019-08-10 00:05:15:937,1.1182,-0.5038,9.5274,1.1324,-0.9436,9.6952,0.0332,0.0237,-0.0308
53988,45.70458,0.09034,139.89,22.98,3.216,124.5,15 / 17,5398810,2019-08-10 00:05:16:037,1.4247,-0.6894,9.9488,1.1522,-0.9672,9.6906,0.0019,0.0206,-0.0294
53989,45.70458,0.09034,139.89,22.98,3.216,124.5,15 / 17,5398910,2019-08-10 00:05:16:137,1.308,-0.0645,9.5831,1.1595,-0.9554,9.6909,0.0318,-0.0166,-0.0374
53990,45.70458,0.09034,139.89,22.98,3.216,124.5,15 / 17,5399011,2019-08-10 00:05:16:238,1.2062,0.4353,9.7147,1.1406,-0.9737,9.6913,-0.0104,-0.0217,-0.012
53991,45.70458,0.09034,139.89,22.98,3.216,124.5,15 / 17,5399110,2019-08-10 00:05:16:337,1.4253,-1.1724,10.1666,1.119,-0.9561,9.6956,0.0527,-0.0207,-0.0616
53992,45.70458,0.09034,139.89,22.98,3.216,124.5,15 / 17,5399211,2019-08-10 00:05:16:438,1.0398,-0.0675,9.7842,1.1022,-0.9761,9.6955,-0.0209,-0.0122,0.0111
53993,45.70458,0.09034,139.89,22.98,3.216,124.5,15 / 17,5399310,2019-08-10 00:05:16:537,0.7106,-0.4739,9.5663,1.0923,-0.9745,9.6968,-0.0336,0.0122,-0.0177
53994,45.70458,0.09034,139.89,22.98,3.216,124.5,15 / 17,5399410,2019-08-10 00:05:16:637,1.1978,0.5023,10.2792,1.0917,-0.974,9.6969,-0.0394,-0.002,-0.0216
53995,45.70458,0.09034,139.89,22.98,3.216,124.5,15 / 17,5399511,2019-08-10 00:05:16:738,0.9626,-1.5363,9.3347,1.0926,-0.9796,9.6962,0.012,-0.0015,-0.0336
53996,45.70458,0.09034,139.89,22.98,3.216,124.5,15 / 17,5399611,2019-08-10 00:05:16:838,1.0182,-1.3735,9.5142,1.0956,-0.9574,9.6981,-0.0125,0.0101,-0.014
53997,45.70458,0.09034,139.89,22.98,3.216,124.5,15 / 17,5399711,2019-08-10 00:05:16:938,1.5504,-1.1526,9.8716,1.1039,-0.9685,9.6961,0.0168,0.003,-0.0544
53998,45.70458,0.09034,139.89,22.98,3.216,124.5,15 / 17,5399810,2019-08-10 00:05:17:037,0.5753,0.4473,9.534,1.1104,-0.9605,9.6961,-0.0213,0.0099,0.0164
53999,45.70458,0.09034,139.89,22.98,3.216,124.5,15 / 17,5399910,2019-08-10 00:05:17:137,0.637,0.0277,9.8279,1.1165,-0.962,9.6953,0.0256,0.016,-0.0079
54000,45.70458,0.09034,139.89,22.98,3.216,124.5,15 / 17,5400010,2019-08-10 00:05:17:237,0.871,-0.8007,10.1547,1.1124,-0.9717,9.6948,-0.0031,-0.0157,-0.0186
54001,45.70458,0.09034,139.89,22.98,3.216,124.5,15 / 17,5400110,2019-08-10 00:05:17:337,1.0907,-1.9679,9.8321,1.0935,-0.9556,9.6985,0.0248,-0.0071,0.0078
54002,45.70458,0.09034,139.89,22.98,3.216,124.5,15 / 17,5400211,2019-08-10 00:05:17:438,0.8369,-0.9354,9.6501,1.0808,-0.9789,9.6976,0.0356,0.0133,0.014
54003,45.70458,0.09034,139.89,22.98,3.216,124.5,15 / 17,5400311,2019-08-10 00:05:17:538,0.8668,-1.1287,9.8404,1.0807,-0.9944,9.6961,-0.0066,0.006,-0.0239
54004,45.70458,0.09034,139.89,22.98,3.216,124.5,15 / 17,5400410,2019-08-10 00:05:17:637,0.7998,-0.7421,10.1032,1.0832,-1.0081,9.6944,0.0193,0.0148,-0.0043
54005,45.70458,0.09034,139.89,22.98,3.216,124.5,15 / 17,5400510,2019-08-10 00:05:17:737,0.9704,-1.319,9.856,1.1082,-0.9965,9.6927,-0.0168,0.0199,-0.0056
54006,45.70458,0.09034,139.89,22.98,3.216,124.5,16 / 18,5400610,2019-08-10 00:05:17:837,1.0584,-0.9276,9.704,1.1076,-0.9996,9.6925,-0.0165,0.002,0.0017
54007,45.70458,0.09034,139.89,22.98,3.216,124.5,16 / 18,5400710,2019-08-10 00:05:17:937,1.2206,-0.9635,10.2498,1.0965,-0.9927,9.6945,0.0083,-0.0049,0.0137
54008,45.70458,0.09034,139.89,22.98,3.216,124.5,16 / 18,5400810,2019-08-10 00:05:18:037,0.1198,-1.0294,9.4621,1.0981,-0.9806,9.6955,-0.0203,0.0064,-0.0109
54009,45.70458,0.09034,139.89,22.98,3.216,124.5,16 / 18,5400910,2019-08-10 00:05:18:137,0.2868,-1.8099,9.0264,1.0802,-0.9575,9.6998,-0.0251,-0.0155,-0.0032
54010,45.70458,0.09034,139.89,22.98,3.216,124.5,16 / 18,5401010,2019-08-10 00:05:18:237,0.2701,-1.5453,10.4581,1.0578,-0.9681,9.7012,-0.0234,-0.0056,-0.0005
54011,45.70458,0.09034,139.89,22.98,3.216,124.5,16 / 18,5401110,2019-08-10 00:05:18:337,0.6543,0.1594,9.9661,1.027,-0.9977,9.7016,0.0613,0.0015,0.0055
54012,45.70458,0.09034,139.89,22.98,3.216,124.5,16 / 18,5401211,2019-08-10 00:05:18:438,0.9895,-1.3573,10.6497,1.0304,-1.0095,9.7,0.0254,0.0115,-0.0185
54013,45.70458,0.09034,139.89,22.98,3.216,124.5,16 / 18,5401310,2019-08-10 00:05:18:537,0.2701,-0.9821,10.1265,1.0339,-1.032,9.6972,0.0024,0.0242,-0.0242
54014,45.70458,0.09034,139.89,22.98,3.216,124.5,16 / 18,5401410,2019-08-10 00:05:18:637,0.7525,-1.0419,9.1282,1.0504,-1.0307,9.6956,-0.0324,0.0292,0.0005
54015,45.70458,0.09034,139.89,22.98,3.216,124.5,16 / 18,5401510,2019-08-10 00:05:18:737,0.7735,-0.1375,9.9661,1.0526,-1.0252,9.6959,0.0062,-0.0031,0.0006
54016,45.70458,0.09034,139.89,22.98,3.216,124.5,15 / 17,5401610,2019-08-10 00:05:18:837,1.032,-1.1431,9.8482,1.0377,-1.0283,9.6972,0.011,-0.0159,-0.0037
54017,45.70458,0.09034,139.89,22.98,3.216,124.5,15 / 17,5401710,2019-08-10 00:05:18:937,0.8082,-0.763,10.2894,1.0331,-1.0476,9.6957,0.0679,0.0133,-0.0181
54018,45.70458,0.09034,139.89,22.98,3.216,124.5,15 / 17,5401810,2019-08-10 00:05:19:037,0.3892,-0.0292,10.026,1.0344,-1.0382,9.6965,-0.0004,0.0177,-0.0026
54019,45.70458,0.09034,139.89,22.98,3.216,124.5,15 / 17,5401911,2019-08-10 00:05:19:138,0.7214,-2.2234,9.1557,1.0457,-1.0634,9.6926,0.0363,0.0208,-0.0218
54020,45.70458,0.09034,139.89,22.98,3.216,124.5,15 / 17,5402011,2019-08-10 00:05:19:238,0.9889,-0.86,9.5178,1.0502,-1.0429,9.6943,-0.0304,0.0132,-0.0043
54021,45.70458,0.09034,139.89,22.98,3.216,124.5,15 / 17,5402110,2019-08-10 00:05:19:337,0.9117,-1.0581,9.9398,1.0503,-1.0492,9.6936,0.0273,0.0047,-0.0095
54022,45.70458,0.09034,139.89,22.98,3.216,124.5,15 / 17,5402211,2019-08-10 00:05:19:438,0.886,-1.3238,9.6465,1.0403,-1.0549,9.6941,0.0017,-0.0063,0.0085
54023,45.70458,0.09034,139.89,22.98,3.216,124.5,15 / 17,5402310,2019-08-10 00:05:19:537,0.5789,-1.0958,9.8656,1.0271,-1.0753,9.6932,0.0019,-0.0035,0.0118
54024,45.70458,0.09034,139.89,22.98,3.216,124.5,15 / 17,5402411,2019-08-10 00:05:19:638,0.5041,-1.2035,9.6411,1.0082,-1.0839,9.6943,-0.0294,-0.0095,0.0198
54025,45.70458,0.09034,139.89,22.98,3.216,124.5,15 / 17,5402511,2019-08-10 00:05:19:738,0.6334,-1.1898,9.9404,0.9952,-1.0694,9.6972,-0.0179,0.0073,0.0174
54026,45.703327,0.092309,140.6,22.89,3.216,136.2,14 / 16,5402610,2019-08-10 00:05:19:837,0.7806,0.2019,9.7345,0.9847,-1.0607,9.6993,0.0322,0.0011,-0.0162
54027,45.703327,0.092309,140.6,22.89,3.216,136.2,14 / 16,5402710,2019-08-10 00:05:19:937,0.5298,0.0792,9.765,0.9783,-1.0622,9.6997,0.0012,0.0117,-0.0067
54028,45.703327,0.092309,140.6,22.89,3.216,136.2,14 / 16,5402810,2019-08-10 00:05:20:037,0.7914,-2.1061,9.8512,0.9845,-1.0835,9.6968,-0.0242,0.0172,-0.0146
54029,45.703327,0.092309,140.6,22.89,3.216,136.2,14 / 16,5402911,2019-08-10 00:05:20:138,0.6813,-2.8956,9.1689,0.9918,-1.0521,9.6995,0.0112,0.0219,0.0048
54030,45.703327,0.092309,140.6,22.89,3.216,136.2,14 / 16,5403010,2019-08-10 00:05:20:237,1.0973,-0.5739,9.3389,0.9986,-1.0414,9.6999,-0.0385,-0.0126,-0.0002
54031,45.703327,0.092309,140.6,22.89,3.216,136.2,14 / 16,5403112,2019-08-10 00:05:20:339,1.1763,-1.264,9.7997,0.9869,-1.0367,9.7016,0.0223,-0.0223,-0.017
54032,45.703327,0.092309,140.6,22.89,3.216,136.2,14 / 16,5403210,2019-08-10 00:05:20:437,0.9536,-2.0331,9.6459,0.9619,-1.0386,9.7039,-0.0081,-0.0129,-0.0238
54033,45.703327,0.092309,140.6,22.89,3.216,136.2,14 / 16,5403310,2019-08-10 00:05:20:537,1.053,-2.1863,9.9326,0.9542,-1.0403,9.7045,-0.0051,-0.0203,-0.0159
54034,45.703327,0.092309,140.6,22.89,3.216,136.2,14 / 16,5403410,2019-08-10 00:05:20:637,1.2738,-1.6776,9.3245,0.9343,-1.0434,9.7061,0.0139,-0.0268,-0.0449
54035,45.703327,0.092309,140.6,22.89,3.216,136.2,14 / 16,5403510,2019-08-10 00:05:20:737,0.7854,0.0516,9.6734,0.92,-1.0583,9.7059,-0.008,-0.0223,-0.0064
54036,45.703327,0.092309,140.6,22.89,3.216,136.2,16 / 18,5403610,2019-08-10 00:05:20:837,0.8417,-0.7624,10.0523,0.8861,-1.0337,9.7117,-0.0099,-0.0352,-0.0215
54037,45.703327,0.092309,140.6,22.89,3.216,136.2,16 / 18,5403710,2019-08-10 00:05:20:937,0.5927,-0.8055,10.0421,0.8595,-1.0699,9.7101,-0.0093,-0.0192,-0.0087
54038,45.703327,0.092309,140.6,22.89,3.216,136.2,16 / 18,5403811,2019-08-10 00:05:21:038,0.5891,-1.1868,9.346,0.8401,-1.0671,9.7122,0.0013,0.0065,0.0012
54039,45.703327,0.092309,140.6,22.89,3.216,136.2,16 / 18,5403911,2019-08-10 00:05:21:138,0.4041,-1.759,9.3215,0.8385,-1.0471,9.7145,-0.0252,0.0068,0.0078
54040,45.703327,0.092309,140.6,22.89,3.216,136.2,16 / 18,5404010,2019-08-10 00:05:21:237,0.8465,-1.3687,10.0086,0.8357,-1.044,9.715,0.0457,0.0038,-0.0143
54041,45.703327,0.092309,140.6,22.89,3.216,136.2,16 / 18,5404111,2019-08-10 00:05:21:338,0.5029,-0.3296,9.6477,0.8392,-1.0407,9.7151,-0.0512,-0.003,-0.0013
54042,45.703327,0.092309,140.6,22.89,3.216,136.2,16 / 18,5404210,2019-08-10 00:05:21:437,0.5215,0.297,9.9751,0.8118,-1.0594,9.7154,0.0192,-0.0309,-0.0422
54043,45.703327,0.092309,140.6,22.89,3.216,136.2,16 / 18,5404311,2019-08-10 00:05:21:538,0.6154,-0.602,10.0194,0.8048,-1.1048,9.7109,0.0107,-0.0106,0.0404
54044,45.703327,0.092309,140.6,22.89,3.216,136.2,16 / 18,5404411,2019-08-10 00:05:21:638,0.5664,-1.4106,9.856,0.7717,-1.1016,9.714,-0.0175,-0.0105,0.0284
54045,45.703327,0.092309,140.6,22.89,3.216,136.2,16 / 18,5404510,2019-08-10 00:05:21:737,0.1324,-0.8653,9.5885,0.7503,-1.0947,9.7164,-0.007,-0.0137,0.0109
54046,45.703327,0.092309,140.6,22.89,3.216,136.2,16 / 18,5404610,2019-08-10 00:05:21:837,-0.0735,-0.0076,9.6549,0.7346,-1.0657,9.7209,-0.0199,0.0024,0.0423
54047,45.703327,0.092309,140.6,22.89,3.216,136.2,16 / 18,5404710,2019-08-10 00:05:21:937,0.5496,-1.1179,10.1373,0.7274,-1.0661,9.7214,0.031,-0.0013,-0.0257
54048,45.703327,0.092309,140.6,22.89,3.216,136.2,16 / 18,5404810,2019-08-10 00:05:22:037,0.3054,-1.5632,9.3622,0.7184,-1.0347,9.7254,-0.0058,0.0098,-0.048
54049,45.703327,0.092309,140.6,22.89,3.216,136.2,16 / 18,5404911,2019-08-10 00:05:22:138,0.6268,-0.6451,9.4376,0.7348,-1.0315,9.7245,0.0199,-0.0092,-0.0199
54050,45.703327,0.092309,140.6,22.89,3.216,136.2,16 / 18,5405011,2019-08-10 00:05:22:238,-0.2387,-0.4589,9.7644,0.7205,-0.9929,9.7296,-0.0092,0.0076,0.0444
54051,45.703327,0.092309,140.6,22.89,3.216,136.2,16 / 18,5405110,2019-08-10 00:05:22:337,-0.2734,-0.5553,9.9033,0.7091,-0.9852,9.7312,0.0081,-0.0101,0.0063
54052,45.703327,0.092309,140.6,22.89,3.216,136.2,16 / 18,5405210,2019-08-10 00:05:22:437,-0.204,-0.9048,9.4029,0.6981,-0.9597,9.7346,-0.0045,0.0119,0.0399
54053,45.703327,0.092309,140.6,22.89,3.216,136.2,16 / 18,5405310,2019-08-10 00:05:22:537,0.2012,-1.1784,9.6465,0.6918,-0.9432,9.7366,0.0038,0.0024,0.0048
54054,45.703327,0.092309,140.6,22.89,3.216,136.2,16 / 18,5405410,2019-08-10 00:05:22:637,0.036,-0.8049,9.9727,0.6733,-0.9025,9.7418,-0.0093,-0.0199,-0.005
54055,45.703327,0.092309,140.6,22.89,3.216,136.2,16 / 18,5405511,2019-08-10 00:05:22:738,-0.5535,0.7088,8.9636,0.6638,-0.8974,9.7429,-0.0244,0.0064,0.0496
54056,45.703327,0.092309,140.6,22.89,3.216,136.2,16 / 18,5405610,2019-08-10 00:05:22:837,0.7914,-1.92,9.3813,0.6527,-0.8772,9.7455,-0.0121,-0.0088,-0.0142
54057,45.703327,0.092309,140.6,22.89,3.216,136.2,16 / 18,5405710,2019-08-10 00:05:22:937,0.3922,-1.5046,8.4572,0.6401,-0.809,9.7522,-0.0209,0.0049,0.0166
54058,45.703327,0.092309,140.6,22.89,3.216,136.2,16 / 18,5405811,2019-08-10 00:05:23:038,0.2767,-1.4346,9.0809,0.6424,-0.7929,9.7534,0.017,0.004,-0.0195
54059,45.703327,0.092309,140.6,22.89,3.216,136.2,16 / 18,5405910,2019-08-10 00:05:23:137,0.5705,1.299,9.8416,0.6424,-0.7579,9.7562,0.032,0.001,0.0132
54060,45.703327,0.092309,140.6,22.89,3.216,136.2,16 / 18,5406010,2019-08-10 00:05:23:237,0.7004,0.5933,10.8663,0.6375,-0.7726,9.7554,0.0432,-0.0009,-0.006
54061,45.703327,0.092309,140.6,22.89,3.216,136.2,16 / 18,5406111,2019-08-10 00:05:23:338,0.4586,-0.9521,9.956,0.632,-0.8205,9.7518,-0.0215,0.0013,0.0135
54062,45.703327,0.092309,140.6,22.89,3.216,136.2,16 / 18,5406210,2019-08-10 00:05:23:437,0.4293,-0.6247,10.2816,0.6238,-0.8603,9.7489,0.0295,-0.0042,0.018
54063,45.703327,0.092309,140.6,22.89,3.216,136.2,16 / 18,5406310,2019-08-10 00:05:23:537,0.6023,0.0576,8.2704,0.6239,-0.7868,9.7551,-0.0435,0.0061,0.015
54064,45.703327,0.092309,140.6,22.89,3.216,136.2,16 / 18,5406411,2019-08-10 00:05:23:638,0.947,-0.8803,8.7038,0.6223,-0.7571,9.7576,-0.0372,0.0023,-0.0358
54065,45.703327,0.092309,140.6,22.89,3.216,136.2,16 / 18,5406511,2019-08-10 00:05:23:738,1.4091,-0.268,9.5244,0.6394,-0.7493,9.7571,0.0117,-0.0012,-0.0538
54066,45.703327,0.092309,140.6,22.89,3.216,136.2,16 / 18,5406610,2019-08-10 00:05:23:837,1.0745,-2.1624,10.0421,0.6501,-0.7674,9.7549,0.0672,0.0049,-0.0231
54067,45.703327,0.092309,140.6,22.89,3.216,136.2,16 / 18,5406711,2019-08-10 00:05:23:938,0.7956,-0.3572,9.8602,0.6579,-0.804,9.7515,0.0069,0.0018,-0.0318
54068,45.703327,0.092309,140.6,22.89,3.216,136.2,16 / 18,5406811,2019-08-10 00:05:24:038,0.9015,-0.4236,9.935,0.6676,-0.8045,9.7508,0.0286,-0.0012,-0.0459
54069,45.703327,0.092309,140.6,22.89,3.216,136.2,16 / 18,5406910,2019-08-10 00:05:24:137,0.7597,-2.1911,9.3161,0.6739,-0.8061,9.7502,0.0053,-0.0011,-0.0232
54070,45.703327,0.092309,140.6,22.89,3.216,136.2,16 / 18,5407010,2019-08-10 00:05:24:237,0.798,-0.6086,9.4173,0.6766,-0.8138,9.7494,-0.0376,0.002,-0.0068
54071,45.703327,0.092309,140.6,22.89,3.216,136.2,16 / 18,5407111,2019-08-10 00:05:24:338,0.9015,-0.7684,9.7549,0.6821,-0.793,9.7507,-0.0333,0.0081,0.006
54072,45.703327,0.092309,140.6,22.89,3.216,136.2,16 / 18,5407210,2019-08-10 00:05:24:437,1.1182,0.1247,9.6603,0.6875,-0.7839,9.7511,0.0084,0.0038,-0.0325
54073,45.703327,0.092309,140.6,22.89,3.216,136.2,16 / 18,5407310,2019-08-10 00:05:24:537,0.7609,-2.8531,9.5382,0.6965,-0.7566,9.7526,0.0193,0.0055,-0.0133
54074,45.703327,0.092309,140.6,22.89,3.216,136.2,16 / 18,5407411,2019-08-10 00:05:24:638,0.6944,-2.482,8.9468,0.7022,-0.7614,9.7518,-0.0833,0.0105,0.0029
54075,45.703327,0.092309,140.6,22.89,3.216,136.2,16 / 18,5407511,2019-08-10 00:05:24:738,0.8926,-1.7332,10.0284,0.7101,-0.7345,9.7533,0.0008,-0.0052,0.0181
54076,45.703327,0.092309,140.6,22.89,3.216,136.2,14 / 16,5407610,2019-08-10 00:05:24:837,0.8363,-0.0531,9.792,0.7034,-0.7187,9.755,0.0155,-0.0176,-0.034
54077,45.703327,0.092309,140.6,22.89,3.216,136.2,14 / 16,5407710,2019-08-10 00:05:24:937,0.8866,-0.1531,9.8781,0.6952,-0.7512,9.7531,0.0282,-0.0085,-0.0182
54078,45.703327,0.092309,140.6,22.89,3.216,136.2,14 / 16,5407810,2019-08-10 00:05:25:037,0.9644,0.0205,9.5519,0.6968,-0.7701,9.7515,-0.0276,-0.0038,-0.0098
54079,45.703327,0.092309,140.6,22.89,3.216,136.2,14 / 16,5407910,2019-08-10 00:05:25:137,0.564,-1.8482,9.5376,0.6896,-0.7335,9.7548,-0.0495,-0.0122,-0.0354
54080,45.703327,0.092309,140.6,22.89,3.216,136.2,14 / 16,5408010,2019-08-10 00:05:25:237,0.716,-1.6327,9.6716,0.6886,-0.746,9.754,-0.0096,-0.0116,0.0035
54081,45.703327,0.092309,140.6,22.89,3.216,136.2,14 / 16,5408111,2019-08-10 00:05:25:338,0.856,-0.9168,9.6675,0.6657,-0.716,9.7578,-0.0013,-0.0218,-0.0231
54082,45.703327,0.092309,140.6,22.89,3.216,136.2,14 / 16,5408210,2019-08-10 00:05:25:437,0.9099,0.057,10.0906,0.6551,-0.721,9.7582,0.0167,-0.0256,-0.0048
54083,45.703327,0.092309,140.6,22.89,3.216,136.2,14 / 16,5408310,2019-08-10 00:05:25:537,0.634,-1.1269,10.1864,0.6319,-0.7484,9.7576,0.0163,-0.0112,-0.0036
