,GPS LATITUDE (degrees),GPS LONGITUDE (degrees), GPS ALTITUDE (m),GPS SPEED (Kmh),GPS ACCURACY (m),GPS ORIENTATION (Â°), SATELLITES IN RANGE, TIME SINCE START (ms), DATE (YYYY-MO-DD HH-MI-SS_SSS),ACCELEROMETER X (m/s²) , ACCELEROMETER Y (m/s²), ACCELEROMETER Z (m/s²), GRAVITY X (m/s²), GRAVITY Y (m/s²), GRAVITY Z (m/s²), GYROSCOPE Yaw (rad/s), GYROSCOPE Pitch (rad/s), GYROSCOPE Roll (rad/s)
8020,47.329464,-2.126448,58.22,24.41,3.216,64.8,16 / 19,802010,2019-08-09 20:27:30:748,-0.9575,1.1104,10.6419,-0.4891,0.189,9.7926,-0.0403,-0.006,-0.0643
8021,47.329464,-2.126448,58.22,24.41,3.216,64.8,16 / 19,802110,2019-08-09 20:27:30:848,-2.1983,-0.7529,9.6238,-0.4997,0.1969,9.7919,-0.0104,0.0395,0.0242
8022,47.329464,-2.126448,58.22,24.41,3.216,64.8,16 / 19,802211,2019-08-09 20:27:30:949,-2.0122,-0.8965,9.4777,-0.5239,0.1629,9.7913,-0.0103,-0.0223,0.0854
8023,47.329464,-2.126448,58.22,24.41,3.216,64.8,16 / 19,802311,2019-08-09 20:27:31:049,-2.0283,-0.3716,9.4388,-0.5397,0.163,9.7904,0.0192,-0.025,0.0533
8024,47.329464,-2.126448,58.22,24.41,3.216,64.8,16 / 19,802410,2019-08-09 20:27:31:148,-0.5852,0.2156,9.9781,-0.5419,0.1635,9.7903,0.0093,0.0406,-0.0023
8025,47.329464,-2.126448,58.22,24.41,3.216,64.8,16 / 19,802511,2019-08-09 20:27:31:249,-0.5206,0.0755,9.8351,-0.5598,0.1697,9.7892,-0.0025,-0.0124,0.0101
8026,47.329464,-2.126448,58.22,24.41,3.216,64.8,15 / 20,802611,2019-08-09 20:27:31:349,-0.3865,-0.013,9.2886,-0.5335,0.1684,9.7907,0.0047,-0.0498,0.009
8027,47.329464,-2.126448,58.22,24.41,3.216,64.8,15 / 20,802710,2019-08-09 20:27:31:448,-0.2566,0.13,9.5926,-0.5619,0.1696,9.7891,0.0054,0.0158,0.0231
8028,47.329464,-2.126448,58.22,24.41,3.216,64.8,15 / 20,802810,2019-08-09 20:27:31:548,-0.0112,0.0097,9.8883,-0.5369,0.1727,9.7904,0.0143,-0.0243,0.0164
8029,47.329464,-2.126448,58.22,24.41,3.216,64.8,15 / 20,802910,2019-08-09 20:27:31:648,-1.7398,-0.0807,10.0715,-0.5531,0.193,9.7891,0.0206,0.0117,0.0134
8030,47.329464,-2.126448,58.22,24.41,3.216,64.8,15 / 20,803010,2019-08-09 20:27:31:748,-2.9794,0.0624,9.294,-0.5698,0.2006,9.788,0.0134,0.0014,0.0318
8031,47.329464,-2.126448,58.22,24.41,3.216,64.8,15 / 20,803111,2019-08-09 20:27:31:849,0.8088,0.3718,10.3827,-0.5987,0.2181,9.7859,0.0038,0.0383,0.0024
8032,47.329464,-2.126448,58.22,24.41,3.216,64.8,15 / 20,803210,2019-08-09 20:27:31:948,-0.7744,0.3425,9.3131,-0.5854,0.2314,9.7864,0.0207,0.0075,0.0126
8033,47.329464,-2.126448,58.22,24.41,3.216,64.8,15 / 20,803310,2019-08-09 20:27:32:048,0.725,1.2074,10.254,-0.6084,0.2514,9.7845,-0.0229,-0.0134,0.0083
8034,47.329464,-2.126448,58.22,24.41,3.216,64.8,15 / 20,803411,2019-08-09 20:27:32:149,-1.4005,-0.0675,8.611,-0.5437,0.2473,9.7884,-0.0276,-0.0409,0.0068
8035,47.329464,-2.126448,58.22,24.41,3.216,64.8,15 / 20,803511,2019-08-09 20:27:32:249,-3.8018,-0.0867,8.8432,-0.5556,0.2167,9.7885,-0.0238,0.0639,-0.0048
8036,47.329464,-2.126448,58.22,24.41,3.216,64.8,16 / 21,803610,2019-08-09 20:27:32:348,-0.6187,0.4341,9.6722,-0.5915,0.2048,9.7867,-0.0062,-0.0167,0.0379
8037,47.329464,-2.126448,58.22,24.41,3.216,64.8,16 / 21,803711,2019-08-09 20:27:32:449,-1.1173,-0.0148,10.1966,-0.5965,0.1839,9.7868,-0.0106,-0.0275,0.0119
8038,47.329464,-2.126448,58.22,24.41,3.216,64.8,16 / 21,803810,2019-08-09 20:27:32:548,-1.082,-0.0412,9.124,-0.5951,0.1798,9.7869,0.0077,-0.0076,0.0178
8039,47.329464,-2.126448,58.22,24.41,3.216,64.8,16 / 21,803911,2019-08-09 20:27:32:649,-0.6876,0.4323,9.6758,-0.5881,0.1888,9.7872,-0.0004,0.0095,0.0093
8040,47.329464,-2.126448,58.22,24.41,3.216,64.8,16 / 21,804010,2019-08-09 20:27:32:748,-1.3328,0.4466,9.6842,-0.6002,0.1875,9.7865,-0.0152,-0.0233,-0.0005
8041,47.329464,-2.126448,58.22,24.41,3.216,64.8,16 / 21,804110,2019-08-09 20:27:32:848,-0.5379,0.0947,9.619,-0.6011,0.1743,9.7867,-0.0049,0.0121,0.0208
8042,47.329464,-2.126448,58.22,24.41,3.216,64.8,16 / 21,804210,2019-08-09 20:27:32:948,-0.362,0.2665,9.8877,-0.5846,0.1706,9.7877,-0.0185,0.0117,-0.0028
8043,47.329464,-2.126448,58.22,24.41,3.216,64.8,16 / 21,804311,2019-08-09 20:27:33:049,-1.4812,-0.2225,9.4406,-0.5863,0.1521,9.7879,-0.0046,-0.0426,0.0678
8044,47.329464,-2.126448,58.22,24.41,3.216,64.8,16 / 21,804411,2019-08-09 20:27:33:149,-1.5303,-0.0484,9.9955,-0.6137,0.14,9.7864,-0.0126,0.045,-0.0033
8045,47.329464,-2.126448,58.22,24.41,3.216,64.8,16 / 21,804510,2019-08-09 20:27:33:248,-2.6472,-0.1932,9.8937,-0.6313,0.1228,9.7855,-0.0126,0.0508,0.0051
8046,47.329464,-2.126448,58.22,24.41,3.216,64.8,14 / 19,804610,2019-08-09 20:27:33:348,0.8866,-0.2878,9.431,-0.6169,0.1196,9.7865,0.0023,-0.0477,0.0341
8047,47.329464,-2.126448,58.22,24.41,3.216,64.8,14 / 19,804711,2019-08-09 20:27:33:449,-0.0896,-0.6685,9.3766,-0.6105,0.1211,9.7869,0.0022,0.0308,-0.0146
8048,47.329464,-2.126448,58.22,24.41,3.216,64.8,14 / 19,804810,2019-08-09 20:27:33:548,0.2115,0.2024,9.9566,-0.6355,0.1218,9.7853,0.0036,0.0098,0.0102
8049,47.329464,-2.126448,58.22,24.41,3.216,64.8,14 / 19,804910,2019-08-09 20:27:33:648,-2.1917,-0.0322,10.2349,-0.6413,0.1198,9.7849,-0.0058,-0.0037,0.0233
8050,47.329464,-2.126448,58.22,24.41,3.216,64.8,14 / 19,805011,2019-08-09 20:27:33:749,-0.614,-0.0807,9.3819,-0.6503,0.1095,9.7845,0.0095,-0.0018,0.0232
8051,47.329464,-2.126448,58.22,24.41,3.216,64.8,14 / 19,805111,2019-08-09 20:27:33:849,0.7681,0.5472,9.9057,-0.6525,0.1155,9.7842,-0.0015,-0.0234,0.0733
8052,47.329464,-2.126448,58.22,24.41,3.216,64.8,14 / 19,805210,2019-08-09 20:27:33:948,-1.2299,-0.6391,9.6681,-0.6606,0.1079,9.7838,-0.025,-0.0644,-0.058
8053,47.329464,-2.126448,58.22,24.41,3.216,64.8,14 / 19,805310,2019-08-09 20:27:34:048,-1.2813,-0.1693,8.7074,-0.6107,0.0966,9.7871,-0.0335,-0.0272,0.0638
8054,47.329464,-2.126448,58.22,24.41,3.216,64.8,14 / 19,805410,2019-08-09 20:27:34:148,-1.0371,-0.4841,8.8528,-0.6068,0.0431,9.7878,-0.0421,-0.0568,0.0483
8055,47.329464,-2.126448,58.22,24.41,3.216,64.8,14 / 19,805510,2019-08-09 20:27:34:248,0.172,0.2354,9.6274,-0.6087,0.0259,9.7877,-0.0185,0.0581,-0.0261
8056,47.329464,-2.126448,58.22,24.41,3.216,64.8,16 / 21,805610,2019-08-09 20:27:34:348,-1.2442,1.6276,9.8494,-0.6028,0.0264,9.7881,-0.0117,0.0268,-0.0332
8057,47.329464,-2.126448,58.22,24.41,3.216,64.8,16 / 21,805710,2019-08-09 20:27:34:448,-2.7322,1.4756,10.7167,-0.5963,0.0527,9.7884,0.0258,0.1035,0.0022
8058,47.329464,-2.126448,58.22,24.41,3.216,64.8,16 / 21,805811,2019-08-09 20:27:34:549,0.482,-0.3177,9.0546,-0.6028,0.0912,9.7877,0.0228,-0.07,0.0241
8059,47.329464,-2.126448,58.22,24.41,3.216,64.8,16 / 21,805911,2019-08-09 20:27:34:649,-2.4132,0.7244,10.2367,-0.6303,0.099,9.7859,-0.0155,0.009,0.0479
8060,47.329464,-2.126448,58.22,24.41,3.216,64.8,16 / 21,806011,2019-08-09 20:27:34:749,-1.2592,-0.283,9.9931,-0.6428,0.0878,9.7852,-0.0163,0.0102,0.0273
8061,47.329464,-2.126448,58.22,24.41,3.216,64.8,16 / 21,806110,2019-08-09 20:27:34:848,0.6604,-0.3333,9.6722,-0.6358,0.0882,9.7856,0.0323,0.0426,0.0382
8062,47.329464,-2.126448,58.22,24.41,3.216,64.8,16 / 21,806211,2019-08-09 20:27:34:949,-1.902,0.7507,10.518,-0.6511,0.113,9.7844,0.0058,-0.006,-0.0139
8063,47.329464,-2.126448,58.22,24.41,3.216,64.8,16 / 21,806311,2019-08-09 20:27:35:049,-0.8887,0.5616,10.3851,-0.6535,0.1176,9.7841,0.0026,-0.0064,-0.01
8064,47.329464,-2.126448,58.22,24.41,3.216,64.8,16 / 21,806410,2019-08-09 20:27:35:148,0.0582,0.3443,9.5902,-0.6513,0.1229,9.7842,0.0072,-0.0277,0.0457
8065,47.329464,-2.126448,58.22,24.41,3.216,64.8,16 / 21,806510,2019-08-09 20:27:35:248,-1.3609,0.1288,9.3933,-0.6398,0.1297,9.7849,-0.022,0.0552,-0.0238
8066,47.330376,-2.124021,59.7,23.66,3.216,57.9,16 / 20,806610,2019-08-09 20:27:35:348,0.1139,0.1228,9.6369,-0.6591,0.1025,9.7839,-0.0117,0.0698,0.0249
8067,47.330376,-2.124021,59.7,23.66,3.216,57.9,16 / 20,806710,2019-08-09 20:27:35:448,-1.6297,-0.2692,9.0402,-0.6685,0.0971,9.7834,0.0069,-0.0372,0.024
8068,47.330376,-2.124021,59.7,23.66,3.216,57.9,16 / 20,806811,2019-08-09 20:27:35:549,-0.6439,0.1785,9.1162,-0.6513,0.1139,9.7843,0.0213,-0.0345,0.0034
8069,47.330376,-2.124021,59.7,23.66,3.216,57.9,16 / 20,806910,2019-08-09 20:27:35:648,-1.4854,0.4005,9.3059,-0.6428,0.1292,9.7847,0.0004,-0.0309,-0.0039
8070,47.330376,-2.124021,59.7,23.66,3.216,57.9,16 / 20,807010,2019-08-09 20:27:35:748,-0.4613,0.6711,9.5615,-0.6259,0.1171,9.786,-0.0221,0.0535,0.025
8071,47.330376,-2.124021,59.7,23.66,3.216,57.9,16 / 20,807110,2019-08-09 20:27:35:848,-0.751,-0.0753,9.7842,-0.626,0.1099,9.786,0.0092,0.0386,0.023
8072,47.330376,-2.124021,59.7,23.66,3.216,57.9,16 / 20,807211,2019-08-09 20:27:35:949,-1.3783,0.039,9.8614,-0.6409,0.1095,9.7851,-0.0035,0.0069,0.0116
8073,47.330376,-2.124021,59.7,23.66,3.216,57.9,16 / 20,807311,2019-08-09 20:27:36:049,-0.5415,-0.3602,9.3233,-0.6395,0.1064,9.7852,0.0007,-0.0396,0.0368
8074,47.330376,-2.124021,59.7,23.66,3.216,57.9,16 / 20,807411,2019-08-09 20:27:36:149,-0.3913,-0.0496,9.3754,-0.6243,0.1165,9.7861,0.0059,-0.0208,0.0189
8075,47.330376,-2.124021,59.7,23.66,3.216,57.9,16 / 20,807511,2019-08-09 20:27:36:249,-0.6158,0.0869,10.1678,-0.6328,0.109,9.7856,-0.0143,0.0433,0.0161
8076,47.330376,-2.124021,59.7,23.66,3.216,57.9,14 / 17,807610,2019-08-09 20:27:36:348,-0.9444,-0.4506,9.2832,-0.609,0.0979,9.7872,0.0024,-0.0129,0.0388
8077,47.330376,-2.124021,59.7,23.66,3.216,57.9,14 / 17,807711,2019-08-09 20:27:36:449,1.2481,0.1336,8.9977,-0.6174,0.0933,9.7868,-0.0184,-0.0516,0.0268
8078,47.330376,-2.124021,59.7,23.66,3.216,57.9,14 / 17,807811,2019-08-09 20:27:36:549,-3.4445,0.1186,10.2834,-0.6014,0.058,9.788,-0.0378,0.0442,-0.0109
8079,47.330376,-2.124021,59.7,23.66,3.216,57.9,14 / 17,807911,2019-08-09 20:27:36:649,-1.8158,0.5544,10.3905,-0.6118,0.0542,9.7874,-0.0203,0.0403,-0.0014
8080,47.330376,-2.124021,59.7,23.66,3.216,57.9,14 / 17,808011,2019-08-09 20:27:36:749,-2.3581,0.4826,9.6339,-0.6219,0.0357,9.7868,-0.0083,0.0135,0.0343
8081,47.330376,-2.124021,59.7,23.66,3.216,57.9,14 / 17,808111,2019-08-09 20:27:36:849,2.1597,-0.793,9.9889,-0.6298,0.0345,9.7863,-0.017,0.0221,-0.0352
8082,47.330376,-2.124021,59.7,23.66,3.216,57.9,14 / 17,808210,2019-08-09 20:27:36:948,-0.9827,-0.5553,10.0002,-0.6586,0.0205,9.7845,-0.0183,0.0232,-0.0076
8083,47.330376,-2.124021,59.7,23.66,3.216,57.9,14 / 17,808311,2019-08-09 20:27:37:049,-0.2925,-0.4907,8.9019,-0.6595,0.0134,9.7844,-0.0071,-0.0494,0.0399
8084,47.330376,-2.124021,59.7,23.66,3.216,57.9,14 / 17,808410,2019-08-09 20:27:37:148,0.1007,0.1282,9.7818,-0.6559,0.0067,9.7847,0.0003,0.0291,0.0026
8085,47.330376,-2.124021,59.7,23.66,3.216,57.9,14 / 17,808510,2019-08-09 20:27:37:248,0.4156,-0.0825,9.4735,-0.6334,0.0125,9.7862,0.009,-0.0161,0.0152
8086,47.330376,-2.124021,59.7,23.66,3.216,57.9,16 / 20,808610,2019-08-09 20:27:37:348,0.8447,0.0187,9.2784,-0.612,0.0179,9.7875,0.005,-0.0526,0.038
8087,47.330376,-2.124021,59.7,23.66,3.216,57.9,16 / 20,808710,2019-08-09 20:27:37:448,-2.4473,-0.4584,9.2437,-0.5914,0.0205,9.7888,-0.0083,0.0104,-0.0197
8088,47.330376,-2.124021,59.7,23.66,3.216,57.9,16 / 20,808810,2019-08-09 20:27:37:548,-0.6193,-0.3889,9.0869,-0.5854,0.0218,9.7891,0.0072,-0.0488,0.074
8089,47.330376,-2.124021,59.7,23.66,3.216,57.9,16 / 20,808910,2019-08-09 20:27:37:648,-0.8217,-0.3788,9.6483,-0.5728,0.0087,9.7899,-0.0144,-0.0201,0.0492
8090,47.330376,-2.124021,59.7,23.66,3.216,57.9,16 / 20,809010,2019-08-09 20:27:37:748,-1.1413,-0.4614,9.7201,-0.5781,-0.0061,9.7896,-0.0052,0.0189,0.0316
8091,47.330376,-2.124021,59.7,23.66,3.216,57.9,16 / 20,809110,2019-08-09 20:27:37:848,-0.0878,-0.435,9.7872,-0.5877,-0.0029,9.789,0.0135,0.0169,0.0396
8092,47.330376,-2.124021,59.7,23.66,3.216,57.9,16 / 20,809211,2019-08-09 20:27:37:949,-0.8713,-0.4129,9.5777,-0.5949,-0.0065,9.7886,-0.005,-0.0427,0.0632
8093,47.330376,-2.124021,59.7,23.66,3.216,57.9,16 / 20,809310,2019-08-09 20:27:38:048,-0.5894,-0.1256,9.2616,-0.5873,-0.0186,9.789,-0.002,0.0372,-0.0265
8094,47.330376,-2.124021,59.7,23.66,3.216,57.9,16 / 20,809410,2019-08-09 20:27:38:148,-0.2758,-0.3231,9.5711,-0.5912,-0.0165,9.7888,-0.0118,0.0082,0.0037
8095,47.330376,-2.124021,59.7,23.66,3.216,57.9,16 / 20,809510,2019-08-09 20:27:38:248,0.725,0.03,9.543,-0.5921,-0.0325,9.7887,-0.0085,0.0086,0.0215
8096,47.330376,-2.124021,59.7,23.66,3.216,57.9,17 / 21,809611,2019-08-09 20:27:38:349,-1.9852,-0.7451,9.6914,-0.6087,-0.0331,9.7877,-0.0085,0.0086,0.0215
8097,47.330376,-2.124021,59.7,23.66,3.216,57.9,17 / 21,809711,2019-08-09 20:27:38:449,-1.8105,-0.3027,9.203,-0.5862,-0.0226,9.7891,0.0186,-0.0025,0.0446
8098,47.330376,-2.124021,59.7,23.66,3.216,57.9,17 / 21,809810,2019-08-09 20:27:38:548,-1.8931,-0.5488,9.4155,-0.6149,-0.0225,9.7873,0.0032,-0.0195,0.0533
8099,47.330376,-2.124021,59.7,23.66,3.216,57.9,17 / 21,809911,2019-08-09 20:27:38:649,1.0021,0.4993,9.8243,-0.6102,-0.0145,9.7876,0.0158,-0.0451,0.0592
8100,47.330376,-2.124021,59.7,23.66,3.216,57.9,17 / 21,810011,2019-08-09 20:27:38:749,1.0979,0.5951,10.1613,-0.6134,-0.0086,9.7874,-0.0012,0.0617,-0.0245
8101,47.330376,-2.124021,59.7,23.66,3.216,57.9,17 / 21,810110,2019-08-09 20:27:38:848,0.0427,-0.2297,9.9278,-0.6118,-0.0023,9.7875,0.0134,0.0135,0.0138
8102,47.330376,-2.124021,59.7,23.66,3.216,57.9,17 / 21,810210,2019-08-09 20:27:38:948,-1.0724,0.5526,8.8881,-0.5939,-0.0015,9.7886,0.0119,-0.0103,0.0257
8103,47.330376,-2.124021,59.7,23.66,3.216,57.9,17 / 21,810311,2019-08-09 20:27:39:049,-1.5842,-0.4308,10.9483,-0.6326,0.0123,9.7862,-0.0032,0.0653,0.0035
8104,47.330376,-2.124021,59.7,23.66,3.216,57.9,17 / 21,810410,2019-08-09 20:27:39:148,-1.0964,0.0271,9.2497,-0.5918,0.014,9.7888,0.0229,-0.0637,0.0427
8105,47.330376,-2.124021,59.7,23.66,3.216,57.9,17 / 21,810510,2019-08-09 20:27:39:248,-0.2458,-0.3794,9.838,-0.5969,0.0402,9.7884,0.0143,-0.0436,-0.0349
8106,47.330376,-2.124021,59.7,23.66,3.216,57.9,16 / 20,810611,2019-08-09 20:27:39:349,-0.101,0.0444,10.123,-0.6207,0.061,9.7868,0.0138,0.0288,0.0357
8107,47.330376,-2.124021,59.7,23.66,3.216,57.9,16 / 20,810711,2019-08-09 20:27:39:449,-1.2035,-0.7936,9.5208,-0.6104,0.0652,9.7874,0.0091,-0.0188,0.07
8108,47.330376,-2.124021,59.7,23.66,3.216,57.9,16 / 20,810811,2019-08-09 20:27:39:549,0.5047,-0.2178,9.0665,-0.6157,0.0651,9.7871,0.0149,-0.0105,0.0269
8109,47.330376,-2.124021,59.7,23.66,3.216,57.9,16 / 20,810911,2019-08-09 20:27:39:649,-1.17,0.6136,9.762,-0.5831,0.0782,9.789,-0.0039,-0.0357,-0.0015
8110,47.330376,-2.124021,59.7,23.66,3.216,57.9,16 / 20,811011,2019-08-09 20:27:39:749,-0.9623,0.3784,9.7106,-0.5832,0.0775,9.789,-0.01,-0.0627,0.0083
8111,47.330376,-2.124021,59.7,23.66,3.216,57.9,16 / 20,811111,2019-08-09 20:27:39:849,-1.1018,0.4245,9.8147,-0.5801,0.0756,9.7892,0.0024,0.0596,0.0229
8112,47.330376,-2.124021,59.7,23.66,3.216,57.9,16 / 20,811210,2019-08-09 20:27:39:948,-0.5044,-0.3034,8.5015,-0.5282,0.0852,9.792,0.0077,-0.091,0.0227
8113,47.330376,-2.124021,59.7,23.66,3.216,57.9,16 / 20,811310,2019-08-09 20:27:40:048,-0.3302,0.6627,9.7441,-0.5595,0.0921,9.7902,-0.0384,-0.0012,-0.0169
8114,47.330376,-2.124021,59.7,23.66,3.216,57.9,16 / 20,811410,2019-08-09 20:27:40:148,-0.4954,0.0618,10.9268,-0.5488,0.0759,9.791,-0.0361,0.0961,0.0169
8115,47.330376,-2.124021,59.7,23.66,3.216,57.9,16 / 20,811510,2019-08-09 20:27:40:248,-1.1449,0.0708,10.4635,-0.6174,0.0502,9.7871,0.0104,-0.0546,-0.0085
8116,47.330376,-2.124021,59.7,23.66,3.216,57.9,16 / 21,811610,2019-08-09 20:27:40:348,-0.833,0.0714,9.4209,-0.5924,0.056,9.7886,0.021,0.0198,0.0139
8117,47.330376,-2.124021,59.7,23.66,3.216,57.9,16 / 21,811710,2019-08-09 20:27:40:448,-1.495,0.5574,11.1423,-0.5962,0.0678,9.7883,-0.0091,-0.073,0.0488
8118,47.330376,-2.124021,59.7,23.66,3.216,57.9,16 / 21,811810,2019-08-09 20:27:40:548,0.4533,0.0097,9.1048,-0.5845,0.061,9.789,-0.0001,0.0044,0.0133
8119,47.330376,-2.124021,59.7,23.66,3.216,57.9,16 / 21,811910,2019-08-09 20:27:40:648,0.5119,0.1875,8.8169,-0.578,0.0619,9.7894,0.0011,-0.0555,0.0081
8120,47.330376,-2.124021,59.7,23.66,3.216,57.9,16 / 21,812010,2019-08-09 20:27:40:748,-0.5343,0.2551,9.1988,-0.5412,0.0661,9.7915,-0.0068,-0.0227,0.0204
8121,47.330376,-2.124021,59.7,23.66,3.216,57.9,16 / 21,812110,2019-08-09 20:27:40:848,-1.0431,0.0935,9.7447,-0.5513,0.0664,9.7909,-0.0111,0.0214,-0.0012
8122,47.330376,-2.124021,59.7,23.66,3.216,57.9,16 / 21,812210,2019-08-09 20:27:40:948,-1.5154,0.0959,10.4659,-0.5711,0.0665,9.7898,0.0063,0.0364,0.0159
8123,47.330376,-2.124021,59.7,23.66,3.216,57.9,16 / 21,812310,2019-08-09 20:27:41:048,-0.9282,-0.101,9.7465,-0.5703,0.0675,9.7898,0.0073,-0.0359,0.0006
8124,47.330376,-2.124021,59.7,23.66,3.216,57.9,16 / 21,812410,2019-08-09 20:27:41:148,-0.1429,0.1653,9.7135,-0.5573,0.0829,9.7905,0.0105,-0.0182,0.0182
8125,47.330376,-2.124021,59.7,23.66,3.216,57.9,16 / 21,812510,2019-08-09 20:27:41:248,-0.7923,0.5628,10.597,-0.5704,0.0828,9.7897,-0.0037,-0.0234,0.0465
8126,47.330376,-2.124021,59.7,23.66,3.216,57.9,15 / 20,812610,2019-08-09 20:27:41:348,-2.8501,0.2054,9.7082,-0.5681,0.0784,9.7899,-0.0118,0.0484,0.0006
8127,47.330376,-2.124021,59.7,23.66,3.216,57.9,15 / 20,812711,2019-08-09 20:27:41:449,-0.9671,0.7633,9.9524,-0.5558,0.0809,9.7905,-0.0157,0.0252,-0.043
8128,47.330376,-2.124021,59.7,23.66,3.216,57.9,15 / 20,812810,2019-08-09 20:27:41:548,-0.4422,0.042,10.3342,-0.5774,0.0679,9.7894,-0.0112,0.0213,0.0433
8129,47.330376,-2.124021,59.7,23.66,3.216,57.9,15 / 20,812910,2019-08-09 20:27:41:648,-0.8953,-0.3046,10.1948,-0.5548,0.0625,9.7907,0.0127,0.0466,0.001
8130,47.330376,-2.124021,59.7,23.66,3.216,57.9,15 / 20,813011,2019-08-09 20:27:41:749,-0.095,0.2372,9.5531,-0.5641,0.0765,9.7901,-0.0096,-0.0008,-0.0187
8131,47.330376,-2.124021,59.7,23.66,3.216,57.9,15 / 20,813110,2019-08-09 20:27:41:848,-1.7961,-0.0669,9.2024,-0.5553,0.0737,9.7906,0.0002,-0.0176,0.049
8132,47.330376,-2.124021,59.7,23.66,3.216,57.9,15 / 20,813211,2019-08-09 20:27:41:949,-0.7989,0.1976,9.9649,-0.5443,0.0652,9.7913,-0.0208,-0.0423,0.0464
8133,47.330376,-2.124021,59.7,23.66,3.216,57.9,15 / 20,813310,2019-08-09 20:27:42:048,-0.3296,-0.1196,9.7291,-0.5428,0.0456,9.7915,-0.0234,0.016,0.0298
8134,47.330376,-2.124021,59.7,23.66,3.216,57.9,15 / 20,813410,2019-08-09 20:27:42:148,-0.3943,-0.2794,9.5902,-0.5286,0.0236,9.7924,-0.0086,-0.0159,0.0052
8135,47.330376,-2.124021,59.7,23.66,3.216,57.9,15 / 20,813510,2019-08-09 20:27:42:248,0.6406,0.1426,9.701,-0.5282,0.0195,9.7924,-0.0177,0.0189,0.019
8136,47.330376,-2.124021,59.7,23.66,3.216,57.9,17 / 21,813613,2019-08-09 20:27:42:351,-0.1842,-0.1801,9.8734,-0.5229,-0.0006,9.7927,-0.0121,0.0163,0.0309
8137,47.330376,-2.124021,59.7,23.66,3.216,57.9,17 / 21,813710,2019-08-09 20:27:42:448,1.0692,-0.0448,9.592,-0.5067,-0.0074,9.7935,-0.004,-0.0126,0.0072
8138,47.330376,-2.124021,59.7,23.66,3.216,57.9,17 / 21,813810,2019-08-09 20:27:42:548,1.3798,0.215,10.0601,-0.5184,-0.0082,9.7929,0.0,-0.0207,0.0184
8139,47.330376,-2.124021,59.7,23.66,3.216,57.9,17 / 21,813911,2019-08-09 20:27:42:649,0.1636,0.066,9.5663,-0.4927,-0.0039,9.7943,0.0221,0.0025,0.0293
8140,47.330376,-2.124021,59.7,23.66,3.216,57.9,17 / 21,814011,2019-08-09 20:27:42:749,1.0093,0.0019,9.6274,-0.4949,0.0182,9.7941,0.0123,0.0016,-0.014
8141,47.330376,-2.124021,59.7,23.66,3.216,57.9,17 / 21,814110,2019-08-09 20:27:42:848,1.487,-0.1232,9.9374,-0.4843,0.0311,9.7946,0.0122,-0.0059,0.0323
8142,47.330376,-2.124021,59.7,23.66,3.216,57.9,17 / 21,814210,2019-08-09 20:27:42:948,0.5484,-0.0394,9.4484,-0.4695,0.0345,9.7953,0.0047,-0.0217,0.019
8143,47.330376,-2.124021,59.7,23.66,3.216,57.9,17 / 21,814310,2019-08-09 20:27:43:048,-0.0376,0.5813,10.1068,-0.4906,0.0367,9.7943,-0.0045,0.0362,-0.0098
8144,47.330376,-2.124021,59.7,23.66,3.216,57.9,17 / 21,814411,2019-08-09 20:27:43:149,-1.2664,-0.0579,10.0296,-0.493,0.0296,9.7942,-0.0067,0.004,0.0188
8145,47.330376,-2.124021,59.7,23.66,3.216,57.9,17 / 21,814511,2019-08-09 20:27:43:249,-0.2991,0.1204,9.5178,-0.4951,0.0304,9.7941,-0.0004,0.0029,-0.0025
8146,47.330376,-2.124021,59.7,23.66,3.216,57.9,15 / 19,814611,2019-08-09 20:27:43:349,0.1755,0.2366,9.8099,-0.4996,0.0286,9.7939,-0.0194,0.0068,-0.0227
8147,47.330376,-2.124021,59.7,23.66,3.216,57.9,15 / 19,814710,2019-08-09 20:27:43:448,1.0105,0.1563,10.3576,-0.4946,0.0212,9.7941,-0.0185,-0.0046,0.0293
8148,47.330376,-2.124021,59.7,23.66,3.216,57.9,15 / 19,814811,2019-08-09 20:27:43:549,-1.4082,-0.2279,9.613,-0.4926,0.0023,9.7943,-0.0058,-0.0143,-0.0024
8149,47.330376,-2.124021,59.7,23.66,3.216,57.9,15 / 19,814911,2019-08-09 20:27:43:649,0.1037,0.209,9.6842,-0.4946,-0.0015,9.7942,-0.0117,0.0236,0.0023
8150,47.330376,-2.124021,59.7,23.66,3.216,57.9,15 / 19,815011,2019-08-09 20:27:43:749,1.8886,0.0336,9.9577,-0.4818,-0.0205,9.7948,-0.0241,-0.0148,-0.0013
8151,47.330376,-2.124021,59.7,23.66,3.216,57.9,15 / 19,815110,2019-08-09 20:27:43:848,0.4754,-0.2728,10.1463,-0.4835,-0.0323,9.7947,-0.0078,0.0332,0.0211
8152,47.330376,-2.124021,59.7,23.66,3.216,57.9,15 / 19,815210,2019-08-09 20:27:43:948,-0.7822,0.0791,9.534,-0.4762,-0.0391,9.795,-0.0016,-0.0156,0.0128
8153,47.330376,-2.124021,59.7,23.66,3.216,57.9,15 / 19,815311,2019-08-09 20:27:44:049,1.6187,0.1073,9.5286,-0.4541,-0.027,9.7961,-0.0009,0.0577,-0.0308
8154,47.330376,-2.124021,59.7,23.66,3.216,57.9,15 / 19,815410,2019-08-09 20:27:44:148,1.059,-0.4715,9.5825,-0.4625,-0.0317,9.7957,-0.0232,0.002,-0.0207
8155,47.330376,-2.124021,59.7,23.66,3.216,57.9,15 / 19,815511,2019-08-09 20:27:44:249,-1.2813,0.2174,10.0404,-0.4454,-0.0441,9.7964,0.0072,-0.003,0.0513
8156,47.331577,-2.12167,54.19,24.96,4.288,50.1,17 / 21,815611,2019-08-09 20:27:44:349,0.6837,0.6232,11.0417,-0.4577,-0.0464,9.7959,0.0084,0.0089,0.0408
8157,47.331577,-2.12167,54.19,24.96,4.288,50.1,17 / 21,815711,2019-08-09 20:27:44:449,-0.1196,-0.0861,9.5005,-0.4572,-0.032,9.7959,-0.0015,-0.004,-0.0058
8158,47.331577,-2.12167,54.19,24.96,4.288,50.1,17 / 21,815810,2019-08-09 20:27:44:548,0.2384,0.4718,9.206,-0.4614,-0.0203,9.7958,0.0201,-0.0368,-0.0187
8159,47.331577,-2.12167,54.19,24.96,4.288,50.1,17 / 21,815910,2019-08-09 20:27:44:648,-0.201,0.309,8.948,-0.4133,-0.003,9.7979,-0.0036,-0.044,-0.0358
8160,47.331577,-2.12167,54.19,24.96,4.288,50.1,17 / 21,816010,2019-08-09 20:27:44:748,4.1403,0.4574,9.5208,-0.4084,-0.0002,9.7981,-0.0185,0.0495,-0.0234
8161,47.331577,-2.12167,54.19,24.96,4.288,50.1,17 / 21,816110,2019-08-09 20:27:44:848,1.1015,-0.5877,9.0509,-0.4023,-0.0117,9.7984,-0.0072,-0.0388,0.0508
8162,47.331577,-2.12167,54.19,24.96,4.288,50.1,17 / 21,816210,2019-08-09 20:27:44:948,-1.0072,-0.0023,9.9757,-0.417,-0.0338,9.7977,-0.0217,0.002,0.076
8163,47.331577,-2.12167,54.19,24.96,4.288,50.1,17 / 21,816310,2019-08-09 20:27:45:048,-2.6095,0.0558,10.2367,-0.4205,-0.0592,9.7975,-0.0004,-0.0424,0.0332
8164,47.331577,-2.12167,54.19,24.96,4.288,50.1,17 / 21,816411,2019-08-09 20:27:45:149,0.002,-0.1136,9.6687,-0.4019,-0.0665,9.7982,-0.0204,0.0399,-0.0074
8165,47.331577,-2.12167,54.19,24.96,4.288,50.1,17 / 21,816510,2019-08-09 20:27:45:248,0.1037,-0.0585,9.2203,-0.3862,-0.0856,9.7987,-0.0212,0.0258,0.0048
8166,47.331577,-2.12167,54.19,24.96,4.288,50.1,17 / 21,816611,2019-08-09 20:27:45:349,-0.575,-0.535,9.8129,-0.3831,-0.1086,9.7986,-0.0334,0.0015,0.0553
8167,47.331577,-2.12167,54.19,24.96,4.288,50.1,17 / 21,816710,2019-08-09 20:27:45:448,-0.3326,0.0516,10.3839,-0.3709,-0.1496,9.7985,-0.0212,0.0151,0.0373
8168,47.331577,-2.12167,54.19,24.96,4.288,50.1,17 / 21,816810,2019-08-09 20:27:45:548,0.0277,0.06,10.6281,-0.4151,-0.1658,9.7965,-0.0268,0.0267,-0.0034
8169,47.331577,-2.12167,54.19,24.96,4.288,50.1,17 / 21,816910,2019-08-09 20:27:45:648,-0.5403,-0.1154,10.5773,-0.4149,-0.1888,9.796,-0.0126,-0.0138,0.0276
8170,47.331577,-2.12167,54.19,24.96,4.288,50.1,17 / 21,817010,2019-08-09 20:27:45:748,2.4536,0.2252,9.5154,-0.397,-0.1969,9.7966,0.0007,-0.0233,0.0328
8171,47.331577,-2.12167,54.19,24.96,4.288,50.1,17 / 21,817110,2019-08-09 20:27:45:848,-2.312,-0.5116,9.9206,-0.3766,-0.208,9.7972,-0.033,-0.0042,-0.0503
8172,47.331577,-2.12167,54.19,24.96,4.288,50.1,17 / 21,817211,2019-08-09 20:27:45:949,-0.6983,-0.2016,9.2479,-0.3712,-0.1995,9.7976,0.0113,-0.011,0.0585
8173,47.331577,-2.12167,54.19,24.96,4.288,50.1,17 / 21,817310,2019-08-09 20:27:46:048,-0.8618,0.0031,10.0984,-0.3599,-0.1951,9.7981,0.0079,0.0327,-0.0059
8174,47.331577,-2.12167,54.19,24.96,4.288,50.1,17 / 21,817411,2019-08-09 20:27:46:149,-0.8163,0.1474,9.7237,-0.3517,-0.1915,9.7985,0.0036,-0.0288,0.0053
8175,47.331577,-2.12167,54.19,24.96,4.288,50.1,17 / 21,817511,2019-08-09 20:27:46:249,-0.1884,0.4945,10.0128,-0.359,-0.174,9.7985,-0.0013,0.0213,-0.0149
8176,47.331577,-2.12167,54.19,24.96,4.288,50.1,15 / 19,817611,2019-08-09 20:27:46:349,0.8956,0.2838,9.2563,-0.3517,-0.1691,9.7989,0.0031,0.0782,0.007
8177,47.331577,-2.12167,54.19,24.96,4.288,50.1,15 / 19,817711,2019-08-09 20:27:46:449,-0.8797,0.3808,11.2135,-0.3742,-0.1537,9.7983,-0.0011,-0.0465,-0.0081
8178,47.331577,-2.12167,54.19,24.96,4.288,50.1,15 / 19,817811,2019-08-09 20:27:46:549,-1.2412,0.1354,10.4905,-0.417,-0.1348,9.7969,0.035,-0.0728,0.0144
8179,47.331577,-2.12167,54.19,24.96,4.288,50.1,15 / 19,817910,2019-08-09 20:27:46:648,-1.0509,0.6998,10.0757,-0.3911,-0.0927,9.7984,-0.0048,-0.0365,-0.0108
8180,47.331577,-2.12167,54.19,24.96,4.288,50.1,15 / 19,818010,2019-08-09 20:27:46:748,0.2827,0.5867,9.6567,-0.3677,-0.0846,9.7994,-0.0185,0.0344,0.005
8181,47.331577,-2.12167,54.19,24.96,4.288,50.1,15 / 19,818111,2019-08-09 20:27:46:849,0.8621,0.1749,9.2209,-0.3553,-0.0938,9.7998,-0.0229,0.0341,-0.0463
8182,47.331577,-2.12167,54.19,24.96,4.288,50.1,15 / 19,818210,2019-08-09 20:27:46:948,0.6053,0.06,10.0308,-0.3761,-0.1021,9.7989,-0.02,-0.0076,0.0351
8183,47.331577,-2.12167,54.19,24.96,4.288,50.1,15 / 19,818311,2019-08-09 20:27:47:049,-0.4853,0.3227,10.2121,-0.3692,-0.1147,9.799,-0.0031,-0.01,0.0243
8184,47.331577,-2.12167,54.19,24.96,4.288,50.1,15 / 19,818410,2019-08-09 20:27:47:148,-0.9515,0.0803,9.6645,-0.3708,-0.1132,9.799,-0.0067,0.0184,-0.043
8185,47.331577,-2.12167,54.19,24.96,4.288,50.1,15 / 19,818511,2019-08-09 20:27:47:249,-1.1616,-0.0196,9.4262,-0.3604,-0.1107,9.7994,-0.008,0.0041,-0.0275
8186,47.331577,-2.12167,54.19,24.96,4.288,50.1,16 / 20,818611,2019-08-09 20:27:47:349,1.3894,0.2605,9.4717,-0.3484,-0.1045,9.7999,0.007,-0.0274,0.0147
8187,47.331577,-2.12167,54.19,24.96,4.288,50.1,16 / 20,818711,2019-08-09 20:27:47:449,-0.2357,0.0522,10.9238,-0.3725,-0.1041,9.799,-0.0159,0.0003,-0.0137
8188,47.331577,-2.12167,54.19,24.96,4.288,50.1,16 / 20,818810,2019-08-09 20:27:47:548,-1.2323,-0.5021,9.8177,-0.3998,-0.108,9.7979,0.0041,0.0078,0.0412
8189,47.331577,-2.12167,54.19,24.96,4.288,50.1,16 / 20,818911,2019-08-09 20:27:47:649,-0.8228,0.1982,10.1295,-0.4057,-0.1031,9.7977,0.0071,-0.0229,0.0507
8190,47.331577,-2.12167,54.19,24.96,4.288,50.1,16 / 20,819010,2019-08-09 20:27:47:748,-1.5752,0.2413,10.2014,-0.4194,-0.0921,9.7972,-0.014,0.0173,0.0162
8191,47.331577,-2.12167,54.19,24.96,4.288,50.1,16 / 20,819110,2019-08-09 20:27:47:848,0.7603,0.4107,10.1589,-0.4033,-0.0928,9.7979,-0.0144,0.0183,-0.0114
8192,47.331577,-2.12167,54.19,24.96,4.288,50.1,16 / 20,819211,2019-08-09 20:27:47:949,1.3361,0.0157,9.3712,-0.4119,-0.1001,9.7975,-0.0084,-0.0414,-0.0125
8193,47.331577,-2.12167,54.19,24.96,4.288,50.1,16 / 20,819311,2019-08-09 20:27:48:049,0.6873,0.4748,9.7968,-0.4193,-0.0895,9.7973,-0.0007,-0.0186,-0.0297
8194,47.331577,-2.12167,54.19,24.96,4.288,50.1,16 / 20,819411,2019-08-09 20:27:48:149,-1.5154,-0.3231,8.872,-0.3869,-0.0781,9.7987,0.0036,-0.037,0.0222
8195,47.331577,-2.12167,54.19,24.96,4.288,50.1,16 / 20,819510,2019-08-09 20:27:48:248,-1.1826,-0.0047,9.428,-0.3877,-0.0752,9.7987,0.0015,-0.0171,0.0006
8196,47.331577,-2.12167,54.19,24.96,4.288,50.1,16 / 20,819611,2019-08-09 20:27:48:349,-0.493,0.1438,9.3305,-0.3759,-0.0701,9.7992,-0.0088,-0.0045,0.0018
8197,47.331577,-2.12167,54.19,24.96,4.288,50.1,16 / 20,819711,2019-08-09 20:27:48:449,0.3593,0.0546,9.6585,-0.3799,-0.0711,9.799,-0.0006,-0.0206,0.0181
8198,47.331577,-2.12167,54.19,24.96,4.288,50.1,16 / 20,819810,2019-08-09 20:27:48:548,0.0618,0.8123,10.6569,-0.3951,-0.0579,9.7985,0.0126,0.0042,0.0107
8199,47.331577,-2.12167,54.19,24.96,4.288,50.1,16 / 20,819911,2019-08-09 20:27:48:649,-0.0788,0.3449,11.5044,-0.4057,-0.0435,9.7982,-0.0061,0.1181,-0.0283
8200,47.331577,-2.12167,54.19,24.96,4.288,50.1,16 / 20,820010,2019-08-09 20:27:48:748,-1.2933,-0.1393,10.6521,-0.4728,-0.0438,9.7952,0.0074,0.0235,0.0083
8201,47.331577,-2.12167,54.19,24.96,4.288,50.1,16 / 20,820110,2019-08-09 20:27:48:848,-1.4202,-0.1741,10.1702,-0.4768,-0.0399,9.795,0.0077,0.0367,-0.0021
8202,47.331577,-2.12167,54.19,24.96,4.288,50.1,16 / 20,820211,2019-08-09 20:27:48:949,-2.1391,-0.8151,8.4638,-0.4141,-0.0485,9.7978,-0.0134,-0.0133,0.0771
8203,47.331577,-2.12167,54.19,24.96,4.288,50.1,16 / 20,820310,2019-08-09 20:27:49:048,0.4509,0.783,10.0793,-0.4635,-0.0799,9.7954,-0.0526,-0.0146,-0.0303
8204,47.331577,-2.12167,54.19,24.96,4.288,50.1,16 / 20,820411,2019-08-09 20:27:49:149,-1.3382,0.37,10.7036,-0.4713,-0.1254,9.7945,-0.0422,0.018,0.0058
8205,47.331577,-2.12167,54.19,24.96,4.288,50.1,16 / 20,820512,2019-08-09 20:27:49:250,-1.1323,0.2701,9.6327,-0.4658,-0.1402,9.7946,-0.0104,-0.0018,0.0038
8206,47.331577,-2.12167,54.19,24.96,4.288,50.1,17 / 21,820610,2019-08-09 20:27:49:348,0.3898,-0.4602,9.4173,-0.4448,-0.1575,9.7953,-0.0098,-0.0438,-0.0025
8207,47.331577,-2.12167,54.19,24.96,4.288,50.1,17 / 21,820710,2019-08-09 20:27:49:448,0.224,-0.0388,10.6377,-0.4715,-0.1658,9.7939,-0.021,0.0506,-0.0135
8208,47.331577,-2.12167,54.19,24.96,4.288,50.1,17 / 21,820810,2019-08-09 20:27:49:548,0.1911,-0.3752,9.6387,-0.4825,-0.1887,9.793,-0.023,0.0072,0.0141
8209,47.331577,-2.12167,54.19,24.96,4.288,50.1,17 / 21,820911,2019-08-09 20:27:49:649,-3.0225,0.142,9.2784,-0.4663,-0.2041,9.7934,-0.0274,0.0135,-0.023
8210,47.331577,-2.12167,54.19,24.96,4.288,50.1,17 / 21,821012,2019-08-09 20:27:49:750,-1.4178,-0.2621,10.0673,-0.4844,-0.2219,9.7922,-0.0103,0.0778,-0.0051
8211,47.331577,-2.12167,54.19,24.96,4.288,50.1,17 / 21,821110,2019-08-09 20:27:49:848,-0.8031,-0.0939,10.3163,-0.4571,-0.224,9.7934,-0.0004,0.0417,-0.011
8212,47.331577,-2.12167,54.19,24.96,4.288,50.1,17 / 21,821210,2019-08-09 20:27:49:948,-1.1371,-0.107,9.6483,-0.483,-0.227,9.7921,-0.0044,-0.036,0.0047
8213,47.331577,-2.12167,54.19,24.96,4.288,50.1,17 / 21,821310,2019-08-09 20:27:50:048,-0.4601,0.0809,9.2766,-0.4761,-0.2319,9.7923,-0.0155,0.0027,-0.0228
8214,47.331577,-2.12167,54.19,24.96,4.288,50.1,17 / 21,821410,2019-08-09 20:27:50:148,-0.4488,0.0043,9.6639,-0.4567,-0.2486,9.7929,-0.0312,0.0425,-0.0001
8215,47.331577,-2.12167,54.19,24.96,4.288,50.1,17 / 21,821516,2019-08-09 20:27:50:254,-0.2446,-0.4075,10.2181,-0.4886,-0.2662,9.7909,-0.0163,0.0239,0.0045
8216,47.331577,-2.12167,54.19,24.96,4.288,50.1,16 / 19,821611,2019-08-09 20:27:50:349,-1.0647,-0.523,10.2636,-0.521,-0.2706,9.7891,0.0098,0.0007,-0.018
8217,47.331577,-2.12167,54.19,24.96,4.288,50.1,16 / 19,821710,2019-08-09 20:27:50:448,-0.5643,-0.2758,9.9272,-0.5412,-0.2591,9.7883,0.0176,0.0039,0.0016
8218,47.331577,-2.12167,54.19,24.96,4.288,50.1,16 / 19,821811,2019-08-09 20:27:50:549,-0.3602,0.0175,9.8446,-0.5339,-0.2516,9.7889,0.0091,-0.0294,-0.0052
8219,47.331577,-2.12167,54.19,24.96,4.288,50.1,16 / 19,821911,2019-08-09 20:27:50:649,0.0403,-0.1064,9.4047,-0.5159,-0.2322,9.7903,0.0094,0.0193,-0.0016
8220,47.331577,-2.12167,54.19,24.96,4.288,50.1,16 / 19,822010,2019-08-09 20:27:50:748,-0.1974,0.0684,10.1254,-0.5469,-0.2283,9.7887,-0.0088,0.0313,0.0072
8221,47.331577,-2.12167,54.19,24.96,4.288,50.1,16 / 19,822111,2019-08-09 20:27:50:849,-1.4424,-0.1836,10.3803,-0.5566,-0.2297,9.7881,-0.0173,0.0072,-0.0173
8222,47.331577,-2.12167,54.19,24.96,4.288,50.1,16 / 19,822210,2019-08-09 20:27:50:948,-1.1909,-0.3147,9.264,-0.5736,-0.2311,9.7871,0.003,-0.0167,-0.0292
8223,47.331577,-2.12167,54.19,24.96,4.288,50.1,16 / 19,822310,2019-08-09 20:27:51:048,-0.7995,-0.1549,9.5017,-0.5813,-0.2219,9.7869,0.0128,-0.0009,0.0071
8224,47.331577,-2.12167,54.19,24.96,4.288,50.1,16 / 19,822410,2019-08-09 20:27:51:148,0.0014,0.2252,10.0248,-0.5763,-0.2095,9.7875,0.0141,0.0054,-0.0179
8225,47.331577,-2.12167,54.19,24.96,4.288,50.1,16 / 19,822510,2019-08-09 20:27:51:248,0.0169,0.2617,9.8309,-0.5843,-0.1948,9.7873,-0.004,0.0115,-0.0252
8226,47.331577,-2.12167,54.19,24.96,4.288,50.1,17 / 21,822611,2019-08-09 20:27:51:349,-0.1938,0.3239,9.938,-0.5557,-0.1896,9.7891,-0.0012,0.0545,-0.0232
8227,47.331577,-2.12167,54.19,24.96,4.288,50.1,17 / 21,822710,2019-08-09 20:27:51:448,-0.6965,0.0432,9.6806,-0.5743,-0.1832,9.7881,-0.0031,-0.0315,-0.0165
8228,47.331577,-2.12167,54.19,24.96,4.288,50.1,17 / 21,822810,2019-08-09 20:27:51:548,-1.3358,0.1246,9.9536,-0.5969,-0.1797,9.7868,-0.0024,-0.017,-0.0162
8229,47.331577,-2.12167,54.19,24.96,4.288,50.1,17 / 21,822910,2019-08-09 20:27:51:648,-1.8476,0.2761,9.8255,-0.599,-0.1714,9.7868,0.0053,0.0322,-0.0012
8230,47.331577,-2.12167,54.19,24.96,4.288,50.1,17 / 21,823011,2019-08-09 20:27:51:749,0.8531,-0.2046,10.0811,-0.6138,-0.1611,9.7861,-0.0037,-0.0219,-0.0325
8231,47.331577,-2.12167,54.19,24.96,4.288,50.1,17 / 21,823111,2019-08-09 20:27:51:849,0.2121,-0.1489,10.005,-0.6203,-0.1606,9.7857,-0.0039,0.0218,-0.0235
8232,47.331577,-2.12167,54.19,24.96,4.288,50.1,17 / 21,823211,2019-08-09 20:27:51:949,0.3425,0.0157,9.9087,-0.6343,-0.1555,9.7849,-0.004,-0.0113,-0.0016
8233,47.331577,-2.12167,54.19,24.96,4.288,50.1,17 / 21,823310,2019-08-09 20:27:52:048,-0.1273,-0.1944,9.8261,-0.6486,-0.1568,9.7839,0.0039,-0.0018,0.0051
8234,47.331577,-2.12167,54.19,24.96,4.288,50.1,17 / 21,823410,2019-08-09 20:27:52:148,-1.2771,-0.1525,9.8602,-0.6624,-0.1526,9.7831,0.0035,-0.0151,0.0006
8235,47.331577,-2.12167,54.19,24.96,4.288,50.1,17 / 21,823511,2019-08-09 20:27:52:249,-0.8211,0.1964,9.9236,-0.6565,-0.1544,9.7834,-0.017,-0.0048,-0.0081
8236,47.331577,-2.12167,54.19,24.96,4.288,50.1,16 / 20,823610,2019-08-09 20:27:52:348,-0.2674,-0.2932,9.6435,-0.6564,-0.1663,9.7832,-0.0033,-0.0118,-0.0219
8237,47.331577,-2.12167,54.19,24.96,4.288,50.1,16 / 20,823710,2019-08-09 20:27:52:448,-1.9763,-0.4189,9.8793,-0.6569,-0.1655,9.7832,0.0173,0.0057,0.017
8238,47.331577,-2.12167,54.19,24.96,4.288,50.1,16 / 20,823810,2019-08-09 20:27:52:548,-0.6744,-0.5362,9.9129,-0.6496,-0.161,9.7838,0.0039,0.0087,-0.0089
8239,47.331577,-2.12167,54.19,24.96,4.288,50.1,16 / 20,823911,2019-08-09 20:27:52:649,-1.6459,-0.4063,9.7459,-0.6359,-0.1623,9.7847,-0.0005,0.0162,0.0111
8240,47.331577,-2.12167,54.19,24.96,4.288,50.1,16 / 20,824010,2019-08-09 20:27:52:748,0.8788,-0.0998,9.6262,-0.613,-0.1627,9.7861,0.0043,-0.0312,-0.0009
8241,47.331577,-2.12167,54.19,24.96,4.288,50.1,16 / 20,824110,2019-08-09 20:27:52:848,0.166,-0.3081,9.8213,-0.6209,-0.1655,9.7856,-0.0005,0.0274,0.0125
8242,47.331577,-2.12167,54.19,24.96,4.288,50.1,16 / 20,824210,2019-08-09 20:27:52:948,-0.6074,-0.4793,9.8117,-0.6129,-0.1692,9.786,-0.0011,0.0161,0.0138
8243,47.331577,-2.12167,54.19,24.96,4.288,50.1,16 / 20,824310,2019-08-09 20:27:53:048,-0.3279,-0.1759,10.278,-0.631,-0.1791,9.7847,-0.0054,0.0209,-0.0048
8244,47.331577,-2.12167,54.19,24.96,4.288,50.1,16 / 20,824410,2019-08-09 20:27:53:148,-1.5513,-0.4195,9.6477,-0.6195,-0.1817,9.7854,0.0002,0.0078,0.0044
8245,47.331577,-2.12167,54.19,24.96,4.288,50.1,16 / 20,824511,2019-08-09 20:27:53:249,-1.2652,-0.0388,10.363,-0.6399,-0.1881,9.7839,-0.002,0.0159,0.0318
8246,47.33286,-2.119451,51.51,24.3,3.216,49.6,15 / 19,824611,2019-08-09 20:27:53:349,0.2982,-0.28,10.1008,-0.6373,-0.1911,9.7841,-0.0067,-0.005,-0.0148
8247,47.33286,-2.119451,51.51,24.3,3.216,49.6,15 / 19,824711,2019-08-09 20:27:53:449,-0.8791,-0.4494,9.4328,-0.6216,-0.1911,9.7851,0.0082,0.002,-0.0164
8248,47.33286,-2.119451,51.51,24.3,3.216,49.6,15 / 19,824811,2019-08-09 20:27:53:549,-0.8767,-0.3201,9.7285,-0.6242,-0.1847,9.785,0.0033,-0.0141,0.0107
8249,47.33286,-2.119451,51.51,24.3,3.216,49.6,15 / 19,824911,2019-08-09 20:27:53:649,0.6268,-0.1597,9.8063,-0.626,-0.184,9.7849,0.002,-0.0319,0.0071
8250,47.33286,-2.119451,51.51,24.3,3.216,49.6,15 / 19,825010,2019-08-09 20:27:53:748,-0.116,-0.1447,9.6567,-0.6113,-0.1872,9.7858,-0.0016,0.0117,0.0089
8251,47.33286,-2.119451,51.51,24.3,3.216,49.6,15 / 19,825110,2019-08-09 20:27:53:848,0.8776,0.1198,9.7973,-0.6196,-0.1879,9.7853,-0.0108,0.0315,-0.0178
8252,47.33286,-2.119451,51.51,24.3,3.216,49.6,15 / 19,825210,2019-08-09 20:27:53:948,-2.0403,-0.298,10.4599,-0.6289,-0.1981,9.7845,-0.0185,0.0213,0.0258
8253,47.33286,-2.119451,51.51,24.3,3.216,49.6,15 / 19,825311,2019-08-09 20:27:54:049,-1.8817,-0.5619,9.7758,-0.6388,-0.2072,9.7836,0.0149,0.0069,-0.0029
8254,47.33286,-2.119451,51.51,24.3,3.216,49.6,15 / 19,825410,2019-08-09 20:27:54:148,-1.2101,0.0773,9.51,-0.6433,-0.1932,9.7836,0.0214,-0.0059,-0.0107
8255,47.33286,-2.119451,51.51,24.3,3.216,49.6,15 / 19,825510,2019-08-09 20:27:54:248,1.0381,-0.441,9.4981,-0.6254,-0.1875,9.7849,0.0056,-0.0341,0.0121
8256,47.33286,-2.119451,51.51,24.3,3.216,49.6,15 / 19,825610,2019-08-09 20:27:54:348,0.1061,0.3209,9.9206,-0.6195,-0.1855,9.7853,-0.0051,-0.0055,-0.0142
8257,47.33286,-2.119451,51.51,24.3,3.216,49.6,15 / 19,825710,2019-08-09 20:27:54:448,-0.4895,0.2234,10.1804,-0.6332,-0.187,9.7844,-0.0189,0.0203,-0.0197
8258,47.33286,-2.119451,51.51,24.3,3.216,49.6,15 / 19,825810,2019-08-09 20:27:54:548,-0.9557,-0.4697,9.8195,-0.6393,-0.1999,9.7837,-0.0071,-0.0046,0.0092
8259,47.33286,-2.119451,51.51,24.3,3.216,49.6,15 / 19,825910,2019-08-09 20:27:54:648,-0.1333,-0.1208,10.014,-0.6512,-0.1995,9.783,0.0036,0.0004,-0.0161
8260,47.33286,-2.119451,51.51,24.3,3.216,49.6,15 / 19,826011,2019-08-09 20:27:54:749,0.5604,0.1917,9.3556,-0.643,-0.1925,9.7837,0.0125,0.011,0.0394
8261,47.33286,-2.119451,51.51,24.3,3.216,49.6,15 / 19,826111,2019-08-09 20:27:54:849,-0.9815,-0.5625,9.6369,-0.6415,-0.1832,9.7839,-0.0061,-0.0209,-0.0589
8262,47.33286,-2.119451,51.51,24.3,3.216,49.6,15 / 19,826210,2019-08-09 20:27:54:948,-1.4424,0.0588,9.6363,-0.6277,-0.1913,9.7847,-0.0116,0.0002,0.015
8263,47.33286,-2.119451,51.51,24.3,3.216,49.6,15 / 19,826310,2019-08-09 20:27:55:048,-1.4819,0.133,9.5885,-0.6472,-0.1894,9.7834,-0.007,0.0024,-0.0271
8264,47.33286,-2.119451,51.51,24.3,3.216,49.6,15 / 19,826410,2019-08-09 20:27:55:148,-0.5984,-0.5535,9.9296,-0.6316,-0.192,9.7844,-0.0048,-0.0111,-0.0294
8265,47.33286,-2.119451,51.51,24.3,3.216,49.6,15 / 19,826511,2019-08-09 20:27:55:249,0.8016,-0.1908,9.5334,-0.637,-0.186,9.7842,-0.0041,-0.0082,0.0121
8266,47.33286,-2.119451,51.51,24.3,3.216,49.6,17 / 21,826611,2019-08-09 20:27:55:349,-0.0717,0.0085,9.5495,-0.6097,-0.1885,9.7859,-0.0062,-0.0126,-0.0094
8267,47.33286,-2.119451,51.51,24.3,3.216,49.6,17 / 21,826710,2019-08-09 20:27:55:448,-0.0292,0.0522,9.7417,-0.6144,-0.1916,9.7855,-0.0143,0.0279,-0.0156
8268,47.33286,-2.119451,51.51,24.3,3.216,49.6,17 / 21,826810,2019-08-09 20:27:55:548,-0.7774,-0.1417,10.5096,-0.6282,-0.2027,9.7844,-0.0152,0.0081,0.0061
8269,47.33286,-2.119451,51.51,24.3,3.216,49.6,17 / 21,826910,2019-08-09 20:27:55:648,0.5125,-0.3734,9.8111,-0.6491,-0.2089,9.7829,-0.0031,0.0354,0.0129
8270,47.33286,-2.119451,51.51,24.3,3.216,49.6,17 / 21,827011,2019-08-09 20:27:55:749,-0.2937,-0.0484,9.4538,-0.6519,-0.201,9.7829,0.0193,-0.0159,0.0004
8271,47.33286,-2.119451,51.51,24.3,3.216,49.6,17 / 21,827111,2019-08-09 20:27:55:849,-1.1874,-0.2956,9.8063,-0.6514,-0.1972,9.783,0.004,0.005,0.0071
8272,47.33286,-2.119451,51.51,24.3,3.216,49.6,17 / 21,827211,2019-08-09 20:27:55:949,-0.9408,-0.2453,9.8099,-0.6353,-0.2003,9.784,-0.0034,-0.0065,0.0172
8273,47.33286,-2.119451,51.51,24.3,3.216,49.6,17 / 21,827311,2019-08-09 20:27:56:049,-1.5537,-0.3674,9.2946,-0.6337,-0.2052,9.784,0.0011,-0.0219,0.0068
8274,47.33286,-2.119451,51.51,24.3,3.216,49.6,17 / 21,827411,2019-08-09 20:27:56:149,0.5047,-0.0316,9.5711,-0.6086,-0.2089,9.7855,-0.0036,-0.0204,-0.0076
8275,47.33286,-2.119451,51.51,24.3,3.216,49.6,17 / 21,827511,2019-08-09 20:27:56:249,-0.0334,-0.5051,10.4306,-0.6244,-0.2165,9.7844,0.0038,0.0102,0.0121
8276,47.33286,-2.119451,51.51,24.3,3.216,49.6,16 / 20,827611,2019-08-09 20:27:56:349,-0.663,-0.4326,10.2014,-0.6466,-0.2158,9.7829,-0.0038,0.0072,-0.0115
8277,47.33286,-2.119451,51.51,24.3,3.216,49.6,16 / 20,827710,2019-08-09 20:27:56:448,-0.6816,-0.3794,9.7094,-0.6529,-0.219,9.7824,-0.0038,0.0072,-0.0115
8278,47.33286,-2.119451,51.51,24.3,3.216,49.6,16 / 20,827810,2019-08-09 20:27:56:548,0.0654,-0.0573,10.1146,-0.6654,-0.2151,9.7817,0.0074,-0.0178,0.0083
8279,47.33286,-2.119451,51.51,24.3,3.216,49.6,16 / 20,827910,2019-08-09 20:27:56:648,-1.4172,-0.2094,9.8524,-0.6417,-0.2084,9.7834,0.0028,0.0361,0.0011
8280,47.33286,-2.119451,51.51,24.3,3.216,49.6,16 / 20,828010,2019-08-09 20:27:56:748,0.0929,-0.4877,9.197,-0.6586,-0.2033,9.7824,0.0011,0.0476,-0.0098
8281,47.33286,-2.119451,51.51,24.3,3.216,49.6,16 / 20,828110,2019-08-09 20:27:56:848,-1.5507,0.1216,9.8159,-0.6592,-0.1967,9.7825,-0.0164,-0.0066,-0.0236
8282,47.33286,-2.119451,51.51,24.3,3.216,49.6,16 / 20,828210,2019-08-09 20:27:56:948,-1.8883,-0.45,9.6824,-0.667,-0.208,9.7817,0.0074,0.0457,-0.0483
8283,47.33286,-2.119451,51.51,24.3,3.216,49.6,16 / 20,828310,2019-08-09 20:27:57:048,-0.2913,0.0049,10.1445,-0.6844,-0.1954,9.7808,0.0173,-0.0147,0.0443
8284,47.33286,-2.119451,51.51,24.3,3.216,49.6,16 / 20,828410,2019-08-09 20:27:57:148,0.303,-0.1178,9.5711,-0.6763,-0.1797,9.7816,0.0224,-0.0101,0.0047
8285,47.33286,-2.119451,51.51,24.3,3.216,49.6,16 / 20,828510,2019-08-09 20:27:57:248,-0.013,0.0235,9.6363,-0.6657,-0.1701,9.7826,0.0075,-0.02,-0.0032
8286,47.33286,-2.119451,51.51,24.3,3.216,49.6,17 / 21,828610,2019-08-09 20:27:57:348,-1.1981,-0.0017,9.4238,-0.6497,-0.1706,9.7836,-0.0166,-0.0069,0.0224
8287,47.33286,-2.119451,51.51,24.3,3.216,49.6,17 / 21,828711,2019-08-09 20:27:57:449,-0.8857,0.0199,9.9733,-0.653,-0.1942,9.783,-0.0194,0.0271,-0.0166
8288,47.33286,-2.119451,51.51,24.3,3.216,49.6,17 / 21,828811,2019-08-09 20:27:57:549,-0.575,-0.4757,10.0481,-0.6792,-0.1958,9.7811,0.0083,0.0222,0.0042
8289,47.33286,-2.119451,51.51,24.3,3.216,49.6,17 / 21,828911,2019-08-09 20:27:57:649,-1.5525,-0.1184,9.9853,-0.6898,-0.1928,9.7805,0.0085,0.0,-0.0089
8290,47.33286,-2.119451,51.51,24.3,3.216,49.6,17 / 21,829011,2019-08-09 20:27:57:749,-1.4513,0.042,9.4292,-0.6878,-0.1812,9.7808,0.0126,0.022,-0.0104
8291,47.33286,-2.119451,51.51,24.3,3.216,49.6,17 / 21,829112,2019-08-09 20:27:57:850,-0.4278,0.1031,9.9859,-0.6673,-0.1675,9.7825,-0.0085,0.0289,-0.0025
8292,47.33286,-2.119451,51.51,24.3,3.216,49.6,17 / 21,829211,2019-08-09 20:27:57:949,-1.1461,0.2449,10.0284,-0.6802,-0.1718,9.7815,-0.0283,-0.0101,0.0128
8293,47.33286,-2.119451,51.51,24.3,3.216,49.6,17 / 21,829311,2019-08-09 20:27:58:049,-0.7492,-0.2237,9.5813,-0.6898,-0.1951,9.7804,0.0029,-0.0097,0.016
8294,47.33286,-2.119451,51.51,24.3,3.216,49.6,17 / 21,829411,2019-08-09 20:27:58:149,-1.671,-0.6032,9.297,-0.6899,-0.1928,9.7805,0.0096,0.0082,-0.0268
8295,47.33286,-2.119451,51.51,24.3,3.216,49.6,17 / 21,829510,2019-08-09 20:27:58:248,-2.3234,-1.54,10.3001,-0.6986,-0.1807,9.7801,-0.0096,-0.0451,-0.0962
8296,47.33286,-2.119451,51.51,24.3,3.216,49.6,16 / 20,829610,2019-08-09 20:27:58:348,-1.7314,-1.4825,10.2307,-0.6804,-0.1962,9.7811,0.0239,0.0662,0.1147
8297,47.33286,-2.119451,51.51,24.3,3.216,49.6,16 / 20,829710,2019-08-09 20:27:58:448,0.0876,0.8608,9.8237,-0.7034,-0.1721,9.7799,0.0226,-0.0095,0.0598
8298,47.33286,-2.119451,51.51,24.3,3.216,49.6,16 / 20,829810,2019-08-09 20:27:58:548,-0.5589,0.0582,9.4897,-0.6834,-0.171,9.7813,0.0183,-0.0102,-0.0276
8299,47.33286,-2.119451,51.51,24.3,3.216,49.6,16 / 20,829910,2019-08-09 20:27:58:648,-1.5471,0.0348,9.9356,-0.6898,-0.1435,9.7813,0.0037,0.0125,-0.0035
8300,47.33286,-2.119451,51.51,24.3,3.216,49.6,16 / 20,830010,2019-08-09 20:27:58:748,0.8579,0.1528,10.3133,-0.6884,-0.1433,9.7814,-0.0092,0.0206,0.0027
8301,47.33286,-2.119451,51.51,24.3,3.216,49.6,16 / 20,830110,2019-08-09 20:27:58:848,0.5424,-0.2411,10.5683,-0.7335,-0.1505,9.778,0.0085,0.0107,0.0056
8302,47.33286,-2.119451,51.51,24.3,3.216,49.6,16 / 20,830211,2019-08-09 20:27:58:949,-1.0443,-0.2926,9.628,-0.7339,-0.1443,9.7781,0.0207,-0.0509,0.0032
8303,47.33286,-2.119451,51.51,24.3,3.216,49.6,16 / 20,830311,2019-08-09 20:27:59:049,-1.2658,-0.2632,9.1419,-0.7201,-0.1194,9.7794,0.0173,-0.0017,-0.0086
8304,47.33286,-2.119451,51.51,24.3,3.216,49.6,16 / 20,830411,2019-08-09 20:27:59:149,-0.037,-0.2184,9.3245,-0.7118,-0.1155,9.7801,0.0004,-0.0425,0.013
8305,47.33286,-2.119451,51.51,24.3,3.216,49.6,16 / 20,830510,2019-08-09 20:27:59:248,0.0277,-0.0861,9.9991,-0.6937,-0.1264,9.7813,-0.0181,0.0203,0.0174
8306,47.33286,-2.119451,51.51,24.3,3.216,49.6,15 / 19,830610,2019-08-09 20:27:59:348,-0.086,-0.362,9.6471,-0.692,-0.1391,9.7812,-0.0007,0.0147,0.0108
8307,47.33286,-2.119451,51.51,24.3,3.216,49.6,15 / 19,830710,2019-08-09 20:27:59:448,-1.3478,-0.0017,9.9943,-0.7169,-0.1422,9.7794,0.0014,0.0255,-0.011
8308,47.33286,-2.119451,51.51,24.3,3.216,49.6,15 / 19,830810,2019-08-09 20:27:59:548,-1.8326,-0.0759,9.6004,-0.7168,-0.1375,9.7795,0.0108,-0.0214,-0.0077
8309,47.33286,-2.119451,51.51,24.3,3.216,49.6,15 / 19,830911,2019-08-09 20:27:59:649,-2.0846,0.3156,9.6274,-0.7085,-0.119,9.7803,0.0097,-0.0033,-0.0084
8310,47.33286,-2.119451,51.51,24.3,3.216,49.6,15 / 19,831011,2019-08-09 20:27:59:749,-0.5798,0.1539,9.8315,-0.7025,-0.1046,9.7809,-0.0068,0.0077,-0.0343
8311,47.33286,-2.119451,51.51,24.3,3.216,49.6,15 / 19,831111,2019-08-09 20:27:59:849,-1.4459,-0.0897,9.215,-0.6838,-0.1032,9.7822,0.0038,-0.0162,-0.0284
8312,47.33286,-2.119451,51.51,24.3,3.216,49.6,15 / 19,831211,2019-08-09 20:27:59:949,-0.1483,0.0259,9.3885,-0.6952,-0.0965,9.7815,0.0126,-0.0229,0.0007
8313,47.33286,-2.119451,51.51,24.3,3.216,49.6,15 / 19,831310,2019-08-09 20:28:00:048,-0.9803,0.3754,10.1511,-0.6983,-0.0879,9.7814,-0.019,-0.0054,0.0054
8314,47.33286,-2.119451,51.51,24.3,3.216,49.6,15 / 19,831411,2019-08-09 20:28:00:149,0.4718,-0.1382,9.6034,-0.6829,-0.0964,9.7824,-0.0126,0.0018,0.002
8315,47.33286,-2.119451,51.51,24.3,3.216,49.6,15 / 19,831510,2019-08-09 20:28:00:248,0.0223,0.0911,9.9572,-0.7002,-0.11,9.781,-0.017,0.0309,-0.0156
8316,47.33286,-2.119451,51.51,24.3,3.216,49.6,16 / 20,831610,2019-08-09 20:28:00:348,-0.0124,-0.1908,10.3013,-0.7141,-0.116,9.7799,-0.012,-0.0179,0.0216
8317,47.33286,-2.119451,51.51,24.3,3.216,49.6,16 / 20,831710,2019-08-09 20:28:00:448,-0.3416,-0.2926,10.0254,-0.7068,-0.1289,9.7803,-0.0099,0.0114,0.0028
8318,47.33286,-2.119451,51.51,24.3,3.216,49.6,16 / 20,831810,2019-08-09 20:28:00:548,0.0445,-0.5464,8.7816,-0.7213,-0.1404,9.7791,-0.0027,-0.0625,0.0261
8319,47.33286,-2.119451,51.51,24.3,3.216,49.6,16 / 20,831911,2019-08-09 20:28:00:649,-0.836,-0.1573,9.4346,-0.6848,-0.1352,9.7818,0.0099,-0.0832,-0.0034
8320,47.33286,-2.119451,51.51,24.3,3.216,49.6,16 / 20,832011,2019-08-09 20:28:00:749,-1.2442,-0.1423,9.6459,-0.6908,-0.1283,9.7815,0.0093,0.0218,0.0004
8321,47.33286,-2.119451,51.51,24.3,3.216,49.6,16 / 20,832111,2019-08-09 20:28:00:849,-0.3578,-0.0555,9.9745,-0.6755,-0.1288,9.7825,-0.0199,-0.0152,0.0071
8322,47.33286,-2.119451,51.51,24.3,3.216,49.6,16 / 20,832211,2019-08-09 20:28:00:949,-1.8356,-0.1465,9.6675,-0.698,-0.1501,9.7806,-0.0145,0.0129,0.0036
8323,47.33286,-2.119451,51.51,24.3,3.216,49.6,16 / 20,832311,2019-08-09 20:28:01:049,-1.4441,-0.3195,9.7955,-0.7077,-0.1539,9.7799,0.0074,0.008,0.0152
8324,47.33286,-2.119451,51.51,24.3,3.216,49.6,16 / 20,832411,2019-08-09 20:28:01:149,-1.6231,-0.2638,10.2588,-0.7088,-0.1485,9.7799,0.0097,0.0316,-0.0105
8325,47.33286,-2.119451,51.51,24.3,3.216,49.6,16 / 20,832511,2019-08-09 20:28:01:249,-0.0519,0.2814,10.0397,-0.7276,-0.1424,9.7786,0.0108,-0.0259,0.0163
8326,47.33286,-2.119451,51.51,24.3,3.216,49.6,17 / 21,832611,2019-08-09 20:28:01:349,-0.0705,0.1701,9.2957,-0.7176,-0.1272,9.7795,0.0149,0.0034,-0.0277
8327,47.33286,-2.119451,51.51,24.3,3.216,49.6,17 / 21,832711,2019-08-09 20:28:01:449,-0.52,0.0313,9.3963,-0.6925,-0.1047,9.7816,0.0389,-0.0522,0.0253
8328,47.33286,-2.119451,51.51,24.3,3.216,49.6,17 / 21,832810,2019-08-09 20:28:01:548,-2.3144,0.1917,9.5735,-0.6846,-0.085,9.7824,-0.0044,-0.0243,0.001
8329,47.33286,-2.119451,51.51,24.3,3.216,49.6,17 / 21,832910,2019-08-09 20:28:01:648,-1.9391,0.039,9.7638,-0.6813,-0.0924,9.7825,-0.0246,-0.0024,0.0076
8330,47.33286,-2.119451,51.51,24.3,3.216,49.6,17 / 21,833010,2019-08-09 20:28:01:748,-1.1515,-0.1717,10.1194,-0.6855,-0.1165,9.782,-0.0156,0.0091,0.0346
8331,47.33286,-2.119451,51.51,24.3,3.216,49.6,17 / 21,833111,2019-08-09 20:28:01:849,-1.4872,-0.4123,9.3359,-0.6799,-0.1252,9.7823,0.0047,-0.022,-0.0112
8332,47.33286,-2.119451,51.51,24.3,3.216,49.6,17 / 21,833211,2019-08-09 20:28:01:949,-1.2119,-0.1543,9.3418,-0.6814,-0.1149,9.7823,0.0119,0.0004,-0.0079
8333,47.33286,-2.119451,51.51,24.3,3.216,49.6,17 / 21,833310,2019-08-09 20:28:02:048,-0.1818,-0.1226,9.6806,-0.6884,-0.1115,9.7818,0.0024,-0.0104,0.0097
8334,47.33286,-2.119451,51.51,24.3,3.216,49.6,17 / 21,833411,2019-08-09 20:28:02:149,-0.9611,0.0055,9.7117,-0.6792,-0.1103,9.7825,-0.0062,0.0202,-0.0096
8335,47.33286,-2.119451,51.51,24.3,3.216,49.6,17 / 21,833510,2019-08-09 20:28:02:248,-0.5355,-0.0957,9.8057,-0.6912,-0.1091,9.7817,0.0013,-0.007,0.0104
8336,47.33411,-2.117304,55.39,23.49,3.216,49.3,16 / 20,833610,2019-08-09 20:28:02:348,-1.4453,-0.0885,9.4322,-0.6903,-0.1096,9.7817,0.0013,-0.0102,0.0031
8337,47.33411,-2.117304,55.39,23.49,3.216,49.3,16 / 20,833710,2019-08-09 20:28:02:448,-0.2213,-0.1579,9.0396,-0.6749,-0.1101,9.7828,0.0036,-0.0378,0.0139
8338,47.33411,-2.117304,55.39,23.49,3.216,49.3,16 / 20,833810,2019-08-09 20:28:02:548,-1.3262,-0.1543,9.422,-0.6526,-0.1085,9.7843,-0.0033,-0.0379,0.0275
8339,47.33411,-2.117304,55.39,23.49,3.216,49.3,16 / 20,833910,2019-08-09 20:28:02:648,-2.0265,-0.7098,9.261,-0.6475,-0.1211,9.7845,0.0015,-0.0241,0.0233
8340,47.33411,-2.117304,55.39,23.49,3.216,49.3,16 / 20,834010,2019-08-09 20:28:02:748,-0.6523,0.2401,9.6375,-0.6352,-0.1214,9.7853,0.0005,-0.0025,-0.0043
8341,47.33411,-2.117304,55.39,23.49,3.216,49.3,16 / 20,834110,2019-08-09 20:28:02:848,-1.1251,-0.0861,10.0428,-0.6213,-0.1225,9.7862,-0.0038,-0.0094,-0.0148
8342,47.33411,-2.117304,55.39,23.49,3.216,49.3,16 / 20,834210,2019-08-09 20:28:02:948,-0.9467,-0.6296,9.707,-0.6294,-0.1229,9.7857,0.0002,-0.0008,0.0302
8343,47.33411,-2.117304,55.39,23.49,3.216,49.3,16 / 20,834310,2019-08-09 20:28:03:048,-0.0669,0.3826,9.534,-0.6252,-0.125,9.7859,0.0007,-0.0186,-0.0302
8344,47.33411,-2.117304,55.39,23.49,3.216,49.3,16 / 20,834410,2019-08-09 20:28:03:148,-1.4441,-0.4207,9.7782,-0.6326,-0.1317,9.7853,0.0154,-0.0202,0.0474
8345,47.33411,-2.117304,55.39,23.49,3.216,49.3,16 / 20,834510,2019-08-09 20:28:03:248,0.3012,-0.626,9.0917,-0.613,-0.1294,9.7866,0.0269,-0.0054,-0.017
8346,47.33411,-2.117304,55.39,23.49,3.216,49.3,16 / 20,834610,2019-08-09 20:28:03:348,-1.5231,0.1875,9.7195,-0.6269,-0.1053,9.786,-0.009,-0.0134,0.0151
8347,47.33411,-2.117304,55.39,23.49,3.216,49.3,16 / 20,834710,2019-08-09 20:28:03:448,-0.8612,-0.0113,9.783,-0.6085,-0.111,9.7871,-0.0244,-0.0074,-0.0067
8348,47.33411,-2.117304,55.39,23.49,3.216,49.3,16 / 20,834810,2019-08-09 20:28:03:548,-0.277,-0.1346,9.6399,-0.6101,-0.1277,9.7868,0.007,0.0252,-0.0077
8349,47.33411,-2.117304,55.39,23.49,3.216,49.3,16 / 20,834910,2019-08-09 20:28:03:648,-1.4411,-0.5224,9.7315,-0.6298,-0.1208,9.7857,0.0141,-0.0186,0.003
8350,47.33411,-2.117304,55.39,23.49,3.216,49.3,16 / 20,835010,2019-08-09 20:28:03:748,-0.1118,-0.2986,9.5286,-0.6134,-0.1171,9.7867,0.0057,-0.0241,0.0206
8351,47.33411,-2.117304,55.39,23.49,3.216,49.3,16 / 20,835111,2019-08-09 20:28:03:849,-0.4799,0.4622,9.5489,-0.5934,-0.1181,9.788,-0.0029,0.0567,0.0319
8352,47.33411,-2.117304,55.39,23.49,3.216,49.3,16 / 20,835211,2019-08-09 20:28:03:949,-0.0735,-0.1938,10.1224,-0.6136,-0.1214,9.7867,-0.0128,-0.013,-0.0243
8353,47.33411,-2.117304,55.39,23.49,3.216,49.3,16 / 20,835311,2019-08-09 20:28:04:049,-0.1172,-0.192,9.7608,-0.6211,-0.1198,9.7862,-0.0004,0.0117,-0.0016
8354,47.33411,-2.117304,55.39,23.49,3.216,49.3,16 / 20,835410,2019-08-09 20:28:04:148,0.1887,0.212,9.5483,-0.6093,-0.1155,9.787,0.0063,-0.035,-0.0197
8355,47.33411,-2.117304,55.39,23.49,3.216,49.3,16 / 20,835510,2019-08-09 20:28:04:248,-2.175,-0.2818,9.6345,-0.6073,-0.1095,9.7872,-0.0011,-0.0071,0.0143
8356,47.33411,-2.117304,55.39,23.49,3.216,49.3,16 / 20,835610,2019-08-09 20:28:04:348,-0.9462,-0.3321,9.4466,-0.598,-0.1122,9.7878,0.0065,-0.0281,0.0252
8357,47.33411,-2.117304,55.39,23.49,3.216,49.3,16 / 20,835710,2019-08-09 20:28:04:448,-0.1214,0.0217,9.103,-0.5738,-0.1099,9.7892,-0.0018,-0.0408,-0.0018
8358,47.33411,-2.117304,55.39,23.49,3.216,49.3,16 / 20,835810,2019-08-09 20:28:04:548,0.5849,0.6932,9.2293,-0.5502,-0.1087,9.7906,-0.0361,-0.0138,0.0068
8359,47.33411,-2.117304,55.39,23.49,3.216,49.3,16 / 20,835910,2019-08-09 20:28:04:648,0.4862,-0.0951,10.3552,-0.5537,-0.1569,9.7897,-0.0322,0.0083,0.0269
8360,47.33411,-2.117304,55.39,23.49,3.216,49.3,16 / 20,836011,2019-08-09 20:28:04:749,-0.4811,-0.5069,10.6515,-0.5573,-0.1755,9.7892,-0.0085,0.0694,0.0081
8361,47.33411,-2.117304,55.39,23.49,3.216,49.3,16 / 20,836110,2019-08-09 20:28:04:848,-0.7067,-0.4093,10.4623,-0.6263,-0.1759,9.7851,0.0264,0.0235,-0.0059
8362,47.33411,-2.117304,55.39,23.49,3.216,49.3,16 / 20,836210,2019-08-09 20:28:04:948,-0.8773,-0.4045,9.5034,-0.6336,-0.1594,9.7849,0.0406,-0.0174,0.0003
8363,47.33411,-2.117304,55.39,23.49,3.216,49.3,16 / 20,836310,2019-08-09 20:28:05:048,-0.0824,-0.1441,9.8572,-0.6282,-0.1166,9.7858,0.0171,-0.0081,0.013
8364,47.33411,-2.117304,55.39,23.49,3.216,49.3,16 / 20,836411,2019-08-09 20:28:05:149,-1.1808,0.3485,9.3394,-0.6067,-0.1108,9.7872,-0.019,-0.0338,-0.002
8365,47.33411,-2.117304,55.39,23.49,3.216,49.3,16 / 20,836511,2019-08-09 20:28:05:249,-0.9096,-0.046,9.127,-0.5669,-0.1384,9.7893,-0.0276,-0.0095,0.0054
8366,47.33411,-2.117304,55.39,23.49,3.216,49.3,17 / 21,836610,2019-08-09 20:28:05:348,-0.7217,-0.3243,9.0809,-0.5513,-0.1566,9.7899,-0.0235,0.0227,-0.0079
8367,47.33411,-2.117304,55.39,23.49,3.216,49.3,17 / 21,836710,2019-08-09 20:28:05:448,-0.6056,-0.2417,10.038,-0.5516,-0.1833,9.7894,-0.011,-0.0282,0.026
8368,47.33411,-2.117304,55.39,23.49,3.216,49.3,17 / 21,836810,2019-08-09 20:28:05:548,-0.6894,-0.5541,9.5136,-0.5311,-0.1984,9.7902,-0.0064,-0.0042,-0.007
8369,47.33411,-2.117304,55.39,23.49,3.216,49.3,17 / 21,836910,2019-08-09 20:28:05:648,-0.8612,-0.3824,10.2014,-0.5419,-0.1958,9.7897,0.002,0.0288,0.0126
8370,47.33411,-2.117304,55.39,23.49,3.216,49.3,17 / 21,837010,2019-08-09 20:28:05:748,0.2258,-0.3866,9.71,-0.5253,-0.2006,9.7905,-0.0044,-0.0033,0.0047
8371,47.33411,-2.117304,55.39,23.49,3.216,49.3,17 / 21,837111,2019-08-09 20:28:05:849,-0.329,-0.3662,9.5986,-0.5397,-0.1819,9.7901,0.0314,0.0122,0.0007
8372,47.33411,-2.117304,55.39,23.49,3.216,49.3,17 / 21,837211,2019-08-09 20:28:05:949,0.0774,-0.2345,9.1754,-0.5393,-0.1643,9.7904,0.0269,-0.0503,0.0203
8373,47.33411,-2.117304,55.39,23.49,3.216,49.3,17 / 21,837311,2019-08-09 20:28:06:049,-1.6417,0.0133,8.9258,-0.5026,-0.1381,9.7928,0.0074,-0.0049,-0.0143
8374,47.33411,-2.117304,55.39,23.49,3.216,49.3,17 / 21,837410,2019-08-09 20:28:06:148,0.1253,0.0444,9.8584,-0.4903,-0.1427,9.7933,-0.0368,0.0101,0.0101
8375,47.33411,-2.117304,55.39,23.49,3.216,49.3,17 / 21,837511,2019-08-09 20:28:06:249,-0.8869,-0.0214,9.9021,-0.5,-0.1886,9.7921,-0.0394,-0.0004,0.0103
8376,47.33411,-2.117304,55.39,23.49,3.216,49.3,16 / 20,837611,2019-08-09 20:28:06:349,-0.7313,-0.3979,9.6537,-0.5076,-0.2045,9.7914,-0.0274,0.0151,0.0163
8377,47.33411,-2.117304,55.39,23.49,3.216,49.3,16 / 20,837711,2019-08-09 20:28:06:449,-1.7733,-0.1896,9.2269,-0.493,-0.2292,9.7916,0.0026,-0.0784,0.018
8378,47.33411,-2.117304,55.39,23.49,3.216,49.3,16 / 20,837811,2019-08-09 20:28:06:549,-0.8989,0.3287,9.9817,-0.4856,-0.2336,9.7918,-0.0186,0.0169,-0.0379
8379,47.33411,-2.117304,55.39,23.49,3.216,49.3,16 / 20,837911,2019-08-09 20:28:06:649,0.1725,-0.5051,9.5561,-0.484,-0.2435,9.7917,-0.0043,0.0242,-0.0003
8380,47.33411,-2.117304,55.39,23.49,3.216,49.3,16 / 20,838010,2019-08-09 20:28:06:748,-0.083,-0.2896,10.041,-0.4897,-0.2395,9.7915,0.0065,0.0467,-0.0136
8381,47.33411,-2.117304,55.39,23.49,3.216,49.3,16 / 20,838111,2019-08-09 20:28:06:849,-1.1221,-0.201,9.8584,-0.519,-0.2205,9.7904,0.0228,0.0587,-0.0066
8382,47.33411,-2.117304,55.39,23.49,3.216,49.3,16 / 20,838211,2019-08-09 20:28:06:949,0.6466,0.537,10.2636,-0.5343,-0.2123,9.7898,-0.0022,-0.0549,-0.0016
8383,47.33411,-2.117304,55.39,23.49,3.216,49.3,16 / 20,838311,2019-08-09 20:28:07:049,-1.2963,0.0139,9.3742,-0.5263,-0.195,9.7906,0.0184,-0.0019,0.01
8384,47.33411,-2.117304,55.39,23.49,3.216,49.3,16 / 20,838411,2019-08-09 20:28:07:149,-0.6989,0.1378,10.1224,-0.5204,-0.1884,9.791,0.0042,0.0245,-0.0201
8385,47.33411,-2.117304,55.39,23.49,3.216,49.3,16 / 20,838510,2019-08-09 20:28:07:248,0.23,-0.1788,9.8482,-0.5278,-0.1871,9.7906,-0.0043,0.0104,0.011
8386,47.33411,-2.117304,55.39,23.49,3.216,49.3,16 / 20,838611,2019-08-09 20:28:07:349,0.5149,-0.1166,9.3843,-0.5283,-0.1866,9.7906,0.0047,-0.0192,-0.0093
8387,47.33411,-2.117304,55.39,23.49,3.216,49.3,16 / 20,838711,2019-08-09 20:28:07:449,0.9938,0.276,10.2534,-0.5498,-0.1677,9.7898,0.0078,0.0476,-0.0262
8388,47.33411,-2.117304,55.39,23.49,3.216,49.3,16 / 20,838811,2019-08-09 20:28:07:549,-0.1375,-0.1651,9.7662,-0.5357,-0.1621,9.7907,0.0023,0.0255,-0.0325
8389,47.33411,-2.117304,55.39,23.49,3.216,49.3,16 / 20,838910,2019-08-09 20:28:07:648,-0.441,-0.3135,9.6711,-0.5567,-0.1631,9.7895,0.0165,-0.0253,0.0073
8390,47.33411,-2.117304,55.39,23.49,3.216,49.3,16 / 20,839010,2019-08-09 20:28:07:748,-0.6295,-0.1908,9.7285,-0.5677,-0.1493,9.7891,0.0119,-0.0126,0.0197
8391,47.33411,-2.117304,55.39,23.49,3.216,49.3,16 / 20,839110,2019-08-09 20:28:07:848,0.5155,-0.2591,9.3221,-0.5632,-0.1436,9.7894,0.0118,-0.0332,-0.0015
8392,47.33411,-2.117304,55.39,23.49,3.216,49.3,16 / 20,839211,2019-08-09 20:28:07:949,-1.3167,-0.1376,9.2443,-0.5359,-0.1254,9.7912,0.0163,-0.0013,-0.0019
8393,47.33411,-2.117304,55.39,23.49,3.216,49.3,16 / 20,839311,2019-08-09 20:28:08:049,0.8555,-0.0897,9.3149,-0.536,-0.1164,9.7913,0.0156,-0.0059,-0.0073
8394,47.33411,-2.117304,55.39,23.49,3.216,49.3,16 / 20,839410,2019-08-09 20:28:08:148,-1.1574,0.2144,8.7529,-0.5051,-0.1064,9.7931,-0.0049,-0.0405,-0.0233
8395,47.33411,-2.117304,55.39,23.49,3.216,49.3,16 / 20,839510,2019-08-09 20:28:08:248,-0.7402,-0.3877,9.792,-0.5095,-0.1043,9.7929,0.0009,-0.0263,0.0154
8396,47.33411,-2.117304,55.39,23.49,3.216,49.3,15 / 20,839610,2019-08-09 20:28:08:348,0.0935,-0.3656,9.6788,-0.4884,-0.1192,9.7938,-0.0247,-0.0666,-0.0087
8397,47.33411,-2.117304,55.39,23.49,3.216,49.3,15 / 20,839710,2019-08-09 20:28:08:448,-1.0706,-0.6607,9.2449,-0.4641,-0.1361,9.7947,-0.0071,-0.0325,-0.0079
8398,47.33411,-2.117304,55.39,23.49,3.216,49.3,15 / 20,839810,2019-08-09 20:28:08:548,-0.2872,-0.04,9.3903,-0.4417,-0.1537,9.7955,0.0088,0.0149,0.0327
8399,47.33411,-2.117304,55.39,23.49,3.216,49.3,15 / 20,839910,2019-08-09 20:28:08:648,0.2911,0.1067,10.0421,-0.4277,-0.1492,9.7962,0.0115,-0.0105,-0.0243
8400,47.33411,-2.117304,55.39,23.49,3.216,49.3,15 / 20,840011,2019-08-09 20:28:08:749,-0.7037,-0.0274,9.6381,-0.4101,-0.1351,9.7971,0.005,-0.0155,-0.0142
8401,47.33411,-2.117304,55.39,23.49,3.216,49.3,15 / 20,840111,2019-08-09 20:28:08:849,-0.7995,-0.3387,9.2473,-0.4233,-0.1349,9.7966,-0.0034,-0.0153,0.0129
8402,47.33411,-2.117304,55.39,23.49,3.216,49.3,15 / 20,840211,2019-08-09 20:28:08:949,-1.6488,-0.292,9.8189,-0.4276,-0.1337,9.7964,0.0004,-0.0016,0.0149
8403,47.33411,-2.117304,55.39,23.49,3.216,49.3,15 / 20,840311,2019-08-09 20:28:09:049,-0.8121,-0.2196,9.3215,-0.4066,-0.1381,9.7972,-0.002,-0.0214,-0.0123
8404,47.33411,-2.117304,55.39,23.49,3.216,49.3,15 / 20,840411,2019-08-09 20:28:09:149,0.6185,0.0109,9.6591,-0.4048,-0.1438,9.7972,-0.0044,0.029,0.0031
8405,47.33411,-2.117304,55.39,23.49,3.216,49.3,15 / 20,840511,2019-08-09 20:28:09:249,0.5215,-0.4314,9.8764,-0.401,-0.1515,9.7973,-0.0026,0.0263,0.0021
8406,47.33411,-2.117304,55.39,23.49,3.216,49.3,15 / 19,840611,2019-08-09 20:28:09:349,0.066,0.0229,9.2556,-0.3872,-0.1442,9.7979,0.0346,-0.0698,0.0276
8407,47.33411,-2.117304,55.39,23.49,3.216,49.3,15 / 19,840711,2019-08-09 20:28:09:449,-0.3117,-0.5081,9.8404,-0.413,-0.1251,9.7971,0.0215,0.0467,-0.0262
8408,47.33411,-2.117304,55.39,23.49,3.216,49.3,15 / 19,840811,2019-08-09 20:28:09:549,-1.0246,0.1079,9.4268,-0.4032,-0.1152,9.7977,-0.0016,-0.0046,0.0023
8409,47.33411,-2.117304,55.39,23.49,3.216,49.3,15 / 19,840911,2019-08-09 20:28:09:649,-1.5926,-0.0214,9.9218,-0.4195,-0.1153,9.797,0.0049,-0.0061,0.0065
