,GPS LATITUDE (degrees), GPS LONGITUDE (degrees), GPS ALTITUDE (m), GPS SPEED (Kmh), GPS ACCURACY (m), GPS ORIENTATION (Â°),GPS SATELLITES IN RANGE, TIME SINCE START (ms), DATE (YYYY-MO-DD HH-MI-SS_SSS), ACCELEROMETER X (m/s²) , ACCELEROMETER Y (m/s²), ACCELEROMETER Z (m/s²), GRAVITY X (m/s²), GRAVITY Y (m/s²), GRAVITY Z (m/s²), GYROSCOPE Yaw (rad/s), GYROSCOPE Pitch (rad/s), GYROSCOPE Roll (rad/s), MAGNETIC FIELD X (Î¼T), MAGNETIC FIELD Y (Î¼T), MAGNETIC FIELD Z (Î¼T), ORIENTATION (Yaw) (Â°), ORIENTATION (Pitch) (Â°), ORIENTATION (Roll ) (Â°)
46806,52.378017,-1.502401,132.59,21.6,3.0,98.48,22 / 24,258010,2019-09-07 10:31:31:164,-0.0605,-0.0209,10.125,-0.002,-0.002,9.8066,-0.0168,-0.0193,-0.024,-18.0,-56.62,20.88,338.74,-81.98,-154.47
46807,52.378017,-1.502401,132.59,21.6,3.0,98.48,22 / 24,258111,2019-09-07 10:31:31:265,-0.3253,-0.0795,9.2753,-0.0067,0.0022,9.8066,-0.0167,-0.0054,-0.0041,-18.37,-56.37,19.19,335.05,-82.01,-154.06
46808,52.378017,-1.502401,132.59,21.6,3.0,98.48,22 / 24,258210,2019-09-07 10:31:31:364,-0.3422,-0.3468,10.2603,-0.0036,0.0021,9.8066,0.0034,0.0301,0.0008,-18.94,-55.25,19.25,333.87,-82.07,-153.76
46809,52.378017,-1.502401,132.59,21.6,3.0,98.48,23 / 25,258310,2019-09-07 10:31:31:464,0.3016,-0.259,10.273,0.003,-0.0008,9.8066,0.0077,-0.0068,-0.0272,-18.25,-53.75,18.38,333.7,-82.08,-153.62
46810,52.378017,-1.502401,132.59,21.6,3.0,98.48,23 / 25,258410,2019-09-07 10:31:31:564,-0.1397,-0.1439,10.2017,-0.0004,-0.004,9.8066,0.0233,0.0405,0.0277,-17.25,-55.62,18.44,334.9,-82.03,-153.86
46811,52.378017,-1.502401,132.59,21.6,3.0,98.48,23 / 25,258510,2019-09-07 10:31:31:664,-0.0733,-0.1819,9.7666,-0.0023,-0.0053,9.8065,-0.009,0.0131,0.0046,-15.94,-56.06,19.06,339.75,-81.99,-153.72
46812,52.378017,-1.502401,132.59,21.6,3.0,98.48,23 / 25,258610,2019-09-07 10:31:31:764,-0.2659,-0.12,8.9782,-0.0112,0.0124,9.8065,-0.0167,0.0081,-0.0058,-15.56,-54.0,19.63,343.2,-82.04,-153.14
46813,52.378017,-1.502401,132.59,21.6,3.0,98.48,23 / 25,258711,2019-09-07 10:31:31:865,0.5115,0.0796,9.1598,-0.0034,0.007,9.8066,0.0056,0.0333,0.0042,-15.5,-54.56,17.94,341.54,-82.21,-152.71
46814,52.378017,-1.502401,132.59,21.6,3.0,98.48,23 / 25,258810,2019-09-07 10:31:31:964,0.0832,0.0308,9.6007,0.0025,-0.0018,9.8066,0.0077,0.0243,-0.0097,-15.06,-55.0,18.19,341.41,-82.24,-152.82
46815,52.378017,-1.502401,132.59,21.6,3.0,98.48,23 / 25,258910,2019-09-07 10:31:32:064,0.1209,-0.0095,9.989,0.0004,0.0047,9.8066,0.02,0.0189,0.0,-14.5,-55.5,17.06,341.08,-82.24,-153.01
46816,52.378017,-1.502401,132.59,21.6,3.0,98.48,23 / 25,259011,2019-09-07 10:31:32:165,0.0116,0.0113,9.4204,0.0053,-0.0057,9.8066,0.0189,0.0204,-0.0007,-15.12,-55.69,18.0,340.24,-82.18,-153.46
46817,52.378017,-1.502401,132.59,21.6,3.0,98.48,23 / 25,259110,2019-09-07 10:31:32:264,0.2463,-0.6797,9.7553,-0.008,-0.0036,9.8066,-0.0423,-0.0527,-0.0421,-14.81,-55.31,17.44,338.0,-82.11,-153.21
46818,52.378017,-1.502401,132.59,21.6,3.0,98.48,23 / 25,259211,2019-09-07 10:31:32:365,-0.3926,-0.3567,9.8297,-0.007,0.0089,9.8066,0.0032,0.0602,0.0294,-15.37,-57.06,15.94,335.26,-82.22,-152.9
46819,52.378017,-1.502401,132.59,21.6,3.0,98.48,24 / 26,259310,2019-09-07 10:31:32:464,-0.4019,-0.3269,10.0509,-0.0035,-0.0029,9.8066,0.0149,0.0292,0.0248,-15.94,-56.56,18.06,339.15,-82.3,-152.55
46820,52.378017,-1.502401,132.59,21.6,3.0,98.48,24 / 26,259411,2019-09-07 10:31:32:565,-0.1111,-0.4987,10.24,-0.0029,-0.0037,9.8066,-0.0222,-0.0272,-0.0212,-18.12,-54.62,18.06,335.55,-82.23,-152.29
46821,52.378017,-1.502401,132.59,21.6,3.0,98.48,24 / 26,259510,2019-09-07 10:31:32:664,-0.0767,-0.5555,9.8899,-0.0038,0.0097,9.8066,-0.0072,0.0582,0.0292,-18.06,-56.81,16.75,332.96,-82.29,-152.11
46822,52.378017,-1.502401,132.59,21.6,3.0,98.48,24 / 26,259611,2019-09-07 10:31:32:765,-0.0034,-0.2321,9.8295,-0.0025,0.0064,9.8066,-0.0262,-0.0109,-0.036,-17.12,-59.69,18.88,339.46,-82.39,-152.27
46823,52.378017,-1.502401,132.59,21.6,3.0,98.48,24 / 26,259710,2019-09-07 10:31:32:864,-0.5082,0.1846,9.5186,0.0024,0.0075,9.8066,-0.0312,-0.042,-0.0539,-16.06,-61.06,20.75,345.78,-82.47,-152.53
46824,52.378017,-1.502401,132.59,21.6,3.0,98.48,24 / 26,259810,2019-09-07 10:31:32:964,-0.06,-0.3038,10.3274,0.0041,0.0015,9.8066,0.0116,0.0256,0.0108,-15.69,-59.31,21.69,347.5,-82.54,-152.87
46825,52.378017,-1.502401,132.59,21.6,3.0,98.48,24 / 26,259911,2019-09-07 10:31:33:065,-0.2129,0.0486,10.5013,0.0014,-0.0071,9.8065,0.032,0.0068,-0.0081,-16.06,-56.5,21.25,345.66,-82.45,-152.96
46826,52.378017,-1.502401,132.59,21.6,3.0,98.48,24 / 26,260010,2019-09-07 10:31:33:164,0.6761,-0.5407,9.5491,-0.0069,0.0007,9.8066,-0.0396,-0.0136,-0.0076,-15.75,-56.44,18.38,338.82,-82.32,-152.92
46827,52.378017,-1.502401,132.59,21.6,3.0,98.48,24 / 26,260111,2019-09-07 10:31:33:265,0.6152,0.0169,9.5155,-0.009,0.008,9.8066,-0.0226,0.0466,0.0153,-15.62,-57.87,16.81,337.25,-82.47,-152.07
46828,52.378017,-1.502401,132.59,21.6,3.0,98.48,24 / 26,260211,2019-09-07 10:31:33:365,-0.0972,-0.034,10.3773,-0.0049,0.0059,9.8066,-0.0116,0.0013,-0.0354,-14.87,-57.75,17.0,340.42,-82.56,-151.62
46829,52.378017,-1.502401,132.59,21.6,3.0,98.48,25 / 26,260310,2019-09-07 10:31:33:464,0.5662,0.1523,10.013,0.008,0.0067,9.8066,0.0009,0.002,-0.0234,-14.81,-59.87,14.25,330.22,-82.6,-151.79
46830,52.378017,-1.502401,132.59,21.6,3.0,98.48,25 / 26,260410,2019-09-07 10:31:33:564,0.3135,0.1478,10.2807,0.0007,-0.0026,9.8066,0.0034,0.049,0.039,-15.81,-62.75,14.75,329.1,-82.6,-152.87
46831,52.378017,-1.502401,132.59,21.6,3.0,98.48,25 / 26,260511,2019-09-07 10:31:33:665,0.1683,-0.0679,9.3745,-0.0058,-0.0155,9.8066,-0.0236,0.0052,0.0221,-17.94,-66.5,13.81,322.6,-82.55,-151.83
46832,52.378017,-1.502401,132.59,21.6,3.0,98.48,25 / 26,260610,2019-09-07 10:31:33:764,-0.4467,-0.3345,9.4034,-0.0159,0.0037,9.8065,-0.0482,-0.0098,0.0017,-22.87,-73.94,15.88,321.99,-82.57,-150.42
46833,52.378017,-1.502401,132.59,21.6,3.0,98.48,25 / 26,260711,2019-09-07 10:31:33:865,-1.9852,0.9184,7.8167,-0.0129,-0.0038,9.8066,-0.0452,-0.0529,-0.0471,-37.44,-54.87,38.69,345.18,-82.79,-149.33
46834,52.378017,-1.502401,132.59,21.6,3.0,98.48,25 / 26,260810,2019-09-07 10:31:33:964,-0.1899,0.9759,9.9562,-0.0082,-0.0052,9.8066,0.0341,0.0477,0.0601,-41.06,-31.19,29.81,334.96,-82.87,-149.22
46835,52.378017,-1.502401,132.59,21.6,3.0,98.48,25 / 26,260910,2019-09-07 10:31:34:064,-0.3635,0.0424,10.4919,0.0097,-0.0255,9.8065,0.0557,0.0305,0.0208,-41.56,-26.06,21.56,326.74,-82.65,-148.49
46836,52.378017,-1.502401,132.59,21.6,3.0,98.48,25 / 26,261010,2019-09-07 10:31:34:164,0.6547,-0.7771,9.5433,0.0017,-0.0119,9.8066,-0.0243,-0.0272,-0.0199,-42.5,-26.0,18.31,321.85,-82.42,-148.44
46837,52.378017,-1.502401,132.59,21.6,3.0,98.48,25 / 26,261111,2019-09-07 10:31:34:265,-0.1535,-0.5168,9.0748,-0.013,0.0006,9.8066,-0.0516,-0.0036,-0.0129,-42.81,-26.62,16.56,321.04,-82.43,-147.51
46838,52.378017,-1.502401,132.59,21.6,3.0,98.48,25 / 26,261210,2019-09-07 10:31:34:364,-0.1056,-0.4544,10.3807,-0.0181,0.011,9.8066,0.0002,0.0567,0.0077,-42.75,-26.44,16.0,320.82,-82.64,-146.72
46839,52.377823,-1.499736,132.79,19.76,4.0,95.9,22 / 23,261311,2019-09-07 10:31:34:465,0.0844,0.1678,10.1143,-0.0083,0.0041,9.8066,0.0103,0.056,0.0194,-43.06,-26.62,15.63,320.82,-82.74,-146.66
46840,52.377823,-1.499736,132.79,19.76,4.0,95.9,22 / 23,261410,2019-09-07 10:31:34:564,0.2,-0.148,10.2243,-0.0015,0.0024,9.8066,0.0191,0.042,0.0179,-43.5,-26.12,15.44,319.84,-82.83,-146.52
46841,52.377823,-1.499736,132.79,19.76,4.0,95.9,22 / 23,261510,2019-09-07 10:31:34:664,0.0024,-0.1158,10.8221,0.0132,-0.0035,9.8065,0.0209,-0.0171,-0.0208,-42.87,-26.44,15.19,319.44,-82.74,-146.87
46842,52.377823,-1.499736,132.79,19.76,4.0,95.9,22 / 23,261610,2019-09-07 10:31:34:764,0.2607,0.1799,10.6127,0.0122,-0.0019,9.8066,0.0269,0.0102,0.0056,-43.12,-26.75,15.25,318.19,-82.55,-147.86
46843,52.377823,-1.499736,132.79,19.76,4.0,95.9,22 / 23,261712,2019-09-07 10:31:34:866,0.6443,-0.0906,9.6499,-0.0032,-0.0021,9.8066,-0.0239,0.0281,0.0106,-43.5,-26.62,16.13,319.33,-82.47,-147.94
46844,52.377823,-1.499736,132.79,19.76,4.0,95.9,22 / 23,261810,2019-09-07 10:31:34:964,-0.003,-0.1617,9.5723,-0.0126,0.0033,9.8066,-0.0412,-0.0075,-0.0332,-42.94,-26.44,15.19,319.24,-82.58,-146.98
46845,52.377823,-1.499736,132.79,19.76,4.0,95.9,22 / 23,261910,2019-09-07 10:31:35:064,0.0653,-0.2738,9.4471,-0.0065,0.0123,9.8066,-0.0133,0.0194,-0.022,-42.94,-27.0,15.06,319.53,-82.77,-146.68
46846,52.377823,-1.499736,132.79,19.76,4.0,95.9,22 / 23,262010,2019-09-07 10:31:35:164,-0.1405,-0.007,10.2089,-0.0073,0.0109,9.8066,-0.0134,0.0452,0.0045,-42.62,-26.62,14.88,319.36,-82.9,-146.91
46847,52.377823,-1.499736,132.79,19.76,4.0,95.9,22 / 23,262110,2019-09-07 10:31:35:264,-0.0507,0.1776,10.7903,0.0021,-0.0008,9.8066,0.0394,0.0434,0.0164,-43.56,-26.94,14.44,317.7,-82.98,-146.97
46848,52.377823,-1.499736,132.79,19.76,4.0,95.9,22 / 23,262210,2019-09-07 10:31:35:364,0.2074,-0.4778,10.9525,0.0059,-0.0131,9.8066,0.026,0.0135,0.0274,-43.12,-26.56,14.38,318.15,-82.79,-146.78
46849,52.377823,-1.499736,132.79,19.76,4.0,95.9,24 / 25,262310,2019-09-07 10:31:35:464,0.0067,-0.157,9.2136,-0.0006,-0.0036,9.8066,0.0171,0.0698,0.0392,-43.37,-26.87,14.38,318.47,-82.66,-146.42
46850,52.377823,-1.499736,132.79,19.76,4.0,95.9,24 / 25,262410,2019-09-07 10:31:35:564,0.0683,-0.547,9.7489,-0.01,-0.0087,9.8066,-0.0392,-0.0027,-0.0131,-43.31,-26.5,14.75,320.67,-82.65,-145.67
46851,52.377823,-1.499736,132.79,19.76,4.0,95.9,24 / 25,262510,2019-09-07 10:31:35:664,0.1275,-0.1277,10.3788,-0.013,-0.0012,9.8066,-0.0099,0.0298,0.0113,-43.56,-26.87,14.56,321.2,-82.73,-144.75
46852,52.377823,-1.499736,132.79,19.76,4.0,95.9,24 / 25,262610,2019-09-07 10:31:35:764,0.4464,-0.1561,9.425,-0.0037,-0.0006,9.8066,-0.0042,0.0387,0.0257,-43.37,-26.44,14.31,321.36,-82.79,-143.86
46853,52.377823,-1.499736,132.79,19.76,4.0,95.9,24 / 25,262711,2019-09-07 10:31:35:865,0.3422,0.207,9.8215,0.0035,-0.0074,9.8066,-0.0017,-0.0055,0.0005,-43.75,-26.94,14.38,321.14,-82.78,-143.64
46854,52.377823,-1.499736,132.79,19.76,4.0,95.9,24 / 25,262810,2019-09-07 10:31:35:964,-0.1491,-0.2933,9.7525,0.0009,-0.0055,9.8066,-0.0114,-0.0199,-0.0135,-44.06,-27.06,13.75,321.51,-82.68,-143.24
46855,52.377823,-1.499736,132.79,19.76,4.0,95.9,24 / 25,262910,2019-09-07 10:31:36:064,0.3015,0.0539,9.2161,0.003,-0.0089,9.8066,-0.0042,0.0413,0.0474,-43.62,-27.12,14.44,321.47,-82.61,-143.25
46856,52.377823,-1.499736,132.79,19.76,4.0,95.9,24 / 25,263010,2019-09-07 10:31:36:164,-0.2471,-0.4539,9.4209,-0.0065,-0.0051,9.8066,-0.0257,-0.0141,-0.0037,-43.69,-26.31,14.13,322.46,-82.62,-142.43
46857,52.377823,-1.499736,132.79,19.76,4.0,95.9,24 / 25,263110,2019-09-07 10:31:36:264,-0.1451,-0.1176,9.7285,-0.0083,0.0044,9.8066,-0.0148,0.006,-0.0035,-43.44,-26.94,14.25,323.55,-82.66,-141.65
46858,52.377823,-1.499736,132.79,19.76,4.0,95.9,24 / 25,263210,2019-09-07 10:31:36:364,-0.1459,-0.0073,9.8384,-0.0037,0.0015,9.8065,-0.008,0.0188,0.0154,-43.87,-26.62,14.31,323.5,-82.77,-141.41
46859,52.377823,-1.499736,132.79,19.76,4.0,95.9,22 / 23,263310,2019-09-07 10:31:36:464,0.0709,0.1019,9.7132,-0.0001,-0.0045,9.8066,-0.018,-0.0497,-0.0313,-44.06,-26.56,14.44,324.27,-82.78,-140.7
46860,52.377823,-1.499736,132.79,19.76,4.0,95.9,22 / 23,263411,2019-09-07 10:31:36:565,-0.3076,-0.3309,9.4864,0.0013,-0.003,9.8066,0.0026,-0.0198,-0.0248,-43.69,-26.75,14.69,325.6,-82.75,-140.63
46861,52.377823,-1.499736,132.79,19.76,4.0,95.9,22 / 23,263510,2019-09-07 10:31:36:664,-0.2168,-0.6878,9.6927,0.0022,0.0068,9.8065,0.011,0.0628,0.0361,-43.19,-27.0,14.44,324.33,-82.75,-140.96
46862,52.377823,-1.499736,132.79,19.76,4.0,95.9,22 / 23,263610,2019-09-07 10:31:36:764,-0.4476,-0.3725,9.4187,-0.0047,0.0051,9.8066,-0.0129,0.0005,-0.0338,-42.94,-26.31,13.94,324.32,-82.84,-141.1
46863,52.377823,-1.499736,132.79,19.76,4.0,95.9,22 / 23,263710,2019-09-07 10:31:36:864,0.4387,0.1278,9.4791,0.0033,0.0096,9.8066,-0.0118,-0.0499,-0.0793,-43.25,-26.5,14.25,323.92,-82.93,-141.51
46864,52.377823,-1.499736,132.79,19.76,4.0,95.9,22 / 23,263810,2019-09-07 10:31:36:964,0.4496,0.1253,9.6081,0.0068,0.0108,9.8066,0.027,-0.0117,-0.061,-43.44,-27.0,14.13,322.18,-83.02,-143.1
46865,52.377823,-1.499736,132.79,19.76,4.0,95.9,22 / 23,263910,2019-09-07 10:31:37:064,0.9602,-0.3546,9.9987,-0.0008,-0.0003,9.8066,-0.0249,-0.0103,-0.017,-43.69,-26.81,14.0,320.41,-82.99,-144.41
46866,52.377823,-1.499736,132.79,19.76,4.0,95.9,22 / 23,264010,2019-09-07 10:31:37:164,-0.2726,-0.2099,8.964,-0.0081,-0.0065,9.8066,-0.0493,-0.0946,-0.0672,-43.56,-26.94,14.63,322.57,-83.0,-143.58
46867,52.377823,-1.499736,132.79,19.76,4.0,95.9,22 / 23,264110,2019-09-07 10:31:37:264,-0.3328,-0.0849,9.5219,-0.0065,0.002,9.8066,0.004,0.0301,0.0242,-43.37,-26.69,14.81,323.27,-83.08,-143.3
46868,52.377823,-1.499736,132.79,19.76,4.0,95.9,22 / 23,264210,2019-09-07 10:31:37:364,-0.4325,-0.0764,10.5265,0.0009,-0.0055,9.8066,0.017,0.0091,0.0031,-43.37,-26.62,14.5,323.73,-83.09,-142.87
46869,52.377823,-1.499736,132.79,19.76,4.0,95.9,23 / 25,264310,2019-09-07 10:31:37:464,0.3209,0.0805,10.6615,-0.0005,-0.0069,9.8066,-0.01,-0.0157,0.0023,-43.25,-26.44,14.06,322.34,-83.0,-143.03
46870,52.377823,-1.499736,132.79,19.76,4.0,95.9,23 / 25,264410,2019-09-07 10:31:37:564,0.1583,-0.3762,10.0673,0.0018,-0.0045,9.8066,0.02,0.0444,0.0317,-43.5,-26.44,13.88,322.69,-82.93,-142.66
46871,52.377823,-1.499736,132.79,19.76,4.0,95.9,23 / 25,264510,2019-09-07 10:31:37:664,0.0161,-0.4779,9.8369,-0.0044,-0.0004,9.8066,-0.0025,0.0314,0.0255,-43.44,-26.06,14.38,322.73,-82.87,-142.61
46872,52.377823,-1.499736,132.79,19.76,4.0,95.9,23 / 25,264610,2019-09-07 10:31:37:764,-0.0664,-0.1345,9.3932,-0.0171,-0.003,9.8066,-0.0404,0.0073,0.0056,-43.81,-26.12,13.5,323.81,-82.92,-141.28
46873,52.377823,-1.499736,132.79,19.76,4.0,95.9,23 / 25,264710,2019-09-07 10:31:37:864,-0.1123,-0.0016,9.2067,-0.017,-0.0014,9.8066,-0.0296,-0.0002,-0.0009,-43.69,-26.5,12.94,324.02,-82.98,-139.9
46874,52.377823,-1.499736,132.79,19.76,4.0,95.9,23 / 25,264810,2019-09-07 10:31:37:964,-0.2422,-0.3202,9.9987,-0.0087,0.0022,9.8066,-0.0045,0.0192,0.0121,-44.19,-26.19,12.25,324.26,-83.09,-138.49
46875,52.377823,-1.499736,132.79,19.76,4.0,95.9,23 / 25,264910,2019-09-07 10:31:38:064,0.1913,-0.3638,10.6037,-0.0011,0.0038,9.8066,-0.0038,0.0048,-0.0243,-43.94,-26.56,11.81,324.55,-83.06,-138.12
46876,52.377823,-1.499736,132.79,19.76,4.0,95.9,23 / 25,265010,2019-09-07 10:31:38:164,0.258,0.8494,11.1533,0.0059,0.0197,9.8065,0.0414,0.0948,0.0266,-45.06,-27.25,11.94,323.08,-83.16,-139.27
46877,52.377823,-1.499736,132.79,19.76,4.0,95.9,23 / 25,265112,2019-09-07 10:31:38:266,1.0415,0.8546,10.9954,0.0307,0.016,9.8065,0.1028,0.104,0.0256,-45.75,-26.81,11.38,320.01,-83.14,-140.72
46878,52.377823,-1.499736,132.79,19.76,4.0,95.9,23 / 25,265210,2019-09-07 10:31:38:364,0.7173,0.6487,9.8998,0.0244,-0.0052,9.8065,0.0198,0.0,-0.0157,-46.19,-26.81,12.19,317.39,-82.9,-144.28
46879,52.377823,-1.499736,132.79,19.76,4.0,95.9,23 / 24,265310,2019-09-07 10:31:38:464,0.8677,0.8509,9.577,-0.0062,-0.0111,9.8066,-0.0292,-0.0128,0.0056,-46.25,-26.81,12.94,318.64,-82.81,-144.23
46880,52.377823,-1.499736,132.79,19.76,4.0,95.9,23 / 24,265410,2019-09-07 10:31:38:564,0.0224,-0.1128,9.4458,-0.0155,-0.0049,9.8066,-0.0331,0.0486,0.0424,-46.25,-26.5,12.88,320.63,-82.86,-142.47
46881,52.377823,-1.499736,132.79,19.76,4.0,95.9,23 / 24,265510,2019-09-07 10:31:38:664,-0.1857,-0.3001,9.3559,-0.0156,0.0013,9.8066,-0.0469,0.016,-0.0162,-45.37,-26.94,12.06,321.05,-82.98,-141.11
46882,52.377823,-1.499736,132.79,19.76,4.0,95.9,23 / 24,265610,2019-09-07 10:31:38:764,-0.5849,-0.2002,9.4339,-0.0072,0.0078,9.8066,-0.0315,-0.0195,-0.0504,-43.87,-27.12,11.31,321.13,-83.16,-140.15
46883,52.377823,-1.499736,132.79,19.76,4.0,95.9,23 / 24,265711,2019-09-07 10:31:38:865,0.0782,0.183,9.758,0.0057,0.0177,9.8066,0.0129,0.0519,-0.0209,-43.12,-28.25,9.75,319.11,-83.29,-140.99
46884,52.377823,-1.499736,132.79,19.76,4.0,95.9,23 / 24,265810,2019-09-07 10:31:38:964,-0.2888,0.5117,10.4616,-0.0028,0.0171,9.8065,0.0137,0.0415,-0.0125,-40.06,-35.37,4.81,309.52,-83.47,-143.03
46885,52.377823,-1.499736,132.79,19.76,4.0,95.9,23 / 24,265910,2019-09-07 10:31:39:064,0.7679,0.5577,9.5549,0.02,0.0166,9.8066,0.0668,0.0704,0.022,-35.12,-53.12,5.38,305.86,-83.45,-144.1
46886,52.377823,-1.499736,132.79,19.76,4.0,95.9,23 / 24,266011,2019-09-07 10:31:39:165,-1.4603,-0.631,10.0641,0.0043,-0.0095,9.8066,-0.0139,-0.0086,-0.0365,-32.37,-62.94,15.5,323.42,-83.3,-145.91
46887,52.377823,-1.499736,132.79,19.76,4.0,95.9,23 / 24,266110,2019-09-07 10:31:39:264,0.3283,0.1007,9.1106,-0.0096,-0.001,9.8066,-0.0355,0.0161,0.0296,-31.06,-60.31,21.81,336.51,-83.35,-144.53
46888,52.377823,-1.499736,132.79,19.76,4.0,95.9,23 / 24,266210,2019-09-07 10:31:39:364,-0.2838,-0.011,9.728,-0.0121,0.004,9.8066,-0.051,-0.0053,-0.0016,-30.06,-57.62,20.0,336.01,-83.45,-143.26
46889,52.377823,-1.499736,132.79,19.76,4.0,95.9,25 / 26,266310,2019-09-07 10:31:39:464,-0.3583,0.1007,8.8866,-0.0033,0.0016,9.8066,-0.0029,0.0353,0.0164,-29.62,-56.62,17.94,333.89,-83.55,-142.3
46890,52.377823,-1.499736,132.79,19.76,4.0,95.9,25 / 26,266411,2019-09-07 10:31:39:565,0.1303,-0.2521,9.3167,0.0034,0.0009,9.8066,-0.0081,-0.0056,-0.0233,-29.06,-57.31,15.63,331.04,-83.62,-142.37
46891,52.377823,-1.499736,132.79,19.76,4.0,95.9,25 / 26,266510,2019-09-07 10:31:39:664,0.2609,-0.0971,10.3427,0.0068,0.0031,9.8066,0.0078,0.0134,-0.0059,-29.81,-58.56,14.13,325.66,-83.65,-142.8
46892,52.377823,-1.499736,132.79,19.76,4.0,95.9,25 / 26,266611,2019-09-07 10:31:39:765,-0.4483,0.1073,9.5419,0.0,0.004,9.8066,-0.0128,-0.0181,-0.0303,-29.31,-59.94,12.63,323.25,-83.7,-143.59
46893,52.377823,-1.499736,132.79,19.76,4.0,95.9,25 / 26,266710,2019-09-07 10:31:39:864,-0.0955,-0.0059,8.7178,-0.0089,-0.0033,9.8066,-0.044,-0.0475,-0.014,-29.31,-67.19,11.19,318.46,-83.7,-143.07
46894,52.377823,-1.499736,132.79,19.76,4.0,95.9,25 / 26,266810,2019-09-07 10:31:39:964,-0.27,0.3801,9.8552,-0.0121,-0.0003,9.8066,-0.0412,-0.0146,0.0161,-30.69,-66.44,24.81,344.35,-83.76,-141.66
46895,52.377823,-1.499736,132.79,19.76,4.0,95.9,25 / 26,266910,2019-09-07 10:31:40:064,1.1119,-0.5915,9.7438,-0.0141,-0.0079,9.8066,0.0032,0.0482,0.0652,-39.44,-40.87,31.38,347.81,-83.69,-139.5
46896,52.377823,-1.499736,132.79,19.76,4.0,95.9,25 / 26,267010,2019-09-07 10:31:40:164,0.9687,-0.0528,8.8595,-0.0098,-0.0209,9.8066,0.015,0.0373,0.0589,-43.62,-26.62,19.88,335.56,-83.5,-137.24
46897,52.377823,-1.499736,132.79,19.76,4.0,95.9,25 / 26,267110,2019-09-07 10:31:40:264,0.3037,-0.0887,10.6408,-0.0037,-0.0076,9.8066,0.0008,0.0396,0.0301,-45.19,-25.94,16.63,332.63,-83.36,-136.26
46898,52.377823,-1.499736,132.79,19.76,4.0,95.9,25 / 26,267210,2019-09-07 10:31:40:364,-0.1274,0.186,10.3893,0.0046,-0.0026,9.8066,0.0181,0.0142,-0.0138,-46.56,-25.94,15.5,331.19,-83.34,-135.77
46899,52.377823,-1.499736,132.79,19.76,4.0,95.9,24 / 25,267310,2019-09-07 10:31:40:464,-0.078,0.3003,9.3486,0.0087,-0.0009,9.8066,0.0089,-0.0021,-0.0263,-47.0,-26.12,15.38,329.39,-83.3,-136.34
46900,52.377823,-1.499736,132.79,19.76,4.0,95.9,24 / 25,267410,2019-09-07 10:31:40:564,-0.5429,0.0775,9.7557,-0.0055,-0.0012,9.8066,-0.0109,0.0099,0.0066,-47.19,-25.75,15.44,329.47,-83.27,-136.25
46901,52.377823,-1.499736,132.79,19.76,4.0,95.9,24 / 25,267510,2019-09-07 10:31:40:664,-0.1151,-0.0831,10.0527,-0.0067,0.001,9.8066,-0.0134,0.0163,0.0126,-46.69,-26.37,15.19,329.87,-83.3,-135.89
46902,52.377823,-1.499736,132.79,19.76,4.0,95.9,24 / 25,267610,2019-09-07 10:31:40:764,-0.4644,-0.4563,9.6191,-0.0052,-0.0054,9.8066,-0.0116,-0.0135,-0.0255,-45.56,-25.87,15.63,332.53,-83.31,-134.84
46903,52.377823,-1.499736,132.79,19.76,4.0,95.9,24 / 25,267710,2019-09-07 10:31:40:864,-0.1052,0.0689,9.474,-0.0054,-0.0056,9.8066,0.0019,0.0385,0.0265,-44.12,-25.62,15.06,332.79,-83.27,-134.16
46904,52.377823,-1.499736,132.79,19.76,4.0,95.9,24 / 25,267810,2019-09-07 10:31:40:964,-0.617,0.0173,9.9333,0.0014,-0.0008,9.8066,0.0347,0.0561,0.0193,-44.25,-26.19,14.25,331.65,-83.23,-134.02
46905,52.377823,-1.499736,132.79,19.76,4.0,95.9,24 / 25,267910,2019-09-07 10:31:41:064,-0.0197,-0.0304,10.2238,0.0085,-0.0023,9.8065,0.0203,0.003,-0.0092,-44.31,-25.69,14.38,330.86,-83.15,-134.74
46906,52.377823,-1.499736,132.79,19.76,4.0,95.9,24 / 25,268010,2019-09-07 10:31:41:164,0.5079,-0.0043,9.7967,0.0069,-0.003,9.8066,0.0038,0.0034,-0.013,-44.25,-26.0,13.88,330.11,-83.09,-135.64
46907,52.377823,-1.499736,132.79,19.76,4.0,95.9,24 / 25,268110,2019-09-07 10:31:41:264,-0.2627,-0.7268,9.8358,0.0041,0.0093,9.8066,0.0234,0.0602,0.0052,-43.5,-26.56,13.25,328.81,-83.03,-135.65
46908,52.377823,-1.499736,132.79,19.76,4.0,95.9,24 / 25,268210,2019-09-07 10:31:41:364,-0.0587,-0.2216,9.3787,-0.0099,0.004,9.8066,-0.0349,0.0113,-0.0103,-43.62,-26.62,13.38,328.27,-83.14,-135.89
46909,52.377823,-1.499736,132.79,19.76,4.0,95.9,24 / 25,268310,2019-09-07 10:31:41:464,-0.171,-0.0583,9.2299,-0.0123,-0.0009,9.8066,-0.0407,-0.024,-0.0215,-44.06,-26.37,13.13,329.69,-83.25,-134.66
46910,52.377823,-1.499736,132.79,19.76,4.0,95.9,24 / 25,268410,2019-09-07 10:31:41:564,0.188,-0.0055,9.961,-0.0041,-0.0003,9.8066,-0.0149,-0.0003,-0.0187,-43.81,-27.19,13.19,330.16,-83.33,-134.18
46911,52.377823,-1.499736,132.79,19.76,4.0,95.9,24 / 25,268510,2019-09-07 10:31:41:664,-0.4743,0.0005,9.7482,0.0007,0.0007,9.8066,0.007,0.0086,-0.0079,-43.75,-26.56,13.38,330.27,-83.37,-134.09
46912,52.377823,-1.499736,132.79,19.76,4.0,95.9,24 / 25,268610,2019-09-07 10:31:41:764,0.3546,-0.219,10.1063,-0.0006,0.0005,9.8066,0.0122,0.0203,-0.0007,-44.0,-26.75,13.44,329.88,-83.36,-134.45
46913,52.377823,-1.499736,132.79,19.76,4.0,95.9,24 / 25,268710,2019-09-07 10:31:41:864,0.3276,0.2223,9.9931,-0.0025,0.0001,9.8066,-0.0054,0.0114,0.0081,-43.75,-26.25,13.0,329.95,-83.35,-134.45
46914,52.377823,-1.499736,132.79,19.76,4.0,95.9,24 / 25,268810,2019-09-07 10:31:41:964,-0.6247,-0.4917,9.9411,-0.0062,0.0012,9.8066,-0.0156,-0.0132,-0.0116,-43.25,-26.75,12.81,330.67,-83.39,-134.05
46915,52.377823,-1.499736,132.79,19.76,4.0,95.9,24 / 25,268911,2019-09-07 10:31:42:065,-0.7047,-0.378,9.1059,-0.0017,0.0001,9.8066,-0.0195,-0.0463,-0.0495,-43.56,-27.0,13.13,330.83,-83.43,-133.59
46916,52.377823,-1.499736,132.79,19.76,4.0,95.9,24 / 25,269010,2019-09-07 10:31:42:164,-0.6663,-0.05,10.7754,0.0066,-0.0015,9.8066,0.0233,-0.0016,-0.0091,-43.69,-26.75,13.06,330.4,-83.46,-134.0
46917,52.377823,-1.499736,132.79,19.76,4.0,95.9,24 / 25,269110,2019-09-07 10:31:42:264,1.2087,-0.2695,10.4497,0.0141,0.0006,9.8066,0.0227,0.0135,0.0061,-43.81,-27.19,13.19,328.95,-83.35,-135.32
46918,52.377823,-1.499736,132.79,19.76,4.0,95.9,24 / 25,269210,2019-09-07 10:31:42:364,0.3148,-0.6222,9.1274,-0.0149,0.0121,9.8065,-0.0611,-0.0305,-0.0544,-43.62,-26.56,12.81,328.98,-83.45,-135.33
46919,52.377823,-1.499736,132.79,19.76,4.0,95.9,22 / 23,269310,2019-09-07 10:31:42:464,0.4571,0.2074,9.2664,-0.0085,0.0102,9.8066,-0.0262,-0.0042,-0.0314,-44.12,-27.06,13.0,329.03,-83.64,-135.35
46920,52.377823,-1.499736,132.79,19.76,4.0,95.9,22 / 23,269410,2019-09-07 10:31:42:564,-0.082,0.0892,9.3455,0.0069,0.0137,9.8066,-0.0149,-0.0379,-0.051,-43.87,-27.25,12.75,327.63,-83.81,-136.73
46921,52.377823,-1.499736,132.79,19.76,4.0,95.9,22 / 23,269511,2019-09-07 10:31:42:665,0.2455,0.0368,9.2627,-0.0019,0.0046,9.8066,-0.0237,-0.032,-0.0373,-43.06,-27.12,13.31,327.05,-83.89,-137.62
46922,52.377823,-1.499736,132.79,19.76,4.0,95.9,22 / 23,269610,2019-09-07 10:31:42:764,0.0152,0.2112,10.33,0.0013,0.0068,9.8066,-0.0171,-0.0257,-0.0279,-43.19,-26.81,12.5,326.64,-83.94,-138.03
46923,52.377823,-1.499736,132.79,19.76,4.0,95.9,22 / 23,269710,2019-09-07 10:31:42:864,0.7655,-0.4159,10.0269,0.0012,-0.002,9.8065,0.014,0.03,0.0235,-43.0,-27.06,13.63,327.87,-83.93,-138.1
46924,52.377823,-1.499736,132.79,19.76,4.0,95.9,22 / 23,269810,2019-09-07 10:31:42:964,-0.5176,-0.5165,10.1468,-0.0037,0.0013,9.8066,-0.0108,-0.012,-0.0194,-43.56,-27.0,13.0,326.56,-83.94,-137.79
46925,52.377823,-1.499736,132.79,19.76,4.0,95.9,22 / 23,269910,2019-09-07 10:31:43:064,0.4237,-0.1373,9.4284,-0.0022,0.0047,9.8066,-0.0233,-0.0205,-0.0282,-43.37,-27.12,13.69,327.84,-84.02,-138.15
46926,52.377823,-1.499736,132.79,19.76,4.0,95.9,22 / 23,270011,2019-09-07 10:31:43:165,0.0255,-0.0169,9.6721,-0.0048,0.0081,9.8066,-0.0002,0.0361,0.0082,-42.81,-27.37,13.38,326.7,-84.17,-138.06
46927,52.377823,-1.499736,132.79,19.76,4.0,95.9,22 / 23,270110,2019-09-07 10:31:43:264,-0.322,0.3317,10.2691,-0.0049,0.0007,9.8066,0.0128,0.04,0.0339,-42.81,-27.12,13.13,326.87,-84.2,-137.91
46928,52.377823,-1.499736,132.79,19.76,4.0,95.9,22 / 23,270210,2019-09-07 10:31:43:364,-0.1942,0.2027,9.2036,0.0027,-0.0028,9.8066,-0.0292,-0.0444,-0.0212,-43.37,-27.19,13.44,326.81,-84.16,-137.96
46929,52.377716,-1.497098,131.35,19.89,4.0,94.01,23 / 24,270310,2019-09-07 10:31:43:464,-0.0614,-0.7663,9.8944,-0.004,-0.0087,9.8066,-0.0126,-0.0276,-0.0086,-43.81,-26.87,13.0,327.24,-84.11,-137.2
46930,52.377716,-1.497098,131.35,19.89,4.0,94.01,23 / 24,270410,2019-09-07 10:31:43:564,0.0624,-0.12,8.9301,-0.0012,-0.0005,9.8066,-0.0004,0.0232,-0.0068,-43.0,-26.5,13.38,327.61,-84.12,-137.26
46931,52.377716,-1.497098,131.35,19.89,4.0,94.01,23 / 24,270510,2019-09-07 10:31:43:664,0.53,-0.0641,9.6261,-0.0055,0.0094,9.8066,-0.007,0.0364,0.0011,-43.75,-27.12,12.88,327.29,-84.18,-137.18
46932,52.377716,-1.497098,131.35,19.89,4.0,94.01,23 / 24,270610,2019-09-07 10:31:43:764,0.0696,0.1651,9.9451,-0.0022,0.0082,9.8066,-0.0113,-0.0035,-0.0191,-43.31,-27.19,12.44,326.16,-84.38,-137.42
46933,52.377716,-1.497098,131.35,19.89,4.0,94.01,23 / 24,270710,2019-09-07 10:31:43:864,0.2952,0.2303,10.2662,0.0087,-0.0027,9.8066,0.0191,-0.0261,-0.0103,-43.25,-26.81,12.75,326.75,-84.43,-138.11
46934,52.377716,-1.497098,131.35,19.89,4.0,94.01,23 / 24,270810,2019-09-07 10:31:43:964,0.4923,0.0246,10.2599,0.0011,-0.0129,9.8066,0.0174,0.0641,0.0623,-43.37,-27.19,12.88,326.55,-84.21,-138.22
46935,52.377716,-1.497098,131.35,19.89,4.0,94.01,23 / 24,270910,2019-09-07 10:31:44:064,-0.127,-0.238,9.5142,-0.001,-0.0117,9.8066,-0.0158,-0.0066,0.0108,-43.06,-26.69,12.13,325.74,-84.15,-137.72
46936,52.377716,-1.497098,131.35,19.89,4.0,94.01,23 / 24,271010,2019-09-07 10:31:44:164,0.543,-0.3697,10.4937,-0.0034,0.0047,9.8066,0.0114,0.0509,0.0384,-43.06,-27.31,13.0,327.86,-84.13,-136.95
46937,52.377716,-1.497098,131.35,19.89,4.0,94.01,23 / 24,271114,2019-09-07 10:31:44:268,1.6123,-0.587,9.1675,-0.0038,0.0027,9.8066,-0.0108,0.0452,0.0215,-43.44,-26.75,12.75,328.24,-84.17,-136.61
46938,52.377716,-1.497098,131.35,19.89,4.0,94.01,23 / 24,271210,2019-09-07 10:31:44:364,0.2053,-0.2619,9.3804,-0.0049,0.0105,9.8066,-0.0016,0.0346,-0.0018,-43.31,-26.87,12.81,328.61,-84.35,-136.32
46939,52.377716,-1.497098,131.35,19.89,4.0,94.01,25 / 26,271310,2019-09-07 10:31:44:464,-0.2277,-0.2991,10.8016,-0.0009,0.0093,9.8066,0.0013,-0.0056,-0.0332,-42.75,-27.37,12.88,328.09,-84.52,-136.87
46940,52.377716,-1.497098,131.35,19.89,4.0,94.01,25 / 26,271411,2019-09-07 10:31:44:565,0.1409,0.2001,10.539,0.0035,-0.0015,9.8066,0.0091,0.0323,0.0051,-43.0,-27.25,13.0,327.67,-84.56,-137.29
46941,52.377716,-1.497098,131.35,19.89,4.0,94.01,25 / 26,271510,2019-09-07 10:31:44:664,0.6548,-0.0123,10.8693,-0.0057,-0.0155,9.8066,-0.0168,0.0269,0.0627,-43.19,-27.0,12.81,327.77,-84.53,-137.18
46942,52.377716,-1.497098,131.35,19.89,4.0,94.01,25 / 26,271610,2019-09-07 10:31:44:764,0.4915,0.0798,10.6847,-0.0055,-0.0163,9.8066,0.0094,0.0335,0.0561,-43.44,-27.69,13.13,331.47,-84.35,-133.55
46943,52.377716,-1.497098,131.35,19.89,4.0,94.01,25 / 26,271710,2019-09-07 10:31:44:864,0.0789,-0.1862,10.3642,-0.0044,-0.0131,9.8066,-0.0083,-0.0141,0.0127,-43.44,-26.94,12.56,332.87,-84.22,-132.25
46944,52.377716,-1.497098,131.35,19.89,4.0,94.01,25 / 26,271810,2019-09-07 10:31:44:964,-0.196,-0.276,9.7865,0.0049,-0.0006,9.8066,0.0243,0.0278,0.0062,-43.75,-26.81,12.44,331.84,-84.13,-131.65
46945,52.377716,-1.497098,131.35,19.89,4.0,94.01,25 / 26,271910,2019-09-07 10:31:45:064,0.0091,-0.4348,9.0485,0.0002,0.0066,9.8065,-0.0377,-0.0257,-0.0421,-43.81,-27.25,12.75,332.28,-84.13,-132.45
46946,52.377716,-1.497098,131.35,19.89,4.0,94.01,25 / 26,272010,2019-09-07 10:31:45:164,-0.8388,-0.132,9.9584,-0.0019,0.0076,9.8066,-0.0245,-0.0398,-0.056,-43.31,-26.62,12.69,333.09,-84.24,-132.05
46947,52.377716,-1.497098,131.35,19.89,4.0,94.01,25 / 26,272110,2019-09-07 10:31:45:264,-0.3934,-0.0301,9.7039,0.0072,0.0068,9.8066,0.0175,0.0153,-0.026,-43.69,-26.81,12.25,330.37,-84.33,-133.1
46948,52.377716,-1.497098,131.35,19.89,4.0,94.01,25 / 26,272210,2019-09-07 10:31:45:364,0.8059,0.154,9.5137,0.0065,0.0045,9.8066,0.0207,0.056,0.0106,-42.5,-26.94,12.38,329.19,-84.35,-134.84
46949,52.377716,-1.497098,131.35,19.89,4.0,94.01,24 / 25,272310,2019-09-07 10:31:45:464,0.0393,0.0173,9.4284,-0.0015,0.0021,9.8066,-0.0041,0.0302,0.0078,-42.69,-26.56,12.75,330.15,-84.4,-134.88
46950,52.377716,-1.497098,131.35,19.89,4.0,94.01,24 / 25,272411,2019-09-07 10:31:45:565,0.2781,-0.0137,9.5628,-0.0056,0.0043,9.8066,-0.0198,0.0191,-0.0009,-42.56,-26.75,12.56,330.6,-84.46,-134.47
46951,52.377716,-1.497098,131.35,19.89,4.0,94.01,24 / 25,272511,2019-09-07 10:31:45:665,-0.1064,0.3701,9.1056,-0.0009,-0.0014,9.8066,-0.003,0.0381,0.0216,-43.19,-26.81,12.38,330.01,-84.48,-133.8
46952,52.377716,-1.497098,131.35,19.89,4.0,94.01,24 / 25,272610,2019-09-07 10:31:45:764,-0.1526,-0.0406,9.6606,0.0088,-0.0021,9.8066,0.0044,-0.0427,-0.0402,-42.75,-26.31,12.63,331.88,-84.51,-133.33
46953,52.377716,-1.497098,131.35,19.89,4.0,94.01,24 / 25,272710,2019-09-07 10:31:45:864,-0.4943,-0.4757,9.8352,0.0004,-0.0031,9.8066,-0.0055,0.0225,-0.0091,-43.06,-26.5,12.06,330.0,-84.42,-133.85
46954,52.377716,-1.497098,131.35,19.89,4.0,94.01,24 / 25,272811,2019-09-07 10:31:45:965,0.0024,0.0886,9.5626,-0.0027,0.008,9.8066,0.0074,0.0641,0.0162,-42.69,-26.62,11.06,329.05,-84.53,-133.47
46955,52.377716,-1.497098,131.35,19.89,4.0,94.01,24 / 25,272911,2019-09-07 10:31:46:065,0.1516,0.0794,9.3243,0.0043,0.0068,9.8066,0.0079,0.0286,0.0021,-43.19,-26.19,11.19,328.33,-84.6,-134.24
46956,52.377716,-1.497098,131.35,19.89,4.0,94.01,24 / 25,273010,2019-09-07 10:31:46:164,-0.2984,-0.7125,9.7368,0.0048,0.0118,9.8066,0.0087,0.0012,-0.0351,-43.5,-26.75,10.69,327.83,-84.63,-134.67
46957,52.377716,-1.497098,131.35,19.89,4.0,94.01,24 / 25,273111,2019-09-07 10:31:46:265,-0.3147,0.1339,9.298,0.01,0.0023,9.8066,0.0221,0.0246,0.0001,-44.31,-26.75,10.56,325.54,-84.63,-136.57
46958,52.377716,-1.497098,131.35,19.89,4.0,94.01,24 / 25,273210,2019-09-07 10:31:46:364,0.2371,-0.0886,10.3297,0.0092,0.0049,9.8066,0.0167,-0.002,-0.0169,-44.25,-27.56,9.88,322.89,-84.63,-137.79
46959,52.377716,-1.497098,131.35,19.89,4.0,94.01,23 / 25,273310,2019-09-07 10:31:46:464,0.0919,-0.1146,10.4517,0.0063,-0.0047,9.8066,0.0026,-0.0181,-0.003,-44.31,-28.69,8.63,320.43,-84.51,-138.74
46960,52.377716,-1.497098,131.35,19.89,4.0,94.01,23 / 25,273410,2019-09-07 10:31:46:564,0.2089,-1.2176,11.444,0.0,-0.0059,9.8066,0.0015,0.0016,0.0086,-41.87,-37.5,3.63,314.04,-84.4,-137.73
46961,52.377716,-1.497098,131.35,19.89,4.0,94.01,23 / 25,273510,2019-09-07 10:31:46:664,0.7012,-0.2238,10.7967,-0.0028,0.0118,9.8066,-0.0022,-0.0295,-0.0234,-37.87,-52.25,6.75,317.22,-84.45,-138.01
46962,52.377716,-1.497098,131.35,19.89,4.0,94.01,23 / 25,273610,2019-09-07 10:31:46:764,-0.8453,-0.8969,9.0338,-0.0002,0.0121,9.8066,0.0309,0.102,0.0511,-37.0,-54.44,15.19,330.23,-84.42,-137.97
46963,52.377716,-1.497098,131.35,19.89,4.0,94.01,23 / 25,273710,2019-09-07 10:31:46:864,-0.2974,-0.2956,10.3984,0.0033,0.0097,9.8066,-0.0136,-0.0475,-0.0577,-36.31,-49.62,18.69,336.18,-84.63,-138.88
46964,52.377716,-1.497098,131.35,19.89,4.0,94.01,23 / 25,273810,2019-09-07 10:31:46:964,0.0514,-0.0298,10.2664,0.0072,-0.0051,9.8066,0.0232,-0.0023,-0.0074,-36.94,-46.25,18.06,333.35,-84.6,-139.79
46965,52.377716,-1.497098,131.35,19.89,4.0,94.01,23 / 25,273910,2019-09-07 10:31:47:064,0.2439,-0.3589,10.0226,0.0054,0.0012,9.8066,-0.0023,-0.0023,0.0056,-37.75,-45.19,15.69,329.05,-84.48,-140.57
46966,52.377716,-1.497098,131.35,19.89,4.0,94.01,23 / 25,274010,2019-09-07 10:31:47:164,-0.1482,-0.1226,10.345,0.0033,0.0034,9.8066,0.0047,-0.0206,-0.0244,-39.12,-46.94,15.13,326.96,-84.46,-140.55
46967,52.377716,-1.497098,131.35,19.89,4.0,94.01,23 / 25,274110,2019-09-07 10:31:47:264,-0.0468,0.4827,9.0054,0.0052,-0.0028,9.8066,0.0085,0.0073,0.0188,-40.62,-47.19,16.75,327.87,-84.41,-141.38
46968,52.377716,-1.497098,131.35,19.89,4.0,94.01,23 / 25,274210,2019-09-07 10:31:47:364,-0.0299,-0.4765,10.4978,0.0006,-0.0131,9.8066,0.0113,0.0098,0.0372,-42.5,-45.56,17.69,329.31,-84.26,-140.81
46969,52.377716,-1.497098,131.35,19.89,4.0,94.01,23 / 24,274310,2019-09-07 10:31:47:464,-0.2388,-0.1269,9.4609,0.0073,-0.0028,9.8066,0.0315,-0.0115,-0.0262,-41.44,-34.62,23.25,336.93,-84.12,-140.53
46970,52.377716,-1.497098,131.35,19.89,4.0,94.01,23 / 24,274411,2019-09-07 10:31:47:565,0.0998,-0.2488,10.0289,0.0076,0.0091,9.8066,0.0037,0.0118,-0.0293,-41.25,-25.12,16.0,327.02,-84.1,-142.33
46971,52.377716,-1.497098,131.35,19.89,4.0,94.01,23 / 24,274510,2019-09-07 10:31:47:664,-0.2613,-0.3906,10.4627,-0.0029,0.0057,9.8066,-0.0017,0.0011,-0.021,-40.31,-25.56,12.94,322.8,-84.2,-142.9
46972,52.377716,-1.497098,131.35,19.89,4.0,94.01,23 / 24,274610,2019-09-07 10:31:47:764,0.4847,-0.2094,10.3219,0.0023,0.0094,9.8066,0.0006,-0.0056,-0.0245,-41.06,-26.25,12.25,320.36,-84.24,-143.57
46973,52.377716,-1.497098,131.35,19.89,4.0,94.01,23 / 24,274710,2019-09-07 10:31:47:864,0.0921,0.0515,10.1435,0.005,0.0031,9.8066,0.0134,-0.0075,-0.0114,-41.0,-26.87,12.63,320.64,-84.28,-144.54
46974,52.377716,-1.497098,131.35,19.89,4.0,94.01,23 / 24,274810,2019-09-07 10:31:47:964,-0.4381,-0.0157,10.9135,0.0115,-0.014,9.8066,0.0304,-0.0116,0.0125,-41.37,-28.06,12.44,318.7,-84.18,-144.95
46975,52.377716,-1.497098,131.35,19.89,4.0,94.01,23 / 24,274910,2019-09-07 10:31:48:064,0.2467,-0.3021,10.233,0.0083,-0.0135,9.8065,0.0083,0.0031,0.0204,-41.69,-29.31,13.31,319.62,-83.9,-144.81
46976,52.377716,-1.497098,131.35,19.89,4.0,94.01,23 / 24,275010,2019-09-07 10:31:48:164,0.0604,-0.5089,10.5765,-0.0044,-0.0084,9.8066,0.0008,0.049,0.0363,-41.19,-28.75,16.0,324.5,-83.82,-144.3
46977,52.377716,-1.497098,131.35,19.89,4.0,94.01,23 / 24,275110,2019-09-07 10:31:48:264,-0.7229,0.1228,9.4549,-0.0055,-0.004,9.8065,-0.0075,0.0126,0.0112,-40.75,-25.31,15.75,325.95,-83.81,-143.24
46978,52.377716,-1.497098,131.35,19.89,4.0,94.01,23 / 24,275210,2019-09-07 10:31:48:364,0.204,0.1115,9.6771,0.004,-0.004,9.8066,0.0108,0.0151,0.0102,-41.62,-25.56,13.25,321.87,-83.8,-142.9
46979,52.377716,-1.497098,131.35,19.89,4.0,94.01,23 / 24,275310,2019-09-07 10:31:48:464,-0.2831,0.0222,9.4753,0.006,-0.0049,9.8066,0.028,0.0108,0.0067,-41.44,-26.19,12.63,322.04,-83.71,-143.04
46980,52.377716,-1.497098,131.35,19.89,4.0,94.01,23 / 24,275410,2019-09-07 10:31:48:564,-0.4764,-0.2657,10.6682,0.0077,-0.0005,9.8066,0.0127,-0.0072,-0.0106,-41.87,-27.69,13.31,320.59,-83.62,-143.86
46981,52.377716,-1.497098,131.35,19.89,4.0,94.01,23 / 24,275510,2019-09-07 10:31:48:664,0.6488,-0.1357,10.2915,0.0102,-0.0043,9.8066,0.0028,0.0016,0.0012,-41.69,-29.87,13.38,319.88,-83.52,-144.28
46982,52.377716,-1.497098,131.35,19.89,4.0,94.01,23 / 24,275610,2019-09-07 10:31:48:764,0.248,-0.2634,9.8537,-0.0026,0.0019,9.8066,-0.0082,0.0038,-0.0046,-41.56,-28.75,14.69,322.67,-83.53,-144.25
46983,52.377716,-1.497098,131.35,19.89,4.0,94.01,23 / 24,275710,2019-09-07 10:31:48:864,-0.1497,-0.3126,10.4505,-0.0051,0.0037,9.8066,-0.009,-0.0004,-0.0047,-41.87,-27.94,14.75,322.97,-83.62,-144.1
46984,52.377716,-1.497098,131.35,19.89,4.0,94.01,23 / 24,275810,2019-09-07 10:31:48:964,-0.0214,0.1102,9.8483,0.0009,-0.0005,9.8066,-0.0012,0.0065,0.0026,-42.69,-27.69,14.63,322.58,-83.66,-144.11
46985,52.377716,-1.497098,131.35,19.89,4.0,94.01,23 / 24,275910,2019-09-07 10:31:49:064,-0.1685,-0.2207,10.4147,0.0111,-0.0061,9.8066,0.0226,-0.0149,-0.0009,-42.56,-27.19,14.13,320.97,-83.56,-144.46
46986,52.377716,-1.497098,131.35,19.89,4.0,94.01,23 / 24,276010,2019-09-07 10:31:49:164,-0.1123,0.1076,10.2242,0.0079,-0.0156,9.8066,0.0154,-0.0122,0.016,-43.25,-27.31,14.0,320.47,-83.45,-144.88
46987,52.377716,-1.497098,131.35,19.89,4.0,94.01,23 / 24,276111,2019-09-07 10:31:49:265,-0.3711,-0.027,10.4412,0.0044,-0.0149,9.8066,0.0105,-0.0268,0.0036,-42.81,-27.44,14.38,321.29,-83.18,-144.0
46988,52.377716,-1.497098,131.35,19.89,4.0,94.01,23 / 24,276210,2019-09-07 10:31:49:364,-0.0222,-0.5635,10.5302,0.0082,-0.0131,9.8066,0.0081,-0.0219,-0.0003,-43.19,-27.44,14.56,322.55,-83.03,-143.96
46989,52.377716,-1.497098,131.35,19.89,4.0,94.01,23 / 24,276310,2019-09-07 10:31:49:464,0.0716,-0.1882,9.8816,0.0003,0.0008,9.8066,-0.025,-0.0154,-0.0162,-42.81,-26.62,14.31,321.29,-82.9,-143.88
46990,52.377716,-1.497098,131.35,19.89,4.0,94.01,23 / 24,276410,2019-09-07 10:31:49:564,-0.0974,-0.2826,9.8754,-0.0025,0.0054,9.8066,-0.0185,-0.0141,-0.0182,-43.12,-27.12,14.5,322.85,-82.96,-143.65
46991,52.377716,-1.497098,131.35,19.89,4.0,94.01,23 / 24,276511,2019-09-07 10:31:49:665,0.03,-0.316,9.8705,0.0006,-0.0016,9.8066,-0.0035,-0.0112,0.0021,-43.19,-27.37,14.81,322.88,-82.96,-143.63
46992,52.377716,-1.497098,131.35,19.89,4.0,94.01,23 / 24,276610,2019-09-07 10:31:49:764,-0.2334,-0.2492,10.1128,0.0043,0.0004,9.8066,-0.0001,-0.0132,-0.0115,-43.19,-27.44,14.56,322.75,-82.93,-143.74
46993,52.377716,-1.497098,131.35,19.89,4.0,94.01,23 / 24,276710,2019-09-07 10:31:49:864,-0.3759,0.2308,8.5728,-0.0023,0.0031,9.8066,-0.0418,-0.0544,-0.0317,-43.5,-27.37,14.31,321.38,-82.94,-143.81
46994,52.377716,-1.497098,131.35,19.89,4.0,94.01,23 / 24,276810,2019-09-07 10:31:49:964,-0.4404,-0.1021,10.0874,-0.0052,0.0024,9.8066,-0.0328,-0.0091,-0.0216,-43.37,-27.12,14.44,321.65,-83.03,-143.6
46995,52.377716,-1.497098,131.35,19.89,4.0,94.01,23 / 24,276910,2019-09-07 10:31:50:064,-0.7096,-0.1839,10.4579,0.0021,-0.0015,9.8066,0.0288,0.0222,0.0087,-42.81,-27.06,14.5,323.42,-83.08,-143.16
46996,52.377716,-1.497098,131.35,19.89,4.0,94.01,23 / 24,277011,2019-09-07 10:31:50:165,-0.4284,0.1875,10.8605,0.0259,-0.0122,9.8065,0.07,-0.0125,0.0035,-43.06,-27.06,14.75,321.82,-82.8,-144.55
46997,52.377716,-1.497098,131.35,19.89,4.0,94.01,23 / 24,277110,2019-09-07 10:31:50:264,0.4308,-0.2303,10.798,0.0259,-0.0146,9.8065,0.0608,0.0218,0.0232,-43.75,-27.75,14.38,318.8,-82.51,-145.61
46998,52.377716,-1.497098,131.35,19.89,4.0,94.01,23 / 24,277210,2019-09-07 10:31:50:364,0.6007,-0.1799,9.7486,0.0058,-0.0014,9.8066,0.0085,0.0134,0.0092,-43.0,-27.06,14.94,319.58,-82.29,-146.43
46999,52.377716,-1.497098,131.35,19.89,4.0,94.01,24 / 25,277310,2019-09-07 10:31:50:464,0.0545,0.1081,9.1808,-0.0152,0.0027,9.8066,-0.0511,-0.007,0.0005,-43.37,-27.06,15.5,321.4,-82.37,-145.96
47000,52.377716,-1.497098,131.35,19.89,4.0,94.01,24 / 25,277410,2019-09-07 10:31:50:564,-0.5076,0.2604,9.1722,-0.0115,-0.0025,9.8066,-0.021,0.0186,0.0106,-43.12,-27.25,14.5,321.39,-82.53,-144.84
47001,52.377716,-1.497098,131.35,19.89,4.0,94.01,24 / 25,277511,2019-09-07 10:31:50:665,-0.2777,-0.301,10.0959,-0.0029,-0.0027,9.8066,0.0337,-0.0004,-0.0021,-43.19,-26.87,14.5,322.49,-82.6,-143.83
47002,52.377716,-1.497098,131.35,19.89,4.0,94.01,24 / 25,277610,2019-09-07 10:31:50:764,-0.0938,0.0788,9.7595,0.0154,-0.0024,9.8066,0.0314,-0.0208,-0.0167,-43.0,-27.19,14.5,321.2,-82.42,-144.97
47003,52.377716,-1.497098,131.35,19.89,4.0,94.01,24 / 25,277710,2019-09-07 10:31:50:864,0.062,-0.1497,9.9506,0.0159,-0.0034,9.8066,0.0268,0.0168,-0.0059,-43.12,-27.12,15.06,320.26,-82.28,-145.78
47004,52.377716,-1.497098,131.35,19.89,4.0,94.01,24 / 25,277810,2019-09-07 10:31:50:964,0.3997,-0.1332,9.8415,0.002,0.0023,9.8066,0.0037,0.0125,-0.0065,-43.44,-26.81,15.38,319.64,-82.25,-146.35
47005,52.377716,-1.497098,131.35,19.89,4.0,94.01,24 / 25,277911,2019-09-07 10:31:51:065,-0.1136,0.0565,10.2473,-0.0053,0.0023,9.8066,-0.0011,-0.0005,-0.0034,-43.75,-27.0,15.0,319.24,-82.28,-146.4
47006,52.377716,-1.497098,131.35,19.89,4.0,94.01,24 / 25,278010,2019-09-07 10:31:51:164,-0.3087,0.0669,9.9885,-0.0012,-0.0018,9.8066,0.0057,-0.004,-0.0001,-43.62,-27.25,15.19,319.44,-82.28,-146.21
47007,52.377716,-1.497098,131.35,19.89,4.0,94.01,24 / 25,278110,2019-09-07 10:31:51:264,-0.2613,-0.1271,9.6465,0.0037,-0.0041,9.8066,0.0182,0.0158,-0.0027,-42.62,-27.31,14.69,319.91,-82.22,-146.09
47008,52.377716,-1.497098,131.35,19.89,4.0,94.01,24 / 25,278210,2019-09-07 10:31:51:364,-0.7062,-0.0882,10.5629,-0.0008,-0.0009,9.8066,0.0062,0.0294,0.0116,-43.25,-27.5,15.44,319.7,-82.14,-146.24
47009,52.377716,-1.497098,131.35,19.89,4.0,94.01,23 / 24,278310,2019-09-07 10:31:51:464,0.1282,0.0133,10.7662,-0.0022,-0.0026,9.8066,-0.0095,-0.0215,-0.0046,-43.0,-27.31,15.06,319.83,-82.13,-146.12
47010,52.377716,-1.497098,131.35,19.89,4.0,94.01,23 / 24,278410,2019-09-07 10:31:51:564,0.3503,0.1955,9.622,0.0029,-0.013,9.8066,0.0065,0.0049,0.0232,-43.06,-27.0,14.94,320.16,-82.05,-145.78
47011,52.377716,-1.497098,131.35,19.89,4.0,94.01,23 / 24,278511,2019-09-07 10:31:51:665,-0.4774,-0.4619,10.0321,-0.0025,-0.0037,9.8066,0.0043,0.0233,0.0127,-43.31,-27.0,15.56,322.06,-81.91,-145.15
47012,52.377716,-1.497098,131.35,19.89,4.0,94.01,23 / 24,278610,2019-09-07 10:31:51:764,-0.302,-0.3414,10.5684,0.0137,0.0033,9.8066,0.0289,0.0047,-0.0172,-43.19,-27.19,15.56,321.66,-81.9,-145.51
47013,52.377716,-1.497098,131.35,19.89,4.0,94.01,23 / 24,278710,2019-09-07 10:31:51:864,0.4798,-0.0493,10.5759,0.0169,0.0039,9.8066,0.0257,0.0265,0.0033,-42.75,-26.37,15.75,319.79,-81.78,-147.32
47014,52.377716,-1.497098,131.35,19.89,4.0,94.01,23 / 24,278810,2019-09-07 10:31:51:964,0.2564,0.2364,8.8078,-0.0017,-0.0093,9.8066,-0.0005,0.0194,0.0307,-43.37,-26.94,15.38,318.39,-81.67,-147.25
47015,52.377716,-1.497098,131.35,19.89,4.0,94.01,23 / 24,278910,2019-09-07 10:31:52:064,-0.3866,-0.2235,9.1891,-0.0125,-0.0061,9.8066,-0.0387,0.0109,0.0249,-43.75,-27.12,15.38,319.25,-81.71,-146.13
47016,52.377716,-1.497098,131.35,19.89,4.0,94.01,23 / 24,279010,2019-09-07 10:31:52:164,-0.2157,-0.6463,9.7339,-0.0131,-0.0008,9.8066,-0.0342,0.016,0.0119,-43.25,-27.0,15.31,320.95,-81.8,-144.92
47017,52.377716,-1.497098,131.35,19.89,4.0,94.01,23 / 24,279111,2019-09-07 10:31:52:265,-0.3567,-0.2152,10.1032,-0.0005,0.0033,9.8066,-0.0169,-0.0366,-0.0523,-43.25,-27.06,15.38,321.56,-81.91,-144.41
47018,52.377716,-1.497098,131.35,19.89,4.0,94.01,23 / 24,279210,2019-09-07 10:31:52:364,-0.2951,-0.1662,9.0949,0.0111,0.0044,9.8066,0.0122,-0.0386,-0.0517,-43.69,-27.5,14.88,320.6,-81.96,-144.98
47019,52.37759,-1.494451,128.79,19.72,4.0,95.14,23 / 24,279311,2019-09-07 10:31:52:465,0.2952,-0.2052,9.7462,0.0029,0.0111,9.8066,0.0169,0.0289,0.0059,-43.44,-27.5,14.81,320.06,-81.9,-145.8
47020,52.37759,-1.494451,128.79,19.72,4.0,95.14,23 / 24,279410,2019-09-07 10:31:52:564,-0.3033,-0.0697,9.3862,-0.008,0.0122,9.8066,-0.0254,0.0003,-0.0188,-43.12,-26.94,15.06,319.15,-81.99,-146.69
47021,52.37759,-1.494451,128.79,19.72,4.0,95.14,23 / 24,279510,2019-09-07 10:31:52:664,-0.4841,-0.2053,9.2874,-0.0103,0.0111,9.8066,-0.0287,-0.0271,-0.0461,-43.5,-27.06,14.88,319.03,-82.15,-146.88
47022,52.37759,-1.494451,128.79,19.72,4.0,95.14,23 / 24,279610,2019-09-07 10:31:52:764,0.1692,-0.4409,10.3255,0.0003,0.0059,9.8066,-0.0046,0.0134,-0.0066,-43.06,-26.62,15.0,318.93,-82.31,-147.04
47023,52.37759,-1.494451,128.79,19.72,4.0,95.14,23 / 24,279711,2019-09-07 10:31:52:865,0.1408,0.3701,9.8444,0.0034,0.004,9.8066,0.017,0.0047,0.014,-42.75,-27.37,14.88,318.15,-82.34,-147.8
47024,52.37759,-1.494451,128.79,19.72,4.0,95.14,23 / 24,279810,2019-09-07 10:31:52:964,0.4496,0.1258,9.7942,0.0061,-0.0042,9.8066,0.0151,0.0051,0.0198,-42.81,-27.25,15.06,317.76,-82.19,-148.09
47025,52.37759,-1.494451,128.79,19.72,4.0,95.14,23 / 24,279910,2019-09-07 10:31:53:064,-0.1277,-0.2114,9.8107,0.0041,-0.0037,9.8066,-0.0223,-0.0041,-0.0052,-42.87,-27.12,14.94,317.57,-82.12,-148.24
47026,52.37759,-1.494451,128.79,19.72,4.0,95.14,23 / 24,280011,2019-09-07 10:31:53:165,-0.3177,-0.1477,8.7264,-0.0005,0.0069,9.8066,-0.0121,-0.0141,-0.0355,-42.69,-27.12,15.44,317.73,-82.17,-148.11
47027,52.37759,-1.494451,128.79,19.72,4.0,95.14,23 / 24,280114,2019-09-07 10:31:53:268,-0.9397,0.5179,8.9712,-0.0077,0.0025,9.8066,-0.0434,-0.0604,-0.0468,-42.81,-27.5,15.56,319.11,-82.26,-148.06
47028,52.37759,-1.494451,128.79,19.72,4.0,95.14,23 / 24,280210,2019-09-07 10:31:53:364,0.1432,-0.1423,8.7982,-0.0059,-0.0039,9.8066,-0.0001,0.0439,0.0345,-42.87,-27.19,14.38,317.44,-82.29,-147.22
47029,52.37759,-1.494451,128.79,19.72,4.0,95.14,23 / 24,280310,2019-09-07 10:31:53:464,0.0026,-0.1353,10.404,-0.0068,0.0067,9.8066,0.0102,0.0029,-0.0147,-42.75,-26.69,14.94,319.31,-82.41,-146.73
47030,52.37759,-1.494451,128.79,19.72,4.0,95.14,23 / 24,280410,2019-09-07 10:31:53:564,0.4087,-0.2149,9.334,0.0045,0.0062,9.8065,-0.0043,-0.0253,-0.0336,-42.56,-26.94,15.25,318.96,-82.39,-147.05
47031,52.37759,-1.494451,128.79,19.72,4.0,95.14,23 / 24,280510,2019-09-07 10:31:53:664,-0.0118,-0.0674,9.7255,0.0063,0.0002,9.8066,0.0131,0.0048,-0.0091,-42.69,-27.06,15.13,318.38,-82.35,-147.58
47032,52.37759,-1.494451,128.79,19.72,4.0,95.14,23 / 24,280610,2019-09-07 10:31:53:764,0.297,-0.0645,9.9015,0.0048,0.0013,9.8066,0.013,0.0183,-0.0038,-42.44,-26.56,15.06,318.12,-82.32,-148.16
47033,52.37759,-1.494451,128.79,19.72,4.0,95.14,23 / 24,280710,2019-09-07 10:31:53:864,0.1523,-0.1044,9.7744,-0.0012,0.0039,9.8066,0.0039,0.0023,-0.0205,-42.81,-26.81,15.0,317.17,-82.32,-148.7
47034,52.37759,-1.494451,128.79,19.72,4.0,95.14,23 / 24,280810,2019-09-07 10:31:53:964,0.443,-0.0946,9.3267,-0.011,0.0069,9.8066,-0.0443,-0.0231,-0.0234,-42.56,-26.5,14.88,317.05,-82.43,-148.99
47035,52.37759,-1.494451,128.79,19.72,4.0,95.14,23 / 24,280910,2019-09-07 10:31:54:064,0.8447,0.0708,9.6141,-0.0094,-0.0028,9.8066,-0.0061,-0.0077,-0.0023,-43.0,-26.62,14.63,317.78,-82.49,-148.21
47036,52.37759,-1.494451,128.79,19.72,4.0,95.14,23 / 24,281010,2019-09-07 10:31:54:164,0.4156,-0.0435,9.8033,-0.012,-0.0045,9.8066,-0.0263,0.0147,0.0233,-42.06,-26.56,15.0,318.64,-82.52,-147.77
47037,52.37759,-1.494451,128.79,19.72,4.0,95.14,23 / 24,281110,2019-09-07 10:31:54:264,-0.5145,-0.2604,10.6866,-0.0042,0.0047,9.8066,0.0268,0.0039,-0.0219,-41.94,-27.0,14.75,319.5,-82.59,-147.0
47038,52.37759,-1.494451,128.79,19.72,4.0,95.14,23 / 24,281210,2019-09-07 10:31:54:364,-0.2043,-0.4611,9.9497,0.006,0.0137,9.8066,-0.0058,-0.0093,-0.0405,-41.94,-26.62,14.13,317.11,-82.54,-147.98
47039,52.37759,-1.494451,128.79,19.72,4.0,95.14,23 / 24,281310,2019-09-07 10:31:54:464,-0.0812,0.0473,9.6175,0.0005,0.012,9.8065,-0.0309,-0.0249,-0.0422,-41.19,-26.06,13.94,316.05,-82.64,-149.5
47040,52.37759,-1.494451,128.79,19.72,4.0,95.14,23 / 24,281410,2019-09-07 10:31:54:564,-0.068,0.153,9.8697,-0.0083,0.0013,9.8066,-0.022,0.014,0.0017,-40.25,-26.31,12.94,315.43,-82.8,-149.21
47041,52.37759,-1.494451,128.79,19.72,4.0,95.14,23 / 24,281510,2019-09-07 10:31:54:664,0.2724,0.0427,10.0466,0.0001,-0.0034,9.8066,0.0262,0.0156,0.0207,-38.94,-27.19,11.63,314.61,-82.79,-148.86
47042,52.37759,-1.494451,128.79,19.72,4.0,95.14,23 / 24,281610,2019-09-07 10:31:54:764,-0.6215,0.1125,10.8971,0.0038,-0.0111,9.8065,0.0241,0.0378,0.0359,-35.62,-29.25,12.25,315.64,-82.65,-148.62
47043,52.37759,-1.494451,128.79,19.72,4.0,95.14,23 / 24,281711,2019-09-07 10:31:54:865,0.0644,-0.2966,10.5885,0.0105,-0.0042,9.8066,0.0004,-0.0126,-0.0181,-35.0,-29.06,13.81,319.14,-82.48,-148.63
47044,52.37759,-1.494451,128.79,19.72,4.0,95.14,23 / 24,281810,2019-09-07 10:31:54:964,-0.6987,0.0308,9.3883,0.0017,0.0084,9.8066,-0.0188,-0.0225,-0.0409,-36.69,-27.75,13.63,317.95,-82.44,-148.94
47045,52.37759,-1.494451,128.79,19.72,4.0,95.14,23 / 24,281910,2019-09-07 10:31:55:064,0.0832,0.0662,9.8292,0.0029,0.0073,9.8066,-0.0284,0.0066,-0.0309,-37.44,-26.12,11.56,314.3,-82.53,-149.85
47046,52.37759,-1.494451,128.79,19.72,4.0,95.14,23 / 24,282010,2019-09-07 10:31:55:164,-0.1834,-0.1084,9.9672,-0.0016,0.0048,9.8066,-0.0114,0.0079,-0.0162,-38.0,-29.94,7.38,305.4,-82.65,-150.14
47047,52.37759,-1.494451,128.79,19.72,4.0,95.14,23 / 24,282112,2019-09-07 10:31:55:266,0.1121,0.2796,10.4773,0.0055,0.0083,9.8066,0.0106,-0.0019,-0.0129,-39.5,-37.12,9.88,307.97,-82.71,-150.89
47048,52.37759,-1.494451,128.79,19.72,4.0,95.14,23 / 24,282211,2019-09-07 10:31:55:365,0.3506,0.1338,10.8502,0.0136,-0.0031,9.8066,0.0288,-0.009,-0.014,-39.25,-38.12,14.56,314.46,-82.64,-151.54
47049,52.37759,-1.494451,128.79,19.72,4.0,95.14,24 / 26,282310,2019-09-07 10:31:55:464,0.477,0.2176,9.4905,0.0104,-0.0103,9.8065,0.0058,0.0236,0.029,-36.87,-33.87,15.13,315.12,-82.4,-152.11
47050,52.37759,-1.494451,128.79,19.72,4.0,95.14,24 / 26,282410,2019-09-07 10:31:55:564,0.348,-0.1027,9.4754,-0.0087,-0.0054,9.8066,-0.0236,0.0222,0.0243,-34.31,-36.56,12.44,311.77,-82.33,-151.53
47051,52.37759,-1.494451,128.79,19.72,4.0,95.14,24 / 26,282510,2019-09-07 10:31:55:664,0.4157,-0.4997,9.7179,-0.0132,-0.0025,9.8065,-0.0387,0.0196,0.0032,-34.69,-42.37,13.69,315.59,-82.43,-150.04
47052,52.37759,-1.494451,128.79,19.72,4.0,95.14,24 / 26,282610,2019-09-07 10:31:55:764,-0.3516,0.0474,9.7325,-0.0005,0.0026,9.8066,0.0001,0.0094,-0.0112,-35.25,-44.12,21.81,328.32,-82.58,-149.47
47053,52.37759,-1.494451,128.79,19.72,4.0,95.14,24 / 26,282711,2019-09-07 10:31:55:865,0.0219,0.1001,9.6803,0.0127,-0.0064,9.8066,0.0254,-0.0018,-0.0045,-35.69,-37.69,27.44,333.95,-82.5,-149.95
47054,52.37759,-1.494451,128.79,19.72,4.0,95.14,24 / 26,282810,2019-09-07 10:31:55:964,0.5769,-0.0601,11.0826,0.0092,-0.0173,9.8066,0.0286,0.0259,0.0145,-35.75,-33.12,24.38,330.03,-82.41,-150.55
47055,52.37759,-1.494451,128.79,19.72,4.0,95.14,24 / 26,282910,2019-09-07 10:31:56:064,0.0653,0.0153,9.6818,0.0124,-0.0103,9.8066,-0.0086,-0.0065,-0.0142,-35.94,-32.06,22.31,327.02,-82.12,-150.91
47056,52.37759,-1.494451,128.79,19.72,4.0,95.14,24 / 26,283011,2019-09-07 10:31:56:165,0.3021,0.1153,9.8587,-0.0051,-0.0078,9.8066,-0.0127,0.0136,0.0096,-37.69,-29.12,20.0,323.84,-82.06,-150.48
47057,52.37759,-1.494451,128.79,19.72,4.0,95.14,24 / 26,283110,2019-09-07 10:31:56:264,-0.0755,-0.2466,9.6935,-0.0128,0.0023,9.8066,-0.0062,0.0161,-0.0103,-38.87,-28.75,18.5,323.22,-82.16,-149.36
47058,52.37759,-1.494451,128.79,19.72,4.0,95.14,24 / 26,283210,2019-09-07 10:31:56:364,0.3446,-0.0839,9.7281,0.005,0.0059,9.8066,0.0088,0.0351,-0.0029,-39.31,-29.0,16.75,319.83,-82.19,-150.02
47059,52.37759,-1.494451,128.79,19.72,4.0,95.14,23 / 24,283310,2019-09-07 10:31:56:464,-0.272,0.1104,9.3807,0.007,-0.001,9.8066,0.0212,0.0205,-0.0019,-40.31,-28.56,17.56,320.24,-82.18,-150.41
47060,52.37759,-1.494451,128.79,19.72,4.0,95.14,23 / 24,283411,2019-09-07 10:31:56:565,-0.2519,0.5386,10.1615,0.0115,-0.0052,9.8066,0.0321,0.0225,0.0027,-41.94,-27.75,17.38,317.6,-82.15,-150.89
47061,52.37759,-1.494451,128.79,19.72,4.0,95.14,23 / 24,283510,2019-09-07 10:31:56:664,0.2289,0.2229,9.5222,0.0079,-0.0116,9.8065,0.0196,0.0231,0.0476,-42.44,-26.87,16.38,316.11,-82.02,-151.14
47062,52.37759,-1.494451,128.79,19.72,4.0,95.14,23 / 24,283610,2019-09-07 10:31:56:764,-0.2255,-0.0222,9.4561,-0.0082,-0.0142,9.8065,-0.0166,0.0177,0.0442,-42.25,-27.0,15.88,316.84,-81.86,-150.37
47063,52.37759,-1.494451,128.79,19.72,4.0,95.14,23 / 24,283710,2019-09-07 10:31:56:864,-0.2745,-0.0737,9.4889,-0.0102,-0.0096,9.8066,0.0051,0.0472,0.0396,-42.5,-26.69,15.5,318.88,-81.81,-148.44
47064,52.37759,-1.494451,128.79,19.72,4.0,95.14,23 / 24,283810,2019-09-07 10:31:56:964,-0.3556,0.0952,8.9095,0.0001,0.0044,9.8066,-0.0012,0.0083,-0.0154,-43.06,-27.0,15.81,318.87,-81.85,-148.1
47065,52.37759,-1.494451,128.79,19.72,4.0,95.14,23 / 24,283911,2019-09-07 10:31:57:065,0.1779,0.3604,8.8453,-0.0051,0.0037,9.8066,-0.0105,0.0342,-0.0033,-42.56,-27.56,15.75,319.09,-81.92,-147.8
47066,52.37759,-1.494451,128.79,19.72,4.0,95.14,23 / 24,284010,2019-09-07 10:31:57:164,-0.025,0.3283,10.2852,-0.0002,0.0032,9.8066,0.0053,0.0292,0.0117,-43.06,-27.31,15.38,317.93,-81.97,-147.82
47067,52.37759,-1.494451,128.79,19.72,4.0,95.14,23 / 24,284110,2019-09-07 10:31:57:264,0.6721,0.1261,10.3156,0.003,-0.0055,9.8066,0.0183,0.0054,0.0087,-42.75,-27.37,15.06,317.94,-81.99,-147.83
47068,52.37759,-1.494451,128.79,19.72,4.0,95.14,23 / 24,284210,2019-09-07 10:31:57:364,0.8108,-0.123,10.2813,0.0061,-0.0037,9.8066,0.0106,0.0037,-0.0033,-42.94,-26.87,15.25,317.81,-81.91,-147.91
47069,52.37759,-1.494451,128.79,19.72,4.0,95.14,23 / 24,284311,2019-09-07 10:31:57:465,0.1406,-0.1386,8.9246,-0.0045,-0.0077,9.8065,-0.0059,0.0213,0.015,-43.12,-27.06,15.25,318.07,-81.85,-147.64
47070,52.37759,-1.494451,128.79,19.72,4.0,95.14,23 / 24,284411,2019-09-07 10:31:57:565,-0.0428,0.9957,9.5675,0.0019,-0.0105,9.8066,0.0038,-0.0082,-0.0115,-43.37,-27.44,15.5,319.49,-81.89,-147.53
47071,52.37759,-1.494451,128.79,19.72,4.0,95.14,23 / 24,284510,2019-09-07 10:31:57:664,-0.2298,0.2144,7.9777,-0.0162,0.0049,9.8065,-0.0121,0.0225,-0.0002,-42.87,-27.5,15.19,318.5,-81.82,-147.22
47072,52.37759,-1.494451,128.79,19.72,4.0,95.14,23 / 24,284611,2019-09-07 10:31:57:765,0.0839,-0.3074,11.1771,0.0021,-0.0006,9.8066,-0.0129,-0.0225,-0.0356,-42.87,-27.0,15.25,319.24,-82.05,-146.63
47073,52.37759,-1.494451,128.79,19.72,4.0,95.14,23 / 24,284710,2019-09-07 10:31:57:864,0.1869,-0.3338,9.8886,0.0103,0.0032,9.8066,0.0221,0.0233,0.0018,-42.5,-27.69,15.44,318.72,-82.01,-147.35
47074,52.37759,-1.494451,128.79,19.72,4.0,95.14,23 / 24,284810,2019-09-07 10:31:57:964,-0.8974,0.0135,10.0756,0.0003,-0.002,9.8066,-0.0056,-0.0253,-0.0267,-42.62,-27.37,15.19,318.16,-81.92,-147.59
47075,52.37759,-1.494451,128.79,19.72,4.0,95.14,23 / 24,284910,2019-09-07 10:31:58:064,-0.2682,-0.0068,9.2432,-0.0039,-0.0025,9.8066,-0.0092,0.0424,0.0252,-42.87,-27.94,15.5,319.64,-81.88,-147.27
47076,52.37759,-1.494451,128.79,19.72,4.0,95.14,23 / 24,285010,2019-09-07 10:31:58:164,0.015,0.3395,9.6987,0.0018,-0.0048,9.8066,0.0156,0.0313,0.0247,-43.31,-27.19,15.31,318.97,-81.88,-146.81
47077,52.37759,-1.494451,128.79,19.72,4.0,95.14,23 / 24,285112,2019-09-07 10:31:58:266,0.0854,0.1653,9.8813,0.002,-0.0052,9.8066,0.0034,-0.0133,-0.0112,-43.37,-26.94,15.31,319.0,-81.8,-146.74
47078,52.37759,-1.494451,128.79,19.72,4.0,95.14,23 / 24,285210,2019-09-07 10:31:58:364,0.0003,-0.2012,10.8956,0.0017,-0.0063,9.8066,0.0064,0.0215,0.014,-43.06,-27.12,15.44,319.24,-81.71,-146.48
47079,52.37759,-1.494451,128.79,19.72,4.0,95.14,23 / 25,285310,2019-09-07 10:31:58:464,0.3659,-0.0479,10.5289,0.0036,-0.0066,9.8066,0.003,0.0178,0.0072,-43.37,-26.87,15.75,320.68,-81.63,-146.3
47080,52.37759,-1.494451,128.79,19.72,4.0,95.14,23 / 25,285410,2019-09-07 10:31:58:564,-0.2495,0.0782,9.3322,-0.0023,0.0018,9.8066,-0.0033,0.0168,-0.0018,-43.37,-27.06,15.19,319.43,-81.63,-146.26
47081,52.37759,-1.494451,128.79,19.72,4.0,95.14,23 / 25,285510,2019-09-07 10:31:58:664,-0.3754,0.0915,10.073,-0.0077,0.0035,9.8066,-0.0271,-0.0137,-0.0296,-43.0,-27.06,15.63,321.06,-81.68,-145.97
47082,52.37759,-1.494451,128.79,19.72,4.0,95.14,23 / 25,285610,2019-09-07 10:31:58:764,-0.2749,-0.1347,9.7433,0.0032,0.0011,9.8066,0.014,0.0155,-0.001,-43.37,-26.94,15.5,321.33,-81.7,-145.73
47083,52.37759,-1.494451,128.79,19.72,4.0,95.14,23 / 25,285712,2019-09-07 10:31:58:866,-0.2131,0.2864,9.8625,0.0016,0.0008,9.8066,0.0262,0.029,0.0034,-43.44,-27.12,15.75,320.96,-81.68,-146.07
47084,52.37759,-1.494451,128.79,19.72,4.0,95.14,23 / 25,285811,2019-09-07 10:31:58:965,-0.1819,-0.1845,10.1296,0.0041,0.0019,9.8066,0.0136,0.0022,-0.0065,-43.06,-26.5,15.44,319.64,-81.63,-146.19
47085,52.37759,-1.494451,128.79,19.72,4.0,95.14,23 / 25,285910,2019-09-07 10:31:59:064,-0.0974,0.1026,10.441,0.0018,0.0049,9.8066,0.0053,0.0033,-0.014,-43.37,-27.44,15.38,318.98,-81.6,-146.67
47086,52.37759,-1.494451,128.79,19.72,4.0,95.14,23 / 25,286010,2019-09-07 10:31:59:164,0.0644,-0.0038,9.643,0.0022,0.0039,9.8066,0.0022,-0.009,-0.0226,-43.12,-27.0,15.56,320.15,-81.56,-146.77
47087,52.37759,-1.494451,128.79,19.72,4.0,95.14,23 / 25,286110,2019-09-07 10:31:59:264,1.1456,-0.0493,10.2408,0.0028,0.0058,9.8066,0.0034,-0.0114,-0.0267,-42.81,-27.25,14.69,318.17,-81.58,-147.42
47088,52.37759,-1.494451,128.79,19.72,4.0,95.14,23 / 25,286210,2019-09-07 10:31:59:364,0.5295,-0.0997,10.2771,0.0026,0.0014,9.8066,-0.0097,-0.0251,-0.0376,-43.0,-26.94,15.63,319.25,-81.58,-147.61
47089,52.37759,-1.494451,128.79,19.72,4.0,95.14,23 / 24,286310,2019-09-07 10:31:59:464,0.4393,0.2018,10.3257,0.0059,0.0001,9.8066,-0.0096,-0.0228,-0.0189,-42.87,-27.44,15.44,317.38,-81.57,-148.15
47090,52.37759,-1.494451,128.79,19.72,4.0,95.14,23 / 24,286411,2019-09-07 10:31:59:565,-0.2703,0.2847,10.119,0.0013,-0.0047,9.8066,0.021,0.0348,0.0183,-43.12,-27.37,15.63,318.81,-81.53,-148.0
47091,52.37759,-1.494451,128.79,19.72,4.0,95.14,23 / 24,286510,2019-09-07 10:31:59:664,0.2102,0.416,9.5657,0.0019,-0.0007,9.8066,0.0157,0.0045,0.0039,-42.62,-27.12,15.75,318.57,-81.49,-148.21
47092,52.37759,-1.494451,128.79,19.72,4.0,95.14,23 / 24,286610,2019-09-07 10:31:59:764,-0.1685,0.0538,9.9691,-0.0004,0.0001,9.8066,-0.017,-0.0436,-0.029,-43.25,-27.5,15.69,318.36,-81.46,-148.39
47093,52.37759,-1.494451,128.79,19.72,4.0,95.14,23 / 24,286710,2019-09-07 10:31:59:864,0.0956,-0.3344,10.3559,-0.0029,-0.0029,9.8066,0.0197,0.0021,-0.0013,-43.87,-27.81,16.19,318.06,-81.42,-148.16
47094,52.37759,-1.494451,128.79,19.72,4.0,95.14,23 / 24,286810,2019-09-07 10:31:59:964,0.0243,-0.1437,9.3995,0.0005,-0.0002,9.8066,0.0145,0.036,0.0306,-43.06,-27.0,15.88,318.73,-81.35,-147.99
47095,52.37759,-1.494451,128.79,19.72,4.0,95.14,23 / 24,286911,2019-09-07 10:32:00:065,-0.2196,-0.0418,8.9873,-0.0046,-0.0051,9.8066,0.003,0.0464,0.0411,-43.37,-27.56,15.38,317.49,-81.3,-147.79
47096,52.37759,-1.494451,128.79,19.72,4.0,95.14,23 / 24,287010,2019-09-07 10:32:00:164,0.0926,-0.2178,10.1165,-0.0075,-0.0042,9.8066,-0.0151,-0.0033,0.016,-43.44,-26.94,16.0,319.52,-81.31,-147.24
47097,52.37759,-1.494451,128.79,19.72,4.0,95.14,23 / 24,287110,2019-09-07 10:32:00:264,0.0753,-0.45,10.1719,-0.0023,-0.0055,9.8066,0.0128,0.0063,0.0069,-43.25,-27.25,16.44,320.39,-81.26,-146.41
47098,52.37759,-1.494451,128.79,19.72,4.0,95.14,23 / 24,287210,2019-09-07 10:32:00:364,-0.8066,-0.2474,10.7014,0.0045,-0.0001,9.8066,0.0055,0.0032,-0.013,-43.94,-26.75,14.94,318.68,-81.23,-146.44
47099,52.37759,-1.494451,128.79,19.72,4.0,95.14,24 / 25,287310,2019-09-07 10:32:00:464,-0.2108,0.2851,9.9621,0.009,0.0065,9.8066,0.0252,0.0139,-0.0132,-43.0,-27.0,16.0,319.34,-81.17,-147.34
47100,52.37759,-1.494451,128.79,19.72,4.0,95.14,24 / 25,287410,2019-09-07 10:32:00:564,-0.2395,0.0867,9.6623,-0.0007,0.0134,9.8065,-0.0101,-0.0016,-0.0322,-42.87,-26.94,16.31,318.22,-81.21,-148.4
47101,52.37759,-1.494451,128.79,19.72,4.0,95.14,24 / 25,287511,2019-09-07 10:32:00:665,-0.3512,0.1988,9.4305,-0.0049,0.0106,9.8066,-0.0175,-0.0215,-0.0328,-43.37,-27.12,16.38,317.39,-81.34,-149.24
47102,52.37759,-1.494451,128.79,19.72,4.0,95.14,24 / 25,287611,2019-09-07 10:32:00:765,-0.1397,0.0429,9.5826,-0.0043,0.001,9.8066,-0.0112,-0.0094,-0.0013,-43.56,-27.5,15.44,316.05,-81.4,-148.98
47103,52.37759,-1.494451,128.79,19.72,4.0,95.14,24 / 25,287710,2019-09-07 10:32:00:864,0.1219,-0.2069,9.9414,0.0055,-0.0029,9.8066,0.0165,-0.0092,-0.0085,-43.06,-26.62,15.69,317.5,-81.32,-149.12
47104,52.37759,-1.494451,128.79,19.72,4.0,95.14,24 / 25,287810,2019-09-07 10:32:00:964,-0.019,-0.4781,9.5883,0.0005,-0.0011,9.8066,-0.0223,-0.0475,-0.0309,-43.37,-26.81,16.31,317.16,-81.29,-149.43
47105,52.37759,-1.494451,128.79,19.72,4.0,95.14,24 / 25,287910,2019-09-07 10:32:01:064,-0.3787,-0.0699,10.1658,-0.0032,-0.0032,9.8066,0.0042,0.0117,-0.0017,-43.94,-27.19,16.25,317.04,-81.24,-149.15
47106,52.37759,-1.494451,128.79,19.72,4.0,95.14,24 / 25,288011,2019-09-07 10:32:01:165,-0.0557,-0.3733,10.2763,0.0024,0.0007,9.8066,0.0156,0.0153,0.0049,-43.44,-27.44,16.0,317.24,-81.27,-149.35
47107,52.37759,-1.494451,128.79,19.72,4.0,95.14,24 / 25,288111,2019-09-07 10:32:01:265,0.5725,-0.0115,10.2496,0.0003,-0.0017,9.8066,0.0233,0.0358,0.0208,-43.56,-27.12,16.06,316.72,-81.22,-149.45
47108,52.37759,-1.494451,128.79,19.72,4.0,95.14,24 / 25,288210,2019-09-07 10:32:01:364,-0.3055,0.5078,10.4764,-0.0002,-0.0038,9.8066,0.0084,-0.0185,0.0001,-43.69,-27.62,15.88,316.46,-81.15,-149.53
47109,52.377422,-1.491828,127.03,19.95,3.0,95.05,24 / 25,288310,2019-09-07 10:32:01:464,-0.2582,0.0449,10.1949,0.0115,-0.0108,9.8065,0.0189,-0.0019,-0.004,-43.06,-27.44,16.13,316.85,-81.09,-149.62
47110,52.377422,-1.491828,127.03,19.95,3.0,95.05,24 / 25,288410,2019-09-07 10:32:01:564,-0.0507,-0.2506,9.9764,0.0013,-0.0071,9.8066,-0.0367,-0.0471,-0.0143,-43.37,-27.25,16.06,316.7,-80.92,-149.68
