,GPS LATITUDE (degrees), GPS LONGITUDE (degrees), GPS ALTITUDE (m), GPS SPEED (Kmh), GPS ACCURACY (m), GPS ORIENTATION (Â°),GPS SATELLITES IN RANGE, TIME SINCE START (ms), DATE (YYYY-MO-DD HH-MI-SS_SSS), ACCELEROMETER X (m/s²) , ACCELEROMETER Y (m/s²), ACCELEROMETER Z (m/s²), GRAVITY X (m/s²), GRAVITY Y (m/s²), GRAVITY Z (m/s²), GYROSCOPE Yaw (rad/s), GYROSCOPE Pitch (rad/s), GYROSCOPE Roll (rad/s), MAGNETIC FIELD X (Î¼T), MAGNETIC FIELD Y (Î¼T), MAGNETIC FIELD Z (Î¼T), ORIENTATION (Yaw) (Â°), ORIENTATION (Pitch) (Â°), ORIENTATION (Roll ) (Â°)
82396,52.53261,-1.443557,147.04,8.84,2,204.92,24 / 24,8053210,2019-09-08 14:21:12:449,-0.8956,0.5054,10.7888,0.0021,0.0016,9.8066,0.2227,-0.0536,-0.0418,-12.25,-32.37,30.69,347.74,-76.82,-168.11
82397,52.53261,-1.443557,147.04,8.84,2,204.92,24 / 24,8053310,2019-09-08 14:21:12:549,1.101,-1.7612,9.954,-0.0109,0.0474,9.8065,0.3852,-0.0193,0.0203,-11.94,-31.5,31.19,347.05,-76.92,-168.75
82398,52.53261,-1.443557,147.04,8.84,2,204.92,24 / 24,8053410,2019-09-08 14:21:12:649,-0.6712,0.3133,8.4781,0.0152,-0.0197,9.8066,-0.267,0.0076,0.013,-11.87,-31.87,30.44,346.04,-76.82,-168.67
82399,52.53261,-1.443557,147.04,8.84,2,204.92,24 / 24,8053510,2019-09-08 14:21:12:749,-0.909,1.8202,9.9301,-0.0109,0.0162,9.8066,-0.0905,-0.0076,-0.0005,-12.37,-31.37,31.06,347.19,-77.07,-168.68
82400,52.53261,-1.443557,147.04,8.84,2,204.92,24 / 24,8053610,2019-09-08 14:21:12:849,-1.4884,1.4978,10.2186,0.0141,-0.0062,9.8066,0.0207,-0.0511,0.0487,-13.12,-30.12,29.94,344.03,-77.25,-168.96
82401,52.53261,-1.443557,147.04,8.84,2,204.92,24 / 24,8053710,2019-09-08 14:21:12:949,-0.7139,0.6996,9.5507,-0.0048,-0.0024,9.8066,0.1721,0.031,0.0526,-12.44,-30.5,29.81,345.35,-77.23,-169.52
82402,52.53261,-1.443557,147.04,8.84,2,204.92,24 / 24,8053810,2019-09-08 14:21:13:049,-0.2941,-4.5056,10.5978,0.0121,0.0134,9.8066,0.2061,-0.2692,0.2272,-12.62,-31.56,30.5,343.39,-76.82,-169.88
82403,52.53261,-1.443557,147.04,8.84,2,204.92,24 / 24,8053911,2019-09-08 14:21:13:150,-0.3262,-1.4719,9.7395,-0.0147,-0.029,9.8065,0.0097,-0.0006,-0.0733,-12.75,-30.56,30.31,343.29,-76.66,-169.24
82404,52.53261,-1.443557,147.04,8.84,2,204.92,24 / 24,8054010,2019-09-08 14:21:13:249,-0.9729,-1.0356,9.2839,-0.0217,0.0366,9.8065,-0.0001,-0.0098,-0.0791,-13.0,-30.56,29.5,343.08,-76.68,-169.4
82405,52.53261,-1.443557,147.04,8.84,2,204.92,24 / 24,8054110,2019-09-08 14:21:13:349,2.1075,-0.4158,7.9312,-0.0374,-0.0364,9.8064,-0.1548,0.1053,-0.3708,-11.69,-31.62,29.13,344.8,-76.8,-168.83
82406,52.53261,-1.443557,147.04,8.84,2,204.92,24 / 24,8054210,2019-09-08 14:21:13:449,-0.1095,-1.654,9.3111,-0.0104,0.0548,9.8064,-0.0801,-0.0445,-0.1318,-11.5,-32.62,28.44,344.95,-77.18,-169.62
82407,52.53261,-1.443557,147.04,8.84,2,204.92,24 / 24,8054310,2019-09-08 14:21:13:549,-1.1038,-0.5307,11.0525,-0.0076,0.0402,9.8065,0.0509,-0.1536,0.0657,-11.94,-33.75,29.38,342.96,-77.28,-170.15
82408,52.53261,-1.443557,147.04,8.84,2,204.92,24 / 24,8054410,2019-09-08 14:21:13:649,-0.1104,0.2832,11.0632,0.0196,-0.0075,9.8065,0.2456,-0.0273,0.0935,-12.19,-33.56,30.69,345.08,-77.19,-170.05
82409,52.53261,-1.443557,147.04,8.84,2,204.92,24 / 24,8054510,2019-09-08 14:21:13:749,-1.8612,0.1598,10.7301,-0.0033,-0.0102,9.8066,0.0912,-0.0808,0.099,-11.87,-32.5,32.31,345.94,-76.99,-170.21
82410,52.53261,-1.443557,147.04,8.84,2,204.92,24 / 24,8054610,2019-09-08 14:21:13:849,-1.163,1.8796,9.852,0.0073,-0.0065,9.8066,-0.0402,-0.0173,-0.0011,-11.69,-31.31,31.81,345.98,-77.03,-170.29
82411,52.53261,-1.443557,147.04,8.84,2,204.92,24 / 24,8054710,2019-09-08 14:21:13:949,0.3671,0.0316,9.2435,0.0047,-0.02,9.8065,-0.0605,0.0616,-0.019,-12.0,-30.94,31.94,345.54,-76.92,-170.6
82412,52.53261,-1.443557,147.04,8.84,2,204.92,24 / 24,8054810,2019-09-08 14:21:14:049,-0.3474,-0.2854,8.133,-0.0292,0.0384,9.8065,0.0191,0.0685,-0.0068,-12.31,-31.62,29.81,343.96,-77.18,-170.37
82413,52.53261,-1.443557,147.04,8.84,2,204.92,24 / 24,8054910,2019-09-08 14:21:14:149,-1.2208,0.9783,9.8694,-0.0455,0.0801,9.8061,0.0394,-0.0328,0.0343,-12.19,-32.19,29.69,344.2,-77.45,-170.28
82414,52.53261,-1.443557,147.04,8.84,2,204.92,24 / 24,8055010,2019-09-08 14:21:14:249,-0.4248,1.9902,10.7416,0.0273,-0.0415,9.8065,-0.0314,-0.0595,-0.0452,-12.62,-32.19,30.56,343.37,-77.84,-170.23
82415,52.53261,-1.443557,147.04,8.84,2,204.92,24 / 24,8055110,2019-09-08 14:21:14:349,-0.3424,-0.9178,10.0092,0.0282,-0.0234,9.8065,0.1904,-0.0571,0.0444,-11.75,-31.0,30.56,344.53,-77.65,-170.91
82416,52.53261,-1.443557,147.04,8.84,2,204.92,24 / 24,8055210,2019-09-08 14:21:14:449,0.5958,0.2816,9.6006,0.0018,0.0139,9.8066,-0.0074,-0.092,0.0818,-12.25,-31.06,30.94,343.91,-77.34,-171.3
82417,52.53261,-1.443557,147.04,8.84,2,204.92,24 / 24,8055310,2019-09-08 14:21:14:549,-0.0151,0.3291,9.8303,-0.0012,-0.0024,9.8066,-0.053,-0.0269,-0.0083,-12.44,-30.31,31.25,343.83,-77.18,-171.42
82418,52.53261,-1.443557,147.04,8.84,2,204.92,24 / 24,8055410,2019-09-08 14:21:14:649,-1.1476,1.0744,10.1981,-0.0008,0.0317,9.8065,0.129,-0.0849,0.0543,-11.62,-30.5,30.19,342.3,-77.34,-171.94
82419,52.53261,-1.443557,147.04,8.84,2,204.92,24 / 24,8055510,2019-09-08 14:21:14:749,-0.1349,0.1935,10.2112,-0.0326,0.0534,9.8064,0.2483,-0.0597,-0.0345,-12.69,-31.37,29.5,340.53,-77.51,-171.68
82420,52.53261,-1.443557,147.04,8.84,2,204.92,24 / 24,8055610,2019-09-08 14:21:14:849,-2.1137,0.5146,9.7892,0.0221,-0.0295,9.8065,-0.1028,-0.0977,0.0671,-12.81,-31.31,30.13,340.42,-77.38,-171.72
82421,52.531864,-1.443521,146.25,9.77,2,175.21,25 / 25,8055710,2019-09-08 14:21:14:949,-0.52,1.0073,8.7398,0.0097,-0.0091,9.8066,-0.0974,-0.0069,-0.0002,-13.12,-31.37,30.19,340.03,-77.26,-171.98
82422,52.531864,-1.443521,146.25,9.77,2,175.21,25 / 25,8055810,2019-09-08 14:21:15:049,-0.5979,-1.2234,9.2819,-0.0007,0.0061,9.8066,-0.0841,-0.037,0.0919,-12.37,-31.37,30.19,341.92,-77.35,-172.12
82423,52.531864,-1.443521,146.25,9.77,2,175.21,25 / 25,8055910,2019-09-08 14:21:15:149,-0.19,3.3326,9.4971,-0.0037,0.0087,9.8066,-0.2449,0.0882,-0.1782,-12.81,-31.19,30.38,339.95,-77.49,-172.13
82424,52.531864,-1.443521,146.25,9.77,2,175.21,25 / 25,8056010,2019-09-08 14:21:15:249,0.4313,-0.1836,9.5248,0.0062,0.0008,9.8066,0.1043,0.004,-0.0359,-11.62,-31.12,31.0,341.84,-77.73,-173.06
82425,52.531864,-1.443521,146.25,9.77,2,175.21,25 / 25,8056110,2019-09-08 14:21:15:349,-0.7421,-1.585,10.1414,0.0232,-0.0413,9.8065,0.1297,-0.0674,0.0316,-11.81,-31.31,30.25,340.17,-77.62,-173.59
82426,52.531864,-1.443521,146.25,9.77,2,175.21,25 / 25,8056210,2019-09-08 14:21:15:449,-0.7731,0.9744,9.8277,-0.0298,0.057,9.8064,-0.0793,-0.0209,-0.0449,-11.87,-30.81,29.81,339.67,-77.73,-174.03
82427,52.531864,-1.443521,146.25,9.77,2,175.21,25 / 25,8056310,2019-09-08 14:21:15:549,0.0146,1.164,10.3488,0.0032,0.0381,9.8065,-0.1844,-0.0142,0.0223,-11.69,-31.25,29.13,338.17,-78.15,-174.59
82428,52.531864,-1.443521,146.25,9.77,2,175.21,25 / 25,8056410,2019-09-08 14:21:15:649,-0.7199,0.4091,9.7714,-0.0159,0.0411,9.8065,0.4421,0.0164,0.0158,-12.19,-31.06,29.81,338.99,-77.99,-174.67
82429,52.531864,-1.443521,146.25,9.77,2,175.21,25 / 25,8056510,2019-09-08 14:21:15:749,0.0904,0.0731,9.9025,-0.0333,0.0436,9.8065,0.3678,-0.016,0.0195,-11.56,-31.62,29.19,337.81,-77.8,-174.57
82430,52.531864,-1.443521,146.25,9.77,2,175.21,25 / 25,8056610,2019-09-08 14:21:15:849,1.2344,1.0829,9.1549,0.0258,-0.0948,9.8061,-0.4065,0.1554,-0.1221,-10.44,-32.81,29.56,342.97,-77.83,-174.54
82431,52.531864,-1.443521,146.25,9.77,2,175.21,25 / 25,8056711,2019-09-08 14:21:15:950,-0.5344,-0.6914,11.2616,0.0174,-0.057,9.8064,0.2968,0.1445,-0.1618,-11.37,-33.37,30.75,342.06,-77.71,-174.24
82432,52.531864,-1.443521,146.25,9.77,2,175.21,24 / 24,8056810,2019-09-08 14:21:16:049,-0.1763,3.9835,8.2455,-0.0719,0.1414,9.8053,0.278,0.0418,-0.0406,-11.5,-32.44,31.56,342.02,-77.46,-174.96
82433,52.531864,-1.443521,146.25,9.77,2,175.21,24 / 24,8056909,2019-09-08 14:21:16:148,0.3059,1.1506,9.6332,-0.0499,0.1255,9.8056,0.1701,-0.0786,-0.0175,-11.44,-31.25,31.38,342.32,-78.34,-174.48
82434,52.531864,-1.443521,146.25,9.77,2,175.21,24 / 24,8057010,2019-09-08 14:21:16:249,-0.2571,0.1609,11.1147,0.0384,-0.0785,9.8062,0.0981,-0.0243,-0.0065,-11.75,-30.94,31.0,339.7,-77.61,-174.71
82435,52.531864,-1.443521,146.25,9.77,2,175.21,24 / 24,8057110,2019-09-08 14:21:16:349,-0.3122,-1.1397,10.7817,0.0237,-0.0298,9.8065,0.2141,-0.0458,-0.0013,-12.56,-29.37,30.88,337.71,-77.72,-175.07
82436,52.531864,-1.443521,146.25,9.77,2,175.21,24 / 24,8057210,2019-09-08 14:21:16:449,0.9078,-0.2553,9.5954,0.0116,0.0139,9.8066,-0.2938,0.0268,0.0307,-12.25,-29.75,30.5,339.71,-77.74,-174.89
82437,52.531864,-1.443521,146.25,9.77,2,175.21,24 / 24,8057310,2019-09-08 14:21:16:549,-0.7417,1.4364,8.6268,0.0336,-0.0568,9.8064,-0.5053,0.0521,-0.0252,-12.19,-29.87,29.38,336.86,-77.63,-175.55
82438,52.531864,-1.443521,146.25,9.77,2,175.21,24 / 24,8057410,2019-09-08 14:21:16:649,-0.2615,-0.4873,9.7089,-0.0266,0.0854,9.8062,0.2862,-0.0593,0.0528,-12.06,-30.62,30.5,338.22,-77.7,-175.92
82439,52.531864,-1.443521,146.25,9.77,2,175.21,24 / 24,8057510,2019-09-08 14:21:16:749,-1.0335,2.5067,9.9923,-0.0354,0.0601,9.8064,0.2699,0.0963,-0.0523,-11.87,-29.62,30.63,338.33,-78.26,-176.2
82440,52.531864,-1.443521,146.25,9.77,2,175.21,24 / 24,8057610,2019-09-08 14:21:16:849,0.6846,-1.5205,9.8364,0.0337,-0.043,9.8064,0.0082,0.0857,0.0246,-12.19,-28.62,29.69,336.22,-77.73,-177.07
82441,52.531864,-1.443521,146.25,9.77,2,175.21,24 / 24,8057710,2019-09-08 14:21:16:949,-0.2337,2.876,9.9495,0.0206,-0.025,9.8065,-0.0314,0.1523,0.0613,-11.87,-29.69,29.75,335.34,-77.65,-177.58
82442,52.531864,-1.443521,146.25,9.77,2,175.21,24 / 24,8057810,2019-09-08 14:21:17:049,1.1417,0.1219,8.4757,-0.0096,0.0562,9.8064,-0.069,-0.0082,-0.0741,-12.06,-30.81,28.81,333.62,-77.45,-177.86
82443,52.531864,-1.443521,146.25,9.77,2,175.21,24 / 24,8057910,2019-09-08 14:21:17:149,-1.3211,2.7325,8.971,-0.0209,0.0493,9.8064,-0.0354,-0.0261,-0.0779,-11.69,-31.44,29.19,332.92,-77.96,-178.68
82444,52.531864,-1.443521,146.25,9.77,2,175.21,24 / 24,8058010,2019-09-08 14:21:17:249,0.782,-0.0798,11.6485,0.0607,-0.071,9.8062,-0.0257,0.0075,0.0777,-12.25,-31.75,28.88,332.26,-78.21,-179.17
82445,52.531864,-1.443521,146.25,9.77,2,175.21,24 / 24,8058110,2019-09-08 14:21:17:349,-0.0687,-0.882,10.5748,0.0192,-0.0267,9.8065,0.1296,0.0422,0.0597,-11.75,-32.69,29.63,332.22,-77.97,-179.74
82446,52.531864,-1.443521,146.25,9.77,2,175.21,24 / 24,8058210,2019-09-08 14:21:17:449,1.0274,-0.0252,8.8146,0.0218,-0.0156,9.8066,-0.1027,0.0883,0.0,-11.06,-31.87,30.88,334.71,-77.89,179.76
82447,52.531864,-1.443521,146.25,9.77,2,175.21,24 / 24,8058310,2019-09-08 14:21:17:549,0.1164,-0.7288,8.4906,0.0373,-0.0529,9.8064,-0.2625,-0.0006,0.1055,-11.0,-30.69,30.81,334.36,-77.71,179.41
82448,52.531864,-1.443521,146.25,9.77,2,175.21,24 / 24,8058410,2019-09-08 14:21:17:649,-0.1572,1.1835,9.3143,-0.0303,0.0855,9.8062,0.3042,0.0668,0.0281,-11.0,-31.25,30.5,334.5,-77.68,179.54
82449,52.531864,-1.443521,146.25,9.77,2,175.21,24 / 24,8058510,2019-09-08 14:21:17:749,0.4035,-0.2215,9.6849,-0.0337,0.0879,9.8062,0.1981,-0.0208,0.0574,-11.37,-30.75,30.19,332.99,-78.24,178.79
82450,52.531864,-1.443521,146.25,9.77,2,175.21,24 / 24,8058610,2019-09-08 14:21:17:849,1.3449,0.06,9.7059,0.0413,-0.0321,9.8064,-0.083,0.0943,0.0286,-11.69,-31.12,30.19,330.14,-77.81,178.32
82451,52.531864,-1.443521,146.25,9.77,2,175.21,24 / 24,8058710,2019-09-08 14:21:17:949,-0.5603,-0.4947,10.1434,0.0158,-0.0336,9.8065,0.0014,-0.0177,0.0807,-11.81,-30.69,30.19,330.24,-77.79,178.42
82452,52.531864,-1.443521,146.25,9.77,2,175.21,24 / 24,8058810,2019-09-08 14:21:18:049,-0.5365,1.5477,9.465,-0.0101,0.0545,9.8065,0.0672,-0.0822,0.0827,-12.0,-29.62,31.19,331.98,-77.7,178.9
82453,52.531864,-1.443521,146.25,9.77,2,175.21,24 / 24,8058910,2019-09-08 14:21:18:149,0.936,-0.9181,10.959,-0.0595,0.085,9.806,0.1069,0.0059,-0.0302,-11.69,-29.75,30.44,330.85,-78.16,178.52
82454,52.531864,-1.443521,146.25,9.77,2,175.21,24 / 24,8059010,2019-09-08 14:21:18:249,0.6811,-5.1287,12.2347,0.0314,-0.0805,9.8062,-0.0162,0.0808,-0.1248,-11.31,-29.44,29.5,332.46,-78.05,178.12
82455,52.531864,-1.443521,146.25,9.77,2,175.21,24 / 24,8059110,2019-09-08 14:21:18:349,1.2442,0.6251,12.1713,0.0214,-0.0391,9.8065,0.3211,0.0626,-0.0707,-11.0,-30.69,29.44,330.34,-77.68,177.78
82456,52.531864,-1.443521,146.25,9.77,2,175.21,24 / 24,8059210,2019-09-08 14:21:18:449,-0.8535,3.2669,8.4324,0.007,-0.0232,9.8066,-0.3974,0.0263,-0.0533,-10.56,-32.5,28.5,329.09,-77.55,177.06
82457,52.531864,-1.443521,146.25,9.77,2,175.21,24 / 24,8059310,2019-09-08 14:21:18:549,-2.4583,2.1705,7.823,0.0123,-0.0234,9.8065,-0.509,-0.0495,-0.0104,-11.62,-33.19,28.75,326.71,-77.4,177.11
82458,52.531864,-1.443521,146.25,9.77,2,175.21,24 / 24,8059410,2019-09-08 14:21:18:649,-0.2927,0.5224,8.4225,-0.0209,0.0605,9.8064,0.4097,-0.0301,0.0073,-11.62,-34.06,29.5,327.34,-77.29,177.01
82459,52.531864,-1.443521,146.25,9.77,2,175.21,24 / 24,8059510,2019-09-08 14:21:18:749,-0.2655,-1.2519,10.8012,-0.0459,0.0968,9.806,0.3745,-0.0151,-0.0205,-11.19,-34.5,30.56,329.89,-77.84,176.29
82460,52.531864,-1.443521,146.25,9.77,2,175.21,24 / 24,8059610,2019-09-08 14:21:18:849,-0.365,-1.4142,9.9797,0.0543,-0.084,9.8061,-0.4465,-0.0287,0.0078,-11.06,-34.0,31.94,330.8,-78.0,176.18
82461,52.531864,-1.443521,146.25,9.77,2,175.21,24 / 24,8059710,2019-09-08 14:21:18:949,-0.6645,0.5916,9.026,0.0478,-0.0955,9.806,-0.3742,0.0467,-0.0255,-11.81,-33.81,32.44,328.1,-77.42,175.9
82462,52.531864,-1.443521,146.25,9.77,2,175.21,24 / 24,8059809,2019-09-08 14:21:19:048,-1.3844,1.8303,9.1792,-0.0422,0.0631,9.8063,0.3,-0.0132,0.0378,-10.75,-31.56,32.0,329.94,-77.82,175.24
82463,52.531864,-1.443521,146.25,9.77,2,175.21,24 / 24,8059910,2019-09-08 14:21:19:149,0.0552,-2.135,11.3879,-0.0572,0.1137,9.8058,0.336,-0.0069,-0.0009,-10.56,-30.31,32.88,331.12,-77.98,175.09
82464,52.531864,-1.443521,146.25,9.77,2,175.21,24 / 24,8060010,2019-09-08 14:21:19:249,2.0069,-4.3988,13.0606,0.0651,-0.1509,9.8052,-0.0676,-0.085,-0.0159,-9.94,-30.12,31.25,331.56,-78.0,175.22
82465,52.531864,-1.443521,146.25,9.77,2,175.21,24 / 24,8060110,2019-09-08 14:21:19:349,0.5387,-3.5375,11.7991,0.0925,-0.1492,9.805,-0.1794,-0.0393,-0.0064,-10.75,-31.5,29.69,328.1,-77.03,175.56
82466,52.531864,-1.443521,146.25,9.77,2,175.21,24 / 24,8060210,2019-09-08 14:21:19:449,-3.4932,2.3169,7.9626,-0.0435,0.0918,9.806,-0.2062,-0.1021,0.1241,-11.31,-32.94,30.44,327.83,-77.35,175.56
82467,52.531864,-1.443521,146.25,9.77,2,175.21,24 / 24,8060310,2019-09-08 14:21:19:549,-2.081,3.8584,8.4151,-0.0327,0.0425,9.8065,-0.4639,0.0124,-0.0138,-10.81,-32.06,31.44,329.46,-77.82,175.59
82468,52.531864,-1.443521,146.25,9.77,2,175.21,24 / 24,8060410,2019-09-08 14:21:19:649,-2.5838,0.9629,9.1397,-0.0189,0.0384,9.8065,0.4982,0.0623,-0.1715,-11.0,-30.56,33.25,331.39,-77.8,175.57
82469,52.531864,-1.443521,146.25,9.77,2,175.21,24 / 24,8060510,2019-09-08 14:21:19:749,-1.2551,-1.99,11.0339,-0.0403,0.0812,9.8061,0.6063,-0.1413,0.0267,-10.31,-29.31,32.31,332.62,-78.0,175.26
82470,52.531864,-1.443521,146.25,9.77,2,175.21,24 / 24,8060610,2019-09-08 14:21:19:849,-1.3587,2.3151,10.7353,0.0442,-0.0984,9.806,-0.5732,-0.0406,-0.0669,-9.87,-28.69,31.38,332.67,-78.25,175.83
82471,52.531864,-1.443521,146.25,9.77,2,175.21,23 / 23,8060711,2019-09-08 14:21:19:950,-0.5946,1.2336,8.6832,0.0668,-0.1224,9.8056,-0.5896,0.0097,0.0303,-10.31,-28.44,30.31,331.31,-77.73,175.51
82472,52.531864,-1.443521,146.25,9.77,2,175.21,23 / 23,8060810,2019-09-08 14:21:20:049,-0.1827,-0.8573,10.1701,-0.0709,0.1144,9.8056,0.5312,-0.0498,0.0608,-10.12,-28.75,28.19,329.29,-77.65,175.68
82473,52.531864,-1.443521,146.25,9.77,2,175.21,23 / 23,8060910,2019-09-08 14:21:20:149,0.2677,-0.0566,10.554,-0.0529,0.0754,9.8062,0.318,0.0215,-0.0333,-10.5,-30.19,28.88,331.44,-78.22,176.48
82474,52.531864,-1.443521,146.25,9.77,2,175.21,23 / 23,8061010,2019-09-08 14:21:20:249,-0.5612,-1.0754,10.992,0.0298,-0.0678,9.8063,-0.1414,0.0323,-0.0072,-10.0,-31.5,29.31,330.93,-77.83,176.48
82475,52.531864,-1.443521,146.25,9.77,2,175.21,23 / 23,8061110,2019-09-08 14:21:20:349,-1.5409,0.8339,9.5035,0.0302,-0.0472,9.8064,-0.0539,-0.0656,0.0928,-10.37,-32.25,29.44,330.2,-77.97,176.01
82476,52.531864,-1.443521,146.25,9.77,2,175.21,23 / 23,8061210,2019-09-08 14:21:20:449,-0.499,1.5324,7.7745,-0.0295,0.0399,9.8064,-0.0715,-0.0686,0.0805,-10.56,-32.31,29.5,329.6,-78.1,176.31
82477,52.531864,-1.443521,146.25,9.77,2,175.21,23 / 23,8061310,2019-09-08 14:21:20:549,-0.4816,2.5068,8.3161,-0.0293,0.0379,9.8064,-0.2155,0.0918,-0.1333,-11.19,-31.44,30.56,332.13,-78.34,177.29
82478,52.531864,-1.443521,146.25,9.77,2,175.21,23 / 23,8061410,2019-09-08 14:21:20:649,0.2443,-0.4737,10.9511,0.0139,-0.0372,9.8065,0.12,-0.0105,-0.0113,-10.12,-32.12,30.38,332.06,-78.43,176.46
82479,52.531864,-1.443521,146.25,9.77,2,175.21,23 / 23,8061510,2019-09-08 14:21:20:749,-1.6278,-0.425,10.7834,0.0135,-0.038,9.8065,0.2859,-0.1087,0.0419,-10.5,-31.94,31.0,333.09,-78.22,176.69
82480,52.531864,-1.443521,146.25,9.77,2,175.21,23 / 23,8061610,2019-09-08 14:21:20:849,-0.5919,0.4112,9.9949,0.0126,-0.0132,9.8066,-0.2093,-0.0189,-0.005,-10.56,-32.62,30.38,330.3,-78.1,177.06
82481,52.531864,-1.443521,146.25,9.77,2,175.21,24 / 24,8061710,2019-09-08 14:21:20:949,0.0851,0.1398,9.5566,0.0093,0.0076,9.8066,-0.1337,-0.0916,0.0788,-10.5,-31.56,30.88,332.93,-78.01,176.67
82482,52.531864,-1.443521,146.25,9.77,2,175.21,24 / 24,8061809,2019-09-08 14:21:21:048,-0.1857,-0.5967,9.7681,-0.0014,0.0082,9.8065,0.0619,-0.0943,0.0352,-10.69,-32.31,31.13,331.19,-77.98,176.89
82483,52.531864,-1.443521,146.25,9.77,2,175.21,24 / 24,8061910,2019-09-08 14:21:21:149,-1.0175,1.0345,10.0088,0.0061,-0.0024,9.8066,0.0445,-0.088,0.0112,-11.75,-31.94,30.44,327.97,-78.07,176.61
82484,52.531864,-1.443521,146.25,9.77,2,175.21,24 / 24,8062011,2019-09-08 14:21:21:250,-1.4594,1.1026,9.6839,-0.0028,0.0133,9.8066,0.0387,-0.055,0.0415,-11.44,-32.5,30.63,331.22,-78.09,176.85
82485,52.531864,-1.443521,146.25,9.77,2,175.21,24 / 24,8062110,2019-09-08 14:21:21:349,-0.5241,0.1627,9.6404,-0.0115,-0.0097,9.8066,0.0763,-0.0046,0.0712,-10.75,-31.69,31.69,332.64,-78.12,177.27
82486,52.531864,-1.443521,146.25,9.77,2,175.21,24 / 24,8062210,2019-09-08 14:21:21:449,-0.6062,0.2864,9.3782,-0.0076,0.0055,9.8066,-0.0264,0.0405,-0.0043,-10.5,-31.19,31.06,334.5,-78.18,177.69
82487,52.531864,-1.443521,146.25,9.77,2,175.21,24 / 24,8062310,2019-09-08 14:21:21:549,-2.0775,3.9933,8.2827,0.038,-0.0831,9.8062,-0.5903,0.0699,-0.0072,-9.94,-31.5,30.69,334.64,-77.92,177.92
82488,52.531864,-1.443521,146.25,9.77,2,175.21,24 / 24,8062410,2019-09-08 14:21:21:649,-0.6678,1.481,8.6341,-0.0861,0.1557,9.805,0.5121,0.0398,-0.0351,-10.0,-30.44,30.0,333.78,-78.04,177.71
82489,52.531864,-1.443521,146.25,9.77,2,175.21,24 / 24,8062510,2019-09-08 14:21:21:749,-2.1895,0.3491,10.5869,-0.0578,0.1236,9.8056,0.3673,-0.158,0.1605,-10.37,-30.69,29.5,334.51,-78.93,178.02
82490,52.531864,-1.443521,146.25,9.77,2,175.21,24 / 24,8062610,2019-09-08 14:21:21:849,2.2126,-1.6291,11.08,0.1016,-0.1821,9.8044,-0.1208,-0.0783,-0.0179,-10.75,-29.69,29.38,331.86,-78.81,178.19
82491,52.531864,-1.443521,146.25,9.77,2,175.21,24 / 24,8062710,2019-09-08 14:21:21:949,0.3014,-0.6148,10.4066,0.0514,-0.1017,9.806,0.1639,-0.0447,0.0071,-11.87,-30.0,30.13,330.65,-77.77,178.58
82492,52.531864,-1.443521,146.25,9.77,2,175.21,24 / 24,8062810,2019-09-08 14:21:22:049,-0.1361,2.1374,9.324,-0.0078,0.0317,9.8065,-0.2437,-0.1019,0.174,-12.37,-29.87,31.25,331.2,-78.14,178.03
82493,52.531864,-1.443521,146.25,9.77,2,175.21,24 / 24,8062910,2019-09-08 14:21:22:149,-0.4185,0.5016,10.0807,-0.0219,0.0202,9.8065,-0.231,0.0111,-0.0261,-11.62,-29.19,31.81,332.83,-78.21,178.44
82494,52.531864,-1.443521,146.25,9.77,2,175.21,24 / 24,8063010,2019-09-08 14:21:22:249,-1.8023,-1.025,10.8745,-0.0066,0.0129,9.8066,0.3789,-0.0018,0.0394,-10.75,-29.44,31.38,333.78,-78.15,178.41
82495,52.531864,-1.443521,146.25,9.77,2,175.21,24 / 24,8063110,2019-09-08 14:21:22:349,0.0265,-1.8776,10.4246,-0.0194,0.0101,9.8065,0.3605,-0.1008,0.0502,-10.69,-29.75,30.44,332.83,-78.19,178.52
82496,52.531864,-1.443521,146.25,9.77,2,175.21,24 / 24,8063210,2019-09-08 14:21:22:449,-2.0641,2.4778,9.8493,0.0132,-0.0383,9.8065,-0.2452,0.0089,0.0176,-10.19,-30.19,30.06,335.38,-78.0,179.02
82497,52.531864,-1.443521,146.25,9.77,2,175.21,24 / 24,8063310,2019-09-08 14:21:22:549,-1.0573,1.4988,8.4009,0.0458,-0.073,9.8062,-0.3355,-0.0129,0.0387,-10.62,-31.0,29.75,332.42,-77.5,178.73
82498,52.531864,-1.443521,146.25,9.77,2,175.21,24 / 24,8063410,2019-09-08 14:21:22:649,-0.461,0.537,8.6964,-0.042,0.0564,9.8063,0.2397,-0.0867,0.0461,-10.06,-31.44,31.25,335.75,-77.74,178.89
82499,52.531864,-1.443521,146.25,9.77,2,175.21,24 / 24,8063510,2019-09-08 14:21:22:749,-0.7082,-0.6748,10.6888,-0.0353,0.0735,9.8062,0.0484,-0.0288,-0.0625,-9.62,-30.69,30.88,336.4,-77.83,179.37
82500,52.531864,-1.443521,146.25,9.77,2,175.21,24 / 24,8063613,2019-09-08 14:21:22:852,-1.4373,0.3543,9.7097,-0.0003,-0.0142,9.8066,-0.0697,-0.0252,0.0067,-9.5,-31.12,30.81,338.48,-78.06,179.29
82501,52.531864,-1.443521,146.25,9.77,2,175.21,23 / 24,8063709,2019-09-08 14:21:22:948,-1.2753,0.5228,9.436,0.0018,-0.0067,9.8066,0.0027,-0.1213,0.0883,-9.87,-29.87,31.56,337.59,-78.16,179.4
82502,52.531864,-1.443521,146.25,9.77,2,175.21,23 / 24,8063810,2019-09-08 14:21:23:049,0.33,0.3586,9.5337,-0.0036,0.0013,9.8066,0.0323,-0.1371,-0.086,-9.81,-29.75,30.31,336.47,-78.29,179.76
82503,52.531864,-1.443521,146.25,9.77,2,175.21,23 / 24,8063910,2019-09-08 14:21:23:149,-1.9333,-0.0969,10.3427,0.0137,0.0259,9.8065,0.1059,-0.2145,0.1011,-8.56,-30.56,29.88,338.23,-78.47,179.55
82504,52.531864,-1.443521,146.25,9.77,2,175.21,23 / 24,8064010,2019-09-08 14:21:23:249,-0.2609,0.3559,11.1205,0.0233,-0.0302,9.8065,-0.0935,-0.185,0.1841,-9.31,-31.31,30.94,338.54,-78.23,179.26
82505,52.531864,-1.443521,146.25,9.77,2,175.21,23 / 24,8064110,2019-09-08 14:21:23:349,-1.4083,0.1149,9.682,0.0102,-0.0756,9.8063,-0.1492,-0.0213,-0.049,-8.44,-30.81,31.81,341.67,-77.8,179.68
82506,52.531864,-1.443521,146.25,9.77,2,175.21,23 / 24,8064212,2019-09-08 14:21:23:451,-0.7614,0.2856,10.2742,-0.0047,-0.0051,9.8066,0.2502,-0.009,-0.0377,-9.25,-30.37,32.5,339.87,-77.58,179.29
82507,52.531864,-1.443521,146.25,9.77,2,175.21,23 / 24,8064310,2019-09-08 14:21:23:549,-2.1161,-1.2068,10.1621,-0.012,0.0737,9.8063,0.1792,-0.1666,0.1249,-9.37,-29.62,31.75,338.81,-77.69,178.96
82508,52.531864,-1.443521,146.25,9.77,2,175.21,23 / 24,8064410,2019-09-08 14:21:23:649,-2.4484,-1.3986,9.7956,0.0457,-0.0617,9.8063,-0.2793,-0.2187,0.1549,-9.19,-28.81,31.13,338.41,-78.06,178.95
82509,52.531864,-1.443521,146.25,9.77,2,175.21,23 / 24,8064510,2019-09-08 14:21:23:749,-2.3597,1.2483,8.5088,0.0288,-0.1065,9.8059,-0.4329,-0.1486,0.0647,-8.5,-30.62,29.25,338.41,-77.6,178.97
82510,52.531864,-1.443521,146.25,9.77,2,175.21,23 / 24,8064610,2019-09-08 14:21:23:849,-2.5745,2.5329,8.4453,-0.0565,0.138,9.8054,0.479,-0.1971,-0.0093,-7.94,-31.06,30.69,340.58,-78.42,179.13
82511,52.531063,-1.443392,146.28,10.5,2,183.17,25 / 25,8064710,2019-09-08 14:21:23:949,-0.9903,1.2219,8.2071,-0.0549,0.1337,9.8055,0.4707,-0.2005,-0.0025,-7.56,-31.81,30.44,338.8,-77.37,178.89
82512,52.531063,-1.443392,146.28,10.5,2,183.17,25 / 25,8064810,2019-09-08 14:21:24:049,-1.03,-0.5282,12.4337,-0.02,-0.073,9.8063,0.0363,-0.1437,-0.0875,-7.62,-31.37,31.38,339.65,-77.98,178.57
82513,52.531063,-1.443392,146.28,10.5,2,183.17,25 / 25,8064910,2019-09-08 14:21:24:149,-1.1846,1.3171,11.2809,0.0377,0.0573,9.8064,0.5093,-0.6234,0.4343,-7.75,-30.94,30.69,340.97,-78.26,179.5
82514,52.531063,-1.443392,146.28,10.5,2,183.17,25 / 25,8065010,2019-09-08 14:21:24:249,-2.4893,-9.9312,9.2384,0.068,-0.0752,9.8061,-0.5949,-0.0787,-0.1407,-7.81,-31.31,30.44,341.87,-78.45,-179.28
82515,52.531063,-1.443392,146.28,10.5,2,183.17,25 / 25,8065110,2019-09-08 14:21:24:349,5.814,4.3657,7.7725,0.0397,-0.2941,9.8021,-1.135,0.3158,-0.5243,-8.0,-32.06,30.44,340.03,-77.29,179.87
82516,52.531063,-1.443392,146.28,10.5,2,183.17,25 / 25,8065210,2019-09-08 14:21:24:449,-4.8853,2.651,10.0429,-0.1021,0.315,9.801,0.9467,-0.4939,0.2268,-7.62,-31.56,30.94,340.2,-78.95,178.74
82517,52.531063,-1.443392,146.28,10.5,2,183.17,25 / 25,8065310,2019-09-08 14:21:24:549,-2.6927,-7.3241,11.7808,-0.0532,0.3257,9.801,0.9228,-0.4227,0.343,-7.19,-31.06,31.5,341.95,-78.81,177.88
82518,52.531063,-1.443392,146.28,10.5,2,183.17,25 / 25,8065410,2019-09-08 14:21:24:649,-1.3279,-3.0936,13.0243,0.0843,-0.2813,9.8022,-0.339,-0.0537,-0.0129,-6.94,-31.12,31.5,342.62,-78.59,178.5
82519,52.531063,-1.443392,146.28,10.5,2,183.17,25 / 25,8065510,2019-09-08 14:21:24:749,-1.705,3.7902,7.2757,0.0671,-0.2105,9.8041,-0.1912,-0.1076,0.0083,-6.44,-32.44,30.44,342.75,-77.29,178.38
82520,52.531063,-1.443392,146.28,10.5,2,183.17,25 / 25,8065610,2019-09-08 14:21:24:849,-3.6715,4.5393,7.7789,-0.0344,0.1367,9.8056,-0.2118,-0.2368,0.0553,-5.81,-32.12,30.31,342.95,-78.7,178.02
82521,52.531063,-1.443392,146.28,10.5,2,183.17,24 / 24,8065710,2019-09-08 14:21:24:949,-1.9522,1.7367,9.6228,-0.0066,0.0776,9.8063,-0.2323,-0.1668,-0.0025,-5.75,-33.87,31.44,342.73,-78.51,177.67
82522,52.531063,-1.443392,146.28,10.5,2,183.17,24 / 24,8065810,2019-09-08 14:21:25:049,-1.6493,-1.724,10.6466,0.0155,-0.0985,9.8061,0.1452,-0.1502,-0.0192,-5.19,-32.06,32.5,345.77,-78.2,177.44
82523,52.531063,-1.443392,146.28,10.5,2,183.17,24 / 24,8065910,2019-09-08 14:21:25:149,-1.1287,-0.3532,10.4177,0.0104,-0.0711,9.8063,0.0591,-0.0779,-0.0365,-5.0,-32.31,32.5,345.91,-77.43,177.76
82524,52.531063,-1.443392,146.28,10.5,2,183.17,24 / 24,8066010,2019-09-08 14:21:25:249,-2.0635,-1.0151,9.4866,-0.0221,0.07,9.8063,0.0014,-0.1221,0.0815,-5.56,-31.56,32.63,344.19,-77.92,177.95
82525,52.531063,-1.443392,146.28,10.5,2,183.17,24 / 24,8066110,2019-09-08 14:21:25:349,-1.4733,0.1532,10.1842,-0.0142,0.049,9.8064,-0.0116,-0.0556,0.0102,-5.31,-30.5,32.56,346.45,-78.08,177.84
82526,52.531063,-1.443392,146.28,10.5,2,183.17,24 / 24,8066210,2019-09-08 14:21:25:449,-0.908,0.7283,9.8639,0.0026,-0.0372,9.8065,-0.0378,-0.1027,0.0975,-5.0,-29.81,31.75,345.8,-78.16,177.64
82527,52.531063,-1.443392,146.28,10.5,2,183.17,24 / 24,8066310,2019-09-08 14:21:25:549,-0.9701,2.0043,8.9148,-0.0013,-0.024,9.8066,-0.159,-0.1558,0.0465,-5.0,-29.56,30.75,346.19,-77.93,178.38
82528,52.531063,-1.443392,146.28,10.5,2,183.17,24 / 24,8066410,2019-09-08 14:21:25:649,-2.5107,-0.2715,10.6815,-0.01,0.0328,9.8066,0.3401,-0.1669,0.0811,-6.25,-30.62,30.31,343.95,-78.05,178.92
82529,52.531063,-1.443392,146.28,10.5,2,183.17,24 / 24,8066510,2019-09-08 14:21:25:749,-1.4441,-0.7723,10.9863,-0.0241,0.0604,9.8063,0.319,-0.1381,0.0765,-5.31,-30.56,30.13,346.55,-78.02,179.12
82530,52.531063,-1.443392,146.28,10.5,2,183.17,24 / 24,8066610,2019-09-08 14:21:25:849,-0.9264,-0.4964,10.7484,0.0266,-0.0723,9.8063,-0.3104,-0.0945,0.0604,-5.69,-30.62,30.81,345.02,-78.14,179.28
82531,52.531063,-1.443392,146.28,10.5,2,183.17,24 / 24,8066710,2019-09-08 14:21:25:949,-1.2287,1.0784,10.5182,0.0232,-0.0422,9.8065,-0.1134,-0.1663,0.0846,-4.75,-30.62,30.94,346.7,-77.94,178.87
82532,52.531063,-1.443392,146.28,10.5,2,183.17,24 / 24,8066810,2019-09-08 14:21:26:049,-2.4337,1.7843,8.9107,-0.0116,0.0299,9.8066,-0.0281,-0.1448,0.0394,-3.37,-30.75,29.06,351.06,-78.08,179.11
82533,52.531063,-1.443392,146.28,10.5,2,183.17,24 / 24,8066910,2019-09-08 14:21:26:149,-0.6612,0.9724,8.2605,-0.015,0.0199,9.8066,-0.0576,-0.0603,-0.0536,-3.56,-30.37,30.13,349.75,-78.22,179.62
82534,52.531063,-1.443392,146.28,10.5,2,183.17,24 / 24,8067010,2019-09-08 14:21:26:249,-1.6937,-0.5486,10.6187,-0.0077,0.0128,9.8066,0.1629,-0.1443,0.0363,-3.37,-29.5,30.06,352.31,-78.15,179.7
82535,52.531063,-1.443392,146.28,10.5,2,183.17,24 / 24,8067110,2019-09-08 14:21:26:349,-1.1765,0.7951,10.5776,0.0059,0.0306,9.8066,0.12,-0.1449,0.0669,-3.44,-29.5,30.19,352.11,-78.32,179.52
82536,52.531063,-1.443392,146.28,10.5,2,183.17,24 / 24,8067210,2019-09-08 14:21:26:449,-2.1851,0.9742,10.4946,-0.0036,-0.0211,9.8066,0.0787,-0.0634,0.0165,-3.06,-29.5,29.0,351.79,-78.44,179.5
82537,52.531063,-1.443392,146.28,10.5,2,183.17,24 / 24,8067310,2019-09-08 14:21:26:549,-1.072,0.6137,10.2256,-0.0039,-0.0061,9.8066,0.0344,-0.0879,-0.0135,-3.0,-30.12,29.44,351.66,-78.25,179.48
82538,52.531063,-1.443392,146.28,10.5,2,183.17,24 / 24,8067410,2019-09-08 14:21:26:649,-1.5524,-0.4016,10.6214,-0.0046,-0.0362,9.8065,-0.0387,-0.1182,-0.0313,-2.25,-31.19,29.44,353.73,-78.26,179.17
82539,52.531063,-1.443392,146.28,10.5,2,183.17,24 / 24,8067510,2019-09-08 14:21:26:749,-1.1319,1.3895,10.4314,-0.0033,0.006,9.8066,0.0872,-0.02,-0.0114,-3.25,-31.69,29.5,351.75,-78.3,179.4
82540,52.531063,-1.443392,146.28,10.5,2,183.17,24 / 24,8067610,2019-09-08 14:21:26:849,-1.7613,-1.5833,10.052,0.0078,-0.0942,9.8062,-0.1693,-0.0694,-0.0098,-1.81,-33.5,28.75,354.14,-78.08,179.58
82541,52.531063,-1.443392,146.28,10.5,2,183.17,24 / 24,8067710,2019-09-08 14:21:26:949,-0.3676,1.9534,9.6451,0.0076,-0.1319,9.8057,-0.1372,-0.0938,-0.0204,-1.62,-33.94,29.56,354.11,-78.13,179.42
82542,52.531063,-1.443392,146.28,10.5,2,183.17,24 / 24,8067810,2019-09-08 14:21:27:049,-0.5664,1.1628,9.9565,-0.0048,0.0739,9.8063,-0.0655,-0.0732,0.1043,-1.44,-33.19,29.5,356.59,-78.36,179.32
82543,52.531063,-1.443392,146.28,10.5,2,183.17,24 / 24,8067910,2019-09-08 14:21:27:149,-0.0341,1.1525,9.1842,-0.0084,-0.0256,9.8065,-0.1294,-0.0294,0.1071,-0.81,-32.25,30.75,357.14,-78.56,179.63
82544,52.531063,-1.443392,146.28,10.5,2,183.17,24 / 24,8068010,2019-09-08 14:21:27:249,-0.2952,1.4246,9.0038,-0.0164,0.0535,9.8065,0.2026,-0.0736,0.0426,-1.12,-30.94,30.75,357.27,-78.39,179.72
82545,52.531063,-1.443392,146.28,10.5,2,183.17,24 / 24,8068110,2019-09-08 14:21:27:349,-0.7501,0.8376,9.2275,-0.0033,0.049,9.8065,0.1682,-0.0441,0.0639,-1.25,-29.75,30.56,358.07,-78.73,-179.68
82546,52.531063,-1.443392,146.28,10.5,2,183.17,24 / 24,8068210,2019-09-08 14:21:27:449,-1.112,1.3106,9.6142,0.004,-0.0242,9.8066,-0.085,-0.0687,0.0545,-0.69,-28.87,30.13,358.17,-78.58,-179.53
82547,52.531063,-1.443392,146.28,10.5,2,183.17,24 / 24,8068310,2019-09-08 14:21:27:549,-1.2928,1.6007,9.9445,0.0006,-0.0346,9.8066,-0.0476,-0.0953,0.036,-0.56,-29.0,30.13,358.26,-78.61,-179.46
82548,52.531063,-1.443392,146.28,10.5,2,183.17,24 / 24,8068409,2019-09-08 14:21:27:648,-0.8135,1.7131,9.5035,0.0006,0.0193,9.8065,0.0547,-0.0877,0.013,-0.37,-29.0,28.88,0.51,-78.6,-179.6
82549,52.531063,-1.443392,146.28,10.5,2,183.17,24 / 24,8068510,2019-09-08 14:21:27:749,-0.8805,0.7509,10.0005,0.0057,0.0284,9.8065,0.0848,-0.1173,-0.0386,-0.87,-30.5,29.13,357.61,-78.69,-179.89
82550,52.531063,-1.443392,146.28,10.5,2,183.17,24 / 24,8068610,2019-09-08 14:21:27:849,-1.2638,0.1751,9.5186,0.011,-0.0391,9.8066,-0.1571,-0.1156,-0.0026,-0.69,-30.81,29.31,357.28,-78.66,179.88
82551,52.531063,-1.443392,146.28,10.5,2,183.17,23 / 23,8068710,2019-09-08 14:21:27:949,-0.3819,0.179,9.6368,0.0055,-0.0483,9.8065,-0.1465,-0.0121,-0.09,-1.0,-31.12,30.31,356.54,-78.44,179.23
82552,52.531063,-1.443392,146.28,10.5,2,183.17,23 / 23,8068810,2019-09-08 14:21:28:049,-0.5145,1.2909,9.4672,0.0008,0.0817,9.8062,0.1741,-0.1138,-0.0186,-0.19,-30.56,29.25,357.45,-78.98,178.02
82553,52.531063,-1.443392,146.28,10.5,2,183.17,23 / 23,8068910,2019-09-08 14:21:28:149,-0.231,1.6386,9.8377,-0.0056,0.0657,9.8063,0.0916,-0.064,-0.0275,-0.12,-30.87,28.63,357.43,-79.05,178.0
82554,52.531063,-1.443392,146.28,10.5,2,183.17,23 / 23,8069010,2019-09-08 14:21:28:249,-0.6693,1.344,10.4787,-0.0001,-0.0477,9.8065,-0.1373,-0.0373,0.002,0.44,-31.5,28.13,357.07,-79.17,177.73
82555,52.531063,-1.443392,146.28,10.5,2,183.17,23 / 23,8069110,2019-09-08 14:21:28:349,-0.7793,3.4948,9.059,0.019,-0.0556,9.8064,-0.1811,-0.1298,0.1012,0.56,-32.69,27.75,358.98,-78.92,177.19
82556,52.531063,-1.443392,146.28,10.5,2,183.17,23 / 23,8069210,2019-09-08 14:21:28:449,-0.6486,2.9424,9.1309,0.0089,0.0708,9.8063,0.1576,-0.0801,0.0327,0.56,-33.31,28.0,359.51,-78.92,177.59
82557,52.531063,-1.443392,146.28,10.5,2,183.17,23 / 23,8069310,2019-09-08 14:21:28:549,-0.5887,2.5429,9.5554,-0.0087,0.0651,9.8063,0.1854,-0.0449,0.0132,-0.06,-32.81,28.38,356.58,-79.31,177.39
82558,52.531063,-1.443392,146.28,10.5,2,183.17,23 / 23,8069410,2019-09-08 14:21:28:649,0.9985,2.4542,9.618,0.0002,-0.0557,9.8064,-0.0778,-0.017,-0.0678,-0.5,-34.0,27.69,356.76,-78.87,177.58
82559,52.531063,-1.443392,146.28,10.5,2,183.17,23 / 23,8069510,2019-09-08 14:21:28:749,-1.2706,2.7334,9.2942,0.0145,-0.0563,9.8064,-0.0326,-0.095,0.103,-0.87,-34.0,28.75,353.71,-78.83,177.23
82560,52.531063,-1.443392,146.28,10.5,2,183.17,23 / 23,8069610,2019-09-08 14:21:28:849,1.7545,1.7333,7.9169,0.0036,0.0571,9.8064,0.0626,-0.062,0.0266,-1.06,-34.19,29.19,353.87,-79.07,177.31
82561,52.531063,-1.443392,146.28,10.5,2,183.17,24 / 24,8069711,2019-09-08 14:21:28:950,-1.6125,2.6581,10.9042,-0.0135,0.0557,9.8064,0.0619,-0.0879,0.0723,-0.75,-33.56,28.56,355.23,-79.51,178.3
82562,52.531063,-1.443392,146.28,10.5,2,183.17,24 / 24,8069809,2019-09-08 14:21:29:048,0.116,2.9508,11.2574,0.0073,-0.0301,9.8066,-0.1581,-0.0338,0.0844,0.19,-32.62,29.06,359.18,-79.52,179.36
82563,52.531063,-1.443392,146.28,10.5,2,183.17,24 / 24,8069910,2019-09-08 14:21:29:149,-0.67,3.8212,9.5095,-0.0074,-0.0305,9.8066,-0.0176,-0.1114,0.0381,0.31,-32.12,28.56,359.14,-79.17,179.33
82564,52.531063,-1.443392,146.28,10.5,2,183.17,24 / 24,8070010,2019-09-08 14:21:29:249,-0.504,1.4086,8.6839,-0.017,-0.0893,9.8062,0.0512,-0.0237,-0.0805,0.88,-32.06,28.94,2.04,-78.35,179.57
82565,52.531063,-1.443392,146.28,10.5,2,183.17,24 / 24,8070110,2019-09-08 14:21:29:349,1.1773,-0.4802,7.8637,0.0089,-0.0514,9.8064,-0.0105,0.0287,0.0619,-0.44,-32.25,29.81,358.64,-78.29,178.97
82566,52.531063,-1.443392,146.28,10.5,2,183.17,24 / 24,8070210,2019-09-08 14:21:29:449,-0.0191,4.3249,9.0571,-0.0027,0.1468,9.8054,0.0011,0.0472,0.1606,-1.44,-32.0,29.0,355.89,-78.45,178.86
82567,52.531063,-1.443392,146.28,10.5,2,183.17,24 / 24,8070310,2019-09-08 14:21:29:549,-0.6655,2.1482,12.1646,-0.0067,0.1223,9.8059,-0.0349,-0.0276,0.0641,-1.06,-31.19,27.81,355.24,-79.82,178.29
82568,52.531063,-1.443392,146.28,10.5,2,183.17,24 / 24,8070410,2019-09-08 14:21:29:649,-0.6513,3.2709,11.2636,0.0074,-0.0226,9.8066,0.213,-0.0143,-0.1261,-0.87,-31.56,27.19,355.87,-80.08,178.89
82569,52.531063,-1.443392,146.28,10.5,2,183.17,24 / 24,8070510,2019-09-08 14:21:29:749,-0.6906,0.8945,9.5559,0.0174,-0.0119,9.8065,0.2693,-0.1308,0.0244,-0.87,-32.19,27.13,354.24,-79.89,177.65
82570,52.531063,-1.443392,146.28,10.5,2,183.17,24 / 24,8070610,2019-09-08 14:21:29:849,-0.6134,2.6641,8.6852,0.0103,-0.0068,9.8065,-0.056,-0.0737,0.0591,-0.25,-32.37,26.88,356.4,-79.56,177.23
82571,52.531063,-1.443392,146.28,10.5,2,183.17,25 / 25,8070710,2019-09-08 14:21:29:949,0.1575,2.6448,9.4714,-0.0159,0.0075,9.8066,-0.0911,-0.0002,-0.0056,0.13,-33.0,27.31,356.81,-79.53,177.57
82572,52.531063,-1.443392,146.28,10.5,2,183.17,25 / 25,8070810,2019-09-08 14:21:30:049,0.5468,2.182,9.587,0.0039,0.0097,9.8066,0.0552,-0.1201,0.035,0.13,-32.5,27.44,357.0,-79.62,177.69
82573,52.531063,-1.443392,146.28,10.5,2,183.17,25 / 25,8070909,2019-09-08 14:21:30:148,-0.3963,2.6142,10.1446,-0.0032,0.0172,9.8066,0.0384,-0.0995,-0.0079,0.75,-33.06,27.19,0.11,-79.87,177.96
82574,52.531063,-1.443392,146.28,10.5,2,183.17,25 / 25,8071010,2019-09-08 14:21:30:249,-0.0222,2.6139,9.7293,-0.0021,0.0107,9.8066,-0.0765,-0.0884,0.031,1.19,-33.37,26.69,359.76,-80.17,177.69
82575,52.531063,-1.443392,146.28,10.5,2,183.17,25 / 25,8071110,2019-09-08 14:21:30:349,-0.1502,2.195,9.0888,0.0004,0.0034,9.8065,-0.0268,-0.0876,0.0403,2.19,-33.56,27.31,2.75,-80.25,177.89
82576,52.531063,-1.443392,146.28,10.5,2,183.17,25 / 25,8071210,2019-09-08 14:21:30:449,0.2831,2.1851,9.6132,-0.0022,0.0096,9.8066,0.1056,-0.0814,-0.0004,2.25,-32.87,26.81,2.95,-80.19,178.06
82577,52.531063,-1.443392,146.28,10.5,2,183.17,25 / 25,8071310,2019-09-08 14:21:30:549,0.4797,2.8856,10.1406,-0.002,0.0129,9.8066,0.0616,-0.1074,-0.0048,3.19,-33.31,27.81,5.75,-80.25,178.42
82578,52.531063,-1.443392,146.28,10.5,2,183.17,25 / 25,8071410,2019-09-08 14:21:30:649,0.047,2.3741,10.1033,-0.0034,-0.0047,9.8066,-0.039,-0.0983,0.0131,2.88,-33.19,27.75,5.93,-80.3,178.56
82579,52.531063,-1.443392,146.28,10.5,2,183.17,25 / 25,8071510,2019-09-08 14:21:30:749,0.1105,2.7449,9.6889,-0.0053,-0.0113,9.8066,-0.0649,-0.0997,-0.0235,3.88,-33.06,27.81,8.87,-80.25,178.87
82580,52.531063,-1.443392,146.28,10.5,2,183.17,25 / 25,8071609,2019-09-08 14:21:30:848,0.1446,1.7366,9.7675,-0.0002,0.0099,9.8066,0.1258,-0.1647,0.0412,3.88,-33.19,27.31,9.37,-80.25,178.9
82581,52.531063,-1.443392,146.28,10.5,2,183.17,24 / 25,8071709,2019-09-08 14:21:30:948,-0.3381,0.4811,10.507,0.0009,0.0039,9.8066,0.2255,-0.143,-0.0049,4.56,-32.94,28.13,11.66,-80.22,179.08
82582,52.531063,-1.443392,146.28,10.5,2,183.17,24 / 25,8071810,2019-09-08 14:21:31:049,0.1521,1.1661,9.1044,-0.0004,0.0305,9.8065,0.015,-0.1401,-0.0097,4.63,-32.62,27.81,11.69,-79.98,179.05
82583,52.531063,-1.443392,146.28,10.5,2,183.17,24 / 25,8071910,2019-09-08 14:21:31:149,-0.2456,0.2104,9.5008,-0.0025,0.0441,9.8065,0.0519,-0.1794,0.0193,5.13,-32.06,28.0,12.45,-80.16,179.77
82584,52.531063,-1.443392,146.28,10.5,2,183.17,24 / 25,8072009,2019-09-08 14:21:31:248,-0.3813,0.4958,9.9518,-0.0079,-0.0124,9.8066,-0.0148,-0.1569,0.0107,4.44,-32.19,27.69,10.91,-80.14,-179.48
82585,52.531063,-1.443392,146.28,10.5,2,183.17,24 / 25,8072110,2019-09-08 14:21:31:349,-0.391,0.9311,9.8023,-0.006,-0.0157,9.8066,-0.0021,-0.1665,0.045,4.13,-32.12,27.69,11.47,-80.15,-179.03
82586,52.531063,-1.443392,146.28,10.5,2,183.17,24 / 25,8072210,2019-09-08 14:21:31:449,-0.3551,0.7528,9.6286,0.0013,0.0164,9.8065,-0.0165,-0.184,0.014,4.06,-32.5,27.06,12.32,-80.18,-178.73
82587,52.531063,-1.443392,146.28,10.5,2,183.17,24 / 25,8072310,2019-09-08 14:21:31:549,-0.275,0.421,9.4892,0.0025,0.0193,9.8066,-0.0254,-0.2149,0.0346,4.25,-31.87,26.94,12.52,-80.35,-178.52
82588,52.531063,-1.443392,146.28,10.5,2,183.17,24 / 25,8072410,2019-09-08 14:21:31:649,-0.1024,0.6872,10.1349,0.0003,-0.0037,9.8066,-0.009,-0.2198,0.062,4.94,-31.75,26.44,15.98,-80.42,-178.29
82589,52.531063,-1.443392,146.28,10.5,2,183.17,24 / 25,8072510,2019-09-08 14:21:31:749,-0.8563,-0.3103,10.1567,-0.007,0.0036,9.8066,0.0082,-0.2255,0.0742,4.94,-31.81,25.56,16.69,-80.48,-177.71
82590,52.531063,-1.443392,146.28,10.5,2,183.17,24 / 25,8072610,2019-09-08 14:21:31:849,-1.2785,-1.0992,9.9788,-0.0107,0.0034,9.8066,0.0161,-0.2399,0.0516,5.19,-31.87,25.75,18.39,-80.48,-176.35
82591,52.531063,-1.443392,146.28,10.5,2,183.17,24 / 24,8072712,2019-09-08 14:21:31:951,-1.1152,-0.6909,9.7542,-0.0036,-0.0037,9.8066,0.0167,-0.2548,0.0639,5.19,-31.87,25.63,18.83,-80.4,-176.03
82592,52.531063,-1.443392,146.28,10.5,2,183.17,24 / 24,8072810,2019-09-08 14:21:32:049,-2.257,-0.1427,9.6958,0.0032,0.0298,9.8066,0.0117,-0.2718,-0.0361,4.94,-31.87,25.56,20.0,-80.29,-175.16
82593,52.531063,-1.443392,146.28,10.5,2,183.17,24 / 24,8072910,2019-09-08 14:21:32:149,-1.9502,-1.3833,9.3924,-0.0066,0.0177,9.8065,-0.0117,-0.2869,0.0455,4.88,-32.31,24.19,21.97,-80.47,-174.72
82594,52.531063,-1.443392,146.28,10.5,2,183.17,24 / 24,8073010,2019-09-08 14:21:32:249,-2.726,-1.4967,9.5175,-0.0064,-0.0114,9.8065,0.0265,-0.3436,0.0679,5.81,-32.62,24.06,25.05,-80.49,-174.66
82595,52.531063,-1.443392,146.28,10.5,2,183.17,24 / 24,8073110,2019-09-08 14:21:32:349,-1.6218,-0.4892,10.0337,-0.0217,-0.0263,9.8065,-0.0912,-0.317,-0.0163,6.5,-32.44,24.13,28.03,-80.29,-174.41
82596,52.531063,-1.443392,146.28,10.5,2,183.17,24 / 24,8073210,2019-09-08 14:21:32:449,-2.3127,-0.7452,10.2989,-0.0175,0.0019,9.8066,0.0832,-0.4711,0.0956,6.88,-31.81,22.56,29.84,-80.37,-173.82
82597,52.531063,-1.443392,146.28,10.5,2,183.17,24 / 24,8073310,2019-09-08 14:21:32:549,-2.1692,-2.4889,10.0369,0.0168,0.0176,9.8066,0.1063,-0.3806,-0.0153,7.0,-31.5,21.88,31.34,-80.39,-173.39
82598,52.531063,-1.443392,146.28,10.5,2,183.17,24 / 24,8073410,2019-09-08 14:21:32:649,-2.4758,-1.6278,9.6276,-0.0312,-0.017,9.8066,-0.1987,-0.4522,0.1169,6.88,-31.94,20.94,33.5,-80.22,-173.15
82599,52.531063,-1.443392,146.28,10.5,2,183.17,24 / 24,8073510,2019-09-08 14:21:32:749,-2.6486,1.5252,9.0585,-0.018,-0.0096,9.8066,-0.2088,-0.5061,0.0889,7.19,-32.44,19.13,39.61,-80.12,-171.05
82600,52.531063,-1.443392,146.28,10.5,2,183.17,24 / 24,8073610,2019-09-08 14:21:32:849,-2.7229,1.2714,10.0945,0.0203,0.0381,9.8065,0.1382,-0.6016,0.1689,8.0,-33.19,18.81,43.55,-80.32,-170.45
82601,52.53055,-1.443774,146.72,4.54,2,250.88,25 / 25,8073710,2019-09-08 14:21:32:949,-2.4894,1.9351,9.7012,0.0003,0.0211,9.8065,0.0827,-0.4641,-0.0334,8.63,-33.44,18.44,49.99,-80.55,-168.96
82602,52.53055,-1.443774,146.72,4.54,2,250.88,25 / 25,8073809,2019-09-08 14:21:33:048,-1.4114,1.9353,9.181,0.0011,-0.0131,9.8066,-0.0941,-0.559,0.1329,8.38,-34.31,17.13,48.88,-80.45,-169.89
82603,52.53055,-1.443774,146.72,4.54,2,250.88,25 / 25,8073910,2019-09-08 14:21:33:149,-2.0583,1.5679,9.483,-0.0027,-0.0172,9.8066,-0.1531,-0.5224,0.0653,8.5,-34.19,16.94,51.63,-80.37,-170.19
82604,52.53055,-1.443774,146.72,4.54,2,250.88,25 / 25,8074010,2019-09-08 14:21:33:249,-1.6758,1.7766,9.9823,0.0309,0.0178,9.8066,-0.0339,-0.5091,0.0311,9.19,-34.06,16.13,53.37,-80.51,-170.69
82605,52.53055,-1.443774,146.72,4.54,2,250.88,25 / 25,8074110,2019-09-08 14:21:33:349,-0.5242,0.9394,10.2016,0.0103,0.0159,9.8066,-0.0704,-0.5737,0.1693,8.94,-34.06,14.63,55.42,-80.81,-170.83
82606,52.53055,-1.443774,146.72,4.54,2,250.88,25 / 25,8074210,2019-09-08 14:21:33:449,-2.2035,1.8499,9.1696,-0.0018,0.049,9.8064,0.0594,-0.5293,0.1541,8.69,-34.19,12.88,63.98,-80.96,-168.86
82607,52.53055,-1.443774,146.72,4.54,2,250.88,25 / 25,8074310,2019-09-08 14:21:33:549,-2.0728,1.5863,9.5648,0.0137,0.0613,9.8064,0.065,-0.5747,0.1466,8.44,-34.44,12.38,70.04,-81.19,-163.94
82608,52.53055,-1.443774,146.72,4.54,2,250.88,25 / 25,8074410,2019-09-08 14:21:33:649,-1.7742,2.8075,9.7336,-0.0315,0.0031,9.8065,-0.1995,-0.5506,0.1316,7.19,-34.12,10.06,80.18,-81.05,-160.54
82609,52.53055,-1.443774,146.72,4.54,2,250.88,25 / 25,8074510,2019-09-08 14:21:33:749,-0.7178,3.1622,9.7662,-0.0253,0.0047,9.8066,-0.1699,-0.5731,0.1294,6.88,-35.0,8.75,87.48,-81.04,-159.36
82610,52.53055,-1.443774,146.72,4.54,2,250.88,25 / 25,8074610,2019-09-08 14:21:33:849,-0.2977,2.9573,10.1399,0.0228,0.014,9.8065,0.1075,-0.524,0.0686,7.06,-35.31,7.19,99.73,-81.01,-158.62
82611,52.53055,-1.443774,146.72,4.54,2,250.88,25 / 25,8074711,2019-09-08 14:21:33:950,-1.4845,1.9756,10.0976,0.0217,0.0229,9.8066,0.1822,-0.4603,0.0325,7.5,-34.87,6.56,101.94,-81.11,-156.98
82612,52.53055,-1.443774,146.72,4.54,2,250.88,25 / 25,8074810,2019-09-08 14:21:34:049,-0.3708,-0.6155,8.6243,0.0144,0.0086,9.8066,-0.056,-0.616,0.1998,6.94,-35.69,5.75,107.51,-81.03,-157.64
82613,52.53055,-1.443774,146.72,4.54,2,250.88,25 / 25,8074910,2019-09-08 14:21:34:149,-0.4634,2.6961,9.3761,-0.0203,0.0316,9.8065,-0.0547,-0.4844,0.0413,7.19,-36.12,4.56,116.76,-80.69,-155.03
82614,52.53055,-1.443774,146.72,4.54,2,250.88,25 / 25,8075010,2019-09-08 14:21:34:249,-0.2717,0.9024,9.8613,0.012,0.0278,9.8066,-0.0061,-0.3744,-0.0726,6.63,-36.0,2.31,135.03,-80.59,-153.77
82615,52.53055,-1.443774,146.72,4.54,2,250.88,25 / 25,8075110,2019-09-08 14:21:34:349,-0.3456,2.5166,10.8112,0.0107,-0.024,9.8066,0.0488,-0.5241,0.1657,5.88,-36.44,1.44,142.08,-80.73,-154.19
82616,52.53055,-1.443774,146.72,4.54,2,250.88,25 / 25,8075210,2019-09-08 14:21:34:449,-0.469,-0.3102,10.0176,-0.0042,-0.047,9.8065,-0.1867,-0.555,0.1584,5.63,-37.75,0.56,143.51,-80.78,-153.39
82617,52.53055,-1.443774,146.72,4.54,2,250.88,25 / 25,8075310,2019-09-08 14:21:34:549,-0.5989,0.6149,9.1684,-0.0323,0.0434,9.8065,-0.238,-0.2309,-0.0699,5.38,-38.37,0.0,150.98,-80.88,-154.59
82618,52.53055,-1.443774,146.72,4.54,2,250.88,25 / 25,8075410,2019-09-08 14:21:34:649,-0.5433,1.0885,9.7886,0.0388,-0.0194,9.8065,0.2044,-0.2825,0.0261,5.25,-38.44,0.0,150.9,-81.02,-154.14
82619,52.53055,-1.443774,146.72,4.54,2,250.88,25 / 25,8075510,2019-09-08 14:21:34:749,-0.2237,0.9094,10.3572,0.0268,0.0015,9.8066,0.1465,-0.2294,0.0354,4.88,-38.81,0.63,146.73,-80.75,-154.24
82620,52.53055,-1.443774,146.72,4.54,2,250.88,25 / 25,8075610,2019-09-08 14:21:34:849,-0.1217,1.9265,10.6348,-0.0312,0.0508,9.8064,-0.0559,-0.1886,0.0462,5.0,-38.12,0.44,151.64,-80.63,-154.17
82621,52.53055,-1.443774,146.72,4.54,2,250.88,23 / 23,8075710,2019-09-08 14:21:34:949,0.872,1.3107,9.8384,-0.0196,0.0229,9.8066,-0.022,-0.151,0.0419,4.63,-37.62,1.25,147.57,-80.24,-153.63
82622,52.53055,-1.443774,146.72,4.54,2,250.88,23 / 23,8075810,2019-09-08 14:21:35:049,-0.3225,0.1717,10.2117,0.0195,-0.0033,9.8066,0.0974,-0.2327,0.0541,4.81,-37.56,-0.12,152.96,-80.12,-153.16
82623,52.53055,-1.443774,146.72,4.54,2,250.88,23 / 23,8075910,2019-09-08 14:21:35:149,1.0032,1.4904,10.3867,-0.0085,-0.0045,9.8066,0.0056,-0.165,-0.0362,4.69,-38.0,-0.31,153.22,-79.98,-153.13
82624,52.53055,-1.443774,146.72,4.54,2,250.88,23 / 23,8076009,2019-09-08 14:21:35:248,-0.6201,1.5241,9.7621,-0.0284,0.0143,9.8065,-0.0128,-0.1456,-0.0031,3.94,-37.94,-1.19,161.03,-79.79,-154.85
82625,52.53055,-1.443774,146.72,4.54,2,250.88,23 / 23,8076110,2019-09-08 14:21:35:349,-0.1947,0.9042,10.0651,-0.0399,0.0219,9.8065,-0.0142,-0.1283,0.1323,4.0,-37.12,-1.44,160.34,-79.73,-156.05
82626,52.53055,-1.443774,146.72,4.54,2,250.88,23 / 23,8076210,2019-09-08 14:21:35:449,-0.0919,-0.0789,9.8128,0.0175,-0.0177,9.8065,0.021,-0.1279,0.0845,4.0,-37.44,-1.56,164.18,-79.63,-156.11
82627,52.53055,-1.443774,146.72,4.54,2,250.88,23 / 23,8076310,2019-09-08 14:21:35:549,0.0506,1.234,10.2272,0.0147,-0.0085,9.8065,-0.0551,-0.0504,-0.0227,3.31,-38.44,-1.62,169.05,-79.72,-155.43
82628,52.53055,-1.443774,146.72,4.54,2,250.88,23 / 23,8076410,2019-09-08 14:21:35:649,-1.196,0.331,9.8543,-0.0085,0.0117,9.8066,0.0434,-0.0805,0.0436,4.19,-37.87,-0.94,160.73,-79.77,-155.78
82629,52.53055,-1.443774,146.72,4.54,2,250.88,23 / 23,8076510,2019-09-08 14:21:35:749,-0.483,0.0544,9.9729,-0.0095,0.0157,9.8066,0.0016,-0.0507,-0.031,4.19,-37.62,-1.31,161.02,-79.59,-155.61
82630,52.53055,-1.443774,146.72,4.54,2,250.88,23 / 23,8076610,2019-09-08 14:21:35:849,-0.4704,0.0416,9.8636,0.0103,-0.001,9.8066,-0.0147,-0.0328,-0.0452,3.63,-37.31,-1.0,160.62,-79.59,-155.74
82631,52.53055,-1.443774,146.72,4.54,2,250.88,22 / 23,8076709,2019-09-08 14:21:35:948,0.2204,-1.2192,9.4961,-0.0016,-0.0044,9.8066,-0.0726,0.0204,-0.0191,4.06,-37.37,-0.69,160.58,-79.6,-155.82
82632,52.53055,-1.443774,146.72,4.54,2,250.88,22 / 23,8076809,2019-09-08 14:21:36:048,0.132,0.5069,9.9443,-0.0013,0.0201,9.8065,0.0004,-0.0305,-0.0096,4.25,-37.25,-0.75,160.53,-79.65,-155.78
82633,52.53055,-1.443774,146.72,4.54,2,250.88,22 / 23,8076910,2019-09-08 14:21:36:149,-1.132,1.2586,9.8432,0.0003,0.0019,9.8066,0.0242,-0.0434,-0.0369,4.56,-36.12,-1.37,156.39,-79.52,-155.61
82634,52.53055,-1.443774,146.72,4.54,2,250.88,22 / 23,8077010,2019-09-08 14:21:36:249,-0.5495,-0.0114,9.9546,-0.0117,0.0193,9.8066,-0.1093,-0.0014,-0.0579,3.69,-36.75,-1.56,164.67,-79.37,-155.47
82635,52.53055,-1.443774,146.72,4.54,2,250.88,22 / 23,8077110,2019-09-08 14:21:36:349,-0.0241,-0.0499,10.0229,-0.0111,0.0038,9.8066,-0.0672,-0.0724,0.0071,3.44,-36.75,-2.06,169.05,-79.39,-155.51
82636,52.53055,-1.443774,146.72,4.54,2,250.88,22 / 23,8077210,2019-09-08 14:21:36:449,-0.3315,0.5051,10.1015,-0.0059,0.0108,9.8066,-0.0657,-0.0259,0.0675,3.88,-37.37,-2.12,164.6,-79.36,-155.69
82637,52.53055,-1.443774,146.72,4.54,2,250.88,22 / 23,8077310,2019-09-08 14:21:36:549,-0.5612,-1.6257,9.0144,-0.0121,0.0287,9.8065,-0.2293,0.0079,-0.0919,3.31,-36.56,-1.94,169.16,-79.12,-155.74
82638,52.53055,-1.443774,146.72,4.54,2,250.88,22 / 23,8077410,2019-09-08 14:21:36:649,0.8401,-0.1789,9.6616,0.0626,-0.0798,9.8061,0.4715,-0.0101,-0.1019,3.19,-36.81,-1.87,169.18,-78.86,-156.19
82639,52.53055,-1.443774,146.72,4.54,2,250.88,22 / 23,8077510,2019-09-08 14:21:36:749,-0.4578,0.2437,10.3049,0.0412,-0.059,9.8063,0.2781,-0.0231,0.0256,3.0,-36.62,-2.44,169.21,-79.3,-155.23
82640,52.53055,-1.443774,146.72,4.54,2,250.88,22 / 23,8077610,2019-09-08 14:21:36:849,-1.3712,-0.7535,9.5792,-0.055,0.0461,9.8064,-0.3395,-0.0681,-0.0626,3.56,-36.19,-1.75,164.58,-78.93,-156.02
82641,52.53055,-1.443774,146.72,4.54,2,250.88,24 / 24,8077711,2019-09-08 14:21:36:950,1.6031,-2.1507,8.6228,-0.0714,0.0618,9.8061,-0.4847,-0.1615,-0.0671,3.0,-36.25,-2.0,169.0,-78.81,-156.21
82642,52.53055,-1.443774,146.72,4.54,2,250.88,24 / 24,8077810,2019-09-08 14:21:37:049,0.0672,-0.4946,9.6569,0.0571,-0.0647,9.8062,0.3134,-0.0726,-0.0575,3.19,-34.94,-1.19,165.23,-78.76,-156.34
82643,52.53055,-1.443774,146.72,4.54,2,250.88,24 / 24,8077910,2019-09-08 14:21:37:149,-0.5565,-0.1145,10.4864,0.0402,-0.0695,9.8062,0.2562,-0.0375,-0.008,2.81,-35.19,-2.19,168.75,-79.17,-155.61
82644,52.53055,-1.443774,146.72,4.54,2,250.88,24 / 24,8078010,2019-09-08 14:21:37:249,0.0791,0.3418,10.0187,-0.0431,0.0667,9.8062,-0.2291,-0.0444,0.0033,2.56,-34.75,-3.44,171.85,-78.69,-156.25
82645,52.53055,-1.443774,146.72,4.54,2,250.88,24 / 24,8078110,2019-09-08 14:21:37:349,-1.0291,0.8035,9.476,-0.022,0.0653,9.8064,-0.0887,0.0267,-0.06,2.19,-35.56,-3.44,176.74,-78.69,-155.89
82646,52.53055,-1.443774,146.72,4.54,2,250.88,24 / 24,8078210,2019-09-08 14:21:37:449,0.6225,-0.6764,9.4143,0.0312,-0.0394,9.8065,0.1289,0.045,-0.0267,2.44,-35.87,-2.12,173.96,-78.76,-156.06
82647,52.53055,-1.443774,146.72,4.54,2,250.88,24 / 24,8078310,2019-09-08 14:21:37:549,0.0494,0.0581,10.2715,0.0232,-0.0411,9.8065,0.1244,-0.006,0.0073,2.5,-36.94,-2.69,172.3,-79.05,-155.39
82648,52.53055,-1.443774,146.72,4.54,2,250.88,24 / 24,8078410,2019-09-08 14:21:37:649,-1.1788,-0.6202,10.1462,-0.0137,0.0081,9.8066,-0.0288,-0.0387,0.0265,3.19,-37.44,-2.5,169.34,-79.0,-155.43
82649,52.53055,-1.443774,146.72,4.54,2,250.88,24 / 24,8078510,2019-09-08 14:21:37:749,0.4055,-0.2319,10.0108,-0.0185,0.0149,9.8065,-0.0183,0.0329,0.0184,2.75,-37.19,-1.75,169.24,-78.88,-155.97
82650,52.53055,-1.443774,146.72,4.54,2,250.88,24 / 24,8078610,2019-09-08 14:21:37:849,0.1236,-0.4471,10.0058,0.0069,-0.0007,9.8066,0.0432,0.0147,0.0148,3.75,-35.75,-1.69,164.54,-78.95,-156.05
82651,52.53055,-1.443774,146.72,4.54,2,250.88,24 / 24,8078710,2019-09-08 14:21:37:949,-0.0581,0.3618,10.1516,0.0003,-0.0158,9.8066,0.064,-0.0163,0.0739,2.94,-36.5,-2.31,168.84,-79.0,-156.32
82652,52.53055,-1.443774,146.72,4.54,2,250.88,24 / 24,8078810,2019-09-08 14:21:38:049,0.0426,-0.8898,9.918,-0.004,0.003,9.8066,0.0089,0.0092,-0.0075,3.13,-36.19,-2.62,171.86,-78.95,-156.31
82653,52.53055,-1.443774,146.72,4.54,2,250.88,24 / 24,8078910,2019-09-08 14:21:38:149,-0.6111,0.0595,9.9462,0.003,0.0081,9.8065,-0.0224,0.032,-0.0312,3.44,-37.37,-2.87,171.98,-78.85,-156.5
82654,52.53055,-1.443774,146.72,4.54,2,250.88,24 / 24,8079010,2019-09-08 14:21:38:249,-0.7355,-0.2705,9.6191,-0.0206,0.0275,9.8065,-0.1548,0.0162,-0.0109,3.94,-38.12,-2.06,165.0,-78.92,-156.32
82655,52.53055,-1.443774,146.72,4.54,2,250.88,24 / 24,8079110,2019-09-08 14:21:38:349,-0.157,-0.3359,9.714,-0.0289,0.0379,9.8065,-0.1856,0.0141,-0.0016,3.75,-38.0,-1.81,165.1,-78.73,-156.5
82656,52.53055,-1.443774,146.72,4.54,2,250.88,24 / 24,8079210,2019-09-08 14:21:38:449,0.223,-0.8405,9.424,0.0388,-0.0285,9.8064,0.1371,0.0215,-0.0575,4.44,-37.25,-0.81,161.58,-78.93,-155.18
82657,52.53055,-1.443774,146.72,4.54,2,250.88,24 / 24,8079310,2019-09-08 14:21:38:549,-0.0125,0.3641,10.147,0.0155,0.002,9.8066,0.0453,0.0036,0.0221,3.56,-36.31,-0.19,157.1,-78.81,-155.46
82658,52.53055,-1.443774,146.72,4.54,2,250.88,24 / 24,8079410,2019-09-08 14:21:38:649,-0.4209,-1.1883,9.5941,-0.0094,0.0095,9.8066,0.0506,-0.0305,0.1025,3.63,-36.37,-1.62,164.98,-78.72,-155.45
82659,52.53055,-1.443774,146.72,4.54,2,250.88,24 / 24,8079510,2019-09-08 14:21:38:749,-0.044,0.0337,10.0275,-0.0061,0.0131,9.8066,-0.0074,0.0714,-0.0795,2.81,-37.25,-2.44,169.62,-78.54,-155.43
82660,52.53055,-1.443774,146.72,4.54,2,250.88,24 / 24,8079610,2019-09-08 14:21:38:849,0.034,0.0867,10.1505,0.0027,0.0002,9.8066,0.0626,0.0085,-0.0367,3.56,-37.0,-2.12,165.16,-78.57,-156.0
82661,52.53055,-1.443774,146.72,4.54,2,250.88,25 / 25,8079710,2019-09-08 14:21:38:949,-0.0459,-1.2853,10.1264,0.0025,-0.0042,9.8066,0.0485,0.0284,-0.015,2.88,-37.5,-1.94,169.36,-78.61,-156.11
82662,52.53055,-1.443774,146.72,4.54,2,250.88,25 / 25,8079810,2019-09-08 14:21:39:049,-0.0372,0.1292,9.9471,-0.0134,0.0228,9.8065,-0.0334,0.0231,0.0743,3.63,-37.44,-1.31,161.58,-78.51,-156.57
82663,52.53055,-1.443774,146.72,4.54,2,250.88,25 / 25,8079909,2019-09-08 14:21:39:148,-0.7193,-0.822,9.7377,-0.0078,0.0301,9.8066,-0.0249,0.0615,-0.0267,3.06,-37.25,-1.62,169.39,-78.43,-156.38
82664,52.53055,-1.443774,146.72,4.54,2,250.88,25 / 25,8080010,2019-09-08 14:21:39:249,0.79,-0.7116,9.9876,0.0077,0.0105,9.8066,0.0752,0.0122,-0.0051,3.31,-36.44,-1.44,165.89,-78.4,-156.22
82665,52.53055,-1.443774,146.72,4.54,2,250.88,25 / 25,8080111,2019-09-08 14:21:39:350,0.2101,0.0379,9.7904,0.0039,0.0161,9.8065,0.0918,0.0202,-0.0074,2.88,-36.69,-2.56,172.47,-78.24,-155.86
82666,52.53055,-1.443774,146.72,4.54,2,250.88,25 / 25,8080209,2019-09-08 14:21:39:448,0.4723,-1.7263,9.5703,0.0219,-0.0175,9.8066,0.0204,0.0462,0.0063,3.75,-37.0,-2.5,165.65,-78.11,-155.64
82667,52.53055,-1.443774,146.72,4.54,2,250.88,25 / 25,8080310,2019-09-08 14:21:39:549,-0.8587,-0.7971,7.3345,0.0266,-0.0352,9.8065,-0.1191,0.0264,0.137,3.06,-37.12,-2.56,172.87,-78.28,-154.69
82668,52.53055,-1.443774,146.72,4.54,2,250.88,25 / 25,8080410,2019-09-08 14:21:39:649,-0.8646,-0.2569,9.4828,0.0289,-0.0166,9.8066,-0.095,0.2165,-0.1601,3.56,-37.75,-3.0,170.18,-77.95,-152.19
82669,52.53055,-1.443774,146.72,4.54,2,250.88,25 / 25,8080510,2019-09-08 14:21:39:749,2.859,-1.9329,9.6325,-0.0474,0.0268,9.8064,-0.124,-0.0225,0.0453,3.25,-37.31,-1.75,170.44,-78.07,-153.7
82670,52.53055,-1.443774,146.72,4.54,2,250.88,25 / 25,8080610,2019-09-08 14:21:39:849,-1.4986,-0.6929,9.8089,-0.0174,0.0292,9.8066,0.1641,-0.1361,0.1211,2.88,-37.75,-1.31,167.29,-78.05,-154.1
82671,52.53055,-1.443774,146.72,4.54,2,250.88,25 / 25,8080710,2019-09-08 14:21:39:949,-1.1238,0.657,11.469,0.025,-0.0506,9.8064,0.2991,-0.1814,0.257,2.63,-37.56,-1.19,167.55,-77.62,-154.38
82672,52.53055,-1.443774,146.72,4.54,2,250.88,25 / 25,8080809,2019-09-08 14:21:40:048,0.0634,1.4406,11.2232,-0.057,0.0486,9.8063,-0.1066,-0.0284,-0.0254,3.19,-37.31,-1.25,167.27,-77.46,-154.94
82673,52.53055,-1.443774,146.72,4.54,2,250.88,25 / 25,8080910,2019-09-08 14:21:40:149,-0.5592,-1.4271,9.9932,-0.0186,0.029,9.8065,-0.0617,0.0157,-0.0361,3.38,-37.31,-0.87,167.13,-77.58,-155.15
82674,52.53055,-1.443774,146.72,4.54,2,250.88,25 / 25,8081010,2019-09-08 14:21:40:249,-0.6364,-1.466,8.9154,0.0285,-0.0002,9.8065,-0.0531,0.0382,-0.1143,3.88,-37.87,-1.44,163.32,-77.6,-155.03
82675,52.53055,-1.443774,146.72,4.54,2,250.88,25 / 25,8081110,2019-09-08 14:21:40:349,0.9152,-0.1053,9.6309,0.0026,-0.0076,9.8065,-0.0864,-0.0989,0.0158,4.69,-37.62,-0.62,159.87,-77.69,-154.26
82676,52.53055,-1.443774,146.72,4.54,2,250.88,25 / 25,8081210,2019-09-08 14:21:40:449,-0.2562,-0.4321,9.8589,-0.0105,0.0061,9.8065,-0.0038,-0.0469,0.0008,4.31,-36.69,-0.94,163.1,-77.77,-154.2
82677,52.53055,-1.443774,146.72,4.54,2,250.88,25 / 25,8081310,2019-09-08 14:21:40:549,-0.1044,-0.8614,9.7184,-0.0098,0.005,9.8066,0.0403,-0.0105,0.0234,4.5,-36.31,-1.25,159.01,-77.77,-154.37
82678,52.53055,-1.443774,146.72,4.54,2,250.88,25 / 25,8081410,2019-09-08 14:21:40:649,0.1715,0.36,9.0832,0.0048,-0.0196,9.8065,-0.0642,0.0098,0.0241,3.63,-36.06,-1.75,166.03,-77.76,-154.58
82679,52.53055,-1.443774,146.72,4.54,2,250.88,25 / 25,8081510,2019-09-08 14:21:40:749,0.1349,-1.4767,9.4093,0.013,-0.0067,9.8066,-0.0539,0.0179,-0.0315,4.06,-36.75,-2.12,166.2,-77.88,-154.6
82680,52.53055,-1.443774,146.72,4.54,2,250.88,25 / 25,8081610,2019-09-08 14:21:40:849,-0.3837,-0.526,9.6703,0.0029,-0.0015,9.8066,0.0433,-0.0271,-0.0383,4.5,-36.5,-1.56,162.11,-77.9,-154.89
82681,52.53055,-1.443774,146.72,4.54,2,250.88,24 / 24,8081710,2019-09-08 14:21:40:949,0.1687,-0.2912,9.8686,-0.014,0.005,9.8066,0.0174,-0.0359,0.0087,3.38,-36.75,-2.44,170.08,-77.88,-155.21
82682,52.53055,-1.443774,146.72,4.54,2,250.88,24 / 24,8081809,2019-09-08 14:21:41:048,0.0834,-1.9759,9.8588,0.0043,-0.0185,9.8066,0.1823,-0.0525,0.0697,2.81,-37.37,-1.81,169.95,-77.95,-155.5
82683,52.53055,-1.443774,146.72,4.54,2,250.88,24 / 24,8081910,2019-09-08 14:21:41:149,-0.3989,-0.1251,10.3935,0.0107,-0.0188,9.8065,0.1499,0.0107,0.0149,1.94,-36.87,-1.87,174.52,-77.87,-155.59
82684,52.53055,-1.443774,146.72,4.54,2,250.88,24 / 24,8082010,2019-09-08 14:21:41:249,0.0503,-0.7549,9.6953,-0.0142,0.0183,9.8066,-0.0543,-0.0047,-0.0282,2.63,-37.19,-2.31,170.0,-77.76,-155.67
82685,52.53055,-1.443774,146.72,4.54,2,250.88,24 / 24,8082110,2019-09-08 14:21:41:349,-0.3378,-0.7998,9.9131,-0.0112,0.0142,9.8066,0.0547,0.0272,0.0597,2.75,-37.75,-2.44,170.05,-77.73,-156.2
82686,52.53055,-1.443774,146.72,4.54,2,250.88,24 / 24,8082210,2019-09-08 14:21:41:449,0.1431,-0.338,9.6604,0.0087,-0.0121,9.8066,-0.1728,0.0195,0.0176,3.06,-37.69,-3.19,172.78,-77.74,-155.89
82687,52.53055,-1.443774,146.72,4.54,2,250.88,24 / 24,8082310,2019-09-08 14:21:41:549,0.0953,-0.5115,9.8011,0.0115,-0.0177,9.8066,-0.1736,-0.0134,0.0411,3.94,-38.56,-1.75,166.25,-77.94,-155.72
82688,52.53055,-1.443774,146.72,4.54,2,250.88,24 / 24,8082410,2019-09-08 14:21:41:649,-0.1534,-0.4781,10.0483,-0.0072,0.001,9.8066,0.101,0.0045,-0.0114,3.56,-37.87,-1.31,162.75,-77.98,-155.67
82689,52.53055,-1.443774,146.72,4.54,2,250.88,24 / 24,8082510,2019-09-08 14:21:41:749,-0.2912,0.7487,10.5,0.0025,-0.0137,9.8066,0.2207,-0.0749,0.0731,3.81,-37.56,-1.87,165.88,-78.14,-155.65
82690,52.53055,-1.443774,146.72,4.54,2,250.88,24 / 24,8082610,2019-09-08 14:21:41:849,0.3988,-1.5989,8.6912,-0.0233,0.0157,9.8066,-0.1594,-0.0377,0.0302,3.13,-37.06,-2.06,169.8,-78.14,-155.62
82691,52.530956,-1.444604,146.23,10.63,3,313.99,24 / 25,8082710,2019-09-08 14:21:41:949,-0.1376,-1.1156,9.4262,-0.0186,0.0287,9.8065,-0.069,0.0185,-0.0192,3.13,-37.87,-1.44,166.74,-78.19,-155.81
82692,52.530956,-1.444604,146.23,10.63,3,313.99,24 / 25,8082810,2019-09-08 14:21:42:049,0.5922,-0.585,10.0625,0.0002,-0.0006,9.8066,-0.0131,0.0553,0.0034,3.06,-37.5,-2.44,169.56,-78.13,-156.41
82693,52.530956,-1.444604,146.23,10.63,3,313.99,24 / 25,8082910,2019-09-08 14:21:42:149,0.8987,-0.1329,10.6303,0.0189,-0.0243,9.8066,0.0999,-0.0139,0.0453,3.44,-38.19,-1.37,166.46,-78.34,-156.41
82694,52.530956,-1.444604,146.23,10.63,3,313.99,24 / 25,8083010,2019-09-08 14:21:42:249,-0.4501,-1.4767,10.1829,-0.011,0.0106,9.8066,0.068,-0.0445,-0.0219,3.63,-37.19,-0.87,161.74,-78.36,-156.59
82695,52.530956,-1.444604,146.23,10.63,3,313.99,24 / 25,8083110,2019-09-08 14:21:42:349,1.5646,-0.7121,9.4589,-0.0026,-0.0213,9.8066,-0.0091,-0.0445,0.0377,2.81,-36.44,-1.37,165.74,-78.31,-157.09
82696,52.530956,-1.444604,146.23,10.63,3,313.99,24 / 25,8083210,2019-09-08 14:21:42:449,1.5896,-0.2752,9.9581,-0.0189,0.0039,9.8066,0.0109,-0.1171,0.0953,3.13,-35.81,-2.25,168.97,-78.28,-157.37
82697,52.530956,-1.444604,146.23,10.63,3,313.99,24 / 25,8083310,2019-09-08 14:21:42:549,-0.6399,-0.5928,9.7822,0.0016,0.0184,9.8066,0.0842,0.0512,-0.0311,2.81,-36.87,-3.81,174.37,-78.3,-157.12
82698,52.530956,-1.444604,146.23,10.63,3,313.99,24 / 25,8083410,2019-09-08 14:21:42:649,0.4803,-1.3793,10.1408,0.0099,0.0049,9.8066,-0.0642,0.0666,-0.0531,3.38,-37.12,-3.19,171.78,-78.38,-157.6
82699,52.530956,-1.444604,146.23,10.63,3,313.99,24 / 25,8083510,2019-09-08 14:21:42:749,-0.2027,-0.821,9.6014,-0.0125,-0.0024,9.8066,-0.1108,-0.0289,0.0354,3.0,-37.81,-2.44,169.23,-78.32,-157.75
82700,52.530956,-1.444604,146.23,10.63,3,313.99,24 / 25,8083610,2019-09-08 14:21:42:849,0.8225,-0.9572,10.2953,0.0048,-0.0139,9.8066,0.128,-0.0526,0.0029,3.44,-37.12,-1.37,165.97,-78.25,-157.52
82701,52.530956,-1.444604,146.23,10.63,3,313.99,24 / 24,8083711,2019-09-08 14:21:42:950,-0.061,0.0263,10.1928,-0.0179,0.0277,9.8066,0.0458,-0.0102,-0.0014,3.19,-36.87,-1.87,169.0,-78.43,-157.61
82702,52.530956,-1.444604,146.23,10.63,3,313.99,24 / 24,8083810,2019-09-08 14:21:43:049,0.6114,-2.3047,9.6453,-0.02,0.0333,9.8065,-0.0924,-0.0036,0.0171,2.5,-36.94,-2.62,171.71,-78.24,-157.97
82703,52.530956,-1.444604,146.23,10.63,3,313.99,24 / 24,8083910,2019-09-08 14:21:43:149,0.2305,-0.6745,9.4027,0.0195,-0.0238,9.8065,-0.0704,0.0002,0.0014,3.75,-37.5,-2.5,164.68,-78.29,-157.95
