,GPS LATITUDE (degrees), GPS LONGITUDE (degrees), GPS ALTITUDE (m), GPS SPEED (Kmh), GPS ACCURACY (m), GPS ORIENTATION (Â°),GPS SATELLITES IN RANGE, TIME SINCE START (ms), DATE (YYYY-MO-DD HH-MI-SS_SSS), ACCELEROMETER X (m/s²) , ACCELEROMETER Y (m/s²), ACCELEROMETER Z (m/s²), GRAVITY X (m/s²), GRAVITY Y (m/s²), GRAVITY Z (m/s²), GYROSCOPE Yaw (rad/s), GYROSCOPE Pitch (rad/s), GYROSCOPE Roll (rad/s), MAGNETIC FIELD X (Î¼T), MAGNETIC FIELD Y (Î¼T), MAGNETIC FIELD Z (Î¼T), ORIENTATION (Yaw) (Â°), ORIENTATION (Pitch) (Â°), ORIENTATION (Roll ) (Â°)
53816,52.36105,-1.436279,137.95,13.97,4.0,229.96,22 / 24,960276,2019-09-07 10:43:13:430,1.2101,0.3584,10.4059,-0.0036,-0.0044,9.8065,0.0106,0.021,-0.0262,-14.81,-28.25,29.06,6.08,-76.63,-147.94
53817,52.36105,-1.436279,137.95,13.97,4.0,229.96,22 / 24,960375,2019-09-07 10:43:13:529,0.6848,0.5244,10.2201,0.0073,0.001,9.8065,-0.0057,0.0373,-0.0339,-14.81,-28.25,29.06,5.79,-76.6,-148.16
53818,52.36105,-1.436279,137.95,13.97,4.0,229.96,22 / 24,960475,2019-09-07 10:43:13:629,0.3989,1.0471,10.3646,-0.0031,0.003,9.8066,-0.0206,0.0406,-0.0264,-15.0,-28.31,29.5,6.73,-76.65,-148.18
53819,52.36105,-1.436279,137.95,13.97,4.0,229.96,22 / 24,960576,2019-09-07 10:43:13:730,0.5754,0.792,9.3105,0.0144,0.0163,9.8066,-0.0328,0.0141,-0.0732,-15.06,-28.19,29.69,6.45,-76.77,-148.39
53820,52.36105,-1.436279,137.95,13.97,4.0,229.96,22 / 24,960675,2019-09-07 10:43:13:829,0.834,0.051,9.2554,0.0084,0.0127,9.8066,-0.0159,0.0337,-0.0531,-15.12,-28.62,29.31,4.57,-77.03,-149.11
53821,52.36105,-1.436279,137.95,13.97,4.0,229.96,22 / 24,960776,2019-09-07 10:43:13:930,0.0752,1.0097,10.368,0.0115,0.0168,9.8066,-0.016,0.0368,-0.0656,-14.75,-28.31,29.69,5.01,-77.17,-149.48
53822,52.36105,-1.436279,137.95,13.97,4.0,229.96,22 / 24,960875,2019-09-07 10:43:14:029,0.8486,0.668,10.0019,0.0159,0.0147,9.8065,0.0116,0.0574,-0.0473,-14.5,-28.69,29.63,5.59,-77.47,-150.58
53823,52.36105,-1.436279,137.95,13.97,4.0,229.96,22 / 24,960975,2019-09-07 10:43:14:129,0.4634,1.1394,10.2315,0.0128,0.0022,9.8066,0.0199,0.0327,-0.0626,-14.44,-28.69,29.88,4.37,-77.51,-151.54
53824,52.36105,-1.436279,137.95,13.97,4.0,229.96,22 / 24,961075,2019-09-07 10:43:14:229,1.2068,1.1983,10.3596,0.0103,0.0008,9.8066,0.0117,0.0372,-0.0159,-14.06,-28.19,30.44,3.57,-77.5,-152.15
53825,52.36105,-1.436279,137.95,13.97,4.0,229.96,22 / 24,961176,2019-09-07 10:43:14:330,0.8667,0.3794,9.7879,-0.0042,0.0012,9.8066,0.0032,0.0911,0.0516,-14.56,-28.12,29.44,0.5,-77.49,-152.26
53826,52.36105,-1.436279,137.95,13.97,4.0,229.96,23 / 24,961275,2019-09-07 10:43:14:429,0.2393,0.516,10.6125,-0.0197,0.0049,9.8066,-0.014,0.0746,0.0556,-15.0,-28.62,29.69,2.75,-77.54,-151.26
53827,52.36105,-1.436279,137.95,13.97,4.0,229.96,23 / 24,961375,2019-09-07 10:43:14:529,0.2375,0.8095,9.3138,-0.0178,-0.0051,9.8066,-0.0064,0.0393,0.0374,-15.12,-28.19,30.13,4.02,-77.53,-150.24
53828,52.36105,-1.436279,137.95,13.97,4.0,229.96,23 / 24,961475,2019-09-07 10:43:14:629,0.4563,0.5698,9.7388,-0.0079,-0.0085,9.8065,-0.0124,0.003,0.0044,-15.87,-28.75,29.69,3.51,-77.38,-149.16
53829,52.36105,-1.436279,137.95,13.97,4.0,229.96,23 / 24,961576,2019-09-07 10:43:14:730,-0.1817,-0.3648,10.0437,-0.0081,-0.0022,9.8066,-0.0148,0.0134,0.0176,-15.37,-28.75,29.88,6.13,-77.32,-148.61
53830,52.36105,-1.436279,137.95,13.97,4.0,229.96,23 / 24,961676,2019-09-07 10:43:14:830,0.099,0.3268,10.514,-0.0065,0.0103,9.8066,0.0103,0.1316,0.0752,-15.81,-28.87,30.0,4.91,-77.36,-148.05
53831,52.36105,-1.436279,137.95,13.97,4.0,229.96,23 / 24,961776,2019-09-07 10:43:14:930,0.1077,0.0804,9.8306,-0.0068,0.017,9.8065,-0.037,0.0586,0.0164,-15.0,-28.31,29.75,7.86,-77.42,-147.18
53832,52.36105,-1.436279,137.95,13.97,4.0,229.96,23 / 24,961876,2019-09-07 10:43:15:030,1.0157,0.5374,9.7184,-0.0023,0.0019,9.8066,-0.047,-0.0494,-0.0903,-14.75,-28.87,29.75,8.68,-77.59,-146.56
53833,52.36105,-1.436279,137.95,13.97,4.0,229.96,23 / 24,961975,2019-09-07 10:43:15:129,1.1668,-0.8874,12.167,0.004,-0.0134,9.8066,0.0217,-0.0254,-0.0377,-15.81,-27.94,29.81,6.24,-77.59,-146.93
53834,52.36105,-1.436279,137.95,13.97,4.0,229.96,23 / 24,962075,2019-09-07 10:43:15:229,0.303,0.4557,7.9434,-0.0034,0.002,9.8066,0.021,0.0232,-0.0168,-15.62,-28.62,29.5,6.08,-77.55,-147.11
53835,52.36105,-1.436279,137.95,13.97,4.0,229.96,23 / 24,962175,2019-09-07 10:43:15:329,0.3337,-0.0821,9.6607,-0.0008,0.0064,9.8066,-0.006,0.0799,0.0223,-15.56,-28.25,28.88,4.55,-77.54,-147.5
53836,52.36105,-1.436279,137.95,13.97,4.0,229.96,23 / 24,962276,2019-09-07 10:43:15:430,1.0679,0.4591,9.5914,0.0124,0.0069,9.8066,0.0012,0.0355,-0.0463,-15.75,-28.25,29.38,4.22,-77.64,-147.76
53837,52.36105,-1.436279,137.95,13.97,4.0,229.96,23 / 24,962377,2019-09-07 10:43:15:531,0.1382,0.9468,9.727,0.003,-0.002,9.8066,0.0035,0.0096,-0.0405,-16.0,-28.5,29.56,4.7,-77.73,-148.16
53838,52.36105,-1.436279,137.95,13.97,4.0,229.96,23 / 24,962476,2019-09-07 10:43:15:630,0.9946,0.5424,9.4263,0.0087,-0.0078,9.8066,0.0222,0.0144,-0.0236,-16.25,-27.94,29.81,3.84,-77.7,-148.85
53839,52.36105,-1.436279,137.95,13.97,4.0,229.96,23 / 24,962576,2019-09-07 10:43:15:730,0.347,0.4156,9.4939,0.0089,-0.0099,9.8066,0.0277,0.0243,-0.0111,-15.31,-27.81,29.56,4.93,-77.52,-149.51
53840,52.36105,-1.436279,137.95,13.97,4.0,229.96,23 / 24,962675,2019-09-07 10:43:15:829,0.5824,-0.0658,9.5764,0.0008,-0.0035,9.8066,-0.0081,0.0105,0.0122,-15.25,-27.87,30.0,4.97,-77.41,-149.49
53841,52.36105,-1.436279,137.95,13.97,4.0,229.96,23 / 24,962775,2019-09-07 10:43:15:929,-1.1703,1.0565,9.54,0.001,0.0014,9.8066,0.0012,0.0661,0.0593,-15.37,-28.62,29.75,5.51,-77.32,-149.1
53842,52.36105,-1.436279,137.95,13.97,4.0,229.96,23 / 24,962875,2019-09-07 10:43:16:029,0.0298,-0.1561,9.8494,-0.0105,-0.002,9.8066,-0.0169,0.0367,0.036,-16.12,-28.0,29.94,4.25,-77.28,-148.55
53843,52.36105,-1.436279,137.95,13.97,4.0,229.96,23 / 24,962975,2019-09-07 10:43:16:129,-0.3284,0.8773,9.9111,-0.026,0.0124,9.8065,-0.0576,0.0112,-0.0251,-16.56,-28.06,29.75,3.59,-77.37,-147.6
53844,52.36105,-1.436279,137.95,13.97,4.0,229.96,23 / 24,963076,2019-09-07 10:43:16:230,0.1214,0.9933,10.2657,-0.0068,0.0071,9.8066,-0.0173,-0.0179,-0.0261,-15.94,-27.94,29.13,5.93,-77.58,-146.4
53845,52.36105,-1.436279,137.95,13.97,4.0,229.96,23 / 24,963175,2019-09-07 10:43:16:329,-0.3097,-0.3629,10.5415,0.0182,-0.0289,9.8065,0.0744,0.0176,-0.0335,-15.94,-28.44,29.63,5.63,-77.33,-147.45
53846,52.36105,-1.436279,137.95,13.97,4.0,229.96,22 / 23,963275,2019-09-07 10:43:16:429,0.6675,-0.6394,11.181,0.0208,-0.0073,9.8066,0.0234,0.0321,-0.0292,-16.69,-28.37,30.19,2.29,-77.2,-148.64
53847,52.36105,-1.436279,137.95,13.97,4.0,229.96,22 / 23,963376,2019-09-07 10:43:16:530,0.2253,-0.491,9.2573,0.0071,0.0232,9.8066,-0.036,0.0409,-0.0601,-16.62,-27.94,29.94,1.45,-77.38,-149.31
53848,52.36105,-1.436279,137.95,13.97,4.0,229.96,22 / 23,963475,2019-09-07 10:43:16:629,-0.3294,-0.4283,10.8656,-0.0158,0.0288,9.8065,-0.1164,-0.008,0.0003,-16.06,-28.44,30.0,3.61,-77.81,-149.03
53849,52.36105,-1.436279,137.95,13.97,4.0,229.96,22 / 23,963576,2019-09-07 10:43:16:730,1.2719,1.9787,9.0305,-0.0082,0.0286,9.8066,-0.0202,0.0904,0.0407,-16.0,-28.31,29.63,5.01,-78.2,-147.87
53850,52.36105,-1.436279,137.95,13.97,4.0,229.96,22 / 23,963675,2019-09-07 10:43:16:829,1.4306,1.2786,10.416,-0.004,-0.0026,9.8066,0.0623,0.0428,0.0307,-16.19,-28.37,28.88,5.02,-78.36,-147.05
53851,52.36105,-1.436279,137.95,13.97,4.0,229.96,22 / 23,963775,2019-09-07 10:43:16:929,0.8509,0.4635,10.4942,-0.0003,-0.0326,9.8065,0.0462,-0.0496,-0.0321,-16.25,-28.75,29.69,6.0,-77.91,-147.13
53852,52.36105,-1.436279,137.95,13.97,4.0,229.96,22 / 23,963876,2019-09-07 10:43:17:030,-0.1266,0.3113,10.2219,0.0063,-0.0238,9.8065,0.0188,-0.0233,-0.0224,-17.0,-28.56,29.56,3.36,-77.65,-147.78
53853,52.36105,-1.436279,137.95,13.97,4.0,229.96,22 / 23,963975,2019-09-07 10:43:17:129,-0.2026,0.176,9.931,0.0028,0.0012,9.8066,0.0065,0.0544,0.0135,-16.94,-27.87,30.69,4.02,-77.54,-148.02
53854,52.36105,-1.436279,137.95,13.97,4.0,229.96,22 / 23,964075,2019-09-07 10:43:17:229,-0.3373,0.7535,10.8891,0.0079,0.0163,9.8065,0.0137,0.0903,0.0201,-15.87,-28.0,30.0,4.48,-77.7,-148.34
53855,52.36105,-1.436279,137.95,13.97,4.0,229.96,22 / 23,964176,2019-09-07 10:43:17:330,-0.0657,0.6156,8.9736,0.0124,-0.0076,9.8066,0.0132,-0.0399,-0.0786,-16.19,-28.56,29.81,3.79,-77.78,-148.91
53856,52.36105,-1.436279,137.95,13.97,4.0,229.96,23 / 24,964276,2019-09-07 10:43:17:430,0.5875,0.6806,9.4466,0.0169,0.0032,9.8065,0.0155,-0.0023,-0.0284,-15.5,-28.12,30.06,4.18,-77.72,-150.09
53857,52.36105,-1.436279,137.95,13.97,4.0,229.96,23 / 24,964376,2019-09-07 10:43:17:530,0.6652,0.9161,10.1079,-0.0039,0.0045,9.8065,-0.0092,-0.0031,-0.001,-16.06,-28.06,30.25,1.82,-77.75,-150.47
53858,52.36105,-1.436279,137.95,13.97,4.0,229.96,23 / 24,964475,2019-09-07 10:43:17:629,-0.0446,0.7406,8.7706,-0.003,-0.0012,9.8065,-0.0101,-0.0114,-0.0148,-15.75,-27.5,29.75,1.99,-77.78,-150.31
53859,52.36105,-1.436279,137.95,13.97,4.0,229.96,23 / 24,964576,2019-09-07 10:43:17:730,-0.6079,0.0029,10.0476,0.0028,0.0202,9.8066,-0.0289,0.0239,-0.0148,-15.62,-28.37,29.38,1.13,-77.85,-150.21
53860,52.36105,-1.436279,137.95,13.97,4.0,229.96,23 / 24,964676,2019-09-07 10:43:17:830,-0.2497,0.9111,9.5133,0.0088,0.0034,9.8066,0.0116,-0.0164,-0.045,-16.06,-28.5,29.06,0.79,-78.04,-150.48
53861,52.36105,-1.436279,137.95,13.97,4.0,229.96,23 / 24,964775,2019-09-07 10:43:17:929,0.7452,0.3881,9.5405,0.0032,-0.0146,9.8066,0.0243,0.0249,0.0159,-14.75,-28.5,29.88,2.7,-77.9,-151.26
53862,52.36105,-1.436279,137.95,13.97,4.0,229.96,23 / 24,964875,2019-09-07 10:43:18:029,0.2336,0.1202,10.0204,-0.0125,-0.0041,9.8065,-0.0129,0.0226,0.0497,-15.06,-27.25,30.56,4.03,-77.83,-150.91
53863,52.36105,-1.436279,137.95,13.97,4.0,229.96,23 / 24,964975,2019-09-07 10:43:18:129,-0.9665,0.2584,10.1077,-0.0018,0.0078,9.8066,0.0046,0.0412,0.0069,-14.75,-27.31,31.63,5.78,-77.86,-150.16
53864,52.36105,-1.436279,137.95,13.97,4.0,229.96,23 / 24,965076,2019-09-07 10:43:18:230,-0.1569,0.2632,9.1499,0.0033,0.0031,9.8066,0.0072,0.0357,0.0263,-17.06,-26.31,32.06,2.12,-77.94,-150.27
53865,52.36105,-1.436279,137.95,13.97,4.0,229.96,23 / 24,965176,2019-09-07 10:43:18:330,0.3767,0.274,9.3985,-0.0017,0.0036,9.8066,-0.0245,0.0205,-0.0095,-18.56,-27.19,30.19,357.06,-77.94,-150.06
53866,52.36105,-1.436279,137.95,13.97,4.0,229.96,23 / 24,965276,2019-09-07 10:43:18:430,0.4002,0.6218,9.7193,-0.0073,0.0064,9.8066,-0.0227,0.0244,0.0105,-17.44,-27.94,29.75,0.75,-78.05,-149.85
53867,52.36105,-1.436279,137.95,13.97,4.0,229.96,23 / 24,965376,2019-09-07 10:43:18:530,-0.3214,0.5784,10.1156,-0.0083,-0.0051,9.8066,-0.001,-0.028,-0.0136,-17.5,-27.81,29.38,0.43,-78.09,-149.27
53868,52.36105,-1.436279,137.95,13.97,4.0,229.96,23 / 24,965475,2019-09-07 10:43:18:629,-0.0408,0.2731,10.293,-0.0009,-0.0049,9.8065,0.0067,-0.0038,0.0027,-17.06,-27.87,28.88,0.88,-77.97,-148.91
53869,52.36105,-1.436279,137.95,13.97,4.0,229.96,23 / 24,965575,2019-09-07 10:43:18:729,0.2696,0.4628,10.2566,0.0007,-0.0005,9.8066,0.0025,0.0165,-0.0035,-16.87,-27.31,29.13,1.01,-77.88,-148.8
53870,52.36105,-1.436279,137.95,13.97,4.0,229.96,23 / 24,965676,2019-09-07 10:43:18:830,0.0213,0.0476,9.5089,-0.007,-0.0057,9.8066,-0.0091,-0.025,-0.0131,-16.75,-27.56,29.63,2.28,-77.84,-148.62
53871,52.36105,-1.436279,137.95,13.97,4.0,229.96,23 / 24,965775,2019-09-07 10:43:18:929,0.498,0.4583,9.4668,0.0055,0.0071,9.8066,-0.0177,-0.0034,-0.0348,-17.19,-27.69,29.81,2.01,-77.89,-148.84
53872,52.36105,-1.436279,137.95,13.97,4.0,229.96,23 / 24,965875,2019-09-07 10:43:19:029,-0.6385,0.7126,9.7064,0.0008,0.0049,9.8066,0.0003,-0.0259,-0.0302,-16.87,-28.44,29.81,2.04,-77.94,-148.82
53873,52.36105,-1.436279,137.95,13.97,4.0,229.96,23 / 24,965975,2019-09-07 10:43:19:129,0.5737,0.8452,9.3578,0.0078,-0.0078,9.8066,0.0115,0.0057,-0.0311,-17.31,-28.06,29.88,1.19,-77.9,-149.5
53874,52.36105,-1.436279,137.95,13.97,4.0,229.96,23 / 24,966075,2019-09-07 10:43:19:229,0.3233,0.2528,9.5244,-0.0017,0.0011,9.8065,-0.0182,0.0316,0.007,-16.75,-27.56,30.44,0.71,-77.85,-149.89
53875,52.36105,-1.436279,137.95,13.97,4.0,229.96,23 / 24,966176,2019-09-07 10:43:19:330,-0.5336,-0.6355,9.1339,0.0092,0.0178,9.8066,-0.0234,0.0437,-0.061,-16.87,-28.12,29.69,1.2,-77.93,-149.49
53876,52.36105,-1.436279,137.95,13.97,4.0,229.96,24 / 25,966275,2019-09-07 10:43:19:429,0.3703,0.1473,9.9354,0.0089,0.0248,9.8065,-0.0234,0.0395,-0.0056,-16.56,-28.37,29.69,0.33,-78.27,-150.19
53877,52.36105,-1.436279,137.95,13.97,4.0,229.96,24 / 25,966376,2019-09-07 10:43:19:530,0.2587,1.4023,10.0546,0.0067,-0.0044,9.8066,0.0112,-0.0429,-0.0915,-17.0,-27.69,30.0,0.17,-78.41,-150.32
53878,52.36105,-1.436279,137.95,13.97,4.0,229.96,24 / 25,966476,2019-09-07 10:43:19:630,-0.3888,1.2614,9.651,0.0204,0.0007,9.8066,0.0602,0.0398,-0.0209,-16.75,-28.06,29.88,358.49,-78.37,-151.69
53879,52.36105,-1.436279,137.95,13.97,4.0,229.96,24 / 25,966576,2019-09-07 10:43:19:730,1.0958,0.7311,9.6116,0.0116,-0.0108,9.8066,0.043,0.0286,0.0009,-16.62,-27.94,30.5,357.93,-78.29,-152.95
53880,52.36105,-1.436279,137.95,13.97,4.0,229.96,24 / 25,966675,2019-09-07 10:43:19:829,0.082,0.1773,10.5167,-0.0045,-0.0041,9.8066,0.017,0.0347,0.0112,-16.44,-28.44,30.44,358.32,-78.18,-153.29
53881,52.36105,-1.436279,137.95,13.97,4.0,229.96,24 / 25,966776,2019-09-07 10:43:19:930,-0.0179,0.9237,11.1022,0.0068,0.0067,9.8066,0.0062,0.0864,0.0409,-16.44,-28.06,30.5,358.88,-78.24,-153.62
53882,52.36105,-1.436279,137.95,13.97,4.0,229.96,24 / 25,966876,2019-09-07 10:43:20:030,0.2329,0.7762,8.7024,-0.003,0.0038,9.8066,-0.0107,0.0309,-0.0164,-16.62,-28.06,30.31,356.47,-78.28,-153.33
53883,52.36105,-1.436279,137.95,13.97,4.0,229.96,24 / 25,966976,2019-09-07 10:43:20:130,-0.1437,0.6372,9.8974,0.0088,0.0069,9.8066,-0.0094,0.0317,-0.0267,-17.06,-27.69,31.19,357.52,-78.41,-153.3
53884,52.36105,-1.436279,137.95,13.97,4.0,229.96,24 / 25,967076,2019-09-07 10:43:20:230,0.6497,-0.049,9.8979,0.0027,0.0058,9.8066,0.0065,0.0116,-0.0437,-16.87,-27.31,30.5,356.87,-78.52,-153.85
53885,52.36105,-1.436279,137.95,13.97,4.0,229.96,24 / 25,967175,2019-09-07 10:43:20:329,0.143,0.8144,9.3649,0.0054,0.0049,9.8066,0.0213,0.0757,0.0013,-16.0,-28.19,30.63,358.04,-78.52,-154.31
53886,52.36105,-1.436279,137.95,13.97,4.0,229.96,23 / 24,967276,2019-09-07 10:43:20:430,-0.0116,1.3162,9.2407,-0.0026,-0.0013,9.8066,-0.0061,0.0254,-0.012,-16.25,-27.94,30.88,357.84,-78.51,-154.47
53887,52.36105,-1.436279,137.95,13.97,4.0,229.96,23 / 24,967376,2019-09-07 10:43:20:530,-0.4965,0.8874,10.68,-0.004,-0.0032,9.8066,0.0349,0.0669,0.0191,-16.31,-27.62,30.63,357.68,-78.44,-154.6
53888,52.36105,-1.436279,137.95,13.97,4.0,229.96,23 / 24,967475,2019-09-07 10:43:20:629,0.7154,0.7463,9.6853,0.0071,-0.005,9.8066,0.0116,0.0805,0.0355,-16.81,-27.5,30.5,355.92,-78.29,-154.62
53889,52.36105,-1.436279,137.95,13.97,4.0,229.96,23 / 24,967575,2019-09-07 10:43:20:729,0.6148,-0.4078,11.4898,-0.0128,-0.001,9.8066,-0.0268,0.062,0.0001,-17.12,-27.81,31.0,356.53,-78.26,-154.1
53890,52.36105,-1.436279,137.95,13.97,4.0,229.96,23 / 24,967675,2019-09-07 10:43:20:829,1.3523,0.6324,8.8872,-0.0058,0.0027,9.8066,-0.0072,0.0658,-0.0032,-17.37,-27.56,31.06,357.39,-78.37,-153.4
53891,52.36105,-1.436279,137.95,13.97,4.0,229.96,23 / 24,967775,2019-09-07 10:43:20:929,1.086,0.2828,10.6313,-0.017,0.0025,9.8066,-0.036,0.0259,0.008,-16.69,-27.5,31.13,358.68,-78.38,-152.35
53892,52.36105,-1.436279,137.95,13.97,4.0,229.96,23 / 24,967876,2019-09-07 10:43:21:030,0.5655,0.7287,9.3167,-0.0191,0.002,9.8065,-0.0038,0.041,0.0029,-17.81,-28.0,30.25,357.11,-78.47,-151.4
53893,52.36105,-1.436279,137.95,13.97,4.0,229.96,23 / 24,967976,2019-09-07 10:43:21:130,-0.3574,0.0924,9.9991,-0.0038,-0.0001,9.8066,0.0123,0.0166,-0.0557,-17.75,-28.56,30.88,359.07,-78.46,-150.62
53894,52.36105,-1.436279,137.95,13.97,4.0,229.96,23 / 24,968076,2019-09-07 10:43:21:230,0.8759,0.1949,9.8012,0.022,0.003,9.8065,0.0614,0.0805,-0.028,-17.31,-27.94,30.44,358.49,-78.46,-151.69
53895,52.36105,-1.436279,137.95,13.97,4.0,229.96,23 / 24,968175,2019-09-07 10:43:21:329,0.9725,0.0946,10.0233,0.0218,0.0013,9.8065,0.0442,0.0325,-0.0809,-17.44,-27.62,31.25,357.72,-78.35,-153.13
53896,52.360126,-1.437525,140.75,15.46,3.0,213.61,23 / 25,968276,2019-09-07 10:43:21:430,1.3456,-0.3271,9.863,0.0224,0.0082,9.8066,0.0061,0.0537,-0.0438,-17.56,-27.94,31.75,354.27,-78.37,-155.38
53897,52.360126,-1.437525,140.75,15.46,3.0,213.61,23 / 25,968375,2019-09-07 10:43:21:529,0.1389,0.6007,10.7226,-0.0105,0.0069,9.8066,-0.0154,0.0786,0.0107,-17.81,-27.31,30.94,353.11,-78.45,-155.58
53898,52.360126,-1.437525,140.75,15.46,3.0,213.61,23 / 25,968476,2019-09-07 10:43:21:630,1.0268,0.9526,8.1719,-0.0077,0.0024,9.8066,-0.0281,0.0574,0.0451,-17.62,-27.56,31.0,353.56,-78.58,-155.18
53899,52.360126,-1.437525,140.75,15.46,3.0,213.61,23 / 25,968575,2019-09-07 10:43:21:729,-0.2823,0.5483,9.8784,-0.0211,0.0022,9.8066,-0.026,0.044,0.043,-17.44,-27.87,30.88,357.29,-78.61,-153.49
53900,52.360126,-1.437525,140.75,15.46,3.0,213.61,23 / 25,968675,2019-09-07 10:43:21:829,0.317,0.4113,9.4194,-0.0151,-0.0126,9.8066,0.0272,0.0573,0.0525,-17.62,-27.81,30.94,356.44,-78.53,-152.79
53901,52.360126,-1.437525,140.75,15.46,3.0,213.61,23 / 25,968775,2019-09-07 10:43:21:929,-0.1608,1.7746,9.23,0.0051,-0.0034,9.8066,0.0188,0.0158,-0.0027,-17.69,-27.19,31.31,356.9,-78.36,-152.43
53902,52.360126,-1.437525,140.75,15.46,3.0,213.61,23 / 25,968875,2019-09-07 10:43:22:029,-0.1299,0.3932,10.2899,0.0077,-0.0166,9.8066,0.0442,0.0523,-0.0324,-17.62,-27.56,31.25,356.35,-78.16,-152.84
53903,52.360126,-1.437525,140.75,15.46,3.0,213.61,23 / 25,968975,2019-09-07 10:43:22:129,0.2905,0.3949,10.8297,0.0078,-0.0034,9.8066,0.0319,0.0857,0.0259,-17.56,-27.56,31.88,356.4,-78.05,-153.6
53904,52.360126,-1.437525,140.75,15.46,3.0,213.61,23 / 25,969075,2019-09-07 10:43:22:229,0.74,0.4632,8.9629,0.0087,0.0111,9.8065,-0.0841,-0.0112,-0.0478,-17.81,-27.56,31.5,355.54,-78.14,-154.31
53905,52.360126,-1.437525,140.75,15.46,3.0,213.61,23 / 25,969176,2019-09-07 10:43:22:330,0.4982,1.1616,10.0381,-0.0002,0.0174,9.8065,-0.032,0.0756,-0.0251,-17.81,-27.56,31.13,354.84,-78.5,-154.11
53906,52.360126,-1.437525,140.75,15.46,3.0,213.61,22 / 24,969276,2019-09-07 10:43:22:430,0.3671,1.0026,9.7608,0.0161,-0.0094,9.8065,0.0108,0.0028,-0.0369,-17.31,-27.69,31.75,356.42,-78.54,-154.98
53907,52.360126,-1.437525,140.75,15.46,3.0,213.61,22 / 24,969375,2019-09-07 10:43:22:529,0.0545,0.7448,9.725,0.0118,0.0034,9.8066,0.0206,0.0722,-0.0114,-18.37,-27.37,31.69,354.21,-78.48,-155.46
53908,52.360126,-1.437525,140.75,15.46,3.0,213.61,22 / 24,969475,2019-09-07 10:43:22:629,-0.4576,0.3543,9.0538,0.0102,0.0023,9.8065,-0.0374,-0.0395,-0.0592,-17.44,-27.31,30.56,353.37,-78.56,-156.76
53909,52.360126,-1.437525,140.75,15.46,3.0,213.61,22 / 24,969575,2019-09-07 10:43:22:729,0.6429,0.0605,9.4628,0.003,0.0093,9.8066,-0.0162,0.0489,-0.0059,-16.25,-27.62,30.81,354.91,-78.6,-156.89
53910,52.360126,-1.437525,140.75,15.46,3.0,213.61,22 / 24,969676,2019-09-07 10:43:22:830,0.6867,1.3805,9.1316,-0.0001,0.0058,9.8066,-0.018,0.0191,0.0146,-16.25,-27.37,31.63,355.63,-78.71,-157.07
53911,52.360126,-1.437525,140.75,15.46,3.0,213.61,22 / 24,969776,2019-09-07 10:43:22:930,0.2631,0.5555,9.4984,-0.0172,0.0012,9.8066,-0.0437,-0.0478,-0.0144,-17.62,-27.44,31.38,352.73,-78.76,-155.92
53912,52.360126,-1.437525,140.75,15.46,3.0,213.61,22 / 24,969876,2019-09-07 10:43:23:030,0.87,1.0996,9.0842,-0.0208,0.0024,9.8066,0.0202,0.0753,0.1014,-18.19,-27.37,31.56,355.53,-78.71,-154.39
53913,52.360126,-1.437525,140.75,15.46,3.0,213.61,22 / 24,969975,2019-09-07 10:43:23:129,-0.2165,0.3584,10.5482,-0.0275,-0.0115,9.8066,-0.0382,-0.0653,0.0091,-18.62,-27.31,31.56,355.6,-78.6,-152.98
53914,52.360126,-1.437525,140.75,15.46,3.0,213.61,22 / 24,970076,2019-09-07 10:43:23:230,-0.6249,1.3215,9.8175,-0.0202,-0.0078,9.8065,0.027,-0.0027,0.0063,-18.06,-27.44,31.38,359.0,-78.4,-150.69
53915,52.360126,-1.437525,140.75,15.46,3.0,213.61,22 / 24,970176,2019-09-07 10:43:23:330,0.3565,-0.1606,8.9917,-0.0009,-0.0152,9.8066,0.0291,-0.0118,-0.0268,-18.62,-27.56,31.56,358.93,-78.2,-150.18
53916,52.360126,-1.437525,140.75,15.46,3.0,213.61,23 / 24,970276,2019-09-07 10:43:23:430,0.1247,-0.1595,10.3473,0.0123,0.0051,9.8066,-0.0173,-0.0143,-0.0895,-18.12,-27.19,31.75,359.85,-78.16,-150.77
53917,52.360126,-1.437525,140.75,15.46,3.0,213.61,23 / 24,970375,2019-09-07 10:43:23:529,0.1111,-0.2147,8.4475,0.0107,0.0078,9.8065,-0.0052,0.0215,-0.0517,-18.44,-28.12,31.75,358.44,-78.32,-151.93
53918,52.360126,-1.437525,140.75,15.46,3.0,213.61,23 / 24,970476,2019-09-07 10:43:23:630,0.2948,0.6483,9.2978,0.0084,0.0309,9.8066,-0.0689,0.0122,-0.0414,-18.56,-27.62,31.44,355.32,-78.59,-152.37
53919,52.360126,-1.437525,140.75,15.46,3.0,213.61,23 / 24,970575,2019-09-07 10:43:23:729,-0.0265,0.5168,10.3138,0.0044,0.021,9.8066,-0.048,0.0108,-0.0571,-18.12,-27.19,31.25,356.96,-78.89,-152.4
53920,52.360126,-1.437525,140.75,15.46,3.0,213.61,23 / 24,970675,2019-09-07 10:43:23:829,-0.1302,0.2731,9.1147,-0.0037,0.0033,9.8066,-0.0554,-0.0139,0.0026,-18.44,-27.87,31.63,357.42,-79.07,-152.8
53921,52.360126,-1.437525,140.75,15.46,3.0,213.61,23 / 24,970775,2019-09-07 10:43:23:929,-0.2878,1.3198,9.9977,-0.021,0.0211,9.8066,-0.0644,0.0413,0.0237,-18.56,-27.31,30.63,356.21,-79.18,-151.69
53922,52.360126,-1.437525,140.75,15.46,3.0,213.61,23 / 24,970875,2019-09-07 10:43:24:029,0.026,0.5346,9.2306,-0.0063,0.0089,9.8066,0.01,0.0223,-0.0177,-18.25,-28.12,31.06,359.18,-79.45,-150.54
53923,52.360126,-1.437525,140.75,15.46,3.0,213.61,23 / 24,970975,2019-09-07 10:43:24:129,-0.4914,1.0564,10.2075,0.0038,-0.0121,9.8066,0.0417,0.0529,0.0156,-18.62,-27.56,30.44,356.29,-79.33,-150.76
53924,52.360126,-1.437525,140.75,15.46,3.0,213.61,23 / 24,971075,2019-09-07 10:43:24:229,0.2629,0.8057,10.4436,0.0053,-0.0076,9.8066,0.0065,0.0209,0.007,-18.06,-27.94,31.38,358.24,-79.23,-151.33
53925,52.360126,-1.437525,140.75,15.46,3.0,213.61,23 / 24,971175,2019-09-07 10:43:24:329,-0.3443,1.1485,8.8566,0.0029,0.0043,9.8066,0.0188,0.0446,-0.011,-18.69,-28.06,30.63,357.36,-79.17,-150.71
53926,52.360126,-1.437525,140.75,15.46,3.0,213.61,23 / 24,971275,2019-09-07 10:43:24:429,0.2364,1.3854,11.3091,0.0002,-0.0163,9.8066,-0.0117,-0.0942,-0.0714,-18.62,-27.56,31.31,357.02,-79.09,-150.99
53927,52.360126,-1.437525,140.75,15.46,3.0,213.61,23 / 24,971375,2019-09-07 10:43:24:529,-0.5291,0.3578,10.3582,-0.0002,-0.0062,9.8066,-0.0077,-0.0275,-0.0263,-18.75,-28.0,31.88,357.85,-78.91,-151.1
53928,52.360126,-1.437525,140.75,15.46,3.0,213.61,23 / 24,971476,2019-09-07 10:43:24:630,0.0406,0.8724,9.3246,0.004,0.0045,9.8066,-0.0097,0.0387,-0.0131,-19.0,-27.44,31.69,357.77,-78.93,-151.18
53929,52.360126,-1.437525,140.75,15.46,3.0,213.61,23 / 24,971575,2019-09-07 10:43:24:729,-0.1711,0.5448,9.6404,0.0127,0.0194,9.8065,-0.0319,0.0148,-0.0537,-18.25,-28.0,31.13,357.83,-79.09,-151.67
53930,52.360126,-1.437525,140.75,15.46,3.0,213.61,23 / 24,971675,2019-09-07 10:43:24:829,-0.2136,0.1953,10.1066,-0.0097,0.0135,9.8066,-0.0162,0.1239,0.0434,-18.44,-27.56,30.88,357.44,-79.39,-152.01
53931,52.360126,-1.437525,140.75,15.46,3.0,213.61,23 / 24,971775,2019-09-07 10:43:24:929,0.8159,1.5471,9.184,0.0085,0.0155,9.8066,0.0006,0.0634,0.0024,-18.56,-28.12,31.19,355.62,-79.67,-152.2
53932,52.360126,-1.437525,140.75,15.46,3.0,213.61,23 / 24,971875,2019-09-07 10:43:25:029,0.3182,1.109,10.1536,-0.0094,-0.0039,9.8066,0.0144,0.0214,0.0345,-18.69,-27.44,31.0,355.74,-79.75,-152.13
53933,52.360126,-1.437525,140.75,15.46,3.0,213.61,23 / 24,971976,2019-09-07 10:43:25:130,-0.14,0.3461,9.0681,-0.0069,-0.0196,9.8066,0.0369,0.0272,0.0386,-19.06,-27.56,31.44,356.81,-79.51,-151.19
53934,52.360126,-1.437525,140.75,15.46,3.0,213.61,23 / 24,972076,2019-09-07 10:43:25:230,-0.3601,0.1091,9.2996,-0.014,-0.0126,9.8065,-0.0049,0.0551,0.0693,-18.62,-27.69,30.88,357.71,-79.34,-150.42
53935,52.360126,-1.437525,140.75,15.46,3.0,213.61,23 / 24,972176,2019-09-07 10:43:25:330,-0.3975,0.4648,9.3227,-0.0081,0.008,9.8066,-0.0167,0.0264,0.0112,-18.5,-28.12,31.75,1.52,-79.32,-149.36
53936,52.360126,-1.437525,140.75,15.46,3.0,213.61,22 / 23,972276,2019-09-07 10:43:25:430,0.2641,0.4611,9.3072,-0.0042,0.005,9.8065,0.0004,0.0538,0.0302,-18.94,-28.19,31.0,359.67,-79.42,-148.77
53937,52.360126,-1.437525,140.75,15.46,3.0,213.61,22 / 23,972376,2019-09-07 10:43:25:530,0.0746,0.4959,9.0817,-0.0008,0.0041,9.8066,-0.0058,0.0289,-0.011,-18.81,-27.5,31.13,0.13,-79.48,-148.39
53938,52.360126,-1.437525,140.75,15.46,3.0,213.61,22 / 23,972475,2019-09-07 10:43:25:629,-0.0917,0.8748,9.9841,-0.003,0.0078,9.8065,-0.0079,0.0335,0.017,-19.31,-28.25,31.06,0.6,-79.51,-147.99
53939,52.360126,-1.437525,140.75,15.46,3.0,213.61,22 / 23,972575,2019-09-07 10:43:25:729,-0.3575,0.7442,10.4747,-0.0178,-0.0015,9.8066,-0.0328,0.0018,0.0137,-19.5,-27.94,30.31,0.41,-79.54,-147.3
53940,52.360126,-1.437525,140.75,15.46,3.0,213.61,22 / 23,972676,2019-09-07 10:43:25:830,0.7869,1.0385,8.5247,-0.005,-0.0001,9.8066,0.0147,0.0592,0.045,-19.81,-28.12,30.75,0.9,-79.53,-146.41
53941,52.360126,-1.437525,140.75,15.46,3.0,213.61,22 / 23,972776,2019-09-07 10:43:25:930,-0.3551,0.7212,10.7839,-0.0062,-0.0128,9.8066,0.0254,0.0364,0.0192,-19.44,-28.37,31.81,3.89,-79.48,-146.01
53942,52.360126,-1.437525,140.75,15.46,3.0,213.61,22 / 23,972876,2019-09-07 10:43:26:030,-0.0528,1.066,9.7976,0.0103,-0.003,9.8066,0.0063,-0.0247,-0.0704,-19.25,-27.87,30.19,1.57,-79.41,-146.33
53943,52.360126,-1.437525,140.75,15.46,3.0,213.61,22 / 23,972975,2019-09-07 10:43:26:129,0.2202,0.3333,9.4567,0.0044,0.0063,9.8066,0.0167,0.0864,0.0395,-19.31,-28.44,30.31,0.55,-79.4,-147.19
53944,52.360126,-1.437525,140.75,15.46,3.0,213.61,22 / 23,973075,2019-09-07 10:43:26:229,-0.2853,1.2719,9.409,-0.0111,0.0128,9.8066,-0.0607,0.0087,-0.0136,-19.75,-28.31,30.38,359.64,-79.54,-146.61
53945,52.360126,-1.437525,140.75,15.46,3.0,213.61,22 / 23,973176,2019-09-07 10:43:26:330,-0.778,0.9572,10.7118,0.0015,0.0054,9.8066,-0.024,-0.0366,-0.0549,-19.69,-28.31,30.56,1.62,-79.68,-145.79
53946,52.360126,-1.437525,140.75,15.46,3.0,213.61,22 / 24,973276,2019-09-07 10:43:26:430,-0.2673,0.8265,10.0036,0.0124,-0.0061,9.8065,0.0491,0.0021,-0.0402,-19.25,-28.25,30.75,2.43,-79.62,-146.44
53947,52.360126,-1.437525,140.75,15.46,3.0,213.61,22 / 24,973375,2019-09-07 10:43:26:529,0.1361,0.7042,9.2419,0.0251,-0.011,9.8065,0.0537,0.0181,-0.0546,-19.81,-27.44,30.75,359.47,-79.44,-147.62
53948,52.360126,-1.437525,140.75,15.46,3.0,213.61,22 / 24,973475,2019-09-07 10:43:26:629,0.2628,-0.2791,9.7308,0.0155,0.0081,9.8065,-0.0358,0.0167,-0.0474,-19.5,-27.87,31.38,358.67,-79.42,-149.62
53949,52.360126,-1.437525,140.75,15.46,3.0,213.61,22 / 24,973575,2019-09-07 10:43:26:729,0.0036,0.9443,8.8109,-0.0011,0.0169,9.8065,-0.0302,0.0626,-0.0191,-19.31,-27.62,31.19,358.15,-79.66,-150.06
53950,52.360126,-1.437525,140.75,15.46,3.0,213.61,22 / 24,973675,2019-09-07 10:43:26:829,-0.1359,0.2784,8.8811,-0.0026,0.014,9.8066,-0.0316,0.0119,-0.0147,-19.31,-28.06,30.81,358.12,-79.95,-150.09
53951,52.360126,-1.437525,140.75,15.46,3.0,213.61,22 / 24,973776,2019-09-07 10:43:26:930,-0.3279,0.6931,8.8633,-0.0099,0.017,9.8066,-0.0713,-0.0369,-0.0439,-19.44,-28.19,30.69,358.53,-80.28,-149.75
53952,52.360126,-1.437525,140.75,15.46,3.0,213.61,22 / 24,973876,2019-09-07 10:43:27:030,-0.1398,1.1381,10.1458,-0.0042,0.0073,9.8066,-0.0103,-0.0024,-0.0258,-19.81,-27.87,31.38,357.64,-80.38,-149.2
53953,52.360126,-1.437525,140.75,15.46,3.0,213.61,22 / 24,973976,2019-09-07 10:43:27:130,0.0687,0.7872,9.3982,0.008,-0.0063,9.8066,0.0189,-0.0044,-0.0251,-18.87,-27.81,30.5,358.81,-80.37,-149.52
53954,52.360126,-1.437525,140.75,15.46,3.0,213.61,22 / 24,974076,2019-09-07 10:43:27:230,-0.0471,-0.0829,10.4597,0.0058,-0.0103,9.8065,0.0132,-0.0283,-0.0619,-18.75,-27.81,30.94,357.75,-80.27,-150.42
53955,52.360126,-1.437525,140.75,15.46,3.0,213.61,22 / 24,974176,2019-09-07 10:43:27:330,-0.1096,0.9343,10.7923,0.0112,0.0072,9.8066,-0.0094,-0.0302,-0.0489,-19.06,-28.12,30.69,356.94,-80.22,-151.11
53956,52.360126,-1.437525,140.75,15.46,3.0,213.61,22 / 24,974276,2019-09-07 10:43:27:430,-0.5372,1.1443,9.7066,0.0056,0.0125,9.8066,-0.0063,0.0502,-0.0058,-18.81,-28.25,31.06,356.25,-80.35,-151.71
53957,52.360126,-1.437525,140.75,15.46,3.0,213.61,22 / 24,974375,2019-09-07 10:43:27:529,0.0374,0.4355,8.8724,-0.0026,0.0134,9.8065,-0.0356,0.0094,-0.0407,-19.12,-28.62,30.94,356.16,-80.55,-151.78
53958,52.360126,-1.437525,140.75,15.46,3.0,213.61,22 / 24,974476,2019-09-07 10:43:27:630,-0.5301,1.4627,10.0551,-0.0082,0.016,9.8066,-0.0224,-0.0061,-0.0187,-19.69,-27.56,31.31,354.97,-80.74,-151.52
53959,52.360126,-1.437525,140.75,15.46,3.0,213.61,22 / 24,974576,2019-09-07 10:43:27:730,0.2383,0.6738,9.6989,-0.0109,-0.0014,9.8066,-0.0118,0.0073,0.0114,-19.25,-27.87,30.44,356.03,-80.83,-151.08
53960,52.360126,-1.437525,140.75,15.46,3.0,213.61,22 / 24,974676,2019-09-07 10:43:27:830,-0.5039,0.6697,10.4088,-0.0083,-0.014,9.8065,0.0184,-0.0215,0.0059,-19.44,-28.19,30.63,358.18,-80.71,-150.06
53961,52.360126,-1.437525,140.75,15.46,3.0,213.61,22 / 24,974775,2019-09-07 10:43:27:929,0.0944,0.7025,10.8525,0.0057,-0.0047,9.8066,0.0204,0.0083,-0.0067,-19.56,-28.56,30.13,355.9,-80.55,-149.82
53962,52.360126,-1.437525,140.75,15.46,3.0,213.61,22 / 24,974875,2019-09-07 10:43:28:029,-0.381,0.3482,9.3647,0.0036,-0.0042,9.8066,0.0267,0.0408,-0.0091,-19.5,-27.56,31.13,357.88,-80.45,-150.32
53963,52.360126,-1.437525,140.75,15.46,3.0,213.61,22 / 24,974975,2019-09-07 10:43:28:129,-0.1352,0.129,9.2904,0.0111,0.0081,9.8066,0.0049,0.0246,-0.0239,-19.37,-27.62,31.13,356.54,-80.53,-151.47
53964,52.360126,-1.437525,140.75,15.46,3.0,213.61,22 / 24,975076,2019-09-07 10:43:28:230,0.2895,0.8262,9.2162,-0.0077,0.0159,9.8066,-0.0187,0.0572,0.0257,-19.69,-27.87,30.94,355.25,-80.68,-151.27
53965,52.360126,-1.437525,140.75,15.46,3.0,213.61,22 / 24,975176,2019-09-07 10:43:28:330,0.0746,0.9879,9.0037,-0.0173,0.0078,9.8065,-0.0423,0.0001,0.0011,-19.25,-28.81,30.63,357.42,-80.83,-150.71
53966,52.360126,-1.437525,140.75,15.46,3.0,213.61,22 / 25,975275,2019-09-07 10:43:28:429,-0.0708,0.4518,10.6811,-0.0124,0.0009,9.8065,-0.0246,-0.034,-0.002,-19.44,-28.19,31.19,359.33,-80.92,-149.08
53967,52.360126,-1.437525,140.75,15.46,3.0,213.61,22 / 25,975375,2019-09-07 10:43:28:529,-0.1279,0.043,9.9998,-0.0126,-0.0108,9.8066,0.0025,0.0137,0.0207,-19.81,-28.37,31.31,358.53,-80.86,-148.45
53968,52.360126,-1.437525,140.75,15.46,3.0,213.61,22 / 25,975475,2019-09-07 10:43:28:629,-0.093,0.4388,10.414,-0.0088,0.0037,9.8066,-0.0316,0.0276,0.0156,-20.44,-28.19,30.81,359.77,-80.86,-147.37
53969,52.360126,-1.437525,140.75,15.46,3.0,213.61,22 / 25,975575,2019-09-07 10:43:28:729,-0.1517,1.1452,9.199,-0.0017,0.0145,9.8065,-0.0235,0.0361,-0.0089,-20.0,-28.19,31.0,1.13,-80.96,-146.19
53970,52.360126,-1.437525,140.75,15.46,3.0,213.61,22 / 25,975676,2019-09-07 10:43:28:830,0.2347,1.0163,9.5886,-0.0092,0.0001,9.8066,-0.0118,0.027,0.011,-20.06,-28.25,30.75,1.79,-81.11,-145.61
53971,52.360126,-1.437525,140.75,15.46,3.0,213.61,22 / 25,975776,2019-09-07 10:43:28:930,0.107,0.8597,9.1103,-0.0127,-0.0026,9.8066,-0.0304,-0.0054,-0.0034,-19.87,-28.12,30.88,2.81,-81.17,-144.73
53972,52.360126,-1.437525,140.75,15.46,3.0,213.61,22 / 25,975876,2019-09-07 10:43:29:030,0.1441,1.2694,10.4608,0.0087,0.0052,9.8066,0.0158,-0.0172,-0.0465,-20.12,-27.81,30.81,2.67,-81.16,-144.85
53973,52.360126,-1.437525,140.75,15.46,3.0,213.61,22 / 25,975975,2019-09-07 10:43:29:129,-0.6887,0.0722,9.7424,0.0077,-0.0032,9.8066,0.0351,0.0683,0.0284,-20.81,-27.12,30.75,0.28,-81.08,-145.64
53974,52.360126,-1.437525,140.75,15.46,3.0,213.61,22 / 25,976075,2019-09-07 10:43:29:229,-2.4578,1.1341,11.4156,0.0093,0.0115,9.8066,0.0407,0.0993,-0.0686,-19.5,-27.56,29.75,0.96,-81.18,-146.82
53975,52.360126,-1.437525,140.75,15.46,3.0,213.61,22 / 25,976175,2019-09-07 10:43:29:329,0.2698,0.9763,9.594,0.0444,0.0243,9.8064,0.0291,0.0568,-0.0825,-18.31,-27.75,30.25,359.41,-81.34,-149.55
53976,52.360126,-1.437525,140.75,15.46,3.0,213.61,22 / 25,976276,2019-09-07 10:43:29:430,-0.0025,-0.7102,9.7304,0.0373,0.0221,9.8065,-0.0209,-0.0201,-0.1032,-18.87,-27.81,31.19,353.22,-81.7,-154.45
53977,52.360126,-1.437525,140.75,15.46,3.0,213.61,21 / 23,976375,2019-09-07 10:43:29:529,0.1306,1.0362,9.6929,0.0066,0.0111,9.8065,0.023,0.0785,0.0903,-19.06,-27.62,31.88,351.51,-81.95,-156.82
53978,52.360126,-1.437525,140.75,15.46,3.0,213.61,21 / 23,976475,2019-09-07 10:43:29:629,0.5594,-0.0369,7.9815,-0.0144,-0.013,9.8066,0.02,0.0425,0.0816,-19.06,-27.81,30.69,352.09,-81.85,-155.46
53979,52.360126,-1.437525,140.75,15.46,3.0,213.61,21 / 23,976576,2019-09-07 10:43:29:730,-0.6321,-1.4624,10.1367,-0.0504,-0.0065,9.8065,-0.1079,-0.0787,0.0241,-19.06,-27.94,30.75,354.98,-81.73,-152.91
53980,52.360126,-1.437525,140.75,15.46,3.0,213.61,21 / 23,976676,2019-09-07 10:43:29:830,-1.2548,0.6076,10.2563,-0.0287,0.0209,9.8065,-0.0812,-0.0446,-0.005,-19.19,-28.75,30.88,0.62,-81.91,-147.95
53981,52.360126,-1.437525,140.75,15.46,3.0,213.61,21 / 23,976776,2019-09-07 10:43:29:930,-0.4757,0.4056,10.5877,0.0096,0.0145,9.8065,0.025,0.0644,0.0057,-19.56,-28.44,29.5,359.19,-82.05,-147.03
53982,52.360126,-1.437525,140.75,15.46,3.0,213.61,21 / 23,976876,2019-09-07 10:43:30:030,-0.647,0.3957,10.5157,0.0145,0.0073,9.8066,0.0379,0.0741,0.0079,-19.37,-28.44,30.31,359.04,-82.18,-148.5
53983,52.360126,-1.437525,140.75,15.46,3.0,213.61,21 / 23,976976,2019-09-07 10:43:30:130,-1.307,2.0253,10.2213,0.0154,-0.0053,9.8065,0.0667,0.067,0.0157,-19.25,-28.25,30.38,356.65,-82.16,-150.61
53984,52.360126,-1.437525,140.75,15.46,3.0,213.61,21 / 23,977076,2019-09-07 10:43:30:230,0.4935,-0.0451,8.9934,0.0063,-0.0151,9.8066,0.0453,-0.0283,-0.0178,-18.94,-28.75,30.5,356.5,-82.02,-151.58
53985,52.360126,-1.437525,140.75,15.46,3.0,213.61,21 / 23,977176,2019-09-07 10:43:30:330,-0.4939,1.0675,11.7862,-0.0173,-0.0267,9.8066,-0.0552,-0.0985,-0.0298,-19.62,-28.94,30.88,354.91,-81.72,-151.63
53986,52.35902,-1.438451,142.4,14.32,3.0,203.73,21 / 23,977277,2019-09-07 10:43:30:431,-0.818,0.2896,11.0676,-0.0112,-0.0183,9.8066,0.0177,-0.0357,-0.0113,-19.94,-28.0,31.19,357.16,-81.46,-149.66
53987,52.35902,-1.438451,142.4,14.32,3.0,203.73,21 / 23,977375,2019-09-07 10:43:30:529,-0.3501,-0.2648,9.8427,-0.005,0.0008,9.8066,0.0009,0.0145,0.014,-20.25,-28.0,31.31,357.43,-81.35,-149.42
53988,52.35902,-1.438451,142.4,14.32,3.0,203.73,21 / 23,977476,2019-09-07 10:43:30:630,-0.0349,0.0394,9.2008,0.0035,0.011,9.8066,-0.0467,-0.0284,-0.0526,-19.75,-28.19,31.06,357.42,-81.46,-149.43
53989,52.35902,-1.438451,142.4,14.32,3.0,203.73,21 / 23,977575,2019-09-07 10:43:30:729,-0.595,0.3904,9.3851,0.0082,0.025,9.8065,-0.0379,0.0372,-0.026,-19.12,-28.87,30.69,358.1,-81.82,-150.16
53990,52.35902,-1.438451,142.4,14.32,3.0,203.73,21 / 23,977675,2019-09-07 10:43:30:829,-0.6589,0.8073,9.4248,0.0083,0.0265,9.8066,-0.0309,0.0369,-0.0353,-19.31,-29.25,30.0,356.05,-82.17,-151.13
53991,52.35902,-1.438451,142.4,14.32,3.0,203.73,21 / 23,977775,2019-09-07 10:43:30:929,-0.0782,0.4345,9.6023,0.0082,0.0201,9.8066,-0.0316,0.0011,-0.0504,-19.0,-28.25,30.75,355.95,-82.49,-152.1
53992,52.35902,-1.438451,142.4,14.32,3.0,203.73,21 / 23,977875,2019-09-07 10:43:31:029,-0.2369,0.511,9.1801,-0.0039,0.017,9.8066,-0.0376,0.0078,0.0009,-19.06,-28.56,30.25,354.48,-82.83,-152.56
53993,52.35902,-1.438451,142.4,14.32,3.0,203.73,21 / 23,977976,2019-09-07 10:43:31:130,-0.1232,0.7867,10.4925,-0.0002,0.007,9.8066,-0.0084,0.0152,-0.0042,-19.19,-29.12,29.31,354.06,-82.99,-152.06
53994,52.35902,-1.438451,142.4,14.32,3.0,203.73,21 / 23,978076,2019-09-07 10:43:31:230,-0.3028,0.6199,10.0479,-0.0181,0.0026,9.8065,-0.0587,-0.0414,0.0117,-19.69,-28.69,30.13,355.12,-83.09,-150.68
53995,52.35902,-1.438451,142.4,14.32,3.0,203.73,21 / 23,978175,2019-09-07 10:43:31:329,-0.1439,1.0027,9.2548,-0.0079,-0.0015,9.8065,-0.0087,0.0053,0.0195,-19.37,-28.94,30.19,358.95,-83.15,-148.6
53996,52.35902,-1.438451,142.4,14.32,3.0,203.73,23 / 24,978275,2019-09-07 10:43:31:429,-0.0138,0.2013,9.9873,-0.0075,-0.0087,9.8066,0.0109,0.0251,0.036,-19.12,-29.19,29.44,358.89,-83.09,-147.75
53997,52.35902,-1.438451,142.4,14.32,3.0,203.73,23 / 24,978376,2019-09-07 10:43:31:530,-0.2174,0.8755,9.1474,-0.0114,-0.005,9.8066,0.0121,0.0622,0.0537,-19.5,-29.06,29.38,359.56,-83.05,-147.16
53998,52.35902,-1.438451,142.4,14.32,3.0,203.73,23 / 24,978475,2019-09-07 10:43:31:629,-1.0952,0.8657,9.6536,-0.0035,-0.0031,9.8065,0.0237,-0.0188,-0.015,-19.5,-28.62,29.63,1.67,-82.98,-146.16
53999,52.35902,-1.438451,142.4,14.32,3.0,203.73,23 / 24,978575,2019-09-07 10:43:31:729,-0.3672,0.3351,9.6209,-0.0008,-0.0076,9.8066,0.0039,-0.0346,-0.0205,-19.62,-28.37,30.13,359.86,-82.87,-146.44
54000,52.35902,-1.438451,142.4,14.32,3.0,203.73,23 / 24,978675,2019-09-07 10:43:31:829,-0.5954,0.0088,9.9067,-0.0119,-0.0001,9.8066,-0.0223,0.009,-0.0016,-19.5,-28.19,29.94,2.16,-82.8,-145.73
54001,52.35902,-1.438451,142.4,14.32,3.0,203.73,23 / 24,978775,2019-09-07 10:43:31:929,-0.2777,0.569,9.5137,-0.0074,0.007,9.8066,-0.0072,0.0363,0.0343,-19.75,-29.31,30.25,1.97,-82.9,-144.55
54002,52.35902,-1.438451,142.4,14.32,3.0,203.73,23 / 24,978875,2019-09-07 10:43:32:029,-0.4285,0.5882,9.5196,-0.0088,0.0004,9.8065,0.0146,0.0199,0.0057,-19.31,-29.06,29.75,4.55,-82.91,-143.59
54003,52.35902,-1.438451,142.4,14.32,3.0,203.73,23 / 24,978976,2019-09-07 10:43:32:130,-0.1458,1.1006,9.2567,-0.0169,-0.0081,9.8066,0.0039,0.0308,0.0604,-19.19,-28.81,30.0,5.14,-82.89,-143.07
54004,52.35902,-1.438451,142.4,14.32,3.0,203.73,23 / 24,979076,2019-09-07 10:43:32:230,-0.5,1.1211,10.2699,-0.0138,-0.008,9.8066,0.0107,0.009,0.0299,-20.25,-28.56,30.56,6.79,-82.76,-141.11
54005,52.35902,-1.438451,142.4,14.32,3.0,203.73,23 / 24,979175,2019-09-07 10:43:32:329,-0.6787,0.3073,10.0369,-0.004,-0.0121,9.8066,0.0304,0.0084,0.0363,-19.75,-28.87,30.06,6.75,-82.65,-140.31
54006,52.35902,-1.438451,142.4,14.32,3.0,203.73,23 / 24,979277,2019-09-07 10:43:32:431,-0.8296,0.791,10.6082,-0.0006,-0.0017,9.8066,0.0073,-0.017,-0.0056,-19.87,-28.81,30.81,7.86,-82.53,-140.18
54007,52.35902,-1.438451,142.4,14.32,3.0,203.73,23 / 24,979376,2019-09-07 10:43:32:530,-0.1987,0.825,10.5632,0.0026,0.0076,9.8066,0.0064,0.0357,0.0015,-20.0,-28.62,30.06,6.92,-82.59,-140.16
54008,52.35902,-1.438451,142.4,14.32,3.0,203.73,23 / 24,979475,2019-09-07 10:43:32:629,-0.4455,1.1012,9.698,-0.0007,0.001,9.8066,-0.0107,-0.0305,-0.0337,-20.0,-28.69,30.31,6.74,-82.61,-140.32
54009,52.35902,-1.438451,142.4,14.32,3.0,203.73,23 / 24,979575,2019-09-07 10:43:32:729,-0.7611,1.57,9.0274,0.0074,0.0047,9.8066,-0.0108,-0.013,-0.0191,-20.31,-28.94,30.19,6.78,-82.62,-140.28
54010,52.35902,-1.438451,142.4,14.32,3.0,203.73,23 / 24,979675,2019-09-07 10:43:32:829,-0.6358,0.9915,9.9081,0.0121,0.0065,9.8066,0.0513,0.0738,0.0298,-19.5,-28.62,30.69,8.04,-82.73,-141.33
54011,52.35902,-1.438451,142.4,14.32,3.0,203.73,23 / 24,979775,2019-09-07 10:43:32:929,-1.0945,1.0967,9.0414,0.0,-0.0055,9.8066,0.0029,-0.0409,-0.0392,-19.87,-28.62,29.88,4.67,-82.7,-142.15
54012,52.35902,-1.438451,142.4,14.32,3.0,203.73,23 / 24,979875,2019-09-07 10:43:33:029,-0.8958,1.3941,9.8024,0.0008,0.0017,9.8066,-0.0177,-0.0203,-0.0101,-19.56,-29.5,30.31,4.62,-82.65,-142.2
54013,52.35902,-1.438451,142.4,14.32,3.0,203.73,23 / 24,979976,2019-09-07 10:43:33:130,-1.0669,1.6608,10.771,0.0003,-0.0004,9.8065,0.0306,0.0345,0.0307,-20.19,-28.56,30.0,5.01,-82.67,-141.85
54014,52.35902,-1.438451,142.4,14.32,3.0,203.73,23 / 24,980075,2019-09-07 10:43:33:229,-1.0674,1.332,10.1958,0.001,-0.0103,9.8066,0.009,-0.0429,-0.0236,-19.87,-28.44,30.69,5.85,-82.55,-141.94
54015,52.35902,-1.438451,142.4,14.32,3.0,203.73,23 / 24,980176,2019-09-07 10:43:33:330,-0.7826,0.5413,9.5101,-0.0014,-0.0055,9.8066,0.0145,0.032,0.0405,-19.94,-28.87,30.06,4.78,-82.49,-142.07
54016,52.35902,-1.438451,142.4,14.32,3.0,203.73,22 / 23,980276,2019-09-07 10:43:33:430,-0.7003,0.8768,9.1629,-0.0111,0.0016,9.8066,-0.0095,0.0185,0.0115,-20.5,-28.56,29.81,5.82,-82.43,-141.15
54017,52.35902,-1.438451,142.4,14.32,3.0,203.73,22 / 23,980375,2019-09-07 10:43:33:529,-0.9677,1.4025,9.2305,-0.0124,0.015,9.8066,-0.0266,0.0215,0.0156,-20.12,-28.94,30.56,7.81,-82.48,-140.23
54018,52.35902,-1.438451,142.4,14.32,3.0,203.73,22 / 23,980475,2019-09-07 10:43:33:629,-0.5569,0.9615,9.7022,-0.0089,0.0003,9.8066,0.0047,0.0048,0.0095,-20.12,-29.06,29.94,8.54,-82.59,-138.73
54019,52.35902,-1.438451,142.4,14.32,3.0,203.73,22 / 23,980576,2019-09-07 10:43:33:730,-0.8386,1.5871,9.2562,-0.0037,-0.0076,9.8066,0.0386,0.035,0.0443,-19.69,-29.0,30.13,9.07,-82.5,-138.27
54020,52.35902,-1.438451,142.4,14.32,3.0,203.73,22 / 23,980676,2019-09-07 10:43:33:830,-0.9515,1.4038,9.8885,-0.0047,-0.011,9.8066,0.0054,-0.0152,0.0032,-20.31,-29.25,30.19,9.44,-82.34,-137.96
54021,52.35902,-1.438451,142.4,14.32,3.0,203.73,22 / 23,980776,2019-09-07 10:43:33:930,-0.3781,0.7401,10.1069,0.0032,-0.0038,9.8066,0.0206,0.029,0.0196,-19.94,-28.87,30.19,9.36,-82.26,-138.05
54022,52.35902,-1.438451,142.4,14.32,3.0,203.73,22 / 23,980876,2019-09-07 10:43:34:030,-1.2163,0.2051,10.0953,0.0011,-0.0047,9.8066,0.0039,-0.016,-0.0571,-20.37,-28.31,30.69,9.87,-82.2,-138.4
54023,52.35902,-1.438451,142.4,14.32,3.0,203.73,22 / 23,980975,2019-09-07 10:43:34:129,-1.0102,2.1721,9.488,0.0174,0.0105,9.8066,0.0038,0.0219,-0.0077,-20.12,-28.5,30.13,7.74,-82.31,-139.44
54024,52.35902,-1.438451,142.4,14.32,3.0,203.73,22 / 23,981075,2019-09-07 10:43:34:229,0.7863,2.7268,9.8497,0.0082,0.0048,9.8066,0.0542,0.0838,0.0641,-20.44,-28.56,30.06,6.77,-82.39,-140.32
54025,52.35902,-1.438451,142.4,14.32,3.0,203.73,22 / 23,981175,2019-09-07 10:43:34:329,-1.3117,1.2939,9.6857,0.0051,0.0036,9.8066,-0.0071,-0.0099,-0.0424,-20.69,-28.75,30.5,6.06,-82.25,-140.51
54026,52.35902,-1.438451,142.4,14.32,3.0,203.73,23 / 24,981278,2019-09-07 10:43:34:432,-0.1436,1.538,10.2432,0.0035,0.0146,9.8066,-0.0056,0.0626,0.0249,-20.31,-29.0,31.06,7.2,-82.36,-140.78
54027,52.35902,-1.438451,142.4,14.32,3.0,203.73,23 / 24,981375,2019-09-07 10:43:34:529,-0.8562,1.2301,10.5514,0.0014,-0.0122,9.8066,0.0215,-0.0036,-0.0215,-20.81,-29.44,30.75,6.63,-82.46,-139.98
54028,52.35902,-1.438451,142.4,14.32,3.0,203.73,23 / 24,981475,2019-09-07 10:43:34:629,-1.0474,1.8183,10.2279,0.0089,-0.0089,9.8066,0.0381,0.0012,-0.0188,-20.31,-28.75,31.56,7.7,-82.35,-141.15
54029,52.35902,-1.438451,142.4,14.32,3.0,203.73,23 / 24,981576,2019-09-07 10:43:34:730,-0.5339,0.8659,9.8665,0.0179,-0.0042,9.8066,0.0422,0.0307,-0.008,-20.12,-28.44,30.63,5.12,-82.27,-142.62
54030,52.35902,-1.438451,142.4,14.32,3.0,203.73,23 / 24,981675,2019-09-07 10:43:34:829,-0.3097,0.9783,10.3133,0.0126,0.0017,9.8066,0.008,-0.0002,-0.0294,-20.31,-28.56,31.25,3.25,-82.21,-144.3
54031,52.35902,-1.438451,142.4,14.32,3.0,203.73,23 / 24,981775,2019-09-07 10:43:34:929,-0.2598,1.3701,9.7481,0.0004,-0.007,9.8066,0.0113,0.0112,0.0029,-20.31,-27.87,30.5,2.44,-82.2,-145.01
54032,52.35902,-1.438451,142.4,14.32,3.0,203.73,23 / 24,981875,2019-09-07 10:43:35:029,-0.204,0.7174,9.8292,0.0021,0.0003,9.8065,0.0204,0.0335,0.0044,-19.94,-28.44,30.69,2.45,-82.17,-144.99
54033,52.35902,-1.438451,142.4,14.32,3.0,203.73,23 / 24,981975,2019-09-07 10:43:35:129,-0.3304,1.6888,9.8318,-0.0064,0.0019,9.8066,-0.0074,0.031,0.0309,-20.31,-28.0,30.81,2.68,-82.15,-144.8
54034,52.35902,-1.438451,142.4,14.32,3.0,203.73,23 / 24,982075,2019-09-07 10:43:35:229,-0.243,0.885,9.415,-0.0103,-0.0014,9.8066,-0.0194,-0.0128,-0.0024,-20.62,-29.0,31.25,2.57,-82.16,-143.61
54035,52.35902,-1.438451,142.4,14.32,3.0,203.73,23 / 24,982176,2019-09-07 10:43:35:330,-0.2324,0.563,10.3111,-0.0028,0.0075,9.8066,-0.0062,0.0332,-0.0058,-20.19,-28.69,31.25,4.65,-82.21,-143.06
54036,52.35902,-1.438451,142.4,14.32,3.0,203.73,23 / 25,982276,2019-09-07 10:43:35:430,-0.0421,0.0084,9.8011,0.0018,0.0005,9.8066,0.0105,-0.0002,-0.0263,-19.94,-29.0,30.81,4.66,-82.31,-143.05
54037,52.35902,-1.438451,142.4,14.32,3.0,203.73,23 / 25,982375,2019-09-07 10:43:35:529,0.3591,0.8893,9.9373,0.0086,0.0008,9.8066,0.0376,0.0724,0.0143,-20.25,-28.5,30.94,3.71,-82.31,-143.87
54038,52.35902,-1.438451,142.4,14.32,3.0,203.73,23 / 25,982475,2019-09-07 10:43:35:629,0.344,-0.3513,10.5334,-0.0079,-0.0103,9.8066,0.0103,0.0204,-0.0143,-19.87,-27.87,30.88,3.92,-82.2,-143.69
54039,52.35902,-1.438451,142.4,14.32,3.0,203.73,23 / 25,982575,2019-09-07 10:43:35:729,0.3196,0.6713,9.9093,0.0142,0.0021,9.8066,0.0308,0.0544,-0.0338,-20.25,-28.0,31.13,3.07,-82.23,-144.44
54040,52.35902,-1.438451,142.4,14.32,3.0,203.73,23 / 25,982676,2019-09-07 10:43:35:830,0.0192,0.5919,9.5206,0.0064,-0.0017,9.8066,0.0249,0.0544,-0.0177,-20.44,-27.81,31.56,3.12,-82.22,-145.21
54041,52.35902,-1.438451,142.4,14.32,3.0,203.73,23 / 25,982776,2019-09-07 10:43:35:930,0.4393,0.3816,9.3326,0.0154,-0.0041,9.8065,0.0131,0.0668,-0.0617,-20.25,-28.25,31.13,0.66,-82.17,-146.59
54042,52.35902,-1.438451,142.4,14.32,3.0,203.73,23 / 25,982875,2019-09-07 10:43:36:029,0.6097,0.8725,9.9511,0.0013,0.0112,9.8066,-0.0159,0.0743,-0.0489,-20.37,-27.87,31.75,0.29,-82.28,-147.74
54043,52.35902,-1.438451,142.4,14.32,3.0,203.73,23 / 25,982976,2019-09-07 10:43:36:130,-0.1505,1.5911,10.3294,0.001,0.0005,9.8066,0.0177,0.0853,-0.0121,-20.56,-28.87,31.06,357.68,-82.41,-147.94
54044,52.35902,-1.438451,142.4,14.32,3.0,203.73,23 / 25,983075,2019-09-07 10:43:36:229,1.2288,0.73,10.0457,-0.0035,-0.0197,9.8066,0.0204,0.1046,-0.0048,-20.94,-28.31,31.13,357.58,-82.21,-148.04
54045,52.35902,-1.438451,142.4,14.32,3.0,203.73,23 / 25,983175,2019-09-07 10:43:36:329,2.5258,-0.0755,9.192,-0.0077,-0.0001,9.8066,-0.015,0.1234,-0.0093,-20.81,-27.81,31.75,359.19,-82.17,-147.45
54046,52.35902,-1.438451,142.4,14.32,3.0,203.73,23 / 25,983277,2019-09-07 10:43:36:431,0.4324,0.5611,8.7615,-0.023,0.0186,9.8065,-0.0683,0.0897,-0.046,-20.94,-28.12,30.81,359.51,-82.31,-146.32
54047,52.35902,-1.438451,142.4,14.32,3.0,203.73,23 / 25,983375,2019-09-07 10:43:36:529,-0.0037,1.8387,10.8262,0.0019,0.0192,9.8066,0.009,0.1352,-0.0242,-20.87,-27.69,31.31,1.31,-82.63,-144.71
54048,52.35902,-1.438451,142.4,14.32,3.0,203.73,23 / 25,983476,2019-09-07 10:43:36:630,1.4094,-0.0998,9.8815,0.0176,-0.0103,9.8066,0.0695,0.1332,-0.0563,-21.44,-28.31,31.5,1.14,-82.61,-145.7
54049,52.35902,-1.438451,142.4,14.32,3.0,203.73,23 / 25,983575,2019-09-07 10:43:36:729,1.2509,1.0155,9.8849,0.0198,-0.0086,9.8066,0.0469,0.1511,-0.0445,-21.37,-27.5,31.75,358.15,-82.4,-148.38
54050,52.35902,-1.438451,142.4,14.32,3.0,203.73,23 / 25,983675,2019-09-07 10:43:36:829,1.048,0.6323,9.8516,0.0017,0.003,9.8066,-0.0084,0.1307,-0.0359,-22.19,-28.44,31.94,355.58,-82.37,-149.45
54051,52.35902,-1.438451,142.4,14.32,3.0,203.73,23 / 25,983776,2019-09-07 10:43:36:930,1.5874,1.1421,10.0588,0.0055,0.0108,9.8066,-0.0099,0.123,-0.0808,-21.87,-27.81,32.5,356.23,-82.46,-149.7
54052,52.35902,-1.438451,142.4,14.32,3.0,203.73,23 / 25,983876,2019-09-07 10:43:37:030,1.5433,1.1858,9.6747,0.0041,0.0028,9.8066,0.0145,0.1476,-0.0354,-22.12,-28.0,31.56,354.29,-82.55,-150.62
54053,52.35902,-1.438451,142.4,14.32,3.0,203.73,23 / 25,983976,2019-09-07 10:43:37:130,1.7576,0.4262,9.7283,0.0075,-0.0026,9.8066,0.015,0.1491,-0.0411,-22.25,-27.56,32.06,353.47,-82.53,-151.36
54054,52.35902,-1.438451,142.4,14.32,3.0,203.73,23 / 25,984076,2019-09-07 10:43:37:230,0.8153,0.7875,9.8143,0.0009,0.0071,9.8066,-0.0072,0.1576,-0.0442,-22.31,-26.94,31.94,352.87,-82.55,-151.92
54055,52.35902,-1.438451,142.4,14.32,3.0,203.73,23 / 25,984175,2019-09-07 10:43:37:329,1.0712,2.1195,10.005,0.0021,0.0203,9.8066,-0.0201,0.1549,-0.0701,-23.0,-27.19,31.88,350.88,-82.79,-152.56
54056,52.35902,-1.438451,142.4,14.32,3.0,203.73,23 / 24,984275,2019-09-07 10:43:37:429,0.7878,0.9826,10.195,0.0044,0.006,9.8066,0.0349,0.1872,-0.0313,-23.0,-27.25,32.06,350.32,-82.92,-153.09
54057,52.35902,-1.438451,142.4,14.32,3.0,203.73,23 / 24,984376,2019-09-07 10:43:37:530,1.3162,0.6799,10.7079,0.0185,-0.0092,9.8066,0.0776,0.1956,-0.0137,-23.31,-27.37,32.13,348.51,-82.85,-154.72
54058,52.35902,-1.438451,142.4,14.32,3.0,203.73,23 / 24,984475,2019-09-07 10:43:37:629,1.2835,-0.3021,10.274,0.0146,-0.0145,9.8066,0.0199,0.1096,-0.0894,-23.19,-27.81,32.19,347.14,-82.62,-155.89
54059,52.35902,-1.438451,142.4,14.32,3.0,203.73,23 / 24,984575,2019-09-07 10:43:37:729,1.177,0.0869,9.629,0.023,0.0194,9.8065,-0.0328,0.1211,-0.1301,-23.44,-27.37,32.81,345.21,-82.6,-158.53
54060,52.35902,-1.438451,142.4,14.32,3.0,203.73,23 / 24,984675,2019-09-07 10:43:37:829,1.3752,0.9345,9.444,0.0014,0.0468,9.8065,-0.1005,0.1582,-0.094,-23.37,-27.87,33.06,341.21,-83.28,-162.29
54061,52.35902,-1.438451,142.4,14.32,3.0,203.73,23 / 24,984775,2019-09-07 10:43:37:929,2.0809,0.644,9.7977,0.003,0.0383,9.8065,-0.0515,0.1612,-0.081,-24.06,-27.75,31.75,337.54,-83.74,-163.8
54062,52.35902,-1.438451,142.4,14.32,3.0,203.73,23 / 24,984875,2019-09-07 10:43:38:029,1.8162,1.2425,11.2496,0.0079,-0.0017,9.8066,-0.0007,0.102,-0.0799,-23.69,-27.19,32.56,336.68,-83.96,-165.6
54063,52.35902,-1.438451,142.4,14.32,3.0,203.73,23 / 24,984975,2019-09-07 10:43:38:129,1.55,0.4743,10.0332,0.011,-0.0153,9.8066,0.0427,0.1096,-0.0132,-23.56,-27.25,32.38,334.78,-83.78,-166.43
54064,52.35902,-1.438451,142.4,14.32,3.0,203.73,23 / 24,985075,2019-09-07 10:43:38:229,1.0295,-0.4369,10.074,0.0099,-0.0261,9.8066,0.0834,0.1841,0.0598,-23.94,-26.94,33.06,335.8,-83.51,-166.28
54065,52.35902,-1.438451,142.4,14.32,3.0,203.73,23 / 24,985176,2019-09-07 10:43:38:330,1.3961,-0.1214,9.7818,-0.0011,-0.0065,9.8065,-0.0289,0.1121,-0.0024,-24.62,-27.31,33.06,334.7,-83.24,-166.12
54066,52.35902,-1.438451,142.4,14.32,3.0,203.73,23 / 25,985279,2019-09-07 10:43:38:433,0.7254,-0.4796,10.3067,-0.0163,0.022,9.8065,-0.042,0.0921,-0.0257,-24.81,-28.0,32.69,334.83,-83.5,-166.01
54067,52.35902,-1.438451,142.4,14.32,3.0,203.73,23 / 25,985375,2019-09-07 10:43:38:529,1.2561,0.2935,11.1679,0.0032,0.0126,9.8065,-0.0063,0.0257,-0.0849,-24.44,-28.06,32.94,335.18,-83.68,-166.84
54068,52.35902,-1.438451,142.4,14.32,3.0,203.73,23 / 25,985476,2019-09-07 10:43:38:630,-0.695,0.6938,10.5135,0.0138,0.0104,9.8066,0.0361,0.0956,-0.0489,-24.81,-27.5,32.94,332.28,-83.74,-168.54
54069,52.35902,-1.438451,142.4,14.32,3.0,203.73,23 / 25,985575,2019-09-07 10:43:38:729,0.7279,0.4621,9.6584,0.0199,0.0028,9.8066,0.0418,0.0951,-0.0141,-24.75,-27.31,33.25,329.19,-83.65,-171.39
54070,52.35902,-1.438451,142.4,14.32,3.0,203.73,23 / 25,985675,2019-09-07 10:43:38:829,-0.2264,-0.4846,9.8418,-0.005,-0.02,9.8066,0.0143,0.0241,0.0281,-24.81,-26.81,32.25,328.28,-83.4,-171.24
54071,52.35902,-1.438451,142.4,14.32,3.0,203.73,23 / 25,985775,2019-09-07 10:43:38:929,-0.8464,-0.6603,9.2495,-0.001,-0.0149,9.8065,-0.0146,0.0105,0.0008,-25.0,-26.62,33.31,331.12,-83.18,-169.42
54072,52.35902,-1.438451,142.4,14.32,3.0,203.73,23 / 25,985876,2019-09-07 10:43:39:030,-0.2052,-0.1469,9.0382,-0.0015,0.0142,9.8066,0.0008,0.0865,0.0438,-24.69,-27.25,33.13,331.39,-83.25,-169.18
54073,52.35902,-1.438451,142.4,14.32,3.0,203.73,23 / 25,985975,2019-09-07 10:43:39:129,-0.4977,0.0132,9.1973,-0.0076,0.0021,9.8066,-0.0211,-0.0149,-0.0263,-24.62,-27.0,32.88,331.56,-83.41,-169.09
54074,52.35902,-1.438451,142.4,14.32,3.0,203.73,23 / 25,986076,2019-09-07 10:43:39:230,0.569,0.0629,10.9926,-0.0001,-0.0053,9.8066,0.0114,0.0163,0.0153,-24.69,-27.25,32.69,330.82,-83.49,-169.81
54075,52.35902,-1.438451,142.4,14.32,3.0,203.73,23 / 25,986175,2019-09-07 10:43:39:329,-0.8011,0.6754,9.3812,0.0011,-0.0053,9.8066,0.0347,0.016,0.0131,-24.37,-27.44,33.0,331.77,-83.46,-170.0
54076,52.358135,-1.438945,141.91,10.19,3.0,180.29,23 / 25,986276,2019-09-07 10:43:39:430,-0.4111,0.3798,8.2269,-0.0017,0.004,9.8066,0.0259,0.0115,0.0656,-25.0,-26.87,33.13,330.79,-83.41,-169.81
54077,52.358135,-1.438945,141.91,10.19,3.0,180.29,23 / 25,986375,2019-09-07 10:43:39:529,-0.3873,-1.145,11.7266,-0.002,0.0001,9.8066,-0.0064,-0.062,-0.0055,-24.62,-26.62,33.31,332.46,-83.36,-168.23
54078,52.358135,-1.438945,141.91,10.19,3.0,180.29,23 / 25,986476,2019-09-07 10:43:39:630,-0.8615,-0.1806,12.1491,-0.0153,0.004,9.8066,-0.0221,-0.0618,0.0124,-24.62,-26.31,32.88,333.61,-83.43,-167.26
54079,52.358135,-1.438945,141.91,10.19,3.0,180.29,23 / 25,986575,2019-09-07 10:43:39:729,-1.4052,-0.9342,8.9269,-0.0076,-0.0027,9.8066,-0.0252,-0.0596,-0.0055,-25.12,-26.62,32.5,334.56,-83.51,-166.34
54080,52.358135,-1.438945,141.91,10.19,3.0,180.29,23 / 25,986675,2019-09-07 10:43:39:829,-1.711,-0.0146,10.0603,-0.0112,0.0031,9.8066,-0.0282,-0.0588,0.0126,-24.75,-26.62,31.88,334.56,-83.63,-165.49
54081,52.358135,-1.438945,141.91,10.19,3.0,180.29,23 / 25,986775,2019-09-07 10:43:39:929,-1.7189,-0.6636,10.3224,0.0102,-0.0066,9.8065,-0.0516,-0.1741,-0.049,-25.0,-28.37,32.0,335.29,-83.68,-164.76
54082,52.358135,-1.438945,141.91,10.19,3.0,180.29,23 / 25,986875,2019-09-07 10:43:40:029,-0.8496,-0.0815,8.7297,0.0003,0.0084,9.8066,-0.0151,-0.1,0.0367,-24.69,-27.94,33.38,336.58,-83.76,-164.47
54083,52.358135,-1.438945,141.91,10.19,3.0,180.29,23 / 25,986975,2019-09-07 10:43:40:129,-1.8758,-0.4319,8.2143,0.0049,0.0008,9.8066,0.0135,-0.1068,0.0123,-25.06,-27.81,33.0,337.22,-83.73,-163.87
54084,52.358135,-1.438945,141.91,10.19,3.0,180.29,23 / 25,987075,2019-09-07 10:43:40:229,-1.0002,-1.885,8.5186,-0.0023,0.0007,9.8066,0.0059,-0.1012,0.0567,-24.62,-28.37,33.19,336.82,-83.72,-164.24
54085,52.358135,-1.438945,141.91,10.19,3.0,180.29,23 / 25,987176,2019-09-07 10:43:40:330,-2.7811,-1.0599,10.8572,-0.0077,0.0021,9.8066,-0.0046,-0.1534,0.0294,-25.12,-28.12,33.88,338.84,-83.69,-163.21
54086,52.358135,-1.438945,141.91,10.19,3.0,180.29,23 / 24,987275,2019-09-07 10:43:40:429,-2.7977,-0.689,10.2259,0.0008,0.0079,9.8066,0.0164,-0.1404,0.0495,-24.37,-27.69,33.63,340.01,-83.79,-163.24
54087,52.358135,-1.438945,141.91,10.19,3.0,180.29,23 / 24,987375,2019-09-07 10:43:40:529,-2.0786,-1.291,10.8303,0.0085,-0.0169,9.8066,0.0377,-0.1577,0.0762,-23.87,-26.81,34.44,339.35,-83.69,-163.88
54088,52.358135,-1.438945,141.91,10.19,3.0,180.29,23 / 24,987476,2019-09-07 10:43:40:630,-2.5053,-1.5941,10.9683,-0.0026,-0.0146,9.8065,0.007,-0.2412,0.0372,-24.0,-26.75,33.31,338.71,-83.58,-163.6
54089,52.358135,-1.438945,141.91,10.19,3.0,180.29,23 / 24,987575,2019-09-07 10:43:40:729,-3.7393,-1.9408,9.6577,-0.0147,-0.0034,9.8066,-0.0599,-0.3157,0.0023,-22.87,-26.87,33.75,341.58,-83.48,-162.88
54090,52.358135,-1.438945,141.91,10.19,3.0,180.29,23 / 24,987675,2019-09-07 10:43:40:829,-3.3697,-2.1271,10.4589,-0.0163,0.0089,9.8065,-0.0736,-0.3424,0.0478,-22.87,-26.94,33.19,342.73,-83.62,-161.02
54091,52.358135,-1.438945,141.91,10.19,3.0,180.29,23 / 24,987775,2019-09-07 10:43:40:929,-3.7137,-1.0402,10.3761,-0.0048,-0.0033,9.8066,0.0166,-0.3089,0.0246,-21.69,-27.37,33.25,345.62,-83.77,-159.55
54092,52.358135,-1.438945,141.91,10.19,3.0,180.29,23 / 24,987875,2019-09-07 10:43:41:029,-2.8314,-2.2574,9.8983,0.0137,-0.0068,9.8066,0.0149,-0.345,0.0068,-21.12,-27.5,33.13,345.61,-83.7,-160.76
54093,52.358135,-1.438945,141.91,10.19,3.0,180.29,23 / 24,987975,2019-09-07 10:43:41:129,-3.8251,-2.0718,9.6882,-0.0003,0.0059,9.8066,-0.0456,-0.3814,0.007,-20.81,-26.75,33.19,344.68,-83.61,-161.6
54094,52.358135,-1.438945,141.91,10.19,3.0,180.29,23 / 24,988075,2019-09-07 10:43:41:229,-3.6415,-1.6735,9.6462,-0.0052,0.0236,9.8066,-0.0523,-0.3071,0.0433,-20.0,-27.12,32.75,345.6,-83.85,-162.03
54095,52.358135,-1.438945,141.91,10.19,3.0,180.29,23 / 24,988175,2019-09-07 10:43:41:329,-3.9398,-1.0869,9.5738,-0.0035,0.0154,9.8066,-0.0278,-0.328,0.0621,-19.5,-28.19,32.25,346.23,-84.1,-161.94
54096,52.358135,-1.438945,141.91,10.19,3.0,180.29,23 / 24,988276,2019-09-07 10:43:41:430,-4.164,0.4804,9.1749,-0.0042,-0.004,9.8066,-0.0159,-0.4043,-0.0003,-18.25,-27.37,32.44,348.27,-84.21,-161.45
54097,52.358135,-1.438945,141.91,10.19,3.0,180.29,23 / 24,988375,2019-09-07 10:43:41:529,-2.2177,-1.7801,10.0087,0.0274,-0.0064,9.8066,0.0466,-0.3649,0.0503,-17.69,-27.75,32.25,344.77,-84.15,-164.62
54098,52.358135,-1.438945,141.91,10.19,3.0,180.29,23 / 24,988476,2019-09-07 10:43:41:630,-5.0001,-0.9,11.0633,-0.0031,-0.0269,9.8066,0.0622,-0.3693,0.0944,-16.62,-27.25,32.69,347.27,-83.89,-164.42
54099,52.358135,-1.438945,141.91,10.19,3.0,180.29,23 / 24,988575,2019-09-07 10:43:41:729,-4.357,-2.8331,9.0303,-0.0177,-0.0291,9.8065,0.0198,-0.3123,0.1641,-16.19,-27.56,32.31,348.14,-83.58,-164.19
54100,52.358135,-1.438945,141.91,10.19,3.0,180.29,23 / 24,988675,2019-09-07 10:43:41:829,-3.8814,-2.2219,8.8611,-0.0291,-0.0116,9.8066,-0.0433,-0.4214,0.1221,-15.69,-27.56,31.19,351.78,-83.35,-160.11
54101,52.358135,-1.438945,141.91,10.19,3.0,180.29,23 / 24,988776,2019-09-07 10:43:41:930,-5.1106,-1.6564,9.5485,-0.0318,0.0103,9.8065,-0.076,-0.4949,0.0868,-14.94,-28.25,30.69,357.37,-83.43,-156.54
54102,52.358135,-1.438945,141.91,10.19,3.0,180.29,23 / 24,988875,2019-09-07 10:43:42:029,-4.7379,-1.6401,10.5072,-0.0154,-0.0007,9.8065,-0.0134,-0.4574,0.085,-14.37,-27.56,29.94,2.29,-83.52,-152.92
54103,52.358135,-1.438945,141.91,10.19,3.0,180.29,23 / 24,988975,2019-09-07 10:43:42:129,-4.5126,-2.5522,10.3136,-0.006,-0.0367,9.8066,0.0106,-0.5191,0.0547,-13.25,-27.75,29.13,3.79,-83.13,-152.49
54104,52.358135,-1.438945,141.91,10.19,3.0,180.29,23 / 24,989075,2019-09-07 10:43:42:229,-5.1491,-1.82,10.0862,-0.0109,-0.019,9.8066,-0.0158,-0.5249,0.0364,-14.19,-27.69,29.25,2.7,-82.86,-151.84
54105,52.358135,-1.438945,141.91,10.19,3.0,180.29,23 / 24,989175,2019-09-07 10:43:42:329,-4.1146,-1.2268,9.2816,-0.0103,0.009,9.8066,-0.087,-0.472,0.1059,-13.06,-28.25,28.63,4.61,-82.87,-151.78
54106,52.358135,-1.438945,141.91,10.19,3.0,180.29,23 / 24,989276,2019-09-07 10:43:42:430,-4.3905,-1.2921,10.3301,-0.0224,0.0075,9.8065,-0.0667,-0.4987,0.0653,-12.62,-29.69,27.31,6.27,-82.98,-148.83
54107,52.358135,-1.438945,141.91,10.19,3.0,180.29,23 / 24,989375,2019-09-07 10:43:42:529,-4.6998,-0.8228,10.0688,-0.0068,-0.0008,9.8066,-0.0294,-0.4894,0.058,-11.31,-28.94,27.0,11.65,-83.0,-147.67
54108,52.358135,-1.438945,141.91,10.19,3.0,180.29,23 / 24,989475,2019-09-07 10:43:42:629,-4.5899,-1.5411,9.8671,0.0021,-0.0077,9.8066,-0.0227,-0.4631,0.0406,-12.19,-29.5,26.13,9.3,-82.88,-147.16
54109,52.358135,-1.438945,141.91,10.19,3.0,180.29,23 / 24,989576,2019-09-07 10:43:42:730,-3.5281,-1.6084,9.2772,-0.0253,0.0021,9.8066,-0.1077,-0.4769,0.0989,-11.19,-28.0,24.69,10.33,-82.86,-147.3
54110,52.358135,-1.438945,141.91,10.19,3.0,180.29,23 / 24,989675,2019-09-07 10:43:42:829,-6.072,-1.0816,10.3012,-0.0485,0.0138,9.8065,-0.1183,-0.4783,0.1015,-10.87,-29.44,24.5,16.61,-82.89,-141.92
54111,52.358135,-1.438945,141.91,10.19,3.0,180.29,23 / 24,989776,2019-09-07 10:43:42:930,-4.7109,-1.1635,11.4246,0.0026,-0.0102,9.8066,0.0012,-0.5417,-0.0166,-10.5,-30.0,23.25,19.69,-82.97,-139.78
54112,52.358135,-1.438945,141.91,10.19,3.0,180.29,23 / 24,989875,2019-09-07 10:43:43:029,-4.3009,-1.1156,10.1991,0.0198,-0.0444,9.8065,0.0977,-0.4806,0.0668,-10.75,-29.37,22.69,14.24,-82.57,-142.39
54113,52.358135,-1.438945,141.91,10.19,3.0,180.29,23 / 24,989975,2019-09-07 10:43:43:129,-4.7165,-3.0511,10.6961,-0.0012,-0.0471,9.8065,0.0251,-0.438,0.0849,-9.94,-30.19,22.25,13.43,-81.68,-144.66
54114,52.358135,-1.438945,141.91,10.19,3.0,180.29,23 / 24,990076,2019-09-07 10:43:43:230,-3.9406,-2.9791,9.5863,0.0063,0.0054,9.8066,-0.1073,-0.5152,0.0283,-9.56,-30.75,21.63,12.9,-81.59,-145.19
54115,52.358135,-1.438945,141.91,10.19,3.0,180.29,23 / 24,990175,2019-09-07 10:43:43:329,-5.1624,-3.1157,10.9111,-0.0181,0.0242,9.8065,-0.1145,-0.5595,0.0176,-9.75,-30.37,21.19,12.92,-81.88,-144.08
54116,52.358135,-1.438945,141.91,10.19,3.0,180.29,24 / 25,990275,2019-09-07 10:43:43:429,-4.4751,-1.1276,9.2852,0.0027,0.0112,9.8066,-0.0441,-0.4813,0.063,-8.87,-30.5,19.31,15.14,-82.15,-142.57
54117,52.358135,-1.438945,141.91,10.19,3.0,180.29,24 / 25,990375,2019-09-07 10:43:43:529,-5.8988,-2.2184,10.7898,-0.0051,-0.0259,9.8066,0.0383,-0.4733,0.1213,-8.87,-30.62,18.06,13.42,-82.08,-142.96
54118,52.358135,-1.438945,141.91,10.19,3.0,180.29,24 / 25,990476,2019-09-07 10:43:43:630,-4.4454,-2.3397,10.618,0.0091,-0.0362,9.8065,0.0263,-0.5374,0.0715,-8.06,-30.62,17.81,15.98,-81.52,-143.89
54119,52.358135,-1.438945,141.91,10.19,3.0,180.29,24 / 25,990575,2019-09-07 10:43:43:729,-4.4022,-2.9699,9.6223,0.0033,-0.014,9.8066,-0.0496,-0.5805,0.071,-8.25,-30.69,15.88,11.63,-81.16,-145.02
54120,52.358135,-1.438945,141.91,10.19,3.0,180.29,24 / 25,990675,2019-09-07 10:43:43:829,-5.6797,-1.0024,9.5307,-0.013,-0.0103,9.8066,-0.0718,-0.5632,0.0805,-7.87,-31.19,15.75,12.64,-81.07,-144.32
54121,52.358135,-1.438945,141.91,10.19,3.0,180.29,24 / 25,990776,2019-09-07 10:43:43:930,-3.9073,-2.3394,8.3076,0.0115,-0.0053,9.8066,0.0166,-0.4692,0.1395,-8.37,-30.94,14.06,8.4,-81.04,-144.46
