,GPS LATITUDE (degrees), GPS LONGITUDE (degrees), GPS ALTITUDE (m), GPS SPEED (Kmh), GPS ACCURACY (m), GPS ORIENTATION (Â°),GPS SATELLITES IN RANGE, TIME SINCE START (ms), DATE (YYYY-MO-DD HH-MI-SS_SSS), ACCELEROMETER X (m/s²) , ACCELEROMETER Y (m/s²), ACCELEROMETER Z (m/s²), GRAVITY X (m/s²), GRAVITY Y (m/s²), GRAVITY Z (m/s²), GYROSCOPE Yaw (rad/s), GYROSCOPE Pitch (rad/s), GYROSCOPE Roll (rad/s), MAGNETIC FIELD X (Î¼T), MAGNETIC FIELD Y (Î¼T), MAGNETIC FIELD Z (Î¼T), ORIENTATION (Yaw) (Â°), ORIENTATION (Pitch) (Â°), ORIENTATION (Roll ) (Â°)
13735,53.134617,-1.533561,176.64,16.19,6,92.66,21 / 21,2846114,2019-11-06 16:53:46:576,3.2145,-1.5511,9.7097,0.0231,0.0127,9.8065,-0.1635,-0.174,0.1728,-29.37,-35.75,15.13,66.05,-87.61,-53.73
13736,53.134617,-1.533561,176.64,16.19,6,92.66,21 / 21,2846214,2019-11-06 16:53:46:676,-0.9747,-0.7076,9.6476,-0.0293,-0.0039,9.8066,-0.0132,-0.0288,-0.0463,-31.5,-36.12,15.31,67.81,-87.32,-50.63
13737,53.134617,-1.533561,176.64,16.19,6,92.66,21 / 21,2846314,2019-11-06 16:53:46:776,-0.1693,-1.5474,9.2575,-0.0033,-0.004,9.8066,0.0062,-0.0528,0.0231,-45.31,-40.12,35.5,82.26,-87.19,-48.34
13738,53.134617,-1.533561,176.64,16.19,6,92.66,21 / 21,2846414,2019-11-06 16:53:46:876,1.8088,0.4893,10.1949,-0.0303,-0.0227,9.8065,0.0884,0.2112,-0.1502,-27.0,-33.81,34.75,92.19,-87.14,-52.36
13739,53.134617,-1.533561,176.64,16.19,6,92.66,21 / 21,2846514,2019-11-06 16:53:46:976,-0.2612,-2.4419,8.2524,-0.0393,-0.0123,9.8065,0.1215,0.0623,-0.1801,-26.5,-34.31,21.5,78.24,-87.39,-54.57
13740,53.134617,-1.533561,176.64,16.19,6,92.66,21 / 21,2846614,2019-11-06 16:53:47:076,-1.279,-2.3046,8.6877,-0.0163,-0.0068,9.8066,-0.076,-0.0597,0.0184,-26.81,-35.56,17.69,72.34,-87.25,-54.28
13741,53.134617,-1.533561,176.64,16.19,6,92.66,21 / 21,2846714,2019-11-06 16:53:47:176,0.5959,-0.6247,11.0767,0.0329,-0.0305,9.8065,-0.177,0.0641,-0.0083,-26.87,-35.56,16.88,73.64,-87.16,-51.65
13742,53.134617,-1.533561,176.64,16.19,6,92.66,21 / 21,2846814,2019-11-06 16:53:47:276,-0.0818,1.166,10.4476,0.0119,0.0018,9.8066,0.0143,0.1677,-0.037,-27.56,-35.06,16.63,69.99,-87.2,-54.11
13743,53.134617,-1.533561,176.64,16.19,6,92.66,21 / 21,2846914,2019-11-06 16:53:47:376,1.0594,-0.4934,8.4584,-0.0053,0.0207,9.8066,0.1239,-0.118,-0.0374,-27.19,-35.75,17.75,68.3,-87.45,-58.04
13744,53.134617,-1.533561,176.64,16.19,6,92.66,21 / 21,2847014,2019-11-06 16:53:47:476,3.2135,0.2001,8.2934,0.0487,-0.0078,9.8065,0.0301,0.1047,0.0161,-27.0,-34.5,23.19,74.5,-87.74,-58.03
13745,53.134617,-1.533561,176.64,16.19,6,92.66,21 / 21,2847114,2019-11-06 16:53:47:576,-1.1226,-1.6461,10.8775,-0.0113,0.0222,9.8065,-0.0347,-0.417,0.3361,-35.87,-37.56,44.31,88.08,-87.86,-54.07
13746,53.134617,-1.533561,176.64,16.19,6,92.66,21 / 21,2847214,2019-11-06 16:53:47:676,-1.1735,-1.0369,9.3379,-0.0223,-0.0144,9.8065,-0.071,-0.1287,-0.0266,-39.94,-38.37,19.94,61.99,-87.96,-56.12
13747,53.134617,-1.533561,176.64,16.19,6,92.66,21 / 21,2847314,2019-11-06 16:53:47:776,-0.272,-0.6076,9.6667,0.0277,-0.0247,9.8066,0.0224,-0.0713,0.1156,-29.25,-36.87,15.63,59.37,-87.97,-61.48
13748,53.134617,-1.533561,176.64,16.19,6,92.66,21 / 21,2847413,2019-11-06 16:53:47:875,1.4279,-0.6258,10.082,0.015,-0.0156,9.8066,0.0787,-0.0209,-0.052,-28.87,-36.44,15.13,60.53,-87.96,-58.79
13749,53.134617,-1.533561,176.64,16.19,6,92.66,21 / 21,2847514,2019-11-06 16:53:47:976,1.2072,0.8314,9.2224,-0.0096,-0.0211,9.8066,0.0849,-0.0723,0.1,-28.5,-35.75,15.63,58.71,-87.88,-63.08
13750,53.134617,-1.533561,176.64,16.19,6,92.66,21 / 21,2847613,2019-11-06 16:53:48:075,0.4737,-0.1728,10.3089,0.0108,-0.0027,9.8066,0.0254,0.0037,-0.0641,-31.44,-37.0,16.38,53.8,-87.99,-65.23
13751,53.134617,-1.533561,176.64,16.19,6,92.66,21 / 21,2847714,2019-11-06 16:53:48:176,1.2354,0.485,10.5782,0.0179,0.0117,9.8066,0.1963,-0.1071,-0.0158,-44.69,-40.12,28.63,57.04,-88.03,-67.01
13752,53.134617,-1.533561,176.64,16.19,6,92.66,21 / 21,2847814,2019-11-06 16:53:48:276,-0.9355,-1.992,11.7108,0.0519,-0.0094,9.8065,0.2291,-0.3151,-0.0293,-28.44,-34.31,40.19,77.83,-87.97,-68.56
13753,53.134617,-1.533561,176.64,16.19,6,92.66,20 / 20,2847914,2019-11-06 16:53:48:376,-1.2891,-5.2878,11.3291,-0.0044,0.0314,9.8066,0.0007,0.3765,-0.3112,-25.81,-34.62,21.31,67.39,-88.1,-63.39
13754,53.134617,-1.533561,176.64,16.19,6,92.66,20 / 20,2848014,2019-11-06 16:53:48:476,2.7275,3.273,9.2279,-0.0253,0.0638,9.8063,-0.4512,0.7454,-0.2148,-26.81,-35.56,17.0,66.96,-87.93,-57.4
13755,53.134617,-1.533561,176.64,16.19,6,92.66,20 / 20,2848113,2019-11-06 16:53:48:575,-3.0298,-2.8605,9.5821,0.015,0.0673,9.8063,-0.123,-0.0041,0.0522,-26.81,-36.31,17.31,78.5,-88.05,-45.85
13756,53.134617,-1.533561,176.64,16.19,6,92.66,20 / 20,2848213,2019-11-06 16:53:48:675,1.7237,0.8258,10.7338,0.0166,-0.0078,9.8066,0.1577,0.3724,-0.2905,-27.0,-36.12,16.94,75.12,-88.03,-49.23
13757,53.134617,-1.533561,176.64,16.19,6,92.66,20 / 20,2848313,2019-11-06 16:53:48:775,-1.0359,0.1681,9.4541,0.03,0.0537,9.8064,0.1273,-0.1227,0.0099,-26.12,-35.25,18.13,81.73,-87.88,-45.29
13758,53.134617,-1.533561,176.64,16.19,6,92.66,20 / 20,2848413,2019-11-06 16:53:48:875,1.9973,1.1726,9.6694,-0.0252,-0.0148,9.8066,-0.1238,0.1467,0.0104,-26.25,-34.56,22.63,85.4,-87.91,-48.2
13759,53.134617,-1.533561,176.64,16.19,6,92.66,20 / 20,2848513,2019-11-06 16:53:48:975,1.8422,-1.0805,9.7676,-0.0024,0.0171,9.8066,-0.0541,-0.29,0.1581,-37.69,-38.37,44.88,91.89,-87.83,-49.33
13760,53.134617,-1.533561,176.64,16.19,6,92.66,20 / 20,2848613,2019-11-06 16:53:49:075,-0.5643,-1.4963,10.0665,-0.0315,-0.0372,9.8064,0.0403,-0.0754,0.0825,-38.12,-38.06,18.81,71.87,-87.78,-46.59
13761,53.134617,-1.533561,176.64,16.19,6,92.66,20 / 20,2848714,2019-11-06 16:53:49:176,-0.1755,-0.6552,9.7387,0.0237,-0.0016,9.8066,0.0536,-0.0578,-0.0106,-30.31,-37.12,15.19,70.18,-87.59,-48.9
13762,53.134617,-1.533561,176.64,16.19,6,92.66,20 / 20,2848813,2019-11-06 16:53:49:275,1.1663,0.8897,9.2243,-0.0035,-0.009,9.8066,-0.0542,0.1742,-0.0201,-29.06,-36.69,15.19,74.5,-87.15,-45.98
13763,53.13436,-1.531583,185.09,15.55,6,102.51,19 / 19,2848914,2019-11-06 16:53:49:376,1.1669,1.4178,10.3904,-0.0185,0.0215,9.8065,-0.0001,-0.3162,0.1316,-29.06,-36.56,15.19,78.31,-86.97,-42.42
13764,53.13436,-1.531583,185.09,15.55,6,102.51,19 / 19,2849014,2019-11-06 16:53:49:476,-0.0384,-2.0171,9.6254,0.0032,0.0076,9.8066,-0.0318,-0.104,0.1186,-30.69,-37.19,15.0,73.48,-86.99,-45.46
13765,53.13436,-1.531583,185.09,15.55,6,102.51,19 / 19,2849114,2019-11-06 16:53:49:576,0.0073,-0.8311,8.9772,-0.0037,0.028,9.8065,-0.02,-0.2193,0.0904,-45.5,-40.62,32.19,83.57,-86.87,-44.17
13766,53.13436,-1.531583,185.09,15.55,6,102.51,19 / 19,2849213,2019-11-06 16:53:49:675,0.6338,-1.511,11.1237,-0.0134,0.0197,9.8066,0.1403,-0.0866,0.0792,-28.37,-34.06,36.75,99.85,-86.77,-45.35
13767,53.13436,-1.531583,185.09,15.55,6,102.51,19 / 19,2849313,2019-11-06 16:53:49:775,0.4665,-1.4963,9.4821,-0.0029,-0.0134,9.8065,0.1276,-0.0204,-0.0484,-26.69,-34.62,21.94,83.16,-86.86,-49.16
13768,53.13436,-1.531583,185.09,15.55,6,102.51,19 / 19,2849413,2019-11-06 16:53:49:875,1.6392,0.3572,9.196,0.0128,-0.0418,9.8065,-0.0138,0.11,0.029,-27.37,-36.0,17.69,71.72,-87.01,-55.15
13769,53.13436,-1.531583,185.09,15.55,6,102.51,19 / 19,2849514,2019-11-06 16:53:49:976,0.7476,1.2267,9.8128,0.0309,0.0189,9.8066,0.0385,-0.2582,0.0939,-27.25,-35.75,17.31,66.05,-87.04,-59.23
13770,53.13436,-1.531583,185.09,15.55,6,102.51,19 / 19,2849613,2019-11-06 16:53:50:075,0.8671,-2.1561,9.9859,0.0094,0.0111,9.8065,0.1171,-0.1504,0.049,-26.69,-36.19,17.56,64.16,-87.27,-62.28
13771,53.13436,-1.531583,185.09,15.55,6,102.51,19 / 19,2849713,2019-11-06 16:53:50:175,1.5683,0.6608,10.031,-0.0108,-0.0047,9.8066,0.0795,-0.0387,-0.1676,-26.62,-35.25,20.19,63.76,-87.31,-65.31
13772,53.13436,-1.531583,185.09,15.55,6,102.51,19 / 19,2849813,2019-11-06 16:53:50:275,-1.7082,-1.2753,10.7083,0.0402,0.0253,9.8065,0.1555,-0.2081,0.2232,-26.5,-34.12,23.75,67.55,-87.65,-67.26
13773,53.13436,-1.531583,185.09,15.55,6,102.51,21 / 22,2849913,2019-11-06 16:53:50:375,1.3517,1.9207,10.7564,0.0466,0.0255,9.8065,-0.0567,-0.0848,0.1332,-31.56,-35.37,43.13,70.8,-87.48,-74.12
13774,53.13436,-1.531583,185.09,15.55,6,102.51,21 / 22,2850014,2019-11-06 16:53:50:476,2.1015,-1.9645,10.3005,0.063,-0.0212,9.8063,0.0505,-0.0459,-0.021,-36.75,-37.56,18.0,35.22,-87.9,-81.86
13775,53.13436,-1.531583,185.09,15.55,6,102.51,21 / 22,2850114,2019-11-06 16:53:50:576,0.5197,-2.7932,9.423,-0.0115,-0.0219,9.8066,-0.0054,0.1392,0.0622,-30.56,-36.31,15.5,30.93,-87.84,-87.54
13776,53.13436,-1.531583,185.09,15.55,6,102.51,21 / 22,2850213,2019-11-06 16:53:50:675,-1.7657,0.918,9.7599,-0.0261,-0.0551,9.8064,-0.0909,0.3143,-0.0944,-29.81,-36.5,15.31,28.61,-87.44,-89.29
13777,53.13436,-1.531583,185.09,15.55,6,102.51,21 / 22,2850316,2019-11-06 16:53:50:778,-0.3613,-4.1319,11.1794,-0.0135,0.0167,9.8066,0.0679,-0.227,0.1916,-29.75,-36.25,16.31,33.02,-87.29,-86.65
13778,53.13436,-1.531583,185.09,15.55,6,102.51,21 / 22,2850414,2019-11-06 16:53:50:876,0.2043,0.2281,10.9657,-0.0324,-0.0224,9.8065,0.0636,0.0327,-0.1673,-31.5,-37.25,16.69,34.76,-87.25,-85.65
13779,53.13436,-1.531583,185.09,15.55,6,102.51,21 / 22,2850513,2019-11-06 16:53:50:975,-0.163,-0.1751,8.6594,-0.016,0.0055,9.8066,0.1284,0.0012,-0.012,-42.12,-39.31,23.31,33.84,-87.33,-86.1
13780,53.13436,-1.531583,185.09,15.55,6,102.51,21 / 22,2850614,2019-11-06 16:53:51:076,1.1235,-0.2616,9.2323,-0.0106,-0.0156,9.8066,-0.1425,0.2093,0.0108,-27.25,-33.44,34.25,58.06,-87.26,-85.28
13781,53.13436,-1.531583,185.09,15.55,6,102.51,21 / 22,2850714,2019-11-06 16:53:51:176,2.465,-0.1227,9.3016,0.01,0.0029,9.8066,-0.0552,-0.3968,0.178,-27.12,-34.37,22.19,47.43,-87.15,-83.83
13782,53.13436,-1.531583,185.09,15.55,6,102.51,21 / 22,2850814,2019-11-06 16:53:51:276,-0.5202,-0.0781,10.0564,-0.0158,0.0303,9.8066,-0.0641,-0.0455,0.0034,-27.69,-35.12,18.88,45.67,-86.96,-80.78
13783,53.13436,-1.531583,185.09,15.55,6,102.51,20 / 20,2850915,2019-11-06 16:53:51:377,-0.1502,-1.0482,11.0429,0.0058,-0.072,9.8063,-0.0123,0.1794,-0.1652,-27.19,-34.5,18.31,39.72,-86.83,-86.14
13784,53.13436,-1.531583,185.09,15.55,6,102.51,20 / 20,2851014,2019-11-06 16:53:51:476,1.2807,1.2859,9.9104,-0.0093,-0.0053,9.8066,0.0445,0.2726,-0.1018,-26.75,-35.06,18.13,41.2,-86.97,-84.68
13785,53.13436,-1.531583,185.09,15.55,6,102.51,20 / 20,2851114,2019-11-06 16:53:51:576,0.1315,-1.9829,9.7466,-0.0144,-0.0236,9.8065,-0.1085,0.2187,-0.2003,-27.12,-35.25,19.56,43.54,-87.28,-84.97
13786,53.13436,-1.531583,185.09,15.55,6,102.51,20 / 20,2851214,2019-11-06 16:53:51:676,0.2458,0.3196,9.482,-0.0204,0.0117,9.8065,0.0123,0.2109,-0.0428,-26.5,-34.37,24.88,56.77,-87.26,-79.3
13787,53.13436,-1.531583,185.09,15.55,6,102.51,20 / 20,2851314,2019-11-06 16:53:51:776,-2.0034,-0.4077,10.1774,-0.0242,-0.0313,9.8066,0.0428,0.2791,-0.153,-35.0,-37.69,45.25,64.77,-87.4,-78.94
13788,53.13436,-1.531583,185.09,15.55,6,102.51,20 / 20,2851414,2019-11-06 16:53:51:876,3.4121,2.3123,9.1584,-0.0096,-0.0591,9.8064,0.0594,0.5426,-0.2658,-40.62,-38.75,20.63,32.83,-87.19,-85.61
13789,53.13436,-1.531583,185.09,15.55,6,102.51,20 / 20,2851513,2019-11-06 16:53:51:975,-0.7169,-3.1405,9.6327,0.002,-0.0297,9.8065,0.0363,-0.2187,0.0137,-30.06,-36.5,16.31,27.45,-87.17,-92.04
13790,53.13436,-1.531583,185.09,15.55,6,102.51,20 / 20,2851614,2019-11-06 16:53:52:076,0.1923,2.0825,9.6032,-0.0173,-0.0411,9.8065,-0.014,0.2706,-0.0824,-29.5,-36.94,16.56,29.06,-87.09,-92.91
13791,53.13436,-1.531583,185.09,15.55,6,102.51,20 / 20,2851714,2019-11-06 16:53:52:176,0.1686,1.2807,10.1986,-0.0244,0.0157,9.8066,-0.0348,-0.3544,0.0768,-29.69,-36.56,16.44,27.72,-87.15,-91.82
13792,53.13436,-1.531583,185.09,15.55,6,102.51,20 / 20,2851814,2019-11-06 16:53:52:276,2.3949,2.0222,10.0145,-0.0183,0.0057,9.8066,-0.0195,0.2007,-0.0477,-32.69,-37.81,16.94,36.72,-87.1,-82.35
13793,53.13436,-1.531583,185.09,15.55,6,102.51,20 / 20,2851914,2019-11-06 16:53:52:376,-0.8695,-1.9834,9.5992,-0.0058,-0.0044,9.8066,-0.0404,0.0105,-0.0552,-45.31,-39.75,28.63,43.11,-87.15,-81.19
13794,53.13436,-1.531583,185.09,15.55,6,102.51,20 / 20,2852014,2019-11-06 16:53:52:476,2.5937,1.4877,9.2587,-0.0339,-0.0227,9.8065,-0.0142,0.3643,-0.1185,-28.56,-34.44,36.63,65.39,-87.1,-78.46
13795,53.13436,-1.531583,185.09,15.55,6,102.51,20 / 20,2852114,2019-11-06 16:53:52:576,1.7969,0.9287,9.8497,0.0034,0.0232,9.8066,0.0382,-0.2565,0.0863,-26.81,-34.56,22.13,54.69,-87.15,-76.86
13796,53.13436,-1.531583,185.09,15.55,6,102.51,20 / 20,2852214,2019-11-06 16:53:52:676,2.7695,2.3324,10.2195,0.008,-0.0348,9.8066,0.0063,0.1414,0.015,-27.44,-35.81,18.44,49.01,-87.16,-77.09
13797,53.13436,-1.531583,185.09,15.55,6,102.51,20 / 20,2852314,2019-11-06 16:53:52:776,0.304,-1.6964,11.0663,0.0453,-0.0037,9.8065,0.0019,-0.3135,0.1541,-27.44,-35.37,18.25,40.05,-87.23,-85.6
13798,53.13436,-1.531583,185.09,15.55,6,102.51,20 / 20,2852414,2019-11-06 16:53:52:876,0.1589,-1.2461,9.7686,0.0078,-0.0049,9.8066,-0.0256,-0.0276,0.0605,-27.5,-35.69,17.69,38.46,-87.24,-87.17
13799,53.13436,-1.531583,185.09,15.55,6,102.51,20 / 20,2852514,2019-11-06 16:53:52:976,1.0386,-2.0494,9.4303,0.0132,0.0241,9.8065,0.0193,-0.1976,0.0396,-27.69,-35.94,19.0,36.09,-87.21,-89.86
13800,53.13436,-1.531583,185.09,15.55,6,102.51,20 / 20,2852613,2019-11-06 16:53:53:075,-0.5784,-0.5705,9.3027,0.0022,0.0034,9.8066,-0.0231,-0.0535,0.0487,-26.5,-34.0,24.38,45.89,-87.39,-88.65
13801,53.13436,-1.531583,185.09,15.55,6,102.51,20 / 20,2852714,2019-11-06 16:53:53:176,4.0327,1.5681,9.7255,0.0442,0.0408,9.8064,-0.0505,-0.4111,0.204,-36.0,-37.94,45.0,54.19,-87.4,-88.57
13802,53.13436,-1.531583,185.09,15.55,6,102.51,20 / 20,2852814,2019-11-06 16:53:53:276,0.729,0.5715,10.3511,0.0088,0.0317,9.8065,-0.0055,-0.2502,0.1357,-39.94,-38.31,20.63,31.5,-87.58,-87.29
13803,53.13436,-1.531583,185.09,15.55,6,102.51,19 / 20,2852914,2019-11-06 16:53:53:376,1.6846,0.7638,8.7832,0.01,0.0266,9.8066,-0.0331,-0.155,0.0516,-30.0,-37.0,17.0,30.77,-87.64,-90.09
13804,53.13436,-1.531583,185.09,15.55,6,102.51,19 / 20,2853014,2019-11-06 16:53:53:476,-0.8499,-1.5201,11.6423,-0.026,0.0227,9.8065,0.0935,-0.1296,0.1216,-28.87,-36.19,16.31,31.09,-87.55,-89.19
13805,53.13436,-1.531583,185.09,15.55,6,102.51,19 / 20,2853114,2019-11-06 16:53:53:576,0.4741,-1.3198,10.4227,-0.0081,0.02,9.8066,0.0411,-0.3347,-0.018,-29.19,-36.69,16.56,31.33,-87.45,-90.54
13806,53.13436,-1.531583,185.09,15.55,6,102.51,19 / 20,2853214,2019-11-06 16:53:53:676,1.7098,-1.6403,9.9098,-0.0121,0.0262,9.8066,-0.0083,-0.0622,0.1763,-32.37,-36.94,16.44,33.91,-87.55,-84.09
13807,53.13436,-1.531583,185.09,15.55,6,102.51,19 / 20,2853314,2019-11-06 16:53:53:776,1.114,-0.5056,10.2006,0.0268,0.0131,9.8065,0.0311,-0.248,-0.0978,-45.37,-39.87,30.19,39.28,-87.43,-85.64
13808,53.13436,-1.531583,185.09,15.55,6,102.51,19 / 20,2853414,2019-11-06 16:53:53:876,-0.4939,-0.8554,10.8243,0.0545,-0.0073,9.8065,-0.0137,-0.4159,0.3629,-28.19,-34.25,39.75,55.96,-87.82,-90.32
13809,53.13436,-1.531583,185.09,15.55,6,102.51,19 / 20,2853514,2019-11-06 16:53:53:976,1.1797,4.0313,9.6973,0.0542,0.0374,9.8064,0.0385,0.2046,-0.1098,-26.37,-35.19,20.94,38.88,-88.15,-91.28
13810,53.13436,-1.531583,185.09,15.55,6,102.51,19 / 20,2853613,2019-11-06 16:53:54:075,1.3446,2.8309,9.1456,0.0312,0.0359,9.8065,-0.0625,0.0017,0.0939,-26.62,-36.5,18.63,28.44,-88.43,-97.52
13811,53.13436,-1.531583,185.09,15.55,6,102.51,19 / 20,2853714,2019-11-06 16:53:54:176,-2.0305,0.5706,10.311,-0.0184,-0.0188,9.8066,-0.1568,0.1767,-0.001,-26.87,-35.94,17.63,29.14,-88.32,-95.47
13812,53.13436,-1.531583,185.09,15.55,6,102.51,19 / 20,2853814,2019-11-06 16:53:54:276,0.3117,1.1117,9.9654,-0.0203,-0.0269,9.8066,0.0145,0.1552,-0.0977,-26.69,-35.62,18.63,41.72,-88.02,-84.86
13813,53.13436,-1.531583,185.09,15.55,6,102.51,18 / 18,2853914,2019-11-06 16:53:54:376,0.297,0.4123,8.3981,-0.0188,-0.0068,9.8066,0.144,-0.1709,-0.0004,-26.75,-35.37,19.19,36.23,-88.08,-90.12
13814,53.13436,-1.531583,185.09,15.55,6,102.51,18 / 18,2854014,2019-11-06 16:53:54:476,0.5692,-0.4984,8.4899,0.0148,-0.0035,9.8066,0.0014,-0.0507,-0.0155,-26.19,-34.81,23.0,36.13,-87.84,-96.67
13815,53.13436,-1.531583,185.09,15.55,6,102.51,18 / 18,2854113,2019-11-06 16:53:54:575,0.764,0.3515,10.8306,0.0212,-0.0337,9.8065,-0.1326,-0.0324,-0.051,-39.06,-38.62,45.69,34.27,-87.86,-106.24
13816,53.13436,-1.531583,185.09,15.55,6,102.51,18 / 18,2854214,2019-11-06 16:53:54:676,0.1568,-1.0103,9.7623,0.0009,0.0358,9.8065,0.0746,-0.1981,0.1021,-36.62,-37.56,19.0,14.32,-87.96,-103.33
13817,53.13436,-1.531583,185.09,15.55,6,102.51,18 / 18,2854314,2019-11-06 16:53:54:776,2.8817,2.0408,9.1889,-0.0341,-0.0291,9.8065,0.0282,0.3732,-0.2916,-30.19,-36.56,16.56,16.67,-88.03,-103.48
13818,53.13436,-1.531583,185.09,15.55,6,102.51,18 / 18,2854413,2019-11-06 16:53:54:875,2.3948,-2.2374,9.48,0.0107,-0.0044,9.8066,0.0171,0.1369,-0.0259,-28.69,-35.87,16.06,13.98,-87.95,-105.46
13819,53.13436,-1.531583,185.09,15.55,6,102.51,18 / 18,2854514,2019-11-06 16:53:54:976,0.6922,-0.3638,10.3977,0.0008,-0.0371,9.8065,-0.0963,0.113,-0.1525,-28.62,-33.19,17.44,12.22,-87.76,-108.64
13820,53.13436,-1.531583,185.09,15.55,6,102.51,18 / 18,2854614,2019-11-06 16:53:55:076,0.5165,1.1801,9.0819,-0.0284,0.022,9.8065,0.0369,0.0855,-0.0589,-31.81,-35.0,17.44,18.55,-87.87,-100.1
13821,53.13436,-1.531583,185.09,15.55,6,102.51,18 / 18,2854714,2019-11-06 16:53:55:176,-0.6681,0.173,9.8116,-0.024,-0.0442,9.8065,-0.0985,0.2686,-0.1619,-44.06,-38.25,26.75,24.6,-88.01,-97.56
13822,53.13436,-1.531583,185.09,15.55,6,102.51,18 / 18,2854815,2019-11-06 16:53:55:277,2.9742,-1.4992,9.4504,-0.01,-0.0341,9.8066,-0.1093,0.3062,-0.1475,-26.81,-33.87,31.38,46.58,-87.76,-93.73
13823,53.13436,-1.531583,185.09,15.55,6,102.51,18 / 18,2854913,2019-11-06 16:53:55:375,-2.2369,-3.7477,9.3565,-0.067,-0.0957,9.8059,-0.1117,0.4932,-0.3481,-26.31,-35.62,21.38,47.1,-87.97,-83.44
13824,53.13436,-1.531583,185.09,15.55,6,102.51,18 / 18,2855014,2019-11-06 16:53:55:476,2.6611,2.5024,9.4877,-0.0281,0.0231,9.8066,-0.0409,0.4257,0.0205,-26.56,-36.06,19.13,46.84,-87.64,-80.19
13825,53.13436,-1.531583,185.09,15.55,6,102.51,18 / 18,2855114,2019-11-06 16:53:55:576,-2.8827,-3.2467,12.7478,0.007,0.0125,9.8065,-0.0305,-0.0907,0.1474,-27.5,-35.75,18.81,35.3,-87.34,-91.54
13826,53.13436,-1.531583,185.09,15.55,6,102.51,18 / 18,2855214,2019-11-06 16:53:55:676,0.7826,0.7687,10.945,0.0495,-0.0896,9.806,0.0172,0.1871,-0.1686,-27.31,-36.19,18.88,31.09,-87.28,-95.61
13827,53.13436,-1.531583,185.09,15.55,6,102.51,18 / 18,2855314,2019-11-06 16:53:55:776,0.0957,-1.3478,9.6954,0.0171,-0.0041,9.8066,0.0857,0.0216,0.138,-26.75,-35.44,19.56,22.77,-87.29,-104.87
13828,53.13436,-1.531583,185.09,15.55,6,102.51,18 / 18,2855414,2019-11-06 16:53:55:876,1.21,-0.1422,8.9137,-0.0253,-0.0706,9.8063,-0.0159,0.2338,-0.3352,-26.87,-33.62,27.25,25.06,-87.1,-111.07
13829,53.13436,-1.531583,185.09,15.55,6,102.51,18 / 18,2855514,2019-11-06 16:53:55:976,-0.1022,-1.6238,9.43,-0.029,-0.0145,9.8065,-0.0416,0.0509,-0.0002,-39.44,-38.19,45.63,28.36,-87.39,-112.15
13830,53.13436,-1.531583,185.09,15.55,6,102.51,18 / 18,2855614,2019-11-06 16:53:56:076,0.7766,0.504,8.904,0.011,-0.0202,9.8066,-0.0608,0.1317,-0.119,-37.12,-38.0,19.63,9.47,-87.17,-109.35
13831,53.13436,-1.531583,185.09,15.55,6,102.51,18 / 18,2855714,2019-11-06 16:53:56:176,-0.1329,-0.0874,9.9246,-0.0079,-0.0134,9.8066,0.0301,0.0853,-0.0695,-29.5,-36.19,17.56,13.04,-87.21,-109.46
13832,53.13436,-1.531583,185.09,15.55,6,102.51,18 / 18,2855815,2019-11-06 16:53:56:277,2.6609,0.8653,9.0543,-0.0064,-0.014,9.8066,-0.0291,0.2214,-0.1494,-29.44,-35.94,16.81,10.27,-87.21,-110.65
13833,53.13436,-1.531583,185.09,15.55,6,102.51,19 / 19,2855913,2019-11-06 16:53:56:375,-0.4875,-1.5455,10.3904,-0.0104,-0.0229,9.8066,-0.0846,0.1108,-0.0782,-29.0,-36.56,17.63,13.33,-87.43,-109.15
13834,53.13436,-1.531583,185.09,15.55,6,102.51,19 / 19,2856014,2019-11-06 16:53:56:476,1.9475,1.4203,10.2461,-0.021,-0.0039,9.8066,-0.0109,0.3072,-0.1205,-31.87,-36.87,17.19,15.42,-87.39,-103.28
13835,53.13436,-1.531583,185.09,15.55,6,102.51,19 / 19,2856114,2019-11-06 16:53:56:576,-2.0661,-1.9142,10.1826,-0.0008,-0.0076,9.8066,0.1009,0.055,-0.0751,-44.81,-39.5,41.75,26.86,-87.46,-106.91
13836,53.13436,-1.531583,185.09,15.55,6,102.51,19 / 19,2856214,2019-11-06 16:53:56:676,1.0601,-1.6761,10.6419,-0.0095,-0.0306,9.8065,-0.0199,0.147,-0.0667,-26.44,-34.19,32.38,29.71,-87.56,-112.22
13837,53.13436,-1.531583,185.09,15.55,6,102.51,19 / 19,2856314,2019-11-06 16:53:56:776,-0.4825,-0.488,10.0919,0.0135,0.0211,9.8066,-0.0505,-0.0932,0.1843,-26.75,-34.62,22.63,16.96,-87.66,-114.15
13838,53.13436,-1.531583,185.09,15.55,6,102.51,19 / 19,2856414,2019-11-06 16:53:56:876,0.7822,0.9953,9.9401,-0.0304,-0.0076,9.8066,0.0615,0.0518,-0.0951,-27.5,-35.75,18.75,17.27,-87.7,-108.62
13839,53.13436,-1.531583,185.09,15.55,6,102.51,19 / 19,2856513,2019-11-06 16:53:56:975,1.1594,0.2744,9.053,-0.0174,0.0083,9.8066,0.0046,0.0099,0.0515,-27.25,-35.75,18.56,18.2,-87.66,-107.74
13840,53.13436,-1.531583,185.09,15.55,6,102.51,19 / 19,2856613,2019-11-06 16:53:57:075,0.5455,1.9459,9.4883,-0.0226,-0.0056,9.8066,-0.0222,0.1545,-0.0405,-26.87,-35.81,18.13,24.22,-87.6,-100.58
13841,53.13436,-1.531583,185.09,15.55,6,102.51,19 / 19,2856713,2019-11-06 16:53:57:175,-1.3346,-0.0126,10.4889,0.0309,0.0044,9.8065,-0.0189,-0.079,0.0631,-26.25,-35.12,20.0,21.37,-87.72,-107.1
13842,53.13436,-1.531583,185.09,15.55,6,102.51,19 / 19,2856813,2019-11-06 16:53:57:275,-1.9585,0.9327,10.6755,-0.0147,0.0193,9.8066,0.0297,-0.0065,0.0385,-26.56,-34.31,25.19,30.09,-87.88,-103.7
13843,53.13436,-1.531583,185.09,15.55,6,102.51,19 / 20,2856915,2019-11-06 16:53:57:377,-0.0994,-0.3988,9.4374,0.0468,0.0285,9.8064,0.0583,-0.1561,0.1197,-36.19,-38.44,46.19,38.63,-87.82,-104.22
13844,53.13436,-1.531583,185.09,15.55,6,102.51,19 / 20,2857014,2019-11-06 16:53:57:476,0.6139,-1.4635,10.3343,-0.0143,-0.0037,9.8066,0.1064,-0.1935,0.0365,-36.94,-38.44,19.19,6.52,-88.06,-110.87
13845,53.13436,-1.531583,185.09,15.55,6,102.51,19 / 20,2857114,2019-11-06 16:53:57:576,-0.0246,3.0807,8.7397,-0.0137,0.0333,9.8065,0.1484,-0.2718,0.1314,-29.19,-37.19,16.31,7.34,-88.19,-111.8
13846,53.13436,-1.531583,185.09,15.55,6,102.51,19 / 20,2857214,2019-11-06 16:53:57:676,-0.5484,0.9572,9.6822,0.0179,-0.0018,9.8066,-0.0568,-0.1281,0.0643,-28.06,-36.5,17.13,8.04,-88.03,-113.53
13847,53.13436,-1.531583,185.09,15.55,6,102.51,19 / 20,2857314,2019-11-06 16:53:57:776,1.2581,1.6177,9.5242,0.0047,0.0117,9.8066,-0.0152,0.1802,-0.0538,-28.87,-37.0,16.19,10.34,-88.02,-108.95
13848,53.13436,-1.531583,185.09,15.55,6,102.51,19 / 20,2857413,2019-11-06 16:53:57:875,-0.9737,1.0655,9.7636,-0.0016,0.017,9.8065,-0.0173,-0.0944,0.0389,-32.31,-37.44,16.94,7.72,-88.16,-110.52
13849,53.13436,-1.531583,185.09,15.55,6,102.51,19 / 20,2857514,2019-11-06 16:53:57:976,2.7206,3.5203,9.5088,-0.0332,-0.033,9.8065,-0.0435,0.4861,-0.3227,-45.0,-40.75,34.38,21.5,-88.26,-106.04
13850,53.13436,-1.531583,185.09,15.55,6,102.51,19 / 20,2857614,2019-11-06 16:53:58:076,1.6051,1.1192,9.1665,0.0361,-0.0048,9.8065,-0.0331,0.1875,0.0161,-27.0,-34.69,35.5,36.72,-88.27,-107.23
13851,53.13436,-1.531583,185.09,15.55,6,102.51,19 / 20,2857714,2019-11-06 16:53:58:176,0.7381,-2.0357,10.2706,0.0158,-0.0625,9.8064,-0.0783,0.0342,0.0104,-26.5,-34.94,20.69,16.02,-87.77,-113.56
13852,53.13436,-1.531583,185.09,15.55,6,102.51,19 / 20,2857814,2019-11-06 16:53:58:276,4.269,-1.4248,10.1541,-0.0324,-0.0097,9.8065,0.3009,-0.0439,0.0269,-26.44,-35.56,19.25,11.9,-87.68,-114.8
13853,53.134087,-1.529544,189.33,15.21,4,103.74,20 / 20,2857914,2019-11-06 16:53:58:376,-1.991,-2.6673,11.0625,-0.0375,0.0384,9.8065,-0.0161,-0.3429,0.0901,-27.44,-35.87,18.56,2.99,-87.2,-122.31
13854,53.134087,-1.529544,189.33,15.21,4,103.74,20 / 20,2858014,2019-11-06 16:53:58:476,0.6126,-0.2423,8.3542,0.0239,-0.0686,9.8064,-0.189,0.1293,-0.1099,-26.94,-35.44,17.75,6.38,-87.09,-117.67
13855,53.134087,-1.529544,189.33,15.21,4,103.74,20 / 20,2858114,2019-11-06 16:53:58:576,0.8359,3.1018,10.0245,0.0223,0.066,9.8063,-0.0796,-0.3035,0.3164,-27.06,-34.37,20.44,15.53,-87.64,-111.65
13856,53.134087,-1.529544,189.33,15.21,4,103.74,20 / 20,2858213,2019-11-06 16:53:58:675,1.3619,-0.6189,9.0024,0.0006,-0.0001,9.8066,0.0852,-0.2074,-0.1438,-26.94,-33.44,25.81,21.4,-87.44,-113.36
13857,53.134087,-1.529544,189.33,15.21,4,103.74,20 / 20,2858314,2019-11-06 16:53:58:776,1.0126,1.5105,10.8423,0.0261,0.0218,9.8065,0.1116,-0.173,0.0694,-36.0,-37.31,45.56,21.24,-87.59,-121.28
13858,53.134087,-1.529544,189.33,15.21,4,103.74,20 / 20,2858414,2019-11-06 16:53:58:876,-0.8184,-0.2646,8.8915,0.0333,0.0134,9.8065,-0.2054,-0.0494,0.063,-34.31,-37.0,18.0,352.0,-87.71,-125.59
13859,53.134087,-1.529544,189.33,15.21,4,103.74,20 / 20,2858514,2019-11-06 16:53:58:976,0.119,-0.4103,8.4817,0.0443,0.0066,9.8065,-0.0868,-0.073,0.1321,-29.87,-37.0,16.31,358.28,-87.74,-119.72
13860,53.134087,-1.529544,189.33,15.21,4,103.74,20 / 20,2858613,2019-11-06 16:53:59:075,1.2714,-0.5974,9.6036,-0.0653,0.0155,9.8063,0.018,-0.0719,-0.0072,-28.69,-36.56,17.19,4.5,-87.77,-116.08
13861,53.134087,-1.529544,189.33,15.21,4,103.74,20 / 20,2858713,2019-11-06 16:53:59:175,0.9483,1.9298,10.6379,-0.008,0.0229,9.8066,-0.0784,-0.2974,0.1316,-28.62,-36.94,17.75,13.13,-87.92,-109.22
13862,53.134087,-1.529544,189.33,15.21,4,103.74,20 / 20,2858814,2019-11-06 16:53:59:276,0.6696,-3.3877,11.7495,0.0158,0.0249,9.8066,0.1182,-0.4737,0.2387,-31.69,-37.37,17.44,13.23,-87.88,-105.25
13863,53.134087,-1.529544,189.33,15.21,4,103.74,19 / 20,2858914,2019-11-06 16:53:59:376,2.6314,2.1509,9.9543,-0.0178,0.0315,9.8066,0.1243,0.0418,-0.1358,-44.87,-40.37,29.06,13.81,-87.73,-109.4
13864,53.134087,-1.529544,189.33,15.21,4,103.74,19 / 20,2859014,2019-11-06 16:53:59:476,-3.0385,-0.889,9.4711,0.0553,0.0214,9.8064,-0.0877,-0.3024,0.1797,-26.44,-33.62,31.63,27.65,-88.05,-114.01
13865,53.134087,-1.529544,189.33,15.21,4,103.74,19 / 20,2859114,2019-11-06 16:53:59:576,1.2978,-1.621,10.6897,0.0429,-0.0078,9.8065,-0.1421,0.3019,0.0071,-26.44,-34.62,22.13,22.75,-88.08,-108.26
13866,53.134087,-1.529544,189.33,15.21,4,103.74,19 / 20,2859213,2019-11-06 16:53:59:675,-1.0371,-1.8872,10.9183,-0.0162,0.0143,9.8066,-0.0039,-0.0433,-0.1012,-26.56,-35.62,19.19,14.28,-88.24,-111.34
13867,53.134087,-1.529544,189.33,15.21,4,103.74,19 / 20,2859314,2019-11-06 16:53:59:776,1.7747,0.4027,9.7434,-0.0217,-0.019,9.8065,-0.0009,0.1931,-0.115,-27.19,-36.06,18.06,16.82,-88.25,-107.44
13868,53.134087,-1.529544,189.33,15.21,4,103.74,19 / 20,2859414,2019-11-06 16:53:59:876,0.2384,0.6352,9.5908,0.0145,0.0304,9.8065,-0.1315,-0.2179,0.1277,-26.44,-36.06,18.56,21.06,-88.41,-105.74
13869,53.134087,-1.529544,189.33,15.21,4,103.74,19 / 20,2859514,2019-11-06 16:53:59:976,1.7709,0.7024,9.1811,0.0168,-0.0021,9.8066,-0.0982,0.195,0.0208,-26.12,-34.94,20.13,32.06,-88.32,-96.47
13870,53.134087,-1.529544,189.33,15.21,4,103.74,19 / 20,2859614,2019-11-06 16:54:00:076,1.6206,0.218,10.7019,-0.0078,-0.0013,9.8066,0.0648,0.0586,-0.1234,-26.31,-33.87,26.25,37.93,-88.3,-98.04
13871,53.134087,-1.529544,189.33,15.21,4,103.74,19 / 20,2859713,2019-11-06 16:54:00:175,-0.5897,0.2607,9.4441,-0.021,-0.0166,9.8066,0.1675,0.2174,-0.1062,-38.06,-38.44,45.94,37.35,-88.38,-103.73
13872,53.134087,-1.529544,189.33,15.21,4,103.74,19 / 20,2859814,2019-11-06 16:54:00:276,1.0786,0.1792,9.1155,0.0144,-0.0153,9.8066,-0.0235,0.05,-0.0139,-37.12,-38.56,19.94,5.32,-88.19,-113.23
13873,53.134087,-1.529544,189.33,15.21,4,103.74,19 / 20,2859913,2019-11-06 16:54:00:375,0.111,0.8443,9.1947,0.0184,-0.0075,9.8066,-0.0916,0.1139,0.0006,-29.5,-37.19,16.5,5.53,-88.17,-115.05
13874,53.134087,-1.529544,189.33,15.21,4,103.74,19 / 20,2860014,2019-11-06 16:54:00:476,-1.902,-1.3475,10.8665,0.0061,0.0291,9.8065,0.1148,-0.2416,0.1069,-28.81,-37.12,17.19,8.59,-88.39,-112.06
13875,53.134087,-1.529544,189.33,15.21,4,103.74,19 / 20,2860114,2019-11-06 16:54:00:576,-0.998,-0.7361,8.9443,-0.012,0.0076,9.8066,0.0185,0.3055,-0.0712,-28.62,-37.12,16.75,3.28,-88.24,-117.21
13876,53.134087,-1.529544,189.33,15.21,4,103.74,19 / 20,2860213,2019-11-06 16:54:00:675,-2.5549,-0.3266,8.8697,0.0094,-0.0104,9.8065,-0.0448,0.1193,-0.114,-31.94,-37.87,17.69,358.81,-88.39,-120.51
13877,53.134087,-1.529544,189.33,15.21,4,103.74,19 / 20,2860314,2019-11-06 16:54:00:776,-1.0323,1.1835,10.7972,-0.0304,-0.0073,9.8065,-0.0933,0.228,-0.0332,-44.69,-40.75,33.06,12.34,-88.57,-114.14
13878,53.134087,-1.529544,189.33,15.21,4,103.74,19 / 20,2860414,2019-11-06 16:54:00:876,2.3579,0.7868,9.5086,-0.0267,-0.0062,9.8066,-0.0987,0.2554,-0.1851,-27.62,-34.5,38.38,51.01,-88.48,-93.47
13879,53.134087,-1.529544,189.33,15.21,4,103.74,19 / 20,2860513,2019-11-06 16:54:00:975,-1.4614,0.4248,10.1002,-0.0249,-0.0122,9.8066,-0.0031,0.0781,-0.0329,-25.94,-34.94,20.5,44.51,-88.47,-85.55
13880,53.134087,-1.529544,189.33,15.21,4,103.74,19 / 20,2860613,2019-11-06 16:54:01:075,-1.7755,-0.103,10.4643,0.0067,-0.0042,9.8066,-0.1147,0.0346,0.0301,-25.62,-35.19,18.06,44.72,-88.44,-81.2
13881,53.134087,-1.529544,189.33,15.21,4,103.74,19 / 20,2860714,2019-11-06 16:54:01:176,-0.2768,-2.2274,9.7013,-0.012,-0.0179,9.8066,-0.0286,-0.0207,0.0208,-26.44,-35.75,18.69,54.62,-88.27,-73.13
13882,53.134087,-1.529544,189.33,15.21,4,103.74,19 / 20,2860814,2019-11-06 16:54:01:276,-0.2624,-1.5051,9.4329,0.0123,-0.0201,9.8066,0.0099,-0.022,0.0101,-26.44,-36.44,18.25,48.49,-88.19,-77.76
13883,53.134087,-1.529544,189.33,15.21,4,103.74,19 / 19,2860914,2019-11-06 16:54:01:376,0.8452,-0.3116,9.09,0.0222,0.0203,9.8065,0.018,-0.0694,0.0293,-25.94,-35.31,19.88,49.42,-88.13,-79.68
13884,53.134087,-1.529544,189.33,15.21,4,103.74,19 / 19,2861013,2019-11-06 16:54:01:475,-0.4734,-1.4787,9.7098,-0.0057,0.0318,9.8066,0.0398,-0.1907,0.0236,-25.56,-35.12,24.13,56.49,-88.42,-77.53
13885,53.134087,-1.529544,189.33,15.21,4,103.74,19 / 19,2861113,2019-11-06 16:54:01:575,-1.7591,1.693,10.0107,-0.0114,0.0195,9.8065,0.0119,0.013,-0.0358,-39.37,-39.44,45.5,68.94,-88.46,-71.71
13886,53.134087,-1.529544,189.33,15.21,4,103.74,19 / 19,2861214,2019-11-06 16:54:01:676,1.1201,-0.2598,10.2703,0.0362,0.0097,9.8065,-0.1478,0.0164,0.0527,-36.19,-38.06,19.56,50.85,-88.57,-69.24
13887,53.134087,-1.529544,189.33,15.21,4,103.74,19 / 19,2861314,2019-11-06 16:54:01:776,-0.8348,0.1632,8.4583,0.018,-0.0005,9.8066,-0.1211,0.0604,0.0751,-30.12,-37.06,16.38,56.63,-88.47,-62.84
13888,53.134087,-1.529544,189.33,15.21,4,103.74,19 / 19,2861414,2019-11-06 16:54:01:876,0.4549,-0.4696,11.0873,-0.0341,-0.0085,9.8065,0.1651,0.0132,-0.0965,-28.0,-36.87,16.69,59.02,-88.37,-63.83
13889,53.134087,-1.529544,189.33,15.21,4,103.74,19 / 19,2861514,2019-11-06 16:54:01:976,0.8466,-0.1682,10.1884,-0.0118,-0.0207,9.8066,0.1229,0.1046,-0.117,-28.37,-37.12,16.69,56.83,-88.7,-65.66
13890,53.134087,-1.529544,189.33,15.21,4,103.74,19 / 19,2861614,2019-11-06 16:54:02:076,1.4685,-0.5006,9.2621,0.0131,0.0024,9.8066,-0.0925,0.0821,0.0252,-30.31,-37.56,16.5,46.77,-88.81,-73.73
13891,53.134087,-1.529544,189.33,15.21,4,103.74,19 / 19,2861713,2019-11-06 16:54:02:175,-0.4165,0.4141,10.4554,-0.0021,0.0224,9.8066,-0.0895,-0.0542,0.0262,-44.56,-41.0,36.31,69.76,-88.78,-59.72
13892,53.134087,-1.529544,189.33,15.21,4,103.74,19 / 19,2861814,2019-11-06 16:54:02:276,0.4073,-0.6111,10.8606,-0.011,0.0025,9.8066,0.0289,-0.04,0.0291,-26.06,-33.81,34.94,90.78,-88.64,-53.68
13893,53.134087,-1.529544,189.33,15.21,4,103.74,20 / 20,2861914,2019-11-06 16:54:02:376,-0.2595,-1.0703,9.9487,0.0034,-0.0133,9.8066,0.0581,0.0601,0.0187,-25.44,-35.19,22.94,77.51,-88.68,-56.44
13894,53.134087,-1.529544,189.33,15.21,4,103.74,20 / 20,2862014,2019-11-06 16:54:02:476,1.3735,-0.2802,9.8995,0.0254,-0.0051,9.8066,0.0282,0.0649,-0.0514,-25.69,-35.75,19.13,64.82,-88.72,-62.64
13895,53.134087,-1.529544,189.33,15.21,4,103.74,20 / 20,2862114,2019-11-06 16:54:02:576,0.3458,-0.4391,9.6201,-0.0145,-0.0111,9.8066,-0.0633,-0.0279,0.1145,-26.69,-36.12,18.06,52.67,-88.77,-72.11
13896,53.134087,-1.529544,189.33,15.21,4,103.74,20 / 20,2862213,2019-11-06 16:54:02:675,-0.5719,1.7889,9.7641,0.0107,-0.0115,9.8066,0.0802,0.1127,-0.1075,-26.44,-36.44,18.19,50.75,-88.88,-74.94
13897,53.134087,-1.529544,189.33,15.21,4,103.74,20 / 20,2862314,2019-11-06 16:54:02:776,2.0273,0.5052,10.3568,0.0044,-0.0094,9.8066,-0.0079,-0.154,0.0324,-26.62,-36.12,18.75,42.37,-88.84,-83.62
13898,53.134087,-1.529544,189.33,15.21,4,103.74,20 / 20,2862413,2019-11-06 16:54:02:875,2.214,-1.8461,10.2013,-0.0103,-0.0271,9.8065,0.0371,-0.1939,0.1569,-25.69,-34.12,25.44,38.81,-88.74,-95.82
13899,53.134087,-1.529544,189.33,15.21,4,103.74,20 / 20,2862513,2019-11-06 16:54:02:975,0.703,1.2942,8.859,0.0028,-0.025,9.8066,0.0428,-0.0685,-0.0027,-36.25,-38.44,45.69,35.17,-88.81,-107.24
13900,53.134087,-1.529544,189.33,15.21,4,103.74,20 / 20,2862614,2019-11-06 16:54:03:076,-0.5558,-1.1958,10.6173,0.0078,-0.0196,9.8066,0.0354,-0.1334,0.1214,-38.81,-38.12,20.19,15.63,-88.74,-101.82
13901,53.134087,-1.529544,189.33,15.21,4,103.74,20 / 20,2862714,2019-11-06 16:54:03:176,0.5827,0.6084,10.3009,-0.0338,-0.0095,9.8066,-0.0194,0.0318,-0.0025,-29.81,-37.31,17.0,26.23,-88.67,-93.94
13902,53.134087,-1.529544,189.33,15.21,4,103.74,20 / 20,2862814,2019-11-06 16:54:03:276,0.8587,1.2114,9.659,-0.0199,0.0201,9.8066,-0.0503,0.1954,-0.0537,-28.0,-36.81,16.69,26.56,-88.61,-95.41
13903,53.134087,-1.529544,189.33,15.21,4,103.74,19 / 19,2862916,2019-11-06 16:54:03:378,-1.0641,-0.288,9.5439,0.0284,0.0197,9.8065,0.0654,0.1751,-0.1176,-28.94,-37.06,16.75,26.61,-88.74,-94.4
13904,53.134087,-1.529544,189.33,15.21,4,103.74,19 / 19,2863014,2019-11-06 16:54:03:476,1.5839,-1.7275,9.4718,0.0344,0.0302,9.8065,0.0302,0.101,-0.0848,-31.69,-37.19,17.0,19.22,-88.81,-99.17
13905,53.134087,-1.529544,189.33,15.21,4,103.74,19 / 19,2863114,2019-11-06 16:54:03:576,-0.3417,-1.3729,10.5178,-0.0057,0.0083,9.8066,-0.002,0.0393,0.0324,-44.25,-40.12,30.63,24.5,-88.66,-101.09
13906,53.134087,-1.529544,189.33,15.21,4,103.74,19 / 19,2863214,2019-11-06 16:54:03:676,1.8863,-3.024,9.4114,0.014,-0.0241,9.8066,-0.0387,0.0071,-0.0269,-28.06,-34.56,39.31,42.02,-88.57,-103.01
13907,53.134087,-1.529544,189.33,15.21,4,103.74,19 / 19,2863314,2019-11-06 16:54:03:776,1.3879,-0.8581,7.6853,-0.0382,-0.0115,9.8065,-0.0568,0.1775,0.1103,-26.12,-35.12,21.06,25.0,-88.35,-104.67
13908,53.134087,-1.529544,189.33,15.21,4,103.74,19 / 19,2863414,2019-11-06 16:54:03:876,4.6867,3.3086,10.057,-0.0415,0.0739,9.8062,0.0434,0.4945,-0.4416,-26.37,-35.87,18.44,18.48,-88.19,-106.87
13909,53.134087,-1.529544,189.33,15.21,4,103.74,19 / 19,2863514,2019-11-06 16:54:03:976,-5.3499,1.5637,10.0069,0.0321,0.0481,9.8064,0.1551,-0.2394,0.0141,-27.31,-35.5,18.19,33.12,-88.23,-91.63
13910,53.134087,-1.529544,189.33,15.21,4,103.74,19 / 19,2863614,2019-11-06 16:54:04:076,0.4027,3.4886,7.8084,0.0064,-0.0538,9.8065,-0.1289,0.0815,-0.0287,-27.31,-36.25,17.69,41.5,-87.96,-83.71
13911,53.134087,-1.529544,189.33,15.21,4,103.74,19 / 19,2863714,2019-11-06 16:54:04:176,0.282,0.6704,10.0691,-0.0206,0.0281,9.8065,-0.0002,-0.3392,0.106,-26.56,-35.69,19.5,52.67,-88.05,-75.53
13912,53.134087,-1.529544,189.33,15.21,4,103.74,19 / 19,2863814,2019-11-06 16:54:04:276,-1.5767,-2.2295,10.3024,-0.0287,-0.0444,9.8064,0.0218,-0.061,0.1281,-26.19,-34.62,23.56,58.78,-88.15,-75.51
13913,53.134087,-1.529544,189.33,15.21,4,103.74,19 / 20,2863913,2019-11-06 16:54:04:375,-0.6904,-2.4188,9.8045,-0.0019,-0.0004,9.8066,0.0199,-0.4583,0.2341,-33.75,-37.19,45.56,63.51,-88.03,-81.18
13914,53.134087,-1.529544,189.33,15.21,4,103.74,19 / 20,2864014,2019-11-06 16:54:04:476,-0.0959,-2.3268,11.0404,-0.0394,-0.0731,9.8062,-0.0114,-0.1852,0.2295,-35.5,-37.81,18.19,30.17,-87.58,-88.25
13915,53.134087,-1.529544,189.33,15.21,4,103.74,19 / 20,2864114,2019-11-06 16:54:04:576,1.8893,1.7219,9.484,0.0364,-0.0236,9.8065,0.0611,-0.2676,0.1448,-30.0,-36.94,17.19,28.13,-87.85,-92.51
13916,53.134087,-1.529544,189.33,15.21,4,103.74,19 / 20,2864213,2019-11-06 16:54:04:675,-1.3797,-1.4772,10.0898,0.0306,-0.0258,9.8065,0.1737,-0.3479,0.0939,-29.0,-36.56,17.31,29.74,-87.71,-91.91
13917,53.134087,-1.529544,189.33,15.21,4,103.74,19 / 20,2864314,2019-11-06 16:54:04:776,2.0104,-0.048,11.191,-0.0237,-0.0288,9.8065,0.0038,-0.071,0.1072,-28.25,-36.12,16.81,28.37,-87.6,-94.17
13918,53.134087,-1.529544,189.33,15.21,4,103.74,19 / 20,2864413,2019-11-06 16:54:04:875,-0.3057,-1.6919,9.4398,-0.0185,-0.0087,9.8066,0.0024,-0.1281,0.0033,-29.62,-36.56,16.88,18.67,-87.74,-101.66
13919,53.134087,-1.529544,189.33,15.21,4,103.74,19 / 20,2864513,2019-11-06 16:54:04:975,2.3691,-0.1173,10.5863,0.0292,-0.0312,9.8065,0.1652,-0.1451,0.0552,-41.37,-38.81,26.56,15.12,-87.68,-108.74
13920,53.134087,-1.529544,189.33,15.21,4,103.74,19 / 20,2864613,2019-11-06 16:54:05:075,-1.5307,-2.0984,10.0362,0.0179,-0.0095,9.8066,0.0268,-0.3579,0.0992,-26.44,-33.19,33.19,26.65,-87.83,-115.9
13921,53.134087,-1.529544,189.33,15.21,4,103.74,19 / 20,2864713,2019-11-06 16:54:05:175,1.2069,0.989,9.2255,-0.0074,-0.0472,9.8065,-0.0256,0.0815,0.0499,-26.81,-34.56,23.25,10.98,-87.75,-119.87
13922,53.134087,-1.529544,189.33,15.21,4,103.74,19 / 20,2864813,2019-11-06 16:54:05:275,-2.4829,-2.0168,9.7787,-0.0165,0.0362,9.8065,-0.118,-0.2096,0.031,-26.62,-35.31,20.44,10.43,-87.96,-116.49
13923,53.134087,-1.529544,189.33,15.21,4,103.74,19 / 19,2864913,2019-11-06 16:54:05:375,-0.8689,1.5381,9.831,-0.0276,-0.0053,9.8066,0.0628,0.1834,-0.0802,-27.56,-36.0,19.0,18.98,-88.09,-105.85
13924,53.134087,-1.529544,189.33,15.21,4,103.74,19 / 19,2865013,2019-11-06 16:54:05:475,-0.3825,1.4705,9.7937,0.0108,0.0326,9.8066,-0.0876,-0.0612,-0.0094,-26.62,-35.94,18.88,18.78,-88.1,-107.03
13925,53.134087,-1.529544,189.33,15.21,4,103.74,19 / 19,2865114,2019-11-06 16:54:05:576,-0.075,1.5242,8.913,-0.0205,-0.0116,9.8066,-0.15,0.2672,-0.0542,-26.25,-35.19,19.81,22.81,-88.25,-105.49
13926,53.134087,-1.529544,189.33,15.21,4,103.74,19 / 19,2865214,2019-11-06 16:54:05:676,1.8468,-0.2979,11.1167,0.0083,0.037,9.8065,0.1008,0.058,-0.1449,-26.19,-34.12,26.69,25.19,-88.59,-111.45
13927,53.134087,-1.529544,189.33,15.21,4,103.74,19 / 19,2865314,2019-11-06 16:54:05:776,-1.2878,-0.9232,9.5314,0.0333,0.0031,9.8065,0.1163,0.1965,-0.1937,-34.94,-37.81,46.81,30.13,-88.61,-113.65
13928,53.134087,-1.529544,189.33,15.21,4,103.74,19 / 19,2865413,2019-11-06 16:54:05:875,-0.256,-1.0728,9.7557,0.0184,0.0255,9.8066,-0.0822,0.1234,-0.1028,-38.81,-38.56,21.19,1.73,-88.58,-116.61
13929,53.134087,-1.529544,189.33,15.21,4,103.74,19 / 19,2865514,2019-11-06 16:54:05:976,-2.1056,-1.1128,10.2378,0.0194,0.0111,9.8066,0.0507,0.1649,-0.0951,-28.62,-37.19,17.31,351.05,-88.7,-129.11
13930,53.134087,-1.529544,189.33,15.21,4,103.74,19 / 19,2865614,2019-11-06 16:54:06:076,2.0501,1.1315,8.8865,0.0274,0.0345,9.8065,-0.0623,0.2019,-0.1792,-28.0,-37.06,17.38,346.32,-88.74,-134.6
13931,53.134087,-1.529544,189.33,15.21,4,103.74,19 / 19,2865714,2019-11-06 16:54:06:176,0.2418,-0.5659,8.9912,-0.0294,0.0196,9.8065,-0.1188,0.048,0.0348,-27.81,-36.87,17.75,348.54,-89.0,-133.98
13932,53.134087,-1.529544,189.33,15.21,4,103.74,19 / 19,2865814,2019-11-06 16:54:06:276,-0.4423,0.7092,10.5361,-0.0069,-0.0059,9.8066,0.0548,-0.0134,-0.0639,-31.19,-37.0,17.5,345.0,-89.09,-134.9
13933,53.134087,-1.529544,189.33,15.21,4,103.74,19 / 19,2865914,2019-11-06 16:54:06:376,1.458,0.2218,10.1893,-0.0051,-0.0138,9.8065,-0.044,-0.0733,0.0482,-43.87,-41.06,28.81,1.78,-88.98,-121.64
13934,53.134087,-1.529544,189.33,15.21,4,103.74,19 / 19,2866014,2019-11-06 16:54:06:476,-1.5471,0.7654,9.5976,-0.0362,-0.0052,9.8065,-0.0798,-0.0746,0.0448,-26.87,-34.69,38.19,16.33,-88.99,-128.49
13935,53.134087,-1.529544,189.33,15.21,4,103.74,19 / 19,2866114,2019-11-06 16:54:06:576,-1.08,0.9908,9.2468,0.0303,-0.0115,9.8066,0.1141,-0.0605,-0.0167,-26.31,-34.56,23.25,359.46,-88.87,-132.02
13936,53.134087,-1.529544,189.33,15.21,4,103.74,19 / 19,2866214,2019-11-06 16:54:06:676,0.5855,-0.7532,10.2951,0.0333,-0.0062,9.8066,0.0216,0.0188,-0.0709,-26.31,-36.62,18.63,339.24,-88.8,-146.43
13937,53.134087,-1.529544,189.33,15.21,4,103.74,19 / 19,2866313,2019-11-06 16:54:06:775,-1.2889,0.5385,9.2587,-0.0135,0.0148,9.8066,-0.1138,-0.018,-0.0112,-26.06,-36.62,18.19,337.12,-88.92,-147.08
13938,53.134087,-1.529544,189.33,15.21,4,103.74,19 / 19,2866413,2019-11-06 16:54:06:875,0.5739,0.0198,9.3982,-0.0263,0.0033,9.8066,0.0158,0.0555,-0.0498,-26.19,-36.31,18.38,332.24,-89.04,-151.95
13939,53.134087,-1.529544,189.33,15.21,4,103.74,19 / 19,2866513,2019-11-06 16:54:06:975,0.5228,3.7376,9.8421,0.017,-0.0307,9.8065,-0.0682,-0.1382,-0.1256,-25.19,-37.31,19.56,347.11,-89.16,-141.33
13940,53.134087,-1.529544,189.33,15.21,4,103.74,19 / 19,2866614,2019-11-06 16:54:07:076,-5.3846,-4.2888,9.3734,-0.0383,-0.0235,9.8065,0.0438,-0.5481,0.6149,-24.75,-36.12,24.56,0.12,-89.42,-134.88
13941,53.134087,-1.529544,189.33,15.21,4,103.74,19 / 19,2866714,2019-11-06 16:54:07:176,3.7811,-1.3904,10.2569,-0.0547,-0.0609,9.8063,-0.1777,0.4346,-0.3968,-31.94,-38.5,44.69,27.12,-88.9,-117.81
13942,53.134087,-1.529544,189.33,15.21,4,103.74,19 / 19,2866814,2019-11-06 16:54:07:276,-1.3376,-1.4475,11.2473,-0.0209,-0.0391,9.8065,0.1899,0.3003,0.1792,-34.44,-39.75,18.75,356.78,-88.67,-122.34
13943,53.13378,-1.527558,192.95,15.33,6,104.83,19 / 19,2866914,2019-11-06 16:54:07:376,0.1044,-3.1712,9.051,0.0874,0.0841,9.8059,0.1968,-0.4591,0.0868,-28.94,-37.69,17.75,327.09,-89.13,-154.21
13944,53.13378,-1.527558,192.95,15.33,6,104.83,19 / 19,2867013,2019-11-06 16:54:07:475,-0.2178,-0.7315,10.1127,0.0503,-0.0345,9.8064,0.1759,0.0087,-0.0822,-27.75,-37.94,17.31,325.84,-89.15,-154.87
13945,53.13378,-1.527558,192.95,15.33,6,104.83,19 / 19,2867113,2019-11-06 16:54:07:575,3.8061,-0.6534,8.9094,-0.001,0.0043,9.8066,0.0146,-0.0758,-0.1261,-28.19,-37.44,17.25,315.98,-89.06,-164.54
13946,53.13378,-1.527558,192.95,15.33,6,104.83,19 / 19,2867213,2019-11-06 16:54:07:675,0.0369,-0.8743,9.7745,-0.0556,-0.0179,9.8064,-0.1544,-0.2378,0.3076,-30.94,-38.19,16.94,322.08,-89.12,-156.08
13947,53.13378,-1.527558,192.95,15.33,6,104.83,19 / 19,2867314,2019-11-06 16:54:07:776,-1.2769,-0.7179,8.6232,-0.0064,-0.0099,9.8066,-0.0716,0.014,0.0617,-43.94,-40.37,29.56,325.74,-89.18,-158.2
13948,53.13378,-1.527558,192.95,15.33,6,104.83,19 / 19,2867414,2019-11-06 16:54:07:876,1.1018,-1.4992,10.765,0.0259,-0.0216,9.8066,0.1225,0.0302,-0.0811,-28.44,-35.0,40.69,11.38,-89.17,-134.4
13949,53.13378,-1.527558,192.95,15.33,6,104.83,19 / 19,2867514,2019-11-06 16:54:07:976,1.3223,0.7624,10.1148,-0.015,-0.0021,9.8066,-0.0332,0.0884,-0.0974,-26.0,-35.12,21.5,359.91,-89.1,-130.32
13950,53.13378,-1.527558,192.95,15.33,6,104.83,19 / 19,2867614,2019-11-06 16:54:08:076,-0.1893,-0.6975,9.3346,-0.0233,0.0127,9.8066,-0.1006,-0.0844,0.1138,-25.94,-35.44,19.31,342.72,-89.03,-143.12
13951,53.13378,-1.527558,192.95,15.33,6,104.83,19 / 19,2867714,2019-11-06 16:54:08:176,0.5134,-1.6145,10.593,-0.0048,-0.0208,9.8066,-0.1177,0.331,-0.0692,-26.37,-35.94,18.19,343.8,-89.0,-140.58
13952,53.13378,-1.527558,192.95,15.33,6,104.83,19 / 19,2867813,2019-11-06 16:54:08:275,0.0886,-0.3869,10.197,0.0168,0.0152,9.8065,0.1184,0.1909,-0.142,-26.75,-35.62,18.19,342.7,-89.08,-140.69
13953,53.13378,-1.527558,192.95,15.33,6,104.83,20 / 20,2867913,2019-11-06 16:54:08:375,-0.0359,-1.7991,9.9276,0.0103,0.0068,9.8066,0.0745,0.1415,-0.0864,-25.69,-35.5,19.31,354.55,-88.91,-131.49
13954,53.13378,-1.527558,192.95,15.33,6,104.83,20 / 20,2868014,2019-11-06 16:54:08:476,2.2337,0.4508,9.474,0.0243,0.0098,9.8066,-0.0119,0.2233,-0.1005,-25.87,-35.12,23.69,11.06,-88.78,-121.88
13955,53.13378,-1.527558,192.95,15.33,6,104.83,20 / 20,2868114,2019-11-06 16:54:08:576,-1.2733,-1.0405,11.0176,0.0023,0.0232,9.8066,-0.0806,0.107,-0.084,-37.56,-38.56,45.0,18.17,-88.81,-121.9
13956,53.13378,-1.527558,192.95,15.33,6,104.83,20 / 20,2868213,2019-11-06 16:54:08:675,0.5854,1.8663,10.9535,-0.0144,0.0151,9.8066,-0.0299,0.3081,-0.1131,-36.62,-37.37,18.94,353.58,-88.71,-123.47
13957,53.13378,-1.527558,192.95,15.33,6,104.83,20 / 20,2868313,2019-11-06 16:54:08:775,-1.995,-2.2983,10.0394,0.027,0.042,9.8065,0.1065,-0.0351,-0.0291,-29.94,-37.06,17.38,353.71,-88.86,-125.69
13958,53.13378,-1.527558,192.95,15.33,6,104.83,20 / 20,2868413,2019-11-06 16:54:08:875,1.5506,-1.1166,9.8217,0.0207,0.0042,9.8066,-0.0386,0.2167,-0.1429,-28.31,-36.69,16.88,349.87,-88.68,-131.13
13959,53.13378,-1.527558,192.95,15.33,6,104.83,20 / 20,2868513,2019-11-06 16:54:08:975,-1.2825,-1.1483,9.696,-0.0196,0.0231,9.8066,-0.0855,-0.1065,0.0724,-28.69,-37.12,16.94,357.71,-88.84,-122.62
13960,53.13378,-1.527558,192.95,15.33,6,104.83,20 / 20,2868613,2019-11-06 16:54:09:075,-0.373,1.0339,9.3624,0.0052,0.0093,9.8066,-0.0274,0.0286,-0.1313,-30.62,-37.31,17.0,2.59,-88.97,-116.2
13961,53.13378,-1.527558,192.95,15.33,6,104.83,20 / 20,2868714,2019-11-06 16:54:09:176,0.1183,-0.4158,10.5554,-0.0016,0.0067,9.8066,-0.0819,-0.0082,0.0383,-44.62,-40.44,35.81,8.8,-88.92,-119.98
13962,53.13378,-1.527558,192.95,15.33,6,104.83,20 / 20,2868813,2019-11-06 16:54:09:275,1.8916,1.095,10.1808,-0.0167,-0.0125,9.8066,0.0397,0.069,-0.0203,-26.31,-34.12,34.69,21.64,-88.99,-122.05
13963,53.13378,-1.527558,192.95,15.33,6,104.83,19 / 19,2868914,2019-11-06 16:54:09:376,0.7745,-1.8603,9.6966,0.0137,0.0072,9.8066,-0.0855,-0.0998,0.0338,-25.62,-34.31,23.06,9.17,-88.93,-122.49
13964,53.13378,-1.527558,192.95,15.33,6,104.83,19 / 19,2869013,2019-11-06 16:54:09:475,-1.4964,0.0272,10.5887,-0.0127,-0.0233,9.8065,0.0506,0.0191,0.1074,-26.06,-34.56,18.81,20.28,-88.74,-106.36
13965,53.13378,-1.527558,192.95,15.33,6,104.83,19 / 19,2869113,2019-11-06 16:54:09:575,-0.6384,0.7865,9.5318,0.0224,0.0177,9.8065,0.0503,-0.1608,0.0805,-26.94,-34.81,18.44,10.13,-88.94,-113.76
13966,53.13378,-1.527558,192.95,15.33,6,104.83,19 / 19,2869213,2019-11-06 16:54:09:675,-0.5099,1.7165,9.5032,-0.0089,-0.0074,9.8066,-0.106,0.1026,0.0051,-26.94,-35.69,18.25,16.63,-88.81,-107.44
13967,53.13378,-1.527558,192.95,15.33,6,104.83,19 / 19,2869314,2019-11-06 16:54:09:776,-0.6033,1.0475,9.4206,-0.0018,-0.0044,9.8066,-0.009,-0.2368,0.2009,-26.44,-35.25,19.88,12.88,-88.73,-114.99
13968,53.13378,-1.527558,192.95,15.33,6,104.83,19 / 19,2869414,2019-11-06 16:54:09:876,-1.1548,-0.6567,10.6365,-0.0207,-0.0174,9.8065,0.0842,0.0366,-0.0688,-26.31,-34.19,24.56,14.56,-88.61,-119.65
13969,53.13378,-1.527558,192.95,15.33,6,104.83,19 / 19,2869514,2019-11-06 16:54:09:976,-1.8936,-2.1019,10.4969,0.0269,0.0017,9.8065,0.0456,-0.1487,0.0177,-33.56,-37.25,45.63,28.69,-88.5,-115.32
13970,53.13378,-1.527558,192.95,15.33,6,104.83,19 / 19,2869614,2019-11-06 16:54:10:076,-0.4786,-0.4113,9.3558,-0.0042,-0.0216,9.8066,-0.0393,-0.0065,0.0302,-35.0,-37.19,18.75,10.22,-88.31,-108.56
13971,53.13378,-1.527558,192.95,15.33,6,104.83,19 / 19,2869713,2019-11-06 16:54:10:175,-1.1527,0.7737,10.509,-0.0306,0.0118,9.8066,-0.0663,-0.1279,0.0192,-29.56,-36.25,17.0,19.96,-88.42,-100.14
13972,53.13378,-1.527558,192.95,15.33,6,104.83,19 / 19,2869813,2019-11-06 16:54:10:275,1.0998,0.0506,10.499,-0.0111,-0.0006,9.8066,-0.0588,-0.005,0.0314,-28.87,-36.69,16.5,16.29,-88.52,-104.55
13973,53.13378,-1.527558,192.95,15.33,6,104.83,18 / 19,2869913,2019-11-06 16:54:10:375,-2.0373,-0.3136,9.2594,0.0191,0.0063,9.8066,0.0094,0.013,0.0067,-28.75,-36.75,16.75,6.57,-88.63,-113.98
13974,53.13378,-1.527558,192.95,15.33,6,104.83,18 / 19,2870014,2019-11-06 16:54:10:476,0.567,-0.0048,10.4366,0.0264,0.0195,9.8066,0.0366,-0.0356,-0.0556,-31.5,-36.94,17.19,4.66,-88.58,-114.2
13975,53.13378,-1.527558,192.95,15.33,6,104.83,18 / 19,2870113,2019-11-06 16:54:10:575,-0.6105,-1.8698,9.9901,-0.0186,0.0071,9.8066,-0.01,-0.2357,0.1553,-44.69,-40.44,35.06,15.38,-88.8,-112.72
13976,53.13378,-1.527558,192.95,15.33,6,104.83,18 / 19,2870214,2019-11-06 16:54:10:676,-0.5903,-0.2916,10.1715,-0.0279,-0.0003,9.8065,0.0029,-0.0849,-0.0005,-27.44,-34.37,37.13,20.82,-88.95,-123.34
13977,53.13378,-1.527558,192.95,15.33,6,104.83,18 / 19,2870314,2019-11-06 16:54:10:776,-0.576,1.3493,9.7633,0.0055,-0.006,9.8066,0.0438,-0.0559,0.0549,-26.25,-35.0,21.25,10.24,-88.97,-118.88
13978,53.13378,-1.527558,192.95,15.33,6,104.83,18 / 19,2870414,2019-11-06 16:54:10:876,0.5915,1.0384,9.7559,-0.0107,-0.0035,9.8066,-0.0372,-0.0499,0.0406,-26.62,-35.94,18.88,7.88,-88.96,-117.41
13979,53.13378,-1.527558,192.95,15.33,6,104.83,18 / 19,2870514,2019-11-06 16:54:10:976,1.6071,1.0669,9.6508,0.0021,-0.0186,9.8066,-0.0344,-0.1911,0.1561,-27.19,-35.37,18.38,2.34,-88.97,-121.4
13980,53.13378,-1.527558,192.95,15.33,6,104.83,18 / 19,2870614,2019-11-06 16:54:11:076,-1.8073,-0.8608,10.4657,-0.0111,-0.0243,9.8065,0.1179,-0.223,0.0718,-26.06,-35.12,18.38,4.09,-89.01,-120.68
13981,53.13378,-1.527558,192.95,15.33,6,104.83,18 / 19,2870714,2019-11-06 16:54:11:176,1.2834,0.5303,10.21,0.0237,-0.0205,9.8065,0.0998,-0.0581,-0.0578,-25.87,-35.69,19.88,355.58,-89.04,-131.9
13982,53.13378,-1.527558,192.95,15.33,6,104.83,18 / 19,2870814,2019-11-06 16:54:11:276,-1.3596,-0.1858,9.119,-0.0214,-0.0016,9.8066,-0.1236,-0.0963,0.1892,-26.44,-34.5,24.88,0.53,-89.08,-133.35
13983,53.13378,-1.527558,192.95,15.33,6,104.83,19 / 19,2870914,2019-11-06 16:54:11:376,1.5404,1.0032,10.3467,-0.0068,-0.0219,9.8065,-0.1486,-0.1204,0.1263,-41.12,-39.12,45.44,359.4,-89.01,-138.25
13984,53.13378,-1.527558,192.95,15.33,6,104.83,19 / 19,2871016,2019-11-06 16:54:11:478,-0.4317,-0.237,10.0212,-0.0022,-0.0228,9.8066,0.181,-0.2103,0.0213,-35.31,-37.81,19.19,335.84,-89.14,-142.32
13985,53.13378,-1.527558,192.95,15.33,6,104.83,19 / 19,2871113,2019-11-06 16:54:11:575,0.144,2.3035,9.5135,0.0073,-0.0189,9.8066,0.0722,-0.2359,0.0815,-29.62,-36.62,17.06,341.12,-88.97,-138.06
13986,53.13378,-1.527558,192.95,15.33,6,104.83,19 / 19,2871213,2019-11-06 16:54:11:675,-1.0714,-1.6217,9.728,-0.0142,-0.0316,9.8066,-0.006,-0.2832,0.1346,-28.62,-36.62,17.5,340.69,-88.86,-140.73
13987,53.13378,-1.527558,192.95,15.33,6,104.83,19 / 19,2871313,2019-11-06 16:54:11:775,0.641,1.3343,10.5261,-0.003,-0.0282,9.8066,0.0949,-0.0025,-0.0879,-28.19,-36.62,17.25,335.17,-88.78,-145.51
13988,53.13378,-1.527558,192.95,15.33,6,104.83,19 / 19,2871413,2019-11-06 16:54:11:875,-0.4155,-1.4882,9.2514,0.0263,-0.0087,9.8066,0.0058,-0.195,0.1048,-31.19,-37.31,17.0,323.68,-88.83,-154.33
13989,53.13378,-1.527558,192.95,15.33,6,104.83,19 / 19,2871513,2019-11-06 16:54:11:975,1.1347,-2.4186,11.0672,-0.0198,-0.0181,9.8066,-0.1846,0.2813,-0.1959,-43.94,-40.25,40.25,334.58,-88.67,-157.3
13990,53.13378,-1.527558,192.95,15.33,6,104.83,19 / 19,2871613,2019-11-06 16:54:12:075,-1.6234,-0.9963,10.0274,-0.0125,0.0354,9.8065,-0.0304,-0.1758,0.1505,-25.94,-33.81,33.19,341.38,-88.72,-160.05
13991,53.13378,-1.527558,192.95,15.33,6,104.83,19 / 19,2871713,2019-11-06 16:54:12:175,2.5205,2.2209,9.2145,-0.0042,-0.045,9.8065,0.0083,0.1559,-0.1908,-25.81,-35.0,22.75,332.07,-88.78,-158.84
13992,53.13378,-1.527558,192.95,15.33,6,104.83,19 / 19,2871816,2019-11-06 16:54:12:278,1.6304,0.2814,8.5086,-0.0016,0.0227,9.8065,0.0055,-0.208,0.1937,-26.87,-34.94,19.94,321.2,-88.95,-164.64
13993,53.13378,-1.527558,192.95,15.33,6,104.83,19 / 19,2871916,2019-11-06 16:54:12:378,1.8052,-0.3207,9.0792,-0.0231,-0.01,9.8066,-0.0659,0.0783,-0.0209,-26.87,-35.75,18.94,317.16,-88.89,-167.15
13994,53.13378,-1.527558,192.95,15.33,6,104.83,19 / 19,2872014,2019-11-06 16:54:12:476,2.2211,-0.158,11.0797,0.0022,-0.0115,9.8066,0.1152,0.0849,0.0068,-26.75,-36.0,18.88,310.83,-88.81,-173.31
13995,53.13378,-1.527558,192.95,15.33,6,104.83,19 / 19,2872113,2019-11-06 16:54:12:575,-1.5735,0.9702,9.5338,0.032,0.0105,9.8065,0.1036,0.0206,-0.0008,-25.81,-35.0,20.88,311.92,-88.79,-176.06
13996,53.13378,-1.527558,192.95,15.33,6,104.83,19 / 19,2872213,2019-11-06 16:54:12:675,-1.1267,0.1575,9.0682,0.0425,-0.0001,9.8065,0.0323,0.1266,-0.1165,-25.69,-34.37,26.44,329.48,-88.81,-164.95
13997,53.13378,-1.527558,192.95,15.33,6,104.83,19 / 19,2872316,2019-11-06 16:54:12:778,0.3124,-2.0795,10.9538,0.0081,0.0059,9.8066,-0.1155,0.229,-0.1694,-36.69,-38.5,46.94,332.26,-88.61,-169.11
13998,53.13378,-1.527558,192.95,15.33,6,104.83,19 / 19,2872414,2019-11-06 16:54:12:876,0.9629,0.2035,8.9558,0.0059,0.025,9.8066,-0.0298,0.1352,-0.0812,-32.94,-37.06,18.5,301.74,-88.68,-177.09
13999,53.13378,-1.527558,192.95,15.33,6,104.83,19 / 19,2872514,2019-11-06 16:54:12:976,0.9495,0.583,8.9081,0.0134,-0.0182,9.8066,-0.0357,-0.168,-0.0272,-29.0,-37.06,17.25,301.52,-88.42,-177.37
14000,53.13378,-1.527558,192.95,15.33,6,104.83,19 / 19,2872614,2019-11-06 16:54:13:076,-1.0808,-0.9067,10.7059,0.0222,-0.0326,9.8065,0.1768,-0.2062,0.1631,-28.19,-36.69,17.56,297.23,-88.41,176.08
14001,53.13378,-1.527558,192.95,15.33,6,104.83,19 / 19,2872714,2019-11-06 16:54:13:176,-0.9656,-0.9559,9.9664,0.0243,-0.0225,9.8066,0.0586,-0.008,-0.1064,-27.87,-36.87,16.69,298.53,-88.06,179.21
14002,53.13378,-1.527558,192.95,15.33,6,104.83,19 / 19,2872814,2019-11-06 16:54:13:276,-2.109,2.0249,8.607,-0.0073,-0.0039,9.8066,-0.1986,0.1202,0.0731,-31.56,-37.56,16.81,292.5,-88.13,176.34
14003,53.13378,-1.527558,192.95,15.33,6,104.83,19 / 19,2872915,2019-11-06 16:54:13:377,-0.5576,0.6758,10.5227,-0.0346,0.0149,9.8066,-0.2101,-0.2661,0.1925,-43.87,-40.56,34.44,301.03,-88.15,174.52
14004,53.13378,-1.527558,192.95,15.33,6,104.83,19 / 19,2873014,2019-11-06 16:54:13:476,0.1971,-0.0238,10.4901,-0.0561,0.004,9.8064,0.09,0.0289,-0.0151,-26.0,-34.06,30.0,313.55,-88.04,175.7
14005,53.13378,-1.527558,192.95,15.33,6,104.83,19 / 19,2873114,2019-11-06 16:54:13:576,-3.1271,0.4444,8.5438,0.0426,0.0167,9.8065,0.0796,0.0543,-0.158,-25.75,-34.5,21.56,299.08,-87.97,170.63
14006,53.13378,-1.527558,192.95,15.33,6,104.83,19 / 19,2873213,2019-11-06 16:54:13:675,-1.9137,-1.9517,10.1146,0.0156,-0.003,9.8066,0.0741,-0.1441,0.0135,-25.81,-35.75,19.31,300.43,-88.37,175.85
14007,53.13378,-1.527558,192.95,15.33,6,104.83,19 / 19,2873313,2019-11-06 16:54:13:775,1.6466,-0.1541,9.87,-0.0064,-0.0096,9.8066,0.1421,0.0559,-0.0459,-26.56,-36.44,18.0,302.99,-88.33,-179.14
14008,53.13378,-1.527558,192.95,15.33,6,104.83,19 / 19,2873413,2019-11-06 16:54:13:875,-2.618,0.4769,10.5256,0.0004,0.0058,9.8066,-0.1365,0.0382,-0.0679,-25.75,-36.5,18.88,302.74,-88.25,178.24
14009,53.13378,-1.527558,192.95,15.33,6,104.83,19 / 19,2873514,2019-11-06 16:54:13:976,0.0823,-1.0711,9.5247,-0.0149,0.0032,9.8066,-0.0269,-0.273,0.0786,-25.37,-35.75,20.38,305.49,-88.36,178.35
14010,53.13378,-1.527558,192.95,15.33,6,104.83,19 / 19,2873614,2019-11-06 16:54:14:076,-0.1602,-1.3192,9.6863,-0.0282,-0.0114,9.8065,0.0463,-0.2027,0.0821,-25.5,-34.0,28.0,315.67,-88.39,178.46
14011,53.13378,-1.527558,192.95,15.33,6,104.83,19 / 19,2873714,2019-11-06 16:54:14:176,-0.1516,-0.5806,10.2787,0.0023,-0.0016,9.8066,0.0047,-0.0595,0.0402,-39.06,-39.31,45.75,316.11,-88.44,177.11
14012,53.13378,-1.527558,192.95,15.33,6,104.83,19 / 19,2873814,2019-11-06 16:54:14:276,-0.258,-0.6401,9.8587,-0.0078,-0.0185,9.8066,-0.0015,-0.0809,0.0484,-34.25,-37.75,18.88,300.71,-88.41,-177.14
14013,53.13378,-1.527558,192.95,15.33,6,104.83,18 / 18,2873913,2019-11-06 16:54:14:375,-1.1822,0.6601,9.8474,0.0046,-0.035,9.8065,0.0266,-0.1873,0.1006,-29.12,-36.94,17.81,311.96,-88.19,-168.39
14014,53.13378,-1.527558,192.95,15.33,6,104.83,18 / 18,2874013,2019-11-06 16:54:14:475,-1.0928,-3.8298,9.8095,-0.0076,-0.03,9.8065,-0.0733,0.0846,-0.0459,-28.25,-36.62,17.38,316.94,-88.23,-162.94
14015,53.13378,-1.527558,192.95,15.33,6,104.83,18 / 18,2874114,2019-11-06 16:54:14:576,0.3117,0.526,9.5033,-0.0265,-0.0239,9.8065,-0.0244,0.2026,-0.1544,-28.12,-36.75,17.44,323.49,-88.26,-156.59
14016,53.13378,-1.527558,192.95,15.33,6,104.83,18 / 18,2874214,2019-11-06 16:54:14:676,0.0368,-1.4082,9.9123,-0.0211,0.0117,9.8066,0.0404,-0.061,-0.05,-31.69,-37.37,18.38,320.87,-88.49,-157.52
14017,53.13378,-1.527558,192.95,15.33,6,104.83,18 / 18,2874313,2019-11-06 16:54:14:775,0.3696,-0.329,9.6762,-0.0304,-0.0023,9.8066,0.062,0.0052,-0.0397,-44.06,-40.56,38.31,333.11,-88.57,-157.24
14018,53.13378,-1.527558,192.95,15.33,6,104.83,18 / 18,2874413,2019-11-06 16:54:14:875,-0.0899,-0.3686,9.7268,-0.0164,0.0005,9.8066,-0.0131,-0.1408,0.0056,-26.56,-34.12,35.25,345.09,-88.58,-156.97
14019,53.13378,-1.527558,192.95,15.33,6,104.83,18 / 18,2874513,2019-11-06 16:54:14:975,0.5539,0.2098,9.8478,0.0043,0.0049,9.8066,-0.1587,-0.0006,0.1259,-25.69,-35.37,21.63,343.9,-88.76,-145.98
14020,53.13378,-1.527558,192.95,15.33,6,104.83,18 / 18,2874613,2019-11-06 16:54:15:075,-2.0546,-0.4534,8.8589,-0.0098,-0.0055,9.8066,-0.0194,-0.0289,0.0127,-25.69,-35.06,20.13,0.7,-88.85,-126.89
14021,53.13378,-1.527558,192.95,15.33,6,104.83,18 / 18,2874713,2019-11-06 16:54:15:175,0.0003,-0.4023,10.3721,-0.0439,0.0013,9.8065,0.0439,-0.1021,0.006,-26.06,-36.0,19.56,12.87,-88.79,-115.0
14022,53.13378,-1.527558,192.95,15.33,6,104.83,18 / 18,2874813,2019-11-06 16:54:15:275,3.6836,-0.9542,9.017,-0.0105,-0.0048,9.8066,-0.1332,0.1806,-0.0133,-25.94,-36.12,19.0,16.98,-88.74,-109.6
14023,53.13378,-1.527558,192.95,15.33,6,104.83,18 / 18,2874917,2019-11-06 16:54:15:379,-2.8398,1.1802,8.7621,0.0489,-0.0744,9.8062,-0.1517,0.2646,-0.0006,-25.5,-36.44,21.13,15.89,-88.41,-114.63
14024,53.13378,-1.527558,192.95,15.33,6,104.83,18 / 18,2875014,2019-11-06 16:54:15:476,5.6035,7.3456,6.6691,0.0609,0.1255,9.8056,0.1857,-0.9694,0.4516,-26.0,-34.87,26.63,13.94,-88.45,-122.49
14025,53.13378,-1.527558,192.95,15.33,6,104.83,18 / 18,2875114,2019-11-06 16:54:15:576,-2.7662,-6.6134,10.6942,0.0117,0.1065,9.806,0.2676,-0.8979,0.2372,-40.62,-39.19,45.88,8.03,-89.2,-130.33
14026,53.13378,-1.527558,192.95,15.33,6,104.83,18 / 18,2875213,2019-11-06 16:54:15:675,-1.6684,2.8147,9.7866,-0.0009,-0.0126,9.8066,0.1253,0.2133,-0.0222,-34.25,-37.87,18.75,344.01,-88.86,-134.87
14027,53.13378,-1.527558,192.95,15.33,6,104.83,18 / 18,2875314,2019-11-06 16:54:15:776,0.9436,0.9442,9.2351,0.029,0.0056,9.8065,-0.0295,-0.2057,0.0391,-29.12,-36.69,18.63,342.38,-88.52,-140.37
14028,53.13378,-1.527558,192.95,15.33,6,104.83,18 / 18,2875414,2019-11-06 16:54:15:876,1.1592,3.305,9.3014,-0.0273,-0.0451,9.8065,-0.1203,0.3564,-0.1998,-28.62,-36.62,19.13,350.91,-88.3,-132.03
14029,53.13378,-1.527558,192.95,15.33,6,104.83,18 / 18,2875514,2019-11-06 16:54:15:976,-0.8498,-0.6786,10.1593,0.0077,0.0199,9.8066,0.0357,-0.0813,-0.0515,-28.75,-37.12,18.88,353.24,-88.42,-129.79
14030,53.13378,-1.527558,192.95,15.33,6,104.83,18 / 18,2875614,2019-11-06 16:54:16:076,-1.6042,-3.8684,10.2612,-0.0051,-0.064,9.8064,0.0354,0.4176,-0.3489,-31.19,-36.62,18.19,341.1,-88.44,-138.51
14031,53.13378,-1.527558,192.95,15.33,6,104.83,18 / 18,2875714,2019-11-06 16:54:16:176,-1.9658,-2.9889,9.4001,0.0473,0.019,9.8064,-0.0608,0.0421,-0.0267,-41.87,-39.31,44.19,347.98,-88.12,-148.1
14032,53.13378,-1.527558,192.95,15.33,6,104.83,18 / 18,2875814,2019-11-06 16:54:16:276,-1.54,0.4141,9.6041,-0.0201,-0.0354,9.8066,-0.1109,0.253,-0.25,-26.0,-33.62,32.13,344.27,-88.2,-156.23
14033,53.133465,-1.525619,196.84,14.63,6,112.6,19 / 19,2875914,2019-11-06 16:54:16:376,0.246,1.6466,8.5278,-0.006,0.0469,9.8065,-0.014,0.0393,-0.0389,-25.12,-34.62,23.88,338.87,-88.17,-154.29
14034,53.133465,-1.525619,196.84,14.63,6,112.6,19 / 19,2876014,2019-11-06 16:54:16:476,-2.0588,-0.7709,10.2642,-0.0028,0.0296,9.8065,-0.0408,-0.2218,0.1058,-25.87,-35.69,20.5,327.84,-88.75,-160.37
14035,53.133465,-1.525619,196.84,14.63,6,112.6,19 / 19,2876114,2019-11-06 16:54:16:576,-0.2628,0.581,9.9276,0.0052,0.0054,9.8066,-0.0443,-0.1259,0.0147,-25.69,-36.62,20.44,330.02,-88.95,-156.96
14036,53.133465,-1.525619,196.84,14.63,6,112.6,19 / 19,2876213,2019-11-06 16:54:16:675,-1.8631,-2.1342,9.9365,0.0316,0.0272,9.8065,-0.0253,-0.3319,0.192,-25.19,-36.25,21.0,328.33,-89.04,-161.14
14037,53.133465,-1.525619,196.84,14.63,6,112.6,19 / 19,2876314,2019-11-06 16:54:16:776,-0.5609,0.4781,9.4676,0.0155,0.013,9.8066,0.0391,-0.107,0.0419,-24.75,-35.75,22.06,342.6,-88.98,-148.42
14038,53.133465,-1.525619,196.84,14.63,6,112.6,19 / 19,2876414,2019-11-06 16:54:16:876,-1.57,-1.2666,9.5153,0.0133,0.0043,9.8066,0.0684,-0.236,0.0395,-24.62,-34.62,27.69,338.04,-88.85,-159.8
14039,53.133465,-1.525619,196.84,14.63,6,112.6,19 / 19,2876513,2019-11-06 16:54:16:975,0.4687,0.7939,10.1462,0.0124,0.0125,9.8066,0.0002,0.0106,-0.007,-41.94,-40.19,44.69,331.44,-88.84,-165.17
14040,53.133465,-1.525619,196.84,14.63,6,112.6,19 / 19,2876613,2019-11-06 16:54:17:075,-1.1046,-0.8833,9.3722,0.0174,0.0075,9.8066,0.019,-0.2119,0.066,-32.37,-36.81,19.88,315.2,-88.84,-166.0
14041,53.133465,-1.525619,196.84,14.63,6,112.6,19 / 19,2876714,2019-11-06 16:54:17:176,0.0007,0.4665,9.2015,0.01,0.0042,9.8065,0.0107,-0.0629,-0.0073,-27.81,-36.62,19.13,313.93,-88.72,-169.21
