,GPS LATITUDE (degrees),GPS LONGITUDE (degrees), GPS ALTITUDE (m),GPS SPEED (Kmh),GPS ACCURACY (m),GPS ORIENTATION (Â°), SATELLITES IN RANGE, TIME SINCE START (ms), DATE (YYYY-MO-DD HH-MI-SS_SSS),ACCELEROMETER X (m/s²) , ACCELEROMETER Y (m/s²), ACCELEROMETER Z (m/s²), GRAVITY X (m/s²), GRAVITY Y (m/s²), GRAVITY Z (m/s²), GYROSCOPE Yaw (rad/s), GYROSCOPE Pitch (rad/s), GYROSCOPE Roll (rad/s)
34150,47.16162,-1.513113,59.8,0.0,30.0,183.2,14 / 21,3415012,2019-08-09 21:11:03:750,-0.438,0.1186,9.75,-0.4254,0.1177,9.7967,-0.0001,0.0008,0.0005
34151,47.16162,-1.513113,59.8,0.0,30.0,183.2,14 / 21,3415112,2019-08-09 21:11:03:850,-0.4188,0.115,9.7548,-0.4264,0.1176,9.7967,-0.0003,0.0011,-0.0002
34152,47.16162,-1.513113,59.8,0.0,30.0,183.2,14 / 21,3415210,2019-08-09 21:11:03:948,-0.4188,0.1115,9.7297,-0.4255,0.1171,9.7967,-0.0003,-0.0001,0.0005
34153,47.16162,-1.513113,59.8,0.0,30.0,183.2,14 / 21,3415310,2019-08-09 21:11:04:048,-0.4296,0.1222,9.7536,-0.4255,0.1165,9.7967,-0.0006,0.0002,-0.0003
34154,47.16162,-1.513113,59.8,0.0,30.0,183.2,14 / 21,3415410,2019-08-09 21:11:04:148,-0.4092,0.1306,9.7536,-0.4254,0.117,9.7967,0.0003,-0.0002,0.0
34155,47.16162,-1.513113,59.8,0.0,30.0,183.2,14 / 21,3415510,2019-08-09 21:11:04:248,-0.4188,0.1222,9.7345,-0.4253,0.1165,9.7967,-0.0001,0.0003,0.0004
34156,47.16162,-1.513113,59.8,0.0,30.0,183.2,14 / 20,3415610,2019-08-09 21:11:04:348,-0.4116,0.1186,9.7596,-0.4262,0.1161,9.7967,0.0004,-0.0003,0.0001
34157,47.16162,-1.513113,59.8,0.0,30.0,183.2,14 / 20,3415710,2019-08-09 21:11:04:448,-0.4248,0.1354,9.7536,-0.4259,0.1163,9.7967,-0.0005,-0.0001,0.0
34158,47.16162,-1.513113,59.8,0.0,30.0,183.2,14 / 20,3415811,2019-08-09 21:11:04:549,-0.4248,0.115,9.7441,-0.4254,0.1164,9.7967,0.0002,0.0,-0.0004
34159,47.16162,-1.513113,59.8,0.0,30.0,183.2,14 / 20,3415910,2019-08-09 21:11:04:648,-0.426,0.1174,9.7477,-0.4259,0.1164,9.7967,0.0003,-0.0001,0.0004
34160,47.16162,-1.513113,59.8,0.0,30.0,183.2,14 / 20,3416010,2019-08-09 21:11:04:748,-0.4236,0.1162,9.7393,-0.4255,0.1155,9.7967,-0.0003,0.0002,0.0002
34161,47.16162,-1.513113,59.8,0.0,30.0,183.2,14 / 20,3416110,2019-08-09 21:11:04:848,-0.4236,0.1198,9.7465,-0.4255,0.1161,9.7967,0.0002,0.0004,0.0006
34162,47.16162,-1.513113,59.8,0.0,30.0,183.2,14 / 20,3416210,2019-08-09 21:11:04:948,-0.4428,0.1067,9.7524,-0.426,0.1156,9.7967,-0.0002,0.0004,-0.0004
34163,47.16162,-1.513113,59.8,0.0,30.0,183.2,14 / 20,3416310,2019-08-09 21:11:05:048,-0.4368,0.0995,9.7369,-0.4274,0.1159,9.7966,-0.0001,-0.0006,-0.0006
34164,47.16162,-1.513113,59.8,0.0,30.0,183.2,14 / 20,3416411,2019-08-09 21:11:05:149,-0.4392,0.127,9.7441,-0.4284,0.1161,9.7966,-0.0008,0.0004,-0.0004
34165,47.16162,-1.513113,59.8,0.0,30.0,183.2,14 / 20,3416512,2019-08-09 21:11:05:250,-0.4212,0.1007,9.756,-0.4288,0.1161,9.7966,0.0006,-0.0001,0.0003
34166,47.16162,-1.513113,59.8,0.0,30.0,183.2,14 / 20,3416610,2019-08-09 21:11:05:348,-0.4332,0.1234,9.7345,-0.4279,0.1154,9.7966,-0.0003,-0.0002,0.0005
34167,47.16162,-1.513113,59.8,0.0,30.0,183.2,14 / 20,3416710,2019-08-09 21:11:05:448,-0.4272,0.1091,9.7381,-0.427,0.1158,9.7967,0.0003,0.0003,-0.0005
34168,47.16162,-1.513113,59.8,0.0,30.0,183.2,14 / 20,3416811,2019-08-09 21:11:05:549,-0.426,0.121,9.75,-0.4268,0.1157,9.7967,0.0004,-0.0005,0.0
34169,47.16162,-1.513113,59.8,0.0,30.0,183.2,14 / 20,3416911,2019-08-09 21:11:05:649,-0.4284,0.0875,9.7453,-0.4267,0.1143,9.7967,-0.0004,0.0,0.0004
34170,47.16162,-1.513113,59.8,0.0,30.0,183.2,14 / 20,3417011,2019-08-09 21:11:05:749,-0.4308,0.115,9.756,-0.4274,0.1135,9.7967,0.0001,0.0002,0.0002
34171,47.16162,-1.513113,59.8,0.0,30.0,183.2,14 / 20,3417110,2019-08-09 21:11:05:848,-0.4272,0.1186,9.7393,-0.4285,0.1146,9.7966,0.0001,-0.0002,-0.0006
34172,47.16162,-1.513113,59.8,0.0,30.0,183.2,14 / 20,3417211,2019-08-09 21:11:05:949,-0.4487,0.1091,9.7489,-0.4285,0.1149,9.7966,-0.0002,-0.0001,0.0003
34173,47.16162,-1.513113,59.8,0.0,30.0,183.2,14 / 20,3417310,2019-08-09 21:11:06:048,-0.4116,0.1234,9.7608,-0.43,0.1139,9.7966,0.0003,0.0004,-0.0006
34174,47.16162,-1.513113,59.8,0.0,30.0,183.2,14 / 20,3417410,2019-08-09 21:11:06:148,-0.4212,0.1091,9.7536,-0.4294,0.1143,9.7966,0.0001,-0.0004,-0.0004
34175,47.16162,-1.513113,59.8,0.0,30.0,183.2,14 / 20,3417511,2019-08-09 21:11:06:249,-0.432,0.1102,9.7441,-0.429,0.114,9.7966,0.0,0.0001,0.0
34176,47.16162,-1.513113,59.8,0.0,30.0,183.2,Dec-20,3417611,2019-08-09 21:11:06:349,-0.4332,0.1055,9.7572,-0.429,0.1131,9.7966,-0.0002,0.0004,-0.0009
34177,47.16162,-1.513113,59.8,0.0,30.0,183.2,Dec-20,3417711,2019-08-09 21:11:06:449,-0.4212,0.1174,9.7429,-0.4276,0.1127,9.7967,-0.0001,-0.0002,0.0006
34178,47.16162,-1.513113,59.8,0.0,30.0,183.2,Dec-20,3417811,2019-08-09 21:11:06:549,-0.4332,0.1198,9.7369,-0.4276,0.1134,9.7967,0.0,-0.0003,-0.0004
34179,47.16162,-1.513113,59.8,0.0,30.0,183.2,Dec-20,3417912,2019-08-09 21:11:06:650,-0.4344,0.1007,9.7465,-0.4273,0.1137,9.7967,0.0001,0.0002,0.0
34180,47.16162,-1.513113,59.8,0.0,30.0,183.2,Dec-20,3418011,2019-08-09 21:11:06:749,-0.4128,0.1067,9.7477,-0.4281,0.1138,9.7966,-0.0002,0.0004,0.0003
34181,47.16162,-1.513113,59.8,0.0,30.0,183.2,Dec-20,3418111,2019-08-09 21:11:06:849,-0.4248,0.1162,9.762,-0.4276,0.114,9.7967,0.0002,0.0,0.0007
34182,47.16162,-1.513113,59.8,0.0,30.0,183.2,Dec-20,3418211,2019-08-09 21:11:06:949,-0.4116,0.0983,9.7417,-0.4273,0.1141,9.7967,-0.0001,0.0005,0.0007
34183,47.16162,-1.513113,59.8,0.0,30.0,183.2,Dec-20,3418310,2019-08-09 21:11:07:048,-0.4176,0.1198,9.7357,-0.427,0.1143,9.7967,-0.0004,-0.0001,-0.0003
34184,47.16162,-1.513113,59.8,0.0,30.0,183.2,Dec-20,3418410,2019-08-09 21:11:07:148,-0.4104,0.1102,9.7405,-0.4262,0.1143,9.7967,0.0,-0.0002,0.0005
34185,47.16162,-1.513113,59.8,0.0,30.0,183.2,Dec-20,3418512,2019-08-09 21:11:07:250,-0.426,0.1055,9.7345,-0.425,0.1145,9.7968,-0.0001,-0.0002,0.0005
34186,47.16162,-1.513113,59.8,0.0,30.0,183.2,13 / 19,3418610,2019-08-09 21:11:07:348,-0.4092,0.1091,9.7417,-0.425,0.1143,9.7968,0.0001,0.0,0.0007
34187,47.16162,-1.513113,59.8,0.0,30.0,183.2,13 / 19,3418711,2019-08-09 21:11:07:449,-0.4152,0.1102,9.7405,-0.4246,0.1137,9.7968,0.0001,-0.0002,0.0
34188,47.16162,-1.513113,59.8,0.0,30.0,183.2,13 / 19,3418810,2019-08-09 21:11:07:548,-0.4164,0.1246,9.7513,-0.4252,0.1155,9.7968,-0.0003,-0.0005,0.0008
34189,47.16162,-1.513113,59.8,0.0,30.0,183.2,13 / 19,3418910,2019-08-09 21:11:07:648,-0.4068,0.0935,9.7405,-0.4234,0.1152,9.7968,0.0,0.0,0.0004
34190,47.16162,-1.513113,59.8,0.0,30.0,183.2,13 / 19,3419010,2019-08-09 21:11:07:748,-0.4344,0.1186,9.7465,-0.4233,0.1143,9.7968,-0.0002,0.0007,-0.0008
34191,47.16162,-1.513113,59.8,0.0,30.0,183.2,13 / 19,3419110,2019-08-09 21:11:07:848,-0.426,0.1162,9.7441,-0.4258,0.1151,9.7967,0.0001,0.0004,-0.0001
34192,47.16162,-1.513113,59.8,0.0,30.0,183.2,13 / 19,3419211,2019-08-09 21:11:07:949,-0.4487,0.1222,9.75,-0.4271,0.1155,9.7967,-0.0001,0.0003,0.0001
34193,47.16162,-1.513113,59.8,0.0,30.0,183.2,13 / 19,3419311,2019-08-09 21:11:08:049,-0.4272,0.0827,9.7489,-0.4278,0.114,9.7967,-0.0001,0.0,-0.0005
34194,47.16162,-1.513113,59.8,0.0,30.0,183.2,13 / 19,3419410,2019-08-09 21:11:08:148,-0.4272,0.1162,9.7297,-0.428,0.1126,9.7967,0.0,-0.0009,0.0003
34195,47.16162,-1.513113,59.8,0.0,30.0,183.2,13 / 19,3419510,2019-08-09 21:11:08:248,-0.4248,0.1174,9.7381,-0.4298,0.1139,9.7966,-0.0006,0.0001,-0.0008
34196,47.16162,-1.513113,59.8,0.0,30.0,183.2,14 / 20,3419611,2019-08-09 21:11:08:349,-0.4212,0.1079,9.7608,-0.4288,0.1146,9.7966,-0.0007,-0.0001,0.0009
34197,47.16162,-1.513113,59.8,0.0,30.0,183.2,14 / 20,3419710,2019-08-09 21:11:08:448,-0.444,0.1115,9.7429,-0.428,0.1135,9.7967,-0.0002,-0.0001,0.0
34198,47.16162,-1.513113,59.8,0.0,30.0,183.2,14 / 20,3419810,2019-08-09 21:11:08:548,-0.4404,0.1115,9.7489,-0.431,0.1115,9.7965,0.0004,0.0005,-0.0004
34199,47.16162,-1.513113,59.8,0.0,30.0,183.2,14 / 20,3419910,2019-08-09 21:11:08:648,-0.4476,0.1246,9.7608,-0.4324,0.1123,9.7965,0.0005,0.0,-0.0006
34200,47.16162,-1.513113,59.8,0.0,30.0,183.2,14 / 20,3420010,2019-08-09 21:11:08:748,-0.4308,0.115,9.7345,-0.4324,0.1152,9.7964,0.0,-0.0009,0.0007
34201,47.16162,-1.513113,59.8,0.0,30.0,183.2,14 / 20,3420110,2019-08-09 21:11:08:848,-0.4081,0.1174,9.7393,-0.4325,0.1154,9.7964,0.0002,-0.0005,0.0006
34202,47.16162,-1.513113,59.8,0.0,30.0,183.2,14 / 20,3420210,2019-08-09 21:11:08:948,-0.4212,0.1007,9.7441,-0.4349,0.115,9.7963,-0.0001,0.0,0.0008
34203,47.16162,-1.513113,59.8,0.0,30.0,183.2,14 / 20,3420310,2019-08-09 21:11:09:048,-0.4308,0.1043,9.7333,-0.4335,0.114,9.7964,0.0002,-0.0002,-0.0009
34204,47.16162,-1.513113,59.8,0.0,30.0,183.2,14 / 20,3420410,2019-08-09 21:11:09:148,-0.4308,0.1186,9.756,-0.4333,0.1147,9.7964,0.0,0.0004,0.0003
34205,47.16162,-1.513113,59.8,0.0,30.0,183.2,14 / 20,3420511,2019-08-09 21:11:09:249,-0.4248,0.121,9.7524,-0.4331,0.1152,9.7964,-0.0002,-0.0007,0.0004
34206,47.16162,-1.513113,59.8,0.0,30.0,183.2,16 / 21,3420611,2019-08-09 21:11:09:349,-0.4236,0.0995,9.7333,-0.4317,0.1142,9.7965,0.0005,0.0001,0.0003
34207,47.16162,-1.513113,59.8,0.0,30.0,183.2,16 / 21,3420710,2019-08-09 21:11:09:448,-0.414,0.1198,9.7536,-0.4314,0.1138,9.7965,0.0004,-0.0013,-0.0003
34208,47.16162,-1.513113,59.8,0.0,30.0,183.2,16 / 21,3420811,2019-08-09 21:11:09:549,-0.4428,0.1079,9.7441,-0.4315,0.1123,9.7965,0.0,0.0004,0.0
34209,47.16162,-1.513113,59.8,0.0,30.0,183.2,16 / 21,3420910,2019-08-09 21:11:09:648,-0.4236,0.1162,9.7465,-0.4326,0.1134,9.7964,0.0005,0.0009,-0.0002
34210,47.16162,-1.513113,59.8,0.0,30.0,183.2,16 / 21,3421010,2019-08-09 21:11:09:748,-0.4284,0.0983,9.7405,-0.4311,0.1151,9.7965,0.0,0.0007,0.0004
34211,47.16162,-1.513113,59.8,0.0,30.0,183.2,16 / 21,3421110,2019-08-09 21:11:09:848,-0.4212,0.0983,9.7524,-0.4313,0.1139,9.7965,-0.001,0.0002,-0.0004
34212,47.16162,-1.513113,59.8,0.0,30.0,183.2,16 / 21,3421210,2019-08-09 21:11:09:948,-0.4344,0.1079,9.7213,-0.4307,0.1128,9.7965,0.0004,-0.0003,-0.0004
34213,47.16162,-1.513113,59.8,0.0,30.0,183.2,16 / 21,3421310,2019-08-09 21:11:10:048,-0.432,0.1342,9.7417,-0.4312,0.1124,9.7965,0.0,-0.0002,0.0003
34214,47.16162,-1.513113,59.8,0.0,30.0,183.2,16 / 21,3421411,2019-08-09 21:11:10:149,-0.444,0.121,9.7369,-0.4318,0.1149,9.7965,-0.0004,0.0004,-0.0001
34215,47.16162,-1.513113,59.8,0.0,30.0,183.2,16 / 21,3421510,2019-08-09 21:11:10:248,-0.45,0.1055,9.7513,-0.4329,0.1147,9.7964,-0.0005,0.0003,-0.0008
34216,47.16162,-1.513113,59.8,0.0,30.0,183.2,15 / 21,3421610,2019-08-09 21:11:10:348,-0.4248,0.1126,9.7536,-0.433,0.1135,9.7964,0.0002,0.0001,-0.0001
34217,47.16162,-1.513113,59.8,0.0,30.0,183.2,15 / 21,3421710,2019-08-09 21:11:10:448,-0.42,0.1198,9.7489,-0.432,0.1136,9.7965,-0.0004,-0.0005,0.0009
34218,47.16162,-1.513113,59.8,0.0,30.0,183.2,15 / 21,3421810,2019-08-09 21:11:10:548,-0.4356,0.1222,9.7477,-0.4326,0.1145,9.7964,-0.0005,0.0001,0.0016
34219,47.16162,-1.513113,59.8,0.0,30.0,183.2,15 / 21,3421910,2019-08-09 21:11:10:648,-0.432,0.1019,9.7453,-0.4329,0.1148,9.7964,-0.0004,-0.0005,0.0005
34220,47.16162,-1.513113,59.8,0.0,30.0,183.2,15 / 21,3422010,2019-08-09 21:11:10:748,-0.426,0.1162,9.75,-0.4321,0.1135,9.7965,-0.0006,0.0009,-0.0005
34221,47.16162,-1.513113,59.8,0.0,30.0,183.2,15 / 21,3422111,2019-08-09 21:11:10:849,-0.4296,0.1115,9.7429,-0.4323,0.1135,9.7965,0.0004,0.0006,0.0005
34222,47.16162,-1.513113,59.8,0.0,30.0,183.2,15 / 21,3422212,2019-08-09 21:11:10:950,-0.4284,0.115,9.7477,-0.4321,0.1135,9.7965,-0.0006,0.0004,-0.0003
34223,47.16162,-1.513113,59.8,0.0,30.0,183.2,15 / 21,3422310,2019-08-09 21:11:11:048,-0.4236,0.1222,9.7429,-0.4312,0.1134,9.7965,0.0001,-0.0009,0.0003
34224,47.16162,-1.513113,59.8,0.0,30.0,183.2,15 / 21,3422410,2019-08-09 21:11:11:148,-0.4236,0.1186,9.7465,-0.4313,0.1129,9.7965,0.0002,0.0,-0.0004
34225,47.16162,-1.513113,59.8,0.0,30.0,183.2,15 / 21,3422512,2019-08-09 21:11:11:250,-0.4212,0.1186,9.7333,-0.4306,0.1121,9.7966,-0.0005,0.0006,-0.0004
34226,47.16162,-1.513113,59.8,0.0,30.0,183.2,16 / 22,3422610,2019-08-09 21:11:11:348,-0.4236,0.1438,9.7453,-0.4305,0.1141,9.7965,0.0002,0.0002,0.0008
34227,47.16162,-1.513113,59.8,0.0,30.0,183.2,16 / 22,3422710,2019-08-09 21:11:11:448,-0.4248,0.1102,9.7429,-0.4308,0.1146,9.7965,0.0005,0.0,0.0002
34228,47.16162,-1.513113,59.8,0.0,30.0,183.2,16 / 22,3422810,2019-08-09 21:11:11:548,-0.438,0.1091,9.7345,-0.4296,0.1158,9.7965,-0.0004,-0.0004,0.0007
34229,47.16162,-1.513113,59.8,0.0,30.0,183.2,16 / 22,3422911,2019-08-09 21:11:11:649,-0.4248,0.1091,9.7417,-0.43,0.1149,9.7965,-0.0002,0.0004,-0.0003
34230,47.16162,-1.513113,59.8,0.0,30.0,183.2,16 / 22,3423011,2019-08-09 21:11:11:749,-0.4296,0.1174,9.7465,-0.4291,0.1152,9.7966,0.0003,0.001,0.0006
34231,47.16162,-1.513113,59.8,0.0,30.0,183.2,16 / 22,3423111,2019-08-09 21:11:11:849,-0.4392,0.1019,9.75,-0.4291,0.1157,9.7966,0.0001,-0.0001,0.0005
34232,47.16162,-1.513113,59.8,0.0,30.0,183.2,16 / 22,3423211,2019-08-09 21:11:11:949,-0.4308,0.1126,9.7465,-0.4301,0.1152,9.7965,-0.0002,-0.0005,0.0
34233,47.16162,-1.513113,59.8,0.0,30.0,183.2,16 / 22,3423312,2019-08-09 21:11:12:050,-0.4284,0.1222,9.7405,-0.4304,0.1152,9.7965,-0.0002,-0.0001,0.0001
34234,47.16162,-1.513113,59.8,0.0,30.0,183.2,16 / 22,3423410,2019-08-09 21:11:12:148,-0.4092,0.1222,9.7429,-0.4293,0.1162,9.7966,-0.0002,0.0001,-0.0004
34235,47.16162,-1.513113,59.8,0.0,30.0,183.2,16 / 22,3423510,2019-08-09 21:11:12:248,-0.4344,0.1186,9.7381,-0.4307,0.1173,9.7965,0.0001,0.0006,-0.0001
34236,47.16162,-1.513113,59.8,0.0,30.0,183.2,15 / 20,3423611,2019-08-09 21:11:12:349,-0.4128,0.1198,9.7405,-0.4312,0.1171,9.7965,0.0001,0.0003,0.0
34237,47.16162,-1.513113,59.8,0.0,30.0,183.2,15 / 20,3423711,2019-08-09 21:11:12:449,-0.4176,0.1162,9.7405,-0.4316,0.1166,9.7965,-0.0002,0.0008,-0.0008
34238,47.16162,-1.513113,59.8,0.0,30.0,183.2,15 / 20,3423811,2019-08-09 21:11:12:549,-0.4344,0.1222,9.75,-0.4305,0.1165,9.7965,-0.0002,-0.0005,0.0011
34239,47.16162,-1.513113,59.8,0.0,30.0,183.2,15 / 20,3423911,2019-08-09 21:11:12:649,-0.4272,0.1115,9.7429,-0.4317,0.1168,9.7964,-0.0002,0.0,-0.0004
34240,47.16162,-1.513113,59.8,0.0,30.0,183.2,15 / 20,3424011,2019-08-09 21:11:12:749,-0.4296,0.1031,9.7477,-0.4311,0.1163,9.7965,0.0,0.0002,-0.0003
34241,47.16162,-1.513113,59.8,0.0,30.0,183.2,15 / 20,3424111,2019-08-09 21:11:12:849,-0.4272,0.1174,9.7548,-0.4294,0.1156,9.7966,-0.0006,-0.0009,0.0001
34242,47.16162,-1.513113,59.8,0.0,30.0,183.2,15 / 20,3424212,2019-08-09 21:11:12:950,-0.4308,0.1174,9.7369,-0.4291,0.1148,9.7966,-0.0002,0.0003,0.0
34243,47.16162,-1.513113,59.8,0.0,30.0,183.2,15 / 20,3424310,2019-08-09 21:11:13:048,-0.4164,0.1067,9.7417,-0.4295,0.1153,9.7966,0.0003,-0.0005,0.0
34244,47.16162,-1.513113,59.8,0.0,30.0,183.2,15 / 20,3424410,2019-08-09 21:11:13:148,-0.444,0.1138,9.7536,-0.4287,0.1147,9.7966,0.0004,-0.0001,-0.0002
34245,47.16162,-1.513113,59.8,0.0,30.0,183.2,15 / 20,3424511,2019-08-09 21:11:13:249,-0.4236,0.1186,9.7417,-0.4294,0.1159,9.7966,-0.0005,0.0001,0.0005
34246,47.16162,-1.513113,59.8,0.0,30.0,183.2,17 / 22,3424611,2019-08-09 21:11:13:349,-0.4224,0.1186,9.7417,-0.4301,0.1156,9.7965,-0.0002,0.0,0.0002
34247,47.16162,-1.513113,59.8,0.0,30.0,183.2,17 / 22,3424711,2019-08-09 21:11:13:449,-0.426,0.1126,9.756,-0.4296,0.1169,9.7965,0.0,0.0,-0.0001
34248,47.16162,-1.513113,59.8,0.0,30.0,183.2,17 / 22,3424811,2019-08-09 21:11:13:549,-0.4272,0.1079,9.7489,-0.4296,0.117,9.7965,-0.0005,-0.0004,-0.0001
34249,47.16162,-1.513113,59.8,0.0,30.0,183.2,17 / 22,3424911,2019-08-09 21:11:13:649,-0.4236,0.1198,9.7381,-0.4303,0.1155,9.7965,-0.0002,0.0,0.0005
34250,47.16162,-1.513113,59.8,0.0,30.0,183.2,17 / 22,3425011,2019-08-09 21:11:13:749,-0.4392,0.1174,9.7536,-0.43,0.1159,9.7965,0.0002,0.0,0.0001
34251,47.16162,-1.513113,59.8,0.0,30.0,183.2,17 / 22,3425111,2019-08-09 21:11:13:849,-0.4068,0.115,9.7536,-0.4298,0.1159,9.7965,-0.0002,0.0006,0.0002
34252,47.16162,-1.513113,59.8,0.0,30.0,183.2,17 / 22,3425211,2019-08-09 21:11:13:949,-0.4224,0.1055,9.7489,-0.4311,0.116,9.7965,-0.0002,0.0,-0.0009
34253,47.16162,-1.513113,59.8,0.0,30.0,183.2,17 / 22,3425310,2019-08-09 21:11:14:048,-0.4248,0.1126,9.7453,-0.4314,0.1149,9.7965,0.0001,-0.0004,-0.0002
34254,47.16162,-1.513113,59.8,0.0,30.0,183.2,17 / 22,3425411,2019-08-09 21:11:14:149,-0.4344,0.1198,9.7345,-0.431,0.1158,9.7965,-0.0005,0.0004,-0.0001
34255,47.16162,-1.513113,59.8,0.0,30.0,183.2,17 / 22,3425511,2019-08-09 21:11:14:249,-0.4368,0.1091,9.7417,-0.4315,0.116,9.7965,0.0,0.0006,0.0005
34256,47.16162,-1.513113,59.8,0.0,30.0,183.2,16 / 22,3425611,2019-08-09 21:11:14:349,-0.4188,0.1031,9.7465,-0.4325,0.1162,9.7964,-0.0002,0.0002,0.0014
34257,47.16162,-1.513113,59.8,0.0,30.0,183.2,16 / 22,3425711,2019-08-09 21:11:14:449,-0.4296,0.1031,9.75,-0.4311,0.1138,9.7965,-0.0003,0.0004,0.0002
34258,47.16162,-1.513113,59.8,0.0,30.0,183.2,16 / 22,3425811,2019-08-09 21:11:14:549,-0.4416,0.1222,9.7441,-0.4307,0.114,9.7965,0.0001,0.0004,-0.0001
34259,47.16162,-1.513113,59.8,0.0,30.0,183.2,16 / 22,3425910,2019-08-09 21:11:14:648,-0.4236,0.1162,9.7321,-0.4307,0.1146,9.7965,-0.0002,0.0005,0.0007
34260,47.16162,-1.513113,59.8,0.0,30.0,183.2,16 / 22,3426010,2019-08-09 21:11:14:748,-0.4212,0.1138,9.7453,-0.4302,0.1145,9.7965,0.0002,0.0,0.0
34261,47.16162,-1.513113,59.8,0.0,30.0,183.2,16 / 22,3426110,2019-08-09 21:11:14:848,-0.4212,0.1102,9.7608,-0.4292,0.1154,9.7966,-0.0003,-0.0004,-0.0004
34262,47.16162,-1.513113,59.8,0.0,30.0,183.2,16 / 22,3426211,2019-08-09 21:11:14:949,-0.4212,0.115,9.7524,-0.4288,0.1154,9.7966,-0.0006,0.0002,0.0001
34263,47.16162,-1.513113,59.8,0.0,30.0,183.2,16 / 22,3426310,2019-08-09 21:11:15:048,-0.4296,0.1067,9.756,-0.429,0.1156,9.7966,0.0002,0.0,0.0
34264,47.16162,-1.513113,59.8,0.0,30.0,183.2,16 / 22,3426410,2019-08-09 21:11:15:148,-0.4224,0.127,9.7417,-0.4296,0.1155,9.7966,-0.0008,0.0006,0.0
34265,47.16162,-1.513113,59.8,0.0,30.0,183.2,16 / 22,3426510,2019-08-09 21:11:15:248,-0.4188,0.121,9.7453,-0.4296,0.1163,9.7965,0.0,0.0002,-0.0004
34266,47.16162,-1.513113,59.8,0.0,30.0,183.2,16 / 21,3426610,2019-08-09 21:11:15:348,-0.4308,0.1115,9.7524,-0.4299,0.1164,9.7965,-0.0001,0.0006,0.0001
34267,47.16162,-1.513113,59.8,0.0,30.0,183.2,16 / 21,3426711,2019-08-09 21:11:15:449,-0.4176,0.1198,9.7369,-0.4303,0.1162,9.7965,0.0003,0.0004,-0.0001
34268,47.16162,-1.513113,59.8,0.0,30.0,183.2,16 / 21,3426811,2019-08-09 21:11:15:549,-0.45,0.1102,9.7393,-0.4309,0.1157,9.7965,-0.0002,0.0009,0.0002
34269,47.16162,-1.513113,59.8,0.0,30.0,183.2,16 / 21,3426910,2019-08-09 21:11:15:648,-0.4164,0.1414,9.7453,-0.4303,0.1178,9.7965,-0.0001,-0.0003,0.0
34270,47.16162,-1.513113,59.8,0.0,30.0,183.2,16 / 21,3427011,2019-08-09 21:11:15:749,-0.4344,0.1174,9.7345,-0.4296,0.1168,9.7965,-0.0003,0.0003,0.0002
34271,47.16162,-1.513113,59.8,0.0,30.0,183.2,16 / 21,3427110,2019-08-09 21:11:15:848,-0.4272,0.1234,9.7441,-0.4301,0.1166,9.7965,0.0001,-0.0002,-0.0004
34272,47.16162,-1.513113,59.8,0.0,30.0,183.2,16 / 21,3427210,2019-08-09 21:11:15:948,-0.4308,0.115,9.7477,-0.4298,0.1171,9.7965,-0.0002,0.0,0.0008
34273,47.16162,-1.513113,59.8,0.0,30.0,183.2,16 / 21,3427310,2019-08-09 21:11:16:048,-0.4547,0.1067,9.7429,-0.4297,0.1177,9.7965,-0.0004,0.0001,0.0002
34274,47.16162,-1.513113,59.8,0.0,30.0,183.2,16 / 21,3427411,2019-08-09 21:11:16:149,-0.4308,0.1138,9.7524,-0.4322,0.1174,9.7964,-0.0005,0.0,-0.0004
34275,47.16162,-1.513113,59.8,0.0,30.0,183.2,16 / 21,3427511,2019-08-09 21:11:16:249,-0.426,0.1079,9.7489,-0.4313,0.117,9.7965,-0.0002,0.0006,0.0
34276,47.16162,-1.513113,59.8,0.0,30.0,183.2,16 / 20,3427611,2019-08-09 21:11:16:349,-0.4308,0.1079,9.7369,-0.431,0.1172,9.7965,0.0005,0.0,-0.0002
34277,47.16162,-1.513113,59.8,0.0,30.0,183.2,16 / 20,3427711,2019-08-09 21:11:16:449,-0.4248,0.121,9.7596,-0.4295,0.1165,9.7965,-0.0004,0.0,-0.0004
34278,47.16162,-1.513113,59.8,0.0,30.0,183.2,16 / 20,3427810,2019-08-09 21:11:16:548,-0.438,0.1174,9.75,-0.4294,0.1164,9.7966,-0.0001,0.0006,-0.0007
34279,47.16162,-1.513113,59.8,0.0,30.0,183.2,16 / 20,3427910,2019-08-09 21:11:16:648,-0.4176,0.1222,9.7465,-0.4284,0.116,9.7966,-0.0002,-0.0001,-0.0005
34280,47.16162,-1.513113,59.8,0.0,30.0,183.2,16 / 20,3428011,2019-08-09 21:11:16:749,-0.3925,0.1126,9.7572,-0.4272,0.1173,9.7966,0.0006,0.0,-0.0004
34281,47.16162,-1.513113,59.8,0.0,30.0,183.2,16 / 20,3428110,2019-08-09 21:11:16:848,-0.4176,0.1234,9.7536,-0.425,0.1173,9.7967,-0.0009,-0.0011,0.0005
34282,47.16162,-1.513113,59.8,0.0,30.0,183.2,16 / 20,3428210,2019-08-09 21:11:16:948,-0.4164,0.1174,9.7453,-0.424,0.1177,9.7968,-0.0004,0.0006,-0.0004
34283,47.16162,-1.513113,59.8,0.0,30.0,183.2,16 / 20,3428311,2019-08-09 21:11:17:049,-0.426,0.1162,9.7524,-0.425,0.1183,9.7967,0.0,0.0004,0.0
34284,47.16162,-1.513113,59.8,0.0,30.0,183.2,16 / 20,3428410,2019-08-09 21:11:17:148,-0.414,0.1055,9.7417,-0.4256,0.1194,9.7967,-0.0002,0.0001,0.0003
34285,47.16162,-1.513113,59.8,0.0,30.0,183.2,16 / 20,3428510,2019-08-09 21:11:17:248,-0.4116,0.1115,9.7405,-0.4246,0.1187,9.7967,-0.0005,0.0007,0.0001
34286,47.16162,-1.513113,59.8,0.0,30.0,183.2,17 / 21,3428610,2019-08-09 21:11:17:348,-0.414,0.1246,9.7548,-0.4248,0.1178,9.7967,0.0005,0.0006,-0.0009
34287,47.16162,-1.513113,59.8,0.0,30.0,183.2,17 / 21,3428710,2019-08-09 21:11:17:448,-0.42,0.1246,9.7381,-0.4242,0.1174,9.7968,-0.0003,0.0008,-0.0002
34288,47.16162,-1.513113,59.8,0.0,30.0,183.2,17 / 21,3428811,2019-08-09 21:11:17:549,-0.426,0.115,9.7417,-0.4248,0.118,9.7967,0.0001,0.0006,0.0011
34289,47.16162,-1.513113,59.8,0.0,30.0,183.2,17 / 21,3428910,2019-08-09 21:11:17:648,-0.414,0.1234,9.7524,-0.4246,0.1174,9.7967,-0.0001,0.0,-0.0009
34290,47.16162,-1.513113,59.8,0.0,30.0,183.2,17 / 21,3429011,2019-08-09 21:11:17:749,-0.4188,0.1174,9.7453,-0.423,0.1177,9.7968,-0.0001,0.0004,0.0
34291,47.16162,-1.513113,59.8,0.0,30.0,183.2,17 / 21,3429111,2019-08-09 21:11:17:849,-0.4308,0.127,9.7417,-0.4227,0.1172,9.7968,0.0001,0.0008,-0.001
34292,47.16162,-1.513113,59.8,0.0,30.0,183.2,17 / 21,3429211,2019-08-09 21:11:17:949,-0.4068,0.1222,9.7465,-0.4229,0.118,9.7968,-0.0005,0.0004,0.0003
34293,47.16162,-1.513113,59.8,0.0,30.0,183.2,17 / 21,3429310,2019-08-09 21:11:18:048,-0.4296,0.1115,9.7477,-0.4232,0.1184,9.7968,-0.0005,0.0003,0.0002
34294,47.16162,-1.513113,59.8,0.0,30.0,183.2,17 / 21,3429410,2019-08-09 21:11:18:148,-0.4212,0.1126,9.7405,-0.4228,0.1183,9.7968,-0.0001,0.0005,-0.0003
34295,47.16162,-1.513113,59.8,0.0,30.0,183.2,17 / 21,3429510,2019-08-09 21:11:18:248,-0.4128,0.1162,9.7393,-0.4232,0.1182,9.7968,-0.0001,0.0002,0.0001
34296,47.16162,-1.513113,59.8,0.0,30.0,183.2,16 / 18,3429610,2019-08-09 21:11:18:348,-0.4081,0.1186,9.7465,-0.4219,0.1179,9.7969,-0.0002,-0.0003,0.0005
34297,47.16162,-1.513113,59.8,0.0,30.0,183.2,16 / 18,3429710,2019-08-09 21:11:18:448,-0.4404,0.1318,9.7608,-0.4217,0.1179,9.7969,-0.0008,0.0,0.0003
34298,47.16162,-1.513113,59.8,0.0,30.0,183.2,16 / 18,3429811,2019-08-09 21:11:18:549,-0.4128,0.1138,9.7381,-0.4226,0.1171,9.7968,-0.0003,0.001,-0.0009
34299,47.16162,-1.513113,59.8,0.0,30.0,183.2,16 / 18,3429911,2019-08-09 21:11:18:649,-0.426,0.1126,9.75,-0.4228,0.1166,9.7968,0.0004,0.0006,-0.0004
34300,47.16162,-1.513113,59.8,0.0,30.0,183.2,16 / 18,3430010,2019-08-09 21:11:18:748,-0.4296,0.1198,9.7465,-0.4251,0.1182,9.7967,0.0004,-0.0004,0.0
34301,47.16162,-1.513113,59.8,0.0,30.0,183.2,16 / 18,3430110,2019-08-09 21:11:18:848,-0.4224,0.1091,9.7393,-0.4251,0.1189,9.7967,0.0005,0.0,-0.0002
34302,47.16162,-1.513113,59.8,0.0,30.0,183.2,16 / 18,3430210,2019-08-09 21:11:18:948,-0.432,0.1162,9.7465,-0.426,0.1185,9.7967,-0.0002,0.0004,0.0005
34303,47.16162,-1.513113,59.8,0.0,30.0,183.2,16 / 18,3430312,2019-08-09 21:11:19:050,-0.4081,0.115,9.7489,-0.4259,0.1174,9.7967,-0.0006,-0.0007,-0.0007
34304,47.16162,-1.513113,59.8,0.0,30.0,183.2,16 / 18,3430410,2019-08-09 21:11:19:148,-0.438,0.1043,9.7429,-0.4265,0.1167,9.7967,-0.0003,-0.0003,-0.0008
34305,47.16162,-1.513113,59.8,0.0,30.0,183.2,16 / 18,3430510,2019-08-09 21:11:19:248,-0.4212,0.1115,9.7393,-0.4274,0.1166,9.7966,-0.0004,0.0003,0.0001
34306,47.16162,-1.513113,59.8,0.0,30.0,183.2,17 / 21,3430610,2019-08-09 21:11:19:348,-0.4296,0.1222,9.7297,-0.4277,0.1163,9.7966,0.0002,0.0003,0.0
34307,47.16162,-1.513113,59.8,0.0,30.0,183.2,17 / 21,3430710,2019-08-09 21:11:19:448,-0.4272,0.1091,9.7584,-0.428,0.1161,9.7966,0.0001,-0.0002,0.0005
34308,47.16162,-1.513113,59.8,0.0,30.0,183.2,17 / 21,3430811,2019-08-09 21:11:19:549,-0.4356,0.115,9.7393,-0.4282,0.1157,9.7966,0.0005,-0.0006,0.0001
34309,47.16162,-1.513113,59.8,0.0,30.0,183.2,17 / 21,3430911,2019-08-09 21:11:19:649,-0.4296,0.1091,9.7453,-0.4281,0.1163,9.7966,0.0003,0.0008,0.0001
34310,47.16162,-1.513113,59.8,0.0,30.0,183.2,17 / 21,3431010,2019-08-09 21:11:19:748,-0.4296,0.1198,9.7405,-0.4285,0.1167,9.7966,0.0007,-0.0005,-0.0001
34311,47.16162,-1.513113,59.8,0.0,30.0,183.2,17 / 21,3431110,2019-08-09 21:11:19:848,-0.4212,0.1162,9.7572,-0.4297,0.1167,9.7965,-0.0009,0.0005,0.0009
34312,47.16162,-1.513113,59.8,0.0,30.0,183.2,17 / 21,3431210,2019-08-09 21:11:19:948,-0.4224,0.1067,9.75,-0.4298,0.116,9.7965,-0.0003,-0.0002,-0.0004
34313,47.16162,-1.513113,59.8,0.0,30.0,183.2,17 / 21,3431312,2019-08-09 21:11:20:050,-0.4356,0.1354,9.7513,-0.4293,0.1168,9.7966,-0.0006,0.0,-0.0006
34314,47.16162,-1.513113,59.8,0.0,30.0,183.2,17 / 21,3431410,2019-08-09 21:11:20:148,-0.432,0.1126,9.75,-0.4299,0.1175,9.7965,0.0,0.0003,-0.0004
34315,47.16162,-1.513113,59.8,0.0,30.0,183.2,17 / 21,3431510,2019-08-09 21:11:20:248,-0.4224,0.1043,9.7381,-0.43,0.1175,9.7965,0.0,0.0001,0.0
34316,47.16162,-1.513113,59.8,0.0,30.0,183.2,18 / 22,3431610,2019-08-09 21:11:20:348,-0.4344,0.1306,9.7417,-0.4295,0.1168,9.7965,-0.0001,0.0,0.0
34317,47.16162,-1.513113,59.8,0.0,30.0,183.2,18 / 22,3431712,2019-08-09 21:11:20:450,-0.4296,0.121,9.7453,-0.4292,0.117,9.7966,0.0003,0.0,0.0001
34318,47.16162,-1.513113,59.8,0.0,30.0,183.2,18 / 22,3431810,2019-08-09 21:11:20:548,-0.426,0.1186,9.7393,-0.4296,0.1172,9.7965,-0.0002,0.0,-0.0001
34319,47.16162,-1.513113,59.8,0.0,30.0,183.2,18 / 22,3431910,2019-08-09 21:11:20:648,-0.432,0.115,9.7572,-0.4304,0.1174,9.7965,0.0005,-0.0004,0.0009
34320,47.16162,-1.513113,59.8,0.0,30.0,183.2,18 / 22,3432010,2019-08-09 21:11:20:748,-0.432,0.1079,9.7465,-0.4307,0.117,9.7965,0.0002,0.0003,-0.0004
34321,47.16162,-1.513113,59.8,0.0,30.0,183.2,18 / 22,3432111,2019-08-09 21:11:20:849,-0.4464,0.121,9.7357,-0.4313,0.1163,9.7965,0.0003,0.0001,0.0005
34322,47.16162,-1.513113,59.8,0.0,30.0,183.2,18 / 22,3432210,2019-08-09 21:11:20:948,-0.4068,0.1186,9.7453,-0.4315,0.1167,9.7965,-0.0001,0.0001,-0.0009
34323,47.16162,-1.513113,59.8,0.0,30.0,183.2,18 / 22,3432310,2019-08-09 21:11:21:048,-0.4332,0.1198,9.7405,-0.4295,0.1183,9.7965,0.0002,-0.0001,-0.0003
34324,47.16162,-1.513113,59.8,0.0,30.0,183.2,18 / 22,3432411,2019-08-09 21:11:21:149,-0.4368,0.1091,9.7536,-0.4296,0.118,9.7965,-0.0005,0.0,0.0003
34325,47.16162,-1.513113,59.8,0.0,30.0,183.2,18 / 22,3432510,2019-08-09 21:11:21:248,-0.4236,0.1138,9.7572,-0.4309,0.1175,9.7965,-0.0002,0.0002,0.0005
34326,47.16162,-1.513113,59.8,0.0,30.0,183.2,18 / 22,3432611,2019-08-09 21:11:21:349,-0.4356,0.1162,9.7357,-0.431,0.1176,9.7965,0.0004,-0.0004,0.0001
34327,47.16162,-1.513113,59.8,0.0,30.0,183.2,18 / 22,3432711,2019-08-09 21:11:21:449,-0.4164,0.1294,9.7477,-0.43,0.1173,9.7965,-0.0001,0.0004,-0.0003
34328,47.16162,-1.513113,59.8,0.0,30.0,183.2,18 / 22,3432811,2019-08-09 21:11:21:549,-0.4344,0.115,9.7393,-0.4299,0.1173,9.7965,0.0003,0.0003,-0.0004
34329,47.16162,-1.513113,59.8,0.0,30.0,183.2,18 / 22,3432911,2019-08-09 21:11:21:649,-0.4392,0.1102,9.7536,-0.4299,0.1173,9.7965,-0.0001,0.0004,0.0
34330,47.16162,-1.513113,59.8,0.0,30.0,183.2,18 / 22,3433010,2019-08-09 21:11:21:748,-0.4236,0.1174,9.7441,-0.4303,0.1175,9.7965,0.0007,0.0007,-0.0002
34331,47.16162,-1.513113,59.8,0.0,30.0,183.2,18 / 22,3433110,2019-08-09 21:11:21:848,-0.4224,0.115,9.7369,-0.4303,0.1172,9.7965,0.0001,0.0003,0.0
34332,47.16162,-1.513113,59.8,0.0,30.0,183.2,18 / 22,3433210,2019-08-09 21:11:21:948,-0.426,0.1222,9.7489,-0.4309,0.1182,9.7965,-0.0002,0.0003,0.0001
34333,47.16162,-1.513113,59.8,0.0,30.0,183.2,18 / 22,3433312,2019-08-09 21:11:22:050,-0.4188,0.1102,9.7429,-0.4305,0.1182,9.7965,0.0,0.0,0.0005
34334,47.16162,-1.513113,59.8,0.0,30.0,183.2,18 / 22,3433410,2019-08-09 21:11:22:148,-0.4236,0.1162,9.7465,-0.4311,0.1181,9.7965,0.0004,0.0008,0.0003
34335,47.16162,-1.513113,59.8,0.0,30.0,183.2,18 / 22,3433511,2019-08-09 21:11:22:249,-0.426,0.1162,9.7405,-0.4314,0.1183,9.7964,0.0004,0.0,-0.0002
34336,47.16162,-1.513113,59.8,0.0,30.0,183.2,16 / 20,3433611,2019-08-09 21:11:22:349,-0.4176,0.1162,9.7465,-0.4314,0.118,9.7964,-0.0005,0.0005,0.0001
34337,47.16162,-1.513113,59.8,0.0,30.0,183.2,16 / 20,3433711,2019-08-09 21:11:22:449,-0.4284,0.1234,9.7429,-0.4296,0.1188,9.7965,-0.0002,0.0005,0.0004
34338,47.16162,-1.513113,59.8,0.0,30.0,183.2,16 / 20,3433811,2019-08-09 21:11:22:549,-0.4368,0.1234,9.7393,-0.429,0.1189,9.7965,0.0006,0.0003,-0.0004
34339,47.16162,-1.513113,59.8,0.0,30.0,183.2,16 / 20,3433911,2019-08-09 21:11:22:649,-0.4308,0.1115,9.7596,-0.4299,0.1184,9.7965,0.0005,0.0004,0.0002
34340,47.16162,-1.513113,59.8,0.0,30.0,183.2,16 / 20,3434012,2019-08-09 21:11:22:750,-0.4236,0.1186,9.75,-0.4303,0.1179,9.7965,-0.0003,-0.0001,-0.0001
34341,47.16162,-1.513113,59.8,0.0,30.0,183.2,16 / 20,3434111,2019-08-09 21:11:22:849,-0.426,0.1222,9.7465,-0.4292,0.1175,9.7966,0.0003,-0.0006,0.0005
34342,47.16162,-1.513113,59.8,0.0,30.0,183.2,16 / 20,3434211,2019-08-09 21:11:22:949,-0.4308,0.1126,9.7417,-0.4288,0.1179,9.7966,-0.0002,0.0002,0.0002
34343,47.16162,-1.513113,59.8,0.0,30.0,183.2,16 / 20,3434310,2019-08-09 21:11:23:048,-0.4236,0.1186,9.7477,-0.4275,0.1179,9.7966,-0.0003,0.0003,0.0
34344,47.16162,-1.513113,59.8,0.0,30.0,183.2,16 / 20,3434411,2019-08-09 21:11:23:149,-0.4296,0.121,9.7429,-0.428,0.1174,9.7966,0.0001,0.0005,-0.0001
34345,47.16162,-1.513113,59.8,0.0,30.0,183.2,16 / 20,3434510,2019-08-09 21:11:23:248,-0.444,0.1246,9.7453,-0.429,0.1174,9.7966,0.0001,-0.0002,0.0004
34346,47.16162,-1.513113,59.8,0.0,30.0,183.2,15 / 20,3434611,2019-08-09 21:11:23:349,-0.4224,0.121,9.756,-0.4289,0.1186,9.7965,0.0004,-0.0001,0.0002
34347,47.16162,-1.513113,59.8,0.0,30.0,183.2,15 / 20,3434711,2019-08-09 21:11:23:449,-0.4332,0.1162,9.7489,-0.4285,0.1194,9.7966,0.0,-0.0002,0.0
34348,47.16162,-1.513113,59.8,0.0,30.0,183.2,15 / 20,3434811,2019-08-09 21:11:23:549,-0.4284,0.127,9.7489,-0.4302,0.1205,9.7965,0.0003,0.0,0.0
34349,47.16162,-1.513113,59.8,0.0,30.0,183.2,15 / 20,3434910,2019-08-09 21:11:23:648,-0.414,0.1186,9.7417,-0.4301,0.1209,9.7965,-0.0002,0.0004,0.0005
34350,47.16162,-1.513113,59.8,0.0,30.0,183.2,15 / 20,3435011,2019-08-09 21:11:23:749,-0.4021,0.1091,9.7572,-0.4295,0.1209,9.7965,-0.0008,0.0002,0.0
34351,47.16162,-1.513113,59.8,0.0,30.0,183.2,15 / 20,3435110,2019-08-09 21:11:23:848,-0.426,0.1198,9.7524,-0.428,0.1201,9.7966,-0.0002,-0.0001,-0.0004
34352,47.16162,-1.513113,59.8,0.0,30.0,183.2,15 / 20,3435210,2019-08-09 21:11:23:948,-0.4272,0.1126,9.7297,-0.427,0.1201,9.7966,-0.0002,-0.0006,-0.0003
34353,47.16162,-1.513113,59.8,0.0,30.0,183.2,15 / 20,3435311,2019-08-09 21:11:24:049,-0.4308,0.133,9.7405,-0.4276,0.1194,9.7966,-0.0009,0.0001,0.0005
34354,47.16162,-1.513113,59.8,0.0,30.0,183.2,15 / 20,3435410,2019-08-09 21:11:24:148,-0.4068,0.1102,9.7453,-0.427,0.1198,9.7966,-0.0002,0.0,0.0
34355,47.16162,-1.513113,59.8,0.0,30.0,183.2,15 / 20,3435511,2019-08-09 21:11:24:249,-0.4248,0.1102,9.7405,-0.4267,0.1201,9.7966,-0.0006,0.001,0.0004
34356,47.16162,-1.513113,59.8,0.0,30.0,183.2,17 / 22,3435611,2019-08-09 21:11:24:349,-0.4224,0.1198,9.7536,-0.4274,0.1184,9.7966,-0.0002,0.0005,0.0
34357,47.16162,-1.513113,59.8,0.0,30.0,183.2,17 / 22,3435710,2019-08-09 21:11:24:448,-0.4224,0.1115,9.7417,-0.4275,0.1191,9.7966,-0.0003,-0.0001,0.0005
34358,47.16162,-1.513113,59.8,0.0,30.0,183.2,17 / 22,3435810,2019-08-09 21:11:24:548,-0.4332,0.1079,9.756,-0.427,0.1176,9.7966,0.0003,0.0006,-0.0002
34359,47.16162,-1.513113,59.8,0.0,30.0,183.2,17 / 22,3435910,2019-08-09 21:11:24:648,-0.4009,0.1222,9.7369,-0.4265,0.118,9.7967,0.0,-0.0001,0.0004
34360,47.16162,-1.513113,59.8,0.0,30.0,183.2,17 / 22,3436010,2019-08-09 21:11:24:748,-0.4236,0.1318,9.7429,-0.4238,0.1192,9.7968,-0.0003,0.0006,-0.0004
34361,47.16162,-1.513113,59.8,0.0,30.0,183.2,17 / 22,3436110,2019-08-09 21:11:24:848,-0.4272,0.1258,9.7548,-0.4239,0.1196,9.7968,-0.0004,0.0003,0.0007
34362,47.16162,-1.513113,59.8,0.0,30.0,183.2,17 / 22,3436211,2019-08-09 21:11:24:949,-0.4236,0.1138,9.7477,-0.4238,0.1198,9.7968,-0.0002,-0.0001,-0.0002
34363,47.16162,-1.513113,59.8,0.0,30.0,183.2,17 / 22,3436311,2019-08-09 21:11:25:049,-0.3925,0.1043,9.7548,-0.4233,0.1195,9.7968,0.0001,-0.0002,0.0002
34364,47.16162,-1.513113,59.8,0.0,30.0,183.2,17 / 22,3436411,2019-08-09 21:11:25:149,-0.4284,0.1043,9.7489,-0.4239,0.1179,9.7968,-0.0002,-0.0002,0.0
34365,47.16162,-1.513113,59.8,0.0,30.0,183.2,17 / 22,3436510,2019-08-09 21:11:25:248,-0.414,0.121,9.75,-0.424,0.1165,9.7968,-0.0001,0.0,-0.0001
34366,47.16162,-1.513113,59.8,0.0,30.0,183.2,17 / 22,3436611,2019-08-09 21:11:25:349,-0.4296,0.115,9.7453,-0.425,0.1173,9.7967,-0.0006,0.0006,-0.0004
34367,47.16162,-1.513113,59.8,0.0,30.0,183.2,17 / 22,3436711,2019-08-09 21:11:25:449,-0.4296,0.1162,9.7441,-0.4267,0.1168,9.7967,0.0001,0.0006,0.0002
34368,47.16162,-1.513113,59.8,0.0,30.0,183.2,17 / 22,3436811,2019-08-09 21:11:25:549,-0.4332,0.1115,9.7465,-0.4276,0.1167,9.7966,-0.0002,-0.0002,0.0
34369,47.16162,-1.513113,59.8,0.0,30.0,183.2,17 / 22,3436911,2019-08-09 21:11:25:649,-0.4284,0.121,9.7477,-0.4293,0.1165,9.7966,-0.0005,0.0005,-0.0007
34370,47.16162,-1.513113,59.8,0.0,30.0,183.2,17 / 22,3437011,2019-08-09 21:11:25:749,-0.4368,0.1138,9.7369,-0.4307,0.1171,9.7965,0.0004,0.0008,-0.0004
34371,47.16162,-1.513113,59.8,0.0,30.0,183.2,17 / 22,3437110,2019-08-09 21:11:25:848,-0.432,0.1306,9.7477,-0.4305,0.1179,9.7965,-0.0002,-0.0004,-0.0005
34372,47.16162,-1.513113,59.8,0.0,30.0,183.2,17 / 22,3437210,2019-08-09 21:11:25:948,-0.4284,0.1174,9.7357,-0.4317,0.1192,9.7964,-0.0002,0.0004,-0.0011
34373,47.16162,-1.513113,59.8,0.0,30.0,183.2,17 / 22,3437310,2019-08-09 21:11:26:048,-0.4212,0.1222,9.7536,-0.4309,0.119,9.7965,0.0003,0.0001,0.0006
34374,47.16162,-1.513113,59.8,0.0,30.0,183.2,17 / 22,3437410,2019-08-09 21:11:26:148,-0.4284,0.1198,9.7513,-0.4297,0.1188,9.7965,0.0004,0.0006,-0.0004
34375,47.16162,-1.513113,59.8,0.0,30.0,183.2,17 / 22,3437510,2019-08-09 21:11:26:248,-0.426,0.1258,9.7417,-0.4297,0.1197,9.7965,0.0002,0.0002,0.0005
34376,47.16162,-1.513113,59.8,0.0,30.0,183.2,16 / 21,3437611,2019-08-09 21:11:26:349,-0.4356,0.1222,9.7489,-0.4304,0.1217,9.7964,0.0001,0.0004,0.0
34377,47.16162,-1.513113,59.8,0.0,30.0,183.2,16 / 21,3437710,2019-08-09 21:11:26:448,-0.4308,0.1294,9.7465,-0.4309,0.1218,9.7964,-0.0002,0.0003,0.0
34378,47.16162,-1.513113,59.8,0.0,30.0,183.2,16 / 21,3437810,2019-08-09 21:11:26:548,-0.4236,0.121,9.7513,-0.4294,0.1211,9.7965,-0.0003,0.0,-0.0006
34379,47.16162,-1.513113,59.8,0.0,30.0,183.2,16 / 21,3437910,2019-08-09 21:11:26:648,-0.4236,0.1091,9.7596,-0.4289,0.1202,9.7965,-0.0005,-0.0004,0.0005
34380,47.16162,-1.513113,59.8,0.0,30.0,183.2,16 / 21,3438010,2019-08-09 21:11:26:748,-0.4236,0.1079,9.7441,-0.4278,0.1192,9.7966,0.0001,-0.0001,0.0003
34381,47.16162,-1.513113,59.8,0.0,30.0,183.2,16 / 21,3438110,2019-08-09 21:11:26:848,-0.432,0.115,9.7381,-0.4275,0.1185,9.7966,-0.0002,-0.0005,-0.0001
34382,47.16162,-1.513113,59.8,0.0,30.0,183.2,16 / 21,3438210,2019-08-09 21:11:26:948,-0.4176,0.1138,9.7453,-0.4275,0.1185,9.7966,0.0001,0.0001,0.0005
34383,47.16162,-1.513113,59.8,0.0,30.0,183.2,16 / 21,3438311,2019-08-09 21:11:27:049,-0.4152,0.1222,9.7536,-0.4281,0.1188,9.7966,0.0004,-0.0002,0.0
34384,47.16162,-1.513113,59.8,0.0,30.0,183.2,16 / 21,3438410,2019-08-09 21:11:27:148,-0.4344,0.1306,9.7453,-0.4284,0.119,9.7966,0.0004,-0.0002,0.0
34385,47.16162,-1.513113,59.8,0.0,30.0,183.2,16 / 21,3438510,2019-08-09 21:11:27:248,-0.4068,0.1186,9.75,-0.4283,0.1188,9.7966,0.0004,-0.0004,0.0
34386,47.16162,-1.513113,59.8,0.0,30.0,183.2,17 / 22,3438610,2019-08-09 21:11:27:348,-0.4272,0.1138,9.7417,-0.4268,0.1194,9.7966,-0.0006,0.0004,0.0003
34387,47.16162,-1.513113,59.8,0.0,30.0,183.2,17 / 22,3438710,2019-08-09 21:11:27:448,-0.4236,0.1234,9.7369,-0.4284,0.1183,9.7966,-0.0002,0.0,0.0
34388,47.16162,-1.513113,59.8,0.0,30.0,183.2,17 / 22,3438810,2019-08-09 21:11:27:548,-0.4272,0.1234,9.7309,-0.4287,0.1186,9.7966,0.0001,0.0001,-0.0006
34389,47.16162,-1.513113,59.8,0.0,30.0,183.2,17 / 22,3438911,2019-08-09 21:11:27:649,-0.4272,0.1222,9.7524,-0.4293,0.1189,9.7965,0.0006,-0.0005,-0.0003
34390,47.16162,-1.513113,59.8,0.0,30.0,183.2,17 / 22,3439011,2019-08-09 21:11:27:749,-0.4212,0.1198,9.7357,-0.4293,0.1191,9.7965,0.0,0.0004,-0.0005
34391,47.16162,-1.513113,59.8,0.0,30.0,183.2,17 / 22,3439111,2019-08-09 21:11:27:849,-0.426,0.127,9.7453,-0.4294,0.1199,9.7965,-0.0001,-0.0002,-0.0002
34392,47.16162,-1.513113,59.8,0.0,30.0,183.2,17 / 22,3439210,2019-08-09 21:11:27:948,-0.4344,0.1258,9.7584,-0.4288,0.1202,9.7965,0.0002,0.0,0.0
34393,47.16162,-1.513113,59.8,0.0,30.0,183.2,17 / 22,3439311,2019-08-09 21:11:28:049,-0.42,0.127,9.7417,-0.4288,0.1217,9.7965,0.0006,0.0004,0.0005
34394,47.16162,-1.513113,59.8,0.0,30.0,183.2,17 / 22,3439410,2019-08-09 21:11:28:148,-0.4392,0.127,9.7548,-0.4295,0.1218,9.7965,0.0,-0.0003,-0.0002
34395,47.16162,-1.513113,59.8,0.0,30.0,183.2,17 / 22,3439511,2019-08-09 21:11:28:249,-0.426,0.1162,9.7453,-0.4299,0.1216,9.7965,-0.0002,-0.0004,0.0004
34396,47.16162,-1.513113,59.8,0.0,30.0,183.2,17 / 22,3439611,2019-08-09 21:11:28:349,-0.4248,0.121,9.7405,-0.4294,0.1216,9.7965,-0.0002,0.0009,-0.0002
34397,47.16162,-1.513113,59.8,0.0,30.0,183.2,17 / 22,3439710,2019-08-09 21:11:28:448,-0.4284,0.1115,9.7477,-0.4301,0.1208,9.7965,-0.0002,0.0,0.0009
34398,47.16162,-1.513113,59.8,0.0,30.0,183.2,17 / 22,3439811,2019-08-09 21:11:28:549,-0.4356,0.1138,9.75,-0.43,0.1206,9.7965,0.0002,0.0002,-0.0009
34399,47.16162,-1.513113,59.8,0.0,30.0,183.2,17 / 22,3439911,2019-08-09 21:11:28:649,-0.4392,0.1067,9.75,-0.4292,0.12,9.7965,0.0001,0.0,0.0002
34400,47.16162,-1.513113,59.8,0.0,30.0,183.2,17 / 22,3440010,2019-08-09 21:11:28:748,-0.4296,0.1234,9.7333,-0.4291,0.1195,9.7965,-0.0002,0.0,0.0
34401,47.16162,-1.513113,59.8,0.0,30.0,183.2,17 / 22,3440110,2019-08-09 21:11:28:848,-0.4332,0.1186,9.7453,-0.4284,0.1211,9.7965,-0.0002,0.0002,0.0
34402,47.16162,-1.513113,59.8,0.0,30.0,183.2,17 / 22,3440211,2019-08-09 21:11:28:949,-0.4284,0.1162,9.75,-0.4295,0.1221,9.7965,0.0,-0.0001,-0.0009
34403,47.16162,-1.513113,59.8,0.0,30.0,183.2,17 / 22,3440310,2019-08-09 21:11:29:048,-0.4009,0.1138,9.7405,-0.429,0.1229,9.7965,0.0005,-0.0002,0.0004
34404,47.16162,-1.513113,59.8,0.0,30.0,183.2,17 / 22,3440411,2019-08-09 21:11:29:149,-0.4224,0.1294,9.7572,-0.4298,0.1219,9.7965,-0.0005,0.0004,-0.0006
34405,47.16162,-1.513113,59.8,0.0,30.0,183.2,17 / 22,3440511,2019-08-09 21:11:29:249,-0.42,0.115,9.7417,-0.4292,0.1217,9.7965,0.0,-0.0003,0.0007
34406,47.16162,-1.513113,59.8,0.0,30.0,183.2,17 / 22,3440610,2019-08-09 21:11:29:348,-0.4272,0.1115,9.7441,-0.4289,0.1212,9.7965,0.0004,0.0001,0.0
34407,47.16162,-1.513113,59.8,0.0,30.0,183.2,17 / 22,3440710,2019-08-09 21:11:29:448,-0.4236,0.1115,9.7453,-0.4297,0.1203,9.7965,-0.0002,-0.0005,-0.0003
34408,47.16162,-1.513113,59.8,0.0,30.0,183.2,17 / 22,3440810,2019-08-09 21:11:29:548,-0.414,0.1138,9.7321,-0.4296,0.1194,9.7965,-0.0005,-0.0007,0.0008
34409,47.16162,-1.513113,59.8,0.0,30.0,183.2,17 / 22,3440910,2019-08-09 21:11:29:648,-0.4057,0.1234,9.7417,-0.4273,0.1194,9.7966,0.0002,0.0,-0.0009
34410,47.16162,-1.513113,59.8,0.0,30.0,183.2,17 / 22,3441010,2019-08-09 21:11:29:748,-0.4188,0.1318,9.7477,-0.4281,0.12,9.7966,-0.0002,0.0,0.0004
34411,47.16162,-1.513113,59.8,0.0,30.0,183.2,17 / 22,3441111,2019-08-09 21:11:29:849,-0.4116,0.1186,9.7441,-0.4268,0.1197,9.7966,-0.0003,0.0,0.0002
34412,47.16162,-1.513113,59.8,0.0,30.0,183.2,17 / 22,3441211,2019-08-09 21:11:29:949,-0.4356,0.1126,9.7405,-0.4271,0.1196,9.7966,0.0002,0.0007,-0.0007
34413,47.16162,-1.513113,59.8,0.0,30.0,183.2,17 / 22,3441311,2019-08-09 21:11:30:049,-0.4104,0.1162,9.75,-0.4272,0.119,9.7966,0.0,-0.0004,-0.0003
34414,47.16162,-1.513113,59.8,0.0,30.0,183.2,17 / 22,3441410,2019-08-09 21:11:30:148,-0.4224,0.1174,9.7405,-0.4266,0.1186,9.7966,-0.0002,0.0006,-0.0006
34415,47.16162,-1.513113,59.8,0.0,30.0,183.2,17 / 22,3441511,2019-08-09 21:11:30:249,-0.4416,0.1282,9.75,-0.4282,0.1197,9.7966,-0.0004,-0.0005,-0.0005
34416,47.16162,-1.513113,59.8,0.0,30.0,183.2,17 / 22,3441610,2019-08-09 21:11:30:348,-0.4212,0.1043,9.7345,-0.4292,0.1192,9.7965,0.0003,0.0,-0.0004
34417,47.16162,-1.513113,59.8,0.0,30.0,183.2,17 / 22,3441710,2019-08-09 21:11:30:448,-0.4284,0.1126,9.7477,-0.4282,0.1179,9.7966,0.0002,0.0004,0.0
34418,47.16162,-1.513113,59.8,0.0,30.0,183.2,17 / 22,3441810,2019-08-09 21:11:30:548,-0.432,0.115,9.7513,-0.4302,0.1161,9.7965,-0.0005,0.0002,0.0
34419,47.16162,-1.513113,59.8,0.0,30.0,183.2,17 / 22,3441910,2019-08-09 21:11:30:648,-0.4332,0.1138,9.7441,-0.4292,0.1173,9.7966,-0.0004,-0.0005,-0.0004
34420,47.16162,-1.513113,59.8,0.0,30.0,183.2,17 / 22,3442011,2019-08-09 21:11:30:749,-0.4248,0.1174,9.7548,-0.4291,0.1189,9.7965,0.0001,-0.0002,-0.0003
34421,47.16162,-1.513113,59.8,0.0,30.0,183.2,17 / 22,3442111,2019-08-09 21:11:30:849,-0.4296,0.1079,9.7489,-0.4296,0.1186,9.7965,-0.0001,0.0,0.0002
34422,47.16162,-1.513113,59.8,0.0,30.0,183.2,17 / 22,3442211,2019-08-09 21:11:30:949,-0.4116,0.1186,9.7429,-0.4297,0.1175,9.7965,-0.0002,0.0004,-0.0003
34423,47.16162,-1.513113,59.8,0.0,30.0,183.2,17 / 22,3442311,2019-08-09 21:11:31:049,-0.4296,0.1366,9.7465,-0.4294,0.1178,9.7965,-0.0004,0.0004,-0.0007
34424,47.16162,-1.513113,59.8,0.0,30.0,183.2,17 / 22,3442410,2019-08-09 21:11:31:148,-0.4081,0.1354,9.7369,-0.4289,0.1191,9.7965,-0.0007,0.0004,0.0
34425,47.16162,-1.513113,59.8,0.0,30.0,183.2,17 / 22,3442511,2019-08-09 21:11:31:249,-0.438,0.1162,9.7524,-0.4281,0.1196,9.7966,0.0,0.0004,0.0
34426,47.16162,-1.513113,59.8,0.0,30.0,183.2,16 / 21,3442611,2019-08-09 21:11:31:349,-0.4128,0.1234,9.7417,-0.429,0.1195,9.7965,0.0001,0.0001,-0.0004
34427,47.16162,-1.513113,59.8,0.0,30.0,183.2,16 / 21,3442711,2019-08-09 21:11:31:449,-0.4068,0.115,9.7489,-0.4282,0.1196,9.7966,-0.0005,-0.0001,-0.0003
34428,47.16162,-1.513113,59.8,0.0,30.0,183.2,16 / 21,3442811,2019-08-09 21:11:31:549,-0.4176,0.1126,9.7548,-0.427,0.1195,9.7966,0.0005,0.0004,-0.0008
34429,47.16162,-1.513113,59.8,0.0,30.0,183.2,16 / 21,3442911,2019-08-09 21:11:31:649,-0.4248,0.1234,9.7524,-0.4267,0.1204,9.7966,-0.0001,-0.0004,-0.0002
34430,47.16162,-1.513113,59.8,0.0,30.0,183.2,16 / 21,3443010,2019-08-09 21:11:31:748,-0.4176,0.1091,9.7285,-0.4261,0.1203,9.7967,-0.0003,0.0003,-0.0006
34431,47.16162,-1.513113,59.8,0.0,30.0,183.2,16 / 21,3443110,2019-08-09 21:11:31:848,-0.4021,0.1115,9.7477,-0.4256,0.1201,9.7967,-0.0004,-0.0001,0.0003
34432,47.16162,-1.513113,59.8,0.0,30.0,183.2,16 / 21,3443210,2019-08-09 21:11:31:948,-0.4128,0.121,9.7441,-0.4241,0.1196,9.7967,0.0004,-0.0002,-0.0004
34433,47.16162,-1.513113,59.8,0.0,30.0,183.2,16 / 21,3443310,2019-08-09 21:11:32:048,-0.4164,0.1294,9.7393,-0.4237,0.1207,9.7968,-0.0005,0.0,0.0
34434,47.16162,-1.513113,59.8,0.0,30.0,183.2,16 / 21,3443410,2019-08-09 21:11:32:148,-0.4128,0.1067,9.7489,-0.423,0.1204,9.7968,0.0004,-0.0001,0.0
34435,47.16162,-1.513113,59.8,0.0,30.0,183.2,16 / 21,3443511,2019-08-09 21:11:32:249,-0.432,0.1055,9.7453,-0.4225,0.12,9.7968,0.0003,-0.0004,0.0
34436,47.16162,-1.513113,59.8,0.0,30.0,183.2,16 / 21,3443610,2019-08-09 21:11:32:348,-0.4224,0.1091,9.7453,-0.4222,0.1189,9.7968,-0.0002,-0.0002,0.0003
34437,47.16162,-1.513113,59.8,0.0,30.0,183.2,16 / 21,3443710,2019-08-09 21:11:32:448,-0.4248,0.127,9.7536,-0.4211,0.1186,9.7969,-0.0001,-0.0003,0.0001
34438,47.16162,-1.513113,59.8,0.0,30.0,183.2,16 / 21,3443813,2019-08-09 21:11:32:551,-0.432,0.1115,9.75,-0.421,0.1191,9.7969,-0.0005,0.0,0.0004
34439,47.16162,-1.513113,59.8,0.0,30.0,183.2,16 / 21,3443911,2019-08-09 21:11:32:649,-0.4164,0.1102,9.7453,-0.4208,0.1187,9.7969,0.0004,0.0,-0.0002
34440,47.16162,-1.513113,59.8,0.0,30.0,183.2,16 / 21,3444010,2019-08-09 21:11:32:748,-0.4045,0.1234,9.7572,-0.4206,0.1191,9.7969,0.0005,0.0,-0.0004
34441,47.16162,-1.513113,59.8,0.0,30.0,183.2,16 / 21,3444111,2019-08-09 21:11:32:849,-0.4116,0.1342,9.7381,-0.4214,0.1189,9.7969,0.0001,-0.0003,0.0
34442,47.16162,-1.513113,59.8,0.0,30.0,183.2,16 / 21,3444210,2019-08-09 21:11:32:948,-0.4224,0.1246,9.7417,-0.4208,0.1204,9.7969,-0.0002,-0.0003,0.0002
34443,47.16162,-1.513113,59.8,0.0,30.0,183.2,16 / 21,3444310,2019-08-09 21:11:33:048,-0.4176,0.1091,9.7453,-0.4208,0.1203,9.7969,-0.0002,-0.0004,0.0
34444,47.16162,-1.513113,59.8,0.0,30.0,183.2,16 / 21,3444411,2019-08-09 21:11:33:149,-0.4128,0.1055,9.7441,-0.4195,0.1185,9.797,-0.0005,0.0004,-0.0001
34445,47.16162,-1.513113,59.8,0.0,30.0,183.2,16 / 21,3444511,2019-08-09 21:11:33:249,-0.4284,0.1234,9.7572,-0.4204,0.1183,9.7969,0.0004,-0.0005,0.0005
34446,47.16162,-1.513113,59.8,0.0,30.0,183.2,15 / 20,3444610,2019-08-09 21:11:33:348,-0.432,0.133,9.7548,-0.4216,0.1204,9.7968,-0.0005,0.0001,0.0001
34447,47.16162,-1.513113,59.8,0.0,30.0,183.2,15 / 20,3444711,2019-08-09 21:11:33:449,-0.4128,0.1186,9.7608,-0.4216,0.1194,9.7969,0.0001,0.0001,0.0002
34448,47.16162,-1.513113,59.8,0.0,30.0,183.2,15 / 20,3444811,2019-08-09 21:11:33:549,-0.4272,0.1102,9.7524,-0.4196,0.1194,9.7969,-0.0005,0.0001,-0.0003
34449,47.16162,-1.513113,59.8,0.0,30.0,183.2,15 / 20,3444911,2019-08-09 21:11:33:649,-0.4081,0.1282,9.75,-0.4207,0.1193,9.7969,0.0004,0.0002,0.0001
34450,47.16162,-1.513113,59.8,0.0,30.0,183.2,15 / 20,3445011,2019-08-09 21:11:33:749,-0.4045,0.1115,9.7453,-0.4196,0.1196,9.7969,-0.0003,0.0,0.0006
34451,47.16162,-1.513113,59.8,0.0,30.0,183.2,15 / 20,3445111,2019-08-09 21:11:33:849,-0.4356,0.1115,9.7513,-0.4202,0.1188,9.7969,-0.0003,-0.0009,-0.0002
34452,47.16162,-1.513113,59.8,0.0,30.0,183.2,15 / 20,3445211,2019-08-09 21:11:33:949,-0.4428,0.1222,9.7405,-0.4202,0.1187,9.7969,0.0,0.0,0.0007
34453,47.16162,-1.513113,59.8,0.0,30.0,183.2,15 / 20,3445310,2019-08-09 21:11:34:048,-0.4308,0.121,9.7465,-0.4214,0.1195,9.7969,0.0006,0.0001,-0.0001
34454,47.16162,-1.513113,59.8,0.0,30.0,183.2,15 / 20,3445410,2019-08-09 21:11:34:148,-0.414,0.1079,9.7536,-0.4219,0.1202,9.7968,-0.0005,0.0001,0.0003
34455,47.16162,-1.513113,59.8,0.0,30.0,183.2,15 / 20,3445510,2019-08-09 21:11:34:248,-0.4188,0.1067,9.7524,-0.4211,0.1187,9.7969,0.0003,-0.0006,-0.0002
34456,47.16162,-1.513113,59.8,0.0,30.0,183.2,16 / 21,3445611,2019-08-09 21:11:34:349,-0.42,0.1222,9.7429,-0.4211,0.1189,9.7969,0.0009,-0.0003,-0.0002
34457,47.16162,-1.513113,59.8,0.0,30.0,183.2,16 / 21,3445710,2019-08-09 21:11:34:448,-0.4116,0.0995,9.7357,-0.4209,0.1212,9.7969,0.0001,-0.0002,0.0001
34458,47.16162,-1.513113,59.8,0.0,30.0,183.2,16 / 21,3445811,2019-08-09 21:11:34:549,-0.4045,0.1174,9.7489,-0.4207,0.1206,9.7969,0.0004,0.0004,-0.0002
34459,47.16162,-1.513113,59.8,0.0,30.0,183.2,16 / 21,3445910,2019-08-09 21:11:34:648,-0.4284,0.1198,9.7369,-0.4201,0.119,9.7969,0.0006,-0.0006,-0.0002
34460,47.16162,-1.513113,59.8,0.0,30.0,183.2,16 / 21,3446010,2019-08-09 21:11:34:748,-0.4296,0.133,9.75,-0.4202,0.1192,9.7969,0.0002,-0.0002,-0.0006
34461,47.16162,-1.513113,59.8,0.0,30.0,183.2,16 / 21,3446111,2019-08-09 21:11:34:849,-0.4081,0.1366,9.762,-0.4207,0.1216,9.7969,0.0001,0.0003,0.0003
34462,47.16162,-1.513113,59.8,0.0,30.0,183.2,16 / 21,3446210,2019-08-09 21:11:34:948,-0.4284,0.1198,9.7465,-0.4219,0.1223,9.7968,0.0003,-0.0001,0.001
34463,47.16162,-1.513113,59.8,0.0,30.0,183.2,16 / 21,3446311,2019-08-09 21:11:35:049,-0.4212,0.1174,9.7393,-0.4239,0.1219,9.7967,0.0004,0.0003,-0.0004
34464,47.16162,-1.513113,59.8,0.0,30.0,183.2,16 / 21,3446410,2019-08-09 21:11:35:148,-0.4104,0.1198,9.7489,-0.4234,0.1222,9.7967,-0.0001,0.0,0.0
34465,47.16162,-1.513113,59.8,0.0,30.0,183.2,16 / 21,3446510,2019-08-09 21:11:35:248,-0.42,0.121,9.7345,-0.424,0.1221,9.7967,0.0,0.0,0.0004
34466,47.16162,-1.513113,59.8,0.0,30.0,183.2,17 / 21,3446610,2019-08-09 21:11:35:348,-0.4176,0.121,9.7489,-0.4248,0.1213,9.7967,-0.0001,0.0,-0.0004
34467,47.16162,-1.513113,59.8,0.0,30.0,183.2,17 / 21,3446710,2019-08-09 21:11:35:448,-0.4176,0.115,9.7477,-0.4242,0.1219,9.7967,-0.0001,-0.0001,0.0007
34468,47.16162,-1.513113,59.8,0.0,30.0,183.2,17 / 21,3446810,2019-08-09 21:11:35:548,-0.4104,0.1162,9.7465,-0.4248,0.1221,9.7967,0.0004,0.0,0.0002
34469,47.16162,-1.513113,59.8,0.0,30.0,183.2,17 / 21,3446910,2019-08-09 21:11:35:648,-0.4248,0.121,9.7477,-0.4239,0.1215,9.7967,-0.0003,-0.0004,-0.0001
34470,47.16162,-1.513113,59.8,0.0,30.0,183.2,17 / 21,3447010,2019-08-09 21:11:35:748,-0.432,0.1162,9.7572,-0.424,0.1212,9.7967,0.0003,-0.0001,0.0001
34471,47.16162,-1.513113,59.8,0.0,30.0,183.2,17 / 21,3447110,2019-08-09 21:11:35:848,-0.4452,0.1174,9.7477,-0.4248,0.1217,9.7967,0.0001,0.0003,0.0007
34472,47.16162,-1.513113,59.8,0.0,30.0,183.2,17 / 21,3447210,2019-08-09 21:11:35:948,-0.4152,0.1198,9.7417,-0.4256,0.1214,9.7967,0.0002,0.0003,0.0003
34473,47.16162,-1.513113,59.8,0.0,30.0,183.2,17 / 21,3447310,2019-08-09 21:11:36:048,-0.4164,0.1079,9.7548,-0.4251,0.1206,9.7967,0.0005,0.001,0.0003
34474,47.16162,-1.513113,59.8,0.0,30.0,183.2,17 / 21,3447410,2019-08-09 21:11:36:148,-0.432,0.1342,9.7417,-0.4253,0.1208,9.7967,0.0,0.0003,0.0003
34475,47.16162,-1.513113,59.8,0.0,30.0,183.2,17 / 21,3447510,2019-08-09 21:11:36:248,-0.4152,0.1366,9.7381,-0.4256,0.1225,9.7966,-0.0003,-0.0007,-0.0001
34476,47.16162,-1.513113,59.8,0.0,30.0,183.2,17 / 21,3447610,2019-08-09 21:11:36:348,-0.3913,0.121,9.7441,-0.4233,0.1229,9.7967,-0.0003,0.0007,-0.0004
34477,47.16162,-1.513113,59.8,0.0,30.0,183.2,17 / 21,3447710,2019-08-09 21:11:36:448,-0.4284,0.1138,9.7548,-0.4244,0.1213,9.7967,0.0003,-0.0006,0.0003
34478,47.16162,-1.513113,59.8,0.0,30.0,183.2,17 / 21,3447811,2019-08-09 21:11:36:549,-0.4081,0.1162,9.7357,-0.4237,0.1211,9.7967,0.0004,-0.0004,0.0003
34479,47.16162,-1.513113,59.8,0.0,30.0,183.2,17 / 21,3447911,2019-08-09 21:11:36:649,-0.4308,0.1138,9.7584,-0.4241,0.1216,9.7967,0.0004,0.0004,0.0
34480,47.16162,-1.513113,59.8,0.0,30.0,183.2,17 / 21,3448011,2019-08-09 21:11:36:749,-0.4224,0.1234,9.7477,-0.4229,0.1221,9.7968,0.0003,-0.0007,0.0
34481,47.16162,-1.513113,59.8,0.0,30.0,183.2,17 / 21,3448110,2019-08-09 21:11:36:848,-0.4308,0.115,9.7357,-0.423,0.1223,9.7968,0.0008,0.0,0.0001
34482,47.16162,-1.513113,59.8,0.0,30.0,183.2,17 / 21,3448211,2019-08-09 21:11:36:949,-0.4212,0.1186,9.7477,-0.4231,0.1212,9.7968,-0.0001,0.0012,0.0004
34483,47.16162,-1.513113,59.8,0.0,30.0,183.2,17 / 21,3448310,2019-08-09 21:11:37:048,-0.4284,0.115,9.7608,-0.4227,0.1206,9.7968,-0.0003,-0.0015,-0.0004
34484,47.16162,-1.513113,59.8,0.0,30.0,183.2,17 / 21,3448410,2019-08-09 21:11:37:148,-0.4212,0.1282,9.7453,-0.4223,0.1228,9.7968,-0.0003,0.0011,-0.0006
34485,47.16162,-1.513113,59.8,0.0,30.0,183.2,17 / 21,3448510,2019-08-09 21:11:37:248,-0.4224,0.0983,9.756,-0.4254,0.1211,9.7967,-0.0001,0.0005,0.001
34486,47.16162,-1.513113,59.8,0.0,30.0,183.2,17 / 22,3448611,2019-08-09 21:11:37:349,-0.4104,0.1198,9.7333,-0.4253,0.1198,9.7967,0.0004,-0.0012,0.0002
34487,47.16162,-1.513113,59.8,0.0,30.0,183.2,17 / 22,3448711,2019-08-09 21:11:37:449,-0.4284,0.1234,9.7405,-0.4234,0.12,9.7968,-0.0012,0.001,-0.0003
34488,47.16162,-1.513113,59.8,0.0,30.0,183.2,17 / 22,3448811,2019-08-09 21:11:37:549,-0.4224,0.1162,9.7477,-0.4244,0.1197,9.7967,0.0003,-0.0004,0.0006
34489,47.16162,-1.513113,59.8,0.0,30.0,183.2,17 / 22,3448910,2019-08-09 21:11:37:648,-0.4296,0.1019,9.7453,-0.4247,0.1199,9.7967,0.0007,-0.0009,0.0002
34490,47.16162,-1.513113,59.8,0.0,30.0,183.2,17 / 22,3449011,2019-08-09 21:11:37:749,-0.4164,0.1222,9.756,-0.4238,0.1203,9.7968,-0.0001,0.0007,0.0003
34491,47.16162,-1.513113,59.8,0.0,30.0,183.2,17 / 22,3449111,2019-08-09 21:11:37:849,-0.4332,0.1186,9.7405,-0.4249,0.1209,9.7967,0.0002,-0.0005,0.0007
34492,47.16162,-1.513113,59.8,0.0,30.0,183.2,17 / 22,3449210,2019-08-09 21:11:37:948,-0.4212,0.115,9.7381,-0.4262,0.1205,9.7966,0.0001,0.0,0.0004
34493,47.16162,-1.513113,59.8,0.0,30.0,183.2,17 / 22,3449311,2019-08-09 21:11:38:049,-0.4068,0.1222,9.7668,-0.426,0.1198,9.7967,-0.0002,0.0013,0.0012
34494,47.16162,-1.513113,59.8,0.0,30.0,183.2,17 / 22,3449411,2019-08-09 21:11:38:149,-0.438,0.1091,9.7429,-0.4257,0.1188,9.7967,0.0007,-0.0004,0.0003
34495,47.16162,-1.513113,59.8,0.0,30.0,183.2,17 / 22,3449510,2019-08-09 21:11:38:248,-0.4368,0.1258,9.7249,-0.4259,0.1188,9.7967,0.0004,-0.0009,-0.0001
34496,47.16162,-1.513113,59.8,0.0,30.0,183.2,16 / 21,3449610,2019-08-09 21:11:38:348,-0.4344,0.1246,9.7668,-0.4263,0.1206,9.7966,0.0002,0.0005,0.0002
34497,47.16162,-1.513113,59.8,0.0,30.0,183.2,16 / 21,3449710,2019-08-09 21:11:38:448,-0.4164,0.115,9.7357,-0.4263,0.1209,9.7966,0.0,-0.0006,-0.0002
34498,47.16162,-1.513113,59.8,0.0,30.0,183.2,16 / 21,3449811,2019-08-09 21:11:38:549,-0.4392,0.1102,9.7369,-0.4255,0.1195,9.7967,0.0003,0.0006,0.0006
34499,47.16162,-1.513113,59.8,0.0,30.0,183.2,16 / 21,3449911,2019-08-09 21:11:38:649,-0.4212,0.1186,9.7584,-0.4267,0.1182,9.7966,0.0004,-0.0002,-0.0007
34500,47.16162,-1.513113,59.8,0.0,30.0,183.2,16 / 21,3450010,2019-08-09 21:11:38:748,-0.4081,0.121,9.7417,-0.4254,0.1187,9.7967,0.0004,-0.0005,0.0002
34501,47.16162,-1.513113,59.8,0.0,30.0,183.2,16 / 21,3450110,2019-08-09 21:11:38:848,-0.4236,0.1366,9.7345,-0.4246,0.1198,9.7967,-0.0002,0.0003,-0.0002
34502,47.16162,-1.513113,59.8,0.0,30.0,183.2,16 / 21,3450211,2019-08-09 21:11:38:949,-0.432,0.1055,9.7572,-0.4256,0.1199,9.7967,0.0004,0.0,-0.0002
34503,47.16162,-1.513113,59.8,0.0,30.0,183.2,16 / 21,3450310,2019-08-09 21:11:39:048,-0.4128,0.1258,9.7465,-0.4256,0.1189,9.7967,0.0002,-0.0002,-0.0004
34504,47.16162,-1.513113,59.8,0.0,30.0,183.2,16 / 21,3450410,2019-08-09 21:11:39:148,-0.4248,0.1138,9.7357,-0.4245,0.1184,9.7967,0.0003,-0.0004,0.0001
34505,47.16162,-1.513113,59.8,0.0,30.0,183.2,16 / 21,3450511,2019-08-09 21:11:39:249,-0.4272,0.1306,9.7369,-0.4257,0.119,9.7967,-0.0002,-0.0002,0.0007
34506,47.16162,-1.513113,59.8,0.0,30.0,183.2,17 / 22,3450610,2019-08-09 21:11:39:348,-0.4128,0.1138,9.7357,-0.4262,0.1198,9.7967,-0.0001,0.0002,-0.0002
34507,47.16162,-1.513113,59.8,0.0,30.0,183.2,17 / 22,3450710,2019-08-09 21:11:39:448,-0.4248,0.115,9.75,-0.426,0.1191,9.7967,-0.0001,0.0,0.0003
34508,47.16162,-1.513113,59.8,0.0,30.0,183.2,17 / 22,3450810,2019-08-09 21:11:39:548,-0.4188,0.1246,9.7261,-0.4262,0.1192,9.7967,0.0,0.0,-0.0003
34509,47.16162,-1.513113,59.8,0.0,30.0,183.2,17 / 22,3450910,2019-08-09 21:11:39:648,-0.4224,0.127,9.7417,-0.4269,0.1199,9.7966,0.0001,-0.0002,0.0008
34510,47.16162,-1.513113,59.8,0.0,30.0,183.2,17 / 22,3451010,2019-08-09 21:11:39:748,-0.42,0.1138,9.7453,-0.4275,0.1198,9.7966,-0.0004,-0.0006,-0.0003
34511,47.16162,-1.513113,59.8,0.0,30.0,183.2,17 / 22,3451110,2019-08-09 21:11:39:848,-0.4236,0.1174,9.7524,-0.4268,0.1206,9.7966,0.0006,-0.0002,-0.0003
34512,47.16162,-1.513113,59.8,0.0,30.0,183.2,17 / 22,3451211,2019-08-09 21:11:39:949,-0.4272,0.1115,9.7333,-0.427,0.1203,9.7966,0.0003,-0.0003,0.0
34513,47.16162,-1.513113,59.8,0.0,30.0,183.2,17 / 22,3451311,2019-08-09 21:11:40:049,-0.4188,0.115,9.7524,-0.4273,0.1196,9.7966,0.0002,0.0,-0.0005
34514,47.16162,-1.513113,59.8,0.0,30.0,183.2,17 / 22,3451410,2019-08-09 21:11:40:148,-0.4224,0.115,9.7536,-0.4267,0.1219,9.7966,0.0002,0.0,0.0004
34515,47.16162,-1.513113,59.8,0.0,30.0,183.2,17 / 22,3451510,2019-08-09 21:11:40:248,-0.426,0.1318,9.7381,-0.4281,0.1216,9.7965,-0.0003,0.0001,-0.0006
34516,47.16162,-1.513113,59.8,0.0,30.0,183.2,16 / 21,3451611,2019-08-09 21:11:40:349,-0.4164,0.1318,9.7477,-0.428,0.1217,9.7965,-0.0003,-0.0002,0.0012
34517,47.16162,-1.513113,59.8,0.0,30.0,183.2,16 / 21,3451710,2019-08-09 21:11:40:448,-0.4392,0.115,9.7345,-0.4276,0.1222,9.7966,0.0002,0.0,0.0006
34518,47.16162,-1.513113,59.8,0.0,30.0,183.2,16 / 21,3451810,2019-08-09 21:11:40:548,-0.432,0.1138,9.7548,-0.429,0.121,9.7965,-0.0002,-0.0002,-0.0003
34519,47.16162,-1.513113,59.8,0.0,30.0,183.2,16 / 21,3451911,2019-08-09 21:11:40:649,-0.4104,0.1079,9.7453,-0.428,0.1203,9.7966,-0.0002,0.0,-0.0001
34520,47.16162,-1.513113,59.8,0.0,30.0,183.2,16 / 21,3452010,2019-08-09 21:11:40:748,-0.432,0.1115,9.75,-0.4274,0.1193,9.7966,-0.0001,-0.0004,0.0007
34521,47.16162,-1.513113,59.8,0.0,30.0,183.2,16 / 21,3452110,2019-08-09 21:11:40:848,-0.4356,0.1186,9.7489,-0.4278,0.119,9.7966,-0.0001,0.0,-0.0002
34522,47.16162,-1.513113,59.8,0.0,30.0,183.2,16 / 21,3452211,2019-08-09 21:11:40:949,-0.4248,0.0983,9.7536,-0.4292,0.1194,9.7965,0.0,-0.0004,-0.0001
34523,47.16162,-1.513113,59.8,0.0,30.0,183.2,16 / 21,3452310,2019-08-09 21:11:41:048,-0.4224,0.1258,9.7429,-0.4286,0.1184,9.7966,0.0009,0.0,0.0
34524,47.16162,-1.513113,59.8,0.0,30.0,183.2,16 / 21,3452410,2019-08-09 21:11:41:148,-0.4224,0.121,9.7453,-0.4274,0.1177,9.7966,0.0,-0.0012,0.0003
34525,47.16162,-1.513113,59.8,0.0,30.0,183.2,16 / 21,3452510,2019-08-09 21:11:41:248,-0.4296,0.1055,9.7441,-0.4268,0.1172,9.7967,-0.0001,0.0005,0.0002
34526,47.16162,-1.513113,59.8,0.0,30.0,183.2,16 / 22,3452610,2019-08-09 21:11:41:348,-0.4332,0.1186,9.7441,-0.427,0.1164,9.7967,0.0001,0.0005,0.0002
34527,47.16162,-1.513113,59.8,0.0,30.0,183.2,16 / 22,3452711,2019-08-09 21:11:41:449,-0.4272,0.1222,9.7429,-0.4276,0.1174,9.7966,-0.0001,-0.0002,-0.0002
34528,47.16162,-1.513113,59.8,0.0,30.0,183.2,16 / 22,3452810,2019-08-09 21:11:41:548,-0.4284,0.1138,9.7357,-0.4278,0.1176,9.7966,0.0002,0.0005,0.0007
34529,47.16162,-1.513113,59.8,0.0,30.0,183.2,16 / 22,3452911,2019-08-09 21:11:41:649,-0.438,0.1055,9.7345,-0.4292,0.117,9.7966,0.0,0.0001,0.0007
34530,47.16162,-1.513113,59.8,0.0,30.0,183.2,16 / 22,3453010,2019-08-09 21:11:41:748,-0.426,0.133,9.7369,-0.429,0.1166,9.7966,0.0,-0.0001,0.0004
34531,47.16162,-1.513113,59.8,0.0,30.0,183.2,16 / 22,3453111,2019-08-09 21:11:41:849,-0.426,0.115,9.7417,-0.4273,0.1175,9.7966,0.0,-0.0004,0.0
34532,47.16162,-1.513113,59.8,0.0,30.0,183.2,16 / 22,3453212,2019-08-09 21:11:41:950,-0.4248,0.1186,9.7477,-0.4273,0.1168,9.7966,0.0003,-0.0004,0.0007
34533,47.16162,-1.513113,59.8,0.0,30.0,183.2,16 / 22,3453310,2019-08-09 21:11:42:048,-0.426,0.1031,9.7584,-0.4255,0.117,9.7967,0.0001,0.0001,-0.0002
34534,47.16162,-1.513113,59.8,0.0,30.0,183.2,16 / 22,3453410,2019-08-09 21:11:42:148,-0.438,0.1294,9.7536,-0.4259,0.1163,9.7967,0.0001,0.0001,-0.0002
34535,47.16162,-1.513113,59.8,0.0,30.0,183.2,16 / 22,3453511,2019-08-09 21:11:42:249,-0.4248,0.121,9.7417,-0.4263,0.1162,9.7967,-0.0002,-0.0001,0.0
34536,47.16162,-1.513113,59.8,0.0,30.0,183.2,16 / 21,3453610,2019-08-09 21:11:42:348,-0.4212,0.1174,9.7572,-0.4269,0.1156,9.7967,-0.0002,-0.0004,-0.0004
34537,47.16162,-1.513113,59.8,0.0,30.0,183.2,16 / 21,3453710,2019-08-09 21:11:42:448,-0.4236,0.1222,9.75,-0.4271,0.1171,9.7966,0.0009,-0.0003,0.0003
34538,47.16162,-1.513113,59.8,0.0,30.0,183.2,16 / 21,3453810,2019-08-09 21:11:42:548,-0.432,0.133,9.7453,-0.4272,0.1187,9.7966,0.0004,0.0001,0.0007
34539,47.16162,-1.513113,59.8,0.0,30.0,183.2,16 / 21,3453910,2019-08-09 21:11:42:648,-0.4128,0.1174,9.7441,-0.4277,0.1195,9.7966,-0.0001,0.0001,-0.0009
34540,47.16162,-1.513113,59.8,0.0,30.0,183.2,16 / 21,3454010,2019-08-09 21:11:42:748,-0.444,0.1067,9.7477,-0.4273,0.1194,9.7966,0.0001,-0.0001,0.0003
34541,47.16162,-1.513113,59.8,0.0,30.0,183.2,16 / 21,3454112,2019-08-09 21:11:42:850,-0.426,0.1102,9.7465,-0.427,0.1181,9.7966,0.0002,-0.0005,0.0
34542,47.16162,-1.513113,59.8,0.0,30.0,183.2,16 / 21,3454211,2019-08-09 21:11:42:949,-0.4164,0.1126,9.7369,-0.4265,0.1181,9.7967,0.0004,-0.0003,0.0012
34543,47.16162,-1.513113,59.8,0.0,30.0,183.2,16 / 21,3454310,2019-08-09 21:11:43:048,-0.4284,0.1138,9.7441,-0.4265,0.1178,9.7967,0.0004,0.0008,0.0005
34544,47.16162,-1.513113,59.8,0.0,30.0,183.2,16 / 21,3454411,2019-08-09 21:11:43:149,-0.4344,0.1222,9.7381,-0.4257,0.1187,9.7967,-0.0001,0.0002,0.0003
34545,47.16162,-1.513113,59.8,0.0,30.0,183.2,16 / 21,3454511,2019-08-09 21:11:43:249,-0.4212,0.1198,9.7357,-0.4255,0.1177,9.7967,-0.0008,-0.0003,-0.0006
34546,47.16162,-1.513113,59.8,0.0,30.0,183.2,17 / 21,3454610,2019-08-09 21:11:43:348,-0.4152,0.1246,9.7572,-0.426,0.1179,9.7967,0.0004,0.0018,0.0004
34547,47.16162,-1.513113,59.8,0.0,30.0,183.2,17 / 21,3454710,2019-08-09 21:11:43:448,-0.4308,0.1258,9.7584,-0.4253,0.1195,9.7967,-0.0004,0.0,0.0009
34548,47.16162,-1.513113,59.8,0.0,30.0,183.2,17 / 21,3454810,2019-08-09 21:11:43:548,-0.4368,0.1174,9.7441,-0.4257,0.1198,9.7967,0.0001,0.0002,-0.0002
