,GPS LATITUDE (degrees), GPS LONGITUDE (degrees), GPS ALTITUDE (m), GPS SPEED (Kmh), GPS ACCURACY (m), GPS ORIENTATION (Â°),GPS SATELLITES IN RANGE, TIME SINCE START (ms), DATE (YYYY-MO-DD HH-MI-SS_SSS), ACCELEROMETER X (m/s²) , ACCELEROMETER Y (m/s²), ACCELEROMETER Z (m/s²), GRAVITY X (m/s²), GRAVITY Y (m/s²), GRAVITY Z (m/s²), GYROSCOPE Yaw (rad/s), GYROSCOPE Pitch (rad/s), GYROSCOPE Roll (rad/s), MAGNETIC FIELD X (Î¼T), MAGNETIC FIELD Y (Î¼T), MAGNETIC FIELD Z (Î¼T), ORIENTATION (Yaw) (Â°), ORIENTATION (Pitch) (Â°), ORIENTATION (Roll ) (Â°)
0,51.819317,-2.223346,109,0.0,9,346.9,14 / 25,23,2019-08-16 12:49:13:803,0.0055,-0.0267,9.5931,-0.0003,0.0,9.8067,-0.0021,-0.0011,0.0011,-21.8,16.8,11.94,220.32,6.88,1.83
1,51.819317,-2.223346,109,0.0,9,346.9,14 / 25,123,2019-08-16 12:49:13:903,0.0147,0.0507,9.9315,0.0014,0.0028,9.8066,0.0011,-0.0192,0.0,-21.54,16.52,12.78,220.54,6.88,1.83
2,51.819317,-2.223346,109,0.0,9,346.9,14 / 25,224,2019-08-16 12:49:14:004,-0.0499,-0.0697,9.7426,0.0018,-0.0011,9.8066,0.0064,0.0224,-0.0021,-21.54,16.52,12.78,220.54,6.88,1.83
3,51.819317,-2.223346,109,0.0,9,346.9,14 / 25,323,2019-08-16 12:49:14:103,0.0962,0.0248,9.6743,0.0016,-0.0023,9.8067,0.0064,0.0224,-0.0021,-21.47,16.89,12.4,221.73,6.89,1.81
4,51.819317,-2.223346,109,0.0,9,346.9,14 / 25,423,2019-08-16 12:49:14:203,0.013,-0.0446,9.962,0.0031,0.0018,9.8067,0.0011,-0.017,0.0011,-21.76,16.83,12.8,221.73,6.89,1.81
5,51.819317,-2.223346,109,0.0,9,346.9,14 / 25,524,2019-08-16 12:49:14:304,0.0395,0.12,9.8683,0.0013,0.0008,9.8066,-0.0075,0.017,0.0021,-21.62,16.63,12.49,220.32,6.89,1.81
6,51.819317,-2.223346,109,0.0,9,346.9,14 / 25,623,2019-08-16 12:49:14:403,-0.0327,-0.093,9.9187,0.0012,-0.0005,9.8066,0.0053,0.0075,-0.0043,-21.62,16.63,12.49,220.32,6.89,1.81
7,51.819317,-2.223346,109,0.0,9,346.9,14 / 25,722,2019-08-16 12:49:14:502,0.0745,0.1429,9.9648,0.0048,-0.0002,9.8066,0.0011,-0.016,0.0,-21.76,16.83,12.42,220.33,6.91,1.79
8,51.819317,-2.223346,109,0.0,9,346.9,14 / 25,823,2019-08-16 12:49:14:603,-0.0914,-0.0597,9.906,-0.0015,-0.0012,9.8067,-0.0032,0.0128,0.0,-21.6,16.62,12.54,220.33,6.91,1.79
9,51.819317,-2.223346,109,0.0,9,346.9,14 / 25,924,2019-08-16 12:49:14:704,-0.0126,0.0643,9.6618,0.0008,0.0,9.8067,0.0021,0.0128,-0.0021,-21.6,16.62,12.54,220.33,6.91,1.79
10,51.819317,-2.223346,109,0.0,9,346.9,14 / 25,1023,2019-08-16 12:49:14:803,0.0035,0.0407,10.0417,0.0007,-0.0008,9.8067,-0.0021,-0.0032,0.0,-21.76,16.83,12.05,220.33,6.92,1.79
11,51.819317,-2.223346,109,0.0,9,346.9,14 / 25,1123,2019-08-16 12:49:14:903,0.0399,-0.1479,9.6388,0.0029,0.0018,9.8067,-0.0021,-0.0032,0.0,-21.89,16.55,12.12,220.32,6.92,1.78
12,51.819317,-2.223346,109,0.0,9,346.9,14 / 25,1223,2019-08-16 12:49:15:003,0.0678,-0.1012,9.6713,-0.0005,-0.0028,9.8067,0.0032,-0.032,-0.0011,-21.89,16.55,12.12,220.32,6.92,1.78
13,51.819317,-2.223346,109,0.0,9,346.9,14 / 25,1323,2019-08-16 12:49:15:103,0.1556,0.0658,9.8472,0.0022,0.0025,9.8067,0.0149,0.017,-0.0032,-21.43,16.86,12.51,221.96,6.91,1.77
14,51.819317,-2.223346,109,0.0,9,346.9,14 / 25,1423,2019-08-16 12:49:15:203,0.4443,-0.2205,10.1255,0.0104,0.0027,9.8066,-0.017,0.0021,0.0011,-21.89,16.55,12.12,220.33,6.96,1.74
15,51.819317,-2.223346,109,0.0,9,346.9,14 / 25,1523,2019-08-16 12:49:15:303,-0.0846,-0.0392,9.3488,-0.0043,-0.0046,9.8066,0.0096,0.0213,-0.0064,-21.89,16.55,12.12,220.33,6.96,1.74
16,51.819317,-2.223346,109,0.0,9,346.9,14 / 25,1624,2019-08-16 12:49:15:404,0.1579,-0.0053,9.9303,0.002,-0.0047,9.8066,-0.0043,-0.0085,-0.0011,-21.43,16.86,12.51,221.95,6.92,1.74
17,51.819317,-2.223346,109,0.0,9,346.9,14 / 25,1722,2019-08-16 12:49:15:502,0.0682,-0.0664,9.8682,0.0004,-0.006,9.8066,-0.0032,0.0107,0.0,-21.76,16.45,12.55,218.85,6.9,1.71
18,51.819317,-2.223346,109,0.0,9,346.9,15 / 25,1823,2019-08-16 12:49:15:603,-0.1825,0.1667,9.7341,0.0224,-0.0123,9.8066,-0.0394,0.0096,0.0213,-22.14,16.45,12.05,218.85,6.9,1.71
19,51.819317,-2.223346,109,0.0,9,346.9,15 / 25,1923,2019-08-16 12:49:15:703,-0.0135,0.0253,9.9825,0.0305,-0.0172,9.8066,-0.0288,0.0085,0.0117,-22.14,16.45,12.05,218.85,6.9,1.71
20,51.819317,-2.223346,109,0.0,9,346.9,15 / 25,2023,2019-08-16 12:49:15:803,0.1963,-0.0778,9.5324,0.0271,-0.0003,9.8066,-0.0288,0.0085,0.0117,-21.54,16.95,12.19,220.27,6.98,1.52
21,51.819317,-2.223346,109,0.0,9,346.9,15 / 25,2123,2019-08-16 12:49:15:903,0.3195,0.2568,9.8894,0.0204,0.0097,9.8066,0.0256,0.016,0.0341,-22.14,16.83,12.11,220.31,7.11,1.49
22,51.819317,-2.223346,109,0.0,9,346.9,15 / 25,2223,2019-08-16 12:49:16:003,-0.2276,-0.2185,9.4602,0.0096,0.0146,9.8066,0.0021,-0.0032,-0.0096,-22.14,16.83,12.11,220.31,7.11,1.49
23,51.819317,-2.223346,109,0.0,9,346.9,15 / 25,2323,2019-08-16 12:49:16:103,0.26,-0.1488,9.8571,0.011,-0.0117,9.8066,-0.0202,-0.0352,0.0,-21.95,16.98,11.39,220.13,7.2,1.52
24,51.819317,-2.223346,109,0.0,9,346.9,15 / 25,2423,2019-08-16 12:49:16:203,-0.2947,0.0736,9.7222,-0.0448,-0.0099,9.8065,0.017,0.1044,0.0437,-22.11,16.72,11.48,220.09,6.97,1.64
25,51.819317,-2.223346,109,0.0,9,346.9,15 / 25,2522,2019-08-16 12:49:16:302,-0.2934,0.5971,9.6714,-0.0077,-0.0006,9.8066,-0.0543,-0.0224,0.0138,-22.72,15.79,11.59,220.09,6.97,1.64
26,51.819317,-2.223346,109,0.0,9,346.9,15 / 25,2624,2019-08-16 12:49:16:404,-0.3304,0.289,9.7576,-0.002,0.0014,9.8066,0.0149,0.0149,0.0011,-22.72,15.79,11.59,220.09,6.97,1.64
27,51.819317,-2.223346,109,0.0,9,346.9,15 / 25,2723,2019-08-16 12:49:16:503,-0.1919,0.03,9.6406,0.0022,-0.0003,9.8066,0.0149,0.0149,0.0011,-22.22,16.8,11.15,220.09,6.98,1.63
28,51.819317,-2.223346,109,0.0,9,346.9,15 / 25,2823,2019-08-16 12:49:16:603,-0.0326,0.0651,9.778,0.0033,-0.0028,9.8066,0.0021,0.0224,0.0,-22.22,16.8,11.15,220.09,6.98,1.63
29,51.819317,-2.223346,109,0.0,9,346.9,15 / 25,2923,2019-08-16 12:49:16:703,-0.0585,-0.1563,9.9904,0.0019,0.0019,9.8067,-0.0043,-0.016,0.0021,-22.15,16.15,12.18,218.63,6.98,1.61
30,51.819317,-2.223346,109,0.0,9,346.9,15 / 25,3024,2019-08-16 12:49:16:804,0.0393,0.0457,9.6641,0.0015,0.0012,9.8067,0.0053,0.0277,-0.0043,-21.87,16.16,12.67,218.63,6.98,1.61
31,51.819317,-2.223346,109,0.0,9,346.9,15 / 25,3123,2019-08-16 12:49:16:903,0.0135,0.0419,10.0338,-0.0008,-0.0011,9.8067,0.0043,-0.0234,0.0021,-21.17,16.87,12.93,221.93,6.97,1.6
32,51.819317,-2.223346,109,0.0,9,346.9,15 / 25,3223,2019-08-16 12:49:17:003,0.0135,-0.0728,9.6973,-0.0018,0.0009,9.8067,0.0021,-0.0032,0.0,-21.03,16.77,13.29,221.93,6.97,1.6
33,51.819317,-2.223346,109,0.0,9,346.9,15 / 25,3323,2019-08-16 12:49:17:103,0.0337,0.135,9.8685,-0.0034,0.003,9.8067,0.0011,-0.0011,0.0,-21.03,16.77,13.29,221.93,6.97,1.6
34,51.819317,-2.223346,109,0.0,9,346.9,15 / 25,3422,2019-08-16 12:49:17:202,-0.0368,0.0209,10.0114,0.0028,0.0,9.8066,0.0011,-0.0011,0.0,-21.13,16.78,13.11,221.94,6.97,1.63
35,51.819317,-2.223346,109,0.0,9,346.9,15 / 25,3523,2019-08-16 12:49:17:303,0.0668,-0.0522,9.5868,0.0015,-0.0017,9.8066,0.0,-0.0064,-0.0011,-21.51,15.76,13.74,221.94,6.97,1.63
36,51.819317,-2.223346,109,0.0,9,346.9,15 / 25,3623,2019-08-16 12:49:17:403,0.0624,0.101,9.9541,0.0046,0.0039,9.8066,-0.0064,0.0192,-0.0011,-21.18,15.79,14.22,220.48,6.97,1.62
37,51.819317,-2.223346,109,0.0,9,346.9,15 / 25,3723,2019-08-16 12:49:17:503,0.1513,-0.072,9.6571,0.0031,0.0036,9.8066,0.0053,-0.0107,-0.0011,-21.49,16.13,13.34,220.27,7.0,1.62
38,51.819317,-2.223346,109,0.0,9,346.9,15 / 25,3823,2019-08-16 12:49:17:603,0.0438,-0.0042,9.9591,-0.0019,0.001,9.8067,-0.0043,-0.0234,0.0011,-21.51,15.76,13.74,219.08,6.99,1.63
39,51.819317,-2.223346,109,0.0,9,346.9,15 / 25,3923,2019-08-16 12:49:17:703,-0.0517,-0.0847,9.4798,0.0033,-0.0001,9.8067,-0.0032,0.0202,0.0,-21.51,15.76,13.74,219.08,6.99,1.63
40,51.819317,-2.223346,109,0.0,9,346.9,15 / 25,4023,2019-08-16 12:49:17:803,0.0961,0.0348,9.8235,0.0025,-0.002,9.8067,0.0021,0.0011,0.0,-21.53,15.49,14.01,217.32,7.0,1.62
41,51.819317,-2.223346,109,0.0,9,346.9,15 / 25,4123,2019-08-16 12:49:17:903,-0.1362,-0.0509,9.897,0.0023,0.0002,9.8066,-0.0075,-0.0426,0.0096,-21.16,16.03,13.97,220.49,6.99,1.63
42,51.819317,-2.223346,109,0.0,9,346.9,15 / 25,4223,2019-08-16 12:49:18:003,0.325,-0.284,9.6665,-0.0008,-0.0016,9.8066,-0.0075,-0.0426,0.0096,-21.65,16.74,12.3,220.49,6.99,1.63
43,51.819317,-2.223346,109,0.0,9,346.9,15 / 25,4323,2019-08-16 12:49:18:103,-0.074,-0.2174,9.9128,0.0061,0.0009,9.8066,0.0,-0.0202,0.0075,-21.51,16.08,13.37,218.86,7.02,1.61
44,51.819317,-2.223346,109,0.0,9,346.9,15 / 25,4423,2019-08-16 12:49:18:203,-0.2717,-0.0354,9.6575,-0.0033,-0.0055,9.8066,0.0202,0.0032,-0.0032,-21.0,15.6,14.68,218.86,7.02,1.61
45,51.819317,-2.223346,109,0.0,9,346.9,15 / 25,4523,2019-08-16 12:49:18:303,0.2637,-0.0639,9.6887,-0.0076,0.0012,9.8066,0.0138,-0.016,-0.0032,-21.0,15.6,14.68,218.86,7.02,1.61
46,51.819317,-2.223346,109,0.0,9,346.9,15 / 25,4623,2019-08-16 12:49:18:403,0.1208,0.0198,9.8963,-0.0017,-0.0022,9.8066,0.0,-0.0149,-0.0021,-21.09,16.4,13.64,220.5,6.99,1.64
47,51.819317,-2.223346,109,0.0,9,346.9,15 / 25,4723,2019-08-16 12:49:18:503,-0.2117,-0.1105,10.069,0.0023,-0.0071,9.8066,0.0075,-0.0139,0.0021,-23.11,15.39,11.35,215.38,6.98,1.6
48,51.819317,-2.223346,109,0.0,9,346.9,15 / 25,4823,2019-08-16 12:49:18:603,-0.2652,0.16,9.7275,0.0041,0.0027,9.8066,-0.0096,0.0,0.0021,-23.11,15.39,11.35,215.38,6.98,1.6
49,51.819317,-2.223346,109,0.0,9,346.9,15 / 25,4923,2019-08-16 12:49:18:703,-0.4273,0.1166,9.8468,0.0031,-0.0061,9.8066,-0.033,-0.0405,0.0032,-22.74,16.4,10.66,217.11,7.01,1.6
50,51.819317,-2.223346,109,0.0,9,346.9,15 / 25,5023,2019-08-16 12:49:18:803,-0.2952,0.1152,9.2977,0.0026,0.0014,9.8067,0.0,-0.0032,-0.0011,-22.74,15.85,11.46,217.1,7.0,1.56
51,51.819317,-2.223346,109,0.0,9,346.9,15 / 25,5123,2019-08-16 12:49:18:903,-0.2893,-0.0819,9.1607,-0.0016,0.0052,9.8066,0.0,-0.0032,-0.0011,-24.63,15.86,6.49,217.1,7.0,1.56
52,51.819317,-2.223346,109,0.0,9,346.9,15 / 25,5224,2019-08-16 12:49:19:004,-0.2028,-0.1183,9.4091,-0.0082,-0.005,9.8066,0.0181,0.0447,-0.0096,-28.09,9.54,4.44,200.29,7.01,1.59
53,51.819317,-2.223346,109,0.0,9,346.9,15 / 25,5323,2019-08-16 12:49:19:103,-0.2681,-0.0465,9.9234,-0.0085,0.0007,9.8066,-0.0011,0.0043,0.0011,-28.09,9.54,4.44,200.29,7.01,1.59
54,51.819317,-2.223346,109,0.0,9,346.9,15 / 25,5423,2019-08-16 12:49:19:203,-0.0185,0.0461,9.6446,0.0006,0.0021,9.8067,0.0064,-0.0181,0.0,-28.37,9.62,1.55,200.02,6.96,1.61
55,51.819317,-2.223346,109,0.0,9,346.9,15 / 25,5523,2019-08-16 12:49:19:303,-0.0185,0.0461,9.6446,0.0006,0.0021,9.8067,0.017,0.0138,-0.0064,-28.34,9.8,0.9,200.02,6.96,1.61
56,51.819317,-2.223346,109,0.0,9,346.9,15 / 25,5624,2019-08-16 12:49:19:404,-0.0185,0.0461,9.6446,0.0006,0.0021,9.8067,0.017,0.0138,-0.0064,-28.34,9.8,0.9,200.02,6.96,1.61
57,51.819317,-2.223346,109,0.0,9,346.9,15 / 25,5723,2019-08-16 12:49:19:503,-0.1996,-0.0169,9.3755,-0.0025,0.0017,9.8067,-0.0064,0.0352,0.0043,-28.76,8.53,-0.28,197.34,6.95,1.62
58,51.819317,-2.223346,109,0.0,9,346.9,15 / 25,5823,2019-08-16 12:49:19:603,-0.0291,-0.0644,9.7096,0.0019,-0.003,9.8067,0.0085,-0.0234,-0.0021,-28.38,9.45,2.28,197.34,6.95,1.62
59,51.819317,-2.223346,109,0.0,9,346.9,15 / 25,5923,2019-08-16 12:49:19:703,-0.1685,-0.1455,9.8057,-0.0023,-0.0029,9.8067,-0.0043,-0.0085,0.0021,-27.84,10.61,3.53,202.1,6.94,1.61
60,51.819317,-2.223346,109,0.0,9,346.9,15 / 25,6023,2019-08-16 12:49:19:803,0.0777,-0.0084,9.7954,0.0021,0.0038,9.8066,-0.0032,-0.0181,0.0,-27.84,10.61,3.53,202.1,6.94,1.61
61,51.819317,-2.223346,109,0.0,9,346.9,15 / 25,6123,2019-08-16 12:49:19:903,-0.0787,-0.2064,9.9708,0.0013,-0.0007,9.8067,-0.0032,-0.0181,0.0,-28.21,9.59,3.48,200.15,6.94,1.6
62,51.819317,-2.223346,109,0.0,9,346.9,15 / 25,6223,2019-08-16 12:49:20:003,0.0467,-0.0402,9.6253,0.0026,-0.0002,9.8066,0.0021,-0.0181,0.0,-28.15,10.15,2.21,200.02,6.96,1.6
63,51.819317,-2.223346,109,0.0,9,346.9,15 / 25,6323,2019-08-16 12:49:20:103,0.0089,-0.0841,9.5375,-0.0003,0.0017,9.8067,0.0117,-0.0075,-0.0021,-28.15,10.15,2.21,200.02,6.96,1.6
64,51.819317,-2.223346,109,0.0,9,346.9,15 / 25,6423,2019-08-16 12:49:20:203,0.0911,0.0487,9.842,0.0011,0.0017,9.8067,0.0011,0.0096,-0.0011,-28.03,10.11,3.46,200.15,6.96,1.61
65,51.819317,-2.223346,109,0.0,9,346.9,15 / 25,6524,2019-08-16 12:49:20:304,-0.0958,-0.1613,9.6173,-0.0041,-0.0015,9.8067,-0.0011,-0.0032,0.0,-28.1,10.13,2.79,200.15,6.93,1.61
66,51.819317,-2.223346,109,0.0,9,346.9,15 / 25,6623,2019-08-16 12:49:20:403,0.009,-0.0956,9.9693,0.0032,0.0009,9.8067,-0.0043,-0.017,0.0032,-28.1,10.13,2.79,200.15,6.93,1.61
67,51.819317,-2.223346,109,0.0,9,346.9,15 / 25,6723,2019-08-16 12:49:20:503,-0.0129,-0.1814,9.5252,-0.0009,-0.0018,9.8067,-0.0043,0.0213,0.0011,-27.91,10.64,2.77,201.97,6.95,1.61
68,51.819317,-2.223346,109,0.0,9,346.9,15 / 25,6823,2019-08-16 12:49:20:603,0.0961,0.0314,9.8347,-0.0014,0.0001,9.8067,0.0011,-0.0117,0.0,-27.91,10.64,2.77,201.97,6.95,1.61
69,51.819317,-2.223346,109,0.0,9,346.9,15 / 25,6923,2019-08-16 12:49:20:703,-0.1129,-0.107,10.0148,0.0033,0.0029,9.8066,0.0011,-0.0117,0.0,-27.33,10.21,7.01,201.41,6.94,1.61
70,51.819317,-2.223346,109,0.0,9,346.9,15 / 25,7023,2019-08-16 12:49:20:803,0.0071,-0.011,9.7595,0.0012,-0.0003,9.8067,0.0053,0.0085,-0.0021,-28.5,8.73,3.38,197.7,6.95,1.61
71,51.819317,-2.223346,109,0.0,9,346.9,15 / 25,7123,2019-08-16 12:49:20:903,-0.0072,0.0654,9.768,0.0015,0.0022,9.8066,-0.0075,0.0256,0.0032,-28.28,9.79,2.04,197.7,6.95,1.61
72,51.819317,-2.223346,109,0.0,9,346.9,15 / 25,7225,2019-08-16 12:49:21:005,-0.1109,-0.0497,9.9995,0.0006,0.0009,9.8066,0.0021,-0.0181,-0.0011,-28.28,9.79,2.04,197.7,6.95,1.61
73,51.819317,-2.223346,109,0.0,9,346.9,15 / 25,7323,2019-08-16 12:49:21:103,0.1146,0.0606,9.7771,0.0024,-0.001,9.8066,0.0064,-0.0117,-0.0011,-28.28,9.22,3.92,198.43,6.96,1.61
74,51.819317,-2.223346,109,0.0,9,346.9,15 / 25,7423,2019-08-16 12:49:21:203,-0.03,-0.1076,9.893,-0.0027,-0.0016,9.8067,-0.0064,0.0202,0.0032,-27.83,9.63,5.7,200.56,6.97,1.6
75,51.819317,-2.223346,109,0.0,9,346.9,15 / 25,7522,2019-08-16 12:49:21:302,0.1792,-0.0237,9.8761,-0.002,-0.0013,9.8067,-0.0011,-0.0192,-0.0032,-27.83,9.63,5.7,200.56,6.97,1.6
76,51.819317,-2.223346,109,0.0,9,346.9,15 / 25,7623,2019-08-16 12:49:21:403,-0.0975,-0.1175,9.8345,-0.0021,-0.0062,9.8066,0.0043,-0.0234,0.0032,-27.91,9.2,6.03,198.68,6.95,1.6
77,51.819317,-2.223346,109,0.0,9,346.9,15 / 25,7723,2019-08-16 12:49:21:503,0.0231,0.0717,10.1478,-0.0003,0.0038,9.8066,0.0043,-0.0234,0.0032,-27.62,9.01,7.49,198.82,6.96,1.62
78,51.819317,-2.223346,109,0.0,9,346.9,15 / 25,7823,2019-08-16 12:49:21:603,-0.1162,-0.0262,9.6098,0.0063,0.0048,9.8066,0.0096,-0.0107,-0.0053,-27.99,9.13,5.74,198.7,7.0,1.63
79,51.819317,-2.223346,109,0.0,9,346.9,15 / 25,7923,2019-08-16 12:49:21:703,-0.3183,-0.0165,9.7019,-0.0063,-0.0041,9.8066,0.0053,0.0224,-0.0021,-28.08,9.82,3.87,198.7,7.0,1.63
80,51.819317,-2.223346,109,0.0,9,346.9,15 / 25,8023,2019-08-16 12:49:21:803,-0.6871,-0.2743,9.9831,-0.0416,-0.0226,9.8065,-0.0107,0.0383,-0.0043,-28.08,9.82,3.87,198.7,7.0,1.63
81,51.819317,-2.223346,109,0.0,9,346.9,15 / 25,8123,2019-08-16 12:49:21:903,-0.0598,-0.2936,9.7432,-0.0755,-0.0333,9.8063,0.0117,-0.017,-0.0128,-27.99,10.45,2.72,200.12,6.52,1.59
82,51.819317,-2.223346,109,0.0,9,346.9,15 / 25,8223,2019-08-16 12:49:22:003,-0.277,0.0242,9.4527,-0.0214,-0.0063,9.8066,0.0043,-0.0011,-0.0085,-28.11,10.13,2.69,200.12,6.52,1.59
83,51.819317,-2.223346,109,0.0,9,346.9,15 / 25,8323,2019-08-16 12:49:22:103,-0.2344,0.0529,9.9616,-0.0069,0.0024,9.8066,-0.0117,-0.0277,-0.0021,-27.78,10.78,3.49,201.93,6.39,1.6
84,51.819317,-2.223346,109,0.0,9,346.9,15 / 25,8423,2019-08-16 12:49:22:203,-0.2267,0.0112,9.8411,-0.0218,-0.0101,9.8066,0.017,-0.0064,-0.0128,-27.78,10.78,3.49,201.93,6.39,1.6
85,51.819317,-2.223346,109,0.0,9,346.9,15 / 25,8523,2019-08-16 12:49:22:303,-0.0472,0.009,9.8082,-0.0156,-0.0107,9.8066,-0.0011,0.0128,-0.0085,-28.07,10.48,1.4,199.86,6.25,1.59
86,51.819317,-2.223346,109,0.0,9,346.9,15 / 25,8623,2019-08-16 12:49:22:403,-0.0568,-0.1608,10.0123,-0.0306,-0.0193,9.8066,-0.0011,0.0128,-0.0085,-27.53,10.97,4.64,202.15,6.05,1.55
87,51.819317,-2.223346,109,0.0,9,346.9,15 / 25,8723,2019-08-16 12:49:22:503,0.99,0.7314,9.0542,0.0493,0.0298,9.8065,0.0075,-0.1065,0.0,-27.53,10.97,4.64,202.15,6.05,1.55
88,51.819317,-2.223346,109,0.0,9,346.9,15 / 25,8823,2019-08-16 12:49:22:603,1.3608,0.688,10.5353,0.1873,0.1059,9.8043,-0.0107,-0.1097,0.0352,-28.22,9.97,2.08,200.05,7.29,1.71
89,51.819317,-2.223346,109,0.0,9,346.9,15 / 25,8923,2019-08-16 12:49:22:703,0.372,0.0485,9.8142,0.1502,0.0534,9.8054,0.0032,0.0224,-0.0053,-28.22,9.97,2.08,200.05,7.29,1.71
90,51.819317,-2.223346,109,0.0,9,346.9,15 / 25,9023,2019-08-16 12:49:22:803,-0.4983,-0.254,10.4876,-0.0278,-0.0178,9.8066,-0.0149,0.0138,-0.0053,-28.71,8.56,1.56,197.65,8.22,1.7
91,51.819317,-2.223346,109,0.0,9,346.9,15 / 25,9123,2019-08-16 12:49:22:903,-0.6305,-0.209,9.4766,-0.0865,-0.0447,9.8062,0.0085,0.0341,0.0021,-28.45,9.07,2.92,198.35,7.66,1.6
92,51.819317,-2.223346,109,0.0,9,346.9,15 / 25,9224,2019-08-16 12:49:23:004,0.0615,-0.0159,9.4825,-0.0353,-0.0007,9.8066,0.0021,0.016,-0.0011,-28.27,9.61,2.91,200.2,7.47,1.66
93,51.819317,-2.223346,109,0.0,9,346.9,15 / 25,9323,2019-08-16 12:49:23:103,0.0725,0.0843,9.6614,0.0241,0.0276,9.8066,0.0021,0.016,-0.0011,-28.27,9.61,2.91,200.2,7.47,1.66
94,51.819317,-2.223346,109,0.0,9,346.9,15 / 25,9423,2019-08-16 12:49:23:203,-0.2552,-0.1742,9.9313,-0.0043,0.0016,9.8066,0.0096,-0.0309,-0.0032,-28.27,9.61,2.91,200.22,7.65,1.77
95,51.819317,-2.223346,109,0.0,9,346.9,15 / 25,9523,2019-08-16 12:49:23:303,0.0484,-0.0033,9.8555,-0.0083,-0.0167,9.8066,-0.016,0.0298,0.0011,-28.54,9.1,1.65,197.62,7.63,1.79
96,51.819317,-2.223346,109,0.0,9,346.9,15 / 25,9623,2019-08-16 12:49:23:403,-0.0371,-0.1952,9.4714,-0.0162,-0.0236,9.8066,0.0,0.0032,0.0021,-28.57,9.11,0.96,197.48,7.5,1.68
97,51.819317,-2.223346,109,0.0,9,346.9,15 / 25,9723,2019-08-16 12:49:23:503,0.2245,0.1336,9.7731,0.006,0.004,9.8066,0.0128,-0.0032,-0.0053,-28.57,9.11,0.96,197.48,7.5,1.68
98,51.819317,-2.223346,109,0.0,9,346.9,15 / 25,9822,2019-08-16 12:49:23:602,-0.2269,-0.0729,10.0994,-0.003,0.0016,9.8067,-0.0096,0.0043,0.0053,-28.45,9.07,2.92,198.34,7.54,1.69
99,51.819317,-2.223346,109,0.0,9,346.9,15 / 25,9923,2019-08-16 12:49:23:703,-0.1459,0.0248,9.651,-0.0057,0.0049,9.8066,-0.0043,-0.0234,0.0021,-28.66,8.55,2.35,197.61,7.52,1.73
100,51.819317,-2.223346,109,0.0,9,346.9,15 / 25,10023,2019-08-16 12:49:23:803,0.0753,0.1128,10.0626,0.0066,-0.0001,9.8066,-0.0043,-0.0234,0.0021,-28.37,9.05,3.6,198.49,7.56,1.72
101,51.819317,-2.223346,109,0.0,9,346.9,15 / 25,10123,2019-08-16 12:49:23:903,-0.0645,-0.0077,9.6713,0.001,-0.0003,9.8067,0.0085,0.0138,-0.0032,-28.37,9.05,3.6,198.49,7.56,1.72
102,51.819317,-2.223346,109,0.0,9,346.9,15 / 25,10223,2019-08-16 12:49:24:003,-0.1799,-0.0116,10.0585,-0.0104,-0.0008,9.8066,-0.0011,-0.0149,0.0032,-28.25,9.8,2.37,200.06,7.57,1.73
103,51.819317,-2.223346,109,0.0,9,346.9,15 / 25,10323,2019-08-16 12:49:24:103,0.0426,0.116,9.9019,-0.0141,-0.0047,9.8066,0.0021,-0.0224,-0.0021,-28.75,8.4,1.63,200.06,7.57,1.73
104,51.819317,-2.223346,109,0.0,9,346.9,15 / 25,10422,2019-08-16 12:49:24:202,-0.1557,-0.0682,10.0351,0.0051,-0.0026,9.8066,0.0085,-0.0085,-0.0032,-28.2,9.78,3.06,200.2,7.48,1.73
105,51.819317,-2.223346,109,0.0,9,346.9,15 / 25,10525,2019-08-16 12:49:24:305,-0.0408,0.0065,9.6365,0.0024,-0.0051,9.8066,-0.0043,0.0245,0.0021,-28.2,9.78,3.06,200.2,7.48,1.73
106,51.819317,-2.223346,109,0.0,9,346.9,15 / 25,10623,2019-08-16 12:49:24:403,0.0724,0.0325,10.0252,0.0049,-0.0002,9.8067,0.0021,-0.016,0.0,-28.38,9.44,2.38,198.21,7.5,1.72
107,51.819317,-2.223346,109,0.0,9,346.9,15 / 25,10723,2019-08-16 12:49:24:503,-0.0417,-0.1562,9.5467,-0.0004,-0.0015,9.8066,0.0043,0.0266,-0.0043,-28.38,9.44,2.38,198.21,7.5,1.72
108,51.819317,-2.223346,109,0.0,9,346.9,15 / 25,10824,2019-08-16 12:49:24:604,0.1293,0.061,9.7249,-0.0003,-0.0003,9.8066,0.0043,0.0266,-0.0043,-28.49,9.09,2.44,198.21,7.5,1.72
109,51.819317,-2.223346,109,0.0,9,346.9,15 / 25,10923,2019-08-16 12:49:24:703,0.0425,-0.002,9.7225,0.0016,0.001,9.8067,0.0011,-0.0362,0.0021,-28.49,9.09,2.44,198.21,7.5,1.72
110,51.819317,-2.223346,109,0.0,9,346.9,15 / 25,11023,2019-08-16 12:49:24:803,0.0855,0.0548,10.1798,-0.0063,-0.0022,9.8066,0.0021,0.0011,0.0011,-28.19,9.58,3.68,200.35,7.51,1.72
111,51.819317,-2.223346,109,0.0,9,346.9,15 / 25,11123,2019-08-16 12:49:24:903,0.0144,-0.0285,9.7581,0.0046,0.0,9.8067,0.0053,0.0245,-0.0021,-28.47,9.27,1.88,198.2,7.46,1.72
112,51.819317,-2.223346,109,0.0,9,346.9,15 / 25,11223,2019-08-16 12:49:25:003,0.057,0.0347,9.7937,0.0028,-0.0033,9.8067,-0.0149,-0.0043,0.0043,-28.47,9.27,1.88,198.2,7.46,1.72
113,51.819317,-2.223346,109,0.0,9,346.9,15 / 25,11323,2019-08-16 12:49:25:103,-0.0473,-0.0425,9.9517,-0.0038,-0.0004,9.8067,0.0021,0.0181,0.0011,-28.49,9.09,2.44,198.2,7.47,1.7
114,51.819317,-2.223346,109,0.0,9,346.9,15 / 25,11423,2019-08-16 12:49:25:203,0.0001,0.139,9.7423,0.0034,0.0036,9.8067,-0.0032,0.016,-0.0021,-28.4,9.35,2.48,198.2,7.45,1.71
115,51.819317,-2.223346,109,0.0,9,346.9,15 / 25,11523,2019-08-16 12:49:25:303,-0.0354,0.0935,10.075,0.0035,0.0035,9.8066,0.0096,-0.0213,-0.0021,-28.32,9.33,3.27,198.34,7.47,1.72
116,51.819317,-2.223346,109,0.0,9,346.9,15 / 25,11623,2019-08-16 12:49:25:403,-0.0794,-0.0957,9.8234,-0.0029,-0.0026,9.8067,0.0096,-0.0213,-0.0021,-28.32,9.33,3.27,198.34,7.47,1.72
117,51.819317,-2.223346,109,0.0,9,346.9,15 / 25,11723,2019-08-16 12:49:25:503,0.0902,-0.0732,9.8743,0.0017,0.0001,9.8067,-0.0021,0.0021,0.0011,-28.5,9.19,1.84,198.2,7.45,1.71
118,51.819317,-2.223346,109,0.0,9,346.9,16 / 25,11823,2019-08-16 12:49:25:603,-0.0944,-0.1134,9.8533,-0.0002,0.0004,9.8067,-0.0021,0.0032,0.0021,-28.41,9.46,1.8,198.2,7.45,1.71
119,51.819317,-2.223346,109,0.0,9,346.9,16 / 25,11923,2019-08-16 12:49:25:703,0.0428,0.0715,9.5727,-0.003,-0.0007,9.8067,-0.0064,0.0309,0.0,-28.31,9.62,2.52,200.2,7.43,1.71
120,51.819317,-2.223346,109,0.0,9,346.9,16 / 25,12024,2019-08-16 12:49:25:804,0.0576,0.086,10.0272,0.0046,0.0009,9.8066,-0.0032,-0.0021,0.0,-28.45,9.17,2.53,200.2,7.43,1.71
121,51.819317,-2.223346,109,0.0,9,346.9,16 / 25,12123,2019-08-16 12:49:25:903,-0.0127,0.0166,9.625,0.0015,0.0001,9.8066,-0.0011,-0.0234,0.0032,-28.45,9.17,2.53,200.2,7.43,1.71
122,51.819317,-2.223346,109,0.0,9,346.9,16 / 25,12222,2019-08-16 12:49:26:002,0.0699,0.1198,10.0721,0.0013,0.0013,9.8067,-0.0043,0.0245,0.0011,-28.66,8.22,3.31,195.89,7.44,1.71
123,51.819317,-2.223346,109,0.0,9,346.9,16 / 25,12322,2019-08-16 12:49:26:102,-0.039,-0.007,9.5646,-0.0001,-0.0007,9.8067,-0.0043,0.0245,0.0011,-28.43,9.36,1.98,198.2,7.45,1.72
124,51.819317,-2.223346,109,0.0,9,346.9,16 / 25,12423,2019-08-16 12:49:26:203,-0.1888,-0.0399,9.7637,-0.0011,-0.0008,9.8067,0.0128,-0.0234,-0.0053,-28.49,9.19,1.94,198.2,7.45,1.72
125,51.819317,-2.223346,109,0.0,9,346.9,16 / 25,12522,2019-08-16 12:49:26:302,-0.0467,0.0143,9.7077,-0.0009,-0.0001,9.8067,-0.0032,0.0043,0.0011,-28.44,9.17,2.63,198.34,7.45,1.72
126,51.819317,-2.223346,109,0.0,9,346.9,16 / 25,12624,2019-08-16 12:49:26:404,0.0977,0.003,10.0884,-0.0028,-0.0023,9.8067,-0.0096,0.0011,0.0053,-28.44,9.17,2.63,198.34,7.45,1.72
127,51.819317,-2.223346,109,0.0,9,346.9,16 / 25,12723,2019-08-16 12:49:26:503,-0.0057,0.0721,9.8003,-0.0014,-0.0006,9.8067,0.0043,0.0075,-0.0032,-28.32,9.72,1.83,198.34,7.45,1.72
128,51.819317,-2.223346,109,0.0,9,346.9,16 / 25,12823,2019-08-16 12:49:26:603,-0.0852,-0.0162,10.0671,-0.0002,-0.0015,9.8067,0.0011,-0.016,0.0011,-28.61,8.81,1.99,197.61,7.44,1.71
129,51.819317,-2.223346,109,0.0,9,346.9,16 / 25,12923,2019-08-16 12:49:26:703,-0.0011,-0.0042,9.5332,-0.0004,0.0012,9.8067,0.0043,-0.0224,0.0,-28.61,8.81,1.99,197.61,7.44,1.71
130,51.819317,-2.223346,109,0.0,9,346.9,16 / 25,13023,2019-08-16 12:49:26:803,0.1839,0.0713,9.8457,-0.0018,0.0008,9.8066,0.0043,-0.0224,0.0,-28.44,8.98,3.25,198.34,7.44,1.72
131,51.819317,-2.223346,109,0.0,9,346.9,16 / 25,13123,2019-08-16 12:49:26:903,-0.097,-0.1471,9.8595,-0.0024,-0.0012,9.8066,-0.0117,0.0298,0.0043,-28.61,8.81,1.99,197.61,7.43,1.72
132,51.819317,-2.223346,109,0.0,9,346.9,16 / 25,13223,2019-08-16 12:49:27:003,0.1603,0.1368,10.0716,-0.0009,-0.0006,9.8067,0.0011,0.0096,-0.0011,-28.61,8.63,2.64,197.74,7.42,1.72
133,51.819317,-2.223346,109,0.0,9,346.9,16 / 25,13322,2019-08-16 12:49:27:102,-0.0569,-0.0338,9.6572,0.0031,0.0004,9.8067,0.0064,-0.0064,-0.0021,-28.61,8.63,2.64,197.74,7.42,1.72
134,51.819317,-2.223346,109,0.0,9,346.9,16 / 25,13423,2019-08-16 12:49:27:203,0.0759,0.0977,9.8438,-0.0042,-0.0021,9.8066,-0.0064,0.0021,0.0043,-28.81,8.27,1.29,195.65,7.44,1.72
135,51.819317,-2.223346,109,0.0,9,346.9,16 / 25,13523,2019-08-16 12:49:27:303,-0.0493,0.0454,10.2237,-0.0016,-0.0018,9.8067,0.0032,-0.0266,0.0,-28.69,8.66,1.36,195.65,7.44,1.72
136,51.819317,-2.223346,109,0.0,9,346.9,16 / 25,13623,2019-08-16 12:49:27:403,-0.0565,-0.0373,9.5984,-0.0003,0.0006,9.8067,0.0075,-0.017,0.0,-28.81,8.26,1.4,195.65,7.43,1.72
137,51.819317,-2.223346,109,0.0,9,346.9,16 / 25,13723,2019-08-16 12:49:27:503,0.0784,0.0376,9.8439,-0.0006,-0.0013,9.8067,-0.0096,0.0138,0.0032,-28.71,8.66,0.67,195.65,7.43,1.72
138,51.819317,-2.223346,109,0.0,9,346.9,16 / 25,13823,2019-08-16 12:49:27:603,-0.0607,-0.1131,9.987,-0.0031,-0.0027,9.8066,0.0021,-0.0139,-0.0021,-28.71,8.66,0.67,195.65,7.43,1.72
139,51.819317,-2.223346,109,0.0,9,346.9,16 / 25,13923,2019-08-16 12:49:27:703,-0.0044,-0.1155,9.3998,-0.0019,-0.0007,9.8067,0.0021,-0.0139,-0.0021,-28.85,8.11,1.37,195.65,7.43,1.71
140,51.819317,-2.223346,109,0.0,9,346.9,16 / 25,14023,2019-08-16 12:49:27:803,-0.1232,-0.081,9.9578,-0.0004,-0.0005,9.8067,0.0032,-0.0085,0.0,-28.64,8.82,1.39,197.48,7.42,1.71
141,51.819317,-2.223346,109,0.0,9,346.9,16 / 25,14124,2019-08-16 12:49:27:904,0.0854,-0.0277,9.8938,0.0025,-0.0002,9.8067,-0.0032,0.0181,-0.0011,-28.71,8.24,2.81,197.48,7.42,1.71
142,51.819317,-2.223346,109,0.0,9,346.9,16 / 25,14224,2019-08-16 12:49:28:004,-0.1349,-0.131,9.8669,-0.0001,-0.0013,9.8067,0.0032,-0.0224,0.0021,-28.55,8.79,2.79,197.74,7.41,1.7
143,51.819317,-2.223346,109,0.0,9,346.9,16 / 25,14323,2019-08-16 12:49:28:103,-0.021,0.0517,9.642,0.0014,0.0035,9.8066,0.0053,-0.0202,-0.0011,-28.55,8.79,2.79,197.74,7.41,1.7
144,51.819317,-2.223346,109,0.0,9,346.9,16 / 25,14423,2019-08-16 12:49:28:203,0.0262,0.0663,10.0746,0.0007,-0.0001,9.8067,-0.0075,0.017,0.0032,-28.49,9.0,2.68,198.34,7.43,1.72
145,51.819317,-2.223346,109,0.0,9,346.9,16 / 25,14523,2019-08-16 12:49:28:303,-0.1325,-0.0242,9.6941,-0.0036,0.0004,9.8066,0.0021,-0.0128,-0.0021,-28.49,9.0,2.68,198.34,7.43,1.72
146,51.819317,-2.223346,109,0.0,9,346.9,16 / 25,14624,2019-08-16 12:49:28:404,0.0704,0.069,9.7934,0.0038,0.0003,9.8066,-0.0021,-0.0181,0.0011,-28.53,8.61,3.43,197.74,7.41,1.73
147,51.819317,-2.223346,109,0.0,9,346.9,16 / 25,14724,2019-08-16 12:49:28:504,-0.0338,-0.0022,10.119,0.0021,-0.002,9.8066,-0.0021,-0.0181,0.0011,-28.24,9.5,3.54,198.47,7.42,1.72
148,51.819317,-2.223346,109,0.0,9,346.9,16 / 25,14822,2019-08-16 12:49:28:602,0.1613,0.0562,9.8123,0.0026,0.003,9.8066,-0.0085,0.0245,0.0053,-28.24,9.5,3.54,198.47,7.42,1.72
149,51.819317,-2.223346,109,0.0,9,346.9,16 / 25,14923,2019-08-16 12:49:28:703,-0.0314,-0.0783,10.0484,-0.0024,-0.0023,9.8067,0.0064,-0.0181,-0.0011,-28.49,9.38,0.78,198.07,7.44,1.73
150,51.819317,-2.223346,109,0.0,9,346.9,16 / 25,15023,2019-08-16 12:49:28:803,-0.0193,0.0042,9.6443,-0.0009,0.0,9.8067,0.0021,0.0202,-0.0021,-28.63,8.82,1.49,197.48,7.42,1.72
151,51.819317,-2.223346,109,0.0,9,346.9,16 / 25,15123,2019-08-16 12:49:28:903,0.1632,0.0698,10.0181,0.0022,0.0007,9.8066,-0.0085,-0.0075,0.0021,-28.63,8.82,1.49,197.48,7.42,1.72
152,51.819317,-2.223346,109,0.0,9,346.9,16 / 25,15223,2019-08-16 12:49:29:003,0.0223,-0.0156,9.8496,-0.0016,0.0,9.8067,0.0011,-0.0192,-0.0011,-28.6,8.81,2.09,197.61,7.43,1.72
153,51.819317,-2.223346,109,0.0,9,346.9,16 / 25,15323,2019-08-16 12:49:29:103,0.0893,0.0489,9.8123,-0.0004,0.0002,9.8067,0.0032,0.0245,-0.0043,-28.37,9.34,2.78,197.61,7.43,1.72
154,51.819317,-2.223346,109,0.0,9,346.9,16 / 25,15424,2019-08-16 12:49:29:204,-0.0528,0.0318,10.1887,-0.0004,-0.0004,9.8067,-0.0085,0.0085,0.0032,-28.59,8.63,2.84,197.74,7.43,1.72
155,51.819317,-2.223346,109,0.0,9,346.9,16 / 25,15523,2019-08-16 12:49:29:303,-0.049,0.0274,9.642,-0.0021,0.0,9.8067,-0.0085,0.0085,0.0032,-28.59,8.63,2.84,197.74,7.43,1.72
156,51.819317,-2.223346,109,0.0,9,346.9,16 / 25,15623,2019-08-16 12:49:29:403,0.1464,0.0359,9.8282,0.0025,0.0008,9.8066,0.0011,-0.0192,0.0,-28.6,8.63,2.74,197.74,7.42,1.72
157,51.819317,-2.223346,109,0.0,9,346.9,16 / 25,15724,2019-08-16 12:49:29:504,0.0228,-0.0447,9.55,0.0014,0.0004,9.8067,0.0085,0.0181,-0.0043,-28.59,8.63,2.84,197.74,7.42,1.71
158,51.819317,-2.223346,109,0.0,9,346.9,16 / 25,15823,2019-08-16 12:49:29:603,0.0576,0.0073,9.9491,0.0006,0.0003,9.8067,-0.0011,-0.0298,0.0011,-28.6,8.81,2.09,197.61,7.43,1.71
159,51.819317,-2.223346,109,0.0,9,346.9,16 / 25,15923,2019-08-16 12:49:29:703,-0.0303,-0.0337,9.5546,-0.0021,-0.0022,9.8067,0.0032,-0.0181,0.0011,-28.6,8.81,2.09,197.61,7.43,1.71
160,51.819317,-2.223346,109,0.0,9,346.9,16 / 25,16023,2019-08-16 12:49:29:803,0.079,-0.0125,10.0816,0.0031,0.001,9.8067,0.0053,0.0075,-0.0043,-28.54,8.79,2.89,197.74,7.41,1.7
161,51.819317,-2.223346,109,0.0,9,346.9,16 / 25,16123,2019-08-16 12:49:29:903,-0.0631,-0.1377,9.5443,-0.0016,-0.0005,9.8067,-0.0085,0.0288,0.0021,-28.42,9.36,2.18,198.2,7.43,1.7
162,51.819317,-2.223346,109,0.0,9,346.9,16 / 25,16224,2019-08-16 12:49:30:004,0.0601,0.074,9.8026,-0.0041,-0.0001,9.8066,0.0011,-0.016,0.0011,-28.43,9.17,2.82,198.34,7.41,1.71
163,51.819317,-2.223346,109,0.0,9,346.9,16 / 25,16323,2019-08-16 12:49:30:103,-0.091,-0.0391,10.1669,0.0014,-0.0001,9.8066,0.0011,-0.016,0.0011,-28.36,9.34,2.88,198.34,7.41,1.71
164,51.819317,-2.223346,109,0.0,9,346.9,16 / 25,16423,2019-08-16 12:49:30:203,-0.0685,-0.0101,9.5027,0.0064,0.0009,9.8066,0.0043,-0.0043,-0.0011,-28.36,9.34,2.88,198.34,7.41,1.71
165,51.819317,-2.223346,109,0.0,9,346.9,16 / 25,16523,2019-08-16 12:49:30:303,-0.0463,0.0349,9.6534,0.0017,-0.0014,9.8066,-0.0021,0.0234,0.0,-28.29,9.32,3.57,198.47,7.42,1.7
166,51.819317,-2.223346,109,0.0,9,346.9,16 / 25,16624,2019-08-16 12:49:30:404,-0.0121,0.09,10.0201,0.0013,0.0032,9.8066,0.0,0.017,0.0011,-28.54,8.79,2.89,198.47,7.42,1.7
167,51.819317,-2.223346,109,0.0,9,346.9,16 / 25,16723,2019-08-16 12:49:30:503,-0.111,0.0136,9.7035,-0.0001,-0.0016,9.8067,0.0075,-0.0202,-0.0011,-28.48,8.96,2.95,198.34,7.43,1.71
168,51.819317,-2.223346,109,0.0,9,346.9,16 / 25,16823,2019-08-16 12:49:30:603,0.0518,0.1147,9.8306,0.002,0.0009,9.8067,-0.0085,0.0213,0.0043,-28.48,8.96,2.95,198.34,7.43,1.71
169,51.819317,-2.223346,109,0.0,9,346.9,16 / 25,16923,2019-08-16 12:49:30:703,-0.0606,-0.0564,10.0495,-0.0028,0.0002,9.8066,0.0032,-0.0043,0.0,-28.64,8.64,2.25,197.61,7.45,1.71
170,51.819317,-2.223346,109,0.0,9,346.9,16 / 25,17024,2019-08-16 12:49:30:804,-0.0122,-0.0691,9.512,-0.0032,-0.0005,9.8066,0.0053,0.0043,-0.0032,-28.41,9.36,2.28,197.61,7.45,1.71
171,51.819317,-2.223346,109,0.0,9,346.9,16 / 25,17123,2019-08-16 12:49:30:903,0.1893,0.0854,9.8585,0.0034,-0.0004,9.8066,0.0053,0.0043,-0.0032,-28.4,8.94,3.66,198.48,7.43,1.71
172,51.819317,-2.223346,109,0.0,9,346.9,16 / 25,17223,2019-08-16 12:49:31:003,-0.0841,-0.0953,9.7859,0.003,-0.0022,9.8066,0.0096,-0.0032,-0.0032,-28.36,9.34,2.88,198.48,7.43,1.71
173,51.819317,-2.223346,109,0.0,9,346.9,16 / 25,17323,2019-08-16 12:49:31:103,-0.0234,-0.0849,9.7408,0.0004,-0.0027,9.8066,0.0032,-0.0245,0.0,-28.36,9.34,2.88,198.48,7.43,1.71
174,51.819317,-2.223346,109,0.0,9,346.9,16 / 25,17423,2019-08-16 12:49:31:203,0.1193,0.0177,9.9882,0.0028,0.0011,9.8067,0.0053,0.0181,-0.0043,-28.63,8.82,1.59,197.61,7.43,1.7
175,51.819317,-2.223346,109,0.0,9,346.9,16 / 25,17523,2019-08-16 12:49:31:303,0.0006,-0.0642,9.6903,-0.0034,-0.0007,9.8066,-0.0085,0.0117,0.0032,-28.47,9.18,2.24,198.2,7.44,1.7
176,51.819317,-2.223346,109,0.0,9,346.9,16 / 25,17623,2019-08-16 12:49:31:403,0.0238,-0.0481,10.0392,-0.0021,0.0016,9.8067,0.0032,-0.017,-0.0011,-28.6,8.31,3.61,196.02,7.44,1.71
177,51.819317,-2.223346,109,0.0,9,346.9,16 / 25,17723,2019-08-16 12:49:31:503,0.03,-0.0604,9.5477,-0.003,-0.0021,9.8066,0.0075,0.0181,-0.0021,-28.6,8.31,3.61,196.02,7.44,1.71
178,51.819317,-2.223346,109,0.0,9,346.9,16 / 25,17823,2019-08-16 12:49:31:603,0.2023,0.0802,9.8703,0.0047,0.0027,9.8067,0.0075,0.0181,-0.0021,-28.59,8.81,2.29,197.61,7.41,1.7
179,51.819317,-2.223346,109,0.0,9,346.9,16 / 25,17923,2019-08-16 12:49:31:703,0.1683,0.1281,10.0499,0.002,0.0006,9.8067,-0.0053,-0.0149,0.0,-28.53,8.79,2.99,197.74,7.43,1.7
180,51.819317,-2.223346,109,0.0,9,346.9,16 / 25,18023,2019-08-16 12:49:31:803,0.0489,0.1709,9.854,-0.0008,-0.0003,9.8067,0.0011,-0.0224,-0.0011,-28.53,8.79,2.99,197.74,7.43,1.7
181,51.819317,-2.223346,109,0.0,9,346.9,16 / 25,18123,2019-08-16 12:49:31:903,-0.0335,-0.0201,9.6706,0.0034,0.0014,9.8067,0.0085,-0.017,-0.0011,-28.59,8.81,2.29,197.61,7.42,1.7
182,51.819317,-2.223346,109,0.0,9,346.9,16 / 25,18223,2019-08-16 12:49:32:003,0.1112,0.143,9.8394,0.0014,-0.0004,9.8067,0.0011,0.0128,-0.0021,-28.59,8.81,2.29,197.61,7.43,1.7
183,51.819317,-2.223346,109,0.0,9,346.9,16 / 25,18323,2019-08-16 12:49:32:103,-0.0945,0.0292,10.1498,0.0031,0.0015,9.8067,0.0043,-0.0181,-0.0011,-28.42,9.16,2.92,198.34,7.45,1.7
184,51.819317,-2.223346,109,0.0,9,346.9,16 / 25,18423,2019-08-16 12:49:32:203,0.1027,0.1608,9.8936,-0.0007,-0.0008,9.8067,0.0075,0.0202,-0.0021,-28.42,9.16,2.92,198.34,7.45,1.7
185,51.819317,-2.223346,109,0.0,9,346.9,16 / 25,18524,2019-08-16 12:49:32:304,-0.0999,0.0109,10.1014,-0.001,0.0016,9.8067,-0.0117,0.0256,0.0043,-28.47,9.18,2.24,198.2,7.45,1.71
186,51.819317,-2.223346,109,0.0,9,346.9,16 / 25,18623,2019-08-16 12:49:32:403,-0.0717,-0.0331,10.0094,0.0003,0.0005,9.8067,0.0011,-0.0053,-0.0011,-28.59,8.81,2.29,197.61,7.45,1.71
187,51.819317,-2.223346,109,0.0,9,346.9,16 / 25,18723,2019-08-16 12:49:32:503,0.015,0.0595,9.7594,-0.0015,-0.0029,9.8067,0.0011,-0.0053,-0.0011,-28.64,8.46,2.88,197.61,7.45,1.71
188,51.819317,-2.223346,109,0.0,9,346.9,16 / 25,18823,2019-08-16 12:49:32:603,0.0505,0.0513,10.1137,0.001,-0.0021,9.8067,0.0085,0.0032,-0.0032,-28.64,8.46,2.88,197.61,7.45,1.71
189,51.819317,-2.223346,109,0.0,9,346.9,16 / 25,18923,2019-08-16 12:49:32:703,-0.0746,-0.0902,9.592,-0.0004,-0.0004,9.8067,-0.0043,-0.0149,0.0011,-28.63,8.82,1.59,197.61,7.45,1.7
190,51.819317,-2.223346,109,0.0,9,346.9,16 / 25,19025,2019-08-16 12:49:32:805,0.0969,0.0341,9.6573,-0.0022,0.0004,9.8067,-0.0053,0.0128,0.0021,-28.8,8.36,0.89,195.65,7.45,1.7
191,51.819317,-2.223346,109,0.0,9,346.9,16 / 25,19123,2019-08-16 12:49:32:903,-0.021,-0.1134,10.0387,0.0003,0.001,9.8067,-0.0032,-0.0064,0.0011,-28.55,9.21,0.27,195.65,7.45,1.7
192,51.819317,-2.223346,109,0.0,9,346.9,16 / 25,19223,2019-08-16 12:49:33:003,-0.0293,-0.1566,9.4129,-0.0025,-0.0017,9.8067,0.0075,0.0032,-0.0032,-28.55,9.21,0.27,195.65,7.45,1.7
193,51.819317,-2.223346,109,0.0,9,346.9,16 / 25,19323,2019-08-16 12:49:33:103,0.1287,0.0446,9.8703,-0.0008,0.0022,9.8066,0.0075,0.0032,-0.0032,-28.6,8.91,1.69,197.61,7.43,1.69
194,51.819317,-2.223346,109,0.0,9,346.9,16 / 25,19423,2019-08-16 12:49:33:203,0.0919,0.0084,9.8745,0.0017,0.0051,9.8066,-0.0064,0.0256,0.0021,-28.59,8.81,2.29,197.61,7.45,1.72
195,51.819317,-2.223346,109,0.0,9,346.9,16 / 25,19523,2019-08-16 12:49:33:303,-0.0924,-0.1221,9.8372,-0.0042,-0.0022,9.8067,0.0,0.0021,-0.0021,-28.53,8.79,2.99,197.61,7.45,1.72
196,51.819317,-2.223346,109,0.0,9,346.9,16 / 25,19623,2019-08-16 12:49:33:403,-0.0494,0.0607,9.6945,-0.0009,-0.0017,9.8067,0.0096,-0.0107,-0.0032,-28.53,8.79,2.99,197.61,7.45,1.72
197,51.819317,-2.223346,109,0.0,9,346.9,16 / 25,19723,2019-08-16 12:49:33:503,-0.006,0.045,10.0945,-0.0019,-0.0007,9.8067,-0.0043,0.0256,0.0021,-28.56,8.9,2.29,197.61,7.45,1.7
198,51.819317,-2.223346,109,0.0,9,346.9,14 / 25,19823,2019-08-16 12:49:33:603,-0.0608,0.0112,9.7032,-0.0002,0.001,9.8066,-0.0021,-0.017,0.0021,-28.65,8.74,1.66,197.61,7.44,1.7
199,51.819317,-2.223346,109,0.0,9,346.9,14 / 25,19924,2019-08-16 12:49:33:704,0.0371,0.1433,9.8745,0.0052,0.0031,9.8066,0.0064,-0.0181,0.0,-28.65,8.74,1.66,197.61,7.44,1.7
200,51.819317,-2.223346,109,0.0,9,346.9,14 / 25,20023,2019-08-16 12:49:33:803,-0.1426,-0.0779,9.9991,-0.0001,0.0003,9.8067,-0.0032,0.0224,0.0011,-28.55,8.71,3.03,197.74,7.47,1.71
201,51.819317,-2.223346,109,0.0,9,346.9,14 / 25,20123,2019-08-16 12:49:33:903,0.0044,-0.026,9.5542,-0.003,-0.0015,9.8067,-0.0032,0.0224,0.0011,-28.63,8.82,1.59,197.61,7.47,1.71
202,51.819317,-2.223346,109,0.0,9,346.9,14 / 25,20223,2019-08-16 12:49:34:003,0.2021,0.031,10.0002,-0.0007,-0.0012,9.8067,0.0,-0.0266,0.0011,-28.41,9.36,2.28,198.2,7.47,1.71
203,51.819317,-2.223346,109,0.0,9,346.9,14 / 25,20323,2019-08-16 12:49:34:103,0.0503,0.045,9.7734,-0.0003,-0.0018,9.8067,0.0096,0.0032,-0.0043,-28.41,9.36,2.28,198.2,7.47,1.71
204,51.819317,-2.223346,109,0.0,9,346.9,14 / 25,20423,2019-08-16 12:49:34:203,-0.0507,-0.0472,10.2078,-0.0011,-0.0013,9.8067,0.0,-0.0053,0.0032,-28.51,9.19,1.65,197.61,7.46,1.7
205,51.819317,-2.223346,109,0.0,9,346.9,14 / 25,20523,2019-08-16 12:49:34:303,-0.0175,-0.0425,9.6028,0.0014,-0.0008,9.8067,-0.0032,0.0021,0.0011,-28.47,9.18,2.24,197.61,7.46,1.7
206,51.819317,-2.223346,109,0.0,9,346.9,14 / 25,20622,2019-08-16 12:49:34:402,0.1356,0.1391,10.011,-0.0015,-0.0013,9.8067,-0.0096,0.0096,0.0043,-28.47,9.18,2.24,197.61,7.46,1.7
207,51.819317,-2.223346,109,0.0,9,346.9,14 / 25,20723,2019-08-16 12:49:34:503,-0.0919,0.0412,9.9821,-0.0006,0.0025,9.8066,0.0096,-0.0277,-0.0011,-28.55,8.9,2.39,197.61,7.45,1.7
208,51.819317,-2.223346,109,0.0,9,346.9,14 / 25,20823,2019-08-16 12:49:34:603,-0.0163,0.0371,9.7104,-0.002,0.0013,9.8066,0.0096,-0.0277,-0.0011,-28.55,8.71,3.03,197.61,7.45,1.7
209,51.819317,-2.223346,109,0.0,9,346.9,14 / 25,20923,2019-08-16 12:49:34:703,0.0135,0.0554,10.1252,0.002,0.0012,9.8066,0.0,0.0128,-0.0011,-28.55,8.9,2.39,197.61,7.44,1.71
210,51.819317,-2.223346,109,0.0,9,346.9,14 / 25,21023,2019-08-16 12:49:34:803,-0.0598,-0.0373,9.6965,0.0055,0.002,9.8066,-0.0064,0.0181,0.0011,-28.61,8.73,2.35,197.61,7.44,1.71
211,51.819317,-2.223346,109,0.0,9,346.9,14 / 25,21123,2019-08-16 12:49:34:903,0.0151,-0.1683,9.969,0.0008,-0.0003,9.8067,0.0011,-0.0224,0.0021,-28.61,8.73,2.35,197.61,7.44,1.71
212,51.819317,-2.223346,109,0.0,9,346.9,14 / 25,21223,2019-08-16 12:49:35:003,0.0539,-0.1354,9.4957,0.0019,0.0025,9.8066,0.0032,-0.0202,0.0011,-28.71,8.52,1.73,197.61,7.44,1.71
213,51.819317,-2.223346,109,0.0,9,346.9,14 / 25,21323,2019-08-16 12:49:35:103,0.0437,0.0572,9.8374,0.0038,0.0018,9.8066,-0.0075,0.0298,0.0011,-28.61,8.73,2.35,197.61,7.47,1.71
214,51.819317,-2.223346,109,0.0,9,346.9,14 / 25,21422,2019-08-16 12:49:35:202,-0.0554,-0.0602,9.4578,-0.0024,-0.0023,9.8067,-0.0021,-0.0075,0.0011,-28.38,9.25,3.01,197.61,7.47,1.71
215,51.819317,-2.223346,109,0.0,9,346.9,14 / 25,21523,2019-08-16 12:49:35:303,0.1449,0.0387,9.8968,-0.0008,0.0009,9.8067,0.0011,0.0075,-0.0011,-28.38,9.25,3.01,197.61,7.47,1.71
216,51.819317,-2.223346,109,0.0,9,346.9,14 / 25,21624,2019-08-16 12:49:35:404,-0.092,-0.1544,9.8212,-0.0029,-0.0004,9.8067,-0.0032,0.0234,-0.0011,-28.6,8.91,1.69,197.61,7.45,1.71
217,51.819317,-2.223346,109,0.0,9,346.9,14 / 25,21723,2019-08-16 12:49:35:503,-0.1424,-0.0216,9.7438,0.0021,0.001,9.8066,-0.0032,0.0234,-0.0011,-28.76,8.53,0.39,197.35,7.45,1.71
218,51.819317,-2.223346,109,0.0,9,346.9,14 / 25,21823,2019-08-16 12:49:35:603,-0.0045,0.0987,9.7833,0.0003,0.0008,9.8066,0.0053,-0.0053,0.0011,-28.42,9.46,1.68,197.35,7.45,1.71
219,51.819317,-2.223346,109,0.0,9,346.9,14 / 25,21923,2019-08-16 12:49:35:703,-0.0606,-0.0211,9.6788,0.0004,-0.0005,9.8067,-0.0011,-0.0288,0.0,-28.68,8.75,1.06,197.48,7.45,1.71
220,51.819317,-2.223346,109,0.0,9,346.9,14 / 25,22023,2019-08-16 12:49:35:803,-0.1022,-0.0306,10.0987,0.0013,-0.0021,9.8067,-0.0107,0.0149,0.0064,-28.65,8.32,3.11,197.48,7.45,1.71
221,51.819317,-2.223346,109,0.0,9,346.9,14 / 25,22123,2019-08-16 12:49:35:903,0.0271,-0.0102,9.4953,-0.0022,-0.0007,9.8067,0.0075,-0.0224,-0.0011,-28.68,8.75,1.06,197.48,7.45,1.7
222,51.819317,-2.223346,109,0.0,9,346.9,14 / 25,22223,2019-08-16 12:49:36:003,0.1516,0.0364,9.8609,0.0013,0.0016,9.8067,-0.0021,0.0149,0.0,-28.65,8.74,1.66,197.61,7.46,1.7
223,51.819317,-2.223346,109,0.0,9,346.9,14 / 25,22323,2019-08-16 12:49:36:103,-0.0741,-0.1009,9.7765,-0.0015,-0.002,9.8067,-0.0075,0.0234,0.0011,-28.65,8.74,1.66,197.61,7.46,1.7
224,51.819317,-2.223346,109,0.0,9,346.9,14 / 25,22423,2019-08-16 12:49:36:203,0.0437,0.0174,9.6932,-0.0019,0.0006,9.8067,-0.0075,0.0234,0.0011,-28.72,8.34,2.41,195.77,7.45,1.71
225,51.819317,-2.223346,109,0.0,9,346.9,14 / 25,22523,2019-08-16 12:49:36:303,0.0243,-0.0142,10.1413,0.0025,0.0007,9.8067,0.0021,-0.0128,-0.0011,-28.48,9.28,1.74,195.77,7.45,1.71
226,51.819317,-2.223346,109,0.0,9,346.9,14 / 25,22623,2019-08-16 12:49:36:403,0.1218,-0.0044,9.7414,0.0015,-0.0006,9.8067,0.0011,0.0043,0.0011,-28.55,8.9,2.39,197.61,7.46,1.7
227,51.819317,-2.223346,109,0.0,9,346.9,14 / 25,22723,2019-08-16 12:49:36:503,-0.0526,-0.0104,9.6701,0.0016,-0.0002,9.8067,-0.0117,0.0021,0.0053,-28.55,8.9,2.39,197.61,7.46,1.7
228,51.819317,-2.223346,109,0.0,9,346.9,14 / 25,22823,2019-08-16 12:49:36:603,0.1615,0.1808,10.0309,-0.0024,-0.0016,9.8067,0.0075,-0.0234,-0.0021,-28.64,8.74,1.76,197.61,7.46,1.7
229,51.819317,-2.223346,109,0.0,9,346.9,14 / 25,22923,2019-08-16 12:49:36:703,-0.0805,-0.0098,9.8048,0.0001,0.0006,9.8067,-0.0021,-0.0085,0.0021,-28.53,9.08,1.82,197.61,7.45,1.7
230,51.819317,-2.223346,109,0.0,9,346.9,14 / 25,23023,2019-08-16 12:49:36:803,0.0077,0.0636,9.7515,0.0035,0.0016,9.8066,-0.0107,0.0202,0.0011,-28.53,9.08,1.82,197.61,7.45,1.7
231,51.819317,-2.223346,109,0.0,9,346.9,14 / 25,23123,2019-08-16 12:49:36:903,-0.0025,0.0775,10.2313,-0.003,-0.0014,9.8067,0.0085,-0.0181,-0.0011,-28.79,8.36,1.09,195.65,7.47,1.7
232,51.819317,-2.223346,109,0.0,9,346.9,14 / 25,23223,2019-08-16 12:49:37:003,-0.025,-0.0119,9.588,-0.002,0.0006,9.8067,0.0085,-0.0181,-0.0011,-28.84,8.2,1.07,195.65,7.47,1.7
233,51.819317,-2.223346,109,0.0,9,346.9,14 / 25,23323,2019-08-16 12:49:37:103,-0.049,0.0209,10.1164,-0.0006,0.0,9.8067,0.0021,0.0064,0.0,-28.52,8.46,3.88,196.02,7.46,1.71
234,51.819317,-2.223346,109,0.0,9,346.9,14 / 25,23424,2019-08-16 12:49:37:204,-0.0046,0.0565,9.6704,-0.0009,0.0007,9.8067,-0.0149,-0.0032,0.0053,-28.65,8.32,3.11,195.89,7.45,1.71
235,51.819317,-2.223346,109,0.0,9,346.9,14 / 25,23523,2019-08-16 12:49:37:303,-0.0538,0.0205,9.6339,0.002,-0.0005,9.8067,0.0096,-0.0181,-0.0032,-28.65,8.32,3.11,195.89,7.45,1.71
236,51.819317,-2.223346,109,0.0,9,346.9,14 / 25,23624,2019-08-16 12:49:37:404,0.135,0.1078,10.0077,0.0009,0.0003,9.8066,-0.0021,0.0032,0.0011,-28.77,8.18,2.36,195.77,7.44,1.7
237,51.819317,-2.223346,109,0.0,9,346.9,14 / 25,23725,2019-08-16 12:49:37:505,-0.0802,-0.14,9.7169,0.0004,0.0012,9.8067,-0.0021,0.0277,-0.0011,-28.53,9.08,1.82,197.61,7.45,1.7
238,51.819317,-2.223346,109,0.0,9,346.9,14 / 25,23823,2019-08-16 12:49:37:603,0.0223,-0.0158,9.607,-0.0009,0.0009,9.8067,0.0075,-0.0288,-0.0011,-28.53,9.08,1.82,197.61,7.45,1.7
239,51.819317,-2.223346,109,0.0,9,346.9,14 / 25,23923,2019-08-16 12:49:37:703,0.0165,-0.0528,10.0311,-0.0009,0.0009,9.8067,0.0021,-0.0192,0.0011,-28.92,7.96,0.39,195.52,7.44,1.7
240,51.819317,-2.223346,109,0.0,9,346.9,14 / 25,24023,2019-08-16 12:49:37:803,0.0428,-0.0429,9.6145,0.0035,0.0021,9.8066,0.0043,0.0107,-0.0064,-28.92,7.79,1.71,195.77,7.44,1.71
241,51.819317,-2.223346,109,0.0,9,346.9,14 / 25,24124,2019-08-16 12:49:37:904,0.0099,-0.1274,10.0338,0.0004,0.0,9.8067,0.0043,0.0107,-0.0064,-28.66,8.51,2.45,197.61,7.44,1.71
242,51.819317,-2.223346,109,0.0,9,346.9,14 / 25,24223,2019-08-16 12:49:38:003,0.0487,0.018,9.8088,-0.0005,0.0018,9.8066,-0.0032,0.0234,0.0021,-28.49,9.07,2.44,197.61,7.44,1.71
243,51.819317,-2.223346,109,0.0,9,346.9,14 / 25,24322,2019-08-16 12:49:38:102,-0.0997,-0.075,10.0168,0.0025,0.0025,9.8066,-0.0011,-0.0096,-0.0011,-28.49,9.07,2.44,197.61,7.44,1.71
244,51.819317,-2.223346,109,0.0,9,346.9,14 / 25,24423,2019-08-16 12:49:38:203,0.0097,0.0202,9.66,-0.0013,-0.0009,9.8066,0.0085,-0.033,0.0,-28.82,7.93,2.57,195.89,7.43,1.71
245,51.819317,-2.223346,109,0.0,9,346.9,14 / 25,24523,2019-08-16 12:49:38:303,0.0234,0.0765,9.9943,-0.0006,-0.0002,9.8067,-0.0085,0.0288,0.0021,-28.47,9.27,1.86,198.2,7.45,1.71
246,51.819317,-2.223346,109,0.0,9,346.9,14 / 25,24623,2019-08-16 12:49:38:403,0.0031,0.0899,9.69,-0.0025,-0.0011,9.8067,0.0,0.0096,-0.0011,-28.47,9.27,1.86,198.2,7.45,1.71
247,51.819317,-2.223346,109,0.0,9,346.9,14 / 25,24723,2019-08-16 12:49:38:503,-0.1176,-0.1687,9.6845,0.0032,0.0024,9.8067,-0.0021,-0.017,0.0,-28.61,8.68,2.5,197.74,7.44,1.71
248,51.819317,-2.223346,109,0.0,9,346.9,14 / 24,24823,2019-08-16 12:49:38:603,0.0261,0.0422,9.7553,-0.0014,-0.0004,9.8066,-0.0085,0.0224,0.0021,-28.74,8.53,1.11,197.48,7.46,1.72
249,51.819317,-2.223346,109,0.0,9,346.9,14 / 24,24924,2019-08-16 12:49:38:704,-0.0986,-0.0009,9.572,-0.0013,0.0002,9.8066,0.0043,0.0224,-0.0021,-28.74,8.53,1.11,197.48,7.46,1.72
250,51.819317,-2.223346,109,0.0,9,346.9,14 / 24,25023,2019-08-16 12:49:38:803,0.0661,0.1319,9.9111,0.0012,-0.0001,9.8067,0.0043,0.0224,-0.0021,-28.66,8.5,2.56,197.74,7.45,1.72
251,51.819317,-2.223346,109,0.0,9,346.9,14 / 24,25123,2019-08-16 12:49:38:903,-0.1045,0.0019,9.9752,-0.001,-0.0006,9.8067,-0.0064,-0.0064,0.0032,-28.43,9.25,2.49,197.74,7.45,1.72
252,51.819317,-2.223346,109,0.0,9,346.9,14 / 24,25223,2019-08-16 12:49:39:003,-0.0329,-0.0041,9.6187,0.0031,0.001,9.8066,-0.0011,0.0011,0.0011,-28.43,9.05,3.15,198.34,7.44,1.72
253,51.819317,-2.223346,109,0.0,9,346.9,14 / 24,25323,2019-08-16 12:49:39:103,0.0902,0.0159,9.9865,0.0008,-0.0015,9.8067,0.0,-0.0011,-0.0011,-28.47,9.27,1.86,198.2,7.45,1.71
254,51.819317,-2.223346,109,0.0,9,346.9,14 / 24,25425,2019-08-16 12:49:39:205,0.0528,-0.0173,9.596,0.0,0.0003,9.8067,0.0064,0.0,-0.0021,-28.47,9.27,1.86,198.2,7.45,1.71
255,51.819317,-2.223346,109,0.0,9,346.9,14 / 24,25523,2019-08-16 12:49:39:303,0.0133,-0.0974,10.0249,-0.0003,0.0003,9.8067,-0.0096,0.032,0.0032,-28.65,8.69,1.87,197.61,7.47,1.71
256,51.819317,-2.223346,109,0.0,9,346.9,14 / 24,25624,2019-08-16 12:49:39:404,0.0643,-0.0675,9.5599,-0.0025,-0.0011,9.8067,-0.0032,-0.0266,0.0021,-28.48,9.07,2.54,198.34,7.46,1.72
257,51.819317,-2.223346,109,0.0,9,346.9,14 / 24,25723,2019-08-16 12:49:39:503,0.0024,-0.0822,9.5081,0.0008,-0.0002,9.8067,-0.0032,-0.0266,0.0021,-28.48,9.07,2.54,198.34,7.46,1.72
258,51.819317,-2.223346,109,0.0,9,346.9,14 / 25,25824,2019-08-16 12:49:39:604,0.1653,0.0838,9.8622,-0.0018,-0.0003,9.8067,0.0138,-0.0192,-0.0032,-28.65,8.69,1.87,197.61,7.47,1.71
259,51.819317,-2.223346,109,0.0,9,346.9,14 / 25,25923,2019-08-16 12:49:39:703,-0.052,-0.1057,9.9602,-0.0017,-0.0007,9.8067,-0.0064,0.0149,0.0011,-28.9,7.95,1.22,197.61,7.47,1.71
260,51.819317,-2.223346,109,0.0,9,346.9,14 / 25,26023,2019-08-16 12:49:39:803,0.007,-0.0604,9.638,0.0026,0.0008,9.8067,-0.0053,-0.0202,0.0021,-28.56,9.09,1.21,197.48,7.48,1.71
261,51.819317,-2.223346,109,0.0,9,346.9,14 / 25,26122,2019-08-16 12:49:39:902,0.1109,0.1366,10.0941,-0.0035,-0.0018,9.8066,0.0032,0.017,-0.0032,-28.74,8.53,1.11,197.48,7.48,1.71
262,51.819317,-2.223346,109,0.0,9,346.9,14 / 25,26223,2019-08-16 12:49:40:003,-0.1203,0.0114,9.7272,-0.0032,-0.0005,9.8066,-0.0117,0.0298,0.0021,-28.74,8.53,1.22,197.48,7.47,1.72
263,51.819317,-2.223346,109,0.0,9,346.9,14 / 25,26323,2019-08-16 12:49:40:103,-0.0143,0.0915,9.8085,0.0025,0.0014,9.8067,-0.0032,0.0011,0.0011,-28.74,8.53,1.22,197.48,7.47,1.72
264,51.819317,-2.223346,109,0.0,9,346.9,14 / 25,26423,2019-08-16 12:49:40:203,-0.0472,0.0584,10.1792,0.0023,0.0019,9.8066,0.0096,-0.0032,-0.0043,-28.56,9.09,1.21,197.48,7.47,1.72
265,51.819317,-2.223346,109,0.0,9,346.9,14 / 25,26523,2019-08-16 12:49:40:303,-0.0739,0.0133,10.0917,0.001,0.0013,9.8067,0.0096,-0.0032,-0.0043,-28.76,8.53,0.49,197.48,7.47,1.72
266,51.819317,-2.223346,109,0.0,9,346.9,14 / 25,26623,2019-08-16 12:49:40:403,-0.0227,0.0398,9.7238,0.0018,0.0019,9.8067,-0.0064,0.0245,0.0021,-28.76,8.53,0.49,197.48,7.47,1.72
267,51.819317,-2.223346,109,0.0,9,346.9,14 / 25,26722,2019-08-16 12:49:40:502,0.1102,0.0841,9.9897,0.0014,-0.0002,9.8067,0.0021,0.0043,0.0,-28.65,8.69,1.87,197.61,7.48,1.72
268,51.819317,-2.223346,109,0.0,9,346.9,14 / 25,26823,2019-08-16 12:49:40:603,-0.0659,0.0012,9.6858,-0.0012,-0.0011,9.8067,0.0117,-0.0107,-0.0032,-28.31,9.84,1.22,199.92,7.47,1.72
269,51.819317,-2.223346,109,0.0,9,346.9,14 / 25,26923,2019-08-16 12:49:40:703,0.0835,0.1515,10.0431,-0.0005,0.0002,9.8067,-0.0085,0.0245,0.0032,-28.53,9.08,1.82,199.92,7.47,1.72
270,51.819317,-2.223346,109,0.0,9,346.9,14 / 25,27023,2019-08-16 12:49:40:803,-0.0648,-0.1089,9.6723,0.0004,-0.0003,9.8067,-0.0053,-0.0192,0.0021,-28.56,9.09,1.21,197.48,7.47,1.72
271,51.819317,-2.223346,109,0.0,9,346.9,14 / 25,27123,2019-08-16 12:49:40:903,0.0425,-0.0386,9.5541,-0.0026,-0.0015,9.8067,0.0107,-0.0181,-0.0021,-28.56,9.09,1.21,197.48,7.47,1.72
272,51.819317,-2.223346,109,0.0,9,346.9,14 / 25,27223,2019-08-16 12:49:41:003,0.03,-0.0543,10.0921,-0.0001,0.0009,9.8067,-0.0064,0.0181,0.0,-28.54,8.89,2.49,197.61,7.47,1.72
273,51.819317,-2.223346,109,0.0,9,346.9,14 / 25,27323,2019-08-16 12:49:41:103,-0.0695,-0.044,9.5732,-0.0021,-0.0008,9.8067,-0.0064,0.0181,0.0,-28.79,8.36,1.19,195.65,7.48,1.73
274,51.819317,-2.223346,109,0.0,9,346.9,14 / 25,27423,2019-08-16 12:49:41:203,-0.1532,-0.0607,10.0702,0.0023,0.002,9.8067,0.0011,-0.0107,-0.0032,-28.74,8.53,1.11,197.48,7.46,1.73
275,51.819317,-2.223346,109,0.0,9,346.9,14 / 25,27523,2019-08-16 12:49:41:303,-0.1571,0.0502,9.6527,-0.0019,0.0004,9.8067,0.0032,-0.0362,0.0011,-28.74,8.53,1.11,197.48,7.46,1.73
276,51.819317,-2.223346,109,0.0,9,346.9,14 / 25,27623,2019-08-16 12:49:41:403,0.0293,0.1052,9.988,0.0024,0.001,9.8067,-0.0021,0.0288,0.0011,-28.38,9.65,1.2,199.91,7.45,1.73
277,51.819317,-2.223346,109,0.0,9,346.9,14 / 25,27722,2019-08-16 12:49:41:502,-0.0376,0.0245,9.6992,0.0039,0.0005,9.8066,0.0011,0.0128,-0.0011,-28.56,9.09,1.21,199.91,7.45,1.73
278,51.819317,-2.223346,109,0.0,9,346.9,14 / 25,27823,2019-08-16 12:49:41:603,0.0302,0.085,9.8817,0.0018,-0.0005,9.8067,0.0107,-0.0128,-0.0011,-28.58,9.1,0.49,197.35,7.46,1.72
279,51.819317,-2.223346,109,0.0,9,346.9,14 / 25,27923,2019-08-16 12:49:41:703,-0.0549,0.0012,9.5869,0.0003,-0.0004,9.8067,-0.0085,0.0192,0.0021,-28.58,9.1,0.49,197.35,7.46,1.72
280,51.819317,-2.223346,109,0.0,9,346.9,14 / 25,28023,2019-08-16 12:49:41:803,-0.0946,0.0108,9.5916,0.0022,-0.0002,9.8067,0.0032,0.0245,-0.0021,-28.5,9.28,1.23,197.48,7.46,1.72
281,51.819317,-2.223346,109,0.0,9,346.9,14 / 25,28123,2019-08-16 12:49:41:903,0.1053,0.1686,10.0236,0.0,0.0006,9.8066,0.0032,0.0245,-0.0021,-28.56,9.09,1.21,197.48,7.46,1.72
282,51.819317,-2.223346,109,0.0,9,346.9,14 / 25,28223,2019-08-16 12:49:42:003,0.0845,-0.0441,9.8078,0.0022,0.0024,9.8066,0.0075,-0.032,-0.0021,-28.77,8.09,2.62,195.9,7.48,1.73
283,51.819317,-2.223346,109,0.0,9,346.9,14 / 25,28323,2019-08-16 12:49:42:103,0.0873,0.1184,10.056,-0.0003,0.0,9.8067,-0.0011,-0.0043,0.0,-28.62,8.92,1.18,197.48,7.47,1.72
284,51.819317,-2.223346,109,0.0,9,346.9,14 / 25,28423,2019-08-16 12:49:42:203,-0.1284,0.0123,9.8259,0.0027,0.0004,9.8067,0.0075,0.0181,-0.0032,-28.35,9.64,1.91,197.48,7.47,1.72
285,51.819317,-2.223346,109,0.0,9,346.9,14 / 25,28522,2019-08-16 12:49:42:302,0.0197,0.1006,10.0188,0.0003,-0.0032,9.8067,-0.0085,0.0096,0.0032,-28.35,9.64,1.91,197.48,7.47,1.72
286,51.819317,-2.223346,109,0.0,9,346.9,14 / 25,28623,2019-08-16 12:49:42:403,0.0276,0.0757,9.8551,0.0031,-0.0017,9.8066,-0.0032,-0.0139,0.0011,-28.67,8.75,1.16,197.48,7.47,1.7
287,51.819317,-2.223346,109,0.0,9,346.9,14 / 25,28723,2019-08-16 12:49:42:503,-0.1614,-0.1119,9.9231,0.0019,-0.003,9.8067,0.0053,-0.0053,-0.0032,-28.46,9.47,0.58,198.07,7.48,1.68
288,51.819317,-2.223346,109,0.0,9,346.9,13 / 25,28823,2019-08-16 12:49:42:603,0.0538,0.1097,9.9635,0.0023,-0.0061,9.8066,-0.0138,0.032,0.0032,-28.46,9.47,0.58,198.07,7.48,1.68
289,51.819317,-2.223346,109,0.0,9,346.9,13 / 25,28924,2019-08-16 12:49:42:704,-0.0157,0.0632,9.7903,-0.0001,0.0002,9.8067,-0.0011,0.0181,-0.0011,-28.41,9.65,-0.12,199.78,7.48,1.64
290,51.819317,-2.223346,109,0.0,9,346.9,13 / 25,29024,2019-08-16 12:49:42:804,-0.2213,-0.0484,10.0492,0.0024,0.0038,9.8067,-0.0043,0.0245,-0.0011,-27.98,10.76,1.13,199.78,7.48,1.64
291,51.819317,-2.223346,109,0.0,9,346.9,13 / 25,29122,2019-08-16 12:49:42:902,-0.0688,0.0322,9.8114,-0.0034,-0.0013,9.8066,-0.0043,0.0245,-0.0011,-28.02,10.56,1.78,201.87,7.5,1.66
292,51.819317,-2.223346,109,0.0,9,346.9,13 / 25,29223,2019-08-16 12:49:43:003,-0.086,0.0066,10.0727,-0.0033,-0.0019,9.8066,-0.0021,0.0149,0.0,-28.45,9.47,1.11,201.87,7.5,1.66
293,51.819317,-2.223346,109,0.0,9,346.9,13 / 25,29323,2019-08-16 12:49:43:103,-0.0702,0.0434,9.7354,0.0009,0.0001,9.8066,-0.0043,-0.0053,0.0032,-28.64,8.74,1.85,197.61,7.49,1.66
294,51.819317,-2.223346,109,0.0,9,346.9,13 / 25,29424,2019-08-16 12:49:43:204,-0.1498,-0.0323,10.0803,0.0003,0.0005,9.8067,-0.0096,-0.0075,0.0043,-28.64,8.74,1.85,197.61,7.49,1.66
295,51.819317,-2.223346,109,0.0,9,346.9,13 / 25,29523,2019-08-16 12:49:43:303,-0.0622,0.0416,9.669,-0.0014,0.0003,9.8067,0.0107,0.0,-0.0043,-28.62,8.92,1.18,197.48,7.49,1.67
296,51.819317,-2.223346,109,0.0,9,346.9,13 / 25,29623,2019-08-16 12:49:43:403,0.0375,-0.0046,9.721,0.0007,-0.0013,9.8067,-0.0107,0.0064,0.0011,-28.62,8.92,1.18,197.48,7.49,1.67
297,51.819317,-2.223346,109,0.0,9,346.9,13 / 25,29722,2019-08-16 12:49:43:502,0.0515,-0.1552,10.0054,-0.002,-0.0142,9.8066,-0.0032,0.0043,-0.0011,-28.62,8.92,1.18,197.48,7.45,1.59
298,51.819317,-2.223346,109,0.0,9,346.9,13 / 25,29823,2019-08-16 12:49:43:603,-0.2453,0.0558,10.056,-0.018,0.0003,9.8066,-0.0032,0.0043,-0.0011,-28.62,8.92,1.18,197.48,7.45,1.59
299,51.819317,-2.223346,109,0.0,9,346.9,13 / 25,29923,2019-08-16 12:49:43:703,-0.0289,0.1303,9.6551,-0.0228,-0.0086,9.8066,-0.0021,-0.0043,-0.0064,-28.64,8.92,0.48,197.35,7.35,1.63
300,51.819317,-2.223346,109,0.0,9,346.9,13 / 25,30023,2019-08-16 12:49:43:803,-0.1083,-0.1197,10.102,-0.0342,-0.012,9.8066,0.0053,-0.0213,-0.0011,-28.59,9.1,-0.13,197.35,7.35,1.63
301,51.819317,-2.223346,109,0.0,9,346.9,13 / 25,30123,2019-08-16 12:49:43:903,-0.1235,-0.1193,9.5333,-0.0531,-0.0148,9.8065,0.017,-0.0224,-0.0075,-28.46,9.47,-0.13,197.92,7.03,1.64
302,51.819317,-2.223346,109,0.0,9,346.9,13 / 25,30223,2019-08-16 12:49:44:003,-0.2695,-0.1636,9.5081,-0.0126,-0.0019,9.8066,0.0096,-0.0256,-0.0117,-28.33,9.82,-0.81,199.63,6.95,1.65
303,51.819317,-2.223346,109,0.0,9,346.9,13 / 25,30323,2019-08-16 12:49:44:103,-0.0281,-0.0122,9.9795,-0.0224,-0.0118,9.8066,0.0,0.016,-0.0138,-28.33,9.82,-0.81,199.63,6.95,1.65
304,51.819317,-2.223346,109,0.0,9,346.9,13 / 25,30424,2019-08-16 12:49:44:204,-0.1573,-0.1541,9.59,-0.0031,-0.0086,9.8066,-0.0138,0.0213,-0.0107,-28.57,9.1,-0.85,197.21,6.81,1.63
305,51.819317,-2.223346,109,0.0,9,346.9,13 / 25,30523,2019-08-16 12:49:44:303,-0.0106,-0.1421,9.9519,-0.0145,-0.0255,9.8066,0.0117,-0.0224,-0.0224,-28.36,9.64,-1.56,199.5,6.68,1.51
306,51.819317,-2.223346,109,0.0,9,346.9,13 / 25,30623,2019-08-16 12:49:44:403,-0.1568,-0.2751,9.6359,-0.0078,-0.0091,9.8066,0.0117,-0.0224,-0.0224,-28.36,9.64,-1.56,199.5,6.68,1.51
307,51.819317,-2.223346,109,0.0,9,346.9,13 / 25,30723,2019-08-16 12:49:44:503,-0.0944,-0.0593,9.7391,-0.0254,-0.0186,9.8066,0.0021,-0.0117,-0.0213,-28.51,9.29,-0.82,197.22,6.51,1.46
308,51.819317,-2.223346,109,0.0,9,346.9,Dec-25,30822,2019-08-16 12:49:44:602,-0.2249,-0.1937,9.9098,-0.0132,-0.0079,9.8066,-0.0011,0.0138,-0.0298,-28.51,9.29,-0.82,197.22,6.51,1.46
309,51.819317,-2.223346,109,0.0,9,346.9,Dec-25,30923,2019-08-16 12:49:44:703,-0.2238,-0.1134,9.488,-0.0162,-0.0106,9.8066,-0.0021,-0.0064,-0.0277,-28.39,9.65,-0.85,199.63,6.42,1.44
310,51.819317,-2.223346,109,0.0,9,346.9,Dec-25,31023,2019-08-16 12:49:44:803,-0.1455,-0.1818,9.9564,-0.0299,-0.0274,9.8066,-0.0021,0.0,-0.0415,-28.45,9.47,-0.93,197.79,6.2,1.34
311,51.819317,-2.223346,109,0.0,9,346.9,Dec-25,31123,2019-08-16 12:49:44:903,-0.3762,-0.0766,9.8599,-0.0081,-0.014,9.8066,-0.0053,0.016,-0.049,-28.52,9.29,0.47,197.32,6.13,1.28
312,51.819317,-2.223346,109,0.0,9,346.9,Dec-25,31224,2019-08-16 12:49:45:004,-0.3207,-0.0599,9.8281,-0.0324,-0.0341,9.8065,0.0181,0.0064,-0.065,-28.52,9.29,0.47,197.32,6.13,1.28
313,51.819317,-2.223346,109,0.0,9,346.9,Dec-25,31323,2019-08-16 12:49:45:103,-0.2329,-0.0252,9.9878,-0.0102,-0.0144,9.8066,0.0053,-0.0021,-0.066,-28.46,9.47,0.47,197.89,5.89,1.14
314,51.819317,-2.223346,109,0.0,9,346.9,Dec-25,31423,2019-08-16 12:49:45:203,-0.0985,-0.2466,10.0423,-0.0112,-0.0271,9.8066,0.0053,-0.0021,-0.066,-28.21,10.2,0.48,199.73,5.81,1.08
315,51.819317,-2.223346,109,0.0,9,346.9,Dec-25,31522,2019-08-16 12:49:45:302,0.0135,-0.4642,9.4257,-0.0264,-0.0497,9.8065,0.0181,-0.017,-0.0906,-28.27,10.01,-0.83,199.64,5.56,0.86
316,51.819317,-2.223346,109,0.0,9,346.9,Dec-25,31623,2019-08-16 12:49:45:403,-0.3417,-0.0656,9.8225,-0.0133,-0.0162,9.8066,0.016,-0.0139,-0.1023,-28.27,10.01,-0.83,199.64,5.56,0.86
317,51.819317,-2.223346,109,0.0,9,346.9,Dec-25,31723,2019-08-16 12:49:45:503,0.0748,-0.0282,10.0374,-0.0056,-0.0309,9.8066,-0.0234,0.0256,-0.1001,-28.09,10.54,-0.13,201.52,5.46,0.8
318,51.819317,-2.223346,109,0.0,9,346.9,Dec-25,31823,2019-08-16 12:49:45:603,0.1442,-0.5645,9.6382,-0.0095,-0.0571,9.8065,0.0075,-0.0064,-0.1151,-27.9,10.96,1.15,201.6,5.28,0.51
319,51.819317,-2.223346,109,0.0,9,346.9,Dec-25,31922,2019-08-16 12:49:45:702,0.2256,-0.2764,9.8123,-0.0081,-0.0252,9.8066,0.0192,0.0234,-0.1619,-27.71,11.47,0.58,201.6,5.19,0.39
320,51.819317,-2.223346,109,0.0,9,346.9,Dec-25,32023,2019-08-16 12:49:45:803,0.1951,-0.3016,9.7774,-0.0084,-0.0637,9.8064,0.0085,0.0245,-0.1832,-27.71,11.47,0.58,201.6,5.19,0.39
321,51.819317,-2.223346,109,0.0,9,346.9,Dec-25,32124,2019-08-16 12:49:45:904,-0.2601,-0.257,9.5977,0.0002,-0.0376,9.8066,0.0117,-0.0064,-0.1598,-27.52,11.9,1.19,203.34,5.0,0.06
322,51.819317,-2.223346,109,0.0,9,346.9,Dec-25,32223,2019-08-16 12:49:46:003,-0.5322,-0.0431,9.821,-0.0064,-0.072,9.8064,0.0117,-0.0064,-0.1598,-27.66,11.61,-0.13,203.34,5.0,0.06
323,51.819317,-2.223346,109,0.0,9,346.9,Dec-25,32322,2019-08-16 12:49:46:102,0.4138,-0.4652,9.8289,-0.0003,-0.126,9.8058,-0.0128,-0.0202,-0.2131,-27.66,11.61,-0.13,203.34,5.0,0.06
324,51.819317,-2.223346,109,0.0,9,346.9,Dec-25,32423,2019-08-16 12:49:46:203,0.1212,-0.4331,9.862,-0.0054,-0.0259,9.8066,0.0373,0.0117,-0.2109,-27.09,12.88,0.73,205.84,4.71,-0.62
325,51.819317,-2.223346,109,0.0,9,346.9,Dec-25,32523,2019-08-16 12:49:46:303,0.0933,0.0084,10.0392,-0.0139,-0.0388,9.8066,0.0309,-0.0181,-0.244,-27.15,12.7,1.18,205.84,4.71,-0.62
326,51.819317,-2.223346,109,0.0,9,346.9,Dec-25,32623,2019-08-16 12:49:46:403,0.4015,-0.3109,9.7214,-0.0209,-0.0661,9.8064,0.0202,0.0309,-0.2653,-26.47,14.11,0.6,208.43,4.43,-0.92
327,51.819317,-2.223346,109,0.0,9,346.9,Dec-25,32723,2019-08-16 12:49:46:503,0.2866,0.1596,9.8038,-0.006,-0.0162,9.8066,0.0192,-0.0362,-0.2674,-25.92,15.1,0.61,208.43,4.43,-0.92
328,51.819317,-2.223346,109,0.0,9,346.9,Dec-25,32823,2019-08-16 12:49:46:603,-0.2328,-0.2756,10.3624,-0.0083,-0.039,9.8066,0.0075,-0.017,-0.2866,-25.92,15.1,0.61,208.43,4.43,-0.92
329,51.819317,-2.223346,109,0.0,9,346.9,Dec-25,32924,2019-08-16 12:49:46:704,-0.1272,-0.2758,10.8079,0.0078,-0.0318,9.8066,0.0075,-0.017,-0.2866,-24.94,16.62,1.32,214.36,4.28,-1.09
330,51.819317,-2.223346,109,0.0,9,346.9,Dec-25,33023,2019-08-16 12:49:46:803,0.664,0.1477,8.5762,0.0273,-0.1043,9.8061,0.0107,0.0405,-0.294,-25.06,16.49,-0.22,214.36,4.28,-1.09
331,51.819317,-2.223346,109,0.0,9,346.9,Dec-25,33123,2019-08-16 12:49:46:903,0.7014,0.0971,8.551,0.0015,-0.0276,9.8066,0.017,0.0352,-0.3292,-24.05,17.93,0.42,216.97,4.07,-1.69
332,51.819317,-2.223346,109,0.0,9,346.9,Dec-25,33223,2019-08-16 12:49:47:003,0.4574,0.0155,8.7223,0.0062,-0.0303,9.8066,0.0075,-0.0096,-0.3196,-23.82,18.23,-0.55,216.94,3.98,-1.82
333,51.819317,-2.223346,109,0.0,9,346.9,Dec-25,33323,2019-08-16 12:49:47:103,0.3413,0.4204,8.9525,0.0148,-0.052,9.8065,0.0043,-0.0256,-0.3281,-22.75,19.55,-0.65,221.09,3.87,-2.12
334,51.819317,-2.223346,109,0.0,9,346.9,Dec-25,33424,2019-08-16 12:49:47:204,0.598,0.217,8.4089,0.0123,-0.0124,9.8066,0.0234,0.0245,-0.3494,-22.75,19.55,-0.65,221.09,3.87,-2.12
335,51.819317,-2.223346,109,0.0,9,346.9,Dec-25,33523,2019-08-16 12:49:47:303,0.5318,0.3245,8.6238,0.0086,-0.0175,9.8066,0.0192,0.0533,-0.3665,-22.21,20.15,0.71,222.42,3.87,-2.22
