,GPS LATITUDE (degrees), GPS LONGITUDE (degrees), GPS ALTITUDE (m), GPS SPEED (Kmh), GPS ACCURACY (m), GPS ORIENTATION (Â°),GPS SATELLITES IN RANGE, TIME SINCE START (ms), DATE (YYYY-MO-DD HH-MI-SS_SSS), ACCELEROMETER X (m/s²) , ACCELEROMETER Y (m/s²), ACCELEROMETER Z (m/s²), GRAVITY X (m/s²), GRAVITY Y (m/s²), GRAVITY Z (m/s²), GYROSCOPE Yaw (rad/s), GYROSCOPE Pitch (rad/s), GYROSCOPE Roll (rad/s), MAGNETIC FIELD X (Î¼T), MAGNETIC FIELD Y (Î¼T), MAGNETIC FIELD Z (Î¼T), ORIENTATION (Yaw) (Â°), ORIENTATION (Pitch) (Â°), ORIENTATION (Roll ) (Â°)
15791,50.757637,-3.456638,71,25.8,10.0,170.1,Oct-21,1579240,2019-08-17 07:46:48:607,-0.0013,-0.0477,9.4413,-0.0018,-0.0252,9.8066,0.017,0.0035,-0.015,-28.85,1.49,-8.11,182.79,2.82,-3.1
15792,50.757637,-3.456638,71,25.8,10.0,170.1,Oct-21,1579340,2019-08-17 07:46:48:707,0.3561,-0.0052,10.0601,-0.0004,-0.0101,9.8066,-0.0064,-0.0039,-0.0096,-28.85,1.49,-8.11,182.79,2.82,-3.1
15793,50.757637,-3.456638,71,25.8,10.0,170.1,Oct-21,1579439,2019-08-17 07:46:48:806,-0.1563,0.383,11.4264,-0.0036,0.0187,9.8066,-0.017,0.0248,0.0,-28.82,2.32,-8.0,184.75,2.81,-3.16
15794,50.757637,-3.456638,71,25.8,10.0,170.1,Oct-21,1579540,2019-08-17 07:46:48:907,-0.3867,0.3657,10.6438,-0.0336,0.0124,9.8066,0.0107,-0.0007,0.0042,-29.48,1.52,-5.35,184.43,2.8,-3.05
15795,50.7574,-3.456583,70,25.77,10.0,170.7,Oct-21,1579640,2019-08-17 07:46:49:007,0.0001,0.1651,9.337,-0.0596,0.0301,9.8064,-0.0043,0.0152,-0.0054,-29.12,1.46,-7.05,182.63,2.46,-2.85
15796,50.7574,-3.456583,70,25.77,10.0,170.7,Oct-21,1579740,2019-08-17 07:46:49:107,0.0094,0.1308,9.9687,-0.0086,0.015,9.8066,0.0011,0.0078,0.0085,-29.12,1.46,-7.05,182.63,2.46,-2.85
15797,50.7574,-3.456583,70,25.77,10.0,170.7,Oct-21,1579839,2019-08-17 07:46:49:206,-0.2101,0.0932,9.4908,0.0178,0.0083,9.8066,-0.0053,0.0088,0.0021,-29.48,2.38,-5.04,184.39,2.42,-2.76
15798,50.7574,-3.456583,70,25.77,10.0,170.7,Oct-21,1579939,2019-08-17 07:46:49:306,-0.0122,-0.0791,9.0984,0.0311,0.0068,9.8066,-0.0053,0.0088,0.0021,-29.54,1.48,-5.05,182.35,2.6,-2.73
15799,50.7574,-3.456583,70,25.77,10.0,170.7,Oct-21,1580040,2019-08-17 07:46:49:407,-0.2457,-0.2497,9.8552,-0.0045,-0.0142,9.8066,-0.0245,0.0461,0.0106,-29.54,1.48,-5.05,182.35,2.6,-2.73
15800,50.7574,-3.456583,70,25.77,10.0,170.7,Oct-21,1580139,2019-08-17 07:46:49:506,0.101,0.0247,10.3089,0.0066,-0.0036,9.8066,-0.0011,0.0046,0.0074,-29.4,3.27,-5.02,186.34,2.57,-2.81
15801,50.7574,-3.456583,70,25.77,10.0,170.7,Oct-21,1580239,2019-08-17 07:46:49:606,0.1748,0.1264,10.1687,0.0034,0.0122,9.8066,0.0138,-0.0061,-0.015,-29.35,1.47,-6.06,182.51,2.7,-2.71
15802,50.7574,-3.456583,70,25.77,10.0,170.7,Oct-21,1580339,2019-08-17 07:46:49:706,0.0673,0.2818,9.8705,-0.0172,0.0066,9.8066,-0.0107,-0.0135,-0.0075,-29.38,1.43,-5.89,182.5,2.72,-2.64
15803,50.7574,-3.456583,70,25.77,10.0,170.7,Oct-21,1580439,2019-08-17 07:46:49:806,-0.2559,0.347,10.0838,-0.04,0.0035,9.8066,-0.0075,0.0099,0.001,-29.38,1.43,-5.89,182.5,2.72,-2.64
15804,50.7574,-3.456583,70,25.77,10.0,170.7,Oct-21,1580541,2019-08-17 07:46:49:908,-0.1347,0.3036,9.7389,0.0135,0.009,9.8066,0.0043,-0.0391,0.0032,-29.29,2.36,-6.05,184.44,2.49,-2.61
15805,50.75717,-3.456525,69,25.75,9.0,171.1,Oct-21,1580640,2019-08-17 07:46:50:007,0.0403,0.3719,10.0546,0.0363,0.0215,9.8066,-0.0085,-0.0231,-0.0032,-29.38,1.43,-5.89,184.44,2.49,-2.61
15806,50.75717,-3.456525,69,25.75,9.0,171.1,Oct-21,1580739,2019-08-17 07:46:50:106,0.4626,-0.1589,9.1373,0.004,-0.0022,9.8066,-0.0085,-0.0231,-0.0032,-29.11,1.5,-7.11,184.5,2.71,-2.5
15807,50.75717,-3.456525,69,25.75,9.0,171.1,Oct-21,1580840,2019-08-17 07:46:50:207,0.1521,0.159,9.3831,0.0046,-0.0141,9.8066,0.0011,0.0632,-0.0011,-28.79,2.39,-8.09,184.6,2.73,-2.58
15808,50.75717,-3.456525,69,25.75,9.0,171.1,Oct-21,1580940,2019-08-17 07:46:50:307,0.1653,-0.2234,9.4811,0.011,-0.0059,9.8066,-0.0224,0.0493,0.0021,-28.85,1.49,-8.11,182.66,2.79,-2.62
15809,50.75717,-3.456525,69,25.75,9.0,171.1,Oct-21,1581039,2019-08-17 07:46:50:406,-0.2851,0.3509,9.8025,0.0054,-0.0036,9.8066,0.0053,0.0536,0.0021,-28.85,1.49,-8.11,182.66,2.79,-2.62
15810,50.75717,-3.456525,69,25.75,9.0,171.1,Oct-21,1581139,2019-08-17 07:46:50:506,-0.3102,0.4017,10.0533,-0.0228,0.0114,9.8066,0.0256,0.06,-0.0011,-28.31,0.72,-9.89,182.91,2.66,-2.55
15811,50.75717,-3.456525,69,25.75,9.0,171.1,Oct-21,1581239,2019-08-17 07:46:50:606,-0.2851,0.1077,9.745,-0.0139,0.008,9.8066,-0.0032,-0.0583,0.017,-29.15,1.61,-6.91,184.47,2.46,-2.36
15812,50.75717,-3.456525,69,25.75,9.0,171.1,Oct-21,1581339,2019-08-17 07:46:50:706,-0.1743,0.3522,10.5817,-0.0059,0.0227,9.8066,0.0213,0.0078,-0.0032,-29.15,1.61,-6.91,184.47,2.46,-2.36
15813,50.75717,-3.456525,69,25.75,9.0,171.1,Oct-21,1581439,2019-08-17 07:46:50:806,0.1213,-0.1441,9.594,0.0111,0.003,9.8066,-0.0021,-0.0018,-0.0064,-28.59,1.63,-8.94,184.57,2.44,-2.23
15814,50.75717,-3.456525,69,25.75,9.0,171.1,Oct-21,1581541,2019-08-17 07:46:50:908,0.2343,0.1333,9.5109,0.0278,-0.0012,9.8066,-0.0021,-0.0018,-0.0064,-28.79,2.39,-8.09,184.51,2.6,-2.25
15815,50.75694,-3.456468,69,25.72,9.0,171.5,Oct-21,1581639,2019-08-17 07:46:51:006,0.235,-0.014,9.6697,0.026,-0.0101,9.8066,-0.0181,-0.0082,0.0064,-28.79,2.39,-8.09,184.51,2.6,-2.25
15816,50.75694,-3.456468,69,25.72,9.0,171.5,Oct-21,1581739,2019-08-17 07:46:51:106,0.0058,-0.0224,9.8453,0.0107,-0.0085,9.8066,-0.0032,-0.0029,-0.0086,-28.78,3.2,-7.84,186.46,2.75,-2.32
15817,50.75694,-3.456468,69,25.72,9.0,171.5,Oct-21,1581839,2019-08-17 07:46:51:206,0.0496,0.0279,10.0518,0.0063,-0.0178,9.8066,0.0075,0.0035,0.0138,-28.79,2.39,-8.09,184.55,2.77,-2.43
15818,50.75694,-3.456468,69,25.72,9.0,171.5,Oct-21,1581940,2019-08-17 07:46:51:307,-0.0551,0.2032,10.4171,-0.0224,-0.0034,9.8066,-0.0011,0.0568,-0.0032,-28.79,2.39,-8.09,184.55,2.77,-2.43
15819,50.75694,-3.456468,69,25.72,9.0,171.5,Oct-21,1582039,2019-08-17 07:46:51:406,-0.2539,0.1633,10.0972,-0.045,-0.0015,9.8065,-0.0181,0.0024,0.0096,-28.94,1.6,-7.74,184.55,2.51,-2.42
15820,50.75694,-3.456468,69,25.72,9.0,171.5,Oct-21,1582140,2019-08-17 07:46:51:507,-0.3243,0.2122,10.5607,-0.0253,-0.004,9.8066,0.0245,-0.0455,-0.0107,-29.2,1.42,-6.71,184.55,2.51,-2.42
15821,50.75694,-3.456468,69,25.72,9.0,171.5,Oct-21,1582239,2019-08-17 07:46:51:606,-0.3347,0.0399,9.3142,0.0096,0.0092,9.8066,0.0245,-0.0455,-0.0107,-29.32,2.36,-5.9,184.41,2.36,-2.43
15822,50.75694,-3.456468,69,25.72,9.0,171.5,Oct-21,1582340,2019-08-17 07:46:51:707,0.1852,-0.2517,9.4416,0.0404,0.0239,9.8065,-0.0117,-0.0274,0.0128,-29.32,2.36,-5.9,184.41,2.36,-2.43
15823,50.75694,-3.456468,69,25.72,9.0,171.5,Oct-21,1582440,2019-08-17 07:46:51:807,0.2915,-0.2109,8.7439,0.0291,0.0004,9.8066,0.0107,-0.0508,-0.0022,-29.48,2.38,-5.04,184.31,2.61,-2.31
15824,50.75694,-3.456468,69,25.72,9.0,171.5,Oct-21,1582540,2019-08-17 07:46:51:907,0.1142,0.0291,9.8213,0.0317,-0.0109,9.8066,-0.0256,0.0014,-0.0096,-28.83,2.4,-7.95,184.31,2.61,-2.31
15825,50.756702,-3.456413,67,25.72,9.0,171.8,Oct-21,1582639,2019-08-17 07:46:52:006,0.0858,0.2193,10.6731,0.0117,-0.013,9.8066,-0.0149,0.028,-0.0043,-28.66,0.71,-8.83,182.68,2.67,-2.39
15826,50.756702,-3.456413,67,25.72,9.0,171.8,Oct-21,1582740,2019-08-17 07:46:52:107,-0.2603,-0.0572,10.5335,-0.0256,-0.0225,9.8066,-0.0117,0.0291,-0.0011,-28.66,0.71,-8.83,182.68,2.67,-2.39
15827,50.756702,-3.456413,67,25.72,9.0,171.8,Oct-21,1582840,2019-08-17 07:46:52:207,-0.2479,-0.1206,9.8293,-0.015,-0.0159,9.8066,-0.017,0.0483,0.0106,-29.18,0.72,-6.91,182.55,2.51,-2.51
15828,50.756702,-3.456413,67,25.72,9.0,171.8,Oct-21,1582939,2019-08-17 07:46:52:306,0.3015,-0.2183,9.2784,-0.0267,-0.0053,9.8066,0.0139,-0.0018,-0.0128,-28.89,2.33,-7.73,184.61,2.42,-2.6
15829,50.756702,-3.456413,67,25.72,9.0,171.8,Oct-21,1583040,2019-08-17 07:46:52:407,-0.1901,0.1884,9.0024,-0.0334,0.0042,9.8066,0.0139,-0.0018,-0.0128,-29.37,1.62,-5.91,184.44,2.23,-2.56
15830,50.756702,-3.456413,67,25.72,9.0,171.8,Oct-21,1583139,2019-08-17 07:46:52:506,0.5213,-0.0556,8.8863,0.0834,0.0036,9.8063,0.0032,-0.038,-0.0096,-29.37,1.62,-5.91,184.44,2.23,-2.56
15831,50.756702,-3.456413,67,25.72,9.0,171.8,Oct-21,1583239,2019-08-17 07:46:52:606,-0.4225,0.1828,10.6106,0.0112,-0.0101,9.8066,-0.0096,-0.0029,-0.0043,-29.18,1.61,-6.77,184.51,2.72,-2.58
15832,50.756702,-3.456413,67,25.72,9.0,171.8,Oct-21,1583339,2019-08-17 07:46:52:706,-0.1529,-0.3182,10.3855,-0.0399,-0.0112,9.8066,0.0224,-0.0391,-0.0032,-29.15,2.28,-6.7,184.53,2.78,-2.64
15833,50.756702,-3.456413,67,25.72,9.0,171.8,Oct-21,1583439,2019-08-17 07:46:52:806,-0.2976,0.0126,11.4359,-0.0856,0.0133,9.8063,0.0053,0.0696,-0.0054,-29.01,2.2,-7.31,184.51,2.28,-2.52
15834,50.756702,-3.456413,67,25.72,9.0,171.8,Dec-21,1583539,2019-08-17 07:46:52:906,-0.0211,-0.1987,9.1747,0.0053,0.0046,9.8066,-0.0266,-0.0902,-0.0224,-28.82,3.2,-7.71,184.51,2.28,-2.52
15835,50.75648,-3.456372,66,25.75,9.0,172.4,Dec-21,1583640,2019-08-17 07:46:53:007,-0.1413,-0.1713,9.3257,0.0072,-0.0198,9.8066,-0.0021,0.0472,-0.0054,-28.94,1.6,-7.74,184.62,2.32,-2.64
15836,50.75648,-3.456372,66,25.75,9.0,172.4,Dec-21,1583740,2019-08-17 07:46:53:107,0.2144,-0.2684,9.4997,0.0016,-0.0127,9.8066,-0.0021,0.0472,-0.0054,-28.97,0.72,-7.75,184.62,2.32,-2.64
15837,50.75648,-3.456372,66,25.75,9.0,172.4,Dec-21,1583840,2019-08-17 07:46:53:207,0.081,0.2212,9.942,0.0145,-0.0058,9.8066,-0.0117,-0.0316,-0.016,-28.97,0.72,-7.75,184.62,2.32,-2.64
15838,50.75648,-3.456372,66,25.75,9.0,172.4,Dec-21,1583940,2019-08-17 07:46:53:307,0.0416,0.2065,9.3794,0.0402,-0.0223,9.8065,-0.0522,-0.0178,-0.0309,-28.84,0.76,-8.21,182.71,2.54,-2.79
15839,50.75648,-3.456372,66,25.75,9.0,172.4,Dec-21,1584039,2019-08-17 07:46:53:406,0.2673,-0.6384,9.8249,0.0115,-0.0611,9.8065,-0.0053,-0.0018,-0.0139,-28.59,0.75,-9.07,182.71,2.54,-2.79
15840,50.75648,-3.456372,66,25.75,9.0,172.4,Dec-21,1584140,2019-08-17 07:46:53:507,-0.2758,-0.0019,9.9324,-0.0256,-0.0385,9.8065,0.0735,0.0291,-0.0139,-28.59,0.75,-9.07,182.71,2.54,-2.79
15841,50.75648,-3.456372,66,25.75,9.0,172.4,Dec-21,1584239,2019-08-17 07:46:53:606,-0.4148,0.281,9.8741,-0.0453,0.0303,9.8065,0.0341,0.0664,0.0064,-28.98,1.6,-7.6,184.72,2.38,-3.01
15842,50.75648,-3.456372,66,25.75,9.0,172.4,Dec-21,1584339,2019-08-17 07:46:53:706,-0.2558,0.0874,9.944,-0.0562,0.0288,9.8064,-0.0426,-0.0689,-0.0075,-28.84,3.35,-7.56,184.72,2.38,-3.01
15843,50.75648,-3.456372,66,25.75,9.0,172.4,Dec-21,1584440,2019-08-17 07:46:53:807,-0.3973,-0.0042,10.6593,0.0304,-0.0287,9.8066,0.0064,-0.0061,-0.0022,-28.98,2.41,-7.38,184.58,2.07,-2.81
15844,50.75625,-3.456333,66,25.93,9.0,172.4,Dec-21,1584539,2019-08-17 07:46:53:906,-0.1432,-0.2323,9.6728,0.0425,-0.0419,9.8065,0.0064,-0.0061,-0.0022,-29.14,3.14,-6.41,184.58,2.07,-2.81
15845,50.75625,-3.456333,66,25.93,9.0,172.4,Dec-21,1584639,2019-08-17 07:46:54:006,0.2309,-0.3562,8.3122,0.0433,-0.0352,9.8065,0.0149,0.0397,0.017,-29.14,3.14,-6.41,184.58,2.07,-2.81
15846,50.75625,-3.456333,66,25.93,9.0,172.4,Dec-21,1584740,2019-08-17 07:46:54:107,0.0748,-0.0039,9.9424,0.0238,0.0249,9.8066,0.0234,-0.0434,-0.0224,-29.16,2.5,-6.61,184.63,2.3,-3.04
15847,50.75625,-3.456333,66,25.93,9.0,172.4,Dec-21,1584840,2019-08-17 07:46:54:207,0.1252,0.0117,8.9214,0.0761,0.0216,9.8063,-0.0288,0.0248,0.0,-28.85,2.55,-7.81,186.62,2.76,-2.95
15848,50.75625,-3.456333,66,25.93,9.0,172.4,Dec-21,1584940,2019-08-17 07:46:54:307,0.0135,0.0212,10.0542,-0.0177,-0.0401,9.8066,-0.0096,0.044,-0.0022,-28.85,2.55,-7.81,186.62,2.76,-2.95
15849,50.75625,-3.456333,66,25.93,9.0,172.4,Dec-21,1585040,2019-08-17 07:46:54:407,-0.0855,0.1563,11.1484,-0.0701,-0.0006,9.8064,0.0501,0.0419,0.0117,-28.85,2.55,-7.81,186.62,2.76,-2.95
15850,50.75625,-3.456333,66,25.93,9.0,172.4,Dec-21,1585140,2019-08-17 07:46:54:507,-0.2424,0.4072,10.6494,-0.0342,0.0311,9.8065,-0.0245,-0.0327,-0.0011,-29.2,2.43,-6.43,184.5,2.35,-2.91
15851,50.75625,-3.456333,66,25.93,9.0,172.4,Dec-21,1585240,2019-08-17 07:46:54:607,-0.2297,0.3786,9.7347,-0.0479,0.0119,9.8065,-0.0245,-0.0327,-0.0011,-29.12,3.28,-6.41,186.43,2.08,-2.81
15852,50.75625,-3.456333,66,25.93,9.0,172.4,Dec-21,1585340,2019-08-17 07:46:54:707,0.1306,0.2867,9.6037,0.0043,-0.0204,9.8066,-0.0522,-0.0135,-0.0064,-29.16,2.5,-6.61,186.43,2.08,-2.81
15853,50.75625,-3.456333,66,25.93,9.0,172.4,Dec-21,1585440,2019-08-17 07:46:54:807,0.0451,0.0116,9.0071,0.0228,-0.0355,9.8066,0.032,0.011,-0.0032,-29.16,2.5,-6.61,186.43,2.08,-2.81
15854,50.75601,-3.456291,66,25.86,9.0,172.9,Dec-21,1585540,2019-08-17 07:46:54:907,-0.0694,0.0022,9.9409,0.0217,0.0172,9.8066,0.0224,-0.005,0.0234,-28.88,2.48,-7.72,184.73,2.18,-3.04
15855,50.75601,-3.456291,66,25.86,9.0,172.9,Dec-21,1585640,2019-08-17 07:46:55:007,0.048,0.0575,9.2805,0.0402,0.0542,9.8064,0.0352,-0.0157,-0.0043,-28.92,2.48,-7.59,184.64,2.44,-2.74
15856,50.75601,-3.456291,66,25.86,9.0,172.9,Dec-21,1585740,2019-08-17 07:46:55:107,-0.1292,0.043,10.8705,0.0019,0.0199,9.8066,-0.0256,0.0419,-0.0054,-28.87,3.35,-7.43,184.64,2.44,-2.74
15857,50.75601,-3.456291,66,25.86,9.0,172.9,Dec-21,1585840,2019-08-17 07:46:55:207,0.1696,-0.1405,9.9217,0.0004,-0.0035,9.8067,-0.0053,0.0088,-0.0075,-28.87,3.35,-7.43,184.64,2.44,-2.74
15858,50.75601,-3.456291,66,25.86,9.0,172.9,Dec-21,1585940,2019-08-17 07:46:55:307,0.1529,-0.2175,10.0816,-0.0252,-0.0003,9.8066,0.033,0.0419,-0.0085,-29.2,2.43,-6.43,184.47,2.45,-2.76
15859,50.75601,-3.456291,66,25.86,9.0,172.9,Dec-21,1586042,2019-08-17 07:46:55:409,-0.0433,0.0387,10.4056,-0.0491,-0.0013,9.8065,-0.0415,0.044,-0.0075,-28.77,2.39,-8.17,184.65,2.16,-2.74
15860,50.75601,-3.456291,66,25.86,9.0,172.9,Dec-21,1586139,2019-08-17 07:46:55:506,0.0453,0.1526,9.6074,0.0021,-0.0169,9.8066,-0.0415,0.044,-0.0075,-28.77,2.39,-8.17,184.65,2.16,-2.74
15861,50.75601,-3.456291,66,25.86,9.0,172.9,Dec-21,1586239,2019-08-17 07:46:55:606,-0.1493,0.5651,10.4164,0.028,-0.0105,9.8066,0.0213,-0.0135,-0.0085,-28.37,1.62,-9.61,185.03,2.16,-2.84
15862,50.75601,-3.456291,66,25.86,9.0,172.9,Dec-21,1586340,2019-08-17 07:46:55:707,-0.122,0.2281,10.0769,0.0329,0.0228,9.8066,0.0469,0.0078,-0.0139,-28.37,1.62,-9.61,185.03,2.16,-2.84
15863,50.75601,-3.456291,66,25.86,9.0,172.9,Dec-21,1586440,2019-08-17 07:46:55:807,-0.143,0.0058,9.6511,-0.0355,0.0077,9.8066,-0.0096,0.0301,-0.0011,-28.92,2.48,-7.59,184.64,2.37,-2.73
15864,50.755775,-3.456248,66,25.77,9.0,173.5,Dec-21,1586539,2019-08-17 07:46:55:906,-0.1365,-0.0619,9.6608,-0.047,0.0085,9.8065,0.0181,-0.0157,-0.0054,-28.92,2.48,-7.59,184.64,2.37,-2.73
15865,50.755775,-3.456248,66,25.77,9.0,173.5,13 / 21,1586639,2019-08-17 07:46:56:006,0.4962,-0.422,8.6039,0.0207,-0.0042,9.8066,-0.0597,-0.0796,-0.0203,-29.21,1.61,-6.62,184.54,2.1,-2.66
15866,50.755775,-3.456248,66,25.77,9.0,173.5,13 / 21,1586739,2019-08-17 07:46:56:106,-0.387,-0.2824,9.3133,0.0471,-0.0153,9.8065,-0.0309,0.0493,0.0383,-28.46,3.21,-8.93,186.9,2.36,-2.77
15867,50.755775,-3.456248,66,25.77,9.0,173.5,13 / 21,1586839,2019-08-17 07:46:56:206,0.9619,-0.7901,7.5108,-0.0298,-0.0141,9.8066,-0.0309,0.0493,0.0383,-28.46,3.21,-8.93,186.9,2.36,-2.77
15868,50.755775,-3.456248,66,25.77,9.0,173.5,13 / 21,1586939,2019-08-17 07:46:56:306,-0.2893,0.3289,10.2206,-0.0059,-0.0252,9.8066,-0.016,-0.0114,-0.032,-28.61,3.93,-8.13,188.53,2.18,-2.83
15869,50.755775,-3.456248,66,25.77,9.0,173.5,13 / 21,1587039,2019-08-17 07:46:56:406,0.0753,-0.3246,9.6815,0.0141,-0.0283,9.8066,-0.0309,-0.0284,-0.0128,-29.21,4.16,-5.42,188.3,2.24,-3.0
15870,50.755775,-3.456248,66,25.77,9.0,173.5,13 / 21,1587139,2019-08-17 07:46:56:506,-0.0104,-0.0713,10.6507,0.0078,-0.0297,9.8066,-0.0106,-0.0039,0.0032,-29.12,3.28,-6.41,188.3,2.24,-3.0
15871,50.755775,-3.456248,66,25.77,9.0,173.5,13 / 21,1587240,2019-08-17 07:46:56:607,-0.0431,0.0881,10.5135,-0.0148,0.0222,9.8066,0.0149,0.0557,0.0064,-29.48,3.32,-4.45,186.3,2.26,-3.18
15872,50.755775,-3.456248,66,25.77,9.0,173.5,13 / 21,1587339,2019-08-17 07:46:56:706,-0.1679,-0.1215,9.772,-0.0267,0.0353,9.8066,-0.0053,-0.0295,0.0096,-29.48,3.32,-4.45,186.3,2.26,-3.18
15873,50.755775,-3.456248,66,25.77,9.0,173.5,13 / 21,1587440,2019-08-17 07:46:56:807,-0.2458,0.0345,10.0448,0.009,0.006,9.8066,-0.0043,0.0248,-0.0043,-29.37,4.18,-4.44,188.21,2.13,-2.96
15874,50.755775,-3.456248,66,25.77,9.0,173.5,13 / 21,1587539,2019-08-17 07:46:56:906,-0.0415,-0.4977,9.9175,0.0115,-0.0013,9.8066,-0.0085,-0.021,-0.0022,-29.12,3.28,-6.41,186.45,2.18,-2.93
15875,50.75553,-3.456215,65,25.78,9.0,174.0,13 / 21,1587639,2019-08-17 07:46:57:006,-0.102,-0.1195,10.211,0.0104,0.0025,9.8066,-0.0085,-0.021,-0.0022,-29.29,1.57,-6.3,184.51,2.24,-2.93
15876,50.75553,-3.456215,65,25.78,9.0,174.0,13 / 21,1587739,2019-08-17 07:46:57:106,-0.0685,-0.1444,9.8065,-0.0008,0.0281,9.8066,0.0405,0.0046,-0.0096,-29.29,1.57,-6.3,184.51,2.24,-2.93
15877,50.75553,-3.456215,65,25.78,9.0,174.0,13 / 21,1587840,2019-08-17 07:46:57:207,-0.0347,-0.1605,10.1692,-0.0077,0.0343,9.8066,-0.0096,0.0323,-0.0054,-29.38,4.91,-3.57,190.09,2.22,-2.72
15878,50.75553,-3.456215,65,25.78,9.0,174.0,13 / 21,1587940,2019-08-17 07:46:57:307,-0.1735,0.3054,10.8656,-0.0123,-0.0176,9.8066,0.0149,-0.021,-0.0277,-29.03,4.99,-5.7,190.09,2.22,-2.72
15879,50.75553,-3.456215,65,25.78,9.0,174.0,13 / 21,1588039,2019-08-17 07:46:57:406,0.1469,-0.2025,10.0907,-0.0159,-0.02,9.8066,0.0266,0.0429,0.0032,-29.03,4.99,-5.7,190.09,2.22,-2.72
15880,50.75553,-3.456215,65,25.78,9.0,174.0,13 / 21,1588139,2019-08-17 07:46:57:506,0.1583,0.1258,9.9497,0.0062,-0.0027,9.8066,-0.0234,-0.0039,-0.0096,-29.29,4.75,-4.44,190.11,2.1,-2.82
15881,50.75553,-3.456215,65,25.78,9.0,174.0,13 / 21,1588239,2019-08-17 07:46:57:606,0.2075,-0.1957,9.2791,0.0239,-0.0156,9.8066,-0.017,-0.0199,-0.0096,-28.95,4.69,-6.33,190.27,2.14,-2.84
15882,50.75553,-3.456215,65,25.78,9.0,174.0,13 / 21,1588340,2019-08-17 07:46:57:707,-0.0465,-0.0883,9.8552,0.0328,-0.0372,9.8065,-0.0075,0.0376,-0.0054,-29.35,4.03,-4.72,190.27,2.14,-2.84
15883,50.75553,-3.456215,65,25.78,9.0,174.0,13 / 21,1588440,2019-08-17 07:46:57:807,0.1837,0.0542,8.9892,0.0237,-0.0447,9.8065,-0.0075,0.0376,-0.0054,-28.98,3.98,-6.66,188.51,2.23,-3.12
15884,50.7553,-3.456179,65,25.78,9.0,174.4,13 / 21,1588539,2019-08-17 07:46:57:906,-0.0519,0.1439,9.143,-0.0179,0.0124,9.8066,-0.0053,-0.0242,0.0032,-28.98,3.98,-6.66,188.51,2.23,-3.12
15885,50.7553,-3.456179,65,25.78,9.0,174.4,13 / 21,1588640,2019-08-17 07:46:58:007,-0.0215,-0.1098,9.4689,-0.0297,0.0212,9.8066,0.0352,0.0781,0.0,-28.55,4.91,-7.78,190.49,2.13,-3.04
15886,50.7553,-3.456179,65,25.78,9.0,174.4,13 / 21,1588740,2019-08-17 07:46:58:107,-0.435,0.2164,10.0332,-0.0104,0.0016,9.8066,-0.0362,0.0152,-0.0171,-28.85,3.11,-7.63,186.63,1.99,-2.88
15887,50.7553,-3.456179,65,25.78,9.0,174.4,13 / 21,1588840,2019-08-17 07:46:58:207,-0.0169,-0.0078,9.393,-0.0121,0.009,9.8066,0.0426,0.0216,-0.0075,-29.36,3.92,-4.73,188.28,1.92,-2.82
15888,50.7553,-3.456179,65,25.78,9.0,174.4,13 / 21,1588940,2019-08-17 07:46:58:307,-0.1792,0.0581,9.3443,-0.0054,0.023,9.8066,-0.0085,0.0301,0.0085,-29.36,3.92,-4.73,188.28,1.92,-2.82
15889,50.7553,-3.456179,65,25.78,9.0,174.4,13 / 21,1589040,2019-08-17 07:46:58:407,0.0216,0.0906,10.5342,-0.0016,0.0046,9.8066,-0.016,-0.0082,0.0064,-29.13,5.9,-4.09,191.99,1.91,-2.69
15890,50.7553,-3.456179,65,25.78,9.0,174.4,13 / 21,1589140,2019-08-17 07:46:58:507,0.2006,-0.0066,9.0924,-0.0014,0.0198,9.8066,0.0192,-0.0636,-0.0181,-28.94,4.98,-6.12,190.24,1.91,-2.66
15891,50.7553,-3.456179,65,25.78,9.0,174.4,13 / 21,1589240,2019-08-17 07:46:58:607,-0.3883,0.5237,9.8377,0.0009,0.0375,9.8066,0.0192,-0.0636,-0.0181,-28.94,4.98,-6.12,190.24,1.91,-2.66
15892,50.7553,-3.456179,65,25.78,9.0,174.4,13 / 21,1589340,2019-08-17 07:46:58:707,0.0951,0.2384,9.831,0.0108,0.0072,9.8066,-0.0053,-0.0039,0.0202,-28.76,7.43,-4.18,193.83,1.95,-2.44
15893,50.7553,-3.456179,65,25.78,9.0,174.4,13 / 21,1589440,2019-08-17 07:46:58:807,0.3307,0.1456,9.5296,0.0181,0.0117,9.8066,-0.0043,-0.0295,-0.0011,-28.87,7.46,-3.32,193.76,2.07,-2.4
15894,50.7553,-3.456179,65,25.78,9.0,174.4,13 / 21,1589540,2019-08-17 07:46:58:907,0.0355,0.1021,9.9028,0.0202,-0.0151,9.8066,-0.0075,0.0323,-0.0011,-28.87,7.46,-3.32,193.76,2.07,-2.4
15895,50.755074,-3.456142,66,25.82,9.0,174.9,13 / 21,1589640,2019-08-17 07:46:59:007,-0.1532,-0.1313,10.1653,0.0037,-0.0236,9.8066,0.0064,-0.0082,-0.0117,-28.95,7.03,-3.54,193.83,2.16,-2.52
15896,50.755074,-3.456142,66,25.82,9.0,174.9,13 / 21,1589739,2019-08-17 07:46:59:106,-0.078,0.1226,9.7788,-0.0079,-0.0335,9.8066,0.0149,0.0408,0.0042,-29.2,5.95,-3.46,191.91,2.07,-2.69
15897,50.755074,-3.456142,66,25.82,9.0,174.9,13 / 21,1589840,2019-08-17 07:46:59:207,-0.3232,0.207,9.7347,-0.017,-0.0111,9.8066,0.0,0.0163,-0.0117,-29.06,5.92,-4.51,191.91,2.07,-2.69
15898,50.755074,-3.456142,66,25.82,9.0,174.9,13 / 21,1589939,2019-08-17 07:46:59:306,-0.4163,-0.0684,10.2679,-0.0148,-0.0114,9.8066,0.0,-0.0167,-0.016,-29.38,4.91,-3.53,190.1,1.96,-2.74
15899,50.755074,-3.456142,66,25.82,9.0,174.9,13 / 21,1590040,2019-08-17 07:46:59:407,0.1076,-0.317,10.33,-0.0104,-0.0216,9.8066,0.0298,0.0056,-0.0011,-28.92,6.59,-4.5,193.95,1.88,-2.85
15900,50.755074,-3.456142,66,25.82,9.0,174.9,13 / 21,1590139,2019-08-17 07:46:59:506,-0.1052,-0.2137,10.3146,0.0119,0.008,9.8066,0.0298,0.0056,-0.0011,-28.92,6.59,-4.5,193.95,1.88,-2.85
15901,50.755074,-3.456142,66,25.82,9.0,174.9,13 / 21,1590239,2019-08-17 07:46:59:606,0.4307,-0.3694,9.2927,0.0112,0.0063,9.8066,-0.0288,-0.0466,-0.0256,-29.2,5.03,-4.69,190.19,1.96,-2.82
15902,50.755074,-3.456142,66,25.82,9.0,174.9,13 / 21,1590339,2019-08-17 07:46:59:706,0.3097,-0.109,9.8,0.038,-0.0093,9.8066,-0.0032,-0.0157,-0.0171,-29.02,5.0,-5.72,190.29,2.17,-2.92
15903,50.755074,-3.456142,66,25.82,9.0,174.9,13 / 21,1590439,2019-08-17 07:46:59:806,0.1106,-0.216,9.6202,0.0111,-0.0251,9.8066,-0.0021,0.0088,-0.0053,-29.02,5.0,-5.72,190.29,2.17,-2.92
15904,50.755074,-3.456142,66,25.82,9.0,174.9,13 / 21,1590539,2019-08-17 07:46:59:906,0.0829,0.1284,10.3055,-0.001,-0.0147,9.8066,0.0288,0.0238,-0.0085,-29.37,4.9,-3.68,190.14,2.2,-3.07
15905,50.75484,-3.456104,66,25.83,9.0,175.2,13 / 21,1590639,2019-08-17 07:47:00:006,0.0893,0.0297,10.5736,-0.0062,0.001,9.8066,0.0032,0.0206,-0.0032,-29.19,5.77,-3.8,192.04,2.18,-3.16
15906,50.75484,-3.456104,66,25.83,9.0,175.2,13 / 21,1590739,2019-08-17 07:47:00:106,0.1623,0.129,9.5939,-0.0185,0.0032,9.8066,0.0032,0.0206,-0.0032,-28.61,4.78,-7.65,190.51,2.08,-3.11
15907,50.75484,-3.456104,66,25.83,9.0,175.2,13 / 21,1590839,2019-08-17 07:47:00:206,-0.039,0.0807,9.1328,-0.0084,0.0023,9.8066,0.0053,0.0024,0.0053,-28.61,4.78,-7.65,190.51,2.08,-3.11
15908,50.75484,-3.456104,66,25.83,9.0,175.2,13 / 21,1590940,2019-08-17 07:47:00:307,-0.0884,0.1154,9.5341,0.0039,0.0135,9.8066,0.0426,0.0067,-0.0085,-28.69,4.65,-7.44,190.41,2.03,-3.09
15909,50.75484,-3.456104,66,25.83,9.0,175.2,13 / 21,1591040,2019-08-17 07:47:00:407,0.0778,-0.0731,9.9297,0.0178,0.0255,9.8066,0.0107,0.0238,-0.0117,-28.44,4.61,-8.36,190.41,2.03,-3.09
15910,50.75484,-3.456104,66,25.83,9.0,175.2,13 / 21,1591139,2019-08-17 07:47:00:506,0.1215,-0.4129,9.1373,0.0145,0.0136,9.8066,0.0437,-0.0135,-0.0181,-28.7,3.92,-7.82,188.56,2.16,-2.96
15911,50.75484,-3.456104,66,25.83,9.0,175.2,13 / 21,1591239,2019-08-17 07:47:00:606,-0.0993,0.0618,9.8663,0.0123,0.0333,9.8066,0.033,0.0792,-0.0043,-28.31,4.73,-8.72,190.85,2.26,-2.78
15912,50.75484,-3.456104,66,25.83,9.0,175.2,13 / 21,1591339,2019-08-17 07:47:00:706,-0.1264,0.1089,9.5899,-0.0087,0.0242,9.8066,-0.0533,0.0195,0.0,-28.23,2.99,-9.7,190.85,2.26,-2.78
15913,50.75484,-3.456104,66,25.83,9.0,175.2,13 / 21,1591439,2019-08-17 07:47:00:806,-0.1227,0.3201,9.5615,-0.0234,0.012,9.8066,-0.0533,0.0088,0.0192,-28.23,2.99,-9.7,190.85,2.26,-2.78
15914,50.7546,-3.456072,67,25.86,9.0,175.6,13 / 21,1591540,2019-08-17 07:47:00:907,-0.2566,0.2647,8.4061,0.0047,-0.0296,9.8066,-0.065,-0.0306,0.0,-27.98,3.71,-10.16,188.95,2.14,-2.69
15915,50.7546,-3.456072,67,25.86,9.0,175.6,13 / 21,1591639,2019-08-17 07:47:01:006,-0.2092,0.3371,9.8716,0.0051,-0.0711,9.8064,-0.065,-0.0306,0.0,-28.13,4.56,-9.38,190.96,2.11,-3.1
15916,50.7546,-3.456072,67,25.86,9.0,175.6,13 / 21,1591740,2019-08-17 07:47:01:107,-0.0043,-0.2333,10.0727,0.0124,-0.0212,9.8066,0.0138,-0.0295,-0.0064,-28.4,4.6,-8.49,190.96,2.11,-3.1
15917,50.7546,-3.456072,67,25.86,9.0,175.6,13 / 21,1591839,2019-08-17 07:47:01:206,0.2092,0.1786,9.2727,-0.0067,0.0062,9.8066,0.0032,0.027,-0.0149,-28.72,5.87,-6.37,192.21,2.35,-3.16
15918,50.7546,-3.456072,67,25.86,9.0,175.6,13 / 21,1591939,2019-08-17 07:47:01:306,-0.3162,0.6315,9.9463,-0.0243,0.0148,9.8066,0.0128,-0.0327,-0.0192,-28.72,5.87,-6.37,192.21,2.35,-3.16
15919,50.7546,-3.456072,67,25.86,9.0,175.6,13 / 21,1592039,2019-08-17 07:47:01:406,0.0176,0.3506,10.2051,-0.0097,-0.0029,9.8066,0.0128,0.0099,-0.0107,-28.87,5.55,-5.96,192.19,2.23,-3.04
15920,50.7546,-3.456072,67,25.86,9.0,175.6,13 / 21,1592139,2019-08-17 07:47:01:506,-0.267,-0.0343,9.5815,-0.0046,-0.0012,9.8066,-0.0075,0.0206,-0.0043,-29.1,4.58,-5.66,190.31,2.17,-3.05
15921,50.7546,-3.456072,67,25.86,9.0,175.6,13 / 21,1592240,2019-08-17 07:47:01:607,0.3128,-0.0019,8.6092,0.0012,0.0079,9.8066,0.0053,-0.0508,-0.0053,-29.1,4.58,-5.66,190.31,2.17,-3.05
15922,50.7546,-3.456072,67,25.86,9.0,175.6,13 / 21,1592339,2019-08-17 07:47:01:706,-0.06,0.0519,8.692,0.0035,0.0191,9.8066,0.0437,-0.0338,0.0074,-28.91,5.54,-5.79,192.19,2.19,-3.0
15923,50.7546,-3.456072,67,25.86,9.0,175.6,13 / 21,1592439,2019-08-17 07:47:01:806,-0.2881,0.0751,10.2002,0.0181,0.04,9.8066,0.0437,-0.0338,0.0074,-28.73,5.36,-6.75,190.34,2.34,-2.8
15924,50.754368,-3.456053,67,25.7,9.0,176.3,13 / 21,1592539,2019-08-17 07:47:01:906,0.1441,-0.1602,9.0038,0.0117,0.0279,9.8066,-0.0011,0.0057,0.0085,-28.73,5.36,-6.75,190.34,2.34,-2.8
15925,50.754368,-3.456053,67,25.7,9.0,176.3,13 / 21,1592639,2019-08-17 07:47:02:006,-0.386,0.0522,10.1534,-0.0175,0.0136,9.8066,0.0117,0.0525,0.0138,-28.91,5.54,-5.79,192.11,2.44,-2.65
15926,50.754368,-3.456053,67,25.7,9.0,176.3,13 / 21,1592739,2019-08-17 07:47:02:106,-0.0541,-0.1915,10.4684,-0.0089,-0.0016,9.8066,-0.0085,0.0078,0.0085,-28.61,6.19,-6.58,192.16,2.08,-2.5
15927,50.754368,-3.456053,67,25.7,9.0,176.3,13 / 21,1592840,2019-08-17 07:47:02:207,0.059,-0.3107,9.5289,0.0028,-0.0048,9.8066,-0.0341,-0.022,0.0074,-28.61,6.19,-6.58,192.16,2.08,-2.5
15928,50.754368,-3.456053,67,25.7,9.0,176.3,13 / 21,1592941,2019-08-17 07:47:02:308,-0.1439,-0.0907,9.2769,-0.0001,-0.0011,9.8067,0.0032,-0.0114,-0.0171,-28.81,5.36,-6.43,190.21,2.09,-2.53
15929,50.754368,-3.456053,67,25.7,9.0,176.3,13 / 21,1593040,2019-08-17 07:47:02:407,-0.1869,-0.0529,10.4723,0.0003,-0.011,9.8066,-0.0224,0.0067,0.001,-28.94,4.55,-6.46,190.23,2.08,-2.59
15930,50.754368,-3.456053,67,25.7,9.0,176.3,13 / 21,1593140,2019-08-17 07:47:02:507,0.186,-0.1122,10.4943,0.0091,-0.008,9.8066,0.0021,-0.0306,-0.0096,-28.94,4.55,-6.46,190.23,2.08,-2.59
15931,50.754368,-3.456053,67,25.7,9.0,176.3,13 / 21,1593240,2019-08-17 07:47:02:607,0.1181,-0.0277,9.9508,-0.0016,-0.0092,9.8066,0.0021,-0.0306,-0.0096,-28.94,5.55,-5.65,192.12,2.12,-2.65
15932,50.754368,-3.456053,67,25.7,9.0,176.3,13 / 21,1593340,2019-08-17 07:47:02:707,-0.2405,-0.1833,10.1721,-0.0041,-0.0144,9.8066,0.0032,0.0344,-0.0075,-28.77,5.51,-6.47,192.14,2.08,-2.73
15933,50.754368,-3.456053,67,25.7,9.0,176.3,13 / 21,1593440,2019-08-17 07:47:02:807,-0.2854,0.2712,11.0226,0.01,-0.0276,9.8066,-0.0607,0.0067,0.001,-28.77,5.51,-6.47,192.14,2.08,-2.73
15934,50.754135,-3.456027,67,25.84,9.0,176.2,13 / 21,1593539,2019-08-17 07:47:02:906,0.1445,-0.5538,8.9493,0.0111,-0.0394,9.8066,0.0138,-0.0252,0.0032,-28.55,5.47,-7.41,190.38,2.1,-2.97
15935,50.754135,-3.456027,67,25.84,9.0,176.2,13 / 21,1593640,2019-08-17 07:47:03:007,-0.0234,0.1359,9.8403,0.01,-0.0036,9.8066,0.0298,-0.0103,-0.0192,-28.15,6.23,-8.28,192.74,2.25,-2.87
15936,50.754135,-3.456027,67,25.84,9.0,176.2,13 / 21,1593739,2019-08-17 07:47:03:106,0.042,-0.2258,9.6824,-0.0277,-0.0054,9.8066,0.0032,0.0536,0.0053,-28.51,3.89,-8.49,192.74,2.25,-2.87
15937,50.754135,-3.456027,67,25.84,9.0,176.2,13 / 21,1593839,2019-08-17 07:47:03:206,-0.1783,-0.0655,10.7744,-0.0673,-0.0141,9.8064,0.0309,0.0451,-0.0064,-28.51,3.89,-8.49,192.74,2.25,-2.87
15938,50.754135,-3.456027,67,25.84,9.0,176.2,13 / 21,1593940,2019-08-17 07:47:03:307,-0.1264,-0.4412,11.0987,-0.0237,0.0116,9.8066,-0.0117,0.027,0.0085,-28.55,3.64,-8.46,188.55,1.85,-2.86
15939,50.754135,-3.456027,67,25.84,9.0,176.2,13 / 21,1594039,2019-08-17 07:47:03:406,0.1116,-0.2319,8.8813,-0.0092,0.0181,9.8066,-0.0117,0.027,0.0085,-28.4,3.51,-9.01,188.91,1.72,-2.78
15940,50.754135,-3.456027,67,25.84,9.0,176.2,13 / 21,1594139,2019-08-17 07:47:03:506,-0.176,0.0899,9.0713,0.0029,0.0444,9.8065,0.0405,0.012,-0.0075,-28.4,3.51,-9.01,188.91,1.72,-2.78
15941,50.754135,-3.456027,67,25.84,9.0,176.2,13 / 21,1594239,2019-08-17 07:47:03:606,0.1111,0.6176,10.2734,0.0218,-0.0027,9.8066,-0.032,0.0323,0.0,-28.56,4.38,-8.07,188.46,1.78,-2.52
15942,50.754135,-3.456027,67,25.84,9.0,176.2,13 / 21,1594339,2019-08-17 07:47:03:706,0.2887,0.2148,9.8247,0.0494,0.004,9.8065,-0.0075,-0.0188,-0.0022,-28.42,4.23,-8.62,188.83,2.06,-2.54
15943,50.754135,-3.456027,67,25.84,9.0,176.2,13 / 21,1594440,2019-08-17 07:47:03:807,0.4124,0.1248,9.2688,0.0294,-0.0065,9.8066,-0.0224,0.0206,0.0074,-28.43,5.21,-8.03,188.83,2.06,-2.54
15944,50.754135,-3.456027,67,25.84,9.0,176.2,13 / 21,1594540,2019-08-17 07:47:03:907,0.1054,0.0864,9.5715,0.0119,-0.0235,9.8066,-0.0298,0.0366,-0.0075,-28.43,5.21,-8.03,188.83,2.06,-2.54
15945,50.753895,-3.456009,67,25.79,9.0,177.0,13 / 21,1594640,2019-08-17 07:47:04:007,0.0055,0.0788,10.0541,0.0037,-0.0247,9.8066,-0.0256,-0.0402,-0.0139,-28.94,5.15,-5.98,190.24,2.11,-2.69
15946,50.753895,-3.456009,67,25.79,9.0,177.0,13 / 21,1594740,2019-08-17 07:47:04:107,0.3269,-0.0423,9.5686,0.0106,-0.0308,9.8066,0.017,0.0302,-0.0128,-29.07,4.33,-6.01,188.36,2.11,-2.83
15947,50.753895,-3.456009,67,25.79,9.0,177.0,13 / 21,1594839,2019-08-17 07:47:04:206,-0.0389,0.0053,10.476,0.0265,-0.0474,9.8065,0.017,0.0302,-0.0128,-28.88,5.29,-6.15,188.36,2.11,-2.83
15948,50.753895,-3.456009,67,25.79,9.0,177.0,13 / 21,1594940,2019-08-17 07:47:04:307,0.089,-0.1867,9.1445,0.0313,-0.0325,9.8065,-0.0053,0.0046,0.0021,-29.02,4.45,-6.18,188.4,2.26,-3.05
15949,50.753895,-3.456009,67,25.79,9.0,177.0,13 / 21,1595039,2019-08-17 07:47:04:406,-0.0011,0.0827,8.7684,0.0155,0.0098,9.8066,0.0202,-0.0093,-0.0096,-29.02,4.45,-6.18,188.4,2.26,-3.05
15950,50.753895,-3.456009,67,25.79,9.0,177.0,13 / 21,1595140,2019-08-17 07:47:04:507,-0.1194,0.0972,9.5536,0.0177,-0.014,9.8066,-0.0064,0.0397,-0.0203,-29.02,4.45,-6.18,188.39,2.36,-3.0
15951,50.753895,-3.456009,67,25.79,9.0,177.0,13 / 21,1595239,2019-08-17 07:47:04:606,-0.3383,0.1002,10.7315,0.0295,-0.0377,9.8065,0.0011,0.0046,-0.0245,-28.84,4.42,-7.0,188.53,2.5,-3.25
15952,50.753895,-3.456009,67,25.79,9.0,177.0,13 / 21,1595340,2019-08-17 07:47:04:707,0.0296,-0.2709,9.9328,-0.0208,-0.015,9.8066,0.0352,0.0472,-0.0213,-28.94,5.15,-5.98,190.36,2.36,-3.32
15953,50.753895,-3.456009,67,25.79,9.0,177.0,13 / 21,1595439,2019-08-17 07:47:04:806,-0.2364,-0.309,10.5974,-0.0284,-0.0135,9.8066,-0.0011,-0.0306,0.0074,-28.94,5.15,-5.98,190.36,2.36,-3.32
15954,50.75367,-3.455991,66,25.68,9.0,177.4,13 / 21,1595540,2019-08-17 07:47:04:907,0.1884,-0.2834,8.7079,0.0018,0.0153,9.8066,-0.0011,-0.0306,0.0074,-28.77,5.12,-6.78,190.46,2.13,-3.33
15955,50.75367,-3.455991,66,25.68,9.0,177.4,13 / 21,1595639,2019-08-17 07:47:05:006,-0.1346,0.0627,9.2134,-0.0135,0.0401,9.8066,0.0181,-0.0487,0.0213,-28.55,5.08,-7.69,190.5,2.09,-3.09
15956,50.75367,-3.455991,66,25.68,9.0,177.4,13 / 21,1595740,2019-08-17 07:47:05:107,0.0311,0.0695,9.2781,-0.0126,0.0272,9.8066,0.0181,-0.0338,-0.0256,-28.65,6.75,-5.78,190.5,2.09,-3.09
15957,50.75367,-3.455991,66,25.68,9.0,177.4,13 / 21,1595839,2019-08-17 07:47:05:206,0.4045,0.0328,10.0295,-0.0178,0.0491,9.8065,0.0341,-0.0338,-0.0117,-28.65,6.75,-5.78,190.5,2.09,-3.09
15958,50.75367,-3.455991,66,25.68,9.0,177.4,13 / 21,1595939,2019-08-17 07:47:05:306,-0.186,-0.4581,10.1574,-0.0129,0.0238,9.8066,0.0469,-0.0284,0.0021,-28.2,5.83,-8.41,192.73,2.04,-2.79
15959,50.75367,-3.455991,66,25.68,9.0,177.4,13 / 21,1596039,2019-08-17 07:47:05:406,0.0523,0.1262,8.5069,-0.0208,-0.0054,9.8066,-0.0245,0.0472,0.0319,-28.75,6.12,-5.98,192.13,2.0,-2.64
15960,50.75367,-3.455991,66,25.68,9.0,177.4,13 / 21,1596139,2019-08-17 07:47:05:506,0.0072,0.6076,10.3511,-0.0184,0.0089,9.8066,0.0362,-0.0604,-0.0128,-28.75,6.12,-5.98,192.13,2.0,-2.64
15961,50.75367,-3.455991,66,25.68,9.0,177.4,13 / 21,1596239,2019-08-17 07:47:05:606,-0.1681,0.2557,10.0676,0.0474,0.018,9.8065,0.016,0.0887,-0.0139,-28.55,5.56,-7.37,192.18,1.91,-2.56
15962,50.75367,-3.455991,66,25.68,9.0,177.4,13 / 21,1596339,2019-08-17 07:47:05:706,0.1076,0.3419,9.3563,0.0385,0.0202,9.8066,0.016,0.0887,-0.0139,-28.55,5.56,-7.37,192.16,2.15,-2.49
15963,50.75367,-3.455991,66,25.68,9.0,177.4,13 / 21,1596439,2019-08-17 07:47:05:806,-0.1467,0.381,10.8954,-0.0763,-0.0133,9.8063,0.0096,0.0206,-0.0075,-28.55,5.56,-7.37,192.16,2.15,-2.49
15964,50.75344,-3.455969,67,25.66,9.0,178.0,13 / 21,1596540,2019-08-17 07:47:05:907,-0.3016,0.2177,10.5799,0.0001,-0.0113,9.8066,0.0075,0.0419,-0.0053,-28.63,5.4,-7.16,190.29,1.7,-2.48
15965,50.75344,-3.455969,67,25.66,9.0,178.0,13 / 21,1596640,2019-08-17 07:47:06:007,-0.2194,0.1088,8.8887,-0.0068,0.0198,9.8066,0.0021,-0.0125,-0.0224,-28.81,3.46,-7.62,186.54,1.69,-2.54
15966,50.75344,-3.455969,67,25.66,9.0,178.0,13 / 21,1596739,2019-08-17 07:47:06:106,0.0563,-0.2095,9.2636,-0.0199,0.0002,9.8066,-0.0075,-0.0007,-0.0256,-28.81,3.46,-7.62,186.54,1.69,-2.54
15967,50.75344,-3.455969,67,25.66,9.0,178.0,13 / 21,1596839,2019-08-17 07:47:06:206,0.022,-0.5474,9.7921,0.023,-0.0291,9.8066,-0.0128,0.0131,-0.0139,-28.84,3.46,-7.49,186.46,1.57,-2.53
15968,50.75344,-3.455969,67,25.66,9.0,178.0,13 / 21,1596939,2019-08-17 07:47:06:306,0.1419,-0.2357,9.4438,0.0458,-0.0133,9.8065,-0.0021,-0.0391,-0.0288,-28.71,4.27,-7.59,188.51,1.69,-2.71
15969,50.75344,-3.455969,67,25.66,9.0,178.0,13 / 21,1597039,2019-08-17 07:47:06:406,0.2916,-0.2356,10.0449,0.0661,-0.0311,9.8064,-0.0043,0.0216,-0.0181,-28.73,5.26,-6.83,188.51,1.69,-2.71
15970,50.75344,-3.455969,67,25.66,9.0,178.0,13 / 21,1597139,2019-08-17 07:47:06:506,0.2751,-0.4802,9.6286,-0.0203,-0.0228,9.8066,-0.0043,0.0216,-0.0181,-29.12,4.34,-5.74,188.39,2.04,-2.95
15971,50.75344,-3.455969,67,25.66,9.0,178.0,13 / 21,1597239,2019-08-17 07:47:06:606,0.3555,-0.2035,9.8448,-0.0254,-0.046,9.8065,0.0309,0.0525,-0.0117,-29.0,5.16,-5.71,190.35,1.86,-3.19
15972,50.75344,-3.455969,67,25.66,9.0,178.0,13 / 21,1597339,2019-08-17 07:47:06:706,0.1618,-0.2875,10.622,0.0166,-0.0078,9.8066,0.0021,-0.0455,-0.0085,-29.0,5.16,-5.71,190.35,1.86,-3.19
15973,50.75344,-3.455969,67,25.66,9.0,178.0,13 / 21,1597439,2019-08-17 07:47:06:806,-0.0554,-0.1257,10.0418,-0.0228,0.0071,9.8066,0.033,-0.0103,-0.0117,-28.55,5.74,-7.21,192.35,1.92,-3.33
15974,50.75322,-3.455968,68,25.55,9.0,178.4,13 / 21,1597540,2019-08-17 07:47:06:907,-0.1633,0.0063,9.9635,-0.0238,0.0107,9.8066,0.0298,0.027,0.0117,-28.55,5.74,-7.21,192.34,1.8,-3.26
15975,50.75322,-3.455968,68,25.55,9.0,178.4,13 / 21,1597639,2019-08-17 07:47:07:006,-0.0957,0.1443,9.3015,-0.0024,0.0503,9.8065,0.0373,-0.022,0.0138,-28.74,4.28,-7.46,188.54,1.68,-3.17
15976,50.75322,-3.455968,68,25.55,9.0,178.4,13 / 21,1597740,2019-08-17 07:47:07:107,-0.0159,0.3909,8.6593,-0.0137,0.0824,9.8063,-0.0106,0.0536,0.0074,-28.41,6.9,-6.75,188.54,1.68,-3.17
15977,50.75322,-3.455968,68,25.55,9.0,178.4,13 / 21,1597839,2019-08-17 07:47:07:206,-0.5503,1.1318,12.1739,-0.0615,0.1088,9.8059,-0.0458,0.0429,0.0309,-28.93,5.81,-5.4,192.05,1.42,-2.49
15978,50.75322,-3.455968,68,25.55,9.0,178.4,13 / 21,1597940,2019-08-17 07:47:07:307,-0.0637,0.1395,8.7799,-0.0251,0.0151,9.8066,-0.0458,0.0429,0.0309,-28.75,5.78,-6.31,192.05,1.42,-2.49
15979,50.75322,-3.455968,68,25.55,9.0,178.4,13 / 21,1598039,2019-08-17 07:47:07:406,0.2339,-0.0863,8.3458,-0.0029,0.0654,9.8064,0.033,-0.1488,0.0085,-28.75,5.78,-6.31,192.05,1.42,-2.49
15980,50.75322,-3.455968,68,25.55,9.0,178.4,13 / 21,1598139,2019-08-17 07:47:07:506,0.059,-0.0584,9.5463,0.0214,0.064,9.8064,-0.0554,-0.0423,0.0106,-28.75,6.59,-5.5,193.91,1.62,-2.15
15981,50.75322,-3.455968,68,25.55,9.0,178.4,13 / 21,1598239,2019-08-17 07:47:07:606,0.287,-0.4959,10.3022,0.0158,-0.022,9.8066,0.0352,0.011,-0.0107,-28.47,5.89,-7.4,192.55,1.68,-2.3
15982,50.75322,-3.455968,68,25.55,9.0,178.4,13 / 21,1598340,2019-08-17 07:47:07:707,0.2102,-0.0665,9.8682,-0.0057,0.0041,9.8066,0.0234,0.0792,0.0255,-28.47,5.89,-7.4,192.55,1.68,-2.3
15983,50.75322,-3.455968,68,25.55,9.0,178.4,13 / 21,1598439,2019-08-17 07:47:07:806,0.0404,0.3748,10.4197,-0.0248,0.026,9.8066,-0.0042,0.0089,0.0032,-28.25,6.86,-7.42,194.47,1.65,-2.27
15984,50.752983,-3.455963,68,25.83,9.0,179.0,13 / 21,1598539,2019-08-17 07:47:07:906,-0.4604,0.3458,11.4079,-0.075,0.0179,9.8063,0.0139,0.0259,0.0053,-29.0,5.3,-5.57,190.12,1.31,-1.92
15985,50.752983,-3.455963,68,25.83,9.0,179.0,13 / 21,1598639,2019-08-17 07:47:08:006,-0.2338,0.5917,9.7256,-0.1053,0.0443,9.806,0.0128,0.0302,0.0032,-29.0,5.3,-5.57,190.12,1.31,-1.92
15986,50.752983,-3.455963,68,25.83,9.0,179.0,13 / 21,1598739,2019-08-17 07:47:08:106,0.2027,0.4285,7.9055,0.0477,0.0408,9.8065,-0.0245,-0.0561,0.0096,-29.06,5.84,-4.61,191.92,0.75,-1.56
15987,50.752983,-3.455963,68,25.83,9.0,179.0,13 / 21,1598840,2019-08-17 07:47:08:207,0.0042,0.2172,8.9887,0.0523,0.0182,9.8065,-0.0245,-0.0561,0.0096,-28.79,7.24,-4.33,193.72,1.07,-1.38
15988,50.752983,-3.455963,68,25.83,9.0,179.0,13 / 21,1598940,2019-08-17 07:47:08:307,0.3488,-0.1052,9.5947,0.0891,-0.0086,9.8062,-0.0011,-0.0199,-0.0096,-28.54,9.21,-0.8,197.28,1.56,-1.55
15989,50.752983,-3.455963,68,25.83,9.0,179.0,13 / 21,1599039,2019-08-17 07:47:08:406,0.0204,-0.4883,10.207,-0.0257,-0.052,9.8065,-0.0778,0.0589,0.0032,-28.54,9.21,-0.8,197.28,1.56,-1.55
15990,50.752983,-3.455963,68,25.83,9.0,179.0,13 / 21,1599139,2019-08-17 07:47:08:506,-0.1432,-0.6262,12.1136,-0.0252,-0.0578,9.8064,-0.0021,0.1037,0.0042,-21.14,21.25,-1.15,225.03,1.33,-1.8
15991,50.752983,-3.455963,68,25.83,9.0,179.0,13 / 21,1599240,2019-08-17 07:47:08:607,0.1791,-0.5316,9.8535,-0.0479,-0.0654,9.8063,0.0522,0.0387,-0.0192,-27.15,6.99,-10.67,195.15,0.86,-1.87
15992,50.752983,-3.455963,68,25.83,9.0,179.0,13 / 21,1599339,2019-08-17 07:47:08:706,0.6322,-0.3135,8.6807,0.0011,0.0092,9.8066,-0.049,-0.0007,0.0351,-27.15,6.99,-10.67,195.15,0.86,-1.87
15993,50.752983,-3.455963,68,25.83,9.0,179.0,13 / 21,1599440,2019-08-17 07:47:08:807,-0.217,0.2876,11.2874,0.0141,0.0247,9.8066,0.0565,-0.0913,-0.0235,-28.96,5.7,-5.35,191.95,1.17,-1.82
15994,50.752754,-3.455937,69,25.55,10.0,178.6,13 / 21,1599540,2019-08-17 07:47:08:907,0.0537,-0.1448,9.7436,-0.0157,0.0081,9.8066,-0.0106,-0.0508,0.0106,-28.99,5.26,-5.63,191.95,1.17,-1.82
15995,50.752754,-3.455937,69,25.55,10.0,178.6,13 / 21,1599639,2019-08-17 07:47:09:006,-0.0859,0.5597,8.842,-0.0371,0.0029,9.8066,-0.0106,-0.0508,0.0106,-28.49,6.38,-6.9,192.46,0.96,-1.76
15996,50.752754,-3.455937,69,25.55,10.0,178.6,13 / 21,1599740,2019-08-17 07:47:09:107,0.4382,0.1461,7.8239,-0.0039,-0.0101,9.8066,0.0192,-0.0892,0.017,-28.49,6.38,-6.9,192.46,0.96,-1.76
15997,50.752754,-3.455937,69,25.55,10.0,178.6,13 / 21,1599839,2019-08-17 07:47:09:206,0.3389,0.0151,9.0587,0.0255,-0.0044,9.8066,0.0778,0.0461,-0.0394,-28.75,5.91,-6.18,192.01,0.92,-1.81
15998,50.752754,-3.455937,69,25.55,10.0,178.6,13 / 21,1599940,2019-08-17 07:47:09:307,-0.1952,0.4826,10.3135,-0.015,-0.0054,9.8066,-0.0277,0.0398,0.0117,-28.75,5.91,-6.18,192.01,1.06,-1.87
15999,50.752754,-3.455937,69,25.55,10.0,178.6,13 / 21,1600039,2019-08-17 07:47:09:406,0.1612,-0.1429,9.8077,-0.0103,-0.004,9.8066,0.0096,0.0312,-0.0384,-28.62,6.56,-6.15,193.89,1.0,-1.88
16000,50.752754,-3.455937,69,25.55,10.0,178.6,13 / 21,1600140,2019-08-17 07:47:09:507,0.1906,-0.1395,9.7881,0.0203,0.0036,9.8066,-0.0245,-0.0124,0.0192,-28.62,6.56,-6.15,193.89,1.0,-1.88
16001,50.752754,-3.455937,69,25.55,10.0,178.6,13 / 21,1600239,2019-08-17 07:47:09:606,0.0681,-0.0614,10.2697,0.0462,0.0096,9.8065,-0.017,0.0227,-0.0032,-28.62,6.56,-6.15,193.89,1.0,-1.88
16002,50.752754,-3.455937,69,25.55,10.0,178.6,13 / 21,1600339,2019-08-17 07:47:09:706,0.1873,-0.3834,10.1718,-0.0055,-0.031,9.8066,-0.017,0.0227,-0.0032,-28.73,6.77,-5.38,193.83,1.28,-1.89
16003,50.752754,-3.455937,69,25.55,10.0,178.6,13 / 21,1600440,2019-08-17 07:47:09:807,0.5263,-0.3225,9.8159,0.0211,-0.0205,9.8066,-0.0074,0.0461,-0.0203,-28.28,5.98,-8.03,192.58,1.2,-2.06
16004,50.752537,-3.455931,68,25.33,10.0,178.9,13 / 21,1600539,2019-08-17 07:47:09:906,0.2495,-0.0846,9.6,0.0472,-0.0439,9.8064,-0.0128,-0.037,-0.0096,-28.66,5.23,-7.17,192.58,1.2,-2.06
16005,50.752537,-3.455931,68,25.33,10.0,178.9,13 / 21,1600639,2019-08-17 07:47:10:006,0.1572,-0.1221,9.1385,-0.0043,-0.0124,9.8066,0.0256,-0.005,-0.0107,-28.34,6.82,-7.09,194.5,1.41,-2.37
16006,50.752537,-3.455931,68,25.33,10.0,178.9,13 / 21,1600740,2019-08-17 07:47:10:107,0.204,0.0197,10.2385,0.002,-0.022,9.8066,0.016,0.0195,-0.0096,-28.34,6.82,-7.09,194.5,1.41,-2.37
16007,50.752537,-3.455931,68,25.33,10.0,178.9,13 / 21,1600839,2019-08-17 07:47:10:206,0.1331,0.0054,9.5927,0.0221,-0.0022,9.8066,-0.0256,-0.0412,0.0021,-28.65,5.76,-6.8,192.19,1.39,-2.5
16008,50.752537,-3.455931,68,25.33,10.0,178.9,13 / 21,1600940,2019-08-17 07:47:10:307,0.1048,0.0024,9.7902,0.0361,-0.017,9.8066,0.0224,-0.0423,-0.0032,-28.51,6.03,-7.13,192.22,1.58,-2.64
16009,50.752537,-3.455931,68,25.33,10.0,178.9,13 / 21,1601039,2019-08-17 07:47:10:406,-0.0773,-0.1222,9.5765,-0.0096,-0.0048,9.8066,0.0171,0.0227,0.0021,-28.51,6.03,-7.13,192.22,1.58,-2.64
16010,50.752537,-3.455931,68,25.33,10.0,178.9,13 / 21,1601140,2019-08-17 07:47:10:507,-0.1375,0.2737,9.694,-0.0285,-0.0023,9.8066,0.0171,0.0227,0.0021,-28.01,6.55,-8.52,194.71,1.41,-2.61
16011,50.752537,-3.455931,68,25.33,10.0,178.9,13 / 21,1601239,2019-08-17 07:47:10:606,-0.0148,-0.0108,9.6624,0.011,0.0277,9.8066,0.0234,0.0025,0.0213,-28.37,5.83,-7.83,192.67,1.45,-2.43
16012,50.752537,-3.455931,68,25.33,10.0,178.9,13 / 21,1601339,2019-08-17 07:47:10:706,-0.0643,-0.0449,10.2773,0.0032,-0.0028,9.8066,-0.0309,-0.0071,0.001,-28.05,6.95,-8.06,194.54,1.55,-2.29
16013,50.752537,-3.455931,68,25.33,10.0,178.9,13 / 21,1601439,2019-08-17 07:47:10:806,0.0277,-0.0284,9.4563,-0.0081,-0.0055,9.8066,-0.0181,0.0248,-0.0107,-28.05,6.95,-8.06,194.54,1.55,-2.29
16014,50.752304,-3.455923,70,25.68,10.0,179.6,13 / 21,1601539,2019-08-17 07:47:10:906,-0.0224,-0.3718,10.4152,-0.0049,-0.0065,9.8066,0.0117,-0.0039,0.0064,-28.09,7.66,-7.23,196.37,1.5,-2.31
16015,50.752304,-3.455923,70,25.68,10.0,179.6,13 / 21,1601640,2019-08-17 07:47:11:007,0.3809,-0.0256,9.9593,-0.0096,0.0076,9.8066,0.0053,-0.0018,0.0032,-28.24,6.47,-7.79,192.62,1.45,-2.25
16016,50.752304,-3.455923,70,25.68,10.0,179.6,13 / 21,1601739,2019-08-17 07:47:11:106,0.0277,0.4694,9.6743,0.0043,0.0252,9.8066,-0.0277,0.0238,0.0096,-27.57,8.1,-8.62,192.62,1.45,-2.25
16017,50.752304,-3.455923,70,25.68,10.0,179.6,13 / 21,1601839,2019-08-17 07:47:11:206,0.2106,0.4084,9.7874,0.0081,-0.0024,9.8066,-0.0607,0.1228,-0.0075,-28.54,7.55,-5.35,195.72,1.5,-2.27
16018,50.752304,-3.455923,70,25.68,10.0,179.6,13 / 21,1601940,2019-08-17 07:47:11:307,0.1231,0.0632,9.5081,0.0032,-0.0354,9.8066,-0.0501,0.0451,0.0021,-28.54,7.55,-5.35,195.72,1.5,-2.27
16019,50.752304,-3.455923,70,25.68,10.0,179.6,13 / 21,1602040,2019-08-17 07:47:11:407,-0.053,0.1422,9.632,0.0109,-0.0604,9.8065,-0.0501,0.0451,0.0021,-28.54,6.87,-6.17,194.01,1.46,-2.63
16020,50.752304,-3.455923,70,25.68,10.0,179.6,13 / 21,1602139,2019-08-17 07:47:11:506,-0.1658,-0.0119,9.9763,0.0083,-0.0148,9.8066,0.0213,-0.0061,0.0128,-28.09,7.66,-7.23,196.47,1.49,-2.73
16021,50.752304,-3.455923,70,25.68,10.0,179.6,13 / 21,1602240,2019-08-17 07:47:11:607,-0.23,-0.0974,9.8521,-0.0151,0.0444,9.8065,0.0192,0.0493,-0.0064,-28.09,7.66,-7.23,196.47,1.49,-2.73
16022,50.752304,-3.455923,70,25.68,10.0,179.6,13 / 21,1602339,2019-08-17 07:47:11:706,-0.3417,0.161,9.8746,-0.0312,0.0145,9.8066,-0.0106,-0.038,0.0032,-28.63,7.8,-4.39,195.68,1.48,-2.45
16023,50.752304,-3.455923,70,25.68,10.0,179.6,13 / 21,1602440,2019-08-17 07:47:11:807,-0.1353,0.1558,10.3607,-0.0211,0.0171,9.8066,-0.0021,-0.0444,-0.0022,-28.57,6.87,-6.04,195.68,1.48,-2.45
16024,50.75206,-3.455943,68,26.11,10.0,180.7,13 / 21,1602539,2019-08-17 07:47:11:906,0.2565,-0.3591,10.1851,0.0164,0.0128,9.8066,-0.0021,-0.054,-0.0054,-28.54,6.87,-6.17,193.95,1.39,-2.32
16025,50.75206,-3.455943,68,26.11,10.0,180.7,13 / 21,1602639,2019-08-17 07:47:12:006,0.3037,-0.1064,8.8163,0.0436,0.0024,9.8066,0.0,0.0099,-0.0022,-28.54,6.04,-7.0,193.95,1.39,-2.32
16026,50.75206,-3.455943,68,26.11,10.0,180.7,13 / 21,1602740,2019-08-17 07:47:12:107,-0.012,0.1272,9.7886,0.0459,-0.02,9.8065,-0.0032,0.0504,-0.0032,-28.54,6.04,-7.0,193.95,1.39,-2.32
16027,50.75206,-3.455943,68,26.11,10.0,180.7,13 / 21,1602839,2019-08-17 07:47:12:206,0.1444,-0.0697,10.1439,-0.0103,-0.0116,9.8066,-0.0213,0.0099,0.0,-28.54,6.04,-7.0,192.18,1.62,-2.5
16028,50.75206,-3.455943,68,26.11,10.0,180.7,13 / 21,1602940,2019-08-17 07:47:12:307,-0.0002,0.2674,10.745,-0.0091,-0.0113,9.8066,-0.0213,0.0099,0.0,-28.54,6.87,-6.17,193.99,1.55,-2.56
16029,50.75206,-3.455943,68,26.11,10.0,180.7,13 / 21,1603039,2019-08-17 07:47:12:406,0.0132,0.0432,10.233,-0.0189,-0.0139,9.8066,0.0266,-0.0029,-0.0085,-28.8,5.95,-5.95,192.14,1.42,-2.61
16030,50.75206,-3.455943,68,26.11,10.0,180.7,13 / 21,1603140,2019-08-17 07:47:12:507,-0.0187,-0.0671,9.1957,-0.0019,-0.0089,9.8066,0.0139,0.0344,-0.0096,-28.8,5.95,-5.95,192.14,1.42,-2.61
16031,50.75206,-3.455943,68,26.11,10.0,180.7,13 / 21,1603239,2019-08-17 07:47:12:606,0.0045,-0.1386,9.1898,-0.0057,-0.0035,9.8066,-0.0021,0.028,-0.0043,-28.8,6.76,-5.0,193.94,1.4,-2.66
16032,50.75206,-3.455943,68,26.11,10.0,180.7,13 / 21,1603339,2019-08-17 07:47:12:706,-0.0476,0.0093,9.8097,0.0035,-0.0124,9.8066,0.0053,-0.022,0.0,-28.47,6.69,-6.68,194.57,1.36,-2.67
16033,50.75206,-3.455943,68,26.11,10.0,180.7,13 / 21,1603439,2019-08-17 07:47:12:806,0.1271,-0.3746,8.8942,0.0081,-0.0304,9.8066,-0.0256,0.0728,-0.0117,-28.47,6.69,-6.68,194.61,1.36,-2.85
16034,50.75206,-3.455943,68,26.11,10.0,180.7,13 / 21,1603539,2019-08-17 07:47:12:906,0.0102,0.1358,9.0464,-0.006,-0.004,9.8066,-0.033,0.0057,-0.0032,-28.57,6.87,-6.04,194.61,1.36,-2.85
16035,50.751846,-3.455949,68,25.57,10.0,180.6,13 / 21,1603639,2019-08-17 07:47:13:006,-0.0419,-0.261,9.0292,-0.0123,-0.0379,9.8066,-0.033,0.0057,-0.0032,-28.63,5.92,-6.72,192.32,1.24,-3.05
16036,50.751846,-3.455949,68,25.57,10.0,180.6,13 / 21,1603739,2019-08-17 07:47:13:106,0.1937,-0.3981,9.7373,0.0144,-0.0223,9.8066,-0.0341,0.0174,-0.0128,-28.63,6.73,-5.91,192.32,1.24,-3.05
16037,50.751846,-3.455949,68,25.57,10.0,180.6,13 / 21,1603840,2019-08-17 07:47:13:207,0.0504,-0.0451,10.5364,0.0303,-0.025,9.8066,-0.0032,-0.0476,-0.0096,-28.63,6.73,-5.91,192.32,1.24,-3.05
16038,50.751846,-3.455949,68,25.57,10.0,180.6,13 / 21,1603940,2019-08-17 07:47:13:307,0.3787,0.0108,9.526,0.0211,-0.0211,9.8066,0.0394,0.0323,-0.0277,-28.0,7.55,-7.68,196.67,1.33,-3.19
16039,50.751846,-3.455949,68,25.57,10.0,180.6,13 / 21,1604040,2019-08-17 07:47:13:407,0.0293,-0.0871,10.654,-0.0087,-0.0197,9.8066,-0.0245,0.0227,-0.0117,-28.68,4.3,-7.68,188.64,1.25,-3.13
16040,50.751846,-3.455949,68,25.57,10.0,180.6,13 / 21,1604140,2019-08-17 07:47:13:507,0.0066,-0.0781,9.5343,-0.0092,-0.034,9.8066,0.0096,-0.0061,-0.0171,-28.68,4.3,-7.68,188.64,1.25,-3.13
16041,50.751846,-3.455949,68,25.57,10.0,180.6,13 / 21,1604240,2019-08-17 07:47:13:607,0.0551,0.2454,9.8989,-0.0015,0.0028,9.8066,0.017,0.0515,0.0021,-28.12,6.97,-7.8,194.83,1.17,-3.32
16042,50.751846,-3.455949,68,25.57,10.0,180.6,13 / 21,1604340,2019-08-17 07:47:13:707,0.3072,-0.4015,9.4646,-0.0041,0.0088,9.8066,0.033,-0.0327,0.0,-27.94,6.72,-8.61,194.91,1.16,-3.27
16043,50.751846,-3.455949,68,25.57,10.0,180.6,13 / 21,1604439,2019-08-17 07:47:13:806,-0.0262,0.1344,9.5279,0.0211,0.029,9.8066,0.033,-0.0327,0.0,-27.94,6.72,-8.61,194.91,1.16,-3.27
16044,50.75159,-3.455972,66,25.93,10.0,181.5,13 / 21,1604539,2019-08-17 07:47:13:906,-0.2432,-0.0165,9.917,0.0372,0.0214,9.8066,0.0288,0.0121,-0.0149,-27.94,6.72,-8.61,194.88,1.4,-3.2
16045,50.75159,-3.455972,66,25.93,10.0,181.5,13 / 21,1604640,2019-08-17 07:47:14:007,0.1058,-0.6761,9.3152,-0.0023,-0.0056,9.8066,-0.0245,0.0227,-0.0032,-28.12,7.67,-7.1,194.88,1.4,-3.2
16046,50.75159,-3.455972,66,25.93,10.0,181.5,13 / 21,1604739,2019-08-17 07:47:14:106,0.1629,-0.459,9.7086,-0.0092,-0.0133,9.8066,0.0011,0.0493,-0.0213,-28.12,7.67,-7.1,194.88,1.4,-3.2
16047,50.75159,-3.455972,66,25.93,10.0,181.5,13 / 21,1604840,2019-08-17 07:47:14:207,-0.2551,0.1368,10.7668,0.0019,-0.002,9.8066,-0.0011,0.0312,-0.0107,-28.34,8.46,-5.04,196.4,1.33,-3.26
16048,50.75159,-3.455972,66,25.93,10.0,181.5,13 / 21,1604940,2019-08-17 07:47:14:307,0.2423,-0.1067,9.6178,-0.0056,-0.0056,9.8066,0.0075,0.0206,-0.0075,-29.03,6.82,-3.26,196.4,1.33,-3.26
16049,50.75159,-3.455972,66,25.93,10.0,181.5,13 / 21,1605039,2019-08-17 07:47:14:406,0.0027,-0.0271,9.9372,-0.0111,0.0019,9.8066,0.0288,-0.0018,0.0,-28.59,7.52,-5.1,195.89,1.18,-3.34
16050,50.75159,-3.455972,66,25.93,10.0,181.5,13 / 21,1605140,2019-08-17 07:47:14:507,-0.1877,0.2863,10.2738,-0.0004,0.0185,9.8066,0.0064,-0.0561,0.0042,-28.27,9.12,-4.21,198.18,1.12,-3.31
16051,50.75159,-3.455972,66,25.93,10.0,181.5,13 / 21,1605239,2019-08-17 07:47:14:606,0.2,0.4427,8.5943,0.0035,0.0474,9.8065,0.0181,-0.0295,-0.0043,-28.27,9.12,-4.21,198.18,1.12,-3.31
16052,50.75159,-3.455972,66,25.93,10.0,181.5,13 / 21,1605339,2019-08-17 07:47:14:706,0.0432,0.5176,9.7645,0.0131,0.012,9.8066,0.0181,-0.0295,-0.0043,-28.56,8.19,-4.15,195.76,1.22,-3.05
16053,50.75159,-3.455972,66,25.93,10.0,181.5,13 / 21,1605439,2019-08-17 07:47:14:806,0.0659,0.2133,10.6262,0.0336,0.0015,9.8066,-0.0181,0.0568,-0.0053,-28.73,7.56,-4.17,195.76,1.22,-3.05
16054,50.75136,-3.455979,67,25.74,10.0,181.8,13 / 21,1605539,2019-08-17 07:47:14:906,0.2328,0.0725,9.8876,0.0098,-0.0117,9.8066,-0.0341,-0.0135,0.0138,-28.76,7.43,-4.18,193.92,1.26,-3.13
16055,50.75136,-3.455979,67,25.74,10.0,181.8,13 / 21,1605639,2019-08-17 07:47:15:006,-0.157,-0.4,8.4033,-0.0035,0.0024,9.8066,-0.0618,0.0302,-0.0128,-28.76,7.43,-4.18,193.92,1.26,-3.13
16056,50.75136,-3.455979,67,25.74,10.0,181.8,13 / 21,1605740,2019-08-17 07:47:15:107,-0.1843,0.6217,9.562,-0.0086,-0.0054,9.8066,0.0511,0.0035,-0.033,-28.86,7.42,-3.5,193.84,1.2,-3.15
16057,50.75136,-3.455979,67,25.74,10.0,181.8,13 / 21,1605840,2019-08-17 07:47:15:207,-0.0697,-0.2181,9.7357,0.0284,0.0302,9.8066,0.0447,-0.0572,-0.0171,-28.48,8.36,-4.37,196.29,1.26,-3.06
16058,50.75136,-3.455979,67,25.74,10.0,181.8,13 / 21,1605939,2019-08-17 07:47:15:306,0.3614,-0.2931,9.5067,0.0479,0.0279,9.8065,-0.0149,0.0398,-0.0043,-28.48,8.36,-4.37,196.29,1.26,-3.06
16059,50.75136,-3.455979,67,25.74,10.0,181.8,13 / 21,1606039,2019-08-17 07:47:15:406,-0.0583,0.3749,9.9907,-0.0064,-0.0134,9.8066,-0.0149,0.0398,-0.0043,-27.87,9.8,-5.22,200.03,1.57,-2.98
16060,50.75136,-3.455979,67,25.74,10.0,181.8,13 / 21,1606139,2019-08-17 07:47:15:506,-0.1984,0.3919,10.344,-0.0359,-0.0287,9.8065,-0.0213,0.0099,-0.0043,-28.33,8.32,-5.31,200.03,1.57,-2.98
16061,50.75136,-3.455979,67,25.74,10.0,181.8,13 / 21,1606240,2019-08-17 07:47:15:607,-0.0334,-0.006,10.0071,-0.017,-0.0097,9.8066,0.0117,0.0685,0.0021,-28.31,8.31,-5.44,196.37,1.32,-3.06
16062,50.75136,-3.455979,67,25.74,10.0,181.8,13 / 21,1606340,2019-08-17 07:47:15:707,-0.1261,0.0582,9.5108,-0.0115,-0.0026,9.8066,0.0032,-0.005,0.0053,-28.31,8.31,-5.44,196.37,1.32,-3.06
16063,50.75136,-3.455979,67,25.74,10.0,181.8,13 / 21,1606439,2019-08-17 07:47:15:806,-0.1694,-0.0426,10.3903,-0.0039,0.0175,9.8066,0.0362,0.0174,-0.0075,-27.83,8.72,-7.03,198.4,1.25,-3.06
16064,50.751152,-3.455966,68,25.26,10.0,181.4,Nov-21,1606540,2019-08-17 07:47:15:907,-0.478,0.0506,11.3316,-0.0128,0.0251,9.8066,-0.0128,0.0749,-0.0128,-28.22,7.26,-7.12,194.63,1.22,-2.9
16065,50.751152,-3.455966,68,25.26,10.0,181.4,Nov-21,1606640,2019-08-17 07:47:16:007,0.0519,-0.3013,8.3692,-0.008,-0.0279,9.8066,-0.0128,0.0749,-0.0128,-28.22,7.26,-7.12,194.63,1.22,-2.9
16066,50.751152,-3.455966,68,25.26,10.0,181.4,Nov-21,1606739,2019-08-17 07:47:16:106,-0.2414,0.0767,9.6393,0.0135,-0.0232,9.8066,0.0405,-0.0636,-0.0064,-27.58,8.34,-8.34,196.64,1.27,-3.05
16067,50.751152,-3.455966,68,25.26,10.0,181.4,Nov-21,1606842,2019-08-17 07:47:16:209,0.485,-0.1989,8.2739,-0.0082,-0.0044,9.8066,-0.0096,0.0131,0.0042,-28.0,8.47,-6.65,196.52,1.49,-2.98
16068,50.751152,-3.455966,68,25.26,10.0,181.4,Nov-21,1606939,2019-08-17 07:47:16:306,0.1894,0.1448,9.07,-0.0413,-0.0099,9.8066,0.0245,0.0973,0.0117,-28.0,8.47,-6.65,196.52,1.49,-2.98
16069,50.751152,-3.455966,68,25.26,10.0,181.4,Nov-21,1607039,2019-08-17 07:47:16:406,0.0595,0.2814,12.1366,-0.0144,-0.0097,9.8066,-0.0224,0.1143,0.0042,-27.72,8.81,-7.33,198.38,1.24,-2.96
16070,50.751152,-3.455966,68,25.26,10.0,181.4,Nov-21,1607139,2019-08-17 07:47:16:506,0.6649,-0.4704,9.5433,-0.0074,0.0177,9.8066,-0.0352,-0.103,0.0394,-27.96,9.93,-4.44,199.95,1.23,-2.85
16071,50.751152,-3.455966,68,25.26,10.0,181.4,Nov-21,1607240,2019-08-17 07:47:16:607,-0.4101,0.4283,10.1141,0.0025,0.0081,9.8066,0.0234,0.0952,-0.0107,-27.96,9.93,-4.44,199.95,1.23,-2.85
16072,50.751152,-3.455966,68,25.26,10.0,181.4,Nov-21,1607340,2019-08-17 07:47:16:707,-0.2122,-0.1799,10.2979,-0.0436,-0.0139,9.8065,-0.0288,0.0589,0.0192,-27.34,11.2,-5.22,202.52,1.26,-2.81
16073,50.751152,-3.455966,68,25.26,10.0,181.4,Nov-21,1607440,2019-08-17 07:47:16:807,-0.009,-0.2082,10.102,-0.0832,-0.0266,9.8063,-0.0288,0.0589,0.0192,-27.26,10.64,-6.61,202.69,0.75,-2.77
16074,50.750935,-3.455969,67,24.76,11.0,182.6,Nov-21,1607540,2019-08-17 07:47:16:907,0.0999,0.1717,9.554,0.0251,-0.006,9.8066,-0.0085,-0.0018,-0.0021,-27.26,10.64,-6.61,202.69,0.75,-2.77
16075,50.750935,-3.455969,67,24.76,11.0,182.6,Nov-21,1607639,2019-08-17 07:47:17:006,-0.1355,-0.2832,10.6654,0.0969,0.0145,9.8062,-0.017,-0.0508,-0.0021,-25.92,11.13,-10.2,203.68,1.31,-2.91
16076,50.750935,-3.455969,67,24.76,11.0,182.6,Nov-21,1607740,2019-08-17 07:47:17:107,0.4723,-0.2516,8.7429,-0.0217,-0.0243,9.8066,0.0245,0.0099,-0.0075,-26.15,8.54,-11.96,200.06,1.47,-2.91
16077,50.750935,-3.455969,67,24.76,11.0,182.6,Nov-21,1607839,2019-08-17 07:47:17:206,0.2454,0.1216,10.5422,-0.0221,-0.0252,9.8066,0.0053,0.0781,0.0042,-26.15,8.54,-11.96,200.06,1.47,-2.91
16078,50.750935,-3.455969,67,24.76,11.0,182.6,Nov-21,1607940,2019-08-17 07:47:17:307,0.0385,0.0576,10.7377,0.0011,0.0104,9.8066,-0.0149,0.0163,0.0096,-27.99,6.96,-8.26,194.74,1.3,-3.0
16079,50.750935,-3.455969,67,24.76,11.0,182.6,Nov-21,1608040,2019-08-17 07:47:17:407,-0.0311,0.2553,10.2337,-0.0161,0.0002,9.8066,0.0,-0.0092,-0.0064,-28.94,5.98,-5.17,192.13,1.21,-2.98
16080,50.750935,-3.455969,67,24.76,11.0,182.6,Nov-21,1608139,2019-08-17 07:47:17:506,0.0112,-0.1471,9.7195,-0.019,-0.0145,9.8066,0.032,0.0526,-0.0181,-28.94,5.98,-5.17,192.13,1.21,-2.98
16081,50.750935,-3.455969,67,24.76,11.0,182.6,Nov-21,1608240,2019-08-17 07:47:17:607,0.1364,0.0189,10.0673,-0.0352,-0.0001,9.8066,0.032,0.0526,-0.0181,-28.78,6.65,-5.25,194.01,1.08,-3.04
16082,50.750935,-3.455969,67,24.76,11.0,182.6,Nov-21,1608339,2019-08-17 07:47:17:706,-0.1124,0.3542,9.7318,-0.0036,0.0342,9.8066,0.0096,-0.0242,0.0021,-29.13,5.72,-4.35,192.02,1.11,-2.84
16083,50.750935,-3.455969,67,24.76,11.0,182.6,Nov-21,1608440,2019-08-17 07:47:17:807,-0.2493,0.079,9.6873,0.0492,0.0306,9.8065,0.016,0.0195,-0.0096,-29.13,5.72,-4.35,192.02,1.11,-2.84
16084,50.75069,-3.456001,67,25.56,11.0,183.1,Nov-21,1608541,2019-08-17 07:47:17:908,0.1436,-0.198,9.6966,-0.0026,0.0116,9.8066,-0.0224,0.0462,0.0085,-28.49,7.62,-5.5,196.32,1.43,-2.72
16085,50.75069,-3.456001,67,25.56,11.0,183.1,Nov-21,1608639,2019-08-17 07:47:18:006,0.409,-0.0049,8.8103,-0.0307,-0.0052,9.8066,0.016,-0.0859,-0.0117,-28.49,7.62,-5.5,196.31,1.43,-2.65
16086,50.75069,-3.456001,67,25.56,11.0,183.1,Nov-21,1608739,2019-08-17 07:47:18:106,0.5531,-0.5163,7.9455,-0.0263,-0.027,9.8066,0.0117,-0.0242,-0.0266,-28.49,7.62,-5.5,196.33,1.24,-2.76
16087,50.75069,-3.456001,67,25.56,11.0,183.1,Nov-21,1608839,2019-08-17 07:47:18:206,0.6722,-0.1591,7.4856,-0.0059,0.0012,9.8066,-0.0213,-0.136,0.0042,-28.49,7.62,-5.5,196.33,1.24,-2.76
16088,50.75069,-3.456001,67,25.56,11.0,183.1,Nov-21,1608940,2019-08-17 07:47:18:307,0.2679,-0.4248,7.7045,-0.0072,-0.0002,9.8066,-0.0213,-0.136,0.0042,-28.04,9.18,-5.41,198.19,1.21,-2.74
16089,50.75069,-3.456001,67,25.56,11.0,183.1,Nov-21,1609039,2019-08-17 07:47:18:406,-0.0969,-0.3803,11.0111,-0.0082,0.0395,9.8066,0.0533,-0.022,-0.0384,-27.54,10.21,-6.09,200.08,1.17,-2.73
16090,50.75069,-3.456001,67,25.56,11.0,183.1,Nov-21,1609140,2019-08-17 07:47:18:507,-0.3886,0.0714,9.1582,-0.0324,0.0403,9.8065,-0.0043,0.0834,-0.0288,-27.91,9.68,-5.23,199.97,1.07,-2.45
16091,50.75069,-3.456001,67,25.56,11.0,183.1,Nov-21,1609239,2019-08-17 07:47:18:606,0.4102,0.1914,7.7871,-0.008,0.0025,9.8066,0.0053,0.1058,0.0085,-27.91,9.68,-5.23,199.97,1.07,-2.45
16092,50.75069,-3.456001,67,25.56,11.0,183.1,Nov-21,1609339,2019-08-17 07:47:18:706,0.2908,0.1816,8.9393,0.0101,0.0254,9.8066,0.0085,0.0866,0.0,-27.91,9.68,-5.23,199.97,1.03,-2.42
16093,50.75069,-3.456001,67,25.56,11.0,183.1,Nov-21,1609440,2019-08-17 07:47:18:807,-0.1889,0.1599,9.3179,0.0257,0.0404,9.8065,0.0128,-0.1275,-0.0203,-27.38,9.49,-7.77,198.91,1.25,-2.25
16094,50.75043,-3.456072,66,26.13,11.0,184.3,Nov-21,1609540,2019-08-17 07:47:18:907,-0.0895,0.1822,9.9445,0.0154,0.0065,9.8066,0.0202,0.044,-0.0085,-27.38,9.49,-7.77,198.91,1.25,-2.25
16095,50.75043,-3.456072,66,26.13,11.0,184.3,Nov-21,1609639,2019-08-17 07:47:19:006,-0.1224,0.1936,9.4246,0.0116,0.0057,9.8066,-0.0309,-0.0028,-0.0032,-27.35,9.48,-7.89,198.91,1.33,-2.24
16096,50.75043,-3.456072,66,26.13,11.0,184.3,Nov-21,1609739,2019-08-17 07:47:19:106,-0.0923,0.1445,9.8892,-0.0126,-0.0028,9.8066,-0.0309,-0.0028,-0.0032,-27.59,9.8,-6.52,200.02,1.35,-2.17
16097,50.75043,-3.456072,66,26.13,11.0,184.3,Nov-21,1609839,2019-08-17 07:47:19:206,-0.0905,-0.0235,10.204,-0.0235,-0.0054,9.8066,0.0256,0.0408,-0.0139,-27.59,9.8,-6.52,200.02,1.35,-2.17
16098,50.75043,-3.456072,66,26.13,11.0,184.3,Nov-21,1609941,2019-08-17 07:47:19:308,-0.069,-0.4133,9.1493,-0.0037,0.006,9.8066,-0.0234,0.0462,0.0064,-27.79,10.5,-4.16,201.65,1.21,-2.15
16099,50.75043,-3.456072,66,26.13,11.0,184.3,Nov-21,1610040,2019-08-17 07:47:19:407,0.0047,-0.2479,9.9866,-0.0064,0.0323,9.8066,0.0426,0.0121,-0.0053,-27.78,10.14,-5.06,199.89,1.24,-1.96
16100,50.75043,-3.456072,66,26.13,11.0,184.3,Nov-21,1610140,2019-08-17 07:47:19:507,-0.0508,0.0749,9.3634,0.022,0.0025,9.8066,-0.0213,-0.0359,-0.0021,-27.44,10.97,-5.14,199.89,1.24,-1.96
16101,50.75043,-3.456072,66,26.13,11.0,184.3,Nov-21,1610240,2019-08-17 07:47:19:607,0.3358,-0.1902,10.1638,0.0464,-0.0138,9.8065,-0.0405,-0.0199,-0.0085,-27.44,10.97,-5.14,199.89,1.24,-1.96
16102,50.75043,-3.456072,66,26.13,11.0,184.3,Nov-21,1610340,2019-08-17 07:47:19:707,0.3065,0.0351,10.1011,0.0587,-0.0388,9.8064,-0.017,-0.0369,-0.0085,-27.91,9.68,-5.23,199.93,1.49,-2.29
16103,50.75043,-3.456072,66,26.13,11.0,184.3,Nov-21,1610439,2019-08-17 07:47:19:806,-0.5065,0.7071,11.8076,0.0358,-0.0325,9.8065,-0.0671,-0.0593,0.0415,-27.91,9.68,-5.23,199.93,1.49,-2.29
16104,50.75021,-3.456093,66,25.95,11.0,184.1,Nov-21,1610540,2019-08-17 07:47:19:907,-0.1318,-0.4125,8.2875,-0.0036,0.0244,9.8066,-0.0671,-0.0593,0.0415,-27.34,10.27,-6.84,200.76,1.62,-2.54
16105,50.75021,-3.456093,66,25.95,11.0,184.1,Nov-21,1610640,2019-08-17 07:47:20:007,-0.618,0.0646,9.7649,-0.0448,0.0189,9.8065,-0.0192,-0.0369,0.0192,-27.47,10.03,-6.68,200.73,1.42,-2.35
16106,50.75021,-3.456093,66,25.95,11.0,184.1,Nov-21,1610739,2019-08-17 07:47:20:106,-0.2889,0.2083,9.3642,-0.0042,0.0189,9.8066,0.0245,-0.0103,-0.0064,-28.11,9.21,-4.98,198.14,1.21,-2.42
16107,50.75021,-3.456093,66,25.95,11.0,184.1,Nov-21,1610840,2019-08-17 07:47:20:207,0.0224,-0.0944,8.8585,0.0461,0.0481,9.8064,-0.0011,-0.0337,0.0042,-28.11,9.21,-4.98,198.14,1.21,-2.42
16108,50.75021,-3.456093,66,25.95,11.0,184.1,Nov-21,1610940,2019-08-17 07:47:20:307,0.2401,0.1552,10.0506,0.0088,0.0267,9.8066,0.016,0.0078,0.0053,-27.13,10.85,-6.79,202.52,1.55,-2.24
16109,50.75021,-3.456093,66,25.95,11.0,184.1,Nov-21,1611039,2019-08-17 07:47:20:406,-0.292,-0.2115,10.2879,0.0027,0.016,9.8066,0.0117,0.0909,-0.0171,-27.53,10.34,-5.95,199.94,1.66,-2.11
