,GPS LATITUDE (degrees), GPS LONGITUDE (degrees), GPS ALTITUDE (m), GPS SPEED (Kmh), GPS ACCURACY (m), GPS ORIENTATION (Â°),GPS SATELLITES IN RANGE, TIME SINCE START (ms), DATE (YYYY-MO-DD HH-MI-SS_SSS), ACCELEROMETER X (m/s²) , ACCELEROMETER Y (m/s²), ACCELEROMETER Z (m/s²), GRAVITY X (m/s²), GRAVITY Y (m/s²), GRAVITY Z (m/s²), GYROSCOPE Yaw (rad/s), GYROSCOPE Pitch (rad/s), GYROSCOPE Roll (rad/s), MAGNETIC FIELD X (Î¼T), MAGNETIC FIELD Y (Î¼T), MAGNETIC FIELD Z (Î¼T), ORIENTATION (Yaw) (Â°), ORIENTATION (Pitch) (Â°), ORIENTATION (Roll ) (Â°)
11619,50.836525,-3.392778,101,24.49,10.0,216.8,Oct-21,1162040,2019-08-17 07:39:51:407,0.3623,0.0821,9.3445,-0.0122,-0.0162,9.8066,0.0106,-0.0224,-0.0278,-11.78,26.41,-7.97,246.37,2.65,-0.33
11620,50.836525,-3.392778,101,24.49,10.0,216.8,Oct-21,1162140,2019-08-17 07:39:51:507,-0.1671,0.2176,9.9024,0.017,0.007,9.8066,-0.0427,-0.0149,0.0148,-11.4,26.16,-9.25,246.39,2.56,-0.32
11621,50.836525,-3.392778,101,24.49,10.0,216.8,Oct-21,1162240,2019-08-17 07:39:51:607,0.1513,0.21,10.1339,0.0239,-0.0029,9.8066,-0.0245,-0.0628,-0.0203,-11.4,26.16,-9.25,246.39,2.56,-0.32
11622,50.836525,-3.392778,101,24.49,10.0,216.8,Oct-21,1162339,2019-08-17 07:39:51:706,0.3133,0.1587,9.3015,0.0093,-0.0157,9.8066,-0.0245,-0.0628,-0.0203,-11.58,26.58,-7.72,245.49,2.6,-0.46
11623,50.836525,-3.392778,101,24.49,10.0,216.8,Oct-21,1162439,2019-08-17 07:39:51:806,-0.0109,0.297,9.0969,0.0042,-0.0109,9.8066,0.0245,-0.0714,-0.0171,-11.49,26.38,-8.49,245.49,2.6,-0.46
11624,50.836525,-3.392778,101,24.49,10.0,216.8,Oct-21,1162539,2019-08-17 07:39:51:906,-0.8768,0.0866,10.1948,-0.0151,0.03,9.8066,0.0117,-0.0533,0.001,-12.2,25.77,-9.32,244.61,2.55,-0.51
11625,50.83635,-3.393003,101,24.57,10.0,217.4,Oct-21,1162639,2019-08-17 07:39:52:006,-0.2962,0.3853,9.867,-0.0453,0.0612,9.8064,0.0085,-0.049,0.002,-10.89,26.35,-9.32,244.61,2.55,-0.51
11626,50.83635,-3.393003,101,24.57,10.0,217.4,Oct-21,1162739,2019-08-17 07:39:52:106,-0.4932,0.1176,9.6989,-0.067,0.0795,9.8061,-0.0139,0.0107,0.001,-11.36,26.19,-9.22,246.27,2.8,0.05
11627,50.83635,-3.393003,101,24.57,10.0,217.4,Oct-21,1162840,2019-08-17 07:39:52:207,-0.6341,0.0761,11.3593,0.0067,-0.0175,9.8066,-0.0363,0.016,0.0244,-11.36,26.19,-9.22,246.27,2.8,0.05
11628,50.83635,-3.393003,101,24.57,10.0,217.4,Oct-21,1162939,2019-08-17 07:39:52:306,-0.1808,0.0742,9.5182,-0.0082,0.0005,9.8066,-0.0309,-0.0149,0.0127,-11.7,26.24,-8.64,244.48,2.73,-0.03
11629,50.83635,-3.393003,101,24.57,10.0,217.4,Oct-21,1163039,2019-08-17 07:39:52:406,-0.4308,0.1147,10.3631,-0.0121,-0.0124,9.8066,-0.0309,-0.0149,0.0127,-11.7,26.24,-8.64,244.5,2.63,0.0
11630,50.83635,-3.393003,101,24.57,10.0,217.4,Oct-21,1163139,2019-08-17 07:39:52:506,-0.154,0.2662,9.6912,-0.0239,-0.0141,9.8066,0.0,-0.0628,0.0042,-11.7,26.24,-8.64,244.5,2.63,0.0
11631,50.83635,-3.393003,101,24.57,10.0,217.4,Oct-21,1163239,2019-08-17 07:39:52:606,0.2325,0.1687,8.5529,0.0032,0.0192,9.8066,-0.0128,-0.0256,0.0052,-12.4,26.19,-7.78,244.6,2.5,0.09
11632,50.83635,-3.393003,101,24.57,10.0,217.4,Oct-21,1163339,2019-08-17 07:39:52:706,-0.1852,0.0592,10.9789,0.0148,0.0402,9.8066,-0.0043,-0.0074,0.002,-11.79,26.44,-7.86,244.6,2.5,0.09
11633,50.83635,-3.393003,101,24.57,10.0,217.4,Oct-21,1163439,2019-08-17 07:39:52:806,0.2926,0.0716,9.4328,0.0348,0.0548,9.8064,-0.0213,0.0085,-0.0011,-11.7,26.24,-8.64,244.43,2.87,0.05
11634,50.83635,-3.393003,101,24.57,10.0,217.4,Oct-21,1163539,2019-08-17 07:39:52:906,0.0847,0.0133,10.3906,0.006,-0.0059,9.8066,-0.0064,0.0511,-0.0001,-11.7,26.24,-8.64,244.43,2.87,0.05
11635,50.83616,-3.393204,101,24.71,10.0,216.7,Oct-21,1163640,2019-08-17 07:39:53:007,-0.2039,-0.2578,10.485,-0.0167,-0.0113,9.8066,0.0074,-0.0522,0.0042,-11.27,26.65,-7.92,247.14,2.86,0.0
11636,50.83616,-3.393204,101,24.71,10.0,216.7,Oct-21,1163739,2019-08-17 07:39:53:106,-0.2003,0.0688,9.6483,-0.0492,-0.0109,9.8065,0.0298,0.0469,0.0042,-11.95,26.06,-8.83,244.45,2.69,0.24
11637,50.83616,-3.393204,101,24.71,10.0,216.7,Oct-21,1163839,2019-08-17 07:39:53:206,-0.4364,-0.0714,10.5996,-0.0377,0.0242,9.8065,0.0298,0.0469,0.0042,-11.95,26.06,-8.83,244.45,2.69,0.24
11638,50.83616,-3.393204,101,24.71,10.0,216.7,Oct-21,1163939,2019-08-17 07:39:53:306,0.0348,0.0983,8.6984,-0.0453,0.0394,9.8065,-0.015,0.0107,0.0116,-12.56,25.8,-8.74,242.59,2.78,0.58
11639,50.83616,-3.393204,101,24.71,10.0,216.7,Oct-21,1164039,2019-08-17 07:39:53:406,0.1231,-0.1877,10.3983,0.0075,0.0035,9.8066,-0.0458,-0.0554,0.0308,-11.8,26.47,-7.75,244.45,2.82,0.55
11640,50.83616,-3.393204,101,24.71,10.0,216.7,Oct-21,1164139,2019-08-17 07:39:53:506,0.0574,-0.1714,11.0071,0.0002,-0.0013,9.8066,0.0245,-0.0405,-0.0193,-11.95,26.06,-8.83,244.33,2.92,0.54
11641,50.83616,-3.393204,101,24.71,10.0,216.7,Oct-21,1164240,2019-08-17 07:39:53:607,0.1511,-0.0218,9.6777,-0.0004,-0.0225,9.8066,-0.0011,0.0192,-0.0011,-11.95,26.06,-8.83,244.33,2.92,0.54
11642,50.83616,-3.393204,101,24.71,10.0,216.7,Oct-21,1164340,2019-08-17 07:39:53:707,-0.1538,-0.334,11.0005,-0.0164,-0.0071,9.8066,0.017,0.0437,0.0297,-12.36,25.38,-10.16,243.38,2.8,0.48
11643,50.83616,-3.393204,101,24.71,10.0,216.7,Oct-21,1164439,2019-08-17 07:39:53:806,0.4408,0.2707,8.579,-0.0388,-0.0107,9.8066,0.0149,0.0053,0.017,-12.56,25.38,-8.74,243.38,2.8,0.48
11644,50.835968,-3.393419,100,24.82,10.0,217.0,Oct-21,1164541,2019-08-17 07:39:53:908,0.1011,0.0012,9.2802,-0.0246,0.008,9.8066,-0.0064,0.0746,0.0276,-12.56,25.8,-8.74,242.61,2.64,0.66
11645,50.835968,-3.393419,100,24.82,10.0,217.0,Oct-21,1164639,2019-08-17 07:39:54:006,-0.1503,-0.0366,9.7395,-0.0137,0.0099,9.8066,-0.0064,0.0746,0.0276,-11.86,25.87,-9.5,244.36,2.62,0.81
11646,50.835968,-3.393419,100,24.82,10.0,217.0,Oct-21,1164740,2019-08-17 07:39:54:107,0.2053,0.066,10.7216,0.0024,0.0238,9.8066,-0.0469,0.0,0.017,-11.86,25.87,-9.5,244.36,2.62,0.81
11647,50.835968,-3.393419,100,24.82,10.0,217.0,Oct-21,1164839,2019-08-17 07:39:54:206,0.3629,-0.1505,10.3695,0.0278,0.0026,9.8066,0.0085,0.0043,-0.0118,-12.47,25.61,-9.41,244.32,2.75,0.85
11648,50.835968,-3.393419,100,24.82,10.0,217.0,Oct-21,1164939,2019-08-17 07:39:54:306,0.1554,0.0084,9.0799,0.0488,0.0031,9.8065,-0.0064,-0.0692,0.0063,-12.33,26.13,-8.09,244.43,2.89,0.61
11649,50.835968,-3.393419,100,24.82,10.0,217.0,Oct-21,1165039,2019-08-17 07:39:54:406,-0.0324,0.3672,8.6471,0.0057,-0.0129,9.8066,-0.0405,0.0426,0.0308,-12.86,25.67,-8.7,244.43,2.89,0.61
11650,50.835968,-3.393419,100,24.82,10.0,217.0,Oct-21,1165139,2019-08-17 07:39:54:506,-0.1992,-0.0155,10.2622,-0.037,-0.0125,9.8066,0.0522,-0.0128,-0.0139,-12.86,25.67,-8.7,244.43,2.89,0.61
11651,50.835968,-3.393419,100,24.82,10.0,217.0,Oct-21,1165240,2019-08-17 07:39:54:607,0.1109,-0.1625,9.2843,0.0145,0.0099,9.8066,-0.0299,-0.0501,0.0276,-12.23,25.91,-8.91,244.34,2.73,0.77
11652,50.835968,-3.393419,100,24.82,10.0,217.0,Oct-21,1165339,2019-08-17 07:39:54:706,0.1673,-0.374,11.0753,0.0206,0.005,9.8066,-0.0299,-0.0501,0.0276,-12.73,25.41,-9.6,244.34,2.73,0.77
11653,50.835968,-3.393419,100,24.82,10.0,217.0,Oct-21,1165440,2019-08-17 07:39:54:807,0.4067,0.0515,9.5059,0.0194,-0.0255,9.8066,-0.048,0.0703,0.017,-12.01,25.46,-10.37,243.34,2.81,0.67
11654,50.835968,-3.393419,100,24.82,10.0,217.0,Oct-21,1165540,2019-08-17 07:39:54:907,0.2843,-0.1822,10.2819,0.0066,-0.0374,9.8066,-0.0043,0.049,0.0255,-12.01,25.46,-10.37,243.34,2.81,0.67
11655,50.83579,-3.393632,100,25.02,10.0,217.3,Oct-21,1165640,2019-08-17 07:39:55:007,-0.1369,-0.2225,10.1306,-0.0069,-0.0175,9.8066,0.0,-0.0032,0.0266,-12.9,24.98,-10.48,241.62,2.63,0.54
11656,50.83579,-3.393632,100,25.02,10.0,217.3,Oct-21,1165739,2019-08-17 07:39:55:106,0.5965,-0.1621,9.6008,0.003,-0.0023,9.8066,0.0053,0.0394,0.001,-13.02,25.23,-9.7,241.62,2.63,0.54
11657,50.83579,-3.393632,100,25.02,10.0,217.3,Oct-21,1165839,2019-08-17 07:39:55:206,0.1129,-0.1293,9.5976,-0.0121,0.0114,9.8066,0.0138,-0.0351,0.0074,-13.56,25.56,-7.92,241.01,2.63,0.52
11658,50.83579,-3.393632,100,25.02,10.0,217.3,Oct-21,1165940,2019-08-17 07:39:55:307,0.3219,-0.1114,10.7558,-0.0014,0.02,9.8066,0.0021,0.0277,0.002,-13.13,25.43,-9.01,241.67,2.73,0.58
11659,50.83579,-3.393632,100,25.02,10.0,217.3,Oct-21,1166040,2019-08-17 07:39:55:407,0.7232,0.0624,9.3505,0.0256,-0.0063,9.8066,-0.0522,-0.0277,-0.0118,-12.73,25.41,-9.6,241.67,2.73,0.58
11660,50.83579,-3.393632,100,25.02,10.0,217.3,Oct-21,1166140,2019-08-17 07:39:55:507,0.3656,-0.1699,10.2599,0.0851,-0.0505,9.8062,0.0,-0.0245,-0.0075,-12.73,25.41,-9.6,241.67,2.73,0.58
11661,50.83579,-3.393632,100,25.02,10.0,217.3,Oct-21,1166239,2019-08-17 07:39:55:606,0.4177,-0.0449,10.0268,0.0183,-0.0168,9.8066,0.0,-0.0245,-0.0075,-12.75,25.44,-9.49,241.79,2.7,0.0
11662,50.83579,-3.393632,100,25.02,10.0,217.3,Oct-21,1166340,2019-08-17 07:39:55:707,0.5708,-0.1125,10.1449,0.012,-0.0236,9.8066,0.0309,0.049,0.0042,-12.58,25.83,-8.63,242.76,2.61,-0.12
11663,50.83579,-3.393632,100,25.02,10.0,217.3,Oct-21,1166439,2019-08-17 07:39:55:806,0.3697,-0.1111,9.673,-0.0164,0.0003,9.8066,0.0234,-0.0064,0.017,-12.58,25.83,-8.63,242.76,2.61,-0.12
11664,50.835632,-3.393863,99,24.43,10.0,217.5,Oct-21,1166540,2019-08-17 07:39:55:907,0.3837,0.074,8.9759,-0.0039,0.0011,9.8067,-0.0182,-0.016,0.0234,-13.14,25.46,-8.89,241.83,2.57,-0.04
11665,50.835632,-3.393863,99,24.43,10.0,217.5,Oct-21,1166639,2019-08-17 07:39:56:006,0.0544,-0.1782,10.338,0.0135,0.0051,9.8066,0.0085,0.0352,0.0074,-12.9,24.98,-10.48,241.75,2.57,-0.01
11666,50.835632,-3.393863,99,24.43,10.0,217.5,Oct-21,1166740,2019-08-17 07:39:56:107,0.3612,0.0552,9.2689,0.0315,0.0023,9.8066,-0.0011,-0.0117,-0.0022,-13.1,24.69,-10.9,241.67,2.67,-0.17
11667,50.835632,-3.393863,99,24.43,10.0,217.5,Oct-21,1166839,2019-08-17 07:39:56:206,0.0581,-0.0852,9.6276,0.014,-0.0066,9.8066,-0.0043,0.033,0.0148,-13.1,24.69,-10.9,241.67,2.67,-0.17
11668,50.835632,-3.393863,99,24.43,10.0,217.5,Oct-21,1166939,2019-08-17 07:39:56:306,0.1756,0.0122,9.9284,0.0184,-0.0075,9.8066,0.0181,0.0021,-0.0065,-13.17,24.74,-10.7,241.69,2.67,-0.26
11669,50.835632,-3.393863,99,24.43,10.0,217.5,Oct-21,1167039,2019-08-17 07:39:56:406,0.0095,-0.1193,10.2882,-0.0034,-0.0176,9.8066,0.0181,0.0021,-0.0065,-13.63,24.95,-9.59,240.08,2.61,-0.45
11670,50.835632,-3.393863,99,24.43,10.0,217.5,Oct-21,1167139,2019-08-17 07:39:56:506,-0.0578,-0.0606,10.2827,0.004,-0.0274,9.8066,0.0095,0.0117,-0.0086,-13.63,24.95,-9.59,240.08,2.61,-0.45
11671,50.835632,-3.393863,99,24.43,10.0,217.5,Oct-21,1167239,2019-08-17 07:39:56:606,0.0425,-0.1431,9.9636,0.025,-0.0331,9.8066,-0.0064,-0.0032,0.0052,-13.63,24.95,-9.59,240.08,2.61,-0.45
11672,50.835632,-3.393863,99,24.43,10.0,217.5,Oct-21,1167340,2019-08-17 07:39:56:707,0.126,-0.0125,9.9038,0.0138,-0.0063,9.8066,-0.0224,-0.0458,-0.0065,-13.33,25.03,-9.79,241.89,2.52,-0.67
11673,50.835632,-3.393863,99,24.43,10.0,217.5,Oct-21,1167439,2019-08-17 07:39:56:806,0.3855,0.1642,9.3806,0.0223,-0.0052,9.8066,0.0191,0.0352,0.0074,-13.78,24.46,-10.58,239.09,2.55,-0.8
11674,50.835632,-3.393863,99,24.43,10.0,217.5,Oct-21,1167539,2019-08-17 07:39:56:906,-0.1325,-0.0786,10.4853,0.0094,-0.0102,9.8066,-0.0086,0.0447,0.0074,-13.31,25.0,-9.91,239.09,2.55,-0.8
11675,50.835464,-3.394063,97,24.29,10.0,217.9,Oct-21,1167640,2019-08-17 07:39:57:007,-0.4194,0.0352,10.4718,0.0071,-0.0198,9.8066,0.0,-0.0085,0.0223,-13.78,24.46,-10.58,239.13,2.48,-0.9
11676,50.835464,-3.394063,97,24.29,10.0,217.9,Oct-21,1167739,2019-08-17 07:39:57:106,-0.1857,-0.0291,10.2437,0.0089,-0.0082,9.8066,0.0,-0.0085,0.0223,-13.78,24.46,-10.58,239.13,2.48,-0.9
11677,50.835464,-3.394063,97,24.29,10.0,217.9,Oct-21,1167840,2019-08-17 07:39:57:207,-0.1728,-0.0842,9.6556,0.0122,-0.0102,9.8066,-0.0086,-0.0096,-0.0022,-14.04,24.28,-10.65,239.15,2.46,-0.97
11678,50.835464,-3.394063,97,24.29,10.0,217.9,Oct-21,1167939,2019-08-17 07:39:57:306,-0.2793,-0.1487,10.635,0.0151,-0.0163,9.8066,-0.0139,0.0032,0.0148,-13.19,24.78,-10.59,241.94,2.42,-1.09
11679,50.835464,-3.394063,97,24.29,10.0,217.9,Oct-21,1168040,2019-08-17 07:39:57:407,-0.2773,-0.0622,10.2516,0.0118,-0.0025,9.8066,0.0106,0.0011,-0.0118,-13.14,25.46,-8.89,242.08,2.38,-1.16
11680,50.835464,-3.394063,97,24.29,10.0,217.9,Oct-21,1168140,2019-08-17 07:39:57:507,-0.1007,-0.1629,10.1181,0.0304,-0.0082,9.8066,-0.0213,-0.0085,0.0106,-13.14,25.46,-8.89,242.08,2.38,-1.16
11681,50.835464,-3.394063,97,24.29,10.0,217.9,Oct-21,1168240,2019-08-17 07:39:57:607,-0.1615,-0.0586,10.2066,0.0094,-0.001,9.8066,-0.0181,-0.0351,0.002,-13.14,25.46,-8.89,242.1,2.42,-1.34
11682,50.835464,-3.394063,97,24.29,10.0,217.9,Oct-21,1168339,2019-08-17 07:39:57:706,-0.1589,-0.0744,10.4096,-0.0119,0.001,9.8066,0.0159,-0.0075,-0.0011,-13.65,24.98,-9.48,240.36,2.44,-1.39
11683,50.835464,-3.394063,97,24.29,10.0,217.9,Oct-21,1168440,2019-08-17 07:39:57:807,0.0032,0.0422,10.2974,-0.0128,-0.0011,9.8066,0.0159,-0.0075,-0.0011,-13.26,25.68,-8.06,243.07,2.4,-1.32
11684,50.835464,-3.394063,97,24.29,10.0,217.9,Oct-21,1168540,2019-08-17 07:39:57:907,0.143,0.0371,8.9632,-0.0232,0.0009,9.8066,0.0095,0.0107,-0.0107,-12.86,25.67,-8.7,243.07,2.4,-1.32
11685,50.8353,-3.394277,97,24.31,10.0,218.0,Oct-21,1168639,2019-08-17 07:39:58:006,-0.2385,0.0796,8.2594,-0.0194,0.0183,9.8066,-0.0075,-0.0394,0.0223,-12.86,25.67,-8.7,243.07,2.4,-1.32
11686,50.8353,-3.394277,97,24.31,10.0,218.0,Oct-21,1168740,2019-08-17 07:39:58:107,-0.3194,-0.1193,10.5077,0.0246,0.0295,9.8066,-0.0118,-0.0916,0.0063,-13.14,25.46,-8.89,242.07,2.45,-1.18
11687,50.8353,-3.394277,97,24.31,10.0,218.0,Oct-21,1168839,2019-08-17 07:39:58:206,-0.5615,0.1255,10.0883,0.0534,0.063,9.8063,0.0127,0.0181,-0.0022,-13.04,25.26,-9.58,241.9,2.92,-1.28
11688,50.8353,-3.394277,97,24.31,10.0,218.0,Oct-21,1168940,2019-08-17 07:39:58:307,-0.3186,-0.079,10.3269,-0.0039,-0.0275,9.8066,-0.0309,0.0203,0.0021,-13.04,25.26,-9.58,241.9,2.92,-1.28
11689,50.8353,-3.394277,97,24.31,10.0,218.0,Oct-21,1169039,2019-08-17 07:39:58:406,-0.4849,-0.5167,11.2548,-0.0071,-0.0576,9.8065,-0.0064,-0.0138,0.0084,-11.86,26.01,-9.08,244.69,2.76,-1.33
11690,50.8353,-3.394277,97,24.31,10.0,218.0,Oct-21,1169139,2019-08-17 07:39:58:506,-0.2855,-0.0812,9.8827,-0.027,-0.0477,9.8065,0.0202,-0.0117,0.0031,-13.75,25.17,-8.79,240.37,2.44,-1.44
11691,50.8353,-3.394277,97,24.31,10.0,218.0,Oct-21,1169239,2019-08-17 07:39:58:606,-0.0496,0.1425,9.0825,-0.0365,-0.0118,9.8066,0.0202,-0.0117,0.0031,-13.4,25.31,-8.93,240.37,2.44,-1.44
11692,50.8353,-3.394277,97,24.31,10.0,218.0,Oct-21,1169340,2019-08-17 07:39:58:707,0.1749,0.0451,9.1202,0.0178,0.0068,9.8066,-0.0171,-0.033,0.0084,-13.26,25.68,-8.06,243.09,2.28,-1.29
11693,50.8353,-3.394277,97,24.31,10.0,218.0,Oct-21,1169440,2019-08-17 07:39:58:807,0.1255,0.0288,10.5544,0.0281,0.0152,9.8066,-0.0245,-0.0106,0.0127,-13.26,25.68,-8.06,243.09,2.28,-1.29
11694,50.8353,-3.394277,97,24.31,10.0,218.0,Oct-21,1169540,2019-08-17 07:39:58:907,0.4155,0.2207,9.5621,0.0072,0.0084,9.8066,0.0127,-0.0064,0.002,-13.16,25.49,-8.77,242.11,2.43,-1.4
11695,50.83512,-3.394492,97,24.26,10.0,218.2,Oct-21,1169639,2019-08-17 07:39:59:006,-0.3783,-0.1739,10.5054,0.0106,0.0169,9.8066,0.0159,-0.0192,0.001,-13.87,25.38,-7.97,240.4,2.49,-1.41
11696,50.83512,-3.394492,97,24.26,10.0,218.2,Oct-21,1169740,2019-08-17 07:39:59:107,0.0693,-0.0641,9.817,-0.0072,0.0112,9.8066,-0.0043,0.033,0.0212,-13.61,25.7,-7.35,241.39,2.53,-1.34
11697,50.83512,-3.394492,97,24.26,10.0,218.2,Oct-21,1169839,2019-08-17 07:39:59:206,-0.3083,-0.0347,10.2348,-0.0407,-0.0246,9.8065,0.0053,-0.0064,0.0116,-12.88,25.7,-8.59,241.39,2.53,-1.34
11698,50.83512,-3.394492,97,24.26,10.0,218.2,Oct-21,1169939,2019-08-17 07:39:59:306,-0.4254,-0.159,10.5599,-0.062,-0.0259,9.8064,-0.0032,0.0011,-0.0193,-12.88,25.7,-8.59,241.39,2.53,-1.34
11699,50.83512,-3.394492,97,24.26,10.0,218.2,Oct-21,1170040,2019-08-17 07:39:59:407,0.1006,-0.1781,9.5228,-0.0595,-0.0282,9.8064,-0.0032,0.0011,-0.0193,-13.02,25.23,-9.7,242.06,2.22,-1.11
11700,50.83512,-3.394492,97,24.26,10.0,218.2,Oct-21,1170139,2019-08-17 07:39:59:506,-0.1792,-0.2835,10.6016,0.0075,0.0127,9.8066,-0.0128,-0.1023,-0.0033,-14.02,25.01,-8.83,240.36,2.25,-1.16
11701,50.83512,-3.394492,97,24.26,10.0,218.2,Oct-21,1170240,2019-08-17 07:39:59:607,0.0577,0.0248,10.8991,0.0196,0.024,9.8066,-0.0128,-0.0341,-0.0001,-13.36,25.87,-7.21,243.1,2.43,-1.19
11702,50.83512,-3.394492,97,24.26,10.0,218.2,Oct-21,1170340,2019-08-17 07:39:59:707,0.3842,-0.0529,10.186,0.0012,0.0146,9.8066,0.0404,0.0,0.002,-13.36,25.87,-7.21,243.1,2.43,-1.19
11703,50.83512,-3.394492,97,24.26,10.0,218.2,Oct-21,1170439,2019-08-17 07:39:59:806,0.2481,-0.001,10.0371,-0.0116,0.0197,9.8066,0.001,-0.0341,0.0191,-13.36,25.87,-7.21,243.1,2.43,-1.19
11704,50.83512,-3.394492,97,24.26,10.0,218.2,Oct-21,1170539,2019-08-17 07:39:59:906,0.4866,-0.1059,9.6062,-0.0206,-0.0249,9.8066,-0.0043,0.049,0.0223,-12.97,25.88,-7.89,243.01,2.5,-1.08
11705,50.83495,-3.394704,97,24.2,10.0,218.4,Oct-21,1170640,2019-08-17 07:40:00:007,-0.1823,-0.1949,10.0607,-0.0411,-0.0537,9.8064,-0.0064,0.0362,0.0084,-13.47,25.39,-8.61,242.12,2.12,-1.0
11706,50.83495,-3.394704,97,24.2,10.0,218.4,Oct-21,1170739,2019-08-17 07:40:00:106,-0.3222,-0.0278,10.7901,-0.002,0.001,9.8066,-0.0043,-0.0224,0.0116,-13.47,25.39,-8.61,242.12,2.12,-1.0
11707,50.83495,-3.394704,97,24.2,10.0,218.4,Oct-21,1170840,2019-08-17 07:40:00:207,0.8713,-0.0533,8.3688,0.0269,0.0034,9.8066,-0.0043,-0.0224,0.0116,-13.14,25.46,-8.89,242.12,2.12,-1.0
11708,50.83495,-3.394704,97,24.2,10.0,218.4,Oct-21,1170940,2019-08-17 07:40:00:307,0.3972,0.0019,9.9698,0.0409,0.0192,9.8065,0.0064,-0.0341,0.018,-13.67,25.78,-6.98,241.4,2.33,-1.16
11709,50.83495,-3.394704,97,24.2,10.0,218.4,Oct-21,1171039,2019-08-17 07:40:00:406,0.199,0.0677,9.9606,-0.0228,-0.0004,9.8066,0.033,0.0384,0.0052,-13.75,25.83,-6.62,241.38,2.38,-1.11
11710,50.83495,-3.394704,97,24.2,10.0,218.4,Oct-21,1171140,2019-08-17 07:40:00:507,0.1392,0.0023,9.672,-0.0342,-0.0121,9.8066,-0.0139,0.0522,-0.0001,-13.75,25.83,-6.62,241.38,2.38,-1.11
11711,50.83495,-3.394704,97,24.2,10.0,218.4,Oct-21,1171239,2019-08-17 07:40:00:606,-0.0227,-0.3011,10.3445,0.0001,-0.0156,9.8066,-0.0331,0.0362,0.0297,-13.35,25.85,-7.34,243.11,2.22,-0.96
11712,50.83495,-3.394704,97,24.2,10.0,218.4,Oct-21,1171340,2019-08-17 07:40:00:707,0.1817,0.0333,10.1456,0.0051,0.0019,9.8067,0.0213,-0.0277,-0.0171,-13.85,25.35,-8.09,240.41,2.14,-1.01
11713,50.83495,-3.394704,97,24.2,10.0,218.4,Oct-21,1171439,2019-08-17 07:40:00:806,0.5617,0.0492,9.3078,0.0083,0.0038,9.8066,0.0202,0.0362,0.0031,-13.36,25.92,-7.06,243.12,2.18,-1.04
11714,50.83495,-3.394704,97,24.2,10.0,218.4,Oct-21,1171539,2019-08-17 07:40:00:906,0.1337,-0.2691,10.5942,0.0037,-0.0017,9.8067,0.0202,0.0362,0.0031,-13.33,25.82,-7.46,243.12,2.18,-1.04
11715,50.83479,-3.394914,97,24.14,10.0,218.3,Oct-21,1171639,2019-08-17 07:40:01:006,0.6248,-0.0107,9.7257,0.014,-0.0084,9.8066,-0.0458,-0.0213,0.0031,-13.33,25.82,-7.46,243.12,2.18,-1.04
11716,50.83479,-3.394914,97,24.14,10.0,218.3,Oct-21,1171739,2019-08-17 07:40:01:106,0.0986,0.0008,10.1561,0.0014,-0.0076,9.8066,0.0181,-0.0064,-0.0033,-13.03,25.99,-7.41,243.14,2.17,-1.13
11717,50.83479,-3.394914,97,24.14,10.0,218.3,Oct-21,1171839,2019-08-17 07:40:01:206,0.1383,-0.0471,9.5468,-0.0036,-0.0166,9.8066,0.0298,0.0213,0.001,-13.03,25.99,-7.41,243.16,2.08,-1.16
11718,50.83479,-3.394914,97,24.14,10.0,218.3,Oct-21,1171939,2019-08-17 07:40:01:306,-0.6101,0.1013,10.3459,-0.0223,0.0,9.8066,-0.015,-0.0245,0.0116,-12.93,25.79,-8.24,243.11,2.02,-1.04
11719,50.83479,-3.394914,97,24.14,10.0,218.3,Oct-21,1172040,2019-08-17 07:40:01:407,0.1694,0.139,8.3325,-0.0158,0.0038,9.8066,-0.0107,-0.0288,-0.0139,-12.93,25.79,-8.24,243.11,2.02,-1.04
11720,50.83479,-3.394914,97,24.14,10.0,218.3,Oct-21,1172139,2019-08-17 07:40:01:506,-0.2715,-0.041,10.5904,-0.0053,0.0036,9.8066,-0.0373,0.0032,-0.0097,-12.93,25.79,-8.24,243.1,2.02,-1.0
11721,50.83479,-3.394914,97,24.14,10.0,218.3,Oct-21,1172239,2019-08-17 07:40:01:606,0.2343,0.0737,9.8015,0.0434,-0.0042,9.8066,-0.0373,0.0032,-0.0097,-13.62,25.67,-7.45,243.1,2.02,-1.0
11722,50.83479,-3.394914,97,24.14,10.0,218.3,Oct-21,1172340,2019-08-17 07:40:01:707,0.1729,-0.0261,9.8313,0.0038,-0.0121,9.8066,-0.0192,0.0021,0.0106,-13.92,25.46,-7.61,240.47,2.17,-1.44
11723,50.83479,-3.394914,97,24.14,10.0,218.3,Oct-21,1172439,2019-08-17 07:40:01:806,0.0508,-0.1247,10.2968,-0.0236,-0.0233,9.8066,0.0277,-0.0064,0.001,-12.91,25.76,-8.35,240.47,2.17,-1.44
11724,50.83479,-3.394914,97,24.14,10.0,218.3,Oct-21,1172540,2019-08-17 07:40:01:907,-0.1362,-0.0119,9.9452,-0.0552,-0.0259,9.8065,0.0468,0.032,-0.0022,-12.91,25.76,-8.35,240.47,2.17,-1.44
11725,50.834606,-3.395116,98,24.19,10.0,218.1,Oct-21,1172641,2019-08-17 07:40:02:008,0.0003,0.2212,8.9851,-0.0074,-0.0039,9.8066,-0.0096,-0.0277,-0.0043,-13.55,25.41,-8.41,240.5,1.88,-1.24
11726,50.834606,-3.395116,98,24.19,10.0,218.1,Oct-21,1172739,2019-08-17 07:40:02:106,-0.2365,-0.1242,9.562,-0.0014,-0.0004,9.8067,0.0064,-0.0479,0.0084,-13.55,25.41,-8.41,240.5,1.88,-1.23
11727,50.834606,-3.395116,98,24.19,10.0,218.1,Oct-21,1172839,2019-08-17 07:40:02:206,-0.331,0.0307,9.7265,0.0077,0.0048,9.8066,0.0202,0.0075,0.0106,-13.55,25.41,-8.41,240.5,1.88,-1.23
11728,50.834606,-3.395116,98,24.19,10.0,218.1,Oct-21,1172939,2019-08-17 07:40:02:306,-0.2569,0.1738,9.7107,0.0147,0.0068,9.8066,-0.0203,-0.0021,0.0191,-12.85,26.02,-7.62,243.16,1.95,-1.29
11729,50.834606,-3.395116,98,24.19,10.0,218.1,Oct-21,1173040,2019-08-17 07:40:02:407,-0.2878,-0.0316,10.0498,0.0106,0.0018,9.8066,-0.0107,-0.0202,0.0138,-12.85,26.02,-7.62,243.16,1.95,-1.29
11730,50.834606,-3.395116,98,24.19,10.0,218.1,Oct-21,1173140,2019-08-17 07:40:02:507,0.024,0.0224,9.2886,0.0072,-0.0421,9.8066,-0.0107,-0.0202,0.0138,-13.32,25.67,-7.97,243.16,1.99,-1.34
11731,50.834606,-3.395116,98,24.19,10.0,218.1,Oct-21,1173240,2019-08-17 07:40:02:607,-0.4558,-0.15,10.2563,0.0038,-0.0125,9.8066,0.0245,0.0405,0.0095,-14.29,24.65,-9.4,240.53,1.79,-1.49
11732,50.834606,-3.395116,98,24.19,10.0,218.1,Oct-21,1173340,2019-08-17 07:40:02:707,-0.09,0.1136,9.7822,0.0035,-0.0047,9.8066,-0.0107,0.0,0.0159,-13.3,25.38,-8.91,240.53,1.79,-1.49
11733,50.834606,-3.395116,98,24.19,10.0,218.1,Oct-21,1173440,2019-08-17 07:40:02:807,-0.3177,0.3457,9.4988,-0.0019,0.0064,9.8066,-0.0128,-0.032,0.017,-13.12,25.8,-7.9,243.23,1.78,-1.52
11734,50.834606,-3.395116,98,24.19,10.0,218.1,Oct-21,1173539,2019-08-17 07:40:02:906,-0.651,-0.0212,10.51,-0.0149,0.0254,9.8066,0.0468,-0.017,-0.0097,-13.61,25.53,-7.95,243.23,1.78,-1.52
11735,50.83444,-3.395327,99,24.24,10.0,218.0,Oct-21,1173639,2019-08-17 07:40:03:006,-0.3207,0.2599,9.7153,-0.0348,0.0326,9.8065,0.0362,0.0266,-0.0001,-13.61,25.53,-7.95,243.23,1.78,-1.52
11736,50.83444,-3.395327,99,24.24,10.0,218.0,Oct-21,1173739,2019-08-17 07:40:03:106,-0.3886,-0.0147,9.9748,-0.0213,0.0104,9.8066,-0.0118,-0.0309,0.0031,-13.79,25.1,-8.94,240.48,1.85,-1.25
11737,50.83444,-3.395327,99,24.24,10.0,218.0,Oct-21,1173839,2019-08-17 07:40:03:206,-0.2485,0.0365,9.3189,-0.031,0.0015,9.8066,-0.0224,0.0043,0.001,-13.87,25.02,-9.03,240.48,1.85,-1.25
11738,50.83444,-3.395327,99,24.24,10.0,218.0,Oct-21,1173940,2019-08-17 07:40:03:307,-0.22,-0.1207,9.8861,-0.0224,0.0002,9.8066,-0.0224,0.0043,0.001,-13.59,25.5,-8.06,240.51,1.79,-1.13
11739,50.83444,-3.395327,99,24.24,10.0,218.0,Oct-21,1174041,2019-08-17 07:40:03:408,-0.2843,-0.1712,9.8702,0.0081,0.0005,9.8066,0.0095,0.0352,-0.0022,-13.59,25.5,-8.06,240.51,1.82,-1.17
11740,50.83444,-3.395327,99,24.24,10.0,218.0,Oct-21,1174139,2019-08-17 07:40:03:506,-0.176,-0.038,9.6622,-0.0172,-0.0264,9.8066,0.0042,0.0128,0.0052,-14.17,24.78,-9.23,240.51,1.82,-1.17
11741,50.83444,-3.395327,99,24.24,10.0,218.0,Oct-21,1174240,2019-08-17 07:40:03:607,-0.1326,-0.1915,10.431,-0.0237,-0.0161,9.8066,-0.0139,-0.082,0.0138,-14.17,24.78,-9.23,240.51,1.82,-1.17
11742,50.83444,-3.395327,99,24.24,10.0,218.0,Oct-21,1174339,2019-08-17 07:40:03:706,0.0354,0.1166,9.926,-0.0005,0.0137,9.8066,0.0255,-0.0107,0.0095,-13.46,25.02,-9.63,242.22,1.67,-1.1
11743,50.83444,-3.395327,99,24.24,10.0,218.0,Oct-21,1174439,2019-08-17 07:40:03:806,-0.1177,0.2838,9.1605,-0.0161,0.0173,9.8066,-0.0118,0.0032,0.0148,-13.61,24.55,-10.6,240.39,1.71,-0.97
11744,50.83444,-3.395327,99,24.24,10.0,218.0,Oct-21,1174540,2019-08-17 07:40:03:907,-0.5074,-0.1408,11.2078,-0.0188,0.0116,9.8066,0.0021,-0.0043,0.0159,-13.61,24.55,-10.6,240.39,1.71,-0.97
11745,50.834263,-3.395533,100,24.28,9.0,217.9,Oct-21,1174639,2019-08-17 07:40:04:006,-0.1431,0.0286,10.2757,-0.0154,0.0043,9.8066,0.0021,-0.0043,0.0159,-14.47,24.53,-9.43,240.44,1.72,-0.84
11746,50.834263,-3.395533,100,24.28,9.0,217.9,Oct-21,1174739,2019-08-17 07:40:04:106,0.2613,0.1544,9.192,-0.0215,-0.0046,9.8066,0.0053,0.0554,0.0031,-13.85,24.99,-9.15,240.44,1.63,-0.74
11747,50.834263,-3.395533,100,24.28,9.0,217.9,Oct-21,1174840,2019-08-17 07:40:04:207,-0.2546,-0.1586,10.9015,-0.0021,-0.0163,9.8066,-0.0107,0.0362,0.0138,-13.85,24.99,-9.15,240.44,1.63,-0.74
11748,50.834263,-3.395533,100,24.28,9.0,217.9,Oct-21,1174939,2019-08-17 07:40:04:306,0.2121,-0.1547,9.7924,-0.0047,-0.0315,9.8066,0.0042,-0.016,0.0084,-14.77,24.71,-8.43,238.83,1.46,-0.81
11749,50.834263,-3.395533,100,24.28,9.0,217.9,Oct-21,1175040,2019-08-17 07:40:04:407,0.2557,0.259,8.8758,-0.0097,0.0467,9.8065,0.033,0.032,0.017,-14.77,24.71,-8.43,238.83,1.46,-0.81
11750,50.834263,-3.395533,100,24.28,9.0,217.9,Oct-21,1175140,2019-08-17 07:40:04:507,-0.0472,-0.0648,9.6541,-0.0224,0.0178,9.8066,0.0138,-0.0533,0.0202,-14.07,25.38,-7.62,240.46,1.66,-0.62
11751,50.834263,-3.395533,100,24.28,9.0,217.9,Oct-21,1175239,2019-08-17 07:40:04:606,-0.2613,0.086,10.3373,-0.0144,0.0161,9.8066,-0.0213,-0.033,0.0308,-13.56,25.21,-8.96,240.38,1.69,-0.46
11752,50.834263,-3.395533,100,24.28,9.0,217.9,Oct-21,1175339,2019-08-17 07:40:04:706,-0.557,0.0764,10.5557,-0.023,0.0311,9.8066,-0.0224,-0.0128,-0.0022,-13.56,25.21,-8.96,240.38,1.69,-0.46
11753,50.834263,-3.395533,100,24.28,9.0,217.9,Oct-21,1175440,2019-08-17 07:40:04:807,0.215,0.1633,9.3906,0.0058,0.0017,9.8066,-0.0224,-0.0128,-0.0022,-13.85,24.99,-9.15,240.32,1.78,-0.25
11754,50.834087,-3.395745,99,24.31,9.0,217.6,Oct-21,1175539,2019-08-17 07:40:04:906,-0.332,-0.2672,11.2194,-0.0011,-0.02,9.8066,0.017,-0.017,-0.0033,-13.97,25.21,-8.34,240.4,1.67,-0.3
11755,50.834087,-3.395745,99,24.31,9.0,217.6,Oct-21,1175639,2019-08-17 07:40:05:006,-0.2717,-0.0009,10.078,-0.0052,-0.0056,9.8066,-0.0043,-0.0106,0.0361,-13.97,25.21,-8.34,240.4,1.67,-0.3
11756,50.834087,-3.395745,99,24.31,9.0,217.6,Oct-21,1175740,2019-08-17 07:40:05:107,0.3212,0.1219,8.6921,-0.0192,0.0144,9.8066,0.0404,-0.0447,0.0052,-14.03,24.55,-10.03,240.32,1.63,-0.29
11757,50.834087,-3.395745,99,24.31,9.0,217.6,Oct-21,1175839,2019-08-17 07:40:05:206,0.1039,-0.1018,9.9156,-0.0362,0.0495,9.8065,-0.0043,-0.0011,0.017,-14.07,25.01,-8.76,240.27,1.78,0.04
11758,50.834087,-3.395745,99,24.31,9.0,217.6,Oct-21,1175939,2019-08-17 07:40:05:306,0.3614,-0.0727,9.2151,-0.0169,0.0187,9.8066,-0.0277,0.0085,0.0351,-14.07,25.01,-8.76,240.27,1.78,0.04
11759,50.834087,-3.395745,99,24.31,9.0,217.6,Oct-21,1176039,2019-08-17 07:40:05:406,0.0008,-0.177,10.4735,-0.0045,0.0004,9.8066,0.0085,0.0011,0.018,-13.87,25.02,-9.03,240.23,1.82,0.18
11760,50.834087,-3.395745,99,24.31,9.0,217.6,Oct-21,1176139,2019-08-17 07:40:05:506,-0.1479,0.0943,10.5824,-0.0103,0.0039,9.8066,0.0245,0.0245,-0.0033,-14.15,24.75,-9.34,240.23,1.81,0.24
11761,50.834087,-3.395745,99,24.31,9.0,217.6,Oct-21,1176241,2019-08-17 07:40:05:608,0.0647,-0.1288,9.5375,-0.0285,-0.0128,9.8066,0.0245,0.0245,-0.0033,-14.15,24.75,-9.34,240.23,1.81,0.24
11762,50.834087,-3.395745,99,24.31,9.0,217.6,Oct-21,1176340,2019-08-17 07:40:05:707,-0.3453,-0.226,10.8848,-0.0399,-0.0073,9.8066,0.0202,0.0277,0.0244,-14.52,24.3,-9.93,237.44,1.67,0.35
11763,50.834087,-3.395745,99,24.31,9.0,217.6,Oct-21,1176439,2019-08-17 07:40:05:806,-0.6385,0.1168,9.7243,-0.0694,0.0102,9.8064,0.0021,-0.0607,0.0287,-14.73,24.88,-7.99,237.44,1.67,0.35
11764,50.833927,-3.395964,98,24.21,9.0,217.5,Oct-21,1176540,2019-08-17 07:40:05:907,0.289,0.1496,10.0337,-0.0935,0.018,9.8062,-0.0075,-0.0085,0.0308,-14.57,25.15,-7.43,238.62,1.46,0.86
11765,50.833927,-3.395964,98,24.21,9.0,217.5,Oct-21,1176640,2019-08-17 07:40:06:007,0.5971,0.1265,8.9445,0.0135,0.0223,9.8066,-0.0352,-0.0117,0.034,-14.97,23.8,-10.47,238.62,1.46,0.86
11766,50.833927,-3.395964,98,24.21,9.0,217.5,Oct-21,1176739,2019-08-17 07:40:06:106,0.1486,0.045,10.5846,0.0231,0.033,9.8066,-0.015,-0.033,0.0457,-13.89,25.28,-8.24,240.21,1.69,0.85
11767,50.833927,-3.395964,98,24.21,9.0,217.5,Oct-21,1176839,2019-08-17 07:40:06:206,0.4575,0.191,8.9344,-0.0148,0.0135,9.8066,0.0277,0.0202,0.0042,-14.17,24.78,-9.23,240.21,1.69,0.85
11768,50.833927,-3.395964,98,24.21,9.0,217.5,Oct-21,1176940,2019-08-17 07:40:06:307,0.3183,-0.0931,9.5314,-0.0454,0.0236,9.8065,0.0277,0.0202,0.0042,-14.17,24.78,-9.23,240.21,1.69,0.85
11769,50.833927,-3.395964,98,24.21,9.0,217.5,Oct-21,1177039,2019-08-17 07:40:06:406,0.193,-0.108,9.9474,0.0017,0.0006,9.8067,-0.0416,0.0309,0.0585,-14.99,24.3,-9.21,237.33,1.68,1.15
11770,50.833927,-3.395964,98,24.21,9.0,217.5,Oct-21,1177139,2019-08-17 07:40:06:506,0.0907,-0.0213,9.2574,-0.0058,0.0097,9.8066,0.0042,-0.0756,0.0276,-14.94,24.51,-8.72,237.33,1.68,1.15
11771,50.833927,-3.395964,98,24.21,9.0,217.5,Oct-21,1177240,2019-08-17 07:40:06:607,0.1648,-0.0696,10.7405,-0.0037,-0.0044,9.8066,0.0341,0.0011,-0.0012,-14.07,25.01,-8.76,240.07,1.71,1.21
11772,50.833927,-3.395964,98,24.21,9.0,217.5,Oct-21,1177340,2019-08-17 07:40:06:707,0.3575,-0.1181,9.1532,0.0051,-0.0002,9.8066,-0.0192,0.032,0.0233,-15.57,23.98,-9.09,235.64,1.68,1.21
11773,50.833927,-3.395964,98,24.21,9.0,217.5,Oct-21,1177440,2019-08-17 07:40:06:807,0.3067,-0.0866,9.2483,0.0099,0.0124,9.8066,-0.0139,0.0085,0.0351,-14.08,24.87,-9.13,235.64,1.68,1.21
11774,50.833927,-3.395964,98,24.21,9.0,217.5,Oct-21,1177540,2019-08-17 07:40:06:907,-0.1654,-0.0584,10.169,-0.0155,0.0133,9.8066,0.0309,0.0341,0.0255,-15.38,24.46,-8.09,237.37,1.69,1.33
11775,50.83375,-3.396169,97,24.24,9.0,216.7,Oct-21,1177640,2019-08-17 07:40:07:007,-0.3175,-0.014,10.4883,-0.0408,0.0165,9.8066,0.0149,0.0234,0.0447,-15.38,24.46,-8.09,237.37,1.69,1.33
11776,50.83375,-3.396169,97,24.24,9.0,216.7,Oct-21,1177739,2019-08-17 07:40:07:106,-0.089,0.1537,10.0059,-0.0373,0.0136,9.8066,0.0149,0.0234,0.0447,-16.04,23.91,-8.43,235.65,1.65,1.58
11777,50.83375,-3.396169,97,24.24,9.0,216.7,Oct-21,1177839,2019-08-17 07:40:07:206,0.053,0.1456,9.1201,-0.0596,0.0245,9.8064,-0.0171,0.0096,0.0393,-16.92,23.71,-7.2,234.07,1.57,1.95
11778,50.83375,-3.396169,97,24.24,9.0,216.7,Oct-21,1177939,2019-08-17 07:40:07:306,0.3761,-0.2286,9.5603,0.0101,0.0145,9.8066,0.0074,-0.0128,0.0202,-16.92,23.71,-7.2,234.07,1.57,1.95
11779,50.83375,-3.396169,97,24.24,9.0,216.7,Oct-21,1178040,2019-08-17 07:40:07:407,0.5675,0.002,8.7959,0.0091,0.0028,9.8066,0.0042,0.016,0.0233,-16.33,23.62,-8.67,235.49,1.67,1.95
11780,50.83375,-3.396169,97,24.24,9.0,216.7,Oct-21,1178139,2019-08-17 07:40:07:506,-0.0091,-0.1262,10.8622,0.0085,0.0093,9.8066,-0.0309,-0.049,0.0351,-15.6,24.37,-7.94,235.57,1.71,1.92
11781,50.83375,-3.396169,97,24.24,9.0,216.7,Oct-21,1178240,2019-08-17 07:40:07:607,0.0041,-0.0242,10.558,-0.0011,0.0178,9.8066,0.0245,-0.0202,0.0159,-15.18,24.89,-7.1,238.37,1.8,1.98
11782,50.83375,-3.396169,97,24.24,9.0,216.7,Oct-21,1178339,2019-08-17 07:40:07:706,0.2816,0.2305,9.3572,-0.0249,-0.0058,9.8066,0.0245,-0.0277,0.0106,-15.18,24.89,-7.1,238.37,1.8,1.98
11783,50.83375,-3.396169,97,24.24,9.0,216.7,Oct-21,1178440,2019-08-17 07:40:07:807,0.1543,-0.0739,9.4345,-0.0179,-0.0107,9.8066,-0.0054,0.0181,0.0372,-15.27,24.75,-7.38,238.38,1.69,2.09
11784,50.83357,-3.396363,96,24.35,9.0,214.9,Oct-21,1178540,2019-08-17 07:40:07:907,0.5477,-0.2722,8.6851,-0.0196,-0.019,9.8066,-0.0054,0.0181,0.0372,-16.28,23.89,-8.03,235.58,1.54,2.13
11785,50.83357,-3.396363,96,24.35,9.0,214.9,Dec-21,1178640,2019-08-17 07:40:08:007,0.442,-0.0558,8.9661,0.0217,0.0105,9.8066,-0.0054,-0.0905,0.0404,-16.28,23.89,-8.03,235.58,1.54,2.13
11786,50.83357,-3.396363,96,24.35,9.0,214.9,Dec-21,1178739,2019-08-17 07:40:08:106,0.033,-0.2499,10.2014,0.0269,0.0306,9.8066,0.0372,0.0128,0.0074,-14.58,24.4,-9.59,237.01,1.77,2.1
11787,50.83357,-3.396363,96,24.35,9.0,214.9,Dec-21,1178839,2019-08-17 07:40:08:206,0.2746,-0.1127,8.9518,-0.012,0.0149,9.8066,0.0159,-0.0405,0.018,-16.44,23.47,-8.88,234.24,1.82,2.17
11788,50.83357,-3.396363,96,24.35,9.0,214.9,Dec-21,1178940,2019-08-17 07:40:08:307,0.2524,0.0787,10.6569,-0.0112,0.0252,9.8066,-0.0181,-0.0479,0.0521,-15.4,24.48,-7.97,234.24,1.82,2.17
11789,50.83357,-3.396363,96,24.35,9.0,214.9,Dec-21,1179040,2019-08-17 07:40:08:407,0.3042,-0.1642,10.4988,-0.0119,0.0039,9.8066,-0.0043,0.0245,0.0127,-15.4,24.48,-7.97,234.24,1.82,2.17
11790,50.83357,-3.396363,96,24.35,9.0,214.9,Dec-21,1179140,2019-08-17 07:40:08:507,0.2718,-0.3186,9.9535,-0.0119,-0.0404,9.8066,0.0,-0.0479,0.0393,-16.22,23.93,-8.0,235.49,1.8,2.24
11791,50.83357,-3.396363,96,24.35,9.0,214.9,Dec-21,1179240,2019-08-17 07:40:08:607,0.2457,-0.1927,10.4335,-0.0169,-0.0193,9.8066,-0.0107,-0.0075,0.0489,-16.24,23.96,-7.88,235.56,1.57,2.16
11792,50.83357,-3.396363,96,24.35,9.0,214.9,Dec-21,1179339,2019-08-17 07:40:08:706,0.4194,-0.2702,8.8618,-0.0194,-0.0076,9.8066,-0.0107,-0.0075,0.0489,-16.97,23.14,-8.76,235.56,1.57,2.16
11793,50.83357,-3.396363,96,24.35,9.0,214.9,Dec-21,1179439,2019-08-17 07:40:08:806,0.5053,-0.3707,9.2053,-0.0036,0.0123,9.8066,0.0415,-0.0405,0.001,-16.36,24.14,-7.03,235.63,1.61,2.22
11794,50.83357,-3.396363,96,24.35,9.0,214.9,Dec-21,1179540,2019-08-17 07:40:08:907,0.6489,-0.1896,9.0023,0.0162,0.0121,9.8066,-0.0032,-0.0437,0.0297,-16.36,24.14,-7.03,235.63,1.61,2.22
11795,50.8334,-3.396543,97,24.39,9.0,213.7,Dec-21,1179639,2019-08-17 07:40:09:006,0.3712,-0.1477,10.2044,0.0108,0.0006,9.8066,-0.0192,-0.049,0.034,-16.58,23.67,-8.04,233.91,1.73,2.18
11796,50.8334,-3.396543,97,24.39,9.0,213.7,Dec-21,1179740,2019-08-17 07:40:09:107,0.4443,-0.2402,9.4401,0.0386,0.0064,9.8066,0.0287,-0.0181,0.0116,-16.58,23.67,-8.04,233.9,1.89,2.02
11797,50.8334,-3.396543,97,24.39,9.0,213.7,Dec-21,1179839,2019-08-17 07:40:09:206,0.5077,-0.0971,10.7635,0.0219,-0.0355,9.8066,-0.0064,0.0565,0.001,-16.58,23.67,-8.04,233.9,1.89,2.02
11798,50.8334,-3.396543,97,24.39,9.0,213.7,Dec-21,1179939,2019-08-17 07:40:09:306,0.2729,-0.2506,10.077,-0.0084,-0.0118,9.8066,0.0127,0.0011,0.0244,-16.58,23.67,-8.04,233.97,1.8,1.79
11799,50.8334,-3.396543,97,24.39,9.0,213.7,Dec-21,1180039,2019-08-17 07:40:09:406,0.2873,-0.1467,10.0066,-0.0123,-0.0236,9.8066,-0.0075,-0.016,0.0106,-17.11,23.33,-7.93,233.97,1.8,1.79
11800,50.8334,-3.396543,97,24.39,9.0,213.7,Dec-21,1180139,2019-08-17 07:40:09:506,0.3677,-0.1948,9.3851,-0.0035,-0.0361,9.8066,-0.0075,-0.016,0.0106,-16.97,22.63,-9.98,232.69,1.61,1.69
11801,50.8334,-3.396543,97,24.39,9.0,213.7,Dec-21,1180240,2019-08-17 07:40:09:607,0.2509,-0.306,10.0032,0.0278,-0.0044,9.8066,0.0117,-0.0053,0.0052,-16.46,23.5,-8.76,232.69,1.61,1.69
11802,50.8334,-3.396543,97,24.39,9.0,213.7,Dec-21,1180339,2019-08-17 07:40:09:706,0.7168,-0.0965,10.239,0.042,-0.0114,9.8066,-0.0128,-0.0554,0.0425,-16.97,22.63,-9.98,232.72,1.71,1.45
11803,50.8334,-3.396543,97,24.39,9.0,213.7,Dec-21,1180439,2019-08-17 07:40:09:806,0.434,-0.1423,9.2771,0.0081,-0.0028,9.8066,0.0032,-0.0245,0.0159,-16.97,22.63,-9.98,232.72,1.71,1.45
11804,50.833202,-3.396734,98,24.43,9.0,212.6,Dec-21,1180539,2019-08-17 07:40:09:906,0.1462,-0.0694,9.9625,0.0183,-0.0061,9.8066,0.0181,0.0149,-0.0299,-17.19,22.67,-9.52,232.74,1.75,1.34
11805,50.833202,-3.396734,98,24.43,9.0,212.6,Dec-21,1180640,2019-08-17 07:40:10:007,0.2468,-0.0863,10.1533,0.0138,-0.0105,9.8066,-0.0192,-0.0021,0.017,-17.16,22.07,-10.9,231.45,1.74,1.21
11806,50.833202,-3.396734,98,24.43,9.0,212.6,Dec-21,1180739,2019-08-17 07:40:10:106,0.2687,-0.0633,9.7147,0.0328,-0.0163,9.8066,-0.016,-0.0011,0.0042,-17.16,22.07,-10.9,231.45,1.74,1.21
11807,50.833202,-3.396734,98,24.43,9.0,212.6,Dec-21,1180839,2019-08-17 07:40:10:206,0.1512,0.0522,9.4187,0.0017,0.0042,9.8066,0.0372,0.016,0.0052,-17.53,22.32,-9.71,229.99,1.79,1.0
11808,50.833202,-3.396734,98,24.43,9.0,212.6,Dec-21,1180939,2019-08-17 07:40:10:306,-0.1183,-0.0414,10.3546,-0.0003,0.0181,9.8066,0.0372,0.016,0.0052,-16.82,22.43,-10.68,231.45,1.87,1.07
11809,50.833202,-3.396734,98,24.43,9.0,212.6,Dec-21,1181040,2019-08-17 07:40:10:407,-0.023,0.3096,9.9159,-0.0022,0.0222,9.8066,-0.0011,0.016,0.0308,-16.82,22.43,-10.68,231.45,1.87,1.07
11810,50.833202,-3.396734,98,24.43,9.0,212.6,Dec-21,1181139,2019-08-17 07:40:10:506,-0.2336,0.2273,10.3617,0.0027,0.0331,9.8066,-0.0107,-0.0277,0.0106,-17.53,22.32,-9.71,231.45,1.87,1.07
11811,50.833202,-3.396734,98,24.43,9.0,212.6,Dec-21,1181240,2019-08-17 07:40:10:607,-0.0467,0.1732,10.065,0.0209,0.0218,9.8066,-0.0096,0.0032,-0.0022,-16.99,23.17,-8.64,232.81,2.05,1.06
11812,50.833202,-3.396734,98,24.43,9.0,212.6,Dec-21,1181340,2019-08-17 07:40:10:707,-0.113,-0.0716,10.7909,0.0163,-0.0248,9.8066,-0.016,-0.0021,0.0191,-16.99,23.17,-8.64,232.81,2.05,1.06
11813,50.833202,-3.396734,98,24.43,9.0,212.6,Dec-21,1181440,2019-08-17 07:40:10:807,0.2229,-0.0737,9.2747,0.0181,-0.0256,9.8066,-0.0054,-0.033,0.0404,-16.8,23.19,-8.94,232.86,1.99,0.9
11814,50.833023,-3.396919,98,24.45,9.0,211.9,Dec-21,1181540,2019-08-17 07:40:10:907,0.0683,0.2964,9.5297,-0.0009,0.0273,9.8066,0.0415,-0.016,0.002,-17.7,22.54,-8.87,231.34,1.98,0.7
11815,50.833023,-3.396919,98,24.45,9.0,211.9,Dec-21,1181639,2019-08-17 07:40:11:006,-0.0172,0.0137,9.6028,0.0014,0.016,9.8066,0.0415,-0.016,0.002,-16.51,22.8,-10.36,232.77,2.1,0.81
11816,50.833023,-3.396919,98,24.45,9.0,211.9,Dec-21,1181739,2019-08-17 07:40:11:106,0.2234,0.2758,8.9769,0.0135,0.0249,9.8066,-0.0064,-0.0075,0.0106,-16.51,22.8,-10.36,232.77,2.1,0.81
11817,50.833023,-3.396919,98,24.45,9.0,211.9,Dec-21,1181839,2019-08-17 07:40:11:206,-0.2683,0.1674,10.886,-0.0016,0.0055,9.8067,-0.0309,0.0288,0.0553,-17.88,21.96,-9.9,229.91,2.27,0.83
11818,50.833023,-3.396919,98,24.45,9.0,211.9,Dec-21,1181939,2019-08-17 07:40:11:306,-0.3612,0.0599,9.6015,-0.0255,-0.0127,9.8066,0.0404,0.0426,0.0084,-16.82,23.22,-8.82,229.91,2.27,0.83
11819,50.833023,-3.396919,98,24.45,9.0,211.9,Dec-21,1182039,2019-08-17 07:40:11:406,-0.1984,-0.1014,9.5692,-0.0106,-0.0249,9.8066,-0.0086,0.0309,0.0329,-17.08,23.59,-7.21,234.15,2.11,0.9
11820,50.833023,-3.396919,98,24.45,9.0,211.9,Dec-21,1182139,2019-08-17 07:40:11:506,0.1371,-0.0854,10.2958,-0.0126,-0.0222,9.8066,-0.0128,0.0021,0.0468,-18.23,22.38,-8.17,230.12,1.96,0.88
11821,50.833023,-3.396919,98,24.45,9.0,211.9,Dec-21,1182239,2019-08-17 07:40:11:606,0.0017,0.0313,9.209,-0.0134,0.0122,9.8066,0.0106,0.017,0.0244,-18.23,22.38,-8.17,230.12,1.96,0.88
11822,50.833023,-3.396919,98,24.45,9.0,211.9,Dec-21,1182339,2019-08-17 07:40:11:706,0.1239,0.0568,8.9673,-0.0146,0.0323,9.8066,-0.0149,-0.0245,0.0329,-17.7,22.54,-8.87,231.24,2.06,1.07
11823,50.833023,-3.396919,98,24.45,9.0,211.9,Dec-21,1182441,2019-08-17 07:40:11:808,0.0328,-0.0735,9.9971,0.0218,0.0281,9.8066,-0.0192,-0.0639,0.0383,-18.07,22.01,-9.44,231.24,2.06,1.07
11824,50.833023,-3.396919,98,24.45,9.0,211.9,Dec-21,1182539,2019-08-17 07:40:11:906,-0.1241,-0.1125,10.3301,0.0042,-0.0141,9.8066,-0.0192,-0.0639,0.0383,-18.0,22.24,-9.02,229.94,2.26,1.07
11825,50.83284,-3.397088,99,24.45,9.0,211.1,Dec-21,1182639,2019-08-17 07:40:12:006,-0.0727,-0.0556,9.8481,-0.0038,-0.0271,9.8066,0.0117,0.0554,0.0052,-17.85,22.05,-9.75,229.91,2.13,0.99
11826,50.83284,-3.397088,99,24.45,9.0,211.1,Dec-21,1182739,2019-08-17 07:40:12:106,-0.3188,-0.0761,10.3077,-0.0248,-0.0037,9.8066,0.0181,0.0522,0.05,-17.85,22.05,-9.75,229.91,2.13,0.99
11827,50.83284,-3.397088,99,24.45,9.0,211.1,Dec-21,1182839,2019-08-17 07:40:12:206,-0.2352,0.143,9.1058,-0.053,0.0071,9.8065,0.0032,-0.0415,0.0468,-18.03,22.27,-8.89,229.91,2.13,0.99
11828,50.83284,-3.397088,99,24.45,9.0,211.1,Dec-21,1182939,2019-08-17 07:40:12:306,-0.3582,0.1405,9.8906,-0.011,0.0141,9.8066,0.0266,0.0011,0.0084,-17.86,22.53,-8.56,231.22,1.96,1.25
11829,50.83284,-3.397088,99,24.45,9.0,211.1,Dec-21,1183040,2019-08-17 07:40:12:407,-0.6695,0.0335,10.4387,-0.019,0.0163,9.8066,0.0,-0.0085,0.0425,-17.5,23.07,-7.84,231.22,1.96,1.25
11830,50.83284,-3.397088,99,24.45,9.0,211.1,Dec-21,1183139,2019-08-17 07:40:12:506,0.0842,0.1197,9.6468,-0.0167,0.0257,9.8066,0.0,-0.0085,0.0425,-17.5,23.07,-7.84,231.22,1.96,1.25
11831,50.83284,-3.397088,99,24.45,9.0,211.1,Dec-21,1183239,2019-08-17 07:40:12:606,0.4047,0.0211,8.8783,0.0258,0.0131,9.8066,-0.0373,-0.0288,0.0372,-18.03,22.27,-8.89,229.91,2.02,1.42
11832,50.83284,-3.397088,99,24.45,9.0,211.1,Dec-21,1183339,2019-08-17 07:40:12:706,0.1696,0.2021,8.9391,0.0537,0.0224,9.8065,0.0138,0.0405,0.0052,-18.03,22.27,-8.89,229.91,2.02,1.42
11833,50.83284,-3.397088,99,24.45,9.0,211.1,Dec-21,1183439,2019-08-17 07:40:12:806,-0.0279,-0.0023,10.375,-0.028,-0.0038,9.8066,-0.0171,-0.0405,0.0276,-17.5,22.41,-9.56,229.79,2.27,1.29
11834,50.83284,-3.397088,99,24.45,9.0,211.1,Dec-21,1183540,2019-08-17 07:40:12:907,-0.0583,-0.2645,9.5214,-0.0372,-0.0087,9.8066,0.0085,0.0064,0.017,-17.5,22.41,-9.56,229.79,2.27,1.29
11835,50.83265,-3.397267,99,24.5,9.0,210.1,Dec-21,1183640,2019-08-17 07:40:13:007,-0.0333,-0.1713,9.839,-0.012,-0.0117,9.8066,-0.016,0.0256,0.0116,-18.36,21.7,-9.59,229.8,2.1,1.43
11836,50.83265,-3.397267,99,24.5,9.0,210.1,Dec-21,1183739,2019-08-17 07:40:13:106,0.1318,-0.0077,9.952,-0.0064,-0.006,9.8066,-0.0235,-0.0192,0.0478,-18.53,21.91,-8.75,228.41,2.0,1.44
11837,50.83265,-3.397267,99,24.5,9.0,210.1,Dec-21,1183841,2019-08-17 07:40:13:208,-0.2751,-0.2409,9.9788,0.003,-0.0049,9.8066,-0.0235,-0.0192,0.0478,-18.74,21.34,-9.66,228.41,2.0,1.44
11838,50.83265,-3.397267,99,24.5,9.0,210.1,Dec-21,1183940,2019-08-17 07:40:13:307,0.3748,-0.1477,9.0026,0.0074,0.0118,9.8066,0.0149,-0.0458,0.0191,-18.74,21.34,-9.66,228.41,2.0,1.44
11839,50.83265,-3.397267,99,24.5,9.0,210.1,Dec-21,1184039,2019-08-17 07:40:13:406,0.3828,0.0698,10.6353,-0.0007,0.0124,9.8066,0.0362,-0.0181,0.0127,-19.23,21.9,-7.14,228.56,2.08,1.45
11840,50.83265,-3.397267,99,24.5,9.0,210.1,Dec-21,1184140,2019-08-17 07:40:13:507,-0.1194,-0.0802,10.0903,-0.0023,0.0265,9.8066,-0.0118,0.0586,0.0212,-18.53,21.91,-8.75,228.33,2.19,1.56
11841,50.83265,-3.397267,99,24.5,9.0,210.1,Dec-21,1184239,2019-08-17 07:40:13:606,0.3424,-0.0186,8.997,0.0015,0.001,9.8067,-0.0107,0.0107,0.0425,-18.74,21.34,-9.66,228.33,2.19,1.56
11842,50.83265,-3.397267,99,24.5,9.0,210.1,Dec-21,1184339,2019-08-17 07:40:13:706,0.2604,-0.095,10.2773,0.0052,0.0022,9.8066,0.0191,0.0032,0.0223,-18.57,22.1,-8.18,228.45,2.12,1.53
11843,50.83265,-3.397267,99,24.5,9.0,210.1,Dec-21,1184439,2019-08-17 07:40:13:806,0.2368,-0.1531,9.5272,0.0197,0.0162,9.8066,0.0064,-0.032,0.0159,-18.57,22.1,-8.18,228.45,2.12,1.53
11844,50.83265,-3.397267,99,24.5,9.0,210.1,Dec-21,1184540,2019-08-17 07:40:13:907,0.5428,-0.2912,10.1997,0.0166,0.0028,9.8066,-0.0373,0.0064,0.0574,-17.7,22.07,-9.98,229.74,2.27,1.51
11845,50.83245,-3.397432,99,24.5,9.0,208.9,Dec-21,1184639,2019-08-17 07:40:14:006,0.0808,-0.1047,10.6511,-0.0068,-0.001,9.8066,0.0213,0.0021,0.0191,-18.39,21.06,-10.87,228.3,2.34,1.45
11846,50.83245,-3.397432,99,24.5,9.0,208.9,Dec-21,1184739,2019-08-17 07:40:14:106,0.0403,-0.0707,9.7809,-0.0234,0.0024,9.8066,0.0213,0.0021,0.0191,-19.33,21.24,-8.67,226.98,2.26,1.56
11847,50.83245,-3.397432,99,24.5,9.0,208.9,Dec-21,1184839,2019-08-17 07:40:14:206,0.1418,-0.1649,9.8584,-0.0125,-0.0146,9.8066,-0.0107,0.0192,0.0223,-19.33,21.24,-8.67,226.98,2.26,1.56
11848,50.83245,-3.397432,99,24.5,9.0,208.9,Dec-21,1184940,2019-08-17 07:40:14:307,0.2476,-0.1384,9.7992,-0.0104,-0.0341,9.8066,-0.0203,-0.0288,0.0276,-18.92,21.55,-8.8,228.38,2.07,1.47
11849,50.83245,-3.397432,99,24.5,9.0,208.9,Dec-21,1185040,2019-08-17 07:40:14:407,0.3654,0.0681,8.7528,0.0195,0.0077,9.8066,0.0117,0.0128,0.0287,-19.1,20.93,-9.84,226.94,2.18,1.41
11850,50.83245,-3.397432,99,24.5,9.0,208.9,Dec-21,1185139,2019-08-17 07:40:14:506,0.1484,0.0999,9.7194,0.0102,0.0201,9.8066,0.0127,0.032,0.0106,-19.1,20.93,-9.84,226.94,2.18,1.41
11851,50.83245,-3.397432,99,24.5,9.0,208.9,Dec-21,1185239,2019-08-17 07:40:14:606,0.3013,-0.0215,10.0109,-0.0036,0.0252,9.8066,-0.0064,-0.0245,0.0212,-18.92,21.55,-8.8,228.33,2.31,1.45
11852,50.83245,-3.397432,99,24.5,9.0,208.9,Dec-21,1185340,2019-08-17 07:40:14:707,-0.3245,0.0084,10.0282,0.0149,0.0045,9.8066,-0.0192,-0.0106,0.0159,-18.6,21.3,-10.02,226.84,2.41,1.56
11853,50.83245,-3.397432,99,24.5,9.0,208.9,Dec-21,1185439,2019-08-17 07:40:14:806,-0.1739,0.0609,9.8265,0.026,-0.0021,9.8066,-0.0192,0.0075,0.018,-18.92,21.55,-8.8,226.84,2.41,1.56
11854,50.83245,-3.397432,99,24.5,9.0,208.9,Dec-21,1185540,2019-08-17 07:40:14:907,0.1015,-0.0619,9.9722,0.0337,-0.0268,9.8066,-0.0192,0.0075,0.018,-18.92,21.55,-8.8,226.84,2.41,1.56
11855,50.83226,-3.397601,97,24.44,9.0,207.9,Dec-21,1185639,2019-08-17 07:40:15:006,-0.0464,-0.1952,10.7322,-0.0073,-0.0267,9.8066,-0.0384,-0.0352,0.0276,-19.1,20.93,-9.84,226.91,2.43,1.31
11856,50.83226,-3.397601,97,24.44,9.0,207.9,Dec-21,1185740,2019-08-17 07:40:15:107,-0.2284,-0.1136,10.21,-0.0207,-0.0526,9.8065,0.0372,0.0192,0.0116,-19.09,21.46,-8.67,226.91,2.43,1.31
11857,50.83226,-3.397601,97,24.44,9.0,207.9,Dec-21,1185839,2019-08-17 07:40:15:206,-0.3113,-0.0636,9.6213,-0.0235,-0.008,9.8066,0.0351,-0.0149,0.0244,-19.21,21.54,-8.19,228.52,2.12,1.19
11858,50.83226,-3.397601,97,24.44,9.0,207.9,Dec-21,1185940,2019-08-17 07:40:15:307,-0.0143,0.1471,8.5953,-0.0256,0.0197,9.8066,0.0085,-0.0628,0.0329,-19.23,22.48,-4.98,228.74,2.11,1.38
11859,50.83226,-3.397601,97,24.44,9.0,207.9,Dec-21,1186039,2019-08-17 07:40:15:406,0.0647,0.279,9.5192,0.0177,0.0402,9.8066,0.0255,-0.0692,0.0202,-19.23,22.48,-4.98,228.74,2.11,1.38
11860,50.83226,-3.397601,97,24.44,9.0,207.9,Dec-21,1186140,2019-08-17 07:40:15:507,-0.0631,0.0315,9.8258,0.0472,0.0671,9.8063,-0.0011,0.017,0.0361,-20.53,21.32,-4.91,224.51,2.58,1.43
11861,50.83226,-3.397601,97,24.44,9.0,207.9,Dec-21,1186239,2019-08-17 07:40:15:606,-0.256,0.0671,10.6399,-0.0018,-0.0004,9.8066,-0.0011,0.017,0.0361,-16.36,24.2,-6.82,235.57,2.57,1.43
11862,50.83226,-3.397601,97,24.44,9.0,207.9,Dec-21,1186340,2019-08-17 07:40:15:707,-1.0321,-0.2443,10.4958,-0.0337,-0.0403,9.8065,-0.0128,-0.0352,0.0521,-16.36,24.2,-6.82,235.57,2.57,1.43
11863,50.83226,-3.397601,97,24.44,9.0,207.9,Dec-21,1186439,2019-08-17 07:40:15:806,-0.962,-0.6528,14.6017,-0.0452,-0.0242,9.8065,0.0458,0.1289,0.0915,-12.64,26.56,-5.88,243.72,2.27,1.46
11864,50.83207,-3.397747,98,24.33,9.0,207.0,Dec-21,1186540,2019-08-17 07:40:15:907,0.4112,-0.9156,7.9979,-0.1041,-0.0978,9.8056,0.0021,0.2333,-0.015,-10.74,26.92,-7.75,243.72,2.27,1.46
11865,50.83207,-3.397747,98,24.33,9.0,207.0,Dec-21,1186639,2019-08-17 07:40:16:006,0.2414,0.2544,8.6633,-0.1031,-0.0942,9.8057,-0.0384,-0.0405,0.0287,-19.99,19.95,10.11,225.79,1.51,1.76
11866,50.83207,-3.397747,98,24.33,9.0,207.0,Dec-21,1186740,2019-08-17 07:40:16:107,0.2182,0.3251,8.0511,0.0267,0.0407,9.8065,-0.0192,0.0075,0.017,-9.17,23.93,15.6,250.9,1.99,1.6
11867,50.83207,-3.397747,98,24.33,9.0,207.0,Dec-21,1186839,2019-08-17 07:40:16:206,-0.2788,-0.2317,10.7323,0.0413,0.0256,9.8065,0.0394,0.0458,0.0201,-9.17,23.93,15.6,250.9,1.99,1.6
11868,50.83207,-3.397747,98,24.33,9.0,207.0,Dec-21,1186940,2019-08-17 07:40:16:307,-0.0977,-0.1415,11.149,-0.0156,-0.0369,9.8066,-0.0086,-0.0959,0.0276,-9.56,27.05,-8.77,248.83,2.21,1.42
11869,50.83207,-3.397747,98,24.33,9.0,207.0,Dec-21,1187039,2019-08-17 07:40:16:406,0.008,0.0733,8.9051,0.0219,0.0007,9.8066,-0.0086,-0.0959,0.0276,-9.56,27.05,-8.77,248.83,2.21,1.42
11870,50.83207,-3.397747,98,24.33,9.0,207.0,Dec-21,1187139,2019-08-17 07:40:16:506,0.8664,-0.0255,8.2437,-0.0082,-0.0074,9.8066,-0.0203,0.1278,0.0052,-24.22,16.52,-6.37,214.83,2.26,1.31
11871,50.83207,-3.397747,98,24.33,9.0,207.0,Dec-21,1187240,2019-08-17 07:40:16:607,-0.2978,0.4646,9.4802,-0.0157,-0.0122,9.8066,0.0127,0.147,0.0297,-24.08,17.15,-5.1,214.83,2.26,1.31
11872,50.83207,-3.397747,98,24.33,9.0,207.0,Dec-21,1187339,2019-08-17 07:40:16:706,0.1003,-0.0982,10.2608,-0.043,-0.03,9.8065,-0.0459,0.0416,0.0265,-23.02,18.16,-6.36,217.58,1.95,1.31
11873,50.83207,-3.397747,98,24.33,9.0,207.0,Dec-21,1187439,2019-08-17 07:40:16:806,-0.4281,0.1036,12.3065,-0.0204,-0.0376,9.8066,-0.0437,0.0565,0.0287,-23.02,18.16,-6.36,217.58,1.95,1.31
11874,50.83187,-3.397893,98,24.47,9.0,206.1,Dec-21,1187539,2019-08-17 07:40:16:906,0.6901,0.0805,7.8388,0.003,-0.0036,9.8066,0.0479,-0.1236,-0.0257,-21.97,18.9,-7.77,220.25,1.72,1.2
11875,50.83187,-3.397893,98,24.47,9.0,206.1,Dec-21,1187640,2019-08-17 07:40:17:007,-0.0317,-0.3519,10.6009,0.0056,-0.0034,9.8066,0.0202,-0.0618,0.017,-21.58,19.16,-8.22,220.25,1.77,1.16
11876,50.83187,-3.397893,98,24.47,9.0,206.1,Dec-21,1187739,2019-08-17 07:40:17:106,0.1402,0.1109,10.3442,0.0407,0.0275,9.8065,0.0213,-0.082,0.0201,-21.58,19.16,-8.22,220.25,1.77,1.16
11877,50.83187,-3.397893,98,24.47,9.0,206.1,Dec-21,1187839,2019-08-17 07:40:17:206,0.2108,0.0018,9.404,0.0095,0.0465,9.8065,0.0213,-0.082,0.0201,-20.64,18.23,-11.89,219.65,2.05,1.13
11878,50.83187,-3.397893,98,24.47,9.0,206.1,Dec-21,1187939,2019-08-17 07:40:17:306,0.1967,0.036,10.5804,0.0082,0.0481,9.8065,0.0234,-0.0586,0.0095,-20.46,18.82,-11.28,219.65,2.05,1.13
11879,50.83187,-3.397893,98,24.47,9.0,206.1,Dec-21,1188040,2019-08-17 07:40:17:407,0.3135,-0.1635,10.0058,0.003,0.0269,9.8066,-0.032,0.0671,0.0201,-20.14,20.21,-9.29,224.23,2.17,1.24
11880,50.83187,-3.397893,98,24.47,9.0,206.1,Dec-21,1188139,2019-08-17 07:40:17:506,0.2631,-0.3571,9.7594,0.0095,-0.0171,9.8066,-0.0299,0.0149,0.0297,-19.72,20.44,-9.65,224.23,2.17,1.24
11881,50.83187,-3.397893,98,24.47,9.0,206.1,Dec-21,1188239,2019-08-17 07:40:17:606,0.5308,-0.2837,9.0473,0.0194,-0.0321,9.8066,0.0617,0.0011,0.0052,-20.05,20.11,-9.68,224.21,2.12,1.03
11882,50.83187,-3.397893,98,24.47,9.0,206.1,Dec-21,1188339,2019-08-17 07:40:17:706,0.2293,-0.0038,9.1435,-0.0057,0.0067,9.8066,0.0245,0.0181,0.0202,-20.05,20.11,-9.68,224.21,2.12,1.03
11883,50.83187,-3.397893,98,24.47,9.0,206.1,Dec-21,1188439,2019-08-17 07:40:17:806,0.1478,0.088,9.5947,-0.025,0.0229,9.8066,-0.0107,-0.0469,0.0489,-20.38,19.63,-9.97,224.16,2.1,1.23
11884,50.83166,-3.398045,99,25.01,10.0,205.1,Dec-21,1188540,2019-08-17 07:40:17:907,0.3999,0.132,8.3034,-0.0004,0.0215,9.8066,0.0117,0.0437,0.0244,-20.58,19.83,-9.11,222.82,2.18,1.36
11885,50.83166,-3.398045,99,25.01,10.0,205.1,Dec-21,1188639,2019-08-17 07:40:18:006,-0.3288,0.2804,10.0146,-0.0067,0.0421,9.8066,0.0117,0.0437,0.0244,-20.14,20.21,-9.29,222.82,2.18,1.36
11886,50.83166,-3.398045,99,25.01,10.0,205.1,Dec-21,1188739,2019-08-17 07:40:18:106,-0.0193,0.2617,10.0456,-0.0027,0.0458,9.8065,-0.015,0.0085,0.034,-20.14,20.21,-9.29,222.82,2.18,1.36
11887,50.83166,-3.398045,99,25.01,10.0,205.1,Dec-21,1188840,2019-08-17 07:40:18:207,0.3065,0.095,8.7371,0.0008,-0.0034,9.8067,-0.0139,-0.0224,0.0202,-20.38,19.63,-9.97,224.01,2.35,1.56
11888,50.83166,-3.398045,99,25.01,10.0,205.1,Dec-21,1188939,2019-08-17 07:40:18:306,-0.2754,-0.3057,11.3586,0.013,-0.0106,9.8066,-0.0182,0.0341,0.0265,-20.52,19.73,-9.46,222.76,2.37,1.47
11889,50.83166,-3.398045,99,25.01,10.0,205.1,Dec-21,1189040,2019-08-17 07:40:18:407,0.0655,0.0899,9.8441,0.0126,-0.0154,9.8066,0.0053,0.0597,0.0276,-20.52,19.73,-9.46,222.76,2.37,1.47
11890,50.83166,-3.398045,99,25.01,10.0,205.1,Dec-21,1189140,2019-08-17 07:40:18:507,-0.28,0.0939,10.4112,0.0035,-0.0138,9.8066,0.0149,-0.0128,0.0351,-21.58,19.16,-8.22,220.1,2.33,1.39
11891,50.83166,-3.398045,99,25.01,10.0,205.1,Dec-21,1189240,2019-08-17 07:40:18:607,0.0659,-0.2346,9.3087,-0.0115,-0.0006,9.8066,-0.0043,0.0309,0.0468,-21.58,19.16,-8.22,220.1,2.33,1.39
11892,50.83166,-3.398045,99,25.01,10.0,205.1,Dec-21,1189340,2019-08-17 07:40:18:707,-0.0647,0.3568,9.1545,-0.0195,0.0362,9.8066,0.0447,-0.0362,0.0148,-21.16,19.54,-8.38,222.87,2.27,1.43
11893,50.83166,-3.398045,99,25.01,10.0,205.1,Dec-21,1189439,2019-08-17 07:40:18:806,-0.6521,0.1751,10.4523,-0.0064,0.0097,9.8066,0.0447,-0.0362,0.0148,-20.41,19.66,-9.85,223.98,2.33,1.67
11894,50.83166,-3.398045,99,25.01,10.0,205.1,Dec-21,1189540,2019-08-17 07:40:18:907,-0.2807,0.0863,10.1071,0.0141,0.0207,9.8066,-0.0214,-0.0394,0.0436,-20.77,19.18,-10.03,223.98,2.33,1.67
11895,50.831455,-3.398197,98,24.84,10.0,204.9,Dec-21,1189639,2019-08-17 07:40:19:006,0.0463,-0.0212,9.1674,0.0113,-0.0239,9.8066,-0.0086,0.0021,0.0191,-20.9,18.46,-11.06,219.44,2.48,1.7
11896,50.831455,-3.398197,98,24.84,10.0,204.9,Dec-21,1189739,2019-08-17 07:40:19:106,-0.3287,-0.3614,11.0922,0.0157,-0.0529,9.8065,0.0127,-0.0128,-0.0075,-20.9,18.46,-11.06,219.44,2.48,1.7
11897,50.831455,-3.398197,98,24.84,10.0,204.9,Dec-21,1189840,2019-08-17 07:40:19:207,0.2676,-0.0332,9.9394,-0.0036,-0.0156,9.8066,-0.0086,0.0085,0.0223,-20.58,19.83,-9.11,222.78,2.35,1.4
11898,50.831455,-3.398197,98,24.84,10.0,204.9,Dec-21,1189940,2019-08-17 07:40:19:307,-0.1883,-0.126,9.8323,-0.0091,-0.0188,9.8066,-0.0171,-0.0202,0.0478,-20.96,19.35,-9.28,221.33,2.24,1.36
11899,50.831455,-3.398197,98,24.84,10.0,204.9,Dec-21,1190039,2019-08-17 07:40:19:406,-0.1964,-0.0328,10.1502,0.0114,-0.0003,9.8066,-0.0032,-0.016,0.0276,-20.77,19.18,-10.03,221.25,2.29,1.31
11900,50.831455,-3.398197,98,24.84,10.0,204.9,Dec-21,1190139,2019-08-17 07:40:19:506,-0.0813,-0.0671,10.0082,0.0084,-0.0017,9.8066,-0.0011,0.0181,0.0127,-20.77,19.18,-10.03,221.25,2.29,1.31
11901,50.831455,-3.398197,98,24.84,10.0,204.9,Dec-21,1190239,2019-08-17 07:40:19:606,0.2526,0.0308,9.9692,0.0226,-0.0058,9.8066,-0.0139,-0.0298,0.0031,-21.15,19.46,-8.58,221.35,2.36,1.2
11902,50.831455,-3.398197,98,24.84,10.0,204.9,Dec-21,1190339,2019-08-17 07:40:19:706,0.1404,0.0109,8.9785,0.021,-0.0135,9.8066,-0.0277,-0.0533,0.0532,-21.35,19.71,-7.46,223.0,2.52,1.05
11903,50.831455,-3.398197,98,24.84,10.0,204.9,Dec-21,1190439,2019-08-17 07:40:19:806,0.0923,-0.4065,10.1186,0.0326,-0.0295,9.8066,-0.0277,-0.0533,0.0532,-21.58,19.07,-8.41,220.21,2.54,0.8
11904,50.831455,-3.398197,98,24.84,10.0,204.9,Dec-21,1190539,2019-08-17 07:40:19:906,0.4195,0.0851,9.5663,0.0028,0.0117,9.8066,0.0351,0.0501,0.018,-21.58,19.07,-8.41,220.21,2.54,0.8
11905,50.83124,-3.398348,98,24.93,10.0,204.3,Dec-21,1190639,2019-08-17 07:40:20:006,0.0784,0.0202,10.1198,-0.0153,0.0076,9.8066,-0.0011,-0.0256,0.0329,-21.58,19.07,-8.41,220.19,2.6,0.84
11906,50.83124,-3.398348,98,24.93,10.0,204.3,Dec-21,1190739,2019-08-17 07:40:20:106,0.0393,-0.0669,9.4779,-0.0395,0.01,9.8066,-0.0107,0.0128,0.0276,-21.19,19.57,-8.25,220.19,2.6,0.84
11907,50.83124,-3.398348,98,24.93,10.0,204.3,Dec-21,1190839,2019-08-17 07:40:20:206,0.0566,-0.1512,10.3611,-0.0449,0.005,9.8065,0.017,-0.016,0.002,-21.38,18.98,-9.1,221.39,2.42,1.03
11908,50.83124,-3.398348,98,24.93,10.0,204.3,Dec-21,1190939,2019-08-17 07:40:20:306,0.57,-0.0816,9.2635,0.0151,0.0099,9.8066,-0.0192,-0.0437,0.0148,-21.56,18.31,-10.01,218.46,2.52,1.01
11909,50.83124,-3.398348,98,24.93,10.0,204.3,Dec-21,1191039,2019-08-17 07:40:20:406,0.2524,-0.1337,10.0879,0.0235,0.011,9.8066,-0.0107,-0.0011,0.0191,-21.56,18.31,-10.01,218.46,2.52,1.01
11910,50.83124,-3.398348,98,24.93,10.0,204.3,Dec-21,1191139,2019-08-17 07:40:20:506,0.593,-0.3063,8.9368,-0.0163,-0.0193,9.8066,-0.0107,-0.0011,0.0191,-21.58,19.07,-8.41,220.14,2.74,0.93
11911,50.83124,-3.398348,98,24.93,10.0,204.3,Dec-21,1191240,2019-08-17 07:40:20:607,-0.1453,-0.17,10.7677,-0.0422,-0.0276,9.8065,0.0383,0.0128,-0.0086,-21.35,19.71,-7.46,220.14,2.74,0.93
11912,50.83124,-3.398348,98,24.93,10.0,204.3,Dec-21,1191340,2019-08-17 07:40:20:707,0.1823,0.0679,9.2271,-0.0069,-0.012,9.8066,-0.0171,0.0874,0.0233,-22.34,18.84,-6.77,220.26,2.44,0.97
11913,50.83124,-3.398348,98,24.93,10.0,204.3,Dec-21,1191439,2019-08-17 07:40:20:806,0.207,-0.0899,9.6499,0.0231,-0.0055,9.8066,-0.0235,-0.0458,0.0372,-22.34,18.84,-6.77,220.26,2.44,0.97
11914,50.83124,-3.398348,98,24.93,10.0,204.3,Dec-21,1191540,2019-08-17 07:40:20:907,0.31,-0.0206,9.1056,0.0153,0.0075,9.8066,0.0095,0.0234,0.0063,-21.93,19.37,-6.64,220.27,2.53,0.86
11915,50.83104,-3.398498,99,24.68,11.0,204.3,Dec-21,1191639,2019-08-17 07:40:21:006,0.1012,-0.0869,9.1079,0.0041,-0.0093,9.8066,-0.0043,0.0128,0.0159,-21.37,18.88,-9.32,220.27,2.53,0.86
11916,50.83104,-3.398498,99,24.68,11.0,204.3,Dec-21,1191739,2019-08-17 07:40:21:106,0.2252,-0.0701,10.0939,0.0161,-0.0131,9.8066,0.0032,-0.0607,0.017,-22.34,18.84,-6.77,220.29,2.55,0.74
11917,50.83104,-3.398498,99,24.68,11.0,204.3,Dec-21,1191840,2019-08-17 07:40:21:207,0.0875,-0.2124,9.5879,0.0242,0.012,9.8066,-0.0086,-0.0213,0.0148,-22.34,18.84,-6.77,220.29,2.55,0.74
11918,50.83104,-3.398498,99,24.68,11.0,204.3,Dec-21,1191939,2019-08-17 07:40:21:306,0.1059,0.0844,9.3532,0.0075,0.0005,9.8066,-0.0086,-0.0213,0.0148,-21.49,19.84,-6.65,223.05,2.7,0.7
11919,50.83104,-3.398498,99,24.68,11.0,204.3,Dec-21,1192039,2019-08-17 07:40:21:406,0.0187,-0.0965,9.9955,0.0134,-0.0342,9.8066,-0.0427,-0.0053,0.0201,-21.48,19.76,-6.92,223.05,2.7,0.7
11920,50.83104,-3.398498,99,24.68,11.0,204.3,Dec-21,1192140,2019-08-17 07:40:21:507,0.0096,0.12,9.4798,0.0002,-0.0027,9.8066,0.0117,-0.049,0.017,-22.32,18.82,-6.91,220.33,2.62,0.5
11921,50.83104,-3.398498,99,24.68,11.0,204.3,Dec-21,1192239,2019-08-17 07:40:21:606,-0.2466,-0.0842,10.2918,0.0078,-0.0126,9.8066,0.0095,-0.0096,-0.0033,-22.32,18.82,-6.91,220.33,2.62,0.5
11922,50.83104,-3.398498,99,24.68,11.0,204.3,Dec-21,1192339,2019-08-17 07:40:21:706,-0.209,-0.1623,10.244,0.0025,-0.0111,9.8066,-0.0118,-0.0224,-0.0012,-21.88,19.33,-6.92,220.35,2.61,0.41
11923,50.83104,-3.398498,99,24.68,11.0,204.3,Dec-21,1192439,2019-08-17 07:40:21:806,0.3764,0.1409,9.6056,0.027,-0.0163,9.8066,0.0074,-0.0224,0.0063,-21.47,19.82,-6.79,220.35,2.61,0.41
11924,50.83084,-3.398593,99,24.34,11.0,202.2,Dec-21,1192539,2019-08-17 07:40:21:906,0.6016,-0.4069,9.3875,0.0352,-0.0118,9.8066,-0.015,0.0266,-0.0054,-21.46,19.74,-7.07,223.15,2.67,0.24
11925,50.83084,-3.398593,99,24.34,11.0,202.2,Dec-21,1192640,2019-08-17 07:40:22:007,0.14,-0.3819,11.2461,0.077,-0.051,9.8062,-0.0128,0.016,0.001,-21.06,19.38,-8.98,221.66,2.79,-0.29
11926,50.83084,-3.398593,99,24.34,11.0,202.2,Dec-21,1192740,2019-08-17 07:40:22:107,0.4973,-0.4756,10.0128,0.0258,-0.0427,9.8065,-0.0128,0.016,0.001,-21.74,19.05,-8.03,221.66,2.79,-0.29
11927,50.83084,-3.398593,99,24.34,11.0,202.2,Dec-21,1192839,2019-08-17 07:40:22:206,0.1793,-0.4435,10.0672,0.0394,-0.075,9.8063,0.017,-0.0064,0.0063,-21.74,19.05,-8.03,221.66,2.79,-0.29
11928,50.83084,-3.398593,99,24.34,11.0,202.2,Dec-21,1192939,2019-08-17 07:40:22:306,-0.1286,-0.1692,9.9942,-0.0068,-0.0144,9.8066,0.033,0.0256,0.0052,-22.14,18.66,-7.86,220.59,2.53,-0.88
11929,50.83084,-3.398593,99,24.34,11.0,202.2,Dec-21,1193041,2019-08-17 07:40:22:408,-0.2186,-0.1166,9.5973,0.003,-0.0115,9.8066,0.001,-0.0352,0.0074,-21.31,19.53,-8.02,223.36,2.5,-0.95
11930,50.83084,-3.398593,99,24.34,11.0,202.2,Dec-21,1193139,2019-08-17 07:40:22:506,-0.2106,-0.0067,9.5131,0.0265,0.0126,9.8066,-0.0054,-0.0906,-0.0171,-21.31,19.53,-8.02,223.36,2.5,-0.95
11931,50.83084,-3.398593,99,24.34,11.0,202.2,Dec-21,1193240,2019-08-17 07:40:22:607,-0.2035,-0.121,9.6637,0.0305,-0.0069,9.8066,-0.0128,0.0117,0.0095,-22.31,18.66,-7.35,220.63,2.66,-1.0
11932,50.83084,-3.398593,99,24.34,11.0,202.2,Dec-21,1193340,2019-08-17 07:40:22:707,-0.1068,-0.0188,10.1163,0.0527,-0.0236,9.8065,-0.0128,0.0117,0.0095,-21.35,19.36,-8.31,220.63,2.66,-1.0
11933,50.83084,-3.398593,99,24.34,11.0,202.2,Dec-21,1193439,2019-08-17 07:40:22:806,-0.1847,0.0008,10.543,0.0563,-0.0335,9.8064,-0.0022,-0.0256,0.0191,-22.12,19.15,-6.62,220.68,2.79,-1.36
11934,50.83066,-3.398737,99,24.04,12.0,203.1,Dec-21,1193540,2019-08-17 07:40:22:907,0.1392,-0.1603,9.2055,-0.0143,0.0087,9.8066,0.0426,0.0277,0.002,-21.31,19.53,-8.02,220.68,2.79,-1.36
11935,50.83066,-3.398737,99,24.04,12.0,203.1,Dec-21,1193639,2019-08-17 07:40:23:006,-0.5388,0.0384,10.0351,-0.0229,0.0135,9.8066,0.0181,0.0128,0.001,-21.31,19.53,-8.02,220.68,2.79,-1.36
11936,50.83066,-3.398737,99,24.04,12.0,203.1,Dec-21,1193740,2019-08-17 07:40:23:107,0.1586,0.0608,9.3633,0.0072,-0.0128,9.8066,-0.0522,-0.032,0.001,-21.14,20.09,-7.06,223.42,2.74,-1.21
11937,50.83066,-3.398737,99,24.04,12.0,203.1,Dec-21,1193839,2019-08-17 07:40:23:206,0.1295,-0.2242,9.7612,0.0194,-0.0189,9.8066,-0.0118,-0.0011,0.0042,-21.08,19.99,-7.48,223.45,2.77,-1.42
11938,50.83066,-3.398737,99,24.04,12.0,203.1,Dec-21,1193939,2019-08-17 07:40:23:306,-0.0464,-0.0528,9.8471,0.0048,-0.0181,9.8066,0.017,0.0341,-0.0001,-21.25,20.15,-6.51,223.48,2.78,-1.57
