,GPS LATITUDE (degrees), GPS LONGITUDE (degrees), GPS ALTITUDE (m), GPS SPEED (Kmh), GPS ACCURACY (m), GPS ORIENTATION (Â°),GPS SATELLITES IN RANGE, TIME SINCE START (ms), DATE (YYYY-MO-DD HH-MI-SS_SSS), ACCELEROMETER X (m/s²) , ACCELEROMETER Y (m/s²), ACCELEROMETER Z (m/s²), GRAVITY X (m/s²), GRAVITY Y (m/s²), GRAVITY Z (m/s²), GYROSCOPE Yaw (rad/s), GYROSCOPE Pitch (rad/s), GYROSCOPE Roll (rad/s), MAGNETIC FIELD X (Î¼T), MAGNETIC FIELD Y (Î¼T), MAGNETIC FIELD Z (Î¼T), ORIENTATION (Yaw) (Â°), ORIENTATION (Pitch) (Â°), ORIENTATION (Roll ) (Â°)
69789,52.492886,-1.432059,164.18,15.15,2,343.15,25 / 26,6792510,2019-09-08 14:00:11:749,1.1072,0.5321,9.4558,-0.0264,-0.0431,9.8064,0.1957,-0.0617,0.0163,-10.62,-38.06,-6.94,228.18,-80.72,-169.06
69790,52.492886,-1.432059,164.18,15.15,2,343.15,25 / 26,6792610,2019-09-08 14:00:11:849,0.4572,-0.4162,9.9266,0.0303,0.0082,9.8065,0.0895,-0.0432,0.0607,-10.69,-38.31,-7.25,228.84,-80.61,-167.92
69791,52.492886,-1.432059,164.18,15.15,2,343.15,24 / 24,6792711,2019-09-08 14:00:11:950,0.3675,-0.3184,9.7502,0.0189,0.01,9.8065,-0.1264,-0.0271,-0.0126,-11.44,-37.81,-7.44,230.01,-80.8,-166.81
69792,52.492886,-1.432059,164.18,15.15,2,343.15,24 / 24,6792810,2019-09-08 14:00:12:049,-0.8239,-1.2081,9.371,-0.0121,-0.0485,9.8065,-0.0672,-0.0209,0.0256,-11.06,-37.12,-7.56,228.88,-80.89,-166.37
69793,52.492886,-1.432059,164.18,15.15,2,343.15,24 / 24,6792910,2019-09-08 14:00:12:149,1.1233,-0.4285,10.0116,-0.0076,-0.0208,9.8065,0.0181,0.0075,-0.0387,-12.06,-37.0,-7.62,233.0,-80.99,-164.79
69794,52.492886,-1.432059,164.18,15.15,2,343.15,24 / 24,6793010,2019-09-08 14:00:12:249,1.1358,0.3799,10.0807,-0.0026,0.0079,9.8066,0.0121,-0.0494,0.0355,-11.75,-36.94,-7.75,232.55,-80.9,-165.16
69795,52.492886,-1.432059,164.18,15.15,2,343.15,24 / 24,6793110,2019-09-08 14:00:12:349,-0.6192,0.4024,9.913,-0.0045,-0.0122,9.8066,0.1331,-0.0198,-0.0009,-12.0,-37.75,-7.31,233.97,-80.95,-165.59
69796,52.492886,-1.432059,164.18,15.15,2,343.15,24 / 24,6793210,2019-09-08 14:00:12:449,-0.4787,-0.5976,10.7287,0.0223,0.0323,9.8065,0.0885,-0.0033,-0.0272,-11.5,-37.69,-7.56,228.5,-80.8,-166.15
69797,52.492886,-1.432059,164.18,15.15,2,343.15,24 / 24,6793310,2019-09-08 14:00:12:549,-1.2955,-0.1508,7.6217,0.0533,0.0709,9.8062,-0.4211,0.0267,-0.0826,-11.69,-37.0,-7.44,233.25,-80.65,-166.4
69798,52.492886,-1.432059,164.18,15.15,2,343.15,24 / 24,6793410,2019-09-08 14:00:12:649,-1.6044,-3.1248,9.7435,-0.0488,-0.118,9.8058,-0.5179,-0.0444,0.0379,-11.19,-37.19,-7.87,228.64,-80.62,-166.13
69799,52.492886,-1.432059,164.18,15.15,2,343.15,24 / 24,6793510,2019-09-08 14:00:12:749,-0.6982,-2.2423,8.8635,-0.1052,-0.135,9.8051,0.5969,0.0541,-0.0042,-12.0,-36.81,-7.44,237.1,-81.49,-163.45
69800,52.492886,-1.432059,164.18,15.15,2,343.15,24 / 24,6793610,2019-09-08 14:00:12:849,-0.218,1.5086,10.3864,0.0766,0.0835,9.8059,0.4568,0.0427,0.0095,-12.44,-36.69,-7.37,235.32,-80.4,-163.17
69801,52.492886,-1.432059,164.18,15.15,2,343.15,24 / 24,6793710,2019-09-08 14:00:12:949,0.7457,-0.2101,9.1194,0.0914,0.0768,9.8058,-0.5199,-0.0802,0.0564,-12.19,-36.56,-6.87,236.18,-80.27,-161.74
69802,52.492886,-1.432059,164.18,15.15,2,343.15,25 / 25,6793810,2019-09-08 14:00:13:049,-1.4853,-1.9271,8.6511,-0.0423,-0.0755,9.8062,-0.5977,0.0132,-0.0232,-12.31,-37.06,-7.56,235.58,-80.28,-159.96
69803,52.492886,-1.432059,164.18,15.15,2,343.15,25 / 25,6793910,2019-09-08 14:00:13:149,-0.4358,-1.2676,8.4779,-0.0114,-0.0277,9.8066,0.2612,-0.0372,-0.0277,-11.94,-37.44,-8.06,238.36,-80.81,-157.67
69804,52.492886,-1.432059,164.18,15.15,2,343.15,25 / 25,6794010,2019-09-08 14:00:13:249,1.1646,1.1739,11.3,-0.0235,-0.0243,9.8065,0.3124,-0.058,-0.0044,-12.19,-37.44,-6.94,240.33,-80.9,-158.03
69805,52.492886,-1.432059,164.18,15.15,2,343.15,25 / 25,6794110,2019-09-08 14:00:13:349,1.0815,1.5321,11.5927,-0.0181,-0.0223,9.8065,-0.1825,0.0227,-0.0235,-11.94,-37.5,-6.81,239.77,-80.84,-158.6
69806,52.492886,-1.432059,164.18,15.15,2,343.15,25 / 25,6794210,2019-09-08 14:00:13:449,0.1909,1.02,10.0962,0.0381,0.0316,9.8065,-0.1479,0.028,0.0456,-12.37,-36.94,-7.31,239.65,-80.66,-158.3
69807,52.492886,-1.432059,164.18,15.15,2,343.15,25 / 25,6794310,2019-09-08 14:00:13:549,-0.4098,-0.8908,8.1436,0.0427,0.0397,9.8064,-0.0465,0.0129,0.04,-12.37,-36.31,-7.62,237.9,-80.31,-157.71
69808,52.492886,-1.432059,164.18,15.15,2,343.15,25 / 25,6794410,2019-09-08 14:00:13:649,-0.179,-0.6845,9.6122,-0.0545,-0.0753,9.8062,-0.1319,0.025,0.0389,-12.69,-36.0,-7.94,242.59,-80.44,-155.56
69809,52.492886,-1.432059,164.18,15.15,2,343.15,25 / 25,6794510,2019-09-08 14:00:13:749,-0.1414,-0.1677,9.8363,-0.0526,-0.0725,9.8062,0.1646,-0.0305,-0.0334,-12.31,-36.12,-7.69,242.53,-81.07,-153.77
69810,52.492886,-1.432059,164.18,15.15,2,343.15,25 / 25,6794611,2019-09-08 14:00:13:850,-1.5495,-0.3275,9.3161,0.0313,0.031,9.8065,0.023,0.0319,-0.0328,-13.0,-36.37,-8.5,242.78,-80.67,-155.84
69811,52.492886,-1.432059,164.18,15.15,2,343.15,24 / 24,6794711,2019-09-08 14:00:13:950,0.2418,0.2987,10.0433,0.0278,0.0237,9.8065,0.0371,0.0106,0.0029,-12.81,-37.12,-7.31,244.26,-80.5,-155.61
69812,52.492886,-1.432059,164.18,15.15,2,343.15,24 / 24,6794809,2019-09-08 14:00:14:048,0.4412,0.0836,9.8383,0.0158,0.0076,9.8066,-0.0666,-0.0504,0.0417,-12.69,-36.25,-7.81,243.44,-80.64,-154.97
69813,52.492886,-1.432059,164.18,15.15,2,343.15,24 / 24,6794910,2019-09-08 14:00:14:149,-0.3343,-0.8509,9.5927,0.0186,0.0221,9.8066,0.0678,-0.0374,0.0342,-12.81,-36.69,-7.62,243.24,-80.64,-154.62
69814,52.492886,-1.432059,164.18,15.15,2,343.15,24 / 24,6795010,2019-09-08 14:00:14:249,-1.1857,0.0614,9.7119,-0.0257,-0.0311,9.8065,-0.0129,0.0225,-0.018,-11.87,-36.62,-7.81,241.12,-80.88,-154.42
69815,52.492886,-1.432059,164.18,15.15,2,343.15,24 / 24,6795110,2019-09-08 14:00:14:349,0.0416,0.9667,8.7283,-0.0178,-0.0403,9.8065,0.0799,0.0144,0.0223,-12.31,-36.81,-7.44,243.0,-80.75,-154.39
69816,52.492886,-1.432059,164.18,15.15,2,343.15,24 / 24,6795210,2019-09-08 14:00:14:449,-0.0398,-0.1602,11.3879,0.0301,-0.0195,9.8065,0.1748,-0.0483,0.0737,-12.06,-37.19,-7.69,241.13,-80.49,-153.5
69817,52.492886,-1.432059,164.18,15.15,2,343.15,24 / 24,6795310,2019-09-08 14:00:14:549,-2.5362,0.6864,8.9814,0.0188,0.038,9.8065,-0.002,-0.096,0.068,-12.5,-36.62,-6.87,242.9,-80.07,-152.76
69818,52.492886,-1.432059,164.18,15.15,2,343.15,24 / 24,6795410,2019-09-08 14:00:14:649,1.2097,-0.6601,9.8377,-0.035,-0.0527,9.8064,-0.03,-0.0528,0.0572,-12.06,-37.31,-7.5,240.93,-79.85,-154.66
69819,52.492886,-1.432059,164.18,15.15,2,343.15,24 / 24,6795510,2019-09-08 14:00:14:749,-0.38,2.3028,11.1767,-0.0793,-0.0774,9.806,0.1329,0.1098,-0.1497,-12.0,-36.75,-7.19,242.13,-80.52,-154.86
69820,52.492886,-1.432059,164.18,15.15,2,343.15,24 / 24,6795610,2019-09-08 14:00:14:849,0.1249,1.7951,10.5535,0.0696,0.1228,9.8056,0.3456,0.0305,-0.0274,-11.19,-37.0,-7.37,234.93,-80.1,-159.22
69821,52.49413,-1.432085,162.94,15.95,2,7.1,26 / 26,6795710,2019-09-08 14:00:14:949,-1.8967,1.1094,9.173,0.059,0.1033,9.8058,-0.2361,0.012,0.0498,-11.12,-37.0,-7.19,234.45,-80.23,-160.17
69822,52.49413,-1.432085,162.94,15.95,2,7.1,26 / 26,6795810,2019-09-08 14:00:15:049,-1.0053,0.986,9.1289,-0.0629,-0.1157,9.8057,-0.2977,0.0498,0.0573,-11.37,-36.94,-7.94,232.06,-80.15,-160.59
69823,52.49413,-1.432085,162.94,15.95,2,7.1,26 / 26,6795909,2019-09-08 14:00:15:148,1.3815,-1.0335,11.7805,-0.0573,-0.1469,9.8053,0.6054,0.0062,0.1229,-11.69,-37.75,-6.44,243.2,-80.9,-156.71
69824,52.49413,-1.432085,162.94,15.95,2,7.1,26 / 26,6796010,2019-09-08 14:00:15:249,2.4254,2.6194,12.5991,0.1367,0.187,9.8038,1.0723,0.1125,-0.064,-11.06,-37.31,-7.0,241.04,-81.14,-154.09
69825,52.49413,-1.432085,162.94,15.95,2,7.1,26 / 26,6796110,2019-09-08 14:00:15:349,-5.1118,-0.9328,6.1417,0.1486,0.1901,9.8037,-1.3076,0.1652,0.129,-10.81,-36.81,-7.25,236.43,-80.05,-157.13
69826,52.49413,-1.432085,162.94,15.95,2,7.1,26 / 26,6796210,2019-09-08 14:00:15:449,-3.0693,-4.3433,6.505,-0.1417,-0.1991,9.8035,-1.2138,0.036,0.1414,-10.37,-36.87,-8.37,235.74,-81.59,-155.29
69827,52.49413,-1.432085,162.94,15.95,2,7.1,26 / 26,6796310,2019-09-08 14:00:15:549,-0.3617,-4.3733,9.466,-0.0691,-0.1199,9.8056,0.8821,0.1704,-0.1176,-11.0,-37.25,-7.5,239.91,-81.38,-156.13
69828,52.49413,-1.432085,162.94,15.95,2,7.1,26 / 26,6796410,2019-09-08 14:00:15:649,1.3233,4.7164,11.7536,0.0424,0.0549,9.8064,0.8077,0.0649,0.0056,-10.94,-37.19,-7.44,238.9,-81.22,-156.95
69829,52.49413,-1.432085,162.94,15.95,2,7.1,26 / 26,6796510,2019-09-08 14:00:15:749,1.2389,2.9234,12.6026,0.0526,0.0006,9.8064,-0.5935,0.0448,0.0858,-11.06,-36.87,-7.06,239.06,-80.77,-155.57
69830,52.49413,-1.432085,162.94,15.95,2,7.1,26 / 26,6796610,2019-09-08 14:00:15:849,-2.4816,3.3708,8.6337,-0.0315,0.0275,9.8065,-0.3893,0.1331,-0.0801,-10.44,-36.87,-7.81,234.57,-81.07,-155.48
69831,52.49413,-1.432085,162.94,15.95,2,7.1,24 / 25,6796710,2019-09-08 14:00:15:949,-2.2897,-0.3802,7.9111,0.0458,0.0676,9.8063,-0.0282,0.2358,-0.2009,-10.12,-36.62,-7.31,234.78,-80.77,-156.95
69832,52.49413,-1.432085,162.94,15.95,2,7.1,24 / 25,6796810,2019-09-08 14:00:16:049,-0.5838,0.9351,9.4055,-0.0696,-0.0598,9.8062,-0.1022,0.0914,-0.0679,-9.37,-37.69,-7.19,231.36,-81.64,-158.68
69833,52.49413,-1.432085,162.94,15.95,2,7.1,24 / 25,6796910,2019-09-08 14:00:16:149,-1.5301,0.342,8.9489,-0.0821,-0.0867,9.8059,0.3362,-0.0509,-0.0404,-9.5,-36.75,-7.87,228.75,-81.79,-160.54
69834,52.49413,-1.432085,162.94,15.95,2,7.1,24 / 25,6797010,2019-09-08 14:00:16:249,-1.217,1.5304,9.7268,-0.0096,0.0395,9.8065,0.1539,0.1073,-0.0859,-9.19,-37.31,-7.44,229.24,-81.63,-162.09
69835,52.49413,-1.432085,162.94,15.95,2,7.1,24 / 25,6797110,2019-09-08 14:00:16:349,-0.8991,0.9299,9.8559,0.0056,0.0244,9.8066,-0.1225,0.1093,-0.0153,-9.12,-37.75,-7.62,225.25,-81.56,-164.11
69836,52.49413,-1.432085,162.94,15.95,2,7.1,24 / 25,6797210,2019-09-08 14:00:16:449,-1.1268,1.1896,9.6676,-0.0056,-0.0134,9.8065,-0.1016,0.06,0.0352,-9.31,-37.19,-7.44,228.12,-81.63,-163.6
69837,52.49413,-1.432085,162.94,15.95,2,7.1,24 / 25,6797310,2019-09-08 14:00:16:549,-0.5651,0.4326,10.9501,0.0138,-0.0148,9.8065,0.1281,0.0716,-0.0121,-9.37,-36.94,-7.06,229.27,-81.67,-162.16
69838,52.49413,-1.432085,162.94,15.95,2,7.1,24 / 25,6797410,2019-09-08 14:00:16:649,-0.3453,1.3235,10.3348,0.0184,0.0008,9.8065,0.2413,0.0099,0.0524,-8.94,-37.56,-6.75,228.87,-81.53,-161.74
69839,52.49413,-1.432085,162.94,15.95,2,7.1,24 / 25,6797510,2019-09-08 14:00:16:749,0.4362,1.1945,10.8807,-0.0015,0.0038,9.8066,-0.2174,0.0691,-0.0944,-8.87,-37.12,-7.31,229.4,-81.49,-161.53
69840,52.49413,-1.432085,162.94,15.95,2,7.1,24 / 25,6797610,2019-09-08 14:00:16:849,0.3452,0.5067,10.0098,-0.002,0.0065,9.8066,-0.1302,0.0406,-0.0519,-8.94,-36.87,-7.56,227.86,-81.51,-161.04
69841,52.49413,-1.432085,162.94,15.95,2,7.1,25 / 25,6797710,2019-09-08 14:00:16:949,-0.4612,1.0084,10.1264,0.0129,0.0067,9.8066,0.0904,0.0633,-0.0455,-8.5,-37.44,-7.31,225.87,-81.4,-161.2
69842,52.49413,-1.432085,162.94,15.95,2,7.1,25 / 25,6797810,2019-09-08 14:00:17:049,-2.1924,1.3137,8.7222,-0.0267,-0.0245,9.8065,-0.0318,0.0643,0.0863,-8.87,-37.25,-7.25,229.13,-81.39,-161.62
69843,52.49413,-1.432085,162.94,15.95,2,7.1,25 / 25,6797910,2019-09-08 14:00:17:149,-0.7711,1.3561,9.802,0.0188,-0.0254,9.8066,-0.014,0.0612,0.0541,-9.0,-37.31,-7.69,229.0,-81.54,-159.61
69844,52.49413,-1.432085,162.94,15.95,2,7.1,25 / 25,6798010,2019-09-08 14:00:17:249,-1.0713,0.0547,10.4704,0.02,0.0101,9.8065,-0.0872,0.0064,0.05,-9.06,-37.19,-7.31,232.48,-81.37,-157.06
69845,52.49413,-1.432085,162.94,15.95,2,7.1,25 / 25,6798110,2019-09-08 14:00:17:349,-1.0082,-0.7627,10.4104,0.0247,0.0431,9.8065,-0.0716,0.0231,-0.0288,-8.75,-37.06,-7.25,231.54,-81.02,-157.38
69846,52.49413,-1.432085,162.94,15.95,2,7.1,25 / 25,6798210,2019-09-08 14:00:17:449,0.2074,1.3728,10.7685,-0.0245,-0.0285,9.8066,0.3669,0.012,0.0052,-8.5,-37.44,-6.87,226.19,-80.8,-159.13
69847,52.49413,-1.432085,162.94,15.95,2,7.1,25 / 25,6798310,2019-09-08 14:00:17:549,-0.251,2.635,10.9132,-0.0399,-0.0802,9.8061,0.3818,0.0885,-0.0565,-8.56,-37.19,-6.75,230.66,-81.15,-158.92
69848,52.49413,-1.432085,162.94,15.95,2,7.1,25 / 25,6798410,2019-09-08 14:00:17:649,-1.2514,2.3511,10.5768,0.0401,0.0888,9.8061,-0.3804,0.0701,0.0467,-8.25,-37.37,-7.44,227.72,-81.47,-158.8
69849,52.49413,-1.432085,162.94,15.95,2,7.1,25 / 25,6798510,2019-09-08 14:00:17:749,-1.4199,-1.4515,8.9427,0.0403,0.0875,9.8061,-0.2375,0.0123,0.0897,-8.37,-37.31,-7.0,226.22,-80.96,-159.54
69850,52.49413,-1.432085,162.94,15.95,2,7.1,25 / 25,6798610,2019-09-08 14:00:17:849,-2.0344,-0.6476,7.9494,-0.0393,-0.0666,9.8063,-0.0026,0.0408,0.0258,-8.31,-37.87,-7.12,227.58,-81.36,-158.04
69851,52.49413,-1.432085,162.94,15.95,2,7.1,24 / 24,6798710,2019-09-08 14:00:17:949,-1.7651,-1.1609,9.0707,-0.0169,-0.0379,9.8065,-0.1665,0.0187,-0.0055,-8.12,-37.5,-7.25,227.63,-81.19,-158.17
69852,52.49413,-1.432085,162.94,15.95,2,7.1,24 / 24,6798809,2019-09-08 14:00:18:048,0.317,1.3814,11.0736,0.009,0.0213,9.8066,0.1666,0.0494,-0.0194,-8.12,-37.56,-7.19,227.14,-81.18,-158.18
69853,52.49413,-1.432085,162.94,15.95,2,7.1,24 / 24,6798910,2019-09-08 14:00:18:149,-0.1661,1.7239,11.0461,0.0057,0.0144,9.8065,0.2057,0.0648,-0.0569,-9.12,-37.44,-7.12,230.49,-81.15,-159.13
69854,52.49413,-1.432085,162.94,15.95,2,7.1,24 / 24,6799010,2019-09-08 14:00:18:249,-0.6203,1.0107,10.4932,0.0162,0.0282,9.8066,-0.1074,0.0699,-0.007,-7.62,-37.31,-6.69,226.71,-81.19,-159.45
69855,52.49413,-1.432085,162.94,15.95,2,7.1,24 / 24,6799110,2019-09-08 14:00:18:349,-0.3473,0.6685,10.0642,0.0241,0.0017,9.8066,0.0148,0.1096,-0.0367,-7.75,-36.94,-7.25,226.75,-81.0,-158.9
69856,52.49413,-1.432085,162.94,15.95,2,7.1,24 / 24,6799210,2019-09-08 14:00:18:449,-1.7402,-0.7164,9.3517,-0.0155,-0.0308,9.8065,0.0503,0.019,0.023,-8.0,-37.56,-7.0,227.04,-81.21,-158.37
69857,52.49413,-1.432085,162.94,15.95,2,7.1,24 / 24,6799310,2019-09-08 14:00:18:549,0.0866,0.4948,8.9761,-0.0278,-0.026,9.8065,0.0796,0.0056,0.0464,-7.94,-37.19,-6.87,227.66,-81.29,-158.4
69858,52.49413,-1.432085,162.94,15.95,2,7.1,24 / 24,6799410,2019-09-08 14:00:18:649,0.3486,-0.8063,10.8273,0.0144,0.0328,9.8065,-0.0279,0.1338,-0.1433,-7.37,-37.5,-6.44,224.9,-81.23,-159.09
69859,52.49413,-1.432085,162.94,15.95,2,7.1,24 / 24,6799510,2019-09-08 14:00:18:749,-0.5653,1.4119,9.9329,0.0168,0.0748,9.8063,0.0347,0.0561,-0.0702,-7.12,-37.75,-6.31,222.53,-81.03,-161.3
69860,52.49413,-1.432085,162.94,15.95,2,7.1,24 / 24,6799610,2019-09-08 14:00:18:849,3.4308,2.3949,8.8024,0.0109,0.0311,9.8065,-0.7463,0.1082,-0.1866,-6.87,-37.5,-6.94,220.92,-81.21,-162.34
69861,52.49413,-1.432085,162.94,15.95,2,7.1,26 / 26,6799710,2019-09-08 14:00:18:949,-2.2508,-4.094,6.64,-0.0291,-0.1473,9.8055,0.1865,0.3369,-0.202,-6.37,-37.56,-7.25,215.99,-81.58,-164.06
69862,52.49413,-1.432085,162.94,15.95,2,7.1,26 / 26,6799810,2019-09-08 14:00:19:049,-2.6517,0.0735,9.9403,-0.075,-0.2471,9.8031,0.1361,0.121,0.0878,-6.19,-37.0,-7.62,218.75,-82.65,-161.07
69863,52.49413,-1.432085,162.94,15.95,2,7.1,26 / 26,6799909,2019-09-08 14:00:19:148,-0.0098,2.8273,10.654,0.0385,0.122,9.8058,-0.0257,-0.0661,0.0178,-7.19,-37.0,-7.56,221.11,-81.49,-160.49
69864,52.49413,-1.432085,162.94,15.95,2,7.1,26 / 26,6800010,2019-09-08 14:00:19:249,-0.5003,-0.6386,11.4559,0.0189,0.075,9.8063,0.1635,-0.0342,-0.0296,-6.37,-36.69,-6.94,218.15,-81.32,-160.69
69865,52.49413,-1.432085,162.94,15.95,2,7.1,26 / 26,6800111,2019-09-08 14:00:19:350,1.4135,1.6961,10.6516,-0.0034,0.0085,9.8066,0.175,0.052,-0.089,-6.94,-36.94,-6.56,220.62,-81.09,-162.47
69866,52.49413,-1.432085,162.94,15.95,2,7.1,26 / 26,6800210,2019-09-08 14:00:19:449,0.5598,1.3366,10.6916,-0.0321,-0.0323,9.8065,0.1192,0.0441,-0.0463,-6.5,-37.44,-7.19,215.84,-81.32,-164.22
69867,52.49413,-1.432085,162.94,15.95,2,7.1,26 / 26,6800310,2019-09-08 14:00:19:549,-0.7192,0.0434,9.0501,-0.003,0.0346,9.8066,-0.2282,0.0298,-0.035,-6.37,-36.94,-6.75,215.85,-81.84,-165.46
69868,52.49413,-1.432085,162.94,15.95,2,7.1,26 / 26,6800410,2019-09-08 14:00:19:649,-0.3616,0.4189,8.526,-0.006,0.0163,9.8065,-0.1208,0.0235,-0.0064,-5.69,-37.25,-7.19,215.01,-81.94,-166.95
69869,52.49413,-1.432085,162.94,15.95,2,7.1,26 / 26,6800510,2019-09-08 14:00:19:749,-0.1938,0.236,9.6629,0.0042,0.0046,9.8066,-0.0325,0.0015,0.0514,-5.75,-36.87,-7.37,215.09,-81.98,-166.93
69870,52.49413,-1.432085,162.94,15.95,2,7.1,26 / 26,6800610,2019-09-08 14:00:19:849,-0.3146,0.9574,9.7514,0.012,0.0245,9.8065,-0.0487,0.0217,0.0014,-6.0,-37.31,-7.62,213.55,-81.95,-166.9
69871,52.49413,-1.432085,162.94,15.95,2,7.1,25 / 25,6800709,2019-09-08 14:00:19:948,-1.7087,0.4513,9.4071,-0.043,-0.0736,9.8062,0.0219,-0.0353,0.0984,-5.69,-37.37,-7.25,214.91,-81.73,-166.61
69872,52.49413,-1.432085,162.94,15.95,2,7.1,25 / 25,6800810,2019-09-08 14:00:20:049,0.1481,-1.5707,11.2727,-0.0119,-0.0546,9.8065,-0.116,0.0154,0.0524,-6.0,-37.12,-6.94,216.3,-82.06,-165.33
69873,52.49413,-1.432085,162.94,15.95,2,7.1,25 / 25,6800909,2019-09-08 14:00:20:148,1.5734,1.1159,11.4006,0.0656,0.0957,9.8059,0.144,0.071,-0.0711,-6.31,-36.94,-6.69,217.31,-82.39,-164.69
69874,52.49413,-1.432085,162.94,15.95,2,7.1,25 / 25,6801010,2019-09-08 14:00:20:249,-0.9336,-0.9183,10.2435,0.0365,0.0569,9.8064,0.0795,0.1309,-0.1538,-6.31,-36.75,-6.62,216.65,-81.84,-164.28
69875,52.49413,-1.432085,162.94,15.95,2,7.1,25 / 25,6801110,2019-09-08 14:00:20:349,0.0372,-0.7653,8.761,-0.0344,-0.0397,9.8064,-0.0486,0.0169,-0.0919,-5.75,-37.12,-7.06,216.25,-82.17,-165.67
69876,52.49413,-1.432085,162.94,15.95,2,7.1,25 / 25,6801210,2019-09-08 14:00:20:449,0.1066,-1.1917,9.7756,-0.0152,-0.0242,9.8065,-0.0236,0.0471,-0.0194,-5.94,-37.62,-7.25,214.88,-82.04,-166.88
69877,52.49413,-1.432085,162.94,15.95,2,7.1,25 / 25,6801310,2019-09-08 14:00:20:549,-0.112,0.5294,9.2987,0.0196,0.0591,9.8064,-0.2379,-0.016,0.0543,-5.75,-36.94,-6.69,215.37,-82.33,-167.37
69878,52.49413,-1.432085,162.94,15.95,2,7.1,25 / 25,6801410,2019-09-08 14:00:20:649,-0.5239,0.2147,9.4137,0.0288,0.0604,9.8064,-0.1402,0.0355,0.0562,-6.0,-37.12,-7.56,213.66,-82.16,-167.16
69879,52.49413,-1.432085,162.94,15.95,2,7.1,25 / 25,6801510,2019-09-08 14:00:20:749,-0.4384,-0.6255,10.0062,0.0125,-0.0394,9.8065,0.068,0.0127,0.0401,-5.87,-37.25,-7.31,216.8,-82.39,-165.41
69880,52.49413,-1.432085,162.94,15.95,2,7.1,25 / 25,6801610,2019-09-08 14:00:20:849,-0.2053,0.2718,10.2026,0.0103,-0.0125,9.8066,0.0166,0.0153,0.0242,-6.25,-36.69,-7.19,218.73,-82.41,-162.68
69881,52.49413,-1.432085,162.94,15.95,2,7.1,26 / 26,6801710,2019-09-08 14:00:20:949,-0.5063,0.7516,9.3103,0.0081,0.0181,9.8065,-0.1039,0.067,-0.02,-6.25,-36.81,-6.56,218.46,-82.19,-162.5
69882,52.49413,-1.432085,162.94,15.95,2,7.1,26 / 26,6801810,2019-09-08 14:00:21:049,-0.5789,-0.8709,9.275,0.0086,0.008,9.8066,-0.2271,0.0023,0.0655,-6.5,-37.06,-7.37,219.02,-82.26,-161.88
69883,52.49413,-1.432085,162.94,15.95,2,7.1,26 / 26,6801909,2019-09-08 14:00:21:148,-0.7011,0.4159,10.141,-0.01,-0.0366,9.8065,0.1429,0.0455,0.0386,-5.56,-36.5,-7.0,220.43,-82.4,-160.79
69884,52.49413,-1.432085,162.94,15.95,2,7.1,26 / 26,6802010,2019-09-08 14:00:21:249,-0.3377,0.4106,11.1678,0.0068,0.0125,9.8066,0.1796,0.0514,-0.0313,-5.87,-37.12,-7.12,220.72,-82.47,-159.99
69885,52.49413,-1.432085,162.94,15.95,2,7.1,26 / 26,6802110,2019-09-08 14:00:21:349,-0.4219,1.4541,10.1377,0.0282,0.068,9.8063,-0.2936,0.028,0.0719,-5.62,-37.06,-7.31,220.33,-82.64,-160.99
69886,52.49413,-1.432085,162.94,15.95,2,7.1,26 / 26,6802210,2019-09-08 14:00:21:449,-2.2445,-2.2182,8.5587,0.017,0.0454,9.8065,-0.4243,0.099,0.049,-6.19,-36.5,-7.19,220.01,-82.41,-161.39
69887,52.49413,-1.432085,162.94,15.95,2,7.1,26 / 26,6802310,2019-09-08 14:00:21:549,-1.1227,-0.6731,8.838,-0.0363,-0.1147,9.8058,0.278,0.0175,0.0564,-5.87,-36.56,-7.62,222.24,-83.15,-157.51
69888,52.49413,-1.432085,162.94,15.95,2,7.1,26 / 26,6802410,2019-09-08 14:00:21:649,-1.7376,-1.5449,10.8686,-0.0144,-0.0735,9.8063,0.1623,0.0072,0.0495,-6.44,-36.56,-7.25,223.89,-82.98,-156.98
69889,52.49413,-1.432085,162.94,15.95,2,7.1,26 / 26,6802510,2019-09-08 14:00:21:749,-0.6287,1.6796,10.7293,0.0561,0.1158,9.8057,0.0436,0.1066,-0.1051,-6.5,-36.94,-7.19,223.93,-82.79,-156.36
69890,52.49413,-1.432085,162.94,15.95,2,7.1,26 / 26,6802610,2019-09-08 14:00:21:849,-1.9744,1.9663,9.4484,0.0457,0.11,9.8059,0.0058,0.1783,-0.1092,-5.5,-37.31,-6.81,216.06,-81.91,-158.82
69891,52.49413,-1.432085,162.94,15.95,2,7.1,24 / 25,6802710,2019-09-08 14:00:21:949,-1.8047,-0.4195,8.987,-0.0438,-0.1066,9.8059,0.0007,0.0106,0.0344,-6.0,-36.87,-6.81,222.04,-82.52,-158.25
69892,52.49413,-1.432085,162.94,15.95,2,7.1,24 / 25,6802810,2019-09-08 14:00:22:049,0.0382,-0.265,10.3674,-0.0253,-0.0664,9.8064,0.0692,-0.0383,0.0493,-5.44,-36.31,-7.37,218.32,-82.57,-157.78
69893,52.49413,-1.432085,162.94,15.95,2,7.1,24 / 25,6802910,2019-09-08 14:00:22:149,-1.385,0.2541,10.0846,-0.0019,0.0428,9.8065,-0.0461,0.0457,-0.0061,-5.12,-37.0,-7.0,218.42,-82.78,-157.66
69894,52.49413,-1.432085,162.94,15.95,2,7.1,24 / 25,6803010,2019-09-08 14:00:22:249,-0.4545,-1.6708,10.8863,0.0053,0.008,9.8066,0.131,-0.0013,-0.0111,-4.81,-37.06,-7.25,217.66,-82.68,-158.48
69895,52.49413,-1.432085,162.94,15.95,2,7.1,24 / 25,6803110,2019-09-08 14:00:22:349,-1.3543,1.4241,9.3098,-0.0135,0.0472,9.8064,-0.0859,0.0848,-0.0806,-4.37,-36.94,-6.62,211.67,-82.57,-160.1
69896,52.49413,-1.432085,162.94,15.95,2,7.1,24 / 25,6803210,2019-09-08 14:00:22:449,-1.6349,-0.305,8.8574,0.0148,0.0724,9.8063,-0.2523,0.0767,-0.0924,-3.87,-37.06,-6.94,209.3,-82.21,-162.91
69897,52.49413,-1.432085,162.94,15.95,2,7.1,24 / 25,6803310,2019-09-08 14:00:22:549,-2.3056,0.5518,8.2669,-0.0258,-0.088,9.8062,0.152,0.0044,0.0457,-4.44,-36.87,-6.75,210.77,-82.89,-162.24
69898,52.49413,-1.432085,162.94,15.95,2,7.1,24 / 25,6803413,2019-09-08 14:00:22:652,-0.9392,0.8698,10.3961,-0.015,-0.0862,9.8062,0.2075,-0.0018,0.0688,-4.69,-36.31,-7.69,216.02,-82.99,-160.24
69899,52.49413,-1.432085,162.94,15.95,2,7.1,24 / 25,6803510,2019-09-08 14:00:22:749,-0.6422,-0.1392,10.4552,0.0416,0.0629,9.8063,-0.0934,0.0658,-0.0166,-4.62,-36.69,-7.31,218.15,-82.94,-158.47
69900,52.49413,-1.432085,162.94,15.95,2,7.1,24 / 25,6803609,2019-09-08 14:00:22:848,-0.0159,-0.3834,10.5267,0.0219,0.0455,9.8065,-0.0836,0.0217,0.0667,-4.5,-35.94,-6.69,212.87,-82.41,-158.37
69901,52.49413,-1.432085,162.94,15.95,2,7.1,23 / 23,6803709,2019-09-08 14:00:22:948,-1.5359,0.3023,8.9812,-0.0263,-0.0254,9.8065,-0.0015,0.0889,-0.0444,-4.94,-36.94,-6.94,217.3,-82.14,-157.55
69902,52.49413,-1.432085,162.94,15.95,2,7.1,23 / 23,6803810,2019-09-08 14:00:23:049,-0.4306,-0.6794,10.2006,-0.0065,0.0255,9.8065,-0.0823,-0.0099,0.0637,-5.19,-37.62,-7.06,215.97,-82.13,-158.95
69903,52.49413,-1.432085,162.94,15.95,2,7.1,23 / 23,6803910,2019-09-08 14:00:23:149,0.2615,0.5459,10.7008,0.0056,0.0246,9.8066,0.0856,0.0177,-0.0088,-4.75,-37.19,-7.06,216.25,-82.26,-159.43
69904,52.49413,-1.432085,162.94,15.95,2,7.1,23 / 23,6804010,2019-09-08 14:00:23:249,-1.1473,0.6739,10.3212,0.0007,0.0019,9.8066,0.0759,0.0908,-0.0704,-4.62,-36.81,-7.19,216.17,-82.33,-159.75
69905,52.49413,-1.432085,162.94,15.95,2,7.1,23 / 23,6804110,2019-09-08 14:00:23:349,-0.7774,-1.1657,9.6438,-0.0074,-0.0082,9.8065,-0.1045,0.0372,0.0532,-5.25,-36.5,-7.37,216.06,-82.3,-160.38
69906,52.49413,-1.432085,162.94,15.95,2,7.1,23 / 23,6804210,2019-09-08 14:00:23:449,-1.3553,-0.793,9.2111,-0.0074,-0.0173,9.8066,-0.1394,0.0806,-0.0685,-5.0,-37.37,-6.75,215.72,-82.33,-160.42
69907,52.49413,-1.432085,162.94,15.95,2,7.1,23 / 23,6804310,2019-09-08 14:00:23:549,-1.3253,0.7198,10.325,0.0037,0.0269,9.8065,0.0597,0.0376,-0.0171,-4.5,-36.87,-6.12,212.13,-82.34,-160.38
69908,52.49413,-1.432085,162.94,15.95,2,7.1,23 / 23,6804410,2019-09-08 14:00:23:649,-0.6061,-0.3087,9.601,-0.0098,0.0142,9.8066,-0.0644,0.0454,0.0122,-4.12,-37.62,-6.25,211.28,-82.24,-160.9
69909,52.49413,-1.432085,162.94,15.95,2,7.1,23 / 23,6804510,2019-09-08 14:00:23:749,1.1035,0.4018,11.1123,0.015,0.0207,9.8066,-0.0443,0.0916,-0.0682,-4.19,-36.94,-6.19,211.97,-82.14,-160.11
69910,52.49413,-1.432085,162.94,15.95,2,7.1,23 / 23,6804610,2019-09-08 14:00:23:849,-0.043,0.9929,10.3158,-0.0077,-0.0044,9.8066,0.1544,0.047,0.0573,-3.94,-37.19,-6.19,212.22,-82.45,-160.58
69911,52.4954,-1.432343,162.22,15.28,2,339.69,25 / 26,6804710,2019-09-08 14:00:23:949,-0.8267,0.4318,9.5634,-0.0161,-0.0264,9.8065,0.027,0.1109,-0.0316,-3.69,-37.25,-6.62,210.49,-82.37,-161.43
69912,52.4954,-1.432343,162.22,15.28,2,339.69,25 / 26,6804810,2019-09-08 14:00:24:049,-0.308,0.4379,9.7826,-0.004,0.0047,9.8066,0.0742,0.0171,-0.0335,-4.0,-37.44,-6.44,211.67,-82.54,-161.71
69913,52.4954,-1.432343,162.22,15.28,2,339.69,25 / 26,6804910,2019-09-08 14:00:24:149,-1.1891,-0.6912,10.6425,-0.0214,0.011,9.8066,0.0368,0.002,0.0214,-3.87,-37.62,-6.62,209.62,-82.72,-163.12
69914,52.4954,-1.432343,162.22,15.28,2,339.69,25 / 26,6805010,2019-09-08 14:00:24:249,0.1725,1.0057,10.6783,-0.0112,-0.0423,9.8065,0.4063,-0.0084,0.0046,-3.25,-37.62,-6.12,205.27,-83.05,-164.42
69915,52.4954,-1.432343,162.22,15.28,2,339.69,25 / 26,6805110,2019-09-08 14:00:24:349,-1.203,-0.1397,8.5155,0.0044,0.069,9.8064,-0.3831,0.1055,-0.074,-3.0,-37.25,-7.19,203.19,-82.63,-165.96
69916,52.4954,-1.432343,162.22,15.28,2,339.69,25 / 26,6805210,2019-09-08 14:00:24:449,-0.5027,-1.2507,9.3778,0.0133,0.1001,9.8061,-0.3164,0.0753,-0.019,-2.75,-37.0,-6.56,202.51,-82.63,-167.03
69917,52.4954,-1.432343,162.22,15.28,2,339.69,25 / 26,6805310,2019-09-08 14:00:24:549,-0.3576,-0.7484,8.6029,-0.012,-0.0674,9.8064,0.206,0.0073,-0.047,-2.5,-37.56,-6.94,197.34,-82.87,-167.58
69918,52.4954,-1.432343,162.22,15.28,2,339.69,25 / 26,6805410,2019-09-08 14:00:24:649,-0.5974,0.825,9.0455,-0.0118,-0.0208,9.8066,0.0668,0.0259,-0.0786,-2.62,-37.06,-6.56,202.06,-83.08,-168.56
69919,52.4954,-1.432343,162.22,15.28,2,339.69,25 / 26,6805510,2019-09-08 14:00:24:749,-1.2526,1.2333,10.7464,-0.0101,0.017,9.8066,0.1167,0.0264,0.0102,-2.31,-37.44,-6.69,196.41,-83.1,-169.7
69920,52.4954,-1.432343,162.22,15.28,2,339.69,25 / 26,6805610,2019-09-08 14:00:24:849,-0.3462,2.454,10.1086,0.0165,-0.0056,9.8066,0.1881,0.0298,0.0992,-1.75,-37.75,-6.31,197.19,-83.13,-169.08
69921,52.4954,-1.432343,162.22,15.28,2,339.69,25 / 25,6805710,2019-09-08 14:00:24:949,-1.6559,-2.1063,9.1564,0.0066,-0.0322,9.8065,-0.2261,0.1444,-0.0218,-2.37,-36.94,-6.81,198.24,-83.23,-167.02
69922,52.4954,-1.432343,162.22,15.28,2,339.69,25 / 25,6805809,2019-09-08 14:00:25:048,0.1561,-1.3622,10.0332,-0.0088,0.0094,9.8066,-0.17,0.0162,0.0685,-2.19,-36.69,-6.56,197.92,-83.26,-167.55
69923,52.4954,-1.432343,162.22,15.28,2,339.69,25 / 25,6805910,2019-09-08 14:00:25:149,-0.6403,-0.3489,10.6518,-0.0042,-0.0241,9.8066,0.3918,0.0349,-0.0117,-1.06,-36.75,-6.44,192.17,-82.84,-168.18
69924,52.4954,-1.432343,162.22,15.28,2,339.69,25 / 25,6806010,2019-09-08 14:00:25:249,-1.8506,4.1412,9.5745,-0.0086,-0.0836,9.8062,0.4277,0.0365,-0.0052,-2.0,-35.81,-4.62,198.04,-82.82,-168.89
69925,52.4954,-1.432343,162.22,15.28,2,339.69,25 / 25,6806110,2019-09-08 14:00:25:349,0.1563,1.148,11.3063,0.0465,0.09,9.806,-0.4122,0.0424,0.0663,-2.69,-35.75,-6.31,203.44,-82.79,-167.73
69926,52.4954,-1.432343,162.22,15.28,2,339.69,25 / 25,6806210,2019-09-08 14:00:25:449,-0.3169,-0.8003,9.2969,0.0036,0.0283,9.8066,-0.1726,0.0355,0.0061,-1.81,-36.19,-5.75,199.51,-82.83,-165.33
69927,52.4954,-1.432343,162.22,15.28,2,339.69,25 / 25,6806310,2019-09-08 14:00:25:549,-0.7524,-1.2693,9.4215,-0.0063,-0.0583,9.8065,0.0414,0.0338,-0.0436,-1.62,-37.0,-6.5,199.62,-83.14,-165.37
69928,52.4954,-1.432343,162.22,15.28,2,339.69,25 / 25,6806410,2019-09-08 14:00:25:649,0.1064,-0.6943,10.6717,-0.0317,-0.0035,9.8065,-0.0036,0.0181,-0.0722,-1.56,-36.44,-6.0,198.14,-82.89,-167.74
69929,52.4954,-1.432343,162.22,15.28,2,339.69,25 / 25,6806510,2019-09-08 14:00:25:749,-1.196,1.7917,9.8482,-0.0197,0.0649,9.8064,0.3303,0.0282,0.0124,-1.31,-37.06,-5.44,190.44,-82.72,-171.36
69930,52.4954,-1.432343,162.22,15.28,2,339.69,25 / 25,6806610,2019-09-08 14:00:25:849,-0.8591,1.3293,10.1083,-0.004,-0.027,9.8066,0.2495,0.0794,-0.0705,-1.31,-37.0,-5.37,189.49,-82.55,-172.97
69931,52.4954,-1.432343,162.22,15.28,2,339.69,25 / 25,6806710,2019-09-08 14:00:25:949,-0.8673,1.1198,9.6455,-0.0022,0.0779,9.8062,-0.4958,0.0321,-0.0197,-1.12,-37.31,-5.44,189.55,-82.86,-173.22
69932,52.4954,-1.432343,162.22,15.28,2,339.69,25 / 25,6806810,2019-09-08 14:00:26:049,-0.6262,-0.9731,9.8228,0.0021,0.0754,9.8063,-0.3344,0.0543,-0.0746,-0.62,-36.87,-5.62,188.68,-82.43,-173.9
69933,52.4954,-1.432343,162.22,15.28,2,339.69,25 / 25,6806910,2019-09-08 14:00:26:149,-0.3352,1.018,10.5038,-0.0093,-0.0326,9.8065,0.3016,0.0266,-0.0412,-1.06,-36.81,-5.25,188.25,-82.66,-175.48
69934,52.4954,-1.432343,162.22,15.28,2,339.69,25 / 25,6807010,2019-09-08 14:00:26:249,-0.6738,1.3892,10.1237,-0.0056,-0.0584,9.8064,0.194,0.0358,-0.0689,-1.0,-37.62,-5.0,187.79,-82.62,-176.13
69935,52.4954,-1.432343,162.22,15.28,2,339.69,25 / 25,6807110,2019-09-08 14:00:26:349,-0.6734,1.214,10.3171,0.0136,0.0544,9.8065,-0.2138,0.0272,0.0272,-0.81,-36.87,-5.56,187.54,-82.8,-176.24
69936,52.4954,-1.432343,162.22,15.28,2,339.69,25 / 25,6807210,2019-09-08 14:00:26:449,0.034,-1.1542,10.2223,0.011,0.0351,9.8065,-0.0956,0.064,0.0252,-1.06,-36.87,-5.62,188.24,-82.63,-174.87
69937,52.4954,-1.432343,162.22,15.28,2,339.69,25 / 25,6807310,2019-09-08 14:00:26:549,-0.6665,-0.5739,10.4154,0.009,-0.001,9.8066,0.1391,0.0473,-0.007,-1.19,-37.19,-5.06,189.02,-82.49,-173.81
69938,52.4954,-1.432343,162.22,15.28,2,339.69,25 / 25,6807410,2019-09-08 14:00:26:649,0.7681,0.9341,10.6542,-0.002,0.0237,9.8065,0.1223,-0.0098,0.0436,-0.81,-37.25,-5.12,188.78,-82.24,-174.0
69939,52.4954,-1.432343,162.22,15.28,2,339.69,25 / 25,6807510,2019-09-08 14:00:26:749,-1.7997,0.3522,8.2163,-0.0069,-0.006,9.8066,-0.1096,0.106,-0.0838,-1.19,-37.25,-4.81,188.46,-82.18,-174.58
69940,52.4954,-1.432343,162.22,15.28,2,339.69,25 / 25,6807610,2019-09-08 14:00:26:849,0.9186,-0.5154,9.9139,-0.0107,0.0447,9.8065,-0.1506,0.013,0.0522,-0.87,-37.5,-4.81,187.9,-82.09,-175.58
69941,52.4954,-1.432343,162.22,15.28,2,339.69,25 / 25,6807710,2019-09-08 14:00:26:949,-0.1623,-1.0632,9.2191,0.0146,-0.0602,9.8064,0.2831,-0.031,0.0626,-0.69,-37.19,-5.44,188.0,-82.28,-175.58
69942,52.4954,-1.432343,162.22,15.28,2,339.69,25 / 25,6807810,2019-09-08 14:00:27:049,0.323,0.2663,9.2703,0.0095,-0.0559,9.8064,0.1155,0.0902,-0.0379,-1.0,-37.25,-4.81,189.09,-82.4,-173.59
69943,52.4954,-1.432343,162.22,15.28,2,339.69,25 / 25,6807910,2019-09-08 14:00:27:149,0.3122,0.3906,10.0012,0.044,0.0394,9.8064,-0.136,0.0132,0.076,-1.44,-37.31,-4.56,189.85,-82.19,-171.84
69944,52.4954,-1.432343,162.22,15.28,2,339.69,25 / 25,6808012,2019-09-08 14:00:27:251,0.5325,-1.5492,10.3408,0.0014,0.0259,9.8066,-0.1474,0.0124,0.025,-0.81,-37.25,-5.12,190.63,-82.27,-170.39
69945,52.4954,-1.432343,162.22,15.28,2,339.69,25 / 25,6808110,2019-09-08 14:00:27:349,0.7142,0.1694,10.3083,-0.0165,0.0359,9.8065,0.0156,0.0653,-0.063,-1.25,-36.87,-4.87,190.26,-82.32,-171.2
69946,52.4954,-1.432343,162.22,15.28,2,339.69,25 / 25,6808210,2019-09-08 14:00:27:449,-1.9299,-2.2692,9.3312,-0.0355,0.0314,9.8065,-0.1402,-0.0441,0.1541,0.0,-37.25,-4.19,182.21,-82.03,-174.97
69947,52.4954,-1.432343,162.22,15.28,2,339.69,25 / 25,6808310,2019-09-08 14:00:27:549,-0.0098,1.6174,9.724,-0.0178,-0.056,9.8065,0.1836,0.0548,0.0134,-0.25,-37.0,-4.94,181.94,-81.87,-176.05
69948,52.4954,-1.432343,162.22,15.28,2,339.69,25 / 25,6808410,2019-09-08 14:00:27:649,-0.5766,0.8743,9.5011,0.0065,-0.0503,9.8065,0.1367,0.039,0.0677,-0.94,-36.5,-5.25,187.56,-82.29,-176.66
69949,52.4954,-1.432343,162.22,15.28,2,339.69,25 / 25,6808510,2019-09-08 14:00:27:749,-1.1018,-0.4528,9.037,0.0164,-0.0068,9.8066,-0.1327,0.0872,0.0634,-1.12,-37.06,-5.06,188.41,-82.53,-175.04
69950,52.4954,-1.432343,162.22,15.28,2,339.69,25 / 25,6808610,2019-09-08 14:00:27:849,0.1267,-0.9342,9.5093,0.0163,-0.0063,9.8066,-0.1448,0.0419,0.0625,-0.31,-37.31,-5.12,183.52,-82.6,-173.15
69951,52.4954,-1.432343,162.22,15.28,2,339.69,25 / 26,6808710,2019-09-08 14:00:27:949,1.5734,-1.8346,10.4262,0.0225,-0.0072,9.8066,0.4028,0.0273,-0.0453,-0.37,-37.44,-4.37,183.5,-82.42,-172.26
69952,52.4954,-1.432343,162.22,15.28,2,339.69,25 / 26,6808810,2019-09-08 14:00:28:049,0.5454,0.6324,10.691,0.0017,-0.0309,9.8065,0.4935,-0.0571,0.032,-0.5,-37.81,-3.69,183.69,-82.41,-171.71
69953,52.4954,-1.432343,162.22,15.28,2,339.69,25 / 26,6808909,2019-09-08 14:00:28:148,-0.4405,0.0768,9.074,-0.0149,0.0668,9.8064,-0.5423,0.0175,0.0297,-1.12,-37.25,-4.69,189.1,-82.01,-173.12
69954,52.4954,-1.432343,162.22,15.28,2,339.69,25 / 26,6809010,2019-09-08 14:00:28:249,1.0056,-0.6904,9.9639,0.0111,0.0974,9.8061,-0.4048,0.0018,0.0585,-0.31,-37.44,-5.0,183.68,-82.03,-172.59
69955,52.4954,-1.432343,162.22,15.28,2,339.69,25 / 26,6809110,2019-09-08 14:00:28:349,-0.4873,-2.1629,7.6815,-0.0221,-0.1269,9.8058,0.3952,-0.0096,-0.0667,-1.19,-37.75,-5.0,189.05,-82.15,-173.13
69956,52.4954,-1.432343,162.22,15.28,2,339.69,25 / 26,6809210,2019-09-08 14:00:28:449,0.7141,-1.3749,9.6399,-0.0185,-0.0897,9.8062,0.2008,-0.0623,0.0633,-0.94,-37.87,-5.19,188.92,-82.67,-173.99
69957,52.4954,-1.432343,162.22,15.28,2,339.69,25 / 26,6809310,2019-09-08 14:00:28:549,0.3666,2.0914,10.4009,0.0005,0.0728,9.8063,-0.1023,0.0025,0.022,-0.56,-37.12,-4.44,189.12,-82.71,-174.59
69958,52.4954,-1.432343,162.22,15.28,2,339.69,25 / 26,6809410,2019-09-08 14:00:28:649,-0.1303,0.9539,9.6796,0.0162,0.052,9.8064,-0.0997,0.0077,-0.0117,-0.31,-36.94,-5.06,182.86,-82.33,-174.33
69959,52.4954,-1.432343,162.22,15.28,2,339.69,25 / 26,6809510,2019-09-08 14:00:28:749,0.1203,0.1768,9.5302,-0.0132,-0.0406,9.8065,0.022,-0.0091,0.056,-0.62,-37.44,-4.94,188.78,-82.67,-174.49
69960,52.4954,-1.432343,162.22,15.28,2,339.69,25 / 26,6809610,2019-09-08 14:00:28:849,1.4213,0.1532,10.0379,0.0144,-0.0238,9.8065,0.0216,-0.0369,0.0085,-0.25,-37.56,-4.62,183.17,-82.61,-173.76
69961,52.4954,-1.432343,162.22,15.28,2,339.69,26 / 26,6809710,2019-09-08 14:00:28:949,0.43,0.2991,9.1067,-0.0063,-0.0071,9.8066,0.188,-0.0422,-0.078,-1.0,-37.62,-4.81,188.89,-82.62,-173.98
69962,52.4954,-1.432343,162.22,15.28,2,339.69,26 / 26,6809811,2019-09-08 14:00:29:050,0.674,0.4668,10.4373,0.0005,-0.0378,9.8065,0.2133,-0.0439,-0.0042,-0.69,-37.5,-4.25,189.34,-82.75,-174.18
69963,52.4954,-1.432343,162.22,15.28,2,339.69,26 / 26,6809910,2019-09-08 14:00:29:149,-1.3004,-2.2607,9.3661,0.0129,0.0798,9.8062,-0.4757,0.1121,-0.0483,-0.94,-38.0,-5.5,188.91,-82.5,-173.8
69964,52.4954,-1.432343,162.22,15.28,2,339.69,26 / 26,6810010,2019-09-08 14:00:29:249,-1.4199,-1.6586,9.2472,0.0498,0.0271,9.8064,-0.3634,0.0962,0.1086,-1.06,-38.06,-4.69,190.2,-82.66,-171.48
69965,52.4954,-1.432343,162.22,15.28,2,339.69,26 / 26,6810110,2019-09-08 14:00:29:349,2.2311,-0.4906,10.8407,0.0192,0.0495,9.8065,0.3936,0.1588,-0.1417,-1.62,-37.44,-4.81,198.41,-82.88,-167.91
69966,52.4954,-1.432343,162.22,15.28,2,339.69,26 / 26,6810210,2019-09-08 14:00:29:449,1.8929,2.1305,9.3618,-0.0283,0.0,9.8066,0.636,-0.049,0.1461,-0.87,-37.12,-5.56,191.32,-82.92,-169.76
69967,52.4954,-1.432343,162.22,15.28,2,339.69,26 / 26,6810310,2019-09-08 14:00:29:549,1.6746,-0.9033,9.7026,-0.0214,0.1082,9.8059,-0.8755,-0.0617,0.1045,-0.94,-37.19,-5.12,192.48,-83.13,-168.1
69968,52.4954,-1.432343,162.22,15.28,2,339.69,26 / 26,6810410,2019-09-08 14:00:29:649,-0.1124,-3.3214,7.7017,-0.0107,0.1214,9.8058,-0.8016,0.0006,0.0387,-1.19,-37.0,-5.62,190.26,-82.48,-171.14
69969,52.4954,-1.432343,162.22,15.28,2,339.69,26 / 26,6810510,2019-09-08 14:00:29:749,0.4146,0.4184,10.5478,0.0078,-0.1304,9.8057,0.4081,0.0099,0.0352,-1.5,-37.19,-5.31,191.78,-82.98,-169.18
69970,52.4954,-1.432343,162.22,15.28,2,339.69,26 / 26,6810610,2019-09-08 14:00:29:849,0.0732,0.5158,10.4093,-0.0004,0.0065,9.8066,0.2845,0.0415,-0.0196,-1.69,-37.56,-4.75,197.31,-82.65,-169.03
69971,52.4954,-1.432343,162.22,15.28,2,339.69,25 / 25,6810710,2019-09-08 14:00:29:949,0.2712,0.7531,10.3325,0.0173,-0.0338,9.8065,-0.0306,0.0011,0.0431,-1.37,-37.06,-4.25,192.44,-82.65,-167.36
69972,52.4954,-1.432343,162.22,15.28,2,339.69,25 / 25,6810810,2019-09-08 14:00:30:049,0.5988,-0.7354,10.0847,-0.0029,0.0479,9.8065,-0.0744,0.0135,-0.0007,-1.56,-37.12,-5.06,198.56,-82.46,-166.69
69973,52.4954,-1.432343,162.22,15.28,2,339.69,25 / 25,6810910,2019-09-08 14:00:30:149,0.3562,-0.9387,9.6309,-0.0238,0.0395,9.8065,0.111,-0.0029,-0.022,-1.37,-37.06,-5.0,191.83,-82.44,-168.29
69974,52.4954,-1.432343,162.22,15.28,2,339.69,25 / 25,6811010,2019-09-08 14:00:30:249,1.3023,-0.2132,10.7789,-0.0059,0.0296,9.8066,0.2837,-0.0392,-0.0109,-0.81,-36.94,-4.69,191.12,-82.55,-169.83
69975,52.4954,-1.432343,162.22,15.28,2,339.69,25 / 25,6811110,2019-09-08 14:00:30:349,0.9992,0.7713,10.2717,-0.0211,0.0103,9.8066,-0.256,0.0496,-0.0336,-0.69,-36.69,-4.62,189.97,-82.58,-172.09
69976,52.4954,-1.432343,162.22,15.28,2,339.69,25 / 25,6811210,2019-09-08 14:00:30:449,-0.2558,-1.104,8.5986,-0.0204,-0.0155,9.8066,-0.3148,0.0256,-0.0315,-0.12,-36.25,-5.31,183.43,-82.51,-173.37
69977,52.4954,-1.432343,162.22,15.28,2,339.69,25 / 25,6811310,2019-09-08 14:00:30:549,3.2353,-3.9776,7.0035,-0.0133,0.056,9.8064,0.439,0.1612,-0.2194,0.0,-36.25,-4.75,182.51,-82.23,-175.07
69978,52.4954,-1.432343,162.22,15.28,2,339.69,25 / 25,6811410,2019-09-08 14:00:30:649,0.0936,5.5463,13.702,-0.0101,-0.1481,9.8055,0.4317,-0.0163,0.0114,0.19,-35.87,-5.06,181.61,-82.73,-176.93
69979,52.4954,-1.432343,162.22,15.28,2,339.69,25 / 25,6811510,2019-09-08 14:00:30:749,1.6011,5.2669,13.6051,-0.0137,-0.273,9.8027,0.0394,0.0101,-0.1487,0.19,-36.37,-4.25,180.82,-83.34,-178.32
69980,52.4954,-1.432343,162.22,15.28,2,339.69,25 / 25,6811610,2019-09-08 14:00:30:849,-1.5013,5.3039,10.9316,-0.0306,0.2998,9.802,0.3914,0.0351,-0.0841,0.13,-36.69,-5.12,180.52,-83.47,-179.04
69981,52.4954,-1.432343,162.22,15.28,2,339.69,25 / 25,6811711,2019-09-08 14:00:30:950,1.4751,-6.9416,8.2958,0.0039,0.2973,9.8021,-0.4189,-0.1754,0.2376,-0.12,-36.81,-5.87,180.67,-81.82,-178.74
69982,52.4954,-1.432343,162.22,15.28,2,339.69,25 / 25,6811810,2019-09-08 14:00:31:049,2.4438,-3.1335,10.2626,0.0204,-0.2697,9.8029,-0.3474,-0.1588,0.1193,-1.0,-37.19,-5.62,186.35,-81.72,-177.62
69983,52.4954,-1.432343,162.22,15.28,2,339.69,25 / 25,6811910,2019-09-08 14:00:31:149,2.0422,2.5623,10.6521,0.0524,-0.2496,9.8033,0.3578,0.1079,-0.1421,-0.69,-37.31,-4.5,189.65,-82.87,-173.68
69984,52.4954,-1.432343,162.22,15.28,2,339.69,25 / 25,6812010,2019-09-08 14:00:31:249,1.1442,0.3014,12.4443,0.0245,0.2338,9.8038,0.5019,-0.015,-0.0196,-1.56,-37.12,-4.5,194.39,-81.17,-173.93
69985,52.4954,-1.432343,162.22,15.28,2,339.69,25 / 25,6812110,2019-09-08 14:00:31:349,0.5171,0.1752,9.3527,-0.0329,0.1077,9.806,-0.6004,0.1101,-0.2053,-0.5,-37.0,-4.87,182.31,-81.47,-175.18
69986,52.4954,-1.432343,162.22,15.28,2,339.69,25 / 25,6812210,2019-09-08 14:00:31:449,1.567,-1.5594,9.2738,0.0027,-0.0728,9.8063,-0.4172,-0.0039,0.0561,-0.44,-37.37,-5.25,182.05,-81.69,-175.78
69987,52.4954,-1.432343,162.22,15.28,2,339.69,25 / 25,6812310,2019-09-08 14:00:31:549,-0.5768,-0.8805,8.8146,-0.0189,-0.0037,9.8065,0.0762,0.0824,-0.0222,-0.94,-37.0,-4.69,187.2,-82.23,-177.12
69988,52.4954,-1.432343,162.22,15.28,2,339.69,25 / 25,6812410,2019-09-08 14:00:31:649,0.6877,-0.4669,9.4561,-0.0164,-0.0801,9.8062,-0.0609,0.0108,0.0461,-1.12,-37.0,-4.94,187.38,-82.05,-176.6
69989,52.4954,-1.432343,162.22,15.28,2,339.69,25 / 25,6812510,2019-09-08 14:00:31:749,0.2799,-0.1297,9.8781,-0.0259,-0.1051,9.8059,0.2922,-0.0595,0.0204,-1.75,-37.31,-4.62,193.12,-82.55,-177.13
69990,52.4954,-1.432343,162.22,15.28,2,339.69,25 / 25,6812610,2019-09-08 14:00:31:849,-1.4453,2.7073,9.2213,-0.0116,0.0716,9.8063,0.2772,0.1103,-0.0461,-0.44,-36.87,-4.31,181.25,-81.95,-177.14
69991,52.4954,-1.432343,162.22,15.28,2,339.69,25 / 25,6812710,2019-09-08 14:00:31:949,0.562,-0.7964,9.5268,-0.002,0.1694,9.8051,-0.7298,0.0642,-0.0552,-0.37,-37.56,-5.37,181.53,-81.64,-176.8
69992,52.4954,-1.432343,162.22,15.28,2,339.69,25 / 25,6812810,2019-09-08 14:00:32:049,-0.6548,-0.6445,8.5489,-0.0113,-0.1133,9.8059,-0.6793,0.0241,0.0092,-0.06,-37.06,-4.94,181.04,-81.71,-177.87
69993,52.4954,-1.432343,162.22,15.28,2,339.69,25 / 25,6812910,2019-09-08 14:00:32:149,1.3617,1.2129,10.8254,-0.0209,-0.1206,9.8059,0.7214,0.0324,-0.0964,-0.31,-36.81,-4.31,180.28,-82.22,-179.37
69994,52.4954,-1.432343,162.22,15.28,2,339.69,25 / 25,6813010,2019-09-08 14:00:32:249,1.1875,2.8008,11.2384,-0.0164,0.0869,9.8062,0.6367,-0.0759,0.0355,0.56,-37.37,-4.12,173.45,-81.91,179.26
69995,52.4954,-1.432343,162.22,15.28,2,339.69,25 / 25,6813110,2019-09-08 14:00:32:349,-0.6987,1.0712,9.7587,0.0046,0.0446,9.8065,-0.3206,-0.0168,0.0511,0.31,-36.5,-4.31,179.2,-81.53,178.15
69996,52.4954,-1.432343,162.22,15.28,2,339.69,25 / 25,6813209,2019-09-08 14:00:32:448,0.2248,-2.3091,9.4357,-0.0109,-0.0777,9.8063,-0.3306,0.0981,-0.0651,0.13,-36.62,-4.94,178.64,-81.95,177.25
69997,52.4954,-1.432343,162.22,15.28,2,339.69,25 / 25,6813310,2019-09-08 14:00:32:549,-1.9276,1.2102,7.6841,-0.0038,-0.0672,9.8064,0.0281,0.0636,0.0151,-0.12,-36.75,-4.5,178.99,-81.91,177.7
69998,52.4954,-1.432343,162.22,15.28,2,339.69,25 / 25,6813410,2019-09-08 14:00:32:649,0.9366,-0.4198,8.9098,0.0142,-0.0843,9.8062,-0.1628,-0.0368,0.1084,-0.12,-36.69,-4.81,179.94,-81.63,179.88
69999,52.4954,-1.432343,162.22,15.28,2,339.69,25 / 25,6813510,2019-09-08 14:00:32:749,3.3268,1.9699,12.3095,0.0144,-0.1263,9.8058,0.5186,-0.058,0.151,0.5,-36.56,-4.5,174.16,-82.5,-178.59
70000,52.4954,-1.432343,162.22,15.28,2,339.69,25 / 25,6813610,2019-09-08 14:00:32:849,-0.6628,2.0767,12.3014,0.0095,0.1178,9.8059,0.5987,0.1131,-0.0172,0.31,-36.81,-4.87,181.38,-82.51,-177.31
70001,52.496475,-1.433358,161.04,15.68,2,328.07,23 / 24,6813711,2019-09-08 14:00:32:950,0.0599,-1.5075,11.2785,-0.0595,-0.0363,9.8064,0.4537,-0.1322,0.1106,0.56,-36.56,-4.94,175.39,-82.0,-177.9
70002,52.496475,-1.433358,161.04,15.68,2,328.07,23 / 24,6813810,2019-09-08 14:00:33:049,0.9025,1.461,10.3212,-0.0128,-0.0025,9.8066,0.4942,-0.0326,-0.1125,-0.44,-37.44,-4.81,180.79,-81.32,-178.33
70003,52.496475,-1.433358,161.04,15.68,2,328.07,23 / 24,6813909,2019-09-08 14:00:33:148,-2.0777,0.5403,8.9772,-0.0415,0.1089,9.8059,-0.7371,-0.149,0.1516,0.31,-37.19,-4.56,180.5,-81.68,-178.97
70004,52.496475,-1.433358,161.04,15.68,2,328.07,23 / 24,6814010,2019-09-08 14:00:33:249,0.3059,-3.0387,8.7759,-0.0168,0.0788,9.8063,-0.6428,-0.0156,0.0289,-0.37,-37.81,-4.81,180.04,-81.25,-179.91
70005,52.496475,-1.433358,161.04,15.68,2,328.07,23 / 24,6814110,2019-09-08 14:00:33:349,0.2289,0.122,10.2978,0.0191,-0.0787,9.8063,0.3684,0.1447,-0.0427,-0.37,-37.25,-4.06,180.55,-81.78,-178.73
70006,52.496475,-1.433358,161.04,15.68,2,328.07,23 / 24,6814210,2019-09-08 14:00:33:449,1.8509,1.0075,11.1256,0.0179,-0.0752,9.8063,0.3847,-0.0262,0.0892,-0.5,-37.56,-4.44,180.54,-81.69,-178.72
70007,52.496475,-1.433358,161.04,15.68,2,328.07,23 / 24,6814310,2019-09-08 14:00:33:549,0.081,1.6602,10.1798,-0.0038,0.0752,9.8063,-0.277,-0.0443,0.0592,0.0,-37.0,-4.37,180.85,-81.63,-178.0
70008,52.496475,-1.433358,161.04,15.68,2,328.07,23 / 24,6814410,2019-09-08 14:00:33:649,-0.1704,-0.7512,9.5419,0.0014,0.0582,9.8065,-0.1273,0.0117,0.0255,-0.5,-37.31,-4.69,181.13,-81.31,-177.63
70009,52.496475,-1.433358,161.04,15.68,2,328.07,23 / 24,6814510,2019-09-08 14:00:33:749,0.8638,-1.8525,9.6428,0.0067,-0.0402,9.8065,0.0858,-0.0413,-0.008,-1.25,-36.62,-4.69,186.71,-81.41,-177.39
70010,52.496475,-1.433358,161.04,15.68,2,328.07,23 / 24,6814610,2019-09-08 14:00:33:849,0.2402,-0.9409,9.938,0.0132,-0.0306,9.8065,0.0397,0.0169,-0.0274,-0.56,-37.25,-5.12,187.22,-81.45,-176.37
70011,52.496475,-1.433358,161.04,15.68,2,328.07,24 / 24,6814710,2019-09-08 14:00:33:949,0.4145,0.237,9.922,0.002,0.0113,9.8065,0.0175,-0.0136,0.004,-0.94,-37.19,-4.31,187.77,-81.19,-175.64
70012,52.496475,-1.433358,161.04,15.68,2,328.07,24 / 24,6814809,2019-09-08 14:00:34:048,1.0947,-0.7808,10.2812,-0.0059,-0.0181,9.8066,0.0827,-0.0663,0.0422,-0.87,-37.56,-4.5,187.73,-81.23,-175.5
70013,52.496475,-1.433358,161.04,15.68,2,328.07,24 / 24,6814910,2019-09-08 14:00:34:149,0.7108,-2.7569,10.8834,-0.0053,-0.0242,9.8066,0.1968,0.0389,-0.0357,-0.75,-37.37,-4.12,187.91,-81.07,-175.17
70014,52.496475,-1.433358,161.04,15.68,2,328.07,24 / 24,6815010,2019-09-08 14:00:34:249,0.1362,-0.2887,11.2775,0.0184,-0.0439,9.8065,0.2892,0.0218,-0.0282,-1.19,-37.31,-4.56,187.61,-81.13,-175.26
70015,52.496475,-1.433358,161.04,15.68,2,328.07,24 / 24,6815110,2019-09-08 14:00:34:349,-0.0991,-3.7017,7.8224,0.0052,0.0898,9.8062,-0.6736,-0.1074,0.0094,-1.25,-37.62,-4.69,187.78,-81.26,-174.81
70016,52.496475,-1.433358,161.04,15.68,2,328.07,24 / 24,6815210,2019-09-08 14:00:34:449,-1.6945,-4.2595,8.151,0.0178,0.0718,9.8063,-0.7738,0.0717,-0.0041,-1.06,-37.37,-5.25,188.19,-80.75,-173.65
70017,52.496475,-1.433358,161.04,15.68,2,328.07,24 / 24,6815310,2019-09-08 14:00:34:549,0.1393,-2.2779,7.7172,-0.0174,-0.1216,9.8058,0.9044,0.0697,-0.3403,-1.0,-37.5,-3.81,188.71,-81.34,-173.61
70018,52.496475,-1.433358,161.04,15.68,2,328.07,24 / 24,6815410,2019-09-08 14:00:34:649,3.8696,2.277,14.1135,-0.03,-0.2108,9.8043,0.9356,-0.0909,-0.0035,-2.19,-37.44,-3.87,194.75,-81.33,-173.44
70019,52.496475,-1.433358,161.04,15.68,2,328.07,24 / 24,6815510,2019-09-08 14:00:34:749,2.3817,1.685,12.7549,0.0036,0.2417,9.8036,-0.2398,-0.0102,-0.0119,-1.12,-37.56,-4.19,188.15,-81.5,-174.84
70020,52.496475,-1.433358,161.04,15.68,2,328.07,24 / 24,6815610,2019-09-08 14:00:34:849,2.7886,2.0771,10.5745,-0.0228,0.1489,9.8054,-0.026,-0.0162,0.0985,-0.94,-37.37,-5.25,186.22,-80.2,-177.49
70021,52.496475,-1.433358,161.04,15.68,2,328.07,23 / 23,6815710,2019-09-08 14:00:34:949,0.3979,-1.4802,8.3743,-0.0275,-0.0971,9.8061,-0.1633,0.0045,-0.0033,-1.5,-37.19,-4.69,185.84,-80.74,-178.73
70022,52.496475,-1.433358,161.04,15.68,2,328.07,23 / 23,6815810,2019-09-08 14:00:35:049,1.5108,-1.4709,10.0195,-0.0148,-0.0466,9.8065,-0.0441,-0.0741,-0.0105,-0.87,-37.19,-4.0,185.79,-80.67,-179.88
70023,52.496475,-1.433358,161.04,15.68,2,328.07,23 / 23,6815910,2019-09-08 14:00:35:149,0.5037,0.1152,10.6226,-0.0083,0.0513,9.8065,0.2053,-0.0124,-0.0713,0.0,-37.62,-4.12,179.75,-80.53,179.37
70024,52.496475,-1.433358,161.04,15.68,2,328.07,23 / 23,6816010,2019-09-08 14:00:35:249,1.0636,0.8467,9.808,-0.0167,0.0096,9.8066,0.2811,-0.0375,0.0256,0.06,-37.56,-4.44,179.36,-80.31,178.34
70025,52.496475,-1.433358,161.04,15.68,2,328.07,23 / 23,6816110,2019-09-08 14:00:35:349,0.1515,-0.8399,9.2748,-0.0074,0.0063,9.8066,-0.3143,0.0262,-0.0077,-0.37,-37.19,-4.25,179.37,-80.32,178.39
70026,52.496475,-1.433358,161.04,15.68,2,328.07,23 / 23,6816210,2019-09-08 14:00:35:449,-0.2157,-2.7812,8.9695,-0.0031,0.0192,9.8065,-0.3208,0.019,-0.0151,-0.69,-37.19,-4.44,184.75,-80.32,177.83
70027,52.496475,-1.433358,161.04,15.68,2,328.07,23 / 23,6816310,2019-09-08 14:00:35:549,1.3337,0.2191,10.357,-0.0056,-0.0029,9.8065,0.1036,-0.0408,0.005,-0.25,-37.5,-3.56,178.93,-80.48,177.31
70028,52.496475,-1.433358,161.04,15.68,2,328.07,23 / 23,6816410,2019-09-08 14:00:35:649,0.4828,-0.7492,9.7409,0.004,0.0194,9.8066,0.0596,-0.004,-0.0466,0.56,-37.37,-3.81,173.24,-80.41,177.23
70029,52.496475,-1.433358,161.04,15.68,2,328.07,23 / 23,6816510,2019-09-08 14:00:35:749,-0.726,-2.0935,9.6757,0.0012,-0.0568,9.8064,0.2564,-0.1079,0.0571,-0.06,-36.75,-4.06,178.81,-80.32,176.96
70030,52.496475,-1.433358,161.04,15.68,2,328.07,23 / 23,6816610,2019-09-08 14:00:35:849,0.0104,0.8463,10.6711,-0.0305,-0.0586,9.8063,0.2228,-0.1451,0.1885,0.13,-37.25,-4.0,178.69,-80.54,176.71
70031,52.496475,-1.433358,161.04,15.68,2,328.07,23 / 23,6816710,2019-09-08 14:00:35:949,0.9037,1.9319,9.5872,0.0222,0.0978,9.8061,-0.4469,0.1366,-0.1277,-0.25,-36.87,-3.75,178.85,-80.47,177.1
70032,52.496475,-1.433358,161.04,15.68,2,328.07,22 / 23,6816810,2019-09-08 14:00:36:049,-0.1932,-1.3947,9.0146,0.0045,0.0912,9.8061,-0.3422,-0.0201,-0.0299,-0.44,-37.19,-4.5,179.11,-79.98,177.7
70033,52.496475,-1.433358,161.04,15.68,2,328.07,22 / 23,6816909,2019-09-08 14:00:36:148,1.1805,0.5069,9.6485,-0.0256,-0.0784,9.8062,0.026,-0.0613,-0.0401,0.06,-36.75,-4.56,178.87,-80.56,177.5
70034,52.496475,-1.433358,161.04,15.68,2,328.07,22 / 23,6817010,2019-09-08 14:00:36:249,0.3176,-1.5103,10.758,-0.0031,-0.083,9.8062,-0.0146,0.0014,0.152,-0.06,-37.31,-4.12,178.78,-80.66,176.96
70035,52.496475,-1.433358,161.04,15.68,2,328.07,22 / 23,6817110,2019-09-08 14:00:36:349,1.6645,-0.3263,11.3197,0.0199,0.0873,9.8062,0.1984,-0.0042,-0.0095,0.5,-37.0,-3.31,172.69,-80.74,177.34
70036,52.496475,-1.433358,161.04,15.68,2,328.07,22 / 23,6817210,2019-09-08 14:00:36:449,-0.4593,-1.5112,9.0102,-0.0024,0.0853,9.8062,0.1391,0.0209,-0.0192,1.44,-36.25,-4.12,173.93,-80.16,178.98
70037,52.496475,-1.433358,161.04,15.68,2,328.07,22 / 23,6817310,2019-09-08 14:00:36:549,1.0522,-1.1028,11.0532,0.0242,-0.0088,9.8065,0.0318,-0.0627,0.1694,0.56,-36.12,-4.87,174.35,-80.28,179.01
70038,52.496475,-1.433358,161.04,15.68,2,328.07,22 / 23,6817410,2019-09-08 14:00:36:649,1.7826,-1.8478,9.8098,-0.0119,-0.0429,9.8065,0.1147,-0.103,0.1496,-0.19,-36.0,-5.37,180.05,-80.36,-179.9
70039,52.496475,-1.433358,161.04,15.68,2,328.07,22 / 23,6817510,2019-09-08 14:00:36:749,0.6316,0.3802,8.8987,-0.0013,0.0762,9.8063,-0.1322,0.0101,0.0613,-0.75,-36.56,-5.06,185.19,-79.72,-179.46
70040,52.496475,-1.433358,161.04,15.68,2,328.07,22 / 23,6817610,2019-09-08 14:00:36:849,0.7863,-0.9871,9.434,0.0068,0.1087,9.806,-0.1845,-0.0084,-0.0424,-1.31,-37.69,-5.19,185.19,-79.66,-179.24
70041,52.496475,-1.433358,161.04,15.68,2,328.07,23 / 24,6817710,2019-09-08 14:00:36:949,0.9655,-1.3547,9.3059,0.0009,-0.0399,9.8065,0.0317,-0.0827,-0.0306,-1.19,-37.31,-4.69,185.17,-79.9,-179.63
70042,52.496475,-1.433358,161.04,15.68,2,328.07,23 / 24,6817810,2019-09-08 14:00:37:049,-0.1983,-0.7849,8.8188,-0.0028,-0.0163,9.8066,-0.1871,0.0233,-0.0833,-1.31,-37.06,-4.31,185.73,-80.05,-179.49
70043,52.496475,-1.433358,161.04,15.68,2,328.07,23 / 24,6817909,2019-09-08 14:00:37:148,1.3954,0.3242,10.0387,0.0138,-0.0326,9.8066,0.1749,-0.0304,0.0414,-1.25,-37.25,-4.31,185.55,-80.06,-179.96
70044,52.496475,-1.433358,161.04,15.68,2,328.07,23 / 24,6818010,2019-09-08 14:00:37:249,0.3818,0.2212,10.1936,0.0186,-0.0002,9.8066,0.0792,0.0466,-0.0364,-0.87,-36.81,-4.31,186.19,-80.23,-178.48
70045,52.496475,-1.433358,161.04,15.68,2,328.07,23 / 24,6818110,2019-09-08 14:00:37:349,2.1588,-0.6699,10.2859,0.0092,-0.0103,9.8066,0.1324,-0.103,0.1158,-1.5,-37.44,-4.37,186.27,-80.26,-178.3
70046,52.496475,-1.433358,161.04,15.68,2,328.07,23 / 24,6818210,2019-09-08 14:00:37:449,1.0212,0.4159,9.9022,-0.0126,-0.0248,9.8066,0.1227,-0.0464,0.042,-1.69,-36.69,-4.44,191.84,-80.23,-178.14
70047,52.496475,-1.433358,161.04,15.68,2,328.07,23 / 24,6818310,2019-09-08 14:00:37:549,1.0348,-1.7193,9.8062,-0.0002,-0.0142,9.8066,0.0201,0.0149,-0.0526,-1.5,-37.69,-5.0,185.76,-80.13,-178.27
70048,52.496475,-1.433358,161.04,15.68,2,328.07,23 / 24,6818410,2019-09-08 14:00:37:649,-0.2739,-0.542,9.3126,0.0035,0.0042,9.8066,-0.0208,-0.029,-0.0099,-1.31,-38.12,-5.31,185.84,-80.19,-178.12
70049,52.496475,-1.433358,161.04,15.68,2,328.07,23 / 24,6818510,2019-09-08 14:00:37:749,1.27,-1.2499,9.5889,-0.0003,-0.0148,9.8066,-0.0602,-0.0227,-0.0845,-1.44,-37.62,-5.69,185.37,-80.31,-178.53
70050,52.496475,-1.433358,161.04,15.68,2,328.07,23 / 24,6818610,2019-09-08 14:00:37:849,1.0619,-2.4161,9.52,-0.0204,-0.0445,9.8065,-0.0255,-0.1083,0.009,-1.31,-37.44,-5.12,185.41,-80.56,-179.53
70051,52.496475,-1.433358,161.04,15.68,2,328.07,22 / 23,6818710,2019-09-08 14:00:37:949,2.1409,0.5533,10.567,-0.0062,0.1017,9.806,-0.1177,-0.0813,0.0574,-1.62,-38.06,-4.44,190.53,-80.14,179.25
70052,52.496475,-1.433358,161.04,15.68,2,328.07,22 / 23,6818810,2019-09-08 14:00:38:049,-0.3812,-1.5769,8.8885,0.017,0.0965,9.8061,-0.1477,0.0077,-0.0298,-1.81,-37.31,-5.31,189.66,-80.18,179.08
70053,52.496475,-1.433358,161.04,15.68,2,328.07,22 / 23,6818910,2019-09-08 14:00:38:149,0.2987,-1.7995,8.849,-0.0133,-0.0924,9.8062,-0.0018,-0.0413,0.0315,-1.56,-37.62,-5.37,189.49,-80.26,178.91
70054,52.496475,-1.433358,161.04,15.68,2,328.07,22 / 23,6819010,2019-09-08 14:00:38:249,0.8239,-1.2568,10.5532,-0.0054,-0.0593,9.8064,-0.0599,-0.0755,0.0576,-1.94,-37.62,-5.25,190.01,-80.82,179.36
70055,52.496475,-1.433358,161.04,15.68,2,328.07,22 / 23,6819110,2019-09-08 14:00:38:349,0.6554,-0.7752,10.18,-0.0155,0.0077,9.8066,0.2262,-0.0637,0.0135,-1.19,-37.12,-5.31,185.07,-80.62,179.69
70056,52.496475,-1.433358,161.04,15.68,2,328.07,22 / 23,6819210,2019-09-08 14:00:38:449,1.7903,0.56,10.8165,0.0066,-0.001,9.8066,0.2729,-0.1094,0.0422,-1.5,-37.06,-4.87,184.83,-80.5,179.24
70057,52.496475,-1.433358,161.04,15.68,2,328.07,22 / 23,6819310,2019-09-08 14:00:38:549,0.3172,-1.5519,9.2619,0.0039,0.0233,9.8066,-0.1365,-0.0519,-0.0028,-1.06,-36.94,-5.19,184.74,-80.32,179.15
70058,52.496475,-1.433358,161.04,15.68,2,328.07,22 / 23,6819410,2019-09-08 14:00:38:649,1.8251,-0.4847,9.7048,0.0054,0.0165,9.8066,-0.0562,-0.106,0.0636,-1.25,-37.0,-5.56,184.42,-80.42,179.36
70059,52.496475,-1.433358,161.04,15.68,2,328.07,22 / 23,6819510,2019-09-08 14:00:38:749,0.6082,-0.7655,9.2797,0.0009,-0.0263,9.8066,-0.0225,-0.0576,0.0341,-1.87,-37.5,-6.0,189.54,-80.5,-179.81
70060,52.496475,-1.433358,161.04,15.68,2,328.07,22 / 23,6819610,2019-09-08 14:00:38:849,0.8446,-1.6723,9.6565,0.0141,-0.0172,9.8066,0.0387,-0.0586,-0.0205,-2.12,-37.75,-5.94,190.23,-80.71,-178.42
70061,52.496475,-1.433358,161.04,15.68,2,328.07,24 / 24,6819710,2019-09-08 14:00:38:949,1.1201,-2.0514,9.0939,-0.005,-0.0391,9.8065,-0.0077,-0.1181,0.0359,-2.56,-37.44,-6.5,195.33,-80.8,-177.93
70062,52.496475,-1.433358,161.04,15.68,2,328.07,24 / 24,6819809,2019-09-08 14:00:39:048,0.3751,-0.6574,8.335,0.0048,-0.0329,9.8066,-0.0179,-0.0072,0.01,-3.0,-37.62,-6.12,195.66,-81.1,-177.39
70063,52.496475,-1.433358,161.04,15.68,2,328.07,24 / 24,6819910,2019-09-08 14:00:39:149,1.4201,-0.5787,10.8818,0.0094,0.0161,9.8065,0.1327,-0.0539,0.079,-3.44,-37.44,-6.5,196.18,-81.09,-176.78
70064,52.496475,-1.433358,161.04,15.68,2,328.07,24 / 24,6820009,2019-09-08 14:00:39:248,1.799,0.2411,9.8464,0.0084,0.0167,9.8065,0.1761,-0.1017,0.0376,-3.81,-37.56,-7.31,199.58,-81.14,-176.29
70065,52.496475,-1.433358,161.04,15.68,2,328.07,24 / 24,6820110,2019-09-08 14:00:39:349,0.4168,0.8789,8.9921,-0.0121,-0.0136,9.8066,-0.4013,-0.0756,0.0287,-3.19,-38.87,-7.62,194.81,-81.08,-175.49
70066,52.496475,-1.433358,161.04,15.68,2,328.07,24 / 24,6820210,2019-09-08 14:00:39:449,1.4291,-2.3564,9.2608,0.0298,0.0418,9.8065,-0.4767,-0.0627,-0.0155,-4.25,-40.25,-7.44,199.94,-81.09,-174.82
70067,52.496475,-1.433358,161.04,15.68,2,328.07,24 / 24,6820310,2019-09-08 14:00:39:549,0.4868,-1.694,8.9384,-0.02,-0.075,9.8062,0.2695,-0.0876,0.081,-4.62,-40.12,-5.62,205.8,-81.17,-174.22
70068,52.496475,-1.433358,161.04,15.68,2,328.07,24 / 24,6820410,2019-09-08 14:00:39:649,0.2396,-0.9181,8.3898,0.005,-0.044,9.8065,-0.008,-0.005,0.0568,-4.06,-39.25,-4.25,205.79,-81.4,-172.74
70069,52.496475,-1.433358,161.04,15.68,2,328.07,24 / 24,6820510,2019-09-08 14:00:39:749,0.5229,-1.1812,9.6016,-0.0236,-0.0622,9.8064,0.092,-0.0692,0.0704,-3.25,-36.81,-3.31,203.38,-81.63,-171.53
70070,52.496475,-1.433358,161.04,15.68,2,328.07,24 / 24,6820610,2019-09-08 14:00:39:849,0.5224,-0.7077,10.8989,-0.0036,-0.061,9.8064,0.1136,-0.0236,0.006,-3.37,-35.19,-4.81,202.0,-81.72,-170.26
70071,52.496475,-1.433358,161.04,15.68,2,328.07,24 / 24,6820710,2019-09-08 14:00:39:949,1.3639,-1.167,10.4865,-0.001,0.0525,9.8065,-0.0485,0.0242,-0.0627,-2.75,-34.94,-5.44,202.13,-81.77,-170.12
70072,52.496475,-1.433358,161.04,15.68,2,328.07,24 / 24,6820809,2019-09-08 14:00:40:048,0.7505,-0.6735,9.4124,-0.0022,0.0187,9.8066,-0.0134,-0.0423,0.0061,-2.37,-34.87,-5.94,194.48,-81.47,-172.24
70073,52.496475,-1.433358,161.04,15.68,2,328.07,24 / 24,6820910,2019-09-08 14:00:40:149,0.5116,-0.6065,9.6236,0.02,-0.0034,9.8066,-0.01,-0.0551,0.1401,-2.19,-34.69,-5.62,194.53,-81.6,-172.35
70074,52.496475,-1.433358,161.04,15.68,2,328.07,24 / 24,6821010,2019-09-08 14:00:40:249,0.067,-0.1574,10.2581,0.022,0.0024,9.8066,0.0059,0.005,0.0271,-2.12,-35.0,-5.5,196.85,-81.78,-169.47
70075,52.496475,-1.433358,161.04,15.68,2,328.07,24 / 24,6821110,2019-09-08 14:00:40:349,0.4261,-1.6993,10.101,0.0111,-0.0135,9.8066,0.0099,-0.0028,-0.0493,-2.12,-34.69,-6.56,197.29,-81.96,-167.27
70076,52.496475,-1.433358,161.04,15.68,2,328.07,24 / 24,6821210,2019-09-08 14:00:40:449,0.767,-0.8864,10.0653,-0.0059,-0.0094,9.8065,0.0936,-0.0163,0.0054,-1.5,-34.31,-6.62,192.02,-81.83,-168.03
70077,52.496475,-1.433358,161.04,15.68,2,328.07,24 / 24,6821310,2019-09-08 14:00:40:549,1.2651,0.0907,10.6338,-0.0144,0.0372,9.8065,-0.0876,0.0343,-0.0905,-1.62,-35.0,-6.81,195.74,-81.57,-169.34
70078,52.496475,-1.433358,161.04,15.68,2,328.07,24 / 24,6821410,2019-09-08 14:00:40:649,1.7273,-1.3703,9.4827,-0.0228,0.0119,9.8066,-0.0779,-0.0524,-0.006,-1.81,-36.06,-6.81,193.66,-81.5,-172.49
70079,52.496475,-1.433358,161.04,15.68,2,328.07,24 / 24,6821510,2019-09-08 14:00:40:749,-1.7961,-2.0556,8.6045,-0.0195,-0.102,9.8061,0.2159,-0.0393,0.0689,-1.81,-36.12,-6.37,193.07,-81.37,-174.37
70080,52.496475,-1.433358,161.04,15.68,2,328.07,24 / 24,6821610,2019-09-08 14:00:40:849,0.9915,-0.8747,9.1117,-0.0289,-0.1118,9.8059,0.1577,-0.0726,0.0624,-2.56,-36.25,-6.75,197.85,-82.07,-173.97
70081,52.496475,-1.433358,161.04,15.68,2,328.07,26 / 26,6821710,2019-09-08 14:00:40:949,-0.8692,-1.0063,9.6148,0.0246,0.0669,9.8063,0.1205,-0.015,0.058,-3.0,-37.19,-6.25,198.27,-81.6,-173.84
70082,52.496475,-1.433358,161.04,15.68,2,328.07,26 / 26,6821810,2019-09-08 14:00:41:049,0.8989,0.93,10.5323,0.0435,0.0486,9.8064,0.2153,0.0134,0.0245,-3.25,-37.19,-6.37,198.7,-81.6,-173.07
70083,52.496475,-1.433358,161.04,15.68,2,328.07,26 / 26,6821910,2019-09-08 14:00:41:149,-1.0024,-1.1959,9.6661,-0.008,-0.0257,9.8065,-0.0666,-0.0089,0.0376,-2.94,-36.94,-6.44,199.07,-81.63,-172.46
70084,52.496475,-1.433358,161.04,15.68,2,328.07,26 / 26,6822010,2019-09-08 14:00:41:249,-0.3243,-0.3156,9.4852,-0.0009,0.0028,9.8066,-0.1429,0.0112,-0.0073,-3.5,-36.44,-6.25,199.52,-81.68,-172.18
70085,52.496475,-1.433358,161.04,15.68,2,328.07,26 / 26,6822110,2019-09-08 14:00:41:349,-0.2561,-1.0709,9.5684,-0.0145,-0.0313,9.8065,0.1294,0.0091,-0.0134,-3.69,-36.94,-7.06,202.82,-81.57,-172.0
70086,52.496475,-1.433358,161.04,15.68,2,328.07,26 / 26,6822212,2019-09-08 14:00:41:451,0.4236,-0.653,9.9771,0.0051,-0.0291,9.8066,0.1335,-0.029,0.0426,-3.62,-36.87,-6.75,203.19,-81.72,-171.66
70087,52.496475,-1.433358,161.04,15.68,2,328.07,26 / 26,6822310,2019-09-08 14:00:41:549,-0.9733,-0.7703,9.2283,0.0141,0.0368,9.8065,-0.2014,0.0696,0.0236,-3.31,-37.06,-6.31,199.46,-81.47,-171.48
70088,52.496475,-1.433358,161.04,15.68,2,328.07,26 / 26,6822410,2019-09-08 14:00:41:649,-0.318,-1.3458,9.9081,0.0197,0.0486,9.8065,-0.1648,0.015,0.0732,-3.75,-36.87,-6.94,203.49,-81.39,-170.58
70089,52.496475,-1.433358,161.04,15.68,2,328.07,26 / 26,6822511,2019-09-08 14:00:41:750,-1.4542,-1.0583,10.1176,-0.0029,-0.015,9.8066,0.184,-0.1094,0.129,-3.56,-36.69,-6.62,204.29,-81.27,-169.01
70090,52.496475,-1.433358,161.04,15.68,2,328.07,26 / 26,6822610,2019-09-08 14:00:41:849,-1.4011,-0.3852,9.9616,0.0054,0.0038,9.8066,0.039,0.0232,-0.019,-3.81,-37.62,-5.5,206.12,-81.01,-168.66
70091,52.496475,-1.433358,161.04,15.68,2,328.07,26 / 26,6822710,2019-09-08 14:00:41:949,1.3252,-0.6124,10.4289,-0.0067,-0.0012,9.8066,0.0737,-0.0539,-0.0438,-4.12,-37.69,-5.62,204.39,-80.9,-169.39
70092,52.497566,-1.434308,160.9,14.14,2,337.59,26 / 26,6822810,2019-09-08 14:00:42:049,-1.0094,0.7572,9.2813,-0.0417,-0.0371,9.8064,-0.1175,-0.0648,0.0715,-3.81,-37.44,-4.75,205.71,-80.77,-169.45
70093,52.497566,-1.434308,160.9,14.14,2,337.59,26 / 26,6822910,2019-09-08 14:00:42:149,-1.5694,-1.2947,9.1115,-0.0141,-0.0024,9.8066,-0.1302,0.073,-0.0703,-3.37,-37.19,-5.12,200.76,-81.27,-170.43
70094,52.497566,-1.434308,160.9,14.14,2,337.59,26 / 26,6823010,2019-09-08 14:00:42:249,-0.3587,-1.1032,9.1648,-0.0081,-0.0437,9.8065,0.1064,-0.0315,0.0264,-3.75,-37.37,-5.44,205.72,-81.22,-170.65
70095,52.497566,-1.434308,160.9,14.14,2,337.59,26 / 26,6823109,2019-09-08 14:00:42:348,0.2048,-1.0522,9.6133,-0.0006,-0.0318,9.8066,0.0494,-0.04,0.0353,-3.62,-37.62,-5.87,204.73,-81.32,-169.75
70096,52.497566,-1.434308,160.9,14.14,2,337.59,26 / 26,6823210,2019-09-08 14:00:42:449,-0.933,-1.6045,10.0326,0.004,0.0238,9.8065,0.1728,-0.0312,0.017,-3.94,-37.5,-5.5,205.67,-80.99,-170.13
70097,52.497566,-1.434308,160.9,14.14,2,337.59,26 / 26,6823310,2019-09-08 14:00:42:549,0.3876,0.0948,10.097,0.0079,0.0032,9.8066,0.122,-0.0313,-0.001,-3.69,-38.0,-5.12,205.37,-81.01,-170.09
