,GPS LATITUDE (degrees), GPS LONGITUDE (degrees), GPS ALTITUDE (m), GPS SPEED (Kmh), GPS ACCURACY (m), GPS ORIENTATION (Â°),GPS SATELLITES IN RANGE, TIME SINCE START (ms), DATE (YYYY-MO-DD HH-MI-SS_SSS), ACCELEROMETER X (m/s²) , ACCELEROMETER Y (m/s²), ACCELEROMETER Z (m/s²), GRAVITY X (m/s²), GRAVITY Y (m/s²), GRAVITY Z (m/s²), GYROSCOPE Yaw (rad/s), GYROSCOPE Pitch (rad/s), GYROSCOPE Roll (rad/s), MAGNETIC FIELD X (Î¼T), MAGNETIC FIELD Y (Î¼T), MAGNETIC FIELD Z (Î¼T), ORIENTATION (Yaw) (Â°), ORIENTATION (Pitch) (Â°), ORIENTATION (Roll ) (Â°)
38820,53.42796,-1.41699,117.65,27.3,4,334.86,24 / 24,3882039,2019-11-08 11:01:59:650,-1.3667,-1.4545,9.5717,-0.0051,0.0206,9.8066,0.0497,0.2847,-0.1813,-4.87,-45.31,31.06,21.69,-80.65,-154.36
38821,53.42796,-1.41699,117.65,27.3,4,334.86,24 / 24,3882139,2019-11-08 11:01:59:750,1.8109,-0.7435,10.076,-0.0404,-0.0053,9.8065,0.0853,0.4192,-0.1981,-4.37,-45.5,31.19,25.21,-80.77,-153.38
38822,53.42796,-1.41699,117.65,27.3,4,334.86,24 / 24,3882239,2019-11-08 11:01:59:850,3.9298,-0.9753,8.9145,-0.0215,0.0283,9.8066,0.0667,0.2751,-0.2641,-4.56,-45.06,31.25,21.84,-80.69,-154.21
38823,53.42796,-1.41699,117.65,27.3,4,334.86,24 / 24,3882338,2019-11-08 11:01:59:949,2.53,-0.1252,9.2983,-0.0508,0.0075,9.8065,0.059,0.1907,-0.0966,-5.06,-45.5,30.44,25.11,-80.85,-151.46
38824,53.42796,-1.41699,117.65,27.3,4,334.86,24 / 24,3882439,2019-11-08 11:02:00:050,0.4659,0.7844,10.3907,0.0253,0.0021,9.8065,-0.0018,0.015,-0.0672,-5.69,-45.0,30.19,21.57,-80.89,-152.29
38825,53.42796,-1.41699,117.65,27.3,4,334.86,23 / 24,3882539,2019-11-08 11:02:00:150,-0.7798,1.8978,11.2975,-0.0048,0.0096,9.8066,0.0689,-0.1224,0.076,-5.81,-45.0,29.25,19.99,-80.93,-153.25
38826,53.42796,-1.41699,117.65,27.3,4,334.86,23 / 24,3882639,2019-11-08 11:02:00:250,0.4314,0.1527,10.1984,-0.0124,-0.0079,9.8066,0.0456,-0.0724,0.0739,-6.37,-45.87,28.88,21.25,-81.03,-152.34
38827,53.42796,-1.41699,117.65,27.3,4,334.86,23 / 24,3882738,2019-11-08 11:02:00:349,2.183,1.6619,10.0452,0.0305,-0.0187,9.8065,-0.1026,0.0004,-0.0542,-6.19,-46.0,28.69,19.54,-80.81,-153.77
38828,53.42796,-1.41699,117.65,27.3,4,334.86,23 / 24,3882838,2019-11-08 11:02:00:449,3.848,-0.9212,9.5207,0.0233,0.0285,9.8065,-0.05,0.165,-0.1022,-6.62,-47.5,27.38,16.61,-80.89,-153.44
38829,53.42796,-1.41699,117.65,27.3,4,334.86,23 / 24,3882938,2019-11-08 11:02:00:549,2.3305,-1.2158,9.8976,0.0217,0.0412,9.8065,-0.0196,0.138,-0.2078,-5.06,-50.06,25.75,23.08,-81.34,-152.69
38830,53.42796,-1.41699,117.65,27.3,4,334.86,23 / 24,3883038,2019-11-08 11:02:00:649,-5.205,1.7089,11.8897,-0.0478,-0.0279,9.8065,-0.2484,0.6892,-0.477,4.25,-50.12,30.75,44.23,-81.5,-152.98
38831,53.42796,-1.41699,117.65,27.3,4,334.86,23 / 24,3883139,2019-11-08 11:02:00:750,5.5317,-0.7698,8.9891,-0.0068,-0.0506,9.8064,-0.1821,0.6866,-0.2821,8.44,-40.0,40.56,42.88,-81.55,-153.99
38832,53.42796,-1.41699,117.65,27.3,4,334.86,23 / 24,3883239,2019-11-08 11:02:00:850,-4.3873,0.3561,11.7674,-0.0326,-0.0282,9.8065,0.0907,0.4613,-0.1874,8.44,-33.69,41.19,40.33,-81.31,-155.62
38833,53.42796,-1.41699,117.65,27.3,4,334.86,23 / 24,3883339,2019-11-08 11:02:00:950,4.7909,-1.9766,10.3694,-0.0182,-0.0026,9.8065,-0.0606,-0.3033,0.1984,8.13,-28.25,35.38,40.65,-81.38,-156.94
38834,53.42796,-1.41699,117.65,27.3,4,334.86,23 / 24,3883439,2019-11-08 11:02:01:050,4.6367,-1.2955,8.1493,0.0496,0.0085,9.8065,0.1061,-0.6747,0.5227,7.88,-24.94,36.06,39.78,-81.56,-156.72
38835,53.42796,-1.41699,117.65,27.3,4,334.86,24 / 24,3883539,2019-11-08 11:02:01:150,-5.9247,3.2232,9.9629,0.0936,0.0101,9.8061,0.0486,-0.8332,0.4852,7.56,-22.87,33.81,41.17,-81.56,-156.05
38836,53.42796,-1.41699,117.65,27.3,4,334.86,24 / 24,3883638,2019-11-08 11:02:01:249,4.4836,-1.8627,9.1236,-0.0223,-0.0138,9.8066,0.0044,-0.6427,0.5204,4.88,-23.06,31.5,37.85,-81.31,-155.15
38837,53.42796,-1.41699,117.65,27.3,4,334.86,24 / 24,3883738,2019-11-08 11:02:01:349,-6.3467,-0.3931,14.8532,-0.0786,-0.0838,9.8059,0.2502,-0.5054,0.1749,1.69,-20.69,27.69,31.86,-81.72,-155.76
38838,53.42796,-1.41699,117.65,27.3,4,334.86,24 / 24,3883838,2019-11-08 11:02:01:449,-1.1916,0.7026,10.7533,-0.0668,-0.093,9.8059,-0.1924,0.7253,-0.4754,-3.75,-40.75,27.75,20.75,-81.05,-155.94
38839,53.42796,-1.41699,117.65,27.3,4,334.86,24 / 24,3883938,2019-11-08 11:02:01:549,6.6687,0.1913,8.8106,0.0536,0.0499,9.8063,-0.1444,0.6769,-0.4393,-3.69,-42.56,31.38,22.49,-81.17,-155.04
38840,53.42796,-1.41699,117.65,27.3,4,334.86,24 / 24,3884038,2019-11-08 11:02:01:649,-4.3349,-0.2802,9.9574,0.032,0.0044,9.8065,-0.0587,0.2264,-0.041,-3.37,-43.19,32.0,23.66,-81.44,-155.81
38841,53.42796,-1.41699,117.65,27.3,4,334.86,24 / 24,3884139,2019-11-08 11:02:01:750,6.6955,-1.2141,8.8024,0.081,0.0127,9.8063,-0.0529,-0.0769,0.1251,-3.69,-43.81,32.0,23.19,-81.1,-154.72
38842,53.42796,-1.41699,117.65,27.3,4,334.86,24 / 24,3884239,2019-11-08 11:02:01:850,3.5816,0.0977,7.9108,0.1068,0.0414,9.8059,0.1309,-0.6227,0.4539,-3.44,-44.12,31.88,26.36,-81.02,-154.02
38843,53.42796,-1.41699,117.65,27.3,4,334.86,24 / 24,3884338,2019-11-08 11:02:01:949,5.3188,0.9082,9.8816,0.034,-0.0183,9.8066,0.0955,-0.8423,0.4942,-3.75,-44.87,31.56,22.72,-81.41,-155.01
38844,53.42796,-1.41699,117.65,27.3,4,334.86,24 / 24,3884438,2019-11-08 11:02:02:049,2.829,0.7079,9.9013,0.0744,0.0013,9.8063,0.1706,-0.4578,0.3749,-3.81,-44.56,31.56,20.28,-81.3,-157.01
38845,53.42796,-1.41699,117.65,27.3,4,334.86,23 / 23,3884538,2019-11-08 11:02:02:149,-2.3551,-1.7618,11.013,0.0422,0.0576,9.8063,0.1387,-0.3447,0.1927,-3.56,-44.69,31.63,21.74,-81.36,-155.82
38846,53.42796,-1.41699,117.65,27.3,4,334.86,23 / 23,3884638,2019-11-08 11:02:02:249,3.1732,0.2827,11.7101,-0.0154,-0.005,9.8066,0.1284,0.132,-0.0879,-3.87,-45.0,32.31,23.22,-81.25,-154.71
38847,53.42796,-1.41699,117.65,27.3,4,334.86,23 / 23,3884738,2019-11-08 11:02:02:349,-1.5503,-0.0529,9.9481,-0.0202,-0.0105,9.8066,-0.0096,0.3579,-0.3094,-3.81,-44.69,31.94,20.79,-81.02,-156.75
38848,53.42796,-1.41699,117.65,27.3,4,334.86,23 / 23,3884838,2019-11-08 11:02:02:449,-2.673,-1.0068,10.0277,-0.0649,-0.0141,9.8063,-0.0838,0.6377,-0.3684,-3.87,-45.19,32.44,19.21,-81.2,-157.91
38849,53.42796,-1.41699,117.65,27.3,4,334.86,23 / 23,3884938,2019-11-08 11:02:02:549,-1.6485,1.3391,8.7733,0.0258,0.0141,9.8065,-0.0094,0.499,-0.2767,-4.25,-45.37,32.0,21.55,-81.05,-156.15
38850,53.42796,-1.41699,117.65,27.3,4,334.86,23 / 23,3885039,2019-11-08 11:02:02:650,-0.5957,-0.3682,10.6184,-0.0425,0.0,9.8065,0.0596,0.2538,-0.252,-4.56,-45.25,32.44,19.08,-80.92,-156.38
38851,53.42796,-1.41699,117.65,27.3,4,334.86,23 / 23,3885138,2019-11-08 11:02:02:749,4.2723,-0.0613,8.9804,0.0355,0.0382,9.8064,0.0215,0.1778,-0.1062,-4.06,-44.94,32.19,19.87,-80.97,-157.51
38852,53.42796,-1.41699,117.65,27.3,4,334.86,23 / 23,3885238,2019-11-08 11:02:02:849,-1.0221,0.9835,10.0597,0.0137,0.0068,9.8066,-0.0478,-0.1697,0.0723,-3.5,-45.06,32.0,21.17,-81.21,-158.14
38853,53.42796,-1.41699,117.65,27.3,4,334.86,23 / 23,3885338,2019-11-08 11:02:02:949,1.43,0.3093,9.4718,0.0027,0.0088,9.8065,0.0495,-0.2088,0.0943,-3.87,-44.87,32.19,17.7,-81.38,-159.01
38854,53.42796,-1.41699,117.65,27.3,4,334.86,23 / 23,3885438,2019-11-08 11:02:03:049,4.4012,-1.2355,10.1537,0.0345,0.0163,9.8066,0.0042,-0.0662,0.0809,-3.25,-45.31,33.13,19.07,-81.56,-159.66
38855,53.42796,-1.41699,117.65,27.3,4,334.86,23 / 23,3885538,2019-11-08 11:02:03:149,-0.591,0.2122,9.0695,0.0465,-0.0097,9.8064,-0.0691,-0.0203,-0.0312,-3.37,-45.0,32.25,19.01,-81.58,-159.66
38856,53.42796,-1.41699,117.65,27.3,4,334.86,23 / 23,3885638,2019-11-08 11:02:03:249,1.28,0.3956,9.8921,0.0264,0.0007,9.8065,-0.0041,0.2265,-0.053,-3.75,-45.06,32.06,17.51,-81.44,-159.13
38857,53.42796,-1.41699,117.65,27.3,4,334.86,23 / 23,3885738,2019-11-08 11:02:03:349,-1.7721,1.2237,9.7608,-0.0396,0.0024,9.8066,-0.0483,0.3119,-0.129,-4.06,-45.75,32.81,18.04,-81.35,-158.94
38858,53.42796,-1.41699,117.65,27.3,4,334.86,23 / 23,3885838,2019-11-08 11:02:03:449,1.5607,-0.6547,9.4843,0.0057,-0.0027,9.8066,0.0194,0.0914,-0.0795,-3.62,-44.94,33.0,18.31,-81.5,-158.58
38859,53.42796,-1.41699,117.65,27.3,4,334.86,23 / 23,3885938,2019-11-08 11:02:03:549,1.8992,0.8824,8.9217,0.0274,-0.0126,9.8065,-0.0028,-0.0024,0.1394,-3.06,-45.06,33.0,21.16,-81.47,-158.04
38860,53.42796,-1.41699,117.65,27.3,4,334.86,23 / 23,3886039,2019-11-08 11:02:03:650,-1.1157,-0.1842,10.0557,-0.0062,0.0263,9.8066,0.0574,-0.2147,0.184,-3.75,-44.81,32.94,19.05,-81.34,-158.06
38861,53.42796,-1.41699,117.65,27.3,4,334.86,23 / 23,3886139,2019-11-08 11:02:03:750,1.5116,0.8397,8.925,0.0164,0.0075,9.8065,0.0784,-0.1334,0.1189,-3.19,-45.0,32.69,22.51,-81.38,-157.0
38862,53.42796,-1.41699,117.65,27.3,4,334.86,23 / 23,3886239,2019-11-08 11:02:03:850,2.0061,-1.0291,10.6447,0.001,0.0015,9.8066,0.1077,-0.0647,0.153,-4.44,-44.69,33.19,20.36,-81.39,-156.99
38863,53.42796,-1.41699,117.65,27.3,4,334.86,23 / 23,3886339,2019-11-08 11:02:03:950,2.7656,0.1412,9.9342,-0.0331,-0.035,9.8065,0.0479,-0.2456,0.12,-3.44,-45.81,33.63,22.27,-81.18,-157.43
38864,53.42796,-1.41699,117.65,27.3,4,334.86,23 / 23,3886439,2019-11-08 11:02:04:050,-1.8648,-0.703,10.1113,0.0098,0.0031,9.8066,0.0281,-0.2599,0.1879,-3.62,-44.69,33.13,18.41,-81.24,-158.62
38865,53.42796,-1.41699,117.65,27.3,4,334.86,22 / 23,3886540,2019-11-08 11:02:04:151,2.1804,0.7808,8.2479,0.032,0.0293,9.8065,-0.004,-0.0512,0.0824,-3.81,-45.25,33.19,18.62,-81.43,-158.36
38866,53.42796,-1.41699,117.65,27.3,4,334.86,22 / 23,3886639,2019-11-08 11:02:04:250,1.8294,0.0449,10.6771,0.0038,0.0267,9.8066,0.0656,0.121,-0.0675,-3.81,-44.5,33.06,17.51,-81.58,-159.11
38867,53.42796,-1.41699,117.65,27.3,4,334.86,22 / 23,3886738,2019-11-08 11:02:04:349,-2.0298,0.1491,9.5335,-0.0418,0.0126,9.8065,0.0318,0.3279,-0.3056,-3.19,-45.37,32.56,18.27,-81.71,-160.24
38868,53.42796,-1.41699,117.65,27.3,4,334.86,22 / 23,3886838,2019-11-08 11:02:04:449,1.3384,0.8902,8.5993,0.0205,-0.0328,9.8065,-0.038,0.4165,-0.2329,-3.87,-44.75,32.94,15.7,-81.69,-160.59
38869,53.42796,-1.41699,117.65,27.3,4,334.86,22 / 23,3886938,2019-11-08 11:02:04:549,-1.3111,-0.1588,10.9062,-0.0332,-0.0222,9.8066,-0.0032,0.2508,-0.1438,-3.69,-45.19,33.25,14.0,-81.82,-161.9
38870,53.42796,-1.41699,117.65,27.3,4,334.86,22 / 23,3887038,2019-11-08 11:02:04:649,0.6039,0.5625,10.2215,-0.0204,-0.0078,9.8066,-0.0202,0.0375,-0.0034,-3.5,-45.06,33.31,16.64,-81.65,-161.57
38871,53.42796,-1.41699,117.65,27.3,4,334.86,22 / 23,3887138,2019-11-08 11:02:04:749,2.0952,0.4949,8.9922,0.0121,0.0118,9.8066,-0.0044,-0.0143,0.1401,-3.37,-44.81,33.19,16.48,-81.68,-161.69
38872,53.42796,-1.41699,117.65,27.3,4,334.86,22 / 23,3887238,2019-11-08 11:02:04:849,-1.3026,0.9048,8.5045,0.0037,0.0167,9.8066,-0.0459,-0.0673,0.0028,-3.81,-44.87,33.06,14.88,-81.75,-161.22
38873,53.42796,-1.41699,117.65,27.3,4,334.86,22 / 23,3887339,2019-11-08 11:02:04:950,1.4208,0.1683,9.772,0.0454,0.0168,9.8064,-0.0471,0.087,-0.0119,-3.69,-45.06,33.44,16.63,-81.94,-159.73
38874,53.42796,-1.41699,117.65,27.3,4,334.86,22 / 23,3887439,2019-11-08 11:02:05:050,0.5962,-0.3576,10.8434,0.0237,0.0171,9.8065,-0.0545,0.127,-0.0002,-3.06,-45.56,33.94,17.14,-82.06,-161.12
38875,53.429886,-1.419046,116.59,28.82,4,318.04,22 / 23,3887538,2019-11-08 11:02:05:149,1.0356,0.0145,10.048,0.0034,-0.0026,9.8066,-0.0495,-0.0285,-0.02,-2.56,-45.19,34.06,16.62,-81.98,-161.51
38876,53.429886,-1.419046,116.59,28.82,4,318.04,22 / 23,3887639,2019-11-08 11:02:05:250,-0.2272,1.5454,11.236,-0.0154,-0.0079,9.8066,-0.0043,-0.0462,0.1266,-3.12,-45.25,34.38,17.24,-81.77,-161.09
38877,53.429886,-1.419046,116.59,28.82,4,318.04,22 / 23,3887739,2019-11-08 11:02:05:350,-1.2895,0.3118,10.3171,-0.0193,-0.0082,9.8065,0.0746,-0.1753,0.1827,-3.06,-45.19,34.44,15.59,-81.49,-162.54
38878,53.429886,-1.419046,116.59,28.82,4,318.04,22 / 23,3887839,2019-11-08 11:02:05:450,0.1535,0.5142,9.8018,-0.0297,-0.0074,9.8065,0.0552,-0.2437,0.1107,-3.31,-44.81,34.31,15.67,-81.48,-162.48
38879,53.429886,-1.419046,116.59,28.82,4,318.04,22 / 23,3887939,2019-11-08 11:02:05:550,-0.1215,0.9308,8.9362,-0.0054,0.0094,9.8066,0.0749,0.1543,-0.0088,-3.06,-46.12,34.25,17.0,-81.49,-161.48
38880,53.429886,-1.419046,116.59,28.82,4,318.04,22 / 23,3888039,2019-11-08 11:02:05:650,0.6626,0.8248,9.3155,0.0212,-0.0268,9.8066,0.0298,0.0964,-0.1214,-3.0,-45.69,34.0,14.98,-81.46,-163.1
38881,53.429886,-1.419046,116.59,28.82,4,318.04,22 / 23,3888138,2019-11-08 11:02:05:749,0.3338,-0.7263,10.3706,0.0228,0.005,9.8066,0.0323,0.1202,-0.0796,-2.44,-45.19,35.06,16.94,-81.48,-163.14
38882,53.429886,-1.419046,116.59,28.82,4,318.04,22 / 23,3888238,2019-11-08 11:02:05:849,1.8567,-0.1347,9.2325,0.0182,0.0246,9.8065,-0.0345,0.1971,-0.0907,-2.69,-45.31,34.69,15.14,-81.77,-162.86
38883,53.429886,-1.419046,116.59,28.82,4,318.04,22 / 23,3888338,2019-11-08 11:02:05:949,1.8026,0.4197,10.1005,0.0157,-0.0051,9.8066,-0.0304,0.1204,-0.0627,-2.87,-45.62,34.81,15.46,-81.84,-162.63
38884,53.429886,-1.419046,116.59,28.82,4,318.04,22 / 23,3888439,2019-11-08 11:02:06:050,-1.0654,-0.2097,9.9307,0.0104,-0.0101,9.8066,-0.0275,0.1553,-0.0568,-2.62,-45.19,33.94,14.89,-81.69,-163.02
38885,53.429886,-1.419046,116.59,28.82,4,318.04,22 / 23,3888538,2019-11-08 11:02:06:149,3.4629,1.195,9.866,0.0523,0.0156,9.8064,-0.1245,0.311,-0.1466,-2.81,-45.12,34.69,16.06,-81.41,-162.25
38886,53.429886,-1.419046,116.59,28.82,4,318.04,22 / 23,3888638,2019-11-08 11:02:06:249,-1.8155,-1.0711,9.9967,0.0174,0.0279,9.8065,-0.0568,0.3006,-0.2029,-2.25,-45.62,34.63,17.42,-81.6,-162.78
38887,53.429886,-1.419046,116.59,28.82,4,318.04,22 / 23,3888739,2019-11-08 11:02:06:350,2.7664,0.9922,9.3661,0.0343,0.0084,9.8065,0.0059,0.3065,-0.2186,-2.37,-46.19,34.94,18.47,-81.68,-161.89
38888,53.429886,-1.419046,116.59,28.82,4,318.04,22 / 23,3888839,2019-11-08 11:02:06:450,2.1639,0.4065,9.7664,0.03,-0.0011,9.8066,-0.0813,0.2756,-0.1414,-1.69,-44.94,35.31,16.25,-81.68,-163.62
38889,53.429886,-1.419046,116.59,28.82,4,318.04,22 / 23,3888939,2019-11-08 11:02:06:550,2.1098,0.6595,9.4876,-0.0253,-0.0012,9.8065,-0.0975,0.0813,0.0485,-2.19,-45.37,34.63,15.49,-81.61,-164.27
38890,53.429886,-1.419046,116.59,28.82,4,318.04,22 / 23,3889039,2019-11-08 11:02:06:650,3.4689,1.7884,9.5647,0.0257,0.0216,9.8065,-0.042,-0.014,0.0469,-1.87,-45.5,34.94,16.51,-81.52,-163.47
38891,53.429886,-1.419046,116.59,28.82,4,318.04,22 / 23,3889139,2019-11-08 11:02:06:750,-4.5043,-0.6593,9.7092,-0.0637,-0.0249,9.8063,0.1465,-0.3133,0.25,-1.62,-45.62,34.94,13.83,-81.91,-165.56
38892,53.429886,-1.419046,116.59,28.82,4,318.04,22 / 23,3889238,2019-11-08 11:02:06:849,1.7744,1.6658,8.9542,0.0147,-0.0372,9.8065,0.2079,-0.3305,0.1388,-1.06,-45.81,34.81,16.57,-81.76,-165.03
38893,53.429886,-1.419046,116.59,28.82,4,318.04,22 / 23,3889338,2019-11-08 11:02:06:949,-0.2928,-2.5855,11.2177,-0.0074,-0.0535,9.8064,0.1264,-0.2064,0.0586,-1.19,-45.37,35.06,16.02,-81.72,-165.43
38894,53.429886,-1.419046,116.59,28.82,4,318.04,22 / 23,3889439,2019-11-08 11:02:07:050,-1.496,0.1826,9.731,-0.0282,0.0102,9.8065,-0.021,0.0737,-0.0701,-1.62,-45.69,35.63,14.44,-81.34,-165.28
38895,53.429886,-1.419046,116.59,28.82,4,318.04,23 / 23,3889539,2019-11-08 11:02:07:150,-0.8579,-2.5405,9.2415,-0.0334,0.0083,9.8065,-0.0687,0.1534,-0.0783,-1.0,-45.87,35.31,16.62,-81.35,-165.17
38896,53.429886,-1.419046,116.59,28.82,4,318.04,23 / 23,3889639,2019-11-08 11:02:07:250,-2.0501,1.3607,9.608,-0.0267,0.0316,9.8065,-0.0622,0.2887,-0.1902,-1.19,-45.69,34.94,16.57,-81.74,-165.05
38897,53.429886,-1.419046,116.59,28.82,4,318.04,23 / 23,3889738,2019-11-08 11:02:07:349,3.1572,0.3829,9.6313,0.028,0.0136,9.8066,-0.0843,0.2131,-0.1859,-1.06,-45.62,34.88,18.39,-81.9,-163.5
38898,53.429886,-1.419046,116.59,28.82,4,318.04,23 / 23,3889839,2019-11-08 11:02:07:450,0.7291,-0.1101,10.6478,-0.0226,-0.0039,9.8065,-0.1237,0.2272,-0.0261,-0.87,-45.5,34.5,17.3,-81.73,-164.38
38899,53.429886,-1.419046,116.59,28.82,4,318.04,23 / 23,3889939,2019-11-08 11:02:07:550,1.5805,0.4991,8.9285,-0.0025,0.0319,9.8066,-0.1643,0.1722,0.0322,-1.69,-45.75,34.69,14.64,-81.49,-165.06
38900,53.429886,-1.419046,116.59,28.82,4,318.04,23 / 23,3890038,2019-11-08 11:02:07:649,3.755,-1.0761,9.2909,0.0439,-0.007,9.8065,0.0642,-0.2361,0.223,-1.56,-45.19,34.81,13.73,-81.66,-165.68
38901,53.429886,-1.419046,116.59,28.82,4,318.04,23 / 23,3890138,2019-11-08 11:02:07:749,3.0219,-2.6039,9.7131,-0.0032,0.0058,9.8066,0.089,-0.1371,0.1287,-1.25,-45.12,34.44,17.98,-82.09,-163.72
38902,53.429886,-1.419046,116.59,28.82,4,318.04,23 / 23,3890238,2019-11-08 11:02:07:849,0.9889,1.1217,8.6935,0.0302,0.0238,9.8065,0.1726,-0.1594,0.0526,-1.69,-45.56,34.56,18.78,-82.3,-161.36
38903,53.429886,-1.419046,116.59,28.82,4,318.04,23 / 23,3890338,2019-11-08 11:02:07:949,0.0774,-0.1771,11.2852,0.0167,0.0249,9.8066,0.1573,-0.0634,-0.0173,-0.75,-45.25,34.88,19.52,-82.51,-162.21
38904,53.429886,-1.419046,116.59,28.82,4,318.04,23 / 23,3890438,2019-11-08 11:02:08:049,1.3455,0.754,11.3005,0.0018,0.004,9.8066,0.0463,-0.0849,0.017,-1.19,-45.56,35.25,17.42,-82.18,-164.16
38905,53.429886,-1.419046,116.59,28.82,4,318.04,24 / 24,3890539,2019-11-08 11:02:08:150,-1.6299,-1.7779,10.5553,-0.0267,-0.0155,9.8066,-0.0319,0.0251,-0.0503,-0.69,-45.31,35.44,16.25,-81.87,-165.19
38906,53.429886,-1.419046,116.59,28.82,4,318.04,24 / 24,3890639,2019-11-08 11:02:08:250,-2.1183,-0.8585,11.0451,-0.0414,-0.0182,9.8065,-0.1547,0.3934,-0.2102,-1.62,-45.06,34.69,15.34,-81.69,-164.36
38907,53.429886,-1.419046,116.59,28.82,4,318.04,24 / 24,3890739,2019-11-08 11:02:08:350,0.2456,-1.1676,9.6508,0.0306,0.0305,9.8065,-0.1909,0.4048,-0.2264,-0.75,-45.12,35.06,17.22,-81.94,-164.37
38908,53.429886,-1.419046,116.59,28.82,4,318.04,24 / 24,3890838,2019-11-08 11:02:08:449,-1.9108,3.2378,9.1211,0.0021,0.0291,9.8066,0.032,0.1396,-0.0277,-0.5,-45.31,34.81,18.58,-82.32,-164.71
38909,53.429886,-1.419046,116.59,28.82,4,318.04,24 / 24,3890938,2019-11-08 11:02:08:549,1.6429,-0.9071,10.3594,0.0361,-0.0074,9.8065,0.0883,0.0273,0.0245,-1.44,-45.81,34.88,18.81,-82.6,-162.83
38910,53.429886,-1.419046,116.59,28.82,4,318.04,24 / 24,3891038,2019-11-08 11:02:08:649,-4.8733,0.8726,11.3007,0.0502,-0.0222,9.8064,0.0165,-0.2512,0.2383,-1.06,-45.44,34.94,16.65,-82.42,-164.63
38911,53.429886,-1.419046,116.59,28.82,4,318.04,24 / 24,3891138,2019-11-08 11:02:08:749,4.0274,-1.7808,9.7412,0.0524,-0.0195,9.8064,0.1298,-0.4171,0.3151,-1.19,-46.0,35.13,18.33,-82.14,-163.44
38912,53.429886,-1.419046,116.59,28.82,4,318.04,24 / 24,3891240,2019-11-08 11:02:08:851,1.8852,1.8766,8.6114,0.0541,0.0189,9.8064,0.1241,-0.4355,0.2526,-0.44,-46.19,35.19,18.04,-82.03,-165.36
38913,53.429886,-1.419046,116.59,28.82,4,318.04,24 / 24,3891340,2019-11-08 11:02:08:951,-2.6982,1.9157,10.1625,0.007,-0.0048,9.8066,0.0818,-0.3401,0.1418,-0.37,-46.12,34.13,18.83,-81.82,-164.91
38914,53.429886,-1.419046,116.59,28.82,4,318.04,24 / 24,3891440,2019-11-08 11:02:09:051,0.6402,-1.305,9.8435,0.0221,0.0222,9.8066,0.0473,-0.1035,-0.0361,-0.37,-46.37,34.56,17.31,-81.83,-166.04
38915,53.429886,-1.419046,116.59,28.82,4,318.04,23 / 24,3891540,2019-11-08 11:02:09:151,-3.2372,1.9443,9.6313,0.0496,0.016,9.8064,-0.0344,0.0309,-0.0404,-1.12,-47.06,34.0,13.14,-82.18,-167.75
38916,53.429886,-1.419046,116.59,28.82,4,318.04,23 / 24,3891639,2019-11-08 11:02:09:250,2.1707,-2.7669,10.9533,-0.0238,0.0023,9.8066,-0.1126,0.0428,-0.0856,-0.56,-46.87,34.13,16.3,-82.39,-165.1
38917,53.429886,-1.419046,116.59,28.82,4,318.04,23 / 24,3891739,2019-11-08 11:02:09:350,-1.4352,-1.6173,10.8479,-0.0426,-0.0243,9.8065,-0.1,0.1417,-0.0252,-1.06,-47.37,35.69,15.61,-82.54,-165.54
38918,53.429886,-1.419046,116.59,28.82,4,318.04,23 / 24,3891839,2019-11-08 11:02:09:450,0.4226,-1.1059,9.1155,-0.0154,-0.0088,9.8066,0.0244,0.1463,-0.0292,-1.31,-46.5,36.56,17.5,-82.32,-163.96
38919,53.429886,-1.419046,116.59,28.82,4,318.04,23 / 24,3891939,2019-11-08 11:02:09:550,0.3561,1.143,9.004,-0.0062,-0.0152,9.8066,-0.1194,0.1694,-0.0758,-0.37,-45.87,36.88,18.98,-82.14,-164.36
38920,53.429886,-1.419046,116.59,28.82,4,318.04,23 / 24,3892039,2019-11-08 11:02:09:650,1.8618,1.7796,9.9511,-0.0332,0.0001,9.8065,0.0787,0.1776,-0.1798,-1.0,-45.62,36.0,15.65,-81.95,-165.67
38921,53.429886,-1.419046,116.59,28.82,4,318.04,23 / 24,3892138,2019-11-08 11:02:09:749,0.9313,-1.1232,9.148,0.0222,0.0078,9.8066,0.102,0.2617,-0.1403,-1.06,-45.69,36.13,15.48,-81.76,-165.88
38922,53.429886,-1.419046,116.59,28.82,4,318.04,23 / 24,3892239,2019-11-08 11:02:09:850,-1.8513,-0.4225,10.9377,-0.0184,-0.0153,9.8066,-0.0245,-0.0002,0.0144,-0.81,-45.25,35.31,13.65,-81.7,-167.36
38923,53.429886,-1.419046,116.59,28.82,4,318.04,23 / 24,3892339,2019-11-08 11:02:09:950,2.7498,-1.0052,10.3548,0.0104,0.0082,9.8065,-0.0062,-0.2079,0.1269,-0.87,-45.37,35.88,13.87,-81.7,-167.16
38924,53.429886,-1.419046,116.59,28.82,4,318.04,23 / 24,3892438,2019-11-08 11:02:10:049,-0.4892,1.8811,8.5766,0.0262,0.0223,9.8065,-0.0717,-0.1436,0.1084,-1.19,-44.81,35.94,14.35,-81.92,-166.69
38925,53.429886,-1.419046,116.59,28.82,4,318.04,23 / 24,3892544,2019-11-08 11:02:10:155,-0.7688,-1.6011,9.792,0.0089,0.053,9.8064,-0.1876,-0.0445,0.1393,-1.19,-45.31,34.75,17.07,-82.22,-164.37
38926,53.429886,-1.419046,116.59,28.82,4,318.04,23 / 24,3892638,2019-11-08 11:02:10:249,-1.3718,-0.9398,7.7677,-0.022,0.0338,9.8065,-0.082,-0.0368,0.1213,-0.94,-45.62,36.06,17.91,-82.4,-163.62
38927,53.429886,-1.419046,116.59,28.82,4,318.04,23 / 24,3892738,2019-11-08 11:02:10:349,-0.0254,-0.1459,8.954,0.022,-0.0171,9.8065,0.0667,-0.0388,0.0342,-0.94,-45.44,35.38,17.14,-82.61,-164.15
38928,53.429886,-1.419046,116.59,28.82,4,318.04,23 / 24,3892838,2019-11-08 11:02:10:449,0.1299,0.7513,10.8618,0.0065,-0.0129,9.8066,0.0816,-0.0398,-0.0076,-0.75,-45.81,35.5,14.65,-82.73,-166.22
38929,53.429886,-1.419046,116.59,28.82,4,318.04,23 / 24,3892939,2019-11-08 11:02:10:550,1.6629,1.1747,8.9429,0.0332,-0.0078,9.8066,0.0795,-0.0935,0.0311,0.0,-45.0,35.13,16.61,-82.7,-166.19
38930,53.429886,-1.419046,116.59,28.82,4,318.04,23 / 24,3893039,2019-11-08 11:02:10:650,-0.6357,1.1334,9.1966,-0.0111,-0.0199,9.8066,-0.0133,-0.1352,0.0461,-0.31,-45.5,35.38,16.15,-82.57,-166.63
38931,53.429886,-1.419046,116.59,28.82,4,318.04,23 / 24,3893139,2019-11-08 11:02:10:750,1.8216,-0.867,9.6584,-0.0145,-0.0003,9.8066,0.032,-0.2549,0.102,-0.62,-45.5,35.0,15.23,-82.36,-165.84
38932,53.429886,-1.419046,116.59,28.82,4,318.04,23 / 24,3893239,2019-11-08 11:02:10:850,-0.9857,2.1125,8.7865,-0.0307,0.0138,9.8066,-0.07,-0.169,0.1171,0.19,-45.62,34.25,15.89,-82.26,-167.11
38933,53.429886,-1.419046,116.59,28.82,4,318.04,23 / 24,3893339,2019-11-08 11:02:10:950,1.9522,1.3792,8.8439,-0.0391,-0.0094,9.8065,-0.104,0.0454,0.0639,-0.06,-44.94,35.0,16.32,-82.27,-166.61
38934,53.429886,-1.419046,116.59,28.82,4,318.04,23 / 24,3893439,2019-11-08 11:02:11:050,-0.0692,1.6499,9.9204,-0.0023,0.0049,9.8066,-0.0464,0.0333,0.0175,-0.31,-45.0,35.0,13.53,-82.38,-168.87
38935,53.429886,-1.419046,116.59,28.82,4,318.04,24 / 24,3893539,2019-11-08 11:02:11:150,-0.2116,-0.2998,9.2414,0.0144,-0.0161,9.8066,0.1085,0.0295,-0.0821,-0.31,-45.19,35.69,13.62,-82.56,-168.68
38936,53.429886,-1.419046,116.59,28.82,4,318.04,24 / 24,3893639,2019-11-08 11:02:11:250,2.7656,1.0338,7.6142,0.0295,0.005,9.8066,-0.1828,0.2667,-0.1144,0.56,-45.31,35.13,14.94,-82.55,-169.28
38937,53.429886,-1.419046,116.59,28.82,4,318.04,24 / 24,3893738,2019-11-08 11:02:11:349,-6.7152,1.6446,10.5557,0.0379,-0.0454,9.8064,0.0678,0.013,0.1515,0.5,-44.94,35.81,13.19,-82.41,-170.67
38938,53.429886,-1.419046,116.59,28.82,4,318.04,24 / 24,3893838,2019-11-08 11:02:11:449,1.0123,0.145,9.8426,0.0217,-0.0141,9.8066,0.1579,-0.3855,0.1611,-0.06,-44.62,34.81,14.95,-82.17,-167.77
38939,53.429886,-1.419046,116.59,28.82,4,318.04,24 / 24,3893938,2019-11-08 11:02:11:549,4.0611,2.0432,8.2014,0.0401,0.0408,9.8064,0.2277,-0.5332,0.2508,0.0,-45.56,35.0,13.63,-82.15,-168.92
38940,53.429886,-1.419046,116.59,28.82,4,318.04,24 / 24,3894038,2019-11-08 11:02:11:649,-1.9023,0.5288,9.4869,-0.061,0.0125,9.8064,0.0291,-0.4953,0.2428,-0.12,-45.0,35.06,12.53,-82.0,-169.81
38941,53.429886,-1.419046,116.59,28.82,4,318.04,24 / 24,3894138,2019-11-08 11:02:11:749,2.8457,0.233,9.8454,-0.0048,-0.0228,9.8066,-0.0491,-0.1511,0.1849,0.25,-44.87,35.13,12.85,-82.06,-169.53
38942,53.429886,-1.419046,116.59,28.82,4,318.04,24 / 24,3894239,2019-11-08 11:02:11:850,-1.6191,-0.1657,10.0118,-0.0221,-0.0184,9.8065,-0.1001,-0.1117,0.1425,0.06,-45.12,34.88,10.86,-82.0,-171.17
38943,53.429886,-1.419046,116.59,28.82,4,318.04,24 / 24,3894339,2019-11-08 11:02:11:950,0.4986,0.1252,9.5044,-0.0039,-0.0272,9.8065,-0.0217,0.0913,-0.0559,0.31,-45.5,35.13,11.2,-81.94,-170.92
38944,53.429886,-1.419046,116.59,28.82,4,318.04,24 / 24,3894439,2019-11-08 11:02:12:050,2.078,-1.5013,9.8351,0.0354,-0.0131,9.8066,0.1748,0.1545,-0.0257,0.75,-45.56,34.81,14.0,-82.08,-170.27
38945,53.429886,-1.419046,116.59,28.82,4,318.04,23 / 24,3894539,2019-11-08 11:02:12:150,-2.0447,-0.8467,9.6551,-0.0098,0.0362,9.8065,0.0407,-0.0009,-0.1803,-0.06,-44.94,34.75,11.22,-81.89,-170.91
38946,53.429886,-1.419046,116.59,28.82,4,318.04,23 / 24,3894639,2019-11-08 11:02:12:250,0.7029,0.897,8.872,0.0024,0.0181,9.8066,0.0494,-0.0332,-0.0256,0.31,-45.19,35.06,10.61,-81.95,-171.39
38947,53.429886,-1.419046,116.59,28.82,4,318.04,23 / 24,3894739,2019-11-08 11:02:12:350,0.0963,-1.6634,10.1976,0.0265,0.0075,9.8065,0.0097,-0.1834,0.0553,0.0,-45.62,34.38,8.96,-81.91,-172.83
38948,53.429886,-1.419046,116.59,28.82,4,318.04,23 / 24,3894838,2019-11-08 11:02:12:449,-4.3068,2.4832,10.1195,-0.0365,-0.0235,9.8065,-0.0729,-0.1831,0.0196,0.06,-44.81,34.69,6.91,-81.79,-174.42
38949,53.429886,-1.419046,116.59,28.82,4,318.04,23 / 24,3894938,2019-11-08 11:02:12:549,-0.4157,1.0955,8.2226,0.034,-0.0396,9.8064,-0.1956,0.0413,0.0811,0.81,-44.5,34.94,6.95,-81.55,-176.04
38950,53.429886,-1.419046,116.59,28.82,4,318.04,23 / 24,3895038,2019-11-08 11:02:12:649,1.3288,0.3233,10.5968,0.0162,0.0176,9.8066,-0.0783,-0.1171,0.2429,0.88,-44.69,34.56,7.5,-81.83,-175.58
38951,53.429886,-1.419046,116.59,28.82,4,318.04,23 / 24,3895138,2019-11-08 11:02:12:749,0.2647,-0.6196,7.6766,0.0205,0.0208,9.8066,-0.0536,-0.1151,0.0563,0.13,-44.62,34.5,7.56,-81.87,-173.88
38952,53.429886,-1.419046,116.59,28.82,4,318.04,23 / 24,3895239,2019-11-08 11:02:12:850,-1.5893,-0.6835,8.7431,-0.0019,-0.0098,9.8066,0.1535,0.0628,-0.0639,0.0,-45.37,34.44,6.46,-82.15,-174.77
38953,53.429886,-1.419046,116.59,28.82,4,318.04,23 / 24,3895338,2019-11-08 11:02:12:949,2.081,1.0892,10.8818,-0.0688,0.0218,9.8063,0.0792,0.2315,-0.2951,0.13,-44.5,34.13,8.76,-82.13,-172.87
38954,53.429886,-1.419046,116.59,28.82,4,318.04,23 / 24,3895438,2019-11-08 11:02:13:049,-1.2672,-0.1344,9.2328,-0.0401,0.0227,9.8065,0.073,0.2747,-0.2419,-0.19,-44.75,34.69,7.58,-82.05,-173.83
38955,53.429886,-1.419046,116.59,28.82,4,318.04,23 / 23,3895538,2019-11-08 11:02:13:149,1.4257,0.9959,9.9579,0.0317,-0.0142,9.8065,0.0001,0.2436,-0.2036,-0.56,-44.75,34.56,6.06,-82.09,-173.43
38956,53.429886,-1.419046,116.59,28.82,4,318.04,23 / 23,3895638,2019-11-08 11:02:13:249,-0.0744,-0.3985,8.5212,0.0078,-0.0253,9.8066,-0.058,0.1143,-0.047,-0.25,-44.75,34.38,7.72,-82.17,-173.74
38957,53.429886,-1.419046,116.59,28.82,4,318.04,23 / 23,3895739,2019-11-08 11:02:13:350,0.9427,0.943,9.3685,-0.006,-0.0295,9.8065,-0.0792,0.1261,-0.0163,-1.19,-44.37,34.31,6.67,-82.34,-172.85
38958,53.429886,-1.419046,116.59,28.82,4,318.04,23 / 23,3895839,2019-11-08 11:02:13:450,1.0094,-0.7902,9.9366,0.0498,-0.0147,9.8065,-0.0068,-0.02,0.0527,-0.81,-44.5,35.0,6.79,-82.08,-172.81
38959,53.429886,-1.419046,116.59,28.82,4,318.04,23 / 23,3895939,2019-11-08 11:02:13:550,-4.5241,2.4246,10.1721,-0.0419,-0.0179,9.8065,0.0168,-0.1343,0.0873,-1.5,-44.0,34.75,5.39,-81.83,-173.99
38960,53.429886,-1.419046,116.59,28.82,4,318.04,23 / 23,3896039,2019-11-08 11:02:13:650,-2.2712,4.1705,10.1753,0.0202,0.0258,9.8065,0.2116,-0.1938,0.1519,-1.0,-43.06,34.25,5.35,-81.49,-174.02
38961,53.429886,-1.419046,116.59,28.82,4,318.04,23 / 23,3896138,2019-11-08 11:02:13:749,-1.4783,1.651,10.1966,-0.0188,-0.0184,9.8065,0.1064,-0.2621,0.0718,-1.44,-43.56,34.81,5.57,-81.33,-173.91
38962,53.429886,-1.419046,116.59,28.82,4,318.04,23 / 23,3896239,2019-11-08 11:02:13:850,1.3252,-0.7325,9.5489,0.0283,0.0047,9.8065,0.0432,-0.2152,0.0603,-1.37,-42.87,35.69,4.96,-81.33,-174.4
38963,53.429886,-1.419046,116.59,28.82,4,318.04,23 / 23,3896338,2019-11-08 11:02:13:949,-0.339,1.7834,9.4498,0.0475,0.006,9.8065,0.0037,-0.1866,0.0556,-0.81,-43.31,35.13,4.49,-81.39,-174.75
38964,53.429886,-1.419046,116.59,28.82,4,318.04,23 / 23,3896438,2019-11-08 11:02:14:049,1.7911,0.7118,9.5372,0.025,-0.0105,9.8065,-0.0705,-0.0391,0.0482,-0.56,-42.5,35.75,2.53,-81.55,-176.34
38965,53.431545,-1.421958,115.77,29.88,4,312.16,23 / 23,3896538,2019-11-08 11:02:14:149,-0.8668,1.6657,9.9419,0.0195,0.0233,9.8065,-0.0012,-0.0119,0.0738,-0.56,-43.69,36.25,2.59,-81.46,-176.32
38966,53.431545,-1.421958,115.77,29.88,4,312.16,23 / 23,3896638,2019-11-08 11:02:14:249,-0.0374,-1.8907,10.8603,-0.0085,0.0241,9.8066,-0.0476,0.0148,0.0616,-0.37,-43.37,36.5,4.32,-81.74,-176.45
38967,53.431545,-1.421958,115.77,29.88,4,312.16,23 / 23,3896739,2019-11-08 11:02:14:350,0.9209,-2.2517,9.8855,-0.032,0.0201,9.8065,0.0733,-0.0199,0.0802,0.06,-43.25,36.38,6.27,-81.83,-174.86
38968,53.431545,-1.421958,115.77,29.88,4,312.16,23 / 23,3896838,2019-11-08 11:02:14:449,-2.5047,0.7366,9.4595,-0.0339,0.0101,9.8065,0.0716,0.16,-0.1959,0.25,-44.19,36.63,5.28,-81.84,-175.66
38969,53.431545,-1.421958,115.77,29.88,4,312.16,23 / 23,3896938,2019-11-08 11:02:14:549,1.622,-0.3909,10.9108,0.0098,-0.0212,9.8066,0.0808,0.2239,-0.1921,0.5,-44.0,36.06,7.47,-81.8,-175.5
38970,53.431545,-1.421958,115.77,29.88,4,312.16,23 / 23,3897038,2019-11-08 11:02:14:649,-0.3279,0.8729,10.5464,-0.0066,-0.0404,9.8065,-0.1058,0.2114,-0.108,1.06,-43.56,36.44,5.34,-81.54,-177.27
38971,53.431545,-1.421958,115.77,29.88,4,312.16,23 / 23,3897138,2019-11-08 11:02:14:749,-0.0449,-1.0024,9.5642,0.0131,-0.0034,9.8066,-0.0739,-0.0008,-0.0676,0.69,-44.19,36.06,4.08,-81.24,-178.32
38972,53.431545,-1.421958,115.77,29.88,4,312.16,23 / 23,3897238,2019-11-08 11:02:14:849,2.6355,2.8366,9.1153,0.0281,0.0007,9.8065,0.0351,-0.2531,0.2055,0.75,-44.5,34.94,5.49,-80.97,-177.3
38973,53.431545,-1.421958,115.77,29.88,4,312.16,23 / 23,3897338,2019-11-08 11:02:14:949,-1.5125,1.4032,10.7242,0.0028,0.0032,9.8066,-0.0634,-0.0957,0.058,1.31,-43.87,35.31,4.21,-80.85,-178.32
38974,53.431545,-1.421958,115.77,29.88,4,312.16,23 / 23,3897438,2019-11-08 11:02:15:049,-0.3174,-0.075,8.2294,0.0039,0.016,9.8066,0.0021,0.1117,0.0748,1.5,-44.81,35.06,6.21,-80.67,-178.43
38975,53.431545,-1.421958,115.77,29.88,4,312.16,24 / 24,3897539,2019-11-08 11:02:15:150,1.3775,1.3279,10.2573,-0.0216,-0.0158,9.8066,0.0973,0.0939,-0.0224,0.44,-45.25,35.13,1.28,-80.69,-179.0
38976,53.431545,-1.421958,115.77,29.88,4,312.16,24 / 24,3897639,2019-11-08 11:02:15:250,-1.7293,0.0486,10.5227,-0.0289,-0.0096,9.8066,0.037,0.0389,-0.0524,0.63,-45.25,35.5,4.41,-80.72,-178.13
38977,53.431545,-1.421958,115.77,29.88,4,312.16,24 / 24,3897738,2019-11-08 11:02:15:349,0.6235,-0.4847,9.4714,-0.0105,0.0037,9.8066,-0.0031,-0.0983,0.043,1.25,-44.75,35.69,5.65,-80.87,-177.13
38978,53.431545,-1.421958,115.77,29.88,4,312.16,24 / 24,3897838,2019-11-08 11:02:15:449,0.462,1.0661,10.1248,-0.0003,0.0006,9.8065,-0.0089,-0.012,0.0009,0.44,-45.19,35.13,3.23,-80.9,-177.47
38979,53.431545,-1.421958,115.77,29.88,4,312.16,24 / 24,3897938,2019-11-08 11:02:15:549,-0.8794,2.2001,8.3329,0.011,0.0108,9.8066,-0.0719,0.0362,-0.0711,-0.12,-45.5,34.25,2.9,-80.97,-177.74
38980,53.431545,-1.421958,115.77,29.88,4,312.16,24 / 24,3898038,2019-11-08 11:02:15:649,0.4903,1.4586,9.5911,0.0298,-0.004,9.8066,-0.0181,-0.02,0.0604,0.38,-44.75,35.0,4.61,-80.86,-176.39
38981,53.431545,-1.421958,115.77,29.88,4,312.16,24 / 24,3898138,2019-11-08 11:02:15:749,-1.0667,0.6551,10.9319,-0.0159,0.02,9.8066,-0.0809,-0.0692,0.0567,0.0,-44.81,35.69,4.15,-80.73,-176.74
38982,53.431545,-1.421958,115.77,29.88,4,312.16,24 / 24,3898239,2019-11-08 11:02:15:850,1.1229,0.492,8.7593,0.0132,0.0309,9.8066,-0.0771,-0.1957,0.099,-0.31,-44.81,35.19,5.13,-80.71,-176.0
38983,53.431545,-1.421958,115.77,29.88,4,312.16,24 / 24,3898339,2019-11-08 11:02:15:950,0.606,2.2874,8.2716,-0.0169,-0.0063,9.8066,0.0217,-0.0898,0.1436,0.06,-45.44,35.13,4.29,-80.85,-176.64
38984,53.431545,-1.421958,115.77,29.88,4,312.16,24 / 24,3898439,2019-11-08 11:02:16:050,0.5932,0.4986,10.0072,0.0127,-0.0172,9.8065,0.04,0.0171,-0.0338,0.06,-45.5,35.56,2.63,-80.93,-177.92
38985,53.431545,-1.421958,115.77,29.88,4,312.16,23 / 23,3898538,2019-11-08 11:02:16:149,-0.1414,0.3822,9.9466,-0.0012,-0.0106,9.8066,0.0523,0.0789,-0.0468,-0.37,-45.0,35.63,2.0,-80.82,-178.42
38986,53.431545,-1.421958,115.77,29.88,4,312.16,23 / 23,3898639,2019-11-08 11:02:16:250,2.9182,0.2523,9.3554,0.0052,-0.0018,9.8066,0.0377,0.2802,-0.1677,-0.25,-45.0,36.06,2.76,-80.78,-177.83
38987,53.431545,-1.421958,115.77,29.88,4,312.16,23 / 23,3898739,2019-11-08 11:02:16:350,-0.7902,1.501,8.7203,0.0387,0.016,9.8065,-0.0084,0.2511,-0.204,-0.62,-45.12,36.81,2.25,-80.96,-176.66
38988,53.431545,-1.421958,115.77,29.88,4,312.16,23 / 23,3898838,2019-11-08 11:02:16:449,-1.7589,-0.2577,10.5463,0.0233,0.0346,9.8065,0.0178,0.0093,-0.1,-0.37,-44.81,35.75,5.45,-81.1,-175.67
38989,53.431545,-1.421958,115.77,29.88,4,312.16,23 / 23,3898938,2019-11-08 11:02:16:549,-0.704,1.0443,11.0959,0.0183,0.0126,9.8066,-0.0513,0.0683,-0.0896,-0.12,-44.94,36.56,5.39,-80.93,-175.71
38990,53.431545,-1.421958,115.77,29.88,4,312.16,23 / 23,3899038,2019-11-08 11:02:16:649,-1.2012,1.1485,9.6613,0.0005,0.0021,9.8066,-0.0504,-0.0782,0.0656,0.13,-44.56,36.56,3.68,-80.85,-177.08
38991,53.431545,-1.421958,115.77,29.88,4,312.16,23 / 23,3899139,2019-11-08 11:02:16:750,-1.5428,-0.0208,9.9124,-0.0306,0.0163,9.8065,-0.0432,-0.1503,0.0617,0.5,-44.19,36.75,6.33,-80.95,-176.48
38992,53.431545,-1.421958,115.77,29.88,4,312.16,23 / 23,3899238,2019-11-08 11:02:16:849,-2.8073,1.5356,9.6123,-0.024,-0.0052,9.8065,-0.0201,-0.1272,0.0464,0.25,-45.06,36.81,4.31,-80.94,-176.57
38993,53.431545,-1.421958,115.77,29.88,4,312.16,23 / 23,3899338,2019-11-08 11:02:16:949,0.2305,-1.1437,10.5373,-0.0472,-0.0131,9.8064,-0.0495,0.0179,0.0405,0.5,-44.75,37.19,7.26,-80.79,-175.79
38994,53.431545,-1.421958,115.77,29.88,4,312.16,23 / 23,3899438,2019-11-08 11:02:17:049,1.2714,-0.4015,8.558,-0.0036,0.041,9.8065,-0.0612,0.0342,-0.0246,0.13,-44.62,37.38,5.48,-80.77,-175.66
38995,53.431545,-1.421958,115.77,29.88,4,312.16,22 / 23,3899538,2019-11-08 11:02:17:149,-0.2754,-1.5514,8.5581,0.0104,-0.0004,9.8066,0.0709,-0.047,-0.0244,0.38,-44.81,37.44,5.46,-81.11,-175.63
38996,53.431545,-1.421958,115.77,29.88,4,312.16,22 / 23,3899638,2019-11-08 11:02:17:249,0.5571,0.3365,11.2847,0.0207,0.0074,9.8066,0.0504,0.0045,-0.0029,1.38,-44.0,37.13,5.91,-81.32,-176.77
38997,53.431545,-1.421958,115.77,29.88,4,312.16,22 / 23,3899738,2019-11-08 11:02:17:349,-1.5996,2.9631,8.5645,0.0026,-0.036,9.8065,0.1918,0.2241,-0.1408,1.5,-44.37,38.06,7.82,-80.8,-176.73
38998,53.431545,-1.421958,115.77,29.88,4,312.16,22 / 23,3899839,2019-11-08 11:02:17:450,2.2634,1.9123,7.7329,0.037,0.0134,9.8065,0.0899,0.2761,-0.2008,1.38,-44.44,36.75,7.05,-80.59,-175.96
38999,53.431545,-1.421958,115.77,29.88,4,312.16,22 / 23,3899938,2019-11-08 11:02:17:549,-2.1922,0.2552,10.8493,0.0215,0.0379,9.8065,-0.1169,0.1097,-0.0882,2.13,-44.56,37.88,9.34,-80.48,-175.62
39000,53.431545,-1.421958,115.77,29.88,4,312.16,22 / 23,3900038,2019-11-08 11:02:17:649,-0.1394,-0.8042,8.8002,0.0056,0.0309,9.8065,-0.1407,0.0504,-0.0146,2.31,-44.06,38.25,8.32,-80.7,-176.35
39001,53.431545,-1.421958,115.77,29.88,4,312.16,22 / 23,3900138,2019-11-08 11:02:17:749,-0.3193,1.2169,10.4479,0.0118,-0.0038,9.8066,-0.0169,-0.0414,-0.0463,2.31,-43.69,38.19,7.59,-80.77,-176.92
39002,53.431545,-1.421958,115.77,29.88,4,312.16,22 / 23,3900238,2019-11-08 11:02:17:849,-1.4172,-2.6541,10.607,-0.0099,-0.031,9.8066,0.0149,-0.0045,0.0168,3.0,-44.06,37.31,9.11,-80.41,-177.44
39003,53.431545,-1.421958,115.77,29.88,4,312.16,22 / 23,3900338,2019-11-08 11:02:17:949,0.3926,0.7814,10.1201,-0.0084,-0.018,9.8066,-0.0451,-0.0503,0.0698,3.81,-44.62,38.13,10.54,-80.07,-177.75
39004,53.431545,-1.421958,115.77,29.88,4,312.16,22 / 23,3900438,2019-11-08 11:02:18:049,-1.0477,-1.0373,9.7384,-0.0173,0.0134,9.8066,-0.0316,-0.0456,0.0338,3.88,-44.81,38.0,10.66,-80.25,-177.61
39005,53.431545,-1.421958,115.77,29.88,4,312.16,22 / 23,3900538,2019-11-08 11:02:18:149,0.2025,1.5325,9.0866,-0.0109,0.0216,9.8065,-0.0411,-0.2198,0.2015,4.5,-44.56,37.19,13.69,-80.49,-176.89
39006,53.431545,-1.421958,115.77,29.88,4,312.16,22 / 23,3900639,2019-11-08 11:02:18:250,-2.9832,2.5701,9.2268,-0.012,-0.0199,9.8066,-0.0437,-0.2662,0.1986,5.19,-44.81,37.5,14.3,-80.71,-176.06
39007,53.431545,-1.421958,115.77,29.88,4,312.16,22 / 23,3900739,2019-11-08 11:02:18:350,-1.2041,1.8808,10.3071,0.0242,-0.0389,9.8065,0.0573,-0.2845,0.149,5.06,-44.5,37.06,13.46,-80.37,-177.05
39008,53.431545,-1.421958,115.77,29.88,4,312.16,22 / 23,3900839,2019-11-08 11:02:18:450,-2.3401,1.1963,11.2257,-0.0228,-0.0134,9.8065,-0.0051,-0.1924,0.1413,5.38,-45.0,36.0,13.68,-80.29,-177.25
39009,53.431545,-1.421958,115.77,29.88,4,312.16,22 / 23,3900939,2019-11-08 11:02:18:550,0.3825,-2.0604,9.6169,-0.0042,0.0182,9.8066,0.0751,0.0548,-0.0171,5.06,-45.19,35.69,14.44,-80.42,-176.61
39010,53.431545,-1.421958,115.77,29.88,4,312.16,22 / 23,3901038,2019-11-08 11:02:18:649,-2.3823,-0.0295,9.3583,-0.0014,0.0348,9.8065,0.0736,0.2075,-0.1369,4.94,-46.06,35.69,14.93,-80.67,-176.2
39011,53.431545,-1.421958,115.77,29.88,4,312.16,22 / 23,3901139,2019-11-08 11:02:18:750,-0.3628,-0.5288,9.48,-0.0396,-0.008,9.8065,-0.1538,0.3198,-0.1641,4.75,-45.69,35.06,15.01,-80.87,-176.37
39012,53.431545,-1.421958,115.77,29.88,4,312.16,22 / 23,3901239,2019-11-08 11:02:18:850,1.6589,2.7731,9.26,0.0204,-0.0132,9.8066,-0.1004,0.2169,-0.1519,4.25,-45.75,34.38,13.79,-80.63,-176.09
39013,53.431545,-1.421958,115.77,29.88,4,312.16,22 / 23,3901339,2019-11-08 11:02:18:950,0.5849,-0.0671,9.7714,-0.0064,0.0031,9.8066,0.0199,0.0298,-0.1331,4.63,-45.19,34.13,14.45,-80.48,-177.21
39014,53.431545,-1.421958,115.77,29.88,4,312.16,22 / 23,3901438,2019-11-08 11:02:19:049,0.3103,2.4952,9.9799,-0.0008,0.0201,9.8066,0.0312,0.0679,-0.0212,3.88,-45.25,34.0,11.93,-80.69,-177.45
39015,53.431545,-1.421958,115.77,29.88,4,312.16,22 / 22,3901538,2019-11-08 11:02:19:149,-0.2608,-0.1613,9.3796,0.002,0.0087,9.8066,-0.0895,-0.0444,0.0587,3.56,-45.69,34.38,12.53,-80.9,-176.97
39016,53.431545,-1.421958,115.77,29.88,4,312.16,22 / 22,3901639,2019-11-08 11:02:19:250,2.7707,1.6129,10.1717,0.0085,-0.0277,9.8066,-0.0601,-0.2383,0.1036,3.56,-45.44,33.88,12.55,-80.9,-176.9
39017,53.431545,-1.421958,115.77,29.88,4,312.16,22 / 22,3901739,2019-11-08 11:02:19:350,-0.146,-0.3267,10.0362,0.0412,-0.0145,9.8065,0.0638,-0.1431,0.1421,3.69,-45.31,33.75,13.2,-80.65,-176.47
39018,53.431545,-1.421958,115.77,29.88,4,312.16,22 / 22,3901839,2019-11-08 11:02:19:450,-1.3105,-0.5161,10.2156,-0.0155,0.0088,9.8066,-0.0286,-0.137,0.0302,3.13,-45.62,33.56,9.06,-80.52,-178.11
39019,53.431545,-1.421958,115.77,29.88,4,312.16,22 / 22,3901939,2019-11-08 11:02:19:550,0.3865,-0.7142,10.5919,0.0107,0.0341,9.8065,-0.0309,0.0377,0.0208,2.31,-45.94,33.75,8.02,-80.87,-177.16
39020,53.431545,-1.421958,115.77,29.88,4,312.16,22 / 22,3902039,2019-11-08 11:02:19:650,-0.2812,0.2627,9.4623,0.0,-0.0189,9.8065,0.0341,0.0794,-0.0566,2.75,-45.5,33.63,10.6,-80.99,-176.75
39021,53.431545,-1.421958,115.77,29.88,4,312.16,22 / 22,3902139,2019-11-08 11:02:19:750,-0.0831,1.4474,10.6721,-0.0309,-0.0034,9.8065,0.0794,0.2293,-0.1731,1.44,-45.87,33.06,6.85,-80.72,-176.51
39022,53.431545,-1.421958,115.77,29.88,4,312.16,22 / 22,3902238,2019-11-08 11:02:19:849,-2.7541,-0.6422,11.1082,-0.0338,0.0261,9.8065,0.0699,0.2613,-0.2547,2.13,-45.94,33.38,8.0,-80.56,-177.4
39023,53.431545,-1.421958,115.77,29.88,4,312.16,22 / 22,3902338,2019-11-08 11:02:19:949,0.9672,0.5244,10.0534,-0.0349,-0.0091,9.8065,-0.0228,0.3002,-0.1583,2.31,-46.0,33.06,7.97,-80.84,-177.36
39024,53.431545,-1.421958,115.77,29.88,4,312.16,22 / 22,3902438,2019-11-08 11:02:20:049,2.0473,-0.2093,10.3028,0.0118,-0.0081,9.8066,-0.0278,-0.0209,0.0213,1.56,-45.56,31.88,9.43,-80.9,-176.4
39025,53.431545,-1.421958,115.77,29.88,4,312.16,22 / 23,3902538,2019-11-08 11:02:20:149,-0.0545,-0.9604,10.5559,-0.0181,-0.0201,9.8065,-0.0309,-0.1201,0.0311,1.81,-47.37,32.69,9.32,-80.72,-176.4
39026,53.431545,-1.421958,115.77,29.88,4,312.16,22 / 23,3902638,2019-11-08 11:02:20:249,1.0076,1.0206,10.3176,0.0019,-0.0058,9.8066,0.0027,-0.071,0.1117,1.63,-49.31,34.88,9.99,-80.66,-175.67
39027,53.431545,-1.421958,115.77,29.88,4,312.16,22 / 23,3902738,2019-11-08 11:02:20:349,-0.8528,0.6285,8.9446,0.0164,0.008,9.8066,-0.0879,-0.0571,0.0878,1.44,-47.19,38.06,8.31,-80.63,-174.97
39028,53.431545,-1.421958,115.77,29.88,4,312.16,22 / 23,3902839,2019-11-08 11:02:20:450,0.0147,-0.0215,9.7579,0.0078,0.0038,9.8066,-0.0811,-0.1346,0.0877,1.5,-45.31,36.94,11.55,-80.76,-173.93
39029,53.431545,-1.421958,115.77,29.88,4,312.16,22 / 23,3902938,2019-11-08 11:02:20:549,-1.2281,-0.6506,10.3127,0.0095,0.0137,9.8066,-0.0776,-0.0598,0.0924,1.19,-44.62,36.56,10.21,-80.95,-173.41
39030,53.431545,-1.421958,115.77,29.88,4,312.16,22 / 23,3903038,2019-11-08 11:02:20:649,0.2997,1.0925,9.3758,0.0141,0.0009,9.8066,0.052,-0.0806,0.082,0.88,-44.87,35.94,11.5,-80.89,-172.5
39031,53.431545,-1.421958,115.77,29.88,4,312.16,22 / 23,3903138,2019-11-08 11:02:20:749,-0.6065,0.069,10.5934,-0.0074,0.0116,9.8065,0.0819,-0.061,-0.0184,0.44,-45.06,35.75,9.0,-80.8,-172.9
39032,53.431545,-1.421958,115.77,29.88,4,312.16,22 / 23,3903238,2019-11-08 11:02:20:849,-1.6357,-0.0619,10.0126,-0.0217,0.0205,9.8066,0.0873,0.1071,-0.1318,0.56,-45.5,35.81,10.25,-80.73,-173.53
39033,53.431545,-1.421958,115.77,29.88,4,312.16,22 / 23,3903339,2019-11-08 11:02:20:950,1.3224,-0.5213,10.1732,-0.0213,-0.0098,9.8065,0.1394,0.1227,-0.1039,0.88,-45.56,35.38,10.41,-80.85,-173.52
39034,53.431545,-1.421958,115.77,29.88,4,312.16,22 / 23,3903439,2019-11-08 11:02:21:050,-1.4891,0.6206,9.1139,-0.0233,-0.0105,9.8066,-0.0145,0.0492,-0.095,1.0,-45.5,35.13,10.89,-80.94,-173.07
39035,53.431545,-1.421958,115.77,29.88,4,312.16,22 / 22,3903539,2019-11-08 11:02:21:150,0.3138,0.1793,8.6557,-0.0059,-0.0252,9.8066,0.0294,0.0287,-0.0159,0.81,-46.12,35.5,11.55,-80.87,-172.51
39036,53.431545,-1.421958,115.77,29.88,4,312.16,22 / 22,3903638,2019-11-08 11:02:21:249,1.339,0.0631,10.4685,0.0217,-0.0075,9.8066,-0.0746,-0.1461,0.1289,0.13,-46.06,35.13,10.2,-81.13,-171.98
39037,53.431545,-1.421958,115.77,29.88,4,312.16,22 / 22,3903738,2019-11-08 11:02:21:349,-1.8055,-0.0324,8.8777,0.0149,0.0095,9.8066,-0.1057,-0.1051,0.092,0.38,-45.62,35.25,9.83,-81.21,-172.25
39038,53.431545,-1.421958,115.77,29.88,4,312.16,22 / 22,3903838,2019-11-08 11:02:21:449,1.475,1.2422,9.5424,0.0148,-0.0106,9.8066,-0.0303,0.1181,-0.0432,0.63,-45.75,35.38,11.75,-81.01,-172.42
39039,53.431545,-1.421958,115.77,29.88,4,312.16,22 / 22,3903938,2019-11-08 11:02:21:549,0.711,-1.017,9.4647,0.0141,0.0161,9.8066,-0.1156,0.2276,-0.0731,0.5,-45.5,34.94,11.46,-80.78,-172.66
39040,53.431545,-1.421958,115.77,29.88,4,312.16,22 / 22,3904039,2019-11-08 11:02:21:650,-1.364,0.5117,9.3941,0.0155,0.018,9.8066,-0.042,0.0403,0.0224,0.31,-45.75,35.38,8.98,-80.94,-172.99
39041,53.431545,-1.421958,115.77,29.88,4,312.16,22 / 22,3904138,2019-11-08 11:02:21:749,2.1233,-1.1784,9.6791,-0.0255,0.0231,9.8065,0.0039,-0.0844,0.0564,0.25,-45.87,35.5,9.69,-81.19,-172.31
39042,53.431545,-1.421958,115.77,29.88,4,312.16,22 / 22,3904239,2019-11-08 11:02:21:850,-1.6533,1.9163,10.172,-0.028,0.0181,9.8065,0.1555,-0.1964,0.0434,0.56,-45.69,35.38,10.58,-81.33,-173.26
39043,53.431545,-1.421958,115.77,29.88,4,312.16,22 / 22,3904339,2019-11-08 11:02:21:950,-1.4785,-1.9905,10.8413,-0.0134,-0.0181,9.8065,0.1869,-0.2263,0.0254,1.06,-45.62,35.31,11.35,-81.36,-172.64
39044,53.431545,-1.421958,115.77,29.88,4,312.16,22 / 22,3904439,2019-11-08 11:02:22:050,1.6495,0.0527,9.7909,-0.0183,-0.0052,9.8066,-0.1204,-0.0043,-0.0515,0.13,-46.0,35.56,9.67,-81.47,-172.26
39045,53.431545,-1.421958,115.77,29.88,4,312.16,21 / 22,3904539,2019-11-08 11:02:22:150,-2.8563,-1.5324,9.7794,0.0307,-0.0164,9.8065,-0.0869,0.1075,-0.0895,1.0,-45.62,34.94,12.46,-81.29,-171.77
39046,53.431545,-1.421958,115.77,29.88,4,312.16,21 / 22,3904639,2019-11-08 11:02:22:250,0.5267,0.8628,10.5885,-0.0267,0.0033,9.8065,-0.0325,0.2009,-0.0715,0.88,-45.81,35.81,11.25,-81.01,-172.71
39047,53.431545,-1.421958,115.77,29.88,4,312.16,21 / 22,3904738,2019-11-08 11:02:22:349,-0.6151,0.1018,10.8434,0.0201,0.0264,9.8065,-0.0913,0.1521,-0.119,0.69,-46.0,35.5,10.25,-80.86,-173.54
39048,53.431545,-1.421958,115.77,29.88,4,312.16,21 / 22,3904838,2019-11-08 11:02:22:449,0.6315,1.8416,8.4131,0.0109,0.0474,9.8065,-0.1456,0.0352,0.0246,0.63,-45.25,35.38,10.15,-81.02,-173.64
39049,53.431545,-1.421958,115.77,29.88,4,312.16,21 / 22,3904938,2019-11-08 11:02:22:549,1.573,-2.5498,11.4201,0.002,0.0125,9.8066,0.0752,0.1131,0.0177,1.69,-46.25,36.06,11.31,-81.38,-174.14
39050,53.431545,-1.421958,115.77,29.88,4,312.16,21 / 22,3905038,2019-11-08 11:02:22:649,1.6889,-2.9421,10.5121,-0.0168,0.0224,9.8066,0.0091,0.1273,-0.0687,1.0,-45.31,35.44,8.27,-81.64,-175.0
39051,53.431545,-1.421958,115.77,29.88,4,312.16,21 / 22,3905138,2019-11-08 11:02:22:749,1.3499,2.3511,8.9485,0.0207,0.0033,9.8065,0.0508,0.0788,-0.0739,0.81,-45.81,35.81,8.13,-82.01,-174.98
39052,53.431545,-1.421958,115.77,29.88,4,312.16,21 / 22,3905238,2019-11-08 11:02:22:849,-2.6408,-0.1122,11.061,-0.0268,-0.0318,9.8065,0.133,0.0522,-0.0791,0.81,-46.25,35.56,8.64,-82.18,-174.53
39053,53.431545,-1.421958,115.77,29.88,4,312.16,21 / 22,3905338,2019-11-08 11:02:22:949,1.9085,1.9483,10.3024,0.006,-0.0289,9.8066,0.0634,-0.088,0.0909,1.38,-46.0,35.81,10.01,-82.02,-173.44
39054,53.431545,-1.421958,115.77,29.88,4,312.16,21 / 22,3905438,2019-11-08 11:02:23:049,-1.5443,-1.5906,7.9913,-0.0198,-0.0199,9.8065,-0.1621,-0.3451,0.2006,1.0,-45.69,35.75,9.82,-81.57,-173.71
39055,53.433125,-1.424949,114.89,29.91,4,310.11,22 / 23,3905538,2019-11-08 11:02:23:149,-3.3737,-2.4955,9.8092,-0.0644,-0.0207,9.8063,0.0085,-0.3625,0.3167,1.19,-45.87,35.69,11.27,-81.02,-172.69
39056,53.433125,-1.424949,114.89,29.91,4,310.11,22 / 23,3905638,2019-11-08 11:02:23:249,1.2712,3.2617,8.8942,0.0068,-0.0438,9.8065,-0.0637,-0.4071,0.2056,1.63,-45.44,36.19,10.83,-80.73,-174.66
39057,53.433125,-1.424949,114.89,29.91,4,310.11,22 / 23,3905738,2019-11-08 11:02:23:349,-3.0868,0.1881,11.2346,-0.0537,-0.0225,9.8064,0.1348,0.0678,0.0382,0.63,-45.75,35.94,10.53,-80.55,-173.4
39058,53.433125,-1.424949,114.89,29.91,4,310.11,22 / 23,3905840,2019-11-08 11:02:23:451,0.1829,-1.265,10.5125,-0.0195,0.0029,9.8065,-0.0016,0.2148,-0.1688,0.75,-46.12,35.88,9.88,-80.73,-173.86
39059,53.433125,-1.424949,114.89,29.91,4,310.11,22 / 23,3905939,2019-11-08 11:02:23:550,-3.1022,1.2168,10.0951,0.0039,0.007,9.8066,-0.0725,0.3827,-0.2405,1.19,-45.94,35.88,10.05,-80.94,-173.68
39060,53.433125,-1.424949,114.89,29.91,4,310.11,22 / 23,3906038,2019-11-08 11:02:23:649,2.7107,-2.9649,9.6805,0.0451,0.0389,9.8064,0.0411,0.4145,-0.2843,1.06,-46.0,36.06,11.41,-81.23,-172.52
39061,53.433125,-1.424949,114.89,29.91,4,310.11,22 / 23,3906138,2019-11-08 11:02:23:749,-1.0852,-3.1202,10.5139,0.0171,0.0319,9.8065,-0.1281,0.3248,-0.2425,1.0,-46.12,35.81,11.27,-81.74,-172.49
39062,53.433125,-1.424949,114.89,29.91,4,310.11,22 / 23,3906238,2019-11-08 11:02:23:849,2.0832,3.1943,8.2724,0.0188,0.0494,9.8065,-0.1181,0.2791,-0.1027,0.5,-45.12,35.81,12.7,-81.88,-171.24
39063,53.433125,-1.424949,114.89,29.91,4,310.11,22 / 23,3906338,2019-11-08 11:02:23:949,1.0839,-2.638,11.1737,0.0198,0.0211,9.8065,-0.1425,-0.0467,0.0622,1.0,-45.69,35.63,13.49,-82.04,-170.59
39064,53.433125,-1.424949,114.89,29.91,4,310.11,22 / 23,3906438,2019-11-08 11:02:24:049,2.1217,-2.5626,10.8214,-0.0159,0.0064,9.8066,-0.1296,-0.0542,0.1681,1.19,-45.87,35.56,11.12,-82.26,-172.47
39065,53.433125,-1.424949,114.89,29.91,4,310.11,21 / 22,3906538,2019-11-08 11:02:24:149,0.694,1.4475,8.6491,0.033,-0.0128,9.8065,0.0844,-0.0498,0.0652,1.06,-45.75,35.63,10.54,-82.36,-172.92
39066,53.433125,-1.424949,114.89,29.91,4,310.11,21 / 22,3906639,2019-11-08 11:02:24:250,1.0527,0.1452,9.8078,-0.0019,-0.0011,9.8065,-0.0012,0.0097,0.016,1.31,-46.44,36.5,12.64,-82.42,-171.07
39067,53.433125,-1.424949,114.89,29.91,4,310.11,21 / 22,3906739,2019-11-08 11:02:24:350,-0.3293,0.2885,9.1394,0.0038,0.013,9.8066,0.1025,0.0873,-0.0827,0.81,-45.94,36.56,13.81,-82.4,-170.1
39068,53.433125,-1.424949,114.89,29.91,4,310.11,21 / 22,3906839,2019-11-08 11:02:24:450,0.3519,0.1393,10.2406,0.0159,0.0037,9.8066,-0.0392,0.1926,-0.1047,0.69,-46.31,35.94,14.41,-82.14,-169.81
39069,53.433125,-1.424949,114.89,29.91,4,310.11,21 / 22,3906938,2019-11-08 11:02:24:549,0.0299,0.3682,10.6045,0.0008,-0.0026,9.8066,-0.05,0.051,-0.0419,1.0,-45.75,36.25,13.13,-82.05,-170.88
39070,53.433125,-1.424949,114.89,29.91,4,310.11,21 / 22,3907038,2019-11-08 11:02:24:649,-0.3793,1.0928,9.0108,-0.0078,-0.0059,9.8065,-0.0801,-0.0164,0.0279,0.81,-45.62,36.13,12.81,-81.97,-171.17
39071,53.433125,-1.424949,114.89,29.91,4,310.11,21 / 22,3907138,2019-11-08 11:02:24:749,-0.9753,0.469,9.2551,0.031,-0.0098,9.8065,0.0074,-0.1005,0.1295,1.19,-45.81,36.19,11.33,-81.85,-172.41
39072,53.433125,-1.424949,114.89,29.91,4,310.11,21 / 22,3907238,2019-11-08 11:02:24:849,0.6802,-0.7784,10.0152,0.0009,-0.02,9.8066,0.0599,-0.0259,0.0615,0.94,-45.75,35.75,12.52,-81.81,-171.46
39073,53.433125,-1.424949,114.89,29.91,4,310.11,21 / 22,3907338,2019-11-08 11:02:24:949,-0.6591,1.3612,8.6546,0.0013,-0.0052,9.8066,0.0718,0.1072,-0.0207,1.06,-46.19,36.0,13.19,-81.65,-170.96
39074,53.433125,-1.424949,114.89,29.91,4,310.11,21 / 22,3907438,2019-11-08 11:02:25:049,0.0742,1.3077,9.4718,0.016,-0.0003,9.8066,0.0784,0.1104,-0.1354,0.5,-46.25,36.25,14.07,-81.46,-170.31
39075,53.433125,-1.424949,114.89,29.91,4,310.11,22 / 24,3907538,2019-11-08 11:02:25:149,-0.4537,-0.7147,11.1031,-0.0132,-0.0099,9.8066,-0.0464,0.0078,-0.0039,1.13,-46.19,36.38,13.14,-81.32,-171.11
39076,53.433125,-1.424949,114.89,29.91,4,310.11,22 / 24,3907638,2019-11-08 11:02:25:249,-0.4296,1.6196,9.6583,-0.0073,-0.0241,9.8066,-0.0481,-0.0154,0.0469,0.63,-45.56,36.06,13.6,-81.02,-170.84
39077,53.433125,-1.424949,114.89,29.91,4,310.11,22 / 24,3907738,2019-11-08 11:02:25:349,-1.5354,1.0366,9.416,0.0136,-0.0073,9.8066,-0.0374,-0.1486,0.1699,0.44,-45.94,36.19,11.09,-80.9,-171.27
39078,53.433125,-1.424949,114.89,29.91,4,310.11,22 / 24,3907839,2019-11-08 11:02:25:450,0.1308,-0.5268,10.3319,-0.0028,-0.0175,9.8065,-0.0314,-0.1886,0.1836,0.5,-46.06,36.5,14.16,-80.91,-170.31
39079,53.433125,-1.424949,114.89,29.91,4,310.11,22 / 24,3907938,2019-11-08 11:02:25:549,-0.1839,1.3993,9.5803,0.0184,0.0017,9.8066,0.0791,-0.1097,0.0699,0.56,-45.81,36.19,14.73,-80.8,-170.02
39080,53.433125,-1.424949,114.89,29.91,4,310.11,22 / 24,3908038,2019-11-08 11:02:25:649,0.3211,0.8435,9.2822,0.0073,0.0122,9.8066,0.0626,-0.0997,0.0215,1.19,-46.06,35.81,14.32,-80.58,-170.43
39081,53.433125,-1.424949,114.89,29.91,4,310.11,22 / 24,3908138,2019-11-08 11:02:25:749,1.5895,0.6275,9.3077,-0.0076,0.0077,9.8065,-0.0634,-0.0397,-0.0115,0.69,-45.94,35.63,13.72,-80.59,-170.89
39082,53.433125,-1.424949,114.89,29.91,4,310.11,22 / 24,3908238,2019-11-08 11:02:25:849,-3.1154,1.9365,9.1665,-0.05,-0.0082,9.8065,-0.0829,0.0874,-0.0488,0.81,-45.31,35.56,13.85,-80.63,-170.71
39083,53.433125,-1.424949,114.89,29.91,4,310.11,22 / 24,3908338,2019-11-08 11:02:25:949,0.9522,1.4629,8.4995,-0.0226,-0.0364,9.8065,-0.1355,0.1748,-0.1667,0.44,-45.94,35.94,13.32,-80.32,-169.7
39084,53.433125,-1.424949,114.89,29.91,4,310.11,22 / 24,3908438,2019-11-08 11:02:26:049,-3.8102,1.1059,11.4688,-0.0372,-0.0243,9.8065,-0.1557,0.1548,-0.0785,1.0,-45.75,36.25,14.68,-80.44,-170.19
39085,53.433125,-1.424949,114.89,29.91,4,310.11,21 / 24,3908538,2019-11-08 11:02:26:149,-1.7422,2.6421,8.5691,-0.0119,-0.0321,9.8065,-0.0941,0.2945,-0.0654,0.44,-46.12,35.56,13.44,-80.22,-169.64
39086,53.433125,-1.424949,114.89,29.91,4,310.11,21 / 24,3908638,2019-11-08 11:02:26:249,-3.0765,2.5963,9.6614,0.0207,-0.0323,9.8065,-0.0086,0.1979,-0.1023,0.75,-45.75,35.13,15.78,-80.09,-169.61
39087,53.433125,-1.424949,114.89,29.91,4,310.11,21 / 24,3908739,2019-11-08 11:02:26:350,-3.0764,0.1265,11.4054,-0.0262,0.0166,9.8066,0.1496,-0.0994,0.0198,0.38,-45.75,36.19,11.83,-79.78,-171.02
39088,53.433125,-1.424949,114.89,29.91,4,310.11,21 / 24,3908838,2019-11-08 11:02:26:449,2.4138,2.5077,8.3178,0.0336,0.0379,9.8065,0.2169,-0.1136,0.0555,0.94,-45.94,35.69,14.69,-79.59,-170.49
39089,53.433125,-1.424949,114.89,29.91,4,310.11,21 / 24,3908939,2019-11-08 11:02:26:550,-0.9709,0.5137,9.3999,-0.0193,0.0083,9.8066,0.0633,-0.1475,0.0083,0.38,-45.87,35.56,12.04,-79.75,-170.87
39090,53.433125,-1.424949,114.89,29.91,4,310.11,21 / 24,3909039,2019-11-08 11:02:26:650,0.106,2.9999,9.9042,0.0038,0.0271,9.8066,-0.0183,-0.1753,0.0493,0.75,-45.44,35.38,14.56,-79.88,-170.55
39091,53.433125,-1.424949,114.89,29.91,4,310.11,21 / 24,3909139,2019-11-08 11:02:26:750,0.4716,-0.9375,9.3942,0.0352,0.0025,9.8065,-0.0235,-0.104,0.0448,0.38,-45.94,35.31,12.13,-80.29,-170.71
39092,53.433125,-1.424949,114.89,29.91,4,310.11,21 / 24,3909239,2019-11-08 11:02:26:850,0.7923,0.4574,9.903,0.005,-0.0303,9.8065,-0.1893,0.0428,0.0627,0.38,-45.31,34.88,12.62,-80.54,-170.19
39093,53.433125,-1.424949,114.89,29.91,4,310.11,21 / 24,3909339,2019-11-08 11:02:26:950,-0.9386,-0.2917,9.0382,0.0216,-0.0177,9.8066,-0.201,0.0082,0.0408,0.63,-45.44,34.75,15.18,-80.4,-169.88
39094,53.433125,-1.424949,114.89,29.91,4,310.11,21 / 24,3909439,2019-11-08 11:02:27:050,-0.7889,-0.5011,9.9333,0.0108,-0.0308,9.8066,0.0692,0.0339,-0.0315,0.5,-45.56,35.44,13.58,-80.05,-171.32
39095,53.433125,-1.424949,114.89,29.91,4,310.11,22 / 24,3909539,2019-11-08 11:02:27:150,-0.6225,2.1041,10.9331,-0.0053,0.006,9.8066,0.1263,0.0238,0.0299,0.38,-46.06,35.38,10.54,-79.73,-172.08
39096,53.433125,-1.424949,114.89,29.91,4,310.11,22 / 24,3909638,2019-11-08 11:02:27:249,-1.1671,-1.0882,9.1425,-0.0099,0.0404,9.8065,-0.0382,0.0278,0.0467,0.5,-46.0,35.5,12.9,-79.67,-171.83
39097,53.433125,-1.424949,114.89,29.91,4,310.11,22 / 24,3909738,2019-11-08 11:02:27:349,0.7002,2.6842,10.6548,-0.0332,0.0407,9.8065,0.1133,0.0653,-0.0542,-0.19,-45.44,35.06,13.03,-80.11,-170.02
39098,53.433125,-1.424949,114.89,29.91,4,310.11,22 / 24,3909838,2019-11-08 11:02:27:449,-0.3733,2.028,7.7844,-0.0219,0.0114,9.8065,0.1462,-0.0295,-0.1011,0.75,-45.81,35.56,13.92,-80.19,-170.87
39099,53.433125,-1.424949,114.89,29.91,4,310.11,22 / 24,3909938,2019-11-08 11:02:27:549,0.5239,2.3863,8.515,-0.0103,-0.0131,9.8066,0.1289,-0.0545,-0.0501,0.38,-45.06,35.0,10.98,-80.18,-171.58
39100,53.433125,-1.424949,114.89,29.91,4,310.11,22 / 24,3910038,2019-11-08 11:02:27:649,-1.7191,2.0742,10.683,-0.0203,0.0103,9.8066,0.0451,-0.0349,-0.1029,0.0,-45.81,35.81,10.45,-80.06,-172.0
39101,53.433125,-1.424949,114.89,29.91,4,310.11,22 / 24,3910139,2019-11-08 11:02:27:750,-0.5556,-0.7743,10.4784,0.0124,-0.0252,9.8065,-0.0345,-0.0134,-0.0471,0.13,-45.25,35.38,10.66,-80.17,-171.82
39102,53.433125,-1.424949,114.89,29.91,4,310.11,22 / 24,3910238,2019-11-08 11:02:27:849,0.846,2.4829,10.2813,0.0163,-0.0407,9.8065,-0.0595,0.0071,-0.0226,0.81,-45.81,35.63,12.84,-80.15,-171.72
39103,53.433125,-1.424949,114.89,29.91,4,310.11,22 / 24,3910338,2019-11-08 11:02:27:949,-0.942,-1.8019,9.255,0.0274,-0.0209,9.8065,0.027,0.0918,-0.1085,0.13,-45.81,35.56,8.82,-79.69,-173.33
39104,53.433125,-1.424949,114.89,29.91,4,310.11,22 / 24,3910438,2019-11-08 11:02:28:049,-0.7705,0.9603,9.4169,0.0183,0.0158,9.8066,-0.0569,0.1343,-0.0244,0.88,-45.81,35.19,11.5,-79.63,-173.02
39105,53.433125,-1.424949,114.89,29.91,4,310.11,22 / 23,3910538,2019-11-08 11:02:28:149,-1.2547,1.6782,10.8503,0.0181,0.0111,9.8065,-0.0339,0.0568,-0.0955,0.75,-45.25,35.0,11.38,-79.87,-172.99
39106,53.433125,-1.424949,114.89,29.91,4,310.11,22 / 23,3910638,2019-11-08 11:02:28:249,0.2033,-0.2203,10.073,0.0149,-0.0272,9.8066,-0.0224,-0.0009,0.0093,0.94,-44.94,35.63,10.6,-79.66,-173.52
39107,53.433125,-1.424949,114.89,29.91,4,310.11,22 / 23,3910738,2019-11-08 11:02:28:349,-0.3803,1.6505,10.1212,-0.0027,0.0093,9.8065,-0.1231,-0.0213,0.0512,0.5,-45.37,35.63,9.88,-79.38,-174.14
39108,53.433125,-1.424949,114.89,29.91,4,310.11,22 / 23,3910838,2019-11-08 11:02:28:449,-1.174,0.7607,9.509,-0.0041,0.0235,9.8066,-0.007,-0.1816,0.0951,1.25,-45.37,35.25,10.26,-79.51,-173.93
39109,53.433125,-1.424949,114.89,29.91,4,310.11,22 / 23,3910939,2019-11-08 11:02:28:550,-0.143,0.7494,9.8743,-0.0306,0.0072,9.8065,0.0097,-0.1408,0.1866,0.88,-45.75,35.75,12.01,-79.68,-172.5
39110,53.433125,-1.424949,114.89,29.91,4,310.11,22 / 23,3911039,2019-11-08 11:02:28:650,1.6568,0.6506,9.0346,0.008,0.026,9.8065,-0.0276,-0.182,0.1382,0.44,-45.81,35.5,10.0,-79.65,-172.44
39111,53.433125,-1.424949,114.89,29.91,4,310.11,22 / 23,3911138,2019-11-08 11:02:28:749,-0.2408,1.9432,9.5024,-0.0077,-0.0002,9.8066,0.0825,-0.0927,0.0621,0.63,-45.37,34.94,11.68,-79.8,-172.78
39112,53.433125,-1.424949,114.89,29.91,4,310.11,22 / 23,3911238,2019-11-08 11:02:28:849,-0.1327,0.2257,10.0107,0.0012,-0.0232,9.8066,0.0202,0.0572,0.0046,-0.06,-46.19,35.19,8.95,-79.74,-173.28
39113,53.433125,-1.424949,114.89,29.91,4,310.11,22 / 23,3911338,2019-11-08 11:02:28:949,0.7603,0.3758,10.418,0.0043,-0.0179,9.8065,0.0763,-0.0339,-0.0499,0.88,-45.37,36.06,9.9,-79.61,-174.07
39114,53.433125,-1.424949,114.89,29.91,4,310.11,22 / 23,3911439,2019-11-08 11:02:29:050,-0.6147,0.6644,10.9837,-0.0258,-0.0001,9.8065,0.0634,-0.0121,0.0686,1.06,-45.69,35.44,10.52,-79.67,-173.75
39115,53.433125,-1.424949,114.89,29.91,4,310.11,22 / 23,3911539,2019-11-08 11:02:29:150,1.1039,0.9697,9.353,-0.0009,-0.0201,9.8066,0.0474,-0.0801,0.0097,0.63,-45.56,36.0,10.89,-79.74,-173.33
39116,53.433125,-1.424949,114.89,29.91,4,310.11,22 / 23,3911639,2019-11-08 11:02:29:250,-0.9253,1.892,9.6987,0.0153,-0.0007,9.8066,0.0749,-0.0623,0.0226,0.75,-45.06,35.81,10.1,-79.66,-173.9
39117,53.433125,-1.424949,114.89,29.91,4,310.11,22 / 23,3911739,2019-11-08 11:02:29:350,0.5365,1.3914,8.7866,-0.0104,-0.0101,9.8066,0.0404,-0.0747,0.0592,0.19,-45.81,35.75,8.79,-79.59,-173.38
39118,53.433125,-1.424949,114.89,29.91,4,310.11,22 / 23,3911838,2019-11-08 11:02:29:449,-1.1842,1.7818,11.0095,0.0203,0.0057,9.8066,0.1154,-0.1011,-0.0242,0.06,-45.87,36.0,8.22,-79.73,-173.78
39119,53.433125,-1.424949,114.89,29.91,4,310.11,22 / 23,3911938,2019-11-08 11:02:29:549,0.9362,0.3888,9.6121,-0.0016,-0.0081,9.8066,0.0104,-0.0071,0.061,0.56,-45.75,36.38,10.5,-79.68,-173.65
39120,53.433125,-1.424949,114.89,29.91,4,310.11,22 / 23,3912039,2019-11-08 11:02:29:650,0.6288,1.7428,9.4129,-0.0028,-0.0109,9.8065,-0.0179,-0.0146,-0.0593,0.75,-46.81,36.94,10.41,-79.58,-173.69
39121,53.433125,-1.424949,114.89,29.91,4,310.11,22 / 23,3912139,2019-11-08 11:02:29:750,1.7433,1.7356,8.4247,-0.0034,0.0101,9.8066,-0.0204,0.0102,0.1144,1.63,-47.94,37.69,12.56,-79.61,-173.49
39122,53.433125,-1.424949,114.89,29.91,4,310.11,22 / 23,3912239,2019-11-08 11:02:29:850,-1.5154,-0.0364,10.5326,-0.0224,-0.0242,9.8066,0.0938,-0.2799,0.0809,1.63,-48.44,36.06,13.15,-79.85,-173.29
39123,53.433125,-1.424949,114.89,29.91,4,310.11,22 / 23,3912338,2019-11-08 11:02:29:949,1.1584,0.6865,10.1135,-0.02,-0.0024,9.8066,0.0458,-0.1515,0.0469,1.19,-47.44,34.38,12.1,-79.73,-172.73
39124,53.433125,-1.424949,114.89,29.91,4,310.11,22 / 23,3912438,2019-11-08 11:02:30:049,-0.3661,1.4116,9.8393,-0.0047,0.0073,9.8065,0.0201,0.0022,0.0263,0.63,-46.62,34.25,12.1,-79.63,-172.77
39125,53.433125,-1.424949,114.89,29.91,4,310.11,21 / 22,3912538,2019-11-08 11:02:30:149,-0.2746,1.9207,8.8331,0.0047,-0.0019,9.8066,0.0318,0.0196,0.0066,0.63,-46.37,34.63,11.81,-79.68,-172.78
39126,53.433125,-1.424949,114.89,29.91,4,310.11,21 / 22,3912638,2019-11-08 11:02:30:249,0.1484,0.41,10.3303,0.001,-0.0131,9.8066,-0.0035,0.0767,-0.0042,0.38,-45.44,34.88,9.98,-79.7,-172.46
39127,53.433125,-1.424949,114.89,29.91,4,310.11,21 / 22,3912740,2019-11-08 11:02:30:351,-1.8595,0.8886,9.5961,0.0136,-0.0018,9.8066,0.0311,0.1667,-0.1285,0.63,-46.06,35.5,11.98,-79.69,-172.52
39128,53.433125,-1.424949,114.89,29.91,4,310.11,21 / 22,3912838,2019-11-08 11:02:30:449,-0.3451,0.7433,10.2879,0.019,-0.0029,9.8066,0.0076,0.1738,-0.095,0.56,-45.94,35.0,12.63,-79.65,-172.17
