,GPS LATITUDE (degrees), GPS LONGITUDE (degrees), GPS ALTITUDE (m), GPS SPEED (Kmh), GPS ACCURACY (m), GPS ORIENTATION (Â°),GPS SATELLITES IN RANGE, TIME SINCE START (ms), DATE (YYYY-MO-DD HH-MI-SS_SSS), ACCELEROMETER X (m/s²) , ACCELEROMETER Y (m/s²), ACCELEROMETER Z (m/s²), GRAVITY X (m/s²), GRAVITY Y (m/s²), GRAVITY Z (m/s²), GYROSCOPE Yaw (rad/s), GYROSCOPE Pitch (rad/s), GYROSCOPE Roll (rad/s), MAGNETIC FIELD X (Î¼T), MAGNETIC FIELD Y (Î¼T), MAGNETIC FIELD Z (Î¼T), ORIENTATION (Yaw) (Â°), ORIENTATION (Pitch) (Â°), ORIENTATION (Roll ) (Â°)
11988,52.41009,-1.586461,182.89,0.0,3,175.78,25 / 28,1201722,2019-09-08 10:27:48:346,-0.5744,-0.3872,10.0554,-0.0001,-0.0071,9.8066,0.0038,-0.1075,-0.0136,-27.12,-22.56,37.38,10.74,-84.44,-133.71
11989,52.41009,-1.586461,182.89,0.0,3,175.78,26 / 28,1201822,2019-09-08 10:27:48:446,-0.341,-0.1647,9.8788,0.0056,-0.0065,9.8066,-0.0048,-0.0941,0.0094,-26.87,-22.56,37.19,10.08,-84.43,-134.33
11990,52.410004,-1.586435,183.59,3.13,3,157.32,26 / 28,1201921,2019-09-08 10:27:48:545,0.1405,-0.683,9.8951,0.0032,-0.0145,9.8065,-0.0324,-0.0794,0.0046,-26.81,-22.19,37.56,10.39,-84.4,-134.74
11991,52.410004,-1.586435,183.59,3.13,3,157.32,26 / 28,1202022,2019-09-08 10:27:48:646,0.6908,-0.6288,9.6046,0.0029,-0.006,9.8065,-0.0035,-0.0415,0.0057,-26.31,-22.69,37.44,10.22,-84.31,-135.25
11992,52.410004,-1.586435,183.59,3.13,3,157.32,26 / 28,1202121,2019-09-08 10:27:48:745,0.287,-0.7072,10.2386,0.009,-0.0114,9.8066,-0.0143,-0.013,-0.0017,-26.94,-23.06,38.13,9.01,-84.2,-136.09
11993,52.410004,-1.586435,183.59,3.13,3,157.32,26 / 28,1202222,2019-09-08 10:27:48:846,0.6633,-0.2924,9.7003,0.013,-0.0114,9.8065,-0.04,0.0127,-0.0142,-26.62,-23.12,37.0,7.37,-84.2,-136.92
11994,52.410004,-1.586435,183.59,3.13,3,157.32,26 / 28,1202321,2019-09-08 10:27:48:945,0.1718,-0.3065,9.9591,-0.0016,0.0024,9.8066,0.0403,0.022,-0.0206,-27.0,-22.56,37.38,6.72,-84.15,-137.53
11995,52.410004,-1.586435,183.59,3.13,3,157.32,26 / 28,1202421,2019-09-08 10:27:49:045,0.288,-0.2312,10.2944,0.0066,0.0028,9.8066,0.0215,0.0435,-0.0277,-27.31,-23.0,37.69,6.67,-84.18,-138.3
11996,52.410004,-1.586435,183.59,3.13,3,157.32,26 / 28,1202522,2019-09-08 10:27:49:146,0.383,0.0965,9.5515,0.0032,0.0099,9.8066,-0.0027,0.0757,-0.0252,-27.19,-23.0,37.81,5.72,-84.29,-139.19
11997,52.410004,-1.586435,183.59,3.13,3,157.32,26 / 28,1202622,2019-09-08 10:27:49:246,0.4952,0.4953,9.8397,0.0043,0.0168,9.8066,0.0155,0.1155,-0.0303,-27.25,-23.37,37.5,4.57,-84.45,-140.27
11998,52.410004,-1.586435,183.59,3.13,3,157.32,26 / 28,1202721,2019-09-08 10:27:49:345,0.8582,0.3851,9.9781,0.0142,-0.009,9.8066,-0.0118,0.1279,0.0078,-27.87,-23.31,37.38,1.58,-84.53,-141.39
11999,52.410004,-1.586435,183.59,3.13,3,157.32,26 / 28,1202821,2019-09-08 10:27:49:445,1.0076,0.1791,9.9141,0.0113,-0.0095,9.8066,-0.032,0.1766,-0.0216,-28.56,-22.5,37.0,359.08,-84.46,-142.79
12000,52.410004,-1.586435,183.59,3.13,3,157.32,26 / 28,1202922,2019-09-08 10:27:49:546,1.0969,-0.1789,9.8169,0.0035,-0.0059,9.8066,0.0834,0.1779,0.0064,-28.44,-23.0,37.13,359.16,-84.45,-143.68
12001,52.410004,-1.586435,183.59,3.13,3,157.32,26 / 28,1203021,2019-09-08 10:27:49:645,1.6293,-0.8482,9.8785,0.0036,-0.0017,9.8066,0.0778,0.1759,-0.0189,-28.44,-22.69,37.0,358.15,-84.3,-144.64
12002,52.410004,-1.586435,183.59,3.13,3,157.32,26 / 28,1203121,2019-09-08 10:27:49:745,1.841,-1.1812,9.8683,0.0246,-0.0134,9.8066,0.001,0.1898,-0.0343,-29.12,-22.37,36.75,355.88,-84.22,-145.82
12003,52.410004,-1.586435,183.59,3.13,3,157.32,26 / 28,1203221,2019-09-08 10:27:49:845,2.1136,-1.1339,9.5585,0.0246,-0.0079,9.8066,-0.0333,0.2631,-0.0911,-30.87,-21.69,36.56,350.46,-84.08,-149.09
12004,52.410004,-1.586435,183.59,3.13,3,157.32,26 / 28,1203322,2019-09-08 10:27:49:946,1.5371,0.5555,9.5396,0.0149,0.0153,9.8065,0.0808,0.2816,-0.0982,-31.69,-21.69,36.25,345.04,-84.21,-152.58
12005,52.410004,-1.586435,183.59,3.13,3,157.32,26 / 28,1203421,2019-09-08 10:27:50:045,1.6171,0.3573,10.2754,0.0264,0.0038,9.8065,0.0543,0.2948,-0.1005,-31.25,-21.12,35.25,342.4,-84.24,-155.2
12006,52.410004,-1.586435,183.59,3.13,3,157.32,26 / 28,1203521,2019-09-08 10:27:50:145,2.4562,0.1292,9.3788,0.0101,0.0134,9.8066,0.0271,0.3213,-0.0614,-31.37,-21.56,34.31,337.67,-84.28,-158.83
12007,52.410004,-1.586435,183.59,3.13,3,157.32,26 / 28,1203622,2019-09-08 10:27:50:246,2.1766,0.3727,9.7868,0.0114,0.0156,9.8066,0.0363,0.3464,-0.0966,-31.06,-22.5,32.75,333.81,-84.27,-161.64
12008,52.410004,-1.586435,183.59,3.13,3,157.32,26 / 28,1203721,2019-09-08 10:27:50:345,2.1139,-0.2202,9.736,0.0216,-0.0053,9.8066,0.0139,0.3528,-0.0471,-30.44,-22.69,31.88,331.54,-84.26,-163.75
12009,52.410004,-1.586435,183.59,3.13,3,157.32,26 / 28,1203823,2019-09-08 10:27:50:447,2.3775,0.3767,9.8287,0.019,-0.0025,9.8066,0.0318,0.3605,-0.0532,-29.69,-23.06,32.0,328.95,-84.16,-166.19
12010,52.410004,-1.586435,183.59,3.13,3,157.32,25 / 28,1203921,2019-09-08 10:27:50:545,1.6232,-0.3279,10.7367,0.0108,-0.0072,9.8066,0.1108,0.3459,-0.0443,-29.81,-23.19,32.44,327.51,-84.06,-167.52
12011,52.410004,-1.586435,183.59,3.13,3,157.32,25 / 28,1204022,2019-09-08 10:27:50:646,1.9442,0.2974,9.9823,0.0261,0.0046,9.8066,0.017,0.3928,-0.0876,-30.56,-23.56,32.81,325.0,-84.05,-169.84
12012,52.410004,-1.586435,183.59,3.13,3,157.32,25 / 28,1204122,2019-09-08 10:27:50:746,1.6021,0.0091,10.0474,0.0121,-0.0028,9.8065,0.0374,0.3338,-0.0289,-30.94,-23.19,32.25,322.38,-83.92,-171.46
12013,52.410004,-1.586435,183.59,3.13,3,157.32,25 / 28,1204221,2019-09-08 10:27:50:845,1.7764,0.4385,9.3264,0.0182,-0.0022,9.8066,0.014,0.3636,-0.0553,-31.75,-22.87,32.19,319.13,-83.75,-173.62
12014,52.410004,-1.586435,183.59,3.13,3,157.32,25 / 28,1204321,2019-09-08 10:27:50:945,1.5064,0.1772,10.1522,0.0077,-0.0124,9.8066,0.0179,0.3507,-0.0365,-32.62,-23.19,31.63,318.0,-83.64,-173.82
12015,52.410004,-1.586435,183.59,3.13,3,157.32,25 / 28,1204421,2019-09-08 10:27:51:045,1.6697,0.5154,10.0794,0.0213,-0.0106,9.8065,0.0601,0.3022,-0.0589,-32.56,-23.81,31.38,316.48,-83.41,-174.13
12016,52.410004,-1.586435,183.59,3.13,3,157.32,25 / 28,1204521,2019-09-08 10:27:51:145,1.8333,-0.1781,10.2419,0.0056,-0.0153,9.8066,0.1145,0.3216,-0.0548,-33.37,-23.25,30.81,315.94,-83.29,-174.7
12017,52.410004,-1.586435,183.59,3.13,3,157.32,25 / 28,1204621,2019-09-08 10:27:51:245,0.9621,0.383,10.2788,0.0168,-0.0018,9.8066,-0.0493,0.3183,-0.0824,-33.81,-23.75,29.94,313.62,-83.28,-175.03
12018,52.410004,-1.586435,183.59,3.13,3,157.32,25 / 28,1204722,2019-09-08 10:27:51:346,1.225,0.1262,9.5416,-0.0065,-0.0015,9.8066,-0.0264,0.2522,-0.0219,-33.31,-23.62,29.69,313.88,-83.23,-175.56
12019,52.410004,-1.586435,183.59,3.13,3,157.32,25 / 26,1204822,2019-09-08 10:27:51:446,1.705,0.5083,9.6952,-0.0036,-0.0054,9.8066,0.0378,0.1853,0.0109,-33.69,-23.31,29.0,312.45,-83.14,-175.19
12020,52.410004,-1.586435,183.59,3.13,3,157.32,25 / 26,1204922,2019-09-08 10:27:51:546,1.111,0.1712,10.4344,0.0134,-0.0017,9.8066,0.0886,0.2894,-0.0748,-34.19,-24.19,28.94,311.19,-83.05,-176.25
12021,52.410004,-1.586435,183.59,3.13,3,157.32,25 / 26,1205021,2019-09-08 10:27:51:645,1.0177,-0.32,10.0463,0.0135,0.0177,9.8066,-0.0151,0.2809,-0.0772,-33.81,-23.69,28.13,308.52,-83.1,-177.8
12022,52.410004,-1.586435,183.59,3.13,3,157.32,25 / 26,1205122,2019-09-08 10:27:51:746,1.227,0.0266,10.1507,0.0087,0.008,9.8066,-0.0126,0.1459,0.0338,-34.25,-23.37,27.81,307.38,-83.1,-179.02
12023,52.410004,-1.586435,183.59,3.13,3,157.32,25 / 26,1205221,2019-09-08 10:27:51:845,1.0813,0.4514,9.6005,-0.0038,0.0022,9.8066,0.0521,0.1842,-0.0407,-34.25,-24.5,27.44,304.85,-83.07,179.75
12024,52.410004,-1.586435,183.59,3.13,3,157.32,25 / 26,1205322,2019-09-08 10:27:51:946,1.3514,0.0308,9.7397,0.015,-0.0156,9.8066,0.0173,0.2042,-0.0423,-34.44,-24.31,26.25,302.89,-83.05,178.96
12025,52.410004,-1.586435,183.59,3.13,3,157.32,25 / 26,1205421,2019-09-08 10:27:52:045,0.9845,-0.1695,9.5379,-0.0027,-0.0066,9.8066,0.0141,0.1166,0.0056,-34.25,-24.12,26.5,304.93,-82.91,179.91
12026,52.410004,-1.586435,183.59,3.13,3,157.32,25 / 26,1205521,2019-09-08 10:27:52:145,-1.1478,-0.8157,10.5628,0.0033,-0.0072,9.8066,0.0956,0.2555,-0.1069,-34.37,-24.0,25.44,301.22,-82.76,178.63
12027,52.410004,-1.586435,183.59,3.13,3,157.32,25 / 26,1205621,2019-09-08 10:27:52:245,0.4981,0.6145,9.1956,0.0333,-0.0085,9.8066,-0.0735,0.1291,-0.0102,-35.25,-24.44,25.06,300.33,-82.64,178.56
12028,52.410004,-1.586435,183.59,3.13,3,157.32,25 / 26,1205721,2019-09-08 10:27:52:345,-0.878,1.2934,9.8911,-0.03,0.0161,9.8065,-0.0963,0.1234,-0.0407,-34.94,-24.44,24.63,300.36,-82.6,178.61
12029,52.410004,-1.586435,183.59,3.13,3,157.32,25 / 26,1205822,2019-09-08 10:27:52:446,0.0058,-0.3586,10.38,-0.0179,-0.0038,9.8066,-0.0458,0.0163,0.041,-35.31,-23.94,24.31,300.07,-82.71,179.42
12030,52.410004,-1.586435,183.59,3.13,3,157.32,25 / 26,1205922,2019-09-08 10:27:52:546,-0.8598,0.6395,10.1339,-0.0178,-0.0083,9.8066,-0.136,0.0888,0.0233,-36.25,-23.69,24.19,299.64,-82.67,179.7
12031,52.410004,-1.586435,183.59,3.13,3,157.32,25 / 26,1206021,2019-09-08 10:27:52:645,-0.4584,-0.4279,9.3774,-0.0077,0.0065,9.8066,0.0312,0.0213,-0.002,-36.0,-23.94,24.81,301.8,-82.73,-179.38
12032,52.410004,-1.586435,183.59,3.13,3,157.32,25 / 26,1206122,2019-09-08 10:27:52:746,-0.3701,0.1573,9.525,0.0077,-0.0049,9.8066,0.0628,0.04,-0.0001,-36.44,-23.62,25.19,301.83,-82.59,-179.27
12033,52.410004,-1.586435,183.59,3.13,3,157.32,25 / 26,1206221,2019-09-08 10:27:52:845,-0.3077,-0.1998,9.7904,0.0133,-0.0121,9.8066,-0.0837,-0.0037,-0.0257,-35.94,-23.37,25.81,303.41,-82.52,-178.95
12034,52.410004,-1.586435,183.59,3.13,3,157.32,25 / 26,1206321,2019-09-08 10:27:52:945,-0.4328,0.1355,9.2648,-0.0135,0.0111,9.8066,-0.018,0.0013,-0.0335,-36.19,-24.12,25.63,303.37,-82.45,-178.81
12035,52.410004,-1.586435,183.59,3.13,3,157.32,25 / 26,1206421,2019-09-08 10:27:53:045,-0.3964,0.1668,9.3739,-0.0214,0.0143,9.8065,0.0019,0.0012,-0.0003,-35.87,-23.0,25.63,303.38,-82.59,-179.02
12036,52.410004,-1.586435,183.59,3.13,3,157.32,25 / 26,1206522,2019-09-08 10:27:53:146,-0.9077,-0.4493,9.6078,0.0075,0.0009,9.8066,-0.0503,0.0056,0.0068,-35.37,-23.94,25.44,302.98,-82.6,-178.86
12037,52.410004,-1.586435,183.59,3.13,3,157.32,25 / 26,1206621,2019-09-08 10:27:53:245,-0.7753,-0.3558,9.6125,-0.0012,0.0058,9.8066,0.1042,0.0311,-0.026,-35.25,-24.12,24.31,301.03,-82.61,-179.6
12038,52.410004,-1.586435,183.59,3.13,3,157.32,25 / 26,1206722,2019-09-08 10:27:53:346,-0.8026,0.1723,9.976,0.0163,-0.0117,9.8066,0.1157,-0.0083,0.0199,-34.75,-23.37,24.56,302.05,-82.67,-179.94
12039,52.410004,-1.586435,183.59,3.13,3,157.32,25 / 26,1206822,2019-09-08 10:27:53:446,-0.8314,-0.9111,9.6572,0.0253,-0.0127,9.8066,-0.0643,-0.0002,-0.0027,-34.94,-23.94,24.19,300.86,-82.68,-179.81
12040,52.410004,-1.586435,183.59,3.13,3,157.32,25 / 28,1206922,2019-09-08 10:27:53:546,-0.7725,-0.9925,9.6988,-0.0131,0.0061,9.8066,-0.0034,-0.0339,0.043,-36.25,-23.62,23.81,299.97,-82.5,-179.89
12041,52.410004,-1.586435,183.59,3.13,3,157.32,25 / 28,1207021,2019-09-08 10:27:53:645,-0.074,-0.5942,9.3664,0.0012,0.0151,9.8066,-0.0237,-0.0072,0.0156,-36.06,-23.06,24.38,299.47,-82.53,179.47
12042,52.410004,-1.586435,183.59,3.13,3,157.32,25 / 28,1207122,2019-09-08 10:27:53:746,-0.0413,-0.6288,9.4317,-0.0074,0.0063,9.8066,0.0085,-0.037,0.0634,-36.37,-23.37,23.88,298.58,-82.63,178.55
12043,52.410004,-1.586435,183.59,3.13,3,157.32,25 / 28,1207221,2019-09-08 10:27:53:845,-1.715,2.0478,8.603,-0.0214,0.0049,9.8066,0.1277,-0.1022,0.0958,-36.94,-23.19,24.63,299.72,-82.86,179.07
12044,52.410004,-1.586435,183.59,3.13,3,157.32,25 / 28,1207321,2019-09-08 10:27:53:945,-1.3614,-1.2363,9.8259,0.0025,-0.0562,9.8065,0.2255,-0.1798,0.142,-36.56,-23.44,25.44,303.28,-83.28,-177.69
12045,52.410004,-1.586435,183.59,3.13,3,157.32,25 / 28,1207421,2019-09-08 10:27:54:045,-2.1972,-0.1679,10.151,0.0171,-0.0205,9.8066,-0.0964,-0.0776,-0.0596,-36.81,-23.12,23.94,306.05,-83.39,-173.95
12046,52.410004,-1.586435,183.59,3.13,3,157.32,25 / 28,1207521,2019-09-08 10:27:54:145,-1.9802,-1.0476,10.6205,-0.0042,-0.0188,9.8066,0.1439,-0.1621,0.0568,-36.87,-22.75,24.81,306.95,-83.64,-174.3
12047,52.410004,-1.586435,183.59,3.13,3,157.32,25 / 28,1207621,2019-09-08 10:27:54:245,-3.1148,-1.3592,10.0475,0.0085,0.0003,9.8066,-0.1247,-0.0839,-0.139,-37.31,-23.0,24.38,306.4,-83.54,-173.68
12048,52.410004,-1.586435,183.59,3.13,3,157.32,25 / 28,1207721,2019-09-08 10:27:54:345,-0.8135,-2.3288,9.2877,0.0094,-0.0281,9.8065,-0.0632,-0.1786,0.0002,-37.5,-22.19,24.31,307.14,-83.23,-172.94
12049,52.410004,-1.586435,183.59,3.13,3,157.32,25 / 28,1207821,2019-09-08 10:27:54:445,-1.6719,-2.3974,10.3093,-0.0057,-0.0051,9.8066,-0.1486,0.0339,-0.0258,-37.75,-21.69,25.88,309.76,-83.15,-171.89
12050,52.410004,-1.586435,183.59,3.13,3,157.32,27 / 28,1207921,2019-09-08 10:27:54:545,0.054,-1.6377,11.1536,-0.0018,-0.0014,9.8066,-0.0062,-0.1239,0.0463,-38.37,-22.5,25.63,310.68,-83.26,-171.06
12051,52.410004,-1.586435,183.59,3.13,3,157.32,27 / 28,1208022,2019-09-08 10:27:54:646,-0.4355,-0.9447,9.0786,0.009,-0.0091,9.8066,0.0406,-0.1516,0.0279,-37.94,-21.5,26.69,312.4,-83.32,-170.57
12052,52.410004,-1.586435,183.59,3.13,3,157.32,27 / 28,1208121,2019-09-08 10:27:54:745,-2.1147,-3.4402,9.5006,0.0076,-0.0235,9.8066,0.1702,-0.1875,0.1503,-36.81,-22.25,27.63,313.39,-83.42,-171.26
12053,52.410004,-1.586435,183.59,3.13,3,157.32,27 / 28,1208221,2019-09-08 10:27:54:845,-0.0759,0.9711,10.1842,0.0204,-0.0137,9.8065,-0.0849,-0.2617,0.1869,-36.5,-23.0,27.44,312.47,-83.37,-171.7
12054,52.410004,-1.586435,183.59,3.13,3,157.32,27 / 28,1208321,2019-09-08 10:27:54:945,-1.8173,-0.9899,9.3635,-0.03,0.043,9.8065,-0.1525,-0.1136,0.0482,-35.81,-22.37,27.5,314.69,-83.53,-170.78
12055,52.410004,-1.586435,183.59,3.13,3,157.32,27 / 28,1208422,2019-09-08 10:27:55:046,-2.3351,-4.2824,11.0734,-0.0392,0.0536,9.8064,-0.007,-0.0285,-0.0719,-35.19,-23.75,27.88,314.37,-83.62,-171.66
12056,52.410004,-1.586435,183.59,3.13,3,157.32,27 / 28,1208521,2019-09-08 10:27:55:145,2.5721,-3.083,9.2835,0.0188,0.0404,9.8065,-0.2005,-0.2351,-0.2056,-35.25,-23.25,28.0,313.74,-83.63,-172.38
12057,52.410004,-1.586435,183.59,3.13,3,157.32,27 / 28,1208622,2019-09-08 10:27:55:246,-0.9943,0.0573,10.4267,-0.0009,0.0063,9.8066,-0.0179,-0.1489,-0.1832,-34.31,-23.31,28.56,311.83,-83.82,-176.09
12058,52.410004,-1.586435,183.59,3.13,3,157.32,27 / 28,1208721,2019-09-08 10:27:55:345,-1.5599,-1.8692,10.3737,0.022,-0.023,9.8066,-0.0083,-0.3561,-0.0369,-34.69,-24.37,28.25,307.83,-83.98,-178.12
12059,52.410004,-1.586435,183.59,3.13,3,157.32,27 / 28,1208822,2019-09-08 10:27:55:446,0.1223,-1.7705,8.9225,-0.0023,-0.0394,9.8065,0.0941,-0.3482,0.0846,-34.44,-23.94,28.75,311.3,-83.95,-176.56
12060,52.410004,-1.586435,183.59,3.13,3,157.32,27 / 28,1208922,2019-09-08 10:27:55:546,-4.0575,-0.8074,9.3732,-0.0105,0.0021,9.8066,0.1304,-0.1522,0.018,-34.31,-23.62,28.88,312.2,-84.11,-175.76
12061,52.410004,-1.586435,183.59,3.13,3,157.32,27 / 28,1209021,2019-09-08 10:27:55:645,-1.0527,-3.114,8.6024,-0.0075,0.0144,9.8066,-0.1097,-0.0781,0.0168,-33.94,-24.5,28.94,312.24,-84.23,-175.78
12062,52.410004,-1.586435,183.59,3.13,3,157.32,27 / 28,1209121,2019-09-08 10:27:55:745,-1.3681,-1.4235,11.1484,0.0017,-0.0007,9.8066,-0.1843,-0.2104,0.0906,-33.81,-24.06,29.06,312.01,-84.33,-176.05
12063,52.410004,-1.586435,183.59,3.13,3,157.32,27 / 28,1209221,2019-09-08 10:27:55:845,0.4558,-1.4184,9.5961,0.0154,-0.0447,9.8065,-0.0081,-0.3271,0.1539,-33.87,-23.5,29.75,315.04,-84.19,-174.15
12064,52.410004,-1.586435,183.59,3.13,3,157.32,27 / 28,1209321,2019-09-08 10:27:55:945,-1.2107,-2.0225,9.9291,-0.0569,0.0115,9.8064,-0.0503,-0.2766,-0.0048,-34.56,-24.0,30.06,315.82,-84.17,-172.52
12065,52.410004,-1.586435,183.59,3.13,3,157.32,27 / 28,1209421,2019-09-08 10:27:56:045,-0.3372,-4.4441,9.1389,-0.0359,0.0257,9.8065,-0.1696,-0.2354,0.0272,-33.25,-23.87,31.0,321.84,-84.41,-169.41
12066,52.410004,-1.586435,183.59,3.13,3,157.32,27 / 28,1209521,2019-09-08 10:27:56:145,-1.7337,-1.21,10.0754,-0.0127,0.0044,9.8066,-0.1012,-0.3106,0.0988,-33.0,-23.56,32.13,324.41,-84.43,-167.89
12067,52.410004,-1.586435,183.59,3.13,3,157.32,27 / 28,1209621,2019-09-08 10:27:56:245,-1.5167,-1.5956,9.6194,-0.0191,0.0043,9.8066,0.0842,-0.2923,0.0911,-32.31,-23.5,31.88,326.85,-84.47,-166.49
12068,52.410004,-1.586435,183.59,3.13,3,157.32,27 / 28,1209722,2019-09-08 10:27:56:346,-1.9884,-1.8081,9.93,0.0024,-0.0155,9.8066,0.0436,-0.296,0.0623,-32.0,-23.37,32.81,328.05,-84.55,-166.27
12069,52.410004,-1.586435,183.59,3.13,3,157.32,27 / 28,1209822,2019-09-08 10:27:56:446,-3.0953,-1.7568,10.016,0.0038,-0.0137,9.8066,-0.033,-0.3489,0.0592,-32.0,-23.37,33.63,330.86,-84.46,-164.44
12070,52.410004,-1.586435,183.59,3.13,3,157.32,25 / 28,1209921,2019-09-08 10:27:56:545,-2.5838,-2.5464,10.2021,-0.0151,0.0003,9.8065,0.0482,-0.4169,0.1306,-31.94,-23.06,33.88,332.64,-84.42,-162.72
12071,52.410004,-1.586435,183.59,3.13,3,157.32,25 / 28,1210021,2019-09-08 10:27:56:645,-1.9572,-2.8001,9.5479,-0.0138,0.0167,9.8066,-0.0933,-0.3661,0.0192,-30.5,-23.0,33.88,336.07,-84.57,-161.3
12072,52.410004,-1.586435,183.59,3.13,3,157.32,25 / 28,1210122,2019-09-08 10:27:56:746,-1.6935,-1.5628,9.9436,-0.0027,0.0069,9.8066,-0.1264,-0.4571,0.0438,-30.12,-23.31,34.19,336.27,-84.71,-161.13
12073,52.410004,-1.586435,183.59,3.13,3,157.32,25 / 28,1210222,2019-09-08 10:27:56:846,-1.9699,-1.042,10.3083,-0.0169,0.0152,9.8065,0.0396,-0.4704,0.0664,-29.87,-23.44,34.94,337.73,-84.86,-160.62
12074,52.410004,-1.586435,183.59,3.13,3,157.32,25 / 28,1210322,2019-09-08 10:27:56:946,-2.3465,-1.7215,10.1889,0.0007,-0.01,9.8066,0.0503,-0.4104,0.0577,-28.94,-23.37,34.75,339.49,-85.05,-159.92
12075,52.410004,-1.586435,183.59,3.13,3,157.32,25 / 28,1210422,2019-09-08 10:27:57:046,-1.4344,-2.5895,9.8184,0.0139,-0.0134,9.8066,-0.0774,-0.3562,0.0401,-28.75,-23.56,35.56,340.9,-85.03,-159.34
12076,52.410004,-1.586435,183.59,3.13,3,157.32,25 / 28,1210522,2019-09-08 10:27:57:146,-2.1021,-1.639,9.8654,-0.0131,0.0154,9.8066,-0.0216,-0.3863,0.0567,-28.06,-23.69,36.13,342.19,-85.09,-159.09
12077,52.410004,-1.586435,183.59,3.13,3,157.32,25 / 28,1210621,2019-09-08 10:27:57:245,-2.2357,-1.3023,10.4132,-0.0069,0.012,9.8065,0.0415,-0.3429,0.0188,-27.31,-23.44,37.06,344.39,-85.18,-158.79
12078,52.410004,-1.586435,183.59,3.13,3,157.32,25 / 28,1210721,2019-09-08 10:27:57:345,-1.426,-2.4183,9.6716,0.0009,-0.0119,9.8066,-0.0406,-0.3901,0.0306,-26.37,-23.44,36.56,345.69,-85.1,-158.55
12079,52.410004,-1.586435,183.59,3.13,3,157.32,28 / 30,1210823,2019-09-08 10:27:57:447,-1.6459,-1.6415,9.3763,-0.0109,-0.006,9.8066,0.0288,-0.3633,0.0742,-26.06,-22.94,36.94,347.1,-85.1,-157.2
12080,52.409737,-1.585814,185.72,6.12,3,156.06,28 / 30,1210921,2019-09-08 10:27:57:545,-1.453,-2.1696,10.1052,-0.034,-0.0044,9.8066,-0.0189,-0.3917,0.0935,-25.5,-23.06,37.69,350.44,-85.02,-155.77
12081,52.409737,-1.585814,185.72,6.12,3,156.06,28 / 30,1211022,2019-09-08 10:27:57:646,-1.9519,-1.9351,10.0446,-0.0057,-0.0148,9.8066,-0.0331,-0.343,0.0213,-24.19,-23.62,37.75,356.31,-84.98,-151.23
12082,52.409737,-1.585814,185.72,6.12,3,156.06,28 / 30,1211121,2019-09-08 10:27:57:745,-1.7151,-1.4964,9.8826,-0.0121,0.0057,9.8066,0.0244,-0.3249,0.0355,-24.44,-24.0,37.44,355.73,-85.05,-151.08
12083,52.409737,-1.585814,185.72,6.12,3,156.06,28 / 30,1211221,2019-09-08 10:27:57:845,-1.5845,-1.198,9.7695,-0.0081,-0.0014,9.8065,-0.0082,-0.3286,0.0387,-24.06,-23.37,37.38,357.43,-85.02,-149.47
12084,52.409737,-1.585814,185.72,6.12,3,156.06,28 / 30,1211321,2019-09-08 10:27:57:945,-0.8946,-1.8666,9.3788,-0.0096,-0.0021,9.8066,0.0212,-0.2914,0.0445,-23.62,-23.56,37.75,358.92,-84.91,-148.75
12085,52.409737,-1.585814,185.72,6.12,3,156.06,28 / 30,1211421,2019-09-08 10:27:58:045,-0.9768,-1.9252,9.823,-0.0172,0.0002,9.8066,0.0574,-0.2817,0.0439,-23.06,-23.5,37.75,2.14,-84.78,-146.79
12086,52.409737,-1.585814,185.72,6.12,3,156.06,28 / 30,1211522,2019-09-08 10:27:58:146,-1.0068,-1.9604,9.8032,-0.0123,-0.0248,9.8065,-0.0972,-0.2287,0.0289,-22.5,-23.31,38.13,4.42,-84.69,-145.75
12087,52.409737,-1.585814,185.72,6.12,3,156.06,28 / 30,1211622,2019-09-08 10:27:58:246,-1.4943,-1.4293,9.9496,-0.0006,-0.002,9.8066,-0.0606,-0.2873,0.0457,-22.69,-23.94,38.06,4.78,-84.53,-144.3
12088,52.409737,-1.585814,185.72,6.12,3,156.06,28 / 30,1211722,2019-09-08 10:27:58:346,-0.311,-1.2719,9.5591,0.0038,-0.001,9.8066,0.0339,-0.2514,0.0533,-22.12,-23.12,37.75,6.24,-84.44,-144.04
12089,52.409737,-1.585814,185.72,6.12,3,156.06,25 / 26,1211821,2019-09-08 10:27:58:445,-0.213,-1.7776,9.5209,-0.0098,-0.0059,9.8066,0.0519,-0.2046,0.032,-21.06,-23.69,37.56,7.61,-84.31,-143.92
12090,52.409737,-1.585814,185.72,6.12,3,156.06,25 / 26,1211921,2019-09-08 10:27:58:545,-0.5413,-1.6662,9.7887,-0.0052,-0.0124,9.8065,-0.0281,-0.2041,0.0506,-21.56,-23.75,38.0,6.76,-84.18,-143.58
12091,52.409737,-1.585814,185.72,6.12,3,156.06,25 / 26,1212022,2019-09-08 10:27:58:646,-1.0785,-1.4535,9.328,-0.0055,-0.0017,9.8066,-0.0512,-0.1758,0.0259,-20.94,-23.62,38.0,8.59,-84.03,-143.02
12092,52.409737,-1.585814,185.72,6.12,3,156.06,25 / 26,1212122,2019-09-08 10:27:58:746,-0.4643,-0.9828,10.0137,-0.0086,0.0005,9.8066,-0.0086,-0.1459,-0.0143,-20.12,-23.69,38.31,10.39,-84.04,-142.51
12093,52.409737,-1.585814,185.72,6.12,3,156.06,25 / 26,1212222,2019-09-08 10:27:58:846,-0.0603,-1.0601,10.036,0.0007,0.0108,9.8066,-0.0099,-0.1246,-0.0092,-20.31,-24.06,37.69,11.09,-84.1,-141.84
12094,52.409737,-1.585814,185.72,6.12,3,156.06,25 / 26,1212322,2019-09-08 10:27:58:946,0.0976,-1.7913,9.744,0.0042,-0.0064,9.8066,-0.0527,-0.0523,-0.0282,-19.94,-23.31,38.56,11.07,-84.05,-142.43
12095,52.409737,-1.585814,185.72,6.12,3,156.06,25 / 26,1212422,2019-09-08 10:27:59:046,0.3325,-1.3805,9.3738,0.0087,-0.0089,9.8066,-0.0778,-0.0733,0.0313,-19.62,-24.31,38.44,9.8,-84.08,-143.06
12096,52.409737,-1.585814,185.72,6.12,3,156.06,25 / 26,1212521,2019-09-08 10:27:59:145,0.652,-0.5707,9.8511,-0.002,0.0054,9.8066,0.0675,-0.097,0.06,-20.06,-23.81,38.69,10.34,-84.04,-143.15
12097,52.409737,-1.585814,185.72,6.12,3,156.06,25 / 26,1212622,2019-09-08 10:27:59:246,-0.7333,-1.2351,10.4507,-0.0178,-0.0064,9.8066,0.0696,-0.003,0.0018,-18.87,-23.19,39.06,12.99,-83.98,-141.82
12098,52.409737,-1.585814,185.72,6.12,3,156.06,25 / 26,1212721,2019-09-08 10:27:59:345,0.184,-1.377,9.6159,-0.0037,0.0095,9.8066,-0.0053,-0.0558,0.0061,-19.06,-23.62,38.38,12.97,-84.09,-141.28
12099,52.409737,-1.585814,185.72,6.12,3,156.06,26 / 28,1212821,2019-09-08 10:27:59:445,-1.1012,-0.4111,9.783,0.0064,-0.0025,9.8066,-0.0669,-0.0685,0.0445,-19.25,-23.19,38.69,13.28,-84.12,-141.53
12100,52.409737,-1.585814,185.72,6.12,3,156.06,26 / 28,1212922,2019-09-08 10:27:59:546,0.3821,-0.5646,9.7834,0.0058,0.0166,9.8066,0.0687,-0.0427,-0.0078,-18.69,-24.06,38.38,13.02,-84.21,-141.21
12101,52.409737,-1.585814,185.72,6.12,3,156.06,26 / 28,1213022,2019-09-08 10:27:59:646,-0.1771,-1.1822,9.8691,0.0176,0.0061,9.8066,0.0239,-0.0652,0.0158,-19.69,-23.69,38.19,10.1,-84.39,-142.74
12102,52.409737,-1.585814,185.72,6.12,3,156.06,26 / 28,1213122,2019-09-08 10:27:59:746,0.3848,-0.1647,9.9883,0.0076,0.0101,9.8066,0.0249,-0.0117,-0.0348,-18.69,-23.69,38.63,10.79,-84.48,-143.85
12103,52.409737,-1.585814,185.72,6.12,3,156.06,26 / 28,1213222,2019-09-08 10:27:59:846,0.3363,0.1512,9.9576,0.008,0.0218,9.8066,0.0702,-0.0134,-0.0205,-19.62,-23.81,38.0,6.77,-84.59,-145.86
12104,52.409737,-1.585814,185.72,6.12,3,156.06,26 / 28,1213322,2019-09-08 10:27:59:946,0.6643,-0.3349,9.9648,0.0168,-0.0191,9.8065,-0.044,-0.031,0.0313,-19.25,-23.31,39.25,5.8,-84.5,-148.54
12105,52.409737,-1.585814,185.72,6.12,3,156.06,26 / 28,1213421,2019-09-08 10:28:00:045,0.2161,-0.2801,9.9048,0.0115,0.0026,9.8065,-0.013,0.0333,-0.0464,-19.31,-24.06,38.19,4.23,-84.57,-149.45
12106,52.409737,-1.585814,185.72,6.12,3,156.06,26 / 28,1213521,2019-09-08 10:28:00:145,1.2715,-0.1287,9.9882,0.0191,-0.0076,9.8065,0.015,0.0503,-0.0356,-19.69,-23.56,38.38,1.37,-84.6,-150.95
12107,52.409737,-1.585814,185.72,6.12,3,156.06,26 / 28,1213622,2019-09-08 10:28:00:246,0.6969,-0.9241,10.1038,0.0171,-0.0237,9.8065,0.0121,0.0682,-0.0243,-19.5,-24.06,38.13,0.09,-84.5,-153.35
12108,52.409737,-1.585814,185.72,6.12,3,156.06,26 / 28,1213722,2019-09-08 10:28:00:346,0.259,0.6261,9.8229,-0.0012,0.0216,9.8065,-0.024,0.1125,-0.0759,-19.19,-23.44,37.94,358.29,-84.49,-155.05
12109,52.409737,-1.585814,185.72,6.12,3,156.06,27 / 29,1213821,2019-09-08 10:28:00:445,0.7819,-0.2602,9.6596,0.0018,0.0219,9.8066,0.0102,0.1054,-0.0179,-18.81,-23.12,38.31,356.95,-84.63,-156.31
12110,52.409737,-1.585814,185.72,6.12,3,156.06,27 / 29,1213921,2019-09-08 10:28:00:545,1.3259,0.3708,9.9489,0.0145,-0.0001,9.8066,0.0372,0.0762,0.013,-18.62,-23.44,38.19,354.98,-84.61,-158.17
12111,52.409737,-1.585814,185.72,6.12,3,156.06,27 / 29,1214021,2019-09-08 10:28:00:645,1.283,1.3024,9.511,0.0056,-0.0021,9.8066,0.0115,0.1299,-0.0075,-18.69,-23.0,38.81,354.94,-84.63,-158.81
12112,52.409737,-1.585814,185.72,6.12,3,156.06,27 / 29,1214122,2019-09-08 10:28:00:746,0.4688,1.2519,10.5641,-0.0039,-0.0059,9.8066,0.0191,0.1444,-0.0496,-18.56,-23.25,37.94,355.23,-84.61,-157.94
12113,52.409737,-1.585814,185.72,6.12,3,156.06,27 / 29,1214222,2019-09-08 10:28:00:846,0.0697,-0.384,10.6783,0.0197,-0.0201,9.8065,-0.0019,0.0818,0.0015,-19.87,-23.06,36.94,352.3,-84.6,-158.88
12114,52.409737,-1.585814,185.72,6.12,3,156.06,27 / 29,1214321,2019-09-08 10:28:00:945,1.4238,0.5607,9.987,-0.0073,0.0382,9.8065,0.0193,0.1226,0.0452,-19.81,-23.12,37.56,351.93,-84.67,-159.88
12115,52.409737,-1.585814,185.72,6.12,3,156.06,27 / 29,1214421,2019-09-08 10:28:01:045,-0.374,-0.7487,10.5703,-0.0244,0.0364,9.8065,0.2032,0.0115,0.0727,-20.31,-23.69,37.69,352.5,-84.93,-159.34
12116,52.409737,-1.585814,185.72,6.12,3,156.06,27 / 29,1214521,2019-09-08 10:28:01:145,0.8703,0.9337,10.0505,0.0299,-0.0192,9.8066,-0.0812,0.1639,-0.0558,-21.56,-23.12,37.5,347.91,-84.72,-161.4
12117,52.409737,-1.585814,185.72,6.12,3,156.06,27 / 29,1214622,2019-09-08 10:28:01:246,1.7382,1.9583,9.8325,0.0073,0.0168,9.8065,-0.0017,0.0589,0.0117,-20.62,-24.0,37.38,347.29,-84.85,-162.44
12118,52.409737,-1.585814,185.72,6.12,3,156.06,27 / 29,1214721,2019-09-08 10:28:01:345,1.9304,1.3362,9.4763,0.0203,-0.0164,9.8066,-0.0472,0.0883,0.0446,-21.37,-23.25,36.94,346.97,-84.92,-162.79
12119,52.409737,-1.585814,185.72,6.12,3,156.06,25 / 27,1214821,2019-09-08 10:28:01:445,1.4161,0.3252,10.5543,-0.0089,-0.0183,9.8065,-0.137,0.1088,-0.1079,-20.69,-23.06,36.81,348.17,-84.75,-161.62
12120,52.409737,-1.585814,185.72,6.12,3,156.06,25 / 27,1214922,2019-09-08 10:28:01:546,0.7172,0.4082,9.3548,0.0163,0.004,9.8066,-0.0396,0.1455,-0.1577,-22.12,-23.81,36.13,345.48,-84.8,-162.29
12121,52.409737,-1.585814,185.72,6.12,3,156.06,25 / 27,1215021,2019-09-08 10:28:01:645,2.0011,1.0272,9.4874,0.0165,0.0,9.8065,-0.0412,0.1786,-0.0922,-22.56,-23.06,36.31,342.54,-84.92,-164.0
12122,52.409737,-1.585814,185.72,6.12,3,156.06,25 / 27,1215122,2019-09-08 10:28:01:746,0.352,1.3115,10.2727,-0.0145,0.0153,9.8066,0.0877,0.1927,-0.0408,-23.31,-23.75,36.0,342.13,-85.0,-164.37
12123,52.409737,-1.585814,185.72,6.12,3,156.06,25 / 27,1215222,2019-09-08 10:28:01:846,1.0774,1.3768,9.5622,-0.0016,0.0116,9.8066,0.0368,0.1245,-0.0019,-24.5,-23.19,36.13,340.89,-85.06,-164.5
12124,52.409737,-1.585814,185.72,6.12,3,156.06,25 / 27,1215322,2019-09-08 10:28:01:946,1.0035,0.5029,10.252,0.015,-0.018,9.8066,-0.0238,0.1702,-0.0148,-24.37,-23.06,36.94,341.49,-85.03,-164.65
12125,52.409737,-1.585814,185.72,6.12,3,156.06,25 / 27,1215421,2019-09-08 10:28:02:045,1.4054,0.6689,9.7796,0.0207,-0.012,9.8066,-0.019,0.1867,-0.0098,-25.12,-23.31,36.56,338.38,-84.87,-166.53
12126,52.409737,-1.585814,185.72,6.12,3,156.06,25 / 27,1215522,2019-09-08 10:28:02:146,0.6594,0.1155,10.1147,-0.0101,-0.0048,9.8066,0.0851,0.1805,0.0012,-24.69,-23.37,37.5,339.66,-84.83,-166.02
12127,52.409737,-1.585814,185.72,6.12,3,156.06,25 / 27,1215621,2019-09-08 10:28:02:245,1.1496,0.3484,9.6279,0.0052,-0.0179,9.8066,0.043,0.1697,0.0088,-25.0,-23.81,37.19,339.19,-84.66,-165.66
12128,52.409737,-1.585814,185.72,6.12,3,156.06,25 / 27,1215721,2019-09-08 10:28:02:345,1.016,0.9272,9.8651,-0.0076,0.0064,9.8066,0.0705,0.1716,-0.0125,-25.37,-24.0,37.06,339.53,-84.57,-165.33
12129,52.409737,-1.585814,185.72,6.12,3,156.06,25 / 27,1215822,2019-09-08 10:28:02:446,0.6676,0.6611,10.0239,-0.0078,0.0016,9.8066,0.0456,0.1529,-0.0043,-24.94,-23.87,37.38,340.45,-84.55,-164.44
12130,52.409737,-1.585814,185.72,6.12,3,156.06,26 / 29,1215922,2019-09-08 10:28:02:546,1.1412,0.63,9.4526,0.0056,-0.0051,9.8066,-0.0285,0.1553,0.0105,-25.87,-23.81,36.06,338.73,-84.5,-164.26
12131,52.409737,-1.585814,185.72,6.12,3,156.06,26 / 29,1216021,2019-09-08 10:28:02:645,0.7065,0.6642,9.6496,-0.0105,-0.0178,9.8066,-0.0194,0.1708,0.0171,-25.62,-23.25,36.81,340.93,-84.37,-162.96
12132,52.409737,-1.585814,185.72,6.12,3,156.06,26 / 29,1216121,2019-09-08 10:28:02:745,0.9326,1.3075,9.897,0.0051,-0.0101,9.8066,-0.0142,0.1709,-0.0275,-25.87,-23.5,36.0,341.52,-84.29,-161.62
12133,52.409737,-1.585814,185.72,6.12,3,156.06,26 / 29,1216221,2019-09-08 10:28:02:845,1.5283,0.5844,9.7324,-0.002,-0.008,9.8066,0.0071,0.2075,-0.0536,-27.12,-23.56,35.44,339.32,-84.24,-161.83
12134,52.409737,-1.585814,185.72,6.12,3,156.06,26 / 29,1216321,2019-09-08 10:28:02:945,1.1539,0.4623,9.2866,-0.0077,-0.0033,9.8066,0.0227,0.1415,-0.0107,-27.0,-22.5,36.25,340.12,-84.25,-161.97
12135,52.409737,-1.585814,185.72,6.12,3,156.06,26 / 29,1216422,2019-09-08 10:28:03:046,0.6574,0.8797,10.0402,-0.0124,0.0118,9.8065,0.0956,0.1539,-0.0258,-27.62,-22.19,36.75,341.15,-84.28,-160.77
12136,52.409737,-1.585814,185.72,6.12,3,156.06,26 / 29,1216521,2019-09-08 10:28:03:145,1.0861,0.7396,9.5382,-0.0107,0.0086,9.8066,-0.0174,0.1665,-0.0224,-26.94,-21.12,35.69,341.45,-84.23,-160.74
12137,52.409737,-1.585814,185.72,6.12,3,156.06,26 / 29,1216622,2019-09-08 10:28:03:246,0.5791,0.4245,9.6217,-0.0021,0.0164,9.8066,0.0206,0.1342,-0.0221,-26.44,-21.19,36.56,343.63,-84.37,-160.46
12138,52.409737,-1.585814,185.72,6.12,3,156.06,26 / 29,1216721,2019-09-08 10:28:03:345,0.8972,0.8248,9.8402,0.0047,-0.0031,9.8066,-0.0237,0.2111,-0.0187,-26.69,-21.94,36.19,340.81,-84.42,-161.34
12139,52.409737,-1.585814,185.72,6.12,3,156.06,26 / 28,1216821,2019-09-08 10:28:03:445,0.252,0.5573,9.9523,0.0022,-0.0016,9.8066,0.0075,0.1462,0.0235,-25.56,-21.56,35.69,341.46,-84.44,-161.75
12140,52.409737,-1.585814,185.72,6.12,3,156.06,26 / 28,1216922,2019-09-08 10:28:03:546,1.0035,0.1138,10.0406,0.006,-0.0111,9.8066,-0.0462,0.1472,-0.0045,-26.31,-22.25,35.5,341.2,-84.44,-161.99
12141,52.409737,-1.585814,185.72,6.12,3,156.06,26 / 28,1217021,2019-09-08 10:28:03:645,0.8743,0.3934,9.3791,0.0084,-0.0016,9.8066,-0.0374,0.1379,0.0129,-26.75,-22.62,34.56,338.54,-84.41,-162.66
12142,52.409737,-1.585814,185.72,6.12,3,156.06,26 / 28,1217121,2019-09-08 10:28:03:745,1.2151,0.1141,9.7997,-0.003,0.004,9.8066,0.0086,0.127,0.0025,-26.5,-22.37,34.13,339.23,-84.4,-162.26
12143,52.409737,-1.585814,185.72,6.12,3,156.06,26 / 28,1217222,2019-09-08 10:28:03:846,0.7463,0.2668,9.7769,-0.0071,0.0095,9.8066,0.0506,0.1202,0.0132,-27.25,-22.31,34.31,338.65,-84.44,-161.78
12144,52.409737,-1.585814,185.72,6.12,3,156.06,26 / 28,1217321,2019-09-08 10:28:03:945,0.2153,0.6031,10.2566,0.0105,-0.0014,9.8066,-0.0599,0.0967,-0.0015,-27.62,-22.25,34.0,336.75,-84.4,-162.57
12145,52.409737,-1.585814,185.72,6.12,3,156.06,26 / 28,1217421,2019-09-08 10:28:04:045,0.7174,0.5349,9.5675,0.0075,-0.0029,9.8066,-0.0754,0.1408,-0.0242,-28.06,-22.62,34.0,336.79,-84.41,-162.49
12146,52.409737,-1.585814,185.72,6.12,3,156.06,26 / 28,1217522,2019-09-08 10:28:04:146,0.1192,0.3254,9.8945,-0.0105,0.0012,9.8066,0.0183,0.1372,-0.0275,-28.5,-22.94,33.75,336.5,-84.48,-162.78
12147,52.409737,-1.585814,185.72,6.12,3,156.06,26 / 28,1217621,2019-09-08 10:28:04:245,0.9157,-0.1304,9.6371,-0.0048,0.0142,9.8066,0.0482,0.1293,-0.0295,-28.56,-23.06,34.0,335.7,-84.6,-162.59
12148,52.409737,-1.585814,185.72,6.12,3,156.06,26 / 28,1217721,2019-09-08 10:28:04:345,0.4875,0.7352,9.1901,-0.0214,0.0482,9.8065,0.1939,0.0001,0.1008,-29.69,-23.87,33.31,332.18,-84.6,-164.09
12149,52.409737,-1.585814,185.72,6.12,3,156.06,24 / 25,1217822,2019-09-08 10:28:04:446,1.16,-0.4477,9.7919,-0.0457,0.0508,9.8064,0.2745,0.1211,-0.0318,-28.87,-24.0,33.13,333.74,-84.93,-163.64
12150,52.409737,-1.585814,185.72,6.12,3,156.06,24 / 25,1217922,2019-09-08 10:28:04:546,1.0551,-0.3422,9.8799,0.0072,0.0028,9.8066,-0.0588,0.105,-0.0346,-29.5,-24.06,32.69,331.62,-84.85,-165.64
12151,52.409737,-1.585814,185.72,6.12,3,156.06,24 / 25,1218021,2019-09-08 10:28:04:645,-0.3061,1.006,10.6863,0.004,0.0047,9.8066,0.0139,0.0839,-0.0462,-29.31,-23.75,32.31,330.06,-84.86,-166.23
12152,52.409737,-1.585814,185.72,6.12,3,156.06,24 / 25,1218121,2019-09-08 10:28:04:745,1.2951,0.6073,10.6899,0.035,-0.0102,9.8065,-0.16,0.1117,-0.0567,-29.12,-24.19,32.81,330.18,-84.91,-167.03
12153,52.409737,-1.585814,185.72,6.12,3,156.06,24 / 25,1218222,2019-09-08 10:28:04:846,0.4095,1.222,9.2719,0.0282,-0.017,9.8066,-0.1436,0.1467,-0.0835,-29.31,-24.87,32.56,327.34,-84.79,-169.65
12154,52.409737,-1.585814,185.72,6.12,3,156.06,24 / 25,1218322,2019-09-08 10:28:04:946,1.3206,0.4421,10.2682,0.0097,0.0021,9.8066,0.0894,0.1684,-0.0581,-29.56,-23.5,32.63,325.22,-84.84,-170.88
12155,52.409737,-1.585814,185.72,6.12,3,156.06,24 / 25,1218422,2019-09-08 10:28:05:046,1.2789,0.5019,10.0769,0.0188,0.0038,9.8065,0.0421,0.1453,-0.0132,-30.19,-24.44,32.06,321.65,-84.82,-173.33
12156,52.409737,-1.585814,185.72,6.12,3,156.06,24 / 25,1218521,2019-09-08 10:28:05:145,1.1506,0.7358,9.8484,-0.0029,0.0163,9.8066,0.1088,0.1815,0.014,-30.44,-24.62,31.88,319.81,-84.94,-175.07
12157,52.409737,-1.585814,185.72,6.12,3,156.06,24 / 25,1218621,2019-09-08 10:28:05:245,1.3838,1.1579,9.0346,-0.0082,0.0252,9.8066,0.125,0.2076,-0.0104,-30.06,-24.37,31.13,317.64,-84.9,-176.27
12158,52.409737,-1.585814,185.72,6.12,3,156.06,24 / 25,1218722,2019-09-08 10:28:05:346,0.7101,1.37,10.4112,0.0078,-0.0183,9.8065,0.008,0.1813,-0.0261,-31.06,-24.81,31.0,317.51,-84.73,-175.34
12159,52.409737,-1.585814,185.72,6.12,3,156.06,24 / 25,1218822,2019-09-08 10:28:05:446,0.418,0.9695,10.06,0.0178,-0.0059,9.8065,0.0097,0.2496,-0.0161,-30.56,-24.87,31.13,318.16,-84.66,-174.68
12160,52.409737,-1.585814,185.72,6.12,3,156.06,28 / 29,1218921,2019-09-08 10:28:05:545,1.0575,0.7384,9.5151,-0.0072,0.003,9.8066,0.0034,0.2617,-0.06,-31.5,-24.19,30.88,317.27,-84.59,-175.59
12161,52.409737,-1.585814,185.72,6.12,3,156.06,28 / 29,1219022,2019-09-08 10:28:05:646,0.5165,0.875,10.2052,0.001,-0.0072,9.8066,-0.0149,0.1576,0.0022,-31.69,-24.25,30.0,315.19,-84.6,-175.75
12162,52.409737,-1.585814,185.72,6.12,3,156.06,28 / 29,1219121,2019-09-08 10:28:05:745,1.6237,1.0989,9.531,0.002,0.0189,9.8066,0.0239,0.1438,0.0345,-31.56,-23.87,29.88,315.26,-84.68,-175.72
12163,52.409737,-1.585814,185.72,6.12,3,156.06,28 / 29,1219221,2019-09-08 10:28:05:845,1.7796,0.9006,10.1307,-0.0103,0.0015,9.8066,0.0593,0.2291,-0.041,-32.56,-24.0,30.13,313.6,-84.74,-176.5
12164,52.409737,-1.585814,185.72,6.12,3,156.06,28 / 29,1219322,2019-09-08 10:28:05:946,0.909,0.5966,9.7434,-0.0029,0.0013,9.8066,0.012,0.2208,-0.028,-31.87,-23.81,29.63,314.37,-84.68,-176.58
12165,52.409737,-1.585814,185.72,6.12,3,156.06,28 / 29,1219421,2019-09-08 10:28:06:045,1.289,0.9725,9.8006,0.0059,0.008,9.8066,0.0035,0.1895,-0.0161,-31.81,-23.56,29.63,313.43,-84.56,-177.43
12166,52.409737,-1.585814,185.72,6.12,3,156.06,28 / 29,1219522,2019-09-08 10:28:06:146,1.1887,-0.1502,10.3453,0.0164,-0.0045,9.8066,0.0785,0.1622,-0.0037,-32.44,-24.37,29.06,311.56,-84.34,-178.12
12167,52.409737,-1.585814,185.72,6.12,3,156.06,28 / 29,1219622,2019-09-08 10:28:06:246,1.1427,0.5966,10.1416,0.0186,-0.0106,9.8066,0.0069,0.1489,-0.0228,-32.25,-23.81,28.5,310.83,-84.21,-178.77
12168,52.409737,-1.585814,185.72,6.12,3,156.06,28 / 29,1219722,2019-09-08 10:28:06:346,2.0665,-0.1729,9.5184,-0.0053,0.0144,9.8066,0.0924,0.1049,0.021,-32.12,-24.5,28.06,309.49,-84.11,-178.98
12169,52.409737,-1.585814,185.72,6.12,3,156.06,28 / 29,1219822,2019-09-08 10:28:06:446,1.882,0.057,10.2136,-0.0141,0.0019,9.8065,0.1286,0.2164,-0.0924,-32.06,-24.19,27.25,307.99,-84.05,-179.32
12170,52.40922,-1.585449,185.31,7.66,3,118.59,29 / 30,1219921,2019-09-08 10:28:06:545,1.7012,0.5632,9.4943,0.0229,-0.0045,9.8066,-0.0987,0.1494,0.0281,-33.37,-24.62,27.94,307.35,-83.85,-179.97
12171,52.40922,-1.585449,185.31,7.66,3,118.59,29 / 30,1220022,2019-09-08 10:28:06:646,0.6146,0.6897,9.4266,-0.0206,0.0129,9.8066,0.0478,0.2142,0.0075,-33.0,-25.0,27.38,306.09,-83.98,179.81
12172,52.40922,-1.585449,185.31,7.66,3,118.59,29 / 30,1220122,2019-09-08 10:28:06:746,1.6381,1.0261,10.0886,0.0142,0.0001,9.8066,-0.0724,0.2454,-0.1676,-32.69,-24.06,27.38,306.32,-83.8,-179.99
12173,52.40922,-1.585449,185.31,7.66,3,118.59,29 / 30,1220221,2019-09-08 10:28:06:845,0.2869,-0.3721,9.7134,-0.0107,-0.0097,9.8066,-0.1319,0.0622,0.0278,-33.62,-25.06,26.94,304.45,-83.77,179.12
12174,52.40922,-1.585449,185.31,7.66,3,118.59,29 / 30,1220321,2019-09-08 10:28:06:945,-1.2253,0.9639,9.5847,-0.0127,-0.0022,9.8066,0.0339,0.1385,-0.0254,-33.75,-24.75,26.38,305.39,-83.73,-179.95
12175,52.40922,-1.585449,185.31,7.66,3,118.59,29 / 30,1220421,2019-09-08 10:28:07:045,1.6609,-0.9546,9.4524,-0.0029,-0.0084,9.8066,0.0537,0.0877,0.0456,-33.94,-24.75,27.0,306.3,-83.87,-179.15
12176,52.40922,-1.585449,185.31,7.66,3,118.59,29 / 30,1220522,2019-09-08 10:28:07:146,0.142,0.7538,10.9417,-0.0103,0.0051,9.8066,0.0445,0.0518,0.0203,-34.12,-24.75,25.69,305.97,-83.99,-178.44
12177,52.40922,-1.585449,185.31,7.66,3,118.59,29 / 30,1220622,2019-09-08 10:28:07:246,0.5567,-0.3857,9.8206,0.0053,-0.0065,9.8066,0.0207,0.0543,-0.0153,-34.0,-24.37,26.06,305.25,-84.01,-179.26
12178,52.40922,-1.585449,185.31,7.66,3,118.59,29 / 30,1220722,2019-09-08 10:28:07:346,-0.1192,0.0178,9.6963,0.012,0.0032,9.8066,0.0323,0.0752,-0.0365,-34.12,-25.12,25.44,303.54,-83.96,-179.66
12179,52.40922,-1.585449,185.31,7.66,3,118.59,29 / 30,1220822,2019-09-08 10:28:07:446,0.135,0.3529,9.442,0.0077,0.0188,9.8066,0.0368,0.0945,-0.0364,-34.19,-24.37,25.81,303.21,-83.82,178.86
12180,52.40922,-1.585449,185.31,7.66,3,118.59,27 / 30,1220922,2019-09-08 10:28:07:546,0.3716,0.055,10.2201,0.0076,0.02,9.8066,-0.0184,0.0236,-0.0196,-33.87,-25.56,26.0,301.1,-83.8,177.08
12181,52.40922,-1.585449,185.31,7.66,3,118.59,27 / 30,1221021,2019-09-08 10:28:07:645,0.3781,-0.2652,9.7893,0.0077,0.0124,9.8066,-0.004,0.0708,-0.02,-33.56,-25.12,25.25,297.54,-83.86,174.59
12182,52.40922,-1.585449,185.31,7.66,3,118.59,27 / 30,1221121,2019-09-08 10:28:07:745,0.2173,-0.0533,9.4237,0.0076,-0.0087,9.8066,-0.0113,0.0786,-0.0135,-33.81,-25.75,25.75,297.17,-83.78,173.28
12183,52.40922,-1.585449,185.31,7.66,3,118.59,27 / 30,1221221,2019-09-08 10:28:07:845,-0.0274,-0.1631,9.7066,-0.009,0.016,9.8066,0.0922,0.0352,-0.0276,-33.94,-24.81,25.5,296.53,-83.72,172.56
12184,52.40922,-1.585449,185.31,7.66,3,118.59,27 / 30,1221321,2019-09-08 10:28:07:945,-0.3233,-0.5095,10.0546,-0.001,0.016,9.8066,0.0714,0.011,0.015,-34.12,-24.44,25.81,294.94,-83.74,170.86
12185,52.40922,-1.585449,185.31,7.66,3,118.59,27 / 30,1221421,2019-09-08 10:28:08:045,-0.4417,-0.1503,9.4256,0.0106,0.0098,9.8066,-0.0073,0.0201,-0.0209,-33.87,-25.37,25.25,291.74,-83.69,169.02
12186,52.40922,-1.585449,185.31,7.66,3,118.59,27 / 30,1221521,2019-09-08 10:28:08:145,0.6926,-0.5491,9.8387,0.012,0.0014,9.8066,-0.0238,0.0523,-0.0289,-34.0,-25.37,25.31,290.66,-83.66,167.98
12187,52.40922,-1.585449,185.31,7.66,3,118.59,27 / 30,1221621,2019-09-08 10:28:08:245,-0.3,-0.5588,10.4095,0.0054,0.0121,9.8066,0.0119,0.0441,-0.0256,-33.81,-25.19,24.81,289.95,-83.63,167.3
12188,52.40922,-1.585449,185.31,7.66,3,118.59,27 / 30,1221722,2019-09-08 10:28:08:346,-0.2591,-0.2606,9.6144,0.0199,0.0109,9.8065,0.0065,-0.0105,-0.0152,-33.69,-25.5,25.13,287.51,-83.49,164.98
12189,52.40922,-1.585449,185.31,7.66,3,118.59,28 / 29,1221821,2019-09-08 10:28:08:445,-0.4454,-1.1565,9.6065,-0.0044,0.0064,9.8066,0.0463,0.0166,-0.0797,-34.0,-25.81,25.19,286.61,-83.37,164.32
12190,52.40922,-1.585449,185.31,7.66,3,118.59,28 / 29,1221922,2019-09-08 10:28:08:546,0.3259,0.1655,9.7693,-0.0065,0.0237,9.8066,0.1136,-0.0123,-0.0565,-33.5,-25.06,25.69,286.51,-83.37,162.18
12191,52.40922,-1.585449,185.31,7.66,3,118.59,28 / 29,1222021,2019-09-08 10:28:08:645,-0.9254,0.4248,9.5613,-0.0065,0.0171,9.8065,-0.0786,0.0046,-0.0396,-33.81,-25.81,25.38,283.07,-83.37,160.83
12192,52.40922,-1.585449,185.31,7.66,3,118.59,28 / 29,1222121,2019-09-08 10:28:08:745,-0.9212,0.2019,9.4085,-0.0156,0.0205,9.8065,-0.0512,-0.0094,-0.0641,-33.37,-25.56,25.44,282.7,-83.41,159.69
12193,52.40922,-1.585449,185.31,7.66,3,118.59,28 / 29,1222221,2019-09-08 10:28:08:845,0.2254,-0.6141,9.6461,0.0284,-0.0084,9.8065,-0.0415,-0.0124,0.0159,-33.0,-25.5,25.25,280.78,-83.38,157.65
12194,52.40922,-1.585449,185.31,7.66,3,118.59,28 / 29,1222322,2019-09-08 10:28:08:946,0.0302,0.4842,9.8809,0.0162,-0.0004,9.8065,-0.0379,0.0273,-0.0745,-33.25,-25.12,24.69,280.11,-83.24,157.07
12195,52.40922,-1.585449,185.31,7.66,3,118.59,28 / 29,1222421,2019-09-08 10:28:09:045,-0.185,-0.6615,9.501,-0.0031,0.002,9.8066,0.0117,-0.004,-0.0235,-33.0,-26.0,24.94,279.62,-83.17,156.8
12196,52.40922,-1.585449,185.31,7.66,3,118.59,28 / 29,1222522,2019-09-08 10:28:09:146,0.0846,0.1102,9.9978,-0.004,0.0248,9.8066,0.0855,-0.0296,-0.0454,-32.94,-26.25,24.88,278.44,-83.13,155.65
12197,52.40922,-1.585449,185.31,7.66,3,118.59,28 / 29,1222622,2019-09-08 10:28:09:246,-0.1979,-0.0387,9.7947,-0.0006,0.006,9.8065,-0.1034,-0.0254,0.0409,-33.25,-25.56,25.13,277.05,-83.12,154.26
12198,52.40922,-1.585449,185.31,7.66,3,118.59,28 / 29,1222722,2019-09-08 10:28:09:346,0.2509,-0.8213,9.6126,-0.0211,-0.0177,9.8066,-0.0329,0.0453,0.0032,-32.94,-25.94,24.81,277.82,-83.34,154.89
12199,52.40922,-1.585449,185.31,7.66,3,118.59,28 / 29,1222822,2019-09-08 10:28:09:446,-0.3956,0.4361,10.1191,0.009,-0.0028,9.8066,0.0102,-0.0181,0.0084,-33.5,-25.56,24.75,277.64,-83.55,154.57
12200,52.40922,-1.585449,185.31,7.66,3,118.59,27 / 28,1222921,2019-09-08 10:28:09:545,-1.0444,-2.1735,10.6672,-0.0016,-0.0049,9.8066,0.0584,-0.0443,0.0122,-33.56,-25.62,24.0,276.47,-83.55,155.32
12201,52.40922,-1.585449,185.31,7.66,3,118.59,27 / 28,1223021,2019-09-08 10:28:09:645,0.3702,0.1738,12.3627,0.009,-0.0236,9.8066,0.3309,-0.1107,0.1312,-33.0,-24.44,24.75,277.62,-83.36,154.36
12202,52.40922,-1.585449,185.31,7.66,3,118.59,27 / 28,1223121,2019-09-08 10:28:09:745,1.2884,-2.1599,9.0711,0.0396,0.0141,9.8065,0.2939,-0.089,0.124,-32.81,-24.31,25.31,279.7,-82.91,156.7
12203,52.40922,-1.585449,185.31,7.66,3,118.59,27 / 28,1223222,2019-09-08 10:28:09:846,0.8544,-3.5605,10.3898,0.0059,-0.0569,9.8064,0.0246,0.1686,-0.0632,-32.94,-23.94,24.69,285.61,-82.38,162.88
12204,52.40922,-1.585449,185.31,7.66,3,118.59,27 / 28,1223322,2019-09-08 10:28:09:946,0.0227,-2.7762,11.4178,-0.0148,-0.0177,9.8066,0.0771,-0.0834,0.1049,-33.5,-23.56,24.5,286.49,-82.32,163.78
12205,52.40922,-1.585449,185.31,7.66,3,118.59,27 / 28,1223422,2019-09-08 10:28:10:046,0.553,-0.1956,9.6631,-0.0037,0.0081,9.8066,-0.0909,0.1089,0.0283,-34.25,-24.06,23.94,285.58,-82.72,164.55
12206,52.40922,-1.585449,185.31,7.66,3,118.59,27 / 28,1223521,2019-09-08 10:28:10:145,-0.1816,-1.114,10.6656,-0.0156,-0.0393,9.8065,-0.0779,-0.001,0.2311,-34.87,-24.31,23.81,286.52,-83.11,165.95
12207,52.40922,-1.585449,185.31,7.66,3,118.59,27 / 28,1223621,2019-09-08 10:28:10:245,-0.4158,0.2124,10.3767,-0.02,-0.0012,9.8065,-0.0335,0.0689,0.0477,-34.94,-23.94,23.88,286.83,-83.27,166.16
12208,52.40922,-1.585449,185.31,7.66,3,118.59,27 / 28,1223721,2019-09-08 10:28:10:345,-0.284,-1.5145,9.9837,0.0267,-0.0143,9.8065,-0.0112,0.0485,-0.023,-35.0,-24.19,24.88,289.29,-83.07,167.55
12209,52.40922,-1.585449,185.31,7.66,3,118.59,28 / 29,1223821,2019-09-08 10:28:10:445,0.7649,0.2648,9.5354,0.0111,0.0082,9.8066,0.0633,0.01,-0.0475,-35.31,-24.31,24.31,288.17,-82.78,167.76
12210,52.40922,-1.585449,185.31,7.66,3,118.59,28 / 29,1223921,2019-09-08 10:28:10:545,0.1607,-0.9152,9.9804,0.0021,-0.0036,9.8066,-0.0977,0.0189,0.0001,-34.69,-23.87,25.0,288.96,-82.61,167.49
12211,52.40922,-1.585449,185.31,7.66,3,118.59,28 / 29,1224022,2019-09-08 10:28:10:646,-1.1774,0.2517,9.3262,-0.0241,0.0269,9.8065,-0.0981,-0.0205,-0.0393,-35.06,-23.94,24.75,289.43,-82.63,167.95
12212,52.40922,-1.585449,185.31,7.66,3,118.59,28 / 29,1224122,2019-09-08 10:28:10:746,-0.1619,0.412,9.6201,-0.0302,0.0241,9.8065,0.1082,-0.0578,0.0061,-35.06,-23.56,24.94,287.91,-82.88,166.31
12213,52.40922,-1.585449,185.31,7.66,3,118.59,28 / 29,1224222,2019-09-08 10:28:10:846,0.4121,0.3917,9.3462,0.015,-0.017,9.8065,0.0128,0.0156,-0.0363,-34.69,-23.5,25.0,288.28,-82.88,166.51
12214,52.40922,-1.585449,185.31,7.66,3,118.59,28 / 29,1224321,2019-09-08 10:28:10:945,-1.1159,-0.6705,9.7815,0.0076,-0.0032,9.8066,0.1204,0.036,0.0089,-34.94,-23.12,24.94,289.1,-82.79,167.36
12215,52.40922,-1.585449,185.31,7.66,3,118.59,28 / 29,1224422,2019-09-08 10:28:11:046,0.8476,-0.0356,9.7572,0.0168,-0.001,9.8066,0.0678,0.0569,-0.0123,-34.37,-24.0,24.5,289.57,-82.75,167.29
12216,52.40922,-1.585449,185.31,7.66,3,118.59,28 / 29,1224521,2019-09-08 10:28:11:145,0.7204,-0.6705,9.7908,-0.0037,0.0157,9.8066,0.1181,0.0102,0.0097,-34.44,-23.56,24.94,289.24,-82.9,166.88
12217,52.40922,-1.585449,185.31,7.66,3,118.59,28 / 29,1224621,2019-09-08 10:28:11:245,0.9678,-1.2585,9.7024,0.0161,-0.0132,9.8066,0.0489,0.0471,-0.0018,-34.5,-24.87,25.0,289.01,-83.0,166.76
12218,52.40922,-1.585449,185.31,7.66,3,118.59,28 / 29,1224721,2019-09-08 10:28:11:345,-0.2623,0.1848,9.1633,0.0033,-0.0033,9.8066,0.0842,0.0209,0.0953,-34.31,-24.25,24.19,288.34,-83.06,167.06
12219,52.40922,-1.585449,185.31,7.66,3,118.59,27 / 28,1224821,2019-09-08 10:28:11:445,0.9559,-1.1956,10.6672,0.0029,-0.0135,9.8066,0.1168,0.0561,0.0427,-34.44,-24.25,23.69,289.17,-83.23,167.78
12220,52.40922,-1.585449,185.31,7.66,3,118.59,27 / 28,1224922,2019-09-08 10:28:11:546,0.7362,-1.6276,10.0281,0.0323,-0.0029,9.8066,-0.0678,0.0069,-0.0035,-34.87,-23.75,23.56,288.68,-83.1,168.09
12221,52.40922,-1.585449,185.31,7.66,3,118.59,27 / 28,1225021,2019-09-08 10:28:11:645,0.2445,-0.4963,9.4667,-0.0127,0.0033,9.8066,-0.0308,-0.0174,-0.0046,-35.44,-24.25,23.5,288.41,-83.09,167.82
12222,52.40922,-1.585449,185.31,7.66,3,118.59,27 / 28,1225122,2019-09-08 10:28:11:746,0.5704,-1.6822,9.8294,-0.0193,0.0059,9.8066,-0.0388,0.008,-0.0173,-36.06,-23.56,24.31,287.94,-83.14,168.0
12223,52.40922,-1.585449,185.31,7.66,3,118.59,27 / 28,1225221,2019-09-08 10:28:11:845,0.1709,-1.3435,9.8335,-0.0159,0.009,9.8065,-0.0833,0.0403,-0.0178,-36.06,-23.94,24.5,289.8,-83.28,168.63
12224,52.40922,-1.585449,185.31,7.66,3,118.59,27 / 28,1225322,2019-09-08 10:28:11:946,-0.2807,-0.3513,9.734,-0.0017,0.0074,9.8066,0.0219,0.0222,0.0332,-35.12,-23.69,24.81,289.6,-83.48,167.62
12225,52.40922,-1.585449,185.31,7.66,3,118.59,27 / 28,1225422,2019-09-08 10:28:12:046,0.7272,-0.8083,9.5063,0.0046,0.0065,9.8066,0.0153,0.0644,-0.0196,-35.12,-23.44,23.81,287.9,-83.51,166.93
12226,52.40922,-1.585449,185.31,7.66,3,118.59,27 / 28,1225521,2019-09-08 10:28:12:145,0.2043,-0.2138,9.9413,0.001,0.0021,9.8066,0.0143,-0.0026,0.0565,-35.62,-24.12,23.56,286.63,-83.46,166.53
12227,52.40922,-1.585449,185.31,7.66,3,118.59,27 / 28,1225622,2019-09-08 10:28:12:246,0.1612,-0.6098,10.3171,0.0125,-0.0036,9.8066,0.0884,0.0765,-0.0449,-36.06,-23.87,23.81,286.38,-83.39,166.32
12228,52.40922,-1.585449,185.31,7.66,3,118.59,27 / 28,1225722,2019-09-08 10:28:12:346,0.631,0.6213,9.8535,0.0287,-0.0174,9.8065,-0.0679,-0.0116,0.0479,-35.81,-23.62,23.94,286.7,-83.43,166.62
12229,52.40922,-1.585449,185.31,7.66,3,118.59,27 / 28,1225821,2019-09-08 10:28:12:445,0.604,-0.9465,10.229,-0.0214,-0.0021,9.8065,0.0751,-0.0631,0.06,-36.31,-23.25,23.88,287.27,-83.62,166.93
12230,52.40922,-1.585449,185.31,7.66,3,118.59,29 / 31,1225922,2019-09-08 10:28:12:546,-0.4947,-2.8092,9.6225,-0.0036,-0.0036,9.8066,-0.0369,-0.0076,-0.0541,-36.12,-24.25,24.19,288.31,-83.86,167.96
12231,52.40922,-1.585449,185.31,7.66,3,118.59,29 / 31,1226021,2019-09-08 10:28:12:645,0.0525,-0.7852,8.8423,-0.0344,0.0029,9.8065,-0.0901,-0.0451,-0.0394,-35.69,-23.69,24.19,288.16,-84.02,167.73
12232,52.40922,-1.585449,185.31,7.66,3,118.59,29 / 31,1226121,2019-09-08 10:28:12:745,0.1934,0.4478,10.3396,-0.0356,-0.0012,9.8065,-0.0902,-0.1256,0.0182,-35.12,-24.44,24.44,291.01,-84.29,169.68
12233,52.40922,-1.585449,185.31,7.66,3,118.59,29 / 31,1226221,2019-09-08 10:28:12:845,-0.2697,-1.596,9.6246,-0.0182,0.0101,9.8066,-0.0948,0.0024,-0.0856,-36.12,-24.0,24.06,290.31,-84.48,169.58
12234,52.40922,-1.585449,185.31,7.66,3,118.59,29 / 31,1226321,2019-09-08 10:28:12:945,0.5827,-0.8982,10.75,0.0047,0.0034,9.8066,0.0267,-0.0684,-0.0345,-35.81,-24.06,23.75,290.42,-84.26,169.82
12235,52.40922,-1.585449,185.31,7.66,3,118.59,29 / 31,1226421,2019-09-08 10:28:13:045,0.8999,-1.0844,9.6984,0.0174,-0.0146,9.8066,0.0543,0.015,0.0231,-36.0,-23.56,23.63,290.3,-84.03,169.83
12236,52.40922,-1.585449,185.31,7.66,3,118.59,29 / 31,1226521,2019-09-08 10:28:13:145,0.1833,-2.2817,10.4555,0.0273,-0.0055,9.8065,-0.0373,0.01,-0.069,-35.62,-23.31,23.5,290.88,-83.76,170.42
12237,52.40922,-1.585449,185.31,7.66,3,118.59,29 / 31,1226621,2019-09-08 10:28:13:245,-0.396,-0.9508,9.6933,-0.0339,0.0188,9.8065,-0.0518,-0.0475,0.0284,-35.81,-23.31,23.63,289.18,-83.71,168.76
12238,52.40922,-1.585449,185.31,7.66,3,118.59,29 / 31,1226721,2019-09-08 10:28:13:345,0.3484,-0.1837,9.5443,-0.0332,0.014,9.8065,-0.0238,-0.0353,0.0304,-34.87,-23.56,22.63,288.37,-83.92,168.47
12239,52.40922,-1.585449,185.31,7.66,3,118.59,29 / 31,1226822,2019-09-08 10:28:13:446,1.9166,-0.8659,9.525,-0.0176,0.0247,9.8066,-0.0417,0.0595,-0.0255,-34.69,-23.06,22.44,285.76,-83.95,166.94
12240,52.40922,-1.585449,185.31,7.66,3,118.59,28 / 29,1226921,2019-09-08 10:28:13:545,-0.3474,-0.1567,9.7711,-0.0061,-0.0035,9.8066,-0.1352,-0.0647,0.0488,-35.5,-22.75,22.19,286.47,-84.22,167.5
12241,52.40922,-1.585449,185.31,7.66,3,118.59,28 / 29,1227022,2019-09-08 10:28:13:646,0.1691,-1.2192,10.4893,0.0058,-0.0111,9.8066,0.0566,-0.0413,0.0512,-36.06,-22.75,23.06,288.1,-84.41,168.47
12242,52.40922,-1.585449,185.31,7.66,3,118.59,28 / 29,1227122,2019-09-08 10:28:13:746,1.0341,-1.1965,9.8706,0.0129,-0.0211,9.8066,0.0699,0.0471,0.0348,-36.06,-23.37,23.94,291.2,-84.28,170.45
12243,52.40922,-1.585449,185.31,7.66,3,118.59,28 / 29,1227222,2019-09-08 10:28:13:846,-0.5667,-0.9241,10.3557,-0.0232,-0.0129,9.8065,0.0942,0.044,0.0517,-36.0,-23.69,24.31,294.07,-84.19,173.44
12244,52.40922,-1.585449,185.31,7.66,3,118.59,28 / 29,1227322,2019-09-08 10:28:13:946,0.8603,-1.1973,10.2776,-0.0233,0.0074,9.8066,0.1195,0.0391,0.0367,-36.25,-23.06,24.0,294.78,-84.12,174.05
12245,52.40922,-1.585449,185.31,7.66,3,118.59,28 / 29,1227422,2019-09-08 10:28:14:046,0.112,-2.9435,9.3267,0.0055,-0.0126,9.8066,-0.1501,-0.0032,-0.0382,-35.19,-24.5,23.88,295.7,-84.07,174.41
12246,52.40922,-1.585449,185.31,7.66,3,118.59,28 / 29,1227522,2019-09-08 10:28:14:146,-0.4943,0.6119,8.863,-0.022,0.0357,9.8065,-0.0321,-0.1205,-0.02,-34.75,-24.44,23.94,293.28,-84.29,171.92
12247,52.40922,-1.585449,185.31,7.66,3,118.59,28 / 29,1227622,2019-09-08 10:28:14:246,1.3338,-1.4343,10.1934,0.0343,0.0298,9.8065,-0.1126,0.0117,-0.0564,-34.69,-24.75,23.69,291.41,-84.53,170.07
12248,52.40922,-1.585449,185.31,7.66,3,118.59,28 / 29,1227722,2019-09-08 10:28:14:346,-1.0887,-0.4007,11.2712,0.0444,0.0146,9.8065,-0.0781,-0.0023,0.0317,-34.87,-24.75,23.81,284.83,-84.48,163.61
12249,52.40922,-1.585449,185.31,7.66,3,118.59,28 / 29,1227821,2019-09-08 10:28:14:445,-0.6715,-1.135,9.9357,0.0094,-0.0106,9.8066,0.0734,0.0809,-0.0226,-35.12,-25.31,23.56,281.92,-84.46,160.74
12250,52.40922,-1.585449,185.31,7.66,3,118.59,27 / 29,1227921,2019-09-08 10:28:14:545,0.1179,-1.5769,10.2021,0.0245,-0.005,9.8066,0.0571,-0.0753,0.0599,-34.44,-25.25,23.94,282.42,-84.07,160.76
12251,52.40922,-1.585449,185.31,7.66,3,118.59,27 / 29,1228022,2019-09-08 10:28:14:646,0.6108,0.5966,9.5942,0.0011,0.0076,9.8066,0.0049,-0.1484,0.0735,-34.75,-24.81,24.13,283.19,-83.98,162.29
12252,52.40922,-1.585449,185.31,7.66,3,118.59,27 / 29,1228121,2019-09-08 10:28:14:745,-0.6336,-1.5351,9.9287,-0.0373,-0.003,9.8065,0.0193,0.0989,-0.1572,-34.31,-25.0,23.63,285.9,-84.16,164.15
12253,52.40922,-1.585449,185.31,7.66,3,118.59,27 / 29,1228222,2019-09-08 10:28:14:846,0.9972,0.1877,10.6613,-0.0002,-0.0313,9.8066,0.0044,-0.0033,0.0256,-34.37,-24.75,24.06,285.24,-84.22,163.46
12254,52.40922,-1.585449,185.31,7.66,3,118.59,27 / 29,1228321,2019-09-08 10:28:14:945,-0.5738,-2.5902,9.1193,0.0331,-0.0222,9.8065,-0.0974,-0.1697,0.0734,-35.0,-24.44,23.94,288.44,-84.09,167.28
12255,52.40922,-1.585449,185.31,7.66,3,118.59,27 / 29,1228421,2019-09-08 10:28:15:045,0.4408,1.0698,9.3237,-0.0136,0.0143,9.8066,0.151,-0.0629,0.0551,-35.0,-24.75,23.69,289.24,-84.17,168.15
12256,52.40922,-1.585449,185.31,7.66,3,118.59,27 / 29,1228521,2019-09-08 10:28:15:145,0.8444,-0.8677,10.4348,-0.0403,0.0045,9.8065,0.1791,0.05,-0.0249,-34.69,-23.94,24.06,290.39,-84.29,169.08
12257,52.40922,-1.585449,185.31,7.66,3,118.59,27 / 29,1228621,2019-09-08 10:28:15:245,0.8405,-0.569,9.1282,0.0037,-0.0062,9.8066,-0.1207,-0.0064,0.0492,-34.87,-24.87,23.38,289.89,-84.29,169.89
12258,52.40922,-1.585449,185.31,7.66,3,118.59,27 / 29,1228721,2019-09-08 10:28:15:345,-0.5324,-1.1373,9.6739,-0.0228,-0.0114,9.8066,-0.0113,-0.0342,0.1172,-34.69,-24.75,24.19,293.56,-84.34,172.29
12259,52.40922,-1.585449,185.31,7.66,3,118.59,27 / 29,1228822,2019-09-08 10:28:15:446,0.8648,-1.2211,9.7795,-0.0015,0.0005,9.8066,0.0581,-0.0095,-0.0084,-35.75,-24.19,23.44,293.97,-84.29,174.44
12260,52.409027,-1.584275,184.3,10.95,2,103.33,29 / 30,1228923,2019-09-08 10:28:15:547,0.8648,-1.2211,9.7795,-0.0015,0.0005,9.8066,0.0581,-0.0095,-0.0084,-35.75,-24.19,23.44,293.97,-84.29,174.44
12261,52.409027,-1.584275,184.3,10.95,2,103.33,29 / 30,1229022,2019-09-08 10:28:15:646,-1.3311,-0.6807,9.6155,-0.0002,0.0128,9.8065,-0.1488,0.0165,0.0481,-36.62,-24.81,23.56,292.54,-84.6,172.5
12262,52.409027,-1.584275,184.3,10.95,2,103.33,29 / 30,1229121,2019-09-08 10:28:15:745,-0.0585,-0.1138,9.568,-0.0213,0.0404,9.8065,0.0808,-0.0318,0.0261,-36.69,-24.94,23.25,290.0,-84.84,171.0
12263,52.409027,-1.584275,184.3,10.95,2,103.33,29 / 30,1229222,2019-09-08 10:28:15:846,0.7507,-0.0704,9.9631,-0.0166,0.0232,9.8065,0.1692,0.0384,-0.105,-35.75,-24.12,24.19,287.94,-85.08,166.91
12264,52.409027,-1.584275,184.3,10.95,2,103.33,29 / 30,1229322,2019-09-08 10:28:15:946,0.2943,-0.2999,9.5069,0.0137,0.0007,9.8066,-0.0092,-0.0691,-0.0365,-35.06,-24.31,23.25,285.44,-84.84,165.05
12265,52.409027,-1.584275,184.3,10.95,2,103.33,29 / 30,1229422,2019-09-08 10:28:16:046,-0.382,-0.4799,9.8873,-0.0058,-0.0002,9.8066,-0.0113,0.0475,-0.081,-34.87,-24.25,23.69,286.67,-84.83,165.11
12266,52.409027,-1.584275,184.3,10.95,2,103.33,29 / 30,1229521,2019-09-08 10:28:16:145,0.7094,-0.9538,9.5205,0.0108,-0.0096,9.8066,-0.0712,0.0272,-0.0268,-34.19,-24.06,23.75,286.02,-84.83,163.74
12267,52.409027,-1.584275,184.3,10.95,2,103.33,29 / 30,1229621,2019-09-08 10:28:16:245,0.4516,-1.3402,9.3835,0.0136,0.0019,9.8066,-0.1667,-0.0619,0.0385,-33.94,-24.25,23.19,284.4,-84.84,163.31
12268,52.409027,-1.584275,184.3,10.95,2,103.33,29 / 30,1229721,2019-09-08 10:28:16:345,-0.9101,-1.2017,9.8928,-0.0139,0.007,9.8066,0.0477,-0.0166,0.0593,-33.81,-24.25,24.0,284.68,-85.06,162.28
12269,52.409027,-1.584275,184.3,10.95,2,103.33,29 / 30,1229821,2019-09-08 10:28:16:445,0.507,-0.152,10.2413,-0.009,0.0042,9.8066,0.0805,0.0303,-0.0397,-34.75,-24.0,23.25,282.55,-85.16,162.0
12270,52.409027,-1.584275,184.3,10.95,2,103.33,29 / 30,1229922,2019-09-08 10:28:16:546,0.3055,-0.1974,10.4343,0.0203,-0.0037,9.8066,-0.0097,-0.0711,0.0292,-35.62,-23.87,23.44,281.81,-84.89,162.1
12271,52.409027,-1.584275,184.3,10.95,2,103.33,29 / 30,1230021,2019-09-08 10:28:16:645,-0.0243,-0.9886,9.6567,0.005,-0.0078,9.8066,0.0257,-0.0483,0.0163,-35.0,-24.44,23.75,284.59,-84.78,163.07
12272,52.409027,-1.584275,184.3,10.95,2,103.33,29 / 30,1230122,2019-09-08 10:28:16:746,-0.1361,-1.2135,10.5835,0.0085,-0.0063,9.8065,0.0407,-0.0154,-0.0179,-35.12,-24.25,23.63,286.2,-84.7,164.71
12273,52.409027,-1.584275,184.3,10.95,2,103.33,29 / 30,1230222,2019-09-08 10:28:16:846,0.2226,-1.8965,10.3031,0.006,-0.0084,9.8066,0.0761,-0.0571,0.0147,-35.25,-24.87,22.81,285.45,-84.61,165.32
12274,52.409027,-1.584275,184.3,10.95,2,103.33,29 / 30,1230322,2019-09-08 10:28:16:946,-0.0084,-0.2968,9.8062,0.002,0.0059,9.8066,-0.0093,-0.0215,0.0029,-34.94,-24.87,23.69,285.76,-84.57,164.48
12275,52.409027,-1.584275,184.3,10.95,2,103.33,29 / 30,1230422,2019-09-08 10:28:17:046,-1.0501,-1.2145,9.6809,-0.0133,0.0108,9.8066,-0.0386,-0.0704,0.04,-34.87,-24.5,23.13,284.15,-84.56,163.94
12276,52.409027,-1.584275,184.3,10.95,2,103.33,29 / 30,1230521,2019-09-08 10:28:17:145,0.3413,-0.3517,10.0913,0.0104,0.0,9.8066,-0.0507,-0.0647,0.0271,-34.62,-25.0,24.06,285.25,-84.63,163.94
12277,52.409027,-1.584275,184.3,10.95,2,103.33,29 / 30,1230621,2019-09-08 10:28:17:245,-0.628,0.2162,10.0446,-0.0067,0.0061,9.8066,0.0657,0.0238,0.0007,-34.94,-24.75,23.06,283.9,-84.72,163.71
12278,52.409027,-1.584275,184.3,10.95,2,103.33,29 / 30,1230722,2019-09-08 10:28:17:346,0.8019,-1.3578,9.5061,0.0228,-0.0255,9.8065,-0.0783,-0.0162,0.0443,-35.19,-25.06,23.25,284.72,-84.66,164.56
12279,52.409027,-1.584275,184.3,10.95,2,103.33,27 / 29,1230821,2019-09-08 10:28:17:445,0.2145,-0.2125,10.2146,0.0203,-0.0254,9.8065,-0.0993,-0.0037,-0.0516,-34.94,-25.12,23.94,288.33,-84.49,167.06
12280,52.409027,-1.584275,184.3,10.95,2,103.33,27 / 29,1230922,2019-09-08 10:28:17:546,0.1003,-0.5372,9.4701,-0.0095,0.014,9.8066,0.0121,-0.0269,0.0515,-35.0,-25.19,24.19,288.95,-84.46,167.69
12281,52.409027,-1.584275,184.3,10.95,2,103.33,27 / 29,1231021,2019-09-08 10:28:17:645,0.8742,0.0268,9.8166,-0.0064,-0.0132,9.8066,0.0163,0.0526,-0.0607,-35.25,-25.19,23.63,289.08,-84.54,167.77
12282,52.409027,-1.584275,184.3,10.95,2,103.33,27 / 29,1231122,2019-09-08 10:28:17:746,-1.0595,-0.9437,9.9768,-0.0075,-0.0062,9.8066,-0.0019,-0.0606,0.0622,-35.0,-25.25,23.69,290.11,-84.59,168.75
12283,52.409027,-1.584275,184.3,10.95,2,103.33,27 / 29,1231222,2019-09-08 10:28:17:846,0.4356,-0.2978,9.8545,-0.015,-0.0164,9.8065,0.0386,0.0718,-0.1226,-35.12,-25.12,23.5,291.67,-84.69,170.23
12284,52.409027,-1.584275,184.3,10.95,2,103.33,27 / 29,1231321,2019-09-08 10:28:17:945,-0.2687,-0.2139,9.1868,-0.0034,-0.0077,9.8066,-0.0556,-0.1363,0.0503,-35.19,-24.69,24.06,291.13,-84.72,169.68
12285,52.409027,-1.584275,184.3,10.95,2,103.33,27 / 29,1231421,2019-09-08 10:28:18:045,-1.0017,-0.8772,10.0305,-0.0235,0.0099,9.8066,0.0442,-0.07,0.0155,-35.44,-24.69,23.75,291.67,-84.95,170.08
12286,52.409027,-1.584275,184.3,10.95,2,103.33,27 / 29,1231521,2019-09-08 10:28:18:145,-0.9124,-0.6409,10.9982,0.0263,-0.0146,9.8065,-0.0453,-0.0792,-0.024,-35.25,-24.12,23.13,291.46,-85.05,170.87
12287,52.409027,-1.584275,184.3,10.95,2,103.33,27 / 29,1231621,2019-09-08 10:28:18:245,-0.1652,-1.6339,9.3613,0.0393,-0.0146,9.8065,-0.1458,-0.0281,0.0113,-36.31,-24.12,23.0,290.28,-84.75,170.55
12288,52.409027,-1.584275,184.3,10.95,2,103.33,27 / 29,1231721,2019-09-08 10:28:18:345,0.5296,-1.1721,10.4218,0.0214,-0.0041,9.8066,0.0546,0.0612,-0.0923,-35.62,-23.0,25.13,292.03,-84.6,169.98
12289,52.409027,-1.584275,184.3,10.95,2,103.33,27 / 29,1231822,2019-09-08 10:28:18:446,-0.2442,-1.3793,10.0207,0.0317,0.0022,9.8066,-0.0416,-0.0541,0.129,-35.0,-23.69,25.25,290.52,-84.5,167.95
12290,52.409027,-1.584275,184.3,10.95,2,103.33,27 / 28,1231921,2019-09-08 10:28:18:545,-0.8925,-1.0212,9.7398,-0.0414,0.0268,9.8065,0.1404,0.0712,-0.0304,-34.56,-23.5,25.5,293.3,-84.48,169.47
12291,52.409027,-1.584275,184.3,10.95,2,103.33,27 / 28,1232021,2019-09-08 10:28:18:645,-0.0076,-0.791,10.3867,-0.0268,0.0335,9.8065,0.0646,-0.0092,0.0736,-34.31,-24.25,25.06,292.15,-84.49,168.82
12292,52.409027,-1.584275,184.3,10.95,2,103.33,27 / 28,1232121,2019-09-08 10:28:18:745,0.281,-0.78,10.1474,0.0416,-0.0251,9.8064,-0.1293,-0.0061,0.0342,-33.94,-24.44,24.88,291.06,-84.71,167.63
12293,52.409027,-1.584275,184.3,10.95,2,103.33,27 / 28,1232222,2019-09-08 10:28:18:846,0.0,0.1318,9.412,0.0133,0.003,9.8066,-0.1614,-0.0016,0.0165,-34.06,-24.44,24.63,290.93,-84.49,167.63
12294,52.409027,-1.584275,184.3,10.95,2,103.33,27 / 28,1232322,2019-09-08 10:28:18:946,0.0951,-0.0727,9.901,0.026,0.0013,9.8065,0.0338,-0.1182,-0.0043,-34.12,-24.75,24.56,291.12,-84.57,167.88
