,GPS LATITUDE (degrees), GPS LONGITUDE (degrees), GPS ALTITUDE (m), GPS SPEED (Kmh), GPS ACCURACY (m), GPS ORIENTATION (Â°),GPS SATELLITES IN RANGE, TIME SINCE START (ms), DATE (YYYY-MO-DD HH-MI-SS_SSS), ACCELEROMETER X (m/s²) , ACCELEROMETER Y (m/s²), ACCELEROMETER Z (m/s²), GRAVITY X (m/s²), GRAVITY Y (m/s²), GRAVITY Z (m/s²), GYROSCOPE Yaw (rad/s), GYROSCOPE Pitch (rad/s), GYROSCOPE Roll (rad/s), MAGNETIC FIELD X (Î¼T), MAGNETIC FIELD Y (Î¼T), MAGNETIC FIELD Z (Î¼T), ORIENTATION (Yaw) (Â°), ORIENTATION (Pitch) (Â°), ORIENTATION (Roll ) (Â°)
76407,52.448753,-1.499024,155.86,9.09,3.0,233.22,23 / 23,3219375,2019-09-07 11:20:52:529,-1.4795,-1.3399,10.0603,-0.0048,0.0035,9.8066,-0.0267,-0.2038,0.0116,-10.31,-32.25,7.94,313.36,-82.35,-160.97
76408,52.448753,-1.499024,155.86,9.09,3.0,233.22,23 / 23,3219476,2019-09-07 11:20:52:630,-1.26,-1.7976,10.403,-0.0074,-0.0081,9.8066,-0.031,-0.2146,0.0182,-10.12,-31.94,7.69,314.31,-82.39,-160.34
76409,52.448753,-1.499024,155.86,9.09,3.0,233.22,23 / 23,3219575,2019-09-07 11:20:52:729,-1.5174,-1.3789,9.6724,0.0079,0.0026,9.8066,-0.0007,-0.1961,0.0024,-10.12,-31.69,6.63,308.44,-82.38,-160.41
76410,52.448753,-1.499024,155.86,9.09,3.0,233.22,23 / 23,3219675,2019-09-07 11:20:52:829,-1.6339,-1.4382,9.8181,0.0073,0.0032,9.8066,-0.0001,-0.1631,0.0078,-10.06,-31.75,6.81,307.05,-82.3,-161.31
76411,52.448753,-1.499024,155.86,9.09,3.0,233.22,23 / 23,3219776,2019-09-07 11:20:52:930,-1.638,-1.1061,9.6943,0.0052,0.0084,9.8066,0.0032,-0.1384,0.0148,-10.44,-31.81,6.5,306.1,-82.29,-162.04
76412,52.448753,-1.499024,155.86,9.09,3.0,233.22,23 / 23,3219875,2019-09-07 11:20:53:029,-1.8401,-0.6426,9.8385,0.005,0.0043,9.8065,0.0048,-0.1478,0.0124,-10.0,-31.44,6.75,305.46,-82.27,-163.03
76413,52.448753,-1.499024,155.86,9.09,3.0,233.22,23 / 23,3219976,2019-09-07 11:20:53:130,-1.3939,-0.9292,9.6531,0.015,0.0048,9.8066,0.0161,-0.1456,-0.0145,-10.56,-32.0,6.0,296.05,-82.11,-163.83
76414,52.448753,-1.499024,155.86,9.09,3.0,233.22,23 / 23,3220075,2019-09-07 11:20:53:229,-0.9251,-0.4912,9.5724,0.0121,0.0004,9.8066,-0.0047,-0.1371,-0.007,-10.0,-31.5,6.38,296.77,-81.98,-164.46
76415,52.448753,-1.499024,155.86,9.09,3.0,233.22,23 / 23,3220176,2019-09-07 11:20:53:330,-1.2249,-0.602,9.9092,-0.0027,0.0029,9.8066,-0.0197,-0.0908,0.0016,-9.94,-32.0,5.5,295.8,-81.94,-164.52
76416,52.448753,-1.499024,155.86,9.09,3.0,233.22,23 / 23,3220275,2019-09-07 11:20:53:429,-1.749,-0.3919,10.2584,-0.0007,0.0003,9.8066,-0.0074,-0.087,0.0066,-10.5,-31.37,5.38,290.36,-81.99,-164.6
76417,52.448753,-1.499024,155.86,9.09,3.0,233.22,23 / 23,3220375,2019-09-07 11:20:53:529,-1.2008,-0.2281,9.6407,0.0099,-0.0022,9.8066,0.0251,-0.0604,0.0113,-11.06,-32.06,5.44,289.14,-81.95,-164.42
76418,52.448753,-1.499024,155.86,9.09,3.0,233.22,23 / 23,3220476,2019-09-07 11:20:53:630,-1.1271,-0.4304,9.817,0.0118,-0.0025,9.8066,0.0119,-0.0663,-0.0138,-10.87,-31.56,5.25,288.25,-81.75,-164.64
76419,52.448753,-1.499024,155.86,9.09,3.0,233.22,23 / 23,3220575,2019-09-07 11:20:53:729,-1.363,-0.1814,9.6787,-0.0016,-0.0021,9.8066,-0.024,-0.0488,-0.0217,-11.12,-31.87,5.31,287.9,-81.69,-164.8
76420,52.448753,-1.499024,155.86,9.09,3.0,233.22,23 / 23,3220675,2019-09-07 11:20:53:829,-1.467,0.261,9.636,-0.0036,0.0062,9.8066,-0.0206,-0.0515,-0.0283,-11.0,-31.62,5.25,287.8,-81.75,-165.04
76421,52.448753,-1.499024,155.86,9.09,3.0,233.22,23 / 23,3220775,2019-09-07 11:20:53:929,-1.5832,-0.0313,9.7504,0.0051,-0.0053,9.8066,0.0008,-0.0174,-0.0005,-11.31,-31.56,5.19,287.75,-81.75,-165.09
76422,52.448753,-1.499024,155.86,9.09,3.0,233.22,23 / 23,3220875,2019-09-07 11:20:54:029,-1.402,0.0199,9.4311,0.0072,-0.0008,9.8066,0.0073,-0.0085,-0.0239,-10.44,-31.56,4.88,287.86,-81.64,-164.95
76423,52.448753,-1.499024,155.86,9.09,3.0,233.22,23 / 23,3220975,2019-09-07 11:20:54:129,-1.5588,0.398,9.4499,0.0008,-0.0015,9.8066,-0.0088,0.0092,0.0096,-10.56,-30.37,5.81,294.6,-81.59,-165.04
76424,52.448753,-1.499024,155.86,9.09,3.0,233.22,23 / 23,3221075,2019-09-07 11:20:54:229,-1.5393,0.3142,10.1742,-0.0057,-0.0072,9.8066,-0.0146,0.0035,0.0138,-10.87,-31.25,5.5,294.65,-81.6,-164.36
76425,52.448753,-1.499024,155.86,9.09,3.0,233.22,23 / 23,3221176,2019-09-07 11:20:54:330,-1.4643,0.1986,9.863,-0.0021,-0.0027,9.8066,-0.0085,0.0,-0.004,-10.81,-30.5,5.25,290.45,-81.61,-163.76
76426,52.448753,-1.499024,155.86,9.09,3.0,233.22,22 / 23,3221275,2019-09-07 11:20:54:429,-1.5353,-0.1002,9.6289,0.0054,-0.0094,9.8066,-0.0009,-0.0116,-0.0163,-11.19,-30.75,5.06,289.87,-81.56,-163.41
76427,52.448753,-1.499024,155.86,9.09,3.0,233.22,22 / 23,3221375,2019-09-07 11:20:54:529,-1.424,0.0566,10.2369,0.0035,-0.0014,9.8066,0.009,0.0103,-0.0089,-10.75,-31.0,5.13,289.72,-81.49,-163.38
76428,52.448753,-1.499024,155.86,9.09,3.0,233.22,22 / 23,3221476,2019-09-07 11:20:54:630,-1.4156,0.3412,9.8468,0.0057,-0.0087,9.8066,0.0021,0.0091,-0.0008,-11.25,-30.19,5.69,296.18,-81.4,-163.25
76429,52.448753,-1.499024,155.86,9.09,3.0,233.22,22 / 23,3221576,2019-09-07 11:20:54:730,-1.4465,0.1535,10.1993,-0.0009,-0.0035,9.8066,-0.0114,0.0116,-0.0004,-11.0,-30.06,6.13,296.63,-81.36,-162.79
76430,52.448753,-1.499024,155.86,9.09,3.0,233.22,22 / 23,3221675,2019-09-07 11:20:54:829,-1.4487,0.338,9.7415,-0.0016,-0.0043,9.8066,-0.0084,0.0149,-0.0095,-10.37,-30.44,5.69,298.31,-81.34,-162.25
76431,52.448753,-1.499024,155.86,9.09,3.0,233.22,22 / 23,3221775,2019-09-07 11:20:54:929,-1.8443,0.4119,9.7955,-0.0045,0.001,9.8065,-0.0239,-0.0054,-0.0156,-10.44,-29.19,6.19,299.5,-81.37,-162.05
76432,52.448753,-1.499024,155.86,9.09,3.0,233.22,22 / 23,3221876,2019-09-07 11:20:55:030,-2.1001,0.7264,10.0902,-0.0004,-0.0049,9.8066,-0.0135,0.014,0.007,-10.0,-29.12,6.0,299.99,-81.36,-161.64
76433,52.448753,-1.499024,155.86,9.09,3.0,233.22,22 / 23,3221975,2019-09-07 11:20:55:129,-1.9622,0.2773,9.9361,-0.0002,-0.0045,9.8066,0.0027,0.0264,-0.0048,-9.56,-29.44,5.94,300.42,-81.36,-161.31
76434,52.448753,-1.499024,155.86,9.09,3.0,233.22,22 / 23,3222076,2019-09-07 11:20:55:230,-1.6891,0.7304,9.514,0.0016,-0.0002,9.8066,-0.0005,0.002,-0.0183,-9.31,-28.25,5.81,303.08,-81.31,-161.01
76435,52.448753,-1.499024,155.86,9.09,3.0,233.22,22 / 23,3222175,2019-09-07 11:20:55:329,-1.9936,0.8294,10.0286,0.0006,-0.0043,9.8066,0.0059,0.0557,0.0236,-8.94,-27.62,5.94,303.29,-81.25,-160.72
76436,52.448753,-1.499024,155.86,9.09,3.0,233.22,21 / 23,3222276,2019-09-07 11:20:55:430,-2.1922,0.7208,10.2889,-0.003,-0.0053,9.8066,0.0051,0.0609,0.0238,-9.5,-28.19,6.38,303.94,-81.23,-160.17
76437,52.448753,-1.499024,155.86,9.09,3.0,233.22,21 / 23,3222375,2019-09-07 11:20:55:529,-1.8828,0.995,10.113,0.0023,-0.0051,9.8066,0.0084,0.019,-0.0036,-8.75,-27.31,6.75,312.28,-81.17,-159.55
76438,52.448753,-1.499024,155.86,9.09,3.0,233.22,21 / 23,3222475,2019-09-07 11:20:55:629,-1.8523,1.0133,9.6674,-0.0037,-0.0046,9.8066,0.0011,0.0338,0.0085,-9.12,-26.62,7.31,312.72,-81.14,-159.17
76439,52.448753,-1.499024,155.86,9.09,3.0,233.22,21 / 23,3222575,2019-09-07 11:20:55:729,-1.676,1.0841,9.9575,-0.0055,0.0012,9.8066,-0.0046,0.0401,0.0084,-7.81,-26.69,7.94,323.34,-81.13,-158.58
76440,52.448753,-1.499024,155.86,9.09,3.0,233.22,21 / 23,3222676,2019-09-07 11:20:55:830,-1.6909,1.6001,9.8893,-0.0044,-0.0026,9.8066,0.0032,0.0428,0.0014,-6.69,-26.0,7.88,329.28,-81.16,-158.13
76441,52.448753,-1.499024,155.86,9.09,3.0,233.22,21 / 23,3222776,2019-09-07 11:20:55:930,-1.93,1.3118,9.776,-0.0002,-0.0019,9.8066,-0.0048,0.0251,-0.0133,-6.62,-25.5,7.44,323.18,-81.14,-157.94
76442,52.448753,-1.499024,155.86,9.09,3.0,233.22,21 / 23,3222875,2019-09-07 11:20:56:029,-1.2367,1.6584,9.9556,-0.0057,-0.0015,9.8066,-0.0064,0.0415,0.0222,-5.94,-24.75,7.69,336.33,-81.13,-157.63
76443,52.448753,-1.499024,155.86,9.09,3.0,233.22,21 / 23,3222975,2019-09-07 11:20:56:129,-1.704,1.7911,10.217,-0.009,0.0002,9.8066,-0.0256,0.0106,-0.0172,-5.19,-24.75,7.75,345.63,-81.17,-156.41
76444,52.448753,-1.499024,155.86,9.09,3.0,233.22,21 / 23,3223076,2019-09-07 11:20:56:230,-1.3129,2.1286,9.9126,-0.006,0.0026,9.8066,-0.01,0.0221,0.0018,-4.62,-24.37,7.81,346.72,-81.23,-156.01
76445,52.448753,-1.499024,155.86,9.09,3.0,233.22,21 / 23,3223176,2019-09-07 11:20:56:330,-1.4817,1.832,9.8761,-0.003,0.0007,9.8066,-0.0054,0.0088,-0.0274,-4.62,-24.25,7.38,340.64,-81.23,-155.5
76446,52.448753,-1.499024,155.86,9.09,3.0,233.22,22 / 23,3223275,2019-09-07 11:20:56:429,-1.4303,1.8033,9.8545,-0.0022,0.0003,9.8066,0.0008,0.0437,0.0125,-4.75,-23.94,6.5,340.66,-81.28,-155.53
76447,52.448753,-1.499024,155.86,9.09,3.0,233.22,22 / 23,3223377,2019-09-07 11:20:56:531,-1.1279,2.0036,9.8686,-0.0087,0.0018,9.8066,-0.0179,0.0151,-0.0038,-4.5,-22.87,6.94,352.14,-81.32,-154.65
76448,52.448753,-1.499024,155.86,9.09,3.0,233.22,22 / 23,3223475,2019-09-07 11:20:56:629,-1.2301,2.0044,9.9513,-0.0036,0.0045,9.8065,-0.0051,0.0225,-0.0102,-3.75,-22.69,7.06,352.84,-81.37,-154.28
76449,52.448753,-1.499024,155.86,9.09,3.0,233.22,22 / 23,3223575,2019-09-07 11:20:56:729,-1.2109,1.985,9.7252,-0.0045,0.0022,9.8066,0.0027,0.0267,0.0056,-3.62,-23.06,6.81,353.32,-81.4,-154.02
76450,52.448753,-1.499024,155.86,9.09,3.0,233.22,22 / 23,3223676,2019-09-07 11:20:56:830,-1.135,2.1442,9.5928,-0.0072,-0.0007,9.8066,-0.0089,0.0101,-0.0079,-4.0,-22.75,7.38,354.36,-81.42,-153.43
76451,52.448753,-1.499024,155.86,9.09,3.0,233.22,22 / 23,3223776,2019-09-07 11:20:56:930,-0.4829,2.0139,9.8655,-0.0032,-0.0003,9.8066,0.0038,0.0334,0.0056,-3.44,-23.31,7.19,6.98,-81.43,-153.03
76452,52.448753,-1.499024,155.86,9.09,3.0,233.22,22 / 23,3223875,2019-09-07 11:20:57:029,-0.925,1.821,9.9207,-0.0048,0.0012,9.8066,0.0028,0.0336,0.0119,-3.69,-23.25,6.81,355.92,-81.43,-152.56
76453,52.448753,-1.499024,155.86,9.09,3.0,233.22,22 / 23,3223976,2019-09-07 11:20:57:130,-0.5208,1.4328,9.8751,-0.0057,-0.0007,9.8066,0.0072,0.0097,0.0024,-3.37,-23.19,6.56,9.18,-81.43,-151.84
76454,52.448753,-1.499024,155.86,9.09,3.0,233.22,22 / 23,3224075,2019-09-07 11:20:57:229,-0.3181,1.3044,9.9875,-0.004,-0.0037,9.8066,0.001,0.0025,-0.0098,-2.75,-22.5,6.81,9.31,-81.39,-151.61
76455,52.448753,-1.499024,155.86,9.09,3.0,233.22,22 / 23,3224176,2019-09-07 11:20:57:330,-0.2293,1.2621,9.9173,-0.0007,0.0033,9.8066,0.0051,0.0236,0.0044,-3.31,-23.25,6.63,9.9,-81.4,-151.47
76456,52.44882,-1.499911,155.05,0.0,3.0,297.37,20 / 22,3224275,2019-09-07 11:20:57:429,-0.2257,1.3771,9.8043,-0.0018,0.0041,9.8066,0.0016,0.0077,-0.0026,-3.0,-22.81,6.13,4.4,-81.42,-151.33
76457,52.44882,-1.499911,155.05,0.0,3.0,297.37,20 / 22,3224376,2019-09-07 11:20:57:530,-0.0932,0.8402,9.8132,-0.004,-0.0005,9.8066,0.0107,0.0193,0.0063,-3.06,-22.44,7.0,10.42,-81.44,-150.96
76458,52.44882,-1.499911,155.05,0.0,3.0,297.37,20 / 22,3224475,2019-09-07 11:20:57:629,-0.2008,0.8571,9.9007,-0.0035,0.0006,9.8066,0.0079,0.0331,0.0087,-3.44,-22.0,6.88,10.92,-81.42,-150.69
76459,52.44882,-1.499911,155.05,0.0,3.0,297.37,20 / 22,3224575,2019-09-07 11:20:57:729,-0.101,0.4337,9.9048,-0.0042,0.0015,9.8066,0.0049,0.0193,0.0064,-2.94,-22.44,7.38,11.69,-81.43,-150.24
76460,52.44882,-1.499911,155.05,0.0,3.0,297.37,20 / 22,3224676,2019-09-07 11:20:57:830,0.1409,0.2059,9.9325,-0.002,-0.0003,9.8065,0.0083,-0.0001,0.0024,-2.94,-21.94,7.31,12.32,-81.42,-149.89
76461,52.44882,-1.499911,155.05,0.0,3.0,297.37,20 / 22,3224776,2019-09-07 11:20:57:930,0.0525,0.2259,9.8786,-0.0021,-0.0007,9.8066,0.0081,0.0024,-0.0078,-3.0,-22.19,6.56,12.61,-81.41,-149.74
76462,52.44882,-1.499911,155.05,0.0,3.0,297.37,20 / 22,3224876,2019-09-07 11:20:58:030,0.1505,-0.0939,9.9475,-0.0049,0.0006,9.8066,0.0097,0.0202,0.0106,-3.0,-22.5,7.0,13.03,-81.4,-149.51
76463,52.44882,-1.499911,155.05,0.0,3.0,297.37,20 / 22,3224975,2019-09-07 11:20:58:129,0.0902,0.0529,9.6507,-0.004,0.0031,9.8066,0.0047,0.0095,0.0035,-3.12,-22.69,7.38,14.52,-81.42,-148.93
76464,52.44882,-1.499911,155.05,0.0,3.0,297.37,20 / 22,3225075,2019-09-07 11:20:58:229,0.1238,0.0464,9.6178,-0.002,0.0034,9.8066,-0.0022,0.007,-0.0082,-3.5,-22.69,7.38,15.01,-81.44,-148.64
76465,52.44882,-1.499911,155.05,0.0,3.0,297.37,20 / 22,3225175,2019-09-07 11:20:58:329,0.2176,-0.6496,9.7176,-0.0031,-0.002,9.8066,0.0297,0.0199,0.0021,-3.12,-22.5,6.94,14.93,-81.43,-148.4
76466,52.44882,-1.499911,155.05,0.0,3.0,297.37,20 / 22,3225276,2019-09-07 11:20:58:430,0.4682,-1.3967,9.5844,-0.0003,-0.0059,9.8065,0.0258,0.0181,0.0018,-3.37,-22.75,7.06,15.11,-81.36,-148.65
76467,52.44882,-1.499911,155.05,0.0,3.0,297.37,20 / 22,3225375,2019-09-07 11:20:58:529,0.6566,-1.7696,9.1028,0.0043,-0.0082,9.8066,0.026,0.0,-0.0061,-3.12,-23.06,7.06,14.58,-81.25,-149.02
76468,52.44882,-1.499911,155.05,0.0,3.0,297.37,20 / 22,3225476,2019-09-07 11:20:58:630,0.6797,-2.1305,9.4661,0.0006,-0.0092,9.8066,0.0287,0.0181,-0.0024,-3.25,-22.56,7.31,14.01,-81.18,-149.39
76469,52.44882,-1.499911,155.05,0.0,3.0,297.37,20 / 22,3225575,2019-09-07 11:20:58:729,0.5728,-1.8562,9.9179,0.0012,-0.0062,9.8066,0.0066,0.0019,-0.0036,-3.37,-22.94,7.81,17.05,-81.04,-149.66
76470,52.44882,-1.499911,155.05,0.0,3.0,297.37,20 / 22,3225675,2019-09-07 11:20:58:829,0.6396,-1.7837,8.9124,-0.0025,0.0039,9.8066,-0.0111,0.006,0.0019,-3.31,-22.62,7.38,13.61,-81.05,-149.7
76471,52.44882,-1.499911,155.05,0.0,3.0,297.37,20 / 22,3225776,2019-09-07 11:20:58:930,0.5597,-1.8476,8.7077,-0.0053,-0.0019,9.8066,0.0041,0.0258,0.0211,-3.37,-22.19,7.81,17.27,-81.05,-149.21
76472,52.44882,-1.499911,155.05,0.0,3.0,297.37,20 / 22,3225875,2019-09-07 11:20:59:029,0.2612,-2.1108,11.0666,-0.0001,0.0052,9.8066,-0.0058,0.0115,0.008,-3.19,-22.25,8.13,17.78,-81.08,-148.87
76473,52.44882,-1.499911,155.05,0.0,3.0,297.37,20 / 22,3225975,2019-09-07 11:20:59:129,0.4573,-1.8834,9.1436,-0.0026,0.0009,9.8066,0.0029,0.0102,-0.0045,-3.0,-22.44,7.69,18.14,-81.11,-148.63
76474,52.44882,-1.499911,155.05,0.0,3.0,297.37,20 / 22,3226075,2019-09-07 11:20:59:229,0.5533,-2.0639,9.8588,0.0015,0.0057,9.8066,-0.0087,0.0094,-0.0095,-2.87,-22.06,7.88,18.3,-81.11,-148.53
76475,52.44882,-1.499911,155.05,0.0,3.0,297.37,20 / 22,3226175,2019-09-07 11:20:59:329,0.4973,-1.5701,10.6836,0.0014,0.0057,9.8066,-0.0056,0.0201,-0.0046,-3.12,-22.0,7.56,18.01,-81.22,-148.61
76476,52.44882,-1.499911,155.05,0.0,3.0,297.37,19 / 20,3226276,2019-09-07 11:20:59:430,0.4065,-1.1762,9.3962,-0.0035,0.0073,9.8066,-0.0182,0.0368,0.0107,-3.0,-22.44,7.69,18.49,-81.23,-148.32
76477,52.44882,-1.499911,155.05,0.0,3.0,297.37,19 / 20,3226376,2019-09-07 11:20:59:530,0.2562,-0.5836,10.0354,0.0,0.0103,9.8065,-0.022,0.0215,0.0004,-3.06,-22.94,7.38,16.65,-81.39,-147.78
76478,52.44882,-1.499911,155.05,0.0,3.0,297.37,19 / 20,3226475,2019-09-07 11:20:59:629,0.3495,-1.0961,9.9015,-0.005,0.0045,9.8066,-0.0117,0.0209,0.0027,-3.31,-21.81,7.94,20.05,-81.49,-147.11
76479,52.44882,-1.499911,155.05,0.0,3.0,297.37,19 / 20,3226576,2019-09-07 11:20:59:730,0.2905,-1.0453,10.0444,-0.0048,0.0037,9.8066,-0.0086,0.0035,0.0037,-3.31,-21.69,7.88,20.66,-81.5,-146.71
76480,52.44882,-1.499911,155.05,0.0,3.0,297.37,19 / 20,3226676,2019-09-07 11:20:59:830,0.2136,-0.8504,9.8399,-0.0022,0.0033,9.8066,-0.0035,0.0215,0.0079,-2.31,-21.69,7.56,31.9,-81.52,-146.38
76481,52.44882,-1.499911,155.05,0.0,3.0,297.37,19 / 20,3226776,2019-09-07 11:20:59:930,0.3137,-0.7036,9.6406,-0.0044,-0.0003,9.8066,0.0048,0.0215,0.0145,-2.75,-22.25,7.5,21.8,-81.52,-145.98
76482,52.44882,-1.499911,155.05,0.0,3.0,297.37,19 / 20,3226875,2019-09-07 11:21:00:029,0.2256,-0.9898,9.9032,-0.0007,-0.0004,9.8066,0.0048,0.0123,0.0035,-2.81,-22.37,7.5,22.1,-81.47,-145.84
76483,52.44882,-1.499911,155.05,0.0,3.0,297.37,19 / 20,3226975,2019-09-07 11:21:00:129,0.3599,-0.8111,9.3979,-0.0025,0.0033,9.8066,-0.0069,0.0227,0.0154,-2.81,-22.56,7.94,22.99,-81.48,-145.66
76484,52.44882,-1.499911,155.05,0.0,3.0,297.37,19 / 20,3227076,2019-09-07 11:21:00:230,0.1128,-1.0307,9.6954,-0.0049,0.0069,9.8066,-0.0132,0.0282,0.0167,-2.44,-21.44,7.38,32.96,-81.51,-144.82
76485,52.44882,-1.499911,155.05,0.0,3.0,297.37,19 / 20,3227176,2019-09-07 11:21:00:330,-0.0452,-0.9436,9.9509,-0.002,0.0054,9.8066,-0.0181,0.0103,-0.001,-2.44,-21.44,7.69,33.81,-81.54,-144.51
76486,52.44882,-1.499911,155.05,0.0,3.0,297.37,21 / 23,3227275,2019-09-07 11:21:00:429,-0.1443,-1.2014,9.7166,-0.0003,0.0054,9.8066,-0.0097,0.008,-0.0033,-2.12,-21.81,7.81,35.03,-81.6,-144.2
76487,52.44882,-1.499911,155.05,0.0,3.0,297.37,21 / 23,3227375,2019-09-07 11:21:00:529,0.032,-1.0993,9.8657,0.0014,0.0152,9.8066,-0.0283,0.0162,-0.0195,-2.44,-21.94,7.19,35.49,-81.75,-143.48
76488,52.44882,-1.499911,155.05,0.0,3.0,297.37,21 / 23,3227476,2019-09-07 11:21:00:630,0.1183,-0.9795,10.1553,0.0073,0.0116,9.8066,-0.0264,0.0165,-0.0143,-2.44,-21.31,7.44,34.33,-81.93,-143.23
76489,52.44882,-1.499911,155.05,0.0,3.0,297.37,21 / 23,3227576,2019-09-07 11:21:00:730,0.1532,-0.9799,10.1386,0.0064,0.0122,9.8065,-0.0188,0.0171,-0.0017,-2.5,-21.37,7.63,34.49,-82.18,-143.07
76490,52.44882,-1.499911,155.05,0.0,3.0,297.37,21 / 23,3227676,2019-09-07 11:21:00:830,0.3393,-1.3971,9.6416,-0.0014,0.0096,9.8066,-0.02,0.0186,0.0064,-1.75,-21.5,7.81,34.94,-82.34,-142.51
76491,52.44882,-1.499911,155.05,0.0,3.0,297.37,21 / 23,3227776,2019-09-07 11:21:00:930,0.0311,-1.0423,9.7827,0.0004,0.0077,9.8066,-0.0237,0.0087,-0.0098,-1.56,-21.44,7.0,34.85,-82.42,-142.02
76492,52.44882,-1.499911,155.05,0.0,3.0,297.37,21 / 23,3227875,2019-09-07 11:21:01:029,-0.1496,-0.683,9.6866,0.0025,0.0101,9.8066,-0.0192,0.012,-0.0073,-1.62,-21.62,6.75,36.07,-82.53,-141.63
76493,52.44882,-1.499911,155.05,0.0,3.0,297.37,21 / 23,3227976,2019-09-07 11:21:01:130,0.0338,-0.4003,9.6301,0.0111,0.008,9.8065,-0.0249,0.0064,-0.0276,-1.69,-21.0,6.81,34.81,-82.74,-141.51
76494,52.44882,-1.499911,155.05,0.0,3.0,297.37,21 / 23,3228075,2019-09-07 11:21:01:229,-0.168,-1.0313,10.2454,0.0087,0.0041,9.8066,-0.0032,0.0168,-0.0123,-0.94,-21.06,6.94,45.75,-82.88,-141.68
76495,52.44882,-1.499911,155.05,0.0,3.0,297.37,21 / 23,3228176,2019-09-07 11:21:01:330,0.0769,-0.8203,10.3479,0.0069,0.001,9.8066,-0.0031,0.02,-0.0102,-1.5,-21.06,6.5,44.48,-83.01,-142.34
76496,52.44882,-1.499911,155.05,0.0,3.0,297.37,21 / 22,3228276,2019-09-07 11:21:01:430,0.0888,-0.938,9.4621,0.0086,0.002,9.8066,-0.0084,0.0087,-0.0221,-1.0,-21.31,6.88,43.95,-83.07,-142.59
76497,52.44882,-1.499911,155.05,0.0,3.0,297.37,21 / 22,3228375,2019-09-07 11:21:01:529,0.0369,-0.5249,9.7082,0.0085,0.0007,9.8066,-0.0158,0.0057,-0.0213,-0.62,-20.87,6.38,43.94,-83.21,-143.32
76498,52.44882,-1.499911,155.05,0.0,3.0,297.37,21 / 22,3228476,2019-09-07 11:21:01:630,0.0321,-0.8721,9.7076,0.0062,0.0002,9.8066,0.0015,0.0121,-0.0136,-1.12,-20.37,5.81,42.2,-83.29,-143.54
76499,52.44882,-1.499911,155.05,0.0,3.0,297.37,21 / 22,3228576,2019-09-07 11:21:01:730,0.347,-0.8221,10.0146,0.0044,-0.0022,9.8066,-0.0026,-0.0023,-0.0078,-1.12,-20.69,6.69,40.72,-83.35,-144.35
76500,52.44882,-1.499911,155.05,0.0,3.0,297.37,21 / 22,3228675,2019-09-07 11:21:01:829,-0.086,-0.7534,9.5505,-0.0031,0.0004,9.8066,0.0027,0.025,0.0124,-0.75,-20.81,6.31,42.22,-83.32,-144.23
76501,52.44882,-1.499911,155.05,0.0,3.0,297.37,21 / 22,3228775,2019-09-07 11:21:01:929,-0.3307,-0.3114,9.915,-0.0003,0.0019,9.8066,-0.003,0.0141,-0.0093,-0.12,-20.87,6.81,52.34,-83.31,-143.98
76502,52.44882,-1.499911,155.05,0.0,3.0,297.37,21 / 22,3228875,2019-09-07 11:21:02:029,-0.2446,-0.5558,10.2201,0.0039,-0.0047,9.8065,0.009,0.0346,-0.0129,-0.19,-21.06,6.63,51.99,-83.34,-144.17
76503,52.44882,-1.499911,155.05,0.0,3.0,297.37,21 / 22,3228976,2019-09-07 11:21:02:130,-0.0568,-0.7585,9.6245,0.0068,-0.0051,9.8066,-0.0013,0.0304,-0.0131,-0.69,-20.56,6.0,40.61,-83.35,-145.25
76504,52.44882,-1.499911,155.05,0.0,3.0,297.37,21 / 22,3229075,2019-09-07 11:21:02:229,0.0813,-0.8426,9.676,0.0068,0.0033,9.8066,-0.0068,0.0291,-0.0052,-0.31,-20.69,5.81,53.14,-83.43,-145.82
76505,52.44882,-1.499911,155.05,0.0,3.0,297.37,21 / 22,3229176,2019-09-07 11:21:02:330,-0.067,-0.4958,10.0425,0.0037,0.0034,9.8066,-0.0105,0.0052,-0.0122,-0.44,-20.19,6.69,48.19,-83.53,-145.92
76506,52.44882,-1.499911,155.05,0.0,3.0,297.37,20 / 21,3229275,2019-09-07 11:21:02:429,-0.1979,-1.0758,9.5994,0.0033,0.0017,9.8066,-0.0028,0.0292,-0.0022,-0.19,-20.69,6.75,48.83,-83.58,-146.04
76507,52.44882,-1.499911,155.05,0.0,3.0,297.37,20 / 21,3229375,2019-09-07 11:21:02:529,-0.3928,-1.0841,9.8082,0.002,0.0039,9.8066,-0.0066,0.0273,-0.0101,-0.06,-20.94,6.31,52.11,-83.64,-145.96
76508,52.44882,-1.499911,155.05,0.0,3.0,297.37,20 / 21,3229476,2019-09-07 11:21:02:630,-0.0242,-1.532,9.3158,0.0073,0.0002,9.8066,-0.0025,0.0212,-0.0228,-0.31,-20.37,7.13,46.84,-83.74,-146.5
76509,52.44882,-1.499911,155.05,0.0,3.0,297.37,20 / 21,3229575,2019-09-07 11:21:02:729,-0.2594,-1.5961,10.0767,0.0055,0.0029,9.8066,-0.0052,0.0338,-0.0209,-0.06,-21.0,6.31,50.69,-83.78,-146.61
76510,52.44882,-1.499911,155.05,0.0,3.0,297.37,20 / 21,3229676,2019-09-07 11:21:02:830,-0.4155,-1.5623,10.0172,0.0083,0.0016,9.8066,-0.0046,0.0241,-0.0268,-0.19,-20.94,5.88,49.86,-83.85,-147.03
76511,52.44882,-1.499911,155.05,0.0,3.0,297.37,20 / 21,3229775,2019-09-07 11:21:02:929,-0.1433,-1.0694,9.6287,0.006,0.0011,9.8065,0.0108,0.0547,-0.0056,0.0,-20.06,6.69,44.61,-83.94,-147.81
76512,52.44882,-1.499911,155.05,0.0,3.0,297.37,20 / 21,3229876,2019-09-07 11:21:03:030,-0.0436,-1.527,9.4398,0.005,-0.0036,9.8066,-0.0015,0.0316,-0.0253,0.63,-20.31,6.69,53.72,-83.99,-148.43
76513,52.44882,-1.499911,155.05,0.0,3.0,297.37,20 / 21,3229975,2019-09-07 11:21:03:129,-0.3456,-1.0534,9.8044,0.0013,0.0047,9.8066,-0.032,0.0502,-0.0033,0.19,-20.62,6.44,47.09,-84.05,-148.53
76514,52.44882,-1.499911,155.05,0.0,3.0,297.37,20 / 21,3230075,2019-09-07 11:21:03:229,-0.0439,-0.5953,10.024,0.0112,0.0053,9.8065,-0.0194,0.0438,-0.0249,-0.12,-20.44,6.31,45.25,-84.24,-148.68
76515,52.44882,-1.499911,155.05,0.0,3.0,297.37,20 / 21,3230175,2019-09-07 11:21:03:329,-0.3248,-0.8064,10.4458,0.0084,-0.0021,9.8066,0.0089,0.0479,-0.0335,0.19,-20.06,6.19,43.73,-84.33,-149.6
76516,52.44882,-1.499911,155.05,0.0,3.0,297.37,20 / 21,3230275,2019-09-07 11:21:03:429,-0.0791,-1.2944,9.6557,0.0092,-0.0062,9.8066,-0.0107,0.0229,-0.0582,0.44,-20.37,6.31,41.31,-84.39,-151.27
76517,52.44882,-1.499911,155.05,0.0,3.0,297.37,20 / 21,3230375,2019-09-07 11:21:03:529,0.265,-1.0195,9.3035,0.0081,-0.0083,9.8066,0.032,0.0908,-0.0068,0.5,-20.19,6.69,46.65,-84.39,-153.25
76518,52.44882,-1.499911,155.05,0.0,3.0,297.37,20 / 21,3230476,2019-09-07 11:21:03:630,-0.0322,-1.2823,9.6828,0.0086,-0.0074,9.8066,0.0004,0.0635,-0.0278,0.81,-20.06,7.13,44.7,-84.36,-154.87
76519,52.44882,-1.499911,155.05,0.0,3.0,297.37,20 / 21,3230575,2019-09-07 11:21:03:729,-0.2046,-1.6035,10.1111,0.0167,-0.0012,9.8066,-0.0095,0.0761,-0.0546,0.75,-20.37,6.81,41.85,-84.44,-156.97
76520,52.44882,-1.499911,155.05,0.0,3.0,297.37,20 / 21,3230675,2019-09-07 11:21:03:829,0.2356,-1.042,9.6219,0.0134,-0.0027,9.8066,-0.0057,0.0621,-0.0346,1.06,-19.81,7.13,38.3,-84.59,-159.49
76521,52.44882,-1.499911,155.05,0.0,3.0,297.37,20 / 21,3230776,2019-09-07 11:21:03:930,0.2443,-0.9688,10.1935,0.0103,-0.0096,9.8065,-0.0075,0.0483,-0.0507,1.44,-20.25,7.56,33.53,-84.61,-161.12
76522,52.44882,-1.499911,155.05,0.0,3.0,297.37,20 / 21,3230875,2019-09-07 11:21:04:029,0.132,-1.1477,9.5074,0.0128,-0.0048,9.8066,-0.0044,0.0616,-0.0325,0.88,-20.31,6.94,34.63,-84.6,-162.34
76523,52.44882,-1.499911,155.05,0.0,3.0,297.37,20 / 21,3230976,2019-09-07 11:21:04:130,-0.2887,-1.0382,9.8064,0.0081,-0.0007,9.8066,-0.0039,0.0837,-0.0254,1.63,-19.69,7.69,38.0,-84.65,-164.17
76524,52.44882,-1.499911,155.05,0.0,3.0,297.37,20 / 21,3231075,2019-09-07 11:21:04:229,-0.3954,-1.235,10.0764,0.0092,-0.0058,9.8066,0.0062,0.0701,-0.0288,1.81,-20.56,7.31,40.29,-84.7,-165.73
76525,52.44882,-1.499911,155.05,0.0,3.0,297.37,20 / 21,3231175,2019-09-07 11:21:04:329,0.4538,-0.8875,10.1072,0.0068,-0.0118,9.8065,0.0166,0.0482,-0.0284,1.81,-19.75,7.94,33.36,-84.64,-167.96
76526,52.44882,-1.499911,155.05,0.0,3.0,297.37,21 / 21,3231275,2019-09-07 11:21:04:429,-0.749,-1.1702,9.8214,-0.003,-0.0159,9.8066,0.0247,0.0463,-0.0256,2.31,-19.75,8.38,32.28,-84.44,-169.1
76527,52.44882,-1.499911,155.05,0.0,3.0,297.37,21 / 21,3231377,2019-09-07 11:21:04:531,-0.373,-1.338,9.7765,0.0006,-0.0193,9.8065,0.0103,0.0527,-0.0262,2.5,-19.69,8.13,39.07,-84.28,-170.09
76528,52.44882,-1.499911,155.05,0.0,3.0,297.37,21 / 21,3231476,2019-09-07 11:21:04:630,-0.3869,-1.0505,10.4536,0.0021,-0.0172,9.8065,0.0209,0.034,-0.0338,3.31,-19.94,8.5,33.55,-84.09,-171.92
76529,52.44882,-1.499911,155.05,0.0,3.0,297.37,21 / 21,3231575,2019-09-07 11:21:04:729,-0.7983,-1.2104,10.0116,-0.0085,-0.0141,9.8065,0.0219,0.0363,-0.017,3.38,-19.19,8.63,32.53,-83.92,-172.62
76530,52.44882,-1.499911,155.05,0.0,3.0,297.37,21 / 21,3231675,2019-09-07 11:21:04:829,-0.0315,-1.0676,8.9928,0.0011,-0.0092,9.8066,-0.0059,-0.0229,-0.0433,3.31,-18.69,8.69,32.06,-83.75,-173.19
76531,52.44882,-1.499911,155.05,0.0,3.0,297.37,21 / 21,3231776,2019-09-07 11:21:04:930,-1.3571,-1.1818,9.6714,-0.0087,0.0097,9.8066,-0.0038,0.057,0.0186,3.81,-19.62,8.38,44.01,-83.69,-172.59
76532,52.44882,-1.499911,155.05,0.0,3.0,297.37,21 / 21,3231875,2019-09-07 11:21:05:029,-0.7376,-0.5722,10.1216,-0.0026,0.0011,9.8066,-0.0008,0.0207,0.0086,3.88,-18.69,9.06,39.92,-83.72,-172.01
76533,52.44882,-1.499911,155.05,0.0,3.0,297.37,21 / 21,3231975,2019-09-07 11:21:05:129,-0.6453,-0.6506,10.1997,-0.0057,0.0002,9.8066,0.0273,0.0576,0.0518,3.94,-19.37,9.25,40.54,-83.71,-171.51
76534,52.44882,-1.499911,155.05,0.0,3.0,297.37,21 / 21,3232075,2019-09-07 11:21:05:229,-0.8274,-1.1141,10.0545,-0.0068,-0.0156,9.8066,0.0289,0.0085,-0.0117,4.0,-19.19,8.5,40.92,-83.5,-171.47
76535,52.44882,-1.499911,155.05,0.0,3.0,297.37,21 / 21,3232176,2019-09-07 11:21:05:330,-1.0463,-1.0217,9.6845,-0.0083,-0.0092,9.8065,0.0247,0.0418,0.0132,4.69,-19.06,9.63,42.52,-83.35,-171.9
76536,52.44882,-1.499911,155.05,0.0,3.0,297.37,20 / 22,3232275,2019-09-07 11:21:05:429,-0.9967,-1.4872,9.371,0.0006,-0.0059,9.8066,0.0007,0.009,-0.0128,4.81,-19.44,9.75,42.2,-83.29,-172.25
76537,52.44882,-1.499911,155.05,0.0,3.0,297.37,20 / 22,3232375,2019-09-07 11:21:05:529,-1.4588,-1.5605,10.0081,-0.0016,0.0047,9.8066,-0.0242,0.0035,-0.0011,4.75,-19.19,9.88,42.13,-83.29,-172.32
76538,52.44882,-1.499911,155.05,0.0,3.0,297.37,20 / 22,3232476,2019-09-07 11:21:05:630,-1.0352,-0.718,10.097,0.0085,-0.003,9.8066,-0.0164,0.0321,-0.0102,4.94,-19.06,9.19,46.45,-83.31,-171.79
76539,52.44882,-1.499911,155.05,0.0,3.0,297.37,20 / 22,3232575,2019-09-07 11:21:05:729,-0.9558,-0.8197,10.5341,0.0006,-0.0023,9.8066,0.0249,0.0336,0.0205,5.19,-19.62,8.94,45.87,-83.35,-172.7
76540,52.44882,-1.499911,155.05,0.0,3.0,297.37,20 / 22,3232675,2019-09-07 11:21:05:829,-1.1518,-1.037,9.8959,-0.0003,-0.0039,9.8066,-0.001,0.0097,-0.0082,5.25,-19.25,8.63,45.37,-83.27,-172.77
76541,52.44882,-1.499911,155.05,0.0,3.0,297.37,20 / 22,3232776,2019-09-07 11:21:05:930,-1.0657,-0.9849,9.9,-0.0004,-0.0085,9.8065,-0.0156,-0.0077,-0.0342,5.63,-20.0,8.69,50.15,-83.23,-173.42
76542,52.44882,-1.499911,155.05,0.0,3.0,297.37,20 / 22,3232876,2019-09-07 11:21:06:030,-0.9311,-0.271,9.9023,0.0051,-0.0023,9.8066,-0.0273,-0.0196,-0.0503,4.88,-20.0,8.19,49.05,-83.26,-174.03
76543,52.44882,-1.499911,155.05,0.0,3.0,297.37,20 / 22,3232975,2019-09-07 11:21:06:129,-1.0994,-0.8841,10.0261,0.0031,-0.0056,9.8066,0.0155,0.0181,-0.0124,5.19,-20.5,8.75,43.54,-83.25,-174.79
76544,52.44882,-1.499911,155.05,0.0,3.0,297.37,20 / 22,3233075,2019-09-07 11:21:06:229,-1.1155,-0.4668,10.1331,0.005,-0.0085,9.8066,-0.0076,0.0023,-0.0248,5.38,-20.5,8.06,47.62,-83.17,-175.37
76545,52.44882,-1.499911,155.05,0.0,3.0,297.37,20 / 22,3233175,2019-09-07 11:21:06:329,-0.9444,-0.6066,10.3836,-0.0032,-0.005,9.8066,0.0036,0.0117,-0.0009,5.63,-20.31,7.38,57.45,-83.09,-176.11
76546,52.448956,-1.500486,154.83,9.33,3.0,286.28,21 / 22,3233276,2019-09-07 11:21:06:430,-1.0003,-0.1774,9.6443,-0.0053,-0.0038,9.8066,0.0087,0.0027,-0.0204,5.63,-21.06,6.63,57.83,-83.06,-176.51
76547,52.448956,-1.500486,154.83,9.33,3.0,286.28,21 / 22,3233375,2019-09-07 11:21:06:529,-1.1411,-0.0958,9.8544,-0.0043,-0.0073,9.8066,0.0119,0.0216,-0.0049,5.75,-22.0,5.81,64.74,-82.93,-177.3
76548,52.448956,-1.500486,154.83,9.33,3.0,286.28,21 / 22,3233475,2019-09-07 11:21:06:629,-0.8786,0.011,9.8036,0.001,-0.01,9.8066,0.0085,0.0448,0.0093,7.19,-22.94,4.81,75.3,-82.85,-178.19
76549,52.448956,-1.500486,154.83,9.33,3.0,286.28,21 / 22,3233575,2019-09-07 11:21:06:729,-0.411,0.1643,10.0011,-0.0029,-0.0046,9.8066,0.0112,0.017,-0.0124,7.25,-23.25,4.38,82.39,-82.83,-178.76
76550,52.448956,-1.500486,154.83,9.33,3.0,286.28,21 / 22,3233676,2019-09-07 11:21:06:830,-0.6573,0.1662,10.4094,-0.006,-0.0109,9.8066,0.0043,-0.0244,-0.0313,7.25,-23.62,4.94,75.23,-82.72,-179.5
76551,52.448956,-1.500486,154.83,9.33,3.0,286.28,21 / 22,3233775,2019-09-07 11:21:06:929,-0.5583,-0.0581,9.359,-0.0046,-0.0097,9.8066,0.0072,0.0061,-0.0194,7.19,-23.56,4.94,74.3,-82.57,179.23
76552,52.448956,-1.500486,154.83,9.33,3.0,286.28,21 / 22,3233875,2019-09-07 11:21:07:029,-0.0918,-0.1327,9.8918,0.0006,0.0066,9.8066,-0.0102,0.0508,0.0543,6.63,-23.44,5.25,73.14,-82.58,179.1
76553,52.448956,-1.500486,154.83,9.33,3.0,286.28,21 / 22,3233976,2019-09-07 11:21:07:130,0.2238,0.7176,11.7237,-0.0021,0.0099,9.8066,-0.0206,-0.0445,-0.0233,5.75,-23.62,5.06,72.73,-82.68,-179.74
76554,52.448956,-1.500486,154.83,9.33,3.0,286.28,21 / 22,3234076,2019-09-07 11:21:07:230,0.1345,0.188,10.9128,-0.0324,0.0041,9.8065,0.0739,-0.0324,0.0597,3.75,-22.62,6.19,55.67,-82.49,-178.5
76555,52.448956,-1.500486,154.83,9.33,3.0,286.28,21 / 22,3234176,2019-09-07 11:21:07:330,-1.3283,1.1383,9.6211,-0.0401,-0.0135,9.8065,0.1153,0.0464,0.0577,3.44,-22.75,5.81,52.84,-82.07,-176.27
76556,52.448956,-1.500486,154.83,9.33,3.0,286.28,20 / 22,3234275,2019-09-07 11:21:07:429,-2.6309,-0.9489,11.6342,-0.011,-0.0117,9.8066,-0.0318,-0.0104,0.0046,3.38,-22.62,5.81,56.49,-81.52,-175.49
76557,52.448956,-1.500486,154.83,9.33,3.0,286.28,20 / 22,3234375,2019-09-07 11:21:07:529,-0.5406,0.1431,9.5574,0.0123,0.0192,9.8065,-0.0485,-0.0149,0.0298,2.25,-22.87,5.25,59.89,-81.78,-174.34
76558,52.448956,-1.500486,154.83,9.33,3.0,286.28,20 / 22,3234476,2019-09-07 11:21:07:630,-1.0106,0.6106,9.3566,0.0041,0.0121,9.8066,-0.029,-0.0395,-0.0035,1.31,-23.25,5.75,32.33,-81.95,-173.87
76559,52.448956,-1.500486,154.83,9.33,3.0,286.28,20 / 22,3234575,2019-09-07 11:21:07:729,-0.9158,0.6776,10.0954,0.0034,-0.0145,9.8066,0.0243,-0.0331,-0.0289,1.81,-23.0,5.31,58.34,-82.01,-174.29
76560,52.448956,-1.500486,154.83,9.33,3.0,286.28,20 / 22,3234675,2019-09-07 11:21:07:829,-0.7433,-0.0799,10.1968,-0.0034,-0.0224,9.8065,0.0272,-0.0324,-0.0244,1.0,-23.62,5.13,42.04,-81.84,-176.28
76561,52.448956,-1.500486,154.83,9.33,3.0,286.28,20 / 22,3234775,2019-09-07 11:21:07:929,-0.4894,-0.3513,10.2439,0.0067,-0.0129,9.8066,0.0167,-0.0279,-0.0002,0.81,-23.19,5.63,26.42,-81.72,-177.33
76562,52.448956,-1.500486,154.83,9.33,3.0,286.28,20 / 22,3234875,2019-09-07 11:21:08:029,-0.3437,0.5687,10.7353,0.0011,-0.0108,9.8066,0.016,-0.0473,-0.025,0.88,-22.56,5.06,36.2,-81.59,-178.42
76563,52.448956,-1.500486,154.83,9.33,3.0,286.28,20 / 22,3234975,2019-09-07 11:21:08:129,-1.349,-0.982,9.3201,-0.0172,-0.0163,9.8066,-0.0074,-0.1241,-0.0346,0.31,-23.69,6.06,4.17,-81.32,-178.39
76564,52.448956,-1.500486,154.83,9.33,3.0,286.28,20 / 22,3235075,2019-09-07 11:21:08:229,-0.5326,-0.7543,9.3232,0.0089,-0.0068,9.8066,0.0336,0.0539,0.0839,-0.25,-22.56,5.75,2.83,-81.24,-178.86
76565,52.448956,-1.500486,154.83,9.33,3.0,286.28,20 / 22,3235175,2019-09-07 11:21:08:329,-0.6908,-0.411,8.7019,-0.0086,0.0214,9.8066,-0.0583,-0.028,0.0151,-0.81,-22.37,5.31,331.99,-81.29,-178.51
76566,52.448956,-1.500486,154.83,9.33,3.0,286.28,20 / 20,3235276,2019-09-07 11:21:08:430,-1.1837,0.3005,10.0295,-0.0013,0.0184,9.8066,-0.0596,-0.0878,-0.0347,-0.25,-23.37,4.94,3.95,-81.68,-178.72
76567,52.448956,-1.500486,154.83,9.33,3.0,286.28,20 / 20,3235375,2019-09-07 11:21:08:529,-0.1968,-0.5984,9.3952,0.0127,-0.0083,9.8066,0.0784,-0.0005,0.0273,-0.69,-23.56,5.13,329.4,-81.73,-178.8
76568,52.448956,-1.500486,154.83,9.33,3.0,286.28,20 / 20,3235475,2019-09-07 11:21:08:629,0.4654,-0.9703,9.9575,0.0113,-0.0259,9.8065,0.0814,-0.005,0.0483,-1.06,-23.87,5.38,325.13,-81.33,-179.21
76569,52.448956,-1.500486,154.83,9.33,3.0,286.28,20 / 20,3235576,2019-09-07 11:21:08:730,0.1812,-0.696,9.6089,0.0068,-0.0129,9.8066,0.0214,-0.0266,0.032,-1.37,-23.81,5.06,323.72,-81.03,-178.76
76570,52.448956,-1.500486,154.83,9.33,3.0,286.28,20 / 20,3235675,2019-09-07 11:21:08:829,0.4426,-1.2723,10.0197,-0.0043,-0.0068,9.8065,-0.0019,-0.0562,0.0221,-1.31,-24.19,4.75,323.99,-80.88,-178.23
76571,52.448956,-1.500486,154.83,9.33,3.0,286.28,20 / 20,3235775,2019-09-07 11:21:08:929,0.0739,-0.973,8.9199,-0.003,-0.0002,9.8066,-0.0111,-0.0409,-0.0016,-2.06,-23.69,4.75,304.32,-80.88,-177.51
76572,52.448956,-1.500486,154.83,9.33,3.0,286.28,20 / 20,3235876,2019-09-07 11:21:09:030,0.3755,-1.0907,9.5107,0.0007,0.0009,9.8066,-0.0012,-0.031,-0.004,-2.62,-24.31,4.69,294.66,-80.89,-177.35
76573,52.448956,-1.500486,154.83,9.33,3.0,286.28,20 / 20,3235975,2019-09-07 11:21:09:129,0.575,-0.5835,8.8825,0.0132,-0.005,9.8066,0.0164,-0.0397,-0.0261,-2.25,-25.0,4.88,298.38,-80.73,-177.83
76574,52.448956,-1.500486,154.83,9.33,3.0,286.28,20 / 20,3236076,2019-09-07 11:21:09:230,0.3342,-0.728,10.1957,0.0134,-0.0007,9.8066,0.0371,-0.0042,0.0131,-2.37,-24.5,4.81,300.24,-80.58,-178.11
76575,52.448956,-1.500486,154.83,9.33,3.0,286.28,20 / 20,3236175,2019-09-07 11:21:09:329,0.8782,-0.8374,10.3063,0.0051,-0.0075,9.8066,0.0002,-0.0759,-0.035,-2.62,-24.87,4.69,287.31,-80.46,-178.1
76576,52.448956,-1.500486,154.83,9.33,3.0,286.28,19 / 20,3236275,2019-09-07 11:21:09:429,0.145,-0.8828,10.2315,-0.0065,0.0014,9.8066,-0.0174,-0.0112,0.0322,-2.5,-24.81,5.25,294.73,-80.42,-177.93
76577,52.448956,-1.500486,154.83,9.33,3.0,286.28,19 / 20,3236376,2019-09-07 11:21:09:530,0.4828,-0.709,10.3059,-0.0011,-0.0023,9.8066,-0.011,-0.0497,-0.004,-2.94,-24.75,5.38,287.83,-80.42,-177.5
76578,52.448956,-1.500486,154.83,9.33,3.0,286.28,19 / 20,3236475,2019-09-07 11:21:09:629,0.3804,-0.5471,9.6104,0.0038,-0.0032,9.8066,0.0136,-0.022,0.0177,-3.56,-25.12,5.38,283.85,-80.39,-177.43
76579,52.448956,-1.500486,154.83,9.33,3.0,286.28,19 / 20,3236575,2019-09-07 11:21:09:729,0.2775,-0.5158,9.5568,0.0089,-0.0035,9.8065,0.0076,-0.0172,0.0179,-3.19,-25.0,5.38,287.76,-80.38,-177.33
76580,52.448956,-1.500486,154.83,9.33,3.0,286.28,19 / 20,3236675,2019-09-07 11:21:09:829,0.188,-0.9936,10.1082,0.003,-0.0057,9.8066,0.0245,-0.0495,-0.0029,-3.69,-25.06,5.06,283.72,-80.28,-176.96
76581,52.448956,-1.500486,154.83,9.33,3.0,286.28,19 / 20,3236776,2019-09-07 11:21:09:930,0.5968,-1.1211,9.736,0.0088,-0.0012,9.8066,0.0223,-0.0305,0.0235,-3.75,-26.0,4.81,280.83,-80.18,-176.7
76582,52.448956,-1.500486,154.83,9.33,3.0,286.28,19 / 20,3236876,2019-09-07 11:21:10:030,0.7273,-1.5491,9.717,-0.0062,-0.0024,9.8065,-0.0318,-0.0897,-0.0077,-4.56,-25.44,5.31,281.2,-80.1,-176.41
76583,52.448956,-1.500486,154.83,9.33,3.0,286.28,19 / 20,3236975,2019-09-07 11:21:10:129,-0.0165,-1.4359,9.7004,-0.0123,0.0105,9.8066,-0.0029,-0.0481,-0.0089,-4.25,-25.25,4.63,283.5,-80.27,-177.06
76584,52.448956,-1.500486,154.83,9.33,3.0,286.28,19 / 20,3237075,2019-09-07 11:21:10:229,0.0227,-1.1664,10.3877,-0.0026,0.0095,9.8066,-0.0017,-0.0712,-0.0178,-4.5,-26.37,4.81,280.51,-80.28,-177.58
76585,52.448956,-1.500486,154.83,9.33,3.0,286.28,19 / 20,3237175,2019-09-07 11:21:10:329,0.1674,-1.1133,9.9682,0.0172,0.0068,9.8066,0.0537,-0.0572,-0.0203,-3.81,-25.0,5.31,281.44,-80.19,-178.35
76586,52.448956,-1.500486,154.83,9.33,3.0,286.28,19 / 21,3237275,2019-09-07 11:21:10:429,0.795,-1.1668,10.2148,0.0181,0.0041,9.8066,0.0368,-0.051,-0.0024,-4.62,-25.69,5.0,274.85,-79.87,-179.19
76587,52.448956,-1.500486,154.83,9.33,3.0,286.28,19 / 21,3237375,2019-09-07 11:21:10:529,0.2581,-1.1869,10.2087,0.0019,-0.0052,9.8066,-0.0284,-0.0672,0.023,-4.44,-26.37,4.88,275.22,-79.77,-179.21
76588,52.448956,-1.500486,154.83,9.33,3.0,286.28,19 / 21,3237476,2019-09-07 11:21:10:630,0.1854,-1.1758,9.6376,0.0006,-0.0066,9.8066,-0.034,-0.0757,0.0132,-4.81,-25.75,5.31,275.0,-79.8,-178.71
76589,52.448956,-1.500486,154.83,9.33,3.0,286.28,19 / 21,3237575,2019-09-07 11:21:10:729,0.5086,-0.8546,9.0891,-0.0141,0.0043,9.8066,-0.0235,-0.0552,0.0045,-4.81,-25.75,4.94,275.81,-79.95,-178.7
76590,52.448956,-1.500486,154.83,9.33,3.0,286.28,19 / 21,3237676,2019-09-07 11:21:10:830,0.3722,-1.0624,10.0104,-0.0105,0.0029,9.8066,-0.015,-0.0608,-0.0047,-4.69,-25.81,4.88,276.22,-80.04,-178.77
76591,52.448956,-1.500486,154.83,9.33,3.0,286.28,19 / 21,3237775,2019-09-07 11:21:10:929,0.2623,-0.5488,9.8129,0.0151,0.0021,9.8066,0.0449,-0.0151,0.0198,-4.5,-25.81,4.13,262.79,-80.01,-178.94
76592,52.448956,-1.500486,154.83,9.33,3.0,286.28,19 / 21,3237875,2019-09-07 11:21:11:029,1.2381,-0.7317,9.7734,0.01,-0.0036,9.8066,-0.0001,-0.0765,-0.0247,-5.0,-25.37,4.63,276.97,-79.81,-178.83
76593,52.448956,-1.500486,154.83,9.33,3.0,286.28,19 / 21,3237976,2019-09-07 11:21:11:130,-0.7877,-1.1014,10.2322,-0.0073,0.006,9.8066,-0.0119,-0.0251,0.0335,-4.81,-25.81,4.75,274.8,-79.78,-178.77
76594,52.448956,-1.500486,154.83,9.33,3.0,286.28,19 / 21,3238075,2019-09-07 11:21:11:229,0.6593,-0.8095,9.695,-0.0047,0.002,9.8065,-0.0062,-0.0391,0.0098,-5.44,-25.0,4.38,265.44,-79.86,-179.2
76595,52.448956,-1.500486,154.83,9.33,3.0,286.28,19 / 21,3238175,2019-09-07 11:21:11:329,1.1628,-0.6298,9.4634,0.0016,0.0041,9.8066,-0.0177,-0.0488,0.0022,-5.19,-25.87,3.75,263.07,-79.84,-179.46
76596,52.448956,-1.500486,154.83,9.33,3.0,286.28,19 / 20,3238277,2019-09-07 11:21:11:431,0.7952,-0.3156,10.097,-0.0024,0.0035,9.8066,0.0014,0.0236,0.0667,-5.56,-25.87,4.06,264.24,-79.87,-179.68
76597,52.448956,-1.500486,154.83,9.33,3.0,286.28,19 / 20,3238375,2019-09-07 11:21:11:529,0.811,-0.6122,9.4113,0.005,-0.0083,9.8065,-0.0022,-0.0543,0.0143,-5.81,-25.56,3.81,264.67,-79.88,-179.27
76598,52.448956,-1.500486,154.83,9.33,3.0,286.28,19 / 20,3238476,2019-09-07 11:21:11:630,0.3788,-0.8447,9.1853,0.0031,-0.0095,9.8066,0.0038,-0.0321,0.0456,-6.0,-26.19,3.94,265.33,-79.79,-178.12
76599,52.448956,-1.500486,154.83,9.33,3.0,286.28,19 / 20,3238575,2019-09-07 11:21:11:729,0.3322,-0.9392,9.334,-0.0191,-0.0152,9.8066,-0.0448,0.0006,0.0643,-5.69,-26.25,3.69,266.34,-79.84,-177.24
76600,52.448956,-1.500486,154.83,9.33,3.0,286.28,19 / 20,3238675,2019-09-07 11:21:11:829,0.0107,-0.8714,9.4649,-0.0118,-0.016,9.8065,-0.0418,-0.0391,0.0364,-6.06,-26.56,3.38,258.08,-80.14,-175.51
76601,52.448956,-1.500486,154.83,9.33,3.0,286.28,19 / 20,3238776,2019-09-07 11:21:11:930,0.1557,-1.2012,9.856,0.0086,0.0006,9.8066,0.0353,-0.0019,0.0193,-6.56,-26.62,3.13,260.93,-80.15,-174.98
76602,52.448956,-1.500486,154.83,9.33,3.0,286.28,19 / 20,3238875,2019-09-07 11:21:12:029,0.5956,-0.9729,9.7372,0.0105,0.0041,9.8066,0.0267,-0.0422,-0.0128,-6.5,-26.19,2.88,259.53,-80.01,-175.06
76603,52.448956,-1.500486,154.83,9.33,3.0,286.28,19 / 20,3238976,2019-09-07 11:21:12:130,1.1956,-0.6736,10.1627,0.0069,0.0116,9.8066,-0.0013,-0.079,-0.0355,-6.87,-27.0,3.19,259.37,-79.83,-175.34
76604,52.448956,-1.500486,154.83,9.33,3.0,286.28,19 / 20,3239075,2019-09-07 11:21:12:229,0.8552,-0.7151,9.5005,0.0027,0.0034,9.8066,-0.0015,-0.0369,-0.0035,-7.69,-27.44,3.69,267.39,-79.73,-176.1
76605,52.448956,-1.500486,154.83,9.33,3.0,286.28,19 / 20,3239175,2019-09-07 11:21:12:329,1.3199,-0.5853,9.437,-0.002,0.0016,9.8066,-0.0007,-0.0022,0.0292,-7.94,-27.19,3.31,260.1,-79.74,-176.34
76606,52.448956,-1.500486,154.83,9.33,3.0,286.28,20 / 22,3239275,2019-09-07 11:21:12:429,1.0739,-0.8198,9.6008,0.0003,-0.0002,9.8066,-0.0053,0.0094,0.0317,-8.06,-26.5,4.06,268.49,-79.76,-176.42
76607,52.448956,-1.500486,154.83,9.33,3.0,286.28,20 / 22,3239375,2019-09-07 11:21:12:529,1.327,-0.5254,9.4632,-0.0045,-0.003,9.8066,-0.0305,-0.0583,-0.0012,-8.56,-27.19,3.63,268.25,-79.85,-176.35
76608,52.448956,-1.500486,154.83,9.33,3.0,286.28,20 / 22,3239475,2019-09-07 11:21:12:629,0.7039,-1.246,9.9875,-0.003,-0.0058,9.8066,-0.0078,-0.0545,-0.0091,-9.06,-27.69,4.56,274.08,-79.9,-176.02
76609,52.448956,-1.500486,154.83,9.33,3.0,286.28,20 / 22,3239575,2019-09-07 11:21:12:729,1.2265,-0.9201,9.6308,0.006,0.0006,9.8066,0.0154,-0.0406,-0.0088,-9.19,-28.44,4.88,273.85,-79.87,-176.14
76610,52.448956,-1.500486,154.83,9.33,3.0,286.28,20 / 22,3239675,2019-09-07 11:21:12:829,1.0701,-0.7509,9.7331,0.0119,0.0,9.8066,0.0047,-0.0446,0.0019,-9.44,-29.0,4.81,272.01,-79.7,-176.24
76611,52.448956,-1.500486,154.83,9.33,3.0,286.28,20 / 22,3239775,2019-09-07 11:21:12:929,1.2004,-1.2142,10.1306,-0.0052,0.005,9.8066,-0.0166,-0.0052,0.0153,-9.31,-29.75,4.5,270.76,-79.68,-176.24
76612,52.448956,-1.500486,154.83,9.33,3.0,286.28,20 / 22,3239875,2019-09-07 11:21:13:029,1.735,-0.8208,10.3028,-0.0098,-0.0006,9.8066,-0.0115,-0.03,0.016,-9.69,-29.81,5.38,271.39,-79.82,-176.35
76613,52.448956,-1.500486,154.83,9.33,3.0,286.28,20 / 22,3239976,2019-09-07 11:21:13:130,1.504,-0.8539,9.937,-0.0008,-0.0066,9.8066,-0.0209,-0.0625,-0.0147,-9.69,-29.56,5.25,272.0,-79.87,-175.9
76614,52.448956,-1.500486,154.83,9.33,3.0,286.28,20 / 22,3240075,2019-09-07 11:21:13:229,0.9245,-0.4407,10.0264,0.0017,-0.006,9.8066,-0.0173,-0.0552,-0.0106,-9.44,-29.19,5.38,273.25,-79.85,-175.52
76615,52.448956,-1.500486,154.83,9.33,3.0,286.28,20 / 22,3240176,2019-09-07 11:21:13:330,0.974,-0.3145,10.2883,0.001,-0.0064,9.8066,-0.0001,-0.0027,0.0137,-9.37,-29.69,4.81,272.45,-79.84,-175.11
76616,52.448956,-1.500486,154.83,9.33,3.0,286.28,20 / 22,3240275,2019-09-07 11:21:13:429,-0.1222,-0.6825,10.6495,0.0072,-0.0095,9.8066,-0.0098,-0.0432,-0.0303,-9.56,-29.75,5.13,273.17,-79.76,-174.4
76617,52.448956,-1.500486,154.83,9.33,3.0,286.28,20 / 22,3240376,2019-09-07 11:21:13:530,0.9228,-0.471,9.7742,0.0077,0.0076,9.8066,-0.0083,-0.0397,-0.0644,-10.12,-30.87,5.06,271.45,-79.64,-174.64
76618,52.448956,-1.500486,154.83,9.33,3.0,286.28,20 / 22,3240475,2019-09-07 11:21:13:629,0.1539,-0.1374,9.9245,0.0094,0.0205,9.8065,-0.0001,-0.0346,-0.0939,-9.94,-30.87,5.63,275.94,-79.57,-175.81
76619,52.448956,-1.500486,154.83,9.33,3.0,286.28,20 / 22,3240576,2019-09-07 11:21:13:730,-0.7406,1.0947,10.1939,-0.0124,-0.0051,9.8066,-0.0173,0.0742,0.0658,-10.87,-31.19,5.69,274.87,-79.59,-176.74
76620,52.448956,-1.500486,154.83,9.33,3.0,286.28,20 / 22,3240675,2019-09-07 11:21:13:829,1.3071,-0.9759,9.99,-0.0093,-0.0216,9.8066,-0.0822,-0.0648,-0.0518,-11.81,-30.25,5.44,272.38,-79.81,-175.72
76621,52.448956,-1.500486,154.83,9.33,3.0,286.28,20 / 22,3240775,2019-09-07 11:21:13:929,0.1635,-0.5804,10.7403,-0.0149,-0.0239,9.8066,-0.0318,0.016,0.0442,-10.94,-30.69,5.25,271.91,-80.08,-175.88
76622,52.448956,-1.500486,154.83,9.33,3.0,286.28,20 / 22,3240875,2019-09-07 11:21:14:029,-0.5338,0.1699,10.1183,-0.0018,-0.0048,9.8066,0.0243,0.0223,0.019,-10.87,-31.44,4.56,274.31,-80.17,-173.75
76623,52.448956,-1.500486,154.83,9.33,3.0,286.28,20 / 22,3240976,2019-09-07 11:21:14:130,-0.3262,-0.557,10.1156,0.0149,-0.0071,9.8065,0.0103,0.009,-0.0293,-11.31,-32.19,5.25,273.25,-79.9,-173.03
76624,52.448956,-1.500486,154.83,9.33,3.0,286.28,20 / 22,3241075,2019-09-07 11:21:14:229,-0.0987,-0.5383,9.7464,0.0038,0.0053,9.8066,-0.0158,-0.0216,-0.0674,-10.94,-32.06,5.44,272.69,-79.82,-173.34
76625,52.448956,-1.500486,154.83,9.33,3.0,286.28,20 / 22,3241176,2019-09-07 11:21:14:330,-0.7083,0.1704,10.2661,-0.0103,0.0036,9.8065,-0.0204,0.0213,-0.0037,-10.81,-31.0,5.38,273.45,-79.86,-173.68
76626,52.448956,-1.500486,154.83,9.33,3.0,286.28,19 / 21,3241275,2019-09-07 11:21:14:429,-0.9953,-0.1726,10.4783,-0.0023,-0.001,9.8066,-0.0085,0.0084,-0.0199,-10.44,-31.62,5.75,278.15,-79.96,-173.95
76627,52.448956,-1.500486,154.83,9.33,3.0,286.28,19 / 21,3241375,2019-09-07 11:21:14:529,-0.9236,0.0589,9.6374,-0.0011,-0.0055,9.8066,-0.0031,0.0101,0.0035,-11.12,-31.5,5.75,279.31,-79.97,-173.59
76628,52.448956,-1.500486,154.83,9.33,3.0,286.28,19 / 21,3241476,2019-09-07 11:21:14:630,-0.4197,0.2924,10.7747,-0.001,-0.0083,9.8066,0.0035,0.0661,0.0519,-10.94,-31.94,5.5,279.01,-79.96,-172.94
76629,52.448956,-1.500486,154.83,9.33,3.0,286.28,19 / 21,3241575,2019-09-07 11:21:14:729,-1.053,-0.5399,9.3277,0.0021,-0.0167,9.8066,-0.0036,-0.0139,-0.0109,-11.0,-32.62,5.75,279.21,-79.95,-171.85
76630,52.448956,-1.500486,154.83,9.33,3.0,286.28,19 / 21,3241675,2019-09-07 11:21:14:829,-0.5549,-0.0434,9.7172,0.0013,-0.008,9.8065,-0.0007,0.0314,0.0203,-10.75,-32.19,6.44,280.93,-79.88,-170.95
76631,52.448956,-1.500486,154.83,9.33,3.0,286.28,19 / 21,3241776,2019-09-07 11:21:14:930,-1.0264,0.036,9.5124,-0.0069,-0.0114,9.8066,-0.0289,0.0197,-0.0043,-11.12,-31.31,6.38,282.71,-79.88,-170.21
76632,52.448956,-1.500486,154.83,9.33,3.0,286.28,19 / 21,3241875,2019-09-07 11:21:15:029,-0.9256,-0.057,9.6679,-0.0065,-0.0061,9.8066,-0.0042,0.0622,0.0363,-10.81,-31.87,5.81,283.01,-79.97,-169.31
76633,52.448956,-1.500486,154.83,9.33,3.0,286.28,19 / 21,3241976,2019-09-07 11:21:15:130,-0.9691,0.0187,9.3589,0.0044,-0.0101,9.8066,0.0181,0.0495,0.0329,-10.62,-32.06,6.31,283.89,-79.93,-168.41
76634,52.448956,-1.500486,154.83,9.33,3.0,286.28,19 / 21,3242075,2019-09-07 11:21:15:229,-0.5196,-0.1482,9.5502,0.0061,-0.0139,9.8066,-0.0119,0.0272,0.0175,-11.12,-32.31,5.19,278.65,-79.82,-167.63
76635,52.448956,-1.500486,154.83,9.33,3.0,286.28,19 / 21,3242175,2019-09-07 11:21:15:329,-0.7066,-0.2491,10.3847,-0.0012,-0.0048,9.8066,0.0088,0.0155,-0.0052,-11.56,-31.5,5.81,285.85,-79.82,-166.98
76636,52.449364,-1.501972,155.2,14.42,3.0,297.82,20 / 21,3242275,2019-09-07 11:21:15:429,-0.6712,-0.2272,9.9399,0.0064,-0.0013,9.8066,0.0311,0.0397,0.0035,-11.94,-31.87,5.88,285.11,-79.79,-166.76
76637,52.449364,-1.501972,155.2,14.42,3.0,297.82,20 / 21,3242375,2019-09-07 11:21:15:529,-0.1841,-0.0387,9.5411,0.0085,0.0035,9.8065,0.0238,0.0423,-0.0096,-10.94,-31.75,6.38,284.08,-79.62,-167.35
76638,52.449364,-1.501972,155.2,14.42,3.0,297.82,20 / 21,3242476,2019-09-07 11:21:15:630,-1.1194,0.0721,9.4465,0.0027,0.0019,9.8066,-0.0039,0.0128,-0.0126,-11.37,-32.19,6.19,283.68,-79.57,-167.55
76639,52.449364,-1.501972,155.2,14.42,3.0,297.82,20 / 21,3242576,2019-09-07 11:21:15:730,-1.1377,-0.1742,10.5523,-0.0052,0.0067,9.8065,-0.0135,0.0042,-0.0352,-11.31,-32.5,6.38,283.94,-79.62,-167.47
76640,52.449364,-1.501972,155.2,14.42,3.0,297.82,20 / 21,3242675,2019-09-07 11:21:15:829,-0.2788,0.1072,9.5797,0.0001,0.0014,9.8066,0.0045,0.0075,-0.0196,-10.62,-32.62,6.69,288.5,-79.68,-167.82
76641,52.449364,-1.501972,155.2,14.42,3.0,297.82,20 / 21,3242775,2019-09-07 11:21:15:929,-0.5674,-0.1567,9.68,-0.0035,-0.0069,9.8066,-0.0377,-0.0165,-0.0189,-10.94,-31.94,6.19,283.65,-79.66,-167.84
76642,52.449364,-1.501972,155.2,14.42,3.0,297.82,20 / 21,3242876,2019-09-07 11:21:16:030,-1.1508,-0.1522,9.9755,-0.0087,-0.0003,9.8065,-0.0174,0.017,0.0087,-10.44,-31.75,5.69,284.85,-79.76,-167.28
76643,52.449364,-1.501972,155.2,14.42,3.0,297.82,20 / 21,3242975,2019-09-07 11:21:16:129,-0.7741,0.0468,10.5181,0.0014,0.0006,9.8066,0.011,0.0333,0.0155,-10.94,-31.75,6.31,284.92,-79.79,-167.09
76644,52.449364,-1.501972,155.2,14.42,3.0,297.82,20 / 21,3243076,2019-09-07 11:21:16:230,-0.6789,-0.2117,10.1004,0.0062,-0.0051,9.8065,0.0262,0.042,0.0147,-11.62,-32.12,5.44,279.36,-79.72,-166.99
76645,52.449364,-1.501972,155.2,14.42,3.0,297.82,20 / 21,3243175,2019-09-07 11:21:16:329,-0.9306,-0.3619,9.3708,0.0028,-0.0041,9.8066,0.0086,0.0379,0.0074,-11.37,-32.19,6.38,284.85,-79.65,-166.77
76646,52.449364,-1.501972,155.2,14.42,3.0,297.82,19 / 22,3243276,2019-09-07 11:21:16:430,-0.6266,-0.0267,9.7709,0.0019,-0.0003,9.8066,-0.0013,0.0135,-0.0048,-11.19,-32.37,6.56,290.68,-79.6,-166.6
76647,52.449364,-1.501972,155.2,14.42,3.0,297.82,19 / 22,3243375,2019-09-07 11:21:16:529,-0.7784,-0.2605,9.6397,-0.0025,-0.0062,9.8065,-0.0249,-0.0269,-0.0121,-11.06,-32.44,6.25,285.08,-79.59,-166.38
76648,52.449364,-1.501972,155.2,14.42,3.0,297.82,19 / 22,3243475,2019-09-07 11:21:16:629,-0.8191,-0.2526,10.2077,-0.0034,-0.0039,9.8066,-0.0034,0.0045,0.0078,-11.69,-32.25,6.13,285.64,-79.62,-165.84
76649,52.449364,-1.501972,155.2,14.42,3.0,297.82,19 / 22,3243575,2019-09-07 11:21:16:729,-1.1793,-0.4515,10.1009,0.0098,-0.0042,9.8066,0.0318,0.0055,0.0071,-11.56,-32.87,6.13,284.83,-79.6,-165.65
76650,52.449364,-1.501972,155.2,14.42,3.0,297.82,19 / 22,3243675,2019-09-07 11:21:16:829,-1.0023,-0.2405,10.2014,0.0151,-0.0044,9.8066,0.0127,-0.0164,-0.0214,-11.69,-32.44,6.44,285.15,-79.37,-165.61
76651,52.449364,-1.501972,155.2,14.42,3.0,297.82,19 / 22,3243776,2019-09-07 11:21:16:930,-1.0816,-0.0861,9.8758,0.0042,-0.0007,9.8066,-0.002,0.0047,0.0179,-11.56,-32.37,5.94,284.79,-79.28,-165.67
76652,52.449364,-1.501972,155.2,14.42,3.0,297.82,19 / 22,3243875,2019-09-07 11:21:17:029,-0.5715,0.2846,8.45,-0.0031,0.0037,9.8066,0.0289,0.076,0.0521,-12.56,-33.69,6.13,283.06,-79.27,-165.51
76653,52.449364,-1.501972,155.2,14.42,3.0,297.82,19 / 22,3243976,2019-09-07 11:21:17:130,-1.4419,0.1617,9.0601,-0.0059,-0.0025,9.8066,-0.0239,0.0125,-0.0061,-12.69,-32.62,7.06,289.5,-79.35,-165.2
76654,52.449364,-1.501972,155.2,14.42,3.0,297.82,19 / 22,3244075,2019-09-07 11:21:17:229,-0.6456,0.264,9.5183,-0.0137,-0.0071,9.8066,-0.0373,-0.0486,-0.0257,-12.0,-31.94,6.63,291.93,-79.51,-164.75
76655,52.449364,-1.501972,155.2,14.42,3.0,297.82,19 / 22,3244176,2019-09-07 11:21:17:330,-1.0451,-0.0752,9.8528,-0.0074,0.0089,9.8066,-0.0087,-0.0366,-0.0242,-12.19,-31.94,6.75,292.48,-79.55,-164.37
76656,52.449364,-1.501972,155.2,14.42,3.0,297.82,19 / 21,3244275,2019-09-07 11:21:17:429,-0.8463,-0.2452,10.5889,0.0044,-0.0072,9.8065,0.0117,0.0142,0.0241,-11.5,-32.25,6.94,293.2,-79.57,-164.45
76657,52.449364,-1.501972,155.2,14.42,3.0,297.82,19 / 21,3244376,2019-09-07 11:21:17:530,-1.1857,-0.5131,10.0452,-0.0032,-0.004,9.8066,-0.0012,-0.0009,0.0086,-11.87,-32.44,6.13,287.66,-79.52,-163.82
76658,52.449364,-1.501972,155.2,14.42,3.0,297.82,19 / 21,3244475,2019-09-07 11:21:17:629,-0.7918,-0.4275,9.7446,0.0021,-0.0069,9.8066,0.0082,0.0204,0.0337,-11.62,-32.31,6.75,293.5,-79.5,-163.41
76659,52.449364,-1.501972,155.2,14.42,3.0,297.82,19 / 21,3244575,2019-09-07 11:21:17:729,-0.7766,-0.2788,9.0342,0.0011,-0.0043,9.8066,-0.0209,-0.0276,-0.0164,-12.19,-32.5,7.13,294.08,-79.43,-162.77
76660,52.449364,-1.501972,155.2,14.42,3.0,297.82,19 / 21,3244675,2019-09-07 11:21:17:829,-0.9323,-0.4794,10.2085,0.0002,0.004,9.8066,0.0022,0.004,-0.0076,-11.56,-32.81,6.94,293.21,-79.46,-162.79
76661,52.449364,-1.501972,155.2,14.42,3.0,297.82,19 / 21,3244776,2019-09-07 11:21:17:930,-0.7107,-0.3107,9.6881,0.0034,-0.0009,9.8066,0.0021,-0.0002,0.0001,-11.62,-32.44,6.38,288.37,-79.46,-163.03
76662,52.449364,-1.501972,155.2,14.42,3.0,297.82,19 / 21,3244875,2019-09-07 11:21:18:029,-1.1439,-0.4105,10.0579,0.0017,-0.0046,9.8066,-0.0097,-0.0072,-0.006,-11.31,-32.69,7.38,293.56,-79.4,-162.89
76663,52.449364,-1.501972,155.2,14.42,3.0,297.82,19 / 21,3244975,2019-09-07 11:21:18:129,-0.5997,-0.3075,9.7887,-0.0028,-0.0024,9.8066,-0.0146,-0.0113,-0.004,-11.62,-31.75,6.75,293.97,-79.41,-162.81
76664,52.449364,-1.501972,155.2,14.42,3.0,297.82,19 / 21,3245075,2019-09-07 11:21:18:229,-1.2044,-0.4431,10.1447,-0.0053,0.002,9.8066,-0.0069,-0.0055,-0.0069,-11.12,-32.62,6.38,288.01,-79.46,-162.6
76665,52.449364,-1.501972,155.2,14.42,3.0,297.82,19 / 21,3245175,2019-09-07 11:21:18:329,-0.8812,-0.0034,9.8893,0.0041,0.0045,9.8066,0.0101,-0.0074,-0.0151,-11.0,-32.5,7.13,294.69,-79.48,-163.02
76666,52.449364,-1.501972,155.2,14.42,3.0,297.82,19 / 21,3245275,2019-09-07 11:21:18:429,-1.0571,-0.6246,10.1981,0.0018,-0.0004,9.8065,-0.0042,-0.0053,0.0112,-11.31,-31.94,6.56,294.38,-79.44,-163.18
76667,52.449364,-1.501972,155.2,14.42,3.0,297.82,19 / 21,3245376,2019-09-07 11:21:18:530,-0.5892,-0.1155,8.8171,0.0021,-0.0012,9.8066,-0.0057,-0.0249,-0.012,-10.94,-32.0,6.13,288.44,-79.46,-163.12
76668,52.449364,-1.501972,155.2,14.42,3.0,297.82,19 / 21,3245475,2019-09-07 11:21:18:629,-0.8306,-0.817,10.1285,-0.0046,-0.0023,9.8066,-0.0074,0.0013,0.0109,-11.56,-32.44,5.81,288.51,-79.48,-162.96
76669,52.449364,-1.501972,155.2,14.42,3.0,297.82,19 / 21,3245575,2019-09-07 11:21:18:729,-0.828,0.492,10.3374,-0.0073,0.0053,9.8066,-0.0028,0.0015,0.0049,-11.62,-32.75,6.13,287.64,-79.57,-163.13
76670,52.449364,-1.501972,155.2,14.42,3.0,297.82,19 / 21,3245675,2019-09-07 11:21:18:829,-0.8336,-1.9333,9.3658,0.0068,-0.0088,9.8065,-0.029,-0.099,-0.0807,-11.75,-32.56,5.63,287.87,-79.51,-162.77
76671,52.449364,-1.501972,155.2,14.42,3.0,297.82,19 / 21,3245775,2019-09-07 11:21:18:929,-0.5872,-0.1831,10.5857,-0.0011,0.0073,9.8066,-0.0176,-0.0094,-0.0211,-11.69,-32.81,5.38,281.38,-79.56,-163.79
76672,52.449364,-1.501972,155.2,14.42,3.0,297.82,19 / 21,3245875,2019-09-07 11:21:19:029,-0.1233,-0.5717,10.3589,-0.0059,-0.0059,9.8066,-0.009,-0.0452,-0.0381,-11.62,-33.06,5.75,286.86,-79.66,-164.03
76673,52.449364,-1.501972,155.2,14.42,3.0,297.82,19 / 21,3245975,2019-09-07 11:21:19:129,-0.5734,-0.4421,10.698,-0.0003,0.0032,9.8066,-0.001,0.0019,0.0025,-11.87,-32.44,5.56,287.61,-79.59,-164.04
76674,52.449364,-1.501972,155.2,14.42,3.0,297.82,19 / 21,3246075,2019-09-07 11:21:19:229,-0.5014,-0.3588,9.8473,0.003,-0.0039,9.8066,0.0177,0.0261,0.0331,-11.81,-32.62,5.81,286.67,-79.58,-163.99
76675,52.449364,-1.501972,155.2,14.42,3.0,297.82,19 / 21,3246175,2019-09-07 11:21:19:329,-0.8705,-0.6191,9.5728,0.0018,0.0003,9.8066,-0.0023,-0.0261,-0.0264,-12.25,-33.12,5.81,286.95,-79.51,-163.56
76676,52.449364,-1.501972,155.2,14.42,3.0,297.82,19 / 20,3246275,2019-09-07 11:21:19:429,-0.3242,-0.5747,9.8092,-0.0056,0.0039,9.8065,0.0013,0.021,0.0136,-12.5,-32.69,6.13,286.86,-79.54,-163.72
76677,52.449364,-1.501972,155.2,14.42,3.0,297.82,19 / 20,3246375,2019-09-07 11:21:19:529,-0.7961,-0.5013,10.5162,-0.0002,0.0068,9.8066,-0.0135,-0.0338,-0.0373,-12.06,-32.37,5.94,287.68,-79.55,-163.87
76678,52.449364,-1.501972,155.2,14.42,3.0,297.82,19 / 20,3246476,2019-09-07 11:21:19:630,-0.8198,-0.7023,10.4056,-0.0038,0.0084,9.8066,-0.0091,-0.0175,-0.0327,-12.19,-32.25,5.94,287.21,-79.61,-164.44
76679,52.449364,-1.501972,155.2,14.42,3.0,297.82,19 / 20,3246576,2019-09-07 11:21:19:730,-0.7724,-0.7574,9.6291,-0.0013,0.0046,9.8066,-0.004,-0.0117,-0.026,-12.31,-32.56,5.81,285.93,-79.68,-164.91
76680,52.449364,-1.501972,155.2,14.42,3.0,297.82,19 / 20,3246675,2019-09-07 11:21:19:829,-0.3198,-0.9546,9.3823,-0.0044,0.0089,9.8065,-0.0278,-0.052,-0.0662,-12.44,-32.75,6.31,285.49,-79.75,-165.47
76681,52.449364,-1.501972,155.2,14.42,3.0,297.82,19 / 20,3246775,2019-09-07 11:21:19:929,0.5252,-0.2184,9.8957,-0.0126,0.0164,9.8066,-0.0321,0.0176,-0.0167,-12.0,-32.37,6.0,285.78,-79.98,-166.64
76682,52.449364,-1.501972,155.2,14.42,3.0,297.82,19 / 20,3246876,2019-09-07 11:21:20:030,-0.4213,-0.13,9.4768,-0.0005,0.0113,9.8066,0.0208,0.0403,-0.0135,-12.0,-32.56,6.25,284.52,-80.07,-167.22
76683,52.449364,-1.501972,155.2,14.42,3.0,297.82,19 / 20,3246975,2019-09-07 11:21:20:129,-0.091,-0.2493,9.7006,0.0075,0.0099,9.8066,0.0222,0.0202,-0.0008,-11.81,-32.5,5.56,284.46,-80.01,-167.91
76684,52.449364,-1.501972,155.2,14.42,3.0,297.82,19 / 20,3247076,2019-09-07 11:21:20:230,-0.6229,-0.4896,9.8284,0.0011,0.0005,9.8066,0.0155,0.0361,0.0246,-12.19,-32.44,5.5,283.6,-79.96,-168.57
76685,52.449364,-1.501972,155.2,14.42,3.0,297.82,19 / 20,3247176,2019-09-07 11:21:20:330,0.1666,-0.0728,10.2971,0.0088,-0.0027,9.8066,0.0128,-0.0556,-0.0296,-11.94,-32.31,5.63,283.47,-79.82,-168.3
76686,52.449364,-1.501972,155.2,14.42,3.0,297.82,19 / 20,3247275,2019-09-07 11:21:20:429,-0.0192,-0.6676,10.0013,0.0038,-0.0026,9.8065,0.0244,0.0387,0.0579,-11.94,-32.12,6.13,283.33,-79.74,-168.2
76687,52.449364,-1.501972,155.2,14.42,3.0,297.82,19 / 20,3247376,2019-09-07 11:21:20:530,-0.6932,-0.7712,10.7622,-0.0057,0.0023,9.8066,-0.0431,-0.0598,-0.0514,-11.62,-31.44,6.25,284.51,-79.73,-167.95
76688,52.449364,-1.501972,155.2,14.42,3.0,297.82,19 / 20,3247476,2019-09-07 11:21:20:630,-0.7427,-0.7356,10.3506,-0.0101,0.006,9.8066,-0.0154,-0.0027,0.0135,-12.25,-31.69,5.81,283.81,-79.89,-168.19
76689,52.449364,-1.501972,155.2,14.42,3.0,297.82,19 / 20,3247575,2019-09-07 11:21:20:729,-0.0184,-0.6956,9.3637,0.0092,0.0004,9.8066,0.0191,-0.0227,-0.0261,-12.81,-32.06,6.5,288.4,-79.94,-168.26
76690,52.449364,-1.501972,155.2,14.42,3.0,297.82,19 / 20,3247676,2019-09-07 11:21:20:830,-0.995,-0.7295,9.5758,-0.0019,-0.0005,9.8066,-0.0161,-0.0563,-0.0326,-12.56,-31.37,7.31,288.84,-79.82,-168.31
76691,52.449364,-1.501972,155.2,14.42,3.0,297.82,19 / 20,3247775,2019-09-07 11:21:20:929,-0.7486,-0.0076,9.9479,-0.0102,0.0033,9.8066,-0.0179,-0.0004,0.0159,-12.31,-32.31,7.63,293.83,-79.92,-168.44
76692,52.449364,-1.501972,155.2,14.42,3.0,297.82,19 / 20,3247875,2019-09-07 11:21:21:029,0.4655,-0.2231,9.2398,0.0006,-0.0137,9.8066,0.0074,-0.0121,0.0082,-12.44,-32.5,7.13,289.62,-79.91,-167.69
76693,52.449364,-1.501972,155.2,14.42,3.0,297.82,19 / 20,3247975,2019-09-07 11:21:21:129,-0.261,-0.6712,10.5087,-0.0048,0.001,9.8066,-0.0087,0.0019,-0.0051,-11.87,-32.12,6.5,290.37,-79.92,-167.07
76694,52.449364,-1.501972,155.2,14.42,3.0,297.82,19 / 20,3248076,2019-09-07 11:21:21:230,-0.132,-0.5394,10.2049,-0.0064,0.0091,9.8066,-0.0082,0.0238,0.0143,-11.06,-32.06,7.56,296.82,-80.02,-167.25
76695,52.449364,-1.501972,155.2,14.42,3.0,297.82,19 / 20,3248175,2019-09-07 11:21:21:329,0.194,-0.4156,9.1252,-0.0136,0.0061,9.8066,-0.027,0.0237,-0.0001,-11.62,-32.25,6.75,290.72,-80.1,-167.2
76696,52.449364,-1.501972,155.2,14.42,3.0,297.82,19 / 20,3248276,2019-09-07 11:21:21:430,-0.5225,-0.6449,10.163,-0.01,0.0051,9.8065,-0.0318,-0.0189,-0.0454,-11.19,-32.31,6.5,292.26,-80.33,-167.19
76697,52.449364,-1.501972,155.2,14.42,3.0,297.82,19 / 20,3248375,2019-09-07 11:21:21:529,-0.3496,-0.3608,9.6702,-0.0015,0.0064,9.8066,-0.0084,-0.0264,-0.051,-11.56,-32.62,6.88,290.1,-80.44,-167.87
76698,52.449364,-1.501972,155.2,14.42,3.0,297.82,19 / 20,3248475,2019-09-07 11:21:21:629,0.3015,0.0474,9.569,0.0002,0.0087,9.8066,-0.0025,-0.0071,-0.0267,-10.87,-32.44,6.81,291.11,-80.48,-168.56
76699,52.449364,-1.501972,155.2,14.42,3.0,297.82,19 / 20,3248576,2019-09-07 11:21:21:730,0.4933,-0.4998,9.5464,0.0046,0.0043,9.8066,-0.006,0.0208,-0.02,-11.44,-32.56,6.5,290.14,-80.49,-168.65
76700,52.449364,-1.501972,155.2,14.42,3.0,297.82,19 / 20,3248675,2019-09-07 11:21:21:829,-0.0265,-0.3328,10.6151,0.0,0.0065,9.8066,-0.0035,0.0344,0.0034,-11.62,-32.62,6.81,288.72,-80.5,-169.21
76701,52.449364,-1.501972,155.2,14.42,3.0,297.82,19 / 20,3248775,2019-09-07 11:21:21:929,-0.4233,-0.3623,9.4133,-0.0049,-0.0011,9.8066,-0.0098,-0.0071,-0.013,-11.56,-32.06,7.13,289.31,-80.5,-169.39
76702,52.449364,-1.501972,155.2,14.42,3.0,297.82,19 / 20,3248876,2019-09-07 11:21:22:030,-0.1121,-0.6088,10.3687,0.0022,0.0013,9.8066,0.0065,0.031,0.0123,-11.06,-32.62,6.63,289.36,-80.5,-169.36
76703,52.449364,-1.501972,155.2,14.42,3.0,297.82,19 / 20,3248975,2019-09-07 11:21:22:129,-0.1908,-0.0737,9.5182,0.0057,-0.0065,9.8066,0.0295,0.0273,0.0101,-11.12,-32.31,6.38,284.48,-80.39,-169.2
76704,52.449364,-1.501972,155.2,14.42,3.0,297.82,19 / 20,3249076,2019-09-07 11:21:22:230,0.3681,-0.5004,9.7573,0.0047,-0.008,9.8066,-0.0217,-0.0449,-0.0314,-11.12,-31.87,7.0,290.37,-80.27,-168.64
76705,52.449364,-1.501972,155.2,14.42,3.0,297.82,19 / 20,3249175,2019-09-07 11:21:22:329,1.0046,-0.528,9.2652,-0.0034,-0.0027,9.8066,-0.0047,0.0494,0.0409,-11.81,-32.37,6.81,289.7,-80.3,-168.56
76706,52.449364,-1.501972,155.2,14.42,3.0,297.82,19 / 21,3249276,2019-09-07 11:21:22:430,1.2941,-0.2549,9.1852,-0.0062,-0.0048,9.8066,-0.0283,0.0099,-0.013,-11.31,-32.62,6.63,290.64,-80.37,-167.9
76707,52.449364,-1.501972,155.2,14.42,3.0,297.82,19 / 21,3249376,2019-09-07 11:21:22:530,1.6635,-0.8515,9.6546,-0.0126,0.0068,9.8066,-0.0141,0.0144,-0.0053,-11.44,-32.69,6.63,291.24,-80.45,-167.63
76708,52.449364,-1.501972,155.2,14.42,3.0,297.82,19 / 21,3249475,2019-09-07 11:21:22:629,0.7281,-0.3611,9.5141,-0.009,0.0098,9.8065,-0.02,0.0187,-0.0419,-11.81,-32.44,7.06,291.29,-80.65,-168.06
76709,52.449364,-1.501972,155.2,14.42,3.0,297.82,19 / 21,3249575,2019-09-07 11:21:22:729,0.5997,-0.3154,10.4421,-0.0089,0.0096,9.8065,-0.0038,0.0303,-0.0229,-11.31,-32.37,7.0,291.74,-80.79,-168.82
76710,52.449364,-1.501972,155.2,14.42,3.0,297.82,19 / 21,3249675,2019-09-07 11:21:22:829,0.6744,0.3898,10.2603,-0.0016,0.0092,9.8065,0.0197,0.0527,0.003,-11.44,-32.31,6.13,285.57,-80.86,-169.55
76711,52.449364,-1.501972,155.2,14.42,3.0,297.82,19 / 21,3249776,2019-09-07 11:21:22:930,0.5415,-0.4433,9.7122,0.007,0.0041,9.8066,0.0008,-0.0043,-0.0455,-11.19,-32.31,6.88,290.66,-80.8,-169.75
76712,52.449364,-1.501972,155.2,14.42,3.0,297.82,19 / 21,3249875,2019-09-07 11:21:23:029,0.7408,-0.0606,9.1822,0.0088,0.0031,9.8066,0.0022,-0.0178,-0.05,-11.19,-32.69,7.5,294.09,-80.65,-170.32
