,GPS LATITUDE (degrees), GPS LONGITUDE (degrees), GPS ALTITUDE (m), GPS SPEED (Kmh), GPS ACCURACY (m), GPS ORIENTATION (Â°),GPS SATELLITES IN RANGE, TIME SINCE START (ms), DATE (YYYY-MO-DD HH-MI-SS_SSS), ACCELEROMETER X (m/s²) , ACCELEROMETER Y (m/s²), ACCELEROMETER Z (m/s²), GRAVITY X (m/s²), GRAVITY Y (m/s²), GRAVITY Z (m/s²), GYROSCOPE Yaw (rad/s), GYROSCOPE Pitch (rad/s), GYROSCOPE Roll (rad/s), MAGNETIC FIELD X (Î¼T), MAGNETIC FIELD Y (Î¼T), MAGNETIC FIELD Z (Î¼T), ORIENTATION (Yaw) (Â°), ORIENTATION (Pitch) (Â°), ORIENTATION (Roll ) (Â°)
15262,52.371124,-1.266502,169.61,5.87,4,110.38,16 / 17,1557521,2019-09-04 19:47:17:694,-0.1267,0.3504,8.7299,-0.0073,0.0036,9.8066,-0.0417,-0.0068,0.0028,-19.69,-29.06,12.06,312.59,-86.18,-164.82
15263,52.371124,-1.266502,169.61,5.87,4,110.38,16 / 17,1557620,2019-09-04 19:47:17:793,-0.8584,0.4004,9.2528,-0.0305,0.0054,9.8065,-0.0753,-0.011,0.0339,-19.87,-29.31,12.13,315.59,-86.47,-162.25
15264,52.371124,-1.266502,169.61,5.87,4,110.38,16 / 17,1557720,2019-09-04 19:47:17:893,-1.3462,0.2372,10.2429,-0.011,0.0107,9.8066,-0.0134,0.0197,-0.0009,-19.56,-29.19,12.19,319.69,-86.78,-158.63
15265,52.371124,-1.266502,169.61,5.87,4,110.38,16 / 17,1557821,2019-09-04 19:47:17:994,-0.4553,0.8724,9.4508,0.0092,-0.0063,9.8066,0.0325,0.018,0.0212,-20.19,-29.25,12.13,319.62,-86.82,-158.74
15266,52.371124,-1.266502,169.61,5.87,4,110.38,16 / 17,1557920,2019-09-04 19:47:18:093,-0.5715,0.3458,9.7733,-0.0049,-0.0188,9.8066,0.0029,-0.0119,0.022,-20.19,-29.25,11.75,320.39,-86.61,-157.83
15267,52.371124,-1.266502,169.61,5.87,4,110.38,16 / 17,1558022,2019-09-04 19:47:18:195,-0.8464,0.1836,9.8387,-0.0085,-0.0055,9.8066,-0.0121,-0.0256,0.0186,-20.5,-29.37,12.06,323.18,-86.51,-155.14
15268,52.371124,-1.266502,169.61,5.87,4,110.38,16 / 17,1558120,2019-09-04 19:47:18:293,-0.9774,0.5739,10.2994,-0.0022,-0.0153,9.8066,0.0231,-0.0084,0.0148,-20.62,-29.12,11.94,325.65,-86.46,-151.65
15269,52.371124,-1.266502,169.61,5.87,4,110.38,16 / 17,1558221,2019-09-04 19:47:18:394,-0.7216,0.0449,9.6482,0.0081,-0.0103,9.8066,0.038,-0.0211,-0.005,-20.56,-28.69,12.31,326.62,-86.25,-150.59
15270,52.371124,-1.266502,169.61,5.87,4,110.38,16 / 17,1558321,2019-09-04 19:47:18:494,-0.5862,0.058,9.7413,-0.0006,0.0004,9.8066,-0.003,0.0003,-0.01,-20.5,-28.62,12.38,327.31,-86.14,-151.0
15271,52.371124,-1.266502,169.61,5.87,4,110.38,16 / 17,1558420,2019-09-04 19:47:18:593,-0.8767,0.6289,10.1378,0.0,0.0058,9.8066,-0.0163,0.0122,-0.0001,-20.12,-28.87,12.0,326.95,-86.19,-151.38
15272,52.371124,-1.266502,169.61,5.87,4,110.38,16 / 17,1558520,2019-09-04 19:47:18:693,-0.4752,0.5979,10.0592,0.0077,0.0017,9.8066,0.0262,-0.0051,-0.0021,-21.31,-28.12,12.19,325.27,-86.23,-151.92
15273,52.371124,-1.266502,169.61,5.87,4,110.38,16 / 17,1558621,2019-09-04 19:47:18:794,-0.7348,0.4624,9.68,0.002,-0.0113,9.8065,0.0,0.0286,0.0415,-21.12,-27.87,12.44,324.03,-86.16,-153.04
15274,52.371124,-1.266502,169.61,5.87,4,110.38,16 / 17,1558720,2019-09-04 19:47:18:893,-0.8239,0.5977,9.8328,-0.0043,-0.0066,9.8066,-0.0061,0.0421,0.0599,-21.0,-27.56,12.38,325.7,-86.03,-151.39
15275,52.371124,-1.266502,169.61,5.87,4,110.38,16 / 17,1558820,2019-09-04 19:47:18:993,-0.7729,0.3785,9.2386,-0.0072,-0.0043,9.8066,-0.0231,0.0007,0.0149,-21.62,-26.75,12.75,329.25,-85.99,-149.1
15276,52.371124,-1.266502,169.61,5.87,4,110.38,16 / 17,1558921,2019-09-04 19:47:19:094,-1.2795,0.7192,10.1941,-0.0155,0.0048,9.8066,-0.0455,-0.0076,-0.002,-20.94,-25.94,12.63,332.49,-86.1,-147.32
15277,52.371124,-1.266502,169.61,5.87,4,110.38,16 / 17,1559020,2019-09-04 19:47:19:193,-1.6433,0.5034,9.8471,-0.0068,0.0092,9.8066,-0.0164,0.0092,0.0066,-21.75,-26.81,11.44,329.4,-86.28,-145.04
15278,52.371124,-1.266502,169.61,5.87,4,110.38,16 / 17,1559120,2019-09-04 19:47:19:293,-1.0186,0.3468,9.8465,0.0134,0.0038,9.8065,0.0207,0.022,0.0077,-21.44,-26.44,11.06,329.72,-86.34,-145.85
15279,52.371124,-1.266502,169.61,5.87,4,110.38,16 / 16,1559221,2019-09-04 19:47:19:394,-0.7607,0.3661,9.253,0.0074,0.0011,9.8066,0.0132,-0.0133,0.0002,-22.44,-27.87,10.06,324.06,-86.29,-147.8
15280,52.370914,-1.26535,175.31,10.55,4,107.0,16 / 16,1559320,2019-09-04 19:47:19:493,-1.1778,0.3075,9.6939,-0.0054,0.0005,9.8066,-0.0148,-0.0025,-0.0193,-22.12,-28.75,9.44,320.81,-86.25,-148.49
15281,52.370914,-1.26535,175.31,10.55,4,107.0,16 / 16,1559421,2019-09-04 19:47:19:594,-1.2309,0.4095,9.6468,-0.004,0.0032,9.8066,0.0032,-0.0149,-0.0182,-22.44,-31.31,9.44,321.06,-86.35,-148.14
15282,52.370914,-1.26535,175.31,10.55,4,107.0,16 / 16,1559520,2019-09-04 19:47:19:693,-0.8586,0.2277,10.2182,0.0044,0.0057,9.8065,0.0066,0.0056,-0.0143,-23.5,-33.37,10.38,322.13,-86.36,-148.38
15283,52.370914,-1.26535,175.31,10.55,4,107.0,16 / 16,1559620,2019-09-04 19:47:19:793,-1.0623,0.9036,9.3599,0.0061,0.0068,9.8066,-0.0097,0.0043,-0.0063,-24.12,-33.62,12.88,325.52,-86.39,-150.33
15284,52.370914,-1.26535,175.31,10.55,4,107.0,16 / 16,1559721,2019-09-04 19:47:19:894,-1.3529,0.6903,10.3101,0.0013,0.0099,9.8066,-0.0016,0.01,-0.0199,-24.87,-32.94,13.81,326.27,-86.45,-150.65
15285,52.370914,-1.26535,175.31,10.55,4,107.0,16 / 16,1559820,2019-09-04 19:47:19:993,-0.9369,0.6203,9.7728,-0.0039,0.003,9.8066,-0.0057,-0.018,-0.0141,-23.69,-32.37,13.56,326.49,-86.52,-151.51
15286,52.370914,-1.26535,175.31,10.55,4,107.0,16 / 16,1559921,2019-09-04 19:47:20:094,-1.4385,1.1114,10.0205,0.0007,-0.0016,9.8065,0.0051,0.0092,0.0107,-22.81,-31.37,14.75,329.55,-86.59,-151.57
15287,52.370914,-1.26535,175.31,10.55,4,107.0,16 / 16,1560020,2019-09-04 19:47:20:193,-1.136,0.5226,9.5626,-0.0033,-0.007,9.8066,0.0111,0.0031,0.0123,-21.56,-29.19,14.31,329.04,-86.56,-151.41
15288,52.370914,-1.26535,175.31,10.55,4,107.0,16 / 16,1560121,2019-09-04 19:47:20:294,-1.3357,0.7499,9.6292,-0.0043,-0.0005,9.8066,-0.0026,-0.006,-0.0042,-21.87,-28.56,13.44,327.74,-86.55,-150.71
15289,52.370914,-1.26535,175.31,10.55,4,107.0,16 / 16,1560220,2019-09-04 19:47:20:393,-1.327,0.6379,9.7852,-0.0046,-0.0039,9.8066,-0.0012,0.0095,0.0323,-21.69,-28.37,13.06,328.16,-86.56,-150.39
15290,52.370914,-1.26535,175.31,10.55,4,107.0,16 / 17,1560321,2019-09-04 19:47:20:494,-0.9249,0.4807,9.9912,0.0001,-0.0021,9.8066,0.017,-0.0169,-0.0156,-21.75,-28.87,12.19,328.0,-86.52,-148.43
15291,52.370914,-1.26535,175.31,10.55,4,107.0,16 / 17,1560421,2019-09-04 19:47:20:594,-1.4429,0.9749,9.7998,-0.0004,-0.0046,9.8066,-0.0055,0.0239,0.0399,-21.81,-29.19,12.5,330.54,-86.46,-148.02
15292,52.370914,-1.26535,175.31,10.55,4,107.0,16 / 17,1560520,2019-09-04 19:47:20:693,-0.9187,0.8568,10.0148,-0.0038,0.0014,9.8065,0.0031,-0.0158,-0.0211,-22.44,-29.12,12.19,329.89,-86.46,-146.62
15293,52.370914,-1.26535,175.31,10.55,4,107.0,16 / 17,1560620,2019-09-04 19:47:20:793,-0.9432,0.5213,10.0816,-0.0059,-0.0023,9.8066,-0.0086,0.0216,0.0287,-22.37,-28.75,12.38,330.88,-86.49,-145.71
15294,52.370914,-1.26535,175.31,10.55,4,107.0,16 / 17,1560720,2019-09-04 19:47:20:893,-1.1292,0.9196,9.8713,-0.0034,0.0017,9.8066,0.0019,0.0105,-0.0059,-22.0,-28.94,12.44,331.98,-86.51,-144.69
15295,52.370914,-1.26535,175.31,10.55,4,107.0,16 / 17,1560820,2019-09-04 19:47:20:993,-1.0349,1.0035,9.6425,-0.0024,-0.0021,9.8066,-0.0036,0.0309,0.0257,-22.12,-28.25,12.25,332.58,-86.52,-144.2
15296,52.370914,-1.26535,175.31,10.55,4,107.0,16 / 17,1560921,2019-09-04 19:47:21:094,-0.3051,0.6719,9.6835,-0.0046,0.0082,9.8066,-0.0121,0.0072,-0.0375,-22.5,-28.25,12.81,336.38,-86.53,-142.63
15297,52.370914,-1.26535,175.31,10.55,4,107.0,16 / 17,1561021,2019-09-04 19:47:21:194,-0.9952,1.2162,10.0713,-0.0059,0.0077,9.8066,-0.0113,0.0412,-0.0106,-21.25,-28.0,12.63,337.93,-86.71,-142.4
15298,52.370914,-1.26535,175.31,10.55,4,107.0,16 / 17,1561120,2019-09-04 19:47:21:293,-0.7063,1.4684,9.8722,0.0031,0.0063,9.8066,0.0065,0.0562,-0.0389,-21.87,-28.06,12.63,336.34,-86.77,-142.79
15299,52.370914,-1.26535,175.31,10.55,4,107.0,16 / 17,1561220,2019-09-04 19:47:21:393,-0.4348,1.4586,9.8611,0.0054,0.0039,9.8066,0.0115,0.0717,-0.0443,-21.19,-28.19,11.94,332.72,-86.85,-145.32
15300,52.370914,-1.26535,175.31,10.55,4,107.0,15 / 16,1561320,2019-09-04 19:47:21:493,-0.46,1.6794,9.9616,-0.0011,0.0128,9.8066,0.0035,0.0755,-0.0563,-22.12,-28.75,12.0,330.26,-86.92,-146.55
15301,52.370914,-1.26535,175.31,10.55,4,107.0,15 / 16,1561421,2019-09-04 19:47:21:594,-0.1639,1.8134,9.6168,-0.0007,0.0094,9.8066,-0.003,0.1163,-0.0205,-20.69,-28.69,11.56,330.15,-87.03,-147.79
15302,52.370914,-1.26535,175.31,10.55,4,107.0,15 / 16,1561520,2019-09-04 19:47:21:693,-0.7105,2.1109,9.79,0.0075,0.0093,9.8065,0.0176,0.1415,-0.0352,-21.12,-28.81,12.63,330.76,-87.15,-149.33
15303,52.370914,-1.26535,175.31,10.55,4,107.0,15 / 16,1561620,2019-09-04 19:47:21:793,0.2378,2.0143,9.4792,0.0088,0.0035,9.8066,0.0173,0.152,-0.0147,-21.06,-29.0,11.25,322.03,-87.17,-153.45
15304,52.370914,-1.26535,175.31,10.55,4,107.0,15 / 16,1561721,2019-09-04 19:47:21:894,-0.4036,1.9229,9.1434,-0.0006,0.0068,9.8066,-0.0129,0.1943,-0.0143,-20.75,-28.94,11.0,321.7,-87.17,-153.76
15305,52.370914,-1.26535,175.31,10.55,4,107.0,15 / 16,1561821,2019-09-04 19:47:21:994,0.1146,2.4549,10.036,-0.0041,0.0109,9.8066,-0.0139,0.2064,-0.0145,-20.75,-29.25,10.69,320.37,-87.32,-155.16
15306,52.370914,-1.26535,175.31,10.55,4,107.0,15 / 16,1561921,2019-09-04 19:47:22:094,-0.137,2.6455,10.4296,-0.0083,0.0023,9.8066,0.0037,0.2252,0.0032,-20.94,-29.19,10.88,320.13,-87.43,-155.47
15307,52.370914,-1.26535,175.31,10.55,4,107.0,15 / 16,1562020,2019-09-04 19:47:22:193,0.0176,2.2129,10.5975,0.003,0.0058,9.8066,0.0195,0.2198,-0.0506,-21.12,-29.19,10.06,318.18,-87.48,-155.16
15308,52.370914,-1.26535,175.31,10.55,4,107.0,15 / 16,1562121,2019-09-04 19:47:22:294,0.5276,3.3801,9.9031,0.0059,0.0023,9.8066,0.0107,0.2355,-0.0067,-20.37,-29.31,8.94,313.41,-87.45,-158.34
15309,52.370914,-1.26535,175.31,10.55,4,107.0,15 / 16,1562221,2019-09-04 19:47:22:394,0.1099,2.4507,9.7286,0.0022,-0.0013,9.8066,0.0245,0.2506,-0.0376,-21.31,-29.44,9.44,311.2,-87.41,-159.5
15310,52.370914,-1.26535,175.31,10.55,4,107.0,15 / 16,1562321,2019-09-04 19:47:22:494,0.1135,3.2018,9.4756,-0.0046,-0.0112,9.8066,0.0054,0.2525,-0.0138,-20.87,-29.31,8.69,310.43,-87.42,-160.25
15311,52.370914,-1.26535,175.31,10.55,4,107.0,15 / 16,1562420,2019-09-04 19:47:22:593,-0.7047,2.3928,10.1224,-0.0019,0.0046,9.8066,0.0124,0.3156,-0.0101,-21.44,-29.37,7.94,309.81,-87.43,-158.46
15312,52.370914,-1.26535,175.31,10.55,4,107.0,15 / 16,1562521,2019-09-04 19:47:22:694,-0.1512,2.2131,9.7153,0.0119,0.0069,9.8066,0.0161,0.3267,-0.0077,-21.0,-29.25,6.94,305.07,-87.4,-160.55
15313,52.370914,-1.26535,175.31,10.55,4,107.0,15 / 16,1562620,2019-09-04 19:47:22:793,-0.134,2.6984,9.5079,0.0046,0.002,9.8066,0.0167,0.2888,-0.0444,-20.94,-28.69,6.44,300.16,-87.35,-162.72
15314,52.370914,-1.26535,175.31,10.55,4,107.0,15 / 16,1562721,2019-09-04 19:47:22:894,0.1521,2.7705,10.1297,0.0012,0.0105,9.8066,0.0057,0.2994,-0.0547,-20.81,-30.44,6.25,297.92,-87.33,-164.76
15315,52.370914,-1.26535,175.31,10.55,4,107.0,15 / 16,1562821,2019-09-04 19:47:22:994,-0.3442,2.8353,9.9834,-0.001,-0.0007,9.8066,0.0039,0.3485,0.0028,-21.25,-28.87,4.56,293.19,-87.37,-166.92
15316,52.370914,-1.26535,175.31,10.55,4,107.0,15 / 16,1562920,2019-09-04 19:47:23:093,0.1191,3.2176,9.9144,0.0008,0.0048,9.8066,0.0069,0.3404,-0.0334,-21.25,-29.19,5.13,293.72,-87.38,-166.43
15317,52.370914,-1.26535,175.31,10.55,4,107.0,15 / 16,1563020,2019-09-04 19:47:23:193,-0.6227,3.1886,9.7275,-0.0011,-0.0051,9.8066,0.0112,0.3526,-0.005,-20.87,-29.56,4.0,290.32,-87.39,-167.01
15318,52.370914,-1.26535,175.31,10.55,4,107.0,15 / 16,1563120,2019-09-04 19:47:23:293,-0.0564,2.4473,9.4705,0.0057,-0.0067,9.8065,-0.0072,0.3736,-0.0041,-21.12,-29.25,3.69,291.48,-87.33,-165.9
15319,52.370914,-1.26535,175.31,10.55,4,107.0,15 / 16,1563220,2019-09-04 19:47:23:393,-0.7717,2.7955,10.2552,-0.0044,0.0056,9.8066,0.0001,0.386,-0.0021,-21.0,-29.87,2.69,288.21,-87.38,-166.38
15320,52.370914,-1.26535,175.31,10.55,4,107.0,16 / 17,1563320,2019-09-04 19:47:23:493,-0.4711,2.5451,9.7749,-0.002,-0.0017,9.8066,-0.0045,0.3675,-0.0217,-21.19,-29.06,2.19,285.77,-87.4,-166.21
15321,52.370914,-1.26535,175.31,10.55,4,107.0,16 / 17,1563420,2019-09-04 19:47:23:593,-0.4477,2.5967,10.051,-0.0044,0.0045,9.8066,0.0084,0.3678,-0.01,-20.62,-29.94,2.0,285.31,-87.47,-166.64
15322,52.370914,-1.26535,175.31,10.55,4,107.0,16 / 17,1563521,2019-09-04 19:47:23:694,-0.9897,2.785,9.8602,0.0115,0.0141,9.8066,0.0297,0.3974,-0.0133,-20.81,-29.31,0.69,280.67,-87.44,-168.56
15323,52.370914,-1.26535,175.31,10.55,4,107.0,16 / 17,1563621,2019-09-04 19:47:23:794,-1.5761,2.3468,10.0576,0.0092,-0.0029,9.8066,0.0414,0.3612,-0.0294,-20.31,-29.06,0.5,277.37,-87.26,-171.55
15324,52.370914,-1.26535,175.31,10.55,4,107.0,16 / 17,1563721,2019-09-04 19:47:23:894,-0.6465,2.6569,10.2525,0.02,0.0107,9.8065,0.0551,0.3667,-0.044,-19.56,-29.19,-0.12,272.29,-87.08,-173.46
15325,52.370914,-1.26535,175.31,10.55,4,107.0,16 / 17,1563821,2019-09-04 19:47:23:994,-0.5574,2.5278,9.9015,0.0176,0.0072,9.8066,0.0497,0.3628,-0.0396,-19.87,-29.44,-0.25,269.6,-86.86,-175.84
15326,52.370914,-1.26535,175.31,10.55,4,107.0,16 / 17,1563920,2019-09-04 19:47:24:093,-0.6227,3.0045,9.7665,0.0058,0.002,9.8066,0.0171,0.3597,-0.0144,-19.12,-29.62,-0.94,263.71,-86.61,-177.97
15327,52.370914,-1.26535,175.31,10.55,4,107.0,16 / 17,1564021,2019-09-04 19:47:24:194,-0.9523,2.1999,9.629,0.0038,-0.0033,9.8066,-0.018,0.4139,0.0502,-18.81,-29.31,-1.69,261.71,-86.53,-177.07
15328,52.370914,-1.26535,175.31,10.55,4,107.0,16 / 17,1564120,2019-09-04 19:47:24:293,-1.0681,2.05,9.9291,-0.0119,0.0053,9.8066,-0.0337,0.3695,-0.0147,-18.81,-29.31,-2.19,263.25,-86.61,-175.63
15329,52.370914,-1.26535,175.31,10.55,4,107.0,16 / 17,1564221,2019-09-04 19:47:24:394,-1.9055,1.7796,10.195,-0.0103,-0.0025,9.8066,-0.0143,0.3265,-0.035,-18.31,-29.25,-2.94,259.16,-86.76,-176.32
15330,52.370914,-1.26535,175.31,10.55,4,107.0,16 / 18,1564321,2019-09-04 19:47:24:494,-1.4775,2.0122,9.831,0.0021,0.0068,9.8066,0.0118,0.3172,-0.0123,-18.25,-28.69,-3.56,255.55,-86.85,-177.14
15331,52.370914,-1.26535,175.31,10.55,4,107.0,16 / 18,1564420,2019-09-04 19:47:24:593,-1.052,1.7916,9.6036,0.0021,0.0068,9.8066,0.0118,0.3172,-0.0123,-17.69,-28.94,-3.31,257.84,-86.83,-177.78
15332,52.370914,-1.26535,175.31,10.55,4,107.0,16 / 18,1564521,2019-09-04 19:47:24:694,-1.2567,1.4321,9.9811,0.0016,0.014,9.8065,0.0197,0.3158,-0.0501,-17.25,-29.62,-4.0,252.05,-86.75,-179.4
15333,52.370914,-1.26535,175.31,10.55,4,107.0,16 / 18,1564620,2019-09-04 19:47:24:793,-1.174,1.651,10.0026,-0.0006,0.0142,9.8066,0.0012,0.3211,-0.012,-16.75,-29.75,-4.94,246.39,-86.68,177.91
15334,52.370914,-1.26535,175.31,10.55,4,107.0,16 / 18,1564721,2019-09-04 19:47:24:894,-1.3115,1.0011,9.2976,0.0041,-0.0015,9.8066,0.0099,0.2713,-0.009,-15.81,-30.06,-4.44,246.69,-86.61,176.36
15335,52.370914,-1.26535,175.31,10.55,4,107.0,16 / 18,1564820,2019-09-04 19:47:24:993,-1.233,1.097,9.9236,0.0005,0.0064,9.8066,0.0067,0.2606,-0.0252,-16.06,-30.0,-4.75,243.76,-86.57,176.59
15336,52.370914,-1.26535,175.31,10.55,4,107.0,16 / 18,1564920,2019-09-04 19:47:25:093,-0.6106,0.9136,9.5617,0.0037,0.006,9.8065,-0.0063,0.2502,-0.0105,-15.44,-29.44,-5.62,238.82,-86.51,175.94
15337,52.370914,-1.26535,175.31,10.55,4,107.0,16 / 18,1565021,2019-09-04 19:47:25:194,-0.9219,0.8029,9.9854,-0.0045,-0.0012,9.8066,-0.0095,0.2172,-0.0209,-14.25,-29.75,-5.81,236.3,-86.53,175.15
15338,52.370914,-1.26535,175.31,10.55,4,107.0,16 / 18,1565120,2019-09-04 19:47:25:293,-0.6169,0.6758,9.9718,-0.01,0.0012,9.8066,-0.0243,0.2115,0.0088,-14.44,-29.5,-6.25,235.82,-86.61,174.32
15339,52.370914,-1.26535,175.31,10.55,4,107.0,16 / 18,1565220,2019-09-04 19:47:25:393,-0.4254,0.5552,9.2558,-0.0063,-0.0114,9.8066,-0.0349,0.1592,0.0193,-13.62,-29.5,-6.81,232.28,-86.7,173.64
15340,52.370914,-1.26535,175.31,10.55,4,107.0,16 / 17,1565320,2019-09-04 19:47:25:493,-0.2504,0.5187,9.5678,-0.0094,-0.0109,9.8065,-0.0177,0.1235,-0.0038,-14.31,-29.25,-7.31,234.15,-86.93,175.29
15341,52.370914,-1.26535,175.31,10.55,4,107.0,16 / 17,1565421,2019-09-04 19:47:25:594,-0.2361,0.0313,9.352,-0.0043,-0.0056,9.8066,-0.0275,0.1315,0.045,-14.69,-28.69,-7.75,233.24,-87.05,175.31
15342,52.370914,-1.26535,175.31,10.55,4,107.0,16 / 17,1565521,2019-09-04 19:47:25:694,0.1722,0.0032,9.5486,-0.0121,-0.0034,9.8066,-0.04,0.085,-0.0052,-13.5,-29.25,-8.69,226.97,-87.17,175.42
15343,52.370914,-1.26535,175.31,10.55,4,107.0,16 / 17,1565620,2019-09-04 19:47:25:793,0.1256,-0.339,10.1076,-0.016,0.0017,9.8066,-0.0227,0.0548,-0.0188,-14.0,-29.44,-8.31,228.9,-87.38,172.16
15344,52.370914,-1.26535,175.31,10.55,4,107.0,16 / 17,1565720,2019-09-04 19:47:25:893,-0.0536,0.1823,9.7316,-0.0142,0.0042,9.8066,-0.0202,0.0292,-0.0066,-13.31,-30.12,-8.69,219.95,-87.47,167.7
15345,52.370914,-1.26535,175.31,10.55,4,107.0,16 / 17,1565820,2019-09-04 19:47:25:993,-0.0471,-0.2073,9.9116,-0.0044,0.0004,9.8066,-0.0003,0.0018,-0.0166,-13.37,-29.62,-8.5,220.45,-87.54,165.18
15346,52.370914,-1.26535,175.31,10.55,4,107.0,16 / 17,1565920,2019-09-04 19:47:26:093,0.3206,-0.1464,9.9023,-0.0031,0.0096,9.8065,0.0247,-0.0083,-0.0174,-13.75,-30.37,-8.06,220.09,-87.51,162.79
15347,52.370914,-1.26535,175.31,10.55,4,107.0,16 / 17,1566021,2019-09-04 19:47:26:194,0.5989,-0.3135,9.4182,0.0036,0.0084,9.8066,0.0129,-0.0259,-0.0082,-13.56,-30.25,-8.44,218.55,-87.34,161.35
15348,52.370914,-1.26535,175.31,10.55,4,107.0,16 / 17,1566121,2019-09-04 19:47:26:294,0.1667,-0.5852,9.8586,-0.0028,0.003,9.8066,-0.0001,-0.0707,-0.0382,-13.69,-30.12,-8.62,215.32,-87.31,160.83
15349,52.370914,-1.26535,175.31,10.55,4,107.0,16 / 17,1566221,2019-09-04 19:47:26:394,0.3652,-0.7597,10.0062,-0.004,0.012,9.8066,0.0085,-0.0532,-0.0147,-14.19,-30.12,-7.31,218.02,-87.24,157.81
15350,52.370914,-1.26535,175.31,10.55,4,107.0,16 / 17,1566320,2019-09-04 19:47:26:493,0.6272,-0.7895,9.8374,-0.0003,0.0033,9.8066,0.0038,-0.0871,-0.0008,-13.69,-30.5,-7.31,216.7,-87.19,156.46
15351,52.370914,-1.26535,175.31,10.55,4,107.0,16 / 17,1566420,2019-09-04 19:47:26:593,1.1609,-0.7064,9.3816,-0.0024,0.0041,9.8066,-0.0046,-0.0709,0.0302,-14.44,-28.87,-7.56,212.62,-87.14,155.11
15352,52.370914,-1.26535,175.31,10.55,4,107.0,16 / 17,1566521,2019-09-04 19:47:26:694,1.0087,-1.1923,9.4469,-0.0059,-0.0004,9.8066,-0.0119,-0.1582,-0.0221,-14.0,-30.19,-7.75,212.03,-87.16,154.54
15353,52.370914,-1.26535,175.31,10.55,4,107.0,16 / 17,1566620,2019-09-04 19:47:26:793,1.0104,-1.0819,9.7067,-0.0161,0.0037,9.8066,-0.0359,-0.1494,-0.0049,-14.56,-30.12,-7.75,210.3,-87.22,150.82
15354,52.370914,-1.26535,175.31,10.55,4,107.0,16 / 17,1566720,2019-09-04 19:47:26:893,0.5247,-1.1775,10.0044,-0.0229,0.002,9.8066,-0.0441,-0.1669,-0.0152,-15.5,-29.69,-7.75,206.37,-87.32,146.52
15355,52.370914,-1.26535,175.31,10.55,4,107.0,16 / 17,1566820,2019-09-04 19:47:26:993,0.8838,-1.3321,9.9648,-0.0119,-0.0028,9.8065,-0.0298,-0.168,0.0264,-14.94,-30.0,-7.56,201.45,-87.39,141.19
15356,52.370914,-1.26535,175.31,10.55,4,107.0,16 / 17,1566921,2019-09-04 19:47:27:094,0.7866,-2.1936,9.7802,-0.0058,-0.0159,9.8066,-0.0186,-0.1895,0.0196,-15.44,-29.69,-7.31,202.26,-87.61,138.9
15357,52.370914,-1.26535,175.31,10.55,4,107.0,16 / 17,1567020,2019-09-04 19:47:27:193,0.1951,-2.5041,9.4161,-0.0013,-0.0036,9.8066,0.007,-0.2173,-0.0046,-15.87,-29.87,-7.44,203.45,-87.77,138.59
15358,52.370914,-1.26535,175.31,10.55,4,107.0,16 / 17,1567121,2019-09-04 19:47:27:294,0.7292,-2.0665,10.049,-0.0031,0.0088,9.8066,0.0023,-0.1973,0.0264,-15.56,-29.94,-6.37,205.15,-87.72,137.4
15359,52.370914,-1.26535,175.31,10.55,4,107.0,16 / 17,1567221,2019-09-04 19:47:27:394,1.1207,-2.0156,9.5337,0.0019,-0.0071,9.8066,0.0006,-0.2221,0.0244,-16.25,-29.62,-5.87,204.88,-87.71,137.11
15360,52.370914,-1.26535,175.31,10.55,4,107.0,16 / 16,1567321,2019-09-04 19:47:27:494,0.6545,-1.9474,9.4059,-0.0062,-0.0129,9.8066,-0.0241,-0.2441,0.0285,-15.75,-29.31,-5.62,204.89,-87.77,137.03
15361,52.370914,-1.26535,175.31,10.55,4,107.0,16 / 16,1567420,2019-09-04 19:47:27:593,0.5321,-2.4989,9.8424,-0.0143,-0.0083,9.8066,-0.0408,-0.2438,-0.0038,-16.62,-29.56,-5.69,205.45,-87.93,136.35
15362,52.370914,-1.26535,175.31,10.55,4,107.0,16 / 16,1567521,2019-09-04 19:47:27:694,0.2716,-2.2342,9.4849,-0.0193,-0.008,9.8066,-0.0517,-0.2536,0.0263,-17.06,-29.31,-5.37,201.44,-88.15,128.93
15363,52.370914,-1.26535,175.31,10.55,4,107.0,16 / 16,1567620,2019-09-04 19:47:27:793,-0.0021,-2.2514,9.5457,-0.0181,-0.006,9.8066,-0.0339,-0.2656,0.0045,-17.0,-29.0,-5.37,192.79,-88.39,119.76
15364,52.370914,-1.26535,175.31,10.55,4,107.0,16 / 16,1567720,2019-09-04 19:47:27:893,0.0964,-2.2209,9.7798,-0.0082,0.0022,9.8066,-0.0062,-0.2679,0.0092,-18.37,-29.19,-5.31,188.1,-88.4,113.97
15365,52.370914,-1.26535,175.31,10.55,4,107.0,16 / 16,1567820,2019-09-04 19:47:27:993,-0.1118,-1.9622,9.9869,-0.0015,-0.0012,9.8066,0.0072,-0.2611,0.0172,-17.5,-28.87,-4.5,187.55,-88.42,111.14
15366,52.370914,-1.26535,175.31,10.55,4,107.0,16 / 16,1567920,2019-09-04 19:47:28:093,0.3329,-2.4324,9.7935,0.0054,0.0012,9.8066,0.0296,-0.3124,-0.0282,-17.94,-28.87,-4.19,189.91,-88.42,112.86
15367,52.370914,-1.26535,175.31,10.55,4,107.0,16 / 16,1568020,2019-09-04 19:47:28:193,0.3802,-2.4613,9.8112,0.0069,0.0065,9.8066,0.0257,-0.2732,0.0089,-18.69,-28.44,-3.62,193.07,-88.37,115.49
15368,52.370914,-1.26535,175.31,10.55,4,107.0,16 / 16,1568121,2019-09-04 19:47:28:294,0.1603,-2.7084,9.4969,0.0031,0.0002,9.8066,0.0148,-0.2802,-0.0102,-18.44,-28.75,-2.87,197.67,-88.29,117.95
15369,52.370914,-1.26535,175.31,10.55,4,107.0,16 / 16,1568221,2019-09-04 19:47:28:394,0.4496,-2.3369,9.7701,-0.0006,0.0121,9.8066,-0.0048,-0.258,0.0065,-19.12,-28.75,-2.87,197.37,-88.13,117.17
15370,52.37101,-1.264433,176.97,6.89,4,63.03,16 / 16,1568321,2019-09-04 19:47:28:494,-0.3259,-2.2787,10.1103,-0.0117,0.0006,9.8066,-0.0134,-0.275,0.0134,-19.12,-28.75,-1.87,198.3,-88.12,115.19
15371,52.37101,-1.264433,176.97,6.89,4,63.03,16 / 16,1568421,2019-09-04 19:47:28:594,0.1213,-2.3733,9.8668,-0.002,-0.0008,9.8065,0.0111,-0.2794,0.0049,-19.44,-28.56,-1.69,194.91,-88.16,111.63
15372,52.37101,-1.264433,176.97,6.89,4,63.03,16 / 16,1568520,2019-09-04 19:47:28:693,0.1205,-2.1867,9.2304,-0.0005,-0.0101,9.8066,-0.0027,-0.2776,0.0497,-19.62,-28.19,-1.81,195.88,-88.21,112.27
15373,52.37101,-1.264433,176.97,6.89,4,63.03,16 / 16,1568621,2019-09-04 19:47:28:794,0.1022,-2.5299,9.9265,-0.0043,-0.0104,9.8066,-0.0091,-0.2739,0.0228,-19.62,-28.5,0.0,202.59,-88.44,113.42
15374,52.37101,-1.264433,176.97,6.89,4,63.03,16 / 16,1568720,2019-09-04 19:47:28:893,0.3029,-2.2271,9.6344,-0.0077,-0.0051,9.8066,-0.0208,-0.2805,0.0259,-19.69,-28.44,-0.5,201.39,-88.5,112.15
15375,52.37101,-1.264433,176.97,6.89,4,63.03,16 / 16,1568821,2019-09-04 19:47:28:994,0.041,-2.4359,10.0666,-0.0177,-0.0082,9.8066,-0.0322,-0.3125,-0.0275,-20.25,-27.81,0.31,198.25,-88.61,108.85
15376,52.37101,-1.264433,176.97,6.89,4,63.03,16 / 16,1568921,2019-09-04 19:47:29:094,0.0257,-2.5075,10.406,-0.0039,-0.0009,9.8066,0.0113,-0.2721,0.0029,-20.44,-28.25,0.63,190.2,-88.73,97.65
15377,52.37101,-1.264433,176.97,6.89,4,63.03,16 / 16,1569021,2019-09-04 19:47:29:194,-0.1477,-2.1906,9.5601,0.0011,0.0008,9.8066,0.0084,-0.2541,0.0108,-19.94,-28.37,1.25,189.86,-88.75,97.29
15378,52.37101,-1.264433,176.97,6.89,4,63.03,16 / 16,1569121,2019-09-04 19:47:29:294,-0.4702,-2.083,9.4232,-0.0003,-0.0058,9.8066,0.0084,-0.2762,-0.0189,-20.25,-28.25,1.75,193.76,-88.79,98.44
15379,52.37101,-1.264433,176.97,6.89,4,63.03,16 / 16,1569220,2019-09-04 19:47:29:393,-0.0411,-1.9297,9.9718,-0.0007,-0.0017,9.8066,0.0068,-0.2489,0.0109,-20.44,-28.0,1.94,194.24,-88.85,98.92
15380,52.37101,-1.264433,176.97,6.89,4,63.03,16 / 17,1569320,2019-09-04 19:47:29:493,-0.4183,-2.2766,10.4296,0.0017,-0.0054,9.8066,0.0112,-0.2201,0.0318,-20.37,-27.56,2.69,197.16,-88.93,99.06
15381,52.37101,-1.264433,176.97,6.89,4,63.03,16 / 17,1569421,2019-09-04 19:47:29:594,-0.0451,-2.1627,10.0827,0.0098,-0.0059,9.8065,0.0332,-0.2457,0.0127,-21.25,-28.25,2.44,197.04,-88.97,102.0
15382,52.37101,-1.264433,176.97,6.89,4,63.03,16 / 17,1569520,2019-09-04 19:47:29:693,-0.3354,-1.6878,9.2706,0.0091,-0.0109,9.8066,0.0306,-0.2599,0.0161,-20.81,-27.44,4.0,215.13,-88.97,115.09
15383,52.37101,-1.264433,176.97,6.89,4,63.03,16 / 17,1569620,2019-09-04 19:47:29:793,-0.4267,-2.342,9.658,-0.0002,-0.0134,9.8066,0.0011,-0.2578,0.0083,-21.37,-28.06,4.94,229.35,-89.06,126.88
15384,52.37101,-1.264433,176.97,6.89,4,63.03,16 / 17,1569720,2019-09-04 19:47:29:893,-0.4429,-1.8725,9.7512,-0.006,-0.0101,9.8066,-0.012,-0.2461,0.0456,-21.0,-27.94,4.25,229.06,-89.16,129.1
15385,52.37101,-1.264433,176.97,6.89,4,63.03,16 / 17,1569820,2019-09-04 19:47:29:993,-0.328,-2.3508,10.0536,-0.0107,-0.0158,9.8066,-0.0138,-0.2376,0.0376,-21.5,-27.94,5.44,241.14,-89.42,138.4
15386,52.37101,-1.264433,176.97,6.89,4,63.03,16 / 17,1569920,2019-09-04 19:47:30:093,-0.5797,-2.1156,9.8537,0.0017,-0.0061,9.8066,0.0074,-0.2199,0.0417,-21.69,-27.87,6.44,250.16,-89.51,145.47
15387,52.37101,-1.264433,176.97,6.89,4,63.03,16 / 17,1570020,2019-09-04 19:47:30:193,-0.3578,-1.8707,10.3224,-0.0018,-0.0174,9.8066,0.0055,-0.2185,0.0488,-22.0,-26.81,6.19,263.37,-89.52,158.68
15388,52.37101,-1.264433,176.97,6.89,4,63.03,16 / 17,1570121,2019-09-04 19:47:30:294,-0.2361,-2.2421,9.3083,0.0021,-0.0166,9.8066,0.0138,-0.2192,0.0108,-22.56,-26.81,7.25,299.16,-89.47,-167.25
15389,52.37101,-1.264433,176.97,6.89,4,63.03,16 / 17,1570221,2019-09-04 19:47:30:394,-0.6023,-1.575,9.2884,-0.0039,-0.0044,9.8066,-0.0061,-0.2344,-0.0154,-22.37,-26.87,7.81,307.18,-89.36,-162.21
15390,52.37101,-1.264433,176.97,6.89,4,63.03,17 / 18,1570321,2019-09-04 19:47:30:494,-0.5068,-1.7981,10.3174,-0.0034,0.0035,9.8066,-0.0073,-0.194,-0.0304,-22.44,-25.94,9.31,318.07,-89.4,-153.73
15391,52.37101,-1.264433,176.97,6.89,4,63.03,17 / 18,1570420,2019-09-04 19:47:30:593,-0.2564,-1.1595,10.0855,0.0021,0.0134,9.8066,-0.0038,-0.1738,-0.037,-21.62,-26.94,8.75,305.58,-89.5,-166.21
15392,52.37101,-1.264433,176.97,6.89,4,63.03,17 / 18,1570520,2019-09-04 19:47:30:693,-0.2479,-0.8002,9.9527,0.0058,0.0061,9.8066,0.0574,-0.1537,-0.0356,-22.0,-25.69,8.5,292.68,-89.5,-179.06
15393,52.37101,-1.264433,176.97,6.89,4,63.03,17 / 18,1570621,2019-09-04 19:47:30:794,-0.021,-0.9799,9.618,0.0218,-0.0043,9.8066,0.0438,-0.1297,-0.0157,-22.37,-26.62,9.0,287.16,-89.3,175.67
15394,52.37101,-1.264433,176.97,6.89,4,63.03,17 / 18,1570720,2019-09-04 19:47:30:893,0.3809,-1.0005,9.3806,-0.0005,-0.0029,9.8066,-0.0133,-0.0849,0.0284,-21.81,-26.62,9.25,283.23,-89.03,172.05
15395,52.37101,-1.264433,176.97,6.89,4,63.03,17 / 18,1570820,2019-09-04 19:47:30:993,-0.1844,-0.8669,9.7371,-0.0092,-0.0019,9.8066,-0.028,-0.0911,0.0088,-21.87,-27.06,9.63,290.95,-89.11,177.44
15396,52.37101,-1.264433,176.97,6.89,4,63.03,17 / 18,1570920,2019-09-04 19:47:31:093,-0.0387,-0.3974,9.7365,-0.0101,0.0017,9.8066,-0.0212,-0.1093,0.0007,-21.5,-27.44,9.25,291.18,-89.23,178.83
15397,52.37101,-1.264433,176.97,6.89,4,63.03,17 / 18,1571020,2019-09-04 19:47:31:193,0.0521,-1.0172,9.6407,-0.0093,-0.0083,9.8066,-0.015,-0.0623,0.0587,-20.81,-26.44,9.81,307.16,-89.36,-167.73
15398,52.37101,-1.264433,176.97,6.89,4,63.03,17 / 18,1571121,2019-09-04 19:47:31:294,-0.3603,-0.9895,9.6603,-0.0036,-0.0097,9.8066,-0.0033,-0.0784,0.035,-21.06,-27.06,10.44,322.98,-89.33,-152.01
15399,52.37101,-1.264433,176.97,6.89,4,63.03,17 / 18,1571220,2019-09-04 19:47:31:393,-0.3333,-1.0178,10.1962,-0.003,-0.0077,9.8066,0.0025,-0.0789,0.0091,-21.31,-26.69,10.5,333.62,-89.25,-143.65
15400,52.37101,-1.264433,176.97,6.89,4,63.03,16 / 17,1571320,2019-09-04 19:47:31:493,0.1073,-0.7616,9.9111,0.0155,-0.0089,9.8066,0.048,-0.089,0.0026,-22.5,-27.06,10.81,334.07,-89.13,-142.08
15401,52.37101,-1.264433,176.97,6.89,4,63.03,16 / 17,1571420,2019-09-04 19:47:31:593,0.1844,-0.5571,9.7493,0.0148,-0.0091,9.8066,0.0431,-0.0714,0.0162,-21.87,-27.69,10.19,322.81,-88.85,-150.82
15402,52.37101,-1.264433,176.97,6.89,4,63.03,16 / 17,1571521,2019-09-04 19:47:31:694,0.0952,-1.1337,9.5086,0.0017,-0.0106,9.8066,-0.0051,-0.0629,0.0338,-22.25,-27.12,10.81,324.96,-88.62,-150.73
15403,52.37101,-1.264433,176.97,6.89,4,63.03,16 / 17,1571620,2019-09-04 19:47:31:793,0.3038,-1.0258,9.9439,-0.0148,-0.0046,9.8066,-0.0431,-0.0853,0.0003,-21.31,-27.62,10.94,333.3,-88.56,-143.57
15404,52.37101,-1.264433,176.97,6.89,4,63.03,16 / 17,1571720,2019-09-04 19:47:31:893,-0.1907,-0.9296,9.9782,-0.019,0.0047,9.8066,-0.0592,-0.0447,0.032,-21.87,-26.94,11.19,340.81,-88.66,-135.27
15405,52.37101,-1.264433,176.97,6.89,4,63.03,16 / 17,1571820,2019-09-04 19:47:31:993,-0.3243,-0.7942,9.8015,-0.0121,-0.0027,9.8066,-0.0112,-0.0618,0.0028,-22.56,-26.75,10.81,350.21,-88.75,-125.12
15406,52.37101,-1.264433,176.97,6.89,4,63.03,16 / 17,1571921,2019-09-04 19:47:32:094,0.3574,-0.8405,9.6448,-0.0033,-0.0128,9.8066,-0.0086,-0.0447,0.0283,-22.19,-26.5,10.31,354.03,-88.68,-120.27
15407,52.37101,-1.264433,176.97,6.89,4,63.03,16 / 17,1572021,2019-09-04 19:47:32:194,0.243,-0.6177,9.8194,0.0015,-0.0022,9.8066,0.0096,-0.0507,-0.0034,-22.87,-26.06,11.13,357.55,-88.54,-117.95
15408,52.37101,-1.264433,176.97,6.89,4,63.03,16 / 17,1572121,2019-09-04 19:47:32:294,-0.0326,-0.4729,10.0138,0.005,-0.006,9.8066,0.0234,-0.0562,-0.0212,-21.94,-26.19,10.44,354.69,-88.48,-119.6
15409,52.37101,-1.264433,176.97,6.89,4,63.03,16 / 17,1572221,2019-09-04 19:47:32:394,0.4665,-0.5166,9.6658,0.0043,0.003,9.8066,-0.0109,-0.03,-0.012,-22.12,-27.0,11.56,355.24,-88.43,-123.23
15410,52.37101,-1.264433,176.97,6.89,4,63.03,16 / 17,1572321,2019-09-04 19:47:32:494,0.376,-0.3615,9.6121,-0.0043,0.0077,9.8066,-0.0127,-0.0703,-0.0687,-21.69,-27.69,10.75,353.23,-88.46,-123.12
15411,52.37101,-1.264433,176.97,6.89,4,63.03,16 / 17,1572420,2019-09-04 19:47:32:593,0.255,-0.0077,10.6521,-0.0019,0.0065,9.8065,-0.0033,-0.0538,-0.0443,-22.44,-27.0,10.75,353.91,-88.56,-122.48
15412,52.37101,-1.264433,176.97,6.89,4,63.03,16 / 17,1572521,2019-09-04 19:47:32:694,0.5608,-0.0447,10.1721,0.016,-0.0018,9.8066,0.0438,-0.0249,-0.0171,-21.31,-26.94,11.38,351.63,-88.67,-125.8
15413,52.37101,-1.264433,176.97,6.89,4,63.03,16 / 17,1572620,2019-09-04 19:47:32:793,0.1484,-0.2931,9.8255,0.0172,-0.0065,9.8065,0.0361,0.0031,0.0042,-21.44,-26.44,11.0,340.38,-88.52,-136.71
15414,52.37101,-1.264433,176.97,6.89,4,63.03,16 / 17,1572720,2019-09-04 19:47:32:893,0.4598,-0.6447,9.8779,0.0043,-0.0005,9.8066,0.0042,-0.0156,-0.0148,-21.62,-26.87,11.06,335.38,-88.41,-140.45
15415,52.37101,-1.264433,176.97,6.89,4,63.03,16 / 17,1572821,2019-09-04 19:47:32:994,0.2833,-0.1965,10.4464,-0.0024,0.0008,9.8066,-0.0059,-0.0191,-0.0063,-21.62,-26.12,10.88,334.64,-88.41,-141.2
15416,52.37101,-1.264433,176.97,6.89,4,63.03,16 / 17,1572921,2019-09-04 19:47:33:094,0.5297,-0.4152,10.0761,0.0045,-0.0034,9.8066,0.0247,-0.017,-0.0076,-21.75,-26.81,11.44,334.62,-88.35,-141.17
15417,52.37101,-1.264433,176.97,6.89,4,63.03,16 / 17,1573021,2019-09-04 19:47:33:194,0.293,-0.4704,9.5823,0.0008,-0.008,9.8066,0.0165,-0.0217,-0.0079,-21.69,-26.81,11.25,332.84,-88.27,-142.84
15418,52.37101,-1.264433,176.97,6.89,4,63.03,16 / 17,1573120,2019-09-04 19:47:33:293,0.3188,0.0691,10.3314,-0.0016,-0.0069,9.8066,0.002,0.0243,0.0184,-21.62,-26.75,11.94,335.47,-88.16,-142.31
15419,52.37101,-1.264433,176.97,6.89,4,63.03,16 / 17,1573220,2019-09-04 19:47:33:393,-0.0353,-0.3076,9.7257,0.0056,0.004,9.8065,0.0005,0.0201,-0.0111,-21.06,-26.75,11.69,330.95,-88.16,-147.78
15420,52.37101,-1.264433,176.97,6.89,4,63.03,17 / 17,1573320,2019-09-04 19:47:33:493,-0.3841,-0.271,9.9614,0.0157,0.009,9.8066,0.0361,-0.0251,-0.0672,-22.06,-26.69,11.88,324.55,-88.16,-152.89
15421,52.37101,-1.264433,176.97,6.89,4,63.03,17 / 17,1573421,2019-09-04 19:47:33:594,0.6511,-0.4896,10.774,0.0223,0.0136,9.8066,0.0142,0.0291,-0.018,-21.25,-26.62,11.31,311.32,-88.07,-164.65
15422,52.37101,-1.264433,176.97,6.89,4,63.03,17 / 17,1573521,2019-09-04 19:47:33:694,-0.1637,-0.5028,9.5991,-0.0005,0.0038,9.8066,-0.014,-0.0091,-0.0203,-20.62,-26.69,11.13,307.38,-88.03,-168.47
15423,52.37101,-1.264433,176.97,6.89,4,63.03,17 / 17,1573620,2019-09-04 19:47:33:793,0.2683,-0.4743,10.0912,-0.0051,0.017,9.8066,-0.0498,-0.0286,-0.053,-20.62,-27.94,11.0,305.75,-88.09,-170.05
15424,52.37101,-1.264433,176.97,6.89,4,63.03,17 / 17,1573720,2019-09-04 19:47:33:893,-0.7364,-0.1212,9.5688,-0.0072,0.0141,9.8066,-0.0324,-0.0097,0.0048,-20.0,-28.87,11.38,301.35,-88.4,-175.72
15425,52.37101,-1.264433,176.97,6.89,4,63.03,17 / 17,1573820,2019-09-04 19:47:33:993,0.1265,-0.1926,9.5595,-0.0012,-0.0004,9.8066,-0.0099,-0.0116,0.0087,-19.69,-28.44,10.75,298.7,-88.53,-178.52
15426,52.37101,-1.264433,176.97,6.89,4,63.03,17 / 17,1573921,2019-09-04 19:47:34:094,0.8098,-0.4145,9.446,-0.0014,-0.008,9.8066,0.0013,-0.0343,0.013,-19.62,-28.19,11.13,300.11,-88.54,-177.15
15427,52.37101,-1.264433,176.97,6.89,4,63.03,17 / 17,1574021,2019-09-04 19:47:34:194,-0.0099,-0.0699,10.0001,-0.0128,-0.007,9.8066,-0.0187,-0.0292,0.0307,-20.25,-28.94,12.0,309.7,-88.56,-169.88
15428,52.37101,-1.264433,176.97,6.89,4,63.03,17 / 17,1574121,2019-09-04 19:47:34:294,0.1154,-0.3155,9.6199,-0.0164,-0.0131,9.8066,-0.0281,-0.0289,0.0411,-19.87,-28.06,11.69,316.76,-88.58,-163.03
15429,52.37101,-1.264433,176.97,6.89,4,63.03,17 / 17,1574220,2019-09-04 19:47:34:393,-0.0655,-0.3972,9.6652,-0.0157,-0.008,9.8066,-0.034,-0.0025,0.0411,-19.62,-28.06,11.44,324.9,-88.6,-152.91
15430,52.37101,-1.264433,176.97,6.89,4,63.03,16 / 17,1574321,2019-09-04 19:47:34:494,0.1275,0.0082,9.8969,-0.012,-0.0071,9.8066,-0.0213,-0.0415,0.0041,-19.37,-27.44,11.56,341.9,-88.59,-139.84
15431,52.37101,-1.264433,176.97,6.89,4,63.03,16 / 17,1574420,2019-09-04 19:47:34:593,-0.3817,0.0225,10.1677,0.0016,-0.0028,9.8066,0.0061,0.0202,0.015,-20.69,-27.5,11.06,341.99,-88.57,-135.15
15432,52.37101,-1.264433,176.97,6.89,4,63.03,16 / 17,1574521,2019-09-04 19:47:34:694,0.4344,-0.1623,9.7197,0.0097,-0.0056,9.8065,0.027,0.0207,0.0076,-20.12,-27.44,10.75,342.63,-88.51,-135.65
15433,52.37101,-1.264433,176.97,6.89,4,63.03,16 / 17,1574620,2019-09-04 19:47:34:793,0.5685,-0.2421,9.6017,0.0079,0.002,9.8066,0.0063,-0.0018,-0.0438,-20.31,-27.19,10.88,337.84,-88.37,-140.23
15434,52.37101,-1.264433,176.97,6.89,4,63.03,16 / 17,1574720,2019-09-04 19:47:34:893,0.7765,0.0209,9.2274,-0.0051,0.0102,9.8066,-0.0405,0.0145,-0.0083,-19.81,-27.19,10.81,335.58,-88.44,-142.46
15435,52.37101,-1.264433,176.97,6.89,4,63.03,16 / 17,1574820,2019-09-04 19:47:34:993,0.2153,0.2459,9.7777,-0.03,-0.0015,9.8065,-0.0639,0.012,0.0148,-19.94,-27.0,11.25,343.1,-88.58,-135.22
15436,52.37101,-1.264433,176.97,6.89,4,63.03,16 / 17,1574920,2019-09-04 19:47:35:093,-0.152,0.1256,10.2371,-0.0208,-0.0011,9.8066,-0.0263,0.0049,0.0085,-20.06,-26.87,10.56,1.67,-88.63,-117.19
15437,52.37101,-1.264433,176.97,6.89,4,63.03,16 / 17,1575020,2019-09-04 19:47:35:193,0.4139,0.1399,9.7281,-0.0059,-0.0135,9.8066,0.0262,0.0129,0.0289,-20.69,-26.37,10.44,2.62,-88.5,-112.92
15438,52.37101,-1.264433,176.97,6.89,4,63.03,16 / 17,1575121,2019-09-04 19:47:35:294,0.5357,-0.0384,9.6935,0.0047,-0.0229,9.8066,0.0283,0.0028,0.0317,-20.19,-26.19,10.5,3.73,-88.34,-115.2
15439,52.37101,-1.264433,176.97,6.89,4,63.03,16 / 17,1575221,2019-09-04 19:47:35:394,0.5188,-0.6881,10.1373,-0.0021,-0.0159,9.8066,0.016,0.0,0.0168,-21.0,-25.31,11.56,2.17,-87.95,-117.66
15440,52.37101,-1.264433,176.97,6.89,4,63.03,15 / 16,1575320,2019-09-04 19:47:35:493,0.4862,-0.352,9.3767,0.0025,-0.0067,9.8065,0.0116,0.0023,-0.0145,-21.19,-25.62,11.69,1.64,-87.74,-118.18
15441,52.37101,-1.264433,176.97,6.89,4,63.03,15 / 16,1575420,2019-09-04 19:47:35:593,0.2822,-0.0514,10.2795,0.0004,-0.0046,9.8066,0.0006,0.0415,0.0332,-21.62,-24.69,12.31,359.5,-87.68,-119.09
15442,52.37101,-1.264433,176.97,6.89,4,63.03,15 / 16,1575521,2019-09-04 19:47:35:694,0.2722,-0.188,10.2818,-0.0015,-0.0063,9.8066,0.0217,-0.0014,-0.0221,-21.69,-24.37,11.25,357.43,-87.58,-119.03
15443,52.37101,-1.264433,176.97,6.89,4,63.03,15 / 16,1575621,2019-09-04 19:47:35:794,0.4014,0.1023,9.411,0.0081,-0.0102,9.8066,0.0106,0.0245,0.0207,-21.87,-23.62,11.5,358.31,-87.55,-120.23
15444,52.37101,-1.264433,176.97,6.89,4,63.03,15 / 16,1575721,2019-09-04 19:47:35:894,0.6115,0.0904,9.7283,0.0057,-0.009,9.8066,0.0007,0.0216,0.0093,-21.69,-24.75,11.56,357.02,-87.44,-121.45
15445,52.37101,-1.264433,176.97,6.89,4,63.03,15 / 16,1575821,2019-09-04 19:47:35:994,0.8154,-0.3869,10.306,0.0002,-0.0078,9.8066,0.0165,0.0061,-0.0074,-21.31,-25.0,11.38,354.86,-87.29,-122.52
15446,52.37101,-1.264433,176.97,6.89,4,63.03,15 / 16,1575920,2019-09-04 19:47:36:093,0.0172,0.2783,9.7663,0.0027,0.0007,9.8065,0.0095,0.0013,-0.0167,-21.0,-25.62,11.13,354.28,-87.21,-123.05
15447,52.37101,-1.264433,176.97,6.89,4,63.03,15 / 16,1576020,2019-09-04 19:47:36:193,0.4075,-0.2219,10.2693,0.0024,-0.0016,9.8066,-0.0147,0.0341,0.0236,-21.31,-26.0,11.06,353.95,-87.19,-123.37
15448,52.37101,-1.264433,176.97,6.89,4,63.03,15 / 16,1576120,2019-09-04 19:47:36:293,0.3834,0.0308,9.7987,0.0021,-0.0045,9.8066,-0.0078,0.0209,-0.0002,-21.62,-25.69,12.06,354.92,-87.14,-123.42
15449,52.37101,-1.264433,176.97,6.89,4,63.03,15 / 16,1576220,2019-09-04 19:47:36:393,0.114,-0.0102,9.8814,0.0013,-0.0043,9.8066,0.0018,0.008,-0.0269,-21.06,-25.56,12.19,355.57,-87.11,-123.93
15450,52.37101,-1.264433,176.97,6.89,4,63.03,16 / 17,1576321,2019-09-04 19:47:36:494,0.3631,0.1634,10.0531,0.0071,0.0034,9.8066,0.007,-0.003,-0.0332,-20.75,-26.06,11.88,355.3,-87.09,-124.18
15451,52.37101,-1.264433,176.97,6.89,4,63.03,16 / 17,1576420,2019-09-04 19:47:36:593,0.2844,0.0562,9.993,0.0008,-0.0056,9.8066,0.0259,0.0016,-0.0143,-21.0,-25.75,11.69,353.27,-87.08,-126.1
15452,52.37101,-1.264433,176.97,6.89,4,63.03,16 / 17,1576521,2019-09-04 19:47:36:694,0.0302,-0.3872,9.7258,0.0063,-0.0033,9.8066,0.0134,0.0113,-0.0108,-20.69,-25.19,10.81,350.15,-86.97,-126.94
15453,52.37101,-1.264433,176.97,6.89,4,63.03,16 / 17,1576620,2019-09-04 19:47:36:793,0.3383,-0.0397,9.9709,0.0033,0.0053,9.8066,-0.0183,0.0307,0.0244,-20.75,-25.31,10.19,346.4,-87.01,-128.29
15454,52.37101,-1.264433,176.97,6.89,4,63.03,16 / 17,1576721,2019-09-04 19:47:36:894,0.2631,0.6109,9.463,-0.0026,0.003,9.8066,-0.0209,0.0395,0.0335,-20.44,-25.87,9.81,348.37,-87.07,-127.49
15455,52.37101,-1.264433,176.97,6.89,4,63.03,16 / 17,1576821,2019-09-04 19:47:36:994,-0.0944,0.4115,9.5072,-0.0016,-0.0073,9.8066,0.0215,-0.0096,-0.0054,-21.25,-26.5,10.81,350.1,-87.05,-126.98
15456,52.37101,-1.264433,176.97,6.89,4,63.03,16 / 17,1576920,2019-09-04 19:47:37:093,0.0081,0.384,9.5573,0.0006,-0.0073,9.8066,0.0088,-0.0172,0.0026,-21.12,-26.56,10.94,350.34,-86.95,-126.71
15457,52.37101,-1.264433,176.97,6.89,4,63.03,16 / 17,1577020,2019-09-04 19:47:37:193,-0.2665,0.3863,10.2696,-0.0002,-0.0102,9.8066,0.0146,-0.0324,-0.0332,-22.12,-26.69,11.44,349.88,-86.79,-126.05
15458,52.37101,-1.264433,176.97,6.89,4,63.03,16 / 17,1577121,2019-09-04 19:47:37:294,0.1955,0.0004,10.0302,0.0057,-0.0084,9.8066,0.0119,0.0107,0.0194,-21.69,-26.19,11.38,349.47,-86.65,-126.43
15459,52.37101,-1.264433,176.97,6.89,4,63.03,16 / 17,1577221,2019-09-04 19:47:37:394,-0.2984,0.2066,10.5515,-0.0043,-0.0166,9.8066,0.021,-0.0252,-0.0058,-22.31,-26.12,11.44,349.77,-86.51,-126.12
15460,52.37086,-1.263303,176.07,9.84,4,105.51,Dec-18,1577321,2019-09-04 19:47:37:494,0.4409,-0.1784,10.2024,0.0011,0.0017,9.8065,-0.0145,0.0407,0.0413,-21.81,-25.87,11.06,350.0,-86.38,-125.88
15461,52.37086,-1.263303,176.07,9.84,4,105.51,Dec-18,1577420,2019-09-04 19:47:37:593,-0.1316,0.0153,9.7298,-0.0047,-0.0065,9.8066,0.0029,-0.0077,-0.0066,-21.94,-26.0,11.13,351.3,-86.32,-124.66
15462,52.37086,-1.263303,176.07,9.84,4,105.51,Dec-18,1577520,2019-09-04 19:47:37:693,0.168,0.4398,10.003,-0.0023,-0.0004,9.8066,0.011,0.0009,0.0002,-20.75,-25.87,11.31,353.02,-86.3,-124.12
15463,52.37086,-1.263303,176.07,9.84,4,105.51,Dec-18,1577620,2019-09-04 19:47:37:793,0.2341,0.007,9.6526,-0.0028,-0.0038,9.8066,-0.0023,0.016,0.0208,-21.31,-25.75,11.69,355.76,-86.25,-123.68
15464,52.37086,-1.263303,176.07,9.84,4,105.51,Dec-18,1577721,2019-09-04 19:47:37:894,-0.2023,0.3906,9.4822,-0.0083,-0.0059,9.8066,0.0034,-0.0415,-0.031,-21.44,-25.69,11.5,356.37,-86.2,-123.11
15465,52.37086,-1.263303,176.07,9.84,4,105.51,Dec-18,1577821,2019-09-04 19:47:37:994,-0.1192,-0.4552,9.5696,-0.0032,0.0064,9.8066,-0.0129,0.0239,0.0168,-21.87,-25.75,11.5,356.33,-86.16,-122.02
15466,52.37086,-1.263303,176.07,9.84,4,105.51,Dec-18,1577920,2019-09-04 19:47:38:093,0.1042,-0.0487,10.0828,-0.0046,-0.0002,9.8066,-0.0071,0.0116,0.0005,-21.37,-26.06,10.88,355.48,-86.29,-121.83
15467,52.37086,-1.263303,176.07,9.84,4,105.51,Dec-18,1578020,2019-09-04 19:47:38:193,0.0934,0.351,10.7456,0.0016,-0.0053,9.8066,0.0215,-0.0247,-0.0134,-21.75,-26.31,11.75,357.14,-86.25,-121.27
15468,52.37086,-1.263303,176.07,9.84,4,105.51,Dec-18,1578120,2019-09-04 19:47:38:293,0.437,-0.0618,9.9875,0.0056,-0.0118,9.8066,0.0167,0.016,0.0335,-20.94,-25.56,11.69,357.34,-86.14,-122.2
15469,52.37086,-1.263303,176.07,9.84,4,105.51,Dec-18,1578220,2019-09-04 19:47:38:393,0.4083,-0.0417,9.5353,0.0002,-0.0057,9.8066,0.0036,0.0242,0.0238,-21.62,-25.12,12.88,357.73,-85.97,-122.68
15470,52.37086,-1.263303,176.07,9.84,4,105.51,Dec-17,1578320,2019-09-04 19:47:38:493,0.1349,0.1029,9.6902,-0.0114,-0.003,9.8066,-0.0245,-0.0225,-0.0022,-21.81,-24.06,12.19,356.55,-85.92,-121.82
15471,52.37086,-1.263303,176.07,9.84,4,105.51,Dec-17,1578421,2019-09-04 19:47:38:594,-0.0613,0.1296,10.378,-0.0081,0.004,9.8066,-0.0136,-0.0078,-0.0002,-21.56,-24.5,11.75,358.55,-85.91,-119.96
15472,52.37086,-1.263303,176.07,9.84,4,105.51,Dec-17,1578520,2019-09-04 19:47:38:693,-0.0441,0.2169,9.8024,-0.0026,-0.0035,9.8066,0.0059,-0.0101,-0.0137,-21.62,-24.12,11.0,357.88,-85.92,-118.53
15473,52.37086,-1.263303,176.07,9.84,4,105.51,Dec-17,1578620,2019-09-04 19:47:38:793,0.007,0.2659,9.7333,0.0047,-0.0034,9.8066,0.0174,0.0119,0.0019,-20.62,-23.94,11.19,358.55,-85.89,-118.99
15474,52.37086,-1.263303,176.07,9.84,4,105.51,Dec-17,1578720,2019-09-04 19:47:38:893,0.0118,0.0716,9.7504,0.002,-0.0051,9.8065,0.0081,0.0057,-0.0168,-20.94,-23.69,10.38,355.28,-85.86,-119.82
15475,52.37086,-1.263303,176.07,9.84,4,105.51,Dec-17,1578820,2019-09-04 19:47:38:993,0.1289,-0.1146,9.5895,0.0094,0.0067,9.8066,0.0235,-0.0314,-0.0605,-19.81,-23.87,10.19,354.86,-85.91,-121.3
15476,52.37086,-1.263303,176.07,9.84,4,105.51,Dec-17,1578921,2019-09-04 19:47:39:094,-0.0119,0.1807,9.7698,0.0044,0.0047,9.8066,0.0181,0.0123,-0.0093,-20.37,-23.06,10.31,352.79,-85.98,-123.24
15477,52.37086,-1.263303,176.07,9.84,4,105.51,Dec-17,1579020,2019-09-04 19:47:39:193,0.1843,-0.0507,9.5932,0.0028,0.0014,9.8066,0.0057,-0.0328,-0.0309,-20.25,-23.0,9.88,351.73,-86.01,-124.22
15478,52.37086,-1.263303,176.07,9.84,4,105.51,Dec-17,1579120,2019-09-04 19:47:39:293,-0.248,0.1178,10.2547,-0.0001,0.0055,9.8066,0.006,-0.0309,-0.0407,-21.5,-23.31,10.25,350.24,-86.06,-124.54
15479,52.37086,-1.263303,176.07,9.84,4,105.51,Dec-17,1579220,2019-09-04 19:47:39:393,-0.6605,0.3107,10.2144,0.0109,0.0062,9.8066,0.0285,-0.0138,-0.0294,-20.94,-22.31,9.75,347.72,-86.15,-126.94
15480,52.37086,-1.263303,176.07,9.84,4,105.51,Nov-17,1579320,2019-09-04 19:47:39:493,-0.1802,-0.4019,9.4846,0.0095,-0.0053,9.8065,-0.004,0.0265,0.0461,-20.94,-22.56,9.94,345.73,-86.11,-128.75
15481,52.37086,-1.263303,176.07,9.84,4,105.51,Nov-17,1579421,2019-09-04 19:47:39:594,-0.5294,-0.3302,10.0326,-0.0003,-0.0049,9.8066,-0.001,-0.0232,-0.0109,-21.31,-22.62,9.81,344.98,-86.01,-129.43
15482,52.37086,-1.263303,176.07,9.84,4,105.51,Nov-17,1579521,2019-09-04 19:47:39:694,-0.0931,0.3261,9.6206,-0.0025,0.0123,9.8066,-0.0207,-0.0207,-0.0112,-22.06,-22.94,10.63,345.68,-86.12,-129.95
15483,52.37086,-1.263303,176.07,9.84,4,105.51,Nov-17,1579620,2019-09-04 19:47:39:793,-0.5434,-0.2587,9.5953,-0.0023,0.0039,9.8066,-0.0073,-0.03,-0.0146,-21.5,-23.5,10.25,344.54,-86.24,-129.9
15484,52.37086,-1.263303,176.07,9.84,4,105.51,Nov-17,1579721,2019-09-04 19:47:39:894,-0.6249,0.0831,9.2423,0.0065,0.012,9.8066,0.0095,-0.0329,-0.0286,-21.87,-24.62,11.06,345.03,-86.33,-130.55
15485,52.37086,-1.263303,176.07,9.84,4,105.51,Nov-17,1579821,2019-09-04 19:47:39:994,-0.2253,-0.2776,9.9482,0.0074,0.0021,9.8066,0.0238,-0.0386,-0.0341,-22.19,-24.06,12.63,346.66,-86.42,-133.12
15486,52.37086,-1.263303,176.07,9.84,4,105.51,Nov-17,1579920,2019-09-04 19:47:40:093,-0.0222,-0.1639,9.7639,0.0115,0.0018,9.8066,0.0252,-0.0254,-0.0016,-21.69,-24.5,12.88,343.82,-86.42,-135.79
15487,52.37086,-1.263303,176.07,9.84,4,105.51,Nov-17,1580020,2019-09-04 19:47:40:193,0.2057,-0.4735,10.3565,0.0066,-0.0016,9.8066,0.0161,-0.0649,-0.029,-21.37,-24.81,13.19,342.34,-86.36,-138.27
15488,52.37086,-1.263303,176.07,9.84,4,105.51,Nov-17,1580120,2019-09-04 19:47:40:293,-0.0714,-0.2235,9.6789,0.0063,0.0058,9.8066,-0.0074,-0.0302,0.0137,-20.31,-24.87,12.63,342.75,-86.35,-139.11
15489,52.37086,-1.263303,176.07,9.84,4,105.51,Nov-17,1580220,2019-09-04 19:47:40:393,-0.0985,-0.2735,10.0229,-0.0035,0.0032,9.8066,-0.0157,-0.0039,0.0409,-20.87,-25.87,12.81,340.82,-86.38,-139.66
15490,52.37086,-1.263303,176.07,9.84,4,105.51,13 / 16,1580321,2019-09-04 19:47:40:494,-0.5049,-0.2686,8.9968,-0.0054,0.0051,9.8066,-0.0269,-0.0444,0.0047,-20.37,-26.56,12.69,343.08,-86.46,-138.75
15491,52.37086,-1.263303,176.07,9.84,4,105.51,13 / 16,1580421,2019-09-04 19:47:40:594,-0.324,-0.7679,9.4465,-0.0137,0.0071,9.8066,-0.0399,-0.0505,-0.0174,-20.25,-26.94,12.69,344.82,-86.63,-137.18
15492,52.37086,-1.263303,176.07,9.84,4,105.51,13 / 16,1580521,2019-09-04 19:47:40:694,-0.5537,-0.2455,9.7743,-0.0117,0.0066,9.8066,-0.0297,-0.0852,-0.012,-19.75,-27.37,13.13,346.72,-86.76,-135.44
15493,52.37086,-1.263303,176.07,9.84,4,105.51,13 / 16,1580620,2019-09-04 19:47:40:793,-0.8967,-0.5602,10.1739,-0.0009,0.0024,9.8065,0.0009,-0.0695,-0.0143,-20.19,-27.44,13.63,350.3,-86.87,-134.09
15494,52.37086,-1.263303,176.07,9.84,4,105.51,13 / 16,1580721,2019-09-04 19:47:40:894,-0.1668,-0.4139,9.6157,0.0053,-0.0006,9.8066,0.0024,-0.0875,-0.0172,-20.44,-27.25,13.0,347.12,-86.86,-135.1
15495,52.37086,-1.263303,176.07,9.84,4,105.51,13 / 16,1580820,2019-09-04 19:47:40:993,-0.2406,-0.6057,9.3815,0.0003,0.0042,9.8066,-0.0107,-0.0533,0.0062,-20.06,-26.69,13.19,345.81,-86.87,-136.32
15496,52.37086,-1.263303,176.07,9.84,4,105.51,13 / 16,1580920,2019-09-04 19:47:41:093,-0.5972,-0.4409,9.8341,-0.0044,0.0011,9.8066,-0.0266,-0.0723,0.0149,-19.94,-25.75,13.56,348.42,-86.92,-135.9
15497,52.37086,-1.263303,176.07,9.84,4,105.51,13 / 16,1581020,2019-09-04 19:47:41:193,-0.8766,-0.3465,9.6653,-0.0105,0.0009,9.8066,-0.0266,-0.0723,0.0149,-19.94,-25.75,13.56,348.42,-86.92,-135.9
15498,52.37086,-1.263303,176.07,9.84,4,105.51,13 / 16,1581120,2019-09-04 19:47:41:293,-0.5818,-0.5359,10.2016,-0.0163,-0.019,9.8066,0.0318,-0.0809,0.0133,-21.19,-25.06,13.13,347.19,-86.96,-133.87
15499,52.37086,-1.263303,176.07,9.84,4,105.51,14 / 17,1581221,2019-09-04 19:47:41:394,-0.2283,-0.1353,9.4213,0.0084,-0.014,9.8066,0.0358,-0.0896,0.0202,-21.25,-25.12,12.88,347.55,-86.72,-133.47
15500,52.37086,-1.263303,176.07,9.84,4,105.51,14 / 17,1581320,2019-09-04 19:47:41:493,-0.1706,-0.646,9.6797,-0.0024,-0.0105,9.8066,-0.0108,-0.0705,0.0335,-21.19,-25.81,13.31,346.9,-86.48,-134.0
15501,52.37086,-1.263303,176.07,9.84,4,105.51,14 / 17,1581420,2019-09-04 19:47:41:593,-0.5301,-0.7826,9.8207,-0.0155,-0.0013,9.8066,-0.0343,-0.0628,0.0336,-21.19,-25.81,13.31,349.56,-86.47,-131.5
15502,52.37086,-1.263303,176.07,9.84,4,105.51,14 / 17,1581520,2019-09-04 19:47:41:693,-0.0723,-0.5814,10.1646,-0.0103,-0.0014,9.8066,-0.0265,-0.0798,0.0094,-21.69,-26.31,13.25,351.85,-86.49,-128.21
15503,52.37086,-1.263303,176.07,9.84,4,105.51,14 / 17,1581621,2019-09-04 19:47:41:794,-0.6187,-0.4008,10.0694,-0.0006,-0.007,9.8066,0.0149,-0.0752,0.0127,-21.19,-26.0,13.38,354.93,-86.47,-126.49
15504,52.37086,-1.263303,176.07,9.84,4,105.51,14 / 17,1581720,2019-09-04 19:47:41:893,-0.2454,-0.3585,9.9087,0.0041,-0.0144,9.8066,0.0442,-0.0711,0.026,-21.81,-26.25,13.56,355.6,-86.37,-126.58
15505,52.37086,-1.263303,176.07,9.84,4,105.51,14 / 17,1581821,2019-09-04 19:47:41:994,-0.0262,-0.7194,9.0936,0.0034,-0.012,9.8066,-0.0012,-0.084,-0.0084,-20.81,-25.69,13.56,355.63,-86.06,-127.74
15506,52.37086,-1.263303,176.07,9.84,4,105.51,14 / 17,1581920,2019-09-04 19:47:42:093,-0.6779,-0.4064,9.5609,-0.0056,0.0123,9.8066,-0.041,-0.0619,-0.0302,-21.06,-25.75,14.25,356.35,-86.04,-127.07
15507,52.37086,-1.263303,176.07,9.84,4,105.51,14 / 17,1582021,2019-09-04 19:47:42:194,-0.4528,-0.1392,10.105,-0.0077,0.016,9.8066,-0.0327,-0.0466,-0.0492,-20.94,-25.69,14.63,0.26,-86.23,-125.3
15508,52.37086,-1.263303,176.07,9.84,4,105.51,14 / 17,1582120,2019-09-04 19:47:42:293,-0.3207,-0.2493,10.1571,0.014,0.0149,9.8065,0.0234,-0.0335,-0.0542,-20.31,-26.0,14.5,1.09,-86.51,-125.85
15509,52.37086,-1.263303,176.07,9.84,4,105.51,14 / 17,1582221,2019-09-04 19:47:42:394,0.2579,0.3783,9.8181,0.0109,0.0014,9.8066,0.0127,0.0016,0.0268,-20.69,-26.37,14.69,355.39,-86.6,-129.86
15510,52.37086,-1.263303,176.07,9.84,4,105.51,14 / 16,1582320,2019-09-04 19:47:42:493,-0.0962,0.8735,10.3699,-0.0039,-0.0115,9.8066,0.0093,-0.0072,0.0591,-19.87,-26.0,14.0,353.63,-86.51,-130.94
15511,52.37086,-1.263303,176.07,9.84,4,105.51,14 / 16,1582421,2019-09-04 19:47:42:594,0.0721,0.0645,9.4718,-0.0075,-0.0093,9.8066,-0.0019,0.0076,0.0657,-20.56,-25.75,14.31,353.39,-86.36,-129.86
15512,52.37086,-1.263303,176.07,9.84,4,105.51,14 / 16,1582520,2019-09-04 19:47:42:693,-0.4269,-0.1175,10.0684,-0.0081,-0.0166,9.8066,0.0072,-0.0125,0.0394,-20.62,-26.81,13.94,355.53,-86.15,-127.83
15513,52.37086,-1.263303,176.07,9.84,4,105.51,14 / 16,1582621,2019-09-04 19:47:42:794,0.0883,-0.3007,9.9571,-0.0015,0.0035,9.8066,0.0173,-0.0309,-0.0388,-21.0,-26.94,14.19,356.54,-86.06,-126.89
15514,52.37086,-1.263303,176.07,9.84,4,105.51,14 / 16,1582721,2019-09-04 19:47:42:894,0.1415,-0.0007,10.1339,0.0069,0.0044,9.8066,-0.0002,-0.0022,-0.0297,-20.37,-27.75,14.5,359.57,-86.09,-127.27
15515,52.37086,-1.263303,176.07,9.84,4,105.51,14 / 16,1582820,2019-09-04 19:47:42:993,0.0348,0.1965,10.2131,0.0076,0.0076,9.8065,0.0059,0.0349,-0.0023,-20.75,-27.62,14.0,354.22,-86.2,-129.04
15516,52.37086,-1.263303,176.07,9.84,4,105.51,14 / 16,1582920,2019-09-04 19:47:43:093,-0.2113,0.1525,9.5515,0.004,0.0066,9.8066,-0.0015,0.001,-0.0362,-19.87,-28.06,14.69,355.69,-86.3,-130.86
15517,52.37086,-1.263303,176.07,9.84,4,105.51,14 / 16,1583020,2019-09-04 19:47:43:193,0.3761,0.4568,9.6016,0.0017,0.0069,9.8066,0.0014,-0.0378,-0.0289,-20.44,-28.12,14.38,353.07,-86.38,-131.41
15518,52.37086,-1.263303,176.07,9.84,4,105.51,14 / 16,1583121,2019-09-04 19:47:43:294,0.1748,0.3113,9.824,-0.0044,-0.0034,9.8066,0.0005,-0.0215,-0.0004,-20.19,-27.37,13.81,354.23,-86.34,-130.34
15519,52.37086,-1.263303,176.07,9.84,4,105.51,14 / 16,1583220,2019-09-04 19:47:43:393,-0.0023,0.102,9.9137,-0.0034,-0.0037,9.8066,-0.0101,0.0238,0.0237,-19.69,-28.06,13.94,355.16,-86.3,-129.46
15520,52.37086,-1.263303,176.07,9.84,4,105.51,15 / 17,1583321,2019-09-04 19:47:43:494,0.0198,0.2702,9.779,-0.0031,0.0046,9.8066,-0.0076,0.0054,-0.008,-20.31,-28.31,14.0,356.13,-86.34,-128.57
15521,52.37086,-1.263303,176.07,9.84,4,105.51,15 / 17,1583421,2019-09-04 19:47:43:594,0.0177,0.022,10.0775,0.0011,-0.0037,9.8066,0.003,0.0002,-0.0041,-18.94,-27.87,13.63,358.37,-86.38,-127.89
15522,52.37086,-1.263303,176.07,9.84,4,105.51,15 / 17,1583520,2019-09-04 19:47:43:693,0.2683,-0.2599,9.777,0.005,0.004,9.8066,-0.0047,0.0118,-0.0209,-19.87,-28.0,14.75,357.81,-86.39,-128.9
15523,52.37086,-1.263303,176.07,9.84,4,105.51,15 / 17,1583620,2019-09-04 19:47:43:793,-0.0001,0.2145,9.9158,-0.0065,0.006,9.8066,-0.0213,-0.0012,0.0072,-19.5,-27.31,13.69,357.34,-86.45,-128.85
15524,52.37086,-1.263303,176.07,9.84,4,105.51,15 / 17,1583721,2019-09-04 19:47:43:894,0.3077,0.7252,9.6869,-0.0024,0.007,9.8066,-0.0084,0.0127,-0.0086,-19.94,-27.69,13.0,355.09,-86.56,-127.58
15525,52.37086,-1.263303,176.07,9.84,4,105.51,15 / 17,1583821,2019-09-04 19:47:43:994,-0.0922,0.3142,9.9722,0.0102,-0.0046,9.8066,0.0337,-0.0042,-0.018,-19.44,-28.31,13.19,356.46,-86.55,-127.66
15526,52.37086,-1.263303,176.07,9.84,4,105.51,15 / 17,1583921,2019-09-04 19:47:44:094,0.5039,0.139,10.0514,0.0093,-0.0087,9.8066,0.0229,0.0177,0.0064,-19.19,-28.56,13.13,354.36,-86.48,-129.57
15527,52.37086,-1.263303,176.07,9.84,4,105.51,15 / 17,1584021,2019-09-04 19:47:44:194,0.3785,0.2357,9.7461,0.0005,-0.0016,9.8066,-0.0017,0.0245,-0.0045,-18.75,-28.19,14.38,355.51,-86.32,-130.52
15528,52.37086,-1.263303,176.07,9.84,4,105.51,15 / 17,1584121,2019-09-04 19:47:44:294,0.5703,0.4898,9.7278,-0.004,0.0027,9.8066,-0.0139,0.0454,0.0131,-18.81,-27.69,15.19,358.16,-86.34,-129.99
15529,52.37086,-1.263303,176.07,9.84,4,105.51,15 / 16,1584220,2019-09-04 19:47:44:393,0.0842,0.5541,10.1399,-0.0055,0.0007,9.8066,-0.007,0.0398,-0.0029,-21.37,-27.19,14.06,354.32,-86.36,-128.97
15530,52.37086,-1.263303,176.07,9.84,4,105.51,15 / 16,1584320,2019-09-04 19:47:44:493,0.4512,0.368,9.6008,0.0064,0.002,9.8066,0.0181,0.0334,-0.0062,-20.69,-26.75,13.94,353.69,-86.4,-129.56
15531,52.37086,-1.263303,176.07,9.84,4,105.51,15 / 16,1584421,2019-09-04 19:47:44:594,0.4666,0.4264,9.5325,0.002,0.0039,9.8066,-0.0151,0.0649,0.0095,-21.62,-26.81,13.44,349.51,-86.39,-130.35
15532,52.37086,-1.263303,176.07,9.84,4,105.51,15 / 16,1584521,2019-09-04 19:47:44:694,0.2651,0.3009,9.8504,-0.0082,0.0041,9.8066,-0.0149,0.0246,-0.0471,-20.37,-27.19,13.25,352.21,-86.45,-130.25
15533,52.37086,-1.263303,176.07,9.84,4,105.51,15 / 16,1584620,2019-09-04 19:47:44:793,0.7076,1.0056,9.4524,-0.0015,0.011,9.8066,-0.0068,0.056,-0.0066,-20.75,-27.25,12.25,349.7,-86.62,-129.35
15534,52.37086,-1.263303,176.07,9.84,4,105.51,15 / 16,1584720,2019-09-04 19:47:44:893,0.8667,0.8927,9.5823,-0.005,0.0013,9.8066,-0.013,0.0661,0.0132,-20.81,-26.5,12.19,350.39,-86.69,-128.75
15535,52.37086,-1.263303,176.07,9.84,4,105.51,15 / 16,1584820,2019-09-04 19:47:44:993,0.9352,1.0156,9.5154,-0.0135,-0.0065,9.8066,-0.0132,0.0238,0.0003,-20.56,-26.44,12.44,352.33,-86.66,-126.92
15536,52.37086,-1.263303,176.07,9.84,4,105.51,15 / 16,1584920,2019-09-04 19:47:45:093,0.1584,0.8015,9.9143,-0.0091,0.0039,9.8066,-0.0113,0.0659,-0.0019,-19.44,-25.81,12.0,358.56,-86.67,-123.61
15537,52.37086,-1.263303,176.07,9.84,4,105.51,15 / 16,1585020,2019-09-04 19:47:45:193,0.4666,0.8507,9.5614,-0.0031,-0.0098,9.8066,0.0084,0.0725,0.0457,-19.19,-26.56,12.81,1.15,-86.64,-123.31
15538,52.37086,-1.263303,176.07,9.84,4,105.51,15 / 16,1585120,2019-09-04 19:47:45:293,0.1524,0.1333,9.5999,0.0,-0.0095,9.8065,0.0047,0.0734,0.0193,-20.87,-27.25,13.63,1.11,-86.48,-122.65
15539,52.37086,-1.263303,176.07,9.84,4,105.51,15 / 16,1585221,2019-09-04 19:47:45:394,-0.1728,0.7562,9.8639,-0.0083,-0.0037,9.8066,-0.0215,0.0795,0.0385,-21.25,-27.19,13.06,0.55,-86.37,-121.25
15540,52.37086,-1.263303,176.07,9.84,4,105.51,16 / 16,1585321,2019-09-04 19:47:45:494,0.6269,0.6435,10.0648,-0.0084,-0.001,9.8066,-0.0185,0.0988,0.0657,-20.94,-27.37,12.75,4.05,-86.3,-118.0
15541,52.37086,-1.263303,176.07,9.84,4,105.51,16 / 16,1585421,2019-09-04 19:47:45:594,0.4596,0.4777,9.5521,-0.0076,-0.0056,9.8066,-0.0091,0.0531,0.0199,-21.81,-27.5,12.69,4.54,-86.2,-116.37
15542,52.37086,-1.263303,176.07,9.84,4,105.51,16 / 16,1585520,2019-09-04 19:47:45:693,0.174,0.6326,10.3287,-0.0045,-0.0023,9.8066,0.0076,0.0433,0.0043,-21.5,-27.75,11.63,5.26,-86.14,-114.9
15543,52.37086,-1.263303,176.07,9.84,4,105.51,16 / 16,1585621,2019-09-04 19:47:45:794,0.0227,0.4311,9.8074,-0.0008,-0.0056,9.8066,0.0174,0.0434,0.0192,-21.25,-28.44,12.0,5.13,-86.12,-115.03
15544,52.37086,-1.263303,176.07,9.84,4,105.51,16 / 16,1585720,2019-09-04 19:47:45:893,-0.219,0.6053,10.2241,0.0039,-0.0049,9.8066,0.0172,0.0119,-0.0195,-20.87,-28.37,11.56,5.36,-86.02,-114.83
15545,52.37086,-1.263303,176.07,9.84,4,105.51,16 / 16,1585820,2019-09-04 19:47:45:993,0.4447,0.445,10.4402,0.0104,0.008,9.8066,0.0139,0.067,0.0239,-21.69,-28.12,11.88,2.0,-86.01,-116.77
15546,52.37086,-1.263303,176.07,9.84,4,105.51,16 / 16,1585921,2019-09-04 19:47:46:094,0.2147,0.5238,9.2772,0.0044,-0.0002,9.8066,0.0021,0.0417,0.0189,-21.56,-28.25,11.75,359.9,-86.07,-118.7
15547,52.37086,-1.263303,176.07,9.84,4,105.51,16 / 16,1586021,2019-09-04 19:47:46:194,0.2788,0.3027,10.0489,-0.0085,0.0059,9.8066,-0.0204,0.0201,-0.0087,-22.0,-28.56,11.88,0.89,-86.09,-117.8
15548,52.37086,-1.263303,176.07,9.84,4,105.51,16 / 16,1586121,2019-09-04 19:47:46:294,0.7068,-0.0652,9.8017,0.0009,0.0096,9.8066,0.0015,0.023,-0.0433,-22.31,-29.19,11.5,2.14,-86.23,-116.64
15549,52.37086,-1.263303,176.07,9.84,4,105.51,16 / 16,1586220,2019-09-04 19:47:46:393,-0.1887,-0.3608,10.6194,-0.0029,-0.0028,9.8066,0.0068,0.0081,-0.0337,-22.06,-29.19,11.75,2.16,-86.26,-116.62
15550,52.370567,-1.262048,175.36,10.63,4,108.77,15 / 17,1586320,2019-09-04 19:47:46:493,-0.0775,-0.0379,9.2012,0.0116,0.0067,9.8066,-0.0067,0.0194,-0.0163,-22.37,-28.62,12.69,3.03,-86.3,-117.78
15551,52.370567,-1.262048,175.36,10.63,4,108.77,15 / 17,1586421,2019-09-04 19:47:46:594,0.2258,0.7492,9.3665,-0.0093,-0.0078,9.8066,0.0076,-0.0155,0.014,-21.5,-28.12,12.56,4.34,-86.37,-117.74
15552,52.370567,-1.262048,175.36,10.63,4,108.77,15 / 17,1586521,2019-09-04 19:47:46:694,-0.001,1.0743,9.4368,-0.0203,0.001,9.8066,-0.0108,0.032,0.0202,-21.69,-27.19,12.31,2.79,-86.35,-116.01
15553,52.370567,-1.262048,175.36,10.63,4,108.77,15 / 17,1586620,2019-09-04 19:47:46:793,-0.1278,0.3542,10.5533,-0.0059,-0.0061,9.8065,0.0135,-0.007,-0.0303,-20.87,-27.12,11.56,7.12,-86.3,-113.15
15554,52.370567,-1.262048,175.36,10.63,4,108.77,15 / 17,1586721,2019-09-04 19:47:46:894,0.096,0.5684,9.8837,0.0051,-0.0095,9.8066,0.0266,0.0095,0.0214,-21.06,-27.5,11.0,3.82,-86.27,-114.12
15555,52.370567,-1.262048,175.36,10.63,4,108.77,15 / 17,1586820,2019-09-04 19:47:46:993,0.0395,0.1292,10.1593,0.0075,-0.0116,9.8066,0.0283,0.0313,0.0277,-21.31,-27.75,11.63,5.14,-86.13,-115.02
15556,52.370567,-1.262048,175.36,10.63,4,108.77,15 / 17,1586921,2019-09-04 19:47:47:094,0.135,0.5848,9.6599,0.0114,-0.001,9.8066,0.0176,0.0096,-0.0091,-21.0,-27.94,11.56,2.85,-85.97,-117.13
15557,52.370567,-1.262048,175.36,10.63,4,108.77,15 / 17,1587021,2019-09-04 19:47:47:194,-0.2285,0.3871,9.2274,-0.0009,-0.0054,9.8066,-0.0047,0.032,0.0289,-21.69,-28.37,12.19,0.09,-85.94,-118.53
15558,52.370567,-1.262048,175.36,10.63,4,108.77,15 / 17,1587121,2019-09-04 19:47:47:294,0.0114,0.748,9.799,-0.0145,-0.0001,9.8065,-0.0124,0.012,0.0139,-20.56,-28.0,11.75,2.4,-85.93,-117.55
15559,52.370567,-1.262048,175.36,10.63,4,108.77,15 / 17,1587221,2019-09-04 19:47:47:394,-0.0554,0.2189,10.0849,0.0009,-0.0098,9.8066,0.0159,0.0479,0.0317,-22.12,-28.0,11.19,0.69,-85.85,-115.93
15560,52.370567,-1.262048,175.36,10.63,4,108.77,16 / 16,1587320,2019-09-04 19:47:47:493,0.1319,-0.085,10.0812,0.0098,-0.01,9.8066,0.0441,0.0313,-0.0024,-22.06,-27.87,11.69,1.59,-85.73,-117.16
15561,52.370567,-1.262048,175.36,10.63,4,108.77,16 / 16,1587421,2019-09-04 19:47:47:594,0.3537,0.8796,9.1703,0.0009,-0.0053,9.8065,-0.0154,0.035,0.027,-22.12,-28.06,12.38,359.25,-85.64,-119.3
15562,52.370567,-1.262048,175.36,10.63,4,108.77,16 / 16,1587520,2019-09-04 19:47:47:693,-0.3853,0.0422,10.2227,-0.0156,0.0087,9.8066,-0.0554,0.0259,-0.0161,-22.37,-27.87,12.44,1.22,-85.6,-117.5
15563,52.370567,-1.262048,175.36,10.63,4,108.77,16 / 16,1587620,2019-09-04 19:47:47:793,-0.1251,1.1598,10.2794,-0.005,0.0133,9.8066,0.0001,0.0534,0.0083,-21.25,-27.5,11.81,5.25,-85.85,-114.94
15564,52.370567,-1.262048,175.36,10.63,4,108.77,16 / 16,1587721,2019-09-04 19:47:47:894,0.2427,1.2428,10.3451,0.0338,0.0023,9.8065,0.0804,0.0798,-0.0106,-21.56,-28.5,11.13,359.26,-85.89,-117.24
15565,52.370567,-1.262048,175.36,10.63,4,108.77,16 / 16,1587821,2019-09-04 19:47:47:994,1.3742,0.0448,9.6117,0.0252,-0.0086,9.8066,0.0507,0.0229,-0.0592,-21.75,-28.5,11.75,353.51,-85.79,-124.55
15566,52.370567,-1.262048,175.36,10.63,4,108.77,16 / 16,1587921,2019-09-04 19:47:48:094,-0.0912,-0.486,9.8108,-0.0099,0.0132,9.8066,-0.0506,0.0423,-0.0692,-21.87,-28.56,11.38,349.7,-85.82,-125.96
15567,52.370567,-1.262048,175.36,10.63,4,108.77,16 / 16,1588021,2019-09-04 19:47:48:194,0.0392,0.5154,9.8852,-0.0015,0.0361,9.8066,-0.0332,0.0369,-0.0802,-21.0,-28.06,11.75,354.73,-86.08,-124.58
15568,52.370567,-1.262048,175.36,10.63,4,108.77,16 / 16,1588120,2019-09-04 19:47:48:293,0.8187,0.8902,9.6828,0.011,0.0166,9.8066,0.0303,0.0509,-0.0037,-21.25,-28.69,11.56,352.9,-86.53,-126.32
15569,52.370567,-1.262048,175.36,10.63,4,108.77,16 / 16,1588220,2019-09-04 19:47:48:393,0.2696,0.4845,10.4763,0.0134,0.0049,9.8066,0.0174,0.0996,0.0098,-21.56,-27.94,11.69,347.62,-86.55,-130.14
