,GPS LATITUDE (degrees),GPS LONGITUDE (degrees), GPS ALTITUDE (m),GPS SPEED (Kmh),GPS ACCURACY (m),GPS ORIENTATION (Â°), SATELLITES IN RANGE, TIME SINCE START (ms), DATE (YYYY-MO-DD HH-MI-SS_SSS),ACCELEROMETER X (m/s²) , ACCELEROMETER Y (m/s²), ACCELEROMETER Z (m/s²), GRAVITY X (m/s²), GRAVITY Y (m/s²), GRAVITY Z (m/s²), GYROSCOPE Yaw (rad/s), GYROSCOPE Pitch (rad/s), GYROSCOPE Roll (rad/s)
503,46.428593,-0.506668,110.09,0.0,4.288,44.6,14 / 19,50310,2019-08-09 22:36:07:537,0.7507,-0.1567,9.7495,0.7875,-0.6689,9.7521,-0.007,-0.0004,-0.0033
504,46.428593,-0.506668,110.09,0.0,4.288,44.6,14 / 19,50411,2019-08-09 22:36:07:638,0.8321,-1.495,9.6321,0.7882,-0.673,9.7517,0.0132,0.0004,0.0015
505,46.428593,-0.506668,110.09,0.0,4.288,44.6,14 / 19,50510,2019-08-09 22:36:07:737,0.8177,-0.9779,9.6363,0.7883,-0.6759,9.7515,-0.0115,0.0002,0.0003
506,46.428593,-0.506668,110.09,0.0,4.288,44.6,Dec-16,50610,2019-08-09 22:36:07:837,0.7208,-0.2464,9.7608,0.7882,-0.6748,9.7516,0.0009,-0.0002,0.0003
507,46.428593,-0.506668,110.09,0.0,4.288,44.6,Dec-16,50711,2019-08-09 22:36:07:938,0.7932,-1.4268,9.6351,0.7885,-0.6745,9.7516,-0.0038,-0.0006,-0.0025
508,46.428593,-0.506668,110.09,0.0,4.288,44.6,Dec-16,50811,2019-08-09 22:36:08:038,0.8471,-1.1455,9.6184,0.7889,-0.6698,9.7519,-0.0135,-0.0003,0.0001
509,46.428593,-0.506668,110.09,0.0,4.288,44.6,Dec-16,50910,2019-08-09 22:36:08:137,0.7633,-0.3913,9.7405,0.7891,-0.6765,9.7514,0.0087,-0.0001,0.0023
510,46.428593,-0.506668,110.09,0.0,4.288,44.6,Dec-16,51011,2019-08-09 22:36:08:238,0.7794,-1.3867,9.6447,0.7885,-0.6733,9.7517,-0.0072,-0.0005,0.0006
511,46.428593,-0.506668,110.09,0.0,4.288,44.6,Dec-16,51110,2019-08-09 22:36:08:337,0.8345,-1.2394,9.604,0.788,-0.6689,9.752,0.0114,0.0008,0.0013
512,46.428593,-0.506668,110.09,0.0,4.288,44.6,Dec-16,51212,2019-08-09 22:36:08:439,0.7597,-0.5936,9.7279,0.7883,-0.677,9.7514,-0.0121,-0.0009,-0.0025
513,46.428593,-0.506668,110.09,0.0,4.288,44.6,Dec-16,51310,2019-08-09 22:36:08:537,0.7788,0.0636,9.8213,0.7885,-0.6748,9.7516,0.0019,0.0004,-0.0004
514,46.428593,-0.506668,110.09,0.0,4.288,44.6,Dec-16,51410,2019-08-09 22:36:08:637,0.8501,-1.2544,9.5873,0.7888,-0.6725,9.7517,0.0105,0.001,0.0027
515,46.428593,-0.506668,110.09,0.0,4.288,44.6,Dec-16,51510,2019-08-09 22:36:08:737,0.7555,-0.7175,9.7243,0.7896,-0.6786,9.7512,-0.0086,0.0002,0.0016
516,46.428593,-0.506668,110.09,0.0,4.288,44.6,13 / 18,51610,2019-08-09 22:36:08:837,0.7866,0.0469,9.7991,0.7896,-0.6764,9.7514,0.0079,0.0001,0.0005
517,46.428593,-0.506668,110.09,0.0,4.288,44.6,13 / 18,51711,2019-08-09 22:36:08:938,0.8291,-1.3059,9.5885,0.7887,-0.6691,9.752,-0.0122,-0.0011,-0.002
518,46.428593,-0.506668,110.09,0.0,4.288,44.6,13 / 18,51810,2019-08-09 22:36:09:037,0.7699,-0.7744,9.7028,0.789,-0.6686,9.752,0.0124,0.0005,0.0016
519,46.428593,-0.506668,110.09,0.0,4.288,44.6,13 / 18,51910,2019-08-09 22:36:09:137,0.8064,0.0528,9.7734,0.7886,-0.6729,9.7517,-0.0125,-0.0008,0.0013
520,46.428593,-0.506668,110.09,0.0,4.288,44.6,13 / 18,52011,2019-08-09 22:36:09:238,0.8333,-1.2777,9.5681,0.7888,-0.6737,9.7516,0.0023,0.0004,0.0005
521,46.428593,-0.506668,110.09,0.0,4.288,44.6,13 / 18,52111,2019-08-09 22:36:09:338,0.7992,-0.9479,9.6902,0.7884,-0.6698,9.7519,-0.0072,-0.0014,-0.0012
522,46.428593,-0.506668,110.09,0.0,4.288,44.6,13 / 18,52210,2019-08-09 22:36:09:437,0.804,-0.0346,9.7453,0.7886,-0.6762,9.7515,-0.0122,-0.0003,-0.0009
523,46.428593,-0.506668,110.09,0.0,4.288,44.6,13 / 18,52311,2019-08-09 22:36:09:538,0.8363,-1.3484,9.5962,0.7885,-0.6753,9.7515,0.0084,0.0012,0.0027
524,46.428593,-0.506668,110.09,0.0,4.288,44.6,13 / 18,52410,2019-08-09 22:36:09:637,0.7824,-0.2261,9.7908,0.7881,-0.6682,9.7521,-0.0119,0.0007,0.0009
525,46.428593,-0.506668,110.09,0.0,4.288,44.6,13 / 18,52510,2019-08-09 22:36:09:737,0.8112,-1.03,9.6483,0.7883,-0.6735,9.7517,0.0141,0.0001,0.002
526,46.428593,-0.506668,110.09,0.0,4.288,44.6,13 / 18,52610,2019-08-09 22:36:09:837,0.7333,-0.0854,9.7782,0.7889,-0.6723,9.7517,0.0006,-0.0004,-0.0006
527,46.428593,-0.506668,110.09,0.0,4.288,44.6,13 / 18,52710,2019-08-09 22:36:09:937,0.7621,-0.1124,9.8159,0.7888,-0.6742,9.7516,0.0005,0.0006,-0.0016
528,46.428593,-0.506668,110.09,0.0,4.288,44.6,13 / 18,52810,2019-08-09 22:36:10:037,0.7705,-0.8719,9.6543,0.7889,-0.6684,9.752,0.0115,0.0002,0.003
529,46.428593,-0.506668,110.09,0.0,4.288,44.6,13 / 18,52910,2019-08-09 22:36:10:137,0.7268,-0.1166,9.7596,0.7887,-0.6729,9.7517,-0.0072,0.0,-0.0015
530,46.428593,-0.506668,110.09,0.0,4.288,44.6,13 / 18,53010,2019-08-09 22:36:10:237,0.8028,-0.0352,9.8416,0.789,-0.6767,9.7514,0.0088,-0.0001,0.0
531,46.428593,-0.506668,110.09,0.0,4.288,44.6,13 / 18,53112,2019-08-09 22:36:10:339,0.7681,-0.7253,9.6453,0.7883,-0.6666,9.7522,-0.0107,-0.0009,-0.002
532,46.428593,-0.506668,110.09,0.0,4.288,44.6,13 / 18,53211,2019-08-09 22:36:10:438,0.7411,-0.2417,9.7626,0.7881,-0.6725,9.7518,-0.0036,-0.0008,-0.0016
533,46.428593,-0.506668,110.09,0.0,4.288,44.6,13 / 18,53310,2019-08-09 22:36:10:537,0.7776,-0.0052,9.8171,0.7884,-0.6751,9.7516,-0.0014,0.0008,0.0005
534,46.428593,-0.506668,110.09,0.0,4.288,44.6,13 / 18,53410,2019-08-09 22:36:10:637,0.7788,-0.6361,9.6711,0.7889,-0.6676,9.752,0.0051,-0.0003,-0.0009
535,46.428593,-0.506668,110.09,0.0,4.288,44.6,13 / 18,53511,2019-08-09 22:36:10:738,0.7812,-1.3364,9.6698,0.7889,-0.6756,9.7515,0.0123,0.0004,0.0008
536,46.428593,-0.506668,110.09,0.0,4.288,44.6,13 / 18,53610,2019-08-09 22:36:10:837,0.7663,0.0301,9.7955,0.7889,-0.6752,9.7515,-0.0066,-0.0001,-0.0014
537,46.428593,-0.506668,110.09,0.0,4.288,44.6,13 / 18,53710,2019-08-09 22:36:10:937,0.7836,-0.5218,9.6932,0.7889,-0.6736,9.7516,0.0099,0.0005,0.0003
538,46.428593,-0.506668,110.09,0.0,4.288,44.6,13 / 18,53811,2019-08-09 22:36:11:038,0.8171,-1.416,9.698,0.7884,-0.672,9.7518,-0.0086,-0.0008,0.0006
539,46.428593,-0.506668,110.09,0.0,4.288,44.6,13 / 18,53911,2019-08-09 22:36:11:138,0.7866,0.0738,9.7955,0.7881,-0.6699,9.7519,-0.006,-0.0004,0.0003
540,46.428593,-0.506668,110.09,0.0,4.288,44.6,13 / 18,54011,2019-08-09 22:36:11:238,0.7345,-0.3973,9.7141,0.7881,-0.6737,9.7517,0.0042,-0.0007,-0.0014
541,46.428593,-0.506668,110.09,0.0,4.288,44.6,13 / 18,54111,2019-08-09 22:36:11:338,0.8177,-1.2352,9.695,0.7881,-0.669,9.752,-0.0002,0.0006,-0.0011
542,46.428593,-0.506668,110.09,0.0,4.288,44.6,13 / 18,54210,2019-08-09 22:36:11:437,0.8016,0.0666,9.7914,0.7889,-0.6686,9.752,0.008,0.001,0.0021
543,46.428593,-0.506668,110.09,0.0,4.288,44.6,13 / 18,54312,2019-08-09 22:36:11:539,0.7669,-0.2309,9.7441,0.7891,-0.6744,9.7516,-0.0039,-0.0001,0.0011
544,46.428593,-0.506668,110.09,0.0,4.288,44.6,13 / 18,54411,2019-08-09 22:36:11:638,0.777,-1.073,9.6758,0.7881,-0.6695,9.752,0.0087,0.0,-0.0006
545,46.428593,-0.506668,110.09,0.0,4.288,44.6,13 / 18,54511,2019-08-09 22:36:11:738,0.7693,0.066,9.7854,0.7875,-0.6703,9.752,0.0067,-0.0004,-0.0002
546,46.428593,-0.506668,110.09,0.0,4.288,44.6,13 / 19,54610,2019-08-09 22:36:11:837,0.7639,-0.1662,9.7632,0.7876,-0.6752,9.7516,-0.0054,-0.0003,-0.0026
547,46.428593,-0.506668,110.09,0.0,4.288,44.6,13 / 19,54711,2019-08-09 22:36:11:938,0.7944,-1.0545,9.6788,0.7879,-0.6683,9.7521,0.0008,-0.0002,0.0016
548,46.428593,-0.506668,110.09,0.0,4.288,44.6,13 / 19,54810,2019-08-09 22:36:12:037,0.8028,-0.0088,9.7644,0.7882,-0.6708,9.7519,-0.0115,-0.0003,0.002
549,46.428593,-0.506668,110.09,0.0,4.288,44.6,13 / 19,54910,2019-08-09 22:36:12:137,0.7298,-0.0747,9.7842,0.7877,-0.6676,9.7521,0.0147,0.0,0.0012
550,46.428593,-0.506668,110.09,0.0,4.288,44.6,13 / 19,55011,2019-08-09 22:36:12:238,0.774,-1.0054,9.6956,0.7867,-0.6685,9.7522,-0.0063,-0.0006,-0.0017
551,46.428593,-0.506668,110.09,0.0,4.288,44.6,13 / 19,55111,2019-08-09 22:36:12:338,0.8231,-0.0795,9.7429,0.7869,-0.6714,9.7519,-0.0129,-0.0009,-0.0027
552,46.428593,-0.506668,110.09,0.0,4.288,44.6,13 / 19,55211,2019-08-09 22:36:12:438,0.7818,-0.0842,9.7985,0.7874,-0.675,9.7517,0.0088,0.0001,0.0012
553,46.428593,-0.506668,110.09,0.0,4.288,44.6,13 / 19,55311,2019-08-09 22:36:12:538,0.7603,-0.8384,9.7345,0.7873,-0.6754,9.7516,-0.0049,0.0001,0.0005
554,46.428593,-0.506668,110.09,0.0,4.288,44.6,13 / 19,55410,2019-08-09 22:36:12:637,0.7866,-0.0902,9.7249,0.7874,-0.6708,9.7519,0.0013,0.0002,0.0005
555,46.428593,-0.506668,110.09,0.0,4.288,44.6,13 / 19,55511,2019-08-09 22:36:12:738,0.7447,0.0032,9.8015,0.7876,-0.6687,9.7521,-0.0124,-0.0008,-0.0031
556,46.428593,-0.506668,110.09,0.0,4.288,44.6,13 / 19,55611,2019-08-09 22:36:12:838,0.774,-0.6834,9.7219,0.7871,-0.6749,9.7517,0.0116,0.0006,0.0033
557,46.428593,-0.506668,110.09,0.0,4.288,44.6,13 / 19,55711,2019-08-09 22:36:12:938,0.795,-0.2464,9.7147,0.787,-0.6697,9.752,-0.0046,-0.0001,-0.0003
558,46.428593,-0.506668,110.09,0.0,4.288,44.6,13 / 19,55810,2019-08-09 22:36:13:037,0.7304,0.0439,9.7884,0.7864,-0.6669,9.7523,0.0082,-0.0004,0.0009
559,46.428593,-0.506668,110.09,0.0,4.288,44.6,13 / 19,55910,2019-08-09 22:36:13:137,0.7746,-0.5104,9.7273,0.7862,-0.6751,9.7517,0.0088,-0.0004,0.0002
560,46.428593,-0.506668,110.09,0.0,4.288,44.6,13 / 19,56010,2019-08-09 22:36:13:237,0.8064,-0.4021,9.7028,0.7863,-0.6743,9.7518,-0.0106,-0.0001,-0.002
561,46.428593,-0.506668,110.09,0.0,4.288,44.6,13 / 19,56113,2019-08-09 22:36:13:340,0.7699,0.0905,9.8063,0.7871,-0.6704,9.752,0.0133,0.0006,0.0014
562,46.428593,-0.506668,110.09,0.0,4.288,44.6,13 / 19,56210,2019-08-09 22:36:13:437,0.7639,-0.3775,9.7279,0.7868,-0.6691,9.7521,-0.0124,-0.0002,0.0005
563,46.428593,-0.506668,110.09,0.0,4.288,44.6,13 / 19,56312,2019-08-09 22:36:13:539,0.8201,-0.4374,9.6908,0.7871,-0.6751,9.7517,0.0028,-0.0004,-0.0004
564,46.428593,-0.506668,110.09,0.0,4.288,44.6,13 / 19,56412,2019-08-09 22:36:13:639,0.7441,0.0816,9.7818,0.7865,-0.6729,9.7519,-0.006,-0.0003,-0.0026
565,46.428593,-0.506668,110.09,0.0,4.288,44.6,13 / 19,56512,2019-08-09 22:36:13:739,0.7752,-0.2542,9.7399,0.786,-0.6671,9.7523,0.0087,0.0004,0.0006
566,46.428593,-0.506668,110.09,0.0,4.288,44.6,14 / 19,56611,2019-08-09 22:36:13:838,0.8189,-0.5858,9.692,0.7864,-0.6757,9.7517,0.0087,0.0004,0.0006
567,46.428593,-0.506668,110.09,0.0,4.288,44.6,14 / 19,56711,2019-08-09 22:36:13:938,0.7286,0.0277,9.8003,0.786,-0.6726,9.7519,-0.0099,-0.0005,0.0012
568,46.428593,-0.506668,110.09,0.0,4.288,44.6,14 / 19,56810,2019-08-09 22:36:14:037,0.7818,-0.1363,9.771,0.7861,-0.6707,9.7521,0.0121,0.0004,0.0003
569,46.428593,-0.506668,110.09,0.0,4.288,44.6,14 / 19,56910,2019-08-09 22:36:14:137,0.8303,-0.7606,9.6465,0.7867,-0.6773,9.7516,-0.0139,-0.0012,-0.0012
570,46.428593,-0.506668,110.09,0.0,4.288,44.6,14 / 19,57012,2019-08-09 22:36:14:239,0.7645,-0.0579,9.774,0.7863,-0.6715,9.752,0.0018,-0.0004,-0.0003
571,46.428593,-0.506668,110.09,0.0,4.288,44.6,14 / 19,57112,2019-08-09 22:36:14:339,0.7357,-0.0543,9.7548,0.7852,-0.668,9.7523,-0.0049,0.0004,0.0003
572,46.428593,-0.506668,110.09,0.0,4.288,44.6,14 / 19,57210,2019-08-09 22:36:14:437,0.8094,-0.8462,9.6459,0.7853,-0.6682,9.7523,-0.0101,0.0002,-0.0005
573,46.428593,-0.506668,110.09,0.0,4.288,44.6,14 / 19,57311,2019-08-09 22:36:14:538,0.7681,-0.1842,9.7686,0.7866,-0.672,9.7519,0.0098,0.0001,-0.0006
574,46.428593,-0.506668,110.09,0.0,4.288,44.6,14 / 19,57412,2019-08-09 22:36:14:639,0.7681,0.0157,9.7806,0.7871,-0.6744,9.7517,-0.0121,-0.0019,-0.0004
575,46.428593,-0.506668,110.09,0.0,4.288,44.6,14 / 19,57510,2019-08-09 22:36:14:737,0.7896,-0.991,9.6321,0.7861,-0.6699,9.7521,0.0119,0.0004,0.0021
576,46.428593,-0.506668,110.09,0.0,4.288,44.6,Nov-16,57610,2019-08-09 22:36:14:837,0.7453,-0.2662,9.765,0.7861,-0.6763,9.7517,0.0018,0.0005,0.0008
577,46.428593,-0.506668,110.09,0.0,4.288,44.6,Nov-16,57710,2019-08-09 22:36:14:937,0.7836,0.0283,9.7997,0.7866,-0.6776,9.7515,0.0033,0.0003,-0.002
578,46.428593,-0.506668,110.09,0.0,4.288,44.6,Nov-16,57810,2019-08-09 22:36:15:037,0.7752,-0.6008,9.707,0.7861,-0.669,9.7522,-0.0068,-0.0013,-0.0013
579,46.428593,-0.506668,110.09,0.0,4.288,44.6,Nov-16,57911,2019-08-09 22:36:15:138,0.7645,-0.3763,9.7572,0.7862,-0.6746,9.7518,-0.0099,-0.0008,-0.002
580,46.428593,-0.506668,110.09,0.0,4.288,44.6,Nov-16,58012,2019-08-09 22:36:15:239,0.7513,0.0636,9.7465,0.7865,-0.675,9.7517,0.0069,-0.0008,0.0003
581,46.428593,-0.506668,110.09,0.0,4.288,44.6,Nov-16,58112,2019-08-09 22:36:15:339,0.7663,-0.4829,9.7309,0.7863,-0.6708,9.752,-0.0087,0.0007,0.0005
582,46.428593,-0.506668,110.09,0.0,4.288,44.6,Nov-16,58211,2019-08-09 22:36:15:438,0.7585,-0.4583,9.7333,0.7869,-0.6781,9.7515,-0.0047,0.0,-0.0015
583,46.428593,-0.506668,110.09,0.0,4.288,44.6,Nov-16,58310,2019-08-09 22:36:15:537,0.7908,0.0582,9.765,0.7871,-0.6768,9.7516,0.0005,-0.0004,-0.0009
584,46.428593,-0.506668,110.09,0.0,4.288,44.6,Nov-16,58411,2019-08-09 22:36:15:638,0.7435,-0.3189,9.7345,0.788,-0.6806,9.7512,-0.0018,-0.0001,-0.0005
585,46.428593,-0.506668,110.09,0.0,4.288,44.6,Nov-16,58510,2019-08-09 22:36:15:737,0.7405,-0.5978,9.7052,0.7874,-0.6763,9.7516,-0.0052,0.0004,-0.0001
586,46.428593,-0.506668,110.09,0.0,4.288,44.6,14 / 19,58611,2019-08-09 22:36:15:838,0.7926,0.057,9.7716,0.7872,-0.6729,9.7518,-0.009,-0.0004,-0.0002
587,46.428593,-0.506668,110.09,0.0,4.288,44.6,14 / 19,58712,2019-08-09 22:36:15:939,0.7591,-0.2704,9.7345,0.7874,-0.6707,9.7519,0.0068,-0.0001,0.0011
588,46.428593,-0.506668,110.09,0.0,4.288,44.6,14 / 19,58810,2019-08-09 22:36:16:037,0.7633,-0.6876,9.686,0.7872,-0.6701,9.752,-0.0086,-0.0005,-0.0021
589,46.428593,-0.506668,110.09,0.0,4.288,44.6,14 / 19,58911,2019-08-09 22:36:16:138,0.7728,0.0205,9.7836,0.7875,-0.6735,9.7518,0.0109,0.0008,0.002
590,46.428593,-0.506668,110.09,0.0,4.288,44.6,14 / 19,59011,2019-08-09 22:36:16:238,0.7339,-0.119,9.7536,0.7873,-0.6785,9.7514,0.0014,0.0002,0.0013
591,46.428593,-0.506668,110.09,0.0,4.288,44.6,14 / 19,59110,2019-08-09 22:36:16:337,0.789,-0.8893,9.6818,0.7863,-0.6726,9.7519,0.0031,-0.0004,-0.0009
592,46.428593,-0.506668,110.09,0.0,4.288,44.6,14 / 19,59210,2019-08-09 22:36:16:437,0.7746,-0.0387,9.7584,0.7864,-0.6751,9.7517,0.0111,0.0005,0.0019
593,46.428593,-0.506668,110.09,0.0,4.288,44.6,14 / 19,59310,2019-08-09 22:36:16:537,0.722,-0.0681,9.7722,0.7859,-0.6717,9.752,-0.0113,-0.0009,-0.0009
594,46.428593,-0.506668,110.09,0.0,4.288,44.6,14 / 19,59410,2019-08-09 22:36:16:637,0.8046,-0.9198,9.7207,0.7863,-0.6709,9.752,0.009,0.0011,0.0019
595,46.428593,-0.506668,110.09,0.0,4.288,44.6,14 / 19,59511,2019-08-09 22:36:16:738,0.7848,-0.1243,9.7489,0.7864,-0.6716,9.752,-0.0105,0.0,0.0009
596,46.428593,-0.506668,110.09,0.0,4.288,44.6,13 / 18,59610,2019-08-09 22:36:16:837,0.7238,0.0121,9.7776,0.7863,-0.6768,9.7516,-0.0048,-0.0002,-0.0005
597,46.428593,-0.506668,110.09,0.0,4.288,44.6,13 / 18,59710,2019-08-09 22:36:16:937,0.7776,-0.7384,9.7333,0.7871,-0.6778,9.7515,0.0025,-0.0006,-0.0014
598,46.428593,-0.506668,110.09,0.0,4.288,44.6,13 / 18,59811,2019-08-09 22:36:17:038,0.7962,-0.2261,9.7237,0.7861,-0.672,9.752,-0.015,-0.0013,-0.0013
599,46.428593,-0.506668,110.09,0.0,4.288,44.6,13 / 18,59910,2019-08-09 22:36:17:137,0.716,0.0457,9.7955,0.7857,-0.6718,9.752,0.0118,0.0002,0.0022
600,46.428593,-0.506668,110.09,0.0,4.288,44.6,13 / 18,60010,2019-08-09 22:36:17:237,0.7986,-0.5547,9.7483,0.7854,-0.6771,9.7517,-0.0095,0.0002,0.0006
601,46.428593,-0.506668,110.09,0.0,4.288,44.6,13 / 18,60111,2019-08-09 22:36:17:338,0.8195,-0.3093,9.7135,0.786,-0.6698,9.7521,0.0084,0.0002,-0.0007
602,46.428593,-0.506668,110.09,0.0,4.288,44.6,13 / 18,60210,2019-08-09 22:36:17:437,0.716,0.0295,9.7908,0.786,-0.672,9.752,-0.0123,-0.0005,-0.0008
603,46.428593,-0.506668,110.09,0.0,4.288,44.6,13 / 18,60311,2019-08-09 22:36:17:538,0.795,-0.4069,9.7734,0.7862,-0.6767,9.7516,-0.004,-0.0003,-0.0011
604,46.428593,-0.506668,110.09,0.0,4.288,44.6,13 / 18,60412,2019-08-09 22:36:17:639,0.78,-0.5062,9.6848,0.7856,-0.6695,9.7522,0.0006,-0.0001,0.0021
605,46.428593,-0.506668,110.09,0.0,4.288,44.6,13 / 18,60510,2019-08-09 22:36:17:737,0.722,0.1073,9.7961,0.7854,-0.6732,9.7519,-0.0121,0.0004,0.0007
606,46.428593,-0.506668,110.09,0.0,4.288,44.6,14 / 19,60611,2019-08-09 22:36:17:838,0.786,-0.3279,9.7686,0.7858,-0.6767,9.7517,0.0135,-0.0002,0.0014
607,46.428593,-0.506668,110.09,0.0,4.288,44.6,14 / 19,60711,2019-08-09 22:36:17:938,0.8124,-0.6038,9.6597,0.7859,-0.6764,9.7517,-0.0082,-0.0007,-0.0004
608,46.428593,-0.506668,110.09,0.0,4.288,44.6,14 / 19,60811,2019-08-09 22:36:18:038,0.7154,0.0726,9.7926,0.7861,-0.674,9.7518,0.0086,0.0005,0.0005
609,46.428593,-0.506668,110.09,0.0,4.288,44.6,14 / 19,60910,2019-08-09 22:36:18:137,0.8004,-0.2381,9.771,0.786,-0.6711,9.752,-0.0109,0.0005,0.0005
610,46.428593,-0.506668,110.09,0.0,4.288,44.6,14 / 19,61012,2019-08-09 22:36:18:239,0.8213,-0.7031,9.6519,0.786,-0.6766,9.7517,-0.0062,-0.0004,-0.0013
611,46.428593,-0.506668,110.09,0.0,4.288,44.6,14 / 19,61111,2019-08-09 22:36:18:338,0.7393,-0.0381,9.7788,0.7859,-0.6716,9.752,0.0132,0.0005,0.0009
612,46.428593,-0.506668,110.09,0.0,4.288,44.6,14 / 19,61211,2019-08-09 22:36:18:438,0.7824,-0.1345,9.8087,0.7855,-0.6698,9.7522,-0.0113,-0.0005,-0.0015
613,46.428593,-0.506668,110.09,0.0,4.288,44.6,14 / 19,61310,2019-08-09 22:36:18:537,0.8183,-0.8342,9.6555,0.7863,-0.6767,9.7516,0.0,0.0003,0.0001
614,46.428593,-0.506668,110.09,0.0,4.288,44.6,14 / 19,61411,2019-08-09 22:36:18:638,0.7465,-0.1267,9.7836,0.7859,-0.6731,9.7519,-0.0049,0.0002,0.0
615,46.428593,-0.506668,110.09,0.0,4.288,44.6,14 / 19,61511,2019-08-09 22:36:18:738,0.7735,-0.0759,9.7973,0.7862,-0.6716,9.752,0.0093,-0.0004,-0.0004
616,46.428593,-0.506668,110.09,0.0,4.288,44.6,14 / 19,61611,2019-08-09 22:36:18:838,0.8195,-0.8731,9.6304,0.7865,-0.6767,9.7516,0.0062,0.0004,0.0018
617,46.428593,-0.506668,110.09,0.0,4.288,44.6,14 / 19,61710,2019-08-09 22:36:18:937,0.7351,-0.2045,9.7728,0.7859,-0.6704,9.7521,-0.0059,-0.0005,-0.0013
618,46.428593,-0.506668,110.09,0.0,4.288,44.6,14 / 19,61810,2019-08-09 22:36:19:037,0.8028,-0.0358,9.8177,0.7857,-0.6701,9.7521,0.0011,0.0005,0.0011
619,46.428593,-0.506668,110.09,0.0,4.288,44.6,14 / 19,61910,2019-08-09 22:36:19:137,0.8429,-1.0114,9.6226,0.7859,-0.6682,9.7522,-0.0118,-0.0002,0.0009
620,46.428593,-0.506668,110.09,0.0,4.288,44.6,14 / 19,62010,2019-08-09 22:36:19:237,0.7058,-0.2291,9.777,0.7865,-0.6712,9.752,0.0135,0.0004,0.0014
621,46.428593,-0.506668,110.09,0.0,4.288,44.6,14 / 19,62111,2019-08-09 22:36:19:338,0.8004,0.0301,9.7878,0.786,-0.6748,9.7518,-0.0051,-0.0006,-0.0026
622,46.428593,-0.506668,110.09,0.0,4.288,44.6,14 / 19,62210,2019-08-09 22:36:19:437,0.8477,-1.1197,9.598,0.7871,-0.6778,9.7515,0.0073,0.0008,0.0002
623,46.428593,-0.506668,110.09,0.0,4.288,44.6,14 / 19,62311,2019-08-09 22:36:19:538,0.7321,-0.4081,9.7578,0.7871,-0.6774,9.7515,0.0091,0.0001,0.0027
624,46.428593,-0.506668,110.09,0.0,4.288,44.6,14 / 19,62411,2019-08-09 22:36:19:638,0.7788,0.0846,9.8027,0.7867,-0.6764,9.7516,-0.0064,-0.0001,0.0011
625,46.428593,-0.506668,110.09,0.0,4.288,44.6,14 / 19,62512,2019-08-09 22:36:19:739,0.8165,-1.2358,9.5867,0.7856,-0.6684,9.7523,0.0128,0.0003,0.0011
626,46.428593,-0.506668,110.09,0.0,4.288,44.6,14 / 19,62610,2019-08-09 22:36:19:837,0.7268,-0.5757,9.7321,0.7858,-0.6767,9.7517,-0.0147,-0.0013,-0.0003
627,46.428593,-0.506668,110.09,0.0,4.288,44.6,14 / 19,62711,2019-08-09 22:36:19:938,0.7962,0.0882,9.7764,0.7862,-0.6729,9.7519,0.0007,0.0002,-0.0011
628,46.428593,-0.506668,110.09,0.0,4.288,44.6,14 / 19,62811,2019-08-09 22:36:20:038,0.7537,-0.2943,9.7441,0.7864,-0.6753,9.7517,0.0135,0.0006,0.0032
629,46.428593,-0.506668,110.09,0.0,4.288,44.6,14 / 19,62910,2019-08-09 22:36:20:137,0.7399,-0.6768,9.7094,0.7863,-0.6782,9.7515,-0.0094,-0.0007,0.0017
630,46.428593,-0.506668,110.09,0.0,4.288,44.6,14 / 19,63011,2019-08-09 22:36:20:238,0.7717,0.0564,9.7878,0.7861,-0.675,9.7518,0.0079,-0.0001,-0.0002
631,46.428593,-0.506668,110.09,0.0,4.288,44.6,14 / 19,63110,2019-08-09 22:36:20:337,0.8357,-1.3149,9.5819,0.7851,-0.6699,9.7522,-0.0107,-0.001,-0.0013
632,46.428593,-0.506668,110.09,0.0,4.288,44.6,14 / 19,63211,2019-08-09 22:36:20:438,0.7537,-0.7504,9.7135,0.7856,-0.6698,9.7522,0.0127,0.0008,0.0017
633,46.428593,-0.506668,110.09,0.0,4.288,44.6,14 / 19,63312,2019-08-09 22:36:20:539,0.7729,0.0301,9.7632,0.7854,-0.6734,9.7519,-0.0131,-0.0004,0.0014
634,46.428593,-0.506668,110.09,0.0,4.288,44.6,14 / 19,63410,2019-08-09 22:36:20:637,0.7711,-0.1351,9.7812,0.7857,-0.6744,9.7518,0.0036,0.0006,-0.0016
635,46.428593,-0.506668,110.09,0.0,4.288,44.6,14 / 19,63511,2019-08-09 22:36:20:738,0.7543,-0.9156,9.6657,0.7857,-0.6691,9.7522,-0.0063,-0.0009,-0.0012
636,46.428593,-0.506668,110.09,0.0,4.288,44.6,Dec-18,63611,2019-08-09 22:36:20:838,0.7902,-0.034,9.7572,0.7858,-0.6769,9.7517,-0.0107,-0.0008,-0.0018
637,46.428593,-0.506668,110.09,0.0,4.288,44.6,Dec-18,63710,2019-08-09 22:36:20:937,0.7525,-0.0621,9.7991,0.7851,-0.6766,9.7517,0.0093,0.0,0.0023
638,46.428593,-0.506668,110.09,0.0,4.288,44.6,Dec-18,63810,2019-08-09 22:36:21:037,0.7705,-1.076,9.6711,0.7844,-0.67,9.7522,-0.0107,0.0,0.0014
639,46.428593,-0.506668,110.09,0.0,4.288,44.6,Dec-18,63910,2019-08-09 22:36:21:137,0.783,-0.1291,9.7369,0.7844,-0.6752,9.7519,0.0142,-0.0004,0.0002
640,46.428593,-0.506668,110.09,0.0,4.288,44.6,Dec-18,64011,2019-08-09 22:36:21:238,0.7256,-0.0256,9.8135,0.7848,-0.6743,9.7519,-0.0117,-0.0013,-0.0018
641,46.428593,-0.506668,110.09,0.0,4.288,44.6,Dec-18,64112,2019-08-09 22:36:21:339,0.7884,-1.1574,9.6597,0.7844,-0.6707,9.7522,0.0008,-0.001,-0.0005
642,46.428593,-0.506668,110.09,0.0,4.288,44.6,Dec-18,64210,2019-08-09 22:36:21:437,0.7842,-0.2147,9.7501,0.7839,-0.6719,9.7522,0.0126,0.0001,0.0043
643,46.428593,-0.506668,110.09,0.0,4.288,44.6,Dec-18,64311,2019-08-09 22:36:21:538,0.7405,0.005,9.7692,0.7832,-0.6761,9.7519,-0.0095,-0.0007,-0.0004
644,46.428593,-0.506668,110.09,0.0,4.288,44.6,Dec-18,64411,2019-08-09 22:36:21:638,0.7854,-1.2526,9.6405,0.783,-0.6794,9.7517,0.0093,-0.0005,-0.0006
645,46.428593,-0.506668,110.09,0.0,4.288,44.6,Dec-18,64510,2019-08-09 22:36:21:737,0.8082,-0.2841,9.7333,0.7825,-0.6733,9.7522,-0.01,-0.0013,-0.0021
646,46.428593,-0.506668,110.09,0.0,4.288,44.6,Dec-18,64611,2019-08-09 22:36:21:838,0.7327,0.0295,9.7734,0.7823,-0.6745,9.7521,0.0109,0.0002,0.0025
647,46.428593,-0.506668,110.09,0.0,4.288,44.6,Dec-18,64710,2019-08-09 22:36:21:937,0.7717,-1.3855,9.628,0.7826,-0.678,9.7518,0.0016,0.0011,0.0023
648,46.428593,-0.506668,110.09,0.0,4.288,44.6,Dec-18,64810,2019-08-09 22:36:22:037,0.8339,-0.5116,9.6998,0.7825,-0.6721,9.7523,0.0017,-0.0008,-0.0007
649,46.428593,-0.506668,110.09,0.0,4.288,44.6,Dec-18,64910,2019-08-09 22:36:22:137,0.7238,0.0074,9.7764,0.7828,-0.6741,9.7521,-0.0043,-0.0011,-0.0029
650,46.428593,-0.506668,110.09,0.0,4.288,44.6,Dec-18,65010,2019-08-09 22:36:22:237,0.8118,-1.4262,9.6429,0.7826,-0.6784,9.7518,-0.0122,-0.0013,-0.0003
651,46.428593,-0.506668,110.09,0.0,4.288,44.6,Dec-18,65110,2019-08-09 22:36:22:337,0.8094,-0.6732,9.6878,0.7823,-0.6711,9.7523,0.0058,0.0007,0.0009
652,46.428593,-0.506668,110.09,0.0,4.288,44.6,Dec-18,65211,2019-08-09 22:36:22:438,0.7405,0.0098,9.7722,0.7822,-0.6754,9.752,-0.0106,0.0001,0.0005
653,46.428593,-0.506668,110.09,0.0,4.288,44.6,Dec-18,65311,2019-08-09 22:36:22:538,0.795,-1.419,9.6375,0.7833,-0.6786,9.7517,0.0132,0.0008,0.0005
654,46.428593,-0.506668,110.09,0.0,4.288,44.6,Dec-18,65412,2019-08-09 22:36:22:639,0.8046,-0.754,9.6681,0.7835,-0.6788,9.7517,0.0014,-0.0009,-0.0001
655,46.428593,-0.506668,110.09,0.0,4.288,44.6,Dec-18,65511,2019-08-09 22:36:22:738,0.7543,-0.0334,9.7937,0.7837,-0.6767,9.7518,0.0028,0.0001,-0.0005
656,46.428593,-0.506668,110.09,0.0,4.288,44.6,13 / 19,65610,2019-08-09 22:36:22:837,0.7962,-1.4645,9.6399,0.783,-0.6748,9.752,0.011,0.0004,0.0028
657,46.428593,-0.506668,110.09,0.0,4.288,44.6,13 / 19,65710,2019-08-09 22:36:22:937,0.8309,-0.8241,9.6477,0.782,-0.6724,9.7523,-0.0104,-0.0001,0.0007
658,46.428593,-0.506668,110.09,0.0,4.288,44.6,13 / 19,65810,2019-08-09 22:36:23:037,0.7549,-0.1806,9.7943,0.7822,-0.6739,9.7522,0.0099,0.0,-0.0002
659,46.428593,-0.506668,110.09,0.0,4.288,44.6,13 / 19,65910,2019-08-09 22:36:23:137,0.8183,-1.5238,9.6597,0.782,-0.6757,9.752,-0.0136,-0.0013,-0.0003
660,46.428593,-0.506668,110.09,0.0,4.288,44.6,13 / 19,66011,2019-08-09 22:36:23:238,0.801,-0.9456,9.6292,0.7822,-0.6799,9.7517,-0.0062,-0.0002,-0.0011
661,46.428593,-0.506668,110.09,0.0,4.288,44.6,13 / 19,66110,2019-08-09 22:36:23:337,0.7411,-0.2477,9.765,0.7825,-0.6728,9.7522,0.0022,-0.0004,0.0024
662,46.428593,-0.506668,110.09,0.0,4.288,44.6,13 / 19,66211,2019-08-09 22:36:23:438,0.7998,-1.4172,9.6471,0.7819,-0.6763,9.752,-0.0122,-0.0001,0.0007
663,46.428593,-0.506668,110.09,0.0,4.288,44.6,13 / 19,66311,2019-08-09 22:36:23:538,0.8183,-0.9904,9.6088,0.7824,-0.6727,9.7522,0.0143,-0.0004,0.0014
664,46.428593,-0.506668,110.09,0.0,4.288,44.6,13 / 19,66412,2019-08-09 22:36:23:639,0.7471,-0.3266,9.7632,0.7819,-0.6735,9.7522,-0.0121,-0.0004,-0.0013
665,46.428593,-0.506668,110.09,0.0,4.288,44.6,13 / 19,66512,2019-08-09 22:36:23:739,0.7794,-1.401,9.6453,0.7824,-0.6769,9.7519,0.0058,0.0003,-0.0002
666,46.428593,-0.506668,110.09,0.0,4.288,44.6,Dec-18,66610,2019-08-09 22:36:23:837,0.8285,-1.0706,9.6052,0.7818,-0.6796,9.7518,0.009,0.0001,0.0015
667,46.428593,-0.506668,110.09,0.0,4.288,44.6,Dec-18,66713,2019-08-09 22:36:23:940,0.7591,-0.45,9.7285,0.7817,-0.6799,9.7518,-0.0049,-0.0002,-0.0007
668,46.428593,-0.506668,110.09,0.0,4.288,44.6,Dec-18,66811,2019-08-09 22:36:24:038,0.7453,0.0678,9.7495,0.7821,-0.6763,9.752,-0.0006,-0.0005,0.0011
669,46.428593,-0.506668,110.09,0.0,4.288,44.6,Dec-18,66911,2019-08-09 22:36:24:138,0.8136,-1.2568,9.6178,0.7818,-0.6727,9.7523,-0.0115,-0.001,-0.0014
670,46.428593,-0.506668,110.09,0.0,4.288,44.6,Dec-18,67010,2019-08-09 22:36:24:237,0.7627,-0.5302,9.7387,0.7818,-0.6804,9.7517,0.0131,0.0008,0.0023
671,46.428593,-0.506668,110.09,0.0,4.288,44.6,Dec-18,67110,2019-08-09 22:36:24:337,0.798,-1.2041,9.6525,0.7815,-0.6742,9.7522,-0.0057,-0.0001,0.0005
672,46.428593,-0.506668,110.09,0.0,4.288,44.6,Dec-18,67211,2019-08-09 22:36:24:438,0.8327,-1.3394,9.607,0.7811,-0.672,9.7524,0.0109,-0.0005,0.0
673,46.428593,-0.506668,110.09,0.0,4.288,44.6,Dec-18,67312,2019-08-09 22:36:24:539,0.7711,-0.7462,9.6998,0.7816,-0.6798,9.7518,0.0067,0.0004,0.001
674,46.428593,-0.506668,110.09,0.0,4.288,44.6,Dec-18,67411,2019-08-09 22:36:24:638,0.7645,0.0056,9.7524,0.7818,-0.6749,9.7521,-0.0054,-0.0012,-0.0013
675,46.428593,-0.506668,110.09,0.0,4.288,44.6,Dec-18,67510,2019-08-09 22:36:24:737,0.8154,-1.3149,9.6148,0.7818,-0.6745,9.7521,0.0117,0.0009,0.0018
676,46.428593,-0.506668,110.09,0.0,4.288,44.6,Dec-18,67610,2019-08-09 22:36:24:837,0.789,-0.8689,9.6704,0.7819,-0.6799,9.7518,-0.0119,-0.0004,0.0002
677,46.428593,-0.506668,110.09,0.0,4.288,44.6,Dec-18,67710,2019-08-09 22:36:24:937,0.7956,-0.9276,9.6854,0.7818,-0.6785,9.7519,0.003,-0.0008,-0.0009
678,46.428593,-0.506668,110.09,0.0,4.288,44.6,Dec-18,67810,2019-08-09 22:36:25:037,0.8046,-1.3454,9.5968,0.7813,-0.6734,9.7523,-0.0056,-0.0004,-0.0013
679,46.428593,-0.506668,110.09,0.0,4.288,44.6,Dec-18,67910,2019-08-09 22:36:25:137,0.783,-0.9701,9.6836,0.7819,-0.6708,9.7524,0.0073,0.0005,-0.0006
680,46.428593,-0.506668,110.09,0.0,4.288,44.6,Dec-18,68011,2019-08-09 22:36:25:238,0.8016,-0.1112,9.7483,0.7817,-0.6763,9.752,0.0088,-0.0002,0.0021
681,46.428593,-0.506668,110.09,0.0,4.288,44.6,Dec-18,68110,2019-08-09 22:36:25:337,0.7866,0.0804,9.7848,0.7825,-0.6769,9.7519,-0.0045,0.0001,0.0
682,46.428593,-0.506668,110.09,0.0,4.288,44.6,Dec-18,68210,2019-08-09 22:36:25:437,0.8351,-1.1347,9.6064,0.7831,-0.6717,9.7522,0.0018,-0.0002,-0.0012
683,46.428593,-0.506668,110.09,0.0,4.288,44.6,Dec-18,68310,2019-08-09 22:36:25:537,0.7334,-0.523,9.7255,0.7834,-0.6794,9.7517,-0.0131,-0.0003,-0.0012
684,46.428593,-0.506668,110.09,0.0,4.288,44.6,Dec-18,68411,2019-08-09 22:36:25:638,0.7788,0.0744,9.7884,0.7839,-0.6781,9.7517,0.0118,0.0008,0.0023
685,46.428593,-0.506668,110.09,0.0,4.288,44.6,Dec-18,68510,2019-08-09 22:36:25:737,0.8483,-1.2849,9.5938,0.783,-0.6712,9.7523,-0.0042,-0.0004,-0.0004
686,46.428593,-0.506668,110.09,0.0,4.288,44.6,13 / 19,68610,2019-08-09 22:36:25:837,0.7483,-0.6786,9.6992,0.7835,-0.6772,9.7518,0.0084,0.0005,-0.0007
687,46.428593,-0.506668,110.09,0.0,4.288,44.6,13 / 19,68710,2019-08-09 22:36:25:937,0.7717,0.0229,9.7985,0.7838,-0.6751,9.7519,0.0092,0.0002,0.0003
688,46.428593,-0.506668,110.09,0.0,4.288,44.6,13 / 19,68811,2019-08-09 22:36:26:038,0.7519,-0.2279,9.7501,0.7836,-0.671,9.7522,-0.0064,-0.0004,-0.0022
689,46.428593,-0.506668,110.09,0.0,4.288,44.6,13 / 19,68911,2019-08-09 22:36:26:138,0.7914,-0.8223,9.6854,0.7839,-0.6717,9.7522,0.0116,0.0005,0.0003
690,46.428593,-0.506668,110.09,0.0,4.288,44.6,13 / 19,69010,2019-08-09 22:36:26:237,0.7962,-0.0148,9.777,0.7837,-0.6757,9.7519,-0.0115,-0.0002,0.002
691,46.428593,-0.506668,110.09,0.0,4.288,44.6,13 / 19,69110,2019-08-09 22:36:26:337,0.8315,-1.2867,9.6028,0.7842,-0.678,9.7517,0.0128,0.0005,0.0017
692,46.428593,-0.506668,110.09,0.0,4.288,44.6,13 / 19,69210,2019-08-09 22:36:26:437,0.7507,-0.9102,9.6884,0.7835,-0.6701,9.7523,-0.0059,-0.0008,-0.0013
693,46.428593,-0.506668,110.09,0.0,4.288,44.6,13 / 19,69311,2019-08-09 22:36:26:538,0.7938,-0.0567,9.7698,0.7832,-0.6752,9.752,-0.0104,-0.0006,-0.0018
694,46.428593,-0.506668,110.09,0.0,4.288,44.6,13 / 19,69411,2019-08-09 22:36:26:638,0.7681,-0.0962,9.7608,0.7836,-0.6757,9.7519,0.0087,0.0006,0.0028
695,46.428593,-0.506668,110.09,0.0,4.288,44.6,13 / 19,69510,2019-08-09 22:36:26:737,0.777,-0.9904,9.6698,0.784,-0.6704,9.7522,-0.0099,-0.0007,0.0008
696,46.428593,-0.506668,110.09,0.0,4.288,44.6,14 / 19,69611,2019-08-09 22:36:26:838,0.7609,-0.1519,9.7572,0.7839,-0.6771,9.7518,0.0128,0.0004,0.0012
697,46.428593,-0.506668,110.09,0.0,4.288,44.6,14 / 19,69712,2019-08-09 22:36:26:939,0.7483,-0.0585,9.7926,0.7836,-0.6761,9.7519,-0.0107,-0.0003,-0.002
698,46.428593,-0.506668,110.09,0.0,4.288,44.6,14 / 19,69811,2019-08-09 22:36:27:038,0.798,-1.1754,9.6842,0.7841,-0.6803,9.7516,-0.0011,-0.0004,-0.0019
699,46.428593,-0.506668,110.09,0.0,4.288,44.6,14 / 19,69911,2019-08-09 22:36:27:138,0.801,-0.2177,9.7315,0.7842,-0.6765,9.7518,-0.0051,0.0002,0.0018
700,46.428593,-0.506668,110.09,0.0,4.288,44.6,14 / 19,70011,2019-08-09 22:36:27:238,0.7196,0.0074,9.795,0.7839,-0.6723,9.7521,-0.01,-0.0004,0.0016
701,46.428593,-0.506668,110.09,0.0,4.288,44.6,14 / 19,70110,2019-08-09 22:36:27:337,0.7746,-1.1975,9.6698,0.7838,-0.6779,9.7517,0.0075,-0.0002,-0.0002
702,46.428593,-0.506668,110.09,0.0,4.288,44.6,14 / 19,70211,2019-08-09 22:36:27:438,0.804,-0.2488,9.7177,0.7836,-0.6708,9.7522,-0.0096,-0.0007,-0.0023
703,46.428593,-0.506668,110.09,0.0,4.288,44.6,14 / 19,70310,2019-08-09 22:36:27:537,0.7621,0.0433,9.7961,0.7848,-0.6719,9.7521,0.012,0.0011,0.0015
704,46.428593,-0.506668,110.09,0.0,4.288,44.6,14 / 19,70412,2019-08-09 22:36:27:639,0.801,-1.3101,9.6621,0.7849,-0.6773,9.7517,0.0018,0.0004,0.0023
705,46.428593,-0.506668,110.09,0.0,4.288,44.6,14 / 19,70511,2019-08-09 22:36:27:738,0.798,-0.3721,9.7028,0.784,-0.6707,9.7522,0.0003,-0.0005,-0.0004
706,46.428593,-0.506668,110.09,0.0,4.288,44.6,14 / 19,70613,2019-08-09 22:36:27:840,0.7333,0.0109,9.7955,0.7838,-0.6732,9.7521,-0.0044,-0.0008,-0.0033
707,46.428593,-0.506668,110.09,0.0,4.288,44.6,14 / 19,70711,2019-08-09 22:36:27:938,0.8189,-1.3556,9.6435,0.7846,-0.676,9.7518,-0.0117,-0.001,-0.0003
708,46.428593,-0.506668,110.09,0.0,4.288,44.6,14 / 19,70810,2019-08-09 22:36:28:037,0.813,-0.6229,9.6896,0.7852,-0.669,9.7522,0.0073,0.0011,0.0001
709,46.428593,-0.506668,110.09,0.0,4.288,44.6,14 / 19,70911,2019-08-09 22:36:28:138,0.7316,-0.0226,9.7919,0.7858,-0.674,9.7519,-0.0091,-0.0001,0.0013
710,46.428593,-0.506668,110.09,0.0,4.288,44.6,14 / 19,71012,2019-08-09 22:36:28:239,0.8034,-1.4094,9.6375,0.7854,-0.6711,9.7521,-0.0058,-0.0004,-0.0004
711,46.428593,-0.506668,110.09,0.0,4.288,44.6,14 / 19,71110,2019-08-09 22:36:28:337,0.8064,-0.7337,9.6746,0.7849,-0.6702,9.7522,0.0027,-0.0001,-0.0018
712,46.428593,-0.506668,110.09,0.0,4.288,44.6,14 / 19,71210,2019-08-09 22:36:28:437,0.7495,-0.0687,9.8003,0.7849,-0.6727,9.752,0.001,0.0001,-0.0013
713,46.428593,-0.506668,110.09,0.0,4.288,44.6,14 / 19,71310,2019-08-09 22:36:28:537,0.801,-1.4028,9.6274,0.7854,-0.6766,9.7517,0.0113,0.001,0.0023
714,46.428593,-0.506668,110.09,0.0,4.288,44.6,14 / 19,71410,2019-08-09 22:36:28:637,0.807,-0.8121,9.6555,0.7853,-0.6772,9.7517,-0.0097,-0.0004,0.001
715,46.428593,-0.506668,110.09,0.0,4.288,44.6,14 / 19,71511,2019-08-09 22:36:28:738,0.7477,-0.1285,9.7824,0.7852,-0.6742,9.7519,0.0078,0.0002,0.0009
716,46.428593,-0.506668,110.09,0.0,4.288,44.6,14 / 19,71610,2019-08-09 22:36:28:837,0.8088,-1.4016,9.6142,0.7856,-0.6723,9.752,-0.01,-0.0008,-0.0012
717,46.428593,-0.506668,110.09,0.0,4.288,44.6,14 / 19,71710,2019-08-09 22:36:28:937,0.8076,-0.8827,9.6465,0.7855,-0.6799,9.7515,0.0114,0.0002,0.0018
718,46.428593,-0.506668,110.09,0.0,4.288,44.6,14 / 19,71810,2019-08-09 22:36:29:037,0.7507,-0.1453,9.7638,0.785,-0.6732,9.752,0.0027,0.0004,0.0018
719,46.428593,-0.506668,110.09,0.0,4.288,44.6,14 / 19,71910,2019-08-09 22:36:29:137,0.8141,-1.3771,9.631,0.7844,-0.6712,9.7522,0.0014,0.0002,-0.0007
720,46.428593,-0.506668,110.09,0.0,4.288,44.6,14 / 19,72011,2019-08-09 22:36:29:238,0.8219,-1.0317,9.6375,0.785,-0.6783,9.7516,0.0135,0.0002,0.0009
721,46.428593,-0.506668,110.09,0.0,4.288,44.6,14 / 19,72111,2019-08-09 22:36:29:338,0.7543,-0.353,9.7513,0.7847,-0.6749,9.7519,-0.0113,-0.0008,-0.0021
722,46.428593,-0.506668,110.09,0.0,4.288,44.6,14 / 19,72211,2019-08-09 22:36:29:438,0.792,-1.4621,9.6513,0.7847,-0.6764,9.7518,0.0069,0.0001,-0.0001
723,46.428593,-0.506668,110.09,0.0,4.288,44.6,14 / 19,72311,2019-08-09 22:36:29:538,0.8082,-1.1886,9.6315,0.7848,-0.6805,9.7515,-0.0094,0.0,0.0013
724,46.428593,-0.506668,110.09,0.0,4.288,44.6,14 / 19,72411,2019-08-09 22:36:29:638,0.777,-0.4954,9.7195,0.7851,-0.6797,9.7515,-0.0056,-0.0001,-0.0009
725,46.428593,-0.506668,110.09,0.0,4.288,44.6,14 / 19,72511,2019-08-09 22:36:29:738,0.8046,-1.2682,9.6411,0.785,-0.6755,9.7518,0.013,0.0001,0.0005
726,46.428593,-0.506668,110.09,0.0,4.288,44.6,13 / 18,72610,2019-08-09 22:36:29:837,0.8165,-1.2352,9.6208,0.7844,-0.6734,9.752,-0.0111,-0.0012,-0.0013
727,46.428593,-0.506668,110.09,0.0,4.288,44.6,13 / 18,72714,2019-08-09 22:36:29:941,0.7735,-0.6056,9.7028,0.7846,-0.6812,9.7514,0.0119,0.001,0.0031
728,46.428593,-0.506668,110.09,0.0,4.288,44.6,13 / 18,72810,2019-08-09 22:36:30:037,0.7687,0.0247,9.7704,0.7853,-0.6767,9.7517,-0.0094,-0.0003,-0.0006
729,46.428593,-0.506668,110.09,0.0,4.288,44.6,13 / 18,72911,2019-08-09 22:36:30:138,0.8189,-1.2897,9.5998,0.7853,-0.6755,9.7518,0.0094,-0.0005,0.0002
730,46.428593,-0.506668,110.09,0.0,4.288,44.6,13 / 18,73010,2019-08-09 22:36:30:237,0.7699,-0.7606,9.6938,0.7853,-0.6816,9.7514,-0.0098,-0.001,-0.0031
731,46.428593,-0.506668,110.09,0.0,4.288,44.6,13 / 18,73110,2019-08-09 22:36:30:337,0.795,0.0253,9.7548,0.7845,-0.6756,9.7518,-0.0075,-0.0009,-0.0015
732,46.428593,-0.506668,110.09,0.0,4.288,44.6,13 / 18,73211,2019-08-09 22:36:30:438,0.7238,-0.1573,9.7704,0.7846,-0.6749,9.7519,0.001,0.0005,0.0027
733,46.428593,-0.506668,110.09,0.0,4.288,44.6,13 / 18,73311,2019-08-09 22:36:30:538,0.7705,-0.3973,9.7596,0.7843,-0.6738,9.752,-0.0115,-0.0003,0.0004
734,46.428593,-0.506668,110.09,0.0,4.288,44.6,13 / 18,73411,2019-08-09 22:36:30:638,0.8213,-1.1568,9.6052,0.7854,-0.6752,9.7518,0.0133,0.0005,-0.0009
735,46.428593,-0.506668,110.09,0.0,4.288,44.6,13 / 18,73511,2019-08-09 22:36:30:738,0.8034,-1.3687,9.6573,0.7853,-0.6791,9.7515,-0.0129,-0.0013,-0.0011
736,46.428593,-0.506668,110.09,0.0,4.288,44.6,14 / 19,73611,2019-08-09 22:36:30:838,0.7878,-0.2961,9.7405,0.7861,-0.6729,9.7519,0.0073,-0.0002,0.0024
737,46.428593,-0.506668,110.09,0.0,4.288,44.6,14 / 19,73711,2019-08-09 22:36:30:938,0.7651,-1.0778,9.6441,0.7862,-0.6801,9.7514,0.008,0.0009,0.0033
738,46.428593,-0.506668,110.09,0.0,4.288,44.6,14 / 19,73810,2019-08-09 22:36:31:037,0.7932,-1.4005,9.6405,0.7858,-0.68,9.7514,-0.0044,0.0004,0.0005
739,46.428593,-0.506668,110.09,0.0,4.288,44.6,14 / 19,73910,2019-08-09 22:36:31:137,0.7699,-0.1914,9.7405,0.7857,-0.6713,9.752,0.0096,0.001,-0.0006
740,46.428593,-0.506668,110.09,0.0,4.288,44.6,14 / 19,74011,2019-08-09 22:36:31:238,0.8333,-1.0533,9.6746,0.787,-0.6775,9.7515,-0.015,-0.0015,0.0005
741,46.428593,-0.506668,110.09,0.0,4.288,44.6,14 / 19,74111,2019-08-09 22:36:31:338,0.7992,-1.5489,9.6333,0.7873,-0.6763,9.7516,0.0129,0.0005,0.0028
742,46.428593,-0.506668,110.09,0.0,4.288,44.6,14 / 19,74211,2019-08-09 22:36:31:438,0.7268,-0.1291,9.7632,0.7865,-0.672,9.7519,-0.004,-0.0003,0.002
743,46.428593,-0.506668,110.09,0.0,4.288,44.6,14 / 19,74312,2019-08-09 22:36:31:539,0.8076,-0.8803,9.6926,0.7864,-0.6802,9.7514,0.0071,0.0006,-0.0018
744,46.428593,-0.506668,110.09,0.0,4.288,44.6,14 / 19,74410,2019-08-09 22:36:31:637,0.8147,-1.4417,9.6172,0.7866,-0.6776,9.7515,0.009,-0.0008,0.0004
745,46.428593,-0.506668,110.09,0.0,4.288,44.6,14 / 19,74511,2019-08-09 22:36:31:738,0.7693,-0.0429,9.7584,0.7867,-0.6795,9.7514,-0.0117,-0.001,-0.001
746,46.428593,-0.506668,110.09,0.0,4.288,44.6,14 / 19,74610,2019-08-09 22:36:31:837,0.7651,-0.7678,9.7112,0.7856,-0.6792,9.7515,0.0116,0.0005,0.0018
747,46.428593,-0.506668,110.09,0.0,4.288,44.6,14 / 19,74711,2019-08-09 22:36:31:938,0.8136,-1.4519,9.6411,0.7855,-0.6754,9.7518,0.0018,0.0005,0.0007
748,46.428593,-0.506668,110.09,0.0,4.288,44.6,14 / 19,74810,2019-08-09 22:36:32:037,0.7699,0.0205,9.7776,0.7862,-0.6725,9.7519,0.0131,-0.0004,0.0009
749,46.428593,-0.506668,110.09,0.0,4.288,44.6,14 / 19,74911,2019-08-09 22:36:32:138,0.7842,-0.7067,9.683,0.7863,-0.6725,9.7519,-0.0035,-0.0009,0.0
750,46.428593,-0.506668,110.09,0.0,4.288,44.6,14 / 19,75010,2019-08-09 22:36:32:237,0.8082,-1.3352,9.6351,0.7863,-0.675,9.7517,0.0047,0.0,0.0005
751,46.428593,-0.506668,110.09,0.0,4.288,44.6,14 / 19,75112,2019-08-09 22:36:32:339,0.7417,0.054,9.7686,0.786,-0.6788,9.7515,0.0105,0.0004,0.0024
752,46.428593,-0.506668,110.09,0.0,4.288,44.6,14 / 19,75211,2019-08-09 22:36:32:438,0.7764,-0.5613,9.7046,0.7852,-0.6731,9.752,-0.0073,0.0002,-0.0018
753,46.428593,-0.506668,110.09,0.0,4.288,44.6,14 / 19,75311,2019-08-09 22:36:32:538,0.8243,-1.3406,9.6399,0.7855,-0.6768,9.7517,0.0125,0.0,0.0005
754,46.428593,-0.506668,110.09,0.0,4.288,44.6,14 / 19,75411,2019-08-09 22:36:32:638,0.7681,0.0594,9.771,0.7861,-0.6795,9.7514,-0.0109,-0.0007,-0.0013
755,46.428593,-0.506668,110.09,0.0,4.288,44.6,14 / 19,75510,2019-08-09 22:36:32:737,0.7459,-0.4739,9.7357,0.7861,-0.6726,9.7519,-0.0026,-0.001,-0.0008
756,46.428593,-0.506668,110.09,0.0,4.288,44.6,14 / 19,75610,2019-08-09 22:36:32:837,0.7878,-1.3352,9.6471,0.786,-0.6768,9.7516,-0.0025,0.0016,0.0006
757,46.428593,-0.506668,110.09,0.0,4.288,44.6,14 / 19,75710,2019-08-09 22:36:32:937,0.7854,0.0846,9.7746,0.7864,-0.6775,9.7516,-0.011,0.0005,0.0
758,46.428593,-0.506668,110.09,0.0,4.288,44.6,14 / 19,75810,2019-08-09 22:36:33:037,0.7531,-0.3608,9.7513,0.7873,-0.6806,9.7513,0.0088,-0.0004,0.001
759,46.428593,-0.506668,110.09,0.0,4.288,44.6,14 / 19,75911,2019-08-09 22:36:33:138,0.7872,-1.2239,9.6687,0.7866,-0.6737,9.7518,-0.0095,-0.0009,-0.0008
760,46.428593,-0.506668,110.09,0.0,4.288,44.6,14 / 19,76011,2019-08-09 22:36:33:238,0.7603,0.0576,9.7848,0.7859,-0.6735,9.7519,-0.0095,-0.0009,-0.0008
761,46.428593,-0.506668,110.09,0.0,4.288,44.6,14 / 19,76111,2019-08-09 22:36:33:338,0.7549,-0.2878,9.7596,0.7863,-0.6786,9.7515,0.0035,0.0006,0.0017
762,46.428593,-0.506668,110.09,0.0,4.288,44.6,14 / 19,76211,2019-08-09 22:36:33:438,0.8237,-1.1401,9.6776,0.7864,-0.6714,9.752,0.0009,0.0002,0.0
763,46.428593,-0.506668,110.09,0.0,4.288,44.6,14 / 19,76311,2019-08-09 22:36:33:538,0.7914,0.0043,9.7638,0.7872,-0.674,9.7517,-0.0031,-0.001,-0.0019
764,46.428593,-0.506668,110.09,0.0,4.288,44.6,14 / 19,76410,2019-08-09 22:36:33:637,0.7262,-0.18,9.7734,0.7871,-0.679,9.7514,-0.0132,-0.0004,-0.001
765,46.428593,-0.506668,110.09,0.0,4.288,44.6,14 / 19,76511,2019-08-09 22:36:33:738,0.8171,-1.0168,9.7028,0.7869,-0.6731,9.7518,0.0095,0.0001,0.0015
766,46.428593,-0.506668,110.09,0.0,4.288,44.6,13 / 18,76610,2019-08-09 22:36:33:837,0.7872,-0.0483,9.768,0.7864,-0.6765,9.7516,-0.0089,-0.0004,0.0009
767,46.428593,-0.506668,110.09,0.0,4.288,44.6,13 / 18,76710,2019-08-09 22:36:33:937,0.7339,-0.0812,9.7854,0.787,-0.6786,9.7514,0.0106,0.0013,0.0016
768,46.428593,-0.506668,110.09,0.0,4.288,44.6,13 / 18,76811,2019-08-09 22:36:34:038,0.7848,-0.9102,9.7249,0.7873,-0.679,9.7514,0.0048,0.0011,-0.0005
769,46.428593,-0.506668,110.09,0.0,4.288,44.6,13 / 18,76910,2019-08-09 22:36:34:137,0.8644,-1.4358,9.607,0.7883,-0.6751,9.7516,-0.0011,-0.0004,-0.0022
770,46.428593,-0.506668,110.09,0.0,4.288,44.6,13 / 18,77012,2019-08-09 22:36:34:239,0.7333,-0.195,9.759,0.7893,-0.6721,9.7517,0.0086,0.0025,0.0045
771,46.428593,-0.506668,110.09,0.0,4.288,44.6,13 / 18,77112,2019-08-09 22:36:34:339,0.7746,-0.8175,9.7195,0.7901,-0.6794,9.7511,-0.0061,-0.0004,0.0024
772,46.428593,-0.506668,110.09,0.0,4.288,44.6,13 / 18,77210,2019-08-09 22:36:34:437,0.786,-1.3508,9.5849,0.7896,-0.6734,9.7516,0.0087,-0.0007,0.0007
773,46.428593,-0.506668,110.09,0.0,4.288,44.6,13 / 18,77312,2019-08-09 22:36:34:539,0.6968,-0.1172,9.7441,0.7876,-0.6712,9.7519,-0.0046,-0.0004,-0.0032
774,46.428593,-0.506668,110.09,0.0,4.288,44.6,13 / 18,77412,2019-08-09 22:36:34:639,0.78,-0.6229,9.7177,0.7878,-0.68,9.7513,0.0094,0.0014,-0.0002
775,46.428593,-0.506668,110.09,0.0,4.288,44.6,13 / 18,77510,2019-08-09 22:36:34:737,0.8219,-1.3035,9.5777,0.7896,-0.6736,9.7516,0.0028,-0.0001,0.0031
776,46.428593,-0.506668,110.09,0.0,4.288,44.6,14 / 19,77610,2019-08-09 22:36:34:837,0.78,0.0127,9.7902,0.7899,-0.6746,9.7515,-0.0099,-0.0002,0.0012
777,46.428593,-0.506668,110.09,0.0,4.288,44.6,14 / 19,77711,2019-08-09 22:36:34:938,0.7735,-0.4577,9.7542,0.7899,-0.6819,9.751,0.014,-0.0009,0.0003
778,46.428593,-0.506668,110.09,0.0,4.288,44.6,14 / 19,77811,2019-08-09 22:36:35:038,0.7992,-1.173,9.6166,0.7887,-0.6734,9.7517,-0.0125,-0.001,-0.002
779,46.428593,-0.506668,110.09,0.0,4.288,44.6,14 / 19,77911,2019-08-09 22:36:35:138,0.7112,0.0187,9.8069,0.7874,-0.6732,9.7518,0.0096,0.0015,0.0026
780,46.428593,-0.506668,110.09,0.0,4.288,44.6,14 / 19,78011,2019-08-09 22:36:35:238,0.8064,-0.3554,9.7644,0.7878,-0.6728,9.7518,-0.0092,0.0008,-0.0013
781,46.428593,-0.506668,110.09,0.0,4.288,44.6,14 / 19,78110,2019-08-09 22:36:35:337,0.8213,-1.1467,9.6489,0.789,-0.6752,9.7515,0.0137,-0.0001,0.0014
782,46.428593,-0.506668,110.09,0.0,4.288,44.6,14 / 19,78210,2019-08-09 22:36:35:437,0.7262,-0.0268,9.8183,0.7893,-0.6786,9.7513,0.0026,0.0001,0.0008
783,46.428593,-0.506668,110.09,0.0,4.288,44.6,14 / 19,78310,2019-08-09 22:36:35:537,0.7722,-0.2003,9.7477,0.7893,-0.6738,9.7516,-0.0005,-0.0012,-0.0036
784,46.428593,-0.506668,110.09,0.0,4.288,44.6,14 / 19,78411,2019-08-09 22:36:35:638,0.8201,-1.085,9.6399,0.7886,-0.6797,9.7512,0.0094,-0.0007,0.0023
785,46.428593,-0.506668,110.09,0.0,4.288,44.6,14 / 19,78510,2019-08-09 22:36:35:737,0.7268,-0.4236,9.7381,0.7881,-0.6758,9.7515,-0.0015,0.0003,0.0015
786,46.428593,-0.506668,110.09,0.0,4.288,44.6,13 / 18,78611,2019-08-09 22:36:35:838,0.7776,-0.7642,9.6651,0.787,-0.6751,9.7517,0.0015,0.0002,0.0004
787,46.428593,-0.506668,110.09,0.0,4.288,44.6,13 / 18,78711,2019-08-09 22:36:35:938,0.8321,-0.839,9.6459,0.7872,-0.6789,9.7514,-0.0031,-0.0008,-0.0014
788,46.428593,-0.506668,110.09,0.0,4.288,44.6,13 / 18,78810,2019-08-09 22:36:36:037,0.8052,-0.6056,9.6633,0.7875,-0.6818,9.7512,-0.0035,0.0013,-0.0004
789,46.428593,-0.506668,110.09,0.0,4.288,44.6,13 / 18,78911,2019-08-09 22:36:36:138,0.8124,-0.3464,9.6884,0.7884,-0.6822,9.7511,0.0008,0.0009,-0.0002
790,46.428593,-0.506668,110.09,0.0,4.288,44.6,13 / 18,79010,2019-08-09 22:36:36:237,0.7914,-0.3614,9.7183,0.7891,-0.6769,9.7514,-0.0031,-0.0011,0.0005
791,46.428593,-0.506668,110.09,0.0,4.288,44.6,13 / 18,79111,2019-08-09 22:36:36:338,0.777,-0.3033,9.7291,0.7885,-0.6705,9.7519,-0.0025,-0.0011,0.0005
792,46.428593,-0.506668,110.09,0.0,4.288,44.6,13 / 18,79210,2019-08-09 22:36:36:437,0.774,-0.2081,9.7333,0.7871,-0.6632,9.7525,-0.0028,0.0,-0.0005
793,46.428593,-0.506668,110.09,0.0,4.288,44.6,13 / 18,79310,2019-08-09 22:36:36:537,0.8249,-0.2877,9.7465,0.7876,-0.6597,9.7527,-0.0075,0.0011,-0.0007
794,46.428593,-0.506668,110.09,0.0,4.288,44.6,13 / 18,79411,2019-08-09 22:36:36:638,0.7651,-0.4715,9.6746,0.7899,-0.6466,9.7534,-0.0048,-0.0001,0.0015
795,46.428593,-0.506668,110.09,0.0,4.288,44.6,13 / 18,79511,2019-08-09 22:36:36:738,0.7848,-0.6397,9.7656,0.7895,-0.6303,9.7545,0.0082,0.0005,0.0001
796,46.428593,-0.506668,110.09,0.0,4.288,44.6,14 / 18,79610,2019-08-09 22:36:36:837,0.8052,-0.6684,9.8003,0.7893,-0.6044,9.7561,0.0028,0.0018,-0.0029
797,46.428593,-0.506668,110.09,0.0,4.288,44.6,14 / 18,79711,2019-08-09 22:36:36:938,0.8136,-0.7259,9.7782,0.7909,-0.5972,9.7564,0.0022,0.0006,-0.0014
798,46.428593,-0.506668,110.09,0.0,4.288,44.6,14 / 18,79811,2019-08-09 22:36:37:038,0.8088,-0.7648,9.5914,0.7971,-0.5881,9.7565,0.0073,-0.0009,-0.0004
799,46.428593,-0.506668,110.09,0.0,4.288,44.6,14 / 18,79910,2019-08-09 22:36:37:137,0.7681,-0.8091,9.6579,0.7968,-0.5931,9.7562,-0.0051,-0.0009,0.0
800,46.428593,-0.506668,110.09,0.0,4.288,44.6,14 / 18,80010,2019-08-09 22:36:37:237,0.7992,-0.6816,9.6238,0.7963,-0.5898,9.7565,-0.0111,0.0003,-0.0029
801,46.428593,-0.506668,110.09,0.0,4.288,44.6,14 / 18,80110,2019-08-09 22:36:37:337,0.8004,-0.6032,9.7854,0.7959,-0.5884,9.7566,0.0077,-0.0003,0.0007
802,46.428593,-0.506668,110.09,0.0,4.288,44.6,14 / 18,80211,2019-08-09 22:36:37:438,0.8513,-0.5367,9.8787,0.7964,-0.5849,9.7567,0.0091,0.001,-0.0044
803,46.428593,-0.506668,110.09,0.0,4.288,44.6,14 / 18,80310,2019-08-09 22:36:37:537,0.7435,-0.2075,9.7854,0.7979,-0.5726,9.7574,-0.0027,0.0033,-0.0037
804,46.428593,-0.506668,110.09,0.0,4.288,44.6,14 / 18,80411,2019-08-09 22:36:37:638,0.8052,-0.4948,9.5621,0.8004,-0.5603,9.7579,0.005,0.0034,-0.0038
805,46.428593,-0.506668,110.09,0.0,4.288,44.6,14 / 18,80510,2019-08-09 22:36:37:737,0.8626,-0.4751,9.6477,0.8026,-0.5581,9.7578,-0.0053,0.0003,-0.003
806,46.428593,-0.506668,110.09,0.0,4.288,44.6,13 / 17,80610,2019-08-09 22:36:37:837,0.8147,-0.3817,9.5819,0.8038,-0.5389,9.7588,-0.0086,0.0011,-0.0009
807,46.428593,-0.506668,110.09,0.0,4.288,44.6,13 / 17,80710,2019-08-09 22:36:37:937,0.8495,-0.1638,9.7937,0.8045,-0.5367,9.7588,0.006,0.0005,-0.0067
808,46.428593,-0.506668,110.09,0.0,4.288,44.6,13 / 17,80810,2019-08-09 22:36:38:037,0.8423,-0.1315,9.8261,0.7999,-0.5178,9.7603,0.0076,-0.0054,-0.0041
809,46.428593,-0.506668,110.09,0.0,4.288,44.6,13 / 17,80910,2019-08-09 22:36:38:137,0.789,-0.5056,9.9284,0.7984,-0.5072,9.7609,0.0097,-0.002,-0.0047
810,46.428593,-0.506668,110.09,0.0,4.288,44.6,13 / 17,81011,2019-08-09 22:36:38:238,0.7818,-0.66,9.5214,0.7904,-0.5036,9.7618,-0.0128,-0.0092,-0.0029
811,46.428593,-0.506668,110.09,0.0,4.288,44.6,13 / 17,81111,2019-08-09 22:36:38:338,0.5861,-0.3644,9.6459,0.7838,-0.5042,9.7623,0.0079,-0.0064,-0.0097
812,46.428593,-0.506668,110.09,0.0,4.288,44.6,13 / 17,81211,2019-08-09 22:36:38:438,0.7022,-0.3518,9.7022,0.7749,-0.5024,9.7631,-0.0033,-0.0065,0.0048
813,46.428593,-0.506668,110.09,0.0,4.288,44.6,13 / 17,81311,2019-08-09 22:36:38:538,0.6657,-0.3428,9.7698,0.7694,-0.4975,9.7638,-0.0144,-0.0047,0.0042
814,46.428593,-0.506668,110.09,0.0,4.288,44.6,13 / 17,81410,2019-08-09 22:36:38:637,0.5885,-0.356,9.8644,0.7598,-0.4853,9.7651,-0.0021,-0.0002,0.0091
815,46.428593,-0.506668,110.09,0.0,4.288,44.6,13 / 17,81510,2019-08-09 22:36:38:737,0.6825,-0.3925,9.8578,0.7577,-0.4763,9.7657,-0.0001,0.0038,0.0063
816,46.428593,-0.506668,110.09,0.0,4.288,44.6,14 / 18,81610,2019-08-09 22:36:38:837,0.7034,-0.0322,9.6363,0.7659,-0.4669,9.7655,0.0038,0.0111,-0.0019
817,46.428593,-0.506668,110.09,0.0,4.288,44.6,14 / 18,81710,2019-08-09 22:36:38:937,0.8872,0.0259,9.6016,0.7736,-0.4615,9.7652,0.0077,0.0064,0.0087
818,46.428593,-0.506668,110.09,0.0,4.288,44.6,14 / 18,81810,2019-08-09 22:36:39:037,0.8734,-0.7875,9.7919,0.7875,-0.4731,9.7635,0.0105,0.0098,0.011
819,46.428593,-0.506668,110.09,0.0,4.288,44.6,14 / 18,81910,2019-08-09 22:36:39:137,0.7651,-0.669,9.6824,0.7947,-0.4825,9.7625,0.0033,0.0106,0.0155
820,46.428593,-0.506668,110.09,0.0,4.288,44.6,14 / 18,82011,2019-08-09 22:36:39:238,0.8243,-0.666,9.4939,0.8062,-0.4955,9.7609,-0.0014,0.0055,0.0036
821,46.428593,-0.506668,110.09,0.0,4.288,44.6,14 / 18,82110,2019-08-09 22:36:39:337,0.9069,-0.5643,10.0074,0.8067,-0.5047,9.7604,0.0148,-0.0034,0.011
822,46.428593,-0.506668,110.09,0.0,4.288,44.6,14 / 18,82210,2019-08-09 22:36:39:437,0.8722,-0.4715,9.7237,0.8043,-0.4962,9.761,-0.0138,-0.0076,0.0186
823,46.428593,-0.506668,110.09,0.0,4.288,44.6,14 / 18,82311,2019-08-09 22:36:39:538,0.728,-0.5475,9.6381,0.8027,-0.4975,9.7611,-0.004,-0.0023,0.0236
824,46.428593,-0.506668,110.09,0.0,4.288,44.6,14 / 18,82410,2019-08-09 22:36:39:637,0.6304,-0.6936,9.6597,0.7935,-0.5011,9.7616,-0.0025,0.0005,0.0177
825,46.428593,-0.506668,110.09,0.0,4.288,44.6,14 / 18,82510,2019-08-09 22:36:39:737,0.6136,-0.5744,9.7465,0.7707,-0.5144,9.7628,-0.001,-0.0014,0.0204
826,46.428593,-0.506668,110.09,0.0,4.288,44.6,14 / 18,82611,2019-08-09 22:36:39:838,0.786,-0.945,9.765,0.7498,-0.5188,9.7642,0.0083,-0.0008,0.0269
827,46.428593,-0.506668,110.09,0.0,4.288,44.6,14 / 18,82713,2019-08-09 22:36:39:940,0.7555,-1.413,9.6262,0.7537,-0.5318,9.7632,0.0201,0.0047,0.0387
828,46.428593,-0.506668,110.09,0.0,4.288,44.6,14 / 18,82810,2019-08-09 22:36:40:037,0.8417,-0.9234,9.7106,0.7575,-0.5394,9.7625,0.001,0.0058,0.0368
829,46.428593,-0.506668,110.09,0.0,4.288,44.6,14 / 18,82911,2019-08-09 22:36:40:138,0.619,-0.9414,9.7153,0.76,-0.5541,9.7614,-0.0019,-0.0037,0.0577
830,46.428593,-0.506668,110.09,0.0,4.288,44.6,14 / 18,83011,2019-08-09 22:36:40:238,0.6741,-1.0066,9.6435,0.7562,-0.5594,9.7614,0.0118,-0.0054,0.0522
831,46.428593,-0.506668,110.09,0.0,4.288,44.6,14 / 18,83110,2019-08-09 22:36:40:337,0.5867,-0.7253,9.6184,0.7487,-0.5709,9.7614,0.0019,-0.0058,0.0665
832,46.428593,-0.506668,110.09,0.0,4.288,44.6,14 / 18,83210,2019-08-09 22:36:40:437,0.6765,-0.672,9.765,0.7372,-0.5937,9.7609,0.0082,-0.0031,0.0686
833,46.428593,-0.506668,110.09,0.0,4.288,44.6,14 / 18,83310,2019-08-09 22:36:40:537,0.5807,-0.8211,9.7674,0.7218,-0.6269,9.7599,0.0022,-0.0045,0.0926
834,46.428593,-0.506668,110.09,0.0,4.288,44.6,14 / 18,83410,2019-08-09 22:36:40:637,0.5831,-0.8462,9.5495,0.7118,-0.6336,9.7602,0.0128,-0.0013,0.1052
835,46.428593,-0.506668,110.09,0.0,4.288,44.6,14 / 18,83511,2019-08-09 22:36:40:738,0.6202,-0.3015,9.7279,0.7012,-0.645,9.7603,0.0011,-0.0021,0.0966
836,46.428593,-0.506668,110.09,0.0,4.288,44.6,14 / 19,83611,2019-08-09 22:36:40:838,0.8345,-0.0992,9.844,0.7079,-0.6415,9.76,0.0078,-0.0006,0.1068
837,46.428593,-0.506668,110.09,0.0,4.288,44.6,14 / 19,83710,2019-08-09 22:36:40:937,1.0212,-0.3781,9.7112,0.7193,-0.6329,9.7597,0.0015,-0.0061,0.1142
838,46.428593,-0.506668,110.09,0.0,4.288,44.6,14 / 19,83811,2019-08-09 22:36:41:038,0.9213,-0.244,9.6226,0.7223,-0.6242,9.7601,0.0046,-0.0131,0.1315
839,46.428593,-0.506668,110.09,0.0,4.288,44.6,14 / 19,83911,2019-08-09 22:36:41:138,0.6531,-0.6241,9.8662,0.7172,-0.6221,9.7606,0.0191,-0.0091,0.1454
840,46.428593,-0.506668,110.09,0.0,4.288,44.6,14 / 19,84012,2019-08-09 22:36:41:239,0.6867,-0.7863,9.9147,0.7127,-0.6147,9.7614,0.0179,-0.006,0.1695
841,46.428593,-0.506668,110.09,0.0,4.288,44.6,14 / 19,84112,2019-08-09 22:36:41:339,0.4371,-0.2518,9.5914,0.7139,-0.6164,9.7612,0.0073,-0.0067,0.1435
842,46.428593,-0.506668,110.09,0.0,4.288,44.6,14 / 19,84210,2019-08-09 22:36:41:437,0.8878,-0.4075,9.531,0.7183,-0.6114,9.7612,0.0241,-0.0151,0.1726
843,46.428593,-0.506668,110.09,0.0,4.288,44.6,14 / 19,84311,2019-08-09 22:36:41:538,0.7375,-0.4416,9.6866,0.7153,-0.6097,9.7615,0.0065,-0.0184,0.1854
844,46.428593,-0.506668,110.09,0.0,4.288,44.6,14 / 19,84410,2019-08-09 22:36:41:637,0.7363,-0.508,9.8063,0.7143,-0.6004,9.7622,0.0222,-0.0166,0.1944
845,46.428593,-0.506668,110.09,0.0,4.288,44.6,14 / 19,84512,2019-08-09 22:36:41:739,0.4359,-0.0711,9.6046,0.7049,-0.5548,9.7655,0.0114,-0.0038,0.2229
846,46.428593,-0.506668,110.09,0.0,4.288,44.6,15 / 19,84610,2019-08-09 22:36:41:837,0.6274,0.412,9.8345,0.7056,-0.544,9.7661,0.0296,-0.0035,0.2192
847,46.428593,-0.506668,110.09,0.0,4.288,44.6,15 / 19,84711,2019-08-09 22:36:41:938,0.7268,-0.2967,9.947,0.7087,-0.5177,9.7673,0.0254,-0.0208,0.2504
848,46.428593,-0.506668,110.09,0.0,4.288,44.6,15 / 19,84811,2019-08-09 22:36:42:038,1.0195,0.2881,9.8219,0.7068,-0.5021,9.7683,0.0157,-0.0266,0.2608
849,46.428593,-0.506668,110.09,0.0,4.288,44.6,15 / 19,84910,2019-08-09 22:36:42:137,0.7471,0.4072,9.5507,0.697,-0.4689,9.7706,0.0182,-0.0304,0.296
850,46.428593,-0.506668,110.09,0.0,4.288,44.6,15 / 19,85011,2019-08-09 22:36:42:238,0.6771,0.558,9.9733,0.6833,-0.4581,9.7721,0.0267,-0.0325,0.2972
851,46.428593,-0.506668,110.09,0.0,4.288,44.6,15 / 19,85110,2019-08-09 22:36:42:337,0.5598,0.6693,10.0014,0.6729,-0.4491,9.7732,0.0286,-0.0299,0.3191
852,46.428593,-0.506668,110.09,0.0,4.288,44.6,15 / 19,85211,2019-08-09 22:36:42:438,0.7351,0.4209,9.6573,0.659,-0.4155,9.7757,0.015,-0.0192,0.3406
853,46.428593,-0.506668,110.09,0.0,4.288,44.6,15 / 19,85310,2019-08-09 22:36:42:537,0.9835,0.4862,9.7022,0.6579,-0.3948,9.7766,0.0262,-0.0224,0.3581
854,46.428593,-0.506668,110.09,0.0,4.288,44.6,15 / 19,85410,2019-08-09 22:36:42:637,1.1691,0.7675,10.032,0.6545,-0.3657,9.7779,0.021,-0.0321,0.3763
855,46.428593,-0.506668,110.09,0.0,4.288,44.6,15 / 19,85511,2019-08-09 22:36:42:738,1.1098,0.8878,10.0715,0.652,-0.3446,9.7789,0.0108,-0.0343,0.4162
856,46.428593,-0.506668,110.09,0.0,4.288,44.6,14 / 18,85610,2019-08-09 22:36:42:837,0.9464,0.7507,9.8141,0.6362,-0.3057,9.7812,0.0105,-0.0346,0.4388
857,46.428593,-0.506668,110.09,0.0,4.288,44.6,14 / 18,85710,2019-08-09 22:36:42:937,1.0913,0.6759,9.4574,0.6272,-0.279,9.7826,0.0493,-0.0315,0.4413
858,46.428593,-0.506668,110.09,0.0,4.288,44.6,14 / 18,85810,2019-08-09 22:36:43:037,1.6581,0.798,9.9985,0.6228,-0.2699,9.7831,0.0357,-0.0357,0.4393
859,46.428593,-0.506668,110.09,0.0,4.288,44.6,14 / 18,85911,2019-08-09 22:36:43:138,2.116,-0.259,9.4646,0.6345,-0.2691,9.7824,0.0431,-0.0107,0.4285
860,46.428593,-0.506668,110.09,0.0,4.288,44.6,14 / 18,86012,2019-08-09 22:36:43:239,2.0831,-1.024,9.5178,0.681,-0.3104,9.778,0.0624,-0.0126,0.4427
861,46.428593,-0.506668,110.09,0.0,4.288,44.6,14 / 18,86112,2019-08-09 22:36:43:339,1.8772,-0.2883,9.7465,0.6959,-0.3253,9.7765,0.061,-0.0387,0.4363
862,46.428593,-0.506668,110.09,0.0,4.288,44.6,14 / 18,86210,2019-08-09 22:36:43:437,1.6354,-0.593,10.1164,0.6957,-0.3441,9.7759,0.0411,-0.042,0.4264
863,46.428593,-0.506668,110.09,0.0,4.288,44.6,14 / 18,86311,2019-08-09 22:36:43:538,1.791,-0.9761,9.5609,0.6923,-0.3474,9.776,0.0336,-0.0356,0.4344
864,46.428593,-0.506668,110.09,0.0,4.288,44.6,14 / 18,86410,2019-08-09 22:36:43:637,1.7449,-0.9845,9.4783,0.7063,-0.3593,9.7746,0.0381,-0.0347,0.3665
865,46.428593,-0.506668,110.09,0.0,4.288,44.6,14 / 18,86511,2019-08-09 22:36:43:738,2.1082,-1.4424,9.692,0.7169,-0.3965,9.7724,0.0268,-0.0403,0.3885
866,46.428593,-0.506668,110.09,0.0,4.288,44.6,14 / 18,86611,2019-08-09 22:36:43:838,1.7018,-0.833,9.3718,0.7241,-0.427,9.7706,0.0436,-0.0271,0.3781
867,46.428593,-0.506668,110.09,0.0,4.288,44.6,14 / 18,86711,2019-08-09 22:36:43:938,1.8365,-1.2831,9.4586,0.7283,-0.4427,9.7695,0.0366,-0.0288,0.3335
868,46.428593,-0.506668,110.09,0.0,4.288,44.6,14 / 18,86810,2019-08-09 22:36:44:037,2.0394,-1.2789,9.674,0.7474,-0.4953,9.7656,0.0273,-0.033,0.2895
869,46.428593,-0.506668,110.09,0.0,4.288,44.6,14 / 18,86910,2019-08-09 22:36:44:137,2.0531,-1.6375,9.6034,0.7613,-0.5091,9.7638,0.0128,-0.0196,0.2647
870,46.428593,-0.506668,110.09,0.0,4.288,44.6,14 / 18,87011,2019-08-09 22:36:44:238,1.8503,-1.9709,9.2485,0.7978,-0.5442,9.759,0.0129,-0.0233,0.2328
871,46.428593,-0.506668,110.09,0.0,4.288,44.6,14 / 18,87111,2019-08-09 22:36:44:338,1.4612,-1.413,9.6226,0.8032,-0.5832,9.7563,0.0085,-0.0278,0.1862
872,46.428593,-0.506668,110.09,0.0,4.288,44.6,14 / 18,87210,2019-08-09 22:36:44:437,1.3397,-2.0271,9.6016,0.8032,-0.6244,9.7537,0.015,-0.0235,0.1605
873,46.428593,-0.506668,110.09,0.0,4.288,44.6,14 / 18,87310,2019-08-09 22:36:44:537,1.3361,-1.6979,9.4861,0.8079,-0.6466,9.7519,0.015,-0.0204,0.1439
874,46.428593,-0.506668,110.09,0.0,4.288,44.6,14 / 18,87410,2019-08-09 22:36:44:637,0.7507,-0.9378,9.4795,0.7988,-0.6711,9.751,0.0085,-0.025,0.1338
875,46.428593,-0.506668,110.09,0.0,4.288,44.6,14 / 18,87510,2019-08-09 22:36:44:737,0.8393,-1.2646,9.9356,0.7898,-0.6849,9.7508,0.0238,-0.0225,0.1255
876,46.428593,-0.506668,110.09,0.0,4.288,44.6,13 / 16,87610,2019-08-09 22:36:44:837,0.8177,-0.7803,9.8476,0.7775,-0.6797,9.7521,0.0059,-0.0179,0.11
877,46.428593,-0.506668,110.09,0.0,4.288,44.6,13 / 16,87711,2019-08-09 22:36:44:938,0.7998,-1.2125,9.6884,0.7767,-0.6833,9.7519,0.0107,-0.003,0.093
878,46.428593,-0.506668,110.09,0.0,4.288,44.6,13 / 16,87810,2019-08-09 22:36:45:037,0.9189,-1.1024,9.4909,0.7788,-0.6993,9.7506,-0.0026,-0.0111,0.095
879,46.428593,-0.506668,110.09,0.0,4.288,44.6,13 / 16,87910,2019-08-09 22:36:45:137,0.7375,-0.9258,9.7016,0.7785,-0.7055,9.7502,0.0086,-0.0076,0.0849
880,46.428593,-0.506668,110.09,0.0,4.288,44.6,13 / 16,88011,2019-08-09 22:36:45:238,0.9758,-1.0653,9.7614,0.7856,-0.7262,9.7481,-0.003,0.0047,0.0561
881,46.428593,-0.506668,110.09,0.0,4.288,44.6,13 / 16,88112,2019-08-09 22:36:45:339,1.2092,-1.4005,9.4861,0.7938,-0.7496,9.7457,0.0389,0.003,0.0536
882,46.428593,-0.506668,110.09,0.0,4.288,44.6,13 / 16,88210,2019-08-09 22:36:45:437,0.9315,-1.8847,9.5645,0.8044,-0.8082,9.7401,0.0116,-0.0073,0.0444
883,46.428593,-0.506668,110.09,0.0,4.288,44.6,13 / 16,88311,2019-08-09 22:36:45:538,0.9123,-2.0517,9.5172,0.8011,-0.8282,9.7387,0.0109,-0.0097,0.0368
884,46.428593,-0.506668,110.09,0.0,4.288,44.6,13 / 16,88410,2019-08-09 22:36:45:637,0.8758,-2.1863,9.6112,0.7975,-0.8698,9.7354,0.0139,0.0002,0.0111
885,46.428593,-0.506668,110.09,0.0,4.288,44.6,13 / 16,88510,2019-08-09 22:36:45:737,0.886,-2.1612,9.5501,0.8016,-0.8981,9.7325,-0.0129,0.0016,-0.0027
886,46.428593,-0.506668,110.09,0.0,4.288,44.6,16 / 19,88610,2019-08-09 22:36:45:837,0.6861,-2.0678,9.5543,0.8028,-0.9204,9.7303,-0.0105,-0.0009,-0.0062
887,46.428593,-0.506668,110.09,0.0,4.288,44.6,16 / 19,88710,2019-08-09 22:36:45:937,0.7561,-2.0511,9.6124,0.7945,-1.0633,9.7164,0.0045,-0.0028,-0.0122
888,46.428593,-0.506668,110.09,0.0,4.288,44.6,16 / 19,88810,2019-08-09 22:36:46:037,0.7693,-2.2199,9.5651,0.7938,-1.1649,9.7048,-0.0015,-0.0022,-0.014
889,46.428593,-0.506668,110.09,0.0,4.288,44.6,16 / 19,88911,2019-08-09 22:36:46:138,0.5705,-2.3007,9.5867,0.7637,-1.3809,9.6789,0.0009,0.0011,-0.02
890,46.428593,-0.506668,110.09,0.0,4.288,44.6,16 / 19,89011,2019-08-09 22:36:46:238,0.4143,-2.3096,9.5902,0.7572,-1.3941,9.6775,0.0035,-0.0074,-0.0073
891,46.428593,-0.506668,110.09,0.0,4.288,44.6,16 / 19,89110,2019-08-09 22:36:46:337,0.3934,-2.4647,9.5621,0.7344,-1.4257,9.6746,0.0036,-0.0049,-0.0095
892,46.428593,-0.506668,110.09,0.0,4.288,44.6,16 / 19,89211,2019-08-09 22:36:46:438,0.367,-2.5239,9.4837,0.7249,-1.4435,9.6727,-0.0047,-0.0004,-0.0021
893,46.428593,-0.506668,110.09,0.0,4.288,44.6,16 / 19,89311,2019-08-09 22:36:46:538,0.4143,-2.3994,9.616,0.7167,-1.469,9.6695,-0.0047,0.0031,0.0097
894,46.428593,-0.506668,110.09,0.0,4.288,44.6,16 / 19,89411,2019-08-09 22:36:46:638,0.2563,-2.421,9.6758,0.7105,-1.4841,9.6676,0.0051,-0.0067,0.0207
895,46.428593,-0.506668,110.09,0.0,4.288,44.6,16 / 19,89511,2019-08-09 22:36:46:738,0.124,-2.2007,9.6124,0.6854,-1.515,9.6646,0.0051,-0.0109,0.0565
896,46.428593,-0.506668,110.09,0.0,4.288,44.6,14 / 17,89613,2019-08-09 22:36:46:840,0.0456,-2.2271,9.5172,0.6726,-1.5203,9.6647,0.0052,-0.0128,0.0584
897,46.428593,-0.506668,110.09,0.0,4.288,44.6,14 / 17,89712,2019-08-09 22:36:46:939,0.045,-2.2253,9.5082,0.6496,-1.5479,9.6619,0.0132,-0.0066,0.0763
898,46.428593,-0.506668,110.09,0.0,4.288,44.6,14 / 17,89810,2019-08-09 22:36:47:037,0.2605,-2.418,9.6148,0.6459,-1.5695,9.6587,0.0051,-0.0149,0.1036
899,46.428593,-0.506668,110.09,0.0,4.288,44.6,14 / 17,89910,2019-08-09 22:36:47:137,0.0348,-2.3114,9.6124,0.6309,-1.5912,9.6561,0.0074,-0.0211,0.113
900,46.428593,-0.506668,110.09,0.0,4.288,44.6,14 / 17,90011,2019-08-09 22:36:47:238,-0.0005,-2.0858,9.7201,0.6192,-1.607,9.6543,0.0141,-0.0217,0.1221
901,46.428593,-0.506668,110.09,0.0,4.288,44.6,14 / 17,90111,2019-08-09 22:36:47:338,-0.0657,-1.8236,9.6136,0.6041,-1.601,9.6562,-0.0066,-0.0123,0.1353
