,GPS LATITUDE (degrees), GPS LONGITUDE (degrees), GPS ALTITUDE (m), GPS SPEED (Kmh), GPS ACCURACY (m), GPS ORIENTATION (Â°),GPS SATELLITES IN RANGE, TIME SINCE START (ms), DATE (YYYY-MO-DD HH-MI-SS_SSS), ACCELEROMETER X (m/s²) , ACCELEROMETER Y (m/s²), ACCELEROMETER Z (m/s²), GRAVITY X (m/s²), GRAVITY Y (m/s²), GRAVITY Z (m/s²), GYROSCOPE Yaw (rad/s), GYROSCOPE Pitch (rad/s), GYROSCOPE Roll (rad/s), MAGNETIC FIELD X (Î¼T), MAGNETIC FIELD Y (Î¼T), MAGNETIC FIELD Z (Î¼T), ORIENTATION (Yaw) (Â°), ORIENTATION (Pitch) (Â°), ORIENTATION (Roll ) (Â°)
41890,52.853977,-1.298778,110.45,27.72,4,162.26,23 / 24,5661614,2019-11-06 17:40:42:076,0.7084,-0.4278,11.1651,-0.0269,-0.0022,9.8066,0.087,0.036,-0.0654,-14.75,-35.94,32.0,302.85,-89.83,148.12
41891,52.853977,-1.298778,110.45,27.72,4,162.26,23 / 24,5661714,2019-11-06 17:40:42:176,-0.2641,-0.0331,9.9474,0.0149,-0.0181,9.8066,0.1282,0.0311,-0.0987,-14.87,-36.0,31.38,308.12,-89.75,154.15
41892,52.853977,-1.298778,110.45,27.72,4,162.26,23 / 24,5661814,2019-11-06 17:40:42:276,0.3096,-2.0534,11.1887,-0.0281,-0.0252,9.8065,0.1029,0.1692,-0.1611,-14.75,-35.81,31.94,302.9,-89.69,148.28
41893,52.853977,-1.298778,110.45,27.72,4,162.26,25 / 25,5661914,2019-11-06 17:40:42:376,3.3527,-0.4268,8.5997,0.0118,-0.0114,9.8066,-0.0725,0.1973,-0.0798,-14.37,-35.69,32.0,318.33,-89.7,162.16
41894,52.853977,-1.298778,110.45,27.72,4,162.26,25 / 25,5662013,2019-11-06 17:40:42:475,0.7608,1.874,8.5303,-0.0404,-0.0362,9.8064,-0.0772,0.0937,-0.0658,-14.37,-36.44,31.75,350.03,-89.75,-166.3
41895,52.853977,-1.298778,110.45,27.72,4,162.26,25 / 25,5662113,2019-11-06 17:40:42:575,0.6796,1.0394,9.9966,-0.0005,-0.0094,9.8066,-0.0528,0.0509,0.0139,-14.25,-36.44,32.19,313.18,-89.79,156.97
41896,52.853977,-1.298778,110.45,27.72,4,162.26,25 / 25,5662213,2019-11-06 17:40:42:675,-1.99,-0.7755,10.3399,-0.0309,-0.0155,9.8065,0.0602,0.0785,-0.1132,-14.56,-36.87,32.81,282.43,-89.49,127.38
41897,52.853977,-1.298778,110.45,27.72,4,162.26,25 / 25,5662314,2019-11-06 17:40:42:776,-1.8828,0.4424,10.0158,0.0168,-0.0014,9.8065,0.2362,0.0393,-0.1247,-14.87,-37.69,32.81,274.44,-89.51,119.4
41898,52.853977,-1.298778,110.45,27.72,4,162.26,25 / 25,5662414,2019-11-06 17:40:42:876,0.0242,0.6774,11.1008,0.0156,-0.0512,9.8065,0.1546,0.0726,-0.1055,-14.25,-38.12,31.75,264.31,-89.56,108.41
41899,52.853977,-1.298778,110.45,27.72,4,162.26,25 / 25,5662513,2019-11-06 17:40:42:975,0.3096,1.4013,8.4227,0.0118,0.0037,9.8065,0.0135,-0.0167,-0.0031,-13.75,-37.81,30.44,281.68,-89.45,127.32
41900,52.853977,-1.298778,110.45,27.72,4,162.26,25 / 25,5662613,2019-11-06 17:40:43:075,0.8082,-0.5283,8.7977,0.002,-0.0145,9.8066,-0.0648,0.0324,0.0358,-14.19,-36.56,30.31,278.83,-89.4,124.51
41901,52.853977,-1.298778,110.45,27.72,4,162.26,25 / 25,5662714,2019-11-06 17:40:43:176,0.8512,-1.5409,9.9913,-0.0072,0.0192,9.8066,-0.0198,-0.001,-0.0136,-13.5,-36.69,30.44,274.04,-89.32,118.23
41902,52.853977,-1.298778,110.45,27.72,4,162.26,25 / 25,5662814,2019-11-06 17:40:43:276,0.3008,0.1243,10.3171,0.0077,0.0059,9.8066,0.0735,-0.0007,-0.018,-13.81,-35.94,30.69,266.27,-89.32,111.29
41903,52.853977,-1.298778,110.45,27.72,4,162.26,23 / 23,5662914,2019-11-06 17:40:43:376,1.6851,-0.5358,10.1714,0.016,-0.0139,9.8065,0.0194,0.1198,-0.0814,-14.19,-36.37,31.13,272.58,-89.16,117.77
41904,52.853977,-1.298778,110.45,27.72,4,162.26,23 / 23,5663013,2019-11-06 17:40:43:475,-1.8126,0.6098,9.1475,0.0233,0.0174,9.8066,0.0195,0.1323,-0.0793,-14.12,-35.75,31.31,281.47,-89.16,126.65
41905,52.853977,-1.298778,110.45,27.72,4,162.26,23 / 23,5663113,2019-11-06 17:40:43:575,-0.4443,0.894,10.0633,-0.0137,0.0221,9.8066,-0.1515,0.0719,-0.0448,-14.19,-36.0,31.0,265.21,-89.25,110.3
41906,52.853977,-1.298778,110.45,27.72,4,162.26,23 / 23,5663214,2019-11-06 17:40:43:676,0.4847,1.3014,8.7682,0.0093,0.0297,9.8065,-0.1701,0.1444,-0.0301,-13.5,-36.75,31.06,262.77,-89.16,106.44
41907,52.853977,-1.298778,110.45,27.72,4,162.26,23 / 23,5663314,2019-11-06 17:40:43:776,1.6192,1.5234,10.0031,-0.041,0.0257,9.8064,-0.1204,0.1232,-0.0478,-14.06,-36.19,31.5,246.15,-89.34,90.4
41908,52.853977,-1.298778,110.45,27.72,4,162.26,23 / 23,5663413,2019-11-06 17:40:43:875,-3.0811,1.0983,10.2525,0.0367,0.0003,9.8065,-0.1542,0.1628,-0.0852,-14.25,-36.19,31.5,254.58,-89.37,98.83
41909,52.853977,-1.298778,110.45,27.72,4,162.26,23 / 23,5663513,2019-11-06 17:40:43:975,-3.8867,0.3766,11.2633,-0.0231,-0.0065,9.8066,-0.0598,0.3271,-0.1908,-14.0,-37.0,31.31,272.76,-89.14,118.0
41910,52.853977,-1.298778,110.45,27.72,4,162.26,23 / 23,5663614,2019-11-06 17:40:44:076,-3.1951,-2.164,9.6904,0.0407,0.0241,9.8064,-0.0655,0.3534,-0.2006,-14.06,-35.75,31.13,262.88,-89.2,108.02
41911,52.853977,-1.298778,110.45,27.72,4,162.26,23 / 23,5663714,2019-11-06 17:40:44:176,-0.2879,-0.0979,10.6606,-0.0163,-0.0141,9.8066,-0.1288,0.2845,-0.149,-13.69,-36.44,31.81,273.07,-89.11,117.61
41912,52.853977,-1.298778,110.45,27.72,4,162.26,23 / 23,5663814,2019-11-06 17:40:44:276,-0.8828,2.0493,9.048,-0.0126,0.0541,9.8064,-0.0907,0.2334,-0.0872,-13.37,-36.37,31.75,252.29,-89.08,95.31
41913,52.853977,-1.298778,110.45,27.72,4,162.26,23 / 23,5663914,2019-11-06 17:40:44:376,1.7553,-1.0928,8.3555,0.0052,-0.013,9.8066,-0.0383,0.2673,-0.1152,-13.94,-35.94,31.69,250.48,-89.01,95.07
41914,52.853977,-1.298778,110.45,27.72,4,162.26,23 / 23,5664013,2019-11-06 17:40:44:475,0.1888,-0.2681,10.3961,0.0383,0.0154,9.8065,0.0877,0.1896,-0.1685,-13.62,-36.25,31.69,261.65,-88.79,106.51
41915,52.853977,-1.298778,110.45,27.72,4,162.26,23 / 23,5664113,2019-11-06 17:40:44:575,-0.9914,0.4411,10.0198,-0.0091,0.0038,9.8066,0.0381,0.0619,-0.055,-13.25,-35.87,32.0,255.25,-88.68,98.68
41916,52.853977,-1.298778,110.45,27.72,4,162.26,23 / 23,5664214,2019-11-06 17:40:44:676,0.9537,-2.0359,10.4258,0.0035,-0.0236,9.8066,0.0421,-0.0199,0.0228,-13.81,-36.5,31.38,253.61,-88.62,99.31
41917,52.853977,-1.298778,110.45,27.72,4,162.26,23 / 23,5664314,2019-11-06 17:40:44:776,-0.1202,-1.6422,9.2678,0.0008,-0.0008,9.8066,-0.0477,-0.098,0.1009,-13.5,-35.94,30.88,264.01,-88.54,108.32
41918,52.853977,-1.298778,110.45,27.72,4,162.26,23 / 23,5664414,2019-11-06 17:40:44:876,-0.3262,-1.3468,9.5478,0.0017,-0.0072,9.8066,-0.0816,-0.146,0.1083,-13.25,-37.31,31.25,256.8,-88.53,101.13
41919,52.853977,-1.298778,110.45,27.72,4,162.26,23 / 23,5664514,2019-11-06 17:40:44:976,-2.972,-0.9867,9.2826,0.0528,-0.0156,9.8065,-0.0318,-0.3284,0.177,-13.56,-35.81,31.63,261.62,-88.18,107.1
41920,52.853977,-1.298778,110.45,27.72,4,162.26,23 / 23,5664614,2019-11-06 17:40:45:076,2.6017,-1.3655,10.1009,-0.0232,-0.0115,9.8066,-0.0181,-0.3932,0.2488,-13.19,-36.19,32.0,253.5,-88.19,97.41
41921,52.853977,-1.298778,110.45,27.72,4,162.26,23 / 23,5664714,2019-11-06 17:40:45:176,2.8931,-1.1058,9.0933,0.0376,-0.0006,9.8066,-0.0201,-0.3997,0.16,-13.0,-36.44,32.06,252.88,-88.22,96.76
41922,52.853977,-1.298778,110.45,27.72,4,162.26,23 / 23,5664814,2019-11-06 17:40:45:276,1.1402,2.5851,9.6163,-0.035,-0.0199,9.8065,-0.0626,-0.3281,0.2063,-13.37,-37.19,31.19,256.05,-88.15,100.78
41923,52.853977,-1.298778,110.45,27.72,4,162.26,24 / 24,5664914,2019-11-06 17:40:45:376,-1.5396,-0.1201,9.9067,0.0199,0.0194,9.8066,0.0246,-0.2098,0.1081,-13.06,-36.12,31.75,248.16,-88.24,91.96
41924,52.853977,-1.298778,110.45,27.72,4,162.26,24 / 24,5665014,2019-11-06 17:40:45:476,0.1476,-3.1278,10.387,0.0323,-0.0464,9.8064,0.1981,-0.2243,0.0075,-12.87,-36.5,31.75,253.89,-88.12,97.88
41925,52.853977,-1.298778,110.45,27.72,4,162.26,24 / 24,5665114,2019-11-06 17:40:45:576,-0.275,0.6602,10.2101,0.0071,0.0305,9.8065,0.115,0.0387,-0.0671,-13.25,-36.75,31.75,257.81,-87.91,102.1
41926,52.853977,-1.298778,110.45,27.72,4,162.26,24 / 24,5665213,2019-11-06 17:40:45:675,-1.6925,0.3073,9.7663,-0.0098,0.0054,9.8066,0.0941,0.0921,-0.0964,-12.87,-36.44,31.81,251.17,-87.92,95.32
41927,52.853977,-1.298778,110.45,27.72,4,162.26,24 / 24,5665314,2019-11-06 17:40:45:776,0.1611,0.029,9.9483,0.0012,-0.0111,9.8066,0.0598,0.1333,-0.0818,-12.87,-36.5,31.75,255.53,-87.78,99.87
41928,52.853977,-1.298778,110.45,27.72,4,162.26,24 / 24,5665414,2019-11-06 17:40:45:876,-2.6102,-0.2713,9.7979,0.0084,0.008,9.8066,0.0778,0.2056,-0.165,-12.44,-36.06,31.25,255.99,-87.76,99.49
41929,52.853977,-1.298778,110.45,27.72,4,162.26,24 / 24,5665513,2019-11-06 17:40:45:975,1.9362,1.2068,10.976,-0.0265,-0.0196,9.8066,0.0964,0.2976,-0.2463,-13.0,-35.87,30.94,256.9,-87.71,102.04
41930,52.853977,-1.298778,110.45,27.72,4,162.26,24 / 24,5665613,2019-11-06 17:40:46:075,-1.3491,-0.0213,9.471,-0.0139,0.0113,9.8066,0.0076,0.4677,-0.2376,-12.56,-35.94,32.0,262.14,-87.44,106.88
41931,52.853977,-1.298778,110.45,27.72,4,162.26,24 / 24,5665713,2019-11-06 17:40:46:175,3.7582,1.6109,9.1631,-0.0684,-0.009,9.8064,-0.0521,0.4401,-0.2869,-12.5,-36.25,31.25,257.4,-87.74,100.94
41932,52.853977,-1.298778,110.45,27.72,4,162.26,24 / 24,5665814,2019-11-06 17:40:46:276,-3.9394,0.2617,9.6163,0.0126,0.0148,9.8065,-0.0278,0.3545,-0.2769,-13.31,-36.69,30.75,255.93,-87.42,101.43
41933,52.853977,-1.298778,110.45,27.72,4,162.26,24 / 24,5665916,2019-11-06 17:40:46:378,0.1346,0.8585,10.2056,-0.0504,-0.0254,9.8064,-0.1125,0.3434,-0.2233,-12.06,-36.06,31.44,260.67,-87.44,104.56
41934,52.853977,-1.298778,110.45,27.72,4,162.26,24 / 24,5666013,2019-11-06 17:40:46:475,-2.3854,-2.4982,10.7014,0.0104,0.0034,9.8066,-0.065,0.3095,-0.1426,-13.12,-36.0,31.0,254.9,-87.37,100.36
41935,52.853977,-1.298778,110.45,27.72,4,162.26,24 / 24,5666113,2019-11-06 17:40:46:575,3.1163,0.1983,10.1001,-0.0364,-0.0378,9.8065,-0.0637,0.2727,-0.171,-13.25,-36.31,31.19,258.92,-87.38,104.41
41936,52.853977,-1.298778,110.45,27.72,4,162.26,24 / 24,5666213,2019-11-06 17:40:46:675,-1.4136,0.7598,9.007,-0.0301,0.0209,9.8065,0.0064,0.1872,-0.1381,-12.94,-36.12,31.06,257.37,-87.23,103.01
41937,52.853977,-1.298778,110.45,27.72,4,162.26,24 / 24,5666314,2019-11-06 17:40:46:776,1.2068,1.3245,8.6345,-0.017,-0.0116,9.8066,-0.0054,0.1413,-0.0688,-13.0,-36.62,30.81,254.35,-87.31,99.94
41938,52.853977,-1.298778,110.45,27.72,4,162.26,24 / 24,5666414,2019-11-06 17:40:46:876,1.0162,-1.3244,11.6932,0.022,-0.0134,9.8066,-0.1686,-0.1069,0.0541,-13.12,-35.81,30.81,257.04,-86.99,102.91
41939,52.853977,-1.298778,110.45,27.72,4,162.26,24 / 24,5666513,2019-11-06 17:40:46:975,1.7605,0.7303,9.5398,-0.0073,0.0205,9.8066,-0.0423,-0.2294,0.1896,-12.75,-36.87,31.44,255.81,-86.97,101.77
41940,52.853977,-1.298778,110.45,27.72,4,162.26,24 / 24,5666613,2019-11-06 17:40:47:075,0.5078,0.3846,10.2336,-0.0233,0.0062,9.8066,-0.0109,-0.0663,-0.0662,-12.87,-37.06,30.94,253.16,-87.13,98.92
41941,52.853977,-1.298778,110.45,27.72,4,162.26,24 / 24,5666713,2019-11-06 17:40:47:175,1.3417,2.1367,11.3191,0.0333,0.0029,9.8065,0.1141,0.1038,-0.1362,-12.62,-37.06,31.5,251.25,-87.21,96.17
41942,52.853977,-1.298778,110.45,27.72,4,162.26,24 / 24,5666813,2019-11-06 17:40:47:275,1.5007,-1.0558,11.7383,0.0055,-0.0145,9.8066,0.0743,0.5998,-0.348,-12.12,-36.5,31.5,251.7,-87.2,95.05
41943,52.851807,-1.297669,109.73,28.18,4,163.04,24 / 24,5666914,2019-11-06 17:40:47:376,2.888,1.4394,8.6245,0.052,0.0011,9.8065,-0.0991,0.459,-0.3589,-12.5,-35.81,32.19,258.91,-87.15,102.4
41944,52.851807,-1.297669,109.73,28.18,4,163.04,24 / 24,5667014,2019-11-06 17:40:47:476,-0.795,-0.829,10.5111,0.0204,-0.0183,9.8065,-0.1219,0.0513,0.0938,-12.12,-36.31,32.81,254.13,-87.16,96.9
41945,52.851807,-1.297669,109.73,28.18,4,163.04,24 / 24,5667114,2019-11-06 17:40:47:576,0.4217,0.8799,8.6228,-0.0149,-0.0077,9.8066,-0.1949,0.1356,0.0713,-12.31,-36.62,32.13,254.91,-87.21,98.37
41946,52.851807,-1.297669,109.73,28.18,4,163.04,24 / 24,5667214,2019-11-06 17:40:47:676,-1.3512,0.5984,8.9243,-0.0228,0.0008,9.8066,-0.0472,0.0957,-0.0547,-11.94,-36.5,31.75,254.8,-87.31,98.08
41947,52.851807,-1.297669,109.73,28.18,4,163.04,24 / 24,5667313,2019-11-06 17:40:47:775,1.5277,1.3539,9.9182,-0.023,-0.0134,9.8066,-0.007,0.0626,-0.007,-12.5,-36.87,32.0,255.28,-87.3,98.66
41948,52.851807,-1.297669,109.73,28.18,4,163.04,24 / 24,5667413,2019-11-06 17:40:47:875,0.1172,-0.2037,10.1463,0.0095,0.0047,9.8066,-0.061,-0.1544,0.0978,-12.25,-36.69,31.13,256.12,-87.21,100.29
41949,52.851807,-1.297669,109.73,28.18,4,163.04,24 / 24,5667514,2019-11-06 17:40:47:976,3.0384,0.4076,9.7152,-0.0311,0.0005,9.8066,-0.0388,-0.1482,0.1756,-12.62,-36.44,32.44,254.41,-87.27,99.24
41950,52.851807,-1.297669,109.73,28.18,4,163.04,24 / 24,5667614,2019-11-06 17:40:48:076,-1.6328,0.1931,8.8821,0.0151,0.0223,9.8065,-0.0353,-0.3134,0.1882,-11.94,-36.44,31.75,257.34,-87.17,100.8
41951,52.851807,-1.297669,109.73,28.18,4,163.04,24 / 24,5667714,2019-11-06 17:40:48:176,-1.6482,-0.8712,9.7628,-0.0281,0.0083,9.8065,0.0317,-0.3298,0.1671,-12.31,-36.75,31.25,253.79,-87.18,97.95
41952,52.851807,-1.297669,109.73,28.18,4,163.04,24 / 24,5667814,2019-11-06 17:40:48:276,-2.9583,-1.6039,9.3196,0.0319,0.0135,9.8065,-0.0218,-0.3271,0.2254,-11.69,-36.62,31.81,254.56,-86.95,98.28
41953,52.851807,-1.297669,109.73,28.18,4,163.04,24 / 25,5667914,2019-11-06 17:40:48:376,2.186,-0.9177,10.4871,-0.04,0.0129,9.8065,-0.0678,-0.4187,0.2044,-11.5,-35.94,32.25,255.0,-87.05,96.99
41954,52.851807,-1.297669,109.73,28.18,4,163.04,24 / 25,5668013,2019-11-06 17:40:48:475,0.5273,0.7449,9.1225,0.0028,0.0281,9.8065,0.1358,-0.4389,0.2328,-11.81,-36.94,32.13,253.71,-86.97,97.39
41955,52.851807,-1.297669,109.73,28.18,4,163.04,24 / 25,5668113,2019-11-06 17:40:48:575,2.7049,2.117,9.2272,-0.0409,-0.018,9.8065,0.0295,-0.4675,0.232,-11.69,-36.81,32.38,254.42,-87.02,98.07
41956,52.851807,-1.297669,109.73,28.18,4,163.04,24 / 25,5668214,2019-11-06 17:40:48:676,-1.5292,0.1059,9.2513,0.0066,0.026,9.8066,0.0009,-0.4322,0.1924,-12.19,-36.69,31.69,250.12,-86.95,93.77
41957,52.851807,-1.297669,109.73,28.18,4,163.04,24 / 25,5668314,2019-11-06 17:40:48:776,-0.8899,-1.5214,11.012,-0.0362,-0.014,9.8065,-0.013,-0.3529,0.2747,-12.25,-36.56,31.56,253.89,-87.18,97.36
41958,52.851807,-1.297669,109.73,28.18,4,163.04,24 / 25,5668414,2019-11-06 17:40:48:876,-2.1121,-0.3502,9.9847,-0.0237,0.0266,9.8065,0.043,-0.282,0.0628,-12.12,-35.87,31.69,255.55,-87.1,99.05
41959,52.851807,-1.297669,109.73,28.18,4,163.04,24 / 25,5668513,2019-11-06 17:40:48:975,-0.372,0.489,9.6488,-0.0099,-0.0064,9.8066,0.0479,-0.1844,0.0608,-11.94,-36.5,31.5,252.43,-87.24,95.74
41960,52.851807,-1.297669,109.73,28.18,4,163.04,24 / 25,5668613,2019-11-06 17:40:49:075,-0.5877,-0.5299,9.85,-0.0083,0.0003,9.8066,0.052,0.0269,-0.0124,-12.25,-36.31,31.75,253.64,-87.14,97.08
41961,52.851807,-1.297669,109.73,28.18,4,163.04,24 / 25,5668715,2019-11-06 17:40:49:177,-1.8013,0.163,9.7408,0.0127,-0.0078,9.8066,0.0602,0.0534,-0.0733,-11.75,-36.25,31.31,253.03,-87.11,97.17
41962,52.851807,-1.297669,109.73,28.18,4,163.04,24 / 25,5668814,2019-11-06 17:40:49:276,-0.6744,-0.466,10.6996,-0.0155,-0.0226,9.8066,0.0279,0.0578,0.0169,-11.56,-36.62,31.38,254.49,-87.23,98.61
41963,52.851807,-1.297669,109.73,28.18,4,163.04,25 / 25,5668917,2019-11-06 17:40:49:379,0.2275,1.7639,10.1815,-0.0064,0.011,9.8066,0.0826,-0.0456,-0.0052,-12.31,-36.06,31.63,252.35,-87.14,95.75
41964,52.851807,-1.297669,109.73,28.18,4,163.04,25 / 25,5669013,2019-11-06 17:40:49:475,1.9082,-2.3276,10.0015,-0.0228,-0.0203,9.8065,0.097,-0.0351,0.0145,-12.06,-36.12,32.0,250.46,-87.14,93.84
41965,52.851807,-1.297669,109.73,28.18,4,163.04,25 / 25,5669115,2019-11-06 17:40:49:577,-0.7988,-0.3576,9.1805,0.0265,-0.0215,9.8065,0.0492,0.0462,-0.0687,-11.44,-36.81,31.44,256.09,-87.04,98.85
41966,52.851807,-1.297669,109.73,28.18,4,163.04,25 / 25,5669214,2019-11-06 17:40:49:676,-0.9524,-0.8386,11.1391,-0.003,-0.0177,9.8066,0.1217,-0.0327,-0.0507,-11.69,-37.19,31.5,251.93,-87.12,95.43
41967,52.851807,-1.297669,109.73,28.18,4,163.04,25 / 25,5669313,2019-11-06 17:40:49:775,0.0037,-1.5866,9.7343,0.014,-0.0063,9.8066,-0.068,0.0187,0.0198,-11.19,-36.31,32.0,251.47,-87.09,93.36
41968,52.851807,-1.297669,109.73,28.18,4,163.04,25 / 25,5669414,2019-11-06 17:40:49:876,1.5592,-1.5645,9.8737,-0.0069,-0.0002,9.8066,0.007,0.0863,-0.0348,-11.19,-35.75,31.5,253.76,-87.05,95.72
41969,52.851807,-1.297669,109.73,28.18,4,163.04,25 / 25,5669514,2019-11-06 17:40:49:976,-2.3154,1.5764,9.5642,0.0139,-0.0119,9.8066,0.0754,0.0913,-0.0935,-11.75,-36.44,32.0,251.55,-87.19,94.89
41970,52.851807,-1.297669,109.73,28.18,4,163.04,25 / 25,5669613,2019-11-06 17:40:50:075,1.7852,-0.8649,9.7774,0.0273,-0.0132,9.8066,-0.0707,0.1384,-0.1078,-11.37,-36.56,31.56,256.23,-87.36,97.99
41971,52.851807,-1.297669,109.73,28.18,4,163.04,25 / 25,5669713,2019-11-06 17:40:50:175,-0.1255,0.311,10.3797,-0.0252,0.0206,9.8066,-0.0645,0.2234,-0.0523,-12.0,-36.56,31.81,252.51,-87.56,95.57
41972,52.851807,-1.297669,109.73,28.18,4,163.04,25 / 25,5669813,2019-11-06 17:40:50:275,-0.5464,1.6638,10.1325,0.0313,-0.0027,9.8065,-0.0769,0.2105,-0.114,-12.37,-36.37,32.06,253.6,-87.53,96.64
41973,52.851807,-1.297669,109.73,28.18,4,163.04,24 / 25,5669913,2019-11-06 17:40:50:375,-3.7259,0.1237,10.1158,0.0218,0.0093,9.8066,0.0256,0.3098,-0.2265,-11.81,-36.44,31.56,256.18,-87.49,99.29
41974,52.851807,-1.297669,109.73,28.18,4,163.04,24 / 25,5670014,2019-11-06 17:40:50:476,-1.231,-0.1317,8.7538,0.0547,0.033,9.8064,0.057,0.3438,-0.2547,-11.31,-36.56,31.69,250.37,-87.55,91.85
41975,52.851807,-1.297669,109.73,28.18,4,163.04,24 / 25,5670114,2019-11-06 17:40:50:576,0.0081,0.9557,11.0301,0.0029,0.0116,9.8066,-0.0374,0.2059,-0.1276,-11.69,-36.44,31.38,248.34,-87.27,92.22
41976,52.851807,-1.297669,109.73,28.18,4,163.04,24 / 25,5670214,2019-11-06 17:40:50:676,1.4639,2.042,10.0453,0.0288,0.025,9.8065,-0.0239,0.3357,-0.1482,-11.0,-36.37,32.0,254.08,-87.28,95.82
41977,52.851807,-1.297669,109.73,28.18,4,163.04,24 / 25,5670313,2019-11-06 17:40:50:775,3.2075,0.5503,8.9736,-0.0162,0.0056,9.8066,-0.1113,0.4074,-0.1518,-11.56,-36.12,31.44,251.2,-87.24,95.17
41978,52.851807,-1.297669,109.73,28.18,4,163.04,24 / 25,5670413,2019-11-06 17:40:50:875,0.0534,0.143,8.2005,0.0079,0.0565,9.8064,-0.0936,0.4085,-0.192,-11.75,-36.81,31.81,246.67,-87.29,89.9
41979,52.851807,-1.297669,109.73,28.18,4,163.04,24 / 25,5670514,2019-11-06 17:40:50:976,-2.8139,-0.7246,9.626,-0.0176,0.0205,9.8065,-0.0371,0.3249,-0.157,-11.44,-36.62,31.56,244.74,-87.55,86.12
41980,52.851807,-1.297669,109.73,28.18,4,163.04,24 / 25,5670613,2019-11-06 17:40:51:075,-1.5257,-0.061,9.7823,0.0416,0.0169,9.8065,-0.0069,0.3171,-0.1956,-11.31,-36.25,31.69,249.52,-87.63,90.83
41981,52.851807,-1.297669,109.73,28.18,4,163.04,24 / 25,5670713,2019-11-06 17:40:51:175,0.6551,0.6542,10.0975,0.0126,0.0353,9.8066,0.0149,0.206,-0.1803,-11.69,-36.12,31.81,243.98,-87.36,87.02
41982,52.851807,-1.297669,109.73,28.18,4,163.04,24 / 25,5670813,2019-11-06 17:40:51:275,-0.5721,2.3011,10.3689,0.0196,-0.0075,9.8066,-0.0195,0.0684,-0.085,-11.62,-36.56,32.38,246.38,-87.29,89.6
41983,52.851807,-1.297669,109.73,28.18,4,163.04,25 / 25,5670917,2019-11-06 17:40:51:379,-1.0347,0.3923,10.9392,-0.0075,0.0168,9.8066,-0.0535,0.0242,-0.0365,-11.44,-36.62,31.75,249.38,-87.32,91.07
41984,52.851807,-1.297669,109.73,28.18,4,163.04,25 / 25,5671014,2019-11-06 17:40:51:476,0.8217,-0.9055,9.8392,-0.0127,0.0046,9.8066,-0.1207,0.0074,0.0227,-11.56,-36.31,31.75,248.13,-87.34,91.26
41985,52.851807,-1.297669,109.73,28.18,4,163.04,25 / 25,5671114,2019-11-06 17:40:51:576,0.6222,-0.5874,9.9918,-0.0028,0.0067,9.8066,-0.057,-0.0716,-0.0268,-10.81,-36.87,32.06,248.41,-87.4,90.01
41986,52.851807,-1.297669,109.73,28.18,4,163.04,25 / 25,5671213,2019-11-06 17:40:51:675,-0.8381,-1.3441,9.8637,-0.0157,-0.0112,9.8066,-0.0806,-0.0519,0.0375,-11.37,-36.62,30.94,245.54,-87.33,87.79
41987,52.851807,-1.297669,109.73,28.18,4,163.04,25 / 25,5671313,2019-11-06 17:40:51:775,-0.6888,1.7881,9.5046,0.0011,-0.0143,9.8066,-0.0141,-0.0427,0.0045,-11.37,-36.44,31.88,249.26,-87.34,90.86
41988,52.851807,-1.297669,109.73,28.18,4,163.04,25 / 25,5671415,2019-11-06 17:40:51:877,-1.8191,0.929,9.2381,-0.0152,-0.0071,9.8066,-0.0323,0.0196,-0.0117,-11.81,-37.0,31.75,244.37,-87.43,87.42
41989,52.851807,-1.297669,109.73,28.18,4,163.04,25 / 25,5671513,2019-11-06 17:40:51:975,0.974,0.9023,10.2007,-0.0168,-0.0063,9.8066,0.0185,-0.0329,-0.0696,-11.44,-36.25,31.0,245.45,-87.4,87.55
41990,52.851807,-1.297669,109.73,28.18,4,163.04,25 / 25,5671613,2019-11-06 17:40:52:075,0.9715,-0.1676,10.6886,-0.032,-0.0089,9.8065,-0.0454,0.0444,0.0369,-11.31,-36.19,31.5,245.06,-87.23,86.68
41991,52.851807,-1.297669,109.73,28.18,4,163.04,25 / 25,5671713,2019-11-06 17:40:52:175,1.2183,0.8422,9.5994,-0.0024,-0.026,9.8066,-0.058,0.0178,0.0086,-11.87,-36.37,30.94,247.91,-87.34,91.72
41992,52.851807,-1.297669,109.73,28.18,4,163.04,25 / 25,5671814,2019-11-06 17:40:52:276,-2.2787,0.6975,9.7528,-0.0218,-0.0266,9.8065,0.0211,0.0873,0.0074,-11.87,-36.31,31.69,245.45,-87.33,88.55
41993,52.851807,-1.297669,109.73,28.18,4,163.04,25 / 25,5671914,2019-11-06 17:40:52:376,2.776,1.1941,10.1561,-0.0448,-0.0132,9.8064,-0.0352,0.1649,-0.1355,-11.75,-36.06,31.38,247.08,-87.59,90.63
41994,52.851807,-1.297669,109.73,28.18,4,163.04,25 / 25,5672014,2019-11-06 17:40:52:476,-0.3883,-0.4441,10.3357,-0.0274,-0.0081,9.8066,-0.0202,0.2042,-0.0424,-11.87,-36.0,31.69,247.31,-87.39,90.38
41995,52.851807,-1.297669,109.73,28.18,4,163.04,25 / 25,5672114,2019-11-06 17:40:52:576,2.123,2.2331,8.9046,-0.0249,-0.0205,9.8066,-0.1631,0.2595,-0.1277,-11.44,-36.37,31.88,251.35,-87.44,92.89
41996,52.851807,-1.297669,109.73,28.18,4,163.04,25 / 25,5672213,2019-11-06 17:40:52:675,-1.8593,-2.27,8.9116,-0.0281,-0.0178,9.8066,0.0263,0.4124,-0.2273,-11.56,-36.19,31.81,246.93,-87.3,90.09
41997,52.851807,-1.297669,109.73,28.18,4,163.04,25 / 25,5672313,2019-11-06 17:40:52:775,1.205,1.3272,8.9722,-0.057,-0.0064,9.8064,-0.0503,0.4149,-0.3199,-11.81,-36.87,32.13,247.03,-87.53,90.03
41998,52.851807,-1.297669,109.73,28.18,4,163.04,25 / 25,5672413,2019-11-06 17:40:52:875,-3.876,-0.1575,10.7379,-0.0373,-0.0127,9.8065,-0.0747,0.4199,-0.1948,-11.87,-36.31,31.56,249.51,-87.37,92.65
41999,52.851807,-1.297669,109.73,28.18,4,163.04,25 / 25,5672514,2019-11-06 17:40:52:976,1.6931,0.0705,9.6386,-0.0197,-0.0562,9.8065,-0.1199,0.4255,-0.1541,-11.81,-36.44,31.5,256.64,-87.28,99.97
42000,52.851807,-1.297669,109.73,28.18,4,163.04,25 / 25,5672614,2019-11-06 17:40:53:076,-3.3312,-0.288,9.9177,-0.0046,-0.0051,9.8066,0.036,0.373,-0.2556,-11.25,-36.0,31.38,257.48,-87.27,99.93
42001,52.851807,-1.297669,109.73,28.18,4,163.04,25 / 25,5672714,2019-11-06 17:40:53:176,3.0277,1.5387,10.3224,-0.0707,-0.0327,9.8063,-0.0127,0.4045,-0.2321,-11.37,-36.37,31.13,259.46,-87.52,101.66
42002,52.851807,-1.297669,109.73,28.18,4,163.04,25 / 25,5672813,2019-11-06 17:40:53:275,-1.3538,0.1482,9.1825,-0.0065,0.0037,9.8066,0.0825,0.2979,-0.2121,-11.37,-35.94,31.94,259.09,-87.46,100.71
42003,52.851807,-1.297669,109.73,28.18,4,163.04,24 / 24,5672913,2019-11-06 17:40:53:375,-3.6036,-1.9842,10.1894,-0.0518,-0.0229,9.8064,0.0206,0.2369,-0.1495,-11.12,-36.0,31.38,260.65,-87.52,102.86
42004,52.851807,-1.297669,109.73,28.18,4,163.04,24 / 24,5673013,2019-11-06 17:40:53:475,-4.4123,-1.4906,9.8456,0.0136,0.0176,9.8066,0.0012,0.0473,-0.0377,-11.19,-36.12,31.88,256.41,-87.3,98.17
42005,52.851807,-1.297669,109.73,28.18,4,163.04,24 / 24,5673113,2019-11-06 17:40:53:575,1.782,1.1184,9.2093,-0.0523,-0.0052,9.8065,0.0116,-0.0251,0.0393,-12.06,-36.69,31.81,252.58,-87.5,95.7
42006,52.851807,-1.297669,109.73,28.18,4,163.04,24 / 24,5673214,2019-11-06 17:40:53:676,1.4487,1.7188,9.6554,0.0248,0.0222,9.8065,0.0423,-0.2205,0.1224,-11.62,-36.81,32.0,247.49,-87.59,90.44
42007,52.851807,-1.297669,109.73,28.18,4,163.04,24 / 24,5673314,2019-11-06 17:40:53:776,3.8141,1.0906,10.374,-0.0364,-0.0186,9.8065,0.0587,-0.3062,0.2,-11.44,-36.5,31.88,247.96,-87.72,89.16
42008,52.851807,-1.297669,109.73,28.18,4,163.04,24 / 24,5673413,2019-11-06 17:40:53:875,-0.8713,-0.261,10.0753,0.0627,0.0225,9.8064,0.0744,-0.4986,0.2142,-10.75,-36.37,31.75,251.01,-87.8,92.18
42009,52.851807,-1.297669,109.73,28.18,4,163.04,24 / 24,5673513,2019-11-06 17:40:53:975,-4.7315,-1.4746,10.2421,0.0006,0.0002,9.8066,0.0569,-0.6138,0.2989,-11.56,-36.37,32.38,250.87,-87.51,93.89
42010,52.851807,-1.297669,109.73,28.18,4,163.04,24 / 24,5673613,2019-11-06 17:40:54:075,-2.9295,-0.7227,9.7286,0.0598,0.0245,9.8063,0.0397,-0.591,0.3135,-12.0,-36.44,32.13,249.53,-87.37,92.67
42011,52.851807,-1.297669,109.73,28.18,4,163.04,24 / 24,5673714,2019-11-06 17:40:54:176,-2.5812,-0.8664,9.9469,0.0104,0.0022,9.8066,0.0244,-0.5705,0.284,-11.37,-36.56,32.0,252.63,-87.65,94.05
42012,52.851807,-1.297669,109.73,28.18,4,163.04,24 / 24,5673814,2019-11-06 17:40:54:276,4.473,1.864,8.7202,0.0712,0.0414,9.8062,0.0543,-0.5443,0.2915,-11.62,-36.12,31.81,252.7,-87.86,95.39
42013,52.851807,-1.297669,109.73,28.18,4,163.04,25 / 25,5673914,2019-11-06 17:40:54:376,-0.5058,0.4558,9.344,0.0315,0.0251,9.8065,0.0472,-0.5161,0.1972,-11.62,-36.62,31.88,249.06,-87.5,92.12
42014,52.851807,-1.297669,109.73,28.18,4,163.04,25 / 25,5674014,2019-11-06 17:40:54:476,1.1436,-1.0234,9.9851,0.0636,0.037,9.8063,0.1009,-0.3169,0.1605,-10.94,-36.81,31.25,249.59,-87.65,91.58
42015,52.851807,-1.297669,109.73,28.18,4,163.04,25 / 25,5674113,2019-11-06 17:40:54:575,-4.639,-0.9666,9.622,0.0566,0.0094,9.8065,0.0816,-0.2274,0.1068,-11.12,-36.12,31.81,252.43,-87.33,94.09
42016,52.851807,-1.297669,109.73,28.18,4,163.04,25 / 25,5674213,2019-11-06 17:40:54:675,1.9233,1.8715,10.2088,0.0317,0.0073,9.8065,-0.037,0.0946,-0.0449,-11.75,-36.62,31.75,252.21,-87.37,95.45
42017,52.851807,-1.297669,109.73,28.18,4,163.04,25 / 25,5674314,2019-11-06 17:40:54:776,-3.3526,-1.0821,10.0764,0.0461,0.0483,9.8064,0.0213,0.2251,-0.0917,-10.87,-35.87,32.13,250.24,-87.43,91.77
42018,52.851807,-1.297669,109.73,28.18,4,163.04,25 / 25,5674413,2019-11-06 17:40:54:875,4.6034,1.151,9.6194,-0.0056,0.0035,9.8066,-0.0204,0.4165,-0.2368,-11.19,-36.12,32.19,251.91,-87.55,93.34
42019,52.851807,-1.297669,109.73,28.18,4,163.04,25 / 25,5674513,2019-11-06 17:40:54:975,1.1522,-0.749,9.339,0.049,0.0265,9.8064,0.0208,0.4964,-0.2255,-11.37,-36.31,32.0,250.19,-87.54,91.62
42020,52.851807,-1.297669,109.73,28.18,4,163.04,25 / 25,5674614,2019-11-06 17:40:55:076,3.4126,0.9644,8.8749,-0.0274,-0.0091,9.8065,-0.0715,0.4711,-0.2176,-11.25,-36.31,31.81,247.13,-87.64,88.4
42021,52.851807,-1.297669,109.73,28.18,4,163.04,25 / 25,5674714,2019-11-06 17:40:55:176,-0.6706,-0.8725,9.8,0.0138,0.0242,9.8065,-0.1298,0.454,-0.1874,-11.75,-36.75,32.5,243.24,-87.71,85.36
42022,52.851807,-1.297669,109.73,28.18,4,163.04,25 / 25,5674814,2019-11-06 17:40:55:276,-0.648,0.8021,8.8317,-0.0383,-0.0053,9.8065,-0.1298,0.3356,-0.1101,-11.69,-36.5,32.0,240.16,-87.84,82.68
42023,52.851807,-1.297669,109.73,28.18,4,163.04,23 / 24,5674914,2019-11-06 17:40:55:376,3.5946,1.2265,10.4505,0.0283,0.0097,9.8065,0.0415,0.2942,-0.0773,-11.19,-36.75,32.13,243.66,-87.74,84.83
42024,52.851807,-1.297669,109.73,28.18,4,163.04,23 / 24,5675013,2019-11-06 17:40:55:475,-0.3281,0.9686,10.5311,-0.0163,0.0062,9.8066,0.0902,-0.0452,-0.0708,-11.5,-36.31,32.13,244.53,-87.88,85.52
42025,52.851807,-1.297669,109.73,28.18,4,163.04,23 / 24,5675113,2019-11-06 17:40:55:575,1.6956,2.0503,10.1114,0.0327,0.0137,9.8065,0.0599,-0.093,0.1008,-11.37,-36.25,31.5,244.79,-87.72,85.94
42026,52.851807,-1.297669,109.73,28.18,4,163.04,23 / 24,5675214,2019-11-06 17:40:55:676,-2.6969,-1.4801,9.9897,0.0333,0.0057,9.8065,-0.1085,-0.3262,0.1597,-11.06,-36.75,31.75,247.02,-87.82,88.17
42027,52.851807,-1.297669,109.73,28.18,4,163.04,23 / 24,5675314,2019-11-06 17:40:55:776,1.217,1.1012,9.2908,0.0477,-0.0042,9.8065,-0.1042,-0.3549,0.2952,-11.75,-36.94,32.19,241.21,-87.98,83.67
42028,52.851807,-1.297669,109.73,28.18,4,163.04,23 / 24,5675415,2019-11-06 17:40:55:877,-2.9337,-1.4412,10.5493,0.053,0.0415,9.8064,0.1311,-0.4424,0.1021,-11.44,-36.5,31.94,239.76,-87.73,80.8
42029,52.851807,-1.297669,109.73,28.18,4,163.04,23 / 24,5675513,2019-11-06 17:40:55:975,0.0324,-0.3429,9.9112,0.0007,-0.0045,9.8065,0.1365,-0.2998,0.1312,-11.37,-36.62,31.44,242.27,-87.67,84.11
42030,52.851807,-1.297669,109.73,28.18,4,163.04,23 / 24,5675613,2019-11-06 17:40:56:075,-3.4604,-0.5371,9.6623,0.0284,0.0242,9.8066,0.1032,-0.3258,0.1245,-11.81,-36.31,32.19,246.05,-87.53,88.97
42031,52.851807,-1.297669,109.73,28.18,4,163.04,23 / 24,5675713,2019-11-06 17:40:56:175,0.8624,-0.1888,10.9045,-0.0312,-0.0161,9.8065,-0.0826,-0.1066,0.1317,-10.75,-36.31,32.44,250.98,-87.78,92.17
42032,52.851807,-1.297669,109.73,28.18,4,163.04,23 / 24,5675814,2019-11-06 17:40:56:276,1.0159,1.1502,9.7341,0.0313,0.0154,9.8066,-0.031,-0.1145,0.0804,-11.44,-36.25,32.0,247.15,-87.65,88.4
42033,52.84965,-1.296743,109.57,26.19,4,167.67,23 / 23,5675914,2019-11-06 17:40:56:376,0.6317,-0.3399,9.0066,-0.0156,-0.0276,9.8065,0.0039,0.1587,-0.0761,-11.19,-36.44,32.0,244.27,-87.64,85.48
42034,52.84965,-1.296743,109.57,26.19,4,167.67,23 / 23,5676013,2019-11-06 17:40:56:475,1.8773,-0.8559,9.8511,-0.0177,0.0023,9.8066,0.007,0.2177,-0.1371,-11.75,-36.06,31.81,246.53,-87.73,89.26
42035,52.84965,-1.296743,109.57,26.19,4,167.67,23 / 23,5676114,2019-11-06 17:40:56:576,-2.1244,-0.3563,9.3282,-0.03,-0.0023,9.8066,-0.0781,0.1714,-0.1033,-10.56,-36.25,32.25,245.25,-87.73,86.4
42036,52.84965,-1.296743,109.57,26.19,4,167.67,23 / 23,5676213,2019-11-06 17:40:56:675,1.1014,-0.3346,10.2521,0.0127,-0.0163,9.8066,-0.0598,0.1303,0.0271,-10.62,-36.44,31.81,245.84,-87.55,87.17
42037,52.84965,-1.296743,109.57,26.19,4,167.67,23 / 23,5676314,2019-11-06 17:40:56:776,-1.6218,0.7457,10.7297,-0.0003,-0.0159,9.8066,0.0169,0.0007,-0.0577,-10.81,-36.44,31.44,247.6,-87.63,89.52
42038,52.84965,-1.296743,109.57,26.19,4,167.67,23 / 23,5676414,2019-11-06 17:40:56:876,-0.8444,0.0599,9.7435,0.0033,-0.0178,9.8066,-0.0454,-0.092,0.0235,-11.12,-36.37,31.81,253.26,-87.65,94.61
42039,52.84965,-1.296743,109.57,26.19,4,167.67,23 / 23,5676513,2019-11-06 17:40:56:975,0.2675,0.923,9.2721,0.0164,-0.0163,9.8066,-0.0689,-0.0132,0.0207,-11.06,-36.06,32.56,253.03,-87.81,93.62
42040,52.84965,-1.296743,109.57,26.19,4,167.67,23 / 23,5676614,2019-11-06 17:40:57:076,-1.2975,-0.4993,9.5662,0.0096,0.0051,9.8066,-0.0652,0.0059,-0.0793,-10.81,-36.37,31.75,253.37,-87.73,94.64
42041,52.84965,-1.296743,109.57,26.19,4,167.67,23 / 23,5676714,2019-11-06 17:40:57:176,-0.9523,-0.4317,9.5943,-0.0024,0.0041,9.8066,0.0096,0.1006,-0.0452,-11.12,-36.19,31.44,249.95,-87.67,91.87
42042,52.84965,-1.296743,109.57,26.19,4,167.67,23 / 23,5676814,2019-11-06 17:40:57:276,-1.5009,-0.6363,10.3807,0.0033,0.0096,9.8066,0.1019,0.0395,-0.1141,-10.44,-36.37,31.63,251.12,-87.53,90.96
42043,52.84965,-1.296743,109.57,26.19,4,167.67,23 / 23,5676914,2019-11-06 17:40:57:376,-0.0958,-0.4681,9.6013,-0.0109,-0.0257,9.8066,-0.0581,0.2112,-0.035,-11.0,-36.19,32.5,256.09,-87.53,96.99
42044,52.84965,-1.296743,109.57,26.19,4,167.67,23 / 23,5677014,2019-11-06 17:40:57:476,1.6107,0.2252,10.1512,-0.0321,-0.0048,9.8066,-0.005,0.2323,-0.0457,-11.37,-36.12,32.38,256.27,-87.68,97.63
42045,52.84965,-1.296743,109.57,26.19,4,167.67,23 / 23,5677113,2019-11-06 17:40:57:575,0.0755,-0.3015,9.6049,-0.027,-0.0106,9.8065,-0.0042,0.0559,-0.0651,-10.75,-36.12,31.63,254.33,-87.67,95.68
42046,52.84965,-1.296743,109.57,26.19,4,167.67,23 / 23,5677214,2019-11-06 17:40:57:676,-0.8069,0.2471,10.8313,0.0121,-0.0032,9.8066,-0.0647,0.0524,0.0604,-11.44,-36.44,32.19,254.73,-87.82,95.93
42047,52.84965,-1.296743,109.57,26.19,4,167.67,23 / 23,5677314,2019-11-06 17:40:57:776,-0.2363,-1.3696,10.0132,0.0043,-0.0192,9.8066,0.0287,-0.0405,-0.0203,-10.87,-36.81,31.69,258.8,-87.68,100.25
42048,52.84965,-1.296743,109.57,26.19,4,167.67,23 / 23,5677414,2019-11-06 17:40:57:876,0.2896,-0.442,9.1337,-0.0121,0.0042,9.8066,0.0072,-0.0335,0.0048,-11.0,-36.62,31.69,261.39,-87.62,102.92
42049,52.84965,-1.296743,109.57,26.19,4,167.67,23 / 23,5677514,2019-11-06 17:40:57:976,-0.3128,-1.0479,10.1021,-0.0228,0.0168,9.8066,0.0909,0.0267,-0.0766,-10.81,-35.75,32.06,256.17,-87.69,97.51
42050,52.84965,-1.296743,109.57,26.19,4,167.67,23 / 23,5677614,2019-11-06 17:40:58:076,0.6203,0.3642,9.5387,0.0162,-0.0227,9.8066,0.0509,0.0212,-0.0545,-11.44,-36.75,32.0,256.29,-87.59,97.81
42051,52.84965,-1.296743,109.57,26.19,4,167.67,23 / 23,5677713,2019-11-06 17:40:58:175,0.0025,-1.5424,10.5244,0.0016,0.0015,9.8066,0.0616,-0.0298,0.0543,-11.5,-36.37,32.19,255.85,-87.67,97.21
42052,52.84965,-1.296743,109.57,26.19,4,167.67,23 / 23,5677813,2019-11-06 17:40:58:275,0.4279,0.1371,9.4279,0.0042,-0.0195,9.8066,0.1118,-0.0684,-0.0324,-11.06,-36.06,31.75,260.63,-87.59,102.13
42053,52.84965,-1.296743,109.57,26.19,4,167.67,24 / 24,5677918,2019-11-06 17:40:58:380,0.9984,-0.4963,10.6448,0.0205,-0.0158,9.8066,-0.0591,-0.0715,0.0166,-11.5,-36.94,31.69,258.32,-87.5,99.96
42054,52.84965,-1.296743,109.57,26.19,4,167.67,24 / 24,5678014,2019-11-06 17:40:58:476,0.0825,-1.1807,10.3043,-0.0167,0.0105,9.8066,-0.0779,-0.0667,0.1119,-10.56,-35.75,31.94,257.42,-87.54,98.93
42055,52.84965,-1.296743,109.57,26.19,4,167.67,24 / 24,5678113,2019-11-06 17:40:58:575,-0.3191,-1.1362,9.3228,-0.0186,0.0105,9.8066,-0.0364,-0.0741,0.0979,-10.94,-36.81,31.75,256.07,-87.61,97.57
42056,52.84965,-1.296743,109.57,26.19,4,167.67,24 / 24,5678213,2019-11-06 17:40:58:675,0.5434,-0.7739,9.6756,-0.0215,-0.0094,9.8066,0.0308,-0.0703,0.0435,-11.56,-35.81,31.88,254.3,-87.62,97.25
42057,52.84965,-1.296743,109.57,26.19,4,167.67,24 / 24,5678314,2019-11-06 17:40:58:776,1.6133,-0.6616,10.005,0.0373,-0.0105,9.8065,-0.0112,-0.1034,0.1118,-11.06,-36.69,32.19,255.02,-87.72,96.39
42058,52.84965,-1.296743,109.57,26.19,4,167.67,24 / 24,5678414,2019-11-06 17:40:58:876,1.1726,-1.4347,10.6272,-0.0278,-0.006,9.8066,-0.0532,-0.0503,0.1699,-11.5,-36.44,32.5,259.75,-87.69,100.53
42059,52.84965,-1.296743,109.57,26.19,4,167.67,24 / 24,5678514,2019-11-06 17:40:58:976,0.0001,0.6642,8.8816,0.0166,0.0213,9.8066,-0.1018,-0.059,-0.0111,-10.62,-36.12,32.19,259.33,-87.65,100.75
42060,52.84965,-1.296743,109.57,26.19,4,167.67,24 / 24,5678614,2019-11-06 17:40:59:076,0.2384,-0.9581,9.873,-0.0257,0.0133,9.8065,-0.0608,0.0301,0.1404,-11.5,-35.81,32.13,255.9,-87.71,97.23
42061,52.84965,-1.296743,109.57,26.19,4,167.67,24 / 24,5678714,2019-11-06 17:40:59:176,-0.2283,-0.9484,10.3621,0.0145,-0.0127,9.8066,0.1289,-0.0767,-0.1461,-11.31,-36.06,31.63,257.24,-87.49,98.8
42062,52.84965,-1.296743,109.57,26.19,4,167.67,24 / 24,5678814,2019-11-06 17:40:59:276,-0.3907,0.3691,9.8286,0.0031,-0.0161,9.8066,0.0078,0.0072,0.0904,-10.87,-36.12,32.13,259.57,-87.63,101.01
42063,52.84965,-1.296743,109.57,26.19,4,167.67,23 / 23,5678914,2019-11-06 17:40:59:376,-0.2674,0.1055,10.0464,-0.0099,-0.0029,9.8066,-0.0119,-0.0723,-0.0587,-11.19,-36.56,32.69,260.4,-87.57,101.37
42064,52.84965,-1.296743,109.57,26.19,4,167.67,23 / 23,5679013,2019-11-06 17:40:59:475,0.0542,-1.1769,9.604,-0.0032,-0.0104,9.8066,-0.07,0.0463,0.1179,-11.25,-36.25,32.13,262.21,-87.76,103.53
42065,52.84965,-1.296743,109.57,26.19,4,167.67,23 / 23,5679113,2019-11-06 17:40:59:575,-0.4765,-1.134,9.665,-0.0346,0.0085,9.8065,-0.0588,-0.057,0.056,-11.06,-36.62,32.0,263.29,-87.62,104.85
42066,52.84965,-1.296743,109.57,26.19,4,167.67,23 / 23,5679213,2019-11-06 17:40:59:675,0.6454,-0.4579,10.2916,0.0082,-0.0011,9.8066,0.0282,-0.1832,0.0508,-11.0,-36.12,32.25,260.21,-87.68,101.6
42067,52.84965,-1.296743,109.57,26.19,4,167.67,23 / 23,5679314,2019-11-06 17:40:59:776,-0.4003,-0.9823,9.8705,-0.0129,-0.0132,9.8066,0.0841,-0.1787,0.1387,-11.06,-36.56,32.5,262.7,-87.65,103.61
42068,52.84965,-1.296743,109.57,26.19,4,167.67,23 / 23,5679414,2019-11-06 17:40:59:876,0.9074,-0.3478,9.806,-0.009,0.0026,9.8066,-0.0593,-0.0826,0.0263,-11.44,-36.44,31.19,258.55,-87.53,100.73
42069,52.84965,-1.296743,109.57,26.19,4,167.67,23 / 23,5679514,2019-11-06 17:40:59:976,-1.268,-0.281,9.2094,-0.0207,-0.0003,9.8066,-0.0915,-0.1346,0.1426,-10.87,-36.56,31.81,257.44,-87.48,99.1
42070,52.84965,-1.296743,109.57,26.19,4,167.67,23 / 23,5679614,2019-11-06 17:41:00:076,0.6595,0.0745,9.6653,-0.0197,-0.0229,9.8066,0.0593,-0.1069,0.0742,-11.06,-36.19,32.13,261.54,-87.51,103.12
42071,52.84965,-1.296743,109.57,26.19,4,167.67,23 / 23,5679714,2019-11-06 17:41:00:176,-0.9622,-0.7147,10.1572,-0.0063,-0.0013,9.8066,0.0339,-0.1222,0.0038,-10.62,-36.25,32.25,261.25,-87.5,102.84
42072,52.84965,-1.296743,109.57,26.19,4,167.67,23 / 23,5679813,2019-11-06 17:41:00:275,0.3484,1.2935,9.5037,-0.0157,-0.0232,9.8065,0.079,-0.0746,0.0258,-11.06,-37.0,32.38,262.44,-87.62,103.98
42073,52.84965,-1.296743,109.57,26.19,4,167.67,24 / 25,5679915,2019-11-06 17:41:00:377,-0.6337,1.2743,9.8665,0.0012,0.0024,9.8066,0.0319,-0.0798,-0.0369,-11.12,-36.31,32.0,260.81,-87.71,102.18
42074,52.84965,-1.296743,109.57,26.19,4,167.67,24 / 25,5680013,2019-11-06 17:41:00:475,0.4192,-0.0505,9.8857,-0.0254,-0.0041,9.8065,0.0837,0.0833,-0.0041,-10.94,-36.37,31.88,261.72,-87.82,102.97
42075,52.84965,-1.296743,109.57,26.19,4,167.67,24 / 25,5680113,2019-11-06 17:41:00:575,-0.2268,-1.1354,9.6125,0.0094,0.0216,9.8066,0.0281,0.0084,-0.119,-10.44,-36.37,31.38,265.35,-87.77,105.68
42076,52.84965,-1.296743,109.57,26.19,4,167.67,24 / 25,5680214,2019-11-06 17:41:00:676,-1.42,0.3422,9.8314,-0.0134,-0.0054,9.8065,-0.0169,0.1327,0.0409,-11.31,-36.44,32.13,260.68,-87.84,101.91
42077,52.84965,-1.296743,109.57,26.19,4,167.67,24 / 25,5680314,2019-11-06 17:41:00:776,-0.7667,0.4582,9.7464,0.0147,0.0035,9.8066,0.0331,0.111,-0.0745,-10.81,-36.25,31.75,257.89,-87.9,99.05
42078,52.84965,-1.296743,109.57,26.19,4,167.67,24 / 25,5680414,2019-11-06 17:41:00:876,-0.8681,0.5314,9.7103,-0.0086,-0.0033,9.8066,-0.0822,0.072,0.0135,-10.62,-36.5,31.69,255.94,-87.99,96.98
42079,52.84965,-1.296743,109.57,26.19,4,167.67,24 / 25,5680513,2019-11-06 17:41:00:975,0.136,-1.0369,10.0827,0.0108,-0.0017,9.8065,-0.0291,0.0191,0.0125,-11.5,-35.62,32.13,255.75,-87.83,96.95
42080,52.84965,-1.296743,109.57,26.19,4,167.67,24 / 25,5680613,2019-11-06 17:41:01:075,0.0042,0.0221,10.5102,0.0248,0.0062,9.8066,0.0516,-0.0362,-0.1127,-9.94,-36.19,32.06,256.74,-87.67,96.52
42081,52.84965,-1.296743,109.57,26.19,4,167.67,24 / 25,5680714,2019-11-06 17:41:01:176,0.5739,0.1983,9.9592,-0.0055,0.0153,9.8066,-0.1717,0.0101,-0.0242,-10.69,-36.81,32.31,254.77,-87.5,96.37
42082,52.84965,-1.296743,109.57,26.19,4,167.67,24 / 25,5680814,2019-11-06 17:41:01:276,0.3661,1.7077,11.2607,0.0082,0.0117,9.8066,-0.0643,-0.1495,0.1259,-9.94,-36.0,32.06,256.04,-87.29,96.2
42083,52.84965,-1.296743,109.57,26.19,4,167.67,24 / 24,5680914,2019-11-06 17:41:01:376,2.6348,-0.6592,9.5196,-0.0024,-0.0239,9.8066,-0.0781,-0.1437,0.1174,-10.31,-36.81,32.19,251.83,-87.37,91.92
42084,52.84965,-1.296743,109.57,26.19,4,167.67,24 / 24,5681013,2019-11-06 17:41:01:475,0.799,0.3511,9.8276,0.005,0.0102,9.8066,0.2351,-0.2514,-0.0014,-11.0,-36.25,32.25,247.82,-87.46,89.28
42085,52.84965,-1.296743,109.57,26.19,4,167.67,24 / 24,5681113,2019-11-06 17:41:01:575,-1.3645,-0.7065,10.0715,-0.0131,-0.0195,9.8066,0.1693,-0.1885,-0.0154,-11.0,-36.37,32.44,247.7,-87.64,88.98
42086,52.84965,-1.296743,109.57,26.19,4,167.67,24 / 24,5681213,2019-11-06 17:41:01:675,-0.0529,-0.0215,10.004,0.0014,0.0155,9.8066,0.0116,-0.0469,0.0499,-10.75,-36.0,32.0,246.6,-87.45,88.04
42087,52.84965,-1.296743,109.57,26.19,4,167.67,24 / 24,5681313,2019-11-06 17:41:01:775,0.131,0.8372,10.6836,-0.0094,-0.0134,9.8065,0.029,-0.1291,0.0253,-10.75,-36.44,32.13,247.72,-87.4,89.23
42088,52.84965,-1.296743,109.57,26.19,4,167.67,24 / 24,5681414,2019-11-06 17:41:01:876,1.5544,0.8953,9.6875,0.021,-0.021,9.8065,-0.0075,-0.0112,0.0733,-10.69,-35.94,32.56,253.94,-87.35,94.99
42089,52.84965,-1.296743,109.57,26.19,4,167.67,24 / 24,5681514,2019-11-06 17:41:01:976,-0.1474,0.9457,10.6252,-0.0065,-0.0108,9.8066,-0.0448,0.0632,-0.0018,-11.12,-35.69,31.94,253.84,-87.41,95.44
42090,52.84965,-1.296743,109.57,26.19,4,167.67,24 / 24,5681613,2019-11-06 17:41:02:075,0.7888,0.3425,9.9794,0.0,-0.0086,9.8066,-0.0111,0.0976,0.0064,-10.81,-36.87,31.56,254.08,-87.47,95.7
42091,52.84965,-1.296743,109.57,26.19,4,167.67,24 / 24,5681713,2019-11-06 17:41:02:175,0.2422,0.3576,9.691,0.0075,0.0022,9.8066,0.0544,0.0464,-0.0445,-10.75,-36.12,32.31,253.45,-87.43,95.03
42092,52.84965,-1.296743,109.57,26.19,4,167.67,24 / 24,5681813,2019-11-06 17:41:02:275,0.6986,-0.0485,9.1465,-0.0082,0.0196,9.8066,-0.0614,-0.0498,0.021,-10.25,-36.19,31.94,254.27,-87.35,94.36
42093,52.84965,-1.296743,109.57,26.19,4,167.67,25 / 25,5681914,2019-11-06 17:41:02:376,0.4216,0.8022,9.7678,-0.0031,0.0045,9.8066,-0.0804,0.0796,0.0796,-9.94,-36.0,31.75,253.41,-87.29,93.54
42094,52.84965,-1.296743,109.57,26.19,4,167.67,25 / 25,5682014,2019-11-06 17:41:02:476,-1.572,-0.4001,10.7764,-0.0342,0.0387,9.8064,0.1817,-0.2736,-0.0401,-11.12,-36.19,32.63,245.27,-87.47,86.07
42095,52.84965,-1.296743,109.57,26.19,4,167.67,25 / 25,5682114,2019-11-06 17:41:02:576,-0.9471,-0.035,8.7933,-0.0539,0.0253,9.8064,-0.0528,0.0571,-0.0253,-11.31,-36.37,32.13,242.4,-87.78,83.45
42096,52.84965,-1.296743,109.57,26.19,4,167.67,25 / 25,5682213,2019-11-06 17:41:02:675,0.7439,1.2986,9.4845,-0.0391,0.0044,9.8066,-0.2153,0.0811,-0.0594,-10.69,-36.44,32.75,238.97,-87.94,79.22
42097,52.84965,-1.296743,109.57,26.19,4,167.67,25 / 25,5682313,2019-11-06 17:41:02:775,0.2539,0.5263,9.724,0.0004,-0.0156,9.8066,-0.0261,0.0565,0.0242,-10.75,-36.56,32.44,232.13,-87.88,72.91
42098,52.84965,-1.296743,109.57,26.19,4,167.67,25 / 25,5682414,2019-11-06 17:41:02:876,1.5414,-0.2937,8.9686,-0.001,-0.0078,9.8066,-0.0635,0.1214,-0.0831,-10.81,-36.06,32.38,232.74,-87.95,73.43
42099,52.84965,-1.296743,109.57,26.19,4,167.67,25 / 25,5682514,2019-11-06 17:41:02:976,-1.7905,-0.9968,9.803,-0.0166,-0.0329,9.8065,-0.0497,0.1432,-0.0202,-11.19,-36.19,32.19,230.62,-87.87,71.33
42100,52.84965,-1.296743,109.57,26.19,4,167.67,25 / 25,5682614,2019-11-06 17:41:03:076,0.1613,-0.4391,9.3892,-0.0114,-0.0041,9.8066,-0.0023,0.1169,-0.0119,-11.31,-36.25,31.81,230.95,-88.05,71.52
42101,52.84965,-1.296743,109.57,26.19,4,167.67,25 / 25,5682714,2019-11-06 17:41:03:176,-1.4723,-0.257,9.5484,-0.0351,-0.0063,9.8065,-0.0615,0.2083,-0.1193,-11.37,-36.62,32.38,227.86,-88.31,68.19
42102,52.84965,-1.296743,109.57,26.19,4,167.67,25 / 25,5682814,2019-11-06 17:41:03:276,1.834,0.5263,10.2036,-0.0224,-0.0066,9.8066,0.0138,0.3183,-0.1817,-10.87,-36.62,31.81,228.16,-88.28,68.52
42103,52.84965,-1.296743,109.57,26.19,4,167.67,24 / 25,5682914,2019-11-06 17:41:03:376,1.8369,-0.1805,11.1087,0.0236,-0.023,9.8065,0.1173,0.2222,-0.1714,-10.81,-36.06,31.94,228.24,-88.27,68.57
42104,52.84965,-1.296743,109.57,26.19,4,167.67,24 / 25,5683013,2019-11-06 17:41:03:475,-1.0095,0.7255,9.7657,-0.0211,-0.0097,9.8065,-0.0754,0.1189,-0.0837,-10.25,-36.0,31.94,233.15,-88.39,71.88
42105,52.84965,-1.296743,109.57,26.19,4,167.67,24 / 25,5683113,2019-11-06 17:41:03:575,-2.5691,0.1266,9.8933,0.0059,0.0089,9.8066,0.0216,0.1837,0.0009,-10.69,-36.56,32.69,230.06,-88.42,69.77
42106,52.84965,-1.296743,109.57,26.19,4,167.67,24 / 25,5683214,2019-11-06 17:41:03:676,1.0403,0.471,10.1164,0.0227,0.003,9.8066,0.0257,0.1586,-0.1438,-10.87,-36.12,32.44,230.07,-88.37,70.36
42107,52.84965,-1.296743,109.57,26.19,4,167.67,24 / 25,5683314,2019-11-06 17:41:03:776,-1.741,-0.7656,9.7708,0.0297,0.02,9.8065,-0.0938,0.0734,-0.0177,-10.87,-36.69,32.63,231.18,-88.25,71.05
42108,52.84965,-1.296743,109.57,26.19,4,167.67,24 / 25,5683414,2019-11-06 17:41:03:876,1.1943,-0.8018,9.4121,-0.0158,0.0197,9.8066,-0.0146,0.0769,0.0335,-11.0,-36.06,31.81,233.48,-88.28,73.91
42109,52.84965,-1.296743,109.57,26.19,4,167.67,24 / 25,5683513,2019-11-06 17:41:03:975,-0.4941,0.7696,10.4329,0.0203,0.018,9.8066,-0.035,-0.1306,-0.0098,-11.12,-36.5,32.0,226.08,-88.19,66.42
42110,52.84965,-1.296743,109.57,26.19,4,167.67,24 / 25,5683614,2019-11-06 17:41:04:076,1.237,0.0161,10.1449,-0.0271,-0.0019,9.8066,-0.0701,-0.1176,0.1215,-10.62,-36.31,32.06,228.64,-88.35,68.91
42111,52.84965,-1.296743,109.57,26.19,4,167.67,24 / 25,5683714,2019-11-06 17:41:04:176,-1.6733,0.1376,9.854,0.0212,-0.003,9.8066,0.0542,-0.1514,0.0353,-10.87,-35.81,32.19,232.82,-88.19,73.31
42112,52.84965,-1.296743,109.57,26.19,4,167.67,24 / 25,5683814,2019-11-06 17:41:04:276,-0.8806,-1.4893,10.3614,-0.0105,-0.0148,9.8066,0.012,-0.1774,0.0297,-10.5,-35.75,32.31,232.69,-88.32,71.46
42113,52.84965,-1.296743,109.57,26.19,4,167.67,25 / 25,5683914,2019-11-06 17:41:04:376,-0.1035,-2.4765,10.2661,0.0067,-0.0153,9.8066,0.1417,-0.1753,0.0706,-10.19,-36.06,31.94,234.54,-88.37,73.31
42114,52.84965,-1.296743,109.57,26.19,4,167.67,25 / 25,5684014,2019-11-06 17:41:04:476,-1.7778,-0.5995,9.6537,0.0062,-0.0123,9.8066,0.1245,-0.1494,-0.0863,-10.69,-36.12,32.0,230.34,-88.41,70.6
42115,52.84965,-1.296743,109.57,26.19,4,167.67,25 / 25,5684114,2019-11-06 17:41:04:576,1.6156,0.8812,9.8524,-0.0237,-0.0096,9.8066,0.0299,-0.042,0.1568,-10.62,-35.06,32.06,233.74,-88.36,74.07
42116,52.84965,-1.296743,109.57,26.19,4,167.67,25 / 25,5684214,2019-11-06 17:41:04:676,-0.0303,-0.0573,9.5613,-0.0097,-0.0043,9.8066,0.0149,-0.0563,0.0636,-10.5,-36.12,32.31,233.9,-88.22,72.79
42117,52.84965,-1.296743,109.57,26.19,4,167.67,25 / 25,5684313,2019-11-06 17:41:04:775,0.9859,-0.8666,10.1622,-0.0274,0.0147,9.8065,-0.0529,-0.0019,-0.0211,-10.81,-36.12,32.19,229.53,-88.39,69.79
42118,52.84965,-1.296743,109.57,26.19,4,167.67,25 / 25,5684413,2019-11-06 17:41:04:875,0.1819,-1.218,9.2852,-0.0097,0.0108,9.8066,-0.0384,0.0119,0.0391,-10.19,-35.69,31.88,227.82,-88.32,66.5
42119,52.84965,-1.296743,109.57,26.19,4,167.67,25 / 25,5684514,2019-11-06 17:41:04:976,-0.76,-0.304,9.7683,0.0032,0.0222,9.8066,0.0124,-0.0842,-0.0131,-9.81,-36.31,32.0,228.41,-88.24,67.16
42120,52.84965,-1.296743,109.57,26.19,4,167.67,25 / 25,5684614,2019-11-06 17:41:05:076,0.753,-0.8127,9.9206,-0.0089,-0.01,9.8066,-0.0386,-0.1011,0.0486,-10.06,-35.94,31.69,230.45,-88.22,69.27
42121,52.84965,-1.296743,109.57,26.19,4,167.67,25 / 25,5684714,2019-11-06 17:41:05:176,-0.3551,-0.3027,9.5098,0.0165,0.0036,9.8065,0.0338,-0.0214,-0.0511,-10.62,-35.87,32.06,227.76,-88.27,68.07
42122,52.84965,-1.296743,109.57,26.19,4,167.67,25 / 25,5684814,2019-11-06 17:41:05:276,0.1033,-1.4714,10.4801,0.0043,-0.0032,9.8066,0.031,0.0741,-0.1008,-10.06,-36.0,31.94,230.05,-88.16,68.9
42123,52.847595,-1.296066,109.6,25.8,4,170.63,23 / 24,5684914,2019-11-06 17:41:05:376,1.3449,-0.601,9.1897,-0.0002,0.0016,9.8066,-0.0457,0.1765,-0.0284,-10.69,-35.87,31.63,233.94,-88.03,74.59
42124,52.847595,-1.296066,109.6,25.8,4,170.63,23 / 24,5685013,2019-11-06 17:41:05:475,0.2313,0.5378,9.7156,0.0025,0.0094,9.8066,0.0415,0.0369,-0.0874,-10.69,-36.37,31.75,231.17,-87.92,71.85
42125,52.847595,-1.296066,109.6,25.8,4,170.63,23 / 24,5685113,2019-11-06 17:41:05:575,1.2028,0.1804,9.5317,-0.0033,-0.0139,9.8066,-0.0799,0.0938,0.0251,-10.44,-36.87,31.94,234.36,-87.93,73.55
42126,52.847595,-1.296066,109.6,25.8,4,170.63,23 / 24,5685214,2019-11-06 17:41:05:676,0.6801,-0.097,10.2231,0.0144,0.0017,9.8066,-0.0111,0.0224,-0.0064,-11.0,-35.87,32.06,230.25,-88.0,70.84
42127,52.847595,-1.296066,109.6,25.8,4,170.63,23 / 24,5685314,2019-11-06 17:41:05:776,-1.688,-0.6493,9.6398,0.0035,-0.0012,9.8066,0.0071,-0.0255,0.1109,-10.44,-35.69,31.5,234.74,-88.07,73.78
42128,52.847595,-1.296066,109.6,25.8,4,170.63,23 / 24,5685414,2019-11-06 17:41:05:876,0.9445,-3.0092,8.977,0.0184,0.0222,9.8065,0.1249,-0.2834,-0.0119,-11.0,-36.0,31.44,229.69,-88.36,70.58
42129,52.847595,-1.296066,109.6,25.8,4,170.63,23 / 24,5685514,2019-11-06 17:41:05:976,-1.752,-3.7482,9.6645,0.0142,0.0197,9.8066,0.0484,-0.3887,0.2116,-11.25,-36.06,31.81,233.43,-88.25,73.88
42130,52.847595,-1.296066,109.6,25.8,4,170.63,23 / 24,5685614,2019-11-06 17:41:06:076,0.1486,0.9189,9.4849,0.0183,0.0276,9.8066,0.1112,-0.2801,-0.0234,-11.25,-35.94,31.63,227.7,-88.18,68.08
42131,52.847595,-1.296066,109.6,25.8,4,170.63,23 / 24,5685714,2019-11-06 17:41:06:176,-2.2794,-0.0113,10.2452,0.0312,0.0025,9.8066,-0.0219,-0.2347,0.0214,-11.5,-35.19,32.19,238.12,-88.13,78.73
42132,52.847595,-1.296066,109.6,25.8,4,170.63,23 / 24,5685814,2019-11-06 17:41:06:276,1.8541,0.4162,10.2454,0.0033,-0.0124,9.8066,-0.1184,-0.1411,0.1389,-11.44,-35.94,32.31,237.05,-88.05,77.74
42133,52.847595,-1.296066,109.6,25.8,4,170.63,24 / 24,5685927,2019-11-06 17:41:06:389,0.3037,0.2568,8.3573,0.0294,-0.0055,9.8066,-0.0977,-0.0233,0.098,-10.94,-35.69,32.75,237.92,-88.08,78.03
42134,52.847595,-1.296066,109.6,25.8,4,170.63,24 / 24,5686014,2019-11-06 17:41:06:476,0.9064,-3.2241,9.7085,0.0337,-0.0438,9.8065,0.1713,-0.0176,-0.036,-10.62,-35.37,32.31,245.6,-88.02,86.43
42135,52.847595,-1.296066,109.6,25.8,4,170.63,24 / 24,5686114,2019-11-06 17:41:06:576,-1.5521,-0.1596,9.0448,-0.0071,0.0389,9.8065,0.1915,-0.0818,-0.1249,-10.25,-35.87,33.19,248.56,-87.89,87.46
42136,52.847595,-1.296066,109.6,25.8,4,170.63,24 / 24,5686214,2019-11-06 17:41:06:676,1.573,0.3711,11.2175,-0.027,-0.0103,9.8065,-0.1087,0.0523,0.0861,-9.87,-35.87,32.75,252.4,-87.77,91.47
42137,52.847595,-1.296066,109.6,25.8,4,170.63,24 / 24,5686314,2019-11-06 17:41:06:776,0.7265,-0.7242,10.33,0.0183,-0.0259,9.8065,-0.1833,0.1693,0.0846,-10.0,-36.0,32.38,253.51,-88.05,92.86
42138,52.847595,-1.296066,109.6,25.8,4,170.63,24 / 24,5686414,2019-11-06 17:41:06:876,-1.7826,-0.3109,10.4833,-0.0088,0.0096,9.8066,-0.0792,0.0548,-0.0528,-10.25,-36.37,33.0,252.23,-88.21,90.86
42139,52.847595,-1.296066,109.6,25.8,4,170.63,24 / 24,5686514,2019-11-06 17:41:06:976,0.4419,-1.0986,9.102,0.0209,-0.0048,9.8066,0.065,0.1821,-0.052,-10.06,-35.0,32.19,251.65,-88.26,90.71
42140,52.847595,-1.296066,109.6,25.8,4,170.63,24 / 24,5686614,2019-11-06 17:41:07:076,-1.7678,0.4821,10.2991,0.0286,-0.0002,9.8066,0.1008,0.0102,-0.1521,-9.94,-35.44,32.5,248.36,-88.28,86.83
42141,52.847595,-1.296066,109.6,25.8,4,170.63,24 / 24,5686714,2019-11-06 17:41:07:176,-0.5308,0.1053,9.944,0.0089,-0.0027,9.8066,-0.0269,0.0075,-0.0267,-9.87,-35.81,32.06,250.22,-88.3,89.29
42142,52.847595,-1.296066,109.6,25.8,4,170.63,24 / 24,5686814,2019-11-06 17:41:07:276,-0.8167,-0.0348,10.0684,0.0112,-0.0035,9.8066,-0.0489,0.0843,-0.049,-9.69,-35.62,32.63,256.9,-88.08,95.71
42143,52.847595,-1.296066,109.6,25.8,4,170.63,24 / 25,5686917,2019-11-06 17:41:07:379,0.6426,-0.1378,10.9479,-0.0047,0.0106,9.8066,-0.1352,-0.0157,0.0102,-10.5,-35.56,32.81,260.0,-88.08,98.83
42144,52.847595,-1.296066,109.6,25.8,4,170.63,24 / 25,5687014,2019-11-06 17:41:07:476,-2.3187,0.8907,8.5902,0.0282,-0.0028,9.8065,0.0487,0.0525,-0.058,-9.62,-35.37,32.5,254.99,-88.07,93.73
42145,52.847595,-1.296066,109.6,25.8,4,170.63,24 / 25,5687113,2019-11-06 17:41:07:575,0.0985,0.9795,9.8449,0.0208,0.0083,9.8065,0.0743,-0.0391,-0.1128,-9.75,-34.87,32.5,245.15,-88.2,83.66
42146,52.847595,-1.296066,109.6,25.8,4,170.63,24 / 25,5687213,2019-11-06 17:41:07:675,-2.1834,-0.4362,9.9733,0.0238,-0.0122,9.8065,0.1422,-0.132,0.0494,-8.87,-34.94,32.0,246.04,-88.16,83.51
42147,52.847595,-1.296066,109.6,25.8,4,170.63,24 / 25,5687313,2019-11-06 17:41:07:775,-0.1514,0.1669,9.808,0.0157,-0.0013,9.8066,0.0789,-0.1313,-0.0141,-9.75,-34.75,32.0,244.57,-88.14,83.67
42148,52.847595,-1.296066,109.6,25.8,4,170.63,24 / 25,5687414,2019-11-06 17:41:07:876,-0.8057,-0.3382,9.9593,-0.0032,0.0167,9.8066,-0.039,-0.0342,0.0875,-9.75,-34.87,30.94,247.2,-88.01,87.03
42149,52.847595,-1.296066,109.6,25.8,4,170.63,24 / 25,5687514,2019-11-06 17:41:07:976,1.1164,-0.0096,9.2944,-0.0152,0.0202,9.8066,-0.0235,-0.0842,0.0694,-10.0,-35.31,31.5,249.42,-87.96,88.75
42150,52.847595,-1.296066,109.6,25.8,4,170.63,24 / 25,5687614,2019-11-06 17:41:08:076,0.7063,-0.3971,10.033,0.0138,0.0003,9.8066,-0.1321,-0.0527,0.1044,-9.75,-36.0,31.94,246.79,-87.95,86.16
42151,52.847595,-1.296066,109.6,25.8,4,170.63,24 / 25,5687714,2019-11-06 17:41:08:176,0.8689,-0.3358,10.3467,0.0023,-0.0078,9.8066,-0.0553,-0.0327,0.0637,-9.25,-35.81,31.75,246.78,-88.02,84.45
42152,52.847595,-1.296066,109.6,25.8,4,170.63,24 / 25,5687814,2019-11-06 17:41:08:276,-1.4206,-0.5258,9.5157,0.0185,-0.0076,9.8066,0.1033,-0.2327,0.153,-9.69,-35.44,32.5,247.75,-88.07,86.42
42153,52.847595,-1.296066,109.6,25.8,4,170.63,22 / 22,5687914,2019-11-06 17:41:08:376,-0.308,0.4737,10.743,0.0129,-0.0174,9.8066,0.0639,-0.2221,0.1159,-10.37,-35.37,31.81,243.8,-88.16,82.87
42154,52.847595,-1.296066,109.6,25.8,4,170.63,22 / 22,5688014,2019-11-06 17:41:08:476,0.7688,0.6439,9.0168,-0.0023,0.0159,9.8066,0.1272,-0.2081,0.0094,-10.25,-35.31,32.63,242.5,-88.21,80.97
42155,52.847595,-1.296066,109.6,25.8,4,170.63,22 / 22,5688114,2019-11-06 17:41:08:576,0.267,0.976,9.4523,-0.0221,0.0177,9.8065,-0.0075,-0.1431,0.0755,-9.69,-36.44,32.81,236.34,-88.23,74.72
42156,52.847595,-1.296066,109.6,25.8,4,170.63,22 / 22,5688213,2019-11-06 17:41:08:675,0.2866,-0.8307,9.3767,0.018,0.0245,9.8066,0.0016,-0.0258,-0.0565,-9.5,-35.5,32.63,235.91,-88.01,72.83
42157,52.847595,-1.296066,109.6,25.8,4,170.63,22 / 22,5688314,2019-11-06 17:41:08:776,-0.6462,1.2627,10.3777,0.0036,0.0072,9.8066,-0.0379,-0.0332,-0.0209,-9.81,-35.75,32.25,233.22,-87.87,72.38
42158,52.847595,-1.296066,109.6,25.8,4,170.63,22 / 22,5688414,2019-11-06 17:41:08:876,-1.4381,0.0111,10.4669,0.0159,-0.0094,9.8066,-0.0532,-0.0962,0.043,-9.44,-36.06,32.81,236.91,-87.78,74.1
42159,52.847595,-1.296066,109.6,25.8,4,170.63,22 / 22,5688514,2019-11-06 17:41:08:976,-0.5058,0.9348,8.8762,-0.0255,-0.017,9.8066,0.1096,-0.0384,0.0437,-9.69,-35.06,32.56,231.77,-87.76,70.39
42160,52.847595,-1.296066,109.6,25.8,4,170.63,22 / 22,5688613,2019-11-06 17:41:09:075,0.3912,0.7608,10.0507,-0.0128,0.0239,9.8065,0.0153,-0.077,0.0239,-9.62,-35.94,32.56,229.46,-87.97,67.91
42161,52.847595,-1.296066,109.6,25.8,4,170.63,22 / 22,5688714,2019-11-06 17:41:09:176,-0.1797,0.514,8.8354,-0.0054,0.0083,9.8066,0.085,-0.0325,-0.0387,-9.25,-36.37,32.63,227.04,-87.96,63.85
42162,52.847595,-1.296066,109.6,25.8,4,170.63,22 / 22,5688814,2019-11-06 17:41:09:276,-0.0712,0.8487,10.3497,-0.0111,0.0093,9.8066,0.0919,0.0046,-0.0958,-9.37,-36.12,32.19,226.36,-87.98,63.63
42163,52.847595,-1.296066,109.6,25.8,4,170.63,23 / 23,5688914,2019-11-06 17:41:09:376,-0.9664,-1.0614,10.0691,-0.0161,-0.0034,9.8066,-0.0857,0.0697,0.0067,-9.94,-35.87,32.44,233.09,-87.88,72.24
42164,52.847595,-1.296066,109.6,25.8,4,170.63,23 / 23,5689014,2019-11-06 17:41:09:476,0.2298,0.0589,8.9317,0.0188,-0.0079,9.8065,-0.0844,0.0498,0.0319,-9.44,-36.0,32.56,235.6,-87.81,72.74
42165,52.847595,-1.296066,109.6,25.8,4,170.63,23 / 23,5689114,2019-11-06 17:41:09:576,1.3766,-0.6332,9.4391,0.0107,-0.0193,9.8066,-0.0707,-0.0556,0.1019,-10.0,-35.87,32.44,236.27,-87.78,75.58
42166,52.847595,-1.296066,109.6,25.8,4,170.63,23 / 23,5689213,2019-11-06 17:41:09:675,0.2442,-0.253,9.5664,0.0069,-0.0002,9.8065,-0.0305,0.0177,0.0556,-9.44,-35.75,32.75,238.38,-87.86,75.54
42167,52.847595,-1.296066,109.6,25.8,4,170.63,23 / 23,5689314,2019-11-06 17:41:09:776,0.3092,0.1541,9.4266,-0.0048,0.0029,9.8066,0.0628,-0.0941,0.0028,-9.94,-36.06,32.5,237.91,-87.89,76.62
42168,52.847595,-1.296066,109.6,25.8,4,170.63,23 / 23,5689414,2019-11-06 17:41:09:876,-0.4559,-0.7911,10.2591,0.02,-0.0074,9.8066,-0.0408,-0.1286,0.1511,-9.81,-35.62,33.19,241.85,-87.87,80.65
42169,52.847595,-1.296066,109.6,25.8,4,170.63,23 / 23,5689513,2019-11-06 17:41:09:975,-0.2474,0.4688,9.2105,-0.0138,-0.0071,9.8066,0.1259,-0.0278,-0.0823,-10.0,-35.62,32.69,243.09,-88.07,81.73
42170,52.847595,-1.296066,109.6,25.8,4,170.63,23 / 23,5689614,2019-11-06 17:41:10:076,0.9507,-0.6228,10.596,-0.0096,-0.0023,9.8066,0.0723,0.0363,-0.0933,-9.87,-35.19,32.75,246.86,-88.21,85.38
42171,52.847595,-1.296066,109.6,25.8,4,170.63,23 / 23,5689714,2019-11-06 17:41:10:176,0.956,-1.1377,10.587,-0.0138,-0.001,9.8065,-0.0936,0.0595,-0.0336,-9.44,-35.56,33.06,245.53,-88.27,82.43
42172,52.847595,-1.296066,109.6,25.8,4,170.63,23 / 23,5689814,2019-11-06 17:41:10:276,-0.05,0.2973,8.9925,0.025,-0.0171,9.8065,-0.1736,0.084,0.0518,-10.19,-35.5,32.56,243.93,-88.17,82.44
42173,52.847595,-1.296066,109.6,25.8,4,170.63,23 / 24,5689914,2019-11-06 17:41:10:376,-0.2304,-1.4861,9.0378,0.0281,-0.0099,9.8065,-0.0236,0.1334,-0.0405,-9.75,-36.06,32.56,239.86,-88.24,78.3
42174,52.847595,-1.296066,109.6,25.8,4,170.63,23 / 24,5690014,2019-11-06 17:41:10:476,2.649,-1.2601,10.9181,-0.0343,0.0314,9.8065,0.143,0.1295,-0.2257,-9.62,-35.31,32.69,238.28,-88.03,76.83
42175,52.847595,-1.296066,109.6,25.8,4,170.63,23 / 24,5690114,2019-11-06 17:41:10:576,0.1727,-0.8628,10.4716,-0.0611,0.0251,9.8064,0.0724,0.044,-0.1214,-9.19,-35.94,33.5,236.74,-88.08,73.19
42176,52.847595,-1.296066,109.6,25.8,4,170.63,23 / 24,5690213,2019-11-06 17:41:10:675,0.081,1.6061,9.4957,0.002,-0.007,9.8066,0.1354,0.0608,0.0196,-9.06,-35.37,32.81,236.43,-88.06,73.32
42177,52.847595,-1.296066,109.6,25.8,4,170.63,23 / 24,5690314,2019-11-06 17:41:10:776,0.0033,-2.1496,10.8199,0.0007,-0.0265,9.8066,-0.0635,-0.0417,-0.0131,-8.19,-35.62,33.06,241.6,-88.1,76.99
42178,52.847595,-1.296066,109.6,25.8,4,170.63,23 / 24,5690414,2019-11-06 17:41:10:876,1.3541,-1.7266,10.3451,0.0067,-0.0208,9.8066,-0.0534,-0.0251,0.0966,-8.25,-35.19,32.44,247.94,-88.22,83.72
42179,52.847595,-1.296066,109.6,25.8,4,170.63,23 / 24,5690514,2019-11-06 17:41:10:976,-2.0344,-0.4196,9.1148,0.005,-0.0174,9.8066,-0.1636,0.0243,0.0933,-8.19,-35.69,32.44,248.24,-88.31,83.98
42180,52.847595,-1.296066,109.6,25.8,4,170.63,23 / 24,5690614,2019-11-06 17:41:11:076,0.8453,-1.6691,9.9328,-0.0458,0.0253,9.8065,-0.0269,-0.0025,-0.0266,-8.06,-35.56,33.19,242.75,-88.4,77.87
42181,52.847595,-1.296066,109.6,25.8,4,170.63,23 / 24,5690713,2019-11-06 17:41:11:175,-1.1324,-0.4227,10.6372,-0.0089,0.0215,9.8066,0.0778,-0.0358,0.0328,-8.75,-34.69,32.19,237.92,-88.26,75.17
42182,52.847595,-1.296066,109.6,25.8,4,170.63,23 / 24,5690813,2019-11-06 17:41:11:275,1.1308,0.9699,8.7959,-0.0119,-0.0146,9.8066,0.125,0.0369,-0.0139,-9.25,-35.62,32.63,241.7,-88.28,78.54
42183,52.847595,-1.296066,109.6,25.8,4,170.63,24 / 24,5690913,2019-11-06 17:41:11:375,0.6463,-0.3773,10.4285,0.0166,-0.0081,9.8066,0.0183,-0.1479,0.0317,-7.94,-35.44,33.63,244.74,-88.07,79.72
42184,52.847595,-1.296066,109.6,25.8,4,170.63,24 / 24,5691014,2019-11-06 17:41:11:476,2.4371,-0.4844,9.9635,-0.0211,-0.016,9.8066,0.0195,-0.1482,0.1921,-8.5,-35.62,32.75,244.64,-88.17,80.01
42185,52.847595,-1.296066,109.6,25.8,4,170.63,24 / 24,5691114,2019-11-06 17:41:11:576,-1.3125,0.4363,8.7198,-0.0121,0.0172,9.8066,-0.0825,-0.1542,0.0944,-8.19,-35.62,32.75,244.33,-88.12,79.75
42186,52.847595,-1.296066,109.6,25.8,4,170.63,24 / 24,5691214,2019-11-06 17:41:11:676,0.005,-1.6448,11.1061,-0.0355,-0.0013,9.8065,0.1027,-0.2034,0.1321,-8.31,-35.44,33.0,245.27,-88.25,80.52
42187,52.847595,-1.296066,109.6,25.8,4,170.63,24 / 24,5691313,2019-11-06 17:41:11:775,-0.4084,-1.5019,10.6268,-0.0001,0.0035,9.8066,0.1684,-0.1759,-0.1225,-8.06,-34.69,32.94,248.23,-88.19,83.58
42188,52.847595,-1.296066,109.6,25.8,4,170.63,24 / 24,5691413,2019-11-06 17:41:11:875,-0.9858,-1.3225,9.8524,0.0305,-0.0165,9.8065,0.0272,-0.1841,0.0297,-8.19,-35.12,33.25,247.01,-88.27,82.27
42189,52.847595,-1.296066,109.6,25.8,4,170.63,24 / 24,5691514,2019-11-06 17:41:11:976,1.2847,-0.4588,9.8292,0.0194,-0.0059,9.8066,-0.053,0.0087,0.0621,-7.81,-34.62,32.94,242.17,-88.25,77.38
42190,52.847595,-1.296066,109.6,25.8,4,170.63,24 / 24,5691613,2019-11-06 17:41:12:075,-0.9962,-0.8584,9.9242,0.0096,0.0192,9.8066,0.0224,0.0579,-0.0875,-7.5,-34.56,33.31,243.75,-88.13,77.45
42191,52.847595,-1.296066,109.6,25.8,4,170.63,24 / 24,5691713,2019-11-06 17:41:12:175,0.9001,-0.8348,10.4627,0.0126,-0.0083,9.8066,0.0403,0.1286,-0.017,-7.12,-35.06,33.0,242.63,-88.37,76.1
42192,52.847595,-1.296066,109.6,25.8,4,170.63,24 / 24,5691813,2019-11-06 17:41:12:275,0.1333,-2.0244,10.5955,0.0185,-0.0101,9.8066,-0.0387,0.0489,-0.0942,-6.56,-34.62,33.44,245.09,-88.29,78.66
42193,52.847595,-1.296066,109.6,25.8,4,170.63,25 / 25,5691913,2019-11-06 17:41:12:375,-1.0371,-1.775,9.9355,-0.0194,-0.0145,9.8066,-0.0162,0.0079,0.1435,-7.37,-34.37,33.0,246.65,-88.59,79.93
42194,52.847595,-1.296066,109.6,25.8,4,170.63,25 / 25,5692014,2019-11-06 17:41:12:476,-0.1624,-0.6399,10.1263,-0.0127,0.024,9.8065,-0.0199,-0.1307,-0.0552,-6.94,-34.5,32.44,239.71,-88.5,73.38
42195,52.847595,-1.296066,109.6,25.8,4,170.63,25 / 25,5692114,2019-11-06 17:41:12:576,-0.5961,-0.1672,10.9443,0.006,0.005,9.8066,-0.015,-0.079,0.0983,-7.5,-34.62,32.25,242.17,-88.44,75.97
42196,52.847595,-1.296066,109.6,25.8,4,170.63,25 / 25,5692213,2019-11-06 17:41:12:675,1.4645,-1.7415,10.0174,-0.014,-0.0154,9.8066,0.0336,-0.0957,0.0072,-6.5,-34.31,32.5,250.97,-88.28,82.92
42197,52.847595,-1.296066,109.6,25.8,4,170.63,25 / 25,5692313,2019-11-06 17:41:12:775,1.7741,-1.6818,8.8874,0.0051,-0.0056,9.8066,0.0755,-0.1293,0.0055,-6.56,-34.37,32.5,251.16,-88.45,84.61
