,GPS LATITUDE (degrees), GPS LONGITUDE (degrees), GPS ALTITUDE (m), GPS SPEED (Kmh), GPS ACCURACY (m), GPS ORIENTATION (Â°),GPS SATELLITES IN RANGE, TIME SINCE START (ms), DATE (YYYY-MO-DD HH-MI-SS_SSS), ACCELEROMETER X (m/s²) , ACCELEROMETER Y (m/s²), ACCELEROMETER Z (m/s²), GRAVITY X (m/s²), GRAVITY Y (m/s²), GRAVITY Z (m/s²), GYROSCOPE Yaw (rad/s), GYROSCOPE Pitch (rad/s), GYROSCOPE Roll (rad/s), MAGNETIC FIELD X (Î¼T), MAGNETIC FIELD Y (Î¼T), MAGNETIC FIELD Z (Î¼T), ORIENTATION (Yaw) (Â°), ORIENTATION (Pitch) (Â°), ORIENTATION (Roll ) (Â°)
1120,52.403263,-1.508746,151.7,9.36,4,279.13,25 / 27,114922,2019-09-08 10:09:41:546,2.9001,0.687,10.0534,-0.0096,-0.0075,9.8065,0.0984,0.3562,-0.0897,-5.25,-26.0,25.13,14.81,-82.26,-156.02
1121,52.403263,-1.508746,151.7,9.36,4,279.13,25 / 27,115021,2019-09-08 10:09:41:645,2.4631,-0.7702,10.0332,-0.0145,-0.0258,9.8065,0.0338,0.3416,-0.0664,-5.75,-27.12,25.94,14.07,-81.93,-155.05
1122,52.403263,-1.508746,151.7,9.36,4,279.13,25 / 27,115122,2019-09-08 10:09:41:746,2.9327,-0.7186,9.5288,-0.0015,0.0148,9.8066,-0.0118,0.2932,0.0136,-5.94,-26.81,26.13,14.28,-81.87,-154.89
1123,52.403263,-1.508746,151.7,9.36,4,279.13,25 / 27,115221,2019-09-08 10:09:41:845,2.607,0.9349,10.1061,-0.0124,0.0228,9.8066,-0.0565,0.3421,-0.0329,-5.62,-27.12,26.75,16.37,-82.07,-153.42
1124,52.403263,-1.508746,151.7,9.36,4,279.13,25 / 27,115321,2019-09-08 10:09:41:945,2.2771,0.0014,9.5512,-0.0009,0.0254,9.8066,0.0507,0.2959,-0.0133,-5.69,-26.94,26.75,17.43,-82.33,-152.43
1125,52.403263,-1.508746,151.7,9.36,4,279.13,25 / 27,115421,2019-09-08 10:09:42:045,1.68,-0.8721,10.2042,-0.0026,0.0056,9.8066,0.1362,0.2314,0.0058,-5.62,-27.69,27.75,18.02,-82.29,-152.36
1126,52.403263,-1.508746,151.7,9.36,4,279.13,25 / 27,115521,2019-09-08 10:09:42:145,1.9818,0.2779,9.7167,-0.0021,-0.0295,9.8065,-0.0811,0.2721,-0.0153,-5.44,-27.25,27.81,19.78,-82.31,-152.73
1127,52.403263,-1.508746,151.7,9.36,4,279.13,25 / 27,115622,2019-09-08 10:09:42:246,2.2545,-1.8327,9.0877,-0.0174,-0.0029,9.8065,-0.1371,0.21,0.0128,-5.81,-27.37,28.88,18.88,-82.12,-151.92
1128,52.403263,-1.508746,151.7,9.36,4,279.13,25 / 27,115723,2019-09-08 10:09:42:347,1.0944,-1.2568,9.3501,-0.0239,0.0219,9.8065,0.155,0.3058,-0.2192,-6.12,-27.56,29.19,19.53,-82.27,-151.38
1129,52.403263,-1.508746,151.7,9.36,4,279.13,24 / 27,115822,2019-09-08 10:09:42:446,0.2978,-1.5071,10.0871,0.0193,0.0102,9.8066,0.047,-0.044,0.0091,-4.87,-27.62,28.69,22.38,-82.56,-150.7
1130,52.403263,-1.508746,151.7,9.36,4,279.13,24 / 27,115921,2019-09-08 10:09:42:545,1.1085,-3.6224,10.4376,0.0309,-0.0222,9.8065,-0.2149,-0.0704,0.1048,-5.5,-27.81,30.0,20.92,-82.64,-152.19
1131,52.403263,-1.508746,151.7,9.36,4,279.13,24 / 27,116021,2019-09-08 10:09:42:645,0.6406,-0.951,9.3023,0.0238,-0.0504,9.8065,-0.2004,0.1081,-0.1146,-5.5,-27.56,30.38,20.52,-82.76,-152.5
1132,52.403263,-1.508746,151.7,9.36,4,279.13,24 / 27,116121,2019-09-08 10:09:42:745,2.8266,-1.43,8.3919,0.025,0.036,9.8065,-0.0667,0.0184,0.0688,-5.87,-27.06,30.5,17.52,-82.94,-153.46
1133,52.403263,-1.508746,151.7,9.36,4,279.13,24 / 27,116222,2019-09-08 10:09:42:846,2.5618,-1.2699,8.8514,0.0226,0.0078,9.8066,-0.2422,0.095,-0.0224,-5.12,-26.12,30.75,17.57,-83.2,-155.08
1134,52.403263,-1.508746,151.7,9.36,4,279.13,24 / 27,116321,2019-09-08 10:09:42:945,1.0455,-4.3735,10.2661,-0.0001,-0.0174,9.8066,0.1105,0.1137,-0.053,-5.69,-27.06,30.69,14.15,-83.31,-156.39
1135,52.403263,-1.508746,151.7,9.36,4,279.13,24 / 27,116421,2019-09-08 10:09:43:045,0.1922,-1.4055,10.875,0.0053,0.0081,9.8066,0.1708,-0.0211,-0.0085,-5.69,-26.06,30.25,13.13,-83.33,-156.93
1136,52.403263,-1.508746,151.7,9.36,4,279.13,24 / 27,116522,2019-09-08 10:09:43:146,3.206,-8.2137,8.2629,0.0072,0.0222,9.8066,-0.0944,0.0226,0.0176,-5.69,-26.0,30.38,13.63,-83.51,-156.44
1137,52.403263,-1.508746,151.7,9.36,4,279.13,24 / 27,116621,2019-09-08 10:09:43:245,2.0811,-2.5558,9.2917,-0.0311,0.0076,9.8065,-0.1074,0.1228,-0.1315,-6.37,-25.87,30.19,15.46,-83.37,-154.83
1138,52.403263,-1.508746,151.7,9.36,4,279.13,24 / 27,116721,2019-09-08 10:09:43:345,0.8947,-0.4795,10.0584,0.0129,-0.0222,9.8065,0.1042,0.1505,-0.1268,-7.19,-26.5,29.88,14.99,-83.62,-153.36
1139,52.403263,-1.508746,151.7,9.36,4,279.13,24 / 27,116821,2019-09-08 10:09:43:445,-0.3722,0.7116,10.2321,0.0024,-0.0308,9.8065,-0.0708,-0.0064,-0.0709,-6.37,-27.19,30.06,17.51,-83.67,-152.96
1140,52.403263,-1.508746,151.7,9.36,4,279.13,24 / 27,116922,2019-09-08 10:09:43:546,0.5975,1.4889,10.3266,-0.0223,0.0025,9.8065,0.0657,-0.0066,0.093,-5.87,-26.19,30.25,16.36,-83.84,-153.89
1141,52.403263,-1.508746,151.7,9.36,4,279.13,24 / 27,117021,2019-09-08 10:09:43:645,-2.1441,-0.1534,10.0335,0.0292,0.0182,9.8066,0.0621,0.1858,-0.2458,-6.44,-26.37,30.13,15.09,-83.85,-155.04
1142,52.403263,-1.508746,151.7,9.36,4,279.13,24 / 27,117122,2019-09-08 10:09:43:746,0.7238,-0.0293,11.05,0.0,-0.0184,9.8066,-0.0027,-0.0619,0.1022,-6.62,-27.44,30.5,12.9,-83.74,-155.64
1143,52.403263,-1.508746,151.7,9.36,4,279.13,24 / 27,117221,2019-09-08 10:09:43:845,-1.2295,0.6801,10.6493,0.0305,0.0018,9.8065,0.1388,0.0552,-0.0271,-6.06,-27.25,30.06,12.81,-83.97,-157.12
1144,52.403263,-1.508746,151.7,9.36,4,279.13,24 / 27,117321,2019-09-08 10:09:43:945,-1.0435,-2.0504,10.6351,-0.0021,-0.0151,9.8065,0.1182,0.0042,0.0908,-6.81,-27.19,30.5,12.8,-84.08,-155.66
1145,52.403263,-1.508746,151.7,9.36,4,279.13,24 / 27,117421,2019-09-08 10:09:44:045,1.4616,1.4532,9.4499,0.0314,-0.0141,9.8065,-0.0202,-0.0601,-0.0177,-6.62,-26.31,30.75,10.15,-83.96,-158.05
1146,52.403263,-1.508746,151.7,9.36,4,279.13,24 / 27,117521,2019-09-08 10:09:44:145,-0.3681,-1.992,10.1107,-0.0015,-0.0015,9.8066,-0.0105,-0.1111,0.0176,-6.56,-26.56,30.5,10.16,-83.77,-158.11
1147,52.403263,-1.508746,151.7,9.36,4,279.13,24 / 27,117621,2019-09-08 10:09:44:245,-1.4723,-0.0072,10.245,0.0111,0.0127,9.8066,0.0137,0.0257,-0.0752,-5.62,-26.19,29.31,10.42,-83.76,-158.94
1148,52.403263,-1.508746,151.7,9.36,4,279.13,24 / 27,117721,2019-09-08 10:09:44:345,1.344,-0.5212,10.745,0.0223,-0.0198,9.8066,0.0553,-0.0116,-0.0163,-5.81,-26.87,30.25,9.0,-83.82,-160.59
1149,52.403263,-1.508746,151.7,9.36,4,279.13,25 / 27,117822,2019-09-08 10:09:44:446,-1.8833,1.8942,9.9441,0.0245,-0.0357,9.8065,0.0472,0.0855,-0.0213,-4.75,-26.62,30.0,9.29,-83.87,-162.18
1150,52.403263,-1.508746,151.7,9.36,4,279.13,25 / 27,117921,2019-09-08 10:09:44:545,-0.3097,-1.0064,10.6038,0.0136,0.0044,9.8066,0.068,-0.0327,0.0837,-4.75,-26.62,30.5,9.7,-83.93,-162.07
1151,52.403263,-1.508746,151.7,9.36,4,279.13,25 / 27,118021,2019-09-08 10:09:44:645,-1.2229,-1.6973,10.0007,0.0259,-0.0325,9.8065,-0.1037,-0.0407,-0.0406,-5.44,-27.06,29.94,6.27,-83.92,-164.89
1152,52.403263,-1.508746,151.7,9.36,4,279.13,25 / 27,118121,2019-09-08 10:09:44:745,-1.4967,-0.7238,9.9766,-0.0069,0.0193,9.8066,-0.0208,0.027,0.0179,-4.62,-26.94,30.81,7.12,-84.06,-164.39
1153,52.403263,-1.508746,151.7,9.36,4,279.13,25 / 27,118221,2019-09-08 10:09:44:845,-1.5232,-2.3773,9.1783,0.0088,-0.0264,9.8066,-0.1604,0.0846,0.0054,-4.37,-26.75,30.38,7.85,-83.84,-165.35
1154,52.403263,-1.508746,151.7,9.36,4,279.13,25 / 27,118322,2019-09-08 10:09:44:946,-2.3252,0.5493,10.4828,-0.0004,0.0215,9.8065,-0.1274,-0.1008,0.1011,-4.5,-27.06,30.69,8.89,-83.8,-164.64
1155,52.403263,-1.508746,151.7,9.36,4,279.13,25 / 27,118421,2019-09-08 10:09:45:045,-1.6636,-1.1363,10.4608,-0.0064,-0.0219,9.8066,-0.1619,-0.1497,0.0169,-4.44,-26.75,30.38,7.69,-83.75,-165.51
1156,52.403263,-1.508746,151.7,9.36,4,279.13,25 / 27,118521,2019-09-08 10:09:45:145,-1.2505,-1.5001,9.4314,-0.0066,0.0273,9.8066,-0.0153,-0.1091,0.1013,-4.5,-26.19,30.69,6.4,-83.59,-166.88
1157,52.403263,-1.508746,151.7,9.36,4,279.13,25 / 27,118622,2019-09-08 10:09:45:246,-0.4764,2.0933,10.9329,0.0091,0.0142,9.8066,0.2524,-0.2396,-0.0097,-4.62,-26.56,30.31,3.04,-83.68,-167.82
1158,52.403263,-1.508746,151.7,9.36,4,279.13,25 / 27,118722,2019-09-08 10:09:45:346,-3.5558,4.6713,11.6861,-0.0072,-0.0708,9.8064,0.289,-0.1131,-0.0139,-4.25,-26.37,30.19,2.9,-83.2,-169.82
1159,52.403263,-1.508746,151.7,9.36,4,279.13,25 / 27,118822,2019-09-08 10:09:45:446,-1.8623,-2.3307,10.1825,0.0052,-0.0799,9.8063,-0.1536,-0.0706,-0.0131,-4.75,-26.19,30.5,0.46,-82.98,-170.42
1160,52.403263,-1.508746,151.7,9.36,4,279.13,25 / 27,118922,2019-09-08 10:09:45:546,-1.4957,-0.7115,9.9548,0.0203,-0.0061,9.8066,-0.0381,-0.3307,0.0196,-4.56,-26.25,29.63,358.76,-83.08,-171.64
1161,52.403263,-1.508746,151.7,9.36,4,279.13,25 / 27,119022,2019-09-08 10:09:45:646,-0.6849,-3.3872,8.4157,0.0027,0.0087,9.8066,0.0911,-0.1599,-0.0495,-4.31,-26.56,29.44,357.94,-83.04,-173.96
1162,52.403263,-1.508746,151.7,9.36,4,279.13,25 / 27,119122,2019-09-08 10:09:45:746,-3.4948,-1.6202,10.0978,0.0036,-0.0256,9.8065,0.1055,-0.2072,0.1864,-3.62,-26.37,29.13,358.05,-83.16,-173.87
1163,52.403263,-1.508746,151.7,9.36,4,279.13,25 / 27,119222,2019-09-08 10:09:45:846,1.3059,-1.3671,10.2404,0.0024,-0.0428,9.8065,0.1372,-0.3777,0.2829,-4.37,-26.56,29.31,356.53,-82.92,-175.19
1164,52.403263,-1.508746,151.7,9.36,4,279.13,25 / 27,119321,2019-09-08 10:09:45:945,-4.993,-0.5187,9.0104,-0.0094,-0.0389,9.8065,0.1461,0.0105,-0.03,-3.5,-26.37,29.81,356.85,-82.59,-177.06
1165,52.403263,-1.508746,151.7,9.36,4,279.13,25 / 27,119422,2019-09-08 10:09:46:046,-4.2731,-1.0209,10.7416,0.0406,-0.0114,9.8065,0.0134,-0.1758,-0.0892,-3.62,-26.19,30.0,352.04,-82.42,-179.4
1166,52.403263,-1.508746,151.7,9.36,4,279.13,25 / 27,119521,2019-09-08 10:09:46:145,-0.1977,2.7347,12.3091,0.0126,-0.0008,9.8066,0.017,-0.0534,-0.0514,-3.87,-26.19,30.19,351.89,-82.13,-179.49
1167,52.403263,-1.508746,151.7,9.36,4,279.13,25 / 27,119621,2019-09-08 10:09:46:245,-5.7376,0.1241,10.7757,-0.0356,-0.0429,9.8065,0.0198,-0.1142,-0.0096,-4.19,-25.5,29.88,353.41,-81.67,-178.14
1168,52.403263,-1.508746,151.7,9.36,4,279.13,25 / 27,119722,2019-09-08 10:09:46:346,0.8034,0.476,9.9929,-0.0168,-0.069,9.8063,0.168,-0.0138,0.0407,-4.19,-26.19,30.25,349.44,-81.59,178.47
1169,52.403263,-1.508746,151.7,9.36,4,279.13,24 / 26,119821,2019-09-08 10:09:46:445,-3.2504,1.6648,10.4911,0.0312,-0.0594,9.8064,0.0364,-0.0698,-0.163,-4.56,-26.56,29.88,349.06,-81.13,-179.86
1170,52.403263,-1.508746,151.7,9.36,4,279.13,24 / 26,119921,2019-09-08 10:09:46:545,-1.7638,-0.4075,10.4366,-0.0073,0.0255,9.8066,-0.0854,-0.2306,0.0467,-5.0,-26.31,29.44,348.09,-81.44,179.56
1171,52.403263,-1.508746,151.7,9.36,4,279.13,24 / 26,120022,2019-09-08 10:09:46:646,-1.6879,-3.7079,11.0822,0.0018,0.0358,9.8066,0.1896,-0.0647,-0.1052,-4.5,-26.5,29.06,349.64,-81.36,178.98
1172,52.403263,-1.508746,151.7,9.36,4,279.13,24 / 26,120121,2019-09-08 10:09:46:745,-1.3682,-2.2357,8.5927,0.0187,-0.0491,9.8064,-0.294,-0.2967,0.1784,-4.31,-26.19,29.44,348.04,-81.33,177.62
1173,52.403263,-1.508746,151.7,9.36,4,279.13,24 / 26,120221,2019-09-08 10:09:46:845,-2.0968,0.7526,11.1313,0.0215,-0.0422,9.8065,-0.3142,0.2102,-0.1676,-4.0,-25.75,28.81,346.71,-80.84,176.59
1174,52.403263,-1.508746,151.7,9.36,4,279.13,24 / 26,120321,2019-09-08 10:09:46:945,-6.0223,0.1421,9.9225,-0.0004,0.1429,9.8055,-0.022,-0.2515,0.3061,-3.31,-25.25,28.69,347.99,-80.27,175.79
1175,52.403263,-1.508746,151.7,9.36,4,279.13,24 / 26,120421,2019-09-08 10:09:47:045,-2.2637,-1.5322,9.5454,0.0453,0.1645,9.8051,0.3178,-0.2382,-0.0574,-3.19,-25.06,29.13,341.2,-80.59,169.93
1176,52.403263,-1.508746,151.7,9.36,4,279.13,24 / 26,120521,2019-09-08 10:09:47:145,-0.6122,-3.771,10.4476,0.0133,-0.149,9.8054,0.5137,-0.1767,0.1313,-3.25,-25.31,29.38,343.9,-79.53,172.54
1177,52.403263,-1.508746,151.7,9.36,4,279.13,24 / 26,120621,2019-09-08 10:09:47:245,-1.2276,-1.0944,9.569,0.017,-0.1301,9.8057,-0.358,0.0121,-0.0563,-2.87,-25.75,28.94,343.49,-79.49,172.31
1178,52.403263,-1.508746,151.7,9.36,4,279.13,24 / 26,120722,2019-09-08 10:09:47:346,-3.1519,2.4054,9.8752,-0.0208,0.0542,9.8064,-0.1341,-0.0315,0.0082,-3.44,-26.0,28.38,343.96,-79.67,172.95
1179,52.403263,-1.508746,151.7,9.36,4,279.13,26 / 28,120821,2019-09-08 10:09:47:445,-3.2332,-4.5592,11.4013,-0.0035,0.0376,9.8065,-0.1226,-0.0148,0.0698,-3.0,-25.75,29.19,344.8,-79.75,173.32
1180,52.403263,-1.508746,151.7,9.36,4,279.13,26 / 28,120921,2019-09-08 10:09:47:545,-2.5875,1.6286,9.3667,0.028,0.0164,9.8065,-0.1699,-0.2338,0.0635,-3.12,-25.5,28.63,342.47,-79.56,171.33
1181,52.403263,-1.508746,151.7,9.36,4,279.13,26 / 28,121022,2019-09-08 10:09:47:646,-6.3089,0.9759,10.3715,-0.0078,0.0087,9.8066,0.4212,-0.0571,-0.0615,-2.94,-25.69,28.13,341.67,-79.69,171.05
1182,52.403263,-1.508746,151.7,9.36,4,279.13,26 / 28,121121,2019-09-08 10:09:47:745,-3.9586,0.0422,10.087,-0.0239,-0.1141,9.8059,0.4095,-0.1238,-0.0099,-3.25,-25.44,27.94,343.27,-80.15,172.13
1183,52.403263,-1.508746,151.7,9.36,4,279.13,26 / 28,121221,2019-09-08 10:09:47:845,-0.1963,-1.3768,8.4555,-0.0221,-0.1259,9.8058,-0.6488,-0.3012,0.2294,-3.19,-25.62,27.0,347.71,-79.41,176.4
1184,52.403263,-1.508746,151.7,9.36,4,279.13,26 / 28,121322,2019-09-08 10:09:47:946,-1.2001,-0.6324,8.9964,-0.0045,0.0955,9.8062,-0.3832,-0.0948,-0.064,-3.37,-25.81,27.75,348.63,-79.31,176.87
1185,52.403263,-1.508746,151.7,9.36,4,279.13,26 / 28,121421,2019-09-08 10:09:48:045,-4.5353,0.557,8.8467,-0.0064,0.0679,9.8063,0.3129,-0.0268,-0.0591,-3.0,-26.75,27.63,348.31,-79.81,176.57
1186,52.403263,-1.508746,151.7,9.36,4,279.13,26 / 28,121521,2019-09-08 10:09:48:145,-1.9304,-1.3727,9.9977,0.0044,-0.0394,9.8065,0.1313,-0.132,0.0046,-2.87,-26.75,27.63,347.79,-79.74,176.17
1187,52.403263,-1.508746,151.7,9.36,4,279.13,26 / 28,121621,2019-09-08 10:09:48:245,-2.9466,0.5908,8.716,0.0197,-0.0073,9.8065,-0.1039,-0.0933,-0.0563,-3.19,-27.06,26.88,346.62,-79.95,175.46
1188,52.403263,-1.508746,151.7,9.36,4,279.13,26 / 28,121721,2019-09-08 10:09:48:345,-3.2977,-1.7738,10.0403,-0.0064,0.0291,9.8066,-0.0953,-0.1449,0.0219,-3.37,-26.25,26.5,346.52,-80.15,175.24
1189,52.403263,-1.508746,151.7,9.36,4,279.13,26 / 28,121821,2019-09-08 10:09:48:445,-2.0847,-1.1023,9.2875,-0.001,0.0084,9.8066,0.0837,-0.0397,-0.0062,-3.06,-25.87,26.0,345.88,-80.23,175.02
1190,52.403263,-1.508746,151.7,9.36,4,279.13,24 / 26,121921,2019-09-08 10:09:48:545,-1.4418,0.0822,9.8246,-0.0028,-0.0079,9.8066,-0.1705,-0.1287,0.0361,-3.19,-26.25,25.94,345.61,-80.22,174.8
1191,52.403263,-1.508746,151.7,9.36,4,279.13,24 / 26,122022,2019-09-08 10:09:48:646,-3.2466,0.1309,9.684,0.0022,0.0068,9.8066,0.1174,-0.1539,0.0678,-2.69,-26.56,25.5,346.01,-80.23,175.21
1192,52.403263,-1.508746,151.7,9.36,4,279.13,24 / 26,122121,2019-09-08 10:09:48:745,-1.7001,1.4242,10.7243,0.0053,0.0175,9.8066,0.0548,-0.1494,0.0212,-2.62,-26.87,25.31,344.53,-80.41,174.31
1193,52.403263,-1.508746,151.7,9.36,4,279.13,24 / 26,122221,2019-09-08 10:09:48:845,-1.3947,0.704,10.2585,0.0108,-0.0148,9.8066,-0.0803,-0.0611,-0.0373,-2.69,-27.31,25.25,343.56,-80.36,173.54
1194,52.403263,-1.508746,151.7,9.36,4,279.13,24 / 26,122321,2019-09-08 10:09:48:945,-0.5686,0.5785,8.4166,-0.0162,-0.0032,9.8065,0.2736,-0.3021,0.2013,-2.69,-26.62,24.94,344.47,-80.44,174.25
1195,52.403263,-1.508746,151.7,9.36,4,279.13,24 / 26,122422,2019-09-08 10:09:49:046,-1.8013,-0.7581,9.9871,-0.0234,0.0092,9.8065,0.1379,-0.059,0.0082,-2.62,-27.19,24.63,344.76,-80.46,174.49
1196,52.403263,-1.508746,151.7,9.36,4,279.13,24 / 26,122521,2019-09-08 10:09:49:145,-2.1846,-0.544,10.3432,-0.0043,-0.0286,9.8066,-0.0418,-0.2002,0.0401,-3.19,-27.19,23.81,346.68,-80.54,176.4
1197,52.403263,-1.508746,151.7,9.36,4,279.13,24 / 26,122622,2019-09-08 10:09:49:246,-0.9133,0.6568,9.3004,-0.0137,0.0137,9.8066,-0.087,-0.0686,-0.1044,-2.44,-26.75,24.06,350.21,-80.79,176.85
1198,52.403263,-1.508746,151.7,9.36,4,279.13,24 / 26,122722,2019-09-08 10:09:49:346,-2.717,-0.7567,10.1306,-0.0138,0.0114,9.8066,-0.0471,-0.1559,-0.003,-2.81,-27.0,23.06,348.67,-80.99,178.29
1199,52.403263,-1.508746,151.7,9.36,4,279.13,24 / 26,122822,2019-09-08 10:09:49:446,-3.9438,0.5912,10.5704,-0.0192,-0.0197,9.8065,0.0489,-0.1388,0.0191,-2.94,-26.94,22.81,347.98,-80.95,177.74
1200,52.40285,-1.510218,151.23,15.55,3,264.79,25 / 27,122921,2019-09-08 10:09:49:545,-2.4791,-1.2769,8.7792,0.0232,0.0034,9.8066,-0.0328,-0.2307,0.2677,-2.94,-27.31,22.94,348.9,-80.9,178.5
1201,52.40285,-1.510218,151.23,15.55,3,264.79,25 / 27,123022,2019-09-08 10:09:49:646,1.4996,-2.1139,9.976,-0.0418,-0.0546,9.8063,-0.2663,0.194,-0.2943,-3.25,-27.31,22.06,349.81,-80.78,179.68
1202,52.40285,-1.510218,151.23,15.55,3,264.79,25 / 27,123122,2019-09-08 10:09:49:746,-1.0887,3.0185,8.7963,-0.0134,0.0921,9.8062,0.3775,-0.3655,0.2591,-3.0,-26.87,22.31,346.19,-81.3,176.63
1203,52.40285,-1.510218,151.23,15.55,3,264.79,25 / 27,123221,2019-09-08 10:09:49:845,-0.9404,-0.7299,10.2336,-0.0161,0.1075,9.806,0.3572,-0.0999,-0.0236,-3.44,-27.06,22.0,347.98,-81.42,178.04
1204,52.40285,-1.510218,151.23,15.55,3,264.79,25 / 27,123321,2019-09-08 10:09:49:945,-2.1783,-1.2746,11.5038,0.0384,-0.1061,9.806,-0.2474,0.014,0.0177,-3.06,-26.94,21.75,348.04,-81.36,178.1
1205,52.40285,-1.510218,151.23,15.55,3,264.79,25 / 27,123421,2019-09-08 10:09:50:045,-0.5816,0.0008,10.302,-0.0062,-0.0922,9.8061,-0.2023,-0.1193,0.0225,-3.12,-27.25,21.75,347.08,-80.81,177.49
1206,52.40285,-1.510218,151.23,15.55,3,264.79,25 / 27,123521,2019-09-08 10:09:50:145,-2.7727,1.7247,9.8594,-0.01,0.0609,9.8064,0.1858,-0.1316,0.0083,-3.0,-27.06,21.81,347.22,-81.03,177.54
1207,52.40285,-1.510218,151.23,15.55,3,264.79,25 / 27,123621,2019-09-08 10:09:50:245,-0.9997,-2.2079,9.2608,-0.0225,0.0545,9.8064,0.1274,0.0465,-0.0037,-2.5,-27.5,21.06,350.3,-81.44,177.68
1208,52.40285,-1.510218,151.23,15.55,3,264.79,25 / 27,123722,2019-09-08 10:09:50:346,-1.368,1.6291,10.0132,-0.0215,0.0155,9.8066,0.0423,-0.1383,0.1552,-3.56,-28.06,20.75,345.38,-81.39,179.16
1209,52.40285,-1.510218,151.23,15.55,3,264.79,25 / 27,123822,2019-09-08 10:09:50:446,-3.0764,-2.7578,10.0113,-0.0174,0.0139,9.8065,0.0935,-0.1353,0.1063,-3.31,-28.06,21.06,350.48,-81.43,-179.42
1210,52.40285,-1.510218,151.23,15.55,3,264.79,26 / 28,123921,2019-09-08 10:09:50:545,-1.1535,-0.8572,9.5929,0.005,-0.0088,9.8066,-0.0535,-0.1962,0.0428,-3.06,-27.5,20.38,350.87,-81.46,-178.69
1211,52.40285,-1.510218,151.23,15.55,3,264.79,26 / 28,124021,2019-09-08 10:09:50:645,-1.8609,-0.5121,10.2313,0.0132,-0.0085,9.8066,-0.052,-0.0043,-0.0808,-3.37,-27.62,20.13,349.78,-81.46,-179.49
1212,52.40285,-1.510218,151.23,15.55,3,264.79,26 / 28,124121,2019-09-08 10:09:50:745,-1.4508,-0.7148,9.4211,0.0067,0.0143,9.8065,0.0551,-0.0739,-0.0395,-3.19,-26.94,19.94,348.09,-81.56,179.07
1213,52.40285,-1.510218,151.23,15.55,3,264.79,26 / 28,124221,2019-09-08 10:09:50:845,-0.5578,-1.0451,9.6373,0.0029,0.0047,9.8066,-0.0561,-0.0356,-0.055,-2.5,-27.12,19.81,350.56,-81.66,178.2
1214,52.40285,-1.510218,151.23,15.55,3,264.79,26 / 28,124322,2019-09-08 10:09:50:946,-0.3531,-0.7834,10.1014,-0.0106,0.0171,9.8065,-0.0843,-0.0559,0.0097,-2.94,-27.56,19.44,346.99,-81.84,178.76
1215,52.40285,-1.510218,151.23,15.55,3,264.79,26 / 28,124421,2019-09-08 10:09:51:045,-1.8966,-0.0732,10.381,-0.0191,0.0176,9.8065,0.0331,-0.1385,0.1153,-3.12,-28.12,19.5,349.37,-81.94,-179.95
1216,52.40285,-1.510218,151.23,15.55,3,264.79,26 / 28,124521,2019-09-08 10:09:51:145,-2.3123,0.1944,10.2124,-0.0094,-0.0364,9.8066,-0.0349,-0.0719,-0.0555,-3.81,-27.62,20.13,348.02,-81.95,-178.27
1217,52.40285,-1.510218,151.23,15.55,3,264.79,26 / 28,124622,2019-09-08 10:09:51:246,-2.0458,-1.3063,9.7949,-0.0036,-0.018,9.8065,0.0119,-0.005,-0.0094,-3.87,-27.62,19.81,349.25,-81.68,-177.2
1218,52.40285,-1.510218,151.23,15.55,3,264.79,26 / 28,124721,2019-09-08 10:09:51:345,-1.1939,-2.3316,8.94,-0.0078,0.0141,9.8066,0.0565,-0.1019,0.0385,-3.56,-28.19,19.06,348.55,-81.59,-177.04
1219,52.40285,-1.510218,151.23,15.55,3,264.79,26 / 28,124822,2019-09-08 10:09:51:446,-1.3532,0.4402,10.2915,0.0022,0.025,9.8066,-0.0648,-0.0987,-0.0488,-3.5,-28.37,19.38,352.57,-81.62,-176.81
1220,52.40285,-1.510218,151.23,15.55,3,264.79,26 / 28,124922,2019-09-08 10:09:51:546,-1.335,-0.4687,9.6713,0.008,-0.0276,9.8066,-0.0894,-0.0366,-0.0217,-2.94,-27.25,19.63,351.57,-81.52,-178.16
1221,52.40285,-1.510218,151.23,15.55,3,264.79,26 / 28,125022,2019-09-08 10:09:51:646,-1.1618,-0.1854,9.0176,0.0094,-0.0168,9.8065,-0.0586,-0.0604,0.0122,-2.87,-27.25,19.06,350.05,-81.69,-178.86
1222,52.40285,-1.510218,151.23,15.55,3,264.79,26 / 28,125122,2019-09-08 10:09:51:746,-0.4044,1.0321,8.9929,-0.0016,0.0351,9.8066,-0.0015,-0.0831,0.0713,-3.0,-27.12,19.25,350.13,-81.83,-178.84
1223,52.40285,-1.510218,151.23,15.55,3,264.79,26 / 28,125222,2019-09-08 10:09:51:846,-0.4941,0.0642,8.9582,-0.0189,0.0343,9.8066,-0.0035,-0.0645,0.0114,-3.69,-27.62,18.31,346.41,-82.14,-178.14
1224,52.40285,-1.510218,151.23,15.55,3,264.79,26 / 28,125322,2019-09-08 10:09:51:946,-0.3562,-0.1189,10.2104,0.0025,-0.023,9.8065,-0.0692,-0.0783,0.0422,-3.62,-28.56,18.13,348.6,-82.12,-176.32
1225,52.40285,-1.510218,151.23,15.55,3,264.79,26 / 28,125422,2019-09-08 10:09:52:046,-0.3182,-1.9242,9.2771,-0.0014,-0.0245,9.8066,-0.0268,-0.0328,-0.0162,-3.25,-27.69,18.44,353.86,-81.95,-175.3
1226,52.40285,-1.510218,151.23,15.55,3,264.79,26 / 28,125522,2019-09-08 10:09:52:146,-1.8624,0.265,9.8509,-0.0116,0.0213,9.8065,-0.0282,0.0428,-0.0046,-3.19,-28.0,17.81,354.53,-82.13,-174.81
1227,52.40285,-1.510218,151.23,15.55,3,264.79,26 / 28,125622,2019-09-08 10:09:52:246,-0.2102,-0.7078,9.531,0.0019,0.0057,9.8066,0.0086,0.0215,-0.0427,-3.06,-27.5,17.88,354.34,-82.22,-175.01
1228,52.40285,-1.510218,151.23,15.55,3,264.79,26 / 28,125721,2019-09-08 10:09:52:345,-0.4994,-0.507,9.704,0.0081,0.0166,9.8065,-0.0229,0.0103,-0.0481,-2.87,-27.31,17.25,353.47,-82.23,-175.08
1229,52.40285,-1.510218,151.23,15.55,3,264.79,25 / 28,125821,2019-09-08 10:09:52:445,-0.3565,-0.933,9.3149,-0.0016,0.011,9.8065,-0.026,-0.0927,0.0186,-3.06,-26.87,18.13,353.03,-82.32,-176.07
1230,52.40285,-1.510218,151.23,15.55,3,264.79,25 / 28,125922,2019-09-08 10:09:52:546,-0.6183,-0.8121,10.103,0.0142,-0.0268,9.8065,-0.1038,-0.0265,-0.0107,-2.75,-27.81,17.5,353.18,-82.37,-175.91
1231,52.40285,-1.510218,151.23,15.55,3,264.79,25 / 28,126022,2019-09-08 10:09:52:646,-0.4747,-0.4578,10.0488,-0.0141,-0.0105,9.8066,-0.0336,0.0058,0.0042,-2.69,-27.37,17.75,353.23,-82.28,-175.9
1232,52.40285,-1.510218,151.23,15.55,3,264.79,25 / 28,126121,2019-09-08 10:09:52:745,1.1221,-1.4302,9.365,0.0086,-0.0095,9.8066,-0.0417,-0.0871,0.0793,-3.19,-27.69,17.5,353.16,-82.31,-175.91
1233,52.40285,-1.510218,151.23,15.55,3,264.79,25 / 28,126222,2019-09-08 10:09:52:846,-0.2056,-0.7687,9.7892,-0.014,-0.0048,9.8066,-0.0455,0.0325,-0.0308,-2.94,-27.81,17.56,354.14,-82.35,-175.15
1234,52.40285,-1.510218,151.23,15.55,3,264.79,25 / 28,126322,2019-09-08 10:09:52:946,0.1161,-1.0231,10.245,-0.0009,-0.0153,9.8065,-0.0049,-0.0298,0.0277,-2.25,-28.0,17.75,358.71,-82.43,-174.68
1235,52.40285,-1.510218,151.23,15.55,3,264.79,25 / 28,126421,2019-09-08 10:09:53:045,-0.271,-0.1702,10.2423,-0.0013,-0.0211,9.8066,-0.0223,0.0109,-0.0198,-2.75,-27.5,17.88,355.09,-82.29,-174.43
1236,52.40285,-1.510218,151.23,15.55,3,264.79,25 / 28,126522,2019-09-08 10:09:53:146,1.2335,-0.7917,10.0215,0.0014,-0.0075,9.8066,0.0204,-0.024,0.0038,-3.0,-27.25,17.63,354.2,-82.3,-175.14
1237,52.40285,-1.510218,151.23,15.55,3,264.79,25 / 28,126622,2019-09-08 10:09:53:246,-1.1562,-0.945,9.3814,0.0044,0.0001,9.8066,-0.0259,-0.0771,0.0598,-2.37,-27.56,17.88,358.19,-82.29,-175.08
1238,52.40285,-1.510218,151.23,15.55,3,264.79,25 / 28,126722,2019-09-08 10:09:53:346,-0.2358,0.6799,9.3411,-0.0045,0.0173,9.8065,0.0469,0.0258,-0.0066,-2.94,-26.94,17.5,354.86,-82.51,-174.64
1239,52.40285,-1.510218,151.23,15.55,3,264.79,25 / 28,126822,2019-09-08 10:09:53:446,0.323,0.6631,9.9222,0.0081,0.0031,9.8066,-0.0003,-0.0562,0.0641,-2.87,-26.87,17.44,354.33,-82.57,-174.47
1240,52.40285,-1.510218,151.23,15.55,3,264.79,26 / 28,126922,2019-09-08 10:09:53:546,-0.7919,-0.7781,10.5297,-0.0025,-0.0348,9.8066,-0.1073,0.077,-0.0208,-2.12,-27.25,18.25,359.2,-82.57,-174.3
1241,52.40285,-1.510218,151.23,15.55,3,264.79,26 / 28,127021,2019-09-08 10:09:53:645,-1.8534,-1.2996,10.0048,-0.0007,-0.0214,9.8066,-0.0634,-0.1204,0.1508,-1.94,-27.87,17.69,359.63,-82.36,-173.95
1242,52.40285,-1.510218,151.23,15.55,3,264.79,26 / 28,127122,2019-09-08 10:09:53:746,1.076,0.9425,10.4711,-0.0049,-0.0164,9.8066,0.0483,-0.0404,0.0677,-2.62,-27.31,17.31,355.7,-82.52,-173.38
1243,52.40285,-1.510218,151.23,15.55,3,264.79,26 / 28,127221,2019-09-08 10:09:53:845,-0.3143,-1.0624,9.0303,0.0034,-0.0232,9.8066,-0.0715,-0.0888,0.0824,-2.62,-28.31,17.13,357.23,-82.47,-172.15
1244,52.40285,-1.510218,151.23,15.55,3,264.79,26 / 28,127321,2019-09-08 10:09:53:945,-0.1163,0.4431,9.7405,-0.0166,0.0333,9.8066,0.1195,0.0032,-0.0528,-2.37,-27.56,16.94,3.04,-82.62,-170.91
1245,52.40285,-1.510218,151.23,15.55,3,264.79,26 / 28,127421,2019-09-08 10:09:54:045,0.539,-0.7062,10.4302,-0.0066,0.0107,9.8066,0.0525,0.0265,-0.0436,-2.19,-27.25,17.13,4.26,-82.77,-169.91
1246,52.40285,-1.510218,151.23,15.55,3,264.79,26 / 28,127521,2019-09-08 10:09:54:145,-0.231,0.0136,10.0182,-0.0135,-0.0134,9.8065,0.0342,-0.0271,-0.0135,-2.62,-27.0,16.75,359.53,-82.73,-170.36
1247,52.40285,-1.510218,151.23,15.55,3,264.79,26 / 28,127622,2019-09-08 10:09:54:246,0.7958,0.4324,9.9693,-0.0127,-0.0064,9.8066,0.1024,0.005,-0.0505,-2.19,-27.31,16.69,5.51,-82.59,-168.95
1248,52.40285,-1.510218,151.23,15.55,3,264.79,26 / 28,127721,2019-09-08 10:09:54:345,0.1705,-0.6019,10.0375,-0.0048,0.0005,9.8066,-0.0262,-0.0357,-0.0067,-2.62,-28.12,16.69,1.58,-82.52,-168.76
1249,52.40285,-1.510218,151.23,15.55,3,264.79,24 / 27,127821,2019-09-08 10:09:54:445,-0.6431,-1.2023,9.046,0.002,-0.0036,9.8066,-0.1036,0.0423,-0.0498,-2.69,-27.69,16.81,1.59,-82.52,-168.75
1250,52.40285,-1.510218,151.23,15.55,3,264.79,24 / 27,127922,2019-09-08 10:09:54:546,0.7597,-0.971,9.6772,-0.0012,-0.0079,9.8066,0.0295,-0.0022,0.0261,-2.12,-27.12,16.75,5.02,-82.68,-169.32
1251,52.40285,-1.510218,151.23,15.55,3,264.79,24 / 27,128022,2019-09-08 10:09:54:646,0.1866,0.1527,10.0377,-0.0112,-0.0132,9.8065,-0.0022,0.0585,0.0221,-2.5,-27.31,16.19,5.31,-82.65,-168.74
1252,52.40285,-1.510218,151.23,15.55,3,264.79,24 / 27,128122,2019-09-08 10:09:54:746,-0.3655,0.9878,10.6628,-0.0238,0.0125,9.8066,0.1843,-0.035,0.0626,-2.56,-26.87,16.31,1.78,-82.71,-167.99
1253,52.40285,-1.510218,151.23,15.55,3,264.79,24 / 27,128221,2019-09-08 10:09:54:845,0.0631,0.4518,9.985,-0.013,-0.0014,9.8066,0.0991,0.069,0.0254,-2.5,-26.56,15.63,8.73,-82.68,-166.07
1254,52.40285,-1.510218,151.23,15.55,3,264.79,24 / 27,128321,2019-09-08 10:09:54:945,0.4015,-1.3215,9.7677,0.0005,-0.0055,9.8066,-0.0278,-0.0023,0.0431,-2.5,-26.5,15.25,8.75,-82.58,-165.66
1255,52.40285,-1.510218,151.23,15.55,3,264.79,24 / 27,128422,2019-09-08 10:09:55:046,-0.4164,-0.2371,10.0628,-0.011,0.0298,9.8065,0.0407,0.0217,0.0089,-3.06,-26.56,15.19,4.07,-82.61,-165.57
1256,52.40285,-1.510218,151.23,15.55,3,264.79,24 / 27,128522,2019-09-08 10:09:55:146,0.319,0.1201,10.2215,0.0053,-0.0174,9.8066,-0.0834,0.0426,-0.0123,-3.25,-25.25,14.44,3.15,-82.66,-165.49
1257,52.40285,-1.510218,151.23,15.55,3,264.79,24 / 27,128621,2019-09-08 10:09:55:245,0.2965,-0.0229,9.3036,-0.0083,-0.0125,9.8065,-0.0981,0.0121,-0.0198,-3.37,-23.06,13.81,3.43,-82.72,-165.2
1258,52.40285,-1.510218,151.23,15.55,3,264.79,24 / 27,128722,2019-09-08 10:09:55:346,1.4201,-0.8728,6.9435,-0.0017,0.0159,9.8066,-0.332,0.1373,-0.0851,-4.06,-20.81,13.13,358.24,-82.9,-164.31
1259,52.40285,-1.510218,151.23,15.55,3,264.79,24 / 27,128821,2019-09-08 10:09:55:445,-0.5951,2.8086,10.4192,-0.0124,-0.009,9.8066,-0.1303,-0.0499,0.0183,-4.56,-18.94,14.31,356.86,-83.16,-162.99
1260,52.40285,-1.510218,151.23,15.55,3,264.79,25 / 27,128921,2019-09-08 10:09:55:545,-1.8232,0.8216,12.035,0.0025,-0.0966,9.8061,0.0633,0.1323,-0.012,-3.94,-18.69,17.94,5.0,-82.82,-163.16
1261,52.40285,-1.510218,151.23,15.55,3,264.79,25 / 27,129022,2019-09-08 10:09:55:646,-0.3842,-0.6,10.4135,0.0118,-0.09,9.8061,0.0788,-0.0416,0.0599,-4.0,-20.06,19.5,6.0,-82.45,-163.51
1262,52.40285,-1.510218,151.23,15.55,3,264.79,25 / 27,129121,2019-09-08 10:09:55:745,0.2615,0.5278,9.8613,-0.0139,0.0411,9.8065,0.0092,-0.0024,0.0469,-3.87,-22.69,19.88,6.0,-82.37,-163.64
1263,52.40285,-1.510218,151.23,15.55,3,264.79,25 / 27,129221,2019-09-08 10:09:55:845,-0.505,0.9715,9.1268,-0.0044,0.0459,9.8065,0.0399,0.0539,0.0143,-3.0,-24.25,19.94,10.66,-82.79,-162.47
1264,52.40285,-1.510218,151.23,15.55,3,264.79,25 / 27,129322,2019-09-08 10:09:55:946,1.8317,1.1642,8.7255,0.0146,-0.0135,9.8065,-0.2233,0.0818,-0.0271,-2.69,-25.81,19.13,10.35,-82.88,-162.48
1265,52.40285,-1.510218,151.23,15.55,3,264.79,25 / 27,129421,2019-09-08 10:09:56:045,-0.3655,0.9359,9.7196,0.0073,-0.0197,9.8066,-0.0351,-0.0541,0.0646,-2.56,-26.06,18.81,9.33,-82.9,-163.32
1266,52.40285,-1.510218,151.23,15.55,3,264.79,25 / 27,129521,2019-09-08 10:09:56:145,-2.5612,-0.1795,10.0363,-0.0169,-0.0593,9.8064,0.0172,0.0949,-0.1267,-1.75,-26.44,19.44,13.23,-82.64,-163.16
1267,52.40285,-1.510218,151.23,15.55,3,264.79,25 / 27,129621,2019-09-08 10:09:56:245,1.8769,1.3737,9.5124,0.0176,-0.031,9.8065,-0.0047,0.0465,-0.0197,-2.19,-26.44,18.63,12.11,-82.74,-164.04
1268,52.40285,-1.510218,151.23,15.55,3,264.79,25 / 27,129721,2019-09-08 10:09:56:345,0.6336,1.0305,8.5237,-0.0133,0.0437,9.8065,0.0689,0.0101,0.1443,-2.75,-26.62,18.69,8.68,-82.68,-163.96
1269,52.40285,-1.510218,151.23,15.55,3,264.79,24 / 27,129821,2019-09-08 10:09:56:445,-0.6271,0.9402,8.7282,-0.0377,0.0208,9.8065,-0.0808,0.1571,-0.0691,-2.37,-26.19,18.38,15.67,-82.84,-160.88
1270,52.40285,-1.510218,151.23,15.55,3,264.79,24 / 27,129921,2019-09-08 10:09:56:545,0.101,0.4847,10.2679,-0.0021,-0.0023,9.8065,0.009,-0.0122,-0.0338,-2.75,-26.19,18.25,13.6,-82.82,-159.44
1271,52.40285,-1.510218,151.23,15.55,3,264.79,24 / 27,130022,2019-09-08 10:09:56:646,0.0614,0.4292,10.9136,-0.0142,-0.049,9.8064,-0.0248,0.0553,-0.0367,-3.0,-26.5,19.0,14.64,-82.51,-159.06
1272,52.40285,-1.510218,151.23,15.55,3,264.79,24 / 27,130122,2019-09-08 10:09:56:746,0.1427,0.3701,9.9778,0.0015,-0.015,9.8066,0.0472,0.0103,0.0014,-2.94,-26.19,19.13,14.2,-82.34,-159.48
1273,52.40285,-1.510218,151.23,15.55,3,264.79,24 / 27,130222,2019-09-08 10:09:56:846,0.4052,-0.4026,9.1697,0.0107,0.0089,9.8066,-0.0541,0.0117,-0.0636,-2.75,-25.94,18.31,12.76,-82.36,-160.29
1274,52.40285,-1.510218,151.23,15.55,3,264.79,24 / 27,130322,2019-09-08 10:09:56:946,0.067,1.0538,9.5897,0.0094,0.0075,9.8066,-0.1153,0.1451,-0.1266,-2.56,-25.31,18.06,12.21,-82.56,-160.58
1275,52.40285,-1.510218,151.23,15.55,3,264.79,24 / 27,130422,2019-09-08 10:09:57:046,0.9898,0.9034,10.0406,0.0086,-0.0479,9.8065,-0.1957,0.0074,-0.0306,-2.37,-25.87,18.19,14.89,-82.62,-161.61
1276,52.40285,-1.510218,151.23,15.55,3,264.79,24 / 27,130522,2019-09-08 10:09:57:146,1.3872,0.4351,9.8397,0.0035,0.0383,9.8065,0.3004,0.0913,-0.0837,-2.06,-25.81,18.13,12.58,-82.74,-163.44
1277,52.40285,-1.510218,151.23,15.55,3,264.79,24 / 27,130621,2019-09-08 10:09:57:245,0.4472,-1.5072,9.7859,-0.0053,0.0119,9.8066,0.1996,0.0094,0.0101,-1.56,-24.87,18.38,12.08,-82.88,-163.72
1278,52.40285,-1.510218,151.23,15.55,3,264.79,24 / 27,130721,2019-09-08 10:09:57:345,0.4282,1.335,10.1692,-0.0121,0.0008,9.8066,0.0328,-0.0062,0.0177,-2.19,-25.94,18.06,12.72,-82.86,-163.29
1279,52.40285,-1.510218,151.23,15.55,3,264.79,24 / 27,130822,2019-09-08 10:09:57:446,0.9533,2.0743,10.817,-0.0047,0.0222,9.8066,0.0268,0.0083,-0.0196,-2.25,-25.31,18.25,13.18,-82.9,-162.81
1280,52.40285,-1.510218,151.23,15.55,3,264.79,24 / 26,130921,2019-09-08 10:09:57:545,1.401,-0.8756,10.7754,-0.0051,0.0281,9.8066,0.0343,-0.095,0.0884,-1.37,-25.31,18.94,18.18,-82.87,-161.85
1281,52.40285,-1.510218,151.23,15.55,3,264.79,24 / 26,131021,2019-09-08 10:09:57:645,-0.2974,-0.5237,10.4268,-0.0172,-0.0056,9.8066,-0.0698,0.1061,0.023,-1.62,-25.75,19.31,16.38,-82.6,-160.57
1282,52.40285,-1.510218,151.23,15.55,3,264.79,24 / 26,131122,2019-09-08 10:09:57:746,-0.3164,0.7468,9.5519,0.0037,0.0191,9.8066,0.1436,-0.0574,0.1222,-1.62,-25.94,18.88,17.75,-82.64,-159.43
1283,52.40285,-1.510218,151.23,15.55,3,264.79,24 / 26,131221,2019-09-08 10:09:57:845,0.1285,-0.7881,10.3202,0.0071,-0.0159,9.8065,0.1321,0.031,0.0504,-1.69,-25.75,18.44,19.05,-82.59,-158.22
1284,52.40285,-1.510218,151.23,15.55,3,264.79,24 / 26,131321,2019-09-08 10:09:57:945,0.5607,0.4704,10.2664,0.0081,-0.0335,9.8065,0.0511,-0.0194,-0.02,-1.56,-25.31,18.56,17.75,-82.53,-159.36
1285,52.40285,-1.510218,151.23,15.55,3,264.79,24 / 26,131421,2019-09-08 10:09:58:045,0.222,1.2696,10.9421,0.0118,0.0175,9.8065,0.0975,-0.0046,0.0004,-0.75,-25.5,19.31,19.81,-82.54,-160.65
1286,52.40285,-1.510218,151.23,15.55,3,264.79,24 / 26,131522,2019-09-08 10:09:58:146,0.9866,-0.6501,10.0255,0.0259,-0.011,9.8066,-0.1514,0.0291,-0.0922,-1.12,-24.44,18.69,16.46,-82.64,-163.28
1287,52.40285,-1.510218,151.23,15.55,3,264.79,24 / 26,131622,2019-09-08 10:09:58:246,2.1406,0.2517,9.9692,0.0043,0.027,9.8066,-0.0811,-0.0689,0.0034,-0.81,-24.37,19.75,15.0,-82.78,-164.49
1288,52.40285,-1.510218,151.23,15.55,3,264.79,24 / 26,131721,2019-09-08 10:09:58:345,1.072,0.2076,10.7812,-0.0052,0.0236,9.8066,0.2374,0.0652,0.0174,-0.87,-24.06,19.63,15.56,-82.75,-164.02
1289,52.40285,-1.510218,149.42,18.82,3,270.95,22 / 25,131821,2019-09-08 10:09:58:445,0.8308,-0.1439,10.9262,-0.0101,-0.0571,9.8064,0.1355,-0.0269,0.0738,-0.69,-23.56,19.63,17.16,-82.65,-162.71
1290,52.4029,-1.512574,149.42,18.82,4,270.95,22 / 25,131921,2019-09-08 10:09:58:545,0.827,2.6684,9.8158,-0.0193,-0.0336,9.8065,-0.1362,-0.0457,0.011,-1.25,-23.75,19.19,18.0,-82.15,-162.2
1291,52.4029,-1.512574,149.42,18.82,4,270.95,22 / 25,132022,2019-09-08 10:09:58:646,0.7345,0.3478,9.873,-0.011,0.0434,9.8065,0.1918,-0.0651,0.1308,-0.94,-23.44,19.25,18.91,-82.17,-161.3
1292,52.4029,-1.512574,149.42,18.82,4,270.95,22 / 25,132121,2019-09-08 10:09:58:745,0.5028,-0.0569,10.1614,-0.009,0.0232,9.8066,0.1219,0.0062,0.0382,-1.44,-23.5,19.94,21.07,-82.36,-159.39
1293,52.4029,-1.512574,149.42,18.82,4,270.95,22 / 25,132221,2019-09-08 10:09:58:845,0.0131,1.0188,10.4873,-0.0088,-0.0032,9.8066,-0.0101,0.0148,-0.008,-1.44,-21.81,19.81,21.4,-82.33,-158.99
1294,52.4029,-1.512574,149.42,18.82,4,270.95,22 / 25,132321,2019-09-08 10:09:58:945,0.4691,-0.1599,10.0167,-0.0042,0.0057,9.8066,0.0999,-0.0187,-0.0285,-1.12,-20.5,20.75,21.18,-82.2,-158.95
1295,52.4029,-1.512574,149.42,18.82,4,270.95,22 / 25,132421,2019-09-08 10:09:59:045,0.2623,-1.0828,10.189,0.0015,-0.0717,9.8063,-0.2427,-0.0584,-0.0326,-0.75,-19.12,19.63,19.44,-81.99,-160.4
1296,52.4029,-1.512574,149.42,18.82,4,270.95,22 / 25,132522,2019-09-08 10:09:59:146,0.55,1.8837,10.8351,-0.0034,-0.0358,9.8065,-0.1442,0.0644,-0.0301,-0.31,-19.06,20.0,22.82,-82.25,-160.22
1297,52.4029,-1.512574,149.42,18.82,4,270.95,22 / 25,132621,2019-09-08 10:09:59:245,-0.25,-0.0516,10.1405,0.0089,0.0009,9.8065,0.1449,-0.0059,-0.056,0.13,-18.81,18.5,21.84,-82.3,-161.2
1298,52.4029,-1.512574,149.42,18.82,4,270.95,22 / 25,132722,2019-09-08 10:09:59:346,0.2757,0.0516,10.5036,0.0113,0.0102,9.8066,0.1832,-0.0382,-0.0102,-0.31,-19.31,18.5,20.03,-82.25,-162.79
1299,52.4029,-1.512574,149.42,18.82,4,270.95,23 / 25,132821,2019-09-08 10:09:59:445,0.1973,1.4579,10.1648,-0.0049,-0.012,9.8066,-0.0697,0.005,0.0258,-1.0,-20.44,18.0,16.2,-82.04,-163.23
1300,52.4029,-1.512574,149.42,18.82,4,270.95,23 / 25,132921,2019-09-08 10:09:59:545,-0.2656,1.3926,10.4709,-0.0081,-0.0082,9.8066,-0.0295,-0.0316,0.0476,-1.0,-21.94,17.81,17.17,-81.91,-162.72
1301,52.4029,-1.512574,149.42,18.82,4,270.95,23 / 25,133021,2019-09-08 10:09:59:645,-0.8475,-0.0785,10.2859,-0.0037,0.0015,9.8066,-0.0312,0.0248,-0.0138,-1.25,-22.62,19.13,17.79,-81.9,-162.35
1302,52.4029,-1.512574,149.42,18.82,4,270.95,23 / 25,133121,2019-09-08 10:09:59:745,-1.1014,0.1431,9.4776,0.0007,-0.0034,9.8066,0.0233,-0.0872,0.0386,-0.69,-22.87,19.25,18.04,-81.94,-162.12
1303,52.4029,-1.512574,149.42,18.82,4,270.95,23 / 25,133221,2019-09-08 10:09:59:845,-0.2881,0.249,9.4152,-0.0011,-0.0132,9.8066,-0.0935,0.0345,-0.053,-0.19,-22.44,19.44,21.46,-81.98,-162.12
1304,52.4029,-1.512574,149.42,18.82,4,270.95,23 / 25,133321,2019-09-08 10:09:59:945,0.2299,1.0681,10.1016,-0.005,-0.0107,9.8066,-0.0395,0.0046,-0.023,0.38,-22.0,19.31,21.51,-81.91,-162.11
1305,52.4029,-1.512574,149.42,18.82,4,270.95,23 / 25,133422,2019-09-08 10:10:00:046,0.2972,0.306,10.3725,-0.0055,0.006,9.8066,0.0055,0.0098,-0.0293,1.06,-21.69,18.19,26.28,-81.94,-161.48
1306,52.4029,-1.512574,149.42,18.82,4,270.95,23 / 25,133521,2019-09-08 10:10:00:145,-0.6723,0.3471,10.026,-0.0018,-0.0001,9.8066,0.0882,-0.0126,0.0123,0.88,-20.81,17.44,26.56,-81.92,-161.49
1307,52.4029,-1.512574,149.42,18.82,4,270.95,23 / 25,133621,2019-09-08 10:10:00:245,0.2144,0.3622,10.3701,0.0138,-0.0034,9.8066,-0.0161,-0.023,0.0301,0.06,-20.62,17.5,21.0,-81.68,-162.68
1308,52.4029,-1.512574,149.42,18.82,4,270.95,23 / 25,133721,2019-09-08 10:10:00:345,-0.0804,1.185,9.7894,0.0032,0.0171,9.8066,0.0506,-0.0227,0.017,-0.81,-18.69,17.69,15.65,-81.66,-163.69
1309,52.4029,-1.512574,149.42,18.82,4,270.95,21 / 26,133821,2019-09-08 10:10:00:445,-0.6958,-0.9637,9.4485,0.0002,-0.0184,9.8066,-0.2445,-0.0245,-0.1475,-0.37,-18.62,18.56,19.89,-81.59,-163.16
1310,52.4029,-1.512574,149.42,18.82,4,270.95,21 / 26,133922,2019-09-08 10:10:00:546,0.1022,1.606,9.8521,0.0065,-0.0215,9.8065,-0.1867,-0.027,-0.068,-0.69,-17.56,17.94,16.12,-81.85,-163.11
1311,52.4029,-1.512574,149.42,18.82,4,270.95,21 / 26,134021,2019-09-08 10:10:00:645,0.0673,1.0744,10.6074,0.0056,0.0166,9.8066,0.1365,-0.0026,0.003,-0.12,-16.94,17.69,19.57,-81.96,-163.14
1312,52.4029,-1.512574,149.42,18.82,4,270.95,21 / 26,134122,2019-09-08 10:10:00:746,-0.0539,0.7551,11.1081,-0.003,-0.0154,9.8065,0.0572,0.0133,0.0059,-0.31,-16.81,16.25,19.48,-81.82,-163.6
1313,52.4029,-1.512574,149.42,18.82,4,270.95,21 / 26,134221,2019-09-08 10:10:00:845,-0.4614,-0.2172,10.7483,-0.0013,-0.0186,9.8066,0.061,-0.0274,0.0439,-0.81,-17.19,15.13,14.63,-81.61,-164.09
1314,52.4029,-1.512574,149.42,18.82,4,270.95,21 / 26,134321,2019-09-08 10:10:00:945,-0.3078,0.7736,9.4709,0.0012,-0.0159,9.8066,-0.1277,-0.0101,0.0001,-2.25,-16.87,15.75,10.33,-81.36,-164.29
1315,52.4029,-1.512574,149.42,18.82,4,270.95,21 / 26,134421,2019-09-08 10:10:01:045,-0.8862,1.1435,9.6829,-0.0119,0.0283,9.8066,0.0762,0.0059,0.0139,-3.0,-16.94,15.13,7.04,-81.58,-162.86
1316,52.4029,-1.512574,149.42,18.82,4,270.95,21 / 26,134521,2019-09-08 10:10:01:145,-0.0226,1.3456,9.83,-0.0079,0.0118,9.8065,0.0225,0.0391,0.0017,-3.87,-16.62,15.88,4.1,-81.59,-162.52
1317,52.4029,-1.512574,149.42,18.82,4,270.95,21 / 26,134622,2019-09-08 10:10:01:246,-0.9063,0.627,9.9455,0.0003,-0.0056,9.8066,-0.0064,0.04,-0.0693,-5.0,-17.06,15.44,358.61,-81.58,-162.72
1318,52.4029,-1.512574,149.42,18.82,4,270.95,21 / 26,134721,2019-09-08 10:10:01:345,-0.0466,0.7674,9.7991,0.0159,-0.0085,9.8066,-0.0997,0.0186,-0.0448,-6.56,-17.37,15.31,349.43,-81.5,-163.84
1319,52.4029,-1.512574,149.42,18.82,4,270.95,19 / 24,134822,2019-09-08 10:10:01:446,-0.6467,1.223,9.972,-0.0035,0.0177,9.8066,0.1217,-0.054,0.0107,-6.81,-17.81,15.19,348.35,-81.5,-164.65
1320,52.4029,-1.512574,149.42,18.82,4,270.95,19 / 24,134921,2019-09-08 10:10:01:545,-1.0564,0.6332,10.8186,-0.002,0.0013,9.8065,0.082,-0.0378,0.0137,-7.5,-18.0,16.06,350.04,-81.57,-164.73
1321,52.4029,-1.512574,149.42,18.82,4,270.95,19 / 24,135022,2019-09-08 10:10:01:646,-0.1959,-0.0604,9.4421,-0.0026,0.0087,9.8066,0.0355,-0.0773,0.0318,-6.75,-18.62,16.06,349.88,-81.54,-164.77
1322,52.4029,-1.512574,149.42,18.82,4,270.95,19 / 24,135121,2019-09-08 10:10:01:745,-1.2722,1.7652,9.5549,-0.0116,0.0288,9.8066,0.0063,-0.0819,0.011,-5.94,-20.56,16.13,354.07,-81.5,-164.24
1323,52.4029,-1.512574,149.42,18.82,4,270.95,19 / 24,135221,2019-09-08 10:10:01:845,-1.8841,0.8061,9.6393,0.0,-0.0024,9.8066,-0.0171,-0.0246,-0.0055,-5.25,-20.31,15.13,357.17,-81.41,-163.83
1324,52.4029,-1.512574,149.42,18.82,4,270.95,19 / 24,135322,2019-09-08 10:10:01:946,-1.4665,-0.9487,8.7632,0.009,-0.0116,9.8066,-0.1189,-0.0964,0.0464,-4.94,-20.19,14.31,355.62,-81.44,-163.8
1325,52.4029,-1.512574,149.42,18.82,4,270.95,19 / 24,135422,2019-09-08 10:10:02:046,-1.7328,2.2908,10.0909,-0.0106,0.0316,9.8066,0.1758,-0.0659,-0.0272,-4.87,-20.12,13.44,354.38,-81.56,-163.34
1326,52.4029,-1.512574,149.42,18.82,4,270.95,19 / 24,135522,2019-09-08 10:10:02:146,-1.6423,0.746,10.0758,0.009,0.0089,9.8065,0.0529,-0.0412,0.0009,-5.44,-19.69,14.06,355.85,-81.67,-163.64
1327,52.4029,-1.512574,149.42,18.82,4,270.95,19 / 24,135622,2019-09-08 10:10:02:246,-0.8487,-0.0844,10.5502,0.0129,-0.0076,9.8066,0.1159,-0.0079,-0.028,-6.06,-19.19,15.5,353.42,-81.39,-164.86
1328,52.4029,-1.512574,149.42,18.82,4,270.95,19 / 24,135722,2019-09-08 10:10:02:346,-0.613,0.0337,9.8606,0.0057,-0.0182,9.8065,-0.0074,-0.0655,0.0604,-6.5,-18.37,16.19,352.82,-81.14,-165.38
1329,52.4029,-1.512574,149.42,18.82,4,270.95,16 / 19,135821,2019-09-08 10:10:02:445,-1.1616,-0.327,9.1963,-0.0316,0.0164,9.8066,0.2482,0.0286,-0.0234,-6.62,-18.87,16.88,351.42,-80.98,-164.71
1330,52.4029,-1.512574,149.42,18.82,4,270.95,16 / 19,135924,2019-09-08 10:10:02:548,-2.2016,0.1965,9.0724,0.0041,-0.0076,9.8066,0.0476,-0.1245,0.0969,-6.94,-19.69,17.13,353.06,-81.19,-163.32
1331,52.4029,-1.512574,149.42,18.82,4,270.95,16 / 19,136022,2019-09-08 10:10:02:646,-3.3686,2.4429,9.6119,-0.0295,0.0479,9.8064,0.0985,-0.0123,-0.0601,-6.56,-20.12,18.69,358.09,-81.47,-161.38
1332,52.4029,-1.512574,149.42,18.82,4,270.95,16 / 19,136121,2019-09-08 10:10:02:745,-0.5081,-1.0322,8.7655,0.0117,0.0328,9.8065,-0.0844,-0.1272,-0.0536,-6.19,-21.44,18.19,358.64,-81.4,-162.68
1333,52.4029,-1.512574,149.42,18.82,4,270.95,16 / 19,136221,2019-09-08 10:10:02:845,-2.7768,-0.0876,10.2207,0.0227,-0.0173,9.8065,0.0432,-0.0186,-0.07,-6.25,-21.25,17.81,357.37,-81.44,-163.73
1334,52.4029,-1.512574,149.42,18.82,4,270.95,16 / 19,136321,2019-09-08 10:10:02:945,-0.4902,1.3017,10.0267,0.0206,-0.0305,9.8065,-0.1457,-0.0331,-0.0219,-6.0,-21.5,17.94,354.47,-81.3,-166.11
1335,52.4029,-1.512574,149.42,18.82,4,270.95,16 / 19,136421,2019-09-08 10:10:03:045,-0.8504,0.4547,9.273,-0.0076,0.0167,9.8065,0.1197,-0.0626,-0.0114,-5.81,-22.25,17.81,354.29,-81.41,-166.22
1336,52.4029,-1.512574,149.42,18.82,4,270.95,16 / 19,136522,2019-09-08 10:10:03:146,-0.4371,1.2243,10.119,-0.0155,0.006,9.8066,-0.0771,0.0172,-0.0001,-5.12,-22.12,17.81,358.2,-81.43,-165.94
1337,52.4029,-1.512574,149.42,18.82,4,270.95,16 / 19,136622,2019-09-08 10:10:03:246,-1.6675,-0.1435,10.3067,0.0007,-0.0016,9.8066,0.0464,-0.089,0.0766,-5.56,-23.25,18.44,355.12,-81.38,-165.5
1338,52.4029,-1.512574,149.42,18.82,4,270.95,16 / 19,136721,2019-09-08 10:10:03:345,-1.2192,0.1662,9.5503,-0.0038,-0.0184,9.8066,-0.034,-0.0567,-0.0459,-5.0,-23.25,18.19,358.62,-81.19,-165.58
1339,52.4029,-1.512574,149.42,18.82,4,270.95,15 / 21,136821,2019-09-08 10:10:03:445,-1.7503,0.5774,9.7517,0.0088,0.0137,9.8066,0.0748,-0.0989,0.0143,-5.37,-24.31,17.63,358.07,-81.11,-166.0
1340,52.4029,-1.512574,149.42,18.82,4,270.95,15 / 21,136922,2019-09-08 10:10:03:546,-0.2259,-1.1928,9.8585,-0.0123,0.0046,9.8066,0.0321,-0.0217,-0.071,-5.81,-25.5,16.44,351.03,-81.2,-166.31
1341,52.4029,-1.512574,149.42,18.82,4,270.95,15 / 21,137021,2019-09-08 10:10:03:645,-0.7154,-1.0509,9.8232,0.0028,0.0039,9.8066,-0.186,-0.1498,0.0508,-5.75,-25.81,15.56,351.1,-81.23,-166.19
1342,52.4029,-1.512574,149.42,18.82,4,270.95,15 / 21,137122,2019-09-08 10:10:03:746,-2.0847,0.3532,10.2077,-0.0142,0.0204,9.8066,-0.0237,-0.0876,-0.005,-6.25,-25.87,14.63,349.88,-81.31,-165.76
1343,52.4029,-1.512574,149.42,18.82,4,270.95,15 / 21,137222,2019-09-08 10:10:03:846,-0.5654,-0.0936,9.4446,0.0081,-0.0084,9.8066,-0.0352,-0.1732,0.0727,-6.81,-24.19,13.38,341.4,-81.19,-165.53
1344,52.4029,-1.512574,149.42,18.82,4,270.95,15 / 21,137322,2019-09-08 10:10:03:946,-2.4242,-1.3039,9.6138,-0.0062,-0.0046,9.8066,0.0158,-0.0688,-0.0123,-7.06,-23.56,13.63,345.1,-81.17,-164.69
1345,52.4029,-1.512574,149.42,18.82,4,270.95,15 / 21,137421,2019-09-08 10:10:04:045,-1.3398,-0.3322,9.3098,-0.0045,0.008,9.8066,-0.1299,-0.1171,-0.0111,-7.31,-22.94,14.56,348.23,-81.21,-164.13
1346,52.4029,-1.512574,149.42,18.82,4,270.95,15 / 21,137521,2019-09-08 10:10:04:145,-1.9127,0.0622,9.9614,-0.0058,0.0041,9.8066,-0.0128,-0.0614,-0.0483,-7.37,-21.25,15.0,349.21,-81.31,-163.59
1347,52.4029,-1.512574,149.42,18.82,4,270.95,15 / 21,137621,2019-09-08 10:10:04:245,-1.6614,-0.4657,9.7439,-0.0002,-0.0149,9.8066,-0.0281,-0.0719,-0.0216,-8.5,-21.87,15.31,344.72,-81.24,-164.06
1348,52.4029,-1.512574,149.42,18.82,4,270.95,15 / 21,137721,2019-09-08 10:10:04:345,-0.5497,-0.9456,9.331,0.009,-0.0057,9.8065,-0.0357,-0.077,0.0124,-8.5,-21.62,14.88,344.77,-81.1,-163.96
1349,52.4029,-1.512574,149.42,18.82,4,270.95,May-23,137822,2019-09-08 10:10:04:446,-2.2463,-0.482,10.6862,-0.0111,0.0158,9.8065,0.0904,-0.0525,-0.0197,-8.94,-23.62,16.19,343.71,-81.06,-163.48
1350,52.4029,-1.512574,149.42,18.82,4,270.95,May-23,137922,2019-09-08 10:10:04:546,-1.4121,-2.6144,11.1545,0.0083,-0.0247,9.8066,0.0749,-0.1317,0.0018,-9.25,-25.56,16.88,345.02,-80.96,-163.76
1351,52.4029,-1.512574,149.42,18.82,4,270.95,May-23,138021,2019-09-08 10:10:04:645,-3.285,0.1316,10.1572,-0.0073,0.025,9.8066,0.0784,-0.0589,-0.0614,-8.56,-26.06,15.75,342.2,-80.88,-164.29
1352,52.4029,-1.512574,149.42,18.82,4,270.95,May-23,138122,2019-09-08 10:10:04:746,-0.985,-0.3567,10.4542,-0.0017,0.0227,9.8065,0.0745,-0.1134,-0.0112,-7.44,-26.31,15.06,346.14,-81.04,-165.32
1353,52.4029,-1.512574,149.42,18.82,4,270.95,May-23,138222,2019-09-08 10:10:04:846,-1.1634,-2.1091,9.8482,0.0039,-0.0091,9.8066,0.0184,-0.0364,-0.007,-7.44,-26.69,14.31,343.25,-80.97,-165.51
1354,52.4029,-1.512574,149.42,18.82,4,270.95,May-23,138322,2019-09-08 10:10:04:946,-2.4669,-0.8902,10.2124,0.0054,-0.0212,9.8066,0.0243,-0.1217,0.0982,-7.62,-26.62,13.81,339.05,-80.9,-165.52
1355,52.4029,-1.512574,149.42,18.82,4,270.95,May-23,138422,2019-09-08 10:10:05:046,-1.8901,-0.5239,10.3493,0.004,-0.0094,9.8065,0.0482,-0.0963,0.0307,-7.06,-26.06,13.19,341.46,-80.84,-164.9
1356,52.4029,-1.512574,149.42,18.82,4,270.95,May-23,138521,2019-09-08 10:10:05:145,-1.4259,0.3196,9.6422,-0.0021,-0.0143,9.8066,-0.0248,-0.086,0.0197,-7.06,-24.81,12.69,341.88,-80.78,-164.76
1357,52.4029,-1.512574,149.42,18.82,4,270.95,May-23,138621,2019-09-08 10:10:05:245,-1.4944,-0.8952,9.6253,0.0026,-0.0083,9.8066,0.0272,-0.1081,0.0932,-7.56,-24.25,13.44,338.48,-80.88,-164.41
1358,52.4029,-1.512574,149.42,18.82,4,270.95,May-23,138722,2019-09-08 10:10:05:346,-0.5676,-0.6119,9.5887,-0.002,-0.0179,9.8066,0.0314,-0.0495,-0.0221,-7.87,-23.25,13.69,342.16,-80.73,-163.84
1359,52.4029,-1.512574,149.42,18.82,4,270.95,May-19,138821,2019-09-08 10:10:05:445,-2.0191,-1.3272,10.4327,0.002,-0.0166,9.8066,0.0463,-0.0888,0.0544,-7.81,-22.81,13.56,342.13,-80.74,-163.86
1360,52.4029,-1.512574,149.42,18.82,4,270.95,May-19,138921,2019-09-08 10:10:05:545,-1.6724,-1.3983,10.355,0.0008,-0.0016,9.8066,0.1493,-0.1192,0.0268,-7.37,-22.69,14.25,346.15,-80.57,-163.8
1361,52.4029,-1.512574,149.42,18.82,4,270.95,May-19,139021,2019-09-08 10:10:05:645,-1.1557,-0.3901,10.3662,0.018,-0.0143,9.8065,-0.0137,-0.116,0.0187,-6.94,-23.62,14.13,344.1,-80.24,-165.02
1362,52.4029,-1.512574,149.42,18.82,4,270.95,May-19,139122,2019-09-08 10:10:05:746,-1.1082,-1.369,10.3082,0.0027,0.0017,9.8066,-0.0147,-0.0952,0.0181,-6.69,-23.19,13.56,343.97,-80.18,-165.27
1363,52.4029,-1.512574,149.42,18.82,4,270.95,May-19,139221,2019-09-08 10:10:05:845,-2.3343,-1.6189,9.8363,-0.0097,-0.0104,9.8066,-0.0305,-0.119,-0.0047,-7.06,-22.31,12.44,339.11,-80.19,-164.82
1364,52.4029,-1.512574,149.42,18.82,4,270.95,May-19,139321,2019-09-08 10:10:05:945,-2.0356,-1.87,10.8453,-0.0042,0.0118,9.8065,0.1339,-0.1615,0.0447,-7.19,-21.56,10.06,332.28,-80.26,-164.21
1365,52.4029,-1.512574,149.42,18.82,4,270.95,May-19,139421,2019-09-08 10:10:06:045,-2.6463,-1.4989,9.926,0.0459,-0.0188,9.8065,-0.0941,-0.015,-0.0537,-7.5,-21.12,9.81,331.56,-80.09,-164.96
1366,52.4029,-1.512574,149.42,18.82,4,270.95,May-19,139521,2019-09-08 10:10:06:145,0.0206,-0.6238,9.4707,0.0322,-0.0253,9.8065,-0.1654,-0.149,0.0406,-7.31,-20.5,10.13,328.54,-79.71,-167.23
1367,52.4029,-1.512574,149.42,18.82,4,270.95,May-19,139621,2019-09-08 10:10:06:245,-0.2238,-0.5505,10.0441,-0.0711,0.0734,9.8061,0.2424,-0.153,0.0317,-8.0,-20.69,11.31,329.97,-80.18,-166.04
1368,52.4029,-1.512574,149.42,18.82,4,270.95,May-19,139721,2019-09-08 10:10:06:345,-3.4201,-1.5933,10.9394,-0.0635,0.0761,9.8061,0.4678,-0.2372,0.1342,-7.62,-20.19,12.81,337.97,-80.3,-165.38
1369,52.4029,-1.512574,149.42,18.82,4,270.95,May-17,139822,2019-09-08 10:10:06:446,-2.4122,-1.2901,11.8668,0.0784,-0.0931,9.8058,-0.0971,-0.1846,-0.0709,-7.87,-21.62,13.88,339.83,-80.17,-165.54
1370,52.4029,-1.512574,149.42,18.82,4,270.95,May-17,139922,2019-09-08 10:10:06:546,-2.0779,-1.6766,10.1542,0.0773,-0.0709,9.806,-0.1112,-0.0307,-0.053,-7.0,-20.56,14.5,341.14,-79.42,-169.22
1371,52.4029,-1.512574,149.42,18.82,4,270.95,May-17,140022,2019-09-08 10:10:06:646,-2.0216,-0.9779,8.1965,-0.0476,0.107,9.8058,0.0744,-0.2117,0.0412,-6.81,-20.75,14.81,340.29,-79.28,-169.8
1372,52.4029,-1.512574,149.42,18.82,4,270.95,May-17,140122,2019-09-08 10:10:06:746,-1.4644,-0.0982,9.9031,-0.0449,0.06,9.8063,0.1634,-0.1678,0.0908,-7.25,-22.06,14.63,341.47,-80.06,-169.06
1373,52.4029,-1.512574,149.42,18.82,4,270.95,May-17,140222,2019-09-08 10:10:06:846,-1.1998,-1.6169,10.3763,0.018,-0.045,9.8064,-0.0299,-0.1011,0.0425,-7.87,-24.62,15.75,340.18,-79.67,-168.07
1374,52.4029,-1.512574,149.42,18.82,4,270.95,May-17,140322,2019-09-08 10:10:06:946,0.1497,-0.8142,10.1996,0.022,-0.0364,9.8065,0.001,-0.0286,-0.0548,-7.69,-26.44,14.31,333.85,-79.47,-168.54
1375,52.4029,-1.512574,149.42,18.82,4,270.95,May-17,140422,2019-09-08 10:10:07:046,-2.64,0.4298,10.3543,0.0039,0.0281,9.8066,0.2384,-0.0335,-0.0698,-7.5,-27.62,12.44,330.42,-79.27,-168.17
1376,52.4029,-1.512574,149.42,18.82,4,270.95,May-17,140522,2019-09-08 10:10:07:146,-2.7943,-1.6178,8.7671,-0.0641,0.0315,9.8063,0.19,-0.0553,0.1177,-7.37,-27.56,10.19,321.25,-79.62,-168.21
1377,52.4029,-1.512574,149.42,18.82,4,270.95,May-17,140621,2019-09-08 10:10:07:245,-2.8207,0.831,9.5109,-0.0154,0.0021,9.8066,-0.0776,-0.2368,0.2666,-8.06,-26.31,9.56,320.21,-79.71,-167.17
1378,52.4029,-1.512574,149.42,18.82,4,270.95,May-17,140721,2019-09-08 10:10:07:345,-2.3186,-0.9371,9.9377,0.0189,-0.0385,9.8065,0.0066,0.0835,-0.1679,-7.62,-26.87,9.63,321.65,-79.49,-165.32
1379,52.40319,-1.514908,148.3,17.71,32,304.26,Nov-17,140822,2019-09-08 10:10:07:446,-4.0627,-0.8338,9.0194,-0.0358,0.039,9.8065,0.3034,-0.0417,-0.0882,-7.5,-26.5,11.13,329.95,-79.19,-166.29
1380,52.40319,-1.514908,148.3,17.71,32,304.26,Nov-17,140921,2019-09-08 10:10:07:545,0.4307,-0.4551,10.4724,0.0151,0.049,9.8064,0.2336,-0.0289,-0.0008,-7.37,-26.44,10.69,327.28,-79.34,-168.24
1381,52.40319,-1.514908,148.3,17.71,32,304.26,Nov-17,141021,2019-09-08 10:10:07:645,-0.4444,-0.7091,10.2827,0.0376,-0.0229,9.8065,-0.1724,-0.0445,0.0507,-7.31,-26.25,11.75,330.42,-79.15,-168.83
1382,52.40319,-1.514908,148.3,17.71,32,304.26,Nov-17,141122,2019-09-08 10:10:07:746,-2.0669,-1.7283,9.3425,0.0185,-0.0527,9.8064,-0.2179,-0.0515,0.011,-6.44,-27.0,11.63,334.74,-78.93,-168.76
1383,52.40319,-1.514908,148.3,17.71,32,304.26,Nov-17,141222,2019-09-08 10:10:07:846,-0.7586,-1.9282,9.7479,-0.0318,0.0224,9.8065,0.0591,-0.179,0.0571,-5.69,-28.0,11.56,337.26,-79.32,-167.2
1384,52.40319,-1.514908,148.3,17.71,32,304.26,Nov-17,141322,2019-09-08 10:10:07:946,-3.2354,0.1059,10.9435,-0.0054,-0.0105,9.8066,0.0259,-0.059,-0.0177,-6.06,-27.69,10.63,333.79,-79.2,-166.5
1385,52.40319,-1.514908,148.3,17.71,32,304.26,Nov-17,141422,2019-09-08 10:10:08:046,-1.2644,-0.8137,11.2334,0.0316,-0.0443,9.8064,-0.0773,-0.0858,0.0237,-6.31,-27.94,10.75,332.56,-79.11,-167.14
1386,52.40319,-1.514908,148.3,17.71,32,304.26,Nov-17,141521,2019-09-08 10:10:08:145,-0.2766,-0.0654,9.9305,0.045,-0.042,9.8064,-0.0671,-0.0536,0.0124,-6.69,-28.69,10.31,318.08,-78.52,-167.77
1387,52.40319,-1.514908,148.3,17.71,32,304.26,Nov-17,141621,2019-09-08 10:10:08:245,-1.7244,-1.7726,10.0253,-0.0223,0.0194,9.8065,0.0481,-0.0559,-0.0194,-5.69,-28.87,9.81,324.48,-78.58,-167.28
1388,52.40319,-1.514908,148.3,17.71,32,304.26,Nov-17,141722,2019-09-08 10:10:08:346,-3.492,-1.0163,9.9599,-0.049,0.0154,9.8064,0.1647,-0.0942,0.0731,-6.75,-28.81,9.44,314.93,-78.97,-166.3
1389,52.40319,-1.514908,148.3,17.71,32,304.26,17 / 22,141822,2019-09-08 10:10:08:446,-1.1082,-2.3156,9.9875,0.044,-0.0162,9.8064,-0.1043,-0.0922,0.0357,-7.94,-28.25,8.25,305.83,-79.0,-165.86
1390,52.40319,-1.514908,148.3,17.71,32,304.26,17 / 22,141921,2019-09-08 10:10:08:545,-1.2036,-1.1529,9.7582,0.0361,-0.0089,9.8065,-0.0922,-0.1032,0.0793,-9.06,-27.62,8.56,307.66,-78.77,-166.74
1391,52.40319,-1.514908,148.3,17.71,32,304.26,17 / 22,142021,2019-09-08 10:10:08:645,-2.2237,-1.3668,9.8203,-0.0316,0.0127,9.8065,0.1293,-0.0878,-0.0357,-10.44,-26.37,8.88,307.66,-78.74,-166.19
1392,52.40319,-1.514908,148.3,17.71,32,304.26,17 / 22,142121,2019-09-08 10:10:08:745,-1.8794,-1.186,10.0647,-0.0334,0.015,9.8065,0.0639,-0.0909,-0.003,-10.19,-24.5,8.94,309.91,-78.95,-166.18
1393,52.40319,-1.514908,148.3,17.71,32,304.26,17 / 22,142222,2019-09-08 10:10:08:846,-0.6954,-1.7233,9.5716,0.037,-0.0127,9.8065,-0.1706,-0.1029,-0.0272,-10.37,-22.75,10.38,314.16,-78.89,-167.17
1394,52.40319,-1.514908,148.3,17.71,32,304.26,17 / 22,142322,2019-09-08 10:10:08:946,-2.0858,0.3421,9.4531,0.0054,0.0096,9.8065,-0.1384,-0.0725,-0.0232,-9.56,-22.81,9.5,313.95,-79.12,-167.64
1395,52.40319,-1.514908,148.3,17.71,32,304.26,17 / 22,142422,2019-09-08 10:10:09:046,-2.0826,-0.8932,10.8129,-0.0041,-0.012,9.8066,0.0737,-0.0626,-0.0119,-8.87,-23.56,9.44,311.74,-79.25,-167.39
1396,52.40319,-1.514908,148.3,17.71,32,304.26,17 / 22,142521,2019-09-08 10:10:09:145,-2.3038,0.8054,13.0368,0.0446,-0.0154,9.8065,0.0937,-0.0864,0.0363,-7.81,-25.12,9.31,312.04,-78.77,-168.11
1397,52.40319,-1.514908,148.3,17.71,32,304.26,17 / 22,142621,2019-09-08 10:10:09:245,0.0817,-3.6812,11.1733,0.0824,-0.0781,9.8059,-0.1222,-0.1185,0.0603,-6.56,-26.94,9.63,319.36,-78.36,-168.02
1398,52.40319,-1.514908,148.3,17.71,32,304.26,17 / 22,142722,2019-09-08 10:10:09:346,0.7646,1.0172,8.2864,0.0211,-0.0477,9.8064,-0.361,-0.1031,0.0212,-6.81,-27.44,9.56,317.69,-77.84,-168.2
1399,52.40319,-1.514908,148.3,17.71,32,304.26,19 / 25,142822,2019-09-08 10:10:09:446,-0.0503,-0.53,7.5237,-0.0586,0.052,9.8063,0.0122,-0.2113,0.1593,-8.44,-27.12,9.69,319.19,-78.95,-166.18
1400,52.40319,-1.514908,148.3,17.71,32,304.26,19 / 25,142921,2019-09-08 10:10:09:545,-2.5074,0.8173,9.3289,-0.0665,0.043,9.8063,0.1061,-0.0919,-0.0714,-8.87,-27.87,8.13,305.32,-79.41,-165.2
1401,52.40319,-1.514908,148.3,17.71,32,304.26,19 / 25,143022,2019-09-08 10:10:09:646,-1.3502,-1.7657,10.4973,0.0433,-0.0056,9.8065,0.021,-0.0948,-0.0558,-9.31,-26.87,8.94,310.9,-79.24,-165.99
1402,52.40319,-1.514908,148.3,17.71,32,304.26,19 / 25,143121,2019-09-08 10:10:09:745,-8.3689,0.6293,12.9823,-0.0431,0.0533,9.8064,0.1577,-0.4101,0.3901,-8.87,-27.69,10.31,313.29,-79.11,-167.4
1403,52.40319,-1.514908,148.3,17.71,32,304.26,19 / 25,143221,2019-09-08 10:10:09:845,-5.3196,-2.1879,10.4973,-0.0223,0.0122,9.8066,0.9294,0.2889,-0.3523,-8.87,-27.87,11.19,319.42,-78.29,-165.49
1404,52.40319,-1.514908,148.3,17.71,32,304.26,19 / 25,143321,2019-09-08 10:10:09:945,3.3774,-7.8243,10.4539,-0.0018,-0.0244,9.8066,0.3407,0.4844,-0.3484,-8.25,-28.62,10.56,322.23,-78.17,-165.5
1405,52.40319,-1.514908,148.3,17.71,32,304.26,19 / 25,143421,2019-09-08 10:10:10:045,-4.3037,-1.1498,6.9588,-0.049,0.0506,9.8063,-0.5084,0.0374,-0.0149,-7.37,-29.25,9.31,314.02,-79.02,-166.99
1406,52.40319,-1.514908,148.3,17.71,32,304.26,19 / 25,143521,2019-09-08 10:10:10:145,-2.2919,0.5902,7.2888,0.0184,0.0029,9.8065,-0.5319,-0.0075,0.0129,-6.81,-29.37,8.81,311.43,-78.93,-168.45
1407,52.40319,-1.514908,148.3,17.71,32,304.26,19 / 25,143621,2019-09-08 10:10:10:245,-1.5547,1.5715,8.6772,-0.0064,0.0165,9.8066,0.3332,-0.0169,-0.034,-5.19,-29.12,8.38,312.33,-78.94,-168.99
1408,52.40319,-1.514908,148.3,17.71,32,304.26,19 / 25,143721,2019-09-08 10:10:10:345,0.2424,-1.3312,10.0674,-0.0189,0.0089,9.8066,0.1141,-0.0563,0.0761,-6.0,-29.37,8.38,306.34,-78.94,-169.3
1409,52.40319,-1.514908,148.3,17.71,32,304.26,22 / 27,143823,2019-09-08 10:10:10:447,0.8974,0.8106,10.3026,0.0344,-0.0067,9.8065,-0.2619,-0.1557,0.1166,-6.31,-29.19,8.31,306.73,-79.04,-169.32
1410,52.40319,-1.514908,148.3,17.71,32,304.26,22 / 27,143921,2019-09-08 10:10:10:545,0.1934,-0.0541,10.8195,0.0514,-0.0278,9.8065,-0.1943,-0.0685,-0.0065,-6.56,-28.87,9.0,309.6,-78.89,-169.54
1411,52.40319,-1.514908,148.3,17.71,32,304.26,22 / 27,144021,2019-09-08 10:10:10:645,-0.2179,1.9537,10.643,-0.0453,0.0412,9.8064,0.2821,-0.0794,0.0351,-5.81,-29.44,9.13,315.18,-79.25,-169.79
1412,52.40319,-1.514908,148.3,17.71,32,304.26,22 / 27,144122,2019-09-08 10:10:10:746,0.7191,-0.1786,9.6245,-0.0295,0.0182,9.8065,0.1837,-0.0192,0.0001,-4.94,-30.19,9.13,320.08,-79.2,-169.7
1413,52.40319,-1.514908,148.3,17.71,32,304.26,22 / 27,144221,2019-09-08 10:10:10:845,-0.9242,-0.4847,10.3775,0.0132,-0.0267,9.8066,-0.1528,0.0366,-0.0354,-5.12,-29.69,8.63,320.78,-79.15,-169.22
1414,52.40319,-1.514908,148.3,17.71,32,304.26,22 / 27,144321,2019-09-08 10:10:10:945,-0.5558,0.8253,8.8407,0.0115,-0.0212,9.8065,-0.0962,0.0001,0.0226,-4.75,-29.81,9.0,321.58,-78.99,-168.47
1415,52.40319,-1.514908,148.3,17.71,32,304.26,22 / 27,144421,2019-09-08 10:10:11:045,-1.0847,-0.653,9.7888,-0.0357,-0.0033,9.8065,0.1081,0.0912,-0.0549,-4.81,-30.37,8.5,322.69,-78.89,-167.69
1416,52.40319,-1.514908,148.3,17.71,32,304.26,22 / 27,144521,2019-09-08 10:10:11:145,-1.1125,-0.9449,10.7088,-0.0107,-0.0173,9.8066,-0.0067,-0.0648,0.0711,-4.69,-30.25,7.69,317.02,-79.02,-165.83
1417,52.40319,-1.514908,148.3,17.71,32,304.26,22 / 27,144622,2019-09-08 10:10:11:246,-0.7555,0.5097,10.3829,0.0037,-0.0019,9.8066,-0.0517,0.0316,-0.0589,-5.25,-30.56,6.81,303.65,-79.21,-165.71
1418,52.40319,-1.514908,148.3,17.71,32,304.26,22 / 27,144722,2019-09-08 10:10:11:346,-0.7772,0.4078,9.6478,0.0323,0.0151,9.8065,-0.0272,-0.101,0.005,-5.62,-30.69,7.19,298.34,-79.27,-166.68
1419,52.40319,-1.514908,148.3,17.71,32,304.26,24 / 26,144821,2019-09-08 10:10:11:445,0.4956,0.2625,8.4087,-0.0392,0.0064,9.8065,0.1121,0.0421,-0.0227,-6.56,-30.0,6.63,297.07,-79.27,-166.9
1420,52.40319,-1.514908,148.3,17.71,32,304.26,24 / 26,144922,2019-09-08 10:10:11:546,-0.8503,-0.0633,10.2033,-0.0346,-0.0053,9.8066,0.0483,-0.0369,0.0842,-7.31,-30.56,6.63,298.23,-79.54,-165.89
1421,52.40319,-1.514908,148.3,17.71,32,304.26,24 / 26,145021,2019-09-08 10:10:11:645,0.1304,-0.2723,10.3436,0.0066,-0.013,9.8066,-0.0177,-0.0605,0.0282,-6.62,-29.19,6.94,303.05,-79.51,-164.6
1422,52.40319,-1.514908,148.3,17.71,32,304.26,24 / 26,145121,2019-09-08 10:10:11:745,-0.9247,0.2054,9.8998,-0.0164,0.0043,9.8066,0.149,0.0152,-0.0566,-6.12,-29.5,8.06,317.03,-79.45,-164.21
1423,52.40319,-1.514908,148.3,17.71,32,304.26,24 / 26,145221,2019-09-08 10:10:11:845,-0.9825,0.3888,8.8013,-0.0345,0.0139,9.8065,-0.0193,-0.052,0.0652,-5.56,-29.44,6.88,306.89,-79.54,-164.55
1424,52.40319,-1.514908,148.3,17.71,32,304.26,24 / 26,145322,2019-09-08 10:10:11:946,0.3428,1.2947,8.5396,-0.0671,0.0339,9.8063,0.0803,0.0454,-0.1109,-6.5,-29.0,6.25,298.08,-79.86,-164.04
1425,52.40319,-1.514908,148.3,17.71,32,304.26,24 / 26,145421,2019-09-08 10:10:12:045,-1.4825,0.7762,9.8301,0.0151,-0.0057,9.8065,-0.0889,-0.0048,-0.0795,-6.94,-29.37,5.75,296.23,-79.98,-164.21
1426,52.40319,-1.514908,148.3,17.71,32,304.26,24 / 26,145521,2019-09-08 10:10:12:145,-0.071,2.0113,10.352,0.0021,0.013,9.8066,0.1151,0.0546,-0.0722,-7.69,-28.69,5.5,293.58,-80.03,-165.18
1427,52.40319,-1.514908,148.3,17.71,32,304.26,24 / 26,145621,2019-09-08 10:10:12:245,0.4367,1.2322,8.6791,0.024,0.0138,9.8066,-0.1527,-0.0266,0.0721,-8.12,-28.19,5.88,294.54,-79.96,-165.27
1428,52.40319,-1.514908,148.3,17.71,32,304.26,24 / 26,145721,2019-09-08 10:10:12:345,-1.9712,-0.1434,10.6784,-0.0041,-0.0221,9.8066,-0.0705,-0.035,0.0296,-8.19,-27.81,5.81,294.08,-79.85,-165.28
1429,52.40319,-1.514908,148.3,17.71,32,304.26,24 / 26,145821,2019-09-08 10:10:12:445,0.4534,1.8909,9.0203,0.0013,-0.0064,9.8066,-0.211,-0.0649,0.1073,-8.87,-28.44,7.06,300.03,-79.95,-165.42
1430,52.40319,-1.514908,148.3,17.71,32,304.26,25 / 27,145922,2019-09-08 10:10:12:546,-1.596,1.5231,6.8887,-0.0394,0.0181,9.8065,-0.2626,-0.0965,0.1088,-8.75,-27.87,7.13,302.41,-80.22,-164.24
