,GPS LATITUDE (degrees), GPS LONGITUDE (degrees), GPS ALTITUDE (m), GPS SPEED (Kmh), GPS ACCURACY (m), GPS ORIENTATION (Â°),GPS SATELLITES IN RANGE, TIME SINCE START (ms), DATE (YYYY-MO-DD HH-MI-SS_SSS), ACCELEROMETER X (m/s²) , ACCELEROMETER Y (m/s²), ACCELEROMETER Z (m/s²), GRAVITY X (m/s²), GRAVITY Y (m/s²), GRAVITY Z (m/s²), GYROSCOPE Yaw (rad/s), GYROSCOPE Pitch (rad/s), GYROSCOPE Roll (rad/s), MAGNETIC FIELD X (Î¼T), MAGNETIC FIELD Y (Î¼T), MAGNETIC FIELD Z (Î¼T), ORIENTATION (Yaw) (Â°), ORIENTATION (Pitch) (Â°), ORIENTATION (Roll ) (Â°)
6700,52.48232,-1.923445,638.71,55.87,32.258064,35.5,16 / 23,3350054,2019-09-28 14:27:47:743,0.2187,-0.3537,9.6659,0.0819,0.1681,9.8049,-0.006,-0.0681,-0.0107,29.07,-6.14,-4.16,11.54,-0.68,-0.97
6701,52.48232,-1.923445,638.71,55.87,32.258064,35.5,16 / 23,3350553,2019-09-28 14:27:48:242,0.4837,-1.0942,10.8241,0.0001,0.203,9.8045,0.0548,0.032,-0.0309,28.19,-9.99,2.37,17.91,0.26,-1.08
6702,52.48242,-1.923329,635.48,54.25,32.258064,35.5,17 / 24,3351055,2019-09-28 14:27:48:744,0.4559,-0.2841,8.9022,-0.0807,0.0987,9.8058,-0.006,0.0235,-0.0149,28.47,-8.82,3.43,17.87,0.23,-0.59
6703,52.48242,-1.923329,635.48,54.25,32.258064,35.5,17 / 24,3351553,2019-09-28 14:27:49:242,-0.4339,0.3806,9.7909,-0.0532,0.1,9.806,0.0409,-0.0276,-0.0032,28.48,-8.91,-3.06,19.65,0.51,-0.93
6704,52.48255,-1.923176,638.71,57.17,35.48387,35.3,17 / 24,3352053,2019-09-28 14:27:49:742,-0.0843,-0.1259,9.4041,-0.111,-0.0989,9.8055,0.0675,-0.0894,-0.0607,27.12,-11.18,-6.27,19.73,0.42,0.25
6705,52.48255,-1.923176,638.71,57.17,35.48387,35.3,17 / 24,3352554,2019-09-28 14:27:50:243,-0.1256,-0.1617,9.5251,-0.091,-0.0949,9.8058,0.0164,-0.017,0.0011,27.59,-11.61,-2.07,23.24,0.63,0.5
6706,52.48268,-1.923023,632.26,58.68,35.48387,35.3,17 / 24,3353054,2019-09-28 14:27:50:743,0.513,-0.1056,10.0016,-0.1698,-0.101,9.8047,0.0015,-0.0021,0.0085,28.89,-8.0,1.29,15.4,0.99,0.59
6707,52.48268,-1.923023,632.26,58.68,35.48387,35.3,17 / 24,3353553,2019-09-28 14:27:51:242,0.16,0.0861,9.4231,-0.1021,-0.1082,9.8055,0.0334,0.0853,0.0,28.82,-8.23,-1.32,15.45,0.6,0.63
6708,52.48279,-1.9229,632.26,56.09,35.48387,35.3,17 / 24,3354053,2019-09-28 14:27:51:742,-0.4659,-0.2354,10.0312,-0.1853,-0.2657,9.8013,0.0207,0.0161,0.0064,29.06,-7.16,-2.0,13.62,0.81,1.42
6709,52.48279,-1.9229,632.26,56.09,35.48387,35.3,17 / 24,3354554,2019-09-28 14:27:52:243,0.6413,-0.5978,9.3064,-0.1298,-0.3984,9.7977,0.0185,-0.0287,-0.0128,29.26,-6.3,-2.0,11.84,0.76,2.33
6710,52.48291,-1.922764,625.81,53.64,32.258064,35.4,17 / 24,3355054,2019-09-28 14:27:52:743,-0.2242,-0.437,8.9735,-0.1873,-0.3472,9.7987,0.0643,0.0129,-0.0916,29.3,-6.31,-1.2,11.76,1.26,2.1
6711,52.48291,-1.922764,625.81,53.64,32.258064,35.4,17 / 24,3355554,2019-09-28 14:27:53:243,0.0044,-1.2783,9.3722,-0.1921,-0.4068,9.7963,-0.0134,0.0043,-0.0085,29.45,-5.62,-1.08,11.77,1.12,2.38
6712,52.483006,-1.922652,622.58,53.03,32.258064,35.9,17 / 24,3356054,2019-09-28 14:27:53:743,0.7845,-0.3729,9.7277,-0.0907,-0.3633,9.7995,-0.0081,0.0075,0.0213,28.92,-7.91,-0.98,15.48,0.53,2.12
6713,52.483006,-1.922652,622.58,53.03,32.258064,35.9,17 / 24,3356553,2019-09-28 14:27:54:242,1.2398,-1.103,8.5341,0.2331,-0.3037,9.7992,-0.0347,-0.0734,0.0,29.01,-7.44,-1.68,13.68,-1.07,1.94
6714,52.4831,-1.922539,629.03,52.52,32.258064,36.1,17 / 24,3357053,2019-09-28 14:27:54:742,-0.2526,-0.8567,10.1907,0.2746,-0.1967,9.8008,-0.0209,-0.0468,0.017,28.43,-8.91,-3.49,17.87,-1.83,1.07
6715,52.4831,-1.922539,629.03,52.52,32.258064,36.1,17 / 24,3357553,2019-09-28 14:27:55:242,-0.6337,0.7735,9.6626,0.1502,-0.1006,9.805,0.0302,-0.0138,-0.0234,28.6,-8.64,-2.72,17.85,-1.07,0.65
6716,52.48322,-1.922399,629.03,53.46,32.258064,36.8,17 / 24,3358053,2019-09-28 14:27:55:742,-0.1582,0.6274,8.9335,0.042,-0.0635,9.8064,0.0558,-0.0596,-0.0671,27.93,-9.9,-4.67,19.71,-0.55,0.53
6717,52.48322,-1.922399,629.03,53.46,32.258064,36.8,17 / 24,3358553,2019-09-28 14:27:56:242,0.4253,-0.2224,8.2696,0.0178,-0.0632,9.8064,-0.0699,-0.0745,0.0224,27.41,-11.54,-3.91,24.0,-0.1,0.37
6718,52.483334,-1.922264,622.58,54.0,32.258064,37.4,17 / 24,3359053,2019-09-28 14:27:56:742,0.1326,-0.2499,9.793,-0.1016,-0.0665,9.8059,-0.0124,-0.0212,-0.0117,27.41,-11.54,-3.91,24.02,0.53,0.37
6719,52.483334,-1.922264,622.58,54.0,32.258064,37.4,17 / 24,3359554,2019-09-28 14:27:57:243,0.0829,0.1125,9.818,-0.155,-0.074,9.8051,-0.023,-0.0223,0.0192,27.23,-11.23,-5.66,22.32,0.91,0.42
6720,52.48344,-1.922138,625.81,53.75,32.258064,38.3,17 / 24,3360054,2019-09-28 14:27:57:743,-0.5078,-0.2772,9.9464,-0.1648,-0.0824,9.8049,0.0057,-0.0436,-0.0192,28.64,-8.84,-1.24,17.27,0.92,0.49
6721,52.48344,-1.922138,625.81,53.75,32.258064,38.3,17 / 24,3360554,2019-09-28 14:27:58:243,0.1686,-0.5473,9.8491,-0.2404,-0.0827,9.8034,-0.0507,-0.0116,0.032,27.88,-10.93,-1.8,21.51,1.33,0.42
6722,52.483543,-1.921991,625.81,54.25,32.258064,39.3,17 / 24,3361054,2019-09-28 14:27:58:743,-0.4182,-0.2222,8.8815,-0.2205,-0.0553,9.804,0.0164,0.0161,-0.0138,28.06,-10.57,-1.01,21.48,1.39,0.38
6723,52.483543,-1.921991,625.81,54.25,32.258064,39.3,17 / 24,3361554,2019-09-28 14:27:59:243,0.151,-0.1723,8.063,-0.2082,0.0099,9.8044,0.0143,-0.0372,-0.0266,27.8,-11.24,-1.02,21.47,1.22,-0.06
6724,52.48363,-1.92188,629.03,51.44,32.258064,39.6,17 / 24,3362054,2019-09-28 14:27:59:743,-1.4628,0.1831,10.4523,-0.284,-0.0999,9.802,0.0484,0.0139,-0.0085,27.41,-7.94,-9.26,16.69,1.35,0.18
6725,52.48363,-1.92188,629.03,51.44,32.258064,39.6,17 / 24,3362553,2019-09-28 14:28:00:242,-1.1671,-0.3582,10.365,-0.6312,-0.0403,9.7862,-0.0763,0.0171,0.1151,27.88,-10.96,1.56,21.38,3.6,0.3
6726,52.483757,-1.92171,622.58,53.93,32.258064,40.2,17 / 24,3363054,2019-09-28 14:28:00:743,-1.8192,0.1005,10.0807,-1.0694,-0.1458,9.7471,-0.0134,0.0139,-0.0085,28.19,-10.26,0.38,19.72,5.27,0.76
6727,52.483757,-1.92171,622.58,53.93,32.258064,40.2,17 / 24,3363554,2019-09-28 14:28:01:243,-2.4579,-0.6321,9.448,-1.4933,-0.1544,9.6911,0.0026,-0.0415,-0.0181,28.43,-9.59,-0.27,19.85,8.76,0.91
6728,52.48385,-1.921576,622.58,50.94,32.258064,41.0,17 / 24,3364054,2019-09-28 14:28:01:743,-2.9872,-0.0142,10.0764,-2.0849,-0.1641,9.581,-0.0433,-0.0361,0.0107,28.24,-10.12,-0.19,20.01,11.69,0.97
6729,52.48385,-1.921576,622.58,50.94,32.258064,41.0,17 / 24,3364553,2019-09-28 14:28:02:242,-2.3028,-0.4012,9.8406,-2.2164,-0.1556,9.5516,-0.0241,-0.0532,0.0224,28.28,-10.0,0.47,20.1,12.97,0.85
6730,52.483913,-1.921474,619.35,41.22,29.032257,41.9,17 / 24,3365054,2019-09-28 14:28:02:743,-1.3028,-0.7367,9.8915,-2.1888,-0.1936,9.5573,-0.0166,0.0374,0.0288,28.15,-9.99,-2.84,20.68,13.07,1.07
6731,52.483913,-1.921474,619.35,41.22,29.032257,41.9,17 / 24,3365554,2019-09-28 14:28:03:243,-1.6126,-0.601,10.4831,-1.9756,-0.1963,9.6036,0.026,-0.0202,-0.0405,28.36,-9.78,-0.2,20.01,11.83,1.18
6732,52.48395,-1.921394,619.35,33.77,29.032257,43.0,17 / 24,3366054,2019-09-28 14:28:03:743,-1.3705,-0.3549,9.9995,-1.8318,-0.1785,9.6324,0.0004,-0.0042,-0.0138,28.84,-8.26,0.46,15.54,11.04,1.12
6733,52.48395,-1.921394,619.35,33.77,29.032257,43.0,17 / 24,3366555,2019-09-28 14:28:04:244,-0.5629,-1.0996,9.7538,-1.6974,-0.2136,9.6563,-0.0166,0.0022,0.0053,28.45,-9.5,-0.18,19.91,10.13,1.24
6734,52.484005,-1.92131,612.9,29.34,29.032257,43.6,18 / 24,3367053,2019-09-28 14:28:04:742,-0.6416,-0.3663,9.5655,-1.3878,-0.2167,9.7055,-0.039,-0.0372,0.0298,28.39,-9.67,0.67,19.69,8.48,1.31
6735,52.484005,-1.92131,612.9,29.34,29.032257,43.6,18 / 24,3367553,2019-09-28 14:28:05:242,-1.2501,-0.5904,9.5806,-1.2477,-0.2002,9.7249,-0.0124,0.0033,-0.0085,28.01,-10.67,-1.31,21.71,7.35,1.21
6736,52.484047,-1.921232,616.13,26.89,29.032257,44.1,18 / 24,3368053,2019-09-28 14:28:05:742,-1.5168,-0.1258,10.1842,-1.204,-0.176,9.7309,-0.0315,-0.0308,0.0352,27.84,-11.16,-0.55,21.7,7.05,1.09
6737,52.484047,-1.921232,616.13,26.89,29.032257,44.1,18 / 24,3368554,2019-09-28 14:28:06:243,-0.4173,-0.5356,9.1688,-1.0203,-0.1791,9.7518,-0.0006,0.0203,-0.0053,27.68,-11.56,0.01,23.3,6.21,1.03
6738,52.48409,-1.921168,612.9,23.98,29.032257,44.5,18 / 24,3369054,2019-09-28 14:28:06:743,-0.6645,0.3214,9.0233,-0.8818,-0.1737,9.7654,-0.007,-0.0084,-0.0138,27.19,-12.66,0.78,25.68,5.25,1.02
6739,52.48409,-1.921168,612.9,23.98,29.032257,44.5,18 / 24,3369554,2019-09-28 14:28:07:243,-1.2729,0.1029,10.8251,-0.8827,-0.1883,9.765,0.0164,-0.0777,-0.0234,26.64,-13.54,2.66,27.15,5.13,1.09
6740,52.484135,-1.921101,612.9,22.1,29.032257,44.8,17 / 24,3370054,2019-09-28 14:28:07:743,-1.6557,0.0498,10.2414,-0.892,-0.1965,9.764,-0.0017,-0.0084,-0.0085,25.98,-14.79,2.49,29.81,5.22,1.15
6741,52.484135,-1.921101,612.9,22.1,29.032257,44.8,17 / 24,3370554,2019-09-28 14:28:08:243,-1.5294,0.3375,9.7648,-0.9819,-0.2045,9.7552,-0.0358,-0.0276,0.0224,24.95,-16.44,2.69,30.65,5.43,1.18
6742,52.48418,-1.921039,609.68,19.98,29.032257,45.2,17 / 23,3371054,2019-09-28 14:28:08:743,-1.3766,-0.4558,8.9341,-1.1162,-0.2164,9.7405,0.0057,-0.0734,-0.0181,24.05,-17.51,3.85,36.34,6.54,1.27
6743,52.48418,-1.921039,609.68,19.98,29.032257,45.2,17 / 23,3371553,2019-09-28 14:28:09:242,-1.9907,0.0066,10.6137,-1.3379,-0.2379,9.712,0.0313,0.0406,-0.0277,25.17,-16.22,1.88,32.44,7.84,1.4
6744,52.484207,-1.921016,609.68,16.24,29.032257,45.5,17 / 24,3372053,2019-09-28 14:28:09:742,-1.4726,-0.1048,9.7923,-1.4339,-0.2384,9.6983,-0.0017,0.0203,0.0053,25.16,-16.3,1.2,32.65,8.44,1.33
6745,52.484207,-1.921016,609.68,16.24,29.032257,45.5,17 / 24,3372553,2019-09-28 14:28:10:242,-1.5766,-0.0455,10.546,-1.3694,-0.2559,9.7072,-0.0507,-0.0159,0.0224,25.33,-16.08,-0.17,32.8,8.03,1.51
6746,52.484234,-1.920977,606.45,11.84,29.032257,46.4,17 / 23,3373053,2019-09-28 14:28:10:742,-1.1933,-0.4672,10.4324,-1.2245,-0.2406,9.7269,0.0153,0.0107,-0.0298,25.8,-15.25,-1.41,30.3,7.35,1.37
6747,52.484234,-1.920977,606.45,11.84,29.032257,46.4,17 / 23,3373554,2019-09-28 14:28:11:243,-0.6304,-0.1551,10.0151,-1.0275,-0.2633,9.7491,-0.0262,-0.0297,0.0032,26.37,-14.2,-1.7,28.68,6.01,1.55
6748,52.48425,-1.920959,609.68,8.86,29.032257,47.1,17 / 24,3374054,2019-09-28 14:28:11:743,-0.8894,0.1308,10.1661,-0.8133,-0.2527,9.7696,-0.0049,0.0438,0.0,26.54,-13.86,-1.8,27.69,4.76,1.48
6749,52.48425,-1.920959,609.68,8.86,29.032257,47.1,17 / 24,3374554,2019-09-28 14:28:12:243,-0.1631,-0.6231,9.3583,-0.6894,-0.2385,9.7795,0.0611,0.047,-0.0437,26.85,-12.99,-3.21,26.07,4.28,1.52
6750,52.484264,-1.920929,606.45,7.52,32.258064,47.8,17 / 24,3375054,2019-09-28 14:28:12:743,-1.2047,0.4089,10.3306,-0.6817,-0.2298,9.7802,-0.0177,0.0459,0.0075,27.37,-11.97,-2.79,24.29,3.93,1.43
6751,52.484264,-1.920929,606.45,7.52,32.258064,47.8,17 / 24,3375554,2019-09-28 14:28:13:243,-1.2754,-0.1814,10.5588,-0.6867,-0.2834,9.7785,-0.0507,-0.0681,0.0266,27.59,-11.19,-3.7,21.88,4.02,1.66
6752,52.484276,-1.92091,603.23,6.34,29.032257,48.4,17 / 24,3376053,2019-09-28 14:28:13:742,-0.108,-0.8104,9.3588,-0.7017,-0.2636,9.778,0.0057,-0.0489,-0.0202,27.46,-11.13,-4.7,22.71,4.1,1.54
6753,52.484276,-1.92091,603.23,6.34,29.032257,48.4,17 / 24,3376554,2019-09-28 14:28:14:243,-0.5925,-0.1295,9.5922,-0.7228,-0.295,9.7755,0.042,0.0406,-0.0341,27.43,-11.45,-4.04,22.61,4.1,1.58
6754,52.484287,-1.920883,603.23,4.93,29.032257,48.8,16 / 24,3377053,2019-09-28 14:28:14:742,-1.1201,-0.4397,10.4601,-0.7228,-0.2719,9.7762,0.0132,-0.0511,-0.0202,27.25,-11.62,-4.76,24.54,4.23,1.59
6755,52.484287,-1.920883,603.23,4.93,29.032257,48.8,16 / 24,3377553,2019-09-28 14:28:15:242,-0.2167,-0.7053,9.5705,-0.6891,-0.2769,9.7785,-0.0124,0.0256,0.017,27.4,-11.68,-3.55,24.42,4.07,1.6
6756,52.48429,-1.920877,600.0,2.84,29.032257,49.0,16 / 24,3378054,2019-09-28 14:28:15:743,-0.1726,-0.1621,9.1601,-0.6534,-0.2723,9.7811,-0.007,0.0118,0.0043,27.62,-11.19,-3.48,21.76,3.82,1.59
6757,52.48429,-1.920877,600.0,2.84,29.032257,49.0,16 / 24,3378553,2019-09-28 14:28:16:242,-0.5327,-0.4311,9.9028,-0.6307,-0.2799,9.7823,-0.0049,0.0416,0.0107,27.53,-11.4,-3.44,21.76,3.75,1.63
6758,52.48429,-1.920877,600.0,2.84,29.032257,49.0,16 / 24,3379053,2019-09-28 14:28:16:742,0.597,-0.2449,9.1245,-0.5613,-0.2703,9.7868,-0.023,0.0597,0.0288,27.27,-11.63,-4.58,24.48,3.64,1.59
6759,52.48429,-1.920877,600.0,2.84,29.032257,49.0,16 / 24,3379553,2019-09-28 14:28:17:242,-0.6872,-0.6185,10.1744,-0.4383,-0.2652,9.7933,-0.0145,-0.05,0.0117,27.32,-11.76,-3.89,24.31,2.55,1.62
6760,52.48429,-1.920877,600.0,2.84,29.032257,49.0,16 / 24,3380054,2019-09-28 14:28:17:743,0.1713,-0.2812,9.0546,-0.3422,-0.2685,9.797,-0.0379,-0.0468,0.032,27.7,-10.9,-3.7,21.74,2.08,1.53
6761,52.48429,-1.920877,600.0,2.84,29.032257,49.0,16 / 24,3380553,2019-09-28 14:28:18:242,0.3301,-1.1788,9.6259,-0.2934,-0.2582,9.7989,0.0015,-0.034,-0.0032,27.63,-10.66,-4.82,21.79,1.74,1.55
6762,52.484295,-1.920864,596.77,0.0,29.032257,49.0,16 / 24,3381054,2019-09-28 14:28:18:743,-0.866,0.7461,10.2399,-0.2572,-0.2548,9.8,0.0452,0.0501,-0.033,27.62,-11.21,-3.43,21.64,1.54,1.56
6763,52.484295,-1.920864,596.77,0.0,29.032257,49.0,16 / 24,3381554,2019-09-28 14:28:19:243,0.2971,-0.9878,9.3885,-0.157,-0.2662,9.8018,0.0643,0.0736,-0.0554,27.3,-12.23,-2.24,24.08,1.09,1.53
6764,52.484303,-1.920872,596.77,0.0,29.032257,49.0,16 / 24,3382053,2019-09-28 14:28:19:742,0.0323,-0.0405,8.9655,-0.1888,-0.2477,9.8017,-0.0401,-0.0532,0.0352,27.64,-11.45,-2.21,24.2,1.17,1.42
6765,52.484303,-1.920872,596.77,0.0,29.032257,49.0,16 / 24,3382554,2019-09-28 14:28:20:243,0.6479,-1.5988,9.3532,-0.165,-0.2595,9.8018,-0.0283,-0.0319,0.0266,27.38,-11.94,-2.79,24.14,1.01,1.54
6766,52.484303,-1.920872,596.77,0.0,29.032257,49.0,16 / 24,3383053,2019-09-28 14:28:20:742,-0.6478,0.8101,9.1862,-0.1634,-0.2649,9.8017,0.0324,-0.0052,-0.0298,27.59,-11.43,-2.81,21.61,1.01,1.47
6767,52.484303,-1.920872,596.77,0.0,29.032257,49.0,16 / 24,3383553,2019-09-28 14:28:21:242,0.0203,-1.2478,10.2544,-0.1673,-0.2544,9.8019,-0.0198,0.0374,0.0213,27.38,-11.94,-2.79,24.13,0.98,1.49
6768,52.484303,-1.920872,596.77,0.0,29.032257,49.0,16 / 24,3384053,2019-09-28 14:28:21:742,-0.4396,0.4099,9.2908,-0.1711,-0.274,9.8013,0.0697,0.0459,-0.0554,27.69,-11.23,-2.66,21.62,1.05,1.54
6769,52.484303,-1.920872,596.77,0.0,29.032257,49.0,16 / 24,3384553,2019-09-28 14:28:22:242,-0.4339,-0.781,9.8512,-0.1781,-0.2509,9.8018,0.043,-0.0308,-0.0394,27.67,-10.86,-4.03,21.67,1.09,1.46
6770,52.484295,-1.920869,596.77,0.0,29.032257,49.0,16 / 24,3385054,2019-09-28 14:28:22:743,-0.2452,0.7712,8.9517,-0.1853,-0.2666,9.8013,-0.0859,-0.0479,0.0778,27.55,-11.41,-3.31,21.63,1.05,1.59
6771,52.484295,-1.920869,596.77,0.0,29.032257,49.0,16 / 24,3385554,2019-09-28 14:28:23:243,-0.1134,-1.4495,9.8873,-0.1896,-0.2565,9.8015,0.0334,0.0139,-0.0277,27.79,-11.03,-2.42,21.56,1.11,1.5
6772,52.484295,-1.920869,596.77,0.0,29.032257,49.0,16 / 24,3386054,2019-09-28 14:28:23:743,0.0153,0.3767,8.8728,-0.2001,-0.2542,9.8013,0.0835,0.0512,-0.0703,27.67,-11.46,1.7,21.32,1.11,1.57
6773,52.484295,-1.920869,596.77,0.0,29.032257,49.0,16 / 24,3386554,2019-09-28 14:28:24:243,0.3297,-0.5151,10.2689,0.067,-0.2496,9.8032,0.01,-0.034,-0.0128,27.7,-11.48,-0.97,21.49,-0.08,1.46
6774,52.484287,-1.920864,593.55,0.0,29.032257,49.0,16 / 24,3387054,2019-09-28 14:28:24:743,1.0716,-1.0922,9.3437,0.3007,-0.2317,9.7993,0.0239,0.0235,-0.016,27.49,-11.64,-2.94,24.03,-1.54,1.34
6775,52.484287,-1.920864,593.55,0.0,29.032257,49.0,16 / 24,3387554,2019-09-28 14:28:25:243,1.2023,-0.202,9.6871,0.5727,-0.2246,9.7873,-0.0049,-0.0052,0.0,27.38,-11.92,-2.86,23.99,-2.97,1.28
6776,52.484287,-1.920864,593.55,0.0,29.032257,49.0,16 / 24,3388055,2019-09-28 14:28:25:744,1.0764,-0.2454,9.3256,0.8261,-0.1948,9.7699,-0.0124,-0.0021,-0.0032,27.11,-12.32,-3.65,23.94,-4.58,1.18
6777,52.484287,-1.920864,593.55,0.0,29.032257,49.0,16 / 24,3388554,2019-09-28 14:28:26:243,1.0579,-0.225,9.5847,0.9385,-0.165,9.7602,-0.0124,-0.0159,0.0096,26.86,-12.51,-4.68,25.58,-5.43,0.98
6778,52.4843,-1.920827,593.55,6.62,29.032257,50.2,16 / 24,3389053,2019-09-28 14:28:26:742,0.966,-0.589,10.0244,0.9762,-0.1807,9.7563,-0.006,-0.0084,-0.0298,26.62,-12.95,-4.85,25.59,-5.67,1.1
6779,52.4843,-1.920827,593.55,6.62,29.032257,50.2,16 / 24,3389553,2019-09-28 14:28:27:242,1.3076,-0.3491,10.0888,1.0341,-0.1669,9.7505,0.0026,0.0171,-0.0138,26.15,-13.61,-5.57,28.06,-5.95,0.98
6780,52.48433,-1.920792,590.32,10.4,29.032257,51.2,16 / 24,3390053,2019-09-28 14:28:27:742,1.5347,-0.2564,9.6246,1.1023,-0.1402,9.7435,-0.0177,-0.0255,-0.0053,25.91,-14.08,-5.51,28.01,-6.41,0.86
6781,52.48433,-1.920792,590.32,10.4,29.032257,51.2,16 / 24,3390553,2019-09-28 14:28:28:242,0.6937,-0.0147,9.3295,1.0899,-0.076,9.7456,-0.0241,-0.0063,-0.0107,25.84,-14.21,-5.51,27.96,-6.39,0.57
6782,52.484344,-1.920744,587.1,14.04,29.032257,52.3,16 / 24,3391053,2019-09-28 14:28:28:742,-0.2174,0.0781,10.19,0.9215,-0.0476,9.7631,-0.0273,-0.0223,-0.0138,25.48,-14.6,-6.12,30.57,-5.39,0.28
6783,52.484344,-1.920744,587.1,14.04,29.032257,52.3,16 / 24,3391553,2019-09-28 14:28:29:242,-0.099,-0.1322,8.9605,0.5579,-0.0099,9.7908,0.0026,0.0246,0.0064,25.35,-15.11,-5.4,30.7,-3.56,0.01
6784,52.484364,-1.920692,587.1,15.26,29.032257,53.3,15 / 24,3392054,2019-09-28 14:28:29:743,0.0535,-0.4738,10.2017,0.3069,0.0182,9.8018,0.0207,-0.0031,-0.0341,25.53,-15.22,-4.06,29.85,-2.12,-0.1
6785,52.484364,-1.920692,587.1,15.26,29.032257,53.3,15 / 24,3392554,2019-09-28 14:28:30:243,0.4079,-0.1799,9.6239,0.1659,0.0585,9.8051,0.0239,0.0107,-0.0458,25.27,-15.43,-4.81,30.84,-1.07,-0.24
6786,52.48439,-1.920632,587.1,17.82,29.032257,54.0,14 / 24,3393054,2019-09-28 14:28:30:743,-0.3652,0.0245,9.3684,0.003,0.1016,9.8061,-0.0443,-0.034,-0.0032,24.44,-16.48,-5.56,33.58,-0.02,-0.59
6787,52.48439,-1.920632,587.1,17.82,29.032257,54.0,14 / 24,3393554,2019-09-28 14:28:31:243,-0.0737,-0.4044,9.4766,-0.1597,0.1718,9.8038,0.0068,0.0736,-0.0192,24.25,-16.94,-5.02,35.27,0.79,-0.89
6788,52.48443,-1.920551,583.87,19.15,29.032257,54.9,15 / 24,3394053,2019-09-28 14:28:31:742,-0.7977,-0.5807,10.3527,-0.3584,0.2,9.7981,-0.0241,0.0374,-0.0128,24.43,-16.98,-3.87,35.35,1.75,-1.11
6789,52.48443,-1.920551,583.87,19.15,29.032257,54.9,15 / 24,3394554,2019-09-28 14:28:32:243,-1.5764,0.8115,9.1977,-0.8947,0.2185,9.7633,-0.0369,0.0193,0.0085,24.1,-17.18,-4.94,35.59,4.18,-1.36
6790,52.484455,-1.920469,580.65,19.87,32.258064,56.1,15 / 24,3395054,2019-09-28 14:28:32:743,-1.4804,0.258,9.7706,-1.2404,0.2586,9.7244,0.0036,-0.0021,-0.0192,23.78,-17.79,-4.28,37.53,6.88,-1.49
6791,52.484455,-1.920469,580.65,19.87,32.258064,56.1,15 / 24,3395554,2019-09-28 14:28:33:243,-0.9272,0.0028,9.2525,-1.496,0.2808,9.6878,-0.0198,0.0363,0.0224,23.63,-18.23,-3.04,37.66,8.59,-1.64
6792,52.484467,-1.920429,577.42,13.46,29.032257,56.8,15 / 24,3396054,2019-09-28 14:28:33:743,-0.999,-0.2116,10.0464,-1.4923,0.2687,9.6887,-0.0038,0.0107,-0.0011,23.64,-18.38,-1.88,40.47,9.03,-1.65
6793,52.484467,-1.920429,577.42,13.46,29.032257,56.8,15 / 24,3396554,2019-09-28 14:28:34:243,-0.7528,0.1468,9.7024,-1.37,0.2891,9.7062,0.0015,-0.0127,-0.0096,23.26,-18.66,-3.31,40.32,8.03,-1.71
6794,52.484463,-1.920388,577.42,10.3,29.032257,57.4,15 / 24,3397054,2019-09-28 14:28:34:743,-1.2156,0.168,9.5151,-1.3825,0.2602,9.7052,-0.0028,-0.0404,-0.0107,22.72,-19.38,-2.83,40.32,8.03,-1.57
6795,52.484463,-1.920388,577.42,10.3,29.032257,57.4,15 / 24,3397553,2019-09-28 14:28:35:242,-1.3459,0.29,9.8135,-1.4505,0.2674,9.6951,0.0015,0.0363,0.0107,22.51,-19.7,-2.28,40.36,8.27,-1.49
6796,52.48448,-1.920362,577.42,8.39,29.032257,57.4,15 / 24,3398054,2019-09-28 14:28:35:743,-0.0723,0.3634,9.2612,-1.2822,0.2419,9.7195,0.0239,-0.0159,-0.0181,23.4,-18.76,-0.91,40.05,8.0,-1.48
6797,52.48448,-1.920362,577.42,8.39,29.032257,57.4,15 / 24,3398554,2019-09-28 14:28:36:243,-0.5892,0.4538,8.9529,-1.0645,0.2531,9.7454,-0.0124,-0.0031,0.0085,23.99,-17.99,-0.93,39.89,6.4,-1.52
6798,52.484497,-1.920337,580.65,7.09,29.032257,57.2,15 / 24,3399054,2019-09-28 14:28:36:743,-0.2491,0.0326,9.2416,-0.99,0.2595,9.7531,0.0302,0.031,-0.0266,24.11,-17.79,-1.58,37.22,5.85,-1.49
6799,52.484497,-1.920337,580.65,7.09,29.032257,57.2,15 / 24,3399554,2019-09-28 14:28:37:243,-0.9825,-0.1168,10.241,-0.9377,0.2519,9.7585,0.0526,0.032,-0.0373,24.15,-17.66,-2.22,37.19,5.54,-1.46
6800,52.484493,-1.920329,580.65,3.38,29.032257,57.4,15 / 24,3400053,2019-09-28 14:28:37:742,-0.5237,0.8057,9.5687,-0.7318,0.2633,9.7758,-0.022,-0.0202,0.016,24.04,-17.74,-2.75,37.14,4.49,-1.49
6801,52.484493,-1.920329,580.65,3.38,29.032257,57.4,15 / 24,3400554,2019-09-28 14:28:38:243,-0.8661,0.3767,10.3748,-0.5997,0.2697,9.7846,-0.0358,-0.0585,0.032,24.45,-17.27,-2.05,37.02,3.69,-1.58
6802,52.484493,-1.920329,580.65,3.38,29.032257,57.4,15 / 24,3401054,2019-09-28 14:28:38:743,0.3062,-0.5085,9.4052,-0.5431,0.2789,9.7876,0.0196,0.047,-0.0138,24.46,-17.17,-2.66,35.42,3.17,-1.63
6803,52.484493,-1.920329,580.65,3.38,29.032257,57.4,15 / 24,3401553,2019-09-28 14:28:39:242,0.2174,0.4676,9.1688,-0.4915,0.2791,9.7903,0.026,-0.034,-0.0245,24.42,-17.33,-1.8,35.4,3.04,-1.64
6804,52.48451,-1.920315,583.87,2.09,29.032257,57.2,15 / 24,3402054,2019-09-28 14:28:39:743,-0.233,-0.1194,10.2482,-0.3088,0.2633,9.7983,0.0068,0.0544,0.0011,23.9,-17.98,-2.4,36.88,1.8,-1.54
6805,52.48451,-1.920315,583.87,2.09,29.032257,57.2,15 / 24,3402553,2019-09-28 14:28:40:242,0.4208,0.2099,9.0771,-0.2218,0.2742,9.8003,0.0175,-0.0351,-0.0202,24.01,-17.91,-1.75,36.85,1.43,-1.59
6806,52.484516,-1.920305,587.1,1.84,32.258064,57.1,15 / 24,3403054,2019-09-28 14:28:40:743,0.7039,-0.1983,9.2528,0.0717,0.292,9.802,0.0484,0.048,-0.0405,24.35,-17.46,-1.56,35.18,-0.42,-1.71
6807,52.484516,-1.920305,587.1,1.84,32.258064,57.1,15 / 24,3403554,2019-09-28 14:28:41:243,0.2601,-0.2944,9.6659,0.2003,0.2901,9.8003,-0.0028,0.0406,0.0149,24.31,-17.43,-2.29,35.16,-0.92,-1.73
6808,52.484528,-1.920287,583.87,2.56,32.258064,57.0,15 / 24,3404053,2019-09-28 14:28:41:742,-0.4973,-0.0478,10.2327,0.0897,0.311,9.8013,-0.0465,-0.0511,0.0426,23.95,-17.84,-2.8,36.67,-0.71,-1.72
6809,52.484528,-1.920287,583.87,2.56,32.258064,57.0,15 / 24,3404553,2019-09-28 14:28:42:242,-0.2375,0.5877,9.5116,-0.0578,0.2439,9.8034,0.0452,0.048,-0.0298,23.68,-18.09,-3.44,36.74,0.03,-1.48
6810,52.484535,-1.920268,583.87,3.28,29.032257,57.0,15 / 24,3405054,2019-09-28 14:28:42:743,-0.5345,1.0283,9.9682,-0.0358,0.2593,9.8032,0.0398,0.0214,-0.033,23.2,-18.91,-1.99,39.48,0.21,-1.52
6811,52.484535,-1.920268,583.87,3.28,29.032257,57.0,15 / 24,3405553,2019-09-28 14:28:43:242,0.576,0.1003,9.4125,0.0664,0.2679,9.8028,-0.0369,-0.0383,0.033,23.29,-18.87,-1.23,39.5,-0.29,-1.46
6812,52.484535,-1.920257,587.1,3.02,29.032257,57.0,15 / 24,3406053,2019-09-28 14:28:43:742,0.5085,-0.4819,9.5691,0.1181,0.2477,9.8028,-0.0422,0.0256,0.0298,23.79,-18.18,-1.93,36.75,-0.75,-1.39
6813,52.484535,-1.920257,587.1,3.02,29.032257,57.0,15 / 24,3406554,2019-09-28 14:28:44:243,-0.0885,0.2504,10.4672,0.208,0.2724,9.8007,0.043,0.048,-0.0234,23.87,-17.78,-3.78,36.58,-1.13,-1.69
6814,52.484543,-1.920243,583.87,3.96,32.258064,56.9,15 / 24,3407054,2019-09-28 14:28:44:743,1.1403,0.8652,8.79,0.2969,0.2641,9.7986,0.0217,-0.0393,-0.0138,23.74,-18.18,-2.47,36.71,-1.44,-1.59
6815,52.484543,-1.920243,583.87,3.96,32.258064,56.9,15 / 24,3407554,2019-09-28 14:28:45:243,1.8142,0.2402,9.2733,0.9041,0.2652,9.7613,-0.0156,0.0086,0.0277,24.03,-17.8,-2.4,36.63,-4.7,-1.58
6816,52.48455,-1.920221,587.1,5.9,29.032257,56.7,15 / 24,3408054,2019-09-28 14:28:45:743,0.4879,0.6544,9.7413,1.1434,0.304,9.735,0.0047,0.0139,0.0107,24.13,-17.6,-2.87,39.11,-6.39,-1.7
6817,52.48455,-1.920221,587.1,5.9,29.032257,56.7,15 / 24,3408554,2019-09-28 14:28:46:243,0.8901,0.148,9.246,1.1323,0.2917,9.7367,-0.007,-0.0297,0.0085,21.1,-20.87,-4.42,44.3,-6.8,-1.64
6818,52.484566,-1.920187,587.1,10.19,29.032257,56.4,15 / 24,3409054,2019-09-28 14:28:46:743,0.1923,0.0021,9.1055,0.8372,0.2156,9.7685,-0.0038,0.0746,0.0011,21.47,-20.59,-3.89,44.43,-5.27,-1.3
6819,52.484566,-1.920187,587.1,10.19,29.032257,56.4,15 / 24,3409554,2019-09-28 14:28:47:243,-0.4048,-0.3151,10.3796,0.5396,0.1936,9.7899,-0.007,0.0118,0.0405,21.79,-20.22,-4.07,41.89,-3.15,-1.13
6820,52.484585,-1.920142,587.1,12.28,29.032257,55.6,13 / 24,3410054,2019-09-28 14:28:47:743,0.2617,0.3661,9.1323,0.3497,0.1723,9.7989,0.0036,0.0427,0.0447,21.14,-20.79,-4.56,44.63,-2.04,-1.01
6821,52.484585,-1.920142,587.1,12.28,29.032257,55.6,13 / 24,3410554,2019-09-28 14:28:48:243,-0.3373,0.0874,11.0398,0.1779,0.1003,9.8045,0.0015,0.0075,0.0469,21.4,-20.53,-4.51,44.8,-1.04,-0.59
6822,52.4846,-1.920094,587.1,13.1,29.032257,53.9,13 / 24,3411053,2019-09-28 14:28:48:742,-0.3566,0.2818,9.9219,0.1093,0.0499,9.8059,-0.0081,-0.0724,0.0682,21.8,-20.27,-3.74,42.16,-0.83,-0.36
6823,52.4846,-1.920094,587.1,13.1,29.032257,53.9,13 / 24,3411554,2019-09-28 14:28:49:243,-1.0791,-0.1025,9.8546,-0.163,-0.0098,9.8053,-0.0102,0.015,0.0586,23.55,-18.36,-2.89,36.94,0.95,0.06
6824,52.484623,-1.920044,583.87,13.82,29.032257,50.7,13 / 24,3412054,2019-09-28 14:28:49:743,-1.6886,-0.2378,10.9139,-0.6318,-0.0432,9.7862,-0.0188,-0.0457,0.081,24.12,-17.71,-2.17,37.05,3.22,0.1
6825,52.484623,-1.920044,583.87,13.82,29.032257,50.7,13 / 24,3412554,2019-09-28 14:28:50:243,-1.3012,0.199,9.9135,-0.9062,-0.015,9.7647,0.0121,0.0459,0.0586,24.99,-16.02,-4.37,33.13,5.3,0.09
6826,52.48465,-1.919999,580.65,12.38,29.032257,46.8,13 / 24,3413053,2019-09-28 14:28:50:742,-1.5161,0.2708,10.6117,-1.0196,-0.0038,9.7535,0.0185,0.047,0.0607,25.0,-15.86,-4.86,33.32,5.97,0.03
6827,52.48465,-1.919999,580.65,12.38,29.032257,46.8,13 / 24,3413554,2019-09-28 14:28:51:243,-1.0834,0.3891,10.5552,-1.0333,0.0464,9.752,0.0153,0.048,0.0756,25.31,-15.93,-2.37,32.99,6.14,-0.3
6828,52.484673,-1.919965,583.87,9.47,29.032257,42.7,13 / 24,3414054,2019-09-28 14:28:51:743,-0.8183,0.5445,9.458,-1.0533,0.0997,9.7494,-0.0294,-0.0159,0.0906,25.83,-14.96,-3.02,30.41,6.14,-0.35
6829,52.484673,-1.919965,583.87,9.47,29.032257,42.7,13 / 24,3414554,2019-09-28 14:28:52:243,-1.6682,0.8146,10.1641,-1.1446,0.1102,9.739,0.0164,-0.034,0.0309,25.98,-14.71,-2.96,30.44,6.55,-0.6
6830,52.484688,-1.919941,583.87,7.45,29.032257,38.6,Dec-24,3415053,2019-09-28 14:28:52:742,-0.0064,0.3286,10.1157,-1.1369,0.1889,9.7387,0.0388,0.0225,0.0202,26.12,-14.46,-2.91,28.74,6.84,-1.04
6831,52.484688,-1.919941,583.87,7.45,29.032257,38.6,Dec-24,3415554,2019-09-28 14:28:53:243,-0.2672,0.1897,10.7605,-0.6738,0.1891,9.7816,0.0207,-0.0915,0.0394,26.79,-13.34,-2.15,25.82,3.94,-1.11
6832,52.4847,-1.919926,583.87,5.54,29.032257,36.2,13 / 24,3416053,2019-09-28 14:28:53:742,1.7402,0.2059,9.3171,0.088,0.1563,9.805,0.0089,0.0406,0.066,26.79,-13.34,-2.15,25.67,0.53,-0.94
6833,52.4847,-1.919926,583.87,5.54,29.032257,36.2,13 / 24,3416555,2019-09-28 14:28:54:244,3.4807,-0.5109,9.3603,1.0386,0.0609,9.7513,0.0015,0.0043,0.1076,26.05,-11.51,-9.43,24.11,-3.81,-0.74
6834,52.48471,-1.919914,580.65,5.51,29.032257,32.4,13 / 24,3417054,2019-09-28 14:28:54:743,1.6352,-0.8686,9.5561,1.5108,-0.1517,9.6884,-0.0177,-0.0574,0.1353,27.34,-8.98,-8.49,17.92,-8.84,0.44
6835,52.48471,-1.919914,580.65,5.51,29.032257,32.4,13 / 24,3417553,2019-09-28 14:28:55:242,2.4841,-0.5893,10.01,1.9295,-0.2571,9.6115,0.0558,-0.0074,0.1012,28.0,-7.41,-7.81,13.85,-10.82,1.05
6836,52.48473,-1.9199,583.87,7.67,32.258064,25.8,13 / 24,3418054,2019-09-28 14:28:55:743,1.3742,-0.8118,9.0508,1.9202,-0.1785,9.6152,0.0622,-0.0148,0.049,28.22,-5.81,-8.34,11.95,-11.43,1.0
6837,52.48473,-1.9199,583.87,7.67,32.258064,25.8,13 / 24,3418554,2019-09-28 14:28:56:243,1.1729,0.5793,9.9987,1.7158,-0.0254,9.6553,-0.0092,0.0406,-0.0767,28.12,-5.68,-8.77,11.84,-10.42,0.71
6838,52.484753,-1.919882,583.87,10.98,32.258064,23.6,13 / 24,3419054,2019-09-28 14:28:56:743,0.5177,1.5333,9.4109,1.5613,0.3314,9.6759,-0.0241,-0.0138,-0.131,27.72,-6.67,-9.33,13.1,-9.38,-1.4
6839,52.484753,-1.919882,583.87,10.98,32.258064,23.6,13 / 24,3419554,2019-09-28 14:28:57:243,0.6231,2.4903,9.965,1.3903,0.8893,9.6668,-0.0678,-0.0159,-0.1342,27.66,-8.0,-8.41,14.19,-8.34,-4.69
6840,52.48479,-1.919851,583.87,15.62,32.258064,32.0,13 / 24,3420054,2019-09-28 14:28:57:743,0.5588,2.1665,9.4439,1.241,1.2702,9.6445,-0.0528,0.0065,-0.2322,25.06,-13.15,-9.94,23.79,-7.27,-7.5
6841,52.48479,-1.919851,583.87,15.62,32.258064,32.0,13 / 24,3420553,2019-09-28 14:28:58:242,0.2266,2.7088,9.7705,0.9463,1.9607,9.5619,-0.0997,0.0001,-0.2898,22.31,-17.49,-9.82,32.59,-5.92,-10.72
6842,52.48488,-1.919755,583.87,23.54,32.258064,45.6,15 / 24,3421054,2019-09-28 14:28:58:743,-0.4851,2.1378,10.1108,0.7168,2.4944,9.457,-0.1423,0.0406,-0.2557,19.42,-18.15,-13.91,34.69,-4.42,-14.03
6843,52.48488,-1.919755,583.87,23.54,32.258064,45.6,15 / 24,3421554,2019-09-28 14:28:59:243,0.592,3.0955,9.8799,0.4742,2.8081,9.384,-0.0379,0.0629,-0.3228,15.94,-18.85,-17.05,38.27,-2.76,-16.39
6844,52.484936,-1.919657,583.87,29.05,32.258064,61.5,15 / 24,3422054,2019-09-28 14:28:59:743,-0.4895,2.0016,8.7522,0.3303,2.8764,9.3695,-0.0326,-0.0681,-0.2269,5.54,-22.66,-18.86,67.97,-2.87,-17.21
6845,52.484936,-1.919657,583.87,29.05,32.258064,61.5,15 / 24,3422553,2019-09-28 14:29:00:242,-0.4843,2.3185,8.8479,0.2539,2.4825,9.4838,0.1261,-0.165,-0.1236,6.82,-21.19,-20.11,62.46,-1.85,-15.35
6846,52.484962,-1.919548,583.87,28.69,32.258064,74.1,15 / 24,3423053,2019-09-28 14:29:00:742,-0.009,-0.5027,10.1287,0.1743,1.8318,9.6325,0.0153,0.0182,0.0181,6.23,-22.07,-19.34,70.3,-0.72,-12.0
6847,52.484962,-1.919548,583.87,28.69,32.258064,74.1,15 / 24,3423553,2019-09-28 14:29:01:242,0.3257,-1.0858,9.3579,-0.1635,0.8986,9.764,0.0271,0.0075,0.1044,7.42,-21.05,-20.05,70.16,0.61,-6.11
6848,52.48499,-1.919449,587.1,27.68,29.032257,74.0,15 / 24,3424053,2019-09-28 14:29:01:742,-0.5604,-0.7209,9.9816,-0.2793,0.032,9.8026,0.1485,0.097,0.0831,9.74,-20.08,-20.05,64.33,1.65,-1.2
6849,52.48499,-1.919449,587.1,27.68,29.032257,74.0,15 / 24,3424553,2019-09-28 14:29:02:242,0.294,-1.3893,9.9747,-0.3101,-0.9828,9.7523,0.0601,0.032,0.261,9.11,-15.61,-23.94,64.05,1.99,5.19
6850,52.485012,-1.919347,587.1,26.71,29.032257,61.9,15 / 24,3425054,2019-09-28 14:29:02:743,0.2048,-2.1226,8.9313,-0.2791,-1.7027,9.6537,0.0143,-0.0191,0.3846,11.73,-14.6,-23.44,58.4,1.73,9.25
6851,52.485012,-1.919347,587.1,26.71,29.032257,61.9,15 / 24,3425554,2019-09-28 14:29:03:243,-0.3277,-0.5269,9.01,0.0142,-2.1522,9.5676,0.0015,0.0363,0.3707,12.94,-10.05,-25.13,49.47,-0.08,12.68
6852,52.48504,-1.919278,583.87,23.8,29.032257,44.3,16 / 24,3426054,2019-09-28 14:29:03:743,0.6588,-1.0272,10.1904,0.5046,-2.2776,9.5251,0.0345,-0.0404,0.2621,14.71,-8.58,-25.86,43.6,-1.56,13.65
6853,52.48504,-1.919278,583.87,23.8,29.032257,44.3,16 / 24,3426554,2019-09-28 14:29:04:243,1.0234,-0.9278,9.5184,0.6296,-1.9731,9.5854,0.01,-0.0521,0.1321,16.61,-6.08,-25.36,30.6,-3.68,11.63
6854,52.48509,-1.919232,587.1,21.1,29.032257,29.3,16 / 24,3427054,2019-09-28 14:29:04:743,1.4908,-0.3155,9.2475,1.0022,-1.5509,9.6312,0.0452,0.0672,0.0767,17.36,-5.02,-24.92,25.32,-5.45,9.54
6855,52.48509,-1.919232,587.1,21.1,29.032257,29.3,16 / 24,3427554,2019-09-28 14:29:05:243,1.0556,0.3103,8.9379,1.3363,-1.1937,9.6416,-0.0017,0.0555,0.065,18.43,-5.71,-26.61,23.9,-7.77,7.47
6856,52.48515,-1.919175,587.1,24.37,29.032257,23.4,16 / 24,3428053,2019-09-28 14:29:05:742,1.5043,0.2457,10.1301,1.271,-0.8835,9.6837,0.0324,0.0129,0.0341,16.24,-4.96,-24.86,21.1,-7.5,5.45
6857,52.48515,-1.919175,587.1,24.37,29.032257,23.4,16 / 24,3428554,2019-09-28 14:29:06:243,0.1452,0.0825,8.6285,1.3775,-0.6216,9.6895,-0.0081,-0.0905,-0.0053,15.84,-4.08,-25.15,17.23,-7.96,4.55
6858,52.485226,-1.919131,587.1,26.64,29.032257,21.8,16 / 24,3429054,2019-09-28 14:29:06:743,0.3575,-0.2798,9.6794,0.9495,-0.248,9.7574,-0.006,-0.0223,-0.0011,18.73,-5.92,-22.68,15.15,-6.46,2.02
6859,52.485226,-1.919131,587.1,26.64,29.032257,21.8,16 / 24,3429554,2019-09-28 14:29:07:243,0.3045,-0.3217,10.2181,0.7234,-0.0733,9.7797,-0.0305,-0.0234,0.0192,17.72,-5.03,-23.68,14.72,-4.23,0.43
6860,52.485287,-1.919095,587.1,27.61,29.032257,22.0,16 / 24,3430054,2019-09-28 14:29:07:743,0.3253,-0.1441,10.209,0.5498,0.0497,9.7911,0.0185,0.0299,0.0181,17.8,-4.97,-23.63,14.28,-3.64,-0.1
6861,52.485287,-1.919095,587.1,27.61,29.032257,22.0,16 / 24,3430554,2019-09-28 14:29:08:243,0.8693,-0.018,8.9587,0.3659,0.0832,9.7995,-0.0816,0.0896,0.0501,18.05,-5.33,-23.99,14.25,-2.14,-0.49
6862,52.485386,-1.919025,583.87,29.74,29.032257,22.5,16 / 24,3431053,2019-09-28 14:29:08:742,-0.3018,0.9235,8.7103,0.1542,0.2043,9.8033,-0.0134,0.0118,0.032,16.8,-5.39,-24.26,14.39,-1.45,-1.15
6863,52.485386,-1.919025,583.87,29.74,29.032257,22.5,16 / 24,3431554,2019-09-28 14:29:09:243,0.0682,-0.4626,9.6256,-0.0357,0.2068,9.8044,-0.0699,0.0001,0.1001,16.94,-4.29,-24.39,11.57,0.03,-1.19
6864,52.48548,-1.918978,580.65,32.15,29.032257,22.0,16 / 24,3432053,2019-09-28 14:29:09:742,-0.5203,0.0696,8.839,-0.2109,0.2323,9.8016,-0.0326,-0.0127,0.0224,17.36,-3.83,-24.36,11.76,1.23,-1.36
6865,52.48548,-1.918978,580.65,32.15,29.032257,22.0,16 / 24,3432554,2019-09-28 14:29:10:243,0.8994,-0.124,10.0168,-0.3444,0.2998,9.796,0.0303,-0.001,-0.0554,19.18,-4.58,-23.49,10.51,1.88,-1.53
6866,52.485535,-1.918945,580.65,30.02,29.032257,22.3,16 / 24,3433053,2019-09-28 14:29:10:742,0.449,-0.8307,10.7055,-0.2056,0.3624,9.7978,0.0803,0.0299,-0.0852,18.43,-5.33,-23.86,12.99,1.51,-1.88
6867,52.485535,-1.918945,580.65,30.02,29.032257,22.3,16 / 24,3433553,2019-09-28 14:29:11:242,-0.5958,1.1844,9.7708,-0.2462,0.3879,9.7959,-0.0294,-0.0212,0.0256,18.05,-5.33,-24.3,13.18,1.38,-2.2
6868,52.485607,-1.918889,580.65,28.33,29.032257,22.9,16 / 24,3434054,2019-09-28 14:29:11:743,0.6591,1.25,10.406,-0.0103,0.3538,9.8003,-0.0305,-0.0148,0.0352,18.43,-5.33,-23.92,13.4,1.14,-1.97
6869,52.485607,-1.918889,580.65,28.33,29.032257,22.9,16 / 24,3434554,2019-09-28 14:29:12:243,1.1844,-0.1764,8.7707,0.4728,0.4142,9.7865,-0.0081,-0.017,-0.0128,18.11,-5.33,-23.86,14.92,-2.02,-2.33
6870,52.485672,-1.918833,580.65,29.66,29.032257,23.5,16 / 24,3435054,2019-09-28 14:29:12:743,1.0148,0.9846,9.4286,0.9086,0.3226,9.7591,-0.0326,-0.0479,0.0075,17.83,-4.7,-23.67,11.78,-4.78,-2.0
6871,52.485672,-1.918833,580.65,29.66,29.032257,23.5,16 / 24,3435553,2019-09-28 14:29:13:242,2.9582,0.2498,10.0005,1.4449,0.2709,9.6958,-0.0081,-0.0212,-0.0053,17.84,-4.61,-23.68,11.45,-8.47,-1.6
6872,52.485752,-1.91877,583.87,32.08,32.258064,23.4,16 / 24,3436054,2019-09-28 14:29:13:743,3.2953,0.0308,11.0816,1.809,0.2437,9.6353,0.0633,0.0001,-0.049,17.74,-4.27,-24.86,8.58,-10.19,-1.5
6873,52.485752,-1.91877,583.87,32.08,32.258064,23.4,16 / 24,3436554,2019-09-28 14:29:14:243,2.324,0.759,9.5011,2.0467,0.1867,9.5889,0.0516,-0.0425,-0.049,18.43,-5.02,-25.36,11.15,-11.82,-1.17
6874,52.485844,-1.918715,587.1,39.56,29.032257,22.7,16 / 24,3437054,2019-09-28 14:29:14:743,1.395,0.8875,9.1227,2.1299,0.2125,9.5702,-0.0006,0.0523,0.0064,18.43,-4.27,-25.36,8.41,-12.57,-1.36
6875,52.485844,-1.918715,587.1,39.56,29.032257,22.7,16 / 24,3437554,2019-09-28 14:29:15:243,-0.4093,0.7466,10.465,1.3948,0.1599,9.7056,0.0462,0.0491,0.0,19.6,-4.56,-24.65,10.89,-8.8,-1.05
6876,52.48595,-1.918626,590.32,47.81,29.032257,21.9,16 / 24,3438053,2019-09-28 14:29:15:742,-0.184,0.3087,9.8076,0.8766,0.1143,9.7667,-0.0145,-0.0287,0.0149,19.23,-4.18,-25.09,9.88,-5.69,-0.63
6877,52.48595,-1.918626,590.32,47.81,29.032257,21.9,16 / 24,3438557,2019-09-28 14:29:16:246,0.2336,0.2061,9.893,0.5477,0.1412,9.7903,0.0345,0.0416,-0.0384,19.6,-4.93,-25.9,12.22,-3.46,-0.74
6878,52.486073,-1.91857,587.1,48.71,29.032257,21.4,16 / 24,3439054,2019-09-28 14:29:16:743,-0.2285,0.2647,10.3677,0.192,0.2357,9.8019,0.059,0.0427,-0.0394,19.98,-4.93,-25.97,12.1,-1.42,-1.27
6879,52.486073,-1.91857,587.1,48.71,29.032257,21.4,16 / 24,3439554,2019-09-28 14:29:17:243,-0.4819,0.5077,8.4982,-0.0187,0.2343,9.8038,-0.0741,-0.0202,0.017,20.35,-5.62,-25.03,15.15,0.11,-1.37
6880,52.4862,-1.918495,577.42,49.32,29.032257,21.7,16 / 24,3440054,2019-09-28 14:29:17:743,-0.1425,-0.6775,10.2549,-0.2111,0.2148,9.802,-0.0166,-0.0692,0.0437,19.6,-4.87,-24.59,12.71,1.03,-1.35
6881,52.4862,-1.918495,577.42,49.32,29.032257,21.7,16 / 24,3440554,2019-09-28 14:29:18:243,0.4542,-0.8568,11.76,-0.2473,0.1996,9.8015,-0.0454,-0.0457,0.033,20.35,-4.18,-25.84,10.17,1.45,-1.17
6882,52.486313,-1.91842,577.42,48.67,32.258064,21.8,16 / 24,3441054,2019-09-28 14:29:18:743,-0.4773,-0.1049,9.2272,-0.3388,0.1062,9.8002,0.042,0.0011,0.0043,19.98,-4.49,-25.84,10.6,1.91,-0.93
6883,52.486313,-1.91842,577.42,48.67,32.258064,21.8,16 / 24,3441553,2019-09-28 14:29:19:242,-0.4509,-0.0682,10.7218,-0.3384,0.1724,9.7993,0.0089,-0.0585,-0.0181,20.35,-4.49,-25.9,10.51,1.98,-1.01
6884,52.486427,-1.918347,577.42,48.96,32.258064,21.6,16 / 24,3442054,2019-09-28 14:29:19:743,-0.9969,0.5607,10.3913,-0.3641,0.1487,9.7988,-0.0219,0.0352,0.0245,20.35,-4.12,-25.34,10.79,2.18,-0.86
6885,52.486427,-1.918347,577.42,48.96,32.258064,21.6,16 / 24,3442554,2019-09-28 14:29:20:243,0.4049,0.0811,9.6159,-0.3542,0.1216,9.7995,0.01,-0.05,-0.0298,20.35,-4.12,-25.78,10.93,2.07,-0.71
6886,52.48654,-1.918274,570.97,48.82,32.258064,21.6,16 / 24,3443054,2019-09-28 14:29:20:743,-0.3119,0.7184,8.2665,-0.3407,0.1161,9.8,0.0452,0.0139,-0.0085,20.35,-4.49,-26.22,10.99,1.97,-0.65
6887,52.48654,-1.918274,570.97,48.82,32.258064,21.6,16 / 24,3443553,2019-09-28 14:29:21:242,-0.0533,-0.261,9.5681,-0.3457,0.1155,9.7999,-0.0251,0.0768,0.0266,20.35,-4.12,-25.84,10.99,2.16,-0.68
6888,52.486652,-1.918212,570.97,47.99,35.48387,21.4,16 / 24,3444054,2019-09-28 14:29:21:743,-0.2463,-0.1184,10.2518,-0.3349,0.1081,9.8003,0.0441,0.0491,-0.0149,19.98,-4.49,-26.15,10.73,1.93,-0.84
6889,52.486652,-1.918212,570.97,47.99,35.48387,21.4,16 / 24,3444554,2019-09-28 14:29:22:243,-0.9197,0.3102,9.9836,-0.3288,0.0791,9.8008,-0.0294,-0.0106,0.0362,19.98,-4.87,-27.47,11.31,1.84,-0.37
6890,52.486744,-1.918157,570.97,45.79,35.48387,21.3,16 / 24,3445054,2019-09-28 14:29:22:743,-0.3549,0.8181,9.0323,-0.3121,0.0869,9.8013,-0.0401,-0.0234,0.0138,19.98,-4.49,-26.53,11.1,1.83,-0.53
6891,52.486744,-1.918157,570.97,45.79,35.48387,21.3,16 / 24,3445554,2019-09-28 14:29:23:243,-0.2891,-0.0873,10.1349,-0.33,0.0839,9.8007,0.0132,-0.0361,-0.0107,21.48,-4.12,-27.03,10.43,1.91,-0.64
6892,52.486862,-1.918084,570.97,46.04,32.258064,21.1,16 / 24,3446054,2019-09-28 14:29:23:743,-0.0428,-0.2352,10.2742,-0.2599,0.0796,9.8029,-0.0784,0.0065,0.0714,19.98,-5.24,-26.59,13.93,1.52,-0.46
6893,52.486862,-1.918084,570.97,46.04,32.258064,21.1,16 / 24,3446554,2019-09-28 14:29:24:243,0.1729,-0.2231,9.3688,-0.2293,0.081,9.8036,-0.0124,-0.0532,0.0224,19.23,-5.24,-25.72,14.53,1.29,-0.51
6894,52.486973,-1.917997,564.52,47.34,32.258064,20.9,16 / 24,3447054,2019-09-28 14:29:24:743,-0.6427,0.6121,9.3192,-0.2486,0.0535,9.8034,-0.0379,0.0118,0.0597,19.98,-4.12,-25.72,11.29,1.45,-0.31
6895,52.486973,-1.917997,564.52,47.34,32.258064,20.9,16 / 24,3447554,2019-09-28 14:29:25:243,-0.4589,1.002,9.8101,-0.2499,-0.059,9.8033,0.0249,0.047,-0.0202,19.98,-3.74,-26.53,12.15,1.56,0.31
6896,52.487083,-1.91793,561.29,48.17,32.258064,20.1,16 / 24,3448053,2019-09-28 14:29:25:742,-0.1814,-0.4496,10.2024,-0.2855,-0.1079,9.8019,0.0452,-0.0692,-0.0117,19.6,-3.37,-26.09,9.69,1.67,0.63
6897,52.487083,-1.91793,561.29,48.17,32.258064,20.1,16 / 24,3448553,2019-09-28 14:29:26:242,0.0182,0.06,10.4247,-0.2368,-0.109,9.8032,0.0526,-0.034,-0.0202,19.98,-3.37,-26.09,9.64,1.38,0.64
6898,52.487206,-1.917851,558.06,47.63,32.258064,19.1,16 / 24,3449054,2019-09-28 14:29:26:743,0.9647,-0.8318,8.858,-0.129,-0.1453,9.8047,0.0239,0.1151,0.033,19.6,-2.99,-26.09,9.77,0.75,0.85
6899,52.487206,-1.917851,558.06,47.63,32.258064,19.1,16 / 24,3449554,2019-09-28 14:29:27:243,-0.0609,0.5765,9.4146,0.0599,-0.1861,9.8047,0.0409,-0.0063,0.0192,19.23,-2.62,-26.09,10.21,-0.26,0.98
6900,52.487347,-1.917792,558.06,50.11,32.258064,17.5,16 / 25,3450054,2019-09-28 14:29:27:743,0.9483,0.0212,10.3602,0.0479,-0.1669,9.8051,-0.0528,0.1045,0.0426,19.98,-2.62,-26.97,9.98,-0.12,1.17
6901,52.487347,-1.917792,558.06,50.11,32.258064,17.5,16 / 25,3450553,2019-09-28 14:29:28:242,-0.3696,-0.5685,9.9841,-0.0311,-0.1474,9.8055,-0.039,0.0203,0.0234,19.6,-2.99,-26.9,9.79,0.12,0.94
6902,52.487465,-1.91772,551.61,48.13,29.032257,16.8,16 / 25,3451053,2019-09-28 14:29:28:742,-0.454,0.2202,9.0431,-0.121,-0.1229,9.8051,0.0143,-0.0212,0.0213,19.23,-2.99,-26.9,10.09,0.58,0.71
6903,52.487465,-1.91772,551.61,48.13,29.032257,16.8,16 / 25,3451554,2019-09-28 14:29:29:243,-0.388,0.2523,9.449,-0.1813,-0.0473,9.8049,-0.0592,-0.0223,0.0586,19.6,-2.99,-26.09,9.29,0.85,0.46
6904,52.487576,-1.917668,551.61,47.2,29.032257,16.1,16 / 25,3452053,2019-09-28 14:29:29:742,0.0659,-0.2403,9.3435,-0.1569,0.0094,9.8054,0.0409,-0.0276,-0.0181,19.23,-2.24,-25.09,6.07,0.92,-0.05
6905,52.487576,-1.917668,551.61,47.2,29.032257,16.1,16 / 25,3452553,2019-09-28 14:29:30:242,-0.1396,1.3322,9.9885,-0.1925,-0.0009,9.8048,0.0675,0.0235,-0.0501,19.23,-2.99,-26.03,9.12,1.36,-0.11
6906,52.48768,-1.917624,551.61,45.97,29.032257,15.7,16 / 25,3453053,2019-09-28 14:29:30:742,0.1538,0.1538,9.9561,-0.1092,-0.0073,9.806,-0.007,0.0267,0.0064,19.23,-2.99,-25.53,9.17,0.64,0.04
6907,52.48768,-1.917624,551.61,45.97,29.032257,15.7,16 / 25,3453554,2019-09-28 14:29:31:243,-0.4911,0.0303,9.8459,-0.169,0.0081,9.8052,-0.0049,0.0086,0.0245,19.23,-2.24,-24.65,9.14,1.01,-0.03
6908,52.487785,-1.917575,551.61,45.76,29.032257,15.3,15 / 25,3454053,2019-09-28 14:29:31:742,-0.3097,-0.192,10.0999,-0.1526,0.0338,9.8054,0.0686,0.0065,-0.0597,18.85,-1.87,-24.28,8.87,0.97,-0.23
6909,52.487785,-1.917575,551.61,45.76,29.032257,15.3,15 / 25,3454554,2019-09-28 14:29:32:243,0.8176,-0.0064,10.0449,0.0009,0.0577,9.8065,-0.0124,0.0033,0.0043,17.79,-1.12,-24.28,2.62,0.02,-0.42
6910,52.487896,-1.917531,548.39,45.14,29.032257,14.9,15 / 25,3455053,2019-09-28 14:29:32:742,0.2473,-0.2474,9.9447,0.1021,0.048,9.806,0.026,0.0246,0.0181,19.6,0.69,-24.65,356.83,-0.6,-0.28
6911,52.487896,-1.917531,548.39,45.14,29.032257,14.9,15 / 25,3455553,2019-09-28 14:29:33:242,0.2555,-0.2722,9.7785,-0.0303,0.0514,9.8065,0.0089,-0.0063,-0.0011,21.1,-1.12,-24.65,2.39,0.12,-0.29
6912,52.488,-1.917487,551.61,45.29,29.032257,14.4,15 / 25,3456053,2019-09-28 14:29:33:742,0.2646,-0.2818,9.9618,-0.0745,0.0802,9.806,0.0068,0.0107,0.0032,19.6,-1.87,-24.28,5.2,0.44,-0.47
6913,52.488,-1.917487,551.61,45.29,29.032257,14.4,15 / 25,3456554,2019-09-28 14:29:34:243,0.3884,-1.0928,10.0727,-0.1415,0.0697,9.8054,0.0004,0.015,0.0075,19.6,-1.12,-23.84,2.32,0.89,-0.49
6914,52.488106,-1.917446,551.61,44.75,29.032257,14.0,15 / 25,3457054,2019-09-28 14:29:34:743,-1.0973,0.8197,9.6652,-0.1872,0.0801,9.8045,-0.0433,0.0193,0.0586,18.17,-2.24,-24.72,5.64,0.92,-0.6
6915,52.488106,-1.917446,551.61,44.75,29.032257,14.0,15 / 25,3457553,2019-09-28 14:29:35:242,-0.472,1.3837,9.3575,-0.1906,0.0635,9.8046,0.0292,-0.0095,-0.0266,19.23,-0.81,-25.65,2.65,1.03,-0.32
6916,52.488205,-1.917407,551.61,43.38,29.032257,13.4,15 / 25,3458053,2019-09-28 14:29:35:742,0.1535,0.0002,9.7006,-0.2102,0.0746,9.8041,0.042,0.0193,-0.0234,19.23,-1.18,-26.53,2.42,1.21,-0.47
6917,52.488205,-1.917407,551.61,43.38,29.032257,13.4,15 / 25,3458554,2019-09-28 14:29:36:243,0.3524,-0.3431,8.6931,-0.0728,0.0451,9.8063,-0.0028,-0.0212,0.0117,19.6,-0.81,-25.72,2.47,0.46,-0.32
6918,52.4883,-1.917373,551.61,40.75,29.032257,13.2,15 / 25,3459054,2019-09-28 14:29:36:743,0.1233,0.3986,8.8695,0.0452,0.0718,9.8063,-0.0166,-0.0234,0.0021,19.6,-0.81,-26.15,2.27,-0.16,-0.45
6919,52.4883,-1.917373,551.61,40.75,29.032257,13.2,15 / 25,3459553,2019-09-28 14:29:37:242,-0.1454,-0.1679,9.3337,-0.0608,0.0984,9.806,-0.0465,-0.0212,0.0426,19.6,-1.18,-26.15,2.17,0.27,-0.54
6920,52.488396,-1.91733,551.61,40.57,29.032257,13.0,15 / 25,3460054,2019-09-28 14:29:37:743,0.7278,-0.7533,9.1326,0.0062,0.0703,9.8064,-0.0102,0.0182,0.032,19.98,-1.56,-25.72,4.99,0.35,-0.59
6921,52.488396,-1.91733,551.61,40.57,29.032257,13.0,15 / 25,3460554,2019-09-28 14:29:38:243,0.727,-0.4803,10.1474,0.0997,0.0726,9.8059,0.0824,0.0246,-0.1108,19.98,-1.56,-26.15,5.34,-0.49,-0.23
6922,52.488483,-1.917291,551.61,40.57,29.032257,12.6,15 / 25,3461054,2019-09-28 14:29:38:743,0.6254,0.1379,10.6108,0.1908,0.0924,9.8044,-0.0006,0.0246,0.0032,19.6,-1.93,-26.97,4.96,-1.11,-0.46
6923,52.488483,-1.917291,551.61,40.57,29.032257,12.6,15 / 25,3461554,2019-09-28 14:29:39:243,0.4322,-0.0693,10.0538,0.2319,0.1018,9.8034,0.0462,0.0193,0.0021,19.98,-1.93,-26.09,4.75,-1.27,-0.64
6924,52.48859,-1.917263,548.39,41.76,32.258064,12.0,15 / 25,3462054,2019-09-28 14:29:39:743,0.4447,-0.7897,9.9435,0.269,0.1047,9.8024,0.0814,0.0342,-0.0479,19.98,-2.62,-25.65,7.45,-1.55,-0.65
6925,52.48859,-1.917263,548.39,41.76,32.258064,12.0,15 / 25,3462554,2019-09-28 14:29:40:243,-0.4874,1.2486,10.0416,0.2954,0.1321,9.8013,-0.0241,-0.0042,0.0447,19.23,-1.87,-25.22,4.81,-1.73,-0.77
6926,52.4887,-1.917222,548.39,44.24,29.032257,12.1,15 / 25,3463054,2019-09-28 14:29:40:743,0.5208,0.5395,8.4547,0.3101,0.1248,9.801,-0.0305,0.0715,0.0256,19.6,-2.24,-25.22,4.72,-1.81,-0.65
6927,52.4887,-1.917222,548.39,44.24,29.032257,12.1,15 / 25,3463553,2019-09-28 14:29:41:242,0.6969,0.1993,8.8559,0.4748,0.153,9.794,0.0207,0.0118,-0.0096,19.98,-1.49,-26.03,1.64,-2.53,-0.87
6928,52.488808,-1.917184,548.39,43.63,29.032257,11.8,15 / 25,3464054,2019-09-28 14:29:41:743,-0.4509,1.5283,9.6619,0.631,0.1339,9.7854,0.0516,-0.0052,-0.0426,19.98,-2.62,-26.9,6.91,-3.69,-0.78
6929,52.488808,-1.917184,548.39,43.63,29.032257,11.8,15 / 25,3464553,2019-09-28 14:29:42:242,-0.3954,0.2839,10.173,0.3725,0.0983,9.7991,0.043,-0.0042,-0.0053,19.98,-1.49,-25.09,1.91,-2.34,-0.69
6930,52.48892,-1.917158,545.16,43.49,29.032257,11.2,14 / 25,3465054,2019-09-28 14:29:42:743,0.6859,-0.0114,9.5043,0.3825,0.0332,9.7991,0.0494,-0.0148,-0.0181,19.6,-1.12,-25.15,2.43,-2.32,-0.25
6931,52.48892,-1.917158,545.16,43.49,29.032257,11.2,14 / 25,3465554,2019-09-28 14:29:43:243,0.2348,0.6845,9.353,0.4867,0.1156,9.7939,-0.0763,-0.1203,0.0011,19.98,-1.49,-23.84,2.58,-2.6,-0.12
6932,52.489025,-1.917127,545.16,43.45,29.032257,11.0,14 / 25,3466053,2019-09-28 14:29:43:742,0.5614,-0.6219,10.4992,0.536,0.0479,9.7919,0.0302,-0.0649,-0.017,18.85,-2.24,-24.65,7.76,-3.21,-0.51
6933,52.489025,-1.917127,545.16,43.45,29.032257,11.0,14 / 25,3466554,2019-09-28 14:29:44:243,-0.336,0.5032,9.6348,0.3944,0.0679,9.7985,0.0026,-0.0404,0.0032,19.23,-1.87,-24.65,5.15,-2.51,-0.43
6934,52.489136,-1.917081,545.16,45.07,32.258064,11.3,14 / 25,3467054,2019-09-28 14:29:44:743,0.1144,0.1378,8.943,0.4236,0.0978,9.797,-0.007,0.0224,0.0085,18.36,-1.89,-23.65,5.41,-2.5,-0.47
6935,52.489136,-1.917081,545.16,45.07,32.258064,11.3,14 / 25,3467554,2019-09-28 14:29:45:243,-0.6393,0.6033,10.2699,0.3545,0.1462,9.7991,0.0292,0.0416,-0.032,18.38,-1.13,-23.68,1.95,-2.23,-0.85
6936,52.489258,-1.917055,545.16,47.2,32.258064,11.1,14 / 25,3468054,2019-09-28 14:29:45:743,0.401,0.1689,10.5031,0.3907,0.1277,9.798,-0.0113,-0.0351,-0.0138,17.79,-0.74,-24.28,2.08,-2.28,-0.75
6937,52.489258,-1.917055,545.16,47.2,32.258064,11.1,14 / 25,3468554,2019-09-28 14:29:46:243,-0.0703,0.3673,10.5412,0.344,0.1113,9.8,0.0121,-0.0596,-0.0107,18.17,0.32,-24.22,358.95,-2.13,-0.83
6938,52.48937,-1.917018,545.16,46.8,32.258064,11.1,14 / 25,3469054,2019-09-28 14:29:46:743,-0.7175,1.4868,7.9127,0.3263,0.1226,9.8005,-0.0592,-0.067,0.066,18.92,0.38,-25.03,359.1,-1.91,-0.72
6939,52.48937,-1.917018,545.16,46.8,32.258064,11.1,14 / 25,3469553,2019-09-28 14:29:47:242,1.128,-0.0408,11.0016,0.3112,0.1268,9.8009,0.0462,-0.0031,-0.0618,21.1,-0.74,-26.78,1.72,-1.66,-0.73
6940,52.48948,-1.916982,545.16,47.09,32.258064,11.3,14 / 25,3470053,2019-09-28 14:29:47:742,0.0144,-0.0287,9.3924,0.3289,0.0957,9.8007,0.0302,-0.0021,-0.0234,20.35,-2.24,-25.47,4.82,-1.92,-0.56
6941,52.48948,-1.916982,545.16,47.09,32.258064,11.3,14 / 25,3470554,2019-09-28 14:29:48:243,0.1338,0.4401,8.5594,0.4702,0.1111,9.7947,-0.0411,-0.0234,0.0224,21.48,1.07,-26.78,2.01,-2.08,-0.48
6942,52.48961,-1.916929,548.39,48.24,32.258064,11.8,14 / 25,3471053,2019-09-28 14:29:48:742,1.1854,-0.8888,9.8548,0.2443,0.2026,9.8015,0.0643,-0.0127,-0.0149,18.54,4.38,-26.34,348.08,-1.89,-0.89
6943,52.48961,-1.916929,548.39,48.24,32.258064,11.8,14 / 25,3471554,2019-09-28 14:29:49:243,-0.0998,-0.1713,9.6536,-0.0118,0.1707,9.8052,-0.0092,-0.018,-0.0298,17.11,-1.2,-24.62,355.07,-0.39,-0.91
6944,52.489727,-1.916886,548.39,48.64,32.258064,12.3,14 / 25,3472054,2019-09-28 14:29:49:743,0.2878,0.554,9.6571,-0.0817,0.2698,9.8026,-0.0262,-0.0031,-0.0032,21.85,-11.43,-19.84,25.57,0.48,-1.58
6945,52.489727,-1.916886,548.39,48.64,32.258064,12.3,14 / 25,3472553,2019-09-28 14:29:50:242,-0.1801,-0.2086,9.6213,-0.1894,0.3033,9.8001,0.0271,-0.0159,-0.0597,24.42,-8.49,-21.59,17.25,1.11,-1.77
6946,52.489845,-1.916845,545.16,47.56,32.258064,13.1,14 / 25,3473054,2019-09-28 14:29:50:743,-0.2121,0.1908,8.9615,-0.1845,0.2599,9.8015,-0.0124,-0.0244,-0.0043,25.17,-3.68,-23.28,7.64,0.99,-1.74
6947,52.489845,-1.916845,545.16,47.56,32.258064,13.1,14 / 25,3473554,2019-09-28 14:29:51:243,-0.0908,-0.1986,10.0858,-0.1624,0.2835,9.8012,-0.0156,0.0129,-0.0032,21.85,7.38,-24.53,340.34,0.96,-1.64
6948,52.489956,-1.916818,548.39,46.22,32.258064,13.3,Dec-25,3474053,2019-09-28 14:29:51:742,-0.472,0.0832,9.626,-0.2221,0.2912,9.7998,0.0068,0.0129,-0.0011,15.82,2.96,-25.32,346.37,1.3,-1.7
6949,52.489956,-1.916818,548.39,46.22,32.258064,13.3,Dec-25,3474554,2019-09-28 14:29:52:243,-0.2416,0.7089,9.7641,-0.2082,0.2041,9.8023,-0.0092,-0.0074,0.0181,15.41,-4.96,-25.26,17.2,1.22,-1.19
6950,52.49007,-1.91678,548.39,46.22,32.258064,13.7,14 / 25,3475054,2019-09-28 14:29:52:743,-0.493,1.3142,8.9853,-0.2576,0.2849,9.7991,0.0143,-0.0138,-0.0288,17.92,-8.89,-22.36,20.16,1.23,-1.43
6951,52.49007,-1.91678,548.39,46.22,32.258064,13.7,14 / 25,3475554,2019-09-28 14:29:53:243,0.1757,-0.0848,10.2753,-0.205,0.2565,9.8012,-0.0124,0.0288,-0.0138,22.23,-8.49,-18.65,19.21,1.31,-1.46
6952,52.490177,-1.916732,548.39,44.39,32.258064,14.4,14 / 25,3476055,2019-09-28 14:29:53:744,0.044,-0.0156,10.3355,-0.2635,0.2184,9.8007,0.01,-0.0255,-0.0117,21.17,-4.45,-20.78,8.47,1.35,-1.37
6953,52.490177,-1.916732,548.39,44.39,32.258064,14.4,14 / 25,3476554,2019-09-28 14:29:54:243,-0.6351,0.6841,10.3505,-0.2324,0.2556,9.8006,0.0302,0.0054,-0.0447,23.29,-9.24,-19.03,20.67,1.37,-1.5
6954,52.49029,-1.916682,545.16,44.6,32.258064,15.1,14 / 25,3477053,2019-09-28 14:29:54:742,-0.2357,-0.2696,10.3864,-0.2393,0.2473,9.8006,-0.0315,-0.0127,-0.0107,17.97,0.39,-24.02,358.07,1.41,-1.4
6955,52.49029,-1.916682,545.16,44.6,32.258064,15.1,14 / 25,3477554,2019-09-28 14:29:55:243,0.2034,0.2591,10.0183,-0.1807,0.2024,9.8029,-0.0134,-0.0319,0.0064,16.08,-8.2,-23.96,29.95,0.96,-1.41
6956,52.49039,-1.916647,545.16,43.78,32.258064,15.5,14 / 25,3478053,2019-09-28 14:29:55:742,0.2939,-0.948,10.6821,-0.192,0.2277,9.8021,-0.0401,0.0224,0.0533,13.35,-1.87,-27.53,6.12,1.12,-1.36
6957,52.4905,-1.916597,545.16,44.24,32.258064,15.8,13 / 23,3478555,2019-09-28 14:29:56:244,-0.415,0.6351,9.8388,-0.2204,0.1991,9.8022,-0.0038,-0.0393,-0.0075,21.1,-4.06,-24.47,18.48,1.2,-1.13
6958,52.4905,-1.916597,545.16,44.24,32.258064,15.8,13 / 23,3479055,2019-09-28 14:29:56:744,-0.5392,1.2101,9.5381,-0.1996,0.1665,9.8032,-0.0198,-0.0479,0.0011,19.6,4.76,-25.78,344.43,1.0,-0.99
6959,52.4905,-1.916597,545.16,44.24,32.258064,15.8,13 / 23,3479554,2019-09-28 14:29:57:243,-0.1282,0.0781,9.5614,-0.2315,0.2284,9.8013,-0.0028,0.0885,-0.0245,24.79,-6.99,-23.34,14.81,1.35,-1.34
6960,52.49059,-1.916547,545.16,40.1,35.48387,16.3,14 / 25,3480053,2019-09-28 14:29:57:742,-0.6706,1.5074,10.088,-0.168,0.2145,9.8029,-0.0337,0.0597,-0.016,23.29,9.19,-31.09,336.39,1.36,-1.36
6961,52.49059,-1.916547,545.16,40.1,35.48387,16.3,14 / 25,3480554,2019-09-28 14:29:58:243,-0.9126,0.4692,10.1105,-0.1957,0.253,9.8014,-0.0326,-0.034,-0.0181,11.85,3.63,-28.53,337.72,1.03,-1.39
6962,52.49067,-1.91649,545.16,39.24,32.258064,17.0,14 / 25,3481053,2019-09-28 14:29:58:742,-0.8213,0.1749,10.1698,-0.3781,0.2195,9.7969,0.0207,-0.0159,-0.0096,12.12,-4.92,-27.0,21.87,2.21,-1.28
6963,52.49067,-1.91649,545.16,39.24,32.258064,17.0,14 / 25,3481553,2019-09-28 14:29:59:242,-0.9013,0.261,9.926,-0.5786,0.2296,9.7869,-0.023,-0.0021,-0.0075,18.17,-11.12,-25.53,32.32,3.38,-1.34
6964,52.490734,-1.916448,541.94,35.06,32.258064,17.6,14 / 25,3482054,2019-09-28 14:29:59:743,-0.3553,0.4537,9.8214,-0.5576,0.2216,9.7883,0.0047,0.0778,-0.0128,22.54,-6.68,-25.59,16.7,3.58,-1.33
6965,52.490734,-1.916448,541.94,35.06,32.258064,17.6,14 / 25,3482555,2019-09-28 14:30:00:244,-0.0945,0.6974,9.4864,-0.4308,0.2366,9.7943,-0.0241,-0.0212,-0.0117,18.85,-2.99,-27.78,7.62,2.6,-1.29
6966,52.490826,-1.916391,541.94,31.68,32.258064,18.2,14 / 25,3483053,2019-09-28 14:30:00:742,-0.4154,0.9342,9.9836,-0.4232,0.2578,9.7941,0.0345,0.015,-0.0437,17.79,-4.49,-28.72,10.97,2.27,-1.46
6967,52.490826,-1.916391,541.94,31.68,32.258064,18.2,14 / 25,3483553,2019-09-28 14:30:01:242,-0.1892,-0.0625,10.2458,-0.4635,0.191,9.7938,0.0313,-0.0649,-0.0298,18.1,-4.12,-27.47,11.71,2.68,-1.14
6968,52.490913,-1.91635,541.94,29.84,29.032257,18.7,14 / 25,3484054,2019-09-28 14:30:01:743,0.1388,0.398,10.5789,-0.2268,0.1464,9.8029,0.0175,-0.083,-0.0096,18.48,-3.74,-27.53,11.67,1.32,-0.86
6969,52.490913,-1.91635,541.94,29.84,29.032257,18.7,14 / 25,3484554,2019-09-28 14:30:02:243,-0.1386,0.5633,10.2205,-0.1917,0.1577,9.8035,-0.0038,0.0448,0.0107,18.1,-3.74,-27.53,11.5,1.12,-0.92
6970,52.490963,-1.916316,545.16,28.12,29.032257,19.2,14 / 25,3485054,2019-09-28 14:30:02:743,0.0229,-0.1363,9.4097,-0.0726,0.1587,9.8051,-0.0219,-0.0095,0.0234,17.79,-3.74,-26.97,11.22,0.48,-0.97
6971,52.490963,-1.916316,545.16,28.12,29.032257,19.2,14 / 25,3485553,2019-09-28 14:30:03:242,-0.187,-0.4795,10.216,-0.0381,0.1558,9.8053,0.0409,0.0374,-0.0415,18.1,-3.74,-26.59,11.28,0.22,-0.91
6972,52.491028,-1.916268,545.16,27.29,29.032257,19.7,14 / 25,3486054,2019-09-28 14:30:03:743,-0.506,-0.1847,9.3738,-0.163,0.2062,9.8031,-0.0049,-0.0084,0.0053,18.48,-4.87,-27.47,14.11,0.68,-1.18
6973,52.491028,-1.916268,545.16,27.29,29.032257,19.7,14 / 25,3486553,2019-09-28 14:30:04:242,-0.2419,-0.2021,9.8511,-0.1617,0.2376,9.8024,-0.0028,-0.0329,-0.0032,18.48,-4.87,-26.15,13.96,0.94,-1.39
6974,52.491085,-1.916228,548.39,25.56,29.032257,20.1,14 / 25,3487053,2019-09-28 14:30:04:742,0.1726,0.176,9.1943,-0.2019,0.2356,9.8017,0.0175,-0.0202,-0.0181,18.48,-5.24,-26.53,14.01,1.18,-1.38
6975,52.491085,-1.916228,548.39,25.56,29.032257,20.1,14 / 25,3487554,2019-09-28 14:30:05:243,-0.146,0.4769,9.1788,-0.0604,0.2047,9.8043,-0.0102,0.032,0.0032,17.42,-5.24,-26.9,14.77,0.47,-1.22
6976,52.49113,-1.916202,551.61,24.12,29.032257,20.4,14 / 25,3488054,2019-09-28 14:30:05:743,0.6016,-0.427,9.5225,-0.0236,0.1821,9.8049,0.0207,-0.0351,-0.0384,17.42,-4.49,-25.65,14.79,0.2,-1.18
6977,52.49113,-1.916202,551.61,24.12,29.032257,20.4,14 / 25,3488553,2019-09-28 14:30:06:242,-0.0144,0.2057,9.8145,-0.0276,0.166,9.8052,0.0132,0.0033,-0.0107,18.54,-3.74,-25.15,10.5,0.22,-1.14
6978,52.491184,-1.916173,551.61,23.04,29.032257,20.6,14 / 25,3489054,2019-09-28 14:30:06:743,0.6433,0.3115,8.6984,0.0222,0.1215,9.8059,-0.0241,-0.0596,0.0192,18.48,-4.12,-27.4,11.81,0.02,-0.51
6979,52.491184,-1.916173,551.61,23.04,29.032257,20.6,14 / 25,3489553,2019-09-28 14:30:07:242,0.8065,0.5472,9.6964,0.2245,0.1188,9.8034,0.0185,0.0001,-0.0426,18.48,-4.12,-27.03,11.38,-1.19,-0.56
6980,52.49124,-1.916139,551.61,23.47,32.258064,20.4,14 / 25,3490054,2019-09-28 14:30:07:743,-0.0076,0.5287,9.7209,0.3379,0.1065,9.8003,0.0292,-0.0116,-0.0373,18.48,-2.68,-27.03,8.05,-1.87,-0.7
6981,52.49124,-1.916139,551.61,23.47,32.258064,20.4,14 / 25,3490554,2019-09-28 14:30:08:243,0.4897,0.34,9.2292,0.418,0.112,9.7971,0.0026,-0.0415,-0.017,18.85,-4.49,-27.09,10.35,-2.33,-0.7
6982,52.491295,-1.91611,551.61,23.04,29.032257,20.2,14 / 25,3491053,2019-09-28 14:30:08:742,0.6174,0.0774,10.5215,0.4596,0.1372,9.7949,-0.0017,-0.034,-0.0043,18.1,-4.12,-27.97,10.59,-2.69,-0.8
6983,52.491295,-1.91611,551.61,23.04,29.032257,20.2,14 / 25,3491554,2019-09-28 14:30:09:243,0.3662,-0.2397,9.5454,0.4748,0.1469,9.794,-0.0219,0.0043,0.0138,18.85,-3.06,-27.03,7.27,-2.77,-0.88
6984,52.49136,-1.916071,548.39,24.77,29.032257,20.2,14 / 25,3492054,2019-09-28 14:30:09:743,-0.2382,0.2818,9.0231,0.3851,0.1685,9.7976,-0.0092,-0.0447,0.0064,19.23,-4.49,-27.47,9.95,-2.57,-0.97
6985,52.49136,-1.916071,548.39,24.77,29.032257,20.2,14 / 25,3492553,2019-09-28 14:30:10:242,0.2993,0.158,8.8847,0.3078,0.1687,9.8004,0.0313,0.0917,-0.0192,18.48,-4.87,-27.4,13.5,-1.89,-0.99
6986,52.491425,-1.916041,545.16,24.91,29.032257,20.3,14 / 25,3493054,2019-09-28 14:30:10:743,-0.033,0.8642,9.381,0.2032,0.1748,9.803,-0.006,-0.0979,-0.0192,18.85,-4.12,-26.97,10.21,-1.32,-0.99
6987,52.491425,-1.916041,545.16,24.91,29.032257,20.3,14 / 25,3493554,2019-09-28 14:30:11:243,-0.1407,-0.2549,10.4213,0.1709,0.2046,9.803,0.0334,-0.0159,-0.0309,18.17,-4.87,-26.15,13.58,-1.0,-1.2
6988,52.491474,-1.916003,545.16,24.8,29.032257,20.4,15 / 25,3494054,2019-09-28 14:30:11:743,-0.2455,-0.3107,11.5744,0.0984,0.204,9.804,-0.0273,0.0533,0.0256,18.48,-3.74,-26.09,10.68,-0.69,-1.2
6989,52.491474,-1.916003,545.16,24.8,29.032257,20.4,15 / 25,3494553,2019-09-28 14:30:12:242,-0.3813,0.9805,9.226,0.0746,0.1762,9.8048,0.0324,0.0001,-0.0362,18.54,-4.12,-26.47,10.75,-0.5,-1.14
6990,52.491535,-1.915974,548.39,24.95,29.032257,20.6,15 / 25,3495054,2019-09-28 14:30:12:743,-0.8467,0.0627,9.0595,-0.0551,0.202,9.8044,-0.0369,-0.1001,0.0266,18.85,-3.74,-25.65,10.29,-0.07,-1.2
6991,52.491535,-1.915974,548.39,24.95,29.032257,20.6,15 / 25,3495554,2019-09-28 14:30:13:243,-1.3928,0.0286,9.6706,-0.514,0.1833,9.7915,0.0185,0.0448,-0.0213,19.23,-4.12,-26.09,11.09,2.51,-1.11
6992,52.491615,-1.915928,541.94,24.95,29.032257,20.7,15 / 25,3496053,2019-09-28 14:30:13:742,-1.2448,-0.795,9.4021,-1.1382,0.1228,9.7396,-0.0145,0.0427,0.0266,18.85,-4.12,-25.97,12.44,5.46,-0.82
6993,52.491615,-1.915928,541.94,24.95,29.032257,20.7,15 / 25,3496554,2019-09-28 14:30:14:243,-2.0288,-0.137,9.9157,-1.5258,0.0918,9.6868,0.0036,0.0107,0.0149,18.17,-3.74,-25.59,9.97,7.94,-0.69
6994,52.49167,-1.91589,545.16,21.64,29.032257,20.6,15 / 25,3497053,2019-09-28 14:30:14:742,-1.191,0.7727,9.2263,-1.6146,0.0794,9.6725,-0.0294,0.0118,0.0341,18.54,-3.37,-25.97,10.96,9.62,-0.47
6995,52.49167,-1.91589,545.16,21.64,29.032257,20.6,15 / 25,3497554,2019-09-28 14:30:15:243,-0.8581,-0.3187,10.4461,-1.5948,0.0498,9.676,-0.006,0.0459,0.0298,18.85,-3.74,-25.09,14.78,9.36,-0.29
6996,52.491695,-1.915881,545.16,14.36,29.032257,20.2,15 / 25,3498053,2019-09-28 14:30:15:742,-0.6154,-0.0429,9.5063,-1.3079,0.057,9.7189,-0.0017,-0.018,0.0181,19.23,-4.06,-26.34,14.38,7.86,-0.19
6997,52.491695,-1.915881,545.16,14.36,29.032257,20.2,15 / 25,3498553,2019-09-28 14:30:16:242,-0.92,0.0643,10.1293,-1.0407,-0.0104,9.7513,-0.0134,-0.034,0.033,19.23,-4.06,-27.65,14.21,6.21,0.03
6998,52.491703,-1.915869,548.39,9.22,29.032257,18.9,16 / 25,3499053,2019-09-28 14:30:16:742,0.3273,0.2718,9.023,-0.6561,-0.0021,9.7847,-0.007,0.0075,0.032,18.92,-4.43,-26.34,13.21,4.81,-0.19
6999,52.491703,-1.915869,548.39,9.22,29.032257,18.9,16 / 25,3499554,2019-09-28 14:30:17:243,-0.5732,-0.2597,10.2201,-0.5568,0.0507,9.7907,0.0068,-0.0447,0.0384,18.54,-4.43,-26.78,12.38,3.39,-0.4
7000,52.49173,-1.915854,545.16,7.67,29.032257,17.1,17 / 25,3500054,2019-09-28 14:30:17:743,0.4779,0.3883,9.1273,-0.2695,0.0652,9.8027,0.0057,-0.0393,0.0213,19.23,-2.24,-26.72,5.8,1.81,-0.34
7001,52.49173,-1.915854,545.16,7.67,29.032257,17.1,17 / 25,3500554,2019-09-28 14:30:18:243,0.7848,-0.1337,8.8493,-0.0914,0.0767,9.8059,-0.0177,0.0416,0.0714,19.29,-2.43,-26.78,5.63,0.69,-0.34
7002,52.491737,-1.915842,545.16,7.34,29.032257,15.0,17 / 25,3501054,2019-09-28 14:30:18:743,1.7164,0.6789,9.5589,0.6013,0.1661,9.7868,-0.0241,0.0193,0.0405,18.54,-3.24,-27.65,7.4,-2.56,-0.76
7003,52.491737,-1.915842,545.16,7.34,29.032257,15.0,17 / 25,3501553,2019-09-28 14:30:19:242,2.4167,0.4037,9.7589,1.3128,0.225,9.7158,0.0079,0.0182,0.0021,17.79,-3.31,-27.09,6.4,-6.89,-1.34
7004,52.491753,-1.91583,545.16,8.78,29.032257,14.0,17 / 25,3502053,2019-09-28 14:30:19:742,2.0625,-0.1062,9.6659,1.873,0.2719,9.6223,0.0057,0.0033,0.0021,18.54,-3.37,-27.22,5.36,-10.81,-1.63
7005,52.491753,-1.91583,545.16,8.78,29.032257,14.0,17 / 25,3502554,2019-09-28 14:30:20:243,2.4112,-0.127,9.5646,2.2136,0.1508,9.5524,0.0271,0.0107,0.0469,18.85,-2.62,-27.28,5.58,-12.18,-1.33
7006,52.49179,-1.915815,541.94,15.73,29.032257,13.5,17 / 25,3503053,2019-09-28 14:30:20:742,1.7956,-0.2966,9.0839,2.2062,-0.1016,9.5547,0.0324,-0.0095,0.0959,18.85,-1.87,-26.47,5.12,-12.99,0.41
7007,52.49179,-1.915815,541.94,15.73,29.032257,13.5,17 / 25,3503553,2019-09-28 14:30:21:242,-0.3426,-1.2198,9.775,1.7003,-0.3779,9.6507,0.0164,-0.001,0.1332,19.66,-0.77,-27.09,4.38,-11.06,1.91
