,GPS LATITUDE (degrees), GPS LONGITUDE (degrees), GPS ALTITUDE (m), GPS SPEED (Kmh), GPS ACCURACY (m), GPS ORIENTATION (Â°),GPS SATELLITES IN RANGE, TIME SINCE START (ms), DATE (YYYY-MO-DD HH-MI-SS_SSS), ACCELEROMETER X (m/s²) , ACCELEROMETER Y (m/s²), ACCELEROMETER Z (m/s²), GRAVITY X (m/s²), GRAVITY Y (m/s²), GRAVITY Z (m/s²), GYROSCOPE Yaw (rad/s), GYROSCOPE Pitch (rad/s), GYROSCOPE Roll (rad/s), MAGNETIC FIELD X (Î¼T), MAGNETIC FIELD Y (Î¼T), MAGNETIC FIELD Z (Î¼T), ORIENTATION (Yaw) (Â°), ORIENTATION (Pitch) (Â°), ORIENTATION (Roll ) (Â°)
44794,51.473824,-2.732105,46,0.62,9,226.6,13 / 21,4479424,2019-08-16 14:03:53:204,-0.0922,-0.0524,10.1546,-0.0154,-0.0235,9.8066,-0.0064,0.0069,0.0037,-13.66,26.68,1.23,243.14,9.62,0.51
44795,51.473824,-2.732105,46,0.62,9,226.6,13 / 21,4479524,2019-08-16 14:03:53:304,-0.0074,-0.0468,9.6761,-0.003,-0.0082,9.8066,-0.0032,-0.024,0.0026,-13.16,26.84,2.52,245.4,9.46,0.53
44796,51.473824,-2.732105,46,0.62,9,226.6,13 / 21,4479623,2019-08-16 14:03:53:403,-0.0252,0.2138,10.1494,-0.0051,-0.0188,9.8066,-0.0021,0.0335,-0.0006,-12.96,27.03,1.22,244.81,9.34,0.51
44797,51.473824,-2.732105,46,0.62,9,226.6,13 / 21,4479723,2019-08-16 14:03:53:503,-0.0225,-0.1621,9.7606,-0.0005,0.0011,9.8066,-0.0021,0.0335,-0.0006,-12.96,27.03,1.22,244.81,9.34,0.51
44798,51.473824,-2.732105,46,0.62,9,226.6,13 / 21,4479823,2019-08-16 14:03:53:603,-0.0532,-0.0387,9.7869,-0.0026,-0.0021,9.8066,0.0043,-0.0229,-0.0006,-13.17,26.88,2.04,245.1,9.35,0.52
44799,51.473824,-2.732105,46,0.62,9,226.6,13 / 21,4479923,2019-08-16 14:03:53:703,0.0123,0.0,9.6781,-0.0069,-0.0107,9.8066,0.0043,-0.0187,-0.0006,-13.62,26.6,2.6,243.67,9.27,0.53
44800,51.473824,-2.732105,46,0.62,9,226.6,13 / 21,4480023,2019-08-16 14:03:53:803,-0.0982,0.0341,9.8389,-0.0038,-0.0003,9.8066,-0.0075,0.0314,0.0026,-13.62,26.6,2.6,243.67,9.27,0.53
44801,51.473824,-2.732105,46,0.62,9,226.6,13 / 21,4480123,2019-08-16 14:03:53:903,-0.12,-0.1961,9.9331,-0.0059,-0.0088,9.8066,0.0064,-0.0091,-0.0027,-13.89,26.57,1.2,243.1,9.21,0.54
44802,51.473824,-2.732105,46,0.62,9,226.6,13 / 21,4480223,2019-08-16 14:03:54:003,0.003,0.07,9.9892,-0.0012,-0.0072,9.8066,-0.0032,0.0208,0.0005,-13.89,26.57,1.2,243.1,9.21,0.54
44803,51.473824,-2.732105,46,0.62,9,226.6,13 / 21,4480323,2019-08-16 14:03:54:103,-0.0468,-0.2645,9.4871,-0.0028,0.0008,9.8066,-0.0011,-0.0219,0.0037,-14.13,26.44,1.22,242.22,9.14,0.5
44804,51.473824,-2.732105,46,0.62,9,226.6,13 / 21,4480423,2019-08-16 14:03:54:203,-0.0995,-0.0475,9.8673,-0.0058,-0.0071,9.8066,-0.0011,-0.0219,0.0037,-13.89,26.57,1.2,242.22,9.14,0.5
44805,51.473824,-2.732105,46,0.62,9,226.6,13 / 21,4480523,2019-08-16 14:03:54:303,0.0599,-0.1431,9.7498,-0.0084,-0.0095,9.8066,0.0011,0.0314,0.0005,-13.89,26.57,1.2,243.09,9.07,0.52
44806,51.473824,-2.732105,46,0.62,9,226.6,13 / 21,4480623,2019-08-16 14:03:54:403,0.042,0.0458,9.7056,0.0,-0.002,9.8067,-0.0043,-0.0048,0.0005,-13.2,26.94,0.55,243.09,9.07,0.52
44807,51.473824,-2.732105,46,0.62,9,226.6,13 / 21,4480723,2019-08-16 14:03:54:503,0.0451,0.2444,10.0544,-0.0002,-0.0003,9.8067,0.0149,-0.0453,-0.0048,-13.2,26.94,0.55,243.09,9.07,0.52
44808,51.473824,-2.732105,46,0.62,9,226.6,13 / 21,4480822,2019-08-16 14:03:54:602,0.0092,-0.1993,9.7,0.0013,0.0049,9.8067,-0.0085,0.0421,0.0048,-13.92,26.57,0.45,242.82,9.1,0.53
44809,51.473824,-2.732105,46,0.62,9,226.6,13 / 21,4480923,2019-08-16 14:03:54:703,-0.1687,-0.3125,9.7508,-0.0128,-0.023,9.8066,0.0043,0.0112,-0.0048,-13.67,26.7,0.44,242.82,9.1,0.53
44810,51.473824,-2.732105,46,0.62,9,226.6,13 / 21,4481023,2019-08-16 14:03:54:803,-0.1164,-0.3244,9.4199,-0.0381,-0.0699,9.8063,0.0032,0.0005,-0.0038,-13.67,26.7,0.44,242.82,9.1,0.53
44811,51.473824,-2.732105,46,0.62,9,226.6,13 / 21,4481123,2019-08-16 14:03:54:903,-0.0139,0.1123,9.6947,-0.0091,-0.0134,9.8066,-0.0032,0.0261,0.0005,-14.13,26.44,1.12,242.17,8.64,0.54
44812,51.473824,-2.732105,46,0.62,9,226.6,13 / 21,4481223,2019-08-16 14:03:55:003,-0.1688,-0.2959,9.9105,-0.0063,-0.0082,9.8066,-0.0032,0.0261,0.0005,-14.58,26.2,1.11,240.48,8.46,0.55
44813,51.473824,-2.732105,46,0.62,9,226.6,13 / 21,4481323,2019-08-16 14:03:55:103,-0.1445,0.062,9.9885,-0.0119,-0.0191,9.8066,-0.0021,-0.0155,-0.0006,-14.57,26.17,1.69,240.48,8.46,0.55
44814,51.473824,-2.732105,46,0.62,9,226.6,13 / 21,4481423,2019-08-16 14:03:55:203,-0.0886,-0.2054,9.8786,-0.0239,-0.0403,9.8065,0.0,0.0325,0.0005,-14.57,26.17,1.69,240.48,8.46,0.55
44815,51.473824,-2.732105,46,0.62,9,226.6,13 / 21,4481524,2019-08-16 14:03:55:304,-0.106,0.0532,10.0055,-0.0089,-0.0088,9.8066,-0.0011,0.0026,0.0026,-14.32,26.31,1.66,242.39,8.19,0.56
44816,51.473824,-2.732105,46,0.62,9,226.6,13 / 21,4481623,2019-08-16 14:03:55:403,-0.1346,-0.3269,9.752,-0.0151,-0.0218,9.8066,0.0,-0.0006,-0.0016,-14.34,26.35,0.43,241.87,8.03,0.58
44817,51.473824,-2.732105,46,0.62,9,226.6,13 / 21,4481723,2019-08-16 14:03:55:503,-0.07,-0.241,9.561,-0.0069,-0.0102,9.8066,-0.0032,0.0239,0.0037,-14.13,26.44,1.12,241.87,8.03,0.58
44818,51.473824,-2.732105,46,0.62,9,226.6,13 / 21,4481823,2019-08-16 14:03:55:603,-0.1783,-0.1423,9.7289,-0.0094,-0.013,9.8066,-0.0032,0.0239,0.0037,-14.13,26.44,1.12,241.87,8.03,0.58
44819,51.473824,-2.732105,46,0.62,9,226.6,13 / 21,4481923,2019-08-16 14:03:55:703,-0.094,-0.1246,9.513,-0.0048,-0.014,9.8066,0.0096,-0.0133,-0.0048,-14.79,25.99,2.41,240.67,7.94,0.59
44820,51.473824,-2.732105,46,0.62,9,226.6,13 / 21,4482023,2019-08-16 14:03:55:803,-0.161,-0.0145,9.8286,-0.0094,-0.0207,9.8066,-0.0053,0.0357,0.0048,-14.58,26.2,1.11,240.42,7.81,0.58
44821,51.473824,-2.732105,46,0.62,9,226.6,13 / 21,4482123,2019-08-16 14:03:55:903,-0.1303,-0.2334,9.9274,-0.0068,-0.0113,9.8066,-0.0043,-0.0133,0.0005,-14.54,26.13,2.37,240.66,7.76,0.58
44822,51.473824,-2.732105,46,0.62,9,226.6,13 / 21,4482223,2019-08-16 14:03:56:003,-0.0151,-0.2077,9.2923,-0.0092,-0.0128,9.8066,0.0,0.025,-0.0016,-14.54,26.13,2.37,240.66,7.76,0.58
44823,51.473824,-2.732105,46,0.62,9,226.6,13 / 21,4482323,2019-08-16 14:03:56:103,0.0617,0.1562,9.8814,-0.0026,-0.0051,9.8067,-0.0053,0.0197,0.0048,-14.98,25.89,2.34,240.64,7.67,0.59
44824,51.473824,-2.732105,46,0.62,9,226.6,13 / 21,4482423,2019-08-16 14:03:56:203,0.0254,0.1052,9.874,-0.0079,-0.0124,9.8066,-0.0032,-0.0016,0.0016,-14.98,25.89,2.34,240.63,7.58,0.59
44825,51.473824,-2.732105,46,0.62,9,226.6,13 / 21,4482523,2019-08-16 14:03:56:303,0.0101,-0.1464,9.6153,-0.0031,-0.0027,9.8067,0.0032,0.0197,-0.0027,-14.98,25.89,2.34,240.63,7.58,0.59
44826,51.473824,-2.732105,46,0.62,9,226.6,13 / 21,4482623,2019-08-16 14:03:56:403,-0.0147,-0.0353,9.7644,-0.0047,-0.0115,9.8066,0.0032,0.0197,-0.0027,-14.14,26.46,0.34,241.85,7.56,0.6
44827,51.473824,-2.732105,46,0.62,9,226.6,13 / 21,4482723,2019-08-16 14:03:56:503,-0.0488,0.2314,10.2468,-0.0064,-0.0169,9.8066,0.0043,-0.0155,-0.0006,-14.36,26.28,1.74,242.31,7.46,0.58
44828,51.473824,-2.732105,46,0.62,9,226.6,13 / 21,4482822,2019-08-16 14:03:56:602,-0.0558,0.0557,9.6416,-0.0019,-0.0016,9.8067,0.0043,0.0058,-0.0006,-14.36,26.28,1.74,242.31,7.46,0.58
44829,51.473824,-2.732105,46,0.62,9,226.6,13 / 21,4482923,2019-08-16 14:03:56:703,-0.0837,0.1125,9.8562,-0.0042,-0.0067,9.8066,-0.0085,0.0431,0.0048,-14.81,26.03,1.72,240.62,7.44,0.59
44830,51.473824,-2.732105,46,0.62,9,226.6,13 / 21,4483023,2019-08-16 14:03:56:803,0.0053,0.0578,9.6955,-0.0078,-0.0121,9.8066,0.0021,-0.0006,-0.0016,-14.62,26.14,1.77,240.62,7.44,0.59
44831,51.473824,-2.732105,46,0.62,9,226.6,13 / 21,4483123,2019-08-16 14:03:56:903,-0.033,-0.0593,9.5818,-0.0034,-0.0029,9.8067,-0.0043,-0.0176,-0.0016,-15.43,25.68,1.66,240.61,7.36,0.6
44832,51.473824,-2.732105,46,0.62,9,226.6,13 / 21,4483223,2019-08-16 14:03:57:003,0.0067,0.2906,10.1525,-0.0027,-0.0019,9.8067,0.0128,-0.0336,-0.0059,-15.43,25.68,1.66,240.61,7.36,0.6
44833,51.473824,-2.732105,46,0.62,9,226.6,13 / 21,4483323,2019-08-16 14:03:57:103,-0.0141,-0.0069,9.6996,-0.0025,-0.0059,9.8066,-0.0053,0.0271,0.0048,-14.09,26.38,2.39,242.29,7.34,0.6
44834,51.473824,-2.732105,46,0.62,9,226.6,13 / 21,4483423,2019-08-16 14:03:57:203,-0.1047,0.1377,9.9541,-0.0045,-0.0037,9.8066,-0.0043,0.0069,0.0026,-15.41,25.64,2.32,240.6,7.31,0.62
44835,51.473824,-2.732105,46,0.62,9,226.6,13 / 21,4483524,2019-08-16 14:03:57:304,-0.0652,-0.0421,10.2624,-0.0014,-0.0055,9.8067,-0.0043,0.0069,0.0026,-15.41,25.64,2.32,240.6,7.31,0.62
44836,51.473824,-2.732105,46,0.62,9,226.6,13 / 21,4483624,2019-08-16 14:03:57:404,0.0156,-0.1587,9.4313,-0.0006,-0.0042,9.8066,0.0032,-0.0378,-0.0016,-14.57,26.17,1.69,240.6,7.28,0.61
44837,51.473824,-2.732105,46,0.62,9,226.6,13 / 21,4483723,2019-08-16 14:03:57:503,0.0177,0.1474,9.9018,0.0,-0.0025,9.8067,-0.0053,0.0314,0.0048,-14.62,26.14,1.77,240.6,7.28,0.61
44838,51.473824,-2.732105,46,0.62,9,226.6,13 / 21,4483823,2019-08-16 14:03:57:603,0.0632,-0.1225,9.5232,-0.001,0.0013,9.8067,0.0,-0.0187,0.0005,-15.07,25.88,1.75,240.6,7.23,0.6
44839,51.473824,-2.732105,46,0.62,9,226.6,13 / 21,4483923,2019-08-16 14:03:57:703,0.1482,0.0656,9.8988,0.0011,0.0024,9.8067,0.0117,-0.0357,-0.0038,-15.51,25.62,1.73,240.6,7.23,0.6
44840,51.473824,-2.732105,46,0.62,9,226.6,13 / 21,4484023,2019-08-16 14:03:57:803,0.1059,-0.0329,9.4792,-0.0004,-0.0028,9.8067,-0.0043,0.0048,0.0005,-14.81,26.03,1.72,240.6,7.24,0.6
44841,51.473824,-2.732105,46,0.62,9,226.6,13 / 21,4484124,2019-08-16 14:03:57:904,0.0349,0.2425,10.0002,-0.0007,0.0011,9.8067,-0.0043,0.0101,0.0058,-14.81,26.03,1.72,240.6,7.24,0.6
44842,51.473824,-2.732105,46,0.62,9,226.6,13 / 21,4484223,2019-08-16 14:03:58:003,-0.0191,0.028,10.147,-0.0004,-0.004,9.8066,0.0117,-0.0389,-0.0038,-14.54,26.13,2.37,240.6,7.24,0.6
44843,51.473824,-2.732105,46,0.62,9,226.6,13 / 21,4484323,2019-08-16 14:03:58:103,-0.0415,-0.0208,9.5733,-0.0028,-0.0052,9.8066,0.0117,-0.0389,-0.0038,-14.76,25.93,3.09,240.6,7.24,0.6
44844,51.473824,-2.732105,46,0.62,9,226.6,13 / 21,4484424,2019-08-16 14:03:58:204,-0.0358,0.1608,9.8933,-0.0027,-0.0023,9.8067,-0.0043,0.0208,0.0026,-15.38,25.59,2.98,240.82,7.22,0.61
44845,51.473824,-2.732105,46,0.62,9,226.6,13 / 21,4484523,2019-08-16 14:03:58:303,-0.0383,-0.1622,9.6545,-0.0019,-0.0052,9.8066,-0.0053,0.0218,0.0037,-15.38,25.59,2.98,240.82,7.22,0.61
44846,51.473824,-2.732105,46,0.62,9,226.6,13 / 21,4484623,2019-08-16 14:03:58:403,-0.0816,0.0396,9.7747,-0.0017,-0.0061,9.8066,0.0085,-0.0048,-0.0048,-15.06,25.62,4.12,241.03,7.19,0.6
44847,51.473824,-2.732105,46,0.62,9,226.6,13 / 21,4484723,2019-08-16 14:03:58:503,-0.0488,0.0243,9.7192,0.0023,0.0054,9.8066,-0.0032,0.0144,0.0026,-14.06,26.32,3.06,241.03,7.19,0.6
44848,51.473824,-2.732105,46,0.62,9,226.6,Dec-21,4484823,2019-08-16 14:03:58:603,-0.0369,-0.0563,9.9759,-0.0007,0.0002,9.8067,-0.0032,-0.008,0.0016,-14.68,25.8,4.34,241.03,7.19,0.6
44849,51.473824,-2.732105,46,0.62,9,226.6,Dec-21,4484923,2019-08-16 14:03:58:703,-0.04,0.1735,9.9332,0.0013,0.0046,9.8066,0.0128,-0.0325,-0.0027,-14.48,25.89,4.46,242.73,7.22,0.61
44850,51.473824,-2.732105,46,0.62,9,226.6,Dec-21,4485023,2019-08-16 14:03:58:803,-0.0871,-0.217,9.8531,-0.0016,-0.0049,9.8066,-0.0075,0.008,0.0026,-14.48,25.89,4.46,242.73,7.22,0.61
44851,51.473824,-2.732105,46,0.62,9,226.6,Dec-21,4485123,2019-08-16 14:03:58:903,-0.0951,-0.1042,9.5446,-0.0019,-0.0018,9.8067,-0.0075,0.008,0.0026,-14.31,26.18,3.12,242.73,7.22,0.61
44852,51.473824,-2.732105,46,0.62,9,226.6,Dec-21,4485224,2019-08-16 14:03:59:004,0.0024,0.2321,10.0339,0.0011,-0.0039,9.8066,0.0053,0.0335,-0.0016,-15.01,25.36,5.61,240.53,7.2,0.62
44853,51.473824,-2.732105,46,0.62,9,226.6,Dec-21,4485323,2019-08-16 14:03:59:103,-0.0103,-0.0802,9.5637,0.0004,-0.0085,9.8066,0.0107,-0.04,-0.0027,-14.47,24.07,10.54,242.5,7.16,0.59
44854,51.473824,-2.732105,46,0.62,9,226.6,Dec-21,4485423,2019-08-16 14:03:59:203,0.1888,0.0551,9.2728,-0.0042,-0.0065,9.8066,-0.0096,0.057,0.0058,-14.47,24.07,10.54,242.5,7.16,0.59
44855,51.473824,-2.732105,46,0.62,9,226.6,Dec-21,4485523,2019-08-16 14:03:59:303,0.0292,0.3025,10.0835,0.0053,0.0073,9.8066,-0.0021,0.0463,0.0048,-14.68,25.8,4.34,241.02,7.12,0.59
44856,51.473824,-2.732105,46,0.62,9,226.6,Dec-21,4485624,2019-08-16 14:03:59:404,0.1003,-0.0897,9.8649,0.0066,0.0048,9.8066,-0.0085,-0.0176,0.0048,-14.56,26.04,3.17,241.02,7.12,0.59
44857,51.473824,-2.732105,46,0.62,9,226.6,Dec-21,4485723,2019-08-16 14:03:59:503,0.0368,-0.0453,9.5969,0.0061,0.0074,9.8066,0.0064,-0.0251,-0.0027,-13.86,26.4,3.29,242.5,7.17,0.58
44858,51.473824,-2.732105,46,0.62,9,226.6,Dec-21,4485823,2019-08-16 14:03:59:603,-0.008,0.3225,10.1188,-0.0009,-0.0036,9.8067,-0.0021,0.0431,0.0037,-13.86,26.4,3.29,242.5,7.17,0.58
44859,51.473824,-2.732105,46,0.62,9,226.6,Dec-21,4485923,2019-08-16 14:03:59:703,0.0078,-0.0165,9.9453,0.0015,0.0021,9.8066,-0.0021,0.0431,0.0037,-14.94,25.94,1.89,240.59,7.13,0.58
44860,51.473824,-2.732105,46,0.62,9,226.6,Dec-21,4486022,2019-08-16 14:03:59:802,-0.0013,0.2874,10.1335,0.002,0.0074,9.8066,-0.0011,-0.0133,-0.0006,-14.2,26.4,1.23,242.05,7.15,0.58
44861,51.473824,-2.732105,46,0.62,9,226.6,Dec-21,4486123,2019-08-16 14:03:59:903,-0.0185,-0.0667,9.5686,0.0029,0.005,9.8066,-0.0021,-0.0155,-0.0016,-14.2,26.4,1.23,242.05,7.15,0.58
44862,51.473824,-2.732105,46,0.62,9,226.6,Dec-21,4486223,2019-08-16 14:04:00:003,0.0881,0.1167,10.0194,-0.0012,-0.002,9.8066,0.0107,-0.0006,-0.0059,-15.11,25.78,2.66,240.81,7.18,0.58
44863,51.473824,-2.732105,46,0.62,9,226.6,Dec-21,4486323,2019-08-16 14:04:00:103,0.0749,-0.1204,9.6826,0.0007,-0.0003,9.8066,-0.0021,-0.0155,0.0005,-14.35,26.15,3.26,242.5,7.18,0.57
44864,51.473824,-2.732105,46,0.62,9,226.6,Dec-21,4486423,2019-08-16 14:04:00:203,-0.0044,-0.0726,9.6663,-0.0017,-0.003,9.8067,-0.0053,0.0144,0.0016,-14.4,26.25,1.92,242.5,7.18,0.57
44865,51.473824,-2.732105,46,0.62,9,226.6,Dec-21,4486523,2019-08-16 14:04:00:303,0.1057,0.0873,9.8756,-0.0026,-0.0021,9.8067,0.0011,0.0378,0.0016,-14.4,26.25,1.92,242.5,7.18,0.57
44866,51.473824,-2.732105,46,0.62,9,226.6,Dec-21,4486623,2019-08-16 14:04:00:403,0.0821,0.057,9.6801,-0.0007,0.0027,9.8067,0.0096,-0.0293,-0.0048,-15.33,25.72,1.88,240.59,7.2,0.59
44867,51.473824,-2.732105,46,0.62,9,226.6,Dec-21,4486723,2019-08-16 14:04:00:503,0.1468,0.0884,10.0977,0.0037,-0.0009,9.8066,0.0096,-0.0293,-0.0048,-14.18,26.37,1.98,242.28,7.2,0.56
44868,51.473824,-2.732105,46,0.62,9,226.6,Dec-21,4486823,2019-08-16 14:04:00:603,0.0677,-0.0817,9.9093,-0.0006,-0.0037,9.8067,-0.0043,0.0058,-0.0006,-14.18,26.37,1.98,242.28,7.2,0.56
44869,51.473824,-2.732105,46,0.62,9,226.6,Dec-21,4486923,2019-08-16 14:04:00:703,0.159,-0.0817,9.4387,-0.0059,-0.0021,9.8066,-0.0064,0.008,0.0016,-14.61,25.99,3.32,240.81,7.17,0.59
44870,51.473824,-2.732105,46,0.62,9,226.6,Dec-21,4487024,2019-08-16 14:04:00:804,0.1819,0.3102,10.0139,-0.0011,-0.0063,9.8066,0.0085,-0.0378,-0.0016,-14.69,26.13,1.22,240.38,7.21,0.59
44871,51.473824,-2.732105,46,0.62,9,226.6,Dec-21,4487123,2019-08-16 14:04:00:903,0.1051,-0.1288,9.7458,0.0007,-0.0016,9.8066,-0.0021,-0.0069,0.0005,-14.69,26.13,1.22,240.38,7.21,0.59
44872,51.473824,-2.732105,46,0.62,9,226.6,Dec-21,4487223,2019-08-16 14:04:01:003,-0.0113,-0.024,9.7435,0.0021,-0.0029,9.8066,-0.0032,0.0346,0.0016,-14.63,26.16,1.16,240.38,7.2,0.59
44873,51.473824,-2.732105,46,0.62,9,226.6,Dec-21,4487323,2019-08-16 14:04:01:103,-0.0198,0.1462,10.1225,-0.0014,-0.001,9.8067,0.0021,-0.0368,0.0005,-14.87,25.98,1.9,240.59,7.19,0.57
44874,51.473824,-2.732105,46,0.62,9,226.6,Dec-21,4487423,2019-08-16 14:04:01:203,-0.0291,0.0464,9.6075,0.0002,0.0066,9.8066,-0.0053,0.0229,0.0026,-14.59,26.07,2.68,240.82,7.23,0.58
44875,51.473824,-2.732105,46,0.62,9,226.6,Dec-21,4487522,2019-08-16 14:04:01:302,-0.0486,0.1653,9.8929,-0.0002,-0.0012,9.8067,-0.0053,0.0229,0.0026,-14.59,26.07,2.68,240.82,7.23,0.58
44876,51.473824,-2.732105,46,0.62,9,226.6,Dec-21,4487623,2019-08-16 14:04:01:403,-0.0001,0.2565,9.9912,-0.0002,0.0028,9.8067,-0.0011,0.0506,0.0005,-15.58,25.61,1.29,238.75,7.22,0.58
44877,51.473824,-2.732105,46,0.62,9,226.6,Dec-21,4487723,2019-08-16 14:04:01:503,-0.0429,-0.0793,9.7979,0.0016,0.0033,9.8067,-0.0064,0.0037,0.0037,-14.4,26.24,2.02,238.75,7.22,0.58
44878,51.473824,-2.732105,46,0.62,9,226.6,Dec-21,4487823,2019-08-16 14:04:01:603,-0.0572,-0.057,9.5567,-0.0008,0.0013,9.8067,0.0,-0.0037,-0.0027,-14.62,26.12,1.95,240.6,7.22,0.59
44879,51.473824,-2.732105,46,0.62,9,226.6,Dec-21,4487923,2019-08-16 14:04:01:703,0.0271,0.0714,9.9546,-0.0017,0.0003,9.8067,0.0043,0.0367,0.0016,-15.15,25.83,1.83,240.6,7.22,0.59
44880,51.473824,-2.732105,46,0.62,9,226.6,Dec-21,4488024,2019-08-16 14:04:01:804,-0.0224,-0.0065,9.5832,0.001,-0.0031,9.8067,-0.0096,0.0122,0.0026,-14.91,26.0,1.34,240.38,7.25,0.6
44881,51.473824,-2.732105,46,0.62,9,226.6,Dec-21,4488123,2019-08-16 14:04:01:903,0.025,0.0891,10.0296,0.0014,-0.0017,9.8067,0.0,-0.0037,-0.0016,-15.36,25.76,0.56,240.38,7.25,0.6
44882,51.473824,-2.732105,46,0.62,9,226.6,Dec-21,4488223,2019-08-16 14:04:02:003,-0.0398,-0.0224,9.7173,0.0042,0.0013,9.8067,0.0053,-0.0368,-0.0016,-15.27,25.61,3.29,240.82,7.27,0.58
44883,51.473824,-2.732105,46,0.62,9,226.6,Dec-21,4488324,2019-08-16 14:04:02:104,0.0493,-0.1224,9.3987,-0.001,-0.0025,9.8066,-0.0075,0.0335,0.0048,-15.27,25.61,3.29,240.82,7.27,0.58
44884,51.473824,-2.732105,46,0.62,9,226.6,Dec-21,4488423,2019-08-16 14:04:02:203,0.023,0.1695,9.8718,-0.0002,0.0059,9.8066,-0.0075,0.0335,0.0048,-14.85,25.94,2.62,240.82,7.26,0.58
44885,51.473824,-2.732105,46,0.62,9,226.6,Dec-21,4488524,2019-08-16 14:04:02:304,0.0349,-0.0543,9.7794,0.0001,-0.0016,9.8067,0.0011,-0.0208,-0.0016,-15.07,25.87,1.95,240.6,7.29,0.6
44886,51.473824,-2.732105,46,0.62,9,226.6,Dec-21,4488623,2019-08-16 14:04:02:403,0.031,0.0902,9.7439,-0.0013,-0.0051,9.8067,-0.0011,0.0527,0.0037,-14.42,26.28,1.3,242.06,7.26,0.59
44887,51.473824,-2.732105,46,0.62,9,226.6,Dec-21,4488724,2019-08-16 14:04:02:504,0.0066,0.2796,10.2565,0.0001,0.0008,9.8067,-0.0043,-0.0037,0.0037,-14.42,26.28,1.3,242.06,7.26,0.59
44888,51.473824,-2.732105,46,0.62,9,226.6,Dec-21,4488823,2019-08-16 14:04:02:603,-0.0213,0.0023,9.6584,0.0018,0.0055,9.8067,-0.0021,0.0005,0.0005,-14.64,26.15,1.32,240.38,7.29,0.59
44889,51.473824,-2.732105,46,0.62,9,226.6,Dec-21,4488923,2019-08-16 14:04:02:703,-0.0872,0.1155,9.8588,-0.0027,-0.0029,9.8067,0.0032,0.0367,-0.0016,-14.87,25.98,1.9,240.38,7.29,0.59
44890,51.473824,-2.732105,46,0.62,9,226.6,Dec-21,4489023,2019-08-16 14:04:02:803,0.0238,-0.0619,9.8921,0.0024,-0.0005,9.8066,0.0053,-0.0453,0.0005,-14.9,26.03,0.57,240.38,7.3,0.61
44891,51.473824,-2.732105,46,0.62,9,226.6,Dec-21,4489123,2019-08-16 14:04:02:903,-0.1135,-0.1285,10.0366,0.0013,-0.0031,9.8066,0.0053,-0.0453,0.0005,-14.9,26.03,0.57,240.38,7.3,0.61
44892,51.473824,-2.732105,46,0.62,9,226.6,Dec-21,4489223,2019-08-16 14:04:03:003,-0.0522,0.2326,9.9649,0.0004,0.0053,9.8066,0.0032,-0.0187,-0.0006,-13.93,26.54,1.31,242.94,7.29,0.59
44893,51.473824,-2.732105,46,0.62,9,226.6,Dec-21,4489323,2019-08-16 14:04:03:103,-0.0417,-0.0429,9.9094,-0.0012,-0.0025,9.8067,0.0075,0.0112,-0.0027,-14.59,26.09,2.57,240.83,7.32,0.6
44894,51.473824,-2.732105,46,0.62,9,226.6,Dec-21,4489423,2019-08-16 14:04:03:203,-0.1192,0.0003,9.7366,-0.0025,-0.0016,9.8067,-0.0096,0.0442,0.0058,-14.14,26.38,1.99,242.29,7.31,0.61
44895,51.473824,-2.732105,46,0.62,9,226.6,Dec-21,4489523,2019-08-16 14:04:03:303,0.0239,0.0997,9.8954,0.0007,0.0002,9.8067,0.0,-0.0197,0.0005,-14.14,26.38,1.99,242.29,7.31,0.61
44896,51.473824,-2.732105,46,0.62,9,226.6,Dec-21,4489623,2019-08-16 14:04:03:403,0.0339,-0.2634,9.4247,-0.0004,-0.0051,9.8067,0.0021,0.0421,0.0016,-14.37,26.3,1.24,242.06,7.31,0.61
44897,51.473824,-2.732105,46,0.62,9,226.6,Dec-21,4489723,2019-08-16 14:04:03:503,-0.003,0.0244,10.0335,0.0013,-0.0011,9.8067,-0.0043,0.009,0.0058,-14.42,26.28,1.3,242.06,7.31,0.61
44898,51.473824,-2.732105,46,0.62,9,226.6,Dec-21,4489823,2019-08-16 14:04:03:603,0.0331,0.071,9.8029,0.002,-0.0034,9.8067,-0.0021,-0.0059,-0.0006,-14.4,26.24,2.02,242.29,7.3,0.59
44899,51.473824,-2.732105,46,0.62,9,226.6,Dec-21,4489924,2019-08-16 14:04:03:704,0.0295,-0.2117,9.8655,0.0008,0.0051,9.8066,-0.0021,-0.0059,-0.0006,-14.4,26.24,2.02,242.29,7.3,0.59
44900,51.473824,-2.732105,46,0.62,9,226.6,Dec-21,4490023,2019-08-16 14:04:03:803,0.08,-0.122,9.6834,-0.001,-0.0037,9.8067,0.0032,0.0218,-0.0016,-14.42,26.28,1.3,242.06,7.32,0.6
44901,51.473824,-2.732105,46,0.62,9,226.6,Dec-21,4490123,2019-08-16 14:04:03:903,0.1494,0.2746,10.1144,-0.0022,-0.0059,9.8066,0.0053,-0.0325,0.0016,-14.42,26.28,1.3,242.06,7.32,0.6
44902,51.473824,-2.732105,46,0.62,9,226.6,Dec-21,4490223,2019-08-16 14:04:04:003,0.1318,-0.0731,9.4791,0.0006,0.0051,9.8066,-0.0117,0.025,0.0005,-14.36,26.27,1.94,242.29,7.29,0.59
44903,51.473824,-2.732105,46,0.62,9,226.6,Dec-21,4490322,2019-08-16 14:04:04:102,-0.0044,0.1076,9.8517,0.0013,0.001,9.8067,-0.0021,0.0453,0.0016,-14.14,26.38,1.99,242.29,7.29,0.59
44904,51.473824,-2.732105,46,0.62,9,226.6,Dec-21,4490423,2019-08-16 14:04:04:203,0.109,-0.0694,9.5327,0.0004,0.0012,9.8067,-0.0032,-0.0123,0.0005,-15.04,25.83,2.55,240.83,7.3,0.59
44905,51.473824,-2.732105,46,0.62,9,226.6,Dec-21,4490523,2019-08-16 14:04:04:303,0.0628,0.2436,9.8997,0.0014,0.0059,9.8066,0.0,-0.0229,-0.0006,-15.08,25.9,1.25,240.83,7.3,0.59
44906,51.473824,-2.732105,46,0.62,9,226.6,Dec-21,4490623,2019-08-16 14:04:04:403,0.0712,0.2867,9.9957,0.0011,0.0015,9.8067,0.0021,0.0421,-0.0016,-15.08,25.9,1.25,240.83,7.3,0.59
44907,51.473824,-2.732105,46,0.62,9,226.6,Dec-21,4490723,2019-08-16 14:04:04:503,0.0408,-0.0477,9.8354,0.0029,0.0061,9.8066,0.0021,0.0421,-0.0016,-14.16,26.42,1.17,242.06,7.33,0.59
44908,51.473824,-2.732105,46,0.62,9,226.6,Dec-21,4490823,2019-08-16 14:04:04:603,-0.1169,0.0015,9.7578,0.0014,0.0004,9.8067,0.0085,-0.0453,-0.0027,-14.15,26.42,1.33,242.06,7.33,0.59
44909,51.473824,-2.732105,46,0.62,9,226.6,Dec-21,4490923,2019-08-16 14:04:04:703,-0.0294,0.178,10.0208,-0.0008,0.0021,9.8067,-0.0085,0.0293,0.0048,-15.1,25.85,1.93,240.61,7.34,0.6
44910,51.473824,-2.732105,46,0.62,9,226.6,Dec-21,4491023,2019-08-16 14:04:04:803,0.0387,-0.1222,9.5259,-0.0003,-0.0041,9.8067,0.0,-0.0176,-0.0027,-15.1,25.85,1.93,240.61,7.34,0.6
44911,51.473824,-2.732105,46,0.62,9,226.6,Dec-21,4491123,2019-08-16 14:04:04:903,-0.0065,0.1013,9.768,-0.0014,-0.0007,9.8067,-0.0043,0.0357,0.0005,-13.66,26.64,1.9,243.17,7.32,0.59
44912,51.473824,-2.732105,46,0.62,9,226.6,Dec-21,4491223,2019-08-16 14:04:05:003,0.019,-0.0233,9.9611,0.0011,0.0008,9.8067,-0.0011,0.008,0.0026,-14.42,26.28,1.2,243.17,7.32,0.59
44913,51.473824,-2.732105,46,0.62,9,226.6,Dec-21,4491323,2019-08-16 14:04:05:103,0.0068,-0.0686,9.9496,0.0014,-0.0036,9.8067,-0.0075,-0.0133,0.0016,-14.61,26.13,1.97,240.61,7.31,0.58
44914,51.473824,-2.732105,46,0.62,9,226.6,Dec-21,4491423,2019-08-16 14:04:05:203,0.0624,-0.0176,9.4808,-0.0003,0.0037,9.8067,-0.0075,-0.0133,0.0016,-14.61,26.13,1.97,240.61,7.31,0.58
44915,51.473824,-2.732105,46,0.62,9,226.6,Dec-21,4491524,2019-08-16 14:04:05:304,-0.0266,-0.1159,9.8381,0.0019,0.0031,9.8066,-0.0011,0.0389,-0.0006,-15.28,25.74,1.98,240.61,7.32,0.59
44916,51.473824,-2.732105,46,0.62,9,226.6,Dec-21,4491623,2019-08-16 14:04:05:403,-0.0411,-0.1813,9.4437,0.0009,-0.0011,9.8066,0.0096,-0.024,-0.0038,-14.61,26.13,1.97,240.61,7.32,0.59
44917,51.473824,-2.732105,46,0.62,9,226.6,Dec-21,4491723,2019-08-16 14:04:05:503,0.0878,0.1634,9.9007,0.0019,0.0027,9.8066,-0.0011,-0.0283,0.0005,-14.38,26.32,0.67,242.06,7.34,0.59
44918,51.473816,-2.732105,49,0.0,9,226.6,Dec-21,4491823,2019-08-16 14:04:05:603,0.0351,-0.0413,9.7005,-0.0021,-0.0017,9.8067,-0.0128,0.041,0.0058,-14.38,26.32,0.67,242.06,7.34,0.59
44919,51.473816,-2.732105,49,0.0,9,226.6,Dec-21,4491923,2019-08-16 14:04:05:703,-0.0001,0.0922,9.7247,0.0009,0.0048,9.8066,0.0021,-0.0176,-0.0006,-14.91,26.0,1.34,240.38,7.33,0.59
44920,51.473816,-2.732105,49,0.0,9,226.6,Dec-21,4492023,2019-08-16 14:04:05:803,0.0081,0.2315,10.0756,-0.0005,-0.003,9.8066,0.0053,-0.0357,-0.0027,-14.64,26.15,1.32,240.38,7.31,0.59
44921,51.473816,-2.732105,49,0.0,9,226.6,Dec-21,4492123,2019-08-16 14:04:05:903,0.0208,0.3037,10.0046,0.0014,-0.0006,9.8066,0.0128,-0.0091,-0.0027,-14.64,26.15,1.32,240.38,7.31,0.59
44922,51.473816,-2.732105,49,0.0,9,226.6,Dec-21,4492223,2019-08-16 14:04:06:003,-0.05,-0.0748,9.9406,0.0015,0.0028,9.8067,0.0128,-0.0091,-0.0027,-14.86,26.05,0.67,240.38,7.31,0.58
44923,51.473816,-2.732105,49,0.0,9,226.6,Dec-21,4492324,2019-08-16 14:04:06:104,-0.1041,-0.1729,9.4839,0.0025,0.0088,9.8066,-0.0064,0.0133,0.0026,-14.4,26.24,2.02,242.3,7.37,0.59
44924,51.473816,-2.732105,49,0.0,9,226.6,Dec-21,4492423,2019-08-16 14:04:06:203,0.0546,0.139,9.9608,-0.0014,-0.0037,9.8067,0.0021,-0.0133,0.0005,-15.04,25.83,2.55,242.3,7.37,0.59
44925,51.473816,-2.732105,49,0.0,9,226.6,Dec-21,4492523,2019-08-16 14:04:06:303,0.0628,-0.1802,9.643,-0.0018,-0.0026,9.8067,0.0,0.0367,-0.0016,-15.04,25.83,2.55,242.3,7.37,0.59
44926,51.473816,-2.732105,49,0.0,9,226.6,Dec-21,4492623,2019-08-16 14:04:06:403,-0.0048,-0.0443,9.8886,-0.0002,-0.0021,9.8067,0.0043,-0.0155,-0.0016,-15.31,25.67,2.59,240.83,7.35,0.59
44927,51.473816,-2.732105,49,0.0,9,226.6,Dec-21,4492723,2019-08-16 14:04:06:503,0.0922,-0.1125,10.0001,-0.0006,-0.0055,9.8066,0.0053,-0.0261,-0.0016,-15.63,24.53,7.37,239.09,7.32,0.57
44928,51.473816,-2.732105,49,0.0,9,226.6,Dec-21,4492823,2019-08-16 14:04:06:603,0.0637,-0.1595,9.5796,0.001,0.0028,9.8067,-0.0085,0.009,0.0058,-15.02,25.29,5.93,239.09,7.32,0.57
44929,51.473816,-2.732105,49,0.0,9,226.6,Dec-21,4492923,2019-08-16 14:04:06:703,0.0605,-0.0104,9.9672,-0.0013,0.0044,9.8066,-0.0085,0.009,0.0058,-15.02,25.29,5.93,239.09,7.32,0.57
44930,51.473816,-2.732105,49,0.0,9,226.6,Dec-21,4493023,2019-08-16 14:04:06:803,-0.1426,-0.2521,9.3705,-0.0021,-0.006,9.8066,0.0085,-0.0048,-0.0048,-15.49,25.47,3.34,239.87,7.34,0.59
44931,51.473816,-2.732105,49,0.0,9,226.6,Dec-21,4493124,2019-08-16 14:04:06:904,0.0669,-0.0911,10.1665,-0.0054,-0.0185,9.8066,-0.0032,0.0474,-0.0006,-14.87,25.98,2.0,240.61,7.31,0.59
44932,51.473816,-2.732105,49,0.0,9,226.6,Dec-21,4493223,2019-08-16 14:04:07:003,0.0636,0.018,9.8396,-0.0116,-0.016,9.8066,-0.0319,0.0239,0.0154,-14.87,25.98,2.0,240.61,7.31,0.59
44933,51.473816,-2.732105,49,0.0,9,226.6,Dec-21,4493323,2019-08-16 14:04:07:103,-0.1652,-0.0687,9.8069,-0.0018,-0.0056,9.8066,0.0064,-0.0112,-0.0027,-15.41,25.45,3.89,240.07,7.19,0.6
44934,51.473816,-2.732105,49,0.0,9,226.6,Dec-21,4493423,2019-08-16 14:04:07:203,-0.1981,-0.0612,10.0489,-0.0077,-0.0115,9.8066,0.0032,0.0261,-0.0048,-14.97,25.7,3.93,241.03,7.16,0.59
44935,51.473816,-2.732105,49,0.0,9,226.6,Dec-21,4493523,2019-08-16 14:04:07:303,0.0798,-0.1949,9.7315,-0.0167,-0.0277,9.8066,0.0043,0.0197,-0.0038,-15.01,25.77,3.24,240.78,6.97,0.6
44936,51.473816,-2.732105,49,0.0,9,226.6,Dec-21,4493623,2019-08-16 14:04:07:403,-0.144,-0.0937,9.8556,-0.0147,-0.0188,9.8066,0.0,0.0197,-0.0006,-15.65,25.47,2.55,240.78,6.97,0.6
44937,51.473816,-2.732105,49,0.0,9,226.6,Dec-21,4493723,2019-08-16 14:04:07:503,-0.2048,-0.4029,10.0763,-0.0256,-0.0411,9.8065,-0.0053,-0.0176,0.0037,-15.65,25.47,2.55,240.78,6.97,0.6
44938,51.473816,-2.732105,49,0.0,9,226.6,Dec-21,4493823,2019-08-16 14:04:07:603,-0.2193,-0.2828,9.9449,-0.0064,-0.0167,9.8066,-0.0053,-0.0176,0.0037,-15.04,25.82,2.65,240.74,6.69,0.61
44939,51.473816,-2.732105,49,0.0,9,226.6,Dec-21,4493923,2019-08-16 14:04:07:703,-0.3812,-0.2657,9.3191,-0.0287,-0.0475,9.8065,-0.0032,-0.0155,0.008,-15.55,25.57,2.01,238.88,6.36,0.62
44940,51.473816,-2.732105,49,0.0,9,226.6,Dec-21,4494023,2019-08-16 14:04:07:803,0.1232,-0.1471,10.0598,-0.0099,-0.018,9.8066,0.0011,0.0005,0.0154,-15.55,25.57,2.01,238.88,6.36,0.62
44941,51.473816,-2.732105,49,0.0,9,226.6,Dec-21,4494123,2019-08-16 14:04:07:903,0.0723,-0.285,9.9224,-0.0111,-0.0187,9.8066,-0.0032,-0.0133,0.0112,-14.83,26.05,1.23,240.3,6.24,0.62
44942,51.473816,-2.732105,49,0.0,9,226.6,Dec-21,4494223,2019-08-16 14:04:08:003,-0.0064,-0.2818,10.1717,-0.0206,-0.0347,9.8066,-0.0053,-0.0155,-0.007,-15.22,25.72,2.58,240.66,6.01,0.62
44943,51.473816,-2.732105,49,0.0,9,226.6,Dec-21,4494323,2019-08-16 14:04:08:103,0.1157,-0.2137,10.0989,-0.0101,-0.0197,9.8066,-0.0064,-0.0027,-0.0133,-15.22,25.72,2.58,240.66,6.01,0.62
44944,51.473816,-2.732105,49,0.0,9,226.6,Dec-21,4494422,2019-08-16 14:04:08:202,0.1992,0.1038,9.7656,-0.0081,-0.013,9.8066,0.0021,0.009,0.0175,-14.78,25.97,2.6,240.63,5.75,0.63
44945,51.473816,-2.732105,49,0.0,9,226.6,Dec-21,4494523,2019-08-16 14:04:08:303,-0.5214,-0.3569,9.8863,-0.0118,-0.0171,9.8066,-0.0032,0.0037,0.0112,-14.94,25.82,3.2,240.62,5.67,0.63
44946,51.473816,-2.732105,49,0.0,9,226.6,Dec-21,4494623,2019-08-16 14:04:08:403,-0.4608,-0.2516,10.4198,-0.0168,-0.0233,9.8066,-0.0032,0.0037,0.0112,-15.0,25.92,1.87,240.62,5.67,0.63
44947,51.473816,-2.732105,49,0.0,9,226.6,Dec-21,4494723,2019-08-16 14:04:08:503,-0.2548,-0.4676,10.1227,-0.0242,-0.0413,9.8065,-0.0032,-0.0059,-0.0016,-14.53,26.11,2.65,240.58,5.39,0.64
44948,51.473816,-2.732105,49,0.0,9,226.6,Dec-21,4494824,2019-08-16 14:04:08:604,-0.0441,-0.2722,9.4741,-0.0142,-0.0244,9.8066,-0.0053,-0.024,-0.0038,-14.53,26.11,2.65,240.58,5.39,0.64
44949,51.473816,-2.732105,49,0.0,9,226.6,Dec-21,4494923,2019-08-16 14:04:08:703,-0.2918,-0.1822,9.812,-0.01,-0.0155,9.8066,0.0032,0.0165,-0.007,-14.58,26.08,2.67,240.56,5.22,0.64
44950,51.473816,-2.732105,49,0.0,9,226.6,Dec-21,4495023,2019-08-16 14:04:08:803,-0.2016,-0.0811,9.7515,-0.0197,-0.0271,9.8066,0.0096,0.025,0.008,-14.33,26.22,2.63,242.23,5.03,0.66
44951,51.473816,-2.732105,49,0.0,9,226.6,Dec-21,4495123,2019-08-16 14:04:08:903,-0.154,-0.1163,9.7639,-0.0107,-0.0144,9.8066,-0.0043,-0.0091,0.0005,-14.33,26.22,2.63,242.23,5.03,0.66
44952,51.473816,-2.732105,49,0.0,9,226.6,Dec-21,4495223,2019-08-16 14:04:09:003,-0.2549,-0.1233,9.9884,-0.01,-0.0143,9.8066,-0.0043,-0.0069,-0.0048,-14.37,26.3,1.24,241.9,4.92,0.68
44953,51.473816,-2.732105,49,0.0,9,226.6,Dec-21,4495322,2019-08-16 14:04:09:102,0.0274,-0.0009,9.8395,-0.0188,-0.0262,9.8066,-0.0043,-0.0069,-0.0048,-13.84,26.48,2.63,242.19,4.74,0.7
44954,51.473816,-2.732105,49,0.0,9,226.6,Dec-21,4495423,2019-08-16 14:04:09:203,-0.19,-0.0759,9.6646,-0.0038,-0.0064,9.8066,0.0021,-0.0048,0.0016,-14.78,25.97,2.6,242.19,4.74,0.7
44955,51.473816,-2.732105,49,0.0,9,226.6,Dec-21,4495523,2019-08-16 14:04:09:303,0.0056,-0.284,9.7536,-0.0192,-0.0325,9.8066,0.0075,-0.0133,-0.0048,-14.78,25.97,2.6,242.19,4.74,0.7
44956,51.473816,-2.732105,49,0.0,9,226.6,Dec-21,4495623,2019-08-16 14:04:09:403,0.0995,0.1042,9.6425,-0.006,-0.0101,9.8066,-0.0106,-0.0176,-0.0016,-14.56,26.16,1.88,240.34,4.52,0.71
44957,51.473816,-2.732105,49,0.0,9,226.6,Dec-21,4495723,2019-08-16 14:04:09:503,-0.0704,-0.0535,10.352,-0.003,-0.0125,9.8066,0.0085,0.024,-0.0016,-13.2,26.91,1.19,244.45,4.45,0.71
44958,51.473816,-2.732105,49,0.0,9,226.6,Dec-21,4495823,2019-08-16 14:04:09:603,0.1251,0.1376,9.6272,-0.0096,-0.0183,9.8066,0.0064,0.0303,0.0101,-13.2,26.91,1.19,244.45,4.45,0.71
44959,51.473816,-2.732105,49,0.0,9,226.6,Dec-21,4495923,2019-08-16 14:04:09:703,-0.0146,0.0407,10.1793,-0.0065,0.0014,9.8066,-0.0032,-0.0112,-0.0048,-13.15,26.84,2.63,244.73,4.33,0.72
44960,51.473816,-2.732105,49,0.0,9,226.6,Dec-21,4496023,2019-08-16 14:04:09:803,0.2292,0.3279,9.653,-0.0101,-0.0014,9.8066,0.0075,-0.0144,0.0058,-13.66,26.68,1.23,244.73,4.33,0.72
44961,51.473816,-2.732105,49,0.0,9,226.6,Dec-21,4496123,2019-08-16 14:04:09:903,0.1883,0.3354,9.2999,-0.0141,-0.0081,9.8066,0.0043,0.0037,0.0122,-13.41,26.77,1.89,244.58,4.25,0.77
44962,51.473816,-2.732105,49,0.0,9,226.6,Dec-21,4496223,2019-08-16 14:04:10:003,-0.1103,-0.086,10.3033,-0.0009,0.0012,9.8067,0.0043,0.0037,0.0122,-13.39,26.72,2.56,244.72,4.25,0.78
44963,51.473816,-2.732105,49,0.0,9,226.6,Dec-21,4496323,2019-08-16 14:04:10:103,0.3222,0.3199,9.685,0.0016,0.0045,9.8066,0.0053,0.0346,0.0026,-13.39,26.72,2.56,244.72,4.25,0.78
44964,51.473816,-2.732105,49,0.0,9,226.6,Dec-21,4496423,2019-08-16 14:04:10:203,-0.0797,0.1511,9.6605,0.0028,-0.0034,9.8066,-0.0011,0.0186,-0.0006,-13.18,26.88,1.85,244.58,4.29,0.77
44965,51.473816,-2.732105,49,0.0,9,226.6,Dec-21,4496522,2019-08-16 14:04:10:302,-0.0393,-0.1567,9.9461,0.0066,0.0012,9.8066,0.0,0.0101,0.0112,-12.96,26.99,1.82,244.59,4.32,0.74
44966,51.473816,-2.732105,49,0.0,9,226.6,Dec-21,4496623,2019-08-16 14:04:10:403,0.1193,0.33,9.7693,0.0016,0.0037,9.8067,0.0064,-0.0112,0.0037,-12.96,26.99,1.82,244.59,4.32,0.74
44967,51.473816,-2.732105,49,0.0,9,226.6,Dec-21,4496723,2019-08-16 14:04:10:503,0.0825,0.2485,9.4505,0.0013,-0.0002,9.8067,0.0128,0.0144,0.008,-13.21,26.93,0.62,244.45,4.34,0.74
44968,51.473816,-2.732105,49,0.0,9,226.6,Dec-21,4496822,2019-08-16 14:04:10:602,0.2458,0.2319,9.7671,-0.0024,0.0008,9.8067,-0.0021,0.0048,-0.0059,-13.17,26.88,1.94,244.59,4.34,0.76
44969,51.473816,-2.732105,49,0.0,9,226.6,Dec-21,4496923,2019-08-16 14:04:10:703,0.0678,0.3867,9.711,0.0018,0.0065,9.8066,0.0021,-0.0037,-0.0038,-13.17,26.88,1.94,244.59,4.34,0.76
44970,51.473816,-2.732105,49,0.0,9,226.6,Dec-21,4497023,2019-08-16 14:04:10:803,-0.0668,0.13,10.3537,0.0041,0.0069,9.8066,0.0021,-0.0037,-0.0038,-13.2,26.93,0.65,244.45,4.38,0.76
44971,51.473816,-2.732105,49,0.0,9,226.6,Dec-21,4497123,2019-08-16 14:04:10:903,-0.2011,-0.3878,9.8904,0.0034,0.0114,9.8066,0.0085,0.041,0.0026,-13.2,26.94,-0.05,244.31,4.45,0.77
44972,51.473816,-2.732105,49,0.0,9,226.6,Dec-21,4497222,2019-08-16 14:04:11:002,-0.0471,-0.0231,9.9523,-0.0033,0.006,9.8066,-0.0011,-0.0197,0.0005,-12.33,27.32,1.3,246.2,4.47,0.81
44973,51.473816,-2.732105,49,0.0,9,226.6,Dec-21,4497323,2019-08-16 14:04:11:103,0.4457,0.3919,9.5837,0.0094,0.0125,9.8066,-0.0064,0.0165,0.0144,-12.33,27.32,1.3,246.2,4.47,0.81
44974,51.473816,-2.732105,49,0.0,9,226.6,Dec-21,4497423,2019-08-16 14:04:11:203,-0.0017,-0.0346,10.0059,0.0057,0.001,9.8066,-0.0085,-0.0059,0.0005,-11.9,27.47,1.91,246.35,4.56,0.79
44975,51.473816,-2.732105,49,0.0,9,226.6,Dec-21,4497523,2019-08-16 14:04:11:303,0.124,0.1185,9.9737,0.0054,-0.0008,9.8066,0.0107,0.0261,0.0026,-11.9,27.47,1.91,246.35,4.56,0.79
44976,51.473816,-2.732105,49,0.0,9,226.6,Dec-21,4497623,2019-08-16 14:04:11:403,-0.0992,0.0106,10.2633,-0.0045,-0.0008,9.8066,-0.0011,0.0069,-0.0038,-12.73,27.13,1.3,244.46,4.57,0.76
44977,51.473816,-2.732105,49,0.0,9,226.6,Dec-21,4497723,2019-08-16 14:04:11:503,0.0351,0.0619,9.534,-0.0045,0.0065,9.8066,-0.0021,-0.0069,0.0048,-12.34,27.34,-0.05,246.05,4.59,0.8
44978,51.473816,-2.732105,49,0.0,9,226.6,Dec-21,4497823,2019-08-16 14:04:11:603,0.1527,0.2678,9.6023,0.0023,0.0108,9.8066,0.0053,0.009,0.0069,-12.56,27.24,0.54,246.05,4.59,0.8
44979,51.473816,-2.732105,49,0.0,9,226.6,Dec-21,4497922,2019-08-16 14:04:11:702,0.0268,0.1932,10.1644,0.0093,0.0206,9.8066,0.0053,0.009,0.0069,-12.56,27.24,0.54,246.05,4.59,0.8
44980,51.473816,-2.732105,49,0.0,9,226.6,Dec-21,4498023,2019-08-16 14:04:11:803,-0.0405,0.1811,10.2858,0.0081,0.0156,9.8066,-0.0053,-0.0133,0.0037,-12.53,27.26,-0.05,244.31,4.72,0.8
44981,51.473816,-2.732105,49,0.0,9,226.6,Dec-21,4498123,2019-08-16 14:04:11:903,0.2058,0.3146,9.634,0.0131,0.0293,9.8066,0.0096,0.0229,0.0058,-12.07,27.46,0.64,244.31,4.72,0.8
44982,51.473816,-2.732105,49,0.0,9,226.6,Dec-21,4498224,2019-08-16 14:04:12:004,-0.0103,0.0552,10.284,0.0084,0.0096,9.8066,0.0032,0.0261,0.0037,-12.97,27.05,0.63,244.48,4.98,0.8
44983,51.473816,-2.732105,49,0.0,9,226.6,Dec-21,4498323,2019-08-16 14:04:12:103,-0.1217,0.1149,10.2442,0.0071,0.0025,9.8066,-0.0085,0.0197,0.0048,-12.33,27.32,1.21,246.23,5.05,0.78
44984,51.473816,-2.732105,49,0.0,9,226.6,Dec-21,4498423,2019-08-16 14:04:12:203,0.2229,0.2994,9.791,0.0095,0.0071,9.8066,0.0011,0.0122,-0.0038,-12.33,27.32,1.21,246.23,5.05,0.78
44985,51.473816,-2.732105,49,0.0,9,226.6,Dec-21,4498523,2019-08-16 14:04:12:303,0.2097,0.3162,9.208,0.0077,0.0179,9.8066,0.0107,0.0229,0.0069,-12.13,27.43,0.62,246.23,5.11,0.75
44986,51.473816,-2.732105,49,0.0,9,226.6,Dec-21,4498623,2019-08-16 14:04:12:403,-0.2354,0.0847,9.8045,0.013,0.0362,9.8066,-0.0096,0.0069,-0.0006,-12.74,27.15,0.62,246.23,5.11,0.75
44987,51.473816,-2.732105,49,0.0,9,226.6,Dec-21,4498722,2019-08-16 14:04:12:502,0.0418,0.0662,10.2323,0.0135,0.0466,9.8065,-0.0011,-0.0038,-0.0059,-12.57,27.24,-0.05,244.33,5.39,0.78
44988,51.473816,-2.732105,49,0.0,9,226.6,Dec-21,4498822,2019-08-16 14:04:12:602,0.2092,0.0894,9.4822,0.0074,0.0092,9.8066,-0.0011,-0.0038,-0.0059,-12.3,27.36,-0.05,244.33,5.39,0.78
44989,51.473816,-2.732105,49,0.0,9,226.6,Dec-21,4498923,2019-08-16 14:04:12:703,0.0147,0.2072,9.6397,0.0139,0.0232,9.8066,0.0096,-0.0133,0.0037,-12.3,27.36,-0.05,244.33,5.39,0.78
44990,51.473816,-2.732105,49,0.0,9,226.6,Dec-21,4499023,2019-08-16 14:04:12:803,0.0859,0.0818,10.0396,0.0121,0.0213,9.8066,-0.0096,-0.0027,0.0005,-12.07,27.46,-0.05,246.07,5.55,0.77
44991,51.473816,-2.732105,49,0.0,9,226.6,Dec-21,4499122,2019-08-16 14:04:12:902,0.1103,0.1646,10.0893,0.0134,0.0179,9.8066,0.0064,0.0197,0.0048,-12.79,27.13,-0.65,244.16,5.69,0.75
44992,51.473816,-2.732105,49,0.0,9,226.6,Dec-21,4499223,2019-08-16 14:04:13:003,0.2867,0.4776,9.2237,0.0284,0.047,9.8065,0.0043,-0.0144,0.0016,-12.79,27.13,-0.65,244.16,5.69,0.75
44993,51.473816,-2.732105,49,0.0,9,226.6,Dec-21,4499323,2019-08-16 14:04:13:103,0.1447,0.3097,10.0269,0.0198,0.0375,9.8066,0.0011,-0.0101,-0.0038,-12.56,27.23,-0.74,244.16,6.01,0.72
44994,51.473816,-2.732105,49,0.0,9,226.6,Dec-21,4499423,2019-08-16 14:04:13:203,0.3906,0.4035,9.8484,0.0211,0.0379,9.8066,-0.0032,-0.0038,0.0037,-12.79,27.13,-0.05,244.36,6.26,0.72
44995,51.473816,-2.732105,49,0.0,9,226.6,Dec-21,4499523,2019-08-16 14:04:13:303,0.1364,0.3423,9.8966,0.0413,0.0706,9.8063,-0.017,-0.0208,0.0048,-12.79,27.13,-0.05,244.36,6.26,0.72
44996,51.473816,-2.732105,49,0.0,9,226.6,Dec-21,4499623,2019-08-16 14:04:13:403,0.0791,0.3859,9.6925,0.0162,0.0316,9.8066,-0.017,-0.0208,0.0048,-12.97,27.05,0.63,244.59,6.74,0.68
44997,51.473816,-2.732105,49,0.0,9,226.6,Dec-21,4499724,2019-08-16 14:04:13:504,0.2996,0.5658,9.9411,0.0326,0.0678,9.8064,0.0192,-0.0261,0.0016,-11.65,27.64,-0.62,246.67,7.18,0.67
44998,51.473816,-2.732105,49,0.0,9,226.6,Dec-21,4499826,2019-08-16 14:04:13:606,0.2107,0.2211,9.618,0.019,0.0354,9.8066,-0.0053,0.0176,0.0016,-11.65,27.64,-0.62,246.67,7.18,0.67
44999,51.473816,-2.732105,49,0.0,9,226.6,Dec-21,4499923,2019-08-16 14:04:13:703,0.2168,0.3115,9.9112,0.009,0.0196,9.8066,0.0064,0.0282,-0.0006,-11.77,27.56,-1.38,246.67,7.59,0.65
45000,51.473816,-2.732105,49,0.0,9,226.6,Dec-21,4500023,2019-08-16 14:04:13:803,0.2275,0.3075,9.8917,0.0082,0.0232,9.8066,-0.0117,0.0506,0.0069,-12.96,27.03,-1.32,244.18,7.72,0.64
45001,51.473816,-2.732105,49,0.0,9,226.6,Dec-21,4500124,2019-08-16 14:04:13:904,0.2343,0.2027,9.4965,0.0199,0.0439,9.8065,0.0043,-0.0325,0.0005,-12.96,27.03,-1.32,244.18,7.72,0.64
45002,51.473816,-2.732105,49,0.0,9,226.6,Dec-21,4500223,2019-08-16 14:04:14:003,0.0785,0.3366,9.9929,0.0109,0.0207,9.8066,0.0011,-0.0261,0.0005,-12.06,27.44,-1.34,245.91,8.0,0.65
45003,51.473816,-2.732105,49,0.0,9,226.6,Dec-21,4500323,2019-08-16 14:04:14:103,0.036,0.2141,10.0387,0.0133,0.0366,9.8066,-0.0064,0.0271,0.0037,-12.07,27.46,-0.65,245.91,8.23,0.67
45004,51.473816,-2.732105,49,0.0,9,226.6,Dec-21,4500423,2019-08-16 14:04:14:203,-0.0291,0.2011,10.0751,0.0119,0.0201,9.8066,0.0085,-0.0144,-0.0027,-13.2,26.93,0.65,245.91,8.23,0.67
45005,51.473816,-2.732105,49,0.0,9,226.6,Dec-21,4500523,2019-08-16 14:04:14:303,0.0943,0.0798,9.9615,0.0248,0.0429,9.8065,0.0085,-0.0144,-0.0027,-11.85,27.55,0.63,247.21,8.51,0.64
45006,51.473816,-2.732105,49,0.0,9,226.6,Dec-21,4500623,2019-08-16 14:04:14:403,-0.0058,-0.3128,10.0874,0.0062,0.0082,9.8066,-0.0021,-0.0208,-0.0038,-12.34,27.34,0.63,247.21,8.51,0.64
45007,51.473816,-2.732105,49,0.0,9,226.6,Dec-21,4500723,2019-08-16 14:04:14:503,-0.0354,-0.1014,9.3037,0.0029,-0.0029,9.8066,0.0021,-0.0038,0.0026,-12.57,27.24,-0.05,244.46,8.5,0.61
45008,51.473816,-2.732105,49,0.0,9,226.6,Dec-21,4500823,2019-08-16 14:04:14:603,-0.3094,-0.4924,10.4091,-0.0122,-0.0144,9.8066,-0.0064,0.0112,0.0058,-12.57,27.24,-0.05,244.46,8.5,0.61
45009,51.473816,-2.732105,49,0.0,9,226.6,Dec-21,4500923,2019-08-16 14:04:14:703,-0.1862,-0.3541,10.2026,-0.0059,-0.0097,9.8066,0.0138,0.0048,-0.0059,-11.57,27.68,0.05,246.94,8.4,0.64
45010,51.473816,-2.732105,49,0.0,9,226.6,Dec-21,4501023,2019-08-16 14:04:14:803,-0.0582,-0.3305,9.8482,-0.0122,-0.0264,9.8066,0.0149,0.0442,-0.007,-12.52,27.25,0.67,244.7,8.23,0.65
45011,51.473816,-2.732105,49,0.0,9,226.6,Dec-21,4501122,2019-08-16 14:04:14:902,-0.0353,0.0464,9.7004,-0.0006,-0.019,9.8066,0.0032,-0.0176,0.0048,-12.52,27.25,0.67,244.7,8.23,0.65
45012,51.473816,-2.732105,49,0.0,9,226.6,Dec-21,4501223,2019-08-16 14:04:15:003,-0.0158,-0.2407,10.1662,-0.0121,-0.0025,9.8066,-0.0138,0.0165,0.0026,-11.78,27.58,0.66,247.19,8.13,0.6
45013,51.473816,-2.732105,49,0.0,9,226.6,Dec-21,4501323,2019-08-16 14:04:15:103,-0.0125,-0.0918,9.6281,-0.0098,-0.013,9.8066,0.0021,-0.0165,-0.0006,-12.71,27.17,-0.65,244.19,8.03,0.63
45014,51.473816,-2.732105,49,0.0,9,226.6,Dec-21,4501422,2019-08-16 14:04:15:202,-0.1614,-0.0931,9.6872,-0.0095,-0.0044,9.8066,0.0085,0.0048,0.0005,-12.71,27.17,-0.65,244.19,8.03,0.63
45015,51.473816,-2.732105,49,0.0,9,226.6,Dec-21,4501523,2019-08-16 14:04:15:303,-0.0847,-0.3578,10.0698,-0.0041,-0.0125,9.8066,0.0085,0.0048,0.0005,-12.79,27.13,0.65,244.68,7.99,0.67
45016,51.473816,-2.732105,49,0.0,9,226.6,Dec-21,4501624,2019-08-16 14:04:15:404,-0.1682,-0.3803,9.7786,-0.0159,-0.0291,9.8066,0.0192,0.0144,0.0026,-12.07,27.46,0.64,244.68,7.99,0.67
45017,51.473816,-2.732105,49,0.0,9,226.6,Dec-21,4501723,2019-08-16 14:04:15:503,0.1025,-0.1397,9.2986,-0.0173,-0.0346,9.8066,0.0011,-0.0027,-0.007,-12.97,27.05,0.63,244.66,7.66,0.63
45018,51.473816,-2.732105,49,0.0,9,226.6,Dec-21,4501823,2019-08-16 14:04:15:603,-0.0952,-0.2962,9.31,-0.0385,-0.0739,9.8063,-0.0021,0.0389,0.0058,-12.97,27.05,0.63,244.66,7.66,0.63
45019,51.473816,-2.732105,49,0.0,9,226.6,Dec-21,4501922,2019-08-16 14:04:15:702,-0.1213,-0.4967,9.4168,-0.0176,-0.0309,9.8066,0.0064,-0.0261,0.0058,-11.57,27.68,0.05,246.89,7.18,0.65
45020,51.473816,-2.732105,49,0.0,9,226.6,Dec-21,4502022,2019-08-16 14:04:15:802,-0.3028,-0.815,9.7409,-0.0173,-0.0278,9.8066,-0.0085,0.0463,0.0037,-12.29,27.36,0.66,246.35,6.97,0.67
45021,51.473816,-2.732105,49,0.0,9,226.6,Dec-21,4502123,2019-08-16 14:04:15:903,-0.2,-0.0099,10.0829,-0.0307,-0.0554,9.8064,-0.0128,0.0133,-0.0006,-13.03,27.02,0.05,244.37,6.6,0.7
45022,51.473816,-2.732105,49,0.0,9,226.6,Dec-21,4502224,2019-08-16 14:04:16:004,0.0467,0.1441,10.3708,-0.0006,-0.0152,9.8066,0.0085,-0.0709,-0.0059,-13.03,27.02,0.05,244.37,6.6,0.7
45023,51.473816,-2.732105,49,0.0,9,226.6,Dec-21,4502323,2019-08-16 14:04:16:103,0.3202,0.3059,9.5695,0.0057,-0.0053,9.8066,0.0085,-0.0709,-0.0059,-12.48,27.28,0.05,246.11,6.52,0.67
45024,51.473816,-2.732105,49,0.0,9,226.6,Dec-21,4502423,2019-08-16 14:04:16:203,-0.3219,-0.5202,9.9075,0.001,-0.0081,9.8066,0.0138,0.0037,0.0016,-12.74,27.16,0.05,244.37,6.48,0.64
45025,51.473816,-2.732105,49,0.0,9,226.6,Dec-21,4502523,2019-08-16 14:04:16:303,0.212,-0.0217,8.9643,-0.0111,-0.0019,9.8066,-0.0043,0.057,0.0101,-12.97,27.05,0.63,244.57,6.44,0.7
45026,51.473816,-2.732105,49,0.0,9,226.6,Dec-21,4502623,2019-08-16 14:04:16:403,-0.2034,-0.1894,10.0444,-0.0107,-0.0104,9.8066,0.0,0.009,-0.0016,-12.97,27.05,0.63,244.57,6.44,0.7
45027,51.473816,-2.732105,49,0.0,9,226.6,Dec-21,4502723,2019-08-16 14:04:16:503,0.2225,0.2978,9.3366,-0.0019,-0.0141,9.8066,0.0075,-0.007,0.008,-12.74,27.16,0.05,244.36,6.36,0.73
45028,51.473816,-2.732105,49,0.0,9,226.6,Dec-21,4502823,2019-08-16 14:04:16:603,-0.3912,-0.6212,10.2946,-0.0067,-0.0223,9.8066,0.0,0.009,-0.0091,-13.2,26.91,-1.29,244.36,6.36,0.73
45029,51.473816,-2.732105,49,0.0,9,226.6,Dec-21,4502923,2019-08-16 14:04:16:703,0.0136,0.1518,9.5212,-0.0064,-0.0007,9.8066,-0.0053,0.0026,-0.0006,-13.2,26.93,0.65,244.56,6.23,0.71
45030,51.473816,-2.732105,49,0.0,9,226.6,Dec-21,4503023,2019-08-16 14:04:16:803,0.0858,0.1791,10.0529,-0.0103,0.0034,9.8066,0.0021,-0.0038,-0.0048,-12.3,27.36,-0.05,246.09,6.22,0.77
45031,51.473816,-2.732105,49,0.0,9,226.6,Dec-21,4503123,2019-08-16 14:04:16:903,0.1569,0.2783,9.1351,-0.0025,-0.0021,9.8067,0.0021,-0.0038,-0.0048,-12.3,27.36,-0.05,246.09,6.22,0.77
45032,51.473816,-2.732105,49,0.0,9,226.6,Dec-21,4503223,2019-08-16 14:04:17:003,-0.3086,-0.6578,10.4601,0.0009,-0.004,9.8067,0.0064,0.0037,0.0026,-12.71,27.17,0.05,244.35,6.2,0.78
45033,51.473816,-2.732105,49,0.0,9,226.6,Dec-21,4503324,2019-08-16 14:04:17:104,0.2884,0.5013,9.1745,0.011,0.0051,9.8066,-0.0085,-0.0368,0.0005,-12.74,27.15,-0.63,244.16,6.26,0.73
45034,51.473816,-2.732105,49,0.0,9,226.6,Dec-21,4503423,2019-08-16 14:04:17:203,-0.1402,-0.1057,10.2024,0.0063,0.0049,9.8066,-0.0011,-0.0016,0.0058,-12.74,27.15,-0.63,244.16,6.26,0.73
45035,51.473816,-2.732105,49,0.0,9,226.6,Dec-21,4503522,2019-08-16 14:04:17:302,0.1796,0.325,9.2267,-0.001,-0.0092,9.8066,0.0064,0.0421,-0.0016,-12.73,27.13,1.3,244.56,6.29,0.73
45036,51.473816,-2.732105,49,0.0,9,226.6,Dec-21,4503623,2019-08-16 14:04:17:403,-0.098,-0.2469,10.4788,0.0017,-0.0083,9.8066,-0.0075,-0.0006,-0.0101,-13.21,26.94,0.05,244.36,6.24,0.71
45037,51.473816,-2.732105,49,0.0,9,226.6,Dec-21,4503723,2019-08-16 14:04:17:503,0.3079,0.4255,9.4699,0.0063,-0.0065,9.8066,0.0011,-0.0133,-0.008,-13.21,26.94,0.05,244.36,6.24,0.71
45038,51.473804,-2.732127,50,2.22,9,225.9,Dec-21,4503823,2019-08-16 14:04:17:603,-0.1908,-0.0199,9.8424,-0.0045,0.0031,9.8066,-0.016,-0.0229,0.0005,-12.52,27.25,0.71,244.56,6.22,0.66
45039,51.473804,-2.732127,50,2.22,9,225.9,Dec-21,4503923,2019-08-16 14:04:17:703,0.1329,-0.1458,10.1036,-0.0003,0.0059,9.8066,-0.0021,-0.0048,-0.007,-11.86,27.56,0.05,246.86,6.25,0.68
45040,51.473804,-2.732127,50,2.22,9,225.9,Dec-21,4504022,2019-08-16 14:04:17:802,0.14,0.5301,9.2841,-0.0005,0.0027,9.8067,-0.0021,-0.0048,-0.007,-12.05,27.4,2.03,246.86,6.25,0.68
45041,51.473804,-2.732127,50,2.22,9,225.9,Dec-21,4504123,2019-08-16 14:04:17:903,-0.2188,-0.2659,10.4819,0.0014,0.0016,9.8067,0.0053,0.0357,0.0037,-12.05,27.4,2.03,246.86,6.25,0.68
45042,51.473804,-2.732127,50,2.22,9,225.9,Dec-21,4504223,2019-08-16 14:04:18:003,0.2765,0.3892,9.2119,0.0025,0.0007,9.8067,-0.0107,-0.0027,-0.0016,-12.05,27.4,2.03,246.51,6.26,0.68
45043,51.473804,-2.732127,50,2.22,9,225.9,Dec-21,4504323,2019-08-16 14:04:18:103,-0.1123,-0.2057,10.2646,-0.0011,-0.0015,9.8067,0.0138,0.008,0.0037,-11.42,27.67,1.92,246.51,6.26,0.68
45044,51.473804,-2.732127,50,2.22,9,225.9,Dec-21,4504422,2019-08-16 14:04:18:202,0.2272,0.4313,9.4253,-0.0021,0.0062,9.8066,-0.0053,0.0229,0.0058,-12.06,27.28,3.17,246.71,6.25,0.69
45045,51.473804,-2.732127,50,2.22,9,225.9,Dec-21,4504523,2019-08-16 14:04:18:303,-0.0124,0.1688,9.4609,0.0055,0.0105,9.8066,0.0,0.0037,-0.0027,-12.51,27.24,1.27,244.56,6.28,0.72
45046,51.473804,-2.732127,50,2.22,9,225.9,Dec-21,4504623,2019-08-16 14:04:18:403,-0.2276,-0.3207,10.5376,0.0128,0.0199,9.8066,0.0021,0.0154,0.0048,-13.2,26.91,1.28,244.56,6.28,0.72
45047,51.473804,-2.732127,50,2.22,9,225.9,Dec-21,4504723,2019-08-16 14:04:18:503,0.0838,0.3061,9.9109,0.0238,0.0414,9.8065,0.0011,-0.0123,0.0048,-12.96,26.99,1.82,244.79,6.56,0.7
45048,51.47379,-2.732158,51,2.33,9,225.8,Dec-21,4504824,2019-08-16 14:04:18:604,-0.0814,0.313,9.6738,0.0179,0.0273,9.8066,0.0011,-0.0123,0.0048,-12.96,26.99,1.82,244.79,6.56,0.7
45049,51.47379,-2.732158,51,2.33,9,225.8,Dec-21,4504923,2019-08-16 14:04:18:703,0.1605,0.2305,9.7033,0.0118,0.0205,9.8066,-0.0107,0.0122,-0.0059,-11.86,27.56,-0.05,246.88,6.75,0.67
45050,51.47379,-2.732158,51,2.33,9,225.8,Dec-21,4505023,2019-08-16 14:04:18:803,0.388,0.5511,9.5665,0.0188,0.0399,9.8066,0.0011,0.009,-0.0091,-12.34,27.34,0.63,246.35,7.0,0.66
45051,51.47379,-2.732158,51,2.33,9,225.8,Dec-21,4505123,2019-08-16 14:04:18:903,0.3829,0.3931,9.4072,0.0073,0.0158,9.8066,-0.0075,-0.0027,-0.0006,-12.34,27.34,0.63,246.35,7.0,0.66
45052,51.47379,-2.732158,51,2.33,9,225.8,Dec-21,4505224,2019-08-16 14:04:19:004,0.0856,0.262,9.7985,0.0076,0.0165,9.8066,-0.0032,0.0048,0.0037,-12.79,27.13,0.45,244.39,7.11,0.66
45053,51.47379,-2.732158,51,2.33,9,225.8,Dec-21,4505323,2019-08-16 14:04:19:103,0.163,0.2574,9.8218,0.0145,0.0284,9.8066,-0.0064,-0.0048,-0.0048,-12.74,27.15,0.53,244.39,7.11,0.66
45054,51.47379,-2.732158,51,2.33,9,225.8,Dec-21,4505423,2019-08-16 14:04:19:203,0.1324,0.2219,9.7501,0.0068,0.0113,9.8066,-0.0075,0.0069,-0.0059,-13.2,26.92,1.09,244.64,7.37,0.63
45055,51.47379,-2.732158,51,2.33,9,225.8,Dec-21,4505523,2019-08-16 14:04:19:303,0.1144,0.3488,9.6332,0.0201,0.0182,9.8066,0.0011,-0.0059,0.0058,-12.5,27.21,1.74,244.64,7.37,0.63
45056,51.47379,-2.732158,51,2.33,9,225.8,Dec-21,4505624,2019-08-16 14:04:19:404,0.3342,0.0105,9.547,0.0177,0.0292,9.8066,0.0011,-0.0059,0.0058,-12.5,27.21,1.74,244.64,7.37,0.63
45057,51.47379,-2.732158,51,2.33,9,225.8,Dec-21,4505723,2019-08-16 14:04:19:503,0.1583,0.1435,9.5991,0.0068,0.0115,9.8066,-0.0085,-0.0059,0.0069,-12.52,27.24,1.08,244.66,7.57,0.61
45058,51.473766,-2.732189,51,2.32,9,225.9,Dec-21,4505823,2019-08-16 14:04:19:603,0.1226,0.1911,9.7209,-0.0002,0.0102,9.8066,0.0043,0.0069,0.009,-12.99,27.04,0.42,244.42,7.65,0.61
45059,51.473766,-2.732189,51,2.32,9,225.9,Dec-21,4505927,2019-08-16 14:04:19:707,0.2042,0.0445,9.8001,0.0024,0.0207,9.8066,0.0096,-0.0123,-0.007,-12.74,27.16,0.43,244.42,7.76,0.65
45060,51.473766,-2.732189,51,2.32,9,225.9,Dec-21,4506023,2019-08-16 14:04:19:803,0.0363,0.1637,9.889,0.0043,0.007,9.8066,-0.0053,-0.0038,0.0037,-12.74,27.16,0.43,244.42,7.76,0.65
45061,51.473766,-2.732189,51,2.32,9,225.9,Dec-21,4506124,2019-08-16 14:04:19:904,0.287,0.1222,9.4511,-0.0007,0.0054,9.8067,0.0149,0.0101,0.008,-12.97,27.05,0.44,244.43,7.81,0.64
45062,51.473766,-2.732189,51,2.32,9,225.9,Dec-21,4506223,2019-08-16 14:04:20:003,-0.0178,0.0017,9.5868,-0.0012,0.0062,9.8067,0.0032,-0.0027,-0.0112,-12.56,27.22,1.13,244.43,7.81,0.64
45063,51.473766,-2.732189,51,2.32,9,225.9,Dec-21,4506324,2019-08-16 14:04:20:104,-0.0052,-0.1514,9.6942,-0.0024,-0.0029,9.8067,0.0032,-0.0027,-0.0112,-13.2,26.92,1.09,244.66,7.79,0.71
45064,51.473766,-2.732189,51,2.32,9,225.9,Dec-21,4506424,2019-08-16 14:04:20:204,-0.1008,-0.1713,10.0811,-0.0024,-0.0062,9.8066,0.0075,0.0229,0.0058,-13.44,26.82,-0.14,244.42,7.77,0.71
45065,51.473766,-2.732189,51,2.32,9,225.9,Dec-21,4506523,2019-08-16 14:04:20:303,-0.283,-0.397,10.0885,-0.0046,-0.0092,9.8066,0.0,-0.0038,-0.0048,-12.79,27.09,1.61,244.9,7.71,0.71
45066,51.473766,-2.732189,51,2.32,9,225.9,Dec-21,4506623,2019-08-16 14:04:20:403,-0.2982,-0.3121,10.2949,-0.0079,-0.0023,9.8066,0.0,-0.0027,-0.007,-12.79,27.09,1.61,244.9,7.71,0.71
45067,51.473766,-2.732189,51,2.32,9,225.9,Dec-21,4506723,2019-08-16 14:04:20:503,-0.0624,0.0326,9.461,-0.0004,-0.0105,9.8066,-0.0149,0.009,0.0058,-13.24,26.87,1.6,244.89,7.68,0.75
45068,51.47375,-2.732222,50,2.26,9,225.9,Dec-21,4506823,2019-08-16 14:04:20:603,-0.0143,0.1275,9.5443,-0.0031,-0.0151,9.8066,-0.0128,-0.0006,-0.0016,-13.21,26.91,1.05,244.65,7.59,0.73
45069,51.47375,-2.732222,50,2.26,9,225.9,Dec-21,4506923,2019-08-16 14:04:20:703,-0.0366,-0.2392,10.1947,0.0023,-0.0025,9.8067,0.0053,-0.0176,-0.0016,-12.97,27.0,1.64,244.65,7.59,0.73
45070,51.47375,-2.732222,50,2.26,9,225.9,Dec-21,4507022,2019-08-16 14:04:20:802,-0.3295,-0.3414,10.0907,0.002,-0.0044,9.8066,-0.0021,0.0303,0.0058,-12.97,27.0,1.64,244.65,7.59,0.73
45071,51.47375,-2.732222,50,2.26,9,225.9,Dec-21,4507123,2019-08-16 14:04:20:903,-0.2601,-0.2088,9.7681,-0.0011,-0.0075,9.8066,-0.0021,0.0303,0.0058,-12.34,27.32,1.11,246.39,7.57,0.71
45072,51.47375,-2.732222,50,2.26,9,225.9,Dec-21,4507224,2019-08-16 14:04:21:004,0.1549,-0.0334,9.4183,-0.0091,-0.01,9.8066,0.0192,0.0154,0.0005,-12.52,27.26,0.42,246.39,7.57,0.71
45073,51.47375,-2.732222,50,2.26,9,225.9,Dec-21,4507323,2019-08-16 14:04:21:103,-0.01,0.0809,9.874,-0.002,0.0037,9.8067,0.0075,0.0112,-0.007,-12.52,27.24,1.08,244.64,7.5,0.73
45074,51.47375,-2.732222,50,2.26,9,225.9,Dec-21,4507423,2019-08-16 14:04:21:203,0.1554,0.1914,9.8743,0.0022,0.0075,9.8066,0.0064,0.0101,-0.0027,-12.8,27.11,1.06,244.64,7.5,0.73
45075,51.47375,-2.732222,50,2.26,9,225.9,Dec-21,4507523,2019-08-16 14:04:21:303,0.1335,0.0529,9.6698,0.0011,0.0129,9.8066,0.0,0.0101,-0.0048,-12.8,27.11,1.06,244.64,7.5,0.73
45076,51.47375,-2.732222,50,2.26,9,225.9,Dec-21,4507622,2019-08-16 14:04:21:402,0.1969,-0.0182,9.6974,0.0041,0.0058,9.8066,0.0064,0.0133,-0.007,-12.79,27.09,1.71,244.88,7.57,0.76
45077,51.47375,-2.732222,50,2.26,9,225.9,Dec-21,4507723,2019-08-16 14:04:21:503,-0.1458,0.05,9.893,-0.0015,-0.0038,9.8067,-0.0043,0.0122,0.0069,-12.75,27.1,1.7,244.89,7.61,0.75
45078,51.47375,-2.732222,50,2.26,9,225.9,Dec-21,4507823,2019-08-16 14:04:21:603,0.0939,-0.0492,9.6416,-0.0048,-0.0019,9.8066,-0.0128,0.008,0.0037,-13.65,26.63,2.13,243.18,7.59,0.77
45079,51.47375,-2.732222,50,2.26,9,225.9,Dec-21,4507923,2019-08-16 14:04:21:703,-0.1677,-0.0356,9.8314,0.0058,0.0025,9.8066,-0.0128,0.008,0.0037,-13.65,26.63,2.13,243.18,7.59,0.77
45080,51.47375,-2.732222,50,2.26,9,225.9,Dec-21,4508022,2019-08-16 14:04:21:802,0.0251,0.0359,9.8424,-0.0037,-0.001,9.8067,0.0107,0.0111,0.0026,-13.03,27.0,1.04,244.65,7.62,0.75
45081,51.473732,-2.732252,50,2.26,9,225.9,Dec-21,4508123,2019-08-16 14:04:21:903,-0.207,-0.2526,9.7783,-0.0034,-0.0083,9.8066,0.0011,0.0197,0.0037,-12.98,27.03,1.08,244.64,7.58,0.77
45082,51.473732,-2.732252,50,2.26,9,225.9,Dec-21,4508223,2019-08-16 14:04:22:003,-0.4961,-0.4312,10.2631,-0.0101,-0.0139,9.8066,-0.0064,-0.0134,-0.007,-12.98,27.03,1.08,244.64,7.58,0.77
45083,51.473732,-2.732252,50,2.26,9,225.9,Dec-21,4508323,2019-08-16 14:04:22:103,0.0649,0.1576,9.0753,-0.0007,-0.0061,9.8066,-0.0117,-0.0197,-0.0091,-13.64,26.66,1.74,243.17,7.48,0.79
45084,51.473732,-2.732252,50,2.26,9,225.9,Dec-21,4508424,2019-08-16 14:04:22:204,-0.2541,-0.2613,9.8159,-0.0063,-0.0191,9.8066,0.0,-0.007,-0.0027,-12.5,27.21,1.74,244.86,7.36,0.77
45085,51.473732,-2.732252,50,2.26,9,225.9,Dec-21,4508523,2019-08-16 14:04:22:303,-0.2118,-0.3587,10.2687,-0.0024,-0.0148,9.8066,-0.0085,-0.0208,-0.0059,-12.5,27.21,1.74,244.86,7.36,0.77
45086,51.473732,-2.732252,50,2.26,9,225.9,Dec-21,4508624,2019-08-16 14:04:22:404,0.1339,0.1201,9.3289,-0.0003,-0.008,9.8066,0.0043,0.0122,-0.0006,-13.23,26.87,1.69,244.85,7.28,0.75
45087,51.473732,-2.732252,50,2.26,9,225.9,Dec-21,4508723,2019-08-16 14:04:22:503,-0.4854,-0.653,9.98,-0.0056,-0.0192,9.8066,0.0043,0.0122,-0.0006,-13.84,26.52,2.34,243.14,7.16,0.73
45088,51.473713,-2.732287,50,2.61,10,225.9,Dec-21,4508823,2019-08-16 14:04:22:603,0.2294,-0.0784,9.4212,-0.001,-0.0019,9.8067,0.0128,0.0325,0.0005,-13.18,26.85,2.32,243.14,7.16,0.73
45089,51.473713,-2.732287,50,2.61,10,225.9,Dec-21,4508923,2019-08-16 14:04:22:703,-0.1713,0.1557,9.8312,-0.0012,-0.0054,9.8066,0.0096,-0.0166,-0.0048,-13.88,26.55,1.64,243.14,7.13,0.72
45090,51.473713,-2.732287,50,2.61,10,225.9,Dec-21,4509023,2019-08-16 14:04:22:803,0.0854,0.2967,9.0565,-0.0022,0.0009,9.8067,0.0,0.009,0.0016,-13.88,26.55,1.64,243.14,7.13,0.72
45091,51.473713,-2.732287,50,2.61,10,225.9,Dec-21,4509123,2019-08-16 14:04:22:903,0.1971,0.2108,9.7234,0.0011,-0.0026,9.8066,0.0096,0.0293,0.0037,-13.2,26.89,1.69,243.14,7.13,0.72
45092,51.473713,-2.732287,50,2.61,10,225.9,Dec-21,4509223,2019-08-16 14:04:23:003,0.0986,0.1746,9.4754,0.0002,0.0003,9.8067,0.0,-0.008,-0.0048,-13.2,26.92,1.09,244.61,7.14,0.72
45093,51.473713,-2.732287,50,2.61,10,225.9,Dec-21,4509322,2019-08-16 14:04:23:102,-0.049,-0.0209,10.0901,-0.003,-0.0008,9.8067,0.0021,0.0122,0.0058,-13.2,26.92,1.09,244.61,7.14,0.72
45094,51.473713,-2.732287,50,2.61,10,225.9,Dec-21,4509423,2019-08-16 14:04:23:203,0.2901,0.1576,9.0989,-0.0018,0.0005,9.8067,-0.017,-0.0229,0.0005,-13.64,26.66,1.74,243.14,7.12,0.73
45095,51.473713,-2.732287,50,2.61,10,225.9,Dec-21,4509524,2019-08-16 14:04:23:304,-0.3341,-0.1915,9.9434,0.0034,0.0023,9.8067,-0.017,-0.0229,0.0005,-13.87,26.54,1.77,243.14,7.12,0.73
45096,51.473713,-2.732287,50,2.61,10,225.9,Dec-21,4509624,2019-08-16 14:04:23:404,-0.1868,-0.2653,10.2733,0.0001,-0.003,9.8066,-0.0085,-0.0208,-0.0048,-13.74,26.62,1.66,243.14,7.14,0.72
45097,51.473713,-2.732287,50,2.61,10,225.9,Dec-21,4509723,2019-08-16 14:04:23:503,0.0075,-0.1137,9.8591,0.0012,-0.0006,9.8066,0.0043,-0.0016,-0.0038,-14.18,26.33,2.38,242.26,7.14,0.71
45098,51.473694,-2.732323,50,2.38,9,226.1,Dec-21,4509823,2019-08-16 14:04:23:603,0.0561,0.2286,9.4718,0.0064,-0.0012,9.8066,-0.0021,0.008,-0.0006,-14.18,26.33,2.38,242.26,7.14,0.71
45099,51.473694,-2.732323,50,2.38,9,226.1,Dec-21,4509923,2019-08-16 14:04:23:703,-0.1119,-0.1602,10.1011,-0.0042,0.0012,9.8066,0.0,-0.0187,-0.0048,-13.95,26.46,2.34,242.27,7.16,0.68
45100,51.473694,-2.732323,50,2.38,9,226.1,Dec-21,4510023,2019-08-16 14:04:23:803,-0.2764,-0.1153,10.0342,-0.0014,0.0023,9.8066,0.0096,-0.008,-0.0059,-14.15,26.28,3.03,242.49,7.15,0.7
45101,51.473694,-2.732323,50,2.38,9,226.1,Dec-21,4510124,2019-08-16 14:04:23:904,0.0589,0.1914,9.6448,0.0034,0.0035,9.8066,-0.0064,0.0133,0.0048,-13.99,26.48,1.86,242.27,7.18,0.69
45102,51.473694,-2.732323,50,2.38,9,226.1,Dec-21,4510223,2019-08-16 14:04:24:003,0.0318,-0.2175,9.894,0.0022,-0.0036,9.8067,-0.0043,-0.0038,0.0026,-13.79,26.64,0.51,242.27,7.18,0.69
45103,51.473694,-2.732323,50,2.38,9,226.1,Dec-21,4510323,2019-08-16 14:04:24:103,0.0696,-0.0159,9.4618,-0.0032,0.0029,9.8067,-0.0043,-0.0038,0.0026,-13.29,26.83,1.83,244.85,7.17,0.66
45104,51.473694,-2.732323,50,2.38,9,226.1,Dec-21,4510423,2019-08-16 14:04:24:203,0.0211,0.2321,9.5999,-0.0028,0.0079,9.8066,0.0021,-0.0016,0.0005,-13.77,26.59,1.81,244.85,7.17,0.66
45105,51.473694,-2.732323,50,2.38,9,226.1,Dec-21,4510523,2019-08-16 14:04:24:303,0.2167,0.2981,9.3899,-0.0032,0.0108,9.8066,0.0,-0.0091,-0.0048,-13.77,26.59,1.81,244.85,7.17,0.66
45106,51.473694,-2.732323,50,2.38,9,226.1,Dec-21,4510624,2019-08-16 14:04:24:404,-0.1155,-0.1616,10.0398,-0.0032,-0.0031,9.8066,0.0128,0.0325,0.0037,-13.55,26.76,0.41,242.71,7.22,0.71
45107,51.473694,-2.732323,50,2.38,9,226.1,Dec-21,4510723,2019-08-16 14:04:24:503,0.1866,0.0808,9.3855,0.0,0.0021,9.8067,0.0117,0.0016,0.0048,-13.75,26.6,1.83,243.15,7.23,0.71
45108,51.47367,-2.732354,51,2.36,9,226.3,Dec-21,4510823,2019-08-16 14:04:24:603,-0.3193,-0.0703,10.1594,-0.0008,0.0026,9.8066,0.0043,0.0101,-0.0006,-13.75,26.6,1.83,243.15,7.23,0.71
45109,51.47367,-2.732354,51,2.36,9,226.3,Dec-21,4510923,2019-08-16 14:04:24:703,0.054,-0.0345,9.9897,-0.0038,0.0046,9.8066,0.0075,0.0314,0.0037,-13.99,26.48,1.86,242.27,7.24,0.75
45110,51.47367,-2.732354,51,2.36,9,226.3,Dec-21,4511023,2019-08-16 14:04:24:803,-0.0352,-0.3069,10.1334,-0.0003,0.0012,9.8067,-0.0149,0.0143,0.0026,-13.31,26.86,1.17,242.27,7.24,0.75
45111,51.47367,-2.732354,51,2.36,9,226.3,Dec-21,4511123,2019-08-16 14:04:24:903,-0.3156,-0.2878,10.0021,0.0006,0.0036,9.8066,0.0,-0.0102,-0.0059,-13.54,26.74,1.19,242.93,7.26,0.75
45112,51.47367,-2.732354,51,2.36,9,226.3,Dec-21,4511223,2019-08-16 14:04:25:003,0.0475,-0.2767,9.7203,0.0052,0.0036,9.8066,0.0,-0.0102,-0.0059,-13.3,26.86,1.22,242.93,7.26,0.75
45113,51.47367,-2.732354,51,2.36,9,226.3,Dec-21,4511323,2019-08-16 14:04:25:103,0.16,0.3014,9.35,0.0003,-0.0015,9.8067,0.0064,0.0112,-0.0016,-13.3,26.86,1.22,242.93,7.26,0.75
45114,51.47367,-2.732354,51,2.36,9,226.3,Dec-21,4511423,2019-08-16 14:04:25:203,-0.1855,-0.0405,9.4741,0.0,0.0042,9.8067,-0.0043,-0.0038,0.0037,-13.13,26.94,1.26,244.62,7.25,0.75
45115,51.47367,-2.732354,51,2.36,9,226.3,Dec-21,4511525,2019-08-16 14:04:25:305,0.211,0.1692,9.3934,0.0041,-0.0042,9.8066,-0.0107,-0.0059,0.0016,-13.55,26.76,0.53,242.93,7.28,0.76
45116,51.47367,-2.732354,51,2.36,9,226.3,Dec-21,4511624,2019-08-16 14:04:25:404,0.2235,0.095,9.8307,-0.0017,0.0008,9.8067,0.0075,0.009,-0.0038,-12.67,27.19,0.51,244.62,7.26,0.72
45117,51.47367,-2.732354,51,2.36,9,226.3,Dec-21,4511722,2019-08-16 14:04:25:502,0.1918,0.1846,9.1863,-0.0063,0.0043,9.8066,0.0021,-0.0112,0.0016,-12.67,27.19,0.51,244.62,7.26,0.72
45118,51.473656,-2.732387,52,2.38,9,226.3,Dec-21,4511823,2019-08-16 14:04:25:603,0.0764,-0.3255,10.1333,-0.0034,-0.0007,9.8067,-0.016,0.0133,0.0058,-13.29,26.83,1.84,244.85,7.27,0.77
45119,51.473656,-2.732387,52,2.38,9,226.3,Dec-21,4511924,2019-08-16 14:04:25:704,-0.0229,-0.1874,10.2101,0.0025,-0.0042,9.8067,-0.016,0.0133,0.0058,-13.27,26.79,2.42,244.85,7.27,0.77
45120,51.473656,-2.732387,52,2.38,9,226.3,Dec-21,4512024,2019-08-16 14:04:25:804,-0.1045,-0.0613,10.1316,0.0018,0.0025,9.8066,0.0107,0.0016,-0.0038,-13.48,26.62,3.14,245.08,7.26,0.74
45121,51.473656,-2.732387,52,2.38,9,226.3,Dec-21,4512123,2019-08-16 14:04:25:903,-0.0081,0.0997,9.4127,0.002,0.0043,9.8066,0.0032,0.008,0.0016,-12.82,27.06,1.86,245.08,7.26,0.74
