,GPS LATITUDE (degrees), GPS LONGITUDE (degrees), GPS ALTITUDE (m), GPS SPEED (Kmh), GPS ACCURACY (m), GPS ORIENTATION (Â°),GPS SATELLITES IN RANGE, TIME SINCE START (ms), DATE (YYYY-MO-DD HH-MI-SS_SSS), ACCELEROMETER X (m/s²) , ACCELEROMETER Y (m/s²), ACCELEROMETER Z (m/s²), GRAVITY X (m/s²), GRAVITY Y (m/s²), GRAVITY Z (m/s²), GYROSCOPE Yaw (rad/s), GYROSCOPE Pitch (rad/s), GYROSCOPE Roll (rad/s), MAGNETIC FIELD X (Î¼T), MAGNETIC FIELD Y (Î¼T), MAGNETIC FIELD Z (Î¼T), ORIENTATION (Yaw) (Â°), ORIENTATION (Pitch) (Â°), ORIENTATION (Roll ) (Â°)
11457,52.514202,-1.359296,163.6,16.97,3,125.47,21 / 21,1145710,2020-01-08 10:34:52:384,-2.9634,-0.6437,11.7668,0.0154,0.0105,9.8066,0.2924,0.1944,-0.0713,-25.31,-32.56,24.0,294.47,-83.27,166.65
11458,52.514202,-1.359296,163.6,16.97,3,125.47,21 / 21,1145810,2020-01-08 10:34:52:484,0.0896,0.636,11.074,0.1175,-0.0075,9.8059,0.2935,-0.0117,-0.3592,-24.87,-32.56,23.81,295.71,-83.62,167.52
11459,52.514202,-1.359296,163.6,16.97,3,125.47,21 / 21,1145911,2020-01-08 10:34:52:585,-3.2838,0.1644,9.1994,0.0557,-0.0337,9.8064,-0.0417,-0.0473,-0.1222,-25.06,-32.81,24.38,296.94,-83.1,169.16
11460,52.514202,-1.359296,163.6,16.97,3,125.47,21 / 21,1146011,2020-01-08 10:34:52:685,-1.378,-2.5791,8.4966,-0.0253,-0.0286,9.8065,0.1458,0.1851,0.0579,-25.19,-32.87,24.19,295.89,-83.33,167.95
11461,52.514202,-1.359296,163.6,16.97,3,125.47,21 / 21,1146112,2020-01-08 10:34:52:786,-4.5089,-0.7358,8.6616,0.047,0.0489,9.8064,-0.1695,-0.0094,-0.0164,-25.12,-32.94,24.0,293.47,-83.37,165.61
11462,52.514202,-1.359296,163.6,16.97,3,125.47,21 / 21,1146211,2020-01-08 10:34:52:885,3.1895,2.4507,11.5201,0.0312,0.047,9.8064,0.1546,0.4379,-0.419,-25.25,-32.87,24.56,292.19,-83.29,163.16
11463,52.513577,-1.356897,162.55,20.39,4,116.98,21 / 21,1146311,2020-01-08 10:34:52:985,-2.4983,-0.8199,8.321,0.1022,0.0303,9.806,-0.0766,0.0886,-0.1835,-24.87,-32.69,24.25,289.22,-82.99,161.87
11464,52.513577,-1.356897,162.55,20.39,4,116.98,21 / 21,1146411,2020-01-08 10:34:53:085,0.4789,2.464,7.9965,-0.0361,0.0612,9.8063,0.216,0.4677,-0.1672,-24.81,-32.69,23.25,289.24,-83.0,163.23
11465,52.513577,-1.356897,162.55,20.39,4,116.98,21 / 21,1146510,2020-01-08 10:34:53:184,-4.8373,-3.3889,6.4837,0.0315,0.0303,9.8065,-0.4155,-0.0606,0.4359,-23.62,-32.5,24.56,289.75,-83.29,159.57
11466,52.513577,-1.356897,162.55,20.39,4,116.98,21 / 21,1146611,2020-01-08 10:34:53:285,1.7497,3.3016,8.4407,-0.0852,0.0467,9.8061,-0.1975,0.2923,-0.4161,-24.25,-32.37,24.0,288.46,-84.07,158.88
11467,52.513577,-1.356897,162.55,20.39,4,116.98,21 / 21,1146711,2020-01-08 10:34:53:385,2.058,1.9279,11.6521,0.003,0.0249,9.8065,-0.0232,-0.5654,0.2253,-24.87,-33.0,24.63,291.66,-83.94,162.04
11468,52.513577,-1.356897,162.55,20.39,4,116.98,21 / 21,1146810,2020-01-08 10:34:53:484,0.1101,2.032,8.7365,0.0323,-0.0352,9.8065,-0.1069,-0.1851,0.2964,-25.12,-33.19,24.44,293.38,-83.55,165.34
11469,52.513577,-1.356897,162.55,20.39,4,116.98,21 / 21,1146911,2020-01-08 10:34:53:585,0.9231,2.1201,11.2451,0.0256,0.0542,9.8064,0.2025,-0.486,0.2531,-24.75,-32.69,24.06,296.5,-83.48,168.4
11470,52.513577,-1.356897,162.55,20.39,4,116.98,21 / 21,1147010,2020-01-08 10:34:53:684,-2.4208,-3.2081,12.8154,0.0341,0.0144,9.8066,0.1928,-0.5575,0.1857,-24.56,-32.5,24.06,294.58,-83.38,166.48
11471,52.513577,-1.356897,162.55,20.39,4,116.98,21 / 21,1147111,2020-01-08 10:34:53:785,3.3296,4.0985,7.9187,-0.0477,0.0061,9.8064,-0.0467,0.2169,-0.2351,-24.87,-32.5,24.25,294.03,-83.34,166.0
11472,52.513577,-1.356897,162.55,20.39,4,116.98,21 / 21,1147211,2020-01-08 10:34:53:885,-4.6022,-5.3444,11.1987,-0.0195,0.1079,9.8059,0.1811,-0.5976,0.4128,-24.81,-32.5,24.5,293.59,-83.78,163.89
11473,52.513577,-1.356897,162.55,20.39,4,116.98,21 / 21,1147311,2020-01-08 10:34:53:985,2.3077,2.8836,9.243,0.019,-0.0086,9.8066,-0.1623,0.3286,-0.0589,-25.06,-32.94,24.38,295.65,-83.86,167.24
11474,52.513577,-1.356897,162.55,20.39,4,116.98,21 / 21,1147411,2020-01-08 10:34:54:085,-0.1197,1.7148,8.9161,0.0432,0.0258,9.8065,-0.1006,-0.3096,0.1302,-24.87,-32.5,25.25,297.72,-83.9,167.76
11475,52.513577,-1.356897,162.55,20.39,4,116.98,21 / 21,1147511,2020-01-08 10:34:54:185,0.7773,2.1523,9.5896,0.0219,-0.0424,9.8065,-0.135,0.3022,-0.1393,-24.69,-32.37,24.75,298.61,-83.95,168.57
11476,52.513577,-1.356897,162.55,20.39,4,116.98,21 / 21,1147611,2020-01-08 10:34:54:285,-0.0516,0.6356,9.6099,0.0297,0.0142,9.8066,-0.0683,0.0699,-0.0325,-24.75,-32.12,24.88,298.79,-83.73,168.92
11477,52.513577,-1.356897,162.55,20.39,4,116.98,21 / 21,1147711,2020-01-08 10:34:54:385,-1.8552,-1.6203,10.847,0.0025,-0.0372,9.8065,-0.0313,0.1672,-0.2599,-24.56,-32.25,24.19,296.54,-83.69,168.08
11478,52.513577,-1.356897,162.55,20.39,4,116.98,21 / 21,1147811,2020-01-08 10:34:54:485,-2.5264,-1.3626,8.8658,0.0413,-0.0048,9.8065,-0.1304,-0.1022,0.0581,-24.0,-32.06,24.31,296.73,-83.52,167.35
11479,52.513577,-1.356897,162.55,20.39,4,116.98,21 / 21,1147910,2020-01-08 10:34:54:584,-1.1897,-0.2513,9.4283,-0.0152,-0.0024,9.8066,0.0203,0.1627,-0.0409,-25.37,-32.56,24.63,296.83,-83.68,167.25
11480,52.513577,-1.356897,162.55,20.39,4,116.98,21 / 21,1148011,2020-01-08 10:34:54:685,0.2199,-0.038,10.0381,0.0073,-0.0076,9.8066,0.0205,-0.0726,-0.0021,-25.06,-32.25,24.25,297.01,-83.8,168.43
11481,52.513577,-1.356897,162.55,20.39,4,116.98,21 / 21,1148111,2020-01-08 10:34:54:785,1.0834,1.266,10.6244,-0.0192,-0.0195,9.8065,0.0803,0.2095,-0.2255,-24.62,-32.31,24.5,299.24,-83.81,169.3
11482,52.513577,-1.356897,162.55,20.39,4,116.98,21 / 21,1148211,2020-01-08 10:34:54:885,-0.6028,-0.568,11.0511,0.0117,0.0108,9.8066,0.0789,0.0241,0.0376,-24.62,-32.81,25.31,297.32,-83.67,167.74
11483,52.513577,-1.356897,162.55,20.39,4,116.98,21 / 21,1148311,2020-01-08 10:34:54:985,-1.4968,0.0121,9.8222,-0.0137,0.0303,9.8065,0.0556,0.0014,0.0779,-24.69,-32.81,24.38,296.53,-83.56,168.36
11484,52.513577,-1.356897,162.55,20.39,4,116.98,21 / 21,1148411,2020-01-08 10:34:55:085,1.2824,1.2506,10.5593,-0.0422,0.0015,9.8065,0.1061,0.1475,-0.2106,-24.87,-32.37,25.25,298.26,-83.77,168.39
11485,52.513577,-1.356897,162.55,20.39,4,116.98,21 / 21,1148512,2020-01-08 10:34:55:186,-2.0081,0.055,9.8942,0.0007,-0.0093,9.8066,-0.0925,0.079,-0.0186,-24.25,-32.56,25.56,298.88,-83.73,166.87
11486,52.513577,-1.356897,162.55,20.39,4,116.98,21 / 21,1148611,2020-01-08 10:34:55:285,-0.9064,1.9058,9.0911,-0.0333,-0.0088,9.8065,0.0097,0.3403,-0.1435,-24.87,-32.69,25.0,297.0,-83.8,167.31
11487,52.513577,-1.356897,162.55,20.39,4,116.98,21 / 21,1148711,2020-01-08 10:34:55:385,-4.9809,-2.3968,9.3386,0.0065,0.0098,9.8066,-0.0384,-0.0438,0.2336,-25.37,-32.69,24.88,296.62,-83.82,166.93
11488,52.513577,-1.356897,162.55,20.39,4,116.98,21 / 21,1148811,2020-01-08 10:34:55:485,2.574,2.7642,10.3843,-0.0841,-0.0586,9.806,0.0572,0.4058,-0.3874,-24.56,-33.31,24.44,293.21,-83.66,165.08
11489,52.513577,-1.356897,162.55,20.39,4,116.98,21 / 21,1148911,2020-01-08 10:34:55:585,0.3137,0.1778,10.0907,0.0115,-0.007,9.8066,-0.0713,-0.3577,0.1803,-24.44,-32.69,24.63,299.38,-83.81,168.51
11490,52.513577,-1.356897,162.55,20.39,4,116.98,21 / 21,1149011,2020-01-08 10:34:55:685,2.3986,2.9502,11.0137,-0.041,-0.0064,9.8065,0.0868,0.1344,-0.0485,-24.62,-32.81,24.56,299.87,-83.92,169.94
11491,52.513577,-1.356897,162.55,20.39,4,116.98,21 / 21,1149110,2020-01-08 10:34:55:784,-1.5914,-0.6457,9.7019,0.062,0.0306,9.8063,-0.1103,-0.4506,0.2801,-24.44,-32.44,24.63,300.87,-83.92,169.69
11492,52.513577,-1.356897,162.55,20.39,4,116.98,21 / 21,1149210,2020-01-08 10:34:55:884,-2.837,-2.8104,9.2762,-0.0185,-0.0039,9.8066,0.0816,-0.1987,0.0811,-24.19,-33.0,24.75,297.51,-83.73,166.8
11493,52.513577,-1.356897,162.55,20.39,4,116.98,21 / 21,1149310,2020-01-08 10:34:55:984,2.6961,2.4333,10.112,0.0453,0.0315,9.8064,-0.153,-0.3841,0.3147,-23.75,-32.62,25.56,300.55,-83.75,168.45
11494,52.513577,-1.356897,162.55,20.39,4,116.98,21 / 21,1149410,2020-01-08 10:34:56:084,-0.2931,-0.0394,10.1332,-0.0049,0.0078,9.8066,-0.0684,-0.282,0.1933,-24.5,-32.62,24.31,298.07,-83.84,168.51
11495,52.513577,-1.356897,162.55,20.39,4,116.98,21 / 21,1149511,2020-01-08 10:34:56:185,1.3799,2.3086,9.7023,0.0406,0.0055,9.8066,-0.1565,-0.2214,0.1172,-24.56,-32.94,25.0,298.38,-83.81,168.62
11496,52.513577,-1.356897,162.55,20.39,4,116.98,21 / 21,1149611,2020-01-08 10:34:56:285,-2.6001,-1.7379,10.0611,0.0109,0.0283,9.8066,0.0913,-0.2261,0.2607,-24.31,-32.12,25.13,301.19,-83.92,169.98
11497,52.513577,-1.356897,162.55,20.39,4,116.98,21 / 21,1149711,2020-01-08 10:34:56:385,-0.7244,0.1636,11.3987,0.0332,0.0089,9.8065,-0.1336,-0.134,0.1074,-24.62,-32.69,24.69,302.8,-84.01,172.65
11498,52.513577,-1.356897,162.55,20.39,4,116.98,21 / 21,1149811,2020-01-08 10:34:56:485,0.7944,0.3496,10.5983,0.0014,0.0165,9.8066,-0.0275,-0.0089,0.0584,-24.5,-32.0,25.81,304.22,-83.97,171.6
11499,52.513577,-1.356897,162.55,20.39,4,116.98,21 / 21,1149911,2020-01-08 10:34:56:585,-1.2446,-0.143,9.0053,0.0148,0.0356,9.8065,0.0052,-0.0104,0.1031,-24.56,-32.75,24.69,302.05,-83.94,172.01
11500,52.513577,-1.356897,162.55,20.39,4,116.98,21 / 21,1150011,2020-01-08 10:34:56:685,-0.8497,0.4134,10.7553,-0.0416,-0.0015,9.8065,0.1356,-0.0948,-0.2051,-24.69,-32.31,25.0,300.25,-84.01,170.09
11501,52.513577,-1.356897,162.55,20.39,4,116.98,21 / 21,1150110,2020-01-08 10:34:56:784,-0.6225,1.0344,8.9211,-0.0018,-0.0074,9.8066,-0.0701,0.1008,-0.0317,-24.31,-32.81,24.94,299.54,-83.87,168.61
11502,52.513577,-1.356897,162.55,20.39,4,116.98,21 / 21,1150211,2020-01-08 10:34:56:885,0.9396,1.3199,9.3953,-0.0171,0.0096,9.8066,0.0757,0.0793,-0.0943,-24.06,-32.25,25.38,301.02,-83.84,169.88
11503,52.513577,-1.356897,162.55,20.39,4,116.98,21 / 21,1150311,2020-01-08 10:34:56:985,-3.1494,-2.4814,10.3886,-0.034,-0.0492,9.8064,-0.0386,0.2108,-0.2321,-24.44,-32.81,25.63,304.89,-83.7,172.6
11504,52.513577,-1.356897,162.55,20.39,4,116.98,21 / 21,1150411,2020-01-08 10:34:57:085,-2.3024,1.2782,8.684,-0.0078,-0.0238,9.8065,-0.1242,0.2889,-0.1235,-24.69,-32.56,26.06,302.86,-83.75,171.72
11505,52.513577,-1.356897,162.55,20.39,4,116.98,21 / 21,1150511,2020-01-08 10:34:57:185,-1.9838,-2.2248,10.3005,0.0069,-0.0008,9.8065,0.107,0.0416,-0.0877,-24.44,-32.62,26.06,304.26,-83.97,171.78
11506,52.513577,-1.356897,162.55,20.39,4,116.98,21 / 21,1150611,2020-01-08 10:34:57:285,-1.3211,-0.0061,10.2407,0.0104,-0.005,9.8066,-0.0739,0.0477,-0.0987,-24.19,-32.62,25.25,303.23,-83.9,172.08
11507,52.513577,-1.356897,162.55,20.39,4,116.98,21 / 21,1150711,2020-01-08 10:34:57:385,-0.9687,-2.0467,10.6595,-0.0116,0.0148,9.8065,0.1253,-0.1259,0.0811,-23.62,-32.37,25.25,303.6,-84.09,172.14
11508,52.513577,-1.356897,162.55,20.39,4,116.98,21 / 21,1150810,2020-01-08 10:34:57:484,-2.2499,-0.0887,9.4195,-0.0129,-0.0208,9.8066,-0.0589,-0.1281,0.0253,-24.5,-32.69,25.38,304.29,-84.05,172.96
11509,52.513577,-1.356897,162.55,20.39,4,116.98,21 / 21,1150910,2020-01-08 10:34:57:584,0.4637,1.5041,10.2274,-0.0157,-0.0156,9.8066,0.0096,-0.1445,0.1849,-23.69,-32.69,25.81,305.75,-84.04,173.13
11510,52.513577,-1.356897,162.55,20.39,4,116.98,21 / 21,1151011,2020-01-08 10:34:57:685,-0.328,0.4129,9.5017,-0.0303,-0.0297,9.8065,-0.0091,-0.1611,0.126,-24.75,-32.25,25.81,304.46,-83.93,172.94
11511,52.513577,-1.356897,162.55,20.39,4,116.98,21 / 21,1151111,2020-01-08 10:34:57:785,0.9323,1.0943,9.5664,-0.0243,-0.0143,9.8065,0.0095,-0.2118,0.0957,-24.37,-32.12,25.06,306.9,-83.98,175.34
11512,52.513577,-1.356897,162.55,20.39,4,116.98,21 / 21,1151210,2020-01-08 10:34:57:884,-1.8959,-1.2095,10.7018,-0.0164,-0.0221,9.8066,0.0523,-0.2022,0.1254,-24.12,-32.12,25.94,309.25,-84.05,176.29
11513,52.513577,-1.356897,162.55,20.39,4,116.98,21 / 21,1151311,2020-01-08 10:34:57:985,0.7031,1.0959,8.4692,0.014,-0.0242,9.8066,-0.0174,0.0431,-0.0901,-23.87,-32.0,25.63,308.77,-84.09,175.8
11514,52.513577,-1.356897,162.55,20.39,4,116.98,21 / 21,1151411,2020-01-08 10:34:58:085,0.3648,0.1597,10.1308,0.0239,0.0151,9.8065,0.0379,-0.2094,0.0361,-24.44,-32.0,25.94,308.73,-84.23,175.66
11515,52.513577,-1.356897,162.55,20.39,4,116.98,21 / 21,1151511,2020-01-08 10:34:58:185,1.7484,1.4266,10.3394,-0.0307,-0.0263,9.8066,0.0557,0.0984,-0.0658,-24.69,-32.19,25.44,306.53,-84.27,175.84
11516,52.513577,-1.356897,162.55,20.39,4,116.98,21 / 21,1151611,2020-01-08 10:34:58:285,-0.2896,-0.4491,9.6625,0.0098,-0.01,9.8066,0.0081,-0.0777,0.0545,-24.25,-32.25,25.69,306.89,-84.14,173.99
11517,52.513577,-1.356897,162.55,20.39,4,116.98,21 / 21,1151711,2020-01-08 10:34:58:385,-1.4721,-0.6621,9.328,-0.0027,0.009,9.8066,0.0557,0.1841,-0.165,-24.62,-32.75,26.38,305.92,-84.23,174.22
11518,52.513577,-1.356897,162.55,20.39,4,116.98,21 / 21,1151810,2020-01-08 10:34:58:484,-1.03,-1.0499,9.9837,0.0339,0.0188,9.8065,0.0397,0.0775,-0.027,-24.06,-32.62,26.31,308.66,-84.33,175.65
11519,52.513577,-1.356897,162.55,20.39,4,116.98,21 / 21,1151910,2020-01-08 10:34:58:584,-0.1857,-1.1132,10.8132,0.0047,0.0011,9.8066,0.0723,0.093,-0.0845,-23.87,-32.44,25.44,305.51,-84.3,173.77
11520,52.513577,-1.356897,162.55,20.39,4,116.98,21 / 21,1152010,2020-01-08 10:34:58:684,-0.1826,0.0283,9.1483,0.0102,0.0052,9.8066,-0.0588,0.0278,-0.0005,-23.69,-32.69,25.75,306.13,-84.3,173.28
11521,52.513577,-1.356897,162.55,20.39,4,116.98,21 / 21,1152110,2020-01-08 10:34:58:784,-0.5535,0.7314,9.2666,-0.018,0.0151,9.8066,0.0281,-0.0205,0.0647,-24.0,-32.69,25.88,305.92,-84.41,172.99
11522,52.513577,-1.356897,162.55,20.39,4,116.98,21 / 21,1152211,2020-01-08 10:34:58:885,-0.6535,0.5733,10.619,0.0023,-0.0026,9.8066,0.0745,-0.023,-0.1285,-23.75,-32.62,25.44,303.5,-84.49,171.84
11523,52.513577,-1.356897,162.55,20.39,4,116.98,21 / 21,1152311,2020-01-08 10:34:58:985,-0.9798,0.6934,9.3443,0.0263,-0.0089,9.8066,-0.0172,0.0372,-0.0131,-24.25,-33.0,25.56,305.14,-84.45,172.21
11524,52.513577,-1.356897,162.55,20.39,4,116.98,21 / 21,1152410,2020-01-08 10:34:59:084,-0.6956,0.26,9.8706,-0.0088,-0.0049,9.8066,0.0738,0.0686,-0.0152,-24.31,-32.19,25.25,304.09,-84.47,172.28
11525,52.513577,-1.356897,162.55,20.39,4,116.98,21 / 21,1152511,2020-01-08 10:34:59:185,-1.4698,-0.3428,9.1322,0.0234,-0.0012,9.8065,-0.1024,0.0614,0.0513,-23.69,-33.0,25.06,302.98,-84.39,171.43
11526,52.513577,-1.356897,162.55,20.39,4,116.98,21 / 21,1152611,2020-01-08 10:34:59:285,-0.6935,1.1137,8.5998,-0.027,0.0102,9.8065,-0.1325,0.082,-0.0264,-23.37,-33.06,25.44,305.95,-84.59,172.95
11527,52.513577,-1.356897,162.55,20.39,4,116.98,21 / 21,1152711,2020-01-08 10:34:59:385,0.7592,0.223,10.323,-0.0303,0.0076,9.8065,-0.023,-0.5814,0.3552,-23.12,-32.56,25.19,304.75,-84.35,172.02
11528,52.513577,-1.356897,162.55,20.39,4,116.98,21 / 21,1152811,2020-01-08 10:34:59:485,-2.4917,-2.7666,10.4773,-0.0561,-0.0725,9.8061,0.0417,0.0124,0.0785,-23.75,-33.25,25.25,306.67,-84.62,174.74
11529,52.513577,-1.356897,162.55,20.39,4,116.98,21 / 21,1152910,2020-01-08 10:34:59:584,-0.6941,0.3182,9.4143,0.0288,0.0155,9.8065,0.162,-0.5608,0.0561,-24.19,-32.44,25.38,303.07,-84.63,171.18
11530,52.513577,-1.356897,162.55,20.39,4,116.98,21 / 21,1153011,2020-01-08 10:34:59:685,-2.4053,-2.5675,11.6056,-0.013,-0.0461,9.8065,0.1982,-0.4184,0.3678,-23.62,-32.25,25.5,302.83,-84.56,169.81
11531,52.513577,-1.356897,162.55,20.39,4,116.98,21 / 21,1153110,2020-01-08 10:34:59:784,3.6127,4.9409,8.9124,-0.0142,-0.071,9.8064,-0.0614,-0.296,0.5003,-24.87,-32.56,25.44,300.64,-84.51,170.18
11532,52.513577,-1.356897,162.55,20.39,4,116.98,21 / 21,1153211,2020-01-08 10:34:59:885,-0.3004,-0.2732,10.4598,-0.0553,-0.0154,9.8064,-0.0024,-0.38,0.0376,-24.31,-33.5,25.69,300.65,-84.68,167.75
11533,52.513577,-1.356897,162.55,20.39,4,116.98,21 / 21,1153311,2020-01-08 10:34:59:985,2.1239,1.4509,9.6175,-0.033,-0.0327,9.8065,-0.0559,-0.0907,0.0445,-24.25,-32.31,24.56,304.66,-84.88,172.5
11534,52.513577,-1.356897,162.55,20.39,4,116.98,21 / 21,1153410,2020-01-08 10:35:00:084,-2.7978,-1.5393,8.9502,-0.0458,-0.0125,9.8065,-0.0962,-0.2775,0.3043,-24.56,-32.44,25.19,304.67,-84.98,173.51
11535,52.513577,-1.356897,162.55,20.39,4,116.98,21 / 21,1153511,2020-01-08 10:35:00:185,0.398,1.4596,10.4635,-0.0445,0.0014,9.8065,0.0347,-0.0182,-0.0322,-24.06,-32.37,24.81,303.91,-84.96,171.71
11536,52.513577,-1.356897,162.55,20.39,4,116.98,21 / 21,1153610,2020-01-08 10:35:00:284,-2.495,-1.8972,8.9236,0.0196,-0.0041,9.8066,-0.0793,-0.2628,0.1648,-24.62,-33.0,25.38,302.23,-84.9,171.37
11537,52.513577,-1.356897,162.55,20.39,4,116.98,21 / 21,1153711,2020-01-08 10:35:00:385,2.0124,1.7694,10.1142,-0.0457,-0.0159,9.8064,0.1033,-0.0074,-0.0887,-24.06,-32.19,25.25,304.28,-84.89,172.12
11538,52.513577,-1.356897,162.55,20.39,4,116.98,21 / 21,1153811,2020-01-08 10:35:00:485,2.4176,1.9388,10.9499,0.019,-0.0173,9.8066,0.0461,-0.3383,0.1921,-23.69,-32.81,25.13,304.19,-84.78,172.25
11539,52.513577,-1.356897,162.55,20.39,4,116.98,21 / 21,1153911,2020-01-08 10:35:00:585,2.7492,2.7406,10.1515,-0.0386,-0.0438,9.8064,0.1004,0.2764,-0.1972,-24.44,-33.0,24.94,307.96,-84.95,175.7
11540,52.513577,-1.356897,162.55,20.39,4,116.98,21 / 21,1154010,2020-01-08 10:35:00:684,-2.1773,-1.9746,10.5293,0.0435,-0.0024,9.8065,0.0544,-0.3012,0.1437,-23.81,-32.06,25.31,308.07,-85.1,175.57
11541,52.513577,-1.356897,162.55,20.39,4,116.98,21 / 21,1154111,2020-01-08 10:35:00:785,-2.602,-1.7402,9.7091,-0.0126,-0.0465,9.8064,-0.0001,0.4264,-0.2332,-24.56,-32.87,25.5,309.04,-84.94,176.63
11542,52.513577,-1.356897,162.55,20.39,4,116.98,20 / 21,1154211,2020-01-08 10:35:00:885,-0.8618,-1.6709,11.2426,0.031,0.0119,9.8065,0.1075,0.1015,-0.0185,-24.0,-32.62,25.94,309.32,-84.87,175.85
11543,52.513577,-1.356897,162.55,20.39,4,116.98,20 / 21,1154310,2020-01-08 10:35:00:984,-2.4952,-1.9058,10.0394,0.0191,-0.0097,9.8065,-0.1226,0.2592,-0.0561,-24.12,-32.19,25.31,310.06,-84.76,177.72
11544,52.513577,-1.356897,162.55,20.39,4,116.98,20 / 21,1154411,2020-01-08 10:35:01:085,-0.084,1.9182,8.9032,-0.0296,0.0278,9.8065,-0.1443,0.4812,-0.1995,-24.94,-32.25,25.13,311.99,-84.97,-179.51
11545,52.513577,-1.356897,162.55,20.39,4,116.98,20 / 21,1154510,2020-01-08 10:35:01:184,-3.1513,-2.0064,9.5949,0.0189,0.0418,9.8065,-0.076,-0.0287,0.0554,-24.94,-32.19,24.94,312.32,-84.9,-179.15
11546,52.513577,-1.356897,162.55,20.39,4,116.98,20 / 21,1154611,2020-01-08 10:35:01:285,2.2665,2.378,10.5568,-0.0075,-0.0084,9.8066,0.0947,0.3972,-0.2247,-25.0,-32.12,25.56,316.72,-84.78,-176.11
11547,52.513577,-1.356897,162.55,20.39,4,116.98,20 / 21,1154711,2020-01-08 10:35:01:385,-2.3723,-1.217,9.3984,0.0323,0.0135,9.8065,-0.1474,-0.2596,0.2732,-25.19,-31.44,25.69,318.66,-84.76,-174.37
11548,52.513577,-1.356897,162.55,20.39,4,116.98,20 / 21,1154810,2020-01-08 10:35:01:484,-1.2912,-0.8489,8.1157,-0.0718,-0.0047,9.8064,-0.0077,0.2669,-0.1226,-25.69,-31.81,25.0,322.27,-84.88,-168.71
11549,52.513577,-1.356897,162.55,20.39,4,116.98,20 / 21,1154911,2020-01-08 10:35:01:585,-1.9883,-1.013,8.1023,-0.0239,-0.0005,9.8066,-0.2315,-0.2087,0.2267,-25.56,-32.87,25.0,322.25,-84.64,-168.5
11550,52.513577,-1.356897,162.55,20.39,4,116.98,20 / 21,1155011,2020-01-08 10:35:01:685,-0.7069,-1.1494,10.6197,-0.0407,0.0027,9.8066,0.0262,-0.1114,0.0703,-25.62,-31.69,25.56,329.24,-84.85,-163.36
11551,52.513577,-1.356897,162.55,20.39,4,116.98,20 / 21,1155111,2020-01-08 10:35:01:785,1.5665,0.4718,10.6291,0.0606,-0.005,9.8064,-0.1454,-0.1856,0.2054,-25.94,-31.81,25.75,328.4,-84.55,-164.0
11552,52.513577,-1.356897,162.55,20.39,4,116.98,20 / 21,1155211,2020-01-08 10:35:01:885,-2.2949,-0.6445,9.2311,-0.0009,0.0003,9.8066,-0.0904,0.0278,0.0188,-25.31,-31.69,25.94,332.33,-84.57,-161.45
11553,52.512825,-1.354582,162.24,19.35,3,121.0,19 / 20,1155311,2020-01-08 10:35:01:985,0.2235,-0.6133,11.435,0.0348,-0.0248,9.8065,-0.1081,-0.0608,-0.0794,-25.37,-32.0,25.63,332.04,-84.73,-161.79
11554,52.512825,-1.354582,162.24,19.35,3,121.0,19 / 20,1155411,2020-01-08 10:35:02:085,-1.7213,-0.0802,9.7146,0.0251,-0.0003,9.8065,-0.0405,-0.0908,0.1268,-24.94,-32.37,25.38,328.04,-84.57,-164.24
11555,52.512825,-1.354582,162.24,19.35,3,121.0,19 / 20,1155511,2020-01-08 10:35:02:185,0.41,0.6835,10.295,-0.014,-0.0103,9.8065,0.0057,0.0062,-0.0008,-25.75,-32.0,25.75,330.89,-84.44,-161.64
11556,52.512825,-1.354582,162.24,19.35,3,121.0,19 / 20,1155612,2020-01-08 10:35:02:286,-1.9344,-0.5817,8.941,0.0093,0.0001,9.8066,-0.0973,-0.1096,0.0805,-25.31,-31.19,25.88,333.62,-84.46,-160.28
11557,52.512825,-1.354582,162.24,19.35,3,121.0,19 / 20,1155710,2020-01-08 10:35:02:384,-0.6207,-1.6068,10.2211,-0.0073,-0.0125,9.8066,0.0214,0.1836,-0.1201,-25.31,-31.5,26.19,334.73,-84.58,-159.3
11558,52.512825,-1.354582,162.24,19.35,3,121.0,19 / 20,1155810,2020-01-08 10:35:02:484,0.8165,1.1924,9.9056,0.0297,-0.0186,9.8065,-0.1041,0.0155,-0.0807,-25.94,-31.81,25.56,332.85,-84.54,-159.87
11559,52.512825,-1.354582,162.24,19.35,3,121.0,19 / 20,1155911,2020-01-08 10:35:02:585,1.1606,1.5915,10.3258,-0.0407,-0.0176,9.8065,0.0608,0.4021,-0.2743,-25.19,-31.81,25.63,335.79,-84.71,-158.32
11560,52.512825,-1.354582,162.24,19.35,3,121.0,19 / 20,1156010,2020-01-08 10:35:02:684,0.6612,0.4108,10.4663,0.0055,0.0033,9.8066,0.1053,0.1109,-0.156,-25.75,-32.06,25.56,331.59,-84.76,-161.13
11561,52.512825,-1.354582,162.24,19.35,3,121.0,19 / 20,1156111,2020-01-08 10:35:02:785,-1.1699,-0.0094,8.6581,-0.0545,-0.0114,9.8064,0.0815,0.5638,-0.3791,-25.37,-31.25,26.19,332.09,-84.86,-161.87
11562,52.512825,-1.354582,162.24,19.35,3,121.0,19 / 20,1156211,2020-01-08 10:35:02:885,4.8119,3.8494,10.1622,-0.0209,0.0151,9.8066,0.1345,0.4267,-0.3054,-24.69,-32.0,24.88,325.48,-84.86,-166.78
11563,52.512825,-1.354582,162.24,19.35,3,121.0,19 / 20,1156310,2020-01-08 10:35:02:984,-1.7328,-2.0305,9.6741,-0.0435,-0.0442,9.8064,-0.0844,0.4801,-0.2546,-25.5,-32.44,25.44,320.89,-84.81,-171.03
11564,52.512825,-1.354582,162.24,19.35,3,121.0,19 / 20,1156411,2020-01-08 10:35:03:085,3.4903,2.5802,10.1733,-0.0619,-0.021,9.8064,0.0047,0.6542,-0.2972,-25.5,-32.19,25.75,326.82,-84.88,-166.71
11565,52.512825,-1.354582,162.24,19.35,3,121.0,19 / 20,1156510,2020-01-08 10:35:03:184,-2.9611,-1.5967,9.4771,-0.013,-0.0267,9.8065,-0.0357,-0.5676,0.3796,-24.75,-32.25,25.25,324.42,-84.91,-167.79
11566,52.512825,-1.354582,162.24,19.35,3,121.0,19 / 20,1156611,2020-01-08 10:35:03:285,5.012,3.8901,10.0712,-0.0741,-0.0658,9.8061,0.0584,0.0842,-0.0367,-25.31,-32.37,25.81,329.53,-84.83,-164.16
11567,52.512825,-1.354582,162.24,19.35,3,121.0,19 / 20,1156711,2020-01-08 10:35:03:385,-0.2004,-0.4906,9.522,-0.0127,-0.0144,9.8066,-0.1051,-0.421,0.3502,-25.75,-31.75,25.38,325.28,-84.82,-165.87
11568,52.512825,-1.354582,162.24,19.35,3,121.0,19 / 20,1156811,2020-01-08 10:35:03:485,3.4225,2.134,10.8033,-0.085,-0.0247,9.8062,0.0717,0.1347,-0.1116,-25.75,-32.06,25.31,329.1,-84.89,-162.35
11569,52.512825,-1.354582,162.24,19.35,3,121.0,19 / 20,1156910,2020-01-08 10:35:03:584,-1.2871,-1.7383,9.1453,-0.0033,0.0019,9.8066,-0.1445,-0.1917,0.2453,-25.75,-31.87,25.5,329.69,-84.89,-162.97
11570,52.512825,-1.354582,162.24,19.35,3,121.0,19 / 20,1157011,2020-01-08 10:35:03:685,1.5295,0.6588,10.4213,-0.0486,-0.0164,9.8064,0.0444,0.0387,0.0533,-26.31,-32.06,25.5,331.01,-85.03,-161.8
11571,52.512825,-1.354582,162.24,19.35,3,121.0,19 / 20,1157111,2020-01-08 10:35:03:785,-0.3485,-0.3385,9.8313,-0.0132,-0.0249,9.8065,-0.0147,0.0291,0.0586,-25.56,-32.44,24.81,330.1,-84.89,-161.42
11572,52.512825,-1.354582,162.24,19.35,3,121.0,19 / 20,1157210,2020-01-08 10:35:03:884,2.3708,1.3035,10.6062,0.0232,0.0003,9.8066,-0.077,-0.1976,0.2081,-25.5,-32.12,24.75,330.58,-84.79,-162.0
11573,52.512825,-1.354582,162.24,19.35,3,121.0,20 / 21,1157311,2020-01-08 10:35:03:985,3.229,2.242,10.4376,-0.0276,-0.0132,9.8065,0.0505,0.1793,-0.1251,-25.12,-31.87,25.44,333.62,-84.78,-159.19
11574,52.512825,-1.354582,162.24,19.35,3,121.0,20 / 21,1157410,2020-01-08 10:35:04:084,-0.5635,-1.2848,10.4557,0.0236,0.0189,9.8065,-0.055,-0.2916,0.1908,-25.37,-31.87,25.25,333.75,-84.79,-159.07
11575,52.512825,-1.354582,162.24,19.35,3,121.0,20 / 21,1157510,2020-01-08 10:35:04:184,-2.1198,-1.07,10.3418,0.0037,-0.0295,9.8065,-0.0783,0.1064,0.0137,-26.06,-31.81,24.25,330.5,-84.79,-159.79
11576,52.512825,-1.354582,162.24,19.35,3,121.0,20 / 21,1157610,2020-01-08 10:35:04:284,1.7195,2.0602,9.2411,0.0098,0.0368,9.8065,0.1569,-0.2729,0.1793,-25.56,-31.5,25.19,333.34,-84.76,-158.42
11577,52.512825,-1.354582,162.24,19.35,3,121.0,20 / 21,1157711,2020-01-08 10:35:04:385,-1.4933,-1.6417,9.9932,0.0022,0.0029,9.8066,-0.0337,-0.2915,0.1259,-26.0,-31.94,25.31,332.08,-84.66,-159.48
11578,52.512825,-1.354582,162.24,19.35,3,121.0,20 / 21,1157811,2020-01-08 10:35:04:485,0.3368,0.3594,10.1983,0.0225,0.0387,9.8064,0.0105,-0.219,0.1803,-25.69,-31.81,25.06,330.74,-84.76,-160.76
11579,52.512825,-1.354582,162.24,19.35,3,121.0,20 / 21,1157910,2020-01-08 10:35:04:584,-1.9434,-0.4973,8.3216,0.0393,0.0189,9.8065,-0.148,-0.2413,0.1392,-26.12,-32.31,25.31,331.43,-84.68,-160.08
11580,52.512825,-1.354582,162.24,19.35,3,121.0,20 / 21,1158010,2020-01-08 10:35:04:684,1.4556,2.082,10.1049,0.0045,0.0322,9.8065,0.0288,-0.1239,0.1051,-25.69,-32.0,24.63,332.42,-84.66,-159.16
11581,52.512825,-1.354582,162.24,19.35,3,121.0,20 / 21,1158110,2020-01-08 10:35:04:784,-1.05,-0.0407,9.3781,0.0361,0.0088,9.8065,-0.0777,-0.1202,0.1285,-25.5,-32.19,25.19,333.53,-84.72,-159.25
11582,52.512825,-1.354582,162.24,19.35,3,121.0,21 / 21,1158211,2020-01-08 10:35:04:885,1.722,0.2844,10.0886,-0.0138,-0.008,9.8066,0.0558,0.0035,-0.1368,-25.5,-31.94,25.44,334.56,-84.72,-158.29
11583,52.512825,-1.354582,162.24,19.35,3,121.0,21 / 21,1158310,2020-01-08 10:35:04:984,0.8912,-0.2742,10.4004,0.0157,0.0294,9.8066,0.0929,-0.2701,0.1264,-25.87,-31.94,25.75,334.1,-84.76,-158.82
11584,52.512825,-1.354582,162.24,19.35,3,121.0,21 / 21,1158411,2020-01-08 10:35:05:085,2.5491,0.0606,9.3029,0.0047,-0.0156,9.8066,-0.0582,0.2287,-0.0807,-26.25,-32.12,25.19,333.84,-84.73,-157.88
11585,52.512825,-1.354582,162.24,19.35,3,121.0,21 / 21,1158511,2020-01-08 10:35:05:185,0.8173,-1.3408,9.6771,0.0101,0.0091,9.8066,-0.0377,-0.0541,0.002,-26.31,-31.94,24.81,333.95,-84.76,-157.79
11586,52.512825,-1.354582,162.24,19.35,3,121.0,21 / 21,1158610,2020-01-08 10:35:05:284,-1.4314,-0.9263,9.5665,-0.0414,-0.0268,9.8064,0.0618,0.1405,-0.3219,-25.56,-32.0,25.56,338.16,-84.77,-155.07
11587,52.512825,-1.354582,162.24,19.35,3,121.0,21 / 21,1158710,2020-01-08 10:35:05:384,1.6945,0.2284,11.0371,-0.0082,0.0576,9.8064,0.181,-0.1124,0.1897,-26.12,-31.37,25.31,334.5,-84.97,-157.43
11588,52.512825,-1.354582,162.24,19.35,3,121.0,21 / 21,1158811,2020-01-08 10:35:05:485,-1.2851,-0.0755,10.5503,0.0052,-0.0107,9.8066,-0.0407,0.1776,0.0401,-26.31,-31.5,24.81,336.69,-84.76,-155.32
11589,52.512825,-1.354582,162.24,19.35,3,121.0,21 / 21,1158911,2020-01-08 10:35:05:585,1.1739,1.4747,8.7883,0.0062,-0.028,9.8065,-0.0223,0.3357,-0.0494,-26.06,-30.12,25.31,336.93,-84.53,-155.07
11590,52.512825,-1.354582,162.24,19.35,3,121.0,21 / 21,1159010,2020-01-08 10:35:05:684,-3.5096,-1.3893,11.5677,-0.0318,0.0167,9.8065,0.0564,0.0611,-0.0103,-26.19,-29.56,25.25,336.14,-84.45,-155.77
11591,52.512825,-1.354582,162.24,19.35,3,121.0,21 / 21,1159110,2020-01-08 10:35:05:784,3.41,1.7444,11.0594,-0.0628,-0.0364,9.8063,0.1758,0.3831,-0.3333,-26.25,-30.37,25.31,338.86,-84.73,-153.35
11592,52.512825,-1.354582,162.24,19.35,3,121.0,21 / 21,1159211,2020-01-08 10:35:05:885,-1.1175,0.8593,8.9993,-0.0368,-0.0041,9.8065,0.0642,-0.0428,-0.0407,-25.87,-31.31,25.94,339.51,-84.8,-153.88
11593,52.512825,-1.354582,162.24,19.35,3,121.0,21 / 21,1159311,2020-01-08 10:35:05:985,0.1134,0.4032,10.1554,-0.0216,0.007,9.8066,0.147,-0.0405,0.051,-26.12,-32.19,24.94,337.68,-84.72,-154.33
11594,52.512825,-1.354582,162.24,19.35,3,121.0,21 / 21,1159411,2020-01-08 10:35:06:085,0.9235,-0.5725,11.2376,0.0237,0.0299,9.8066,0.0278,-0.4519,0.2823,-26.12,-32.37,25.13,338.13,-84.55,-153.86
11595,52.512825,-1.354582,162.24,19.35,3,121.0,21 / 21,1159510,2020-01-08 10:35:06:184,-2.1509,-1.8392,10.0059,0.0348,-0.0138,9.8066,-0.1439,0.0383,0.0903,-26.25,-31.87,25.19,338.1,-84.56,-153.89
11596,52.512825,-1.354582,162.24,19.35,3,121.0,21 / 21,1159610,2020-01-08 10:35:06:284,-1.9062,-0.3621,9.7251,0.0031,0.0248,9.8066,-0.113,-0.2549,0.0764,-25.75,-31.31,25.06,340.56,-84.72,-151.73
11597,52.512825,-1.354582,162.24,19.35,3,121.0,21 / 21,1159710,2020-01-08 10:35:06:384,0.2636,0.4598,8.823,0.0065,-0.032,9.8066,-0.2575,0.2284,0.0855,-25.75,-31.87,25.06,342.14,-84.91,-150.29
11598,52.512825,-1.354582,162.24,19.35,3,121.0,21 / 21,1159810,2020-01-08 10:35:06:484,-2.3597,-1.4499,11.8783,0.0232,-0.0513,9.8065,-0.1086,0.3372,-0.1149,-26.37,-31.37,25.06,344.19,-84.66,-148.37
11599,52.512825,-1.354582,162.24,19.35,3,121.0,21 / 21,1159911,2020-01-08 10:35:06:585,0.2079,1.8507,8.7184,0.017,-0.0648,9.8063,-0.1447,0.0123,-0.1149,-26.37,-32.44,25.69,344.01,-84.69,-149.66
11600,52.512825,-1.354582,162.24,19.35,3,121.0,21 / 21,1160011,2020-01-08 10:35:06:685,0.6447,0.6273,10.8133,-0.006,-0.0162,9.8066,0.0988,0.0703,0.0254,-26.5,-31.5,25.38,343.2,-84.82,-149.32
11601,52.512825,-1.354582,162.24,19.35,3,121.0,21 / 21,1160111,2020-01-08 10:35:06:785,-1.0436,-1.1372,10.431,0.0096,0.0284,9.8065,0.0658,-0.1751,0.024,-26.37,-32.31,24.31,343.61,-84.82,-147.71
11602,52.512825,-1.354582,162.24,19.35,3,121.0,21 / 21,1160211,2020-01-08 10:35:06:885,-1.8789,0.9287,8.7055,-0.0474,0.0248,9.8064,0.125,-0.0775,-0.2248,-25.81,-32.5,25.75,347.13,-85.04,-146.87
11603,52.512825,-1.354582,162.24,19.35,3,121.0,21 / 21,1160311,2020-01-08 10:35:06:985,-0.8399,0.0802,10.2969,0.0156,0.0639,9.8064,0.1227,-0.1832,0.3669,-25.94,-32.06,25.13,341.46,-85.2,-151.01
11604,52.512825,-1.354582,162.24,19.35,3,121.0,21 / 21,1160411,2020-01-08 10:35:07:085,-0.7726,1.1035,10.078,0.0708,0.065,9.8061,-0.0201,-0.1489,0.322,-25.94,-32.19,26.06,340.01,-85.14,-153.48
11605,52.512825,-1.354582,162.24,19.35,3,121.0,21 / 21,1160511,2020-01-08 10:35:07:185,-1.0251,-0.9356,9.2937,0.0185,-0.0394,9.8065,-0.1162,-0.0734,-0.1821,-26.12,-32.62,25.44,338.89,-84.84,-153.21
11606,52.512825,-1.354582,162.24,19.35,3,121.0,21 / 21,1160611,2020-01-08 10:35:07:285,1.7783,0.611,9.494,-0.0052,0.0335,9.8065,0.0877,-0.318,0.0522,-25.69,-32.87,25.63,337.75,-84.93,-155.45
11607,52.512825,-1.354582,162.24,19.35,3,121.0,21 / 21,1160711,2020-01-08 10:35:07:385,-4.481,-3.1078,11.3097,0.0258,0.0635,9.8064,0.1238,-0.54,0.4234,-25.81,-31.81,26.0,338.07,-85.03,-155.24
11608,52.512825,-1.354582,162.24,19.35,3,121.0,21 / 21,1160810,2020-01-08 10:35:07:484,1.4352,1.7696,9.0937,0.0242,0.0373,9.8065,0.0536,-0.046,-0.0059,-26.19,-32.25,25.56,338.24,-84.9,-155.03
11609,52.512825,-1.354582,162.24,19.35,3,121.0,21 / 21,1160911,2020-01-08 10:35:07:585,-2.8534,-2.944,10.4203,0.0275,0.0554,9.8064,0.0182,-0.3835,0.2671,-25.62,-31.81,26.31,336.03,-84.91,-157.09
11610,52.512825,-1.354582,162.24,19.35,3,121.0,21 / 21,1161010,2020-01-08 10:35:07:684,2.8971,2.2344,9.9565,-0.0016,-0.01,9.8066,-0.0341,0.2249,-0.1228,-25.25,-32.12,25.75,338.09,-84.81,-156.24
11611,52.512825,-1.354582,162.24,19.35,3,121.0,21 / 21,1161111,2020-01-08 10:35:07:785,0.7762,0.5371,9.2399,0.0388,0.029,9.8065,-0.0581,-0.2617,0.1804,-25.87,-31.94,24.94,335.63,-84.79,-156.25
11612,52.512825,-1.354582,162.24,19.35,3,121.0,20 / 21,1161211,2020-01-08 10:35:07:885,-0.2682,-1.0635,11.1491,0.0144,-0.0566,9.8064,-0.1583,0.3393,-0.148,-26.31,-32.19,25.06,338.44,-84.6,-153.59
11613,52.512825,-1.354582,162.24,19.35,3,121.0,20 / 21,1161310,2020-01-08 10:35:07:984,-2.0375,-1.8547,9.5565,0.0282,0.0171,9.8066,-0.1202,-0.0954,0.1224,-25.81,-31.75,25.44,338.71,-84.73,-153.38
11614,52.512825,-1.354582,162.24,19.35,3,121.0,20 / 21,1161411,2020-01-08 10:35:08:085,0.9411,1.38,9.8942,-0.0076,-0.0152,9.8066,-0.0217,0.3429,-0.2001,-25.81,-32.25,25.81,342.34,-84.73,-151.2
11615,52.512825,-1.354582,162.24,19.35,3,121.0,20 / 21,1161511,2020-01-08 10:35:08:185,0.2701,0.6553,9.1611,0.0244,-0.0087,9.8065,-0.07,0.0924,-0.0342,-25.87,-32.25,25.75,340.68,-84.71,-152.72
11616,52.512825,-1.354582,162.24,19.35,3,121.0,20 / 21,1161610,2020-01-08 10:35:08:284,-2.0748,-2.073,10.8138,-0.0144,-0.0374,9.8065,-0.086,0.3681,-0.182,-25.37,-31.69,25.69,341.43,-84.75,-153.14
11617,52.512825,-1.354582,162.24,19.35,3,121.0,20 / 21,1161711,2020-01-08 10:35:08:385,-0.9019,0.1398,9.3879,0.0087,-0.0441,9.8065,-0.146,0.2847,-0.2446,-25.81,-32.12,25.75,341.29,-84.58,-152.12
11618,52.512825,-1.354582,162.24,19.35,3,121.0,20 / 21,1161811,2020-01-08 10:35:08:485,-0.7349,-2.2068,10.987,-0.0354,-0.0512,9.8064,0.0516,0.2428,-0.2505,-25.44,-31.5,25.38,343.11,-84.53,-150.42
11619,52.512825,-1.354582,162.24,19.35,3,121.0,20 / 21,1161911,2020-01-08 10:35:08:585,1.4925,1.7537,9.923,0.006,-0.0255,9.8065,-0.0809,0.3078,-0.0762,-25.81,-31.5,25.88,341.64,-84.58,-151.84
11620,52.512825,-1.354582,162.24,19.35,3,121.0,20 / 21,1162011,2020-01-08 10:35:08:685,0.2679,-0.1195,10.8062,-0.0389,-0.0169,9.8065,0.0774,0.208,-0.1567,-25.44,-31.25,25.75,342.84,-84.61,-151.85
11621,52.512825,-1.354582,162.24,19.35,3,121.0,20 / 21,1162111,2020-01-08 10:35:08:785,2.052,0.7271,9.8821,-0.0167,-0.0324,9.8066,0.0279,0.2384,-0.1661,-25.69,-32.0,26.0,344.12,-84.54,-149.52
11622,52.512825,-1.354582,162.24,19.35,3,121.0,20 / 21,1162211,2020-01-08 10:35:08:885,-2.028,-1.495,10.2511,-0.0283,-0.0029,9.8065,0.0875,0.1925,-0.0933,-25.75,-30.94,26.06,345.31,-84.59,-148.48
11623,52.512825,-1.354582,162.24,19.35,3,121.0,20 / 20,1162311,2020-01-08 10:35:08:985,0.9481,0.4449,10.283,-0.0165,-0.0297,9.8066,-0.0318,0.2639,-0.1959,-25.56,-31.37,26.31,344.03,-84.53,-149.63
11624,52.512825,-1.354582,162.24,19.35,3,121.0,20 / 20,1162411,2020-01-08 10:35:09:085,-1.7998,-1.3113,9.7537,0.0048,0.0124,9.8066,-0.0323,-0.1993,0.094,-25.62,-31.69,25.31,340.8,-84.69,-151.45
11625,52.512825,-1.354582,162.24,19.35,3,121.0,20 / 20,1162510,2020-01-08 10:35:09:184,0.7425,1.2811,9.2217,0.0079,-0.0203,9.8066,-0.0345,0.1688,-0.0669,-25.81,-32.06,25.81,342.33,-84.62,-151.18
11626,52.512825,-1.354582,162.24,19.35,3,121.0,20 / 20,1162611,2020-01-08 10:35:09:285,2.2513,1.513,8.9569,0.0089,0.038,9.8065,0.0564,-0.3712,0.1519,-25.87,-31.19,25.75,342.35,-84.59,-151.19
11627,52.512825,-1.354582,162.24,19.35,3,121.0,20 / 20,1162710,2020-01-08 10:35:09:384,-1.9608,-3.0492,11.3451,0.0123,0.0121,9.8066,0.1001,-0.2104,0.1621,-25.44,-31.31,25.88,342.2,-84.72,-152.47
11628,52.512825,-1.354582,162.24,19.35,3,121.0,20 / 20,1162810,2020-01-08 10:35:09:484,-1.561,-1.177,10.6509,-0.0101,0.0895,9.8061,0.2454,-0.2458,0.2361,-25.31,-32.0,25.94,342.29,-85.08,-152.45
11629,52.512825,-1.354582,162.24,19.35,3,121.0,20 / 20,1162910,2020-01-08 10:35:09:584,0.3458,0.2281,11.4154,-0.0626,0.0326,9.8063,0.2809,-0.0758,-0.1173,-25.5,-31.5,25.94,343.4,-84.95,-151.42
11630,52.512825,-1.354582,162.24,19.35,3,121.0,20 / 20,1163011,2020-01-08 10:35:09:685,-1.7275,0.4069,7.901,-0.0112,-0.0008,9.8066,-0.0625,-0.0326,0.0526,-25.75,-31.62,26.19,340.62,-84.85,-152.82
11631,52.512825,-1.354582,162.24,19.35,3,121.0,20 / 20,1163111,2020-01-08 10:35:09:785,0.0261,-0.4294,9.5927,0.0259,-0.0013,9.8066,0.0948,0.1171,-0.0975,-25.62,-31.62,26.31,343.11,-84.84,-150.52
11632,52.512825,-1.354582,162.24,19.35,3,121.0,20 / 20,1163211,2020-01-08 10:35:09:885,-1.0007,-2.1312,11.7071,0.0192,0.003,9.8066,-0.0339,-0.2002,0.006,-25.81,-31.5,26.38,342.08,-84.76,-151.49
11633,52.512825,-1.354582,162.24,19.35,3,121.0,20 / 21,1163311,2020-01-08 10:35:09:985,-2.8355,-3.4782,8.8725,0.0091,-0.0746,9.8063,-0.0924,-0.4436,0.388,-26.19,-31.25,25.75,342.95,-84.92,-150.73
11634,52.512825,-1.354582,162.24,19.35,3,121.0,20 / 21,1163411,2020-01-08 10:35:10:085,3.0886,4.4631,6.213,-0.0671,-0.0807,9.806,0.3264,-0.4219,0.5039,-26.5,-31.75,25.5,347.57,-84.66,-146.38
11635,52.512825,-1.354582,162.24,19.35,3,121.0,20 / 21,1163511,2020-01-08 10:35:10:185,-2.0511,-0.2871,11.6383,0.0106,-0.1118,9.806,0.3136,-0.4946,0.1164,-26.94,-31.5,25.75,346.71,-84.08,-146.02
11636,52.512825,-1.354582,162.24,19.35,3,121.0,20 / 21,1163611,2020-01-08 10:35:10:285,1.5486,3.3682,9.2352,0.0364,-0.0658,9.8063,-0.1104,0.0531,-0.2103,-25.94,-31.81,25.94,347.46,-83.85,-146.31
11637,52.512825,-1.354582,162.24,19.35,3,121.0,20 / 21,1163711,2020-01-08 10:35:10:385,-0.7075,0.101,7.7861,-0.0464,0.0506,9.8063,-0.1994,-0.3873,0.3403,-25.81,-31.81,26.0,344.32,-83.84,-149.14
11638,52.512825,-1.354582,162.24,19.35,3,121.0,20 / 21,1163811,2020-01-08 10:35:10:485,1.9544,3.2675,9.8643,-0.0524,0.0168,9.8064,-0.1724,0.416,-0.1081,-26.06,-32.0,25.63,343.32,-84.33,-150.19
11639,52.512825,-1.354582,162.24,19.35,3,121.0,20 / 21,1163911,2020-01-08 10:35:10:585,-0.1087,3.0376,7.1541,0.0357,0.0756,9.8062,-0.2246,0.1323,-0.2507,-25.5,-32.56,26.19,343.4,-84.34,-151.17
11640,52.512825,-1.354582,162.24,19.35,3,121.0,20 / 21,1164011,2020-01-08 10:35:10:685,-5.5424,-3.4957,9.8653,-0.0448,0.0532,9.8063,0.2184,0.4625,-0.5669,-25.56,-32.31,26.81,344.35,-84.68,-150.44
11641,52.512825,-1.354582,162.24,19.35,3,121.0,20 / 21,1164110,2020-01-08 10:35:10:784,2.8542,1.7248,12.7327,0.084,-0.0176,9.8062,0.1544,0.4967,-0.1077,-25.62,-32.37,26.63,340.72,-84.32,-153.67
11642,52.512825,-1.354582,162.24,19.35,3,121.0,21 / 21,1164211,2020-01-08 10:35:10:885,-1.8015,-2.9042,10.0306,0.0695,0.0235,9.8063,0.2713,0.1913,-0.1858,-26.19,-32.12,26.69,340.44,-84.41,-153.96
11643,52.51201,-1.35228,161.27,19.79,4,121.51,21 / 21,1164311,2020-01-08 10:35:10:985,4.1829,2.5778,13.11,0.0738,0.0255,9.8063,0.3986,0.5242,-0.5108,-25.31,-32.0,26.75,339.0,-84.43,-156.38
11644,52.51201,-1.35228,161.27,19.79,4,121.51,21 / 21,1164411,2020-01-08 10:35:11:085,-1.3256,-0.2155,9.6518,0.1627,-0.0033,9.8052,-0.2767,-0.0265,0.0406,-25.87,-32.56,26.44,332.43,-84.42,-160.14
11645,52.51201,-1.35228,161.27,19.79,4,121.51,21 / 21,1164511,2020-01-08 10:35:11:185,2.6226,0.5975,14.2203,-0.0809,0.0603,9.8061,-0.0125,-0.1474,-0.0077,-25.12,-32.0,26.69,336.95,-84.14,-158.15
11646,52.51201,-1.35228,161.27,19.79,4,121.51,21 / 21,1164610,2020-01-08 10:35:11:284,4.0875,4.2718,11.5496,-0.063,-0.0762,9.8061,-0.5056,-0.8653,0.7495,-25.5,-31.94,26.5,341.72,-84.17,-153.8
11647,52.51201,-1.35228,161.27,19.79,4,121.51,21 / 21,1164711,2020-01-08 10:35:11:385,-6.8862,-4.8192,8.4388,-0.1916,-0.1014,9.8042,-0.4287,-0.4886,0.5445,-25.81,-32.06,25.88,346.19,-84.19,-147.53
11648,52.51201,-1.35228,161.27,19.79,4,121.51,21 / 21,1164811,2020-01-08 10:35:11:485,2.981,3.7645,11.052,-0.0936,0.0063,9.8061,-0.0158,-0.4437,-0.0955,-25.87,-31.87,26.31,344.26,-84.18,-149.29
11649,52.51201,-1.35228,161.27,19.79,4,121.51,21 / 21,1164910,2020-01-08 10:35:11:584,-4.3487,-4.1409,10.8543,0.0087,-0.0521,9.8064,0.0165,-0.7516,0.7431,-26.37,-31.5,26.75,347.3,-84.09,-147.65
11650,52.51201,-1.35228,161.27,19.79,4,121.51,21 / 21,1165011,2020-01-08 10:35:11:685,-1.2323,4.1744,8.7371,-0.0123,-0.1339,9.8057,0.2651,0.4843,0.1383,-25.75,-31.5,26.81,346.69,-83.57,-148.09
11651,52.51201,-1.35228,161.27,19.79,4,121.51,21 / 21,1165111,2020-01-08 10:35:11:785,6.8798,1.1211,12.1502,0.1114,-0.0099,9.806,0.4403,0.2555,-0.5378,-26.06,-31.56,26.94,337.59,-83.36,-156.2
11652,52.51201,-1.35228,161.27,19.79,4,121.51,21 / 21,1165211,2020-01-08 10:35:11:885,-1.6046,1.8178,7.9873,0.0759,0.0609,9.8061,-0.114,0.5054,-0.5404,-25.37,-30.94,26.88,340.81,-83.5,-154.48
11653,52.51201,-1.35228,161.27,19.79,4,121.51,20 / 21,1165311,2020-01-08 10:35:11:985,5.3462,3.5523,10.8516,-0.0162,0.0457,9.8065,0.0356,0.8845,-0.1847,-26.0,-31.5,27.0,344.36,-83.34,-150.13
11654,52.51201,-1.35228,161.27,19.79,4,121.51,20 / 21,1165411,2020-01-08 10:35:12:085,-4.4225,-2.1652,11.1454,0.0647,0.0574,9.8062,-0.2599,0.0853,0.2588,-26.87,-32.0,26.75,342.02,-83.51,-151.19
11655,52.51201,-1.35228,161.27,19.79,4,121.51,20 / 21,1165510,2020-01-08 10:35:12:184,-7.7439,-2.7305,6.4731,-0.0415,0.0441,9.8064,0.1198,0.756,-0.7282,-26.06,-31.25,27.13,346.39,-83.66,-148.38
11656,52.51201,-1.35228,161.27,19.79,4,121.51,20 / 21,1165611,2020-01-08 10:35:12:285,-4.879,-5.7306,6.6096,0.1364,0.0782,9.8053,-0.4401,-0.4757,0.2683,-25.69,-31.06,27.5,342.31,-83.51,-153.11
11657,52.51201,-1.35228,161.27,19.79,4,121.51,20 / 21,1165711,2020-01-08 10:35:12:385,1.7267,0.5527,9.065,-0.1293,0.0172,9.8058,-0.1616,0.2192,-0.0335,-26.31,-30.81,26.88,338.7,-83.35,-155.25
11658,52.51201,-1.35228,161.27,19.79,4,121.51,20 / 21,1165810,2020-01-08 10:35:12:484,5.9039,4.396,10.5549,0.0016,0.0399,9.8065,-0.1807,-0.8309,0.635,-25.31,-31.0,27.31,342.58,-84.0,-153.02
11659,52.51201,-1.35228,161.27,19.79,4,121.51,20 / 21,1165911,2020-01-08 10:35:12:585,3.5416,1.7588,10.25,-0.0843,-0.0642,9.806,-0.0616,-0.3067,0.1828,-25.81,-30.81,27.0,340.28,-83.96,-154.02
11660,52.51201,-1.35228,161.27,19.79,4,121.51,20 / 21,1166011,2020-01-08 10:35:12:685,3.2484,2.7479,8.9893,-0.0211,-0.0372,9.8065,-0.1144,-0.6507,0.5069,-25.75,-32.06,26.63,344.06,-83.76,-150.47
11661,52.51201,-1.35228,161.27,19.79,4,121.51,20 / 21,1166111,2020-01-08 10:35:12:785,-3.1088,-2.5438,10.4677,-0.0644,-0.0623,9.8062,0.0517,-0.4906,0.2815,-25.87,-31.75,26.88,346.08,-83.62,-148.61
11662,52.51201,-1.35228,161.27,19.79,4,121.51,20 / 21,1166211,2020-01-08 10:35:12:885,2.4131,1.6056,10.5907,-0.0064,-0.0355,9.8066,-0.1651,-0.1583,0.0963,-25.75,-31.69,26.69,343.87,-83.61,-150.6
11663,52.51201,-1.35228,161.27,19.79,4,121.51,20 / 20,1166311,2020-01-08 10:35:12:985,-2.241,-2.0742,11.0089,-0.0265,0.0076,9.8065,0.1107,0.0499,-0.0356,-25.5,-31.31,27.38,343.77,-83.6,-151.83
11664,52.51201,-1.35228,161.27,19.79,4,121.51,20 / 20,1166411,2020-01-08 10:35:13:085,2.6766,1.7917,9.7904,-0.0239,-0.0245,9.8065,-0.0019,0.3172,-0.2653,-25.12,-31.5,26.88,343.2,-83.69,-152.38
11665,52.51201,-1.35228,161.27,19.79,4,121.51,20 / 20,1166510,2020-01-08 10:35:13:184,1.0321,0.6925,10.2047,0.0177,0.0065,9.8065,-0.0716,-0.1814,0.1551,-25.06,-31.06,27.19,340.06,-83.87,-155.28
11666,52.51201,-1.35228,161.27,19.79,4,121.51,20 / 20,1166611,2020-01-08 10:35:13:285,2.7589,2.4839,10.0514,-0.0101,-0.0263,9.8065,-0.097,0.1149,-0.0394,-25.44,-31.75,26.81,341.47,-83.87,-153.94
11667,52.51201,-1.35228,161.27,19.79,4,121.51,20 / 20,1166711,2020-01-08 10:35:13:385,0.3996,-0.1134,10.5614,0.0434,0.0031,9.8065,-0.0522,-0.3591,0.2528,-25.06,-31.31,26.5,342.26,-83.9,-153.29
11668,52.51201,-1.35228,161.27,19.79,4,121.51,20 / 20,1166811,2020-01-08 10:35:13:485,-3.0921,-2.0608,10.0494,0.0044,-0.02,9.8066,-0.0278,-0.1744,0.1107,-25.5,-31.87,26.94,341.65,-83.73,-153.73
11669,52.51201,-1.35228,161.27,19.79,4,121.51,20 / 20,1166910,2020-01-08 10:35:13:584,-0.2578,-0.1779,9.6584,0.0328,0.0321,9.8064,-0.0583,-0.2257,0.1653,-25.69,-31.25,26.81,339.37,-83.77,-154.78
11670,52.51201,-1.35228,161.27,19.79,4,121.51,20 / 20,1167011,2020-01-08 10:35:13:685,-1.5367,-1.2596,9.9586,0.0133,0.0218,9.8066,-0.0179,-0.2591,0.1075,-25.81,-31.31,26.75,339.78,-83.81,-154.42
11671,52.51201,-1.35228,161.27,19.79,4,121.51,20 / 20,1167111,2020-01-08 10:35:13:785,1.8043,0.8897,10.9785,0.0327,0.0008,9.8065,-0.1652,0.0223,0.027,-26.06,-31.75,26.63,338.58,-83.78,-155.45
11672,52.51201,-1.35228,161.27,19.79,4,121.51,19 / 20,1167210,2020-01-08 10:35:13:884,-2.6091,-0.9391,11.4355,0.007,0.0335,9.8065,-0.0201,-0.2063,0.1418,-26.06,-31.25,26.94,340.05,-83.92,-154.21
11673,52.51201,-1.35228,161.27,19.79,4,121.51,19 / 20,1167311,2020-01-08 10:35:13:985,-0.3897,-1.0034,10.343,0.0398,-0.0781,9.8062,-0.394,0.3362,-0.003,-25.94,-32.06,26.63,343.13,-84.15,-151.42
11674,52.51201,-1.35228,161.27,19.79,4,121.51,19 / 20,1167410,2020-01-08 10:35:14:084,0.8338,3.021,6.8372,-0.0034,-0.0531,9.8064,-0.3093,0.2812,-0.1261,-25.62,-31.25,26.5,345.38,-83.69,-149.3
11675,52.51201,-1.35228,161.27,19.79,4,121.51,19 / 20,1167510,2020-01-08 10:35:14:184,-1.7351,-2.1768,12.5343,0.0149,-0.0643,9.8064,0.0379,0.0427,-0.0396,-25.81,-31.56,27.69,346.62,-83.34,-149.13
11676,52.51201,-1.35228,161.27,19.79,4,121.51,19 / 20,1167611,2020-01-08 10:35:14:285,1.5751,1.9565,8.4598,0.0269,-0.0708,9.8063,-0.0434,0.3275,-0.1879,-26.37,-31.06,27.0,344.65,-83.17,-149.83
11677,52.51201,-1.35228,161.27,19.79,4,121.51,19 / 20,1167711,2020-01-08 10:35:14:385,-2.6658,-0.9556,9.5518,-0.038,0.0394,9.8064,0.1907,-0.1614,0.0435,-26.06,-31.31,26.88,342.09,-83.1,-152.12
11678,52.51201,-1.35228,161.27,19.79,4,121.51,19 / 20,1167811,2020-01-08 10:35:14:485,0.5131,-0.9463,11.1899,-0.0386,-0.0053,9.8066,0.2013,0.1385,-0.1406,-25.56,-30.87,27.19,342.53,-83.31,-151.78
11679,52.51201,-1.35228,161.27,19.79,4,121.51,19 / 20,1167911,2020-01-08 10:35:14:585,-1.0935,-1.3256,9.2344,-0.0223,0.0275,9.8065,0.0636,0.0417,0.0478,-25.87,-31.62,27.06,341.55,-83.28,-152.59
11680,52.51201,-1.35228,161.27,19.79,4,121.51,19 / 20,1168010,2020-01-08 10:35:14:684,2.3886,0.9381,11.5363,-0.069,-0.0158,9.8063,0.2295,0.2464,-0.2851,-25.75,-31.25,27.56,344.4,-83.4,-151.19
11681,52.51201,-1.35228,161.27,19.79,4,121.51,19 / 20,1168111,2020-01-08 10:35:14:785,-1.8514,-1.5818,7.9822,-0.0565,0.0039,9.8064,0.0701,0.2022,-0.1259,-25.69,-31.19,27.63,345.46,-83.5,-150.25
11682,52.51201,-1.35228,161.27,19.79,4,121.51,19 / 20,1168211,2020-01-08 10:35:14:885,4.584,1.5801,11.7714,-0.0952,0.0112,9.8062,0.3097,0.4061,-0.376,-25.94,-31.5,27.38,344.11,-83.52,-150.41
11683,52.51201,-1.35228,161.27,19.79,4,121.51,18 / 20,1168311,2020-01-08 10:35:14:985,-1.238,-1.7061,9.4822,-0.0273,-0.0211,9.8065,-0.0928,0.204,-0.067,-25.75,-31.37,26.88,342.86,-83.42,-151.51
11684,52.51201,-1.35228,161.27,19.79,4,121.51,18 / 20,1168411,2020-01-08 10:35:15:085,2.1974,0.794,11.0516,-0.1006,0.0,9.8061,0.2262,0.3779,-0.3453,-25.62,-31.56,27.06,344.24,-83.54,-150.25
11685,52.51201,-1.35228,161.27,19.79,4,121.51,18 / 20,1168510,2020-01-08 10:35:15:184,-3.0676,-0.281,8.6528,-0.0025,-0.0241,9.8066,-0.0837,0.007,0.0153,-25.87,-31.37,27.19,342.99,-83.56,-151.44
11686,52.51201,-1.35228,161.27,19.79,4,121.51,18 / 20,1168611,2020-01-08 10:35:15:285,0.8595,0.4195,9.9741,-0.0523,0.0023,9.8064,0.0975,0.1994,-0.1238,-25.25,-30.69,27.06,345.7,-83.52,-150.07
11687,52.51201,-1.35228,161.27,19.79,4,121.51,18 / 20,1168711,2020-01-08 10:35:15:385,0.1302,0.5192,9.2441,-0.0239,0.0068,9.8066,0.0232,-0.0739,-0.0203,-25.37,-30.75,26.88,345.88,-83.52,-149.9
11688,52.51201,-1.35228,161.27,19.79,4,121.51,18 / 20,1168811,2020-01-08 10:35:15:485,0.619,0.1716,10.3494,-0.0298,0.0156,9.8065,0.2119,0.0353,-0.0302,-26.12,-31.37,27.31,345.09,-83.47,-149.51
11689,52.51201,-1.35228,161.27,19.79,4,121.51,18 / 20,1168911,2020-01-08 10:35:15:585,1.0444,-0.5969,10.5145,-0.019,0.0134,9.8065,0.0895,0.0886,-0.0707,-26.31,-30.94,27.25,344.29,-83.32,-150.2
11690,52.51201,-1.35228,161.27,19.79,4,121.51,18 / 20,1169011,2020-01-08 10:35:15:685,-0.2606,-0.1395,9.9819,0.0183,-0.0117,9.8066,-0.087,0.0515,0.0259,-26.37,-31.37,27.0,343.17,-83.32,-151.21
11691,52.51201,-1.35228,161.27,19.79,4,121.51,18 / 20,1169110,2020-01-08 10:35:15:784,0.2069,-0.558,10.8051,0.0272,-0.0161,9.8066,-0.0405,0.0679,-0.0201,-26.56,-31.37,27.38,342.58,-83.35,-150.69
11692,52.51201,-1.35228,161.27,19.79,4,121.51,19 / 21,1169211,2020-01-08 10:35:15:885,-0.2946,0.319,9.0831,0.0317,-0.0229,9.8065,-0.162,0.0378,-0.0223,-25.94,-31.5,27.69,343.45,-83.25,-152.0
11693,52.51201,-1.35228,161.27,19.79,4,121.51,19 / 21,1169310,2020-01-08 10:35:15:984,0.2311,0.8116,10.3102,0.0053,0.0024,9.8066,0.0027,-0.0069,0.0173,-26.06,-30.75,27.31,342.63,-83.37,-151.71
11694,52.51201,-1.35228,161.27,19.79,4,121.51,19 / 21,1169411,2020-01-08 10:35:16:085,0.7264,-0.1787,9.4075,0.0117,-0.0005,9.8066,-0.0374,-0.0065,0.0448,-26.31,-31.06,27.75,344.18,-83.33,-151.36
11695,52.51201,-1.35228,161.27,19.79,4,121.51,19 / 21,1169510,2020-01-08 10:35:16:184,0.346,0.0865,9.9276,0.0026,0.0034,9.8066,0.0346,-0.0492,0.0271,-25.5,-30.62,27.13,344.97,-83.26,-150.66
11696,52.51201,-1.35228,161.27,19.79,4,121.51,19 / 21,1169612,2020-01-08 10:35:16:286,-0.2078,0.1621,9.6265,0.001,-0.0083,9.8065,0.0258,0.0622,0.0111,-25.56,-30.94,26.88,343.64,-83.24,-150.76
11697,52.51201,-1.35228,161.27,19.79,4,121.51,19 / 21,1169711,2020-01-08 10:35:16:385,-1.036,-0.0939,9.5218,-0.0047,0.009,9.8066,0.0631,-0.0951,0.0233,-25.62,-30.87,27.5,344.69,-83.12,-150.85
11698,52.51201,-1.35228,161.27,19.79,4,121.51,19 / 21,1169811,2020-01-08 10:35:16:485,-0.4273,-1.6794,10.8259,-0.0058,0.0054,9.8066,0.0945,-0.0603,-0.0176,-26.19,-30.75,27.19,343.09,-83.12,-151.23
11699,52.51201,-1.35228,161.27,19.79,4,121.51,19 / 21,1169911,2020-01-08 10:35:16:585,-0.5158,-0.134,9.3741,-0.0109,0.041,9.8065,0.0453,-0.1046,0.0467,-26.69,-30.75,27.38,341.03,-83.41,-152.12
11700,52.51201,-1.35228,161.27,19.79,4,121.51,19 / 21,1170011,2020-01-08 10:35:16:685,-0.2641,-1.062,10.6436,-0.0175,0.0237,9.8065,0.0899,-0.0905,0.0854,-25.87,-31.25,27.44,342.28,-83.49,-152.05
11701,52.51201,-1.35228,161.27,19.79,4,121.51,19 / 21,1170110,2020-01-08 10:35:16:784,0.8376,1.3424,9.4364,-0.0012,0.0289,9.8065,0.0604,-0.1089,0.0483,-25.5,-31.12,27.25,344.18,-83.42,-151.41
11702,52.51201,-1.35228,161.27,19.79,4,121.51,19 / 21,1170211,2020-01-08 10:35:16:885,-0.7046,-1.4615,10.2727,0.0049,0.0073,9.8065,0.0367,-0.1711,0.1227,-25.19,-31.25,27.44,343.8,-83.46,-151.77
11703,52.51201,-1.35228,161.27,19.79,4,121.51,20 / 21,1170311,2020-01-08 10:35:16:985,1.4596,0.8531,9.3522,0.0136,0.0296,9.8065,0.051,-0.1168,0.1288,-24.75,-30.69,27.63,344.67,-83.49,-152.06
11704,52.51201,-1.35228,161.27,19.79,4,121.51,20 / 21,1170410,2020-01-08 10:35:17:084,-0.3461,-0.4374,9.8476,0.0072,0.0188,9.8066,-0.0189,-0.0989,0.0425,-25.75,-31.5,27.88,343.46,-83.49,-152.06
11705,52.51201,-1.35228,161.27,19.79,4,121.51,20 / 21,1170511,2020-01-08 10:35:17:185,0.3499,0.109,10.6355,0.0043,-0.0059,9.8066,0.0254,0.009,-0.0754,-25.62,-31.31,27.69,343.39,-83.49,-152.13
11706,52.51201,-1.35228,161.27,19.79,4,121.51,20 / 21,1170610,2020-01-08 10:35:17:284,0.2849,-0.4569,10.4143,0.0153,0.0057,9.8066,0.0272,-0.0746,0.068,-25.87,-31.31,27.13,340.95,-83.47,-153.25
11707,52.51201,-1.35228,161.27,19.79,4,121.51,20 / 21,1170711,2020-01-08 10:35:17:385,0.9952,-0.2973,10.5629,-0.0185,-0.0049,9.8065,0.0387,0.0516,-0.036,-25.94,-31.0,27.94,343.11,-83.43,-152.36
11708,52.51201,-1.35228,161.27,19.79,4,121.51,20 / 21,1170810,2020-01-08 10:35:17:484,-0.0522,1.0498,8.4941,0.0002,-0.0125,9.8066,-0.0847,-0.01,0.0737,-26.19,-31.56,27.44,342.79,-83.44,-151.53
11709,52.51201,-1.35228,161.27,19.79,4,121.51,20 / 21,1170911,2020-01-08 10:35:17:585,-0.8013,-0.4856,9.6881,-0.0269,0.012,9.8065,0.0944,0.0183,0.0521,-26.31,-30.69,27.19,345.08,-83.41,-149.51
11710,52.51201,-1.35228,161.27,19.79,4,121.51,20 / 21,1171011,2020-01-08 10:35:17:685,1.2892,0.0453,10.739,-0.0432,-0.0115,9.8065,0.1726,0.127,-0.1323,-26.25,-31.31,27.19,348.0,-83.44,-146.88
11711,52.51201,-1.35228,161.27,19.79,4,121.51,20 / 21,1171111,2020-01-08 10:35:17:785,0.3007,2.2703,7.7339,-0.0624,0.0097,9.8064,-0.0051,0.2887,-0.1555,-26.0,-30.94,27.19,349.99,-83.47,-145.09
11712,52.51201,-1.35228,161.27,19.79,4,121.51,21 / 21,1171211,2020-01-08 10:35:17:885,2.6741,0.7747,12.478,-0.094,0.0479,9.8061,0.4227,0.2172,-0.2145,-26.37,-31.12,27.81,351.9,-83.54,-144.44
11713,52.51201,-1.35228,161.27,19.79,4,121.51,21 / 21,1171311,2020-01-08 10:35:17:985,-2.3682,-2.4052,10.13,-0.0295,-0.0505,9.8065,-0.1024,0.3956,-0.2362,-26.12,-30.81,27.63,349.28,-83.38,-146.78
11714,52.51201,-1.35228,161.27,19.79,4,121.51,21 / 21,1171411,2020-01-08 10:35:18:085,0.036,-1.5227,11.2794,-0.0521,-0.0033,9.8065,0.0933,0.294,-0.1884,-26.44,-30.5,27.5,350.9,-83.22,-145.31
11715,52.51201,-1.35228,161.27,19.79,4,121.51,21 / 21,1171511,2020-01-08 10:35:18:185,-0.4262,-1.1187,9.3667,-0.0024,-0.0522,9.8065,-0.1014,0.1958,-0.092,-26.37,-30.87,27.31,349.25,-82.93,-145.66
11716,52.51201,-1.35228,161.27,19.79,4,121.51,21 / 21,1171611,2020-01-08 10:35:18:285,0.5526,1.9785,8.5438,0.004,-0.0325,9.8066,-0.0633,0.2102,-0.1887,-26.06,-31.19,26.69,348.82,-83.01,-146.06
11717,52.51201,-1.35228,161.27,19.79,4,121.51,21 / 21,1171711,2020-01-08 10:35:18:385,-0.2102,-1.3324,9.4404,-0.0204,-0.012,9.8065,0.1782,0.0392,-0.0895,-26.0,-30.62,27.25,347.61,-83.12,-147.17
11718,52.51201,-1.35228,161.27,19.79,4,121.51,21 / 21,1171811,2020-01-08 10:35:18:485,0.7958,0.5494,8.7593,0.0056,-0.0162,9.8065,-0.0465,0.1191,-0.019,-26.56,-30.5,26.69,346.69,-83.05,-146.96
11719,52.51201,-1.35228,161.27,19.79,4,121.51,21 / 21,1171910,2020-01-08 10:35:18:584,-0.8051,2.2942,7.1772,-0.0773,0.069,9.806,0.3711,-0.1694,-0.0541,-26.12,-31.25,26.63,347.91,-83.01,-146.87
11720,52.51201,-1.35228,161.27,19.79,4,121.51,21 / 21,1172011,2020-01-08 10:35:18:685,-0.2289,0.1502,12.0975,0.0017,0.0225,9.8066,0.143,-0.0814,0.0224,-25.62,-31.37,26.5,349.66,-83.33,-145.37
11721,52.51201,-1.35228,161.27,19.79,4,121.51,21 / 21,1172111,2020-01-08 10:35:18:785,0.6957,0.5665,9.0393,-0.0409,0.0455,9.8064,0.104,0.0305,-0.0213,-25.94,-31.0,26.94,349.91,-83.39,-145.15
11722,52.51201,-1.35228,161.27,19.79,4,121.51,21 / 21,1172211,2020-01-08 10:35:18:885,-0.1205,0.2057,10.5292,-0.0266,0.0316,9.8065,0.0762,0.0291,-0.0079,-25.87,-30.62,27.0,349.03,-83.32,-145.93
11723,52.51201,-1.35228,161.27,19.79,4,121.51,20 / 21,1172310,2020-01-08 10:35:18:984,-0.4311,0.7874,9.2061,0.0053,-0.025,9.8066,-0.0834,0.1718,-0.0914,-26.31,-30.44,27.81,350.38,-83.35,-145.81
11724,52.51201,-1.35228,161.27,19.79,4,121.51,20 / 21,1172411,2020-01-08 10:35:19:085,0.1235,1.6362,9.9154,-0.0094,-0.0153,9.8066,0.047,0.14,-0.1874,-26.06,-30.69,27.13,348.99,-83.23,-145.95
11725,52.51201,-1.35228,161.27,19.79,4,121.51,20 / 21,1172511,2020-01-08 10:35:19:185,-2.4363,-1.3139,9.4425,-0.0257,-0.0231,9.8065,-0.0114,0.2824,-0.2011,-25.75,-31.12,27.31,347.13,-83.34,-147.65
11726,52.51201,-1.35228,161.27,19.79,4,121.51,20 / 21,1172611,2020-01-08 10:35:19:285,-1.1883,0.1549,9.9511,-0.0258,0.0144,9.8065,0.0226,0.1647,-0.0964,-25.94,-31.31,27.25,348.35,-83.44,-146.56
11727,52.51201,-1.35228,161.27,19.79,4,121.51,20 / 21,1172711,2020-01-08 10:35:19:385,-2.4436,-1.3611,9.6318,-0.0248,-0.0369,9.8065,-0.104,0.2646,-0.1504,-26.37,-31.12,27.69,350.08,-83.62,-146.09
11728,52.51201,-1.35228,161.27,19.79,4,121.51,20 / 21,1172811,2020-01-08 10:35:19:485,1.2908,1.7216,9.6244,-0.0308,-0.0264,9.8065,0.0832,-0.2168,0.1171,-25.81,-31.06,26.5,352.15,-83.5,-144.26
11729,52.51201,-1.35228,161.27,19.79,4,121.51,20 / 21,1172911,2020-01-08 10:35:19:585,-1.1454,-0.9596,10.9255,-0.0011,-0.0285,9.8065,0.0886,-0.2219,0.0962,-25.62,-31.37,27.44,350.23,-83.35,-144.85
11730,52.51201,-1.35228,161.27,19.79,4,121.51,20 / 21,1173010,2020-01-08 10:35:19:684,1.2816,1.9197,9.1123,0.0006,-0.0149,9.8066,-0.0371,0.1326,-0.1249,-25.44,-31.44,26.25,349.53,-83.38,-145.49
11731,52.51201,-1.35228,161.27,19.79,4,121.51,20 / 21,1173111,2020-01-08 10:35:19:785,1.0458,1.9216,8.9444,-0.0033,0.0243,9.8065,-0.01,-0.0437,0.0827,-26.06,-31.31,26.38,347.81,-83.48,-145.96
11732,52.51201,-1.35228,161.27,19.79,4,121.51,21 / 21,1173211,2020-01-08 10:35:19:885,-1.7307,-0.4572,10.3342,-0.0041,-0.0095,9.8066,-0.0606,0.1757,-0.1445,-25.37,-30.94,27.06,350.18,-83.59,-146.04
11733,52.51201,-1.35228,161.27,19.79,4,121.51,21 / 21,1173311,2020-01-08 10:35:19:985,-1.3663,-0.5682,9.9811,0.0116,0.0097,9.8066,-0.0082,0.02,0.0392,-26.75,-30.75,26.88,347.72,-83.55,-146.1
11734,52.51114,-1.350011,160.41,20.12,4,122.39,21 / 21,1173410,2020-01-08 10:35:20:084,-1.7499,0.2608,10.5097,-0.0088,-0.0008,9.8066,0.0598,0.1565,-0.0396,-25.94,-31.06,27.25,349.25,-83.51,-145.76
11735,52.51114,-1.350011,160.41,20.12,4,122.39,21 / 21,1173511,2020-01-08 10:35:20:185,0.2268,1.2149,9.7167,0.0191,0.0155,9.8066,-0.0944,-0.0692,-0.0791,-26.06,-31.25,26.5,350.21,-83.42,-144.89
11736,52.51114,-1.350011,160.41,20.12,4,122.39,21 / 21,1173610,2020-01-08 10:35:20:284,0.4009,1.4336,10.8218,-0.0306,-0.0049,9.8065,0.071,0.1353,-0.0663,-25.87,-30.69,27.13,350.77,-83.35,-144.37
11737,52.51114,-1.350011,160.41,20.12,4,122.39,21 / 21,1173710,2020-01-08 10:35:20:384,-0.3126,0.0845,9.8593,0.0305,-0.0212,9.8066,-0.0162,-0.0578,0.0016,-25.94,-31.37,27.13,349.71,-83.43,-145.34
11738,52.51114,-1.350011,160.41,20.12,4,122.39,21 / 21,1173810,2020-01-08 10:35:20:484,0.5836,1.0454,9.6114,0.0009,0.0048,9.8066,0.1205,0.1017,-0.1919,-26.0,-31.06,27.0,348.43,-83.33,-146.47
11739,52.51114,-1.350011,160.41,20.12,4,122.39,21 / 21,1173911,2020-01-08 10:35:20:585,0.5668,-0.2678,10.284,0.015,-0.0089,9.8066,-0.0162,-0.0711,0.1232,-26.31,-31.19,26.63,347.67,-83.3,-147.15
11740,52.51114,-1.350011,160.41,20.12,4,122.39,21 / 21,1174010,2020-01-08 10:35:20:684,1.2472,-0.25,10.7274,-0.0282,-0.0105,9.8066,0.1523,-0.0388,0.0265,-25.56,-31.25,27.06,349.34,-83.43,-145.67
11741,52.51114,-1.350011,160.41,20.12,4,122.39,21 / 21,1174111,2020-01-08 10:35:20:785,-0.7262,-0.5231,9.7249,-0.0173,0.0102,9.8066,0.0401,-0.12,0.0908,-26.37,-31.0,27.13,348.83,-83.41,-146.12
11742,52.51114,-1.350011,160.41,20.12,4,122.39,21 / 21,1174211,2020-01-08 10:35:20:885,1.6657,1.489,9.6508,-0.0166,0.035,9.8065,0.0481,-0.1458,0.0206,-26.94,-31.69,27.06,348.42,-83.33,-145.38
11743,52.51114,-1.350011,160.41,20.12,4,122.39,20 / 21,1174310,2020-01-08 10:35:20:984,-1.5129,-1.7279,10.2232,0.0211,0.0369,9.8065,0.0233,-0.2831,0.2231,-25.81,-30.44,26.63,350.01,-83.64,-145.13
11744,52.51114,-1.350011,160.41,20.12,4,122.39,20 / 21,1174411,2020-01-08 10:35:21:085,1.8197,0.6437,10.3927,0.0385,0.0257,9.8065,0.0152,-0.2062,0.0628,-25.87,-31.56,26.94,350.95,-83.58,-144.21
11745,52.51114,-1.350011,160.41,20.12,4,122.39,20 / 21,1174511,2020-01-08 10:35:21:185,-0.8763,-1.5256,10.7476,0.0548,0.0406,9.8063,-0.0372,-0.4523,0.3569,-26.12,-31.37,26.81,346.88,-83.68,-147.94
11746,52.51114,-1.350011,160.41,20.12,4,122.39,20 / 21,1174610,2020-01-08 10:35:21:284,3.2108,2.1749,10.6941,0.0383,0.0121,9.8065,-0.023,-0.0623,0.1336,-25.31,-31.19,27.06,347.3,-83.56,-148.63
11747,52.51114,-1.350011,160.41,20.12,4,122.39,20 / 21,1174711,2020-01-08 10:35:21:385,-0.5656,-0.3427,9.3429,0.0367,0.0214,9.8065,-0.0879,-0.3743,0.2073,-26.37,-31.31,27.06,346.99,-83.52,-147.81
11748,52.51114,-1.350011,160.41,20.12,4,122.39,20 / 21,1174811,2020-01-08 10:35:21:485,2.7373,1.9819,9.2987,0.0065,-0.0187,9.8066,-0.0997,0.1058,-0.0713,-25.94,-31.19,26.94,347.99,-83.45,-146.89
11749,52.51114,-1.350011,160.41,20.12,4,122.39,20 / 21,1174911,2020-01-08 10:35:21:585,-1.9305,-1.3476,9.5594,0.0526,0.0277,9.8064,-0.11,-0.1882,0.2684,-26.44,-31.0,26.75,347.44,-83.38,-147.37
11750,52.51114,-1.350011,160.41,20.12,4,122.39,20 / 21,1175011,2020-01-08 10:35:21:685,1.1476,0.8697,10.0958,0.0211,0.0002,9.8066,-0.0912,-0.0559,0.022,-26.44,-31.37,26.81,349.94,-83.42,-145.13
11751,52.51114,-1.350011,160.41,20.12,4,122.39,20 / 21,1175111,2020-01-08 10:35:21:785,0.1033,-0.153,10.5548,0.033,0.0294,9.8064,-0.0441,-0.1264,0.1347,-26.25,-30.87,27.06,348.19,-83.45,-146.71
11752,52.51114,-1.350011,160.41,20.12,4,122.39,20 / 20,1175211,2020-01-08 10:35:21:885,0.309,0.7487,10.3303,0.0297,-0.0111,9.8065,-0.0497,0.0014,0.0178,-26.0,-30.94,27.0,348.91,-83.4,-146.05
11753,52.51114,-1.350011,160.41,20.12,4,122.39,20 / 20,1175311,2020-01-08 10:35:21:985,-1.3198,0.1871,8.9157,0.0263,-0.0028,9.8066,-0.0905,-0.087,0.0942,-25.87,-31.12,26.88,346.93,-83.29,-147.81
11754,52.51114,-1.350011,160.41,20.12,4,122.39,20 / 20,1175411,2020-01-08 10:35:22:085,2.1249,0.9134,9.5045,0.0047,0.0253,9.8066,0.1833,-0.1994,0.0862,-26.31,-30.44,26.88,346.16,-83.27,-148.54
11755,52.51114,-1.350011,160.41,20.12,4,122.39,20 / 20,1175510,2020-01-08 10:35:22:184,-0.1701,0.7921,8.0381,0.0438,-0.0033,9.8065,-0.0517,-0.1144,0.1517,-26.31,-30.56,26.5,345.35,-83.1,-149.18
11756,52.51114,-1.350011,160.41,20.12,4,122.39,20 / 20,1175611,2020-01-08 10:35:22:285,1.1803,1.1006,8.8817,-0.0221,0.0506,9.8064,0.1334,-0.1715,0.0912,-25.94,-31.69,27.5,348.51,-83.4,-147.44
11757,52.51114,-1.350011,160.41,20.12,4,122.39,20 / 20,1175711,2020-01-08 10:35:22:385,0.0528,-0.5525,11.4344,-0.0153,0.0339,9.8065,0.1906,-0.2106,0.0383,-26.0,-31.25,26.56,347.64,-83.36,-147.19
11758,52.51114,-1.350011,160.41,20.12,4,122.39,20 / 20,1175811,2020-01-08 10:35:22:485,1.2112,2.0838,9.0715,-0.0012,-0.0065,9.8066,-0.0134,0.2014,-0.0891,-26.75,-30.69,27.38,345.27,-83.22,-148.23
11759,52.51114,-1.350011,160.41,20.12,4,122.39,20 / 20,1175910,2020-01-08 10:35:22:584,-0.0904,-0.5475,10.8693,-0.012,0.0321,9.8066,0.1133,0.0047,0.0309,-26.5,-31.0,27.06,346.0,-83.23,-148.63
11760,52.51114,-1.350011,160.41,20.12,4,122.39,20 / 20,1176010,2020-01-08 10:35:22:684,-2.2681,-1.3009,10.1898,-0.023,-0.0181,9.8066,-0.0035,0.2948,-0.2245,-25.69,-30.94,27.38,346.15,-83.08,-148.47
11761,52.51114,-1.350011,160.41,20.12,4,122.39,20 / 20,1176112,2020-01-08 10:35:22:786,2.9168,0.9893,9.6191,-0.0023,-0.0045,9.8066,-0.0103,0.2345,-0.142,-25.81,-31.0,27.25,344.62,-83.14,-149.85
11762,52.51114,-1.350011,160.41,20.12,4,122.39,20 / 20,1176211,2020-01-08 10:35:22:885,-0.5598,-0.4997,10.9056,-0.0227,-0.0214,9.8065,0.0754,0.2189,-0.1154,-25.62,-31.19,27.81,344.78,-83.24,-150.8
