,GPS LATITUDE (degrees),GPS LONGITUDE (degrees), GPS ALTITUDE (m),GPS SPEED (Kmh),GPS ACCURACY (m),GPS ORIENTATION (Â°), SATELLITES IN RANGE, TIME SINCE START (ms), DATE (YYYY-MO-DD HH-MI-SS_SSS),ACCELEROMETER X (m/s²) , ACCELEROMETER Y (m/s²), ACCELEROMETER Z (m/s²), GRAVITY X (m/s²), GRAVITY Y (m/s²), GRAVITY Z (m/s²), GYROSCOPE Yaw (rad/s), GYROSCOPE Pitch (rad/s), GYROSCOPE Roll (rad/s)
72531,47.306343,-1.63634,104.84,28.46,9.648001,148.7,13 / 21,7254297,2019-08-18 17:14:36:834,-0.7595,-0.4489,9.7141,-0.6928,-0.1986,9.7801,-0.0083,-0.0021,0.0222
72532,47.306343,-1.63634,104.84,28.46,9.648001,148.7,13 / 21,7254397,2019-08-18 17:14:36:934,-0.8696,0.1083,10.1229,-0.6944,-0.2086,9.7798,-0.0147,-0.0064,0.0215
72533,47.306343,-1.63634,104.84,28.46,9.648001,148.7,13 / 21,7254498,2019-08-18 17:14:37:035,-1.0283,-0.419,9.668,-0.6985,-0.215,9.7794,0.0018,0.0062,0.0232
72534,47.306343,-1.63634,104.84,28.46,9.648001,148.7,13 / 21,7254597,2019-08-18 17:14:37:134,-1.2611,-0.2711,9.6896,-0.7163,-0.2092,9.7782,0.0089,0.0095,0.0233
72535,47.306343,-1.63634,104.84,28.46,9.648001,148.7,13 / 21,7254697,2019-08-18 17:14:37:234,-1.1803,-0.1209,9.5777,-0.7188,-0.2002,9.7782,0.0135,0.0002,0.0223
72536,47.306343,-1.63634,104.84,28.46,9.648001,148.7,13 / 21,7254797,2019-08-18 17:14:37:334,-1.0217,-0.4998,9.1557,-0.7403,-0.1858,9.7769,-0.0024,0.009,0.0196
72537,47.306343,-1.63634,104.84,28.46,9.648001,148.7,13 / 21,7254897,2019-08-18 17:14:37:434,-1.1857,-0.173,9.6734,-0.7503,-0.1871,9.7761,0.0051,0.015,0.0196
72538,47.306343,-1.63634,104.84,28.46,9.648001,148.7,13 / 21,7254997,2019-08-18 17:14:37:534,-0.8553,-0.2813,9.8093,-0.773,-0.1795,9.7745,0.0006,-0.009,0.0215
72539,47.306343,-1.63634,104.84,28.46,9.648001,148.7,15 / 23,7255097,2019-08-18 17:14:37:634,-0.9259,-0.5722,9.9529,-0.7718,-0.1776,9.7746,-0.008,-0.0067,0.0196
72540,47.304474,-1.634276,100.09,29.2,5.36,139.1,15 / 23,7255197,2019-08-18 17:14:37:734,-0.7421,-0.2693,9.4514,-0.7753,-0.1815,9.7743,0.0121,0.0069,0.0241
72541,47.304474,-1.634276,100.09,29.2,5.36,139.1,15 / 23,7255297,2019-08-18 17:14:37:834,-0.8541,-0.0916,9.4735,-0.7819,-0.175,9.7739,0.0064,0.0105,0.0245
72542,47.304474,-1.634276,100.09,29.2,5.36,139.1,15 / 23,7255397,2019-08-18 17:14:37:934,-0.8337,-0.2508,9.5866,-0.8075,-0.1658,9.7719,-0.0052,0.003,0.0213
72543,47.304474,-1.634276,100.09,29.2,5.36,139.1,15 / 23,7255497,2019-08-18 17:14:38:034,-1.0959,0.0096,9.4873,-0.8108,-0.1664,9.7717,-0.0187,-0.0186,0.0191
72544,47.304474,-1.634276,100.09,29.2,5.36,139.1,15 / 23,7255597,2019-08-18 17:14:38:134,-0.9564,-0.2412,9.7518,-0.7945,-0.1864,9.7726,-0.0145,-0.0058,0.0215
72545,47.304474,-1.634276,100.09,29.2,5.36,139.1,15 / 23,7255697,2019-08-18 17:14:38:234,-1.1294,-0.1981,9.449,-0.7985,-0.1913,9.7722,0.0006,0.0044,0.0242
72546,47.304474,-1.634276,100.09,29.2,5.36,139.1,15 / 23,7255797,2019-08-18 17:14:38:334,-1.0276,-0.1999,9.2748,-0.8105,-0.1827,9.7714,0.006,0.0149,0.0251
72547,47.304474,-1.634276,100.09,29.2,5.36,139.1,15 / 23,7255897,2019-08-18 17:14:38:434,-0.9367,-0.0796,10.2833,-0.8248,-0.1774,9.7703,0.0031,0.0097,0.0251
72548,47.304474,-1.634276,100.09,29.2,5.36,139.1,15 / 23,7255997,2019-08-18 17:14:38:534,-1.1138,0.0557,10.181,-0.8227,-0.1684,9.7706,0.0084,-0.0066,0.0242
72549,47.304474,-1.634276,100.09,29.2,5.36,139.1,14 / 21,7256097,2019-08-18 17:14:38:634,-0.8188,0.0964,9.771,-0.8221,-0.163,9.7708,0.0062,-0.0094,0.0246
72550,47.304474,-1.634276,100.09,29.2,5.36,139.1,14 / 21,7256197,2019-08-18 17:14:38:734,-0.9457,-0.2256,10.0613,-0.8194,-0.1515,9.7712,0.0006,-0.0037,0.0239
72551,47.304474,-1.634276,100.09,29.2,5.36,139.1,14 / 21,7256296,2019-08-18 17:14:38:833,-0.951,-0.0245,9.5902,-0.8201,-0.1531,9.7711,-0.0098,-0.0048,0.0218
72552,47.304474,-1.634276,100.09,29.2,5.36,139.1,14 / 21,7256398,2019-08-18 17:14:38:935,-1.0941,-0.2047,9.8494,-0.8195,-0.172,9.7708,-0.0175,-0.0045,0.0187
72553,47.304474,-1.634276,100.09,29.2,5.36,139.1,14 / 21,7256497,2019-08-18 17:14:39:034,-0.8331,-0.2448,9.7447,-0.8181,-0.1782,9.7708,-0.011,-0.0005,0.0166
72554,47.304474,-1.634276,100.09,29.2,5.36,139.1,14 / 21,7256597,2019-08-18 17:14:39:134,-0.8499,-0.3262,9.5962,-0.8174,-0.1885,9.7707,-0.0031,-0.0029,0.0182
72555,47.304474,-1.634276,100.09,29.2,5.36,139.1,14 / 21,7256697,2019-08-18 17:14:39:234,-0.8589,-0.2861,10.3103,-0.811,-0.1883,9.7712,-0.0059,-0.0146,0.0167
72556,47.304474,-1.634276,100.09,29.2,5.36,139.1,14 / 21,7256797,2019-08-18 17:14:39:334,-0.951,-0.2448,9.4621,-0.7991,-0.1999,9.772,-0.0138,-0.0077,0.0161
72557,47.304474,-1.634276,100.09,29.2,5.36,139.1,14 / 21,7256897,2019-08-18 17:14:39:434,-0.7757,-0.2328,10.0212,-0.7964,-0.2078,9.7721,-0.0146,-0.0052,0.0168
72558,47.304474,-1.634276,100.09,29.2,5.36,139.1,14 / 21,7256997,2019-08-18 17:14:39:534,-0.8649,-0.2304,9.8799,-0.7955,-0.2216,9.7718,-0.0074,0.0005,0.0181
72559,47.304474,-1.634276,100.09,29.2,5.36,139.1,16 / 23,7257098,2019-08-18 17:14:39:635,-0.7769,-0.1784,9.6243,-0.7945,-0.2264,9.7718,-0.0032,-0.009,0.0185
72560,47.304474,-1.634276,100.09,29.2,5.36,139.1,16 / 23,7257197,2019-08-18 17:14:39:734,-0.802,0.0269,9.8219,-0.7847,-0.2274,9.7726,0.0049,-0.0074,0.0179
72561,47.304474,-1.634276,100.09,29.2,5.36,139.1,16 / 23,7257297,2019-08-18 17:14:39:834,-0.6853,-0.1383,9.8368,-0.7761,-0.2225,9.7734,-0.0039,-0.0073,0.0175
72562,47.304474,-1.634276,100.09,29.2,5.36,139.1,16 / 23,7257397,2019-08-18 17:14:39:934,-0.6835,-0.4172,10.0577,-0.7746,-0.2261,9.7734,-0.0096,0.01,0.0191
72563,47.304474,-1.634276,100.09,29.2,5.36,139.1,16 / 23,7257497,2019-08-18 17:14:40:034,-0.8038,-0.2071,9.7536,-0.7857,-0.2368,9.7723,-0.0069,0.0089,0.0202
72564,47.304474,-1.634276,100.09,29.2,5.36,139.1,16 / 23,7257597,2019-08-18 17:14:40:134,-0.6039,-0.7338,9.9643,-0.788,-0.2395,9.772,0.0021,-0.0108,0.0171
72565,47.304474,-1.634276,100.09,29.2,5.36,139.1,16 / 23,7257697,2019-08-18 17:14:40:234,-0.9343,-0.3053,10.2732,-0.7799,-0.2338,9.7728,0.0028,-0.0027,0.0157
72566,47.304474,-1.634276,100.09,29.2,5.36,139.1,16 / 23,7257797,2019-08-18 17:14:40:334,-0.8493,-0.4723,10.2684,-0.778,-0.2352,9.7729,0.002,-0.0072,0.0169
72567,47.304474,-1.634276,100.09,29.2,5.36,139.1,16 / 23,7257897,2019-08-18 17:14:40:434,-0.8086,-0.431,10.0966,-0.7664,-0.2318,9.7739,0.0031,-0.0074,0.0167
72568,47.304474,-1.634276,100.09,29.2,5.36,139.1,16 / 23,7257998,2019-08-18 17:14:40:535,-0.8595,-0.1478,9.674,-0.7663,-0.2336,9.7739,-0.0002,0.0005,0.0171
72569,47.304474,-1.634276,100.09,29.2,5.36,139.1,13 / 21,7258097,2019-08-18 17:14:40:634,-0.6302,-0.1628,9.5872,-0.7691,-0.2316,9.7737,-0.0056,0.0014,0.0169
72570,47.304474,-1.634276,100.09,29.2,5.36,139.1,13 / 21,7258197,2019-08-18 17:14:40:734,-0.741,-0.1981,9.4986,-0.7713,-0.2329,9.7735,-0.0124,-0.0043,0.0151
72571,47.304474,-1.634276,100.09,29.2,5.36,139.1,13 / 21,7258297,2019-08-18 17:14:40:834,-0.8756,-0.185,9.7584,-0.7768,-0.2441,9.7728,-0.0022,0.0087,0.0192
72572,47.304474,-1.634276,100.09,29.2,5.36,139.1,13 / 21,7258397,2019-08-18 17:14:40:934,-0.8738,-0.4268,10.5527,-0.7839,-0.2454,9.7722,-0.0023,-0.0018,0.0191
72573,47.304474,-1.634276,100.09,29.2,5.36,139.1,13 / 21,7258497,2019-08-18 17:14:41:034,-0.9989,-0.0682,10.0709,-0.783,-0.2485,9.7722,0.0063,-0.0047,0.0173
72574,47.304474,-1.634276,100.09,29.2,5.36,139.1,13 / 21,7258597,2019-08-18 17:14:41:134,-1.0546,-0.425,10.2845,-0.7812,-0.2438,9.7724,-0.0055,-0.0064,0.0193
72575,47.304474,-1.634276,100.09,29.2,5.36,139.1,13 / 21,7258697,2019-08-18 17:14:41:234,-0.644,-0.2071,9.9583,-0.785,-0.2512,9.772,0.0021,0.0043,0.0195
72576,47.304474,-1.634276,100.09,29.2,5.36,139.1,13 / 21,7258796,2019-08-18 17:14:41:333,-0.5153,-0.3621,9.6549,-0.7879,-0.2506,9.7717,-0.0047,0.0001,0.017
72577,47.304474,-1.634276,100.09,29.2,5.36,139.1,13 / 21,7258897,2019-08-18 17:14:41:434,-0.7924,-0.1221,9.3987,-0.7947,-0.2541,9.7711,-0.0038,-0.0067,0.0159
72578,47.304474,-1.634276,100.09,29.2,5.36,139.1,13 / 21,7258997,2019-08-18 17:14:41:534,-1.0061,-0.4764,9.9655,-0.7909,-0.2562,9.7713,-0.0046,-0.0078,0.0153
72579,47.304474,-1.634276,100.09,29.2,5.36,139.1,13 / 21,7259097,2019-08-18 17:14:41:634,-1.1683,-0.3358,9.4957,-0.789,-0.2645,9.7713,-0.0013,0.0027,0.0145
72580,47.304474,-1.634276,100.09,29.2,5.36,139.1,13 / 21,7259197,2019-08-18 17:14:41:734,-0.8002,-0.3352,10.0355,-0.7901,-0.2636,9.7712,0.0076,-0.0013,0.0183
72581,47.304474,-1.634276,100.09,29.2,5.36,139.1,13 / 21,7259297,2019-08-18 17:14:41:834,-0.4668,-0.407,9.9272,-0.788,-0.2576,9.7715,0.0008,0.0007,0.0161
72582,47.304474,-1.634276,100.09,29.2,5.36,139.1,13 / 21,7259397,2019-08-18 17:14:41:934,-0.7811,-0.1969,10.5,-0.7904,-0.2596,9.7713,-0.0026,-0.0135,0.0169
72583,47.304474,-1.634276,100.09,29.2,5.36,139.1,13 / 21,7259497,2019-08-18 17:14:42:034,-0.6859,-0.2664,10.436,-0.7715,-0.2615,9.7728,0.0019,-0.0192,0.0164
72584,47.304474,-1.634276,100.09,29.2,5.36,139.1,13 / 21,7259597,2019-08-18 17:14:42:134,-0.8828,-0.3561,10.1541,-0.7694,-0.2593,9.773,0.0033,0.0014,0.017
72585,47.304474,-1.634276,100.09,29.2,5.36,139.1,13 / 21,7259697,2019-08-18 17:14:42:234,-0.902,-0.167,9.3765,-0.7761,-0.2532,9.7726,0.0017,0.0055,0.0184
72586,47.304474,-1.634276,100.09,29.2,5.36,139.1,13 / 21,7259797,2019-08-18 17:14:42:334,-1.0318,-0.2729,9.923,-0.7875,-0.2518,9.7717,0.0037,0.0139,0.0196
72587,47.304474,-1.634276,100.09,29.2,5.36,139.1,13 / 21,7259897,2019-08-18 17:14:42:434,-0.9654,-0.3112,9.3047,-0.8012,-0.2454,9.7708,0.007,0.0086,0.0224
72588,47.304474,-1.634276,100.09,29.2,5.36,139.1,13 / 21,7259997,2019-08-18 17:14:42:534,-0.8607,-0.592,9.6788,-0.8018,-0.241,9.7708,-0.0019,-0.004,0.0217
72589,47.304474,-1.634276,100.09,29.2,5.36,139.1,13 / 22,7260097,2019-08-18 17:14:42:634,-0.7996,-0.0964,9.607,-0.8086,-0.2336,9.7705,0.0103,0.0089,0.0208
72590,47.304474,-1.634276,100.09,29.2,5.36,139.1,13 / 22,7260197,2019-08-18 17:14:42:734,-1.0989,-0.3094,10.424,-0.8133,-0.2281,9.7702,0.0013,0.0031,0.0209
72591,47.304474,-1.634276,100.09,29.2,5.36,139.1,13 / 22,7260299,2019-08-18 17:14:42:836,-1.0438,-0.3537,9.7542,-0.8154,-0.2248,9.7701,-0.0003,-0.0108,0.0209
72592,47.304474,-1.634276,100.09,29.2,5.36,139.1,13 / 22,7260397,2019-08-18 17:14:42:934,-1.0067,0.0808,9.8961,-0.8147,-0.2202,9.7703,0.0038,-0.0006,0.02
72593,47.304474,-1.634276,100.09,29.2,5.36,139.1,13 / 22,7260497,2019-08-18 17:14:43:034,-1.0755,0.2771,10.1564,-0.8144,-0.2184,9.7703,0.0,-0.0023,0.0231
72594,47.304474,-1.634276,100.09,29.2,5.36,139.1,13 / 22,7260596,2019-08-18 17:14:43:133,-0.9439,-0.0479,10.1924,-0.8173,-0.2126,9.7702,0.0045,0.0012,0.0246
72595,47.304474,-1.634276,100.09,29.2,5.36,139.1,13 / 22,7260697,2019-08-18 17:14:43:234,-1.1336,0.1185,9.6315,-0.8205,-0.2078,9.7701,-0.0018,0.0025,0.0274
72596,47.304474,-1.634276,100.09,29.2,5.36,139.1,13 / 22,7260797,2019-08-18 17:14:43:334,-0.9528,0.0982,9.774,-0.8283,-0.2057,9.7694,-0.011,-0.0013,0.0254
72597,47.304474,-1.634276,100.09,29.2,5.36,139.1,13 / 22,7260897,2019-08-18 17:14:43:434,-1.0947,0.0682,9.6465,-0.8286,-0.2088,9.7694,-0.0145,-0.0086,0.0252
72598,47.304474,-1.634276,100.09,29.2,5.36,139.1,13 / 22,7260997,2019-08-18 17:14:43:534,-0.9085,-0.0329,9.3137,-0.8233,-0.2092,9.7698,0.0035,-0.0002,0.026
72599,47.304474,-1.634276,100.09,29.2,5.36,139.1,13 / 22,7261097,2019-08-18 17:14:43:634,-1.0432,-0.2849,10.676,-0.8248,-0.2043,9.7698,0.0031,-0.0113,0.0241
72600,47.304474,-1.634276,100.09,29.2,5.36,139.1,13 / 22,7261197,2019-08-18 17:14:43:734,-1.0438,-0.1191,10.4587,-0.8174,-0.1919,9.7706,0.0024,-0.0165,0.0187
72601,47.304474,-1.634276,100.09,29.2,5.36,139.1,13 / 22,7261296,2019-08-18 17:14:43:833,-0.8385,0.0078,9.9452,-0.8091,-0.1905,9.7714,-0.0051,0.0013,0.0151
72602,47.304474,-1.634276,100.09,29.2,5.36,139.1,13 / 22,7261398,2019-08-18 17:14:43:935,-0.6356,-0.2059,9.4627,-0.8135,-0.195,9.7709,-0.0064,0.0037,0.016
72603,47.304474,-1.634276,100.09,29.2,5.36,139.1,13 / 22,7261497,2019-08-18 17:14:44:034,-0.8643,-0.152,9.2508,-0.8125,-0.2022,9.7708,-0.0064,0.0037,0.016
72604,47.304474,-1.634276,100.09,29.2,5.36,139.1,13 / 22,7261597,2019-08-18 17:14:44:134,-0.2495,-0.5573,10.1618,-0.8163,-0.1972,9.7706,-0.0013,0.0018,0.0163
72605,47.304474,-1.634276,100.09,29.2,5.36,139.1,13 / 22,7261697,2019-08-18 17:14:44:234,-0.7481,-0.2951,9.7686,-0.8162,-0.1963,9.7707,0.0064,-0.0025,0.0164
72606,47.304474,-1.634276,100.09,29.2,5.36,139.1,13 / 22,7261797,2019-08-18 17:14:44:334,-0.7056,-0.1137,9.5603,-0.8048,-0.1924,9.7717,-0.0114,0.005,0.0157
72607,47.304474,-1.634276,100.09,29.2,5.36,139.1,13 / 22,7261897,2019-08-18 17:14:44:434,-0.6913,-0.2334,10.0343,-0.8047,-0.1969,9.7716,-0.0103,-0.0009,0.0159
72608,47.304474,-1.634276,100.09,29.2,5.36,139.1,13 / 22,7261997,2019-08-18 17:14:44:534,-0.0849,-0.5758,9.9709,-0.7971,-0.2069,9.772,-0.0148,-0.0069,0.014
72609,47.304474,-1.634276,100.09,29.2,5.36,139.1,Nov-20,7262097,2019-08-18 17:14:44:634,-0.5482,-0.1389,9.8105,-0.7884,-0.2125,9.7726,-0.0034,0.0004,0.0123
72610,47.304474,-1.634276,100.09,29.2,5.36,139.1,Nov-20,7262197,2019-08-18 17:14:44:734,-0.5422,0.0264,10.2349,-0.7796,-0.2138,9.7733,0.0049,-0.0063,0.0144
72611,47.304474,-1.634276,100.09,29.2,5.36,139.1,Nov-20,7262297,2019-08-18 17:14:44:834,-0.6099,-0.1,10.1104,-0.7708,-0.2082,9.7741,0.0041,-0.0099,0.0132
72612,47.304474,-1.634276,100.09,29.2,5.36,139.1,Nov-20,7262397,2019-08-18 17:14:44:934,-0.5734,-0.343,9.8003,-0.7522,-0.2067,9.7756,-0.0069,0.002,0.0141
72613,47.304474,-1.634276,100.09,29.2,5.36,139.1,Nov-20,7262497,2019-08-18 17:14:45:034,-0.5045,-0.146,10.0433,-0.7509,-0.2107,9.7756,-0.0056,-0.0085,0.0137
72614,47.304474,-1.634276,100.09,29.2,5.36,139.1,Nov-20,7262597,2019-08-18 17:14:45:134,-0.4776,-0.1371,10.0822,-0.7348,-0.2128,9.7768,0.0094,-0.0117,0.0144
72615,47.304474,-1.634276,100.09,29.2,5.36,139.1,Nov-20,7262697,2019-08-18 17:14:45:234,-0.5764,-0.0587,9.6848,-0.7198,-0.2046,9.7781,0.0006,-0.0113,0.0168
72616,47.304474,-1.634276,100.09,29.2,5.36,139.1,Nov-20,7262797,2019-08-18 17:14:45:334,-0.5524,-0.0359,10.2301,-0.699,-0.1957,9.7797,0.0093,-0.0088,0.0142
72617,47.304474,-1.634276,100.09,29.2,5.36,139.1,Nov-20,7262897,2019-08-18 17:14:45:434,-0.3555,0.2119,9.698,-0.691,-0.1868,9.7805,0.0024,0.0043,0.0152
72618,47.304474,-1.634276,100.09,29.2,5.36,139.1,Nov-20,7262997,2019-08-18 17:14:45:534,-0.4028,-0.1239,10.0062,-0.6906,-0.1826,9.7806,-0.0067,0.0069,0.0141
72619,47.304474,-1.634276,100.09,29.2,5.36,139.1,Nov-20,7263097,2019-08-18 17:14:45:634,-0.237,-0.2131,9.7111,-0.6862,-0.187,9.7808,-0.0043,-0.0039,0.0139
72620,47.304474,-1.634276,100.09,29.2,5.36,139.1,Nov-20,7263197,2019-08-18 17:14:45:734,-0.371,-0.4603,10.1026,-0.6785,-0.1905,9.7813,-0.0074,0.0046,0.0153
72621,47.304474,-1.634276,100.09,29.2,5.36,139.1,Nov-20,7263297,2019-08-18 17:14:45:834,-0.6488,-0.1873,9.4771,-0.6771,-0.1894,9.7814,0.0036,0.0055,0.0169
72622,47.304474,-1.634276,100.09,29.2,5.36,139.1,Nov-20,7263397,2019-08-18 17:14:45:934,-0.5512,-0.146,10.09,-0.6789,-0.1845,9.7814,0.0005,0.0024,0.0175
72623,47.304474,-1.634276,100.09,29.2,5.36,139.1,Nov-20,7263497,2019-08-18 17:14:46:034,-1.0181,-0.0341,9.8237,-0.6821,-0.1825,9.7812,0.0011,0.0,0.0173
72624,47.304474,-1.634276,100.09,29.2,5.36,139.1,Nov-20,7263597,2019-08-18 17:14:46:134,-0.8601,-0.3765,10.0595,-0.6869,-0.1772,9.781,-0.0015,0.0017,0.0163
72625,47.304474,-1.634276,100.09,29.2,5.36,139.1,Nov-20,7263698,2019-08-18 17:14:46:235,-0.8283,-0.2741,10.0122,-0.6899,-0.1793,9.7807,-0.0102,0.0026,0.0146
72626,47.304474,-1.634276,100.09,29.2,5.36,139.1,Nov-20,7263797,2019-08-18 17:14:46:334,-0.7816,-0.3011,9.8883,-0.6909,-0.1891,9.7805,-0.0051,-0.0056,0.0147
72627,47.304474,-1.634276,100.09,29.2,5.36,139.1,Nov-20,7263897,2019-08-18 17:14:46:434,-0.5249,-0.3843,9.8063,-0.6905,-0.196,9.7803,-0.0076,-0.0049,0.0155
72628,47.304474,-1.634276,100.09,29.2,5.36,139.1,Nov-20,7263996,2019-08-18 17:14:46:533,-0.8672,-0.091,9.9805,-0.6898,-0.2013,9.7803,-0.0018,0.0051,0.0173
72629,47.304474,-1.634276,100.09,29.2,5.36,139.1,Dec-21,7264097,2019-08-18 17:14:46:634,-0.9732,-0.1311,10.0601,-0.6962,-0.2074,9.7797,-0.0042,0.0014,0.0164
72630,47.302845,-1.631821,99.78,29.29,7.504,129.8,Dec-21,7264197,2019-08-18 17:14:46:734,-0.732,-0.2382,9.6633,-0.7006,-0.2101,9.7793,-0.0029,0.0007,0.0172
72631,47.302845,-1.631821,99.78,29.29,7.504,129.8,Dec-21,7264297,2019-08-18 17:14:46:834,-0.8798,0.0329,9.7596,-0.7005,-0.2157,9.7792,-0.0023,-0.0036,0.0151
72632,47.302845,-1.631821,99.78,29.29,7.504,129.8,Dec-21,7264397,2019-08-18 17:14:46:934,-0.9881,-0.2987,9.1437,-0.6965,-0.2156,9.7795,0.0026,0.0049,0.0152
72633,47.302845,-1.631821,99.78,29.29,7.504,129.8,Dec-21,7264498,2019-08-18 17:14:47:035,-0.6332,0.0652,9.3837,-0.7068,-0.2166,9.7787,-0.0017,0.0101,0.0153
72634,47.302845,-1.631821,99.78,29.29,7.504,129.8,Dec-21,7264597,2019-08-18 17:14:47:134,-0.8559,-0.504,9.5842,-0.7119,-0.2179,9.7783,-0.002,0.0036,0.0158
72635,47.302845,-1.631821,99.78,29.29,7.504,129.8,Dec-21,7264698,2019-08-18 17:14:47:235,-0.732,-0.1634,9.3382,-0.7246,-0.2142,9.7775,0.0121,0.0066,0.0168
72636,47.302845,-1.631821,99.78,29.29,7.504,129.8,Dec-21,7264797,2019-08-18 17:14:47:334,-0.7793,-0.2891,10.2163,-0.7281,-0.2099,9.7773,0.0153,0.0119,0.017
72637,47.302845,-1.631821,99.78,29.29,7.504,129.8,Dec-21,7264897,2019-08-18 17:14:47:434,-0.9157,-0.486,9.8835,-0.744,-0.1936,9.7765,0.0167,0.0128,0.0169
72638,47.302845,-1.631821,99.78,29.29,7.504,129.8,Dec-21,7264997,2019-08-18 17:14:47:534,-0.8176,-0.2592,9.8183,-0.7549,-0.1833,9.7758,0.0168,0.0248,0.0182
72639,47.302845,-1.631821,99.78,29.29,7.504,129.8,Nov-21,7265097,2019-08-18 17:14:47:634,-1.1366,0.0437,9.361,-0.7877,-0.1622,9.7736,0.0267,0.0269,0.0269
72640,47.302845,-1.631821,99.78,29.29,7.504,129.8,Nov-21,7265197,2019-08-18 17:14:47:734,-1.0803,0.0581,9.0683,-0.8147,-0.1391,9.7718,0.0363,0.0277,0.0298
72641,47.302845,-1.631821,99.78,29.29,7.504,129.8,Nov-21,7265297,2019-08-18 17:14:47:834,-1.364,0.1155,10.2421,-0.8555,-0.0842,9.7689,0.0346,0.0148,0.0332
72642,47.302845,-1.631821,99.78,29.29,7.504,129.8,Nov-21,7265397,2019-08-18 17:14:47:934,-1.6047,0.0694,9.9523,-0.8667,-0.0641,9.7681,0.0216,0.0053,0.0282
72643,47.302845,-1.631821,99.78,29.29,7.504,129.8,Nov-21,7265497,2019-08-18 17:14:48:034,-1.0354,-0.1209,11.004,-0.8678,-0.0421,9.7681,0.0048,-0.0164,0.0206
72644,47.302845,-1.631821,99.78,29.29,7.504,129.8,Nov-21,7265597,2019-08-18 17:14:48:134,-1.0881,-0.0527,9.929,-0.8637,-0.0372,9.7685,0.0022,-0.0034,0.0227
72645,47.302845,-1.631821,99.78,29.29,7.504,129.8,Nov-21,7265697,2019-08-18 17:14:48:234,-0.9319,0.3956,9.4723,-0.8755,-0.0256,9.7675,0.0163,0.0056,0.0258
72646,47.302845,-1.631821,99.78,29.29,7.504,129.8,Nov-21,7265797,2019-08-18 17:14:48:334,-1.2695,0.1598,10.2462,-0.8778,-0.0167,9.7673,0.0045,0.0027,0.0265
72647,47.302845,-1.631821,99.78,29.29,7.504,129.8,Nov-21,7265897,2019-08-18 17:14:48:434,-0.9995,0.1832,9.838,-0.8883,-0.0132,9.7663,-0.0053,-0.0036,0.0252
72648,47.302845,-1.631821,99.78,29.29,7.504,129.8,Nov-21,7265997,2019-08-18 17:14:48:534,-1.0229,-0.2688,9.7321,-0.8919,-0.013,9.766,0.001,0.0076,0.0216
72649,47.302845,-1.631821,99.78,29.29,7.504,129.8,Nov-21,7266098,2019-08-18 17:14:48:635,-0.9133,-0.2161,9.9176,-0.9041,-0.013,9.7649,-0.0048,0.001,0.0137
72650,47.302845,-1.631821,99.78,29.29,7.504,129.8,Nov-21,7266197,2019-08-18 17:14:48:734,-0.9834,0.0282,9.5561,-0.9104,-0.0136,9.7643,0.0101,0.0142,0.0096
72651,47.302845,-1.631821,99.78,29.29,7.504,129.8,Nov-21,7266297,2019-08-18 17:14:48:834,-0.6781,-0.1365,10.1295,-0.9264,-0.0084,9.7628,0.0199,0.021,0.0087
72652,47.302845,-1.631821,99.78,29.29,7.504,129.8,Nov-21,7266398,2019-08-18 17:14:48:935,-0.7607,-0.3819,9.8997,-0.933,0.0002,9.7622,0.0175,0.0001,0.0054
72653,47.302845,-1.631821,99.78,29.29,7.504,129.8,Nov-21,7266497,2019-08-18 17:14:49:034,-0.802,-0.4908,10.1134,-0.9234,0.0053,9.7631,0.0104,-0.0104,0.0029
72654,47.302845,-1.631821,99.78,29.29,7.504,129.8,Nov-21,7266598,2019-08-18 17:14:49:135,-0.787,0.0826,9.3508,-0.9095,-0.0001,9.7644,-0.0063,-0.0111,-0.0006
72655,47.302845,-1.631821,99.78,29.29,7.504,129.8,Nov-21,7266697,2019-08-18 17:14:49:234,-0.6428,-0.2053,9.7027,-0.9038,-0.0316,9.7649,-0.0114,0.0204,-0.0006
72656,47.302845,-1.631821,99.78,29.29,7.504,129.8,Nov-21,7266797,2019-08-18 17:14:49:334,-0.6835,-0.5399,9.0192,-0.9141,-0.0401,9.7639,-0.0012,0.0186,0.0023
72657,47.302845,-1.631821,99.78,29.29,7.504,129.8,Nov-21,7266897,2019-08-18 17:14:49:434,-0.9474,-0.2238,9.765,-0.9208,-0.048,9.7632,0.0283,0.0116,0.0056
72658,47.302845,-1.631821,99.78,29.29,7.504,129.8,Nov-21,7266997,2019-08-18 17:14:49:534,-0.6338,-0.1149,9.5238,-0.9321,-0.03,9.7622,0.0325,0.0083,0.0044
72659,47.302845,-1.631821,99.78,29.29,7.504,129.8,13 / 23,7267097,2019-08-18 17:14:49:634,-0.6464,-0.1766,10.5096,-0.9306,-0.0144,9.7624,0.0282,0.0083,0.0048
72660,47.302845,-1.631821,99.78,29.29,7.504,129.8,13 / 23,7267197,2019-08-18 17:14:49:734,-0.8936,0.1993,10.2498,-0.9302,0.0142,9.7624,0.0358,0.0146,0.0078
72661,47.302845,-1.631821,99.78,29.29,7.504,129.8,13 / 23,7267297,2019-08-18 17:14:49:834,-0.9768,-0.0491,10.3821,-0.9357,0.0404,9.7618,0.0179,0.0029,0.016
72662,47.302845,-1.631821,99.78,29.29,7.504,129.8,13 / 23,7267397,2019-08-18 17:14:49:934,-1.1354,0.4627,9.7734,-0.9377,0.0668,9.7615,0.0027,-0.0065,0.0161
72663,47.302845,-1.631821,99.78,29.29,7.504,129.8,13 / 23,7267497,2019-08-18 17:14:50:034,-0.3698,0.0371,9.203,-0.9274,0.0696,9.7624,0.0013,0.0115,0.0165
72664,47.302845,-1.631821,99.78,29.29,7.504,129.8,13 / 23,7267597,2019-08-18 17:14:50:134,-0.6308,0.0982,9.3664,-0.9376,0.0836,9.7614,0.0104,0.0224,0.0195
72665,47.302845,-1.631821,99.78,29.29,7.504,129.8,13 / 23,7267697,2019-08-18 17:14:50:234,-0.6829,0.4393,9.6052,-0.9434,0.0938,9.7607,0.0218,0.0229,0.0219
72666,47.302845,-1.631821,99.78,29.29,7.504,129.8,13 / 23,7267797,2019-08-18 17:14:50:334,-0.9187,0.1975,9.9104,-0.9559,0.1276,9.7591,0.0184,0.0141,0.0206
72667,47.302845,-1.631821,99.78,29.29,7.504,129.8,13 / 23,7267897,2019-08-18 17:14:50:434,-0.7769,0.5638,9.7309,-0.9553,0.143,9.759,-0.0061,-0.0072,0.0127
72668,47.302845,-1.631821,99.78,29.29,7.504,129.8,13 / 23,7267997,2019-08-18 17:14:50:534,-0.65,0.3382,10.2798,-0.9342,0.1403,9.761,0.0022,-0.0099,0.0151
72669,47.302845,-1.631821,99.78,29.29,7.504,129.8,Nov-21,7268097,2019-08-18 17:14:50:634,-0.6458,0.067,10.005,-0.9267,0.1428,9.7617,0.0136,0.0121,0.0187
72670,47.302845,-1.631821,99.78,29.29,7.504,129.8,Nov-21,7268198,2019-08-18 17:14:50:735,-1.0582,0.3059,9.6962,-0.9433,0.164,9.7598,0.0016,0.0084,0.0156
72671,47.302845,-1.631821,99.78,29.29,7.504,129.8,Nov-21,7268298,2019-08-18 17:14:50:835,-1.0061,0.1754,9.7865,-0.9473,0.164,9.7594,-0.0101,-0.0016,0.009
72672,47.302845,-1.631821,99.78,29.29,7.504,129.8,Nov-21,7268397,2019-08-18 17:14:50:934,-0.9636,-0.3448,10.6347,-0.9412,0.1525,9.7602,0.0081,-0.0068,0.0079
72673,47.302845,-1.631821,99.78,29.29,7.504,129.8,Nov-21,7268497,2019-08-18 17:14:51:034,-1.1575,-0.182,9.9536,-0.9355,0.1578,9.7606,0.0056,-0.0158,0.0074
72674,47.302845,-1.631821,99.78,29.29,7.504,129.8,Nov-21,7268597,2019-08-18 17:14:51:134,-0.7906,-0.2699,10.5808,-0.9209,0.1533,9.7621,0.0008,-0.0011,0.0062
72675,47.302845,-1.631821,99.78,29.29,7.504,129.8,Nov-21,7268697,2019-08-18 17:14:51:234,-1.3317,0.0952,9.7099,-0.9224,0.1508,9.762,-0.0011,-0.0018,0.0064
72676,47.302845,-1.631821,99.78,29.29,7.504,129.8,Nov-21,7268797,2019-08-18 17:14:51:334,-1.048,0.3897,9.516,-0.918,0.1392,9.7626,-0.0197,0.0027,0.0056
72677,47.302845,-1.631821,99.78,29.29,7.504,129.8,Nov-21,7268897,2019-08-18 17:14:51:434,-0.8026,-0.3005,9.4059,-0.9146,0.1129,9.7633,-0.0246,-0.0049,0.0056
72678,47.302845,-1.631821,99.78,29.29,7.504,129.8,Nov-21,7268997,2019-08-18 17:14:51:534,-0.9169,-0.1251,10.1026,-0.9059,0.0872,9.7643,-0.0103,-0.0103,0.0074
72679,47.302845,-1.631821,99.78,29.29,7.504,129.8,Nov-21,7269097,2019-08-18 17:14:51:634,-1.2156,-0.2652,9.3406,-0.9053,0.0848,9.7644,-0.0143,-0.006,0.0072
72680,47.302845,-1.631821,99.78,29.29,7.504,129.8,14 / 22,7269197,2019-08-18 17:14:51:734,-0.9456,-0.0946,10.0308,-0.8998,0.0575,9.7651,-0.0174,-0.0079,0.0041
72681,47.302845,-1.631821,99.78,29.29,7.504,129.8,14 / 22,7269297,2019-08-18 17:14:51:834,-1.2258,-0.3041,9.8668,-0.8967,0.0446,9.7655,-0.0072,-0.0051,0.005
72682,47.302845,-1.631821,99.78,29.29,7.504,129.8,14 / 22,7269397,2019-08-18 17:14:51:934,-0.9923,-0.4321,10.3821,-0.8961,0.0285,9.7656,0.0,-0.001,0.004
72683,47.302845,-1.631821,99.78,29.29,7.504,129.8,14 / 22,7269497,2019-08-18 17:14:52:034,-1.2156,-0.4339,9.8925,-0.8969,0.0231,9.7655,0.0008,-0.0049,0.0002
72684,47.302845,-1.631821,99.78,29.29,7.504,129.8,14 / 22,7269597,2019-08-18 17:14:52:134,-1.2647,-0.3914,9.8554,-0.8927,0.011,9.7659,-0.0017,-0.0032,-0.0026
72685,47.302845,-1.631821,99.78,29.29,7.504,129.8,14 / 22,7269697,2019-08-18 17:14:52:234,-0.8391,-0.8015,10.1062,-0.8903,0.0051,9.7662,-0.0028,0.0026,-0.0033
72686,47.302845,-1.631821,99.78,29.29,7.504,129.8,14 / 22,7269797,2019-08-18 17:14:52:334,-1.1234,-0.4812,10.2438,-0.888,-0.0158,9.7663,0.0053,0.0038,-0.0027
72687,47.302845,-1.631821,99.78,29.29,7.504,129.8,14 / 22,7269897,2019-08-18 17:14:52:434,-0.9989,-0.6638,10.2426,-0.8873,-0.0191,9.7664,0.0023,-0.0013,-0.0048
72688,47.302845,-1.631821,99.78,29.29,7.504,129.8,14 / 22,7269997,2019-08-18 17:14:52:534,-0.659,-0.021,9.9841,-0.8849,-0.0273,9.7666,-0.0023,-0.0028,-0.0043
72689,47.302845,-1.631821,99.78,29.29,7.504,129.8,Oct-18,7270097,2019-08-18 17:14:52:634,-0.9181,-0.4232,8.9989,-0.8805,-0.0368,9.767,0.0089,0.0005,-0.0031
72690,47.302845,-1.631821,99.78,29.29,7.504,129.8,Oct-18,7270197,2019-08-18 17:14:52:734,-0.8487,-0.1873,9.6842,-0.8806,-0.0379,9.767,-0.0014,-0.0108,-0.004
72691,47.302845,-1.631821,99.78,29.29,7.504,129.8,Oct-18,7270297,2019-08-18 17:14:52:834,-0.6458,-0.2095,9.8865,-0.8712,-0.0502,9.7677,0.004,-0.0049,-0.0045
72692,47.302845,-1.631821,99.78,29.29,7.504,129.8,Oct-18,7270396,2019-08-18 17:14:52:933,-0.6009,-0.6261,9.2425,-0.8687,-0.0556,9.7679,0.0026,0.0088,-0.0026
72693,47.302845,-1.631821,99.78,29.29,7.504,129.8,Oct-18,7270497,2019-08-18 17:14:53:034,-0.7362,-0.0126,10.0541,-0.8704,-0.0727,9.7677,-0.0106,-0.0028,-0.0017
72694,47.302845,-1.631821,99.78,29.29,7.504,129.8,Oct-18,7270597,2019-08-18 17:14:53:134,-0.5919,-0.5525,9.5795,-0.8706,-0.0824,9.7676,-0.0133,0.0014,-0.0042
72695,47.302845,-1.631821,99.78,29.29,7.504,129.8,Oct-18,7270697,2019-08-18 17:14:53:234,-0.8589,-0.5836,9.3358,-0.8683,-0.11,9.7675,-0.0103,-0.0009,-0.0043
72696,47.302845,-1.631821,99.78,29.29,7.504,129.8,Oct-18,7270796,2019-08-18 17:14:53:333,-1.1372,-0.2322,9.8476,-0.8699,-0.1232,9.7672,-0.0108,0.0047,-0.0014
72697,47.302845,-1.631821,99.78,29.29,7.504,129.8,Oct-18,7270897,2019-08-18 17:14:53:434,-0.7469,-0.4711,9.9488,-0.8711,-0.1418,9.7669,0.0016,0.0051,-0.0008
72698,47.302845,-1.631821,99.78,29.29,7.504,129.8,Oct-18,7270997,2019-08-18 17:14:53:534,-0.8726,-0.3208,9.671,-0.8703,-0.1433,9.7669,0.0067,-0.0026,0.0006
72699,47.302845,-1.631821,99.78,29.29,7.504,129.8,15 / 23,7271097,2019-08-18 17:14:53:634,-0.9744,-0.1532,10.0445,-0.8669,-0.1454,9.7672,0.0048,0.0013,0.0021
72700,47.302845,-1.631821,99.78,29.29,7.504,129.8,15 / 23,7271197,2019-08-18 17:14:53:734,-0.808,-0.3777,10.3731,-0.8672,-0.1403,9.7672,0.0135,0.0009,0.0049
72701,47.302845,-1.631821,99.78,29.29,7.504,129.8,15 / 23,7271297,2019-08-18 17:14:53:834,-0.7691,-0.2005,10.2905,-0.8634,-0.1301,9.7677,0.0079,-0.008,0.0022
72702,47.302845,-1.631821,99.78,29.29,7.504,129.8,15 / 23,7271397,2019-08-18 17:14:53:934,-0.8505,-0.2556,10.2061,-0.8592,-0.1267,9.7681,-0.0037,-0.0171,-0.0007
72703,47.302845,-1.631821,99.78,29.29,7.504,129.8,15 / 23,7271496,2019-08-18 17:14:54:033,-0.7846,-0.4926,9.4717,-0.8443,-0.1373,9.7693,-0.008,0.0018,0.0006
72704,47.302845,-1.631821,99.78,29.29,7.504,129.8,15 / 23,7271597,2019-08-18 17:14:54:134,-0.9492,-0.3645,9.7087,-0.8453,-0.1452,9.7691,-0.0088,0.007,0.0033
72705,47.302845,-1.631821,99.78,29.29,7.504,129.8,15 / 23,7271697,2019-08-18 17:14:54:234,-1.0546,0.1323,9.288,-0.8567,-0.1564,9.7679,-0.0053,-0.005,0.0014
72706,47.302845,-1.631821,99.78,29.29,7.504,129.8,15 / 23,7271797,2019-08-18 17:14:54:334,-0.9271,-0.6141,9.0521,-0.857,-0.1613,9.7678,-0.002,-0.0013,-0.0006
72707,47.302845,-1.631821,99.78,29.29,7.504,129.8,15 / 23,7271897,2019-08-18 17:14:54:434,-1.0492,-0.2957,9.7638,-0.8581,-0.1766,9.7674,-0.0135,0.0036,-0.0008
72708,47.302845,-1.631821,99.78,29.29,7.504,129.8,15 / 23,7271997,2019-08-18 17:14:54:534,-0.8732,-0.6285,9.498,-0.8643,-0.1884,9.7667,0.0007,0.0069,-0.0008
72709,47.302845,-1.631821,99.78,29.29,7.504,129.8,13 / 21,7272097,2019-08-18 17:14:54:634,-0.9026,-0.1472,9.6142,-0.8716,-0.1942,9.7659,-0.0019,0.0012,0.0013
72710,47.302845,-1.631821,99.78,29.29,7.504,129.8,13 / 21,7272197,2019-08-18 17:14:54:734,-0.9409,-0.3609,9.8578,-0.8736,-0.2012,9.7656,-0.0001,0.0,0.001
72711,47.302845,-1.631821,99.78,29.29,7.504,129.8,13 / 21,7272297,2019-08-18 17:14:54:834,-0.8128,-0.5165,10.3665,-0.8746,-0.2042,9.7654,0.0035,-0.001,0.0
72712,47.302845,-1.631821,99.78,29.29,7.504,129.8,13 / 21,7272397,2019-08-18 17:14:54:934,-1.1288,-0.677,10.1894,-0.8771,-0.2035,9.7652,0.007,-0.0006,0.0003
72713,47.302845,-1.631821,99.78,29.29,7.504,129.8,13 / 21,7272497,2019-08-18 17:14:55:034,-0.4908,-0.1215,10.4426,-0.8737,-0.2081,9.7654,-0.002,-0.0061,0.0003
72714,47.302845,-1.631821,99.78,29.29,7.504,129.8,13 / 21,7272597,2019-08-18 17:14:55:134,-0.8571,-0.319,9.9727,-0.868,-0.2127,9.7658,-0.0097,-0.0062,0.0005
72715,47.302845,-1.631821,99.78,29.29,7.504,129.8,13 / 21,7272697,2019-08-18 17:14:55:234,-0.7918,-0.2257,9.9901,-0.8596,-0.23,9.7662,-0.0049,-0.0004,0.0005
72716,47.302845,-1.631821,99.78,29.29,7.504,129.8,13 / 21,7272798,2019-08-18 17:14:55:335,-0.717,-0.237,9.8123,-0.8566,-0.2344,9.7664,0.0037,-0.019,0.0013
72717,47.302845,-1.631821,99.78,29.29,7.504,129.8,13 / 21,7272897,2019-08-18 17:14:55:434,-0.6446,-0.1987,9.686,-0.8393,-0.2301,9.768,0.0059,-0.0079,-0.0002
72718,47.302845,-1.631821,99.78,29.29,7.504,129.8,13 / 21,7272997,2019-08-18 17:14:55:534,-0.8301,0.097,9.3155,-0.8471,-0.227,9.7674,0.0103,0.0201,0.002
72719,47.302845,-1.631821,99.78,29.29,7.504,129.8,14 / 22,7273097,2019-08-18 17:14:55:634,-0.7505,-0.1993,10.0098,-0.8627,-0.2212,9.7661,0.0085,0.0088,0.0009
72720,47.3014,-1.629023,102.02,29.05,8.576,125.8,14 / 22,7273197,2019-08-18 17:14:55:734,-0.7739,-0.3142,9.917,-0.8657,-0.218,9.7659,0.0049,-0.0077,0.0006
72721,47.3014,-1.629023,102.02,29.05,8.576,125.8,14 / 22,7273297,2019-08-18 17:14:55:834,-0.635,-0.2921,10.1134,-0.8597,-0.2174,9.7665,0.0085,0.0,-0.0006
72722,47.3014,-1.629023,102.02,29.05,8.576,125.8,14 / 22,7273397,2019-08-18 17:14:55:934,-0.9337,-0.3112,9.8985,-0.8521,-0.214,9.7672,0.0063,0.0098,-0.0008
72723,47.3014,-1.629023,102.02,29.05,8.576,125.8,14 / 22,7273497,2019-08-18 17:14:56:034,-0.8912,-0.0485,9.6543,-0.8584,-0.2139,9.7667,-0.0049,0.0026,-0.0003
72724,47.3014,-1.629023,102.02,29.05,8.576,125.8,14 / 22,7273597,2019-08-18 17:14:56:134,-1.0247,-0.2316,10.1696,-0.8596,-0.2245,9.7663,-0.011,0.0026,-0.0002
72725,47.3014,-1.629023,102.02,29.05,8.576,125.8,14 / 22,7273697,2019-08-18 17:14:56:234,-0.7302,-0.2484,9.7039,-0.8588,-0.232,9.7662,-0.0022,0.0065,-0.0005
72726,47.3014,-1.629023,102.02,29.05,8.576,125.8,14 / 22,7273797,2019-08-18 17:14:56:334,-0.6889,-0.4268,9.7572,-0.8567,-0.2419,9.7662,-0.002,0.0035,0.0006
72727,47.3014,-1.629023,102.02,29.05,8.576,125.8,14 / 22,7273897,2019-08-18 17:14:56:434,-0.9109,0.1245,9.3053,-0.8575,-0.2408,9.7661,0.008,0.007,0.0028
72728,47.3014,-1.629023,102.02,29.05,8.576,125.8,14 / 22,7273997,2019-08-18 17:14:56:534,-0.8433,-0.1939,10.4629,-0.8623,-0.2321,9.7659,0.0111,0.0197,0.0007
72729,47.3014,-1.629023,102.02,29.05,8.576,125.8,13 / 22,7274097,2019-08-18 17:14:56:634,-0.5542,0.0084,9.5561,-0.8677,-0.2301,9.7655,-0.0011,-0.0048,0.0009
72730,47.3014,-1.629023,102.02,29.05,8.576,125.8,13 / 22,7274200,2019-08-18 17:14:56:737,-0.9792,-0.0658,9.7865,-0.8455,-0.2467,9.767,-0.0241,-0.0199,-0.003
72731,47.3014,-1.629023,102.02,29.05,8.576,125.8,13 / 22,7274297,2019-08-18 17:14:56:834,-0.6434,-0.4902,9.6686,-0.8335,-0.2612,9.7677,-0.0109,0.0032,0.0005
72732,47.3014,-1.629023,102.02,29.05,8.576,125.8,13 / 22,7274396,2019-08-18 17:14:56:933,-0.7332,-0.3585,9.835,-0.8333,-0.2721,9.7674,-0.0006,0.0121,0.0029
72733,47.3014,-1.629023,102.02,29.05,8.576,125.8,13 / 22,7274497,2019-08-18 17:14:57:034,-0.7595,-0.4142,10.0882,-0.8415,-0.2698,9.7668,0.0072,0.0051,0.0021
72734,47.3014,-1.629023,102.02,29.05,8.576,125.8,13 / 22,7274597,2019-08-18 17:14:57:134,-0.6464,-0.0006,9.4699,-0.8406,-0.263,9.767,0.0091,-0.0029,0.0017
72735,47.3014,-1.629023,102.02,29.05,8.576,125.8,13 / 22,7274697,2019-08-18 17:14:57:234,-0.5979,-0.1035,9.5591,-0.8334,-0.2526,9.7679,0.0103,-0.0062,0.0005
72736,47.3014,-1.629023,102.02,29.05,8.576,125.8,13 / 22,7274797,2019-08-18 17:14:57:334,-1.042,-0.3364,9.7494,-0.8318,-0.2443,9.7683,0.011,-0.0023,0.0008
72737,47.3014,-1.629023,102.02,29.05,8.576,125.8,13 / 22,7274898,2019-08-18 17:14:57:435,-0.8026,-0.6081,10.0266,-0.825,-0.2435,9.7689,0.0007,-0.0026,-0.0012
72738,47.3014,-1.629023,102.02,29.05,8.576,125.8,13 / 22,7274997,2019-08-18 17:14:57:534,-0.9008,-0.486,10.1505,-0.823,-0.2424,9.769,0.0057,0.0084,0.0014
72739,47.3014,-1.629023,102.02,29.05,8.576,125.8,13 / 22,7275097,2019-08-18 17:14:57:634,-0.5883,-0.337,9.1126,-0.8288,-0.2405,9.7686,0.0098,0.0229,0.0023
72740,47.3014,-1.629023,102.02,29.05,8.576,125.8,13 / 22,7275197,2019-08-18 17:14:57:734,-0.8319,-0.2861,9.8811,-0.8626,-0.2251,9.766,0.0099,0.0219,0.0023
72741,47.3014,-1.629023,102.02,29.05,8.576,125.8,13 / 22,7275297,2019-08-18 17:14:57:834,-0.9708,-0.2975,9.9464,-0.8722,-0.2198,9.7653,0.0085,-0.0077,0.0005
72742,47.3014,-1.629023,102.02,29.05,8.576,125.8,13 / 22,7275396,2019-08-18 17:14:57:933,-0.9313,-0.5064,10.4473,-0.8503,-0.2118,9.7674,0.0029,-0.016,-0.0022
72743,47.3014,-1.629023,102.02,29.05,8.576,125.8,13 / 22,7275497,2019-08-18 17:14:58:034,-0.632,-0.428,9.7734,-0.8422,-0.2117,9.7681,0.0013,0.0018,-0.0004
72744,47.3014,-1.629023,102.02,29.05,8.576,125.8,13 / 22,7275597,2019-08-18 17:14:58:134,-0.7739,-0.3477,9.8464,-0.858,-0.2216,9.7665,-0.0059,0.0177,0.0002
72745,47.3014,-1.629023,102.02,29.05,8.576,125.8,13 / 22,7275697,2019-08-18 17:14:58:234,-1.0378,-0.2185,10.075,-0.8704,-0.228,9.7653,-0.0099,-0.0063,-0.0004
72746,47.3014,-1.629023,102.02,29.05,8.576,125.8,13 / 22,7275797,2019-08-18 17:14:58:334,-1.0318,-0.3508,9.9488,-0.8626,-0.241,9.7657,-0.0056,-0.0147,-0.0006
72747,47.3014,-1.629023,102.02,29.05,8.576,125.8,13 / 22,7275897,2019-08-18 17:14:58:434,-0.808,-0.2418,10.6951,-0.8533,-0.2477,9.7663,-0.0021,-0.0029,-0.0022
72748,47.3014,-1.629023,102.02,29.05,8.576,125.8,13 / 22,7275997,2019-08-18 17:14:58:534,-1.4245,-1.063,9.92,-0.8457,-0.2536,9.7668,-0.0015,-0.0068,0.0004
72749,47.3014,-1.629023,102.02,29.05,8.576,125.8,Dec-23,7276097,2019-08-18 17:14:58:634,-1.2407,-0.3675,10.3881,-0.8445,-0.2545,9.7669,-0.0057,-0.0081,0.0011
72750,47.3014,-1.629023,102.02,29.05,8.576,125.8,Dec-23,7276197,2019-08-18 17:14:58:734,-0.8008,-0.4423,10.5132,-0.8386,-0.2671,9.7671,-0.0064,-0.0051,-0.0012
72751,47.3014,-1.629023,102.02,29.05,8.576,125.8,Dec-23,7276297,2019-08-18 17:14:58:834,-0.8164,-0.3304,9.8626,-0.8331,-0.2755,9.7673,-0.0088,-0.0064,-0.0041
72752,47.3014,-1.629023,102.02,29.05,8.576,125.8,Dec-23,7276397,2019-08-18 17:14:58:934,-0.8277,-0.4669,9.8907,-0.8281,-0.2892,9.7673,-0.0072,-0.003,-0.0007
72753,47.3014,-1.629023,102.02,29.05,8.576,125.8,Dec-23,7276497,2019-08-18 17:14:59:034,-1.0121,-0.4154,10.008,-0.8324,-0.2913,9.7669,-0.0011,0.0036,-0.0001
72754,47.3014,-1.629023,102.02,29.05,8.576,125.8,Dec-23,7276597,2019-08-18 17:14:59:134,-0.8643,-0.1706,10.1965,-0.8353,-0.2927,9.7666,0.0053,-0.0076,-0.0008
72755,47.3014,-1.629023,102.02,29.05,8.576,125.8,Dec-23,7276697,2019-08-18 17:14:59:234,-0.8128,-0.1796,9.8183,-0.8292,-0.2908,9.7672,0.0041,-0.0106,-0.0007
72756,47.3014,-1.629023,102.02,29.05,8.576,125.8,Dec-23,7276797,2019-08-18 17:14:59:334,-0.5997,-0.6327,9.9296,-0.8197,-0.2883,9.7681,0.0043,0.0071,-0.0013
72757,47.3014,-1.629023,102.02,29.05,8.576,125.8,Dec-23,7276897,2019-08-18 17:14:59:434,-0.6649,-0.1766,9.7806,-0.8255,-0.2853,9.7677,-0.0037,0.0112,-0.0012
72758,47.3014,-1.629023,102.02,29.05,8.576,125.8,Dec-23,7276997,2019-08-18 17:14:59:534,-0.7637,-0.3729,9.832,-0.8318,-0.2916,9.767,-0.0012,0.0147,-0.0017
72759,47.3014,-1.629023,102.02,29.05,8.576,125.8,Nov-20,7277097,2019-08-18 17:14:59:634,-0.8601,-0.5513,9.5076,-0.8483,-0.3009,9.7653,-0.004,0.0005,-0.0013
72760,47.3014,-1.629023,102.02,29.05,8.576,125.8,Nov-20,7277197,2019-08-18 17:14:59:734,-0.9582,-0.2999,9.5082,-0.8484,-0.3026,9.7652,0.0021,-0.0018,-0.0017
72761,47.3014,-1.629023,102.02,29.05,8.576,125.8,Nov-20,7277297,2019-08-18 17:14:59:834,-0.878,-0.2717,10.0092,-0.8468,-0.3065,9.7652,-0.005,-0.007,-0.0015
72762,47.3014,-1.629023,102.02,29.05,8.576,125.8,Nov-20,7277397,2019-08-18 17:14:59:934,-0.8391,-0.4082,9.4358,-0.8444,-0.3089,9.7653,-0.0054,0.0055,-0.0034
72763,47.3014,-1.629023,102.02,29.05,8.576,125.8,Nov-20,7277497,2019-08-18 17:15:00:034,-0.9983,-0.5088,9.9847,-0.8468,-0.3155,9.7649,-0.0038,-0.0047,-0.003
72764,47.3014,-1.629023,102.02,29.05,8.576,125.8,Nov-20,7277598,2019-08-18 17:15:00:135,-0.7811,-0.5076,10.1469,-0.8426,-0.3177,9.7652,-0.0028,-0.0117,-0.0014
72765,47.3014,-1.629023,102.02,29.05,8.576,125.8,Nov-20,7277698,2019-08-18 17:15:00:235,-1.1186,-0.4687,9.5328,-0.8274,-0.3235,9.7663,-0.0014,-0.004,-0.0029
72766,47.3014,-1.629023,102.02,29.05,8.576,125.8,Nov-20,7277797,2019-08-18 17:15:00:334,-0.9229,0.0138,9.601,-0.8257,-0.3251,9.7664,-0.0058,0.0007,-0.0021
72767,47.3014,-1.629023,102.02,29.05,8.576,125.8,Nov-20,7277897,2019-08-18 17:15:00:434,-0.8379,-0.6788,9.6267,-0.8306,-0.3363,9.7656,-0.0056,0.0157,-0.0029
72768,47.3014,-1.629023,102.02,29.05,8.576,125.8,Nov-20,7277997,2019-08-18 17:15:00:534,-0.899,-0.4675,9.2179,-0.8391,-0.3438,9.7646,-0.0095,0.0043,-0.0005
72769,47.3014,-1.629023,102.02,29.05,8.576,125.8,14 / 23,7278097,2019-08-18 17:15:00:634,-0.6685,-0.1389,9.9679,-0.8436,-0.3526,9.7639,-0.0033,0.0045,0.0001
72770,47.3014,-1.629023,102.02,29.05,8.576,125.8,14 / 23,7278197,2019-08-18 17:15:00:734,-0.9474,-0.2077,10.1559,-0.8422,-0.3518,9.7641,0.0022,-0.0093,-0.0008
72771,47.3014,-1.629023,102.02,29.05,8.576,125.8,14 / 23,7278297,2019-08-18 17:15:00:834,-0.9828,-0.7596,10.3564,-0.8273,-0.3543,9.7653,0.0001,-0.0072,0.0029
72772,47.3014,-1.629023,102.02,29.05,8.576,125.8,14 / 23,7278398,2019-08-18 17:15:00:935,-0.866,-0.2071,10.0026,-0.8232,-0.3545,9.7656,0.0039,-0.0011,0.0021
72773,47.3014,-1.629023,102.02,29.05,8.576,125.8,14 / 23,7278497,2019-08-18 17:15:01:034,-0.9875,-0.4124,9.5777,-0.8217,-0.3458,9.766,0.0077,0.001,0.0009
72774,47.3014,-1.629023,102.02,29.05,8.576,125.8,14 / 23,7278597,2019-08-18 17:15:01:134,-0.7637,-0.5698,10.0852,-0.8229,-0.342,9.7661,0.0017,0.0007,0.0014
72775,47.3014,-1.629023,102.02,29.05,8.576,125.8,14 / 23,7278697,2019-08-18 17:15:01:234,-0.893,-0.2897,9.9482,-0.8234,-0.3424,9.766,0.0027,0.0006,-0.0008
72776,47.3014,-1.629023,102.02,29.05,8.576,125.8,14 / 23,7278797,2019-08-18 17:15:01:334,-0.9995,-0.1909,9.7656,-0.8231,-0.3403,9.7661,0.0054,-0.0031,0.0001
72777,47.3014,-1.629023,102.02,29.05,8.576,125.8,14 / 23,7278897,2019-08-18 17:15:01:434,-0.7936,-0.152,9.6363,-0.8194,-0.331,9.7667,0.0097,0.0047,0.0004
72778,47.3014,-1.629023,102.02,29.05,8.576,125.8,14 / 23,7278997,2019-08-18 17:15:01:534,-0.963,-0.6213,10.3181,-0.8245,-0.3281,9.7664,-0.0023,-0.015,-0.0005
72779,47.3014,-1.629023,102.02,29.05,8.576,125.8,14 / 23,7279097,2019-08-18 17:15:01:634,-0.7912,-0.3256,9.8416,-0.8112,-0.3354,9.7673,-0.0251,-0.0025,-0.0025
72780,47.3014,-1.629023,102.02,29.05,8.576,125.8,13 / 21,7279197,2019-08-18 17:15:01:734,-0.6979,-0.5626,9.2401,-0.8146,-0.3484,9.7665,-0.0161,0.0038,-0.0033
72781,47.3014,-1.629023,102.02,29.05,8.576,125.8,13 / 21,7279297,2019-08-18 17:15:01:834,-0.8164,-0.5543,9.5358,-0.8271,-0.3566,9.7652,-0.0001,0.0096,0.0014
72782,47.3014,-1.629023,102.02,29.05,8.576,125.8,13 / 21,7279397,2019-08-18 17:15:01:934,-0.9313,-0.4268,10.0314,-0.8259,-0.358,9.7653,0.0005,-0.0037,0.0006
72783,47.3014,-1.629023,102.02,29.05,8.576,125.8,13 / 21,7279497,2019-08-18 17:15:02:034,-0.7493,-0.3262,10.1451,-0.8151,-0.358,9.7662,-0.0033,-0.01,-0.0002
72784,47.3014,-1.629023,102.02,29.05,8.576,125.8,13 / 21,7279598,2019-08-18 17:15:02:135,-0.8164,-0.2161,9.6303,-0.8133,-0.3566,9.7664,-0.0019,0.0039,-0.0001
72785,47.3014,-1.629023,102.02,29.05,8.576,125.8,13 / 21,7279697,2019-08-18 17:15:02:234,-0.8253,-0.3322,9.4741,-0.8222,-0.3586,9.7655,-0.0014,0.0091,0.0019
72786,47.3014,-1.629023,102.02,29.05,8.576,125.8,13 / 21,7279797,2019-08-18 17:15:02:334,-0.7511,-0.4968,9.6094,-0.825,-0.3579,9.7653,0.0081,-0.0018,0.0018
72787,47.3014,-1.629023,102.02,29.05,8.576,125.8,13 / 21,7279897,2019-08-18 17:15:02:434,-0.9917,-0.2688,9.6447,-0.8239,-0.3525,9.7656,0.0045,-0.0026,0.0004
72788,47.3014,-1.629023,102.02,29.05,8.576,125.8,13 / 21,7279997,2019-08-18 17:15:02:534,-0.4722,-0.7913,10.0326,-0.8219,-0.346,9.766,-0.0013,-0.0009,-0.0017
72789,47.3014,-1.629023,102.02,29.05,8.576,125.8,14 / 23,7280097,2019-08-18 17:15:02:634,-0.8577,-0.2185,10.005,-0.8228,-0.3456,9.766,-0.0028,0.0023,-0.0012
72790,47.3014,-1.629023,102.02,29.05,8.576,125.8,14 / 23,7280197,2019-08-18 17:15:02:734,-0.8421,-0.2328,9.5651,-0.8238,-0.3498,9.7657,-0.0091,0.0004,0.0014
72791,47.3014,-1.629023,102.02,29.05,8.576,125.8,14 / 23,7280297,2019-08-18 17:15:02:834,-0.8708,-0.3986,9.4717,-0.8208,-0.3584,9.7657,-0.016,-0.01,0.0008
72792,47.3014,-1.629023,102.02,29.05,8.576,125.8,14 / 23,7280397,2019-08-18 17:15:02:934,-0.9199,-0.6698,9.8033,-0.8149,-0.3677,9.7658,-0.0087,0.0012,0.0021
72793,47.3014,-1.629023,102.02,29.05,8.576,125.8,14 / 23,7280497,2019-08-18 17:15:03:034,-0.7218,-0.4501,9.9015,-0.8193,-0.373,9.7652,0.0077,0.0138,0.0045
72794,47.3014,-1.629023,102.02,29.05,8.576,125.8,14 / 23,7280597,2019-08-18 17:15:03:134,-0.8858,-0.407,10.1636,-0.8349,-0.3604,9.7644,0.0152,0.0005,0.0043
72795,47.3014,-1.629023,102.02,29.05,8.576,125.8,14 / 23,7280697,2019-08-18 17:15:03:234,-1.0917,0.1425,10.2295,-0.8282,-0.3553,9.7652,-0.0018,-0.0163,0.004
72796,47.3014,-1.629023,102.02,29.05,8.576,125.8,14 / 23,7280797,2019-08-18 17:15:03:334,-0.79,-0.2765,9.9512,-0.8142,-0.3442,9.7667,0.0098,-0.0149,0.0063
72797,47.3014,-1.629023,102.02,29.05,8.576,125.8,14 / 23,7280897,2019-08-18 17:15:03:434,-0.7523,-0.2107,9.7758,-0.8106,-0.3355,9.7673,0.0068,-0.0114,0.0083
72798,47.3014,-1.629023,102.02,29.05,8.576,125.8,14 / 23,7280997,2019-08-18 17:15:03:534,-1.1318,-0.0449,9.674,-0.8131,-0.3316,9.7673,-0.0109,0.0036,0.0098
72799,47.3014,-1.629023,102.02,29.05,8.576,125.8,13 / 20,7281097,2019-08-18 17:15:03:634,-0.8966,0.1365,9.8542,-0.8211,-0.3323,9.7666,-0.0042,0.0066,0.009
72800,47.3014,-1.629023,102.02,29.05,8.576,125.8,13 / 20,7281196,2019-08-18 17:15:03:733,-0.802,0.0551,9.4454,-0.8284,-0.328,9.7661,0.0016,-0.0009,0.0082
72801,47.3014,-1.629023,102.02,29.05,8.576,125.8,13 / 20,7281297,2019-08-18 17:15:03:834,-1.0582,-0.0664,9.5376,-0.8275,-0.3226,9.7663,-0.0021,-0.0031,0.0066
72802,47.3014,-1.629023,102.02,29.05,8.576,125.8,13 / 20,7281397,2019-08-18 17:15:03:934,-0.5967,-0.2221,9.6219,-0.8302,-0.3198,9.7662,-0.0042,0.0005,0.006
72803,47.3014,-1.629023,102.02,29.05,8.576,125.8,13 / 20,7281498,2019-08-18 17:15:04:035,-1.1528,-0.0988,9.9913,-0.8352,-0.3215,9.7657,-0.0054,0.0057,0.0068
72804,47.3014,-1.629023,102.02,29.05,8.576,125.8,13 / 20,7281597,2019-08-18 17:15:04:134,-0.8696,0.0371,9.838,-0.8319,-0.3241,9.7659,-0.0125,-0.0137,0.0054
72805,47.3014,-1.629023,102.02,29.05,8.576,125.8,13 / 20,7281697,2019-08-18 17:15:04:234,-0.9068,-0.2969,9.5902,-0.8267,-0.3295,9.7662,-0.0023,-0.0004,0.006
72806,47.3014,-1.629023,102.02,29.05,8.576,125.8,13 / 20,7281797,2019-08-18 17:15:04:334,-0.8894,-0.2604,10.2307,-0.8243,-0.3305,9.7664,-0.0114,-0.0088,0.0077
72807,47.3014,-1.629023,102.02,29.05,8.576,125.8,13 / 20,7281897,2019-08-18 17:15:04:434,-0.8547,-0.316,10.4665,-0.8231,-0.3311,9.7664,-0.0006,-0.003,0.0077
72808,47.3014,-1.629023,102.02,29.05,8.576,125.8,13 / 20,7281998,2019-08-18 17:15:04:535,-0.6518,-0.0407,10.1924,-0.8224,-0.3245,9.7667,-0.0001,0.0057,0.0074
72809,47.3014,-1.629023,102.02,29.05,8.576,125.8,14 / 22,7282097,2019-08-18 17:15:04:634,-1.0522,0.0371,9.5106,-0.8282,-0.3231,9.7663,-0.0125,-0.0052,0.0067
72810,47.300064,-1.626251,97.7,28.29,6.432,125.2,14 / 22,7282197,2019-08-18 17:15:04:734,-0.5392,-0.243,9.61,-0.8271,-0.327,9.7662,-0.0006,0.0044,0.011
72811,47.300064,-1.626251,97.7,28.29,6.432,125.2,14 / 22,7282297,2019-08-18 17:15:04:834,-1.1653,-0.3292,10.0433,-0.829,-0.3248,9.7662,-0.0023,-0.0001,0.0093
72812,47.300064,-1.626251,97.7,28.29,6.432,125.2,14 / 22,7282397,2019-08-18 17:15:04:934,-0.9355,-0.1855,9.9745,-0.8233,-0.3167,9.7669,0.0009,-0.0037,0.01
72813,47.300064,-1.626251,97.7,28.29,6.432,125.2,14 / 22,7282497,2019-08-18 17:15:05:034,-0.7625,-0.3334,9.7668,-0.8211,-0.3143,9.7672,0.0031,-0.0011,0.0084
72814,47.300064,-1.626251,97.7,28.29,6.432,125.2,14 / 22,7282596,2019-08-18 17:15:05:133,-0.8625,-0.0096,9.6824,-0.8242,-0.3087,9.7671,0.0003,0.0037,0.0032
72815,47.300064,-1.626251,97.7,28.29,6.432,125.2,14 / 22,7282697,2019-08-18 17:15:05:234,-0.8415,-0.1311,9.5376,-0.8253,-0.3081,9.767,0.0114,0.011,0.0001
72816,47.300064,-1.626251,97.7,28.29,6.432,125.2,14 / 22,7282797,2019-08-18 17:15:05:334,-0.5482,-0.6464,9.7854,-0.8275,-0.3059,9.7669,0.0,-0.0049,-0.0042
72817,47.300064,-1.626251,97.7,28.29,6.432,125.2,14 / 22,7282897,2019-08-18 17:15:05:434,-0.4129,-0.5776,9.6178,-0.8157,-0.3061,9.7679,0.0013,-0.0036,-0.0103
72818,47.300064,-1.626251,97.7,28.29,6.432,125.2,14 / 22,7282998,2019-08-18 17:15:05:535,-0.4315,-0.7087,9.44,-0.81,-0.3145,9.7681,-0.0014,0.0041,-0.0139
72819,47.300064,-1.626251,97.7,28.29,6.432,125.2,14 / 23,7283097,2019-08-18 17:15:05:634,-0.544,-0.7548,9.4759,-0.8069,-0.3217,9.7681,0.0016,0.0042,-0.0149
72820,47.300064,-1.626251,97.7,28.29,6.432,125.2,14 / 23,7283197,2019-08-18 17:15:05:734,-0.4896,-0.729,10.017,-0.8084,-0.3244,9.7679,0.0044,0.0105,-0.0145
72821,47.300064,-1.626251,97.7,28.29,6.432,125.2,14 / 23,7283297,2019-08-18 17:15:05:834,-0.3106,-0.5519,9.6573,-0.7947,-0.33,9.7688,0.0039,-0.0033,-0.0152
72822,47.300064,-1.626251,97.7,28.29,6.432,125.2,14 / 23,7283397,2019-08-18 17:15:05:934,-0.3273,-0.3873,9.8638,-0.7858,-0.3358,9.7693,-0.0031,-0.0026,-0.014
72823,47.300064,-1.626251,97.7,28.29,6.432,125.2,14 / 23,7283497,2019-08-18 17:15:06:034,-0.6165,-0.9409,9.7387,-0.7679,-0.3444,9.7705,0.0027,0.0023,-0.0136
72824,47.300064,-1.626251,97.7,28.29,6.432,125.2,14 / 23,7283597,2019-08-18 17:15:06:134,-0.5518,-0.7356,9.8668,-0.7676,-0.3477,9.7704,0.0032,0.0073,-0.0124
72825,47.300064,-1.626251,97.7,28.29,6.432,125.2,14 / 23,7283697,2019-08-18 17:15:06:234,-0.3016,-0.3382,9.7039,-0.7647,-0.3538,9.7704,0.0082,-0.0018,-0.0125
72826,47.300064,-1.626251,97.7,28.29,6.432,125.2,14 / 23,7283797,2019-08-18 17:15:06:334,-0.2208,-0.6267,9.7614,-0.7564,-0.3544,9.771,0.0026,0.0049,-0.0111
72827,47.300064,-1.626251,97.7,28.29,6.432,125.2,14 / 23,7283897,2019-08-18 17:15:06:434,-0.5446,-0.7739,9.762,-0.7505,-0.364,9.7711,-0.0031,0.0002,-0.0135
72828,47.300064,-1.626251,97.7,28.29,6.432,125.2,14 / 23,7283997,2019-08-18 17:15:06:534,-0.6452,-0.8517,10.0709,-0.746,-0.3716,9.7712,0.0046,-0.0058,-0.0121
72829,47.300064,-1.626251,97.7,28.29,6.432,125.2,13 / 21,7284097,2019-08-18 17:15:06:634,-0.3094,-0.5195,9.7955,-0.7284,-0.3722,9.7725,0.0096,0.0005,-0.0087
72830,47.300064,-1.626251,97.7,28.29,6.432,125.2,13 / 21,7284197,2019-08-18 17:15:06:734,-0.3513,-0.2747,9.4232,-0.73,-0.3706,9.7724,-0.004,0.0051,-0.0093
72831,47.300064,-1.626251,97.7,28.29,6.432,125.2,13 / 21,7284297,2019-08-18 17:15:06:834,-0.3812,-0.5944,9.7973,-0.7291,-0.3799,9.7721,-0.0056,0.0076,-0.0074
72832,47.300064,-1.626251,97.7,28.29,6.432,125.2,13 / 21,7284397,2019-08-18 17:15:06:934,-0.6434,-0.4088,9.7746,-0.7307,-0.3852,9.7718,-0.0098,0.0082,-0.0067
72833,47.300064,-1.626251,97.7,28.29,6.432,125.2,13 / 21,7284497,2019-08-18 17:15:07:034,-0.6769,-0.5004,10.2307,-0.7193,-0.405,9.7719,-0.0148,-0.0108,-0.009
72834,47.300064,-1.626251,97.7,28.29,6.432,125.2,13 / 21,7284597,2019-08-18 17:15:07:134,-0.4004,-0.5351,10.2851,-0.7142,-0.4052,9.7722,0.0082,-0.0063,-0.0076
72835,47.300064,-1.626251,97.7,28.29,6.432,125.2,13 / 21,7284697,2019-08-18 17:15:07:234,-0.4806,-0.4154,10.081,-0.6929,-0.395,9.7742,0.0123,-0.0086,-0.0076
72836,47.300064,-1.626251,97.7,28.29,6.432,125.2,13 / 21,7284797,2019-08-18 17:15:07:334,-0.4034,-0.3513,9.9721,-0.6858,-0.3888,9.7749,0.0165,-0.004,-0.0074
72837,47.300064,-1.626251,97.7,28.29,6.432,125.2,13 / 21,7284897,2019-08-18 17:15:07:434,-0.5021,-0.4621,9.9823,-0.677,-0.3726,9.7762,0.0113,0.0109,-0.0073
72838,47.300064,-1.626251,97.7,28.29,6.432,125.2,13 / 21,7284997,2019-08-18 17:15:07:534,-0.3842,-0.4567,9.8332,-0.6819,-0.3626,9.7762,0.0147,0.0128,-0.0073
72839,47.300064,-1.626251,97.7,28.29,6.432,125.2,13 / 22,7285097,2019-08-18 17:15:07:634,-0.3082,-0.6051,9.5591,-0.6852,-0.357,9.7762,-0.0058,-0.0026,-0.0103
72840,47.300064,-1.626251,97.7,28.29,6.432,125.2,13 / 22,7285197,2019-08-18 17:15:07:734,-0.3962,-0.0575,9.4023,-0.6794,-0.3603,9.7765,-0.0042,0.006,-0.0108
72841,47.300064,-1.626251,97.7,28.29,6.432,125.2,13 / 22,7285297,2019-08-18 17:15:07:834,-0.41,-0.31,9.3795,-0.6729,-0.3705,9.7765,-0.0079,-0.0002,-0.0072
72842,47.300064,-1.626251,97.7,28.29,6.432,125.2,13 / 22,7285397,2019-08-18 17:15:07:934,-0.5009,-0.5291,9.9906,-0.6706,-0.3755,9.7765,-0.0095,0.0037,-0.0076
72843,47.300064,-1.626251,97.7,28.29,6.432,125.2,13 / 22,7285497,2019-08-18 17:15:08:034,-0.1939,-0.5495,9.753,-0.6571,-0.378,9.7773,0.0005,-0.0054,-0.0074
72844,47.300064,-1.626251,97.7,28.29,6.432,125.2,13 / 22,7285597,2019-08-18 17:15:08:134,-0.3238,-0.3609,9.4406,-0.6531,-0.379,9.7775,-0.002,0.0063,-0.0078
72845,47.300064,-1.626251,97.7,28.29,6.432,125.2,13 / 22,7285697,2019-08-18 17:15:08:234,-0.4578,-0.2262,9.7357,-0.6449,-0.3801,9.778,-0.0032,-0.0077,-0.0081
72846,47.300064,-1.626251,97.7,28.29,6.432,125.2,13 / 22,7285797,2019-08-18 17:15:08:334,-0.5805,-0.5339,10.1152,-0.6391,-0.3857,9.7782,-0.0062,-0.0002,-0.0097
72847,47.300064,-1.626251,97.7,28.29,6.432,125.2,13 / 22,7285897,2019-08-18 17:15:08:434,-0.486,-0.3537,9.9326,-0.6293,-0.382,9.779,0.006,-0.0061,-0.0017
72848,47.300064,-1.626251,97.7,28.29,6.432,125.2,13 / 22,7285997,2019-08-18 17:15:08:534,-0.404,0.1257,10.1032,-0.6256,-0.3738,9.7795,0.0089,-0.0026,0.0024
72849,47.300064,-1.626251,97.7,28.29,6.432,125.2,Dec-21,7286097,2019-08-18 17:15:08:634,-0.5063,0.0222,9.6668,-0.6176,-0.3689,9.7802,-0.0023,0.0044,0.0033
72850,47.300064,-1.626251,97.7,28.29,6.432,125.2,Dec-21,7286197,2019-08-18 17:15:08:734,-0.7607,0.0257,9.3233,-0.6283,-0.3595,9.7799,-0.0074,0.0004,0.0087
72851,47.300064,-1.626251,97.7,28.29,6.432,125.2,Dec-21,7286297,2019-08-18 17:15:08:834,-0.6763,-0.1628,9.8027,-0.6286,-0.3559,9.78,-0.0047,-0.0009,0.0057
72852,47.300064,-1.626251,97.7,28.29,6.432,125.2,Dec-21,7286397,2019-08-18 17:15:08:934,-0.8194,0.2065,9.7321,-0.6231,-0.3531,9.7805,-0.0092,-0.0102,0.0063
72853,47.300064,-1.626251,97.7,28.29,6.432,125.2,Dec-21,7286497,2019-08-18 17:15:09:034,-0.404,0.003,10.0367,-0.618,-0.3553,9.7807,-0.0171,-0.0148,0.002
72854,47.300064,-1.626251,97.7,28.29,6.432,125.2,Dec-21,7286597,2019-08-18 17:15:09:134,-0.3256,-0.1077,9.8308,-0.5989,-0.3658,9.7815,-0.0167,-0.0109,0.0049
72855,47.300064,-1.626251,97.7,28.29,6.432,125.2,Dec-21,7286697,2019-08-18 17:15:09:234,-0.7553,-0.1161,9.6034,-0.5975,-0.3684,9.7815,-0.006,0.0018,0.0057
72856,47.300064,-1.626251,97.7,28.29,6.432,125.2,Dec-21,7286797,2019-08-18 17:15:09:334,-0.7236,-0.2729,9.7422,-0.5993,-0.3655,9.7815,0.004,0.0055,0.0087
72857,47.300064,-1.626251,97.7,28.29,6.432,125.2,Dec-21,7286897,2019-08-18 17:15:09:434,-0.7942,0.1562,9.6453,-0.5999,-0.3576,9.7818,0.004,0.0005,0.0079
72858,47.300064,-1.626251,97.7,28.29,6.432,125.2,Dec-21,7286998,2019-08-18 17:15:09:535,-0.5243,-0.0509,9.4855,-0.6063,-0.341,9.782,0.0072,0.0083,0.0065
72859,47.300064,-1.626251,97.7,28.29,6.432,125.2,Dec-20,7287097,2019-08-18 17:15:09:634,-0.4836,-0.2137,10.196,-0.6109,-0.3301,9.782,0.0047,0.001,0.0061
72860,47.300064,-1.626251,97.7,28.29,6.432,125.2,Dec-20,7287197,2019-08-18 17:15:09:734,-0.486,-0.3304,10.4922,-0.599,-0.3105,9.7834,0.0113,-0.013,0.0047
72861,47.300064,-1.626251,97.7,28.29,6.432,125.2,Dec-20,7287296,2019-08-18 17:15:09:833,-0.4034,0.4244,10.3085,-0.5849,-0.2984,9.7846,0.0153,-0.0025,0.0041
72862,47.300064,-1.626251,97.7,28.29,6.432,125.2,Dec-20,7287397,2019-08-18 17:15:09:934,-0.565,-0.1041,10.3821,-0.5785,-0.273,9.7858,0.0117,-0.0053,0.0046
72863,47.300064,-1.626251,97.7,28.29,6.432,125.2,Dec-20,7287497,2019-08-18 17:15:10:034,-0.3321,-0.1371,9.534,-0.5751,-0.2621,9.7863,0.006,0.0039,0.0042
72864,47.300064,-1.626251,97.7,28.29,6.432,125.2,Dec-20,7287597,2019-08-18 17:15:10:134,-0.6536,0.0527,9.9332,-0.5775,-0.2488,9.7865,0.0168,0.0118,0.0027
72865,47.300064,-1.626251,97.7,28.29,6.432,125.2,Dec-20,7287697,2019-08-18 17:15:10:234,-0.6051,-0.3603,10.111,-0.5849,-0.2293,9.7865,0.0128,0.0118,0.0031
72866,47.300064,-1.626251,97.7,28.29,6.432,125.2,Dec-20,7287797,2019-08-18 17:15:10:334,-0.3507,-0.2406,9.6818,-0.5845,-0.2191,9.7868,0.0022,0.0011,0.0017
72867,47.300064,-1.626251,97.7,28.29,6.432,125.2,Dec-20,7287897,2019-08-18 17:15:10:434,-0.5751,0.009,9.3376,-0.59,-0.2184,9.7864,-0.005,0.0158,0.0017
72868,47.300064,-1.626251,97.7,28.29,6.432,125.2,Dec-20,7287997,2019-08-18 17:15:10:534,-0.7344,-0.1844,9.2903,-0.6157,-0.2325,9.7845,-0.0176,0.0172,0.0005
72869,47.300064,-1.626251,97.7,28.29,6.432,125.2,13 / 22,7288097,2019-08-18 17:15:10:634,-0.7422,-0.2598,9.5214,-0.6253,-0.2412,9.7837,-0.0132,0.0121,-0.0032
72870,47.300064,-1.626251,97.7,28.29,6.432,125.2,13 / 22,7288197,2019-08-18 17:15:10:734,-0.8894,-0.3011,9.4873,-0.63,-0.2647,9.7828,-0.0173,-0.0044,-0.004
72871,47.300064,-1.626251,97.7,28.29,6.432,125.2,13 / 22,7288297,2019-08-18 17:15:10:834,-0.5907,-0.4753,9.9649,-0.6284,-0.2744,9.7826,-0.0127,-0.0013,-0.0053
72872,47.300064,-1.626251,97.7,28.29,6.432,125.2,13 / 22,7288397,2019-08-18 17:15:10:934,-0.7188,-0.1784,10.2175,-0.6336,-0.2823,9.7821,0.0053,-0.0033,-0.0026
72873,47.300064,-1.626251,97.7,28.29,6.432,125.2,13 / 22,7288497,2019-08-18 17:15:11:034,-0.4818,-0.4651,10.1606,-0.6347,-0.2798,9.7821,0.0018,-0.0099,-0.003
72874,47.300064,-1.626251,97.7,28.29,6.432,125.2,13 / 22,7288597,2019-08-18 17:15:11:134,-0.4058,-0.1389,9.865,-0.6157,-0.2838,9.7832,0.0008,-0.0099,-0.0032
72875,47.300064,-1.626251,97.7,28.29,6.432,125.2,13 / 22,7288697,2019-08-18 17:15:11:234,-0.9008,-0.841,10.2037,-0.6168,-0.2845,9.7831,0.0113,0.009,-0.0017
72876,47.300064,-1.626251,97.7,28.29,6.432,125.2,13 / 22,7288797,2019-08-18 17:15:11:334,-0.2471,-0.4369,9.996,-0.6233,-0.2748,9.783,0.0175,-0.003,-0.0017
72877,47.300064,-1.626251,97.7,28.29,6.432,125.2,13 / 22,7288897,2019-08-18 17:15:11:434,-0.5656,-0.4836,10.4803,-0.6142,-0.2656,9.7838,0.0284,-0.0072,-0.0022
72878,47.300064,-1.626251,97.7,28.29,6.432,125.2,13 / 22,7288997,2019-08-18 17:15:11:534,-0.5596,-0.5411,10.2013,-0.6067,-0.2347,9.785,0.0212,-0.0027,-0.002
72879,47.300064,-1.626251,97.7,28.29,6.432,125.2,13 / 22,7289097,2019-08-18 17:15:11:634,-0.6374,-0.3693,10.1499,-0.6096,-0.2306,9.785,-0.0039,0.0117,-0.0053
72880,47.300064,-1.626251,97.7,28.29,6.432,125.2,13 / 22,7289197,2019-08-18 17:15:11:734,-0.5644,0.0611,9.777,-0.626,-0.2401,9.7837,-0.0072,0.0141,-0.0057
72881,47.300064,-1.626251,97.7,28.29,6.432,125.2,13 / 22,7289297,2019-08-18 17:15:11:834,-0.8206,-0.4333,9.3903,-0.6333,-0.2484,9.783,-0.0081,0.0103,-0.0014
72882,47.300064,-1.626251,97.7,28.29,6.432,125.2,13 / 22,7289397,2019-08-18 17:15:11:934,-1.2425,-0.0982,9.9883,-0.6397,-0.2638,9.7822,-0.0114,-0.0063,0.0001
72883,47.300064,-1.626251,97.7,28.29,6.432,125.2,13 / 22,7289497,2019-08-18 17:15:12:034,-0.7643,-0.6225,10.4886,-0.6291,-0.2659,9.7828,-0.0033,-0.0253,-0.0014
72884,47.300064,-1.626251,97.7,28.29,6.432,125.2,13 / 22,7289597,2019-08-18 17:15:12:134,-0.6871,-0.5172,9.583,-0.6158,-0.2674,9.7836,-0.0138,-0.006,-0.0022
72885,47.300064,-1.626251,97.7,28.29,6.432,125.2,13 / 22,7289697,2019-08-18 17:15:12:234,-0.8804,-0.3065,9.5998,-0.6201,-0.2838,9.7829,-0.0139,0.0033,-0.0028
72886,47.300064,-1.626251,97.7,28.29,6.432,125.2,13 / 22,7289797,2019-08-18 17:15:12:334,-0.562,-0.249,9.6555,-0.6263,-0.2953,9.7822,-0.0045,0.0106,-0.0023
72887,47.300064,-1.626251,97.7,28.29,6.432,125.2,13 / 22,7289897,2019-08-18 17:15:12:434,-0.8325,-0.8906,9.6339,-0.6397,-0.3129,9.7808,-0.0073,0.0076,-0.0042
72888,47.300064,-1.626251,97.7,28.29,6.432,125.2,13 / 22,7289996,2019-08-18 17:15:12:533,-0.6601,-0.735,10.0086,-0.647,-0.3167,9.7802,0.0031,-0.0005,-0.0022
72889,47.300064,-1.626251,97.7,28.29,6.432,125.2,13 / 23,7290096,2019-08-18 17:15:12:633,-0.796,-0.5974,9.5399,-0.6578,-0.3157,9.7795,0.0051,0.0017,-0.0026
72890,47.300064,-1.626251,97.7,28.29,6.432,125.2,13 / 23,7290197,2019-08-18 17:15:12:734,-0.8457,-0.2699,10.0786,-0.6597,-0.3172,9.7793,0.0078,-0.0027,-0.0035
72891,47.300064,-1.626251,97.7,28.29,6.432,125.2,13 / 23,7290297,2019-08-18 17:15:12:834,-0.9774,-0.6794,9.7548,-0.6649,-0.3137,9.7791,0.004,-0.0092,-0.0037
72892,47.300064,-1.626251,97.7,28.29,6.432,125.2,13 / 23,7290397,2019-08-18 17:15:12:934,-0.8858,-0.4447,10.0098,-0.6638,-0.3162,9.779,-0.0018,0.006,-0.0065
72893,47.300064,-1.626251,97.7,28.29,6.432,125.2,13 / 23,7290497,2019-08-18 17:15:13:034,-0.6973,-0.4872,9.8368,-0.6781,-0.3274,9.7777,-0.0055,0.0059,-0.0045
72894,47.300064,-1.626251,97.7,28.29,6.432,125.2,13 / 23,7290597,2019-08-18 17:15:13:134,-0.9564,-0.729,10.0343,-0.6841,-0.3314,9.7771,0.0121,0.0146,-0.0013
72895,47.300064,-1.626251,97.7,28.29,6.432,125.2,13 / 23,7290697,2019-08-18 17:15:13:234,-0.6428,-0.413,10.1181,-0.703,-0.3249,9.776,0.0107,0.003,-0.001
72896,47.300064,-1.626251,97.7,28.29,6.432,125.2,13 / 23,7290797,2019-08-18 17:15:13:334,-0.823,-0.4004,10.0882,-0.7038,-0.3242,9.776,0.0182,-0.0009,-0.0017
72897,47.300064,-1.626251,97.7,28.29,6.432,125.2,13 / 23,7290897,2019-08-18 17:15:13:434,-0.9606,-0.4549,9.5789,-0.7094,-0.3113,9.776,0.0018,-0.0025,-0.0043
72898,47.300064,-1.626251,97.7,28.29,6.432,125.2,13 / 23,7290997,2019-08-18 17:15:13:534,-0.7781,-0.1736,9.9547,-0.7099,-0.3121,9.7759,0.0031,0.0007,-0.004
72899,47.300064,-1.626251,97.7,28.29,6.432,125.2,13 / 23,7291097,2019-08-18 17:15:13:634,-0.948,-0.8787,10.3205,-0.7071,-0.3126,9.7761,0.0055,-0.0128,-0.0037
72900,47.29869,-1.6235,92.74,29.12,6.432,126.8,Oct-20,7291197,2019-08-18 17:15:13:734,-0.7457,-0.48,9.7165,-0.699,-0.3098,9.7768,0.0009,-0.0112,-0.0041
72901,47.29869,-1.6235,92.74,29.12,6.432,126.8,Oct-20,7291297,2019-08-18 17:15:13:834,-0.7386,-0.6387,9.9356,-0.6926,-0.3142,9.7771,0.0001,0.0039,-0.0022
72902,47.29869,-1.6235,92.74,29.12,6.432,126.8,Oct-20,7291397,2019-08-18 17:15:13:934,-0.641,-0.4908,10.1247,-0.6957,-0.3162,9.7768,-0.0005,0.0004,0.0002
72903,47.29869,-1.6235,92.74,29.12,6.432,126.8,Oct-20,7291497,2019-08-18 17:15:14:034,-0.8451,-0.5938,9.9601,-0.7036,-0.3164,9.7763,-0.0051,0.0029,0.0025
72904,47.29869,-1.6235,92.74,29.12,6.432,126.8,Oct-20,7291597,2019-08-18 17:15:14:134,-0.6691,-0.255,9.7297,-0.7075,-0.3193,9.7759,-0.006,0.0023,0.0026
72905,47.29869,-1.6235,92.74,29.12,6.432,126.8,Oct-20,7291697,2019-08-18 17:15:14:234,-0.802,-0.4214,9.7985,-0.7189,-0.3167,9.7751,0.0028,0.0089,0.0047
72906,47.29869,-1.6235,92.74,29.12,6.432,126.8,Oct-20,7291797,2019-08-18 17:15:14:334,-0.96,0.079,9.416,-0.7246,-0.318,9.7747,-0.0083,0.0068,0.0042
72907,47.29869,-1.6235,92.74,29.12,6.432,126.8,Oct-20,7291897,2019-08-18 17:15:14:434,-0.8762,-0.3699,9.3322,-0.74,-0.3228,9.7734,-0.0063,0.0026,0.0061
72908,47.29869,-1.6235,92.74,29.12,6.432,126.8,Oct-20,7291997,2019-08-18 17:15:14:534,-1.0163,-0.1359,10.512,-0.7413,-0.3215,9.7733,0.0028,-0.002,0.0069
72909,47.29869,-1.6235,92.74,29.12,6.432,126.8,Nov-20,7292097,2019-08-18 17:15:14:634,-0.8511,-0.0658,9.8991,-0.7452,-0.3135,9.7733,-0.0027,0.0026,0.006
72910,47.29869,-1.6235,92.74,29.12,6.432,126.8,Nov-20,7292197,2019-08-18 17:15:14:734,-0.7685,-0.0275,9.786,-0.7452,-0.3181,9.7731,-0.0128,-0.0055,0.0071
72911,47.29869,-1.6235,92.74,29.12,6.432,126.8,Nov-20,7292297,2019-08-18 17:15:14:834,-0.9792,-0.2382,10.0272,-0.7469,-0.3193,9.773,-0.0049,-0.0011,0.0046
