,GPS LATITUDE (degrees),GPS LONGITUDE (degrees), GPS ALTITUDE (m),GPS SPEED (Kmh),GPS ACCURACY (m),GPS ORIENTATION (Â°), SATELLITES IN RANGE, TIME SINCE START (ms), DATE (YYYY-MO-DD HH-MI-SS_SSS),ACCELEROMETER X (m/s²) , ACCELEROMETER Y (m/s²), ACCELEROMETER Z (m/s²), GRAVITY X (m/s²), GRAVITY Y (m/s²), GRAVITY Z (m/s²), GYROSCOPE Yaw (rad/s), GYROSCOPE Pitch (rad/s), GYROSCOPE Roll (rad/s)
62784,46.495575,-0.975016,83.04,36.26,3.216,117.5,16 / 19,6278411,2019-08-09 21:58:47:149,-0.4859,-0.1226,10.0565,-0.5707,-0.1778,9.7884,-0.0044,0.0366,0.0017
62785,46.495575,-0.975016,83.04,36.26,3.216,117.5,16 / 19,6278510,2019-08-09 21:58:47:248,-0.004,-0.1142,9.3185,-0.5989,-0.1807,9.7867,-0.0024,-0.0307,-0.0011
62786,46.495575,-0.975016,83.04,36.26,3.216,117.5,14 / 17,6278611,2019-08-09 21:58:47:349,-0.1429,0.2731,9.2748,-0.5844,-0.1715,9.7877,0.0056,-0.0313,-0.0308
62787,46.495575,-0.975016,83.04,36.26,3.216,117.5,14 / 17,6278710,2019-08-09 21:58:47:448,-2.4575,-0.1765,9.9943,-0.5884,-0.1637,9.7876,0.0026,0.0246,0.0089
62788,46.495575,-0.975016,83.04,36.26,3.216,117.5,14 / 17,6278810,2019-08-09 21:58:47:548,-1.5249,-0.2483,10.0936,-0.5969,-0.1592,9.7872,0.0053,0.0253,-0.0122
62789,46.495575,-0.975016,83.04,36.26,3.216,117.5,14 / 17,6278910,2019-08-09 21:58:47:648,-1.7015,-0.0226,9.9206,-0.6022,-0.1601,9.7868,-0.0014,-0.0177,-0.023
62790,46.495575,-0.975016,83.04,36.26,3.216,117.5,14 / 17,6279010,2019-08-09 21:58:47:748,-0.9898,0.2312,9.7177,-0.6123,-0.1386,9.7865,0.0145,0.0284,0.0039
62791,46.495575,-0.975016,83.04,36.26,3.216,117.5,14 / 17,6279110,2019-08-09 21:58:47:848,-1.8817,0.4185,9.9566,-0.6011,-0.1231,9.7874,0.0122,0.0382,-0.0255
62792,46.495575,-0.975016,83.04,36.26,3.216,117.5,14 / 17,6279210,2019-08-09 21:58:47:948,-0.0214,0.3605,9.1731,-0.6073,-0.0961,9.7874,0.0068,-0.0477,-0.0151
62793,46.495575,-0.975016,83.04,36.26,3.216,117.5,14 / 17,6279310,2019-08-09 21:58:48:048,-0.5026,0.0887,9.3305,-0.5974,-0.0862,9.7881,0.0022,-0.0167,-0.0058
62794,46.495575,-0.975016,83.04,36.26,3.216,117.5,14 / 17,6279411,2019-08-09 21:58:48:149,-1.1485,0.0809,9.5699,-0.6033,-0.0691,9.7878,0.0022,-0.0255,-0.0032
62795,46.495575,-0.975016,83.04,36.26,3.216,117.5,14 / 17,6279511,2019-08-09 21:58:48:249,-2.3162,0.1911,9.3574,-0.6233,-0.066,9.7866,-0.0144,0.034,-0.0379
62796,46.495575,-0.975016,83.04,36.26,3.216,117.5,16 / 19,6279611,2019-08-09 21:58:48:349,-0.3135,0.2826,9.1258,-0.6068,-0.0619,9.7877,-0.0009,0.0216,-0.0177
62797,46.495575,-0.975016,83.04,36.26,3.216,117.5,16 / 19,6279710,2019-08-09 21:58:48:448,0.4323,0.4466,10.0739,-0.6134,-0.0508,9.7873,-0.0065,0.0291,-0.0228
62798,46.495575,-0.975016,83.04,36.26,3.216,117.5,16 / 19,6279811,2019-08-09 21:58:48:549,0.5275,0.0863,9.5489,-0.6006,-0.0439,9.7881,0.0148,-0.0136,-0.0047
62799,46.495575,-0.975016,83.04,36.26,3.216,117.5,16 / 19,6279910,2019-08-09 21:58:48:648,0.6448,0.3197,9.4693,-0.5997,-0.0377,9.7882,-0.0014,0.0271,-0.0465
62800,46.495575,-0.975016,83.04,36.26,3.216,117.5,16 / 19,6280010,2019-08-09 21:58:48:748,-0.8647,-0.0214,9.4448,-0.5995,-0.026,9.7883,0.0071,0.0279,0.0118
62801,46.495575,-0.975016,83.04,36.26,3.216,117.5,16 / 19,6280110,2019-08-09 21:58:48:848,-0.8665,0.4903,10.1505,-0.5845,-0.023,9.7892,0.0027,0.0166,-0.0493
62802,46.495575,-0.975016,83.04,36.26,3.216,117.5,16 / 19,6280210,2019-08-09 21:58:48:948,-1.2987,0.4843,10.3217,-0.6082,-0.0179,9.7878,-0.0125,0.0238,-0.0166
62803,46.495575,-0.975016,83.04,36.26,3.216,117.5,16 / 19,6280310,2019-08-09 21:58:49:048,-0.1854,0.1689,9.5651,-0.596,-0.0195,9.7885,-0.0132,-0.0342,0.0058
62804,46.495575,-0.975016,83.04,36.26,3.216,117.5,16 / 19,6280410,2019-08-09 21:58:49:148,-0.4117,0.2773,9.8063,-0.587,-0.0171,9.7891,-0.006,0.0435,-0.0255
62805,46.495575,-0.975016,83.04,36.26,3.216,117.5,16 / 19,6280511,2019-08-09 21:58:49:249,-0.4362,0.0067,9.7961,-0.5817,-0.0153,9.7894,0.0061,0.0354,-0.0258
62806,46.495575,-0.975016,83.04,36.26,3.216,117.5,15 / 17,6280610,2019-08-09 21:58:49:348,0.0325,0.4951,9.7441,-0.5937,-0.0158,9.7886,0.0022,-0.0313,0.0094
62807,46.495575,-0.975016,83.04,36.26,3.216,117.5,15 / 17,6280710,2019-08-09 21:58:49:448,-0.7313,-0.207,9.6339,-0.5781,-0.0169,9.7896,-0.0097,0.035,-0.0255
62808,46.495575,-0.975016,83.04,36.26,3.216,117.5,15 / 17,6280810,2019-08-09 21:58:49:548,-0.9467,-0.098,10.1702,-0.5916,-0.0245,9.7888,-0.0012,-0.0021,0.0316
62809,46.495575,-0.975016,83.04,36.26,3.216,117.5,15 / 17,6280910,2019-08-09 21:58:49:648,-0.7031,-0.4997,9.5597,-0.5833,-0.0314,9.7892,-0.0068,-0.0132,0.0063
62810,46.495575,-0.975016,83.04,36.26,3.216,117.5,15 / 17,6281010,2019-08-09 21:58:49:748,0.2019,-0.1681,9.285,-0.5592,-0.0285,9.7907,0.0124,-0.0408,0.0284
62811,46.495575,-0.975016,83.04,36.26,3.216,117.5,15 / 17,6281111,2019-08-09 21:58:49:849,0.6215,-0.0591,10.1774,-0.5917,-0.0296,9.7887,-0.0072,0.0077,-0.0007
62812,46.495575,-0.975016,83.04,36.26,3.216,117.5,15 / 17,6281211,2019-08-09 21:58:49:949,-0.5158,-0.456,9.5418,-0.5698,-0.0389,9.79,0.009,-0.0199,-0.0106
62813,46.495575,-0.975016,83.04,36.26,3.216,117.5,15 / 17,6281311,2019-08-09 21:58:50:049,-1.2747,-0.2495,9.3119,-0.5658,-0.0373,9.7902,0.0116,0.0034,0.0042
62814,46.495575,-0.975016,83.04,36.26,3.216,117.5,15 / 17,6281410,2019-08-09 21:58:50:148,-1.6195,-0.2429,9.9386,-0.571,-0.0343,9.79,-0.0143,0.0026,-0.01
62815,46.495575,-0.975016,83.04,36.26,3.216,117.5,15 / 17,6281511,2019-08-09 21:58:50:249,-1.2771,-0.4231,9.9416,-0.5875,-0.0515,9.7889,-0.0114,0.0004,0.0181
62816,46.495575,-0.975016,83.04,36.26,3.216,117.5,17 / 19,6281610,2019-08-09 21:58:50:348,-0.936,-0.3321,9.5406,-0.5585,-0.0579,9.7906,0.0015,0.0095,-0.0065
62817,46.495575,-0.975016,83.04,36.26,3.216,117.5,17 / 19,6281710,2019-08-09 21:58:50:448,0.0774,-0.1878,10.1433,-0.5823,-0.0575,9.7892,-0.0005,0.0009,0.0076
62818,46.495575,-0.975016,83.04,36.26,3.216,117.5,17 / 19,6281810,2019-08-09 21:58:50:548,-0.0651,0.0289,9.446,-0.562,-0.0573,9.7904,0.0027,0.0082,0.0046
62819,46.495575,-0.975016,83.04,36.26,3.216,117.5,17 / 19,6281910,2019-08-09 21:58:50:648,0.959,-0.1896,9.6711,-0.5487,-0.0607,9.7911,-0.0009,0.0099,-0.0104
62820,46.495575,-0.975016,83.04,36.26,3.216,117.5,17 / 19,6282011,2019-08-09 21:58:50:749,0.0516,-0.3853,9.6531,-0.5677,-0.0692,9.79,-0.023,0.0345,0.0014
62821,46.495575,-0.975016,83.04,36.26,3.216,117.5,17 / 19,6282110,2019-08-09 21:58:50:848,-0.4452,-0.5374,8.6751,-0.5397,-0.0994,9.7913,-0.0222,-0.08,-0.0106
62822,46.495575,-0.975016,83.04,36.26,3.216,117.5,17 / 19,6282210,2019-08-09 21:58:50:948,-0.2405,-0.3075,9.6483,-0.5438,-0.1033,9.791,0.0032,0.03,0.0116
62823,46.495575,-0.975016,83.04,36.26,3.216,117.5,17 / 19,6282310,2019-08-09 21:58:51:048,-0.3189,-0.2992,10.6575,-0.564,-0.0937,9.79,0.0086,0.02,0.0041
62824,46.495575,-0.975016,83.04,36.26,3.216,117.5,17 / 19,6282410,2019-08-09 21:58:51:148,-0.6176,-0.1801,9.9595,-0.536,-0.1004,9.7915,0.0035,0.0102,-0.0134
62825,46.495575,-0.975016,83.04,36.26,3.216,117.5,17 / 19,6282511,2019-08-09 21:58:51:249,0.1935,-0.0986,9.2395,-0.5322,-0.0986,9.7917,0.007,-0.0058,-0.0051
62826,46.495575,-0.975016,83.04,36.26,3.216,117.5,15 / 17,6282614,2019-08-09 21:58:51:352,1.2757,0.1061,9.7171,-0.5279,-0.0978,9.7919,0.0035,0.013,0.0115
62827,46.495575,-0.975016,83.04,36.26,3.216,117.5,15 / 17,6282710,2019-08-09 21:58:51:448,-0.6774,-0.107,10.2115,-0.5364,-0.0936,9.7915,0.0054,-0.0219,-0.0042
62828,46.495575,-0.975016,83.04,36.26,3.216,117.5,15 / 17,6282810,2019-08-09 21:58:51:548,-0.3458,0.212,9.774,-0.5229,-0.088,9.7923,0.0034,0.0295,-0.0087
62829,46.495575,-0.975016,83.04,36.26,3.216,117.5,15 / 17,6282910,2019-08-09 21:58:51:648,-1.2275,-0.1549,9.449,-0.5312,-0.0758,9.792,0.0038,0.0177,-0.0293
62830,46.495575,-0.975016,83.04,36.26,3.216,117.5,15 / 17,6283010,2019-08-09 21:58:51:748,0.3766,0.1767,9.8362,-0.5324,-0.0708,9.7919,0.0032,-0.0161,-0.002
62831,46.495575,-0.975016,83.04,36.26,3.216,117.5,15 / 17,6283110,2019-08-09 21:58:51:848,-1.1544,0.0564,9.6722,-0.5295,-0.0629,9.7921,0.0014,-0.0139,-0.0173
62832,46.495575,-0.975016,83.04,36.26,3.216,117.5,15 / 17,6283211,2019-08-09 21:58:51:949,-0.9593,0.121,9.8626,-0.5381,-0.0569,9.7917,0.0061,0.0112,-0.0058
62833,46.495575,-0.975016,83.04,36.26,3.216,117.5,15 / 17,6283311,2019-08-09 21:58:52:049,-2.072,0.0941,9.5412,-0.5456,-0.049,9.7913,0.0016,-0.0381,0.0089
62834,46.495575,-0.975016,83.04,36.26,3.216,117.5,15 / 17,6283411,2019-08-09 21:58:52:149,0.3102,0.0815,9.6663,-0.5474,-0.0506,9.7912,-0.0009,-0.0148,-0.006
62835,46.495575,-0.975016,83.04,36.26,3.216,117.5,15 / 17,6283510,2019-08-09 21:58:52:248,0.0187,0.1905,10.108,-0.5495,-0.0426,9.7912,-0.0017,-0.0113,-0.0093
62836,46.495575,-0.975016,83.04,36.26,3.216,117.5,17 / 19,6283610,2019-08-09 21:58:52:348,-0.6259,-0.3153,9.9841,-0.566,-0.0477,9.7902,-0.013,0.0276,-0.0092
62837,46.495575,-0.975016,83.04,36.26,3.216,117.5,17 / 19,6283710,2019-08-09 21:58:52:448,-0.7618,0.0115,9.9512,-0.5436,-0.0473,9.7915,0.0153,-0.0384,0.0319
62838,46.495575,-0.975016,83.04,36.26,3.216,117.5,17 / 19,6283810,2019-08-09 21:58:52:548,0.0002,-0.0448,9.9482,-0.5438,-0.0475,9.7914,0.012,0.0244,-0.0191
62839,46.495575,-0.975016,83.04,36.26,3.216,117.5,17 / 19,6283910,2019-08-09 21:58:52:648,0.4646,-0.2261,10.0882,-0.5362,-0.0515,9.7918,-0.0231,-0.0193,0.0434
62840,46.495575,-0.975016,83.04,36.26,3.216,117.5,17 / 19,6284011,2019-08-09 21:58:52:749,-0.0729,-0.3752,9.4574,-0.5224,-0.069,9.7925,-0.0133,0.0045,-0.0115
62841,46.495575,-0.975016,83.04,36.26,3.216,117.5,17 / 19,6284110,2019-08-09 21:58:52:848,-0.7822,-0.0083,9.8608,-0.5313,-0.0647,9.792,0.007,0.0114,-0.0097
62842,46.495575,-0.975016,83.04,36.26,3.216,117.5,17 / 19,6284210,2019-08-09 21:58:52:948,-0.2057,-0.3632,9.4328,-0.5109,-0.0704,9.7931,-0.0058,0.0181,-0.022
62843,46.495575,-0.975016,83.04,36.26,3.216,117.5,17 / 19,6284310,2019-08-09 21:58:53:048,-0.8498,-0.1968,9.6519,-0.5148,-0.0804,9.7928,0.0034,0.0211,0.0045
62844,46.495575,-0.975016,83.04,36.26,3.216,117.5,17 / 19,6284411,2019-08-09 21:58:53:149,-0.025,-0.0573,9.531,-0.5138,-0.0779,9.7929,0.0175,-0.0176,0.0013
62845,46.495575,-0.975016,83.04,36.26,3.216,117.5,17 / 19,6284510,2019-08-09 21:58:53:248,0.1947,-0.186,9.7297,-0.5169,-0.0615,9.7928,0.0094,0.022,-0.0088
62846,46.495575,-0.975016,83.04,36.26,3.216,117.5,14 / 18,6284611,2019-08-09 21:58:53:349,-0.3057,-0.0113,10.2092,-0.5375,-0.0578,9.7917,-0.0085,0.0027,-0.01
62847,46.495575,-0.975016,83.04,36.26,3.216,117.5,14 / 18,6284710,2019-08-09 21:58:53:448,-0.5296,-0.3417,9.3795,-0.5248,-0.0661,9.7924,-0.0041,-0.0046,0.0054
62848,46.495575,-0.975016,83.04,36.26,3.216,117.5,14 / 18,6284810,2019-08-09 21:58:53:548,0.0564,-0.14,9.6705,-0.5187,-0.0813,9.7926,-0.0069,0.0355,-0.0133
62849,46.495575,-0.975016,83.04,36.26,3.216,117.5,14 / 18,6284910,2019-08-09 21:58:53:648,0.3713,-0.6481,9.3604,-0.5456,-0.0885,9.7911,-0.0056,-0.0233,-0.0036
62850,46.495575,-0.975016,83.04,36.26,3.216,117.5,14 / 18,6285010,2019-08-09 21:58:53:748,-1.7746,-0.298,9.4574,-0.5215,-0.1015,9.7922,0.0121,-0.0051,0.0141
62851,46.495575,-0.975016,83.04,36.26,3.216,117.5,14 / 18,6285111,2019-08-09 21:58:53:849,-1.3645,-0.2932,10.3971,-0.5174,-0.1022,9.7925,-0.0068,-0.0458,-0.007
62852,46.495575,-0.975016,83.04,36.26,3.216,117.5,14 / 18,6285210,2019-08-09 21:58:53:948,-2.3085,0.2126,10.1265,-0.5137,-0.0902,9.7928,0.0217,0.0568,0.0085
62853,46.495575,-0.975016,83.04,36.26,3.216,117.5,14 / 18,6285311,2019-08-09 21:58:54:049,-0.0711,-0.3004,9.5082,-0.5322,-0.0827,9.7918,0.0172,-0.0443,-0.0024
62854,46.495575,-0.975016,83.04,36.26,3.216,117.5,14 / 18,6285410,2019-08-09 21:58:54:148,0.5448,-0.2501,9.5298,-0.521,-0.0678,9.7926,0.005,-0.0136,0.0123
62855,46.495575,-0.975016,83.04,36.26,3.216,117.5,14 / 18,6285510,2019-08-09 21:58:54:248,1.0889,-0.0663,9.932,-0.5474,-0.0736,9.7911,-0.008,-0.0093,0.0129
62856,46.495575,-0.975016,83.04,36.26,3.216,117.5,15 / 19,6285610,2019-08-09 21:58:54:348,-1.0994,-0.3051,9.2275,-0.5059,-0.0722,9.7933,0.0046,-0.0444,0.0026
62857,46.495575,-0.975016,83.04,36.26,3.216,117.5,15 / 19,6285710,2019-08-09 21:58:54:448,-0.3458,0.1103,9.7854,-0.5025,-0.0697,9.7935,-0.0037,0.0003,-0.0187
62858,46.495575,-0.975016,83.04,36.26,3.216,117.5,15 / 19,6285810,2019-08-09 21:58:54:548,-0.2464,0.2808,10.0416,-0.4773,-0.0702,9.7948,-0.0072,0.0118,-0.0109
62859,46.495575,-0.975016,83.04,36.26,3.216,117.5,15 / 19,6285910,2019-08-09 21:58:54:648,-0.5571,0.1222,9.8027,-0.478,-0.0705,9.7947,0.0058,0.0038,-0.0061
62860,46.495575,-0.975016,83.04,36.26,3.216,117.5,15 / 19,6286010,2019-08-09 21:58:54:748,0.3976,0.3575,10.0439,-0.4794,-0.0563,9.7948,0.0129,0.0209,-0.0193
62861,46.495575,-0.975016,83.04,36.26,3.216,117.5,15 / 19,6286110,2019-08-09 21:58:54:848,0.8573,0.1725,10.3624,-0.482,-0.0511,9.7947,0.0016,-0.002,-0.0151
62862,46.495575,-0.975016,83.04,36.26,3.216,117.5,15 / 19,6286210,2019-08-09 21:58:54:948,-1.0024,-0.4542,8.7978,-0.4758,-0.053,9.795,0.0064,0.0596,-0.0418
62863,46.495575,-0.975016,83.04,36.26,3.216,117.5,15 / 19,6286311,2019-08-09 21:58:55:049,-0.0274,0.1168,9.1545,-0.5005,-0.0479,9.7938,0.0044,-0.0418,0.004
62864,46.495575,-0.975016,83.04,36.26,3.216,117.5,15 / 19,6286410,2019-08-09 21:58:55:148,-0.7941,-0.0603,9.7201,-0.4909,-0.0357,9.7943,-0.0023,-0.0159,-0.0063
62865,46.495575,-0.975016,83.04,36.26,3.216,117.5,15 / 19,6286511,2019-08-09 21:58:55:249,-0.3476,0.2485,9.5082,-0.5033,-0.034,9.7937,-0.0057,0.0082,-0.0087
62866,46.494152,-0.971327,81.69,35.45,3.216,120.3,15 / 19,6286610,2019-08-09 21:58:55:348,0.2204,0.1911,9.6567,-0.4991,-0.0308,9.7939,-0.0023,0.0137,-0.0016
62867,46.494152,-0.971327,81.69,35.45,3.216,120.3,15 / 19,6286711,2019-08-09 21:58:55:449,-0.3961,0.1013,9.51,-0.4911,-0.0332,9.7943,0.0038,-0.0121,-0.0022
62868,46.494152,-0.971327,81.69,35.45,3.216,120.3,15 / 19,6286810,2019-08-09 21:58:55:548,-0.5248,-0.1621,9.4448,-0.4905,-0.0286,9.7943,0.0004,-0.0381,0.0204
62869,46.494152,-0.971327,81.69,35.45,3.216,120.3,15 / 19,6286910,2019-08-09 21:58:55:648,-1.422,0.0899,9.7848,-0.4876,-0.0237,9.7945,0.0093,0.015,-0.0294
62870,46.494152,-0.971327,81.69,35.45,3.216,120.3,15 / 19,6287010,2019-08-09 21:58:55:748,-1.853,0.4077,9.9619,-0.4954,-0.0199,9.7941,-0.0113,0.0085,0.015
62871,46.494152,-0.971327,81.69,35.45,3.216,120.3,15 / 19,6287110,2019-08-09 21:58:55:848,-0.6756,0.1791,9.7159,-0.4802,-0.0205,9.7949,0.0291,0.0304,-0.0071
62872,46.494152,-0.971327,81.69,35.45,3.216,120.3,15 / 19,6287210,2019-08-09 21:58:55:948,0.1528,0.3682,9.8967,-0.5182,0.0062,9.7929,0.0067,0.008,-0.0276
62873,46.494152,-0.971327,81.69,35.45,3.216,120.3,15 / 19,6287310,2019-08-09 21:58:56:048,1.1063,-0.0298,9.9446,-0.5094,0.0123,9.7934,-0.0032,-0.029,-0.0042
62874,46.494152,-0.971327,81.69,35.45,3.216,120.3,15 / 19,6287410,2019-08-09 21:58:56:148,-0.4081,-0.1525,9.3867,-0.4971,0.0103,9.794,0.0101,0.0064,0.0078
62875,46.494152,-0.971327,81.69,35.45,3.216,120.3,15 / 19,6287510,2019-08-09 21:58:56:248,-1.3657,0.4891,10.251,-0.5156,0.0082,9.7931,-0.0075,0.0332,-0.0343
62876,46.494152,-0.971327,81.69,35.45,3.216,120.3,16 / 19,6287610,2019-08-09 21:58:56:348,-0.4571,-0.5529,9.3239,-0.5073,-0.0038,9.7935,0.0017,-0.0123,0.0221
62877,46.494152,-0.971327,81.69,35.45,3.216,120.3,16 / 19,6287710,2019-08-09 21:58:56:448,-2.0032,0.0408,9.1623,-0.522,-0.0007,9.7927,-0.0064,-0.0381,0.0
62878,46.494152,-0.971327,81.69,35.45,3.216,120.3,16 / 19,6287810,2019-08-09 21:58:56:548,-0.0435,-0.2387,9.4693,-0.5209,-0.0093,9.7928,-0.0018,0.0178,0.0099
62879,46.494152,-0.971327,81.69,35.45,3.216,120.3,16 / 19,6287910,2019-08-09 21:58:56:648,-0.4607,0.2282,10.1619,-0.5318,-0.0213,9.7922,-0.0193,0.0087,-0.0012
62880,46.494152,-0.971327,81.69,35.45,3.216,120.3,16 / 19,6288010,2019-08-09 21:58:56:748,0.2833,-0.456,9.2299,-0.5182,-0.0317,9.7929,0.0109,0.0111,-0.0436
62881,46.494152,-0.971327,81.69,35.45,3.216,120.3,16 / 19,6288110,2019-08-09 21:58:56:848,-0.4685,0.1073,10.032,-0.5293,-0.0247,9.7923,0.0106,0.0072,-0.0004
62882,46.494152,-0.971327,81.69,35.45,3.216,120.3,16 / 19,6288211,2019-08-09 21:58:56:949,-1.5381,-0.4039,9.78,-0.5538,-0.0232,9.791,0.0075,-0.0235,-0.0309
62883,46.494152,-0.971327,81.69,35.45,3.216,120.3,16 / 19,6288310,2019-08-09 21:58:57:048,-0.7384,-0.3776,8.9294,-0.5271,-0.0062,9.7925,0.0243,-0.0298,0.0126
62884,46.494152,-0.971327,81.69,35.45,3.216,120.3,16 / 19,6288410,2019-08-09 21:58:57:148,-1.2167,0.3168,9.8835,-0.5409,-0.0013,9.7917,0.0076,0.0477,-0.0448
62885,46.494152,-0.971327,81.69,35.45,3.216,120.3,16 / 19,6288511,2019-08-09 21:58:57:249,-0.3225,0.0947,10.1409,-0.5502,0.0238,9.7912,-0.0051,-0.0365,0.0191
62886,46.494152,-0.971327,81.69,35.45,3.216,120.3,14 / 18,6288610,2019-08-09 21:58:57:348,-1.5142,0.0366,9.8781,-0.5462,0.0178,9.7914,-0.0087,0.0155,-0.0027
62887,46.494152,-0.971327,81.69,35.45,3.216,120.3,14 / 18,6288710,2019-08-09 21:58:57:448,-1.1167,-0.283,9.8596,-0.5644,0.0091,9.7904,-0.0008,0.0009,-0.0132
62888,46.494152,-0.971327,81.69,35.45,3.216,120.3,14 / 18,6288810,2019-08-09 21:58:57:548,1.4828,0.2383,9.5914,-0.5753,0.0078,9.7898,-0.0008,0.0009,-0.0132
62889,46.494152,-0.971327,81.69,35.45,3.216,120.3,14 / 18,6288910,2019-08-09 21:58:57:648,0.8268,0.0396,9.595,-0.5773,0.0082,9.7896,-0.0058,-0.0278,-0.0187
62890,46.494152,-0.971327,81.69,35.45,3.216,120.3,14 / 18,6289010,2019-08-09 21:58:57:748,0.3264,0.2054,9.8171,-0.5714,0.0061,9.79,-0.0032,0.0146,-0.0164
62891,46.494152,-0.971327,81.69,35.45,3.216,120.3,14 / 18,6289111,2019-08-09 21:58:57:849,-1.0844,-0.3405,9.4011,-0.5932,0.0128,9.7887,0.0095,0.0059,0.0072
62892,46.494152,-0.971327,81.69,35.45,3.216,120.3,14 / 18,6289211,2019-08-09 21:58:57:949,0.2444,-0.0328,9.7231,-0.5797,0.0212,9.7895,0.0122,0.0294,-0.0164
62893,46.494152,-0.971327,81.69,35.45,3.216,120.3,14 / 18,6289310,2019-08-09 21:58:58:048,-0.6618,0.0241,9.935,-0.5831,0.0332,9.7892,0.0094,-0.0092,-0.0104
62894,46.494152,-0.971327,81.69,35.45,3.216,120.3,14 / 18,6289410,2019-08-09 21:58:58:148,-1.5645,0.4832,9.5878,-0.5913,0.0373,9.7887,0.0089,0.0035,-0.0073
62895,46.494152,-0.971327,81.69,35.45,3.216,120.3,14 / 18,6289510,2019-08-09 21:58:58:248,-0.0465,0.649,9.7447,-0.5885,0.0657,9.7888,0.0032,0.0125,-0.0418
62896,46.494152,-0.971327,81.69,35.45,3.216,120.3,15 / 19,6289610,2019-08-09 21:58:58:348,-1.8482,0.2928,9.264,-0.5902,0.0683,9.7886,0.0044,-0.018,0.0045
62897,46.494152,-0.971327,81.69,35.45,3.216,120.3,15 / 19,6289712,2019-08-09 21:58:58:450,1.0494,0.4819,9.8847,-0.6055,0.0925,9.7875,-0.0025,0.0108,-0.0344
62898,46.494152,-0.971327,81.69,35.45,3.216,120.3,15 / 19,6289810,2019-08-09 21:58:58:548,-0.2243,0.5238,9.9835,-0.596,0.1012,9.788,0.0004,0.0177,-0.0167
62899,46.494152,-0.971327,81.69,35.45,3.216,120.3,15 / 19,6289911,2019-08-09 21:58:58:649,-0.5912,0.4742,9.7363,-0.5902,0.12,9.7881,0.0089,0.0387,-0.0418
62900,46.494152,-0.971327,81.69,35.45,3.216,120.3,15 / 19,6290010,2019-08-09 21:58:58:748,-0.9713,0.9357,10.199,-0.6221,0.1224,9.7861,-0.0091,0.0049,-0.0028
62901,46.494152,-0.971327,81.69,35.45,3.216,120.3,15 / 19,6290111,2019-08-09 21:58:58:849,-1.8081,0.473,9.6854,-0.6193,0.1367,9.7861,0.0032,0.0265,-0.011
62902,46.494152,-0.971327,81.69,35.45,3.216,120.3,15 / 19,6290210,2019-08-09 21:58:58:948,-0.6684,0.4957,9.8638,-0.6171,0.1378,9.7862,-0.0044,-0.0168,-0.0128
62903,46.494152,-0.971327,81.69,35.45,3.216,120.3,15 / 19,6290310,2019-08-09 21:58:59:048,-0.4033,0.215,9.2185,-0.6089,0.1415,9.7867,-0.0023,0.0335,-0.026
62904,46.494152,-0.971327,81.69,35.45,3.216,120.3,15 / 19,6290410,2019-08-09 21:58:59:148,-0.3638,0.3557,9.4508,-0.6275,0.1433,9.7855,-0.0097,-0.0228,-0.006
62905,46.494152,-0.971327,81.69,35.45,3.216,120.3,15 / 19,6290510,2019-08-09 21:58:59:248,-2.008,0.1336,9.4424,-0.6333,0.1367,9.7852,-0.0052,0.0038,-0.0256
62906,46.494152,-0.971327,81.69,35.45,3.216,120.3,14 / 18,6290610,2019-08-09 21:58:59:348,-0.6553,0.1755,9.8518,-0.6393,0.1386,9.7848,0.0022,0.0045,-0.0037
62907,46.494152,-0.971327,81.69,35.45,3.216,120.3,14 / 18,6290710,2019-08-09 21:58:59:448,-1.1102,-0.0693,9.516,-0.6291,0.1225,9.7857,-0.0148,-0.0291,0.0168
62908,46.494152,-0.971327,81.69,35.45,3.216,120.3,14 / 18,6290810,2019-08-09 21:58:59:548,-0.6062,0.2503,10.0248,-0.6402,0.1243,9.7849,0.0182,0.0027,-0.0155
62909,46.494152,-0.971327,81.69,35.45,3.216,120.3,14 / 18,6290911,2019-08-09 21:58:59:649,-0.9821,0.3006,9.7866,-0.6556,0.1345,9.7838,-0.0015,0.0338,-0.0152
62910,46.494152,-0.971327,81.69,35.45,3.216,120.3,14 / 18,6291010,2019-08-09 21:58:59:748,-0.8019,-0.0843,9.7477,-0.6606,0.1266,9.7836,-0.0117,-0.0108,-0.0091
62911,46.494152,-0.971327,81.69,35.45,3.216,120.3,14 / 18,6291110,2019-08-09 21:58:59:848,1.2457,0.124,9.3622,-0.6292,0.1122,9.7858,0.0002,0.0446,-0.0232
62912,46.494152,-0.971327,81.69,35.45,3.216,120.3,14 / 18,6291210,2019-08-09 21:58:59:948,-1.9954,-0.2016,10.2576,-0.6577,0.1207,9.7838,-0.0116,-0.0363,-0.0268
62913,46.494152,-0.971327,81.69,35.45,3.216,120.3,14 / 18,6291310,2019-08-09 21:59:00:048,-0.9988,-0.1142,9.8081,-0.662,0.1042,9.7837,-0.0095,0.0285,-0.014
62914,46.494152,-0.971327,81.69,35.45,3.216,120.3,14 / 18,6291410,2019-08-09 21:59:00:148,-1.1287,-0.4536,9.1736,-0.6478,0.1,9.7847,0.0126,-0.0355,0.0139
62915,46.494152,-0.971327,81.69,35.45,3.216,120.3,14 / 18,6291510,2019-08-09 21:59:00:248,-1.9643,0.4712,10.1619,-0.6669,0.0973,9.7835,-0.0013,-0.0097,-0.0051
62916,46.494152,-0.971327,81.69,35.45,3.216,120.3,16 / 19,6291610,2019-08-09 21:59:00:348,-0.9025,0.1803,10.1798,-0.6752,0.1088,9.7828,-0.0014,0.0077,0.0115
62917,46.494152,-0.971327,81.69,35.45,3.216,120.3,16 / 19,6291711,2019-08-09 21:59:00:449,-1.7111,0.0743,9.7147,-0.6466,0.1065,9.7847,0.0117,0.0325,-0.0016
62918,46.494152,-0.971327,81.69,35.45,3.216,120.3,16 / 19,6291810,2019-08-09 21:59:00:548,1.0608,0.2228,9.5944,-0.6664,0.1128,9.7833,0.0037,0.0091,-0.0163
62919,46.494152,-0.971327,81.69,35.45,3.216,120.3,16 / 19,6291911,2019-08-09 21:59:00:649,-0.7361,-0.0867,9.698,-0.6682,0.1138,9.7832,-0.0085,-0.0343,-0.0041
62920,46.494152,-0.971327,81.69,35.45,3.216,120.3,16 / 19,6292010,2019-08-09 21:59:00:748,-0.0747,-0.0891,9.6447,-0.6512,0.1062,9.7844,0.0149,-0.0352,0.0009
62921,46.494152,-0.971327,81.69,35.45,3.216,120.3,16 / 19,6292110,2019-08-09 21:59:00:848,-0.6642,0.1629,9.7339,-0.6691,0.1144,9.7831,0.0162,0.0203,-0.0146
62922,46.494152,-0.971327,81.69,35.45,3.216,120.3,16 / 19,6292210,2019-08-09 21:59:00:948,-0.9084,0.1641,9.8327,-0.6689,0.1038,9.7833,-0.0205,-0.0155,-0.006
62923,46.494152,-0.971327,81.69,35.45,3.216,120.3,16 / 19,6292311,2019-08-09 21:59:01:049,-1.1401,-0.1028,9.6621,-0.6445,0.096,9.785,0.0147,-0.0146,-0.0114
62924,46.494152,-0.971327,81.69,35.45,3.216,120.3,16 / 19,6292411,2019-08-09 21:59:01:149,-1.1778,0.0456,10.1762,-0.6491,0.1009,9.7846,-0.0087,-0.0137,0.0128
62925,46.494152,-0.971327,81.69,35.45,3.216,120.3,16 / 19,6292511,2019-08-09 21:59:01:249,0.3904,-0.2938,9.6315,-0.6334,0.0966,9.7857,-0.002,-0.0019,-0.0009
62926,46.494152,-0.971327,81.69,35.45,3.216,120.3,16 / 19,6292611,2019-08-09 21:59:01:349,-0.5206,0.0229,9.5741,-0.6303,0.0795,9.786,-0.0107,0.0134,0.0072
62927,46.494152,-0.971327,81.69,35.45,3.216,120.3,16 / 19,6292711,2019-08-09 21:59:01:449,0.1013,-0.2297,9.5914,-0.6353,0.0679,9.7858,-0.0181,-0.0311,0.0112
62928,46.494152,-0.971327,81.69,35.45,3.216,120.3,16 / 19,6292811,2019-08-09 21:59:01:549,-1.2173,-0.3159,9.8728,-0.6223,0.0416,9.7868,-0.0185,0.0184,-0.0243
62929,46.494152,-0.971327,81.69,35.45,3.216,120.3,16 / 19,6292910,2019-08-09 21:59:01:648,-0.1848,-0.3207,9.8165,-0.6307,0.0287,9.7863,-0.0132,-0.0295,0.0259
62930,46.494152,-0.971327,81.69,35.45,3.216,120.3,16 / 19,6293010,2019-08-09 21:59:01:748,-0.1207,-0.0178,9.78,-0.6183,0.015,9.7871,0.0053,-0.0183,-0.0114
62931,46.494152,-0.971327,81.69,35.45,3.216,120.3,16 / 19,6293110,2019-08-09 21:59:01:848,-0.1555,-0.204,9.3359,-0.5883,0.0177,9.789,0.0064,-0.0179,0.0033
62932,46.494152,-0.971327,81.69,35.45,3.216,120.3,16 / 19,6293211,2019-08-09 21:59:01:949,-0.1854,0.115,9.9272,-0.5793,0.014,9.7895,-0.0005,-0.0087,-0.015
62933,46.494152,-0.971327,81.69,35.45,3.216,120.3,16 / 19,6293311,2019-08-09 21:59:02:049,0.215,0.0253,9.8261,-0.5745,0.0116,9.7898,-0.007,-0.0114,0.0088
62934,46.494152,-0.971327,81.69,35.45,3.216,120.3,16 / 19,6293411,2019-08-09 21:59:02:149,-0.3889,-0.626,9.4382,-0.5497,0.0012,9.7912,0.0106,-0.0051,-0.0078
62935,46.494152,-0.971327,81.69,35.45,3.216,120.3,16 / 19,6293511,2019-08-09 21:59:02:249,-0.6158,0.3934,10.3277,-0.5466,0.0123,9.7914,0.0102,0.0162,-0.0304
62936,46.494152,-0.971327,81.69,35.45,3.216,120.3,17 / 19,6293610,2019-08-09 21:59:02:348,-1.3957,-0.2243,9.8757,-0.5287,0.0148,9.7924,0.0147,0.0285,-0.0018
62937,46.494152,-0.971327,81.69,35.45,3.216,120.3,17 / 19,6293710,2019-08-09 21:59:02:448,-0.3656,-0.1759,9.285,-0.519,0.0288,9.7929,0.0228,-0.038,-0.006
62938,46.494152,-0.971327,81.69,35.45,3.216,120.3,17 / 19,6293810,2019-08-09 21:59:02:548,1.9209,0.1025,9.9428,-0.5222,0.0366,9.7927,-0.0058,0.0333,-0.0018
62939,46.494152,-0.971327,81.69,35.45,3.216,120.3,17 / 19,6293910,2019-08-09 21:59:02:648,-0.1261,-0.2513,9.9649,-0.5248,0.0295,9.7926,0.006,0.0512,0.0038
62940,46.494152,-0.971327,81.69,35.45,3.216,120.3,17 / 19,6294010,2019-08-09 21:59:02:748,-0.8917,0.1378,9.4562,-0.5293,0.033,9.7923,0.0064,-0.0248,0.019
62941,46.494152,-0.971327,81.69,35.45,3.216,120.3,17 / 19,6294110,2019-08-09 21:59:02:848,-0.4146,-0.3937,9.625,-0.5436,0.0348,9.7915,-0.0037,0.0099,-0.0311
62942,46.494152,-0.971327,81.69,35.45,3.216,120.3,17 / 19,6294210,2019-08-09 21:59:02:948,-0.4954,-0.5254,8.7714,-0.5153,0.0234,9.7931,0.0084,0.019,-0.0082
62943,46.494152,-0.971327,81.69,35.45,3.216,120.3,17 / 19,6294310,2019-08-09 21:59:03:048,-0.9779,-0.3512,9.7991,-0.5361,0.0248,9.792,0.0171,-0.0072,-0.0103
62944,46.494152,-0.971327,81.69,35.45,3.216,120.3,17 / 19,6294410,2019-08-09 21:59:03:148,0.2013,-0.2124,10.096,-0.5449,0.0275,9.7915,-0.0022,-0.0011,0.0124
62945,46.494152,-0.971327,81.69,35.45,3.216,120.3,17 / 19,6294510,2019-08-09 21:59:03:248,-0.8288,-0.1447,9.8955,-0.5454,0.0215,9.7915,0.0001,0.0032,-0.0069
62946,46.494152,-0.971327,81.69,35.45,3.216,120.3,17 / 19,6294610,2019-08-09 21:59:03:348,-0.2315,-0.4392,9.5208,-0.5486,0.0189,9.7913,0.0172,-0.0583,0.0075
62947,46.494152,-0.971327,81.69,35.45,3.216,120.3,17 / 19,6294710,2019-08-09 21:59:03:448,-0.7642,0.5472,10.1319,-0.5199,0.0213,9.7928,0.0049,0.066,-0.0182
62948,46.494152,-0.971327,81.69,35.45,3.216,120.3,17 / 19,6294810,2019-08-09 21:59:03:548,-0.845,-0.0442,9.6543,-0.528,0.018,9.7924,-0.0024,-0.0013,0.0196
62949,46.494152,-0.971327,81.69,35.45,3.216,120.3,17 / 19,6294911,2019-08-09 21:59:03:649,0.8884,-0.0849,8.9785,-0.5078,0.0085,9.7935,0.0116,-0.0079,0.0045
62950,46.494152,-0.971327,81.69,35.45,3.216,120.3,17 / 19,6295011,2019-08-09 21:59:03:749,0.1061,0.0265,10.257,-0.5151,0.0143,9.7931,-0.0064,-0.0109,0.007
62951,46.494152,-0.971327,81.69,35.45,3.216,120.3,17 / 19,6295110,2019-08-09 21:59:03:848,0.5107,-0.4632,10.3366,-0.5325,0.0058,9.7922,-0.0107,0.0224,0.0265
62952,46.494152,-0.971327,81.69,35.45,3.216,120.3,17 / 19,6295211,2019-08-09 21:59:03:949,-1.5046,-0.1256,9.4328,-0.5249,-0.0084,9.7926,-0.013,-0.0073,-0.0076
62953,46.494152,-0.971327,81.69,35.45,3.216,120.3,17 / 19,6295310,2019-08-09 21:59:04:048,-0.8695,-0.3842,9.6465,-0.5209,-0.0183,9.7928,0.0052,-0.0124,0.0107
62954,46.494152,-0.971327,81.69,35.45,3.216,120.3,17 / 19,6295410,2019-08-09 21:59:04:148,-0.921,0.1737,10.1649,-0.5254,-0.0184,9.7925,-0.0124,-0.0102,-0.015
62955,46.494152,-0.971327,81.69,35.45,3.216,120.3,17 / 19,6295510,2019-08-09 21:59:04:248,-0.3853,-0.7331,9.85,-0.5151,-0.029,9.7931,0.0081,-0.0056,0.0268
62956,46.49262,-0.967816,81.26,35.24,3.216,123.3,17 / 19,6295610,2019-08-09 21:59:04:348,0.2103,-0.1411,9.6465,-0.5134,-0.0281,9.7932,0.0153,-0.0086,-0.0076
62957,46.49262,-0.967816,81.26,35.24,3.216,123.3,17 / 19,6295710,2019-08-09 21:59:04:448,-0.5296,-0.0729,9.8793,-0.5204,-0.0188,9.7928,-0.0117,-0.0263,0.0
62958,46.49262,-0.967816,81.26,35.24,3.216,123.3,17 / 19,6295810,2019-08-09 21:59:04:548,0.3342,-0.2531,9.4753,-0.5036,-0.0252,9.7937,-0.0117,-0.0263,0.0
62959,46.49262,-0.967816,81.26,35.24,3.216,123.3,17 / 19,6295911,2019-08-09 21:59:04:649,-0.2812,-0.0077,9.704,-0.4993,-0.0184,9.7939,0.0196,0.009,-0.0009
62960,46.49262,-0.967816,81.26,35.24,3.216,123.3,17 / 19,6296011,2019-08-09 21:59:04:749,-0.2429,0.0223,9.8105,-0.5006,-0.0105,9.7939,-0.007,-0.009,0.0
62961,46.49262,-0.967816,81.26,35.24,3.216,123.3,17 / 19,6296111,2019-08-09 21:59:04:849,-0.6193,-0.0298,9.7991,-0.5018,-0.0215,9.7938,0.0011,-0.0246,0.0055
62962,46.49262,-0.967816,81.26,35.24,3.216,123.3,17 / 19,6296210,2019-08-09 21:59:04:948,-1.4729,0.0839,9.8937,-0.4808,-0.0237,9.7948,0.0004,0.0138,-0.0043
62963,46.49262,-0.967816,81.26,35.24,3.216,123.3,17 / 19,6296310,2019-08-09 21:59:05:048,-0.9707,-0.0729,10.0475,-0.4945,-0.0221,9.7942,0.0017,0.0124,0.0065
62964,46.49262,-0.967816,81.26,35.24,3.216,123.3,17 / 19,6296410,2019-08-09 21:59:05:148,-0.8546,0.0211,9.7141,-0.4827,-0.0235,9.7947,0.0017,0.0087,-0.0123
62965,46.49262,-0.967816,81.26,35.24,3.216,123.3,17 / 19,6296510,2019-08-09 21:59:05:248,-0.4781,-0.0071,9.9368,-0.4868,-0.0236,9.7945,-0.0037,0.0181,0.0091
62966,46.49262,-0.967816,81.26,35.24,3.216,123.3,17 / 19,6296610,2019-08-09 21:59:05:348,0.2911,-0.1818,9.683,-0.496,-0.0288,9.7941,-0.0102,-0.021,-0.0011
62967,46.49262,-0.967816,81.26,35.24,3.216,123.3,17 / 19,6296710,2019-08-09 21:59:05:448,-0.4272,-0.1322,9.3849,-0.4874,-0.0302,9.7945,0.0061,-0.0113,-0.0014
62968,46.49262,-0.967816,81.26,35.24,3.216,123.3,17 / 19,6296810,2019-08-09 21:59:05:548,-0.2207,0.0558,9.6956,-0.4835,-0.0246,9.7947,0.0144,0.0105,-0.0128
62969,46.49262,-0.967816,81.26,35.24,3.216,123.3,17 / 19,6296910,2019-08-09 21:59:05:648,0.2576,0.2072,9.8524,-0.4731,-0.0187,9.7952,-0.0039,0.0237,-0.0138
62970,46.49262,-0.967816,81.26,35.24,3.216,123.3,17 / 19,6297010,2019-08-09 21:59:05:748,0.734,0.1743,10.1068,-0.4734,-0.0208,9.7952,-0.0066,-0.0014,-0.0093
62971,46.49262,-0.967816,81.26,35.24,3.216,123.3,17 / 19,6297110,2019-08-09 21:59:05:848,1.1063,0.0863,9.3951,-0.4608,-0.0271,9.7958,-0.0088,-0.0185,-0.0101
62972,46.49262,-0.967816,81.26,35.24,3.216,123.3,17 / 19,6297211,2019-08-09 21:59:05:949,1.0764,0.0276,9.7135,-0.4544,-0.0321,9.7961,-0.0067,0.0031,-0.0076
62973,46.49262,-0.967816,81.26,35.24,3.216,123.3,17 / 19,6297310,2019-08-09 21:59:06:048,-0.7235,-0.1022,9.7902,-0.4544,-0.038,9.796,-0.003,0.0054,0.0182
62974,46.49262,-0.967816,81.26,35.24,3.216,123.3,17 / 19,6297410,2019-08-09 21:59:06:148,-0.183,-0.1956,9.9757,-0.4496,-0.0418,9.7963,-0.0002,0.0224,0.0133
62975,46.49262,-0.967816,81.26,35.24,3.216,123.3,17 / 19,6297510,2019-08-09 21:59:06:248,0.4018,-0.3853,9.7291,-0.4399,-0.0469,9.7967,0.011,0.004,-0.009
62976,46.49262,-0.967816,81.26,35.24,3.216,123.3,17 / 19,6297610,2019-08-09 21:59:06:348,-0.326,0.1725,9.6489,-0.4372,-0.0462,9.7968,0.0009,-0.007,-0.0112
62977,46.49262,-0.967816,81.26,35.24,3.216,123.3,17 / 19,6297710,2019-08-09 21:59:06:448,-0.4697,-0.4111,9.5029,-0.4335,-0.0421,9.797,0.0037,0.0251,-0.0176
62978,46.49262,-0.967816,81.26,35.24,3.216,123.3,17 / 19,6297810,2019-08-09 21:59:06:548,-0.3949,-0.1034,10.0003,-0.4371,-0.0409,9.7968,-0.0001,0.0121,0.0052
62979,46.49262,-0.967816,81.26,35.24,3.216,123.3,17 / 19,6297911,2019-08-09 21:59:06:649,-0.8642,-0.2267,9.8356,-0.4377,-0.0427,9.7968,0.0066,-0.0123,-0.0067
62980,46.49262,-0.967816,81.26,35.24,3.216,123.3,17 / 19,6298010,2019-08-09 21:59:06:748,-1.0252,-0.3291,9.8548,-0.4397,-0.0353,9.7967,0.0121,-0.0015,0.018
62981,46.49262,-0.967816,81.26,35.24,3.216,123.3,17 / 19,6298111,2019-08-09 21:59:06:849,-0.2051,-0.11,9.8087,-0.4331,-0.0161,9.7971,-0.0003,-0.0098,-0.0181
62982,46.49262,-0.967816,81.26,35.24,3.216,123.3,17 / 19,6298211,2019-08-09 21:59:06:949,-2.236,0.4688,10.1433,-0.4516,-0.0236,9.7962,-0.0104,0.0458,0.0129
62983,46.49262,-0.967816,81.26,35.24,3.216,123.3,17 / 19,6298311,2019-08-09 21:59:07:049,-1.4741,-0.2645,9.5358,-0.4196,-0.0336,9.7976,0.0064,0.005,-0.0159
62984,46.49262,-0.967816,81.26,35.24,3.216,123.3,17 / 19,6298411,2019-08-09 21:59:07:149,0.1306,0.1821,10.3426,-0.4346,-0.0312,9.797,0.0035,0.0218,-0.0119
62985,46.49262,-0.967816,81.26,35.24,3.216,123.3,17 / 19,6298511,2019-08-09 21:59:07:249,-0.505,-0.2435,9.3951,-0.4402,-0.025,9.7967,-0.0014,-0.0404,0.0146
62986,46.49262,-0.967816,81.26,35.24,3.216,123.3,17 / 19,6298611,2019-08-09 21:59:07:349,-0.0112,-0.2417,9.3664,-0.4209,-0.0215,9.7976,0.009,-0.0073,-0.0072
62987,46.49262,-0.967816,81.26,35.24,3.216,123.3,17 / 19,6298710,2019-08-09 21:59:07:448,0.3419,0.1402,9.9937,-0.4286,-0.0184,9.7973,-0.0125,0.009,0.0039
62988,46.49262,-0.967816,81.26,35.24,3.216,123.3,17 / 19,6298810,2019-08-09 21:59:07:548,-1.5148,-0.1902,9.6728,-0.4464,-0.0317,9.7964,-0.0158,0.009,0.0064
62989,46.49262,-0.967816,81.26,35.24,3.216,123.3,17 / 19,6298910,2019-08-09 21:59:07:648,-0.8163,0.1007,10.1523,-0.4472,-0.0339,9.7964,0.0008,0.0398,-0.018
62990,46.49262,-0.967816,81.26,35.24,3.216,123.3,17 / 19,6299010,2019-08-09 21:59:07:748,-0.3584,-0.183,9.2251,-0.4529,-0.0306,9.7961,0.0164,-0.0105,-0.0009
62991,46.49262,-0.967816,81.26,35.24,3.216,123.3,17 / 19,6299110,2019-08-09 21:59:07:848,-0.8935,-0.0364,9.6106,-0.4527,-0.0232,9.7962,0.0127,-0.0055,-0.0268
62992,46.49262,-0.967816,81.26,35.24,3.216,123.3,17 / 19,6299210,2019-08-09 21:59:07:948,-0.3997,0.5454,10.0302,-0.4544,-0.0097,9.7961,-0.0092,-0.0155,0.013
62993,46.49262,-0.967816,81.26,35.24,3.216,123.3,17 / 19,6299310,2019-08-09 21:59:08:048,0.9363,-0.0065,10.0817,-0.434,-0.0067,9.797,-0.0055,0.009,-0.0181
62994,46.49262,-0.967816,81.26,35.24,3.216,123.3,17 / 19,6299411,2019-08-09 21:59:08:149,-2.4695,0.5406,9.7937,-0.4434,-0.0151,9.7966,-0.0066,-0.0029,0.0266
62995,46.49262,-0.967816,81.26,35.24,3.216,123.3,17 / 19,6299510,2019-08-09 21:59:08:248,-0.9336,0.0833,9.1389,-0.4506,-0.017,9.7963,-0.0009,-0.0328,-0.0232
62996,46.49262,-0.967816,81.26,35.24,3.216,123.3,17 / 19,6299610,2019-08-09 21:59:08:348,-0.8438,0.3395,9.8273,-0.452,-0.0031,9.7962,0.0062,-0.0083,-0.0139
62997,46.49262,-0.967816,81.26,35.24,3.216,123.3,17 / 19,6299711,2019-08-09 21:59:08:449,-0.8719,0.2443,9.8195,-0.4451,0.0061,9.7965,0.0004,0.0251,-0.0154
62998,46.49262,-0.967816,81.26,35.24,3.216,123.3,17 / 19,6299811,2019-08-09 21:59:08:549,-0.1243,0.3419,9.8524,-0.4536,0.0131,9.7961,-0.003,0.0258,-0.0128
62999,46.49262,-0.967816,81.26,35.24,3.216,123.3,17 / 19,6299910,2019-08-09 21:59:08:648,-0.8552,0.2144,9.8356,-0.4754,0.01,9.7951,-0.0197,0.0016,-0.0219
63000,46.49262,-0.967816,81.26,35.24,3.216,123.3,17 / 19,6300010,2019-08-09 21:59:08:748,0.4413,0.1432,9.1742,-0.4705,0.0086,9.7954,0.0004,-0.0206,-0.0207
63001,46.49262,-0.967816,81.26,35.24,3.216,123.3,17 / 19,6300110,2019-08-09 21:59:08:848,0.4371,0.2886,9.7177,-0.4822,0.019,9.7948,0.0157,0.0162,-0.0149
63002,46.49262,-0.967816,81.26,35.24,3.216,123.3,17 / 19,6300210,2019-08-09 21:59:08:948,-0.2363,0.3323,9.789,-0.4826,0.026,9.7947,-0.0082,-0.0051,-0.0206
63003,46.49262,-0.967816,81.26,35.24,3.216,123.3,17 / 19,6300310,2019-08-09 21:59:09:048,-0.107,0.0253,9.0192,-0.4877,0.0289,9.7945,0.0093,-0.018,-0.0159
63004,46.49262,-0.967816,81.26,35.24,3.216,123.3,17 / 19,6300410,2019-08-09 21:59:09:148,-0.8504,0.2467,9.4645,-0.4763,0.0408,9.795,0.0081,-0.0288,-0.0091
63005,46.49262,-0.967816,81.26,35.24,3.216,123.3,17 / 19,6300510,2019-08-09 21:59:09:248,-0.2548,0.3916,10.2163,-0.495,0.0428,9.7941,-0.0077,-0.0238,0.0076
63006,46.49262,-0.967816,81.26,35.24,3.216,123.3,17 / 19,6300611,2019-08-09 21:59:09:349,0.3605,0.0695,9.7195,-0.4931,0.0348,9.7942,0.0022,-0.0112,0.0009
63007,46.49262,-0.967816,81.26,35.24,3.216,123.3,17 / 19,6300710,2019-08-09 21:59:09:448,-1.4005,-0.0484,9.3646,-0.4902,0.0379,9.7943,0.0022,-0.0112,0.0009
63008,46.49262,-0.967816,81.26,35.24,3.216,123.3,17 / 19,6300810,2019-08-09 21:59:09:548,-0.7337,-0.1399,9.862,-0.5007,0.0373,9.7938,-0.0065,0.0118,0.0045
63009,46.49262,-0.967816,81.26,35.24,3.216,123.3,17 / 19,6300910,2019-08-09 21:59:09:648,-0.2303,-0.3578,9.4053,-0.5214,0.0274,9.7927,-0.0056,-0.011,0.013
63010,46.49262,-0.967816,81.26,35.24,3.216,123.3,17 / 19,6301010,2019-08-09 21:59:09:748,-0.9821,0.1276,9.9577,-0.5045,0.0309,9.7936,0.0101,-0.0315,-0.0135
63011,46.49262,-0.967816,81.26,35.24,3.216,123.3,17 / 19,6301110,2019-08-09 21:59:09:848,-0.0124,0.1695,9.8111,-0.505,0.039,9.7936,0.0011,0.0141,0.0017
63012,46.49262,-0.967816,81.26,35.24,3.216,123.3,17 / 19,6301210,2019-08-09 21:59:09:948,0.2581,0.3479,10.0817,-0.5149,0.0354,9.7931,-0.0052,-0.0114,-0.0006
63013,46.49262,-0.967816,81.26,35.24,3.216,123.3,17 / 19,6301310,2019-08-09 21:59:10:048,-0.9449,0.1569,9.6483,-0.5116,0.0319,9.7932,-0.0047,0.0071,-0.0055
63014,46.49262,-0.967816,81.26,35.24,3.216,123.3,17 / 19,6301411,2019-08-09 21:59:10:149,-0.6972,-0.2172,9.4424,-0.5222,0.0399,9.7927,0.0064,0.0175,-0.0385
63015,46.49262,-0.967816,81.26,35.24,3.216,123.3,17 / 19,6301510,2019-08-09 21:59:10:248,-0.7157,0.4891,9.9823,-0.5202,0.0475,9.7927,0.0047,0.0017,-0.0097
63016,46.49262,-0.967816,81.26,35.24,3.216,123.3,17 / 19,6301610,2019-08-09 21:59:10:348,-0.9444,0.0648,9.2383,-0.5169,0.043,9.7929,-0.0065,0.0021,-0.0027
63017,46.49262,-0.967816,81.26,35.24,3.216,123.3,17 / 19,6301711,2019-08-09 21:59:10:449,-0.5816,-0.1106,9.7818,-0.5074,0.0449,9.7934,0.0058,0.0281,-0.0006
63018,46.49262,-0.967816,81.26,35.24,3.216,123.3,17 / 19,6301811,2019-08-09 21:59:10:549,-1.7482,0.054,9.7321,-0.5259,0.0454,9.7924,-0.0066,-0.024,0.005
63019,46.49262,-0.967816,81.26,35.24,3.216,123.3,17 / 19,6301910,2019-08-09 21:59:10:648,-0.2536,0.1019,9.9147,-0.5257,0.0407,9.7925,-0.0089,0.0113,0.0064
63020,46.49262,-0.967816,81.26,35.24,3.216,123.3,17 / 19,6302010,2019-08-09 21:59:10:748,-0.1992,-0.0442,10.2014,-0.5198,0.0357,9.7928,-0.0047,0.0236,-0.0098
63021,46.49262,-0.967816,81.26,35.24,3.216,123.3,17 / 19,6302111,2019-08-09 21:59:10:849,-1.0198,-0.2405,9.4352,-0.5171,0.0284,9.793,0.0013,-0.0099,0.0065
63022,46.49262,-0.967816,81.26,35.24,3.216,123.3,17 / 19,6302210,2019-08-09 21:59:10:948,-0.1674,-0.1944,9.4256,-0.5203,0.0254,9.7928,0.0058,0.0206,0.0083
63023,46.49262,-0.967816,81.26,35.24,3.216,123.3,17 / 19,6302311,2019-08-09 21:59:11:049,-0.578,-0.0125,10.1714,-0.5295,0.0242,9.7923,-0.0116,0.0177,-0.0039
63024,46.49262,-0.967816,81.26,35.24,3.216,123.3,17 / 19,6302410,2019-08-09 21:59:11:148,-0.9635,0.0749,9.9488,-0.5405,0.0157,9.7917,-0.011,-0.0116,0.0125
63025,46.49262,-0.967816,81.26,35.24,3.216,123.3,17 / 19,6302510,2019-08-09 21:59:11:248,0.087,-0.1064,9.5196,-0.5365,0.0093,9.792,0.0117,-0.0064,-0.0111
63026,46.49262,-0.967816,81.26,35.24,3.216,123.3,17 / 19,6302611,2019-08-09 21:59:11:349,0.2683,0.2521,10.0858,-0.5474,0.0101,9.7914,-0.0023,0.005,-0.0191
63027,46.49262,-0.967816,81.26,35.24,3.216,123.3,17 / 19,6302710,2019-08-09 21:59:11:448,-1.7829,0.057,9.6675,-0.5339,0.006,9.7921,-0.0049,-0.0243,0.0077
63028,46.49262,-0.967816,81.26,35.24,3.216,123.3,17 / 19,6302810,2019-08-09 21:59:11:548,-1.5231,0.0139,9.3335,-0.537,0.0041,9.7919,-0.0047,0.0031,-0.0155
63029,46.49262,-0.967816,81.26,35.24,3.216,123.3,17 / 19,6302910,2019-08-09 21:59:11:648,-1.322,-0.1393,9.7345,-0.5345,-0.0062,9.7921,-0.0125,-0.0033,-0.0059
63030,46.49262,-0.967816,81.26,35.24,3.216,123.3,17 / 19,6303010,2019-08-09 21:59:11:748,0.3659,-0.1914,10.3378,-0.546,-0.0154,9.7914,-0.0069,0.0305,0.0071
63031,46.49262,-0.967816,81.26,35.24,3.216,123.3,17 / 19,6303110,2019-08-09 21:59:11:848,-0.857,-0.3746,9.8524,-0.5531,-0.0275,9.791,-0.0057,-0.018,0.0049
63032,46.49262,-0.967816,81.26,35.24,3.216,123.3,17 / 19,6303210,2019-08-09 21:59:11:948,-0.83,-0.2645,9.795,-0.5459,-0.038,9.7914,-0.0054,-0.0128,0.0137
63033,46.49262,-0.967816,81.26,35.24,3.216,123.3,17 / 19,6303310,2019-08-09 21:59:12:048,-0.162,-0.1699,9.8566,-0.5436,-0.0535,9.7914,-0.0042,-0.0184,0.013
63034,46.49262,-0.967816,81.26,35.24,3.216,123.3,17 / 19,6303411,2019-08-09 21:59:12:149,-0.8121,-0.2405,9.7596,-0.526,-0.0632,9.7923,-0.0127,0.016,-0.0172
63035,46.49262,-0.967816,81.26,35.24,3.216,123.3,17 / 19,6303511,2019-08-09 21:59:12:249,-1.3621,-0.283,9.6698,-0.5344,-0.0734,9.7918,0.0103,0.0055,0.0054
63036,46.49262,-0.967816,81.26,35.24,3.216,123.3,17 / 20,6303610,2019-08-09 21:59:12:348,-0.5619,0.0725,9.9793,-0.5434,-0.0734,9.7913,0.0031,0.0029,-0.0132
63037,46.49262,-0.967816,81.26,35.24,3.216,123.3,17 / 20,6303710,2019-08-09 21:59:12:448,-1.8643,-0.213,10.0595,-0.5409,-0.0816,9.7914,-0.0031,0.0021,-0.0049
63038,46.49262,-0.967816,81.26,35.24,3.216,123.3,17 / 20,6303810,2019-08-09 21:59:12:548,-1.4417,0.0378,9.9081,-0.5438,-0.0816,9.7912,0.0101,0.0011,-0.0004
63039,46.49262,-0.967816,81.26,35.24,3.216,123.3,17 / 20,6303911,2019-08-09 21:59:12:649,-0.9946,-0.0873,9.6968,-0.5495,-0.0735,9.791,0.0046,0.0082,-0.0178
63040,46.49262,-0.967816,81.26,35.24,3.216,123.3,17 / 20,6304010,2019-08-09 21:59:12:748,-0.9485,0.446,9.8033,-0.5505,-0.0708,9.7909,-0.0061,-0.0062,-0.0043
63041,46.49262,-0.967816,81.26,35.24,3.216,123.3,17 / 20,6304110,2019-08-09 21:59:12:848,-0.6283,0.2862,9.9691,-0.5442,-0.0747,9.7913,-0.0142,0.0099,-0.0216
63042,46.49262,-0.967816,81.26,35.24,3.216,123.3,17 / 20,6304210,2019-08-09 21:59:12:948,-0.8211,-0.0208,9.7973,-0.534,-0.0768,9.7918,-0.0041,0.0099,0.011
63043,46.49262,-0.967816,81.26,35.24,3.216,123.3,17 / 20,6304311,2019-08-09 21:59:13:049,-0.5409,-0.0567,9.4059,-0.5143,-0.0772,9.7928,0.0076,0.0054,0.0052
63044,46.49262,-0.967816,81.26,35.24,3.216,123.3,17 / 20,6304410,2019-08-09 21:59:13:148,-0.0022,0.2078,9.9751,-0.519,-0.0744,9.7926,-0.0078,0.0239,-0.0312
63045,46.49262,-0.967816,81.26,35.24,3.216,123.3,17 / 20,6304510,2019-08-09 21:59:13:248,-0.6038,-0.2447,10.1218,-0.5192,-0.0874,9.7925,-0.0034,0.0299,0.0039
63046,46.49102,-0.964439,81.88,34.44,3.216,125.4,17 / 20,6304610,2019-08-09 21:59:13:348,-0.6582,0.0726,9.9194,-0.5342,-0.0926,9.7917,-0.007,-0.0158,-0.0176
63047,46.49102,-0.964439,81.88,34.44,3.216,125.4,17 / 20,6304710,2019-08-09 21:59:13:448,-0.4206,-0.2064,9.2718,-0.5212,-0.0908,9.7924,0.0115,0.0013,0.012
63048,46.49102,-0.964439,81.88,34.44,3.216,125.4,17 / 20,6304811,2019-08-09 21:59:13:549,-0.9581,-0.1106,9.7375,-0.5343,-0.0889,9.7917,0.0013,-0.0213,-0.0132
63049,46.49102,-0.964439,81.88,34.44,3.216,125.4,17 / 20,6304910,2019-08-09 21:59:13:648,-0.0346,-0.0789,10.1493,-0.5163,-0.0901,9.7926,-0.0051,-0.0024,-0.0114
63050,46.49102,-0.964439,81.88,34.44,3.216,125.4,17 / 20,6305010,2019-08-09 21:59:13:748,-0.5314,-0.1998,9.6884,-0.522,-0.0896,9.7923,0.0037,0.0016,-0.0093
63051,46.49102,-0.964439,81.88,34.44,3.216,125.4,17 / 20,6305110,2019-08-09 21:59:13:848,-1.7081,0.2665,9.8775,-0.5246,-0.0868,9.7922,0.0058,-0.0001,-0.0206
63052,46.49102,-0.964439,81.88,34.44,3.216,125.4,17 / 20,6305211,2019-08-09 21:59:13:949,-0.7133,-0.1699,9.5627,-0.5221,-0.0774,9.7924,0.0023,-0.0295,0.0322
63053,46.49102,-0.964439,81.88,34.44,3.216,125.4,17 / 20,6305310,2019-08-09 21:59:14:048,-0.3943,-0.1004,9.762,-0.5344,-0.084,9.7917,0.0018,-0.0193,0.0029
63054,46.49102,-0.964439,81.88,34.44,3.216,125.4,17 / 20,6305410,2019-08-09 21:59:14:148,-0.8049,-0.1316,9.9386,-0.5397,-0.0809,9.7915,-0.008,-0.0092,-0.0088
63055,46.49102,-0.964439,81.88,34.44,3.216,125.4,17 / 20,6305511,2019-08-09 21:59:14:249,-0.5828,-0.2405,9.7465,-0.5305,-0.0864,9.7919,-0.0006,0.007,-0.01
63056,46.49102,-0.964439,81.88,34.44,3.216,125.4,17 / 20,6305612,2019-08-09 21:59:14:350,0.4593,-0.3399,9.6447,-0.522,-0.0903,9.7923,0.0004,-0.0304,0.0137
63057,46.49102,-0.964439,81.88,34.44,3.216,125.4,17 / 20,6305710,2019-08-09 21:59:14:448,0.4952,-0.1896,9.8608,-0.4964,-0.0905,9.7937,0.0039,-0.0121,0.0171
63058,46.49102,-0.964439,81.88,34.44,3.216,125.4,17 / 20,6305810,2019-08-09 21:59:14:548,-0.8839,-0.4195,9.4382,-0.4922,-0.1058,9.7937,-0.0155,0.0274,0.013
63059,46.49102,-0.964439,81.88,34.44,3.216,125.4,17 / 20,6305910,2019-08-09 21:59:14:648,1.044,-0.1681,9.9691,-0.5028,-0.1172,9.7931,-0.0067,0.0223,-0.0205
63060,46.49102,-0.964439,81.88,34.44,3.216,125.4,17 / 20,6306010,2019-08-09 21:59:14:748,-1.237,0.0372,10.2762,-0.5238,-0.1194,9.7919,-0.0023,0.0115,-0.024
63061,46.49102,-0.964439,81.88,34.44,3.216,125.4,17 / 20,6306110,2019-08-09 21:59:14:848,0.9046,-0.4278,9.6842,-0.5301,-0.1182,9.7916,0.0026,0.0142,0.0045
63062,46.49102,-0.964439,81.88,34.44,3.216,125.4,17 / 20,6306210,2019-08-09 21:59:14:948,1.3822,-0.1537,9.6698,-0.5226,-0.1127,9.7921,0.0168,-0.0018,-0.0201
63063,46.49102,-0.964439,81.88,34.44,3.216,125.4,17 / 20,6306310,2019-08-09 21:59:15:048,0.1025,-0.2956,9.871,-0.5428,-0.1073,9.791,0.0089,0.0274,0.0108
63064,46.49102,-0.964439,81.88,34.44,3.216,125.4,17 / 20,6306411,2019-08-09 21:59:15:149,-1.0,0.1426,10.0176,-0.5319,-0.1008,9.7917,0.0013,-0.006,-0.0191
63065,46.49102,-0.964439,81.88,34.44,3.216,125.4,17 / 20,6306510,2019-08-09 21:59:15:248,-0.2063,-0.0406,9.4825,-0.5393,-0.0955,9.7913,-0.0018,-0.0164,0.0016
63066,46.49102,-0.964439,81.88,34.44,3.216,125.4,17 / 20,6306610,2019-08-09 21:59:15:348,-0.3518,0.1156,10.2325,-0.5415,-0.0825,9.7913,0.0106,0.043,-0.0213
63067,46.49102,-0.964439,81.88,34.44,3.216,125.4,17 / 20,6306710,2019-08-09 21:59:15:448,-0.6427,0.0372,10.1451,-0.5452,-0.0794,9.7912,0.0026,-0.0162,0.0065
63068,46.49102,-0.964439,81.88,34.44,3.216,125.4,17 / 20,6306810,2019-08-09 21:59:15:548,-0.1381,-0.2573,9.3425,-0.5272,-0.071,9.7922,0.0205,-0.0019,-0.0018
63069,46.49102,-0.964439,81.88,34.44,3.216,125.4,17 / 20,6306911,2019-08-09 21:59:15:649,-0.1836,0.6968,10.0565,-0.5395,-0.0526,9.7917,-0.0206,-0.0053,-0.0459
63070,46.49102,-0.964439,81.88,34.44,3.216,125.4,17 / 20,6307011,2019-08-09 21:59:15:749,-0.7277,-0.0502,9.6495,-0.5414,-0.0526,9.7916,-0.011,0.0096,0.0345
63071,46.49102,-0.964439,81.88,34.44,3.216,125.4,17 / 20,6307110,2019-08-09 21:59:15:848,-1.1568,0.0941,9.4322,-0.5214,-0.0599,9.7926,0.0016,0.0172,-0.0228
63072,46.49102,-0.964439,81.88,34.44,3.216,125.4,17 / 20,6307211,2019-08-09 21:59:15:949,-2.072,0.2922,10.2115,-0.5449,-0.065,9.7913,-0.0133,0.0265,-0.0068
63073,46.49102,-0.964439,81.88,34.44,3.216,125.4,17 / 20,6307310,2019-08-09 21:59:16:048,0.7669,0.0073,9.4939,-0.5184,-0.0728,9.7927,-0.0176,-0.0485,0.0128
63074,46.49102,-0.964439,81.88,34.44,3.216,125.4,17 / 20,6307410,2019-08-09 21:59:16:148,-0.2871,-0.2447,9.9206,-0.5316,-0.082,9.7919,-0.0022,0.0256,0.0063
63075,46.49102,-0.964439,81.88,34.44,3.216,125.4,17 / 20,6307510,2019-08-09 21:59:16:248,-1.1951,-0.1262,10.2696,-0.5448,-0.0881,9.7911,-0.0094,-0.0009,0.0051
63076,46.49102,-0.964439,81.88,34.44,3.216,125.4,17 / 20,6307611,2019-08-09 21:59:16:349,-0.6942,-0.0406,10.1673,-0.5554,-0.0989,9.7904,0.0067,-0.0114,-0.0106
63077,46.49102,-0.964439,81.88,34.44,3.216,125.4,17 / 20,6307711,2019-08-09 21:59:16:449,-0.2895,-0.1795,9.4083,-0.5432,-0.0917,9.7912,0.0264,-0.0318,-0.0259
63078,46.49102,-0.964439,81.88,34.44,3.216,125.4,17 / 20,6307811,2019-08-09 21:59:16:549,0.0211,0.1426,10.0942,-0.5401,-0.0682,9.7915,-0.002,0.0057,-0.0051
63079,46.49102,-0.964439,81.88,34.44,3.216,125.4,17 / 20,6307911,2019-08-09 21:59:16:649,1.1236,-0.4308,9.3383,-0.5361,-0.073,9.7917,-0.0107,-0.0304,0.0353
63080,46.49102,-0.964439,81.88,34.44,3.216,125.4,17 / 20,6308010,2019-08-09 21:59:16:748,-1.5968,-0.55,9.8392,-0.5458,-0.0864,9.7911,0.0009,-0.0105,-0.004
63081,46.49102,-0.964439,81.88,34.44,3.216,125.4,17 / 20,6308111,2019-08-09 21:59:16:849,-1.325,-0.295,10.0769,-0.5655,-0.0858,9.79,0.0015,0.0228,0.0006
63082,46.49102,-0.964439,81.88,34.44,3.216,125.4,17 / 20,6308210,2019-08-09 21:59:16:948,-0.4009,-0.3668,9.3365,-0.5545,-0.0893,9.7906,-0.0053,-0.0204,-0.0097
63083,46.49102,-0.964439,81.88,34.44,3.216,125.4,17 / 20,6308310,2019-08-09 21:59:17:048,-0.0381,-0.5625,10.2409,-0.5723,-0.0961,9.7895,0.0049,0.0398,0.0133
63084,46.49102,-0.964439,81.88,34.44,3.216,125.4,17 / 20,6308410,2019-08-09 21:59:17:148,-0.3027,-0.1489,9.5005,-0.5601,-0.1087,9.79,-0.0069,-0.0408,0.003
63085,46.49102,-0.964439,81.88,34.44,3.216,125.4,17 / 20,6308510,2019-08-09 21:59:17:248,-0.4039,-0.4937,9.695,-0.5652,-0.1152,9.7897,0.0034,-0.0232,0.0047
63086,46.49102,-0.964439,81.88,34.44,3.216,125.4,17 / 20,6308610,2019-08-09 21:59:17:348,0.2139,-0.3925,9.4083,-0.5532,-0.1218,9.7903,0.0054,-0.0029,0.0058
63087,46.49102,-0.964439,81.88,34.44,3.216,125.4,17 / 20,6308710,2019-08-09 21:59:17:448,-1.0706,-0.5511,9.7321,-0.5479,-0.1292,9.7905,-0.0186,0.0019,0.0026
63088,46.49102,-0.964439,81.88,34.44,3.216,125.4,17 / 20,6308810,2019-08-09 21:59:17:548,-0.3799,-0.1896,9.7267,-0.5619,-0.1414,9.7895,0.0058,-0.013,-0.0124
63089,46.49102,-0.964439,81.88,34.44,3.216,125.4,17 / 20,6308910,2019-08-09 21:59:17:648,-0.7259,0.0911,9.8722,-0.5652,-0.143,9.7893,0.0045,0.008,-0.0163
63090,46.49102,-0.964439,81.88,34.44,3.216,125.4,17 / 20,6309010,2019-08-09 21:59:17:748,-1.0964,-0.3943,10.0529,-0.5767,-0.1381,9.7887,0.013,-0.0062,0.017
63091,46.49102,-0.964439,81.88,34.44,3.216,125.4,17 / 20,6309110,2019-08-09 21:59:17:848,-0.0124,-0.1208,9.1407,-0.5786,-0.1283,9.7887,0.0076,-0.0195,0.0008
63092,46.49102,-0.964439,81.88,34.44,3.216,125.4,17 / 20,6309211,2019-08-09 21:59:17:949,-0.3488,-0.4213,9.2341,-0.5665,-0.1218,9.7895,0.0161,-0.0318,0.0043
63093,46.49102,-0.964439,81.88,34.44,3.216,125.4,17 / 20,6309310,2019-08-09 21:59:18:048,-0.2614,0.1378,9.9925,-0.5788,-0.1086,9.789,0.0008,-0.0168,0.0028
63094,46.49102,-0.964439,81.88,34.44,3.216,125.4,17 / 20,6309410,2019-08-09 21:59:18:148,0.2108,-0.2914,9.9248,-0.5657,-0.1047,9.7898,-0.0122,-0.0087,-0.0126
63095,46.49102,-0.964439,81.88,34.44,3.216,125.4,17 / 20,6309511,2019-08-09 21:59:18:249,-0.6696,-0.2525,9.9135,-0.5937,-0.116,9.788,-0.0041,0.0256,0.0127
63096,46.49102,-0.964439,81.88,34.44,3.216,125.4,17 / 20,6309611,2019-08-09 21:59:18:349,-0.8965,-0.4961,10.0769,-0.5873,-0.1231,9.7883,0.0003,0.0188,0.0127
63097,46.49102,-0.964439,81.88,34.44,3.216,125.4,17 / 20,6309710,2019-08-09 21:59:18:448,0.0714,-0.192,9.5364,-0.5929,-0.12,9.788,0.0083,0.0017,-0.0102
63098,46.49102,-0.964439,81.88,34.44,3.216,125.4,17 / 20,6309810,2019-08-09 21:59:18:548,-0.5182,-0.1824,9.5729,-0.5936,-0.1151,9.788,0.0044,-0.005,-0.006
63099,46.49102,-0.964439,81.88,34.44,3.216,125.4,17 / 20,6309910,2019-08-09 21:59:18:648,-0.4697,-0.5075,9.9584,-0.5954,-0.1076,9.788,0.0141,0.0095,0.0106
63100,46.49102,-0.964439,81.88,34.44,3.216,125.4,17 / 20,6310010,2019-08-09 21:59:18:748,0.2492,0.0336,9.9045,-0.5898,-0.1068,9.7883,-0.002,-0.0378,0.0292
63101,46.49102,-0.964439,81.88,34.44,3.216,125.4,17 / 20,6310110,2019-08-09 21:59:18:848,-1.8428,-0.2722,9.5483,-0.5899,-0.1129,9.7882,-0.0054,0.0049,-0.0091
63102,46.49102,-0.964439,81.88,34.44,3.216,125.4,17 / 20,6310210,2019-08-09 21:59:18:948,-1.3591,0.0199,9.7417,-0.594,-0.1107,9.788,-0.002,0.0156,0.0002
63103,46.49102,-0.964439,81.88,34.44,3.216,125.4,17 / 20,6310310,2019-08-09 21:59:19:048,-0.5074,-0.2387,9.5262,-0.5874,-0.1135,9.7884,0.0006,-0.0167,-0.0014
63104,46.49102,-0.964439,81.88,34.44,3.216,125.4,17 / 20,6310410,2019-08-09 21:59:19:148,-1.6171,-0.2549,9.7004,-0.5917,-0.114,9.7881,0.0117,0.0026,0.0135
63105,46.49102,-0.964439,81.88,34.44,3.216,125.4,17 / 20,6310511,2019-08-09 21:59:19:249,-1.729,-0.0053,9.8069,-0.5917,-0.1116,9.7882,0.0016,0.0121,-0.0002
63106,46.49102,-0.964439,81.88,34.44,3.216,125.4,16 / 20,6310610,2019-08-09 21:59:19:348,-1.0533,0.1497,9.9895,-0.5714,-0.1037,9.7894,0.0099,0.0256,-0.0218
63107,46.49102,-0.964439,81.88,34.44,3.216,125.4,16 / 20,6310710,2019-08-09 21:59:19:448,-0.7223,0.2126,9.8728,-0.5875,-0.0933,9.7886,-0.0041,0.0093,-0.0056
63108,46.49102,-0.964439,81.88,34.44,3.216,125.4,16 / 20,6310810,2019-08-09 21:59:19:548,-0.766,-0.0813,9.7465,-0.5955,-0.0913,9.7881,0.0003,0.0234,-0.0105
63109,46.49102,-0.964439,81.88,34.44,3.216,125.4,16 / 20,6310910,2019-08-09 21:59:19:648,-0.5577,0.0025,9.6124,-0.6062,-0.0806,9.7876,0.0074,0.0182,-0.0405
63110,46.49102,-0.964439,81.88,34.44,3.216,125.4,16 / 20,6311010,2019-08-09 21:59:19:748,-0.3249,0.1761,9.8201,-0.6094,-0.0726,9.7874,0.0038,0.001,-0.0105
63111,46.49102,-0.964439,81.88,34.44,3.216,125.4,16 / 20,6311111,2019-08-09 21:59:19:849,-0.3075,0.2186,9.8548,-0.6291,-0.0697,9.7862,0.0032,0.0007,0.0069
63112,46.49102,-0.964439,81.88,34.44,3.216,125.4,16 / 20,6311211,2019-08-09 21:59:19:949,0.2647,0.2354,9.6609,-0.6227,-0.0663,9.7866,0.0021,0.0009,-0.0175
63113,46.49102,-0.964439,81.88,34.44,3.216,125.4,16 / 20,6311310,2019-08-09 21:59:20:048,0.0355,0.0306,9.1922,-0.6219,-0.046,9.7868,0.0099,0.0075,-0.0162
63114,46.49102,-0.964439,81.88,34.44,3.216,125.4,16 / 20,6311410,2019-08-09 21:59:20:148,-0.2824,0.0815,9.6363,-0.6229,-0.0402,9.7868,0.0004,-0.0088,-0.0123
63115,46.49102,-0.964439,81.88,34.44,3.216,125.4,16 / 20,6311510,2019-08-09 21:59:20:248,0.2941,0.2539,9.7668,-0.6287,-0.0342,9.7864,-0.0027,0.0011,-0.0042
63116,46.49102,-0.964439,81.88,34.44,3.216,125.4,16 / 20,6311611,2019-08-09 21:59:20:349,-1.3891,0.0235,9.4406,-0.6318,-0.0329,9.7862,0.0072,-0.0318,0.0085
63117,46.49102,-0.964439,81.88,34.44,3.216,125.4,16 / 20,6311710,2019-08-09 21:59:20:448,-1.3597,0.312,9.6848,-0.6304,-0.0159,9.7864,0.0064,0.0014,-0.0168
63118,46.49102,-0.964439,81.88,34.44,3.216,125.4,16 / 20,6311810,2019-08-09 21:59:20:548,-0.4428,0.5658,9.5358,-0.6179,-0.0005,9.7872,0.0037,-0.0188,-0.0212
63119,46.49102,-0.964439,81.88,34.44,3.216,125.4,16 / 20,6311910,2019-08-09 21:59:20:648,-1.0886,0.1851,9.4418,-0.5939,0.0054,9.7887,-0.0009,-0.0356,-0.0285
63120,46.49102,-0.964439,81.88,34.44,3.216,125.4,16 / 20,6312010,2019-08-09 21:59:20:748,-0.1692,0.5693,9.6489,-0.6128,0.0149,9.7875,0.0038,0.0177,-0.0309
63121,46.49102,-0.964439,81.88,34.44,3.216,125.4,16 / 20,6312111,2019-08-09 21:59:20:849,-0.9623,0.6352,10.0098,-0.6343,0.0317,9.7861,0.0002,-0.0164,-0.0036
63122,46.49102,-0.964439,81.88,34.44,3.216,125.4,16 / 20,6312210,2019-08-09 21:59:20:948,-2.2522,0.2024,9.9548,-0.6422,0.0431,9.7855,0.0076,-0.006,-0.0085
63123,46.49102,-0.964439,81.88,34.44,3.216,125.4,16 / 20,6312310,2019-08-09 21:59:21:048,-1.3891,0.7124,10.2654,-0.6429,0.0571,9.7854,-0.0016,0.0372,-0.064
63124,46.49102,-0.964439,81.88,34.44,3.216,125.4,16 / 20,6312411,2019-08-09 21:59:21:149,-0.5589,0.4269,9.212,-0.6455,0.0689,9.7851,0.0032,0.0041,-0.0154
63125,46.49102,-0.964439,81.88,34.44,3.216,125.4,16 / 20,6312510,2019-08-09 21:59:21:248,-1.1239,0.4748,9.8656,-0.6422,0.0761,9.7853,-0.0096,0.03,-0.0188
63126,46.49102,-0.964439,81.88,34.44,3.216,125.4,16 / 20,6312610,2019-08-09 21:59:21:348,-0.3805,0.4526,10.3642,-0.658,0.0782,9.7842,-0.009,-0.0502,0.0113
63127,46.49102,-0.964439,81.88,34.44,3.216,125.4,16 / 20,6312711,2019-08-09 21:59:21:449,0.2749,0.309,9.4765,-0.639,0.0789,9.7855,0.006,0.0077,-0.0138
63128,46.49102,-0.964439,81.88,34.44,3.216,125.4,16 / 20,6312810,2019-08-09 21:59:21:548,-0.3715,0.8381,10.1936,-0.6402,0.0858,9.7854,-0.0176,0.0238,-0.0392
63129,46.49102,-0.964439,81.88,34.44,3.216,125.4,16 / 20,6312910,2019-08-09 21:59:21:648,-1.0724,-0.1717,10.0374,-0.6364,0.0845,9.7856,-0.0162,0.0077,0.0104
63130,46.49102,-0.964439,81.88,34.44,3.216,125.4,16 / 20,6313010,2019-08-09 21:59:21:748,-0.5409,0.0917,9.8141,-0.6531,0.0656,9.7847,0.0038,0.0225,-0.04
63131,46.49102,-0.964439,81.88,34.44,3.216,125.4,16 / 20,6313110,2019-08-09 21:59:21:848,-0.6325,0.1102,9.2748,-0.6464,0.0756,9.785,0.005,0.0372,-0.0334
63132,46.49102,-0.964439,81.88,34.44,3.216,125.4,16 / 20,6313211,2019-08-09 21:59:21:949,-0.2812,0.3587,9.9033,-0.639,0.0803,9.7855,-0.0102,-0.0358,0.0099
63133,46.49102,-0.964439,81.88,34.44,3.216,125.4,16 / 20,6313311,2019-08-09 21:59:22:049,0.8309,-0.125,9.5286,-0.6305,0.0712,9.7861,-0.0035,-0.0036,0.012
63134,46.49102,-0.964439,81.88,34.44,3.216,125.4,16 / 20,6313411,2019-08-09 21:59:22:149,-0.2716,-0.0364,10.1259,-0.6361,0.0627,9.7858,-0.011,0.0403,-0.019
63135,46.49102,-0.964439,81.88,34.44,3.216,125.4,16 / 20,6313511,2019-08-09 21:59:22:249,-1.3675,-0.3884,9.4388,-0.6259,0.0564,9.7865,-0.0088,-0.0158,0.0209
63136,46.48937,-0.961218,81.55,34.16,3.216,127.9,16 / 20,6313610,2019-08-09 21:59:22:348,-0.8965,-0.1992,9.8099,-0.6274,0.0404,9.7865,-0.0024,0.015,-0.0076
63137,46.48937,-0.961218,81.55,34.16,3.216,127.9,16 / 20,6313711,2019-08-09 21:59:22:449,-1.7746,-0.2674,9.7806,-0.6254,0.0342,9.7866,-0.0079,-0.01,0.0101
63138,46.48937,-0.961218,81.55,34.16,3.216,127.9,16 / 20,6313810,2019-08-09 21:59:22:548,-0.1644,-0.2998,9.4604,-0.6265,0.016,9.7866,-0.0065,0.005,0.015
63139,46.48937,-0.961218,81.55,34.16,3.216,127.9,16 / 20,6313910,2019-08-09 21:59:22:648,-0.0322,-0.2333,9.9577,-0.644,0.0035,9.7855,-0.0115,0.0135,0.0267
63140,46.48937,-0.961218,81.55,34.16,3.216,127.9,16 / 20,6314011,2019-08-09 21:59:22:749,-0.9551,-0.6415,9.4376,-0.6471,-0.0208,9.7853,0.0122,0.0132,0.0154
63141,46.48937,-0.961218,81.55,34.16,3.216,127.9,16 / 20,6314110,2019-08-09 21:59:22:848,-1.3382,0.1629,10.287,-0.6695,-0.0261,9.7837,0.0183,-0.0414,0.0016
63142,46.48937,-0.961218,81.55,34.16,3.216,127.9,16 / 20,6314210,2019-08-09 21:59:22:948,-1.75,0.3563,9.4346,-0.6372,-0.0066,9.7859,0.0194,-0.0576,0.0258
63143,46.48937,-0.961218,81.55,34.16,3.216,127.9,16 / 20,6314310,2019-08-09 21:59:23:048,-2.7436,0.03,9.4113,-0.6002,0.0065,9.7883,0.0035,0.0158,-0.0131
63144,46.48937,-0.961218,81.55,34.16,3.216,127.9,16 / 20,6314410,2019-08-09 21:59:23:148,0.6771,0.1803,9.0593,-0.6022,0.0009,9.7881,-0.0065,0.0477,-0.0174
63145,46.48937,-0.961218,81.55,34.16,3.216,127.9,16 / 20,6314510,2019-08-09 21:59:23:248,0.5149,-0.2608,9.4771,-0.6209,-0.0072,9.787,-0.0128,-0.0302,0.0284
63146,46.48937,-0.961218,81.55,34.16,3.216,127.9,18 / 20,6314610,2019-08-09 21:59:23:348,0.403,-0.1022,9.759,-0.5944,-0.02,9.7886,-0.0088,0.0212,0.0008
63147,46.48937,-0.961218,81.55,34.16,3.216,127.9,18 / 20,6314710,2019-08-09 21:59:23:448,-1.0353,-0.1364,10.8047,-0.6379,-0.0286,9.7858,-0.0166,0.0585,-0.0161
63148,46.48937,-0.961218,81.55,34.16,3.216,127.9,18 / 20,6314810,2019-08-09 21:59:23:548,-0.3446,-0.5535,9.5579,-0.6258,-0.034,9.7866,0.0177,-0.0168,-0.0014
63149,46.48937,-0.961218,81.55,34.16,3.216,127.9,18 / 20,6314910,2019-08-09 21:59:23:648,-0.2225,0.3215,9.9572,-0.6273,-0.0253,9.7865,0.0159,-0.0024,-0.025
63150,46.48937,-0.961218,81.55,34.16,3.216,127.9,18 / 20,6315011,2019-08-09 21:59:23:749,-0.4954,-0.1878,10.333,-0.6184,-0.0289,9.7871,-0.0137,-0.0354,0.0107
63151,46.48937,-0.961218,81.55,34.16,3.216,127.9,18 / 20,6315110,2019-08-09 21:59:23:848,0.1073,-0.6188,8.8397,-0.6034,-0.0333,9.788,0.0067,-0.0332,0.0054
63152,46.48937,-0.961218,81.55,34.16,3.216,127.9,18 / 20,6315210,2019-08-09 21:59:23:948,-0.1351,-0.7409,9.4322,-0.5933,-0.0374,9.7886,-0.0096,-0.0265,0.0391
63153,46.48937,-0.961218,81.55,34.16,3.216,127.9,18 / 20,6315310,2019-08-09 21:59:24:048,-0.7456,-0.368,9.7961,-0.5985,-0.053,9.7882,-0.014,0.0143,-0.0023
63154,46.48937,-0.961218,81.55,34.16,3.216,127.9,18 / 20,6315410,2019-08-09 21:59:24:148,-0.1207,-0.2944,10.4312,-0.6296,-0.0672,9.7862,0.0049,0.0056,0.0106
63155,46.48937,-0.961218,81.55,34.16,3.216,127.9,18 / 20,6315510,2019-08-09 21:59:24:248,-1.1293,-0.2219,9.595,-0.6305,-0.061,9.7862,0.0125,-0.013,0.0022
63156,46.48937,-0.961218,81.55,34.16,3.216,127.9,18 / 20,6315610,2019-08-09 21:59:24:348,-1.2149,-0.265,9.4526,-0.6261,-0.0539,9.7865,0.0099,-0.0226,-0.0068
63157,46.48937,-0.961218,81.55,34.16,3.216,127.9,18 / 20,6315710,2019-08-09 21:59:24:448,-0.6965,0.0306,9.3496,-0.5938,-0.0484,9.7885,-0.0028,0.0233,-0.0095
63158,46.48937,-0.961218,81.55,34.16,3.216,127.9,18 / 20,6315810,2019-08-09 21:59:24:548,-1.088,-0.2166,10.0583,-0.606,-0.051,9.7878,-0.0068,0.0132,0.0119
63159,46.48937,-0.961218,81.55,34.16,3.216,127.9,18 / 20,6315910,2019-08-09 21:59:24:648,-0.2728,-0.2237,9.7536,-0.6398,-0.0569,9.7856,-0.0008,-0.02,0.0077
63160,46.48937,-0.961218,81.55,34.16,3.216,127.9,18 / 20,6316010,2019-08-09 21:59:24:748,-1.0898,0.0067,10.1176,-0.6228,-0.0543,9.7867,-0.0027,0.028,-0.0009
63161,46.48937,-0.961218,81.55,34.16,3.216,127.9,18 / 20,6316110,2019-08-09 21:59:24:848,-1.735,0.0402,9.9488,-0.6318,-0.0599,9.7861,0.0116,0.0022,-0.0168
63162,46.48937,-0.961218,81.55,34.16,3.216,127.9,18 / 20,6316210,2019-08-09 21:59:24:948,-0.502,0.3329,10.4869,-0.6048,-0.0531,9.7878,-0.006,0.0012,-0.0137
63163,46.48937,-0.961218,81.55,34.16,3.216,127.9,18 / 20,6316310,2019-08-09 21:59:25:048,0.1923,-0.0765,9.3867,-0.5949,-0.0473,9.7885,0.0013,0.0071,0.0007
63164,46.48937,-0.961218,81.55,34.16,3.216,127.9,18 / 20,6316410,2019-08-09 21:59:25:148,-0.7289,-0.098,9.6405,-0.6007,-0.0482,9.7881,0.0048,0.0411,-0.0081
