,GPS LATITUDE (degrees), GPS LONGITUDE (degrees), GPS ALTITUDE (m), GPS SPEED (Kmh), GPS ACCURACY (m), GPS ORIENTATION (Â°),GPS SATELLITES IN RANGE, TIME SINCE START (ms), DATE (YYYY-MO-DD HH-MI-SS_SSS), ACCELEROMETER X (m/s²) , ACCELEROMETER Y (m/s²), ACCELEROMETER Z (m/s²), GRAVITY X (m/s²), GRAVITY Y (m/s²), GRAVITY Z (m/s²), GYROSCOPE Yaw (rad/s), GYROSCOPE Pitch (rad/s), GYROSCOPE Roll (rad/s), MAGNETIC FIELD X (Î¼T), MAGNETIC FIELD Y (Î¼T), MAGNETIC FIELD Z (Î¼T), ORIENTATION (Yaw) (Â°), ORIENTATION (Pitch) (Â°), ORIENTATION (Roll ) (Â°)
23136,52.43961,-1.536018,184.94,12.74,2.0,321.19,24 / 24,2317827,2019-09-07 09:52:03:106,0.1731,-0.928,10.1306,-0.0087,0.0093,9.8066,0.0208,-0.0159,0.0035,-3.37,-36.31,-0.81,216.17,-83.35,-164.36
23137,52.43961,-1.536018,184.94,12.74,2.0,321.19,24 / 24,2317927,2019-09-07 09:52:03:206,-0.2994,-0.844,10.1189,-0.007,-0.0152,9.8066,0.0249,-0.0162,0.0207,-3.37,-36.44,-0.62,216.49,-83.47,-164.79
23138,52.43961,-1.536018,184.94,12.74,2.0,321.19,24 / 24,2318027,2019-09-07 09:52:03:306,0.7512,0.8118,10.2233,0.0313,0.0873,9.8061,-0.1765,0.0239,-0.0241,-3.0,-36.12,0.0,222.7,-83.7,-163.87
23139,52.43961,-1.536018,184.94,12.74,2.0,321.19,24 / 24,2318128,2019-09-07 09:52:03:407,0.4029,-0.7665,10.6981,0.0367,0.1166,9.8058,-0.1541,-0.0496,-0.021,-3.25,-36.44,-0.56,217.77,-83.84,-165.38
23140,52.43961,-1.536018,184.94,12.74,2.0,321.19,23 / 23,2318227,2019-09-07 09:52:03:506,0.1857,0.2525,10.3376,-0.0128,0.0114,9.8066,-0.0888,0.0332,-0.086,-2.75,-36.19,-0.75,214.05,-83.17,-168.31
23141,52.43961,-1.536018,184.94,12.74,2.0,321.19,23 / 23,2318327,2019-09-07 09:52:03:606,0.8902,-0.9652,9.1965,0.0118,0.0463,9.8065,-0.0995,-0.0715,-0.0384,-3.0,-36.31,-0.87,213.23,-83.07,-169.59
23142,52.43961,-1.536018,184.94,12.74,2.0,321.19,23 / 23,2318427,2019-09-07 09:52:03:706,-0.1832,-0.5548,9.4677,-0.0335,-0.0478,9.8064,0.0251,-0.0475,0.0049,-2.62,-35.87,-1.12,213.45,-83.22,-170.39
23143,52.43961,-1.536018,184.94,12.74,2.0,321.19,23 / 23,2318527,2019-09-07 09:52:03:806,-0.297,-0.7921,9.7255,-0.0218,-0.0326,9.8066,0.0218,-0.0155,-0.0275,-2.19,-36.37,-1.12,204.58,-83.62,-170.83
23144,52.43961,-1.536018,184.94,12.74,2.0,321.19,23 / 23,2318628,2019-09-07 09:52:03:907,0.8461,0.1947,9.7203,-0.0044,0.0089,9.8066,0.0383,-0.0063,-0.0224,-2.5,-36.75,-1.75,201.66,-83.63,-171.04
23145,52.43961,-1.536018,184.94,12.74,2.0,321.19,23 / 23,2318728,2019-09-07 09:52:04:007,0.4893,0.7812,10.0433,-0.0063,-0.0152,9.8065,0.1101,0.0051,0.0073,-2.0,-36.12,-1.44,204.28,-83.66,-172.25
23146,52.43961,-1.536018,184.94,12.74,2.0,321.19,23 / 23,2318827,2019-09-07 09:52:04:106,0.7315,0.5651,10.2137,0.015,0.0371,9.8065,-0.107,0.0472,0.0056,-2.06,-36.62,-1.56,200.29,-83.39,-173.29
23147,52.43961,-1.536018,184.94,12.74,2.0,321.19,23 / 23,2318927,2019-09-07 09:52:04:206,-0.0677,0.0051,9.8876,0.0223,0.036,9.8065,-0.0548,0.0181,0.0095,-2.87,-36.37,-1.12,212.82,-83.38,-173.51
23148,52.43961,-1.536018,184.94,12.74,2.0,321.19,23 / 23,2319028,2019-09-07 09:52:04:307,0.9782,-1.2184,9.862,0.0009,-0.0153,9.8066,0.0813,0.0358,-0.0191,-1.87,-36.5,-0.81,203.2,-83.4,-173.51
23149,52.43961,-1.536018,184.94,12.74,2.0,321.19,25 / 25,2319127,2019-09-07 09:52:04:406,-0.1176,-0.3695,10.2442,-0.0095,-0.0015,9.8065,0.0464,-0.0277,0.0514,-2.19,-36.56,-1.62,200.32,-83.54,-174.04
23150,52.43961,-1.536018,184.94,12.74,2.0,321.19,25 / 25,2319227,2019-09-07 09:52:04:506,0.6682,0.5351,9.8847,0.0019,0.0171,9.8066,0.0934,-0.0178,0.0148,-2.81,-36.5,-1.5,213.03,-83.47,-173.68
23151,52.43961,-1.536018,184.94,12.74,2.0,321.19,25 / 25,2319327,2019-09-07 09:52:04:606,0.5158,-1.1306,10.0346,0.0196,0.0172,9.8066,-0.1282,-0.045,0.0871,-2.69,-36.69,-1.31,212.55,-83.49,-173.5
23152,52.43961,-1.536018,184.94,12.74,2.0,321.19,25 / 25,2319427,2019-09-07 09:52:04:706,0.7621,-0.3472,9.3067,-0.01,-0.0148,9.8065,-0.0617,-0.0463,0.0059,-2.06,-36.56,-1.31,202.88,-83.52,-174.05
23153,52.43961,-1.536018,184.94,12.74,2.0,321.19,25 / 25,2319527,2019-09-07 09:52:04:806,0.0835,0.1901,8.8072,-0.0047,-0.0011,9.8066,-0.0599,-0.0242,-0.0369,-2.56,-36.94,-1.5,212.33,-83.6,-175.11
23154,52.43961,-1.536018,184.94,12.74,2.0,321.19,25 / 25,2319628,2019-09-07 09:52:04:907,-0.7398,-0.131,10.1445,0.0011,-0.0086,9.8066,-0.0102,-0.0114,0.0062,-3.0,-36.69,-1.56,208.56,-83.64,-174.92
23155,52.43961,-1.536018,184.94,12.74,2.0,321.19,25 / 25,2319727,2019-09-07 09:52:05:006,0.6048,0.269,10.0933,-0.0059,0.0047,9.8065,0.0041,0.0152,-0.0073,-2.75,-36.56,-1.44,212.44,-83.65,-175.23
23156,52.43961,-1.536018,184.94,12.74,2.0,321.19,25 / 25,2319827,2019-09-07 09:52:05:106,0.0731,-0.3181,9.7319,0.0033,-0.0006,9.8065,-0.0719,0.0129,0.0086,-2.56,-37.19,-0.87,212.22,-83.56,-175.03
23157,52.43961,-1.536018,184.94,12.74,2.0,321.19,25 / 25,2319927,2019-09-07 09:52:05:206,0.0497,-0.181,10.3604,-0.0126,0.0024,9.8066,0.0981,0.0199,-0.0599,-3.56,-36.56,-0.75,220.06,-83.53,-175.39
23158,52.43961,-1.536018,184.94,12.74,2.0,321.19,25 / 25,2320027,2019-09-07 09:52:05:306,0.0812,0.3952,9.8882,0.0095,0.0189,9.8065,0.1309,0.0117,-0.0117,-3.06,-36.81,-0.62,212.03,-83.61,-175.88
23159,52.43961,-1.536018,184.94,12.74,2.0,321.19,24 / 25,2320128,2019-09-07 09:52:05:407,0.4188,-0.1336,9.9074,-0.0078,0.0132,9.8066,0.0306,0.0428,0.0165,-2.94,-36.5,-0.69,212.11,-83.55,-176.67
23160,52.43961,-1.536018,184.94,12.74,2.0,321.19,24 / 25,2320227,2019-09-07 09:52:05:506,-0.3067,-0.0357,10.1884,-0.0043,-0.0161,9.8065,0.0235,0.0033,-0.0109,-2.37,-36.25,-0.12,207.36,-83.66,-176.63
23161,52.43961,-1.536018,184.94,12.74,2.0,321.19,24 / 25,2320327,2019-09-07 09:52:05:606,-0.4352,-0.6606,10.3204,0.0047,-0.0011,9.8066,-0.0272,0.0056,-0.039,-2.19,-36.5,-1.19,202.78,-83.54,-176.23
23162,52.43961,-1.536018,184.94,12.74,2.0,321.19,24 / 25,2320427,2019-09-07 09:52:05:706,-0.3933,-0.5187,10.1578,0.0084,-0.0019,9.8066,0.0275,-0.0294,-0.0071,-1.87,-36.56,-0.87,202.0,-83.44,-176.45
23163,52.43961,-1.536018,184.94,12.74,2.0,321.19,24 / 25,2320527,2019-09-07 09:52:05:806,0.3482,-0.3767,9.9566,-0.0035,-0.0036,9.8065,-0.0164,-0.0272,-0.0341,-1.69,-36.19,-0.94,202.53,-83.34,-175.28
23164,52.43961,-1.536018,184.94,12.74,2.0,321.19,24 / 25,2320627,2019-09-07 09:52:05:906,0.1598,-0.0298,10.0823,-0.0042,0.0137,9.8066,0.0093,-0.0746,0.1048,-2.12,-36.12,-1.31,202.53,-83.31,-175.01
23165,52.43961,-1.536018,184.94,12.74,2.0,321.19,24 / 25,2320727,2019-09-07 09:52:06:006,0.2965,-0.1772,9.7348,0.0026,-0.0031,9.8066,-0.0087,-0.0562,0.0542,-2.25,-36.06,-0.56,202.3,-83.23,-175.12
23166,52.43961,-1.536018,184.94,12.74,2.0,321.19,24 / 25,2320827,2019-09-07 09:52:06:106,0.3771,-0.1355,9.7794,-0.0047,-0.0091,9.8066,0.0343,-0.011,0.0115,-2.25,-36.37,-1.37,202.51,-83.17,-173.89
23167,52.43961,-1.536018,184.94,12.74,2.0,321.19,24 / 25,2320927,2019-09-07 09:52:06:206,-0.071,0.233,9.4442,0.0061,-0.0311,9.8066,0.0095,0.0149,0.0345,-2.44,-36.94,-1.19,202.51,-83.25,-172.87
23168,52.43961,-1.536018,184.94,12.74,2.0,321.19,24 / 25,2321027,2019-09-07 09:52:06:306,0.7169,-0.1319,9.6765,0.0136,0.0004,9.8066,-0.1057,0.0175,0.0003,-2.69,-36.69,-1.12,212.96,-83.39,-171.57
23169,52.43961,-1.536018,184.94,12.74,2.0,321.19,24 / 24,2321128,2019-09-07 09:52:06:407,-0.1487,-0.6402,9.745,0.0085,0.0042,9.8066,-0.053,0.0402,-0.0147,-2.69,-35.94,-0.56,214.48,-83.5,-170.25
23170,52.43961,-1.536018,184.94,12.74,2.0,321.19,24 / 24,2321227,2019-09-07 09:52:06:506,0.3449,0.0585,9.4084,-0.002,-0.0131,9.8066,0.0445,0.0429,-0.0337,-2.87,-36.94,-1.12,213.78,-83.43,-169.72
23171,52.43961,-1.536018,184.94,12.74,2.0,321.19,24 / 24,2321328,2019-09-07 09:52:06:607,-0.5432,0.0217,9.8926,0.0092,-0.0106,9.8066,0.0169,0.0276,0.0025,-2.19,-36.19,-0.87,204.57,-83.43,-168.93
23172,52.43961,-1.536018,184.94,12.74,2.0,321.19,24 / 24,2321427,2019-09-07 09:52:06:706,0.2784,0.1698,10.0823,0.0084,0.0009,9.8066,0.0006,0.0005,0.0524,-2.69,-37.12,-1.56,210.76,-83.37,-168.33
23173,52.43961,-1.536018,184.94,12.74,2.0,321.19,24 / 24,2321527,2019-09-07 09:52:06:806,0.0936,-0.4744,9.5753,0.0027,0.0022,9.8066,-0.0099,0.0062,-0.0352,-2.62,-37.0,-1.0,214.45,-83.4,-167.63
23174,52.43961,-1.536018,184.94,12.74,2.0,321.19,24 / 24,2321627,2019-09-07 09:52:06:906,-0.2375,-0.812,9.7871,-0.012,-0.024,9.8066,0.1195,-0.0634,0.044,-2.56,-36.06,-0.75,215.27,-83.44,-167.65
23175,52.43961,-1.536018,184.94,12.74,2.0,321.19,24 / 24,2321727,2019-09-07 09:52:07:006,0.7145,0.6814,10.2065,-0.0029,-0.0381,9.8065,0.1569,0.0119,-0.0369,-2.06,-36.56,-1.62,202.98,-83.62,-167.55
23176,52.43961,-1.536018,184.94,12.74,2.0,321.19,24 / 24,2321828,2019-09-07 09:52:07:107,0.8278,-0.0495,10.0285,-0.0055,0.0204,9.8066,0.005,0.0234,-0.05,-3.12,-36.44,-1.0,215.22,-83.54,-168.75
23177,52.43961,-1.536018,184.94,12.74,2.0,321.19,24 / 24,2321927,2019-09-07 09:52:07:206,0.6871,0.5649,9.7396,0.0,0.0061,9.8066,0.0557,-0.0361,0.0205,-2.62,-36.62,-1.25,213.79,-83.53,-170.62
23178,52.43961,-1.536018,184.94,12.74,2.0,321.19,24 / 24,2322027,2019-09-07 09:52:07:306,-0.8876,-0.2259,10.113,0.01,0.0637,9.8064,-0.1115,0.108,-0.1143,-0.75,-35.19,-0.5,194.35,-83.41,-170.85
23179,52.43961,-1.536018,184.94,12.74,2.0,321.19,24 / 24,2322132,2019-09-07 09:52:07:411,0.2522,-0.5309,10.5871,0.021,0.1001,9.806,-0.0031,-0.0372,-0.0007,-2.81,-35.12,-0.31,219.25,-83.39,-172.53
23180,52.43961,-1.536018,184.94,12.74,2.0,321.19,24 / 24,2322228,2019-09-07 09:52:07:507,1.2556,2.342,10.5634,-0.0007,0.0147,9.8066,-0.0734,0.0376,-0.0384,-3.06,-36.25,-1.31,213.23,-83.43,-172.81
23181,52.43961,-1.536018,184.94,12.74,2.0,321.19,24 / 24,2322327,2019-09-07 09:52:07:606,0.6961,-0.0372,9.2688,0.0155,0.0345,9.8065,-0.002,-0.0513,0.0506,-2.81,-36.06,-0.87,212.16,-83.21,-173.71
23182,52.43961,-1.536018,184.94,12.74,2.0,321.19,24 / 24,2322428,2019-09-07 09:52:07:707,-0.7378,-0.6254,9.2731,-0.0211,-0.0437,9.8065,-0.0372,-0.0393,0.0355,-2.87,-36.5,-1.31,212.52,-83.29,-173.43
23183,52.43961,-1.536018,184.94,12.74,2.0,321.19,24 / 24,2322528,2019-09-07 09:52:07:807,0.3985,-0.3257,9.5027,-0.0105,-0.0364,9.8065,-0.0248,0.0128,0.0128,-2.56,-36.31,-1.0,214.44,-83.72,-172.42
23184,52.43961,-1.536018,184.94,12.74,2.0,321.19,24 / 24,2322627,2019-09-07 09:52:07:906,-0.0475,-0.127,10.2446,0.0046,0.0053,9.8066,-0.0189,0.0079,-0.0244,-2.75,-36.75,-1.62,210.28,-83.83,-172.32
23185,52.43961,-1.536018,184.94,12.74,2.0,321.19,24 / 24,2322727,2019-09-07 09:52:08:006,0.3264,0.0292,10.0307,-0.0035,-0.0014,9.8066,0.0608,-0.0101,-0.0338,-2.31,-36.37,-2.06,202.09,-83.92,-172.54
23186,52.43961,-1.536018,184.94,12.74,2.0,321.19,24 / 24,2322827,2019-09-07 09:52:08:106,0.0331,-0.1042,9.9268,-0.0004,0.0116,9.8066,-0.0701,0.0083,-0.031,-3.37,-36.69,-1.06,214.11,-83.86,-172.94
23187,52.43961,-1.536018,184.94,12.74,2.0,321.19,24 / 24,2322928,2019-09-07 09:52:08:207,-0.2309,-0.1313,9.7506,0.0047,0.0101,9.8066,-0.0042,0.0117,-0.0272,-2.56,-36.94,-1.19,213.55,-83.76,-173.45
23188,52.43961,-1.536018,184.94,12.74,2.0,321.19,24 / 24,2323027,2019-09-07 09:52:08:306,1.1323,-0.0359,10.1019,0.0061,-0.0052,9.8066,0.0178,0.0053,0.011,-2.81,-36.5,-1.25,213.84,-83.75,-174.14
23189,52.43961,-1.536018,184.94,12.74,2.0,321.19,24 / 24,2323127,2019-09-07 09:52:08:406,0.1355,0.5882,9.3416,-0.0098,-0.0126,9.8066,0.0603,0.0461,-0.0201,-3.37,-36.62,-0.31,219.09,-83.82,-174.04
23190,52.43961,-1.536018,184.94,12.74,2.0,321.19,24 / 24,2323227,2019-09-07 09:52:08:506,0.3975,0.4467,9.9903,0.0088,0.0066,9.8066,-0.0288,0.0359,-0.041,-2.56,-36.31,-0.25,219.82,-83.79,-173.92
23191,52.43961,-1.536018,184.94,12.74,2.0,321.19,24 / 24,2323327,2019-09-07 09:52:08:606,-0.129,0.142,9.897,0.0026,-0.0027,9.8066,0.059,-0.0229,0.0542,-2.44,-36.31,-0.94,204.13,-83.79,-173.94
23192,52.43961,-1.536018,184.94,12.74,2.0,321.19,24 / 24,2323427,2019-09-07 09:52:08:706,-0.3482,0.4019,9.7601,-0.0014,0.0018,9.8066,-0.0411,-0.01,0.0076,-1.87,-35.94,-0.75,204.09,-83.79,-174.08
23193,52.43961,-1.536018,184.94,12.74,2.0,321.19,24 / 24,2323527,2019-09-07 09:52:08:806,0.7056,-0.8064,10.3329,-0.0048,-0.0027,9.8066,-0.0048,-0.0246,0.0008,-2.06,-35.69,-0.94,204.15,-83.79,-173.87
23194,52.43961,-1.536018,184.94,12.74,2.0,321.19,24 / 24,2323628,2019-09-07 09:52:08:907,0.4748,-0.3313,9.8769,0.0089,0.0353,9.8065,-0.0597,-0.0165,0.02,-2.31,-35.44,-1.19,204.85,-83.9,-174.31
23195,52.43961,-1.536018,184.94,12.74,2.0,321.19,24 / 24,2323728,2019-09-07 09:52:09:007,0.0492,-0.5865,9.5522,0.0063,0.0401,9.8065,-0.0985,-0.0111,-0.0112,-2.06,-35.94,-1.44,203.39,-83.65,-175.18
23196,52.43961,-1.536018,184.94,12.74,2.0,321.19,24 / 24,2323827,2019-09-07 09:52:09:106,-0.4008,-0.6848,10.221,-0.0162,-0.0275,9.8066,0.0653,0.0127,-0.0048,-2.5,-34.94,-1.44,203.94,-83.67,-175.12
23197,52.43961,-1.536018,184.94,12.74,2.0,321.19,24 / 24,2323927,2019-09-07 09:52:09:206,-0.1037,-0.6936,10.5723,-0.0063,0.0011,9.8066,0.0047,-0.0345,0.0683,-1.75,-35.06,-1.81,200.88,-83.77,-175.6
23198,52.43961,-1.536018,184.94,12.74,2.0,321.19,24 / 24,2324027,2019-09-07 09:52:09:306,-0.0917,-0.7079,10.081,0.0029,0.0105,9.8066,0.0632,-0.0162,0.0255,-1.56,-35.56,-0.25,207.27,-83.61,-176.1
23199,52.440407,-1.537078,186.05,12.73,3.0,320.51,23 / 23,2324127,2019-09-07 09:52:09:406,0.602,1.0182,9.5435,0.0042,0.004,9.8066,0.0147,0.0268,0.0118,-2.37,-36.25,-0.69,202.67,-83.49,-176.1
23200,52.440407,-1.537078,186.05,12.73,3.0,320.51,23 / 23,2324227,2019-09-07 09:52:09:506,-0.3602,0.5347,9.3413,0.0069,-0.0067,9.8066,-0.0598,0.0948,-0.1075,-1.94,-36.44,-0.87,202.81,-83.49,-175.64
23201,52.440407,-1.537078,186.05,12.73,3.0,320.51,23 / 23,2324327,2019-09-07 09:52:09:606,-0.1136,-0.244,9.6607,0.0052,0.0202,9.8066,-0.0644,0.0254,-0.0023,-1.87,-36.62,-0.94,202.41,-83.54,-175.91
23202,52.440407,-1.537078,186.05,12.73,3.0,320.51,23 / 23,2324427,2019-09-07 09:52:09:706,1.367,-1.2334,8.9859,0.0077,-0.0195,9.8066,-0.0282,0.1136,-0.0654,-1.31,-36.56,-0.87,191.73,-83.53,-176.51
23203,52.440407,-1.537078,186.05,12.73,3.0,320.51,23 / 23,2324527,2019-09-07 09:52:09:806,1.6524,-0.2942,10.1586,0.0043,-0.0212,9.8065,0.036,0.0559,-0.097,-1.69,-36.62,-1.12,202.63,-83.62,-175.9
23204,52.440407,-1.537078,186.05,12.73,3.0,320.51,23 / 23,2324627,2019-09-07 09:52:09:906,0.2198,-0.2344,10.6307,0.0111,0.0144,9.8065,0.0031,0.1232,-0.0213,-2.06,-36.0,-1.19,202.77,-83.58,-176.57
23205,52.440407,-1.537078,186.05,12.73,3.0,320.51,23 / 23,2324728,2019-09-07 09:52:10:007,-0.8659,-1.8224,10.5948,-0.0045,0.0025,9.8066,-0.0598,0.0427,0.0904,-2.12,-35.44,-1.12,202.87,-83.53,-177.39
23206,52.440407,-1.537078,186.05,12.73,3.0,320.51,23 / 23,2324827,2019-09-07 09:52:10:106,-0.654,0.2591,9.4976,0.0058,0.0364,9.8066,-0.1284,0.077,0.007,-2.31,-35.44,-0.87,203.02,-83.52,-176.76
23207,52.440407,-1.537078,186.05,12.73,3.0,320.51,23 / 23,2324928,2019-09-07 09:52:10:207,0.5323,-0.4304,9.7392,0.0169,0.0221,9.8066,-0.1149,-0.0042,0.0416,-3.37,-35.37,-0.94,211.88,-83.34,-177.06
23208,52.440407,-1.537078,186.05,12.73,3.0,320.51,23 / 23,2325027,2019-09-07 09:52:10:306,0.2989,-0.339,9.5804,-0.0098,-0.0243,9.8066,0.0782,0.0285,-0.0425,-1.81,-36.12,-0.81,202.21,-83.45,-177.31
23209,52.440407,-1.537078,186.05,12.73,3.0,320.51,24 / 24,2325128,2019-09-07 09:52:10:407,0.3998,-0.2809,10.1645,-0.0086,0.0026,9.8066,0.0657,-0.0444,0.0435,-2.25,-36.0,-1.06,202.42,-83.6,-177.9
23210,52.440407,-1.537078,186.05,12.73,3.0,320.51,24 / 24,2325227,2019-09-07 09:52:10:506,0.9959,-1.2236,10.1023,-0.0237,-0.0313,9.8066,0.087,-0.0849,0.0152,-2.81,-35.87,-0.94,211.74,-83.55,-177.62
23211,52.440407,-1.537078,186.05,12.73,3.0,320.51,24 / 24,2325327,2019-09-07 09:52:10:606,0.3458,-0.3784,9.6604,-0.0278,-0.0364,9.8065,0.057,-0.059,0.044,-2.31,-35.75,-1.06,202.64,-83.8,-178.82
23212,52.440407,-1.537078,186.05,12.73,3.0,320.51,24 / 24,2325427,2019-09-07 09:52:10:706,-0.8122,1.6768,9.5775,0.0057,0.008,9.8066,-0.0367,-0.1071,0.0951,-1.62,-36.37,-1.5,202.65,-83.86,-179.33
23213,52.440407,-1.537078,186.05,12.73,3.0,320.51,24 / 24,2325527,2019-09-07 09:52:10:806,-0.1109,-0.4292,9.988,0.0248,-0.0094,9.8065,-0.0568,-0.0198,0.0191,-2.19,-36.44,-1.94,200.51,-83.89,-176.25
23214,52.440407,-1.537078,186.05,12.73,3.0,320.51,24 / 24,2325627,2019-09-07 09:52:10:906,-0.463,-0.172,10.3301,0.0203,-0.0125,9.8065,0.08,-0.0108,0.0389,-2.69,-36.37,-1.44,215.21,-83.99,-172.96
23215,52.440407,-1.537078,186.05,12.73,3.0,320.51,24 / 24,2325727,2019-09-07 09:52:11:006,0.075,-0.475,10.7476,0.017,-0.0051,9.8066,0.0702,-0.0069,0.0657,-2.12,-36.44,-1.25,205.26,-83.85,-170.83
23216,52.440407,-1.537078,186.05,12.73,3.0,320.51,24 / 24,2325827,2019-09-07 09:52:11:106,0.8867,-0.2604,9.9017,0.0074,0.0162,9.8066,0.0436,-0.0031,0.0233,-3.12,-36.06,-1.31,215.02,-83.55,-169.35
23217,52.440407,-1.537078,186.05,12.73,3.0,320.51,24 / 24,2325927,2019-09-07 09:52:11:206,-0.1276,0.4023,9.8821,0.0067,0.0036,9.8066,-0.011,0.0526,-0.0651,-3.0,-36.0,-0.75,214.02,-83.32,-169.81
23218,52.440407,-1.537078,186.05,12.73,3.0,320.51,24 / 24,2326027,2019-09-07 09:52:11:306,0.9459,-0.8766,9.8816,-0.0035,-0.0209,9.8066,0.0356,0.0421,-0.0748,-2.56,-36.25,-0.87,214.05,-83.4,-170.5
23219,52.440407,-1.537078,186.05,12.73,3.0,320.51,24 / 24,2326128,2019-09-07 09:52:11:407,0.3248,0.0875,9.1996,-0.0136,-0.0114,9.8066,-0.001,0.0061,-0.0084,-2.75,-36.56,-1.06,214.19,-83.66,-170.83
23220,52.440407,-1.537078,186.05,12.73,3.0,320.51,24 / 24,2326227,2019-09-07 09:52:11:506,1.4528,-0.9189,9.9888,-0.02,-0.0099,9.8066,0.0962,-0.0209,0.0233,-3.0,-36.5,-0.81,214.94,-83.77,-171.65
23221,52.440407,-1.537078,186.05,12.73,3.0,320.51,24 / 24,2326327,2019-09-07 09:52:11:606,0.6005,-0.2204,9.6008,0.0032,0.0033,9.8066,0.1223,-0.0113,0.0012,-2.37,-36.44,-0.87,204.15,-83.7,-173.02
23222,52.440407,-1.537078,186.05,12.73,3.0,320.51,24 / 24,2326427,2019-09-07 09:52:11:706,1.5292,-0.2561,10.2456,-0.0171,-0.018,9.8066,0.0565,-0.0255,-0.0934,-2.56,-36.56,-1.06,213.12,-83.56,-172.65
23223,52.440407,-1.537078,186.05,12.73,3.0,320.51,24 / 24,2326527,2019-09-07 09:52:11:806,-0.6386,-0.4822,9.7762,-0.0292,-0.011,9.8066,0.0546,-0.0012,-0.0384,-1.75,-36.69,-0.81,202.9,-83.75,-176.1
23224,52.440407,-1.537078,186.05,12.73,3.0,320.51,24 / 24,2326627,2019-09-07 09:52:11:906,0.2475,-0.1865,9.6929,-0.0108,-0.0035,9.8066,-0.0423,0.0003,-0.0662,-1.69,-36.12,-0.75,202.91,-83.82,-178.18
23225,52.440407,-1.537078,186.05,12.73,3.0,320.51,24 / 24,2326727,2019-09-07 09:52:12:006,-0.8682,0.4277,9.9443,-0.0032,0.0099,9.8066,-0.0497,0.0631,-0.1259,-1.5,-35.81,-1.25,191.8,-83.95,-180.0
23226,52.440407,-1.537078,186.05,12.73,3.0,320.51,24 / 24,2326827,2019-09-07 09:52:12:106,-1.0916,-0.4929,9.9115,-0.0105,0.0066,9.8066,-0.0241,0.0279,-0.0291,-2.0,-36.12,-1.62,198.19,-83.99,177.68
23227,52.440407,-1.537078,186.05,12.73,3.0,320.51,24 / 24,2326927,2019-09-07 09:52:12:206,-0.6208,0.5585,9.6627,0.0052,-0.004,9.8066,0.015,0.0496,-0.0185,-1.94,-35.5,-1.81,198.41,-83.87,177.99
23228,52.440407,-1.537078,186.05,12.73,3.0,320.51,24 / 24,2327027,2019-09-07 09:52:12:306,-0.2913,0.4003,9.9193,0.002,-0.0092,9.8065,0.0527,-0.0311,0.0735,-1.94,-36.06,-1.0,201.53,-83.76,177.98
23229,52.440407,-1.537078,186.05,12.73,3.0,320.51,24 / 24,2327128,2019-09-07 09:52:12:407,0.364,-0.1429,9.6013,-0.0073,-0.0165,9.8066,0.0458,0.005,-0.0133,-2.0,-35.87,-1.62,198.56,-83.9,179.0
23230,52.440407,-1.537078,186.05,12.73,3.0,320.51,24 / 24,2327227,2019-09-07 09:52:12:506,0.3309,-0.1141,9.746,-0.003,-0.0079,9.8066,-0.0036,-0.0177,0.0014,-2.06,-36.69,-0.75,201.85,-83.86,179.54
23231,52.440407,-1.537078,186.05,12.73,3.0,320.51,24 / 24,2327327,2019-09-07 09:52:12:606,0.4974,-0.1025,9.5134,-0.0072,-0.0074,9.8066,0.03,-0.0612,0.0488,-2.06,-36.12,-1.5,202.38,-83.93,179.3
23232,52.440407,-1.537078,186.05,12.73,3.0,320.51,24 / 24,2327427,2019-09-07 09:52:12:706,0.1887,0.6297,9.7515,0.0058,0.0118,9.8066,-0.0083,0.0014,-0.0137,-1.94,-36.19,-1.62,198.85,-83.84,179.96
23233,52.440407,-1.537078,186.05,12.73,3.0,320.51,24 / 24,2327527,2019-09-07 09:52:12:806,0.434,-0.674,9.8197,0.006,0.0028,9.8066,0.0513,-0.0392,0.0217,-2.19,-36.69,-1.44,202.03,-83.81,-179.49
23234,52.440407,-1.537078,186.05,12.73,3.0,320.51,24 / 24,2327627,2019-09-07 09:52:12:906,1.0261,0.1348,10.0748,0.0162,0.0117,9.8066,-0.0789,0.0241,-0.0148,-2.19,-36.69,-1.25,202.29,-83.88,-179.2
23235,52.440407,-1.537078,186.05,12.73,3.0,320.51,24 / 24,2327728,2019-09-07 09:52:13:007,0.1127,-0.5909,9.6778,0.0048,0.0189,9.8066,-0.0781,0.0016,0.0071,-1.75,-36.19,-1.25,202.57,-83.76,-178.78
23236,52.440407,-1.537078,186.05,12.73,3.0,320.51,24 / 24,2327827,2019-09-07 09:52:13:106,0.2033,0.2139,9.9753,-0.0168,-0.0271,9.8065,0.1364,-0.0315,0.0319,-2.75,-36.37,-1.31,212.43,-83.89,-178.68
23237,52.440407,-1.537078,186.05,12.73,3.0,320.51,24 / 24,2327927,2019-09-07 09:52:13:206,0.1065,-0.6599,9.8021,0.0018,-0.0274,9.8066,0.1039,0.0195,0.0,-2.06,-36.5,-1.0,203.04,-83.86,-178.06
23238,52.440407,-1.537078,186.05,12.73,3.0,320.51,24 / 24,2328027,2019-09-07 09:52:13:306,-0.0657,-1.3599,10.2661,0.01,0.0122,9.8066,-0.1439,-0.0255,0.0199,-2.12,-36.06,-1.06,203.05,-83.84,-177.9
23239,52.440407,-1.537078,186.05,12.73,3.0,320.51,24 / 24,2328127,2019-09-07 09:52:13:406,-0.014,-0.4042,10.012,0.0017,-0.0024,9.8066,-0.0599,0.0045,-0.0691,-2.06,-36.5,-1.31,203.21,-83.83,-177.32
23240,52.440407,-1.537078,186.05,12.73,3.0,320.51,24 / 24,2328227,2019-09-07 09:52:13:506,-0.1207,-0.1444,9.747,-0.0065,0.0011,9.8066,0.0085,-0.0361,0.0094,-2.75,-36.31,-1.31,212.86,-83.82,-177.12
23241,52.440407,-1.537078,186.05,12.73,3.0,320.51,24 / 24,2328327,2019-09-07 09:52:13:606,0.0294,-1.2296,10.8085,-0.0022,0.0063,9.8066,0.0079,-0.0337,-0.001,-2.37,-36.44,-1.31,202.94,-83.8,-177.86
23242,52.440407,-1.537078,186.05,12.73,3.0,320.51,24 / 24,2328427,2019-09-07 09:52:13:706,-0.0548,0.4097,9.7535,-0.0095,0.0261,9.8066,0.0444,-0.0526,0.0655,-1.87,-36.31,-1.06,202.09,-83.64,-179.32
23243,52.440407,-1.537078,186.05,12.73,3.0,320.51,24 / 24,2328528,2019-09-07 09:52:13:807,0.1032,-0.0578,10.444,0.021,0.0288,9.8066,0.0082,0.0142,-0.0306,-2.5,-36.62,-1.44,201.59,-83.55,-178.74
23244,52.440407,-1.537078,186.05,12.73,3.0,320.51,24 / 24,2328628,2019-09-07 09:52:13:907,0.0841,0.6922,9.6566,-0.0115,-0.0208,9.8066,0.1049,-0.0249,0.0286,-1.75,-36.12,-1.31,201.93,-83.5,-178.7
23245,52.440407,-1.537078,186.05,12.73,3.0,320.51,24 / 24,2328727,2019-09-07 09:52:14:006,0.7863,-0.3324,9.4557,-0.0132,-0.0076,9.8066,0.0338,-0.0534,0.0858,-2.56,-36.06,-0.87,211.48,-83.62,-178.82
23246,52.440407,-1.537078,186.05,12.73,3.0,320.51,24 / 24,2328827,2019-09-07 09:52:14:106,-0.6365,0.1353,9.7475,-0.0059,-0.0111,9.8066,0.0761,-0.0751,0.0579,-2.75,-35.81,-1.62,207.84,-83.61,-177.3
23247,52.440407,-1.537078,186.05,12.73,3.0,320.51,24 / 24,2328927,2019-09-07 09:52:14:206,-0.2757,0.145,9.7953,-0.0052,-0.0276,9.8066,0.0904,0.0331,-0.0376,-2.06,-36.12,-1.0,203.22,-83.74,-176.48
23248,52.440407,-1.537078,186.05,12.73,3.0,320.51,24 / 24,2329027,2019-09-07 09:52:14:306,1.6146,0.378,10.4993,0.0093,-0.0036,9.8066,0.0322,0.0375,0.0203,-2.37,-36.56,-0.81,202.99,-83.77,-176.0
23249,52.440407,-1.537078,186.05,12.73,3.0,320.51,24 / 25,2329128,2019-09-07 09:52:14:407,0.3423,1.1518,10.0672,-0.0063,0.0077,9.8066,-0.025,-0.04,-0.0585,-2.37,-36.12,-0.37,208.34,-83.86,-175.53
23250,52.440407,-1.537078,186.05,12.73,3.0,320.51,24 / 25,2329227,2019-09-07 09:52:14:506,-0.6076,-0.4243,10.5383,0.0067,0.0529,9.8064,-0.1303,0.0395,-0.0587,-2.31,-36.25,-1.12,203.15,-83.74,-176.7
23251,52.440407,-1.537078,186.05,12.73,3.0,320.51,24 / 25,2329327,2019-09-07 09:52:14:606,-0.3991,-0.485,10.1812,-0.0007,-0.0141,9.8066,0.0605,-0.0652,0.0152,-2.19,-36.12,-1.19,202.87,-83.86,-178.67
23252,52.440407,-1.537078,186.05,12.73,3.0,320.51,24 / 25,2329427,2019-09-07 09:52:14:706,0.2177,0.2067,9.4258,0.0142,0.0157,9.8065,-0.0229,0.0438,-0.1214,-2.0,-36.69,-1.0,202.39,-83.75,-177.76
23253,52.440407,-1.537078,186.05,12.73,3.0,320.51,24 / 25,2329527,2019-09-07 09:52:14:806,0.3235,-0.4672,9.7064,-0.0009,-0.0138,9.8066,-0.0276,0.0348,-0.0531,-2.19,-35.87,-1.19,202.78,-83.77,-178.12
23254,52.440407,-1.537078,186.05,12.73,3.0,320.51,24 / 25,2329627,2019-09-07 09:52:14:906,0.9598,0.1487,9.3414,-0.0053,-0.016,9.8065,0.0536,-0.0461,0.1007,-2.25,-36.19,-0.81,203.29,-83.96,-178.19
23255,52.440407,-1.537078,186.05,12.73,3.0,320.51,24 / 25,2329727,2019-09-07 09:52:15:006,-0.3368,0.7522,9.9246,0.0013,-0.0105,9.8066,0.019,-0.0038,0.0034,-2.25,-36.5,-1.06,203.98,-84.03,-176.61
23256,52.440407,-1.537078,186.05,12.73,3.0,320.51,24 / 25,2329827,2019-09-07 09:52:15:106,0.234,-0.1568,10.1959,-0.0051,-0.0087,9.8066,0.0467,-0.0041,0.0114,-2.0,-36.0,-1.62,200.99,-84.07,-176.01
23257,52.440407,-1.537078,186.05,12.73,3.0,320.51,24 / 25,2329927,2019-09-07 09:52:15:206,0.3192,0.4775,10.0243,0.0141,0.0221,9.8065,-0.0578,0.0029,0.0536,-2.25,-35.87,-1.19,204.35,-84.12,-176.28
23258,52.440407,-1.537078,186.05,12.73,3.0,320.51,24 / 25,2330028,2019-09-07 09:52:15:307,0.103,0.2674,9.9719,-0.0018,0.0085,9.8065,-0.0728,0.0213,0.0412,-2.31,-36.5,-1.37,203.96,-83.98,-176.27
23259,52.440407,-1.537078,186.05,12.73,3.0,320.51,24 / 25,2330127,2019-09-07 09:52:15:406,0.4581,0.1791,10.325,-0.0005,-0.0018,9.8066,0.0861,0.0097,0.0079,-2.69,-36.0,-1.37,214.08,-83.97,-175.45
23260,52.440407,-1.537078,186.05,12.73,3.0,320.51,25 / 25,2330227,2019-09-07 09:52:15:506,0.5154,0.4355,9.801,0.0067,-0.0035,9.8066,0.077,0.016,-0.0007,-2.12,-36.19,-1.25,204.4,-84.0,-175.06
23261,52.440407,-1.537078,186.05,12.73,3.0,320.51,25 / 25,2330327,2019-09-07 09:52:15:606,0.3482,-0.4477,9.4918,-0.0122,-0.0235,9.8066,0.0332,-0.0231,0.0274,-1.69,-36.25,-1.56,201.33,-84.14,-175.54
23262,52.440407,-1.537078,186.05,12.73,3.0,320.51,25 / 25,2330427,2019-09-07 09:52:15:706,0.4073,0.8149,9.8453,-0.0172,-0.0262,9.8065,0.0554,-0.0022,-0.0083,-2.69,-35.75,-1.69,210.34,-84.21,-175.45
23263,52.440407,-1.537078,186.05,12.73,3.0,320.51,25 / 25,2330527,2019-09-07 09:52:15:806,-0.1517,-0.9421,10.1987,-0.0064,-0.0049,9.8065,0.0323,-0.0238,-0.0007,-2.5,-35.69,-1.81,201.58,-84.23,-175.45
23264,52.440407,-1.537078,186.05,12.73,3.0,320.51,25 / 25,2330627,2019-09-07 09:52:15:906,-0.0969,0.4303,10.4697,-0.0129,-0.0159,9.8065,0.1141,-0.044,0.0615,-2.56,-35.87,-0.87,215.03,-84.34,-176.43
23265,52.440407,-1.537078,186.05,12.73,3.0,320.51,25 / 25,2330727,2019-09-07 09:52:16:006,-0.1978,-0.5033,9.7262,0.0061,0.0317,9.8066,-0.0958,0.0088,0.0337,-2.25,-35.94,-1.25,204.86,-84.28,-176.21
23266,52.440407,-1.537078,186.05,12.73,3.0,320.51,25 / 25,2330828,2019-09-07 09:52:16:107,0.2581,0.2884,9.8196,0.0048,-0.0063,9.8066,0.0283,0.0088,0.0037,-2.31,-35.69,-1.31,204.68,-84.18,-175.81
23267,52.440407,-1.537078,186.05,12.73,3.0,320.51,25 / 25,2330928,2019-09-07 09:52:16:207,-0.1324,0.8012,9.8153,0.0225,0.0054,9.8066,0.0196,0.0454,-0.0323,-2.19,-35.94,-1.69,201.81,-84.11,-174.27
23268,52.440407,-1.537078,186.05,12.73,3.0,320.51,25 / 25,2331028,2019-09-07 09:52:16:307,-0.2342,0.1395,9.9182,0.0175,0.0034,9.8066,-0.0043,0.0221,-0.0023,-2.19,-35.62,-1.44,205.51,-84.16,-173.08
23269,52.440407,-1.537078,186.05,12.73,3.0,320.51,24 / 24,2331127,2019-09-07 09:52:16:406,0.4626,0.2209,9.978,0.0196,-0.0027,9.8065,-0.0543,0.0582,-0.0182,-2.5,-36.06,-1.62,203.31,-84.14,-170.81
23270,52.440407,-1.537078,186.05,12.73,3.0,320.51,24 / 24,2331227,2019-09-07 09:52:16:506,-0.282,0.1956,10.2584,0.0332,0.0124,9.8065,-0.0118,0.0106,-0.0114,-2.69,-35.69,-1.06,217.14,-83.97,-168.22
23271,52.440407,-1.537078,186.05,12.73,3.0,320.51,24 / 24,2331327,2019-09-07 09:52:16:606,0.5806,-0.0854,9.5783,0.0048,-0.0046,9.8066,0.0902,-0.0552,0.0605,-2.37,-35.87,-0.87,206.27,-83.84,-167.35
23272,52.440407,-1.537078,186.05,12.73,3.0,320.51,24 / 24,2331427,2019-09-07 09:52:16:706,0.0876,0.2373,10.1168,0.0066,0.0089,9.8066,0.0139,0.0211,-0.0122,-2.81,-36.0,-1.25,216.59,-83.67,-166.56
23273,52.440407,-1.537078,186.05,12.73,3.0,320.51,24 / 24,2331527,2019-09-07 09:52:16:806,0.376,-0.1737,10.0751,-0.0004,0.0187,9.8066,-0.0664,-0.008,0.0072,-3.06,-36.12,-1.25,216.27,-83.66,-167.3
23274,52.440407,-1.537078,186.05,12.73,3.0,320.51,24 / 24,2331627,2019-09-07 09:52:16:906,-0.0794,-0.0357,9.5644,-0.0044,0.0178,9.8066,-0.042,0.0134,-0.024,-2.69,-35.94,-1.25,215.84,-83.67,-168.49
23275,52.440407,-1.537078,186.05,12.73,3.0,320.51,24 / 24,2331727,2019-09-07 09:52:17:006,0.6866,0.8134,9.3596,-0.0179,-0.0019,9.8066,-0.0008,-0.0068,-0.0436,-2.37,-35.62,-0.75,204.91,-83.62,-169.72
23276,52.440407,-1.537078,186.05,12.73,3.0,320.51,24 / 24,2331827,2019-09-07 09:52:17:106,-0.1538,-0.3039,9.7554,-0.0086,-0.0265,9.8065,-0.0043,0.0274,-0.0322,-2.56,-35.81,-1.19,215.39,-83.82,-170.96
23277,52.440407,-1.537078,186.05,12.73,3.0,320.51,24 / 24,2331927,2019-09-07 09:52:17:206,0.4214,-0.3243,9.6714,0.0103,0.0125,9.8066,-0.1126,-0.0067,-0.0038,-2.5,-36.62,-0.94,204.96,-83.92,-170.85
23278,52.440407,-1.537078,186.05,12.73,3.0,320.51,24 / 24,2332027,2019-09-07 09:52:17:306,-0.6862,-0.5413,9.8913,0.0077,0.0148,9.8066,-0.0721,0.0235,0.0012,-2.5,-35.5,-1.75,203.47,-84.01,-170.66
23279,52.440407,-1.537078,186.05,12.73,3.0,320.51,25 / 25,2332127,2019-09-07 09:52:17:406,-0.1723,-0.2644,10.0058,-0.0026,-0.0084,9.8066,0.0528,-0.052,0.0389,-2.69,-36.19,-1.12,216.73,-84.02,-169.65
23280,52.440407,-1.537078,186.05,12.73,3.0,320.51,25 / 25,2332227,2019-09-07 09:52:17:506,0.4411,0.2563,10.3398,-0.0067,-0.013,9.8066,0.0826,-0.0199,-0.0173,-2.81,-36.69,-0.81,216.07,-84.03,-169.76
23281,52.440407,-1.537078,186.05,12.73,3.0,320.51,25 / 25,2332328,2019-09-07 09:52:17:607,-0.6824,-0.0751,9.6284,0.0069,0.0339,9.8066,-0.0513,-0.0628,0.0305,-2.19,-36.87,-1.12,205.32,-84.02,-170.66
23282,52.440407,-1.537078,186.05,12.73,3.0,320.51,25 / 25,2332427,2019-09-07 09:52:17:706,-0.4718,-0.5954,9.4537,-0.0069,-0.0059,9.8066,-0.0648,0.0023,-0.0165,-3.12,-36.25,-1.12,216.26,-83.98,-170.46
23283,52.440407,-1.537078,186.05,12.73,3.0,320.51,25 / 25,2332527,2019-09-07 09:52:17:806,-0.1966,0.1355,9.5664,-0.0049,-0.0124,9.8066,-0.0186,-0.0098,0.0146,-2.25,-35.62,-1.75,204.0,-84.25,-169.83
23284,52.440407,-1.537078,186.05,12.73,3.0,320.51,25 / 25,2332627,2019-09-07 09:52:17:906,0.2325,-0.9034,10.5651,-0.0113,-0.0139,9.8065,-0.0263,-0.028,0.0558,-2.37,-36.06,-1.31,207.11,-84.33,-169.94
23285,52.440407,-1.537078,186.05,12.73,3.0,320.51,25 / 25,2332727,2019-09-07 09:52:18:006,2.1489,0.6274,10.774,0.0098,0.0264,9.8065,0.1715,0.0083,-0.0046,-2.62,-36.12,-1.75,213.46,-84.25,-169.46
23286,52.440407,-1.537078,186.05,12.73,3.0,320.51,25 / 25,2332827,2019-09-07 09:52:18:106,1.0997,1.5952,9.7066,0.0166,0.0188,9.8066,0.1358,0.0266,-0.0173,-3.44,-36.12,-1.0,216.08,-83.98,-170.82
23287,52.440407,-1.537078,186.05,12.73,3.0,320.51,25 / 25,2332927,2019-09-07 09:52:18:206,0.2008,-0.8493,9.9335,0.0132,-0.0013,9.8066,-0.1163,0.0209,-0.0736,-3.06,-36.31,-1.12,216.27,-84.02,-170.78
23288,52.440407,-1.537078,186.05,12.73,3.0,320.51,25 / 25,2333027,2019-09-07 09:52:18:306,0.4932,-0.0246,9.5279,-0.0139,0.0,9.8066,0.1145,-0.0577,0.0186,-3.0,-36.0,-0.81,217.0,-84.25,-171.29
23289,52.4412,-1.538161,186.73,12.74,3.0,319.87,25 / 25,2333127,2019-09-07 09:52:18:406,1.6338,-0.1957,10.3573,0.0074,-0.0062,9.8066,0.1231,0.0527,-0.0162,-2.62,-35.56,-0.87,217.09,-84.26,-171.18
23290,52.4412,-1.538161,186.73,12.74,3.0,319.87,25 / 25,2333227,2019-09-07 09:52:18:506,0.2256,0.2079,9.911,0.0066,0.0106,9.8066,-0.0282,0.0051,0.0089,-2.69,-35.81,-0.94,216.0,-84.13,-172.38
23291,52.4412,-1.538161,186.73,12.74,3.0,319.87,25 / 25,2333327,2019-09-07 09:52:18:606,0.0452,0.7602,9.5971,-0.0064,-0.0143,9.8066,0.059,-0.0315,0.0199,-2.31,-35.94,-0.62,205.2,-84.02,-172.75
23292,52.4412,-1.538161,186.73,12.74,3.0,319.87,25 / 25,2333427,2019-09-07 09:52:18:706,-1.0896,-0.724,10.0854,-0.0112,-0.0182,9.8066,-0.0295,0.0283,-0.0044,-2.69,-36.37,-1.0,215.86,-84.1,-172.44
23293,52.4412,-1.538161,186.73,12.74,3.0,319.87,25 / 25,2333527,2019-09-07 09:52:18:806,0.3842,-0.4378,10.0773,0.0011,-0.0068,9.8066,0.0663,0.0088,-0.005,-2.37,-36.5,-0.81,205.64,-84.11,-172.2
23294,52.4412,-1.538161,186.73,12.74,3.0,319.87,25 / 25,2333627,2019-09-07 09:52:18:906,-0.0358,-0.3328,10.2737,0.0043,-0.0043,9.8066,0.05,-0.0415,0.0115,-2.81,-35.87,-1.44,216.09,-84.1,-171.96
23295,52.4412,-1.538161,186.73,12.74,3.0,319.87,25 / 25,2333727,2019-09-07 09:52:19:006,-0.5012,-0.3361,9.5482,0.002,-0.0001,9.8066,-0.0283,0.0093,-0.0549,-1.87,-36.31,-0.87,205.9,-84.08,-171.13
23296,52.4412,-1.538161,186.73,12.74,3.0,319.87,25 / 25,2333828,2019-09-07 09:52:19:107,-0.5259,-0.2515,9.9343,0.0021,0.0004,9.8066,-0.1254,0.0454,-0.0458,-2.69,-36.06,-1.25,216.4,-84.08,-171.05
23297,52.4412,-1.538161,186.73,12.74,3.0,319.87,25 / 25,2333928,2019-09-07 09:52:19:207,-0.0596,0.2206,9.3782,0.0119,0.0021,9.8066,0.0309,-0.0469,0.0703,-2.81,-36.19,-1.44,216.62,-84.19,-171.51
23298,52.4412,-1.538161,186.73,12.74,3.0,319.87,25 / 25,2334027,2019-09-07 09:52:19:306,1.0241,-0.1557,9.8241,-0.0065,-0.0139,9.8066,-0.0443,0.0016,-0.0557,-2.75,-35.94,-1.75,212.98,-84.23,-170.26
23299,52.4412,-1.538161,186.73,12.74,3.0,319.87,24 / 24,2334127,2019-09-07 09:52:19:406,0.6093,0.8349,10.0025,-0.0008,-0.0012,9.8066,0.0299,-0.033,-0.0179,-2.69,-36.37,-1.25,217.63,-84.24,-169.71
23300,52.4412,-1.538161,186.73,12.74,3.0,319.87,24 / 24,2334227,2019-09-07 09:52:19:506,0.4664,-0.5591,10.1155,-0.0067,0.013,9.8066,-0.0598,-0.0514,0.0333,-2.44,-36.19,-1.31,206.64,-84.22,-170.23
23301,52.4412,-1.538161,186.73,12.74,3.0,319.87,24 / 24,2334327,2019-09-07 09:52:19:606,0.7183,0.9516,9.5143,-0.0039,-0.0055,9.8066,0.1048,-0.0342,0.0029,-2.5,-36.06,-1.25,206.52,-84.19,-170.25
23302,52.4412,-1.538161,186.73,12.74,3.0,319.87,24 / 24,2334428,2019-09-07 09:52:19:707,0.1551,0.232,10.1806,-0.0062,-0.0079,9.8065,0.0253,-0.0021,-0.0353,-2.75,-36.12,-1.25,217.35,-84.24,-170.35
23303,52.4412,-1.538161,186.73,12.74,3.0,319.87,24 / 24,2334527,2019-09-07 09:52:19:806,0.0367,-0.2028,10.5419,0.0164,0.0293,9.8065,-0.1413,0.0605,-0.0119,-2.5,-35.5,-1.62,203.77,-84.14,-170.69
23304,52.4412,-1.538161,186.73,12.74,3.0,319.87,24 / 24,2334628,2019-09-07 09:52:19:907,-0.0079,-0.7723,9.5154,0.0248,0.0442,9.8064,-0.1376,-0.0243,0.0534,-2.56,-35.94,-1.0,216.38,-84.03,-170.57
23305,52.4412,-1.538161,186.73,12.74,3.0,319.87,24 / 24,2334728,2019-09-07 09:52:20:007,-1.2055,0.757,9.1543,-0.0004,-0.0113,9.8066,-0.0377,-0.0279,0.0608,-2.25,-36.06,-1.31,205.91,-83.93,-169.51
23306,52.4412,-1.538161,186.73,12.74,3.0,319.87,24 / 24,2334827,2019-09-07 09:52:20:106,0.6606,-0.1898,9.8915,0.0072,-0.0038,9.8065,-0.1043,-0.007,0.0496,-3.25,-36.31,-1.06,217.37,-83.96,-167.58
23307,52.4412,-1.538161,186.73,12.74,3.0,319.87,24 / 24,2334927,2019-09-07 09:52:20:206,-1.0427,-0.1735,9.8665,0.0037,0.0025,9.8066,-0.006,-0.0617,0.0563,-2.75,-36.37,-1.31,218.43,-84.04,-165.89
23308,52.4412,-1.538161,186.73,12.74,3.0,319.87,24 / 24,2335027,2019-09-07 09:52:20:306,-1.0749,0.0754,9.9556,0.0095,0.0046,9.8066,0.018,0.0755,-0.0471,-2.69,-35.56,-1.19,218.35,-83.97,-165.35
23309,52.4412,-1.538161,186.73,12.74,3.0,319.87,24 / 25,2335128,2019-09-07 09:52:20:407,0.6045,-0.1326,9.8361,0.0052,-0.0014,9.8066,0.0257,0.0371,-0.0277,-3.12,-36.25,-0.87,217.59,-83.8,-165.42
23310,52.4412,-1.538161,186.73,12.74,3.0,319.87,24 / 25,2335227,2019-09-07 09:52:20:506,0.3708,0.4925,10.0897,0.0016,-0.0157,9.8066,0.0848,0.045,-0.009,-3.12,-35.75,-0.94,217.55,-83.77,-165.22
23311,52.4412,-1.538161,186.73,12.74,3.0,319.87,24 / 25,2335327,2019-09-07 09:52:20:606,-0.4094,-0.1732,9.9545,0.0044,-0.0075,9.8066,-0.0013,-0.0015,-0.0133,-2.62,-36.0,-0.62,217.59,-83.8,-165.38
23312,52.4412,-1.538161,186.73,12.74,3.0,319.87,24 / 25,2335427,2019-09-07 09:52:20:706,-0.039,0.0789,9.684,-0.0002,0.0065,9.8066,0.0006,0.0188,-0.0343,-3.31,-35.87,-1.37,217.75,-83.79,-164.86
23313,52.4412,-1.538161,186.73,12.74,3.0,319.87,24 / 25,2335527,2019-09-07 09:52:20:806,0.5476,-0.5416,9.8158,0.0027,-0.0024,9.8066,0.0015,0.0065,0.028,-2.5,-36.19,-0.56,206.64,-83.75,-165.03
23314,52.4412,-1.538161,186.73,12.74,3.0,319.87,24 / 25,2335628,2019-09-07 09:52:20:907,0.6795,-0.1153,10.3471,0.0008,-0.0059,9.8066,-0.018,-0.0418,0.0355,-2.56,-36.37,-0.5,222.58,-83.73,-164.92
23315,52.4412,-1.538161,186.73,12.74,3.0,319.87,24 / 25,2335727,2019-09-07 09:52:21:006,-0.1586,-0.1641,10.1807,-0.001,0.0118,9.8066,0.0132,0.0059,-0.0153,-3.25,-36.06,-1.25,217.28,-83.66,-164.72
23316,52.4412,-1.538161,186.73,12.74,3.0,319.87,24 / 25,2335827,2019-09-07 09:52:21:106,2.2456,-0.4971,11.2116,0.0067,0.02,9.8066,0.101,-0.0841,0.0159,-3.44,-36.62,-1.25,216.27,-83.61,-164.89
23317,52.4412,-1.538161,186.73,12.74,3.0,319.87,24 / 25,2335927,2019-09-07 09:52:21:206,-1.5007,1.8786,9.5816,0.0115,0.1017,9.8061,-0.2598,0.1143,-0.0139,-2.5,-35.87,-0.69,206.47,-83.97,-168.13
23318,52.4412,-1.538161,186.73,12.74,3.0,319.87,24 / 25,2336028,2019-09-07 09:52:21:307,1.9272,2.7531,10.5401,0.1053,0.1235,9.8053,-0.3071,0.0718,-0.0811,-2.87,-36.25,-1.37,213.92,-83.13,-168.23
23319,52.4412,-1.538161,186.73,12.74,3.0,319.87,24 / 24,2336127,2019-09-07 09:52:21:406,-1.963,-3.1486,7.3313,-0.0381,-0.0497,9.8064,-0.1541,0.0292,0.045,-2.94,-36.5,-1.19,216.24,-83.66,-167.37
23320,52.4412,-1.538161,186.73,12.74,3.0,319.87,24 / 24,2336227,2019-09-07 09:52:21:506,-0.5149,0.3443,8.6259,0.0585,0.0501,9.8063,-0.1269,-0.0684,0.0589,-2.44,-36.25,-1.12,206.06,-83.7,-166.53
23321,52.4412,-1.538161,186.73,12.74,3.0,319.87,24 / 24,2336327,2019-09-07 09:52:21:606,0.2457,-0.6223,9.0952,-0.02,-0.0662,9.8064,-0.1469,-0.0037,0.0798,-2.81,-36.19,-1.19,218.66,-84.01,-165.02
23322,52.4412,-1.538161,186.73,12.74,3.0,319.87,24 / 24,2336427,2019-09-07 09:52:21:706,0.4195,0.3208,10.0942,-0.017,-0.0516,9.8064,0.1882,-0.0412,0.0708,-3.44,-36.31,-0.81,218.56,-83.95,-164.64
23323,52.4412,-1.538161,186.73,12.74,3.0,319.87,24 / 24,2336527,2019-09-07 09:52:21:806,0.5522,-0.4039,10.2779,0.0105,0.0136,9.8066,0.111,-0.0343,0.0157,-2.87,-36.37,-1.25,218.55,-84.0,-165.19
23324,52.4412,-1.538161,186.73,12.74,3.0,319.87,24 / 24,2336627,2019-09-07 09:52:21:906,0.5074,0.1137,10.3056,-0.0062,-0.0101,9.8066,0.0154,-0.024,0.0078,-2.56,-36.25,-2.12,214.95,-84.07,-165.17
23325,52.4412,-1.538161,186.73,12.74,3.0,319.87,24 / 24,2336727,2019-09-07 09:52:22:006,0.5141,-0.2442,9.623,0.0166,0.0321,9.8065,0.0698,-0.0199,-0.0016,-3.12,-36.31,-1.31,219.93,-84.15,-163.54
23326,52.4412,-1.538161,186.73,12.74,3.0,319.87,24 / 24,2336827,2019-09-07 09:52:22:106,0.4358,-0.1176,10.125,0.0258,0.0221,9.8065,-0.0294,-0.007,-0.0073,-3.87,-36.44,-1.06,228.97,-83.95,-162.98
23327,52.4412,-1.538161,186.73,12.74,3.0,319.87,24 / 24,2336927,2019-09-07 09:52:22:206,-0.2438,-1.9033,9.2565,-0.02,-0.0651,9.8064,-0.1339,-0.1079,0.061,-3.56,-36.87,-0.56,229.76,-84.15,-161.93
23328,52.4412,-1.538161,186.73,12.74,3.0,319.87,24 / 24,2337028,2019-09-07 09:52:22:307,1.3915,1.3055,10.5685,-0.0356,-0.1151,9.8059,0.1915,-0.0905,0.055,-2.81,-36.0,-0.87,220.7,-84.16,-161.8
23329,52.4412,-1.538161,186.73,12.74,3.0,319.87,25 / 25,2337128,2019-09-07 09:52:22:407,0.3989,0.4133,10.915,0.0125,0.0345,9.8065,0.2005,-0.0232,-0.0159,-2.81,-36.12,-1.56,216.81,-84.1,-161.58
23330,52.4412,-1.538161,186.73,12.74,3.0,319.87,25 / 25,2337227,2019-09-07 09:52:22:506,0.5934,-0.5008,10.1562,0.0042,-0.0118,9.8065,-0.0521,0.0161,-0.0164,-3.56,-36.5,-1.25,229.64,-83.94,-161.7
23331,52.4412,-1.538161,186.73,12.74,3.0,319.87,25 / 25,2337327,2019-09-07 09:52:22:606,0.0187,0.0515,9.9663,0.0113,0.033,9.8066,0.0432,0.0023,0.0081,-3.06,-36.5,-1.0,219.33,-83.83,-161.36
23332,52.4412,-1.538161,186.73,12.74,3.0,319.87,25 / 25,2337427,2019-09-07 09:52:22:706,-0.2391,-0.0342,9.622,0.0124,0.0209,9.8066,-0.0245,0.0075,-0.0113,-3.62,-36.5,-0.87,227.84,-83.55,-161.42
23333,52.4412,-1.538161,186.73,12.74,3.0,319.87,25 / 25,2337527,2019-09-07 09:52:22:806,0.2255,-0.279,9.6638,0.0006,-0.0039,9.8066,-0.0241,0.0043,-0.0275,-3.81,-36.87,-1.12,227.38,-83.61,-161.29
23334,52.4412,-1.538161,186.73,12.74,3.0,319.87,25 / 25,2337628,2019-09-07 09:52:22:907,-0.5904,0.343,9.4663,-0.0034,-0.0051,9.8066,0.0127,-0.0646,0.0442,-3.06,-36.94,-0.75,217.82,-83.66,-161.32
23335,52.4412,-1.538161,186.73,12.74,3.0,319.87,25 / 25,2337728,2019-09-07 09:52:23:007,1.1996,0.5577,9.9444,-0.011,0.0001,9.8065,-0.0185,-0.0621,-0.0285,-3.37,-36.25,-1.06,218.57,-83.7,-161.79
23336,52.4412,-1.538161,186.73,12.74,3.0,319.87,25 / 25,2337827,2019-09-07 09:52:23:106,0.1516,-0.558,9.9486,0.0005,0.0045,9.8066,0.0563,-0.0305,-0.0416,-3.75,-36.25,-1.06,227.75,-83.71,-163.09
23337,52.4412,-1.538161,186.73,12.74,3.0,319.87,25 / 25,2337927,2019-09-07 09:52:23:206,0.7921,-0.1035,9.8056,0.0034,0.0096,9.8066,0.0923,-0.0922,0.0338,-3.12,-36.5,-0.81,217.51,-83.68,-164.34
23338,52.4412,-1.538161,186.73,12.74,3.0,319.87,25 / 25,2338027,2019-09-07 09:52:23:306,-0.2639,0.3487,9.7872,-0.006,0.0035,9.8066,-0.0082,-0.0016,-0.0135,-3.25,-36.37,-1.44,216.83,-83.62,-165.47
23339,52.4412,-1.538161,186.73,12.74,3.0,319.87,24 / 24,2338127,2019-09-07 09:52:23:406,0.3181,-0.2067,10.0392,0.0014,0.008,9.8066,-0.0489,0.0332,-0.0296,-3.19,-36.81,-0.5,220.47,-83.59,-166.07
23340,52.4412,-1.538161,186.73,12.74,3.0,319.87,24 / 24,2338227,2019-09-07 09:52:23:506,-0.3526,0.1275,10.0069,0.0038,0.0127,9.8066,-0.0664,0.0474,-0.0006,-2.75,-36.25,-1.12,216.32,-83.6,-166.54
23341,52.4412,-1.538161,186.73,12.74,3.0,319.87,24 / 24,2338327,2019-09-07 09:52:23:606,-0.0198,-0.4063,9.9563,-0.0013,-0.0049,9.8066,0.1082,0.0113,-0.0097,-2.87,-36.37,-0.87,216.19,-83.59,-166.79
23342,52.4412,-1.538161,186.73,12.74,3.0,319.87,24 / 24,2338427,2019-09-07 09:52:23:706,0.0321,0.0221,9.7743,-0.0009,-0.0019,9.8066,0.0428,0.0075,-0.0272,-2.37,-36.12,-0.94,205.52,-83.53,-166.6
23343,52.4412,-1.538161,186.73,12.74,3.0,319.87,24 / 24,2338528,2019-09-07 09:52:23:807,0.1753,-0.6067,9.8141,-0.0088,-0.0198,9.8065,0.0093,-0.0617,0.085,-3.06,-36.62,-0.94,215.03,-83.48,-166.86
23344,52.4412,-1.538161,186.73,12.74,3.0,319.87,24 / 24,2338627,2019-09-07 09:52:23:906,-0.2599,0.604,9.5308,-0.015,-0.0354,9.8065,0.0934,0.0239,-0.0106,-3.12,-36.62,-1.06,215.81,-83.63,-166.33
23345,52.4412,-1.538161,186.73,12.74,3.0,319.87,24 / 24,2338728,2019-09-07 09:52:24:007,-0.2681,-0.7832,10.2942,-0.0038,-0.0182,9.8066,-0.0175,0.0034,0.0009,-3.31,-36.87,-1.31,215.81,-83.6,-166.01
23346,52.4412,-1.538161,186.73,12.74,3.0,319.87,24 / 24,2338827,2019-09-07 09:52:24:106,0.5995,-0.8948,10.176,-0.0063,-0.0329,9.8065,0.049,-0.0638,-0.0068,-3.44,-36.5,-0.69,217.24,-83.7,-165.24
23347,52.4412,-1.538161,186.73,12.74,3.0,319.87,24 / 24,2338927,2019-09-07 09:52:24:206,1.4474,0.5151,10.3651,0.0199,0.0271,9.8065,-0.0391,0.0219,-0.0612,-3.5,-36.56,-0.94,216.7,-83.73,-165.04
23348,52.4412,-1.538161,186.73,12.74,3.0,319.87,24 / 24,2339027,2019-09-07 09:52:24:306,-0.6934,0.4571,9.9831,0.0067,0.021,9.8066,0.0559,-0.045,0.0173,-3.31,-36.62,-0.56,215.51,-83.5,-165.74
23349,52.4412,-1.538161,186.73,12.74,3.0,319.87,24 / 24,2339127,2019-09-07 09:52:24:406,0.1208,-0.4338,9.9128,0.0097,0.0026,9.8066,-0.0455,0.0184,-0.0222,-3.25,-37.06,-1.06,215.27,-83.45,-165.88
23350,52.4412,-1.538161,186.73,12.74,3.0,319.87,24 / 24,2339227,2019-09-07 09:52:24:506,0.1084,-2.0889,10.4512,-0.0059,-0.0033,9.8066,-0.1062,-0.0583,0.0367,-2.94,-36.06,-1.81,212.49,-83.39,-165.77
23351,52.4412,-1.538161,186.73,12.74,3.0,319.87,24 / 24,2339327,2019-09-07 09:52:24:606,0.2844,0.0636,9.9208,0.0129,0.0303,9.8066,-0.0595,-0.0156,-0.0342,-3.0,-36.69,0.0,219.22,-83.33,-165.65
23352,52.4412,-1.538161,186.73,12.74,3.0,319.87,24 / 24,2339427,2019-09-07 09:52:24:706,-0.3393,-1.1158,9.8437,-0.0029,0.0173,9.8066,-0.0888,-0.0325,-0.005,-3.31,-36.25,-1.25,215.77,-83.37,-165.58
23353,52.4412,-1.538161,186.73,12.74,3.0,319.87,24 / 24,2339528,2019-09-07 09:52:24:807,0.2791,-0.0551,10.0803,-0.0049,-0.0054,9.8066,-0.0111,-0.0123,-0.0162,-2.81,-36.87,-0.75,215.37,-83.46,-165.71
23354,52.4412,-1.538161,186.73,12.74,3.0,319.87,24 / 24,2339627,2019-09-07 09:52:24:906,0.1094,1.2157,9.7056,-0.0178,-0.0176,9.8066,0.026,0.0115,-0.0014,-3.0,-36.75,-0.44,220.61,-83.63,-166.31
23355,52.4412,-1.538161,186.73,12.74,3.0,319.87,24 / 24,2339728,2019-09-07 09:52:25:007,0.228,-0.2508,9.9518,0.007,0.0206,9.8066,-0.0329,0.0203,0.0189,-2.87,-36.31,-0.56,216.32,-83.62,-166.7
23356,52.4412,-1.538161,186.73,12.74,3.0,319.87,24 / 24,2339827,2019-09-07 09:52:25:106,0.0103,-0.0044,9.662,0.0107,-0.0038,9.8066,0.0489,-0.0075,0.0023,-2.87,-36.62,-0.31,220.1,-83.55,-166.6
23357,52.4412,-1.538161,186.73,12.74,3.0,319.87,24 / 24,2339927,2019-09-07 09:52:25:206,0.8337,-0.8996,9.7075,0.0058,0.0,9.8066,-0.0572,-0.0771,0.0689,-3.37,-37.0,-0.75,215.61,-83.54,-165.92
23358,52.4412,-1.538161,186.73,12.74,3.0,319.87,24 / 24,2340027,2019-09-07 09:52:25:306,-0.7065,-0.0954,9.7588,0.0101,-0.0009,9.8066,-0.083,0.0416,0.0213,-3.37,-36.31,-0.44,221.42,-83.53,-164.94
23359,52.4412,-1.538161,186.73,12.74,3.0,319.87,25 / 25,2340127,2019-09-07 09:52:25:406,0.8326,0.2165,9.9651,0.008,-0.0129,9.8066,0.0671,-0.0352,0.0016,-3.31,-36.94,-0.25,220.64,-83.52,-164.14
23360,52.4412,-1.538161,186.73,12.74,3.0,319.87,25 / 25,2340227,2019-09-07 09:52:25:506,-1.0219,-0.006,10.1661,-0.0075,0.0065,9.8066,0.0119,-0.0416,0.0591,-3.25,-36.62,-1.44,216.44,-83.54,-163.67
23361,52.4412,-1.538161,186.73,12.74,3.0,319.87,25 / 25,2340327,2019-09-07 09:52:25:606,-2.6633,-0.6094,9.5002,-0.058,-0.02,9.8064,-0.083,-0.131,-0.0558,-3.25,-36.44,-0.62,216.71,-83.4,-163.45
23362,52.4412,-1.538161,186.73,12.74,3.0,319.87,25 / 25,2340427,2019-09-07 09:52:25:706,0.0482,-1.1276,8.8405,-0.0473,-0.026,9.8064,-0.1171,-0.0514,-0.0043,-3.37,-36.31,-0.94,216.38,-83.7,-167.39
23363,52.4412,-1.538161,186.73,12.74,3.0,319.87,25 / 25,2340527,2019-09-07 09:52:25:806,-3.2775,0.4505,8.3994,-0.026,-0.0552,9.8064,0.2295,-0.182,0.2253,-2.69,-36.0,-1.5,216.72,-83.73,-166.85
23364,52.4412,-1.538161,186.73,12.74,3.0,319.87,25 / 25,2340627,2019-09-07 09:52:25:906,-0.5479,0.161,9.8634,-0.0097,-0.0607,9.8064,0.0662,0.0443,-0.0271,-3.31,-36.12,-1.19,220.35,-84.22,-163.3
23365,52.4412,-1.538161,186.73,12.74,3.0,319.87,25 / 25,2340728,2019-09-07 09:52:26:007,1.3759,-1.3761,10.9134,0.0591,0.0325,9.8064,0.085,0.1054,-0.0043,-3.81,-36.75,-1.0,228.17,-83.82,-161.78
23366,52.4412,-1.538161,186.73,12.74,3.0,319.87,25 / 25,2340827,2019-09-07 09:52:26:106,0.0945,0.1849,10.024,0.0146,0.0171,9.8066,0.2139,-0.0021,0.0987,-3.44,-36.19,-1.56,214.97,-83.68,-162.34
23367,52.4412,-1.538161,186.73,12.74,3.0,319.87,25 / 25,2340928,2019-09-07 09:52:26:207,-0.3924,0.5095,9.7298,0.0077,0.0147,9.8066,-0.1347,0.0296,-0.0057,-2.37,-35.62,-1.25,206.37,-83.43,-162.16
23368,52.4412,-1.538161,186.73,12.74,3.0,319.87,25 / 25,2341027,2019-09-07 09:52:26:306,0.2616,-0.8527,9.6113,-0.0191,-0.0322,9.8065,-0.1637,-0.0435,-0.0109,-3.25,-35.75,-0.12,222.6,-83.57,-161.79
23369,52.4412,-1.538161,186.73,12.74,3.0,319.87,25 / 25,2341128,2019-09-07 09:52:26:407,0.1385,-0.77,9.991,-0.0041,-0.0128,9.8066,-0.0914,-0.0381,0.0093,-3.87,-36.19,-1.44,227.74,-83.61,-162.19
23370,52.4412,-1.538161,186.73,12.74,3.0,319.87,25 / 25,2341227,2019-09-07 09:52:26:506,-1.0042,-0.3945,9.6854,-0.012,-0.0091,9.8066,-0.0705,0.0398,-0.0539,-3.56,-36.0,-1.37,227.95,-83.68,-162.47
23371,52.4412,-1.538161,186.73,12.74,3.0,319.87,25 / 25,2341327,2019-09-07 09:52:26:606,0.4125,0.5698,10.0448,-0.0045,0.0012,9.8066,0.0002,-0.0074,-0.014,-3.69,-36.06,-0.75,227.78,-83.7,-162.93
23372,52.4412,-1.538161,186.73,12.74,3.0,319.87,25 / 25,2341427,2019-09-07 09:52:26:706,-0.0475,0.2752,9.6761,-0.0104,-0.0102,9.8066,-0.0698,0.049,-0.0486,-4.25,-36.31,-0.69,227.01,-83.62,-163.77
23373,52.4412,-1.538161,186.73,12.74,3.0,319.87,25 / 25,2341528,2019-09-07 09:52:26:807,0.2421,-0.6081,9.8575,-0.011,-0.0136,9.8066,0.0293,0.0306,0.0175,-3.69,-36.31,-1.44,227.76,-83.76,-163.57
23374,52.4412,-1.538161,186.73,12.74,3.0,319.87,25 / 25,2341627,2019-09-07 09:52:26:906,-0.7407,0.4987,9.6956,-0.0121,0.0038,9.8066,-0.0384,0.023,-0.015,-3.62,-36.19,-1.81,223.25,-83.78,-163.51
23375,52.4412,-1.538161,186.73,12.74,3.0,319.87,25 / 25,2341728,2019-09-07 09:52:27:007,-0.649,-0.5068,9.9767,0.0055,0.0093,9.8066,0.0194,0.058,-0.0795,-1.62,-36.62,-1.37,206.41,-83.75,-163.81
23376,52.4412,-1.538161,186.73,12.74,3.0,319.87,25 / 25,2341827,2019-09-07 09:52:27:106,0.8724,0.1417,10.2642,0.0085,-0.0034,9.8065,0.0454,-0.0672,0.0775,-3.25,-36.12,-0.56,217.76,-83.73,-164.24
23377,52.4412,-1.538161,186.73,12.74,3.0,319.87,25 / 25,2341927,2019-09-07 09:52:27:206,-0.3036,0.2496,10.028,-0.0012,-0.0111,9.8066,-0.0227,-0.0386,0.0439,-3.5,-35.81,-0.56,217.79,-83.67,-163.51
23378,52.4412,-1.538161,186.73,12.74,3.0,319.87,25 / 25,2342027,2019-09-07 09:52:27:306,-0.6284,0.2613,9.731,0.0128,0.0047,9.8066,-0.0438,0.0336,0.0046,-3.37,-36.25,-1.5,217.56,-83.59,-163.19
23379,52.44201,-1.539212,187.04,12.65,3.0,321.2,25 / 25,2342127,2019-09-07 09:52:27:406,0.5247,0.2705,9.9897,0.0127,-0.0018,9.8066,-0.0086,0.0264,0.0542,-3.44,-36.37,-0.19,222.45,-83.57,-162.25
23380,52.44201,-1.539212,187.04,12.65,3.0,321.2,25 / 25,2342227,2019-09-07 09:52:27:506,0.0448,0.2401,10.0566,0.0081,0.0014,9.8066,-0.0408,0.0047,-0.0026,-3.0,-36.69,-0.56,217.32,-83.6,-161.99
23381,52.44201,-1.539212,187.04,12.65,3.0,321.2,25 / 25,2342328,2019-09-07 09:52:27:607,0.1942,-0.4514,9.7161,0.0003,-0.0066,9.8066,-0.0069,0.0172,-0.0331,-3.62,-36.62,-1.31,227.32,-83.56,-160.83
23382,52.44201,-1.539212,187.04,12.65,3.0,321.2,25 / 25,2342428,2019-09-07 09:52:27:707,0.0752,0.0438,9.6401,0.0082,0.0044,9.8066,-0.017,-0.0391,0.0719,-4.31,-36.56,-1.31,227.23,-83.49,-160.39
23383,52.44201,-1.539212,187.04,12.65,3.0,321.2,25 / 25,2342527,2019-09-07 09:52:27:806,-0.2125,0.4936,9.778,0.012,0.0022,9.8066,0.0235,0.0347,-0.0129,-3.87,-36.56,-1.0,227.96,-83.53,-159.28
23384,52.44201,-1.539212,187.04,12.65,3.0,321.2,25 / 25,2342627,2019-09-07 09:52:27:906,0.3755,0.3127,9.9277,-0.0058,-0.0168,9.8065,0.0371,-0.0167,0.0378,-4.19,-36.25,-0.87,228.54,-83.43,-158.95
23385,52.44201,-1.539212,187.04,12.65,3.0,321.2,25 / 25,2342727,2019-09-07 09:52:28:006,1.1456,0.6387,9.8106,-0.0046,-0.0241,9.8065,0.1478,-0.0301,0.0282,-4.19,-36.56,-0.81,227.85,-83.41,-158.31
23386,52.44201,-1.539212,187.04,12.65,3.0,321.2,25 / 25,2342827,2019-09-07 09:52:28:106,0.5352,0.3818,9.8966,0.0083,0.0181,9.8066,-0.0352,0.0032,0.0096,-3.5,-36.44,-0.56,217.86,-83.24,-158.4
23387,52.44201,-1.539212,187.04,12.65,3.0,321.2,25 / 25,2342928,2019-09-07 09:52:28:207,-0.7976,-0.2894,9.4685,0.0034,0.0073,9.8066,-0.0165,0.0149,0.0109,-3.81,-37.31,-0.75,226.67,-83.19,-158.51
23388,52.44201,-1.539212,187.04,12.65,3.0,321.2,25 / 25,2343028,2019-09-07 09:52:28:307,0.4863,-0.5317,9.4891,-0.0118,-0.0132,9.8066,-0.0506,0.0498,-0.0447,-3.94,-36.31,-1.06,228.69,-83.37,-157.98
23389,52.44201,-1.539212,187.04,12.65,3.0,321.2,25 / 25,2343127,2019-09-07 09:52:28:406,-0.044,-0.3479,9.615,0.002,0.0049,9.8066,-0.0453,0.0276,-0.012,-3.62,-36.5,-0.5,234.27,-83.41,-158.49
23390,52.44201,-1.539212,187.04,12.65,3.0,321.2,25 / 25,2343227,2019-09-07 09:52:28:506,-0.2944,0.0633,9.8745,-0.0107,-0.0159,9.8066,0.0942,0.0291,0.0129,-3.19,-36.25,-1.37,218.81,-83.51,-158.98
23391,52.44201,-1.539212,187.04,12.65,3.0,321.2,25 / 25,2343327,2019-09-07 09:52:28:606,0.8769,-0.2374,9.9254,-0.0101,-0.0022,9.8066,0.0601,-0.0534,0.0662,-4.12,-36.69,-0.94,227.85,-83.54,-159.57
23392,52.44201,-1.539212,187.04,12.65,3.0,321.2,25 / 25,2343427,2019-09-07 09:52:28:706,0.7252,0.6592,9.932,-0.004,0.0102,9.8066,-0.0697,-0.0054,-0.0207,-3.75,-36.56,-1.81,223.76,-83.49,-159.27
23393,52.44201,-1.539212,187.04,12.65,3.0,321.2,25 / 25,2343527,2019-09-07 09:52:28:806,-0.753,-0.5233,9.8242,0.0048,0.0303,9.8065,-0.0517,0.0217,-0.1001,-4.0,-36.0,-0.62,227.37,-83.42,-161.13
23394,52.44201,-1.539212,187.04,12.65,3.0,321.2,25 / 25,2343627,2019-09-07 09:52:28:906,1.7177,-0.1511,8.7311,-0.0277,-0.0291,9.8065,0.1062,0.0097,-0.0626,-2.37,-36.62,-0.81,206.01,-83.68,-164.5
23395,52.44201,-1.539212,187.04,12.65,3.0,321.2,25 / 25,2343727,2019-09-07 09:52:29:006,-3.1693,0.0917,8.2901,-0.0087,-0.0147,9.8066,-0.1726,0.1155,-0.037,-3.19,-36.81,-1.69,212.8,-83.67,-165.78
23396,52.44201,-1.539212,187.04,12.65,3.0,321.2,25 / 25,2343827,2019-09-07 09:52:29:106,-0.3964,1.3735,10.2904,0.0304,-0.0205,9.8065,0.1594,0.1159,-0.1086,-3.25,-37.31,-1.37,216.8,-83.8,-165.63
23397,52.44201,-1.539212,187.04,12.65,3.0,321.2,25 / 25,2343927,2019-09-07 09:52:29:206,1.5006,-0.8868,10.9826,-0.0238,-0.0377,9.8065,0.1517,-0.156,0.0763,-3.06,-37.19,-2.06,215.53,-84.13,-163.23
23398,52.44201,-1.539212,187.04,12.65,3.0,321.2,25 / 25,2344027,2019-09-07 09:52:29:306,0.1961,0.2277,10.5237,0.0282,0.0392,9.8065,0.1234,-0.0309,0.0188,-3.62,-37.06,-0.94,228.1,-83.85,-162.19
23399,52.44201,-1.539212,187.04,12.65,3.0,321.2,25 / 25,2344128,2019-09-07 09:52:29:407,0.3773,0.923,10.4345,0.0191,0.0199,9.8066,0.2406,0.0223,-0.0195,-2.87,-36.94,-0.25,220.26,-83.37,-162.65
23400,52.44201,-1.539212,187.04,12.65,3.0,321.2,25 / 25,2344227,2019-09-07 09:52:29:506,0.5426,0.4434,9.8096,0.0061,0.0271,9.8066,-0.1606,0.0158,0.0265,-3.81,-37.31,-0.31,229.21,-83.17,-164.31
23401,52.44201,-1.539212,187.04,12.65,3.0,321.2,25 / 25,2344327,2019-09-07 09:52:29:606,-0.3251,-0.4892,10.2525,0.0188,0.0351,9.8065,-0.1454,0.0417,-0.0246,-3.06,-36.44,-0.25,219.73,-83.18,-164.41
23402,52.44201,-1.539212,187.04,12.65,3.0,321.2,25 / 25,2344427,2019-09-07 09:52:29:706,-0.6421,0.5509,8.9228,0.012,0.0099,9.8065,-0.1199,0.069,-0.0535,-4.06,-36.62,-0.37,230.08,-83.36,-164.63
23403,52.44201,-1.539212,187.04,12.65,3.0,321.2,25 / 25,2344527,2019-09-07 09:52:29:806,0.4353,0.4479,10.1593,0.0188,0.0341,9.8065,-0.0631,-0.0139,0.0204,-3.12,-36.87,-0.5,219.13,-83.26,-164.62
23404,52.44201,-1.539212,187.04,12.65,3.0,321.2,25 / 25,2344627,2019-09-07 09:52:29:906,-0.5591,-0.8117,9.9897,0.004,0.0016,9.8066,0.0394,-0.0185,0.0395,-3.62,-36.56,-1.06,224.59,-83.33,-164.3
23405,52.44201,-1.539212,187.04,12.65,3.0,321.2,25 / 25,2344727,2019-09-07 09:52:30:006,-0.1453,-0.6368,9.467,0.0182,0.0102,9.8065,0.0889,0.0445,-0.032,-3.44,-37.06,-0.5,219.5,-83.26,-163.27
23406,52.44201,-1.539212,187.04,12.65,3.0,321.2,25 / 25,2344827,2019-09-07 09:52:30:106,0.2972,-0.3932,10.0078,0.0158,0.0198,9.8066,-0.1353,-0.0289,0.0371,-3.19,-37.06,-0.81,215.09,-83.22,-163.91
23407,52.44201,-1.539212,187.04,12.65,3.0,321.2,25 / 25,2344927,2019-09-07 09:52:30:206,1.1185,0.2046,10.3796,-0.0088,0.0005,9.8066,0.047,-0.0497,0.0049,-2.81,-36.62,-0.56,215.46,-83.34,-164.21
23408,52.44201,-1.539212,187.04,12.65,3.0,321.2,25 / 25,2345027,2019-09-07 09:52:30:306,-0.2245,0.1087,10.1156,0.0051,0.0221,9.8066,-0.0434,-0.0099,-0.0618,-3.56,-36.75,-0.81,224.37,-83.3,-164.51
23409,52.44201,-1.539212,187.04,12.65,3.0,321.2,24 / 24,2345127,2019-09-07 09:52:30:406,0.8139,0.3611,9.6931,-0.0119,0.0015,9.8066,0.0638,-0.0701,0.0311,-3.31,-37.0,-0.44,219.1,-83.3,-165.67
23410,52.44201,-1.539212,187.04,12.65,3.0,321.2,24 / 24,2345227,2019-09-07 09:52:30:506,-0.4754,1.0893,9.5943,-0.0041,0.0174,9.8065,-0.1443,-0.0145,0.0715,-3.19,-37.0,-1.0,215.13,-83.4,-165.78
23411,52.44201,-1.539212,187.04,12.65,3.0,321.2,24 / 24,2345327,2019-09-07 09:52:30:606,0.7396,-0.2027,9.8424,0.0011,0.0008,9.8066,-0.0982,-0.0512,0.0007,-3.44,-36.25,-0.62,216.04,-83.45,-165.71
23412,52.44201,-1.539212,187.04,12.65,3.0,321.2,24 / 24,2345428,2019-09-07 09:52:30:707,-0.4033,-0.42,9.7649,-0.0073,-0.0069,9.8066,0.0384,-0.0601,-0.0408,-3.25,-36.37,-1.12,216.36,-83.54,-165.79
23413,52.44201,-1.539212,187.04,12.65,3.0,321.2,24 / 24,2345528,2019-09-07 09:52:30:807,0.5057,0.004,10.1305,-0.023,-0.0104,9.8065,0.0717,-0.0251,-0.0158,-2.94,-36.25,-0.19,221.05,-83.55,-166.54
23414,52.44201,-1.539212,187.04,12.65,3.0,321.2,24 / 24,2345627,2019-09-07 09:52:30:906,0.7529,0.36,9.8027,0.0028,0.0211,9.8065,-0.081,0.0365,-0.0626,-3.44,-36.62,-0.62,215.05,-83.55,-167.52
23415,52.44201,-1.539212,187.04,12.65,3.0,321.2,24 / 24,2345728,2019-09-07 09:52:31:007,-0.0095,-0.5384,10.2399,-0.0001,0.0279,9.8066,-0.1906,-0.0057,-0.0026,-3.19,-35.94,-0.5,219.5,-83.4,-169.08
23416,52.44201,-1.539212,187.04,12.65,3.0,321.2,24 / 24,2345827,2019-09-07 09:52:31:106,-0.3631,-0.6698,10.1264,-0.0111,-0.0172,9.8066,0.1325,0.0055,-0.0249,-2.31,-36.5,-0.69,204.48,-83.48,-169.74
23417,52.44201,-1.539212,187.04,12.65,3.0,321.2,24 / 24,2345927,2019-09-07 09:52:31:206,0.4932,0.7794,10.0268,-0.0112,-0.0233,9.8066,0.1175,-0.0143,0.0004,-2.69,-36.44,-0.94,214.93,-83.62,-170.27
23418,52.44201,-1.539212,187.04,12.65,3.0,321.2,24 / 24,2346027,2019-09-07 09:52:31:306,-0.8408,-0.8719,10.0382,0.0013,0.0094,9.8066,0.0027,-0.0172,0.0728,-3.56,-36.56,-0.56,222.26,-83.54,-170.93
23419,52.44201,-1.539212,187.04,12.65,3.0,321.2,24 / 25,2346127,2019-09-07 09:52:31:406,-0.3207,0.1488,10.0744,0.0018,-0.0061,9.8066,0.0315,0.0051,0.0053,-2.62,-36.56,-0.87,213.83,-83.52,-170.49
23420,52.44201,-1.539212,187.04,12.65,3.0,321.2,24 / 25,2346228,2019-09-07 09:52:31:507,-0.2194,-0.9458,9.9866,0.0125,0.0094,9.8066,-0.1147,0.0355,-0.0016,-2.69,-36.62,-1.19,213.83,-83.45,-169.83
23421,52.44201,-1.539212,187.04,12.65,3.0,321.2,24 / 25,2346327,2019-09-07 09:52:31:606,-0.0072,0.1246,9.7858,0.0059,-0.0091,9.8066,-0.0284,0.0518,0.0114,-2.94,-36.87,-0.75,213.84,-83.37,-168.97
23422,52.44201,-1.539212,187.04,12.65,3.0,321.2,24 / 25,2346427,2019-09-07 09:52:31:706,0.135,-1.0951,9.8949,0.0154,-0.0156,9.8065,0.1267,0.0083,0.0074,-3.06,-36.25,-1.0,214.1,-83.28,-169.18
23423,52.44201,-1.539212,187.04,12.65,3.0,321.2,24 / 25,2346527,2019-09-07 09:52:31:806,-0.2894,-0.501,10.0306,-0.0106,-0.019,9.8066,0.1085,0.0239,0.0047,-3.25,-36.44,-0.62,214.68,-83.26,-167.47
23424,52.44201,-1.539212,187.04,12.65,3.0,321.2,24 / 25,2346627,2019-09-07 09:52:31:906,-0.3926,-0.4731,9.9439,0.0049,0.0001,9.8066,0.0006,0.0235,0.0339,-3.25,-37.0,-0.5,217.92,-83.18,-167.72
23425,52.44201,-1.539212,187.04,12.65,3.0,321.2,24 / 25,2346727,2019-09-07 09:52:32:006,0.1883,-0.3066,9.7152,0.0035,0.0086,9.8066,-0.0476,0.0152,0.0189,-2.56,-36.56,-0.5,217.73,-83.13,-167.7
23426,52.44201,-1.539212,187.04,12.65,3.0,321.2,24 / 25,2346828,2019-09-07 09:52:32:107,0.3086,0.7427,9.9656,0.003,-0.0119,9.8066,0.0579,-0.0368,0.0126,-3.19,-36.56,-0.81,213.41,-83.12,-167.72
23427,52.44201,-1.539212,187.04,12.65,3.0,321.2,24 / 25,2346927,2019-09-07 09:52:32:206,-0.969,-0.0941,9.7249,0.0034,-0.0023,9.8066,-0.0132,0.0394,-0.0848,-3.31,-36.62,-0.94,213.87,-83.14,-166.53
23428,52.44201,-1.539212,187.04,12.65,3.0,321.2,24 / 25,2347027,2019-09-07 09:52:32:306,-0.3269,-0.4933,10.3972,0.0008,-0.0076,9.8066,0.0283,-0.0146,0.0235,-2.81,-36.69,-0.56,213.85,-83.18,-167.05
23429,52.44201,-1.539212,187.04,12.65,3.0,321.2,25 / 25,2347127,2019-09-07 09:52:32:406,-0.4994,0.6717,9.4475,0.0014,0.0014,9.8066,0.0174,-0.0048,0.0224,-2.75,-36.44,-0.56,214.71,-83.19,-166.6
23430,52.44201,-1.539212,187.04,12.65,3.0,321.2,25 / 25,2347227,2019-09-07 09:52:32:506,0.3252,-0.2053,9.9287,-0.0035,0.0072,9.8066,0.008,-0.0423,-0.0288,-3.12,-36.56,0.13,217.87,-83.11,-166.7
23431,52.44201,-1.539212,187.04,12.65,3.0,321.2,25 / 25,2347327,2019-09-07 09:52:32:606,0.2469,0.0212,9.797,0.0113,0.0106,9.8066,0.1398,-0.015,-0.0523,-3.06,-36.69,-0.31,217.87,-83.14,-167.23
23432,52.44201,-1.539212,187.04,12.65,3.0,321.2,25 / 25,2347427,2019-09-07 09:52:32:706,0.6056,-0.4489,9.9647,0.0052,0.0132,9.8066,-0.0072,-0.0161,0.016,-2.75,-37.06,-0.37,217.48,-83.04,-167.0
23433,52.44201,-1.539212,187.04,12.65,3.0,321.2,25 / 25,2347527,2019-09-07 09:52:32:806,0.2656,-0.1816,9.8366,0.0008,0.0019,9.8066,0.0303,-0.0111,0.0412,-3.12,-36.62,-0.5,217.29,-82.99,-166.69
23434,52.44201,-1.539212,187.04,12.65,3.0,321.2,25 / 25,2347627,2019-09-07 09:52:32:906,0.4567,-0.2873,9.6693,-0.0008,0.0064,9.8066,-0.0073,-0.0043,-0.0228,-3.56,-36.56,-0.12,226.99,-82.98,-167.16
23435,52.44201,-1.539212,187.04,12.65,3.0,321.2,25 / 25,2347727,2019-09-07 09:52:33:006,0.5546,-0.055,10.2527,-0.0038,-0.0081,9.8066,0.0991,-0.0198,-0.0095,-2.94,-37.19,0.19,216.92,-82.93,-167.23
23436,52.44201,-1.539212,187.04,12.65,3.0,321.2,25 / 25,2347827,2019-09-07 09:52:33:106,0.0564,0.5377,9.7296,-0.0004,-0.0043,9.8065,-0.0716,-0.0502,0.0535,-3.37,-36.94,-0.62,213.1,-82.97,-167.1
23437,52.44201,-1.539212,187.04,12.65,3.0,321.2,25 / 25,2347927,2019-09-07 09:52:33:206,0.5955,0.2474,9.593,0.0002,0.0007,9.8066,0.0379,-0.0093,0.0121,-3.31,-36.62,-0.56,212.77,-82.93,-167.66
23438,52.44201,-1.539212,187.04,12.65,3.0,321.2,25 / 25,2348027,2019-09-07 09:52:33:306,0.7905,0.0654,10.075,-0.0021,0.0031,9.8066,0.0339,-0.0219,0.0176,-2.94,-37.25,-0.75,212.63,-82.94,-168.16
23439,52.44201,-1.539212,187.04,12.65,3.0,321.2,24 / 24,2348128,2019-09-07 09:52:33:407,0.2754,0.7941,9.5327,-0.0021,-0.0045,9.8066,0.0802,0.0231,0.0084,-2.62,-36.37,0.06,217.22,-82.89,-168.64
