,GPS LATITUDE (degrees), GPS LONGITUDE (degrees), GPS ALTITUDE (m), GPS SPEED (Kmh), GPS ACCURACY (m), GPS ORIENTATION (Â°),GPS SATELLITES IN RANGE, TIME SINCE START (ms), DATE (YYYY-MO-DD HH-MI-SS_SSS), ACCELEROMETER X (m/s²) , ACCELEROMETER Y (m/s²), ACCELEROMETER Z (m/s²), GRAVITY X (m/s²), GRAVITY Y (m/s²), GRAVITY Z (m/s²), GYROSCOPE Yaw (rad/s), GYROSCOPE Pitch (rad/s), GYROSCOPE Roll (rad/s), MAGNETIC FIELD X (Î¼T), MAGNETIC FIELD Y (Î¼T), MAGNETIC FIELD Z (Î¼T), ORIENTATION (Yaw) (Â°), ORIENTATION (Pitch) (Â°), ORIENTATION (Roll ) (Â°)
56612,53.74496,-1.628715,217.79,28.58,4,315.16,25 / 25,5661238,2019-11-08 11:31:38:849,0.412,1.3359,9.5975,-0.0499,-0.0066,9.8065,-0.0538,0.4837,-0.3344,-5.19,-44.5,34.75,6.65,-81.97,-166.44
56613,53.74496,-1.628715,217.79,28.58,4,315.16,25 / 25,5661341,2019-11-08 11:31:38:952,1.0485,2.4798,8.6513,-0.019,0.0197,9.8065,0.0449,0.1834,-0.142,-6.12,-46.56,38.56,7.83,-81.86,-164.82
56614,53.74496,-1.628715,217.79,28.58,4,315.16,25 / 25,5661438,2019-11-08 11:31:39:049,0.1525,-0.2366,12.3326,-0.0014,-0.0001,9.8066,0.1333,-0.0866,0.0961,-5.37,-44.0,40.31,11.87,-81.67,-162.99
56615,53.74496,-1.628715,217.79,28.58,4,315.16,25 / 25,5661539,2019-11-08 11:31:39:150,-3.3652,-1.3665,11.5838,0.0481,-0.01,9.8065,0.0583,0.1887,-0.2149,-2.06,-42.25,39.81,16.54,-81.6,-163.27
56616,53.74496,-1.628715,217.79,28.58,4,315.16,25 / 25,5661638,2019-11-08 11:31:39:249,3.2009,0.6338,10.7602,0.0278,-0.0034,9.8065,-0.0081,0.5655,-0.3378,0.13,-42.37,38.25,18.76,-81.49,-164.45
56617,53.74496,-1.628715,217.79,28.58,4,315.16,25 / 25,5661738,2019-11-08 11:31:39:349,-2.4339,0.4989,9.7537,-0.035,0.003,9.8066,-0.0485,0.4167,-0.1582,0.19,-43.12,37.75,16.44,-81.64,-166.39
56618,53.74496,-1.628715,217.79,28.58,4,315.16,25 / 25,5661838,2019-11-08 11:31:39:449,-3.229,0.3661,9.5608,-0.0926,-0.0133,9.8062,0.0195,-0.1526,0.0076,0.88,-43.62,37.06,16.62,-81.82,-167.87
56619,53.74496,-1.628715,217.79,28.58,4,315.16,25 / 25,5661938,2019-11-08 11:31:39:549,-1.2844,-0.8317,10.3366,0.0003,0.0013,9.8066,-0.1607,0.1046,0.0437,0.94,-43.87,36.0,21.37,-81.82,-164.06
56620,53.74496,-1.628715,217.79,28.58,4,315.16,25 / 25,5662039,2019-11-08 11:31:39:650,1.0115,0.6508,10.0075,-0.0326,-0.0432,9.8064,0.0092,-0.0858,0.0427,0.81,-44.19,36.13,22.38,-81.92,-163.17
56621,53.74496,-1.628715,217.79,28.58,4,315.16,25 / 25,5662139,2019-11-08 11:31:39:750,5.4319,0.38,11.056,0.0394,-0.0371,9.8064,0.065,-0.3856,0.3069,1.94,-44.81,36.06,23.56,-81.73,-163.96
56622,53.74496,-1.628715,217.79,28.58,4,315.16,25 / 25,5662239,2019-11-08 11:31:39:850,0.7685,0.9874,11.4224,-0.0289,-0.0104,9.8066,0.0674,-0.3464,0.3006,1.56,-44.75,36.06,22.7,-81.36,-164.87
56623,53.74496,-1.628715,217.79,28.58,4,315.16,25 / 25,5662338,2019-11-08 11:31:39:949,3.8038,1.4284,9.2354,0.0389,0.0419,9.8064,-0.1007,-0.1942,0.2008,1.88,-44.37,35.88,24.04,-81.41,-163.64
56624,53.74496,-1.628715,217.79,28.58,4,315.16,25 / 25,5662438,2019-11-08 11:31:40:049,-0.2621,0.2249,8.53,0.0303,0.0284,9.8065,-0.0412,-0.1052,0.0795,1.69,-44.81,36.19,25.26,-81.73,-162.55
56625,53.74496,-1.628715,217.79,28.58,4,315.16,21 / 23,5662538,2019-11-08 11:31:40:149,4.3388,0.9611,8.0242,0.0407,-0.0105,9.8065,-0.0987,0.2434,-0.1138,1.63,-44.69,35.94,24.61,-82.08,-162.89
56626,53.74496,-1.628715,217.79,28.58,4,315.16,21 / 23,5662639,2019-11-08 11:31:40:250,0.3383,1.0866,10.0929,0.0462,0.0129,9.8065,-0.0729,0.2645,-0.1593,1.56,-44.5,36.31,21.55,-82.13,-165.34
56627,53.74496,-1.628715,217.79,28.58,4,315.16,21 / 23,5662739,2019-11-08 11:31:40:350,-1.7252,0.1821,10.6949,-0.0144,-0.0033,9.8065,0.0102,0.3145,-0.1995,1.44,-44.12,36.31,20.68,-81.99,-164.55
56628,53.74496,-1.628715,217.79,28.58,4,315.16,21 / 23,5662838,2019-11-08 11:31:40:449,-1.1242,-1.2515,10.7122,0.0337,0.0233,9.8065,-0.0989,0.4061,-0.2375,1.13,-44.87,36.13,20.72,-82.04,-164.57
56629,53.74496,-1.628715,217.79,28.58,4,315.16,21 / 23,5662938,2019-11-08 11:31:40:549,-1.6428,0.6699,9.642,0.0011,0.0139,9.8065,-0.0622,0.3242,-0.1828,1.5,-45.25,36.5,24.78,-82.01,-162.59
56630,53.74496,-1.628715,217.79,28.58,4,315.16,21 / 23,5663039,2019-11-08 11:31:40:650,3.8979,-2.0517,9.5008,-0.0379,-0.0129,9.8065,-0.0154,0.2223,-0.0665,1.63,-45.12,36.38,25.07,-81.95,-162.58
56631,53.74496,-1.628715,217.79,28.58,4,315.16,21 / 23,5663139,2019-11-08 11:31:40:750,-0.814,0.1001,9.1434,0.026,0.0062,9.8066,0.0261,-0.0673,0.0243,1.5,-44.69,36.0,24.67,-81.86,-162.97
56632,53.74496,-1.628715,217.79,28.58,4,315.16,21 / 23,5663239,2019-11-08 11:31:40:850,3.6606,0.7973,9.0451,0.0207,0.0033,9.8065,0.0452,-0.1849,0.1378,1.19,-45.19,35.81,22.37,-82.09,-163.17
56633,53.74496,-1.628715,217.79,28.58,4,315.16,21 / 23,5663338,2019-11-08 11:31:40:949,-0.1482,1.0223,9.5814,0.0304,-0.0033,9.8065,0.1,-0.3484,0.2501,1.56,-45.19,36.31,23.67,-82.1,-163.67
56634,53.74496,-1.628715,217.79,28.58,4,315.16,21 / 23,5663438,2019-11-08 11:31:41:049,-2.9016,-0.2858,11.1966,-0.0198,-0.0208,9.8066,0.0844,-0.3604,0.2005,2.25,-44.62,35.75,25.22,-81.99,-162.43
56635,53.74496,-1.628715,217.79,28.58,4,315.16,21 / 21,5663538,2019-11-08 11:31:41:149,0.349,1.3205,9.7604,0.0118,0.0034,9.8066,0.0281,-0.1188,-0.0253,1.56,-45.19,35.94,25.53,-81.94,-162.2
56636,53.74496,-1.628715,217.79,28.58,4,315.16,21 / 21,5663638,2019-11-08 11:31:41:249,-2.8546,0.9676,10.7743,-0.0352,-0.0236,9.8065,0.0026,-0.0003,-0.0779,1.31,-45.12,36.25,21.52,-81.97,-163.94
56637,53.74496,-1.628715,217.79,28.58,4,315.16,21 / 21,5663739,2019-11-08 11:31:41:350,1.6262,-0.2605,9.8164,-0.0252,0.0127,9.8065,0.0862,0.2712,-0.1474,1.0,-44.75,36.13,21.09,-81.86,-164.35
56638,53.74496,-1.628715,217.79,28.58,4,315.16,21 / 21,5663839,2019-11-08 11:31:41:450,-2.8259,1.1128,10.2202,-0.038,-0.0236,9.8065,-0.0507,0.2782,-0.2158,1.19,-45.31,35.63,22.1,-81.54,-163.68
56639,53.74496,-1.628715,217.79,28.58,4,315.16,21 / 21,5663939,2019-11-08 11:31:41:550,0.7149,0.1827,9.7524,-0.0308,0.0238,9.8065,-0.025,0.2962,-0.1699,2.13,-45.25,36.25,25.45,-81.5,-162.53
56640,53.74496,-1.628715,217.79,28.58,4,315.16,21 / 21,5664039,2019-11-08 11:31:41:650,2.9434,0.0106,8.7438,0.0143,0.0112,9.8066,-0.0408,0.2946,-0.1271,1.5,-45.19,35.94,24.5,-81.68,-163.21
56641,53.74496,-1.628715,217.79,28.58,4,315.16,21 / 21,5664138,2019-11-08 11:31:41:749,1.9647,-1.2013,10.732,-0.0273,0.0142,9.8066,0.0871,0.1199,-0.0293,0.69,-44.94,35.56,22.24,-81.68,-163.49
56642,53.74496,-1.628715,217.79,28.58,4,315.16,21 / 21,5664238,2019-11-08 11:31:41:849,-0.1975,0.2175,9.9678,-0.004,0.0193,9.8066,-0.0394,0.1263,-0.08,0.69,-45.19,36.06,23.36,-81.64,-162.59
56643,53.74496,-1.628715,217.79,28.58,4,315.16,21 / 21,5664338,2019-11-08 11:31:41:949,-3.1575,3.6743,10.7632,-0.0157,-0.0177,9.8065,0.0126,0.1026,-0.0759,0.94,-45.69,36.0,23.0,-81.74,-162.92
56644,53.74496,-1.628715,217.79,28.58,4,315.16,21 / 21,5664438,2019-11-08 11:31:42:049,0.5411,-0.5568,10.0657,0.0436,0.0331,9.8065,0.0437,-0.1458,-0.0194,1.0,-46.12,36.38,21.0,-81.44,-164.72
56645,53.74496,-1.628715,217.79,28.58,4,315.16,21 / 22,5664538,2019-11-08 11:31:42:149,-2.7975,-0.5713,10.78,0.0219,-0.0117,9.8066,0.1023,-0.3801,0.1831,0.94,-44.94,36.5,18.35,-81.63,-166.58
56646,53.74496,-1.628715,217.79,28.58,4,315.16,21 / 22,5664638,2019-11-08 11:31:42:249,0.5664,0.9824,10.2802,-0.0166,-0.0403,9.8065,0.0326,-0.2872,0.2453,0.63,-45.37,35.56,18.79,-81.45,-166.44
56647,53.74496,-1.628715,217.79,28.58,4,315.16,21 / 22,5664738,2019-11-08 11:31:42:349,-1.3368,-0.4654,9.5905,0.0133,0.0187,9.8065,-0.0034,-0.1911,0.0783,0.63,-45.31,36.75,18.78,-81.37,-166.34
56648,53.74496,-1.628715,217.79,28.58,4,315.16,21 / 22,5664839,2019-11-08 11:31:42:450,1.4487,0.1517,8.4821,0.0164,0.016,9.8065,0.1041,0.0071,0.0128,0.25,-45.81,36.5,17.88,-81.62,-165.49
56649,53.74496,-1.628715,217.79,28.58,4,315.16,21 / 22,5664940,2019-11-08 11:31:42:551,2.4474,0.3223,9.7065,0.0164,-0.0179,9.8066,-0.059,0.0625,-0.0949,0.63,-45.25,36.13,18.51,-81.62,-166.58
56650,53.74496,-1.628715,217.79,28.58,4,315.16,21 / 22,5665038,2019-11-08 11:31:42:649,1.6286,-0.3635,10.1033,0.0003,-0.0006,9.8066,-0.0692,0.1598,-0.0082,1.13,-45.56,36.44,18.97,-81.83,-166.19
56651,53.74496,-1.628715,217.79,28.58,4,315.16,21 / 22,5665138,2019-11-08 11:31:42:749,1.8992,-0.1056,8.8318,0.0125,-0.0341,9.8065,-0.1288,0.2199,-0.0315,0.31,-44.56,36.63,16.11,-81.72,-166.84
56652,53.74496,-1.628715,217.79,28.58,4,315.16,21 / 22,5665238,2019-11-08 11:31:42:849,0.2365,-1.3458,10.9487,-0.0113,-0.0037,9.8066,-0.1013,0.1748,-0.0769,0.81,-44.75,37.13,16.44,-81.81,-168.08
56653,53.74496,-1.628715,217.79,28.58,4,315.16,21 / 22,5665338,2019-11-08 11:31:42:949,1.9538,1.4222,9.4348,-0.0028,-0.0009,9.8066,-0.0411,0.0976,0.0,0.88,-44.69,36.63,16.43,-81.91,-168.05
56654,53.74496,-1.628715,217.79,28.58,4,315.16,21 / 22,5665438,2019-11-08 11:31:43:049,0.5155,-0.6159,10.5113,-0.0017,-0.0119,9.8066,-0.1153,0.066,0.0112,1.0,-44.87,36.25,16.21,-81.9,-168.35
56655,53.74496,-1.628715,217.79,28.58,4,315.16,22 / 23,5665538,2019-11-08 11:31:43:149,0.3722,-0.3299,10.1083,-0.0023,0.0026,9.8066,0.0149,0.0329,-0.0054,1.31,-45.0,36.38,16.29,-81.9,-168.29
56656,53.74496,-1.628715,217.79,28.58,4,315.16,22 / 23,5665639,2019-11-08 11:31:43:250,0.1333,0.7128,10.3016,0.0123,-0.0347,9.8066,-0.1193,0.0691,0.0066,2.0,-45.0,37.0,17.24,-81.86,-168.94
56657,53.74496,-1.628715,217.79,28.58,4,315.16,22 / 23,5665739,2019-11-08 11:31:43:350,0.7836,1.7365,9.5958,0.0001,0.0195,9.8066,-0.1042,0.0112,-0.0154,1.88,-44.81,36.75,15.88,-81.88,-170.06
56658,53.74496,-1.628715,217.79,28.58,4,315.16,22 / 23,5665839,2019-11-08 11:31:43:450,1.4577,2.0238,10.2695,0.0093,-0.029,9.8065,-0.0778,-0.0225,0.0898,2.38,-44.94,37.13,15.74,-81.82,-170.2
56659,53.74496,-1.628715,217.79,28.58,4,315.16,22 / 23,5665939,2019-11-08 11:31:43:550,0.6337,-1.0916,10.5799,-0.0074,0.0176,9.8066,-0.0855,-0.1001,0.0422,2.31,-44.87,37.06,14.87,-81.57,-171.0
56660,53.74496,-1.628715,217.79,28.58,4,315.16,22 / 23,5666039,2019-11-08 11:31:43:650,1.8715,-0.1996,9.2364,0.0137,0.0076,9.8066,0.0026,0.0023,0.0244,1.88,-44.19,37.69,16.95,-81.76,-169.0
56661,53.74496,-1.628715,217.79,28.58,4,315.16,22 / 23,5666139,2019-11-08 11:31:43:750,0.6549,0.6401,8.9701,0.0198,-0.0019,9.8065,-0.1199,0.1228,-0.0297,1.19,-44.69,37.63,14.41,-81.7,-169.68
56662,53.74496,-1.628715,217.79,28.58,4,315.16,22 / 23,5666238,2019-11-08 11:31:43:849,0.269,1.2497,9.432,0.0107,0.0055,9.8066,-0.035,0.0653,-0.0457,1.81,-44.87,37.5,15.93,-81.8,-169.89
56663,53.74496,-1.628715,217.79,28.58,4,315.16,22 / 23,5666338,2019-11-08 11:31:43:949,0.8487,-0.5376,10.2804,0.0101,-0.0016,9.8066,-0.0073,0.0949,-0.0251,2.63,-44.62,37.0,15.79,-81.74,-171.72
56664,53.74496,-1.628715,217.79,28.58,4,315.16,22 / 23,5666439,2019-11-08 11:31:44:050,0.9061,-1.7841,10.5159,0.0124,0.0405,9.8065,-0.095,-0.067,-0.0055,2.5,-45.06,37.63,14.93,-81.98,-172.16
56665,53.74496,-1.628715,217.79,28.58,4,315.16,22 / 22,5666539,2019-11-08 11:31:44:150,1.37,0.6506,11.294,-0.0024,0.0011,9.8066,-0.0803,0.01,0.0963,2.31,-44.81,37.63,12.7,-81.86,-172.55
56666,53.74496,-1.628715,217.79,28.58,4,315.16,22 / 22,5666639,2019-11-08 11:31:44:250,1.957,0.7145,9.3863,0.0048,0.0164,9.8066,-0.0261,-0.0158,0.0424,2.31,-44.37,37.63,11.49,-81.58,-173.58
56667,53.74496,-1.628715,217.79,28.58,4,315.16,22 / 22,5666739,2019-11-08 11:31:44:350,0.2214,0.4657,9.9969,0.0052,0.0151,9.8066,-0.0284,0.1177,-0.055,2.63,-44.62,37.25,14.2,-81.67,-173.05
56668,53.74496,-1.628715,217.79,28.58,4,315.16,22 / 22,5666838,2019-11-08 11:31:44:449,1.5778,-1.2516,9.289,0.0055,0.0251,9.8065,-0.0542,0.2154,-0.0451,2.56,-45.06,37.63,15.82,-81.57,-171.56
56669,53.74496,-1.628715,217.79,28.58,4,315.16,22 / 22,5666938,2019-11-08 11:31:44:549,-0.3503,-0.9668,10.2034,0.02,0.0007,9.8066,-0.0312,0.2377,-0.1214,2.31,-45.19,38.0,14.92,-81.71,-170.76
56670,53.74496,-1.628715,217.79,28.58,4,315.16,22 / 22,5667038,2019-11-08 11:31:44:649,-0.1258,0.0309,9.6824,0.0083,0.0232,9.8066,-0.1231,0.2036,-0.0497,2.13,-45.06,37.69,13.33,-81.45,-172.15
56671,53.74496,-1.628715,217.79,28.58,4,315.16,22 / 22,5667138,2019-11-08 11:31:44:749,0.4427,-0.0469,10.3005,0.0053,0.024,9.8065,-0.0428,0.101,-0.0099,2.63,-44.62,37.56,14.62,-81.7,-172.51
56672,53.74496,-1.628715,217.79,28.58,4,315.16,22 / 22,5667239,2019-11-08 11:31:44:850,0.4279,0.9364,9.0241,0.0034,0.0086,9.8066,-0.0154,0.0364,-0.0109,2.06,-44.5,37.5,11.69,-81.51,-173.43
56673,53.74496,-1.628715,217.79,28.58,4,315.16,22 / 22,5667342,2019-11-08 11:31:44:953,1.5671,-1.4136,9.2964,0.0085,0.0092,9.8066,0.0748,0.0957,-0.0296,3.0,-44.31,38.63,12.62,-81.77,-173.92
56674,53.74496,-1.628715,217.79,28.58,4,315.16,22 / 22,5667439,2019-11-08 11:31:45:050,0.0026,2.6104,9.2903,-0.0113,-0.0084,9.8066,0.0,-0.0083,0.0561,2.69,-45.25,38.19,12.85,-81.74,-173.96
56675,53.74496,-1.628715,217.79,28.58,4,315.16,22 / 23,5667539,2019-11-08 11:31:45:150,1.7749,-0.7117,10.1901,-0.0204,0.0087,9.8066,0.0452,-0.1343,0.0981,2.13,-44.62,38.5,10.49,-81.63,-174.3
56676,53.74496,-1.628715,217.79,28.58,4,315.16,22 / 23,5667638,2019-11-08 11:31:45:249,-0.0955,-1.0589,9.2245,0.0078,-0.0277,9.8066,-0.032,-0.0945,0.0753,2.63,-44.81,37.81,12.61,-81.53,-174.21
56677,53.74496,-1.628715,217.79,28.58,4,315.16,22 / 23,5667738,2019-11-08 11:31:45:349,0.1802,-0.6957,11.2186,-0.0114,-0.0078,9.8066,-0.0138,-0.0989,0.062,2.56,-44.62,38.38,13.58,-81.31,-173.49
56678,53.74496,-1.628715,217.79,28.58,4,315.16,22 / 23,5667839,2019-11-08 11:31:45:450,-0.3023,0.629,9.3463,-0.0033,0.0328,9.8065,-0.0206,-0.0329,0.0181,2.19,-45.25,38.19,11.27,-81.53,-173.82
56679,53.74496,-1.628715,217.79,28.58,4,315.16,22 / 23,5667939,2019-11-08 11:31:45:550,1.0614,0.2942,9.7982,-0.0158,-0.0236,9.8065,0.0121,0.0184,0.1086,2.44,-44.62,38.19,11.44,-81.49,-173.69
56680,53.74496,-1.628715,217.79,28.58,4,315.16,22 / 23,5668039,2019-11-08 11:31:45:650,-0.3077,-0.0502,9.1715,-0.0131,0.0145,9.8066,0.0411,-0.1124,0.044,2.0,-45.06,38.25,10.76,-81.6,-174.21
56681,53.74496,-1.628715,217.79,28.58,4,315.16,22 / 23,5668138,2019-11-08 11:31:45:749,1.7377,1.7957,9.3442,-0.0113,-0.0272,9.8065,-0.0196,-0.1132,0.1135,2.38,-45.25,38.13,10.45,-81.65,-174.45
56682,53.74496,-1.628715,217.79,28.58,4,315.16,22 / 23,5668239,2019-11-08 11:31:45:850,-1.7992,1.4616,10.2018,-0.0163,0.0078,9.8066,-0.0189,-0.2226,0.0554,2.38,-44.75,38.31,10.16,-81.44,-174.74
56683,53.74496,-1.628715,217.79,28.58,4,315.16,22 / 23,5668339,2019-11-08 11:31:45:950,-1.6701,0.0995,10.7088,-0.0434,-0.0299,9.8064,0.0451,0.1257,-0.0197,2.19,-45.25,37.88,10.97,-81.36,-174.1
56684,53.74496,-1.628715,217.79,28.58,4,315.16,22 / 23,5668439,2019-11-08 11:31:46:050,-0.3642,-1.3447,10.3757,0.0167,0.0276,9.8065,-0.0618,0.2632,-0.1567,2.19,-45.44,38.06,11.46,-81.37,-173.7
56685,53.74638,-1.631754,219.7,27.8,4,301.13,23 / 23,5668540,2019-11-08 11:31:46:151,-2.1893,0.2989,10.097,-0.0204,-0.0057,9.8066,-0.0969,0.3403,-0.1114,2.19,-45.75,38.69,11.85,-81.61,-173.23
56686,53.74638,-1.631754,219.7,27.8,4,301.13,23 / 23,5668638,2019-11-08 11:31:46:249,0.0744,0.0088,8.1345,-0.0098,-0.018,9.8066,-0.1272,0.2605,0.0034,1.56,-45.94,39.25,12.33,-81.54,-172.85
56687,53.74638,-1.631754,219.7,27.8,4,301.13,23 / 23,5668738,2019-11-08 11:31:46:349,-1.9514,1.5795,8.951,0.047,-0.0103,9.8064,-0.034,-0.0711,0.0834,2.19,-45.44,38.75,10.78,-81.72,-174.05
56688,53.74638,-1.631754,219.7,27.8,4,301.13,23 / 23,5668838,2019-11-08 11:31:46:449,0.4541,-0.5539,10.9928,-0.0075,-0.0272,9.8066,0.0646,-0.1413,0.1535,1.38,-44.75,38.69,8.77,-81.62,-174.26
56689,53.74638,-1.631754,219.7,27.8,4,301.13,23 / 23,5668938,2019-11-08 11:31:46:549,3.3636,-0.9216,9.6357,0.0325,-0.005,9.8065,0.0852,-0.2849,0.1689,1.94,-45.31,39.31,10.39,-81.55,-174.41
56690,53.74638,-1.631754,219.7,27.8,4,301.13,23 / 23,5669039,2019-11-08 11:31:46:650,-0.5629,-0.6872,11.253,-0.0313,-0.0383,9.8065,0.0458,-0.2853,0.1652,2.19,-45.25,39.44,11.18,-81.51,-173.77
56691,53.74638,-1.631754,219.7,27.8,4,301.13,23 / 23,5669139,2019-11-08 11:31:46:750,2.2144,2.2087,8.5855,0.0063,-0.0192,9.8065,0.0678,-0.0739,0.0349,2.0,-44.94,39.06,11.6,-81.44,-173.44
56692,53.74638,-1.631754,219.7,27.8,4,301.13,23 / 23,5669239,2019-11-08 11:31:46:850,0.282,-0.6271,10.1332,0.0005,-0.0234,9.8065,0.0017,0.0263,-0.0307,2.0,-45.12,38.69,10.3,-81.62,-174.47
56693,53.74638,-1.631754,219.7,27.8,4,301.13,23 / 23,5669339,2019-11-08 11:31:46:950,2.3316,-0.1807,8.4682,-0.0056,-0.0252,9.8066,-0.0096,0.188,-0.1095,2.56,-45.06,39.31,11.14,-81.55,-175.25
56694,53.74638,-1.631754,219.7,27.8,4,301.13,23 / 23,5669439,2019-11-08 11:31:47:050,1.6163,-0.7747,10.9176,0.0183,-0.025,9.8065,-0.0235,0.284,-0.1214,1.5,-45.0,39.44,9.52,-81.76,-175.08
56695,53.74638,-1.631754,219.7,27.8,4,301.13,24 / 24,5669539,2019-11-08 11:31:47:150,-2.2912,0.8285,8.7166,-0.0003,-0.0193,9.8066,0.0599,0.2466,-0.1463,1.75,-44.69,38.69,9.36,-81.67,-175.23
56696,53.74638,-1.631754,219.7,27.8,4,301.13,24 / 24,5669638,2019-11-08 11:31:47:249,2.4844,-0.4821,11.2916,0.0419,-0.0226,9.8065,0.0989,0.1329,-0.117,1.69,-45.56,38.75,11.39,-81.86,-173.54
56697,53.74638,-1.631754,219.7,27.8,4,301.13,24 / 24,5669738,2019-11-08 11:31:47:349,-1.6782,1.4389,10.6513,0.0161,0.0067,9.8066,0.0862,-0.0371,0.0111,1.81,-44.87,38.5,10.7,-81.73,-174.11
56698,53.74638,-1.631754,219.7,27.8,4,301.13,24 / 24,5669838,2019-11-08 11:31:47:449,2.7055,0.6024,10.4012,0.0397,-0.0177,9.8065,0.2238,-0.1124,0.0318,3.0,-46.0,39.25,12.43,-81.89,-174.14
56699,53.74638,-1.631754,219.7,27.8,4,301.13,24 / 24,5669938,2019-11-08 11:31:47:549,1.601,0.7087,8.5971,0.0089,0.0484,9.8065,0.1239,-0.1983,-0.0114,2.19,-45.44,38.88,9.84,-82.03,-174.75
56700,53.74638,-1.631754,219.7,27.8,4,301.13,24 / 24,5670039,2019-11-08 11:31:47:650,-1.0232,0.2495,8.9706,-0.0191,-0.0128,9.8065,0.1661,-0.0097,-0.0201,2.88,-45.37,39.69,10.59,-81.98,-175.45
56701,53.74638,-1.631754,219.7,27.8,4,301.13,24 / 24,5670138,2019-11-08 11:31:47:749,1.3416,1.029,10.6792,-0.0176,0.0216,9.8066,0.0331,0.2434,-0.0663,2.44,-45.94,38.88,9.07,-82.04,-175.42
56702,53.74638,-1.631754,219.7,27.8,4,301.13,24 / 24,5670238,2019-11-08 11:31:47:849,1.5869,0.5653,10.0656,-0.0076,-0.0076,9.8065,0.0717,0.1383,-0.1342,2.69,-45.5,39.63,10.0,-81.96,-175.95
56703,53.74638,-1.631754,219.7,27.8,4,301.13,24 / 24,5670338,2019-11-08 11:31:47:949,1.6378,0.3351,10.3244,-0.0269,0.0087,9.8066,0.0567,0.1675,-0.0475,3.13,-45.44,39.88,9.17,-81.97,-176.64
56704,53.74638,-1.631754,219.7,27.8,4,301.13,24 / 24,5670439,2019-11-08 11:31:48:050,-0.0314,0.8781,9.8468,-0.0042,0.0022,9.8066,0.0665,0.1411,-0.0396,2.75,-44.69,39.25,11.64,-81.9,-174.75
56705,53.74638,-1.631754,219.7,27.8,4,301.13,24 / 24,5670539,2019-11-08 11:31:48:150,-1.0822,1.0422,10.0193,-0.0119,0.0012,9.8066,0.0931,0.0595,-0.0161,2.5,-45.06,39.56,11.91,-81.87,-174.37
56706,53.74638,-1.631754,219.7,27.8,4,301.13,24 / 24,5670639,2019-11-08 11:31:48:250,0.4092,0.3128,9.2754,0.0038,0.0137,9.8066,0.1226,-0.0859,-0.0436,3.19,-45.56,39.31,11.94,-81.84,-174.55
56707,53.74638,-1.631754,219.7,27.8,4,301.13,24 / 24,5670738,2019-11-08 11:31:48:349,0.3218,0.7303,10.2006,0.0056,0.0179,9.8065,0.0211,0.0395,-0.001,3.13,-45.62,39.75,11.48,-82.02,-174.74
56708,53.74638,-1.631754,219.7,27.8,4,301.13,24 / 24,5670838,2019-11-08 11:31:48:449,0.1206,0.9747,9.4982,-0.0005,0.0097,9.8066,0.0471,0.0315,-0.0493,3.0,-45.25,39.31,11.24,-82.06,-175.04
56709,53.74638,-1.631754,219.7,27.8,4,301.13,24 / 24,5670938,2019-11-08 11:31:48:549,1.6959,0.0453,10.8896,-0.0117,0.0175,9.8065,0.0261,0.0923,-0.0768,2.81,-45.31,39.19,10.92,-82.1,-175.3
56710,53.74638,-1.631754,219.7,27.8,4,301.13,24 / 24,5671038,2019-11-08 11:31:48:649,2.0203,0.045,8.7722,0.0146,0.0076,9.8066,0.1728,-0.0391,-0.0136,2.63,-45.31,39.75,10.8,-82.07,-175.26
56711,53.74638,-1.631754,219.7,27.8,4,301.13,24 / 24,5671138,2019-11-08 11:31:48:749,-0.0919,0.2622,10.7828,-0.0064,0.0068,9.8066,0.1086,-0.0445,0.0138,3.38,-45.81,39.94,11.25,-81.96,-174.94
56712,53.74638,-1.631754,219.7,27.8,4,301.13,24 / 24,5671238,2019-11-08 11:31:48:849,-0.3238,0.7846,10.1855,-0.0026,-0.0205,9.8066,0.0604,0.0157,-0.0277,3.38,-45.19,39.81,10.79,-81.75,-175.34
56713,53.74638,-1.631754,219.7,27.8,4,301.13,24 / 24,5671339,2019-11-08 11:31:48:950,-0.095,-0.5921,10.6339,-0.0024,0.0047,9.8065,0.0516,0.0249,0.0359,3.19,-45.19,40.25,10.69,-81.57,-175.46
56714,53.74638,-1.631754,219.7,27.8,4,301.13,24 / 24,5671439,2019-11-08 11:31:49:050,0.0428,0.0999,10.022,-0.0074,0.0059,9.8066,0.0116,0.1263,-0.0214,3.19,-45.31,40.56,10.4,-81.56,-175.56
56715,53.74638,-1.631754,219.7,27.8,4,301.13,22 / 23,5671539,2019-11-08 11:31:49:150,1.322,0.314,9.4704,-0.0174,0.0098,9.8066,0.0478,0.081,-0.0489,2.38,-45.75,40.75,9.82,-81.55,-174.68
56716,53.74638,-1.631754,219.7,27.8,4,301.13,22 / 23,5671638,2019-11-08 11:31:49:249,-0.7355,0.7368,9.7642,-0.0181,0.0074,9.8066,0.0196,0.0593,-0.0234,2.69,-45.37,40.38,12.07,-81.49,-174.34
56717,53.74638,-1.631754,219.7,27.8,4,301.13,22 / 23,5671738,2019-11-08 11:31:49:349,-0.0841,-0.2131,9.5833,-0.0165,0.0201,9.8066,0.005,0.0146,-0.031,2.13,-45.56,40.06,11.64,-81.57,-173.29
56718,53.74638,-1.631754,219.7,27.8,4,301.13,22 / 23,5671838,2019-11-08 11:31:49:449,-1.5835,1.1506,9.3186,-0.0109,0.0017,9.8066,0.08,0.0844,-0.0454,2.56,-45.62,40.44,13.26,-81.47,-173.41
56719,53.74638,-1.631754,219.7,27.8,4,301.13,22 / 23,5671938,2019-11-08 11:31:49:549,0.8653,-1.048,10.6291,-0.0225,0.0053,9.8065,0.0465,0.0492,-0.0948,2.5,-45.44,40.25,12.31,-81.31,-174.19
56720,53.74638,-1.631754,219.7,27.8,4,301.13,22 / 23,5672038,2019-11-08 11:31:49:649,0.9115,-0.1327,9.226,0.0039,0.0217,9.8065,0.0411,-0.0111,0.0091,3.06,-44.69,39.81,11.8,-81.22,-174.64
56721,53.74638,-1.631754,219.7,27.8,4,301.13,22 / 23,5672139,2019-11-08 11:31:49:750,0.997,0.4353,10.187,-0.0171,0.0113,9.8065,0.0072,-0.0623,-0.0067,2.5,-45.44,39.56,11.5,-81.39,-174.83
56722,53.74638,-1.631754,219.7,27.8,4,301.13,22 / 23,5672238,2019-11-08 11:31:49:849,-0.8334,0.4384,8.7643,-0.0044,0.0268,9.8065,0.0368,0.074,-0.0118,2.25,-44.69,39.63,9.41,-81.46,-175.12
56723,53.74638,-1.631754,219.7,27.8,4,301.13,22 / 23,5672339,2019-11-08 11:31:49:950,0.5337,1.3109,9.9427,-0.0163,0.005,9.8066,-0.0292,0.0686,-0.0554,3.56,-45.81,39.25,12.75,-81.6,-175.41
56724,53.74638,-1.631754,219.7,27.8,4,301.13,22 / 23,5672438,2019-11-08 11:31:50:049,-3.0266,-0.2865,10.841,-0.0284,0.0102,9.8066,0.0864,-0.06,-0.0603,3.38,-45.56,40.44,8.37,-81.3,-177.46
56725,53.74638,-1.631754,219.7,27.8,4,301.13,21 / 23,5672538,2019-11-08 11:31:50:149,0.8494,-1.2473,10.6451,-0.0373,-0.0064,9.8065,0.0219,-0.199,0.0973,2.88,-45.37,40.81,8.49,-81.36,-177.18
56726,53.74638,-1.631754,219.7,27.8,4,301.13,21 / 23,5672639,2019-11-08 11:31:50:250,0.2933,-0.6097,10.8717,-0.0048,-0.0087,9.8066,-0.0051,-0.1504,0.1307,3.25,-45.12,39.88,8.73,-81.31,-177.13
56727,53.74638,-1.631754,219.7,27.8,4,301.13,21 / 23,5672739,2019-11-08 11:31:50:350,-0.7465,-1.5165,10.2522,-0.0162,0.0286,9.8066,-0.1099,-0.0783,0.1053,3.56,-45.81,39.94,10.14,-81.3,-177.43
56728,53.74638,-1.631754,219.7,27.8,4,301.13,21 / 23,5672840,2019-11-08 11:31:50:451,-1.0543,0.7042,10.0729,-0.0082,0.0012,9.8066,0.021,-0.0575,0.17,3.56,-45.44,40.5,10.69,-81.31,-176.75
56729,53.74638,-1.631754,219.7,27.8,4,301.13,21 / 23,5672938,2019-11-08 11:31:50:549,-1.2811,-0.0472,10.925,-0.024,0.0224,9.8065,-0.0273,-0.1256,0.0571,3.56,-45.37,41.25,11.47,-81.32,-176.11
56730,53.74638,-1.631754,219.7,27.8,4,301.13,21 / 23,5673038,2019-11-08 11:31:50:649,-0.077,-0.506,9.2257,-0.0138,-0.0102,9.8065,-0.0731,0.1764,-0.0325,3.38,-45.0,40.5,10.5,-81.36,-175.52
56731,53.74638,-1.631754,219.7,27.8,4,301.13,21 / 23,5673138,2019-11-08 11:31:50:749,-0.4922,-0.1863,9.4078,0.022,0.0007,9.8066,-0.0077,0.2007,-0.0824,3.75,-44.62,40.69,10.45,-81.4,-176.93
56732,53.74638,-1.631754,219.7,27.8,4,301.13,21 / 23,5673238,2019-11-08 11:31:50:849,0.7283,-0.8892,9.1574,0.0026,-0.0143,9.8066,-0.152,0.388,-0.1883,3.5,-44.75,41.06,8.77,-81.57,-178.29
56733,53.74638,-1.631754,219.7,27.8,4,301.13,21 / 23,5673338,2019-11-08 11:31:50:949,3.4989,0.4095,10.664,0.0328,-0.006,9.8065,-0.0693,0.3245,-0.2051,3.19,-44.56,41.75,5.61,-81.26,-179.45
56734,53.74638,-1.631754,219.7,27.8,4,301.13,21 / 23,5673439,2019-11-08 11:31:51:050,0.2157,-2.0119,10.5592,-0.0593,0.0208,9.8064,-0.0268,0.1781,-0.067,2.63,-43.94,41.31,4.82,-81.39,179.81
56735,53.74638,-1.631754,219.7,27.8,4,301.13,21 / 22,5673539,2019-11-08 11:31:51:150,4.2022,-2.0942,9.2228,0.0083,-0.0404,9.8065,0.0677,-0.0257,-0.0704,3.0,-44.69,40.19,6.2,-81.58,-179.17
56736,53.74638,-1.631754,219.7,27.8,4,301.13,21 / 22,5673639,2019-11-08 11:31:51:250,-0.3551,0.1266,9.4617,-0.0388,0.0031,9.8065,0.1093,-0.1482,0.048,3.69,-45.31,40.31,6.26,-81.3,179.42
56737,53.74638,-1.631754,219.7,27.8,4,301.13,21 / 22,5673738,2019-11-08 11:31:51:349,2.1358,1.1081,8.9825,-0.0127,-0.0192,9.8065,0.0385,-0.1226,0.0965,4.0,-45.19,40.63,7.17,-81.36,-179.66
56738,53.74638,-1.631754,219.7,27.8,4,301.13,21 / 22,5673839,2019-11-08 11:31:51:450,0.883,-0.5781,11.0006,-0.0046,-0.0306,9.8066,0.1138,-0.0943,-0.0411,4.63,-45.0,40.75,7.13,-81.28,178.92
56739,53.74638,-1.631754,219.7,27.8,4,301.13,21 / 22,5673939,2019-11-08 11:31:51:550,-0.8072,-2.0701,9.7323,0.0055,-0.0036,9.8066,0.0564,0.0214,-0.0725,4.5,-44.81,41.38,7.24,-81.22,179.0
56740,53.74638,-1.631754,219.7,27.8,4,301.13,21 / 22,5674038,2019-11-08 11:31:51:649,2.5127,1.6741,9.3904,0.02,-0.0286,9.8065,0.0217,0.26,-0.1242,3.88,-45.25,40.75,6.62,-81.31,179.88
56741,53.74638,-1.631754,219.7,27.8,4,301.13,21 / 22,5674138,2019-11-08 11:31:51:749,-0.6096,0.9426,9.0601,0.0143,-0.0043,9.8066,0.0721,0.2487,-0.1228,3.56,-44.87,40.5,7.03,-81.07,-179.82
56742,53.74638,-1.631754,219.7,27.8,4,301.13,21 / 22,5674239,2019-11-08 11:31:51:850,-0.3113,-1.2682,10.282,0.0037,0.005,9.8066,0.0156,0.2091,-0.1157,3.63,-44.81,41.44,8.9,-81.22,-178.25
56743,53.74638,-1.631754,219.7,27.8,4,301.13,21 / 22,5674338,2019-11-08 11:31:51:949,-0.2218,0.7092,10.498,0.009,-0.009,9.8066,0.0617,0.0752,-0.0637,3.75,-44.87,41.44,9.39,-81.19,-177.85
56744,53.74638,-1.631754,219.7,27.8,4,301.13,21 / 22,5674439,2019-11-08 11:31:52:050,-0.3143,-0.2056,9.9818,0.0186,-0.0041,9.8065,-0.0276,-0.0561,-0.0151,3.31,-44.25,40.81,6.63,-80.96,-178.75
56745,53.74638,-1.631754,219.7,27.8,4,301.13,22 / 23,5674539,2019-11-08 11:31:52:150,-0.5201,-0.6084,9.7224,-0.0062,0.0189,9.8066,-0.0888,-0.0412,0.0663,4.06,-44.37,40.63,7.99,-81.04,-179.0
56746,53.74638,-1.631754,219.7,27.8,4,301.13,22 / 23,5674639,2019-11-08 11:31:52:250,-1.5192,2.0601,9.2763,-0.0099,-0.0137,9.8066,-0.0315,-0.1087,0.1024,4.38,-43.81,40.38,6.7,-80.97,179.76
56747,53.74638,-1.631754,219.7,27.8,4,301.13,22 / 23,5674739,2019-11-08 11:31:52:350,0.6733,0.5193,10.535,-0.0228,0.0097,9.8065,-0.0759,0.0297,-0.0026,5.69,-42.87,40.56,9.93,-80.82,179.84
56748,53.74638,-1.631754,219.7,27.8,4,301.13,22 / 23,5674839,2019-11-08 11:31:52:450,1.2085,-2.0049,9.0636,0.0059,0.0288,9.8066,0.0198,-0.014,-0.06,6.94,-42.19,41.13,11.8,-80.97,-179.88
56749,53.74638,-1.631754,219.7,27.8,4,301.13,22 / 23,5674939,2019-11-08 11:31:52:550,1.3318,0.7051,9.9685,-0.011,-0.0226,9.8066,-0.0047,0.0889,-0.026,5.94,-42.94,42.31,9.23,-81.01,179.53
56750,53.74638,-1.631754,219.7,27.8,4,301.13,22 / 23,5675039,2019-11-08 11:31:52:650,1.194,0.006,8.0526,0.0027,0.0474,9.8065,-0.2291,0.1058,-0.0441,6.0,-44.06,42.69,9.11,-80.62,179.55
56751,53.74638,-1.631754,219.7,27.8,4,301.13,22 / 23,5675139,2019-11-08 11:31:52:750,2.8961,-3.1827,10.6542,-0.0003,0.0006,9.8066,-0.0477,-0.1267,0.2778,5.19,-44.69,42.06,7.67,-80.73,179.47
56752,53.74638,-1.631754,219.7,27.8,4,301.13,22 / 23,5675239,2019-11-08 11:31:52:850,-1.9125,0.0576,10.2876,-0.0178,-0.0195,9.8065,-0.1004,-0.2122,0.1573,5.13,-44.56,41.5,7.43,-80.92,179.3
56753,53.74638,-1.631754,219.7,27.8,4,301.13,22 / 23,5675339,2019-11-08 11:31:52:950,1.3955,3.3951,8.9979,-0.0017,-0.0548,9.8064,-0.0024,-0.2092,0.1772,3.94,-45.12,42.19,5.98,-80.44,179.4
56754,53.74638,-1.631754,219.7,27.8,4,301.13,22 / 23,5675438,2019-11-08 11:31:53:049,-1.8782,1.8483,10.5899,-0.0169,0.0099,9.8066,0.1231,-0.1456,0.0718,3.88,-44.94,42.13,4.69,-80.46,178.36
56755,53.74638,-1.631754,219.7,27.8,4,301.13,22 / 22,5675538,2019-11-08 11:31:53:149,-0.7263,-1.4765,9.1689,0.0019,0.0142,9.8066,0.1221,0.1871,-0.1109,4.0,-45.12,41.5,5.06,-80.79,178.69
56756,53.74638,-1.631754,219.7,27.8,4,301.13,22 / 22,5675638,2019-11-08 11:31:53:249,-1.3658,2.3574,9.879,0.0308,-0.0087,9.8065,-0.0008,0.2211,-0.152,3.88,-45.06,42.25,3.73,-80.98,177.62
56757,53.74638,-1.631754,219.7,27.8,4,301.13,22 / 22,5675738,2019-11-08 11:31:53:349,-1.6316,-1.1189,9.744,-0.024,-0.0067,9.8066,-0.0091,0.3286,-0.2397,3.5,-45.37,42.56,3.58,-80.67,177.61
56758,53.74638,-1.631754,219.7,27.8,4,301.13,22 / 22,5675839,2019-11-08 11:31:53:450,3.0976,-2.2254,10.456,0.0105,0.0099,9.8066,-0.0423,0.3259,-0.2262,4.0,-44.5,42.06,3.96,-80.63,177.8
56759,53.74638,-1.631754,219.7,27.8,4,301.13,22 / 22,5675939,2019-11-08 11:31:53:550,-0.6387,-0.5251,10.2774,-0.038,-0.0055,9.8065,0.0327,0.2251,-0.1431,4.06,-44.94,42.38,3.41,-81.03,177.36
56760,53.74638,-1.631754,219.7,27.8,4,301.13,22 / 22,5676038,2019-11-08 11:31:53:649,2.5778,-1.3422,8.9726,-0.0096,-0.0378,9.8066,0.1164,0.1065,-0.087,3.56,-45.5,42.5,4.43,-80.76,178.32
56761,53.74638,-1.631754,219.7,27.8,4,301.13,22 / 22,5676138,2019-11-08 11:31:53:749,-0.9369,-0.5332,10.6749,-0.0179,-0.0236,9.8065,0.0164,-0.1104,0.0786,3.69,-45.37,42.25,3.84,-80.61,177.68
56762,53.74638,-1.631754,219.7,27.8,4,301.13,22 / 22,5676239,2019-11-08 11:31:53:850,-2.2559,-0.314,9.1787,-0.025,0.0089,9.8066,-0.0943,-0.2584,0.1535,4.31,-45.0,41.94,5.11,-80.72,178.72
56763,53.74638,-1.631754,219.7,27.8,4,301.13,22 / 22,5676338,2019-11-08 11:31:53:949,0.2956,0.5187,9.4209,0.035,0.0,9.8065,-0.1119,-0.1948,0.1653,4.81,-45.06,42.0,7.2,-80.9,179.11
56764,53.74638,-1.631754,219.7,27.8,4,301.13,22 / 22,5676439,2019-11-08 11:31:54:050,-2.2731,-1.5874,10.6307,-0.0089,-0.0145,9.8066,-0.0943,-0.1673,0.134,4.56,-44.44,42.19,6.21,-80.78,178.31
56765,53.74638,-1.631754,219.7,27.8,4,301.13,22 / 22,5676541,2019-11-08 11:31:54:152,1.7484,0.0004,10.2438,-0.0429,-0.0025,9.8065,-0.0633,0.0382,-0.0288,4.63,-45.06,42.06,7.35,-80.48,179.17
56766,53.74638,-1.631754,219.7,27.8,4,301.13,22 / 22,5676639,2019-11-08 11:31:54:250,-0.9003,1.0296,10.0176,0.0066,0.023,9.8066,-0.0272,0.1708,-0.0146,4.75,-45.0,41.94,7.7,-80.61,179.48
56767,53.74638,-1.631754,219.7,27.8,4,301.13,22 / 22,5676739,2019-11-08 11:31:54:350,1.0975,-0.9553,8.7606,0.0104,-0.0042,9.8066,-0.1126,0.1769,-0.0567,4.69,-44.81,42.5,7.41,-80.49,179.41
56768,53.74638,-1.631754,219.7,27.8,4,301.13,22 / 22,5676839,2019-11-08 11:31:54:450,2.262,1.0333,10.4687,0.0189,0.007,9.8066,-0.0901,0.1924,-0.0836,4.88,-44.81,42.5,5.82,-80.19,178.07
56769,53.74638,-1.631754,219.7,27.8,4,301.13,22 / 22,5676939,2019-11-08 11:31:54:550,-0.3467,-1.8853,10.1746,-0.0359,0.0221,9.8065,-0.0017,0.0025,-0.0128,4.94,-44.81,42.75,4.41,-80.28,176.94
56770,53.74638,-1.631754,219.7,27.8,4,301.13,22 / 22,5677039,2019-11-08 11:31:54:650,2.4925,-0.2352,10.2179,-0.0002,0.0057,9.8066,-0.0162,-0.1203,0.0275,4.38,-44.56,42.5,3.48,-80.56,177.52
56771,53.74638,-1.631754,219.7,27.8,4,301.13,22 / 22,5677139,2019-11-08 11:31:54:750,-0.1515,1.3737,9.2397,-0.0358,-0.0133,9.8065,0.1327,-0.1719,0.1514,4.13,-44.44,43.19,3.11,-80.59,177.24
56772,53.74638,-1.631754,219.7,27.8,4,301.13,22 / 22,5677239,2019-11-08 11:31:54:850,0.0521,0.6617,8.6147,-0.0227,-0.0172,9.8066,0.0999,-0.0899,0.1238,3.75,-44.5,42.13,5.24,-80.35,178.81
56773,53.74638,-1.631754,219.7,27.8,4,301.13,22 / 22,5677339,2019-11-08 11:31:54:950,-0.0662,1.2298,10.8031,0.0075,-0.0106,9.8066,0.1104,0.0353,-0.0505,3.31,-45.0,42.56,4.89,-80.58,-180.0
56774,53.74638,-1.631754,219.7,27.8,4,301.13,22 / 22,5677439,2019-11-08 11:31:55:050,-0.3232,1.5858,9.0538,0.0061,-0.0126,9.8066,0.0257,0.0743,-0.0231,4.75,-45.25,42.38,8.23,-80.59,179.9
56775,53.74726,-1.635308,221.55,28.69,4,286.07,21 / 22,5677539,2019-11-08 11:31:55:150,-0.4002,1.4964,10.4657,0.0039,-0.0048,9.8066,0.0638,0.0356,-0.0658,4.5,-45.0,42.56,7.93,-80.46,179.83
56776,53.74726,-1.635308,221.55,28.69,4,286.07,21 / 22,5677639,2019-11-08 11:31:55:250,-1.2968,1.614,9.5331,0.0117,0.0162,9.8066,0.0644,0.0526,-0.0979,4.0,-45.25,42.69,5.36,-80.58,179.06
56777,53.74726,-1.635308,221.55,28.69,4,286.07,21 / 22,5677739,2019-11-08 11:31:55:350,0.5924,0.3521,10.9592,0.0235,-0.0213,9.8066,0.0504,0.1159,-0.1163,4.44,-45.25,43.25,5.54,-80.63,179.21
56778,53.74726,-1.635308,221.55,28.69,4,286.07,21 / 22,5677838,2019-11-08 11:31:55:449,-0.5847,0.9926,10.5255,-0.0044,0.0134,9.8065,-0.0628,0.1615,-0.0689,4.0,-45.69,42.88,5.05,-80.46,178.77
56779,53.74726,-1.635308,221.55,28.69,4,286.07,21 / 22,5677938,2019-11-08 11:31:55:549,0.7402,1.3625,9.1791,0.0208,0.0214,9.8065,-0.0896,0.1444,-0.09,4.69,-45.12,42.13,6.54,-80.36,178.5
56780,53.74726,-1.635308,221.55,28.69,4,286.07,21 / 22,5678038,2019-11-08 11:31:55:649,-0.1671,0.2468,10.0838,0.0146,0.0203,9.8065,-0.0546,0.011,-0.0532,4.25,-44.94,43.0,3.86,-80.42,177.83
56781,53.74726,-1.635308,221.55,28.69,4,286.07,21 / 22,5678139,2019-11-08 11:31:55:750,0.9469,1.4439,9.0725,-0.0056,0.0107,9.8066,-0.0747,0.0613,0.0324,4.69,-44.75,42.44,4.77,-80.48,177.08
56782,53.74726,-1.635308,221.55,28.69,4,286.07,21 / 22,5678239,2019-11-08 11:31:55:850,0.8044,-0.9631,10.3773,-0.0134,0.0071,9.8066,-0.0798,-0.0509,0.0411,4.19,-44.75,43.06,3.59,-80.53,177.61
56783,53.74726,-1.635308,221.55,28.69,4,286.07,21 / 22,5678339,2019-11-08 11:31:55:950,-0.7384,-0.1623,9.6415,-0.0237,0.0059,9.8066,-0.0423,-0.0386,0.11,4.88,-44.56,42.81,5.53,-80.48,177.87
56784,53.74726,-1.635308,221.55,28.69,4,286.07,21 / 22,5678438,2019-11-08 11:31:56:049,1.1621,0.8124,10.9225,-0.0011,-0.0183,9.8066,-0.0578,-0.0506,0.0968,4.94,-44.5,42.88,5.76,-80.31,178.06
56785,53.74726,-1.635308,221.55,28.69,4,286.07,22 / 22,5678539,2019-11-08 11:31:56:150,0.5965,0.2606,9.581,0.0181,-0.0174,9.8065,0.0132,0.0269,0.0067,4.88,-44.06,42.69,5.09,-80.28,177.51
56786,53.74726,-1.635308,221.55,28.69,4,286.07,22 / 22,5678638,2019-11-08 11:31:56:249,-0.1551,2.3336,9.0957,0.0018,-0.0184,9.8066,-0.0275,0.0256,0.0787,4.38,-44.31,42.69,3.15,-80.34,177.25
56787,53.74726,-1.635308,221.55,28.69,4,286.07,22 / 22,5678738,2019-11-08 11:31:56:349,0.0855,-0.0201,10.8287,0.006,-0.0139,9.8066,0.034,-0.058,0.0644,4.5,-44.44,42.69,3.65,-80.28,176.34
56788,53.74726,-1.635308,221.55,28.69,4,286.07,22 / 22,5678839,2019-11-08 11:31:56:450,1.8561,-0.0822,10.0183,0.0307,-0.0171,9.8065,0.0221,-0.091,0.044,4.56,-44.25,43.06,2.18,-80.2,175.14
56789,53.74726,-1.635308,221.55,28.69,4,286.07,22 / 22,5678938,2019-11-08 11:31:56:549,1.1045,-0.4736,10.5342,-0.0054,-0.0136,9.8065,-0.0113,-0.0215,0.0482,4.38,-44.69,43.5,0.46,-80.31,175.18
56790,53.74726,-1.635308,221.55,28.69,4,286.07,22 / 22,5679038,2019-11-08 11:31:56:649,0.5217,0.2866,9.6041,0.0113,0.0049,9.8066,0.1239,-0.1474,0.0336,4.56,-43.94,44.19,3.05,-80.35,176.02
56791,53.74726,-1.635308,221.55,28.69,4,286.07,22 / 22,5679138,2019-11-08 11:31:56:749,0.4473,0.8029,11.0028,-0.0025,-0.0327,9.8066,0.1624,0.0237,-0.0036,5.13,-44.37,43.38,3.44,-80.26,176.16
56792,53.74726,-1.635308,221.55,28.69,4,286.07,22 / 22,5679238,2019-11-08 11:31:56:849,1.0384,0.0389,10.4938,-0.0097,0.0174,9.8066,-0.0044,0.077,-0.0688,5.06,-44.44,43.56,3.76,-80.04,176.57
56793,53.74726,-1.635308,221.55,28.69,4,286.07,22 / 22,5679338,2019-11-08 11:31:56:949,-0.0228,0.3647,9.038,-0.0053,0.0082,9.8066,0.0626,0.1324,-0.1266,4.06,-44.44,43.75,1.94,-80.03,176.38
56794,53.74726,-1.635308,221.55,28.69,4,286.07,22 / 22,5679438,2019-11-08 11:31:57:049,-1.2572,0.4406,10.0858,-0.0104,0.0056,9.8066,-0.0456,0.2932,-0.1497,4.56,-44.44,43.5,3.25,-80.07,176.16
56795,53.74726,-1.635308,221.55,28.69,4,286.07,20 / 22,5679538,2019-11-08 11:31:57:149,0.451,-0.3021,9.8904,0.023,0.0058,9.8065,-0.0048,0.2112,-0.1784,4.88,-43.25,44.13,2.6,-80.15,175.65
56796,53.74726,-1.635308,221.55,28.69,4,286.07,20 / 22,5679638,2019-11-08 11:31:57:249,0.0119,0.016,10.2721,-0.0009,0.0028,9.8066,0.0745,0.1103,-0.0605,4.88,-42.94,44.06,1.61,-80.17,174.83
56797,53.74726,-1.635308,221.55,28.69,4,286.07,20 / 22,5679738,2019-11-08 11:31:57:349,1.4101,0.5005,8.88,0.01,0.0263,9.8066,-0.0496,0.1068,-0.0431,4.75,-43.12,44.44,1.53,-80.06,174.77
56798,53.74726,-1.635308,221.55,28.69,4,286.07,20 / 22,5679838,2019-11-08 11:31:57:449,-0.4514,0.3568,9.2085,0.0042,-0.0106,9.8066,-0.0753,-0.1348,0.1116,5.44,-42.87,43.81,1.18,-80.18,174.48
56799,53.74726,-1.635308,221.55,28.69,4,286.07,20 / 22,5679938,2019-11-08 11:31:57:549,-0.1563,-0.3413,10.0619,-0.0048,-0.013,9.8066,-0.003,-0.0808,0.1514,4.56,-43.12,44.44,1.43,-80.23,174.69
56800,53.74726,-1.635308,221.55,28.69,4,286.07,20 / 22,5680039,2019-11-08 11:31:57:650,2.3768,0.7696,10.3506,0.0024,-0.018,9.8066,-0.0577,-0.104,0.0621,4.94,-43.25,43.56,1.58,-79.96,174.8
56801,53.74726,-1.635308,221.55,28.69,4,286.07,20 / 22,5680139,2019-11-08 11:31:57:750,-1.9405,1.2181,10.2307,-0.0187,-0.014,9.8066,-0.0958,-0.0717,0.1522,5.0,-43.31,44.38,1.01,-80.04,174.34
56802,53.74726,-1.635308,221.55,28.69,4,286.07,20 / 22,5680238,2019-11-08 11:31:57:849,-0.8417,-0.2689,10.0027,0.0296,0.0014,9.8066,-0.0081,-0.1294,0.1646,5.5,-43.44,44.63,3.58,-80.09,175.35
56803,53.74726,-1.635308,221.55,28.69,4,286.07,20 / 22,5680338,2019-11-08 11:31:57:949,-3.1296,-0.7508,10.2505,-0.0449,-0.0171,9.8065,-0.0284,-0.0025,-0.0066,5.5,-42.62,44.38,3.14,-80.14,174.81
56804,53.74726,-1.635308,221.55,28.69,4,286.07,20 / 22,5680439,2019-11-08 11:31:58:050,1.9692,0.0882,8.5149,-0.0086,0.0118,9.8066,-0.1187,0.3142,-0.1455,5.56,-43.5,44.13,4.14,-80.23,175.63
56805,53.74726,-1.635308,221.55,28.69,4,286.07,19 / 21,5680538,2019-11-08 11:31:58:149,-2.3679,0.4805,10.0362,-0.008,0.0087,9.8066,-0.0705,0.4411,-0.1484,6.5,-43.69,44.31,5.78,-80.48,175.72
56806,53.74726,-1.635308,221.55,28.69,4,286.07,19 / 21,5680638,2019-11-08 11:31:58:249,-1.1348,-0.2128,10.0755,-0.0386,-0.0028,9.8065,0.0255,0.1681,-0.0782,5.5,-42.75,44.69,5.04,-80.51,176.59
56807,53.74726,-1.635308,221.55,28.69,4,286.07,19 / 21,5680738,2019-11-08 11:31:58:349,4.267,0.4578,9.5757,-0.0456,-0.0035,9.8065,0.0894,0.0313,0.0407,6.0,-42.69,45.06,5.25,-80.37,176.75
56808,53.74726,-1.635308,221.55,28.69,4,286.07,19 / 21,5680839,2019-11-08 11:31:58:450,-0.1828,-2.3023,10.4328,-0.02,0.0309,9.8065,0.0609,-0.1383,0.1308,5.69,-42.19,45.06,4.02,-80.4,175.75
56809,53.74726,-1.635308,221.55,28.69,4,286.07,19 / 21,5680939,2019-11-08 11:31:58:550,3.2657,0.0775,8.9407,0.0298,0.0102,9.8065,0.0498,-0.2785,0.1488,6.38,-42.06,45.19,5.8,-80.65,177.26
56810,53.74726,-1.635308,221.55,28.69,4,286.07,19 / 21,5681038,2019-11-08 11:31:58:649,0.6582,1.2945,9.7234,0.0196,0.0073,9.8066,0.1117,-0.1573,0.1223,6.0,-41.94,45.63,5.2,-80.56,176.93
56811,53.74726,-1.635308,221.55,28.69,4,286.07,19 / 21,5681139,2019-11-08 11:31:58:750,-0.1851,-0.0883,9.2723,-0.0268,0.0212,9.8065,0.0639,-0.018,-0.0862,4.69,-41.37,45.94,3.3,-80.43,176.56
56812,53.74726,-1.635308,221.55,28.69,4,286.07,19 / 21,5681238,2019-11-08 11:31:58:849,1.0661,0.6104,10.2693,0.0016,-0.0099,9.8066,0.057,0.1421,-0.1139,5.31,-42.0,44.19,4.33,-80.55,177.12
56813,53.74726,-1.635308,221.55,28.69,4,286.07,19 / 21,5681338,2019-11-08 11:31:58:949,-0.2721,0.9874,10.3941,0.0141,-0.0077,9.8066,-0.0282,0.1001,-0.0528,5.19,-42.37,44.94,4.0,-80.61,177.01
56814,53.74726,-1.635308,221.55,28.69,4,286.07,19 / 21,5681438,2019-11-08 11:31:59:049,0.4999,-1.5249,10.5385,-0.0019,-0.023,9.8065,-0.0784,0.0869,-0.0501,6.31,-42.19,44.88,5.36,-80.29,176.85
56815,53.74726,-1.635308,221.55,28.69,4,286.07,20 / 21,5681539,2019-11-08 11:31:59:150,-0.4083,1.0776,9.0418,-0.0118,0.0094,9.8065,-0.036,0.038,-0.038,5.75,-43.12,44.44,5.8,-80.18,176.99
56816,53.74726,-1.635308,221.55,28.69,4,286.07,20 / 21,5681639,2019-11-08 11:31:59:250,-0.6596,0.695,9.257,0.0192,0.0125,9.8066,-0.0573,-0.019,-0.0025,5.0,-41.87,44.5,4.03,-80.49,177.02
56817,53.74726,-1.635308,221.55,28.69,4,286.07,20 / 21,5681739,2019-11-08 11:31:59:350,2.152,-0.7947,10.7366,0.0294,-0.031,9.8065,-0.0751,0.0003,0.099,6.19,-42.06,43.88,5.85,-80.7,177.12
56818,53.74726,-1.635308,221.55,28.69,4,286.07,20 / 21,5681838,2019-11-08 11:31:59:449,0.6671,0.4835,9.5245,0.0087,-0.0016,9.8066,0.0066,-0.0549,0.0765,5.94,-41.56,43.63,5.26,-80.44,176.6
56819,53.74726,-1.635308,221.55,28.69,4,286.07,20 / 21,5681938,2019-11-08 11:31:59:549,2.1117,0.6845,8.9522,0.0076,0.0191,9.8065,0.0089,0.0059,0.0919,5.56,-42.37,43.81,6.2,-80.3,177.36
56820,53.74726,-1.635308,221.55,28.69,4,286.07,20 / 21,5682038,2019-11-08 11:31:59:649,0.5991,0.3815,9.6579,-0.0066,0.0232,9.8066,-0.0597,0.0732,0.049,5.81,-42.5,43.56,7.35,-80.52,178.34
56821,53.74726,-1.635308,221.55,28.69,4,286.07,20 / 21,5682139,2019-11-08 11:31:59:750,0.6678,1.1225,8.6192,0.0017,0.0403,9.8065,0.0668,0.1449,-0.04,5.75,-40.94,42.69,7.35,-80.37,178.15
56822,53.74726,-1.635308,221.55,28.69,4,286.07,20 / 21,5682239,2019-11-08 11:31:59:850,4.2922,-0.5068,11.0499,-0.0201,0.0658,9.8063,-0.074,0.381,-0.1522,5.94,-41.94,43.5,6.87,-80.43,177.93
56823,53.74726,-1.635308,221.55,28.69,4,286.07,20 / 21,5682338,2019-11-08 11:31:59:949,-4.0769,1.5508,10.4681,-0.0727,0.0189,9.8063,0.224,0.0282,-0.0182,5.94,-41.69,43.44,6.69,-80.2,177.55
56824,53.74726,-1.635308,221.55,28.69,4,286.07,20 / 21,5682439,2019-11-08 11:32:00:050,-1.2519,0.6005,12.1205,-0.0503,-0.0268,9.8064,0.2059,-0.1959,0.0177,6.75,-41.19,43.0,8.94,-80.21,178.14
56825,53.74726,-1.635308,221.55,28.69,4,286.07,21 / 23,5682541,2019-11-08 11:32:00:152,-0.7913,1.0883,10.7801,-0.0041,0.028,9.8065,0.1632,-0.073,0.0499,7.56,-40.81,43.25,11.63,-79.8,179.0
56826,53.74726,-1.635308,221.55,28.69,4,286.07,21 / 23,5682638,2019-11-08 11:32:00:249,0.5925,-2.2921,8.9155,-0.0074,-0.0167,9.8066,0.0595,-0.2164,0.0112,4.94,-39.81,45.94,6.28,-79.99,179.04
56827,53.74726,-1.635308,221.55,28.69,4,286.07,21 / 23,5682738,2019-11-08 11:32:00:349,5.117,2.1226,9.3973,0.0502,0.0248,9.8065,0.1626,-0.0643,-0.0855,3.0,-34.75,49.44,2.7,-80.15,178.83
56828,53.74726,-1.635308,221.55,28.69,4,286.07,21 / 23,5682838,2019-11-08 11:32:00:449,0.985,0.3931,10.3403,0.0641,-0.0274,9.8063,0.0676,0.2784,-0.2107,3.94,-30.81,46.81,4.64,-80.34,179.2
56829,53.74726,-1.635308,221.55,28.69,4,286.07,21 / 23,5682938,2019-11-08 11:32:00:549,4.1434,1.1926,10.4761,0.0126,0.0136,9.8065,-0.0571,0.4119,-0.2216,5.13,-30.81,44.44,4.86,-80.18,177.73
56830,53.74726,-1.635308,221.55,28.69,4,286.07,21 / 23,5683038,2019-11-08 11:32:00:649,-0.3448,0.919,9.7609,0.0361,-0.0085,9.8065,-0.1119,0.3667,-0.1886,5.31,-31.44,42.38,4.54,-79.96,177.1
56831,53.74726,-1.635308,221.55,28.69,4,286.07,21 / 23,5683138,2019-11-08 11:32:00:749,-0.5818,-1.3851,10.5775,-0.0044,0.01,9.8066,-0.0557,0.161,0.0013,5.5,-33.0,41.81,7.7,-80.01,178.42
56832,53.74726,-1.635308,221.55,28.69,4,286.07,21 / 23,5683239,2019-11-08 11:32:00:850,1.8555,-1.4232,9.4875,-0.0157,0.0378,9.8065,-0.0922,0.1027,0.0304,5.06,-36.06,40.88,6.62,-80.12,178.58
56833,53.74726,-1.635308,221.55,28.69,4,286.07,21 / 23,5683338,2019-11-08 11:32:00:949,-1.3757,2.0977,9.7703,-0.0172,0.0179,9.8065,0.0309,-0.2639,0.0856,3.13,-39.87,43.31,4.24,-80.23,179.52
56834,53.74726,-1.635308,221.55,28.69,4,286.07,21 / 23,5683438,2019-11-08 11:32:01:049,-2.7621,-0.7899,11.4918,-0.0054,-0.0105,9.8066,-0.0311,0.1735,0.0358,1.31,-36.81,48.63,1.7,-80.11,-179.71
56835,53.74726,-1.635308,221.55,28.69,4,286.07,22 / 24,5683539,2019-11-08 11:32:01:150,-2.7021,-2.3166,10.824,0.0114,-0.0084,9.8066,-0.2151,0.5974,-0.3417,1.06,-32.81,49.63,1.39,-80.05,-179.94
56836,53.74726,-1.635308,221.55,28.69,4,286.07,22 / 24,5683638,2019-11-08 11:32:01:249,-5.6523,-0.683,10.3787,-0.0275,-0.0205,9.8065,-0.1012,0.4825,-0.2959,1.75,-31.44,49.31,2.51,-80.25,179.87
56837,53.74726,-1.635308,221.55,28.69,4,286.07,22 / 24,5683738,2019-11-08 11:32:01:349,1.8989,-1.8176,11.4556,-0.0415,-0.0105,9.8065,0.187,0.1491,-0.1504,1.81,-28.94,46.94,358.39,-80.37,176.14
56838,53.74726,-1.635308,221.55,28.69,4,286.07,22 / 24,5683838,2019-11-08 11:32:01:449,2.7219,-1.7302,8.0191,0.0532,-0.0418,9.8063,0.0603,-0.0276,-0.2179,1.0,-30.69,44.69,356.38,-80.26,175.58
56839,53.74726,-1.635308,221.55,28.69,4,286.07,22 / 24,5683938,2019-11-08 11:32:01:549,-1.8858,0.4955,10.2512,-0.0486,-0.0388,9.8064,0.076,-0.225,0.201,-0.25,-32.25,45.31,356.68,-80.29,177.13
56840,53.74726,-1.635308,221.55,28.69,4,286.07,22 / 24,5684038,2019-11-08 11:32:01:649,0.6025,0.3828,9.9435,0.0043,0.0389,9.8065,0.0908,-0.2789,0.2192,-1.44,-32.56,43.94,357.13,-80.07,178.85
56841,53.74726,-1.635308,221.55,28.69,4,286.07,22 / 24,5684139,2019-11-08 11:32:01:750,2.3601,-0.2874,10.2932,0.0174,0.0125,9.8066,-0.0434,-0.1999,0.065,-1.94,-42.94,46.19,358.22,-80.55,-178.99
56842,53.74726,-1.635308,221.55,28.69,4,286.07,22 / 24,5684238,2019-11-08 11:32:01:849,2.3979,1.0947,11.2026,-0.0307,-0.0184,9.8066,0.038,-0.0562,0.0944,2.44,-41.37,47.38,2.15,-80.41,179.37
56843,53.74726,-1.635308,221.55,28.69,4,286.07,22 / 24,5684338,2019-11-08 11:32:01:949,2.5965,-0.6313,9.3737,0.0204,0.0106,9.8066,-0.1009,0.0802,-0.0461,3.44,-42.31,48.44,1.74,-80.07,177.88
56844,53.74726,-1.635308,221.55,28.69,4,286.07,22 / 24,5684438,2019-11-08 11:32:02:049,-3.5886,1.0219,11.4569,-0.0401,0.003,9.8065,-0.0623,0.3767,-0.1029,3.75,-42.81,48.25,2.5,-79.96,177.31
56845,53.74726,-1.635308,221.55,28.69,4,286.07,21 / 22,5684538,2019-11-08 11:32:02:149,2.6174,-1.4253,9.845,0.0285,0.0087,9.8065,-0.0345,0.3791,-0.195,4.94,-42.94,47.31,6.08,-79.9,178.95
56846,53.74726,-1.635308,221.55,28.69,4,286.07,21 / 22,5684638,2019-11-08 11:32:02:249,-2.6785,-0.2312,9.0551,0.0343,0.0136,9.8065,-0.0575,0.3618,-0.1832,5.06,-43.25,47.31,5.52,-80.14,178.51
56847,53.74726,-1.635308,221.55,28.69,4,286.07,21 / 22,5684739,2019-11-08 11:32:02:350,2.9429,-0.6466,10.1772,0.029,-0.0153,9.8066,-0.0304,0.3526,-0.1719,4.69,-43.62,47.0,7.25,-80.14,179.92
56848,53.74726,-1.635308,221.55,28.69,4,286.07,21 / 22,5684838,2019-11-08 11:32:02:449,2.3044,2.3725,9.1866,0.0548,-0.0165,9.8065,0.0794,0.1364,-0.0933,4.88,-43.62,47.31,5.69,-79.84,178.6
56849,53.74726,-1.635308,221.55,28.69,4,286.07,21 / 22,5684939,2019-11-08 11:32:02:550,2.662,0.6585,10.1685,0.0169,-0.0116,9.8066,0.0997,0.0883,-0.1082,4.63,-43.37,47.19,8.21,-79.7,-179.33
56850,53.74726,-1.635308,221.55,28.69,4,286.07,21 / 22,5685038,2019-11-08 11:32:02:649,-0.2012,2.0411,10.2166,0.026,0.031,9.8065,-0.0358,-0.135,0.1146,4.69,-43.81,47.63,7.61,-79.85,-179.67
56851,53.74726,-1.635308,221.55,28.69,4,286.07,21 / 22,5685139,2019-11-08 11:32:02:750,-4.1722,-2.5751,11.0522,-0.0226,0.0016,9.8066,0.0732,-0.4692,0.1469,4.81,-43.75,47.56,8.06,-80.13,-179.26
56852,53.74726,-1.635308,221.55,28.69,4,286.07,21 / 22,5685238,2019-11-08 11:32:02:849,4.2277,-0.3342,9.4532,-0.0181,0.0057,9.8065,0.0841,-0.4201,0.2663,4.44,-43.69,47.69,6.59,-80.23,-179.29
56853,53.74726,-1.635308,221.55,28.69,4,286.07,21 / 22,5685338,2019-11-08 11:32:02:949,-3.8566,-2.0143,9.6214,-0.0555,-0.015,9.8065,-0.0308,-0.1941,0.2243,5.31,-44.0,47.0,5.96,-80.09,178.85
56854,53.74726,-1.635308,221.55,28.69,4,286.07,21 / 22,5685438,2019-11-08 11:32:03:049,-1.947,1.1797,10.3667,-0.0317,-0.0227,9.8065,-0.1396,0.1878,-0.1405,5.0,-44.19,47.38,5.74,-79.97,178.65
56855,53.74726,-1.635308,221.55,28.69,4,286.07,21 / 21,5685540,2019-11-08 11:32:03:151,-1.5572,-0.9738,10.5374,0.0147,0.0002,9.8066,0.0001,0.3056,-0.1655,5.88,-43.94,46.75,7.07,-79.96,178.55
56856,53.74726,-1.635308,221.55,28.69,4,286.07,21 / 21,5685639,2019-11-08 11:32:03:250,-2.1961,2.3444,10.1995,-0.0034,0.0172,9.8066,0.0101,0.3983,-0.2164,6.25,-44.12,47.19,6.29,-80.16,177.92
56857,53.74726,-1.635308,221.55,28.69,4,286.07,21 / 21,5685739,2019-11-08 11:32:03:350,3.5286,-0.5917,10.2356,0.0409,-0.017,9.8065,0.0146,0.3468,-0.1998,6.0,-44.5,46.94,7.24,-80.21,178.72
56858,53.74726,-1.635308,221.55,28.69,4,286.07,21 / 21,5685839,2019-11-08 11:32:03:450,-2.6067,1.4394,10.3707,0.0104,-0.0024,9.8065,0.0268,0.0693,-0.0555,5.69,-43.81,47.13,7.44,-80.0,178.85
56859,53.74726,-1.635308,221.55,28.69,4,286.07,21 / 21,5685938,2019-11-08 11:32:03:549,2.4569,-2.0876,9.3632,0.0261,-0.0155,9.8066,0.1008,0.02,-0.0423,5.19,-43.94,46.94,8.52,-79.76,-179.09
56860,53.74726,-1.635308,221.55,28.69,4,286.07,21 / 21,5686038,2019-11-08 11:32:03:649,1.087,0.9642,9.3625,0.0205,0.0238,9.8066,0.0514,-0.1593,0.0583,5.75,-44.12,47.63,9.44,-79.52,-179.4
56861,53.74726,-1.635308,221.55,28.69,4,286.07,21 / 21,5686139,2019-11-08 11:32:03:750,1.084,-1.4119,9.409,-0.0049,0.037,9.8065,-0.0496,-0.2928,0.0957,5.44,-44.06,47.5,5.86,-79.77,178.87
56862,53.74726,-1.635308,221.55,28.69,4,286.07,21 / 21,5686239,2019-11-08 11:32:03:850,4.0342,0.5802,9.1399,0.0236,0.0132,9.8065,-0.0233,-0.2726,0.1493,5.5,-44.56,47.44,5.84,-80.21,177.54
56863,53.74726,-1.635308,221.55,28.69,4,286.07,21 / 21,5686338,2019-11-08 11:32:03:949,-3.085,-0.889,9.7817,-0.0538,0.0072,9.8064,-0.0167,-0.1402,0.14,5.25,-44.56,46.88,3.23,-80.57,176.61
56864,53.74726,-1.635308,221.55,28.69,4,286.07,21 / 21,5686438,2019-11-08 11:32:04:049,2.6851,-0.3422,10.0807,-0.01,-0.0165,9.8065,0.0087,0.0034,0.0735,5.75,-43.75,48.0,4.87,-80.68,176.96
56865,53.747597,-1.639227,223.14,29.79,6,271.1,22 / 23,5686538,2019-11-08 11:32:04:149,-0.9923,-0.6256,10.6114,0.0156,-0.0173,9.8066,0.0206,0.2508,-0.0716,6.13,-44.0,47.94,6.03,-80.26,177.9
56866,53.747597,-1.639227,223.14,29.79,6,271.1,22 / 23,5686638,2019-11-08 11:32:04:249,1.2546,-1.7217,10.6536,0.0058,-0.0167,9.8066,0.0051,0.2742,-0.1033,5.06,-43.37,48.19,5.09,-80.11,178.29
56867,53.747597,-1.639227,223.14,29.79,6,271.1,22 / 23,5686739,2019-11-08 11:32:04:350,2.325,-0.7227,9.7273,0.0299,0.0017,9.8065,0.0359,0.2722,-0.0917,5.44,-43.62,47.75,5.92,-79.86,178.93
56868,53.747597,-1.639227,223.14,29.79,6,271.1,22 / 23,5686839,2019-11-08 11:32:04:450,-1.8016,-0.2916,9.9553,-0.0289,0.0307,9.8065,0.0365,0.1104,-0.143,5.75,-44.12,47.56,7.63,-80.07,179.2
56869,53.747597,-1.639227,223.14,29.79,6,271.1,22 / 23,5686939,2019-11-08 11:32:04:550,1.0467,0.4037,7.6246,0.0165,0.0455,9.8065,0.0244,0.0964,-0.1089,5.63,-44.56,47.81,7.11,-80.24,178.77
56870,53.747597,-1.639227,223.14,29.79,6,271.1,22 / 23,5687039,2019-11-08 11:32:04:650,1.0873,2.3164,10.0429,0.0041,0.0376,9.8065,-0.0155,-0.0749,0.0102,5.88,-44.37,47.75,6.23,-80.73,178.11
56871,53.747597,-1.639227,223.14,29.79,6,271.1,22 / 23,5687138,2019-11-08 11:32:04:749,-0.8978,0.1306,9.373,0.0234,0.0001,9.8066,0.0195,0.0904,-0.093,5.69,-43.87,47.63,5.74,-80.88,177.72
56872,53.747597,-1.639227,223.14,29.79,6,271.1,22 / 23,5687238,2019-11-08 11:32:04:849,1.5708,2.263,10.1744,-0.0025,-0.0351,9.8065,-0.0041,0.1749,-0.0214,5.88,-44.25,47.69,6.78,-80.96,178.6
56873,53.747597,-1.639227,223.14,29.79,6,271.1,22 / 23,5687338,2019-11-08 11:32:04:949,0.437,-0.1481,10.9225,-0.0028,-0.0221,9.8066,-0.0248,0.1597,0.0028,5.69,-44.12,47.63,7.81,-80.58,179.42
56874,53.747597,-1.639227,223.14,29.79,6,271.1,22 / 23,5687439,2019-11-08 11:32:05:050,-1.9342,1.2043,9.6323,-0.0059,-0.0021,9.8066,-0.0445,0.0113,0.0473,5.88,-44.19,48.38,8.04,-80.39,179.58
56875,53.747597,-1.639227,223.14,29.79,6,271.1,21 / 23,5687539,2019-11-08 11:32:05:150,1.5322,-0.5747,8.8617,0.0285,0.004,9.8066,-0.0285,-0.0941,0.1435,6.06,-44.81,48.75,8.12,-80.48,179.81
56876,53.747597,-1.639227,223.14,29.79,6,271.1,21 / 23,5687638,2019-11-08 11:32:05:249,-2.2804,0.4605,10.6738,0.0034,0.0078,9.8066,0.062,-0.2091,0.1241,4.75,-44.5,48.94,6.98,-80.58,-179.96
56877,53.747597,-1.639227,223.14,29.79,6,271.1,21 / 23,5687739,2019-11-08 11:32:05:350,0.2622,-1.446,10.3597,0.0122,0.0209,9.8065,0.0894,-0.0347,0.0175,5.63,-44.44,48.75,7.88,-80.59,179.65
56878,53.747597,-1.639227,223.14,29.79,6,271.1,21 / 23,5687839,2019-11-08 11:32:05:450,2.8775,-0.5596,9.7039,-0.0363,-0.0112,9.8065,0.1286,0.2099,-0.2004,4.25,-44.0,49.38,3.81,-80.55,178.53
56879,53.747597,-1.639227,223.14,29.79,6,271.1,21 / 23,5687939,2019-11-08 11:32:05:550,-1.4007,0.3844,10.6594,-0.0405,0.0032,9.8065,-0.0495,0.1768,-0.1205,4.69,-43.94,47.81,5.79,-80.46,178.89
56880,53.747597,-1.639227,223.14,29.79,6,271.1,21 / 23,5688038,2019-11-08 11:32:05:649,-0.4564,-0.7547,10.389,-0.0083,-0.0062,9.8066,0.0028,0.1652,-0.0045,5.5,-45.31,48.44,9.0,-80.51,-179.62
56881,53.747597,-1.639227,223.14,29.79,6,271.1,21 / 23,5688139,2019-11-08 11:32:05:750,0.1926,-0.6934,10.2605,-0.0016,-0.002,9.8066,-0.0759,-0.156,0.0334,5.31,-43.94,48.75,7.87,-80.68,-179.19
56882,53.747597,-1.639227,223.14,29.79,6,271.1,21 / 23,5688239,2019-11-08 11:32:05:850,-2.3165,-0.0498,9.7794,0.0226,0.0002,9.8066,-0.0307,-0.1485,0.1795,5.38,-44.62,48.19,7.74,-80.72,-179.47
56883,53.747597,-1.639227,223.14,29.79,6,271.1,21 / 23,5688338,2019-11-08 11:32:05:949,1.9259,-0.6186,10.0436,0.0366,-0.0027,9.8065,-0.0502,-0.1715,0.1478,5.19,-44.94,48.0,8.24,-80.73,-179.05
56884,53.747597,-1.639227,223.14,29.79,6,271.1,21 / 23,5688438,2019-11-08 11:32:06:049,-1.1708,0.3635,9.1011,0.0077,0.018,9.8066,-0.043,-0.2225,0.1397,5.31,-44.19,48.5,6.86,-80.74,179.96
56885,53.747597,-1.639227,223.14,29.79,6,271.1,22 / 23,5688538,2019-11-08 11:32:06:149,-0.2254,0.7318,10.6467,0.0362,0.0111,9.8065,0.035,-0.0759,0.1255,4.88,-43.81,49.19,7.46,-80.75,-179.53
56886,53.747597,-1.639227,223.14,29.79,6,271.1,22 / 23,5688638,2019-11-08 11:32:06:249,-0.8726,-0.8753,10.8116,0.0013,0.0039,9.8066,0.0449,0.0039,0.0104,4.88,-44.12,49.06,6.43,-80.77,179.6
56887,53.747597,-1.639227,223.14,29.79,6,271.1,22 / 23,5688738,2019-11-08 11:32:06:349,-1.8401,-0.6793,9.9221,0.0199,-0.0242,9.8065,0.0789,0.3959,-0.2066,5.56,-43.44,49.56,6.76,-80.56,178.88
56888,53.747597,-1.639227,223.14,29.79,6,271.1,22 / 23,5688838,2019-11-08 11:32:06:449,1.3223,0.9552,8.9403,0.0174,-0.033,9.8065,0.0501,0.3342,-0.2767,4.75,-44.12,49.75,6.46,-80.52,179.73
56889,53.747597,-1.639227,223.14,29.79,6,271.1,22 / 23,5688938,2019-11-08 11:32:06:549,-0.7123,-0.6051,10.1777,-0.0185,-0.0009,9.8066,-0.0272,0.1216,-0.0821,5.06,-44.0,49.75,5.15,-80.4,178.62
56890,53.747597,-1.639227,223.14,29.79,6,271.1,22 / 23,5689038,2019-11-08 11:32:06:649,0.3306,-0.5921,9.6606,0.0017,-0.004,9.8066,-0.0439,0.0327,-0.0147,4.88,-43.75,49.63,5.73,-80.56,179.12
56891,53.747597,-1.639227,223.14,29.79,6,271.1,22 / 23,5689139,2019-11-08 11:32:06:750,0.1229,-0.9084,9.4504,0.0025,0.015,9.8066,-0.0198,-0.0069,-0.0163,5.13,-43.75,49.69,5.67,-80.65,179.08
56892,53.747597,-1.639227,223.14,29.79,6,271.1,22 / 23,5689239,2019-11-08 11:32:06:850,2.8487,-2.0683,10.3754,-0.0113,0.0153,9.8066,-0.0283,-0.1413,0.1226,6.38,-43.69,49.94,6.81,-81.0,178.95
56893,53.747597,-1.639227,223.14,29.79,6,271.1,22 / 23,5689338,2019-11-08 11:32:06:949,1.5618,1.2123,9.0644,0.0072,0.0305,9.8066,0.0874,-0.3252,0.1874,5.94,-43.62,49.63,6.59,-81.06,178.78
56894,53.747597,-1.639227,223.14,29.79,6,271.1,22 / 23,5689438,2019-11-08 11:32:07:049,-1.6344,0.617,10.3999,-0.0095,-0.0012,9.8066,0.0962,-0.1317,0.0999,6.44,-42.81,48.81,5.83,-81.18,178.01
56895,53.747597,-1.639227,223.14,29.79,6,271.1,22 / 23,5689538,2019-11-08 11:32:07:149,2.9104,0.991,10.9735,0.0178,-0.0297,9.8066,0.0783,0.19,-0.0833,6.81,-44.06,49.25,6.82,-80.97,177.66
56896,53.747597,-1.639227,223.14,29.79,6,271.1,22 / 23,5689638,2019-11-08 11:32:07:249,0.0544,-1.1905,10.2366,0.0217,-0.0292,9.8066,0.0019,0.2504,-0.1727,5.5,-42.94,49.69,4.19,-80.64,176.71
56897,53.747597,-1.639227,223.14,29.79,6,271.1,22 / 23,5689739,2019-11-08 11:32:07:350,-2.567,1.8977,10.53,-0.0119,-0.008,9.8065,0.0131,0.4595,-0.3033,6.13,-43.75,49.81,5.12,-80.39,177.46
56898,53.747597,-1.639227,223.14,29.79,6,271.1,22 / 23,5689839,2019-11-08 11:32:07:450,-1.2856,1.0552,9.8992,0.0365,0.0032,9.8066,-0.0638,0.412,-0.2352,5.19,-42.56,49.94,3.7,-80.31,177.4
56899,53.747597,-1.639227,223.14,29.79,6,271.1,22 / 23,5689939,2019-11-08 11:32:07:550,0.3635,1.2547,10.3356,0.0013,0.0007,9.8066,-0.0428,0.2083,-0.166,5.19,-42.81,49.69,4.93,-80.54,178.46
56900,53.747597,-1.639227,223.14,29.79,6,271.1,22 / 23,5690038,2019-11-08 11:32:07:649,1.2365,-1.0141,8.3014,0.0101,0.0298,9.8065,0.0468,0.1875,-0.0831,4.88,-42.44,50.25,5.84,-80.73,179.27
56901,53.747597,-1.639227,223.14,29.79,6,271.1,22 / 23,5690139,2019-11-08 11:32:07:750,0.2623,-0.2642,9.4807,-0.0121,0.0057,9.8066,-0.048,0.0119,0.0387,5.94,-42.69,48.88,7.44,-81.16,179.38
56902,53.747597,-1.639227,223.14,29.79,6,271.1,22 / 23,5690239,2019-11-08 11:32:07:850,3.3626,-0.0325,10.0992,-0.0157,-0.0001,9.8066,-0.0742,-0.1138,0.1289,5.88,-42.56,49.25,8.25,-81.21,-179.92
56903,53.747597,-1.639227,223.14,29.79,6,271.1,22 / 23,5690339,2019-11-08 11:32:07:950,0.1406,2.2254,9.4592,-0.0403,-0.0146,9.8065,0.0468,-0.2907,0.2193,5.75,-42.69,49.94,6.75,-81.0,178.92
56904,53.747597,-1.639227,223.14,29.79,6,271.1,22 / 23,5690439,2019-11-08 11:32:08:050,2.3773,2.4033,8.834,-0.0285,-0.0369,9.8065,0.1007,-0.1607,0.2178,6.13,-42.37,50.75,7.01,-80.53,179.26
56905,53.747597,-1.639227,223.14,29.79,6,271.1,21 / 24,5690539,2019-11-08 11:32:08:150,0.8739,0.5592,10.9242,-0.0048,0.0034,9.8066,0.0865,0.0391,-0.0591,6.44,-42.75,50.44,6.84,-80.74,178.97
56906,53.747597,-1.639227,223.14,29.79,6,271.1,21 / 24,5690639,2019-11-08 11:32:08:250,1.0612,0.1522,8.9623,0.023,-0.0057,9.8066,0.1196,0.063,-0.1808,5.19,-41.75,51.19,6.56,-81.08,-179.95
56907,53.747597,-1.639227,223.14,29.79,6,271.1,21 / 24,5690738,2019-11-08 11:32:08:349,0.5417,-0.3569,9.3684,0.0074,-0.0207,9.8066,0.0914,0.087,-0.084,6.44,-41.94,50.31,8.43,-81.21,-179.58
56908,53.747597,-1.639227,223.14,29.79,6,271.1,21 / 24,5690838,2019-11-08 11:32:08:449,-1.576,0.2552,10.4722,-0.0058,0.0009,9.8066,-0.0428,0.0863,-0.1027,5.63,-41.5,50.88,8.98,-81.1,-178.94
56909,53.747597,-1.639227,223.14,29.79,6,271.1,21 / 24,5690938,2019-11-08 11:32:08:549,3.0228,3.0276,9.6898,0.0259,-0.0139,9.8065,-0.0687,0.1674,-0.0829,6.38,-41.0,50.31,9.33,-80.69,-178.86
56910,53.747597,-1.639227,223.14,29.79,6,271.1,21 / 24,5691039,2019-11-08 11:32:08:650,0.0204,1.625,10.1314,-0.0035,-0.0019,9.8066,0.0079,0.2083,-0.1249,5.63,-41.19,51.06,8.26,-80.4,-179.66
56911,53.747597,-1.639227,223.14,29.79,6,271.1,21 / 24,5691138,2019-11-08 11:32:08:749,1.7113,0.8056,9.2267,-0.0246,-0.0052,9.8065,-0.0351,0.1586,-0.0905,6.06,-40.31,50.25,8.39,-80.34,-179.68
56912,53.747597,-1.639227,223.14,29.79,6,271.1,21 / 24,5691238,2019-11-08 11:32:08:849,-0.0346,-1.2199,10.0307,-0.0028,0.0113,9.8066,-0.0616,0.1328,-0.0262,6.19,-41.62,50.69,8.1,-80.56,-179.8
56913,53.747597,-1.639227,223.14,29.79,6,271.1,21 / 24,5691338,2019-11-08 11:32:08:949,2.1631,0.4045,9.7246,0.0024,-0.011,9.8066,-0.0087,0.1094,0.0046,6.88,-41.44,50.81,9.13,-80.65,-179.98
56914,53.747597,-1.639227,223.14,29.79,6,271.1,21 / 24,5691439,2019-11-08 11:32:09:050,0.4905,-0.7204,9.8769,0.0304,-0.0153,9.8065,0.0483,-0.1276,0.0586,7.44,-41.37,50.31,8.31,-80.34,179.09
56915,53.747597,-1.639227,223.14,29.79,6,271.1,20 / 23,5691538,2019-11-08 11:32:09:149,-1.5101,-1.4322,10.0322,0.0338,-0.0239,9.8065,-0.0212,-0.1362,0.157,7.0,-42.06,50.13,8.29,-80.03,179.0
56916,53.747597,-1.639227,223.14,29.79,6,271.1,20 / 23,5691639,2019-11-08 11:32:09:250,2.6788,-1.9458,9.9218,0.0337,-0.0051,9.8065,0.0067,-0.1225,0.1216,6.88,-41.94,50.19,7.34,-79.97,178.2
56917,53.747597,-1.639227,223.14,29.79,6,271.1,20 / 23,5691739,2019-11-08 11:32:09:350,0.0951,-1.8978,9.9253,-0.0031,0.0106,9.8066,-0.001,-0.158,0.0212,6.38,-41.81,50.38,6.87,-80.22,178.96
56918,53.747597,-1.639227,223.14,29.79,6,271.1,20 / 23,5691839,2019-11-08 11:32:09:450,1.3248,-0.6007,9.138,-0.0235,-0.0034,9.8066,0.1016,0.09,-0.0587,6.44,-42.81,50.0,7.15,-80.4,179.19
56919,53.747597,-1.639227,223.14,29.79,6,271.1,20 / 23,5691939,2019-11-08 11:32:09:550,2.5468,2.9002,9.8884,0.0059,-0.0247,9.8065,0.0412,0.1947,-0.1397,6.88,-42.69,49.94,9.59,-80.11,-179.91
56920,53.747597,-1.639227,223.14,29.79,6,271.1,20 / 23,5692039,2019-11-08 11:32:09:650,2.2736,1.8016,9.8758,-0.0283,-0.0214,9.8065,-0.0944,0.3127,-0.1955,6.19,-42.31,50.69,7.99,-79.72,179.99
56921,53.747597,-1.639227,223.14,29.79,6,271.1,20 / 23,5692139,2019-11-08 11:32:09:750,1.9651,-0.7481,9.7112,0.0131,0.0124,9.8066,-0.0335,0.3433,-0.1521,6.5,-42.12,50.25,8.8,-79.59,179.37
56922,53.747597,-1.639227,223.14,29.79,6,271.1,20 / 23,5692239,2019-11-08 11:32:09:850,-0.8842,-2.275,9.3008,-0.0028,0.0427,9.8065,0.0294,0.0935,-0.0595,6.19,-42.44,50.63,7.83,-80.01,179.9
56923,53.747597,-1.639227,223.14,29.79,6,271.1,20 / 23,5692339,2019-11-08 11:32:09:950,2.1328,-0.1097,9.4552,-0.0105,0.0341,9.8065,0.0326,-0.1625,0.0629,5.94,-43.56,50.56,8.51,-80.32,-179.54
56924,53.747597,-1.639227,223.14,29.79,6,271.1,20 / 23,5692439,2019-11-08 11:32:10:050,1.2779,-0.0401,9.8336,0.0522,-0.0332,9.8064,0.0202,-0.1048,0.1092,6.31,-42.5,50.63,7.84,-80.38,179.95
