,GPS LATITUDE (degrees), GPS LONGITUDE (degrees), GPS ALTITUDE (m), GPS SPEED (Kmh), GPS ACCURACY (m), GPS ORIENTATION (Â°),GPS SATELLITES IN RANGE, TIME SINCE START (ms), DATE (YYYY-MO-DD HH-MI-SS_SSS), ACCELEROMETER X (m/s²) , ACCELEROMETER Y (m/s²), ACCELEROMETER Z (m/s²), GRAVITY X (m/s²), GRAVITY Y (m/s²), GRAVITY Z (m/s²), GYROSCOPE Yaw (rad/s), GYROSCOPE Pitch (rad/s), GYROSCOPE Roll (rad/s), MAGNETIC FIELD X (Î¼T), MAGNETIC FIELD Y (Î¼T), MAGNETIC FIELD Z (Î¼T), ORIENTATION (Yaw) (Â°), ORIENTATION (Pitch) (Â°), ORIENTATION (Roll ) (Â°)
83041,52.532772,-1.446537,146.32,8.68,2,10.06,25 / 25,8117710,2019-09-08 14:22:16:949,-1.6274,0.6986,6.4777,0.0303,0.0263,9.8065,0.3911,-0.079,0.059,-9.25,-38.37,-7.12,226.97,-79.19,-158.19
83042,52.532772,-1.446537,146.32,8.68,2,10.06,25 / 25,8117809,2019-09-08 14:22:17:048,1.0654,3.7453,8.0082,-0.0181,-0.0172,9.8066,0.1136,0.0931,-0.0686,-8.69,-38.25,-5.75,227.63,-79.03,-159.29
83043,52.532772,-1.446537,146.32,8.68,2,10.06,25 / 25,8117910,2019-09-08 14:22:17:149,-1.3172,2.5128,6.0606,-0.0743,-0.137,9.8054,-0.6885,0.0451,0.1499,-10.25,-38.87,-6.87,233.56,-80.74,-157.14
83044,52.532772,-1.446537,146.32,8.68,2,10.06,25 / 25,8118010,2019-09-08 14:22:17:249,-3.4919,-1.9846,10.5448,-0.1403,-0.1498,9.8045,-0.5252,0.2782,-0.1932,-9.87,-35.75,-8.31,241.91,-82.53,-150.69
83045,52.532772,-1.446537,146.32,8.68,2,10.06,25 / 25,8118110,2019-09-08 14:22:17:349,-1.4937,-5.6648,15.0535,-0.0811,-0.0289,9.8062,0.4527,0.0763,-0.0837,-10.75,-32.56,-9.19,254.31,-84.35,-143.7
83046,52.532772,-1.446537,146.32,8.68,2,10.06,25 / 25,8118210,2019-09-08 14:22:17:449,-2.8458,1.105,11.5357,0.0746,0.1604,9.805,0.6611,0.1485,-0.1246,-9.87,-32.56,-10.87,243.72,-83.97,-146.56
83047,52.532772,-1.446537,146.32,8.68,2,10.06,25 / 25,8118310,2019-09-08 14:22:17:549,-3.0792,4.5183,8.2733,0.1418,0.2288,9.8029,-0.1166,0.17,-0.1367,-8.94,-34.12,-10.75,226.66,-80.96,-157.02
83048,52.532772,-1.446537,146.32,8.68,2,10.06,25 / 25,8118410,2019-09-08 14:22:17:649,0.1224,1.4195,8.4487,0.005,0.002,9.8066,-0.3351,0.0363,0.0424,-8.44,-37.31,-10.37,219.32,-79.56,-160.3
83049,52.532772,-1.446537,146.32,8.68,2,10.06,25 / 25,8118510,2019-09-08 14:22:17:749,-1.5852,-0.4912,8.3634,-0.0212,-0.0536,9.8065,-0.1407,0.0987,-0.0084,-6.69,-38.06,-11.25,216.06,-80.0,-159.4
83050,52.532772,-1.446537,146.32,8.68,2,10.06,25 / 25,8118610,2019-09-08 14:22:17:849,-1.5356,-1.8063,9.0033,-0.0462,-0.1086,9.8058,-0.1228,0.1288,-0.0552,-6.56,-40.0,-10.81,217.38,-81.05,-158.51
83051,52.533535,-1.446453,146.22,7.69,2,357.4,24 / 24,8118710,2019-09-08 14:22:17:949,-1.7848,-1.6794,9.462,-0.0337,-0.0791,9.8062,0.0045,0.0978,0.0128,-5.19,-39.94,-10.37,213.64,-82.13,-157.37
83052,52.533535,-1.446453,146.22,7.69,2,357.4,24 / 24,8118810,2019-09-08 14:22:18:049,-1.7322,0.4571,10.0732,0.0227,0.0586,9.8064,0.1476,0.1385,0.0174,-4.81,-40.12,-7.25,214.44,-81.55,-158.56
83053,52.533535,-1.446453,146.22,7.69,2,357.4,24 / 24,8118910,2019-09-08 14:22:18:149,-1.2298,0.2279,9.6632,0.0119,0.011,9.8066,0.0295,0.1424,-0.0051,-5.06,-38.44,-5.5,216.3,-81.08,-159.31
83054,52.533535,-1.446453,146.22,7.69,2,357.4,24 / 24,8119010,2019-09-08 14:22:18:249,-1.404,1.6917,9.7402,-0.0003,-0.0051,9.8066,-0.116,0.1725,-0.0347,-5.0,-35.94,-5.75,215.06,-80.71,-159.67
83055,52.533535,-1.446453,146.22,7.69,2,357.4,24 / 24,8119111,2019-09-08 14:22:18:350,-1.0244,1.4507,10.0973,-0.0086,-0.0207,9.8066,0.1162,0.2077,-0.0826,-5.75,-37.0,-7.0,217.51,-80.76,-160.24
83056,52.533535,-1.446453,146.22,7.69,2,357.4,24 / 24,8119210,2019-09-08 14:22:18:449,-1.3099,2.3864,10.2735,-0.0085,-0.0243,9.8066,0.1423,0.1608,-0.0647,-5.62,-37.31,-6.87,218.41,-81.14,-159.84
83057,52.533535,-1.446453,146.22,7.69,2,357.4,24 / 24,8119310,2019-09-08 14:22:18:549,-1.6019,0.7168,9.6226,0.0027,0.0116,9.8066,-0.1213,0.1705,-0.036,-6.25,-37.94,-6.75,218.04,-81.3,-160.2
83058,52.533535,-1.446453,146.22,7.69,2,357.4,24 / 24,8119410,2019-09-08 14:22:18:649,-0.8171,1.3244,9.0429,0.0064,0.0145,9.8066,-0.0783,0.1059,-0.0122,-6.06,-37.75,-7.5,218.02,-81.33,-160.28
83059,52.533535,-1.446453,146.22,7.69,2,357.4,24 / 24,8119510,2019-09-08 14:22:18:749,-0.4612,0.6938,8.909,0.002,-0.0281,9.8066,0.0274,0.1625,-0.0455,-6.87,-38.37,-6.56,222.13,-81.29,-160.14
83060,52.533535,-1.446453,146.22,7.69,2,357.4,24 / 24,8119610,2019-09-08 14:22:18:849,-0.0913,1.4984,10.0045,-0.0101,-0.0409,9.8065,0.0313,0.1288,-0.0036,-6.56,-37.87,-6.12,224.93,-81.44,-158.96
83061,52.533535,-1.446453,146.22,7.69,2,357.4,24 / 25,8119711,2019-09-08 14:22:18:950,-0.5171,1.7544,10.3955,0.0038,0.0128,9.8066,0.0377,0.1139,-0.0161,-6.69,-34.56,-5.44,228.65,-81.38,-158.72
83062,52.533535,-1.446453,146.22,7.69,2,357.4,24 / 25,8119810,2019-09-08 14:22:19:049,-0.7087,0.9107,10.4246,-0.0102,0.0138,9.8066,0.1182,0.0735,0.0173,-6.31,-33.44,-7.75,219.79,-81.53,-159.18
83063,52.533535,-1.446453,146.22,7.69,2,357.4,24 / 25,8119909,2019-09-08 14:22:19:148,-0.5926,0.473,9.2769,-0.0088,0.0046,9.8065,-0.0901,0.1397,0.0502,-5.0,-34.37,-10.25,213.3,-81.48,-159.18
83064,52.533535,-1.446453,146.22,7.69,2,357.4,24 / 25,8120010,2019-09-08 14:22:19:249,-1.3523,0.9354,9.73,0.0155,0.0413,9.8065,-0.1439,0.1476,-0.0067,-3.75,-37.75,-11.12,207.25,-81.3,-159.98
83065,52.533535,-1.446453,146.22,7.69,2,357.4,24 / 25,8120110,2019-09-08 14:22:19:349,-0.1887,1.1753,9.3712,0.0005,-0.0302,9.8066,0.1292,0.1122,-0.0784,-3.56,-39.31,-10.25,207.47,-81.22,-159.8
83066,52.533535,-1.446453,146.22,7.69,2,357.4,24 / 25,8120210,2019-09-08 14:22:19:449,-1.0674,0.8975,10.2687,0.0019,-0.0255,9.8065,0.1146,0.1284,-0.0832,-2.81,-40.0,-8.44,204.44,-81.37,-159.43
83067,52.533535,-1.446453,146.22,7.69,2,357.4,24 / 25,8120310,2019-09-08 14:22:19:549,-1.4237,1.538,9.8053,-0.005,0.0198,9.8065,-0.0947,0.0988,0.0089,-2.19,-40.69,-7.25,199.9,-81.41,-159.6
83068,52.533535,-1.446453,146.22,7.69,2,357.4,24 / 25,8120410,2019-09-08 14:22:19:649,0.3781,0.0443,9.8416,-0.0102,0.0396,9.8066,-0.1182,0.0235,0.1019,-1.94,-39.19,-4.94,199.91,-81.35,-160.31
83069,52.533535,-1.446453,146.22,7.69,2,357.4,24 / 25,8120510,2019-09-08 14:22:19:749,-1.0642,-0.2746,9.7057,0.0038,-0.0397,9.8065,0.0692,0.0666,-0.0376,-2.5,-36.56,-5.5,200.86,-81.41,-159.7
83070,52.533535,-1.446453,146.22,7.69,2,357.4,24 / 25,8120610,2019-09-08 14:22:19:849,-0.2439,0.7421,9.5295,-0.0042,-0.0375,9.8066,0.0621,0.0701,-0.0087,-2.69,-36.06,-5.62,207.16,-81.66,-158.79
83071,52.533535,-1.446453,146.22,7.69,2,357.4,23 / 24,8120710,2019-09-08 14:22:19:949,-0.4634,0.0795,9.7431,0.0077,0.0026,9.8066,-0.054,0.0881,0.0045,-2.81,-37.81,-7.62,205.62,-81.53,-158.7
83072,52.533535,-1.446453,146.22,7.69,2,357.4,23 / 24,8120810,2019-09-08 14:22:20:049,-0.8135,0.0725,9.6203,0.0035,-0.0044,9.8065,0.0103,0.0233,-0.001,-3.5,-39.19,-7.5,205.85,-81.55,-158.41
83073,52.533535,-1.446453,146.22,7.69,2,357.4,23 / 24,8120910,2019-09-08 14:22:20:149,-0.1706,1.1132,9.6838,0.0061,-0.0015,9.8066,0.036,0.0776,0.0175,-4.12,-40.25,-7.44,210.19,-81.53,-158.2
83074,52.533535,-1.446453,146.22,7.69,2,357.4,23 / 24,8121010,2019-09-08 14:22:20:249,-0.0973,2.5344,10.451,0.0073,-0.0047,9.8066,0.1431,0.0463,0.002,-3.81,-39.94,-5.62,211.22,-81.53,-157.62
83075,52.533535,-1.446453,146.22,7.69,2,357.4,23 / 24,8121110,2019-09-08 14:22:20:349,0.6996,1.4545,10.362,0.0171,0.0322,9.8065,-0.2226,0.0385,0.0016,-2.94,-37.75,-3.75,207.68,-81.35,-157.31
83076,52.533535,-1.446453,146.22,7.69,2,357.4,23 / 24,8121210,2019-09-08 14:22:20:449,-0.4875,-0.1811,9.6819,-0.0031,0.0114,9.8065,-0.1616,0.0285,0.0524,-2.56,-35.06,-4.62,208.47,-81.39,-157.33
83077,52.533535,-1.446453,146.22,7.69,2,357.4,23 / 24,8121310,2019-09-08 14:22:20:549,-0.3111,0.1069,9.1159,0.0023,-0.0256,9.8066,0.0493,0.0121,0.0158,-2.5,-35.0,-6.75,202.6,-81.31,-157.34
83078,52.533535,-1.446453,146.22,7.69,2,357.4,23 / 24,8121410,2019-09-08 14:22:20:649,1.0013,0.394,10.0185,0.0007,-0.0257,9.8065,0.0227,-0.0677,0.048,-2.37,-36.56,-7.06,202.65,-81.42,-156.51
83079,52.533535,-1.446453,146.22,7.69,2,357.4,23 / 24,8121510,2019-09-08 14:22:20:749,0.5812,-1.2958,10.0162,-0.0052,0.0162,9.8065,-0.1748,-0.0697,0.024,-3.25,-38.62,-8.0,206.87,-81.44,-156.03
83080,52.533535,-1.446453,146.22,7.69,2,357.4,23 / 24,8121610,2019-09-08 14:22:20:849,0.9835,0.8439,9.247,-0.0019,0.0019,9.8066,-0.073,-0.0869,0.0127,-3.75,-38.81,-7.37,211.8,-81.54,-156.13
83081,52.533535,-1.446453,146.22,7.69,2,357.4,24 / 24,8121710,2019-09-08 14:22:20:949,0.4023,0.2553,9.2647,-0.0124,-0.0333,9.8065,-0.0453,-0.1197,0.0774,-4.44,-39.0,-5.75,213.4,-81.79,-155.32
83082,52.533535,-1.446453,146.22,7.69,2,357.4,24 / 24,8121809,2019-09-08 14:22:21:048,0.4725,-0.8212,9.7119,-0.0021,-0.0142,9.8066,-0.0746,-0.1389,0.0093,-3.81,-37.25,-4.69,215.43,-81.78,-154.78
83083,52.533535,-1.446453,146.22,7.69,2,357.4,24 / 24,8121910,2019-09-08 14:22:21:149,0.967,0.3981,10.4171,-0.0085,0.0029,9.8066,0.0832,-0.1491,0.0625,-4.0,-36.25,-6.37,214.8,-81.69,-154.78
83084,52.533535,-1.446453,146.22,7.69,2,357.4,24 / 24,8122010,2019-09-08 14:22:21:249,0.8342,0.3438,9.9959,-0.0017,-0.0119,9.8066,0.0124,-0.0754,-0.0274,-4.56,-37.44,-8.62,216.24,-81.63,-155.02
83085,52.533535,-1.446453,146.22,7.69,2,357.4,24 / 24,8122110,2019-09-08 14:22:21:349,0.162,0.3067,9.5302,-0.0057,0.0051,9.8065,0.0239,-0.096,0.0999,-4.94,-39.0,-9.0,215.14,-81.6,-155.55
83086,52.533535,-1.446453,146.22,7.69,2,357.4,24 / 24,8122210,2019-09-08 14:22:21:449,0.9882,-0.4993,10.249,-0.0047,-0.017,9.8066,0.084,-0.1256,0.0615,-5.5,-39.44,-9.25,215.29,-81.66,-155.48
83087,52.533535,-1.446453,146.22,7.69,2,357.4,24 / 24,8122310,2019-09-08 14:22:21:549,1.3358,0.7735,10.0062,0.0136,0.0322,9.8065,-0.1412,-0.1629,0.0676,-6.06,-42.44,-9.81,217.04,-81.53,-155.51
83088,52.533535,-1.446453,146.22,7.69,2,357.4,24 / 24,8122410,2019-09-08 14:22:21:649,1.1674,-0.2442,9.6877,0.0104,0.0245,9.8065,-0.0691,-0.112,0.0251,-6.31,-44.62,-8.87,217.27,-81.54,-154.88
83089,52.533535,-1.446453,146.22,7.69,2,357.4,24 / 24,8122510,2019-09-08 14:22:21:749,0.8043,-1.748,9.6608,-0.0035,-0.0228,9.8066,-0.0044,-0.1381,-0.0051,-6.44,-45.37,-6.5,220.37,-81.53,-154.41
83090,52.533535,-1.446453,146.22,7.69,2,357.4,24 / 24,8122610,2019-09-08 14:22:21:849,1.3933,-1.0931,9.9424,-0.0038,-0.0141,9.8066,-0.0364,-0.1868,0.0245,-5.81,-42.31,-4.19,225.32,-81.64,-154.04
83091,52.533535,-1.446453,146.22,7.69,2,357.4,23 / 23,8122710,2019-09-08 14:22:21:949,1.88,-0.6801,10.0766,-0.0063,-0.0121,9.8066,0.0461,-0.1825,0.015,-5.62,-40.37,-3.56,226.51,-81.62,-153.97
83092,52.533535,-1.446453,146.22,7.69,2,357.4,23 / 23,8122810,2019-09-08 14:22:22:049,1.2029,-0.7562,10.4374,-0.0131,-0.0309,9.8065,0.1005,-0.1406,0.0376,-6.12,-38.62,-3.81,227.79,-81.78,-153.67
83093,52.533535,-1.446453,146.22,7.69,2,357.4,23 / 23,8122910,2019-09-08 14:22:22:149,0.8738,-0.6954,9.7296,0.0139,0.0224,9.8066,-0.0832,-0.0908,0.021,-6.5,-36.62,-4.94,226.39,-81.67,-154.12
83094,52.533535,-1.446453,146.22,7.69,2,357.4,23 / 23,8123010,2019-09-08 14:22:22:249,1.3241,-0.8417,9.6913,0.003,0.0166,9.8066,-0.0691,-0.184,0.0811,-7.19,-36.0,-6.25,229.79,-81.71,-154.29
83095,52.533535,-1.446453,146.22,7.69,2,357.4,23 / 23,8123110,2019-09-08 14:22:22:349,0.8375,-1.3541,9.8527,0.001,-0.0093,9.8066,0.0519,-0.186,0.0599,-7.87,-37.69,-9.06,227.95,-81.71,-154.12
83096,52.533535,-1.446453,146.22,7.69,2,357.4,23 / 23,8123210,2019-09-08 14:22:22:449,1.4368,-0.1318,10.0663,0.0023,-0.0088,9.8066,0.0287,-0.1345,-0.0045,-8.5,-39.5,-7.44,231.31,-81.74,-153.35
83097,52.533535,-1.446453,146.22,7.69,2,357.4,23 / 23,8123310,2019-09-08 14:22:22:549,1.1598,-0.6084,9.9785,0.0029,0.0071,9.8065,-0.0542,-0.1293,0.0297,-7.44,-39.0,-5.44,230.87,-81.82,-153.64
83098,52.533535,-1.446453,146.22,7.69,2,357.4,23 / 23,8123410,2019-09-08 14:22:22:649,0.9146,-1.0765,9.6458,-0.003,-0.0018,9.8066,-0.0205,-0.1351,0.0479,-7.94,-36.94,-4.5,239.17,-81.79,-153.76
83099,52.533535,-1.446453,146.22,7.69,2,357.4,23 / 23,8123510,2019-09-08 14:22:22:749,1.3206,-0.0487,9.7334,0.005,-0.0016,9.8065,0.0446,-0.1377,0.0051,-8.31,-34.5,-3.25,244.36,-81.71,-153.86
83100,52.533535,-1.446453,146.22,7.69,2,357.4,23 / 23,8123610,2019-09-08 14:22:22:849,1.39,0.007,9.9781,-0.0192,0.0114,9.8066,0.0022,-0.167,0.0401,-8.06,-32.31,-3.94,241.87,-81.75,-154.64
83101,52.533535,-1.446453,146.22,7.69,2,357.4,24 / 24,8123710,2019-09-08 14:22:22:949,1.2055,-1.1355,9.945,0.0094,0.0035,9.8066,-0.0196,-0.1175,0.0458,-8.0,-29.44,-4.25,244.22,-81.8,-154.6
83102,52.533535,-1.446453,146.22,7.69,2,357.4,24 / 24,8123810,2019-09-08 14:22:23:049,0.7468,-0.2381,9.7573,0.0057,-0.0057,9.8066,0.0762,-0.1957,0.0198,-8.25,-27.87,-7.69,234.27,-81.8,-154.24
83103,52.533535,-1.446453,146.22,7.69,2,357.4,24 / 24,8123909,2019-09-08 14:22:23:148,0.509,0.5632,9.6589,-0.0079,-0.0106,9.8066,-0.0053,-0.1788,0.0465,-8.19,-28.81,-10.5,229.45,-81.73,-155.1
83104,52.533535,-1.446453,146.22,7.69,2,357.4,24 / 24,8124010,2019-09-08 14:22:23:249,1.1289,-0.9272,10.7363,-0.0017,-0.0128,9.8066,0.0454,-0.2292,0.0009,-8.81,-30.69,-11.69,229.74,-81.75,-154.26
83105,52.533535,-1.446453,146.22,7.69,2,357.4,24 / 24,8124110,2019-09-08 14:22:23:349,1.9861,-1.0066,10.3851,0.0141,0.0153,9.8066,-0.0712,-0.0823,-0.0933,-8.94,-34.56,-13.37,227.08,-81.57,-154.09
83106,52.533535,-1.446453,146.22,7.69,2,357.4,24 / 24,8124210,2019-09-08 14:22:23:449,0.4536,-0.3886,9.4688,-0.0006,0.0071,9.8066,0.0225,-0.1709,0.0208,-8.06,-37.12,-12.44,224.16,-81.53,-154.5
83107,52.533535,-1.446453,146.22,7.69,2,357.4,24 / 24,8124310,2019-09-08 14:22:23:549,1.072,-0.9268,9.5256,0.0018,0.0091,9.8065,-0.1909,-0.1155,0.0252,-8.12,-38.31,-11.31,224.8,-81.56,-154.64
83108,52.533535,-1.446453,146.22,7.69,2,357.4,24 / 24,8124410,2019-09-08 14:22:23:649,0.8941,-1.1958,9.857,0.013,-0.0082,9.8066,-0.1389,-0.1502,-0.008,-8.06,-38.44,-8.94,227.53,-81.51,-154.2
83109,52.533535,-1.446453,146.22,7.69,2,357.4,24 / 24,8124510,2019-09-08 14:22:23:749,1.5129,0.262,10.0867,0.009,-0.0013,9.8065,0.1063,-0.1455,0.0611,-8.12,-37.37,-8.69,228.05,-81.5,-154.04
83110,52.533535,-1.446453,146.22,7.69,2,357.4,24 / 24,8124610,2019-09-08 14:22:23:849,1.0552,-0.805,9.8061,0.0058,-0.006,9.8066,0.0598,-0.1462,0.0434,-7.94,-36.75,-8.44,230.1,-81.39,-153.01
83111,52.533535,-1.446453,146.22,7.69,2,357.4,25 / 25,8124710,2019-09-08 14:22:23:949,0.5764,-1.074,9.5848,-0.022,0.001,9.8066,-0.1531,-0.0615,-0.0299,-8.44,-37.62,-10.19,226.82,-81.58,-153.58
83112,52.533535,-1.446453,146.22,7.69,2,357.4,25 / 25,8124810,2019-09-08 14:22:24:049,-0.036,-1.1028,10.0197,0.0096,-0.0255,9.8066,-0.1053,-0.1011,0.0152,-10.06,-39.06,-10.37,233.77,-81.78,-152.84
83113,52.533535,-1.446453,146.22,7.69,2,357.4,25 / 25,8124910,2019-09-08 14:22:24:149,-0.4658,-0.0898,10.4518,0.0173,0.0142,9.8065,0.1192,-0.0419,-0.0412,-11.5,-40.56,-9.25,238.43,-81.81,-151.9
83114,52.533535,-1.446453,146.22,7.69,2,357.4,25 / 25,8125010,2019-09-08 14:22:24:249,-2.5081,-0.048,9.1305,0.0557,0.0687,9.8062,-0.1661,0.0928,-0.0564,-12.62,-40.44,-6.19,248.34,-81.26,-153.62
83115,52.533535,-1.446453,146.22,7.69,2,357.4,25 / 25,8125110,2019-09-08 14:22:24:349,-0.5828,-2.0015,8.0788,-0.0644,-0.0516,9.8062,0.2482,-0.1526,0.037,-12.69,-39.62,-4.75,249.06,-80.97,-154.95
83116,52.533535,-1.446453,146.22,7.69,2,357.4,25 / 25,8125210,2019-09-08 14:22:24:449,1.5415,-1.0674,10.937,-0.001,-0.0426,9.8065,0.0596,-0.0672,-0.0458,-12.25,-37.62,-4.81,248.81,-81.14,-153.7
83117,52.533535,-1.446453,146.22,7.69,2,357.4,25 / 25,8125310,2019-09-08 14:22:24:549,5.0378,-4.8425,12.3043,0.0727,0.028,9.8063,-0.1538,-0.2239,-0.1906,-12.94,-36.25,-5.81,251.12,-81.14,-152.58
83118,52.533535,-1.446453,146.22,7.69,2,357.4,25 / 25,8125410,2019-09-08 14:22:24:649,-1.9939,0.8062,10.55,-0.0052,-0.005,9.8066,0.0393,-0.0943,-0.3567,-12.31,-36.25,-7.87,244.74,-81.85,-152.97
83119,52.533535,-1.446453,146.22,7.69,2,357.4,25 / 25,8125510,2019-09-08 14:22:24:749,-2.9805,-3.0493,9.2862,0.0454,0.0514,9.8063,-0.4922,-0.0475,-0.1978,-12.37,-36.31,-9.06,242.8,-82.15,-153.46
83120,52.533535,-1.446453,146.22,7.69,2,357.4,25 / 25,8125610,2019-09-08 14:22:24:849,1.3267,-1.112,9.7474,0.0633,0.08,9.806,-0.1099,-0.1033,0.01,-11.87,-37.12,-8.5,241.24,-81.68,-156.17
83121,52.533535,-1.446453,146.22,7.69,2,357.4,24 / 24,8125709,2019-09-08 14:22:24:948,0.6228,-0.7661,9.3108,-0.0147,-0.0305,9.8066,-0.0261,-0.0652,-0.0236,-12.0,-38.75,-8.44,238.5,-81.6,-158.26
83122,52.533535,-1.446453,146.22,7.69,2,357.4,24 / 24,8125810,2019-09-08 14:22:25:049,3.2566,-1.4267,10.9173,-0.0614,-0.057,9.8062,0.1174,-0.3123,0.1605,-12.31,-39.44,-7.37,241.69,-81.78,-157.43
83123,52.533535,-1.446453,146.22,7.69,2,357.4,24 / 24,8125910,2019-09-08 14:22:25:149,-1.678,1.475,9.3598,0.0104,0.0458,9.8065,-0.229,-0.1808,-0.0587,-12.87,-38.44,-6.06,245.86,-81.4,-158.17
83124,52.533535,-1.446453,146.22,7.69,2,357.4,24 / 24,8126010,2019-09-08 14:22:25:249,2.1432,-3.0456,9.7944,0.0302,0.0725,9.8062,-0.2303,-0.3861,0.2517,-13.31,-37.75,-5.75,245.86,-81.44,-158.25
83125,52.533535,-1.446453,146.22,7.69,2,357.4,24 / 24,8126110,2019-09-08 14:22:25:349,2.4223,0.1292,9.9847,-0.0575,-0.0409,9.8063,0.3976,-0.1444,0.0197,-13.62,-37.62,-6.87,246.3,-81.42,-157.81
83126,52.533535,-1.446453,146.22,7.69,2,357.4,24 / 24,8126210,2019-09-08 14:22:25:449,1.0912,0.4018,7.7259,-0.043,-0.031,9.8065,0.2669,-0.1744,0.1285,-13.69,-37.81,-7.44,246.69,-81.81,-158.29
83127,52.533535,-1.446453,146.22,7.69,2,357.4,24 / 24,8126310,2019-09-08 14:22:25:549,-2.4272,-0.807,8.2382,-0.1126,-0.1025,9.8054,0.243,-0.4281,0.2041,-14.94,-39.25,-8.44,246.63,-81.23,-156.63
83128,52.533535,-1.446453,146.22,7.69,2,357.4,24 / 24,8126410,2019-09-08 14:22:25:649,0.6038,0.5256,11.6272,-0.0972,-0.1181,9.8054,0.1515,-0.1724,-0.0363,-15.75,-39.81,-6.56,255.98,-82.08,-152.53
83129,52.533535,-1.446453,146.22,7.69,2,357.4,24 / 24,8126510,2019-09-08 14:22:25:749,1.5573,2.512,10.8934,0.0826,0.0764,9.806,-0.165,-0.3518,0.0159,-16.06,-38.62,-4.62,258.47,-81.69,-154.86
83130,52.533535,-1.446453,146.22,7.69,2,357.4,24 / 24,8126610,2019-09-08 14:22:25:849,-1.6958,-1.9847,10.3182,0.0328,0.0272,9.8065,-0.1417,-0.2754,-0.0894,-15.87,-35.81,-3.75,264.0,-81.64,-153.43
83131,52.533535,-1.446453,146.22,7.69,2,357.4,24 / 24,8126710,2019-09-08 14:22:25:949,0.5222,-1.118,9.7217,0.0346,0.0112,9.8065,0.0139,-0.0875,-0.1154,-16.19,-34.69,-4.37,264.75,-81.6,-153.08
83132,52.533535,-1.446453,146.22,7.69,2,357.4,24 / 24,8126810,2019-09-08 14:22:26:049,-0.3829,-0.7634,8.6922,0.0324,0.0277,9.8065,-0.0587,-0.0774,-0.0137,-15.75,-34.37,-5.69,258.29,-81.42,-154.19
83133,52.533535,-1.446453,146.22,7.69,2,357.4,24 / 24,8126910,2019-09-08 14:22:26:149,0.7729,-1.6722,9.8533,-0.0376,-0.0331,9.8065,0.1425,-0.165,0.1066,-15.69,-35.37,-7.69,254.33,-81.68,-153.29
83134,52.533535,-1.446453,146.22,7.69,2,357.4,24 / 24,8127009,2019-09-08 14:22:26:248,1.9896,0.3759,10.7851,-0.0056,-0.0281,9.8066,0.1684,-0.0816,-0.0767,-14.75,-36.25,-6.69,254.18,-81.63,-153.05
83135,52.533535,-1.446453,146.22,7.69,2,357.4,24 / 24,8127110,2019-09-08 14:22:26:349,0.5055,-0.9064,9.7254,0.0098,0.0055,9.8066,-0.1693,-0.1218,-0.0412,-14.44,-37.12,-6.81,251.52,-81.78,-153.21
83136,52.533535,-1.446453,146.22,7.69,2,357.4,24 / 24,8127210,2019-09-08 14:22:26:449,-0.4029,0.2307,9.5474,0.0091,0.013,9.8066,-0.0992,-0.0531,0.0013,-15.56,-37.31,-5.37,260.79,-81.81,-153.68
83137,52.533535,-1.446453,146.22,7.69,2,357.4,24 / 24,8127310,2019-09-08 14:22:26:549,0.2859,-0.2341,10.2807,0.0066,0.0111,9.8066,-0.0643,-0.0427,0.0221,-15.94,-36.06,-4.56,261.06,-81.78,-153.84
83138,52.533535,-1.446453,146.22,7.69,2,357.4,24 / 24,8127410,2019-09-08 14:22:26:649,-1.0205,-0.7506,10.0253,0.015,0.0142,9.8066,-0.0013,-0.0586,-0.0291,-17.56,-35.37,-4.12,266.54,-81.72,-154.96
83139,52.533535,-1.446453,146.22,7.69,2,357.4,24 / 24,8127510,2019-09-08 14:22:26:749,0.1214,0.7037,10.1231,0.0118,0.0139,9.8066,0.0616,-0.0822,0.038,-17.19,-33.31,-4.5,264.77,-81.68,-156.08
83140,52.533535,-1.446453,146.22,7.69,2,357.4,24 / 24,8127610,2019-09-08 14:22:26:849,0.9181,-0.4296,10.7854,0.0403,0.0358,9.8064,-0.0252,-0.0565,0.0329,-16.69,-32.87,-6.25,258.09,-81.35,-156.79
83141,52.53422,-1.446493,145.78,8.29,3,26.25,25 / 25,8127710,2019-09-08 14:22:26:949,-1.9274,-0.0636,8.683,-0.0875,-0.0695,9.806,0.1932,-0.0862,-0.0028,-16.44,-34.0,-7.25,252.04,-81.09,-157.67
83142,52.53422,-1.446493,145.78,8.29,3,26.25,25 / 25,8127810,2019-09-08 14:22:27:049,1.004,0.5486,9.8434,-0.0823,-0.0598,9.8061,0.1339,-0.0786,0.0528,-16.19,-36.75,-7.81,250.41,-81.53,-156.38
83143,52.53422,-1.446493,145.78,8.29,3,26.25,25 / 25,8127910,2019-09-08 14:22:27:149,1.7437,0.3705,9.9311,0.0619,0.0379,9.8063,-0.3812,0.0012,-0.1207,-16.12,-37.37,-5.31,257.81,-81.47,-156.09
83144,52.53422,-1.446493,145.78,8.29,3,26.25,25 / 25,8128010,2019-09-08 14:22:27:249,-1.6755,-1.7741,9.087,0.0673,0.0489,9.8062,-0.3988,-0.0393,-0.0736,-16.12,-36.75,-4.12,259.63,-81.28,-156.67
83145,52.53422,-1.446493,145.78,8.29,3,26.25,25 / 25,8128110,2019-09-08 14:22:27:349,-0.9004,-0.6714,9.677,-0.1091,-0.0415,9.8059,0.4312,-0.1083,-0.0157,-16.19,-34.19,-4.12,261.34,-81.47,-156.93
83146,52.53422,-1.446493,145.78,8.29,3,26.25,25 / 25,8128210,2019-09-08 14:22:27:449,-2.1318,-1.0794,10.9681,-0.1063,-0.0561,9.8058,0.4584,0.0111,0.0024,-15.69,-32.37,-4.5,264.01,-82.28,-156.85
83147,52.53422,-1.446493,145.78,8.29,3,26.25,25 / 25,8128310,2019-09-08 14:22:27:549,1.9108,1.5448,15.7042,0.2393,0.1136,9.803,0.2831,-0.0278,0.0298,-15.62,-30.81,-5.31,260.29,-82.03,-157.66
83148,52.53422,-1.446493,145.78,8.29,3,26.25,25 / 25,8128410,2019-09-08 14:22:27:649,0.3151,0.3618,11.1032,0.2356,0.1357,9.8029,0.5457,0.0129,-0.1701,-15.75,-30.56,-6.81,248.93,-79.6,-160.11
83149,52.53422,-1.446493,145.78,8.29,3,26.25,25 / 25,8128510,2019-09-08 14:22:27:749,1.3806,0.7989,6.5291,0.0095,0.0029,9.8066,-0.5797,0.0741,0.0373,-15.75,-32.19,-7.87,244.28,-79.05,-161.47
83150,52.53422,-1.446493,145.78,8.29,3,26.25,25 / 25,8128610,2019-09-08 14:22:27:849,2.7164,0.769,7.0433,-0.0304,-0.0082,9.8066,-1.0011,-0.1387,0.1602,-16.25,-35.75,-8.31,241.83,-78.95,-161.87
83151,52.53422,-1.446493,145.78,8.29,3,26.25,25 / 25,8128710,2019-09-08 14:22:27:949,0.3693,1.2462,7.1133,-0.2088,-0.2364,9.8015,0.4369,0.0217,-0.0286,-16.62,-36.12,-9.44,245.46,-80.03,-159.61
83152,52.53422,-1.446493,145.78,8.29,3,26.25,25 / 25,8128810,2019-09-08 14:22:28:049,0.7221,-1.8404,11.8234,-0.2217,-0.206,9.8019,0.2745,-0.0782,0.0361,-16.5,-36.31,-9.5,261.23,-83.54,-146.79
83153,52.53422,-1.446493,145.78,8.29,3,26.25,25 / 25,8128910,2019-09-08 14:22:28:149,-3.9437,-0.9416,14.2236,0.0637,0.0875,9.806,-0.1037,-0.0295,-0.0842,-17.56,-36.94,-9.62,263.89,-84.04,-146.33
83154,52.53422,-1.446493,145.78,8.29,3,26.25,25 / 25,8129010,2019-09-08 14:22:28:249,-1.659,-0.7636,10.3263,0.1613,0.1295,9.8044,0.1903,-0.064,0.0021,-17.87,-36.81,-7.87,261.3,-83.19,-151.99
83155,52.53422,-1.446493,145.78,8.29,3,26.25,25 / 25,8129110,2019-09-08 14:22:28:349,2.1783,1.9779,8.3288,0.1317,0.0616,9.8055,0.2233,-0.0454,0.0452,-17.94,-35.87,-4.56,259.93,-81.27,-157.74
83156,52.53422,-1.446493,145.78,8.29,3,26.25,25 / 25,8129210,2019-09-08 14:22:28:449,1.7958,1.0401,8.5031,0.0743,0.034,9.8063,-0.2671,-0.0525,0.0863,-17.5,-34.87,-4.69,252.44,-79.2,-160.44
83157,52.53422,-1.446493,145.78,8.29,3,26.25,25 / 25,8129310,2019-09-08 14:22:28:549,0.623,-0.9356,9.2171,-0.1123,-0.0801,9.8057,-0.0505,0.0053,-0.0148,-16.94,-35.19,-6.62,249.62,-79.62,-159.27
83158,52.53422,-1.446493,145.78,8.29,3,26.25,25 / 25,8129410,2019-09-08 14:22:28:649,-1.461,0.194,10.064,-0.1092,-0.0985,9.8055,0.0184,0.0797,-0.11,-16.44,-36.25,-8.31,251.04,-81.57,-156.22
83159,52.53422,-1.446493,145.78,8.29,3,26.25,25 / 25,8129510,2019-09-08 14:22:28:749,-1.2002,-0.3478,10.3499,0.0305,0.064,9.8063,-0.1791,-0.0158,0.0001,-16.44,-37.37,-8.5,249.73,-81.86,-157.81
83160,52.53422,-1.446493,145.78,8.29,3,26.25,25 / 25,8129610,2019-09-08 14:22:28:849,-0.563,-0.7574,9.07,0.0734,0.0792,9.806,-0.0549,0.0312,0.0306,-15.81,-37.69,-9.0,245.5,-81.59,-159.24
83161,52.53422,-1.446493,145.78,8.29,3,26.25,25 / 25,8129710,2019-09-08 14:22:28:949,-1.1521,-0.3793,9.4076,-0.0149,-0.023,9.8065,0.2295,0.0205,0.0153,-16.25,-38.62,-7.5,247.25,-81.08,-160.54
83162,52.53422,-1.446493,145.78,8.29,3,26.25,25 / 25,8129810,2019-09-08 14:22:29:049,0.6443,1.1947,10.0976,-0.0233,-0.0397,9.8065,0.1953,0.0219,-0.0651,-15.69,-39.06,-6.56,247.67,-81.01,-159.91
83163,52.53422,-1.446493,145.78,8.29,3,26.25,25 / 25,8129910,2019-09-08 14:22:29:149,-0.3838,-0.5255,10.1294,0.0211,0.0234,9.8066,-0.1875,0.0093,-0.0175,-16.44,-38.62,-6.37,249.74,-80.97,-160.08
83164,52.53422,-1.446493,145.78,8.29,3,26.25,25 / 25,8130010,2019-09-08 14:22:29:249,-2.4208,0.4733,9.0358,0.0037,0.0252,9.8065,-0.176,0.0889,-0.0387,-16.31,-37.75,-4.75,252.6,-81.18,-160.65
83165,52.53422,-1.446493,145.78,8.29,3,26.25,25 / 25,8130110,2019-09-08 14:22:29:349,-0.0671,-1.1269,8.3243,-0.0618,-0.0739,9.8061,0.3883,0.1606,-0.1078,-15.94,-37.37,-5.12,251.89,-81.11,-161.83
83166,52.53422,-1.446493,145.78,8.29,3,26.25,25 / 25,8130210,2019-09-08 14:22:29:449,0.2274,-0.2363,10.1885,-0.0965,-0.0578,9.806,0.2215,-0.0622,0.0988,-15.06,-37.37,-6.5,249.08,-81.58,-160.89
83167,52.53422,-1.446493,145.78,8.29,3,26.25,25 / 25,8130310,2019-09-08 14:22:29:549,-1.7028,-0.4392,10.4483,-0.023,-0.0359,9.8065,0.2982,-0.0801,-0.0009,-14.0,-37.69,-6.75,244.16,-81.07,-159.52
83168,52.53422,-1.446493,145.78,8.29,3,26.25,25 / 25,8130410,2019-09-08 14:22:29:649,0.696,1.1307,10.09,-0.0516,-0.0403,9.8064,0.3012,0.0043,-0.0845,-15.94,-38.0,-6.0,252.18,-81.19,-158.33
83169,52.53422,-1.446493,145.78,8.29,3,26.25,25 / 25,8130510,2019-09-08 14:22:29:749,-0.7884,1.9258,7.8557,0.0194,0.0261,9.8065,0.0186,0.0612,-0.0276,-15.81,-36.81,-5.19,253.08,-80.79,-159.77
83170,52.53422,-1.446493,145.78,8.29,3,26.25,25 / 25,8130610,2019-09-08 14:22:29:849,0.1655,0.5023,8.7086,0.0508,0.0154,9.8064,-0.0923,0.1167,-0.1253,-14.81,-38.06,-6.62,244.89,-80.23,-159.5
83171,52.53422,-1.446493,145.78,8.29,3,26.25,25 / 25,8130710,2019-09-08 14:22:29:949,-0.4552,0.6876,9.4244,-0.0683,-0.0461,9.8062,-0.1194,0.0682,-0.0871,-14.56,-39.81,-7.0,242.96,-80.02,-160.2
83172,52.53422,-1.446493,145.78,8.29,3,26.25,25 / 25,8130810,2019-09-08 14:22:30:049,0.0175,0.5608,10.6337,-0.069,-0.0377,9.8063,-0.0433,0.0272,-0.0526,-14.81,-41.19,-4.25,251.65,-80.87,-159.9
83173,52.53422,-1.446493,145.78,8.29,3,26.25,25 / 25,8130910,2019-09-08 14:22:30:149,0.0704,0.7699,10.3372,0.0073,0.0232,9.8066,-0.0356,-0.0076,-0.0222,-15.06,-37.87,-2.75,257.56,-81.22,-159.29
83174,52.53422,-1.446493,145.78,8.29,3,26.25,25 / 25,8131009,2019-09-08 14:22:30:248,-0.2019,1.8302,10.8255,0.0298,0.011,9.8065,0.2757,0.0311,0.0146,-15.31,-35.69,-2.5,261.16,-81.19,-159.98
83175,52.53422,-1.446493,145.78,8.29,3,26.25,25 / 25,8131110,2019-09-08 14:22:30:349,0.7677,3.5903,10.3179,0.0291,0.0163,9.8066,0.2388,0.1038,-0.057,-16.31,-33.94,-4.31,258.04,-80.95,-159.33
83176,52.53422,-1.446493,145.78,8.29,3,26.25,25 / 25,8131210,2019-09-08 14:22:30:449,2.0065,0.7281,10.9976,-0.0349,-0.0009,9.8066,-0.1675,-0.0554,-0.0068,-16.06,-33.87,-3.37,260.48,-80.89,-159.75
83177,52.53422,-1.446493,145.78,8.29,3,26.25,25 / 25,8131310,2019-09-08 14:22:30:549,0.7629,1.4061,11.3984,0.0539,0.0433,9.8064,-0.0317,-0.0067,-0.0508,-16.19,-31.75,-3.44,263.58,-81.17,-158.21
83178,52.53422,-1.446493,145.78,8.29,3,26.25,25 / 25,8131410,2019-09-08 14:22:30:649,-4.1412,-0.648,9.0614,0.0698,0.0179,9.8063,-0.0035,0.0316,0.0445,-15.87,-30.44,-5.31,259.13,-81.14,-157.76
83179,52.53422,-1.446493,145.78,8.29,3,26.25,25 / 25,8131510,2019-09-08 14:22:30:749,-0.1283,-0.4797,8.4213,-0.0754,-0.052,9.8061,-0.0997,0.0329,0.0566,-15.12,-29.94,-6.81,253.69,-81.67,-156.72
83180,52.53422,-1.446493,145.78,8.29,3,26.25,25 / 25,8131610,2019-09-08 14:22:30:849,-0.9534,0.2907,9.4489,-0.0554,-0.0571,9.8063,0.326,-0.0308,0.0195,-14.75,-29.87,-7.81,250.76,-81.57,-157.09
83181,52.53422,-1.446493,145.78,8.29,3,26.25,24 / 24,8131711,2019-09-08 14:22:30:950,1.1118,1.2235,11.1314,0.0811,0.0674,9.806,0.3532,-0.0916,-0.0229,-14.94,-31.12,-9.31,247.81,-81.45,-157.2
83182,52.53422,-1.446493,145.78,8.29,3,26.25,24 / 24,8131810,2019-09-08 14:22:31:049,-1.5595,-0.8602,8.7812,0.0467,0.0612,9.8063,-0.4259,0.0666,-0.0866,-14.12,-33.81,-10.31,240.4,-80.9,-158.45
83183,52.53422,-1.446493,145.78,8.29,3,26.25,24 / 24,8131910,2019-09-08 14:22:31:149,-2.2839,-1.4655,9.1201,-0.088,-0.0955,9.8057,-0.4813,0.0534,0.0056,-13.94,-36.31,-10.44,242.15,-81.5,-156.56
83184,52.53422,-1.446493,145.78,8.29,3,26.25,24 / 24,8132010,2019-09-08 14:22:31:249,-0.5635,-1.1345,9.445,-0.0723,-0.0946,9.8059,0.2836,0.044,-0.0015,-14.44,-38.37,-9.87,241.36,-81.39,-156.36
83185,52.53422,-1.446493,145.78,8.29,3,26.25,24 / 24,8132110,2019-09-08 14:22:31:349,-0.0003,0.0986,10.15,0.0579,0.0619,9.8062,0.3473,-0.0534,0.0552,-14.69,-40.06,-8.75,244.6,-81.4,-156.52
83186,52.53422,-1.446493,145.78,8.29,3,26.25,24 / 24,8132210,2019-09-08 14:22:31:449,-1.3329,-0.7459,9.272,0.0654,0.061,9.8062,-0.19,-0.1156,0.1529,-15.37,-42.94,-7.0,245.68,-80.96,-157.51
83187,52.53422,-1.446493,145.78,8.29,3,26.25,24 / 24,8132310,2019-09-08 14:22:31:549,-1.075,-0.9983,8.8103,-0.0571,-0.0506,9.8063,-0.1859,0.0123,0.0315,-15.44,-42.31,-3.87,253.3,-81.06,-157.93
83188,52.53422,-1.446493,145.78,8.29,3,26.25,24 / 24,8132410,2019-09-08 14:22:31:649,1.155,0.9815,10.0619,-0.0645,-0.0397,9.8063,0.2391,-0.0236,-0.0174,-15.5,-39.75,-1.06,266.11,-81.48,-156.68
83189,52.53422,-1.446493,145.78,8.29,3,26.25,24 / 24,8132510,2019-09-08 14:22:31:749,0.3757,0.269,10.0066,0.0465,0.0273,9.8064,0.1819,-0.0222,-0.048,-15.87,-33.37,-0.56,269.78,-81.22,-158.1
83190,52.53422,-1.446493,145.78,8.29,3,26.25,24 / 24,8132610,2019-09-08 14:22:31:849,-0.166,0.2426,10.6234,0.0455,0.0145,9.8065,-0.1304,-0.0267,-0.0124,-16.12,-32.25,-4.0,261.31,-81.31,-157.72
83191,52.53422,-1.446493,145.78,8.29,3,26.25,24 / 24,8132712,2019-09-08 14:22:31:951,-1.0593,-0.1039,9.8072,-0.0271,-0.0239,9.8066,-0.1046,-0.0119,0.0117,-16.56,-33.06,-6.5,257.59,-81.41,-157.44
83192,52.53422,-1.446493,145.78,8.29,3,26.25,24 / 24,8132810,2019-09-08 14:22:32:049,-0.1165,0.1886,9.8143,-0.0151,-0.0203,9.8066,0.073,-0.0526,0.0267,-16.62,-34.56,-6.87,255.03,-81.59,-156.98
83193,52.53422,-1.446493,145.78,8.29,3,26.25,24 / 24,8132909,2019-09-08 14:22:32:148,0.4968,0.5741,10.3291,0.0165,0.0147,9.8065,0.0265,0.0584,0.031,-16.5,-35.62,-8.56,248.15,-81.56,-157.07
83194,52.53422,-1.446493,145.78,8.29,3,26.25,24 / 24,8133010,2019-09-08 14:22:32:249,-0.2627,-1.5808,10.9981,0.0008,0.0298,9.8066,-0.0473,0.0368,0.1124,-15.94,-37.19,-8.31,248.63,-81.54,-158.38
83195,52.53422,-1.446493,145.78,8.29,3,26.25,24 / 24,8133110,2019-09-08 14:22:32:349,-2.2503,1.8363,11.3029,0.0029,0.0042,9.8066,0.2627,0.2056,-0.089,-15.44,-38.31,-6.62,248.55,-81.63,-158.35
83196,52.53422,-1.446493,145.78,8.29,3,26.25,24 / 24,8133210,2019-09-08 14:22:32:449,-0.1592,0.2889,11.5659,0.0138,0.0251,9.8066,-0.1874,0.0505,0.0119,-15.44,-37.31,-6.06,251.25,-81.51,-158.28
83197,52.53422,-1.446493,145.78,8.29,3,26.25,24 / 24,8133310,2019-09-08 14:22:32:549,-1.0504,-1.0093,9.1205,0.0166,0.0323,9.8065,-0.1877,0.0911,-0.0466,-15.69,-37.62,-6.62,251.45,-81.56,-157.32
83198,52.53422,-1.446493,145.78,8.29,3,26.25,24 / 24,8133410,2019-09-08 14:22:32:649,0.9007,-0.5882,8.1066,-0.0033,0.027,9.8065,0.2775,0.1222,-0.1596,-15.12,-37.19,-6.25,250.2,-81.41,-159.24
83199,52.53422,-1.446493,145.78,8.29,3,26.25,24 / 24,8133510,2019-09-08 14:22:32:749,-0.434,0.3264,8.806,-0.0313,-0.0334,9.8065,0.2061,0.1129,0.0279,-14.87,-37.06,-6.62,247.02,-81.33,-159.96
83200,52.53422,-1.446493,145.78,8.29,3,26.25,24 / 24,8133610,2019-09-08 14:22:32:849,1.6371,1.4707,10.3413,-0.0499,-0.0447,9.8064,0.0874,0.157,0.1162,-14.69,-37.81,-6.44,250.25,-81.62,-159.12
83201,52.53422,-1.446493,145.78,8.29,3,26.25,24 / 24,8133709,2019-09-08 14:22:32:948,-0.135,0.9421,10.0278,0.0432,0.0576,9.8063,0.0982,0.1077,0.0806,-13.69,-37.87,-6.37,245.42,-81.29,-161.35
83202,52.53422,-1.446493,145.78,8.29,3,26.25,24 / 24,8133810,2019-09-08 14:22:33:049,-0.8529,0.0545,10.3673,0.0192,0.0357,9.8065,0.0381,0.1709,-0.0403,-14.31,-37.94,-5.75,245.16,-81.42,-161.97
83203,52.53422,-1.446493,145.78,8.29,3,26.25,24 / 24,8133909,2019-09-08 14:22:33:148,-1.1216,1.3137,10.2454,-0.0435,-0.0234,9.8065,-0.0069,0.1661,-0.0627,-14.75,-36.94,-5.81,247.25,-81.47,-162.74
83204,52.53422,-1.446493,145.78,8.29,3,26.25,24 / 24,8134010,2019-09-08 14:22:33:249,-1.4218,1.4404,10.6291,-0.0528,-0.0296,9.8064,0.1086,0.1765,-0.0583,-14.37,-36.5,-5.5,248.52,-81.87,-163.26
83205,52.53422,-1.446493,145.78,8.29,3,26.25,24 / 24,8134110,2019-09-08 14:22:33:349,-1.9866,2.2333,9.8674,0.007,0.0382,9.8065,0.0053,0.1978,-0.0879,-14.37,-36.31,-5.25,247.7,-81.91,-164.31
83206,52.53422,-1.446493,145.78,8.29,3,26.25,24 / 24,8134210,2019-09-08 14:22:33:449,-2.4552,1.1132,8.9827,0.0115,0.0281,9.8065,-0.0462,0.227,-0.097,-13.06,-36.25,-5.62,240.78,-81.87,-166.48
83207,52.53422,-1.446493,145.78,8.29,3,26.25,24 / 24,8134310,2019-09-08 14:22:33:549,-0.7489,1.0547,9.2341,-0.0409,-0.0377,9.8064,-0.0814,0.1374,-0.0079,-13.69,-35.87,-6.94,242.3,-82.2,-165.19
83208,52.53422,-1.446493,145.78,8.29,3,26.25,24 / 24,8134410,2019-09-08 14:22:33:649,-1.7984,2.0232,9.4986,-0.0375,-0.0448,9.8065,0.1409,0.2098,0.0021,-12.37,-36.37,-7.19,237.64,-82.28,-165.13
83209,52.53422,-1.446493,145.78,8.29,3,26.25,24 / 24,8134510,2019-09-08 14:22:33:749,-0.5618,1.4742,9.7405,0.0125,0.0314,9.8065,0.1118,0.2106,-0.0588,-12.31,-36.56,-7.56,234.78,-82.29,-165.34
83210,52.53422,-1.446493,145.78,8.29,3,26.25,24 / 24,8134610,2019-09-08 14:22:33:849,-1.5486,1.1849,9.8142,0.0175,0.0375,9.8065,-0.106,0.2513,-0.0859,-11.69,-36.25,-7.81,234.03,-82.15,-166.41
83211,52.53422,-1.446493,145.78,8.29,3,26.25,24 / 24,8134710,2019-09-08 14:22:33:949,-1.8093,0.8234,9.3798,-0.0254,-0.019,9.8065,0.0278,0.2507,-0.0654,-11.06,-36.75,-8.25,230.15,-82.28,-167.7
83212,52.53422,-1.446493,145.78,8.29,3,26.25,24 / 24,8134810,2019-09-08 14:22:34:049,-1.5355,1.8483,10.0048,-0.0176,-0.0209,9.8065,0.025,0.2329,-0.063,-10.75,-37.12,-8.0,229.86,-82.5,-168.51
83213,52.53422,-1.446493,145.78,8.29,3,26.25,24 / 24,8134910,2019-09-08 14:22:34:149,-1.6288,1.9613,10.0624,-0.0023,0.0228,9.8066,0.0083,0.2506,-0.0919,-9.5,-37.81,-8.19,222.15,-82.46,-170.26
83214,52.53422,-1.446493,145.78,8.29,3,26.25,24 / 24,8135010,2019-09-08 14:22:34:249,-1.3279,2.4638,9.8034,0.0077,0.0149,9.8066,0.0749,0.2971,-0.0968,-9.0,-38.25,-7.69,221.95,-82.5,-170.6
83215,52.53422,-1.446493,145.78,8.29,3,26.25,24 / 24,8135110,2019-09-08 14:22:34:349,-1.5565,1.3532,9.3417,-0.0365,-0.0157,9.8065,-0.0304,0.2279,-0.0109,-9.0,-38.31,-7.44,223.15,-82.56,-171.99
83216,52.53422,-1.446493,145.78,8.29,3,26.25,24 / 24,8135210,2019-09-08 14:22:34:449,-2.7127,1.8558,9.5673,-0.0279,-0.0138,9.8065,-0.0877,0.3387,-0.0481,-7.69,-37.62,-6.56,219.05,-82.86,-173.67
83217,52.53422,-1.446493,145.78,8.29,3,26.25,24 / 24,8135310,2019-09-08 14:22:34:549,-1.9346,2.1375,9.563,-0.0004,0.0133,9.8065,0.0504,0.2762,-0.0293,-7.87,-37.0,-6.87,218.77,-82.95,-174.69
83218,52.53422,-1.446493,145.78,8.29,3,26.25,24 / 24,8135410,2019-09-08 14:22:34:649,-2.6156,2.0596,9.8245,-0.0024,-0.0017,9.8066,0.0475,0.3291,0.0027,-7.62,-36.69,-6.87,218.26,-82.94,-175.37
83219,52.53422,-1.446493,145.78,8.29,3,26.25,24 / 24,8135510,2019-09-08 14:22:34:749,-2.0324,1.3412,9.8688,0.0127,0.0325,9.8066,-0.0857,0.3192,0.0056,-7.44,-36.25,-7.0,214.05,-82.82,-176.38
83220,52.53422,-1.446493,145.78,8.29,3,26.25,24 / 24,8135610,2019-09-08 14:22:34:849,-0.9596,2.1706,9.8207,0.0243,0.0381,9.8065,-0.0734,0.3311,-0.0368,-7.12,-36.37,-7.69,211.83,-82.73,-176.46
83221,52.53422,-1.446493,145.78,8.29,3,26.25,24 / 25,8135710,2019-09-08 14:22:34:949,-2.5782,2.3616,9.7049,-0.0198,-0.0136,9.8066,0.0134,0.3259,-0.0483,-6.75,-36.0,-7.69,211.34,-82.76,-177.19
83222,52.53422,-1.446493,145.78,8.29,3,26.25,24 / 25,8135811,2019-09-08 14:22:35:050,-2.3661,1.2348,9.4543,-0.0113,0.0009,9.8066,-0.0721,0.3792,-0.0373,-6.25,-35.69,-8.12,206.81,-82.84,-178.54
83223,52.53422,-1.446493,145.78,8.29,3,26.25,24 / 25,8135910,2019-09-08 14:22:35:149,-2.5422,2.1861,10.2718,-0.0103,0.0087,9.8066,0.0515,0.389,-0.0797,-4.87,-36.75,-8.5,201.81,-82.85,-179.89
83224,52.53422,-1.446493,145.78,8.29,3,26.25,24 / 25,8136010,2019-09-08 14:22:35:249,-2.2677,1.278,9.9481,-0.0081,0.0109,9.8066,0.0648,0.388,-0.0613,-3.62,-38.75,-9.81,193.86,-82.81,178.19
83225,52.53422,-1.446493,145.78,8.29,3,26.25,24 / 25,8136110,2019-09-08 14:22:35:349,-3.2909,1.1637,9.667,-0.0171,0.013,9.8065,-0.0796,0.3547,-0.0164,-1.94,-39.81,-7.87,186.24,-82.75,175.98
83226,52.53422,-1.446493,145.78,8.29,3,26.25,24 / 25,8136209,2019-09-08 14:22:35:448,-2.6282,1.3833,9.7544,-0.0003,0.0012,9.8066,-0.0722,0.4406,-0.1167,-0.81,-40.06,-6.69,182.16,-82.79,175.54
83227,52.53422,-1.446493,145.78,8.29,3,26.25,24 / 25,8136310,2019-09-08 14:22:35:549,-2.3372,0.8251,10.5778,-0.0003,-0.0113,9.8066,0.151,0.4017,-0.0437,-0.06,-38.37,-5.12,177.37,-82.74,174.87
83228,52.53422,-1.446493,145.78,8.29,3,26.25,24 / 25,8136410,2019-09-08 14:22:35:649,-1.8131,1.6692,10.8054,-0.0106,-0.0072,9.8066,0.1504,0.3751,-0.0061,0.63,-38.0,-5.37,170.88,-82.81,173.75
83229,52.53422,-1.446493,145.78,8.29,3,26.25,24 / 25,8136510,2019-09-08 14:22:35:749,-2.5299,-0.3804,9.4796,-0.005,0.0234,9.8066,-0.1225,0.3887,-0.0595,0.81,-37.37,-5.12,170.33,-82.78,172.9
83230,52.53422,-1.446493,145.78,8.29,3,26.25,24 / 25,8136610,2019-09-08 14:22:35:849,-2.5022,-0.9463,10.0216,-0.0119,0.0326,9.8065,-0.1849,0.2499,0.0127,0.88,-37.62,-5.12,170.08,-82.54,171.88
83231,52.534786,-1.446157,145.62,7.04,3,333.2,24 / 24,8136711,2019-09-08 14:22:35:950,-2.0132,-0.4127,9.8866,0.0098,0.0399,9.8065,-0.2948,0.4628,-0.1407,1.81,-37.25,-4.25,163.49,-82.45,172.19
83232,52.534786,-1.446157,145.62,7.04,3,333.2,24 / 24,8136809,2019-09-08 14:22:36:048,-1.768,1.8266,11.3387,0.0104,0.0876,9.8062,0.029,0.278,-0.0645,0.94,-36.81,-5.0,169.31,-82.7,170.85
83233,52.534786,-1.446157,145.62,7.04,3,333.2,24 / 24,8136910,2019-09-08 14:22:36:149,-2.6506,1.3451,8.7044,-0.0556,0.0632,9.8062,-0.3518,0.3445,-0.0572,1.31,-38.44,-6.25,168.82,-82.25,168.98
83234,52.534786,-1.446157,145.62,7.04,3,333.2,24 / 24,8137010,2019-09-08 14:22:36:249,0.0968,0.0441,9.1011,-0.0081,-0.0763,9.8063,0.101,0.2129,0.3239,1.44,-39.56,-4.31,169.35,-82.1,169.21
83235,52.534786,-1.446157,145.62,7.04,3,333.2,24 / 24,8137110,2019-09-08 14:22:36:349,-6.1383,-1.5601,9.6971,0.078,-0.089,9.8059,0.0577,0.6286,-0.3172,2.63,-39.31,-3.5,154.98,-82.76,170.75
83236,52.534786,-1.446157,145.62,7.04,3,333.2,24 / 24,8137210,2019-09-08 14:22:36:449,-4.5332,2.6555,9.5969,0.0095,0.0535,9.8064,0.1164,0.4729,-0.2632,3.19,-37.81,-3.06,155.9,-82.27,171.59
83237,52.534786,-1.446157,145.62,7.04,3,333.2,24 / 24,8137310,2019-09-08 14:22:36:549,-3.2007,2.1004,8.6664,-0.0284,0.1045,9.806,0.2266,0.2758,-0.2618,3.31,-38.94,-2.0,155.06,-81.93,171.67
83238,52.534786,-1.446157,145.62,7.04,3,333.2,24 / 24,8137410,2019-09-08 14:22:36:649,-0.2963,-0.9597,9.4768,0.0238,-0.0162,9.8065,-0.2449,0.4267,-0.074,4.13,-40.0,-1.81,149.03,-81.85,171.86
83239,52.534786,-1.446157,145.62,7.04,3,333.2,24 / 24,8137510,2019-09-08 14:22:36:749,-2.2624,0.0657,9.7338,0.0268,-0.0245,9.8065,-0.2845,0.3687,-0.0302,5.69,-38.62,0.0,127.77,-82.0,171.99
83240,52.534786,-1.446157,145.62,7.04,3,333.2,24 / 24,8137610,2019-09-08 14:22:36:849,-3.2256,-0.2692,10.253,0.0072,-0.016,9.8066,0.1863,0.2491,0.0234,6.19,-37.94,1.94,113.49,-82.01,171.57
83241,52.534786,-1.446157,145.62,7.04,3,333.2,25 / 25,8137710,2019-09-08 14:22:36:949,-2.1045,0.124,11.0122,0.0103,-0.0122,9.8066,0.2306,0.2612,-0.0119,5.56,-35.69,2.13,109.69,-82.15,170.69
83242,52.534786,-1.446157,145.62,7.04,3,333.2,25 / 25,8137810,2019-09-08 14:22:37:049,-2.8115,-0.9765,10.0786,-0.0422,0.0223,9.8064,-0.1203,0.2667,-0.0375,4.94,-35.12,1.88,115.73,-81.84,170.81
83243,52.534786,-1.446157,145.62,7.04,3,333.2,25 / 25,8137910,2019-09-08 14:22:37:149,0.0536,-1.1723,9.3299,-0.0241,0.0175,9.8066,-0.1504,0.2958,-0.0217,4.63,-34.19,1.63,114.61,-81.79,170.9
83244,52.534786,-1.446157,145.62,7.04,3,333.2,25 / 25,8138010,2019-09-08 14:22:37:249,-1.4875,-0.2943,9.7029,0.0217,0.0008,9.8066,0.0688,0.2656,-0.031,4.94,-32.69,1.94,113.29,-81.79,171.11
83245,52.534786,-1.446157,145.62,7.04,3,333.2,25 / 25,8138110,2019-09-08 14:22:37:349,-2.26,-0.1245,9.606,0.0178,-0.01,9.8066,0.0321,0.2634,-0.0135,4.88,-32.56,-0.31,128.56,-81.87,171.56
83246,52.534786,-1.446157,145.62,7.04,3,333.2,25 / 25,8138209,2019-09-08 14:22:37:448,-0.6953,0.0978,9.8005,-0.0059,-0.0026,9.8066,0.0242,0.1443,0.0461,5.75,-34.12,-0.56,129.79,-81.76,172.35
83247,52.534786,-1.446157,145.62,7.04,3,333.2,25 / 25,8138309,2019-09-08 14:22:37:548,-0.0059,0.6623,9.7834,0.008,0.0074,9.8066,0.0456,0.0941,0.0361,5.56,-35.0,-0.69,131.03,-81.76,173.13
83248,52.534786,-1.446157,145.62,7.04,3,333.2,25 / 25,8138409,2019-09-08 14:22:37:648,-0.1114,0.0005,9.6941,0.0112,0.0018,9.8066,-0.048,0.1696,-0.009,5.25,-35.81,0.38,132.98,-81.83,174.49
83249,52.534786,-1.446157,145.62,7.04,3,333.2,25 / 25,8138510,2019-09-08 14:22:37:749,-0.5863,0.5691,10.1602,0.0091,-0.0049,9.8066,-0.0537,0.086,0.0609,4.88,-36.19,0.44,133.08,-81.88,175.02
83250,52.534786,-1.446157,145.62,7.04,3,333.2,25 / 25,8138610,2019-09-08 14:22:37:849,0.5208,1.3506,10.1639,-0.0085,0.0131,9.8066,0.0821,0.042,0.0652,4.75,-36.75,0.31,134.18,-81.91,175.78
83251,52.534786,-1.446157,145.62,7.04,3,333.2,24 / 25,8138711,2019-09-08 14:22:37:950,-0.5486,0.0543,9.9728,-0.0033,0.0185,9.8065,0.0631,0.0851,-0.0037,4.25,-37.06,0.0,141.76,-81.74,176.32
83252,52.534786,-1.446157,145.62,7.04,3,333.2,24 / 25,8138810,2019-09-08 14:22:38:049,0.4531,-0.0129,10.1454,0.0005,-0.0039,9.8066,0.0328,0.0452,0.0137,4.38,-37.69,0.0,142.97,-81.63,176.56
83253,52.534786,-1.446157,145.62,7.04,3,333.2,24 / 25,8138910,2019-09-08 14:22:38:149,0.8901,0.0897,10.0521,-0.0013,0.0049,9.8066,0.0409,0.0091,0.0642,5.31,-38.0,-0.31,136.34,-81.6,176.26
83254,52.534786,-1.446157,145.62,7.04,3,333.2,24 / 25,8139010,2019-09-08 14:22:38:249,0.5776,-0.8521,9.8251,-0.0009,-0.0115,9.8066,0.0276,-0.0141,0.0452,5.13,-39.87,-0.69,142.22,-81.6,176.38
83255,52.534786,-1.446157,145.62,7.04,3,333.2,24 / 25,8139110,2019-09-08 14:22:38:349,0.6498,-0.2335,9.5714,0.0128,-0.0094,9.8066,-0.0337,0.0174,0.0238,5.75,-40.56,-0.06,133.19,-81.6,176.46
83256,52.534786,-1.446157,145.62,7.04,3,333.2,24 / 25,8139210,2019-09-08 14:22:38:449,0.0469,0.3156,10.179,-0.0005,0.0046,9.8065,0.0597,0.044,-0.0467,5.75,-42.44,0.75,128.93,-81.62,176.71
83257,52.534786,-1.446157,145.62,7.04,3,333.2,24 / 25,8139310,2019-09-08 14:22:38:549,0.9899,0.0944,10.2055,0.0065,-0.0041,9.8066,0.0899,-0.0176,0.0469,6.5,-42.56,3.31,112.52,-81.66,176.12
83258,52.534786,-1.446157,145.62,7.04,3,333.2,24 / 25,8139410,2019-09-08 14:22:38:649,-1.1703,-0.8773,10.3285,-0.0369,0.0078,9.8065,-0.1092,-0.0719,0.1131,6.38,-41.75,4.63,98.34,-81.65,176.9
83259,52.534786,-1.446157,145.62,7.04,3,333.2,24 / 25,8139510,2019-09-08 14:22:38:749,0.1879,0.2726,8.94,-0.0557,0.0204,9.8064,-0.1378,-0.0058,0.0042,6.31,-41.19,4.38,109.19,-81.33,178.18
83260,52.534786,-1.446157,145.62,7.04,3,333.2,24 / 25,8139611,2019-09-08 14:22:38:850,1.0716,0.4605,9.1073,0.03,-0.0022,9.8065,-0.0125,0.0516,-0.0637,5.94,-39.37,5.38,96.66,-81.49,178.6
83261,52.534786,-1.446157,145.62,7.04,3,333.2,24 / 24,8139709,2019-09-08 14:22:38:948,1.7754,0.5529,10.3508,0.0696,-0.0114,9.8064,-0.1031,0.0751,-0.0836,5.13,-38.25,5.56,86.78,-81.23,178.4
83262,52.534786,-1.446157,145.62,7.04,3,333.2,24 / 24,8139810,2019-09-08 14:22:39:049,-1.1719,-0.5211,10.8172,0.0777,-0.0018,9.8063,0.1211,-0.0225,0.0164,4.56,-36.75,4.81,92.81,-81.75,178.56
83263,52.534786,-1.446157,145.62,7.04,3,333.2,24 / 24,8139910,2019-09-08 14:22:39:149,0.1673,0.9429,11.0049,-0.0795,0.0278,9.8063,0.1336,-0.0782,0.0633,4.06,-36.56,3.44,122.34,-81.39,178.84
83264,52.534786,-1.446157,145.62,7.04,3,333.2,24 / 24,8140010,2019-09-08 14:22:39:249,2.4578,-0.9741,9.1316,-0.0664,0.0214,9.8063,-0.1424,-0.0282,0.0269,4.69,-36.19,3.13,115.34,-81.38,178.98
83265,52.534786,-1.446157,145.62,7.04,3,333.2,24 / 24,8140110,2019-09-08 14:22:39:349,1.2352,-0.1577,9.3634,0.05,-0.0213,9.8064,-0.1308,0.002,-0.0043,5.13,-36.37,2.81,116.33,-81.24,179.32
83266,52.534786,-1.446157,145.62,7.04,3,333.2,24 / 24,8140210,2019-09-08 14:22:39:449,1.6529,0.4285,9.7206,0.0385,-0.0147,9.8065,0.1258,0.0039,-0.0214,4.94,-35.44,3.0,113.81,-81.48,179.79
83267,52.534786,-1.446157,145.62,7.04,3,333.2,24 / 24,8140310,2019-09-08 14:22:39:549,2.035,-0.2318,10.2836,-0.0261,0.0252,9.8066,0.0896,-0.0393,0.0601,4.44,-35.56,2.88,121.29,-81.42,-179.38
83268,52.534786,-1.446157,145.62,7.04,3,333.2,24 / 24,8140410,2019-09-08 14:22:39:649,1.5802,-0.0413,9.487,-0.0081,0.0088,9.8066,-0.0271,-0.0878,0.0617,4.06,-35.37,1.44,137.63,-81.27,-178.8
83269,52.534786,-1.446157,145.62,7.04,3,333.2,24 / 24,8140510,2019-09-08 14:22:39:749,2.2123,-0.7045,9.8495,0.0217,-0.008,9.8066,-0.0712,-0.0049,-0.0189,4.44,-36.62,1.5,132.28,-81.38,-178.27
83270,52.534786,-1.446157,145.62,7.04,3,333.2,24 / 24,8140610,2019-09-08 14:22:39:849,2.4027,0.2021,10.0073,0.0019,-0.0073,9.8066,-0.0524,-0.0789,0.0269,3.88,-36.37,1.94,131.5,-81.32,-177.97
83271,52.534786,-1.446157,145.62,7.04,3,333.2,24 / 24,8140711,2019-09-08 14:22:39:950,1.6189,-0.0877,9.3776,-0.0002,-0.0011,9.8066,-0.0791,-0.0555,-0.0365,3.5,-36.25,2.0,131.43,-81.34,-177.81
83272,52.534786,-1.446157,145.62,7.04,3,333.2,24 / 24,8140810,2019-09-08 14:22:40:049,2.9015,-0.3277,9.3404,-0.0194,0.007,9.8065,-0.0214,-0.1139,-0.0036,2.69,-35.69,2.19,139.44,-81.29,-177.76
83273,52.534786,-1.446157,145.62,7.04,3,333.2,24 / 24,8140910,2019-09-08 14:22:40:149,2.9981,-1.9974,11.0312,0.013,-0.031,9.8066,-0.0097,-0.1462,-0.0019,2.06,-34.87,1.25,154.56,-81.46,-177.83
83274,52.534786,-1.446157,145.62,7.04,3,333.2,24 / 24,8141010,2019-09-08 14:22:40:249,1.1935,0.4779,11.0557,0.0478,-0.0805,9.8061,0.2676,-0.2081,0.075,2.44,-35.87,1.38,154.54,-81.71,-177.69
83275,52.534786,-1.446157,145.62,7.04,3,333.2,24 / 24,8141110,2019-09-08 14:22:40:349,1.9881,1.6749,11.3671,-0.0627,0.1256,9.8056,0.2667,-0.2439,0.0823,1.88,-36.31,0.56,154.41,-81.75,-177.78
83276,52.534786,-1.446157,145.62,7.04,3,333.2,24 / 24,8141210,2019-09-08 14:22:40:449,3.101,-1.3585,9.4338,-0.057,0.1158,9.8057,-0.2595,-0.2351,0.0345,1.75,-36.19,0.69,156.79,-80.95,-177.71
83277,52.534786,-1.446157,145.62,7.04,3,333.2,24 / 24,8141310,2019-09-08 14:22:40:549,2.2781,-0.8535,8.4728,0.0245,-0.0579,9.8064,-0.1878,-0.2107,0.0467,2.13,-36.56,0.5,157.35,-81.0,-177.92
83278,52.534786,-1.446157,145.62,7.04,3,333.2,24 / 24,8141410,2019-09-08 14:22:40:649,4.4654,-0.4444,9.6963,0.0159,-0.0691,9.8063,0.2157,-0.2181,-0.0733,1.88,-36.19,-0.94,162.87,-81.47,-178.29
83279,52.534786,-1.446157,145.62,7.04,3,333.2,24 / 24,8141510,2019-09-08 14:22:40:749,3.3172,-0.1378,10.165,-0.019,0.0472,9.8065,0.1733,-0.3226,0.083,1.5,-35.31,-0.75,162.57,-81.23,-179.47
83280,52.534786,-1.446157,145.62,7.04,3,333.2,24 / 24,8141610,2019-09-08 14:22:40:849,3.2947,-0.7517,10.1901,-0.0153,0.0306,9.8065,-0.1936,-0.4168,0.0891,1.44,-36.75,-1.19,171.33,-81.33,179.94
83281,52.534786,-1.446157,145.62,7.04,3,333.2,25 / 25,8141710,2019-09-08 14:22:40:949,2.514,-2.4824,9.3559,-0.0277,0.0069,9.8065,-0.1296,-0.2937,-0.098,0.94,-36.81,-2.19,172.01,-81.52,178.82
83282,52.534786,-1.446157,145.62,7.04,3,333.2,25 / 25,8141810,2019-09-08 14:22:41:049,3.9602,-0.3876,9.2859,0.0038,-0.0347,9.8065,0.0937,-0.3885,0.0507,0.38,-36.12,-2.5,179.67,-81.54,178.8
83283,52.534786,-1.446157,145.62,7.04,3,333.2,25 / 25,8141910,2019-09-08 14:22:41:149,2.8806,-1.5053,9.681,-0.0162,-0.0189,9.8065,-0.0062,-0.4216,0.0668,0.31,-36.62,-2.87,179.25,-81.71,177.92
83284,52.534786,-1.446157,145.62,7.04,3,333.2,25 / 25,8142010,2019-09-08 14:22:41:249,4.2753,-1.6771,10.1081,0.0204,0.0013,9.8065,0.0345,-0.4389,0.0633,-1.44,-36.81,-3.44,186.41,-81.71,178.78
83285,52.534786,-1.446157,145.62,7.04,3,333.2,25 / 25,8142110,2019-09-08 14:22:41:349,3.6716,-1.6053,9.7289,0.003,-0.0042,9.8066,-0.0155,-0.5292,0.0997,-1.75,-36.94,-4.87,190.46,-81.82,178.79
83286,52.534786,-1.446157,145.62,7.04,3,333.2,25 / 25,8142210,2019-09-08 14:22:41:449,3.3905,-1.9766,9.7456,-0.0052,-0.0088,9.8066,-0.0401,-0.5651,0.0676,-1.87,-36.69,-4.69,190.76,-82.01,179.13
83287,52.534786,-1.446157,145.62,7.04,3,333.2,25 / 25,8142310,2019-09-08 14:22:41:549,2.5159,-0.9215,9.2552,-0.017,-0.0106,9.8066,0.0412,-0.5044,-0.0099,-2.06,-37.06,-6.06,189.32,-82.21,178.19
83288,52.534786,-1.446157,145.62,7.04,3,333.2,25 / 25,8142410,2019-09-08 14:22:41:649,3.0212,-1.2688,9.7555,0.0178,-0.01,9.8065,0.0863,-0.5618,0.1148,-2.75,-36.94,-6.44,193.96,-82.19,177.69
83289,52.534786,-1.446157,145.62,7.04,3,333.2,25 / 25,8142510,2019-09-08 14:22:41:749,3.8429,-1.4883,10.0699,0.0081,-0.0128,9.8065,0.1016,-0.6075,0.1632,-3.37,-37.25,-7.12,194.09,-82.3,179.9
83290,52.534786,-1.446157,145.62,7.04,3,333.2,25 / 25,8142610,2019-09-08 14:22:41:849,3.5121,-1.5141,10.4189,0.0118,0.0072,9.8065,-0.1464,-0.5827,0.1407,-4.0,-38.56,-8.81,197.1,-82.39,-178.12
83291,52.534786,-1.446157,145.62,7.04,3,333.2,25 / 25,8142710,2019-09-08 14:22:41:949,2.8242,-2.5352,9.5184,-0.0049,0.0186,9.8066,-0.173,-0.5884,0.0494,-4.19,-39.44,-8.94,197.19,-82.51,-178.12
83292,52.534786,-1.446157,145.62,7.04,3,333.2,25 / 25,8142810,2019-09-08 14:22:42:049,3.0181,-1.8106,10.0686,-0.0134,-0.0057,9.8066,0.0843,-0.5995,0.0428,-5.06,-40.56,-8.81,200.22,-82.67,-178.87
83293,52.534786,-1.446157,145.62,7.04,3,333.2,25 / 25,8142910,2019-09-08 14:22:42:149,2.0474,-1.5377,9.0847,-0.0232,-0.0137,9.8066,0.0699,-0.5897,0.058,-7.0,-41.69,-8.12,207.96,-82.84,179.96
83294,52.534786,-1.446157,145.62,7.04,3,333.2,25 / 25,8143010,2019-09-08 14:22:42:249,1.5943,-1.3438,9.7105,0.0145,-0.0108,9.8066,-0.141,-0.6528,0.1664,-7.69,-41.62,-6.81,213.6,-82.97,-179.85
83295,52.534786,-1.446157,145.62,7.04,3,333.2,25 / 25,8143110,2019-09-08 14:22:42:349,1.6989,-3.2717,9.3185,-0.0046,0.0008,9.8066,-0.1936,-0.691,0.246,-7.81,-41.19,-5.56,218.27,-83.15,-177.37
83296,52.534786,-1.446157,145.62,7.04,3,333.2,25 / 25,8143210,2019-09-08 14:22:42:449,2.3317,-2.8573,9.5598,-0.034,-0.0468,9.8064,0.071,-0.5617,0.0764,-9.75,-40.12,-5.44,231.07,-83.6,-174.38
83297,52.534786,-1.446157,145.62,7.04,3,333.2,25 / 25,8143310,2019-09-08 14:22:42:549,1.4623,-2.815,9.7991,-0.0321,-0.042,9.8065,0.0594,-0.5289,0.0494,-10.44,-39.81,-5.0,231.88,-83.76,-173.85
83298,52.534786,-1.446157,145.62,7.04,3,333.2,25 / 25,8143410,2019-09-08 14:22:42:649,2.2129,-1.0909,9.5571,0.0443,0.04,9.8064,-0.0737,-0.4896,0.1069,-11.19,-38.81,-4.81,235.24,-83.88,-173.98
83299,52.534786,-1.446157,145.62,7.04,3,333.2,25 / 25,8143510,2019-09-08 14:22:42:749,1.7678,-1.5106,9.2018,0.0602,0.0423,9.8063,-0.0941,-0.475,0.1136,-12.37,-37.25,-4.62,237.79,-83.49,-173.84
83300,52.534786,-1.446157,145.62,7.04,3,333.2,25 / 25,8143611,2019-09-08 14:22:42:850,1.315,-2.5763,9.5654,-0.0247,-0.0468,9.8065,-0.0327,-0.4451,0.0241,-13.94,-36.62,-4.19,248.73,-83.71,-170.33
83301,52.534786,-1.446157,145.62,7.04,3,333.2,24 / 24,8143710,2019-09-08 14:22:42:949,2.2693,-1.5529,10.1837,-0.0168,-0.0259,9.8065,-0.0594,-0.5026,0.0744,-14.56,-36.06,-4.44,252.1,-83.67,-168.91
83302,52.534786,-1.446157,145.62,7.04,3,333.2,24 / 24,8143810,2019-09-08 14:22:43:049,2.3136,-0.7197,10.3887,0.0142,-0.0074,9.8066,0.1258,-0.389,0.0235,-14.87,-36.06,-3.25,256.24,-83.56,-167.59
83303,52.534786,-1.446157,145.62,7.04,3,333.2,24 / 24,8143910,2019-09-08 14:22:43:149,2.5348,-0.8736,10.4301,0.0463,0.0222,9.8065,0.1236,-0.3688,0.0364,-15.44,-35.5,-3.37,256.38,-83.3,-167.27
83304,52.534786,-1.446157,145.62,7.04,3,333.2,24 / 24,8144010,2019-09-08 14:22:43:249,2.2858,0.9426,9.7665,0.0319,0.015,9.8065,-0.1353,-0.2687,0.0311,-15.31,-33.94,-3.0,256.8,-83.3,-167.27
83305,52.534786,-1.446157,145.62,7.04,3,333.2,24 / 24,8144110,2019-09-08 14:22:43:349,1.5734,-1.7419,9.4346,-0.0005,-0.0114,9.8066,-0.1823,-0.3774,0.0661,-14.87,-33.44,-3.44,258.66,-83.22,-165.55
83306,52.534786,-1.446157,145.62,7.04,3,333.2,24 / 24,8144209,2019-09-08 14:22:43:448,0.6607,-0.1239,8.7404,0.0069,-0.0172,9.8066,0.0567,-0.2637,0.0958,-15.25,-33.56,-4.31,256.16,-83.18,-164.27
83307,52.534786,-1.446157,145.62,7.04,3,333.2,24 / 24,8144310,2019-09-08 14:22:43:549,2.0117,1.0494,10.2246,-0.0023,-0.0199,9.8065,0.0824,-0.1602,0.0738,-16.06,-33.37,-4.94,256.07,-83.03,-163.17
83308,52.534786,-1.446157,145.62,7.04,3,333.2,24 / 24,8144410,2019-09-08 14:22:43:649,2.3595,0.1477,9.9553,-0.0225,-0.0082,9.8065,-0.0532,-0.1134,0.0355,-16.44,-33.44,-4.44,260.28,-83.1,-161.94
83309,52.534786,-1.446157,145.62,7.04,3,333.2,24 / 24,8144510,2019-09-08 14:22:43:749,1.1966,0.5344,9.5123,-0.0157,-0.0027,9.8066,-0.1073,-0.1989,-0.0027,-17.5,-33.25,-4.94,260.13,-83.09,-160.7
83310,52.534786,-1.446157,145.62,7.04,3,333.2,24 / 24,8144610,2019-09-08 14:22:43:849,1.3094,0.5672,9.9523,-0.0134,-0.0165,9.8066,0.1632,-0.2162,-0.0129,-18.25,-33.0,-4.56,262.16,-83.1,-160.15
83311,52.534786,-1.446157,145.62,7.04,3,333.2,25 / 25,8144710,2019-09-08 14:22:43:949,2.5368,0.3316,10.3436,0.0331,0.0009,9.8065,0.1239,-0.1782,0.0022,-18.75,-32.62,-4.44,266.29,-83.1,-160.0
83312,52.534786,-1.446157,145.62,7.04,3,333.2,25 / 25,8144810,2019-09-08 14:22:44:049,1.305,-0.1553,9.9695,0.0374,0.0247,9.8065,-0.1361,-0.1119,0.0184,-19.19,-31.81,-4.5,265.69,-82.82,-160.5
83313,52.534786,-1.446157,145.62,7.04,3,333.2,25 / 25,8144910,2019-09-08 14:22:44:149,1.4822,0.3629,9.6425,-0.0332,-0.0259,9.8065,-0.1225,-0.0436,0.0129,-20.06,-30.25,-5.56,262.7,-82.77,-160.24
83314,52.534786,-1.446157,145.62,7.04,3,333.2,25 / 25,8145010,2019-09-08 14:22:44:249,2.4047,0.1313,9.783,-0.0333,-0.0059,9.8065,0.1324,-0.0671,-0.008,-20.81,-30.44,-6.44,264.53,-82.89,-159.75
83315,52.534786,-1.446157,145.62,7.04,3,333.2,25 / 25,8145110,2019-09-08 14:22:44:349,1.9872,1.5727,9.6966,0.0217,0.0169,9.8065,0.127,-0.0437,-0.0275,-19.56,-32.12,-9.06,255.15,-82.68,-160.31
83316,52.534786,-1.446157,145.62,7.04,3,333.2,25 / 25,8145210,2019-09-08 14:22:44:449,1.928,1.0926,9.5272,0.0242,0.0023,9.8066,-0.0648,-0.0472,0.042,-17.94,-34.0,-9.31,252.47,-82.62,-159.06
83317,52.534786,-1.446157,145.62,7.04,3,333.2,25 / 25,8145310,2019-09-08 14:22:44:549,1.1287,0.1521,9.5213,-0.0043,-0.0077,9.8066,0.024,-0.0804,-0.0413,-16.94,-36.56,-8.75,249.55,-82.63,-159.25
83318,52.534786,-1.446157,145.62,7.04,3,333.2,25 / 25,8145410,2019-09-08 14:22:44:649,1.0697,0.6887,9.9008,0.006,-0.0047,9.8066,-0.0528,-0.0751,0.0388,-15.31,-38.69,-7.94,247.36,-82.61,-158.81
83319,52.534786,-1.446157,145.62,7.04,3,333.2,25 / 25,8145510,2019-09-08 14:22:44:749,0.4438,-0.7344,9.8771,-0.0145,-0.0234,9.8066,-0.1175,-0.0742,0.0726,-15.0,-40.37,-6.94,249.46,-82.49,-158.36
83320,52.534786,-1.446157,145.62,7.04,3,333.2,25 / 25,8145610,2019-09-08 14:22:44:849,2.7735,2.0662,9.6856,-0.0101,-0.0111,9.8066,0.0744,-0.0447,-0.0335,-14.69,-40.69,-5.94,252.0,-82.52,-157.89
83321,52.53517,-1.446562,144.49,7.36,2,32.75,25 / 25,8145710,2019-09-08 14:22:44:949,-0.1852,0.0489,9.9899,0.0243,-0.0004,9.8066,0.0117,-0.0667,0.0297,-15.37,-39.75,-2.44,264.46,-82.44,-157.56
83322,52.53517,-1.446562,144.49,7.36,2,32.75,25 / 25,8145810,2019-09-08 14:22:45:049,3.3461,-2.2807,9.7588,-0.0006,0.0245,9.8065,0.204,-0.3247,0.1518,-17.06,-37.37,-2.0,267.84,-82.36,-158.63
83323,52.53517,-1.446562,144.49,7.36,2,32.75,25 / 25,8145910,2019-09-08 14:22:45:149,-1.9551,1.8179,8.9371,0.0017,0.0353,9.8066,-0.3123,-0.2249,0.356,-17.75,-36.94,-1.56,270.35,-82.4,-157.5
83324,52.53517,-1.446562,144.49,7.36,2,32.75,25 / 25,8146010,2019-09-08 14:22:45:249,0.7984,-1.6576,8.7576,0.0127,0.0114,9.8066,-0.3493,-0.0284,0.0948,-19.0,-36.0,-2.31,271.03,-82.22,-158.04
83325,52.53517,-1.446562,144.49,7.36,2,32.75,25 / 25,8146110,2019-09-08 14:22:45:349,-2.3453,1.703,9.2203,-0.0129,-0.0007,9.8066,0.3034,-0.1347,0.1099,-19.81,-34.19,-2.62,270.01,-82.14,-158.03
83326,52.53517,-1.446562,144.49,7.36,2,32.75,25 / 25,8146210,2019-09-08 14:22:45:449,1.2184,3.7401,10.5086,0.0491,-0.0461,9.8064,0.3284,0.2154,-0.3133,-19.62,-34.5,-4.0,268.17,-82.04,-157.06
83327,52.53517,-1.446562,144.49,7.36,2,32.75,25 / 25,8146310,2019-09-08 14:22:45:549,2.8703,-0.4508,10.0265,0.0356,-0.0025,9.8065,-0.4399,0.043,-0.1115,-19.81,-34.19,-5.31,264.97,-82.14,-157.93
83328,52.53517,-1.446562,144.49,7.36,2,32.75,25 / 25,8146410,2019-09-08 14:22:45:649,0.3654,-0.5896,9.1294,0.0401,0.0235,9.8064,-0.4019,-0.0551,0.004,-18.94,-35.69,-5.87,259.66,-81.88,-158.23
83329,52.53517,-1.446562,144.49,7.36,2,32.75,25 / 25,8146510,2019-09-08 14:22:45:749,1.5024,0.3856,9.4034,-0.0597,-0.0415,9.8063,0.2879,-0.073,-0.0229,-17.5,-36.06,-4.87,260.7,-82.13,-156.91
83330,52.53517,-1.446562,144.49,7.36,2,32.75,25 / 25,8146610,2019-09-08 14:22:45:849,-0.7327,0.789,10.3357,-0.0391,-0.0399,9.8064,0.1392,-0.0041,-0.0972,-16.81,-36.56,-4.62,260.38,-82.01,-156.54
83331,52.53517,-1.446562,144.49,7.36,2,32.75,23 / 23,8146710,2019-09-08 14:22:45:949,0.1055,0.2707,9.8962,0.0318,0.0147,9.8066,-0.2125,0.0196,-0.035,-16.56,-36.31,-4.25,263.55,-81.98,-156.51
83332,52.53517,-1.446562,144.49,7.36,2,32.75,23 / 23,8146810,2019-09-08 14:22:46:049,-0.8218,-0.2214,9.9203,0.0123,0.0085,9.8066,-0.1381,-0.0195,0.0334,-17.31,-36.62,-3.81,262.4,-81.81,-156.86
83333,52.53517,-1.446562,144.49,7.36,2,32.75,23 / 23,8146910,2019-09-08 14:22:46:149,-0.8682,-1.4786,10.8327,0.0096,-0.0276,9.8065,0.2837,-0.0114,0.1361,-18.12,-35.0,-3.69,266.56,-81.78,-155.06
83334,52.53517,-1.446562,144.49,7.36,2,32.75,23 / 23,8147010,2019-09-08 14:22:46:249,1.3304,0.0715,10.1647,0.0078,0.0047,9.8066,0.1771,0.1305,-0.0659,-18.56,-35.37,-4.44,268.87,-81.87,-154.33
83335,52.53517,-1.446562,144.49,7.36,2,32.75,23 / 23,8147110,2019-09-08 14:22:46:349,-1.0411,1.6272,8.9577,-0.0044,-0.0087,9.8066,-0.1152,0.0528,0.0648,-18.12,-34.37,-4.75,264.36,-81.96,-155.34
83336,52.53517,-1.446562,144.49,7.36,2,32.75,23 / 23,8147210,2019-09-08 14:22:46:449,1.3377,0.0246,10.2718,0.0418,-0.0208,9.8065,0.0585,0.0104,-0.0905,-17.37,-34.81,-5.44,263.98,-81.71,-153.07
83337,52.53517,-1.446562,144.49,7.36,2,32.75,23 / 23,8147310,2019-09-08 14:22:46:549,1.3606,1.417,8.7182,-0.0077,-0.0172,9.8066,0.0494,-0.011,-0.0283,-18.19,-34.62,-6.5,262.85,-81.83,-153.55
83338,52.53517,-1.446562,144.49,7.36,2,32.75,23 / 23,8147410,2019-09-08 14:22:46:649,-0.3468,-0.7501,9.754,-0.0098,0.0074,9.8066,0.0348,-0.0839,0.0877,-19.0,-35.12,-5.44,267.25,-81.8,-153.18
83339,52.53517,-1.446562,144.49,7.36,2,32.75,23 / 23,8147511,2019-09-08 14:22:46:750,-0.8914,1.7532,9.8164,-0.0014,0.0179,9.8066,0.0994,-0.0408,0.1516,-19.19,-34.19,-3.56,269.5,-81.75,-153.91
83340,52.53517,-1.446562,144.49,7.36,2,32.75,23 / 23,8147610,2019-09-08 14:22:46:849,-0.9031,1.5416,9.4859,0.0247,0.0046,9.8065,-0.009,0.0805,0.0276,-18.62,-34.06,-3.75,269.42,-81.54,-153.61
83341,52.53517,-1.446562,144.49,7.36,2,32.75,24 / 24,8147710,2019-09-08 14:22:46:949,0.4737,-0.1874,9.8194,0.0123,0.0042,9.8066,0.0164,0.0922,0.0055,-18.0,-33.69,-3.62,267.45,-81.6,-154.27
83342,52.53517,-1.446562,144.49,7.36,2,32.75,24 / 24,8147810,2019-09-08 14:22:47:049,0.0526,0.3769,9.3958,0.0043,-0.0046,9.8066,0.0246,0.0492,-0.0133,-16.81,-34.12,-5.12,262.86,-81.57,-154.45
83343,52.53517,-1.446562,144.49,7.36,2,32.75,24 / 24,8147910,2019-09-08 14:22:47:149,1.0158,1.2777,9.4838,0.0045,0.0007,9.8066,0.1036,0.0299,0.0014,-15.31,-35.0,-4.56,258.38,-81.72,-154.92
83344,52.53517,-1.446562,144.49,7.36,2,32.75,24 / 24,8148010,2019-09-08 14:22:47:249,1.0839,1.8622,9.1163,0.0088,0.012,9.8065,0.0249,-0.0024,-0.0608,-16.0,-35.12,-5.69,257.56,-81.68,-155.01
83345,52.53517,-1.446562,144.49,7.36,2,32.75,24 / 24,8148110,2019-09-08 14:22:47:349,0.152,0.152,9.9866,-0.004,-0.0095,9.8066,0.0588,-0.0395,0.0041,-15.56,-36.12,-5.56,257.02,-81.66,-155.05
83346,52.53517,-1.446562,144.49,7.36,2,32.75,24 / 24,8148210,2019-09-08 14:22:47:449,0.119,0.0206,9.0881,0.0126,0.0029,9.8065,-0.0365,0.0651,-0.1206,-15.37,-37.56,-5.56,253.69,-81.59,-155.19
83347,52.53517,-1.446562,144.49,7.36,2,32.75,24 / 24,8148310,2019-09-08 14:22:47:549,-1.5629,1.4966,9.7348,-0.0338,-0.0407,9.8064,0.3333,0.1404,-0.054,-15.62,-37.06,-5.12,258.7,-81.74,-155.74
83348,52.53517,-1.446562,144.49,7.36,2,32.75,24 / 24,8148410,2019-09-08 14:22:47:649,-0.2681,-0.9273,11.7567,-0.0731,-0.1016,9.8058,0.3484,-0.0232,0.0904,-15.37,-37.0,-4.87,261.45,-82.18,-151.66
83349,52.53517,-1.446562,144.49,7.36,2,32.75,24 / 24,8148510,2019-09-08 14:22:47:749,-1.4299,-1.7208,10.8394,0.1181,0.0854,9.8055,-0.2927,0.0041,0.0962,-15.25,-36.87,-4.94,264.46,-82.25,-148.68
