,GPS LATITUDE (degrees), GPS LONGITUDE (degrees), GPS ALTITUDE (m), GPS SPEED (Kmh), GPS ACCURACY (m), GPS ORIENTATION (Â°),GPS SATELLITES IN RANGE, TIME SINCE START (ms), DATE (YYYY-MO-DD HH-MI-SS_SSS), ACCELEROMETER X (m/s²) , ACCELEROMETER Y (m/s²), ACCELEROMETER Z (m/s²), GRAVITY X (m/s²), GRAVITY Y (m/s²), GRAVITY Z (m/s²), GYROSCOPE Yaw (rad/s), GYROSCOPE Pitch (rad/s), GYROSCOPE Roll (rad/s), MAGNETIC FIELD X (Î¼T), MAGNETIC FIELD Y (Î¼T), MAGNETIC FIELD Z (Î¼T), ORIENTATION (Yaw) (Â°), ORIENTATION (Pitch) (Â°), ORIENTATION (Roll ) (Â°)
24415,52.740185,-1.659186,152.37,12.98,6,107.2,23 / 24,2441520,2019-11-06 11:22:28:863,3.2024,1.3395,9.909,0.0444,0.0532,9.8063,0.1131,-0.502,0.1612,-31.62,-36.44,22.25,160.11,-85.29,34.14
24416,52.740185,-1.659186,152.37,12.98,6,107.2,23 / 24,2441620,2019-11-06 11:22:28:963,5.0652,1.8073,9.5181,-0.0204,-0.0006,9.8066,-0.0472,-0.556,0.3244,-31.62,-37.06,21.81,163.97,-85.08,38.22
24417,52.740185,-1.659186,152.37,12.98,6,107.2,23 / 24,2441720,2019-11-06 11:22:29:063,0.4028,-1.9166,9.6963,-0.0597,-0.0481,9.8063,-0.0483,-0.119,0.0879,-31.5,-37.31,22.0,160.12,-85.23,33.25
24418,52.740185,-1.659186,152.37,12.98,6,107.2,23 / 24,2441820,2019-11-06 11:22:29:163,-2.4697,-4.2332,9.7669,0.0281,-0.012,9.8066,0.0944,0.5349,-0.3816,-31.44,-36.37,22.13,160.12,-85.23,33.25
24419,52.740185,-1.659186,152.37,12.98,6,107.2,23 / 24,2441920,2019-11-06 11:22:29:263,-1.6952,-5.2055,10.0997,0.0521,-0.0111,9.8065,0.0165,-0.1128,-0.0247,-31.25,-36.94,22.56,161.59,-85.35,34.86
24420,52.74015,-1.659004,152.39,13.96,4,107.97,22 / 24,2442020,2019-11-06 11:22:29:363,4.3296,1.5594,9.8931,0.0292,0.0265,9.8065,-0.0381,-0.6943,0.4641,-32.06,-36.75,22.44,167.66,-85.31,42.23
24421,52.74015,-1.659004,152.39,13.96,4,107.97,22 / 24,2442119,2019-11-06 11:22:29:462,3.4671,1.2291,9.8803,0.0032,-0.0392,9.8065,0.0616,-0.3329,0.152,-31.62,-36.75,21.81,167.25,-85.54,41.84
24422,52.74015,-1.659004,152.39,13.96,4,107.97,22 / 24,2442219,2019-11-06 11:22:29:562,1.8113,-1.2057,9.8685,-0.0074,-0.0714,9.8063,0.1419,0.0662,-0.0408,-31.31,-36.5,22.13,167.25,-85.54,41.84
24423,52.74015,-1.659004,152.39,13.96,4,107.97,22 / 24,2442319,2019-11-06 11:22:29:662,-0.8023,-4.6567,9.2906,-0.0128,0.0042,9.8066,0.0552,0.2517,-0.1671,-31.12,-36.37,22.13,164.36,-86.19,38.06
24424,52.74015,-1.659004,152.39,13.96,4,107.97,22 / 24,2442420,2019-11-06 11:22:29:763,0.0471,-2.0477,9.1125,0.0011,0.0608,9.8064,-0.0937,-0.1218,0.0349,-31.31,-36.69,22.56,164.84,-85.92,37.28
24425,52.74015,-1.659004,152.39,13.96,4,107.97,22 / 24,2442520,2019-11-06 11:22:29:863,1.7041,0.5775,8.7058,0.0078,0.1008,9.8061,0.0688,-0.2898,0.1731,-31.19,-36.75,21.88,164.84,-85.92,37.28
24426,52.74015,-1.659004,152.39,13.96,4,107.97,22 / 24,2442620,2019-11-06 11:22:29:963,1.0907,0.4715,9.9274,0.0014,-0.0177,9.8065,0.0248,-0.2795,0.1469,-31.19,-36.44,22.06,166.98,-85.42,40.65
24427,52.74015,-1.659004,152.39,13.96,4,107.97,22 / 24,2442720,2019-11-06 11:22:30:063,1.1281,-2.8424,10.2757,-0.0101,-0.0229,9.8066,0.0359,0.1001,-0.1802,-31.75,-37.06,21.81,165.58,-85.58,40.06
24428,52.74015,-1.659004,152.39,13.96,4,107.97,22 / 24,2442820,2019-11-06 11:22:30:163,0.7169,-2.62,10.3145,-0.032,-0.0185,9.8065,-0.1131,0.1898,-0.0025,-31.87,-36.87,22.5,164.12,-85.63,37.34
24429,52.74015,-1.659004,152.39,13.96,4,107.97,22 / 24,2442920,2019-11-06 11:22:30:263,0.2133,-2.4426,10.2717,0.0076,0.0062,9.8066,-0.0179,-0.1568,0.0012,-31.94,-36.75,21.81,164.12,-85.63,37.34
24430,52.740112,-1.658799,152.4,14.99,4,107.8,22 / 24,2443021,2019-11-06 11:22:30:364,2.4975,-1.5005,10.5779,0.0451,0.0077,9.8065,0.1204,-0.2614,0.0441,-31.75,-37.25,22.06,166.3,-85.65,40.84
24431,52.740112,-1.658799,152.4,14.99,4,107.8,22 / 24,2443119,2019-11-06 11:22:30:462,4.7876,2.0141,8.9612,0.0901,0.0737,9.8059,0.0489,-0.3015,0.0198,-31.44,-36.81,22.06,174.19,-85.32,48.38
24432,52.740112,-1.658799,152.4,14.99,4,107.8,22 / 24,2443220,2019-11-06 11:22:30:563,0.4327,-2.7309,9.7805,-0.056,-0.0149,9.8064,0.0898,-0.121,-0.0926,-31.62,-37.56,22.38,174.19,-85.32,48.38
24433,52.740112,-1.658799,152.4,14.99,4,107.8,22 / 24,2443320,2019-11-06 11:22:30:663,1.566,-1.0833,9.5385,-0.0014,0.0402,9.8065,-0.1818,-0.1211,0.0537,-31.25,-37.37,21.94,170.34,-85.36,44.25
24434,52.740112,-1.658799,152.4,14.99,4,107.8,22 / 24,2443420,2019-11-06 11:22:30:763,-0.959,-3.3683,10.5201,-0.015,-0.0342,9.8065,0.1329,-0.2566,0.0723,-31.0,-37.19,22.13,170.88,-85.14,44.8
24435,52.740112,-1.658799,152.4,14.99,4,107.8,22 / 24,2443520,2019-11-06 11:22:30:863,1.8113,-1.2106,9.5375,-0.0133,0.0085,9.8065,0.1028,-0.4864,0.2188,-30.56,-36.75,22.31,170.15,-85.08,44.0
24436,52.740112,-1.658799,152.4,14.99,4,107.8,22 / 24,2443620,2019-11-06 11:22:30:963,3.4005,0.2247,9.8074,0.0124,-0.0206,9.8065,0.0603,-0.153,0.104,-31.31,-36.81,22.56,170.15,-85.08,44.0
24437,52.740112,-1.658799,152.4,14.99,4,107.8,22 / 24,2443720,2019-11-06 11:22:31:063,0.9258,0.5552,8.6074,0.0004,-0.0306,9.8065,-0.1139,0.0567,-0.0613,-30.81,-37.06,22.0,169.67,-85.26,43.52
24438,52.740112,-1.658799,152.4,14.99,4,107.8,22 / 24,2443820,2019-11-06 11:22:31:163,-0.8251,-4.2356,10.3797,-0.0113,-0.0109,9.8066,0.0601,0.2005,-0.0186,-31.0,-36.75,21.94,167.49,-85.66,41.24
24439,52.740112,-1.658799,152.4,14.99,4,107.8,22 / 24,2443920,2019-11-06 11:22:31:263,2.8782,-2.5883,9.6826,0.005,0.0094,9.8066,-0.0243,0.4333,-0.2341,-31.06,-36.94,22.25,167.49,-85.66,41.24
24440,52.74007,-1.658578,152.4,16.1,4,107.79,22 / 23,2444020,2019-11-06 11:22:31:363,3.2521,3.2273,8.4871,-0.0242,-0.0161,9.8066,0.0519,0.1185,-0.0551,-31.19,-36.94,22.88,169.89,-85.57,42.6
24441,52.74007,-1.658578,152.4,16.1,4,107.79,22 / 23,2444120,2019-11-06 11:22:31:463,0.3071,-4.1614,9.752,0.0005,-0.0198,9.8066,0.0494,-0.4653,0.2233,-31.44,-36.69,22.63,166.28,-85.96,38.82
24442,52.74007,-1.658578,152.4,16.1,4,107.79,22 / 23,2444220,2019-11-06 11:22:31:563,-1.7322,-6.4283,10.0824,-0.0031,-0.0091,9.8066,0.0941,-0.8283,0.439,-31.0,-36.69,22.19,164.74,-86.01,38.39
24443,52.74007,-1.658578,152.4,16.1,4,107.79,22 / 23,2444320,2019-11-06 11:22:31:663,3.5514,-1.5806,7.8402,-0.0073,0.0659,9.8064,0.0069,0.1897,-0.117,-31.25,-37.19,22.44,164.74,-86.01,38.39
24444,52.74007,-1.658578,152.4,16.1,4,107.79,22 / 23,2444420,2019-11-06 11:22:31:763,4.3446,3.65,10.6275,0.006,-0.018,9.8066,0.0973,0.6733,-0.4448,-31.81,-36.69,22.25,163.77,-85.79,38.19
24445,52.74007,-1.658578,152.4,16.1,4,107.79,22 / 23,2444520,2019-11-06 11:22:31:863,4.0423,0.8992,10.07,0.0088,-0.056,9.8065,-0.0277,0.2736,-0.1186,-31.25,-37.0,22.44,163.94,-86.11,37.56
24446,52.74007,-1.658578,152.4,16.1,4,107.79,22 / 23,2444620,2019-11-06 11:22:31:963,1.6251,-2.7151,10.17,0.0285,-0.0516,9.8064,0.0301,-0.0424,0.0479,-31.81,-37.31,21.94,163.94,-86.11,37.56
24447,52.74007,-1.658578,152.4,16.1,4,107.79,22 / 23,2444720,2019-11-06 11:22:32:063,2.3168,-1.0334,8.8292,0.0069,0.0094,9.8066,-0.0568,0.0108,0.0716,-32.12,-36.69,22.0,164.2,-86.45,38.8
24448,52.74007,-1.658578,152.4,16.1,4,107.79,22 / 23,2444820,2019-11-06 11:22:32:163,1.6539,-2.5453,8.3119,-0.0373,0.0079,9.8065,-0.0502,-0.0306,-0.0998,-31.5,-36.94,22.25,162.13,-86.34,35.71
24449,52.74007,-1.658578,152.4,16.1,4,107.79,22 / 23,2444920,2019-11-06 11:22:32:263,2.1207,-1.1454,9.5494,-0.0663,0.0352,9.8063,0.0574,0.0425,-0.0312,-31.37,-37.0,21.75,158.08,-86.02,31.32
24450,52.74003,-1.658338,152.43,17.18,4,107.4,22 / 24,2445020,2019-11-06 11:22:32:363,1.4595,0.2909,9.9364,-0.007,0.0146,9.8066,-0.0094,-0.02,0.1303,-31.37,-36.81,21.5,158.08,-86.02,31.32
24451,52.74003,-1.658338,152.43,17.18,4,107.4,22 / 24,2445120,2019-11-06 11:22:32:463,1.094,-1.8865,10.6801,0.0056,-0.0268,9.8066,0.1819,-0.1494,0.1576,-31.44,-36.94,21.69,157.2,-85.95,30.36
24452,52.74003,-1.658338,152.43,17.18,4,107.4,22 / 24,2445220,2019-11-06 11:22:32:563,0.6619,-2.9265,10.733,-0.0008,-0.0058,9.8066,-0.1519,-0.0716,-0.032,-32.19,-36.87,22.81,156.41,-86.23,29.33
24453,52.74003,-1.658338,152.43,17.18,4,107.4,22 / 24,2445320,2019-11-06 11:22:32:663,3.3134,-0.128,10.7214,0.0224,0.0119,9.8065,-0.0579,0.096,0.0427,-32.19,-37.06,22.75,156.41,-86.23,29.33
24454,52.74003,-1.658338,152.43,17.18,4,107.4,22 / 24,2445419,2019-11-06 11:22:32:762,2.6541,-1.9511,9.9988,-0.0283,0.0541,9.8064,0.0283,0.0249,-0.2263,-31.94,-36.75,21.25,159.8,-86.18,33.23
24455,52.74003,-1.658338,152.43,17.18,4,107.4,22 / 24,2445519,2019-11-06 11:22:32:862,1.1363,-1.9116,9.9123,-0.0086,0.0069,9.8066,0.0411,0.115,-0.0057,-31.0,-36.81,21.94,159.24,-85.64,32.43
24456,52.74003,-1.658338,152.43,17.18,4,107.4,22 / 24,2445619,2019-11-06 11:22:32:962,2.047,0.0041,8.5729,0.0076,0.0046,9.8066,-0.1515,0.0583,-0.1211,-31.25,-36.75,21.94,159.87,-85.63,33.1
24457,52.74003,-1.658338,152.43,17.18,4,107.4,22 / 24,2445720,2019-11-06 11:22:33:063,1.7499,-1.5054,9.8312,-0.0126,0.0016,9.8066,0.0516,0.1077,0.0179,-31.06,-37.06,22.5,159.87,-85.63,33.1
24458,52.74003,-1.658338,152.43,17.18,4,107.4,22 / 24,2445820,2019-11-06 11:22:33:163,-0.2717,-2.5628,9.5776,-0.0064,-0.0114,9.8066,-0.017,0.0274,-0.1043,-31.25,-36.56,22.25,159.42,-85.45,32.56
24459,52.74003,-1.658338,152.43,17.18,4,107.4,22 / 24,2445920,2019-11-06 11:22:33:263,2.1163,-0.165,9.3633,0.0095,-0.0098,9.8066,-0.0383,-0.3271,0.1318,-31.0,-36.81,21.63,159.78,-85.53,32.97
24460,52.73998,-1.658088,152.42,17.99,4,107.14,22 / 23,2446020,2019-11-06 11:22:33:363,2.5776,1.5643,8.8708,0.0225,0.0426,9.8065,0.0684,-0.2634,0.059,-31.5,-37.19,21.5,159.78,-85.53,32.97
24461,52.73998,-1.658088,152.42,17.99,4,107.14,22 / 23,2446120,2019-11-06 11:22:33:463,1.6117,-1.2614,9.0995,0.024,0.0588,9.8064,-0.0439,0.0331,-0.0125,-30.75,-37.06,21.81,162.27,-85.33,35.54
24462,52.73998,-1.658088,152.42,17.99,4,107.14,22 / 23,2446220,2019-11-06 11:22:33:563,-0.5981,-5.389,10.4215,-0.0031,0.0575,9.8065,-0.1325,0.4692,-0.1334,-31.19,-37.0,21.31,162.09,-85.01,36.52
24463,52.73998,-1.658088,152.42,17.99,4,107.14,22 / 23,2446320,2019-11-06 11:22:33:663,0.2041,-2.0568,10.405,-0.0286,-0.0992,9.8061,0.1246,0.1327,-0.2333,-31.56,-37.19,21.63,158.26,-85.49,32.22
24464,52.73998,-1.658088,152.42,17.99,4,107.14,22 / 23,2446420,2019-11-06 11:22:33:763,6.0903,5.3583,10.0475,0.0065,-0.0354,9.8065,0.0916,-0.6155,0.4043,-31.75,-37.19,21.5,158.26,-85.49,32.22
24465,52.73998,-1.658088,152.42,17.99,4,107.14,22 / 23,2446520,2019-11-06 11:22:33:863,2.253,0.7955,10.2696,0.0082,0.0068,9.8065,0.0201,-0.9958,0.6477,-31.62,-37.37,22.13,157.68,-85.7,31.67
24466,52.73998,-1.658088,152.42,17.99,4,107.14,22 / 23,2446620,2019-11-06 11:22:33:963,0.353,-4.9666,10.0067,0.0125,0.0049,9.8066,0.0898,-0.3475,0.2871,-31.44,-37.0,21.69,159.49,-85.7,32.72
24467,52.73998,-1.658088,152.42,17.99,4,107.14,22 / 23,2446721,2019-11-06 11:22:34:064,-3.2305,-6.6975,9.2557,-0.0491,-0.065,9.8062,-0.1107,0.9734,-0.5731,-30.94,-36.75,21.31,159.49,-85.7,32.72
24468,52.73998,-1.658088,152.42,17.99,4,107.14,22 / 23,2446820,2019-11-06 11:22:34:163,2.2174,3.3565,9.4723,-0.0023,0.0004,9.8066,-0.0885,0.4826,-0.2713,-31.37,-37.44,21.69,152.92,-85.94,27.04
24469,52.73998,-1.658088,152.42,17.99,4,107.14,22 / 23,2446920,2019-11-06 11:22:34:263,4.0651,5.6022,9.3541,0.0475,0.0453,9.8063,0.0172,-0.2604,0.1366,-31.5,-36.69,21.5,157.25,-85.77,30.35
24470,52.739933,-1.657826,152.42,18.53,4,106.74,22 / 24,2447020,2019-11-06 11:22:34:363,1.1631,-1.2365,9.1785,0.0556,0.0511,9.8063,0.1131,-0.5575,0.3636,-31.44,-36.37,21.69,157.25,-85.77,30.35
24471,52.739933,-1.657826,152.42,18.53,4,106.74,22 / 24,2447120,2019-11-06 11:22:34:463,-1.7291,-1.5179,10.3712,-0.066,-0.026,9.8063,-0.0405,0.0244,-0.0954,-31.62,-37.31,21.31,162.38,-85.6,35.77
24472,52.739933,-1.657826,152.42,18.53,4,106.74,22 / 24,2447220,2019-11-06 11:22:34:563,1.3236,-1.0733,8.9932,0.0012,-0.018,9.8065,0.0007,0.1217,0.0049,-31.62,-36.94,21.81,155.5,-85.64,29.33
24473,52.739933,-1.657826,152.42,18.53,4,106.74,22 / 24,2447320,2019-11-06 11:22:34:663,-0.5885,-0.5523,8.3937,0.0259,-0.0217,9.8065,-0.213,-0.0526,0.0349,-31.31,-36.75,21.31,156.22,-85.82,30.5
24474,52.739933,-1.657826,152.42,18.53,4,106.74,22 / 24,2447420,2019-11-06 11:22:34:763,2.7853,1.7677,10.2354,0.018,0.0433,9.8065,0.0774,-0.3003,0.215,-32.0,-36.62,21.0,156.22,-85.82,30.5
24475,52.739933,-1.657826,152.42,18.53,4,106.74,22 / 24,2447519,2019-11-06 11:22:34:862,5.4935,3.0112,10.1955,0.0397,-0.0463,9.8064,-0.021,0.5335,-0.3846,-31.37,-36.94,21.63,157.9,-85.63,33.1
24476,52.739933,-1.657826,152.42,18.53,4,106.74,22 / 24,2447619,2019-11-06 11:22:34:962,2.6822,-1.2695,11.1523,0.0574,-0.0722,9.8062,-0.1333,0.3118,-0.1718,-31.56,-37.31,20.88,159.87,-86.14,35.35
24477,52.739933,-1.657826,152.42,18.53,4,106.74,22 / 24,2447719,2019-11-06 11:22:35:062,-1.6077,-4.225,10.2078,0.0664,0.0472,9.8063,-0.0187,-0.1766,0.186,-31.44,-37.19,21.19,159.87,-86.14,35.35
24478,52.739933,-1.657826,152.42,18.53,4,106.74,22 / 24,2447820,2019-11-06 11:22:35:163,1.443,1.7884,7.7804,-0.016,0.0675,9.8064,0.0484,-0.647,0.2321,-31.25,-37.5,21.38,166.91,-85.99,41.93
24479,52.739933,-1.657826,152.42,18.53,4,106.74,22 / 24,2447920,2019-11-06 11:22:35:263,1.5542,3.4946,8.2724,-0.0063,0.0042,9.8066,-0.0023,0.0515,-0.2101,-31.5,-37.69,21.44,166.99,-85.58,41.91
24480,52.73988,-1.65756,152.4,18.76,4,106.72,22 / 24,2448020,2019-11-06 11:22:35:363,-0.1689,-0.3291,8.833,0.0107,-0.0129,9.8066,-0.2173,0.2383,-0.0323,-31.31,-37.0,21.19,167.49,-85.67,42.49
24481,52.73988,-1.65756,152.4,18.76,4,106.72,22 / 24,2448120,2019-11-06 11:22:35:463,0.1017,-0.9346,10.1373,0.0568,0.003,9.8065,0.0566,0.0014,-0.0369,-31.37,-37.12,21.31,167.49,-85.67,42.49
24482,52.73988,-1.65756,152.4,18.76,4,106.72,22 / 24,2448220,2019-11-06 11:22:35:563,-0.6434,-0.3842,9.6745,-0.0012,0.005,9.8066,0.164,-0.1044,0.0051,-30.87,-37.12,21.56,171.59,-85.71,46.88
24483,52.73988,-1.65756,152.4,18.76,4,106.72,22 / 24,2448320,2019-11-06 11:22:35:663,-1.7826,0.9275,9.4139,-0.0415,0.0063,9.8065,0.0218,-0.3423,0.3885,-31.44,-36.75,20.81,168.43,-85.79,43.51
24484,52.73988,-1.65756,152.4,18.76,4,106.72,22 / 24,2448419,2019-11-06 11:22:35:762,2.8624,5.2879,9.1495,-0.2494,-0.1146,9.8028,-0.1951,0.3488,-0.0932,-32.19,-36.5,20.5,168.43,-85.79,43.51
24485,52.73988,-1.65756,152.4,18.76,4,106.72,22 / 24,2448520,2019-11-06 11:22:35:863,1.9123,1.855,8.959,-0.1107,-0.0768,9.8057,-0.0834,1.1398,-0.5537,-32.44,-36.87,20.19,145.56,-85.85,21.38
24486,52.73988,-1.65756,152.4,18.76,4,106.72,22 / 24,2448620,2019-11-06 11:22:35:963,-5.5684,-8.7631,9.9105,0.023,0.0178,9.8066,0.0477,0.8957,-0.6459,-33.25,-36.31,20.69,132.3,-85.69,6.97
24487,52.73988,-1.65756,152.4,18.76,4,106.72,22 / 24,2448720,2019-11-06 11:22:36:063,0.6104,-4.7793,10.3464,0.0721,0.0123,9.8064,0.1685,-1.108,0.5847,-32.69,-36.12,20.63,142.61,-85.72,17.82
24488,52.73988,-1.65756,152.4,18.76,4,106.72,22 / 24,2448821,2019-11-06 11:22:36:164,4.1659,2.9309,10.667,0.0924,0.0084,9.8061,0.0243,-0.9207,0.6205,-32.87,-36.37,20.75,142.61,-85.72,17.82
24489,52.73988,-1.65756,152.4,18.76,4,106.72,22 / 24,2448919,2019-11-06 11:22:36:262,5.4734,4.6533,10.2744,-0.0499,-0.064,9.8063,0.048,-0.0283,-0.0102,-32.56,-36.5,21.56,145.17,-86.16,19.89
24490,52.739834,-1.657292,152.38,18.74,4,107.31,22 / 23,2449020,2019-11-06 11:22:36:363,1.6454,-1.4859,9.3284,-0.0607,-0.0667,9.8062,-0.0255,0.8352,-0.528,-32.94,-36.87,21.31,136.88,-86.24,12.04
24491,52.739834,-1.657292,152.38,18.74,4,107.31,22 / 23,2449121,2019-11-06 11:22:36:464,-5.3847,-7.3329,10.0032,-0.0425,0.0177,9.8065,-0.1125,0.6408,-0.4792,-32.56,-36.94,21.63,136.88,-86.24,12.04
24492,52.739834,-1.657292,152.38,18.74,4,107.31,22 / 23,2449220,2019-11-06 11:22:36:563,3.7477,3.4329,9.4541,0.0359,0.0826,9.8061,0.0731,-0.307,0.2702,-32.56,-35.56,20.38,136.34,-85.99,10.45
24493,52.739834,-1.657292,152.38,18.74,4,107.31,22 / 23,2449320,2019-11-06 11:22:36:663,2.7999,4.1598,9.9588,0.041,0.0112,9.8065,0.0784,-0.9299,0.5537,-32.5,-35.81,20.94,142.64,-85.76,17.02
24494,52.739834,-1.657292,152.38,18.74,4,107.31,22 / 23,2449421,2019-11-06 11:22:36:764,-0.9499,0.1746,10.9564,-0.0185,-0.0516,9.8065,0.1153,-0.6288,0.3484,-33.19,-36.75,21.31,138.21,-85.92,13.24
24495,52.739834,-1.657292,152.38,18.74,4,107.31,22 / 23,2449520,2019-11-06 11:22:36:863,-1.9784,-4.3397,10.6447,-0.0689,-0.0687,9.8061,-0.043,0.4858,-0.2847,-33.44,-36.0,21.44,138.21,-85.92,13.24
24496,52.739834,-1.657292,152.38,18.74,4,107.31,22 / 23,2449620,2019-11-06 11:22:36:963,-1.6354,-1.8363,10.4256,-0.012,-0.0143,9.8066,0.0288,0.3361,-0.2964,-33.75,-36.25,21.38,129.7,-85.92,5.24
24497,52.739834,-1.657292,152.38,18.74,4,107.31,22 / 23,2449720,2019-11-06 11:22:37:063,0.8531,1.659,9.4727,0.0162,0.0618,9.8064,0.0121,-0.2155,0.1665,-33.06,-35.87,21.31,130.85,-85.91,5.6
24498,52.739834,-1.657292,152.38,18.74,4,107.31,22 / 23,2449820,2019-11-06 11:22:37:163,1.6606,3.8604,9.8444,-0.0011,0.1382,9.8056,-0.0414,-0.6849,0.3205,-33.37,-35.75,21.38,130.85,-85.91,5.6
24499,52.739834,-1.657292,152.38,18.74,4,107.31,22 / 23,2449920,2019-11-06 11:22:37:263,-1.1647,-2.1449,10.1647,-0.0115,-0.0166,9.8066,-0.0088,0.0142,-0.1359,-33.19,-35.5,21.5,139.43,-85.33,13.08
24500,52.739777,-1.65703,152.37,17.99,4,108.55,22 / 23,2450021,2019-11-06 11:22:37:364,-2.4924,-4.3361,11.2471,0.0026,-0.0483,9.8065,-0.0236,0.4933,-0.2241,-33.12,-35.75,21.56,136.56,-85.56,10.18
24501,52.739777,-1.65703,152.37,17.99,4,108.55,22 / 23,2450120,2019-11-06 11:22:37:463,1.1772,-1.5878,10.1342,0.0105,0.0635,9.8064,-0.1296,0.4846,-0.3068,-33.12,-35.62,22.56,136.0,-85.82,8.6
24502,52.739777,-1.65703,152.37,17.99,4,108.55,22 / 23,2450220,2019-11-06 11:22:37:563,4.6227,6.0092,8.3207,0.0088,0.1479,9.8054,-0.0995,-0.0135,-0.1528,-32.62,-36.0,21.75,136.0,-85.82,8.6
24503,52.739777,-1.65703,152.37,17.99,4,108.55,22 / 23,2450320,2019-11-06 11:22:37:663,2.4719,2.3383,8.5295,-0.0393,0.0005,9.8065,0.1166,-0.9792,0.3195,-32.75,-35.69,21.56,146.41,-84.76,19.32
24504,52.739777,-1.65703,152.37,17.99,4,108.55,22 / 23,2450419,2019-11-06 11:22:37:762,-3.1013,-6.4895,11.3615,-0.0421,-0.0377,9.8064,0.0986,-0.3731,0.3315,-32.37,-35.94,21.06,139.3,-84.71,12.89
24505,52.739777,-1.65703,152.37,17.99,4,108.55,22 / 23,2450520,2019-11-06 11:22:37:863,-0.9076,-2.5114,10.0966,-0.0653,-0.0144,9.8063,-0.1768,0.3808,-0.3009,-33.12,-35.56,21.81,139.3,-84.71,12.89
24506,52.739777,-1.65703,152.37,17.99,4,108.55,22 / 23,2450620,2019-11-06 11:22:37:963,-0.1953,-0.6712,8.844,-0.0209,0.0839,9.8063,-0.0087,0.5274,-0.4278,-32.75,-35.5,21.63,136.3,-84.51,9.29
24507,52.739777,-1.65703,152.37,17.99,4,108.55,22 / 23,2450720,2019-11-06 11:22:38:063,2.9135,5.4877,9.4293,-0.0054,0.0503,9.8065,0.0508,-0.8244,0.3728,-32.56,-35.19,21.38,140.77,-83.74,14.92
24508,52.739777,-1.65703,152.37,17.99,4,108.55,22 / 23,2450820,2019-11-06 11:22:38:163,-0.019,-1.8394,10.7975,0.0126,0.0634,9.8064,0.1872,-0.6801,0.4007,-32.44,-35.12,21.31,144.09,-83.49,17.49
24509,52.739777,-1.65703,152.37,17.99,4,108.55,22 / 23,2450920,2019-11-06 11:22:38:263,-3.4594,-4.6618,10.7653,-0.0188,-0.0536,9.8064,-0.0153,-0.2138,-0.0395,-32.87,-34.75,21.31,144.09,-83.49,17.49
24510,52.739727,-1.656778,152.29,17.42,4,108.94,21 / 22,2451021,2019-11-06 11:22:38:364,-1.8735,-1.9635,9.7305,-0.0026,0.0027,9.8066,0.0358,0.5437,-0.1704,-32.37,-34.87,21.44,141.71,-83.68,15.02
24511,52.739727,-1.656778,152.29,17.42,4,108.94,21 / 22,2451121,2019-11-06 11:22:38:464,4.9291,6.625,9.2802,0.0195,0.0603,9.8064,-0.1354,0.4702,-0.2162,-32.87,-36.31,21.56,141.8,-83.65,15.0
24512,52.739727,-1.656778,152.29,17.42,4,108.94,21 / 22,2451220,2019-11-06 11:22:38:563,2.9709,5.9188,8.992,-0.051,0.0324,9.8064,0.0018,-0.4529,0.2841,-32.5,-36.19,21.13,145.16,-83.2,18.41
24513,52.739727,-1.656778,152.29,17.42,4,108.94,21 / 22,2451320,2019-11-06 11:22:38:663,-5.7306,-3.1318,10.4907,-0.1798,-0.0255,9.8049,0.0741,-0.8738,0.4286,-32.56,-37.06,20.69,137.89,-82.66,10.98
24514,52.739727,-1.656778,152.29,17.42,4,108.94,21 / 22,2451420,2019-11-06 11:22:38:763,-3.7576,-1.5849,10.6656,-0.0351,0.0019,9.8065,0.0282,-0.5376,0.3655,-32.44,-36.31,21.13,137.89,-82.66,10.98
24515,52.739727,-1.656778,152.29,17.42,4,108.94,21 / 22,2451520,2019-11-06 11:22:38:863,-0.1023,2.1198,10.5252,0.0107,0.0509,9.8065,-0.1866,0.6645,-0.2034,-32.06,-36.62,20.38,137.22,-82.32,10.35
24516,52.739727,-1.656778,152.29,17.42,4,108.94,21 / 22,2451620,2019-11-06 11:22:38:963,1.0026,6.0089,10.5784,-0.0272,0.0303,9.8065,-0.0739,0.5331,-0.526,-32.0,-37.06,20.81,141.38,-81.89,13.49
24517,52.739727,-1.656778,152.29,17.42,4,108.94,21 / 22,2451720,2019-11-06 11:22:39:063,-2.8209,0.8203,10.0066,-0.059,0.0574,9.8063,-0.0269,-0.0056,0.2392,-33.0,-35.81,20.31,141.38,-81.89,13.49
24518,52.739727,-1.656778,152.29,17.42,4,108.94,21 / 22,2451819,2019-11-06 11:22:39:162,-4.9729,-2.8263,11.3687,0.0094,-0.0758,9.8063,0.1469,-0.4931,-0.0256,-32.69,-36.81,20.31,138.32,-81.52,11.24
24519,52.739727,-1.656778,152.29,17.42,4,108.94,21 / 22,2451919,2019-11-06 11:22:39:262,-1.1423,-1.1974,10.0081,0.0513,-0.0245,9.8064,0.2285,-0.2513,-0.0605,-32.5,-36.62,20.88,137.41,-82.17,9.27
24520,52.739677,-1.656535,152.24,15.97,4,107.15,21 / 23,2452020,2019-11-06 11:22:39:363,4.5044,3.0366,8.3082,0.1198,0.0214,9.8059,-0.0556,0.3944,0.0041,-32.62,-36.75,21.06,137.41,-82.17,9.27
24521,52.739677,-1.656535,152.24,15.97,4,107.15,21 / 23,2452120,2019-11-06 11:22:39:463,-0.7302,2.4409,9.4265,0.0127,-0.0004,9.8065,-0.1397,0.7486,-0.4479,-32.25,-36.37,20.88,140.5,-82.53,13.89
24522,52.739677,-1.656535,152.24,15.97,4,107.15,21 / 23,2452220,2019-11-06 11:22:39:563,-7.0391,-2.9839,11.2338,-0.0383,0.0185,9.8065,-0.0608,0.7688,-0.4684,-32.25,-36.19,20.31,138.21,-82.3,11.56
24523,52.739677,-1.656535,152.24,15.97,4,107.15,21 / 23,2452320,2019-11-06 11:22:39:663,2.528,3.65,9.3144,-0.0312,0.0945,9.8061,0.1476,-0.4331,0.2251,-32.81,-36.87,20.13,139.27,-81.76,13.17
24524,52.739677,-1.656535,152.24,15.97,4,107.15,21 / 23,2452421,2019-11-06 11:22:39:764,3.1516,6.0776,10.0622,0.1251,0.1411,9.8048,0.0465,-0.4802,0.3302,-32.37,-35.94,21.13,139.27,-81.76,13.17
24525,52.739677,-1.656535,152.24,15.97,4,107.15,21 / 23,2452520,2019-11-06 11:22:39:863,1.3763,0.2466,10.212,0.0824,0.0187,9.8062,0.0341,0.0337,0.1115,-32.12,-36.19,20.63,147.85,-81.54,20.62
24526,52.739677,-1.656535,152.24,15.97,4,107.15,21 / 23,2452620,2019-11-06 11:22:39:963,-2.4535,-6.3233,10.9654,0.0463,-0.0424,9.8064,0.0921,0.7109,-0.3101,-31.94,-36.75,20.0,147.34,-81.9,21.31
24527,52.739677,-1.656535,152.24,15.97,4,107.15,21 / 23,2452720,2019-11-06 11:22:40:063,0.3886,-1.9703,9.6925,-0.0827,-0.0335,9.8061,0.0535,0.4682,-0.052,-31.94,-36.19,19.81,147.34,-81.9,21.31
24528,52.739677,-1.656535,152.24,15.97,4,107.15,21 / 23,2452822,2019-11-06 11:22:40:165,4.5288,4.5559,10.2676,0.0793,0.1556,9.805,-0.0804,0.1153,-0.1152,-32.69,-36.5,19.19,142.94,-81.78,17.72
24529,52.739677,-1.656535,152.24,15.97,4,107.15,21 / 23,2452919,2019-11-06 11:22:40:262,2.0215,0.3572,10.4846,0.0372,0.069,9.8063,0.047,-0.4401,0.3745,-32.31,-36.06,18.81,148.59,-81.29,23.79
24530,52.73964,-1.656303,152.2,14.96,4,102.05,21 / 23,2453020,2019-11-06 11:22:40:363,0.4317,-1.4721,10.744,0.0807,0.0964,9.8058,0.1033,-0.2794,0.192,-32.12,-36.37,18.38,148.59,-81.29,23.79
24531,52.73964,-1.656303,152.2,14.96,4,102.05,21 / 23,2453120,2019-11-06 11:22:40:463,1.971,2.6904,10.5132,-0.0021,0.0403,9.8065,-0.1235,0.4214,-0.1151,-32.5,-35.75,18.06,152.66,-81.03,28.26
24532,52.73964,-1.656303,152.2,14.96,4,102.05,21 / 23,2453220,2019-11-06 11:22:40:563,1.1013,3.8581,10.5428,-0.0167,0.0425,9.8065,0.0128,0.2849,-0.1047,-32.5,-35.81,17.63,152.13,-80.81,28.87
24533,52.73964,-1.656303,152.2,14.96,4,102.05,21 / 23,2453320,2019-11-06 11:22:40:663,-3.7209,1.7177,11.3853,-0.0184,0.0845,9.8062,-0.1272,0.2358,0.0286,-32.37,-36.5,17.63,153.0,-80.33,29.67
24534,52.73964,-1.656303,152.2,14.96,4,102.05,21 / 23,2453420,2019-11-06 11:22:40:763,-2.6641,0.6516,10.6133,0.074,-0.0273,9.8062,0.1139,0.1214,-0.1059,-32.62,-36.12,17.31,153.0,-80.33,29.67
24535,52.73964,-1.656303,152.2,14.96,4,102.05,21 / 23,2453520,2019-11-06 11:22:40:863,0.5208,5.213,9.1215,0.0297,-0.0187,9.8066,0.0868,-0.3428,0.3165,-32.56,-36.81,17.06,153.42,-80.66,31.6
24536,52.73964,-1.656303,152.2,14.96,4,102.05,21 / 23,2453620,2019-11-06 11:22:40:963,1.3811,6.48,9.9598,-0.0048,0.0306,9.8065,0.0791,0.1571,-0.0244,-32.44,-37.12,16.44,153.33,-80.82,32.81
24537,52.73964,-1.656303,152.2,14.96,4,102.05,21 / 23,2453720,2019-11-06 11:22:41:063,-0.986,1.5478,10.2042,-0.0172,0.0181,9.8065,-0.0812,0.7118,-0.3255,-32.06,-36.37,16.13,153.33,-80.82,32.81
24538,52.73964,-1.656303,152.2,14.96,4,102.05,21 / 23,2453820,2019-11-06 11:22:41:163,-4.3528,-4.6407,9.856,0.0518,0.0999,9.8059,-0.0864,0.9135,-0.5266,-32.31,-37.0,16.5,153.62,-80.68,32.55
24539,52.73964,-1.656303,152.2,14.96,4,102.05,21 / 23,2453920,2019-11-06 11:22:41:263,-0.6459,4.78,9.6358,0.0216,0.0315,9.8065,-0.0726,-0.4756,0.231,-32.37,-36.56,16.31,157.78,-80.33,37.73
24540,52.73962,-1.656096,152.16,11.93,4,94.2,21 / 23,2454020,2019-11-06 11:22:41:363,0.8231,6.9862,10.8576,-0.0035,-0.0049,9.8066,-0.0636,-0.725,0.5694,-32.56,-37.12,16.38,156.93,-80.35,37.55
24541,52.73962,-1.656096,152.16,11.93,4,94.2,21 / 23,2454120,2019-11-06 11:22:41:463,-1.4701,5.8884,10.318,-0.0594,-0.0301,9.8064,-0.0859,0.7568,-0.3337,-32.81,-36.56,15.56,156.93,-80.35,37.55
24542,52.73962,-1.656096,152.16,11.93,4,94.2,21 / 23,2454220,2019-11-06 11:22:41:563,0.1561,5.0035,10.3196,0.0316,0.0214,9.8065,-0.0487,0.3352,-0.22,-32.56,-36.5,15.75,156.4,-79.93,36.79
24543,52.73962,-1.656096,152.16,11.93,4,94.2,21 / 23,2454320,2019-11-06 11:22:41:663,-1.764,1.4511,9.9289,-0.0072,-0.0183,9.8065,-0.0398,0.2671,-0.2417,-32.94,-36.25,15.69,157.9,-79.87,38.61
24544,52.73962,-1.656096,152.16,11.93,4,94.2,21 / 23,2454420,2019-11-06 11:22:41:763,-6.3692,-3.51,10.6914,-0.0414,-0.0574,9.8063,0.0,-0.2649,0.2153,-31.87,-37.0,15.69,157.9,-79.87,38.61
24545,52.73962,-1.656096,152.16,11.93,4,94.2,21 / 23,2454519,2019-11-06 11:22:41:862,-3.4775,-0.3079,9.9648,-0.0011,0.0817,9.8063,0.0831,-0.6705,0.3283,-31.62,-36.62,14.5,155.64,-80.09,36.57
24546,52.73962,-1.656096,152.16,11.93,4,94.2,21 / 23,2454620,2019-11-06 11:22:41:963,-0.756,3.6426,11.3037,0.0391,0.0214,9.8065,-0.0343,-0.5264,0.2775,-32.19,-36.75,14.44,156.54,-79.42,38.82
24547,52.73962,-1.656096,152.16,11.93,4,94.2,21 / 23,2454720,2019-11-06 11:22:42:063,-3.4986,-3.3418,10.999,0.0445,0.04,9.8064,-0.0057,0.6892,-0.5505,-31.75,-37.12,14.06,158.1,-79.3,40.6
24548,52.73962,-1.656096,152.16,11.93,4,94.2,21 / 23,2454820,2019-11-06 11:22:42:163,-3.9474,-4.6161,10.1024,-0.0479,-0.0411,9.8063,-0.1371,0.7331,-0.183,-31.87,-37.37,13.69,158.1,-79.3,40.6
24549,52.73962,-1.656096,152.16,11.93,4,94.2,21 / 23,2454920,2019-11-06 11:22:42:263,-0.1364,2.4212,10.5951,-0.0605,-0.0391,9.8063,-0.0377,0.2338,-0.2213,-33.06,-36.5,14.19,155.69,-79.42,38.7
24550,52.739616,-1.655941,152.05,8.26,4,90.35,23 / 24,2455019,2019-11-06 11:22:42:362,1.6348,7.2064,11.139,-0.0277,0.0213,9.8065,0.011,-0.4719,0.3747,-32.5,-36.81,14.0,156.06,-79.23,38.19
24551,52.739616,-1.655941,152.05,8.26,4,90.35,23 / 24,2455120,2019-11-06 11:22:42:463,-1.9609,1.4703,10.8968,-0.011,0.0222,9.8065,-0.0014,-0.8903,0.5105,-33.25,-37.06,13.63,156.06,-79.23,38.19
24552,52.739616,-1.655941,152.05,8.26,4,90.35,23 / 24,2455219,2019-11-06 11:22:42:562,-5.0081,-4.2807,9.7983,0.0338,0.0487,9.8064,0.0305,0.7213,-0.3409,-32.56,-36.75,13.25,156.08,-79.09,38.15
24553,52.739616,-1.655941,152.05,8.26,4,90.35,23 / 24,2455320,2019-11-06 11:22:42:663,-3.1972,2.1767,9.7818,-0.021,-0.011,9.8065,-0.084,0.1699,-0.0648,-32.56,-37.0,12.69,156.1,-78.87,40.31
24554,52.739616,-1.655941,152.05,8.26,4,90.35,23 / 24,2455420,2019-11-06 11:22:42:763,-1.9028,5.4869,10.3714,-0.0232,-0.0066,9.8066,-0.0064,-0.3577,0.2713,-32.25,-36.62,13.06,155.23,-78.94,38.58
24555,52.739616,-1.655941,152.05,8.26,4,90.35,23 / 24,2455520,2019-11-06 11:22:42:863,-3.0224,3.5467,10.6646,-0.0066,0.0294,9.8065,0.1038,-0.4928,0.2694,-32.31,-37.0,12.63,155.23,-78.94,38.58
24556,52.739616,-1.655941,152.05,8.26,4,90.35,23 / 24,2455620,2019-11-06 11:22:42:963,-5.5502,-1.9012,10.7795,0.0279,0.0258,9.8065,0.0569,0.2533,-0.0721,-32.94,-36.62,13.0,155.8,-78.56,40.47
24557,52.739616,-1.655941,152.05,8.26,4,90.35,23 / 24,2455720,2019-11-06 11:22:43:063,-5.5825,-0.6687,11.1352,-0.0038,-0.0516,9.8065,-0.0029,0.4652,-0.1694,-32.75,-36.56,13.13,157.55,-78.62,41.93
24558,52.739616,-1.655941,152.05,8.26,4,90.35,23 / 24,2455820,2019-11-06 11:22:43:163,-2.81,3.5197,10.2011,0.0067,-0.0973,9.8061,0.0122,0.4775,-0.2016,-32.69,-37.06,13.13,157.55,-78.62,41.93
24559,52.739616,-1.655941,152.05,8.26,4,90.35,23 / 24,2455920,2019-11-06 11:22:43:263,-2.8931,1.941,10.6755,0.0623,0.0103,9.8064,0.0692,0.1756,-0.0456,-33.5,-37.19,13.5,157.81,-79.16,40.96
24560,52.739616,-1.655844,152.1,3.89,4,85.42,23 / 24,2456021,2019-11-06 11:22:43:364,-3.1223,0.0675,10.6025,0.1171,0.0479,9.8057,0.0346,-0.0615,0.0692,-32.31,-37.12,12.94,160.54,-79.13,44.89
24561,52.739616,-1.655844,152.1,3.89,4,85.42,23 / 24,2456120,2019-11-06 11:22:43:463,-2.8068,-0.5016,9.7846,0.0728,-0.0321,9.8063,0.0412,0.3983,-0.1033,-32.75,-37.06,13.19,161.44,-79.44,46.73
24562,52.739616,-1.655844,152.1,3.89,4,85.42,23 / 24,2456220,2019-11-06 11:22:43:563,-0.9024,0.9258,9.2997,0.0479,-0.0291,9.8064,-0.0305,0.2379,-0.0217,-32.5,-37.37,12.94,161.44,-79.44,46.73
24563,52.739616,-1.655844,152.1,3.89,4,85.42,23 / 24,2456320,2019-11-06 11:22:43:663,-0.5735,1.0713,9.5689,-0.0076,-0.0317,9.8065,0.0047,0.0199,0.1254,-33.25,-36.69,12.5,162.39,-79.69,47.91
24564,52.739616,-1.655844,152.1,3.89,4,85.42,23 / 24,2456420,2019-11-06 11:22:43:763,-0.6156,-0.3904,10.0593,-0.0271,-0.0065,9.8066,-0.0286,-0.0962,0.1489,-33.44,-37.06,12.5,160.98,-79.93,46.34
24565,52.739616,-1.655844,152.1,3.89,4,85.42,23 / 24,2456520,2019-11-06 11:22:43:863,-1.7886,-2.5058,10.3179,-0.0463,0.0214,9.8065,-0.0286,0.1899,-0.0401,-33.87,-37.06,12.06,160.98,-79.93,46.34
24566,52.739616,-1.655844,152.1,3.89,4,85.42,23 / 24,2456621,2019-11-06 11:22:43:964,-0.6933,-1.1101,10.4522,0.0174,0.043,9.8065,-0.0065,0.2525,-0.0899,-33.44,-36.75,11.63,158.73,-79.72,45.14
24567,52.739616,-1.655844,152.1,3.89,4,85.42,23 / 24,2456720,2019-11-06 11:22:44:063,0.3864,0.6115,9.9249,0.0266,0.0187,9.8065,0.0296,0.2842,-0.0792,-33.19,-36.56,10.94,159.58,-79.39,47.54
24568,52.739616,-1.655844,152.1,3.89,4,85.42,23 / 24,2456820,2019-11-06 11:22:44:163,0.1735,-0.1398,9.7599,0.0027,-0.0048,9.8066,-0.0553,0.2032,-0.0324,-33.19,-36.87,11.38,160.87,-79.4,49.06
24569,52.739616,-1.655844,152.1,3.89,4,85.42,23 / 24,2456919,2019-11-06 11:22:44:262,-0.5082,-0.9996,9.6521,-0.011,-0.0083,9.8066,-0.0452,0.0472,0.0855,-33.31,-37.56,11.31,160.87,-79.4,49.06
24570,52.73962,-1.655826,152.1,0.0,4,77.31,22 / 24,2457020,2019-11-06 11:22:44:363,-1.0209,-1.8559,9.5616,-0.0141,-0.0086,9.8066,0.0001,0.1486,0.0974,-32.75,-37.37,10.25,158.71,-79.41,48.07
24571,52.73962,-1.655826,152.1,0.0,4,77.31,22 / 24,2457120,2019-11-06 11:22:44:463,-0.1857,-0.8398,9.5485,-0.0087,0.0085,9.8066,-0.0418,0.2986,-0.0688,-33.31,-37.0,9.69,158.11,-79.39,47.36
24572,52.73962,-1.655826,152.1,0.0,4,77.31,22 / 24,2457220,2019-11-06 11:22:44:563,0.0106,-0.2222,9.7113,-0.0183,0.0213,9.8065,-0.0835,0.3532,-0.0831,-32.94,-36.81,9.75,158.11,-79.39,47.36
24573,52.73962,-1.655826,152.1,0.0,4,77.31,22 / 24,2457319,2019-11-06 11:22:44:662,-0.6657,-1.1057,9.8194,-0.0085,0.0591,9.8064,-0.0187,0.1058,-0.0376,-32.56,-36.69,8.88,158.44,-79.24,47.08
24574,52.73962,-1.655826,152.1,0.0,4,77.31,22 / 24,2457420,2019-11-06 11:22:44:763,-0.2463,-1.7421,9.6774,0.0262,0.0437,9.8065,0.0108,0.0625,0.0409,-32.12,-36.81,8.81,158.4,-78.67,48.45
24575,52.73962,-1.655826,152.1,0.0,4,77.31,22 / 24,2457520,2019-11-06 11:22:44:863,-0.2309,-1.2608,9.7856,0.0584,0.0841,9.806,-0.0021,0.1304,-0.0542,-32.31,-37.69,8.31,159.3,-78.33,50.92
24576,52.73962,-1.655826,152.1,0.0,4,77.31,22 / 24,2457620,2019-11-06 11:22:44:963,-0.1975,-0.1726,9.8252,0.0481,0.0479,9.8064,0.0091,0.2737,-0.0032,-32.19,-37.12,8.38,159.3,-78.33,50.92
24577,52.73962,-1.655826,152.1,0.0,4,77.31,22 / 24,2457720,2019-11-06 11:22:45:063,0.1476,-0.4121,9.7889,0.0297,0.0059,9.8065,-0.0104,0.1874,0.0811,-31.81,-37.06,7.5,160.7,-78.16,52.68
24578,52.73962,-1.655826,152.1,0.0,4,77.31,22 / 24,2457820,2019-11-06 11:22:45:163,0.2308,-1.432,9.6778,0.0383,-0.0089,9.8065,0.0169,0.0428,0.0084,-31.94,-37.44,7.25,160.08,-78.29,53.63
24579,52.73962,-1.655826,152.1,0.0,4,77.31,22 / 24,2457920,2019-11-06 11:22:45:263,-0.2594,-2.6226,9.5569,0.0074,-0.0109,9.8066,-0.018,0.0329,0.1406,-31.81,-37.94,7.69,160.08,-78.29,53.63
24580,52.73962,-1.655826,152.1,0.0,4,77.31,21 / 22,2458020,2019-11-06 11:22:45:363,-0.0815,-1.563,9.7497,0.0193,0.0307,9.8065,-0.0148,0.1301,-0.019,-32.81,-37.25,6.94,160.14,-78.36,53.73
24581,52.73962,-1.655826,152.1,0.0,4,77.31,21 / 22,2458120,2019-11-06 11:22:45:463,0.2551,-0.8473,9.8847,0.015,0.0181,9.8065,0.0088,0.2603,-0.0556,-31.81,-36.94,7.0,160.85,-78.23,54.55
24582,52.73962,-1.655826,152.1,0.0,4,77.31,21 / 22,2458220,2019-11-06 11:22:45:563,0.6544,-1.1741,9.8728,0.0551,0.0287,9.8064,-0.0032,0.2352,-0.0586,-31.19,-36.62,7.13,162.74,-78.17,56.3
24583,52.73962,-1.655826,152.1,0.0,4,77.31,21 / 22,2458320,2019-11-06 11:22:45:663,0.5687,-2.3267,9.6488,0.0382,0.0141,9.8065,0.0141,0.1128,0.0091,-31.69,-36.44,6.63,162.74,-78.17,56.3
24584,52.73962,-1.655826,152.1,0.0,4,77.31,21 / 22,2458420,2019-11-06 11:22:45:763,0.2867,-2.7055,9.5899,0.0212,0.0222,9.8066,0.0155,0.0136,0.0481,-31.12,-37.0,6.63,163.7,-78.16,57.46
24585,52.73962,-1.655826,152.1,0.0,4,77.31,21 / 22,2458520,2019-11-06 11:22:45:863,0.4268,-1.4226,9.787,0.0277,0.0259,9.8066,-0.0148,0.2061,-0.0608,-31.06,-37.06,7.06,165.16,-77.9,59.16
24586,52.73962,-1.655826,152.1,0.0,4,77.31,21 / 22,2458619,2019-11-06 11:22:45:962,1.0345,-0.763,9.6418,0.0731,0.053,9.8062,0.0089,0.2676,-0.0567,-30.44,-37.25,6.88,165.16,-77.9,59.16
24587,52.73962,-1.655826,152.1,0.0,4,77.31,21 / 22,2458721,2019-11-06 11:22:46:064,1.1061,-1.1543,9.5977,0.0248,0.0166,9.8066,0.0084,0.2742,-0.0707,-30.5,-37.19,5.19,166.04,-77.7,61.47
24588,52.73962,-1.655826,152.1,0.0,4,77.31,21 / 22,2458820,2019-11-06 11:22:46:163,0.8673,-1.8133,9.6869,0.0382,0.0254,9.8064,0.0063,0.2113,-0.0246,-30.37,-37.62,5.63,167.58,-77.57,63.26
24589,52.73962,-1.655826,152.1,0.0,4,77.31,21 / 22,2458919,2019-11-06 11:22:46:262,1.007,-1.258,9.6892,0.0292,0.0125,9.8065,0.0008,0.1429,0.0479,-30.62,-37.31,5.19,167.54,-77.37,65.48
24590,52.73962,-1.655826,152.08,0.0,4,58.54,23 / 24,2459021,2019-11-06 11:22:46:364,1.3014,-0.871,9.624,0.0519,0.0201,9.8065,-0.0022,0.273,-0.0052,-30.69,-37.0,5.06,167.54,-77.37,65.48
24591,52.73963,-1.655792,152.08,0.0,6,58.54,23 / 24,2459120,2019-11-06 11:22:46:463,0.8591,-1.6556,10.2189,0.027,0.0157,9.8066,-0.0186,0.2859,-0.0292,-29.37,-37.69,4.38,169.39,-77.27,67.35
24592,52.73963,-1.655792,152.08,0.0,6,58.54,23 / 24,2459220,2019-11-06 11:22:46:563,1.3612,-0.9135,10.1892,0.0608,0.0582,9.8062,0.0082,0.3345,-0.117,-29.19,-37.81,4.19,169.76,-76.99,69.18
24593,52.73963,-1.655792,152.08,0.0,6,58.54,23 / 24,2459320,2019-11-06 11:22:46:663,3.0409,-0.8682,9.8458,0.0512,0.0456,9.8063,0.0091,0.3535,-0.0317,-28.94,-37.69,3.88,169.76,-76.99,69.18
24594,52.73963,-1.655792,152.08,0.0,6,58.54,23 / 24,2459419,2019-11-06 11:22:46:762,2.2566,0.1825,9.9904,0.0792,0.0312,9.8063,0.0408,0.5038,-0.1189,-28.19,-37.56,3.5,175.58,-76.54,74.2
24595,52.73963,-1.655792,152.08,0.0,6,58.54,23 / 24,2459519,2019-11-06 11:22:46:862,1.1818,0.4416,10.4679,0.0472,0.0212,9.8065,-0.0984,0.3849,-0.021,-27.25,-38.25,3.06,175.39,-76.24,77.65
24596,52.73963,-1.655792,152.08,0.0,6,58.54,23 / 24,2459619,2019-11-06 11:22:46:962,0.9239,-0.2039,10.238,0.0711,0.0372,9.8062,-0.0598,0.366,0.1381,-27.0,-37.37,1.56,175.14,-76.05,79.44
24597,52.73963,-1.655792,152.08,0.0,6,58.54,23 / 24,2459720,2019-11-06 11:22:47:063,1.9601,-1.2765,9.2672,0.0602,0.0375,9.8063,-0.0485,0.4527,-0.0214,-26.12,-37.25,1.06,175.14,-76.05,79.44
24598,52.73963,-1.655792,152.08,0.0,6,58.54,23 / 24,2459820,2019-11-06 11:22:47:163,0.9589,-0.1221,9.7682,0.0697,0.0297,9.8063,-0.0083,0.6482,-0.085,-26.12,-37.31,0.5,176.34,-75.73,82.96
24599,52.73963,-1.655792,152.08,0.0,6,58.54,23 / 24,2459920,2019-11-06 11:22:47:263,-0.1579,0.8954,10.0024,0.125,0.0492,9.8057,-0.0925,0.6592,-0.0206,-24.56,-37.81,-0.19,176.99,-75.47,85.94
24600,52.739647,-1.655742,152.07,2.72,6,33.99,22 / 24,2460020,2019-11-06 11:22:47:363,-1.1756,-0.3874,10.0726,0.1105,-0.0041,9.806,-0.0045,0.5254,0.0708,-24.25,-38.19,-0.94,176.99,-75.47,85.94
24601,52.739647,-1.655742,152.07,2.72,6,33.99,22 / 24,2460122,2019-11-06 11:22:47:465,-1.3097,-1.6411,10.2191,0.0613,-0.0051,9.8064,-0.0477,0.494,0.0689,-23.12,-37.12,-2.94,175.42,-75.51,88.52
24602,52.739647,-1.655742,152.07,2.72,6,33.99,22 / 24,2460220,2019-11-06 11:22:47:563,-1.4417,-1.8725,9.7143,0.0859,0.0108,9.8062,-0.011,0.6246,0.0696,-22.12,-37.56,-3.81,174.12,-75.61,92.13
24603,52.739647,-1.655742,152.07,2.72,6,33.99,22 / 24,2460321,2019-11-06 11:22:47:664,-1.4806,-0.1886,9.9005,0.29,0.0803,9.802,0.0032,0.7236,-0.0672,-21.12,-37.31,-3.5,180.58,-75.22,98.94
24604,52.739647,-1.655742,152.07,2.72,6,33.99,22 / 24,2460420,2019-11-06 11:22:47:763,0.0113,0.2141,10.0044,0.0813,0.0192,9.8062,-0.0815,0.7297,-0.0994,-20.31,-37.37,-3.87,180.58,-75.22,98.94
24605,52.739647,-1.655742,152.07,2.72,6,33.99,22 / 24,2460520,2019-11-06 11:22:47:863,-0.7448,-1.1175,9.7825,0.0426,0.0081,9.8065,-0.1075,0.5672,0.0241,-18.75,-36.69,-3.81,180.0,-74.97,101.88
24606,52.739647,-1.655742,152.07,2.72,6,33.99,22 / 24,2460620,2019-11-06 11:22:47:963,-1.2444,-2.3639,9.8212,0.0699,-0.0014,9.8063,-0.0281,0.4425,0.0837,-17.75,-37.44,-4.5,181.09,-74.92,104.15
24607,52.739647,-1.655742,152.07,2.72,6,33.99,22 / 24,2460720,2019-11-06 11:22:48:063,-0.4886,-0.7035,10.0779,0.1358,-0.0148,9.8056,-0.0803,0.6852,-0.0275,-17.19,-37.12,-5.5,181.09,-74.92,104.15
24608,52.739647,-1.655742,152.07,2.72,6,33.99,22 / 24,2460820,2019-11-06 11:22:48:163,-1.5971,0.2258,10.1563,0.0532,0.0116,9.8064,-0.0747,0.7288,-0.1306,-15.44,-37.31,-5.62,180.7,-74.99,108.43
24609,52.739647,-1.655742,152.07,2.72,6,33.99,22 / 24,2460920,2019-11-06 11:22:48:263,-0.493,-0.3563,9.9709,0.0597,0.0154,9.8064,-0.0256,0.7024,-0.0874,-15.0,-36.81,-6.19,179.44,-74.8,110.93
24610,52.739674,-1.655728,152.06,2.31,6,359.01,23 / 24,2461020,2019-11-06 11:22:48:363,-0.247,-0.6367,10.3065,0.1218,0.0268,9.8058,-0.0728,0.6291,-0.0146,-14.12,-36.62,-5.62,179.44,-74.8,110.93
24611,52.739674,-1.655728,152.06,2.31,6,359.01,23 / 24,2461119,2019-11-06 11:22:48:462,-1.0868,-0.4479,9.599,0.1739,0.0103,9.805,-0.0278,0.5605,-0.0278,-12.25,-36.56,-5.25,179.3,-74.64,113.62
24612,52.739674,-1.655728,152.06,2.31,6,359.01,23 / 24,2461220,2019-11-06 11:22:48:563,-1.1968,-0.637,9.7641,0.0805,-0.0115,9.8062,0.0167,0.5631,0.1201,-11.69,-36.44,-5.44,182.84,-74.56,117.44
24613,52.739674,-1.655728,152.06,2.31,6,359.01,23 / 24,2461319,2019-11-06 11:22:48:662,-0.5894,0.5884,10.2808,0.2695,-0.0293,9.8029,-0.0054,0.6343,-0.0551,-10.0,-36.87,-4.81,183.7,-74.57,123.4
24614,52.739674,-1.655728,152.06,2.31,6,359.01,23 / 24,2461420,2019-11-06 11:22:48:763,0.5278,0.8587,10.2696,0.2088,-0.0191,9.8044,-0.069,0.8175,-0.1379,-9.25,-37.06,-4.56,183.7,-74.57,123.4
24615,52.739674,-1.655728,152.06,2.31,6,359.01,23 / 24,2461519,2019-11-06 11:22:48:862,-1.1843,-0.989,9.9284,0.0961,-0.0195,9.8061,0.0167,0.6138,0.1213,-8.37,-36.69,-3.75,187.24,-74.55,128.0
24616,52.739674,-1.655728,152.06,2.31,6,359.01,23 / 24,2461620,2019-11-06 11:22:48:963,-1.1148,-1.5927,9.623,0.0839,-0.0291,9.8062,0.008,0.5113,-0.0468,-7.94,-36.75,-2.94,190.26,-74.62,132.28
24617,52.739674,-1.655728,152.06,2.31,6,359.01,23 / 24,2461720,2019-11-06 11:22:49:063,1.4943,0.0398,10.1536,0.2402,-0.0771,9.8033,-0.0164,0.523,0.1188,-6.5,-36.31,-2.19,191.86,-74.74,137.84
24618,52.739674,-1.655728,152.06,2.31,6,359.01,23 / 24,2461820,2019-11-06 11:22:49:163,0.0487,-1.0275,9.8567,0.0485,-0.0184,9.8065,0.0045,0.4844,-0.0211,-5.56,-36.19,-2.31,191.86,-74.74,137.84
24619,52.739674,-1.655728,152.06,2.31,6,359.01,23 / 24,2461920,2019-11-06 11:22:49:263,-0.2436,0.8002,10.1558,0.0154,0.0102,9.8066,-0.0693,0.41,-0.0635,-5.25,-36.12,-1.0,193.38,-74.66,139.9
24620,52.739697,-1.655744,152.05,3.5,6,325.61,23 / 24,2462021,2019-11-06 11:22:49:364,0.8596,2.6415,10.1396,0.0121,-0.009,9.8065,-0.0938,0.4309,-0.0273,-3.87,-36.12,-0.62,190.84,-74.7,140.21
24621,52.739697,-1.655744,152.05,3.5,6,325.61,23 / 24,2462120,2019-11-06 11:22:49:463,0.394,1.3941,10.0065,0.1088,-0.0599,9.8058,-0.0185,0.457,0.0291,-3.56,-36.19,-0.75,190.84,-74.7,140.21
24622,52.739697,-1.655744,152.05,3.5,6,325.61,23 / 24,2462220,2019-11-06 11:22:49:563,0.5061,-1.7261,10.1528,0.1742,-0.0329,9.805,0.086,0.4269,0.0498,-3.44,-36.12,0.94,195.24,-74.9,142.86
24623,52.739697,-1.655744,152.05,3.5,6,325.61,23 / 24,2462320,2019-11-06 11:22:49:663,-0.1441,-2.3689,9.7748,0.2707,-0.0569,9.8027,0.0257,0.2176,-0.0042,-3.81,-36.12,1.56,204.43,-74.73,148.99
24624,52.739697,-1.655744,152.05,3.5,6,325.61,23 / 24,2462420,2019-11-06 11:22:49:763,1.302,-0.1251,10.2277,0.1372,-0.0166,9.8056,0.0737,0.0633,0.1581,-3.75,-36.94,2.0,204.03,-74.46,151.87
24625,52.739697,-1.655744,152.05,3.5,6,325.61,23 / 24,2462520,2019-11-06 11:22:49:863,-0.1952,-1.8468,10.1555,-0.0102,-0.0163,9.8066,-0.0667,-0.0524,-0.0346,-3.62,-37.06,1.63,204.03,-74.46,151.87
24626,52.739697,-1.655744,152.05,3.5,6,325.61,23 / 24,2462620,2019-11-06 11:22:49:963,1.4927,-1.7677,9.4148,-0.0143,0.0095,9.8066,-0.0252,0.0847,-0.1159,-2.81,-36.19,1.56,201.22,-74.58,151.81
24627,52.739697,-1.655744,152.05,3.5,6,325.61,23 / 24,2462720,2019-11-06 11:22:50:063,0.5168,-0.8672,9.5458,-0.0222,-0.0282,9.8066,-0.0252,0.1765,-0.0802,-2.87,-36.44,1.69,201.46,-74.78,151.58
24628,52.739697,-1.655744,152.05,3.5,6,325.61,23 / 24,2462820,2019-11-06 11:22:50:163,0.0297,-0.9662,10.4295,-0.0001,-0.0247,9.8066,-0.0522,0.0278,-0.1329,-2.75,-36.37,2.0,201.46,-74.78,151.58
24629,52.739697,-1.655744,152.05,3.5,6,325.61,23 / 24,2462919,2019-11-06 11:22:50:262,0.3851,0.4257,10.2209,0.0087,-0.0073,9.8066,-0.0541,-0.0932,-0.0183,-2.87,-36.0,1.38,197.1,-75.03,151.17
24630,52.73973,-1.655801,151.9,4.83,6,317.05,23 / 24,2463020,2019-11-06 11:22:50:363,0.1664,0.0572,9.9083,-0.0072,0.0135,9.8066,0.0372,-0.2142,0.1986,-3.12,-36.19,1.5,201.87,-75.07,151.78
24631,52.73973,-1.655801,151.9,4.83,6,317.05,23 / 24,2463120,2019-11-06 11:22:50:463,1.7035,0.5952,10.118,-0.0285,0.0371,9.8065,-0.0089,-0.1263,-0.074,-3.37,-36.81,1.44,201.87,-75.07,151.78
24632,52.73973,-1.655801,151.9,4.83,6,317.05,23 / 24,2463220,2019-11-06 11:22:50:563,1.2805,-1.574,10.3848,-0.0351,0.0103,9.8065,-0.0175,0.1322,-0.0172,-3.87,-36.37,1.44,204.97,-74.96,150.18
24633,52.73973,-1.655801,151.9,4.83,6,317.05,23 / 24,2463320,2019-11-06 11:22:50:663,0.6732,-0.7901,10.7554,-0.0126,0.0028,9.8066,0.0237,0.0828,-0.0989,-3.19,-35.75,1.5,201.51,-75.02,149.03
24634,52.73973,-1.655801,151.9,4.83,6,317.05,23 / 24,2463420,2019-11-06 11:22:50:763,-1.1079,1.3158,9.7872,-0.0169,0.0022,9.8066,-0.0571,-0.0707,0.0827,-3.06,-36.44,1.31,197.17,-75.04,148.65
24635,52.73973,-1.655801,151.9,4.83,6,317.05,23 / 24,2463520,2019-11-06 11:22:50:863,-0.0073,-0.3643,10.3981,0.0189,-0.0072,9.8066,0.0147,-0.1878,0.1275,-3.06,-35.37,1.13,197.17,-75.04,148.65
24636,52.73973,-1.655801,151.9,4.83,6,317.05,23 / 24,2463620,2019-11-06 11:22:50:963,1.5101,-1.3334,10.0557,0.0268,-0.005,9.8066,0.0368,-0.1296,0.1747,-2.69,-36.25,1.31,197.3,-75.05,149.44
24637,52.73973,-1.655801,151.9,4.83,6,317.05,23 / 24,2463720,2019-11-06 11:22:51:063,2.2919,-2.5417,10.3104,0.0528,-0.018,9.8065,-0.0202,0.3365,-0.1623,-2.94,-36.19,1.13,197.49,-75.06,150.7
24638,52.73973,-1.655801,151.9,4.83,6,317.05,23 / 24,2463820,2019-11-06 11:22:51:163,0.0033,0.243,10.1678,0.0181,0.0043,9.8066,0.0083,0.1542,-0.1196,-3.06,-36.31,1.0,197.49,-75.06,150.7
24639,52.73973,-1.655801,151.9,4.83,6,317.05,23 / 24,2463920,2019-11-06 11:22:51:263,-2.043,0.8376,9.5418,-0.0022,-0.0068,9.8066,-0.0314,-0.1481,0.0985,-3.31,-36.44,2.0,197.48,-75.0,151.06
24640,52.73978,-1.655872,151.75,6.86,6,316.88,22 / 24,2464020,2019-11-06 11:22:51:363,-1.0983,0.3321,9.2308,-0.0101,-0.0048,9.8066,0.0442,-0.2516,0.1221,-2.94,-36.06,2.0,201.74,-75.05,150.88
24641,52.73978,-1.655872,151.75,6.86,6,316.88,22 / 24,2464119,2019-11-06 11:22:51:462,0.8833,-2.9348,9.3497,-0.0091,0.0223,9.8065,0.1325,0.1345,-0.1349,-3.0,-36.37,2.69,206.35,-74.95,150.5
24642,52.73978,-1.655872,151.75,6.86,6,316.88,22 / 24,2464220,2019-11-06 11:22:51:563,1.5858,-1.9709,10.018,0.0302,-0.0376,9.8065,-0.072,0.2522,-0.0049,-3.31,-36.12,2.63,206.35,-74.95,150.5
24643,52.73978,-1.655872,151.75,6.86,6,316.88,22 / 24,2464320,2019-11-06 11:22:51:663,-0.3187,-0.7615,9.853,0.021,-0.0083,9.8066,0.0031,0.0906,-0.1048,-2.5,-36.12,1.88,197.69,-75.06,151.49
24644,52.73978,-1.655872,151.75,6.86,6,316.88,22 / 24,2464420,2019-11-06 11:22:51:763,0.3897,0.076,10.5788,-0.0006,-0.0373,9.8065,0.0069,-0.0724,0.095,-3.25,-35.94,1.75,202.14,-75.27,151.74
24645,52.73978,-1.655872,151.75,6.86,6,316.88,22 / 24,2464520,2019-11-06 11:22:51:863,1.1415,-0.0261,10.6873,-0.0344,-0.0158,9.8065,0.0679,-0.0759,-0.0068,-3.44,-35.75,1.75,202.14,-75.27,151.74
24646,52.73978,-1.655872,151.75,6.86,6,316.88,22 / 24,2464620,2019-11-06 11:22:51:963,0.2635,-0.8343,9.9668,-0.0137,-0.0126,9.8065,-0.0485,0.1472,0.0089,-3.19,-36.12,1.56,197.5,-75.43,151.14
24647,52.73978,-1.655872,151.75,6.86,6,316.88,22 / 24,2464720,2019-11-06 11:22:52:063,-1.1482,-0.2614,9.7864,-0.0055,-0.0072,9.8066,-0.0738,0.0067,-0.0013,-3.19,-36.5,1.81,202.39,-75.55,150.57
24648,52.73978,-1.655872,151.75,6.86,6,316.88,22 / 24,2464820,2019-11-06 11:22:52:163,-1.0469,-1.661,9.6765,0.0122,-0.0071,9.8066,0.0572,0.0476,-0.0349,-3.12,-35.69,1.81,202.45,-75.56,150.9
24649,52.73978,-1.655872,151.75,6.86,6,316.88,22 / 24,2464920,2019-11-06 11:22:52:263,-0.2877,-0.7008,10.0871,-0.0055,-0.0343,9.8065,-0.0736,-0.0039,0.0305,-3.0,-36.25,1.56,202.45,-75.56,150.9
24650,52.739834,-1.655962,151.61,8.28,6,316.71,22 / 23,2465021,2019-11-06 11:22:52:364,0.6972,0.0155,10.3271,-0.0086,-0.0236,9.8065,-0.0002,0.0189,0.008,-2.75,-36.37,1.19,198.42,-75.9,150.99
24651,52.739834,-1.655962,151.61,8.28,6,316.71,22 / 23,2465120,2019-11-06 11:22:52:463,0.8182,-0.782,9.8991,-0.0142,-0.065,9.8063,-0.0036,0.1388,-0.0965,-3.75,-36.81,1.56,206.55,-76.29,151.16
24652,52.739834,-1.655962,151.61,8.28,6,316.71,22 / 23,2465220,2019-11-06 11:22:52:563,1.0782,-2.4904,10.3251,0.0004,0.0038,9.8066,0.0368,-0.0045,-0.0507,-3.87,-35.75,1.19,206.55,-76.29,151.16
24653,52.739834,-1.655962,151.61,8.28,6,316.71,22 / 23,2465320,2019-11-06 11:22:52:663,-0.0706,2.9185,10.3595,0.0375,-0.0445,9.8064,0.0211,-0.2329,0.0217,-3.25,-36.12,0.56,198.99,-76.38,151.06
24654,52.739834,-1.655962,151.61,8.28,6,316.71,22 / 23,2465420,2019-11-06 11:22:52:763,0.9343,2.7403,11.011,-0.0193,-0.053,9.8065,-0.2296,-0.1422,0.3053,-3.69,-36.12,1.13,203.83,-76.81,153.16
24655,52.739834,-1.655962,151.61,8.28,6,316.71,22 / 23,2465520,2019-11-06 11:22:52:863,-1.3833,0.2143,10.088,-0.0398,-0.0391,9.8065,-0.0442,0.2453,0.0326,-3.5,-35.94,0.94,203.83,-76.81,153.16
24656,52.739834,-1.655962,151.61,8.28,6,316.71,22 / 23,2465620,2019-11-06 11:22:52:963,2.1131,-4.7772,10.5679,-0.0113,-0.0152,9.8066,-0.0534,0.5073,-0.3103,-4.37,-35.94,0.94,204.39,-77.26,152.81
24657,52.739834,-1.655962,151.61,8.28,6,316.71,22 / 23,2465720,2019-11-06 11:22:53:063,2.517,-4.6509,9.9192,0.0244,0.0002,9.8065,0.0779,-0.224,0.1809,-4.19,-36.19,1.13,204.3,-77.28,152.34
24658,52.739834,-1.655962,151.61,8.28,6,316.71,22 / 23,2465820,2019-11-06 11:22:53:163,0.3113,-2.5834,10.1273,0.0524,0.0022,9.8065,0.234,-0.4472,0.2018,-4.31,-36.56,1.25,203.88,-77.14,153.57
24659,52.739834,-1.655962,151.61,8.28,6,316.71,22 / 23,2465920,2019-11-06 11:22:53:263,-2.2521,-0.7133,9.7584,0.0606,0.0273,9.8063,-0.0214,-0.0867,0.038,-4.69,-36.5,0.88,203.88,-77.14,153.57
24660,52.739895,-1.656062,151.44,9.54,6,318.14,23 / 24,2466021,2019-11-06 11:22:53:364,-0.8598,0.0505,10.2375,-0.0184,0.0406,9.8065,0.0385,0.1898,-0.1985,-4.19,-36.62,1.44,203.35,-76.68,154.15
24661,52.739895,-1.656062,151.44,9.54,6,318.14,23 / 24,2466119,2019-11-06 11:22:53:462,1.3115,-1.9186,10.6525,-0.0297,0.0667,9.8064,0.0079,-0.0837,-0.0312,-3.75,-36.62,1.31,202.65,-76.38,152.82
24662,52.739895,-1.656062,151.44,9.54,6,318.14,23 / 24,2466219,2019-11-06 11:22:53:562,1.1937,-0.7051,10.0653,-0.0327,0.0324,9.8065,0.0824,-0.1919,0.1101,-3.31,-36.69,1.06,202.65,-76.38,152.82
24663,52.739895,-1.656062,151.44,9.54,6,318.14,23 / 24,2466319,2019-11-06 11:22:53:662,-3.5841,1.3156,10.6179,-0.0143,0.0474,9.8065,-0.0756,-0.1388,0.1463,-3.25,-36.94,0.81,198.37,-76.28,151.77
24664,52.739895,-1.656062,151.44,9.54,6,318.14,23 / 24,2466420,2019-11-06 11:22:53:763,-1.0794,1.342,11.0219,0.0109,-0.0147,9.8066,0.0609,-0.0203,0.0139,-3.31,-37.0,1.06,198.07,-76.0,150.83
24665,52.739895,-1.656062,151.44,9.54,6,318.14,23 / 24,2466520,2019-11-06 11:22:53:863,3.7293,-2.6465,10.4008,0.0549,0.0041,9.8064,-0.1571,0.6011,-0.1977,-3.31,-36.44,1.0,198.55,-75.87,152.05
24666,52.739895,-1.656062,151.44,9.54,6,318.14,23 / 24,2466620,2019-11-06 11:22:53:963,0.6303,1.0094,10.0133,0.0041,0.0049,9.8066,0.1283,0.5127,-0.403,-3.87,-36.19,0.75,198.55,-75.87,152.05
24667,52.739895,-1.656062,151.44,9.54,6,318.14,23 / 24,2466719,2019-11-06 11:22:54:062,-4.7408,2.3986,9.3135,-0.0538,-0.0233,9.8064,-0.1737,0.1673,-0.0233,-3.62,-36.31,1.06,202.36,-75.86,152.28
24668,52.739895,-1.656062,151.44,9.54,6,318.14,23 / 24,2466819,2019-11-06 11:22:54:162,-2.4891,-3.193,8.8705,-0.0273,-0.0362,9.8065,-0.0502,-0.3538,0.0132,-3.19,-36.44,0.69,198.89,-76.37,150.53
24669,52.739895,-1.656062,151.44,9.54,6,318.14,23 / 24,2466920,2019-11-06 11:22:54:263,3.7429,-7.7166,8.6,-0.0063,-0.0682,9.8063,0.114,-0.633,0.2904,-3.12,-37.06,0.31,198.89,-76.37,150.53
24670,52.739975,-1.656176,151.31,10.61,6,317.71,23 / 24,2467020,2019-11-06 11:22:54:363,2.039,-4.8525,8.6884,-0.0164,0.025,9.8065,0.1421,0.1552,-0.1765,-4.0,-36.75,0.44,198.58,-76.64,151.17
24671,52.739975,-1.656176,151.31,10.61,6,317.71,23 / 24,2467120,2019-11-06 11:22:54:463,-4.9734,1.2966,9.7009,-0.0319,0.0398,9.8064,-0.2127,0.4374,-0.1181,-3.19,-36.69,-0.06,198.58,-76.64,151.17
24672,52.739975,-1.656176,151.31,10.61,6,317.71,23 / 24,2467220,2019-11-06 11:22:54:563,0.3214,-1.8457,9.225,0.0033,0.0118,9.8065,0.0022,0.666,-0.4654,-3.19,-36.62,0.88,198.5,-76.48,150.09
24673,52.739975,-1.656176,151.31,10.61,6,317.71,23 / 24,2467320,2019-11-06 11:22:54:663,3.0624,-5.5049,10.4954,0.025,0.0381,9.8065,-0.1281,-0.1428,0.0532,-4.31,-36.25,0.88,202.43,-76.26,150.42
24674,52.739975,-1.656176,151.31,10.61,6,317.71,23 / 24,2467420,2019-11-06 11:22:54:763,0.3974,-1.7956,10.5759,0.0088,0.0312,9.8066,0.1412,-0.2024,0.3411,-3.25,-36.69,0.5,202.43,-76.26,150.42
24675,52.739975,-1.656176,151.31,10.61,6,317.71,23 / 24,2467520,2019-11-06 11:22:54:863,-1.9486,-2.7398,9.7156,-0.0017,-0.0199,9.8066,-0.1458,-0.263,0.1312,-4.06,-36.25,1.0,197.96,-76.08,149.5
24676,52.739975,-1.656176,151.31,10.61,6,317.71,23 / 24,2467620,2019-11-06 11:22:54:963,-2.1524,-4.5927,8.8899,-0.0529,-0.009,9.8065,-0.001,-0.2615,0.0239,-3.75,-36.69,0.0,197.83,-76.37,149.36
24677,52.739975,-1.656176,151.31,10.61,6,317.71,23 / 24,2467720,2019-11-06 11:22:55:063,-0.5402,-3.4309,9.1763,-0.0542,-0.0304,9.8064,0.0965,-0.0971,0.0256,-4.12,-37.06,-0.75,194.14,-76.64,148.29
24678,52.739975,-1.656176,151.31,10.61,6,317.71,23 / 24,2467820,2019-11-06 11:22:55:163,-1.7101,-3.5433,9.7732,0.0061,0.0087,9.8066,-0.04,-0.1385,-0.0143,-3.94,-36.94,0.06,194.14,-76.64,148.29
24679,52.739975,-1.656176,151.31,10.61,6,317.71,23 / 24,2467920,2019-11-06 11:22:55:263,-2.7313,-4.6495,8.8393,-0.03,-0.0071,9.8065,0.0188,-0.013,-0.0109,-4.12,-37.31,0.88,201.65,-76.51,147.89
24680,52.74005,-1.656301,151.23,11.12,4,319.56,22 / 24,2468020,2019-11-06 11:22:55:363,-2.2168,-1.1269,9.0956,-0.0478,-0.0802,9.8061,-0.0336,-0.0563,0.1423,-3.87,-36.75,0.56,202.24,-77.05,147.5
24681,52.74005,-1.656301,151.23,11.12,4,319.56,22 / 24,2468120,2019-11-06 11:22:55:463,0.4937,-1.8613,9.2194,-0.0013,-0.0306,9.8065,0.0405,0.1703,-0.0438,-4.06,-36.87,0.75,202.24,-77.05,147.5
24682,52.74005,-1.656301,151.23,11.12,4,319.56,22 / 24,2468220,2019-11-06 11:22:55:563,0.7023,-4.2597,9.1855,-0.0281,0.0435,9.8065,0.0152,0.3675,-0.2539,-4.37,-36.69,0.13,198.62,-77.21,147.78
24683,52.74005,-1.656301,151.23,11.12,4,319.56,22 / 24,2468320,2019-11-06 11:22:55:663,1.436,-4.3416,10.0261,-0.0355,0.0707,9.8063,-0.0883,0.2679,-0.1502,-4.69,-36.19,0.63,205.12,-76.89,146.33
24684,52.74005,-1.656301,151.23,11.12,4,319.56,22 / 24,2468421,2019-11-06 11:22:55:764,-0.5011,0.6351,9.3936,-0.003,-0.0345,9.8065,0.036,-0.1438,0.0391,-4.69,-35.94,0.0,201.26,-77.07,146.64
24685,52.74005,-1.656301,151.23,11.12,4,319.56,22 / 24,2468520,2019-11-06 11:22:55:863,-1.1423,0.2457,9.3801,-0.0185,0.0117,9.8065,0.0561,-0.1948,0.0039,-4.5,-36.12,-0.44,201.26,-77.07,146.64
24686,52.74005,-1.656301,151.23,11.12,4,319.56,22 / 24,2468620,2019-11-06 11:22:55:963,0.9652,-0.9129,9.4475,0.0,0.0256,9.8065,0.0313,-0.084,0.1283,-4.25,-36.75,-0.62,193.76,-77.05,146.08
24687,52.74005,-1.656301,151.23,11.12,4,319.56,22 / 24,2468720,2019-11-06 11:22:56:063,1.4578,1.0638,10.2787,0.034,0.056,9.8063,0.0661,-0.2152,0.0206,-4.69,-36.62,-1.12,196.78,-76.68,146.58
24688,52.74005,-1.656301,151.23,11.12,4,319.56,22 / 24,2468820,2019-11-06 11:22:56:163,1.2891,-0.9391,9.7384,0.0053,0.039,9.8065,-0.0318,-0.0961,0.1313,-4.75,-36.5,0.0,196.78,-76.68,146.58
24689,52.74005,-1.656301,151.23,11.12,4,319.56,22 / 24,2468920,2019-11-06 11:22:56:263,-0.9149,-2.8058,8.2218,-0.0096,-0.0094,9.8066,0.0626,0.0012,0.0157,-5.0,-36.69,0.0,196.54,-76.46,146.43
24690,52.740128,-1.656414,151.14,11.8,4,320.56,22 / 23,2469020,2019-11-06 11:22:56:363,-1.3232,-2.6653,8.7694,-0.019,-0.0412,9.8065,0.0094,0.181,-0.0825,-4.87,-36.19,-0.25,201.05,-76.83,146.79
24691,52.740128,-1.656414,151.14,11.8,4,320.56,22 / 23,2469120,2019-11-06 11:22:56:463,-2.7627,-0.9237,9.0026,-0.0428,-0.0341,9.8065,-0.1475,0.0488,-0.0835,-4.75,-35.94,-0.25,201.05,-76.83,146.79
24692,52.740128,-1.656414,151.14,11.8,4,320.56,22 / 23,2469220,2019-11-06 11:22:56:563,-2.4465,-1.7005,8.5669,0.0153,0.0402,9.8065,0.193,-0.0089,0.0347,-4.37,-36.0,0.19,198.01,-77.1,146.07
24693,52.740128,-1.656414,151.14,11.8,4,320.56,22 / 23,2469320,2019-11-06 11:22:56:663,0.274,-3.438,9.3923,-0.0108,0.017,9.8066,-0.1408,0.0005,0.0985,-4.31,-36.31,0.13,197.97,-77.0,146.32
24694,52.740128,-1.656414,151.14,11.8,4,320.56,22 / 23,2469420,2019-11-06 11:22:56:763,-0.0045,-1.9757,9.1484,-0.0431,0.0391,9.8064,-0.0101,0.0475,-0.0201,-4.19,-36.44,-0.12,197.44,-76.86,144.95
24695,52.740128,-1.656414,151.14,11.8,4,320.56,22 / 23,2469520,2019-11-06 11:22:56:863,0.0773,-0.5683,9.7383,0.039,-0.1016,9.806,-0.001,0.1216,0.0467,-4.31,-36.5,-0.37,197.44,-76.86,144.95
24696,52.740128,-1.656414,151.14,11.8,4,320.56,22 / 23,2469620,2019-11-06 11:22:56:963,-1.9132,1.8489,10.0681,0.0307,0.0062,9.8065,-0.0191,0.0535,-0.0605,-4.31,-36.94,-0.31,198.09,-77.35,146.76
24697,52.740128,-1.656414,151.14,11.8,4,320.56,22 / 23,2469720,2019-11-06 11:22:57:063,-0.2173,-1.5524,10.2166,0.104,0.0158,9.8061,0.0921,-0.0246,-0.0133,-4.5,-36.87,-0.19,198.48,-77.06,149.21
24698,52.740128,-1.656414,151.14,11.8,4,320.56,22 / 23,2469820,2019-11-06 11:22:57:163,1.7359,-1.0292,9.5422,0.0358,0.0974,9.806,0.0602,0.0105,-0.0284,-4.44,-37.5,0.5,198.48,-77.06,149.21
24699,52.740128,-1.656414,151.14,11.8,4,320.56,22 / 23,2469919,2019-11-06 11:22:57:262,-0.9519,-3.5123,9.1327,-0.0011,-0.0567,9.8064,-0.0746,0.0253,0.0473,-4.75,-37.56,0.31,201.08,-76.45,149.28
24700,52.740204,-1.656523,151.05,12.05,4,321.45,22 / 23,2470020,2019-11-06 11:22:57:363,-0.5565,-2.0391,9.1596,-0.0401,0.0049,9.8065,-0.0569,0.0269,-0.0007,-4.75,-37.5,0.38,201.58,-76.77,149.78
24701,52.740204,-1.656523,151.05,12.05,4,321.45,22 / 23,2470120,2019-11-06 11:22:57:463,0.4134,-3.5559,10.4828,-0.1142,-0.1001,9.8054,-0.164,0.0797,-0.0225,-5.25,-36.75,-0.19,201.83,-77.55,147.9
24702,52.740204,-1.656523,151.05,12.05,4,321.45,22 / 23,2470220,2019-11-06 11:22:57:563,-0.1409,-2.8838,10.2185,-0.0436,-0.019,9.8065,0.0134,0.0446,-0.0981,-4.62,-37.25,-0.75,201.83,-77.55,147.9
24703,52.740204,-1.656523,151.05,12.05,4,321.45,22 / 23,2470320,2019-11-06 11:22:57:663,-0.7141,-0.1543,9.9203,-0.0137,0.0238,9.8065,0.0395,0.025,0.0191,-5.06,-37.94,-0.75,197.53,-77.74,146.98
24704,52.740204,-1.656523,151.05,12.05,4,321.45,22 / 23,2470419,2019-11-06 11:22:57:762,0.0681,-1.766,9.8162,0.0189,-0.0197,9.8065,-0.0205,-0.1108,0.08,-4.87,-37.5,0.25,201.83,-77.74,147.25
24705,52.740204,-1.656523,151.05,12.05,4,321.45,22 / 23,2470520,2019-11-06 11:22:57:863,-0.1608,-1.0708,10.6205,0.0053,-0.0195,9.8066,0.0785,0.0953,-0.0428,-4.75,-36.87,-0.25,201.83,-77.74,147.25
24706,52.740204,-1.656523,151.05,12.05,4,321.45,22 / 23,2470620,2019-11-06 11:22:57:963,0.6936,-2.5165,10.2716,0.0058,-0.0158,9.8066,-0.0515,0.0708,-0.0867,-5.62,-37.25,-0.06,198.15,-77.84,147.59
24707,52.740204,-1.656523,151.05,12.05,4,321.45,22 / 23,2470720,2019-11-06 11:22:58:063,-0.3837,-2.295,9.2515,-0.0174,-0.0081,9.8066,-0.1126,0.0435,0.0448,-5.56,-37.25,0.0,205.06,-78.0,147.62
24708,52.740204,-1.656523,151.05,12.05,4,321.45,22 / 23,2470820,2019-11-06 11:22:58:163,-2.2388,-2.6742,9.5562,-0.0311,-0.0233,9.8065,-0.0284,-0.1053,0.0504,-5.62,-36.94,-0.19,205.58,-78.41,147.61
24709,52.740204,-1.656523,151.05,12.05,4,321.45,22 / 23,2470920,2019-11-06 11:22:58:263,-1.5538,-1.3906,9.7256,-0.0489,-0.0378,9.8064,-0.0333,-0.123,0.1298,-6.25,-37.5,-0.94,205.58,-78.41,147.61
24710,52.740288,-1.656633,150.96,12.3,4,323.59,23 / 24,2471020,2019-11-06 11:22:58:363,0.0916,-3.6184,9.4822,0.0084,0.016,9.8066,0.0108,-0.2042,0.0476,-5.81,-36.69,-0.12,201.87,-78.85,147.02
24711,52.740288,-1.656633,150.96,12.3,4,323.59,23 / 24,2471120,2019-11-06 11:22:58:463,1.5034,-0.8745,9.6923,-0.0038,-0.0213,9.8066,-0.0091,-0.0116,0.0581,-5.81,-37.75,-0.56,201.22,-78.66,146.77
24712,52.740288,-1.656633,150.96,12.3,4,323.59,23 / 24,2471220,2019-11-06 11:22:58:563,1.5385,-2.1411,10.7464,-0.0042,-0.0672,9.8063,0.0069,-0.0351,0.0317,-5.81,-37.81,-0.5,201.22,-78.66,146.77
24713,52.740288,-1.656633,150.96,12.3,4,323.59,23 / 24,2471320,2019-11-06 11:22:58:663,0.7954,-0.5391,9.3261,-0.035,0.0691,9.8063,-0.0575,0.1275,0.018,-6.0,-37.12,-0.56,202.25,-79.03,147.4
24714,52.740288,-1.656633,150.96,12.3,4,323.59,23 / 24,2471420,2019-11-06 11:22:58:763,-0.6102,-3.058,9.495,-0.0183,-0.0316,9.8065,-0.0439,-0.0946,-0.065,-5.94,-37.44,-0.94,201.02,-78.87,145.09
24715,52.740288,-1.656633,150.96,12.3,4,323.59,23 / 24,2471521,2019-11-06 11:22:58:864,-0.4372,-2.6597,10.025,-0.0359,0.0145,9.8065,0.0799,0.0708,-0.1698,-5.75,-36.94,-1.06,200.48,-78.87,143.92
24716,52.740288,-1.656633,150.96,12.3,4,323.59,23 / 24,2471620,2019-11-06 11:22:58:963,0.3033,-0.9652,9.614,-0.004,0.0326,9.8065,-0.0202,-0.026,0.0977,-6.12,-36.94,-0.75,200.48,-78.87,143.92
24717,52.740288,-1.656633,150.96,12.3,4,323.59,23 / 24,2471720,2019-11-06 11:22:59:063,0.5884,-1.6839,9.4793,0.0087,-0.0534,9.8064,-0.0003,-0.0824,-0.034,-6.12,-37.31,-0.87,204.14,-78.7,143.47
24718,52.740288,-1.656633,150.96,12.3,4,323.59,23 / 24,2471820,2019-11-06 11:22:59:163,-0.5631,-1.1955,9.7111,0.0028,-0.0514,9.8065,-0.0519,-0.0681,0.1616,-6.25,-37.0,-0.81,200.7,-78.96,144.19
24719,52.740288,-1.656633,150.96,12.3,4,323.59,23 / 24,2471920,2019-11-06 11:22:59:263,1.0594,-1.7711,10.267,0.0046,-0.1025,9.8061,0.0142,-0.0137,-0.0101,-6.37,-36.94,-1.25,200.7,-78.96,144.19
24720,52.740376,-1.656742,150.9,13.06,4,326.14,23 / 24,2472020,2019-11-06 11:22:59:363,0.1342,-3.0963,9.9227,-0.0267,0.0117,9.8066,0.0668,0.0938,-0.0846,-6.0,-37.62,-0.87,204.1,-79.51,145.49
24721,52.740376,-1.656742,150.9,13.06,4,326.14,23 / 24,2472120,2019-11-06 11:22:59:463,0.8114,-1.6554,10.0607,-0.0106,0.0037,9.8066,0.0553,0.0683,0.0223,-6.37,-37.25,-1.25,201.46,-79.51,144.55
24722,52.740376,-1.656742,150.9,13.06,4,326.14,23 / 24,2472220,2019-11-06 11:22:59:563,-0.4113,-1.3727,9.7659,-0.0056,0.0383,9.8065,0.0134,-0.025,-0.1114,-7.12,-36.75,-1.56,201.46,-79.51,144.55
24723,52.740376,-1.656742,150.9,13.06,4,326.14,23 / 24,2472320,2019-11-06 11:22:59:663,-0.4967,-0.4412,10.5255,-0.0083,0.0435,9.8065,-0.0468,0.1347,0.0058,-6.44,-36.69,-1.31,200.96,-79.31,143.95
24724,52.740376,-1.656742,150.9,13.06,4,326.14,23 / 24,2472420,2019-11-06 11:22:59:763,0.3677,-1.4026,9.9535,0.0006,-0.0257,9.8066,0.0364,0.1745,-0.0912,-6.25,-37.12,-0.75,200.16,-79.03,142.83
