,GPS LATITUDE (degrees), GPS LONGITUDE (degrees), GPS ALTITUDE (m), GPS SPEED (Kmh), GPS ACCURACY (m), GPS ORIENTATION (Â°),GPS SATELLITES IN RANGE, TIME SINCE START (ms), DATE (YYYY-MO-DD HH-MI-SS_SSS), ACCELEROMETER X (m/s²) , ACCELEROMETER Y (m/s²), ACCELEROMETER Z (m/s²), GRAVITY X (m/s²), GRAVITY Y (m/s²), GRAVITY Z (m/s²), GYROSCOPE Yaw (rad/s), GYROSCOPE Pitch (rad/s), GYROSCOPE Roll (rad/s), MAGNETIC FIELD X (Î¼T), MAGNETIC FIELD Y (Î¼T), MAGNETIC FIELD Z (Î¼T), ORIENTATION (Yaw) (Â°), ORIENTATION (Pitch) (Â°), ORIENTATION (Roll ) (Â°)
82645,50.973003,-3.189113,89,16.85,10,254.2,16 / 21,8264873,2019-08-16 15:06:58:653,-0.7477,0.3089,9.8237,-0.0594,0.0924,9.806,-0.0011,-0.0197,0.0389,12.8,27.1,-1.33,294.49,13.66,0.98
82646,50.973003,-3.189113,89,16.85,10,254.2,16 / 21,8264973,2019-08-16 15:06:58:753,-0.7124,1.2195,10.1681,-0.0204,0.1352,9.8057,-0.0149,-0.0346,0.0261,11.71,27.62,-0.04,292.33,14.29,1.08
82647,50.973003,-3.189113,89,16.85,10,254.2,16 / 21,8265072,2019-08-16 15:06:58:852,-0.2516,0.8599,10.0642,-0.0278,0.1013,9.8061,0.0075,-0.0708,0.024,10.19,28.15,-1.98,287.88,15.07,0.88
82648,50.973003,-3.189113,89,16.85,10,254.2,16 / 21,8265172,2019-08-16 15:06:58:952,-0.3135,0.6065,10.3289,-0.0348,0.099,9.8061,-0.0064,-0.0005,0.0229,9.09,28.32,-3.94,284.97,15.68,0.85
82649,50.973003,-3.189113,89,16.85,10,254.2,16 / 21,8265272,2019-08-16 15:06:59:052,-0.0673,1.3996,9.7946,-0.079,0.2335,9.8036,-0.0138,-0.0538,0.024,9.09,28.32,-3.94,284.97,15.68,0.85
82650,50.973003,-3.189113,89,16.85,10,254.2,16 / 21,8265373,2019-08-16 15:06:59:153,0.1422,0.7204,10.4198,-0.0181,0.1169,9.8059,0.0171,0.0176,0.0197,8.1,28.35,-5.52,281.63,17.12,0.95
82651,50.973003,-3.189113,89,16.85,10,254.2,16 / 21,8265473,2019-08-16 15:06:59:253,-0.0957,0.9652,9.9714,-0.0366,0.2163,9.8042,-0.0138,0.0464,0.0133,8.71,28.41,-4.13,284.33,18.4,0.9
82652,50.973003,-3.189113,89,16.85,10,254.2,16 / 21,8265573,2019-08-16 15:06:59:353,-0.0552,0.8034,10.845,-0.0239,0.0817,9.8063,0.0139,-0.0389,0.0144,8.71,28.41,-4.13,284.33,18.4,0.9
82653,50.973003,-3.189113,89,16.85,10,254.2,16 / 21,8265674,2019-08-16 15:06:59:454,-0.1137,1.3105,9.4998,-0.041,0.1455,9.8055,0.0139,-0.0389,0.0144,9.07,28.34,-3.78,284.12,19.28,0.93
82654,50.972965,-3.189332,90,15.67,10,253.4,16 / 21,8265772,2019-08-16 15:06:59:552,-0.3429,0.0045,10.6657,-0.0102,0.0414,9.8066,-0.017,0.0613,0.008,8.56,28.41,-4.42,284.12,19.28,0.93
82655,50.972965,-3.189332,90,15.67,10,253.4,16 / 21,8265873,2019-08-16 15:06:59:653,-0.216,0.2441,9.8936,-0.0079,0.05,9.8065,-0.0394,-0.0239,0.0165,7.65,28.21,-6.78,280.2,19.67,0.97
82656,50.972965,-3.189332,90,15.67,10,253.4,16 / 21,8265973,2019-08-16 15:06:59:753,-0.3857,-0.1106,10.4394,-0.0204,0.1127,9.806,0.0405,0.04,0.0133,7.94,28.06,-7.04,280.2,19.67,0.97
82657,50.972965,-3.189332,90,15.67,10,253.4,16 / 21,8266073,2019-08-16 15:06:59:853,0.2701,1.2157,9.4754,-0.0202,0.1529,9.8054,-0.0213,-0.0591,0.0091,8.37,27.77,-7.68,279.22,20.57,0.93
82658,50.972965,-3.189332,90,15.67,10,253.4,16 / 21,8266173,2019-08-16 15:06:59:953,0.4112,0.2323,10.5049,-0.0063,0.0334,9.8066,0.0586,0.0346,-0.0037,8.37,27.77,-7.68,279.22,20.57,0.93
82659,50.972965,-3.189332,90,15.67,10,253.4,16 / 21,8266273,2019-08-16 15:07:00:053,0.118,-0.1901,9.9697,-0.009,0.0351,9.8066,-0.0192,-0.0058,-0.0005,9.73,27.66,-6.35,284.2,20.76,0.93
82660,50.972965,-3.189332,90,15.67,10,253.4,16 / 21,8266373,2019-08-16 15:07:00:153,0.2032,-0.438,10.01,-0.0085,0.0297,9.8066,0.0213,0.0613,-0.0144,9.24,27.94,-5.81,282.33,20.95,0.94
82661,50.972965,-3.189332,90,15.67,10,253.4,16 / 21,8266473,2019-08-16 15:07:00:253,0.2405,-0.5447,10.1765,-0.0015,-0.0284,9.8066,0.0213,0.0613,-0.0144,8.42,27.93,-7.01,282.33,20.95,0.94
82662,50.972965,-3.189332,90,15.67,10,253.4,16 / 21,8266572,2019-08-16 15:07:00:352,-0.1098,-1.0213,10.4493,0.0065,-0.0695,9.8064,0.0139,0.0442,0.0037,8.42,27.93,-7.01,282.33,20.95,0.94
82663,50.972965,-3.189332,90,15.67,10,253.4,16 / 21,8266673,2019-08-16 15:07:00:453,-0.2608,-0.9472,10.6043,0.0132,-0.1042,9.8061,-0.0245,0.0368,0.0027,8.37,27.77,-7.68,279.28,20.33,1.0
82664,50.97293,-3.189507,88,13.82,10,252.8,16 / 21,8266773,2019-08-16 15:07:00:553,0.2127,-0.5497,10.1211,0.038,-0.0714,9.8063,0.0224,0.0677,-0.0037,7.87,28.39,-5.65,279.28,20.33,1.0
82665,50.97293,-3.189507,88,13.82,10,252.8,16 / 21,8266873,2019-08-16 15:07:00:653,0.19,-0.4836,10.0736,0.0217,-0.0423,9.8065,-0.0117,0.0506,0.0154,8.26,28.61,-3.66,281.75,19.89,0.84
82666,50.97293,-3.189507,88,13.82,10,252.8,16 / 21,8266972,2019-08-16 15:07:00:752,0.1647,-0.4926,10.1353,0.0317,-0.0809,9.8063,0.0021,0.0559,-0.0091,7.95,28.7,-3.65,281.75,19.89,0.84
82667,50.97293,-3.189507,88,13.82,10,252.8,16 / 21,8267073,2019-08-16 15:07:00:853,-0.0397,-0.5824,10.132,0.0355,-0.1263,9.8058,0.0085,-0.0261,-0.0005,7.95,28.7,-3.65,281.75,19.89,0.84
82668,50.97293,-3.189507,88,13.82,10,252.8,16 / 21,8267172,2019-08-16 15:07:00:952,-0.192,-0.7021,10.5402,0.0039,-0.0095,9.8066,0.0085,-0.0261,-0.0005,6.76,28.91,-4.3,280.14,19.12,0.78
82669,50.97293,-3.189507,88,13.82,10,252.8,16 / 21,8267273,2019-08-16 15:07:01:053,0.0144,-0.4805,9.8637,0.0023,-0.0181,9.8066,0.0021,0.024,0.008,7.32,28.66,-4.98,279.54,19.02,0.79
82670,50.97293,-3.189507,88,13.82,10,252.8,16 / 21,8267373,2019-08-16 15:07:01:153,0.1104,-0.2821,9.8165,0.0052,-0.0172,9.8066,-0.0128,0.0485,0.0176,7.32,28.66,-4.98,279.54,19.02,0.79
82671,50.97293,-3.189507,88,13.82,10,252.8,16 / 21,8267473,2019-08-16 15:07:01:253,0.4255,-0.6426,10.4095,-0.0017,-0.0193,9.8066,-0.0351,-0.0346,0.0218,7.35,28.77,-4.28,280.18,18.91,0.77
82672,50.97293,-3.189507,88,13.82,10,252.8,16 / 21,8267574,2019-08-16 15:07:01:354,0.3071,0.3774,9.0051,-0.0017,-0.0291,9.8066,-0.0064,0.0687,0.0101,8.93,28.22,-4.9,283.66,18.75,0.81
82673,50.97293,-3.189507,88,13.82,10,252.8,16 / 21,8267672,2019-08-16 15:07:01:452,-0.237,-0.0425,9.1615,0.0122,-0.0184,9.8066,0.0032,0.0868,0.0186,8.57,28.42,-4.32,283.66,18.75,0.81
82674,50.972904,-3.189676,88,12.43,10,252.3,16 / 21,8267773,2019-08-16 15:07:01:553,-0.3763,0.0297,8.9907,0.0149,-0.0312,9.8066,-0.0043,0.0336,0.0069,7.99,28.21,-6.35,281.26,18.55,0.77
82675,50.972904,-3.189676,88,12.43,10,252.3,16 / 21,8267874,2019-08-16 15:07:01:654,0.1706,-0.6147,9.5578,0.0222,0.0091,9.8066,-0.0064,-0.0261,-0.0005,7.56,28.43,-5.89,281.26,18.55,0.77
82676,50.972904,-3.189676,88,12.43,10,252.3,16 / 21,8267972,2019-08-16 15:07:01:752,0.2182,-0.6132,9.9081,0.0056,-0.0035,9.8066,-0.0106,-0.0719,0.0282,7.4,28.36,-6.39,279.41,18.57,0.62
82677,50.972904,-3.189676,88,12.43,10,252.3,16 / 21,8268073,2019-08-16 15:07:01:853,0.156,-0.6514,9.7851,0.0119,-0.0034,9.8066,-0.0106,-0.0719,0.0282,7.4,28.36,-6.39,279.41,18.57,0.62
82678,50.972904,-3.189676,88,12.43,10,252.3,16 / 21,8268172,2019-08-16 15:07:01:952,0.2193,-0.6336,9.8027,-0.0179,-0.0306,9.8066,0.0075,0.0538,0.0069,7.18,28.72,-4.88,279.72,18.54,0.56
82679,50.972904,-3.189676,88,12.43,10,252.3,16 / 21,8268273,2019-08-16 15:07:02:053,0.3655,-0.6586,9.4514,-0.018,-0.0802,9.8063,0.0011,0.0986,0.0059,7.8,28.76,-3.48,282.75,18.1,0.75
82680,50.972904,-3.189676,88,12.43,10,252.3,16 / 21,8268372,2019-08-16 15:07:02:152,0.4365,-0.8529,9.9774,0.0253,-0.0483,9.8065,0.0064,0.0474,0.0165,7.8,28.76,-3.48,282.75,18.1,0.75
82681,50.972904,-3.189676,88,12.43,10,252.3,16 / 21,8268473,2019-08-16 15:07:02:253,0.6939,-0.5214,10.0568,0.0105,-0.0168,9.8066,0.0565,-0.0378,-0.0144,6.05,29.08,-4.23,278.62,17.79,0.66
82682,50.972904,-3.189676,88,12.43,10,252.3,16 / 21,8268572,2019-08-16 15:07:02:352,-0.1534,-0.0734,10.2324,0.0114,-0.0249,9.8066,-0.0064,-0.0112,-0.0037,6.14,28.93,-5.03,278.08,17.64,0.62
82683,50.972904,-3.189676,88,12.43,10,252.3,16 / 21,8268673,2019-08-16 15:07:02:453,0.0896,0.1955,10.0241,-0.0063,-0.0047,9.8066,-0.0085,0.0261,0.0197,5.91,29.01,-4.83,278.08,17.64,0.62
82684,50.972874,-3.189832,89,11.22,10,251.9,17 / 21,8268773,2019-08-16 15:07:02:553,-0.2752,-0.0528,10.7907,-0.0047,0.0017,9.8066,-0.0085,0.0261,0.0197,7.19,28.73,-4.79,279.91,17.65,0.64
82685,50.972874,-3.189832,89,11.22,10,251.9,17 / 21,8268872,2019-08-16 15:07:02:652,-0.5049,0.3677,9.9368,-0.0043,-0.0447,9.8065,-0.0309,0.0655,-0.0037,7.19,28.73,-4.79,279.91,17.65,0.64
82686,50.972874,-3.189832,89,11.22,10,251.9,17 / 21,8268972,2019-08-16 15:07:02:752,-0.2733,-0.0804,10.2944,-0.0183,-0.0585,9.8065,-0.0064,0.041,0.0229,7.19,28.73,-4.79,279.91,17.65,0.64
82687,50.972874,-3.189832,89,11.22,10,251.9,17 / 21,8269073,2019-08-16 15:07:02:853,-0.2198,-0.9163,10.6892,-0.0059,-0.0499,9.8065,0.0117,0.0304,0.0208,7.96,28.22,-6.33,281.6,17.33,0.81
82688,50.972874,-3.189832,89,11.22,10,251.9,17 / 21,8269172,2019-08-16 15:07:02:952,-0.1109,-0.0083,9.2883,-0.0113,-0.0374,9.8066,0.0085,0.0432,0.0261,5.52,28.94,-5.65,277.57,17.05,0.91
82689,50.972874,-3.189832,89,11.22,10,251.9,17 / 21,8269274,2019-08-16 15:07:03:054,-0.2443,0.0034,9.1077,-0.027,-0.0416,9.8065,0.0139,0.0283,0.0378,5.52,28.94,-5.65,277.57,17.05,0.91
82690,50.972874,-3.189832,89,11.22,10,251.9,17 / 21,8269372,2019-08-16 15:07:03:152,0.0826,-0.1885,9.9717,-0.016,0.009,9.8066,0.0096,-0.0218,0.0389,6.17,29.04,-4.32,278.69,16.83,1.11
82691,50.972874,-3.189832,89,11.22,10,251.9,17 / 21,8269473,2019-08-16 15:07:03:253,-0.199,-0.4198,10.6001,-0.0196,0.0002,9.8066,-0.0138,0.0325,0.0229,7.37,28.86,-3.56,280.5,16.9,1.2
82692,50.972874,-3.189832,89,11.22,10,251.9,17 / 21,8269572,2019-08-16 15:07:03:352,-0.0639,-0.6438,10.5928,-0.0386,-0.013,9.8066,0.0043,-0.0229,0.0378,6.63,28.95,-4.21,280.45,16.87,1.44
82693,50.972874,-3.189832,89,11.22,10,251.9,17 / 21,8269672,2019-08-16 15:07:03:452,-0.1104,0.0119,9.6697,-0.016,-0.0119,9.8066,0.0043,-0.0229,0.0378,6.63,28.95,-4.21,280.45,16.87,1.44
82694,50.97285,-3.18998,88,10.15,9,250.8,17 / 21,8269773,2019-08-16 15:07:03:553,-0.1007,-0.0882,8.9061,-0.0248,-0.0015,9.8066,0.0139,-0.0165,0.0367,4.64,29.15,-5.35,276.16,16.82,1.55
82695,50.97285,-3.18998,88,10.15,9,250.8,17 / 21,8269873,2019-08-16 15:07:03:653,-0.0681,-0.5448,10.3208,-0.0753,-0.1282,9.8055,-0.0085,0.1039,0.0602,4.86,29.3,-4.26,276.16,16.82,1.55
82696,50.97285,-3.18998,88,10.15,9,250.8,17 / 21,8269973,2019-08-16 15:07:03:753,-0.5392,-0.6584,10.7486,-0.0455,-0.042,9.8065,-0.016,0.1018,0.057,4.1,29.52,-3.42,275.18,16.12,2.09
82697,50.97285,-3.18998,88,10.15,9,250.8,17 / 21,8270073,2019-08-16 15:07:03:853,-0.6258,0.2736,9.0798,-0.1176,-0.0261,9.8059,-0.0106,-0.0293,0.0623,4.1,29.52,-3.42,275.18,16.12,2.09
82698,50.97285,-3.18998,88,10.15,9,250.8,17 / 21,8270173,2019-08-16 15:07:03:953,-0.7074,-0.5054,9.4842,-0.0594,-0.0154,9.8065,-0.0032,0.0474,0.0964,4.7,29.55,-2.13,277.34,16.03,2.82
82699,50.97285,-3.18998,88,10.15,9,250.8,17 / 21,8270273,2019-08-16 15:07:04:053,-0.5457,0.2093,10.2946,-0.0747,-0.0171,9.8064,-0.0138,-0.0367,0.1071,4.03,29.61,-2.68,274.92,15.98,3.19
82700,50.97285,-3.18998,88,10.15,9,250.8,17 / 21,8270373,2019-08-16 15:07:04:153,-0.9024,-0.1302,10.2477,-0.1437,-0.0027,9.8056,-0.0138,-0.0367,0.1071,4.15,29.32,-4.78,273.8,16.04,4.06
82701,50.97285,-3.18998,88,10.15,9,250.8,17 / 21,8270473,2019-08-16 15:07:04:253,-0.4037,0.3114,9.9886,-0.0819,0.0107,9.8063,0.0064,-0.0261,0.1039,4.15,29.32,-4.78,273.8,16.04,4.06
82702,50.97285,-3.18998,88,10.15,9,250.8,17 / 21,8270572,2019-08-16 15:07:04:352,-0.8199,0.2261,9.7532,-0.0691,-0.01,9.8064,-0.0117,0.0251,0.1188,3.07,29.56,-4.11,272.15,16.13,4.55
82703,50.97285,-3.18998,88,10.15,9,250.8,17 / 21,8270672,2019-08-16 15:07:04:452,-0.4113,0.3767,10.0688,-0.1214,-0.0245,9.8059,0.0032,0.0229,0.1358,2.46,29.61,-4.12,272.15,16.13,4.55
82704,50.972824,-3.190092,88,8.97,9,246.0,17 / 21,8270772,2019-08-16 15:07:04:552,-0.3859,0.1926,9.9863,-0.1808,-0.0259,9.8049,-0.0064,-0.0133,0.1316,2.42,29.7,-3.45,270.55,16.01,5.66
82705,50.972824,-3.190092,88,8.97,9,246.0,17 / 21,8270873,2019-08-16 15:07:04:653,-0.3364,0.3933,9.6487,-0.0443,0.0277,9.8065,-0.0351,-0.008,0.1348,1.86,29.73,-3.52,269.92,16.09,5.94
82706,50.972824,-3.190092,88,8.97,9,246.0,17 / 21,8270972,2019-08-16 15:07:04:752,-0.1385,0.3541,9.3485,-0.0811,0.0615,9.8061,-0.0394,0.024,0.1518,1.86,29.73,-3.52,269.92,16.09,5.94
82707,50.972824,-3.190092,88,8.97,9,246.0,17 / 21,8271073,2019-08-16 15:07:04:853,0.3832,0.4487,10.3727,-0.0145,0.0394,9.8066,-0.0522,0.0048,0.1103,1.23,29.85,-2.76,268.37,16.44,6.44
82708,50.972824,-3.190092,88,8.97,9,246.0,17 / 21,8271172,2019-08-16 15:07:04:952,0.2673,0.4225,10.0506,-0.0018,0.0373,9.8066,-0.0522,0.0048,0.1103,-1.09,29.79,-3.36,264.59,16.67,6.53
82709,50.972824,-3.190092,88,8.97,9,246.0,17 / 21,8271273,2019-08-16 15:07:05:053,0.2753,0.4673,10.104,-0.0087,0.0796,9.8063,0.0053,-0.0122,0.1294,-1.16,29.75,-3.67,264.59,16.67,6.53
82710,50.972824,-3.190092,88,8.97,9,246.0,17 / 21,8271373,2019-08-16 15:07:05:153,0.1298,0.3029,10.1656,-0.0295,0.1031,9.8061,-0.0128,0.0069,0.1209,-1.16,29.75,-3.67,264.59,16.67,6.53
82711,50.972824,-3.190092,88,8.97,9,246.0,17 / 21,8271473,2019-08-16 15:07:05:253,-0.0932,-0.0479,9.9071,-0.0144,0.0263,9.8066,-0.0373,0.0123,0.1135,-1.07,29.85,-2.84,264.4,17.26,6.77
82712,50.972824,-3.190092,88,8.97,9,246.0,17 / 21,8271573,2019-08-16 15:07:05:353,0.2044,0.1285,10.1761,-0.0132,0.0624,9.8064,-0.0298,-0.0112,0.1252,-1.13,29.66,-4.37,264.4,17.26,6.77
82713,50.972824,-3.190092,88,8.97,9,246.0,17 / 21,8271673,2019-08-16 15:07:05:453,0.3125,-0.0608,9.8888,-0.0023,0.0939,9.8062,-0.0383,-0.0218,0.1252,-1.1,29.29,-6.41,262.23,17.8,6.84
82714,50.97279,-3.190184,88,7.49,9,238.5,17 / 21,8271772,2019-08-16 15:07:05:552,0.6249,0.191,10.1059,0.0396,0.057,9.8064,-0.0202,-0.0282,0.1188,-1.1,29.29,-6.41,262.23,17.8,6.84
82715,50.97279,-3.190184,88,7.49,9,238.5,17 / 21,8271873,2019-08-16 15:07:05:653,0.6159,0.3465,9.6979,0.0107,0.0309,9.8066,-0.0053,0.0144,0.1017,-2.42,29.18,-6.53,259.65,18.16,6.65
82716,50.97279,-3.190184,88,7.49,9,238.5,17 / 21,8271973,2019-08-16 15:07:05:753,0.6259,-0.1772,9.5683,0.0054,-0.0172,9.8066,-0.0053,0.0144,0.1017,-3.19,29.02,-6.91,257.73,18.35,6.62
82717,50.97279,-3.190184,88,7.49,9,238.5,17 / 21,8272072,2019-08-16 15:07:05:852,-0.1286,-1.1264,9.9418,-0.0473,-0.1456,9.8055,0.033,0.073,0.1177,-2.51,29.64,-3.9,260.12,17.46,6.71
82718,50.97279,-3.190184,88,7.49,9,238.5,17 / 21,8272173,2019-08-16 15:07:05:953,0.0827,-1.0039,9.5719,0.0145,-0.0809,9.8063,-0.0277,0.0261,0.1124,-1.84,29.49,-5.21,261.28,17.01,6.54
82719,50.97279,-3.190184,88,7.49,9,238.5,17 / 21,8272272,2019-08-16 15:07:06:052,0.2884,-0.8662,9.3068,0.009,-0.0724,9.8064,-0.0128,0.008,0.106,-1.84,29.49,-5.21,261.28,17.01,6.54
82720,50.97279,-3.190184,88,7.49,9,238.5,17 / 21,8272373,2019-08-16 15:07:06:153,0.4649,-0.8749,10.0153,-0.0013,-0.0665,9.8064,-0.0085,-0.0037,0.0868,-3.7,29.18,-5.89,257.07,16.6,6.42
82721,50.97279,-3.190184,88,7.49,9,238.5,17 / 21,8272473,2019-08-16 15:07:06:253,0.0512,-0.9231,9.5323,-0.0094,-0.1234,9.8059,0.0245,-0.025,0.0953,-5.1,29.22,-4.5,256.02,15.88,6.3
82722,50.97279,-3.190184,88,7.49,9,238.5,17 / 21,8272573,2019-08-16 15:07:06:353,-0.0839,-1.535,10.1644,-0.021,-0.0835,9.8063,0.0234,0.0698,0.1039,-5.11,29.23,-4.39,256.02,15.88,6.3
82723,50.97279,-3.190184,88,7.49,9,238.5,17 / 21,8272673,2019-08-16 15:07:06:453,-0.1164,-1.853,10.1604,-0.0163,-0.1256,9.8058,-0.0256,0.0187,0.1039,-5.03,29.43,-2.93,257.37,14.49,6.32
82724,50.97275,-3.190246,89,5.95,9,232.2,17 / 21,8272772,2019-08-16 15:07:06:552,0.1407,-1.6559,9.2484,-0.0274,-0.2685,9.8029,-0.0256,0.0187,0.1039,-5.03,29.43,-2.93,257.37,14.49,6.32
82725,50.97275,-3.190246,89,5.95,9,232.2,17 / 21,8272873,2019-08-16 15:07:06:653,0.1447,-1.8381,9.733,-0.0183,-0.1357,9.8057,-0.0277,0.0059,0.1049,-5.64,29.24,-3.66,255.34,12.92,6.13
82726,50.97275,-3.190246,89,5.95,9,232.2,17 / 21,8272972,2019-08-16 15:07:06:752,-0.223,-1.8708,9.4932,-0.0474,-0.2879,9.8023,0.0128,0.0219,0.0932,-5.64,29.24,-3.66,255.34,12.92,6.13
82727,50.97275,-3.190246,89,5.95,9,232.2,17 / 21,8273073,2019-08-16 15:07:06:853,-0.102,-1.8504,9.319,-0.0305,-0.1342,9.8057,0.0021,0.0187,0.0964,-5.6,29.04,-5.01,255.28,11.22,5.97
82728,50.97275,-3.190246,89,5.95,9,232.2,17 / 21,8273173,2019-08-16 15:07:06:953,-0.2947,-1.3875,9.517,-0.0146,-0.1292,9.8058,-0.0224,0.0091,0.1007,-7.02,28.81,-4.54,253.62,10.42,5.94
82729,50.97275,-3.190246,89,5.95,9,232.2,17 / 21,8273273,2019-08-16 15:07:07:053,-0.011,-1.8184,9.4187,-0.0454,-0.2552,9.8032,-0.0138,0.0528,0.1241,-7.02,28.81,-4.54,253.62,10.42,5.94
82730,50.97275,-3.190246,89,5.95,9,232.2,17 / 21,8273372,2019-08-16 15:07:07:152,-0.0782,-1.1409,10.2499,-0.0411,-0.1128,9.8059,0.0107,-0.0005,0.0964,-7.81,28.6,-4.61,252.16,8.91,5.78
82731,50.97275,-3.190246,89,5.95,9,232.2,17 / 21,8273473,2019-08-16 15:07:07:253,-0.2455,-1.3587,9.3625,-0.0881,-0.2091,9.804,-0.0053,-0.0005,0.0889,-7.26,29.01,-2.36,255.15,7.59,5.89
82732,50.97275,-3.190246,89,5.95,9,232.2,17 / 21,8273573,2019-08-16 15:07:07:353,-0.0005,-1.3398,9.8744,-0.0184,-0.1055,9.8061,-0.0053,-0.0005,0.0889,-7.26,29.01,-2.36,255.15,7.59,5.89
82733,50.97275,-3.190246,89,5.95,9,232.2,17 / 21,8273674,2019-08-16 15:07:07:454,0.2388,-0.5727,9.6508,-0.0151,-0.1091,9.806,-0.0256,0.0836,0.1124,-7.05,28.82,-4.47,254.85,6.26,5.72
82734,50.972706,-3.190312,89,6.04,9,226.1,17 / 21,8273773,2019-08-16 15:07:07:553,-0.0127,-0.7809,9.8136,-0.0092,-0.0937,9.8062,0.0075,0.0187,0.0964,-9.41,28.05,-4.99,250.46,5.62,5.64
82735,50.972706,-3.190312,89,6.04,9,226.1,17 / 21,8273873,2019-08-16 15:07:07:653,-0.3353,-0.819,9.9928,-0.0442,-0.1843,9.8048,0.0202,0.0037,0.0868,-9.41,28.05,-4.99,250.46,5.62,5.64
82736,50.972706,-3.190312,89,6.04,9,226.1,17 / 21,8273973,2019-08-16 15:07:07:753,-0.2375,-0.6066,10.0423,-0.0358,-0.0751,9.8063,-0.0021,0.0613,0.0794,-9.3,28.37,-2.94,251.14,4.52,5.52
82737,50.972706,-3.190312,89,6.04,9,226.1,17 / 21,8274073,2019-08-16 15:07:07:853,0.1321,-0.2255,9.5755,-0.0525,-0.1396,9.8055,-0.0447,0.0421,0.0794,-8.33,28.73,-2.29,253.88,3.65,5.55
82738,50.972706,-3.190312,89,6.04,9,226.1,17 / 21,8274173,2019-08-16 15:07:07:953,0.2767,-0.7611,9.0996,0.0291,-0.0884,9.8062,-0.0149,0.0602,0.0794,-8.93,28.55,-2.27,253.88,3.65,5.55
82739,50.972706,-3.190312,89,6.04,9,226.1,17 / 21,8274273,2019-08-16 15:07:08:053,1.0333,-0.8303,8.7575,0.0433,-0.1933,9.8047,-0.0149,0.0602,0.0794,-9.3,28.37,-2.94,251.51,2.63,4.99
82740,50.972706,-3.190312,89,6.04,9,226.1,17 / 21,8274373,2019-08-16 15:07:08:153,0.3703,-0.873,10.8956,-0.0275,-0.0824,9.8063,0.0373,0.0165,0.0698,-9.3,28.37,-2.94,251.51,2.63,4.99
82741,50.972706,-3.190312,89,6.04,9,226.1,17 / 21,8274472,2019-08-16 15:07:08:252,0.0317,-0.2507,9.9506,-0.0696,-0.1412,9.8054,0.0575,0.0208,0.0591,-11.34,27.46,-4.17,247.14,1.72,5.11
82742,50.972706,-3.190312,89,6.04,9,226.1,17 / 21,8274573,2019-08-16 15:07:08:353,0.0774,0.1076,10.4208,-0.0436,-0.0108,9.8065,0.0597,-0.0367,0.0549,-10.77,27.65,-4.39,247.95,1.28,5.26
82743,50.972706,-3.190312,89,6.04,9,226.1,17 / 21,8274672,2019-08-16 15:07:08:452,-0.1273,-0.4177,9.009,-0.0811,-0.0329,9.8063,0.0884,0.0069,0.0389,-8.08,28.84,-1.72,254.26,0.93,5.62
82744,50.972656,-3.190385,89,6.98,9,222.6,17 / 21,8274773,2019-08-16 15:07:08:553,-0.173,-0.1002,8.1463,-0.0363,0.0224,9.8066,0.0714,-0.2019,0.0399,-8.08,28.84,-1.72,254.26,0.93,5.62
82745,50.972656,-3.190385,89,6.98,9,222.6,17 / 21,8274873,2019-08-16 15:07:08:653,0.2914,-0.6735,9.4127,-0.0364,0.0291,9.8065,0.0927,-0.122,0.0368,-4.87,28.24,-8.89,259.06,0.99,5.86
82746,50.972656,-3.190385,89,6.98,9,222.6,17 / 21,8274973,2019-08-16 15:07:08:753,-0.7134,-0.0447,9.1559,-0.0629,0.0094,9.8064,0.0927,-0.122,0.0368,-9.05,27.56,-7.65,251.15,1.12,6.1
82747,50.972656,-3.190385,89,6.98,9,222.6,17 / 21,8275073,2019-08-16 15:07:08:853,-0.9302,0.0202,9.5031,-0.1162,-0.0159,9.8059,0.0597,0.0176,0.0581,-11.37,27.54,-3.47,248.01,0.81,6.72
82748,50.972656,-3.190385,89,6.98,9,222.6,17 / 21,8275173,2019-08-16 15:07:08:953,-0.2311,0.8215,11.5178,-0.0018,-0.0349,9.8066,0.016,-0.0953,0.024,-11.37,27.54,-3.47,248.01,0.81,6.72
82749,50.972656,-3.190385,89,6.98,9,222.6,17 / 21,8275273,2019-08-16 15:07:09:053,-0.1291,-0.3775,8.9881,-0.0252,-0.1121,9.806,0.0075,0.0868,-0.0016,-10.69,27.95,-2.13,248.01,0.81,6.72
82750,50.972656,-3.190385,89,6.98,9,222.6,17 / 21,8275372,2019-08-16 15:07:09:152,0.1863,-0.5257,9.8168,-0.0536,-0.1994,9.8045,-0.0501,0.0996,0.0218,-9.72,28.38,0.61,250.33,-0.38,6.57
82751,50.972656,-3.190385,89,6.98,9,222.6,17 / 21,8275473,2019-08-16 15:07:09:253,0.0844,-0.4973,11.4146,0.0267,-0.1208,9.8059,-0.0202,0.0432,-0.0069,-9.72,28.38,0.61,250.33,-0.38,6.57
82752,50.972656,-3.190385,89,6.98,9,222.6,17 / 21,8275572,2019-08-16 15:07:09:352,0.7836,0.374,9.3817,0.0316,0.0224,9.8066,0.098,-0.0698,-0.0005,-13.37,26.76,2.27,244.37,-1.14,5.93
82753,50.972656,-3.190385,89,6.98,9,222.6,17 / 21,8275673,2019-08-16 15:07:09:453,0.7732,-0.1137,8.5923,-0.0011,-0.0005,9.8067,-0.0107,0.0229,-0.0123,-20.42,21.25,5.61,226.98,-0.95,5.82
82754,50.972603,-3.190468,90,8.41,9,221.8,16 / 21,8275773,2019-08-16 15:07:09:553,0.3252,-0.3588,9.1431,0.0132,-0.0392,9.8066,0.0597,-0.0303,-0.0218,-18.36,21.19,10.68,230.5,-0.95,5.82
82755,50.972603,-3.190468,90,8.41,9,221.8,16 / 21,8275872,2019-08-16 15:07:09:652,0.6288,0.3451,11.6033,0.0483,-0.0418,9.8064,0.0597,-0.0303,-0.0218,-18.36,21.19,10.68,230.5,-0.95,5.82
82756,50.972603,-3.190468,90,8.41,9,221.8,16 / 21,8275973,2019-08-16 15:07:09:753,1.0914,-0.4632,10.8312,0.0433,0.0131,9.8065,-0.0192,-0.041,-0.0005,-12.79,25.59,9.04,243.89,-0.96,5.45
82757,50.972603,-3.190468,90,8.41,9,221.8,16 / 21,8276072,2019-08-16 15:07:09:852,0.4908,-0.1357,9.362,0.0845,-0.0036,9.8063,0.0192,0.0133,-0.0293,-10.15,26.66,9.27,243.89,-0.96,5.45
82758,50.972603,-3.190468,90,8.41,9,221.8,16 / 21,8276172,2019-08-16 15:07:09:952,0.0303,0.3878,10.7703,0.0643,-0.0635,9.8062,-0.1012,0.1039,0.0005,-9.01,27.45,8.08,251.8,-0.76,5.0
82759,50.972603,-3.190468,90,8.41,9,221.8,16 / 21,8276273,2019-08-16 15:07:10:053,0.2508,0.1034,10.7682,0.1574,-0.1212,9.8046,0.0522,-0.0602,-0.0261,-9.69,26.9,9.07,251.8,-0.76,5.0
82760,50.972603,-3.190468,90,8.41,9,221.8,16 / 21,8276373,2019-08-16 15:07:10:153,0.6098,-0.47,9.5047,0.1981,-0.1086,9.804,0.033,-0.0506,-0.0538,-5.63,29.3,3.16,258.33,-1.0,3.7
82761,50.972603,-3.190468,90,8.41,9,221.8,16 / 21,8276473,2019-08-16 15:07:10:253,1.0194,0.4361,9.5311,0.0449,-0.0349,9.8065,0.0032,0.057,-0.0634,-7.3,29.1,-0.1,258.33,-1.0,3.7
82762,50.972603,-3.190468,90,8.41,9,221.8,16 / 21,8276573,2019-08-16 15:07:10:353,1.0766,-0.3796,8.5073,0.2336,-0.1249,9.8031,-0.0597,0.0559,-0.0581,-7.3,29.1,-0.1,258.33,-1.0,3.7
82763,50.972603,-3.190468,90,8.41,9,221.8,16 / 21,8276673,2019-08-16 15:07:10:453,0.6073,0.5714,8.8795,0.1138,-0.0417,9.8059,-0.0597,0.0559,-0.0581,-9.04,28.6,0.57,252.78,-1.44,2.21
82764,50.97253,-3.190565,90,9.63,9,223.9,16 / 21,8276772,2019-08-16 15:07:10:552,1.8372,-0.209,8.4279,0.168,-0.0365,9.8051,0.0543,-0.0772,-0.1103,-6.93,28.7,5.33,256.28,-1.36,1.21
82765,50.97253,-3.190565,90,9.63,9,223.9,16 / 21,8276873,2019-08-16 15:07:10:653,1.268,0.9661,9.8397,0.0895,-0.0398,9.8062,0.0384,-0.0058,-0.1167,-6.64,29.25,0.56,256.41,-1.46,0.65
82766,50.97253,-3.190565,90,9.63,9,223.9,16 / 21,8276973,2019-08-16 15:07:10:753,0.6688,0.7012,11.573,0.0806,-0.0103,9.8063,0.0384,0.0219,-0.1145,-6.64,29.25,0.56,256.41,-1.46,0.65
82767,50.97253,-3.190565,90,9.63,9,223.9,16 / 21,8277072,2019-08-16 15:07:10:852,1.821,0.1206,9.1148,0.1229,0.0031,9.8059,-0.0884,-0.0005,-0.1188,-8.67,28.69,-1.37,252.8,-1.27,-0.04
82768,50.97253,-3.190565,90,9.63,9,223.9,16 / 21,8277173,2019-08-16 15:07:10:953,1.2843,0.2045,9.4201,0.1001,-0.0019,9.8061,0.0671,0.0048,-0.1433,-7.16,29.07,-1.87,256.5,-1.11,-0.61
82769,50.97253,-3.190565,90,9.63,9,223.9,16 / 21,8277273,2019-08-16 15:07:11:053,0.7198,0.6812,10.9571,0.0736,-0.0033,9.8064,0.0373,0.0389,-0.1497,-7.16,29.07,-1.87,256.5,-1.11,-0.61
82770,50.97253,-3.190565,90,9.63,9,223.9,16 / 21,8277372,2019-08-16 15:07:11:152,1.3126,0.137,8.893,0.0952,0.0337,9.8061,-0.0874,-0.0197,-0.1689,-4.66,29.64,-0.09,260.52,-0.6,-1.3
82771,50.97253,-3.190565,90,9.63,9,223.9,16 / 21,8277473,2019-08-16 15:07:11:253,1.6204,0.626,9.7651,0.1352,0.0382,9.8056,-0.0692,-0.1592,-0.2008,-4.71,29.56,-2.08,260.56,-0.32,-1.81
82772,50.97253,-3.190565,90,9.63,9,223.9,16 / 21,8277573,2019-08-16 15:07:11:353,1.5205,1.1216,8.9326,0.3256,0.1169,9.8005,-0.0692,-0.1592,-0.2008,-5.08,29.48,-2.24,260.56,-0.32,-1.81
82773,50.97253,-3.190565,90,9.63,9,223.9,16 / 21,8277673,2019-08-16 15:07:11:453,1.7688,0.5639,9.554,0.4708,0.1893,9.7935,-0.0075,-0.0133,-0.1891,-5.08,29.48,-2.24,260.56,-0.32,-1.81
82774,50.972473,-3.190682,91,10.6,9,232.2,16 / 21,8277773,2019-08-16 15:07:11:553,1.735,0.8447,9.0075,0.1268,0.0589,9.8057,-0.0224,0.0282,-0.1678,-3.18,29.61,-3.65,264.26,1.22,-4.35
82775,50.972473,-3.190682,91,10.6,9,232.2,16 / 21,8277872,2019-08-16 15:07:11:652,0.9236,1.4406,9.5813,0.2359,0.0776,9.8035,0.0575,0.0538,-0.1795,-0.66,29.63,-4.66,264.26,1.22,-4.35
82776,50.972473,-3.190682,91,10.6,9,232.2,16 / 21,8277973,2019-08-16 15:07:11:753,0.3476,0.9467,10.2954,0.2938,0.0751,9.802,0.017,0.0964,-0.1806,-2.4,29.7,-3.45,266.22,1.83,-6.01
82777,50.972473,-3.190682,91,10.6,9,232.2,16 / 21,8278072,2019-08-16 15:07:11:852,-0.046,1.0238,11.0738,0.0688,-0.0296,9.8064,0.0192,0.1039,-0.1902,-2.4,29.7,-3.45,266.22,1.83,-6.01
82778,50.972473,-3.190682,91,10.6,9,232.2,16 / 21,8278173,2019-08-16 15:07:11:953,0.3044,-0.029,8.9716,0.0598,-0.0619,9.8063,0.0213,0.0804,-0.1699,-2.5,29.86,-1.49,264.41,1.69,-6.42
82779,50.972473,-3.190682,91,10.6,9,232.2,16 / 21,8278273,2019-08-16 15:07:12:053,-0.3123,0.7687,11.1117,0.1045,-0.0963,9.8056,0.0213,0.0804,-0.1699,-0.67,29.92,-2.1,268.16,1.19,-7.09
82780,50.972473,-3.190682,91,10.6,9,232.2,16 / 21,8278373,2019-08-16 15:07:12:153,1.3314,0.0364,10.163,0.1049,0.0793,9.8058,-0.0011,0.1028,-0.1635,-1.07,29.22,-6.72,267.95,1.08,-7.51
82781,50.972473,-3.190682,91,10.6,9,232.2,16 / 21,8278473,2019-08-16 15:07:12:253,0.4933,1.2228,8.6647,0.0566,0.114,9.8058,0.0021,-0.1273,-0.1752,-1.75,29.59,-4.65,266.2,1.57,-8.1
82782,50.972473,-3.190682,91,10.6,9,232.2,16 / 21,8278573,2019-08-16 15:07:12:353,0.4205,1.2641,10.0977,0.1188,0.1846,9.8042,0.0575,-0.0687,-0.1912,-0.16,29.65,-4.57,266.2,1.57,-8.1
82783,50.972473,-3.190682,91,10.6,9,232.2,16 / 21,8278673,2019-08-16 15:07:12:453,0.5752,0.3525,9.9924,0.1385,0.2474,9.8026,0.0692,0.0112,-0.1934,-0.16,29.65,-4.57,266.2,1.57,-8.1
82784,50.972416,-3.190816,91,11.13,9,242.7,16 / 21,8278772,2019-08-16 15:07:12:552,0.1982,1.0758,11.5114,0.0123,-0.0105,9.8066,0.0533,0.0709,-0.1646,3.82,29.49,-3.96,277.82,3.07,-8.81
82785,50.972416,-3.190816,91,11.13,9,242.7,16 / 21,8278873,2019-08-16 15:07:12:653,0.5584,1.1284,9.9962,0.0153,-0.0226,9.8066,-0.0011,0.0112,-0.2115,2.7,29.53,-4.56,275.6,2.92,-8.89
82786,50.972416,-3.190816,91,11.13,9,242.7,16 / 21,8278973,2019-08-16 15:07:12:753,-0.5824,0.8352,10.1517,0.0308,-0.0273,9.8066,0.0437,0.0133,-0.188,2.19,29.74,-3.31,275.6,2.92,-8.89
82787,50.972416,-3.190816,91,11.13,9,242.7,16 / 21,8279072,2019-08-16 15:07:12:852,-0.0339,-0.2886,9.8799,0.0595,-0.1127,9.8058,0.0437,0.0133,-0.188,2.19,29.74,-3.31,275.6,2.92,-8.89
82788,50.972416,-3.190816,91,11.13,9,242.7,16 / 21,8279173,2019-08-16 15:07:12:953,-0.163,0.8857,8.9171,0.0772,-0.0867,9.806,0.0213,-0.0346,-0.1955,3.76,29.64,-2.66,277.71,2.37,-9.29
82789,50.972416,-3.190816,91,11.13,9,242.7,16 / 21,8279273,2019-08-16 15:07:13:053,-0.2242,0.7054,10.3914,0.0406,0.0719,9.8063,0.0234,0.0048,-0.2008,6.61,28.23,-7.7,283.33,2.39,-9.47
82790,50.972416,-3.190816,91,11.13,9,242.7,16 / 21,8279372,2019-08-16 15:07:13:152,-0.2161,0.2994,9.6273,0.0905,0.1233,9.8055,-0.0021,0.0527,-0.1912,6.61,28.23,-7.7,283.33,2.39,-9.47
82791,50.972416,-3.190816,91,11.13,9,242.7,16 / 21,8279473,2019-08-16 15:07:13:253,0.2927,1.0167,10.9079,-0.0175,0.0581,9.8065,0.0629,0.0836,-0.2083,3.1,29.61,-3.69,275.79,2.97,-10.15
82792,50.972416,-3.190816,91,11.13,9,242.7,16 / 21,8279573,2019-08-16 15:07:13:353,-1.1641,0.9002,11.6075,-0.0138,0.0175,9.8066,0.0511,0.0112,-0.2061,5.46,29.49,-0.74,280.32,3.32,-10.08
82793,50.972416,-3.190816,91,11.13,9,242.7,16 / 21,8279673,2019-08-16 15:07:13:453,-1.7332,-0.1525,14.7627,-0.0474,0.0591,9.8064,0.0032,0.0176,-0.1614,6.84,29.2,-0.71,284.14,3.71,-9.87
82794,50.97238,-3.190967,92,11.37,9,253.2,16 / 21,8279772,2019-08-16 15:07:13:552,-0.5445,1.1734,10.3473,0.0126,-0.1051,9.8061,-0.0128,-0.0154,-0.1167,7.7,28.69,-4.17,285.37,3.1,-9.79
82795,50.97238,-3.190967,92,11.37,9,253.2,16 / 21,8279873,2019-08-16 15:07:13:653,0.5442,0.4373,11.8403,0.0157,-0.0401,9.8066,0.0533,0.0954,-0.1795,7.7,28.69,-4.17,285.37,3.1,-9.79
82796,50.97238,-3.190967,92,11.37,9,253.2,16 / 21,8279973,2019-08-16 15:07:13:753,-1.1049,1.4767,12.72,0.0222,-0.0263,9.8066,0.0533,0.0954,-0.1795,5.18,29.48,-1.97,280.08,2.85,-9.82
82797,50.97238,-3.190967,92,11.37,9,253.2,16 / 21,8280073,2019-08-16 15:07:13:853,0.4495,-0.9504,11.0145,-0.0077,0.0419,9.8066,0.0394,-0.4341,-0.123,7.46,29.06,-0.12,284.25,3.09,-9.82
82798,50.97238,-3.190967,92,11.37,9,253.2,16 / 21,8280173,2019-08-16 15:07:13:953,-0.0921,0.4837,10.2082,0.0733,0.0138,9.8064,0.0053,-0.0378,-0.1934,7.46,29.06,-0.12,284.25,3.09,-9.82
82799,50.97238,-3.190967,92,11.37,9,253.2,16 / 21,8280273,2019-08-16 15:07:14:053,-2.1102,0.8674,10.5309,-0.0479,0.0045,9.8065,0.0064,-0.221,-0.2179,10.91,27.7,-3.72,291.36,3.59,-10.45
82800,50.97238,-3.190967,92,11.37,9,253.2,16 / 21,8280372,2019-08-16 15:07:14:152,-1.3206,-0.3591,11.5465,0.0166,0.1148,9.806,0.0735,-0.1507,-0.1816,10.1,27.87,-4.64,289.34,3.72,-10.2
82801,50.97238,-3.190967,92,11.37,9,253.2,16 / 21,8280472,2019-08-16 15:07:14:252,0.2668,0.8369,11.155,0.0435,0.1277,9.8057,0.0735,-0.0367,-0.1891,10.1,27.87,-4.64,289.34,3.72,-10.2
82802,50.97238,-3.190967,92,11.37,9,253.2,16 / 21,8280573,2019-08-16 15:07:14:353,1.2281,-0.9605,10.6932,-0.0265,-0.1059,9.806,0.0362,0.1177,-0.2179,11.3,27.66,-2.74,291.64,4.34,-10.69
82803,50.97238,-3.190967,92,11.37,9,253.2,16 / 21,8280673,2019-08-16 15:07:14:453,-1.8193,0.8301,11.401,0.0147,-0.0435,9.8065,-0.0373,0.1859,-0.187,11.99,27.46,-1.39,294.58,3.82,-10.31
82804,50.97236,-3.191133,93,11.62,9,263.1,15 / 20,8280773,2019-08-16 15:07:14:553,0.802,0.0029,9.9856,0.078,-0.0424,9.8062,0.0075,-0.0154,-0.1667,12.29,27.37,-0.12,294.82,3.41,-10.62
82805,50.97236,-3.191133,93,11.62,9,263.1,15 / 20,8280873,2019-08-16 15:07:14:653,0.0862,0.5733,8.824,-0.0052,0.0133,9.8066,0.0075,-0.0154,-0.1667,12.29,27.37,-0.12,294.82,3.41,-10.62
82806,50.97236,-3.191133,93,11.62,9,263.1,15 / 20,8280973,2019-08-16 15:07:14:753,-0.8001,0.7329,10.1294,0.0092,-0.001,9.8066,-0.0117,-0.0037,-0.1997,11.92,27.43,-2.34,294.32,3.49,-10.63
82807,50.97236,-3.191133,93,11.62,9,263.1,15 / 20,8281072,2019-08-16 15:07:14:852,-0.7433,0.9608,11.3158,0.0708,0.0393,9.8063,0.0032,-0.0069,-0.1997,13.89,26.35,-3.54,294.32,3.49,-10.63
82808,50.97236,-3.191133,93,11.62,9,263.1,15 / 20,8281172,2019-08-16 15:07:14:952,0.0903,0.4353,9.3712,0.0631,0.1042,9.8059,0.0863,-0.1433,-0.1912,10.77,27.6,-4.74,291.17,3.89,-11.22
82809,50.97236,-3.191133,93,11.62,9,263.1,15 / 20,8281273,2019-08-16 15:07:15:053,-0.5207,-0.0403,9.3949,-0.0553,0.0681,9.8063,0.0213,0.04,-0.1774,10.77,27.6,-4.74,291.17,3.89,-11.22
82810,50.97236,-3.191133,93,11.62,9,263.1,15 / 20,8281372,2019-08-16 15:07:15:152,0.5336,-0.0998,10.5169,0.0617,-0.0797,9.8061,0.016,0.1209,-0.2061,12.81,27.12,-0.72,296.46,4.38,-11.06
82811,50.97236,-3.191133,93,11.62,9,263.1,15 / 20,8281472,2019-08-16 15:07:15:252,-0.6233,-0.1067,9.8314,0.0001,0.0353,9.8066,-0.0149,0.0229,-0.172,14.53,26.24,-0.71,300.66,3.8,-11.18
82812,50.97236,-3.191133,93,11.62,9,263.1,15 / 20,8281572,2019-08-16 15:07:15:352,-0.8206,0.4181,10.6699,-0.0561,0.1371,9.8055,-0.0597,-0.0208,-0.1401,14.53,26.24,-0.71,300.66,3.8,-11.18
82813,50.97236,-3.191133,93,11.62,9,263.1,15 / 20,8281672,2019-08-16 15:07:15:452,0.0685,0.0911,8.9895,0.0361,0.0331,9.8065,0.0234,0.0464,-0.204,16.34,24.17,-7.01,302.34,4.66,-11.3
82814,50.97236,-3.191306,93,12.01,9,273.7,16 / 21,8281772,2019-08-16 15:07:15:552,-0.0736,0.2782,10.1506,0.0388,-0.027,9.8065,0.0234,0.0464,-0.204,12.66,26.75,-4.91,295.34,4.71,-11.59
82815,50.97236,-3.191306,93,12.01,9,273.7,16 / 21,8281873,2019-08-16 15:07:15:653,-0.6836,0.1195,9.1954,0.0346,-0.0073,9.8066,0.0447,0.0123,-0.204,16.33,25.06,-2.26,303.06,4.59,-11.75
82816,50.97236,-3.191306,93,12.01,9,273.7,16 / 21,8281973,2019-08-16 15:07:15:753,-0.858,0.0528,10.0375,-0.0326,0.0501,9.8065,0.0032,-0.0325,-0.1806,16.33,25.06,-2.26,303.06,4.59,-11.75
82817,50.97236,-3.191306,93,12.01,9,273.7,16 / 21,8282072,2019-08-16 15:07:15:852,-0.1495,0.1162,9.4682,-0.0067,0.043,9.8066,0.0341,0.0623,-0.1848,18.73,22.55,-6.41,308.42,4.93,-11.75
82818,50.97236,-3.191306,93,12.01,9,273.7,16 / 21,8282173,2019-08-16 15:07:15:953,0.1424,0.3632,9.5606,0.0057,0.0399,9.8066,-0.017,0.0943,-0.1806,15.03,25.34,-5.67,308.42,4.93,-11.75
82819,50.97236,-3.191306,93,12.01,9,273.7,16 / 21,8282272,2019-08-16 15:07:16:052,-0.1134,0.3482,9.1741,0.0375,0.0398,9.8065,-0.0021,0.0591,-0.188,16.4,25.06,-1.75,303.12,4.98,-12.07
82820,50.97236,-3.191306,93,12.01,9,273.7,16 / 21,8282373,2019-08-16 15:07:16:153,-0.2982,-0.0651,11.0764,-0.0103,0.0673,9.8064,-0.016,-0.0037,-0.2179,16.4,25.06,-1.75,303.12,4.98,-12.07
82821,50.97236,-3.191306,93,12.01,9,273.7,16 / 21,8282474,2019-08-16 15:07:16:254,0.0503,-0.263,9.9012,0.0092,0.0107,9.8066,0.0458,0.0911,-0.1955,17.56,24.26,-1.76,307.33,5.34,-12.23
82822,50.97236,-3.191306,93,12.01,9,273.7,16 / 21,8282573,2019-08-16 15:07:16:353,-0.5883,0.1567,11.5254,0.0163,0.0124,9.8066,0.0458,0.0911,-0.1955,17.16,24.58,-1.21,305.13,5.34,-12.35
82823,50.97236,-3.191306,93,12.01,9,273.7,16 / 21,8282672,2019-08-16 15:07:16:452,0.3365,-0.2467,9.1545,0.0093,0.0454,9.8065,0.0053,0.057,-0.2136,17.16,24.58,-1.21,305.13,5.34,-12.35
82824,50.97238,-3.191484,92,12.04,9,285.5,14 / 20,8282773,2019-08-16 15:07:16:553,-1.2252,0.2906,11.0026,-0.0377,0.0748,9.8063,0.0149,0.0655,-0.1699,18.87,23.32,-0.27,310.82,5.53,-12.55
82825,50.97238,-3.191484,92,12.04,9,285.5,14 / 20,8282873,2019-08-16 15:07:16:653,0.0459,0.3002,9.0226,-0.0339,0.1235,9.8058,0.0202,0.0591,-0.2211,20.2,22.01,-2.69,310.82,5.53,-12.55
82826,50.97238,-3.191484,92,12.04,9,285.5,14 / 20,8282974,2019-08-16 15:07:16:754,-0.9546,0.4923,10.5739,-0.0014,0.0109,9.8066,0.0256,0.0815,-0.2083,19.31,22.33,-5.33,309.94,6.2,-12.87
82827,50.97238,-3.191484,92,12.04,9,285.5,14 / 20,8283073,2019-08-16 15:07:16:853,-0.7135,0.2381,10.3464,0.0045,0.0117,9.8066,0.0202,0.0251,-0.1997,18.43,23.66,-0.78,307.88,6.24,-12.94
82828,50.97238,-3.191484,92,12.04,9,285.5,14 / 20,8283172,2019-08-16 15:07:16:952,0.0052,0.0763,9.3985,0.0197,0.0089,9.8066,0.0266,-0.0058,-0.1795,18.43,23.66,-0.78,307.88,6.24,-12.94
82829,50.97238,-3.191484,92,12.04,9,285.5,14 / 20,8283273,2019-08-16 15:07:17:053,0.1147,0.0902,10.1602,0.0181,0.0081,9.8066,0.0266,-0.0058,-0.1795,21.12,21.29,-0.77,315.82,6.21,-13.05
82830,50.97238,-3.191484,92,12.04,9,285.5,14 / 20,8283373,2019-08-16 15:07:17:153,-1.0503,0.0752,10.4721,0.0056,0.0231,9.8066,0.0341,-0.0442,-0.2147,21.46,20.87,-2.04,315.37,6.17,-13.08
82831,50.97238,-3.191484,92,12.04,9,285.5,14 / 20,8283473,2019-08-16 15:07:17:253,-0.2588,0.1788,10.0666,-0.0163,0.0539,9.8065,0.0447,-0.0335,-0.2093,19.09,23.07,-1.82,310.12,6.46,-13.24
82832,50.97238,-3.191484,92,12.04,9,285.5,14 / 20,8283572,2019-08-16 15:07:17:352,-0.1255,-0.2144,9.8667,-0.0217,0.0513,9.8065,0.0266,0.0442,-0.2072,19.09,23.07,-1.82,310.12,6.46,-13.24
82833,50.97238,-3.191484,92,12.04,9,285.5,14 / 20,8283673,2019-08-16 15:07:17:453,-0.8327,0.3391,10.496,0.013,0.0116,9.8066,-0.0149,0.0325,-0.2019,20.67,21.74,-0.41,315.06,6.77,-13.34
82834,50.97243,-3.19165,92,12.0,9,297.5,14 / 21,8283772,2019-08-16 15:07:17:552,-0.0072,0.0109,10.3952,0.0131,0.0165,9.8066,0.0405,-0.0122,-0.2051,21.84,20.57,0.06,317.67,6.78,-13.46
82835,50.97243,-3.19165,92,12.0,9,297.5,14 / 21,8283873,2019-08-16 15:07:17:653,0.2356,-0.9559,9.5082,0.0144,0.0072,9.8066,0.0117,0.106,-0.2296,21.84,20.57,0.06,317.67,6.78,-13.46
82836,50.97243,-3.19165,92,12.0,9,297.5,14 / 21,8283974,2019-08-16 15:07:17:754,-0.2098,-0.2626,9.8816,0.0203,0.0155,9.8066,0.0426,0.0879,-0.2274,19.59,22.68,-1.31,312.05,6.75,-13.55
82837,50.97243,-3.19165,92,12.0,9,297.5,14 / 21,8284074,2019-08-16 15:07:17:854,-0.6384,-0.0174,10.4874,0.0133,0.003,9.8066,-0.0213,-0.0048,-0.2253,20.85,21.52,1.39,315.59,6.73,-13.7
82838,50.97243,-3.19165,92,12.0,9,297.5,14 / 21,8284172,2019-08-16 15:07:17:952,-1.0325,0.3339,10.8084,-0.0184,0.0033,9.8066,0.0501,-0.0293,-0.2253,22.83,19.47,0.06,321.71,6.59,-13.85
82839,50.97243,-3.19165,92,12.0,9,297.5,14 / 21,8284273,2019-08-16 15:07:18:053,-0.3841,-0.2808,10.9234,-0.0247,0.0011,9.8066,0.0501,-0.0293,-0.2253,22.83,19.47,0.06,321.71,6.59,-13.85
82840,50.97243,-3.19165,92,12.0,9,297.5,14 / 21,8284373,2019-08-16 15:07:18:153,-0.1377,0.2596,11.2348,-0.0276,0.0172,9.8066,0.0426,-0.0112,-0.2306,21.19,21.12,2.26,317.4,6.7,-13.77
82841,50.97243,-3.19165,92,12.0,9,297.5,14 / 21,8284473,2019-08-16 15:07:18:253,0.3525,0.1424,9.4196,-0.0368,0.0491,9.8065,0.016,0.0251,-0.2019,22.59,21.41,3.37,317.4,6.7,-13.77
82842,50.97243,-3.19165,92,12.0,9,297.5,14 / 21,8284573,2019-08-16 15:07:18:353,-0.7364,-0.0857,8.7487,-0.0262,0.0014,9.8066,0.082,-0.0208,-0.2328,24.86,17.68,1.17,325.9,7.06,-13.84
82843,50.97243,-3.19165,92,12.0,9,297.5,14 / 21,8284673,2019-08-16 15:07:18:453,-0.7913,0.2575,10.2077,-0.0259,-0.0019,9.8066,0.0234,-0.0208,-0.2541,24.96,16.64,-0.08,326.88,7.18,-13.74
82844,50.972485,-3.191772,91,11.96,9,309.5,14 / 21,8284772,2019-08-16 15:07:18:552,0.1204,0.0267,9.3614,-0.0182,-0.0076,9.8066,-0.0138,0.0847,-0.2157,24.96,16.64,-0.08,326.88,7.18,-13.74
82845,50.972485,-3.191772,91,11.96,9,309.5,14 / 21,8284874,2019-08-16 15:07:18:654,-0.8735,0.1087,9.8938,0.0311,-0.009,9.8066,0.0181,0.089,-0.204,21.29,21.08,-1.49,315.94,7.24,-13.64
82846,50.972485,-3.191772,91,11.96,9,309.5,14 / 21,8284973,2019-08-16 15:07:18:753,0.1432,0.3644,10.6733,0.024,-0.0104,9.8066,0.0245,0.0506,-0.2253,23.05,21.74,5.29,320.01,7.1,-13.7
82847,50.972485,-3.191772,91,11.96,9,309.5,14 / 21,8285073,2019-08-16 15:07:18:853,-0.6694,0.3236,9.4024,0.0024,-0.0329,9.8066,0.0245,0.0506,-0.2253,25.36,15.95,1.55,329.4,6.96,-13.56
82848,50.972485,-3.191772,91,11.96,9,309.5,14 / 21,8285173,2019-08-16 15:07:18:953,0.0756,-0.4971,9.717,0.0127,0.0054,9.8066,-0.0075,0.0261,-0.1997,25.63,15.58,0.3,329.37,6.98,-13.59
82849,50.972485,-3.191772,91,11.96,9,309.5,14 / 21,8285272,2019-08-16 15:07:19:052,-0.2087,0.339,10.276,0.0017,0.0195,9.8066,-0.0128,0.0336,-0.2264,25.63,15.58,0.3,329.37,6.98,-13.59
82850,50.972485,-3.191772,91,11.96,9,309.5,14 / 21,8285372,2019-08-16 15:07:19:152,-0.4745,-0.0787,10.3173,0.0138,0.0166,9.8066,0.0554,-0.0335,-0.1976,20.38,20.94,6.8,318.64,7.03,-13.69
82851,50.972485,-3.191772,91,11.96,9,309.5,14 / 21,8285473,2019-08-16 15:07:19:253,-0.0052,-0.3825,10.5023,0.0423,0.0129,9.8066,0.0,0.0506,-0.2019,27.8,15.49,3.23,334.16,6.9,-13.91
82852,50.972485,-3.191772,91,11.96,9,309.5,14 / 21,8285573,2019-08-16 15:07:19:353,-0.6782,-0.0743,10.492,-0.0229,-0.0348,9.8066,0.0479,0.0442,-0.1955,27.8,15.49,3.23,334.16,6.9,-13.91
82853,50.972485,-3.191772,91,11.96,9,309.5,14 / 21,8285672,2019-08-16 15:07:19:452,-0.1915,-0.3035,9.0338,-0.0035,-0.04,9.8066,0.032,0.0538,-0.2051,26.81,13.94,1.26,333.93,6.93,-13.67
82854,50.97257,-3.191893,92,11.92,9,321.4,14 / 21,8285772,2019-08-16 15:07:19:552,-0.2001,-0.5243,10.39,0.0037,-0.0569,9.8065,0.032,0.0538,-0.2051,24.37,17.45,1.33,326.26,6.76,-13.38
82855,50.97257,-3.191893,92,11.92,9,321.4,14 / 21,8285873,2019-08-16 15:07:19:653,-0.3338,0.2448,10.8645,0.0193,-0.0118,9.8066,0.0053,-0.0154,-0.2051,24.37,17.45,1.33,326.26,6.76,-13.38
82856,50.97257,-3.191893,92,11.92,9,321.4,14 / 21,8285973,2019-08-16 15:07:19:753,0.0987,-1.1039,11.0685,0.0031,-0.022,9.8066,0.0522,0.0282,-0.2136,28.62,17.63,7.01,332.15,6.63,-13.38
82857,50.97257,-3.191893,92,11.92,9,321.4,14 / 21,8286073,2019-08-16 15:07:19:853,-0.0845,-0.071,9.6284,-0.0108,-0.0103,9.8066,-0.0053,-0.0218,-0.204,28.24,12.81,2.07,332.15,6.63,-13.38
82858,50.97257,-3.191893,92,11.92,9,321.4,14 / 21,8286172,2019-08-16 15:07:19:952,0.0011,-0.3355,10.687,0.0196,-0.0336,9.8066,0.0511,0.0005,-0.1912,27.41,12.02,2.12,337.72,6.7,-13.35
82859,50.97257,-3.191893,92,11.92,9,321.4,14 / 21,8286273,2019-08-16 15:07:20:053,0.3157,-0.3853,10.5609,0.0242,-0.0622,9.8064,0.0554,-0.0325,-0.1944,26.27,13.35,5.62,337.72,6.7,-13.35
82860,50.97257,-3.191893,92,11.92,9,321.4,14 / 21,8286372,2019-08-16 15:07:20:152,0.0701,-0.2943,9.2366,-0.0147,-0.0231,9.8066,0.0543,0.0059,-0.1806,31.18,13.94,6.2,338.89,6.43,-13.06
82861,50.97257,-3.191893,92,11.92,9,321.4,14 / 21,8286473,2019-08-16 15:07:20:253,0.5658,-0.104,9.9298,-0.0265,-0.0666,9.8064,0.0373,0.1167,-0.2189,31.18,13.94,6.2,338.89,6.43,-13.06
82862,50.97257,-3.191893,92,11.92,9,321.4,14 / 21,8286573,2019-08-16 15:07:20:353,-0.9303,-0.474,10.6562,0.0177,-0.0254,9.8066,0.0373,0.1167,-0.2189,28.99,11.0,2.07,340.64,6.43,-12.64
82863,50.97257,-3.191893,92,11.92,9,321.4,14 / 21,8286672,2019-08-16 15:07:20:452,-0.2306,-0.0612,10.5318,-0.0102,-0.0523,9.8065,-0.0032,-0.0176,-0.1689,27.33,11.76,3.82,338.47,6.39,-12.33
82864,50.972652,-3.191998,93,12.08,10,332.1,14 / 21,8286773,2019-08-16 15:07:20:553,-0.4879,-0.9863,9.9514,-0.0392,-0.0586,9.8064,0.0842,-0.0762,-0.172,27.46,13.43,6.85,338.47,6.39,-12.33
82865,50.972652,-3.191998,93,12.08,10,332.1,14 / 21,8286873,2019-08-16 15:07:20:653,0.4756,-1.4085,10.4117,-0.05,-0.117,9.8058,-0.016,0.0016,-0.1486,29.64,10.86,3.91,341.89,6.41,-11.58
82866,50.972652,-3.191998,93,12.08,10,332.1,14 / 21,8286974,2019-08-16 15:07:20:754,-0.4265,-0.4475,9.8779,-0.0203,-0.0372,9.8066,0.1087,0.0549,-0.1902,29.64,10.86,3.91,341.89,6.41,-11.58
82867,50.972652,-3.191998,93,12.08,10,332.1,14 / 21,8287073,2019-08-16 15:07:20:853,-0.167,-0.44,9.5939,-0.0524,-0.0562,9.8064,0.0266,0.0155,-0.1316,28.58,10.11,3.97,342.91,6.27,-10.94
82868,50.972652,-3.191998,93,12.08,10,332.1,14 / 21,8287173,2019-08-16 15:07:20:953,0.5104,-1.1894,9.3922,-0.0416,-0.0993,9.8061,0.0288,-0.0357,-0.1316,28.01,9.94,4.06,342.27,6.46,-10.53
82869,50.972652,-3.191998,93,12.08,10,332.1,14 / 21,8287272,2019-08-16 15:07:21:052,-1.2646,-1.0706,9.8422,-0.0711,-0.1685,9.8049,0.0692,0.0144,-0.106,25.6,11.01,11.12,341.66,6.56,-9.46
82870,50.972652,-3.191998,93,12.08,10,332.1,14 / 21,8287373,2019-08-16 15:07:21:153,-0.2006,-0.7518,10.2856,-0.0387,-0.0865,9.8062,0.0692,0.0144,-0.106,27.91,9.14,6.14,341.66,6.56,-9.46
82871,50.972652,-3.191998,93,12.08,10,332.1,14 / 21,8287473,2019-08-16 15:07:21:253,0.1637,-0.9201,8.0496,-0.1007,-0.1396,9.8051,-0.049,0.1135,-0.0698,27.91,9.14,6.14,341.66,6.56,-9.46
82872,50.972652,-3.191998,93,12.08,10,332.1,14 / 21,8287573,2019-08-16 15:07:21:353,-0.5638,-1.0496,10.1595,-0.0109,-0.0745,9.8064,0.032,-0.0644,-0.1049,27.69,10.11,5.58,342.57,6.86,-8.5
82873,50.972652,-3.191998,93,12.08,10,332.1,14 / 21,8287672,2019-08-16 15:07:21:452,-0.3869,-0.6853,10.1412,-0.027,-0.1477,9.8055,-0.0352,0.0719,-0.0858,27.69,10.11,5.58,342.57,6.86,-8.5
82874,50.97274,-3.19206,92,11.45,11,338.9,14 / 21,8287773,2019-08-16 15:07:21:553,-0.6475,-0.8951,9.5725,-0.0351,-0.0383,9.8065,0.0469,-0.0314,-0.1092,18.92,13.87,18.71,331.93,6.75,-7.62
82875,50.97274,-3.19206,92,11.45,11,338.9,14 / 21,8287872,2019-08-16 15:07:21:652,-0.0949,-0.6292,9.9799,-0.0857,-0.082,9.8059,0.0053,0.0101,-0.1017,27.51,10.27,6.13,342.21,6.97,-6.96
82876,50.97274,-3.19206,92,11.45,11,338.9,14 / 21,8287972,2019-08-16 15:07:21:752,-0.182,-0.3332,8.54,-0.0401,-0.0384,9.8065,0.0053,0.0101,-0.1017,27.51,10.27,6.13,342.21,6.97,-6.96
82877,50.97274,-3.19206,92,11.45,11,338.9,14 / 21,8288073,2019-08-16 15:07:21:853,0.0105,-0.9445,10.6095,-0.0315,-0.0736,9.8063,0.0288,0.0059,-0.0794,28.15,8.8,5.51,343.88,7.07,-6.35
82878,50.97274,-3.19206,92,11.45,11,338.9,14 / 21,8288173,2019-08-16 15:07:21:953,0.4433,-0.5445,10.7734,-0.0704,-0.1211,9.8056,0.0096,-0.0229,-0.0815,24.68,10.49,13.45,343.88,7.07,-6.35
82879,50.97274,-3.19206,92,11.45,11,338.9,14 / 21,8288272,2019-08-16 15:07:22:052,0.6818,-0.6771,8.8035,-0.0109,-0.0616,9.8065,0.049,-0.024,-0.0698,30.77,7.93,8.91,347.5,7.27,-5.55
82880,50.97274,-3.19206,92,11.45,11,338.9,14 / 21,8288373,2019-08-16 15:07:22:153,0.1959,-0.4931,9.6278,-0.0302,-0.1304,9.8057,0.0032,0.0272,-0.0549,29.12,6.82,2.36,347.5,7.27,-5.55
82881,50.97274,-3.19206,92,11.45,11,338.9,14 / 21,8288473,2019-08-16 15:07:22:253,0.9307,-0.9453,9.7484,-0.0528,-0.2067,9.8043,-0.0032,0.0165,-0.0676,28.84,8.19,1.11,344.74,7.31,-4.3
82882,50.97274,-3.19206,92,11.45,11,338.9,14 / 21,8288573,2019-08-16 15:07:22:353,0.3402,-0.9549,10.3227,-0.0098,-0.0441,9.8065,0.0373,0.0197,-0.0772,28.84,8.19,1.11,344.74,7.31,-4.3
82883,50.97274,-3.19206,92,11.45,11,338.9,14 / 21,8288673,2019-08-16 15:07:22:453,0.5715,-1.0479,9.4677,-0.0171,-0.0501,9.8065,-0.0021,-0.0101,-0.0783,27.05,12.3,4.15,336.89,7.3,-4.03
82884,50.97283,-3.19212,92,11.17,12,343.2,14 / 21,8288773,2019-08-16 15:07:22:553,0.2459,-0.4289,9.7534,-0.0188,-0.0935,9.8062,-0.0021,-0.0101,-0.0783,23.95,11.79,13.69,336.55,7.18,-3.48
82885,50.97283,-3.19212,92,11.17,12,343.2,14 / 21,8288873,2019-08-16 15:07:22:653,0.0876,-0.5122,9.7656,-0.0539,-0.0422,9.8064,0.017,0.0016,-0.0602,29.64,8.99,2.16,343.55,7.37,-3.13
82886,50.97283,-3.19212,92,11.17,12,343.2,14 / 21,8288972,2019-08-16 15:07:22:752,0.216,-0.7962,10.8873,-0.0103,-0.022,9.8066,-0.0192,0.0176,-0.0762,29.64,8.99,2.16,343.55,7.37,-3.13
82887,50.97283,-3.19212,92,11.17,12,343.2,14 / 21,8289073,2019-08-16 15:07:22:853,0.7318,0.1166,9.9742,-0.0185,-0.0392,9.8066,0.0277,0.0634,-0.0517,28.43,9.53,0.85,340.43,7.45,-2.77
82888,50.97283,-3.19212,92,11.17,12,343.2,14 / 21,8289172,2019-08-16 15:07:22:952,0.2587,-0.195,9.5316,-0.0296,-0.0133,9.8066,0.0064,0.0091,-0.0666,24.36,14.01,10.5,331.72,7.47,-2.52
82889,50.97283,-3.19212,92,11.17,12,343.2,14 / 21,8289273,2019-08-16 15:07:23:053,0.1402,-0.2414,9.814,-0.0574,-0.0431,9.8064,0.0416,0.0059,-0.0676,30.35,10.44,7.08,342.42,7.65,-2.14
82890,50.97283,-3.19212,92,11.17,12,343.2,14 / 21,8289372,2019-08-16 15:07:23:152,-0.2816,-0.7508,9.3199,0.0017,-0.038,9.8066,0.0405,-0.0048,-0.0708,30.35,10.44,7.08,342.42,7.65,-2.14
82891,50.97283,-3.19212,92,11.17,12,343.2,14 / 21,8289473,2019-08-16 15:07:23:253,0.5655,-0.0722,10.705,-0.0209,-0.023,9.8066,-0.0202,0.0282,-0.0591,28.26,9.73,2.63,340.66,7.57,-1.93
82892,50.97283,-3.19212,92,11.17,12,343.2,14 / 21,8289573,2019-08-16 15:07:23:353,0.9199,-0.2914,10.1011,-0.019,-0.0376,9.8066,0.0096,-0.025,-0.0794,28.26,9.73,2.63,340.66,7.57,-1.93
82893,50.97283,-3.19212,92,11.17,12,343.2,14 / 21,8289672,2019-08-16 15:07:23:452,0.5929,-0.2449,8.7735,-0.0224,-0.0083,9.8066,0.0096,-0.025,-0.0794,23.75,13.72,12.16,331.79,7.6,-1.68
82894,50.972923,-3.192167,91,10.95,15,346.8,14 / 21,8289774,2019-08-16 15:07:23:554,-0.1867,0.0509,10.2304,-0.0243,-0.0148,9.8066,0.016,0.0389,-0.0751,31.1,8.94,6.21,344.36,7.69,-1.53
82895,50.972923,-3.192167,91,10.95,15,346.8,14 / 21,8289873,2019-08-16 15:07:23:653,0.0614,0.1042,10.3596,-0.0066,0.0183,9.8066,0.017,0.0272,-0.0772,31.1,8.94,6.21,344.36,7.69,-1.53
82896,50.972923,-3.192167,91,10.95,15,346.8,14 / 21,8289972,2019-08-16 15:07:23:752,0.5812,0.1048,9.9968,0.01,0.0159,9.8066,0.0085,-0.0346,-0.0985,28.86,7.6,3.09,344.83,7.75,-1.63
82897,50.972923,-3.192167,91,10.95,15,346.8,14 / 21,8290072,2019-08-16 15:07:23:852,-0.2396,0.4214,8.9857,0.0027,0.0077,9.8066,0.0149,0.0037,-0.1028,27.51,7.74,9.13,345.08,7.72,-1.73
82898,50.972923,-3.192167,91,10.95,15,346.8,14 / 21,8290173,2019-08-16 15:07:23:953,0.9599,0.469,9.6738,-0.0096,0.0435,9.8065,0.0362,-0.1081,-0.1103,27.51,7.74,9.13,345.08,7.72,-1.73
82899,50.972923,-3.192167,91,10.95,15,346.8,14 / 21,8290273,2019-08-16 15:07:24:053,0.2753,0.6443,8.692,-0.0304,0.0218,9.8066,0.0075,0.0538,-0.1252,31.47,7.12,4.21,347.64,7.84,-1.97
82900,50.972923,-3.192167,91,10.95,15,346.8,14 / 21,8290373,2019-08-16 15:07:24:153,0.1373,0.8943,9.7788,-0.0411,0.0567,9.8064,-0.0192,-0.0506,-0.122,29.48,5.29,1.66,350.38,8.15,-2.24
82901,50.972923,-3.192167,91,10.95,15,346.8,14 / 21,8290473,2019-08-16 15:07:24:253,0.9418,0.0728,10.9281,-0.0045,0.0318,9.8066,-0.0192,-0.0506,-0.122,29.32,6.1,1.79,350.38,8.15,-2.24
82902,50.972923,-3.192167,91,10.95,15,346.8,14 / 21,8290573,2019-08-16 15:07:24:353,0.3502,0.7014,10.1781,0.0107,0.089,9.8062,-0.0202,0.0069,-0.1294,29.32,6.1,1.79,350.38,8.15,-2.24
82903,50.972923,-3.192167,91,10.95,15,346.8,14 / 21,8290672,2019-08-16 15:07:24:452,1.1477,0.1192,9.3236,0.0227,0.0342,9.8066,0.0298,0.0101,-0.1486,25.6,8.94,14.52,343.52,8.17,-2.77
82904,50.973045,-3.192195,91,11.84,16,352.6,14 / 21,8290773,2019-08-16 15:07:24:553,0.1546,0.7605,10.1305,0.0632,0.0862,9.8061,-0.0383,0.0964,-0.1092,30.72,4.87,2.52,351.21,7.96,-3.36
82905,50.973045,-3.192195,91,11.84,16,352.6,14 / 21,8290872,2019-08-16 15:07:24:652,1.0168,0.8047,9.6519,0.0338,0.1048,9.806,-0.0202,0.0368,-0.1401,30.72,4.87,2.52,351.21,7.96,-3.36
82906,50.973045,-3.192195,91,11.84,16,352.6,14 / 21,8290972,2019-08-16 15:07:24:752,0.4167,0.1385,10.396,0.0002,0.0624,9.8065,-0.0064,-0.0463,-0.1614,29.38,5.78,1.88,348.63,7.86,-4.01
82907,50.973045,-3.192195,91,11.84,16,352.6,14 / 21,8291073,2019-08-16 15:07:24:853,0.0535,0.9844,8.2792,0.0073,0.1205,9.8059,0.0053,0.0741,-0.138,27.78,7.81,12.02,346.66,7.95,-4.71
82908,50.973045,-3.192195,91,11.84,16,352.6,14 / 21,8291172,2019-08-16 15:07:24:952,0.6253,0.9801,9.8928,-0.0176,0.0567,9.8065,0.0128,-0.0154,-0.1369,31.47,4.19,2.46,346.66,7.95,-4.71
82909,50.973045,-3.192195,91,11.84,16,352.6,14 / 21,8291273,2019-08-16 15:07:25:053,-0.0929,0.5873,10.501,-0.0351,0.112,9.8059,0.0128,-0.0154,-0.1369,31.47,4.19,2.46,346.66,7.95,-4.71
82910,50.973045,-3.192195,91,11.84,16,352.6,14 / 21,8291373,2019-08-16 15:07:25:153,0.1665,0.7292,10.669,-0.0178,0.0453,9.8065,-0.0043,0.025,-0.1444,29.69,3.73,2.16,352.79,8.3,-5.31
82911,50.973045,-3.192195,91,11.84,16,352.6,14 / 21,8291472,2019-08-16 15:07:25:252,0.7286,0.4754,10.227,-0.0265,0.0776,9.8063,0.0181,-0.0133,-0.1422,29.69,3.73,2.16,352.79,8.3,-5.31
82912,50.973045,-3.192195,91,11.84,16,352.6,14 / 21,8291572,2019-08-16 15:07:25:352,-0.2272,-0.0178,11.1283,0.0061,0.0179,9.8066,0.0256,-0.0325,-0.1465,28.87,4.9,9.03,352.29,8.51,-5.74
82913,50.973045,-3.192195,91,11.84,16,352.6,14 / 21,8291673,2019-08-16 15:07:25:453,0.7522,0.6375,9.501,0.0692,0.0588,9.8062,0.0362,0.0112,-0.1412,29.93,1.6,1.17,356.4,8.16,-6.14
82914,50.97316,-3.192246,92,11.95,18,0.5,14 / 21,8291773,2019-08-16 15:07:25:553,0.7108,0.8428,10.439,0.0655,0.0125,9.8064,0.0064,0.1305,-0.1188,29.84,1.41,2.8,358.73,7.78,-6.24
82915,50.97316,-3.192246,92,11.95,18,0.5,14 / 21,8291873,2019-08-16 15:07:25:653,0.0763,0.1699,8.4068,0.0041,0.0063,9.8066,-0.0383,0.0037,-0.139,29.84,1.41,2.8,358.73,7.78,-6.24
82916,50.97316,-3.192246,92,11.95,18,0.5,14 / 21,8291973,2019-08-16 15:07:25:753,0.3084,0.3265,8.5535,-0.0853,0.0891,9.8059,0.0064,-0.0069,-0.1582,27.97,4.01,10.07,358.73,7.78,-6.24
82917,50.97316,-3.192246,92,11.95,18,0.5,14 / 21,8292073,2019-08-16 15:07:25:853,-0.5169,-0.0467,10.9216,-0.052,0.0244,9.8065,0.0064,-0.0069,-0.1582,31.8,1.59,1.97,356.87,8.29,-6.75
82918,50.97316,-3.192246,92,11.95,18,0.5,14 / 21,8292173,2019-08-16 15:07:25:953,-0.3045,0.4359,9.6589,-0.0223,0.0183,9.8066,0.0149,-0.0101,-0.1561,29.97,1.24,0.42,358.08,8.6,-6.88
82919,50.97316,-3.192246,92,11.95,18,0.5,14 / 21,8292272,2019-08-16 15:07:26:052,-0.0785,0.1703,9.9095,-0.0143,-0.0071,9.8066,0.0096,-0.0048,-0.1326,29.26,3.37,5.69,355.66,8.74,-6.98
82920,50.97316,-3.192246,92,11.95,18,0.5,14 / 21,8292373,2019-08-16 15:07:26:153,-0.2377,-0.1996,10.1586,0.0048,-0.032,9.8066,0.0554,0.0208,-0.1369,29.26,3.37,5.69,355.66,8.74,-6.98
82921,50.97316,-3.192246,92,11.95,18,0.5,14 / 21,8292473,2019-08-16 15:07:26:253,0.5511,0.2677,10.3297,0.0554,-0.0219,9.8065,0.0085,0.0741,-0.1145,32.18,2.27,5.66,357.76,8.69,-6.8
82922,50.97316,-3.192246,92,11.95,18,0.5,14 / 21,8292573,2019-08-16 15:07:26:353,0.0906,0.1796,10.4075,0.1214,-0.0491,9.8058,0.032,0.0847,-0.0975,29.98,0.89,0.37,358.09,7.97,-6.54
82923,50.97316,-3.192246,92,11.95,18,0.5,14 / 21,8292672,2019-08-16 15:07:26:452,-0.5408,-0.2599,9.9746,0.0258,-0.0346,9.8066,0.0064,0.0698,-0.1081,29.98,0.89,0.37,358.09,7.97,-6.54
82924,50.973324,-3.19218,92,12.91,13,10.1,14 / 21,8292772,2019-08-16 15:07:26:552,0.0968,0.1261,9.4538,0.0092,-0.0512,9.8065,0.0064,0.0698,-0.1081,24.66,2.89,16.83,357.6,7.91,-6.24
82925,50.973324,-3.19218,92,12.91,13,10.1,14 / 21,8292873,2019-08-16 15:07:26:653,0.5984,-0.1065,9.1483,-0.0063,-0.0408,9.8066,0.0298,-0.0644,-0.106,31.8,0.46,1.59,0.38,8.02,-6.03
82926,50.973324,-3.19218,92,12.91,13,10.1,14 / 21,8292972,2019-08-16 15:07:26:752,-0.6898,-1.1821,10.5843,-0.0352,-0.1135,9.8059,0.0426,-0.0548,-0.0762,31.8,0.46,1.59,0.38,8.02,-6.03
82927,50.973324,-3.19218,92,12.91,13,10.1,14 / 21,8293072,2019-08-16 15:07:26:852,0.1289,-0.6248,9.6942,-0.0231,-0.0474,9.8065,0.0234,0.0069,-0.0826,30.0,0.08,0.29,0.0,8.23,-5.36
82928,50.973324,-3.19218,92,12.91,13,10.1,14 / 21,8293172,2019-08-16 15:07:26:952,-0.5766,-0.9506,10.3971,0.0232,-0.0454,9.8065,-0.0341,0.0847,-0.0559,29.63,-0.4,4.69,0.83,8.37,-5.08
82929,50.973324,-3.19218,92,12.91,13,10.1,14 / 21,8293273,2019-08-16 15:07:27:053,0.2889,-0.5853,9.2686,0.0221,-0.1149,9.806,0.0107,0.0496,-0.0559,31.45,0.07,6.52,0.97,8.25,-4.4
82930,50.973324,-3.19218,92,12.91,13,10.1,14 / 21,8293372,2019-08-16 15:07:27:152,0.1861,-1.0191,9.3603,-0.003,-0.0805,9.8063,0.0117,0.1092,-0.0581,31.45,0.07,6.52,0.97,8.25,-4.4
82931,50.973324,-3.19218,92,12.91,13,10.1,14 / 21,8293473,2019-08-16 15:07:27:253,-0.5609,-1.0663,9.1839,-0.0083,-0.1458,9.8056,-0.0543,-0.0623,-0.0581,29.97,1.31,0.3,358.07,8.31,-3.54
82932,50.973324,-3.19218,92,12.91,13,10.1,14 / 21,8293572,2019-08-16 15:07:27:352,-0.3138,-0.4294,8.7154,-0.0631,0.0036,9.8064,-0.0543,-0.0623,-0.0581,27.99,0.11,10.8,1.33,8.68,-3.55
82933,50.973324,-3.19218,92,12.91,13,10.1,14 / 21,8293673,2019-08-16 15:07:27:453,-0.6367,-0.5542,8.0535,-0.0796,-0.0086,9.8063,-0.0703,-0.0548,-0.0282,27.99,0.11,10.8,1.33,8.68,-3.55
82934,50.97344,-3.192152,93,13.39,13,14.0,14 / 21,8293773,2019-08-16 15:07:27:553,-0.2518,-0.994,9.2483,-0.0738,0.0678,9.8061,-0.1683,0.0272,-0.0623,35.51,-2.11,10.21,4.05,9.59,-3.65
82935,50.97344,-3.192152,93,13.39,13,14.0,14 / 21,8293873,2019-08-16 15:07:27:653,-0.1625,-0.3473,10.5024,-0.1176,0.1057,9.8054,-0.1747,-0.0261,0.008,30.38,-1.36,1.96,4.05,9.59,-3.65
82936,50.97344,-3.192152,93,13.39,13,14.0,14 / 21,8293972,2019-08-16 15:07:27:752,0.229,-0.1154,8.4001,-0.0302,-0.0109,9.8066,-0.0756,0.0272,-0.0453,29.28,-5.22,3.9,10.27,10.23,-4.33
82937,50.97344,-3.192152,93,13.39,13,14.0,14 / 21,8294072,2019-08-16 15:07:27:852,0.097,-0.5887,8.1967,-0.0627,-0.0399,9.8064,-0.0021,-0.0048,0.008,29.28,-5.22,3.9,10.27,10.23,-4.33
82938,50.97344,-3.192152,93,13.39,13,14.0,14 / 21,8294173,2019-08-16 15:07:27:953,0.3969,-0.7802,9.5836,-0.0145,-0.0895,9.8062,-0.065,0.0187,0.0346,30.01,-3.24,4.02,6.21,10.63,-4.16
82939,50.97344,-3.192152,93,13.39,13,14.0,14 / 21,8294272,2019-08-16 15:07:28:052,-0.0156,-1.5113,10.6839,-0.0904,-0.2016,9.8042,0.0234,-0.0985,-0.0112,29.87,-2.54,1.11,6.21,10.63,-4.16
82940,50.97344,-3.192152,93,13.39,13,14.0,14 / 21,8294373,2019-08-16 15:07:28:153,0.2595,-1.2142,8.9294,-0.136,-0.2965,9.8012,0.0277,-0.0985,0.0208,29.85,-2.57,1.57,5.92,11.61,-2.49
82941,50.97344,-3.192152,93,13.39,13,14.0,14 / 21,8294473,2019-08-16 15:07:28:253,-0.4234,-0.9325,10.6561,-0.0201,-0.1398,9.8056,0.0277,-0.0985,0.0208,29.79,-3.11,1.65,5.92,11.61,-2.49
82942,50.97344,-3.192152,93,13.39,13,14.0,14 / 21,8294573,2019-08-16 15:07:28:353,-0.6379,-0.9273,9.4832,-0.0028,-0.3309,9.8011,0.0522,0.0687,0.0772,29.79,-3.11,1.65,5.92,11.61,-2.49
82943,50.97344,-3.192152,93,13.39,13,14.0,14 / 21,8294673,2019-08-16 15:07:28:453,1.7833,-2.6528,12.2909,-0.0084,-0.1364,9.8057,0.0842,0.0911,0.041,29.92,-1.85,1.22,3.89,11.82,-0.53
82944,50.97356,-3.192113,93,13.29,12,13.3,14 / 21,8294773,2019-08-16 15:07:28:553,0.0762,-1.3528,9.7472,0.1226,-0.2992,9.8013,-0.0032,0.1657,0.1017,29.41,-3.34,4.89,5.6,11.21,1.3
82945,50.97356,-3.192113,93,13.29,12,13.3,14 / 21,8294873,2019-08-16 15:07:28:653,0.3674,-1.6744,10.1419,0.0895,-0.1438,9.8052,0.0266,-0.0133,0.0826,29.41,-3.34,4.89,5.6,11.21,1.3
82946,50.97356,-3.192113,93,13.29,12,13.3,14 / 21,8294973,2019-08-16 15:07:28:753,-0.1724,-1.1083,8.6247,-0.022,-0.1034,9.8061,-0.0415,-0.0421,0.0762,30.01,-1.36,6.96,1.17,10.87,3.04
82947,50.97356,-3.192113,93,13.29,12,13.3,14 / 21,8295073,2019-08-16 15:07:28:853,-0.1458,-1.0032,10.5128,0.0323,-0.1107,9.806,0.0192,-0.0378,0.0964,29.83,0.08,3.14,359.63,11.01,3.66
82948,50.97356,-3.192113,93,13.29,12,13.3,14 / 21,8295172,2019-08-16 15:07:28:952,0.2914,-1.029,10.7304,0.0214,-0.2139,9.8043,0.0192,-0.0559,0.123,29.83,0.08,3.14,359.63,11.01,3.66
82949,50.97356,-3.192113,93,13.29,12,13.3,14 / 21,8295273,2019-08-16 15:07:29:053,0.5533,-1.29,10.792,-0.098,-0.1315,9.8053,0.0192,-0.0559,0.123,27.73,-1.4,11.36,0.1,10.88,4.93
82950,50.97356,-3.192113,93,13.29,12,13.3,14 / 21,8295373,2019-08-16 15:07:29:153,-0.1371,-1.0844,9.6521,-0.0913,-0.2872,9.802,0.0085,0.0101,0.1539,29.88,0.87,2.55,357.44,11.41,6.64
82951,50.97356,-3.192113,93,13.29,12,13.3,14 / 21,8295473,2019-08-16 15:07:29:253,-0.3349,-0.7445,9.2219,0.0755,-0.1239,9.8056,-0.0053,0.1018,0.1166,29.71,-0.39,4.15,357.44,11.41,6.64
82952,50.97356,-3.192113,93,13.29,12,13.3,14 / 21,8295573,2019-08-16 15:07:29:353,0.5068,-0.7536,10.2743,0.1947,-0.2489,9.8016,-0.065,0.0655,0.1465,25.0,-3.32,16.25,1.51,10.21,8.06
82953,50.97356,-3.192113,93,13.29,12,13.3,14 / 21,8295672,2019-08-16 15:07:29:452,0.5594,-0.4593,8.629,0.0427,-0.0792,9.8062,-0.0149,-0.0783,0.1241,25.0,-3.32,16.25,1.51,10.21,8.06
82954,50.973675,-3.192078,94,12.93,12,7.4,14 / 21,8295773,2019-08-16 15:07:29:553,0.9084,-0.8465,10.3551,0.0769,-0.171,9.8049,0.0128,-0.0005,0.1198,29.8,1.22,3.27,357.22,9.78,9.09
82955,50.973675,-3.192078,94,12.93,12,7.4,14 / 21,8295872,2019-08-16 15:07:29:652,0.6233,-0.4925,8.6157,0.0871,-0.1556,9.805,-0.0479,0.09,0.1188,29.86,1.79,2.22,357.22,9.78,9.09
82956,50.973675,-3.192078,94,12.93,12,7.4,14 / 21,8295973,2019-08-16 15:07:29:753,0.9082,-0.9555,10.3022,0.0649,-0.2213,9.8039,0.0671,-0.1486,0.1465,26.56,-2.44,13.73,358.9,9.34,10.38
82957,50.973675,-3.192078,94,12.93,12,7.4,14 / 21,8296073,2019-08-16 15:07:29:853,0.1797,-0.1676,10.987,-0.0488,-0.0992,9.806,0.0671,-0.1486,0.1465,26.56,-2.44,13.73,358.9,9.34,10.38
82958,50.973675,-3.192078,94,12.93,12,7.4,14 / 21,8296173,2019-08-16 15:07:29:953,-0.3077,-0.0836,8.327,0.0159,-0.0509,9.8065,0.016,0.0187,0.0985,29.74,3.06,2.44,353.63,9.61,10.97
82959,50.973675,-3.192078,94,12.93,12,7.4,14 / 21,8296273,2019-08-16 15:07:30:053,0.7103,0.3467,10.5605,0.1551,-0.134,9.8045,-0.0085,0.1177,0.1806,29.74,3.06,2.44,353.63,9.61,10.97
82960,50.973675,-3.192078,94,12.93,12,7.4,14 / 21,8296373,2019-08-16 15:07:30:153,-0.032,-0.3067,10.2935,0.0771,-0.0957,9.8059,-0.0085,-0.0335,0.1475,29.09,4.99,5.38,348.58,8.62,11.66
82961,50.973675,-3.192078,94,12.93,12,7.4,14 / 21,8296472,2019-08-16 15:07:30:252,0.2101,-0.9867,9.8685,0.0688,-0.1915,9.8045,-0.0597,0.0666,0.1848,30.76,1.95,7.77,353.33,8.01,12.68
82962,50.973675,-3.192078,94,12.93,12,7.4,14 / 21,8296572,2019-08-16 15:07:30:352,0.1462,-0.8114,8.7115,0.0452,-0.0794,9.8062,-0.0128,0.0282,0.1742,29.38,5.35,2.82,353.33,8.01,12.68
82963,50.973675,-3.192078,94,12.93,12,7.4,14 / 21,8296673,2019-08-16 15:07:30:453,-0.1811,-0.5066,10.0115,0.0623,-0.1566,9.8052,-0.0224,-0.0836,0.1518,29.36,5.63,2.56,347.28,7.54,13.56
82964,50.973785,-3.192046,95,12.68,12,0.2,14 / 21,8296773,2019-08-16 15:07:30:553,0.232,-0.675,10.1503,-0.0806,-0.1197,9.8056,0.0011,-0.0421,0.1497,29.36,5.63,2.56,347.28,7.54,13.56
82965,50.973785,-3.192046,95,12.68,12,0.2,14 / 21,8296872,2019-08-16 15:07:30:652,-0.2245,-0.0955,10.2961,0.0116,-0.0706,9.8064,0.0011,-0.0421,0.1497,26.32,4.03,13.82,345.03,7.84,14.35
82966,50.973785,-3.192046,95,12.68,12,0.2,14 / 21,8296973,2019-08-16 15:07:30:753,0.0916,0.2503,10.6339,0.0691,-0.1579,9.8051,0.0053,0.0613,0.1571,29.64,5.32,4.29,348.96,7.21,15.15
82967,50.973785,-3.192046,95,12.68,12,0.2,14 / 21,8297072,2019-08-16 15:07:30:852,0.2046,0.4475,10.7901,0.0341,-0.0408,9.8065,-0.0117,0.0464,0.1657,29.64,5.32,4.29,348.96,7.21,15.15
82968,50.973785,-3.192046,95,12.68,12,0.2,14 / 21,8297172,2019-08-16 15:07:30:952,0.8262,-0.6668,10.9913,0.0474,-0.0244,9.8065,-0.066,0.0772,0.1614,29.25,6.4,1.91,347.64,6.97,15.34
