,GPS LATITUDE (degrees), GPS LONGITUDE (degrees), GPS ALTITUDE (m), GPS SPEED (Kmh), GPS ACCURACY (m), GPS ORIENTATION (Â°),GPS SATELLITES IN RANGE, TIME SINCE START (ms), DATE (YYYY-MO-DD HH-MI-SS_SSS), ACCELEROMETER X (m/s²) , ACCELEROMETER Y (m/s²), ACCELEROMETER Z (m/s²), GRAVITY X (m/s²), GRAVITY Y (m/s²), GRAVITY Z (m/s²), GYROSCOPE Yaw (rad/s), GYROSCOPE Pitch (rad/s), GYROSCOPE Roll (rad/s), MAGNETIC FIELD X (Î¼T), MAGNETIC FIELD Y (Î¼T), MAGNETIC FIELD Z (Î¼T), ORIENTATION (Yaw) (Â°), ORIENTATION (Pitch) (Â°), ORIENTATION (Roll ) (Â°)
25331,52.30478,-1.120278,175.83,28.28,4,154.31,20 / 21,2533111,2020-01-08 10:57:59:785,1.4729,0.4619,10.7226,-0.0176,-0.0093,9.8066,-0.0619,0.0689,-0.026,-19.19,-31.25,33.25,15.42,-85.59,-135.65
25332,52.30478,-1.120278,175.83,28.28,4,154.31,21 / 21,2533210,2020-01-08 10:57:59:884,-0.9528,-0.1471,9.0307,-0.046,-0.008,9.8065,-0.0558,0.0553,-0.0323,-19.25,-31.06,33.06,11.89,-85.58,-138.95
25333,52.30478,-1.120278,175.83,28.28,4,154.31,21 / 21,2533311,2020-01-08 10:57:59:985,1.3777,-0.2151,9.7597,-0.0283,0.0129,9.8066,-0.0546,0.0742,-0.0007,-18.87,-31.5,33.69,16.63,-85.6,-135.22
25334,52.30478,-1.120278,175.83,28.28,4,154.31,21 / 21,2533411,2020-01-08 10:58:00:085,-0.7422,0.9476,8.7102,-0.0142,0.0235,9.8065,0.0278,-0.0528,0.0234,-19.31,-31.19,33.13,15.45,-85.59,-135.62
25335,52.30478,-1.120278,175.83,28.28,4,154.31,21 / 21,2533511,2020-01-08 10:58:00:185,-0.5134,0.2161,9.7452,0.0128,-0.0108,9.8066,0.0361,0.026,-0.113,-19.25,-30.94,33.5,14.83,-85.65,-136.9
25336,52.30478,-1.120278,175.83,28.28,4,154.31,21 / 21,2533610,2020-01-08 10:58:00:284,1.0223,0.6188,10.3354,0.0048,0.0127,9.8066,0.0703,0.1098,-0.0527,-19.56,-31.12,32.88,13.53,-85.59,-136.12
25337,52.30478,-1.120278,175.83,28.28,4,154.31,21 / 21,2533711,2020-01-08 10:58:00:385,-2.6782,-1.6324,10.2876,0.0206,-0.0162,9.8065,0.0446,0.1265,-0.0892,-19.12,-30.87,32.81,14.87,-85.43,-136.2
25338,52.30478,-1.120278,175.83,28.28,4,154.31,21 / 21,2533811,2020-01-08 10:58:00:485,-0.5,-1.0784,10.0588,0.0306,0.0544,9.8064,-0.0363,0.2478,-0.1433,-18.87,-30.94,32.81,16.63,-85.68,-134.49
25339,52.30478,-1.120278,175.83,28.28,4,154.31,21 / 21,2533911,2020-01-08 10:58:00:585,-2.8933,-1.4356,9.9699,0.0423,0.0074,9.8065,-0.0461,0.3874,-0.2159,-19.31,-31.12,33.56,16.94,-85.5,-134.96
25340,52.30478,-1.120278,175.83,28.28,4,154.31,21 / 21,2534011,2020-01-08 10:58:00:685,2.6356,1.7695,9.0908,0.0137,0.0552,9.8064,-0.0843,0.4778,-0.2605,-19.56,-31.44,33.06,15.38,-85.28,-134.45
25341,52.30478,-1.120278,175.83,28.28,4,154.31,21 / 21,2534111,2020-01-08 10:58:00:785,-1.9338,-2.7713,10.6644,0.0543,0.0453,9.8064,-0.08,0.4972,-0.3339,-19.0,-31.12,33.5,15.14,-85.55,-136.63
25342,52.30478,-1.120278,175.83,28.28,4,154.31,21 / 21,2534211,2020-01-08 10:58:00:885,0.2979,-0.6793,9.4826,0.0111,0.008,9.8066,-0.002,0.2945,-0.2443,-19.12,-31.81,33.06,13.46,-85.45,-137.54
25343,52.30478,-1.120278,175.83,28.28,4,154.31,21 / 21,2534311,2020-01-08 10:58:00:985,-0.02,1.2623,8.5573,0.0179,0.0242,9.8065,0.1242,-0.035,0.0193,-18.94,-31.37,33.19,15.26,-85.59,-135.79
25344,52.30478,-1.120278,175.83,28.28,4,154.31,21 / 21,2534410,2020-01-08 10:58:01:084,-2.3347,-1.9979,10.3847,-0.017,-0.0436,9.8065,0.0541,-0.2577,0.0709,-18.81,-31.19,33.69,18.64,-85.62,-133.32
25345,52.30478,-1.120278,175.83,28.28,4,154.31,21 / 21,2534511,2020-01-08 10:58:01:185,-0.286,0.1222,10.0546,-0.0114,-0.0307,9.8066,0.1405,-0.3861,0.1992,-19.19,-30.75,33.13,18.04,-85.3,-133.26
25346,52.30478,-1.120278,175.83,28.28,4,154.31,21 / 21,2534611,2020-01-08 10:58:01:285,-0.9482,-1.9246,9.4821,-0.016,-0.0424,9.8065,0.0995,-0.3988,0.2264,-18.31,-31.06,33.38,19.82,-85.24,-132.96
25347,52.30478,-1.120278,175.83,28.28,4,154.31,21 / 21,2534711,2020-01-08 10:58:01:385,2.3498,1.4363,9.7361,-0.0264,-0.0345,9.8065,0.1058,-0.4709,0.1179,-19.31,-30.62,33.0,16.47,-85.37,-134.71
25348,52.30478,-1.120278,175.83,28.28,4,154.31,21 / 21,2534811,2020-01-08 10:58:01:485,-1.513,-0.7363,9.6849,-0.0191,-0.0027,9.8066,0.037,-0.3157,0.2077,-18.81,-31.25,33.06,14.1,-85.52,-136.9
25349,52.30478,-1.120278,175.83,28.28,4,154.31,21 / 21,2534910,2020-01-08 10:58:01:584,4.085,0.1769,9.6791,-0.0985,-0.0415,9.806,-0.0182,-0.131,0.1884,-18.62,-30.75,33.19,9.7,-85.8,-140.97
25350,52.30478,-1.120278,175.83,28.28,4,154.31,21 / 21,2535011,2020-01-08 10:58:01:685,-2.8559,-0.8598,10.572,-0.0218,0.0225,9.8065,-0.0935,0.0722,0.0504,-19.0,-30.81,33.38,16.24,-85.6,-134.88
25351,52.30478,-1.120278,175.83,28.28,4,154.31,21 / 21,2535111,2020-01-08 10:58:01:785,1.782,0.6949,9.0226,-0.0293,-0.006,9.8066,-0.2016,0.1242,0.0019,-18.94,-31.69,33.69,15.87,-85.56,-135.98
25352,52.30478,-1.120278,175.83,28.28,4,154.31,21 / 21,2535211,2020-01-08 10:58:01:885,1.6757,-0.5515,10.2201,-0.0477,0.0307,9.8065,-0.1943,0.0644,0.1123,-19.0,-31.37,33.31,9.44,-85.52,-141.25
25353,52.30478,-1.120278,175.83,28.28,4,154.31,21 / 21,2535310,2020-01-08 10:58:01:984,-1.5474,-0.994,10.1912,-0.0076,0.0432,9.8065,-0.103,-0.0086,0.0499,-19.19,-31.62,33.38,11.79,-85.67,-139.06
25354,52.30478,-1.120278,175.83,28.28,4,154.31,21 / 21,2535410,2020-01-08 10:58:02:084,3.1847,0.0982,10.2788,-0.0093,0.0068,9.8066,-0.1012,-0.1123,0.0969,-19.25,-32.0,33.31,12.6,-85.63,-138.31
25355,52.30478,-1.120278,175.83,28.28,4,154.31,21 / 21,2535511,2020-01-08 10:58:02:185,1.1495,-1.6744,9.5829,0.0681,0.001,9.8064,-0.066,-0.1345,0.1266,-19.44,-31.0,33.69,8.21,-85.65,-143.11
25356,52.30478,-1.120278,175.83,28.28,4,154.31,21 / 21,2535611,2020-01-08 10:58:02:285,4.2037,2.0683,10.1288,-0.0145,0.0214,9.8065,-0.1107,-0.0688,0.194,-18.87,-30.81,33.0,7.67,-85.61,-142.9
25357,52.30478,-1.120278,175.83,28.28,4,154.31,21 / 21,2535710,2020-01-08 10:58:02:384,-1.5049,-2.2334,9.8943,0.054,0.0416,9.8064,-0.1014,-0.3977,0.1581,-19.19,-31.44,33.0,8.72,-85.8,-141.89
25358,52.30478,-1.120278,175.83,28.28,4,154.31,21 / 21,2535811,2020-01-08 10:58:02:485,-0.194,-1.4008,9.5494,-0.0267,-0.0036,9.8066,-0.0742,-0.3003,0.2251,-19.62,-31.19,33.69,8.45,-85.71,-141.61
25359,52.30478,-1.120278,175.83,28.28,4,154.31,21 / 21,2535911,2020-01-08 10:58:02:585,-2.6439,-0.3877,9.0412,0.0327,0.0151,9.8065,-0.1557,-0.2885,0.2643,-19.06,-31.19,33.5,8.61,-85.73,-142.72
25360,52.30478,-1.120278,175.83,28.28,4,154.31,21 / 21,2536011,2020-01-08 10:58:02:685,1.0425,-0.8145,9.9159,-0.0459,0.003,9.8065,-0.1459,-0.3315,0.2022,-18.81,-32.12,33.44,9.42,-85.73,-141.26
25361,52.30478,-1.120278,175.83,28.28,4,154.31,21 / 21,2536111,2020-01-08 10:58:02:785,1.5026,-0.3383,9.3897,0.0213,-0.0216,9.8066,-0.1511,-0.0576,0.1284,-18.56,-30.87,33.63,12.17,-85.65,-139.39
25362,52.30478,-1.120278,175.83,28.28,4,154.31,21 / 21,2536211,2020-01-08 10:58:02:885,-0.504,-0.9755,10.0283,-0.0133,-0.0088,9.8066,-0.0962,-0.1007,0.0617,-19.06,-30.56,33.13,12.69,-85.62,-138.2
25363,52.30478,-1.120278,175.83,28.28,4,154.31,21 / 21,2536311,2020-01-08 10:58:02:985,0.9184,-0.0199,10.5623,-0.0116,-0.008,9.8066,0.0707,0.0948,-0.0792,-19.37,-30.62,33.0,14.65,-85.56,-136.37
25364,52.30478,-1.120278,175.83,28.28,4,154.31,21 / 21,2536410,2020-01-08 10:58:03:084,-2.7677,-1.1333,8.7514,0.0234,-0.0298,9.8065,0.0901,0.2853,-0.1209,-19.56,-31.25,33.88,14.55,-85.62,-135.89
25365,52.30478,-1.120278,175.83,28.28,4,154.31,21 / 21,2536511,2020-01-08 10:58:03:185,1.918,0.8651,9.4414,-0.0416,-0.0311,9.8065,0.041,0.4193,-0.3028,-19.31,-30.75,32.88,15.52,-85.37,-135.6
25366,52.30478,-1.120278,175.83,28.28,4,154.31,21 / 21,2536611,2020-01-08 10:58:03:285,2.6914,-0.4104,10.1307,0.0369,0.0047,9.8066,0.0686,0.3083,-0.194,-19.69,-30.75,32.5,13.74,-85.34,-135.97
25367,52.30478,-1.120278,175.83,28.28,4,154.31,21 / 21,2536711,2020-01-08 10:58:03:385,-0.7854,-1.5751,9.5067,0.0042,-0.0005,9.8066,-0.0339,0.0493,-0.0607,-19.56,-30.94,33.75,12.56,-85.34,-137.81
25368,52.30478,-1.120278,175.83,28.28,4,154.31,21 / 21,2536810,2020-01-08 10:58:03:484,1.0695,-0.7006,9.2911,0.0295,0.0096,9.8065,-0.0878,-0.0753,-0.001,-19.44,-31.12,33.25,10.94,-85.55,-139.85
25369,52.30478,-1.120278,175.83,28.28,4,154.31,21 / 21,2536911,2020-01-08 10:58:03:585,1.248,-0.8365,10.6811,0.047,-0.0098,9.8065,-0.1631,-0.1393,0.0706,-19.5,-31.37,33.88,10.52,-85.53,-140.96
25370,52.30478,-1.120278,175.83,28.28,4,154.31,21 / 21,2537011,2020-01-08 10:58:03:685,1.1253,-0.9029,9.7184,0.0056,0.0049,9.8066,-0.0434,-0.0089,0.0433,-19.56,-30.37,33.0,10.0,-85.59,-139.4
25371,52.30478,-1.120278,175.83,28.28,4,154.31,21 / 21,2537110,2020-01-08 10:58:03:784,0.8038,-0.3993,10.0003,0.0137,-0.0019,9.8066,-0.029,-0.0368,0.0266,-19.37,-30.94,33.69,11.36,-85.57,-140.17
25372,52.30478,-1.120278,175.83,28.28,4,154.31,21 / 21,2537211,2020-01-08 10:58:03:885,0.9803,-0.4946,9.7842,0.0455,-0.0003,9.8065,-0.0277,-0.0737,0.0576,-18.87,-30.81,33.19,7.98,-85.64,-142.61
25373,52.30478,-1.120278,175.83,28.28,4,154.31,21 / 21,2537311,2020-01-08 10:58:03:985,-2.5237,0.0086,9.2291,0.0203,0.0042,9.8066,-0.0588,-0.0137,0.1072,-18.56,-31.37,32.81,8.53,-85.66,-142.09
25374,52.30478,-1.120278,175.83,28.28,4,154.31,21 / 21,2537410,2020-01-08 10:58:04:084,-2.3357,-0.5233,9.4203,0.0631,-0.0218,9.8064,-0.0748,0.0121,0.0342,-18.75,-31.37,33.19,10.63,-85.63,-140.12
25375,52.30478,-1.120278,175.83,28.28,4,154.31,21 / 21,2537511,2020-01-08 10:58:04:185,0.695,-0.5051,10.2155,-0.0076,-0.0087,9.8066,0.0308,0.0045,-0.0127,-18.69,-31.25,33.38,8.37,-85.55,-142.25
25376,52.30478,-1.120278,175.83,28.28,4,154.31,21 / 21,2537611,2020-01-08 10:58:04:285,-0.7619,0.9845,8.8437,0.0269,-0.0016,9.8065,0.0979,-0.0289,-0.0136,-19.5,-31.12,32.94,4.73,-85.51,-145.66
25377,52.30478,-1.120278,175.83,28.28,4,154.31,21 / 21,2537711,2020-01-08 10:58:04:385,0.7493,-1.3053,10.3119,-0.0326,0.0203,9.8065,0.0936,-0.0012,-0.0744,-19.06,-31.12,33.25,6.44,-85.51,-144.05
25378,52.30478,-1.120278,175.83,28.28,4,154.31,21 / 21,2537810,2020-01-08 10:58:04:484,-1.0791,-0.3733,9.6819,-0.0273,-0.005,9.8066,0.0397,-0.0021,-0.0844,-19.5,-31.12,33.44,4.87,-85.54,-145.52
25379,52.30478,-1.120278,175.83,28.28,4,154.31,21 / 21,2537911,2020-01-08 10:58:04:585,-2.5918,-0.3143,9.3763,0.0258,0.0093,9.8066,0.0522,-0.124,0.0309,-19.0,-31.19,33.31,4.6,-85.59,-145.77
25380,52.30478,-1.120278,175.83,28.28,4,154.31,21 / 21,2538011,2020-01-08 10:58:04:685,2.335,-0.183,10.4413,-0.0081,0.002,9.8065,-0.0478,-0.1174,-0.0024,-19.44,-31.44,33.44,7.53,-85.5,-143.04
25381,52.30478,-1.120278,175.83,28.28,4,154.31,21 / 21,2538111,2020-01-08 10:58:04:785,-2.3527,-0.7466,9.5625,0.0509,-0.0064,9.8065,-0.1013,-0.0663,-0.0582,-19.25,-31.25,33.44,5.05,-85.5,-145.36
25382,52.30478,-1.120278,175.83,28.28,4,154.31,22 / 22,2538211,2020-01-08 10:58:04:885,-0.1713,-0.5574,10.4331,0.0036,-0.0113,9.8066,-0.0381,0.1323,-0.0376,-19.19,-30.56,32.63,4.9,-85.53,-145.5
25383,52.30478,-1.120278,175.83,28.28,4,154.31,22 / 22,2538311,2020-01-08 10:58:04:985,2.513,0.227,9.9198,0.0224,-0.0016,9.8065,-0.0467,0.3045,-0.0911,-19.69,-31.06,33.44,2.33,-85.45,-146.61
25384,52.30478,-1.120278,175.83,28.28,4,154.31,22 / 22,2538412,2020-01-08 10:58:05:086,2.3957,0.5425,9.0796,-0.0606,-0.0336,9.8063,0.0086,0.4106,-0.2527,-19.31,-31.5,33.06,7.22,-85.24,-143.36
25385,52.30478,-1.120278,175.83,28.28,4,154.31,22 / 22,2538511,2020-01-08 10:58:05:185,0.3575,0.1147,8.9216,-0.0115,0.005,9.8066,0.0537,0.4243,-0.2897,-19.69,-30.87,33.25,5.69,-85.37,-143.47
25386,52.30478,-1.120278,175.83,28.28,4,154.31,22 / 22,2538610,2020-01-08 10:58:05:284,-3.5707,-1.4998,10.154,-0.0541,-0.0276,9.8064,0.1341,0.3904,-0.3533,-19.31,-30.75,33.5,6.98,-85.54,-144.27
25387,52.30478,-1.120278,175.83,28.28,4,154.31,22 / 22,2538711,2020-01-08 10:58:05:385,2.0631,-0.0423,10.3308,0.0443,-0.0413,9.8064,0.2268,0.2339,-0.278,-19.25,-31.31,33.38,5.14,-85.41,-145.27
25388,52.30478,-1.120278,175.83,28.28,4,154.31,22 / 22,2538811,2020-01-08 10:58:05:485,0.0781,0.0422,9.6222,-0.0298,0.0179,9.8066,0.1804,0.0199,-0.1022,-18.56,-31.56,33.13,7.5,-85.64,-143.06
25389,52.30478,-1.120278,175.83,28.28,4,154.31,22 / 22,2538911,2020-01-08 10:58:05:585,-0.3293,-0.0563,9.0547,0.0548,-0.023,9.8064,0.1058,-0.0271,-0.0199,-19.37,-31.06,33.0,5.29,-85.56,-145.12
25390,52.30478,-1.120278,175.83,28.28,4,154.31,22 / 22,2539010,2020-01-08 10:58:05:684,0.5768,-1.0359,10.1869,0.0489,0.0,9.8065,-0.0161,-0.1027,0.0937,-18.5,-31.44,32.75,8.65,-85.54,-143.32
25391,52.30478,-1.120278,175.83,28.28,4,154.31,22 / 22,2539111,2020-01-08 10:58:05:785,1.1997,-1.0636,10.7812,-0.0296,-0.0129,9.8065,-0.0659,-0.1095,0.1162,-19.0,-31.31,33.69,5.19,-85.39,-145.96
25392,52.30478,-1.120278,175.83,28.28,4,154.31,22 / 22,2539211,2020-01-08 10:58:05:885,1.8648,1.1966,9.557,0.0017,-0.0399,9.8065,-0.0879,0.0787,-0.0266,-19.25,-31.75,33.19,2.63,-85.26,-147.63
25393,52.30478,-1.120278,175.83,28.28,4,154.31,22 / 22,2539310,2020-01-08 10:58:05:984,0.4834,-1.54,9.8118,0.0004,-0.0103,9.8065,0.0363,0.1746,-0.0255,-18.94,-30.87,32.63,1.6,-85.33,-148.58
25394,52.30478,-1.120278,175.83,28.28,4,154.31,22 / 22,2539411,2020-01-08 10:58:06:085,3.6367,-0.5898,9.9921,-0.0333,-0.0044,9.8065,0.0863,0.2455,-0.211,-18.62,-31.44,33.25,2.52,-85.28,-147.72
25395,52.30478,-1.120278,175.83,28.28,4,154.31,22 / 22,2539510,2020-01-08 10:58:06:184,-0.3342,-0.5246,8.939,-0.0453,0.0227,9.8065,0.0492,0.1026,-0.1963,-19.12,-31.87,33.13,3.21,-85.37,-147.09
25396,52.30478,-1.120278,175.83,28.28,4,154.31,22 / 22,2539611,2020-01-08 10:58:06:285,1.6315,0.0877,10.9261,-0.0472,0.0166,9.8065,0.0322,0.0474,0.0315,-18.94,-31.25,33.31,2.86,-85.38,-147.4
25397,52.30478,-1.120278,175.83,28.28,4,154.31,22 / 22,2539711,2020-01-08 10:58:06:385,-1.1016,0.4426,8.6551,-0.0484,0.0259,9.8064,-0.0202,-0.0137,0.042,-19.37,-31.31,32.81,4.21,-85.28,-146.15
25398,52.30478,-1.120278,175.83,28.28,4,154.31,22 / 22,2539811,2020-01-08 10:58:06:485,1.765,-0.1276,11.04,-0.021,-0.0067,9.8066,0.028,-0.0076,-0.0195,-19.25,-30.44,33.25,1.88,-85.02,-148.33
25399,52.30478,-1.120278,175.83,28.28,4,154.31,22 / 22,2539911,2020-01-08 10:58:06:585,-1.6864,-1.3676,8.5578,-0.0643,0.0104,9.8064,0.0327,0.0453,-0.0202,-18.62,-31.5,33.38,3.41,-85.01,-146.91
25400,52.30478,-1.120278,175.83,28.28,4,154.31,22 / 22,2540011,2020-01-08 10:58:06:685,1.6458,-0.2354,10.0096,-0.0412,0.025,9.8064,0.1237,0.2353,-0.1,-19.31,-31.25,33.44,3.17,-85.06,-147.14
25401,52.30478,-1.120278,175.83,28.28,4,154.31,22 / 22,2540110,2020-01-08 10:58:06:784,-1.4225,-1.0803,9.1354,-0.0181,-0.0008,9.8066,0.1132,0.2271,-0.2773,-20.06,-31.62,33.31,2.28,-85.1,-146.67
25402,52.30478,-1.120278,175.83,28.28,4,154.31,22 / 22,2540211,2020-01-08 10:58:06:885,3.3442,-0.1437,10.0689,-0.0641,-0.0032,9.8064,0.0951,0.3066,-0.2584,-19.19,-30.56,33.31,6.52,-85.16,-144.02
25403,52.30478,-1.120278,175.83,28.28,4,154.31,22 / 22,2540310,2020-01-08 10:58:06:984,-2.8311,-1.8321,10.1392,-0.0455,-0.0173,9.8065,-0.0426,0.2888,-0.2062,-19.62,-31.06,32.88,2.17,-85.24,-146.76
25404,52.30478,-1.120278,175.83,28.28,4,154.31,22 / 22,2540411,2020-01-08 10:58:07:085,2.0221,0.4627,9.2801,-0.0115,-0.0357,9.8066,-0.1026,0.293,-0.1534,-19.37,-31.06,33.44,4.05,-85.08,-146.32
25405,52.30478,-1.120278,175.83,28.28,4,154.31,22 / 22,2540511,2020-01-08 10:58:07:185,0.8222,1.0806,9.7343,0.001,-0.0112,9.8066,-0.1386,0.3266,-0.1295,-19.19,-31.19,33.19,3.51,-85.16,-146.81
25406,52.30478,-1.120278,175.83,28.28,4,154.31,22 / 22,2540610,2020-01-08 10:58:07:284,2.1077,1.9383,9.9559,-0.0114,-0.032,9.8066,-0.1098,0.2573,-0.1131,-19.25,-31.37,33.38,3.3,-85.38,-146.99
25407,52.30478,-1.120278,175.83,28.28,4,154.31,22 / 22,2540711,2020-01-08 10:58:07:385,-2.2984,-0.8382,10.615,-0.0066,0.0142,9.8066,0.0471,0.2315,-0.1697,-19.12,-30.75,33.31,3.06,-85.27,-147.23
25408,52.30478,-1.120278,175.83,28.28,4,154.31,22 / 22,2540810,2020-01-08 10:58:07:484,-0.5354,-2.0035,10.7851,-0.0407,-0.0242,9.8064,0.0949,-0.0352,-0.095,-19.56,-31.31,32.88,3.12,-85.23,-145.88
25409,52.30478,-1.120278,175.83,28.28,4,154.31,22 / 22,2540911,2020-01-08 10:58:07:585,-0.0582,0.0599,9.0624,-0.0082,0.011,9.8066,0.0199,-0.18,0.106,-19.44,-31.06,33.0,5.31,-85.29,-145.13
25410,52.30478,-1.120278,175.83,28.28,4,154.31,22 / 22,2541010,2020-01-08 10:58:07:684,-0.3297,0.2347,9.5728,0.0046,-0.0133,9.8066,0.066,-0.0976,0.062,-19.81,-31.44,32.69,3.67,-85.47,-145.36
25411,52.30478,-1.120278,175.83,28.28,4,154.31,22 / 22,2541111,2020-01-08 10:58:07:785,0.3456,2.0609,8.8633,0.0027,-0.0249,9.8065,0.0388,-0.2045,0.1055,-19.56,-30.94,33.06,1.51,-85.37,-147.38
25412,52.30478,-1.120278,175.83,28.28,4,154.31,22 / 22,2541211,2020-01-08 10:58:07:885,-1.8994,-0.7575,10.6523,-0.0181,-0.0069,9.8066,-0.0049,-0.1363,0.1496,-19.56,-31.19,32.63,2.19,-85.43,-146.74
25413,52.302654,-1.118567,173.84,30.62,4,153.14,22 / 22,2541311,2020-01-08 10:58:07:985,1.1384,0.9299,8.9671,-0.0203,-0.0204,9.8065,-0.0136,-0.0118,-0.0065,-19.69,-31.0,33.06,2.24,-85.39,-146.69
25414,52.302654,-1.118567,173.84,30.62,4,153.14,22 / 22,2541411,2020-01-08 10:58:08:085,1.3092,0.7726,9.7152,0.006,0.0027,9.8065,0.0181,0.2138,-0.015,-19.69,-31.19,32.88,1.97,-85.38,-146.95
25415,52.302654,-1.118567,173.84,30.62,4,153.14,22 / 22,2541510,2020-01-08 10:58:08:184,-1.3345,0.1683,9.6975,0.0231,0.0045,9.8066,0.0209,0.1409,-0.0911,-19.0,-31.62,33.0,3.39,-85.37,-146.92
25416,52.302654,-1.118567,173.84,30.62,4,153.14,22 / 22,2541611,2020-01-08 10:58:08:285,1.3248,2.2259,10.2865,0.0126,-0.0023,9.8066,-0.0423,0.0987,-0.0518,-19.37,-31.12,33.56,4.88,-85.33,-146.25
25417,52.302654,-1.118567,173.84,30.62,4,153.14,22 / 22,2541710,2020-01-08 10:58:08:384,3.1664,-1.311,11.1674,0.0269,0.0079,9.8066,-0.1654,-0.272,0.1656,-19.56,-31.12,33.13,359.41,-85.18,-149.33
25418,52.302654,-1.118567,173.84,30.62,4,153.14,22 / 22,2541811,2020-01-08 10:58:08:485,3.3726,0.4121,11.461,-0.0519,-0.0145,9.8064,-0.0746,-0.3274,0.2948,-19.62,-31.37,33.5,1.42,-85.02,-148.22
25419,52.302654,-1.118567,173.84,30.62,4,153.14,22 / 22,2541911,2020-01-08 10:58:08:585,0.8638,1.564,9.5606,0.0158,-0.0277,9.8065,-0.1336,-0.2335,0.1985,-19.31,-31.19,33.38,357.69,-84.96,-152.2
25420,52.302654,-1.118567,173.84,30.62,4,153.14,22 / 22,2542011,2020-01-08 10:58:08:685,-1.7486,-0.0634,8.9989,-0.0328,-0.0003,9.8065,-0.0199,-0.1903,0.0903,-19.5,-31.25,32.5,357.55,-85.07,-152.33
25421,52.302654,-1.118567,173.84,30.62,4,153.14,22 / 22,2542110,2020-01-08 10:58:08:784,2.7327,0.8066,10.6185,-0.0432,0.0217,9.8065,0.1958,-0.352,0.0132,-19.37,-31.62,32.63,0.91,-85.24,-149.22
25422,52.302654,-1.118567,173.84,30.62,4,153.14,22 / 22,2542211,2020-01-08 10:58:08:885,-1.5574,0.4622,9.4448,-0.0273,-0.0661,9.8064,0.1942,-0.2801,0.1186,-19.5,-31.69,33.13,358.54,-85.36,-151.43
25423,52.302654,-1.118567,173.84,30.62,4,153.14,22 / 22,2542311,2020-01-08 10:58:08:985,4.5604,1.2076,9.5319,-0.0553,-0.0311,9.8064,-0.0201,0.0109,0.0223,-19.44,-31.5,33.13,0.58,-85.1,-149.53
25424,52.302654,-1.118567,173.84,30.62,4,153.14,22 / 22,2542411,2020-01-08 10:58:09:085,-2.8684,0.5036,9.1414,-0.0425,-0.0086,9.8065,-0.0577,0.0479,-0.0561,-18.75,-31.0,32.88,0.97,-85.17,-149.17
25425,52.302654,-1.118567,173.84,30.62,4,153.14,22 / 22,2542510,2020-01-08 10:58:09:184,0.6584,0.4421,9.6329,-0.0928,-0.0328,9.8061,-0.0589,0.3342,-0.1949,-19.37,-31.75,32.69,3.69,-85.03,-146.66
25426,52.302654,-1.118567,173.84,30.62,4,153.14,22 / 22,2542611,2020-01-08 10:58:09:285,-4.3345,-2.0208,9.8405,0.0068,0.0129,9.8066,-0.0103,0.5082,-0.2498,-19.75,-30.94,32.94,2.21,-85.21,-146.72
25427,52.302654,-1.118567,173.84,30.62,4,153.14,22 / 22,2542711,2020-01-08 10:58:09:385,1.4047,1.007,9.935,-0.0265,-0.0316,9.8065,-0.0343,0.6084,-0.3544,-20.0,-31.44,32.75,1.49,-85.04,-147.4
25428,52.302654,-1.118567,173.84,30.62,4,153.14,22 / 22,2542811,2020-01-08 10:58:09:485,3.7107,1.5978,9.9257,0.0462,0.0327,9.8065,0.0244,0.4594,-0.2976,-19.69,-31.75,32.75,357.27,-85.2,-151.31
25429,52.302654,-1.118567,173.84,30.62,4,153.14,22 / 22,2542911,2020-01-08 10:58:09:585,0.9814,0.0108,10.5324,0.0074,0.0224,9.8066,0.0435,0.1316,-0.0513,-19.69,-31.44,33.44,358.9,-85.19,-149.8
25430,52.302654,-1.118567,173.84,30.62,4,153.14,22 / 22,2543010,2020-01-08 10:58:09:684,2.8276,2.0717,9.301,0.0434,0.0187,9.8065,0.0458,-0.0101,0.0482,-19.56,-31.5,32.5,0.81,-84.97,-148.03
25431,52.302654,-1.118567,173.84,30.62,4,153.14,22 / 22,2543111,2020-01-08 10:58:09:785,-4.2808,-1.6512,10.0004,-0.0508,-0.0309,9.8064,0.1611,-0.2802,0.1876,-18.94,-31.5,33.06,3.5,-84.8,-146.84
25432,52.302654,-1.118567,173.84,30.62,4,153.14,22 / 22,2543211,2020-01-08 10:58:09:885,2.6055,0.3065,10.4804,-0.0449,-0.0589,9.8063,0.1322,-0.4469,0.2087,-19.19,-31.19,33.5,3.34,-84.8,-147.72
25433,52.302654,-1.118567,173.84,30.62,4,153.14,22 / 22,2543311,2020-01-08 10:58:09:985,-2.0061,0.7535,7.0588,-0.0596,0.0517,9.8063,0.006,-0.4126,0.2498,-19.56,-30.44,33.25,2.48,-85.03,-146.48
25434,52.302654,-1.118567,173.84,30.62,4,153.14,22 / 22,2543410,2020-01-08 10:58:10:084,2.8509,1.0734,10.5537,-0.066,0.0203,9.8064,-0.2399,-0.2513,0.1543,-20.0,-30.94,33.13,0.84,-85.05,-148.01
25435,52.302654,-1.118567,173.84,30.62,4,153.14,22 / 22,2543511,2020-01-08 10:58:10:185,-1.395,0.8116,8.489,-0.0005,0.0451,9.8065,-0.2419,-0.1307,0.1574,-20.75,-31.12,32.94,355.54,-84.96,-151.66
25436,52.302654,-1.118567,173.84,30.62,4,153.14,22 / 22,2543611,2020-01-08 10:58:10:285,-1.8637,-1.0425,10.0661,-0.0451,0.014,9.8065,-0.1186,0.0872,-0.0305,-24.37,-30.5,30.94,350.38,-85.11,-151.22
25437,52.302654,-1.118567,173.84,30.62,4,153.14,22 / 22,2543711,2020-01-08 10:58:10:385,-0.5779,0.1238,9.5974,0.0247,0.0006,9.8066,-0.0032,0.0756,-0.0441,-25.25,-34.75,31.0,349.04,-85.04,-151.21
25438,52.302654,-1.118567,173.84,30.62,4,153.14,22 / 22,2543810,2020-01-08 10:58:10:484,-1.3912,0.3442,8.4866,0.0012,-0.0076,9.8066,0.077,0.1568,-0.0444,-21.44,-32.19,35.06,358.66,-85.0,-150.28
25439,52.302654,-1.118567,173.84,30.62,4,153.14,22 / 22,2543911,2020-01-08 10:58:10:585,-0.2686,-0.647,10.7165,0.0109,-0.0272,9.8066,0.0701,0.1613,-0.0951,-20.37,-32.19,33.38,0.83,-84.99,-148.02
25440,52.302654,-1.118567,173.84,30.62,4,153.14,22 / 22,2544011,2020-01-08 10:58:10:685,2.0357,1.7434,8.9191,0.0352,0.0138,9.8065,0.0404,-0.0762,0.0183,-19.69,-31.06,33.25,358.99,-85.02,-149.72
25441,52.302654,-1.118567,173.84,30.62,4,153.14,22 / 22,2544111,2020-01-08 10:58:10:785,1.0371,1.1618,9.5064,-0.0323,-0.0289,9.8065,0.015,-0.2168,0.1163,-20.06,-31.81,33.31,1.08,-85.06,-147.78
25442,52.302654,-1.118567,173.84,30.62,4,153.14,21 / 22,2544210,2020-01-08 10:58:10:884,0.9603,1.5096,8.8255,0.0014,-0.012,9.8065,0.0564,-0.2345,0.1603,-20.06,-30.75,33.06,359.31,-85.16,-149.42
25443,52.302654,-1.118567,173.84,30.62,4,153.14,21 / 22,2544311,2020-01-08 10:58:10:985,-0.2581,-1.304,9.8067,-0.0199,-0.0238,9.8065,0.1018,-0.233,0.1119,-20.0,-30.81,33.13,358.73,-85.21,-149.96
25444,52.302654,-1.118567,173.84,30.62,4,153.14,21 / 22,2544410,2020-01-08 10:58:11:084,2.915,3.0497,8.5713,-0.0239,-0.016,9.8065,0.1135,-0.739,0.2674,-19.56,-31.62,32.06,359.71,-85.12,-148.27
25445,52.302654,-1.118567,173.84,30.62,4,153.14,21 / 22,2544511,2020-01-08 10:58:11:185,-7.2686,-3.4317,11.006,-0.0308,-0.0326,9.8065,0.0054,-0.7215,0.3419,-19.44,-31.25,32.5,3.04,-84.95,-147.26
25446,52.302654,-1.118567,173.84,30.62,4,153.14,21 / 22,2544610,2020-01-08 10:58:11:284,4.9435,2.6245,10.3037,-0.0818,-0.0702,9.806,-0.0058,-0.1739,0.1511,-19.81,-30.87,32.63,355.04,-85.33,-153.41
25447,52.302654,-1.118567,173.84,30.62,4,153.14,21 / 22,2544710,2020-01-08 10:58:11:384,-4.0089,-1.6163,10.3098,0.0119,0.0076,9.8066,-0.008,-0.0905,0.0282,-19.56,-31.75,33.13,357.43,-85.15,-151.16
25448,52.302654,-1.118567,173.84,30.62,4,153.14,21 / 22,2544811,2020-01-08 10:58:11:485,-0.5011,0.55,10.9104,-0.0764,-0.0241,9.8063,-0.1016,0.0637,0.0471,-19.31,-31.87,33.25,359.54,-85.11,-150.49
25449,52.302654,-1.118567,173.84,30.62,4,153.14,21 / 22,2544910,2020-01-08 10:58:11:584,2.6947,0.1205,9.4846,-0.0243,0.0185,9.8066,-0.1202,0.0973,0.0306,-19.19,-32.06,32.13,357.1,-85.12,-151.98
25450,52.302654,-1.118567,173.84,30.62,4,153.14,21 / 22,2545011,2020-01-08 10:58:11:685,1.3371,0.9965,10.2168,-0.0468,0.0089,9.8065,-0.0829,0.1809,-0.0998,-20.75,-33.94,32.75,358.2,-85.14,-149.19
25451,52.302654,-1.118567,173.84,30.62,4,153.14,21 / 22,2545110,2020-01-08 10:58:11:784,-0.1116,1.9404,10.005,0.0236,0.013,9.8065,-0.0484,0.2475,-0.1325,-20.19,-32.69,34.44,359.71,-84.96,-149.8
25452,52.302654,-1.118567,173.84,30.62,4,153.14,21 / 21,2545211,2020-01-08 10:58:11:885,0.7575,-0.2814,9.5863,0.0158,0.0117,9.8066,-0.0347,0.3098,-0.2098,-19.37,-31.31,33.75,358.93,-85.01,-151.79
25453,52.302654,-1.118567,173.84,30.62,4,153.14,21 / 21,2545311,2020-01-08 10:58:11:985,1.3869,0.787,8.9315,0.0271,0.0409,9.8065,-0.0357,0.1809,-0.217,-19.37,-31.0,33.06,358.09,-85.31,-151.84
25454,52.302654,-1.118567,173.84,30.62,4,153.14,21 / 21,2545411,2020-01-08 10:58:12:085,-0.5545,2.0212,8.5726,-0.0024,0.0151,9.8066,0.1585,-0.0473,-0.0073,-19.81,-31.12,33.13,358.45,-85.43,-150.23
25455,52.302654,-1.118567,173.84,30.62,4,153.14,21 / 21,2545511,2020-01-08 10:58:12:185,1.6972,-0.4987,10.2724,0.0311,-0.0206,9.8065,0.0541,0.0276,-0.0884,-19.62,-31.25,33.06,358.3,-85.52,-150.37
25456,52.302654,-1.118567,173.84,30.62,4,153.14,21 / 21,2545611,2020-01-08 10:58:12:285,-0.7082,-0.0895,10.1373,0.0014,-0.0385,9.8065,0.0161,0.0187,-0.0427,-19.94,-30.56,33.19,355.52,-85.27,-152.95
25457,52.302654,-1.118567,173.84,30.62,4,153.14,21 / 21,2545711,2020-01-08 10:58:12:385,0.4178,-0.1552,9.5274,-0.0055,-0.0176,9.8065,0.0047,-0.0126,0.0597,-19.81,-30.94,33.44,353.17,-85.25,-155.14
25458,52.302654,-1.118567,173.84,30.62,4,153.14,21 / 21,2545810,2020-01-08 10:58:12:484,-0.3319,0.0916,9.8685,0.0043,0.0006,9.8066,-0.0491,-0.0748,0.0563,-19.37,-31.44,32.88,354.32,-85.18,-155.34
25459,52.302654,-1.118567,173.84,30.62,4,153.14,21 / 21,2545911,2020-01-08 10:58:12:585,0.835,-0.042,9.6794,-0.0135,0.0064,9.8066,-0.0323,-0.0996,0.0431,-19.62,-31.62,33.31,355.53,-85.18,-152.93
25460,52.302654,-1.118567,173.84,30.62,4,153.14,21 / 21,2546011,2020-01-08 10:58:12:685,-1.0664,-0.3151,10.1867,0.0317,0.014,9.8065,-0.0782,-0.0596,0.079,-18.75,-31.62,33.31,355.35,-85.22,-154.38
25461,52.302654,-1.118567,173.84,30.62,4,153.14,21 / 21,2546111,2020-01-08 10:58:12:785,0.5742,-0.4196,10.1777,0.0146,0.0117,9.8065,-0.127,0.0076,0.0955,-19.31,-31.44,32.69,357.08,-85.27,-152.78
25462,52.302654,-1.118567,173.84,30.62,4,153.14,21 / 21,2546211,2020-01-08 10:58:12:885,-0.7369,-0.1411,10.1491,0.0307,-0.0027,9.8066,0.0002,0.1837,-0.0521,-19.5,-31.31,33.25,358.94,-85.26,-151.06
25463,52.302654,-1.118567,173.84,30.62,4,153.14,22 / 22,2546311,2020-01-08 10:58:12:985,1.0638,-0.0019,9.9283,0.0637,0.0135,9.8063,0.0659,0.2353,-0.1931,-19.56,-31.25,32.75,353.18,-85.16,-155.11
25464,52.302654,-1.118567,173.84,30.62,4,153.14,22 / 22,2546411,2020-01-08 10:58:13:085,-0.59,-0.3541,11.1402,-0.0188,0.0101,9.8065,0.1629,0.0779,-0.0824,-19.44,-31.31,33.13,357.86,-85.15,-152.05
25465,52.302654,-1.118567,173.84,30.62,4,153.14,22 / 22,2546511,2020-01-08 10:58:13:185,0.6907,0.0846,10.3965,0.0163,-0.0043,9.8066,0.095,-0.0214,-0.0692,-20.06,-31.0,32.94,356.84,-84.99,-151.7
25466,52.302654,-1.118567,173.84,30.62,4,153.14,22 / 22,2546611,2020-01-08 10:58:13:285,-0.4947,-0.2652,9.6434,-0.0033,0.0188,9.8066,-0.0025,-0.229,0.1156,-19.5,-31.31,33.5,358.74,-85.11,-151.97
25467,52.302654,-1.118567,173.84,30.62,4,153.14,22 / 22,2546711,2020-01-08 10:58:13:385,2.4424,0.9967,10.3909,-0.0202,0.0238,9.8066,0.0351,-0.3847,0.2205,-19.94,-31.19,32.75,356.94,-85.17,-151.63
25468,52.302654,-1.118567,173.84,30.62,4,153.14,22 / 22,2546811,2020-01-08 10:58:13:485,-2.4792,-2.3344,10.4016,0.0384,0.0376,9.8065,-0.031,-0.4551,0.2748,-19.31,-30.44,33.19,356.18,-85.17,-153.62
25469,52.302654,-1.118567,173.84,30.62,4,153.14,22 / 22,2546910,2020-01-08 10:58:13:584,-0.2405,-0.7799,10.2063,-0.0083,-0.0022,9.8066,-0.0111,-0.165,0.2249,-19.94,-30.94,32.63,354.67,-85.07,-153.72
25470,52.302654,-1.118567,173.84,30.62,4,153.14,22 / 22,2547011,2020-01-08 10:58:13:685,1.651,0.9423,9.5675,0.0265,0.0215,9.8065,-0.0055,-0.0992,0.0412,-19.31,-31.75,33.19,356.29,-85.19,-153.51
25471,52.302654,-1.118567,173.84,30.62,4,153.14,22 / 22,2547110,2020-01-08 10:58:13:784,-2.2157,-1.8234,9.5254,-0.0193,-0.0272,9.8065,0.1078,0.1801,-0.165,-19.56,-30.44,32.44,355.36,-85.04,-152.3
25472,52.302654,-1.118567,173.84,30.62,4,153.14,22 / 22,2547211,2020-01-08 10:58:13:885,0.897,-0.1663,11.247,-0.0241,0.0104,9.8066,0.1271,0.278,-0.2039,-19.69,-30.62,33.19,354.62,-85.14,-153.78
25473,52.302654,-1.118567,173.84,30.62,4,153.14,22 / 22,2547311,2020-01-08 10:58:13:985,-1.9152,-1.4621,8.7609,-0.0371,-0.0204,9.8065,0.0627,0.3367,-0.2242,-19.69,-31.69,33.19,355.09,-85.11,-153.32
25474,52.302654,-1.118567,173.84,30.62,4,153.14,22 / 22,2547411,2020-01-08 10:58:14:085,2.6664,1.1142,9.044,-0.0729,0.0083,9.8063,0.0716,0.3463,-0.2777,-19.0,-31.5,33.25,358.86,-85.26,-151.13
25475,52.302654,-1.118567,173.84,30.62,4,153.14,22 / 22,2547511,2020-01-08 10:58:14:185,-0.377,0.3609,9.7711,-0.0249,-0.0345,9.8065,0.0516,0.2738,-0.1459,-19.94,-31.56,32.44,356.41,-85.13,-151.31
25476,52.302654,-1.118567,173.84,30.62,4,153.14,22 / 22,2547610,2020-01-08 10:58:14:284,1.253,0.7449,9.9105,-0.0079,-0.0179,9.8066,0.0335,0.2397,-0.1864,-19.62,-30.75,32.38,355.19,-85.1,-152.45
25477,52.302654,-1.118567,173.84,30.62,4,153.14,22 / 22,2547711,2020-01-08 10:58:14:385,0.059,-1.1146,10.1908,-0.0129,-0.0089,9.8066,-0.047,0.0797,-0.0442,-18.81,-31.5,33.81,355.29,-85.04,-155.17
25478,52.302654,-1.118567,173.84,30.62,4,153.14,22 / 22,2547810,2020-01-08 10:58:14:484,-1.193,-0.3593,9.4227,0.0015,-0.0047,9.8066,-0.0481,-0.0367,0.0987,-18.81,-31.44,32.75,355.64,-85.12,-154.11
25479,52.302654,-1.118567,173.84,30.62,4,153.14,22 / 22,2547911,2020-01-08 10:58:14:585,0.7105,0.1879,9.4229,0.0137,0.0101,9.8066,0.0077,-0.0421,-0.0198,-19.44,-31.69,32.69,357.93,-85.28,-151.99
25480,52.302654,-1.118567,173.84,30.62,4,153.14,22 / 22,2548011,2020-01-08 10:58:14:685,0.2225,-0.4751,10.6335,-0.0103,-0.0087,9.8066,0.0601,0.0065,-0.0312,-19.75,-31.62,33.06,355.09,-85.23,-153.33
25481,52.302654,-1.118567,173.84,30.62,4,153.14,22 / 22,2548111,2020-01-08 10:58:14:785,0.9472,-1.41,10.9905,0.0044,0.0381,9.8066,0.143,-0.4308,0.1158,-19.19,-31.56,32.88,355.75,-85.3,-154.02
25482,52.302654,-1.118567,173.84,30.62,4,153.14,22 / 22,2548211,2020-01-08 10:58:14:885,-3.0082,-3.4441,10.3435,0.0419,0.0282,9.8065,0.1178,-0.4017,0.0903,-19.5,-31.56,33.13,353.31,-85.09,-156.25
25483,52.302654,-1.118567,173.84,30.62,4,153.14,22 / 22,2548311,2020-01-08 10:58:14:985,3.4489,2.7837,9.7572,-0.0029,0.0153,9.8066,0.131,0.0857,-0.0747,-19.31,-31.12,33.06,352.64,-84.83,-156.86
25484,52.302654,-1.118567,173.84,30.62,4,153.14,22 / 22,2548410,2020-01-08 10:58:15:084,-3.5422,-2.0069,9.2568,0.0626,0.0424,9.8063,0.1709,0.18,-0.171,-19.62,-31.31,33.0,349.18,-85.02,-158.82
25485,52.302654,-1.118567,173.84,30.62,4,153.14,22 / 22,2548510,2020-01-08 10:58:15:184,2.7622,0.5245,10.5803,-0.0328,0.0125,9.8066,0.1986,0.2517,-0.2298,-19.31,-31.62,33.0,351.51,-85.14,-157.93
25486,52.302654,-1.118567,173.84,30.62,4,153.14,22 / 22,2548611,2020-01-08 10:58:15:285,-0.8971,-1.2514,10.4679,0.0375,0.0216,9.8065,0.1188,0.3428,-0.2101,-19.31,-31.0,32.5,351.53,-85.21,-157.93
25487,52.302654,-1.118567,173.84,30.62,4,153.14,22 / 22,2548711,2020-01-08 10:58:15:385,-2.6428,-1.3758,9.9606,-0.0429,-0.0125,9.8065,-0.1034,0.3947,-0.232,-19.0,-31.12,33.19,352.56,-85.35,-157.0
25488,52.302654,-1.118567,173.84,30.62,4,153.14,22 / 22,2548811,2020-01-08 10:58:15:485,-0.7331,-0.9565,10.0316,-0.0261,0.0189,9.8066,-0.1052,0.3516,-0.2021,-19.75,-31.31,33.0,354.07,-85.53,-154.33
25489,52.302654,-1.118567,173.84,30.62,4,153.14,22 / 22,2548911,2020-01-08 10:58:15:585,-4.3961,-1.3306,9.1851,-0.0624,-0.0281,9.8063,-0.0332,0.2843,-0.077,-20.37,-31.25,32.81,353.81,-85.56,-154.57
25490,52.302654,-1.118567,173.84,30.62,4,153.14,22 / 22,2549011,2020-01-08 10:58:15:685,2.8984,0.5909,10.0961,-0.0707,-0.0213,9.8063,-0.0374,0.0787,-0.0284,-19.44,-31.31,32.63,359.03,-85.33,-150.97
25491,52.302654,-1.118567,173.84,30.62,4,153.14,22 / 22,2549111,2020-01-08 10:58:15:785,0.2429,1.0429,10.7847,0.0059,-0.0446,9.8065,0.0403,-0.1565,0.0508,-19.75,-31.5,33.13,353.76,-85.3,-154.59
25492,52.302654,-1.118567,173.84,30.62,4,153.14,21 / 22,2549212,2020-01-08 10:58:15:886,3.6757,1.0919,8.4725,-0.0122,-0.0576,9.8065,0.0672,-0.254,0.1599,-20.25,-32.25,33.38,353.77,-84.93,-154.53
25493,52.302654,-1.118567,173.84,30.62,4,153.14,21 / 22,2549311,2020-01-08 10:58:15:985,-1.878,-0.4953,10.7011,0.0186,0.0094,9.8066,0.0541,-0.4355,0.2467,-21.0,-32.75,33.0,352.21,-85.05,-154.72
25494,52.302654,-1.118567,173.84,30.62,4,153.14,21 / 22,2549411,2020-01-08 10:58:16:085,-0.8907,-1.1358,10.9695,-0.0289,-0.0346,9.8065,0.0351,-0.4016,0.309,-20.44,-31.62,33.94,357.23,-84.94,-152.1
25495,52.302654,-1.118567,173.84,30.62,4,153.14,21 / 22,2549510,2020-01-08 10:58:16:184,3.7676,1.8666,10.1069,0.0273,0.0172,9.8065,0.0138,-0.5359,0.2768,-19.87,-31.56,33.88,356.14,-84.87,-153.1
25496,52.302654,-1.118567,173.84,30.62,4,153.14,21 / 22,2549610,2020-01-08 10:58:16:284,-4.0356,-1.8506,10.0235,-0.0197,-0.0083,9.8065,-0.0445,-0.3617,0.2405,-19.69,-31.12,33.63,355.75,-84.84,-153.47
25497,52.302654,-1.118567,173.84,30.62,4,153.14,21 / 22,2549711,2020-01-08 10:58:16:385,-1.2724,-1.4258,9.4114,0.0437,0.0479,9.8063,-0.0378,-0.0815,0.0548,-19.31,-31.31,33.81,357.4,-84.81,-153.2
25498,52.302654,-1.118567,173.84,30.62,4,153.14,21 / 22,2549811,2020-01-08 10:58:16:485,-2.1743,-1.7413,9.8405,0.0072,0.0365,9.8066,-0.0838,0.0513,-0.0342,-18.94,-31.37,33.19,354.98,-85.13,-154.73
25499,52.302654,-1.118567,173.84,30.62,4,153.14,21 / 22,2549911,2020-01-08 10:58:16:585,1.5993,0.7064,9.9496,0.0468,0.0124,9.8065,0.0016,0.1303,-0.0645,-18.87,-31.19,33.63,354.41,-85.16,-156.0
25500,52.302654,-1.118567,173.84,30.62,4,153.14,21 / 22,2550011,2020-01-08 10:58:16:685,-2.1303,-1.5905,10.5212,0.0113,0.0129,9.8065,-0.1387,0.2155,-0.082,-19.31,-31.06,32.63,355.52,-85.13,-154.23
25501,52.302654,-1.118567,173.84,30.62,4,153.14,21 / 22,2550111,2020-01-08 10:58:16:785,0.6141,-0.251,10.1701,0.0157,0.0058,9.8066,-0.1327,0.2946,-0.078,-19.69,-30.81,32.94,354.81,-85.15,-153.6
25502,52.302654,-1.118567,173.84,30.62,4,153.14,21 / 22,2550211,2020-01-08 10:58:16:885,1.9789,-0.4332,9.8425,0.0014,0.0207,9.8065,0.0406,0.0886,-0.0236,-19.87,-30.75,33.69,354.65,-85.24,-154.51
25503,52.30049,-1.116744,172.42,30.62,4,152.78,21 / 22,2550311,2020-01-08 10:58:16:985,-0.2333,-0.6743,9.0735,-0.026,0.0087,9.8066,-0.0432,0.1444,-0.0709,-19.12,-30.75,33.75,357.88,-85.16,-152.77
25504,52.30049,-1.116744,172.42,30.62,4,152.78,21 / 22,2550411,2020-01-08 10:58:17:085,-2.7052,-2.8143,9.5067,0.0182,0.0129,9.8065,0.0109,0.2133,-0.0684,-18.56,-30.44,33.31,355.19,-85.09,-154.54
25505,52.30049,-1.116744,172.42,30.62,4,152.78,21 / 22,2550511,2020-01-08 10:58:17:185,0.8396,-0.2112,10.453,-0.0334,-0.03,9.8065,0.1028,0.0676,-0.0604,-18.62,-30.87,33.81,355.99,-85.13,-154.53
25506,52.30049,-1.116744,172.42,30.62,4,152.78,21 / 22,2550610,2020-01-08 10:58:17:284,3.1944,0.6978,9.6852,0.0227,0.0127,9.8065,-0.0132,-0.049,0.0508,-17.37,-30.31,34.25,359.6,-85.12,-153.8
25507,52.30049,-1.116744,172.42,30.62,4,152.78,21 / 22,2550710,2020-01-08 10:58:17:384,3.3356,0.9637,9.092,-0.0287,-0.015,9.8065,-0.0372,-0.0867,0.0879,-16.81,-31.12,32.88,359.73,-85.26,-153.0
25508,52.30049,-1.116744,172.42,30.62,4,152.78,21 / 22,2550811,2020-01-08 10:58:17:485,2.9373,0.2637,8.5512,0.0224,-0.0064,9.8066,0.0983,-0.3136,0.1248,-16.37,-31.19,31.38,354.74,-85.4,-157.57
25509,52.30049,-1.116744,172.42,30.62,4,152.78,21 / 22,2550911,2020-01-08 10:58:17:585,-1.338,-0.9014,10.8096,-0.0241,-0.023,9.8065,0.1075,-0.3738,0.1294,-16.5,-30.44,31.0,355.0,-85.33,-157.34
25510,52.30049,-1.116744,172.42,30.62,4,152.78,21 / 22,2551011,2020-01-08 10:58:17:685,0.1315,-0.4742,10.508,-0.0113,-0.0718,9.8063,0.1704,-0.2719,0.1602,-17.75,-30.5,30.94,352.17,-85.15,-157.11
25511,52.30049,-1.116744,172.42,30.62,4,152.78,21 / 22,2551111,2020-01-08 10:58:17:785,-2.3508,-0.5813,9.8433,-0.0078,-0.0134,9.8065,0.0545,-0.1041,0.0716,-18.87,-30.56,32.44,352.66,-85.24,-156.11
25512,52.30049,-1.116744,172.42,30.62,4,152.78,21 / 22,2551212,2020-01-08 10:58:17:886,1.3289,0.2133,10.0455,-0.0254,-0.0149,9.8066,0.028,0.0522,-0.0162,-19.06,-31.0,33.06,356.28,-85.16,-153.52
25513,52.30049,-1.116744,172.42,30.62,4,152.78,20 / 21,2551311,2020-01-08 10:58:17:985,0.4379,-0.0931,9.5687,0.0083,0.0025,9.8066,-0.0852,0.0714,0.0173,-19.5,-30.75,33.0,353.51,-85.21,-156.1
25514,52.30049,-1.116744,172.42,30.62,4,152.78,20 / 21,2551410,2020-01-08 10:58:18:084,0.248,0.4079,10.6067,0.0175,0.0112,9.8066,-0.0984,-0.2095,0.0983,-19.25,-31.25,32.44,349.2,-85.22,-159.32
25515,52.30049,-1.116744,172.42,30.62,4,152.78,20 / 21,2551511,2020-01-08 10:58:18:185,-1.4895,-1.5871,10.2371,0.0368,-0.0037,9.8066,0.0117,-0.2269,0.1545,-18.94,-30.87,33.69,351.11,-85.31,-159.08
25516,52.30049,-1.116744,172.42,30.62,4,152.78,20 / 21,2551610,2020-01-08 10:58:18:284,2.0959,0.9935,9.7023,0.0173,0.0149,9.8065,0.0815,-0.1546,0.136,-19.31,-31.12,33.69,353.53,-85.23,-156.82
25517,52.30049,-1.116744,172.42,30.62,4,152.78,20 / 21,2551711,2020-01-08 10:58:18:385,-1.9037,-0.4826,9.4051,0.0426,-0.0129,9.8065,0.1291,-0.2223,0.0424,-19.0,-30.62,33.38,351.56,-85.13,-157.89
25518,52.30049,-1.116744,172.42,30.62,4,152.78,20 / 21,2551810,2020-01-08 10:58:18:484,1.452,0.4833,9.5604,0.0055,0.0236,9.8066,-0.0697,-0.0169,0.014,-19.44,-31.0,33.0,355.11,-85.19,-154.61
25519,52.30049,-1.116744,172.42,30.62,4,152.78,20 / 21,2551911,2020-01-08 10:58:18:585,-2.475,-0.4024,8.4309,0.0389,0.0149,9.8066,-0.0633,-0.0362,0.0215,-19.44,-30.81,32.75,355.05,-85.51,-154.68
25520,52.30049,-1.116744,172.42,30.62,4,152.78,20 / 21,2552011,2020-01-08 10:58:18:685,0.7229,-0.3469,9.6376,0.0021,0.0031,9.8066,0.0883,0.04,-0.0552,-20.12,-31.06,33.38,356.42,-85.53,-152.13
25521,52.30049,-1.116744,172.42,30.62,4,152.78,20 / 21,2552110,2020-01-08 10:58:18:784,0.0049,-0.448,8.8092,0.0295,-0.0061,9.8066,0.1767,0.0717,0.0082,-19.5,-31.06,32.94,357.89,-85.46,-152.04
25522,52.30049,-1.116744,172.42,30.62,4,152.78,20 / 21,2552211,2020-01-08 10:58:18:885,0.0119,-0.3228,10.3619,-0.0147,0.0112,9.8066,0.1219,-0.0187,0.0189,-19.44,-30.94,32.63,359.73,-85.38,-150.32
25523,52.30049,-1.116744,172.42,30.62,4,152.78,20 / 21,2552310,2020-01-08 10:58:18:984,0.7404,-0.1675,10.8336,0.0,-0.0121,9.8066,0.055,0.0398,-0.025,-19.81,-31.0,33.19,358.84,-85.27,-149.86
25524,52.30049,-1.116744,172.42,30.62,4,152.78,20 / 21,2552411,2020-01-08 10:58:19:085,-2.1776,-2.1246,9.9744,-0.0229,-0.0177,9.8065,0.109,0.0882,-0.04,-19.75,-31.0,33.31,356.77,-85.15,-151.79
25525,52.30049,-1.116744,172.42,30.62,4,152.78,20 / 21,2552510,2020-01-08 10:58:19:184,0.2967,0.1091,9.7147,-0.0298,-0.0299,9.8066,0.1514,0.0707,-0.1019,-19.81,-30.87,33.38,355.51,-84.85,-152.93
25526,52.30049,-1.116744,172.42,30.62,4,152.78,20 / 21,2552611,2020-01-08 10:58:19:285,-0.3622,-2.2764,9.1344,-0.0528,0.0385,9.8064,0.1756,-0.1632,0.0108,-20.19,-31.69,33.13,353.33,-84.87,-154.93
25527,52.30049,-1.116744,172.42,30.62,4,152.78,20 / 21,2552711,2020-01-08 10:58:19:385,0.6546,0.5844,9.5837,-0.0324,-0.0113,9.8065,0.1764,-0.0857,0.1393,-19.75,-31.31,32.81,358.04,-85.01,-150.6
25528,52.30049,-1.116744,172.42,30.62,4,152.78,20 / 21,2552811,2020-01-08 10:58:19:485,-1.587,-0.1857,8.2288,-0.0489,0.0313,9.8064,-0.0199,0.0224,-0.0852,-19.5,-31.06,33.44,358.05,-85.01,-151.88
25529,52.30049,-1.116744,172.42,30.62,4,152.78,20 / 21,2552911,2020-01-08 10:58:19:585,0.117,-1.59,10.7173,-0.0006,0.0264,9.8066,-0.0556,0.0512,-0.1082,-19.31,-31.0,33.25,358.81,-85.22,-151.17
25530,52.30049,-1.116744,172.42,30.62,4,152.78,20 / 21,2553011,2020-01-08 10:58:19:685,-0.4551,-0.1109,10.1689,0.0017,-0.0193,9.8066,-0.1003,0.009,0.0143,-19.81,-31.25,33.06,355.86,-85.09,-152.63
25531,52.30049,-1.116744,172.42,30.62,4,152.78,20 / 21,2553111,2020-01-08 10:58:19:785,0.4987,-0.9791,9.6881,-0.0062,-0.0057,9.8066,-0.0221,-0.0214,0.0014,-20.06,-31.25,33.5,355.97,-84.85,-153.26
25532,52.30049,-1.116744,172.42,30.62,4,152.78,20 / 21,2553211,2020-01-08 10:58:19:885,0.3772,-1.0803,10.1066,0.0074,-0.0102,9.8066,0.0122,-0.0714,0.0435,-19.81,-31.0,33.38,355.53,-84.72,-152.9
25533,52.30049,-1.116744,172.42,30.62,4,152.78,20 / 21,2553311,2020-01-08 10:58:19:985,0.9895,0.1108,9.7499,-0.0071,-0.0052,9.8066,-0.001,-0.1182,0.0645,-19.44,-30.87,33.25,358.19,-84.81,-151.74
25534,52.30049,-1.116744,172.42,30.62,4,152.78,20 / 21,2553411,2020-01-08 10:58:20:085,0.3328,0.3388,9.1087,0.0262,-0.0052,9.8065,-0.1042,0.0149,-0.021,-19.87,-31.37,32.75,357.1,-84.96,-151.47
25535,52.30049,-1.116744,172.42,30.62,4,152.78,20 / 21,2553510,2020-01-08 10:58:20:184,-1.3441,-1.4975,10.1473,-0.0033,0.0223,9.8066,-0.1115,0.0857,-0.0588,-19.25,-31.5,33.75,358.17,-84.98,-152.5
25536,52.30049,-1.116744,172.42,30.62,4,152.78,20 / 21,2553611,2020-01-08 10:58:20:285,0.4139,-1.4774,11.352,0.0203,-0.008,9.8066,-0.0593,0.1805,-0.1158,-20.12,-31.06,32.94,356.33,-84.89,-152.17
25537,52.30049,-1.116744,172.42,30.62,4,152.78,20 / 21,2553710,2020-01-08 10:58:20:384,-1.51,0.7684,8.3713,0.0286,0.019,9.8065,0.0543,0.1496,-0.1127,-19.94,-30.87,33.13,354.87,-84.9,-153.53
25538,52.30049,-1.116744,172.42,30.62,4,152.78,20 / 21,2553811,2020-01-08 10:58:20:485,0.3702,-0.271,9.247,0.0298,-0.0273,9.8065,0.1248,0.0887,-0.0707,-19.56,-31.69,33.13,356.67,-85.07,-151.86
25539,52.30049,-1.116744,172.42,30.62,4,152.78,20 / 21,2553911,2020-01-08 10:58:20:585,-2.2834,0.1134,9.0031,0.0321,-0.0119,9.8065,0.1823,0.1071,-0.1293,-19.94,-31.12,33.69,356.65,-84.98,-152.64
25540,52.30049,-1.116744,172.42,30.62,4,152.78,20 / 21,2554011,2020-01-08 10:58:20:685,0.2718,-0.9681,11.7464,0.0112,-0.0109,9.8066,0.1168,0.0023,-0.0216,-19.69,-31.81,33.63,357.14,-84.97,-152.18
25541,52.30049,-1.116744,172.42,30.62,4,152.78,20 / 21,2554111,2020-01-08 10:58:20:785,1.4279,0.3781,10.5033,0.0006,-0.0322,9.8065,-0.0862,-0.1167,0.1404,-19.75,-30.94,33.31,354.92,-84.74,-153.46
25542,52.30049,-1.116744,172.42,30.62,4,152.78,21 / 22,2554211,2020-01-08 10:58:20:885,-1.6504,-0.8656,8.6566,-0.0407,0.0122,9.8065,-0.1574,-0.1877,0.1528,-19.87,-31.12,32.81,353.36,-84.75,-154.9
25543,52.30049,-1.116744,172.42,30.62,4,152.78,21 / 22,2554311,2020-01-08 10:58:20:985,0.4323,-0.0793,9.781,-0.0119,0.0132,9.8066,-0.0733,-0.0565,0.0287,-19.75,-31.25,32.56,353.98,-84.99,-154.36
25544,52.30049,-1.116744,172.42,30.62,4,152.78,21 / 22,2554410,2020-01-08 10:58:21:084,-1.7594,0.2435,9.127,-0.0026,0.0056,9.8066,-0.0693,-0.1262,-0.0352,-19.81,-31.56,33.38,353.52,-85.02,-154.77
25545,52.30049,-1.116744,172.42,30.62,4,152.78,21 / 22,2554512,2020-01-08 10:58:21:186,-1.6631,0.2177,9.5475,-0.0402,-0.0113,9.8066,0.0324,0.0652,-0.0938,-19.62,-31.0,33.19,356.73,-84.94,-151.81
25546,52.30049,-1.116744,172.42,30.62,4,152.78,21 / 22,2554610,2020-01-08 10:58:21:284,-3.4871,-0.4263,8.7519,0.0486,0.0019,9.8065,0.0595,0.1882,-0.1414,-19.75,-31.69,33.13,356.23,-84.91,-152.26
25547,52.30049,-1.116744,172.42,30.62,4,152.78,21 / 22,2554710,2020-01-08 10:58:21:384,2.1537,1.0452,9.9661,-0.0179,-0.0155,9.8065,0.0474,0.0713,-0.0968,-19.87,-31.06,32.75,353.49,-84.85,-154.8
25548,52.30049,-1.116744,172.42,30.62,4,152.78,21 / 22,2554811,2020-01-08 10:58:21:485,-1.5546,-1.2993,10.5417,0.0119,0.0266,9.8065,-0.0362,0.1464,-0.0719,-19.37,-31.19,33.31,352.02,-84.92,-157.45
25549,52.30049,-1.116744,172.42,30.62,4,152.78,21 / 22,2554911,2020-01-08 10:58:21:585,-0.1604,1.0825,10.5061,-0.003,-0.0027,9.8066,-0.0215,0.2503,-0.1457,-19.69,-31.19,32.88,348.64,-85.08,-159.32
25550,52.30049,-1.116744,172.42,30.62,4,152.78,21 / 22,2555011,2020-01-08 10:58:21:685,2.3568,-0.0529,10.2186,0.025,0.0044,9.8065,0.0089,0.2612,-0.1918,-19.5,-30.87,32.94,349.49,-84.89,-159.78
25551,52.30049,-1.116744,172.42,30.62,4,152.78,21 / 22,2555111,2020-01-08 10:58:21:785,2.5064,0.4364,9.7715,-0.0227,-0.0304,9.8065,0.0668,0.355,-0.1533,-20.12,-31.19,32.94,351.54,-84.63,-156.57
25552,52.30049,-1.116744,172.42,30.62,4,152.78,20 / 21,2555211,2020-01-08 10:58:21:885,-1.4119,-0.8051,9.0884,0.0197,0.0162,9.8066,-0.0062,0.4083,-0.1208,-20.37,-31.06,32.88,352.47,-84.47,-155.7
25553,52.30049,-1.116744,172.42,30.62,4,152.78,20 / 21,2555310,2020-01-08 10:58:21:984,-4.0958,-1.0223,8.7973,0.0226,0.0474,9.8065,0.0335,0.4138,-0.2837,-20.5,-31.31,33.19,352.28,-84.68,-155.9
25554,52.30049,-1.116744,172.42,30.62,4,152.78,20 / 21,2555411,2020-01-08 10:58:22:085,4.6316,1.4671,9.8884,0.0859,0.028,9.8061,0.0855,0.377,-0.2368,-19.62,-31.25,32.56,347.47,-84.93,-160.38
25555,52.30049,-1.116744,172.42,30.62,4,152.78,20 / 21,2555511,2020-01-08 10:58:22:185,-4.2969,-0.5293,8.7098,0.0632,0.0287,9.8064,0.1927,0.0272,-0.0241,-19.87,-31.06,32.69,348.63,-85.03,-159.33
25556,52.30049,-1.116744,172.42,30.62,4,152.78,20 / 21,2555611,2020-01-08 10:58:22:285,3.0567,0.824,9.762,0.0744,-0.0463,9.8062,0.248,-0.092,0.0741,-19.75,-31.62,33.06,348.3,-84.77,-159.56
25557,52.30049,-1.116744,172.42,30.62,4,152.78,20 / 21,2555711,2020-01-08 10:58:22:385,-6.7483,-2.0589,8.8818,0.0975,0.0293,9.806,0.1265,-0.1316,0.0996,-19.5,-31.19,32.69,350.43,-84.86,-158.9
25558,52.30049,-1.116744,172.42,30.62,4,152.78,20 / 21,2555811,2020-01-08 10:58:22:485,4.3775,0.4807,11.3392,0.1061,-0.0132,9.8061,0.0867,-0.1929,0.1215,-20.12,-31.19,32.81,352.84,-84.94,-155.4
25559,52.30049,-1.116744,172.42,30.62,4,152.78,20 / 21,2555911,2020-01-08 10:58:22:585,-4.0855,-0.0674,9.3385,0.0715,0.0355,9.8063,0.2233,0.0916,-0.0745,-19.56,-31.31,33.31,346.72,-84.92,-161.08
25560,52.30049,-1.116744,172.42,30.62,4,152.78,20 / 21,2556011,2020-01-08 10:58:22:685,4.8148,1.0796,10.7363,0.0933,-0.013,9.8061,0.2798,0.0756,-0.1784,-19.81,-31.12,32.81,348.55,-84.55,-159.31
25561,52.30049,-1.116744,172.42,30.62,4,152.78,20 / 21,2556111,2020-01-08 10:58:22:785,-3.2615,-1.4457,8.8403,0.0068,0.0251,9.8066,0.143,-0.1638,0.0026,-19.94,-31.75,32.44,352.84,-84.76,-154.57
25562,52.30049,-1.116744,172.42,30.62,4,152.78,20 / 21,2556211,2020-01-08 10:58:22:885,2.332,0.7271,11.496,0.0841,-0.033,9.8062,0.1466,-0.0908,0.1219,-20.31,-31.44,32.56,353.88,-84.95,-154.44
25563,52.30049,-1.116744,172.42,30.62,4,152.78,21 / 21,2556311,2020-01-08 10:58:22:985,-1.4252,0.4095,9.5978,0.0809,-0.0057,9.8062,-0.1286,-0.1931,0.1569,-19.37,-31.25,32.69,349.21,-84.7,-160.01
25564,52.30049,-1.116744,172.42,30.62,4,152.78,21 / 21,2556411,2020-01-08 10:58:23:085,4.2063,0.4278,11.5273,0.0362,-0.0102,9.8065,-0.1898,-0.2876,0.2161,-19.44,-30.69,32.69,348.99,-84.57,-160.19
25565,52.30049,-1.116744,172.42,30.62,4,152.78,21 / 21,2556511,2020-01-08 10:58:23:185,-3.2106,0.1956,8.255,0.064,-0.0127,9.8064,-0.2507,-0.2353,0.2508,-19.44,-31.06,33.19,349.91,-84.58,-159.34
25566,52.30049,-1.116744,172.42,30.62,4,152.78,21 / 21,2556611,2020-01-08 10:58:23:285,-0.2791,0.7858,9.6244,0.0034,0.0158,9.8066,-0.0507,-0.1923,0.1066,-19.25,-31.12,33.31,352.15,-84.78,-157.31
25567,52.30049,-1.116744,172.42,30.62,4,152.78,21 / 21,2556711,2020-01-08 10:58:23:385,-1.7647,-1.147,9.7202,0.0342,0.0018,9.8065,0.0152,-0.2618,0.1242,-19.44,-30.69,32.69,350.28,-84.67,-159.02
25568,52.30049,-1.116744,172.42,30.62,4,152.78,21 / 21,2556811,2020-01-08 10:58:23:485,1.5654,1.2833,9.5077,-0.0122,0.0072,9.8065,0.0041,-0.2031,0.1809,-19.75,-31.19,32.69,348.16,-84.49,-159.66
25569,52.30049,-1.116744,172.42,30.62,4,152.78,21 / 21,2556910,2020-01-08 10:58:23:584,-1.7772,0.5988,8.9307,0.0242,0.0267,9.8066,-0.0282,-0.1521,0.156,-19.5,-30.25,33.19,350.17,-84.55,-159.12
25570,52.30049,-1.116744,172.42,30.62,4,152.78,21 / 21,2557011,2020-01-08 10:58:23:685,-0.0281,1.5233,8.8042,0.0234,-0.0262,9.8065,-0.0526,0.039,-0.0136,-19.94,-30.94,32.56,350.57,-84.69,-157.47
25571,52.30049,-1.116744,172.42,30.62,4,152.78,21 / 21,2557111,2020-01-08 10:58:23:785,1.9026,0.2301,8.8589,-0.0061,-0.0115,9.8066,-0.0849,0.1344,-0.1392,-19.81,-30.69,33.06,350.67,-84.62,-157.37
25572,52.30049,-1.116744,172.42,30.62,4,152.78,21 / 21,2557211,2020-01-08 10:58:23:885,-1.9069,-1.624,10.5316,-0.0386,-0.0276,9.8065,-0.0516,0.2612,-0.1676,-19.75,-31.19,32.94,349.44,-84.75,-158.53
25573,52.30049,-1.116744,172.42,30.62,4,152.78,21 / 21,2557311,2020-01-08 10:58:23:985,1.3835,-0.1496,9.1959,0.0015,-0.0254,9.8065,-0.0592,0.2348,-0.0955,-19.56,-31.0,32.81,350.49,-84.64,-157.54
25574,52.30049,-1.116744,172.42,30.62,4,152.78,21 / 21,2557411,2020-01-08 10:58:24:085,-1.9644,-0.8533,11.4557,-0.0013,-0.0024,9.8066,0.0735,0.3,-0.1877,-19.25,-30.37,33.25,350.75,-84.58,-158.59
25575,52.30049,-1.116744,172.42,30.62,4,152.78,21 / 21,2557510,2020-01-08 10:58:24:184,3.9311,0.3129,10.8517,-0.0466,-0.0335,9.8064,0.1285,0.3027,-0.156,-20.31,-30.81,33.06,350.43,-84.39,-157.56
25576,52.30049,-1.116744,172.42,30.62,4,152.78,21 / 21,2557611,2020-01-08 10:58:24:285,-2.931,-0.8452,7.7097,-0.0344,0.0331,9.8065,0.1259,0.0558,-0.1205,-20.44,-30.69,33.25,350.34,-84.35,-157.63
25577,52.30049,-1.116744,172.42,30.62,4,152.78,21 / 21,2557710,2020-01-08 10:58:24:384,0.8742,1.372,9.259,-0.039,0.0006,9.8066,0.0059,0.006,-0.0553,-19.87,-30.81,33.19,352.13,-84.49,-156.01
25578,52.30049,-1.116744,172.42,30.62,4,152.78,21 / 21,2557811,2020-01-08 10:58:24:485,1.5404,0.927,8.8285,0.0127,0.0258,9.8065,0.079,-0.1348,0.1208,-19.19,-30.06,33.56,351.76,-84.52,-158.4
25579,52.30049,-1.116744,172.42,30.62,4,152.78,21 / 21,2557911,2020-01-08 10:58:24:585,3.6936,0.5136,10.3459,-0.0298,0.0074,9.8066,0.0586,-0.2005,0.1183,-19.87,-30.81,33.19,351.12,-84.4,-156.92
25580,52.30049,-1.116744,172.42,30.62,4,152.78,21 / 21,2558011,2020-01-08 10:58:24:685,-0.0971,0.6722,8.8479,0.0304,0.0334,9.8065,0.0208,-0.1923,0.1381,-20.31,-30.94,32.88,350.82,-84.38,-157.2
25581,52.30049,-1.116744,172.42,30.62,4,152.78,21 / 21,2558113,2020-01-08 10:58:24:787,-0.3835,-0.8851,9.2621,-0.0185,0.0182,9.8065,-0.0523,-0.1311,0.0473,-20.12,-30.62,33.44,349.74,-84.57,-158.22
25582,52.30049,-1.116744,172.42,30.62,4,152.78,21 / 21,2558210,2020-01-08 10:58:24:884,3.2049,1.0609,8.9504,-0.0006,0.0084,9.8066,-0.0044,-0.0802,-0.0422,-19.62,-30.69,33.44,349.03,-84.61,-158.89
25583,52.30049,-1.116744,172.42,30.62,4,152.78,21 / 21,2558311,2020-01-08 10:58:24:985,-3.1385,-1.1612,11.0738,0.0379,0.0476,9.8064,-0.055,0.1637,-0.1234,-20.25,-29.75,33.5,348.33,-84.68,-160.34
25584,52.30049,-1.116744,172.42,30.62,4,152.78,21 / 21,2558411,2020-01-08 10:58:25:085,-2.3745,-2.9241,12.1735,0.0168,-0.0792,9.8062,-0.275,0.5516,-0.2061,-20.12,-30.62,32.56,348.29,-84.67,-159.57
25585,52.30049,-1.116744,172.42,30.62,4,152.78,21 / 21,2558511,2020-01-08 10:58:25:185,-1.1841,-0.3625,9.5281,-0.0031,-0.0457,9.8065,-0.131,0.6216,-0.2653,-19.44,-30.37,33.13,349.23,-84.23,-159.93
25586,52.30049,-1.116744,172.42,30.62,4,152.78,21 / 21,2558610,2020-01-08 10:58:25:284,5.1974,-0.3523,12.6197,-0.1021,-0.0365,9.806,0.3517,0.5485,-0.5908,-19.56,-30.94,33.06,350.86,-84.24,-157.14
25587,52.30049,-1.116744,172.42,30.62,4,152.78,21 / 21,2558711,2020-01-08 10:58:25:385,-0.1793,-1.7708,9.9713,0.0272,-0.0073,9.8065,0.3597,0.5341,-0.6234,-20.44,-30.69,33.13,345.42,-84.33,-162.15
25588,52.30049,-1.116744,172.42,30.62,4,152.78,21 / 21,2558811,2020-01-08 10:58:25:485,-5.7689,-4.1048,8.5306,-0.1083,-0.0254,9.806,0.0878,0.8204,-0.448,-20.19,-31.37,32.94,352.57,-84.41,-155.6
25589,52.30049,-1.116744,172.42,30.62,4,152.78,21 / 21,2558911,2020-01-08 10:58:25:585,-1.1185,-0.3016,8.4736,-0.036,-0.0334,9.8064,0.1678,0.6219,-0.3294,-19.87,-30.5,33.38,351.3,-84.44,-156.79
25590,52.30049,-1.116744,172.42,30.62,4,152.78,21 / 21,2559010,2020-01-08 10:58:25:684,-7.6395,-3.548,10.0295,-0.1229,-0.0227,9.8058,0.2327,0.0278,-0.1362,-20.12,-29.81,32.81,347.18,-84.44,-160.59
25591,52.30049,-1.116744,172.42,30.62,4,152.78,21 / 21,2559110,2020-01-08 10:58:25:784,4.0163,1.202,12.3747,0.099,0.0142,9.8061,0.159,-0.2924,0.0899,-19.56,-31.12,33.75,352.41,-84.34,-156.5
25592,52.30049,-1.116744,172.42,30.62,4,152.78,21 / 21,2559211,2020-01-08 10:58:25:885,-6.5187,-2.1119,9.889,0.1175,0.0206,9.8059,-0.0705,-0.6236,0.4702,-19.87,-30.75,32.94,343.92,-84.36,-163.54
25593,52.298264,-1.114751,170.86,31.61,4,151.06,20 / 20,2559310,2020-01-08 10:58:25:984,5.0946,0.7113,10.991,-0.0065,-0.0078,9.8066,-0.2175,-0.6391,0.4886,-20.06,-30.87,33.19,346.51,-84.29,-161.14
25594,52.298264,-1.114751,170.86,31.61,4,151.06,20 / 20,2559411,2020-01-08 10:58:26:085,-0.0248,0.9565,8.6305,0.0876,0.0037,9.8062,-0.2738,-0.5479,0.4608,-20.06,-31.31,33.38,346.19,-84.3,-161.43
25595,52.298264,-1.114751,170.86,31.61,4,151.06,20 / 20,2559511,2020-01-08 10:58:26:185,2.4686,1.8361,10.0711,-0.0091,0.0068,9.8066,-0.232,-0.3747,0.3497,-19.75,-31.31,33.19,350.38,-84.58,-157.64
25596,52.298264,-1.114751,170.86,31.61,4,151.06,20 / 20,2559610,2020-01-08 10:58:26:284,-1.1641,-0.357,10.0074,0.0517,-0.0122,9.8065,-0.036,-0.1759,0.0653,-20.06,-30.75,33.63,349.91,-84.56,-158.83
25597,52.298264,-1.114751,170.86,31.61,4,151.06,20 / 20,2559711,2020-01-08 10:58:26:385,2.0871,0.0451,10.5809,-0.0018,-0.0297,9.8065,0.0353,-0.119,0.0689,-20.19,-31.31,33.5,348.69,-84.44,-159.94
25598,52.298264,-1.114751,170.86,31.61,4,151.06,20 / 20,2559810,2020-01-08 10:58:26:484,-0.5527,0.452,8.823,0.0212,-0.0121,9.8066,-0.0799,-0.0621,0.1247,-20.0,-31.37,32.88,346.96,-84.18,-160.7
25599,52.298264,-1.114751,170.86,31.61,4,151.06,20 / 20,2559911,2020-01-08 10:58:26:585,0.3102,-0.4997,9.9704,-0.04,0.0286,9.8064,-0.1779,0.0579,-0.0321,-20.06,-30.87,32.63,350.2,-84.33,-157.76
25600,52.298264,-1.114751,170.86,31.61,4,151.06,20 / 20,2560010,2020-01-08 10:58:26:684,0.3546,0.0698,9.5308,0.0041,0.0067,9.8066,-0.143,0.126,-0.0659,-19.69,-31.56,33.19,348.79,-84.44,-159.04
25601,52.298264,-1.114751,170.86,31.61,4,151.06,20 / 20,2560111,2020-01-08 10:58:26:785,0.4672,-0.6424,11.1541,-0.0025,0.0045,9.8066,0.0054,0.0536,0.0225,-20.87,-30.5,33.25,347.52,-84.43,-159.03
25602,52.298264,-1.114751,170.86,31.61,4,151.06,20 / 20,2560211,2020-01-08 10:58:26:885,0.0971,0.8285,8.5417,0.0186,-0.0205,9.8065,-0.0268,0.0827,-0.0762,-20.12,-31.5,32.88,347.93,-84.3,-159.84
25603,52.298264,-1.114751,170.86,31.61,4,151.06,20 / 20,2560311,2020-01-08 10:58:26:985,-1.0013,-0.6767,10.9838,0.0149,0.0094,9.8066,-0.0759,0.1305,-0.1494,-19.56,-30.69,32.63,347.93,-84.35,-159.84
25604,52.298264,-1.114751,170.86,31.61,4,151.06,20 / 20,2560411,2020-01-08 10:58:27:085,2.2396,-0.5898,10.9272,0.021,0.0025,9.8065,0.037,0.411,-0.1048,-20.44,-31.0,32.63,345.85,-84.27,-161.74
25605,52.298264,-1.114751,170.86,31.61,4,151.06,20 / 20,2560511,2020-01-08 10:58:27:185,-4.8202,-1.365,8.1105,0.0568,-0.0271,9.8063,0.1581,0.4625,-0.205,-20.12,-31.56,32.88,344.64,-84.23,-162.8
25606,52.298264,-1.114751,170.86,31.61,4,151.06,20 / 20,2560610,2020-01-08 10:58:27:284,6.4725,3.6599,9.6532,-0.0804,0.038,9.8062,-0.1656,0.4466,-0.1995,-19.81,-31.19,32.56,350.57,-84.52,-157.45
25607,52.298264,-1.114751,170.86,31.61,4,151.06,20 / 20,2560710,2020-01-08 10:58:27:384,-1.0724,-1.0526,11.9748,0.0367,0.0655,9.8063,-0.0755,-0.128,0.0674,-20.37,-30.75,32.88,347.44,-84.44,-160.32
25608,52.298264,-1.114751,170.86,31.61,4,151.06,20 / 20,2560811,2020-01-08 10:58:27:485,-0.9428,-1.4669,9.6683,-0.0468,-0.0521,9.8064,-0.0467,-0.4048,0.1746,-19.81,-30.81,32.88,351.0,-84.02,-156.98
25609,52.298264,-1.114751,170.86,31.61,4,151.06,20 / 20,2560911,2020-01-08 10:58:27:585,3.7986,1.3697,9.2441,-0.008,-0.0151,9.8065,-0.0078,-0.2904,0.2915,-20.44,-30.56,33.0,347.86,-84.06,-158.61
25610,52.298264,-1.114751,170.86,31.61,4,151.06,20 / 20,2561011,2020-01-08 10:58:27:685,2.4152,1.3473,10.304,-0.07,-0.0079,9.8063,-0.0465,-0.1322,0.2405,-20.0,-30.94,32.88,345.88,-84.21,-161.7
25611,52.298264,-1.114751,170.86,31.61,4,151.06,20 / 20,2561110,2020-01-08 10:58:27:784,-1.8604,0.3581,9.3003,0.0334,0.0072,9.8066,-0.0266,-0.1337,-0.0127,-19.69,-31.12,33.13,346.98,-84.26,-160.7
25612,52.298264,-1.114751,170.86,31.61,4,151.06,21 / 21,2561211,2020-01-08 10:58:27:885,-2.223,-0.9447,9.4295,-0.0213,-0.0099,9.8066,-0.0718,-0.2118,0.0965,-19.94,-31.37,33.0,348.97,-84.3,-158.89
25613,52.298264,-1.114751,170.86,31.61,4,151.06,21 / 21,2561310,2020-01-08 10:58:27:984,2.7538,2.2231,9.8937,-0.0099,-0.0272,9.8065,-0.0405,-0.3463,0.2871,-20.44,-30.5,32.63,350.3,-84.25,-157.68
25614,52.298264,-1.114751,170.86,31.61,4,151.06,21 / 21,2561411,2020-01-08 10:58:28:085,-1.196,-1.0688,9.0574,-0.047,-0.0006,9.8065,-0.0565,-0.2789,0.1738,-19.62,-30.87,32.44,348.79,-84.35,-158.25
25615,52.298264,-1.114751,170.86,31.61,4,151.06,21 / 21,2561511,2020-01-08 10:58:28:185,0.2665,0.6159,9.6049,-0.0218,-0.0212,9.8065,-0.1237,-0.2384,0.1637,-20.12,-31.31,33.38,351.99,-84.4,-156.13
25616,52.298264,-1.114751,170.86,31.61,4,151.06,21 / 21,2561611,2020-01-08 10:58:28:285,-4.4621,-0.2233,9.7221,-0.0413,0.001,9.8065,-0.0862,-0.1951,0.1466,-19.87,-30.62,32.94,351.23,-84.46,-156.83
25617,52.298264,-1.114751,170.86,31.61,4,151.06,21 / 21,2561710,2020-01-08 10:58:28:384,1.5502,0.4449,9.7339,-0.0548,-0.0101,9.8064,-0.1048,0.0531,-0.0519,-19.69,-31.25,33.13,350.49,-84.43,-157.51
25618,52.298264,-1.114751,170.86,31.61,4,151.06,21 / 21,2561811,2020-01-08 10:58:28:485,2.9273,2.3484,8.7568,-0.0026,0.0276,9.8066,-0.1344,0.2646,-0.1706,-19.44,-30.56,32.5,351.07,-84.48,-158.26
25619,52.298264,-1.114751,170.86,31.61,4,151.06,21 / 21,2561910,2020-01-08 10:58:28:584,1.5694,2.3928,7.3746,-0.0287,-0.046,9.8064,-0.1278,0.1474,-0.1146,-19.5,-30.75,32.31,350.4,-84.34,-158.06
25620,52.298264,-1.114751,170.86,31.61,4,151.06,21 / 21,2562011,2020-01-08 10:58:28:685,-1.7529,0.0257,9.4084,-0.0577,0.0222,9.8064,-0.2946,0.1341,0.07,-19.81,-31.25,33.06,347.64,-84.23,-160.09
25621,52.298264,-1.114751,170.86,31.61,4,151.06,21 / 21,2562111,2020-01-08 10:58:28:785,-0.3659,-0.5683,10.7593,-0.0162,0.0168,9.8066,-0.0972,0.0492,-0.0272,-20.31,-30.62,33.0,350.26,-84.37,-157.71
25622,52.298264,-1.114751,170.86,31.61,4,151.06,21 / 21,2562212,2020-01-08 10:58:28:886,0.4624,-1.3055,10.1714,0.0101,-0.0059,9.8066,-0.0013,-0.0724,-0.0767,-20.12,-30.94,32.5,349.98,-84.26,-157.95
25623,52.298264,-1.114751,170.86,31.61,4,151.06,21 / 21,2562311,2020-01-08 10:58:28:985,-0.1743,2.6445,9.3328,0.0177,-0.0474,9.8065,-0.0908,-0.0246,0.032,-20.44,-31.12,32.19,346.57,-83.98,-160.21
25624,52.298264,-1.114751,170.86,31.61,4,151.06,21 / 21,2562411,2020-01-08 10:58:29:085,-0.7563,-1.7721,11.4387,-0.0026,-0.0272,9.8066,-0.0487,-0.0653,0.0276,-20.37,-30.94,32.44,345.61,-83.82,-161.05
25625,52.298264,-1.114751,170.86,31.61,4,151.06,21 / 21,2562510,2020-01-08 10:58:29:184,1.1009,1.2158,9.2268,0.0067,-0.0332,9.8065,-0.0677,-0.0119,0.1069,-20.25,-30.56,32.63,345.78,-83.82,-161.7
25626,52.298264,-1.114751,170.86,31.61,4,151.06,21 / 21,2562611,2020-01-08 10:58:29:285,-0.5812,-0.1878,9.1849,-0.0206,0.0016,9.8065,-0.1283,-0.0343,0.11,-20.19,-30.75,32.44,344.22,-83.81,-162.31
25627,52.298264,-1.114751,170.86,31.61,4,151.06,21 / 21,2562711,2020-01-08 10:58:29:385,-0.1868,0.4727,9.5114,0.0125,-0.0034,9.8066,-0.1496,0.1529,-0.05,-20.56,-30.94,32.13,343.52,-83.87,-161.71
25628,52.298264,-1.114751,170.86,31.61,4,151.06,21 / 21,2562811,2020-01-08 10:58:29:485,-1.4693,-0.1635,8.9617,0.0311,-0.0019,9.8066,-0.0298,0.1973,-0.1357,-20.31,-30.5,33.19,346.89,-84.13,-160.79
25629,52.298264,-1.114751,170.86,31.61,4,151.06,21 / 21,2562910,2020-01-08 10:58:29:584,1.7033,1.7703,7.9889,0.0144,-0.0303,9.8065,0.0021,0.3049,-0.2056,-20.62,-31.19,32.5,343.82,-84.05,-162.31
25630,52.298264,-1.114751,170.86,31.61,4,151.06,21 / 21,2563011,2020-01-08 10:58:29:685,-0.7693,-1.0081,11.3822,0.0373,-0.0116,9.8065,-0.1549,0.4254,-0.2002,-20.56,-31.19,32.44,341.9,-84.1,-163.25
25631,52.298264,-1.114751,170.86,31.61,4,151.06,21 / 21,2563111,2020-01-08 10:58:29:785,-1.6963,-0.1082,9.4917,0.004,-0.0573,9.8065,-0.1873,0.4092,-0.1533,-21.12,-31.31,32.69,345.03,-84.0,-161.19
25632,52.298264,-1.114751,170.86,31.61,4,151.06,20 / 21,2563211,2020-01-08 10:58:29:885,-3.1394,-1.8383,11.2398,0.0251,0.0234,9.8066,-0.0357,0.3041,-0.1656,-20.44,-30.62,32.63,346.07,-84.02,-161.49
25633,52.298264,-1.114751,170.86,31.61,4,151.06,20 / 21,2563311,2020-01-08 10:58:29:985,1.107,0.3921,10.5225,-0.0234,-0.0112,9.8065,0.0217,0.2314,-0.1855,-20.44,-30.94,32.69,348.27,-83.91,-159.45
25634,52.298264,-1.114751,170.86,31.61,4,151.06,20 / 21,2563411,2020-01-08 10:58:30:085,0.1716,1.4119,9.9064,0.006,0.0199,9.8066,0.0474,0.0864,-0.1182,-20.56,-30.56,33.06,345.39,-84.03,-160.88
25635,52.298264,-1.114751,170.86,31.61,4,151.06,20 / 21,2563511,2020-01-08 10:58:30:185,0.1691,1.8784,9.25,-0.0208,0.01,9.8066,0.0364,0.0754,-0.0236,-20.37,-31.19,32.69,347.04,-84.07,-160.61
