,GPS LATITUDE (degrees), GPS LONGITUDE (degrees), GPS ALTITUDE (m), GPS SPEED (Kmh), GPS ACCURACY (m), GPS ORIENTATION (Â°),GPS SATELLITES IN RANGE, TIME SINCE START (ms), DATE (YYYY-MO-DD HH-MI-SS_SSS), ACCELEROMETER X (m/s²) , ACCELEROMETER Y (m/s²), ACCELEROMETER Z (m/s²), GRAVITY X (m/s²), GRAVITY Y (m/s²), GRAVITY Z (m/s²), GYROSCOPE Yaw (rad/s), GYROSCOPE Pitch (rad/s), GYROSCOPE Roll (rad/s), MAGNETIC FIELD X (Î¼T), MAGNETIC FIELD Y (Î¼T), MAGNETIC FIELD Z (Î¼T), ORIENTATION (Yaw) (Â°), ORIENTATION (Pitch) (Â°), ORIENTATION (Roll ) (Â°)
78018,50.448,-4.991011,143,15.63,22.0,310.8,Jun-23,7736041,2019-08-17 09:29:25:408,-0.3608,-0.2812,9.6564,-0.0121,0.0241,9.8066,-0.0006,-0.0065,-0.0027,13.72,15.37,-34.71,307.91,3.06,-0.93
78019,50.448,-4.991011,143,15.63,22.0,310.8,Jun-23,7736141,2019-08-17 09:29:25:508,-0.3203,-0.0667,9.6237,-0.0099,0.0171,9.8066,-0.008,-0.0065,0.0144,13.72,15.37,-34.71,307.91,3.06,-0.93
78020,50.448,-4.991011,143,15.63,22.0,310.8,Jun-23,7736242,2019-08-17 09:29:25:609,-0.1247,0.0734,10.2152,0.0055,0.0045,9.8066,-0.0325,-0.0001,-0.0048,13.72,15.68,-35.15,306.02,3.18,-0.95
78021,50.448,-4.991011,143,15.63,22.0,310.8,Jun-23,7736342,2019-08-17 09:29:25:709,0.3523,0.188,9.3576,0.0224,0.0218,9.8066,-0.0176,0.018,0.024,13.72,15.37,-35.15,307.5,3.21,-1.13
78022,50.448,-4.991011,143,15.63,22.0,310.8,Jun-23,7736442,2019-08-17 09:29:25:809,-0.2462,-0.1341,9.9783,0.027,-0.0039,9.8066,-0.0197,0.0361,0.0314,13.35,16.06,-35.15,307.5,3.21,-1.13
78023,50.448,-4.991011,143,15.63,22.0,310.8,Jun-23,7736541,2019-08-17 09:29:25:908,0.6848,-0.1429,10.0001,0.0305,-0.0351,9.8065,-0.0197,0.0361,0.0314,13.35,16.06,-35.15,307.5,3.21,-1.13
78024,50.448116,-4.991174,142,15.59,22.0,310.7,Jun-23,7736641,2019-08-17 09:29:26:008,0.0816,-0.4829,10.6297,-0.0051,-0.0363,9.8066,0.0154,-0.0097,0.0197,12.97,15.31,-35.15,305.53,2.93,-1.15
78025,50.448116,-4.991174,142,15.59,22.0,310.7,Jun-23,7736742,2019-08-17 09:29:26:109,-0.0121,-0.0477,9.1807,-0.0299,-0.0573,9.8064,0.0421,0.0031,-0.0016,13.35,16.43,-34.71,305.53,2.93,-1.15
78026,50.448116,-4.991174,142,15.59,22.0,310.7,Jun-23,7736841,2019-08-17 09:29:26:208,0.2187,0.127,9.7578,-0.0461,-0.0799,9.8062,-0.0027,-0.0076,-0.0069,13.72,16.43,-34.71,306.96,2.71,-0.65
78027,50.448116,-4.991174,142,15.59,22.0,310.7,Jun-23,7736942,2019-08-17 09:29:26:309,-0.3975,-0.5083,11.5804,-0.0009,0.0101,9.8066,-0.0176,0.0532,0.0123,13.72,18.31,-33.84,306.96,2.71,-0.65
78028,50.448116,-4.991174,142,15.59,22.0,310.7,Jun-23,7737041,2019-08-17 09:29:26:408,0.2421,0.4626,9.3791,0.0102,0.1467,9.8055,-0.0187,-0.0939,0.0016,13.72,18.31,-33.84,306.96,2.71,-0.65
78029,50.448116,-4.991174,142,15.59,22.0,310.7,Jun-23,7737141,2019-08-17 09:29:26:508,0.3744,0.1284,9.4532,0.0311,0.0473,9.8065,-0.0762,-0.0512,0.0261,14.47,14.62,-34.27,307.36,3.36,-1.22
78030,50.448116,-4.991174,142,15.59,22.0,310.7,Jun-23,7737241,2019-08-17 09:29:26:608,0.3275,0.3951,9.1412,0.0344,0.0133,9.8066,-0.0059,-0.0012,0.0261,14.1,15.31,-35.15,306.72,3.47,-1.53
78031,50.448116,-4.991174,142,15.59,22.0,310.7,Jun-23,7737341,2019-08-17 09:29:26:708,0.192,-0.2611,9.9048,0.0422,-0.0196,9.8065,-0.0059,-0.0012,0.0261,14.47,15.37,-34.27,307.11,3.23,-1.66
78032,50.448116,-4.991174,142,15.59,22.0,310.7,Jun-23,7737441,2019-08-17 09:29:26:808,-0.2299,0.0096,9.6135,0.001,-0.021,9.8066,-0.0006,0.0276,0.0176,14.47,15.37,-34.27,307.11,3.23,-1.66
78033,50.448116,-4.991174,142,15.59,22.0,310.7,Jun-23,7737541,2019-08-17 09:29:26:908,0.1501,-0.1138,8.9065,-0.0001,0.0003,9.8067,-0.0144,0.001,0.0261,13.72,15.37,-35.15,307.14,3.13,-1.59
78034,50.448193,-4.991348,142,14.48,20.0,309.9,Jun-23,7737641,2019-08-17 09:29:27:008,0.2987,0.1027,9.5772,0.0182,-0.0279,9.8066,0.0026,-0.0012,0.0101,14.1,15.68,-34.71,305.48,3.13,-1.59
78035,50.448193,-4.991348,142,14.48,20.0,309.9,Jun-23,7737741,2019-08-17 09:29:27:108,-0.2018,-0.0671,9.3032,0.0077,-0.0526,9.8065,0.058,-0.0289,0.0154,13.72,15.68,-35.52,305.84,2.85,-1.45
78036,50.448193,-4.991348,142,14.48,20.0,309.9,Jun-23,7737841,2019-08-17 09:29:27:208,-0.4384,-0.032,9.3882,-0.1106,0.0153,9.806,0.0293,-0.0619,0.0133,13.72,15.68,-35.52,305.84,2.85,-1.45
78037,50.448193,-4.991348,142,14.48,20.0,309.9,Jun-23,7737941,2019-08-17 09:29:27:308,-0.0376,0.1365,9.8105,-0.0412,0.0246,9.8065,0.0101,0.0255,0.0154,14.1,15.68,-35.09,305.82,3.3,-0.98
78038,50.448193,-4.991348,142,14.48,20.0,309.9,Jun-23,7738041,2019-08-17 09:29:27:408,-0.4713,-0.0894,10.0259,-0.0686,0.0291,9.8064,0.0026,0.0382,0.0282,14.47,15.68,-34.71,305.82,3.3,-0.98
78039,50.448193,-4.991348,142,14.48,20.0,309.9,Jun-23,7738142,2019-08-17 09:29:27:509,-0.3823,-0.3671,10.835,-0.0969,0.0478,9.8061,0.0026,0.0382,0.0282,14.47,15.37,-35.09,307.02,3.86,-0.68
78040,50.448193,-4.991348,142,14.48,20.0,309.9,Jun-23,7738242,2019-08-17 09:29:27:609,-0.6055,-0.1837,10.3846,-0.0037,0.0042,9.8066,-0.0133,0.0297,0.0144,13.72,15.68,-35.15,307.02,3.86,-0.68
78041,50.448193,-4.991348,142,14.48,20.0,309.9,Jun-23,7738341,2019-08-17 09:29:27:708,0.0059,-0.2615,9.4293,0.0187,0.0111,9.8066,-0.0378,0.0223,0.0186,13.72,15.68,-35.15,307.02,3.86,-0.68
78042,50.448193,-4.991348,142,14.48,20.0,309.9,Jun-23,7738441,2019-08-17 09:29:27:808,-0.3246,0.0342,10.3166,0.0232,0.0045,9.8066,-0.0293,0.0297,0.0208,14.1,15.37,-35.09,306.91,3.85,-0.81
78043,50.448193,-4.991348,142,14.48,20.0,309.9,Jun-23,7738541,2019-08-17 09:29:27:908,-0.2571,0.3637,10.0862,0.0219,0.0189,9.8066,-0.0261,-0.015,0.0314,14.1,15.0,-35.52,306.52,3.86,-0.98
78044,50.44823,-4.991478,143,11.84,19.0,308.6,Jun-23,7738642,2019-08-17 09:29:28:009,0.2782,0.3437,9.9143,0.0019,0.0233,9.8066,0.009,-0.0214,0.0282,14.1,15.0,-35.52,306.52,3.86,-0.98
78045,50.44823,-4.991478,143,11.84,19.0,308.6,Jun-23,7738741,2019-08-17 09:29:28:108,0.0557,0.2558,10.044,-0.0005,0.0415,9.8066,0.0112,0.0223,0.0208,13.72,15.0,-35.15,306.28,4.06,-1.12
78046,50.44823,-4.991478,143,11.84,19.0,308.6,Jun-23,7738841,2019-08-17 09:29:28:208,-0.2446,0.1805,9.3486,-0.0059,-0.0036,9.8066,0.0303,0.0446,0.0112,14.1,15.0,-35.09,306.28,4.06,-1.12
78047,50.44823,-4.991478,143,11.84,19.0,308.6,Jun-23,7738941,2019-08-17 09:29:28:308,-0.5768,-0.1564,9.3298,-0.0501,0.0211,9.8065,0.0303,0.0446,0.0112,14.1,15.0,-35.09,306.28,4.06,-1.12
78048,50.44823,-4.991478,143,11.84,19.0,308.6,Jun-23,7739041,2019-08-17 09:29:28:408,-0.1811,0.0439,9.6019,-0.0143,0.0163,9.8066,-0.0464,-0.0704,0.0314,14.1,15.37,-35.09,306.04,4.33,-0.96
78049,50.44823,-4.991478,143,11.84,19.0,308.6,Jun-23,7739141,2019-08-17 09:29:28:508,0.0103,-0.2572,10.1651,-0.0023,0.0094,9.8066,0.0016,-0.0172,0.0165,13.72,15.0,-35.52,306.04,4.33,-0.96
78050,50.44823,-4.991478,143,11.84,19.0,308.6,Jun-23,7739242,2019-08-17 09:29:28:609,0.4152,0.1551,8.869,0.0174,0.0049,9.8066,-0.0272,-0.0214,0.0389,14.1,15.37,-35.09,305.94,4.38,-0.98
78051,50.44823,-4.991478,143,11.84,19.0,308.6,Jun-23,7739341,2019-08-17 09:29:28:708,0.0009,-0.1773,10.2512,0.0323,-0.0047,9.8066,0.0474,0.0287,0.0165,14.1,15.0,-35.59,305.79,4.25,-1.11
78052,50.44823,-4.991478,143,11.84,19.0,308.6,Jun-23,7739441,2019-08-17 09:29:28:808,0.1465,-0.3902,9.735,0.0087,-0.0463,9.8065,0.0133,0.0382,0.04,14.1,15.0,-35.59,305.79,4.25,-1.11
78053,50.44823,-4.991478,143,11.84,19.0,308.6,Jun-23,7739540,2019-08-17 09:29:28:907,-0.283,-0.3002,10.331,-0.005,-0.0422,9.8066,-0.008,0.0116,0.0197,13.22,15.55,-34.98,302.42,4.0,-1.0
78054,50.448296,-4.991647,144,13.47,20.0,307.3,Jun-23,7739641,2019-08-17 09:29:29:008,-0.236,-0.539,10.1697,-0.0065,-0.059,9.8065,0.008,0.0542,-0.0005,13.22,15.24,-34.98,302.42,4.0,-1.0
78055,50.448296,-4.991647,144,13.47,20.0,307.3,Jun-23,7739742,2019-08-17 09:29:29:109,-0.366,0.0629,8.7184,0.0139,-0.0211,9.8066,0.008,0.0542,-0.0005,13.22,15.93,-34.98,303.14,3.61,-0.85
78056,50.448296,-4.991647,144,13.47,20.0,307.3,Jun-23,7739841,2019-08-17 09:29:29:208,0.1815,-0.2723,9.6177,0.0281,-0.0369,9.8065,-0.0038,0.0297,0.0186,13.22,15.93,-34.98,303.14,3.61,-0.85
78057,50.448296,-4.991647,144,13.47,20.0,307.3,Jun-23,7739941,2019-08-17 09:29:29:308,-0.1173,-0.3311,9.4191,-0.0191,-0.0189,9.8066,0.0421,0.001,0.0304,12.84,15.93,-34.98,303.53,3.34,-0.87
78058,50.448296,-4.991647,144,13.47,20.0,307.3,Jun-23,7740041,2019-08-17 09:29:29:408,-0.3805,-0.2014,9.4831,-0.0605,-0.0357,9.8064,0.0133,-0.0129,0.0368,12.84,15.55,-34.54,303.53,3.34,-0.87
78059,50.448296,-4.991647,144,13.47,20.0,307.3,Jun-23,7740141,2019-08-17 09:29:29:508,-0.0759,0.0273,9.4051,-0.1135,-0.0524,9.8059,0.0325,0.0329,0.0463,12.84,16.3,-34.98,304.05,3.45,-0.15
78060,50.448296,-4.991647,144,13.47,20.0,307.3,Jun-23,7740241,2019-08-17 09:29:29:608,-0.4801,-0.2281,9.4207,-0.0461,-0.0349,9.8065,0.0303,-0.0097,0.0123,13.22,15.93,-35.42,304.05,3.45,-0.15
78061,50.448296,-4.991647,144,13.47,20.0,307.3,Jun-23,7740342,2019-08-17 09:29:29:709,-0.4552,-0.5286,10.2486,-0.0687,-0.0558,9.8063,0.0037,0.0042,0.0208,13.22,15.93,-35.42,304.05,3.45,-0.15
78062,50.448296,-4.991647,144,13.47,20.0,307.3,Jun-23,7740441,2019-08-17 09:29:29:808,-0.2859,0.1538,9.5754,-0.0741,-0.0653,9.8062,0.0037,0.0042,0.0208,12.47,16.3,-35.42,302.2,3.38,0.43
78063,50.448296,-4.991647,144,13.47,20.0,307.3,Jun-23,7740541,2019-08-17 09:29:29:908,0.0427,-0.1131,9.8514,0.0082,-0.0251,9.8066,-0.0048,0.0297,0.0101,12.47,15.93,-36.29,302.2,3.38,0.43
78064,50.44835,-4.991833,144,14.27,20.0,305.4,May-22,7740641,2019-08-17 09:29:30:008,0.004,-0.3025,10.9796,0.0443,-0.0668,9.8063,-0.0155,0.0468,0.0229,12.47,15.93,-36.29,302.2,3.38,0.43
78065,50.44835,-4.991833,144,14.27,20.0,305.4,May-22,7740741,2019-08-17 09:29:30:108,-0.1638,0.2141,9.7845,-0.0027,0.0003,9.8066,0.0239,0.0244,0.0304,12.09,16.68,-36.29,301.24,2.91,0.42
78066,50.44835,-4.991833,144,14.27,20.0,305.4,May-22,7740841,2019-08-17 09:29:30:208,0.5412,0.1323,10.0164,0.0155,0.0081,9.8066,-0.0357,-0.0534,0.0197,11.72,15.93,-35.92,302.82,2.92,0.43
78067,50.44835,-4.991833,144,14.27,20.0,305.4,May-22,7740941,2019-08-17 09:29:30:308,0.0664,0.3061,10.3539,-0.008,-0.0061,9.8066,0.0367,-0.0225,0.0495,11.72,15.93,-35.92,302.82,2.92,0.43
78068,50.44835,-4.991833,144,14.27,20.0,305.4,May-22,7741041,2019-08-17 09:29:30:408,0.214,0.0443,9.5086,-0.0158,0.002,9.8066,-0.008,-0.0118,0.0463,11.34,15.55,-36.29,300.24,2.91,0.49
78069,50.44835,-4.991833,144,14.27,20.0,305.4,May-22,7741140,2019-08-17 09:29:30:507,-0.3734,-0.059,9.382,-0.0293,0.011,9.8066,-0.008,-0.0118,0.0463,11.72,16.3,-35.92,302.77,3.06,0.6
78070,50.44835,-4.991833,144,14.27,20.0,305.4,May-22,7741242,2019-08-17 09:29:30:609,-0.457,-0.0102,10.4133,-0.0015,0.0143,9.8066,-0.0176,-0.0054,0.0421,11.72,16.3,-35.92,302.77,3.06,0.6
78071,50.44835,-4.991833,144,14.27,20.0,305.4,May-22,7741341,2019-08-17 09:29:30:708,0.0085,-0.1495,9.8908,0.0417,0.0118,9.8066,-0.0943,0.0329,0.04,11.72,15.93,-35.48,302.73,3.13,0.56
78072,50.44835,-4.991833,144,14.27,20.0,305.4,May-22,7741441,2019-08-17 09:29:30:808,0.4497,-0.1491,11.037,0.0959,0.0031,9.8062,-0.057,0.0564,0.0527,11.34,15.55,-35.98,299.98,2.84,0.08
78073,50.44835,-4.991833,144,14.27,20.0,305.4,May-22,7741542,2019-08-17 09:29:30:909,0.0162,-0.526,10.6722,0.0511,-0.0371,9.8064,-0.0144,0.0382,0.0676,11.34,16.3,-35.48,299.98,2.84,0.08
78074,50.448456,-4.99202,143,15.19,20.0,303.7,Jun-23,7741641,2019-08-17 09:29:31:008,0.0035,-0.7516,11.4827,0.0824,-0.2543,9.803,0.0815,0.1831,0.0591,11.34,16.3,-35.48,299.98,2.84,0.08
78075,50.448456,-4.99202,143,15.19,20.0,303.7,Jun-23,7741741,2019-08-17 09:29:31:108,0.0646,0.2206,10.1412,-0.0002,-0.0444,9.8065,0.0207,-0.0012,0.0197,10.28,15.55,-36.36,300.21,1.32,0.41
78076,50.448456,-4.99202,143,15.19,20.0,303.7,Jun-23,7741841,2019-08-17 09:29:31:208,-0.6803,-0.129,9.5465,-0.0298,-0.1138,9.8059,0.0207,-0.0012,0.0197,9.15,16.3,-35.04,298.78,0.83,0.89
78077,50.448456,-4.99202,143,15.19,20.0,303.7,Jun-23,7741941,2019-08-17 09:29:31:308,0.0251,0.1178,11.0463,0.01,0.0232,9.8066,-0.0602,0.1203,0.0325,9.15,16.3,-35.04,298.78,0.83,0.89
78078,50.448456,-4.99202,143,15.19,20.0,303.7,Jun-23,7742041,2019-08-17 09:29:31:408,-0.1991,-0.0048,8.9978,-0.0077,0.0176,9.8066,0.0357,-0.0065,0.0378,9.9,15.93,-35.92,301.26,0.92,0.78
78079,50.448456,-4.99202,143,15.19,20.0,303.7,Jun-23,7742141,2019-08-17 09:29:31:508,0.1389,0.2355,10.2874,-0.0256,0.053,9.8065,-0.0048,0.0766,0.0527,9.9,16.3,-35.48,301.26,0.92,0.78
78080,50.448456,-4.99202,143,15.19,20.0,303.7,Jun-23,7742240,2019-08-17 09:29:31:607,-0.3166,0.7021,6.8367,-0.0588,0.1221,9.8057,0.0602,0.0468,0.0623,9.9,16.3,-35.48,301.26,0.92,0.78
78081,50.448456,-4.99202,143,15.19,20.0,303.7,Jun-23,7742341,2019-08-17 09:29:31:708,-0.7156,-0.2362,12.5348,-0.0326,-0.0585,9.8064,0.0761,-0.097,0.0698,9.9,16.3,-35.92,299.82,1.71,0.7
78082,50.448456,-4.99202,143,15.19,20.0,303.7,Jun-23,7742442,2019-08-17 09:29:31:809,-0.345,0.9337,7.8223,-0.104,-0.0113,9.8061,0.0644,0.0841,0.0293,10.28,15.93,-36.29,299.94,1.95,1.26
78083,50.448456,-4.99202,143,15.19,20.0,303.7,Jun-23,7742541,2019-08-17 09:29:31:908,-0.6918,0.7337,7.0744,-0.0657,0.0554,9.8063,0.0186,0.2183,0.0666,10.28,16.3,-35.92,299.94,1.95,1.26
78084,50.44853,-4.9922,144,14.24,21.0,301.2,Jun-23,7742641,2019-08-17 09:29:32:008,-0.3832,0.6441,8.9984,-0.084,0.0332,9.8062,0.0186,0.2183,0.0666,10.28,16.3,-35.92,299.94,1.95,1.26
78085,50.44853,-4.9922,144,14.24,21.0,301.2,Jun-23,7742741,2019-08-17 09:29:32:108,-0.8557,-0.163,10.989,-0.0117,-0.0157,9.8066,-0.0368,0.0766,0.041,11.72,17.8,-34.23,301.79,2.37,1.59
78086,50.44853,-4.9922,144,14.24,21.0,301.2,Jun-23,7742841,2019-08-17 09:29:32:208,-0.6481,-0.3755,10.5372,0.0095,0.047,9.8065,-0.0304,-0.0662,0.0996,8.4,17.43,-35.04,292.33,2.32,1.7
78087,50.44853,-4.9922,144,14.24,21.0,301.2,Jun-23,7742941,2019-08-17 09:29:32:308,-0.3773,0.732,9.8825,0.0184,0.0603,9.8064,-0.0027,-0.0576,0.0559,9.9,16.3,-36.29,292.33,2.32,1.7
78088,50.44853,-4.9922,144,14.24,21.0,301.2,Jun-23,7743041,2019-08-17 09:29:32:408,0.015,-0.369,11.1484,0.0059,0.0936,9.8062,0.0634,0.0553,0.0314,9.53,16.3,-36.79,298.43,2.82,1.46
78089,50.44853,-4.9922,144,14.24,21.0,301.2,Jun-23,7743140,2019-08-17 09:29:32:507,-0.3343,0.5869,10.5002,-0.0168,0.0535,9.8065,0.0623,-0.0704,0.0112,9.53,16.3,-36.79,298.43,2.82,1.46
78090,50.44853,-4.9922,144,14.24,21.0,301.2,Jun-23,7743242,2019-08-17 09:29:32:609,0.3531,0.3888,9.4759,-0.0262,0.0564,9.8065,0.0026,-0.0491,0.0165,9.9,15.93,-36.79,297.74,3.14,1.39
78091,50.44853,-4.9922,144,14.24,21.0,301.2,Jun-23,7743341,2019-08-17 09:29:32:708,-0.1305,0.4725,10.3423,-0.0322,0.0826,9.8063,-0.0773,0.149,0.0144,9.53,15.55,-36.73,296.66,3.65,1.33
78092,50.44853,-4.9922,144,14.24,21.0,301.2,Jun-23,7743442,2019-08-17 09:29:32:809,-0.1987,-0.1424,11.3033,0.0206,-0.0061,9.8066,-0.0773,0.149,0.0144,9.53,15.55,-36.36,296.66,3.65,1.33
78093,50.44853,-4.9922,144,14.24,21.0,301.2,Jun-23,7743541,2019-08-17 09:29:32:908,0.7716,0.4781,8.7318,0.0597,-0.0381,9.8064,-0.041,0.0723,0.0144,9.53,15.55,-36.36,296.66,3.65,1.33
78094,50.448624,-4.992305,140,13.7,23.0,299.5,Jun-23,7743641,2019-08-17 09:29:33:008,0.1005,-0.0774,8.6782,0.0262,-0.0639,9.8064,-0.0165,-0.1375,0.0059,8.78,16.3,-35.92,294.58,3.25,1.37
78095,50.448624,-4.992305,140,13.7,23.0,299.5,Jun-23,7743741,2019-08-17 09:29:33:108,-0.1529,-0.587,10.9261,-0.0159,-0.0334,9.8066,0.0101,-0.0512,0.0687,8.4,16.3,-35.92,292.12,2.9,1.37
78096,50.448624,-4.992305,140,13.7,23.0,299.5,Jun-23,7743841,2019-08-17 09:29:33:208,0.2914,0.4014,10.3425,-0.0129,-0.0334,9.8066,0.0154,-0.0417,-0.0005,8.4,16.68,-36.29,292.12,2.9,1.37
78097,50.448624,-4.992305,140,13.7,23.0,299.5,Jun-23,7743941,2019-08-17 09:29:33:308,0.4319,0.0103,9.8218,-0.0526,-0.0296,9.8065,0.041,-0.048,0.0517,8.4,16.68,-36.29,292.12,2.9,1.37
78098,50.448624,-4.992305,140,13.7,23.0,299.5,Jun-23,7744041,2019-08-17 09:29:33:408,-0.3266,-0.4731,11.991,-0.0167,0.0045,9.8066,-0.0197,0.2193,0.0762,8.4,16.68,-35.92,291.21,2.85,1.72
78099,50.448624,-4.992305,140,13.7,23.0,299.5,Jun-23,7744141,2019-08-17 09:29:33:508,-0.1642,-0.4792,10.1022,-0.0138,-0.0031,9.8066,-0.0783,0.0361,0.0282,8.4,17.05,-36.29,291.21,2.85,1.72
78100,50.448624,-4.992305,140,13.7,23.0,299.5,Jun-23,7744241,2019-08-17 09:29:33:608,-0.531,-0.5543,12.4497,0.0169,-0.0117,9.8066,0.0175,0.0073,0.0687,8.4,17.05,-36.29,291.21,2.85,1.72
78101,50.448624,-4.992305,140,13.7,23.0,299.5,Jun-23,7744341,2019-08-17 09:29:33:708,0.2109,0.1415,9.5637,0.0278,-0.0233,9.8066,0.0175,0.0073,0.0687,8.03,16.68,-36.29,291.36,2.75,1.66
78102,50.448624,-4.992305,140,13.7,23.0,299.5,Jun-23,7744441,2019-08-17 09:29:33:808,0.0226,-0.2999,9.3733,0.0432,-0.058,9.8064,-0.0091,0.0244,0.0549,7.34,16.68,-36.36,288.95,2.35,1.54
78103,50.448624,-4.992305,140,13.7,23.0,299.5,Jun-23,7744541,2019-08-17 09:29:33:908,0.037,-0.0638,9.8644,0.0004,-0.0709,9.8064,0.0346,0.035,0.0495,7.72,17.05,-36.29,288.95,2.35,1.54
78104,50.448677,-4.992443,140,11.81,23.0,297.0,Jun-23,7744641,2019-08-17 09:29:34:008,-0.4094,-0.3759,10.8031,-0.0027,-0.13,9.8058,0.0772,0.0244,0.0154,7.72,17.05,-36.29,288.95,2.35,1.54
78105,50.448677,-4.992443,140,11.81,23.0,297.0,Jun-23,7744741,2019-08-17 09:29:34:108,-0.2563,0.0506,8.9963,-0.058,-0.022,9.8065,0.0026,0.034,0.089,6.97,17.43,-35.48,291.27,1.45,2.16
78106,50.448677,-4.992443,140,11.81,23.0,297.0,Jun-23,7744841,2019-08-17 09:29:34:208,-0.8163,-0.3473,10.6105,-0.0561,-0.0055,9.8065,0.0026,-0.0512,0.0698,6.97,17.8,-35.86,290.31,1.45,2.53
78107,50.448677,-4.992443,140,11.81,23.0,297.0,Jun-23,7744941,2019-08-17 09:29:34:308,-0.3154,-0.1012,9.7932,-0.123,-0.0167,9.8059,0.0985,-0.0246,-0.0069,6.97,17.8,-35.86,290.31,1.45,2.53
78108,50.448677,-4.992443,140,11.81,23.0,297.0,Jun-23,7745041,2019-08-17 09:29:34:408,-0.725,-1.1685,13.0279,-0.0134,-0.0271,9.8066,0.0985,-0.0246,-0.0069,6.11,17.71,-35.72,287.29,1.61,3.24
78109,50.448677,-4.992443,140,11.81,23.0,297.0,Jun-23,7745142,2019-08-17 09:29:34:509,-0.2515,-0.3794,11.9353,-0.1064,-0.0447,9.806,0.0271,-0.0683,0.1081,6.48,17.71,-36.15,287.87,1.54,3.91
78110,50.448677,-4.992443,140,11.81,23.0,297.0,Jun-23,7745241,2019-08-17 09:29:34:608,-0.6974,-0.4421,12.045,-0.0441,-0.0341,9.8065,-0.0112,-0.0342,0.1326,6.48,17.71,-36.15,287.87,1.54,3.91
78111,50.448677,-4.992443,140,11.81,23.0,297.0,Jun-23,7745341,2019-08-17 09:29:34:708,-0.2457,-0.0556,8.7819,-0.0514,-0.0439,9.8064,0.0793,0.0287,0.0975,5.73,17.71,-36.59,288.32,1.43,4.21
78112,50.448677,-4.992443,140,11.81,23.0,297.0,Jun-23,7745441,2019-08-17 09:29:34:808,-0.9881,-0.7035,9.4792,-0.1239,-0.1614,9.8045,0.0634,0.0702,0.0613,4.98,18.77,-35.72,286.03,0.76,5.2
78113,50.448677,-4.992443,140,11.81,23.0,297.0,Jun-23,7745541,2019-08-17 09:29:34:908,-0.4674,0.4924,8.2964,-0.067,-0.0186,9.8064,0.0879,0.0372,0.0879,4.98,18.77,-35.72,286.03,0.76,5.2
78114,50.448704,-4.992618,143,11.62,23.0,292.0,Jun-23,7745641,2019-08-17 09:29:35:008,-1.0166,-0.284,9.5494,-0.148,-0.062,9.8053,-0.0133,-0.1045,0.1188,4.61,18.77,-35.72,286.88,0.66,6.13
78115,50.448704,-4.992618,143,11.62,23.0,292.0,Jun-23,7745741,2019-08-17 09:29:35:108,-0.4841,0.3453,11.4128,-0.1097,0.0687,9.8058,-0.0133,-0.1045,0.1188,4.23,19.15,-36.15,286.88,0.66,6.13
78116,50.448704,-4.992618,143,11.62,23.0,292.0,Jun-23,7745841,2019-08-17 09:29:35:208,-0.0352,0.0076,8.3282,-0.1391,-0.0109,9.8057,0.0229,0.001,0.1017,3.92,19.52,-35.34,282.48,0.83,6.92
78117,50.448704,-4.992618,143,11.62,23.0,292.0,Jun-23,7745941,2019-08-17 09:29:35:308,-0.5651,0.0786,11.2408,-0.0548,-0.032,9.8064,0.0389,0.0297,0.1209,3.92,19.52,-35.34,282.48,0.83,6.92
78118,50.448704,-4.992618,143,11.62,23.0,292.0,Jun-23,7746040,2019-08-17 09:29:35:407,-0.4593,-0.2235,8.5544,-0.0557,-0.0482,9.8064,0.0591,0.0627,0.0538,3.92,19.52,-35.28,282.92,0.72,7.28
78119,50.448704,-4.992618,143,11.62,23.0,292.0,Jun-23,7746141,2019-08-17 09:29:35:508,-0.1516,-0.0606,8.2644,-0.0313,-0.0312,9.8065,-0.0347,0.0191,0.1028,3.17,19.52,-35.28,279.97,0.52,7.66
78120,50.448704,-4.992618,143,11.62,23.0,292.0,Jun-23,7746241,2019-08-17 09:29:35:608,-0.1069,0.3053,9.6295,-0.0367,-0.0032,9.8066,-0.0549,0.0116,0.1167,3.17,19.52,-35.28,279.97,0.52,7.66
78121,50.448704,-4.992618,143,11.62,23.0,292.0,Jun-23,7746341,2019-08-17 09:29:35:708,-0.1387,0.0489,10.1048,0.0145,-0.0215,9.8066,-0.0304,0.0361,0.155,3.17,19.9,-35.28,280.01,0.53,7.87
78122,50.448704,-4.992618,143,11.62,23.0,292.0,Jun-23,7746441,2019-08-17 09:29:35:808,-0.229,0.3032,8.6542,0.0053,0.0192,9.8066,-0.0293,-0.0246,0.0975,2.42,19.9,-35.34,276.6,0.4,7.81
78123,50.448704,-4.992618,143,11.62,23.0,292.0,Jun-23,7746541,2019-08-17 09:29:35:908,-0.306,0.0215,8.3801,0.0077,0.0534,9.8065,-0.0293,-0.0246,0.0975,2.79,19.15,-35.72,280.26,0.7,7.73
78124,50.44874,-4.992888,142,14.89,26.0,285.8,Jun-23,7746642,2019-08-17 09:29:36:009,0.4227,-0.2066,9.8286,0.0132,-0.0271,9.8066,-0.0176,-0.0289,0.106,2.79,19.15,-35.72,280.26,0.7,7.73
78125,50.44874,-4.992888,142,14.89,26.0,285.8,Jun-23,7746741,2019-08-17 09:29:36:108,0.4711,0.664,8.7318,0.0031,-0.0058,9.8066,-0.0581,-0.0022,0.1124,2.04,19.52,-35.72,276.25,0.53,7.68
78126,50.44874,-4.992888,142,14.89,26.0,285.8,Jun-23,7746841,2019-08-17 09:29:36:208,0.0843,0.037,9.748,-0.0241,-0.0287,9.8066,-0.0176,0.0617,0.1124,1.67,19.15,-35.72,276.79,0.5,7.67
78127,50.44874,-4.992888,142,14.89,26.0,285.8,Jun-23,7746941,2019-08-17 09:29:36:308,-0.0809,-0.0612,10.1955,-0.0217,-0.0657,9.8064,-0.0357,0.0148,0.1113,1.67,19.9,-36.15,276.79,0.5,7.67
78128,50.44874,-4.992888,142,14.89,26.0,285.8,Jun-23,7747041,2019-08-17 09:29:36:408,0.3787,-0.1613,11.2424,0.0005,-0.1074,9.8061,-0.0837,0.084,0.0815,0.92,19.15,-35.72,274.44,-0.13,7.74
78129,50.44874,-4.992888,142,14.89,26.0,285.8,Jun-23,7747141,2019-08-17 09:29:36:508,0.1806,-0.3355,8.589,0.0295,-0.0446,9.8065,-0.0368,0.1085,0.0953,0.92,19.15,-35.72,274.44,-0.13,7.74
78130,50.44874,-4.992888,142,14.89,26.0,285.8,Jun-23,7747241,2019-08-17 09:29:36:608,0.3996,0.2199,9.0677,0.0258,0.01,9.8066,-0.0229,-0.0406,0.1454,0.82,19.1,-36.41,275.14,-0.4,7.59
78131,50.44874,-4.992888,142,14.89,26.0,285.8,Jun-23,7747341,2019-08-17 09:29:36:708,0.2668,0.0213,10.3548,0.0344,0.0368,9.8065,-0.0229,-0.0406,0.1454,0.14,19.1,-35.53,270.55,-0.21,7.37
78132,50.44874,-4.992888,142,14.89,26.0,285.8,Jun-23,7747440,2019-08-17 09:29:36:807,0.2891,0.3367,9.6446,0.0165,-0.0129,9.8066,-0.0144,0.0084,0.1028,0.51,19.1,-35.97,270.55,-0.21,7.37
78133,50.44874,-4.992888,142,14.89,26.0,285.8,Jun-23,7747541,2019-08-17 09:29:36:908,0.3413,-0.0241,10.3343,0.011,-0.0238,9.8066,0.0154,0.0521,0.1252,0.14,18.79,-35.53,270.89,-0.34,7.04
78134,50.44879,-4.993129,142,15.07,26.0,279.8,Jun-23,7747642,2019-08-17 09:29:37:009,0.7391,0.2732,9.3831,0.0156,-0.0233,9.8066,-0.008,-0.0022,0.1337,0.14,18.79,-35.53,270.89,-0.34,7.04
78135,50.44879,-4.993129,142,15.07,26.0,279.8,Jun-23,7747741,2019-08-17 09:29:37:108,0.912,0.2179,10.2861,0.0011,-0.0074,9.8066,0.0634,0.0404,0.0698,-0.24,19.47,-35.97,271.25,-0.48,6.95
78136,50.44879,-4.993129,142,15.07,26.0,279.8,Jun-23,7747842,2019-08-17 09:29:37:209,0.6254,-0.0349,9.8472,-0.0054,-0.0227,9.8066,0.0452,0.0191,0.0794,-0.99,19.47,-35.53,267.64,-0.61,6.99
78137,50.44879,-4.993129,142,15.07,26.0,279.8,Jun-23,7747941,2019-08-17 09:29:37:308,0.4772,-0.179,12.818,0.0065,-0.0112,9.8066,0.008,0.1203,0.0655,-0.99,19.47,-35.53,267.64,-0.61,6.99
78138,50.44879,-4.993129,142,15.07,26.0,279.8,Jun-23,7748041,2019-08-17 09:29:37:408,0.3404,0.1986,10.1349,-0.0053,-0.018,9.8066,0.008,0.1203,0.0655,-0.99,19.47,-35.53,267.82,-0.67,6.95
78139,50.44879,-4.993129,142,15.07,26.0,279.8,Jun-23,7748141,2019-08-17 09:29:37:508,0.0904,-0.1321,10.0502,-0.0152,-0.0436,9.8065,-0.0059,-0.014,0.0538,-1.74,19.85,-35.91,267.82,-0.67,6.95
78140,50.44879,-4.993129,142,15.07,26.0,279.8,Jun-23,7748240,2019-08-17 09:29:37:607,0.0032,-0.0448,8.8431,-0.0173,-0.0513,9.8065,-0.057,0.0819,0.0783,-1.74,19.47,-35.53,264.66,-0.98,7.03
78141,50.44879,-4.993129,142,15.07,26.0,279.8,Jun-23,7748341,2019-08-17 09:29:37:708,-0.6641,-0.0183,9.5561,0.0328,0.008,9.8066,0.0165,-0.0278,0.0495,-1.74,19.47,-35.53,264.66,-0.98,7.03
78142,50.44879,-4.993129,142,15.07,26.0,279.8,Jun-23,7748441,2019-08-17 09:29:37:808,0.2732,0.4892,9.6373,0.0963,0.1755,9.8046,-0.0453,-0.1439,0.0676,-2.11,19.47,-35.97,264.53,-0.91,6.85
78143,50.44879,-4.993129,142,15.07,26.0,279.8,Jun-23,7748540,2019-08-17 09:29:37:907,0.1663,0.1761,9.87,0.0437,0.0456,9.8064,-0.0528,-0.0246,0.0964,-1.36,19.1,-36.35,265.74,0.16,6.39
78144,50.44877,-4.993354,141,13.62,28.0,274.5,Jun-23,7748640,2019-08-17 09:29:38:007,0.5042,0.3022,9.2487,0.0585,-0.0025,9.8065,-0.0283,-0.0108,0.0719,-0.99,18.79,-36.41,265.07,0.45,6.15
78145,50.44877,-4.993354,141,13.62,28.0,274.5,Jun-23,7748741,2019-08-17 09:29:38:108,0.6932,-0.1044,10.8665,0.1176,-0.0593,9.8058,-0.0283,-0.0108,0.0719,-0.99,18.79,-36.41,265.07,0.45,6.15
78146,50.44877,-4.993354,141,13.62,28.0,274.5,Jun-23,7748841,2019-08-17 09:29:38:208,0.092,-0.2818,10.8794,-0.0119,-0.0679,9.8064,0.0474,0.0308,0.0655,-1.74,18.79,-35.91,262.26,0.16,5.44
78147,50.44877,-4.993354,141,13.62,28.0,274.5,Jun-23,7748940,2019-08-17 09:29:38:307,0.9748,0.2891,10.5807,0.0723,0.0028,9.8064,-0.0549,-0.0864,0.0527,-1.74,19.1,-35.97,263.22,-0.24,5.45
78148,50.44877,-4.993354,141,13.62,28.0,274.5,Jun-23,7749041,2019-08-17 09:29:38:408,-0.0841,-0.0385,11.5368,0.1045,-0.0568,9.8059,-0.024,-0.0044,0.0762,-2.49,19.1,-36.41,264.0,-0.5,4.81
78149,50.44877,-4.993354,141,13.62,28.0,274.5,Jun-23,7749141,2019-08-17 09:29:38:508,0.0463,0.3761,9.3816,-0.0005,-0.0118,9.8066,0.0911,0.0297,0.0826,-2.49,19.1,-36.41,264.0,-0.5,4.81
78150,50.44877,-4.993354,141,13.62,28.0,274.5,Jun-23,7749242,2019-08-17 09:29:38:609,-0.4417,0.1643,9.7828,-0.0584,0.0131,9.8065,0.1177,-0.0672,0.0442,-2.86,18.79,-35.97,260.62,-0.57,4.8
78151,50.44877,-4.993354,141,13.62,28.0,274.5,Jun-23,7749341,2019-08-17 09:29:38:708,-0.182,0.4319,9.505,-0.1333,0.0618,9.8056,0.0005,-0.0022,0.1156,-3.18,19.47,-35.47,260.62,-0.57,4.8
78152,50.44877,-4.993354,141,13.62,28.0,274.5,Jun-23,7749441,2019-08-17 09:29:38:808,-0.4911,0.3236,8.8415,-0.077,-0.0307,9.8063,0.0591,0.0308,0.0708,-2.86,19.47,-35.91,258.82,0.01,5.88
78153,50.44877,-4.993354,141,13.62,28.0,274.5,Jun-23,7749541,2019-08-17 09:29:38:908,-0.4375,0.1126,8.293,-0.0612,0.0237,9.8064,0.0239,0.0574,0.1007,-3.18,19.85,-35.53,259.93,-0.25,6.28
78154,50.44866,-4.993575,141,13.85,27.0,268.3,Jun-23,7749641,2019-08-17 09:29:39:008,-0.3617,-0.0933,10.903,-0.1153,0.036,9.8059,0.0239,0.0574,0.1007,-3.55,20.22,-35.91,259.93,-0.25,6.28
78155,50.44866,-4.993575,141,13.85,27.0,268.3,Jun-23,7749741,2019-08-17 09:29:39:108,-0.5175,0.328,9.6156,-0.1931,0.0273,9.8047,0.0154,0.0265,0.0868,-3.93,20.6,-35.53,256.77,-0.29,7.42
78156,50.44866,-4.993575,141,13.85,27.0,268.3,Jun-23,7749840,2019-08-17 09:29:39:207,-0.5187,-0.1325,9.8788,-0.05,-0.0036,9.8065,0.0506,0.0489,0.1028,-3.93,20.6,-35.53,256.77,-0.29,7.42
78157,50.44866,-4.993575,141,13.85,27.0,268.3,Jun-23,7749941,2019-08-17 09:29:39:308,-0.1155,-0.0827,9.3396,-0.0319,0.0051,9.8066,0.0378,-0.0172,0.1167,-4.74,20.96,-35.74,253.47,-0.38,7.7
78158,50.44866,-4.993575,141,13.85,27.0,268.3,Jun-23,7750041,2019-08-17 09:29:39:408,0.0455,-0.1558,10.9024,-0.0497,0.0534,9.8064,-0.008,-0.0054,0.1358,-4.36,20.58,-35.3,253.47,-0.38,7.7
78159,50.44866,-4.993575,141,13.85,27.0,268.3,Jun-23,7750141,2019-08-17 09:29:39:508,0.2377,0.2588,9.7015,-0.0583,0.0904,9.8061,0.009,-0.0981,0.1561,-4.74,20.58,-35.8,252.24,0.03,8.18
78160,50.44866,-4.993575,141,13.85,27.0,268.3,Jun-23,7750240,2019-08-17 09:29:39:607,0.0436,-0.0043,9.593,-0.0228,0.0322,9.8066,-0.0091,-0.0417,0.1454,-4.74,20.58,-35.8,252.24,0.03,8.18
78161,50.44866,-4.993575,141,13.85,27.0,268.3,Jun-23,7750341,2019-08-17 09:29:39:708,0.061,0.2749,9.9783,-0.0078,0.0274,9.8066,-0.0038,0.0659,0.1156,-5.11,20.58,-35.8,251.79,0.17,8.36
78162,50.44866,-4.993575,141,13.85,27.0,268.3,Jun-23,7750441,2019-08-17 09:29:39:808,-0.451,0.2984,9.9407,-0.0165,-0.0425,9.8065,-0.0038,0.0659,0.1156,-5.11,20.58,-36.17,251.34,0.32,8.51
78163,50.44866,-4.993575,141,13.85,27.0,268.3,Jun-23,7750541,2019-08-17 09:29:39:908,-0.2541,-0.3766,10.3679,-0.0269,-0.0888,9.8062,-0.0496,0.0585,0.1646,-5.11,20.58,-36.17,251.34,0.32,8.51
78164,50.44867,-4.993827,139,15.18,28.0,262.8,Jun-23,7750641,2019-08-17 09:29:40:008,-0.4118,-0.024,10.1334,0.0111,-0.047,9.8065,-0.0528,0.0489,0.0442,-5.49,20.58,-35.3,252.73,-0.23,8.49
78165,50.44867,-4.993827,139,15.18,28.0,262.8,Jun-23,7750741,2019-08-17 09:29:40:108,0.0535,-0.3899,9.5851,0.008,-0.0301,9.8066,-0.0315,0.0564,0.0815,-6.24,20.58,-35.3,250.07,-0.47,8.35
78166,50.44867,-4.993827,139,15.18,28.0,262.8,Jun-23,7750841,2019-08-17 09:29:40:208,0.1205,0.2545,9.4232,0.0497,0.0036,9.8065,-0.008,-0.0928,0.0666,-6.24,20.96,-35.3,250.02,-0.35,8.08
78167,50.44867,-4.993827,139,15.18,28.0,262.8,Jun-23,7750942,2019-08-17 09:29:40:309,0.2386,-0.0328,10.6449,0.0398,0.0479,9.8065,-0.0645,-0.0981,0.1305,-6.24,20.96,-35.3,250.02,-0.35,8.08
78168,50.44867,-4.993827,139,15.18,28.0,262.8,Jun-23,7751041,2019-08-17 09:29:40:408,0.6426,0.8866,9.2019,0.0789,0.0782,9.806,0.0271,-0.0054,0.1316,-5.86,20.58,-35.3,249.4,-0.01,7.96
78169,50.44867,-4.993827,139,15.18,28.0,262.8,Jun-23,7751141,2019-08-17 09:29:40:508,0.2396,-0.0836,11.2941,0.0917,0.1257,9.8054,0.0271,-0.0054,0.1316,-5.11,19.46,-36.17,249.4,-0.01,7.96
78170,50.44867,-4.993827,139,15.18,28.0,262.8,Jun-23,7751241,2019-08-17 09:29:40:608,1.1368,0.3556,10.5359,0.0618,0.1084,9.8059,0.0389,-0.0321,0.1305,-6.24,19.83,-36.11,246.5,0.71,7.85
78171,50.44867,-4.993827,139,15.18,28.0,262.8,Jun-23,7751341,2019-08-17 09:29:40:708,0.0513,0.1042,9.5406,-0.034,-0.0717,9.8063,0.0207,0.1703,0.1081,-6.24,19.83,-36.11,246.5,0.71,7.85
78172,50.44867,-4.993827,139,15.18,28.0,262.8,Jun-23,7751441,2019-08-17 09:29:40:808,0.007,-0.3347,11.1455,-0.0764,-0.06,9.8062,0.0367,0.0681,0.1145,-6.92,20.21,-35.74,245.58,-0.44,8.03
78173,50.44867,-4.993827,139,15.18,28.0,262.8,Jun-23,7751541,2019-08-17 09:29:40:908,0.2495,-0.6729,10.7552,-0.0251,-0.0011,9.8066,0.0474,0.0382,0.04,-8.05,20.96,-35.3,244.87,-0.94,8.3
78174,50.448654,-4.994079,139,15.5,29.0,257.3,Jun-23,7751641,2019-08-17 09:29:41:008,-0.1263,0.0991,9.519,-0.0031,0.0183,9.8066,-0.0027,-0.0331,0.0453,-8.42,20.21,-34.86,243.15,-0.85,8.36
78175,50.448654,-4.994079,139,15.5,29.0,257.3,Jun-23,7751741,2019-08-17 09:29:41:108,-0.0636,-0.0783,8.4488,0.0809,0.0349,9.8063,-0.0378,0.0361,0.057,-8.42,20.21,-34.86,243.15,-0.85,8.36
78176,50.448654,-4.994079,139,15.5,29.0,257.3,Jun-23,7751841,2019-08-17 09:29:41:208,0.309,0.2572,9.1365,0.0352,0.0087,9.8066,-0.0112,-0.0949,0.0975,-8.42,20.21,-35.74,242.5,-0.46,8.03
78177,50.448654,-4.994079,139,15.5,29.0,257.3,Jun-23,7751941,2019-08-17 09:29:41:308,0.317,0.3659,10.1859,0.0962,0.0629,9.806,-0.0112,-0.0949,0.0975,-7.67,19.46,-35.74,242.5,-0.46,8.03
78178,50.448654,-4.994079,139,15.5,29.0,257.3,Jun-23,7752041,2019-08-17 09:29:41:408,0.6127,0.1087,9.1551,0.1481,0.0879,9.8051,-0.0453,0.0169,0.0911,-7.67,19.46,-35.74,242.5,-0.46,8.03
78179,50.448654,-4.994079,139,15.5,29.0,257.3,Jun-23,7752141,2019-08-17 09:29:41:508,-0.1152,-0.2275,10.9726,0.0327,-0.0111,9.8066,-0.0197,0.0212,0.089,-8.05,19.46,-35.74,239.69,0.4,7.5
78180,50.448654,-4.994079,139,15.5,29.0,257.3,Jun-23,7752241,2019-08-17 09:29:41:608,-0.1748,-0.0549,10.3407,-0.0398,-0.0316,9.8065,-0.0027,0.0564,0.1049,-8.11,19.46,-35.96,239.84,0.44,7.3
78181,50.448654,-4.994079,139,15.5,29.0,257.3,Jun-23,7752341,2019-08-17 09:29:41:708,-0.5221,-0.4373,10.9103,-0.0189,-0.0509,9.8065,-0.0251,0.0883,0.0804,-8.86,19.53,-36.33,239.79,-0.22,7.39
78182,50.448654,-4.994079,139,15.5,29.0,257.3,Jun-23,7752441,2019-08-17 09:29:41:808,-0.278,0.3655,9.9102,0.0185,-0.0741,9.8064,-0.0453,-0.0342,0.1561,-8.86,19.53,-36.33,239.79,-0.22,7.39
78183,50.448654,-4.994079,139,15.5,29.0,257.3,Jun-23,7752541,2019-08-17 09:29:41:908,0.5087,-0.3864,9.5889,-0.0007,0.0161,9.8066,-0.0517,-0.0012,0.1561,-9.61,19.15,-35.96,236.23,-0.54,7.08
78184,50.44862,-4.994348,140,15.63,29.0,251.7,Jun-23,7752641,2019-08-17 09:29:42:008,0.4106,-0.4549,10.0412,0.0256,0.0494,9.8065,0.0261,0.001,0.0176,-9.24,18.78,-36.4,236.23,-0.54,7.08
78185,50.44862,-4.994348,140,15.63,29.0,251.7,Jun-23,7752742,2019-08-17 09:29:42:109,0.5488,0.0616,8.9166,-0.0202,0.0282,9.8066,0.0783,0.1107,0.073,-9.24,18.78,-35.96,238.4,-0.22,7.12
78186,50.44862,-4.994348,140,15.63,29.0,251.7,Jun-23,7752841,2019-08-17 09:29:42:208,0.0641,0.204,8.8428,-0.0936,0.0377,9.8061,0.0783,0.1107,0.073,-9.93,19.53,-35.52,238.4,-0.22,7.12
78187,50.44862,-4.994348,140,15.63,29.0,251.7,Jun-23,7752941,2019-08-17 09:29:42:308,-0.6064,0.2472,10.0939,-0.0604,0.0202,9.8064,0.0708,0.0287,0.1017,-9.61,19.15,-36.33,235.05,-0.32,7.7
78188,50.44862,-4.994348,140,15.63,29.0,251.7,Jun-23,7753041,2019-08-17 09:29:42:408,0.1251,0.1716,10.1663,-0.1243,0.0257,9.8058,0.0271,-0.015,0.0815,-10.3,19.46,-35.15,235.05,-0.32,7.7
78189,50.44862,-4.994348,140,15.63,29.0,251.7,Jun-23,7753141,2019-08-17 09:29:42:508,0.0246,-0.0512,10.0092,-0.0801,0.07,9.8061,-0.0197,-0.0193,0.0794,-9.93,19.53,-35.52,236.01,-0.25,8.32
78190,50.44862,-4.994348,140,15.63,29.0,251.7,Jun-23,7753241,2019-08-17 09:29:42:608,0.3349,-0.4009,9.643,0.0119,-0.0393,9.8066,0.0175,0.083,0.0985,-9.93,19.53,-35.52,236.01,-0.25,8.32
78191,50.44862,-4.994348,140,15.63,29.0,251.7,Jun-23,7753341,2019-08-17 09:29:42:708,0.2948,0.1732,9.6187,0.0035,0.0125,9.8066,0.0442,-0.0417,0.0836,-11.05,19.46,-35.96,231.96,-0.4,8.13
78192,50.44862,-4.994348,140,15.63,29.0,251.7,Jun-23,7753441,2019-08-17 09:29:42:808,0.2271,-0.2268,10.6485,0.0236,0.049,9.8065,0.0154,-0.0203,0.0591,-11.05,19.53,-35.96,233.28,-0.09,8.2
78193,50.44862,-4.994348,140,15.63,29.0,251.7,Jun-23,7753541,2019-08-17 09:29:42:908,0.2488,0.2425,10.0228,0.0492,0.0146,9.8065,0.0154,-0.0203,0.0591,-11.05,19.53,-35.96,233.28,-0.09,8.2
78194,50.448578,-4.994592,140,15.42,29.0,246.5,Jun-23,7753642,2019-08-17 09:29:43:009,0.1494,-0.0897,11.2509,0.0299,-0.0163,9.8066,-0.0197,-0.048,0.0389,-11.05,19.53,-36.33,233.1,0.15,8.02
78195,50.448578,-4.994592,140,15.42,29.0,246.5,Jun-23,7753741,2019-08-17 09:29:43:108,0.6651,0.3128,8.9548,0.0383,-0.0388,9.8065,0.0239,0.0627,0.0676,-11.05,19.15,-35.52,231.68,0.1,7.7
78196,50.448578,-4.994592,140,15.42,29.0,246.5,Jun-23,7753841,2019-08-17 09:29:43:208,0.2991,-0.2278,10.0463,0.0282,0.0096,9.8066,-0.0133,-0.0097,0.0581,-11.43,18.78,-35.52,231.68,0.1,7.7
78197,50.448578,-4.994592,140,15.42,29.0,246.5,Jun-23,7753942,2019-08-17 09:29:43:309,1.0864,-0.0524,10.1159,0.0779,0.0315,9.8063,0.009,-0.0576,0.0485,-11.8,19.15,-35.96,228.91,0.53,7.46
78198,50.448578,-4.994592,140,15.42,29.0,246.5,Jun-23,7754042,2019-08-17 09:29:43:409,0.7256,-0.0874,8.7863,0.0443,-0.0007,9.8066,0.0165,-0.0566,0.0666,-11.8,19.15,-35.96,228.91,0.53,7.46
78199,50.448578,-4.994592,140,15.42,29.0,246.5,Jun-23,7754141,2019-08-17 09:29:43:508,0.5699,0.041,10.3952,0.0972,0.0073,9.8062,-0.0016,-0.0449,0.0953,-11.05,18.78,-35.96,228.91,0.53,7.46
78200,50.448578,-4.994592,140,15.42,29.0,246.5,Jun-23,7754241,2019-08-17 09:29:43:608,0.5603,-0.4022,10.5724,0.0535,-0.0206,9.8065,-0.0378,-0.0502,0.0868,-11.05,18.4,-36.4,228.88,1.22,6.94
78201,50.448578,-4.994592,140,15.42,29.0,246.5,Jun-23,7754340,2019-08-17 09:29:43:707,0.1101,-0.4351,9.4152,0.0214,-0.0464,9.8065,-0.0378,-0.0502,0.0868,-11.05,18.4,-36.4,229.13,1.33,6.62
78202,50.448578,-4.994592,140,15.42,29.0,246.5,Jun-23,7754441,2019-08-17 09:29:43:808,0.5732,-0.4648,9.8539,0.056,-0.1035,9.8059,-0.0197,0.0521,0.0431,-11.8,18.78,-36.33,229.13,1.33,6.62
78203,50.448578,-4.994592,140,15.42,29.0,246.5,Jun-23,7754541,2019-08-17 09:29:43:908,1.0888,-0.3904,8.7366,0.118,-0.1149,9.8053,-0.0144,0.0095,0.0463,-11.05,18.03,-36.4,230.51,1.28,5.66
78204,50.448498,-4.994803,139,15.49,28.0,242.5,Jun-23,7754641,2019-08-17 09:29:44:008,0.474,-0.4745,8.8389,0.0516,-0.02,9.8065,-0.0187,-0.0012,0.0304,-11.05,18.03,-36.4,230.51,1.28,5.66
78205,50.448498,-4.994803,139,15.49,28.0,242.5,Jun-23,7754741,2019-08-17 09:29:44:108,0.5669,-0.5171,10.028,0.0358,-0.0468,9.8065,-0.0261,-0.0523,0.0538,-11.43,18.4,-35.52,230.75,1.38,5.35
78206,50.448498,-4.994803,139,15.49,28.0,242.5,Jun-23,7754841,2019-08-17 09:29:44:208,0.8312,-0.3954,9.7687,0.0866,-0.0854,9.8059,0.0048,-0.0033,0.0527,-11.05,18.4,-36.77,230.75,1.38,5.35
78207,50.448498,-4.994803,139,15.49,28.0,242.5,Jun-23,7754941,2019-08-17 09:29:44:308,0.2117,-0.357,10.4564,0.1298,-0.104,9.8052,-0.0347,-0.0651,0.0293,-11.05,18.4,-35.96,231.94,1.39,4.38
78208,50.448498,-4.994803,139,15.49,28.0,242.5,Jun-23,7755041,2019-08-17 09:29:44:408,0.0598,-0.4832,8.4325,0.0556,-0.0236,9.8065,-0.0347,0.0489,0.0293,-11.43,18.03,-35.96,231.94,1.39,4.38
78209,50.448498,-4.994803,139,15.49,28.0,242.5,Jun-23,7755141,2019-08-17 09:29:44:508,0.6691,-0.0926,9.4255,0.0411,-0.0464,9.8065,-0.0347,0.0489,0.0293,-11.8,18.03,-36.33,230.51,1.39,3.68
78210,50.448498,-4.994803,139,15.49,28.0,242.5,Jun-23,7755242,2019-08-17 09:29:44:609,0.4643,-0.1217,9.5966,0.1019,-0.0523,9.806,0.0186,0.0617,0.0325,-12.18,17.65,-36.77,230.51,1.39,3.68
78211,50.448498,-4.994803,139,15.49,28.0,242.5,Jun-23,7755341,2019-08-17 09:29:44:708,0.1068,-0.3769,9.5768,0.142,-0.0573,9.8055,0.0037,-0.0129,0.0123,-12.18,17.65,-36.77,230.51,1.39,3.68
78212,50.448498,-4.994803,139,15.49,28.0,242.5,Jun-23,7755441,2019-08-17 09:29:44:808,0.4202,-0.0874,10.2231,0.0518,-0.0205,9.8065,-0.0368,0.0105,0.0442,-11.46,18.01,-36.57,233.18,1.66,2.83
78213,50.448498,-4.994803,139,15.49,28.0,242.5,Jun-23,7755541,2019-08-17 09:29:44:908,0.028,-0.118,10.4229,0.0864,-0.0492,9.8061,-0.0347,0.0595,0.0304,-11.46,18.01,-36.57,233.18,1.66,2.83
78214,50.44846,-4.995024,142,15.61,30.0,241.3,Jul-23,7755641,2019-08-17 09:29:45:008,-0.1097,-0.1666,9.5726,0.0288,-0.0361,9.8065,-0.0144,0.0617,0.0314,-11.84,17.64,-36.57,231.54,1.73,2.25
78215,50.44846,-4.995024,142,15.61,30.0,241.3,Jul-23,7755741,2019-08-17 09:29:45:108,0.0222,0.0024,10.1679,0.0251,-0.0952,9.8062,0.0229,0.0617,0.0431,-11.84,17.26,-37.44,231.54,1.73,2.25
78216,50.44846,-4.995024,142,15.61,30.0,241.3,Jul-23,7755841,2019-08-17 09:29:45:208,-0.0318,-0.5177,10.2527,0.012,-0.1493,9.8055,0.0346,0.0042,0.0485,-12.21,17.64,-36.63,233.09,1.09,1.65
78217,50.44846,-4.995024,142,15.61,30.0,241.3,Jul-23,7755941,2019-08-17 09:29:45:308,0.0267,-0.2508,9.0121,-0.0174,-0.0303,9.8066,0.0346,0.0042,0.0485,-12.96,17.26,-36.57,233.09,1.09,1.65
78218,50.44846,-4.995024,142,15.61,30.0,241.3,Jul-23,7756041,2019-08-17 09:29:45:408,0.0047,0.2732,9.8375,-0.0191,-0.0291,9.8066,0.0175,-0.0406,0.0272,-12.96,17.26,-36.57,233.09,1.09,1.65
78219,50.44846,-4.995024,142,15.61,30.0,241.3,Jul-23,7756141,2019-08-17 09:29:45:508,-0.074,0.175,9.9155,0.0641,0.0353,9.8064,0.0133,-0.0246,-0.0122,-12.59,17.64,-35.32,230.71,1.45,1.65
78220,50.44846,-4.995024,142,15.61,30.0,241.3,Jul-23,7756240,2019-08-17 09:29:45:607,0.6865,-0.3237,10.3259,0.056,-0.0214,9.8065,-0.122,-0.0353,0.0602,-11.84,17.26,-36.57,230.53,1.85,1.49
78221,50.44846,-4.995024,142,15.61,30.0,241.3,Jul-23,7756341,2019-08-17 09:29:45:708,-0.0561,-0.1524,11.6602,0.0549,-0.0495,9.8064,-0.0474,0.0787,0.0314,-11.84,17.26,-36.57,230.53,1.85,1.49
78222,50.44846,-4.995024,142,15.61,30.0,241.3,Jul-23,7756442,2019-08-17 09:29:45:809,0.115,-0.316,11.6052,-0.0542,-0.0422,9.8064,0.1731,0.1384,-0.0101,-12.59,16.89,-37.44,228.99,1.83,1.06
78223,50.44846,-4.995024,142,15.61,30.0,241.3,Jul-23,7756541,2019-08-17 09:29:45:908,-0.2561,0.306,9.0571,-0.0962,-0.0955,9.8057,0.1198,0.0276,0.0016,-12.59,17.64,-36.57,231.63,1.04,1.12
78224,50.448395,-4.995254,143,15.85,29.0,239.2,Jul-23,7756641,2019-08-17 09:29:46:008,-0.4783,0.2396,9.8101,-0.0274,-0.0207,9.8066,0.0452,-0.064,0.0389,-12.59,17.64,-36.57,231.63,1.04,1.12
78225,50.448395,-4.995254,143,15.85,29.0,239.2,Jul-23,7756741,2019-08-17 09:29:46:108,-0.0618,0.5086,7.9517,0.011,0.0303,9.8066,-0.0208,-0.0321,0.0304,-12.59,18.01,-36.13,231.9,0.85,1.17
78226,50.448395,-4.995254,143,15.85,29.0,239.2,Jul-23,7756840,2019-08-17 09:29:46:207,0.1927,0.2511,8.8869,0.0984,0.0618,9.806,-0.0208,-0.0321,0.0304,-16.27,18.01,-33.57,226.11,1.03,1.23
78227,50.448395,-4.995254,143,15.85,29.0,239.2,Jul-23,7756941,2019-08-17 09:29:46:308,0.49,-0.35,8.9229,0.1885,0.0876,9.8044,-0.0453,-0.0619,0.0144,-12.21,13.2,-35.32,226.11,1.03,1.23
78228,50.448395,-4.995254,143,15.85,29.0,239.2,Jul-23,7757041,2019-08-17 09:29:46:408,0.2644,0.1706,9.8863,0.0093,-0.0212,9.8066,0.0026,0.018,0.0197,-11.09,16.89,-37.0,233.2,2.23,0.58
78229,50.448395,-4.995254,143,15.85,29.0,239.2,Jul-23,7757141,2019-08-17 09:29:46:508,-0.1777,-0.0378,10.178,0.0004,-0.0283,9.8066,0.008,0.0308,0.0357,-11.09,16.89,-37.0,233.2,2.23,0.58
78230,50.448395,-4.995254,143,15.85,29.0,239.2,Jul-23,7757243,2019-08-17 09:29:46:610,-0.5774,0.0049,10.0199,-0.0493,-0.0512,9.8064,-0.0229,0.1054,0.0517,-11.46,17.26,-37.44,233.49,2.1,0.48
78231,50.448395,-4.995254,143,15.85,29.0,239.2,Jul-23,7757343,2019-08-17 09:29:46:710,-0.4444,-0.1032,9.3043,-0.0855,-0.0992,9.8058,0.0122,0.0542,0.0197,-12.21,17.64,-37.44,233.92,1.34,0.53
78232,50.448395,-4.995254,143,15.85,29.0,239.2,Jul-23,7757441,2019-08-17 09:29:46:808,-0.4008,-0.0575,9.1758,-0.0068,-0.0104,9.8066,0.0239,-0.0001,0.0293,-12.21,17.64,-37.44,233.92,1.34,0.53
78233,50.448395,-4.995254,143,15.85,29.0,239.2,Jul-23,7757541,2019-08-17 09:29:46:908,-0.091,-0.2149,9.3632,0.0384,0.0081,9.8066,-0.0368,-0.0502,0.0314,-12.59,17.26,-37.38,230.32,1.27,0.53
78234,50.44831,-4.995469,146,16.1,28.0,237.9,Jul-23,7757641,2019-08-17 09:29:47:008,0.821,-0.4336,9.6402,0.0916,0.0269,9.8062,-0.0155,-0.0747,0.0463,-12.59,17.26,-37.44,230.07,1.73,0.22
78235,50.44831,-4.995469,146,16.1,28.0,237.9,Jul-23,7757741,2019-08-17 09:29:47:108,-0.3751,-0.1157,10.2603,0.0102,0.0201,9.8066,-0.0155,-0.0747,0.0463,-11.84,17.26,-37.82,230.07,1.73,0.22
78236,50.44831,-4.995469,146,16.1,28.0,237.9,Jul-23,7757841,2019-08-17 09:29:47:208,0.2664,0.5864,10.3665,0.0088,0.0358,9.8066,0.0399,0.0787,0.0325,-11.84,17.26,-37.82,230.07,1.73,0.22
78237,50.44831,-4.995469,146,16.1,28.0,237.9,Jul-23,7757941,2019-08-17 09:29:47:308,-0.3608,-0.1753,9.634,-0.0395,-0.0801,9.8062,-0.1018,0.0308,0.0495,-12.21,16.89,-37.82,231.68,1.92,0.31
78238,50.44831,-4.995469,146,16.1,28.0,237.9,Jul-23,7758042,2019-08-17 09:29:47:409,-0.6119,-0.0017,9.5312,-0.0443,-0.0482,9.8064,-0.0602,0.099,0.0368,-12.96,17.64,-36.13,232.16,1.41,0.2
78239,50.44831,-4.995469,146,16.1,28.0,237.9,Jul-23,7758141,2019-08-17 09:29:47:508,0.0428,0.1746,8.3925,-0.0167,-0.0016,9.8066,0.0367,-0.0587,0.0069,-13.65,17.64,-36.57,230.59,1.03,0.24
78240,50.44831,-4.995469,146,16.1,28.0,237.9,Jul-23,7758241,2019-08-17 09:29:47:608,0.2767,0.2461,8.4466,0.0322,0.0704,9.8063,0.0122,-0.0992,0.0272,-13.65,17.64,-36.13,230.59,1.03,0.24
78241,50.44831,-4.995469,146,16.1,28.0,237.9,Jul-23,7758341,2019-08-17 09:29:47:708,-0.1403,0.1459,9.4499,0.1095,0.1535,9.8048,0.0154,-0.1493,0.0091,-13.65,17.64,-36.13,230.59,1.03,0.24
78242,50.44831,-4.995469,146,16.1,28.0,237.9,Jul-23,7758441,2019-08-17 09:29:47:808,-0.0847,0.4214,9.0261,0.0744,0.0874,9.806,0.009,0.051,0.0123,-12.21,17.26,-36.57,231.49,2.13,0.31
78243,50.44831,-4.995469,146,16.1,28.0,237.9,Jul-23,7758541,2019-08-17 09:29:47:908,-0.1518,-0.0967,9.3787,0.0606,0.0688,9.8062,0.009,0.051,0.0123,-12.21,17.26,-37.0,231.49,2.13,0.31
78244,50.448265,-4.99565,147,15.63,28.0,236.9,Jul-23,7758641,2019-08-17 09:29:48:008,0.0584,0.1514,10.6055,-0.0211,-0.0444,9.8065,-0.0208,0.0521,0.0218,-12.21,17.26,-36.57,230.81,2.66,0.28
78245,50.448265,-4.99565,147,15.63,28.0,236.9,Jul-23,7758741,2019-08-17 09:29:48:108,-0.4403,-0.1645,10.0615,-0.0185,-0.0733,9.8064,0.0037,0.0127,0.0304,-12.96,17.26,-36.94,229.53,2.26,0.1
78246,50.448265,-4.99565,147,15.63,28.0,236.9,Jul-23,7758841,2019-08-17 09:29:48:208,-0.2789,-0.1513,10.8647,-0.0555,-0.0403,9.8064,-0.0251,0.0532,0.0261,-12.96,17.26,-36.94,229.53,2.26,0.1
78247,50.448265,-4.99565,147,15.63,28.0,236.9,Jul-23,7758942,2019-08-17 09:29:48:309,-0.2742,-0.0863,9.4437,-0.0815,-0.0851,9.8059,-0.0027,0.051,0.0123,-12.96,17.26,-36.57,230.35,1.58,0.14
78248,50.448265,-4.99565,147,15.63,28.0,236.9,Jul-23,7759042,2019-08-17 09:29:48:409,-0.2586,-0.1569,9.772,-0.0056,-0.0128,9.8066,0.0069,-0.0129,0.0325,-13.27,17.64,-36.57,232.43,1.31,0.01
78249,50.448265,-4.99565,147,15.63,28.0,236.9,Jul-23,7759141,2019-08-17 09:29:48:508,-0.1187,0.1559,9.7382,0.0263,0.0234,9.8066,-0.0101,-0.0395,0.0272,-13.27,17.64,-36.57,232.43,1.31,0.01
78250,50.448265,-4.99565,147,15.63,28.0,236.9,Jul-23,7759241,2019-08-17 09:29:48:608,0.1566,0.0759,9.3848,0.0146,0.0061,9.8066,-0.0038,0.0319,0.0133,-13.65,17.26,-36.19,228.71,1.51,-0.03
78251,50.448265,-4.99565,147,15.63,28.0,236.9,Jul-23,7759341,2019-08-17 09:29:48:708,0.2644,0.185,10.0351,0.0042,-0.0196,9.8066,-0.0038,0.0319,0.0133,-13.27,17.26,-36.57,230.55,1.59,-0.07
78252,50.448265,-4.99565,147,15.63,28.0,236.9,Jul-23,7759441,2019-08-17 09:29:48:808,0.0135,-0.2957,10.0315,0.0311,-0.0247,9.8066,-0.0006,0.0148,0.0123,-13.34,16.89,-37.44,230.79,1.6,-0.3
78253,50.448265,-4.99565,147,15.63,28.0,236.9,Jul-23,7759541,2019-08-17 09:29:48:908,-0.1095,0.0299,9.0948,0.017,-0.0031,9.8066,-0.0165,-0.015,0.0176,-13.34,16.89,-37.44,230.79,1.6,-0.3
78254,50.44816,-4.995917,146,16.77,25.0,235.6,Jul-23,7759641,2019-08-17 09:29:49:008,0.4117,-0.1668,9.3205,0.0579,-0.0119,9.8065,-0.0538,-0.0278,0.0123,-13.27,17.26,-36.57,230.79,1.6,-0.3
78255,50.44816,-4.995917,146,16.77,25.0,235.6,Jul-23,7759741,2019-08-17 09:29:49:108,0.1032,-0.1399,10.2164,0.1022,-0.0296,9.8061,-0.0464,-0.014,0.0165,-13.65,16.89,-36.94,229.17,1.84,-0.87
78256,50.44816,-4.995917,146,16.77,25.0,235.6,Jul-23,7759841,2019-08-17 09:29:49:208,0.0934,0.118,9.8572,0.0355,-0.0133,9.8066,-0.0165,0.018,0.0027,-13.65,16.89,-36.94,229.17,1.84,-0.87
78257,50.44816,-4.995917,146,16.77,25.0,235.6,Jul-23,7759941,2019-08-17 09:29:49:308,0.5091,-0.2511,10.3304,0.0739,-0.0187,9.8064,0.0122,0.0425,-0.0069,-12.96,16.89,-36.13,231.25,1.92,-1.08
78258,50.44816,-4.995917,146,16.77,25.0,235.6,Jul-23,7760041,2019-08-17 09:29:49:408,-0.2031,0.0648,10.4178,-0.0165,-0.0605,9.8065,0.0431,0.1171,0.0144,-12.96,16.51,-36.13,231.43,2.1,-1.48
78259,50.44816,-4.995917,146,16.77,25.0,235.6,Jul-23,7760141,2019-08-17 09:29:49:508,-0.0116,-0.2988,10.5906,-0.0819,-0.1059,9.8057,0.0431,0.1171,0.0144,-12.96,16.51,-36.13,231.43,2.1,-1.48
78260,50.44816,-4.995917,146,16.77,25.0,235.6,Jul-23,7760242,2019-08-17 09:29:49:609,0.0187,-0.2989,9.5771,-0.0369,-0.0039,9.8066,0.0303,0.035,-0.0027,-14.02,16.89,-36.57,230.44,1.32,-1.5
78261,50.44816,-4.995917,146,16.77,25.0,235.6,Jul-23,7760341,2019-08-17 09:29:49:708,0.0922,0.0816,9.0054,0.0009,0.006,9.8066,0.0122,-0.0129,-0.0059,-14.02,16.89,-36.13,230.44,1.32,-1.5
78262,50.44816,-4.995917,146,16.77,25.0,235.6,Jul-23,7760441,2019-08-17 09:29:49:808,0.3159,0.0471,9.0306,0.0329,0.0255,9.8066,-0.0208,-0.047,0.0186,-13.65,16.89,-36.13,230.22,1.56,-1.55
78263,50.44816,-4.995917,146,16.77,25.0,235.6,Jul-23,7760541,2019-08-17 09:29:49:908,0.0817,0.3152,9.4836,0.0507,0.0409,9.8064,-0.0251,-0.0512,0.0027,-13.65,16.89,-36.13,230.22,1.56,-1.55
78264,50.44808,-4.996134,149,16.89,21.0,235.4,Jul-23,7760642,2019-08-17 09:29:50:009,0.1763,0.507,10.0621,0.0931,0.0516,9.8061,-0.0144,-0.0204,-0.0261,-13.34,16.89,-37.44,231.75,1.93,-1.62
78265,50.44808,-4.996134,149,16.89,21.0,235.4,Jul-23,7760741,2019-08-17 09:29:50:108,0.1804,0.3701,9.2138,0.1627,0.0631,9.8051,0.0048,0.0787,0.0037,-12.96,16.51,-37.82,231.75,1.93,-1.62
78266,50.44808,-4.996134,149,16.89,21.0,235.4,Jul-23,7760842,2019-08-17 09:29:50:209,0.2921,-0.2561,10.1469,0.187,0.0179,9.8049,0.0048,0.0787,0.0037,-12.96,16.14,-37.88,230.04,2.69,-2.42
78267,50.44808,-4.996134,149,16.89,21.0,235.4,Jul-23,7760941,2019-08-17 09:29:50:308,-0.1154,-0.4175,10.6671,-0.0455,-0.0561,9.8064,0.0548,0.067,0.0059,-13.34,16.51,-37.44,232.13,2.27,-2.42
78268,50.44808,-4.996134,149,16.89,21.0,235.4,Jul-23,7761043,2019-08-17 09:29:50:410,-0.2991,-0.2522,9.6767,-0.0664,-0.033,9.8064,0.0452,0.0233,0.0091,-13.34,16.51,-37.44,232.13,2.27,-2.42
78269,50.44808,-4.996134,149,16.89,21.0,235.4,Jul-23,7761142,2019-08-17 09:29:50:509,-0.6189,0.0929,9.5471,-0.0081,0.021,9.8066,0.057,-0.0097,-0.0218,-13.65,16.89,-36.63,230.45,1.75,-2.01
78270,50.44808,-4.996134,149,16.89,21.0,235.4,Jul-23,7761240,2019-08-17 09:29:50:607,0.4478,-0.316,9.3616,-0.0077,0.0829,9.8063,0.0698,-0.0214,-0.0154,-13.34,16.89,-37.5,231.57,2.09,-1.67
78271,50.44808,-4.996134,149,16.89,21.0,235.4,Jul-23,7761341,2019-08-17 09:29:50:708,0.094,0.2285,10.1261,0.0215,0.0668,9.8064,0.0921,-0.0864,0.0005,-13.34,16.89,-37.5,231.57,2.09,-1.67
78272,50.44808,-4.996134,149,16.89,21.0,235.4,Jul-23,7761441,2019-08-17 09:29:50:808,0.8969,0.1261,8.7778,-0.0128,0.0728,9.8064,-0.0954,0.1107,-0.0154,-12.21,16.89,-36.63,232.96,2.47,-1.52
78273,50.44808,-4.996134,149,16.89,21.0,235.4,Jul-23,7761541,2019-08-17 09:29:50:908,0.963,-1.2673,10.1279,-0.0018,0.041,9.8066,-0.0954,0.1107,-0.0154,-12.96,17.64,-36.63,232.96,2.47,-1.52
78274,50.44801,-4.996369,150,16.82,20.0,236.0,Aug-23,7761641,2019-08-17 09:29:51:008,0.2403,-0.9083,10.442,-0.0239,0.0079,9.8066,-0.2126,0.0755,0.1848,-12.96,17.64,-36.63,232.96,2.47,-1.52
78275,50.44801,-4.996369,150,16.82,20.0,236.0,Aug-23,7761741,2019-08-17 09:29:51:108,0.4151,-0.3636,9.7095,0.0094,0.0167,9.8066,-0.0666,-0.0459,-0.0463,-13.34,18.01,-36.69,232.42,2.43,-1.38
78276,50.44801,-4.996369,150,16.82,20.0,236.0,Aug-23,7761841,2019-08-17 09:29:51:208,-0.5107,0.6763,8.4332,0.0827,-0.0227,9.8063,-0.0304,-0.0619,0.0165,-12.96,17.64,-37.07,232.42,2.43,-1.38
78277,50.44801,-4.996369,150,16.82,20.0,236.0,Aug-23,7761942,2019-08-17 09:29:51:309,0.9743,-0.2667,9.488,0.008,-0.0243,9.8066,-0.0538,-0.0161,0.0186,-13.34,16.89,-36.25,231.18,2.62,-1.85
78278,50.44801,-4.996369,150,16.82,20.0,236.0,Aug-23,7762041,2019-08-17 09:29:51:408,0.6504,-0.73,9.011,0.0014,-0.0803,9.8063,0.0186,0.0436,-0.0154,-12.96,17.26,-37.07,231.45,2.71,-2.27
78279,50.44801,-4.996369,150,16.82,20.0,236.0,Aug-23,7762141,2019-08-17 09:29:51:508,-0.196,0.1597,11.2968,0.0078,-0.0892,9.8062,-0.0357,0.0287,0.0005,-12.96,16.14,-37.5,231.45,2.71,-2.27
78280,50.44801,-4.996369,150,16.82,20.0,236.0,Aug-23,7762241,2019-08-17 09:29:51:608,-0.1548,-0.1375,10.4534,0.0024,-0.0031,9.8067,-0.0229,0.0936,0.0048,-12.96,16.14,-36.19,230.72,2.33,-2.63
78281,50.44801,-4.996369,150,16.82,20.0,236.0,Aug-23,7762341,2019-08-17 09:29:51:708,-0.1598,-0.5536,9.85,-0.0324,-0.081,9.8063,-0.0229,0.0936,0.0048,-12.96,16.14,-36.19,230.72,2.33,-2.63
78282,50.44801,-4.996369,150,16.82,20.0,236.0,Aug-23,7762441,2019-08-17 09:29:51:808,0.0138,-0.0089,9.5178,-0.0198,-0.0001,9.8066,0.0133,0.0318,0.0218,-13.65,16.89,-37.13,231.09,1.85,-2.79
78283,50.44801,-4.996369,150,16.82,20.0,236.0,Aug-23,7762541,2019-08-17 09:29:51:908,0.0891,0.3485,9.5252,-0.0271,0.0448,9.8065,0.0772,-0.0097,-0.0016,-13.34,16.89,-36.69,232.99,1.77,-2.7
78284,50.447945,-4.996626,150,17.03,17.0,235.8,Aug-23,7762642,2019-08-17 09:29:52:009,-0.014,0.3367,9.512,0.0058,0.1217,9.8059,0.0261,-0.0576,0.0027,-12.59,16.89,-37.13,231.89,2.36,-2.3
78285,50.447945,-4.996626,150,17.03,17.0,235.8,Aug-23,7762740,2019-08-17 09:29:52:107,-0.2224,0.2728,9.5975,0.0314,0.0669,9.8064,0.041,-0.0278,0.0005,-12.59,16.89,-37.13,231.89,2.36,-2.3
78286,50.447945,-4.996626,150,17.03,17.0,235.8,Aug-23,7762841,2019-08-17 09:29:52:208,-0.3477,0.3567,10.1631,0.0227,0.0979,9.8061,-0.0016,-0.0278,0.0069,-13.34,16.51,-37.5,230.97,2.89,-2.05
78287,50.447945,-4.996626,150,17.03,17.0,235.8,Aug-23,7762942,2019-08-17 09:29:52:309,-0.0093,0.4706,10.4896,-0.0047,0.0656,9.8064,0.009,0.0084,-0.0005,-12.96,16.89,-37.5,230.97,2.89,-2.05
78288,50.447945,-4.996626,150,17.03,17.0,235.8,Aug-23,7763041,2019-08-17 09:29:52:408,-0.3413,0.0981,10.3209,-0.0207,-0.0179,9.8066,0.0122,0.0521,0.0112,-13.34,16.89,-37.07,230.42,3.17,-1.78
78289,50.447945,-4.996626,150,17.03,17.0,235.8,Aug-23,7763141,2019-08-17 09:29:52:508,-0.0683,0.1064,10.0714,-0.0488,-0.0421,9.8064,0.0122,0.0521,0.0112,-13.34,16.51,-37.07,230.79,2.8,-1.72
78290,50.447945,-4.996626,150,17.03,17.0,235.8,Aug-23,7763241,2019-08-17 09:29:52:608,0.0885,-0.162,9.3581,-0.0202,-0.0019,9.8066,0.0026,0.0287,0.0261,-13.34,16.51,-37.07,230.79,2.8,-1.72
78291,50.447945,-4.996626,150,17.03,17.0,235.8,Aug-23,7763341,2019-08-17 09:29:52:708,0.1469,0.2441,9.249,-0.0008,0.006,9.8067,0.0357,0.002,0.0048,-13.65,16.89,-37.07,228.95,2.72,-1.64
78292,50.447945,-4.996626,150,17.03,17.0,235.8,Aug-23,7763441,2019-08-17 09:29:52:808,0.0114,0.1045,9.7451,0.0231,0.0495,9.8065,0.0282,-0.0481,-0.0069,-13.65,16.89,-37.07,228.9,2.74,-1.61
78293,50.447945,-4.996626,150,17.03,17.0,235.8,Aug-23,7763540,2019-08-17 09:29:52:907,-0.0378,0.5152,8.6605,0.0554,0.1166,9.8058,-0.0144,-0.08,0.0048,-13.65,16.89,-37.07,228.9,2.74,-1.61
78294,50.44788,-4.99684,149,16.83,16.0,235.8,Oct-23,7763641,2019-08-17 09:29:53:008,0.1892,0.3148,8.707,0.0571,0.0476,9.8064,-0.0219,-0.0299,-0.0059,-12.96,16.89,-37.07,229.69,3.47,-1.41
78295,50.44788,-4.99684,149,16.83,16.0,235.8,Oct-23,7763741,2019-08-17 09:29:53:108,-0.0058,0.5309,9.4679,0.095,0.0668,9.806,-0.0219,-0.0299,-0.0059,-12.59,16.89,-37.94,229.69,3.47,-1.41
78296,50.44788,-4.99684,149,16.83,16.0,235.8,Oct-23,7763841,2019-08-17 09:29:53:208,-0.1826,-0.2578,10.1643,0.1101,0.0457,9.8059,-0.0773,-0.0225,0.0027,-12.21,16.51,-38.38,231.08,4.09,-1.72
78297,50.44788,-4.99684,149,16.83,16.0,235.8,Oct-23,7763941,2019-08-17 09:29:53:308,-0.1612,-0.2809,10.2145,0.0251,-0.0986,9.8061,-0.0133,0.0809,-0.0122,-12.59,16.14,-37.13,231.08,4.09,-1.72
78298,50.44788,-4.99684,149,16.83,16.0,235.8,Oct-23,7764041,2019-08-17 09:29:53:408,0.2533,-0.2254,9.7785,-0.0249,-0.0592,9.8064,-0.0091,0.0883,0.0005,-12.59,16.14,-37.5,228.56,3.73,-2.2
78299,50.44788,-4.99684,149,16.83,16.0,235.8,Oct-23,7764141,2019-08-17 09:29:53:508,-0.1667,-0.2273,9.6995,-0.047,-0.0886,9.8061,0.0122,0.0308,-0.0101,-12.96,16.51,-37.5,228.56,3.73,-2.2
78300,50.44788,-4.99684,149,16.83,16.0,235.8,Oct-23,7764242,2019-08-17 09:29:53:609,0.0579,-0.3199,8.9669,-0.0537,-0.0946,9.806,0.0101,-0.0033,-0.008,-12.96,16.51,-37.5,228.56,3.73,-2.2
78301,50.44788,-4.99684,149,16.83,16.0,235.8,Oct-23,7764340,2019-08-17 09:29:53:707,-0.1188,0.2453,10.3307,0.0097,-0.0052,9.8066,0.0026,-0.0683,-0.0091,-12.96,16.89,-37.94,231.01,3.11,-2.33
78302,50.44788,-4.99684,149,16.83,16.0,235.8,Oct-23,7764441,2019-08-17 09:29:53:808,0.6093,-0.3068,9.1443,0.0259,0.0014,9.8066,0.0026,-0.0683,-0.0091,-12.96,16.14,-37.5,229.44,3.21,-2.44
78303,50.44788,-4.99684,149,16.83,16.0,235.8,Oct-23,7764541,2019-08-17 09:29:53:908,-0.0556,0.335,10.2044,0.0043,0.0134,9.8066,0.009,-0.0534,-0.0005,-12.96,16.14,-37.5,229.44,3.21,-2.44
78304,50.4478,-4.997071,150,16.67,14.0,236.1,Oct-23,7764641,2019-08-17 09:29:54:008,0.0416,-0.0777,9.6937,0.0001,0.0362,9.8066,0.0378,-0.0225,-0.0197,-13.34,16.14,-37.5,229.1,3.37,-2.31
78305,50.4478,-4.997071,150,16.67,14.0,236.1,Oct-23,7764741,2019-08-17 09:29:54:108,-0.0817,0.2052,9.0318,-0.0016,0.0022,9.8066,0.0186,0.0127,-0.0218,-12.96,16.51,-37.5,230.65,3.38,-2.29
78306,50.4478,-4.997071,150,16.67,14.0,236.1,Oct-23,7764841,2019-08-17 09:29:54:208,-0.4947,-0.1362,10.2036,-0.0266,0.0096,9.8066,0.041,-0.0001,-0.0186,-12.96,16.89,-37.07,230.65,3.38,-2.29
78307,50.4478,-4.997071,150,16.67,14.0,236.1,Oct-23,7764941,2019-08-17 09:29:54:308,-0.1057,0.4381,9.2376,-0.0185,0.0262,9.8066,-0.0197,-0.0331,0.0091,-12.96,16.89,-37.07,230.65,3.38,-2.29
78308,50.4478,-4.997071,150,16.67,14.0,236.1,Oct-23,7765041,2019-08-17 09:29:54:408,-0.223,0.0903,9.8105,0.0056,0.0063,9.8066,-0.0229,-0.0523,-0.008,-12.59,16.51,-37.5,230.4,3.43,-2.11
78309,50.4478,-4.997071,150,16.67,14.0,236.1,Oct-23,7765141,2019-08-17 09:29:54:508,-0.3622,0.4821,9.3463,0.0107,-0.0237,9.8066,0.0037,0.0809,-0.0261,-12.59,16.51,-37.5,230.4,3.43,-2.11
78310,50.4478,-4.997071,150,16.67,14.0,236.1,Oct-23,7765241,2019-08-17 09:29:54:608,-0.7399,0.3695,10.0951,-0.0068,-0.0495,9.8065,0.0037,0.0809,-0.0261,-13.34,16.89,-37.5,230.62,3.36,-2.25
78311,50.4478,-4.997071,150,16.67,14.0,236.1,Oct-23,7765341,2019-08-17 09:29:54:708,0.2914,-0.4618,8.8592,0.0117,-0.0239,9.8066,-0.0719,0.0233,-0.0016,-13.34,16.51,-37.07,231.11,3.11,-2.4
78312,50.4478,-4.997071,150,16.67,14.0,236.1,Oct-23,7765441,2019-08-17 09:29:54:808,-0.3434,0.3144,9.4048,0.025,-0.0541,9.8065,-0.024,0.0052,-0.0091,-13.34,16.51,-37.5,231.11,3.11,-2.4
78313,50.4478,-4.997071,150,16.67,14.0,236.1,Oct-23,7765541,2019-08-17 09:29:54:908,0.1116,-0.0512,9.2096,0.0611,-0.046,9.8064,-0.0378,-0.0662,-0.008,-13.34,16.51,-37.5,231.11,3.11,-2.4
78314,50.447727,-4.997294,152,16.43,14.0,236.3,Oct-23,7765641,2019-08-17 09:29:55:008,0.34,0.1621,9.2647,0.0299,0.0218,9.8066,-0.0048,-0.0289,0.0016,-13.34,15.76,-37.07,230.0,3.13,-2.85
78315,50.447727,-4.997294,152,16.43,14.0,236.3,Oct-23,7765742,2019-08-17 09:29:55:109,0.6576,-0.1627,9.545,0.0596,0.0505,9.8063,0.0207,-0.0097,0.0154,-12.59,15.76,-37.88,229.52,3.58,-2.92
78316,50.447727,-4.997294,152,16.43,14.0,236.3,Oct-23,7765841,2019-08-17 09:29:55:208,-0.4447,-0.0611,9.1531,0.0102,0.0016,9.8066,0.0058,-0.0161,-0.0165,-12.21,15.76,-38.32,231.41,3.62,-2.96
78317,50.447727,-4.997294,152,16.43,14.0,236.3,Oct-23,7765940,2019-08-17 09:29:55:307,-0.786,0.3527,9.5712,0.0173,-0.0197,9.8066,0.0271,0.0319,-0.0123,-12.96,15.76,-38.32,231.41,3.62,-2.96
78318,50.447727,-4.997294,152,16.43,14.0,236.3,Oct-23,7766041,2019-08-17 09:29:55:408,0.5139,0.3238,9.4795,0.0089,-0.0413,9.8066,0.0271,0.0319,-0.0123,-12.96,15.76,-38.32,231.41,3.62,-2.96
78319,50.447727,-4.997294,152,16.43,14.0,236.3,Oct-23,7766141,2019-08-17 09:29:55:508,0.1053,0.1785,10.5979,0.0179,-0.024,9.8066,-0.0016,0.0468,0.0123,-12.96,15.07,-37.88,228.71,3.18,-3.23
78320,50.447727,-4.997294,152,16.43,14.0,236.3,Oct-23,7766241,2019-08-17 09:29:55:608,0.1186,-0.4533,10.1167,-0.0598,-0.0283,9.8064,-0.0506,0.0404,0.0186,-12.59,15.76,-38.32,230.54,3.14,-3.4
78321,50.447727,-4.997294,152,16.43,14.0,236.3,Oct-23,7766341,2019-08-17 09:29:55:708,0.0953,-0.4889,10.1549,-0.0824,-0.0627,9.8061,-0.041,0.0521,0.0282,-12.59,15.76,-38.32,230.54,3.14,-3.4
78322,50.447727,-4.997294,152,16.43,14.0,236.3,Oct-23,7766441,2019-08-17 09:29:55:808,0.5091,-0.4667,8.8721,-0.0338,-0.0443,9.8065,0.0825,0.0489,-0.0208,-13.34,15.45,-37.5,229.5,2.55,-3.26
78323,50.447727,-4.997294,152,16.43,14.0,236.3,Oct-23,7766541,2019-08-17 09:29:55:908,-0.4089,-0.1783,9.774,-0.0679,-0.0313,9.8064,0.0293,-0.0651,-0.0186,-12.96,15.76,-37.5,229.5,2.55,-3.26
78324,50.44765,-4.9975,151,16.31,13.0,236.2,Oct-23,7766642,2019-08-17 09:29:56:009,0.2157,0.0369,9.9089,-0.0703,0.0185,9.8064,-0.0325,-0.0427,0.0218,-13.34,16.14,-37.44,230.93,2.37,-2.88
78325,50.44765,-4.9975,151,16.31,13.0,236.2,Oct-23,7766741,2019-08-17 09:29:56:108,0.6189,0.3767,9.1427,0.0355,0.064,9.8064,-0.0496,-0.0502,0.0048,-13.34,16.14,-37.44,230.93,2.37,-2.88
78326,50.44765,-4.9975,151,16.31,13.0,236.2,Oct-23,7766840,2019-08-17 09:29:56:207,0.3824,-0.2525,10.1441,0.0877,0.1051,9.8057,-0.024,-0.0278,0.0112,-12.59,16.14,-36.57,230.0,3.17,-2.89
78327,50.44765,-4.9975,151,16.31,13.0,236.2,Oct-23,7766941,2019-08-17 09:29:56:308,0.6148,0.0568,10.5827,0.0597,-0.0222,9.8064,-0.024,-0.0278,0.0112,-12.21,15.82,-37.0,230.0,3.17,-2.89
78328,50.44765,-4.9975,151,16.31,13.0,236.2,Oct-23,7767042,2019-08-17 09:29:56:409,1.16,-1.0054,9.6498,0.1092,-0.0442,9.8059,0.0303,0.0137,-0.0293,-12.59,15.82,-37.07,230.42,3.38,-3.55
78329,50.44765,-4.9975,151,16.31,13.0,236.2,Oct-23,7767141,2019-08-17 09:29:56:508,0.3603,-0.4336,9.8346,-0.0249,-0.0394,9.8065,-0.0176,0.0393,-0.0293,-12.59,15.82,-37.07,230.42,3.38,-3.55
78330,50.44765,-4.9975,151,16.31,13.0,236.2,Oct-23,7767241,2019-08-17 09:29:56:608,-0.7142,-0.178,10.0322,-0.1598,-0.1691,9.8039,0.0964,0.1608,-0.0133,-12.96,15.45,-37.0,230.42,3.38,-3.55
78331,50.44765,-4.9975,151,16.31,13.0,236.2,Oct-23,7767341,2019-08-17 09:29:56:708,-0.1012,-0.0268,9.2308,-0.0188,0.0283,9.8066,0.1006,-0.0108,-0.0123,-13.65,15.45,-36.63,228.42,2.02,-3.46
78332,50.44765,-4.9975,151,16.31,13.0,236.2,Oct-23,7767441,2019-08-17 09:29:56:808,-0.3341,-0.157,9.4382,0.0386,0.0712,9.8063,-0.0208,-0.1109,-0.0272,-13.65,15.45,-36.63,228.42,2.02,-3.46
78333,50.44765,-4.9975,151,16.31,13.0,236.2,Oct-23,7767541,2019-08-17 09:29:56:908,0.5161,0.3529,9.1953,0.0618,0.0599,9.8063,-0.0229,-0.0448,0.0037,-12.21,16.89,-36.57,234.7,2.48,-3.35
78334,50.44757,-4.997718,150,16.35,13.0,236.7,Oct-23,7767641,2019-08-17 09:29:57:008,0.1456,0.0155,10.3111,0.1315,0.1053,9.8052,-0.0229,-0.0448,0.0037,-12.21,15.82,-37.88,232.32,3.43,-3.62
