,GPS LATITUDE (degrees), GPS LONGITUDE (degrees), GPS ALTITUDE (m), GPS SPEED (Kmh), GPS ACCURACY (m), GPS ORIENTATION (Â°),GPS SATELLITES IN RANGE, TIME SINCE START (ms), DATE (YYYY-MO-DD HH-MI-SS_SSS), ACCELEROMETER X (m/s²) , ACCELEROMETER Y (m/s²), ACCELEROMETER Z (m/s²), GRAVITY X (m/s²), GRAVITY Y (m/s²), GRAVITY Z (m/s²), GYROSCOPE Yaw (rad/s), GYROSCOPE Pitch (rad/s), GYROSCOPE Roll (rad/s), MAGNETIC FIELD X (Î¼T), MAGNETIC FIELD Y (Î¼T), MAGNETIC FIELD Z (Î¼T), ORIENTATION (Yaw) (Â°), ORIENTATION (Pitch) (Â°), ORIENTATION (Roll ) (Â°)
23530,52.372066,-1.242545,170.36,8.12,3,337.27,18 / 18,2384320,2019-09-04 20:01:04:493,0.3502,-0.5875,9.6326,0.0052,0.0128,9.8066,0.044,0.0306,0.0452,2.88,-29.94,-11.94,208.68,-87.47,-134.36
23531,52.372066,-1.242545,170.36,8.12,3,337.27,18 / 18,2384421,2019-09-04 20:01:04:594,-0.2466,-0.5541,10.1642,-0.0166,-0.0036,9.8066,-0.0395,0.0543,0.0412,2.94,-30.0,-12.19,203.4,-87.39,-140.08
23532,52.372066,-1.242545,170.36,8.12,3,337.27,18 / 18,2384520,2019-09-04 20:01:04:693,-0.3929,-1.0003,9.5661,0.0197,-0.0145,9.8066,-0.0664,-0.0032,0.0498,3.0,-30.0,-12.31,204.11,-87.47,-139.37
23533,52.372066,-1.242545,170.36,8.12,3,337.27,18 / 18,2384620,2019-09-04 20:01:04:793,0.7968,-0.3119,10.3392,-0.005,-0.0185,9.8066,-0.0198,0.0569,0.0143,2.25,-30.56,-13.81,220.43,-87.53,-127.95
23534,52.372066,-1.242545,170.36,8.12,3,337.27,18 / 18,2384721,2019-09-04 20:01:04:894,0.2491,-0.7939,9.6408,-0.0056,0.0012,9.8066,0.0156,0.003,-0.027,2.81,-30.06,-12.75,216.44,-87.7,-127.51
23535,52.372066,-1.242545,170.36,8.12,3,337.27,18 / 18,2384821,2019-09-04 20:01:04:994,0.0052,-0.5939,9.7376,0.0005,0.0177,9.8066,0.0218,-0.0134,-0.0407,1.94,-29.94,-12.87,217.34,-87.65,-130.69
23536,52.372066,-1.242545,170.36,8.12,3,337.27,18 / 18,2384921,2019-09-04 20:01:05:094,0.1346,-0.1442,9.9063,-0.0029,-0.0031,9.8066,-0.018,0.0142,-0.002,1.5,-30.06,-13.12,214.64,-87.6,-133.53
23537,52.372066,-1.242545,170.36,8.12,3,337.27,18 / 18,2385021,2019-09-04 20:01:05:194,-0.1032,-1.0398,9.8019,-0.0059,-0.0105,9.8066,-0.0113,-0.0055,-0.0412,0.75,-29.75,-13.69,219.98,-87.72,-132.81
23538,52.372066,-1.242545,170.36,8.12,3,337.27,18 / 18,2385121,2019-09-04 20:01:05:294,-0.4275,-1.08,9.7895,-0.0031,-0.0042,9.8066,-0.0041,0.0076,-0.0051,0.13,-30.31,-13.0,223.84,-87.87,-132.78
23539,52.372066,-1.242545,170.36,8.12,3,337.27,18 / 18,2385221,2019-09-04 20:01:05:394,0.0397,-0.6095,9.1917,0.0118,0.0018,9.8066,-0.0017,-0.0056,0.0011,-0.06,-29.5,-11.37,224.45,-87.8,-131.5
23540,52.372066,-1.242545,170.36,8.12,3,337.27,18 / 19,2385321,2019-09-04 20:01:05:494,-0.1235,-1.2562,9.3729,0.0026,-0.0016,9.8066,-0.0047,0.0304,0.0163,0.31,-29.62,-10.75,225.47,-87.8,-130.27
23541,52.372066,-1.242545,170.36,8.12,3,337.27,18 / 19,2385420,2019-09-04 20:01:05:593,-0.0714,-0.4587,9.9869,0.0037,0.0009,9.8066,0.0003,0.0083,-0.0277,2.06,-28.94,-9.75,215.15,-87.81,-129.97
23542,52.372066,-1.242545,170.36,8.12,3,337.27,18 / 19,2385521,2019-09-04 20:01:05:694,-0.9443,0.4923,11.4739,-0.0022,0.0041,9.8066,0.0026,0.02,0.0087,3.63,-29.31,-11.31,208.21,-87.78,-129.22
23543,52.372066,-1.242545,170.36,8.12,3,337.27,18 / 19,2385621,2019-09-04 20:01:05:794,0.5529,-1.07,9.2526,0.0073,-0.0021,9.8066,-0.0162,0.0013,0.0039,3.5,-29.31,-12.0,210.85,-87.73,-128.07
23544,52.372066,-1.242545,170.36,8.12,3,337.27,18 / 19,2385720,2019-09-04 20:01:05:893,-0.2406,-0.693,9.6532,-0.0011,-0.0091,9.8066,-0.0148,-0.0127,-0.0169,3.06,-29.69,-12.37,216.56,-87.81,-126.26
23545,52.372066,-1.242545,170.36,8.12,3,337.27,18 / 19,2385820,2019-09-04 20:01:05:993,0.4046,-0.7893,9.1168,0.0123,-0.0079,9.8066,-0.0201,-0.0261,-0.0069,3.13,-30.56,-12.62,222.09,-87.84,-121.56
23546,52.372066,-1.242545,170.36,8.12,3,337.27,18 / 19,2385920,2019-09-04 20:01:06:093,0.2602,-1.2346,9.8904,0.0064,-0.0066,9.8065,-0.0266,0.0047,0.0346,2.88,-30.31,-12.94,225.35,-87.86,-118.24
23547,52.372066,-1.242545,170.36,8.12,3,337.27,18 / 19,2386020,2019-09-04 20:01:06:193,1.0214,-0.5987,10.3083,-0.0015,0.003,9.8066,0.012,0.0131,0.0124,3.25,-30.12,-12.37,227.12,-87.8,-114.96
23548,52.372066,-1.242545,170.36,8.12,3,337.27,18 / 19,2386120,2019-09-04 20:01:06:293,-0.0464,-0.9778,10.0847,-0.0092,0.0129,9.8066,0.0421,-0.013,0.002,2.81,-30.06,-12.5,223.66,-87.76,-118.57
23549,52.372066,-1.242545,170.36,8.12,3,337.27,18 / 19,2386220,2019-09-04 20:01:06:393,0.1644,-0.7694,9.4112,-0.0082,0.0176,9.8066,0.0189,0.0197,0.0301,2.94,-30.0,-12.31,217.34,-87.6,-125.11
23550,52.372776,-1.24304,169.93,9.72,3,334.16,19 / 19,2386320,2019-09-04 20:01:06:493,0.568,-0.329,9.5337,-0.0104,0.0004,9.8066,-0.0043,-0.0626,-0.0491,2.5,-29.94,-12.12,216.49,-87.59,-126.02
23551,52.372776,-1.24304,169.93,9.72,3,334.16,19 / 19,2386421,2019-09-04 20:01:06:594,0.3979,-0.2651,9.7988,0.0031,-0.0041,9.8066,-0.023,-0.0356,-0.0148,2.81,-30.12,-12.81,218.08,-87.64,-125.67
23552,52.372776,-1.24304,169.93,9.72,3,334.16,19 / 19,2386520,2019-09-04 20:01:06:693,-0.519,-1.7473,10.4301,0.0141,-0.0014,9.8066,0.0072,-0.0881,-0.0607,2.63,-30.25,-12.0,218.12,-87.72,-124.45
23553,52.372776,-1.24304,169.93,9.72,3,334.16,19 / 19,2386620,2019-09-04 20:01:06:793,0.3159,-0.8653,9.5716,0.0,0.0032,9.8066,0.002,-0.0208,0.0197,2.44,-29.94,-12.81,224.7,-87.67,-122.83
23554,52.372776,-1.24304,169.93,9.72,3,334.16,19 / 19,2386720,2019-09-04 20:01:06:893,0.6982,-0.4786,10.0628,0.0048,0.01,9.8066,0.0463,-0.0355,-0.0152,2.31,-30.12,-12.87,224.21,-87.57,-123.2
23555,52.372776,-1.24304,169.93,9.72,3,334.16,19 / 19,2386820,2019-09-04 20:01:06:993,1.4036,-1.2033,9.6145,-0.0051,0.0001,9.8065,-0.021,0.0233,0.0659,2.25,-30.62,-12.37,221.56,-87.44,-124.69
23556,52.372776,-1.24304,169.93,9.72,3,334.16,19 / 19,2386921,2019-09-04 20:01:07:094,0.3054,-0.7513,9.7041,0.0084,-0.0014,9.8066,-0.0094,-0.0309,-0.0006,1.75,-31.0,-12.31,221.96,-87.39,-124.15
23557,52.372776,-1.24304,169.93,9.72,3,334.16,19 / 19,2387020,2019-09-04 20:01:07:193,0.4897,-1.2274,9.5082,0.0069,-0.0051,9.8066,-0.0034,-0.0629,-0.031,2.19,-30.56,-12.5,224.0,-87.38,-121.93
23558,52.372776,-1.24304,169.93,9.72,3,334.16,19 / 19,2387121,2019-09-04 20:01:07:294,0.9844,-1.4845,9.5003,0.0013,-0.0098,9.8066,-0.0295,0.0138,0.0746,1.56,-29.87,-11.87,225.57,-87.4,-120.41
23559,52.372776,-1.24304,169.93,9.72,3,334.16,19 / 19,2387220,2019-09-04 20:01:07:393,0.4755,-1.8979,10.192,0.013,-0.0054,9.8066,-0.008,-0.0444,-0.0142,2.25,-30.62,-12.44,227.58,-87.43,-118.15
23560,52.372776,-1.24304,169.93,9.72,3,334.16,18 / 18,2387320,2019-09-04 20:01:07:493,0.5674,-1.7519,10.2791,0.0049,0.0034,9.8066,0.0143,-0.0044,0.0258,1.81,-29.37,-12.19,229.93,-87.4,-115.9
23561,52.372776,-1.24304,169.93,9.72,3,334.16,18 / 18,2387421,2019-09-04 20:01:07:594,0.4451,-0.5256,9.3436,0.0061,0.0035,9.8066,0.0228,-0.0575,-0.0279,2.25,-30.37,-12.81,230.85,-87.26,-115.59
23562,52.372776,-1.24304,169.93,9.72,3,334.16,18 / 18,2387520,2019-09-04 20:01:07:693,0.6468,-0.5321,10.4788,0.0144,0.0039,9.8066,0.0091,-0.0376,-0.0048,1.5,-30.0,-12.31,228.78,-87.24,-116.67
23563,52.372776,-1.24304,169.93,9.72,3,334.16,18 / 18,2387620,2019-09-04 20:01:07:793,0.0163,-1.9766,10.5233,-0.0131,0.0058,9.8065,0.0451,-0.023,-0.0223,1.56,-30.69,-12.69,229.9,-87.15,-116.24
23564,52.372776,-1.24304,169.93,9.72,3,334.16,18 / 18,2387720,2019-09-04 20:01:07:893,0.1573,-1.242,8.8526,-0.0079,0.006,9.8066,0.0133,-0.0186,0.0276,1.75,-30.12,-12.75,225.62,-87.22,-121.13
23565,52.372776,-1.24304,169.93,9.72,3,334.16,18 / 18,2387820,2019-09-04 20:01:07:993,-0.1167,-1.2319,9.4642,0.0082,-0.0124,9.8066,-0.0678,-0.0244,0.0262,2.44,-30.94,-11.69,225.28,-87.2,-120.21
23566,52.372776,-1.24304,169.93,9.72,3,334.16,18 / 18,2387920,2019-09-04 20:01:08:093,0.873,-0.0975,11.2702,0.0034,-0.0302,9.8065,-0.0461,0.0015,-0.0291,1.25,-29.69,-13.19,236.6,-87.35,-113.93
23567,52.372776,-1.24304,169.93,9.72,3,334.16,18 / 18,2388021,2019-09-04 20:01:08:194,0.6248,-0.8162,9.8958,-0.0191,-0.0124,9.8066,0.0122,-0.0014,-0.0553,2.13,-30.25,-12.94,237.99,-87.69,-108.8
23568,52.372776,-1.24304,169.93,9.72,3,334.16,18 / 18,2388126,2019-09-04 20:01:08:299,-0.3839,-1.3691,9.7363,0.0059,0.029,9.8066,0.0576,-0.0694,-0.0186,1.88,-30.25,-13.06,234.63,-87.7,-112.36
23569,52.372776,-1.24304,169.93,9.72,3,334.16,19 / 19,2388222,2019-09-04 20:01:08:395,0.5672,-0.2575,10.4953,0.0076,0.0192,9.8066,0.0381,-0.0766,-0.0301,1.88,-29.62,-12.75,229.24,-87.5,-117.72
23570,52.372776,-1.24304,169.93,9.72,3,334.16,19 / 19,2388321,2019-09-04 20:01:08:494,0.818,-0.5244,10.1928,-0.0154,0.0039,9.8066,0.0256,-0.0031,-0.0479,1.31,-30.37,-12.62,228.73,-87.44,-122.46
23571,52.372776,-1.24304,169.93,9.72,3,334.16,19 / 19,2388420,2019-09-04 20:01:08:593,-0.1505,0.597,9.8307,-0.0006,0.0056,9.8066,0.0019,-0.0617,-0.0338,2.19,-30.25,-12.19,219.4,-87.56,-127.35
23572,52.372776,-1.24304,169.93,9.72,3,334.16,19 / 19,2388521,2019-09-04 20:01:08:694,0.3272,-0.4828,10.3339,0.0028,-0.005,9.8066,-0.0439,0.0201,0.061,1.69,-30.5,-12.69,222.41,-87.55,-125.11
23573,52.372776,-1.24304,169.93,9.72,3,334.16,19 / 19,2388620,2019-09-04 20:01:08:793,0.3237,-0.7742,8.6049,0.0064,-0.0174,9.8066,-0.0483,0.0,-0.0114,1.69,-29.62,-12.81,224.66,-87.59,-122.75
23574,52.372776,-1.24304,169.93,9.72,3,334.16,19 / 19,2388721,2019-09-04 20:01:08:894,0.3616,-0.609,10.3422,0.0065,-0.0115,9.8066,-0.0139,-0.0013,0.0077,1.63,-30.5,-13.62,233.95,-87.74,-114.06
23575,52.372776,-1.24304,169.93,9.72,3,334.16,19 / 19,2388821,2019-09-04 20:01:08:994,-0.6579,-0.2716,10.7166,0.0031,0.0057,9.8066,-0.0059,0.0108,0.0583,1.0,-30.06,-13.87,239.65,-87.72,-112.07
23576,52.372776,-1.24304,169.93,9.72,3,334.16,19 / 19,2388921,2019-09-04 20:01:09:094,0.9529,-3.3192,7.7722,0.013,0.0147,9.8066,0.0389,0.0051,0.0343,2.13,-30.75,-13.0,234.93,-87.55,-111.61
23577,52.372776,-1.24304,169.93,9.72,3,334.16,19 / 19,2389020,2019-09-04 20:01:09:193,0.4342,-0.3022,9.3873,0.0022,0.0063,9.8066,0.0129,-0.0186,-0.0221,1.19,-30.31,-13.06,236.11,-87.32,-114.4
23578,52.372776,-1.24304,169.93,9.72,3,334.16,19 / 19,2389121,2019-09-04 20:01:09:294,0.0557,-0.7306,10.0649,-0.0011,0.0003,9.8066,-0.0145,-0.0019,-0.0063,0.75,-30.56,-12.62,235.2,-87.33,-115.21
23579,52.372776,-1.24304,169.93,9.72,3,334.16,19 / 19,2389220,2019-09-04 20:01:09:393,0.1583,-1.0511,10.2455,-0.0011,-0.0089,9.8066,-0.0122,-0.0072,-0.0021,1.31,-30.81,-13.0,236.27,-87.35,-114.1
23580,52.372776,-1.24304,169.93,9.72,3,334.16,19 / 19,2389320,2019-09-04 20:01:09:493,0.4927,-1.1257,10.0244,-0.0117,-0.0082,9.8066,-0.0136,0.0051,-0.015,1.75,-30.69,-12.5,233.36,-87.45,-111.98
23581,52.372776,-1.24304,169.93,9.72,3,334.16,19 / 19,2389421,2019-09-04 20:01:09:594,0.107,-1.9007,9.3686,-0.0039,-0.0069,9.8066,-0.012,0.0122,-0.0007,1.25,-30.94,-13.06,239.83,-87.61,-110.88
23582,52.372776,-1.24304,169.93,9.72,3,334.16,19 / 19,2389520,2019-09-04 20:01:09:693,0.2664,-1.9156,9.319,-0.0085,-0.0064,9.8066,-0.0073,-0.0054,-0.0416,1.31,-30.62,-13.12,240.79,-87.71,-110.07
23583,52.372776,-1.24304,169.93,9.72,3,334.16,19 / 19,2389620,2019-09-04 20:01:09:793,-0.2502,-2.2968,10.6723,-0.0256,-0.0129,9.8066,-0.0281,0.0582,0.0196,1.63,-30.44,-12.94,237.46,-88.04,-110.04
23584,52.372776,-1.24304,169.93,9.72,3,334.16,19 / 19,2389721,2019-09-04 20:01:09:894,0.8277,-1.7705,10.0946,-0.0051,0.0037,9.8066,0.0216,-0.0052,-0.0366,1.25,-30.37,-13.31,242.05,-88.12,-109.73
23585,52.372776,-1.24304,169.93,9.72,3,334.16,19 / 19,2389820,2019-09-04 20:01:09:993,0.5908,-2.0602,9.6753,-0.004,0.0103,9.8066,0.0074,0.0562,0.0892,1.44,-30.25,-12.37,239.56,-88.12,-111.66
23586,52.372776,-1.24304,169.93,9.72,3,334.16,19 / 19,2389920,2019-09-04 20:01:10:093,0.7592,-1.3702,9.7566,-0.0016,0.0063,9.8066,0.0346,-0.0283,-0.0647,1.88,-30.5,-12.69,233.4,-88.0,-114.2
23587,52.372776,-1.24304,169.93,9.72,3,334.16,19 / 19,2390020,2019-09-04 20:01:10:193,-0.5742,-1.728,9.9055,-0.002,-0.0043,9.8066,-0.0356,0.0029,0.008,1.31,-29.75,-12.69,235.51,-88.03,-116.37
23588,52.372776,-1.24304,169.93,9.72,3,334.16,19 / 19,2390120,2019-09-04 20:01:10:293,0.0874,-2.2588,10.0084,-0.0071,-0.0099,9.8066,-0.0358,0.0418,0.032,1.38,-29.75,-12.56,238.37,-88.14,-113.59
23589,52.372776,-1.24304,169.93,9.72,3,334.16,19 / 19,2390221,2019-09-04 20:01:10:394,0.1756,-2.9174,9.9121,0.0042,-0.0073,9.8066,-0.0038,-0.0358,-0.035,1.31,-29.5,-13.0,243.41,-88.21,-108.63
23590,52.372776,-1.24304,169.93,9.72,3,334.16,18 / 18,2390321,2019-09-04 20:01:10:494,0.3151,-2.743,9.7904,0.0025,-0.0038,9.8066,-0.0089,0.0533,0.0475,0.69,-29.19,-12.94,246.56,-88.21,-105.39
23591,52.372776,-1.24304,169.93,9.72,3,334.16,18 / 18,2390420,2019-09-04 20:01:10:593,0.1488,-2.7045,10.0042,0.001,-0.0004,9.8066,0.0049,0.0256,0.0171,1.44,-29.31,-13.0,247.79,-88.19,-104.09
23592,52.372776,-1.24304,169.93,9.72,3,334.16,18 / 18,2390521,2019-09-04 20:01:10:694,-0.1285,-2.3233,10.1434,-0.009,0.0,9.8066,0.0079,0.0217,0.0053,1.44,-30.25,-13.62,248.15,-88.18,-104.16
23593,52.372776,-1.24304,169.93,9.72,3,334.16,18 / 18,2390621,2019-09-04 20:01:10:794,0.2155,-2.5996,9.8314,0.0063,-0.0031,9.8066,0.0008,0.0176,0.0116,1.13,-30.37,-13.12,248.16,-88.22,-103.66
23594,52.372776,-1.24304,169.93,9.72,3,334.16,18 / 18,2390720,2019-09-04 20:01:10:893,0.3231,-2.2274,9.5828,0.0032,-0.0059,9.8066,0.0017,-0.0111,0.0037,1.69,-29.81,-13.44,245.93,-88.21,-101.6
23595,52.372776,-1.24304,169.93,9.72,3,334.16,18 / 18,2390820,2019-09-04 20:01:10:993,0.7359,-2.4298,9.8721,0.0059,-0.0056,9.8066,0.0014,-0.0151,-0.0277,1.69,-30.62,-13.0,249.18,-88.16,-98.03
23596,52.372776,-1.24304,169.93,9.72,3,334.16,18 / 18,2390921,2019-09-04 20:01:11:094,0.4634,-2.7637,9.825,-0.0018,-0.0025,9.8066,0.0056,0.0339,0.0066,1.25,-30.5,-13.06,254.46,-88.21,-97.18
23597,52.372776,-1.24304,169.93,9.72,3,334.16,18 / 18,2391020,2019-09-04 20:01:11:193,0.2961,-2.364,9.6405,-0.0026,-0.0068,9.8066,-0.0074,0.0413,-0.0081,1.63,-29.81,-12.94,251.02,-88.24,-96.44
23598,52.372776,-1.24304,169.93,9.72,3,334.16,18 / 18,2391121,2019-09-04 20:01:11:294,0.1706,-2.1376,9.6882,-0.0065,-0.0125,9.8066,-0.0008,0.0108,-0.0562,2.25,-30.12,-13.06,255.57,-88.36,-92.06
23599,52.372776,-1.24304,169.93,9.72,3,334.16,18 / 18,2391221,2019-09-04 20:01:11:394,0.1509,-3.2623,11.2506,-0.0142,-0.0074,9.8066,0.0154,0.0368,-0.0349,2.56,-29.94,-13.31,256.59,-88.56,-87.26
23600,52.372776,-1.24304,169.93,9.72,3,334.16,19 / 19,2391320,2019-09-04 20:01:11:493,-0.497,-3.096,12.2958,-0.0101,0.0534,9.8064,0.1796,0.05,-0.0023,1.81,-30.19,-13.31,252.53,-88.66,-95.81
23601,52.372776,-1.24304,169.93,9.72,3,334.16,19 / 19,2391421,2019-09-04 20:01:11:594,-0.5321,-1.6453,9.6756,-0.01,0.0842,9.8063,0.2192,0.0642,0.0183,1.56,-30.56,-11.31,212.28,-88.04,-134.53
23602,52.372776,-1.24304,169.93,9.72,3,334.16,19 / 19,2391521,2019-09-04 20:01:11:694,-0.1227,-0.8269,7.8333,-0.0015,0.0481,9.8064,0.0812,0.0923,0.0169,2.13,-30.94,-10.75,201.39,-87.3,-145.6
23603,52.372776,-1.24304,169.93,9.72,3,334.16,19 / 19,2391620,2019-09-04 20:01:11:793,0.3621,-1.0541,7.9635,-0.0012,0.0079,9.8066,-0.0032,0.0801,-0.0236,2.38,-31.37,-10.69,198.53,-86.9,-148.46
23604,52.372776,-1.24304,169.93,9.72,3,334.16,19 / 19,2391721,2019-09-04 20:01:11:894,0.4268,-1.7949,9.2599,-0.0048,-0.0209,9.8066,-0.0361,0.101,-0.0244,2.44,-31.5,-11.06,198.26,-87.02,-148.87
23605,52.372776,-1.24304,169.93,9.72,3,334.16,19 / 19,2391821,2019-09-04 20:01:11:994,0.3701,-2.0368,10.5709,-0.0073,-0.0138,9.8066,-0.0037,0.0854,-0.04,2.88,-30.69,-11.12,193.61,-87.35,-149.45
23606,52.372776,-1.24304,169.93,9.72,3,334.16,19 / 19,2391921,2019-09-04 20:01:12:094,-0.1696,-2.1585,10.8907,-0.0164,0.0072,9.8065,0.0275,0.1102,-0.016,2.63,-31.12,-11.06,190.5,-87.39,-152.97
23607,52.372776,-1.24304,169.93,9.72,3,334.16,19 / 19,2392020,2019-09-04 20:01:12:193,-0.1767,-1.7496,10.5767,0.0002,-0.0042,9.8066,-0.0363,0.0737,-0.0013,3.06,-31.81,-10.81,187.81,-87.36,-155.93
23608,52.372776,-1.24304,169.93,9.72,3,334.16,19 / 19,2392121,2019-09-04 20:01:12:294,0.2841,-2.1128,10.0308,0.0254,-0.0427,9.8064,-0.1241,0.0601,0.0184,3.44,-30.87,-11.31,192.94,-87.64,-150.38
23609,52.372776,-1.24304,169.93,9.72,3,334.16,19 / 19,2392221,2019-09-04 20:01:12:394,0.9565,-2.0554,9.4475,0.0304,-0.0433,9.8064,-0.1114,0.0856,0.0266,3.75,-30.94,-11.06,199.85,-88.03,-138.41
23610,52.372776,-1.24304,169.93,9.72,3,334.16,17 / 18,2392320,2019-09-04 20:01:12:493,0.6898,-1.5954,9.2509,0.0129,-0.0195,9.8065,-0.0247,0.0834,-0.008,4.56,-30.5,-11.81,218.31,-88.38,-116.76
23611,52.372776,-1.24304,169.93,9.72,3,334.16,17 / 18,2392421,2019-09-04 20:01:12:594,0.6158,-1.126,9.4663,-0.0053,-0.0016,9.8066,0.0276,0.0563,-0.0228,4.38,-31.37,-11.31,225.91,-88.48,-111.22
23612,52.372776,-1.24304,169.93,9.72,3,334.16,17 / 18,2392521,2019-09-04 20:01:12:694,0.1813,-0.8224,9.6441,-0.0153,0.0121,9.8065,0.0473,0.0811,-0.0316,3.69,-30.44,-11.44,219.86,-88.52,-117.74
23613,52.372776,-1.24304,169.93,9.72,3,334.16,17 / 18,2392621,2019-09-04 20:01:12:794,-0.0243,-0.5095,9.9069,-0.0163,0.0066,9.8066,0.0294,0.0825,-0.0267,4.31,-30.62,-10.94,207.67,-88.53,-130.55
23614,52.372776,-1.24304,169.93,9.72,3,334.16,17 / 18,2392721,2019-09-04 20:01:12:894,-0.1294,-0.7024,9.9379,0.0004,-0.0039,9.8066,-0.0113,0.0714,-0.0007,3.94,-30.44,-11.12,204.1,-88.57,-134.42
23615,52.372776,-1.24304,169.93,9.72,3,334.16,17 / 18,2392821,2019-09-04 20:01:12:994,0.2265,-0.6392,10.1536,0.0035,-0.01,9.8066,-0.0222,0.0821,0.0038,4.63,-30.56,-10.56,201.84,-88.62,-132.4
23616,52.372776,-1.24304,169.93,9.72,3,334.16,17 / 18,2392920,2019-09-04 20:01:13:093,0.2967,-0.7145,9.9661,-0.0005,-0.0077,9.8066,-0.0135,0.0766,-0.0006,4.19,-30.31,-10.81,211.24,-88.76,-127.13
23617,52.372776,-1.24304,169.93,9.72,3,334.16,17 / 18,2393020,2019-09-04 20:01:13:193,0.2545,-0.6453,9.8255,0.0,-0.0086,9.8066,-0.0066,0.0617,-0.0157,4.69,-30.25,-10.75,211.29,-88.87,-122.82
23618,52.372776,-1.24304,169.93,9.72,3,334.16,17 / 18,2393121,2019-09-04 20:01:13:294,-0.0263,-0.5704,9.6665,-0.0064,-0.0079,9.8066,0.0036,0.0785,-0.0071,4.88,-30.06,-10.81,212.69,-88.98,-121.5
23619,52.372776,-1.24304,169.93,9.72,3,334.16,17 / 18,2393222,2019-09-04 20:01:13:395,-0.124,-0.271,9.8521,-0.0051,-0.004,9.8066,0.0104,0.0919,-0.0036,4.94,-29.31,-9.75,209.37,-89.11,-122.93
23620,52.372776,-1.24304,169.93,9.72,3,334.16,18 / 19,2393321,2019-09-04 20:01:13:494,-0.1196,-0.184,10.0051,-0.0019,-0.0036,9.8066,0.0065,0.0771,-0.0047,5.25,-30.12,-10.44,208.0,-89.16,-124.39
23621,52.372776,-1.24304,169.93,9.72,3,334.16,18 / 19,2393421,2019-09-04 20:01:13:594,-0.1684,-0.169,9.8842,-0.0011,-0.004,9.8066,0.0082,0.0817,-0.0002,5.88,-30.12,-9.69,203.99,-89.21,-124.22
23622,52.372776,-1.24304,169.93,9.72,3,334.16,18 / 19,2393521,2019-09-04 20:01:13:694,-0.1755,-0.0051,9.8269,0.0035,-0.0068,9.8066,-0.0034,0.0744,-0.0123,5.69,-30.25,-10.31,208.26,-89.28,-119.9
23623,52.372776,-1.24304,169.93,9.72,3,334.16,18 / 19,2393620,2019-09-04 20:01:13:793,-0.1302,-0.06,9.8609,0.0037,-0.0076,9.8066,-0.0024,0.076,-0.0044,5.88,-30.31,-10.31,217.88,-89.37,-110.15
23624,52.372776,-1.24304,169.93,9.72,3,334.16,18 / 19,2393720,2019-09-04 20:01:13:893,-0.0991,-0.0383,9.9757,0.0023,-0.0084,9.8066,0.0,0.0799,-0.0011,6.06,-30.5,-9.94,226.5,-89.41,-101.43
23625,52.372776,-1.24304,169.93,9.72,3,334.16,18 / 19,2393820,2019-09-04 20:01:13:993,0.0144,-0.2362,9.9969,0.0002,-0.0089,9.8066,-0.0053,0.089,-0.0051,5.5,-30.56,-10.69,242.39,-89.47,-87.84
23626,52.372776,-1.24304,169.93,9.72,3,334.16,18 / 19,2393921,2019-09-04 20:01:14:094,0.0087,-0.2213,9.961,-0.0015,-0.0069,9.8066,-0.0019,0.0892,-0.0048,5.56,-30.0,-10.62,252.89,-89.53,-77.42
23627,52.372776,-1.24304,169.93,9.72,3,334.16,18 / 19,2394021,2019-09-04 20:01:14:194,-0.1884,0.0019,9.951,-0.0004,-0.0079,9.8066,0.0044,0.0777,-0.0125,5.19,-30.06,-9.94,265.33,-89.56,-66.92
23628,52.372776,-1.24304,169.93,9.72,3,334.16,18 / 19,2394121,2019-09-04 20:01:14:294,-0.3782,0.2213,9.9956,-0.0023,-0.0072,9.8066,0.0079,0.0795,-0.0169,5.38,-29.56,-9.81,284.17,-89.56,-48.11
23629,52.372776,-1.24304,169.93,9.72,3,334.16,18 / 19,2394220,2019-09-04 20:01:14:393,-0.1914,0.1223,9.6816,-0.0008,-0.0058,9.8066,0.0016,0.0938,-0.0009,6.0,-30.19,-9.69,295.96,-89.56,-32.06
23630,52.372776,-1.24304,169.93,9.72,3,334.16,18 / 18,2394321,2019-09-04 20:01:14:494,-0.198,0.1399,9.9835,-0.0015,-0.0089,9.8066,0.0035,0.0896,-0.0102,6.19,-30.0,-9.5,302.56,-89.51,-22.6
23631,52.372776,-1.24304,169.93,9.72,3,334.16,18 / 18,2394420,2019-09-04 20:01:14:593,-0.3916,0.1875,9.9734,0.0004,-0.0068,9.8066,0.008,0.0864,-0.0018,6.94,-30.06,-9.56,310.54,-89.46,-13.46
23632,52.372776,-1.24304,169.93,9.72,3,334.16,18 / 18,2394520,2019-09-04 20:01:14:693,-0.6356,0.4475,9.941,-0.005,-0.0031,9.8066,0.0186,0.1132,0.0073,7.31,-30.12,-8.94,313.85,-89.43,-7.19
23633,52.372776,-1.24304,169.93,9.72,3,334.16,18 / 18,2394621,2019-09-04 20:01:14:794,-0.9134,0.8229,9.8902,-0.0057,0.0021,9.8066,0.0252,0.1136,-0.0105,8.0,-29.62,-8.94,319.08,-89.5,1.53
23634,52.372776,-1.24304,169.93,9.72,3,334.16,18 / 18,2394720,2019-09-04 20:01:14:893,-0.9352,1.1008,10.016,-0.0056,0.0004,9.8066,0.03,0.1149,-0.0167,8.13,-29.87,-8.69,319.08,-89.5,1.53
23635,52.372776,-1.24304,169.93,9.72,3,334.16,18 / 18,2394820,2019-09-04 20:01:14:993,-1.3982,1.1879,9.8552,-0.0402,-0.0145,9.8065,0.0078,0.1483,-0.02,7.0,-29.44,-8.62,332.74,-89.54,11.15
23636,52.372776,-1.24304,169.93,9.72,3,334.16,18 / 18,2394921,2019-09-04 20:01:15:094,-1.7957,0.8668,9.5803,-0.0099,-0.0073,9.8066,0.0073,0.1627,-0.0297,8.13,-29.69,-8.44,3.63,-89.47,48.54
23637,52.372776,-1.24304,169.93,9.72,3,334.16,18 / 18,2395020,2019-09-04 20:01:15:193,-1.6708,0.6716,9.3319,-0.011,-0.0072,9.8065,0.0077,0.195,-0.0187,7.38,-29.62,-8.44,22.95,-89.29,63.35
23638,52.372776,-1.24304,169.93,9.72,3,334.16,18 / 18,2395121,2019-09-04 20:01:15:294,-2.5212,0.927,10.1142,-0.0063,-0.0052,9.8066,-0.0045,0.2029,-0.0093,7.75,-30.06,-7.5,21.53,-89.13,69.44
23639,52.372776,-1.24304,169.93,9.72,3,334.16,18 / 18,2395220,2019-09-04 20:01:15:393,-2.039,0.3618,9.4394,-0.0038,-0.0027,9.8066,-0.0096,0.2487,-0.0128,8.06,-29.94,-7.12,23.0,-89.07,70.78
23640,52.373177,-1.243343,169.48,2.85,3,315.41,19 / 19,2395320,2019-09-04 20:01:15:493,-1.559,-0.1577,9.8003,0.006,-0.0121,9.8066,-0.0377,0.2797,-0.0114,8.38,-29.5,-6.31,17.21,-88.99,69.48
23641,52.373177,-1.243343,169.48,2.85,3,315.41,19 / 19,2395421,2019-09-04 20:01:15:594,-1.2431,-0.3809,10.1488,0.0069,-0.0173,9.8066,-0.039,0.3084,-0.0153,9.13,-29.19,-5.81,7.24,-88.86,63.16
23642,52.373177,-1.243343,169.48,2.85,3,315.41,19 / 19,2395520,2019-09-04 20:01:15:693,-0.9988,-1.0852,10.3144,-0.0012,-0.0157,9.8066,-0.0135,0.3359,-0.0304,9.56,-29.12,-6.19,359.28,-88.55,58.36
23643,52.373177,-1.243343,169.48,2.85,3,315.41,19 / 19,2395621,2019-09-04 20:01:15:794,-0.9777,-1.1874,10.3067,-0.0054,-0.0119,9.8066,0.0,0.3674,-0.0305,10.13,-29.12,-5.31,356.97,-88.3,60.63
23644,52.373177,-1.243343,169.48,2.85,3,315.41,19 / 19,2395720,2019-09-04 20:01:15:893,-1.2308,-1.114,9.8276,-0.0103,-0.0068,9.8066,0.0048,0.4045,-0.0253,9.94,-29.75,-5.06,1.29,-88.18,64.62
23645,52.373177,-1.243343,169.48,2.85,3,315.41,19 / 19,2395820,2019-09-04 20:01:15:993,-0.9738,-1.2439,10.1916,-0.0127,-0.0098,9.8066,0.0039,0.4309,-0.0102,10.56,-29.19,-4.5,0.19,-88.03,70.19
23646,52.373177,-1.243343,169.48,2.85,3,315.41,19 / 19,2395920,2019-09-04 20:01:16:093,-1.0237,-1.2682,10.187,-0.0089,-0.0057,9.8066,0.0132,0.4679,-0.0073,10.69,-29.69,-3.94,3.05,-87.96,72.79
23647,52.373177,-1.243343,169.48,2.85,3,315.41,19 / 19,2396020,2019-09-04 20:01:16:193,-0.9444,-1.0546,9.8287,-0.0149,-0.0056,9.8066,0.0125,0.486,-0.0237,12.25,-29.62,-4.19,5.13,-87.89,76.25
23648,52.373177,-1.243343,169.48,2.85,3,315.41,19 / 19,2396120,2019-09-04 20:01:16:293,-1.1517,-1.0625,9.9525,-0.0187,-0.0082,9.8065,0.0142,0.4711,-0.0537,13.0,-29.69,-3.0,6.96,-87.71,83.34
23649,52.373177,-1.243343,169.48,2.85,3,315.41,19 / 19,2396220,2019-09-04 20:01:16:393,-0.9581,-1.4146,9.7742,-0.0114,-0.0176,9.8065,0.0043,0.5118,-0.0343,12.63,-29.44,-1.94,7.17,-87.43,87.71
23650,52.373177,-1.243343,169.48,2.85,3,315.41,18 / 18,2396320,2019-09-04 20:01:16:493,-0.9,-1.9935,10.2326,-0.0184,-0.0119,9.8066,0.0099,0.5327,0.0026,13.0,-29.62,-0.37,1.34,-87.21,91.19
23651,52.373177,-1.243343,169.48,2.85,3,315.41,18 / 18,2396421,2019-09-04 20:01:16:594,-0.7725,-1.613,9.6224,-0.0118,0.003,9.8066,-0.007,0.5174,0.0105,13.31,-29.44,0.38,5.57,-87.14,94.94
23652,52.373177,-1.243343,169.48,2.85,3,315.41,18 / 18,2396520,2019-09-04 20:01:16:693,-0.5373,-1.5406,9.4772,-0.0051,-0.0032,9.8066,-0.0217,0.5731,0.0324,13.88,-30.06,0.88,3.59,-87.16,97.29
23653,52.373177,-1.243343,169.48,2.85,3,315.41,18 / 18,2396621,2019-09-04 20:01:16:794,-0.7442,-1.7836,9.4835,-0.0049,0.0056,9.8066,-0.0157,0.5462,0.0119,13.31,-30.06,1.88,0.17,-87.2,98.9
23654,52.373177,-1.243343,169.48,2.85,3,315.41,18 / 18,2396720,2019-09-04 20:01:16:893,-0.5817,-1.8912,9.823,-0.0039,0.0025,9.8066,-0.0288,0.5561,0.0052,13.44,-30.31,2.75,357.0,-87.21,100.32
23655,52.373177,-1.243343,169.48,2.85,3,315.41,18 / 18,2396820,2019-09-04 20:01:16:993,0.1222,-1.1536,9.3364,-0.0016,-0.0127,9.8066,0.0024,0.5688,-0.0641,14.0,-29.75,4.5,350.57,-87.14,101.18
23656,52.373177,-1.243343,169.48,2.85,3,315.41,18 / 18,2396920,2019-09-04 20:01:17:093,-0.2736,-2.333,9.5669,-0.0116,-0.0297,9.8065,0.0368,0.5617,-0.1051,14.38,-29.94,4.88,352.77,-86.8,103.24
23657,52.373177,-1.243343,169.48,2.85,3,315.41,18 / 18,2397021,2019-09-04 20:01:17:194,-0.5535,-2.3253,10.1434,-0.0126,-0.0307,9.8065,0.0224,0.5654,-0.0678,14.81,-30.37,6.25,354.08,-86.5,106.56
23658,52.373177,-1.243343,169.48,2.85,3,315.41,18 / 18,2397121,2019-09-04 20:01:17:294,0.0849,-2.5797,10.126,-0.0145,-0.005,9.8066,-0.0031,0.5531,-0.0017,13.38,-29.31,7.69,347.22,-86.15,110.47
23659,52.373177,-1.243343,169.48,2.85,3,315.41,18 / 18,2397223,2019-09-04 20:01:17:396,-0.6921,-2.794,9.8175,-0.0125,0.0007,9.8066,-0.0052,0.5483,-0.0034,14.06,-29.12,8.31,353.97,-86.25,114.44
23660,52.373177,-1.243343,169.48,2.85,3,315.41,18 / 18,2397323,2019-09-04 20:01:17:496,-0.7639,-1.9797,9.939,-0.0196,0.0014,9.8066,0.0078,0.5401,0.0121,13.75,-30.31,9.5,350.18,-86.26,116.85
23661,52.373177,-1.243343,169.48,2.85,3,315.41,18 / 18,2397421,2019-09-04 20:01:17:594,-0.6093,-1.1102,9.0219,-0.0149,-0.0119,9.8066,0.0117,0.5085,-0.0079,13.06,-30.12,9.63,351.97,-86.3,120.5
23662,52.373177,-1.243343,169.48,2.85,3,315.41,18 / 18,2397520,2019-09-04 20:01:17:693,-0.6459,-1.3434,9.8369,0.0017,-0.0052,9.8066,-0.034,0.4185,-0.0774,13.31,-29.87,10.69,352.75,-86.18,123.85
23663,52.373177,-1.243343,169.48,2.85,3,315.41,18 / 18,2397620,2019-09-04 20:01:17:793,0.2684,-1.0147,10.1091,0.0082,-0.0013,9.8066,-0.0383,0.4376,0.0123,13.13,-29.31,11.5,348.44,-86.13,122.44
23664,52.373177,-1.243343,169.48,2.85,3,315.41,18 / 18,2397720,2019-09-04 20:01:17:893,0.0235,-1.5989,9.8971,-0.0097,-0.0093,9.8066,0.0273,0.3444,-0.0821,12.44,-30.25,12.0,345.65,-86.15,122.37
23665,52.373177,-1.243343,169.48,2.85,3,315.41,18 / 18,2397820,2019-09-04 20:01:17:993,-0.4661,-1.7721,9.2011,0.0,-0.0245,9.8066,0.025,0.3988,-0.0471,12.25,-30.0,12.63,345.32,-85.87,124.42
23666,52.373177,-1.243343,169.48,2.85,3,315.41,18 / 18,2397921,2019-09-04 20:01:18:094,0.1483,-1.8479,10.0547,-0.0212,-0.0074,9.8066,0.018,0.2673,-0.1127,12.13,-30.0,13.0,346.42,-85.63,125.48
23667,52.373177,-1.243343,169.48,2.85,3,315.41,18 / 18,2398020,2019-09-04 20:01:18:193,0.6743,-2.1856,10.2792,-0.0067,-0.0093,9.8066,-0.0279,0.4157,0.1179,12.06,-30.19,13.88,347.05,-85.5,128.13
23668,52.373177,-1.243343,169.48,2.85,3,315.41,18 / 18,2398120,2019-09-04 20:01:18:293,0.7486,-2.1463,10.5191,-0.0202,0.0075,9.8065,0.0397,0.1985,-0.0571,10.63,-29.5,14.31,347.05,-85.61,130.53
23669,52.373177,-1.243343,169.48,2.85,3,315.41,18 / 18,2398221,2019-09-04 20:01:18:394,-0.0534,-2.0398,9.9151,-0.0227,-0.0103,9.8065,0.0228,0.293,0.0927,10.19,-30.06,15.06,346.47,-85.72,134.49
23670,52.373177,-1.243343,169.48,2.85,3,315.41,18 / 18,2398321,2019-09-04 20:01:18:494,-1.5604,-1.9449,7.4883,-0.0197,0.0064,9.8066,-0.0721,0.2067,0.0748,9.88,-30.37,15.94,351.69,-85.77,140.68
23671,52.373177,-1.243343,169.48,2.85,3,315.41,18 / 18,2398420,2019-09-04 20:01:18:593,-2.0162,-0.7909,8.4004,0.017,0.0349,9.8065,-0.1784,0.121,0.0074,8.5,-30.62,15.38,351.59,-86.21,141.62
23672,52.373177,-1.243343,169.48,2.85,3,315.41,18 / 18,2398520,2019-09-04 20:01:18:693,-1.2341,0.0676,11.3953,0.0113,0.0768,9.8063,-0.1704,0.1141,0.0265,8.63,-30.69,15.06,338.67,-87.3,129.47
23673,52.373177,-1.243343,169.48,2.85,3,315.41,18 / 18,2398620,2019-09-04 20:01:18:793,0.5989,0.32,13.0306,0.0035,0.0177,9.8066,-0.0218,0.0607,-0.0291,9.19,-30.25,14.63,324.36,-87.5,115.92
23674,52.373177,-1.243343,169.48,2.85,3,315.41,18 / 18,2398721,2019-09-04 20:01:18:894,-0.2279,-0.5296,10.3378,-0.0374,-0.0613,9.8064,0.2988,0.033,-0.01,8.38,-31.0,16.63,328.75,-87.35,125.85
23675,52.373177,-1.243343,169.48,2.85,3,315.41,18 / 18,2398820,2019-09-04 20:01:18:993,-1.5872,-1.505,8.5013,-0.0607,-0.1143,9.8058,0.3328,0.0212,-0.0067,9.06,-29.75,17.63,350.94,-86.41,145.23
23676,52.373177,-1.243343,169.48,2.85,3,315.41,18 / 18,2398920,2019-09-04 20:01:19:093,-2.4576,-2.7299,8.856,-0.0339,-0.0564,9.8064,0.0046,0.0331,0.0431,8.38,-30.56,18.63,358.92,-85.23,156.23
23677,52.373177,-1.243343,169.48,2.85,3,315.41,18 / 18,2399020,2019-09-04 20:01:19:193,-1.0822,-1.0397,9.9527,0.012,0.0217,9.8065,-0.1525,-0.0351,-0.0214,8.31,-30.37,18.44,3.17,-84.95,158.77
23678,52.373177,-1.243343,169.48,2.85,3,315.41,18 / 18,2399120,2019-09-04 20:01:19:293,-1.3312,0.3363,10.1369,0.017,0.0592,9.8064,-0.1062,0.0525,0.0492,9.38,-30.5,18.0,0.92,-85.95,154.26
23679,52.373177,-1.243343,169.48,2.85,3,315.41,18 / 18,2399220,2019-09-04 20:01:19:393,-1.113,-0.0006,10.2866,0.0088,-0.0092,9.8066,0.0202,-0.0135,-0.0326,8.56,-30.12,17.44,359.04,-86.23,151.24
23680,52.373177,-1.243343,169.48,2.85,3,315.41,18 / 19,2399320,2019-09-04 20:01:19:493,-0.71,-0.5171,9.6382,-0.0079,-0.0208,9.8065,0.0599,0.0188,0.0229,9.5,-30.06,17.81,0.24,-85.94,151.16
23681,52.373177,-1.243343,169.48,2.85,3,315.41,18 / 19,2399421,2019-09-04 20:01:19:594,-1.186,-1.1246,9.9608,-0.0077,-0.0172,9.8066,0.0411,-0.0231,-0.0156,8.88,-30.5,18.31,359.43,-85.67,152.93
23682,52.373177,-1.243343,169.48,2.85,3,315.41,18 / 19,2399520,2019-09-04 20:01:19:693,-1.0383,-0.7028,10.2128,-0.0067,-0.0048,9.8066,-0.0108,-0.0077,0.0149,8.88,-30.12,18.0,0.74,-85.51,154.09
23683,52.373177,-1.243343,169.48,2.85,3,315.41,18 / 19,2399621,2019-09-04 20:01:19:794,-1.4253,-0.6961,10.2447,-0.0008,0.0037,9.8066,-0.02,0.0222,0.0415,9.13,-29.81,18.44,2.48,-85.54,155.62
23684,52.373177,-1.243343,169.48,2.85,3,315.41,18 / 19,2399720,2019-09-04 20:01:19:893,-0.4553,-0.3752,9.8199,0.0048,-0.0002,9.8066,-0.0049,-0.0567,-0.0304,9.63,-29.94,18.56,3.23,-85.58,155.11
23685,52.373177,-1.243343,169.48,2.85,3,315.41,18 / 19,2399821,2019-09-04 20:01:19:994,-0.7754,-0.6833,9.6695,-0.007,0.0116,9.8066,-0.0286,0.0202,0.0566,10.5,-29.44,17.69,8.37,-85.64,156.05
23686,52.373177,-1.243343,169.48,2.85,3,315.41,18 / 19,2399921,2019-09-04 20:01:20:094,-1.0967,-0.0648,9.6606,0.0047,0.0063,9.8066,-0.0127,-0.0642,-0.0171,9.75,-30.31,17.44,7.79,-85.78,156.43
23687,52.373177,-1.243343,169.48,2.85,3,315.41,18 / 19,2400020,2019-09-04 20:01:20:193,-1.1604,-0.2357,10.2619,-0.011,0.0108,9.8066,-0.0175,-0.0344,0.0502,9.81,-30.12,16.5,9.4,-85.9,157.89
23688,52.373177,-1.243343,169.48,2.85,3,315.41,18 / 19,2400121,2019-09-04 20:01:20:294,-0.9853,0.2738,9.4998,-0.0097,0.0119,9.8066,0.0016,-0.0442,0.0191,9.75,-30.06,17.13,10.76,-85.97,159.13
23689,52.373177,-1.243343,169.48,2.85,3,315.41,18 / 19,2400220,2019-09-04 20:01:20:393,-1.9849,0.2085,9.5367,-0.0083,0.0042,9.8066,-0.0025,-0.0627,0.0135,9.19,-30.19,16.63,10.42,-86.05,161.38
23690,52.373177,-1.243343,169.48,2.85,3,315.41,17 / 18,2400320,2019-09-04 20:01:20:493,-1.8281,0.1831,9.0505,0.0019,-0.0007,9.8066,-0.0214,-0.0869,0.0111,7.88,-30.37,17.06,8.61,-86.08,162.45
23691,52.373177,-1.243343,169.48,2.85,3,315.41,17 / 18,2400421,2019-09-04 20:01:20:594,-1.654,0.2337,9.6074,-0.0007,0.0053,9.8066,-0.0261,-0.1206,0.0257,8.06,-30.5,16.38,10.31,-86.14,162.56
23692,52.373177,-1.243343,169.48,2.85,3,315.41,17 / 18,2400521,2019-09-04 20:01:20:694,-1.441,1.1368,9.7424,0.0032,0.0159,9.8066,-0.0464,-0.1356,0.0099,8.19,-30.31,16.38,13.09,-86.44,165.15
23693,52.373177,-1.243343,169.48,2.85,3,315.41,17 / 18,2400620,2019-09-04 20:01:20:793,-2.0273,0.8362,9.6584,0.007,0.0083,9.8066,-0.0181,-0.1423,-0.0019,9.0,-30.37,15.69,16.2,-86.6,165.26
23694,52.373177,-1.243343,169.48,2.85,3,315.41,17 / 18,2400721,2019-09-04 20:01:20:894,-1.7027,0.5152,10.3994,0.0062,-0.01,9.8066,0.0203,-0.1355,-0.0082,8.69,-30.69,16.56,12.97,-86.62,163.83
23695,52.373177,-1.243343,169.48,2.85,3,315.41,17 / 18,2400820,2019-09-04 20:01:20:993,-0.5106,1.393,10.3799,-0.0091,-0.0085,9.8066,0.0179,-0.0882,0.064,9.56,-30.69,16.06,17.11,-86.43,163.35
23696,52.373177,-1.243343,169.48,2.85,3,315.41,17 / 18,2400920,2019-09-04 20:01:21:093,-2.5685,0.7914,10.0581,-0.0009,-0.0172,9.8066,0.0145,-0.1165,0.0143,9.0,-30.94,16.38,14.0,-86.17,163.05
23697,52.373177,-1.243343,169.48,2.85,3,315.41,17 / 18,2401020,2019-09-04 20:01:21:193,-1.8847,1.1033,9.7085,0.0104,-0.0064,9.8066,-0.0127,-0.1109,0.0051,9.94,-31.0,15.75,16.93,-86.15,163.05
23698,52.373177,-1.243343,169.48,2.85,3,315.41,17 / 18,2401120,2019-09-04 20:01:21:293,-1.6827,0.6461,9.2612,0.0136,0.0047,9.8066,-0.0449,-0.1545,-0.0271,9.25,-31.0,15.06,11.95,-86.16,159.56
23699,52.373177,-1.243343,169.48,2.85,3,315.41,17 / 18,2401221,2019-09-04 20:01:21:394,-1.9875,0.6327,9.5909,0.0061,0.0095,9.8066,-0.0275,-0.1562,-0.0037,9.88,-30.5,15.19,13.88,-86.28,158.68
23700,52.373177,-1.243343,169.48,2.85,3,315.41,16 / 18,2401321,2019-09-04 20:01:21:494,-1.1139,-0.6937,8.9877,0.0221,-0.0097,9.8065,-0.0138,-0.176,-0.0659,10.06,-30.81,14.56,13.57,-86.41,158.4
23701,52.373177,-1.243343,169.48,2.85,3,315.41,16 / 18,2401421,2019-09-04 20:01:21:594,-0.3024,-0.2528,11.0732,0.0008,0.004,9.8066,-0.0262,0.0029,0.08,10.75,-31.06,14.13,14.73,-86.47,154.99
23702,52.373177,-1.243343,169.48,2.85,3,315.41,16 / 18,2401520,2019-09-04 20:01:21:693,-1.6974,0.0573,11.3426,-0.0072,-0.0282,9.8066,0.0962,-0.1781,-0.1349,10.44,-30.94,14.44,12.3,-86.28,155.31
23703,52.373177,-1.243343,169.48,2.85,3,315.41,16 / 18,2401621,2019-09-04 20:01:21:794,-1.6739,-0.0782,10.7529,-0.0267,-0.0348,9.8065,0.0941,0.0036,0.0778,10.81,-30.31,14.69,15.65,-85.91,157.58
23704,52.373177,-1.243343,169.48,2.85,3,315.41,16 / 18,2401720,2019-09-04 20:01:21:893,-2.2402,-0.178,8.9167,-0.001,-0.0112,9.8066,-0.032,-0.1248,-0.0159,11.38,-30.31,14.31,18.27,-85.41,157.63
23705,52.373177,-1.243343,169.48,2.85,3,315.41,16 / 18,2401820,2019-09-04 20:01:21:993,-0.9285,0.7704,9.6862,0.0241,0.0048,9.8065,-0.0614,-0.0587,-0.0203,10.88,-30.75,14.31,15.88,-85.5,155.54
23706,52.373177,-1.243343,169.48,2.85,3,315.41,16 / 18,2401921,2019-09-04 20:01:22:094,-1.0061,0.934,10.0289,0.0337,-0.0048,9.8066,-0.0172,-0.0877,-0.0538,12.0,-30.06,14.0,14.4,-85.67,152.01
23707,52.373177,-1.243343,169.48,2.85,3,315.41,16 / 18,2402021,2019-09-04 20:01:22:194,-1.3747,0.7801,10.4761,0.0081,-0.0057,9.8066,0.0054,-0.13,-0.0732,11.19,-30.44,14.06,5.48,-85.65,146.6
23708,52.373177,-1.243343,169.48,2.85,3,315.41,16 / 18,2402121,2019-09-04 20:01:22:294,-1.0942,0.2694,10.3961,-0.0011,-0.0012,9.8066,0.0,-0.0754,0.0259,11.94,-31.12,13.56,7.05,-85.57,145.51
23709,52.373177,-1.243343,169.48,2.85,3,315.41,16 / 18,2402221,2019-09-04 20:01:22:394,-0.6355,0.3662,8.9633,-0.0018,0.0152,9.8066,-0.029,-0.0804,0.0315,11.31,-30.31,13.06,7.17,-85.68,145.97
23710,52.373177,-1.243343,169.48,2.85,3,315.41,17 / 18,2402320,2019-09-04 20:01:22:493,-0.8075,0.6696,9.8218,0.0019,0.0114,9.8066,-0.0108,-0.1128,0.0034,11.38,-30.25,13.25,8.73,-85.89,147.37
23711,52.373177,-1.243343,169.48,2.85,3,315.41,17 / 18,2402421,2019-09-04 20:01:22:594,-0.682,0.4596,8.5543,-0.0147,0.0098,9.8066,0.0052,-0.0963,0.0353,11.44,-30.37,12.81,11.32,-86.1,149.71
23712,52.373177,-1.243343,169.48,2.85,3,315.41,17 / 18,2402520,2019-09-04 20:01:22:693,-2.5775,1.7164,10.192,-0.0299,0.0393,9.8065,-0.0434,-0.0247,0.164,11.13,-30.62,12.69,19.84,-86.43,157.36
23713,52.373177,-1.243343,169.48,2.85,3,315.41,17 / 18,2402620,2019-09-04 20:01:22:793,-1.9743,1.2341,10.3761,-0.0018,0.0216,9.8066,-0.0202,-0.1326,-0.0069,11.19,-30.81,12.19,27.44,-86.7,162.0
23714,52.373177,-1.243343,169.48,2.85,3,315.41,17 / 18,2402720,2019-09-04 20:01:22:893,-2.0242,0.9716,10.3841,-0.0105,0.0071,9.8066,0.0482,-0.14,-0.0213,10.81,-30.69,12.25,31.19,-86.88,165.57
23715,52.373177,-1.243343,169.48,2.85,3,315.41,17 / 18,2402820,2019-09-04 20:01:22:993,-1.9396,1.2994,9.4642,-0.0187,-0.0175,9.8066,0.0702,-0.1112,-0.0271,10.63,-30.69,12.0,33.83,-86.67,167.75
23716,52.373177,-1.243343,169.48,2.85,3,315.41,17 / 18,2402920,2019-09-04 20:01:23:093,-1.577,0.1424,9.9916,-0.0087,-0.0172,9.8065,0.0267,-0.1022,-0.0334,11.0,-30.94,12.69,32.95,-86.37,169.07
23717,52.373177,-1.243343,169.48,2.85,3,315.41,17 / 18,2403020,2019-09-04 20:01:23:193,-1.5652,0.6691,9.7019,-0.0028,0.0,9.8066,-0.0283,-0.0432,0.0294,10.31,-30.69,12.19,32.51,-86.17,168.56
23718,52.373177,-1.243343,169.48,2.85,3,315.41,17 / 18,2403120,2019-09-04 20:01:23:293,-1.2138,0.8108,10.0414,0.0101,0.0043,9.8066,-0.0254,-0.0981,-0.016,11.13,-31.06,11.88,33.95,-86.31,167.46
23719,52.373177,-1.243343,169.48,2.85,3,315.41,17 / 18,2403220,2019-09-04 20:01:23:393,-0.5127,0.0504,8.7313,0.0037,0.0083,9.8065,-0.0379,-0.0008,0.0785,10.88,-30.5,11.63,33.55,-86.42,167.34
23720,52.373177,-1.243343,169.48,2.85,3,315.41,16 / 17,2403320,2019-09-04 20:01:23:493,-0.4853,0.2264,9.8789,-0.0021,-0.0038,9.8066,0.0366,-0.116,-0.0675,11.13,-31.0,11.75,34.99,-86.43,168.53
23721,52.373177,-1.243343,169.48,2.85,3,315.41,16 / 17,2403420,2019-09-04 20:01:23:593,-0.9132,0.6611,9.8211,-0.017,-0.0005,9.8066,0.0294,-0.0161,0.0343,11.5,-30.81,11.69,39.33,-86.32,170.0
23722,52.373177,-1.243343,169.48,2.85,3,315.41,16 / 17,2403520,2019-09-04 20:01:23:693,-1.7661,1.1688,10.0567,-0.0058,-0.0146,9.8066,-0.0155,0.0056,0.067,10.94,-30.87,11.25,41.28,-86.16,171.16
23723,52.373177,-1.243343,169.48,2.85,3,315.41,16 / 17,2403621,2019-09-04 20:01:23:794,-1.1893,0.7557,9.6981,0.0009,-0.0014,9.8066,-0.0184,-0.0322,0.0154,11.63,-31.31,11.56,42.66,-86.11,172.77
23724,52.373177,-1.243343,169.48,2.85,3,315.41,16 / 17,2403720,2019-09-04 20:01:23:893,-1.0286,0.4748,9.8036,0.0063,0.0082,9.8066,-0.0508,-0.0229,0.035,11.19,-31.25,11.88,39.83,-86.24,172.67
23725,52.373177,-1.243343,169.48,2.85,3,315.41,16 / 17,2403821,2019-09-04 20:01:23:994,-1.0672,1.263,9.532,0.0163,0.0094,9.8066,-0.0555,-0.0347,-0.0068,10.69,-30.62,11.31,43.39,-86.43,173.45
23726,52.373177,-1.243343,169.48,2.85,3,315.41,16 / 17,2403920,2019-09-04 20:01:24:093,-0.0962,-0.0383,9.1601,0.0125,0.0144,9.8065,-0.0596,0.0124,0.0709,11.44,-31.56,11.06,41.54,-86.74,172.05
23727,52.373177,-1.243343,169.48,2.85,3,315.41,16 / 17,2404021,2019-09-04 20:01:24:194,-0.8273,1.0048,8.8938,0.0124,0.0146,9.8066,-0.0554,-0.0343,-0.0047,10.75,-31.44,10.63,44.21,-86.98,174.98
23728,52.373177,-1.243343,169.48,2.85,3,315.41,16 / 17,2404121,2019-09-04 20:01:24:294,-0.0826,1.0082,8.9853,0.0091,0.012,9.8066,-0.0126,0.0451,0.0941,10.94,-31.37,10.88,44.77,-87.22,175.84
23729,52.373177,-1.243343,169.48,2.85,3,315.41,16 / 17,2404220,2019-09-04 20:01:24:393,0.5636,0.6933,10.1841,-0.0033,-0.0174,9.8066,0.0637,0.0098,0.0128,11.25,-31.44,10.56,47.01,-87.24,177.96
23730,52.37295,-1.244207,169.13,11.58,3,252.96,17 / 19,2404320,2019-09-04 20:01:24:493,-0.9108,-0.2686,9.7094,-0.0141,0.0013,9.8066,0.0368,-0.062,-0.0277,10.63,-30.94,11.19,48.07,-86.91,178.44
23731,52.37295,-1.244207,169.13,11.58,3,252.96,17 / 19,2404420,2019-09-04 20:01:24:593,-0.1443,0.6073,8.9418,0.0007,0.0228,9.8066,-0.0566,-0.0471,-0.0166,10.44,-31.56,11.19,49.55,-86.74,-178.12
23732,52.37295,-1.244207,169.13,11.58,3,252.96,17 / 19,2404521,2019-09-04 20:01:24:694,-0.6888,1.5612,9.1171,0.0229,0.0168,9.8066,-0.073,-0.0803,-0.0849,11.06,-30.94,10.81,53.74,-87.14,-175.9
23733,52.37295,-1.244207,169.13,11.58,3,252.96,17 / 19,2404621,2019-09-04 20:01:24:794,1.3161,-0.5854,9.1631,-0.0121,0.0427,9.8065,-0.0258,0.0158,0.1598,11.0,-31.31,11.06,52.62,-87.43,-176.48
23734,52.37295,-1.244207,169.13,11.58,3,252.96,17 / 19,2404721,2019-09-04 20:01:24:894,-2.7186,3.2018,13.3796,-0.0346,0.0199,9.8065,0.0964,-0.1689,-0.1889,11.56,-30.69,10.38,69.35,-87.49,-165.54
23735,52.37295,-1.244207,169.13,11.58,3,252.96,17 / 19,2404820,2019-09-04 20:01:24:993,0.2371,-0.7119,10.9885,-0.0222,-0.0513,9.8064,0.1133,0.0702,0.0697,12.25,-30.62,10.56,62.27,-86.98,-170.36
23736,52.37295,-1.244207,169.13,11.58,3,252.96,17 / 19,2404920,2019-09-04 20:01:25:093,-0.5955,-0.0634,9.2481,-0.0175,-0.0389,9.8065,0.0444,0.0182,-0.0311,12.06,-29.87,10.81,55.49,-86.21,-177.84
23737,52.37295,-1.244207,169.13,11.58,3,252.96,17 / 19,2405020,2019-09-04 20:01:25:193,-0.8945,0.3538,9.5944,0.0266,-0.0152,9.8065,-0.0784,-0.0208,-0.0526,12.63,-30.69,9.69,57.59,-86.16,178.96
23738,52.37295,-1.244207,169.13,11.58,3,252.96,17 / 19,2405121,2019-09-04 20:01:25:294,-0.0835,0.4146,9.1777,0.0338,0.0002,9.8066,-0.0743,-0.0083,-0.0056,11.75,-31.0,9.44,51.66,-86.58,172.92
23739,52.37295,-1.244207,169.13,11.58,3,252.96,17 / 19,2405220,2019-09-04 20:01:25:393,0.0236,0.7255,9.5458,0.0313,0.0065,9.8065,-0.0215,-0.0221,0.0019,10.56,-31.19,9.56,42.24,-86.89,170.1
23740,52.37295,-1.244207,169.13,11.58,3,252.96,17 / 18,2405321,2019-09-04 20:01:25:494,-0.1365,0.8784,9.8635,-0.0042,0.0031,9.8066,0.0345,-0.0474,0.0037,11.13,-31.19,9.5,41.9,-87.01,169.96
23741,52.37295,-1.244207,169.13,11.58,3,252.96,17 / 18,2405420,2019-09-04 20:01:25:593,-0.4432,0.4828,9.9739,-0.0089,-0.0118,9.8066,0.0384,-0.031,-0.0017,11.25,-31.19,9.44,47.21,-86.85,171.4
23742,52.37295,-1.244207,169.13,11.58,3,252.96,17 / 18,2405521,2019-09-04 20:01:25:694,-0.6322,0.4991,10.0302,-0.0071,0.0003,9.8066,0.0226,-0.0413,-0.0086,10.75,-31.19,9.69,45.61,-86.65,172.83
23743,52.37295,-1.244207,169.13,11.58,3,252.96,17 / 18,2405621,2019-09-04 20:01:25:794,-0.5647,0.523,9.6122,0.003,0.0115,9.8066,-0.0392,-0.0124,0.0273,10.88,-31.37,9.94,46.95,-86.67,174.1
23744,52.37295,-1.244207,169.13,11.58,3,252.96,17 / 18,2405721,2019-09-04 20:01:25:894,-0.2638,0.5712,9.7208,0.0062,0.0236,9.8066,-0.0328,-0.0488,0.0033,11.25,-31.31,9.63,49.61,-86.95,176.98
23745,52.37295,-1.244207,169.13,11.58,3,252.96,17 / 18,2405821,2019-09-04 20:01:25:994,-0.2111,1.2206,9.7671,-0.005,0.0105,9.8066,0.0004,-0.0054,0.0585,10.44,-31.31,9.31,54.2,-87.12,-179.23
23746,52.37295,-1.244207,169.13,11.58,3,252.96,17 / 18,2405920,2019-09-04 20:01:26:093,-0.5598,0.7864,10.4013,-0.0168,0.0168,9.8065,0.0304,-0.0415,0.0279,10.63,-31.0,9.38,60.33,-87.12,-175.89
23747,52.37295,-1.244207,169.13,11.58,3,252.96,17 / 18,2406020,2019-09-04 20:01:26:193,-1.1234,0.5219,9.9049,-0.0136,0.0052,9.8066,0.0162,-0.034,-0.0077,11.25,-31.75,9.44,67.46,-86.93,-169.69
23748,52.37295,-1.244207,169.13,11.58,3,252.96,17 / 18,2406120,2019-09-04 20:01:26:293,-0.522,0.3755,10.0863,0.0039,0.012,9.8066,-0.0342,-0.0113,0.0304,10.69,-31.25,9.44,70.15,-86.9,-166.96
23749,52.37295,-1.244207,169.13,11.58,3,252.96,17 / 18,2406221,2019-09-04 20:01:26:394,-0.1235,0.5096,9.5454,0.0115,0.0174,9.8066,-0.0259,-0.0255,-0.0222,10.69,-31.5,9.56,69.11,-87.06,-164.38
23750,52.37295,-1.244207,169.13,11.58,3,252.96,17 / 18,2406320,2019-09-04 20:01:26:493,0.0382,0.9919,10.3221,0.0025,0.0028,9.8066,0.0106,-0.023,-0.0035,11.13,-31.75,9.44,74.63,-87.2,-162.2
23751,52.37295,-1.244207,169.13,11.58,3,252.96,17 / 18,2406420,2019-09-04 20:01:26:593,0.3973,0.8073,10.1916,-0.014,-0.0143,9.8066,0.0596,-0.018,-0.0206,10.5,-31.37,9.25,73.59,-87.11,-163.2
23752,52.37295,-1.244207,169.13,11.58,3,252.96,17 / 18,2406521,2019-09-04 20:01:26:694,0.0101,0.1839,9.7187,-0.0181,-0.0093,9.8066,0.0432,-0.0045,-0.0048,11.13,-31.31,9.56,68.05,-86.87,-165.77
23753,52.37295,-1.244207,169.13,11.58,3,252.96,17 / 18,2406621,2019-09-04 20:01:26:794,0.0949,0.9955,9.9674,0.0033,-0.0156,9.8065,0.0067,-0.0229,-0.0856,11.06,-31.12,9.88,67.13,-86.64,-167.11
23754,52.37295,-1.244207,169.13,11.58,3,252.96,17 / 18,2406721,2019-09-04 20:01:26:894,-0.2596,0.6548,9.6403,0.0003,-0.0135,9.8066,0.0279,-0.0164,-0.0191,11.44,-31.12,9.88,62.54,-86.6,-171.55
23755,52.37295,-1.244207,169.13,11.58,3,252.96,17 / 18,2406821,2019-09-04 20:01:26:994,-0.7971,1.1294,9.5195,-0.0101,0.013,9.8066,-0.0086,-0.0165,0.0051,11.56,-31.87,9.44,69.48,-86.47,-170.77
23756,52.37295,-1.244207,169.13,11.58,3,252.96,17 / 18,2406920,2019-09-04 20:01:27:093,-0.125,0.8597,9.576,0.0132,-0.0074,9.8066,-0.0365,-0.0068,-0.0199,11.06,-31.62,9.94,64.47,-86.48,-170.15
23757,52.37295,-1.244207,169.13,11.58,3,252.96,17 / 18,2407021,2019-09-04 20:01:27:194,0.4492,0.7164,9.379,0.01,-0.0023,9.8066,-0.0174,-0.0368,-0.0233,11.25,-31.06,9.0,67.14,-86.62,-170.43
23758,52.37295,-1.244207,169.13,11.58,3,252.96,17 / 18,2407121,2019-09-04 20:01:27:294,-0.0864,0.5793,9.8086,0.0121,-0.0061,9.8066,-0.0221,0.0023,-0.0003,11.0,-31.37,9.13,66.73,-86.74,-170.56
23759,52.37295,-1.244207,169.13,11.58,3,252.96,17 / 18,2407220,2019-09-04 20:01:27:393,-0.4419,0.5571,9.3175,0.0075,0.0029,9.8066,-0.0278,0.0017,0.0357,11.31,-31.37,9.31,65.03,-86.89,-171.88
23760,52.37295,-1.244207,169.13,11.58,3,252.96,17 / 17,2407320,2019-09-04 20:01:27:493,0.4766,0.7945,9.496,0.0085,0.0088,9.8066,-0.038,-0.0207,0.0144,11.25,-31.44,9.38,67.52,-87.04,-169.2
23761,52.37295,-1.244207,169.13,11.58,3,252.96,17 / 17,2407421,2019-09-04 20:01:27:594,0.2142,0.6873,9.6135,-0.0019,0.0164,9.8066,-0.0081,0.0037,0.0717,10.81,-31.37,8.94,70.93,-87.12,-165.75
23762,52.37295,-1.244207,169.13,11.58,3,252.96,17 / 17,2407521,2019-09-04 20:01:27:694,0.2635,1.3177,10.2402,-0.0091,0.0091,9.8066,0.0229,-0.0458,-0.0336,10.75,-31.75,9.0,78.86,-87.04,-158.42
23763,52.37295,-1.244207,169.13,11.58,3,252.96,17 / 17,2407621,2019-09-04 20:01:27:794,-0.1058,0.24,10.2356,-0.0203,0.0051,9.8065,0.0199,0.0068,0.0609,11.06,-31.75,9.13,79.1,-86.94,-158.43
23764,52.37295,-1.244207,169.13,11.58,3,252.96,17 / 17,2407721,2019-09-04 20:01:27:894,-0.381,0.816,9.7524,-0.0141,0.0144,9.8066,-0.0001,-0.0419,-0.0011,10.06,-31.62,8.88,79.85,-86.73,-155.86
23765,52.37295,-1.244207,169.13,11.58,3,252.96,17 / 17,2407821,2019-09-04 20:01:27:994,0.2682,0.4976,9.8125,0.0046,0.0121,9.8066,-0.0439,0.0168,0.0305,10.69,-31.87,8.69,86.56,-86.68,-151.64
23766,52.37295,-1.244207,169.13,11.58,3,252.96,17 / 17,2407920,2019-09-04 20:01:28:093,0.0266,-0.0271,9.4168,0.0066,0.0077,9.8066,-0.0318,0.0275,0.0673,10.88,-31.62,9.19,89.82,-86.82,-148.07
23767,52.37295,-1.244207,169.13,11.58,3,252.96,17 / 17,2408020,2019-09-04 20:01:28:193,-0.2098,1.0457,9.1166,-0.0075,0.0055,9.8066,0.0142,-0.0157,-0.0082,10.0,-31.94,9.13,90.43,-86.74,-145.38
23768,52.37295,-1.244207,169.13,11.58,3,252.96,17 / 17,2408120,2019-09-04 20:01:28:293,1.0764,0.9776,10.1941,-0.009,-0.0146,9.8066,0.0108,0.0622,0.042,10.56,-32.12,8.5,90.56,-86.61,-147.8
23769,52.37295,-1.244207,169.13,11.58,3,252.96,17 / 17,2408221,2019-09-04 20:01:28:394,0.1636,0.4928,9.6631,-0.0082,-0.0087,9.8066,0.0256,-0.0702,-0.0642,10.0,-32.0,9.19,87.71,-86.5,-148.68
23770,52.37295,-1.244207,169.13,11.58,3,252.96,18 / 18,2408321,2019-09-04 20:01:28:494,0.6365,1.0294,10.1834,0.0041,-0.0145,9.8066,0.0105,0.0034,-0.0335,10.5,-31.37,8.88,87.52,-86.48,-150.89
23771,52.37295,-1.244207,169.13,11.58,3,252.96,18 / 18,2408420,2019-09-04 20:01:28:593,0.2615,0.4134,10.0487,-0.0031,-0.016,9.8066,0.0344,-0.0412,-0.0603,10.69,-31.31,8.75,82.34,-86.52,-155.93
23772,52.37295,-1.244207,169.13,11.58,3,252.96,18 / 18,2408521,2019-09-04 20:01:28:694,-0.6279,0.5424,10.0207,-0.0011,-0.017,9.8066,-0.0028,0.0157,-0.002,11.69,-30.75,9.5,77.86,-86.45,-159.27
23773,52.37295,-1.244207,169.13,11.58,3,252.96,18 / 18,2408620,2019-09-04 20:01:28:793,-0.0391,0.2249,9.5734,0.0125,-0.0085,9.8066,-0.026,-0.0588,-0.0782,11.56,-31.0,9.19,76.94,-86.5,-163.3
23774,52.37295,-1.244207,169.13,11.58,3,252.96,18 / 18,2408721,2019-09-04 20:01:28:894,0.2575,0.6093,10.0043,0.0176,-0.0037,9.8066,-0.0336,-0.0189,-0.0302,11.38,-30.87,8.75,71.66,-86.8,-165.72
23775,52.37295,-1.244207,169.13,11.58,3,252.96,18 / 18,2408821,2019-09-04 20:01:28:994,0.2914,0.5715,9.68,0.0069,-0.0093,9.8066,-0.0089,0.0019,-0.0063,11.5,-31.12,8.44,75.17,-86.91,-167.59
23776,52.37295,-1.244207,169.13,11.58,3,252.96,18 / 18,2408921,2019-09-04 20:01:29:094,0.1849,0.491,9.7205,-0.0046,0.002,9.8066,0.0131,-0.063,-0.0382,11.13,-30.0,8.5,67.75,-86.92,-169.02
23777,52.37295,-1.244207,169.13,11.58,3,252.96,18 / 18,2409020,2019-09-04 20:01:29:193,1.1579,0.8852,10.6983,0.0018,0.007,9.8066,-0.0237,-0.0363,0.0013,10.38,-29.94,7.56,69.46,-86.93,-168.67
23778,52.37295,-1.244207,169.13,11.58,3,252.96,18 / 18,2409121,2019-09-04 20:01:29:294,0.0115,1.0976,9.9198,0.0096,-0.0045,9.8066,0.0142,0.0035,0.01,9.69,-29.75,7.56,71.88,-87.04,-166.1
23779,52.37295,-1.244207,169.13,11.58,3,252.96,18 / 18,2409220,2019-09-04 20:01:29:393,-2.0481,0.1192,10.8034,-0.0096,-0.0135,9.8066,0.0287,-0.0072,0.0073,8.88,-29.44,8.69,65.4,-86.99,-165.87
23780,52.37295,-1.244207,169.13,11.58,3,252.96,17 / 18,2409321,2019-09-04 20:01:29:494,-0.8902,0.5237,9.0098,0.0001,-0.0009,9.8066,-0.0215,0.0039,0.0196,9.13,-30.37,9.81,61.44,-86.86,-166.74
23781,52.37295,-1.244207,169.13,11.58,3,252.96,17 / 18,2409420,2019-09-04 20:01:29:593,-0.138,0.5123,9.7916,0.0111,0.0171,9.8066,-0.0654,-0.0109,0.0354,9.63,-30.37,9.19,69.92,-87.0,-164.41
23782,52.37295,-1.244207,169.13,11.58,3,252.96,17 / 18,2409520,2019-09-04 20:01:29:693,0.3531,1.0375,10.4471,0.0085,0.014,9.8066,-0.0124,-0.0226,-0.0022,10.69,-30.62,8.81,75.54,-87.22,-161.07
23783,52.37295,-1.244207,169.13,11.58,3,252.96,17 / 18,2409621,2019-09-04 20:01:29:794,-0.1219,0.4802,10.2968,-0.0141,-0.0133,9.8065,0.0536,-0.0039,-0.0079,10.38,-30.75,8.5,74.38,-87.24,-159.79
23784,52.37295,-1.244207,169.13,11.58,3,252.96,17 / 18,2409720,2019-09-04 20:01:29:893,-0.1918,0.882,10.4218,-0.0135,-0.0142,9.8066,0.0477,0.0019,-0.0169,11.13,-30.81,7.81,78.28,-86.94,-162.57
23785,52.37295,-1.244207,169.13,11.58,3,252.96,17 / 18,2409821,2019-09-04 20:01:29:994,0.2064,0.8584,10.0051,-0.0035,-0.0201,9.8066,0.0257,0.0279,-0.0343,11.5,-30.94,8.81,74.38,-86.81,-165.15
23786,52.37295,-1.244207,169.13,11.58,3,252.96,17 / 18,2409920,2019-09-04 20:01:30:093,0.453,0.8043,9.9688,0.0079,-0.0228,9.8066,-0.001,0.0527,0.0119,11.44,-30.31,8.38,68.0,-86.72,-172.72
23787,52.37295,-1.244207,169.13,11.58,3,252.96,17 / 18,2410020,2019-09-04 20:01:30:193,0.4983,0.123,9.7884,0.0066,-0.0148,9.8066,0.0055,-0.0008,-0.0602,11.75,-30.37,8.5,64.79,-86.71,-174.33
23788,52.37295,-1.244207,169.13,11.58,3,252.96,17 / 18,2410120,2019-09-04 20:01:30:293,0.1269,0.0011,9.986,0.0051,-0.0181,9.8066,0.0089,0.0075,-0.0523,12.13,-30.19,8.69,59.54,-86.7,-179.33
23789,52.37295,-1.244207,169.13,11.58,3,252.96,17 / 18,2410220,2019-09-04 20:01:30:393,0.021,-0.298,9.193,0.0082,-0.0124,9.8066,0.0026,-0.0056,-0.0405,11.81,-30.44,8.13,57.47,-86.65,175.24
23790,52.37295,-1.244207,169.13,11.58,3,252.96,17 / 17,2410321,2019-09-04 20:01:30:494,0.0101,0.7061,9.6994,0.0144,0.007,9.8065,-0.0354,-0.0203,-0.0414,11.69,-30.44,8.5,52.77,-86.81,174.51
23791,52.37295,-1.244207,169.13,11.58,3,252.96,17 / 17,2410420,2019-09-04 20:01:30:593,0.2282,0.9949,10.5056,0.0086,-0.0173,9.8066,0.0062,0.0635,-0.0032,12.0,-30.25,8.25,53.99,-86.97,172.53
23792,52.37295,-1.244207,169.13,11.58,3,252.96,17 / 17,2410521,2019-09-04 20:01:30:694,0.0125,0.6623,9.6217,-0.0035,-0.0247,9.8065,0.0435,-0.0196,-0.0759,12.13,-30.19,8.63,47.24,-86.9,169.51
23793,52.37295,-1.244207,169.13,11.58,3,252.96,17 / 17,2410621,2019-09-04 20:01:30:794,-0.2108,0.6612,10.1353,0.0109,-0.0297,9.8065,-0.0143,0.1228,0.0835,12.94,-30.25,8.5,44.23,-86.56,164.31
23794,52.37295,-1.244207,169.13,11.58,3,252.96,17 / 17,2410721,2019-09-04 20:01:30:894,0.2341,0.407,9.58,0.0087,-0.0057,9.8065,-0.0101,0.0011,-0.0509,13.0,-30.31,8.44,43.85,-86.48,160.61
23795,52.37295,-1.244207,169.13,11.58,3,252.96,17 / 17,2410821,2019-09-04 20:01:30:994,0.3084,-1.2535,10.177,0.0093,-0.0109,9.8065,-0.0145,-0.0745,-0.0785,13.06,-29.94,8.38,40.95,-86.47,157.95
23796,52.37295,-1.244207,169.13,11.58,3,252.96,17 / 17,2410921,2019-09-04 20:01:31:094,-0.0863,0.2183,9.4879,0.0081,0.0065,9.8066,-0.0338,0.051,0.0193,13.0,-29.69,8.88,35.6,-86.52,156.39
23797,52.37295,-1.244207,169.13,11.58,3,252.96,17 / 17,2411021,2019-09-04 20:01:31:194,0.396,0.093,9.3583,0.0076,0.0123,9.8066,-0.0397,-0.0129,-0.0158,13.25,-30.12,7.81,37.39,-86.7,155.01
23798,52.37295,-1.244207,169.13,11.58,3,252.96,17 / 17,2411120,2019-09-04 20:01:31:293,0.1208,0.1646,9.9469,0.0188,0.0088,9.8065,-0.0556,0.009,-0.0102,13.5,-30.06,7.88,36.95,-86.96,153.26
23799,52.37295,-1.244207,169.13,11.58,3,252.96,16 / 16,2411221,2019-09-04 20:01:31:394,-0.4817,0.0005,8.0798,0.017,0.0081,9.8066,-0.0605,0.0189,0.0322,14.13,-29.75,7.81,34.81,-87.18,151.53
23800,52.37295,-1.244207,169.13,11.58,3,252.96,16 / 16,2411320,2019-09-04 20:01:31:493,-0.5137,0.1437,9.0262,0.0208,0.0057,9.8066,-0.0515,0.0779,0.0755,13.75,-30.31,7.75,33.47,-87.28,150.39
23801,52.37295,-1.244207,169.13,11.58,3,252.96,16 / 16,2411421,2019-09-04 20:01:31:594,0.6352,-0.1842,9.4842,0.0727,0.0695,9.8061,-0.0553,-0.0079,0.0166,13.38,-30.62,7.81,30.69,-87.46,149.65
23802,52.37295,-1.244207,169.13,11.58,3,252.96,16 / 16,2411520,2019-09-04 20:01:31:693,1.3253,0.3179,8.9527,-0.0111,0.0443,9.8064,0.0125,-0.0702,-0.0401,13.25,-30.44,7.13,28.44,-88.22,145.0
23803,52.37295,-1.244207,169.13,11.58,3,252.96,16 / 16,2411621,2019-09-04 20:01:31:794,1.2605,0.4354,9.3082,-0.0408,0.0092,9.8065,0.0933,-0.0882,-0.0384,12.56,-30.06,7.44,36.28,-88.11,152.29
23804,52.37295,-1.244207,169.13,11.58,3,252.96,16 / 16,2411721,2019-09-04 20:01:31:894,-1.1316,0.1872,12.4255,-0.0439,0.021,9.8065,0.0236,0.0139,0.112,12.06,-31.0,7.81,48.3,-87.72,168.3
23805,52.37295,-1.244207,169.13,11.58,3,252.96,16 / 16,2411820,2019-09-04 20:01:31:993,-0.3689,0.4346,10.5247,-0.0261,0.0277,9.8065,0.0123,-0.0028,0.0239,11.88,-31.06,8.63,53.91,-87.63,176.8
23806,52.37295,-1.244207,169.13,11.58,3,252.96,16 / 16,2411920,2019-09-04 20:01:32:093,-0.7769,0.0642,11.295,-0.0142,-0.0005,9.8066,0.0051,0.0187,0.0423,11.94,-30.31,8.0,60.75,-87.58,-179.99
23807,52.37295,-1.244207,169.13,11.58,3,252.96,16 / 16,2412020,2019-09-04 20:01:32:193,-0.1367,0.5528,9.6808,-0.0092,0.0051,9.8066,0.0133,-0.0124,-0.0256,11.31,-30.31,8.06,63.09,-87.43,-175.97
23808,52.37295,-1.244207,169.13,11.58,3,252.96,16 / 16,2412121,2019-09-04 20:01:32:294,0.3974,0.4263,9.8063,-0.0011,-0.0019,9.8066,0.0124,-0.0036,-0.041,11.75,-30.69,8.31,65.67,-87.37,-175.82
23809,52.37295,-1.244207,169.13,11.58,3,252.96,16 / 16,2412221,2019-09-04 20:01:32:394,0.1196,-0.0734,9.9307,-0.0011,-0.0033,9.8066,0.026,0.0016,0.0013,11.38,-30.62,8.44,62.3,-87.34,-177.08
23810,52.37295,-1.244207,169.13,11.58,3,252.96,17 / 17,2412320,2019-09-04 20:01:32:493,0.176,-0.3621,9.7708,-0.0045,-0.0007,9.8066,0.0104,0.0331,0.0381,10.75,-30.44,8.75,60.05,-87.24,-175.75
23811,52.37295,-1.244207,169.13,11.58,3,252.96,17 / 17,2412420,2019-09-04 20:01:32:593,-0.4213,-0.2701,9.6664,0.0083,0.0137,9.8066,-0.0436,-0.0188,-0.013,10.63,-30.62,8.31,66.21,-87.28,-173.47
23812,52.37295,-1.244207,169.13,11.58,3,252.96,17 / 17,2412520,2019-09-04 20:01:32:693,0.0215,0.2731,9.5092,0.0115,0.0126,9.8066,-0.0341,-0.0059,-0.0131,11.19,-30.87,9.0,64.37,-87.46,-171.36
23813,52.37295,-1.244207,169.13,11.58,3,252.96,17 / 17,2412620,2019-09-04 20:01:32:793,0.5479,0.2246,9.781,0.0003,0.0018,9.8066,0.0016,0.0238,0.0199,11.06,-31.31,9.19,64.85,-87.67,-170.49
23814,52.37295,-1.244207,169.13,11.58,3,252.96,17 / 17,2412721,2019-09-04 20:01:32:894,0.1561,-0.3045,9.9104,-0.0049,-0.0015,9.8066,0.0204,0.0193,0.0108,11.19,-30.87,9.69,61.7,-87.63,-170.4
23815,52.37295,-1.244207,169.13,11.58,3,252.96,17 / 17,2412820,2019-09-04 20:01:32:993,0.61,0.0513,10.4419,-0.0129,0.0083,9.8066,0.0237,-0.026,-0.0079,11.94,-31.5,8.63,68.07,-87.54,-169.81
23816,52.37295,-1.244207,169.13,11.58,3,252.96,17 / 17,2412921,2019-09-04 20:01:33:094,-0.0126,0.44,10.1691,-0.0108,0.009,9.8065,0.0228,-0.0006,0.0074,11.81,-31.19,8.63,71.97,-87.39,-166.31
23817,52.37295,-1.244207,169.13,11.58,3,252.96,17 / 17,2413021,2019-09-04 20:01:33:194,0.9377,-0.1407,9.7733,-0.0131,0.0159,9.8066,0.006,0.0155,0.0642,12.0,-31.0,9.25,73.88,-87.29,-164.66
23818,52.37295,-1.244207,169.13,11.58,3,252.96,17 / 17,2413120,2019-09-04 20:01:33:293,0.1801,0.7698,9.7632,-0.0084,0.0199,9.8066,-0.007,0.0248,0.0637,11.19,-31.12,8.81,77.05,-87.19,-159.66
23819,52.37295,-1.244207,169.13,11.58,3,252.96,17 / 17,2413220,2019-09-04 20:01:33:393,0.3967,0.165,9.4443,-0.0062,0.0208,9.8065,-0.0175,0.0131,0.0474,11.38,-31.19,8.19,87.5,-87.11,-153.07
23820,52.37272,-1.245826,168.13,13.31,4,256.95,17 / 18,2413321,2019-09-04 20:01:33:494,0.4521,0.2415,9.3696,-0.0011,0.0096,9.8066,-0.01,0.0067,0.0496,11.06,-30.56,8.25,91.97,-87.05,-148.74
23821,52.37272,-1.245826,168.13,13.31,4,256.95,17 / 18,2413422,2019-09-04 20:01:33:595,0.5771,0.5076,9.492,0.0015,0.0204,9.8065,-0.0068,-0.0062,0.0198,12.13,-31.19,7.63,100.97,-87.0,-141.68
23822,52.37272,-1.245826,168.13,13.31,4,256.95,17 / 18,2413521,2019-09-04 20:01:33:694,0.6965,0.4688,10.2584,-0.0014,-0.0013,9.8066,0.0095,0.0435,0.0348,12.56,-32.62,6.19,112.71,-86.93,-139.04
23823,52.37272,-1.245826,168.13,13.31,4,256.95,17 / 18,2413620,2019-09-04 20:01:33:793,0.0598,0.3516,9.4904,-0.0125,-0.0175,9.8066,0.0354,0.0221,-0.0064,12.69,-33.69,7.0,107.71,-86.86,-140.87
23824,52.37272,-1.245826,168.13,13.31,4,256.95,17 / 18,2413720,2019-09-04 20:01:33:893,-0.0135,0.0803,9.3847,-0.0027,-0.0015,9.8066,0.0092,-0.0695,-0.1015,13.13,-34.25,8.38,101.45,-86.75,-144.04
23825,52.37272,-1.245826,168.13,13.31,4,256.95,17 / 18,2413821,2019-09-04 20:01:33:994,0.4872,0.2817,9.6238,0.0142,0.0067,9.8066,-0.0621,0.0045,-0.0114,12.19,-34.12,7.63,98.76,-86.91,-144.77
23826,52.37272,-1.245826,168.13,13.31,4,256.95,17 / 18,2413921,2019-09-04 20:01:34:094,-0.1468,1.4126,9.8795,0.0199,0.0018,9.8066,-0.043,-0.0151,-0.0648,12.19,-34.12,8.0,101.42,-87.25,-141.26
23827,52.37272,-1.245826,168.13,13.31,4,256.95,17 / 18,2414021,2019-09-04 20:01:34:194,0.6368,0.353,10.0458,0.0006,0.0075,9.8066,0.0101,-0.014,-0.0055,11.94,-33.56,8.44,101.5,-87.43,-140.75
23828,52.37272,-1.245826,168.13,13.31,4,256.95,17 / 18,2414121,2019-09-04 20:01:34:294,0.3217,-0.0483,10.7322,-0.0041,-0.0147,9.8066,0.0407,0.0233,-0.0326,11.5,-33.56,8.31,102.66,-87.4,-139.63
23829,52.37272,-1.245826,168.13,13.31,4,256.95,17 / 18,2414221,2019-09-04 20:01:34:394,0.192,-0.7139,9.9934,-0.0096,-0.0058,9.8065,0.0053,-0.0544,-0.0799,10.5,-34.06,8.06,94.95,-87.32,-145.71
23830,52.37272,-1.245826,168.13,13.31,4,256.95,17 / 17,2414321,2019-09-04 20:01:34:494,0.2679,0.8941,9.0038,0.0118,-0.0075,9.8066,-0.0302,0.0182,-0.0358,10.31,-34.25,8.81,84.42,-87.41,-150.13
23831,52.37272,-1.245826,168.13,13.31,4,256.95,17 / 17,2414421,2019-09-04 20:01:34:594,0.216,0.7338,8.5557,0.0322,0.0026,9.8066,-0.0683,-0.0076,-0.0585,10.31,-34.19,9.56,78.83,-87.64,-151.75
23832,52.37272,-1.245826,168.13,13.31,4,256.95,17 / 17,2414521,2019-09-04 20:01:34:694,0.7581,0.2106,9.7637,0.0305,0.0174,9.8066,-0.0926,0.0007,-0.0201,10.06,-31.94,9.94,77.98,-88.26,-150.88
23833,52.37272,-1.245826,168.13,13.31,4,256.95,17 / 17,2414620,2019-09-04 20:01:34:793,0.9625,0.682,10.1692,0.0193,0.0166,9.8065,0.0269,-0.0228,-0.0533,10.38,-30.75,9.38,85.99,-88.57,-145.32
23834,52.37272,-1.245826,168.13,13.31,4,256.95,17 / 17,2414720,2019-09-04 20:01:34:893,0.4085,0.4396,10.9766,-0.0204,-0.0169,9.8065,0.0916,0.0013,0.0051,11.06,-30.81,8.56,87.82,-88.58,-145.98
23835,52.37272,-1.245826,168.13,13.31,4,256.95,17 / 17,2414820,2019-09-04 20:01:34:993,-0.0449,0.0725,10.6426,-0.0223,-0.0192,9.8066,0.0579,0.0007,-0.0115,10.63,-31.19,9.31,80.16,-88.09,-154.67
23836,52.37272,-1.245826,168.13,13.31,4,256.95,17 / 17,2414920,2019-09-04 20:01:35:093,-0.0438,0.1926,9.5766,-0.0063,-0.0101,9.8066,0.0118,0.0109,-0.0086,10.94,-31.19,9.0,75.62,-87.78,-159.8
23837,52.37272,-1.245826,168.13,13.31,4,256.95,17 / 17,2415020,2019-09-04 20:01:35:193,0.524,0.4508,9.3128,0.0044,0.0011,9.8066,-0.0269,0.0109,0.0052,11.0,-31.19,9.19,75.25,-87.8,-160.12
23838,52.37272,-1.245826,168.13,13.31,4,256.95,17 / 17,2415120,2019-09-04 20:01:35:293,0.4075,0.1326,9.2175,0.0112,0.0143,9.8066,-0.0286,-0.0238,-0.0153,11.63,-31.12,9.38,81.49,-87.98,-155.79
23839,52.37272,-1.245826,168.13,13.31,4,256.95,17 / 17,2415220,2019-09-04 20:01:35:393,0.5676,0.6634,9.0519,0.0133,0.0198,9.8066,-0.0527,0.0101,0.043,12.13,-30.87,8.56,86.56,-88.13,-150.44
