,GPS LATITUDE (degrees),GPS LONGITUDE (degrees), GPS ALTITUDE (m),GPS SPEED (Kmh),GPS ACCURACY (m),GPS ORIENTATION (Â°), SATELLITES IN RANGE, TIME SINCE START (ms), DATE (YYYY-MO-DD HH-MI-SS_SSS),ACCELEROMETER X (m/s²) , ACCELEROMETER Y (m/s²), ACCELEROMETER Z (m/s²), GRAVITY X (m/s²), GRAVITY Y (m/s²), GRAVITY Z (m/s²), GYROSCOPE Yaw (rad/s), GYROSCOPE Pitch (rad/s), GYROSCOPE Roll (rad/s)
21840,47.54072,-1.635714,126.41,32.51,19.296,7.8,0 / 22,594376,2019-08-12 16:42:34:818,-0.3403,0.3587,9.4497,-0.2349,0.107,9.8033,0.0186,0.0032,0.0033
21841,47.54072,-1.635714,126.41,32.51,19.296,7.8,0 / 22,594376,2019-08-12 16:42:34:818,-0.3403,0.3587,9.4497,-0.2349,0.107,9.8033,0.0186,0.0032,0.0033
21842,47.54072,-1.635714,126.41,32.51,19.296,7.8,0 / 22,594377,2019-08-12 16:42:34:819,-0.3403,0.3587,9.4497,-0.2349,0.107,9.8033,0.0186,0.0032,0.0033
21843,47.54072,-1.635714,126.41,32.51,19.296,7.8,0 / 22,594377,2019-08-12 16:42:34:819,-0.3403,0.3587,9.4497,-0.2349,0.107,9.8033,0.0186,0.0032,0.0033
21844,47.54072,-1.635714,126.41,32.51,19.296,7.8,0 / 22,594377,2019-08-12 16:42:34:819,-0.3403,0.3587,9.4497,-0.2349,0.107,9.8033,0.0186,0.0032,0.0033
21845,47.54072,-1.635714,126.41,32.51,19.296,7.8,0 / 22,594378,2019-08-12 16:42:34:820,-0.3403,0.3587,9.4497,-0.2349,0.107,9.8033,0.0186,0.0032,0.0033
21846,47.54072,-1.635714,126.41,32.51,19.296,7.8,0 / 22,594378,2019-08-12 16:42:34:820,-0.3403,0.3587,9.4497,-0.2349,0.107,9.8033,0.0186,0.0032,0.0033
21847,47.54072,-1.635714,126.41,32.51,19.296,7.8,0 / 22,594379,2019-08-12 16:42:34:821,-0.3403,0.3587,9.4497,-0.2349,0.107,9.8033,0.0186,0.0032,0.0033
21848,47.54072,-1.635714,126.41,32.51,19.296,7.8,0 / 22,594379,2019-08-12 16:42:34:821,-0.3403,0.3587,9.4497,-0.2349,0.107,9.8033,0.0186,0.0032,0.0033
21849,47.54072,-1.635714,126.41,32.51,19.296,7.8,0 / 22,594379,2019-08-12 16:42:34:821,-0.3403,0.3587,9.4497,-0.2349,0.107,9.8033,0.0186,0.0032,0.0033
21850,47.54072,-1.635714,126.41,32.51,19.296,7.8,0 / 22,594380,2019-08-12 16:42:34:822,-0.3403,0.3587,9.4497,-0.2349,0.107,9.8033,0.0186,0.0032,0.0033
21851,47.54072,-1.635714,126.41,32.51,19.296,7.8,0 / 22,594380,2019-08-12 16:42:34:822,-0.3403,0.3587,9.4497,-0.2349,0.107,9.8033,0.0186,0.0032,0.0033
21852,47.54072,-1.635714,126.41,32.51,19.296,7.8,0 / 22,594381,2019-08-12 16:42:34:823,-0.3403,0.3587,9.4497,-0.2349,0.107,9.8033,0.0186,0.0032,0.0033
21853,47.54072,-1.635714,126.41,32.51,19.296,7.8,0 / 22,594381,2019-08-12 16:42:34:823,-0.3403,0.3587,9.4497,-0.2349,0.107,9.8033,0.0186,0.0032,0.0033
21854,47.54072,-1.635714,126.41,32.51,19.296,7.8,0 / 22,594381,2019-08-12 16:42:34:823,-0.3403,0.3587,9.4497,-0.2349,0.107,9.8033,0.0186,0.0032,0.0033
21855,47.54072,-1.635714,126.41,32.51,19.296,7.8,0 / 22,594381,2019-08-12 16:42:34:823,-0.3403,0.3587,9.4497,-0.2349,0.107,9.8033,0.0186,0.0032,0.0033
21856,47.54072,-1.635714,126.41,32.51,19.296,7.8,0 / 22,594384,2019-08-12 16:42:34:826,-0.3403,0.3587,9.4497,-0.2349,0.107,9.8033,0.0186,0.0032,0.0033
21857,47.54072,-1.635714,126.41,32.51,19.296,7.8,0 / 22,594384,2019-08-12 16:42:34:826,-0.3403,0.3587,9.4497,-0.2349,0.107,9.8033,0.0186,0.0032,0.0033
21858,47.54072,-1.635714,126.41,32.51,19.296,7.8,0 / 22,594385,2019-08-12 16:42:34:827,-0.3403,0.3587,9.4497,-0.2349,0.107,9.8033,0.0186,0.0032,0.0033
21859,47.54072,-1.635714,126.41,32.51,19.296,7.8,0 / 22,594385,2019-08-12 16:42:34:827,-0.3403,0.3587,9.4497,-0.2349,0.107,9.8033,0.0186,0.0032,0.0033
21860,47.54072,-1.635714,126.41,32.51,19.296,7.8,0 / 22,594386,2019-08-12 16:42:34:828,-0.3403,0.3587,9.4497,-0.2349,0.107,9.8033,0.0186,0.0032,0.0033
21861,47.54072,-1.635714,126.41,32.51,19.296,7.8,0 / 22,594386,2019-08-12 16:42:34:828,-0.3403,0.3587,9.4497,-0.2349,0.107,9.8033,0.0186,0.0032,0.0033
21862,47.54072,-1.635714,126.41,32.51,19.296,7.8,0 / 22,594387,2019-08-12 16:42:34:829,-0.3403,0.3587,9.4497,-0.2349,0.107,9.8033,0.0186,0.0032,0.0033
21863,47.54072,-1.635714,126.41,32.51,19.296,7.8,0 / 22,594387,2019-08-12 16:42:34:829,-0.3403,0.3587,9.4497,-0.2349,0.107,9.8033,0.0186,0.0032,0.0033
21864,47.54072,-1.635714,126.41,32.51,19.296,7.8,0 / 22,594387,2019-08-12 16:42:34:829,-0.3403,0.3587,9.4497,-0.2349,0.107,9.8033,0.0186,0.0032,0.0033
21865,47.54072,-1.635714,126.41,32.51,19.296,7.8,0 / 22,594388,2019-08-12 16:42:34:830,-0.3403,0.3587,9.4497,-0.2349,0.107,9.8033,0.0186,0.0032,0.0033
21866,47.54072,-1.635714,126.41,32.51,19.296,7.8,0 / 22,594388,2019-08-12 16:42:34:830,-0.3403,0.3587,9.4497,-0.2349,0.107,9.8033,0.0186,0.0032,0.0033
21867,47.54072,-1.635714,126.41,32.51,19.296,7.8,0 / 22,594388,2019-08-12 16:42:34:830,-0.3403,0.3587,9.4497,-0.2349,0.107,9.8033,0.0186,0.0032,0.0033
21868,47.54072,-1.635714,126.41,32.51,19.296,7.8,0 / 22,594389,2019-08-12 16:42:34:831,-0.3403,0.3587,9.4497,-0.2349,0.107,9.8033,0.0186,0.0032,0.0033
21869,47.54072,-1.635714,126.41,32.51,19.296,7.8,0 / 22,594389,2019-08-12 16:42:34:831,-0.3403,0.3587,9.4497,-0.2349,0.107,9.8033,0.0186,0.0032,0.0033
21870,47.54072,-1.635714,126.41,32.51,19.296,7.8,0 / 22,594389,2019-08-12 16:42:34:831,-0.3403,0.3587,9.4497,-0.2349,0.107,9.8033,0.0186,0.0032,0.0033
21871,47.54072,-1.635714,126.41,32.51,19.296,7.8,0 / 22,594481,2019-08-12 16:42:34:923,-0.3403,0.3587,9.4497,-0.2349,0.107,9.8033,0.0186,0.0032,0.0033
21872,47.54072,-1.635714,126.41,32.51,19.296,7.8,0 / 22,594823,2019-08-12 16:42:35:265,-0.3403,0.3587,9.4497,-0.2349,0.107,9.8033,0.0186,0.0032,0.0033
21873,47.54072,-1.635714,126.41,32.51,19.296,7.8,0 / 22,594823,2019-08-12 16:42:35:265,-0.3403,0.3587,9.4497,-0.2349,0.107,9.8033,0.0186,0.0032,0.0033
21874,47.54072,-1.635714,126.41,32.51,19.296,7.8,0 / 22,594824,2019-08-12 16:42:35:266,-0.3403,0.3587,9.4497,-0.2349,0.107,9.8033,0.0186,0.0032,0.0033
21875,47.54072,-1.635714,126.41,32.51,19.296,7.8,0 / 22,594824,2019-08-12 16:42:35:266,-0.3403,0.3587,9.4497,-0.2349,0.107,9.8033,0.0186,0.0032,0.0033
21876,47.54072,-1.635714,126.41,32.51,19.296,7.8,0 / 22,594825,2019-08-12 16:42:35:267,-0.3403,0.3587,9.4497,-0.2349,0.107,9.8033,0.0186,0.0032,0.0033
21877,47.54072,-1.635714,126.41,32.51,19.296,7.8,0 / 22,594825,2019-08-12 16:42:35:267,-0.3403,0.3587,9.4497,-0.2349,0.107,9.8033,0.0186,0.0032,0.0033
21878,47.54072,-1.635714,126.41,32.51,19.296,7.8,0 / 22,594825,2019-08-12 16:42:35:267,-0.3403,0.3587,9.4497,-0.2349,0.107,9.8033,0.0186,0.0032,0.0033
21879,47.54072,-1.635714,126.41,32.51,19.296,7.8,0 / 22,594826,2019-08-12 16:42:35:268,-0.3403,0.3587,9.4497,-0.2349,0.107,9.8033,0.0186,0.0032,0.0033
21880,47.54072,-1.635714,126.41,32.51,19.296,7.8,Oct-22,594852,2019-08-12 16:42:35:294,-0.3403,0.3587,9.4497,-0.2349,0.107,9.8033,0.0186,0.0032,0.0033
21881,47.54072,-1.635714,126.41,32.51,19.296,7.8,Oct-22,594951,2019-08-12 16:42:35:393,-0.3403,0.3587,9.4497,-0.2349,0.107,9.8033,0.0186,0.0032,0.0033
21882,47.54072,-1.635714,126.41,32.51,19.296,7.8,Oct-22,595281,2019-08-12 16:42:35:723,-0.3403,0.3587,9.4497,-0.2349,0.107,9.8033,0.0186,0.0032,0.0033
21883,47.54072,-1.635714,126.41,32.51,19.296,7.8,Oct-22,595282,2019-08-12 16:42:35:724,-0.3403,0.3587,9.4497,-0.2349,0.107,9.8033,0.0186,0.0032,0.0033
21884,47.54072,-1.635714,126.41,32.51,19.296,7.8,Oct-22,595283,2019-08-12 16:42:35:725,-0.3403,0.3587,9.4497,-0.2349,0.107,9.8033,0.0186,0.0032,0.0033
21885,47.54072,-1.635714,126.41,32.51,19.296,7.8,Oct-22,595283,2019-08-12 16:42:35:725,-0.3403,0.3587,9.4497,-0.2349,0.107,9.8033,0.0186,0.0032,0.0033
21886,47.54072,-1.635714,126.41,32.51,19.296,7.8,Oct-22,595283,2019-08-12 16:42:35:725,-0.3403,0.3587,9.4497,-0.2349,0.107,9.8033,0.0186,0.0032,0.0033
21887,47.54072,-1.635714,126.41,32.51,19.296,7.8,Oct-22,595284,2019-08-12 16:42:35:726,-0.3403,0.3587,9.4497,-0.2349,0.107,9.8033,0.0186,0.0032,0.0033
21888,47.54072,-1.635714,126.41,32.51,19.296,7.8,Oct-22,595284,2019-08-12 16:42:35:726,-0.3403,0.3587,9.4497,-0.2349,0.107,9.8033,0.0186,0.0032,0.0033
21889,47.54072,-1.635714,126.41,32.51,19.296,7.8,Oct-22,595286,2019-08-12 16:42:35:728,-0.3403,0.3587,9.4497,-0.2349,0.107,9.8033,0.0186,0.0032,0.0033
21890,47.543674,-1.635181,121.72,35.1,10.72,8.2,0 / 22,595308,2019-08-12 16:42:35:750,-0.3403,0.3587,9.4497,-0.2349,0.107,9.8033,0.0186,0.0032,0.0033
21891,47.543674,-1.635181,121.72,35.1,10.72,8.2,0 / 22,595409,2019-08-12 16:42:35:851,-0.3403,0.3587,9.4497,-0.2349,0.107,9.8033,0.0186,0.0032,0.0033
21892,47.543674,-1.635181,121.72,35.1,10.72,8.2,0 / 22,595762,2019-08-12 16:42:36:204,-0.3403,0.3587,9.4497,-0.2349,0.107,9.8033,0.0186,0.0032,0.0033
21893,47.543674,-1.635181,121.72,35.1,10.72,8.2,0 / 22,595763,2019-08-12 16:42:36:205,-0.3403,0.3587,9.4497,-0.2349,0.107,9.8033,0.0186,0.0032,0.0033
21894,47.543674,-1.635181,121.72,35.1,10.72,8.2,0 / 22,595763,2019-08-12 16:42:36:205,-0.3403,0.3587,9.4497,-0.2349,0.107,9.8033,0.0186,0.0032,0.0033
21895,47.543674,-1.635181,121.72,35.1,10.72,8.2,0 / 22,595763,2019-08-12 16:42:36:205,-0.3403,0.3587,9.4497,-0.2349,0.107,9.8033,0.0186,0.0032,0.0033
21896,47.543674,-1.635181,121.72,35.1,10.72,8.2,0 / 22,595764,2019-08-12 16:42:36:206,-0.3403,0.3587,9.4497,-0.2349,0.107,9.8033,0.0186,0.0032,0.0033
21897,47.543674,-1.635181,121.72,35.1,10.72,8.2,0 / 22,595764,2019-08-12 16:42:36:206,-0.3403,0.3587,9.4497,-0.2349,0.107,9.8033,0.0186,0.0032,0.0033
21898,47.543674,-1.635181,121.72,35.1,10.72,8.2,0 / 22,595764,2019-08-12 16:42:36:206,-0.3403,0.3587,9.4497,-0.2349,0.107,9.8033,0.0186,0.0032,0.0033
21899,47.543674,-1.635181,121.72,35.1,10.72,8.2,0 / 22,595765,2019-08-12 16:42:36:207,-0.3403,0.3587,9.4497,-0.2349,0.107,9.8033,0.0186,0.0032,0.0033
21900,47.543674,-1.635181,121.72,35.1,10.72,8.2,0 / 22,595768,2019-08-12 16:42:36:210,-0.3403,0.3587,9.4497,-0.2349,0.107,9.8033,0.0186,0.0032,0.0033
21901,47.543674,-1.635181,121.72,35.1,10.72,8.2,0 / 22,595769,2019-08-12 16:42:36:211,-0.3403,0.3587,9.4497,-0.2349,0.107,9.8033,0.0186,0.0032,0.0033
21902,47.543674,-1.635181,121.72,35.1,10.72,8.2,0 / 22,595769,2019-08-12 16:42:36:211,-0.3403,0.3587,9.4497,-0.2349,0.107,9.8033,0.0186,0.0032,0.0033
21903,47.543674,-1.635181,121.72,35.1,10.72,8.2,0 / 22,595770,2019-08-12 16:42:36:212,-0.3403,0.3587,9.4497,-0.2349,0.107,9.8033,0.0186,0.0032,0.0033
21904,47.543674,-1.635181,121.72,35.1,10.72,8.2,0 / 22,595770,2019-08-12 16:42:36:212,-0.3403,0.3587,9.4497,-0.2349,0.107,9.8033,0.0186,0.0032,0.0033
21905,47.543674,-1.635181,121.72,35.1,10.72,8.2,0 / 22,595770,2019-08-12 16:42:36:212,-0.3403,0.3587,9.4497,-0.2349,0.107,9.8033,0.0186,0.0032,0.0033
21906,47.543674,-1.635181,121.72,35.1,10.72,8.2,0 / 22,595771,2019-08-12 16:42:36:213,-0.3403,0.3587,9.4497,-0.2349,0.107,9.8033,0.0186,0.0032,0.0033
21907,47.543674,-1.635181,121.72,35.1,10.72,8.2,0 / 22,595772,2019-08-12 16:42:36:214,-0.3403,0.3587,9.4497,-0.2349,0.107,9.8033,0.0186,0.0032,0.0033
21908,47.543674,-1.635181,121.72,35.1,10.72,8.2,0 / 22,595772,2019-08-12 16:42:36:214,-0.3403,0.3587,9.4497,-0.2349,0.107,9.8033,0.0186,0.0032,0.0033
21909,47.543674,-1.635181,121.72,35.1,10.72,8.2,0 / 22,595773,2019-08-12 16:42:36:215,-0.3403,0.3587,9.4497,-0.2349,0.107,9.8033,0.0186,0.0032,0.0033
21910,47.543674,-1.635181,121.72,35.1,10.72,8.2,0 / 22,595774,2019-08-12 16:42:36:216,-0.3403,0.3587,9.4497,-0.2349,0.107,9.8033,0.0186,0.0032,0.0033
21911,47.543674,-1.635181,121.72,35.1,10.72,8.2,0 / 22,595867,2019-08-12 16:42:36:309,-0.3403,0.3587,9.4497,-0.2349,0.107,9.8033,0.0186,0.0032,0.0033
21912,47.543674,-1.635181,121.72,35.1,10.72,8.2,0 / 22,596213,2019-08-12 16:42:36:655,-0.3403,0.3587,9.4497,-0.2349,0.107,9.8033,0.0186,0.0032,0.0033
21913,47.543674,-1.635181,121.72,35.1,10.72,8.2,0 / 22,596214,2019-08-12 16:42:36:656,-0.3403,0.3587,9.4497,-0.2349,0.107,9.8033,0.0186,0.0032,0.0033
21914,47.543674,-1.635181,121.72,35.1,10.72,8.2,0 / 22,596215,2019-08-12 16:42:36:657,-0.3403,0.3587,9.4497,-0.2349,0.107,9.8033,0.0186,0.0032,0.0033
21915,47.543674,-1.635181,121.72,35.1,10.72,8.2,0 / 22,596216,2019-08-12 16:42:36:658,-0.3403,0.3587,9.4497,-0.2349,0.107,9.8033,0.0186,0.0032,0.0033
21916,47.543674,-1.635181,121.72,35.1,10.72,8.2,0 / 22,596216,2019-08-12 16:42:36:658,-0.3403,0.3587,9.4497,-0.2349,0.107,9.8033,0.0186,0.0032,0.0033
21917,47.543674,-1.635181,121.72,35.1,10.72,8.2,0 / 22,596216,2019-08-12 16:42:36:658,-0.3403,0.3587,9.4497,-0.2349,0.107,9.8033,0.0186,0.0032,0.0033
21918,47.543674,-1.635181,121.72,35.1,10.72,8.2,0 / 22,596217,2019-08-12 16:42:36:659,-0.3403,0.3587,9.4497,-0.2349,0.107,9.8033,0.0186,0.0032,0.0033
21919,47.543674,-1.635181,121.72,35.1,10.72,8.2,0 / 22,596217,2019-08-12 16:42:36:659,-0.3403,0.3587,9.4497,-0.2349,0.107,9.8033,0.0186,0.0032,0.0033
21920,47.543674,-1.635181,121.72,35.1,10.72,8.2,0 / 22,596217,2019-08-12 16:42:36:659,-0.3403,0.3587,9.4497,-0.2349,0.107,9.8033,0.0186,0.0032,0.0033
21921,47.543674,-1.635181,121.72,35.1,10.72,8.2,0 / 22,596218,2019-08-12 16:42:36:660,-0.3403,0.3587,9.4497,-0.2349,0.107,9.8033,0.0186,0.0032,0.0033
21922,47.543674,-1.635181,121.72,35.1,10.72,8.2,0 / 22,596219,2019-08-12 16:42:36:661,-0.3403,0.3587,9.4497,-0.2349,0.107,9.8033,0.0186,0.0032,0.0033
21923,47.543674,-1.635181,121.72,35.1,10.72,8.2,0 / 22,596219,2019-08-12 16:42:36:661,-0.3403,0.3587,9.4497,-0.2349,0.107,9.8033,0.0186,0.0032,0.0033
21924,47.543674,-1.635181,121.72,35.1,10.72,8.2,0 / 22,596220,2019-08-12 16:42:36:662,-0.3403,0.3587,9.4497,-0.2349,0.107,9.8033,0.0186,0.0032,0.0033
21925,47.543674,-1.635181,121.72,35.1,10.72,8.2,0 / 22,596220,2019-08-12 16:42:36:662,-0.3403,0.3587,9.4497,-0.2349,0.107,9.8033,0.0186,0.0032,0.0033
21926,47.543674,-1.635181,121.72,35.1,10.72,8.2,0 / 22,596221,2019-08-12 16:42:36:663,-0.3403,0.3587,9.4497,-0.2349,0.107,9.8033,0.0186,0.0032,0.0033
21927,47.543674,-1.635181,121.72,35.1,10.72,8.2,0 / 22,596222,2019-08-12 16:42:36:664,-0.3403,0.3587,9.4497,-0.2349,0.107,9.8033,0.0186,0.0032,0.0033
21928,47.543674,-1.635181,121.72,35.1,10.72,8.2,0 / 22,596222,2019-08-12 16:42:36:664,-0.3403,0.3587,9.4497,-0.2349,0.107,9.8033,0.0186,0.0032,0.0033
21929,47.543674,-1.635181,121.72,35.1,10.72,8.2,0 / 22,596223,2019-08-12 16:42:36:665,-0.3403,0.3587,9.4497,-0.2349,0.107,9.8033,0.0186,0.0032,0.0033
21930,47.543674,-1.635181,121.72,35.1,10.72,8.2,0 / 22,596224,2019-08-12 16:42:36:666,-0.3403,0.3587,9.4497,-0.2349,0.107,9.8033,0.0186,0.0032,0.0033
21931,47.543674,-1.635181,121.72,35.1,10.72,8.2,0 / 22,596225,2019-08-12 16:42:36:667,-0.3403,0.3587,9.4497,-0.2349,0.107,9.8033,0.0186,0.0032,0.0033
21932,47.543674,-1.635181,121.72,35.1,10.72,8.2,0 / 22,596226,2019-08-12 16:42:36:668,-0.3403,0.3587,9.4497,-0.2349,0.107,9.8033,0.0186,0.0032,0.0033
21933,47.543674,-1.635181,121.72,35.1,10.72,8.2,0 / 22,596226,2019-08-12 16:42:36:668,-0.3403,0.3587,9.4497,-0.2349,0.107,9.8033,0.0186,0.0032,0.0033
21934,47.543674,-1.635181,121.72,35.1,10.72,8.2,0 / 22,596227,2019-08-12 16:42:36:669,-0.3403,0.3587,9.4497,-0.2349,0.107,9.8033,0.0186,0.0032,0.0033
21935,47.543674,-1.635181,121.72,35.1,10.72,8.2,0 / 22,596228,2019-08-12 16:42:36:670,-0.3403,0.3587,9.4497,-0.2349,0.107,9.8033,0.0186,0.0032,0.0033
21936,47.543674,-1.635181,121.72,35.1,10.72,8.2,0 / 22,596229,2019-08-12 16:42:36:671,-0.3403,0.3587,9.4497,-0.2349,0.107,9.8033,0.0186,0.0032,0.0033
21937,47.543674,-1.635181,121.72,35.1,10.72,8.2,0 / 22,596230,2019-08-12 16:42:36:672,-0.3403,0.3587,9.4497,-0.2349,0.107,9.8033,0.0186,0.0032,0.0033
21938,47.543674,-1.635181,121.72,35.1,10.72,8.2,0 / 22,596230,2019-08-12 16:42:36:672,-0.3403,0.3587,9.4497,-0.2349,0.107,9.8033,0.0186,0.0032,0.0033
21939,47.543674,-1.635181,121.72,35.1,10.72,8.2,0 / 22,596230,2019-08-12 16:42:36:672,-0.3403,0.3587,9.4497,-0.2349,0.107,9.8033,0.0186,0.0032,0.0033
21940,47.543674,-1.635181,121.72,35.1,10.72,8.2,0 / 22,596231,2019-08-12 16:42:36:673,-0.3403,0.3587,9.4497,-0.2349,0.107,9.8033,0.0186,0.0032,0.0033
21941,47.543674,-1.635181,121.72,35.1,10.72,8.2,0 / 22,596231,2019-08-12 16:42:36:673,-0.3403,0.3587,9.4497,-0.2349,0.107,9.8033,0.0186,0.0032,0.0033
21942,47.543674,-1.635181,121.72,35.1,10.72,8.2,0 / 22,596231,2019-08-12 16:42:36:673,-0.3403,0.3587,9.4497,-0.2349,0.107,9.8033,0.0186,0.0032,0.0033
21943,47.543674,-1.635181,121.72,35.1,10.72,8.2,0 / 22,596232,2019-08-12 16:42:36:674,-0.3403,0.3587,9.4497,-0.2349,0.107,9.8033,0.0186,0.0032,0.0033
21944,47.543674,-1.635181,121.72,35.1,10.72,8.2,0 / 22,596232,2019-08-12 16:42:36:674,-0.3403,0.3587,9.4497,-0.2349,0.107,9.8033,0.0186,0.0032,0.0033
21945,47.543674,-1.635181,121.72,35.1,10.72,8.2,0 / 22,596233,2019-08-12 16:42:36:675,-0.3403,0.3587,9.4497,-0.2349,0.107,9.8033,0.0186,0.0032,0.0033
21946,47.543674,-1.635181,121.72,35.1,10.72,8.2,0 / 22,596233,2019-08-12 16:42:36:675,-0.3403,0.3587,9.4497,-0.2349,0.107,9.8033,0.0186,0.0032,0.0033
21947,47.543674,-1.635181,121.72,35.1,10.72,8.2,0 / 22,596234,2019-08-12 16:42:36:676,-0.3403,0.3587,9.4497,-0.2349,0.107,9.8033,0.0186,0.0032,0.0033
21948,47.543674,-1.635181,121.72,35.1,10.72,8.2,0 / 22,596234,2019-08-12 16:42:36:676,-0.3403,0.3587,9.4497,-0.2349,0.107,9.8033,0.0186,0.0032,0.0033
21949,47.543674,-1.635181,121.72,35.1,10.72,8.2,0 / 22,596234,2019-08-12 16:42:36:676,-0.3403,0.3587,9.4497,-0.2349,0.107,9.8033,0.0186,0.0032,0.0033
21950,47.543674,-1.635181,121.72,35.1,10.72,8.2,0 / 22,596235,2019-08-12 16:42:36:677,-0.3403,0.3587,9.4497,-0.2349,0.107,9.8033,0.0186,0.0032,0.0033
21951,47.543674,-1.635181,121.72,35.1,10.72,8.2,0 / 22,596235,2019-08-12 16:42:36:677,-0.3403,0.3587,9.4497,-0.2349,0.107,9.8033,0.0186,0.0032,0.0033
21952,47.543674,-1.635181,121.72,35.1,10.72,8.2,0 / 22,596236,2019-08-12 16:42:36:678,-0.3403,0.3587,9.4497,-0.2349,0.107,9.8033,0.0186,0.0032,0.0033
21953,47.543674,-1.635181,121.72,35.1,10.72,8.2,0 / 22,596236,2019-08-12 16:42:36:678,-0.3403,0.3587,9.4497,-0.2349,0.107,9.8033,0.0186,0.0032,0.0033
21954,47.543674,-1.635181,121.72,35.1,10.72,8.2,0 / 22,596236,2019-08-12 16:42:36:678,-0.3403,0.3587,9.4497,-0.2349,0.107,9.8033,0.0186,0.0032,0.0033
21955,47.543674,-1.635181,121.72,35.1,10.72,8.2,0 / 22,596237,2019-08-12 16:42:36:679,-0.3403,0.3587,9.4497,-0.2349,0.107,9.8033,0.0186,0.0032,0.0033
21956,47.543674,-1.635181,121.72,35.1,10.72,8.2,0 / 22,596237,2019-08-12 16:42:36:679,-0.3403,0.3587,9.4497,-0.2349,0.107,9.8033,0.0186,0.0032,0.0033
21957,47.543674,-1.635181,121.72,35.1,10.72,8.2,0 / 22,596237,2019-08-12 16:42:36:679,-0.3403,0.3587,9.4497,-0.2349,0.107,9.8033,0.0186,0.0032,0.0033
21958,47.543674,-1.635181,121.72,35.1,10.72,8.2,0 / 22,596238,2019-08-12 16:42:36:680,-0.3403,0.3587,9.4497,-0.2349,0.107,9.8033,0.0186,0.0032,0.0033
21959,47.543674,-1.635181,121.72,35.1,10.72,8.2,0 / 22,596238,2019-08-12 16:42:36:680,-0.3403,0.3587,9.4497,-0.2349,0.107,9.8033,0.0186,0.0032,0.0033
21960,47.543674,-1.635181,121.72,35.1,10.72,8.2,0 / 22,596249,2019-08-12 16:42:36:691,-0.3403,0.3587,9.4497,-0.2349,0.107,9.8033,0.0186,0.0032,0.0033
21961,47.543674,-1.635181,121.72,35.1,10.72,8.2,0 / 22,596349,2019-08-12 16:42:36:791,-0.3403,0.3587,9.4497,-0.2349,0.107,9.8033,0.0186,0.0032,0.0033
21962,47.543674,-1.635181,121.72,35.1,10.72,8.2,13 / 22,596680,2019-08-12 16:42:37:122,-0.3403,0.3587,9.4497,-0.2349,0.107,9.8033,0.0186,0.0032,0.0033
21963,47.543674,-1.635181,121.72,35.1,10.72,8.2,13 / 22,596681,2019-08-12 16:42:37:123,-0.3403,0.3587,9.4497,-0.2349,0.107,9.8033,0.0186,0.0032,0.0033
21964,47.543674,-1.635181,121.72,35.1,10.72,8.2,13 / 22,596681,2019-08-12 16:42:37:123,-0.3403,0.3587,9.4497,-0.2349,0.107,9.8033,0.0186,0.0032,0.0033
21965,47.543674,-1.635181,121.72,35.1,10.72,8.2,13 / 22,596682,2019-08-12 16:42:37:124,-0.3403,0.3587,9.4497,-0.2349,0.107,9.8033,0.0186,0.0032,0.0033
21966,47.543674,-1.635181,121.72,35.1,10.72,8.2,13 / 22,596683,2019-08-12 16:42:37:125,-0.3403,0.3587,9.4497,-0.2349,0.107,9.8033,0.0186,0.0032,0.0033
21967,47.543674,-1.635181,121.72,35.1,10.72,8.2,13 / 22,596684,2019-08-12 16:42:37:126,-0.3403,0.3587,9.4497,-0.2349,0.107,9.8033,0.0186,0.0032,0.0033
21968,47.543674,-1.635181,121.72,35.1,10.72,8.2,13 / 22,596684,2019-08-12 16:42:37:126,-0.3403,0.3587,9.4497,-0.2349,0.107,9.8033,0.0186,0.0032,0.0033
21969,47.543674,-1.635181,121.72,35.1,10.72,8.2,13 / 22,596685,2019-08-12 16:42:37:127,-0.3403,0.3587,9.4497,-0.2349,0.107,9.8033,0.0186,0.0032,0.0033
21970,47.543674,-1.635181,121.72,35.1,10.72,8.2,13 / 22,596706,2019-08-12 16:42:37:148,-0.3403,0.3587,9.4497,-0.2349,0.107,9.8033,0.0186,0.0032,0.0033
21971,47.543674,-1.635181,121.72,35.1,10.72,8.2,13 / 22,596806,2019-08-12 16:42:37:248,-0.3403,0.3587,9.4497,-0.2349,0.107,9.8033,0.0186,0.0032,0.0033
21972,47.543674,-1.635181,121.72,35.1,10.72,8.2,0 / 22,597151,2019-08-12 16:42:37:593,-0.3403,0.3587,9.4497,-0.2349,0.107,9.8033,0.0186,0.0032,0.0033
21973,47.543674,-1.635181,121.72,35.1,10.72,8.2,0 / 22,597151,2019-08-12 16:42:37:593,-0.3403,0.3587,9.4497,-0.2349,0.107,9.8033,0.0186,0.0032,0.0033
21974,47.543674,-1.635181,121.72,35.1,10.72,8.2,0 / 22,597152,2019-08-12 16:42:37:594,-0.3403,0.3587,9.4497,-0.2349,0.107,9.8033,0.0186,0.0032,0.0033
21975,47.543674,-1.635181,121.72,35.1,10.72,8.2,0 / 22,597153,2019-08-12 16:42:37:595,-0.3403,0.3587,9.4497,-0.2349,0.107,9.8033,0.0186,0.0032,0.0033
21976,47.543674,-1.635181,121.72,35.1,10.72,8.2,0 / 22,597153,2019-08-12 16:42:37:595,-0.3403,0.3587,9.4497,-0.2349,0.107,9.8033,0.0186,0.0032,0.0033
21977,47.543674,-1.635181,121.72,35.1,10.72,8.2,0 / 22,597154,2019-08-12 16:42:37:596,-0.3403,0.3587,9.4497,-0.2349,0.107,9.8033,0.0186,0.0032,0.0033
21978,47.543674,-1.635181,121.72,35.1,10.72,8.2,0 / 22,597154,2019-08-12 16:42:37:596,-0.3403,0.3587,9.4497,-0.2349,0.107,9.8033,0.0186,0.0032,0.0033
21979,47.543674,-1.635181,121.72,35.1,10.72,8.2,0 / 22,597154,2019-08-12 16:42:37:596,-0.3403,0.3587,9.4497,-0.2349,0.107,9.8033,0.0186,0.0032,0.0033
21980,47.54638,-1.634286,125.62,34.86,11.792,19.0,0 / 22,597175,2019-08-12 16:42:37:617,-0.3403,0.3587,9.4497,-0.2349,0.107,9.8033,0.0186,0.0032,0.0033
21981,47.54638,-1.634286,125.62,34.86,11.792,19.0,0 / 22,597275,2019-08-12 16:42:37:717,-0.3403,0.3587,9.4497,-0.2349,0.107,9.8033,0.0186,0.0032,0.0033
21982,47.54638,-1.634286,125.62,34.86,11.792,19.0,0 / 22,597375,2019-08-12 16:42:37:817,-0.3403,0.3587,9.4497,-0.2349,0.107,9.8033,0.0186,0.0032,0.0033
21983,47.54638,-1.634286,125.62,34.86,11.792,19.0,0 / 22,597475,2019-08-12 16:42:37:917,-0.3403,0.3587,9.4497,-0.2349,0.107,9.8033,0.0186,0.0032,0.0033
21984,47.54638,-1.634286,125.62,34.86,11.792,19.0,0 / 22,597576,2019-08-12 16:42:38:018,-0.004,-0.5272,9.9585,-0.2442,0.3306,9.798,0.0186,0.0032,0.0033
21985,47.54638,-1.634286,125.62,34.86,11.792,19.0,0 / 22,597675,2019-08-12 16:42:38:117,-0.3152,0.2665,9.3947,-0.252,0.3116,9.7985,0.0016,0.0021,-0.0031
21986,47.54638,-1.634286,125.62,34.86,11.792,19.0,0 / 22,597775,2019-08-12 16:42:38:217,0.0164,-0.0412,10.2314,-0.2449,0.2519,9.8004,0.0037,-0.0011,-0.0041
21987,47.54638,-1.634286,125.62,34.86,11.792,19.0,0 / 22,597875,2019-08-12 16:42:38:317,0.014,0.0223,10.1393,-0.2366,0.2212,9.8013,-0.0112,-0.0043,-0.002
21988,47.54638,-1.634286,125.62,34.86,11.792,19.0,0 / 22,597976,2019-08-12 16:42:38:418,-0.0159,-0.0029,10.3021,-0.2283,0.2033,9.8019,-0.0112,-0.0085,-0.002
21989,47.54638,-1.634286,125.62,34.86,11.792,19.0,0 / 22,598076,2019-08-12 16:42:38:518,-0.4732,-0.0507,10.1764,-0.2285,0.1673,9.8026,-0.0038,-0.0032,-0.002
21990,47.54638,-1.634286,125.62,34.86,11.792,19.0,0 / 22,598176,2019-08-12 16:42:38:618,-0.733,0.1037,9.8304,-0.2894,0.1223,9.8016,0.0026,0.0032,-0.002
21991,47.54638,-1.634286,125.62,34.86,11.792,19.0,0 / 22,598276,2019-08-12 16:42:38:718,-0.8982,0.2306,9.7215,-0.3071,0.1179,9.8011,-0.0059,0.0085,-0.002
21992,47.54638,-1.634286,125.62,34.86,11.792,19.0,0 / 22,598376,2019-08-12 16:42:38:818,-0.3739,0.045,9.6616,-0.34,0.1132,9.8001,-0.0006,0.0085,-0.0009
21993,47.54638,-1.634286,125.62,34.86,11.792,19.0,0 / 22,598475,2019-08-12 16:42:38:917,-0.6755,-0.0531,10.1991,-0.3942,0.0959,9.7983,-0.0059,0.0,-0.002
21994,47.54638,-1.634286,125.62,34.86,11.792,19.0,0 / 22,598575,2019-08-12 16:42:39:017,-0.4565,-0.1393,10.4314,-0.516,0.0743,9.7928,0.0005,-0.0096,-0.002
21995,47.54638,-1.634286,125.62,34.86,11.792,19.0,0 / 22,598675,2019-08-12 16:42:39:117,-0.7055,-0.0089,9.9813,-0.5783,0.0523,9.7894,-0.0016,-0.0021,-0.002
21996,47.54638,-1.634286,125.62,34.86,11.792,19.0,0 / 22,598776,2019-08-12 16:42:39:218,-0.8479,0.0929,9.7921,-0.6543,0.0581,9.7846,0.0005,0.0085,0.0001
21997,47.54638,-1.634286,125.62,34.86,11.792,19.0,0 / 22,598876,2019-08-12 16:42:39:318,-1.0706,0.2892,9.6664,-0.6998,0.0758,9.7814,0.0058,0.0074,0.0044
21998,47.54638,-1.634286,125.62,34.86,11.792,19.0,0 / 22,598976,2019-08-12 16:42:39:418,-1.8116,0.3898,9.2809,-0.7267,0.0834,9.7793,-0.0038,-0.0043,0.0108
21999,47.54638,-1.634286,125.62,34.86,11.792,19.0,0 / 22,599076,2019-08-12 16:42:39:518,-1.7218,0.4066,9.9705,-0.7522,0.0992,9.7773,0.0143,0.0128,0.0129
22000,47.54638,-1.634286,125.62,34.86,11.792,19.0,0 / 22,599176,2019-08-12 16:42:39:618,-1.2394,0.3814,9.9023,-0.7901,0.1288,9.7739,0.009,0.0032,0.0129
22001,47.54638,-1.634286,125.62,34.86,11.792,19.0,0 / 22,599276,2019-08-12 16:42:39:718,-1.0419,0.452,10.0052,-0.804,0.1526,9.7724,0.0122,-0.0043,0.015
22002,47.54638,-1.634286,125.62,34.86,11.792,19.0,0 / 22,599376,2019-08-12 16:42:39:818,-1.2059,0.5095,9.3576,-0.8346,0.1781,9.7694,-0.0091,0.0117,0.0182
22003,47.54638,-1.634286,125.62,34.86,11.792,19.0,0 / 22,599475,2019-08-12 16:42:39:917,-0.8814,0.7094,9.5443,-0.8456,0.1904,9.7683,-0.0091,0.0107,0.0172
22004,47.54638,-1.634286,125.62,34.86,11.792,19.0,0 / 22,599575,2019-08-12 16:42:40:017,-1.2226,0.7046,9.8556,-0.8532,0.2157,9.7671,-0.0006,-0.0011,0.0161
22005,47.54638,-1.634286,125.62,34.86,11.792,19.0,0 / 22,599675,2019-08-12 16:42:40:117,-1.3603,0.7453,9.3683,-0.8516,0.2382,9.7667,0.0101,-0.0075,0.0161
22006,47.54638,-1.634286,125.62,34.86,11.792,19.0,0 / 22,599775,2019-08-12 16:42:40:217,-1.2226,0.8495,9.9789,-0.8453,0.2685,9.7665,0.0037,-0.0053,0.0172
22007,47.54638,-1.634286,125.62,34.86,11.792,19.0,0 / 22,599875,2019-08-12 16:42:40:317,-0.9437,0.7214,9.7347,-0.8648,0.3736,9.7613,-0.0038,-0.0053,0.0182
22008,47.54638,-1.634286,125.62,34.86,11.792,19.0,0 / 22,599975,2019-08-12 16:42:40:417,-0.9114,0.8411,9.9418,-0.8945,0.481,9.7539,0.0005,-0.0053,0.0161
22009,47.54638,-1.634286,125.62,34.86,11.792,19.0,0 / 22,600076,2019-08-12 16:42:40:518,-0.7928,0.6615,9.7622,-0.9312,0.5269,9.7481,0.0047,0.0053,0.0161
22010,47.54638,-1.634286,125.62,34.86,11.792,19.0,0 / 22,600175,2019-08-12 16:42:40:617,-0.6288,0.6579,10.2973,-0.9772,0.568,9.7413,0.0175,0.0107,0.0161
22011,47.54638,-1.634286,125.62,34.86,11.792,19.0,0 / 22,600275,2019-08-12 16:42:40:717,-0.9425,0.7082,9.7538,-0.992,0.5762,9.7393,-0.0027,0.0117,0.014
22012,47.54638,-1.634286,125.62,34.86,11.792,19.0,0 / 22,600375,2019-08-12 16:42:40:817,-1.1077,0.4832,10.0794,-1.011,0.5618,9.7382,-0.0155,-0.0075,0.0097
22013,47.54638,-1.634286,125.62,34.86,11.792,19.0,0 / 22,600475,2019-08-12 16:42:40:917,-1.7338,0.4149,10.2925,-1.0088,0.5529,9.7389,-0.0102,-0.0149,0.0087
22014,47.54638,-1.634286,125.62,34.86,11.792,19.0,0 / 22,600575,2019-08-12 16:42:41:017,-1.7589,0.4066,9.8137,-1.023,0.5457,9.7379,0.0026,-0.0021,0.0076
22015,47.54638,-1.634286,125.62,34.86,11.792,19.0,0 / 22,600675,2019-08-12 16:42:41:117,-1.8798,0.312,10.3787,-1.033,0.5416,9.737,0.0016,-0.0107,0.0065
22016,47.54638,-1.634286,125.62,34.86,11.792,19.0,0 / 22,600775,2019-08-12 16:42:41:217,-2.0678,0.543,9.5287,-1.1417,0.496,9.7273,-0.0091,-0.0075,0.0076
22017,47.54638,-1.634286,125.62,34.86,11.792,19.0,0 / 22,600875,2019-08-12 16:42:41:317,-1.9109,0.4509,9.0487,-1.2298,0.4721,9.7178,0.0079,0.0021,0.0087
22018,47.54638,-1.634286,125.62,34.86,11.792,19.0,0 / 22,600975,2019-08-12 16:42:41:417,-1.8104,0.549,9.755,-1.3286,0.4425,9.7061,-0.0016,-0.0139,0.0129
22019,47.54638,-1.634286,125.62,34.86,11.792,19.0,0 / 22,601075,2019-08-12 16:42:41:517,-1.8966,0.5765,9.7562,-1.3631,0.4492,9.7011,0.0026,-0.0096,0.0119
22020,47.54638,-1.634286,125.62,34.86,11.792,19.0,0 / 22,601175,2019-08-12 16:42:41:617,-1.9062,0.543,9.3683,-1.3841,0.456,9.6978,0.0037,0.016,0.0097
22021,47.54638,-1.634286,125.62,34.86,11.792,19.0,0 / 22,601275,2019-08-12 16:42:41:717,-1.9756,0.5562,9.2558,-1.4146,0.4608,9.6931,-0.0006,0.0138,0.0097
22022,47.54638,-1.634286,125.62,34.86,11.792,19.0,0 / 22,601375,2019-08-12 16:42:41:817,-1.887,0.6376,8.8344,-1.4379,0.4622,9.6896,-0.0006,0.0192,0.0097
22023,47.54638,-1.634286,125.62,34.86,11.792,19.0,0 / 22,601475,2019-08-12 16:42:41:917,-1.7697,0.8219,9.4749,-1.469,0.476,9.6843,0.0101,0.0117,0.0119
22024,47.54638,-1.634286,125.62,34.86,11.792,19.0,0 / 22,601576,2019-08-12 16:42:42:018,-1.8439,0.6125,9.6904,-1.4766,0.4953,9.6822,0.0154,0.0,0.0182
22025,47.54638,-1.634286,125.62,34.86,11.792,19.0,0 / 22,601675,2019-08-12 16:42:42:117,-1.8475,0.7908,9.822,-1.477,0.5231,9.6807,0.0111,-0.0075,0.0225
22026,47.54638,-1.634286,125.62,34.86,11.792,19.0,0 / 22,601775,2019-08-12 16:42:42:217,-1.869,1.059,10.1788,-1.4647,0.534,9.6819,-0.0038,-0.0224,0.0225
22027,47.54638,-1.634286,125.62,34.86,11.792,19.0,0 / 22,601875,2019-08-12 16:42:42:317,-1.9169,1.0674,10.4972,-1.4364,0.5388,9.6859,-0.0123,-0.0277,0.0204
22028,47.54638,-1.634286,125.62,34.86,11.792,19.0,0 / 22,601975,2019-08-12 16:42:42:417,-1.899,1.041,10.2267,-1.4191,0.5412,9.6883,-0.0102,-0.0256,0.0214
22029,47.54638,-1.634286,125.62,34.86,11.792,19.0,0 / 22,602075,2019-08-12 16:42:42:517,-1.9241,0.8519,10.1273,-1.4085,0.5506,9.6893,-0.0038,-0.0096,0.0225
22030,47.54638,-1.634286,125.62,34.86,11.792,19.0,0 / 22,602176,2019-08-12 16:42:42:618,-1.8439,0.9812,9.7849,-1.4121,0.5626,9.6881,0.0026,0.0011,0.0246
22031,47.54638,-1.634286,125.62,34.86,11.792,19.0,0 / 22,602276,2019-08-12 16:42:42:718,-1.8595,0.9297,9.6568,-1.426,0.5915,9.6844,0.0143,0.0085,0.0246
22032,47.54638,-1.634286,125.62,34.86,11.792,19.0,0 / 22,602375,2019-08-12 16:42:42:817,-1.5255,0.8507,9.5311,-1.4237,0.6221,9.6828,0.0335,-0.0021,0.0225
22033,47.54638,-1.634286,125.62,34.86,11.792,19.0,0 / 22,602476,2019-08-12 16:42:42:918,-1.1388,0.8064,9.0894,-1.4277,0.6506,9.6803,-0.0016,0.0149,0.0193
22034,47.54638,-1.634286,125.62,34.86,11.792,19.0,0 / 22,602575,2019-08-12 16:42:43:017,-1.1412,0.9189,9.2067,-1.4217,0.6422,9.6818,-0.0336,0.0074,0.0193
22035,47.54638,-1.634286,125.62,34.86,11.792,19.0,0 / 22,602676,2019-08-12 16:42:43:118,-1.0335,0.9476,9.9394,-1.3796,0.6364,9.6882,-0.0091,-0.0224,0.0193
22036,47.54638,-1.634286,125.62,34.86,11.792,19.0,0 / 22,602775,2019-08-12 16:42:43:217,-1.0802,0.7896,10.1908,-1.3403,0.6496,9.6929,0.0101,-0.0266,0.0214
22037,47.54638,-1.634286,125.62,34.86,11.792,19.0,0 / 22,602876,2019-08-12 16:42:43:318,-1.0359,0.7465,9.749,-1.3004,0.6699,9.6969,0.0058,0.0021,0.0225
22038,47.54638,-1.634286,125.62,34.86,11.792,19.0,0 / 22,602975,2019-08-12 16:42:43:417,-1.0131,0.8124,9.8711,-1.2979,0.6782,9.6967,0.0026,0.0181,0.0204
22039,47.54638,-1.634286,125.62,34.86,11.792,19.0,0 / 22,603077,2019-08-12 16:42:43:519,-0.9162,0.7932,9.834,-1.2904,0.6829,9.6974,-0.0112,0.0085,0.0214
22040,47.54638,-1.634286,125.62,34.86,11.792,19.0,0 / 22,603176,2019-08-12 16:42:43:618,-0.7988,0.8615,9.5371,-1.2323,0.7132,9.7027,-0.008,0.0032,0.0193
22041,47.54638,-1.634286,125.62,34.86,11.792,19.0,0 / 22,603277,2019-08-12 16:42:43:719,-0.8934,0.6639,9.773,-1.1792,0.7411,9.7072,0.0058,-0.0021,0.0214
22042,47.54638,-1.634286,125.62,34.86,11.792,19.0,0 / 22,603376,2019-08-12 16:42:43:818,-1.0323,0.6771,9.9777,-1.172,0.7488,9.7075,0.0069,-0.0085,0.0225
22043,47.54638,-1.634286,125.62,34.86,11.792,19.0,0 / 22,603477,2019-08-12 16:42:43:919,-1.1209,0.7405,10.3512,-1.1571,0.7583,9.7086,0.0111,-0.0064,0.0204
22044,47.54638,-1.634286,125.62,34.86,11.792,19.0,0 / 22,603576,2019-08-12 16:42:44:018,-1.2059,0.7633,10.1261,-1.1529,0.7674,9.7084,0.0207,-0.0032,0.0193
22045,47.54638,-1.634286,125.62,34.86,11.792,19.0,0 / 22,603676,2019-08-12 16:42:44:118,-1.3579,0.7609,9.6293,-1.1623,0.752,9.7084,-0.0038,-0.0021,0.0172
22046,47.54638,-1.634286,125.62,34.86,11.792,19.0,0 / 22,603775,2019-08-12 16:42:44:217,-1.0562,0.7884,9.6927,-1.1505,0.748,9.7102,0.0016,0.0032,0.0119
22047,47.54638,-1.634286,125.62,34.86,11.792,19.0,0 / 22,603875,2019-08-12 16:42:44:317,-1.049,0.5634,9.4952,-1.1369,0.7345,9.7128,-0.0176,-0.0021,0.0065
22048,47.54638,-1.634286,125.62,34.86,11.792,19.0,0 / 22,603975,2019-08-12 16:42:44:417,-0.8862,0.5035,9.6592,-1.1123,0.7142,9.7172,-0.0166,-0.0213,0.0033
22049,47.54638,-1.634286,125.62,34.86,11.792,19.0,0 / 22,604075,2019-08-12 16:42:44:517,-0.5594,0.3527,10.32,-1.0785,0.6782,9.7235,-0.0123,-0.0107,0.0033
22050,47.54638,-1.634286,125.62,34.86,11.792,19.0,0 / 22,604175,2019-08-12 16:42:44:617,-0.6684,0.1001,10.2303,-1.0333,0.6256,9.732,0.0005,-0.0043,0.0033
22051,47.54638,-1.634286,125.62,34.86,11.792,19.0,0 / 22,604275,2019-08-12 16:42:44:717,-0.6528,0.2078,10.3248,-0.9346,0.5118,9.7486,0.0026,-0.0107,0.0044
22052,47.54638,-1.634286,125.62,34.86,11.792,19.0,0 / 22,604375,2019-08-12 16:42:44:817,-0.7258,0.3563,9.8412,-0.8907,0.4668,9.755,0.0016,0.0,0.0033
22053,47.54638,-1.634286,125.62,34.86,11.792,19.0,0 / 22,604475,2019-08-12 16:42:44:917,-0.7952,0.215,9.5084,-0.8522,0.4157,9.7607,0.0016,0.0064,0.0044
22054,47.54638,-1.634286,125.62,34.86,11.792,19.0,0 / 22,604576,2019-08-12 16:42:45:018,-0.7905,0.3431,9.6006,-0.8415,0.4015,9.7622,0.0026,0.0032,0.0044
22055,47.54638,-1.634286,125.62,34.86,11.792,19.0,0 / 22,604676,2019-08-12 16:42:45:118,-0.8407,0.2126,9.5719,-0.8229,0.3593,9.7655,0.0026,-0.0011,0.0001
22056,47.54638,-1.634286,125.62,34.86,11.792,19.0,0 / 22,604776,2019-08-12 16:42:45:218,-0.8324,0.1061,9.6951,-0.7997,0.3066,9.7692,-0.0006,-0.0064,-0.0063
22057,47.54638,-1.634286,125.62,34.86,11.792,19.0,0 / 22,604876,2019-08-12 16:42:45:318,-0.6504,-0.107,9.8927,-0.7731,0.2594,9.7727,-0.0027,-0.0032,-0.0105
22058,47.54638,-1.634286,125.62,34.86,11.792,19.0,0 / 22,604976,2019-08-12 16:42:45:418,-0.5858,-0.1633,9.4521,-0.7434,0.1625,9.7771,0.0005,0.0138,-0.0094
22059,47.54638,-1.634286,125.62,34.86,11.792,19.0,0 / 22,605075,2019-08-12 16:42:45:517,-0.5654,-0.2626,9.8639,-0.7532,0.1512,9.7765,0.0016,0.016,-0.0116
22060,47.54638,-1.634286,125.62,34.86,11.792,19.0,Dec-22,605175,2019-08-12 16:42:45:617,-0.6001,-0.2088,9.4629,-0.7473,0.1039,9.7776,-0.0016,0.0,-0.0169
22061,47.54638,-1.634286,125.62,34.86,11.792,19.0,Dec-22,605276,2019-08-12 16:42:45:718,-0.7294,-0.2674,9.7825,-0.7166,0.0012,9.7804,0.0047,-0.0075,-0.018
22062,47.54638,-1.634286,125.62,34.86,11.792,19.0,Dec-22,605376,2019-08-12 16:42:45:818,-0.818,-0.3835,9.658,-0.6939,-0.0885,9.7817,0.0016,-0.0043,-0.0169
22063,47.54638,-1.634286,125.62,34.86,11.792,19.0,Dec-22,605475,2019-08-12 16:42:45:917,-0.6444,-0.3476,9.9753,-0.6792,-0.1365,9.7821,-0.0038,-0.0043,-0.0158
22064,47.54638,-1.634286,125.62,34.86,11.792,19.0,Dec-22,605575,2019-08-12 16:42:46:017,-0.557,-0.2351,10.2135,-0.6651,-0.1494,9.7829,-0.0059,-0.0096,-0.0137
22065,47.54638,-1.634286,125.62,34.86,11.792,19.0,Dec-22,605676,2019-08-12 16:42:46:118,-0.5869,-0.028,9.9094,-0.651,-0.1657,9.7836,-0.0006,-0.0043,-0.0126
22066,47.54638,-1.634286,125.62,34.86,11.792,19.0,Dec-22,605775,2019-08-12 16:42:46:217,-0.6971,-0.204,9.7359,-0.6405,-0.1689,9.7843,-0.0102,-0.0085,-0.0084
22067,47.54638,-1.634286,125.62,34.86,11.792,19.0,Dec-22,605875,2019-08-12 16:42:46:317,-0.7414,0.13,10.2901,-0.6303,-0.1485,9.7852,0.0005,-0.0075,-0.0094
22068,47.54638,-1.634286,125.62,34.86,11.792,19.0,Dec-22,605975,2019-08-12 16:42:46:417,-0.66,-0.0256,10.0495,-0.5957,-0.1047,9.788,0.0005,-0.0245,-0.0052
22069,47.54638,-1.634286,125.62,34.86,11.792,19.0,Dec-22,606076,2019-08-12 16:42:46:518,-0.5678,0.0199,10.4493,-0.5662,-0.0765,9.79,0.0154,-0.0128,-0.0031
22070,47.549072,-1.632856,139.98,30.38,11.792,17.1,0 / 22,606175,2019-08-12 16:42:46:617,-0.3763,0.1049,9.494,-0.5601,-0.0264,9.7906,0.0047,0.0064,0.0012
22071,47.549072,-1.632856,139.98,30.38,11.792,17.1,0 / 22,606275,2019-08-12 16:42:46:717,-0.6911,0.3874,9.4641,-0.561,-0.0087,9.7906,0.0122,0.0096,0.0044
22072,47.549072,-1.632856,139.98,30.38,11.792,17.1,0 / 22,606375,2019-08-12 16:42:46:817,-0.6169,0.5358,9.7107,-0.5708,0.0298,9.79,0.0218,0.0138,0.0108
22073,47.549072,-1.632856,139.98,30.38,11.792,17.1,0 / 22,606476,2019-08-12 16:42:46:918,-0.6133,0.6795,9.3193,-0.5774,0.0676,9.7894,0.0239,0.0117,0.0214
22074,47.549072,-1.632856,139.98,30.38,11.792,17.1,0 / 22,606575,2019-08-12 16:42:47:017,-0.5103,0.8698,9.8975,-0.5685,0.1222,9.7894,0.0197,-0.0149,0.0278
22075,47.549072,-1.632856,139.98,30.38,11.792,17.1,0 / 22,606675,2019-08-12 16:42:47:117,-0.4972,0.9417,10.4362,-0.5443,0.1621,9.7902,0.0186,-0.0309,0.0289
22076,47.549072,-1.632856,139.98,30.38,11.792,17.1,0 / 22,606775,2019-08-12 16:42:47:217,-0.2841,1.0063,11.4764,-0.4932,0.2187,9.7918,0.0101,-0.0415,0.0246
22077,47.549072,-1.632856,139.98,30.38,11.792,17.1,0 / 22,606875,2019-08-12 16:42:47:317,-0.5067,1.3702,10.7019,-0.4608,0.2413,9.7928,-0.0197,-0.0352,0.0278
22078,47.549072,-1.632856,139.98,30.38,11.792,17.1,0 / 22,606975,2019-08-12 16:42:47:417,-0.6288,1.3319,10.9317,-0.4416,0.2759,9.7928,-0.0102,-0.0021,0.0374
22079,47.549072,-1.632856,139.98,30.38,11.792,17.1,0 / 22,607076,2019-08-12 16:42:47:518,-0.4445,1.363,9.6257,-0.4403,0.3053,9.792,-0.007,0.0021,0.047
22080,47.549072,-1.632856,139.98,30.38,11.792,17.1,0 / 22,607175,2019-08-12 16:42:47:617,-0.3643,1.4947,9.5922,-0.4494,0.3644,9.7896,0.0016,0.0085,0.0545
22081,47.549072,-1.632856,139.98,30.38,11.792,17.1,0 / 22,607275,2019-08-12 16:42:47:717,-0.2218,1.5282,9.0212,-0.4608,0.402,9.7876,-0.0123,0.0234,0.0555
22082,47.549072,-1.632856,139.98,30.38,11.792,17.1,0 / 22,607376,2019-08-12 16:42:47:818,-0.4912,1.8515,8.4873,-0.4978,0.4545,9.7835,-0.0176,0.0373,0.0577
22083,47.549072,-1.632856,139.98,30.38,11.792,17.1,0 / 22,607475,2019-08-12 16:42:47:917,-0.5774,1.8072,8.2431,-0.5201,0.4958,9.7803,-0.0016,0.0298,0.0609
22084,47.549072,-1.632856,139.98,30.38,11.792,17.1,0 / 22,607575,2019-08-12 16:42:48:017,-0.5714,1.9616,8.9254,-0.5372,0.583,9.7746,0.0271,0.0064,0.0609
22085,47.549072,-1.632856,139.98,30.38,11.792,17.1,0 / 22,607676,2019-08-12 16:42:48:118,-0.4158,1.7581,10.8719,-0.5131,0.6481,9.7718,0.0303,-0.033,0.0555
22086,47.549072,-1.632856,139.98,30.38,11.792,17.1,0 / 22,607775,2019-08-12 16:42:48:217,-0.3056,1.7808,10.9557,-0.4626,0.7103,9.7699,-0.0059,-0.0288,0.0396
22087,47.549072,-1.632856,139.98,30.38,11.792,17.1,0 / 22,607875,2019-08-12 16:42:48:317,-0.2889,1.5127,10.508,-0.4484,0.7261,9.7694,-0.0176,-0.0032,0.0342
22088,47.549072,-1.632856,139.98,30.38,11.792,17.1,0 / 22,607975,2019-08-12 16:42:48:417,-0.5223,1.2816,9.9848,-0.4468,0.7484,9.7678,0.0016,0.0064,0.0353
22089,47.549072,-1.632856,139.98,30.38,11.792,17.1,0 / 22,608076,2019-08-12 16:42:48:518,-0.3667,1.108,9.7335,-0.4472,0.7744,9.7658,0.0154,0.0011,0.0385
22090,47.549072,-1.632856,139.98,30.38,11.792,17.1,0 / 22,608176,2019-08-12 16:42:48:618,-0.4074,1.2278,9.7059,-0.4362,0.8075,9.7636,0.0016,-0.0053,0.0396
22091,47.549072,-1.632856,139.98,30.38,11.792,17.1,0 / 22,608275,2019-08-12 16:42:48:717,-0.2949,1.4576,9.8963,-0.4302,0.9131,9.7546,-0.0197,-0.0011,0.0385
22092,47.549072,-1.632856,139.98,30.38,11.792,17.1,0 / 22,608375,2019-08-12 16:42:48:817,-0.5953,1.4181,9.737,-0.4368,0.9995,9.7458,-0.0251,0.0085,0.0353
22093,47.549072,-1.632856,139.98,30.38,11.792,17.1,0 / 22,608475,2019-08-12 16:42:48:917,-0.66,1.3259,9.0786,-0.4467,1.0021,9.7451,-0.0134,0.0149,0.0342
22094,47.549072,-1.632856,139.98,30.38,11.792,17.1,0 / 22,608577,2019-08-12 16:42:49:019,-0.4218,1.0434,9.8556,-0.4616,0.9987,9.7447,-0.0144,0.0096,0.0374
22095,47.549072,-1.632856,139.98,30.38,11.792,17.1,0 / 22,608675,2019-08-12 16:42:49:117,-0.2637,1.1823,9.2007,-0.4636,1.048,9.7395,0.0037,0.0138,0.0364
22096,47.549072,-1.632856,139.98,30.38,11.792,17.1,0 / 22,608777,2019-08-12 16:42:49:219,-0.4613,1.2445,9.2247,-0.4648,1.116,9.7318,0.0133,0.0074,0.0374
22097,47.549072,-1.632856,139.98,30.38,11.792,17.1,0 / 22,608875,2019-08-12 16:42:49:317,-0.7402,1.3056,9.6508,-0.4768,1.1679,9.7252,0.0314,0.0074,0.0374
22098,47.549072,-1.632856,139.98,30.38,11.792,17.1,0 / 22,608976,2019-08-12 16:42:49:418,-0.4122,1.4061,9.6209,-0.4877,1.2427,9.7154,0.0314,0.0043,0.0428
22099,47.549072,-1.632856,139.98,30.38,11.792,17.1,0 / 22,609076,2019-08-12 16:42:49:518,-0.2278,1.4384,10.3535,-0.4812,1.2721,9.7119,0.0122,-0.0032,0.0438
22100,47.549072,-1.632856,139.98,30.38,11.792,17.1,0 / 22,609175,2019-08-12 16:42:49:617,-0.2542,1.5869,10.5032,-0.4527,1.2949,9.7102,0.009,-0.0202,0.0438
22101,47.549072,-1.632856,139.98,30.38,11.792,17.1,0 / 22,609275,2019-08-12 16:42:49:717,-0.6696,1.4959,10.0483,-0.4226,1.3261,9.7074,-0.007,-0.0245,0.0449
22102,47.549072,-1.632856,139.98,30.38,11.792,17.1,0 / 22,609375,2019-08-12 16:42:49:817,-0.6552,1.5989,10.3715,-0.4146,1.3536,9.7039,-0.007,-0.0149,0.0428
22103,47.549072,-1.632856,139.98,30.38,11.792,17.1,0 / 22,609475,2019-08-12 16:42:49:917,-0.4002,1.4863,9.9346,-0.4045,1.3547,9.7042,-0.0027,0.0021,0.0438
22104,47.549072,-1.632856,139.98,30.38,11.792,17.1,0 / 22,609577,2019-08-12 16:42:50:019,-0.1105,1.6575,9.9729,-0.4019,1.3588,9.7037,-0.0038,0.0053,0.047
22105,47.549072,-1.632856,139.98,30.38,11.792,17.1,0 / 22,609675,2019-08-12 16:42:50:117,-0.6013,1.533,10.0926,-0.3876,1.3609,9.704,-0.007,-0.0107,0.0449
22106,47.549072,-1.632856,139.98,30.38,11.792,17.1,0 / 22,609777,2019-08-12 16:42:50:219,-0.5726,1.4959,10.101,-0.3733,1.3669,9.7037,0.0026,-0.0181,0.0406
22107,47.549072,-1.632856,139.98,30.38,11.792,17.1,0 / 22,609876,2019-08-12 16:42:50:318,-0.2266,1.3547,10.168,-0.3582,1.3669,9.7043,-0.0038,0.0043,0.0374
22108,47.549072,-1.632856,139.98,30.38,11.792,17.1,0 / 22,609975,2019-08-12 16:42:50:417,-0.1225,1.2709,9.5946,-0.3685,1.3614,9.7047,-0.008,0.0213,0.0332
22109,47.549072,-1.632856,139.98,30.38,11.792,17.1,0 / 22,610075,2019-08-12 16:42:50:517,-0.4397,1.1763,9.9202,-0.3877,1.3564,9.7047,-0.0059,0.0202,0.0321
22110,47.549072,-1.632856,139.98,30.38,11.792,17.1,0 / 22,610176,2019-08-12 16:42:50:618,-0.478,1.1631,9.4438,-0.3862,1.3648,9.7035,0.0186,0.0032,0.0342
22111,47.549072,-1.632856,139.98,30.38,11.792,17.1,0 / 22,610276,2019-08-12 16:42:50:718,-0.1728,0.9764,9.7323,-0.3748,1.3774,9.7022,0.0218,-0.0075,0.0289
22112,47.549072,-1.632856,139.98,30.38,11.792,17.1,0 / 22,610376,2019-08-12 16:42:50:818,0.0343,1.2589,10.6504,-0.3617,1.3765,9.7028,0.009,-0.0043,0.0257
22113,47.549072,-1.632856,139.98,30.38,11.792,17.1,0 / 22,610475,2019-08-12 16:42:50:917,-0.496,1.0338,9.4617,-0.3655,1.3487,9.7066,-0.0272,0.0149,0.0204
22114,47.549072,-1.632856,139.98,30.38,11.792,17.1,0 / 22,610575,2019-08-12 16:42:51:017,-0.3559,1.0099,10.2769,-0.3669,1.3077,9.7121,-0.0443,0.0032,0.0214
22115,47.549072,-1.632856,139.98,30.38,11.792,17.1,0 / 22,610676,2019-08-12 16:42:51:118,-0.2494,0.9237,9.9262,-0.3486,1.2449,9.7211,-0.0379,-0.0075,0.0172
22116,47.549072,-1.632856,139.98,30.38,11.792,17.1,0 / 22,610777,2019-08-12 16:42:51:219,-0.0064,0.5167,10.2171,-0.3417,1.2093,9.7258,-0.0197,-0.0032,0.0108
22117,47.549072,-1.632856,139.98,30.38,11.792,17.1,0 / 22,610876,2019-08-12 16:42:51:318,-0.059,0.3874,9.4868,-0.3398,1.1607,9.7318,-0.0048,0.0096,0.0023
22118,47.549072,-1.632856,139.98,30.38,11.792,17.1,0 / 22,610977,2019-08-12 16:42:51:419,0.0188,0.1528,10.6373,-0.3225,1.1297,9.736,-0.0027,-0.016,-0.0031
22119,47.549072,-1.632856,139.98,30.38,11.792,17.1,0 / 22,611076,2019-08-12 16:42:51:518,0.0978,0.063,9.5838,-0.2918,1.0679,9.744,-0.0219,-0.016,-0.0052
22120,47.549072,-1.632856,139.98,30.38,11.792,17.1,0 / 22,611176,2019-08-12 16:42:51:618,0.0523,0.2138,10.2111,-0.2733,1.0208,9.7495,-0.0219,-0.0043,-0.0052
22121,47.549072,-1.632856,139.98,30.38,11.792,17.1,0 / 22,611277,2019-08-12 16:42:51:719,-0.2087,0.0486,9.6473,-0.2665,0.9608,9.7558,-0.008,0.0107,-0.0052
22122,47.549072,-1.632856,139.98,30.38,11.792,17.1,0 / 22,611376,2019-08-12 16:42:51:818,0.2247,0.0929,9.184,-0.2645,0.9276,9.7591,-0.0006,0.016,-0.0073
22123,47.549072,-1.632856,139.98,30.38,11.792,17.1,0 / 22,611477,2019-08-12 16:42:51:919,0.2558,0.0857,9.6724,-0.2532,0.8866,9.7632,-0.0016,-0.0053,-0.0052
22124,47.549072,-1.632856,139.98,30.38,11.792,17.1,0 / 22,611576,2019-08-12 16:42:52:018,0.2402,0.1647,10.0531,-0.2293,0.8608,9.7661,0.0058,-0.0128,-0.0052
22125,47.549072,-1.632856,139.98,30.38,11.792,17.1,0 / 22,611677,2019-08-12 16:42:52:119,-0.0219,0.0271,9.8017,-0.2017,0.8289,9.7695,0.0058,-0.0064,-0.0052
22126,47.549072,-1.632856,139.98,30.38,11.792,17.1,0 / 22,611777,2019-08-12 16:42:52:219,0.3001,0.1312,9.7718,-0.1097,0.6561,9.7841,0.0037,0.0074,-0.0052
22127,47.549072,-1.632856,139.98,30.38,11.792,17.1,0 / 22,611876,2019-08-12 16:42:52:318,0.5024,-0.0041,9.8759,-0.0678,0.5824,9.7891,-0.0016,0.0138,-0.0041
22128,47.549072,-1.632856,139.98,30.38,11.792,17.1,0 / 22,611977,2019-08-12 16:42:52:419,0.3181,0.3503,9.7263,0.0163,0.4859,9.7946,-0.0134,-0.0043,-0.0031
22129,47.549072,-1.632856,139.98,30.38,11.792,17.1,0 / 22,612076,2019-08-12 16:42:52:518,0.2498,0.1899,9.7957,0.1043,0.3979,9.798,0.0037,-0.0021,0.0001
22130,47.549072,-1.632856,139.98,30.38,11.792,17.1,0 / 22,612177,2019-08-12 16:42:52:619,0.3408,0.1707,9.8496,0.152,0.3513,9.7992,-0.0048,-0.0032,0.0033
22131,47.549072,-1.632856,139.98,30.38,11.792,17.1,0 / 22,612276,2019-08-12 16:42:52:718,0.5922,0.2653,9.9741,0.212,0.3242,9.799,0.0016,0.0011,0.0044
22132,47.549072,-1.632856,139.98,30.38,11.792,17.1,0 / 22,612376,2019-08-12 16:42:52:818,0.36,0.5717,9.8161,0.2377,0.3296,9.7982,0.0016,-0.0032,0.0087
22133,47.549072,-1.632856,139.98,30.38,11.792,17.1,0 / 22,612476,2019-08-12 16:42:52:918,0.2379,0.5287,9.6544,0.2464,0.358,9.797,0.0101,0.0128,0.0172
22134,47.549072,-1.632856,139.98,30.38,11.792,17.1,0 / 22,612577,2019-08-12 16:42:53:019,0.16,0.7741,9.5323,0.243,0.3721,9.7966,0.0037,0.0096,0.0246
22135,47.549072,-1.632856,139.98,30.38,11.792,17.1,0 / 22,612676,2019-08-12 16:42:53:118,0.3444,0.8686,10.253,0.2496,0.3955,9.7955,0.0016,-0.0085,0.0289
22136,47.549072,-1.632856,139.98,30.38,11.792,17.1,0 / 22,612777,2019-08-12 16:42:53:219,0.3803,0.9381,9.907,0.2599,0.4139,9.7945,0.0026,-0.0064,0.0268
22137,47.549072,-1.632856,139.98,30.38,11.792,17.1,0 / 22,612876,2019-08-12 16:42:53:318,0.3743,0.9524,9.676,0.272,0.4843,9.7909,0.0005,-0.0011,0.0225
22138,47.549072,-1.632856,139.98,30.38,11.792,17.1,0 / 22,612976,2019-08-12 16:42:53:418,0.5012,0.9225,10.3009,0.2759,0.5785,9.7857,0.0026,-0.0075,0.0225
22139,47.549072,-1.632856,139.98,30.38,11.792,17.1,0 / 22,613075,2019-08-12 16:42:53:517,0.4557,0.9883,9.9525,0.303,0.6685,9.7791,-0.007,0.0,0.0257
22140,47.549072,-1.632856,139.98,30.38,11.792,17.1,0 / 22,613175,2019-08-12 16:42:53:617,0.4892,0.9704,10.3643,0.324,0.7203,9.7748,0.0026,-0.0075,0.0268
22141,47.549072,-1.632856,139.98,30.38,11.792,17.1,0 / 22,613275,2019-08-12 16:42:53:717,0.1397,0.8686,9.7203,0.3486,0.7807,9.7693,0.0026,-0.0021,0.0268
22142,47.549072,-1.632856,139.98,30.38,11.792,17.1,0 / 22,613375,2019-08-12 16:42:53:817,0.1672,0.9848,9.3731,0.3553,0.8342,9.7646,0.0122,0.0096,0.0246
22143,47.549072,-1.632856,139.98,30.38,11.792,17.1,0 / 22,613667,2019-08-12 16:42:54:109,0.1672,0.9848,9.3731,0.3553,0.8342,9.7646,0.0122,0.0096,0.0246
22144,47.549072,-1.632856,139.98,30.38,11.792,17.1,0 / 22,613667,2019-08-12 16:42:54:109,0.1672,0.9848,9.3731,0.3553,0.8342,9.7646,0.0122,0.0096,0.0246
22145,47.549072,-1.632856,139.98,30.38,11.792,17.1,0 / 22,613667,2019-08-12 16:42:54:109,0.1672,0.9848,9.3731,0.3553,0.8342,9.7646,0.0122,0.0096,0.0246
22146,47.549072,-1.632856,139.98,30.38,11.792,17.1,0 / 22,613668,2019-08-12 16:42:54:110,0.1672,0.9848,9.3731,0.3553,0.8342,9.7646,0.0122,0.0096,0.0246
22147,47.549072,-1.632856,139.98,30.38,11.792,17.1,0 / 22,613668,2019-08-12 16:42:54:110,0.1672,0.9848,9.3731,0.3553,0.8342,9.7646,0.0122,0.0096,0.0246
22148,47.549072,-1.632856,139.98,30.38,11.792,17.1,0 / 22,613668,2019-08-12 16:42:54:110,0.1672,0.9848,9.3731,0.3553,0.8342,9.7646,0.0122,0.0096,0.0246
22149,47.549072,-1.632856,139.98,30.38,11.792,17.1,0 / 22,613668,2019-08-12 16:42:54:110,0.1672,0.9848,9.3731,0.3553,0.8342,9.7646,0.0122,0.0096,0.0246
22150,47.549072,-1.632856,139.98,30.38,11.792,17.1,13 / 22,613715,2019-08-12 16:42:54:157,0.1672,0.9848,9.3731,0.3553,0.8342,9.7646,0.0122,0.0096,0.0246
22151,47.549072,-1.632856,139.98,30.38,11.792,17.1,13 / 22,614104,2019-08-12 16:42:54:546,0.1672,0.9848,9.3731,0.3553,0.8342,9.7646,0.0122,0.0096,0.0246
22152,47.549072,-1.632856,139.98,30.38,11.792,17.1,0 / 22,614105,2019-08-12 16:42:54:547,0.1672,0.9848,9.3731,0.3553,0.8342,9.7646,0.0122,0.0096,0.0246
22153,47.549072,-1.632856,139.98,30.38,11.792,17.1,0 / 22,614107,2019-08-12 16:42:54:549,0.1672,0.9848,9.3731,0.3553,0.8342,9.7646,0.0122,0.0096,0.0246
22154,47.549072,-1.632856,139.98,30.38,11.792,17.1,0 / 22,614107,2019-08-12 16:42:54:549,0.1672,0.9848,9.3731,0.3553,0.8342,9.7646,0.0122,0.0096,0.0246
22155,47.549072,-1.632856,139.98,30.38,11.792,17.1,0 / 22,614108,2019-08-12 16:42:54:550,0.1672,0.9848,9.3731,0.3553,0.8342,9.7646,0.0122,0.0096,0.0246
22156,47.549072,-1.632856,139.98,30.38,11.792,17.1,0 / 22,614108,2019-08-12 16:42:54:550,0.1672,0.9848,9.3731,0.3553,0.8342,9.7646,0.0122,0.0096,0.0246
22157,47.549072,-1.632856,139.98,30.38,11.792,17.1,0 / 22,614108,2019-08-12 16:42:54:550,0.1672,0.9848,9.3731,0.3553,0.8342,9.7646,0.0122,0.0096,0.0246
22158,47.549072,-1.632856,139.98,30.38,11.792,17.1,0 / 22,614109,2019-08-12 16:42:54:551,0.1672,0.9848,9.3731,0.3553,0.8342,9.7646,0.0122,0.0096,0.0246
22159,47.549072,-1.632856,139.98,30.38,11.792,17.1,0 / 22,614109,2019-08-12 16:42:54:551,0.1672,0.9848,9.3731,0.3553,0.8342,9.7646,0.0122,0.0096,0.0246
22160,47.551434,-1.63225,145.98,28.98,13.936001,5.1,0 / 22,614142,2019-08-12 16:42:54:584,0.1672,0.9848,9.3731,0.3553,0.8342,9.7646,0.0122,0.0096,0.0246
22161,47.551434,-1.63225,145.98,28.98,13.936001,5.1,0 / 22,614242,2019-08-12 16:42:54:684,0.1672,0.9848,9.3731,0.3553,0.8342,9.7646,0.0122,0.0096,0.0246
22162,47.551434,-1.63225,145.98,28.98,13.936001,5.1,0 / 22,614602,2019-08-12 16:42:55:044,0.1672,0.9848,9.3731,0.3553,0.8342,9.7646,0.0122,0.0096,0.0246
22163,47.551434,-1.63225,145.98,28.98,13.936001,5.1,0 / 22,614603,2019-08-12 16:42:55:045,0.1672,0.9848,9.3731,0.3553,0.8342,9.7646,0.0122,0.0096,0.0246
22164,47.551434,-1.63225,145.98,28.98,13.936001,5.1,0 / 22,614603,2019-08-12 16:42:55:045,0.1672,0.9848,9.3731,0.3553,0.8342,9.7646,0.0122,0.0096,0.0246
22165,47.551434,-1.63225,145.98,28.98,13.936001,5.1,0 / 22,614603,2019-08-12 16:42:55:045,0.1672,0.9848,9.3731,0.3553,0.8342,9.7646,0.0122,0.0096,0.0246
22166,47.551434,-1.63225,145.98,28.98,13.936001,5.1,0 / 22,614604,2019-08-12 16:42:55:046,0.1672,0.9848,9.3731,0.3553,0.8342,9.7646,0.0122,0.0096,0.0246
22167,47.551434,-1.63225,145.98,28.98,13.936001,5.1,0 / 22,614605,2019-08-12 16:42:55:047,0.1672,0.9848,9.3731,0.3553,0.8342,9.7646,0.0122,0.0096,0.0246
22168,47.551434,-1.63225,145.98,28.98,13.936001,5.1,0 / 22,614606,2019-08-12 16:42:55:048,0.1672,0.9848,9.3731,0.3553,0.8342,9.7646,0.0122,0.0096,0.0246
22169,47.551434,-1.63225,145.98,28.98,13.936001,5.1,0 / 22,614606,2019-08-12 16:42:55:048,0.1672,0.9848,9.3731,0.3553,0.8342,9.7646,0.0122,0.0096,0.0246
22170,47.551434,-1.63225,145.98,28.98,13.936001,5.1,0 / 22,614607,2019-08-12 16:42:55:049,0.1672,0.9848,9.3731,0.3553,0.8342,9.7646,0.0122,0.0096,0.0246
22171,47.551434,-1.63225,145.98,28.98,13.936001,5.1,0 / 22,614607,2019-08-12 16:42:55:049,0.1672,0.9848,9.3731,0.3553,0.8342,9.7646,0.0122,0.0096,0.0246
22172,47.551434,-1.63225,145.98,28.98,13.936001,5.1,0 / 22,614607,2019-08-12 16:42:55:049,0.1672,0.9848,9.3731,0.3553,0.8342,9.7646,0.0122,0.0096,0.0246
22173,47.551434,-1.63225,145.98,28.98,13.936001,5.1,0 / 22,614608,2019-08-12 16:42:55:050,0.1672,0.9848,9.3731,0.3553,0.8342,9.7646,0.0122,0.0096,0.0246
22174,47.551434,-1.63225,145.98,28.98,13.936001,5.1,0 / 22,614609,2019-08-12 16:42:55:051,0.1672,0.9848,9.3731,0.3553,0.8342,9.7646,0.0122,0.0096,0.0246
22175,47.551434,-1.63225,145.98,28.98,13.936001,5.1,0 / 22,614610,2019-08-12 16:42:55:052,0.1672,0.9848,9.3731,0.3553,0.8342,9.7646,0.0122,0.0096,0.0246
22176,47.551434,-1.63225,145.98,28.98,13.936001,5.1,0 / 22,614610,2019-08-12 16:42:55:052,0.1672,0.9848,9.3731,0.3553,0.8342,9.7646,0.0122,0.0096,0.0246
22177,47.551434,-1.63225,145.98,28.98,13.936001,5.1,0 / 22,614611,2019-08-12 16:42:55:053,0.1672,0.9848,9.3731,0.3553,0.8342,9.7646,0.0122,0.0096,0.0246
22178,47.551434,-1.63225,145.98,28.98,13.936001,5.1,0 / 22,614611,2019-08-12 16:42:55:053,0.1672,0.9848,9.3731,0.3553,0.8342,9.7646,0.0122,0.0096,0.0246
22179,47.551434,-1.63225,145.98,28.98,13.936001,5.1,0 / 22,614612,2019-08-12 16:42:55:054,0.1672,0.9848,9.3731,0.3553,0.8342,9.7646,0.0122,0.0096,0.0246
22180,47.551434,-1.63225,145.98,28.98,13.936001,5.1,0 / 22,614612,2019-08-12 16:42:55:054,0.1672,0.9848,9.3731,0.3553,0.8342,9.7646,0.0122,0.0096,0.0246
22181,47.551434,-1.63225,145.98,28.98,13.936001,5.1,0 / 22,614613,2019-08-12 16:42:55:055,0.1672,0.9848,9.3731,0.3553,0.8342,9.7646,0.0122,0.0096,0.0246
22182,47.551434,-1.63225,145.98,28.98,13.936001,5.1,0 / 22,614614,2019-08-12 16:42:55:056,0.1672,0.9848,9.3731,0.3553,0.8342,9.7646,0.0122,0.0096,0.0246
22183,47.551434,-1.63225,145.98,28.98,13.936001,5.1,0 / 22,614614,2019-08-12 16:42:55:056,0.1672,0.9848,9.3731,0.3553,0.8342,9.7646,0.0122,0.0096,0.0246
22184,47.551434,-1.63225,145.98,28.98,13.936001,5.1,0 / 22,614615,2019-08-12 16:42:55:057,0.1672,0.9848,9.3731,0.3553,0.8342,9.7646,0.0122,0.0096,0.0246
22185,47.551434,-1.63225,145.98,28.98,13.936001,5.1,0 / 22,614616,2019-08-12 16:42:55:058,0.1672,0.9848,9.3731,0.3553,0.8342,9.7646,0.0122,0.0096,0.0246
22186,47.551434,-1.63225,145.98,28.98,13.936001,5.1,0 / 22,614616,2019-08-12 16:42:55:058,0.1672,0.9848,9.3731,0.3553,0.8342,9.7646,0.0122,0.0096,0.0246
22187,47.551434,-1.63225,145.98,28.98,13.936001,5.1,0 / 22,614617,2019-08-12 16:42:55:059,0.1672,0.9848,9.3731,0.3553,0.8342,9.7646,0.0122,0.0096,0.0246
22188,47.551434,-1.63225,145.98,28.98,13.936001,5.1,0 / 22,614618,2019-08-12 16:42:55:060,0.1672,0.9848,9.3731,0.3553,0.8342,9.7646,0.0122,0.0096,0.0246
22189,47.551434,-1.63225,145.98,28.98,13.936001,5.1,0 / 22,614619,2019-08-12 16:42:55:061,0.1672,0.9848,9.3731,0.3553,0.8342,9.7646,0.0122,0.0096,0.0246
22190,47.551434,-1.63225,145.98,28.98,13.936001,5.1,0 / 22,614619,2019-08-12 16:42:55:061,0.1672,0.9848,9.3731,0.3553,0.8342,9.7646,0.0122,0.0096,0.0246
22191,47.551434,-1.63225,145.98,28.98,13.936001,5.1,0 / 22,614620,2019-08-12 16:42:55:062,0.1672,0.9848,9.3731,0.3553,0.8342,9.7646,0.0122,0.0096,0.0246
22192,47.551434,-1.63225,145.98,28.98,13.936001,5.1,0 / 22,614620,2019-08-12 16:42:55:062,0.1672,0.9848,9.3731,0.3553,0.8342,9.7646,0.0122,0.0096,0.0246
22193,47.551434,-1.63225,145.98,28.98,13.936001,5.1,0 / 22,614621,2019-08-12 16:42:55:063,0.1672,0.9848,9.3731,0.3553,0.8342,9.7646,0.0122,0.0096,0.0246
22194,47.551434,-1.63225,145.98,28.98,13.936001,5.1,0 / 22,614621,2019-08-12 16:42:55:063,0.1672,0.9848,9.3731,0.3553,0.8342,9.7646,0.0122,0.0096,0.0246
22195,47.551434,-1.63225,145.98,28.98,13.936001,5.1,0 / 22,614621,2019-08-12 16:42:55:063,0.1672,0.9848,9.3731,0.3553,0.8342,9.7646,0.0122,0.0096,0.0246
22196,47.551434,-1.63225,145.98,28.98,13.936001,5.1,0 / 22,614622,2019-08-12 16:42:55:064,0.1672,0.9848,9.3731,0.3553,0.8342,9.7646,0.0122,0.0096,0.0246
22197,47.551434,-1.63225,145.98,28.98,13.936001,5.1,0 / 22,614623,2019-08-12 16:42:55:065,0.1672,0.9848,9.3731,0.3553,0.8342,9.7646,0.0122,0.0096,0.0246
22198,47.551434,-1.63225,145.98,28.98,13.936001,5.1,0 / 22,614623,2019-08-12 16:42:55:065,0.1672,0.9848,9.3731,0.3553,0.8342,9.7646,0.0122,0.0096,0.0246
22199,47.551434,-1.63225,145.98,28.98,13.936001,5.1,0 / 22,614624,2019-08-12 16:42:55:066,0.1672,0.9848,9.3731,0.3553,0.8342,9.7646,0.0122,0.0096,0.0246
22200,47.551434,-1.63225,145.98,28.98,13.936001,5.1,0 / 22,614627,2019-08-12 16:42:55:069,0.1672,0.9848,9.3731,0.3553,0.8342,9.7646,0.0122,0.0096,0.0246
22201,47.551434,-1.63225,145.98,28.98,13.936001,5.1,0 / 22,614628,2019-08-12 16:42:55:070,0.1672,0.9848,9.3731,0.3553,0.8342,9.7646,0.0122,0.0096,0.0246
22202,47.551434,-1.63225,145.98,28.98,13.936001,5.1,0 / 22,614628,2019-08-12 16:42:55:070,0.1672,0.9848,9.3731,0.3553,0.8342,9.7646,0.0122,0.0096,0.0246
22203,47.551434,-1.63225,145.98,28.98,13.936001,5.1,0 / 22,614629,2019-08-12 16:42:55:071,0.1672,0.9848,9.3731,0.3553,0.8342,9.7646,0.0122,0.0096,0.0246
22204,47.551434,-1.63225,145.98,28.98,13.936001,5.1,0 / 22,614629,2019-08-12 16:42:55:071,0.1672,0.9848,9.3731,0.3553,0.8342,9.7646,0.0122,0.0096,0.0246
22205,47.551434,-1.63225,145.98,28.98,13.936001,5.1,0 / 22,614629,2019-08-12 16:42:55:071,0.1672,0.9848,9.3731,0.3553,0.8342,9.7646,0.0122,0.0096,0.0246
22206,47.551434,-1.63225,145.98,28.98,13.936001,5.1,0 / 22,614630,2019-08-12 16:42:55:072,0.1672,0.9848,9.3731,0.3553,0.8342,9.7646,0.0122,0.0096,0.0246
22207,47.551434,-1.63225,145.98,28.98,13.936001,5.1,0 / 22,614630,2019-08-12 16:42:55:072,0.1672,0.9848,9.3731,0.3553,0.8342,9.7646,0.0122,0.0096,0.0246
22208,47.551434,-1.63225,145.98,28.98,13.936001,5.1,0 / 22,614630,2019-08-12 16:42:55:072,0.1672,0.9848,9.3731,0.3553,0.8342,9.7646,0.0122,0.0096,0.0246
22209,47.551434,-1.63225,145.98,28.98,13.936001,5.1,0 / 22,614631,2019-08-12 16:42:55:073,0.1672,0.9848,9.3731,0.3553,0.8342,9.7646,0.0122,0.0096,0.0246
22210,47.551434,-1.63225,145.98,28.98,13.936001,5.1,0 / 22,614631,2019-08-12 16:42:55:073,0.1672,0.9848,9.3731,0.3553,0.8342,9.7646,0.0122,0.0096,0.0246
22211,47.551434,-1.63225,145.98,28.98,13.936001,5.1,0 / 22,614631,2019-08-12 16:42:55:073,0.1672,0.9848,9.3731,0.3553,0.8342,9.7646,0.0122,0.0096,0.0246
22212,47.551434,-1.63225,145.98,28.98,13.936001,5.1,0 / 22,614631,2019-08-12 16:42:55:073,0.1672,0.9848,9.3731,0.3553,0.8342,9.7646,0.0122,0.0096,0.0246
22213,47.551434,-1.63225,145.98,28.98,13.936001,5.1,0 / 22,614632,2019-08-12 16:42:55:074,0.1672,0.9848,9.3731,0.3553,0.8342,9.7646,0.0122,0.0096,0.0246
22214,47.551434,-1.63225,145.98,28.98,13.936001,5.1,0 / 22,614632,2019-08-12 16:42:55:074,0.1672,0.9848,9.3731,0.3553,0.8342,9.7646,0.0122,0.0096,0.0246
22215,47.551434,-1.63225,145.98,28.98,13.936001,5.1,0 / 22,614633,2019-08-12 16:42:55:075,0.1672,0.9848,9.3731,0.3553,0.8342,9.7646,0.0122,0.0096,0.0246
22216,47.551434,-1.63225,145.98,28.98,13.936001,5.1,0 / 22,614633,2019-08-12 16:42:55:075,0.1672,0.9848,9.3731,0.3553,0.8342,9.7646,0.0122,0.0096,0.0246
22217,47.551434,-1.63225,145.98,28.98,13.936001,5.1,0 / 22,614633,2019-08-12 16:42:55:075,0.1672,0.9848,9.3731,0.3553,0.8342,9.7646,0.0122,0.0096,0.0246
22218,47.551434,-1.63225,145.98,28.98,13.936001,5.1,0 / 22,614634,2019-08-12 16:42:55:076,0.1672,0.9848,9.3731,0.3553,0.8342,9.7646,0.0122,0.0096,0.0246
22219,47.551434,-1.63225,145.98,28.98,13.936001,5.1,0 / 22,614634,2019-08-12 16:42:55:076,0.1672,0.9848,9.3731,0.3553,0.8342,9.7646,0.0122,0.0096,0.0246
22220,47.551434,-1.63225,145.98,28.98,13.936001,5.1,0 / 22,614634,2019-08-12 16:42:55:076,0.1672,0.9848,9.3731,0.3553,0.8342,9.7646,0.0122,0.0096,0.0246
22221,47.551434,-1.63225,145.98,28.98,13.936001,5.1,0 / 22,614634,2019-08-12 16:42:55:076,0.1672,0.9848,9.3731,0.3553,0.8342,9.7646,0.0122,0.0096,0.0246
22222,47.551434,-1.63225,145.98,28.98,13.936001,5.1,0 / 22,614635,2019-08-12 16:42:55:077,0.1672,0.9848,9.3731,0.3553,0.8342,9.7646,0.0122,0.0096,0.0246
22223,47.551434,-1.63225,145.98,28.98,13.936001,5.1,0 / 22,614635,2019-08-12 16:42:55:077,0.1672,0.9848,9.3731,0.3553,0.8342,9.7646,0.0122,0.0096,0.0246
22224,47.551434,-1.63225,145.98,28.98,13.936001,5.1,0 / 22,614636,2019-08-12 16:42:55:078,0.1672,0.9848,9.3731,0.3553,0.8342,9.7646,0.0122,0.0096,0.0246
22225,47.551434,-1.63225,145.98,28.98,13.936001,5.1,0 / 22,614636,2019-08-12 16:42:55:078,0.1672,0.9848,9.3731,0.3553,0.8342,9.7646,0.0122,0.0096,0.0246
22226,47.551434,-1.63225,145.98,28.98,13.936001,5.1,0 / 22,614636,2019-08-12 16:42:55:078,0.1672,0.9848,9.3731,0.3553,0.8342,9.7646,0.0122,0.0096,0.0246
22227,47.551434,-1.63225,145.98,28.98,13.936001,5.1,0 / 22,614637,2019-08-12 16:42:55:079,0.1672,0.9848,9.3731,0.3553,0.8342,9.7646,0.0122,0.0096,0.0246
22228,47.551434,-1.63225,145.98,28.98,13.936001,5.1,0 / 22,614637,2019-08-12 16:42:55:079,0.1672,0.9848,9.3731,0.3553,0.8342,9.7646,0.0122,0.0096,0.0246
22229,47.551434,-1.63225,145.98,28.98,13.936001,5.1,0 / 22,614637,2019-08-12 16:42:55:079,0.1672,0.9848,9.3731,0.3553,0.8342,9.7646,0.0122,0.0096,0.0246
22230,47.551434,-1.63225,145.98,28.98,13.936001,5.1,0 / 22,614638,2019-08-12 16:42:55:080,0.1672,0.9848,9.3731,0.3553,0.8342,9.7646,0.0122,0.0096,0.0246
