,GPS LATITUDE (degrees), GPS LONGITUDE (degrees), GPS ALTITUDE (m), GPS SPEED (Kmh), GPS ACCURACY (m), GPS ORIENTATION (Â°),GPS SATELLITES IN RANGE, TIME SINCE START (ms), DATE (YYYY-MO-DD HH-MI-SS_SSS), ACCELEROMETER X (m/s²) , ACCELEROMETER Y (m/s²), ACCELEROMETER Z (m/s²), GRAVITY X (m/s²), GRAVITY Y (m/s²), GRAVITY Z (m/s²), GYROSCOPE Yaw (rad/s), GYROSCOPE Pitch (rad/s), GYROSCOPE Roll (rad/s), MAGNETIC FIELD X (Î¼T), MAGNETIC FIELD Y (Î¼T), MAGNETIC FIELD Z (Î¼T), ORIENTATION (Yaw) (Â°), ORIENTATION (Pitch) (Â°), ORIENTATION (Roll ) (Â°)
24121,51.546207,-2.570854,133,5.96,9,240.6,15 / 22,2412123,2019-08-16 13:29:25:903,-0.1706,-0.6383,9.3907,-0.0031,-0.053,9.8065,-0.032,0.0143,0.0016,-8.64,28.31,-4.9,250.38,13.03,0.6
24122,51.546207,-2.570854,133,5.96,9,240.6,15 / 22,2412224,2019-08-16 13:29:26:004,-0.0298,-0.2429,9.6784,-0.0026,-0.0289,9.8066,-0.0331,0.0314,0.0048,-8.52,28.48,-4.06,250.84,12.73,0.51
24123,51.546207,-2.570854,133,5.96,9,240.6,15 / 22,2412323,2019-08-16 13:29:26:103,-0.1171,-0.2676,10.3363,-0.0143,-0.0617,9.8064,0.0277,-0.039,-0.0059,-9.32,28.22,-4.12,250.84,12.73,0.51
24124,51.546207,-2.570854,133,5.96,9,240.6,15 / 22,2412423,2019-08-16 13:29:26:203,0.1585,0.2648,10.4907,-0.0333,-0.0809,9.8063,0.0127,0.0068,-0.0027,-8.49,28.37,-4.81,252.28,12.22,0.54
24125,51.546207,-2.570854,133,5.96,9,240.6,15 / 22,2412522,2019-08-16 13:29:26:302,0.1973,-0.3225,9.9236,-0.0159,-0.0137,9.8066,0.0096,0.0559,0.0069,-8.49,28.37,-4.81,252.28,12.22,0.54
24126,51.546207,-2.570854,133,5.96,9,240.6,15 / 22,2412623,2019-08-16 13:29:26:403,-0.2967,0.3881,9.8502,-0.0097,-0.0176,9.8066,0.0202,0.026,-0.008,-8.65,28.33,-4.79,250.47,12.11,0.6
24127,51.546207,-2.570854,133,5.96,9,240.6,15 / 22,2412723,2019-08-16 13:29:26:503,0.0028,-0.1729,9.4809,-0.0021,-0.0125,9.8066,0.0202,0.026,-0.008,-8.35,28.55,-3.87,253.24,11.87,0.65
24128,51.546185,-2.570926,133,5.62,9,240.6,15 / 22,2412823,2019-08-16 13:29:26:603,0.0607,0.1173,9.9482,0.004,-0.0174,9.8066,0.0032,0.0122,-0.008,-8.46,28.26,-5.45,253.24,11.87,0.65
24129,51.546185,-2.570926,133,5.62,9,240.6,15 / 22,2412924,2019-08-16 13:29:26:704,0.054,-0.457,9.4256,-0.0031,-0.0261,9.8066,-0.0032,-0.04,-0.0037,-9.26,28.14,-4.76,250.51,11.78,0.6
24130,51.546185,-2.570926,133,5.62,9,240.6,15 / 22,2413023,2019-08-16 13:29:26:803,-0.1247,0.0651,10.602,-0.0215,-0.043,9.8065,0.0042,-0.0411,0.0069,-8.67,28.42,-4.13,250.51,11.78,0.6
24131,51.546185,-2.570926,133,5.62,9,240.6,15 / 22,2413123,2019-08-16 13:29:26:903,0.0596,-0.3472,9.5184,-0.0353,-0.0461,9.8065,0.0138,-0.0422,0.0005,-8.67,28.42,-4.13,250.51,11.78,0.6
24132,51.546185,-2.570926,133,5.62,9,240.6,15 / 22,2413223,2019-08-16 13:29:27:003,-0.2962,-0.2028,9.538,-0.0207,0.0069,9.8066,0.0095,0.026,0.0005,-8.32,28.45,-4.61,252.32,11.46,0.71
24133,51.546185,-2.570926,133,5.62,9,240.6,15 / 22,2413323,2019-08-16 13:29:27:103,-0.1283,-0.043,10.012,-0.0214,0.0011,9.8066,-0.0032,-0.0027,0.0048,-8.37,28.63,-3.23,253.6,11.42,0.83
24134,51.546185,-2.570926,133,5.62,9,240.6,15 / 22,2413423,2019-08-16 13:29:27:203,0.1234,-0.3727,9.5533,-0.0044,-0.0136,9.8066,-0.0107,-0.007,0.009,-8.71,28.41,-4.14,253.6,11.42,0.83
24135,51.546185,-2.570926,133,5.62,9,240.6,15 / 22,2413523,2019-08-16 13:29:27:303,-0.0146,0.1746,9.9561,-0.0075,-0.0364,9.8066,-0.0107,-0.007,0.009,-7.93,28.74,-3.31,253.62,11.21,0.81
24136,51.546185,-2.570926,133,5.62,9,240.6,15 / 22,2413623,2019-08-16 13:29:27:403,-0.1722,-0.1284,9.7615,-0.0036,-0.0188,9.8066,0.0149,0.0377,-0.0016,-7.93,28.74,-3.31,253.62,11.21,0.81
24137,51.546185,-2.570926,133,5.62,9,240.6,15 / 22,2413723,2019-08-16 13:29:27:503,0.0137,0.0504,10.4673,-0.0141,-0.0359,9.8066,0.0149,0.0463,0.0027,-7.88,28.56,-4.73,252.92,10.98,0.83
24138,51.54616,-2.570996,133,5.28,9,240.6,15 / 22,2413823,2019-08-16 13:29:27:603,-0.3646,0.0741,10.5287,-0.0156,-0.0123,9.8066,0.0106,-0.0315,0.008,-8.49,28.37,-4.81,252.35,10.89,0.9
24139,51.54616,-2.570996,133,5.28,9,240.6,15 / 22,2413923,2019-08-16 13:29:27:703,-0.166,0.3734,10.2296,-0.0135,-0.0099,9.8066,-0.0011,0.0505,0.0027,-8.49,28.37,-4.81,252.35,10.89,0.9
24140,51.54616,-2.570996,133,5.28,9,240.6,15 / 22,2414023,2019-08-16 13:29:27:803,0.2512,0.3331,9.7102,-0.0044,-0.0026,9.8066,0.0,-0.0432,-0.0037,-7.99,28.37,-5.58,251.99,10.81,0.96
24141,51.54616,-2.570996,133,5.28,9,240.6,15 / 22,2414123,2019-08-16 13:29:27:903,0.2597,0.0093,9.6357,0.0038,0.0056,9.8066,0.0255,-0.039,-0.0037,-7.85,28.43,-5.49,252.34,10.8,0.99
24142,51.54616,-2.570996,133,5.28,9,240.6,15 / 22,2414223,2019-08-16 13:29:28:003,-0.0264,0.2805,10.2825,0.007,-0.005,9.8066,0.0074,0.025,-0.0059,-7.85,28.43,-5.49,252.34,10.8,0.99
24143,51.54616,-2.570996,133,5.28,9,240.6,15 / 22,2414323,2019-08-16 13:29:28:103,0.1794,0.3742,9.5572,-0.0102,-0.0206,9.8066,0.0074,0.025,-0.0059,-8.46,28.26,-5.45,252.35,10.78,0.94
24144,51.54616,-2.570996,133,5.28,9,240.6,15 / 22,2414423,2019-08-16 13:29:28:203,-0.115,-0.1382,10.0145,-0.0073,-0.007,9.8066,0.001,-0.0102,0.0027,-7.99,28.37,-5.58,252.01,10.65,0.96
24145,51.54616,-2.570996,133,5.28,9,240.6,15 / 22,2414523,2019-08-16 13:29:28:303,-0.2501,-0.2056,9.8521,-0.0215,-0.0092,9.8066,0.0181,0.0079,0.0048,-8.67,28.3,-4.91,250.54,10.56,1.06
24146,51.54616,-2.570996,133,5.28,9,240.6,15 / 22,2414623,2019-08-16 13:29:28:403,-0.2002,-0.4765,9.6802,-0.0155,0.001,9.8066,0.0117,-0.0166,-0.0059,-8.67,28.3,-4.91,250.54,10.56,1.06
24147,51.54616,-2.570996,133,5.28,9,240.6,15 / 22,2414723,2019-08-16 13:29:28:503,-0.1419,-0.0236,10.2557,0.0002,-0.0163,9.8066,0.0064,-0.0155,-0.0037,-7.99,28.37,-5.58,251.99,10.53,1.15
24148,51.546143,-2.571048,133,4.97,9,240.6,15 / 22,2414823,2019-08-16 13:29:28:603,0.1353,-0.0754,9.6219,0.002,-0.0175,9.8066,-0.0011,0.0175,0.008,-7.39,28.67,-4.85,254.73,10.44,1.11
24149,51.546143,-2.571048,133,4.97,9,240.6,15 / 22,2414922,2019-08-16 13:29:28:702,-0.0199,0.0234,9.5944,0.0123,0.0025,9.8066,0.017,0.0356,0.0037,-7.39,28.67,-4.85,254.73,10.44,1.11
24150,51.546143,-2.571048,133,4.97,9,240.6,15 / 22,2415023,2019-08-16 13:29:28:803,0.291,0.0057,10.2507,0.0118,-0.0043,9.8066,0.0277,0.0207,0.0048,-7.42,28.78,-4.07,255.09,10.43,1.03
24151,51.546143,-2.571048,133,4.97,9,240.6,15 / 22,2415123,2019-08-16 13:29:28:903,-0.1687,-0.5071,9.972,-0.0145,-0.0224,9.8066,0.0277,0.0207,0.0048,-7.72,28.62,-4.64,252.95,10.31,1.08
24152,51.546143,-2.571048,133,4.97,9,240.6,15 / 22,2415223,2019-08-16 13:29:29:003,-0.1767,-0.2158,10.3309,-0.0289,-0.0399,9.8065,-0.0011,0.0026,0.0027,-6.93,28.7,-5.29,252.95,10.31,1.08
24153,51.546143,-2.571048,133,4.97,9,240.6,15 / 22,2415323,2019-08-16 13:29:29:103,-0.086,-0.4259,9.4598,-0.0387,-0.0691,9.8063,0.017,-0.007,-0.0037,-7.11,28.77,-4.66,254.79,9.85,1.18
24154,51.546143,-2.571048,133,4.97,9,240.6,15 / 22,2415422,2019-08-16 13:29:29:202,-0.1457,0.2256,9.6824,-0.0131,-0.0229,9.8066,0.0032,-0.0262,0.0027,-7.11,28.77,-4.66,254.79,9.85,1.18
24155,51.546143,-2.571048,133,4.97,9,240.6,15 / 22,2415523,2019-08-16 13:29:29:303,-0.0834,0.0309,9.5411,-0.0044,-0.0161,9.8066,-0.0032,0.0015,0.0058,-7.85,28.43,-5.49,252.43,9.7,1.22
24156,51.546143,-2.571048,133,4.97,9,240.6,15 / 22,2415623,2019-08-16 13:29:29:403,0.2107,-0.5667,9.9837,-0.0005,-0.0355,9.8066,-0.0128,-0.0102,0.0016,-8.46,28.26,-5.45,252.43,9.5,1.16
24157,51.546143,-2.571048,133,4.97,9,240.6,15 / 22,2415723,2019-08-16 13:29:29:503,-0.3175,-0.1137,10.1858,-0.0051,-0.0016,9.8066,0.0138,0.0239,0.0005,-8.46,28.26,-5.45,252.47,9.5,1.16
24158,51.546127,-2.571107,133,4.73,9,240.6,15 / 22,2415823,2019-08-16 13:29:29:603,0.2258,0.0218,9.4598,-0.0091,-0.0048,9.8066,0.0042,-0.0304,-0.0048,-7.85,28.43,-5.49,252.47,9.46,1.2
24159,51.546127,-2.571107,133,4.73,9,240.6,15 / 22,2415923,2019-08-16 13:29:29:703,-0.0458,0.221,9.7781,-0.0108,-0.0097,9.8066,0.0042,-0.0304,-0.0048,-7.53,28.56,-5.26,252.47,9.46,1.2
24160,51.546127,-2.571107,133,4.73,9,240.6,15 / 22,2416023,2019-08-16 13:29:29:803,0.0388,-0.0617,10.1114,-0.0255,-0.0592,9.8064,0.0127,-0.0059,0.0037,-7.53,28.56,-5.26,252.47,9.46,1.2
24161,51.546127,-2.571107,133,4.73,9,240.6,15 / 22,2416124,2019-08-16 13:29:29:904,-0.0791,-0.5811,9.5688,-0.0008,-0.0141,9.8066,-0.0011,-0.0081,-0.0101,-8.29,28.33,-5.34,252.51,9.09,1.24
24162,51.546127,-2.571107,133,4.73,9,240.6,15 / 22,2416223,2019-08-16 13:29:30:003,-0.1803,0.0868,9.5804,-0.0023,-0.0316,9.8066,0.0117,-0.0038,0.008,-8.29,28.33,-5.34,252.51,9.09,1.24
24163,51.546127,-2.571107,133,4.73,9,240.6,15 / 22,2416323,2019-08-16 13:29:30:103,0.0929,-0.1739,10.3067,0.0018,-0.0073,9.8066,-0.0086,-0.0017,-0.0059,-8.47,28.4,-4.69,252.55,8.91,1.2
24164,51.546127,-2.571107,133,4.73,9,240.6,15 / 22,2416423,2019-08-16 13:29:30:203,0.1285,0.3038,9.359,-0.0064,-0.0149,9.8066,0.0032,-0.0081,0.0005,-8.46,28.26,-5.45,252.56,8.81,1.21
24165,51.546127,-2.571107,133,4.73,9,240.6,15 / 22,2416523,2019-08-16 13:29:30:303,0.3045,0.2339,8.9125,0.0054,-0.003,9.8066,0.017,-0.0464,-0.0123,-8.46,28.26,-5.45,252.56,8.81,1.21
24166,51.546127,-2.571107,133,4.73,9,240.6,15 / 22,2416623,2019-08-16 13:29:30:403,-0.0103,-0.1835,9.9154,0.0029,0.0076,9.8066,-0.032,0.0154,0.0027,-8.53,28.49,-3.95,251.03,8.81,1.17
24167,51.546127,-2.571107,133,4.73,9,240.6,15 / 22,2416723,2019-08-16 13:29:30:503,-0.1563,0.2132,10.2371,0.0057,0.0193,9.8066,-0.032,0.0154,0.0027,-8.02,28.5,-4.82,253.11,8.92,1.17
24168,51.54611,-2.571164,132,4.69,9,240.6,15 / 22,2416823,2019-08-16 13:29:30:603,0.2464,0.4251,9.8858,0.0139,0.0132,9.8066,-0.0107,-0.04,0.0027,-8.02,28.5,-4.82,253.11,8.92,1.17
24169,51.54611,-2.571164,132,4.69,9,240.6,15 / 22,2416922,2019-08-16 13:29:30:702,0.3421,-0.136,9.9704,0.0186,0.0164,9.8066,0.0255,-0.024,-0.0005,-8.16,28.3,-5.7,252.24,9.05,1.1
24170,51.54611,-2.571164,132,4.69,9,240.6,15 / 22,2417023,2019-08-16 13:29:30:803,0.1809,0.4911,10.4723,-0.0021,0.0237,9.8066,-0.0086,-0.0411,0.009,-7.42,28.78,-4.07,255.22,9.1,1.08
24171,51.54611,-2.571164,132,4.69,9,240.6,15 / 22,2417124,2019-08-16 13:29:30:904,0.415,0.6452,10.1739,0.0073,0.0106,9.8066,0.0266,0.0175,-0.0091,-9.1,28.2,-4.67,250.69,9.24,1.13
24172,51.54611,-2.571164,132,4.69,9,240.6,15 / 22,2417223,2019-08-16 13:29:31:003,-0.1381,0.303,10.2405,0.0056,0.0152,9.8066,-0.0032,0.0282,0.0016,-9.1,28.2,-4.67,250.69,9.24,1.13
24173,51.54611,-2.571164,132,4.69,9,240.6,15 / 22,2417323,2019-08-16 13:29:31:103,0.1514,0.409,10.0944,0.0079,0.0019,9.8066,0.0042,-0.0113,-0.0005,-7.91,28.66,-3.97,253.37,9.33,1.13
24174,51.54611,-2.571164,132,4.69,9,240.6,15 / 22,2417423,2019-08-16 13:29:31:203,0.1124,0.1076,9.7412,0.0033,0.0,9.8067,0.0277,-0.0123,0.0037,-8.02,28.5,-4.82,253.07,9.35,1.09
24175,51.54611,-2.571164,132,4.69,9,240.6,15 / 22,2417523,2019-08-16 13:29:31:303,0.2913,0.3298,9.6936,0.0004,-0.0037,9.8066,0.0277,-0.0123,0.0037,-8.02,28.5,-4.82,253.07,9.35,1.09
24176,51.54611,-2.571164,132,4.69,9,240.6,15 / 22,2417623,2019-08-16 13:29:31:403,0.0467,0.4306,10.3368,-0.0004,0.0052,9.8066,0.0042,0.0271,-0.0027,-7.19,28.45,-6.26,254.06,9.33,1.08
24177,51.54611,-2.571164,132,4.69,9,240.6,15 / 22,2417723,2019-08-16 13:29:31:503,0.1533,0.0494,9.5708,0.0072,0.0134,9.8066,-0.0235,0.0036,-0.0016,-8.37,27.97,-6.92,251.87,9.42,1.06
24178,51.54609,-2.571222,133,4.52,9,240.5,15 / 22,2417823,2019-08-16 13:29:31:603,0.1413,0.5522,10.1238,0.0055,0.0102,9.8066,-0.0171,0.009,0.0037,-8.37,27.97,-6.92,251.87,9.42,1.06
24179,51.54609,-2.571222,133,4.52,9,240.5,15 / 22,2417923,2019-08-16 13:29:31:703,-0.2269,0.0314,9.7982,0.0101,0.025,9.8066,-0.0022,-0.0177,0.0112,-9.15,27.7,-7.01,250.03,9.58,1.05
24180,51.54609,-2.571222,133,4.52,9,240.5,15 / 22,2418023,2019-08-16 13:29:31:803,0.13,0.013,10.1201,0.0011,0.0326,9.8066,-0.0064,-0.0347,0.0058,-8.54,27.88,-7.06,250.03,9.58,1.05
24181,51.54609,-2.571222,133,4.52,9,240.5,15 / 22,2418123,2019-08-16 13:29:31:903,-0.0757,0.4082,9.98,-0.0028,0.0381,9.8066,0.0106,-0.0336,-0.0037,-8.54,27.88,-7.06,250.03,9.58,1.05
24182,51.54609,-2.571222,133,4.52,9,240.5,15 / 22,2418222,2019-08-16 13:29:32:002,0.0603,0.6651,10.3416,0.0077,0.0061,9.8066,-0.0011,0.0335,0.0005,-7.64,28.34,-6.2,252.11,9.78,1.14
24183,51.54609,-2.571222,133,4.52,9,240.5,15 / 22,2418323,2019-08-16 13:29:32:103,0.3038,-0.1919,9.2385,-0.0008,-0.0038,9.8066,-0.0118,0.074,0.0058,-7.04,28.49,-6.24,253.97,9.78,1.13
24184,51.54609,-2.571222,133,4.52,9,240.5,15 / 22,2418423,2019-08-16 13:29:32:203,0.0977,0.0674,9.8629,0.0024,0.006,9.8066,-0.0118,0.074,0.0058,-7.8,28.27,-6.33,252.12,9.76,1.12
24185,51.54609,-2.571222,133,4.52,9,240.5,15 / 22,2418522,2019-08-16 13:29:32:302,-0.211,0.1216,10.2292,0.0017,-0.01,9.8066,0.0106,-0.0081,0.0037,-7.8,28.27,-6.33,252.12,9.76,1.12
24186,51.54609,-2.571222,133,4.52,9,240.5,15 / 22,2418623,2019-08-16 13:29:32:403,0.0791,0.2444,10.1266,-0.0062,0.0016,9.8067,0.0063,-0.0166,-0.0059,-7.64,28.34,-6.2,252.13,9.71,1.1
24187,51.54609,-2.571222,133,4.52,9,240.5,15 / 22,2418723,2019-08-16 13:29:32:503,-0.0567,0.1169,9.8261,-0.0046,0.0189,9.8066,-0.0032,-0.0113,-0.0005,-7.21,28.55,-5.73,254.48,9.81,1.16
24188,51.546062,-2.571273,133,4.35,9,240.4,15 / 22,2418823,2019-08-16 13:29:32:603,-0.1579,-0.3011,9.5908,-0.0053,0.0056,9.8066,0.0127,0.0345,0.0048,-7.21,28.55,-5.73,254.48,9.81,1.16
24189,51.546062,-2.571273,133,4.35,9,240.4,15 / 22,2418923,2019-08-16 13:29:32:703,0.0169,-0.0544,9.9481,-0.0054,0.0108,9.8066,0.001,-0.0123,0.0037,-8.4,28.08,-6.4,252.09,9.83,1.2
24190,51.546062,-2.571273,133,4.35,9,240.4,15 / 22,2419023,2019-08-16 13:29:32:803,0.1333,0.3387,10.0408,-0.0012,0.0248,9.8066,-0.0139,-0.0294,0.0058,-8.4,28.08,-6.4,252.09,9.83,1.2
24191,51.546062,-2.571273,133,4.35,9,240.4,15 / 22,2419122,2019-08-16 13:29:32:902,-0.1462,0.3661,10.1886,0.0004,0.0174,9.8066,-0.0139,-0.0294,0.0058,-8.45,28.22,-5.66,252.07,9.93,1.23
24192,51.546062,-2.571273,133,4.35,9,240.4,15 / 22,2419222,2019-08-16 13:29:33:002,-0.0913,-0.2023,9.4287,-0.0029,0.0155,9.8066,0.0181,-0.0155,-0.0005,-7.37,28.49,-5.85,253.9,10.01,1.27
24193,51.546062,-2.571273,133,4.35,9,240.4,15 / 22,2419323,2019-08-16 13:29:33:103,0.1798,0.0449,10.0601,0.0029,-0.006,9.8066,-0.0075,0.058,0.0069,-7.37,28.49,-5.85,253.9,10.01,1.27
24194,51.546062,-2.571273,133,4.35,9,240.4,15 / 22,2419423,2019-08-16 13:29:33:203,-0.1628,0.0487,9.8055,-0.008,0.0015,9.8066,-0.0043,0.0143,0.0027,-8.04,28.46,-5.06,252.39,9.98,1.24
24195,51.546062,-2.571273,133,4.35,9,240.4,15 / 22,2419523,2019-08-16 13:29:33:303,0.0144,-0.1876,10.048,-0.011,0.0005,9.8066,0.0223,-0.0187,-0.0059,-8.04,28.46,-5.06,252.39,9.98,1.24
24196,51.546062,-2.571273,133,4.35,9,240.4,15 / 22,2419623,2019-08-16 13:29:33:403,0.2499,0.3157,10.1326,0.007,0.0073,9.8066,0.0,0.0143,0.0058,-7.84,28.39,-5.7,252.04,9.96,1.31
24197,51.546062,-2.571273,133,4.35,9,240.4,15 / 22,2419723,2019-08-16 13:29:33:503,0.1101,0.0359,9.9968,-0.0033,-0.0059,9.8066,0.0021,0.0207,0.0058,-7.84,28.39,-5.7,252.04,10.01,1.28
24198,51.54605,-2.571331,133,4.14,9,240.3,15 / 22,2419824,2019-08-16 13:29:33:604,0.1489,-0.161,9.6066,-0.0098,-0.0076,9.8066,0.0159,0.0207,-0.008,-7.84,28.39,-5.7,252.04,10.01,1.28
24199,51.54605,-2.571331,133,4.14,9,240.3,15 / 22,2419923,2019-08-16 13:29:33:703,0.2298,0.214,10.0634,-0.0036,0.0034,9.8066,-0.0096,0.0047,0.0048,-8.31,28.42,-4.82,252.37,10.03,1.31
24200,51.54605,-2.571331,133,4.14,9,240.3,15 / 22,2420023,2019-08-16 13:29:33:803,-0.1514,0.282,10.1294,-0.0055,0.0016,9.8066,-0.0096,0.0047,0.0048,-8.31,28.42,-4.82,252.37,10.03,1.31
24201,51.54605,-2.571331,133,4.14,9,240.3,15 / 22,2420123,2019-08-16 13:29:33:903,0.1326,-0.0988,9.7261,0.0039,-0.0036,9.8066,-0.0171,0.0036,0.0048,-7.68,28.46,-5.58,252.03,10.03,1.34
24202,51.54605,-2.571331,133,4.14,9,240.3,15 / 22,2420223,2019-08-16 13:29:34:003,0.112,-0.0422,9.9421,0.0031,0.0049,9.8067,0.0042,-0.0155,-0.0005,-8.62,28.15,-5.78,250.22,10.05,1.3
24203,51.54605,-2.571331,133,4.14,9,240.3,15 / 22,2420324,2019-08-16 13:29:34:104,0.0646,-0.0525,10.2367,0.0018,0.0048,9.8067,0.0085,-0.0198,-0.0016,-8.62,28.15,-5.78,250.22,10.05,1.3
24204,51.54605,-2.571331,133,4.14,9,240.3,15 / 22,2420423,2019-08-16 13:29:34:203,-0.0595,0.1481,10.2955,-0.0044,0.0048,9.8066,0.0095,-0.0273,0.0005,-8.04,28.46,-5.06,252.36,10.08,1.3
24205,51.54605,-2.571331,133,4.14,9,240.3,15 / 22,2420523,2019-08-16 13:29:34:303,0.3719,-0.0232,9.6347,0.0061,-0.0137,9.8066,0.0202,-0.0113,-0.0091,-9.28,28.09,-4.99,250.54,10.1,1.33
24206,51.54605,-2.571331,133,4.14,9,240.3,15 / 22,2420623,2019-08-16 13:29:34:403,-0.1221,-0.0704,9.6403,0.0012,-0.0243,9.8066,-0.0192,0.0026,0.0069,-8.04,28.46,-5.06,250.54,10.1,1.33
24207,51.54605,-2.571331,133,4.14,9,240.3,15 / 22,2420724,2019-08-16 13:29:34:504,-0.0295,-0.13,10.102,0.0006,-0.0303,9.8066,-0.0192,0.0026,0.0069,-8.04,28.46,-5.06,250.54,10.1,1.33
24208,51.546032,-2.571379,133,3.92,9,240.2,15 / 22,2420823,2019-08-16 13:29:34:603,-0.1222,0.0143,10.253,-0.0032,-0.0154,9.8066,-0.016,0.0377,0.009,-8.52,28.46,-4.17,250.9,9.94,1.27
24209,51.546032,-2.571379,133,3.92,9,240.2,15 / 22,2420923,2019-08-16 13:29:34:703,-0.108,-0.6287,10.1742,-0.0136,-0.0531,9.8065,-0.0043,-0.023,0.0027,-8.52,28.46,-4.17,250.9,9.94,1.27
24210,51.546032,-2.571379,133,3.92,9,240.2,15 / 22,2421023,2019-08-16 13:29:34:803,-0.2732,-0.5892,9.8979,-0.0294,-0.0895,9.8062,0.0032,-0.0081,0.0016,-8.96,28.43,-3.42,251.27,9.39,1.26
24211,51.546032,-2.571379,133,3.92,9,240.2,15 / 22,2421123,2019-08-16 13:29:34:903,-0.196,-0.6103,10.1201,-0.0164,-0.0479,9.8065,-0.0064,0.0303,-0.0005,-9.68,27.98,-4.85,248.9,9.03,1.28
24212,51.546032,-2.571379,133,3.92,9,240.2,15 / 22,2421223,2019-08-16 13:29:35:003,-0.0982,-0.5924,9.5824,-0.0316,-0.1,9.8061,0.0,0.0015,-0.0027,-9.57,28.31,-2.65,249.54,8.42,1.24
24213,51.546032,-2.571379,133,3.92,9,240.2,15 / 22,2421323,2019-08-16 13:29:35:103,-0.3743,-0.5302,9.9087,-0.0226,-0.0462,9.8065,-0.0139,0.0143,-0.0027,-9.57,28.31,-2.65,249.54,8.42,1.24
24214,51.546032,-2.571379,133,3.92,9,240.2,15 / 22,2421424,2019-08-16 13:29:35:204,-0.3368,-0.6009,10.0952,-0.0158,-0.0523,9.8065,-0.0139,0.0143,-0.0027,-8.94,28.35,-4.05,251.08,8.12,1.27
24215,51.546032,-2.571379,133,3.92,9,240.2,15 / 22,2421523,2019-08-16 13:29:35:303,-0.134,-0.6251,9.8265,-0.0385,-0.0948,9.8061,0.0074,0.0036,-0.0037,-8.9,28.25,-4.79,251.08,8.12,1.27
24216,51.546032,-2.571379,133,3.92,9,240.2,15 / 22,2421623,2019-08-16 13:29:35:403,-0.2632,-0.45,9.6148,-0.0114,-0.0474,9.8065,0.0063,0.0154,-0.0037,-8.34,28.53,-4.08,253.54,7.53,1.3
24217,51.546032,-2.571379,133,3.92,9,240.2,15 / 22,2421723,2019-08-16 13:29:35:503,-0.2704,-0.5001,9.5801,-0.0217,-0.0962,9.8062,-0.0139,0.009,0.0059,-8.34,28.53,-4.08,253.54,7.53,1.3
24218,51.546013,-2.571428,133,3.9,9,240.1,15 / 22,2421823,2019-08-16 13:29:35:603,-0.188,-0.3927,9.5581,-0.0088,-0.046,9.8065,-0.0043,-0.0038,0.0059,-7.76,28.77,-3.46,253.84,6.95,1.26
24219,51.546013,-2.571428,133,3.9,9,240.1,15 / 22,2421923,2019-08-16 13:29:35:703,-0.0294,-0.6013,9.6982,-0.0241,-0.088,9.8062,0.0106,-0.0187,0.0048,-8.52,28.46,-4.17,251.27,6.42,1.26
24220,51.546013,-2.571428,133,3.9,9,240.1,15 / 22,2422023,2019-08-16 13:29:35:803,-0.3322,-0.1843,9.9402,-0.027,-0.0415,9.8065,0.0255,0.0047,-0.0069,-7.71,28.58,-4.85,251.27,6.42,1.26
24221,51.546013,-2.571428,133,3.9,9,240.1,15 / 22,2422123,2019-08-16 13:29:35:903,-0.3032,-0.4567,9.819,-0.0378,-0.0729,9.8063,-0.015,-0.0166,0.0005,-7.84,28.39,-5.7,252.76,5.94,1.33
24222,51.546013,-2.571428,133,3.9,9,240.1,15 / 22,2422223,2019-08-16 13:29:36:003,-0.0682,-0.2673,9.8711,-0.0135,-0.0637,9.8064,0.0117,-0.0017,-0.008,-7.84,28.39,-5.7,252.76,5.94,1.33
24223,51.546013,-2.571428,133,3.9,9,240.1,15 / 22,2422323,2019-08-16 13:29:36:103,0.1211,-0.2429,9.5522,-0.0026,-0.0401,9.8066,0.0117,-0.0017,-0.008,-7.84,28.39,-5.7,252.83,5.57,1.29
24224,51.546013,-2.571428,133,3.9,9,240.1,15 / 22,2422423,2019-08-16 13:29:36:203,0.0442,-0.1919,9.7511,-0.0018,-0.0266,9.8066,-0.0075,0.009,-0.0037,-8.49,28.35,-4.92,253.07,5.34,1.24
24225,51.546013,-2.571428,133,3.9,9,240.1,15 / 22,2422523,2019-08-16 13:29:36:303,-0.1033,-0.4386,9.6832,-0.0065,-0.0509,9.8065,-0.0277,-0.0049,0.0059,-7.87,28.52,-4.95,253.68,5.04,1.19
24226,51.546013,-2.571428,133,3.9,9,240.1,15 / 22,2422623,2019-08-16 13:29:36:403,0.0231,-0.0621,10.1248,-0.0154,-0.0339,9.8066,0.0202,0.0601,0.0027,-7.87,28.52,-4.95,253.68,5.04,1.19
24227,51.546013,-2.571428,133,3.9,9,240.1,15 / 22,2422723,2019-08-16 13:29:36:503,-0.1541,0.0605,10.0841,-0.0037,-0.0168,9.8066,0.001,-0.0145,0.0048,-7.84,28.41,-5.59,252.99,4.83,1.22
24228,51.545982,-2.571489,133,4.66,9,240.1,15 / 22,2422822,2019-08-16 13:29:36:602,-0.1498,-0.1568,9.6961,-0.007,-0.0342,9.8066,-0.0054,-0.0411,-0.0101,-8.0,28.32,-5.82,253.03,4.62,1.2
24229,51.545982,-2.571489,133,4.66,9,240.1,15 / 22,2422923,2019-08-16 13:29:36:703,0.0357,-0.1605,9.7844,-0.0055,-0.0268,9.8066,0.0085,0.0015,-0.0101,-7.87,28.52,-4.95,253.03,4.62,1.2
24230,51.545982,-2.571489,133,4.66,9,240.1,15 / 22,2423023,2019-08-16 13:29:36:803,0.0457,0.0493,9.8122,-0.0041,-0.0487,9.8065,0.0085,0.0015,-0.0101,-8.28,28.3,-5.55,253.09,4.34,1.14
24231,51.545982,-2.571489,133,4.66,9,240.1,15 / 22,2423123,2019-08-16 13:29:36:903,-0.1211,-0.1787,9.5972,0.0065,-0.0174,9.8066,-0.0118,-0.0209,0.0027,-8.28,28.3,-5.55,253.09,4.34,1.14
24232,51.545982,-2.571489,133,4.66,9,240.1,15 / 22,2423223,2019-08-16 13:29:37:003,-0.0575,-0.2056,9.6072,-0.0079,-0.0355,9.8066,-0.0086,0.0186,-0.0016,-8.31,28.42,-4.82,253.28,4.13,1.12
24233,51.545982,-2.571489,133,4.66,9,240.1,15 / 22,2423323,2019-08-16 13:29:37:103,-0.0475,0.1423,9.959,0.0064,-0.0158,9.8066,-0.0043,0.0079,0.0027,-8.52,28.46,-4.17,251.59,4.04,1.04
24234,51.545982,-2.571489,133,4.66,9,240.1,15 / 22,2423423,2019-08-16 13:29:37:203,0.3323,0.1708,9.483,0.0147,-0.0138,9.8066,-0.016,-0.0155,-0.0037,-8.52,28.46,-4.17,251.59,4.04,1.04
24235,51.545982,-2.571489,133,4.66,9,240.1,15 / 22,2423523,2019-08-16 13:29:37:303,0.115,0.7534,9.7312,0.0073,0.036,9.8066,-0.0203,-0.0027,0.0037,-8.32,28.44,-4.71,253.33,3.99,0.93
24236,51.545982,-2.571489,133,4.66,9,240.1,15 / 22,2423624,2019-08-16 13:29:37:404,0.0937,0.9011,9.9809,0.0174,0.0653,9.8064,-0.0235,0.0207,0.0059,-9.19,27.83,-6.38,251.25,4.39,0.94
24237,51.545982,-2.571489,133,4.66,9,240.1,15 / 22,2423723,2019-08-16 13:29:37:503,0.2057,0.5124,9.8005,0.0259,0.0446,9.8065,-0.0235,0.0207,0.0059,-9.19,27.83,-6.38,251.25,4.39,0.94
24238,51.54596,-2.571561,133,5.46,9,240.1,15 / 22,2423823,2019-08-16 13:29:37:603,0.132,0.5715,10.0462,0.0194,0.0398,9.8066,-0.0299,-0.0304,0.0037,-8.59,28.02,-6.43,251.21,4.68,0.88
24239,51.54596,-2.571561,133,5.46,9,240.1,15 / 22,2423923,2019-08-16 13:29:37:703,0.0398,0.3542,9.5985,0.04,0.0666,9.8063,0.0202,0.009,-0.0123,-8.82,28.08,-5.8,251.21,4.68,0.88
24240,51.54596,-2.571561,133,5.46,9,240.1,15 / 22,2424023,2019-08-16 13:29:37:803,0.1749,0.7267,10.5428,0.0681,0.1032,9.8059,-0.0405,0.0036,-0.0016,-8.81,28.06,-5.91,251.11,5.38,0.7
24241,51.54596,-2.571561,133,5.46,9,240.1,15 / 22,2424123,2019-08-16 13:29:37:903,0.3879,0.1436,9.6124,0.0183,0.0273,9.8066,0.001,0.0154,-0.0005,-8.81,28.06,-5.91,251.11,5.38,0.7
24242,51.54596,-2.571561,133,5.46,9,240.1,15 / 22,2424223,2019-08-16 13:29:38:003,0.2843,-0.1267,10.1365,0.0037,0.034,9.8066,0.0159,0.0004,-0.0037,-8.14,28.11,-6.6,252.74,5.57,0.65
24243,51.54596,-2.571561,133,5.46,9,240.1,15 / 22,2424323,2019-08-16 13:29:38:103,0.0811,0.9806,10.1291,0.0119,0.0816,9.8063,0.0159,-0.0219,-0.008,-8.82,28.08,-5.8,252.74,5.57,0.65
24244,51.54596,-2.571561,133,5.46,9,240.1,15 / 22,2424423,2019-08-16 13:29:38:203,-0.0006,0.0233,9.5134,0.0029,0.0122,9.8066,0.0138,-0.0549,-0.008,-7.5,28.28,-6.64,254.51,6.04,0.73
24245,51.54596,-2.571561,133,5.46,9,240.1,15 / 22,2424523,2019-08-16 13:29:38:303,0.2086,0.8946,9.7201,0.0164,0.0307,9.8066,0.0181,-0.0038,-0.0133,-8.0,28.32,-5.82,254.51,6.04,0.73
24246,51.54596,-2.571561,133,5.46,9,240.1,15 / 22,2424623,2019-08-16 13:29:38:403,0.302,0.6644,10.0614,0.0085,0.0306,9.8066,0.0181,-0.0038,-0.0133,-7.64,28.34,-6.2,252.81,6.24,0.68
24247,51.54596,-2.571561,133,5.46,9,240.1,15 / 22,2424723,2019-08-16 13:29:38:503,0.267,0.1331,9.4177,0.0233,0.0685,9.8064,-0.0064,-0.0283,-0.0144,-8.4,28.08,-6.4,252.81,6.24,0.68
24248,51.545933,-2.571635,133,5.79,9,240.1,15 / 22,2424823,2019-08-16 13:29:38:603,0.4253,0.1902,9.5308,0.0387,0.0949,9.8061,-0.0192,0.0452,0.0059,-8.77,27.93,-6.56,250.65,6.84,0.63
24249,51.545933,-2.571635,133,5.79,9,240.1,15 / 22,2424923,2019-08-16 13:29:38:703,0.2153,0.2766,9.509,0.0081,0.0331,9.8066,0.0138,-0.0219,-0.0091,-7.88,28.54,-4.84,250.65,6.84,0.63
24250,51.545933,-2.571635,133,5.79,9,240.1,15 / 22,2425023,2019-08-16 13:29:38:803,0.292,0.3763,9.7027,0.0146,0.0659,9.8064,0.033,0.0004,-0.0069,-7.88,28.54,-4.84,250.65,6.84,0.63
24251,51.545933,-2.571635,133,5.79,9,240.1,15 / 22,2425123,2019-08-16 13:29:38:903,0.4512,0.07,9.8069,0.0212,0.0957,9.8062,-0.0384,0.0058,0.0005,-7.8,28.27,-6.33,252.6,7.41,0.7
24252,51.545933,-2.571635,133,5.79,9,240.1,15 / 22,2425223,2019-08-16 13:29:39:003,-0.0308,0.2889,9.8312,-0.0122,-0.0085,9.8066,0.0181,0.0196,-0.0091,-8.45,28.24,-5.56,252.61,7.37,0.68
24253,51.545933,-2.571635,133,5.79,9,240.1,15 / 22,2425323,2019-08-16 13:29:39:103,-0.3225,-0.1572,9.7043,-0.0066,-0.0122,9.8066,-0.0235,0.0345,0.0037,-8.45,28.24,-5.56,252.61,7.37,0.68
24254,51.545933,-2.571635,133,5.79,9,240.1,15 / 22,2425423,2019-08-16 13:29:39:203,0.0465,-0.4546,9.1578,-0.0014,-0.0177,9.8066,-0.0235,0.0345,0.0037,-8.41,28.1,-6.29,252.61,7.37,0.68
24255,51.545933,-2.571635,133,5.79,9,240.1,15 / 22,2425524,2019-08-16 13:29:39:304,0.1706,0.0002,9.2912,-0.0074,-0.0007,9.8066,0.0074,-0.0187,0.0016,-8.67,28.3,-4.91,251.04,7.27,0.66
24256,51.545933,-2.571635,133,5.79,9,240.1,15 / 22,2425624,2019-08-16 13:29:39:404,-0.1788,0.351,9.965,-0.0073,0.0085,9.8066,0.0213,-0.0187,-0.0091,-8.67,28.3,-4.91,251.04,7.27,0.66
24257,51.545933,-2.571635,133,5.79,9,240.1,15 / 22,2425723,2019-08-16 13:29:39:503,0.3515,-0.0718,9.8184,-0.0033,0.0095,9.8066,0.0106,-0.0081,-0.008,-8.49,28.37,-4.81,252.86,7.3,0.72
24258,51.545902,-2.571711,134,5.9,9,240.4,14 / 22,2425823,2019-08-16 13:29:39:603,-0.0759,0.09,9.951,-0.0095,0.002,9.8066,-0.016,-0.0049,-0.0016,-8.87,28.14,-5.41,251.01,7.3,0.77
24259,51.545902,-2.571711,134,5.9,9,240.4,14 / 22,2425922,2019-08-16 13:29:39:702,0.0176,0.099,10.0123,0.0058,-0.0045,9.8066,-0.0022,0.0004,-0.0027,-9.05,28.06,-5.52,251.01,7.3,0.77
24260,51.545902,-2.571711,134,5.9,9,240.4,14 / 22,2426024,2019-08-16 13:29:39:804,0.2866,0.0912,9.5,0.0196,0.0305,9.8066,0.0191,-0.0347,-0.0048,-9.05,28.06,-5.52,251.01,7.3,0.77
24261,51.545902,-2.571711,134,5.9,9,240.4,14 / 22,2426125,2019-08-16 13:29:39:905,-0.177,0.2335,9.7812,0.0162,0.0227,9.8066,0.0021,0.026,-0.0016,-7.6,28.18,-6.92,252.33,7.5,0.72
24262,51.545902,-2.571711,134,5.9,9,240.4,14 / 22,2426223,2019-08-16 13:29:40:003,0.2437,0.1699,10.2239,-0.0026,0.0218,9.8066,0.0021,0.026,-0.0016,-8.28,28.32,-5.45,252.82,7.66,0.67
24263,51.545902,-2.571711,134,5.9,9,240.4,14 / 22,2426323,2019-08-16 13:29:40:103,0.2716,0.662,10.1006,0.0134,0.0279,9.8066,-0.0203,0.0228,-0.0123,-7.71,28.6,-4.74,253.35,7.78,0.72
24264,51.545902,-2.571711,134,5.9,9,240.4,14 / 22,2426423,2019-08-16 13:29:40:203,-0.1909,0.489,9.7848,0.0312,0.0599,9.8064,0.0213,-0.0326,-0.0123,-7.71,28.6,-4.74,253.35,7.78,0.72
24265,51.545902,-2.571711,134,5.9,9,240.4,14 / 22,2426523,2019-08-16 13:29:40:303,0.2694,0.7244,9.744,0.0098,0.0364,9.8066,0.001,-0.0304,-0.0101,-7.96,28.45,-5.23,252.75,8.16,0.65
24266,51.545902,-2.571711,134,5.9,9,240.4,14 / 22,2426623,2019-08-16 13:29:40:403,0.3015,0.4071,9.9613,0.0154,0.0614,9.8064,0.0063,0.0068,0.0048,-7.92,28.32,-5.93,252.42,8.53,0.67
24267,51.545902,-2.571711,134,5.9,9,240.4,14 / 22,2426723,2019-08-16 13:29:40:503,0.0547,0.4361,10.09,0.0088,0.0261,9.8066,-0.0277,-0.0294,0.0037,-7.81,28.51,-5.13,252.42,8.53,0.67
24268,51.545876,-2.571779,134,5.91,9,240.6,14 / 22,2426822,2019-08-16 13:29:40:602,0.0524,0.3612,9.8555,0.0215,0.058,9.8065,0.0053,-0.0081,-0.0037,-7.96,28.45,-5.23,252.66,8.89,0.65
24269,51.545876,-2.571779,134,5.91,9,240.6,14 / 22,2426924,2019-08-16 13:29:40:704,0.2459,0.1364,9.6601,0.0133,0.0323,9.8066,0.0053,-0.0166,-0.0059,-8.37,28.37,-5.01,252.66,8.89,0.65
24270,51.545876,-2.571779,134,5.91,9,240.6,14 / 22,2427024,2019-08-16 13:29:40:804,0.1524,0.4691,9.9606,0.0204,0.0417,9.8065,0.001,0.0196,0.0101,-8.37,28.37,-5.01,252.66,8.89,0.65
24271,51.545876,-2.571779,134,5.91,9,240.6,14 / 22,2427123,2019-08-16 13:29:40:903,-0.152,-0.0008,9.7188,0.004,0.0024,9.8067,0.001,0.0196,0.0101,-7.6,28.34,-6.28,252.33,9.16,0.61
24272,51.545876,-2.571779,134,5.91,9,240.6,14 / 22,2427223,2019-08-16 13:29:41:003,0.0407,0.0041,9.5066,0.0014,0.0074,9.8066,-0.015,0.009,-0.0037,-9.29,27.5,-7.59,249.22,9.21,0.62
24273,51.545876,-2.571779,134,5.91,9,240.6,14 / 22,2427323,2019-08-16 13:29:41:103,-0.1936,0.3352,10.0158,0.0079,0.0097,9.8066,-0.0086,-0.0294,-0.0027,-9.21,27.86,-6.27,250.49,9.28,0.59
24274,51.545876,-2.571779,134,5.91,9,240.6,14 / 22,2427423,2019-08-16 13:29:41:203,-0.1538,0.1718,9.9232,0.0108,0.0051,9.8066,0.0138,-0.0358,-0.0069,-9.21,27.86,-6.27,250.49,9.28,0.59
24275,51.545876,-2.571779,134,5.91,9,240.6,14 / 22,2427523,2019-08-16 13:29:41:303,0.1006,-0.5431,9.8383,0.0069,-0.0051,9.8066,-0.0245,0.058,0.0016,-9.74,27.7,-6.14,248.72,9.33,0.54
24276,51.545876,-2.571779,134,5.91,9,240.6,14 / 22,2427623,2019-08-16 13:29:41:403,-0.0294,-0.0512,9.4165,0.0132,0.0057,9.8066,0.0063,-0.0219,-0.0059,-9.12,27.59,-7.45,250.2,9.38,0.48
24277,51.545876,-2.571779,134,5.91,9,240.6,14 / 22,2427723,2019-08-16 13:29:41:503,-0.2589,-0.1405,9.5024,0.0125,0.0128,9.8066,0.0063,-0.0219,-0.0059,-9.12,27.59,-7.45,250.2,9.38,0.48
24278,51.545853,-2.571853,133,5.95,9,240.7,14 / 22,2427823,2019-08-16 13:29:41:603,-0.0631,-0.0427,10.7233,0.0037,0.0522,9.8065,0.0053,-0.0219,-0.0027,-7.87,27.81,-8.02,251.69,9.48,0.44
24279,51.545853,-2.571853,133,5.95,9,240.7,14 / 22,2427923,2019-08-16 13:29:41:703,-0.1755,0.0953,10.1737,0.0022,0.0156,9.8066,0.0138,-0.0422,-0.0059,-8.31,27.55,-8.47,251.61,9.78,0.51
24280,51.545853,-2.571853,133,5.95,9,240.7,14 / 22,2428022,2019-08-16 13:29:41:802,0.0874,-0.4733,9.423,0.01,0.0061,9.8066,0.0138,-0.0262,-0.0101,-7.48,27.9,-8.12,251.61,9.78,0.51
24281,51.545853,-2.571853,133,5.95,9,240.7,14 / 22,2428123,2019-08-16 13:29:41:903,0.1955,0.2269,10.3554,0.0069,0.0011,9.8066,0.0117,0.0132,-0.0069,-7.52,28.04,-7.57,251.61,9.83,0.47
24282,51.545853,-2.571853,133,5.95,9,240.7,14 / 22,2428223,2019-08-16 13:29:42:003,-0.2071,-0.4134,9.8073,0.0101,0.0153,9.8066,0.0085,0.0122,0.0069,-7.52,28.04,-7.57,251.61,9.83,0.47
24283,51.545853,-2.571853,133,5.95,9,240.7,14 / 22,2428323,2019-08-16 13:29:42:103,-0.354,0.2028,10.1551,-0.0029,-0.0004,9.8067,-0.0128,0.0143,0.0091,-5.81,28.26,-8.22,255.3,9.93,0.44
24284,51.545853,-2.571853,133,5.95,9,240.7,14 / 22,2428424,2019-08-16 13:29:42:204,-0.0649,0.0373,10.3055,-0.0164,-0.0071,9.8066,0.0074,0.043,0.0112,-5.26,28.51,-7.7,257.63,9.87,0.52
24285,51.545853,-2.571853,133,5.95,9,240.7,14 / 22,2428523,2019-08-16 13:29:42:303,0.2558,-0.6321,9.571,-0.0043,0.0104,9.8066,-0.0448,0.01,0.0144,-5.26,28.51,-7.7,257.63,9.87,0.52
24286,51.545853,-2.571853,133,5.95,9,240.7,14 / 22,2428623,2019-08-16 13:29:42:403,0.2418,0.0178,10.1184,0.004,0.0103,9.8066,-0.0448,0.01,0.0144,-5.73,28.49,-7.44,255.62,9.93,0.51
24287,51.545853,-2.571853,133,5.95,9,240.7,14 / 22,2428724,2019-08-16 13:29:42:504,-0.2318,-0.1438,9.7042,-0.0066,0.0093,9.8066,0.0394,-0.006,-0.0016,-5.77,28.64,-6.8,256.09,9.95,0.53
24288,51.54583,-2.571924,133,5.44,9,240.6,15 / 22,2428823,2019-08-16 13:29:42:603,0.2888,0.2229,9.8447,-0.0062,0.0249,9.8066,-0.0405,-0.0049,0.0112,-4.14,28.89,-6.96,256.09,9.95,0.53
24289,51.54583,-2.571924,133,5.44,9,240.6,15 / 22,2428923,2019-08-16 13:29:42:703,0.1379,-0.2525,9.4826,-0.007,0.0259,9.8066,0.0404,0.0239,-0.0037,-4.14,28.89,-6.96,256.09,9.95,0.53
24290,51.54583,-2.571924,133,5.44,9,240.6,15 / 22,2429024,2019-08-16 13:29:42:804,-0.4628,0.2182,10.1565,-0.0038,-0.008,9.8066,0.0,0.058,0.0005,-3.8,28.99,-6.7,259.77,10.09,0.61
24291,51.54583,-2.571924,133,5.44,9,240.6,15 / 22,2429123,2019-08-16 13:29:42:903,0.0337,0.0139,9.1546,-0.0089,-0.0085,9.8066,-0.0086,0.0068,0.0027,-5.45,28.92,-5.82,259.77,10.09,0.61
24292,51.54583,-2.571924,133,5.44,9,240.6,15 / 22,2429224,2019-08-16 13:29:43:004,0.3015,-0.0164,9.4781,-0.0109,-0.0098,9.8066,0.0266,0.0111,0.0037,-4.85,29.02,-5.84,258.23,10.02,0.66
24293,51.54583,-2.571924,133,5.44,9,240.6,15 / 22,2429323,2019-08-16 13:29:43:103,0.1091,0.1407,10.0864,-0.0048,0.0093,9.8066,-0.016,0.0281,0.0101,-4.85,29.02,-5.84,258.23,10.02,0.66
24294,51.54583,-2.571924,133,5.44,9,240.6,15 / 22,2429423,2019-08-16 13:29:43:203,-0.2947,-0.0454,9.7549,-0.0224,0.0093,9.8066,-0.016,0.0281,0.0101,-5.59,29.01,-5.23,256.68,10.04,0.8
24295,51.54583,-2.571924,133,5.44,9,240.6,15 / 22,2429523,2019-08-16 13:29:43:303,-0.0384,-0.0368,9.9742,0.0033,0.0052,9.8066,-0.0107,-0.006,0.0069,-5.59,29.01,-5.23,256.67,10.08,0.79
24296,51.54583,-2.571924,133,5.44,9,240.6,15 / 22,2429623,2019-08-16 13:29:43:403,-0.0221,0.3011,9.8903,0.0032,0.0064,9.8066,0.0095,-0.0507,-0.0091,-5.59,29.01,-5.23,256.67,10.08,0.79
24297,51.54583,-2.571924,133,5.44,9,240.6,15 / 22,2429723,2019-08-16 13:29:43:503,-0.0805,0.257,10.5144,0.0132,0.0263,9.8066,0.0106,-0.0411,-0.0069,-5.61,29.11,-4.62,256.67,10.12,0.78
24298,51.545795,-2.572004,135,5.93,9,240.5,15 / 22,2429824,2019-08-16 13:29:43:604,0.3378,-0.4658,9.0155,0.0172,0.0248,9.8066,0.0351,-0.0347,0.0016,-6.68,28.9,-4.48,256.67,10.12,0.78
24299,51.545795,-2.572004,135,5.93,9,240.5,15 / 22,2429924,2019-08-16 13:29:43:704,-0.0517,0.2187,9.8313,-0.01,0.0119,9.8066,0.0202,-0.04,-0.0069,-7.38,28.6,-5.26,254.83,10.28,0.71
24300,51.545795,-2.572004,135,5.93,9,240.5,15 / 22,2430023,2019-08-16 13:29:43:803,-0.2107,0.0664,10.2547,-0.0227,0.0085,9.8066,-0.0182,0.0196,0.0027,-7.38,28.62,-5.16,254.83,10.28,0.71
24301,51.545795,-2.572004,135,5.93,9,240.5,15 / 22,2430123,2019-08-16 13:29:43:903,0.139,0.0321,10.1063,-0.0202,-0.0037,9.8066,0.0159,0.0313,0.0069,-7.71,28.6,-4.74,253.02,10.23,0.83
24302,51.545795,-2.572004,135,5.93,9,240.5,15 / 22,2430223,2019-08-16 13:29:44:003,0.0212,0.0143,9.8079,-0.0019,-0.0012,9.8067,0.0021,-0.0305,0.0048,-8.25,28.2,-6.07,252.11,10.22,0.83
24303,51.545795,-2.572004,135,5.93,9,240.5,15 / 22,2430323,2019-08-16 13:29:44:103,-0.2038,-0.2043,9.8639,0.0046,-0.006,9.8066,0.0021,-0.0305,0.0048,-8.25,28.2,-6.07,252.11,10.22,0.83
24304,51.545795,-2.572004,135,5.93,9,240.5,15 / 22,2430423,2019-08-16 13:29:44:203,0.1115,-0.2315,9.8297,0.0038,-0.0014,9.8067,-0.0256,0.0143,0.0005,-8.74,27.97,-6.43,250.31,10.2,0.8
24305,51.545795,-2.572004,135,5.93,9,240.5,15 / 22,2430523,2019-08-16 13:29:44:303,0.032,0.0091,9.8649,0.0042,0.0025,9.8067,-0.0192,0.0516,0.0112,-8.86,28.22,-5.02,250.64,10.22,0.78
24306,51.545795,-2.572004,135,5.93,9,240.5,15 / 22,2430623,2019-08-16 13:29:44:403,0.0342,0.2988,9.9052,0.003,0.0019,9.8067,-0.0022,0.0505,0.0027,-8.86,28.22,-5.02,250.64,10.22,0.78
24307,51.545795,-2.572004,135,5.93,9,240.5,15 / 22,2430723,2019-08-16 13:29:44:503,0.0033,-0.0713,9.5421,-0.003,0.007,9.8066,-0.015,0.026,0.0027,-9.18,27.94,-5.92,250.31,10.23,0.77
24308,51.545773,-2.57206,135,5.42,9,240.4,15 / 22,2430823,2019-08-16 13:29:44:603,-0.0429,-0.0333,9.6347,-0.0055,-0.0004,9.8066,0.0085,-0.0262,0.0005,-7.05,28.69,-5.21,254.82,10.22,0.8
24309,51.545773,-2.57206,135,5.42,9,240.4,15 / 22,2430923,2019-08-16 13:29:44:703,-0.1931,0.2765,10.4879,0.0062,0.0043,9.8066,0.0085,0.0004,-0.0091,-7.08,28.82,-4.4,254.82,10.22,0.8
24310,51.545773,-2.57206,135,5.42,9,240.4,15 / 22,2431024,2019-08-16 13:29:44:804,0.1361,-0.076,9.6799,0.0136,0.0058,9.8066,-0.016,-0.006,0.0016,-6.89,28.75,-5.09,254.83,10.27,0.73
24311,51.545773,-2.57206,135,5.42,9,240.4,15 / 22,2431123,2019-08-16 13:29:44:903,0.0238,-0.0722,10.1351,0.0046,0.0067,9.8066,-0.016,-0.006,0.0016,-6.89,28.75,-5.09,254.83,10.27,0.73
24312,51.545773,-2.57206,135,5.42,9,240.4,15 / 22,2431223,2019-08-16 13:29:45:003,0.0441,0.0778,10.2635,0.0155,0.0024,9.8066,-0.0139,-0.0017,0.0091,-6.37,28.86,-5.12,256.67,10.31,0.64
24313,51.545773,-2.57206,135,5.42,9,240.4,15 / 22,2431323,2019-08-16 13:29:45:103,0.1189,-0.0996,9.5654,0.0042,0.0052,9.8066,0.0159,-0.0081,-0.0112,-6.37,28.86,-5.12,256.67,10.31,0.64
24314,51.545773,-2.57206,135,5.42,9,240.4,15 / 22,2431423,2019-08-16 13:29:45:203,0.2577,0.134,9.8043,-0.001,0.0125,9.8066,0.0,0.0111,0.0101,-6.74,28.82,-4.87,254.84,10.35,0.62
24315,51.545773,-2.57206,135,5.42,9,240.4,15 / 22,2431523,2019-08-16 13:29:45:303,-0.0395,0.1482,10.1105,0.0036,-0.0047,9.8066,-0.0011,-0.0049,-0.0027,-6.0,29.12,-4.03,257.0,10.38,0.66
24316,51.545773,-2.57206,135,5.42,9,240.4,15 / 22,2431623,2019-08-16 13:29:45:403,-0.0548,0.06,9.8663,-0.0013,-0.0141,9.8066,0.0021,0.0367,-0.0037,-6.0,29.12,-4.03,257.0,10.38,0.66
24317,51.545773,-2.57206,135,5.42,9,240.4,15 / 22,2431723,2019-08-16 13:29:45:503,0.2465,0.0443,9.7493,0.0035,-0.01,9.8066,0.0032,0.0004,-0.0059,-6.59,28.74,-5.54,254.51,10.29,0.65
24318,51.54575,-2.572127,135,5.37,9,240.4,15 / 22,2431823,2019-08-16 13:29:45:603,0.2195,-0.0583,9.3845,-0.0017,-0.0068,9.8066,-0.0022,0.0111,0.0059,-8.35,28.55,-3.87,253.39,10.24,0.61
24319,51.54575,-2.572127,135,5.37,9,240.4,15 / 22,2431923,2019-08-16 13:29:45:703,-0.0821,0.2531,10.0027,-0.0034,-0.0188,9.8066,-0.0022,0.0111,0.0059,-7.15,28.95,-3.26,253.39,10.24,0.61
24320,51.54575,-2.572127,135,5.37,9,240.4,15 / 22,2432023,2019-08-16 13:29:45:803,0.0821,0.1375,9.9164,-0.002,-0.0081,9.8066,-0.0011,0.0143,0.0005,-7.15,28.95,-3.26,253.39,10.24,0.61
24321,51.54575,-2.572127,135,5.37,9,240.4,15 / 22,2432123,2019-08-16 13:29:45:903,0.1573,-0.5149,8.8757,0.0002,0.0078,9.8066,-0.0022,-0.0177,0.0005,-7.34,29.04,-1.77,255.86,10.19,0.61
24322,51.54575,-2.572127,135,5.37,9,240.4,15 / 22,2432223,2019-08-16 13:29:46:003,-0.0539,-0.1819,9.6587,-0.002,-0.0147,9.8066,0.0095,0.0047,-0.008,-7.17,29.02,-2.5,255.86,10.19,0.61
24323,51.54575,-2.572127,135,5.37,9,240.4,15 / 22,2432322,2019-08-16 13:29:46:102,0.0716,0.0469,10.3061,-0.0016,-0.0384,9.8066,0.0064,0.0303,-0.0027,-8.35,28.55,-3.87,253.42,9.97,0.56
24324,51.54575,-2.572127,135,5.37,9,240.4,15 / 22,2432423,2019-08-16 13:29:46:203,0.2514,-0.3406,9.8223,0.0005,-0.005,9.8066,-0.016,0.0196,0.0048,-7.91,28.66,-3.97,253.42,9.97,0.56
24325,51.54575,-2.572127,135,5.37,9,240.4,15 / 22,2432523,2019-08-16 13:29:46:303,-0.1719,-0.2786,9.874,-0.0135,-0.0163,9.8066,0.0127,0.0122,0.008,-8.05,28.61,-4.04,253.41,9.93,0.62
24326,51.54575,-2.572127,135,5.37,9,240.4,15 / 22,2432623,2019-08-16 13:29:46:403,0.0984,-0.2276,10.1206,-0.0169,-0.0152,9.8066,0.0127,0.0122,0.008,-8.05,28.61,-4.04,253.41,9.93,0.62
24327,51.54575,-2.572127,135,5.37,9,240.4,15 / 22,2432724,2019-08-16 13:29:46:504,0.3579,-0.022,9.7585,0.0138,0.009,9.8066,-0.0075,0.0601,-0.0027,-7.26,28.72,-4.76,254.9,9.82,0.69
24328,51.545727,-2.572186,135,5.26,9,240.4,15 / 22,2432823,2019-08-16 13:29:46:603,-0.1189,0.4113,10.0268,0.0063,0.0057,9.8066,-0.0458,0.0015,-0.0005,-7.35,28.54,-5.61,254.58,9.89,0.63
24329,51.545727,-2.572186,135,5.26,9,240.4,15 / 22,2432924,2019-08-16 13:29:46:704,0.2441,-0.2571,9.5001,0.0235,0.002,9.8066,-0.0075,0.0068,-0.0048,-7.55,28.61,-4.95,253.12,9.93,0.49
24330,51.545727,-2.572186,135,5.26,9,240.4,15 / 22,2433023,2019-08-16 13:29:46:803,0.0228,0.1358,9.8298,0.0032,0.0098,9.8066,0.0085,0.0058,0.0037,-7.55,28.61,-4.95,253.12,9.93,0.49
24331,51.545727,-2.572186,135,5.26,9,240.4,15 / 22,2433123,2019-08-16 13:29:46:903,-0.0087,-0.033,9.9274,-0.0062,0.0117,9.8066,0.0266,-0.0113,0.0005,-6.56,28.59,-6.29,254.59,9.99,0.49
24332,51.545727,-2.572186,135,5.26,9,240.4,15 / 22,2433223,2019-08-16 13:29:47:003,-0.1374,0.5404,10.268,-0.0178,0.0171,9.8066,0.0117,0.0015,0.0005,-6.65,28.98,-4.02,255.21,10.06,0.62
24333,51.545727,-2.572186,135,5.26,9,240.4,15 / 22,2433323,2019-08-16 13:29:47:103,0.086,-0.0832,9.1849,-0.0041,-0.0268,9.8066,0.0117,0.0015,0.0005,-6.65,28.98,-4.02,255.21,10.06,0.62
24334,51.545727,-2.572186,135,5.26,9,240.4,15 / 22,2433424,2019-08-16 13:29:47:204,-0.3375,-0.088,10.2541,-0.0077,-0.0451,9.8065,-0.0096,0.0516,0.0059,-7.13,28.88,-3.91,255.24,9.8,0.6
24335,51.545727,-2.572186,135,5.26,9,240.4,15 / 22,2433523,2019-08-16 13:29:47:303,-0.2507,0.3148,9.5603,-0.0018,0.0059,9.8066,-0.0224,-0.006,-0.0059,-7.13,28.88,-3.91,255.24,9.8,0.6
24336,51.545727,-2.572186,135,5.26,9,240.4,15 / 22,2433623,2019-08-16 13:29:47:403,0.4443,-0.5034,9.4409,-0.0026,-0.0241,9.8066,0.0436,-0.0198,-0.0059,-7.11,28.77,-4.66,254.92,9.87,0.57
24337,51.545727,-2.572186,135,5.26,9,240.4,15 / 22,2433723,2019-08-16 13:29:47:503,-0.4975,0.2585,9.601,-0.0235,-0.0119,9.8066,0.0202,0.0196,0.0027,-7.56,28.67,-4.54,253.14,9.73,0.55
24338,51.5457,-2.57225,135,5.12,9,240.4,15 / 22,2433823,2019-08-16 13:29:47:603,0.0079,-0.0936,9.3594,-0.026,-0.032,9.8066,-0.0011,-0.0251,-0.0016,-7.56,28.67,-4.54,253.14,9.73,0.55
24339,51.5457,-2.57225,135,5.12,9,240.4,15 / 22,2433923,2019-08-16 13:29:47:703,-0.1051,-0.9022,10.0757,-0.0057,-0.0385,9.8066,0.0127,0.0153,-0.0005,-7.1,28.76,-4.77,254.95,9.51,0.64
24340,51.5457,-2.57225,135,5.12,9,240.4,15 / 22,2434022,2019-08-16 13:29:47:802,-0.4567,-0.7551,10.5239,-0.0161,-0.0713,9.8064,0.0021,-0.0017,0.0122,-7.33,28.92,-3.19,254.95,9.51,0.64
24341,51.5457,-2.57225,135,5.12,9,240.4,15 / 22,2434123,2019-08-16 13:29:47:903,-0.1685,0.5291,9.4978,0.0024,-0.0058,9.8066,0.0021,-0.0017,0.0122,-7.59,28.64,-4.72,253.2,9.08,0.62
24342,51.5457,-2.57225,135,5.12,9,240.4,15 / 22,2434223,2019-08-16 13:29:48:003,0.2103,-0.3581,10.2694,-0.0108,-0.0102,9.8066,-0.0203,0.0207,0.0048,-7.28,28.73,-4.63,255.01,9.0,0.66
24343,51.5457,-2.57225,135,5.12,9,240.4,15 / 22,2434323,2019-08-16 13:29:48:103,-0.3926,0.1874,10.4483,-0.0127,-0.0048,9.8066,0.0191,-0.0315,-0.0027,-8.02,28.52,-4.7,253.2,8.96,0.73
24344,51.5457,-2.57225,135,5.12,9,240.4,15 / 22,2434423,2019-08-16 13:29:48:203,-0.346,-0.082,9.3211,0.0098,-0.0171,9.8066,0.0032,-0.0326,0.0005,-8.02,28.52,-4.7,253.2,8.96,0.73
24345,51.5457,-2.57225,135,5.12,9,240.4,15 / 22,2434523,2019-08-16 13:29:48:303,0.232,-0.6626,9.8265,-0.0076,-0.0273,9.8066,-0.0373,0.0281,0.0069,-8.05,28.64,-3.87,253.51,8.88,0.64
24346,51.5457,-2.57225,135,5.12,9,240.4,15 / 22,2434623,2019-08-16 13:29:48:403,-0.1002,0.0769,9.8528,-0.0089,-0.0345,9.8066,0.0053,0.0484,-0.0037,-9.04,28.36,-3.75,251.14,8.71,0.64
24347,51.5457,-2.57225,135,5.12,9,240.4,15 / 22,2434723,2019-08-16 13:29:48:503,-0.1819,-0.4371,9.5758,-0.0301,-0.0518,9.8065,0.0127,0.0356,0.0091,-10.14,27.84,-4.69,251.14,8.71,0.64
24348,51.545673,-2.572319,135,5.29,9,240.3,15 / 22,2434823,2019-08-16 13:29:48:603,-0.2011,-0.6904,9.4013,-0.0443,-0.0761,9.8063,0.001,0.0026,0.0048,-9.4,28.22,-3.9,251.17,8.21,0.74
24349,51.545673,-2.572319,135,5.29,9,240.3,15 / 22,2434923,2019-08-16 13:29:48:703,-0.0434,-0.1586,10.3775,-0.0198,-0.0215,9.8066,0.0064,-0.0219,-0.0048,-9.4,28.22,-3.9,251.17,8.21,0.74
24350,51.545673,-2.572319,135,5.29,9,240.3,15 / 22,2435023,2019-08-16 13:29:48:803,0.0893,-0.3786,9.7496,-0.0183,-0.0312,9.8066,0.0287,-0.0443,-0.0069,-10.95,27.73,-3.34,247.87,8.05,0.81
24351,51.545673,-2.572319,135,5.29,9,240.3,15 / 22,2435123,2019-08-16 13:29:48:903,-0.2427,-0.3632,9.6995,-0.0185,-0.057,9.8065,0.0287,-0.0443,-0.0069,-9.96,27.98,-4.25,249.41,7.7,0.79
24352,51.545673,-2.572319,135,5.29,9,240.3,15 / 22,2435223,2019-08-16 13:29:49:003,-0.3069,-0.8278,9.8977,-0.009,-0.0061,9.8066,0.0042,-0.0187,-0.0059,-9.96,27.98,-4.25,249.41,7.7,0.79
24353,51.545673,-2.572319,135,5.29,9,240.3,15 / 22,2435323,2019-08-16 13:29:49:103,-0.2844,-0.1024,9.9956,-0.0066,-0.0232,9.8066,0.0266,0.0122,0.0005,-10.52,27.67,-4.87,247.4,7.65,0.83
24354,51.545673,-2.572319,135,5.29,9,240.3,15 / 22,2435424,2019-08-16 13:29:49:204,0.0233,0.228,9.8893,-0.0128,-0.0131,9.8066,-0.0032,-0.0209,0.0048,-9.93,27.88,-4.91,249.18,7.45,0.86
24355,51.545673,-2.572319,135,5.29,9,240.3,15 / 22,2435523,2019-08-16 13:29:49:303,-0.0489,-0.2342,9.8529,-0.0188,-0.0404,9.8065,0.0042,0.0217,-0.0101,-9.68,27.76,-5.97,249.18,7.45,0.86
24356,51.545673,-2.572319,135,5.29,9,240.3,15 / 22,2435624,2019-08-16 13:29:49:404,0.0603,0.0512,9.5208,-0.0285,-0.0615,9.8064,-0.0128,0.0484,0.0027,-9.68,27.76,-5.97,249.18,7.45,0.86
24357,51.545673,-2.572319,135,5.29,9,240.3,15 / 22,2435723,2019-08-16 13:29:49:503,-0.1826,0.1423,10.1813,-0.0096,-0.0251,9.8066,-0.0075,0.0196,-0.0059,-9.73,27.9,-5.17,249.23,7.05,0.89
24358,51.545647,-2.572385,135,5.4,9,240.3,15 / 22,2435823,2019-08-16 13:29:49:603,-0.2818,-0.1231,10.03,-0.0088,-0.0275,9.8066,-0.0075,0.0196,-0.0059,-8.69,28.28,-4.98,251.05,6.89,0.88
24359,51.545647,-2.572385,135,5.4,9,240.3,15 / 22,2435923,2019-08-16 13:29:49:703,-0.021,-0.2069,9.5143,0.0122,-0.0094,9.8066,-0.0011,-0.0337,-0.0048,-8.69,28.28,-4.98,251.05,6.89,0.88
24360,51.545647,-2.572385,135,5.4,9,240.3,15 / 22,2436023,2019-08-16 13:29:49:803,0.6717,-0.4034,8.9098,0.0075,-0.0042,9.8066,-0.0054,0.0185,-0.0005,-8.65,28.14,-5.75,250.84,6.86,0.79
24361,51.545647,-2.572385,135,5.4,9,240.3,15 / 22,2436123,2019-08-16 13:29:49:903,0.0117,-0.2027,9.6905,0.0324,-0.0044,9.8066,-0.0661,0.009,0.0154,-7.54,28.42,-5.96,252.71,6.9,0.6
24362,51.545647,-2.572385,135,5.4,9,240.3,15 / 22,2436222,2019-08-16 13:29:50:002,-0.4474,-0.3843,9.8661,0.0183,0.0178,9.8066,0.0511,-0.0337,-0.025,-7.54,28.42,-5.96,252.71,6.9,0.6
24363,51.545647,-2.572385,135,5.4,9,240.3,15 / 22,2436323,2019-08-16 13:29:50:103,-0.3227,-0.29,9.1712,0.0208,0.0299,9.8066,-0.0256,0.0004,0.0069,-7.58,28.57,-5.16,253.47,7.1,0.54
24364,51.545647,-2.572385,135,5.4,9,240.3,15 / 22,2436423,2019-08-16 13:29:50:203,-0.2976,-0.4232,9.6255,-0.0198,-0.042,9.8065,0.0032,0.0388,-0.0027,-6.75,28.79,-5.07,253.47,7.1,0.54
24365,51.545647,-2.572385,135,5.4,9,240.3,15 / 22,2436523,2019-08-16 13:29:50:303,0.0951,0.1604,9.6779,0.0037,-0.006,9.8066,-0.0469,-0.0187,0.0154,-7.71,28.34,-6.09,252.72,6.83,0.58
24366,51.545647,-2.572385,135,5.4,9,240.3,15 / 22,2436623,2019-08-16 13:29:50:403,0.0659,0.2978,9.9226,0.009,-0.0371,9.8066,-0.0469,-0.0187,0.0154,-7.71,28.34,-6.09,252.72,6.83,0.58
24367,51.545647,-2.572385,135,5.4,9,240.3,15 / 22,2436723,2019-08-16 13:29:50:503,-0.1653,-0.4661,9.9011,-0.0044,-0.0241,9.8066,0.0149,0.0388,-0.0059,-7.41,28.63,-5.04,255.37,6.64,0.47
24368,51.545616,-2.572448,135,5.67,9,240.3,15 / 22,2436822,2019-08-16 13:29:50:602,-0.003,-0.0575,9.3797,-0.009,-0.0434,9.8066,-0.0054,0.0356,0.008,-7.5,28.26,-6.74,255.37,6.64,0.47
24369,51.545616,-2.572448,135,5.67,9,240.3,15 / 22,2436923,2019-08-16 13:29:50:703,0.0239,-0.1744,10.3518,-0.0087,-0.0566,9.8065,-0.0139,-0.0411,0.0059,-8.89,28.2,-5.09,251.2,6.31,0.43
24370,51.545616,-2.572448,135,5.67,9,240.3,15 / 22,2437023,2019-08-16 13:29:50:803,-0.0707,0.2159,9.8262,-0.01,-0.0054,9.8066,0.0053,-0.0262,-0.0133,-7.54,28.42,-5.96,251.2,6.31,0.43
24371,51.545616,-2.572448,135,5.67,9,240.3,15 / 22,2437122,2019-08-16 13:29:50:902,-0.0359,0.2598,9.4605,-0.0195,-0.0214,9.8066,0.0191,0.0164,-0.0005,-7.54,28.42,-5.96,251.2,6.31,0.43
24372,51.545616,-2.572448,135,5.67,9,240.3,15 / 22,2437223,2019-08-16 13:29:51:003,0.0524,-0.2421,9.6652,-0.0147,-0.0322,9.8066,-0.0341,0.0026,0.0176,-7.5,28.28,-6.63,252.67,6.1,0.45
24373,51.545616,-2.572448,135,5.67,9,240.3,15 / 22,2437323,2019-08-16 13:29:51:103,-0.2878,-0.1378,9.6598,-0.0149,-0.0147,9.8066,0.0191,0.0154,-0.0101,-7.94,28.42,-5.4,253.07,6.12,0.42
24374,51.545616,-2.572448,135,5.67,9,240.3,15 / 22,2437424,2019-08-16 13:29:51:204,0.0132,-0.0178,9.7101,-0.0257,-0.0452,9.8065,0.0191,0.0154,-0.0101,-7.94,28.42,-5.4,253.07,6.12,0.42
24375,51.545616,-2.572448,135,5.67,9,240.3,15 / 22,2437523,2019-08-16 13:29:51:303,0.1102,0.0852,9.7655,-0.004,-0.0176,9.8066,0.0021,0.0026,0.0101,-7.03,28.51,-6.13,255.29,5.83,0.49
24376,51.545616,-2.572448,135,5.67,9,240.3,15 / 22,2437622,2019-08-16 13:29:51:402,0.4836,-0.2123,9.7815,-0.0076,0.0132,9.8066,0.0042,0.0058,-0.0112,-7.33,28.2,-7.14,254.62,5.72,0.49
24377,51.545616,-2.572448,135,5.67,9,240.3,15 / 22,2437723,2019-08-16 13:29:51:503,0.0695,0.479,10.135,0.0012,-0.0034,9.8066,-0.0256,0.0505,0.0091,-7.33,28.2,-7.14,254.62,5.72,0.49
24378,51.54559,-2.572521,135,6.28,9,240.4,15 / 22,2437823,2019-08-16 13:29:51:603,0.2605,0.039,9.8579,-0.0093,-0.022,9.8066,-0.0043,0.0196,0.0144,-6.84,28.44,-6.67,254.62,5.7,0.48
24379,51.54559,-2.572521,135,6.28,9,240.4,15 / 22,2437923,2019-08-16 13:29:51:703,0.3897,-0.3591,9.1586,-0.015,-0.0327,9.8066,-0.0075,0.0271,-0.0069,-6.51,28.41,-7.13,254.66,5.5,0.51
24380,51.54559,-2.572521,135,6.28,9,240.4,15 / 22,2438023,2019-08-16 13:29:51:803,0.1639,-0.3147,9.7103,0.0032,-0.0068,9.8066,-0.0075,0.0079,0.0037,-7.41,28.61,-5.15,255.54,5.46,0.48
24381,51.54559,-2.572521,135,6.28,9,240.4,15 / 22,2438123,2019-08-16 13:29:51:903,-0.0455,0.0441,10.0135,-0.0172,-0.0045,9.8066,0.0298,-0.0134,-0.0005,-7.41,28.61,-5.15,255.54,5.46,0.48
24382,51.54559,-2.572521,135,6.28,9,240.4,15 / 22,2438223,2019-08-16 13:29:52:003,0.2866,0.3692,10.0545,-0.0021,-0.014,9.8066,-0.0277,0.0111,0.0122,-7.12,28.74,-4.84,255.54,5.41,0.57
24383,51.54559,-2.572521,135,6.28,9,240.4,15 / 22,2438323,2019-08-16 13:29:52:103,0.2369,-0.2694,9.3764,0.0027,-0.0227,9.8066,-0.0277,0.0111,0.0122,-7.12,28.74,-4.84,255.56,5.29,0.52
24384,51.54559,-2.572521,135,6.28,9,240.4,15 / 22,2438423,2019-08-16 13:29:52:203,-0.091,0.4652,10.4632,-0.0159,0.0054,9.8066,-0.0011,0.0303,0.0101,-7.12,28.74,-4.84,255.56,5.29,0.52
24385,51.54559,-2.572521,135,6.28,9,240.4,15 / 22,2438523,2019-08-16 13:29:52:303,0.118,0.4528,9.6781,-0.0033,-0.0068,9.8066,-0.0171,0.0569,0.0048,-7.22,28.56,-5.7,255.37,5.29,0.62
24386,51.54559,-2.572521,135,6.28,9,240.4,15 / 22,2438623,2019-08-16 13:29:52:403,0.0952,-0.103,9.2619,0.0027,-0.0148,9.8066,-0.0054,-0.0464,-0.0112,-6.99,28.33,-6.95,255.37,5.29,0.62
24387,51.54559,-2.572521,135,6.28,9,240.4,15 / 22,2438723,2019-08-16 13:29:52:503,0.303,-0.1817,9.6778,0.0073,0.0061,9.8066,-0.0011,-0.0219,-0.0059,-7.69,28.48,-5.44,253.18,5.22,0.58
24388,51.545563,-2.572607,135,6.81,9,240.5,15 / 22,2438823,2019-08-16 13:29:52:603,0.2884,0.3261,10.3239,-0.0006,0.0121,9.8066,0.0127,0.0665,-0.0059,-7.89,28.53,-4.9,253.18,5.22,0.58
24389,51.545563,-2.572607,135,6.81,9,240.5,15 / 22,2438923,2019-08-16 13:29:52:703,0.2196,0.1347,9.5599,-0.0079,0.013,9.8066,-0.0203,0.0122,-0.0037,-7.1,28.75,-4.83,255.55,5.27,0.65
24390,51.545563,-2.572607,135,6.81,9,240.5,15 / 22,2439023,2019-08-16 13:29:52:803,0.0996,0.2384,9.3094,-0.0037,0.0074,9.8066,0.0255,-0.007,-0.0165,-8.0,28.44,-5.21,255.55,5.27,0.65
24391,51.545563,-2.572607,135,6.81,9,240.5,15 / 22,2439123,2019-08-16 13:29:52:903,0.0135,0.2722,10.1763,-0.007,0.0009,9.8066,0.0255,-0.007,-0.0165,-8.0,28.44,-5.21,255.55,5.27,0.65
24392,51.545563,-2.572607,135,6.81,9,240.5,15 / 22,2439223,2019-08-16 13:29:53:003,-0.2128,-0.1584,10.1097,-0.0065,0.0082,9.8066,-0.0096,0.0047,0.0091,-7.55,28.52,-5.45,253.7,5.31,0.7
24393,51.545563,-2.572607,135,6.81,9,240.5,15 / 22,2439323,2019-08-16 13:29:53:103,0.239,0.0571,9.7392,-0.0016,0.0067,9.8066,0.0341,-0.0155,-0.0091,-7.72,28.59,-4.8,253.7,5.31,0.7
24394,51.545563,-2.572607,135,6.81,9,240.5,15 / 22,2439423,2019-08-16 13:29:53:203,-0.0674,-0.0824,9.834,-0.0024,0.0058,9.8066,0.0,0.009,0.0048,-7.72,28.59,-4.8,253.7,5.31,0.7
24395,51.545563,-2.572607,135,6.81,9,240.5,15 / 22,2439522,2019-08-16 13:29:53:302,0.0918,0.2291,9.6094,0.0072,-0.0079,9.8066,-0.0086,0.0175,0.008,-8.19,28.48,-4.69,253.14,5.34,0.72
24396,51.545563,-2.572607,135,6.81,9,240.5,15 / 22,2439623,2019-08-16 13:29:53:403,-0.2247,-0.0112,10.0575,-0.0022,0.0046,9.8066,0.0117,-0.0049,-0.0101,-7.72,28.59,-4.8,253.71,5.31,0.67
24397,51.545563,-2.572607,135,6.81,9,240.5,15 / 22,2439723,2019-08-16 13:29:53:503,0.2501,-0.1804,10.1811,-0.0013,0.0083,9.8066,0.0117,-0.0049,-0.0101,-7.67,28.31,-6.31,252.97,5.33,0.69
24398,51.545532,-2.572702,134,7.33,9,240.6,15 / 22,2439823,2019-08-16 13:29:53:603,-0.2142,0.0552,9.6197,0.0087,-0.0006,9.8066,0.0032,-0.0294,-0.0037,-7.67,28.31,-6.31,252.97,5.33,0.69
24399,51.545532,-2.572702,134,7.33,9,240.6,15 / 22,2439923,2019-08-16 13:29:53:703,-0.0351,0.0627,9.7436,0.0037,-0.0138,9.8066,-0.0277,0.0026,-0.0037,-8.51,28.35,-4.87,251.3,5.34,0.64
24400,51.545532,-2.572702,134,7.33,9,240.6,15 / 22,2440022,2019-08-16 13:29:53:802,-0.0768,0.0506,9.6801,-0.0015,-0.007,9.8066,0.0053,0.0441,0.0005,-7.72,28.59,-4.8,253.72,5.27,0.59
24401,51.545532,-2.572702,134,7.33,9,240.6,15 / 22,2440123,2019-08-16 13:29:53:903,-0.1798,-0.3111,10.5903,0.0007,-0.0019,9.8067,0.001,-0.0134,-0.0048,-7.59,28.64,-4.72,253.72,5.27,0.59
24402,51.545532,-2.572702,134,7.33,9,240.6,15 / 22,2440223,2019-08-16 13:29:54:003,-0.2148,-0.087,10.4419,-0.0036,-0.0065,9.8066,-0.0107,-0.0081,0.0123,-7.12,28.86,-4.07,255.73,5.23,0.6
24403,51.545532,-2.572702,134,7.33,9,240.6,15 / 22,2440323,2019-08-16 13:29:54:103,0.1462,-0.2695,9.5584,0.0022,-0.0058,9.8066,-0.016,0.0462,0.0037,-7.22,28.56,-5.7,255.73,5.23,0.6
24404,51.545532,-2.572702,134,7.33,9,240.6,15 / 22,2440423,2019-08-16 13:29:54:203,-0.0747,-0.105,10.1004,0.0017,-0.0005,9.8067,0.001,-0.0198,-0.0027,-7.81,28.25,-6.42,253.02,5.19,0.53
24405,51.545532,-2.572702,134,7.33,9,240.6,15 / 22,2440523,2019-08-16 13:29:54:303,0.024,0.6703,9.9383,0.0055,0.0092,9.8066,0.001,-0.0198,-0.0027,-7.85,28.39,-5.67,253.02,5.19,0.53
24406,51.545532,-2.572702,134,7.33,9,240.6,15 / 22,2440623,2019-08-16 13:29:54:403,-0.1807,-0.6922,10.307,0.0063,0.0079,9.8066,0.0149,0.0026,-0.0176,-7.71,28.45,-5.57,253.01,5.24,0.51
24407,51.545532,-2.572702,134,7.33,9,240.6,15 / 22,2440723,2019-08-16 13:29:54:503,-0.5028,0.0345,10.2904,-0.0048,-0.0135,9.8066,-0.0139,-0.0251,0.0101,-7.71,28.45,-5.57,253.01,5.24,0.51
24408,51.545498,-2.572814,135,7.87,9,240.5,15 / 22,2440823,2019-08-16 13:29:54:603,-0.3335,0.4202,9.7455,0.0037,0.0003,9.8067,0.0021,0.0324,-0.0059,-7.63,28.15,-7.04,252.85,5.16,0.51
24409,51.545498,-2.572814,135,7.87,9,240.5,15 / 22,2440923,2019-08-16 13:29:54:703,0.077,-0.5525,8.8118,-0.0031,0.0024,9.8067,-0.0086,0.0686,0.0144,-8.54,28.32,-5.0,251.34,5.17,0.53
24410,51.545498,-2.572814,135,7.87,9,240.5,15 / 22,2441023,2019-08-16 13:29:54:803,-0.2887,-0.1249,9.3866,-0.0088,-0.0193,9.8066,-0.0181,-0.0198,0.0027,-7.87,28.34,-5.9,251.34,5.17,0.53
24411,51.545498,-2.572814,135,7.87,9,240.5,15 / 22,2441123,2019-08-16 13:29:54:903,-0.2345,0.3489,10.1987,-0.0225,-0.0339,9.8066,0.0255,-0.0496,-0.0059,-7.87,28.34,-5.9,251.34,5.17,0.53
24412,51.545498,-2.572814,135,7.87,9,240.5,15 / 22,2441223,2019-08-16 13:29:55:003,0.1114,0.1702,10.2176,-0.0086,-0.0051,9.8066,-0.0224,0.0047,0.0133,-8.08,28.43,-5.14,253.22,4.94,0.59
24413,51.545498,-2.572814,135,7.87,9,240.5,15 / 22,2441323,2019-08-16 13:29:55:103,0.1934,-0.0364,10.0629,0.0006,-0.018,9.8066,-0.0224,0.0047,0.0133,-7.87,28.36,-5.8,253.07,4.88,0.59
24414,51.545498,-2.572814,135,7.87,9,240.5,15 / 22,2441423,2019-08-16 13:29:55:203,0.0124,-0.4855,9.31,-0.0025,-0.0402,9.8066,0.0096,0.0249,-0.0027,-7.74,28.56,-4.93,253.07,4.88,0.59
24415,51.545498,-2.572814,135,7.87,9,240.5,15 / 22,2441522,2019-08-16 13:29:55:302,-0.2836,-0.2751,10.429,-0.0114,-0.0343,9.8066,-0.0469,0.0036,0.0112,-7.74,28.56,-4.93,253.07,4.88,0.59
24416,51.545498,-2.572814,135,7.87,9,240.5,15 / 22,2441623,2019-08-16 13:29:55:403,-0.1462,0.059,9.5918,-0.0032,-0.0069,9.8066,0.0149,0.0239,0.0005,-7.08,28.59,-5.71,255.49,4.67,0.6
24417,51.545498,-2.572814,135,7.87,9,240.5,15 / 22,2441723,2019-08-16 13:29:55:503,-0.1048,-0.1855,9.7247,-0.0075,-0.0289,9.8066,0.001,0.0345,0.0069,-7.87,28.34,-5.9,253.14,4.5,0.6
24418,51.545464,-2.572912,134,8.47,9,240.4,15 / 22,2441822,2019-08-16 13:29:55:602,0.064,-0.4366,10.6647,-0.0029,-0.0226,9.8066,0.0351,0.0015,-0.0005,-7.87,28.34,-5.9,253.14,4.5,0.6
24419,51.545464,-2.572912,134,8.47,9,240.4,15 / 22,2441923,2019-08-16 13:29:55:703,-0.0139,-0.091,10.4188,-0.012,-0.0119,9.8066,-0.0181,-0.0049,-0.0059,-7.23,28.5,-5.94,255.55,4.37,0.58
24420,51.545464,-2.572912,134,8.47,9,240.4,15 / 22,2442023,2019-08-16 13:29:55:803,-0.0857,0.1001,9.7921,-0.0098,-0.0272,9.8066,0.0074,0.0111,-0.0144,-7.54,28.48,-5.66,253.19,4.2,0.59
24421,51.545464,-2.572912,134,8.47,9,240.4,15 / 22,2442123,2019-08-16 13:29:55:903,0.2792,-0.0927,10.2579,-0.0057,-0.0382,9.8066,-0.0107,-0.0209,0.0037,-7.23,28.5,-5.94,253.19,4.2,0.59
24422,51.545464,-2.572912,134,8.47,9,240.4,15 / 22,2442223,2019-08-16 13:29:56:003,0.0727,-0.3235,9.7156,-0.014,-0.0533,9.8065,-0.0107,-0.0209,0.0037,-7.23,28.5,-5.94,253.19,4.2,0.59
24423,51.545464,-2.572912,134,8.47,9,240.4,15 / 22,2442323,2019-08-16 13:29:56:103,-0.3915,0.1672,10.0186,-0.0105,-0.0041,9.8066,-0.0032,-0.0358,-0.0037,-8.53,28.3,-5.11,251.53,3.88,0.58
24424,51.545464,-2.572912,134,8.47,9,240.4,15 / 22,2442423,2019-08-16 13:29:56:203,-0.3301,0.3458,10.3973,-0.0085,-0.017,9.8066,0.0181,0.0558,0.0005,-7.7,28.41,-5.78,251.53,3.88,0.58
24425,51.545464,-2.572912,134,8.47,9,240.4,15 / 22,2442523,2019-08-16 13:29:56:303,0.1617,-0.5136,9.5455,-0.0129,-0.036,9.8066,-0.0096,-0.0273,-0.0027,-7.67,28.29,-6.41,253.3,3.65,0.58
24426,51.545464,-2.572912,134,8.47,9,240.4,15 / 22,2442623,2019-08-16 13:29:56:403,0.1213,-0.4441,10.6648,-0.0175,-0.0194,9.8066,0.0383,-0.0603,-0.0123,-7.74,28.56,-4.93,253.98,3.51,0.65
24427,51.545464,-2.572912,134,8.47,9,240.4,15 / 22,2442723,2019-08-16 13:29:56:503,-0.3004,-0.3221,10.3081,-0.0105,-0.0098,9.8066,0.0074,0.009,-0.0133,-7.74,28.56,-4.93,253.98,3.51,0.65
24428,51.545425,-2.573033,134,9.31,9,240.5,15 / 22,2442823,2019-08-16 13:29:56:603,0.1538,0.3874,9.9834,-0.0173,-0.0264,9.8066,0.0213,-0.0571,-0.0027,-8.35,28.38,-5.0,253.46,3.34,0.7
24429,51.545425,-2.573033,134,9.31,9,240.5,15 / 22,2442923,2019-08-16 13:29:56:703,0.164,-0.4857,9.8563,-0.0144,-0.0191,9.8066,0.0213,-0.0571,-0.0027,-7.87,28.34,-5.9,253.36,3.21,0.75
24430,51.545425,-2.573033,134,9.31,9,240.5,15 / 22,2443024,2019-08-16 13:29:56:804,-0.2096,0.1265,9.7415,-0.0134,0.0124,9.8066,0.0543,-0.0369,-0.0069,-7.87,28.34,-5.9,253.36,3.21,0.75
24431,51.545425,-2.573033,134,9.31,9,240.5,15 / 22,2443123,2019-08-16 13:29:56:903,0.0712,-0.01,9.4402,-0.0005,0.0005,9.8067,-0.0032,-0.0443,0.0037,-7.87,28.34,-5.9,253.34,3.25,0.85
24432,51.545425,-2.573033,134,9.31,9,240.5,15 / 22,2443223,2019-08-16 13:29:57:003,0.0125,-0.243,9.2603,-0.0006,0.002,9.8067,0.0266,0.0441,-0.0027,-7.74,28.54,-5.03,254.0,3.2,0.85
24433,51.545425,-2.573033,134,9.31,9,240.5,15 / 22,2443323,2019-08-16 13:29:57:103,0.0274,0.7102,9.8249,0.0038,-0.0126,9.8066,-0.0384,0.0207,-0.0133,-8.11,28.53,-4.47,254.11,3.21,0.86
24434,51.545425,-2.573033,134,9.31,9,240.5,15 / 22,2443423,2019-08-16 13:29:57:203,-0.1419,0.1337,10.6877,0.0041,-0.0243,9.8066,-0.0213,0.0281,-0.0005,-8.11,28.53,-4.47,254.11,3.21,0.86
24435,51.545425,-2.573033,134,9.31,9,240.5,15 / 22,2443523,2019-08-16 13:29:57:303,0.2189,-0.3223,9.5888,0.0116,-0.0172,9.8066,0.0191,0.0377,-0.0123,-7.7,28.41,-5.78,253.38,3.08,0.8
24436,51.545425,-2.573033,134,9.31,9,240.5,15 / 22,2443624,2019-08-16 13:29:57:404,0.2506,0.3673,10.4136,0.0073,-0.0288,9.8066,-0.0075,-0.0326,0.0027,-7.9,28.48,-5.14,253.52,2.93,0.71
24437,51.545425,-2.573033,134,9.31,9,240.5,15 / 22,2443723,2019-08-16 13:29:57:503,0.2321,-0.201,9.6247,-0.006,0.0176,9.8066,0.017,-0.0432,-0.0144,-8.31,28.25,-5.75,253.39,3.02,0.77
24438,51.545383,-2.573166,134,10.16,9,240.6,15 / 22,2443823,2019-08-16 13:29:57:603,0.2089,0.3905,9.844,0.0132,-0.0027,9.8066,0.017,-0.0432,-0.0144,-8.31,28.25,-5.75,253.39,3.02,0.77
24439,51.545383,-2.573166,134,10.16,9,240.6,15 / 22,2443923,2019-08-16 13:29:57:703,-0.1205,0.2866,10.0616,0.0047,0.0345,9.8066,-0.0086,-0.0528,0.0101,-8.49,28.17,-5.87,253.4,3.03,0.69
24440,51.545383,-2.573166,134,10.16,9,240.6,15 / 22,2444023,2019-08-16 13:29:57:803,-0.1209,-0.556,8.7386,0.0105,-0.0045,9.8066,-0.0203,0.1102,0.0059,-7.77,28.66,-4.28,254.1,3.37,0.74
24441,51.545383,-2.573166,134,10.16,9,240.6,15 / 22,2444123,2019-08-16 13:29:57:903,-0.3612,0.5689,10.9957,0.0041,0.0392,9.8066,-0.0714,0.0367,0.0154,-7.7,28.41,-5.78,253.34,3.36,0.68
24442,51.545383,-2.573166,134,10.16,9,240.6,15 / 22,2444223,2019-08-16 13:29:58:003,0.1121,-0.0408,8.6524,0.0072,0.0428,9.8066,0.0117,-0.007,-0.0133,-7.7,28.41,-5.78,253.34,3.36,0.68
24443,51.545383,-2.573166,134,10.16,9,240.6,15 / 22,2444323,2019-08-16 13:29:58:103,-0.0689,0.9765,10.0624,0.0058,0.0014,9.8066,0.0266,-0.0688,-0.0229,-7.87,28.34,-5.9,253.29,3.61,0.71
24444,51.545383,-2.573166,134,10.16,9,240.6,15 / 22,2444423,2019-08-16 13:29:58:203,0.3973,0.1584,9.012,0.0001,0.0141,9.8066,0.0085,-0.0624,0.0048,-8.49,28.17,-5.87,253.29,3.63,0.68
