,GPS LATITUDE (degrees), GPS LONGITUDE (degrees), GPS ALTITUDE (m), GPS SPEED (Kmh), GPS ACCURACY (m), GPS ORIENTATION (Â°),GPS SATELLITES IN RANGE, TIME SINCE START (ms), DATE (YYYY-MO-DD HH-MI-SS_SSS), ACCELEROMETER X (m/s²) , ACCELEROMETER Y (m/s²), ACCELEROMETER Z (m/s²), GRAVITY X (m/s²), GRAVITY Y (m/s²), GRAVITY Z (m/s²), GYROSCOPE Yaw (rad/s), GYROSCOPE Pitch (rad/s), GYROSCOPE Roll (rad/s), MAGNETIC FIELD X (Î¼T), MAGNETIC FIELD Y (Î¼T), MAGNETIC FIELD Z (Î¼T), ORIENTATION (Yaw) (Â°), ORIENTATION (Pitch) (Â°), ORIENTATION (Roll ) (Â°)
1105,52.551186,-1.458885,151.24,17.62,3,120.58,22 / 23,110510,2020-01-08 10:17:37:184,-0.1019,1.2029,7.4583,-0.039,0.0606,9.8064,-0.229,-0.0099,0.0616,-25.87,-31.37,28.5,321.93,-80.91,-171.38
1106,52.551186,-1.458885,151.24,17.62,3,120.58,22 / 23,110611,2020-01-08 10:17:37:285,1.7139,1.9494,11.9788,-0.0799,0.0194,9.8062,-0.106,-0.2329,0.0938,-25.25,-30.94,28.31,322.54,-81.32,-171.01
1107,52.551186,-1.458885,151.24,17.62,3,120.58,22 / 23,110711,2020-01-08 10:17:37:385,1.0699,1.069,7.7105,-0.0388,-0.0384,9.8065,-0.2393,-0.1893,0.3074,-25.37,-32.25,28.69,323.49,-81.27,-171.08
1108,52.551186,-1.458885,151.24,17.62,3,120.58,22 / 23,110810,2020-01-08 10:17:37:484,1.4518,2.0465,9.2253,-0.0548,0.0152,9.8064,0.2081,-0.4622,0.2612,-25.69,-31.81,28.0,319.47,-81.46,-172.68
1109,52.551186,-1.458885,151.24,17.62,3,120.58,22 / 23,110910,2020-01-08 10:17:37:584,-3.0376,-2.3305,10.8436,0.003,-0.0597,9.8065,0.1187,-0.4194,0.2135,-25.06,-32.19,28.13,320.93,-81.25,-172.27
1110,52.551186,-1.458885,151.24,17.62,3,120.58,22 / 23,111011,2020-01-08 10:17:37:685,-0.3969,-0.6721,8.7316,0.004,-0.0501,9.8064,0.0601,-0.5328,0.3072,-25.19,-31.69,28.44,320.57,-81.32,-172.64
1111,52.551186,-1.458885,151.24,17.62,3,120.58,22 / 23,111111,2020-01-08 10:17:37:785,0.293,1.1966,11.0971,-0.0579,-0.0695,9.8062,0.114,-0.4537,0.3593,-26.0,-32.06,28.25,321.15,-81.3,-171.07
1112,52.551186,-1.458885,151.24,17.62,3,120.58,22 / 23,111211,2020-01-08 10:17:37:885,-0.1729,1.6878,8.9229,0.0011,-0.0333,9.8065,-0.1366,-0.2448,0.1999,-25.62,-32.06,28.44,319.27,-81.31,-172.77
1113,52.551186,-1.458885,151.24,17.62,3,120.58,21 / 23,111311,2020-01-08 10:17:37:985,-2.8614,-2.4354,10.1438,-0.0263,0.0052,9.8066,-0.0131,-0.4445,0.2082,-24.94,-31.5,28.31,321.07,-81.26,-172.3
1114,52.551186,-1.458885,151.24,17.62,3,120.58,21 / 23,111411,2020-01-08 10:17:38:085,-1.2869,-0.4197,9.1137,-0.0361,-0.0399,9.8065,0.0456,0.3235,-0.1942,-25.81,-31.56,28.19,321.93,-81.39,-170.42
1115,52.551186,-1.458885,151.24,17.62,3,120.58,21 / 23,111511,2020-01-08 10:17:38:185,-4.929,-2.5624,11.0926,0.0526,0.0128,9.8064,0.1468,-0.2291,0.0833,-25.56,-31.12,28.25,323.47,-81.58,-169.28
1116,52.551186,-1.458885,151.24,17.62,3,120.58,21 / 23,111611,2020-01-08 10:17:38:285,-0.1763,-0.1995,10.2016,-0.0375,-0.0067,9.8065,0.1464,0.4232,-0.2488,-25.31,-31.31,27.88,324.59,-81.56,-169.31
1117,52.551186,-1.458885,151.24,17.62,3,120.58,21 / 23,111710,2020-01-08 10:17:38:384,2.9032,2.6425,9.635,0.0294,0.0528,9.8064,-0.2141,0.1475,-0.1238,-25.5,-31.87,27.5,322.0,-81.62,-171.53
1118,52.551186,-1.458885,151.24,17.62,3,120.58,21 / 23,111811,2020-01-08 10:17:38:485,-3.0329,-1.9234,7.5936,-0.0087,0.0272,9.8065,0.1672,0.3711,-0.4855,-25.25,-31.81,27.75,323.82,-81.82,-170.02
1119,52.551186,-1.458885,151.24,17.62,3,120.58,21 / 23,111911,2020-01-08 10:17:38:585,-1.0175,-0.5506,11.3615,0.0522,0.0275,9.8064,0.1745,0.1688,-0.0337,-25.62,-31.62,27.94,319.5,-81.86,-172.9
1120,52.551186,-1.458885,151.24,17.62,3,120.58,21 / 23,112011,2020-01-08 10:17:38:685,-0.696,-0.4271,9.3013,0.0352,-0.0164,9.8065,-0.1837,0.3559,-0.1052,-25.12,-31.19,27.56,320.56,-81.87,-173.12
1121,52.551186,-1.458885,151.24,17.62,3,120.58,21 / 23,112111,2020-01-08 10:17:38:785,2.0019,3.1379,8.7159,0.0038,0.062,9.8064,-0.0879,0.3013,-0.2648,-25.12,-31.75,27.5,321.19,-81.88,-172.42
1122,52.551186,-1.458885,151.24,17.62,3,120.58,21 / 23,112210,2020-01-08 10:17:38:884,-0.735,0.4631,9.2735,0.0057,0.0239,9.8066,-0.1255,0.2087,-0.2158,-25.5,-31.75,28.0,320.52,-82.01,-173.11
1123,52.551186,-1.458885,151.24,17.62,3,120.58,21 / 23,112311,2020-01-08 10:17:38:985,-1.0139,-0.0926,7.6814,-0.0104,0.02,9.8066,-0.1631,0.1916,0.0103,-25.0,-31.56,28.19,321.2,-82.11,-172.55
1124,52.551186,-1.458885,151.24,17.62,3,120.58,21 / 23,112412,2020-01-08 10:17:39:086,-0.9782,-1.2762,10.0308,-0.0368,0.0529,9.8064,0.2429,-0.0421,-0.1546,-25.06,-31.62,27.63,322.23,-82.45,-171.83
1125,52.551186,-1.458885,151.24,17.62,3,120.58,21 / 23,112511,2020-01-08 10:17:39:185,-0.1554,-0.8811,10.6536,0.0292,-0.02,9.8065,-0.0078,0.0308,-0.0072,-25.31,-31.44,26.94,322.06,-82.69,-171.13
1126,52.551186,-1.458885,151.24,17.62,3,120.58,21 / 23,112610,2020-01-08 10:17:39:284,-1.803,-0.5559,9.141,0.0142,0.0005,9.8066,0.0045,-0.0721,0.0564,-25.06,-31.56,26.63,321.12,-82.69,-171.86
1127,52.551186,-1.458885,151.24,17.62,3,120.58,21 / 23,112710,2020-01-08 10:17:39:384,0.8172,-1.1459,10.8414,-0.0261,0.0063,9.8065,0.1024,-0.0986,0.0133,-23.62,-31.69,25.56,321.65,-82.91,-171.45
1128,52.551186,-1.458885,151.24,17.62,3,120.58,21 / 23,112811,2020-01-08 10:17:39:485,0.9666,1.8241,10.5304,0.0166,-0.0255,9.8065,-0.3124,-0.1839,0.3432,-21.69,-28.69,26.0,323.82,-82.86,-172.14
1129,52.551186,-1.458885,151.24,17.62,3,120.58,21 / 23,112911,2020-01-08 10:17:39:585,1.8024,2.5436,8.8878,-0.0736,0.008,9.8063,-0.1835,0.1405,-0.0513,-24.56,-26.12,31.0,325.04,-82.98,-173.25
1130,52.551186,-1.458885,151.24,17.62,3,120.58,21 / 23,113011,2020-01-08 10:17:39:685,-1.5982,-1.3711,10.9044,-0.0026,0.0531,9.8065,0.1036,-0.2902,0.1795,-27.12,-27.0,27.13,319.09,-83.3,-172.61
1131,52.551186,-1.458885,151.24,17.62,3,120.58,21 / 23,113110,2020-01-08 10:17:39:784,-0.3975,-0.3205,9.8799,0.003,-0.0049,9.8066,-0.1178,0.1846,-0.1177,-29.56,-26.31,28.19,318.82,-83.24,-171.19
1132,52.551186,-1.458885,151.24,17.62,3,120.58,21 / 22,113212,2020-01-08 10:17:39:886,-1.2802,-0.8297,10.3286,-0.0217,0.0203,9.8065,0.024,-0.1613,0.0785,-28.0,-30.06,25.25,317.06,-83.23,-170.81
1133,52.550385,-1.456738,152.68,19.69,3,120.58,21 / 22,113311,2020-01-08 10:17:39:985,-0.4433,0.5962,9.8905,0.0074,-0.0091,9.8066,0.0194,-0.0822,-0.0266,-25.75,-31.94,26.38,320.46,-83.14,-170.53
1134,52.550385,-1.456738,152.68,19.69,3,120.58,21 / 22,113411,2020-01-08 10:17:40:085,-0.8245,0.4284,8.5877,0.0278,-0.008,9.8065,0.1156,0.1652,-0.2544,-25.19,-32.12,26.44,322.15,-83.08,-170.0
1135,52.550385,-1.456738,152.68,19.69,3,120.58,21 / 22,113510,2020-01-08 10:17:40:184,2.3444,3.4886,8.1507,0.0237,0.0202,9.8065,0.1724,-0.2765,0.0982,-24.81,-32.25,27.0,323.9,-83.09,-169.56
1136,52.550385,-1.456738,152.68,19.69,3,120.58,21 / 22,113611,2020-01-08 10:17:40:285,0.2309,3.642,7.4547,-0.0019,-0.0448,9.8065,-0.2587,0.3673,-0.0719,-25.44,-32.5,26.94,324.04,-83.25,-169.53
1137,52.550385,-1.456738,152.68,19.69,3,120.58,21 / 22,113710,2020-01-08 10:17:40:384,0.1256,2.4111,8.4279,-0.0255,0.0594,9.8064,-0.1018,0.1591,-0.0987,-25.31,-32.37,25.88,323.67,-83.46,-168.84
1138,52.550385,-1.456738,152.68,19.69,3,120.58,21 / 22,113811,2020-01-08 10:17:40:485,-1.5589,-1.2516,10.4648,-0.0126,0.0432,9.8064,-0.0138,0.187,-0.0767,-25.12,-32.19,26.75,324.36,-83.65,-169.46
1139,52.550385,-1.456738,152.68,19.69,3,120.58,21 / 22,113911,2020-01-08 10:17:40:585,0.7827,2.8995,7.6477,0.0081,0.0181,9.8066,-0.0723,0.47,-0.2754,-25.62,-32.87,26.69,324.32,-83.52,-168.25
1140,52.550385,-1.456738,152.68,19.69,3,120.58,21 / 22,114011,2020-01-08 10:17:40:685,-1.8724,0.0248,8.5773,0.0516,0.0168,9.8064,0.0421,-0.0433,-0.3007,-25.31,-32.44,26.69,324.88,-83.52,-168.91
1141,52.550385,-1.456738,152.68,19.69,3,120.58,21 / 22,114112,2020-01-08 10:17:40:786,-2.2787,-1.5262,11.6351,0.0322,-0.0184,9.8065,0.2912,-0.1882,0.1652,-25.0,-31.69,26.63,324.67,-83.68,-169.19
1142,52.550385,-1.456738,152.68,19.69,3,120.58,21 / 22,114211,2020-01-08 10:17:40:885,0.4659,1.2929,9.6933,0.0231,-0.0429,9.8065,-0.2193,-0.0032,0.2183,-24.81,-31.56,25.69,321.72,-83.81,-170.84
1143,52.550385,-1.456738,152.68,19.69,3,120.58,21 / 22,114311,2020-01-08 10:17:40:985,-0.735,1.259,9.3647,-0.0324,0.0173,9.8065,-0.0541,0.0306,-0.0816,-23.81,-31.44,25.81,322.84,-83.92,-171.07
1144,52.550385,-1.456738,152.68,19.69,3,120.58,21 / 22,114411,2020-01-08 10:17:41:085,-0.933,-2.4753,10.016,-0.0118,0.0286,9.8065,0.0321,-0.1344,0.1456,-24.62,-31.87,25.75,322.42,-84.12,-170.37
1145,52.550385,-1.456738,152.68,19.69,3,120.58,21 / 22,114511,2020-01-08 10:17:41:185,0.269,2.6638,8.6325,-0.0186,-0.0018,9.8066,-0.1563,0.286,-0.1333,-25.06,-32.5,25.31,320.94,-84.19,-170.6
1146,52.550385,-1.456738,152.68,19.69,3,120.58,21 / 22,114611,2020-01-08 10:17:41:285,1.5494,2.8065,8.9191,0.0154,0.0409,9.8065,0.1258,-0.4289,0.1795,-25.25,-32.69,25.56,320.98,-84.34,-171.74
1147,52.550385,-1.456738,152.68,19.69,3,120.58,21 / 22,114710,2020-01-08 10:17:41:384,2.2054,2.0738,9.5017,-0.0162,-0.0443,9.8065,0.0444,0.0223,0.067,-25.25,-32.37,25.5,322.99,-84.1,-169.83
1148,52.550385,-1.456738,152.68,19.69,3,120.58,21 / 22,114811,2020-01-08 10:17:41:485,1.3207,2.6154,8.885,0.0017,-0.0147,9.8066,0.0131,-0.417,0.249,-25.0,-32.62,25.31,320.6,-84.11,-170.76
1149,52.550385,-1.456738,152.68,19.69,3,120.58,21 / 22,114911,2020-01-08 10:17:41:585,-2.4469,-1.4888,10.4167,-0.0052,-0.0296,9.8065,0.1354,-0.3776,0.1348,-25.31,-32.25,25.69,322.49,-84.29,-170.41
1150,52.550385,-1.456738,152.68,19.69,3,120.58,21 / 22,115011,2020-01-08 10:17:41:685,0.8881,2.4746,7.6845,-0.0072,-0.0512,9.8064,-0.0445,-0.1696,0.0805,-25.31,-32.44,25.56,324.88,-84.49,-168.31
1151,52.550385,-1.456738,152.68,19.69,3,120.58,21 / 22,115111,2020-01-08 10:17:41:785,-1.4612,0.2668,10.7928,-0.0242,-0.0144,9.8065,0.0648,-0.3018,0.1976,-24.87,-32.62,25.88,322.62,-84.8,-170.5
1152,52.550385,-1.456738,152.68,19.69,3,120.58,21 / 22,115211,2020-01-08 10:17:41:885,1.555,0.5042,11.6793,0.0548,0.0009,9.8064,-0.0128,-0.2786,0.1506,-25.19,-31.62,25.63,318.94,-84.59,-173.9
1153,52.550385,-1.456738,152.68,19.69,3,120.58,21 / 22,115311,2020-01-08 10:17:41:985,-0.1608,-0.9162,10.7526,0.038,-0.0023,9.8065,0.0025,-0.0334,0.2372,-25.25,-32.37,25.31,315.49,-84.28,-175.73
1154,52.550385,-1.456738,152.68,19.69,3,120.58,23 / 23,115411,2020-01-08 10:17:42:085,5.0616,3.5288,9.4422,0.0422,0.0627,9.8063,-0.0444,-0.664,0.4882,-24.94,-31.44,26.56,317.56,-84.21,-176.2
1155,52.550385,-1.456738,152.68,19.69,3,120.58,23 / 23,115511,2020-01-08 10:17:42:185,1.4376,3.0505,11.3399,-0.0217,0.036,9.8065,0.0082,-0.2755,0.3545,-25.19,-31.37,25.81,320.52,-84.25,-172.31
1156,52.550385,-1.456738,152.68,19.69,3,120.58,23 / 23,115611,2020-01-08 10:17:42:285,4.2413,0.7481,12.1472,0.1311,0.0144,9.8057,-0.2178,-0.5276,0.4767,-25.0,-32.0,25.81,327.4,-84.38,-165.91
1157,52.550385,-1.456738,152.68,19.69,3,120.58,23 / 23,115710,2020-01-08 10:17:42:384,-1.5432,-3.8326,9.7982,0.0817,-0.0363,9.8062,-0.1792,-0.4709,0.285,-25.06,-32.25,26.06,324.21,-83.94,-168.62
1158,52.550385,-1.456738,152.68,19.69,3,120.58,23 / 23,115811,2020-01-08 10:17:42:485,1.8121,0.9007,9.5264,-0.0294,0.057,9.8063,0.0683,-0.3484,0.0124,-25.44,-32.19,26.63,326.73,-84.2,-167.57
1159,52.550385,-1.456738,152.68,19.69,3,120.58,23 / 23,115911,2020-01-08 10:17:42:585,-1.1262,-3.2126,9.2586,0.0174,0.0666,9.8064,0.0295,-0.2712,0.3692,-25.12,-32.12,25.81,326.38,-84.42,-166.88
1160,52.550385,-1.456738,152.68,19.69,3,120.58,23 / 23,116010,2020-01-08 10:17:42:684,1.8177,2.5688,7.9399,-0.021,0.0586,9.8064,-0.0022,-0.1562,0.0765,-25.56,-32.06,24.94,329.8,-84.79,-161.65
1161,52.550385,-1.456738,152.68,19.69,3,120.58,23 / 23,116110,2020-01-08 10:17:42:784,-2.2461,-1.6824,11.2016,-0.022,0.0322,9.8065,0.0697,-0.2432,0.2276,-25.44,-31.94,25.25,331.84,-85.18,-161.02
1162,52.550385,-1.456738,152.68,19.69,3,120.58,22 / 23,116211,2020-01-08 10:17:42:885,2.9521,2.4685,9.366,0.0217,-0.0273,9.8065,-0.0531,0.1787,-0.105,-26.19,-32.12,24.38,331.45,-84.93,-158.97
1163,52.550385,-1.456738,152.68,19.69,3,120.58,22 / 23,116311,2020-01-08 10:17:42:985,-1.6699,-1.1135,9.1591,0.0557,0.0092,9.8064,-0.0707,-0.1924,0.1073,-25.44,-31.5,24.88,331.73,-84.57,-160.9
1164,52.550385,-1.456738,152.68,19.69,3,120.58,22 / 23,116410,2020-01-08 10:17:43:084,0.7873,0.3465,9.7388,-0.0923,-0.0218,9.8062,0.1113,0.5669,-0.4402,-25.75,-32.5,25.56,337.67,-84.76,-155.51
1165,52.550385,-1.456738,152.68,19.69,3,120.58,22 / 23,116511,2020-01-08 10:17:43:185,-2.2752,-1.5799,9.2065,-0.0159,0.027,9.8065,0.0367,0.2399,-0.065,-25.87,-32.31,24.94,334.95,-84.99,-156.96
1166,52.550385,-1.456738,152.68,19.69,3,120.58,22 / 23,116611,2020-01-08 10:17:43:285,-0.1314,0.0506,10.3551,-0.0807,-0.0513,9.8062,0.1568,0.4949,-0.3479,-26.0,-31.81,25.19,341.63,-84.85,-150.74
1167,52.550385,-1.456738,152.68,19.69,3,120.58,22 / 23,116710,2020-01-08 10:17:43:384,4.0662,2.7533,10.3685,-0.0317,-0.0303,9.8065,0.1156,0.5796,-0.3673,-26.12,-32.06,25.38,334.71,-84.91,-157.15
1168,52.550385,-1.456738,152.68,19.69,3,120.58,22 / 23,116811,2020-01-08 10:17:43:485,-5.5215,-2.8293,9.6149,-0.0808,-0.0462,9.8061,0.1161,0.4829,-0.3885,-26.44,-32.06,25.63,342.03,-84.74,-151.49
1169,52.550385,-1.456738,152.68,19.69,3,120.58,22 / 23,116911,2020-01-08 10:17:43:585,0.8632,1.3632,10.4038,-0.047,-0.0416,9.8064,-0.073,-0.1837,0.3059,-26.0,-32.12,25.44,337.46,-84.77,-154.56
1170,52.550385,-1.456738,152.68,19.69,3,120.58,22 / 23,117011,2020-01-08 10:17:43:685,2.1577,1.2985,9.8987,-0.0496,0.0133,9.8064,-0.2038,-0.4235,0.2036,-26.0,-32.12,25.81,340.01,-84.63,-153.31
1171,52.550385,-1.456738,152.68,19.69,3,120.58,22 / 23,117111,2020-01-08 10:17:43:785,3.104,2.7874,10.3709,-0.1095,-0.0482,9.8059,-0.1244,0.1003,0.052,-25.69,-32.31,25.63,344.27,-84.29,-149.31
1172,52.550385,-1.456738,152.68,19.69,3,120.58,22 / 23,117211,2020-01-08 10:17:43:885,-1.3633,-1.418,8.2828,-0.0415,-0.0162,9.8065,-0.2465,-0.1069,0.2512,-26.12,-32.12,25.19,341.11,-84.34,-151.06
1173,52.550385,-1.456738,152.68,19.69,3,120.58,22 / 22,117310,2020-01-08 10:17:43:984,-3.2531,-2.8022,8.494,-0.0067,-0.0001,9.8066,0.0686,0.4595,-0.5843,-26.5,-31.69,25.06,344.08,-84.34,-148.35
1174,52.550385,-1.456738,152.68,19.69,3,120.58,22 / 22,117411,2020-01-08 10:17:44:085,2.1183,1.0059,9.7491,0.0695,0.0605,9.8062,0.108,-0.2476,0.2255,-25.5,-32.06,25.5,343.04,-84.63,-151.62
1175,52.550385,-1.456738,152.68,19.69,3,120.58,22 / 22,117511,2020-01-08 10:17:44:185,1.6794,0.995,9.9884,-0.0173,-0.0665,9.8064,0.0208,0.3729,0.0879,-25.62,-31.5,24.88,342.33,-84.64,-150.08
1176,52.550385,-1.456738,152.68,19.69,3,120.58,22 / 22,117611,2020-01-08 10:17:44:285,2.5377,0.9955,11.4847,0.033,0.028,9.8065,0.2118,0.1064,-0.3697,-25.31,-31.06,25.25,341.21,-84.82,-152.26
1177,52.550385,-1.456738,152.68,19.69,3,120.58,22 / 22,117711,2020-01-08 10:17:44:385,-2.2202,-2.6983,10.4819,0.0752,0.0088,9.8063,-0.0223,0.2675,-0.409,-26.37,-32.06,24.81,337.18,-84.8,-154.83
1178,52.550385,-1.456738,152.68,19.69,3,120.58,22 / 22,117811,2020-01-08 10:17:44:485,0.348,-0.2209,11.6172,0.0386,0.0177,9.8065,0.3124,0.2378,-0.0724,-26.12,-32.37,25.38,338.36,-84.73,-153.71
1179,52.550385,-1.456738,152.68,19.69,3,120.58,22 / 22,117911,2020-01-08 10:17:44:585,-2.926,-2.5024,10.3772,0.0535,0.0033,9.8064,-0.0853,0.2494,-0.1329,-25.5,-32.37,25.19,333.58,-84.69,-159.18
1180,52.550385,-1.456738,152.68,19.69,3,120.58,22 / 22,118011,2020-01-08 10:17:44:685,-0.1055,3.2407,8.4817,-0.013,0.0406,9.8065,-0.123,0.3107,-0.1286,-25.81,-31.75,24.69,334.53,-84.87,-157.3
1181,52.550385,-1.456738,152.68,19.69,3,120.58,22 / 22,118110,2020-01-08 10:17:44:784,-2.083,-1.441,10.1556,-0.0189,0.0226,9.8066,0.0119,-0.0329,0.1346,-25.81,-31.75,25.13,336.58,-84.78,-155.37
1182,52.550385,-1.456738,152.68,19.69,3,120.58,22 / 22,118211,2020-01-08 10:17:44:885,0.9917,1.2881,9.6468,0.0308,-0.0365,9.8065,0.0227,0.1728,-0.1864,-25.94,-31.94,25.19,339.04,-84.79,-153.11
1183,52.550385,-1.456738,152.68,19.69,3,120.58,23 / 23,118310,2020-01-08 10:17:44:984,0.2352,0.4487,8.8416,0.0281,-0.0036,9.8065,0.1617,-0.2677,0.0516,-26.06,-31.5,25.06,339.19,-84.66,-152.98
1184,52.550385,-1.456738,152.68,19.69,3,120.58,23 / 23,118411,2020-01-08 10:17:45:085,2.6167,0.2234,11.426,-0.0173,-0.0405,9.8065,0.0977,-0.0441,0.0859,-26.37,-32.25,25.25,340.34,-84.65,-151.87
1185,52.550385,-1.456738,152.68,19.69,3,120.58,23 / 23,118511,2020-01-08 10:17:45:185,-0.1397,-1.1114,8.2732,0.0145,0.0289,9.8066,-0.2239,-0.4853,0.5685,-26.25,-32.37,25.13,336.07,-84.89,-155.88
1186,52.550385,-1.456738,152.68,19.69,3,120.58,23 / 23,118611,2020-01-08 10:17:45:285,0.3383,2.7097,6.0757,-0.1503,0.0223,9.8055,-0.4684,0.2288,-0.1674,-25.62,-32.87,24.94,333.38,-84.98,-158.35
1187,52.550385,-1.456738,152.68,19.69,3,120.58,23 / 23,118711,2020-01-08 10:17:45:385,5.1784,3.6238,11.2045,-0.0346,0.0557,9.8063,0.0111,-0.8954,0.4458,-25.56,-32.0,25.31,340.18,-85.43,-152.26
1188,52.550385,-1.456738,152.68,19.69,3,120.58,23 / 23,118811,2020-01-08 10:17:45:485,1.3927,1.476,11.5855,-0.0393,-0.1374,9.8056,0.2355,-0.5165,0.4323,-26.0,-32.06,25.13,342.49,-84.53,-149.85
1189,52.550385,-1.456738,152.68,19.69,3,120.58,23 / 23,118910,2020-01-08 10:17:45:584,-1.8556,0.5038,7.8642,0.0068,-0.0966,9.8061,-0.2658,-0.6729,0.4446,-26.0,-31.62,25.63,341.47,-84.49,-151.93
1190,52.550385,-1.456738,152.68,19.69,3,120.58,23 / 23,119011,2020-01-08 10:17:45:685,-5.9638,-3.9762,8.2175,-0.1457,-0.0094,9.8055,-0.2843,-0.6566,0.4971,-26.62,-31.12,25.31,335.17,-84.47,-155.57
1191,52.550385,-1.456738,152.68,19.69,3,120.58,23 / 23,119110,2020-01-08 10:17:45:784,2.8505,2.3764,11.4033,-0.1337,-0.0125,9.8057,-0.0153,-0.0477,-0.0282,-25.31,-30.62,24.94,344.48,-84.75,-149.23
1192,52.550385,-1.456738,152.68,19.69,3,120.58,23 / 23,119211,2020-01-08 10:17:45:885,0.7357,-0.9536,10.0105,0.0488,-0.0121,9.8065,-0.296,-0.7931,0.4909,-25.81,-31.94,25.06,338.34,-84.72,-153.72
1193,52.550385,-1.456738,152.68,19.69,3,120.58,23 / 24,119310,2020-01-08 10:17:45:984,6.7664,6.7528,10.7514,-0.1093,-0.0585,9.8059,0.5037,0.7368,-0.5983,-26.19,-32.19,24.88,344.65,-84.76,-147.94
1194,52.550385,-1.456738,152.68,19.69,3,120.58,23 / 24,119411,2020-01-08 10:17:46:085,-0.1468,-0.5874,11.555,0.149,0.0552,9.8053,0.2558,-0.1242,-0.1379,-25.81,-32.06,25.19,336.41,-84.98,-155.6
1195,52.550385,-1.456738,152.68,19.69,3,120.58,23 / 24,119511,2020-01-08 10:17:46:185,-8.4756,-5.3336,10.4083,0.0618,-0.034,9.8063,-0.0726,1.0478,-0.8103,-26.81,-31.94,24.38,339.68,-84.91,-150.31
1196,52.550385,-1.456738,152.68,19.69,3,120.58,23 / 24,119611,2020-01-08 10:17:46:285,-1.3533,-2.7595,12.4492,0.0486,0.1242,9.8056,0.0338,0.2331,-0.1151,-26.5,-31.25,24.69,343.38,-84.71,-149.13
1197,52.550385,-1.456738,152.68,19.69,3,120.58,23 / 24,119711,2020-01-08 10:17:46:385,-0.2082,0.3438,11.7162,-0.0334,-0.0134,9.8065,-0.1902,0.124,-0.0162,-26.31,-31.37,25.81,340.71,-84.99,-152.82
1198,52.550385,-1.456738,152.68,19.69,3,120.58,23 / 24,119811,2020-01-08 10:17:46:485,-0.7463,0.2186,8.6776,-0.0418,0.0241,9.8065,-0.3739,-0.1706,0.1225,-25.62,-32.5,25.44,340.95,-85.17,-151.47
1199,52.550385,-1.456738,152.68,19.69,3,120.58,23 / 24,119911,2020-01-08 10:17:46:585,3.39,3.8402,11.7987,-0.101,0.0223,9.8061,0.2722,0.3151,-0.4172,-26.12,-32.19,25.69,346.14,-85.09,-147.79
1200,52.550385,-1.456738,152.68,19.69,3,120.58,23 / 24,120010,2020-01-08 10:17:46:684,0.6824,-1.1823,11.3997,0.0914,0.0018,9.8062,0.1724,-0.0664,0.0697,-26.25,-32.25,25.63,346.69,-85.07,-147.28
1201,52.550385,-1.456738,152.68,19.69,3,120.58,23 / 24,120111,2020-01-08 10:17:46:785,-3.9269,-2.5636,9.6644,0.043,-0.023,9.8065,-0.0554,0.5439,-0.2371,-25.69,-32.69,25.13,340.44,-85.0,-151.84
1202,52.550385,-1.456738,152.68,19.69,3,120.58,23 / 24,120211,2020-01-08 10:17:46:885,-0.1166,-0.0082,11.8747,0.0201,0.0808,9.8062,-0.0514,0.2547,-0.2505,-25.87,-32.06,25.0,341.98,-84.89,-150.43
1203,52.550385,-1.456738,152.68,19.69,3,120.58,23 / 23,120310,2020-01-08 10:17:46:984,-0.0369,-1.7567,11.646,-0.0541,0.0495,9.8063,-0.0944,-0.0791,0.1033,-26.12,-31.5,25.25,340.04,-85.21,-152.37
1204,52.550385,-1.456738,152.68,19.69,3,120.58,23 / 23,120411,2020-01-08 10:17:47:085,-0.0041,1.9158,7.8762,0.0045,-0.0467,9.8065,-0.2504,0.1899,0.0034,-25.94,-31.94,24.88,337.93,-85.26,-154.3
1205,52.550385,-1.456738,152.68,19.69,3,120.58,23 / 23,120510,2020-01-08 10:17:47:184,-4.4045,-0.817,5.4656,0.0584,0.0259,9.8064,0.5114,0.2487,-0.1987,-26.0,-31.81,25.44,336.51,-85.05,-155.54
1206,52.550385,-1.456738,152.68,19.69,3,120.58,23 / 23,120611,2020-01-08 10:17:47:285,0.2559,0.2278,13.1461,0.0739,0.0231,9.8063,0.3788,0.2813,-0.3991,-25.81,-32.06,25.06,341.76,-84.9,-150.63
1207,52.550385,-1.456738,152.68,19.69,3,120.58,23 / 23,120711,2020-01-08 10:17:47:385,-2.0159,-1.3618,10.129,0.0546,-0.026,9.8064,0.0573,-0.4427,-0.0808,-26.0,-32.19,25.56,340.3,-84.59,-153.04
1208,52.550385,-1.456738,152.68,19.69,3,120.58,23 / 23,120810,2020-01-08 10:17:47:484,-4.3283,-1.5826,7.569,-0.1287,-0.0087,9.8058,0.0387,0.495,-0.4932,-25.87,-32.37,25.0,343.77,-84.99,-148.8
1209,52.550385,-1.456738,152.68,19.69,3,120.58,23 / 23,120910,2020-01-08 10:17:47:584,-0.4342,-1.0537,12.4078,-0.0865,0.1117,9.8056,0.4208,0.2542,-0.0195,-25.56,-32.12,24.94,341.63,-85.4,-150.91
1210,52.550385,-1.456738,152.68,19.69,3,120.58,23 / 23,121011,2020-01-08 10:17:47:685,-4.7861,-4.9318,10.4652,0.006,-0.0869,9.8062,-0.2834,0.6003,-0.2057,-25.75,-31.87,24.81,340.96,-85.31,-151.5
1211,52.550385,-1.456738,152.68,19.69,3,120.58,23 / 23,121111,2020-01-08 10:17:47:785,3.8792,5.1548,7.9248,-0.024,-0.1178,9.8058,-0.23,0.7318,-0.5207,-26.06,-31.87,25.75,342.67,-84.9,-150.94
1212,52.550385,-1.456738,152.68,19.69,3,120.58,23 / 23,121211,2020-01-08 10:17:47:885,-0.9452,1.1017,10.0614,0.0193,0.0095,9.8066,0.0688,-0.2486,0.376,-25.81,-31.56,25.31,337.62,-85.11,-154.53
1213,52.550385,-1.456738,152.68,19.69,3,120.58,22 / 23,121311,2020-01-08 10:17:47:985,6.2735,6.06,7.9879,-0.0199,-0.0821,9.8062,0.0376,0.6892,-0.4289,-25.87,-31.75,25.25,341.49,-84.86,-150.87
1214,52.550385,-1.456738,152.68,19.69,3,120.58,22 / 23,121411,2020-01-08 10:17:48:085,-5.4514,-2.2041,9.8494,-0.0599,0.0368,9.8063,0.3995,-0.209,-0.0378,-25.87,-31.94,25.25,338.46,-84.88,-153.67
1215,52.550385,-1.456738,152.68,19.69,3,120.58,22 / 23,121511,2020-01-08 10:17:48:185,0.5917,2.3302,9.1803,-0.1229,-0.0204,9.8058,0.1638,0.3161,-0.3843,-26.06,-32.06,24.69,340.92,-85.11,-151.48
1216,52.550385,-1.456738,152.68,19.69,3,120.58,22 / 23,121610,2020-01-08 10:17:48:284,-3.2422,-2.0747,7.8858,0.0558,-0.028,9.8064,-0.3342,-0.2149,0.2914,-25.62,-31.94,25.44,339.11,-85.23,-153.19
1217,52.550385,-1.456738,152.68,19.69,3,120.58,22 / 23,121711,2020-01-08 10:17:48:385,-0.1624,0.5967,6.8349,0.0583,-0.0501,9.8063,-0.4455,0.0935,0.1,-25.75,-30.06,25.75,339.83,-84.89,-153.66
1218,52.550385,-1.456738,152.68,19.69,3,120.58,22 / 23,121810,2020-01-08 10:17:48:484,1.1585,3.5032,6.2124,0.0167,0.0628,9.8064,0.2396,0.0605,-0.0071,-27.06,-29.19,26.38,340.67,-84.99,-151.9
1219,52.550385,-1.456738,152.68,19.69,3,120.58,22 / 23,121910,2020-01-08 10:17:48:584,-1.0156,-0.2335,8.3743,-0.0063,-0.0095,9.8066,-0.4124,0.0164,0.0755,-29.75,-29.19,24.75,333.4,-85.16,-154.72
1220,52.550385,-1.456738,152.68,19.69,3,120.58,22 / 23,122011,2020-01-08 10:17:48:685,-1.6079,-0.4107,8.532,-0.0962,-0.001,9.8061,-0.3334,-0.1062,0.2989,-28.44,-30.37,23.38,329.55,-84.98,-157.65
1221,52.550385,-1.456738,152.68,19.69,3,120.58,22 / 23,122110,2020-01-08 10:17:48:784,7.591,5.6256,11.4403,-0.0983,-0.0403,9.806,-0.1367,-1.0104,0.5751,-26.06,-30.75,23.0,337.64,-84.97,-152.07
1222,52.550385,-1.456738,152.68,19.69,3,120.58,22 / 23,122211,2020-01-08 10:17:48:885,-0.9432,0.4211,9.9425,-0.1733,-0.1249,9.8043,-0.3227,-0.9622,0.9295,-25.69,-31.56,24.81,334.36,-84.99,-157.51
1223,52.549587,-1.45446,154.04,19.21,3,119.96,23 / 23,122311,2020-01-08 10:17:48:985,7.6071,8.4589,10.569,-0.1314,-0.0935,9.8053,0.0316,-0.6221,0.5228,-25.37,-31.37,25.0,345.19,-84.78,-148.59
1224,52.549587,-1.45446,154.04,19.21,3,119.96,23 / 23,122410,2020-01-08 10:17:49:084,-3.0268,-2.8334,10.8581,-0.0175,-0.0582,9.8064,-0.1794,-1.0863,0.6073,-26.31,-32.0,25.0,339.14,-85.08,-153.11
1225,52.549587,-1.45446,154.04,19.21,3,119.96,23 / 23,122511,2020-01-08 10:17:49:185,6.1121,6.191,9.3988,-0.0582,-0.1055,9.8059,0.1119,0.5065,-0.4228,-26.19,-32.69,24.5,344.41,-84.69,-148.1
1226,52.549587,-1.45446,154.04,19.21,3,119.96,23 / 23,122610,2020-01-08 10:17:49:284,-2.3332,-0.8957,10.3001,0.0609,0.0453,9.8063,0.0548,-0.2617,0.1666,-26.06,-32.06,25.0,346.35,-84.97,-146.43
1227,52.549587,-1.45446,154.04,19.21,3,119.96,23 / 23,122711,2020-01-08 10:17:49:385,-4.8013,-2.6292,9.9141,-0.0101,-0.0341,9.8065,0.0755,0.684,-0.4012,-25.81,-32.06,24.69,344.71,-84.95,-147.93
1228,52.549587,-1.45446,154.04,19.21,3,119.96,23 / 23,122811,2020-01-08 10:17:49:485,-0.3608,-0.5277,11.6454,-0.0242,-0.0089,9.8066,0.0949,0.1851,-0.1077,-26.37,-32.19,25.38,342.66,-85.1,-149.86
1229,52.549587,-1.45446,154.04,19.21,3,119.96,23 / 23,122911,2020-01-08 10:17:49:585,0.5477,0.6967,9.4937,0.0363,-0.0066,9.8065,-0.1862,-0.3829,0.1486,-26.19,-31.94,24.94,338.63,-84.89,-153.52
1230,52.549587,-1.45446,154.04,19.21,3,119.96,23 / 23,123011,2020-01-08 10:17:49:685,-4.4823,-1.9721,9.0152,0.0439,0.0267,9.8065,-0.2141,-0.3766,0.3728,-26.12,-32.25,24.38,338.36,-84.95,-152.59
1231,52.549587,-1.45446,154.04,19.21,3,119.96,23 / 23,123110,2020-01-08 10:17:49:784,6.5056,4.6314,9.9408,0.1151,0.073,9.8057,-0.2212,-0.7436,0.6939,-25.75,-31.75,24.75,344.0,-84.94,-148.58
1232,52.549587,-1.45446,154.04,19.21,3,119.96,22 / 23,123211,2020-01-08 10:17:49:885,1.8808,0.7665,11.8022,-0.0055,0.0461,9.8065,0.0972,-0.5214,0.3738,-26.37,-31.87,24.88,342.6,-85.1,-149.92
1233,52.549587,-1.45446,154.04,19.21,3,119.96,22 / 23,123311,2020-01-08 10:17:49:985,2.2132,3.4386,10.5399,0.1182,0.0323,9.8059,-0.2235,-0.7542,0.4726,-25.44,-32.31,24.5,340.18,-84.91,-153.18
1234,52.549587,-1.45446,154.04,19.21,3,119.96,22 / 23,123411,2020-01-08 10:17:50:085,-5.4084,-4.6694,8.9772,0.0607,0.0361,9.8063,-0.2078,-0.6663,0.5122,-25.44,-31.0,25.75,344.58,-84.83,-150.31
1235,52.549587,-1.45446,154.04,19.21,3,119.96,22 / 23,123511,2020-01-08 10:17:50:185,1.5563,2.779,11.3993,0.0722,0.0857,9.8059,0.019,-0.4399,0.2718,-26.56,-32.5,25.31,344.77,-84.63,-146.74
1236,52.549587,-1.45446,154.04,19.21,3,119.96,22 / 23,123611,2020-01-08 10:17:50:285,-5.4332,-4.8876,10.5715,0.0945,0.0713,9.8059,-0.0275,-0.8729,0.4914,-26.44,-31.75,25.63,340.0,-84.96,-153.43
1237,52.549587,-1.45446,154.04,19.21,3,119.96,22 / 23,123710,2020-01-08 10:17:50:384,0.9801,0.7549,9.7195,0.0429,0.019,9.8064,-0.1323,0.1618,-0.038,-25.37,-32.06,25.5,339.36,-84.92,-155.1
1238,52.549587,-1.45446,154.04,19.21,3,119.96,22 / 23,123811,2020-01-08 10:17:50:485,-0.9884,-1.8426,10.3806,0.0336,0.045,9.8064,-0.2037,-0.0995,0.2336,-25.5,-32.25,25.56,338.49,-84.91,-155.9
1239,52.549587,-1.45446,154.04,19.21,3,119.96,22 / 23,123911,2020-01-08 10:17:50:585,0.3777,-1.9809,11.6216,0.0358,-0.0082,9.8066,-0.0336,0.1887,0.0128,-26.19,-32.0,25.31,338.78,-85.0,-153.41
1240,52.549587,-1.45446,154.04,19.21,3,119.96,22 / 23,124011,2020-01-08 10:17:50:685,1.0753,-0.5107,10.8551,0.0072,-0.0536,9.8065,-0.1076,0.1885,-0.2594,-25.94,-32.31,24.88,338.33,-84.93,-153.81
1241,52.549587,-1.45446,154.04,19.21,3,119.96,22 / 23,124111,2020-01-08 10:17:50:785,-1.276,-0.8849,9.2871,0.0346,0.0255,9.8065,-0.0378,-0.2831,0.0816,-25.37,-32.19,25.5,338.49,-85.06,-155.96
1242,52.549587,-1.45446,154.04,19.21,3,119.96,22 / 23,124210,2020-01-08 10:17:50:884,-2.5064,0.685,9.3044,-0.0626,-0.008,9.8064,0.167,0.2715,-0.2996,-25.5,-32.31,25.81,338.08,-85.07,-156.34
1243,52.549587,-1.45446,154.04,19.21,3,119.96,23 / 23,124311,2020-01-08 10:17:50:985,-4.059,-3.8999,10.7223,0.0166,0.0298,9.8065,0.1209,-0.2001,0.0786,-25.69,-32.0,25.75,337.52,-85.06,-155.77
1244,52.549587,-1.45446,154.04,19.21,3,119.96,23 / 23,124411,2020-01-08 10:17:51:085,-0.3947,0.3248,9.2894,-0.0708,-0.0492,9.8062,0.1044,0.7552,-0.3607,-25.69,-32.19,25.31,335.44,-84.88,-156.46
1245,52.549587,-1.45446,154.04,19.21,3,119.96,23 / 23,124511,2020-01-08 10:17:51:185,5.7397,3.3275,10.2878,-0.0243,-0.0144,9.8066,0.0634,0.3299,-0.2758,-25.81,-32.06,25.75,341.73,-84.72,-151.76
1246,52.549587,-1.45446,154.04,19.21,3,119.96,23 / 23,124611,2020-01-08 10:17:51:285,-1.36,-1.9248,9.8053,-0.0952,-0.0243,9.8061,0.1619,0.2568,-0.2331,-25.25,-32.12,24.88,346.76,-84.81,-147.12
1247,52.549587,-1.45446,154.04,19.21,3,119.96,23 / 23,124711,2020-01-08 10:17:51:385,0.5517,0.7628,10.7093,-0.072,-0.0172,9.8064,0.1584,0.662,-0.3233,-26.19,-31.75,25.31,344.09,-84.83,-148.47
1248,52.549587,-1.45446,154.04,19.21,3,119.96,23 / 23,124810,2020-01-08 10:17:51:484,0.1512,1.0486,9.4319,0.0116,0.0265,9.8066,0.0277,-0.42,0.1814,-25.62,-32.44,25.44,341.67,-84.8,-150.69
1249,52.549587,-1.45446,154.04,19.21,3,119.96,23 / 23,124911,2020-01-08 10:17:51:585,-2.7171,-2.6727,10.7575,-0.0389,-0.0198,9.8065,0.0676,0.0043,-0.0696,-25.69,-32.19,25.88,340.65,-84.85,-152.79
1250,52.549587,-1.45446,154.04,19.21,3,119.96,23 / 23,125011,2020-01-08 10:17:51:685,2.2851,3.5175,9.4393,0.0117,-0.0168,9.8066,0.0528,-0.3903,0.3122,-25.12,-32.81,24.75,337.45,-84.91,-155.65
1251,52.549587,-1.45446,154.04,19.21,3,119.96,23 / 23,125111,2020-01-08 10:17:51:785,0.0423,-1.0014,9.7846,0.0036,0.0123,9.8066,0.0734,-0.2883,0.0356,-26.31,-32.31,25.94,338.32,-84.93,-154.98
1252,52.549587,-1.45446,154.04,19.21,3,119.96,22 / 23,125211,2020-01-08 10:17:51:885,1.0621,0.822,8.9006,-0.0189,-0.0128,9.8066,-0.0696,0.3088,-0.1693,-25.87,-32.19,24.63,338.12,-84.97,-154.02
1253,52.549587,-1.45446,154.04,19.21,3,119.96,22 / 23,125311,2020-01-08 10:17:51:985,-0.1899,0.234,9.2842,0.0048,0.0108,9.8065,-0.1385,0.0329,0.0297,-25.5,-31.5,25.06,338.29,-85.08,-155.04
1254,52.549587,-1.45446,154.04,19.21,3,119.96,22 / 23,125410,2020-01-08 10:17:52:084,-2.5598,-3.2442,11.4271,-0.0225,-0.0032,9.8066,-0.1415,0.6001,-0.2709,-26.06,-31.94,25.13,339.5,-84.96,-152.74
1255,52.549587,-1.45446,154.04,19.21,3,119.96,22 / 23,125511,2020-01-08 10:17:52:185,0.0206,-1.3229,9.4943,0.0138,0.0989,9.8061,-0.2547,0.4603,-0.2777,-25.81,-32.37,24.63,340.34,-84.78,-151.91
1256,52.549587,-1.45446,154.04,19.21,3,119.96,22 / 23,125611,2020-01-08 10:17:52:285,-0.6565,-4.2929,12.7952,-0.0327,0.0762,9.8063,0.0929,0.4111,-0.3131,-25.19,-32.69,25.5,342.0,-85.23,-152.72
1257,52.549587,-1.45446,154.04,19.21,3,119.96,22 / 23,125710,2020-01-08 10:17:52:384,2.8973,1.3065,10.8259,0.0612,0.0084,9.8064,-0.1471,0.3672,-0.1684,-25.62,-31.94,24.63,342.47,-85.24,-150.08
1258,52.549587,-1.45446,154.04,19.21,3,119.96,22 / 23,125812,2020-01-08 10:17:52:486,0.306,-1.052,10.6655,0.0172,0.027,9.8065,-0.1683,-0.216,0.1853,-25.87,-31.87,25.31,340.72,-85.31,-151.72
1259,52.549587,-1.45446,154.04,19.21,3,119.96,22 / 23,125910,2020-01-08 10:17:52:584,1.5972,0.4936,10.8193,0.037,-0.0086,9.8065,-0.02,-0.0023,-0.0138,-25.69,-32.56,25.69,343.37,-85.31,-150.37
1260,52.549587,-1.45446,154.04,19.21,3,119.96,22 / 23,126011,2020-01-08 10:17:52:685,-1.3379,-1.5021,10.4604,0.0155,0.0086,9.8066,-0.0051,-0.2091,0.0638,-25.94,-32.44,24.94,339.76,-85.27,-152.6
1261,52.549587,-1.45446,154.04,19.21,3,119.96,22 / 23,126111,2020-01-08 10:17:52:785,1.9339,2.4492,9.1742,-0.0133,-0.0408,9.8065,-0.0194,0.2176,-0.1087,-26.5,-31.94,25.69,341.83,-85.04,-151.76
1262,52.549587,-1.45446,154.04,19.21,3,119.96,23 / 23,126211,2020-01-08 10:17:52:885,0.3343,0.1514,10.3669,-0.0115,0.0357,9.8065,0.0614,0.1089,0.0296,-25.31,-30.94,24.56,341.38,-85.21,-152.22
1263,52.549587,-1.45446,154.04,19.21,3,119.96,23 / 23,126311,2020-01-08 10:17:52:985,-2.892,-2.78,9.7526,-0.0159,-0.0402,9.8065,-0.1888,0.3709,-0.1996,-25.5,-31.81,25.75,342.26,-85.21,-152.52
1264,52.549587,-1.45446,154.04,19.21,3,119.96,23 / 23,126411,2020-01-08 10:17:53:085,0.1135,2.16,9.2577,-0.056,-0.0201,9.8064,0.03,0.4847,-0.2762,-25.81,-32.56,25.5,343.59,-85.33,-150.18
1265,52.549587,-1.45446,154.04,19.21,3,119.96,23 / 23,126510,2020-01-08 10:17:53:184,-3.7718,-2.8926,8.6836,0.0223,0.0066,9.8066,-0.141,-0.3366,0.2386,-25.56,-32.06,25.75,342.16,-85.39,-151.55
1266,52.549587,-1.45446,154.04,19.21,3,119.96,23 / 23,126611,2020-01-08 10:17:53:285,1.8292,0.4894,10.4683,-0.0275,0.0073,9.8066,0.0715,0.0827,-0.0415,-25.5,-32.25,24.63,341.32,-85.38,-152.28
1267,52.549587,-1.45446,154.04,19.21,3,119.96,23 / 23,126711,2020-01-08 10:17:53:385,-0.0677,1.0171,8.4936,0.0346,0.0447,9.8065,-0.1355,-0.2252,0.2226,-25.44,-32.75,24.94,339.74,-85.5,-153.74
1268,52.549587,-1.45446,154.04,19.21,3,119.96,23 / 23,126810,2020-01-08 10:17:53:484,-2.3813,-1.0464,10.3618,-0.1035,0.01,9.8061,0.2472,0.1493,-0.113,-25.62,-32.37,25.0,346.4,-85.53,-146.51
1269,52.549587,-1.45446,154.04,19.21,3,119.96,23 / 23,126911,2020-01-08 10:17:53:585,-1.8161,-1.6009,11.1184,0.0121,-0.0409,9.8065,-0.1504,-0.0192,0.0291,-25.94,-31.87,26.0,346.36,-85.31,-147.64
1270,52.549587,-1.45446,154.04,19.21,3,119.96,23 / 23,127012,2020-01-08 10:17:53:686,0.4763,1.3251,9.9123,-0.0329,-0.0516,9.8064,-0.1747,0.2738,-0.1364,-25.62,-32.5,25.38,346.22,-85.13,-146.58
1271,52.549587,-1.45446,154.04,19.21,3,119.96,23 / 23,127111,2020-01-08 10:17:53:785,-0.6692,-1.0524,11.5309,0.051,0.0097,9.8065,-0.02,-0.1434,0.1844,-25.87,-32.37,25.38,346.49,-85.16,-146.34
1272,52.549587,-1.45446,154.04,19.21,3,119.96,23 / 23,127211,2020-01-08 10:17:53:885,-1.6442,-0.1951,9.1657,0.0127,-0.0445,9.8065,-0.1865,0.1958,-0.1764,-25.75,-32.12,25.31,343.57,-85.03,-149.0
1273,52.549587,-1.45446,154.04,19.21,3,119.96,23 / 23,127311,2020-01-08 10:17:53:985,-1.2382,-0.8796,10.3485,0.0075,-0.005,9.8066,-0.0366,-0.0605,-0.0453,-25.75,-32.12,25.75,342.0,-85.27,-151.67
1274,52.549587,-1.45446,154.04,19.21,3,119.96,23 / 23,127411,2020-01-08 10:17:54:085,0.4267,0.7684,8.6511,-0.0062,-0.0102,9.8066,-0.1556,0.0933,-0.0456,-25.56,-31.94,25.25,339.86,-85.39,-152.55
1275,52.549587,-1.45446,154.04,19.21,3,119.96,23 / 23,127511,2020-01-08 10:17:54:185,-0.3733,0.6842,10.4948,0.0169,-0.009,9.8065,0.0154,0.0799,-0.0123,-24.87,-31.25,25.31,340.81,-85.38,-152.8
1276,52.549587,-1.45446,154.04,19.21,3,119.96,23 / 23,127610,2020-01-08 10:17:54:284,-0.7286,0.6191,9.5108,0.0402,-0.0419,9.8064,-0.1216,-0.065,-0.0676,-25.25,-30.87,26.13,340.92,-85.26,-153.81
1277,52.549587,-1.45446,154.04,19.21,3,119.96,23 / 23,127712,2020-01-08 10:17:54:386,2.5762,2.0983,10.2532,-0.0166,0.0131,9.8065,0.1425,-0.0164,-0.0793,-25.87,-31.56,25.81,339.38,-85.29,-154.12
1278,52.549587,-1.45446,154.04,19.21,3,119.96,23 / 23,127810,2020-01-08 10:17:54:484,-1.8338,-1.0965,10.5304,0.025,0.0462,9.8065,0.0985,-0.3491,0.327,-25.69,-32.37,26.25,339.98,-85.39,-153.58
1279,52.549587,-1.45446,154.04,19.21,3,119.96,23 / 23,127911,2020-01-08 10:17:54:585,-0.6474,2.1021,8.4425,0.0185,0.025,9.8065,-0.1648,0.0407,0.1373,-26.0,-31.62,25.13,340.14,-85.26,-152.24
1280,52.549587,-1.45446,154.04,19.21,3,119.96,23 / 23,128011,2020-01-08 10:17:54:685,-1.469,-2.5068,10.8969,-0.0113,0.04,9.8065,0.1331,-0.2903,0.0926,-25.25,-32.69,26.31,345.19,-85.44,-149.82
1281,52.549587,-1.45446,154.04,19.21,3,119.96,23 / 23,128111,2020-01-08 10:17:54:785,-0.688,0.8128,9.264,-0.0229,-0.0279,9.8065,-0.0209,0.4061,-0.267,-26.25,-32.06,25.44,344.07,-85.15,-148.57
1282,52.549587,-1.45446,154.04,19.21,3,119.96,23 / 23,128211,2020-01-08 10:17:54:885,2.3595,2.3481,9.7725,-0.0225,0.0395,9.8065,0.1593,-0.1035,-0.0435,-25.94,-31.69,26.06,342.59,-85.39,-151.15
1283,52.549587,-1.45446,154.04,19.21,3,119.96,23 / 23,128311,2020-01-08 10:17:54:985,-2.4971,-2.5018,11.0833,-0.0204,-0.0687,9.8063,-0.1112,0.3654,-0.3403,-25.69,-32.06,25.13,337.86,-85.31,-154.39
1284,52.549587,-1.45446,154.04,19.21,3,119.96,23 / 23,128410,2020-01-08 10:17:55:084,0.7079,1.7992,9.4857,0.0458,0.0346,9.8064,-0.0385,-0.0068,0.1121,-25.94,-31.81,25.31,335.27,-85.13,-156.72
1285,52.549587,-1.45446,154.04,19.21,3,119.96,23 / 23,128511,2020-01-08 10:17:55:185,1.1029,-0.2278,11.3492,0.011,0.0019,9.8066,0.0957,0.0424,-0.0344,-25.5,-32.37,25.75,337.17,-85.1,-157.19
1286,52.549587,-1.45446,154.04,19.21,3,119.96,23 / 23,128611,2020-01-08 10:17:55:285,-0.9966,-0.288,10.773,-0.004,0.0101,9.8066,0.1173,-0.1253,0.0325,-25.81,-31.81,26.0,335.66,-85.14,-157.52
1287,52.549587,-1.45446,154.04,19.21,3,119.96,23 / 23,128711,2020-01-08 10:17:55:385,0.8142,-0.0315,9.3257,-0.0166,-0.0041,9.8065,0.0427,-0.0203,-0.1117,-25.94,-31.69,26.94,337.01,-85.02,-157.33
1288,52.549587,-1.45446,154.04,19.21,3,119.96,23 / 23,128811,2020-01-08 10:17:55:485,0.8149,1.6184,8.5886,0.0012,-0.01,9.8066,0.0268,-0.2295,0.2011,-26.0,-31.19,24.75,334.27,-85.03,-157.67
1289,52.549587,-1.45446,154.04,19.21,3,119.96,23 / 23,128910,2020-01-08 10:17:55:584,-0.5564,-1.9711,11.659,0.0075,-0.0328,9.8065,-0.1933,0.2177,-0.1411,-25.81,-31.87,25.75,335.64,-84.8,-157.41
1290,52.549587,-1.45446,154.04,19.21,3,119.96,23 / 23,129011,2020-01-08 10:17:55:685,0.3272,-0.5602,9.2872,0.0093,0.0001,9.8066,-0.1379,0.1922,0.0309,-25.31,-32.37,26.25,336.61,-84.59,-157.52
1291,52.549587,-1.45446,154.04,19.21,3,119.96,23 / 23,129111,2020-01-08 10:17:55:785,-2.6234,-1.8315,9.7916,0.0368,-0.0262,9.8065,0.1264,-0.2465,0.0706,-26.06,-31.94,26.5,335.69,-84.45,-158.34
1292,52.549587,-1.45446,154.04,19.21,3,119.96,23 / 23,129211,2020-01-08 10:17:55:885,0.9106,2.1258,8.9412,0.0283,-0.0257,9.8065,-0.1708,0.0797,-0.039,-25.62,-32.0,25.88,335.09,-84.37,-157.74
1293,52.549587,-1.45446,154.04,19.21,3,119.96,23 / 23,129311,2020-01-08 10:17:55:985,2.4272,-0.8378,10.8888,0.0424,0.0123,9.8065,-0.1634,-0.3136,0.1728,-25.87,-31.69,26.56,337.87,-84.54,-156.37
1294,52.549587,-1.45446,154.04,19.21,3,119.96,23 / 23,129411,2020-01-08 10:17:56:085,-0.731,-0.9239,9.1657,0.0325,-0.0013,9.8065,-0.091,-0.0675,0.1756,-25.94,-32.19,26.5,337.1,-84.66,-157.12
1295,52.549587,-1.45446,154.04,19.21,3,119.96,23 / 23,129510,2020-01-08 10:17:56:184,1.4667,0.9316,8.9516,0.0047,0.0225,9.8065,0.0718,-0.0776,0.0876,-25.75,-31.94,26.25,337.96,-84.81,-155.26
1296,52.549587,-1.45446,154.04,19.21,3,119.96,23 / 23,129611,2020-01-08 10:17:56:285,-0.6261,-1.6932,9.8992,-0.044,-0.008,9.8065,0.1903,0.1243,-0.1722,-26.19,-31.62,26.63,341.42,-84.71,-153.15
1297,52.549587,-1.45446,154.04,19.21,3,119.96,23 / 23,129711,2020-01-08 10:17:56:385,-2.0416,-0.5996,8.1998,-0.0601,-0.0575,9.8063,-0.0497,0.2793,-0.291,-27.31,-29.44,26.69,338.09,-84.61,-155.3
1298,52.549587,-1.45446,154.04,19.21,3,119.96,23 / 23,129811,2020-01-08 10:17:56:485,-0.3544,0.5948,9.7509,-0.0332,0.0226,9.8065,0.4492,-0.0622,-0.054,-29.06,-28.19,26.0,338.15,-84.52,-152.18
1299,52.549587,-1.45446,154.04,19.21,3,119.96,23 / 23,129911,2020-01-08 10:17:56:585,2.2013,-0.2671,13.6147,0.1299,-0.058,9.8056,0.5698,0.0049,-0.1286,-27.75,-28.87,25.19,340.33,-84.57,-149.93
1300,52.549587,-1.45446,154.04,19.21,3,119.96,23 / 23,130011,2020-01-08 10:17:56:685,-3.8763,-1.8513,4.3286,0.1169,-0.0793,9.8055,-0.7222,-0.4577,0.3487,-26.12,-28.31,25.44,336.05,-83.82,-155.76
1301,52.549587,-1.45446,154.04,19.21,3,119.96,23 / 23,130111,2020-01-08 10:17:56:785,-5.0621,-1.0029,6.2813,-0.2328,0.0135,9.8038,-0.5685,-0.2234,0.4766,-25.0,-29.25,26.31,334.54,-83.78,-159.31
1302,52.549587,-1.45446,154.04,19.21,3,119.96,23 / 23,130211,2020-01-08 10:17:56:885,6.9902,4.2346,13.582,0.1871,0.0511,9.8047,-0.0058,-1.1292,0.4919,-25.87,-30.5,27.31,332.12,-83.87,-161.54
1303,52.549587,-1.45446,154.04,19.21,3,119.96,23 / 23,130311,2020-01-08 10:17:56:985,-7.343,-5.8042,11.469,0.1792,0.0658,9.8047,-0.2244,-1.0925,0.8237,-25.75,-31.31,26.75,330.99,-83.91,-162.52
1304,52.549587,-1.45446,154.04,19.21,3,119.96,23 / 23,130411,2020-01-08 10:17:57:085,5.6102,4.5138,8.2378,0.0448,0.0863,9.8062,-0.1138,1.2967,-0.8021,-25.62,-31.44,26.56,330.85,-84.16,-162.75
1305,52.549587,-1.45446,154.04,19.21,3,119.96,23 / 23,130510,2020-01-08 10:17:57:184,-3.1762,-4.4322,10.1472,0.0474,0.1087,9.8059,0.0979,-0.4811,0.0846,-25.94,-31.5,27.06,335.99,-83.77,-157.87
1306,52.549587,-1.45446,154.04,19.21,3,119.96,23 / 23,130611,2020-01-08 10:17:57:285,-0.8866,0.2341,11.1445,0.0007,-0.0947,9.8061,0.2523,0.0705,0.0354,-25.44,-31.62,26.56,335.27,-83.77,-159.54
1307,52.549587,-1.45446,154.04,19.21,3,119.96,23 / 23,130710,2020-01-08 10:17:57:384,4.4053,3.4265,11.2778,0.0139,-0.0249,9.8065,-0.1312,-0.7368,0.2672,-26.37,-32.25,26.0,330.98,-83.86,-161.29
1308,52.549587,-1.45446,154.04,19.21,3,119.96,23 / 23,130811,2020-01-08 10:17:57:485,-1.2459,-1.4381,10.1417,-0.0557,-0.0492,9.8063,-0.144,-0.6082,0.4802,-25.69,-31.25,26.75,330.94,-83.85,-162.53
1309,52.549587,-1.45446,154.04,19.21,3,119.96,23 / 23,130910,2020-01-08 10:17:57:584,4.86,4.6922,9.9455,-0.0664,-0.0649,9.8062,0.06,0.7659,-0.4995,-25.25,-32.81,26.81,335.69,-83.62,-159.02
1310,52.549587,-1.45446,154.04,19.21,3,119.96,23 / 23,131011,2020-01-08 10:17:57:685,-1.7067,-1.4836,11.0221,-0.0027,-0.0462,9.8065,-0.1308,0.0563,0.0653,-25.87,-31.37,28.06,335.36,-83.45,-159.4
1311,52.549587,-1.45446,154.04,19.21,3,119.96,23 / 23,131110,2020-01-08 10:17:57:784,5.0101,2.9408,9.2934,-0.0304,0.0104,9.8065,-0.1433,0.5605,-0.2491,-26.31,-31.25,26.81,334.85,-83.6,-158.85
1312,52.549587,-1.45446,154.04,19.21,3,119.96,23 / 23,131211,2020-01-08 10:17:57:885,-4.4584,-2.7747,9.6786,0.0404,0.0659,9.8062,0.0808,-0.5169,0.4429,-26.0,-31.25,26.94,332.48,-83.58,-161.0
1313,52.548855,-1.452285,154.18,18.68,4,118.47,23 / 23,131311,2020-01-08 10:17:57:985,-0.7223,-2.099,9.3256,-0.0275,-0.0287,9.8065,0.0837,0.5482,-0.3619,-26.0,-31.69,26.38,331.89,-83.59,-160.33
1314,52.548855,-1.452285,154.18,18.68,4,118.47,23 / 23,131411,2020-01-08 10:17:58:085,-5.9858,-4.2888,9.6916,0.0184,0.0657,9.8063,-0.1358,-0.8794,0.5054,-26.12,-31.81,26.88,334.45,-83.7,-159.18
1315,52.548855,-1.452285,154.18,18.68,4,118.47,23 / 23,131511,2020-01-08 10:17:58:185,-1.0191,-0.1645,10.2838,-0.0521,-0.0837,9.8061,-0.0301,-0.0162,0.1972,-25.87,-31.25,26.19,336.06,-83.42,-156.55
1316,52.548855,-1.452285,154.18,18.68,4,118.47,23 / 23,131611,2020-01-08 10:17:58:285,7.0739,4.3825,10.6223,0.0986,0.062,9.8059,-0.0034,-1.0004,0.5538,-26.12,-31.81,27.13,340.21,-83.16,-153.77
1317,52.548855,-1.452285,154.18,18.68,4,118.47,23 / 23,131711,2020-01-08 10:17:58:385,0.0857,-0.5903,10.6385,0.0652,0.0092,9.8063,-0.0805,-0.7114,0.4366,-26.44,-31.25,27.0,334.58,-82.95,-158.83
1318,52.548855,-1.452285,154.18,18.68,4,118.47,23 / 23,131811,2020-01-08 10:17:58:485,3.6169,3.418,8.0494,0.0557,0.0853,9.8061,-0.0071,-0.3827,0.3324,-26.06,-31.37,27.19,336.12,-82.79,-157.38
1319,52.548855,-1.452285,154.18,18.68,4,118.47,23 / 23,131911,2020-01-08 10:17:58:585,-2.5868,-2.6153,8.6752,-0.0091,0.0779,9.8063,0.0867,-0.6147,0.1756,-25.87,-31.31,27.25,333.65,-83.24,-159.79
1320,52.548855,-1.452285,154.18,18.68,4,118.47,23 / 23,132010,2020-01-08 10:17:58:684,3.2706,2.2714,8.9747,0.0636,-0.0198,9.8064,-0.1946,0.1015,-0.0635,-26.31,-31.25,26.69,330.15,-83.08,-162.9
1321,52.548855,-1.452285,154.18,18.68,4,118.47,23 / 23,132111,2020-01-08 10:17:58:785,-2.3835,-2.6921,9.813,0.0529,0.0414,9.8064,-0.0503,-0.3964,0.2861,-25.31,-31.44,26.94,330.73,-83.33,-163.56
1322,52.548855,-1.452285,154.18,18.68,4,118.47,23 / 23,132210,2020-01-08 10:17:58:884,1.1619,1.6416,11.4937,-0.0074,-0.0294,9.8066,0.0918,0.442,-0.1962,-25.75,-31.56,26.75,330.75,-83.26,-162.35
1323,52.548855,-1.452285,154.18,18.68,4,118.47,23 / 23,132311,2020-01-08 10:17:58:985,3.7775,2.5225,11.1492,0.0477,-0.0286,9.8065,-0.0463,-0.2152,-0.0608,-25.94,-31.12,27.88,331.46,-82.87,-162.71
1324,52.548855,-1.452285,154.18,18.68,4,118.47,23 / 23,132411,2020-01-08 10:17:59:085,5.8372,3.4059,11.1718,-0.16,-0.0411,9.8052,0.4323,0.988,-0.7106,-25.06,-30.87,27.0,336.62,-82.87,-158.04
1325,52.548855,-1.452285,154.18,18.68,4,118.47,23 / 23,132511,2020-01-08 10:17:59:185,3.8862,1.2361,12.288,-0.074,0.0329,9.8062,0.3897,0.3407,-0.4255,-25.75,-30.25,27.31,333.11,-82.93,-160.24
1326,52.548855,-1.452285,154.18,18.68,4,118.47,23 / 23,132611,2020-01-08 10:17:59:285,-8.0466,-6.6527,9.4718,-0.1304,-0.1138,9.8051,-0.0458,1.1323,-0.8174,-25.81,-31.37,27.31,328.95,-82.99,-163.95
1327,52.548855,-1.452285,154.18,18.68,4,118.47,23 / 23,132710,2020-01-08 10:17:59:384,7.3834,5.0233,8.2236,-0.0602,-0.0188,9.8063,0.0691,0.6559,-0.5018,-26.06,-31.69,27.19,332.28,-82.95,-160.82
1328,52.548855,-1.452285,154.18,18.68,4,118.47,23 / 23,132811,2020-01-08 10:17:59:485,1.8358,1.8195,9.5538,-0.0431,-0.0905,9.8061,-0.1857,0.663,-0.4658,-26.56,-31.94,26.81,331.9,-82.74,-160.04
1329,52.548855,-1.452285,154.18,18.68,4,118.47,23 / 23,132911,2020-01-08 10:17:59:585,-3.2211,-1.9349,9.6204,0.0344,-0.0266,9.8065,-0.2273,0.0979,-0.1597,-25.94,-31.87,26.94,330.48,-83.06,-162.5
1330,52.548855,-1.452285,154.18,18.68,4,118.47,23 / 23,133011,2020-01-08 10:17:59:685,-0.3517,-0.5521,11.4685,-0.0115,-0.0616,9.8064,0.0677,0.4832,-0.392,-26.06,-31.81,27.44,328.3,-83.2,-164.55
1331,52.548855,-1.452285,154.18,18.68,4,118.47,23 / 23,133111,2020-01-08 10:17:59:785,1.2805,2.7669,10.0212,0.0289,-0.0097,9.8065,-0.0834,0.1497,-0.023,-25.19,-31.69,27.19,328.3,-82.87,-165.44
1332,52.548855,-1.452285,154.18,18.68,4,118.47,23 / 23,133211,2020-01-08 10:17:59:885,0.2387,1.7741,10.2317,-0.03,-0.0584,9.8063,0.0369,0.4329,-0.3044,-25.94,-31.37,27.56,327.98,-82.81,-165.85
1333,52.548855,-1.452285,154.18,18.68,4,118.47,21 / 23,133311,2020-01-08 10:17:59:985,2.1217,1.5942,9.4201,-0.0097,-0.0315,9.8066,-0.0677,0.3124,-0.1619,-25.25,-32.0,27.75,330.34,-82.49,-164.52
1334,52.548855,-1.452285,154.18,18.68,4,118.47,21 / 23,133411,2020-01-08 10:18:00:085,-2.1386,-2.6907,10.0551,-0.0444,-0.038,9.8064,-0.1102,0.2462,-0.2172,-25.75,-31.31,27.31,328.58,-82.62,-164.11
1335,52.548855,-1.452285,154.18,18.68,4,118.47,21 / 23,133510,2020-01-08 10:18:00:184,1.0092,1.8018,10.553,-0.0165,-0.0134,9.8066,-0.0858,0.3519,-0.004,-25.81,-31.19,27.94,332.32,-82.67,-161.85
1336,52.548855,-1.452285,154.18,18.68,4,118.47,21 / 23,133611,2020-01-08 10:18:00:285,0.6889,0.8589,11.1833,0.0485,-0.0091,9.8065,-0.0937,-0.1467,0.1614,-25.37,-32.06,27.75,332.6,-82.54,-162.52
1337,52.548855,-1.452285,154.18,18.68,4,118.47,21 / 23,133711,2020-01-08 10:18:00:385,-1.019,-1.1546,9.8582,0.025,-0.0527,9.8065,-0.1404,0.0066,-0.0329,-25.69,-32.06,27.06,331.07,-82.51,-161.71
1338,52.548855,-1.452285,154.18,18.68,4,118.47,21 / 23,133811,2020-01-08 10:18:00:485,0.6631,1.7027,8.5124,-0.0223,0.0432,9.8064,0.1924,-0.169,0.0407,-25.75,-32.0,27.44,331.43,-82.58,-161.43
1339,52.548855,-1.452285,154.18,18.68,4,118.47,21 / 23,133910,2020-01-08 10:18:00:584,-2.0285,-0.3444,8.9163,0.0106,0.0352,9.8065,0.1313,-0.2471,0.0934,-25.56,-31.31,26.5,331.47,-82.94,-161.64
1340,52.548855,-1.452285,154.18,18.68,4,118.47,21 / 23,134011,2020-01-08 10:18:00:685,-1.2232,1.6066,8.0174,-0.0475,0.021,9.8065,0.1406,0.4089,-0.234,-25.44,-31.56,26.81,333.52,-83.01,-160.8
1341,52.548855,-1.452285,154.18,18.68,4,118.47,21 / 23,134111,2020-01-08 10:18:00:785,3.5887,4.9006,9.869,-0.0796,0.0286,9.8062,0.2731,0.2312,-0.2754,-24.31,-31.19,25.81,332.36,-82.97,-161.9
1342,52.548855,-1.452285,154.18,18.68,4,118.47,21 / 23,134211,2020-01-08 10:18:00:885,-4.9585,-4.6971,10.0137,-0.0417,-0.0742,9.8063,-0.2128,0.5995,-0.2103,-22.31,-31.06,28.06,335.88,-83.02,-163.33
1343,52.548855,-1.452285,154.18,18.68,4,118.47,21 / 23,134311,2020-01-08 10:18:00:985,4.6225,4.0026,9.7155,-0.1163,-0.0443,9.8059,0.1334,1.0168,-0.7223,-29.06,-30.12,28.81,334.02,-82.89,-158.53
1344,52.548855,-1.452285,154.18,18.68,4,118.47,21 / 23,134411,2020-01-08 10:18:01:085,-5.5196,-3.9651,9.0717,-0.0042,-0.0658,9.8064,-0.0517,0.1439,-0.0792,-27.06,-30.87,26.81,329.68,-83.11,-162.32
1345,52.548855,-1.452285,154.18,18.68,4,118.47,21 / 23,134511,2020-01-08 10:18:01:185,4.985,3.994,9.3476,-0.084,-0.0882,9.8058,0.0557,0.6829,-0.575,-25.94,-31.75,26.25,330.99,-82.7,-160.73
1346,52.548855,-1.452285,154.18,18.68,4,118.47,21 / 23,134611,2020-01-08 10:18:01:285,-1.9569,-0.8052,9.1399,-0.0518,0.0196,9.8064,0.1943,-0.1097,-0.0445,-26.0,-31.62,26.88,331.5,-83.02,-161.56
1347,52.548855,-1.452285,154.18,18.68,4,118.47,21 / 23,134711,2020-01-08 10:18:01:385,2.0698,1.9347,9.5876,-0.0321,-0.03,9.8065,0.1536,0.4169,-0.3555,-26.0,-31.5,27.56,331.35,-82.93,-162.84
1348,52.548855,-1.452285,154.18,18.68,4,118.47,21 / 23,134810,2020-01-08 10:18:01:484,-4.246,-2.0044,8.9103,-0.0165,0.0039,9.8065,0.1132,-0.005,-0.008,-25.81,-32.0,27.5,328.42,-82.95,-165.42
1349,52.548855,-1.452285,154.18,18.68,4,118.47,21 / 23,134911,2020-01-08 10:18:01:585,-2.2637,-2.4307,9.9943,-0.0592,-0.0435,9.8063,0.0626,0.5149,-0.3243,-25.5,-31.62,27.75,324.46,-82.85,-167.86
1350,52.548855,-1.452285,154.18,18.68,4,118.47,21 / 23,135011,2020-01-08 10:18:01:685,2.6701,0.9973,10.2722,-0.0068,0.0047,9.8066,-0.0762,-0.1932,0.1333,-25.69,-31.37,27.31,327.58,-82.87,-165.14
1351,52.548855,-1.452285,154.18,18.68,4,118.47,21 / 23,135110,2020-01-08 10:18:01:784,-1.9961,-0.5787,10.4972,-0.0259,-0.0098,9.8065,0.0923,0.1048,-0.1149,-25.69,-31.19,27.56,329.0,-82.98,-165.0
1352,52.548855,-1.452285,154.18,18.68,4,118.47,21 / 23,135211,2020-01-08 10:18:01:885,0.0686,-1.9713,11.1397,-0.1404,0.0888,9.8052,0.6211,0.018,-0.1113,-25.94,-29.25,27.5,333.03,-83.4,-161.67
1353,52.548855,-1.452285,154.18,18.68,4,118.47,21 / 23,135311,2020-01-08 10:18:01:985,5.8778,1.1779,14.1593,-0.1986,0.0502,9.8045,0.6778,0.3018,-0.5067,-26.44,-29.37,27.56,333.92,-83.36,-160.84
1354,52.548855,-1.452285,154.18,18.68,4,118.47,21 / 21,135410,2020-01-08 10:18:02:084,1.5696,0.4178,8.3336,-0.0107,0.031,9.8066,-0.008,-0.3563,0.4461,-26.19,-31.31,27.0,329.79,-82.95,-163.17
1355,52.548855,-1.452285,154.18,18.68,4,118.47,21 / 21,135511,2020-01-08 10:18:02:185,7.0191,6.0109,9.5566,-0.0959,0.0098,9.8061,0.2266,0.2652,-0.0803,-26.19,-31.19,26.56,333.69,-83.09,-159.69
1356,52.548855,-1.452285,154.18,18.68,4,118.47,21 / 21,135610,2020-01-08 10:18:02:284,0.3093,-0.221,9.932,0.0728,0.0889,9.806,-0.1317,-0.8571,0.6253,-25.62,-31.0,27.44,336.35,-82.87,-157.2
1357,52.548855,-1.452285,154.18,18.68,4,118.47,21 / 21,135711,2020-01-08 10:18:02:385,-4.3308,-5.0873,9.7128,0.0047,-0.0425,9.8065,-0.0856,-0.2734,0.1282,-25.75,-31.19,27.88,335.75,-82.95,-158.87
1358,52.548855,-1.452285,154.18,18.68,4,118.47,21 / 21,135811,2020-01-08 10:18:02:485,0.0477,0.3792,7.3074,-0.0092,0.0494,9.8065,0.2007,-0.2248,0.1654,-25.75,-31.0,27.81,335.4,-83.11,-159.24
1359,52.548855,-1.452285,154.18,18.68,4,118.47,21 / 21,135911,2020-01-08 10:18:02:585,-1.8198,-1.2355,9.5669,-0.0013,0.0238,9.8065,0.0561,-0.3425,0.0688,-25.62,-31.62,27.69,336.35,-83.06,-158.29
1360,52.548855,-1.452285,154.18,18.68,4,118.47,21 / 21,136011,2020-01-08 10:18:02:685,3.0596,1.8246,10.4592,-0.0076,-0.0006,9.8066,-0.0049,0.1583,-0.234,-25.62,-31.75,27.94,335.07,-83.11,-159.47
1361,52.548855,-1.452285,154.18,18.68,4,118.47,21 / 21,136111,2020-01-08 10:18:02:785,-0.2536,-0.2894,10.1176,0.0928,0.0241,9.8061,-0.1452,-0.456,0.3353,-25.81,-31.19,28.38,331.83,-83.08,-162.47
1362,52.548855,-1.452285,154.18,18.68,4,118.47,22 / 22,136211,2020-01-08 10:18:02:885,4.6519,4.8238,10.2135,-0.0017,0.0128,9.8065,0.0615,0.574,-0.2568,-25.87,-31.81,27.44,331.61,-83.2,-161.55
1363,52.548855,-1.452285,154.18,18.68,4,118.47,22 / 22,136311,2020-01-08 10:18:02:985,-0.863,0.9355,7.1598,0.0416,0.0067,9.8065,-0.2303,-0.0125,-0.1678,-25.94,-31.56,27.06,329.54,-83.22,-163.43
1364,52.548855,-1.452285,154.18,18.68,4,118.47,22 / 22,136411,2020-01-08 10:18:03:085,0.7242,-1.2242,11.3748,-0.1038,-0.0764,9.8057,0.1643,0.951,-0.737,-26.0,-31.62,27.75,327.11,-83.46,-166.86
1365,52.548855,-1.452285,154.18,18.68,4,118.47,22 / 22,136510,2020-01-08 10:18:03:184,6.5943,3.2296,11.7381,0.0385,-0.0538,9.8064,-0.0527,0.5341,-0.1799,-25.62,-31.31,26.69,330.19,-83.32,-162.97
1366,52.548855,-1.452285,154.18,18.68,4,118.47,22 / 22,136611,2020-01-08 10:18:03:285,-1.3044,-1.6523,9.4757,-0.1636,-0.0114,9.8052,0.2917,0.5564,-0.3263,-25.19,-31.5,27.06,331.41,-83.32,-162.93
1367,52.548855,-1.452285,154.18,18.68,4,118.47,22 / 22,136711,2020-01-08 10:18:03:385,6.8817,5.9524,9.8201,-0.0885,-0.0445,9.8061,0.0961,1.041,-0.6521,-26.12,-31.94,26.81,337.02,-83.5,-156.76
1368,52.548855,-1.452285,154.18,18.68,4,118.47,22 / 22,136811,2020-01-08 10:18:03:485,-5.0338,-4.4386,9.8761,-0.0364,-0.0372,9.8065,0.1009,0.3995,-0.2182,-25.56,-30.94,27.19,336.02,-83.55,-157.76
1369,52.548855,-1.452285,154.18,18.68,4,118.47,22 / 22,136911,2020-01-08 10:18:03:585,3.2435,1.7969,11.0055,-0.1468,-0.1077,9.8049,0.2031,1.1928,-0.8506,-26.12,-32.31,26.69,337.48,-83.69,-156.42
1370,52.548855,-1.452285,154.18,18.68,4,118.47,22 / 22,137011,2020-01-08 10:18:03:685,-8.3935,-7.3291,9.9535,-0.05,0.0354,9.8063,0.2324,-0.4498,0.3531,-25.31,-31.87,27.25,334.84,-83.9,-159.99
1371,52.548855,-1.452285,154.18,18.68,4,118.47,22 / 22,137110,2020-01-08 10:18:03:784,7.7551,2.7329,12.2887,-0.1703,-0.0448,9.805,-0.1615,0.6961,-0.762,-25.31,-31.37,26.5,341.27,-83.87,-154.17
1372,52.548855,-1.452285,154.18,18.68,4,118.47,22 / 22,137211,2020-01-08 10:18:03:885,-5.1297,-4.0186,8.5115,0.0334,0.0679,9.8063,-0.3413,-0.5179,0.7076,-25.31,-31.44,27.0,338.68,-83.62,-156.45
1373,52.548855,-1.452285,154.18,18.68,4,118.47,22 / 22,137311,2020-01-08 10:18:03:985,-3.0034,0.6642,8.3203,-0.1212,-0.0478,9.8058,0.2562,0.4917,-0.1156,-25.81,-31.75,26.81,336.07,-83.95,-157.8
1374,52.548855,-1.452285,154.18,18.68,4,118.47,22 / 22,137410,2020-01-08 10:18:04:084,-1.5624,-0.6602,8.1824,0.057,-0.0147,9.8064,0.0137,0.0912,-0.145,-25.31,-31.69,26.94,334.44,-84.16,-160.45
1375,52.548855,-1.452285,154.18,18.68,4,118.47,22 / 22,137511,2020-01-08 10:18:04:185,-4.3322,-1.3271,8.6135,0.048,0.0266,9.8064,0.1268,0.3552,-0.1861,-25.69,-31.87,26.69,329.86,-84.02,-163.53
1376,52.548855,-1.452285,154.18,18.68,4,118.47,22 / 22,137611,2020-01-08 10:18:04:285,4.1831,2.2582,9.9704,0.0305,0.0206,9.8065,0.2101,0.6699,-0.4561,-25.44,-31.56,25.94,330.97,-84.04,-162.46
1377,52.548855,-1.452285,154.18,18.68,4,118.47,22 / 22,137710,2020-01-08 10:18:04:384,-1.3866,-0.8895,9.6773,0.0674,0.0384,9.8063,-0.1018,-0.0842,0.1237,-25.37,-32.12,26.81,331.33,-83.95,-163.21
1378,52.548855,-1.452285,154.18,18.68,4,118.47,22 / 22,137811,2020-01-08 10:18:04:485,8.5606,7.4555,10.7588,-0.0226,-0.0315,9.8065,0.2141,1.0058,-0.5397,-25.56,-32.56,26.25,331.38,-83.96,-160.9
1379,52.548855,-1.452285,154.18,18.68,4,118.47,22 / 22,137911,2020-01-08 10:18:04:585,-5.9177,-4.7312,9.4403,0.1245,0.0832,9.8055,-0.3173,-0.8635,0.6389,-25.94,-31.87,26.38,328.12,-83.92,-163.94
1380,52.548855,-1.452285,154.18,18.68,4,118.47,22 / 22,138011,2020-01-08 10:18:04:685,-6.5059,-5.1223,8.188,-0.1253,-0.0716,9.8055,-0.1519,0.1687,-0.1465,-25.94,-31.94,26.31,337.84,-83.99,-155.08
1381,52.548855,-1.452285,154.18,18.68,4,118.47,22 / 22,138111,2020-01-08 10:18:04:785,-3.2764,-2.8489,9.937,-0.0085,0.0322,9.8065,-0.0204,-0.8128,0.5536,-25.94,-31.44,26.5,334.47,-84.06,-159.37
1382,52.548855,-1.452285,154.18,18.68,4,118.47,23 / 23,138211,2020-01-08 10:18:04:885,-1.7641,-4.0328,11.3979,-0.058,-0.0547,9.8063,0.0054,-0.4999,0.1981,-25.37,-31.75,27.13,334.15,-84.05,-160.67
1383,52.548855,-1.452285,154.18,18.68,4,118.47,23 / 23,138310,2020-01-08 10:18:04:984,4.0045,1.0924,11.829,0.0113,-0.0821,9.8062,-0.3649,-0.1661,0.2404,-25.87,-31.81,26.63,335.21,-83.73,-158.5
1384,52.548855,-1.452285,154.18,18.68,4,118.47,23 / 23,138411,2020-01-08 10:18:05:085,-0.6029,-1.0748,10.5008,-0.0754,0.0045,9.8063,-0.0892,-0.3876,0.2653,-26.19,-31.5,26.38,331.76,-83.84,-160.65
1385,52.548855,-1.452285,154.18,18.68,4,118.47,23 / 23,138512,2020-01-08 10:18:05:186,0.0097,0.7247,9.1848,-0.0452,-0.033,9.8064,0.016,0.0803,0.0734,-25.62,-31.62,26.25,335.96,-83.99,-156.79
1386,52.548855,-1.452285,154.18,18.68,4,118.47,23 / 23,138611,2020-01-08 10:18:05:285,-0.22,-0.1627,9.8758,-0.0097,-0.0085,9.8066,0.0025,-0.2484,0.1085,-25.56,-31.25,26.69,338.66,-83.87,-155.47
1387,52.548855,-1.452285,154.18,18.68,4,118.47,23 / 23,138711,2020-01-08 10:18:05:385,0.6637,2.6038,8.1056,-0.0077,-0.051,9.8064,-0.2239,0.0926,0.0262,-25.69,-31.75,26.44,339.04,-83.68,-153.88
1388,52.548855,-1.452285,154.18,18.68,4,118.47,23 / 23,138811,2020-01-08 10:18:05:485,-1.3516,0.4269,7.901,-0.0463,0.0405,9.8064,-0.2105,-0.0516,0.0661,-25.31,-31.44,26.94,339.6,-83.81,-155.68
1389,52.548855,-1.452285,154.18,18.68,4,118.47,23 / 23,138911,2020-01-08 10:18:05:585,1.9267,1.2683,10.8147,-0.0433,0.0208,9.8065,-0.1082,0.3137,-0.3379,-26.12,-31.87,26.56,340.16,-84.03,-154.1
1390,52.548855,-1.452285,154.18,18.68,4,118.47,23 / 23,139011,2020-01-08 10:18:05:685,1.3381,0.7633,10.0801,0.0253,0.0325,9.8065,-0.0148,-0.2654,0.1521,-25.81,-32.0,27.31,339.37,-83.92,-154.78
1391,52.548855,-1.452285,154.18,18.68,4,118.47,23 / 23,139110,2020-01-08 10:18:05:784,2.8341,3.3896,8.2458,-0.0134,-0.0553,9.8064,-0.1306,0.1049,-0.1098,-25.81,-31.62,25.94,337.35,-83.81,-155.46
1392,52.548855,-1.452285,154.18,18.68,4,118.47,23 / 23,139210,2020-01-08 10:18:05:884,-1.2804,-3.6431,11.9072,-0.0548,0.0326,9.8064,-0.0871,-0.3062,0.3826,-26.25,-31.06,26.0,336.64,-83.74,-156.15
1393,52.548855,-1.452285,154.18,18.68,4,118.47,23 / 23,139311,2020-01-08 10:18:05:985,1.9456,0.8964,11.307,-0.0795,-0.0029,9.8063,-0.2756,0.0397,0.089,-25.5,-30.5,26.75,342.46,-84.13,-153.22
1394,52.548855,-1.452285,154.18,18.68,4,118.47,23 / 23,139410,2020-01-08 10:18:06:084,-1.2853,1.0323,8.2124,-0.0484,0.0331,9.8064,-0.3788,-0.0147,0.1247,-25.37,-31.75,26.75,343.26,-84.45,-152.48
1395,52.548855,-1.452285,154.18,18.68,4,118.47,23 / 23,139510,2020-01-08 10:18:06:184,-0.4516,-1.5834,11.4505,-0.0348,0.0496,9.8064,0.3701,0.1169,-0.1075,-25.44,-32.25,26.38,341.36,-84.64,-153.17
1396,52.548855,-1.452285,154.18,18.68,4,118.47,23 / 23,139611,2020-01-08 10:18:06:285,1.5252,-0.728,10.5785,0.0843,-0.0074,9.8063,0.2637,0.3035,-0.2997,-25.75,-31.69,26.38,337.16,-84.5,-155.89
1397,52.548855,-1.452285,154.18,18.68,4,118.47,23 / 23,139711,2020-01-08 10:18:06:385,-1.6127,-1.2336,10.162,0.0915,0.0126,9.8062,-0.1508,0.1344,0.0005,-25.25,-32.19,26.69,339.32,-84.57,-156.14
1398,52.548855,-1.452285,154.18,18.68,4,118.47,23 / 23,139811,2020-01-08 10:18:06:485,0.5358,1.3484,8.9935,-0.0066,0.0368,9.8065,-0.0088,0.2031,-0.2805,-25.19,-32.25,26.5,340.32,-84.65,-155.24
1399,52.548855,-1.452285,154.18,18.68,4,118.47,23 / 23,139910,2020-01-08 10:18:06:584,0.9006,0.2953,11.4502,-0.0012,0.0235,9.8066,0.1523,0.4118,-0.242,-25.5,-32.0,25.94,340.16,-84.8,-154.32
1400,52.548855,-1.452285,154.18,18.68,4,118.47,23 / 23,140010,2020-01-08 10:18:06:684,1.5091,0.3705,10.8771,0.0823,0.0185,9.8063,0.1562,0.1107,-0.2467,-25.31,-31.5,26.38,343.8,-84.67,-150.98
1401,52.548855,-1.452285,154.18,18.68,4,118.47,23 / 23,140110,2020-01-08 10:18:06:784,-4.3938,-2.1389,9.9259,0.0289,-0.0121,9.8066,-0.0025,0.4878,-0.3345,-25.37,-32.37,27.13,342.24,-84.58,-153.45
1402,52.548855,-1.452285,154.18,18.68,4,118.47,23 / 23,140211,2020-01-08 10:18:06:885,-2.5902,0.2589,8.4675,0.0136,0.0405,9.8065,-0.1768,0.0396,-0.0805,-25.5,-32.19,26.0,339.99,-84.88,-154.5
1403,52.548046,-1.450132,154.33,19.05,3,120.64,23 / 23,140311,2020-01-08 10:18:06:985,1.2564,1.8569,11.202,-0.0914,0.0307,9.8061,0.0312,0.0736,-0.205,-25.31,-32.06,26.69,345.87,-84.95,-150.21
1404,52.548046,-1.450132,154.33,19.05,3,120.64,22 / 22,140410,2020-01-08 10:18:07:084,-1.8712,-1.6621,9.4351,0.0647,-0.0431,9.8063,-0.1181,-0.174,0.2322,-26.25,-32.06,25.69,343.77,-84.99,-149.96
1405,52.548046,-1.450132,154.33,19.05,3,120.64,22 / 22,140510,2020-01-08 10:18:07:184,-1.199,0.9304,5.8472,-0.0982,0.0631,9.8059,0.4453,0.1131,-0.3023,-25.5,-32.12,26.19,337.85,-84.58,-156.37
1406,52.548046,-1.450132,154.33,19.05,3,120.64,22 / 22,140611,2020-01-08 10:18:07:285,-1.9539,-2.9023,11.11,-0.0591,0.0937,9.806,0.3666,-0.0754,0.0153,-25.44,-32.06,26.94,341.54,-85.16,-154.27
1407,52.548046,-1.450132,154.33,19.05,3,120.64,22 / 22,140710,2020-01-08 10:18:07:384,-4.8343,-0.0723,8.3433,-0.0445,-0.0464,9.8064,-0.1439,0.7593,-0.2529,-25.75,-32.5,26.13,337.88,-85.19,-155.48
1408,52.548046,-1.450132,154.33,19.05,3,120.64,22 / 22,140811,2020-01-08 10:18:07:485,6.4769,7.0,8.143,-0.0673,-0.0479,9.8063,-0.05,0.9238,-0.6617,-25.44,-32.0,25.38,340.85,-84.97,-152.59
1409,52.548046,-1.450132,154.33,19.05,3,120.64,22 / 22,140911,2020-01-08 10:18:07:585,1.9943,-1.6403,12.7279,-0.0892,-0.1043,9.8057,0.3939,0.6545,-0.6027,-25.62,-31.81,26.13,340.7,-84.55,-152.65
1410,52.548046,-1.450132,154.33,19.05,3,120.64,22 / 22,141010,2020-01-08 10:18:07:684,5.6728,5.195,9.5913,-0.0536,-0.0965,9.8059,-0.0204,0.8116,-0.6356,-25.69,-32.56,26.38,336.29,-84.53,-156.64
1411,52.548046,-1.450132,154.33,19.05,3,120.64,22 / 22,141110,2020-01-08 10:18:07:784,-3.7965,-0.0081,6.887,-0.116,0.0144,9.8059,0.2333,0.2064,0.024,-25.5,-32.31,25.38,333.6,-84.72,-159.18
