,GPS LATITUDE (degrees), GPS LONGITUDE (degrees), GPS ALTITUDE (m), GPS SPEED (Kmh), GPS ACCURACY (m), GPS ORIENTATION (Â°),GPS SATELLITES IN RANGE, TIME SINCE START (ms), DATE (YYYY-MO-DD HH-MI-SS_SSS), ACCELEROMETER X (m/s²) , ACCELEROMETER Y (m/s²), ACCELEROMETER Z (m/s²), GRAVITY X (m/s²), GRAVITY Y (m/s²), GRAVITY Z (m/s²), GYROSCOPE Yaw (rad/s), GYROSCOPE Pitch (rad/s), GYROSCOPE Roll (rad/s), MAGNETIC FIELD X (Î¼T), MAGNETIC FIELD Y (Î¼T), MAGNETIC FIELD Z (Î¼T), ORIENTATION (Yaw) (Â°), ORIENTATION (Pitch) (Â°), ORIENTATION (Roll ) (Â°)
101205,52.411327,-1.487653,149.32,21.4,4.0,187.27,21 / 22,5699176,2019-09-07 12:02:12:330,-0.86,0.1298,9.9066,-0.01,0.004,9.8066,-0.0646,-0.0564,-0.0463,-25.06,-27.12,34.25,357.85,-82.27,-145.62
101206,52.411327,-1.487653,149.32,21.4,4.0,187.27,22 / 22,5699276,2019-09-07 12:02:12:430,0.7571,0.3469,7.8366,0.0069,0.0104,9.8066,-0.0012,0.0543,0.0307,-24.87,-26.5,34.63,358.44,-82.5,-145.89
101207,52.411327,-1.487653,149.32,21.4,4.0,187.27,22 / 22,5699375,2019-09-07 12:02:12:529,-0.2899,0.9851,10.2386,0.0035,0.006,9.8066,-0.0094,-0.0102,-0.0311,-24.75,-26.44,34.06,357.66,-82.57,-145.8
101208,52.411327,-1.487653,149.32,21.4,4.0,187.27,22 / 22,5699476,2019-09-07 12:02:12:630,0.61,0.3905,9.4335,0.0014,-0.0125,9.8066,0.0377,0.0323,0.0325,-24.5,-25.5,33.25,357.31,-82.55,-146.42
101209,52.411327,-1.487653,149.32,21.4,4.0,187.27,22 / 22,5699575,2019-09-07 12:02:12:729,-0.0388,-0.2068,9.8108,-0.0001,-0.0076,9.8066,-0.0033,-0.0136,0.0127,-25.37,-25.87,33.63,356.96,-82.37,-146.44
101210,52.411327,-1.487653,149.32,21.4,4.0,187.27,22 / 22,5699675,2019-09-07 12:02:12:829,0.5778,0.1153,8.5343,-0.0055,0.0015,9.8066,-0.0403,-0.0225,-0.0105,-25.25,-26.12,32.75,357.34,-82.36,-145.27
101211,52.411327,-1.487653,149.32,21.4,4.0,187.27,22 / 22,5699775,2019-09-07 12:02:12:929,-0.8413,0.4259,8.8104,-0.0094,0.0096,9.8066,-0.0532,-0.0362,-0.0503,-26.0,-26.44,32.44,356.08,-82.5,-144.47
101212,52.411327,-1.487653,149.32,21.4,4.0,187.27,22 / 22,5699876,2019-09-07 12:02:13:030,0.4679,0.6629,9.2466,0.0058,0.0101,9.8066,0.0209,0.0847,0.0365,-25.56,-26.69,32.56,356.56,-82.66,-144.9
101213,52.411327,-1.487653,149.32,21.4,4.0,187.27,22 / 22,5699976,2019-09-07 12:02:13:130,-0.9523,0.2587,9.9462,-0.0009,-0.0094,9.8066,-0.0256,-0.0844,-0.0683,-26.25,-27.62,32.19,355.32,-82.67,-145.14
101214,52.411327,-1.487653,149.32,21.4,4.0,187.27,22 / 22,5700076,2019-09-07 12:02:13:230,-0.7147,-0.1318,11.3881,-0.0035,-0.0087,9.8066,-0.0014,-0.032,-0.0201,-27.12,-27.81,33.0,354.9,-82.61,-145.34
101215,52.411327,-1.487653,149.32,21.4,4.0,187.27,22 / 22,5700176,2019-09-07 12:02:13:330,-0.2243,0.2173,10.406,0.0013,-0.0022,9.8066,-0.0149,-0.0405,-0.0117,-25.81,-27.81,34.0,357.08,-82.52,-145.24
101216,52.411327,-1.487653,149.32,21.4,4.0,187.27,22 / 22,5700275,2019-09-07 12:02:13:429,-0.3087,0.1596,9.4107,0.0047,0.0064,9.8066,-0.0312,-0.0725,-0.0613,-24.69,-27.81,33.06,357.46,-82.57,-145.15
101217,52.411327,-1.487653,149.32,21.4,4.0,187.27,22 / 22,5700375,2019-09-07 12:02:13:529,0.0199,0.6298,8.7936,0.0064,0.0153,9.8065,-0.0018,0.0485,0.0075,-25.81,-28.25,33.63,356.84,-82.66,-145.47
101218,52.411327,-1.487653,149.32,21.4,4.0,187.27,22 / 22,5700476,2019-09-07 12:02:13:630,-0.697,0.3013,9.0107,-0.0137,0.007,9.8066,-0.0353,-0.0212,-0.0138,-25.87,-26.81,34.25,356.89,-82.82,-145.43
101219,52.411327,-1.487653,149.32,21.4,4.0,187.27,22 / 22,5700575,2019-09-07 12:02:13:729,-1.1117,0.5729,9.4979,-0.0007,0.0021,9.8066,-0.013,-0.0236,-0.0117,-25.25,-26.44,34.0,358.81,-82.91,-144.76
101220,52.411327,-1.487653,149.32,21.4,4.0,187.27,22 / 22,5700675,2019-09-07 12:02:13:829,-0.716,0.45,10.1581,0.0066,0.0034,9.8066,0.0179,0.0474,0.041,-25.81,-26.69,33.06,356.35,-82.92,-145.1
101221,52.411327,-1.487653,149.32,21.4,4.0,187.27,22 / 22,5700775,2019-09-07 12:02:13:929,-0.9622,1.5901,9.8392,-0.0005,0.0014,9.8066,0.0228,0.0638,0.0368,-26.37,-26.31,33.81,356.89,-82.96,-145.45
101222,52.411327,-1.487653,149.32,21.4,4.0,187.27,22 / 22,5700875,2019-09-07 12:02:14:029,0.3524,0.5405,9.8774,-0.0076,0.0027,9.8066,-0.0251,-0.0167,0.0026,-25.56,-25.81,35.88,359.28,-82.95,-144.82
101223,52.411327,-1.487653,149.32,21.4,4.0,187.27,22 / 22,5700976,2019-09-07 12:02:14:130,-0.9767,0.9824,10.0286,-0.0046,0.0053,9.8066,0.0193,0.054,0.0523,-23.25,-25.06,35.06,2.71,-83.01,-144.19
101224,52.411327,-1.487653,149.32,21.4,4.0,187.27,22 / 22,5701075,2019-09-07 12:02:14:229,-0.5989,0.8801,9.2003,-0.0088,-0.0001,9.8065,-0.0231,-0.0178,-0.0141,-23.37,-24.87,32.69,1.73,-82.97,-143.54
101225,52.411327,-1.487653,149.32,21.4,4.0,187.27,22 / 22,5701177,2019-09-07 12:02:14:331,-1.1469,0.9129,10.0121,-0.0065,0.008,9.8066,-0.0574,-0.0809,-0.0764,-25.5,-25.75,32.56,0.56,-83.02,-142.34
101226,52.411327,-1.487653,149.32,21.4,4.0,187.27,21 / 21,5701276,2019-09-07 12:02:14:430,-0.5914,0.8727,8.587,0.0111,0.0081,9.8066,0.0261,0.0723,0.035,-26.94,-26.5,33.13,357.13,-83.16,-143.35
101227,52.411327,-1.487653,149.32,21.4,4.0,187.27,21 / 21,5701375,2019-09-07 12:02:14:529,-0.3875,0.6064,10.0837,-0.0002,0.0022,9.8066,0.0248,0.0906,0.0364,-26.37,-27.31,33.56,358.94,-83.22,-143.57
101228,52.411327,-1.487653,149.32,21.4,4.0,187.27,21 / 21,5701476,2019-09-07 12:02:14:630,-1.0249,0.2884,11.0203,-0.0048,-0.0072,9.8066,-0.0643,-0.1738,-0.1203,-26.0,-27.06,35.5,1.66,-83.15,-142.64
101229,52.411327,-1.487653,149.32,21.4,4.0,187.27,21 / 21,5701575,2019-09-07 12:02:14:729,1.2849,0.0527,10.7519,0.0121,0.0075,9.8066,0.0665,0.1667,0.1654,-24.81,-25.94,36.25,2.13,-83.16,-143.25
101230,52.411327,-1.487653,149.32,21.4,4.0,187.27,21 / 21,5701675,2019-09-07 12:02:14:829,-0.2301,0.3226,9.541,-0.0054,0.0073,9.8066,-0.0086,0.0545,0.0465,-23.62,-25.69,35.38,2.84,-83.05,-142.95
101231,52.411327,-1.487653,149.32,21.4,4.0,187.27,21 / 21,5701776,2019-09-07 12:02:14:930,-1.3327,0.3716,9.5713,-0.001,0.0025,9.8066,-0.0411,-0.0614,-0.0635,-23.94,-25.06,35.06,3.74,-83.12,-142.11
101232,52.411327,-1.487653,149.32,21.4,4.0,187.27,21 / 21,5701876,2019-09-07 12:02:15:030,0.1802,0.1498,8.7031,0.0084,0.0053,9.8066,-0.0085,0.0141,-0.0356,-23.81,-24.06,35.81,3.37,-83.37,-143.18
101233,52.411327,-1.487653,149.32,21.4,4.0,187.27,21 / 21,5701976,2019-09-07 12:02:15:130,0.0084,1.0334,9.885,0.0024,0.0126,9.8066,0.0001,0.0142,-0.0124,-22.31,-23.06,36.31,5.56,-83.49,-143.39
101234,52.411327,-1.487653,149.32,21.4,4.0,187.27,21 / 21,5702075,2019-09-07 12:02:15:229,-0.0794,1.0915,8.9143,0.0091,0.0077,9.8066,0.0323,0.0124,-0.0014,-21.19,-22.06,35.25,6.19,-83.48,-143.27
101235,52.411327,-1.487653,149.32,21.4,4.0,187.27,21 / 21,5702178,2019-09-07 12:02:15:332,-0.0905,1.0496,8.6704,-0.0097,0.0049,9.8066,-0.0215,0.0172,0.0331,-18.19,-25.69,35.06,9.83,-83.53,-143.74
101236,52.411327,-1.487653,149.32,21.4,4.0,187.27,22 / 22,5702277,2019-09-07 12:02:15:431,0.0771,3.4435,9.7926,-0.0002,0.0056,9.8066,0.0173,0.0415,0.0532,-15.69,-22.87,39.38,14.5,-83.67,-144.14
101237,52.411327,-1.487653,149.32,21.4,4.0,187.27,22 / 22,5702375,2019-09-07 12:02:15:529,0.3707,0.5466,8.4933,-0.0121,-0.0173,9.8066,-0.0145,-0.0279,-0.0095,-17.75,-19.75,34.13,8.73,-83.63,-143.93
101238,52.411327,-1.487653,149.32,21.4,4.0,187.27,22 / 22,5702476,2019-09-07 12:02:15:630,-0.2404,1.0487,10.373,-0.0072,0.0049,9.8066,-0.0321,-0.0325,-0.0209,-19.37,-23.69,28.44,3.09,-83.61,-143.02
101239,52.411327,-1.487653,149.32,21.4,4.0,187.27,22 / 22,5702576,2019-09-07 12:02:15:730,-0.8928,1.1401,9.6489,-0.0005,0.0132,9.8066,0.0087,0.0705,0.048,-20.0,-25.31,26.0,1.13,-83.53,-141.4
101240,52.411327,-1.487653,149.32,21.4,4.0,187.27,22 / 22,5702676,2019-09-07 12:02:15:830,-0.7038,0.8833,9.6547,0.0023,-0.0046,9.8066,0.0051,0.0053,-0.0153,-18.87,-28.0,24.56,1.55,-83.61,-141.38
101241,52.411327,-1.487653,149.32,21.4,4.0,187.27,22 / 22,5702775,2019-09-07 12:02:15:929,0.3423,-0.1538,10.8066,-0.0001,-0.0015,9.8066,0.032,0.1008,0.0563,-15.37,-30.25,22.44,4.63,-83.58,-141.7
101242,52.411327,-1.487653,149.32,21.4,4.0,187.27,22 / 22,5702875,2019-09-07 12:02:16:029,0.0963,0.5987,9.4217,0.0117,0.0165,9.8066,-0.0276,-0.0533,-0.0542,-13.12,-36.19,19.63,5.34,-83.7,-142.55
101243,52.411327,-1.487653,149.32,21.4,4.0,187.27,22 / 22,5702975,2019-09-07 12:02:16:129,-1.0978,0.8203,8.7201,-0.0121,-0.0034,9.8066,-0.0115,0.02,0.0175,-12.19,-42.69,19.06,6.85,-83.76,-142.34
101244,52.411327,-1.487653,149.32,21.4,4.0,187.27,22 / 22,5703075,2019-09-07 12:02:16:229,-0.0808,1.1898,10.0411,0.0072,0.0099,9.8066,-0.0229,-0.0651,-0.0488,-14.87,-49.37,21.56,4.78,-83.81,-141.91
101245,52.411327,-1.487653,149.32,21.4,4.0,187.27,22 / 22,5703175,2019-09-07 12:02:16:329,-0.5976,0.9391,8.7575,-0.0043,-0.0084,9.8066,0.0384,0.1092,0.0724,-16.69,-51.06,25.31,5.01,-83.75,-141.73
101246,52.409657,-1.487844,150.56,18.1,3.0,182.8,22 / 22,5703276,2019-09-07 12:02:16:430,0.1157,0.0299,9.6758,-0.0031,0.004,9.8066,-0.032,-0.0275,-0.0227,-17.12,-50.31,26.56,7.3,-83.75,-141.79
101247,52.409657,-1.487844,150.56,18.1,3.0,182.8,22 / 22,5703375,2019-09-07 12:02:16:529,-0.4681,0.6638,9.8023,0.0038,0.0022,9.8066,0.0041,-0.0511,-0.0768,-23.06,-55.56,29.44,0.05,-83.77,-141.54
101248,52.409657,-1.487844,150.56,18.1,3.0,182.8,22 / 22,5703476,2019-09-07 12:02:16:630,-0.9078,0.3003,9.6773,0.0078,0.0099,9.8065,0.0046,0.066,0.0261,-25.56,-49.56,41.75,6.1,-83.87,-142.84
101249,52.409657,-1.487844,150.56,18.1,3.0,182.8,22 / 22,5703576,2019-09-07 12:02:16:730,-0.5171,1.0284,10.5369,-0.0099,0.0102,9.8065,-0.0538,-0.052,-0.0498,-25.62,-34.19,46.5,9.14,-83.98,-142.56
101250,52.409657,-1.487844,150.56,18.1,3.0,182.8,22 / 22,5703676,2019-09-07 12:02:16:830,0.3474,0.6383,9.3989,-0.0007,0.0098,9.8065,0.0027,0.0551,0.0501,-25.94,-25.12,39.06,4.87,-84.17,-141.73
101251,52.409657,-1.487844,150.56,18.1,3.0,182.8,22 / 22,5703776,2019-09-07 12:02:16:930,0.258,-0.0166,9.7774,-0.0087,0.0028,9.8066,-0.0145,-0.026,0.0094,-25.37,-24.75,36.63,6.42,-84.08,-139.93
101252,52.409657,-1.487844,150.56,18.1,3.0,182.8,22 / 22,5703876,2019-09-07 12:02:17:030,-0.5654,0.0236,9.8447,-0.0062,-0.0021,9.8065,0.0022,0.0307,0.0332,-24.81,-24.19,35.13,6.1,-84.08,-138.74
101253,52.409657,-1.487844,150.56,18.1,3.0,182.8,22 / 22,5703975,2019-09-07 12:02:17:129,-0.2066,-0.1219,9.1837,0.0012,-0.0015,9.8065,0.0083,0.0432,0.0196,-23.75,-24.87,34.13,6.72,-84.1,-138.51
101254,52.409657,-1.487844,150.56,18.1,3.0,182.8,22 / 22,5704076,2019-09-07 12:02:17:230,-0.5609,0.1003,9.8094,-0.002,-0.0079,9.8065,-0.0324,-0.1027,-0.0803,-23.87,-25.87,33.38,5.97,-84.02,-138.43
101255,52.409657,-1.487844,150.56,18.1,3.0,182.8,22 / 22,5704175,2019-09-07 12:02:17:329,-1.0916,-0.2979,9.6172,-0.0002,0.0061,9.8066,0.0157,0.0488,0.0343,-24.44,-26.12,33.5,6.88,-84.08,-138.38
101256,52.409657,-1.487844,150.56,18.1,3.0,182.8,22 / 22,5704276,2019-09-07 12:02:17:430,-0.933,-0.1006,8.9099,0.0011,0.0004,9.8065,0.0054,-0.0308,-0.0096,-24.81,-27.0,33.44,5.2,-84.1,-138.03
101257,52.409657,-1.487844,150.56,18.1,3.0,182.8,22 / 22,5704375,2019-09-07 12:02:17:529,-0.0849,-0.9928,10.1724,-0.009,-0.0023,9.8066,-0.0524,-0.0515,-0.0389,-25.81,-26.37,32.56,4.0,-84.11,-138.04
101258,52.409657,-1.487844,150.56,18.1,3.0,182.8,22 / 22,5704476,2019-09-07 12:02:17:630,0.2652,0.2712,10.7859,-0.0108,0.0145,9.8065,-0.0334,0.0159,0.0449,-26.06,-26.31,33.63,6.96,-84.22,-136.09
101259,52.409657,-1.487844,150.56,18.1,3.0,182.8,22 / 22,5704576,2019-09-07 12:02:17:730,-0.8943,0.6269,9.9446,0.0019,0.0018,9.8066,0.0346,-0.0163,-0.0027,-26.0,-26.75,32.5,7.2,-84.22,-135.07
101260,52.409657,-1.487844,150.56,18.1,3.0,182.8,22 / 22,5704676,2019-09-07 12:02:17:830,0.3906,-1.0173,9.876,-0.0048,-0.005,9.8066,-0.0038,-0.0315,-0.0219,-25.81,-26.69,33.44,6.99,-84.2,-135.26
101261,52.409657,-1.487844,150.56,18.1,3.0,182.8,22 / 22,5704776,2019-09-07 12:02:17:930,-0.7908,0.9414,9.1685,0.0007,-0.0026,9.8066,-0.0101,0.0282,0.0399,-25.0,-27.12,33.5,8.7,-84.2,-135.58
101262,52.409657,-1.487844,150.56,18.1,3.0,182.8,22 / 22,5704876,2019-09-07 12:02:18:030,0.2602,0.4169,8.8649,-0.0094,-0.0023,9.8066,-0.0241,0.0012,0.0234,-25.0,-27.19,33.13,8.54,-84.23,-134.92
101263,52.409657,-1.487844,150.56,18.1,3.0,182.8,22 / 22,5704976,2019-09-07 12:02:18:130,0.5816,-0.714,10.7801,-0.0046,-0.0005,9.8065,-0.0037,-0.0005,0.0191,-25.31,-27.31,31.88,9.16,-84.24,-133.49
101264,52.409657,-1.487844,150.56,18.1,3.0,182.8,22 / 22,5705076,2019-09-07 12:02:18:230,-0.7588,-0.1285,10.3034,-0.0038,-0.0057,9.8066,0.0134,-0.026,-0.008,-25.5,-27.44,32.19,10.0,-84.19,-132.72
101265,52.409657,-1.487844,150.56,18.1,3.0,182.8,22 / 22,5705176,2019-09-07 12:02:18:330,-0.1397,-0.3811,9.4412,-0.0012,0.0015,9.8066,-0.0028,-0.0098,0.003,-25.62,-26.75,31.94,8.85,-84.15,-132.69
101266,52.409657,-1.487844,150.56,18.1,3.0,182.8,22 / 22,5705276,2019-09-07 12:02:18:430,-0.6593,-0.0884,10.4055,-0.0043,0.0014,9.8066,-0.0237,-0.0212,0.0026,-25.31,-27.06,31.69,10.49,-84.16,-132.27
101267,52.409657,-1.487844,150.56,18.1,3.0,182.8,22 / 22,5705375,2019-09-07 12:02:18:529,0.0034,0.1622,10.2248,0.0071,0.0046,9.8066,0.0377,0.053,0.0448,-25.31,-27.44,32.63,11.51,-84.14,-132.17
101268,52.409657,-1.487844,150.56,18.1,3.0,182.8,22 / 22,5705475,2019-09-07 12:02:18:629,-0.4248,-0.0674,8.8743,0.0037,-0.0018,9.8066,0.0062,0.0022,-0.0023,-24.81,-26.62,32.69,10.49,-84.18,-133.11
101269,52.409657,-1.487844,150.56,18.1,3.0,182.8,22 / 22,5705576,2019-09-07 12:02:18:730,-0.6411,-0.3576,10.2107,-0.0081,0.0245,9.8066,-0.0565,-0.0245,-0.0239,-25.0,-28.0,31.88,11.03,-84.36,-131.77
101270,52.409657,-1.487844,150.56,18.1,3.0,182.8,22 / 22,5705675,2019-09-07 12:02:18:829,-0.752,0.0663,8.4706,-0.0052,0.021,9.8066,-0.0277,0.0055,0.0048,-24.94,-28.25,31.56,12.49,-84.6,-130.37
101271,52.409657,-1.487844,150.56,18.1,3.0,182.8,22 / 22,5705775,2019-09-07 12:02:18:929,-1.1171,0.3599,10.8228,0.0042,-0.002,9.8065,0.0088,-0.0216,-0.0242,-25.81,-28.19,32.06,11.48,-84.73,-130.19
101272,52.409657,-1.487844,150.56,18.1,3.0,182.8,22 / 22,5705875,2019-09-07 12:02:19:029,0.2326,-0.1827,10.128,0.0143,-0.0009,9.8066,0.0147,-0.0352,-0.062,-25.75,-27.69,32.75,10.51,-84.73,-131.94
101273,52.409657,-1.487844,150.56,18.1,3.0,182.8,22 / 22,5705976,2019-09-07 12:02:19:130,-0.1938,0.5512,10.4874,0.0063,0.0027,9.8066,0.0391,0.0657,0.0279,-24.75,-27.0,32.94,10.45,-84.82,-133.06
101274,52.409657,-1.487844,150.56,18.1,3.0,182.8,22 / 22,5706076,2019-09-07 12:02:19:230,0.2909,-0.2582,8.4744,0.0,-0.0073,9.8066,0.0079,-0.0107,-0.022,-23.94,-26.94,32.31,9.75,-84.79,-134.01
101275,52.409657,-1.487844,150.56,18.1,3.0,182.8,22 / 22,5706175,2019-09-07 12:02:19:329,0.0761,0.763,9.8796,-0.0057,0.001,9.8066,0.0055,0.0665,0.0766,-25.12,-27.06,31.69,8.76,-84.74,-133.81
101276,52.409657,-1.487844,150.56,18.1,3.0,182.8,22 / 22,5706276,2019-09-07 12:02:19:430,-0.327,0.078,10.3603,-0.0127,-0.0087,9.8066,-0.0397,-0.0351,-0.0368,-25.12,-26.81,31.81,10.41,-84.66,-132.28
101277,52.409657,-1.487844,150.56,18.1,3.0,182.8,22 / 22,5706375,2019-09-07 12:02:19:529,-0.7918,-0.0989,9.2128,-0.0053,0.01,9.8066,-0.0012,0.0493,0.04,-26.06,-27.25,32.25,9.87,-84.69,-131.67
101278,52.409657,-1.487844,150.56,18.1,3.0,182.8,22 / 22,5706475,2019-09-07 12:02:19:629,-0.2313,-0.0795,10.0904,-0.0102,0.0017,9.8066,-0.0527,-0.0455,-0.0396,-25.31,-27.81,32.06,12.98,-84.73,-129.89
101279,52.409657,-1.487844,150.56,18.1,3.0,182.8,22 / 22,5706576,2019-09-07 12:02:19:730,0.6352,-0.1443,10.0647,-0.0017,0.0063,9.8066,-0.0239,-0.0553,-0.0544,-25.25,-28.25,31.94,13.69,-84.85,-129.21
101280,52.409657,-1.487844,150.56,18.1,3.0,182.8,22 / 22,5706675,2019-09-07 12:02:19:829,-0.0989,-0.0338,10.845,0.0135,0.0028,9.8066,0.0277,0.0581,0.0227,-25.31,-27.12,31.75,12.34,-84.98,-130.42
101281,52.409657,-1.487844,150.56,18.1,3.0,182.8,22 / 22,5706775,2019-09-07 12:02:19:929,-0.3201,0.3048,10.1806,0.0064,0.0079,9.8066,-0.0106,-0.0183,-0.0231,-24.94,-27.37,31.5,10.86,-84.99,-131.81
101282,52.409657,-1.487844,150.56,18.1,3.0,182.8,22 / 22,5706875,2019-09-07 12:02:20:029,0.1942,-0.3989,10.1525,0.001,0.0021,9.8066,-0.0033,0.0226,0.004,-25.12,-27.69,31.25,9.51,-85.07,-132.22
101283,52.409657,-1.487844,150.56,18.1,3.0,182.8,22 / 22,5706975,2019-09-07 12:02:20:129,-0.484,-0.0767,9.7115,-0.0001,0.007,9.8066,-0.0268,-0.0091,-0.0247,-24.94,-27.5,31.88,11.3,-85.06,-131.39
101284,52.409657,-1.487844,150.56,18.1,3.0,182.8,22 / 22,5707075,2019-09-07 12:02:20:229,-0.3669,-0.143,9.6159,0.0027,0.0026,9.8066,0.0393,0.0727,0.0173,-24.81,-27.37,31.75,11.4,-85.17,-131.27
101285,52.409657,-1.487844,150.56,18.1,3.0,182.8,22 / 22,5707177,2019-09-07 12:02:20:331,-0.0569,-0.4199,10.5404,0.0,-0.0087,9.8066,-0.0371,-0.0823,-0.0866,-25.12,-27.75,31.31,9.33,-85.14,-132.37
101286,52.409657,-1.487844,150.56,18.1,3.0,182.8,22 / 22,5707275,2019-09-07 12:02:20:429,0.109,-0.1692,9.5235,0.0043,0.0172,9.8066,-0.0032,0.0393,0.014,-24.87,-27.75,31.63,9.91,-85.23,-132.7
101287,52.409657,-1.487844,150.56,18.1,3.0,182.8,22 / 22,5707376,2019-09-07 12:02:20:530,0.4813,0.0045,9.307,-0.0056,0.012,9.8065,-0.0177,0.0182,0.0148,-24.81,-28.0,31.31,10.37,-85.4,-131.36
101288,52.409657,-1.487844,150.56,18.1,3.0,182.8,22 / 22,5707475,2019-09-07 12:02:20:629,-0.0341,-0.3087,9.5406,-0.0121,-0.0087,9.8066,-0.0498,-0.0766,-0.053,-25.5,-27.56,31.44,11.48,-85.42,-130.31
101289,52.409657,-1.487844,150.56,18.1,3.0,182.8,22 / 22,5707576,2019-09-07 12:02:20:730,-0.3197,-0.0497,8.864,-0.002,0.0061,9.8066,0.0198,0.0282,0.0271,-25.62,-27.37,31.5,12.86,-85.45,-128.75
101290,52.409657,-1.487844,150.56,18.1,3.0,182.8,22 / 22,5707675,2019-09-07 12:02:20:829,0.5219,-0.4244,10.3845,-0.0081,0.0014,9.8066,0.001,-0.0243,0.0107,-24.75,-28.12,32.25,15.53,-85.42,-127.36
101291,52.409657,-1.487844,150.56,18.1,3.0,182.8,22 / 22,5707776,2019-09-07 12:02:20:930,-0.3565,-0.536,10.4208,-0.0072,-0.0037,9.8066,-0.0046,-0.042,-0.0215,-24.69,-27.62,31.31,15.22,-85.38,-126.8
101292,52.409657,-1.487844,150.56,18.1,3.0,182.8,22 / 22,5707876,2019-09-07 12:02:21:030,0.4948,-0.0413,10.2145,0.0034,-0.0032,9.8066,0.033,0.0544,0.0339,-25.06,-28.5,31.81,16.22,-85.29,-126.74
101293,52.409657,-1.487844,150.56,18.1,3.0,182.8,22 / 22,5707976,2019-09-07 12:02:21:130,0.2781,-0.4784,9.1828,-0.006,-0.0005,9.8066,-0.0202,-0.0231,-0.0313,-25.56,-26.94,31.13,15.02,-85.15,-125.88
101294,52.409657,-1.487844,150.56,18.1,3.0,182.8,22 / 22,5708075,2019-09-07 12:02:21:229,-0.0859,-0.789,10.1086,-0.0011,0.0003,9.8066,-0.0045,0.0162,0.0202,-24.75,-27.75,30.63,16.62,-85.17,-125.52
101295,52.409657,-1.487844,150.56,18.1,3.0,182.8,22 / 22,5708176,2019-09-07 12:02:21:330,0.3783,-0.2218,9.7006,-0.0007,0.0013,9.8066,-0.0037,0.0134,0.019,-25.25,-27.37,31.56,17.83,-85.16,-125.21
101296,52.409657,-1.487844,150.56,18.1,3.0,182.8,21 / 22,5708275,2019-09-07 12:02:21:429,-0.1209,-0.2043,8.1157,-0.0096,-0.0019,9.8065,-0.0673,-0.0797,-0.0696,-24.81,-27.81,31.88,18.71,-85.2,-124.41
101297,52.409657,-1.487844,150.56,18.1,3.0,182.8,21 / 22,5708376,2019-09-07 12:02:21:530,-0.1256,-0.2578,10.1974,-0.0038,0.0153,9.8066,-0.0089,0.0147,-0.0017,-24.62,-27.62,31.63,21.32,-85.4,-121.89
101298,52.409657,-1.487844,150.56,18.1,3.0,182.8,21 / 22,5708475,2019-09-07 12:02:21:629,0.4974,-0.1022,10.0384,0.0039,-0.0046,9.8066,0.0062,0.0092,0.0122,-24.69,-28.12,31.44,20.1,-85.44,-122.18
101299,52.409657,-1.487844,150.56,18.1,3.0,182.8,21 / 22,5708575,2019-09-07 12:02:21:729,1.4071,0.028,9.6499,0.0044,-0.0049,9.8066,0.0237,0.0601,0.056,-25.06,-27.94,31.69,20.62,-85.31,-122.58
101300,52.409657,-1.487844,150.56,18.1,3.0,182.8,21 / 22,5708675,2019-09-07 12:02:21:829,0.3669,-0.0037,9.5465,-0.0072,-0.0095,9.8065,0.0121,0.0388,0.0264,-25.12,-28.56,31.69,20.54,-85.24,-122.72
101301,52.409657,-1.487844,150.56,18.1,3.0,182.8,21 / 22,5708776,2019-09-07 12:02:21:930,-0.4853,-0.1038,10.2721,-0.0046,0.0107,9.8066,-0.0303,0.0058,0.0003,-25.25,-28.25,31.0,20.73,-85.19,-121.65
101302,52.409657,-1.487844,150.56,18.1,3.0,182.8,21 / 22,5708875,2019-09-07 12:02:22:029,-0.4627,-0.1971,9.0816,0.0039,0.0112,9.8066,0.0093,0.0698,0.0189,-25.12,-27.94,31.44,21.94,-85.36,-120.46
101303,52.409657,-1.487844,150.56,18.1,3.0,182.8,21 / 22,5708975,2019-09-07 12:02:22:129,-0.2478,0.0282,11.1356,0.0031,0.0038,9.8066,-0.0091,-0.0058,-0.0367,-25.37,-28.0,30.81,21.39,-85.51,-120.94
101304,52.409657,-1.487844,150.56,18.1,3.0,182.8,21 / 22,5709076,2019-09-07 12:02:22:230,0.5284,0.0605,8.9944,0.007,0.0019,9.8066,-0.0069,-0.0211,-0.0435,-24.75,-27.87,30.44,19.61,-85.6,-121.69
101305,52.409657,-1.487844,150.56,18.1,3.0,182.8,21 / 22,5709175,2019-09-07 12:02:22:329,0.2149,-0.6036,10.2035,-0.0028,0.002,9.8066,0.0255,0.07,0.0405,-24.75,-28.0,30.69,20.26,-85.65,-121.97
101306,52.409657,-1.487844,150.56,18.1,3.0,182.8,22 / 22,5709276,2019-09-07 12:02:22:430,0.4643,-0.4612,11.6667,0.0014,-0.0074,9.8066,0.0158,0.0099,-0.0052,-25.44,-28.69,31.38,20.24,-85.57,-122.04
101307,52.409657,-1.487844,150.56,18.1,3.0,182.8,22 / 22,5709376,2019-09-07 12:02:22:530,0.0979,0.1827,9.5282,-0.0068,-0.0003,9.8066,-0.054,-0.04,-0.0401,-24.62,-28.62,31.31,20.18,-85.52,-122.11
101308,52.409657,-1.487844,150.56,18.1,3.0,182.8,22 / 22,5709475,2019-09-07 12:02:22:629,-0.0657,-0.415,9.8494,0.0001,0.0133,9.8066,-0.0144,0.0159,-0.0388,-25.19,-28.31,31.75,22.66,-85.59,-120.58
101309,52.409657,-1.487844,150.56,18.1,3.0,182.8,22 / 22,5709576,2019-09-07 12:02:22:730,0.5584,0.213,11.3638,0.0048,0.0025,9.8066,-0.0023,-0.0062,-0.0332,-25.25,-28.12,31.69,22.1,-85.74,-121.06
101310,52.409657,-1.487844,150.56,18.1,3.0,182.8,22 / 22,5709675,2019-09-07 12:02:22:829,0.3115,0.076,8.568,-0.0039,-0.0025,9.8066,-0.0258,-0.0183,-0.0181,-24.94,-28.19,30.94,21.47,-85.68,-120.81
101311,52.409657,-1.487844,150.56,18.1,3.0,182.8,22 / 22,5709775,2019-09-07 12:02:22:929,1.0524,0.3375,9.3631,-0.0137,-0.0061,9.8066,0.0001,0.0759,0.0573,-25.75,-27.56,30.94,21.11,-85.68,-120.03
101312,52.409657,-1.487844,150.56,18.1,3.0,182.8,22 / 22,5709875,2019-09-07 12:02:23:029,-0.4582,0.5718,9.1295,-0.0085,0.0077,9.8066,-0.0315,0.0135,-0.0153,-26.31,-27.5,31.0,23.79,-85.6,-117.47
101313,52.409657,-1.487844,150.56,18.1,3.0,182.8,22 / 22,5709975,2019-09-07 12:02:23:129,-0.2962,0.3787,10.308,0.0004,0.0018,9.8066,0.0204,0.0887,0.0529,-25.56,-28.06,30.81,25.38,-85.48,-116.04
101314,52.409657,-1.487844,150.56,18.1,3.0,182.8,22 / 22,5710078,2019-09-07 12:02:23:232,-0.5456,0.2716,10.2862,0.0007,0.0031,9.8066,0.0126,0.0217,-0.0002,-25.56,-28.0,30.81,25.02,-85.48,-116.38
101315,52.409657,-1.487844,150.56,18.1,3.0,182.8,22 / 22,5710175,2019-09-07 12:02:23:329,0.1393,0.8417,10.2427,0.0014,0.0016,9.8066,-0.0048,-0.0026,-0.0281,-26.31,-27.81,30.81,24.82,-85.55,-116.55
101316,52.409657,-1.487844,150.56,18.1,3.0,182.8,22 / 22,5710275,2019-09-07 12:02:23:429,-0.4727,0.8181,10.3139,0.0006,0.0081,9.8066,-0.0053,0.0289,-0.0238,-26.0,-27.81,31.19,25.48,-85.58,-115.92
101317,52.409657,-1.487844,150.56,18.1,3.0,182.8,22 / 22,5710375,2019-09-07 12:02:23:529,0.1821,1.1497,10.2565,-0.0005,0.0029,9.8066,0.0208,0.074,0.0585,-26.0,-27.69,30.94,25.43,-85.61,-115.95
101318,52.409657,-1.487844,150.56,18.1,3.0,182.8,22 / 22,5710476,2019-09-07 12:02:23:630,-0.4345,0.3006,9.4151,-0.0092,-0.0034,9.8066,0.0294,0.0938,0.0625,-26.06,-27.62,30.56,26.82,-85.59,-114.64
101319,52.409657,-1.487844,150.56,18.1,3.0,182.8,22 / 22,5710576,2019-09-07 12:02:23:730,-1.1189,0.4375,9.9082,-0.0067,-0.0027,9.8066,-0.0082,0.0228,0.0236,-26.37,-28.0,30.56,27.99,-85.48,-113.56
101320,52.409657,-1.487844,150.56,18.1,3.0,182.8,22 / 22,5710676,2019-09-07 12:02:23:830,-0.1438,0.7507,9.9272,-0.0002,0.0085,9.8066,-0.0314,-0.0013,-0.0216,-25.75,-27.62,29.75,28.27,-85.51,-112.39
101321,52.409657,-1.487844,150.56,18.1,3.0,182.8,22 / 22,5710775,2019-09-07 12:02:23:929,-0.3835,0.5682,10.7059,0.0002,0.003,9.8066,0.0177,0.0931,0.0419,-26.44,-28.12,30.31,29.59,-85.5,-111.13
101322,52.409657,-1.487844,150.56,18.1,3.0,182.8,22 / 22,5710875,2019-09-07 12:02:24:029,-0.6481,0.2831,10.0647,0.0059,-0.0056,9.8066,0.0193,0.0388,-0.0087,-26.12,-28.25,29.63,28.86,-85.52,-111.82
101323,52.409657,-1.487844,150.56,18.1,3.0,182.8,22 / 22,5710976,2019-09-07 12:02:24:130,-1.2236,0.8649,8.5206,-0.0009,-0.0018,9.8066,-0.0103,-0.0214,-0.0248,-25.69,-27.81,30.69,28.8,-85.61,-112.74
101324,52.409657,-1.487844,150.56,18.1,3.0,182.8,22 / 22,5711075,2019-09-07 12:02:24:229,0.3845,0.885,10.7639,0.0098,0.0179,9.8066,-0.0095,0.001,-0.0384,-26.12,-27.94,30.75,28.78,-85.7,-112.73
101325,52.409657,-1.487844,150.56,18.1,3.0,182.8,22 / 22,5711175,2019-09-07 12:02:24:329,0.1859,0.3207,10.8596,0.0037,0.0107,9.8066,-0.0004,0.0323,-0.0115,-26.0,-27.81,30.69,29.86,-85.75,-111.69
101326,52.409657,-1.487844,150.56,18.1,3.0,182.8,21 / 23,5711275,2019-09-07 12:02:24:429,-1.276,0.8604,10.1221,-0.0021,-0.0042,9.8066,0.0001,0.0358,-0.0019,-26.56,-28.0,30.94,28.77,-85.78,-111.63
101327,52.409657,-1.487844,150.56,18.1,3.0,182.8,21 / 23,5711376,2019-09-07 12:02:24:530,0.268,0.7704,10.2534,-0.001,0.0031,9.8066,0.0058,0.0919,0.0458,-26.69,-28.62,30.56,29.04,-85.87,-111.39
101328,52.409657,-1.487844,150.56,18.1,3.0,182.8,21 / 23,5711475,2019-09-07 12:02:24:629,-0.6114,0.4066,10.789,0.0042,0.0108,9.8065,-0.0145,0.0246,-0.0262,-26.56,-28.19,31.0,29.61,-86.0,-110.75
101329,52.409657,-1.487844,150.56,18.1,3.0,182.8,21 / 23,5711576,2019-09-07 12:02:24:730,-1.3179,1.2348,10.8393,-0.0012,-0.0014,9.8066,0.013,0.0653,0.0386,-26.62,-27.87,30.31,28.38,-86.03,-111.0
101330,52.409657,-1.487844,150.56,18.1,3.0,182.8,21 / 23,5711675,2019-09-07 12:02:24:829,-0.1794,1.0521,9.344,0.0079,-0.0035,9.8066,-0.014,-0.0377,-0.033,-26.69,-28.37,30.63,28.19,-86.04,-112.08
101331,52.409657,-1.487844,150.56,18.1,3.0,182.8,21 / 23,5711775,2019-09-07 12:02:24:929,0.1122,0.1209,9.2938,0.0054,-0.0001,9.8066,0.0117,0.0232,0.0085,-27.06,-27.56,30.38,25.87,-85.96,-113.42
101332,52.409657,-1.487844,150.56,18.1,3.0,182.8,21 / 23,5711875,2019-09-07 12:02:25:029,-0.5205,0.5708,9.3671,-0.0087,0.0032,9.8066,-0.0324,0.0169,0.0014,-26.62,-28.12,30.38,27.17,-85.99,-112.17
101333,52.409657,-1.487844,150.56,18.1,3.0,182.8,21 / 23,5711976,2019-09-07 12:02:25:130,-1.1668,1.1338,10.8639,-0.0055,0.0101,9.8066,-0.0217,-0.0025,-0.0101,-26.37,-28.37,31.13,31.48,-85.99,-110.04
101334,52.409657,-1.487844,150.56,18.1,3.0,182.8,21 / 23,5712075,2019-09-07 12:02:25:229,0.2202,0.4128,9.9763,0.008,-0.007,9.8066,0.0297,0.0552,0.0368,-26.81,-27.81,31.44,29.95,-86.01,-110.42
101335,52.409657,-1.487844,150.56,18.1,3.0,182.8,21 / 23,5712175,2019-09-07 12:02:25:329,0.0526,0.3088,9.6354,0.0033,-0.0039,9.8066,0.0113,0.0203,0.0002,-26.94,-28.06,30.81,28.57,-85.97,-111.74
101336,52.409657,-1.487844,150.56,18.1,3.0,182.8,20 / 22,5712275,2019-09-07 12:02:25:429,-1.3926,0.8772,10.6837,-0.0024,0.0034,9.8066,0.0175,0.0948,0.0588,-26.5,-28.06,30.81,29.88,-85.97,-111.58
101337,52.40832,-1.487967,151.46,13.73,3.0,181.14,20 / 22,5712376,2019-09-07 12:02:25:530,-0.8822,0.1851,10.1735,-0.0051,0.0142,9.8066,-0.0089,0.0043,0.0029,-26.75,-27.87,31.13,29.52,-85.96,-110.84
101338,52.40832,-1.487967,151.46,13.73,3.0,181.14,20 / 22,5712475,2019-09-07 12:02:25:629,0.2696,0.437,11.4227,-0.0008,0.0013,9.8066,-0.0114,-0.0599,-0.0633,-27.25,-28.19,30.63,31.06,-86.0,-109.36
101339,52.40832,-1.487967,151.46,13.73,3.0,181.14,20 / 22,5712576,2019-09-07 12:02:25:730,-0.2446,0.1734,10.35,0.0047,0.0037,9.8065,0.0402,0.0714,0.0503,-25.94,-27.81,30.25,30.06,-86.04,-110.49
101340,52.40832,-1.487967,151.46,13.73,3.0,181.14,20 / 22,5712676,2019-09-07 12:02:25:830,-0.2382,0.5759,9.5578,0.0048,-0.0079,9.8066,0.0224,0.0232,0.0245,-26.25,-28.06,29.5,28.7,-86.01,-111.79
101341,52.40832,-1.487967,151.46,13.73,3.0,181.14,20 / 22,5712776,2019-09-07 12:02:25:930,-0.6437,0.4228,9.6502,-0.0013,0.0007,9.8066,-0.0678,-0.1492,-0.1221,-25.81,-27.87,31.19,28.99,-85.9,-112.46
101342,52.40832,-1.487967,151.46,13.73,3.0,181.14,20 / 22,5712876,2019-09-07 12:02:26:030,-1.0879,0.4713,10.5526,-0.0021,0.0102,9.8065,0.0117,0.0799,0.0609,-26.0,-27.81,30.56,30.2,-86.05,-111.25
101343,52.40832,-1.487967,151.46,13.73,3.0,181.14,20 / 22,5712976,2019-09-07 12:02:26:130,-0.3862,0.7917,9.9083,-0.001,-0.0097,9.8066,0.01,-0.0089,-0.022,-25.75,-28.06,29.88,29.4,-86.04,-111.11
101344,52.40832,-1.487967,151.46,13.73,3.0,181.14,20 / 22,5713075,2019-09-07 12:02:26:229,-0.4286,0.7714,10.4806,0.0023,-0.0069,9.8066,-0.0248,-0.1083,-0.0937,-25.37,-28.06,30.38,29.23,-85.95,-112.44
101345,52.40832,-1.487967,151.46,13.73,3.0,181.14,20 / 22,5713175,2019-09-07 12:02:26:329,-0.2973,0.2013,9.4678,-0.0021,0.0008,9.8066,0.0116,0.0723,0.0604,-25.19,-28.19,30.25,28.86,-86.01,-112.77
101346,52.40832,-1.487967,151.46,13.73,3.0,181.14,21 / 22,5713276,2019-09-07 12:02:26:430,-0.7478,0.4005,10.2076,-0.0011,-0.0049,9.8065,-0.0034,-0.0382,-0.0489,-25.37,-28.37,29.94,29.15,-85.96,-112.52
101347,52.40832,-1.487967,151.46,13.73,3.0,181.14,21 / 22,5713376,2019-09-07 12:02:26:530,-0.0367,0.456,9.5531,0.0053,0.003,9.8066,0.0287,0.047,0.0199,-25.37,-28.37,30.38,27.64,-85.99,-113.94
101348,52.40832,-1.487967,151.46,13.73,3.0,181.14,21 / 22,5713476,2019-09-07 12:02:26:630,-0.2426,0.4137,10.1998,-0.0028,-0.0019,9.8066,0.0124,0.0662,0.0472,-25.62,-28.12,31.06,26.97,-86.01,-114.35
101349,52.40832,-1.487967,151.46,13.73,3.0,181.14,21 / 22,5713575,2019-09-07 12:02:26:729,-0.2856,0.1208,9.71,-0.002,0.0001,9.8066,-0.0098,-0.0074,-0.0214,-25.44,-27.5,31.06,28.8,-85.92,-113.71
101350,52.40832,-1.487967,151.46,13.73,3.0,181.14,21 / 22,5713675,2019-09-07 12:02:26:829,-0.8668,0.2411,9.9732,-0.0025,0.0019,9.8066,0.0131,0.0385,0.0265,-25.19,-28.62,31.19,29.47,-85.93,-113.17
101351,52.40832,-1.487967,151.46,13.73,3.0,181.14,21 / 22,5713775,2019-09-07 12:02:26:929,-0.6541,0.4327,10.0168,0.0019,-0.005,9.8066,0.0311,0.0553,0.0279,-25.37,-28.25,31.31,28.85,-85.89,-113.72
101352,52.40832,-1.487967,151.46,13.73,3.0,181.14,21 / 22,5713875,2019-09-07 12:02:27:029,-0.365,0.4007,10.0613,0.0029,0.001,9.8066,0.006,-0.008,-0.0227,-25.56,-28.12,31.5,28.17,-85.83,-114.13
101353,52.40832,-1.487967,151.46,13.73,3.0,181.14,21 / 22,5713975,2019-09-07 12:02:27:129,-0.2974,0.2864,9.9995,0.0009,0.0077,9.8066,0.0106,0.0403,0.0299,-25.19,-27.75,32.06,28.96,-85.85,-114.49
101354,52.40832,-1.487967,151.46,13.73,3.0,181.14,21 / 22,5714075,2019-09-07 12:02:27:229,-0.266,0.4932,10.6644,0.0054,-0.0031,9.8066,0.026,0.0302,-0.0068,-26.12,-27.75,31.75,27.46,-85.89,-114.8
101355,52.40832,-1.487967,151.46,13.73,3.0,181.14,21 / 22,5714175,2019-09-07 12:02:27:329,-0.196,0.1991,9.8606,0.0013,0.0055,9.8066,0.0029,0.0357,0.0124,-25.62,-27.81,31.63,26.6,-85.92,-115.61
101356,52.40832,-1.487967,151.46,13.73,3.0,181.14,22 / 22,5714275,2019-09-07 12:02:27:429,-0.3699,0.1966,10.4366,-0.0001,0.0001,9.8066,-0.002,-0.0301,-0.0355,-26.37,-28.25,31.81,26.7,-85.98,-115.49
101357,52.40832,-1.487967,151.46,13.73,3.0,181.14,22 / 22,5714376,2019-09-07 12:02:27:530,0.2167,0.1759,9.4959,0.0123,0.0028,9.8066,0.0297,0.0554,0.0358,-26.25,-27.94,31.44,24.05,-86.06,-117.12
101358,52.40832,-1.487967,151.46,13.73,3.0,181.14,22 / 22,5714475,2019-09-07 12:02:27:629,-0.5069,0.1878,9.6452,0.0026,-0.0005,9.8066,0.0008,-0.026,-0.0415,-26.44,-27.87,32.0,24.3,-86.04,-117.76
101359,52.40832,-1.487967,151.46,13.73,3.0,181.14,22 / 22,5714577,2019-09-07 12:02:27:731,-0.3918,0.6453,9.5792,0.0007,0.0069,9.8066,0.0053,0.0268,0.0152,-25.94,-27.94,31.88,23.42,-86.09,-118.59
101360,52.40832,-1.487967,151.46,13.73,3.0,181.14,22 / 22,5714676,2019-09-07 12:02:27:830,-0.8207,0.6375,9.9131,-0.0012,0.0052,9.8066,0.0001,0.0444,0.0145,-26.69,-28.12,31.13,22.02,-86.14,-117.95
101361,52.40832,-1.487967,151.46,13.73,3.0,181.14,22 / 22,5714776,2019-09-07 12:02:27:930,-0.273,0.3981,10.3996,-0.0008,0.001,9.8066,-0.0185,-0.0517,-0.0562,-26.44,-27.62,31.5,23.62,-86.19,-118.36
101362,52.40832,-1.487967,151.46,13.73,3.0,181.14,22 / 22,5714876,2019-09-07 12:02:28:030,-0.2949,0.1081,10.6275,0.0035,0.0038,9.8066,0.0084,-0.0068,-0.0079,-27.25,-28.06,31.5,22.27,-86.27,-118.57
101363,52.40832,-1.487967,151.46,13.73,3.0,181.14,22 / 22,5714976,2019-09-07 12:02:28:130,0.1958,0.7584,10.7943,0.0081,-0.0067,9.8066,0.0432,0.0474,0.0369,-26.94,-27.75,31.25,19.64,-86.28,-120.19
101364,52.40832,-1.487967,151.46,13.73,3.0,181.14,22 / 22,5715076,2019-09-07 12:02:28:230,-0.2263,0.1504,10.1113,-0.0015,-0.0147,9.8065,0.0187,-0.0098,-0.0001,-26.37,-27.06,30.25,18.79,-86.16,-121.18
101365,52.40832,-1.487967,151.46,13.73,3.0,181.14,22 / 22,5715175,2019-09-07 12:02:28:329,0.0655,0.1468,10.6639,0.0,-0.0001,9.8066,0.0098,0.022,0.0391,-26.56,-27.0,31.06,17.93,-86.04,-121.86
101366,52.40832,-1.487967,151.46,13.73,3.0,181.14,21 / 22,5715276,2019-09-07 12:02:28:430,-0.4114,-0.4876,9.9689,-0.014,-0.0064,9.8065,-0.0229,-0.0319,-0.0066,-27.12,-27.5,31.19,19.47,-85.93,-120.42
101367,52.40832,-1.487967,151.46,13.73,3.0,181.14,21 / 22,5715375,2019-09-07 12:02:28:529,-0.7417,0.2461,10.7388,-0.0122,0.0027,9.8066,-0.0073,-0.0089,0.0123,-26.56,-27.56,31.5,21.59,-85.87,-119.32
101368,52.40832,-1.487967,151.46,13.73,3.0,181.14,21 / 22,5715476,2019-09-07 12:02:28:630,-0.1956,-0.3538,9.3484,-0.0024,0.0004,9.8066,0.0017,0.0293,0.0189,-26.19,-27.37,30.44,22.23,-85.85,-117.97
101369,52.40832,-1.487967,151.46,13.73,3.0,181.14,21 / 22,5715575,2019-09-07 12:02:28:729,-0.5975,0.2547,9.3798,-0.0026,0.0156,9.8066,-0.005,0.0794,0.0501,-26.25,-27.94,31.06,24.39,-85.96,-116.83
101370,52.40832,-1.487967,151.46,13.73,3.0,181.14,21 / 22,5715676,2019-09-07 12:02:28:830,-0.1879,-0.3061,9.9893,0.0019,0.002,9.8066,0.0121,0.0403,0.0047,-26.12,-27.75,30.88,25.06,-85.99,-116.18
101371,52.40832,-1.487967,151.46,13.73,3.0,181.14,21 / 22,5715776,2019-09-07 12:02:28:930,-0.0593,-0.0306,9.8204,0.0072,-0.0038,9.8066,0.05,0.0462,0.0241,-26.44,-27.94,31.13,23.95,-85.96,-117.25
101372,52.40832,-1.487967,151.46,13.73,3.0,181.14,21 / 22,5715878,2019-09-07 12:02:29:032,-0.058,0.2061,10.1841,0.0012,-0.0043,9.8066,0.0118,0.0262,0.0252,-26.0,-27.81,31.44,22.28,-85.92,-118.85
101373,52.40832,-1.487967,151.46,13.73,3.0,181.14,21 / 22,5715976,2019-09-07 12:02:29:130,0.5849,0.2601,8.4344,-0.0035,-0.0009,9.8066,-0.0195,0.0049,0.0006,-26.5,-27.5,30.75,22.71,-85.89,-118.41
101374,52.40832,-1.487967,151.46,13.73,3.0,181.14,21 / 22,5716076,2019-09-07 12:02:29:230,-0.3024,0.2156,10.2707,0.0005,0.0062,9.8066,0.0098,0.0238,0.0071,-26.69,-27.81,31.25,22.75,-85.91,-117.32
101375,52.40832,-1.487967,151.46,13.73,3.0,181.14,21 / 22,5716177,2019-09-07 12:02:29:331,0.4936,0.7209,9.6172,0.0038,0.0057,9.8066,-0.0107,-0.0057,-0.0091,-26.5,-27.62,31.44,23.27,-85.94,-117.9
101376,52.40832,-1.487967,151.46,13.73,3.0,181.14,21 / 21,5716276,2019-09-07 12:02:29:430,-0.251,0.3062,10.139,-0.0022,-0.0045,9.8066,0.0037,0.0091,0.0021,-26.81,-27.44,31.38,22.27,-85.91,-117.74
101377,52.40832,-1.487967,151.46,13.73,3.0,181.14,21 / 21,5716375,2019-09-07 12:02:29:529,-0.2582,-0.532,10.1508,0.001,0.0,9.8066,-0.0205,-0.0144,-0.0269,-26.37,-27.25,31.25,23.41,-85.88,-117.74
101378,52.40832,-1.487967,151.46,13.73,3.0,181.14,21 / 21,5716475,2019-09-07 12:02:29:629,-0.0151,0.1989,10.6587,0.0048,0.0073,9.8066,0.0011,0.0103,-0.0084,-27.0,-27.31,31.13,22.26,-85.96,-117.74
101379,52.40832,-1.487967,151.46,13.73,3.0,181.14,21 / 21,5716576,2019-09-07 12:02:29:730,-0.1227,0.6164,9.9713,-0.0042,-0.0032,9.8066,-0.0034,-0.0192,0.0056,-26.44,-27.25,32.25,24.43,-85.94,-117.63
101380,52.40832,-1.487967,151.46,13.73,3.0,181.14,21 / 21,5716675,2019-09-07 12:02:29:829,0.0636,-0.19,9.9583,0.0047,-0.0058,9.8066,0.0188,0.0077,-0.0095,-27.75,-27.06,32.0,21.88,-85.89,-117.96
101381,52.40832,-1.487967,151.46,13.73,3.0,181.14,21 / 21,5716775,2019-09-07 12:02:29:929,-0.6398,0.2048,9.9047,-0.0015,-0.0062,9.8066,0.0019,-0.003,-0.0123,-27.75,-27.19,31.5,21.02,-85.82,-118.8
101382,52.40832,-1.487967,151.46,13.73,3.0,181.14,21 / 21,5716875,2019-09-07 12:02:30:029,-0.7485,-0.043,9.7109,0.0009,0.0,9.8066,-0.0011,-0.0125,-0.0206,-27.62,-26.87,32.06,20.72,-85.84,-119.08
101383,52.40832,-1.487967,151.46,13.73,3.0,181.14,21 / 21,5716975,2019-09-07 12:02:30:129,-0.6179,0.2701,9.9268,-0.0082,-0.0029,9.8066,-0.0213,0.0044,0.0253,-27.81,-27.06,32.56,21.25,-85.89,-119.41
101384,52.40832,-1.487967,151.46,13.73,3.0,181.14,21 / 21,5717075,2019-09-07 12:02:30:229,0.4661,0.3313,12.5111,0.0064,0.0063,9.8066,0.0214,0.0025,-0.0176,-27.94,-26.62,31.88,21.37,-85.89,-118.45
101385,52.40832,-1.487967,151.46,13.73,3.0,181.14,21 / 21,5717175,2019-09-07 12:02:30:329,0.3932,-0.471,7.2699,0.0108,-0.0027,9.8066,0.018,-0.0106,-0.02,-27.75,-27.0,32.06,20.93,-85.92,-118.86
101386,52.40832,-1.487967,151.46,13.73,3.0,181.14,20 / 21,5717276,2019-09-07 12:02:30:430,-0.3986,0.1093,9.423,0.0128,0.0022,9.8066,-0.0353,-0.0361,-0.0436,-28.0,-26.0,32.06,17.82,-85.98,-121.78
101387,52.40832,-1.487967,151.46,13.73,3.0,181.14,20 / 21,5717375,2019-09-07 12:02:30:529,-0.1679,0.2627,8.9483,-0.0089,0.0154,9.8066,0.0054,-0.0344,-0.0523,-27.94,-26.37,31.25,18.62,-86.16,-120.09
101388,52.40832,-1.487967,151.46,13.73,3.0,181.14,20 / 21,5717475,2019-09-07 12:02:30:629,-0.0484,0.3213,9.9497,-0.0023,0.0049,9.8066,-0.0113,-0.0115,-0.0173,-27.5,-26.31,31.56,20.36,-86.25,-120.33
101389,52.40832,-1.487967,151.46,13.73,3.0,181.14,20 / 21,5717575,2019-09-07 12:02:30:729,-0.3809,-0.2731,9.8962,0.0092,-0.002,9.8066,-0.0083,-0.036,-0.0501,-27.81,-26.25,30.5,18.42,-86.26,-120.26
101390,52.40832,-1.487967,151.46,13.73,3.0,181.14,20 / 21,5717675,2019-09-07 12:02:30:829,-1.9714,1.6821,10.8635,-0.0048,-0.0022,9.8066,-0.0169,-0.0717,-0.0276,-27.19,-26.31,30.56,18.6,-86.26,-121.14
101391,52.40832,-1.487967,151.46,13.73,3.0,181.14,20 / 21,5717775,2019-09-07 12:02:30:929,-0.1748,-1.1481,8.9953,-0.009,-0.0132,9.8066,-0.0432,-0.0897,-0.0362,-27.12,-26.81,30.25,17.21,-86.16,-121.6
101392,52.40832,-1.487967,151.46,13.73,3.0,181.14,20 / 21,5717875,2019-09-07 12:02:31:029,-0.3406,-0.1851,10.09,0.002,0.0021,9.8066,-0.0034,0.0199,0.0157,-26.69,-26.75,31.0,18.88,-86.07,-120.94
101393,52.40832,-1.487967,151.46,13.73,3.0,181.14,20 / 21,5717975,2019-09-07 12:02:31:129,0.7222,-1.0036,11.8644,-0.0311,0.0133,9.8065,-0.0291,-0.0155,-0.0008,-26.31,-26.75,30.25,22.65,-85.98,-117.54
101394,52.40832,-1.487967,151.46,13.73,3.0,181.14,20 / 21,5718075,2019-09-07 12:02:31:229,-0.4712,-0.0582,8.8577,-0.0083,0.0005,9.8065,0.0367,0.1103,0.0701,-26.37,-26.69,30.81,24.66,-86.01,-116.52
101395,52.40832,-1.487967,151.46,13.73,3.0,181.14,20 / 21,5718175,2019-09-07 12:02:31:329,0.2472,-0.8585,8.8115,-0.0051,0.0,9.8066,-0.0972,-0.1074,-0.0812,-26.37,-26.75,31.13,24.96,-85.89,-116.26
101396,52.40832,-1.487967,151.46,13.73,3.0,181.14,22 / 22,5718277,2019-09-07 12:02:31:431,-4.8808,-0.198,10.1294,0.0012,0.0126,9.8066,-0.0169,0.0062,-0.0142,-26.31,-27.0,31.56,27.47,-86.04,-114.69
101397,52.40832,-1.487967,151.46,13.73,3.0,181.14,22 / 22,5718376,2019-09-07 12:02:31:530,0.3662,1.5164,9.5296,0.011,0.0012,9.8066,0.0729,0.1049,0.077,-26.62,-26.75,31.13,26.03,-86.26,-114.04
101398,52.40832,-1.487967,151.46,13.73,3.0,181.14,22 / 22,5718475,2019-09-07 12:02:31:629,-1.5909,-0.1576,9.9822,0.0074,-0.0245,9.8065,0.0424,-0.0704,-0.0806,-26.25,-26.87,31.5,24.32,-86.17,-117.67
101399,52.40832,-1.487967,151.46,13.73,3.0,181.14,22 / 22,5718575,2019-09-07 12:02:31:729,1.0403,-0.984,10.5633,0.0085,-0.0072,9.8066,0.0218,0.0783,0.0292,-26.25,-26.56,31.44,17.22,-86.09,-123.61
101400,52.40832,-1.487967,151.46,13.73,3.0,181.14,22 / 22,5718678,2019-09-07 12:02:31:832,0.1952,0.4231,9.2113,-0.0023,0.0097,9.8066,-0.0328,0.0047,-0.0298,-26.0,-27.12,32.44,18.3,-86.16,-123.43
101401,52.40832,-1.487967,151.46,13.73,3.0,181.14,22 / 22,5718775,2019-09-07 12:02:31:929,0.2667,-0.5409,9.5818,-0.0186,0.0127,9.8066,-0.0603,-0.0028,0.0097,-26.06,-27.0,31.13,18.6,-86.28,-122.24
101402,52.40832,-1.487967,151.46,13.73,3.0,181.14,22 / 22,5718876,2019-09-07 12:02:32:030,-0.6183,0.2807,9.2202,-0.0184,0.0044,9.8065,-0.031,0.0275,0.0328,-26.12,-27.25,31.19,24.52,-86.3,-116.57
101403,52.40832,-1.487967,151.46,13.73,3.0,181.14,22 / 22,5718977,2019-09-07 12:02:32:131,0.4702,-0.2831,10.4892,0.0013,-0.0075,9.8066,0.0153,0.0056,-0.0014,-26.81,-26.94,31.25,24.39,-86.28,-115.61
101404,52.40832,-1.487967,151.46,13.73,3.0,181.14,22 / 22,5719076,2019-09-07 12:02:32:230,0.0515,-0.8741,10.134,0.0063,-0.0029,9.8066,0.0447,0.0261,0.0126,-26.44,-27.81,31.81,24.78,-86.22,-117.25
101405,52.40832,-1.487967,151.46,13.73,3.0,181.14,22 / 22,5719175,2019-09-07 12:02:32:329,0.4959,-0.6613,10.0398,0.0049,-0.0072,9.8066,0.026,0.0678,0.0123,-26.44,-27.0,30.75,21.93,-86.16,-119.08
101406,52.40832,-1.487967,151.46,13.73,3.0,181.14,22 / 22,5719275,2019-09-07 12:02:32:429,0.3146,-0.4889,10.0817,-0.0012,0.0099,9.8066,-0.0167,0.0316,-0.0058,-26.12,-28.0,31.56,22.87,-86.21,-119.08
101407,52.40832,-1.487967,151.46,13.73,3.0,181.14,22 / 22,5719376,2019-09-07 12:02:32:530,0.5822,-0.55,9.8972,-0.0083,0.0071,9.8065,-0.0073,0.0807,0.0501,-26.87,-27.94,31.19,22.28,-86.27,-117.67
101408,52.40832,-1.487967,151.46,13.73,3.0,181.14,22 / 22,5719475,2019-09-07 12:02:32:629,-0.0228,0.2972,10.3027,-0.0056,0.0014,9.8066,-0.0113,0.0633,-0.0123,-26.62,-28.31,31.81,25.7,-86.31,-115.26
101409,52.40832,-1.487967,151.46,13.73,3.0,181.14,22 / 22,5719575,2019-09-07 12:02:32:729,0.3006,1.7861,9.0869,0.0076,0.0008,9.8066,0.0297,0.0983,0.0045,-26.5,-27.94,30.81,25.72,-86.45,-115.4
101410,52.40832,-1.487967,151.46,13.73,3.0,181.14,22 / 22,5719675,2019-09-07 12:02:32:829,0.651,0.3209,8.9383,0.0058,-0.0018,9.8066,0.0509,0.1005,-0.0082,-26.81,-28.0,32.19,23.32,-86.49,-117.49
101411,52.40832,-1.487967,151.46,13.73,3.0,181.14,22 / 22,5719777,2019-09-07 12:02:32:931,0.2437,1.0658,9.0901,0.0151,-0.0029,9.8065,-0.0064,0.0495,-0.0624,-26.5,-27.19,31.44,18.73,-86.55,-122.05
101412,52.40832,-1.487967,151.46,13.73,3.0,181.14,22 / 22,5719876,2019-09-07 12:02:33:030,0.7812,0.5658,9.3907,0.0069,0.0137,9.8066,0.0085,0.137,-0.0062,-26.94,-28.06,31.94,17.87,-86.65,-122.68
101413,52.40832,-1.487967,151.46,13.73,3.0,181.14,22 / 22,5719976,2019-09-07 12:02:33:130,0.9034,0.5125,10.2502,0.013,0.0209,9.8066,0.0107,0.1599,-0.022,-27.25,-27.75,31.94,17.23,-86.77,-123.28
101414,52.40832,-1.487967,151.46,13.73,3.0,181.14,22 / 22,5720075,2019-09-07 12:02:33:229,0.8171,1.5199,9.816,0.0089,0.007,9.8066,0.0308,0.1825,0.005,-27.0,-27.69,31.69,15.19,-87.06,-125.19
101415,52.40832,-1.487967,151.46,13.73,3.0,181.14,22 / 22,5720175,2019-09-07 12:02:33:329,0.5979,1.0926,10.1404,0.0055,-0.0097,9.8066,0.0222,0.0996,-0.0599,-28.12,-27.44,31.31,11.32,-87.08,-126.97
101416,52.40832,-1.487967,151.46,13.73,3.0,181.14,22 / 22,5720275,2019-09-07 12:02:33:429,1.3127,0.2873,9.6252,0.0164,-0.0002,9.8065,0.0484,0.1982,0.0171,-27.44,-27.69,31.56,9.19,-87.01,-130.99
101417,52.40832,-1.487967,151.46,13.73,3.0,181.14,22 / 22,5720375,2019-09-07 12:02:33:529,0.2586,1.3145,9.8056,0.0009,0.0028,9.8066,-0.0255,0.123,-0.059,-28.06,-27.69,31.38,6.21,-86.99,-131.93
101418,52.40832,-1.487967,151.46,13.73,3.0,181.14,22 / 22,5720476,2019-09-07 12:02:33:630,0.449,0.6867,10.0928,0.0016,0.0061,9.8066,-0.029,0.0851,-0.0629,-27.5,-27.37,31.44,6.49,-87.1,-132.68
101419,52.40832,-1.487967,151.46,13.73,3.0,181.14,22 / 22,5720575,2019-09-07 12:02:33:729,0.8447,0.884,10.3933,0.0093,-0.0003,9.8066,0.0346,0.1684,-0.0201,-28.81,-27.69,30.94,3.89,-87.14,-133.15
101420,52.40832,-1.487967,151.46,13.73,3.0,181.14,22 / 22,5720675,2019-09-07 12:02:33:829,0.3002,0.8241,10.1856,0.0062,-0.0056,9.8066,0.0264,0.1433,-0.016,-28.31,-27.5,31.44,1.7,-87.07,-136.27
101421,52.40832,-1.487967,151.46,13.73,3.0,181.14,22 / 22,5720775,2019-09-07 12:02:33:929,0.4135,0.5379,9.5192,0.0044,-0.0038,9.8066,0.0148,0.1449,-0.0334,-29.19,-27.94,31.13,358.85,-86.99,-138.02
101422,52.40832,-1.487967,151.46,13.73,3.0,181.14,22 / 22,5720875,2019-09-07 12:02:34:029,0.7975,0.8821,9.3295,0.0086,0.0049,9.8066,-0.0033,0.1171,-0.0839,-29.12,-26.87,31.19,356.25,-87.0,-140.53
101423,52.40832,-1.487967,151.46,13.73,3.0,181.14,22 / 22,5720975,2019-09-07 12:02:34:129,0.3704,0.7226,9.7796,0.0079,0.0056,9.8066,0.0113,0.1825,-0.0237,-29.31,-27.44,31.31,353.11,-87.13,-143.57
101424,52.40832,-1.487967,151.46,13.73,3.0,181.14,22 / 22,5721078,2019-09-07 12:02:34:232,1.0554,0.6639,9.5476,0.0077,0.0086,9.8066,0.0066,0.1695,-0.0221,-29.5,-27.75,31.56,352.18,-87.2,-145.38
101425,52.40832,-1.487967,151.46,13.73,3.0,181.14,22 / 22,5721176,2019-09-07 12:02:34:330,0.8002,0.6025,9.8098,0.0086,-0.0084,9.8066,0.0267,0.1556,-0.0213,-29.5,-27.0,31.69,349.98,-87.19,-147.52
101426,52.40747,-1.487961,151.12,8.19,2.0,166.32,22 / 22,5721277,2019-09-07 12:02:34:431,1.0615,-0.1125,9.456,0.0134,-0.0068,9.8066,0.0256,0.1586,-0.0427,-30.0,-27.37,31.06,345.84,-87.1,-149.64
101427,52.40747,-1.487961,151.12,8.19,2.0,166.32,22 / 22,5721375,2019-09-07 12:02:34:529,1.6683,-0.0024,9.7861,0.0157,0.0101,9.8066,0.003,0.1607,-0.0523,-29.31,-27.0,31.5,342.5,-87.01,-154.73
101428,52.40747,-1.487961,151.12,8.19,2.0,166.32,22 / 22,5721475,2019-09-07 12:02:34:629,0.7489,0.475,9.5343,0.0036,0.0074,9.8066,-0.0047,0.1615,-0.0281,-30.44,-27.62,31.31,336.55,-87.05,-158.6
101429,52.40747,-1.487961,151.12,8.19,2.0,166.32,22 / 22,5721575,2019-09-07 12:02:34:729,1.0229,0.2532,10.2645,0.007,0.01,9.8065,0.0147,0.1783,-0.0331,-30.12,-27.25,31.0,334.62,-87.12,-160.52
101430,52.40747,-1.487961,151.12,8.19,2.0,166.32,22 / 22,5721676,2019-09-07 12:02:34:830,1.2176,0.1153,9.2835,0.0115,-0.0023,9.8066,0.0205,0.1682,-0.0383,-30.75,-26.75,30.13,328.64,-87.12,-164.45
101431,52.40747,-1.487961,151.12,8.19,2.0,166.32,22 / 22,5721776,2019-09-07 12:02:34:930,1.0618,0.7553,10.2645,0.0159,0.009,9.8065,0.023,0.1723,-0.0201,-31.25,-27.69,30.88,324.46,-87.05,-169.41
101432,52.40747,-1.487961,151.12,8.19,2.0,166.32,22 / 22,5721876,2019-09-07 12:02:35:030,1.8467,-0.1177,10.3847,0.0169,-0.002,9.8066,0.0536,0.1935,-0.0099,-31.87,-27.19,30.56,320.99,-86.95,-171.89
101433,52.40747,-1.487961,151.12,8.19,2.0,166.32,22 / 22,5721975,2019-09-07 12:02:35:129,1.9076,0.0095,9.6329,0.0055,-0.0052,9.8066,0.0266,0.1774,-0.0226,-31.94,-26.62,30.81,319.71,-86.75,-173.06
101434,52.40747,-1.487961,151.12,8.19,2.0,166.32,22 / 22,5722075,2019-09-07 12:02:35:229,2.0736,-0.1269,9.6374,0.0194,-0.0095,9.8066,0.0321,0.1716,-0.0231,-31.87,-26.87,30.56,318.09,-86.53,-174.54
101435,52.40747,-1.487961,151.12,8.19,2.0,166.32,22 / 22,5722175,2019-09-07 12:02:35:329,0.5074,1.2314,9.5082,0.0032,-0.0014,9.8066,0.0066,0.1866,-0.0011,-32.06,-27.44,30.56,317.3,-86.36,-175.24
101436,52.40747,-1.487961,151.12,8.19,2.0,166.32,22 / 22,5722276,2019-09-07 12:02:35:430,-1.749,2.6806,9.1949,-0.0092,0.0204,9.8066,-0.0534,0.2219,0.0041,-32.0,-27.06,30.69,316.92,-86.48,-175.66
101437,52.40747,-1.487961,151.12,8.19,2.0,166.32,22 / 22,5722376,2019-09-07 12:02:35:530,-2.5993,4.1772,10.2665,-0.0358,0.0324,9.8064,-0.1233,0.1673,-0.0235,-32.81,-27.37,29.56,315.45,-87.15,-175.57
101438,52.40747,-1.487961,151.12,8.19,2.0,166.32,22 / 22,5722475,2019-09-07 12:02:35:629,-3.3618,3.7403,10.8247,-0.0309,0.0213,9.8065,-0.0875,0.1493,-0.0185,-33.06,-28.0,29.25,315.01,-87.64,-175.21
101439,52.40747,-1.487961,151.12,8.19,2.0,166.32,22 / 22,5722575,2019-09-07 12:02:35:729,-3.896,3.3447,11.2927,0.0042,0.0029,9.8066,0.0355,0.1324,-0.0145,-33.12,-27.19,28.81,315.09,-87.87,-175.27
101440,52.40747,-1.487961,151.12,8.19,2.0,166.32,22 / 22,5722675,2019-09-07 12:02:35:829,-3.417,2.9336,10.3995,0.029,-0.0176,9.8066,0.1026,0.1636,-0.0013,-33.5,-28.06,28.81,311.92,-87.58,-178.21
101441,52.40747,-1.487961,151.12,8.19,2.0,166.32,22 / 22,5722775,2019-09-07 12:02:35:929,-2.7472,2.9157,9.6436,0.0236,-0.0141,9.8066,0.0507,0.0889,-0.045,-33.25,-27.5,28.81,309.75,-87.2,179.8
101442,52.40747,-1.487961,151.12,8.19,2.0,166.32,22 / 22,5722876,2019-09-07 12:02:36:030,-2.6357,2.7122,9.5927,0.0182,-0.0096,9.8066,0.0522,0.119,0.0003,-32.94,-27.31,29.44,308.06,-86.79,178.35
101443,52.40747,-1.487961,151.12,8.19,2.0,166.32,22 / 22,5722975,2019-09-07 12:02:36:129,-3.0333,2.5988,10.3788,0.0025,-0.0073,9.8066,0.0047,0.0957,-0.0008,-34.12,-27.37,29.69,308.66,-86.58,178.87
101444,52.40747,-1.487961,151.12,8.19,2.0,166.32,22 / 22,5723076,2019-09-07 12:02:36:230,-3.4549,1.996,10.4768,0.0006,-0.0041,9.8066,0.0184,0.0735,-0.017,-34.25,-27.44,29.25,308.62,-86.54,179.85
101445,52.40747,-1.487961,151.12,8.19,2.0,166.32,22 / 22,5723176,2019-09-07 12:02:36:330,-3.4181,2.2804,9.6696,0.0094,-0.0014,9.8066,0.012,0.0929,-0.0094,-34.56,-27.44,29.44,307.4,-86.43,179.49
101446,52.40747,-1.487961,151.12,8.19,2.0,166.32,22 / 22,5723276,2019-09-07 12:02:36:430,-3.1675,2.2386,9.5788,0.0047,0.0069,9.8066,-0.0083,0.0841,-0.0187,-34.81,-26.31,29.19,305.82,-86.38,177.91
101447,52.40747,-1.487961,151.12,8.19,2.0,166.32,21 / 21,5723375,2019-09-07 12:02:36:529,-2.9933,2.5285,10.1512,0.0006,0.0105,9.8066,-0.0024,0.0758,-0.0114,-33.94,-26.75,29.69,306.04,-86.43,176.39
101448,52.40747,-1.487961,151.12,8.19,2.0,166.32,21 / 21,5723475,2019-09-07 12:02:36:629,-2.5703,1.9725,10.4435,0.0062,0.0037,9.8066,0.0313,0.1003,0.0032,-34.44,-26.87,29.25,302.61,-86.46,174.0
101449,52.40747,-1.487961,151.12,8.19,2.0,166.32,21 / 21,5723576,2019-09-07 12:02:36:730,-2.6959,1.583,9.9634,0.0027,-0.0102,9.8066,0.001,0.0205,-0.0059,-35.31,-27.5,29.31,302.33,-86.3,174.6
101450,52.40747,-1.487961,151.12,8.19,2.0,166.32,21 / 21,5723675,2019-09-07 12:02:36:829,-2.53,1.2102,9.8382,-0.0033,-0.0001,9.8066,0.0026,0.0623,0.0241,-34.62,-27.0,29.0,303.12,-86.31,175.37
101451,52.40747,-1.487961,151.12,8.19,2.0,166.32,21 / 21,5723775,2019-09-07 12:02:36:929,-2.1754,0.9338,10.0042,-0.0022,-0.0002,9.8066,-0.0043,0.0221,-0.0168,-34.44,-26.62,28.63,304.39,-86.34,175.8
101452,52.40747,-1.487961,151.12,8.19,2.0,166.32,21 / 21,5723876,2019-09-07 12:02:37:030,-1.9244,0.662,10.0522,0.0019,0.0022,9.8066,0.0102,0.0401,-0.0003,-34.5,-26.37,29.0,304.02,-86.35,175.38
101453,52.40747,-1.487961,151.12,8.19,2.0,166.32,21 / 21,5723976,2019-09-07 12:02:37:130,-2.1377,1.0755,9.9026,-0.0009,0.0055,9.8066,-0.0084,0.013,-0.0107,-34.75,-27.44,28.5,302.99,-86.36,175.21
101454,52.40747,-1.487961,151.12,8.19,2.0,166.32,21 / 21,5724075,2019-09-07 12:02:37:229,-1.8297,0.9778,9.9414,-0.0014,0.007,9.8066,0.0046,0.0244,-0.0072,-34.44,-26.75,29.06,302.7,-86.43,174.1
101455,52.40747,-1.487961,151.12,8.19,2.0,166.32,21 / 21,5724176,2019-09-07 12:02:37:330,-1.6069,0.5265,9.8891,0.0008,0.0017,9.8066,0.0058,0.0288,0.0051,-34.69,-26.75,28.63,301.11,-86.43,173.33
101456,52.40747,-1.487961,151.12,8.19,2.0,166.32,22 / 23,5724276,2019-09-07 12:02:37:430,-1.6702,0.5122,9.8025,-0.0002,-0.0014,9.8066,-0.006,0.0019,0.0032,-34.31,-26.19,29.38,302.1,-86.43,173.45
101457,52.40747,-1.487961,151.12,8.19,2.0,166.32,22 / 23,5724376,2019-09-07 12:02:37:530,-0.6788,-0.273,9.9579,0.0031,0.0024,9.8066,0.0173,0.0016,-0.0072,-35.06,-26.94,29.38,301.43,-86.48,173.62
101458,52.40747,-1.487961,151.12,8.19,2.0,166.32,22 / 23,5724475,2019-09-07 12:02:37:629,-0.1143,-0.779,9.8561,0.0106,-0.0038,9.8066,0.0324,0.0159,-0.0023,-34.62,-26.44,29.38,300.58,-86.38,172.77
101459,52.40747,-1.487961,151.12,8.19,2.0,166.32,22 / 23,5724576,2019-09-07 12:02:37:730,0.055,-0.8125,9.6724,0.0089,-0.0018,9.8066,0.012,0.0146,-0.0035,-34.19,-26.37,29.31,301.0,-86.24,172.47
101460,52.40747,-1.487961,151.12,8.19,2.0,166.32,22 / 23,5724675,2019-09-07 12:02:37:829,-0.1262,-0.7559,9.4008,0.0024,-0.0007,9.8066,-0.0082,-0.019,-0.0317,-34.5,-26.81,29.38,300.42,-86.16,172.02
101461,52.40747,-1.487961,151.12,8.19,2.0,166.32,22 / 23,5724775,2019-09-07 12:02:37:929,0.5172,-1.3522,10.1997,0.0012,0.0011,9.8066,0.0071,0.0353,0.0166,-34.31,-26.75,29.5,300.56,-86.18,171.15
101462,52.40747,-1.487961,151.12,8.19,2.0,166.32,22 / 23,5724875,2019-09-07 12:02:38:029,0.6627,-1.4505,9.9876,0.0058,-0.0066,9.8065,0.0365,0.0228,-0.0042,-34.19,-25.87,29.31,299.98,-86.13,171.53
101463,52.40747,-1.487961,151.12,8.19,2.0,166.32,22 / 23,5724977,2019-09-07 12:02:38:131,1.6316,-2.3234,10.5303,0.0227,-0.0151,9.8066,0.0841,0.0137,-0.0036,-34.69,-26.25,30.25,300.44,-85.94,171.88
101464,52.40747,-1.487961,151.12,8.19,2.0,166.32,22 / 23,5725075,2019-09-07 12:02:38:229,2.9666,-3.0787,9.4758,0.0186,-0.0142,9.8066,0.0962,0.0253,-0.0075,-34.75,-25.94,30.5,301.76,-85.47,172.45
101465,52.40747,-1.487961,151.12,8.19,2.0,166.32,22 / 23,5725175,2019-09-07 12:02:38:329,3.5831,-3.6792,9.4242,0.0223,-0.013,9.8066,0.0265,0.0084,-0.0152,-34.69,-25.62,30.44,300.74,-85.14,172.59
101466,52.40747,-1.487961,151.12,8.19,2.0,166.32,22 / 23,5725275,2019-09-07 12:02:38:429,3.1036,-3.1648,9.6468,0.0085,-0.0008,9.8066,0.0364,0.0503,0.002,-34.75,-26.12,30.75,301.48,-84.9,172.47
101467,52.40747,-1.487961,151.12,8.19,2.0,166.32,22 / 23,5725376,2019-09-07 12:02:38:530,2.8192,-2.9973,10.0724,0.0019,0.0075,9.8066,-0.0139,0.0329,-0.0131,-34.75,-26.25,30.81,301.06,-84.8,172.11
101468,52.40747,-1.487961,151.12,8.19,2.0,166.32,22 / 23,5725475,2019-09-07 12:02:38:629,2.6814,-3.2996,10.1394,0.0082,-0.0002,9.8066,0.0251,0.0845,-0.0083,-34.5,-26.31,30.13,299.77,-84.73,171.08
101469,52.40747,-1.487961,151.12,8.19,2.0,166.32,22 / 23,5725575,2019-09-07 12:02:38:729,2.9803,-2.9913,8.7297,0.0039,-0.0057,9.8066,0.0187,0.0827,0.0123,-35.0,-26.37,30.5,299.22,-84.62,170.42
101470,52.40747,-1.487961,151.12,8.19,2.0,166.32,22 / 23,5725678,2019-09-07 12:02:38:832,3.2488,-2.7613,9.5377,-0.0019,0.0083,9.8066,-0.0378,0.062,-0.0199,-34.81,-26.37,30.13,297.83,-84.63,170.02
101471,52.40747,-1.487961,151.12,8.19,2.0,166.32,22 / 23,5725776,2019-09-07 12:02:38:930,2.1662,-2.6831,10.1549,-0.0024,0.0112,9.8066,-0.0249,0.0878,-0.0244,-34.87,-25.94,30.25,297.37,-84.76,169.49
101472,52.40747,-1.487961,151.12,8.19,2.0,166.32,22 / 23,5725875,2019-09-07 12:02:39:029,2.9208,-2.8211,10.2595,0.0032,0.0032,9.8066,0.015,0.1165,-0.0092,-35.5,-26.19,30.13,296.38,-84.79,168.52
101473,52.40747,-1.487961,151.12,8.19,2.0,166.32,22 / 23,5725975,2019-09-07 12:02:39:129,3.1091,-2.6207,9.2985,0.0095,0.0063,9.8066,0.0001,0.0701,-0.0493,-34.94,-26.5,30.0,295.21,-84.72,167.41
101474,52.40747,-1.487961,151.12,8.19,2.0,166.32,22 / 23,5726075,2019-09-07 12:02:39:229,3.2459,-2.1382,9.4611,0.0099,0.0009,9.8066,-0.0029,0.0792,-0.0221,-35.0,-26.37,29.56,293.75,-84.61,166.03
101475,52.40747,-1.487961,151.12,8.19,2.0,166.32,22 / 23,5726175,2019-09-07 12:02:39:329,2.8937,-2.4143,9.3975,-0.0004,-0.0016,9.8066,0.0031,0.1251,0.004,-35.19,-25.94,29.44,292.81,-84.6,166.12
101476,52.40747,-1.487961,151.12,8.19,2.0,166.32,22 / 23,5726275,2019-09-07 12:02:39:429,2.1304,-3.0418,9.9746,0.0032,0.0016,9.8066,0.0266,0.11,-0.0376,-35.87,-26.37,29.63,293.04,-84.59,166.09
101477,52.40747,-1.487961,151.12,8.19,2.0,166.32,22 / 23,5726376,2019-09-07 12:02:39:530,2.9872,-2.8895,10.0917,0.0176,0.0021,9.8065,0.0203,0.0878,-0.0408,-35.44,-26.81,29.63,291.31,-84.33,163.91
101478,52.40747,-1.487961,151.12,8.19,2.0,166.32,22 / 23,5726475,2019-09-07 12:02:39:629,2.7157,-2.3194,9.623,0.0143,0.0163,9.8065,-0.0047,0.0803,-0.0719,-35.0,-26.62,29.56,289.24,-84.22,161.94
101479,52.40747,-1.487961,151.12,8.19,2.0,166.32,22 / 23,5726575,2019-09-07 12:02:39:729,3.2115,-2.0878,9.6357,-0.0086,0.0082,9.8066,-0.0336,0.147,0.0036,-35.25,-26.37,29.19,286.03,-84.17,159.68
101480,52.40747,-1.487961,151.12,8.19,2.0,166.32,22 / 23,5726676,2019-09-07 12:02:39:830,2.6637,-2.5554,10.6027,0.0002,0.0183,9.8066,-0.0224,0.0963,-0.0681,-35.25,-26.94,28.69,284.13,-84.35,157.82
101481,52.40747,-1.487961,151.12,8.19,2.0,166.32,22 / 23,5726775,2019-09-07 12:02:39:929,2.8439,-2.0185,9.7182,0.0113,0.0052,9.8065,0.0117,0.1282,-0.0207,-35.56,-26.25,28.56,281.31,-84.28,155.68
101482,52.40747,-1.487961,151.12,8.19,2.0,166.32,22 / 23,5726875,2019-09-07 12:02:40:029,2.6105,-2.1206,9.6065,0.0048,0.0124,9.8066,-0.0033,0.1066,-0.036,-35.75,-27.19,28.94,279.61,-84.17,154.18
101483,52.40747,-1.487961,151.12,8.19,2.0,166.32,22 / 23,5726975,2019-09-07 12:02:40:129,2.3471,-1.9179,9.7636,0.0129,0.0081,9.8066,-0.0036,0.0508,-0.0539,-35.19,-27.06,28.5,278.07,-83.97,152.03
101484,52.40747,-1.487961,151.12,8.19,2.0,166.32,22 / 23,5727075,2019-09-07 12:02:40:229,2.5604,-1.6587,8.9972,0.0068,0.0009,9.8066,0.0172,0.1032,0.0199,-35.37,-26.69,28.56,277.67,-83.9,151.68
101485,52.40747,-1.487961,151.12,8.19,2.0,166.32,22 / 23,5727175,2019-09-07 12:02:40:329,2.5308,-2.1351,9.4878,0.0033,0.0003,9.8066,-0.0046,0.0481,-0.016,-35.56,-27.12,27.94,275.9,-83.88,151.68
101486,52.40747,-1.487961,151.12,8.19,2.0,166.32,22 / 23,5727275,2019-09-07 12:02:40:429,2.209,-2.2304,9.9864,0.0077,0.0008,9.8066,-0.0007,0.0877,0.019,-35.5,-26.75,28.75,277.12,-83.78,151.2
101487,52.40747,-1.487961,151.12,8.19,2.0,166.32,22 / 23,5727376,2019-09-07 12:02:40:530,1.6057,-2.1776,10.6498,-0.0059,-0.0035,9.8066,-0.021,0.0165,-0.0062,-36.0,-27.06,28.19,274.51,-83.81,150.33
101488,52.40747,-1.487961,151.12,8.19,2.0,166.32,22 / 23,5727478,2019-09-07 12:02:40:632,2.5343,-2.1372,9.1627,0.004,-0.0079,9.8066,0.0038,0.032,0.0288,-35.81,-27.0,28.38,274.62,-83.81,150.44
101489,52.40747,-1.487961,151.12,8.19,2.0,166.32,22 / 23,5727577,2019-09-07 12:02:40:731,1.9832,-2.1608,8.7542,0.002,-0.0037,9.8065,0.0111,0.036,0.0126,-35.94,-27.06,27.88,275.65,-83.78,151.49
101490,52.40747,-1.487961,151.12,8.19,2.0,166.32,22 / 23,5727675,2019-09-07 12:02:40:829,1.6673,-2.4777,9.062,0.0018,-0.0006,9.8066,0.0005,-0.0551,-0.0523,-35.81,-27.0,28.19,275.44,-83.77,151.29
101491,52.40747,-1.487961,151.12,8.19,2.0,166.32,22 / 23,5727775,2019-09-07 12:02:40:929,1.8992,-2.5115,9.6754,0.0017,-0.0103,9.8066,0.0179,0.0155,0.0266,-36.31,-27.31,27.56,275.72,-83.7,151.61
101492,52.40747,-1.487961,151.12,8.19,2.0,166.32,22 / 23,5727876,2019-09-07 12:02:41:030,1.0067,-2.6311,11.0267,0.002,0.0036,9.8066,-0.0202,0.0018,-0.0198,-35.44,-27.0,28.0,276.23,-83.67,151.42
101493,52.40747,-1.487961,151.12,8.19,2.0,166.32,22 / 23,5727975,2019-09-07 12:02:41:129,1.8115,-1.5958,10.4294,-0.0056,0.0047,9.8066,-0.0079,0.0132,0.0185,-35.69,-27.62,28.13,274.22,-83.74,150.22
101494,52.40747,-1.487961,151.12,8.19,2.0,166.32,22 / 23,5728075,2019-09-07 12:02:41:229,0.9485,-1.8506,9.0867,-0.0018,-0.0171,9.8066,0.0179,-0.0034,0.0279,-35.69,-26.75,28.31,275.81,-83.78,151.65
101495,52.40747,-1.487961,151.12,8.19,2.0,166.32,22 / 23,5728175,2019-09-07 12:02:41:329,1.5562,-2.769,9.7737,-0.0024,-0.0071,9.8065,-0.0293,-0.0543,-0.0337,-35.62,-26.81,28.0,276.41,-83.76,152.25
101496,52.40747,-1.487961,151.12,8.19,2.0,166.32,22 / 23,5728276,2019-09-07 12:02:41:430,0.1381,-1.3464,9.7596,-0.015,0.0065,9.8066,-0.0504,0.0013,0.0447,-35.69,-27.69,28.06,277.1,-83.92,152.98
101497,52.40747,-1.487961,151.12,8.19,2.0,166.32,22 / 23,5728376,2019-09-07 12:02:41:530,0.3066,-1.9506,9.8602,-0.017,-0.0032,9.8065,-0.0535,-0.0874,-0.0023,-35.75,-26.12,27.88,277.02,-84.16,152.5
101498,52.40747,-1.487961,151.12,8.19,2.0,166.32,22 / 23,5728476,2019-09-07 12:02:41:630,-0.4535,-2.2472,10.2148,-0.011,-0.0086,9.8066,-0.0013,-0.0248,0.0309,-35.94,-27.06,27.88,278.59,-84.4,154.04
101499,52.40747,-1.487961,151.12,8.19,2.0,166.32,22 / 23,5728575,2019-09-07 12:02:41:729,-1.3145,-1.4819,10.1506,-0.0009,-0.0063,9.8066,0.0093,-0.0315,0.0511,-36.12,-26.62,28.5,280.88,-84.44,155.28
101500,52.40747,-1.487961,151.12,8.19,2.0,166.32,22 / 23,5728678,2019-09-07 12:02:41:832,-1.4501,-1.6116,10.0902,0.0083,-0.0025,9.8065,-0.0376,-0.1569,-0.0445,-35.37,-27.06,28.38,280.53,-84.35,155.28
101501,52.40747,-1.487961,151.12,8.19,2.0,166.32,22 / 23,5728775,2019-09-07 12:02:41:929,-1.226,-1.3913,10.3252,-0.0027,-0.0089,9.8066,0.0067,-0.0763,0.023,-35.75,-26.56,29.0,281.45,-84.36,155.89
101502,52.40747,-1.487961,151.12,8.19,2.0,166.32,22 / 23,5728878,2019-09-07 12:02:42:032,-0.7802,-1.987,9.9739,-0.0048,-0.0026,9.8066,-0.0026,-0.0999,0.0032,-35.69,-26.5,28.31,281.71,-84.42,157.01
101503,52.40747,-1.487961,151.12,8.19,2.0,166.32,22 / 23,5728975,2019-09-07 12:02:42:129,-0.3772,-2.1469,9.787,0.003,-0.0022,9.8066,0.0077,-0.0829,0.0091,-35.44,-27.19,28.69,283.05,-84.39,156.73
101504,52.40747,-1.487961,151.12,8.19,2.0,166.32,22 / 23,5729075,2019-09-07 12:02:42:229,-1.2397,-1.6911,10.5005,-0.0014,0.0003,9.8066,0.0005,-0.1176,0.0088,-35.19,-27.06,28.88,283.0,-84.39,156.67
101505,52.40747,-1.487961,151.12,8.19,2.0,166.32,22 / 23,5729175,2019-09-07 12:02:42:329,-0.8152,-1.0618,9.2236,0.0118,-0.0019,9.8066,0.016,-0.1298,-0.0244,-34.94,-27.25,28.81,282.4,-84.28,156.15
101506,52.40747,-1.487961,151.12,8.19,2.0,166.32,22 / 23,5729278,2019-09-07 12:02:42:432,-0.7459,-2.0694,9.6893,0.0059,-0.0148,9.8066,0.0226,-0.0724,0.0616,-34.62,-26.62,29.81,284.62,-84.15,157.42
101507,52.40747,-1.487961,151.12,8.19,2.0,166.32,22 / 23,5729376,2019-09-07 12:02:42:530,-0.7034,-2.2568,9.9461,-0.0076,-0.0007,9.8066,-0.0124,-0.1163,0.0243,-34.94,-26.62,29.56,284.93,-84.15,157.73
101508,52.40747,-1.487961,151.12,8.19,2.0,166.32,22 / 23,5729476,2019-09-07 12:02:42:630,-0.9342,-2.3606,10.5008,-0.0129,0.0066,9.8066,-0.0521,-0.1909,-0.0199,-34.62,-26.62,29.81,284.87,-84.33,157.56
