,GPS LATITUDE (degrees), GPS LONGITUDE (degrees), GPS ALTITUDE (m), GPS SPEED (Kmh), GPS ACCURACY (m), GPS ORIENTATION (Â°),GPS SATELLITES IN RANGE, TIME SINCE START (ms), DATE (YYYY-MO-DD HH-MI-SS_SSS), ACCELEROMETER X (m/s²) , ACCELEROMETER Y (m/s²), ACCELEROMETER Z (m/s²), GRAVITY X (m/s²), GRAVITY Y (m/s²), GRAVITY Z (m/s²), GYROSCOPE Yaw (rad/s), GYROSCOPE Pitch (rad/s), GYROSCOPE Roll (rad/s), MAGNETIC FIELD X (Î¼T), MAGNETIC FIELD Y (Î¼T), MAGNETIC FIELD Z (Î¼T), ORIENTATION (Yaw) (Â°), ORIENTATION (Pitch) (Â°), ORIENTATION (Roll ) (Â°)
36061,51.513775,-2.650286,54,21.36,9,231.2,14 / 20,3606123,2019-08-16 13:49:19:903,0.2043,0.327,10.5515,0.0312,-0.0038,9.8066,-0.017,-0.0155,0.0122,-11.04,27.25,-5.96,246.08,10.12,0.72
36062,51.513775,-2.650286,54,21.36,9,231.2,14 / 20,3606223,2019-08-16 13:49:20:003,0.131,-0.0718,9.6696,-0.0045,0.0248,9.8066,-0.0021,0.0484,0.0101,-11.07,26.96,-7.13,245.79,10.18,0.55
36063,51.513775,-2.650286,54,21.36,9,231.2,14 / 20,3606324,2019-08-16 13:49:20:104,0.1341,-0.2703,9.8422,-0.0135,0.016,9.8066,-0.0021,0.0484,0.0101,-10.17,27.69,-5.43,245.79,10.18,0.55
36064,51.513775,-2.650286,54,21.36,9,231.2,14 / 20,3606424,2019-08-16 13:49:20:204,0.3029,0.5202,10.0107,-0.0001,-0.009,9.8066,-0.0032,0.0431,-0.0016,-9.25,27.56,-7.42,250.01,10.23,0.66
36065,51.513775,-2.650286,54,21.36,9,231.2,14 / 20,3606523,2019-08-16 13:49:20:303,0.1947,0.1769,9.6655,0.0136,-0.0108,9.8066,-0.0128,-0.0485,-0.0027,-9.02,27.54,-7.77,249.71,10.2,0.56
36066,51.513775,-2.650286,54,21.36,9,231.2,14 / 20,3606623,2019-08-16 13:49:20:403,0.0069,0.6032,9.8209,0.0081,0.0023,9.8066,-0.032,-0.0006,0.008,-9.02,27.54,-7.77,249.71,10.2,0.56
36067,51.513775,-2.650286,54,21.36,9,231.2,14 / 20,3606723,2019-08-16 13:49:20:503,-0.1796,-0.0313,10.5811,0.0049,0.017,9.8066,-0.0117,0.025,0.0048,-9.78,27.8,-5.59,248.6,10.23,0.52
36068,51.51366,-2.650519,53,21.3,10,231.1,14 / 20,3606823,2019-08-16 13:49:20:603,0.0394,-0.2114,10.1658,-0.0009,-0.0103,9.8066,-0.0117,0.0122,0.0133,-9.08,27.71,-7.04,250.02,10.33,0.53
36069,51.51366,-2.650519,53,21.3,10,231.1,14 / 20,3606922,2019-08-16 13:49:20:702,-0.0015,0.4787,10.1515,-0.0211,-0.0069,9.8066,0.0171,-0.0272,0.0016,-10.07,27.41,-6.9,247.52,10.25,0.63
36070,51.51366,-2.650519,53,21.3,10,231.1,14 / 20,3607023,2019-08-16 13:49:20:803,0.2088,-0.259,9.2785,-0.0242,-0.0063,9.8066,0.0021,0.0037,0.0069,-10.07,27.41,-6.9,247.52,10.25,0.63
36071,51.51366,-2.650519,53,21.3,10,231.1,14 / 20,3607123,2019-08-16 13:49:20:903,0.0338,-0.0601,10.2104,-0.0301,-0.0236,9.8066,-0.0138,0.0069,-0.0037,-11.31,27.27,-5.35,246.4,10.05,0.75
36072,51.51366,-2.650519,53,21.3,10,231.1,14 / 20,3607223,2019-08-16 13:49:21:003,0.1844,0.055,9.7733,0.009,0.0151,9.8066,-0.0138,0.0069,-0.0037,-10.58,27.7,-4.56,246.4,10.05,0.75
36073,51.51366,-2.650519,53,21.3,10,231.1,14 / 20,3607323,2019-08-16 13:49:21:103,-0.4724,-0.0662,9.9809,0.0326,0.031,9.8065,0.0075,0.0037,0.0133,-10.65,27.22,-6.75,245.75,10.3,0.64
36074,51.51366,-2.650519,53,21.3,10,231.1,14 / 20,3607423,2019-08-16 13:49:21:203,0.067,-0.234,9.7134,0.0022,0.0339,9.8066,-0.0085,0.009,0.0144,-10.07,27.41,-6.9,245.75,10.3,0.64
36075,51.51366,-2.650519,53,21.3,10,231.1,14 / 20,3607523,2019-08-16 13:49:21:303,0.2966,0.3043,10.3386,0.0038,-0.0037,9.8066,-0.0064,0.0261,0.0176,-9.62,27.35,-7.72,247.12,10.51,0.71
36076,51.51366,-2.650519,53,21.3,10,231.1,14 / 20,3607622,2019-08-16 13:49:21:402,0.3536,-0.0414,10.5693,-0.0014,-0.004,9.8067,-0.0138,0.0197,0.0272,-9.62,27.35,-7.72,247.12,10.51,0.71
36077,51.51366,-2.650519,53,21.3,10,231.1,14 / 20,3607724,2019-08-16 13:49:21:504,0.2619,-0.2656,10.2989,0.0027,-0.0019,9.8067,-0.0021,-0.0101,0.0059,-9.08,27.71,-7.04,249.95,10.49,0.71
36078,51.51366,-2.650519,53,21.3,10,231.1,14 / 20,3607823,2019-08-16 13:49:21:603,0.2689,0.1924,10.0344,0.0079,0.0053,9.8066,0.0,0.0229,0.0144,-9.08,27.71,-7.04,249.95,10.49,0.71
36079,51.51366,-2.650519,53,21.3,10,231.1,14 / 20,3607923,2019-08-16 13:49:21:703,0.4635,0.4336,10.2506,0.013,0.014,9.8066,0.0075,-0.0655,0.0048,-8.93,27.95,-6.26,250.28,10.59,0.66
36080,51.51366,-2.650519,53,21.3,10,231.1,14 / 20,3608023,2019-08-16 13:49:21:803,0.0356,0.0417,9.86,-0.0043,0.0093,9.8066,0.0011,0.0421,-0.0069,-8.93,27.95,-6.26,250.28,10.59,0.66
36081,51.51366,-2.650519,53,21.3,10,231.1,14 / 20,3608123,2019-08-16 13:49:21:903,-0.3245,0.0275,9.2114,0.0055,0.0148,9.8066,0.0011,0.0421,-0.0069,-9.12,27.81,-6.58,250.28,10.59,0.66
36082,51.513535,-2.650769,53,21.28,10,231.1,14 / 20,3608223,2019-08-16 13:49:22:003,0.0425,-0.1006,11.6321,0.0316,-0.0064,9.8066,-0.0447,0.0176,0.0027,-10.44,27.33,-6.62,247.5,10.62,0.48
36083,51.513535,-2.650769,53,21.28,10,231.1,14 / 20,3608324,2019-08-16 13:49:22:104,0.0749,-0.543,12.3588,0.0028,-0.0462,9.8065,0.0021,0.1102,0.0165,-10.44,27.33,-6.62,247.5,10.62,0.48
36084,51.513535,-2.650769,53,21.28,10,231.1,14 / 20,3608423,2019-08-16 13:49:22:203,0.5906,-0.5413,8.2255,-0.0274,0.0112,9.8066,0.016,-0.1561,0.0069,-10.12,27.56,-6.17,248.62,10.38,0.35
36085,51.513535,-2.650769,53,21.28,10,231.1,14 / 20,3608523,2019-08-16 13:49:22:303,-0.409,-0.2083,10.0247,-0.0135,0.0129,9.8066,-0.0128,0.1113,0.0218,-9.58,27.9,-5.47,248.9,10.38,0.53
36086,51.513535,-2.650769,53,21.28,10,231.1,14 / 20,3608624,2019-08-16 13:49:22:404,0.2721,0.7628,9.6061,-0.0415,0.0096,9.8066,0.0298,0.0069,-0.025,-9.58,27.9,-5.47,248.9,10.38,0.53
36087,51.513535,-2.650769,53,21.28,10,231.1,14 / 20,3608723,2019-08-16 13:49:22:503,-0.3744,-0.3717,9.2039,0.0354,0.0525,9.8064,-0.0021,-0.0176,-0.0112,-8.42,28.33,-5.14,252.44,10.34,0.78
36088,51.513424,-2.650992,53,20.72,10,231.1,14 / 20,3608823,2019-08-16 13:49:22:603,-0.2356,-0.043,9.8409,0.0465,0.0927,9.8061,-0.0437,0.008,-0.0016,-2.31,28.61,-8.72,262.63,10.94,0.68
36089,51.513424,-2.650992,53,20.72,10,231.1,14 / 20,3608925,2019-08-16 13:49:22:705,-0.245,-0.4155,10.0689,0.0237,0.0041,9.8066,-0.0437,0.008,-0.0016,3.98,20.66,-21.38,262.63,10.94,0.68
36090,51.513424,-2.650992,53,20.72,10,231.1,14 / 20,3609023,2019-08-16 13:49:22:803,-0.0645,0.0573,10.5403,0.0375,-0.0385,9.8065,-0.0128,0.0783,0.0059,3.98,20.66,-21.38,262.63,10.94,0.68
36091,51.513424,-2.650992,53,20.72,10,231.1,14 / 20,3609123,2019-08-16 13:49:22:903,0.3389,0.0226,9.7785,-0.0086,-0.029,9.8066,0.0234,0.009,-0.0027,-14.45,20.12,-16.92,229.53,10.75,0.43
36092,51.513424,-2.650992,53,20.72,10,231.1,14 / 20,3609223,2019-08-16 13:49:23:003,0.1054,0.0456,9.1487,-0.0145,-0.0149,9.8066,0.0245,-0.0325,0.0059,-16.4,23.98,-7.49,229.53,10.75,0.43
36093,51.513424,-2.650992,53,20.72,10,231.1,14 / 20,3609323,2019-08-16 13:49:23:103,0.3742,0.1585,9.2353,-0.0301,0.0122,9.8066,0.032,-0.008,0.0112,-14.79,25.77,-4.14,239.1,10.69,0.62
36094,51.513424,-2.650992,53,20.72,10,231.1,14 / 20,3609424,2019-08-16 13:49:23:204,0.1462,-0.1238,9.2023,0.0245,0.0037,9.8066,0.0021,-0.057,-0.0101,-13.83,26.17,-4.9,240.4,10.61,0.67
36095,51.513424,-2.650992,53,20.72,10,231.1,14 / 20,3609523,2019-08-16 13:49:23:303,0.4058,0.9222,10.036,0.0461,0.0483,9.8064,0.0,-0.0144,0.0197,-13.83,26.17,-4.9,240.4,10.61,0.67
36096,51.513424,-2.650992,53,20.72,10,231.1,14 / 20,3609623,2019-08-16 13:49:23:403,0.8578,0.4862,9.5095,-0.0055,0.0383,9.8066,0.0149,0.09,-0.025,-12.94,26.65,-4.71,242.94,10.98,0.57
36097,51.513424,-2.650992,53,20.72,10,231.1,14 / 20,3609723,2019-08-16 13:49:23:503,0.0624,-0.16,9.4574,-0.021,-0.0345,9.8066,0.0149,0.09,-0.025,-12.15,27.03,-4.66,244.57,11.17,0.7
36098,51.513306,-2.651233,54,21.22,10,231.1,14 / 20,3609823,2019-08-16 13:49:23:603,0.0122,0.0618,10.4017,-0.0252,-0.0538,9.8065,-0.0085,0.107,0.0091,-12.69,26.79,-4.62,242.92,10.82,0.7
36099,51.513306,-2.651233,54,21.22,10,231.1,14 / 20,3609924,2019-08-16 13:49:23:704,-0.0801,-0.0102,9.8601,-0.0086,-0.0129,9.8066,-0.033,0.0527,-0.0123,-12.69,26.79,-4.62,242.92,10.82,0.7
36100,51.513306,-2.651233,54,21.22,10,231.1,14 / 20,3610023,2019-08-16 13:49:23:803,-0.1632,-0.4194,8.7816,0.0044,-0.0208,9.8066,0.0032,0.0538,0.0101,-12.69,26.72,-5.02,242.93,10.73,0.71
36101,51.513306,-2.651233,54,21.22,10,231.1,14 / 20,3610123,2019-08-16 13:49:23:903,0.0042,-0.2247,9.415,0.0069,-0.0237,9.8066,0.0096,-0.0176,0.0005,-13.44,26.56,-3.74,243.28,10.63,0.61
36102,51.513306,-2.651233,54,21.22,10,231.1,14 / 20,3610224,2019-08-16 13:49:24:004,-0.2532,-0.3375,8.6843,0.0175,0.0182,9.8066,-0.0415,0.0186,0.0165,-13.65,26.32,-4.54,243.28,10.63,0.61
36103,51.513306,-2.651233,54,21.22,10,231.1,14 / 20,3610324,2019-08-16 13:49:24:104,-0.0276,0.3036,9.746,0.04,0.0612,9.8064,-0.0298,-0.0261,0.0059,-13.23,26.55,-4.47,243.27,11.05,0.56
36104,51.513306,-2.651233,54,21.22,10,231.1,14 / 20,3610423,2019-08-16 13:49:24:203,0.6908,-0.1118,9.4333,0.0387,-0.0077,9.8066,-0.0298,-0.0261,0.0059,-13.23,26.55,-4.47,243.27,11.05,0.56
36105,51.513306,-2.651233,54,21.22,10,231.1,14 / 20,3610523,2019-08-16 13:49:24:303,0.0284,-0.0997,9.9234,-0.0032,-0.0237,9.8066,0.0234,0.0634,0.0027,-10.71,27.08,-7.23,245.7,11.11,0.34
36106,51.513306,-2.651233,54,21.22,10,231.1,14 / 20,3610623,2019-08-16 13:49:24:403,-0.014,0.1529,9.7636,-0.0278,-0.023,9.8066,0.0149,0.0005,0.0229,-9.53,27.74,-6.32,248.55,10.98,0.3
36107,51.513306,-2.651233,54,21.22,10,231.1,14 / 20,3610725,2019-08-16 13:49:24:505,0.3324,-0.0802,9.3324,-0.0403,0.0042,9.8066,0.0309,-0.0538,0.0069,-9.53,27.74,-6.32,248.55,10.98,0.3
36108,51.513184,-2.651478,53,21.21,10,231.2,14 / 20,3610823,2019-08-16 13:49:24:603,-0.0955,-0.1435,9.2904,0.0062,-0.011,9.8066,-0.0074,-0.0357,0.0048,-8.96,27.94,-6.24,250.27,10.92,0.53
36109,51.513184,-2.651478,53,21.21,10,231.2,14 / 20,3610923,2019-08-16 13:49:24:703,-0.1993,0.5043,10.8511,0.0163,0.0216,9.8066,0.016,-0.0474,-0.0069,-9.09,28.35,-3.72,250.97,11.07,0.48
36110,51.513184,-2.651478,53,21.21,10,231.2,14 / 20,3611023,2019-08-16 13:49:24:803,0.1684,-0.467,10.171,0.0133,-0.0036,9.8066,-0.0383,-0.0815,0.0122,-9.09,28.35,-3.72,250.97,11.07,0.48
36111,51.513184,-2.651478,53,21.21,10,231.2,14 / 20,3611123,2019-08-16 13:49:24:903,-0.3385,-0.3914,9.1168,0.0216,0.0135,9.8066,-0.0383,-0.0815,0.0122,-10.83,27.91,-1.93,248.16,11.18,0.38
36112,51.513184,-2.651478,53,21.21,10,231.2,14 / 20,3611224,2019-08-16 13:49:25:004,-0.5684,-0.0848,9.1053,0.0142,0.0043,9.8066,-0.0074,0.074,0.0112,-12.11,27.39,-1.77,245.69,11.24,0.32
36113,51.513184,-2.651478,53,21.21,10,231.2,14 / 20,3611323,2019-08-16 13:49:25:103,0.1939,0.1025,9.9203,0.0124,0.0087,9.8066,0.0085,0.0634,0.0005,-12.19,27.29,-2.62,245.69,11.24,0.32
36114,51.513184,-2.651478,53,21.21,10,231.2,14 / 20,3611423,2019-08-16 13:49:25:203,-0.2573,0.1297,9.6787,0.0035,-0.0008,9.8067,-0.016,-0.0144,0.0133,-12.7,26.87,-4.07,243.32,11.24,0.29
36115,51.513184,-2.651478,53,21.21,10,231.2,14 / 20,3611523,2019-08-16 13:49:25:303,-0.5941,0.1701,10.0607,-0.0144,-0.0086,9.8066,0.0117,0.0452,0.025,-12.7,26.87,-4.07,243.32,11.24,0.29
36116,51.513184,-2.651478,53,21.21,10,231.2,14 / 20,3611623,2019-08-16 13:49:25:403,0.0885,-0.2534,10.3512,0.0104,0.0124,9.8066,-0.0106,-0.0048,-0.0091,-12.23,26.78,-5.78,244.32,11.16,0.35
36117,51.513184,-2.651478,53,21.21,10,231.2,14 / 20,3611724,2019-08-16 13:49:25:504,0.4159,0.4197,9.1357,0.0239,0.0035,9.8066,-0.0032,-0.0176,-0.0197,-11.95,27.03,-5.15,244.68,11.24,0.23
36118,51.513065,-2.651711,53,21.01,10,231.1,14 / 20,3611823,2019-08-16 13:49:25:603,0.1319,-0.5735,9.7191,0.0218,-0.0095,9.8066,0.0149,0.0175,0.0144,-11.95,27.03,-5.15,244.68,11.24,0.23
36119,51.513065,-2.651711,53,21.01,10,231.1,14 / 20,3611923,2019-08-16 13:49:25:703,0.3475,0.0068,10.1737,0.0163,-0.004,9.8066,0.0181,0.0207,-0.0048,-11.49,27.27,-4.95,244.68,11.24,0.23
36120,51.513065,-2.651711,53,21.01,10,231.1,14 / 20,3612023,2019-08-16 13:49:25:803,0.159,-0.1659,10.1163,-0.0096,-0.0016,9.8066,0.0181,0.0207,-0.0048,-11.14,27.14,-6.27,246.08,11.26,0.13
36121,51.513065,-2.651711,53,21.01,10,231.1,14 / 20,3612123,2019-08-16 13:49:25:903,0.0396,0.5245,9.5811,-0.0166,0.0019,9.8066,0.0021,-0.0283,0.0005,-11.38,27.01,-6.4,246.06,11.23,0.23
36122,51.513065,-2.651711,53,21.01,10,231.1,14 / 20,3612223,2019-08-16 13:49:26:003,0.2515,0.1111,9.7331,-0.0176,-0.034,9.8066,0.0128,0.0005,0.0091,-11.34,27.03,-6.38,246.06,11.23,0.23
36123,51.513065,-2.651711,53,21.01,10,231.1,14 / 20,3612324,2019-08-16 13:49:26:104,-0.0003,-0.1935,8.6952,-0.0246,-0.0582,9.8064,0.0,0.0112,0.0037,-11.34,27.03,-6.38,246.06,11.23,0.23
36124,51.513065,-2.651711,53,21.01,10,231.1,14 / 20,3612423,2019-08-16 13:49:26:203,-0.5578,-0.0438,9.6658,0.0175,0.0218,9.8066,-0.0138,-0.0197,-0.0091,-12.02,26.33,-7.87,242.86,10.86,0.22
36125,51.513065,-2.651711,53,21.01,10,231.1,14 / 20,3612523,2019-08-16 13:49:26:303,0.3738,-0.1969,10.2767,0.0432,0.0253,9.8065,-0.0096,-0.0197,-0.0144,-12.15,26.38,-7.52,242.84,11.02,0.19
36126,51.513065,-2.651711,53,21.01,10,231.1,14 / 20,3612623,2019-08-16 13:49:26:403,0.3166,-0.2366,9.4778,0.0576,0.0247,9.8065,-0.0277,0.0239,0.0027,-12.76,26.28,-6.84,242.84,11.02,0.19
36127,51.513065,-2.651711,53,21.01,10,231.1,14 / 20,3612724,2019-08-16 13:49:26:504,-0.075,0.234,9.6514,0.0521,0.024,9.8065,-0.0277,0.0239,0.0027,-12.22,26.52,-6.9,244.06,11.28,-0.02
36128,51.512947,-2.651933,53,20.44,10,231.1,14 / 20,3612823,2019-08-16 13:49:26:603,0.1147,-0.3114,10.2199,-0.0057,-0.0102,9.8066,0.0575,0.008,-0.0261,-12.22,26.52,-6.9,244.06,11.28,-0.02
36129,51.512947,-2.651933,53,20.44,10,231.1,14 / 20,3612923,2019-08-16 13:49:26:703,-0.0389,-0.3643,10.1111,-0.0089,-0.0145,9.8066,0.0224,0.0367,-0.0176,-12.22,27.04,-4.45,245.08,11.21,-0.02
36130,51.512947,-2.651933,53,20.44,10,231.1,14 / 20,3613023,2019-08-16 13:49:26:803,-0.0974,-0.4043,10.5812,-0.0097,-0.0465,9.8065,0.0075,-0.0485,-0.0048,-11.29,27.56,-3.62,245.08,11.21,-0.02
36131,51.512947,-2.651933,53,20.44,10,231.1,14 / 20,3613123,2019-08-16 13:49:26:903,0.1245,-0.0241,10.0524,-0.0023,-0.0558,9.8065,0.0245,-0.0517,0.008,-9.85,28.09,-3.77,249.34,10.91,-0.15
36132,51.512947,-2.651933,53,20.44,10,231.1,14 / 20,3613223,2019-08-16 13:49:27:003,-0.0815,0.3448,9.3823,-0.0027,0.0058,9.8067,0.0171,0.0602,0.0091,-9.85,28.09,-3.77,249.34,10.91,-0.15
36133,51.512947,-2.651933,53,20.44,10,231.1,14 / 20,3613323,2019-08-16 13:49:27:103,-0.0876,-0.0551,9.8551,-0.0092,-0.0046,9.8066,-0.0245,0.0026,-0.0101,-8.99,28.04,-5.76,250.41,11.01,-0.1
36134,51.512947,-2.651933,53,20.44,10,231.1,14 / 20,3613423,2019-08-16 13:49:27:203,-0.2026,0.0043,10.8807,-0.0103,0.0279,9.8066,0.0075,0.0112,-0.024,-9.64,27.5,-7.13,250.41,11.01,-0.1
36135,51.512947,-2.651933,53,20.44,10,231.1,14 / 20,3613523,2019-08-16 13:49:27:303,-0.2131,-0.2636,9.5187,-0.0076,-0.0004,9.8066,0.0075,0.0112,-0.024,-9.77,27.22,-7.96,247.18,11.14,0.02
36136,51.512947,-2.651933,53,20.44,10,231.1,14 / 20,3613623,2019-08-16 13:49:27:403,-0.3315,0.1924,9.4889,-0.0218,-0.0063,9.8066,-0.016,0.0506,0.0293,-10.13,27.58,-6.07,248.58,11.06,0.12
36137,51.512947,-2.651933,53,20.44,10,231.1,14 / 20,3613723,2019-08-16 13:49:27:503,0.2364,0.328,9.7478,0.0084,-0.0389,9.8066,-0.0362,0.0293,0.0101,-10.13,27.58,-6.07,248.58,11.06,0.12
36138,51.51284,-2.652145,53,20.25,10,231.5,14 / 20,3613823,2019-08-16 13:49:27:603,-0.0089,-0.2272,9.7056,0.0017,-0.0361,9.8066,-0.0032,-0.0453,0.0027,-9.82,27.23,-7.88,247.23,10.87,0.03
36139,51.51284,-2.652145,53,20.25,10,231.5,14 / 20,3613923,2019-08-16 13:49:27:703,-0.0155,-0.2249,8.8198,0.0049,0.0189,9.8066,-0.0053,-0.0368,0.008,-9.82,27.23,-7.88,247.23,10.87,0.03
36140,51.51284,-2.652145,53,20.25,10,231.5,14 / 20,3614023,2019-08-16 13:49:27:803,-0.2741,-0.1759,10.9014,0.0102,0.011,9.8066,0.0107,0.0293,-0.0101,-9.08,27.74,-6.93,250.03,10.98,0.05
36141,51.51284,-2.652145,53,20.25,10,231.5,14 / 20,3614124,2019-08-16 13:49:27:904,0.2837,0.376,10.0623,-0.0045,-0.0145,9.8066,0.0309,0.025,0.0069,-10.07,27.43,-6.8,250.03,10.98,0.05
36142,51.51284,-2.652145,53,20.25,10,231.5,14 / 20,3614224,2019-08-16 13:49:28:004,-0.3347,-0.4468,9.7348,-0.0338,-0.0001,9.8066,-0.0234,-0.0677,0.0005,-10.34,27.47,-6.19,247.91,10.89,0.05
36143,51.51284,-2.652145,53,20.25,10,231.5,14 / 20,3614323,2019-08-16 13:49:28:103,-0.2628,0.2936,10.0807,-0.0266,0.0177,9.8066,0.0341,-0.0623,-0.008,-10.18,27.71,-5.33,247.91,10.89,0.05
36144,51.51284,-2.652145,53,20.25,10,231.5,14 / 20,3614423,2019-08-16 13:49:28:203,0.0689,-0.1352,9.7104,-0.0044,0.0022,9.8066,0.0341,-0.0623,-0.008,-10.13,27.58,-6.07,248.57,10.93,0.23
36145,51.51284,-2.652145,53,20.25,10,231.5,14 / 20,3614523,2019-08-16 13:49:28:303,-0.533,-0.1528,9.661,-0.0172,-0.0105,9.8066,-0.0032,0.0165,0.0069,-10.13,27.58,-6.07,248.57,10.93,0.23
36146,51.51284,-2.652145,53,20.25,10,231.5,14 / 20,3614623,2019-08-16 13:49:28:403,-0.121,-0.09,10.2901,-0.0267,0.0225,9.8066,0.0075,0.0463,0.0293,-10.28,27.32,-6.94,247.51,10.83,0.31
36147,51.51284,-2.652145,53,20.25,10,231.5,14 / 20,3614723,2019-08-16 13:49:28:503,-0.4984,-0.0827,10.52,-0.0246,0.032,9.8066,0.0117,0.0314,0.0091,-9.18,28.02,-5.52,250.27,10.95,0.51
36148,51.512733,-2.652369,53,20.14,10,231.4,14 / 19,3614823,2019-08-16 13:49:28:603,0.0472,0.0236,9.0753,-0.017,0.0105,9.8066,-0.0437,0.0144,0.0197,-9.18,28.02,-5.52,250.27,10.95,0.51
36149,51.512733,-2.652369,53,20.14,10,231.4,14 / 19,3614923,2019-08-16 13:49:28:703,-0.4042,-0.3609,9.7568,0.0033,-0.003,9.8067,-0.0128,0.0974,0.0378,-9.96,27.11,-8.12,247.05,10.98,0.63
36150,51.512733,-2.652369,53,20.14,10,231.4,14 / 19,3615023,2019-08-16 13:49:28:803,0.2075,-0.1941,10.3143,0.0054,-0.0108,9.8066,-0.0011,0.0282,0.0272,-9.88,27.53,-6.66,248.15,10.93,0.58
36151,51.512733,-2.652369,53,20.14,10,231.4,14 / 19,3615123,2019-08-16 13:49:28:903,0.5942,-0.2224,9.7815,0.0094,0.0167,9.8066,-0.016,-0.008,0.0091,-9.88,27.53,-6.66,248.15,10.93,0.58
36152,51.512733,-2.652369,53,20.14,10,231.4,14 / 19,3615223,2019-08-16 13:49:29:003,0.1334,0.4877,9.0578,-0.0137,-0.0208,9.8066,-0.016,-0.008,0.0091,-10.7,27.37,-6.02,245.99,11.0,0.59
36153,51.512733,-2.652369,53,20.14,10,231.4,14 / 19,3615323,2019-08-16 13:49:29:103,-0.7931,-0.555,9.2907,0.0102,-0.0261,9.8066,-0.0309,0.0016,0.0122,-10.7,27.37,-6.02,246.01,10.86,0.62
36154,51.512733,-2.652369,53,20.14,10,231.4,14 / 19,3615422,2019-08-16 13:49:29:202,-0.4312,0.1246,9.3906,0.0159,-0.0314,9.8066,-0.0565,-0.0165,0.0016,-10.66,27.25,-6.64,245.73,10.73,0.45
36155,51.512733,-2.652369,53,20.14,10,231.4,14 / 19,3615523,2019-08-16 13:49:29:303,0.0868,0.139,10.0647,0.0143,0.0064,9.8066,0.0171,-0.0027,-0.0112,-10.53,26.91,-8.06,245.73,10.73,0.45
36156,51.512733,-2.652369,53,20.14,10,231.4,14 / 19,3615623,2019-08-16 13:49:29:403,0.2697,-0.2478,9.3128,0.0278,0.018,9.8066,-0.0149,0.008,0.0176,-10.53,26.91,-8.06,245.73,10.73,0.45
36157,51.512733,-2.652369,53,20.14,10,231.4,14 / 19,3615723,2019-08-16 13:49:29:503,0.6024,0.2706,9.4773,0.0222,0.0439,9.8065,-0.0149,-0.0059,-0.0048,-9.83,27.26,-7.77,247.09,11.02,0.44
36158,51.512623,-2.652588,53,19.55,10,231.3,14 / 20,3615823,2019-08-16 13:49:29:603,0.5591,0.5311,10.6259,-0.008,0.0146,9.8066,0.0309,-0.0038,-0.0261,-11.37,26.75,-7.44,245.66,11.08,0.52
36159,51.512623,-2.652588,53,19.55,10,231.3,14 / 20,3615923,2019-08-16 13:49:29:703,0.2152,0.0643,10.8211,-0.0126,-0.0195,9.8066,0.0085,0.0058,0.0069,-11.37,26.75,-7.44,245.66,11.08,0.52
36160,51.512623,-2.652588,53,19.55,10,231.3,14 / 20,3616023,2019-08-16 13:49:29:803,-0.0374,-0.345,9.6238,-0.0057,-0.0378,9.8066,0.0085,0.0058,0.0069,-10.29,27.34,-6.83,247.44,10.78,0.58
36161,51.512623,-2.652588,53,19.55,10,231.3,14 / 20,3616123,2019-08-16 13:49:29:903,0.1349,0.1411,9.3288,-0.006,-0.0515,9.8065,-0.0213,0.0197,0.0122,-10.29,27.34,-6.83,247.44,10.78,0.58
36162,51.512623,-2.652588,53,19.55,10,231.3,14 / 20,3616223,2019-08-16 13:49:30:003,0.3276,-0.8235,8.648,0.0104,-0.0098,9.8066,-0.0043,0.0921,0.0048,-11.1,27.39,-5.14,246.41,10.49,0.5
36163,51.512623,-2.652588,53,19.55,10,231.3,14 / 20,3616322,2019-08-16 13:49:30:102,-0.2285,0.2175,9.8852,-0.0124,0.0139,9.8066,-0.0021,0.0527,-0.0123,-11.1,27.39,-5.14,246.43,10.46,0.42
36164,51.512623,-2.652588,53,19.55,10,231.3,14 / 20,3616424,2019-08-16 13:49:30:204,0.0278,-0.5235,9.1511,-0.0014,0.0149,9.8066,-0.0085,0.0335,0.0154,-11.1,27.39,-5.14,246.43,10.46,0.42
36165,51.512623,-2.652588,53,19.55,10,231.3,14 / 20,3616523,2019-08-16 13:49:30:303,-0.1423,0.1381,10.1722,0.018,0.0308,9.8066,0.0043,0.0186,0.0005,-10.8,27.26,-6.35,246.08,10.54,0.46
36166,51.512623,-2.652588,53,19.55,10,231.3,14 / 20,3616623,2019-08-16 13:49:30:403,0.3117,0.017,9.3615,0.0315,0.0452,9.8065,-0.0117,0.0783,0.0165,-10.8,26.96,-7.5,245.38,10.85,0.4
36167,51.512623,-2.652588,53,19.55,10,231.3,14 / 20,3616723,2019-08-16 13:49:30:503,-0.703,-0.0044,10.8074,-0.002,-0.0056,9.8066,-0.0011,-0.0101,0.0027,-10.8,26.96,-7.5,245.38,10.85,0.4
36168,51.512512,-2.652805,53,19.44,10,231.4,14 / 20,3616823,2019-08-16 13:49:30:603,-0.2124,0.3454,9.6949,0.0104,-0.0113,9.8066,-0.0011,-0.0101,0.0027,-9.5,27.65,-6.74,249.97,10.82,0.4
36169,51.512512,-2.652805,53,19.44,10,231.4,14 / 20,3616923,2019-08-16 13:49:30:703,-0.4576,-0.5346,10.1376,0.0029,-0.041,9.8066,0.0043,-0.0474,-0.008,-10.5,27.22,-6.97,249.97,10.82,0.4
36170,51.512512,-2.652805,53,19.44,10,231.4,14 / 20,3617023,2019-08-16 13:49:30:803,0.0575,-0.1222,11.2157,0.0126,-0.0082,9.8066,-0.0224,-0.0027,-0.0005,-11.27,27.15,-5.98,246.12,10.56,0.29
36171,51.512512,-2.652805,53,19.44,10,231.4,14 / 20,3617123,2019-08-16 13:49:30:903,0.3116,-0.5455,9.9263,-0.0061,-0.019,9.8066,0.0171,-0.0805,-0.0144,-11.27,27.15,-5.98,246.15,10.54,0.2
36172,51.512512,-2.652805,53,19.44,10,231.4,14 / 20,3617224,2019-08-16 13:49:31:004,-0.0005,-0.1933,10.7928,-0.019,-0.0175,9.8066,0.0309,-0.0528,-0.0048,-11.27,27.15,-5.98,246.15,10.54,0.2
36173,51.512512,-2.652805,53,19.44,10,231.4,14 / 20,3617323,2019-08-16 13:49:31:103,0.3663,0.0911,10.4207,0.0176,0.0056,9.8066,-0.0224,0.0133,0.0186,-11.32,27.28,-5.25,246.47,10.41,0.26
36174,51.512512,-2.652805,53,19.44,10,231.4,14 / 20,3617423,2019-08-16 13:49:31:203,-0.0799,-0.4025,9.913,0.0034,0.006,9.8066,-0.0575,0.0697,-0.0059,-11.27,27.15,-5.98,246.14,10.44,0.26
36175,51.512512,-2.652805,53,19.44,10,231.4,14 / 20,3617523,2019-08-16 13:49:31:303,0.1521,-0.1528,9.8527,-0.0005,-0.0223,9.8066,0.0043,0.0389,0.0069,-11.43,26.89,-6.83,246.14,10.44,0.26
36176,51.512512,-2.652805,53,19.44,10,231.4,14 / 20,3617623,2019-08-16 13:49:31:403,-0.0548,0.1322,8.9315,0.0029,-0.0255,9.8066,0.0043,0.0389,0.0069,-11.37,26.75,-7.44,245.86,10.32,0.18
36177,51.512512,-2.652805,53,19.44,10,231.4,14 / 20,3617723,2019-08-16 13:49:31:503,-0.1897,-0.1052,9.6828,-0.015,0.0021,9.8066,0.0139,-0.0336,0.0165,-11.37,26.75,-7.44,245.86,10.32,0.18
36178,51.512417,-2.653016,53,19.16,10,231.4,14 / 20,3617823,2019-08-16 13:49:31:603,-0.0076,-0.2256,9.803,-0.0267,-0.0044,9.8066,0.0053,0.0058,0.0176,-11.92,26.79,-6.32,244.43,10.23,0.31
36179,51.512417,-2.653016,53,19.16,10,231.4,14 / 20,3617924,2019-08-16 13:49:31:704,-0.0997,-0.4676,10.6876,-0.0126,-0.0091,9.8066,0.0181,-0.0112,-0.0027,-11.99,26.68,-6.67,244.43,10.23,0.31
36180,51.512417,-2.653016,53,19.16,10,231.4,14 / 20,3618023,2019-08-16 13:49:31:803,-0.1695,-0.0355,10.2131,-0.0253,-0.0115,9.8066,0.0032,-0.0165,0.0059,-11.99,26.68,-6.67,244.43,10.23,0.31
36181,51.512417,-2.653016,53,19.16,10,231.4,14 / 20,3618123,2019-08-16 13:49:31:903,0.0391,-0.4661,8.6137,0.0129,0.02,9.8066,0.0064,-0.0272,-0.008,-11.27,27.15,-5.98,246.15,10.1,0.42
36182,51.512417,-2.653016,53,19.16,10,231.4,14 / 20,3618223,2019-08-16 13:49:32:003,-0.0883,0.1091,10.0967,0.0024,-0.0048,9.8067,-0.0021,-0.0272,0.0186,-11.27,27.15,-5.98,246.16,10.19,0.34
36183,51.512417,-2.653016,53,19.16,10,231.4,14 / 20,3618323,2019-08-16 13:49:32:103,-0.6738,-0.17,9.8207,-0.0164,-0.0253,9.8066,-0.0106,0.0218,0.0005,-11.49,27.03,-6.09,246.16,10.19,0.34
36184,51.512417,-2.653016,53,19.16,10,231.4,14 / 20,3618423,2019-08-16 13:49:32:203,-0.6964,-0.0786,10.2048,-0.038,-0.0499,9.8065,-0.0106,0.0218,0.0005,-11.49,27.03,-6.09,246.16,10.19,0.34
36185,51.512417,-2.653016,53,19.16,10,231.4,14 / 20,3618523,2019-08-16 13:49:32:303,-0.0951,-0.3941,9.7259,0.0031,-0.0006,9.8067,-0.0415,0.0303,0.025,-11.92,27.17,-4.47,245.06,9.83,0.42
36186,51.512417,-2.653016,53,19.16,10,231.4,14 / 20,3618623,2019-08-16 13:49:32:403,-0.1201,-0.0431,8.6133,0.009,-0.0211,9.8066,-0.0106,0.008,-0.0027,-11.63,26.8,-6.83,244.19,9.74,0.32
36187,51.512417,-2.653016,53,19.16,10,231.4,14 / 20,3618723,2019-08-16 13:49:32:503,0.3755,0.4229,9.244,-0.0038,-0.0224,9.8066,0.0288,0.0634,-0.0005,-11.99,26.94,-5.55,244.51,9.61,0.28
36188,51.512306,-2.65323,53,19.05,10,231.4,14 / 20,3618823,2019-08-16 13:49:32:603,-0.3757,-0.0701,9.5263,-0.008,0.0091,9.8066,0.033,0.0229,0.0122,-11.99,26.94,-5.55,244.51,9.61,0.28
36189,51.512306,-2.65323,53,19.05,10,231.4,14 / 20,3618923,2019-08-16 13:49:32:703,0.0537,-0.3523,9.6392,-0.0085,0.0147,9.8066,0.0096,-0.0325,-0.0091,-10.91,26.99,-7.24,245.92,9.64,0.35
36190,51.512306,-2.65323,53,19.05,10,231.4,14 / 20,3619023,2019-08-16 13:49:32:803,0.1008,0.1688,9.6391,-0.0025,0.0204,9.8066,-0.0011,-0.024,0.0176,-9.83,27.26,-7.77,247.35,9.74,0.41
36191,51.512306,-2.65323,53,19.05,10,231.4,14 / 20,3619123,2019-08-16 13:49:32:903,-0.0668,0.2284,10.346,-0.0016,-0.0042,9.8066,-0.0011,-0.024,0.0176,-9.83,27.26,-7.77,247.35,9.74,0.41
36192,51.512306,-2.65323,53,19.05,10,231.4,14 / 20,3619223,2019-08-16 13:49:33:003,0.0399,-0.3143,10.0626,0.0023,-0.0225,9.8066,-0.0064,0.0357,0.008,-12.68,26.26,-7.05,241.59,9.66,0.5
36193,51.512306,-2.65323,53,19.05,10,231.4,14 / 20,3619323,2019-08-16 13:49:33:103,-0.2743,-0.3191,10.3114,-0.0033,-0.032,9.8066,0.0181,-0.024,-0.0091,-13.05,26.31,-6.1,241.59,9.66,0.5
36194,51.512306,-2.65323,53,19.05,10,231.4,14 / 20,3619423,2019-08-16 13:49:33:203,0.2621,-0.4569,10.1443,0.0008,-0.0105,9.8066,-0.0245,-0.0293,0.0112,-13.17,26.55,-4.68,243.1,9.49,0.43
36195,51.512306,-2.65323,53,19.05,10,231.4,14 / 20,3619523,2019-08-16 13:49:33:303,0.3285,-0.2247,10.6897,0.006,0.0088,9.8066,-0.0032,-0.0176,-0.0091,-11.14,27.14,-6.27,246.22,9.55,0.42
36196,51.512306,-2.65323,53,19.05,10,231.4,14 / 20,3619622,2019-08-16 13:49:33:402,-0.4466,0.3367,10.5722,0.0213,0.0152,9.8066,0.0149,-0.0709,0.0059,-11.14,27.14,-6.27,246.22,9.55,0.42
36197,51.512306,-2.65323,53,19.05,10,231.4,14 / 20,3619722,2019-08-16 13:49:33:502,-0.1378,-0.0164,9.9824,-0.011,-0.0021,9.8066,-0.0074,0.0261,0.0101,-10.74,27.26,-6.43,246.22,9.68,0.34
36198,51.5122,-2.653444,54,19.03,10,231.3,14 / 20,3619823,2019-08-16 13:49:33:603,0.0082,0.2358,10.1726,-0.0234,-0.005,9.8066,0.0362,-0.0719,0.0037,-10.97,27.14,-6.57,246.22,9.68,0.34
36199,51.5122,-2.653444,54,19.03,10,231.3,14 / 20,3619923,2019-08-16 13:49:33:703,-0.1459,0.0929,10.0199,-0.0451,-0.0367,9.8065,0.0362,-0.0719,0.0037,-10.52,27.4,-6.19,246.23,9.38,0.5
36200,51.5122,-2.653444,54,19.03,10,231.3,14 / 20,3620023,2019-08-16 13:49:33:803,-0.4158,-0.4303,9.3866,-0.0169,-0.0395,9.8066,-0.0074,-0.0123,0.009,-10.52,27.4,-6.19,246.23,9.38,0.5
36201,51.5122,-2.653444,54,19.03,10,231.3,14 / 20,3620123,2019-08-16 13:49:33:903,0.0318,0.5504,10.2392,0.0087,0.0103,9.8066,-0.0096,-0.0059,0.0069,-11.49,27.03,-6.09,246.26,9.12,0.5
36202,51.5122,-2.653444,54,19.03,10,231.3,14 / 20,3620223,2019-08-16 13:49:34:003,-0.0451,-0.4196,8.6317,0.0239,0.0036,9.8066,-0.0213,0.0154,-0.0091,-11.64,27.38,-3.83,245.11,9.2,0.37
36203,51.5122,-2.653444,54,19.03,10,231.3,14 / 20,3620323,2019-08-16 13:49:34:103,-0.4595,0.4918,10.0302,0.0198,0.0135,9.8066,-0.0554,0.0655,0.0101,-10.7,27.85,-3.17,245.11,9.2,0.37
36204,51.5122,-2.653444,54,19.03,10,231.3,14 / 20,3620423,2019-08-16 13:49:34:203,0.0156,-0.3318,9.6621,0.0242,-0.0003,9.8066,-0.0106,0.0389,0.0197,-10.7,27.85,-3.17,245.11,9.2,0.37
36205,51.5122,-2.653444,54,19.03,10,231.3,14 / 20,3620524,2019-08-16 13:49:34:304,-0.4809,-0.6652,10.848,-0.0121,0.0,9.8066,0.0224,-0.0325,-0.0218,-11.06,27.62,-3.87,247.62,9.26,0.24
36206,51.5122,-2.653444,54,19.03,10,231.3,14 / 20,3620623,2019-08-16 13:49:34:403,-0.6195,0.2526,10.0124,-0.0346,0.0031,9.8066,0.0171,0.0282,-0.0229,-9.24,28.19,-4.43,251.13,9.2,0.44
36207,51.5122,-2.653444,54,19.03,10,231.3,14 / 20,3620725,2019-08-16 13:49:34:505,0.0946,-0.509,10.2559,-0.0012,-0.0283,9.8066,0.0171,0.0282,-0.0229,-9.83,27.95,-4.71,251.13,9.2,0.44
36208,51.51209,-2.653672,53,18.97,10,231.2,14 / 20,3620823,2019-08-16 13:49:34:603,0.1611,0.1447,10.6511,-0.0019,-0.0439,9.8066,-0.0064,-0.0315,-0.0005,-9.83,27.95,-4.71,251.13,9.2,0.44
36209,51.51209,-2.653672,53,18.97,10,231.2,14 / 20,3620923,2019-08-16 13:49:34:703,0.1462,0.4093,10.4425,-0.0104,0.0042,9.8066,-0.0138,0.0037,0.0112,-9.9,27.44,-7.03,247.81,8.95,0.37
36210,51.51209,-2.653672,53,18.97,10,231.2,14 / 20,3621023,2019-08-16 13:49:34:803,-0.2304,-0.0434,9.7176,-0.0121,0.0164,9.8066,-0.0245,-0.008,0.0154,-9.69,27.54,-6.88,248.5,9.01,0.47
36211,51.51209,-2.653672,53,18.97,10,231.2,14 / 20,3621123,2019-08-16 13:49:34:903,0.5242,0.1895,8.9361,0.0161,-0.0032,9.8066,-0.0447,-0.024,-0.0208,-8.89,27.81,-6.89,250.29,9.03,0.37
36212,51.51209,-2.653672,53,18.97,10,231.2,14 / 20,3621223,2019-08-16 13:49:35:003,0.0514,0.0448,9.8722,0.0194,0.0023,9.8066,0.0117,0.0037,0.0112,-9.0,26.82,-10.0,250.29,9.03,0.37
36213,51.51209,-2.653672,53,18.97,10,231.2,14 / 20,3621322,2019-08-16 13:49:35:102,0.2455,0.3469,9.9975,0.0253,0.028,9.8066,0.0064,-0.008,0.0027,-9.0,26.82,-10.0,250.29,9.03,0.37
36214,51.51209,-2.653672,53,18.97,10,231.2,14 / 20,3621423,2019-08-16 13:49:35:203,0.1523,0.0658,8.4454,0.0016,0.0137,9.8066,0.0149,0.0175,-0.0005,-12.96,26.01,-7.45,241.71,9.23,0.29
36215,51.51209,-2.653672,53,18.97,10,231.2,14 / 20,3621522,2019-08-16 13:49:35:302,-0.1661,0.0935,10.7096,0.0006,0.019,9.8066,0.0149,0.0175,-0.0005,-11.97,26.64,-6.87,244.25,9.33,0.34
36216,51.51209,-2.653672,53,18.97,10,231.2,14 / 20,3621622,2019-08-16 13:49:35:402,-0.0035,0.0404,9.9084,0.0014,0.0074,9.8066,0.0096,0.0026,-0.0176,-11.97,26.64,-6.87,244.25,9.33,0.34
36217,51.51209,-2.653672,53,18.97,10,231.2,14 / 20,3621723,2019-08-16 13:49:35:503,0.4195,0.3613,9.3645,0.0048,-0.0039,9.8066,0.016,-0.0442,-0.0101,-10.48,27.18,-7.19,247.74,9.38,0.35
36218,51.511986,-2.653885,53,18.93,10,231.2,14 / 20,3621823,2019-08-16 13:49:35:603,0.1392,0.2153,9.5443,0.0071,-0.0019,9.8066,0.0053,0.0101,-0.008,-11.7,26.86,-6.43,247.74,9.38,0.35
36219,51.511986,-2.653885,53,18.93,10,231.2,14 / 20,3621924,2019-08-16 13:49:35:704,-0.1846,-0.6896,9.3305,0.0057,-0.0158,9.8066,0.0064,0.0644,0.0005,-11.7,26.86,-6.43,247.74,9.38,0.35
36220,51.511986,-2.653885,53,18.93,10,231.2,14 / 20,3622023,2019-08-16 13:49:35:803,-0.1452,-0.2567,10.4166,-0.0155,-0.0067,9.8066,0.0234,0.074,0.0176,-10.63,26.86,-8.09,245.7,9.3,0.28
36221,51.511986,-2.653885,53,18.93,10,231.2,14 / 20,3622124,2019-08-16 13:49:35:904,-0.0912,-0.7958,10.7162,-0.0242,-0.0025,9.8066,-0.0277,-0.0048,0.0059,-11.0,26.78,-7.86,245.7,9.3,0.28
36222,51.511986,-2.653885,53,18.93,10,231.2,14 / 20,3622223,2019-08-16 13:49:36:003,-0.0544,0.2844,9.4415,-0.0032,-0.0184,9.8066,-0.0277,-0.0048,0.0059,-11.31,27.27,-5.35,246.56,9.23,0.41
36223,51.511986,-2.653885,53,18.93,10,231.2,14 / 20,3622323,2019-08-16 13:49:36:103,0.0005,-0.4474,10.2774,-0.003,-0.034,9.8066,0.016,0.0133,-0.0069,-10.97,27.38,-5.5,246.31,9.04,0.34
36224,51.511986,-2.653885,53,18.93,10,231.2,14 / 20,3622423,2019-08-16 13:49:36:203,-0.1187,-0.4617,10.4609,0.0022,-0.0233,9.8066,0.0064,0.0452,0.0133,-10.97,27.38,-5.5,246.31,9.04,0.34
36225,51.511986,-2.653885,53,18.93,10,231.2,14 / 20,3622524,2019-08-16 13:49:36:304,0.115,0.1523,9.3406,-0.0013,-0.0005,9.8066,0.0266,-0.0155,-0.0176,-10.9,27.22,-6.36,246.34,8.92,0.28
36226,51.511986,-2.653885,53,18.93,10,231.2,14 / 20,3622623,2019-08-16 13:49:36:403,-0.3657,-0.0565,10.1143,-0.0001,0.0231,9.8066,0.0266,-0.0133,-0.0165,-10.26,27.27,-7.15,246.34,8.92,0.28
36227,51.511986,-2.653885,53,18.93,10,231.2,14 / 20,3622723,2019-08-16 13:49:36:503,0.4356,0.2042,10.0536,0.0289,0.0607,9.8064,-0.0394,-0.0346,0.0122,-10.2,27.12,-7.77,247.47,9.32,0.26
36228,51.511868,-2.65411,53,19.44,10,231.2,14 / 20,3622823,2019-08-16 13:49:36:603,0.4259,0.2091,9.8374,0.02,0.0133,9.8066,-0.0128,0.0378,-0.0037,-10.2,27.12,-7.77,247.47,9.32,0.26
36229,51.511868,-2.65411,53,19.44,10,231.2,14 / 20,3622922,2019-08-16 13:49:36:702,-0.2306,-0.1865,9.4102,0.0084,0.0078,9.8066,-0.0085,0.0421,0.0165,-10.48,27.18,-7.19,247.77,9.43,0.19
36230,51.511868,-2.65411,53,19.44,10,231.2,14 / 20,3623023,2019-08-16 13:49:36:803,-0.1337,0.2883,9.9558,-0.0073,-0.0075,9.8066,-0.0085,0.0421,0.0165,-10.78,26.91,-7.71,247.77,9.43,0.19
36231,51.511868,-2.65411,53,19.44,10,231.2,14 / 20,3623123,2019-08-16 13:49:36:903,0.3015,-0.3878,9.7631,-0.025,-0.0407,9.8065,0.0053,0.0623,-0.0069,-10.43,27.29,-6.82,247.81,9.16,0.23
36232,51.511868,-2.65411,53,19.44,10,231.2,14 / 20,3623223,2019-08-16 13:49:37:003,0.3151,0.483,10.5936,0.0038,-0.0069,9.8066,-0.0096,0.0793,-0.0123,-10.48,27.44,-6.11,247.81,9.16,0.23
36233,51.511868,-2.65411,53,19.44,10,231.2,14 / 20,3623322,2019-08-16 13:49:37:102,0.575,0.6187,9.9513,0.001,0.006,9.8066,0.0075,0.0261,0.0037,-10.48,27.44,-6.11,248.11,9.3,0.11
36234,51.511868,-2.65411,53,19.44,10,231.2,14 / 20,3623423,2019-08-16 13:49:37:203,0.2267,-0.2317,10.1993,0.0077,0.0182,9.8066,-0.0106,-0.0112,-0.0091,-10.48,27.44,-6.11,248.11,9.3,0.11
36235,51.511868,-2.65411,53,19.44,10,231.2,14 / 20,3623523,2019-08-16 13:49:37:303,-0.4574,-0.4134,9.2412,-0.0059,0.0019,9.8066,0.0224,0.0783,0.0069,-10.98,27.09,-6.77,246.02,9.41,0.11
36236,51.511868,-2.65411,53,19.44,10,231.2,14 / 20,3623623,2019-08-16 13:49:37:403,0.335,-0.2858,10.2075,0.0045,0.004,9.8066,0.0139,0.0442,-0.0091,-10.2,27.12,-7.77,247.48,9.41,0.15
36237,51.511868,-2.65411,53,19.44,10,231.2,14 / 20,3623723,2019-08-16 13:49:37:503,-0.1275,0.1938,9.489,-0.0074,0.0233,9.8066,-0.0266,0.0005,-0.0048,-9.81,27.2,-7.99,247.44,9.52,0.24
36238,51.511757,-2.654321,53,18.96,10,231.3,14 / 20,3623824,2019-08-16 13:49:37:604,0.0268,-0.1043,9.3439,0.0068,-0.0181,9.8066,0.0149,0.0133,-0.0091,-9.81,27.2,-7.99,247.44,9.52,0.24
36239,51.511757,-2.654321,53,18.96,10,231.3,14 / 20,3623923,2019-08-16 13:49:37:703,-0.1178,0.1761,9.5508,0.0226,-0.0088,9.8066,0.0149,0.0133,-0.0091,-10.48,27.18,-7.19,247.77,9.52,0.1
36240,51.511757,-2.654321,53,18.96,10,231.3,14 / 20,3624023,2019-08-16 13:49:37:803,0.6466,0.1146,10.1646,0.0049,0.0073,9.8066,-0.0245,-0.0091,-0.0048,-10.78,26.91,-7.71,247.77,9.52,0.1
36241,51.511757,-2.654321,53,18.96,10,231.3,14 / 20,3624123,2019-08-16 13:49:37:903,-0.3394,-0.0834,9.767,0.0059,0.0018,9.8066,0.0511,-0.007,-0.0123,-10.07,27.41,-6.9,247.78,9.54,0.07
36242,51.511757,-2.654321,53,18.96,10,231.3,14 / 20,3624223,2019-08-16 13:49:38:003,-0.3304,0.6333,10.2942,-0.0183,0.0514,9.8065,0.0203,0.0378,0.0005,-10.07,27.41,-6.9,247.78,9.54,0.07
36243,51.511757,-2.654321,53,18.96,10,231.3,14 / 20,3624323,2019-08-16 13:49:38:103,0.3192,-0.2492,9.7217,-0.0069,0.0036,9.8066,-0.0288,0.0495,-0.0016,-11.09,27.37,-5.25,246.53,9.78,0.28
36244,51.511757,-2.654321,53,18.96,10,231.3,14 / 20,3624423,2019-08-16 13:49:38:203,-0.1878,0.0434,9.3477,-0.0077,-0.0181,9.8066,0.0021,0.0016,0.009,-11.42,26.86,-6.93,245.91,9.79,0.33
36245,51.511757,-2.654321,53,18.96,10,231.3,14 / 20,3624523,2019-08-16 13:49:38:303,-0.1776,0.465,9.2587,-0.0147,-0.0125,9.8066,-0.0053,0.025,0.009,-10.92,26.95,-7.36,245.91,9.79,0.33
36246,51.511757,-2.654321,53,18.96,10,231.3,14 / 20,3624623,2019-08-16 13:49:38:403,0.0245,0.2656,9.6119,-0.0161,-0.0035,9.8066,-0.0064,0.0037,-0.0005,-10.92,26.95,-7.36,245.91,9.79,0.33
36247,51.511757,-2.654321,53,18.96,10,231.3,14 / 20,3624723,2019-08-16 13:49:38:503,0.2187,0.1655,9.8389,-0.0026,0.0094,9.8066,-0.0064,0.0037,-0.0005,-9.56,27.16,-8.44,247.35,9.73,0.41
36248,51.51166,-2.654508,53,18.69,10,231.4,14 / 20,3624823,2019-08-16 13:49:38:603,-0.1681,-0.5343,9.7329,-0.0026,0.0169,9.8066,-0.0096,-0.0006,-0.0133,-10.64,27.2,-6.85,245.87,9.81,0.46
36249,51.51166,-2.654508,53,18.69,10,231.4,14 / 20,3624923,2019-08-16 13:49:38:703,0.1118,0.2377,10.0372,0.0053,-0.0105,9.8066,-0.0319,-0.0112,0.0101,-10.2,27.12,-7.77,245.87,9.81,0.46
36250,51.51166,-2.654508,53,18.69,10,231.4,14 / 20,3625023,2019-08-16 13:49:38:803,0.4404,0.4605,9.0659,0.0258,0.0001,9.8066,-0.0373,0.0389,-0.024,-9.95,27.08,-8.22,247.35,9.88,0.32
36251,51.51166,-2.654508,53,18.69,10,231.4,14 / 20,3625123,2019-08-16 13:49:38:903,0.3027,0.3371,9.2371,0.0244,-0.0036,9.8066,-0.0447,-0.0006,-0.0069,-9.95,27.08,-8.22,247.35,9.88,0.32
36252,51.51166,-2.654508,53,18.69,10,231.4,14 / 20,3625223,2019-08-16 13:49:39:003,0.2852,-0.5557,9.1884,0.0055,0.0,9.8066,0.0394,-0.0101,-0.0165,-11.2,26.99,-6.8,245.91,10.03,0.15
36253,51.51166,-2.654508,53,18.69,10,231.4,14 / 20,3625324,2019-08-16 13:49:39:104,-0.5798,-0.4364,9.1985,-0.0113,-0.0291,9.8066,0.0075,0.0921,-0.0091,-11.81,26.91,-6.03,245.91,10.03,0.15
36254,51.51166,-2.654508,53,18.69,10,231.4,14 / 20,3625424,2019-08-16 13:49:39:204,0.4464,-0.2154,9.9267,-0.0418,-0.0335,9.8065,-0.0181,0.0474,0.0059,-11.81,26.91,-6.03,244.49,9.75,0.3
36255,51.51166,-2.654508,53,18.69,10,231.4,14 / 20,3625523,2019-08-16 13:49:39:303,0.5477,-0.3,8.9938,-0.0154,0.011,9.8066,0.0341,-0.0634,-0.0133,-11.81,26.91,-6.03,244.49,9.75,0.3
36256,51.51166,-2.654508,53,18.69,10,231.4,14 / 20,3625624,2019-08-16 13:49:39:404,-0.3665,0.5262,9.62,0.0026,0.0036,9.8066,0.0341,-0.0634,-0.0133,-10.92,26.95,-7.36,245.89,9.77,0.41
36257,51.51166,-2.654508,53,18.69,10,231.4,14 / 20,3625723,2019-08-16 13:49:39:503,-0.1382,0.128,8.02,0.0279,0.0553,9.8065,-0.0043,-0.0549,-0.0325,-10.92,26.95,-7.36,245.89,9.77,0.41
36258,51.51155,-2.65472,53,18.72,10,231.3,14 / 20,3625823,2019-08-16 13:49:39:603,-0.3735,0.2745,9.7421,0.0117,0.0283,9.8066,0.0224,-0.0283,0.0037,-10.78,26.91,-7.71,245.52,10.13,0.39
36259,51.51155,-2.65472,53,18.72,10,231.3,14 / 20,3625923,2019-08-16 13:49:39:703,0.184,0.3457,10.0811,0.0234,0.0322,9.8066,0.0096,0.009,-0.0155,-10.14,26.96,-8.38,247.24,10.36,0.35
36260,51.51155,-2.65472,53,18.72,10,231.3,14 / 20,3626022,2019-08-16 13:49:39:802,0.3279,-0.0685,10.1254,0.009,-0.0091,9.8066,-0.0213,0.0559,0.0154,-10.14,26.96,-8.38,247.24,10.36,0.35
36261,51.51155,-2.65472,53,18.72,10,231.3,14 / 20,3626123,2019-08-16 13:49:39:903,0.2159,-0.1592,9.9822,-0.0144,-0.0163,9.8066,0.0245,0.0229,0.0208,-10.44,26.7,-8.84,246.97,10.23,0.24
36262,51.51155,-2.65472,53,18.72,10,231.3,14 / 20,3626223,2019-08-16 13:49:40:003,0.5206,-0.3526,10.0855,0.0107,0.0115,9.8066,-0.0043,0.057,0.0154,-12.34,26.68,-5.98,244.46,10.11,0.28
36263,51.51155,-2.65472,53,18.72,10,231.3,14 / 20,3626323,2019-08-16 13:49:40:103,0.0455,0.4718,10.6021,0.0161,0.0029,9.8066,-0.0043,0.057,0.0154,-11.86,27.04,-5.31,244.46,10.11,0.28
36264,51.51155,-2.65472,53,18.72,10,231.3,14 / 20,3626423,2019-08-16 13:49:40:203,0.413,-0.5002,9.8876,0.0117,-0.0015,9.8066,-0.0213,0.0591,-0.0027,-11.86,27.04,-5.31,244.46,10.11,0.28
36265,51.51155,-2.65472,53,18.72,10,231.3,14 / 20,3626523,2019-08-16 13:49:40:303,0.3329,0.1037,9.9785,0.0007,0.014,9.8066,0.0053,0.0058,0.0069,-11.81,26.91,-6.03,244.47,10.13,0.21
36266,51.51155,-2.65472,53,18.72,10,231.3,14 / 20,3626623,2019-08-16 13:49:40:403,0.0883,0.1726,10.046,0.0032,0.0155,9.8066,0.0096,0.0048,0.0027,-10.99,27.11,-6.67,245.86,10.22,0.23
36267,51.51155,-2.65472,53,18.72,10,231.3,14 / 20,3626724,2019-08-16 13:49:40:504,0.3178,0.4684,9.9646,0.006,-0.006,9.8066,-0.0341,0.0058,0.0122,-11.21,27.01,-6.69,245.88,10.2,0.19
36268,51.511456,-2.654929,52,18.45,10,231.5,14 / 20,3626823,2019-08-16 13:49:40:603,-0.1801,-0.4054,10.2719,0.0006,-0.0018,9.8067,0.016,0.0261,0.0122,-11.21,27.01,-6.69,245.88,10.2,0.19
36269,51.511456,-2.654929,52,18.45,10,231.5,14 / 20,3626922,2019-08-16 13:49:40:702,0.034,0.2615,10.2181,-0.0042,-0.0109,9.8066,-0.0021,0.0048,0.0165,-10.85,27.08,-6.99,245.89,10.14,0.17
36270,51.511456,-2.654929,52,18.45,10,231.5,14 / 20,3627023,2019-08-16 13:49:40:803,0.2651,-0.2449,10.0283,0.0035,-0.0019,9.8067,-0.0021,0.0048,0.0165,-10.52,26.89,-8.16,245.59,10.07,0.17
36271,51.511456,-2.654929,52,18.45,10,231.5,14 / 20,3627123,2019-08-16 13:49:40:903,0.294,-0.0404,9.81,0.0038,0.0,9.8067,0.0149,0.0239,-0.024,-12.06,26.7,-6.46,245.59,10.07,0.17
36272,51.511456,-2.654929,52,18.45,10,231.5,14 / 20,3627223,2019-08-16 13:49:41:003,0.0024,0.5299,9.7503,0.0096,0.0152,9.8066,-0.0128,0.0144,0.0112,-12.06,26.7,-6.46,245.59,10.07,0.17
36273,51.511456,-2.654929,52,18.45,10,231.5,14 / 20,3627323,2019-08-16 13:49:41:103,0.6439,0.0481,9.0485,0.0025,0.0038,9.8067,-0.0074,0.0261,0.0176,-11.27,27.15,-5.98,246.2,10.17,0.15
36274,51.511456,-2.654929,52,18.45,10,231.5,14 / 20,3627425,2019-08-16 13:49:41:205,-0.9423,-0.7356,10.4857,-0.0126,0.0245,9.8066,0.016,-0.0155,-0.025,-10.79,27.24,-6.44,246.16,10.27,0.28
36275,51.511456,-2.654929,52,18.45,10,231.5,14 / 20,3627523,2019-08-16 13:49:41:303,-0.3662,0.2996,10.7887,0.0151,0.0127,9.8066,0.0309,0.0964,0.0059,-11.69,26.64,-7.34,244.12,10.38,0.23
36276,51.511456,-2.654929,52,18.45,10,231.5,14 / 20,3627623,2019-08-16 13:49:41:403,0.3879,0.3389,10.5949,-0.0261,-0.0172,9.8066,-0.0202,-0.0091,-0.0101,-11.69,26.64,-7.34,244.12,10.38,0.23
36277,51.511456,-2.654929,52,18.45,10,231.5,14 / 20,3627723,2019-08-16 13:49:41:503,0.2111,-0.212,8.695,-0.0716,-0.0689,9.8061,0.0394,-0.0378,-0.0027,-11.28,26.54,-8.25,245.57,9.83,0.43
36278,51.511353,-2.655136,52,18.33,10,231.4,13 / 20,3627823,2019-08-16 13:49:41:603,0.1193,0.4664,9.2338,-0.0033,0.0054,9.8066,0.0394,-0.0378,-0.0027,-10.64,27.2,-6.85,245.86,9.85,0.46
36279,51.511353,-2.655136,52,18.33,10,231.4,13 / 20,3627923,2019-08-16 13:49:41:703,-0.1419,0.1349,9.9369,0.0179,0.0217,9.8066,0.0011,-0.04,0.0112,-10.64,27.2,-6.85,245.86,9.85,0.46
36280,51.511353,-2.655136,52,18.33,10,231.4,13 / 20,3628023,2019-08-16 13:49:41:803,-0.4691,-0.363,9.3124,0.0184,0.0501,9.8065,-0.0202,0.0037,0.008,-11.43,26.89,-6.83,245.85,10.01,0.42
36281,51.511353,-2.655136,52,18.33,10,231.4,13 / 20,3628123,2019-08-16 13:49:41:903,-0.187,0.3911,9.6663,0.0372,0.0675,9.8063,-0.0351,0.0122,0.0122,-10.65,27.22,-6.75,245.79,10.46,0.38
36282,51.511353,-2.655136,52,18.33,10,231.4,13 / 20,3628223,2019-08-16 13:49:42:003,-0.0056,-0.1167,10.6081,-0.021,-0.0382,9.8066,0.0277,0.0506,-0.0027,-10.65,27.22,-6.75,245.79,10.46,0.38
36283,51.511353,-2.655136,52,18.33,10,231.4,13 / 20,3628323,2019-08-16 13:49:42:103,0.1133,-0.1826,10.239,-0.0064,-0.0201,9.8066,-0.016,0.0165,0.0016,-10.44,27.33,-6.62,247.59,10.21,0.4
36284,51.511353,-2.655136,52,18.33,10,231.4,13 / 20,3628423,2019-08-16 13:49:42:203,-0.3909,-0.0989,9.5016,-0.0248,-0.0308,9.8066,-0.0085,-0.0112,0.0197,-11.21,27.01,-6.69,247.59,10.21,0.4
36285,51.511353,-2.655136,52,18.33,10,231.4,13 / 20,3628523,2019-08-16 13:49:42:303,0.06,-0.4803,9.7597,0.0145,0.0073,9.8066,-0.0085,-0.0112,0.0197,-11.75,26.79,-6.64,244.12,9.98,0.47
36286,51.511353,-2.655136,52,18.33,10,231.4,13 / 20,3628623,2019-08-16 13:49:42:403,0.1221,-0.6951,9.0886,0.0192,0.0042,9.8066,-0.0032,0.0271,-0.0165,-10.44,27.33,-6.62,244.12,9.98,0.47
36287,51.511353,-2.655136,52,18.33,10,231.4,13 / 20,3628723,2019-08-16 13:49:42:503,-0.4262,-0.6145,9.8882,0.0218,0.0167,9.8066,-0.033,-0.0144,0.0005,-11.36,26.72,-7.54,245.52,10.13,0.39
36288,51.51125,-2.655342,51,18.15,10,231.3,13 / 20,3628823,2019-08-16 13:49:42:603,-0.1752,0.5326,10.2557,-0.0017,0.03,9.8066,0.0107,-0.041,0.0059,-11.36,26.72,-7.54,245.52,10.13,0.39
36289,51.51125,-2.655342,51,18.15,10,231.3,13 / 20,3628923,2019-08-16 13:49:42:703,0.0419,-0.1227,8.4481,-0.0036,0.0025,9.8067,0.0224,-0.0357,-0.0048,-11.31,26.85,-7.17,245.79,10.28,0.48
36290,51.51125,-2.655342,51,18.15,10,231.3,13 / 20,3629023,2019-08-16 13:49:42:803,-0.335,0.3123,9.3636,-0.014,0.0107,9.8066,0.0043,0.0538,0.0027,-11.09,27.0,-6.91,245.76,10.31,0.58
36291,51.51125,-2.655342,51,18.15,10,231.3,13 / 20,3629123,2019-08-16 13:49:42:903,-0.1551,0.2459,10.8073,-0.0093,-0.0112,9.8066,0.016,0.0133,0.0069,-11.09,27.0,-6.91,245.76,10.31,0.58
36292,51.51125,-2.655342,51,18.15,10,231.3,13 / 20,3629223,2019-08-16 13:49:43:003,-0.0809,-0.5312,10.3213,-0.0318,-0.0077,9.8066,0.0543,0.0058,0.0016,-9.48,27.6,-6.95,250.03,10.07,0.68
36293,51.51125,-2.655342,51,18.15,10,231.3,13 / 20,3629323,2019-08-16 13:49:43:103,-0.8484,-0.7313,10.0454,-0.0461,-0.0244,9.8065,0.0543,0.0058,0.0016,-10.16,27.47,-6.51,250.03,10.07,0.68
36294,51.51125,-2.655342,51,18.15,10,231.3,13 / 20,3629423,2019-08-16 13:49:43:203,-0.2809,-0.1952,9.2601,-0.0641,-0.0521,9.8063,0.0064,0.0783,0.0336,-10.07,25.94,-11.22,245.49,9.65,0.93
36295,51.51125,-2.655342,51,18.15,10,231.3,13 / 20,3629523,2019-08-16 13:49:43:303,-0.3222,-0.3778,10.1556,-0.0099,-0.0065,9.8066,-0.0021,0.009,0.0186,-10.07,25.94,-11.22,245.49,9.65,0.93
36296,51.51125,-2.655342,51,18.15,10,231.3,13 / 20,3629623,2019-08-16 13:49:43:403,-0.1874,0.3168,10.1487,0.0154,-0.0095,9.8066,-0.0319,-0.0187,0.0101,-14.71,25.3,-6.58,237.21,9.6,0.96
36297,51.51125,-2.655342,51,18.15,10,231.3,13 / 20,3629723,2019-08-16 13:49:43:503,0.2068,0.6517,9.5574,0.0085,0.0182,9.8066,-0.016,0.0261,0.0069,-13.4,25.83,-7.29,241.51,9.6,0.86
36298,51.511143,-2.65554,52,18.0,10,231.1,13 / 20,3629823,2019-08-16 13:49:43:603,0.1507,0.2337,9.1989,0.0151,0.0114,9.8066,0.0139,0.0303,0.0027,-13.4,25.83,-7.29,241.51,9.6,0.86
36299,51.511143,-2.65554,52,18.0,10,231.1,13 / 20,3629923,2019-08-16 13:49:43:703,0.267,-0.6488,9.1747,-0.0139,-0.0249,9.8066,0.0171,-0.0623,-0.0069,-13.21,25.87,-7.49,241.51,9.7,0.81
36300,51.511143,-2.65554,52,18.0,10,231.1,13 / 20,3630023,2019-08-16 13:49:43:803,0.1702,-0.6443,9.5941,-0.0073,-0.0407,9.8066,0.0171,-0.0623,-0.0069,-12.14,26.35,-7.63,242.98,9.47,0.73
36301,51.511143,-2.65554,52,18.0,10,231.1,13 / 20,3630123,2019-08-16 13:49:43:903,0.1399,0.4395,9.0658,-0.0009,-0.0038,9.8067,-0.0032,0.0506,-0.0144,-12.22,26.52,-6.9,244.14,9.45,0.73
36302,51.511143,-2.65554,52,18.0,10,231.1,13 / 20,3630223,2019-08-16 13:49:44:003,-0.2509,0.2298,8.6261,0.0106,0.0128,9.8066,0.0107,-0.0389,0.0176,-12.22,26.52,-6.9,244.14,9.45,0.73
36303,51.511143,-2.65554,52,18.0,10,231.1,13 / 20,3630323,2019-08-16 13:49:44:103,-0.0673,0.4774,9.9957,0.0035,0.0046,9.8066,-0.0032,-0.0634,0.0112,-11.59,27.05,-5.81,244.43,9.54,0.7
36304,51.511143,-2.65554,52,18.0,10,231.1,13 / 20,3630423,2019-08-16 13:49:44:203,0.4711,-0.0063,9.9071,0.0035,0.0012,9.8067,0.0032,-0.0006,0.0005,-12.65,26.69,-5.26,243.03,9.57,0.7
36305,51.511143,-2.65554,52,18.0,10,231.1,13 / 20,3630523,2019-08-16 13:49:44:303,-0.315,-0.0036,10.7029,-0.0021,-0.0055,9.8066,-0.0043,0.0378,-0.0059,-12.65,26.69,-5.26,243.03,9.57,0.7
36306,51.511143,-2.65554,52,18.0,10,231.1,13 / 20,3630623,2019-08-16 13:49:44:403,0.1239,-0.755,10.2977,-0.0227,-0.0091,9.8066,-0.0149,-0.0176,0.0101,-13.18,26.44,-5.21,242.16,9.54,0.69
36307,51.511143,-2.65554,52,18.0,10,231.1,13 / 20,3630723,2019-08-16 13:49:44:503,0.2315,-0.2399,9.54,-0.0155,-0.0157,9.8066,0.0085,0.0463,0.0186,-12.35,26.7,-5.88,244.44,9.42,0.73
36308,51.511047,-2.655742,51,17.72,10,231.2,13 / 20,3630823,2019-08-16 13:49:44:603,-0.0854,-0.0296,10.915,-0.0036,-0.0194,9.8066,0.0085,0.0463,0.0186,-12.35,26.7,-5.88,244.44,9.42,0.73
36309,51.511047,-2.655742,51,17.72,10,231.2,13 / 20,3630923,2019-08-16 13:49:44:703,0.3954,-0.9351,9.8153,-0.0119,-0.0059,9.8066,-0.0064,-0.0251,-0.0059,-11.98,26.66,-6.77,244.17,9.31,0.7
36310,51.511047,-2.655742,51,17.72,10,231.2,13 / 20,3631023,2019-08-16 13:49:44:803,-0.222,0.0595,10.2518,-0.009,-0.0242,9.8066,-0.0256,0.0484,-0.0037,-12.7,26.8,-4.52,243.07,9.15,0.69
36311,51.511047,-2.655742,51,17.72,10,231.2,13 / 20,3631123,2019-08-16 13:49:44:903,0.1714,0.0766,9.5536,-0.0014,-0.0237,9.8066,-0.0383,0.0154,0.0101,-13.22,25.9,-7.39,241.66,9.08,0.6
36312,51.511047,-2.655742,51,17.72,10,231.2,13 / 20,3631223,2019-08-16 13:49:45:003,-0.0347,-0.5897,10.3759,-0.0061,-0.0331,9.8066,0.0171,0.0431,-0.008,-12.82,26.35,-6.43,241.97,8.9,0.54
36313,51.511047,-2.655742,51,17.72,10,231.2,13 / 20,3631325,2019-08-16 13:49:45:105,0.0806,-0.5568,10.4192,0.0335,0.001,9.8066,-0.0213,-0.0517,-0.0144,-12.82,26.35,-6.43,241.97,8.9,0.54
36314,51.511047,-2.655742,51,17.72,10,231.2,13 / 20,3631423,2019-08-16 13:49:45:203,0.7498,0.0001,9.0166,0.0199,0.0314,9.8066,-0.0373,-0.0357,0.0048,-12.93,26.58,-5.11,243.15,8.99,0.37
36315,51.511047,-2.655742,51,17.72,10,231.2,13 / 20,3631523,2019-08-16 13:49:45:303,-0.4457,-0.4895,10.1275,0.0282,0.0281,9.8066,0.0906,-0.0027,-0.0165,-12.93,26.58,-5.11,243.15,8.99,0.37
36316,51.511047,-2.655742,51,17.72,10,231.2,13 / 20,3631623,2019-08-16 13:49:45:403,-0.3895,-0.3736,9.3915,0.0014,0.0262,9.8066,0.0906,-0.0027,-0.0165,-13.35,26.38,-5.07,242.25,9.13,0.43
36317,51.511047,-2.655742,51,17.72,10,231.2,13 / 20,3631724,2019-08-16 13:49:45:504,0.244,0.6858,9.4058,-0.0281,-0.018,9.8066,-0.0266,-0.0357,0.0314,-13.35,26.38,-5.07,242.25,9.13,0.43
36318,51.510937,-2.655934,52,17.82,10,231.2,13 / 20,3631823,2019-08-16 13:49:45:603,-0.5481,-0.6584,9.8924,-0.0424,-0.0203,9.8065,0.0075,-0.0155,-0.0027,-13.11,26.52,-4.98,242.25,9.13,0.43
36319,51.510937,-2.655934,52,17.82,10,231.2,13 / 20,3631925,2019-08-16 13:49:45:705,-0.5955,-0.509,10.4827,-0.0745,-0.0674,9.8061,0.016,0.041,-0.0037,-12.58,26.47,-6.41,241.99,8.58,0.64
36320,51.510937,-2.655934,52,17.82,10,231.2,13 / 20,3632023,2019-08-16 13:49:45:803,0.1499,0.5984,8.9862,-0.0138,-0.0241,9.8066,0.0149,0.0037,-0.0016,-13.85,26.13,-5.02,240.59,8.42,0.64
36321,51.510937,-2.655934,52,17.82,10,231.2,13 / 20,3632123,2019-08-16 13:49:45:903,0.1202,0.1745,9.6111,0.0283,0.0226,9.8066,-0.0245,-0.0091,-0.0027,-13.85,26.13,-5.02,240.59,8.42,0.64
36322,51.510937,-2.655934,52,17.82,10,231.2,13 / 20,3632223,2019-08-16 13:49:46:003,-0.5511,-0.0801,9.9502,0.0039,0.0061,9.8066,0.0149,0.0016,0.0059,-12.22,26.41,-7.28,243.46,8.62,0.56
36323,51.510937,-2.655934,52,17.82,10,231.2,13 / 20,3632323,2019-08-16 13:49:46:103,0.1858,-0.341,9.9382,-0.0018,-0.0191,9.8066,0.0149,0.0016,0.0059,-12.19,26.85,-5.51,244.58,8.66,0.56
36324,51.510937,-2.655934,52,17.82,10,231.2,13 / 20,3632423,2019-08-16 13:49:46:203,0.3831,0.3373,9.4786,0.0064,-0.05,9.8065,-0.0106,0.008,0.0027,-11.68,27.07,-5.56,244.64,8.41,0.4
36325,51.510937,-2.655934,52,17.82,10,231.2,13 / 20,3632523,2019-08-16 13:49:46:303,-0.1036,-0.3483,9.8251,-0.0012,-0.0123,9.8066,0.0,-0.0229,0.0037,-11.68,27.07,-5.56,244.64,8.41,0.4
36326,51.510937,-2.655934,52,17.82,10,231.2,13 / 20,3632623,2019-08-16 13:49:46:403,0.2687,0.4739,8.7874,-0.0084,-0.0118,9.8066,0.0117,0.0314,0.0165,-12.24,26.96,-4.84,244.91,8.34,0.37
36327,51.510937,-2.655934,52,17.82,10,231.2,13 / 20,3632723,2019-08-16 13:49:46:503,-0.0697,-0.421,10.1309,-0.0278,-0.0445,9.8065,-0.0117,-0.0133,-0.0059,-11.9,26.95,-5.66,244.69,8.04,0.41
36328,51.510826,-2.656139,52,17.86,10,231.2,13 / 20,3632823,2019-08-16 13:49:46:603,-0.2751,-0.7815,10.9553,-0.0051,-0.0176,9.8066,0.0053,-0.0059,0.008,-11.9,26.95,-5.66,244.69,8.04,0.41
36329,51.510826,-2.656139,52,17.86,10,231.2,13 / 20,3632923,2019-08-16 13:49:46:703,0.1573,0.5807,8.646,-0.0063,-0.0016,9.8066,-0.0309,-0.0219,-0.0059,-11.54,26.94,-6.42,244.69,8.01,0.44
36330,51.510826,-2.656139,52,17.86,10,231.2,13 / 20,3633023,2019-08-16 13:49:46:803,-0.217,-0.357,9.7286,0.019,0.0185,9.8066,-0.0149,0.0261,0.0197,-10.45,27.36,-6.52,247.95,8.16,0.38
36331,51.510826,-2.656139,52,17.86,10,231.2,13 / 20,3633123,2019-08-16 13:49:46:903,-0.464,-0.7081,11.3914,-0.0043,-0.014,9.8066,-0.0149,0.0261,0.0197,-10.45,27.36,-6.52,247.95,8.16,0.38
36332,51.510826,-2.656139,52,17.86,10,231.2,13 / 20,3633223,2019-08-16 13:49:47:003,0.0022,-0.3289,9.8204,-0.0049,-0.0023,9.8066,-0.017,-0.0293,0.0048,-11.27,27.15,-5.98,246.44,8.07,0.38
36333,51.510826,-2.656139,52,17.86,10,231.2,13 / 20,3633323,2019-08-16 13:49:47:103,-0.02,-0.7788,11.3,-0.0196,-0.0417,9.8065,0.0053,0.0176,-0.0059,-11.6,27.07,-5.71,246.44,8.07,0.38
36334,51.510826,-2.656139,52,17.86,10,231.2,13 / 20,3633423,2019-08-16 13:49:47:203,-0.0595,0.4169,9.073,-0.0484,-0.0779,9.8062,0.0043,0.0815,0.0133,-11.38,27.18,-5.61,246.5,7.54,0.45
36335,51.510826,-2.656139,52,17.86,10,231.2,13 / 20,3633523,2019-08-16 13:49:47:303,0.1916,-0.0202,8.5457,-0.0189,-0.0329,9.8066,0.0064,-0.056,-0.0091,-11.38,27.18,-5.61,246.5,7.54,0.45
36336,51.510826,-2.656139,52,17.86,10,231.2,13 / 20,3633624,2019-08-16 13:49:47:404,0.3334,0.4526,9.4907,0.0041,-0.0025,9.8066,-0.0149,-0.0293,0.009,-12.56,26.66,-5.63,243.07,7.32,0.48
36337,51.510826,-2.656139,52,17.86,10,231.2,13 / 20,3633723,2019-08-16 13:49:47:503,0.0005,-0.4049,9.966,0.0336,0.0169,9.8066,0.0096,-0.007,-0.0155,-11.43,27.28,-5.01,246.76,7.5,0.35
36338,51.510735,-2.656327,52,17.87,10,231.0,13 / 20,3633823,2019-08-16 13:49:47:603,-0.0718,0.157,10.3023,0.0148,0.0251,9.8066,0.0011,0.0058,0.0176,-11.44,26.91,-6.72,246.26,7.67,0.32
36339,51.510735,-2.656327,52,17.87,10,231.0,13 / 20,3633922,2019-08-16 13:49:47:702,0.3399,-0.1228,10.338,0.0003,-0.0049,9.8066,0.0021,0.025,0.0069,-11.44,26.91,-6.72,246.26,7.67,0.32
36340,51.510735,-2.656327,52,17.87,10,231.0,13 / 20,3634023,2019-08-16 13:49:47:803,0.2145,0.2653,8.6586,-0.0223,-0.0142,9.8066,0.0021,0.025,0.0069,-10.8,26.96,-7.5,246.04,7.55,0.35
36341,51.510735,-2.656327,52,17.87,10,231.0,13 / 20,3634123,2019-08-16 13:49:47:903,-0.0807,0.1683,9.0533,-0.0089,-0.0277,9.8066,0.0064,0.0314,-0.0261,-11.49,27.03,-6.09,246.52,7.42,0.43
36342,51.510735,-2.656327,52,17.87,10,231.0,13 / 20,3634224,2019-08-16 13:49:48:004,0.1806,0.3924,9.4276,-0.0099,-0.0435,9.8065,0.0341,0.025,-0.0176,-11.49,27.03,-6.09,246.52,7.42,0.43
36343,51.510735,-2.656327,52,17.87,10,231.0,13 / 20,3634323,2019-08-16 13:49:48:103,0.0854,-0.5126,9.6625,-0.0049,-0.0118,9.8066,-0.0053,-0.0133,0.0027,-11.22,27.03,-6.59,246.34,7.16,0.38
36344,51.510735,-2.656327,52,17.87,10,231.0,13 / 20,3634424,2019-08-16 13:49:48:204,-0.026,-0.4985,10.1161,-0.0025,-0.0092,9.8066,0.0032,0.0101,0.0005,-11.6,27.07,-5.71,244.83,7.09,0.38
36345,51.510735,-2.656327,52,17.87,10,231.0,13 / 20,3634523,2019-08-16 13:49:48:303,-0.2926,-0.2738,10.061,-0.0232,-0.0283,9.8066,-0.0319,0.0378,0.009,-12.17,26.95,-5.06,245.06,6.88,0.44
36346,51.510735,-2.656327,52,17.87,10,231.0,13 / 20,3634624,2019-08-16 13:49:48:404,-0.8478,-0.5452,10.1639,0.0033,-0.0195,9.8066,0.0288,0.0346,-0.0101,-12.17,26.95,-5.06,245.06,6.88,0.44
36347,51.510735,-2.656327,52,17.87,10,231.0,13 / 20,3634723,2019-08-16 13:49:48:503,-0.3955,-0.5847,10.1148,0.019,-0.0212,9.8066,0.0064,-0.0698,-0.0027,-12.17,26.95,-5.06,245.09,6.82,0.28
36348,51.510643,-2.656512,52,18.19,10,231.2,13 / 20,3634824,2019-08-16 13:49:48:604,0.1831,-0.7637,10.2578,-0.008,-0.0301,9.8066,0.0064,-0.0698,-0.0027,-11.15,26.88,-7.3,246.44,6.84,0.19
36349,51.510643,-2.656512,52,18.19,10,231.2,13 / 20,3634923,2019-08-16 13:49:48:703,-0.0674,0.4862,10.6605,-0.0334,-0.0656,9.8064,0.0277,0.0559,0.0016,-11.15,26.88,-7.3,246.44,6.84,0.19
36350,51.510643,-2.656512,52,18.19,10,231.2,13 / 20,3635024,2019-08-16 13:49:48:804,0.369,-0.0179,9.5535,0.0035,0.002,9.8067,-0.0234,-0.0027,-0.0176,-11.28,26.89,-7.03,246.51,6.41,0.21
36351,51.510643,-2.656512,52,18.19,10,231.2,13 / 20,3635123,2019-08-16 13:49:48:903,0.4342,-0.0089,10.2044,0.0131,-0.0032,9.8066,0.0064,0.0591,-0.0069,-11.44,26.91,-6.72,246.51,6.42,0.2
36352,51.510643,-2.656512,52,18.19,10,231.2,13 / 20,3635223,2019-08-16 13:49:49:003,-0.8401,-0.6421,10.1794,0.0117,-0.0132,9.8066,-0.0192,-0.0283,0.0027,-11.08,26.71,-8.0,246.33,6.38,0.1
36353,51.510643,-2.656512,52,18.19,10,231.2,13 / 20,3635323,2019-08-16 13:49:49:103,-0.5371,-0.5545,10.1432,-0.0185,-0.013,9.8066,0.0128,-0.0442,-0.025,-11.08,26.71,-8.0,246.33,6.38,0.1
36354,51.510643,-2.656512,52,18.19,10,231.2,13 / 20,3635423,2019-08-16 13:49:49:203,-0.2278,0.1258,9.9666,-0.0153,-0.0007,9.8066,0.0171,-0.0208,0.0037,-12.07,26.72,-6.36,244.98,6.27,0.17
36355,51.510643,-2.656512,52,18.19,10,231.2,13 / 20,3635523,2019-08-16 13:49:49:303,0.2515,-0.0364,9.8886,-0.027,0.0152,9.8066,0.0171,-0.0432,-0.0272,-11.76,26.81,-6.54,244.75,6.28,0.35
36356,51.510643,-2.656512,52,18.19,10,231.2,13 / 20,3635622,2019-08-16 13:49:49:402,0.8645,0.8096,9.2575,0.0013,0.0034,9.8067,0.0171,-0.0432,-0.0272,-11.76,26.81,-6.54,244.75,6.28,0.35
36357,51.510643,-2.656512,52,18.19,10,231.2,13 / 20,3635724,2019-08-16 13:49:49:504,0.6725,0.3148,9.5407,0.0075,0.0031,9.8066,0.0,0.0303,0.0229,-11.38,27.18,-5.61,246.7,6.39,0.32
36358,51.51054,-2.656728,52,18.39,10,231.4,13 / 20,3635823,2019-08-16 13:49:49:603,-0.3855,0.3143,10.0107,0.0035,-0.0091,9.8066,-0.0021,0.0325,0.0165,-11.49,26.81,-7.01,246.51,6.35,0.28
36359,51.51054,-2.656728,52,18.39,10,231.4,13 / 20,3635923,2019-08-16 13:49:49:703,-0.4651,0.0525,9.7469,-0.0206,-0.0198,9.8066,0.0064,0.0378,-0.0005,-11.49,26.81,-7.01,246.51,6.35,0.28
36360,51.51054,-2.656728,52,18.39,10,231.4,13 / 20,3636023,2019-08-16 13:49:49:803,0.1868,-0.0892,9.7949,-0.0083,-0.0152,9.8066,-0.0117,0.0346,0.0314,-10.59,27.09,-7.36,246.52,6.2,0.34
36361,51.51054,-2.656728,52,18.39,10,231.4,13 / 20,3636123,2019-08-16 13:49:49:903,-0.0209,0.3209,10.1177,-0.0156,-0.0011,9.8066,0.0341,0.0271,0.0165,-11.44,26.91,-6.72,246.54,6.1,0.35
36362,51.51054,-2.656728,52,18.39,10,231.4,13 / 20,3636222,2019-08-16 13:49:50:002,0.0676,-0.2147,9.6529,-0.0388,-0.0059,9.8066,-0.0074,0.0335,0.009,-11.99,26.68,-6.67,246.54,6.1,0.35
36363,51.51054,-2.656728,52,18.39,10,231.4,13 / 20,3636324,2019-08-16 13:49:50:104,-0.196,-0.3825,10.0722,-0.0526,-0.0146,9.8065,0.0085,-0.0059,-0.0112,-11.99,26.68,-6.67,246.54,6.1,0.35
36364,51.51054,-2.656728,52,18.39,10,231.4,13 / 20,3636423,2019-08-16 13:49:50:203,0.2156,-0.4125,8.3036,-0.0051,-0.0003,9.8066,-0.065,-0.0101,0.0112,-11.0,27.15,-6.47,246.72,5.89,0.6
36365,51.51054,-2.656728,52,18.39,10,231.4,13 / 20,3636522,2019-08-16 13:49:50:302,-0.0382,0.2852,9.5419,0.0115,0.0123,9.8066,-0.065,-0.0101,0.0112,-11.64,27.17,-5.1,246.72,5.89,0.6
36366,51.51054,-2.656728,52,18.39,10,231.4,13 / 20,3636623,2019-08-16 13:49:50:403,0.0557,0.3708,10.2986,-0.0023,0.0025,9.8066,0.0075,0.0207,0.0165,-11.43,27.28,-5.01,246.9,6.08,0.57
36367,51.51054,-2.656728,52,18.39,10,231.4,13 / 20,3636722,2019-08-16 13:49:50:502,0.2378,0.1003,9.9049,-0.0012,0.0044,9.8066,0.0288,-0.0517,0.0005,-11.59,27.05,-5.81,246.9,6.08,0.57
36368,51.51043,-2.656934,52,18.6,10,231.3,13 / 20,3636823,2019-08-16 13:49:50:603,-0.0121,0.0657,9.3037,-0.0039,-0.0268,9.8066,-0.0245,0.0069,0.0037,-11.59,27.05,-5.81,246.9,6.08,0.57
36369,51.51043,-2.656934,52,18.6,10,231.3,13 / 20,3636923,2019-08-16 13:49:50:703,0.1161,-0.0791,10.0961,0.0053,-0.0035,9.8066,-0.0096,0.0474,0.0101,-11.0,27.15,-6.47,246.73,5.93,0.53
36370,51.51043,-2.656934,52,18.6,10,231.3,13 / 20,3637022,2019-08-16 13:49:50:802,0.674,0.7428,9.9338,0.0011,0.0071,9.8066,0.0192,-0.0016,0.0059,-11.44,26.91,-6.72,246.55,5.92,0.5
36371,51.51043,-2.656934,52,18.6,10,231.3,13 / 20,3637123,2019-08-16 13:49:50:903,0.3033,0.8704,10.2447,0.0166,0.0214,9.8066,-0.0351,0.0282,0.0101,-11.43,26.89,-6.83,246.52,6.08,0.46
36372,51.51043,-2.656934,52,18.6,10,231.3,13 / 20,3637223,2019-08-16 13:49:51:003,0.6677,-0.2886,9.7003,-0.0066,-0.0033,9.8066,-0.0351,0.0282,0.0101,-11.43,26.89,-6.83,246.52,6.08,0.46
36373,51.51043,-2.656934,52,18.6,10,231.3,13 / 20,3637323,2019-08-16 13:49:51:103,0.2318,-0.2819,10.3936,-0.0334,-0.0435,9.8065,-0.0043,0.0367,0.0165,-11.6,27.07,-5.71,244.99,5.77,0.53
36374,51.51043,-2.656934,52,18.6,10,231.3,13 / 20,3637423,2019-08-16 13:49:51:203,-0.7047,-0.1591,10.531,0.0088,-0.0087,9.8066,0.0085,-0.0101,0.0122,-12.56,26.66,-5.63,243.3,5.74,0.47
36375,51.51043,-2.656934,52,18.6,10,231.3,13 / 20,3637523,2019-08-16 13:49:51:303,0.4364,-0.4973,9.7484,0.0285,0.0056,9.8066,-0.0011,0.0037,-0.0069,-12.13,26.85,-5.67,243.3,5.74,0.47
36376,51.51043,-2.656934,52,18.6,10,231.3,13 / 20,3637623,2019-08-16 13:49:51:403,-0.2816,0.2261,9.2998,0.0253,-0.0321,9.8066,-0.0224,0.0133,0.0005,-12.13,26.85,-5.67,243.3,5.74,0.47
36377,51.51043,-2.656934,52,18.6,10,231.3,13 / 20,3637723,2019-08-16 13:49:51:503,-0.1805,0.7766,9.8272,-0.0142,0.0171,9.8066,0.0362,-0.0528,-0.0037,-11.82,26.95,-5.82,245.06,5.64,0.25
36378,51.510326,-2.657141,52,19.06,10,231.5,13 / 20,3637823,2019-08-16 13:49:51:603,0.3795,0.1683,8.881,-0.0008,0.0285,9.8066,-0.0064,-0.0261,-0.0101,-11.92,26.52,-7.38,245.06,5.64,0.25
36379,51.510326,-2.657141,52,19.06,10,231.5,13 / 20,3637923,2019-08-16 13:49:51:703,-0.2228,-0.6513,9.8682,0.0092,0.0152,9.8066,-0.0064,-0.0261,-0.0101,-11.37,26.75,-7.44,246.6,5.79,0.32
36380,51.510326,-2.657141,52,19.06,10,231.5,13 / 20,3638023,2019-08-16 13:49:51:803,0.2071,0.4588,9.4429,0.0325,0.0184,9.8066,0.0,0.0229,0.0037,-11.37,26.75,-7.44,246.6,5.79,0.32
36381,51.510326,-2.657141,52,19.06,10,231.5,13 / 20,3638123,2019-08-16 13:49:51:903,0.0442,-0.4385,9.4391,-0.0132,0.0,9.8066,0.0064,0.0378,0.0144,-11.37,26.75,-7.44,246.59,5.96,0.19
