,GPS LATITUDE (degrees), GPS LONGITUDE (degrees), GPS ALTITUDE (m), GPS SPEED (Kmh), GPS ACCURACY (m), GPS ORIENTATION (Â°),GPS SATELLITES IN RANGE, TIME SINCE START (ms), DATE (YYYY-MO-DD HH-MI-SS_SSS), ACCELEROMETER X (m/s²) , ACCELEROMETER Y (m/s²), ACCELEROMETER Z (m/s²), GRAVITY X (m/s²), GRAVITY Y (m/s²), GRAVITY Z (m/s²), GYROSCOPE Yaw (rad/s), GYROSCOPE Pitch (rad/s), GYROSCOPE Roll (rad/s), MAGNETIC FIELD X (Î¼T), MAGNETIC FIELD Y (Î¼T), MAGNETIC FIELD Z (Î¼T), ORIENTATION (Yaw) (Â°), ORIENTATION (Pitch) (Â°), ORIENTATION (Roll ) (Â°)
48985,52.428825,-1.435865,138.74,5.26,3,184.53,25 / 25,4712110,2019-09-08 13:25:31:349,-0.1321,-0.4229,9.5712,-0.0092,0.028,9.8065,0.0208,-0.008,-0.0501,-8.12,-32.25,29.63,337.12,-80.55,176.11
48986,52.428825,-1.435865,138.74,5.26,3,184.53,25 / 25,4712210,2019-09-08 13:25:31:449,0.3282,-0.714,9.8545,-0.0041,0.0186,9.8066,0.0402,-0.0044,0.0043,-7.44,-32.0,30.13,338.84,-80.71,175.7
48987,52.428825,-1.435865,138.74,5.26,3,184.53,25 / 25,4712310,2019-09-08 13:25:31:549,0.0764,-0.6549,9.7279,0.0029,-0.0224,9.8065,-0.072,0.015,0.0115,-7.81,-32.19,30.5,337.48,-80.68,175.78
48988,52.428825,-1.435865,138.74,5.26,3,184.53,25 / 25,4712410,2019-09-08 13:25:31:649,0.4094,-1.1296,10.0578,0.0041,-0.0164,9.8066,0.0008,-0.0191,-0.0189,-8.06,-32.19,30.13,337.08,-80.55,176.08
48989,52.428825,-1.435865,138.74,5.26,3,184.53,25 / 25,4712510,2019-09-08 13:25:31:749,0.0972,-0.5761,10.4509,-0.0062,-0.0012,9.8066,0.0695,-0.0193,0.0128,-7.75,-32.0,30.06,337.19,-80.53,176.18
48990,52.428825,-1.435865,138.74,5.26,3,184.53,25 / 25,4712610,2019-09-08 13:25:31:849,0.4289,-0.8748,10.2513,-0.0104,0.0182,9.8065,0.1055,0.0069,-0.0005,-7.75,-31.87,30.0,337.83,-80.57,176.69
48991,52.428825,-1.435865,138.74,5.26,3,184.53,23 / 26,4712710,2019-09-08 13:25:31:949,0.0792,-1.033,10.1016,0.0101,-0.0287,9.8065,-0.1622,0.0043,-0.0371,-8.31,-31.69,30.06,338.05,-80.36,176.97
48992,52.428825,-1.435865,138.74,5.26,3,184.53,23 / 26,4712809,2019-09-08 13:25:32:048,0.1497,-0.1665,9.2437,0.0116,-0.0309,9.8065,-0.1392,-0.0309,0.0088,-7.87,-32.06,30.38,338.03,-80.32,176.97
48993,52.428825,-1.435865,138.74,5.26,3,184.53,23 / 26,4712910,2019-09-08 13:25:32:149,0.4591,0.1091,10.1137,-0.0086,0.0175,9.8066,0.0985,-0.0216,-0.0023,-7.56,-31.44,30.56,339.27,-80.3,177.33
48994,52.428825,-1.435865,138.74,5.26,3,184.53,23 / 26,4713010,2019-09-08 13:25:32:249,-0.2648,-0.5977,10.0311,-0.0123,0.0345,9.8065,0.1372,-0.06,0.0386,-8.25,-31.69,30.69,339.73,-80.46,177.75
48995,52.428825,-1.435865,138.74,5.26,3,184.53,23 / 26,4713110,2019-09-08 13:25:32:349,-0.0076,-0.3604,9.8685,0.0179,-0.0521,9.8064,-0.1219,-0.015,0.0405,-8.06,-31.31,29.94,339.88,-80.45,178.34
48996,52.428825,-1.435865,138.74,5.26,3,184.53,23 / 26,4713210,2019-09-08 13:25:32:449,-0.2154,0.2292,9.7387,0.0172,-0.0575,9.8064,-0.134,-0.008,0.0574,-8.31,-31.81,30.06,340.14,-80.09,178.81
48997,52.428825,-1.435865,138.74,5.26,3,184.53,23 / 26,4713310,2019-09-08 13:25:32:549,0.3241,1.816,9.1487,-0.0191,0.0581,9.8064,0.1149,-0.0132,0.0598,-8.5,-31.44,30.13,340.72,-80.48,179.03
48998,52.428825,-1.435865,138.74,5.26,3,184.53,23 / 26,4713410,2019-09-08 13:25:32:649,0.3085,-0.7141,10.1191,-0.0336,0.0428,9.8065,0.0831,0.0088,-0.0182,-8.56,-31.69,30.5,340.3,-80.45,179.92
48999,52.428825,-1.435865,138.74,5.26,3,184.53,23 / 26,4713510,2019-09-08 13:25:32:749,0.856,-1.5589,10.3667,0.0095,-0.0446,9.8065,-0.1324,-0.0019,-0.0248,-8.81,-32.0,31.38,340.46,-80.43,-179.93
49000,52.428825,-1.435865,138.74,5.26,3,184.53,23 / 26,4713610,2019-09-08 13:25:32:849,1.5306,-0.1228,10.0036,0.0123,-0.0311,9.8066,-0.0171,0.0587,-0.1463,-8.44,-31.62,30.5,342.86,-80.25,-179.57
49001,52.428825,-1.435865,138.74,5.26,3,184.53,25 / 25,4713710,2019-09-08 13:25:32:949,-0.2,1.6465,9.5995,-0.0192,0.0374,9.8065,-0.0771,0.0366,-0.0039,-8.56,-32.37,30.25,339.36,-80.52,179.72
49002,52.428825,-1.435865,138.74,5.26,3,184.53,25 / 25,4713810,2019-09-08 13:25:33:049,1.0547,0.3544,9.9834,-0.0192,0.0305,9.8065,-0.0293,0.0592,-0.0208,-8.37,-32.19,30.44,341.75,-80.56,179.95
49003,52.428825,-1.435865,138.74,5.26,3,184.53,25 / 25,4713910,2019-09-08 13:25:33:149,-0.7449,-0.5309,10.2492,-0.0045,-0.0523,9.8065,0.0027,0.0031,0.004,-8.56,-31.62,30.69,340.7,-80.59,-179.79
49004,52.428825,-1.435865,138.74,5.26,3,184.53,25 / 25,4714010,2019-09-08 13:25:33:249,-0.4692,0.6936,9.2406,0.0236,-0.0552,9.8064,-0.0321,-0.031,0.0106,-9.5,-32.19,30.38,340.65,-80.21,-179.08
49005,52.428825,-1.435865,138.74,5.26,3,184.53,25 / 25,4714110,2019-09-08 13:25:33:349,-0.2227,0.9701,9.6153,-0.0149,0.0488,9.8064,0.077,-0.0085,0.0006,-9.0,-32.25,30.44,340.99,-80.19,-178.8
49006,52.428825,-1.435865,138.74,5.26,3,184.53,25 / 25,4714210,2019-09-08 13:25:33:449,-0.3461,1.2466,9.7346,-0.0155,0.0464,9.8065,0.0439,0.0007,0.0182,-8.75,-31.94,30.38,341.09,-80.52,-178.84
49007,52.428825,-1.435865,138.74,5.26,3,184.53,25 / 25,4714310,2019-09-08 13:25:33:549,-0.3966,0.8148,10.6369,0.0227,-0.0596,9.8064,-0.1856,-0.0004,-0.0143,-9.56,-31.94,30.06,339.11,-80.23,-178.66
49008,52.428825,-1.435865,138.74,5.26,3,184.53,25 / 25,4714410,2019-09-08 13:25:33:649,0.0044,0.9228,8.9291,0.0194,-0.0625,9.8063,-0.1532,0.0298,-0.0332,-8.69,-31.81,30.75,342.03,-80.26,-178.56
49009,52.428825,-1.435865,138.74,5.26,3,184.53,25 / 25,4714510,2019-09-08 13:25:33:749,-0.5529,0.4511,9.3976,-0.0206,0.0511,9.8064,0.0923,0.0016,-0.0372,-9.19,-32.0,30.63,342.46,-80.19,-178.19
49010,52.428825,-1.435865,138.74,5.26,3,184.53,25 / 25,4714610,2019-09-08 13:25:33:849,-0.2465,0.5977,9.7077,-0.0113,0.0379,9.8065,0.1334,-0.0134,0.0066,-9.5,-31.87,30.44,341.61,-80.47,-178.39
49011,52.428825,-1.435865,138.74,5.26,3,184.53,23 / 24,4714710,2019-09-08 13:25:33:949,0.3264,-0.3434,9.9534,0.0114,-0.0123,9.8066,-0.047,0.0049,0.0349,-8.56,-31.75,31.06,341.75,-80.42,-178.86
49012,52.428825,-1.435865,138.74,5.26,3,184.53,23 / 24,4714810,2019-09-08 13:25:34:049,-0.8962,-0.0897,10.0137,0.0105,0.0108,9.8066,-0.0162,-0.0477,0.1047,-9.19,-32.37,30.56,340.84,-80.4,-179.6
49013,52.428825,-1.435865,138.74,5.26,3,184.53,23 / 24,4714910,2019-09-08 13:25:34:149,0.7114,-1.0174,10.2588,0.0191,-0.0213,9.8066,-0.006,-0.0275,-0.0176,-8.62,-31.44,30.56,340.26,-80.27,179.86
49014,52.428825,-1.435865,138.74,5.26,3,184.53,23 / 24,4715010,2019-09-08 13:25:34:249,0.2225,0.2929,9.893,0.0032,-0.0231,9.8066,0.0179,-0.0027,0.0001,-8.5,-31.5,30.5,342.45,-80.28,179.99
49015,52.428825,-1.435865,138.74,5.26,3,184.53,23 / 24,4715110,2019-09-08 13:25:34:349,-0.6726,1.2237,10.0037,-0.002,0.011,9.8065,0.0261,0.063,-0.0444,-9.0,-31.56,30.94,340.79,-80.28,-179.6
49016,52.428825,-1.435865,138.74,5.26,3,184.53,23 / 24,4715210,2019-09-08 13:25:34:449,-0.4873,-0.4682,9.9922,0.007,0.0154,9.8065,0.0933,-0.0004,0.1097,-7.94,-31.56,31.0,342.0,-80.31,179.69
49017,52.428825,-1.435865,138.74,5.26,3,184.53,23 / 24,4715310,2019-09-08 13:25:34:549,-0.0812,-0.2779,9.8047,0.007,-0.017,9.8065,-0.0482,0.0227,0.0215,-8.69,-31.94,30.56,340.12,-80.19,179.88
49018,52.428825,-1.435865,138.74,5.26,3,184.53,23 / 24,4715410,2019-09-08 13:25:34:649,-0.2273,1.1523,9.9237,0.0068,-0.01,9.8066,-0.0761,0.0191,0.0077,-7.94,-31.94,30.25,341.05,-80.24,179.49
49019,52.428825,-1.435865,138.74,5.26,3,184.53,23 / 24,4715510,2019-09-08 13:25:34:749,0.3028,0.3022,9.6725,0.003,-0.0063,9.8066,-0.0142,-0.0189,0.0346,-8.06,-31.62,30.63,342.05,-80.33,179.73
49020,52.428825,-1.435865,138.74,5.26,3,184.53,23 / 24,4715610,2019-09-08 13:25:34:849,0.5925,0.6795,9.6561,-0.0027,0.0035,9.8066,-0.0065,0.0324,0.0051,-8.81,-32.56,30.94,339.84,-80.35,179.68
49021,52.428825,-1.435865,138.74,5.26,3,184.53,22 / 23,4715710,2019-09-08 13:25:34:949,0.5085,0.2909,9.7344,-0.0093,0.0053,9.8066,0.0275,-0.0133,0.02,-8.19,-31.87,31.0,342.02,-80.38,179.69
49022,52.428825,-1.435865,138.74,5.26,3,184.53,22 / 23,4715810,2019-09-08 13:25:35:049,-0.567,0.6769,9.8144,-0.009,0.0059,9.8066,0.0517,-0.0384,0.0412,-8.56,-31.69,30.75,341.05,-80.46,-179.45
49023,52.428825,-1.435865,138.74,5.26,3,184.53,22 / 23,4715910,2019-09-08 13:25:35:149,0.3536,0.2099,9.9169,0.0097,-0.0263,9.8066,-0.0354,-0.0241,-0.0009,-8.87,-31.87,30.56,341.74,-80.28,-178.81
49024,52.428825,-1.435865,138.74,5.26,3,184.53,22 / 23,4716010,2019-09-08 13:25:35:249,0.3574,0.0019,9.4897,0.0007,-0.0237,9.8066,-0.0252,-0.0356,-0.02,-8.19,-31.75,29.44,343.07,-80.26,-178.27
49025,52.428825,-1.435865,138.74,5.26,3,184.53,22 / 23,4716109,2019-09-08 13:25:35:348,-0.1548,1.1122,9.4684,-0.0042,0.0145,9.8066,0.0249,-0.0265,-0.0284,-9.06,-32.12,30.06,342.17,-80.21,-177.83
49026,52.428825,-1.435865,138.74,5.26,3,184.53,22 / 23,4716210,2019-09-08 13:25:35:449,0.2806,0.016,9.7635,0.0018,0.0057,9.8066,-0.0237,0.0001,-0.0681,-9.25,-31.75,30.31,342.16,-80.26,-177.86
49027,52.428825,-1.435865,138.74,5.26,3,184.53,22 / 23,4716310,2019-09-08 13:25:35:549,-0.086,0.3961,9.9683,-0.0086,0.009,9.8066,0.0094,0.0355,-0.0166,-8.19,-31.81,30.31,344.17,-80.3,-177.96
49028,52.428825,-1.435865,138.74,5.26,3,184.53,22 / 23,4716410,2019-09-08 13:25:35:649,-0.3935,0.7772,9.8185,0.0035,0.0108,9.8066,0.0082,-0.0342,0.0284,-9.37,-31.75,30.31,342.0,-80.38,-178.03
49029,52.428825,-1.435865,138.74,5.26,3,184.53,22 / 23,4716510,2019-09-08 13:25:35:749,0.1693,0.2463,10.3639,0.0024,-0.0123,9.8065,0.0287,0.0029,0.0246,-9.0,-31.75,30.69,342.53,-80.29,-178.16
49030,52.428825,-1.435865,138.74,5.26,3,184.53,22 / 23,4716610,2019-09-08 13:25:35:849,0.0375,0.1603,10.1219,-0.0019,0.0042,9.8066,0.103,-0.0259,0.0141,-8.69,-31.69,29.75,342.06,-80.27,-177.95
49031,52.428825,-1.435865,138.74,5.26,3,184.53,26 / 26,4716710,2019-09-08 13:25:35:949,-0.0468,-0.1424,10.2448,0.0134,-0.026,9.8066,-0.1047,-0.0474,-0.0386,-9.94,-31.62,30.19,340.61,-80.23,-177.42
49032,52.428825,-1.435865,138.74,5.26,3,184.53,26 / 26,4716810,2019-09-08 13:25:36:049,0.1495,0.5465,9.4371,0.0132,-0.0342,9.8065,-0.0861,-0.0039,-0.0472,-8.81,-30.94,30.25,342.29,-80.0,-177.75
49033,52.428825,-1.435865,138.74,5.26,3,184.53,26 / 26,4716910,2019-09-08 13:25:36:149,0.0547,0.5495,9.8386,-0.0122,0.0444,9.8065,0.1146,0.0088,-0.0423,-9.06,-31.44,30.38,341.74,-79.93,-178.19
49034,52.428825,-1.435865,138.74,5.26,3,184.53,26 / 26,4717010,2019-09-08 13:25:36:249,-0.4776,0.8779,9.9803,-0.009,0.0489,9.8065,0.1331,-0.0188,-0.019,-9.06,-31.31,30.13,341.1,-80.26,-178.84
49035,52.428825,-1.435865,138.74,5.26,3,184.53,26 / 26,4717110,2019-09-08 13:25:36:349,0.2349,1.0452,10.6622,0.0123,-0.0482,9.8065,-0.0762,0.0183,-0.0559,-8.56,-31.69,30.56,340.55,-79.96,-179.68
49036,52.428825,-1.435865,138.74,5.26,3,184.53,26 / 26,4717210,2019-09-08 13:25:36:449,0.3991,-0.4876,10.0047,0.0176,-0.0174,9.8066,0.0717,0.0039,-0.0038,-9.12,-32.19,30.69,339.84,-79.95,179.74
49037,52.428825,-1.435865,138.74,5.26,3,184.53,26 / 26,4717310,2019-09-08 13:25:36:549,0.4843,-0.1371,9.5134,0.0059,-0.0178,9.8066,-0.1093,-0.0181,0.0362,-8.56,-31.19,30.25,338.91,-79.96,179.47
49038,52.428825,-1.435865,138.74,5.26,3,184.53,26 / 26,4717410,2019-09-08 13:25:36:649,0.3541,1.1506,9.7713,0.0002,-0.0092,9.8066,-0.0774,0.0565,-0.0041,-8.87,-31.62,30.69,339.65,-79.86,179.62
49039,52.428825,-1.435865,138.74,5.26,3,184.53,26 / 26,4717510,2019-09-08 13:25:36:749,0.1423,0.3668,9.7666,0.0088,0.0078,9.8066,-0.0425,0.0373,-0.0397,-9.31,-31.19,30.63,339.69,-79.95,179.51
49040,52.428825,-1.435865,138.74,5.26,3,184.53,26 / 26,4717610,2019-09-08 13:25:36:849,0.872,1.3396,10.0447,0.0026,-0.002,9.8066,-0.0143,-0.0174,0.0342,-8.62,-31.69,30.69,338.51,-80.18,178.54
49041,52.428825,-1.435865,138.74,5.26,3,184.53,23 / 25,4717710,2019-09-08 13:25:36:949,-0.6948,1.5554,9.7478,-0.0261,0.0064,9.8066,0.0313,-0.0695,0.0846,-9.81,-31.06,30.25,338.95,-80.47,-179.0
49042,52.428825,-1.435865,138.74,5.26,3,184.53,23 / 25,4717810,2019-09-08 13:25:37:049,-0.675,0.8011,8.5555,0.0165,-0.0087,9.8066,-0.1691,-0.0144,-0.0537,-9.06,-31.81,29.5,341.4,-80.34,-178.52
49043,52.428825,-1.435865,138.74,5.26,3,184.53,23 / 25,4717910,2019-09-08 13:25:37:149,1.5643,1.7375,8.9349,-0.0076,0.0478,9.8065,0.2836,0.0665,-0.0125,-8.31,-31.87,28.69,341.11,-80.19,-179.85
49044,52.428825,-1.435865,138.74,5.26,3,184.53,23 / 25,4718010,2019-09-08 13:25:37:249,-0.6635,0.0002,10.5468,0.0096,0.0324,9.8066,0.2178,-0.096,0.0406,-8.5,-33.12,29.63,341.19,-80.3,179.69
49045,52.428825,-1.435865,138.74,5.26,3,184.53,23 / 25,4718110,2019-09-08 13:25:37:349,0.2089,1.5138,10.5464,0.0136,-0.0318,9.8065,-0.1429,-0.0795,0.1476,-7.94,-33.19,30.0,342.05,-80.4,-179.65
49046,52.428825,-1.435865,138.74,5.26,3,184.53,23 / 25,4718210,2019-09-08 13:25:37:449,-2.3724,1.9831,9.933,-0.0038,0.0202,9.8066,-0.0827,-0.0204,0.1911,-8.94,-32.69,30.88,341.36,-80.37,-179.07
49047,52.428825,-1.435865,138.74,5.26,3,184.53,23 / 25,4718310,2019-09-08 13:25:37:549,-0.5491,-0.1141,10.2819,0.0135,-0.0213,9.8066,-0.0088,-0.0427,0.1438,-8.87,-32.56,30.94,341.66,-80.12,-178.73
49048,52.428825,-1.435865,138.74,5.26,3,184.53,23 / 25,4718410,2019-09-08 13:25:37:649,-0.7296,1.368,10.7018,0.0026,-0.0128,9.8066,0.0391,0.019,-0.052,-8.5,-32.5,30.81,344.31,-80.08,-178.32
49049,52.428825,-1.435865,138.74,5.26,3,184.53,23 / 25,4718510,2019-09-08 13:25:37:749,-1.016,1.5703,10.3676,0.0044,0.0079,9.8066,0.1196,0.0013,-0.1072,-8.75,-31.62,31.06,341.34,-80.05,-179.06
49050,52.428825,-1.435865,138.74,5.26,3,184.53,23 / 25,4718610,2019-09-08 13:25:37:849,-0.2753,0.9017,10.8197,-0.0094,0.0331,9.8066,0.1499,-0.0248,-0.0498,-9.87,-32.06,31.19,338.33,-80.13,-179.93
49051,52.428825,-1.435865,138.74,5.26,3,184.53,25 / 25,4718709,2019-09-08 13:25:37:948,-0.494,0.8035,10.4712,0.0165,-0.0501,9.8064,-0.0265,0.0035,0.0038,-9.12,-32.06,30.81,339.75,-80.16,179.59
49052,52.428825,-1.435865,138.74,5.26,3,184.53,25 / 25,4718810,2019-09-08 13:25:38:049,0.6234,1.3216,9.7427,0.0196,-0.0425,9.8064,-0.0268,0.0293,0.0038,-8.5,-32.37,31.13,341.44,-79.76,179.43
49053,52.428825,-1.435865,138.74,5.26,3,184.53,25 / 25,4718910,2019-09-08 13:25:38:149,0.274,1.8334,9.3317,-0.0105,0.0403,9.8065,0.0337,0.0619,-0.0615,-9.31,-32.25,30.69,338.99,-79.91,179.05
49054,52.428825,-1.435865,138.74,5.26,3,184.53,25 / 25,4719010,2019-09-08 13:25:38:249,0.3497,1.4595,9.5446,-0.0004,0.0321,9.8065,-0.0131,0.043,-0.0088,-9.12,-31.44,30.5,338.02,-79.87,178.15
49055,52.428825,-1.435865,138.74,5.26,3,184.53,25 / 25,4719110,2019-09-08 13:25:38:349,0.5712,1.4575,9.5536,0.0049,-0.0044,9.8066,0.0253,0.0073,0.0273,-9.0,-31.87,31.25,338.04,-79.84,178.3
49056,52.428825,-1.435865,138.74,5.26,3,184.53,25 / 25,4719209,2019-09-08 13:25:38:448,1.1179,1.6067,9.2355,0.0001,-0.0008,9.8066,-0.0119,0.0782,-0.0365,-9.0,-32.19,30.88,337.95,-79.87,178.21
49057,52.428825,-1.435865,138.74,5.26,3,184.53,25 / 25,4719310,2019-09-08 13:25:38:549,0.101,1.6591,9.8436,-0.0005,0.0087,9.8066,-0.0398,0.0537,0.0191,-9.56,-32.81,30.75,336.0,-79.9,178.36
49058,52.428825,-1.435865,138.74,5.26,3,184.53,25 / 25,4719410,2019-09-08 13:25:38:649,0.6588,1.1833,9.599,-0.0008,0.0059,9.8066,-0.0145,0.1144,0.0046,-9.87,-32.37,30.44,335.0,-80.02,178.03
49059,52.428825,-1.435865,138.74,5.26,3,184.53,25 / 25,4719509,2019-09-08 13:25:38:748,-0.1368,1.7456,9.8672,-0.0209,0.0151,9.8066,0.0212,0.0599,0.0198,-8.62,-31.87,30.56,339.09,-80.17,179.04
49060,52.428825,-1.435865,138.74,5.26,3,184.53,25 / 25,4719610,2019-09-08 13:25:38:849,-0.078,2.4451,9.7382,-0.0172,0.0085,9.8066,-0.0534,0.0657,-0.0395,-9.87,-32.44,29.94,337.6,-80.21,-179.9
49061,52.428314,-1.435923,139.12,4.78,3,180.0,25 / 25,4719710,2019-09-08 13:25:38:949,-0.8436,1.7344,9.5805,-0.0159,0.0188,9.8066,-0.0328,0.0727,-0.0052,-10.5,-32.19,30.88,339.07,-80.35,-179.4
49062,52.428314,-1.435923,139.12,4.78,3,180.0,25 / 25,4719810,2019-09-08 13:25:39:049,-0.6396,0.8111,10.1086,0.0012,-0.0274,9.8065,-0.0135,0.0152,0.0274,-10.06,-32.19,30.5,339.99,-80.26,-178.6
49063,52.428314,-1.435923,139.12,4.78,3,180.0,25 / 25,4719910,2019-09-08 13:25:39:149,-0.4435,1.5197,9.4265,-0.017,0.0161,9.8065,-0.0145,0.007,0.07,-9.56,-31.94,30.81,340.52,-80.29,-178.17
49064,52.428314,-1.435923,139.12,4.78,3,180.0,25 / 25,4720010,2019-09-08 13:25:39:249,-0.8078,1.1246,9.882,-0.0313,0.0188,9.8066,-0.0334,0.0091,0.0583,-10.81,-32.06,30.44,339.69,-80.46,-176.61
49065,52.428314,-1.435923,139.12,4.78,3,180.0,25 / 25,4720110,2019-09-08 13:25:39:349,-1.095,0.6547,10.3678,-0.0119,-0.0096,9.8066,0.088,-0.0686,0.0468,-11.37,-31.56,30.56,342.85,-80.49,-174.67
49066,52.428314,-1.435923,139.12,4.78,3,180.0,25 / 25,4720210,2019-09-08 13:25:39:449,-1.2649,0.1848,10.3186,-0.0099,-0.008,9.8066,0.0755,-0.097,0.0705,-10.62,-32.37,30.94,344.04,-80.51,-173.69
49067,52.428314,-1.435923,139.12,4.78,3,180.0,25 / 25,4720310,2019-09-08 13:25:39:549,-1.985,1.3152,9.5199,-0.0173,-0.0076,9.8066,-0.0953,-0.1402,0.0375,-10.94,-32.25,31.56,346.12,-80.48,-172.57
49068,52.428314,-1.435923,139.12,4.78,3,180.0,25 / 25,4720410,2019-09-08 13:25:39:649,-2.2859,1.2973,9.3886,0.0018,-0.0072,9.8066,-0.0835,-0.1594,0.0362,-11.25,-32.19,31.5,347.2,-80.42,-171.66
49069,52.428314,-1.435923,139.12,4.78,3,180.0,25 / 25,4720510,2019-09-08 13:25:39:749,-2.2947,0.8952,9.6374,-0.0029,0.022,9.8065,0.0117,-0.2445,0.005,-11.56,-31.94,31.69,344.96,-80.43,-171.97
49070,52.428314,-1.435923,139.12,4.78,3,180.0,25 / 25,4720610,2019-09-08 13:25:39:849,-1.3841,1.0874,9.3861,-0.0075,0.0199,9.8065,0.0153,-0.2635,0.0256,-11.19,-32.19,31.06,345.68,-80.64,-172.36
49071,52.428314,-1.435923,139.12,4.78,3,180.0,26 / 26,4720710,2019-09-08 13:25:39:949,-2.0141,0.8552,9.6484,0.0092,-0.0063,9.8066,-0.0505,-0.3242,0.033,-10.0,-31.81,31.69,348.12,-80.62,-172.53
49072,52.428314,-1.435923,139.12,4.78,3,180.0,26 / 26,4720810,2019-09-08 13:25:40:049,-1.917,0.5465,9.6643,0.0048,-0.0017,9.8066,-0.0478,-0.3719,0.0579,-9.19,-32.31,32.0,349.74,-80.69,-172.83
49073,52.428314,-1.435923,139.12,4.78,3,180.0,26 / 26,4720910,2019-09-08 13:25:40:149,-2.3398,0.9687,9.692,-0.0014,0.0191,9.8065,-0.0406,-0.424,0.0852,-9.25,-32.44,31.56,349.98,-80.86,-172.66
49074,52.428314,-1.435923,139.12,4.78,3,180.0,26 / 26,4721009,2019-09-08 13:25:40:248,-1.6666,1.0972,9.62,-0.0102,0.0237,9.8066,-0.0589,-0.3961,0.0607,-8.81,-32.62,31.25,349.52,-81.19,-172.54
49075,52.428314,-1.435923,139.12,4.78,3,180.0,26 / 26,4721110,2019-09-08 13:25:40:349,-2.4589,1.178,10.4183,-0.0123,0.0085,9.8066,-0.0364,-0.4845,0.115,-8.12,-32.62,30.75,352.31,-81.44,-171.96
49076,52.428314,-1.435923,139.12,4.78,3,180.0,26 / 26,4721210,2019-09-08 13:25:40:449,-2.0957,1.3679,9.5773,0.0032,0.0123,9.8066,-0.0261,-0.498,0.0497,-6.69,-32.81,30.38,354.66,-81.69,-171.33
49077,52.428314,-1.435923,139.12,4.78,3,180.0,26 / 26,4721310,2019-09-08 13:25:40:549,-1.787,0.6866,9.7864,0.002,-0.0095,9.8066,-0.0404,-0.4886,0.0473,-5.25,-33.0,30.56,358.17,-81.75,-172.37
49078,52.428314,-1.435923,139.12,4.78,3,180.0,26 / 26,4721410,2019-09-08 13:25:40:649,-3.306,0.0157,10.5189,-0.0029,-0.0194,9.8066,0.0449,-0.616,0.148,-4.81,-33.12,30.31,357.99,-81.8,-172.21
49079,52.428314,-1.435923,139.12,4.78,3,180.0,26 / 26,4721510,2019-09-08 13:25:40:749,-2.1152,1.3754,9.8295,0.019,0.013,9.8066,0.0185,-0.56,0.1129,-4.0,-33.69,29.94,359.79,-81.86,-172.58
49080,52.428314,-1.435923,139.12,4.78,3,180.0,26 / 26,4721610,2019-09-08 13:25:40:849,-1.562,0.7451,9.8339,-0.0131,0.0089,9.8066,0.0419,-0.5233,0.0639,-3.75,-33.25,28.19,358.51,-81.87,-173.1
49081,52.428314,-1.435923,139.12,4.78,3,180.0,26 / 26,4721711,2019-09-08 13:25:40:950,-1.5655,1.0818,9.7286,-0.0023,-0.0214,9.8065,-0.0116,-0.6103,0.1061,-2.62,-33.06,28.06,0.47,-81.82,-173.5
49082,52.428314,-1.435923,139.12,4.78,3,180.0,26 / 26,4721809,2019-09-08 13:25:41:048,-1.9644,1.4588,9.981,-0.0027,-0.0211,9.8065,-0.0258,-0.658,0.1233,-0.94,-32.75,27.63,6.3,-81.61,-172.81
49083,52.428314,-1.435923,139.12,4.78,3,180.0,26 / 26,4721910,2019-09-08 13:25:41:149,-1.5575,1.6504,9.8251,0.0233,0.0114,9.8065,0.0172,-0.65,0.0617,-0.44,-34.19,26.69,8.31,-81.57,-173.31
49084,52.428314,-1.435923,139.12,4.78,3,180.0,26 / 26,4722010,2019-09-08 13:25:41:249,-1.11,1.1646,9.59,0.0015,-0.0027,9.8066,0.0038,-0.6255,0.0591,0.5,-34.0,25.88,9.03,-81.64,-174.98
49085,52.428314,-1.435923,139.12,4.78,3,180.0,26 / 26,4722111,2019-09-08 13:25:41:350,-0.9691,1.2572,9.5851,0.0021,-0.0104,9.8066,-0.0199,-0.6358,0.094,2.94,-33.69,24.44,14.84,-81.56,-175.47
49086,52.428314,-1.435923,139.12,4.78,3,180.0,26 / 26,4722210,2019-09-08 13:25:41:449,-0.807,1.7207,9.2857,-0.0114,-0.0123,9.8066,-0.0833,-0.5841,0.0648,3.06,-34.12,23.13,16.15,-81.53,-174.9
49087,52.428314,-1.435923,139.12,4.78,3,180.0,26 / 26,4722310,2019-09-08 13:25:41:549,0.0556,0.8538,9.5697,0.0101,0.0123,9.8066,0.0393,-0.5802,0.1318,4.13,-33.81,22.31,20.22,-81.54,-174.73
49088,52.428314,-1.435923,139.12,4.78,3,180.0,26 / 26,4722410,2019-09-08 13:25:41:649,-0.6306,1.6056,10.2133,-0.0082,0.0215,9.8066,-0.0285,-0.5283,0.1137,3.38,-33.75,22.31,17.61,-81.75,-174.14
49089,52.428314,-1.435923,139.12,4.78,3,180.0,26 / 26,4722509,2019-09-08 13:25:41:748,0.0784,2.0002,9.6672,-0.0129,0.013,9.8066,-0.1019,-0.4899,0.1078,3.75,-34.56,20.63,23.58,-81.92,-172.7
49090,52.428314,-1.435923,139.12,4.78,3,180.0,26 / 26,4722610,2019-09-08 13:25:41:849,-0.3712,2.8355,9.9591,-0.0095,0.0208,9.8066,-0.0421,-0.4721,0.1077,4.44,-35.12,19.75,27.34,-82.11,-170.41
49091,52.428314,-1.435923,139.12,4.78,3,180.0,26 / 26,4722710,2019-09-08 13:25:41:949,-0.0048,2.9275,10.1342,0.0061,-0.0116,9.8066,0.007,-0.4548,0.0323,5.44,-35.25,19.5,30.7,-82.24,-170.3
49092,52.428314,-1.435923,139.12,4.78,3,180.0,26 / 26,4722810,2019-09-08 13:25:42:049,1.0892,2.6822,9.8853,-0.0072,-0.0348,9.8065,0.0055,-0.4295,-0.0034,5.38,-35.06,18.19,32.36,-82.1,-171.35
49093,52.428314,-1.435923,139.12,4.78,3,180.0,26 / 26,4722910,2019-09-08 13:25:42:149,1.8497,2.1622,9.4353,0.0336,-0.0018,9.8066,0.1233,-0.4111,-0.0578,6.69,-35.0,18.19,37.64,-81.92,-172.87
49094,52.428314,-1.435923,139.12,4.78,3,180.0,26 / 26,4723010,2019-09-08 13:25:42:249,1.6287,1.6714,9.934,0.0218,0.0,9.8065,0.1105,-0.3385,0.0105,6.56,-35.25,17.81,33.73,-81.82,-176.05
49095,52.428314,-1.435923,139.12,4.78,3,180.0,26 / 26,4723110,2019-09-08 13:25:42:349,1.5199,1.2713,9.5101,-0.0171,-0.0367,9.8065,-0.0927,-0.3153,0.0408,6.88,-35.25,16.81,35.15,-81.41,-176.99
49096,52.428314,-1.435923,139.12,4.78,3,180.0,26 / 26,4723210,2019-09-08 13:25:42:449,2.6092,1.9691,9.7334,-0.0293,-0.0339,9.8065,-0.1,-0.2549,0.0061,7.0,-35.06,16.44,38.04,-81.26,-176.78
49097,52.428314,-1.435923,139.12,4.78,3,180.0,26 / 26,4723310,2019-09-08 13:25:42:549,2.0731,1.8209,9.5186,0.0092,0.0182,9.8066,0.0769,-0.212,0.0523,6.38,-35.12,15.94,34.06,-81.2,-176.95
49098,52.428314,-1.435923,139.12,4.78,3,180.0,26 / 26,4723410,2019-09-08 13:25:42:649,1.3688,0.7621,9.8457,0.0086,0.0204,9.8066,0.0561,-0.1912,0.0354,7.19,-34.75,15.75,38.38,-81.28,-176.49
49099,52.428314,-1.435923,139.12,4.78,3,180.0,26 / 26,4723511,2019-09-08 13:25:42:750,1.5771,0.6892,9.8238,-0.0137,-0.0157,9.8066,-0.0554,-0.1489,0.04,6.94,-35.25,15.19,41.39,-81.24,-176.31
49100,52.428314,-1.435923,139.12,4.78,3,180.0,26 / 26,4723609,2019-09-08 13:25:42:848,1.4918,1.0708,9.7871,-0.0165,-0.0093,9.8066,-0.0308,-0.1145,0.0414,6.88,-35.44,15.13,42.35,-81.11,-175.79
49101,52.428314,-1.435923,139.12,4.78,3,180.0,26 / 26,4723710,2019-09-08 13:25:42:949,1.5121,1.0089,9.6604,0.0013,0.0131,9.8066,0.0433,-0.0928,0.0241,6.63,-35.87,15.06,43.63,-81.18,-175.11
49102,52.428314,-1.435923,139.12,4.78,3,180.0,26 / 26,4723810,2019-09-08 13:25:43:049,1.0963,0.5553,10.1336,0.001,0.0182,9.8066,0.0641,-0.0791,0.0163,6.81,-35.62,14.38,47.88,-81.17,-174.31
49103,52.428314,-1.435923,139.12,4.78,3,180.0,26 / 26,4723909,2019-09-08 13:25:43:148,1.1011,0.5486,9.9836,-0.0145,-0.009,9.8066,-0.0387,-0.0451,0.0097,7.38,-35.75,14.44,48.42,-81.17,-173.9
49104,52.428314,-1.435923,139.12,4.78,3,180.0,26 / 26,4724010,2019-09-08 13:25:43:249,0.9681,0.6078,9.9719,-0.0124,-0.0074,9.8066,-0.0331,-0.0267,0.011,6.13,-35.62,14.5,42.3,-81.07,-173.38
49105,52.428314,-1.435923,139.12,4.78,3,180.0,26 / 26,4724110,2019-09-08 13:25:43:349,0.7905,0.4519,9.7221,0.0026,0.011,9.8066,0.0344,-0.0346,0.0145,6.44,-35.06,14.38,45.33,-81.07,-173.0
49106,52.428314,-1.435923,139.12,4.78,3,180.0,26 / 26,4724210,2019-09-08 13:25:43:449,0.731,0.328,9.9236,-0.0005,0.0106,9.8066,0.0251,-0.0059,0.0076,6.94,-35.12,14.5,46.94,-81.12,-172.31
49107,52.428314,-1.435923,139.12,4.78,3,180.0,26 / 26,4724310,2019-09-08 13:25:43:549,0.2469,0.0806,9.7574,-0.0075,0.0052,9.8066,-0.0066,0.0011,0.0103,7.06,-36.06,14.63,48.54,-81.09,-171.54
49108,52.428314,-1.435923,139.12,4.78,3,180.0,26 / 26,4724410,2019-09-08 13:25:43:649,0.0699,0.0888,10.0116,-0.01,0.0082,9.8066,0.0345,-0.0112,0.0189,7.06,-35.44,14.63,49.22,-81.07,-170.64
49109,52.428314,-1.435923,139.12,4.78,3,180.0,26 / 26,4724510,2019-09-08 13:25:43:749,0.0642,-0.1188,9.7526,-0.0086,-0.0005,9.8066,-0.0028,-0.0112,0.0,6.31,-35.62,15.31,47.11,-81.04,-169.88
49110,52.428314,-1.435923,139.12,4.78,3,180.0,26 / 26,4724610,2019-09-08 13:25:43:849,0.2048,-0.014,9.8216,0.0,0.0046,9.8066,-0.0205,0.0043,-0.0126,6.5,-35.44,14.25,54.17,-81.01,-169.32
49111,52.428314,-1.435923,139.12,4.78,3,180.0,26 / 26,4724710,2019-09-08 13:25:43:949,0.3137,0.0815,9.8517,-0.0007,0.0058,9.8066,-0.0046,-0.015,0.0017,6.81,-35.37,15.13,51.43,-81.03,-168.99
49112,52.428314,-1.435923,139.12,4.78,3,180.0,26 / 26,4724810,2019-09-08 13:25:44:049,0.3766,-0.0656,9.7211,-0.0011,0.0035,9.8066,-0.0045,-0.0029,-0.0106,6.69,-35.37,14.75,51.68,-81.05,-168.74
49113,52.428314,-1.435923,139.12,4.78,3,180.0,26 / 26,4724910,2019-09-08 13:25:44:149,0.4519,0.0362,9.9538,-0.0025,0.0076,9.8066,0.0331,-0.0147,0.0069,6.5,-35.5,14.81,52.38,-81.07,-168.16
49114,52.428314,-1.435923,139.12,4.78,3,180.0,26 / 26,4725010,2019-09-08 13:25:44:249,0.4161,0.1762,10.037,-0.0039,0.0026,9.8066,0.0294,-0.0192,-0.0012,6.63,-36.06,14.81,53.47,-81.09,-167.71
49115,52.428314,-1.435923,139.12,4.78,3,180.0,26 / 26,4725110,2019-09-08 13:25:44:349,0.2717,-0.104,9.6788,-0.004,0.0032,9.8066,-0.0028,0.0003,0.0139,6.75,-36.31,14.5,54.26,-81.1,-167.07
49116,52.428314,-1.435923,139.12,4.78,3,180.0,26 / 26,4725210,2019-09-08 13:25:44:449,0.3058,-0.0523,9.8086,0.0002,0.0068,9.8066,-0.0097,0.0035,0.0077,6.25,-35.75,15.0,51.17,-81.16,-166.56
49117,52.428314,-1.435923,139.12,4.78,3,180.0,26 / 26,4725310,2019-09-08 13:25:44:549,0.3915,0.0017,10.0148,0.0013,0.0079,9.8066,-0.0149,-0.0006,0.0076,6.5,-35.56,14.88,55.16,-81.18,-166.2
49118,52.428314,-1.435923,139.12,4.78,3,180.0,26 / 26,4725410,2019-09-08 13:25:44:649,0.3758,-0.0999,9.8198,-0.0039,0.0009,9.8066,-0.0156,0.0046,-0.0046,6.56,-35.62,15.63,52.63,-81.2,-165.96
49119,52.428314,-1.435923,139.12,4.78,3,180.0,26 / 26,4725510,2019-09-08 13:25:44:749,0.0745,-0.2948,9.6448,-0.0007,0.0055,9.8066,-0.0092,-0.0132,-0.0022,5.5,-35.75,15.94,49.52,-81.2,-165.67
49120,52.428314,-1.435923,139.12,4.78,3,180.0,26 / 26,4725609,2019-09-08 13:25:44:848,0.1654,-0.226,9.8522,-0.0043,0.0018,9.8066,0.0232,-0.016,-0.007,5.56,-35.62,16.56,47.67,-81.19,-165.26
49121,52.428314,-1.435923,139.12,4.78,3,180.0,24 / 25,4725710,2019-09-08 13:25:44:949,0.0078,-0.3112,9.668,-0.0022,0.0011,9.8066,-0.0006,0.0043,0.0102,4.63,-35.44,16.75,43.88,-81.19,-165.01
49122,52.428314,-1.435923,139.12,4.78,3,180.0,24 / 25,4725810,2019-09-08 13:25:45:049,0.2085,-0.1795,9.671,-0.0002,0.0036,9.8065,-0.0234,0.0204,-0.0091,4.63,-35.19,16.5,44.15,-81.21,-164.78
49123,52.428314,-1.435923,139.12,4.78,3,180.0,24 / 25,4725910,2019-09-08 13:25:45:149,0.1598,0.0315,9.9208,0.0011,0.0075,9.8066,0.0024,-0.0198,0.0278,4.88,-35.5,15.94,46.52,-81.24,-164.59
49124,52.428314,-1.435923,139.12,4.78,3,180.0,24 / 25,4726010,2019-09-08 13:25:45:249,0.6528,0.1121,9.8819,-0.0055,-0.0016,9.8066,-0.0243,-0.0113,-0.0165,5.31,-35.69,17.31,45.28,-81.25,-164.2
49125,52.428314,-1.435923,139.12,4.78,3,180.0,24 / 25,4726110,2019-09-08 13:25:45:349,0.5732,0.0327,9.8912,-0.0006,0.0017,9.8066,0.0013,0.0058,0.0045,5.5,-35.69,16.5,49.31,-81.25,-163.87
49126,52.428314,-1.435923,139.12,4.78,3,180.0,24 / 25,4726211,2019-09-08 13:25:45:450,0.3714,-0.1172,9.8003,-0.0017,0.0024,9.8066,-0.0055,-0.0077,0.0046,5.06,-35.81,16.63,45.96,-81.28,-163.63
49127,52.428314,-1.435923,139.12,4.78,3,180.0,24 / 25,4726310,2019-09-08 13:25:45:549,0.3387,0.0106,9.8435,-0.0024,0.0027,9.8066,-0.0132,-0.0087,-0.0137,5.19,-35.5,16.88,45.96,-81.29,-163.25
49128,52.428314,-1.435923,139.12,4.78,3,180.0,24 / 25,4726410,2019-09-08 13:25:45:649,0.5063,-0.0033,9.9008,0.0019,0.0001,9.8066,0.0087,0.0033,0.0193,5.94,-35.62,16.25,52.37,-81.33,-163.17
49129,52.428314,-1.435923,139.12,4.78,3,180.0,24 / 25,4726510,2019-09-08 13:25:45:749,0.5309,0.1204,9.8867,-0.0034,0.0014,9.8066,0.0119,-0.0193,0.0048,5.31,-35.37,16.69,46.27,-81.36,-162.9
49130,52.428314,-1.435923,139.12,4.78,3,180.0,24 / 25,4726610,2019-09-08 13:25:45:849,0.5741,0.1029,9.9319,0.0007,0.0056,9.8066,-0.0065,0.0044,-0.0005,5.19,-36.0,16.5,46.84,-81.36,-162.81
49131,52.428314,-1.435923,139.12,4.78,3,180.0,26 / 27,4726710,2019-09-08 13:25:45:949,0.3583,0.0097,9.9068,0.0003,0.0044,9.8066,-0.0071,-0.0075,-0.0007,5.5,-35.62,17.06,50.81,-81.41,-162.4
49132,52.428314,-1.435923,139.12,4.78,3,180.0,26 / 27,4726809,2019-09-08 13:25:46:048,0.6293,-0.0949,9.8179,0.0006,0.0059,9.8066,0.0074,-0.0151,0.0082,5.19,-35.37,16.25,49.29,-81.44,-162.09
49133,52.428314,-1.435923,139.12,4.78,3,180.0,26 / 27,4726910,2019-09-08 13:25:46:149,0.6268,0.0956,9.8508,-0.0008,0.0064,9.8066,0.0061,-0.0006,-0.0011,5.38,-35.37,16.75,47.71,-81.51,-161.52
49134,52.428314,-1.435923,139.12,4.78,3,180.0,26 / 27,4727010,2019-09-08 13:25:46:249,0.4649,0.189,9.7885,0.001,0.0058,9.8066,-0.0136,0.0025,-0.0107,4.88,-35.25,16.5,48.07,-81.59,-161.12
49135,52.428314,-1.435923,139.12,4.78,3,180.0,26 / 27,4727110,2019-09-08 13:25:46:349,0.7816,0.355,9.7594,0.0018,0.0057,9.8066,-0.014,-0.0035,-0.0076,4.88,-35.56,16.56,48.58,-81.64,-160.99
49136,52.428314,-1.435923,139.12,4.78,3,180.0,26 / 27,4727210,2019-09-08 13:25:46:449,0.7103,0.5271,9.8284,-0.0002,0.0018,9.8066,-0.0107,-0.0142,-0.0015,4.94,-35.94,16.44,50.96,-81.69,-160.74
49137,52.428314,-1.435923,139.12,4.78,3,180.0,26 / 27,4727310,2019-09-08 13:25:46:549,0.6869,0.532,9.839,-0.0014,0.0015,9.8066,0.003,-0.0154,0.0031,5.44,-35.62,16.06,51.32,-81.72,-160.39
49138,52.428314,-1.435923,139.12,4.78,3,180.0,26 / 27,4727410,2019-09-08 13:25:46:649,0.7546,0.4801,9.842,0.0051,0.0081,9.8066,0.0261,-0.0331,0.0051,5.44,-35.31,15.69,50.89,-81.73,-160.32
49139,52.428314,-1.435923,139.12,4.78,3,180.0,26 / 27,4727510,2019-09-08 13:25:46:749,0.608,0.0869,9.9111,0.0061,0.0081,9.8066,0.0205,-0.014,-0.0105,6.69,-35.69,15.5,58.38,-81.81,-160.1
49140,52.428314,-1.435923,139.12,4.78,3,180.0,26 / 27,4727611,2019-09-08 13:25:46:850,0.6644,0.0312,9.8696,0.002,0.0029,9.8066,-0.0065,-0.0271,-0.0033,5.81,-35.69,15.56,55.09,-81.85,-160.02
49141,52.428314,-1.435923,139.12,4.78,3,180.0,25 / 26,4727710,2019-09-08 13:25:46:949,0.4055,0.1073,9.7512,0.0024,0.0058,9.8066,-0.0014,-0.023,0.0174,6.63,-35.62,14.63,61.2,-81.89,-159.77
49142,52.428314,-1.435923,139.12,4.78,3,180.0,25 / 26,4727810,2019-09-08 13:25:47:049,0.6256,0.0525,9.8531,0.0016,0.0094,9.8065,0.0252,-0.0496,0.0219,6.81,-35.5,15.06,60.81,-81.92,-159.61
49143,52.428314,-1.435923,139.12,4.78,3,180.0,25 / 26,4727910,2019-09-08 13:25:47:149,0.7679,0.4437,9.9831,0.0005,0.0049,9.8066,0.0144,-0.0647,0.0216,6.81,-36.0,14.5,62.16,-81.97,-158.8
49144,52.428314,-1.435923,139.12,4.78,3,180.0,25 / 26,4728010,2019-09-08 13:25:47:249,0.3616,0.4156,9.8361,0.0007,0.0076,9.8066,-0.0464,-0.0589,-0.0199,7.31,-35.56,14.31,65.48,-81.99,-158.38
49145,52.428314,-1.435923,139.12,4.78,3,180.0,25 / 26,4728110,2019-09-08 13:25:47:349,0.672,0.3174,9.6975,0.0009,0.003,9.8066,-0.0361,-0.0743,0.0049,6.81,-36.0,14.38,65.9,-82.05,-157.9
49146,52.428314,-1.435923,139.12,4.78,3,180.0,25 / 26,4728210,2019-09-08 13:25:47:449,0.5704,0.2134,9.9874,0.0098,0.0031,9.8065,0.0116,-0.0929,0.0129,8.0,-34.94,14.13,68.06,-82.15,-157.97
49147,52.428314,-1.435923,139.12,4.78,3,180.0,25 / 26,4728310,2019-09-08 13:25:47:549,0.5597,-0.1096,10.116,0.0091,0.0043,9.8065,0.0326,-0.0784,-0.0076,7.94,-35.25,14.13,67.72,-82.21,-158.13
49148,52.428314,-1.435923,139.12,4.78,3,180.0,25 / 26,4728410,2019-09-08 13:25:47:649,0.639,-0.5512,9.7267,-0.0075,-0.0059,9.8066,-0.0586,-0.0872,-0.0066,8.06,-35.25,13.88,67.17,-82.27,-158.49
49149,52.428314,-1.435923,139.12,4.78,3,180.0,25 / 26,4728510,2019-09-08 13:25:47:749,0.3855,-0.0397,9.7719,-0.0074,-0.0058,9.8066,-0.0805,-0.1242,0.0338,7.81,-35.19,13.31,70.37,-82.25,-158.49
49150,52.428314,-1.435923,139.12,4.78,3,180.0,25 / 26,4728610,2019-09-08 13:25:47:849,0.4348,-0.11,9.7273,0.01,0.0129,9.8066,0.0628,-0.1071,0.0158,8.19,-35.06,13.0,70.75,-82.29,-158.05
49151,52.428215,-1.43601,139.12,0.13,3,266.66,24 / 25,4728710,2019-09-08 13:25:47:949,0.1213,-0.2302,9.8235,0.0086,0.0126,9.8066,0.063,-0.1223,0.0352,7.75,-36.0,12.63,71.9,-82.39,-157.28
49152,52.428215,-1.43601,139.12,0.13,3,266.66,24 / 25,4728810,2019-09-08 13:25:48:049,-0.0737,-0.625,9.8588,-0.0122,-0.0079,9.8066,-0.0018,-0.1388,0.008,7.44,-35.25,12.25,71.94,-82.4,-157.08
49153,52.428215,-1.43601,139.12,0.13,3,266.66,24 / 25,4728910,2019-09-08 13:25:48:149,0.1083,-0.2879,9.6806,-0.014,-0.0142,9.8066,-0.0597,-0.1213,-0.02,7.19,-35.37,12.06,71.96,-82.28,-157.39
49154,52.428215,-1.43601,139.12,0.13,3,266.66,24 / 25,4729009,2019-09-08 13:25:48:248,0.2152,-0.572,9.8219,0.0181,0.0019,9.8065,-0.0423,-0.1317,0.0098,7.19,-35.56,11.94,71.33,-82.37,-158.26
49155,52.428215,-1.43601,139.12,0.13,3,266.66,24 / 25,4729110,2019-09-08 13:25:48:349,-0.1137,-1.2198,9.9677,0.0148,0.0104,9.8066,0.0258,-0.1203,0.0217,7.81,-35.87,11.5,73.94,-82.35,-158.66
49156,52.428215,-1.43601,139.12,0.13,3,266.66,24 / 25,4729210,2019-09-08 13:25:48:449,0.2451,-0.5054,9.939,-0.0144,0.0014,9.8066,0.0225,-0.1695,0.0707,7.75,-35.5,11.81,73.92,-82.28,-158.31
49157,52.428215,-1.43601,139.12,0.13,3,266.66,24 / 25,4729310,2019-09-08 13:25:48:549,0.3095,-0.1962,9.62,-0.0145,0.0039,9.8066,-0.018,-0.1427,0.0355,7.56,-36.06,11.0,79.92,-82.16,-157.22
49158,52.428215,-1.43601,139.12,0.13,3,266.66,24 / 25,4729410,2019-09-08 13:25:48:649,0.0122,0.0418,9.6885,0.0078,0.0037,9.8066,-0.0092,-0.1431,0.0173,7.88,-36.12,11.0,80.18,-82.12,-157.08
49159,52.428215,-1.43601,139.12,0.13,3,266.66,24 / 25,4729510,2019-09-08 13:25:48:749,-0.0216,-0.7118,9.6632,0.0128,-0.003,9.8065,0.0345,-0.1671,0.0061,7.88,-36.06,10.38,83.49,-82.19,-157.75
49160,52.428215,-1.43601,139.12,0.13,3,266.66,24 / 25,4729610,2019-09-08 13:25:48:849,0.2272,-0.7039,9.7112,-0.0046,-0.0174,9.8066,0.0007,-0.1554,-0.009,7.94,-36.56,10.63,78.28,-82.2,-159.24
49161,52.428215,-1.43601,139.12,0.13,3,266.66,24 / 24,4729710,2019-09-08 13:25:48:949,0.5338,-0.4724,9.7311,-0.0051,-0.0098,9.8066,-0.0226,-0.1295,0.0205,8.44,-36.06,10.69,76.85,-82.28,-159.73
49162,52.428215,-1.43601,139.12,0.13,3,266.66,24 / 24,4729813,2019-09-08 13:25:49:052,0.6788,-0.4419,9.5949,0.0124,0.0078,9.8066,-0.0129,-0.1564,0.0376,8.75,-36.12,9.81,83.26,-82.36,-159.66
49163,52.428215,-1.43601,139.12,0.13,3,266.66,24 / 24,4729910,2019-09-08 13:25:49:149,0.0227,-0.213,9.9039,0.0064,0.0041,9.8066,-0.0048,-0.1631,0.0369,8.38,-35.87,9.88,81.22,-82.43,-159.19
49164,52.428215,-1.43601,139.12,0.13,3,266.66,24 / 24,4730010,2019-09-08 13:25:49:249,0.3552,-0.4762,10.0436,-0.0035,-0.0022,9.8066,0.0235,-0.1337,0.0223,8.19,-35.75,9.56,81.35,-82.42,-159.09
49165,52.428215,-1.43601,139.12,0.13,3,266.66,24 / 24,4730110,2019-09-08 13:25:49:349,0.2456,-0.6603,10.1389,-0.0045,-0.0064,9.8066,-0.0192,-0.1497,0.0167,8.44,-35.81,9.63,81.08,-82.37,-159.49
49166,52.428215,-1.43601,139.12,0.13,3,266.66,24 / 24,4730210,2019-09-08 13:25:49:449,0.4264,-0.8663,9.8223,0.0007,0.0056,9.8066,-0.0078,-0.1631,0.0426,7.94,-35.5,8.94,85.15,-82.37,-159.35
49167,52.428215,-1.43601,139.12,0.13,3,266.66,24 / 24,4730310,2019-09-08 13:25:49:549,0.1683,-0.5996,9.972,0.001,0.0024,9.8066,0.0322,-0.1318,0.0412,8.56,-35.37,8.19,92.15,-82.33,-159.24
49168,52.428215,-1.43601,139.12,0.13,3,266.66,24 / 24,4730410,2019-09-08 13:25:49:649,0.4393,-0.4946,9.6835,-0.0029,0.0029,9.8066,0.0267,-0.1487,0.0341,8.5,-35.69,8.56,88.5,-82.26,-159.1
49169,52.428215,-1.43601,139.12,0.13,3,266.66,24 / 24,4730510,2019-09-08 13:25:49:749,0.2734,-0.0609,9.6952,-0.0017,0.0073,9.8066,-0.0216,-0.1694,0.0335,8.19,-36.19,7.75,92.27,-82.18,-158.59
49170,52.428215,-1.43601,139.12,0.13,3,266.66,24 / 24,4730610,2019-09-08 13:25:49:849,0.4727,-0.3896,9.941,-0.0075,-0.001,9.8066,0.0124,-0.1406,0.023,7.19,-36.19,7.88,90.33,-82.18,-158.56
49171,52.428215,-1.43601,139.12,0.13,3,266.66,25 / 26,4730710,2019-09-08 13:25:49:949,0.4214,-0.31,10.0546,-0.0078,-0.0044,9.8066,-0.0096,-0.1679,0.0364,7.44,-36.06,7.81,90.39,-82.15,-158.63
49172,52.428215,-1.43601,139.12,0.13,3,266.66,25 / 26,4730810,2019-09-08 13:25:50:049,0.8633,-0.5594,9.7702,0.0207,0.0017,9.8066,-0.0525,-0.1574,0.006,7.69,-36.37,7.44,97.06,-82.29,-158.76
49173,52.428215,-1.43601,139.12,0.13,3,266.66,25 / 26,4730910,2019-09-08 13:25:50:149,0.662,-0.1858,9.9246,0.0233,0.0002,9.8066,0.0629,-0.1903,0.0716,7.56,-36.12,6.56,96.57,-82.33,-159.13
49174,52.428215,-1.43601,139.12,0.13,3,266.66,25 / 26,4731010,2019-09-08 13:25:50:249,0.3545,-0.7896,9.887,-0.0174,-0.0093,9.8066,0.0517,-0.1934,0.0199,7.63,-36.25,6.56,96.76,-82.34,-158.88
49175,52.428215,-1.43601,139.12,0.13,3,266.66,25 / 26,4731110,2019-09-08 13:25:50:349,0.9712,0.2271,9.7959,-0.0117,-0.001,9.8066,-0.0366,-0.2006,0.0294,7.19,-37.0,5.63,102.35,-82.28,-159.01
49176,52.428215,-1.43601,139.12,0.13,3,266.66,25 / 26,4731210,2019-09-08 13:25:50:449,0.2534,-0.8084,9.536,0.0173,-0.0179,9.8066,-0.0153,-0.1861,-0.0256,7.56,-36.44,5.38,108.32,-82.29,-158.88
49177,52.428215,-1.43601,139.12,0.13,3,266.66,25 / 26,4731310,2019-09-08 13:25:50:549,0.3362,-0.5974,9.9157,0.0036,-0.0096,9.8066,0.0361,-0.177,-0.0047,7.38,-36.81,4.88,107.52,-82.4,-159.93
49178,52.428215,-1.43601,139.12,0.13,3,266.66,25 / 26,4731410,2019-09-08 13:25:50:649,-0.2008,-1.0262,10.0949,-0.0139,-0.0007,9.8066,0.0809,-0.2403,0.0764,7.94,-36.56,4.81,107.07,-82.3,-161.19
49179,52.428215,-1.43601,139.12,0.13,3,266.66,25 / 26,4731510,2019-09-08 13:25:50:749,-0.1942,-0.8459,9.5813,-0.0118,0.0137,9.8066,0.0087,-0.2624,0.0838,7.13,-37.31,4.75,108.01,-82.18,-160.43
49180,52.428215,-1.43601,139.12,0.13,3,266.66,25 / 26,4731611,2019-09-08 13:25:50:850,-0.3585,0.0031,9.3599,-0.0072,0.0235,9.8065,0.0108,-0.254,0.0893,6.25,-37.56,4.19,117.75,-82.03,-158.99
49181,52.428215,-1.43601,139.12,0.13,3,266.66,26 / 26,4731709,2019-09-08 13:25:50:948,-0.35,-0.6197,9.5111,0.0016,0.0074,9.8066,0.0878,-0.2323,0.0631,6.31,-36.94,4.38,118.49,-81.86,-157.61
49182,52.428215,-1.43601,139.12,0.13,3,266.66,26 / 26,4731810,2019-09-08 13:25:51:049,-0.7661,-0.4319,10.0286,-0.0126,-0.004,9.8065,0.021,-0.2141,0.0291,6.38,-36.75,4.0,118.67,-81.76,-157.96
49183,52.428215,-1.43601,139.12,0.13,3,266.66,26 / 26,4731910,2019-09-08 13:25:51:149,-0.8479,-0.4107,9.7816,-0.0136,-0.0099,9.8066,-0.0049,-0.2015,-0.0142,6.19,-36.81,3.63,118.16,-81.63,-159.53
49184,52.428215,-1.43601,139.12,0.13,3,266.66,26 / 26,4732009,2019-09-08 13:25:51:248,-0.8154,-0.4675,9.72,-0.0173,-0.0014,9.8065,0.0193,-0.1984,0.0166,5.56,-36.81,2.94,124.96,-81.49,-160.54
49185,52.428215,-1.43601,139.12,0.13,3,266.66,26 / 26,4732109,2019-09-08 13:25:51:348,-0.4389,-1.1529,9.7126,-0.0178,0.0051,9.8065,-0.0262,-0.1681,0.0064,6.0,-36.56,2.5,125.01,-81.45,-160.7
49186,52.428215,-1.43601,139.12,0.13,3,266.66,26 / 26,4732210,2019-09-08 13:25:51:449,-0.3415,-0.5899,9.6843,0.0115,0.0045,9.8066,-0.0526,-0.1924,0.0361,5.94,-37.25,2.31,131.86,-81.37,-160.55
49187,52.428215,-1.43601,139.12,0.13,3,266.66,26 / 26,4732310,2019-09-08 13:25:51:549,-0.9527,-0.3091,9.9639,0.0089,0.0045,9.8066,0.0481,-0.1547,0.0288,5.5,-36.87,2.56,126.14,-81.3,-159.75
49188,52.428215,-1.43601,139.12,0.13,3,266.66,26 / 26,4732410,2019-09-08 13:25:51:649,-1.1414,-0.2971,9.9489,-0.0087,0.0052,9.8066,0.0412,-0.1295,0.0188,5.44,-36.87,1.75,135.78,-81.23,-159.39
49189,52.428215,-1.43601,139.12,0.13,3,266.66,26 / 26,4732510,2019-09-08 13:25:51:749,-0.8962,-0.1733,9.8534,-0.008,0.001,9.8066,-0.0233,-0.1174,0.0267,5.44,-37.0,1.44,142.17,-81.16,-159.55
49190,52.428215,-1.43601,139.12,0.13,3,266.66,26 / 26,4732610,2019-09-08 13:25:51:849,-0.5038,-0.2576,9.7467,0.002,-0.0031,9.8066,-0.0268,-0.1108,0.0219,5.06,-36.75,1.13,142.08,-81.18,-159.7
49191,52.428215,-1.43601,139.12,0.13,3,266.66,26 / 26,4732711,2019-09-08 13:25:51:950,-0.5416,-0.3127,9.8992,0.0029,-0.0057,9.8066,0.0596,-0.0971,0.0053,5.5,-37.19,1.75,132.8,-81.17,-159.96
49192,52.428215,-1.43601,139.12,0.13,3,266.66,26 / 26,4732810,2019-09-08 13:25:52:049,-0.8032,-0.3221,10.1041,-0.0102,0.0032,9.8066,0.0468,-0.0658,0.0065,5.63,-37.25,1.44,138.41,-81.19,-160.21
49193,52.428215,-1.43601,139.12,0.13,3,266.66,26 / 26,4732910,2019-09-08 13:25:52:149,-0.8015,-0.2023,9.771,-0.0119,0.0014,9.8066,-0.0493,-0.0546,0.0051,5.19,-37.25,1.38,141.79,-81.13,-160.64
49194,52.428215,-1.43601,139.12,0.13,3,266.66,26 / 26,4733010,2019-09-08 13:25:52:249,-0.6157,-0.1898,9.6813,0.0027,-0.0042,9.8066,-0.0353,-0.048,0.0151,5.38,-37.62,1.19,142.36,-81.13,-160.82
49195,52.428215,-1.43601,139.12,0.13,3,266.66,26 / 26,4733110,2019-09-08 13:25:52:349,-0.6633,-0.2842,9.7538,0.0045,-0.0041,9.8066,0.0501,-0.0302,0.0066,5.44,-37.0,0.56,141.54,-81.16,-160.96
49196,52.428215,-1.43601,139.12,0.13,3,266.66,26 / 26,4733210,2019-09-08 13:25:52:449,-1.0174,0.0326,9.937,-0.0033,-0.0009,9.8066,0.0287,-0.0149,0.0037,5.25,-37.0,1.0,141.38,-81.17,-161.27
49197,52.428215,-1.43601,139.12,0.13,3,266.66,26 / 26,4733310,2019-09-08 13:25:52:549,-0.3536,-0.3113,9.705,0.0001,-0.0002,9.8066,-0.0124,-0.0125,0.0147,4.94,-37.56,0.88,141.93,-81.21,-161.29
49198,52.428215,-1.43601,139.12,0.13,3,266.66,26 / 26,4733410,2019-09-08 13:25:52:649,0.0755,-0.278,9.9183,0.0039,0.0023,9.8066,-0.0142,-0.0152,0.0201,5.0,-37.62,1.19,142.04,-81.24,-160.82
49199,52.428215,-1.43601,139.12,0.13,3,266.66,26 / 26,4733510,2019-09-08 13:25:52:749,0.383,-0.5648,9.8949,0.0017,0.0013,9.8066,0.0047,-0.0096,-0.0015,5.44,-37.62,1.13,142.14,-81.29,-160.33
49200,52.428215,-1.43601,139.12,0.13,3,266.66,26 / 26,4733609,2019-09-08 13:25:52:848,-0.1336,-0.3837,9.9907,0.001,-0.0059,9.8066,0.0057,-0.0014,-0.0088,5.19,-37.19,0.69,141.28,-81.34,-160.43
49201,52.428215,-1.43601,139.12,0.13,3,266.66,25 / 26,4733710,2019-09-08 13:25:52:949,-0.3001,-0.0932,9.6437,-0.0022,-0.0007,9.8066,-0.0275,0.0,0.0075,4.94,-37.19,1.63,134.67,-81.36,-160.78
49202,52.428215,-1.43601,139.12,0.13,3,266.66,25 / 26,4733810,2019-09-08 13:25:53:049,-0.1108,-0.3168,9.8399,0.0086,-0.0074,9.8066,-0.0327,-0.0095,-0.0067,4.38,-37.12,1.88,138.11,-81.43,-160.83
49203,52.428215,-1.43601,139.12,0.13,3,266.66,25 / 26,4733910,2019-09-08 13:25:53:149,-0.1052,-0.1294,10.1133,0.0067,-0.0057,9.8066,0.016,-0.0106,0.011,4.75,-37.62,1.75,135.12,-81.43,-161.02
49204,52.428215,-1.43601,139.12,0.13,3,266.66,25 / 26,4734010,2019-09-08 13:25:53:249,-0.6213,-0.2526,9.7304,-0.0048,-0.0015,9.8066,0.0282,0.0042,0.0118,3.75,-37.56,2.63,131.06,-81.42,-161.11
49205,52.428215,-1.43601,139.12,0.13,3,266.66,25 / 26,4734110,2019-09-08 13:25:53:349,-0.6291,0.2007,9.796,-0.0003,0.0034,9.8066,0.0302,0.0124,0.0279,3.5,-38.0,2.44,138.9,-81.42,-161.1
49206,52.428215,-1.43601,139.12,0.13,3,266.66,25 / 26,4734210,2019-09-08 13:25:53:449,-0.2778,-0.1853,9.8328,0.0014,-0.0031,9.8065,-0.0027,0.0276,-0.0039,3.06,-37.12,3.19,133.87,-81.43,-161.2
49207,52.428215,-1.43601,139.12,0.13,3,266.66,25 / 26,4734310,2019-09-08 13:25:53:549,-0.6171,0.0483,9.836,-0.0043,0.0004,9.8066,-0.0055,-0.0032,-0.0072,3.31,-37.87,3.06,134.92,-81.44,-161.4
49208,52.428215,-1.43601,139.12,0.13,3,266.66,25 / 26,4734409,2019-09-08 13:25:53:648,-0.2116,-0.1618,9.755,0.0061,-0.0018,9.8066,-0.0039,0.0149,0.0146,3.63,-36.87,2.69,129.66,-81.49,-161.24
49209,52.428215,-1.43601,139.12,0.13,3,266.66,25 / 26,4734510,2019-09-08 13:25:53:749,-0.6581,0.1054,9.8646,0.0049,-0.0013,9.8066,0.021,0.019,0.001,3.44,-37.06,2.88,133.52,-81.51,-161.15
49210,52.428215,-1.43601,139.12,0.13,3,266.66,25 / 26,4734610,2019-09-08 13:25:53:849,-0.3619,-0.19,9.937,-0.0018,-0.0009,9.8066,-0.0049,0.0102,-0.0066,3.56,-37.5,2.81,129.47,-81.52,-161.32
49211,52.428215,-1.43601,139.12,0.13,3,266.66,25 / 26,4734710,2019-09-08 13:25:53:949,-0.1972,-0.1472,9.8777,-0.0018,-0.0011,9.8066,-0.0049,0.0093,0.0044,3.94,-37.5,3.0,129.38,-81.53,-161.42
49212,52.428215,-1.43601,139.12,0.13,3,266.66,25 / 26,4734810,2019-09-08 13:25:54:049,-0.3333,-0.023,9.8212,0.0046,-0.0031,9.8066,-0.0133,0.0148,0.0034,4.06,-37.0,2.13,137.34,-81.56,-161.51
49213,52.428215,-1.43601,139.12,0.13,3,266.66,25 / 26,4734910,2019-09-08 13:25:54:149,-0.5363,0.1447,9.8373,0.0042,-0.0019,9.8066,0.0166,0.0011,0.0042,4.19,-37.44,2.44,137.19,-81.61,-161.48
49214,52.428215,-1.43601,139.12,0.13,3,266.66,25 / 26,4735009,2019-09-08 13:25:54:248,-0.4636,0.0501,9.9918,-0.0034,0.0017,9.8066,0.0117,0.0195,0.0076,4.0,-37.37,2.56,128.96,-81.61,-161.57
49215,52.428215,-1.43601,139.12,0.13,3,266.66,25 / 26,4735110,2019-09-08 13:25:54:349,-0.2636,0.1086,9.7995,-0.0042,-0.0031,9.8066,-0.0003,-0.0034,0.01,3.88,-36.87,2.94,128.75,-81.64,-161.73
49216,52.428215,-1.43601,139.12,0.13,3,266.66,25 / 26,4735210,2019-09-08 13:25:54:449,-0.4812,0.3791,9.8001,-0.0025,-0.0014,9.8066,0.0114,0.0016,0.011,3.13,-36.81,2.75,132.66,-81.64,-161.63
49217,52.428215,-1.43601,139.12,0.13,3,266.66,25 / 26,4735310,2019-09-08 13:25:54:549,-0.3573,0.2882,9.7843,-0.0062,-0.0009,9.8066,-0.0014,-0.0318,0.005,3.56,-37.12,2.81,128.56,-81.66,-161.95
49218,52.428215,-1.43601,139.12,0.13,3,266.66,25 / 26,4735410,2019-09-08 13:25:54:649,-0.6303,0.4526,9.9689,0.0042,-0.002,9.8066,0.0099,-0.0344,0.0015,3.19,-36.37,3.13,131.17,-81.67,-162.12
49219,52.428215,-1.43601,139.12,0.13,3,266.66,25 / 26,4735510,2019-09-08 13:25:54:749,-0.1317,0.4887,9.967,0.0034,-0.0069,9.8066,-0.0164,-0.0296,0.0059,3.44,-37.19,3.13,132.0,-81.73,-162.27
49220,52.428215,-1.43601,139.12,0.13,3,266.66,25 / 26,4735610,2019-09-08 13:25:54:849,-0.2729,0.0861,9.9672,-0.0034,-0.0063,9.8066,-0.0088,-0.0611,-0.0032,3.0,-36.37,2.63,130.69,-81.74,-162.44
49221,52.428215,-1.43601,139.12,0.13,3,266.66,26 / 27,4735710,2019-09-08 13:25:54:949,-0.3425,0.4388,10.0749,0.0017,-0.0001,9.8066,0.0128,-0.0631,0.0207,3.38,-36.87,2.56,131.61,-81.79,-162.59
49222,52.428215,-1.43601,139.12,0.13,3,266.66,26 / 27,4735810,2019-09-08 13:25:55:049,-0.4945,0.4989,9.7891,0.004,-0.0087,9.8066,0.0233,-0.1068,0.0192,3.31,-37.12,3.0,131.22,-81.85,-162.77
49223,52.428215,-1.43601,139.12,0.13,3,266.66,26 / 27,4735910,2019-09-08 13:25:55:149,-0.2833,0.2679,9.7983,-0.0002,-0.0059,9.8066,-0.0035,-0.1157,0.0294,3.5,-37.44,2.25,135.56,-81.86,-163.06
49224,52.428215,-1.43601,139.12,0.13,3,266.66,26 / 27,4736010,2019-09-08 13:25:55:249,-0.3641,0.5183,9.85,-0.0032,0.0025,9.8066,-0.0074,-0.1177,0.0188,3.38,-37.5,2.31,140.7,-81.84,-163.16
49225,52.428215,-1.43601,139.12,0.13,3,266.66,26 / 27,4736110,2019-09-08 13:25:55:349,-0.2855,0.6704,9.6858,0.0064,0.0008,9.8066,0.0159,-0.1699,0.0191,2.88,-37.37,2.5,131.3,-81.81,-163.3
49226,52.428215,-1.43601,139.12,0.13,3,266.66,26 / 27,4736210,2019-09-08 13:25:55:449,-0.1196,0.6334,9.9109,0.008,0.0023,9.8066,0.0163,-0.1607,0.019,3.38,-37.56,1.06,149.47,-81.8,-162.7
49227,52.428215,-1.43601,139.12,0.13,3,266.66,26 / 27,4736310,2019-09-08 13:25:55:549,0.0297,0.5138,9.8,-0.0103,0.0228,9.8066,-0.1251,-0.1588,0.0418,2.38,-37.75,0.88,156.4,-81.83,-162.31
49228,52.428215,-1.43601,139.12,0.13,3,266.66,26 / 27,4736410,2019-09-08 13:25:55:649,0.82,0.4266,9.8018,-0.0174,0.0204,9.8066,-0.1082,-0.2036,0.1075,2.69,-37.75,0.38,156.03,-81.67,-162.09
49229,52.428215,-1.43601,139.12,0.13,3,266.66,26 / 27,4736510,2019-09-08 13:25:55:749,1.1708,0.2186,9.9443,0.014,-0.0027,9.8066,0.1187,-0.246,0.0279,2.5,-37.37,0.75,149.5,-81.71,-160.97
49230,52.428215,-1.43601,139.12,0.13,3,266.66,26 / 27,4736610,2019-09-08 13:25:55:849,-0.0082,1.0616,10.1839,0.0,-0.0053,9.8066,0.0342,-0.2874,0.046,2.06,-37.37,-0.19,162.56,-81.64,-161.08
49231,52.428215,-1.43601,139.12,0.13,3,266.66,25 / 25,4736710,2019-09-08 13:25:55:949,1.1281,0.7557,10.1192,-0.0138,0.0071,9.8066,0.0024,-0.2963,0.0186,2.31,-37.56,-0.5,163.01,-81.56,-161.47
49232,52.428215,-1.43601,139.12,0.13,3,266.66,25 / 25,4736810,2019-09-08 13:25:56:049,0.2517,1.0201,9.7061,-0.0063,0.012,9.8066,0.0454,-0.3277,0.0617,2.5,-37.12,-1.0,160.78,-81.44,-162.47
49233,52.428215,-1.43601,139.12,0.13,3,266.66,25 / 25,4736910,2019-09-08 13:25:56:149,0.3607,1.1788,9.6668,0.0042,0.0059,9.8066,-0.0362,-0.3913,0.1242,2.25,-37.69,-2.06,171.01,-81.36,-162.27
49234,52.428215,-1.43601,139.12,0.13,3,266.66,25 / 25,4737010,2019-09-08 13:25:56:249,0.9128,1.3648,10.2197,0.0081,-0.0069,9.8066,-0.015,-0.3579,0.033,1.69,-37.69,-2.44,171.31,-81.29,-161.52
49235,52.428215,-1.43601,139.12,0.13,3,266.66,25 / 25,4737110,2019-09-08 13:25:56:349,0.7128,1.7623,9.8296,0.0003,-0.0045,9.8066,0.0353,-0.432,0.0921,0.69,-37.81,-2.75,179.94,-81.2,-161.73
49236,52.428215,-1.43601,139.12,0.13,3,266.66,25 / 25,4737210,2019-09-08 13:25:56:449,1.3121,1.9188,10.1301,0.0111,0.0105,9.8066,0.0401,-0.4211,0.1004,0.25,-37.31,-3.31,186.4,-81.09,-161.38
49237,52.428215,-1.43601,139.12,0.13,3,266.66,25 / 25,4737310,2019-09-08 13:25:56:549,1.3172,0.6029,9.4606,0.0077,0.0018,9.8066,-0.0386,-0.4537,0.0735,-0.06,-37.87,-4.31,187.51,-81.13,-161.54
49238,52.428215,-1.43601,139.12,0.13,3,266.66,25 / 25,4737410,2019-09-08 13:25:56:649,0.9285,0.5469,9.5785,0.0079,0.0065,9.8066,0.0028,-0.4421,0.0669,-0.81,-38.5,-5.19,194.12,-81.07,-160.95
49239,52.428215,-1.43601,139.12,0.13,3,266.66,25 / 25,4737510,2019-09-08 13:25:56:749,1.6226,0.3478,10.1394,0.0111,0.0075,9.8065,-0.015,-0.5013,0.0951,-1.25,-37.81,-4.94,194.2,-80.92,-160.5
49240,52.428215,-1.43601,139.12,0.13,3,266.66,25 / 25,4737610,2019-09-08 13:25:56:849,1.3948,0.6908,9.2155,-0.0073,-0.0077,9.8065,-0.0597,-0.5396,0.047,-1.62,-37.69,-5.62,199.74,-80.88,-160.14
49241,52.428215,-1.43601,139.12,0.13,3,266.66,26 / 26,4737710,2019-09-08 13:25:56:949,1.0809,-0.1938,9.8509,-0.0197,-0.014,9.8065,-0.0459,-0.4924,0.0786,-2.44,-37.94,-6.0,199.34,-81.12,-161.39
49242,52.428215,-1.43601,139.12,0.13,3,266.66,26 / 26,4737810,2019-09-08 13:25:57:049,0.6238,0.3679,9.758,-0.0157,-0.0059,9.8066,-0.0718,-0.4192,0.0015,-3.5,-37.69,-6.87,203.48,-81.23,-162.29
49243,52.428215,-1.43601,139.12,0.13,3,266.66,26 / 26,4737910,2019-09-08 13:25:57:149,0.3526,1.0003,10.2342,-0.0012,0.0105,9.8066,0.044,-0.4322,0.0498,-4.12,-38.0,-6.75,207.25,-81.26,-163.56
49244,52.428215,-1.43601,139.12,0.13,3,266.66,26 / 26,4738010,2019-09-08 13:25:57:249,2.3024,1.6948,10.4976,0.0211,0.0172,9.8065,0.0776,-0.4997,0.1285,-4.94,-37.62,-7.31,211.41,-81.01,-163.3
49245,52.428215,-1.43601,139.12,0.13,3,266.66,26 / 26,4738110,2019-09-08 13:25:57:349,2.0084,1.6573,9.9503,0.0117,0.0125,9.8066,-0.1244,-0.4093,0.0603,-5.62,-36.94,-7.69,215.28,-80.93,-162.16
49246,52.428215,-1.43601,139.12,0.13,3,266.66,26 / 26,4738210,2019-09-08 13:25:57:449,1.421,0.4891,9.9367,0.0064,0.0057,9.8066,-0.1339,-0.3799,0.0335,-6.0,-37.5,-7.5,216.78,-80.86,-161.63
49247,52.428215,-1.43601,139.12,0.13,3,266.66,26 / 26,4738310,2019-09-08 13:25:57:549,1.4977,0.147,9.899,-0.0056,-0.0114,9.8066,0.0192,-0.3443,-0.0189,-7.25,-37.69,-8.44,219.48,-81.02,-161.18
49248,52.428215,-1.43601,139.12,0.13,3,266.66,26 / 26,4738410,2019-09-08 13:25:57:649,1.2027,0.6623,9.7662,-0.0129,0.0079,9.8066,0.0516,-0.3417,0.0225,-7.56,-37.06,-8.37,223.02,-81.1,-162.02
49249,52.428215,-1.43601,139.12,0.13,3,266.66,26 / 26,4738510,2019-09-08 13:25:57:749,0.1065,-0.1566,9.4605,-0.002,0.0076,9.8065,-0.0911,-0.2696,0.0072,-8.12,-37.62,-8.44,222.07,-81.12,-162.82
49250,52.428215,-1.43601,139.12,0.13,3,266.66,26 / 26,4738610,2019-09-08 13:25:57:849,0.6055,0.1335,9.98,-0.0089,0.0055,9.8066,-0.0561,-0.2538,0.0264,-8.25,-36.87,-8.19,221.98,-81.19,-163.67
49251,52.42829,-1.436049,139.06,4.11,4,359.74,24 / 24,4738711,2019-09-08 13:25:57:950,0.5481,0.2286,9.9181,-0.0024,0.0027,9.8066,-0.0578,-0.2284,0.0632,-8.94,-38.0,-7.94,224.85,-81.19,-163.79
49252,52.42829,-1.436049,139.06,4.11,4,359.74,24 / 24,4738809,2019-09-08 13:25:58:048,0.5062,0.2235,9.9342,0.0005,-0.0072,9.8066,0.0269,-0.2095,0.0443,-9.12,-37.69,-8.75,223.86,-81.23,-162.99
49253,52.42829,-1.436049,139.06,4.11,4,359.74,24 / 24,4738910,2019-09-08 13:25:58:149,0.7922,1.1752,9.7817,-0.0026,-0.0168,9.8066,0.012,-0.1577,0.0149,-9.75,-37.19,-9.0,227.78,-81.26,-162.42
49254,52.42829,-1.436049,139.06,4.11,4,359.74,24 / 24,4739010,2019-09-08 13:25:58:249,0.6861,0.0977,9.9134,0.0103,0.0018,9.8066,-0.0009,-0.097,0.0037,-9.37,-36.44,-9.44,225.45,-81.24,-161.89
49255,52.42829,-1.436049,139.06,4.11,4,359.74,24 / 24,4739110,2019-09-08 13:25:58:349,0.9188,0.6307,9.6417,0.0101,0.0056,9.8066,0.0419,-0.1514,0.1041,-9.69,-37.37,-8.69,228.51,-81.16,-161.25
49256,52.42829,-1.436049,139.06,4.11,4,359.74,24 / 24,4739210,2019-09-08 13:25:58:449,0.5717,0.6635,9.0647,-0.0026,-0.0223,9.8066,-0.0271,-0.0715,0.0545,-9.81,-37.0,-9.19,228.75,-81.03,-160.67
49257,52.42829,-1.436049,139.06,4.11,4,359.74,24 / 24,4739310,2019-09-08 13:25:58:549,0.5575,0.3044,9.6374,0.0023,-0.01,9.8066,-0.0744,-0.0465,0.0363,-10.25,-36.87,-9.31,229.46,-80.99,-159.67
49258,52.42829,-1.436049,139.06,4.11,4,359.74,24 / 24,4739410,2019-09-08 13:25:58:649,0.3801,0.949,10.1111,0.0027,-0.0007,9.8066,0.0979,-0.0535,0.0217,-11.06,-36.87,-9.19,232.14,-80.93,-159.85
49259,52.42829,-1.436049,139.06,4.11,4,359.74,24 / 24,4739510,2019-09-08 13:25:58:749,1.1466,-0.1126,10.4335,-0.0017,0.0067,9.8066,0.0424,-0.1181,0.0317,-10.75,-37.12,-9.0,231.78,-80.85,-160.14
49260,52.42829,-1.436049,139.06,4.11,4,359.74,24 / 24,4739610,2019-09-08 13:25:58:849,-0.6536,0.2366,9.6649,-0.0072,0.0149,9.8065,0.1357,-0.0726,0.0388,-10.25,-36.94,-9.69,226.72,-80.75,-160.69
49261,52.42829,-1.436049,139.06,4.11,4,359.74,24 / 25,4739710,2019-09-08 13:25:58:949,-0.3814,0.5387,9.3302,-0.0098,-0.0129,9.8065,0.1822,-0.1161,0.0695,-11.06,-37.06,-8.56,230.37,-80.64,-161.54
49262,52.42829,-1.436049,139.06,4.11,4,359.74,24 / 25,4739810,2019-09-08 13:25:59:049,0.0692,0.6078,10.0492,0.0217,0.0459,9.8064,-0.086,-0.0736,-0.0056,-11.5,-37.37,-8.44,232.05,-80.59,-161.58
49263,52.42829,-1.436049,139.06,4.11,4,359.74,24 / 25,4739910,2019-09-08 13:25:59:149,0.8825,0.017,10.0538,-0.0018,0.032,9.8066,-0.0366,-0.0883,-0.0208,-10.75,-37.31,-8.25,230.65,-80.3,-162.78
49264,52.42829,-1.436049,139.06,4.11,4,359.74,24 / 25,4740010,2019-09-08 13:25:59:249,-0.1782,-1.4206,10.4678,-0.0195,0.0009,9.8066,0.0016,-0.1023,0.0256,-11.0,-37.0,-8.37,230.2,-80.44,-163.67
49265,52.42829,-1.436049,139.06,4.11,4,359.74,24 / 25,4740109,2019-09-08 13:25:59:348,-0.3068,0.3652,10.0496,-0.0258,-0.0188,9.8066,0.0007,-0.0074,-0.0778,-11.19,-37.44,-8.25,230.36,-80.61,-163.85
49266,52.42829,-1.436049,139.06,4.11,4,359.74,24 / 25,4740210,2019-09-08 13:25:59:449,-0.196,-0.2763,9.0826,-0.0195,-0.0197,9.8066,-0.0403,-0.0557,-0.0444,-11.0,-37.69,-9.12,227.97,-80.8,-164.46
49267,52.42829,-1.436049,139.06,4.11,4,359.74,24 / 25,4740310,2019-09-08 13:25:59:549,-0.1983,0.4274,10.2387,-0.0253,-0.0083,9.8066,-0.0618,-0.0195,-0.0559,-10.75,-37.69,-8.87,227.85,-81.05,-165.12
49268,52.42829,-1.436049,139.06,4.11,4,359.74,24 / 25,4740410,2019-09-08 13:25:59:649,-1.3549,0.5155,10.0873,0.0092,0.0402,9.8065,0.0129,-0.0317,0.0986,-10.87,-37.44,-8.31,229.65,-81.08,-165.78
49269,52.42829,-1.436049,139.06,4.11,4,359.74,24 / 25,4740510,2019-09-08 13:25:59:749,-0.0007,-0.3109,10.4713,0.0528,0.0597,9.8063,-0.0729,0.0461,0.0511,-10.56,-38.44,-8.37,228.17,-80.61,-166.17
49270,52.42829,-1.436049,139.06,4.11,4,359.74,24 / 25,4740610,2019-09-08 13:25:59:849,-0.6194,0.9677,8.1624,-0.0424,-0.067,9.8063,0.1155,0.0718,-0.0191,-10.56,-37.37,-8.5,229.47,-81.0,-165.84
49271,52.42829,-1.436049,139.06,4.11,4,359.74,25 / 25,4740710,2019-09-08 13:25:59:949,0.5384,-0.401,10.0691,0.0087,-0.0299,9.8066,-0.0025,-0.0097,0.0834,-10.94,-36.69,-7.56,229.43,-80.79,-165.45
49272,52.42829,-1.436049,139.06,4.11,4,359.74,25 / 25,4740810,2019-09-08 13:26:00:049,0.6037,0.2199,10.0518,0.0048,-0.0034,9.8066,0.1414,-0.0158,0.0117,-11.12,-37.31,-8.44,230.44,-80.7,-163.94
49273,52.42829,-1.436049,139.06,4.11,4,359.74,25 / 25,4740910,2019-09-08 13:26:00:149,1.3967,0.3045,11.7895,0.0017,0.0067,9.8065,0.197,0.0117,-0.0056,-10.69,-36.94,-8.25,230.57,-80.75,-163.86
49274,52.42829,-1.436049,139.06,4.11,4,359.74,25 / 25,4741010,2019-09-08 13:26:00:249,-0.9287,-0.7427,9.5193,0.0093,0.0476,9.8064,-0.239,-0.0106,-0.0306,-11.19,-36.62,-8.69,227.33,-80.71,-165.63
49275,52.42829,-1.436049,139.06,4.11,4,359.74,25 / 25,4741110,2019-09-08 13:26:00:349,-2.132,0.5331,9.2299,0.0315,0.048,9.8064,-0.1887,0.0703,0.0016,-11.12,-36.87,-8.44,228.77,-80.67,-166.06
49276,52.42829,-1.436049,139.06,4.11,4,359.74,25 / 25,4741210,2019-09-08 13:26:00:449,0.3248,0.0523,8.7107,0.0196,-0.0044,9.8066,0.0977,0.0514,0.115,-10.37,-37.06,-9.25,224.13,-80.65,-166.01
49277,52.42829,-1.436049,139.06,4.11,4,359.74,25 / 25,4741310,2019-09-08 13:26:00:549,1.126,0.2809,9.6446,0.0126,0.0055,9.8066,0.0491,0.0116,0.0448,-10.87,-36.75,-8.62,226.97,-80.35,-165.41
49278,52.42829,-1.436049,139.06,4.11,4,359.74,25 / 25,4741410,2019-09-08 13:26:00:649,0.9505,0.8431,9.7862,-0.007,-0.0011,9.8066,-0.132,-0.0163,-0.0584,-10.44,-37.31,-8.12,225.6,-80.29,-165.61
49279,52.42829,-1.436049,139.06,4.11,4,359.74,25 / 25,4741510,2019-09-08 13:26:00:749,-0.3269,0.0469,10.5865,-0.0169,0.002,9.8066,-0.0614,-0.016,-0.0803,-10.37,-36.87,-9.44,223.6,-80.5,-166.44
49280,52.42829,-1.436049,139.06,4.11,4,359.74,25 / 25,4741610,2019-09-08 13:26:00:849,0.1192,0.5303,10.2033,-0.0349,-0.0083,9.8065,0.0894,-0.0392,0.0089,-9.94,-37.5,-8.44,224.45,-80.75,-168.17
49281,52.42829,-1.436049,139.06,4.11,4,359.74,25 / 25,4741710,2019-09-08 13:26:00:949,0.3141,0.7177,9.9209,-0.007,-0.0081,9.8066,0.077,-0.009,-0.0559,-10.37,-37.31,-8.87,222.28,-80.62,-168.45
49282,52.42829,-1.436049,139.06,4.11,4,359.74,25 / 25,4741810,2019-09-08 13:26:01:049,0.7942,1.183,9.2112,0.0172,0.0262,9.8066,-0.101,-0.0387,-0.0177,-9.94,-37.31,-8.44,223.42,-80.51,-169.07
49283,52.42829,-1.436049,139.06,4.11,4,359.74,25 / 25,4741910,2019-09-08 13:26:01:149,0.3938,0.2455,9.6524,0.0174,0.0229,9.8065,-0.0872,-0.0083,-0.0316,-10.31,-37.12,-8.06,222.93,-80.22,-169.17
49284,52.42829,-1.436049,139.06,4.11,4,359.74,25 / 25,4742010,2019-09-08 13:26:01:249,-0.05,-0.0426,9.9191,-0.031,-0.0292,9.8065,0.0592,-0.0468,0.0047,-9.94,-37.44,-8.56,221.18,-80.24,-169.26
49285,52.42829,-1.436049,139.06,4.11,4,359.74,25 / 25,4742110,2019-09-08 13:26:01:349,0.1638,0.1671,10.2422,-0.0293,-0.0369,9.8065,0.0908,-0.009,-0.0081,-9.62,-38.0,-8.37,222.98,-80.69,-169.53
49286,52.42829,-1.436049,139.06,4.11,4,359.74,25 / 25,4742210,2019-09-08 13:26:01:449,0.1288,-0.6742,10.0377,0.0024,0.0182,9.8066,-0.0268,-0.0424,0.0597,-9.75,-37.25,-9.0,221.19,-80.72,-170.11
49287,52.42829,-1.436049,139.06,4.11,4,359.74,25 / 25,4742310,2019-09-08 13:26:01:549,-0.1194,-0.0703,9.6836,0.0206,0.0124,9.8065,0.0064,0.0108,0.0137,-10.25,-37.31,-8.94,221.53,-80.68,-169.58
49288,52.42829,-1.436049,139.06,4.11,4,359.74,25 / 25,4742410,2019-09-08 13:26:01:649,-0.8324,-0.3739,9.3788,-0.0074,-0.0127,9.8066,0.0778,-0.0401,0.0967,-10.0,-37.44,-8.87,221.54,-80.59,-169.41
49289,52.42829,-1.436049,139.06,4.11,4,359.74,25 / 25,4742510,2019-09-08 13:26:01:749,0.6476,1.1575,10.3401,0.0099,-0.0257,9.8065,0.0307,0.0325,-0.0136,-10.06,-37.19,-8.12,223.85,-80.51,-168.48
49290,52.42829,-1.436049,139.06,4.11,4,359.74,25 / 25,4742611,2019-09-08 13:26:01:850,0.27,0.4286,10.7709,0.0238,0.0319,9.8065,0.0444,-0.0017,0.0697,-10.31,-37.56,-8.0,223.58,-80.47,-168.21
49291,52.42829,-1.436049,139.06,4.11,4,359.74,25 / 25,4742710,2019-09-08 13:26:01:949,0.979,0.7486,9.8766,0.0066,0.0244,9.8065,0.0701,-0.0079,0.0301,-10.0,-37.25,-8.5,223.56,-80.27,-168.4
49292,52.42829,-1.436049,139.06,4.11,4,359.74,25 / 25,4742810,2019-09-08 13:26:02:049,-0.6296,-0.2673,9.2974,-0.011,-0.0185,9.8066,-0.0297,0.0442,-0.0344,-10.12,-37.44,-7.94,223.48,-80.3,-168.57
49293,52.42829,-1.436049,139.06,4.11,4,359.74,25 / 25,4742909,2019-09-08 13:26:02:148,-1.1499,-0.0499,9.682,-0.0108,-0.0158,9.8066,-0.0654,0.0463,0.0047,-10.62,-38.06,-8.81,224.34,-80.47,-168.62
49294,52.42829,-1.436049,139.06,4.11,4,359.74,25 / 25,4743010,2019-09-08 13:26:02:249,-0.8889,-0.9285,9.77,-0.0015,-0.0226,9.8065,0.1479,-0.0085,0.0825,-10.19,-36.44,-8.94,222.17,-80.45,-168.8
