,GPS LATITUDE (degrees), GPS LONGITUDE (degrees), GPS ALTITUDE (m), GPS SPEED (Kmh), GPS ACCURACY (m), GPS ORIENTATION (Â°),GPS SATELLITES IN RANGE, TIME SINCE START (ms), DATE (YYYY-MO-DD HH-MI-SS_SSS), ACCELEROMETER X (m/s²) , ACCELEROMETER Y (m/s²), ACCELEROMETER Z (m/s²), GRAVITY X (m/s²), GRAVITY Y (m/s²), GRAVITY Z (m/s²), GYROSCOPE Yaw (rad/s), GYROSCOPE Pitch (rad/s), GYROSCOPE Roll (rad/s), MAGNETIC FIELD X (Î¼T), MAGNETIC FIELD Y (Î¼T), MAGNETIC FIELD Z (Î¼T), ORIENTATION (Yaw) (Â°), ORIENTATION (Pitch) (Â°), ORIENTATION (Roll ) (Â°)
35056,52.156376,-1.88613,69,24.32,10.0,57.2,17 / 26,3505641,2019-08-31 10:48:45:720,-0.2728,0.3757,10.1656,0.0004,0.0418,9.8066,0.0117,0.0186,0.0227,10.69,-23.9,-14.65,65.84,0.39,1.16
35057,52.156376,-1.88613,69,24.32,10.0,57.2,17 / 26,3505741,2019-08-31 10:48:45:820,-0.261,0.1385,10.4895,0.032,0.065,9.8064,0.0255,0.0751,0.0121,10.68,-23.86,-14.72,65.7,0.16,1.06
35058,52.156376,-1.88613,69,24.32,10.0,57.2,17 / 26,3505841,2019-08-31 10:48:45:920,0.4356,0.0282,11.4752,0.0591,0.0467,9.8064,0.0021,-0.0155,0.0281,10.42,-23.84,-14.93,65.7,0.16,1.06
35059,52.156376,-1.88613,69,24.32,10.0,57.2,17 / 26,3505941,2019-08-31 10:48:46:020,0.2616,0.416,7.4458,0.0427,0.0468,9.8064,0.0159,-0.0474,0.0494,11.34,-23.48,-14.84,64.63,-0.19,1.18
35060,52.156376,-1.88613,69,24.32,10.0,57.2,17 / 26,3506041,2019-08-31 10:48:46:120,0.7844,0.382,10.7153,0.0017,0.0204,9.8066,-0.0043,0.058,0.0366,11.34,-23.48,-14.84,64.63,-0.19,1.18
35061,52.15649,-1.885845,70,23.97,9.0,56.0,17 / 26,3506142,2019-08-31 10:48:46:221,1.0428,0.6241,10.3334,0.0366,0.0083,9.8066,-0.0384,-0.0357,0.0398,10.68,-23.86,-14.72,65.49,-0.3,1.13
35062,52.15649,-1.885845,70,23.97,9.0,56.0,17 / 26,3506241,2019-08-31 10:48:46:320,0.0659,0.3498,9.6185,0.0166,-0.0409,9.8066,0.0383,-0.0048,0.0206,11.12,-23.65,-14.73,65.57,-0.31,1.5
35063,52.15649,-1.885845,70,23.97,9.0,56.0,17 / 26,3506341,2019-08-31 10:48:46:420,0.1299,-0.0811,8.457,0.0272,-0.0686,9.8064,0.0383,-0.0048,0.0206,11.12,-23.65,-14.73,65.57,-0.31,1.5
35064,52.15649,-1.885845,70,23.97,9.0,56.0,17 / 26,3506441,2019-08-31 10:48:46:520,0.1858,-0.038,9.6308,0.0025,-0.0358,9.8066,0.0074,0.0016,0.0302,11.55,-23.31,-14.94,62.91,-0.01,1.81
35065,52.15649,-1.885845,70,23.97,9.0,56.0,17 / 26,3506541,2019-08-31 10:48:46:620,0.116,-0.4606,8.4803,0.0056,-0.0338,9.8066,-0.0054,-0.0538,0.0281,11.51,-23.25,-15.07,62.91,-0.01,1.81
35066,52.15649,-1.885845,70,23.97,9.0,56.0,17 / 26,3506641,2019-08-31 10:48:46:720,0.1633,0.3993,11.5595,0.0208,0.0444,9.8065,-0.0214,0.0527,0.0387,11.45,-23.7,-14.4,65.85,0.15,1.93
35067,52.15649,-1.885845,70,23.97,9.0,56.0,17 / 26,3506741,2019-08-31 10:48:46:820,0.367,0.7868,10.6203,0.0205,0.1042,9.8061,-0.0171,0.0889,0.0387,11.45,-23.7,-14.4,65.85,0.15,1.93
35068,52.15649,-1.885845,70,23.97,9.0,56.0,17 / 26,3506841,2019-08-31 10:48:46:920,-0.1969,0.4929,9.2577,0.0053,0.0211,9.8066,0.0106,-0.089,0.0377,11.05,-23.44,-15.12,64.65,-0.46,1.79
35069,52.15649,-1.885845,70,23.97,9.0,56.0,17 / 26,3506942,2019-08-31 10:48:47:021,-0.0782,-0.2794,8.1014,0.0166,0.003,9.8066,-0.0118,-0.0421,0.0345,11.05,-23.44,-15.12,64.65,-0.46,1.79
35070,52.15661,-1.885565,69,23.46,9.0,55.2,17 / 26,3507041,2019-08-31 10:48:47:120,-0.5672,-0.1388,8.472,0.0492,-0.0211,9.8065,-0.0118,-0.0421,0.0345,11.07,-23.47,-15.05,64.72,-0.47,2.1
35071,52.15661,-1.885565,69,23.46,9.0,55.2,17 / 26,3507141,2019-08-31 10:48:47:220,-0.3467,-0.4643,8.8958,0.0089,-0.0413,9.8066,0.0042,0.0197,0.0313,11.11,-22.99,-15.76,64.88,-0.27,2.25
35072,52.15661,-1.885565,69,23.46,9.0,55.2,17 / 26,3507241,2019-08-31 10:48:47:320,0.1558,0.0389,10.4918,-0.0118,-0.0392,9.8066,0.0468,-0.0325,0.0345,12.31,-23.12,-14.62,63.01,-0.03,2.29
35073,52.15661,-1.885565,69,23.46,9.0,55.2,17 / 26,3507341,2019-08-31 10:48:47:420,0.339,-0.1683,10.2198,0.0739,-0.0069,9.8064,0.0575,0.0911,0.0345,12.31,-23.12,-14.62,63.01,-0.03,2.29
35074,52.15661,-1.885565,69,23.46,9.0,55.2,17 / 26,3507441,2019-08-31 10:48:47:520,0.2535,-0.2695,10.2333,0.0204,0.0374,9.8066,-0.0491,0.0335,0.0547,11.83,-23.28,-14.78,63.03,-0.2,2.69
35075,52.15661,-1.885565,69,23.46,9.0,55.2,17 / 26,3507541,2019-08-31 10:48:47:620,-0.3879,-0.3706,10.6578,0.0128,0.0589,9.8065,-0.0555,-0.0261,0.044,11.38,-22.98,-15.57,64.83,-0.54,2.6
35076,52.15661,-1.885565,69,23.46,9.0,55.2,17 / 26,3507641,2019-08-31 10:48:47:720,-0.1628,-0.1507,9.3492,-0.0236,-0.0153,9.8066,-0.0065,-0.0623,0.0227,12.13,-23.35,-14.41,62.87,-0.4,2.51
35077,52.15661,-1.885565,69,23.46,9.0,55.2,17 / 26,3507742,2019-08-31 10:48:47:821,0.023,0.1293,9.3249,0.002,-0.0065,9.8066,0.0351,0.0133,0.0462,12.01,-23.07,-14.95,62.92,-0.37,2.54
35078,52.15661,-1.885565,69,23.46,9.0,55.2,17 / 26,3507841,2019-08-31 10:48:47:920,0.3342,0.2591,10.2899,0.0272,0.0073,9.8066,0.0074,-0.0581,0.0345,12.01,-23.07,-14.95,62.92,-0.37,2.54
35079,52.15661,-1.885565,69,23.46,9.0,55.2,17 / 26,3507942,2019-08-31 10:48:48:021,-0.2133,-0.2386,8.894,0.0213,-0.0341,9.8066,0.0074,-0.0581,0.0345,12.02,-22.6,-15.64,62.93,-0.48,2.66
35080,52.15674,-1.885287,69,23.15,9.0,53.2,17 / 26,3508041,2019-08-31 10:48:48:120,-0.0802,-0.1234,9.9683,-0.0062,-0.0921,9.8062,0.0085,-0.0368,0.027,12.02,-22.6,-15.64,62.93,-0.48,2.66
35081,52.15674,-1.885287,69,23.15,9.0,53.2,17 / 26,3508141,2019-08-31 10:48:48:220,-0.1415,0.3595,10.0354,-0.0305,-0.0133,9.8066,0.0074,0.0303,0.0217,13.15,-22.45,-14.93,60.24,0.02,2.88
35082,52.15674,-1.885287,69,23.15,9.0,53.2,17 / 26,3508241,2019-08-31 10:48:48:320,-0.1324,0.1594,10.8709,-0.0168,0.0152,9.8066,0.0181,0.0687,0.0313,12.84,-22.49,-15.14,60.19,-0.01,2.75
35083,52.15674,-1.885287,69,23.15,9.0,53.2,17 / 26,3508341,2019-08-31 10:48:48:420,-0.0678,-0.1576,9.3268,0.0409,0.0151,9.8066,0.0234,-0.0187,0.0366,12.84,-22.49,-15.14,60.19,-0.01,2.75
35084,52.15674,-1.885287,69,23.15,9.0,53.2,17 / 26,3508441,2019-08-31 10:48:48:520,0.5156,-0.2221,8.2353,0.0259,-0.0243,9.8066,0.0095,-0.0144,0.0536,12.68,-22.64,-15.06,61.19,-0.21,2.91
35085,52.15674,-1.885287,69,23.15,9.0,53.2,17 / 26,3508541,2019-08-31 10:48:48:620,0.1989,-0.0997,9.5871,0.0091,0.0074,9.8066,-0.0086,-0.0283,0.0494,12.96,-22.7,-14.72,61.27,-0.16,3.11
35086,52.15674,-1.885287,69,23.15,9.0,53.2,17 / 26,3508642,2019-08-31 10:48:48:721,0.2086,0.1243,10.7514,0.0274,0.0255,9.8066,-0.0086,-0.0283,0.0494,12.96,-22.7,-14.72,61.27,-0.16,3.11
35087,52.15674,-1.885287,69,23.15,9.0,53.2,17 / 26,3508742,2019-08-31 10:48:48:821,0.2013,-0.0938,10.1697,0.0025,0.0008,9.8067,-0.0128,-0.0016,0.0387,13.15,-22.45,-14.93,60.14,-0.36,3.18
35088,52.15674,-1.885287,69,23.15,9.0,53.2,17 / 26,3508841,2019-08-31 10:48:48:920,-0.5943,0.4319,10.2651,-0.0146,0.0056,9.8066,0.001,0.0474,0.0313,12.53,-22.38,-15.56,60.17,-0.35,3.09
35089,52.15674,-1.885287,69,23.15,9.0,53.2,17 / 26,3508941,2019-08-31 10:48:49:020,-0.1227,0.2649,9.0398,0.013,0.0116,9.8066,0.0202,-0.0006,0.0355,12.53,-22.38,-15.56,60.17,-0.35,3.09
35090,52.156868,-1.885031,70,22.86,9.0,51.1,17 / 26,3509042,2019-08-31 10:48:49:121,-0.3291,-0.3216,8.1319,-0.0147,-0.0191,9.8066,0.0181,-0.0006,0.0185,13.78,-22.04,-14.98,58.24,-0.44,3.12
35091,52.156868,-1.885031,70,22.86,9.0,51.1,17 / 26,3509141,2019-08-31 10:48:49:220,-0.3288,-0.2774,8.6026,-0.0371,-0.0592,9.8064,0.0138,-0.0591,0.0334,13.78,-22.04,-14.98,58.41,-0.04,3.12
35092,52.156868,-1.885031,70,22.86,9.0,51.1,17 / 26,3509241,2019-08-31 10:48:49:320,0.0923,-0.3745,10.4563,-0.0347,-0.0455,9.8065,-0.0033,0.0676,0.0206,14.43,-21.9,-14.56,58.55,0.3,3.09
35093,52.156868,-1.885031,70,22.86,9.0,51.1,17 / 26,3509341,2019-08-31 10:48:49:420,-0.4081,-0.1144,10.9333,0.0164,0.0957,9.8062,-0.0288,0.0378,0.0419,14.43,-21.9,-14.56,58.55,0.3,3.09
35094,52.156868,-1.885031,70,22.86,9.0,51.1,17 / 26,3509441,2019-08-31 10:48:49:520,0.0352,0.4644,9.8844,0.0262,0.0817,9.8063,-0.0288,0.0378,0.0419,13.15,-22.45,-14.93,60.12,-0.23,2.88
35095,52.156868,-1.885031,70,22.86,9.0,51.1,17 / 26,3509541,2019-08-31 10:48:49:620,0.5786,0.9811,9.0351,0.0264,0.0699,9.8064,0.0063,0.1305,0.0419,13.83,-22.03,-14.94,58.02,-0.72,2.77
35096,52.156868,-1.885031,70,22.86,9.0,51.1,17 / 26,3509642,2019-08-31 10:48:49:721,-0.3083,-0.3366,9.1077,0.0156,0.0538,9.8065,0.0127,-0.0133,0.059,13.5,-22.45,-14.63,59.7,-1.04,2.68
35097,52.156868,-1.885031,70,22.86,9.0,51.1,17 / 26,3509742,2019-08-31 10:48:49:821,0.0446,0.1684,8.9414,-0.0293,-0.0542,9.8065,-0.0182,-0.122,0.0366,13.5,-22.45,-14.63,59.7,-1.04,2.68
35098,52.156868,-1.885031,70,22.86,9.0,51.1,17 / 26,3509841,2019-08-31 10:48:49:920,-0.3631,0.0548,8.9143,-0.0329,-0.0457,9.8065,-0.0043,-0.1124,0.0483,13.94,-21.86,-15.1,58.02,-0.68,2.69
35099,52.156868,-1.885031,70,22.86,9.0,51.1,17 / 26,3509942,2019-08-31 10:48:50:021,0.1998,0.2975,8.4956,-0.0739,-0.0787,9.8061,0.0372,0.0463,0.0238,14.23,-21.84,-14.84,58.26,-0.06,2.57
35100,52.156868,-1.885031,70,22.86,9.0,51.1,17 / 26,3510042,2019-08-31 10:48:50:121,-0.2643,0.127,11.4381,-0.0143,-0.0442,9.8065,0.0351,-0.0261,0.0313,14.23,-21.84,-14.84,58.26,-0.06,2.57
35101,52.157005,-1.884782,70,22.51,9.0,49.3,17 / 26,3510141,2019-08-31 10:48:50:220,-0.1081,0.2629,10.5307,-0.0142,-0.0571,9.8065,-0.0043,0.0495,0.0355,14.53,-21.9,-14.47,56.57,0.27,2.68
35102,52.157005,-1.884782,70,22.51,9.0,49.3,17 / 26,3510241,2019-08-31 10:48:50:320,0.0885,0.4183,10.0161,0.048,0.0809,9.8062,-0.0043,0.0495,0.0355,13.78,-22.04,-14.98,58.18,-0.28,2.65
35103,52.157005,-1.884782,70,22.51,9.0,49.3,17 / 26,3510341,2019-08-31 10:48:50:420,-0.0933,0.3517,10.4689,0.034,0.0817,9.8063,-0.0203,0.0666,0.0462,13.78,-22.04,-14.98,58.18,-0.28,2.65
35104,52.157005,-1.884782,70,22.51,9.0,49.3,17 / 26,3510440,2019-08-31 10:48:50:519,-0.3611,0.1442,7.684,0.0496,0.091,9.8061,-0.016,-0.0687,0.0611,13.64,-21.83,-15.41,57.9,-0.88,2.62
35105,52.157005,-1.884782,70,22.51,9.0,49.3,17 / 26,3510541,2019-08-31 10:48:50:620,0.0398,-0.1774,8.5415,-0.0205,-0.0903,9.8062,0.001,-0.0016,0.0377,13.64,-21.83,-15.41,57.9,-0.88,2.62
35106,52.157005,-1.884782,70,22.51,9.0,49.3,17 / 26,3510641,2019-08-31 10:48:50:720,-0.0928,-0.0949,10.289,0.0159,0.0174,9.8066,0.0021,0.0346,0.0515,14.73,-21.15,-15.34,55.19,-0.37,2.8
35107,52.157005,-1.884782,70,22.51,9.0,49.3,17 / 26,3510741,2019-08-31 10:48:50:820,0.0504,-0.2163,9.6668,0.0097,-0.01,9.8066,0.0095,-0.0496,0.0451,14.15,-21.14,-15.91,57.0,-0.51,2.81
35108,52.157005,-1.884782,70,22.51,9.0,49.3,17 / 26,3510841,2019-08-31 10:48:50:920,-0.4624,-0.322,9.0279,-0.0077,-0.0504,9.8065,-0.0246,0.0186,0.0345,14.15,-21.14,-15.91,57.0,-0.51,2.81
35109,52.157005,-1.884782,70,22.51,9.0,49.3,17 / 26,3510941,2019-08-31 10:48:51:020,0.4107,0.2246,8.9112,-0.0055,0.0243,9.8066,-0.015,0.0506,0.0249,15.95,-20.21,-15.4,52.25,-0.24,2.94
35110,52.15714,-1.884545,71,21.99,9.0,47.8,17 / 26,3511044,2019-08-31 10:48:51:123,-0.3085,0.0808,9.8754,-0.0048,0.0702,9.8064,-0.015,0.0506,0.0249,14.67,-21.19,-15.35,52.25,-0.24,2.94
35111,52.15714,-1.884545,71,21.99,9.0,47.8,17 / 26,3511141,2019-08-31 10:48:51:220,0.2152,0.2199,10.6487,-0.0128,0.0875,9.8063,0.0212,-0.0176,0.0387,14.56,-20.94,-15.8,55.06,-0.6,2.56
35112,52.15714,-1.884545,71,21.99,9.0,47.8,17 / 26,3511240,2019-08-31 10:48:51:319,0.0177,-0.009,7.782,-0.0021,-0.0098,9.8066,0.0308,-0.0666,0.0227,14.53,-20.98,-15.77,55.06,-0.6,2.56
35113,52.15714,-1.884545,71,21.99,9.0,47.8,17 / 26,3511342,2019-08-31 10:48:51:421,-0.2128,-0.0664,9.5351,-0.001,-0.0222,9.8066,-0.0054,0.0282,0.0547,14.86,-20.79,-15.71,55.14,-0.49,2.63
35114,52.15714,-1.884545,71,21.99,9.0,47.8,17 / 26,3511441,2019-08-31 10:48:51:520,-0.1067,-0.1258,10.4291,0.0082,0.0005,9.8066,-0.0278,-0.0133,0.0345,14.86,-20.79,-15.71,55.14,-0.49,2.63
35115,52.15714,-1.884545,71,21.99,9.0,47.8,17 / 26,3511541,2019-08-31 10:48:51:620,-0.1344,-0.0316,9.4106,-0.0324,-0.0384,9.8065,0.0138,0.0122,0.0238,14.72,-20.69,-15.98,55.13,-0.52,2.67
35116,52.15714,-1.884545,71,21.99,9.0,47.8,17 / 26,3511641,2019-08-31 10:48:51:720,-0.6361,-0.1494,10.0115,-0.0189,-0.0125,9.8066,0.0095,0.0069,0.0494,14.72,-20.69,-15.98,55.13,-0.52,2.67
35117,52.15714,-1.884545,71,21.99,9.0,47.8,17 / 26,3511741,2019-08-31 10:48:51:820,0.3699,0.0859,9.9957,0.0066,0.019,9.8066,0.0095,0.0069,0.0494,15.24,-20.73,-15.43,55.03,-0.63,2.64
35118,52.15714,-1.884545,71,21.99,9.0,47.8,17 / 26,3511842,2019-08-31 10:48:51:921,-0.3051,0.014,9.9869,0.0199,0.0107,9.8066,-0.0033,0.0719,0.0366,15.24,-20.73,-15.43,55.03,-0.63,2.64
35119,52.15714,-1.884545,71,21.99,9.0,47.8,17 / 26,3511941,2019-08-31 10:48:52:020,-0.1251,-0.1165,8.3782,0.0107,-0.0182,9.8066,0.0223,-0.0027,0.0377,14.92,-20.38,-16.19,53.76,-0.75,2.7
35120,52.157276,-1.884319,71,21.73,9.0,45.4,17 / 26,3512041,2019-08-31 10:48:52:120,-0.1505,0.4802,9.3032,-0.0259,-0.0279,9.8066,-0.0235,-0.0219,0.044,14.91,-20.28,-16.32,53.76,-0.75,2.7
35121,52.157276,-1.884319,71,21.73,9.0,45.4,17 / 26,3512142,2019-08-31 10:48:52:221,-0.3317,0.0349,9.6538,-0.058,-0.0233,9.8065,0.0127,-0.0048,0.0323,15.66,-20.53,-15.28,53.33,-0.44,2.51
35122,52.157276,-1.884319,71,21.73,9.0,45.4,17 / 26,3512241,2019-08-31 10:48:52:320,0.0907,0.176,10.1669,-0.0043,0.0237,9.8066,0.0138,-0.0496,0.0238,15.52,-19.77,-16.37,53.33,-0.44,2.51
35123,52.157276,-1.884319,71,21.73,9.0,45.4,17 / 26,3512341,2019-08-31 10:48:52:420,-0.3996,0.0527,9.0821,-0.0461,0.0003,9.8065,-0.0214,-0.0591,0.0238,15.52,-19.77,-16.37,53.33,-0.44,2.51
35124,52.157276,-1.884319,71,21.73,9.0,45.4,17 / 26,3512441,2019-08-31 10:48:52:520,-0.6055,0.2414,9.3322,-0.0084,0.0284,9.8066,-0.0214,-0.0591,0.0238,15.68,-19.98,-15.97,52.07,-0.28,2.29
35125,52.157276,-1.884319,71,21.73,9.0,45.4,17 / 26,3512541,2019-08-31 10:48:52:620,0.0349,0.1262,9.8557,0.0066,0.0689,9.8064,-0.0043,0.0282,0.0568,15.68,-19.98,-15.97,52.07,-0.28,2.29
35126,52.157276,-1.884319,71,21.73,9.0,45.4,17 / 26,3512641,2019-08-31 10:48:52:720,0.018,-0.2575,10.8153,0.0117,-0.0025,9.8066,0.0234,0.0197,0.0217,16.07,-19.89,-15.68,51.83,-0.62,2.07
35127,52.157276,-1.884319,71,21.73,9.0,45.4,17 / 26,3512742,2019-08-31 10:48:52:821,0.3038,-0.127,9.2988,-0.0131,-0.0214,9.8066,0.0106,-0.0101,0.0217,15.91,-19.69,-16.1,51.83,-0.62,2.07
35128,52.157276,-1.884319,71,21.73,9.0,45.4,17 / 26,3512840,2019-08-31 10:48:52:919,-0.283,0.2377,10.7911,0.0049,0.0104,9.8066,-0.0118,0.0005,0.0323,16.13,-19.25,-16.41,50.51,-0.47,2.09
35129,52.157276,-1.884319,71,21.73,9.0,45.4,17 / 26,3512941,2019-08-31 10:48:53:020,0.1267,0.4584,10.0968,0.0235,0.0444,9.8065,-0.0373,0.0282,0.0281,15.44,-20.42,-15.64,53.51,-0.76,2.03
35130,52.157433,-1.884101,71,21.28,9.0,43.9,17 / 26,3513041,2019-08-31 10:48:53:120,-0.164,-0.0079,9.9442,-0.021,0.0128,9.8066,-0.0033,-0.0197,0.0281,15.44,-20.42,-15.64,53.51,-0.76,2.03
35131,52.157433,-1.884101,71,21.28,9.0,43.9,17 / 26,3513140,2019-08-31 10:48:53:219,0.0017,0.1028,9.342,-0.0307,-0.0251,9.8066,0.0063,0.0229,0.0281,15.48,-19.89,-16.27,53.47,-0.75,1.89
35132,52.157433,-1.884101,71,21.28,9.0,43.9,17 / 26,3513241,2019-08-31 10:48:53:320,-0.3359,0.0437,10.1654,0.0106,0.0203,9.8066,0.0074,0.0676,0.0014,16.12,-19.81,-15.74,51.78,-0.44,1.7
35133,52.157433,-1.884101,71,21.28,9.0,43.9,17 / 26,3513341,2019-08-31 10:48:53:420,-0.4861,-0.0825,9.5022,-0.0156,0.0436,9.8065,0.0074,0.0676,0.0014,16.52,-19.61,-15.58,51.78,-0.44,1.7
35134,52.157433,-1.884101,71,21.28,9.0,43.9,17 / 26,3513441,2019-08-31 10:48:53:520,-0.3846,0.1952,8.7461,-0.0143,0.0457,9.8065,0.0212,0.0751,0.0142,16.52,-19.61,-15.58,51.78,-0.44,1.7
35135,52.157433,-1.884101,71,21.28,9.0,43.9,17 / 26,3513541,2019-08-31 10:48:53:620,0.5402,0.673,8.7364,-0.0228,0.0228,9.8066,0.0074,-0.0197,-0.0028,16.12,-19.81,-15.74,51.62,-0.6,1.47
35136,52.157433,-1.884101,71,21.28,9.0,43.9,17 / 26,3513641,2019-08-31 10:48:53:720,0.0839,0.4183,8.7069,-0.0294,0.0219,9.8066,-0.0299,0.0836,0.0121,15.91,-19.69,-16.1,51.54,-0.62,1.28
35137,52.157433,-1.884101,71,21.28,9.0,43.9,17 / 26,3513741,2019-08-31 10:48:53:820,0.0478,0.0813,9.1719,-0.076,0.0338,9.8063,0.0063,-0.0719,0.0419,16.13,-19.25,-16.41,51.54,-0.62,1.28
35138,52.157433,-1.884101,71,21.28,9.0,43.9,17 / 26,3513841,2019-08-31 10:48:53:920,0.1694,0.025,11.1997,-0.1012,0.0129,9.8061,0.0607,0.0048,0.0185,16.52,-19.61,-15.58,49.79,-0.31,0.77
35139,52.157433,-1.884101,71,21.28,9.0,43.9,17 / 26,3513941,2019-08-31 10:48:54:020,-0.3616,0.1855,8.946,0.0183,-0.0126,9.8066,0.0351,0.1422,0.0398,16.52,-19.61,-15.58,49.79,-0.31,0.77
35140,52.157433,-1.884101,71,21.28,9.0,43.9,17 / 26,3514041,2019-08-31 10:48:54:120,0.7315,-0.0634,10.2205,0.101,0.0364,9.8061,-0.0203,0.0453,0.06,16.32,-19.48,-15.94,49.94,-0.85,1.08
35141,52.157578,-1.883889,71,21.24,9.0,42.0,17 / 26,3514141,2019-08-31 10:48:54:220,-0.1133,-0.1637,9.2982,-0.015,-0.0288,9.8066,-0.0203,0.0453,0.06,16.7,-19.34,-15.72,48.07,-1.36,1.2
35142,52.157578,-1.883889,71,21.24,9.0,42.0,17 / 26,3514241,2019-08-31 10:48:54:320,-0.1344,-0.7551,8.7961,-0.1114,-0.0967,9.8055,-0.0491,-0.1529,0.0281,16.7,-19.34,-15.72,48.07,-1.36,1.2
35143,52.157578,-1.883889,71,21.24,9.0,42.0,17 / 26,3514342,2019-08-31 10:48:54:421,-0.6413,-0.0893,7.2546,-0.0724,-0.0328,9.8063,-0.0395,-0.0964,0.0355,16.32,-19.48,-15.94,50.1,-0.5,1.09
35144,52.157578,-1.883889,71,21.24,9.0,42.0,17 / 26,3514441,2019-08-31 10:48:54:520,0.3049,0.2786,8.7814,-0.0615,-0.0255,9.8064,0.0266,0.0165,0.0323,16.93,-18.94,-15.96,50.1,-0.5,1.09
35145,52.157578,-1.883889,71,21.24,9.0,42.0,17 / 26,3514541,2019-08-31 10:48:54:620,0.0812,-0.0513,9.9894,0.055,0.0014,9.8065,0.0553,0.0197,0.0249,16.72,-19.28,-15.77,48.48,-0.16,0.91
35146,52.157578,-1.883889,71,21.24,9.0,42.0,17 / 26,3514641,2019-08-31 10:48:54:720,-0.1625,-0.4956,10.8995,0.0886,-0.024,9.8062,-0.0064,0.057,0.0313,16.72,-19.28,-15.77,48.48,-0.16,0.91
35147,52.157578,-1.883889,71,21.24,9.0,42.0,17 / 26,3514741,2019-08-31 10:48:54:820,-0.3276,-0.02,10.4159,-0.0109,0.0196,9.8066,-0.0192,0.0708,0.0536,16.53,-19.14,-16.14,48.57,-0.39,1.39
35148,52.157578,-1.883889,71,21.24,9.0,42.0,17 / 26,3514841,2019-08-31 10:48:54:920,0.0837,0.3365,9.7533,0.0202,0.077,9.8063,-0.0192,0.0708,0.0536,16.32,-18.91,-16.61,48.57,-0.39,1.39
35149,52.157578,-1.883889,71,21.24,9.0,42.0,17 / 26,3514941,2019-08-31 10:48:55:020,0.6504,0.0279,9.671,0.0468,0.0273,9.8065,0.0426,0.0506,0.0451,16.32,-19.48,-15.94,50.0,-0.81,1.18
35150,52.157578,-1.883889,71,21.24,9.0,42.0,17 / 26,3515041,2019-08-31 10:48:55:120,-0.3574,-0.1123,8.8002,-0.0243,-0.0491,9.8065,0.0287,-0.0591,0.0313,16.35,-18.94,-16.55,49.99,-1.02,1.39
35151,52.157696,-1.883698,69,20.66,10.0,40.9,16 / 26,3515141,2019-08-31 10:48:55:220,0.7641,0.0567,7.4788,-0.0361,-0.0694,9.8063,-0.0139,-0.0709,0.0419,16.35,-18.94,-16.55,49.99,-1.02,1.39
35152,52.157696,-1.883698,69,20.66,10.0,40.9,16 / 26,3515241,2019-08-31 10:48:55:320,-0.2231,-0.4354,10.0658,-0.0133,-0.0355,9.8066,0.0223,-0.0069,0.0259,16.92,-18.36,-16.63,47.04,-0.57,1.48
35153,52.157696,-1.883698,69,20.66,10.0,40.9,16 / 26,3515341,2019-08-31 10:48:55:420,0.1033,-0.5196,9.3127,-0.0109,-0.0555,9.8065,0.0383,-0.0698,0.0366,17.13,-18.59,-16.16,47.04,-0.57,1.48
35154,52.157696,-1.883698,69,20.66,10.0,40.9,16 / 26,3515441,2019-08-31 10:48:55:520,0.5224,0.155,10.8055,0.0087,-0.0284,9.8066,-0.0501,0.0921,0.0483,17.13,-18.59,-16.16,48.63,-0.49,1.64
35155,52.157696,-1.883698,69,20.66,10.0,40.9,16 / 26,3515541,2019-08-31 10:48:55:620,0.3891,0.1129,11.1357,0.0276,0.0574,9.8064,-0.0299,0.0474,0.0366,17.13,-18.59,-16.16,48.63,-0.49,1.64
35156,52.157696,-1.883698,69,20.66,10.0,40.9,16 / 26,3515641,2019-08-31 10:48:55:720,-0.1616,0.2316,8.5873,0.027,0.0369,9.8065,-0.0299,0.0474,0.0366,16.75,-18.74,-16.37,48.43,-0.84,1.53
35157,52.157696,-1.883698,69,20.66,10.0,40.9,16 / 26,3515741,2019-08-31 10:48:55:820,-0.1152,0.3306,10.1801,0.0168,0.0452,9.8065,0.0223,-0.0208,0.0419,17.34,-18.81,-15.67,48.27,-1.11,1.43
35158,52.157696,-1.883698,69,20.66,10.0,40.9,16 / 26,3515842,2019-08-31 10:48:55:921,-0.0422,-0.4506,9.1249,-0.0245,-0.0369,9.8066,0.0351,-0.0378,0.0345,17.34,-18.81,-15.67,48.27,-1.11,1.43
35159,52.157696,-1.883698,69,20.66,10.0,40.9,16 / 26,3515941,2019-08-31 10:48:56:020,0.5783,0.3016,7.7932,-0.0574,-0.0786,9.8062,0.0202,-0.0677,0.0078,17.73,-18.6,-15.49,46.9,-0.54,1.49
35160,52.157845,-1.883506,70,20.23,9.0,39.4,16 / 26,3516041,2019-08-31 10:48:56:120,0.2938,-0.2916,10.331,-0.038,-0.0193,9.8066,-0.0459,0.0836,0.0238,18.26,-17.97,-15.62,45.51,-0.29,1.46
35161,52.157845,-1.883506,70,20.23,9.0,39.4,16 / 26,3516141,2019-08-31 10:48:56:220,0.4449,0.2623,10.2621,-0.0585,-0.004,9.8065,-0.0086,-0.0304,0.0515,18.26,-17.97,-15.62,45.51,-0.29,1.46
35162,52.157845,-1.883506,70,20.23,9.0,39.4,16 / 26,3516241,2019-08-31 10:48:56:320,0.1362,0.1022,10.0585,0.0391,0.0408,9.8065,0.0372,0.0889,0.0259,17.71,-17.99,-16.21,45.52,-0.03,1.23
35163,52.157845,-1.883506,70,20.23,9.0,39.4,16 / 26,3516341,2019-08-31 10:48:56:420,-0.214,-0.0339,11.1087,0.1011,0.0705,9.8059,0.0372,0.0889,0.0259,17.71,-17.99,-16.21,45.52,-0.03,1.23
35164,52.157845,-1.883506,70,20.23,9.0,39.4,16 / 26,3516442,2019-08-31 10:48:56:521,1.1129,0.2332,9.7654,0.0559,0.0344,9.8064,0.0298,-0.0208,0.0515,17.92,-18.2,-15.73,45.28,-0.74,1.36
35165,52.157845,-1.883506,70,20.23,9.0,39.4,16 / 26,3516541,2019-08-31 10:48:56:620,0.5849,0.2831,9.0507,0.0431,0.0225,9.8065,0.0298,0.0623,0.0291,17.34,-18.22,-16.35,46.77,-1.11,1.46
35166,52.157845,-1.883506,70,20.23,9.0,39.4,16 / 26,3516641,2019-08-31 10:48:56:720,0.5568,0.2762,9.4559,0.053,0.0119,9.8065,-0.015,0.0335,0.0004,17.58,-17.87,-16.48,45.13,-1.38,1.63
35167,52.157845,-1.883506,70,20.23,9.0,39.4,16 / 26,3516741,2019-08-31 10:48:56:820,-0.9544,-0.0371,7.8476,-0.0668,-0.0354,9.8064,-0.0246,-0.0687,0.027,17.58,-17.87,-16.48,45.13,-1.38,1.63
35168,52.157845,-1.883506,70,20.23,9.0,39.4,16 / 26,3516841,2019-08-31 10:48:56:920,0.0249,0.1952,9.2038,-0.0875,-0.0523,9.8061,0.0095,-0.0101,0.0249,17.91,-17.62,-16.39,45.25,-0.95,1.5
35169,52.157845,-1.883506,70,20.23,9.0,39.4,16 / 26,3516940,2019-08-31 10:48:57:019,-0.338,0.0222,9.2256,0.0059,0.0247,9.8066,-0.0001,0.0005,0.0217,18.32,-18.02,-15.49,45.43,-0.19,1.25
35170,52.157845,-1.883506,70,20.23,9.0,39.4,16 / 26,3517041,2019-08-31 10:48:57:120,0.019,-0.0406,10.1421,-0.0028,0.0506,9.8065,0.0138,0.0144,0.0121,18.13,-17.83,-15.91,45.43,-0.19,1.25
35171,52.157993,-1.883315,72,20.03,9.0,37.6,16 / 26,3517141,2019-08-31 10:48:57:220,0.4481,0.1724,10.1999,0.0245,0.0803,9.8063,0.0138,0.0144,0.0121,18.13,-17.83,-15.91,45.43,-0.19,1.25
35172,52.157993,-1.883315,72,20.03,9.0,37.6,16 / 26,3517241,2019-08-31 10:48:57:320,0.6993,0.1009,9.8159,-0.0005,0.0374,9.8066,-0.0107,0.0271,0.0206,17.91,-17.62,-16.39,45.18,-0.63,1.03
35173,52.157993,-1.883315,72,20.03,9.0,37.6,16 / 26,3517340,2019-08-31 10:48:57:419,0.0549,-0.0217,10.3237,0.0517,0.0838,9.8062,0.0202,0.0857,0.0121,18.13,-17.83,-15.91,44.88,-1.19,0.9
35174,52.157993,-1.883315,72,20.03,9.0,37.6,16 / 26,3517441,2019-08-31 10:48:57:520,0.7502,0.3967,9.8284,0.0167,0.0176,9.8066,0.0447,0.0176,0.0025,18.13,-17.83,-15.91,44.88,-1.19,0.9
35175,52.157993,-1.883315,72,20.03,9.0,37.6,16 / 26,3517541,2019-08-31 10:48:57:620,0.1565,0.3716,8.1968,-0.0222,-0.0354,9.8066,-0.0075,0.0271,0.0313,18.16,-17.85,-15.86,44.82,-1.33,0.89
35176,52.157993,-1.883315,72,20.03,9.0,37.6,16 / 26,3517642,2019-08-31 10:48:57:721,-0.7172,-0.0249,8.8871,-0.0523,-0.0447,9.8064,0.0266,0.0783,0.0227,18.48,-17.04,-16.38,43.36,-0.93,0.86
35177,52.157993,-1.883315,72,20.03,9.0,37.6,16 / 26,3517742,2019-08-31 10:48:57:821,-0.194,-0.4541,10.7135,-0.0083,-0.0128,9.8066,-0.0139,0.0026,0.0163,18.34,-17.45,-16.1,43.41,-0.84,0.88
35178,52.157993,-1.883315,72,20.03,9.0,37.6,16 / 26,3517841,2019-08-31 10:48:57:920,0.0995,-0.5482,10.778,-0.0111,-0.0113,9.8066,-0.0139,0.0026,0.0163,18.1,-17.8,-15.98,43.41,-0.84,0.88
35179,52.157993,-1.883315,72,20.03,9.0,37.6,16 / 26,3517941,2019-08-31 10:48:58:020,-0.0667,-0.1778,8.8448,-0.0092,0.0016,9.8066,-0.0203,-0.0357,0.0398,19.24,-17.21,-15.29,41.94,-0.69,0.89
35180,52.157993,-1.883315,72,20.03,9.0,37.6,16 / 26,3518041,2019-08-31 10:48:58:120,-0.4282,-0.1441,9.5238,-0.0311,0.0071,9.8066,-0.0107,-0.0538,0.0259,19.24,-17.21,-15.29,41.94,-0.69,0.89
35181,52.158127,-1.883145,72,19.66,9.0,36.7,16 / 26,3518141,2019-08-31 10:48:58:220,-0.1567,-0.1289,10.2759,-0.0028,0.0184,9.8066,0.0042,0.0644,0.0313,19.02,-17.65,-15.06,43.53,-0.58,0.74
35182,52.158127,-1.883145,72,19.66,9.0,36.7,16 / 26,3518241,2019-08-31 10:48:58:320,-0.0178,0.2219,7.5264,0.0193,0.018,9.8066,0.0138,0.0144,0.0323,18.1,-17.86,-15.92,45.0,-0.74,0.74
35183,52.158127,-1.883145,72,19.66,9.0,36.7,16 / 26,3518342,2019-08-31 10:48:58:421,-0.2812,0.7285,9.7094,0.0188,0.0124,9.8066,-0.0267,0.0271,0.0494,17.88,-17.65,-16.4,44.96,-0.87,0.76
35184,52.158127,-1.883145,72,19.66,9.0,36.7,16 / 26,3518441,2019-08-31 10:48:58:520,0.4907,0.0878,8.5634,0.0051,0.0195,9.8066,0.0021,0.0325,0.0217,17.88,-17.65,-16.4,44.96,-0.87,0.76
35185,52.158127,-1.883145,72,19.66,9.0,36.7,16 / 26,3518541,2019-08-31 10:48:58:620,0.0261,-0.3136,9.4787,0.012,0.0246,9.8066,-0.0118,0.0186,0.0249,17.89,-17.08,-16.98,43.25,-1.02,0.71
35186,52.158127,-1.883145,72,19.66,9.0,36.7,16 / 26,3518640,2019-08-31 10:48:58:719,-0.3935,-0.0261,10.3837,-0.0193,-0.011,9.8066,-0.0096,-0.0485,0.0377,18.51,-17.09,-16.29,41.77,-0.89,0.68
35187,52.158127,-1.883145,72,19.66,9.0,36.7,16 / 26,3518741,2019-08-31 10:48:58:820,-0.2126,-0.2602,10.1308,-0.0107,-0.0327,9.8066,-0.0096,-0.0485,0.0377,18.51,-17.09,-16.29,41.77,-0.89,0.68
35188,52.158127,-1.883145,72,19.66,9.0,36.7,16 / 26,3518841,2019-08-31 10:48:58:920,-0.4017,-0.0014,10.9251,0.0553,-0.0226,9.8065,0.0756,0.0346,0.0206,19.43,-16.27,-16.06,40.19,-0.72,0.78
35189,52.158127,-1.883145,72,19.66,9.0,36.7,16 / 26,3518941,2019-08-31 10:48:59:020,-0.0015,-0.1307,10.3057,0.1172,-0.0396,9.8059,0.0575,0.0708,0.0472,18.99,-16.47,-16.37,40.19,-0.72,0.78
35190,52.158127,-1.883145,72,19.66,9.0,36.7,16 / 26,3519041,2019-08-31 10:48:59:120,0.7295,-0.3469,9.029,0.0199,0.0008,9.8066,0.0202,0.0378,0.027,18.95,-15.97,-16.91,40.36,-1.09,1.4
35191,52.15828,-1.882985,72,19.32,9.0,35.1,16 / 26,3519141,2019-08-31 10:48:59:220,0.2611,0.4038,8.9111,0.032,-0.037,9.8065,0.0436,-0.0954,0.0334,18.95,-15.97,-16.91,40.36,-1.09,1.4
35192,52.15828,-1.882985,72,19.32,9.0,35.1,16 / 26,3519242,2019-08-31 10:48:59:321,-0.5693,-0.1296,9.2715,-0.0476,-0.0451,9.8064,-0.0309,-0.1401,0.0366,19.01,-17.07,-15.72,42.15,-1.1,1.69
35193,52.15828,-1.882985,72,19.32,9.0,35.1,16 / 26,3519341,2019-08-31 10:48:59:420,-0.1062,0.0464,10.0424,-0.0667,-0.0352,9.8064,0.0138,0.0197,0.0472,18.44,-16.5,-16.96,42.18,-0.71,1.7
35194,52.15828,-1.882985,72,19.32,9.0,35.1,16 / 26,3519441,2019-08-31 10:48:59:520,0.1622,-0.1375,9.9458,-0.0484,-0.0358,9.8065,0.0021,0.0676,0.0387,19.43,-16.27,-16.06,40.75,-0.36,1.66
35195,52.15828,-1.882985,72,19.32,9.0,35.1,16 / 26,3519541,2019-08-31 10:48:59:620,0.8776,0.3601,10.6017,0.0399,0.0078,9.8066,0.0021,0.0676,0.0387,19.14,-15.55,-17.08,40.75,-0.36,1.66
35196,52.15828,-1.882985,72,19.32,9.0,35.1,16 / 26,3519642,2019-08-31 10:48:59:721,0.6342,0.1555,10.7035,0.1192,0.1137,9.8053,-0.0416,0.0889,0.0483,19.14,-15.55,-17.08,40.75,-0.36,1.66
35197,52.15828,-1.882985,72,19.32,9.0,35.1,16 / 26,3519741,2019-08-31 10:48:59:820,0.2439,0.0119,10.8435,0.0076,0.0298,9.8066,0.001,0.0165,0.0451,19.39,-15.75,-16.62,40.37,-1.32,1.61
35198,52.15828,-1.882985,72,19.32,9.0,35.1,16 / 26,3519842,2019-08-31 10:48:59:921,-0.4052,0.0566,8.8157,-0.0066,-0.0125,9.8066,-0.0309,-0.0645,0.0281,19.08,-16.47,-16.27,40.25,-1.47,1.51
35199,52.15828,-1.882985,72,19.32,9.0,35.1,16 / 26,3519941,2019-08-31 10:49:00:020,-0.3715,-0.3037,9.0243,-0.0533,-0.051,9.8064,0.0074,-0.0559,0.0334,19.7,-16.1,-15.9,39.0,-1.04,1.54
35200,52.158413,-1.882838,72,19.06,9.0,33.5,16 / 26,3520042,2019-08-31 10:49:00:121,-0.6701,-0.1288,9.9462,-0.078,-0.0416,9.8063,0.0181,-0.089,0.0355,19.5,-16.5,-15.73,39.0,-1.04,1.54
35201,52.158413,-1.882838,72,19.06,9.0,33.5,16 / 26,3520141,2019-08-31 10:49:00:220,-0.3877,-0.0725,8.9744,-0.1054,-0.0667,9.8059,-0.0171,0.0186,0.0547,19.5,-16.5,-15.73,39.0,-1.04,1.54
35202,52.158413,-1.882838,72,19.06,9.0,33.5,16 / 26,3520241,2019-08-31 10:49:00:320,0.1807,-0.3098,10.477,0.0206,0.0022,9.8066,0.0074,0.0325,0.0249,19.5,-16.5,-15.73,42.35,-0.32,1.45
35203,52.158413,-1.882838,72,19.06,9.0,33.5,16 / 26,3520341,2019-08-31 10:49:00:420,0.3819,0.279,9.7349,0.0479,0.0304,9.8065,0.0074,0.0325,0.0249,19.1,-17.09,-15.6,42.25,-0.64,1.51
35204,52.158413,-1.882838,72,19.06,9.0,33.5,16 / 26,3520441,2019-08-31 10:49:00:520,0.198,0.3558,9.6476,0.0397,0.0672,9.8063,-0.0086,0.0623,0.0409,19.32,-16.08,-16.37,42.25,-0.64,1.51
35205,52.158413,-1.882838,72,19.06,9.0,33.5,16 / 26,3520541,2019-08-31 10:49:00:620,0.5879,0.2173,9.6278,0.0696,0.1179,9.8057,0.0085,0.0165,0.0483,19.32,-16.08,-16.37,42.25,-0.64,1.51
35206,52.158413,-1.882838,72,19.06,9.0,33.5,16 / 26,3520641,2019-08-31 10:49:00:720,-0.0726,-0.1467,8.9244,0.0802,0.1229,9.8056,-0.0096,0.0218,0.0334,19.04,-15.95,-16.83,40.14,-1.47,1.29
35207,52.158413,-1.882838,72,19.06,9.0,33.5,16 / 26,3520741,2019-08-31 10:49:00:820,-0.252,-0.227,10.3173,-0.0577,-0.0239,9.8065,0.0117,-0.0719,0.0249,20.43,-15.15,-15.91,36.99,-1.32,1.21
35208,52.158413,-1.882838,72,19.06,9.0,33.5,16 / 26,3520841,2019-08-31 10:49:00:920,-0.5322,0.0352,10.3033,-0.0845,-0.0433,9.8062,0.0277,-0.0165,0.0195,20.43,-15.15,-15.91,36.99,-1.32,1.21
35209,52.158413,-1.882838,72,19.06,9.0,33.5,16 / 26,3520941,2019-08-31 10:49:01:020,-0.3467,-0.2158,9.4497,-0.0965,-0.0458,9.8061,-0.0075,-0.0549,0.0483,19.44,-15.97,-16.34,36.99,-1.32,1.21
35210,52.15856,-1.882692,72,18.83,9.0,31.5,16 / 26,3521041,2019-08-31 10:49:01:120,0.718,0.3743,9.6818,-0.0017,0.0151,9.8066,-0.0192,0.0367,0.0334,20.5,-15.69,-15.29,37.55,-0.71,1.08
35211,52.15856,-1.882692,72,18.83,9.0,31.5,16 / 26,3521142,2019-08-31 10:49:01:221,0.2293,0.5954,10.014,0.0056,0.0145,9.8066,-0.0192,0.0367,0.0334,20.36,-15.54,-15.63,37.55,-0.71,1.08
35212,52.15856,-1.882692,72,18.83,9.0,31.5,16 / 26,3521242,2019-08-31 10:49:01:321,0.8322,0.2852,9.1394,-0.0307,0.0332,9.8065,-0.0288,-0.0442,0.0132,20.34,-15.69,-15.5,38.78,-0.69,0.82
35213,52.15856,-1.882692,72,18.83,9.0,31.5,16 / 26,3521342,2019-08-31 10:49:01:421,-0.4149,0.0947,8.7654,-0.0527,0.0194,9.8065,0.0063,-0.008,0.0025,19.94,-15.39,-16.3,38.78,-0.69,0.82
35214,52.15856,-1.882692,72,18.83,9.0,31.5,16 / 26,3521442,2019-08-31 10:49:01:521,0.0979,0.3254,10.0459,-0.0415,0.0612,9.8064,-0.0139,0.1028,0.0547,19.94,-15.39,-16.3,38.78,-0.69,0.82
35215,52.15856,-1.882692,72,18.83,9.0,31.5,16 / 26,3521541,2019-08-31 10:49:01:620,-0.3613,0.3477,10.716,0.0722,0.0212,9.8064,0.0522,0.0421,0.0174,20.8,-15.15,-15.42,35.48,-0.72,0.39
35216,52.15856,-1.882692,72,18.83,9.0,31.5,16 / 26,3521640,2019-08-31 10:49:01:719,0.6917,0.0755,10.4927,0.137,0.0243,9.8057,0.0404,0.0282,0.0004,20.04,-14.44,-17.03,35.48,-0.72,0.39
35217,52.15856,-1.882692,72,18.83,9.0,31.5,16 / 26,3521741,2019-08-31 10:49:01:820,0.2995,0.2019,9.3525,0.0074,0.0044,9.8066,-0.0107,0.0048,0.0366,19.75,-14.3,-17.48,34.85,-1.46,0.74
35218,52.15856,-1.882692,72,18.83,9.0,31.5,16 / 26,3521842,2019-08-31 10:49:01:921,-0.3376,-0.164,9.266,-0.0198,-0.0374,9.8066,-0.0245,-0.0911,0.0259,17.15,-15.31,-19.27,41.08,-1.51,0.74
35219,52.15856,-1.882692,72,18.83,9.0,31.5,16 / 26,3521942,2019-08-31 10:49:02:021,-0.1018,0.1561,7.8708,-0.1104,-0.0798,9.8057,-0.0245,-0.0911,0.0259,17.55,-17.31,-17.1,41.08,-1.51,0.74
35220,52.15856,-1.882692,72,18.83,9.0,31.5,16 / 26,3522041,2019-08-31 10:49:02:120,-0.324,-0.1487,10.0138,-0.1424,-0.0969,9.8051,0.0234,-0.0314,0.0259,17.55,-17.31,-17.1,41.08,-1.51,0.74
35221,52.158703,-1.882562,71,18.62,9.0,30.3,15 / 26,3522141,2019-08-31 10:49:02:220,-0.3532,-0.2949,10.4942,-0.0224,0.015,9.8066,-0.0203,0.0165,0.0345,19.55,-16.88,-15.26,40.45,-0.51,0.62
35222,52.158703,-1.882562,71,18.62,9.0,30.3,15 / 26,3522242,2019-08-31 10:49:02:321,0.1854,-0.3511,11.2301,-0.0116,0.0393,9.8066,0.0554,-0.0133,0.0259,20.47,-15.66,-15.36,38.62,-0.61,0.4
35223,52.158703,-1.882562,71,18.62,9.0,30.3,15 / 26,3522342,2019-08-31 10:49:02:421,-0.1072,0.186,10.7461,-0.0019,0.0282,9.8066,-0.0022,-0.0069,0.0089,20.33,-15.13,-16.06,36.74,-0.7,0.27
35224,52.158703,-1.882562,71,18.62,9.0,30.3,15 / 26,3522441,2019-08-31 10:49:02:520,0.0808,-0.1054,8.7737,-0.007,0.0148,9.8066,-0.0256,0.1337,0.0334,20.33,-15.13,-16.06,36.74,-0.7,0.27
35225,52.158703,-1.882562,71,18.62,9.0,30.3,15 / 26,3522541,2019-08-31 10:49:02:620,0.9205,0.0067,8.8869,0.0425,0.0641,9.8063,0.0053,0.0165,0.0313,20.64,-15.3,-15.49,35.22,-1.12,0.11
35226,52.158703,-1.882562,71,18.62,9.0,30.3,15 / 26,3522641,2019-08-31 10:49:02:720,0.0175,0.0417,8.927,0.0198,0.0101,9.8066,0.0053,0.0165,0.0313,20.64,-15.3,-15.49,35.22,-1.12,0.13
35227,52.158703,-1.882562,71,18.62,9.0,30.3,15 / 26,3522741,2019-08-31 10:49:02:820,-0.266,-0.1267,8.0943,-0.0644,-0.0697,9.8062,0.0202,-0.0123,0.0185,19.99,-15.39,-16.24,36.47,-1.25,0.13
35228,52.158703,-1.882562,71,18.62,9.0,30.3,15 / 26,3522841,2019-08-31 10:49:02:920,0.3023,0.2279,9.2622,-0.0091,-0.0024,9.8066,-0.0075,-0.0613,0.0227,20.04,-14.44,-17.03,34.85,-0.71,0.24
35229,52.158703,-1.882562,71,18.62,9.0,30.3,15 / 26,3522941,2019-08-31 10:49:03:020,0.5051,0.0957,9.3319,0.0234,0.0122,9.8066,0.0074,0.057,0.0451,20.49,-14.77,-16.18,36.68,-0.86,0.26
35230,52.158833,-1.882439,70,17.87,9.0,29.9,15 / 26,3523041,2019-08-31 10:49:03:120,-0.1723,0.0337,10.2078,0.0417,-0.0093,9.8066,0.0351,0.0453,0.0153,20.49,-14.77,-16.18,36.68,-0.86,0.26
35231,52.158833,-1.882439,70,17.87,9.0,29.9,15 / 26,3523140,2019-08-31 10:49:03:219,1.4207,0.2736,9.1619,0.0542,0.0035,9.8065,-0.0064,-0.0346,0.0398,20.56,-14.07,-16.7,36.68,-0.86,0.26
35232,52.158833,-1.882439,70,17.87,9.0,29.9,15 / 26,3523241,2019-08-31 10:49:03:320,0.4604,0.1983,9.0354,0.1098,0.0257,9.806,-0.0118,0.0357,0.0323,19.72,-14.62,-17.24,36.57,-1.46,0.52
35233,52.158833,-1.882439,70,17.87,9.0,29.9,15 / 26,3523341,2019-08-31 10:49:03:420,-0.0705,-0.0733,8.7063,0.0163,0.0135,9.8066,0.0042,-0.0378,0.0355,19.72,-14.62,-17.24,36.57,-1.46,0.52
35234,52.158833,-1.882439,70,17.87,9.0,29.9,15 / 26,3523441,2019-08-31 10:49:03:520,-0.1286,-0.1812,8.9114,-0.0448,-0.0203,9.8065,0.0042,-0.0176,0.0291,20.34,-13.92,-17.1,34.67,-1.59,0.51
35235,52.158833,-1.882439,70,17.87,9.0,29.9,15 / 26,3523541,2019-08-31 10:49:03:620,-0.1619,-0.1413,10.8974,-0.1029,-0.0558,9.806,0.0042,-0.0176,0.0291,20.47,-14.19,-16.73,34.89,-0.91,0.44
35236,52.158833,-1.882439,70,17.87,9.0,29.9,15 / 26,3523641,2019-08-31 10:49:03:720,-0.6948,-0.0604,10.0569,-0.0663,-0.0194,9.8064,-0.0022,-0.0165,0.027,20.47,-14.19,-16.73,34.89,-0.91,0.44
35237,52.158833,-1.882439,70,17.87,9.0,29.9,15 / 26,3523741,2019-08-31 10:49:03:820,-0.2581,0.1059,9.5871,0.0004,0.006,9.8067,-0.0139,-0.041,0.043,20.34,-14.27,-16.82,34.98,-0.47,0.3
35238,52.158833,-1.882439,70,17.87,9.0,29.9,15 / 26,3523841,2019-08-31 10:49:03:920,0.1183,0.0246,9.0755,0.0494,0.0163,9.8065,0.0287,0.0783,0.027,20.76,-14.0,-16.52,34.98,-0.47,0.3
35239,52.158833,-1.882439,70,17.87,9.0,29.9,15 / 26,3523941,2019-08-31 10:49:04:020,-0.0727,0.0702,9.844,0.0753,0.047,9.8062,0.0319,0.0644,0.027,20.16,-14.37,-16.95,34.91,-0.76,0.39
35240,52.158974,-1.882321,69,17.87,9.0,27.5,15 / 26,3524041,2019-08-31 10:49:04:120,1.6093,-0.0153,10.8987,0.1071,0.0555,9.8059,-0.0064,0.0463,0.0302,20.34,-13.92,-17.1,34.91,-0.76,0.39
35241,52.158974,-1.882321,69,17.87,9.0,27.5,15 / 26,3524141,2019-08-31 10:49:04:220,0.8697,0.1897,8.3092,0.0797,0.0279,9.8063,-0.0128,0.0389,0.0377,20.34,-13.92,-17.1,34.91,-0.76,0.39
35242,52.158974,-1.882321,69,17.87,9.0,27.5,15 / 26,3524241,2019-08-31 10:49:04:320,0.6301,-0.3204,9.4551,-0.0044,0.0022,9.8066,0.0245,0.0197,0.0142,20.52,-13.46,-17.25,31.63,-1.23,0.52
35243,52.158974,-1.882321,69,17.87,9.0,27.5,15 / 26,3524341,2019-08-31 10:49:04:420,-0.6652,-0.1728,9.2116,-0.017,0.0022,9.8066,0.0447,0.0495,0.0259,20.02,-14.1,-17.33,34.8,-1.22,0.5
35244,52.158974,-1.882321,69,17.87,9.0,27.5,15 / 26,3524441,2019-08-31 10:49:04:520,-0.1383,-0.0943,10.0502,-0.0434,-0.0184,9.8065,0.0447,0.0495,0.0259,20.94,-13.56,-16.66,33.59,-0.95,0.44
35245,52.158974,-1.882321,69,17.87,9.0,27.5,15 / 26,3524542,2019-08-31 10:49:04:621,0.6094,0.0824,7.7069,-0.043,-0.0406,9.8065,-0.0075,-0.0709,0.0217,20.94,-13.56,-16.66,33.59,-0.95,0.44
35246,52.158974,-1.882321,69,17.87,9.0,27.5,15 / 26,3524641,2019-08-31 10:49:04:720,-0.2145,-0.0819,10.6117,-0.0088,-0.0207,9.8066,-0.0597,0.0186,0.0568,21.12,-13.11,-16.8,31.76,-0.84,0.51
35247,52.158974,-1.882321,69,17.87,9.0,27.5,15 / 26,3524741,2019-08-31 10:49:04:820,0.0668,-0.3853,11.0169,-0.0164,-0.0079,9.8066,0.0063,-0.024,0.0419,20.56,-14.07,-16.7,33.54,-1.05,0.42
35248,52.158974,-1.882321,69,17.87,9.0,27.5,15 / 26,3524842,2019-08-31 10:49:04:921,-0.8464,0.1556,9.1618,-0.0261,0.0078,9.8066,-0.0075,0.0048,0.0387,20.61,-13.72,-16.94,33.51,-0.95,0.3
35249,52.158974,-1.882321,69,17.87,9.0,27.5,15 / 26,3524942,2019-08-31 10:49:05:021,-0.5336,-0.275,10.0287,-0.0251,0.0136,9.8066,0.0053,-0.0123,0.0089,20.61,-13.72,-16.94,33.51,-0.95,0.3
35250,52.159122,-1.882206,70,17.67,9.0,26.2,15 / 26,3525041,2019-08-31 10:49:05:120,-0.511,0.3116,9.9518,0.0039,0.0043,9.8066,-0.0096,-0.024,0.0504,20.94,-13.56,-16.66,33.45,-0.87,0.15
35251,52.159122,-1.882206,70,17.67,9.0,26.2,15 / 26,3525141,2019-08-31 10:49:05:220,0.0056,0.045,10.123,0.0007,0.0091,9.8066,-0.0096,-0.024,0.0504,21.09,-14.03,-16.07,33.45,-0.87,0.15
35252,52.159122,-1.882206,70,17.67,9.0,26.2,15 / 26,3525241,2019-08-31 10:49:05:320,-0.4072,0.129,7.7702,-0.0099,-0.0125,9.8066,0.0351,-0.0485,0.0259,21.09,-14.03,-16.07,33.45,-0.87,0.15
35253,52.159122,-1.882206,70,17.67,9.0,26.2,15 / 26,3525342,2019-08-31 10:49:05:421,-0.1845,0.2463,11.7242,-0.0296,0.009,9.8066,-0.0427,-0.0059,0.0398,21.57,-13.38,-15.99,30.43,-0.78,0.18
35254,52.159122,-1.882206,70,17.67,9.0,26.2,15 / 26,3525442,2019-08-31 10:49:05:521,-0.0845,0.2755,10.1016,-0.0178,0.0282,9.8066,-0.0022,0.1081,0.0355,21.58,-13.48,-15.89,30.43,-0.78,0.18
35255,52.159122,-1.882206,70,17.67,9.0,26.2,15 / 26,3525541,2019-08-31 10:49:05:620,-0.9468,-0.0731,10.2798,-0.0389,0.0207,9.8066,0.0468,0.0282,0.0078,21.56,-13.84,-15.62,32.24,-0.65,-0.04
35256,52.159122,-1.882206,70,17.67,9.0,26.2,15 / 26,3525641,2019-08-31 10:49:05:720,-0.4342,-0.0452,9.9478,-0.0803,-0.0666,9.8061,0.0287,0.025,0.0217,20.84,-13.96,-16.45,32.24,-0.65,-0.04
35257,52.159122,-1.882206,70,17.67,9.0,26.2,15 / 26,3525742,2019-08-31 10:49:05:821,-0.865,-0.1534,9.5775,-0.092,-0.0694,9.806,0.0191,0.025,0.027,20.84,-13.96,-16.45,32.24,-0.65,-0.04
35258,52.159122,-1.882206,70,17.67,9.0,26.2,15 / 26,3525842,2019-08-31 10:49:05:921,-0.4979,-0.1773,8.9036,-0.019,-0.0199,9.8066,0.0277,-0.0314,0.0227,21.29,-13.67,-16.12,33.71,0.02,0.02
35259,52.159122,-1.882206,70,17.67,9.0,26.2,15 / 26,3525941,2019-08-31 10:49:06:020,0.0718,-0.1214,9.303,-0.0601,-0.0608,9.8063,0.0277,-0.0314,0.0227,21.86,-13.29,-15.67,33.71,0.02,0.02
35260,52.159267,-1.882093,70,17.38,9.0,24.6,15 / 26,3526042,2019-08-31 10:49:06:121,-0.3633,-0.145,8.4338,-0.1076,-0.085,9.8057,0.0053,-0.0506,0.0195,22.0,-12.8,-15.87,30.89,0.82,0.08
35261,52.159267,-1.882093,70,17.38,9.0,24.6,16 / 26,3526141,2019-08-31 10:49:06:220,-0.2566,0.0551,9.9749,-0.0296,-0.0015,9.8066,-0.0043,-0.0165,0.0281,22.0,-12.8,-15.87,30.89,0.82,0.08
35262,52.159267,-1.882093,70,17.38,9.0,24.6,16 / 26,3526240,2019-08-31 10:49:06:319,0.0591,0.0958,11.1426,0.0006,-0.0204,9.8066,0.0181,0.0868,0.0142,21.99,-12.21,-16.35,28.91,0.97,0.0
35263,52.159267,-1.882093,70,17.38,9.0,24.6,16 / 26,3526341,2019-08-31 10:49:06:420,-0.5222,-0.153,9.4798,-0.0428,-0.0456,9.8065,0.0308,0.0495,-0.0039,22.08,-12.84,-15.73,31.07,1.32,0.11
35264,52.159267,-1.882093,70,17.38,9.0,24.6,16 / 26,3526441,2019-08-31 10:49:06:520,-0.0885,-0.023,9.7394,-0.0478,-0.0186,9.8065,0.0287,0.0602,0.0121,21.99,-12.21,-16.35,29.16,1.62,0.06
35265,52.159267,-1.882093,70,17.38,9.0,24.6,16 / 26,3526541,2019-08-31 10:49:06:620,-0.1308,-0.039,10.9365,-0.0446,0.0009,9.8065,-0.0288,-0.0101,0.027,21.99,-12.21,-16.35,29.16,1.62,0.06
35266,52.159267,-1.882093,70,17.38,9.0,24.6,16 / 26,3526642,2019-08-31 10:49:06:721,-0.3691,-0.1822,10.4162,-0.0275,-0.0001,9.8066,-0.0139,0.0602,0.0153,22.3,-12.64,-15.58,31.15,1.84,-0.07
35267,52.159267,-1.882093,70,17.38,9.0,24.6,16 / 26,3526741,2019-08-31 10:49:06:820,-0.1173,0.2612,10.3458,-0.0415,0.0262,9.8065,-0.0139,0.0602,0.0153,22.56,-13.13,-14.79,31.15,1.84,-0.07
35268,52.159267,-1.882093,70,17.38,9.0,24.6,16 / 26,3526841,2019-08-31 10:49:06:920,-0.1344,0.2937,10.5202,-0.0373,0.059,9.8064,-0.015,-0.0421,0.0387,22.3,-12.97,-15.3,30.91,1.85,-0.48
35269,52.159267,-1.882093,70,17.38,9.0,24.6,16 / 26,3526941,2019-08-31 10:49:07:020,0.2606,0.1428,10.4672,0.0462,0.0112,9.8065,0.0063,0.0495,0.0281,22.3,-12.97,-15.3,30.91,1.85,-0.48
35270,52.159393,-1.88199,70,16.61,9.0,23.6,16 / 26,3527041,2019-08-31 10:49:07:120,-0.0119,0.0823,10.9988,0.0025,-0.0164,9.8066,0.0245,-0.0293,0.027,22.22,-12.68,-15.66,30.89,1.58,-0.4
35271,52.159393,-1.88199,70,16.61,9.0,23.6,16 / 26,3527140,2019-08-31 10:49:07:219,-0.5276,-0.3293,9.4484,-0.0485,-0.0672,9.8063,0.0053,0.0144,0.0153,22.49,-12.49,-15.43,30.89,1.58,-0.4
35272,52.159393,-1.88199,70,16.61,9.0,23.6,16 / 26,3527241,2019-08-31 10:49:07:320,-0.5138,-0.2857,10.2784,-0.1064,-0.0995,9.8056,0.0223,0.0154,0.011,22.26,-12.36,-15.86,29.27,2.41,-0.22
35273,52.159393,-1.88199,70,16.61,9.0,23.6,16 / 26,3527342,2019-08-31 10:49:07:421,-0.4433,-0.5362,10.7015,-0.0221,-0.0244,9.8066,0.0223,-0.0208,0.0249,22.08,-12.52,-15.99,29.27,2.41,-0.22
35274,52.159393,-1.88199,70,16.61,9.0,23.6,16 / 26,3527441,2019-08-31 10:49:07:520,-0.291,-0.4703,9.7734,-0.0724,-0.0588,9.8062,0.0021,-0.0059,0.0387,22.08,-12.52,-15.99,29.27,2.41,-0.22
35275,52.159393,-1.88199,70,16.61,9.0,23.6,16 / 26,3527541,2019-08-31 10:49:07:620,0.1539,-0.1059,9.7795,-0.0049,-0.0442,9.8065,0.0021,-0.0059,0.0387,23.15,-11.93,-14.88,28.33,2.95,-0.12
35276,52.159393,-1.88199,70,16.61,9.0,23.6,16 / 26,3527640,2019-08-31 10:49:07:719,-0.0359,-0.0223,10.5217,0.0429,-0.0175,9.8065,0.0308,0.1049,0.0206,22.71,-12.01,-15.49,28.49,3.1,0.09
35277,52.159393,-1.88199,70,16.61,9.0,23.6,16 / 26,3527742,2019-08-31 10:49:07:821,-0.1464,-0.1778,10.879,-0.0324,-0.0108,9.8066,0.0,0.0122,0.0153,22.41,-12.18,-15.8,29.73,2.93,0.3
35278,52.159393,-1.88199,70,16.61,9.0,23.6,16 / 26,3527841,2019-08-31 10:49:07:920,-0.119,-0.5308,10.1652,-0.1069,-0.0506,9.8059,-0.0245,-0.0229,0.0185,22.41,-12.18,-15.8,29.73,2.93,0.3
35279,52.159393,-1.88199,70,16.61,9.0,23.6,16 / 26,3527941,2019-08-31 10:49:08:020,-0.7199,-0.1784,9.3778,-0.0645,-0.0236,9.8064,0.0266,0.0165,0.0142,22.61,-11.36,-16.11,26.76,3.62,0.25
35280,52.159523,-1.881901,70,15.76,9.0,23.1,16 / 26,3528041,2019-08-31 10:49:08:120,-0.8378,-0.428,8.4953,-0.1112,-0.0533,9.8059,0.0362,-0.0943,0.0132,22.8,-11.26,-15.92,26.99,4.34,0.23
35281,52.159523,-1.881901,70,15.76,9.0,23.1,16 / 26,3528141,2019-08-31 10:49:08:220,-0.0652,-0.4054,9.1179,-0.0545,-0.0308,9.8065,-0.0022,-0.0325,0.0249,22.8,-11.26,-15.92,26.99,4.34,0.23
35282,52.159523,-1.881901,70,15.76,9.0,23.1,16 / 26,3528241,2019-08-31 10:49:08:320,0.0867,0.2117,10.8676,-0.0459,-0.047,9.8064,-0.0011,0.1209,0.0377,22.38,-11.53,-16.31,30.34,4.7,0.25
35283,52.159523,-1.881901,70,15.76,9.0,23.1,16 / 26,3528342,2019-08-31 10:49:08:421,0.4139,0.1751,12.1988,-0.0555,-0.0635,9.8063,-0.0011,0.1209,0.0377,22.42,-11.55,-16.24,30.61,5.17,0.41
35284,52.159523,-1.881901,70,15.76,9.0,23.1,16 / 26,3528441,2019-08-31 10:49:08:520,-0.249,0.1652,10.2282,0.009,-0.0004,9.8066,0.0085,-0.0016,0.011,22.63,-11.76,-15.81,29.44,5.14,0.45
35285,52.159523,-1.881901,70,15.76,9.0,23.1,16 / 26,3528541,2019-08-31 10:49:08:620,0.168,0.2497,9.629,0.0105,0.0055,9.8066,0.0223,0.0879,0.0249,22.63,-11.76,-15.81,29.44,5.14,0.45
35286,52.159523,-1.881901,70,15.76,9.0,23.1,16 / 26,3528641,2019-08-31 10:49:08:720,-0.0139,-0.0007,9.279,-0.0029,-0.0033,9.8066,0.0106,-0.0037,0.0078,22.52,-11.12,-16.41,27.36,5.07,0.45
35287,52.159523,-1.881901,70,15.76,9.0,23.1,16 / 26,3528741,2019-08-31 10:49:08:820,-0.1053,0.1082,9.6787,0.0042,-0.0122,9.8066,0.0383,0.0176,0.0121,22.42,-10.77,-16.77,28.65,5.08,0.52
35288,52.159523,-1.881901,70,15.76,9.0,23.1,16 / 26,3528842,2019-08-31 10:49:08:921,0.0877,0.0852,9.3406,-0.03,-0.0203,9.8066,0.0234,0.0325,0.0068,22.68,-10.62,-16.52,28.65,5.08,0.52
35289,52.159523,-1.881901,70,15.76,9.0,23.1,16 / 26,3528942,2019-08-31 10:49:09:021,-0.3658,-0.0247,10.2819,-0.0807,-0.0365,9.8063,-0.0171,-0.0282,0.0014,22.68,-10.62,-16.52,28.65,5.08,0.52
35290,52.159645,-1.88182,71,14.51,9.0,22.3,16 / 26,3529042,2019-08-31 10:49:09:121,-0.1983,0.0622,10.1286,-0.1405,-0.0432,9.8055,-0.0043,-0.0005,0.0131,22.92,-10.73,-16.11,27.59,5.92,0.35
35291,52.159645,-1.88182,71,14.51,9.0,22.3,16 / 26,3529141,2019-08-31 10:49:09:220,-0.3873,0.119,9.7745,-0.0078,-0.0009,9.8066,-0.0043,-0.0005,0.0131,22.76,-11.24,-15.99,27.59,5.92,0.35
35292,52.159645,-1.88182,71,14.51,9.0,22.3,16 / 26,3529241,2019-08-31 10:49:09:320,-0.1078,0.444,10.1536,-0.0033,0.005,9.8066,0.0245,0.0463,0.0025,22.48,-11.1,-16.47,28.72,5.93,0.32
35293,52.159645,-1.88182,71,14.51,9.0,22.3,16 / 26,3529341,2019-08-31 10:49:09:420,-0.1084,0.1372,8.7773,-0.0059,-0.0068,9.8066,0.0074,-0.0709,0.0068,22.92,-10.73,-16.11,28.72,5.93,0.32
35294,52.159645,-1.88182,71,14.51,9.0,22.3,16 / 26,3529440,2019-08-31 10:49:09:519,0.255,0.1398,9.8798,-0.0168,-0.03,9.8066,0.0117,0.025,0.0046,22.92,-10.73,-16.11,28.72,5.93,0.32
35295,52.159645,-1.88182,71,14.51,9.0,22.3,16 / 26,3529541,2019-08-31 10:49:09:620,0.0677,0.1115,9.4101,0.0013,0.0303,9.8066,-0.0256,-0.0176,0.0121,22.72,-11.22,-16.06,27.7,6.1,0.42
35296,52.159645,-1.88182,71,14.51,9.0,22.3,16 / 26,3529641,2019-08-31 10:49:09:720,-0.0837,0.1987,9.7121,-0.0269,0.0133,9.8066,0.001,0.0261,-0.0071,22.72,-11.22,-16.06,27.58,6.01,0.27
35297,52.159645,-1.88182,71,14.51,9.0,22.3,16 / 26,3529740,2019-08-31 10:49:09:819,-0.3225,-0.0695,9.9817,-0.0806,0.0153,9.8063,-0.0054,0.0272,0.0046,22.72,-11.22,-16.06,27.58,6.01,0.27
35298,52.159645,-1.88182,71,14.51,9.0,22.3,16 / 26,3529841,2019-08-31 10:49:09:920,-0.1759,0.108,10.3118,-0.0061,0.0184,9.8066,0.033,0.0751,-0.0103,22.5,-11.41,-16.23,27.54,6.38,-0.03
35299,52.159645,-1.88182,71,14.51,9.0,22.3,16 / 26,3529941,2019-08-31 10:49:10:020,-0.2206,-0.0654,10.7508,0.016,0.0281,9.8066,0.033,0.0751,-0.0103,22.34,-10.73,-16.9,27.54,6.38,-0.03
35300,52.15975,-1.881751,71,13.16,9.0,22.0,16 / 26,3530041,2019-08-31 10:49:10:120,0.1879,0.1267,9.9134,0.0377,0.0231,9.8066,0.0543,0.0485,0.0004,22.63,-10.87,-16.42,27.44,6.13,-0.05
35301,52.15975,-1.881751,71,13.16,9.0,22.0,16 / 26,3530141,2019-08-31 10:49:10:220,0.0194,0.0622,9.3023,-0.0115,-0.0371,9.8066,0.0266,-0.0623,0.0068,22.63,-10.87,-16.42,27.44,6.13,-0.05
35302,52.15975,-1.881751,71,13.16,9.0,22.0,16 / 26,3530241,2019-08-31 10:49:10:320,0.1856,-0.0792,9.501,-0.0212,-0.066,9.8064,0.0191,0.0602,0.0163,22.79,-10.08,-16.7,25.66,6.41,0.24
35303,52.15975,-1.881751,71,13.16,9.0,22.0,16 / 26,3530342,2019-08-31 10:49:10:421,-0.0754,-0.0266,9.8547,0.0179,-0.0316,9.8066,0.0404,0.0431,0.0089,22.11,-10.91,-17.08,29.07,6.3,0.42
35304,52.15975,-1.881751,71,13.16,9.0,22.0,16 / 26,3530441,2019-08-31 10:49:10:520,-0.5507,-0.2195,10.737,-0.0167,-0.0312,9.8066,0.0245,-0.0091,-0.0028,22.38,-9.83,-17.39,26.98,6.3,0.63
35305,52.15975,-1.881751,71,13.16,9.0,22.0,16 / 26,3530542,2019-08-31 10:49:10:621,-0.7531,-0.6834,10.3328,-0.0492,-0.0524,9.8064,0.0415,-0.0506,0.0142,22.38,-9.83,-17.39,26.98,6.3,0.63
35306,52.15975,-1.881751,71,13.16,9.0,22.0,16 / 26,3530642,2019-08-31 10:49:10:721,-0.6435,-0.7185,10.2777,0.0079,-0.011,9.8066,0.0415,-0.0506,0.0142,22.42,-9.85,-17.32,27.22,6.69,0.78
35307,52.15975,-1.881751,71,13.16,9.0,22.0,16 / 26,3530741,2019-08-31 10:49:10:820,-0.5726,-0.4947,11.4975,0.0271,-0.0058,9.8066,0.0053,0.0144,0.0131,22.43,-9.59,-17.46,27.22,6.69,0.78
35308,52.15975,-1.881751,71,13.16,9.0,22.0,16 / 26,3530841,2019-08-31 10:49:10:920,-0.12,-0.7216,9.3201,-0.0194,-0.0158,9.8066,-0.015,0.1188,0.0259,22.15,-10.0,-17.59,27.41,6.56,0.88
35309,52.15975,-1.881751,71,13.16,9.0,22.0,16 / 26,3530941,2019-08-31 10:49:11:020,-0.198,-0.3778,9.164,-0.0624,-0.0406,9.8064,0.0117,-0.0027,-0.0039,22.49,-10.21,-17.02,27.44,7.0,0.92
35310,52.15985,-1.881688,72,11.72,9.0,21.8,16 / 26,3531042,2019-08-31 10:49:11:121,-0.2292,0.1213,10.1999,-0.022,-0.0376,9.8066,0.0,-0.0112,0.0185,22.49,-10.21,-17.02,27.44,7.0,0.92
35311,52.15985,-1.881688,72,11.72,9.0,21.8,16 / 26,3531141,2019-08-31 10:49:11:220,-0.1777,-0.2064,10.3338,-0.0268,-0.0176,9.8066,0.0181,0.0005,0.0227,22.83,-9.16,-17.17,24.22,7.21,1.06
35312,52.15985,-1.881688,72,11.72,9.0,21.8,16 / 26,3531243,2019-08-31 10:49:11:322,-0.1875,-0.1544,9.4648,-0.0509,-0.0624,9.8063,0.0479,-0.041,0.0046,22.83,-9.16,-17.17,24.51,7.77,1.2
35313,52.15985,-1.881688,72,11.72,9.0,21.8,16 / 26,3531341,2019-08-31 10:49:11:420,0.3416,0.0059,10.4483,-0.0722,-0.0896,9.806,-0.0139,0.0495,0.0089,22.82,-8.92,-17.31,24.51,7.77,1.2
35314,52.15985,-1.881688,72,11.72,9.0,21.8,16 / 26,3531442,2019-08-31 10:49:11:521,-0.4328,-0.1574,9.1034,-0.0616,-0.0801,9.8061,-0.0139,0.0495,0.0089,22.82,-8.92,-17.31,24.51,7.77,1.2
35315,52.15985,-1.881688,72,11.72,9.0,21.8,16 / 26,3531541,2019-08-31 10:49:11:620,0.2928,0.2338,10.9912,0.0421,0.0277,9.8065,-0.0118,0.09,0.0142,22.94,-8.7,-17.26,24.88,8.29,1.48
35316,52.15985,-1.881688,72,11.72,9.0,21.8,16 / 26,3531642,2019-08-31 10:49:11:721,0.3937,0.1246,9.9051,0.0262,0.0228,9.8066,-0.0022,0.0154,0.0249,22.8,-8.05,-17.76,22.59,8.0,1.43
35317,52.15985,-1.881688,72,11.72,9.0,21.8,16 / 26,3531741,2019-08-31 10:49:11:820,0.4483,0.017,9.7561,0.0461,0.0302,9.8065,0.0021,0.0133,0.0206,22.8,-8.05,-17.76,22.59,8.0,1.43
35318,52.15985,-1.881688,72,11.72,9.0,21.8,16 / 26,3531841,2019-08-31 10:49:11:920,-0.0888,-0.1794,10.0878,0.0278,-0.0089,9.8066,0.0159,-0.0197,0.0185,23.0,-8.96,-17.04,24.59,7.68,1.37
35319,52.15985,-1.881688,72,11.72,9.0,21.8,16 / 26,3531941,2019-08-31 10:49:12:020,-0.0287,-0.4463,10.5431,0.0302,-0.0296,9.8066,0.0138,-0.0613,0.0206,22.88,-9.43,-16.95,24.71,7.6,1.61
35320,52.159935,-1.881635,73,10.06,9.0,21.3,16 / 25,3532050,2019-08-31 10:49:12:129,-0.0808,-0.4009,10.1233,-0.0237,-0.0375,9.8065,0.0181,0.025,0.0238,22.57,-9.06,-17.57,24.71,7.6,1.61
35321,52.159935,-1.881635,73,10.06,9.0,21.3,16 / 25,3532141,2019-08-31 10:49:12:220,-0.0289,-0.1523,10.1616,-0.0167,-0.1315,9.8058,0.0042,-0.024,0.0462,22.57,-9.06,-17.57,24.71,7.6,1.61
35322,52.159935,-1.881635,73,10.06,9.0,21.3,16 / 25,3532241,2019-08-31 10:49:12:320,0.7998,-0.3178,10.2271,0.0892,-0.0108,9.8062,-0.015,0.0602,0.0803,22.76,-9.01,-17.34,25.29,8.0,2.27
35323,52.159935,-1.881635,73,10.06,9.0,21.3,16 / 25,3532341,2019-08-31 10:49:12:420,1.1502,-0.0498,9.6273,0.1012,0.0025,9.8061,-0.015,0.0602,0.0803,23.4,-7.21,-17.34,20.61,7.56,2.55
35324,52.159935,-1.881635,73,10.06,9.0,21.3,16 / 25,3532441,2019-08-31 10:49:12:520,1.405,0.1267,9.8964,0.1982,0.0059,9.8046,0.0149,0.0389,0.059,22.34,-7.49,-18.57,21.94,6.46,2.93
35325,52.159935,-1.881635,73,10.06,9.0,21.3,16 / 25,3532542,2019-08-31 10:49:12:621,1.1857,0.125,9.078,0.1052,0.0109,9.8061,0.0042,0.0602,0.0536,22.34,-7.49,-18.57,21.94,6.46,2.93
35326,52.159935,-1.881635,73,10.06,9.0,21.3,16 / 25,3532641,2019-08-31 10:49:12:720,1.2528,0.0387,9.4162,0.0936,0.0005,9.8062,0.0042,0.0272,0.0696,22.34,-7.49,-18.57,21.86,5.87,3.1
35327,52.159935,-1.881635,73,10.06,9.0,21.3,16 / 25,3532741,2019-08-31 10:49:12:820,1.3279,-0.1763,9.3868,0.1784,-0.0176,9.805,0.0074,-0.0197,0.0739,22.67,-7.6,-18.13,21.86,5.87,3.1
35328,52.159935,-1.881635,73,10.06,9.0,21.3,16 / 25,3532840,2019-08-31 10:49:12:919,0.9204,0.0746,9.2076,0.069,-0.0342,9.8064,0.0468,0.0037,0.0984,22.45,-6.92,-18.66,21.91,4.94,3.59
35329,52.159935,-1.881635,73,10.06,9.0,21.3,16 / 25,3532942,2019-08-31 10:49:13:021,1.235,-0.3662,9.7456,0.1503,-0.095,9.805,0.05,-0.0037,0.1122,22.43,-6.73,-18.75,22.35,4.33,4.43
35330,52.16,-1.881595,72,8.56,9.0,17.6,17 / 25,3533041,2019-08-31 10:49:13:120,0.8744,-0.3471,9.8375,0.0967,-0.0714,9.8059,0.05,-0.0037,0.1122,22.42,-5.85,-19.06,22.35,4.33,4.43
35331,52.16,-1.881595,72,8.56,9.0,17.6,17 / 25,3533141,2019-08-31 10:49:13:220,0.9038,-0.338,9.7526,0.1707,-0.14,9.8042,0.017,-0.0378,0.1463,22.42,-5.85,-19.06,22.35,4.33,4.43
35332,52.16,-1.881595,72,8.56,9.0,17.6,17 / 25,3533241,2019-08-31 10:49:13:320,0.7869,-0.4664,9.5158,0.2535,-0.2041,9.8013,0.0042,-0.0016,0.1602,22.7,-5.01,-18.97,17.73,3.42,6.1
35333,52.16,-1.881595,72,8.56,9.0,17.6,17 / 25,3533341,2019-08-31 10:49:13:420,0.9174,-0.3184,9.7522,0.1506,-0.1035,9.8049,0.0149,0.0016,0.1761,23.03,-4.44,-18.71,15.84,2.76,6.95
35334,52.16,-1.881595,72,8.56,9.0,17.6,17 / 25,3533441,2019-08-31 10:49:13:520,0.6209,-0.1398,9.9882,0.075,-0.0475,9.8063,0.0031,-0.0155,0.1655,23.03,-4.44,-18.71,15.84,2.76,6.95
35335,52.16,-1.881595,72,8.56,9.0,17.6,17 / 25,3533541,2019-08-31 10:49:13:620,0.3313,0.0026,9.6982,0.0804,-0.0385,9.8062,0.0063,0.0112,0.1857,23.31,-4.49,-18.34,15.73,2.41,7.33
35336,52.16,-1.881595,72,8.56,9.0,17.6,17 / 25,3533640,2019-08-31 10:49:13:719,0.6089,-0.4478,9.749,0.1647,-0.0642,9.8051,0.0106,0.0282,0.1655,22.55,-3.36,-19.5,15.73,2.41,7.33
35337,52.16,-1.881595,72,8.56,9.0,17.6,17 / 25,3533741,2019-08-31 10:49:13:820,0.3268,-0.1164,9.6173,0.0806,-0.0299,9.8063,0.0138,0.0218,0.1719,22.89,-3.42,-19.09,13.99,1.59,7.95
35338,52.16,-1.881595,72,8.56,9.0,17.6,17 / 25,3533841,2019-08-31 10:49:13:920,0.7634,-0.1984,10.1259,0.1465,-0.0561,9.8054,0.0138,0.0218,0.1719,22.63,-3.47,-19.39,13.99,1.59,7.95
35339,52.16,-1.881595,72,8.56,9.0,17.6,17 / 25,3533941,2019-08-31 10:49:14:020,0.7889,-0.2416,9.5933,0.2131,-0.0803,9.804,0.0085,-0.0219,0.1911,22.63,-3.47,-19.39,13.99,1.59,7.95
35340,52.16,-1.881595,72,8.56,9.0,17.6,17 / 25,3534041,2019-08-31 10:49:14:120,0.3651,-0.3095,10.1565,0.0388,-0.03,9.8065,0.034,-0.024,0.1708,22.98,-2.21,-19.16,12.0,0.5,8.71
35341,52.160072,-1.881567,72,8.1,9.0,8.5,17 / 25,3534141,2019-08-31 10:49:14:220,0.6758,-0.1837,9.3004,0.0657,-0.0689,9.8062,0.0085,-0.0325,0.2049,23.77,-1.57,-18.23,11.45,0.2,9.18
35342,52.160072,-1.881567,72,8.1,9.0,8.5,17 / 25,3534240,2019-08-31 10:49:14:319,0.6035,-0.1466,9.942,0.1363,-0.0632,9.8055,0.0276,-0.0016,0.1847,23.79,-0.97,-18.24,11.45,0.2,9.18
35343,52.160072,-1.881567,72,8.1,9.0,8.5,17 / 25,3534341,2019-08-31 10:49:14:420,0.4928,-0.0803,9.9564,0.1049,-0.0124,9.8061,0.0202,0.0261,0.1825,23.81,-0.38,-18.25,7.16,-0.5,9.7
35344,52.160072,-1.881567,72,8.1,9.0,8.5,17 / 25,3534442,2019-08-31 10:49:14:521,0.7629,0.1098,9.6499,0.1956,-0.0125,9.8047,0.0053,0.0282,0.1974,23.81,-0.38,-18.25,7.16,-0.5,9.7
35345,52.160072,-1.881567,72,8.1,9.0,8.5,17 / 25,3534541,2019-08-31 10:49:14:620,0.491,0.2266,10.2937,0.319,-0.0186,9.8014,0.0095,0.09,0.2102,23.81,-0.38,-18.25,7.16,-0.5,9.7
35346,52.160072,-1.881567,72,8.1,9.0,8.5,17 / 25,3534641,2019-08-31 10:49:14:720,0.8911,-0.0191,10.1945,0.1404,-0.0178,9.8056,0.0095,0.09,0.2102,23.21,0.71,-19.0,5.6,-2.34,10.04
35347,52.160072,-1.881567,72,8.1,9.0,8.5,17 / 25,3534742,2019-08-31 10:49:14:821,0.5945,0.0207,10.2737,0.2423,-0.0527,9.8035,0.0159,0.008,0.2273,22.33,1.81,-19.95,4.12,-3.72,10.49
35348,52.160072,-1.881567,72,8.1,9.0,8.5,17 / 25,3534843,2019-08-31 10:49:14:922,0.4422,-0.5167,10.1493,0.0965,-0.0426,9.8061,0.0117,-0.0485,0.2315,22.33,1.81,-19.95,4.12,-3.72,10.49
35349,52.160072,-1.881567,72,8.1,9.0,8.5,17 / 25,3534941,2019-08-31 10:49:15:020,-0.1452,-0.1671,10.7664,0.0606,-0.0487,9.8063,0.034,0.0271,0.2283,22.7,1.24,-19.57,6.45,-4.26,10.78
35350,52.16014,-1.881551,72,7.62,9.0,357.3,17 / 25,3535041,2019-08-31 10:49:15:120,0.0198,-0.4333,9.3916,0.1144,-0.083,9.8056,0.0106,-0.0815,0.2369,22.95,3.08,-19.07,1.85,-4.87,11.34
35351,52.16014,-1.881551,72,7.62,9.0,357.3,17 / 25,3535140,2019-08-31 10:49:15:219,0.2925,-0.4842,9.2577,0.0254,-0.0455,9.8065,0.0255,-0.0538,0.2369,22.95,3.08,-19.07,1.85,-4.87,11.34
35352,52.16014,-1.881551,72,7.62,9.0,357.3,17 / 25,3535241,2019-08-31 10:49:15:320,0.0985,-0.3847,9.614,0.0101,-0.0702,9.8064,0.0276,-0.0954,0.2592,22.86,2.99,-19.2,2.29,-4.95,11.9
35353,52.16014,-1.881551,72,7.62,9.0,357.3,17 / 25,3535340,2019-08-31 10:49:15:419,0.2434,-1.0505,9.2243,0.0627,-0.1541,9.8052,0.0276,-0.0954,0.2592,22.84,4.28,-18.98,2.29,-4.95,11.9
35354,52.16014,-1.881551,72,7.62,9.0,357.3,17 / 25,3535441,2019-08-31 10:49:15:520,0.0606,-0.9901,9.9212,0.1046,-0.2426,9.8031,0.0511,0.0069,0.305,22.54,5.78,-18.93,356.65,-5.5,13.35
35355,52.16014,-1.881551,72,7.62,9.0,357.3,17 / 25,3535541,2019-08-31 10:49:15:620,-0.5127,-0.3692,10.2028,0.024,-0.0614,9.8064,0.0319,-0.0698,0.3104,22.54,5.78,-18.93,356.65,-5.5,13.35
35356,52.16014,-1.881551,72,7.62,9.0,357.3,17 / 25,3535641,2019-08-31 10:49:15:720,0.0698,-0.6538,10.0282,0.0754,-0.1223,9.8056,0.0149,0.024,0.3232,22.47,6.31,-18.85,356.65,-5.5,13.35
35357,52.16014,-1.881551,72,7.62,9.0,357.3,17 / 25,3535741,2019-08-31 10:49:15:820,-0.4352,-0.3124,9.8102,0.1347,-0.1753,9.8042,0.0213,-0.024,0.3178,22.16,6.98,-18.98,355.07,-6.35,14.33
35358,52.16014,-1.881551,72,7.62,9.0,357.3,17 / 25,3535841,2019-08-31 10:49:15:920,-0.2047,0.0339,10.8087,0.0528,-0.0414,9.8064,0.0191,-0.0325,0.305,21.81,8.86,-18.6,355.07,-6.35,14.33
35359,52.16014,-1.881551,72,7.62,9.0,357.3,17 / 25,3535941,2019-08-31 10:49:16:020,-0.5292,-0.1056,9.8374,0.0936,-0.0717,9.8059,0.0223,-0.0027,0.2869,21.54,8.75,-18.96,350.93,-6.93,14.7
35360,52.160206,-1.881553,72,7.31,10.0,341.6,17 / 25,3536041,2019-08-31 10:49:16:120,-0.1028,0.1355,8.935,0.0216,-0.017,9.8066,0.0266,0.0197,0.2923,21.54,8.75,-18.96,350.93,-6.93,14.7
35361,52.160206,-1.881553,72,7.31,10.0,341.6,17 / 25,3536140,2019-08-31 10:49:16:219,0.0224,-0.202,9.0648,0.0365,-0.0289,9.8065,0.0266,0.0197,0.2923,21.45,10.1,-18.38,347.71,-7.07,14.78
35362,52.160206,-1.881553,72,7.31,10.0,341.6,17 / 25,3536241,2019-08-31 10:49:16:320,0.0923,0.4431,11.6437,0.0158,-0.0367,9.8066,0.0809,0.0112,0.2656,20.78,12.69,-17.53,341.57,-7.5,15.16
35363,52.160206,-1.881553,72,7.31,10.0,341.6,17 / 25,3536341,2019-08-31 10:49:16:420,-0.1287,0.2136,9.2434,0.0406,-0.0567,9.8064,0.0511,-0.0165,0.2496,20.78,12.69,-17.53,341.57,-7.5,15.16
35364,52.160206,-1.881553,72,7.31,10.0,341.6,17 / 25,3536440,2019-08-31 10:49:16:519,0.003,-0.2462,9.3552,0.0226,0.0008,9.8066,0.0191,-0.0709,0.272,19.27,13.0,-18.96,341.03,-7.83,15.4
35365,52.160206,-1.881553,72,7.31,10.0,341.6,17 / 25,3536541,2019-08-31 10:49:16:620,-0.1468,0.6428,11.4658,0.0501,-0.0171,9.8065,0.0575,-0.0517,0.2379,19.67,13.46,-18.22,341.18,-8.14,15.4
35366,52.160206,-1.881553,72,7.31,10.0,341.6,17 / 25,3536641,2019-08-31 10:49:16:720,-0.4884,0.5571,9.084,0.0155,0.0129,9.8066,-0.0192,-0.0123,0.207,19.43,14.27,-17.85,338.13,-8.2,15.3
35367,52.160206,-1.881553,72,7.31,10.0,341.6,17 / 25,3536741,2019-08-31 10:49:16:820,0.3099,0.108,10.2366,0.0375,0.0435,9.8065,0.0042,-0.0155,0.2156,19.43,14.27,-17.85,338.13,-8.2,15.3
35368,52.160206,-1.881553,72,7.31,10.0,341.6,17 / 25,3536842,2019-08-31 10:49:16:921,-0.1585,1.8436,10.4423,0.0549,0.02,9.8065,0.0063,-0.0112,0.1666,18.38,15.45,-17.98,334.77,-8.31,14.98
35369,52.160206,-1.881553,72,7.31,10.0,341.6,17 / 25,3536941,2019-08-31 10:49:17:020,0.2458,1.2759,9.6032,0.1049,0.0882,9.8057,0.0063,-0.0112,0.1666,18.62,15.66,-17.55,333.26,-8.64,14.24
35370,52.16028,-1.881598,72,7.73,10.0,329.2,17 / 25,3537044,2019-08-31 10:49:17:123,-0.0363,1.6076,7.7128,0.0489,0.0882,9.8061,0.0042,-0.0016,0.1207,18.62,15.66,-17.55,333.26,-8.64,14.24
35371,52.16028,-1.881598,72,7.73,10.0,329.2,17 / 25,3537142,2019-08-31 10:49:17:221,0.4386,1.3292,9.1222,0.1036,0.1661,9.8047,0.0287,-0.0112,0.0824,18.62,15.66,-17.55,332.8,-8.66,13.65
35372,52.16028,-1.881598,72,7.73,10.0,329.2,17 / 25,3537242,2019-08-31 10:49:17:321,0.1626,1.1114,7.795,-0.0074,0.084,9.8063,0.0223,-0.0389,0.0845,18.47,16.1,-17.31,330.19,-8.76,12.49
35373,52.16028,-1.881598,72,7.73,10.0,329.2,17 / 25,3537341,2019-08-31 10:49:17:420,0.2006,1.5921,9.0413,-0.0091,0.1582,9.8054,0.0713,-0.0346,0.0355,18.2,15.86,-17.81,330.19,-8.76,12.49
35374,52.16028,-1.881598,72,7.73,10.0,329.2,17 / 25,3537441,2019-08-31 10:49:17:520,0.3054,1.763,11.2629,0.021,0.0693,9.8064,0.0202,0.0559,0.0025,18.48,16.68,-16.75,327.48,-8.25,11.71
35375,52.16028,-1.881598,72,7.73,10.0,329.2,17 / 25,3537541,2019-08-31 10:49:17:620,0.8595,1.5184,10.4801,0.0623,0.1578,9.8052,-0.0011,0.0218,0.0036,18.05,16.29,-17.57,327.48,-8.25,11.71
35376,52.16028,-1.881598,72,7.73,10.0,329.2,17 / 25,3537641,2019-08-31 10:49:17:720,0.6101,1.4635,8.2588,0.1287,0.2546,9.8025,-0.032,0.073,-0.0145,18.05,16.29,-17.57,327.48,-8.25,11.71
