,GPS LATITUDE (degrees), GPS LONGITUDE (degrees), GPS ALTITUDE (m), GPS SPEED (Kmh), GPS ACCURACY (m), GPS ORIENTATION (Â°),GPS SATELLITES IN RANGE, TIME SINCE START (ms), DATE (YYYY-MO-DD HH-MI-SS_SSS), ACCELEROMETER X (m/s²) , ACCELEROMETER Y (m/s²), ACCELEROMETER Z (m/s²), GRAVITY X (m/s²), GRAVITY Y (m/s²), GRAVITY Z (m/s²), GYROSCOPE Yaw (rad/s), GYROSCOPE Pitch (rad/s), GYROSCOPE Roll (rad/s), MAGNETIC FIELD X (Î¼T), MAGNETIC FIELD Y (Î¼T), MAGNETIC FIELD Z (Î¼T), ORIENTATION (Yaw) (Â°), ORIENTATION (Pitch) (Â°), ORIENTATION (Roll ) (Â°)
66814,53.79176,-1.769647,186.08,4.9,4,53.12,21 / 24,6681438,2019-11-08 11:48:39:049,1.3794,0.4033,9.5263,-0.0175,-0.0171,9.8066,-0.0176,0.1681,-0.0903,-23.19,-43.06,40.13,358.91,-84.0,-151.08
66815,53.79176,-1.769647,186.08,4.9,4,53.12,23 / 24,6681538,2019-11-08 11:48:39:149,1.0871,-0.1109,9.7799,0.0081,0.0052,9.8066,0.0127,-0.1306,0.0632,-23.37,-42.81,40.19,358.67,-84.03,-151.29
66816,53.79176,-1.769647,186.08,4.9,4,53.12,23 / 24,6681638,2019-11-08 11:48:39:249,-0.6487,-1.178,10.4142,-0.0006,-0.0021,9.8066,0.0014,-0.0179,0.0134,-22.94,-42.62,40.56,358.89,-84.05,-151.7
66817,53.79176,-1.769647,186.08,4.9,4,53.12,23 / 24,6681738,2019-11-08 11:48:39:349,1.398,0.594,9.5083,-0.01,-0.0156,9.8065,0.0105,-0.1153,0.0724,-22.87,-43.56,40.38,358.51,-84.05,-151.44
66818,53.79176,-1.769647,186.08,4.9,4,53.12,23 / 24,6681839,2019-11-08 11:48:39:450,-0.2234,-0.9258,9.8654,0.0118,0.0209,9.8066,-0.0009,-0.126,0.0741,-23.44,-43.81,39.69,358.22,-84.27,-151.7
66819,53.79176,-1.769647,186.08,4.9,4,53.12,23 / 24,6681938,2019-11-08 11:48:39:549,0.3388,-0.3562,10.1329,0.0093,0.0102,9.8065,-0.003,-0.0125,0.0209,-22.44,-43.56,40.06,359.76,-84.3,-151.41
66820,53.79176,-1.769647,186.08,4.9,4,53.12,23 / 24,6682039,2019-11-08 11:48:39:650,-0.5768,-1.2994,10.2744,0.0122,0.0182,9.8066,0.0269,-0.1654,0.1395,-23.06,-43.37,40.06,357.86,-84.36,-152.03
66821,53.79176,-1.769647,186.08,4.9,4,53.12,23 / 24,6682138,2019-11-08 11:48:39:749,0.8997,-0.7915,9.8413,-0.0048,0.0074,9.8066,-0.0514,0.0824,0.0017,-22.31,-44.0,39.5,0.58,-84.27,-150.67
66822,53.79176,-1.769647,186.08,4.9,4,53.12,23 / 24,6682238,2019-11-08 11:48:39:849,1.3723,-0.3992,9.6121,0.0017,0.014,9.8065,0.0156,-0.0469,0.0403,-22.81,-43.31,39.31,359.73,-84.19,-149.71
66823,53.79176,-1.769647,186.08,4.9,4,53.12,23 / 24,6682339,2019-11-08 11:48:39:950,1.0332,-0.9541,10.1825,-0.0098,-0.0055,9.8066,-0.0421,0.1266,-0.0998,-23.31,-43.44,40.06,0.73,-84.28,-149.44
66824,53.79176,-1.769647,186.08,4.9,4,53.12,23 / 24,6682439,2019-11-08 11:48:40:050,1.6009,-0.5725,9.8795,0.0098,0.0071,9.8066,0.0081,0.0695,-0.0157,-22.87,-43.12,40.06,0.62,-84.35,-149.54
66825,53.79176,-1.769647,186.08,4.9,4,53.12,22 / 23,6682539,2019-11-08 11:48:40:150,0.4709,-0.7633,9.9716,0.0022,-0.0052,9.8066,0.0183,0.0753,-0.0439,-23.31,-43.25,39.81,359.57,-84.34,-150.49
66826,53.79176,-1.769647,186.08,4.9,4,53.12,22 / 23,6682639,2019-11-08 11:48:40:250,1.1622,-1.2432,9.7121,-0.0002,-0.0113,9.8066,0.0016,0.101,-0.029,-23.12,-42.75,39.56,358.8,-84.33,-151.18
66827,53.79176,-1.769647,186.08,4.9,4,53.12,22 / 23,6682738,2019-11-08 11:48:40:349,1.0068,-1.8055,9.964,0.0065,-0.0219,9.8066,-0.0421,0.0932,0.0105,-22.62,-42.87,40.38,359.39,-84.23,-150.65
66828,53.79176,-1.769647,186.08,4.9,4,53.12,22 / 23,6682838,2019-11-08 11:48:40:449,1.7277,-1.3172,8.9878,-0.0007,-0.0177,9.8065,-0.0371,0.0745,-0.0602,-23.0,-43.31,39.63,358.73,-84.03,-151.25
66829,53.79176,-1.769647,186.08,4.9,4,53.12,22 / 23,6682938,2019-11-08 11:48:40:549,1.4633,-1.902,10.5042,0.0222,-0.0259,9.8065,-0.0679,0.1333,0.0111,-22.75,-43.0,40.56,358.46,-84.01,-152.09
66830,53.79176,-1.769647,186.08,4.9,4,53.12,22 / 23,6683038,2019-11-08 11:48:40:649,3.2878,-1.8718,9.6943,-0.0147,-0.0068,9.8066,0.0113,0.153,-0.138,-22.69,-43.69,40.06,356.31,-83.83,-153.39
66831,53.79176,-1.769647,186.08,4.9,4,53.12,22 / 23,6683138,2019-11-08 11:48:40:749,1.6682,-2.3403,9.3202,-0.0011,0.0137,9.8066,0.0297,0.0391,-0.0153,-22.19,-43.31,39.88,356.29,-83.95,-154.51
66832,53.79176,-1.769647,186.08,4.9,4,53.12,22 / 23,6683239,2019-11-08 11:48:40:850,0.7889,-1.8521,10.185,-0.0235,-0.0065,9.8066,-0.0371,0.1386,-0.0888,-22.44,-43.56,39.94,354.61,-83.94,-156.0
66833,53.79176,-1.769647,186.08,4.9,4,53.12,22 / 23,6683339,2019-11-08 11:48:40:950,0.7301,-2.2823,9.7355,-0.0207,0.0202,9.8065,0.0173,-0.1067,0.0475,-22.87,-42.87,40.06,356.47,-84.12,-153.28
66834,53.79176,-1.769647,186.08,4.9,4,53.12,22 / 23,6683439,2019-11-08 11:48:41:050,1.1201,-2.5429,10.0279,-0.019,0.0004,9.8065,0.0245,0.0677,0.0151,-22.5,-43.12,39.5,0.47,-84.3,-150.77
66835,53.79176,-1.769647,186.08,4.9,4,53.12,23 / 23,6683539,2019-11-08 11:48:41:150,1.75,-0.6224,9.7052,-0.0161,-0.0199,9.8065,-0.0597,0.1807,-0.0837,-23.0,-43.37,39.44,359.31,-84.2,-150.09
66836,53.79176,-1.769647,186.08,4.9,4,53.12,23 / 23,6683639,2019-11-08 11:48:41:250,0.14,-1.4569,9.7965,0.0086,0.0019,9.8066,-0.0182,-0.0745,0.127,-22.87,-43.31,39.56,1.05,-84.37,-149.15
66837,53.79176,-1.769647,186.08,4.9,4,53.12,23 / 23,6683739,2019-11-08 11:48:41:350,1.6317,0.6684,8.9712,0.0299,0.0278,9.8065,-0.0447,-0.1209,0.1206,-23.06,-42.81,38.88,1.39,-84.36,-148.21
66838,53.79176,-1.769647,186.08,4.9,4,53.12,23 / 23,6683838,2019-11-08 11:48:41:449,0.1188,-1.9512,10.3502,-0.0042,0.0312,9.8065,0.118,-0.1644,0.0727,-22.87,-42.06,39.38,0.55,-84.56,-148.97
66839,53.79176,-1.769647,186.08,4.9,4,53.12,23 / 23,6683938,2019-11-08 11:48:41:549,0.1997,-1.1958,9.6656,-0.0138,0.0202,9.8066,0.008,0.0635,-0.0601,-22.81,-42.87,39.44,0.28,-84.56,-149.21
66840,53.79176,-1.769647,186.08,4.9,4,53.12,23 / 23,6684038,2019-11-08 11:48:41:649,-0.2068,-0.1851,9.742,0.0121,0.0211,9.8066,-0.0239,-0.0335,0.041,-23.0,-42.75,39.06,0.9,-84.78,-148.65
66841,53.79176,-1.769647,186.08,4.9,4,53.12,23 / 23,6684138,2019-11-08 11:48:41:749,-1.3312,-1.0798,10.0131,0.0164,0.0244,9.8066,0.0069,0.2466,-0.156,-23.31,-43.19,38.75,1.14,-84.82,-148.43
66842,53.79176,-1.769647,186.08,4.9,4,53.12,23 / 23,6684238,2019-11-08 11:48:41:849,1.9256,0.0817,10.0392,-0.0043,0.002,9.8066,0.0088,0.1592,-0.1134,-22.94,-42.69,38.25,0.8,-84.77,-148.09
66843,53.79176,-1.769647,186.08,4.9,4,53.12,23 / 23,6684338,2019-11-08 11:48:41:949,-1.2127,-0.9592,9.9759,-0.0274,-0.0228,9.8065,0.0376,0.172,-0.1647,-22.94,-41.75,39.0,1.18,-84.79,-148.39
66844,53.79176,-1.769647,186.08,4.9,4,53.12,23 / 23,6684438,2019-11-08 11:48:42:049,0.8395,0.0095,10.2756,-0.0018,-0.0325,9.8065,-0.0404,0.1818,-0.0983,-22.62,-42.12,39.13,1.09,-84.58,-148.48
66845,53.79187,-1.76943,186.74,3.47,4,48.46,24 / 24,6684538,2019-11-08 11:48:42:149,1.4394,0.7315,9.3426,0.015,-0.0094,9.8066,0.0113,0.0101,0.0015,-23.12,-42.19,39.31,359.88,-84.64,-149.58
66846,53.79187,-1.76943,186.74,3.47,4,48.46,24 / 24,6684638,2019-11-08 11:48:42:249,1.8361,-0.1589,9.5206,-0.0101,-0.02,9.8066,-0.0677,0.1753,-0.0743,-23.19,-43.12,38.44,358.98,-84.55,-149.73
66847,53.79187,-1.76943,186.74,3.47,4,48.46,24 / 24,6684739,2019-11-08 11:48:42:350,1.0183,0.7087,10.028,0.0147,0.009,9.8066,0.0116,-0.1285,0.0911,-23.19,-42.75,38.94,0.61,-84.71,-148.92
66848,53.79187,-1.76943,186.74,3.47,4,48.46,24 / 24,6684839,2019-11-08 11:48:42:450,-0.1461,-1.1467,9.7254,-0.0014,0.001,9.8066,0.0029,-0.0226,0.0504,-23.5,-42.56,38.81,359.7,-84.72,-149.74
66849,53.79187,-1.76943,186.74,3.47,4,48.46,24 / 24,6684939,2019-11-08 11:48:42:550,0.4839,0.6666,9.4711,0.0146,0.0088,9.8065,0.0578,-0.086,0.0904,-23.62,-43.56,38.69,0.09,-84.67,-148.31
66850,53.79187,-1.76943,186.74,3.47,4,48.46,24 / 24,6685039,2019-11-08 11:48:42:650,-0.575,-0.4306,10.28,0.0003,0.0012,9.8065,0.0204,-0.0791,0.0565,-24.19,-43.75,38.25,358.87,-84.6,-148.75
66851,53.79187,-1.76943,186.74,3.47,4,48.46,24 / 24,6685139,2019-11-08 11:48:42:750,-0.218,-0.4489,10.2783,0.0138,0.0015,9.8066,-0.0162,-0.0253,-0.0124,-23.87,-43.62,38.5,359.59,-84.46,-148.76
66852,53.79187,-1.76943,186.74,3.47,4,48.46,24 / 24,6685239,2019-11-08 11:48:42:850,-0.5561,-0.4292,10.0037,0.0175,0.0243,9.8065,0.0279,-0.0853,0.0444,-23.19,-43.25,38.44,357.96,-84.58,-150.66
66853,53.79187,-1.76943,186.74,3.47,4,48.46,24 / 24,6685339,2019-11-08 11:48:42:950,0.3488,-1.1361,9.943,0.0129,-0.0015,9.8066,-0.0206,0.1108,-0.093,-23.06,-43.19,38.94,357.14,-84.49,-152.05
66854,53.79187,-1.76943,186.74,3.47,4,48.46,24 / 24,6685439,2019-11-08 11:48:43:050,1.5577,1.0199,9.4161,0.007,0.0115,9.8066,0.0033,0.0093,0.009,-23.37,-43.5,38.13,354.78,-84.54,-153.53
66855,53.79187,-1.76943,186.74,3.47,4,48.46,22 / 24,6685539,2019-11-08 11:48:43:150,-0.1215,-0.5819,10.3405,-0.005,-0.0017,9.8066,0.0195,-0.0705,0.0211,-24.25,-44.12,37.69,354.05,-84.48,-153.09
66856,53.79187,-1.76943,186.74,3.47,4,48.46,22 / 24,6685639,2019-11-08 11:48:43:250,1.6736,0.6437,8.9014,-0.0276,-0.0027,9.8066,-0.0238,-0.2044,0.2013,-23.75,-43.31,37.94,356.03,-84.56,-151.32
66857,53.79187,-1.76943,186.74,3.47,4,48.46,22 / 24,6685739,2019-11-08 11:48:43:350,-1.8271,-0.5892,10.5955,-0.0293,-0.0143,9.8066,0.0194,-0.1583,0.1111,-24.62,-43.62,38.13,357.05,-84.51,-149.33
66858,53.79187,-1.76943,186.74,3.47,4,48.46,22 / 24,6685838,2019-11-08 11:48:43:449,-0.9706,0.1103,10.2659,-0.0053,-0.007,9.8066,-0.056,0.0849,-0.0752,-23.81,-43.37,38.38,359.94,-84.45,-147.78
66859,53.79187,-1.76943,186.74,3.47,4,48.46,22 / 24,6685938,2019-11-08 11:48:43:549,0.682,0.1674,10.1193,0.0218,0.0126,9.8066,0.0031,-0.0557,-0.0147,-23.87,-43.62,37.69,0.97,-84.58,-146.85
66860,53.79187,-1.76943,186.74,3.47,4,48.46,22 / 24,6686038,2019-11-08 11:48:43:649,-0.0728,-0.316,9.3813,-0.006,0.0274,9.8065,-0.0178,0.1005,-0.0517,-24.19,-43.87,37.88,359.61,-84.76,-148.08
66861,53.79187,-1.76943,186.74,3.47,4,48.46,22 / 24,6686139,2019-11-08 11:48:43:750,-0.0055,0.2928,9.8034,-0.0049,0.0105,9.8066,-0.065,0.0182,-0.0434,-24.0,-43.19,38.0,1.08,-84.99,-146.74
66862,53.79187,-1.76943,186.74,3.47,4,48.46,22 / 24,6686239,2019-11-08 11:48:43:850,-0.5799,-0.1489,9.8732,0.0,0.0233,9.8065,-0.0216,0.0127,-0.0227,-24.0,-43.5,38.56,2.88,-85.11,-145.75
66863,53.79187,-1.76943,186.74,3.47,4,48.46,22 / 24,6686338,2019-11-08 11:48:43:949,-1.0016,0.2039,9.9521,-0.0094,-0.0345,9.8065,0.0457,0.0006,0.0386,-24.0,-42.87,39.0,5.6,-84.91,-143.28
66864,53.79187,-1.76943,186.74,3.47,4,48.46,22 / 24,6686438,2019-11-08 11:48:44:049,-0.5057,-0.3977,9.9355,-0.0026,0.0055,9.8066,-0.0032,-0.1097,0.0639,-24.69,-43.44,38.69,5.95,-84.6,-141.94
66865,53.79187,-1.76943,186.74,3.47,4,48.46,23 / 25,6686538,2019-11-08 11:48:44:149,-2.3578,1.0235,10.8402,-0.0142,0.0203,9.8065,-0.0463,-0.0147,0.0062,-24.56,-42.94,38.0,7.44,-84.66,-139.9
66866,53.79187,-1.76943,186.74,3.47,4,48.46,23 / 25,6686639,2019-11-08 11:48:44:250,-0.2367,1.2941,9.439,0.004,0.0157,9.8066,0.0061,-0.1737,0.0295,-24.44,-43.12,38.38,10.28,-84.93,-138.35
66867,53.79187,-1.76943,186.74,3.47,4,48.46,23 / 25,6686739,2019-11-08 11:48:44:350,-1.4371,1.9314,10.0327,0.0066,-0.023,9.8066,0.0331,-0.0975,0.0042,-24.62,-44.06,38.81,10.16,-85.15,-138.03
66868,53.79187,-1.76943,186.74,3.47,4,48.46,23 / 25,6686838,2019-11-08 11:48:44:449,-1.011,2.6851,9.5562,-0.0135,0.0048,9.8066,0.0735,-0.1185,0.0264,-24.19,-45.56,39.25,11.93,-85.1,-137.52
66869,53.79187,-1.76943,186.74,3.47,4,48.46,23 / 25,6686938,2019-11-08 11:48:44:549,-0.9168,1.6901,10.2546,-0.0076,0.0034,9.8066,-0.0769,-0.1452,0.0583,-23.5,-45.75,39.13,13.01,-85.08,-137.63
66870,53.79187,-1.76943,186.74,3.47,4,48.46,23 / 25,6687038,2019-11-08 11:48:44:649,-0.6925,2.0241,10.1478,-0.018,-0.0091,9.8066,-0.0615,-0.015,0.0057,-24.12,-45.75,39.38,11.22,-85.1,-138.17
66871,53.79187,-1.76943,186.74,3.47,4,48.46,23 / 25,6687139,2019-11-08 11:48:44:750,-0.4977,1.9559,9.6227,-0.0044,-0.0008,9.8066,-0.0044,-0.0102,0.0122,-24.56,-45.56,39.5,11.04,-85.0,-137.93
66872,53.79187,-1.76943,186.74,3.47,4,48.46,23 / 25,6687239,2019-11-08 11:48:44:850,-0.6889,1.4453,10.0411,0.0023,-0.0081,9.8066,-0.0237,0.0219,0.0123,-24.06,-45.56,39.94,12.27,-84.9,-137.89
66873,53.79187,-1.76943,186.74,3.47,4,48.46,23 / 25,6687338,2019-11-08 11:48:44:949,0.1814,0.5583,9.8058,-0.0039,-0.0178,9.8065,-0.0134,0.0304,-0.0404,-24.5,-45.62,39.81,12.72,-84.72,-137.51
66874,53.79187,-1.76943,186.74,3.47,4,48.46,23 / 25,6687438,2019-11-08 11:48:45:049,-1.2283,0.9135,9.8256,0.0045,0.0031,9.8066,0.0272,-0.0336,-0.0208,-24.37,-45.19,39.25,12.31,-84.64,-137.26
66875,53.79187,-1.76943,186.74,3.47,4,48.46,22 / 24,6687540,2019-11-08 11:48:45:151,-0.7896,0.8002,10.3062,-0.0034,0.0073,9.8066,-0.0274,0.0291,-0.0362,-24.69,-42.06,38.31,10.15,-84.65,-137.42
66876,53.79187,-1.76943,186.74,3.47,4,48.46,22 / 24,6687638,2019-11-08 11:48:45:249,-0.65,1.2664,9.8074,0.0031,0.0068,9.8066,-0.004,-0.0083,-0.0332,-24.94,-41.87,39.31,9.93,-84.69,-138.28
66877,53.79187,-1.76943,186.74,3.47,4,48.46,22 / 24,6687738,2019-11-08 11:48:45:349,0.2711,0.5196,9.7097,0.0013,-0.0037,9.8066,0.0033,0.0156,0.0089,-25.5,-41.56,39.0,9.04,-84.61,-139.1
66878,53.79187,-1.76943,186.74,3.47,4,48.46,22 / 24,6687838,2019-11-08 11:48:45:449,-0.3227,-0.0734,9.8695,-0.0029,-0.0063,9.8066,0.0098,-0.022,0.0293,-25.37,-41.19,40.25,9.59,-84.45,-139.25
66879,53.79187,-1.76943,186.74,3.47,4,48.46,22 / 24,6687938,2019-11-08 11:48:45:549,-0.452,-0.5322,9.8651,0.0015,-0.0079,9.8066,-0.0012,0.0077,-0.0317,-25.0,-42.0,40.38,9.44,-84.31,-139.43
66880,53.79187,-1.76943,186.74,3.47,4,48.46,22 / 24,6688039,2019-11-08 11:48:45:650,-0.5489,-0.3189,9.8997,0.0089,0.0027,9.8066,-0.0058,-0.1066,0.0045,-25.0,-41.25,41.13,10.01,-84.23,-139.52
66881,53.79187,-1.76943,186.74,3.47,4,48.46,22 / 24,6688139,2019-11-08 11:48:45:750,-0.422,-0.5463,10.2424,0.0073,-0.0059,9.8066,-0.0051,-0.0696,-0.027,-25.19,-41.37,39.63,8.26,-84.29,-140.49
66882,53.79187,-1.76943,186.74,3.47,4,48.46,22 / 24,6688238,2019-11-08 11:48:45:849,0.3908,0.5392,9.5682,0.0069,0.0072,9.8066,0.0131,-0.1119,0.018,-24.69,-41.19,39.63,6.4,-84.34,-142.18
66883,53.79187,-1.76943,186.74,3.47,4,48.46,22 / 24,6688338,2019-11-08 11:48:45:949,0.0555,-0.0312,9.6833,0.0025,-0.0026,9.8066,-0.0166,-0.1122,0.0223,-24.31,-41.44,39.44,5.29,-84.35,-143.59
66884,53.79187,-1.76943,186.74,3.47,4,48.46,22 / 24,6688438,2019-11-08 11:48:46:049,0.5612,0.2035,9.893,-0.0091,-0.0069,9.8066,-0.0129,-0.0869,0.0561,-24.12,-40.94,40.44,5.44,-84.29,-144.1
66885,53.79187,-1.76943,186.74,3.47,4,48.46,22 / 23,6688540,2019-11-08 11:48:46:151,-0.0888,-0.2063,9.9273,-0.0009,-0.0056,9.8066,-0.0048,-0.1205,0.0515,-24.37,-41.69,39.75,5.64,-84.22,-143.94
66886,53.79187,-1.76943,186.74,3.47,4,48.46,22 / 23,6688639,2019-11-08 11:48:46:250,0.3174,0.2009,9.693,-0.0031,-0.0095,9.8066,-0.0136,-0.0881,0.0134,-24.37,-40.5,40.0,6.08,-84.14,-143.52
66887,53.79187,-1.76943,186.74,3.47,4,48.46,22 / 23,6688738,2019-11-08 11:48:46:349,-0.1145,-0.132,9.9898,0.0036,-0.0025,9.8066,0.0247,-0.1035,0.0152,-24.37,-41.06,39.88,5.81,-84.09,-143.79
66888,53.79187,-1.76943,186.74,3.47,4,48.46,22 / 23,6688838,2019-11-08 11:48:46:449,0.083,0.1546,9.7996,0.0024,-0.0054,9.8066,-0.0005,-0.0634,0.0075,-24.37,-40.81,39.94,5.12,-84.08,-144.41
66889,53.79187,-1.76943,186.74,3.47,4,48.46,22 / 23,6688938,2019-11-08 11:48:46:549,-0.0383,0.1446,10.0633,0.0047,-0.0009,9.8066,0.0077,-0.0904,0.0114,-24.12,-41.12,40.06,4.73,-84.11,-144.76
66890,53.79187,-1.76943,186.74,3.47,4,48.46,22 / 23,6689038,2019-11-08 11:48:46:649,-0.2425,0.5847,9.7619,0.0034,-0.0011,9.8066,0.0128,-0.0435,-0.0278,-24.5,-40.81,41.13,4.84,-84.14,-145.27
66891,53.79187,-1.76943,186.74,3.47,4,48.46,22 / 23,6689139,2019-11-08 11:48:46:750,0.0584,0.5276,9.888,0.0087,0.004,9.8066,-0.0151,-0.0581,-0.0155,-24.44,-41.31,41.25,4.66,-84.15,-145.43
66892,53.79187,-1.76943,186.74,3.47,4,48.46,22 / 23,6689240,2019-11-08 11:48:46:851,-0.1876,0.3911,9.9192,0.0011,0.0008,9.8066,-0.0047,-0.0128,-0.0258,-24.56,-40.75,41.31,2.74,-84.18,-146.14
66893,53.79187,-1.76943,186.74,3.47,4,48.46,22 / 23,6689339,2019-11-08 11:48:46:950,0.0302,0.6027,9.8413,0.0065,0.0058,9.8066,-0.0142,-0.0211,-0.0204,-24.12,-40.81,41.38,3.2,-84.22,-146.76
66894,53.79187,-1.76943,186.74,3.47,4,48.46,22 / 23,6689438,2019-11-08 11:48:47:049,-0.1298,0.5023,9.888,0.0088,0.0051,9.8065,-0.006,-0.0506,-0.0177,-24.31,-40.56,40.56,2.05,-84.3,-147.79
66895,53.79187,-1.76943,186.74,3.47,4,48.46,23 / 23,6689538,2019-11-08 11:48:47:149,0.2643,0.9635,9.8783,0.0126,0.008,9.8066,-0.0003,0.016,-0.0407,-24.31,-40.37,40.94,1.25,-84.34,-148.52
66896,53.79187,-1.76943,186.74,3.47,4,48.46,23 / 23,6689639,2019-11-08 11:48:47:250,-0.3423,0.4808,9.859,0.0009,0.0017,9.8066,0.0061,-0.0434,0.0085,-24.5,-40.0,41.13,0.5,-84.36,-149.2
66897,53.79187,-1.76943,186.74,3.47,4,48.46,23 / 23,6689739,2019-11-08 11:48:47:350,-0.1389,0.6725,9.9761,-0.0021,-0.0017,9.8066,-0.0005,-0.0001,-0.028,-24.06,-40.69,41.25,0.05,-84.37,-149.61
66898,53.79187,-1.76943,186.74,3.47,4,48.46,23 / 23,6689839,2019-11-08 11:48:47:450,0.0708,0.8793,9.8323,0.0018,0.0019,9.8066,-0.0047,-0.0217,0.0146,-24.44,-40.5,41.31,359.86,-84.38,-149.79
66899,53.79187,-1.76943,186.74,3.47,4,48.46,23 / 23,6689939,2019-11-08 11:48:47:550,-0.4655,0.7311,9.8956,0.0027,0.0015,9.8066,-0.0006,-0.0161,0.0131,-24.06,-40.81,41.38,359.65,-84.39,-149.97
66900,53.79187,-1.76943,186.74,3.47,4,48.46,23 / 23,6690038,2019-11-08 11:48:47:649,0.3803,0.344,9.898,0.0055,0.0016,9.8066,-0.0022,-0.0155,0.0202,-24.12,-40.37,41.25,359.76,-84.37,-149.88
66901,53.79187,-1.76943,186.74,3.47,4,48.46,23 / 23,6690138,2019-11-08 11:48:47:749,0.2755,-0.1717,9.8777,0.0002,-0.0011,9.8066,0.0163,-0.0153,0.0204,-23.75,-40.19,41.0,359.65,-84.35,-149.98
66902,53.79187,-1.76943,186.74,3.47,4,48.46,23 / 23,6690238,2019-11-08 11:48:47:849,0.5213,-0.4637,9.8174,0.0023,-0.0057,9.8066,0.0206,0.0344,-0.0242,-24.44,-40.31,41.19,359.6,-84.26,-150.02
66903,53.79187,-1.76943,186.74,3.47,4,48.46,23 / 23,6690339,2019-11-08 11:48:47:950,0.3254,-0.0771,9.6989,0.0076,0.0004,9.8066,-0.0155,0.0026,0.001,-24.31,-40.75,41.44,359.16,-84.2,-150.42
66904,53.79187,-1.76943,186.74,3.47,4,48.46,23 / 23,6690438,2019-11-08 11:48:48:049,-0.1377,-0.1384,9.9836,-0.0004,-0.0023,9.8066,-0.0261,0.0225,-0.031,-24.25,-41.12,41.25,358.59,-84.25,-150.94
66905,53.79187,-1.76943,186.74,3.47,4,48.46,24 / 24,6690538,2019-11-08 11:48:48:149,0.3614,-0.0979,9.9432,0.0044,0.0025,9.8066,-0.0073,0.0137,0.0047,-24.06,-40.44,41.06,358.32,-84.27,-151.19
66906,53.79187,-1.76943,186.74,3.47,4,48.46,24 / 24,6690638,2019-11-08 11:48:48:249,0.1638,-0.1139,9.7985,-0.0008,0.0029,9.8066,-0.0059,0.024,0.0094,-24.37,-40.94,41.44,358.31,-84.28,-151.19
66907,53.79187,-1.76943,186.74,3.47,4,48.46,24 / 24,6690739,2019-11-08 11:48:48:350,0.061,-0.1318,9.7852,-0.0056,-0.0008,9.8066,0.007,0.0263,-0.0122,-24.19,-40.06,41.5,359.39,-84.27,-150.81
66908,53.79187,-1.76943,186.74,3.47,4,48.46,24 / 24,6690839,2019-11-08 11:48:48:450,0.1565,-0.2941,9.9019,-0.0014,0.0004,9.8066,-0.0014,0.0045,-0.0142,-23.94,-40.06,41.44,358.69,-84.27,-150.85
66909,53.79187,-1.76943,186.74,3.47,4,48.46,24 / 24,6690938,2019-11-08 11:48:48:549,0.2138,0.0323,9.8106,-0.0019,-0.0013,9.8066,-0.0154,0.0109,-0.0182,-24.62,-40.0,41.44,357.47,-84.29,-150.93
66910,53.79187,-1.76943,186.74,3.47,4,48.46,24 / 24,6691038,2019-11-08 11:48:48:649,0.2623,-0.0543,9.7606,-0.0022,0.0006,9.8066,0.0049,0.0034,-0.006,-23.81,-40.12,41.19,358.6,-84.31,-150.93
66911,53.79187,-1.76943,186.74,3.47,4,48.46,24 / 24,6691138,2019-11-08 11:48:48:749,0.2965,-0.1406,9.8611,0.0004,-0.0013,9.8066,-0.0096,0.0358,-0.0022,-24.75,-40.5,41.31,357.59,-84.31,-150.83
66912,53.79187,-1.76943,186.74,3.47,4,48.46,24 / 24,6691238,2019-11-08 11:48:48:849,0.2011,-0.0119,9.7486,0.0002,0.0026,9.8066,0.0069,-0.0028,0.0053,-24.19,-40.37,41.38,358.93,-84.32,-150.63
66913,53.79187,-1.76943,186.74,3.47,4,48.46,24 / 24,6691338,2019-11-08 11:48:48:949,0.1903,-0.2996,9.8737,-0.0012,0.0018,9.8066,-0.0014,-0.003,-0.0122,-24.25,-40.56,41.38,358.98,-84.35,-150.58
66914,53.79187,-1.76943,186.74,3.47,4,48.46,24 / 24,6691438,2019-11-08 11:48:49:049,0.199,-0.0266,9.9241,-0.0042,0.0019,9.8066,-0.0065,0.0158,-0.0188,-24.19,-40.62,41.63,359.74,-84.37,-150.49
66915,53.79187,-1.76943,186.74,3.47,4,48.46,21 / 22,6691538,2019-11-08 11:48:49:149,0.2445,-0.2477,9.864,-0.0026,0.0017,9.8066,-0.0048,0.0002,-0.0086,-24.37,-40.06,42.06,359.77,-84.39,-150.47
66916,53.79187,-1.76943,186.74,3.47,4,48.46,21 / 22,6691639,2019-11-08 11:48:49:250,0.2033,-0.0814,9.844,-0.0016,0.0009,9.8066,0.006,0.0135,-0.0095,-24.87,-40.44,41.5,358.8,-84.42,-150.34
66917,53.79187,-1.76943,186.74,3.47,4,48.46,21 / 22,6691739,2019-11-08 11:48:49:350,0.1894,-0.024,9.8616,-0.0001,0.0023,9.8066,0.0094,0.0186,0.0032,-24.75,-40.56,41.19,358.31,-84.45,-150.17
66918,53.79187,-1.76943,186.74,3.47,4,48.46,21 / 22,6691838,2019-11-08 11:48:49:449,0.2915,-0.2651,9.9634,-0.0016,0.0005,9.8066,0.0131,0.0072,-0.0154,-24.0,-39.81,41.19,359.42,-84.45,-150.19
66919,53.79187,-1.76943,186.74,3.47,4,48.46,21 / 22,6691939,2019-11-08 11:48:49:550,0.2967,-0.0904,9.7963,0.0009,0.001,9.8066,-0.0075,-0.001,-0.0088,-24.62,-40.44,41.81,359.04,-84.47,-150.12
66920,53.79187,-1.76943,186.74,3.47,4,48.46,21 / 22,6692039,2019-11-08 11:48:49:650,0.0882,-0.0135,9.8162,-0.0003,0.0012,9.8066,-0.0067,-0.0161,-0.009,-24.62,-40.62,41.38,358.55,-84.49,-149.95
66921,53.79187,-1.76943,186.74,3.47,4,48.46,21 / 22,6692138,2019-11-08 11:48:49:749,0.168,-0.1467,9.7613,0.0004,0.0003,9.8066,-0.0203,-0.0076,-0.0082,-24.44,-40.25,41.19,359.8,-84.5,-149.84
66922,53.79187,-1.76943,186.74,3.47,4,48.46,21 / 22,6692239,2019-11-08 11:48:49:850,0.2357,-0.2683,9.9197,-0.0011,-0.0002,9.8066,-0.016,0.0146,-0.0131,-24.62,-40.19,41.38,358.77,-84.53,-149.75
66923,53.79187,-1.76943,186.74,3.47,4,48.46,21 / 22,6692338,2019-11-08 11:48:49:949,0.3101,-0.1218,9.8248,0.0008,0.0008,9.8066,-0.0224,0.0226,-0.0031,-24.0,-40.69,41.13,359.94,-84.55,-149.71
66924,53.79187,-1.76943,186.74,3.47,4,48.46,21 / 22,6692438,2019-11-08 11:48:50:049,0.1745,-0.0058,9.8594,-0.0007,-0.0004,9.8066,-0.0171,0.0261,-0.007,-24.0,-39.75,41.25,359.99,-84.56,-149.67
66925,53.79187,-1.76943,186.74,3.47,4,48.46,20 / 22,6692538,2019-11-08 11:48:50:149,0.1525,-0.1807,9.7267,0.0019,0.0023,9.8066,-0.0078,0.0247,0.0158,-24.06,-40.75,40.94,0.16,-84.58,-149.51
66926,53.79187,-1.76943,186.74,3.47,4,48.46,20 / 22,6692638,2019-11-08 11:48:50:249,0.3433,-0.3482,10.0191,-0.002,0.0011,9.8066,-0.0159,0.0435,0.0018,-24.5,-40.31,41.5,0.82,-84.59,-149.5
66927,53.79187,-1.76943,186.74,3.47,4,48.46,20 / 22,6692738,2019-11-08 11:48:50:349,0.3766,-0.1829,9.91,-0.0025,0.0018,9.8066,0.0126,0.0242,0.0006,-23.94,-40.5,41.06,0.18,-84.63,-149.49
66928,53.79187,-1.76943,186.74,3.47,4,48.46,20 / 22,6692838,2019-11-08 11:48:50:449,0.0627,-0.0072,9.767,-0.0025,0.0004,9.8066,0.0103,0.0208,-0.0001,-25.0,-40.19,41.56,359.86,-84.63,-149.37
66929,53.79187,-1.76943,186.74,3.47,4,48.46,20 / 22,6692938,2019-11-08 11:48:50:549,0.2745,-0.3801,9.8904,-0.0054,0.0005,9.8066,0.0083,0.0123,-0.0167,-24.06,-41.0,40.38,0.1,-84.63,-148.95
66930,53.79187,-1.76943,186.74,3.47,4,48.46,20 / 22,6693038,2019-11-08 11:48:50:649,0.2802,-0.301,9.8852,-0.0023,0.0007,9.8066,-0.001,-0.0049,-0.0113,-24.12,-40.0,41.19,0.86,-84.66,-148.87
66931,53.79187,-1.76943,186.74,3.47,4,48.46,20 / 22,6693138,2019-11-08 11:48:50:749,0.3697,-0.3243,9.9309,-0.0004,0.0021,9.8065,0.0043,-0.0084,-0.0124,-24.37,-39.62,40.94,1.1,-84.67,-148.65
66932,53.79187,-1.76943,186.74,3.47,4,48.46,20 / 22,6693238,2019-11-08 11:48:50:849,0.2018,0.023,9.7602,-0.0005,0.0017,9.8066,0.0019,-0.0212,-0.0071,-24.25,-40.62,41.38,1.14,-84.68,-148.61
66933,53.79187,-1.76943,186.74,3.47,4,48.46,20 / 22,6693338,2019-11-08 11:48:50:949,0.2335,-0.0866,9.8618,-0.0022,0.0,9.8066,0.0042,-0.0116,-0.0205,-24.62,-40.31,41.19,0.19,-84.69,-148.45
66934,53.79187,-1.76943,186.74,3.47,4,48.46,20 / 22,6693438,2019-11-08 11:48:51:049,0.2921,-0.2457,9.8765,-0.0014,0.0008,9.8066,-0.0027,-0.0131,-0.0143,-24.44,-40.62,41.06,1.23,-84.69,-148.53
66935,53.79194,-1.769268,186.89,0.0,3,60.54,20 / 22,6693547,2019-11-08 11:48:51:158,0.2516,-0.2291,9.8552,-0.0009,0.0019,9.8066,0.0106,0.0201,-0.0068,-24.31,-40.81,41.63,1.97,-84.69,-148.45
66936,53.79194,-1.769268,186.89,0.0,3,60.54,20 / 22,6693638,2019-11-08 11:48:51:249,0.2239,-0.3199,9.8658,0.0003,0.0021,9.8066,-0.0124,0.008,-0.0056,-24.56,-40.31,41.81,0.97,-84.72,-148.34
66937,53.79194,-1.769268,186.89,0.0,3,60.54,20 / 22,6693739,2019-11-08 11:48:51:350,0.3604,-0.3207,9.9114,0.0007,0.003,9.8066,-0.0089,0.025,0.0099,-24.44,-39.69,40.81,1.62,-84.73,-148.17
66938,53.79194,-1.769268,186.89,0.0,3,60.54,20 / 22,6693839,2019-11-08 11:48:51:450,0.2685,-0.2438,9.8028,-0.0015,0.0009,9.8066,-0.0001,0.0322,0.0021,-24.56,-40.0,40.88,0.64,-84.75,-148.04
66939,53.79194,-1.769268,186.89,0.0,3,60.54,20 / 22,6693939,2019-11-08 11:48:51:550,0.2051,-0.0719,9.8431,-0.0013,-0.0005,9.8066,-0.0064,0.0365,-0.0031,-23.75,-40.31,41.38,1.94,-84.76,-147.88
66940,53.79194,-1.769268,186.89,0.0,3,60.54,20 / 22,6694039,2019-11-08 11:48:51:650,0.2443,-0.2145,9.878,-0.0014,-0.0005,9.8066,0.0061,0.0262,-0.0096,-24.37,-40.31,41.19,2.02,-84.78,-147.8
66941,53.79194,-1.769268,186.89,0.0,3,60.54,20 / 22,6694139,2019-11-08 11:48:51:750,0.3519,-0.3259,9.886,0.0006,-0.0004,9.8066,0.0016,0.0137,-0.0014,-24.44,-40.75,41.06,2.08,-84.77,-147.75
66942,53.79194,-1.769268,186.89,0.0,3,60.54,20 / 22,6694238,2019-11-08 11:48:51:849,0.2415,-0.1087,9.8091,-0.0017,-0.0005,9.8066,-0.0053,-0.0011,-0.006,-24.12,-39.81,40.88,2.14,-84.78,-147.69
66943,53.79194,-1.769268,186.89,0.0,3,60.54,20 / 22,6694338,2019-11-08 11:48:51:949,0.1938,-0.0285,9.8329,-0.0009,0.0013,9.8066,-0.0056,-0.0058,-0.0129,-23.87,-40.19,40.88,2.28,-84.78,-147.56
66944,53.79194,-1.769268,186.89,0.0,3,60.54,20 / 22,6694438,2019-11-08 11:48:52:049,0.4109,-0.2746,9.906,0.0024,0.0009,9.8066,-0.0154,-0.0095,0.0018,-24.25,-39.87,41.06,2.38,-84.8,-147.47
66945,53.79194,-1.769268,186.89,0.0,3,60.54,20 / 21,6694538,2019-11-08 11:48:52:149,0.1242,-0.1419,9.7852,0.0004,0.0016,9.8066,-0.011,-0.0046,-0.0014,-24.75,-40.31,41.06,1.12,-84.82,-147.6
66946,53.79194,-1.769268,186.89,0.0,3,60.54,20 / 21,6694638,2019-11-08 11:48:52:249,0.3322,-0.3369,9.9167,0.0012,0.0021,9.8066,-0.0033,0.0236,0.002,-24.25,-40.56,41.56,2.95,-84.84,-147.54
66947,53.79194,-1.769268,186.89,0.0,3,60.54,20 / 21,6694738,2019-11-08 11:48:52:349,0.2539,-0.2873,9.8599,0.0009,0.0019,9.8066,0.002,0.0151,0.0053,-24.31,-40.44,41.38,2.21,-84.86,-147.62
66948,53.79194,-1.769268,186.89,0.0,3,60.54,20 / 21,6694838,2019-11-08 11:48:52:449,0.2164,-0.1574,9.7974,-0.0006,-0.0004,9.8066,-0.0001,0.0123,-0.0027,-24.19,-40.12,41.44,2.19,-84.86,-147.64
66949,53.79194,-1.769268,186.89,0.0,3,60.54,20 / 21,6694938,2019-11-08 11:48:52:549,0.341,-0.3565,9.8949,-0.0003,0.0034,9.8066,0.0123,-0.0047,-0.0082,-24.31,-40.25,41.38,2.18,-84.85,-147.65
66950,53.79194,-1.769268,186.89,0.0,3,60.54,20 / 21,6695038,2019-11-08 11:48:52:649,0.3804,-0.3608,9.9062,0.001,-0.0015,9.8066,-0.0114,-0.0174,-0.0221,-24.81,-40.75,42.31,1.7,-84.87,-147.67
66951,53.79194,-1.769268,186.89,0.0,3,60.54,20 / 21,6695139,2019-11-08 11:48:52:750,0.2617,-0.1757,9.8669,0.0037,0.0003,9.8066,0.0001,-0.011,-0.0084,-25.12,-40.44,43.19,1.74,-84.87,-148.21
66952,53.79194,-1.769268,186.89,0.0,3,60.54,20 / 21,6695239,2019-11-08 11:48:52:850,0.4123,-0.401,9.7855,0.0,0.002,9.8066,-0.0119,-0.0086,0.0009,-24.56,-40.81,43.44,1.46,-84.85,-148.48
66953,53.79194,-1.769268,186.89,0.0,3,60.54,20 / 21,6695338,2019-11-08 11:48:52:949,0.5091,-0.4887,9.7939,-0.0028,-0.003,9.8066,-0.0078,-0.0171,-0.0353,-25.69,-41.25,43.81,0.95,-84.87,-148.54
66954,53.79194,-1.769268,186.89,0.0,3,60.54,20 / 21,6695438,2019-11-08 11:48:53:049,0.2996,-0.4152,9.9368,-0.0004,-0.0036,9.8066,-0.0151,-0.0068,-0.0138,-24.56,-41.0,43.94,1.9,-84.86,-148.64
66955,53.79194,-1.769268,186.89,0.0,3,60.54,22 / 23,6695539,2019-11-08 11:48:53:150,0.623,-0.4055,9.9495,0.0,-0.0012,9.8066,-0.0021,0.0064,-0.035,-25.12,-40.94,44.38,1.83,-84.84,-148.7
66956,53.79194,-1.769268,186.89,0.0,3,60.54,22 / 23,6695639,2019-11-08 11:48:53:250,0.5252,-0.4736,10.0352,-0.002,-0.0059,9.8066,0.0001,0.0142,-0.0231,-24.44,-40.75,43.75,2.18,-84.85,-149.38
66957,53.79194,-1.769268,186.89,0.0,3,60.54,22 / 23,6695739,2019-11-08 11:48:53:350,0.4095,-0.3675,9.7963,0.0053,-0.0073,9.8066,-0.0144,0.038,0.0075,-25.06,-40.25,43.81,0.75,-84.77,-149.7
66958,53.79194,-1.769268,186.89,0.0,3,60.54,22 / 23,6695838,2019-11-08 11:48:53:449,0.8001,-0.466,9.8461,0.0036,-0.0001,9.8066,-0.0025,0.0067,0.0213,-24.81,-41.06,44.94,1.55,-84.73,-149.51
66959,53.79194,-1.769268,186.89,0.0,3,60.54,22 / 23,6695938,2019-11-08 11:48:53:549,0.5929,-0.3044,9.8805,-0.0021,-0.0021,9.8066,0.008,0.0321,-0.0195,-25.0,-40.31,44.56,1.22,-84.72,-149.82
66960,53.79194,-1.769268,186.89,0.0,3,60.54,22 / 23,6696038,2019-11-08 11:48:53:649,0.8316,-0.4819,9.8249,0.0026,0.0015,9.8066,0.0177,-0.002,-0.0047,-24.94,-40.81,43.94,0.41,-84.69,-150.02
66961,53.79194,-1.769268,186.89,0.0,3,60.54,22 / 23,6696138,2019-11-08 11:48:53:749,0.5859,-0.4699,9.8577,0.0048,-0.001,9.8066,-0.0019,0.0176,0.0136,-25.37,-41.06,44.13,359.68,-84.67,-150.69
66962,53.79194,-1.769268,186.89,0.0,3,60.54,22 / 23,6696238,2019-11-08 11:48:53:849,0.7946,-0.1949,9.7814,0.0034,0.0002,9.8066,-0.0035,0.0418,0.0058,-24.87,-40.56,44.88,0.15,-84.64,-150.8
66963,53.79194,-1.769268,186.89,0.0,3,60.54,22 / 23,6696338,2019-11-08 11:48:53:949,0.5131,-0.4183,9.8387,0.007,-0.0001,9.8066,-0.0014,0.0246,0.0109,-24.81,-40.56,44.31,359.1,-84.61,-151.22
66964,53.79194,-1.769268,186.89,0.0,3,60.54,22 / 23,6696438,2019-11-08 11:48:54:049,1.2428,-0.7748,9.847,0.0032,-0.0016,9.8066,-0.0016,0.0712,-0.0076,-24.19,-40.75,42.44,358.69,-84.59,-151.45
66965,53.79194,-1.769268,186.89,0.0,3,60.54,22 / 23,6696539,2019-11-08 11:48:54:150,0.9276,-0.299,9.7826,0.0018,-0.0088,9.8066,0.0135,0.0902,-0.0123,-24.19,-40.19,42.31,358.28,-84.48,-151.83
66966,53.79194,-1.769268,186.89,0.0,3,60.54,22 / 23,6696638,2019-11-08 11:48:54:249,1.2663,-1.1158,9.8006,0.0029,-0.0115,9.8066,0.0408,0.137,-0.0212,-24.5,-39.75,41.13,357.3,-84.38,-152.13
66967,53.79194,-1.769268,186.89,0.0,3,60.54,22 / 23,6696738,2019-11-08 11:48:54:349,1.4208,-1.2844,9.8904,0.0008,-0.0113,9.8066,0.0291,0.1518,-0.0142,-23.75,-40.31,41.44,357.17,-84.2,-152.24
66968,53.79194,-1.769268,186.89,0.0,3,60.54,22 / 23,6696838,2019-11-08 11:48:54:449,1.7381,-2.0383,9.8387,0.0068,-0.0039,9.8066,0.0097,0.1546,-0.0267,-24.5,-40.81,40.5,356.55,-84.11,-152.78
66969,53.79194,-1.769268,186.89,0.0,3,60.54,22 / 23,6696938,2019-11-08 11:48:54:549,1.4285,-1.9113,9.7126,0.0074,-0.0007,9.8066,0.0106,0.1855,-0.0494,-24.37,-40.31,41.56,356.09,-84.07,-153.81
66970,53.79194,-1.769268,186.89,0.0,3,60.54,22 / 23,6697038,2019-11-08 11:48:54:649,0.9367,-1.1005,9.7983,0.0095,0.0021,9.8066,0.0299,0.1103,-0.0054,-24.62,-40.62,40.75,353.08,-84.1,-154.9
66971,53.79194,-1.769268,186.89,0.0,3,60.54,22 / 23,6697138,2019-11-08 11:48:54:749,0.9371,-1.5068,9.9846,-0.0007,0.0032,9.8066,-0.0225,0.154,-0.008,-24.06,-41.0,40.81,353.17,-84.09,-155.84
66972,53.79194,-1.769268,186.89,0.0,3,60.54,22 / 23,6697239,2019-11-08 11:48:54:850,1.0708,-1.7694,9.6376,-0.0071,0.0014,9.8066,-0.0161,0.1199,-0.0197,-25.12,-41.25,40.63,352.81,-84.13,-155.16
66973,53.79194,-1.769268,186.89,0.0,3,60.54,22 / 23,6697338,2019-11-08 11:48:54:949,0.361,-2.1729,9.5144,0.0056,0.0066,9.8066,-0.0347,0.0909,0.0406,-25.06,-41.06,40.06,352.99,-84.19,-154.35
66974,53.79194,-1.769268,186.89,0.0,3,60.54,22 / 23,6697438,2019-11-08 11:48:55:049,1.5273,-2.3455,10.0675,0.0199,-0.0126,9.8066,-0.0313,0.1106,-0.0058,-24.94,-41.25,40.13,352.86,-84.19,-154.48
66975,53.79194,-1.769268,186.89,0.0,3,60.54,24 / 24,6697538,2019-11-08 11:48:55:149,1.3504,-2.3997,9.6095,0.0053,0.0052,9.8066,-0.0367,0.0367,0.0094,-24.62,-41.44,39.19,351.17,-84.1,-155.32
66976,53.79194,-1.769268,186.89,0.0,3,60.54,24 / 24,6697638,2019-11-08 11:48:55:249,1.877,-2.3184,9.6984,0.0117,0.0084,9.8066,-0.0133,-0.0042,0.0352,-23.69,-41.81,39.44,352.63,-84.25,-155.05
66977,53.79194,-1.769268,186.89,0.0,3,60.54,24 / 24,6697739,2019-11-08 11:48:55:350,0.4562,-1.9041,9.7962,0.0118,-0.0042,9.8066,0.0351,-0.0257,-0.0003,-24.37,-41.56,39.25,351.29,-84.24,-156.26
66978,53.79194,-1.769268,186.89,0.0,3,60.54,24 / 24,6697838,2019-11-08 11:48:55:449,2.298,-3.2328,9.5257,0.008,-0.0133,9.8066,0.0229,-0.0443,0.0113,-24.06,-41.31,38.81,350.02,-84.1,-157.41
66979,53.79194,-1.769268,186.89,0.0,3,60.54,24 / 24,6697938,2019-11-08 11:48:55:549,0.2678,-2.008,10.1137,-0.0002,0.01,9.8066,0.0135,-0.0906,0.0522,-24.62,-40.94,39.5,349.79,-84.14,-157.25
66980,53.79194,-1.769268,186.89,0.0,3,60.54,24 / 24,6698038,2019-11-08 11:48:55:649,0.7965,-2.1915,10.1409,-0.0002,-0.0021,9.8066,-0.0589,-0.0217,-0.0243,-25.31,-42.44,39.94,350.42,-84.09,-156.65
66981,53.79194,-1.769268,186.89,0.0,3,60.54,24 / 24,6698138,2019-11-08 11:48:55:749,1.2639,-1.3296,9.4756,-0.0001,0.0132,9.8066,0.0173,-0.0819,0.0401,-25.5,-41.94,39.31,350.74,-84.1,-155.69
66982,53.79194,-1.769268,186.89,0.0,3,60.54,24 / 24,6698238,2019-11-08 11:48:55:849,0.7125,-2.3607,9.8903,-0.0062,-0.002,9.8065,-0.0407,0.002,-0.0571,-26.19,-42.25,39.0,349.68,-84.16,-155.64
66983,53.79194,-1.769268,186.89,0.0,3,60.54,24 / 24,6698338,2019-11-08 11:48:55:949,0.8394,-0.6734,9.7734,-0.0023,-0.0054,9.8066,0.0042,-0.0457,-0.0071,-25.75,-42.12,39.5,350.71,-84.24,-155.4
66984,53.79194,-1.769268,186.89,0.0,3,60.54,24 / 24,6698438,2019-11-08 11:48:56:049,1.1287,-1.0841,10.0485,0.0051,-0.0045,9.8066,-0.0835,-0.0353,0.0304,-25.44,-41.37,39.63,351.93,-84.2,-155.31
66985,53.79194,-1.769268,186.89,0.0,3,60.54,23 / 23,6698539,2019-11-08 11:48:56:150,1.2757,-0.5652,9.7278,-0.0151,-0.0112,9.8066,-0.0137,0.0045,-0.0103,-25.87,-41.81,40.5,352.29,-84.2,-154.62
66986,53.79194,-1.769268,186.89,0.0,3,60.54,23 / 23,6698639,2019-11-08 11:48:56:250,0.4379,-0.9007,9.7549,-0.0126,0.0079,9.8066,0.0374,-0.1615,0.0554,-26.19,-42.44,40.25,353.13,-84.13,-153.19
66987,53.79194,-1.769268,186.89,0.0,3,60.54,23 / 23,6698739,2019-11-08 11:48:56:350,0.2679,-0.7509,10.43,-0.0093,0.0161,9.8065,0.0488,-0.1621,0.0138,-25.56,-42.44,39.69,353.6,-84.14,-152.77
66988,53.79194,-1.769268,186.89,0.0,3,60.54,23 / 23,6698838,2019-11-08 11:48:56:449,1.8135,-0.8246,10.0748,0.0022,0.0096,9.8066,-0.0074,-0.0424,-0.0353,-24.87,-42.44,40.13,354.44,-84.14,-153.02
66989,53.79194,-1.769268,186.89,0.0,3,60.54,23 / 23,6698938,2019-11-08 11:48:56:549,1.2317,-0.7638,8.7712,0.0315,0.0128,9.8066,-0.0542,-0.1247,0.0553,-25.0,-42.62,40.25,352.75,-84.27,-154.55
66990,53.79194,-1.769268,186.89,0.0,3,60.54,23 / 23,6699038,2019-11-08 11:48:56:649,-0.4311,-1.7398,10.7876,0.0075,-0.0371,9.8065,-0.0817,0.0856,-0.0888,-25.44,-42.5,40.69,353.35,-84.23,-154.66
66991,53.79194,-1.769268,186.89,0.0,3,60.54,23 / 23,6699139,2019-11-08 11:48:56:750,2.9406,-1.4115,9.9884,-0.0025,0.0041,9.8066,0.0275,0.13,-0.0365,-25.62,-43.56,41.63,352.29,-84.09,-155.2
66992,53.79194,-1.769268,186.89,0.0,3,60.54,23 / 23,6699238,2019-11-08 11:48:56:849,-0.5441,-2.7242,9.7652,-0.0084,-0.001,9.8066,0.0,-0.0945,0.0157,-24.81,-42.75,41.25,352.68,-84.0,-155.22
66993,53.79194,-1.769268,186.89,0.0,3,60.54,23 / 23,6699339,2019-11-08 11:48:56:950,1.2091,-1.3575,10.1039,-0.0119,-0.0175,9.8066,-0.0261,0.1627,-0.0658,-25.56,-43.19,41.38,351.23,-84.06,-155.55
66994,53.79194,-1.769268,186.89,0.0,3,60.54,23 / 23,6699438,2019-11-08 11:48:57:049,0.763,-2.0165,10.3078,-0.0034,-0.01,9.8066,-0.0321,-0.063,-0.0075,-25.94,-43.62,41.38,352.85,-83.98,-154.05
66995,53.79194,-1.769268,186.89,0.0,3,60.54,23 / 24,6699538,2019-11-08 11:48:57:149,1.3789,-3.1576,9.3814,0.0117,-0.0096,9.8066,0.0153,0.0115,-0.0445,-25.69,-43.81,40.56,351.89,-83.96,-154.91
66996,53.79194,-1.769268,186.89,0.0,3,60.54,23 / 24,6699639,2019-11-08 11:48:57:250,2.1011,-1.5346,10.0614,0.0067,0.0018,9.8066,-0.0348,-0.0855,0.0051,-25.31,-43.69,42.13,351.39,-83.95,-156.99
66997,53.79194,-1.769268,186.89,0.0,3,60.54,23 / 24,6699739,2019-11-08 11:48:57:350,1.0888,-1.2519,10.464,-0.0045,0.0282,9.8066,0.0833,-0.0506,-0.0293,-25.19,-43.62,41.75,349.54,-84.09,-158.68
66998,53.79194,-1.769268,186.89,0.0,3,60.54,23 / 24,6699838,2019-11-08 11:48:57:449,0.1659,-1.5494,9.3878,0.0138,-0.0011,9.8066,0.0252,0.1721,-0.0913,-25.56,-44.0,40.75,346.54,-84.01,-159.75
66999,53.79194,-1.769268,186.89,0.0,3,60.54,23 / 24,6699938,2019-11-08 11:48:57:549,0.0632,-2.3645,10.1804,-0.0179,-0.025,9.8066,0.0438,-0.0761,0.1518,-25.56,-44.0,40.88,347.79,-83.96,-158.61
67000,53.79194,-1.769268,186.89,0.0,3,60.54,23 / 24,6700038,2019-11-08 11:48:57:649,0.7734,-1.4937,9.04,0.0069,0.0111,9.8066,0.0614,0.1889,-0.0393,-25.19,-44.0,41.13,350.58,-83.88,-157.08
67001,53.79194,-1.769268,186.89,0.0,3,60.54,23 / 24,6700138,2019-11-08 11:48:57:749,4.2384,1.0838,9.9231,-0.0339,-0.0207,9.8065,-0.0011,0.495,-0.4065,-25.31,-44.19,40.81,351.24,-83.91,-156.49
67002,53.79194,-1.769268,186.89,0.0,3,60.54,23 / 24,6700238,2019-11-08 11:48:57:849,-0.1443,0.8377,9.5066,-0.038,0.0302,9.8065,0.2156,-0.1733,0.0813,-25.19,-44.44,39.94,346.6,-84.11,-160.06
67003,53.79194,-1.769268,186.89,0.0,3,60.54,23 / 24,6700339,2019-11-08 11:48:57:950,-0.0809,-0.812,10.4555,0.0148,-0.0437,9.8065,-0.1306,0.0707,0.0428,-25.31,-44.25,40.63,349.23,-84.42,-158.39
67004,53.79194,-1.769268,186.89,0.0,3,60.54,23 / 24,6700439,2019-11-08 11:48:58:050,0.5061,-1.3321,9.4509,0.0473,0.0113,9.8065,0.0047,-0.2662,0.3503,-25.75,-44.19,40.5,350.11,-83.94,-156.51
67005,53.79194,-1.769268,186.89,0.0,3,60.54,23 / 25,6700539,2019-11-08 11:48:58:150,-1.3491,-6.0459,10.0539,0.01,-0.0353,9.8066,0.1084,0.1663,-0.0368,-25.5,-44.69,41.69,350.2,-83.6,-157.98
67006,53.79194,-1.769268,186.89,0.0,3,60.54,23 / 25,6700639,2019-11-08 11:48:58:250,2.2645,-1.315,10.4602,-0.0728,-0.0469,9.8062,-0.0378,-0.123,0.2013,-26.06,-44.69,41.19,347.97,-83.47,-158.31
67007,53.79194,-1.769268,186.89,0.0,3,60.54,23 / 25,6700739,2019-11-08 11:48:58:350,-0.823,-2.9582,12.3922,-0.0355,0.0343,9.8065,0.2443,-0.1911,0.0593,-25.25,-44.75,40.94,349.87,-83.73,-157.67
67008,53.79194,-1.769268,186.89,0.0,3,60.54,23 / 25,6700839,2019-11-08 11:48:58:450,-1.4726,-1.1393,8.2996,-0.038,0.0342,9.8064,-0.0144,0.4036,-0.261,-25.37,-44.31,40.88,347.52,-83.62,-159.77
67009,53.79194,-1.769268,186.89,0.0,3,60.54,23 / 25,6700939,2019-11-08 11:48:58:550,4.1614,2.6997,8.5013,-0.0422,0.0337,9.8065,0.199,0.1367,-0.2611,-25.12,-44.94,40.44,344.79,-83.78,-161.57
67010,53.79194,-1.769268,186.89,0.0,3,60.54,23 / 25,6701039,2019-11-08 11:48:58:650,-1.5456,-2.392,10.5462,-0.0446,-0.0309,9.8065,0.0989,-0.094,-0.0095,-25.12,-44.75,40.5,343.94,-83.78,-162.99
67011,53.79194,-1.769268,186.89,0.0,3,60.54,23 / 25,6701139,2019-11-08 11:48:58:750,-1.2006,0.1578,8.3113,0.0148,-0.0157,9.8066,-0.1346,0.2281,-0.0445,-25.31,-44.87,40.75,345.62,-83.55,-161.42
67012,53.79194,-1.769268,186.89,0.0,3,60.54,23 / 25,6701238,2019-11-08 11:48:58:849,4.1142,-1.6764,11.4438,0.0546,-0.0282,9.8064,-0.2569,0.1141,0.0936,-24.87,-45.12,40.94,346.93,-83.91,-160.34
67013,53.79194,-1.769268,186.89,0.0,3,60.54,23 / 25,6701338,2019-11-08 11:48:58:949,5.3934,0.2839,9.1621,-0.0468,-0.0446,9.8064,-0.113,0.5204,-0.2289,-25.0,-45.0,40.88,345.14,-83.95,-161.96
67014,53.79194,-1.769268,186.89,0.0,3,60.54,23 / 25,6701438,2019-11-08 11:48:59:049,3.5206,-0.1242,10.8963,0.0602,0.0205,9.8064,-0.0904,-0.4834,0.3154,-25.06,-45.44,40.88,345.98,-84.13,-161.24
67015,53.79194,-1.769268,186.89,0.0,3,60.54,23 / 25,6701538,2019-11-08 11:48:59:149,-4.025,-3.1641,9.1787,-0.0301,-0.0169,9.8065,0.0308,0.0051,0.0276,-24.94,-44.5,40.69,342.88,-84.23,-164.11
67016,53.79194,-1.769268,186.89,0.0,3,60.54,23 / 25,6701638,2019-11-08 11:48:59:249,3.896,-0.6915,9.5046,0.0371,0.0547,9.8064,0.0485,-0.0659,0.2195,-24.31,-44.69,40.44,346.17,-84.11,-161.44
67017,53.79194,-1.769268,186.89,0.0,3,60.54,23 / 25,6701739,2019-11-08 11:48:59:350,-0.0547,-2.5521,10.6245,-0.0319,-0.0051,9.8065,0.0795,-0.0767,-0.0769,-24.75,-45.62,40.13,343.22,-84.33,-163.1
67018,53.79194,-1.769268,186.89,0.0,3,60.54,23 / 25,6701838,2019-11-08 11:48:59:449,-0.0154,0.8003,9.6752,-0.0077,0.0194,9.8066,0.082,0.0459,-0.1219,-25.19,-46.56,40.44,340.54,-84.56,-165.57
67019,53.79194,-1.769268,186.89,0.0,3,60.54,23 / 25,6701938,2019-11-08 11:48:59:549,-0.2971,-1.8249,10.7539,0.0205,-0.0045,9.8065,-0.1438,0.1773,0.0164,-24.94,-47.56,39.81,340.79,-84.7,-165.36
67020,53.79194,-1.769268,186.89,0.0,3,60.54,23 / 25,6702038,2019-11-08 11:48:59:649,1.6644,-0.1235,8.8533,0.0587,0.0425,9.8063,-0.0569,-0.2758,0.336,-25.06,-47.69,40.38,343.53,-84.94,-162.95
67021,53.79194,-1.769268,186.89,0.0,3,60.54,23 / 25,6702138,2019-11-08 11:48:59:749,-2.7852,-0.7391,10.5136,0.0099,0.0266,9.8066,0.2573,-0.3733,0.0317,-24.31,-47.69,40.19,342.2,-84.98,-165.2
67022,53.79194,-1.769268,186.89,0.0,3,60.54,23 / 25,6702238,2019-11-08 11:48:59:849,-3.569,-3.2512,8.9636,-0.0202,0.0585,9.8064,0.1743,0.1936,-0.3283,-25.31,-47.87,40.19,336.13,-84.81,-169.64
67023,53.79194,-1.769268,186.89,0.0,3,60.54,23 / 25,6702338,2019-11-08 11:48:59:949,-0.5339,-1.5956,9.5561,0.0576,0.0664,9.8062,0.0237,-0.126,0.1781,-25.37,-47.12,39.56,330.55,-85.2,-175.0
67024,53.79194,-1.769268,186.89,0.0,3,60.54,23 / 25,6702438,2019-11-08 11:49:00:049,-2.3207,-3.9378,11.0835,0.0997,0.0138,9.8061,-0.0805,-0.5537,0.3838,-25.19,-44.56,39.25,328.92,-85.24,-175.95
67025,53.79204,-1.768985,187.46,6.88,4,55.31,24 / 25,6702539,2019-11-08 11:49:00:150,2.2391,0.0551,9.464,0.0282,-0.0508,9.8064,0.0241,0.2829,-0.2142,-25.0,-45.12,39.5,333.18,-85.39,-172.75
67026,53.79204,-1.768985,187.46,6.88,4,55.31,24 / 25,6702638,2019-11-08 11:49:00:249,-0.4641,-0.6747,9.2239,-0.0089,0.0451,9.8065,0.0407,-0.1334,0.1331,-25.06,-45.12,39.38,330.21,-85.27,-174.76
67027,53.79204,-1.768985,187.46,6.88,4,55.31,24 / 25,6702739,2019-11-08 11:49:00:350,2.4765,-0.8858,9.5273,-0.0473,0.0224,9.8065,0.0442,-0.0136,0.1071,-24.94,-45.19,39.38,330.1,-85.25,-174.85
67028,53.79204,-1.768985,187.46,6.88,4,55.31,24 / 25,6702839,2019-11-08 11:49:00:450,-0.2233,-0.9956,8.8394,-0.0215,-0.0042,9.8065,0.0015,0.0108,0.0233,-24.75,-44.87,39.0,329.11,-85.2,-175.75
67029,53.79204,-1.768985,187.46,6.88,4,55.31,24 / 25,6702939,2019-11-08 11:49:00:550,-0.7757,3.1341,8.0166,0.0219,-0.0299,9.8065,0.0913,-0.0493,0.1501,-24.56,-45.31,38.69,329.26,-85.24,-175.63
67030,53.79204,-1.768985,187.46,6.88,4,55.31,24 / 25,6703038,2019-11-08 11:49:00:649,1.831,-2.0141,10.3906,-0.0083,-0.0243,9.8065,0.1022,0.1515,-0.0524,-23.94,-45.56,39.13,328.53,-85.28,-177.29
67031,53.79204,-1.768985,187.46,6.88,4,55.31,24 / 25,6703139,2019-11-08 11:49:00:750,1.3919,0.9051,9.5479,0.0406,-0.0041,9.8065,0.0823,0.1484,0.0278,-24.37,-45.44,38.06,330.28,-85.28,-175.02
67032,53.79204,-1.768985,187.46,6.88,4,55.31,24 / 25,6703238,2019-11-08 11:49:00:849,3.3375,0.0796,10.3321,0.0623,0.021,9.8064,0.0695,0.1855,-0.268,-23.37,-45.81,36.81,333.78,-85.19,-172.03
67033,53.79204,-1.768985,187.46,6.88,4,55.31,24 / 25,6703339,2019-11-08 11:49:00:950,-1.8225,0.8104,9.0734,0.0082,0.0569,9.8064,0.0308,0.0922,0.0006,-23.94,-46.31,35.69,328.49,-85.57,-175.28
67034,53.79204,-1.768985,187.46,6.88,4,55.31,24 / 25,6703439,2019-11-08 11:49:01:050,0.6869,0.774,11.1844,0.0356,0.0131,9.8065,-0.0997,0.1148,-0.1963,-24.69,-47.37,34.13,327.84,-85.81,-173.28
67035,53.79204,-1.768985,187.46,6.88,4,55.31,24 / 24,6703538,2019-11-08 11:49:01:149,-0.7543,-1.1238,9.0611,-0.0149,0.0208,9.8065,-0.0912,0.1836,-0.1861,-26.75,-50.37,32.31,323.58,-85.89,-173.27
67036,53.79204,-1.768985,187.46,6.88,4,55.31,24 / 24,6703638,2019-11-08 11:49:01:249,-0.0953,-0.7415,10.906,0.0123,0.0025,9.8066,0.08,-0.1071,0.0697,-28.31,-52.75,34.38,326.12,-86.12,-171.74
67037,53.79204,-1.768985,187.46,6.88,4,55.31,24 / 24,6703738,2019-11-08 11:49:01:349,-1.2972,0.955,9.7129,-0.0125,-0.0493,9.8064,0.0359,0.1424,-0.0163,-30.44,-55.5,36.38,326.81,-86.23,-170.91
67038,53.79204,-1.768985,187.46,6.88,4,55.31,24 / 24,6703838,2019-11-08 11:49:01:449,1.7335,-0.5844,9.9973,-0.0192,-0.0154,9.8066,-0.0352,-0.0704,0.1903,-31.19,-54.25,41.81,334.47,-86.09,-167.3
67039,53.79204,-1.768985,187.46,6.88,4,55.31,24 / 24,6703938,2019-11-08 11:49:01:549,-0.6302,0.0555,9.1039,-0.0237,-0.0397,9.8065,-0.0919,0.207,-0.0388,-29.06,-52.37,44.0,340.55,-85.83,-164.65
67040,53.79204,-1.768985,187.46,6.88,4,55.31,24 / 24,6704039,2019-11-08 11:49:01:650,2.2592,-1.3985,9.2787,-0.0095,0.0162,9.8066,0.0066,0.171,-0.0528,-27.12,-49.37,45.31,343.96,-85.84,-163.96
67041,53.79204,-1.768985,187.46,6.88,4,55.31,24 / 24,6704138,2019-11-08 11:49:01:749,-1.0424,2.3165,10.3408,0.0056,0.0113,9.8066,-0.0276,0.0172,0.021,-25.19,-46.87,44.38,347.62,-85.97,-161.94
67042,53.79204,-1.768985,187.46,6.88,4,55.31,24 / 24,6704238,2019-11-08 11:49:01:849,-1.4525,-0.4575,10.3773,-0.0072,-0.015,9.8066,0.0299,-0.0705,0.0429,-24.56,-44.87,41.88,347.14,-86.09,-161.27
67043,53.79204,-1.768985,187.46,6.88,4,55.31,24 / 24,6704338,2019-11-08 11:49:01:949,2.3911,2.6687,9.7302,0.004,-0.0414,9.8066,0.0859,-0.3125,0.2248,-24.44,-45.44,41.25,345.76,-85.82,-162.88
67044,53.79204,-1.768985,187.46,6.88,4,55.31,24 / 24,6704438,2019-11-08 11:49:02:049,-2.2235,1.2384,9.0873,-0.024,-0.0593,9.8064,0.1586,-0.4275,0.315,-24.87,-44.44,42.25,343.16,-85.66,-164.91
67045,53.79204,-1.768985,187.46,6.88,4,55.31,24 / 24,6704538,2019-11-08 11:49:02:149,3.5128,3.3775,8.8176,-0.0472,-0.0896,9.806,-0.0593,-0.0182,0.0519,-25.31,-45.12,41.88,344.55,-84.96,-163.39
67046,53.79204,-1.768985,187.46,6.88,4,55.31,24 / 24,6704639,2019-11-08 11:49:02:250,-1.2125,-1.3986,9.8396,-0.0255,0.0009,9.8066,0.0049,-0.4762,0.3011,-24.81,-44.5,42.38,343.22,-85.1,-164.69
67047,53.79204,-1.768985,187.46,6.88,4,55.31,24 / 24,6704738,2019-11-08 11:49:02:349,-3.8729,-1.6683,10.4297,-0.0625,-0.0276,9.8064,-0.0494,0.3073,-0.2059,-23.12,-43.81,42.19,344.65,-85.41,-165.49
67048,53.79204,-1.768985,187.46,6.88,4,55.31,24 / 24,6704838,2019-11-08 11:49:02:449,-0.7573,0.8949,9.9183,-0.0582,-0.057,9.8063,0.0549,0.0097,0.0527,-22.0,-42.25,42.0,350.94,-85.33,-160.73
67049,53.79204,-1.768985,187.46,6.88,4,55.31,24 / 24,6704938,2019-11-08 11:49:02:549,-2.4666,-2.1343,10.3108,0.0234,-0.0035,9.8066,-0.0115,0.2996,-0.2371,-21.25,-41.87,42.0,347.95,-85.16,-164.54
67050,53.79204,-1.768985,187.46,6.88,4,55.31,24 / 24,6705038,2019-11-08 11:49:02:649,-0.6788,0.435,9.6466,0.0157,0.0168,9.8066,-0.0391,0.3606,-0.1518,-21.31,-40.94,40.25,347.08,-84.96,-164.15
67051,53.79204,-1.768985,187.46,6.88,4,55.31,24 / 24,6705139,2019-11-08 11:49:02:750,-3.4146,-1.0634,9.405,0.0362,0.019,9.8065,0.0579,-0.0766,0.1801,-20.94,-41.44,39.06,344.97,-84.98,-165.47
67052,53.79204,-1.768985,187.46,6.88,4,55.31,24 / 24,6705238,2019-11-08 11:49:02:849,0.5537,-1.2376,10.2635,-0.0264,-0.0383,9.8065,-0.012,0.3782,-0.1996,-21.19,-41.69,38.69,346.78,-84.96,-163.78
67053,53.79204,-1.768985,187.46,6.88,4,55.31,24 / 24,6705338,2019-11-08 11:49:02:949,1.8616,4.4553,9.2297,-0.0078,0.0218,9.8065,0.1223,-0.5643,0.3187,-21.87,-41.87,36.94,350.77,-84.82,-157.65
67054,53.79204,-1.768985,187.46,6.88,4,55.31,24 / 24,6705438,2019-11-08 11:49:03:049,-3.9547,-0.9953,10.2601,-0.0364,-0.0948,9.806,0.1112,-0.2883,0.23,-22.37,-42.31,37.44,352.88,-84.88,-155.74
67055,53.79204,-1.768985,187.46,6.88,4,55.31,24 / 25,6705538,2019-11-08 11:49:03:149,5.8923,3.6129,9.5438,-0.0371,-0.0352,9.8065,-0.0143,-0.3765,0.2842,-22.56,-42.81,36.19,351.63,-84.48,-154.95
67056,53.79204,-1.768985,187.46,6.88,4,55.31,24 / 25,6705639,2019-11-08 11:49:03:250,0.0196,1.8594,9.0426,-0.0596,-0.0192,9.8064,0.0229,-0.4799,0.3656,-23.0,-42.19,37.31,350.69,-84.38,-156.52
67057,53.79204,-1.768985,187.46,6.88,4,55.31,24 / 25,6705738,2019-11-08 11:49:03:349,0.8845,1.9917,9.0919,-0.0539,-0.0458,9.8063,-0.1291,0.2371,-0.0845,-24.19,-42.81,37.19,351.11,-84.48,-155.05
67058,53.79204,-1.768985,187.46,6.88,4,55.31,24 / 25,6705839,2019-11-08 11:49:03:450,2.3306,2.8806,10.3568,0.0281,0.0498,9.8065,-0.0012,0.0897,-0.0475,-24.06,-43.12,37.5,357.0,-84.43,-150.44
67059,53.79204,-1.768985,187.46,6.88,4,55.31,24 / 25,6705938,2019-11-08 11:49:03:549,0.4205,0.6256,9.3843,0.0292,0.0328,9.8065,0.021,0.0542,-0.0392,-24.06,-42.31,37.94,354.54,-84.81,-152.7
67060,53.79204,-1.768985,187.46,6.88,4,55.31,24 / 25,6706038,2019-11-08 11:49:03:649,1.8044,3.0345,9.0648,0.0016,0.0016,9.8066,-0.1278,0.3114,-0.2248,-24.56,-42.25,38.56,353.17,-84.76,-153.58
67061,53.79204,-1.768985,187.46,6.88,4,55.31,24 / 25,6706138,2019-11-08 11:49:03:749,1.9456,2.1016,9.1054,0.0131,0.0295,9.8065,0.0324,-0.4938,0.3264,-23.62,-42.87,37.69,353.12,-84.83,-153.98
67062,53.79204,-1.768985,187.46,6.88,4,55.31,24 / 25,6706238,2019-11-08 11:49:03:849,-4.0216,-1.4044,10.8831,-0.0388,-0.0722,9.8062,0.1002,-0.191,0.1003,-23.81,-42.06,38.44,352.72,-84.99,-154.38
67063,53.79204,-1.768985,187.46,6.88,4,55.31,24 / 25,6706338,2019-11-08 11:49:03:949,2.9832,1.8684,9.4168,-0.0159,-0.0182,9.8066,0.0987,-0.2798,0.1098,-24.19,-43.19,37.69,354.25,-84.88,-152.96
67064,53.79204,-1.768985,187.46,6.88,4,55.31,24 / 25,6706438,2019-11-08 11:49:04:049,-1.6262,-1.5156,9.466,-0.0123,-0.0245,9.8066,-0.0086,-0.5401,0.3398,-24.12,-42.94,37.75,355.87,-84.8,-151.48
67065,53.79204,-1.768985,187.46,6.88,4,55.31,23 / 25,6706539,2019-11-08 11:49:04:150,-4.3332,-2.4626,10.9378,-0.0779,-0.0453,9.8061,-0.1412,0.3627,-0.2023,-24.31,-43.25,37.94,358.22,-84.45,-149.33
67066,53.79204,-1.768985,187.46,6.88,4,55.31,23 / 25,6706638,2019-11-08 11:49:04:249,-3.4522,-0.2876,10.3918,-0.0031,0.032,9.8066,0.0173,-0.2706,0.2248,-24.19,-42.69,38.19,357.16,-84.26,-150.28
67067,53.79204,-1.768985,187.46,6.88,4,55.31,23 / 25,6706738,2019-11-08 11:49:04:349,-5.1208,-5.2236,11.1175,0.0007,-0.0406,9.8065,-0.0798,0.8481,-0.5082,-25.37,-42.94,37.88,355.01,-83.93,-151.12
67068,53.79204,-1.768985,187.46,6.88,4,55.31,23 / 25,6706838,2019-11-08 11:49:04:449,2.6343,1.5897,9.1837,0.0705,0.1043,9.8058,-0.1458,0.6472,-0.4687,-24.87,-43.06,37.5,356.93,-83.45,-149.37
67069,53.79204,-1.768985,187.46,6.88,4,55.31,23 / 25,6706938,2019-11-08 11:49:04:549,-0.6219,-1.2759,9.3819,0.0497,0.1184,9.8058,-0.081,0.5673,-0.3596,-25.19,-42.87,38.81,357.01,-83.47,-150.0
67070,53.79204,-1.768985,187.46,6.88,4,55.31,23 / 25,6707038,2019-11-08 11:49:04:649,-3.5317,-2.3894,11.2548,0.0324,0.0418,9.8064,-0.2303,1.0,-0.5576,-25.19,-43.37,37.44,353.39,-84.01,-151.87
67071,53.79204,-1.768985,187.46,6.88,4,55.31,23 / 25,6707138,2019-11-08 11:49:04:749,-3.9335,-2.6871,11.2262,0.0655,0.1117,9.8058,0.1186,-0.5341,0.3341,-24.94,-43.44,38.81,350.47,-84.43,-155.97
67072,53.79204,-1.768985,187.46,6.88,4,55.31,23 / 25,6707238,2019-11-08 11:49:04:849,-3.7787,-2.8809,9.5854,-0.0476,-0.0548,9.8063,-0.0855,0.1186,-0.0853,-24.62,-43.5,37.94,347.19,-84.33,-158.22
67073,53.79204,-1.768985,187.46,6.88,4,55.31,23 / 25,6707338,2019-11-08 11:49:04:949,4.1312,3.6484,9.6114,-0.0074,-0.0101,9.8065,0.0238,-0.8029,0.5105,-24.62,-43.25,38.19,349.01,-84.08,-156.53
67074,53.79204,-1.768985,187.46,6.88,4,55.31,23 / 25,6707439,2019-11-08 11:49:05:050,-2.9261,-3.6481,11.2627,-0.0853,-0.0702,9.806,0.0646,-0.4601,0.351,-24.94,-43.12,38.5,347.41,-84.16,-158.69
67075,53.79204,-1.768985,187.46,6.88,4,55.31,21 / 22,6707539,2019-11-08 11:49:05:150,1.4741,3.0964,9.5794,-0.0311,-0.0467,9.8065,0.0715,-0.1297,0.0713,-25.0,-42.87,38.44,348.73,-84.38,-156.84
67076,53.79204,-1.768985,187.46,6.88,4,55.31,21 / 22,6707639,2019-11-08 11:49:05:250,1.7842,1.9945,9.4749,0.0019,-0.0172,9.8066,0.1059,-0.3914,0.2396,-24.37,-43.25,38.19,352.09,-84.16,-154.83
67077,53.79204,-1.768985,187.46,6.88,4,55.31,21 / 22,6707739,2019-11-08 11:49:05:350,-0.1047,0.9243,9.1061,-0.01,-0.0511,9.8065,0.0072,0.3514,-0.2115,-24.69,-42.31,38.06,350.39,-83.81,-155.27
67078,53.79204,-1.768985,187.46,6.88,4,55.31,21 / 22,6707838,2019-11-08 11:49:05:449,2.1834,1.5197,9.3688,0.0306,0.0338,9.8065,-0.0272,0.1054,-0.0899,-24.69,-43.0,38.5,350.29,-83.72,-156.01
67079,53.79204,-1.768985,187.46,6.88,4,55.31,21 / 22,6707938,2019-11-08 11:49:05:549,-0.3488,-0.2331,9.8378,0.0009,0.038,9.8065,-0.0327,0.1572,-0.1034,-24.94,-43.0,38.5,349.39,-84.01,-156.87
67080,53.79204,-1.768985,187.46,6.88,4,55.31,21 / 22,6708038,2019-11-08 11:49:05:649,2.3851,0.9698,9.2131,-0.0144,0.0314,9.8065,-0.0986,0.3229,-0.1552,-25.19,-42.75,37.94,348.88,-84.08,-156.64
67081,53.79204,-1.768985,187.46,6.88,4,55.31,21 / 22,6708139,2019-11-08 11:49:05:750,-0.0457,1.5605,10.1476,0.0215,0.0528,9.8065,-0.0611,-0.114,0.0883,-24.81,-42.75,38.25,350.52,-84.29,-155.21
67082,53.79204,-1.768985,187.46,6.88,4,55.31,21 / 22,6708239,2019-11-08 11:49:05:850,-1.4782,-0.7533,10.4102,0.0034,-0.006,9.8066,0.0467,0.1476,-0.1412,-25.44,-42.87,38.31,348.31,-84.63,-157.28
67083,53.79204,-1.768985,187.46,6.88,4,55.31,21 / 22,6708339,2019-11-08 11:49:05:950,-0.4406,1.9073,9.1087,0.036,0.0015,9.8065,0.1422,-0.1469,0.0434,-25.06,-42.81,38.06,345.38,-84.69,-159.96
67084,53.79204,-1.768985,187.46,6.88,4,55.31,21 / 22,6708438,2019-11-08 11:49:06:049,0.3855,0.3036,10.2889,0.0159,0.0117,9.8066,0.0846,-0.0185,0.0085,-24.75,-42.87,38.38,344.62,-84.61,-160.63
67085,53.79204,-1.768985,187.46,6.88,4,55.31,22 / 23,6708538,2019-11-08 11:49:06:149,0.5834,0.0369,9.0748,-0.0377,-0.0126,9.8065,-0.0279,-0.0554,0.0341,-25.25,-43.75,37.13,345.79,-84.43,-158.75
67086,53.79204,-1.768985,187.46,6.88,4,55.31,22 / 23,6708639,2019-11-08 11:49:06:250,0.2602,-0.4924,9.9836,-0.0115,-0.0014,9.8065,0.0006,-0.1211,0.2631,-25.37,-43.62,38.25,347.36,-84.51,-158.08
67087,53.79204,-1.768985,187.46,6.88,4,55.31,22 / 23,6708738,2019-11-08 11:49:06:349,3.0156,2.1891,9.3576,-0.0318,-0.0304,9.8065,-0.0251,-0.0232,0.0996,-25.0,-43.12,37.56,348.15,-84.64,-157.42
67088,53.79204,-1.768985,187.46,6.88,4,55.31,22 / 23,6708838,2019-11-08 11:49:06:449,-1.2925,1.1622,8.9768,-0.0276,0.0137,9.8065,-0.037,-0.345,0.2439,-25.19,-43.37,37.0,349.57,-84.51,-155.38
67089,53.79204,-1.768985,187.46,6.88,4,55.31,22 / 23,6708938,2019-11-08 11:49:06:549,-1.7059,-3.601,10.5671,-0.0438,-0.0099,9.8065,-0.1259,0.5126,-0.2263,-25.31,-44.31,37.63,353.94,-84.68,-152.15
67090,53.79204,-1.768985,187.46,6.88,4,55.31,22 / 23,6709038,2019-11-08 11:49:06:649,0.7991,1.9447,9.0841,-0.0455,-0.0312,9.8064,-0.1429,0.2674,-0.0727,-24.75,-43.0,36.69,355.26,-84.82,-150.26
67091,53.79204,-1.768985,187.46,6.88,4,55.31,22 / 23,6709139,2019-11-08 11:49:06:750,-1.9677,-1.9824,10.477,0.011,0.0696,9.8063,-0.016,0.219,-0.0453,-24.94,-43.25,36.44,352.61,-85.14,-151.98
67092,53.79204,-1.768985,187.46,6.88,4,55.31,22 / 23,6709239,2019-11-08 11:49:06:850,-2.4497,-3.3039,10.0352,-0.0235,-0.0004,9.8065,-0.1002,0.4658,-0.2371,-24.81,-43.5,36.5,353.87,-84.89,-151.53
67093,53.79204,-1.768985,187.46,6.88,4,55.31,22 / 23,6709338,2019-11-08 11:49:06:949,5.5805,-0.0673,10.3155,0.0328,0.0374,9.8065,-0.0896,-0.2573,0.2473,-24.25,-43.62,37.94,359.77,-84.87,-147.94
67094,53.79204,-1.768985,187.46,6.88,4,55.31,22 / 23,6709439,2019-11-08 11:49:07:050,-1.8773,-1.3708,10.7227,-0.0367,0.0022,9.8065,0.0415,-0.2474,0.065,-24.94,-43.62,37.44,358.0,-85.12,-147.78
67095,53.79204,-1.768985,187.46,6.88,4,55.31,23 / 24,6709539,2019-11-08 11:49:07:150,-1.8084,2.2425,9.4819,-0.0295,-0.0255,9.8065,-0.0156,0.0455,0.0269,-25.0,-43.0,37.75,3.89,-85.25,-143.09
67096,53.79204,-1.768985,187.46,6.88,4,55.31,23 / 24,6709639,2019-11-08 11:49:07:250,-0.6494,1.3217,9.9984,-0.0175,0.0214,9.8065,-0.0449,-0.1465,0.0867,-25.06,-44.0,37.0,4.59,-85.57,-141.72
67097,53.79204,-1.768985,187.46,6.88,4,55.31,23 / 24,6709739,2019-11-08 11:49:07:350,-1.5102,2.3773,9.6178,-0.017,-0.0118,9.8066,-0.0225,-0.1023,0.0757,-25.06,-43.0,36.81,6.7,-85.55,-139.78
67098,53.79204,-1.768985,187.46,6.88,4,55.31,23 / 24,6709839,2019-11-08 11:49:07:450,-1.356,0.7483,10.8006,0.0068,-0.0188,9.8066,0.1485,-0.1004,0.0434,-24.94,-43.0,36.75,5.8,-85.51,-140.61
67099,53.79204,-1.768985,187.46,6.88,4,55.31,23 / 24,6709938,2019-11-08 11:49:07:549,0.181,0.1078,9.7261,0.0139,-0.0165,9.8066,0.034,-0.0296,0.0527,-24.75,-42.44,36.81,5.19,-85.48,-141.16
67100,53.79204,-1.768985,187.46,6.88,4,55.31,23 / 24,6710038,2019-11-08 11:49:07:649,-0.4016,1.6502,10.2745,0.0118,-0.0105,9.8066,0.0629,0.0787,-0.0714,-24.56,-42.37,38.0,6.32,-85.44,-140.82
67101,53.79204,-1.768985,187.46,6.88,4,55.31,23 / 24,6710138,2019-11-08 11:49:07:749,-2.3086,1.8538,9.2202,0.0231,0.0068,9.8065,0.1071,-0.0277,-0.0412,-24.56,-43.0,38.19,5.05,-85.48,-142.0
67102,53.79204,-1.768985,187.46,6.88,4,55.31,23 / 24,6710238,2019-11-08 11:49:07:849,-1.6408,1.8995,10.4389,0.0046,0.0097,9.8066,-0.0761,-0.0789,0.0152,-25.19,-42.12,37.44,5.23,-85.44,-141.13
67103,53.79204,-1.768985,187.46,6.88,4,55.31,23 / 24,6710338,2019-11-08 11:49:07:949,-1.384,1.579,10.0249,-0.0191,-0.0005,9.8066,-0.0173,-0.0479,0.0308,-25.19,-41.94,37.94,6.7,-85.53,-140.46
67104,53.79204,-1.768985,187.46,6.88,4,55.31,23 / 24,6710438,2019-11-08 11:49:08:049,-1.4586,1.3925,9.9024,-0.0028,-0.0056,9.8066,0.0181,-0.0123,0.0189,-25.06,-42.62,36.88,5.04,-85.57,-141.3
67105,53.79204,-1.768985,187.46,6.88,4,55.31,22 / 23,6710538,2019-11-08 11:49:08:149,-2.3563,2.5092,10.0402,-0.0027,0.0119,9.8066,-0.0282,0.0115,0.0288,-25.12,-42.31,37.38,4.92,-85.57,-141.41
67106,53.79204,-1.768985,187.46,6.88,4,55.31,22 / 23,6710639,2019-11-08 11:49:08:250,-0.4055,0.281,10.0767,0.0123,-0.001,9.8066,0.0391,-0.0418,-0.0446,-25.31,-42.69,38.13,6.76,-85.64,-140.41
67107,53.79204,-1.768985,187.46,6.88,4,55.31,22 / 23,6710739,2019-11-08 11:49:08:350,-0.0183,-0.6434,9.6565,0.0067,-0.0028,9.8066,0.0546,-0.1017,0.0321,-24.62,-42.75,37.06,4.63,-85.65,-141.67
67108,53.79204,-1.768985,187.46,6.88,4,55.31,22 / 23,6710839,2019-11-08 11:49:08:450,-2.1605,0.0456,12.0395,0.0181,-0.0409,9.8065,0.1206,-0.0985,0.0228,-24.5,-42.94,37.94,6.38,-85.63,-141.83
67109,53.79204,-1.768985,187.46,6.88,4,55.31,22 / 23,6710938,2019-11-08 11:49:08:549,0.3835,-1.7223,13.252,0.0551,-0.013,9.8065,-0.1511,0.2576,-0.0316,-24.87,-42.5,37.94,359.11,-85.34,-147.48
67110,53.79204,-1.768985,187.46,6.88,4,55.31,22 / 23,6711039,2019-11-08 11:49:08:650,-2.2215,-0.1997,3.6559,0.1009,-0.0878,9.8057,-0.4515,-0.2037,0.1011,-25.19,-42.81,39.31,0.38,-84.94,-146.99
67111,53.79204,-1.768985,187.46,6.88,4,55.31,22 / 23,6711139,2019-11-08 11:49:08:750,2.1432,-0.8434,9.5333,0.0386,-0.0231,9.8065,-0.3752,-0.02,0.1995,-24.81,-43.31,38.13,356.61,-84.96,-149.76
67112,53.79204,-1.768985,187.46,6.88,4,55.31,22 / 23,6711239,2019-11-08 11:49:08:850,1.9507,-0.4654,10.883,0.0469,0.0129,9.8065,-0.2138,-0.0062,0.0841,-24.56,-42.56,38.25,2.19,-85.32,-144.64
67113,53.79204,-1.768985,187.46,6.88,4,55.31,22 / 23,6711339,2019-11-08 11:49:08:950,4.0951,-3.1321,14.5836,0.0303,0.0165,9.8066,-0.318,-0.0575,0.1268,-25.25,-42.69,37.63,5.48,-85.72,-141.58
67114,53.79204,-1.768985,187.46,6.88,4,55.31,22 / 23,6711438,2019-11-08 11:49:09:049,-2.2619,2.4308,8.6209,-0.0514,0.0167,9.8064,-0.0044,0.0066,0.0272,-25.37,-43.31,37.44,14.56,-86.29,-132.32
67115,53.792465,-1.767992,187.05,6.1,3,55.96,22 / 24,6711538,2019-11-08 11:49:09:149,0.8601,-1.8599,9.9963,0.0385,-0.0847,9.8061,-0.0997,0.1832,-0.1736,-25.0,-42.25,37.06,8.19,-85.93,-138.33
67116,53.792465,-1.767992,187.05,6.1,3,55.96,22 / 24,6711639,2019-11-08 11:49:09:250,-0.1622,-1.0202,9.2532,0.0243,-0.052,9.8064,0.085,0.1543,-0.0875,-25.56,-42.37,38.69,359.82,-85.58,-146.47
67117,53.792465,-1.767992,187.05,6.1,3,55.96,22 / 24,6711739,2019-11-08 11:49:09:350,1.1058,-0.946,9.9655,0.0058,-0.0113,9.8066,-0.0263,-0.0094,-0.069,-25.06,-43.06,38.25,355.56,-85.12,-150.73
67118,53.792465,-1.767992,187.05,6.1,3,55.96,22 / 24,6711841,2019-11-08 11:49:09:452,-0.0691,-1.4251,9.8705,0.02,0.0259,9.8065,-0.061,0.1455,-0.1854,-24.87,-43.19,37.94,356.11,-85.37,-150.24
67119,53.792465,-1.767992,187.05,6.1,3,55.96,22 / 24,6711939,2019-11-08 11:49:09:550,1.3089,1.4446,9.608,0.0025,0.0216,9.8066,-0.0711,0.0277,0.064,-24.62,-42.75,37.56,0.63,-85.56,-146.07
67120,53.792465,-1.767992,187.05,6.1,3,55.96,22 / 24,6712038,2019-11-08 11:49:09:649,-0.7966,-0.4718,9.9793,-0.0007,-0.0279,9.8066,-0.0328,0.2002,-0.0532,-25.0,-42.56,36.94,0.5,-85.72,-145.49
67121,53.792465,-1.767992,187.05,6.1,3,55.96,22 / 24,6712138,2019-11-08 11:49:09:749,1.4519,-0.0469,9.8631,-0.006,-0.0258,9.8065,-0.018,0.2327,-0.0928,-25.0,-44.12,37.81,0.28,-85.43,-146.4
67122,53.792465,-1.767992,187.05,6.1,3,55.96,22 / 24,6712238,2019-11-08 11:49:09:849,1.043,0.0908,9.2183,0.002,-0.0286,9.8066,0.0451,0.0831,-0.0408,-25.06,-42.31,38.06,359.13,-85.35,-147.46
67123,53.792465,-1.767992,187.05,6.1,3,55.96,22 / 24,6712339,2019-11-08 11:49:09:950,2.0086,1.6634,9.695,-0.0234,-0.0224,9.8065,-0.0001,0.2389,-0.1842,-25.75,-43.12,37.5,358.23,-85.24,-147.25
67124,53.792465,-1.767992,187.05,6.1,3,55.96,22 / 24,6712439,2019-11-08 11:49:10:050,-0.1058,-0.2349,9.3381,-0.019,0.0066,9.8065,0.1201,0.0306,0.0001,-25.12,-43.25,37.63,358.17,-85.23,-148.34
