,GPS LATITUDE (degrees), GPS LONGITUDE (degrees), GPS ALTITUDE (m), GPS SPEED (Kmh), GPS ACCURACY (m), GPS ORIENTATION (Â°),GPS SATELLITES IN RANGE, TIME SINCE START (ms), DATE (YYYY-MO-DD HH-MI-SS_SSS), ACCELEROMETER X (m/s²) , ACCELEROMETER Y (m/s²), ACCELEROMETER Z (m/s²), GRAVITY X (m/s²), GRAVITY Y (m/s²), GRAVITY Z (m/s²), GYROSCOPE Yaw (rad/s), GYROSCOPE Pitch (rad/s), GYROSCOPE Roll (rad/s), MAGNETIC FIELD X (Î¼T), MAGNETIC FIELD Y (Î¼T), MAGNETIC FIELD Z (Î¼T), ORIENTATION (Yaw) (Â°), ORIENTATION (Pitch) (Â°), ORIENTATION (Roll ) (Â°)
10290,52.41528,-1.600742,184.76,3.74,2,202.8,26 / 28,1031922,2019-09-08 10:24:58:546,-0.9891,1.8114,9.9584,0.0058,-0.0156,9.8066,0.0886,0.0122,-0.008,-11.5,-25.25,36.0,5.08,-82.35,-158.42
10291,52.41528,-1.600742,184.76,3.74,2,202.8,26 / 28,1032021,2019-09-08 10:24:58:645,-0.3868,1.62,10.2584,0.0054,-0.0094,9.8065,0.0379,-0.0175,0.025,-11.62,-25.12,36.06,2.73,-82.1,-159.11
10292,52.41528,-1.600742,184.76,3.74,2,202.8,26 / 28,1032121,2019-09-08 10:24:58:745,-0.0602,2.0115,10.4466,0.0018,-0.0044,9.8066,-0.0155,0.0254,0.0314,-11.31,-24.75,35.88,4.2,-82.09,-159.23
10293,52.41528,-1.600742,184.76,3.74,2,202.8,26 / 28,1032222,2019-09-08 10:24:58:846,-0.6422,1.6272,9.6195,-0.0113,0.0114,9.8066,-0.0134,-0.0103,0.05,-11.44,-25.25,36.56,5.5,-82.11,-158.49
10294,52.41528,-1.600742,184.76,3.74,2,202.8,26 / 28,1032322,2019-09-08 10:24:58:946,-0.6193,1.6835,9.913,-0.011,0.0036,9.8065,0.0056,-0.0257,0.0262,-11.75,-25.5,36.31,4.94,-82.16,-157.12
10295,52.41528,-1.600742,184.76,3.74,2,202.8,26 / 28,1032422,2019-09-08 10:24:59:046,-0.4112,1.1334,9.6016,0.0047,0.0069,9.8066,-0.0214,0.0061,-0.0121,-11.5,-25.37,35.75,6.7,-82.15,-156.98
10296,52.41528,-1.600742,184.76,3.74,2,202.8,26 / 28,1032522,2019-09-08 10:24:59:146,-0.3782,1.3411,9.7071,-0.0048,0.0071,9.8066,0.0216,0.0005,0.0043,-11.62,-25.44,35.69,5.05,-82.22,-157.02
10297,52.41528,-1.600742,184.76,3.74,2,202.8,26 / 28,1032621,2019-09-08 10:24:59:245,-0.0735,1.6564,9.7484,-0.0038,0.0063,9.8066,-0.0193,-0.0165,0.018,-12.06,-24.87,36.06,5.39,-82.29,-156.7
10298,52.41528,-1.600742,184.76,3.74,2,202.8,26 / 28,1032721,2019-09-08 10:24:59:345,-0.4356,1.2424,10.0827,-0.0146,-0.0022,9.8065,-0.0118,-0.0049,0.0096,-11.81,-24.94,35.69,6.34,-82.24,-155.84
10299,52.41528,-1.600742,184.76,3.74,2,202.8,27 / 29,1032821,2019-09-08 10:24:59:445,-0.2423,0.9803,9.6991,-0.0093,0.0029,9.8066,-0.0054,0.0066,0.0218,-12.44,-24.75,36.69,7.44,-82.15,-155.31
10300,52.41528,-1.600742,184.76,3.74,2,202.8,27 / 29,1032922,2019-09-08 10:24:59:546,-0.4858,1.4084,10.0721,-0.0097,0.0116,9.8066,0.0186,-0.0034,0.0243,-12.19,-24.94,35.69,8.31,-82.21,-154.07
10301,52.41528,-1.600742,184.76,3.74,2,202.8,27 / 29,1033021,2019-09-08 10:24:59:645,-0.392,1.1264,9.7252,-0.001,0.0037,9.8066,0.0073,0.0,0.0062,-12.25,-25.06,36.44,8.89,-82.25,-153.54
10302,52.41528,-1.600742,184.76,3.74,2,202.8,27 / 29,1033121,2019-09-08 10:24:59:745,-0.2155,1.4807,10.1026,-0.002,-0.0019,9.8066,-0.0084,0.006,-0.005,-11.94,-24.56,36.69,9.64,-82.27,-153.31
10303,52.41528,-1.600742,184.76,3.74,2,202.8,27 / 29,1033222,2019-09-08 10:24:59:846,-0.4388,1.2528,9.6581,-0.003,0.0001,9.8066,0.0007,-0.0098,0.0149,-12.31,-24.94,36.25,9.66,-82.27,-152.84
10304,52.41528,-1.600742,184.76,3.74,2,202.8,27 / 29,1033321,2019-09-08 10:24:59:945,-0.2889,1.006,9.5481,-0.005,0.0048,9.8066,-0.0113,-0.0029,0.0034,-12.5,-25.37,35.63,10.07,-82.31,-152.46
10305,52.41528,-1.600742,184.76,3.74,2,202.8,27 / 29,1033422,2019-09-08 10:25:00:046,-0.149,0.8853,9.8368,-0.0038,0.0042,9.8066,0.0,0.0075,0.0062,-12.81,-25.06,35.81,9.06,-82.39,-151.94
10306,52.41528,-1.600742,184.76,3.74,2,202.8,27 / 29,1033521,2019-09-08 10:25:00:145,-0.2256,1.0658,10.0108,-0.0062,-0.0004,9.8065,-0.0012,-0.0028,0.0267,-12.62,-25.31,36.5,10.51,-82.44,-151.09
10307,52.41528,-1.600742,184.76,3.74,2,202.8,27 / 29,1033621,2019-09-08 10:25:00:245,-0.3422,1.0427,9.8886,-0.0023,0.005,9.8066,0.0086,0.0027,0.0159,-12.31,-25.19,35.56,11.83,-82.45,-150.85
10308,52.41528,-1.600742,184.76,3.74,2,202.8,27 / 29,1033721,2019-09-08 10:25:00:345,-0.3633,1.1075,10.1057,-0.0013,0.0033,9.8066,-0.0018,0.0034,-0.0085,-12.75,-25.56,36.44,10.54,-82.48,-150.62
10309,52.41528,-1.600742,184.76,3.74,2,202.8,26 / 28,1033821,2019-09-08 10:25:00:445,-0.0698,0.9521,9.6732,-0.0004,0.002,9.8066,0.0041,-0.0077,0.003,-12.37,-25.81,36.06,12.08,-82.52,-150.66
10310,52.41528,-1.600742,184.76,3.74,2,202.8,26 / 28,1033921,2019-09-08 10:25:00:545,0.0366,0.9907,9.9123,-0.0021,0.0055,9.8066,0.0042,-0.0149,0.0177,-12.44,-24.94,36.0,12.3,-82.58,-150.4
10311,52.41528,-1.600742,184.76,3.74,2,202.8,26 / 28,1034021,2019-09-08 10:25:00:645,0.0334,0.6917,9.8273,-0.0024,0.0055,9.8066,-0.0094,-0.0027,0.0043,-12.87,-24.81,36.06,11.02,-82.63,-150.13
10312,52.41528,-1.600742,184.76,3.74,2,202.8,26 / 28,1034122,2019-09-08 10:25:00:746,-0.0641,0.4993,10.0021,-0.0029,0.0033,9.8066,0.035,-0.0119,0.0207,-13.25,-25.37,35.88,11.47,-82.68,-149.72
10313,52.41528,-1.600742,184.76,3.74,2,202.8,26 / 28,1034222,2019-09-08 10:25:00:846,-0.005,0.0248,9.6711,-0.0017,0.0012,9.8066,0.0246,-0.0102,0.0097,-12.87,-24.75,35.94,11.83,-82.69,-149.39
10314,52.41528,-1.600742,184.76,3.74,2,202.8,26 / 28,1034321,2019-09-08 10:25:00:945,0.1332,0.4787,10.113,-0.0013,0.0034,9.8066,-0.0114,0.0046,-0.0023,-13.31,-24.81,36.38,12.19,-82.74,-149.05
10315,52.41528,-1.600742,184.76,3.74,2,202.8,26 / 28,1034422,2019-09-08 10:25:01:046,0.0925,-0.2344,9.5295,-0.0002,-0.0005,9.8066,0.019,-0.0075,0.0095,-13.31,-24.62,36.25,12.37,-82.74,-148.88
10316,52.41528,-1.600742,184.76,3.74,2,202.8,26 / 28,1034521,2019-09-08 10:25:01:145,0.1358,0.0094,9.9755,0.0003,-0.0009,9.8066,0.0384,-0.0019,0.0093,-13.06,-24.69,37.13,12.87,-82.72,-148.9
10317,52.41528,-1.600742,184.76,3.74,2,202.8,26 / 28,1034621,2019-09-08 10:25:01:245,0.0991,-0.4141,9.7028,-0.0015,0.0046,9.8066,0.0138,-0.0013,0.0126,-13.06,-24.37,36.44,12.42,-82.73,-148.8
10318,52.41528,-1.600742,184.76,3.74,2,202.8,26 / 28,1034722,2019-09-08 10:25:01:346,0.1602,-0.2807,9.8857,0.0007,0.0009,9.8066,-0.0105,-0.0066,-0.0094,-13.0,-24.62,37.31,13.06,-82.77,-148.72
10319,52.41528,-1.600742,184.76,3.74,2,202.8,26 / 28,1034822,2019-09-08 10:25:01:446,0.3994,-0.4298,9.7421,-0.0007,-0.0001,9.8065,0.0016,-0.0081,0.0013,-13.25,-24.56,36.94,12.95,-82.79,-148.82
10320,52.41528,-1.600742,184.76,3.74,2,202.8,24 / 27,1034921,2019-09-08 10:25:01:545,0.3796,-0.4065,9.6227,-0.0003,0.0048,9.8066,0.0035,0.0006,-0.0078,-13.5,-23.94,37.38,12.99,-82.81,-148.74
10321,52.41528,-1.600742,184.76,3.74,2,202.8,24 / 27,1035021,2019-09-08 10:25:01:645,0.3458,-0.0441,9.948,-0.0022,0.005,9.8066,0.0231,0.0052,0.0139,-13.37,-24.62,37.31,13.23,-82.84,-148.55
10322,52.41528,-1.600742,184.76,3.74,2,202.8,24 / 27,1035121,2019-09-08 10:25:01:745,0.2676,-0.3609,9.8358,-0.0018,0.0035,9.8066,0.0023,0.0028,0.0102,-13.25,-24.87,37.56,14.12,-82.89,-148.18
10323,52.41528,-1.600742,184.76,3.74,2,202.8,24 / 27,1035222,2019-09-08 10:25:01:846,0.1387,-0.0082,9.9019,-0.0034,0.0042,9.8066,0.0092,0.0153,-0.0033,-13.5,-24.37,37.44,13.97,-82.92,-147.82
10324,52.41528,-1.600742,184.76,3.74,2,202.8,24 / 27,1035322,2019-09-08 10:25:01:946,0.2146,-0.0299,9.9289,-0.0018,0.0074,9.8066,-0.0056,0.0138,0.0008,-13.19,-24.0,37.75,14.93,-83.01,-147.36
10325,52.41528,-1.600742,184.76,3.74,2,202.8,24 / 27,1035422,2019-09-08 10:25:02:046,0.239,-0.1774,9.7277,-0.0004,0.0073,9.8066,0.0039,0.0136,0.002,-13.62,-24.81,37.56,14.01,-83.13,-146.89
10326,52.41528,-1.600742,184.76,3.74,2,202.8,24 / 27,1035521,2019-09-08 10:25:02:145,0.1789,0.0475,9.8318,-0.0007,0.007,9.8066,-0.0062,0.0321,-0.0128,-13.37,-24.5,37.94,15.7,-83.22,-146.61
10327,52.41528,-1.600742,184.76,3.74,2,202.8,24 / 27,1035621,2019-09-08 10:25:02:245,0.282,-0.0491,9.8481,0.0017,0.011,9.8066,-0.0006,0.0265,-0.0174,-13.94,-24.37,37.38,13.91,-83.3,-146.43
10328,52.41528,-1.600742,184.76,3.74,2,202.8,24 / 27,1035721,2019-09-08 10:25:02:345,0.1633,0.0597,9.8537,-0.0024,0.0058,9.8065,-0.0046,0.0425,-0.0019,-13.69,-25.0,37.19,14.23,-83.44,-146.15
10329,52.41528,-1.600742,184.76,3.74,2,202.8,25 / 28,1035821,2019-09-08 10:25:02:445,0.254,0.5921,10.0794,-0.003,0.0056,9.8066,0.0158,0.0249,-0.0026,-14.0,-24.94,37.38,14.74,-83.48,-145.67
10330,52.41528,-1.600742,184.76,3.74,2,202.8,25 / 28,1035921,2019-09-08 10:25:02:545,0.1576,0.3698,9.9777,-0.0036,-0.0003,9.8066,0.0043,0.0411,0.0083,-13.56,-24.56,37.25,15.37,-83.52,-145.09
10331,52.41528,-1.600742,184.76,3.74,2,202.8,25 / 28,1036021,2019-09-08 10:25:02:645,0.1542,0.2761,9.8123,-0.0051,0.007,9.8066,0.0201,0.0509,0.0069,-13.94,-24.81,37.06,16.38,-83.54,-144.14
10332,52.41528,-1.600742,184.76,3.74,2,202.8,25 / 28,1036121,2019-09-08 10:25:02:745,0.141,-0.3353,9.8546,-0.0046,0.001,9.8066,0.0225,0.0387,0.03,-13.5,-24.87,37.31,18.26,-83.54,-143.78
10333,52.41528,-1.600742,184.76,3.74,2,202.8,25 / 28,1036221,2019-09-08 10:25:02:845,0.2077,-0.3971,9.7662,-0.0042,0.0057,9.8066,0.0192,0.0254,0.0078,-13.5,-25.06,36.63,18.84,-83.52,-143.25
10334,52.41528,-1.600742,184.76,3.74,2,202.8,25 / 28,1036322,2019-09-08 10:25:02:946,0.2196,-0.2482,9.7747,-0.0023,0.0087,9.8066,0.0279,0.0537,-0.0014,-14.37,-25.06,36.88,17.9,-83.57,-142.72
10335,52.41528,-1.600742,184.76,3.74,2,202.8,25 / 28,1036422,2019-09-08 10:25:03:046,0.3769,-0.6497,9.8561,0.0026,0.0034,9.8066,-0.0177,0.0463,-0.0081,-14.37,-25.31,37.38,17.98,-83.62,-142.65
10336,52.41528,-1.600742,184.76,3.74,2,202.8,25 / 28,1036521,2019-09-08 10:25:03:145,0.3807,-0.5337,9.6926,0.0023,0.0044,9.8066,-0.0068,0.0488,0.0085,-13.62,-25.12,37.31,17.96,-83.73,-142.64
10337,52.41528,-1.600742,184.76,3.74,2,202.8,25 / 28,1036622,2019-09-08 10:25:03:246,0.2947,-0.4056,9.7832,-0.0049,0.0039,9.8066,0.0157,0.0462,0.0016,-14.81,-24.37,36.69,17.24,-83.79,-141.89
10338,52.41528,-1.600742,184.76,3.74,2,202.8,25 / 28,1036722,2019-09-08 10:25:03:346,0.2835,-0.4107,9.8519,-0.0031,0.0022,9.8066,0.0089,0.0552,0.0034,-14.5,-24.62,37.06,19.21,-83.82,-141.45
10339,52.41528,-1.600742,184.76,3.74,2,202.8,25 / 28,1036821,2019-09-08 10:25:03:445,0.2124,-0.4894,9.8948,-0.0029,0.0069,9.8066,-0.0146,0.0701,-0.0073,-14.37,-24.5,37.19,19.77,-83.84,-140.87
10340,52.41528,-1.600742,184.76,3.74,2,202.8,27 / 28,1036921,2019-09-08 10:25:03:545,0.1995,-0.0804,9.8102,0.0008,0.0056,9.8066,0.0149,0.0676,0.0075,-14.87,-24.62,37.19,18.66,-83.89,-140.59
10341,52.41528,-1.600742,184.76,3.74,2,202.8,27 / 28,1037021,2019-09-08 10:25:03:645,0.1054,0.2915,9.8787,0.0006,0.0016,9.8066,0.0075,0.045,0.0216,-14.44,-24.44,37.44,20.22,-83.95,-140.42
10342,52.41528,-1.600742,184.76,3.74,2,202.8,27 / 28,1037121,2019-09-08 10:25:03:745,-0.0252,0.1091,9.9412,-0.0033,0.0017,9.8066,0.0098,0.0563,0.0018,-15.06,-24.56,37.5,19.76,-83.97,-140.05
10343,52.41528,-1.600742,184.76,3.74,2,202.8,27 / 28,1037221,2019-09-08 10:25:03:845,0.1587,0.1159,9.8036,-0.0008,-0.0002,9.8066,0.0099,0.0547,0.0039,-14.87,-24.56,36.88,19.42,-83.98,-139.86
10344,52.41528,-1.600742,184.76,3.74,2,202.8,27 / 28,1037321,2019-09-08 10:25:03:945,-0.1809,0.3311,9.7866,-0.0027,0.001,9.8066,-0.0044,0.0466,-0.0009,-15.31,-24.69,37.56,20.3,-83.97,-139.54
10345,52.41528,-1.600742,184.76,3.74,2,202.8,27 / 28,1037421,2019-09-08 10:25:04:045,-0.1499,0.3712,10.008,-0.0018,0.0005,9.8065,0.0075,0.036,0.0113,-15.19,-24.69,37.06,20.12,-84.0,-139.2
10346,52.41528,-1.600742,184.76,3.74,2,202.8,27 / 28,1037522,2019-09-08 10:25:04:146,-0.1505,0.4242,9.9356,0.0,0.001,9.8066,-0.0108,0.0346,-0.0011,-15.25,-24.56,37.56,21.07,-84.03,-138.8
10347,52.41528,-1.600742,184.76,3.74,2,202.8,27 / 28,1037622,2019-09-08 10:25:04:246,-0.3077,0.435,9.8892,-0.0007,0.0048,9.8066,0.014,0.0211,-0.0068,-14.81,-24.75,37.75,21.58,-84.11,-138.31
10348,52.41528,-1.600742,184.76,3.74,2,202.8,27 / 28,1037721,2019-09-08 10:25:04:345,-0.2617,0.3635,9.9076,-0.0001,0.0024,9.8066,-0.0054,0.0135,0.0034,-14.62,-24.75,37.63,21.69,-84.13,-138.2
10349,52.41528,-1.600742,184.76,3.74,2,202.8,26 / 28,1037821,2019-09-08 10:25:04:445,-0.3883,0.3127,9.7665,-0.0016,0.0035,9.8066,0.0061,0.0031,0.0023,-15.44,-24.25,37.69,21.74,-84.16,-138.09
10350,52.41528,-1.600742,184.76,3.74,2,202.8,26 / 28,1037921,2019-09-08 10:25:04:545,-0.0397,0.1606,9.7944,-0.0004,0.005,9.8066,0.0261,0.0074,-0.0039,-15.37,-24.69,38.31,22.12,-84.21,-137.78
10351,52.41528,-1.600742,184.76,3.74,2,202.8,26 / 28,1038022,2019-09-08 10:25:04:646,-0.0832,0.4427,9.9802,-0.0009,0.003,9.8066,0.0044,0.0002,0.0106,-15.06,-24.56,38.06,22.18,-84.25,-137.71
10352,52.41528,-1.600742,184.76,3.74,2,202.8,26 / 28,1038122,2019-09-08 10:25:04:746,0.0123,-0.2135,9.6079,-0.0015,0.003,9.8066,-0.0138,-0.0124,-0.0012,-15.69,-24.62,37.75,20.84,-84.26,-137.66
10353,52.41528,-1.600742,184.76,3.74,2,202.8,26 / 28,1038221,2019-09-08 10:25:04:845,0.2452,-0.365,10.0365,0.005,-0.0019,9.8066,0.0196,-0.0049,-0.0059,-15.25,-24.12,37.56,22.14,-84.27,-137.69
10354,52.41528,-1.600742,184.76,3.74,2,202.8,26 / 28,1038321,2019-09-08 10:25:04:945,0.3521,-0.7587,9.6768,0.0054,-0.0075,9.8066,0.0091,-0.0126,0.0028,-15.31,-24.62,37.81,21.25,-84.25,-138.58
10355,52.41528,-1.600742,184.76,3.74,2,202.8,26 / 28,1038421,2019-09-08 10:25:05:045,0.2627,-0.1671,9.8901,-0.0021,0.0003,9.8066,-0.0174,-0.0064,-0.0006,-15.44,-24.37,37.88,20.93,-84.21,-138.84
10356,52.41528,-1.600742,184.76,3.74,2,202.8,26 / 28,1038521,2019-09-08 10:25:05:145,0.083,-0.5364,9.5573,-0.0007,0.0036,9.8066,0.0145,-0.0126,0.001,-14.5,-24.0,38.06,22.71,-84.23,-138.49
10357,52.41528,-1.600742,184.76,3.74,2,202.8,26 / 28,1038621,2019-09-08 10:25:05:245,0.1199,-0.0985,10.2187,-0.0009,-0.0004,9.8065,0.0223,-0.0091,0.0029,-15.31,-24.25,38.0,21.44,-84.26,-138.35
10358,52.41528,-1.600742,184.76,3.74,2,202.8,26 / 28,1038721,2019-09-08 10:25:05:345,0.1191,-0.6971,9.5008,0.0002,0.0002,9.8066,-0.0136,-0.0037,0.0014,-15.19,-24.69,37.94,21.42,-84.24,-138.42
10359,52.41528,-1.600742,184.76,3.74,2,202.8,24 / 26,1038821,2019-09-08 10:25:05:445,0.291,-0.5819,9.6002,-0.0002,0.0,9.8066,0.0046,-0.0182,0.0075,-15.12,-24.12,38.31,21.23,-84.24,-138.55
10360,52.41528,-1.600742,184.76,3.74,2,202.8,24 / 26,1038922,2019-09-08 10:25:05:546,0.1382,-0.3744,9.861,-0.0022,-0.0002,9.8066,0.0236,-0.0183,0.0114,-15.44,-24.0,37.94,21.46,-84.24,-138.33
10361,52.41528,-1.600742,184.76,3.74,2,202.8,24 / 26,1039021,2019-09-08 10:25:05:645,0.1742,-0.2576,9.9184,0.0008,-0.002,9.8066,-0.0099,0.0,0.0055,-15.37,-24.44,38.0,21.45,-84.23,-138.35
10362,52.41528,-1.600742,184.76,3.74,2,202.8,24 / 26,1039122,2019-09-08 10:25:05:746,0.2956,-0.6113,9.6649,0.0015,-0.0007,9.8066,-0.0325,0.0117,-0.0104,-15.56,-23.94,37.75,19.86,-84.23,-138.53
10363,52.41528,-1.600742,184.76,3.74,2,202.8,24 / 26,1039222,2019-09-08 10:25:05:846,0.3568,-0.2243,10.124,0.0007,0.0021,9.8066,0.0125,-0.0105,0.0181,-14.62,-24.0,38.0,21.2,-84.24,-138.58
10364,52.41528,-1.600742,184.76,3.74,2,202.8,24 / 26,1039322,2019-09-08 10:25:05:946,0.2788,-0.8037,9.6062,0.0012,-0.0008,9.8066,0.0214,-0.0087,0.0201,-14.69,-24.25,38.0,21.16,-84.26,-138.61
10365,52.41528,-1.600742,184.76,3.74,2,202.8,24 / 26,1039421,2019-09-08 10:25:06:045,0.2985,-0.4451,10.0447,0.0002,-0.0041,9.8066,-0.0139,0.0089,-0.0053,-15.19,-24.81,38.38,21.11,-84.22,-138.72
10366,52.41528,-1.600742,184.76,3.74,2,202.8,24 / 26,1039521,2019-09-08 10:25:06:145,0.4034,-1.0013,9.6585,0.0035,-0.0038,9.8065,0.0016,-0.0033,-0.0042,-15.06,-24.0,38.56,21.21,-84.19,-139.05
10367,52.41528,-1.600742,184.76,3.74,2,202.8,24 / 26,1039621,2019-09-08 10:25:06:245,0.3284,-0.6697,9.7832,0.0018,-0.0016,9.8066,0.0145,0.0189,-0.0074,-14.75,-24.31,38.44,20.32,-84.18,-139.43
10368,52.41528,-1.600742,184.76,3.74,2,202.8,24 / 26,1039722,2019-09-08 10:25:06:346,0.5236,-1.0645,9.8374,0.0018,0.002,9.8066,0.0082,0.0092,-0.0201,-15.69,-23.87,38.13,18.63,-84.17,-139.71
10369,52.41528,-1.600742,184.76,3.74,2,202.8,24 / 26,1039821,2019-09-08 10:25:06:445,0.5439,-1.071,9.6858,0.0009,0.001,9.8066,0.0009,0.0163,0.0002,-15.62,-23.62,37.94,18.13,-84.17,-140.18
10370,52.41528,-1.600742,184.76,3.74,2,202.8,24 / 26,1039921,2019-09-08 10:25:06:545,0.4034,-0.6533,9.8365,-0.0003,0.0,9.8066,-0.0043,0.0306,0.0083,-15.94,-23.69,38.0,18.08,-84.17,-140.23
10371,52.41528,-1.600742,184.76,3.74,2,202.8,24 / 26,1040021,2019-09-08 10:25:06:645,0.2509,-0.5353,9.8814,-0.0023,-0.0015,9.8066,0.0163,0.02,0.0019,-15.87,-23.87,37.44,17.55,-84.17,-140.19
10372,52.41528,-1.600742,184.76,3.74,2,202.8,24 / 26,1040121,2019-09-08 10:25:06:745,0.3151,-0.8515,9.7283,0.0014,-0.0018,9.8066,0.0114,0.0449,0.0114,-15.87,-23.56,37.5,18.15,-84.15,-140.17
10373,52.41528,-1.600742,184.76,3.74,2,202.8,24 / 26,1040221,2019-09-08 10:25:06:845,0.1879,-0.4617,9.8547,-0.0018,0.0009,9.8066,-0.0104,0.0308,0.0048,-15.87,-23.69,37.31,17.97,-84.14,-139.8
10374,52.41528,-1.600742,184.76,3.74,2,202.8,24 / 26,1040322,2019-09-08 10:25:06:946,0.0721,-0.1528,9.9024,-0.0029,0.0006,9.8066,-0.0273,0.0394,-0.0113,-15.81,-23.75,37.69,18.96,-84.14,-139.4
10375,52.41528,-1.600742,184.76,3.74,2,202.8,24 / 26,1040422,2019-09-08 10:25:07:046,0.0316,0.0429,9.7907,-0.0013,0.0039,9.8066,0.0075,0.0264,0.0117,-15.5,-24.44,37.19,20.08,-84.18,-139.15
10376,52.41528,-1.600742,184.76,3.74,2,202.8,24 / 26,1040521,2019-09-08 10:25:07:145,-0.122,0.0054,9.738,-0.0031,-0.0023,9.8066,0.0001,0.0277,0.0181,-15.87,-24.62,37.94,19.67,-84.17,-138.77
10377,52.41528,-1.600742,184.76,3.74,2,202.8,24 / 26,1040621,2019-09-08 10:25:07:245,-0.0843,0.0824,9.9676,-0.0029,-0.0003,9.8066,0.0208,0.0143,0.0133,-15.94,-24.56,37.44,19.36,-84.14,-138.55
10378,52.41528,-1.600742,184.76,3.74,2,202.8,24 / 26,1040721,2019-09-08 10:25:07:345,-0.1869,0.1915,9.7624,-0.0028,-0.0021,9.8066,-0.0021,0.0274,-0.0041,-15.75,-24.94,37.69,20.2,-84.1,-138.3
10379,52.41528,-1.600742,184.76,3.74,2,202.8,24 / 26,1040822,2019-09-08 10:25:07:446,-0.1295,0.2339,10.0577,0.0013,-0.0008,9.8066,0.0072,0.0058,0.0107,-15.56,-24.5,38.31,19.98,-84.09,-138.46
10380,52.41528,-1.600742,184.76,3.74,2,202.8,26 / 29,1040922,2019-09-08 10:25:07:546,-0.2231,0.1775,9.7058,-0.0005,-0.0046,9.8066,0.0078,-0.0001,0.01,-16.0,-24.87,38.0,20.08,-84.07,-138.42
10381,52.41528,-1.600742,184.76,3.74,2,202.8,26 / 29,1041021,2019-09-08 10:25:07:645,-0.0855,0.2007,10.0031,0.0014,-0.0025,9.8066,-0.0006,0.0124,-0.0014,-15.87,-24.75,38.19,19.93,-84.03,-138.57
10382,52.41528,-1.600742,184.76,3.74,2,202.8,26 / 29,1041121,2019-09-08 10:25:07:745,-0.0425,-0.2125,9.5881,0.0014,-0.0033,9.8066,-0.0097,-0.0048,0.0034,-16.0,-25.31,38.25,19.58,-84.0,-138.91
10383,52.41528,-1.600742,184.76,3.74,2,202.8,26 / 29,1041222,2019-09-08 10:25:07:846,-0.0828,0.0834,10.0517,-0.0012,-0.0017,9.8066,0.0277,-0.0015,0.0035,-16.25,-24.44,38.38,19.52,-83.99,-138.91
10384,52.41528,-1.600742,184.76,3.74,2,202.8,26 / 29,1041321,2019-09-08 10:25:07:945,-0.086,-0.2641,9.7571,0.0015,-0.0034,9.8065,-0.0064,0.0034,0.0009,-16.12,-24.25,38.13,19.28,-83.95,-139.15
10385,52.41528,-1.600742,184.76,3.74,2,202.8,26 / 29,1041421,2019-09-08 10:25:08:045,0.2437,-0.0195,10.0718,0.0003,-0.0003,9.8066,0.0074,-0.0155,0.0092,-16.56,-24.81,38.5,18.32,-83.94,-139.35
10386,52.41528,-1.600742,184.76,3.74,2,202.8,26 / 29,1041521,2019-09-08 10:25:08:145,0.3193,-0.5048,9.6408,0.0013,-0.0021,9.8065,0.0219,-0.0039,-0.0001,-16.19,-24.37,38.31,18.88,-83.93,-139.53
10387,52.41528,-1.600742,184.76,3.74,2,202.8,26 / 29,1041621,2019-09-08 10:25:08:245,0.271,-0.2516,9.9039,0.0019,-0.004,9.8066,-0.0045,-0.0043,0.0091,-16.56,-24.5,37.56,17.13,-83.87,-139.9
10388,52.41528,-1.600742,184.76,3.74,2,202.8,26 / 29,1041722,2019-09-08 10:25:08:346,0.0565,-0.4976,9.7185,0.0005,-0.0018,9.8065,0.021,-0.0173,0.0171,-15.94,-24.69,38.31,18.29,-83.83,-140.14
10389,52.41528,-1.600742,184.76,3.74,2,202.8,28 / 29,1041822,2019-09-08 10:25:08:446,0.0134,-0.0766,9.9788,0.0002,-0.0023,9.8066,-0.0053,0.0039,0.0005,-15.81,-25.19,38.19,18.16,-83.8,-140.27
10390,52.41528,-1.600742,184.76,3.74,2,202.8,28 / 29,1041922,2019-09-08 10:25:08:546,0.1525,-0.4047,9.8041,0.0009,-0.0003,9.8066,-0.0094,-0.0005,-0.0006,-15.62,-25.31,38.0,18.03,-83.8,-140.4
10391,52.41528,-1.600742,184.76,3.74,2,202.8,28 / 29,1042021,2019-09-08 10:25:08:645,0.1588,-0.1104,9.8343,0.0006,-0.001,9.8066,0.0171,-0.0163,0.0115,-16.25,-24.5,37.81,17.9,-83.8,-140.47
10392,52.41528,-1.600742,184.76,3.74,2,202.8,28 / 29,1042122,2019-09-08 10:25:08:746,0.2238,-0.179,10.0051,-0.0005,-0.0015,9.8066,-0.0164,0.0016,-0.0034,-16.31,-24.19,38.13,17.81,-83.78,-140.56
10393,52.41528,-1.600742,184.76,3.74,2,202.8,28 / 29,1042222,2019-09-08 10:25:08:846,0.1883,-0.3988,9.6444,0.0014,0.0001,9.8066,0.007,-0.0095,0.0052,-16.0,-24.62,37.94,17.76,-83.77,-140.66
10394,52.41528,-1.600742,184.76,3.74,2,202.8,28 / 29,1042322,2019-09-08 10:25:08:946,0.1437,-0.1501,10.0214,0.0016,-0.001,9.8066,0.0095,-0.0056,0.0185,-16.19,-24.5,38.38,17.54,-83.79,-140.81
10395,52.41528,-1.600742,184.76,3.74,2,202.8,28 / 29,1042421,2019-09-08 10:25:09:045,0.061,-0.1291,9.8237,-0.0007,0.0005,9.8066,0.0247,-0.0108,0.01,-16.0,-25.25,38.06,17.51,-83.77,-140.89
10396,52.41528,-1.600742,184.76,3.74,2,202.8,28 / 29,1042521,2019-09-08 10:25:09:145,0.0291,-0.0559,9.9019,0.0007,0.0012,9.8066,-0.0114,-0.0126,-0.0013,-15.94,-24.81,37.75,17.52,-83.78,-140.87
10397,52.41528,-1.600742,184.76,3.74,2,202.8,28 / 29,1042621,2019-09-08 10:25:09:245,0.232,-0.4913,9.7616,0.0025,-0.0022,9.8066,0.0154,-0.0086,-0.0049,-16.44,-24.56,38.06,17.31,-83.78,-141.08
10398,52.41528,-1.600742,184.76,3.74,2,202.8,28 / 29,1042721,2019-09-08 10:25:09:345,0.1409,-0.143,9.7578,0.0014,0.0015,9.8066,-0.003,-0.0031,0.0104,-16.0,-24.62,38.25,17.13,-83.78,-141.24
10399,52.41528,-1.600742,184.76,3.74,2,202.8,26 / 28,1042821,2019-09-08 10:25:09:445,0.1683,-0.1126,10.052,0.0008,-0.0006,9.8066,0.0034,-0.0113,0.0068,-16.31,-24.81,39.0,17.59,-83.79,-141.31
10400,52.41528,-1.600742,184.76,3.74,2,202.8,26 / 28,1042922,2019-09-08 10:25:09:546,0.1599,-0.2428,9.9725,0.0003,0.0006,9.8066,-0.0008,0.0026,0.003,-16.19,-24.75,37.69,16.93,-83.79,-141.43
10401,52.41528,-1.600742,184.76,3.74,2,202.8,26 / 28,1043022,2019-09-08 10:25:09:646,0.1072,-0.1109,9.8835,0.0003,0.0015,9.8066,-0.0236,-0.0035,0.0028,-16.12,-24.37,37.94,16.78,-83.81,-141.52
10402,52.41528,-1.600742,184.76,3.74,2,202.8,26 / 28,1043121,2019-09-08 10:25:09:745,0.172,-0.3676,9.8805,0.0009,-0.0003,9.8065,0.0231,-0.0175,0.0083,-16.19,-25.06,38.44,16.66,-83.81,-141.68
10403,52.41528,-1.600742,184.76,3.74,2,202.8,26 / 28,1043221,2019-09-08 10:25:09:845,0.052,-0.3,9.7249,0.0007,0.0006,9.8065,0.0227,-0.0078,0.0142,-16.12,-25.0,37.69,16.58,-83.79,-141.75
10404,52.41528,-1.600742,184.76,3.74,2,202.8,26 / 28,1043321,2019-09-08 10:25:09:945,0.2135,-0.4352,9.6983,-0.0007,0.004,9.8066,-0.0214,-0.0071,0.0029,-16.0,-25.31,38.44,16.64,-83.83,-141.69
10405,52.41528,-1.600742,184.76,3.74,2,202.8,26 / 28,1043421,2019-09-08 10:25:10:045,0.1009,-0.0775,9.8714,0.0012,-0.0014,9.8066,0.0077,-0.0167,-0.0029,-16.12,-25.25,38.13,16.37,-83.83,-141.94
10406,52.41528,-1.600742,184.76,3.74,2,202.8,26 / 28,1043521,2019-09-08 10:25:10:145,0.1987,-0.2279,9.9491,-0.0017,0.0006,9.8066,0.0172,-0.0016,0.0188,-16.12,-24.56,38.06,16.33,-83.82,-141.98
10407,52.41528,-1.600742,184.76,3.74,2,202.8,26 / 28,1043622,2019-09-08 10:25:10:246,-0.0363,-0.0641,9.8775,0.0013,0.0001,9.8066,-0.0207,-0.013,0.007,-16.37,-24.5,38.06,16.3,-83.84,-141.96
10408,52.41528,-1.600742,184.76,3.74,2,202.8,26 / 28,1043722,2019-09-08 10:25:10:346,0.0662,-0.3602,9.9587,0.0019,-0.0024,9.8066,0.0247,-0.0139,-0.0003,-16.19,-25.06,37.75,16.12,-83.83,-142.17
10409,52.41528,-1.600742,184.76,3.74,2,202.8,26 / 27,1043822,2019-09-08 10:25:10:446,0.0173,-0.4545,9.6101,0.0004,0.0005,9.8066,0.0144,0.0023,0.0097,-16.31,-24.25,38.06,16.08,-83.83,-142.16
10410,52.41528,-1.600742,184.76,3.74,2,202.8,26 / 27,1043922,2019-09-08 10:25:10:546,0.1991,-0.1675,10.0346,0.0022,-0.0006,9.8066,-0.0018,-0.0184,0.0005,-16.0,-25.25,37.88,16.01,-83.85,-142.27
10411,52.41528,-1.600742,184.76,3.74,2,202.8,26 / 27,1044021,2019-09-08 10:25:10:645,0.133,-0.4474,9.5665,0.0002,-0.0007,9.8066,0.0313,-0.0171,0.0039,-16.44,-24.94,38.63,16.4,-83.85,-142.41
10412,52.41528,-1.600742,184.76,3.74,2,202.8,26 / 27,1044121,2019-09-08 10:25:10:745,0.1503,0.0414,10.1961,0.0006,0.0006,9.8066,-0.0158,-0.0031,0.0046,-16.06,-24.69,37.69,15.91,-83.86,-142.36
10413,52.41528,-1.600742,184.76,3.74,2,202.8,26 / 27,1044222,2019-09-08 10:25:10:846,0.0351,-0.4548,9.6042,0.0008,-0.0002,9.8066,-0.0079,-0.0133,-0.0011,-15.94,-24.62,38.56,16.39,-83.88,-142.41
10414,52.41528,-1.600742,184.76,3.74,2,202.8,26 / 27,1044322,2019-09-08 10:25:10:946,0.0771,-0.1018,10.0969,0.0006,-0.0023,9.8066,0.0177,-0.0036,0.0082,-15.44,-24.12,38.0,17.02,-83.87,-142.58
10415,52.41528,-1.600742,184.76,3.74,2,202.8,26 / 27,1044422,2019-09-08 10:25:11:046,0.0897,-0.4668,9.6281,0.0004,0.0031,9.8066,-0.0053,-0.0056,0.0074,-15.81,-24.5,38.19,15.72,-83.88,-142.5
10416,52.41528,-1.600742,184.76,3.74,2,202.8,26 / 27,1044522,2019-09-08 10:25:11:146,0.1536,0.0239,10.1144,0.0027,-0.0013,9.8066,0.013,-0.0087,0.0044,-16.44,-24.12,38.25,15.5,-83.9,-142.7
10417,52.41528,-1.600742,184.76,3.74,2,202.8,26 / 27,1044622,2019-09-08 10:25:11:246,0.1609,-0.464,9.7299,0.0007,0.0035,9.8066,0.0076,-0.0014,0.0041,-15.75,-24.62,37.88,15.51,-83.9,-142.72
10418,52.41528,-1.600742,184.76,3.74,2,202.8,26 / 27,1044721,2019-09-08 10:25:11:345,0.075,-0.1253,9.8651,-0.0003,0.0003,9.8066,-0.0052,-0.0126,0.0054,-15.94,-23.5,37.63,15.52,-83.92,-142.63
10419,52.41528,-1.600742,184.76,3.74,2,202.8,26 / 27,1044824,2019-09-08 10:25:11:448,0.0565,-0.4601,9.8127,0.0003,0.0001,9.8066,0.0249,-0.0162,0.0134,-15.56,-24.12,38.5,15.96,-83.92,-142.77
10420,52.41528,-1.600742,184.76,3.74,2,202.8,27 / 29,1044921,2019-09-08 10:25:11:545,-0.0069,-0.2814,9.7375,0.0007,0.0025,9.8066,-0.022,0.002,-0.0044,-15.12,-23.94,38.69,17.27,-83.94,-142.81
10421,52.41528,-1.600742,184.76,3.74,2,202.8,27 / 29,1045021,2019-09-08 10:25:11:645,0.0968,-0.131,10.0709,-0.0006,-0.0012,9.8066,-0.0045,-0.0154,0.0087,-15.44,-23.62,38.06,16.64,-83.94,-142.93
10422,52.41528,-1.600742,184.76,3.74,2,202.8,27 / 29,1045122,2019-09-08 10:25:11:746,0.1023,-0.36,9.6529,0.0003,0.0024,9.8066,0.0099,-0.0052,0.0072,-15.94,-23.81,38.38,15.15,-83.93,-143.02
10423,52.41528,-1.600742,184.76,3.74,2,202.8,27 / 29,1045222,2019-09-08 10:25:11:846,0.1379,-0.067,10.1438,0.0004,-0.0009,9.8065,-0.0233,-0.0049,0.0018,-16.44,-23.87,38.88,15.64,-83.96,-143.06
10424,52.41528,-1.600742,184.76,3.74,2,202.8,27 / 29,1045322,2019-09-08 10:25:11:946,0.157,-0.168,10.0055,0.0014,-0.0031,9.8065,0.0356,-0.0249,0.0127,-16.0,-24.31,38.69,15.48,-83.94,-143.22
10425,52.41528,-1.600742,184.76,3.74,2,202.8,27 / 29,1045421,2019-09-08 10:25:12:045,0.1,-0.4269,9.606,0.0007,0.0007,9.8066,0.019,-0.009,0.0066,-16.12,-24.25,38.31,14.82,-83.94,-143.32
10426,52.41528,-1.600742,184.76,3.74,2,202.8,27 / 29,1045521,2019-09-08 10:25:12:145,0.0992,-0.4024,9.8143,0.0009,0.0008,9.8066,-0.0255,0.0001,0.0005,-16.56,-25.25,38.13,13.45,-83.97,-143.36
10427,52.41528,-1.600742,184.76,3.74,2,202.8,27 / 29,1045621,2019-09-08 10:25:12:245,0.0047,-0.2556,9.9125,0.0011,-0.003,9.8066,0.0155,-0.0212,0.0059,-16.12,-24.06,38.38,14.76,-83.96,-143.38
10428,52.41528,-1.600742,184.76,3.74,2,202.8,27 / 29,1045721,2019-09-08 10:25:12:345,0.1913,-0.4724,9.6498,0.0018,0.0008,9.8066,0.0475,-0.0155,0.0155,-15.81,-24.37,38.25,14.48,-83.95,-143.65
10429,52.41528,-1.600742,184.76,3.74,2,202.8,26 / 29,1045823,2019-09-08 10:25:12:447,0.1828,0.0068,10.3509,-0.0005,0.0019,9.8066,0.0086,-0.0076,0.024,-16.0,-24.31,38.31,14.5,-83.97,-143.62
10430,52.41528,-1.600742,184.76,3.74,2,202.8,26 / 29,1045921,2019-09-08 10:25:12:545,0.3274,-0.478,9.7814,0.0028,0.0001,9.8066,-0.0033,-0.0077,-0.0086,-15.56,-24.12,38.81,14.87,-83.99,-143.78
10431,52.41528,-1.600742,184.76,3.74,2,202.8,26 / 29,1046022,2019-09-08 10:25:12:646,0.3247,-0.8052,9.7561,-0.0001,-0.0005,9.8066,0.0145,0.0077,-0.002,-15.87,-24.12,37.94,14.06,-83.97,-144.04
10432,52.41528,-1.600742,184.76,3.74,2,202.8,26 / 29,1046121,2019-09-08 10:25:12:745,0.2398,-0.3462,9.8645,0.0022,-0.0003,9.8066,0.0045,-0.0047,0.0009,-16.44,-24.69,38.19,13.77,-83.96,-144.34
10433,52.41528,-1.600742,184.76,3.74,2,202.8,26 / 29,1046221,2019-09-08 10:25:12:845,0.6465,-1.2213,9.9254,0.0047,-0.0035,9.8066,0.0212,-0.0072,0.002,-16.5,-24.31,38.63,13.84,-83.91,-144.76
10434,52.41528,-1.600742,184.76,3.74,2,202.8,26 / 29,1046322,2019-09-08 10:25:12:946,0.5718,-0.7493,9.9727,0.0057,-0.0054,9.8066,0.011,0.0366,0.0002,-16.62,-24.19,38.81,11.45,-83.85,-145.75
10435,52.41528,-1.600742,184.76,3.74,2,202.8,26 / 29,1046421,2019-09-08 10:25:13:045,1.0127,-1.8758,9.5915,0.003,0.0002,9.8066,0.0006,0.013,0.0109,-15.81,-24.12,38.88,11.77,-83.77,-146.71
10436,52.41528,-1.600742,184.76,3.74,2,202.8,26 / 29,1046522,2019-09-08 10:25:13:146,0.744,-0.9941,9.8077,0.0051,-0.0068,9.8066,0.029,0.0543,-0.0109,-16.44,-24.12,38.63,10.8,-83.69,-147.63
10437,52.41528,-1.600742,184.76,3.74,2,202.8,26 / 29,1046622,2019-09-08 10:25:13:246,1.0785,-1.5886,9.7894,0.0042,-0.0027,9.8066,0.022,0.0666,-0.0073,-16.56,-24.81,38.38,8.31,-83.67,-148.18
10438,52.41528,-1.600742,184.76,3.74,2,202.8,26 / 29,1046721,2019-09-08 10:25:13:345,1.0019,-1.2211,9.7661,0.0027,-0.0016,9.8066,-0.0073,0.0929,-0.0163,-16.75,-24.31,39.19,8.25,-83.65,-148.77
10439,52.41528,-1.600742,184.76,3.74,2,202.8,26 / 29,1046821,2019-09-08 10:25:13:445,1.0853,-0.9409,9.7407,0.0051,0.0024,9.8066,0.0069,0.1276,-0.0237,-18.12,-24.44,38.25,5.86,-83.67,-149.2
10440,52.41528,-1.600742,184.76,3.74,2,202.8,26 / 30,1046921,2019-09-08 10:25:13:545,1.4297,-1.759,9.8051,0.006,0.0075,9.8066,0.0026,0.1488,-0.0297,-18.25,-24.19,39.0,5.53,-83.73,-150.07
10441,52.41528,-1.600742,184.76,3.74,2,202.8,26 / 30,1047021,2019-09-08 10:25:13:645,1.5699,-1.6242,9.8253,0.0182,0.0017,9.8065,0.0076,0.1837,-0.0558,-18.62,-23.87,39.06,2.94,-83.74,-151.28
10442,52.41528,-1.600742,184.76,3.74,2,202.8,26 / 30,1047121,2019-09-08 10:25:13:745,2.0949,-1.4964,9.7239,0.0231,0.0079,9.8065,0.0047,0.2431,-0.0625,-18.94,-23.81,39.19,359.45,-83.86,-154.54
10443,52.41528,-1.600742,184.76,3.74,2,202.8,26 / 30,1047222,2019-09-08 10:25:13:846,1.7231,-0.6829,10.0318,-0.0019,0.0035,9.8066,0.0076,0.2758,-0.0275,-18.69,-23.94,38.56,358.29,-83.93,-155.62
10444,52.41528,-1.600742,184.76,3.74,2,202.8,26 / 30,1047322,2019-09-08 10:25:13:946,1.7529,-1.7577,9.6367,0.0007,0.0071,9.8066,-0.0448,0.3359,-0.0347,-18.75,-24.0,38.75,358.47,-84.01,-155.46
10445,52.41528,-1.600742,184.76,3.74,2,202.8,26 / 30,1047422,2019-09-08 10:25:14:046,1.8333,-0.728,9.4564,-0.0014,0.0178,9.8066,0.0272,0.3756,-0.0643,-18.56,-24.06,38.19,357.11,-84.13,-156.14
10446,52.41528,-1.600742,184.76,3.74,2,202.8,26 / 30,1047521,2019-09-08 10:25:14:145,1.6396,-0.6227,9.9144,-0.0025,0.0028,9.8066,0.0315,0.3442,0.0201,-19.19,-24.19,38.69,357.82,-84.22,-156.07
10447,52.41528,-1.600742,184.76,3.74,2,202.8,26 / 30,1047621,2019-09-08 10:25:14:245,2.3467,-1.1039,9.8473,-0.0048,-0.0137,9.8066,0.0326,0.4147,-0.0077,-20.44,-23.69,38.25,356.32,-84.16,-155.69
10448,52.41528,-1.600742,184.76,3.74,2,202.8,26 / 30,1047722,2019-09-08 10:25:14:346,2.0383,-1.6063,10.4899,-0.009,-0.0212,9.8066,0.0041,0.4039,0.0013,-21.12,-24.12,38.44,356.74,-83.94,-154.13
10449,52.41528,-1.600742,184.76,3.74,2,202.8,26 / 30,1047821,2019-09-08 10:25:14:445,1.7561,-1.6011,9.3812,-0.0214,0.0112,9.8066,0.0567,0.4365,-0.0472,-23.0,-24.44,38.13,356.9,-84.09,-151.72
10450,52.415195,-1.600776,184.42,2.97,2,172.33,27 / 29,1047921,2019-09-08 10:25:14:545,2.1873,-1.1339,9.8627,0.0057,-0.0044,9.8066,0.0055,0.4413,0.0167,-23.31,-24.69,37.88,356.56,-84.06,-152.03
10451,52.415195,-1.600776,184.42,2.97,2,172.33,27 / 29,1048022,2019-09-08 10:25:14:646,1.19,-1.955,10.0798,0.0565,0.005,9.8064,0.1406,0.515,-0.2081,-24.12,-23.94,37.94,353.6,-84.05,-153.74
10452,52.415195,-1.600776,184.42,2.97,2,172.33,27 / 29,1048121,2019-09-08 10:25:14:745,2.8607,-0.8457,9.0795,0.0547,0.0113,9.8064,0.1076,0.4768,-0.0628,-24.19,-23.94,38.31,342.67,-83.95,-164.0
10453,52.415195,-1.600776,184.42,2.97,2,172.33,27 / 29,1048221,2019-09-08 10:25:14:845,1.8893,0.5334,9.9654,0.0253,0.0108,9.8065,0.0553,0.5041,-0.0918,-24.69,-23.87,37.25,337.6,-83.75,-166.95
10454,52.415195,-1.600776,184.42,2.97,2,172.33,27 / 29,1048321,2019-09-08 10:25:14:945,2.7752,0.1802,9.71,0.0131,0.0073,9.8066,0.0879,0.5256,-0.0835,-25.87,-23.69,37.88,332.86,-83.71,-171.12
10455,52.415195,-1.600776,184.42,2.97,2,172.33,27 / 29,1048421,2019-09-08 10:25:15:045,1.6192,0.1889,9.6066,-0.0094,-0.0086,9.8066,0.0197,0.5327,-0.0464,-26.69,-24.12,36.5,330.77,-83.56,-171.31
10456,52.415195,-1.600776,184.42,2.97,2,172.33,27 / 29,1048522,2019-09-08 10:25:15:146,1.8545,-1.4461,9.5353,-0.0094,0.0004,9.8066,0.0169,0.4396,0.0246,-27.19,-24.31,36.69,331.63,-83.57,-170.5
10457,52.415195,-1.600776,184.42,2.97,2,172.33,27 / 29,1048621,2019-09-08 10:25:15:245,2.5754,0.3124,9.4418,-0.0023,-0.005,9.8066,-0.033,0.4959,-0.0227,-28.12,-23.69,36.5,331.52,-83.64,-169.65
10458,52.415195,-1.600776,184.42,2.97,2,172.33,27 / 29,1048721,2019-09-08 10:25:15:345,2.1927,0.6549,10.389,0.0035,-0.0224,9.8066,-0.1256,0.4964,-0.0795,-29.5,-23.37,35.44,330.57,-83.52,-168.02
10459,52.415195,-1.600776,184.42,2.97,2,172.33,27 / 29,1048821,2019-09-08 10:25:15:445,2.7417,-0.9229,10.3541,0.0116,0.0125,9.8066,0.0955,0.3973,0.0129,-29.81,-23.62,35.31,328.95,-83.57,-168.56
10460,52.415195,-1.600776,184.42,2.97,2,172.33,27 / 29,1048921,2019-09-08 10:25:15:545,1.4344,0.2392,11.3884,0.0033,-0.0112,9.8066,0.1062,0.4617,-0.1194,-29.62,-24.12,35.0,328.23,-83.52,-169.23
10461,52.415195,-1.600776,184.42,2.97,2,172.33,27 / 29,1049022,2019-09-08 10:25:15:646,3.7752,0.7055,8.726,0.0023,-0.0001,9.8066,0.0022,0.4231,0.021,-31.25,-23.44,34.25,323.33,-83.38,-172.15
10462,52.415195,-1.600776,184.42,2.97,2,172.33,27 / 29,1049121,2019-09-08 10:25:15:745,3.3475,-0.8784,8.5221,-0.0191,-0.0023,9.8066,0.1011,0.44,0.1421,-30.75,-23.19,34.31,325.59,-83.17,-169.93
10463,52.415195,-1.600776,184.42,2.97,2,172.33,27 / 29,1049222,2019-09-08 10:25:15:846,0.893,-3.0599,10.1724,-0.0063,-0.0625,9.8064,-0.0538,0.501,0.0108,-31.94,-23.25,34.13,326.37,-82.92,-168.23
10464,52.415195,-1.600776,184.42,2.97,2,172.33,27 / 29,1049322,2019-09-08 10:25:15:946,1.3265,-1.3864,10.2685,0.0185,-0.0196,9.8065,-0.0925,0.2842,0.1136,-32.62,-22.75,33.25,326.66,-82.53,-166.09
10465,52.415195,-1.600776,184.42,2.97,2,172.33,27 / 29,1049422,2019-09-08 10:25:16:046,0.7299,-0.234,10.2261,-0.0212,0.0373,9.8065,0.0424,0.3249,-0.0968,-32.25,-22.5,32.81,328.34,-82.54,-165.45
10466,52.415195,-1.600776,184.42,2.97,2,172.33,27 / 29,1049522,2019-09-08 10:25:16:146,1.1176,-0.838,9.9019,-0.0535,0.0724,9.8062,0.082,0.1887,-0.0295,-31.75,-23.19,32.69,327.51,-83.29,-166.39
10467,52.415195,-1.600776,184.42,2.97,2,172.33,27 / 29,1049621,2019-09-08 10:25:16:245,1.6894,-0.0274,10.1449,0.0391,-0.0189,9.8065,-0.0855,0.2151,-0.0461,-32.19,-23.87,31.19,322.52,-83.18,-169.13
10468,52.415195,-1.600776,184.42,2.97,2,172.33,27 / 29,1049722,2019-09-08 10:25:16:346,2.2252,0.5584,9.5141,0.027,-0.0528,9.8064,-0.0151,0.2623,-0.1039,-32.94,-22.81,30.94,322.16,-82.87,-168.61
10469,52.415195,-1.600776,184.42,2.97,2,172.33,27 / 29,1049821,2019-09-08 10:25:16:445,1.6088,-1.023,9.6806,-0.015,-0.0172,9.8066,0.1063,0.1764,-0.0036,-33.31,-22.87,31.31,323.09,-82.52,-167.6
10470,52.415195,-1.600776,184.42,2.97,2,172.33,27 / 28,1049921,2019-09-08 10:25:16:545,1.7438,-1.5213,10.4154,-0.0199,-0.014,9.8065,0.0761,0.1716,-0.0194,-34.0,-23.0,29.69,324.16,-82.3,-164.73
10471,52.415195,-1.600776,184.42,2.97,2,172.33,27 / 28,1050021,2019-09-08 10:25:16:645,1.2379,-1.5617,10.5627,0.0056,-0.0175,9.8066,-0.0536,0.1238,-0.0087,-34.44,-23.06,30.31,324.96,-82.2,-163.94
10472,52.415195,-1.600776,184.42,2.97,2,172.33,27 / 28,1050122,2019-09-08 10:25:16:746,0.1426,-0.8265,9.2734,-0.0014,-0.0016,9.8066,-0.0468,0.06,0.018,-34.44,-23.25,30.19,325.65,-82.22,-163.3
10473,52.415195,-1.600776,184.42,2.97,2,172.33,27 / 28,1050221,2019-09-08 10:25:16:845,1.8516,-1.6142,9.9306,0.0098,-0.0008,9.8066,0.0257,0.0389,0.058,-34.44,-23.31,29.94,325.67,-82.14,-163.26
10474,52.415195,-1.600776,184.42,2.97,2,172.33,27 / 28,1050322,2019-09-08 10:25:16:946,1.2495,-1.311,10.3513,0.006,-0.023,9.8066,-0.0585,0.0958,-0.0053,-34.69,-22.75,29.75,325.16,-81.99,-162.9
10475,52.415195,-1.600776,184.42,2.97,2,172.33,27 / 28,1050421,2019-09-08 10:25:17:045,-0.3773,-2.7266,9.9772,-0.0033,-0.0256,9.8065,-0.0717,-0.0305,0.0557,-34.75,-22.81,29.88,326.04,-82.0,-162.07
10476,52.415195,-1.600776,184.42,2.97,2,172.33,27 / 28,1050522,2019-09-08 10:25:17:146,-0.7441,-1.465,10.0799,-0.0025,-0.0248,9.8066,-0.0517,-0.0658,0.0185,-34.5,-22.81,30.31,328.58,-81.94,-160.46
10477,52.415195,-1.600776,184.42,2.97,2,172.33,27 / 28,1050621,2019-09-08 10:25:17:245,0.0242,-2.8331,10.4616,-0.0025,-0.0119,9.8066,0.043,-0.0546,-0.0052,-34.44,-22.5,30.56,330.59,-81.88,-159.62
10478,52.415195,-1.600776,184.42,2.97,2,172.33,27 / 28,1050721,2019-09-08 10:25:17:345,0.7204,-1.2871,9.7144,0.0107,0.0026,9.8066,0.0038,-0.0067,-0.1051,-35.25,-22.87,30.38,328.23,-81.84,-159.97
10479,52.415195,-1.600776,184.42,2.97,2,172.33,27 / 28,1050822,2019-09-08 10:25:17:446,0.5517,-1.2013,9.7117,0.0049,-0.0094,9.8066,-0.0855,-0.0376,-0.1028,-34.5,-22.69,30.63,328.54,-81.87,-161.44
10480,52.415195,-1.600776,184.42,2.97,2,172.33,26 / 28,1050922,2019-09-08 10:25:17:546,0.5204,-0.4722,9.9284,-0.0018,0.0043,9.8066,-0.0452,-0.0492,-0.0426,-34.5,-22.0,30.81,328.54,-81.83,-161.52
10481,52.415195,-1.600776,184.42,2.97,2,172.33,26 / 28,1051022,2019-09-08 10:25:17:646,1.022,-0.9378,9.0038,-0.0038,0.0053,9.8066,0.0253,0.0488,-0.0406,-34.81,-22.69,30.56,327.38,-81.83,-161.72
10482,52.415195,-1.600776,184.42,2.97,2,172.33,26 / 28,1051122,2019-09-08 10:25:17:746,-0.1627,-1.7691,9.4379,-0.0059,0.0065,9.8066,0.004,-0.0629,0.0663,-34.87,-23.19,30.63,327.35,-81.89,-161.77
10483,52.415195,-1.600776,184.42,2.97,2,172.33,26 / 28,1051222,2019-09-08 10:25:17:846,0.3564,-0.1026,10.1732,0.0099,-0.0075,9.8066,-0.0431,0.0124,0.0364,-34.62,-22.75,30.81,327.56,-82.03,-161.62
10484,52.415195,-1.600776,184.42,2.97,2,172.33,26 / 28,1051322,2019-09-08 10:25:17:946,0.0187,-0.5553,10.1151,0.0034,-0.0259,9.8066,-0.0699,-0.0144,-0.005,-34.0,-22.56,31.06,329.19,-81.91,-160.84
10485,52.415195,-1.600776,184.42,2.97,2,172.33,26 / 28,1051422,2019-09-08 10:25:18:046,-0.4131,-1.2695,9.6607,-0.0093,0.0099,9.8065,0.0667,-0.073,0.0425,-34.81,-23.56,30.19,328.02,-81.92,-160.1
10486,52.415195,-1.600776,184.42,2.97,2,172.33,26 / 28,1051521,2019-09-08 10:25:18:145,0.9441,0.255,9.9548,-0.0181,0.0071,9.8066,0.091,0.0506,-0.0354,-35.19,-22.56,30.31,328.19,-81.96,-160.05
10487,52.415195,-1.600776,184.42,2.97,2,172.33,26 / 28,1051622,2019-09-08 10:25:18:246,0.8876,-0.5706,10.2122,0.0279,-0.0128,9.8066,-0.202,0.0119,0.0393,-34.94,-22.75,30.19,327.57,-81.7,-160.54
10488,52.415195,-1.600776,184.42,2.97,2,172.33,26 / 28,1051721,2019-09-08 10:25:18:345,-0.4465,-1.4757,9.429,-0.0122,0.0093,9.8065,-0.0432,-0.0222,0.0595,-34.69,-22.5,30.88,329.4,-81.89,-159.94
10489,52.415195,-1.600776,184.42,2.97,2,172.33,26 / 28,1051821,2019-09-08 10:25:18:445,0.6225,-2.4605,10.3635,0.0376,-0.0524,9.8063,-0.0922,0.0085,-0.0226,-34.75,-23.31,30.69,330.18,-81.95,-159.14
10490,52.415195,-1.600776,184.42,2.97,2,172.33,26 / 27,1051922,2019-09-08 10:25:18:546,0.4251,-0.2962,10.2298,0.0518,-0.0206,9.8065,-0.0935,-0.0017,0.0408,-34.81,-22.69,31.06,328.92,-81.66,-160.22
10491,52.415195,-1.600776,184.42,2.97,2,172.33,26 / 27,1052022,2019-09-08 10:25:18:646,-0.1231,-0.5554,9.8997,-0.0377,0.0246,9.8065,0.2734,0.0843,-0.0365,-34.56,-22.87,31.06,328.79,-81.64,-160.34
10492,52.415195,-1.600776,184.42,2.97,2,172.33,26 / 27,1052122,2019-09-08 10:25:18:746,0.8012,-1.1421,9.9151,-0.01,0.0114,9.8066,0.2071,0.0198,-0.0181,-34.69,-22.62,30.63,328.62,-81.67,-160.51
10493,52.415195,-1.600776,184.42,2.97,2,172.33,26 / 27,1052222,2019-09-08 10:25:18:846,1.4816,-0.7476,10.3319,-0.0103,0.0032,9.8066,-0.0963,-0.0381,0.0574,-34.31,-23.19,30.81,329.04,-81.63,-160.9
10494,52.415195,-1.600776,184.42,2.97,2,172.33,26 / 27,1052321,2019-09-08 10:25:18:945,-0.1169,-0.1102,9.7116,-0.0021,0.0021,9.8066,-0.163,0.0259,-0.0494,-34.87,-23.0,30.81,328.83,-81.59,-160.29
10495,52.415195,-1.600776,184.42,2.97,2,172.33,26 / 27,1052421,2019-09-08 10:25:19:045,-1.2957,-3.0415,10.271,-0.0339,0.008,9.8065,0.1163,0.176,-0.3008,-33.94,-23.94,31.25,327.77,-81.69,-162.01
10496,52.415195,-1.600776,184.42,2.97,2,172.33,26 / 27,1052521,2019-09-08 10:25:19:145,1.1158,-1.4093,9.5696,0.0101,0.0509,9.8064,0.1003,-0.2187,0.152,-34.37,-23.12,30.94,326.19,-81.94,-163.67
10497,52.415195,-1.600776,184.42,2.97,2,172.33,26 / 27,1052621,2019-09-08 10:25:19:245,-1.2775,-1.302,9.3574,0.0013,-0.0017,9.8066,-0.0515,0.0891,-0.0045,-33.69,-23.44,30.88,326.47,-81.82,-163.36
10498,52.415195,-1.600776,184.42,2.97,2,172.33,26 / 27,1052722,2019-09-08 10:25:19:346,0.7509,0.9715,8.8882,-0.0319,0.0292,9.8065,-0.0026,-0.097,0.0091,-34.25,-22.87,30.06,324.96,-81.97,-163.86
10499,52.415195,-1.600776,184.42,2.97,2,172.33,27 / 29,1052821,2019-09-08 10:25:19:445,0.0347,-1.601,9.8066,0.0085,-0.0141,9.8066,0.0219,-0.0292,-0.1408,-34.19,-23.62,30.38,325.48,-81.9,-163.25
10500,52.415195,-1.600776,184.42,2.97,2,172.33,27 / 29,1052922,2019-09-08 10:25:19:546,0.8006,-1.3307,9.4152,0.0241,-0.0219,9.8065,0.0353,-0.0229,-0.1046,-34.06,-23.56,30.94,326.3,-81.9,-163.45
10501,52.415195,-1.600776,184.42,2.97,2,172.33,27 / 29,1053021,2019-09-08 10:25:19:645,-0.3205,1.3232,9.6962,-0.0467,0.0268,9.8064,0.2879,-0.1032,0.0671,-34.44,-23.31,30.31,324.85,-81.93,-163.95
10502,52.415195,-1.600776,184.42,2.97,2,172.33,27 / 29,1053122,2019-09-08 10:25:19:746,-0.3111,-1.1065,10.2282,-0.0211,0.0313,9.8065,0.1769,0.1286,-0.1047,-34.31,-23.06,30.38,325.84,-82.01,-163.04
10503,52.415195,-1.600776,184.42,2.97,2,172.33,27 / 29,1053221,2019-09-08 10:25:19:845,0.1417,-0.1447,9.2808,-0.0331,0.0233,9.8065,0.0281,0.0011,0.0393,-34.62,-24.06,29.81,323.55,-81.8,-164.23
10504,52.415195,-1.600776,184.42,2.97,2,172.33,27 / 29,1053321,2019-09-08 10:25:19:945,0.8938,-2.2934,10.6567,-0.0337,0.0293,9.8065,0.1528,0.0366,0.0073,-34.31,-22.62,30.94,326.01,-82.0,-163.85
10505,52.415195,-1.600776,184.42,2.97,2,172.33,27 / 29,1053421,2019-09-08 10:25:20:045,1.1978,0.5065,9.7252,0.0147,-0.017,9.8065,-0.0419,-0.0724,0.1369,-34.44,-23.69,30.63,325.34,-82.07,-164.41
10506,52.415195,-1.600776,184.42,2.97,2,172.33,27 / 29,1053521,2019-09-08 10:25:20:145,0.5363,-0.8406,10.1267,-0.0109,-0.0024,9.8066,0.0458,0.0606,0.0296,-34.19,-22.94,30.19,324.93,-81.96,-163.88
10507,52.415195,-1.600776,184.42,2.97,2,172.33,27 / 29,1053621,2019-09-08 10:25:20:245,0.3682,-0.2826,10.1585,0.0058,-0.0138,9.8066,-0.0606,0.0091,0.0648,-34.0,-22.87,29.69,325.0,-81.94,-163.81
10508,52.415195,-1.600776,184.42,2.97,2,172.33,27 / 29,1053722,2019-09-08 10:25:20:346,0.4315,-1.1728,10.2146,0.0131,-0.0211,9.8065,-0.1051,0.1007,0.0039,-33.81,-22.87,30.38,325.57,-81.74,-163.2
10509,52.415195,-1.600776,184.42,2.97,2,172.33,25 / 27,1053822,2019-09-08 10:25:20:446,0.0914,-0.9806,9.5872,-0.0294,0.0252,9.8065,-0.1893,-0.0281,0.1072,-34.37,-23.44,29.88,326.27,-81.66,-162.53
10510,52.415195,-1.600776,184.42,2.97,2,172.33,25 / 27,1053922,2019-09-08 10:25:20:546,-1.0309,0.1724,9.5167,-0.0254,0.0262,9.8065,0.136,0.007,-0.0132,-34.19,-22.5,30.25,326.22,-81.89,-162.76
10511,52.415195,-1.600776,184.42,2.97,2,172.33,25 / 27,1054021,2019-09-08 10:25:20:645,0.741,-0.3856,10.5826,0.0219,-0.0045,9.8065,0.1247,-0.0201,-0.0327,-34.19,-22.25,30.31,324.92,-81.76,-163.92
10512,52.415195,-1.600776,184.42,2.97,2,172.33,25 / 27,1054122,2019-09-08 10:25:20:746,-0.2497,-0.7042,10.2224,0.0155,-0.0066,9.8065,-0.0436,0.0168,0.0147,-34.37,-22.94,29.94,324.47,-81.74,-164.24
10513,52.415195,-1.600776,184.42,2.97,2,172.33,25 / 27,1054221,2019-09-08 10:25:20:845,0.4862,-0.4586,10.0192,0.0157,0.0046,9.8066,0.002,0.0198,-0.0321,-34.31,-22.31,29.5,324.25,-81.74,-164.55
10514,52.415195,-1.600776,184.42,2.97,2,172.33,25 / 27,1054321,2019-09-08 10:25:20:945,1.4165,0.3526,9.124,0.0148,-0.0257,9.8065,-0.2226,0.0268,0.0006,-34.19,-23.0,29.5,323.44,-81.65,-165.16
10515,52.415195,-1.600776,184.42,2.97,2,172.33,25 / 27,1054421,2019-09-08 10:25:21:045,-0.805,-0.0012,9.4687,-0.0458,0.0476,9.8064,-0.0773,-0.0916,0.0573,-33.94,-23.25,30.81,323.19,-81.55,-166.33
10516,52.415195,-1.600776,184.42,2.97,2,172.33,25 / 27,1054521,2019-09-08 10:25:21:145,0.9795,-0.0137,9.382,-0.0286,0.0172,9.8065,0.0161,-0.0026,0.1018,-34.25,-23.25,30.69,323.52,-81.88,-166.15
10517,52.415195,-1.600776,184.42,2.97,2,172.33,25 / 27,1054622,2019-09-08 10:25:21:246,0.3758,-0.5387,11.2291,0.0263,-0.0303,9.8065,0.1281,0.0515,0.1013,-34.31,-23.0,30.88,323.01,-81.9,-166.64
10518,52.415195,-1.600776,184.42,2.97,2,172.33,25 / 27,1054722,2019-09-08 10:25:21:346,-0.895,-1.8407,9.9646,0.0407,0.0016,9.8065,-0.1088,0.0256,-0.1254,-33.94,-23.19,30.63,321.34,-81.65,-168.11
10519,52.415195,-1.600776,184.42,2.97,2,172.33,26 / 28,1054822,2019-09-08 10:25:21:446,0.4642,0.185,9.0342,-0.0128,0.0163,9.8066,-0.0143,0.0148,-0.0596,-33.44,-23.25,30.25,320.41,-81.6,-168.79
10520,52.415195,-1.600776,184.42,2.97,2,172.33,26 / 28,1054921,2019-09-08 10:25:21:545,-2.6816,1.4777,11.0401,-0.0356,0.0173,9.8065,0.1475,-0.0543,0.1442,-33.94,-23.69,30.63,321.44,-81.81,-167.96
10521,52.415195,-1.600776,184.42,2.97,2,172.33,26 / 28,1055021,2019-09-08 10:25:21:645,3.4281,-1.308,9.6366,0.0787,-0.0181,9.8063,0.2309,0.1274,-0.0899,-33.94,-23.75,30.44,320.23,-81.64,-168.06
10522,52.415195,-1.600776,184.42,2.97,2,172.33,26 / 28,1055121,2019-09-08 10:25:21:745,-1.6893,0.0421,8.7084,0.0514,-0.0543,9.8063,-0.0415,-0.124,0.1196,-33.87,-23.56,30.38,320.56,-81.78,-167.81
10523,52.415195,-1.600776,184.42,2.97,2,172.33,26 / 28,1055222,2019-09-08 10:25:21:846,-3.5668,-0.5157,8.9121,-0.056,0.0351,9.8063,-0.1477,-0.1138,0.0131,-34.25,-23.25,30.13,321.91,-81.73,-166.64
10524,52.415195,-1.600776,184.42,2.97,2,172.33,26 / 28,1055321,2019-09-08 10:25:21:945,1.0614,-1.4258,9.8543,-0.0536,0.0174,9.8064,0.1257,-0.0246,-0.008,-34.5,-23.5,31.06,323.37,-81.95,-166.31
10525,52.415195,-1.600776,184.42,2.97,2,172.33,26 / 28,1055421,2019-09-08 10:25:22:045,0.5824,-2.6163,10.1993,-0.0001,-0.0066,9.8066,-0.1114,-0.0143,-0.0452,-34.56,-23.0,30.94,323.48,-81.86,-165.39
10526,52.415195,-1.600776,184.42,2.97,2,172.33,26 / 28,1055522,2019-09-08 10:25:22:146,0.5323,-1.4142,9.3243,-0.0177,0.0176,9.8066,0.0653,0.0551,0.0132,-34.5,-22.62,29.88,324.16,-82.01,-164.62
10527,52.415195,-1.600776,184.42,2.97,2,172.33,26 / 28,1055622,2019-09-08 10:25:22:246,-0.7108,0.4993,9.8904,0.0083,-0.0056,9.8066,0.0593,-0.036,0.0723,-34.25,-23.12,30.13,324.17,-82.02,-164.62
10528,52.415195,-1.600776,184.42,2.97,2,172.33,26 / 28,1055721,2019-09-08 10:25:22:345,-0.7313,-0.612,10.6245,0.0084,-0.0136,9.8065,-0.1603,0.0482,0.0004,-34.75,-23.31,29.94,323.88,-81.94,-164.08
10529,52.415195,-1.600776,184.42,2.97,2,172.33,26 / 28,1055822,2019-09-08 10:25:22:446,-0.6926,0.3072,9.7797,-0.0117,0.0153,9.8066,-0.0854,0.033,-0.0055,-34.44,-23.44,30.56,326.13,-81.91,-163.71
10530,52.415195,-1.600776,184.42,2.97,2,172.33,25 / 27,1055922,2019-09-08 10:25:22:546,0.2386,0.3624,9.0236,0.0154,-0.0117,9.8066,0.145,-0.0524,0.0569,-35.0,-23.25,29.75,323.88,-81.95,-164.08
10531,52.415195,-1.600776,184.42,2.97,2,172.33,25 / 27,1056021,2019-09-08 10:25:22:645,-0.0514,-1.069,10.7224,0.0199,-0.0025,9.8066,0.0352,0.0834,-0.1645,-34.5,-23.81,30.25,324.71,-81.83,-163.94
10532,52.415195,-1.600776,184.42,2.97,2,172.33,25 / 27,1056121,2019-09-08 10:25:22:745,1.8968,-3.1261,10.7575,-0.016,0.0168,9.8066,-0.0219,0.1179,-0.0917,-34.69,-23.25,30.19,324.29,-82.08,-163.75
10533,52.415195,-1.600776,184.42,2.97,2,172.33,25 / 27,1056222,2019-09-08 10:25:22:846,-1.9448,-2.5906,11.3164,0.0302,-0.0359,9.8065,-0.0894,-0.1304,0.071,-35.25,-23.25,30.88,325.32,-82.04,-163.72
10534,52.415195,-1.600776,184.42,2.97,2,172.33,25 / 27,1056321,2019-09-08 10:25:22:945,0.7456,0.9533,8.0127,0.0283,0.0105,9.8065,0.095,-0.2437,0.0943,-34.25,-23.19,30.5,323.48,-81.97,-166.21
10535,52.415195,-1.600776,184.42,2.97,2,172.33,25 / 27,1056421,2019-09-08 10:25:23:045,-1.3595,1.1159,9.7613,-0.02,0.029,9.8066,0.2124,-0.0166,-0.0716,-34.5,-23.19,30.63,322.99,-81.8,-166.62
10536,52.415195,-1.600776,184.42,2.97,2,172.33,25 / 27,1056521,2019-09-08 10:25:23:145,-0.7021,0.2939,10.4193,0.0026,-0.0086,9.8066,-0.1952,0.0133,-0.0139,-34.5,-23.19,30.19,321.75,-81.91,-166.85
10537,52.415195,-1.600776,184.42,2.97,2,172.33,25 / 27,1056621,2019-09-08 10:25:23:245,0.5686,-0.8196,9.3589,-0.0144,0.0263,9.8065,-0.0994,0.0184,-0.0468,-34.0,-23.06,31.0,321.87,-82.16,-167.81
10538,52.415195,-1.600776,184.42,2.97,2,172.33,25 / 27,1056722,2019-09-08 10:25:23:346,-0.6106,0.1603,9.2451,-0.0188,0.0142,9.8065,0.0802,-0.0399,0.0054,-34.62,-22.75,30.63,320.92,-82.23,-167.94
10539,52.414864,-1.59999,181.32,10.5,4,122.98,25 / 27,1056822,2019-09-08 10:25:23:446,-1.9468,1.595,10.9216,-0.0107,-0.0031,9.8066,-0.0225,0.0271,-0.0172,-34.37,-22.69,30.38,320.83,-82.17,-167.82
10540,52.414864,-1.59999,181.32,10.5,4,122.98,25 / 27,1056921,2019-09-08 10:25:23:545,1.7096,-0.1691,7.4977,-0.0129,0.0706,9.8064,0.1209,-0.0196,0.0017,-34.25,-22.69,30.38,319.73,-82.33,-168.92
10541,52.414864,-1.59999,181.32,10.5,4,122.98,25 / 27,1057021,2019-09-08 10:25:23:645,-1.5957,-0.7411,10.056,-0.027,0.0067,9.8065,0.1669,0.0588,-0.0004,-33.94,-23.25,30.19,320.62,-82.01,-167.96
10542,52.414864,-1.59999,181.32,10.5,4,122.98,25 / 27,1057121,2019-09-08 10:25:23:745,-0.0043,3.2007,8.9913,-0.0213,0.0409,9.8065,0.0467,0.0636,0.1402,-34.19,-23.25,30.19,320.37,-82.21,-168.27
10543,52.414864,-1.59999,181.32,10.5,4,122.98,25 / 27,1057222,2019-09-08 10:25:23:846,0.7006,-1.2119,8.0301,-0.0075,0.0331,9.8066,-0.0432,-0.2102,0.3062,-34.56,-22.5,30.31,321.03,-82.02,-166.9
10544,52.414864,-1.59999,181.32,10.5,4,122.98,25 / 27,1057321,2019-09-08 10:25:23:945,-0.1903,0.9985,9.8097,-0.0348,-0.0151,9.8065,-0.0152,0.0818,-0.0826,-34.19,-23.37,30.06,323.34,-82.02,-165.4
10545,52.414864,-1.59999,181.32,10.5,4,122.98,25 / 27,1057421,2019-09-08 10:25:24:045,-0.8712,-1.3303,10.6487,0.0098,-0.0151,9.8066,0.0079,0.0316,-0.0429,-34.31,-23.0,30.56,324.15,-81.97,-165.59
10546,52.414864,-1.59999,181.32,10.5,4,122.98,25 / 27,1057524,2019-09-08 10:25:24:148,-1.7737,0.226,10.5279,0.0149,0.0032,9.8066,-0.0483,-0.1373,0.0125,-33.87,-23.06,30.63,323.89,-81.99,-165.84
10547,52.414864,-1.59999,181.32,10.5,4,122.98,25 / 27,1057621,2019-09-08 10:25:24:245,-0.0142,-0.8893,10.189,0.012,0.0072,9.8066,-0.0798,-0.0198,-0.0055,-34.37,-22.94,30.06,323.17,-82.08,-165.58
10548,52.414864,-1.59999,181.32,10.5,4,122.98,25 / 27,1057721,2019-09-08 10:25:24:345,-0.4759,0.9275,9.138,-0.0004,0.0096,9.8066,-0.0465,0.0325,0.0194,-34.37,-23.0,29.81,322.03,-82.25,-166.71
10549,52.414864,-1.59999,181.32,10.5,4,122.98,25 / 27,1057822,2019-09-08 10:25:24:446,-0.3494,0.7907,9.8117,-0.0355,0.0098,9.8065,0.1743,-0.0365,0.1064,-34.31,-23.37,29.44,321.83,-82.25,-165.92
10550,52.414864,-1.59999,181.32,10.5,4,122.98,25 / 26,1057922,2019-09-08 10:25:24:546,-2.0467,0.203,10.072,-0.0414,0.0453,9.8064,0.0542,0.0122,0.0411,-34.37,-23.12,30.44,324.65,-82.47,-164.33
10551,52.414864,-1.59999,181.32,10.5,4,122.98,25 / 26,1058021,2019-09-08 10:25:24:645,-0.2324,-0.8152,10.647,0.0127,-0.026,9.8066,0.0533,0.0775,-0.0429,-34.25,-23.37,29.69,324.96,-82.33,-163.99
10552,52.414864,-1.59999,181.32,10.5,4,122.98,25 / 26,1058122,2019-09-08 10:25:24:746,-0.6229,-1.1727,9.5567,0.0295,-0.0236,9.8065,-0.0829,0.0065,0.0729,-34.31,-22.94,29.81,325.2,-82.2,-163.72
10553,52.414864,-1.59999,181.32,10.5,4,122.98,25 / 26,1058221,2019-09-08 10:25:24:845,-1.4775,-2.2981,10.9839,-0.0342,-0.0042,9.8065,0.266,-0.01,-0.1062,-34.25,-22.44,30.44,325.3,-82.11,-163.69
10554,52.414864,-1.59999,181.32,10.5,4,122.98,25 / 26,1058321,2019-09-08 10:25:24:945,-0.0068,0.6974,9.3492,-0.0208,0.0215,9.8066,0.1495,0.057,-0.0498,-34.94,-23.19,30.13,325.01,-82.3,-163.14
10555,52.414864,-1.59999,181.32,10.5,4,122.98,25 / 26,1058421,2019-09-08 10:25:25:045,-0.1339,-0.0157,10.4784,0.0273,-0.0061,9.8066,0.0226,-0.1762,-0.0614,-35.5,-23.12,30.25,324.58,-82.2,-163.51
10556,52.414864,-1.59999,181.32,10.5,4,122.98,25 / 26,1058522,2019-09-08 10:25:25:146,1.6088,1.6919,8.2639,0.029,0.0113,9.8065,-0.075,0.039,-0.23,-34.44,-23.37,29.94,322.94,-82.0,-165.76
10557,52.414864,-1.59999,181.32,10.5,4,122.98,25 / 26,1058622,2019-09-08 10:25:25:246,0.0777,-1.5648,9.5438,-0.0012,0.0148,9.8066,0.0721,0.0361,-0.0899,-34.37,-23.31,29.81,320.0,-81.96,-168.52
10558,52.414864,-1.59999,181.32,10.5,4,122.98,25 / 26,1058722,2019-09-08 10:25:25:346,-0.6834,-0.0217,9.4791,0.0186,0.0127,9.8066,-0.0336,-0.0094,0.0232,-33.94,-23.75,30.5,319.19,-82.05,-170.18
10559,52.414864,-1.59999,181.32,10.5,4,122.98,26 / 29,1058822,2019-09-08 10:25:25:446,0.8462,-1.2464,9.1349,-0.0277,0.0034,9.8066,0.0106,0.002,0.0558,-34.06,-23.62,30.69,319.95,-82.35,-169.58
10560,52.414864,-1.59999,181.32,10.5,4,122.98,26 / 29,1058922,2019-09-08 10:25:25:546,-0.0401,1.6954,9.2936,-0.0107,0.0157,9.8065,-0.1272,0.0883,-0.0184,-34.06,-24.19,30.31,319.49,-82.54,-169.13
10561,52.414864,-1.59999,181.32,10.5,4,122.98,26 / 29,1059021,2019-09-08 10:25:25:645,0.3174,0.4213,9.779,-0.0076,-0.0011,9.8066,0.0945,-0.0452,0.0969,-34.44,-23.44,30.56,321.93,-82.59,-167.91
10562,52.414864,-1.59999,181.32,10.5,4,122.98,26 / 29,1059121,2019-09-08 10:25:25:745,-0.9964,1.5411,8.6287,-0.0026,0.0323,9.8066,-0.0688,-0.0271,-0.0847,-34.25,-23.62,30.44,322.33,-82.3,-166.35
10563,52.414864,-1.59999,181.32,10.5,4,122.98,26 / 29,1059221,2019-09-08 10:25:25:845,1.1552,-0.5378,9.5343,-0.0026,0.0098,9.8066,0.164,-0.103,0.0711,-34.06,-23.31,30.5,322.14,-82.14,-167.54
10564,52.414864,-1.59999,181.32,10.5,4,122.98,26 / 29,1059322,2019-09-08 10:25:25:946,0.5111,1.6229,9.4939,-0.0089,0.0352,9.8066,0.0667,-0.121,-0.003,-33.94,-23.06,31.0,322.58,-82.1,-167.11
10565,52.414864,-1.59999,181.32,10.5,4,122.98,26 / 29,1059422,2019-09-08 10:25:26:046,-0.7396,0.0749,8.6428,0.0079,-0.0086,9.8066,-0.1549,-0.046,-0.0012,-34.37,-23.56,30.38,320.94,-81.96,-167.52
10566,52.414864,-1.59999,181.32,10.5,4,122.98,26 / 29,1059521,2019-09-08 10:25:26:145,0.1035,1.92,8.855,-0.0404,0.0567,9.8063,-0.26,0.0611,-0.1319,-33.81,-23.37,30.31,320.03,-82.11,-168.55
10567,52.414864,-1.59999,181.32,10.5,4,122.98,26 / 29,1059621,2019-09-08 10:25:26:245,-1.9167,-0.1227,8.8858,-0.0441,0.043,9.8064,0.1793,0.0552,-0.0829,-34.25,-23.69,30.38,320.24,-82.55,-168.42
10568,52.414864,-1.59999,181.32,10.5,4,122.98,26 / 29,1059722,2019-09-08 10:25:26:346,1.1195,-1.3708,10.4802,0.0163,-0.0325,9.8065,0.0826,0.023,0.132,-34.06,-23.69,30.56,319.64,-82.63,-169.99
10569,52.414864,-1.59999,181.32,10.5,4,122.98,26 / 29,1059826,2019-09-08 10:25:26:450,-2.413,3.9162,10.6473,0.0142,-0.0011,9.8066,0.3332,-0.2733,0.134,-33.69,-22.75,30.06,319.51,-82.43,-169.17
10570,52.414864,-1.59999,181.32,10.5,4,122.98,25 / 28,1059922,2019-09-08 10:25:26:546,0.594,-2.3793,8.3467,0.0402,-0.0359,9.8064,0.2921,-0.029,-0.1655,-33.62,-23.0,30.81,318.05,-82.02,-171.36
10571,52.414864,-1.59999,181.32,10.5,4,122.98,25 / 28,1060021,2019-09-08 10:25:26:645,2.2089,-0.4785,8.833,0.0173,-0.0322,9.8066,-0.2904,-0.1662,-0.0414,-33.5,-23.06,29.94,318.77,-82.04,-170.52
10572,52.414864,-1.59999,181.32,10.5,4,122.98,25 / 28,1060121,2019-09-08 10:25:26:745,-1.916,0.7288,9.7935,-0.0613,0.0399,9.8064,-0.2176,-0.0376,-0.0461,-33.87,-23.44,29.88,317.42,-82.1,-171.02
10573,52.414864,-1.59999,181.32,10.5,4,122.98,25 / 28,1060222,2019-09-08 10:25:26:846,-1.6731,0.2137,8.7806,-0.051,0.0446,9.8064,0.1325,0.069,0.0168,-34.25,-23.0,29.56,318.79,-82.54,-169.89
10574,52.414864,-1.59999,181.32,10.5,4,122.98,25 / 28,1060322,2019-09-08 10:25:26:946,0.4833,-1.0957,9.7901,0.0409,-0.0363,9.8065,0.0962,0.0252,0.0373,-33.87,-23.25,30.56,320.33,-82.56,-169.41
10575,52.414864,-1.59999,181.32,10.5,4,122.98,25 / 28,1060421,2019-09-08 10:25:27:045,-1.3073,2.1231,9.3438,0.0205,-0.0244,9.8066,0.1988,-0.0896,0.1039,-34.37,-22.81,30.19,319.62,-82.3,-169.01
10576,52.414864,-1.59999,181.32,10.5,4,122.98,25 / 28,1060521,2019-09-08 10:25:27:145,-0.8112,-1.1405,10.4083,0.0312,-0.0481,9.8064,0.3562,-0.1052,0.1341,-34.44,-21.94,30.63,321.51,-82.11,-168.23
10577,52.414864,-1.59999,181.32,10.5,4,122.98,25 / 28,1060622,2019-09-08 10:25:27:246,-0.7995,0.9858,9.4981,0.0585,-0.0363,9.8064,-0.1472,-0.004,0.0927,-34.12,-21.94,29.94,319.3,-82.06,-169.33
10578,52.414864,-1.59999,181.32,10.5,4,122.98,25 / 28,1060721,2019-09-08 10:25:27:345,-0.1754,-0.4645,8.4225,-0.0674,0.0557,9.8062,-0.1148,-0.0228,0.131,-33.69,-22.5,29.75,320.03,-81.92,-168.59
10579,52.414864,-1.59999,181.32,10.5,4,122.98,25 / 27,1060821,2019-09-08 10:25:27:445,-1.5484,-1.002,9.8174,-0.0741,0.0254,9.8063,0.0812,-0.0237,0.1184,-34.31,-22.87,30.31,322.3,-82.4,-166.53
10580,52.414864,-1.59999,181.32,10.5,4,122.98,25 / 27,1060922,2019-09-08 10:25:27:546,0.0858,-0.8989,10.7248,0.0435,-0.0102,9.8065,0.0208,0.0597,-0.0604,-33.81,-23.44,30.19,320.62,-82.19,-168.02
10581,52.414864,-1.59999,181.32,10.5,4,122.98,25 / 27,1061021,2019-09-08 10:25:27:645,-1.2777,1.3761,9.6498,0.0302,-0.0446,9.8065,0.127,-0.0803,0.047,-34.56,-23.19,30.25,319.51,-82.11,-168.26
10582,52.414864,-1.59999,181.32,10.5,4,122.98,25 / 27,1061121,2019-09-08 10:25:27:745,-1.833,-0.0572,9.42,0.0107,0.0187,9.8066,0.1521,-0.0007,-0.097,-33.62,-23.44,30.88,319.14,-82.06,-170.35
10583,52.414864,-1.59999,181.32,10.5,4,122.98,25 / 27,1061221,2019-09-08 10:25:27:845,0.5045,0.1635,9.4293,0.0453,0.0014,9.8065,-0.1763,-0.0709,-0.1016,-33.62,-23.69,31.13,315.52,-81.95,-173.6
10584,52.414864,-1.59999,181.32,10.5,4,122.98,25 / 27,1061321,2019-09-08 10:25:27:945,0.6867,0.8271,7.8695,-0.033,0.0433,9.8064,-0.1164,-0.0491,-0.0558,-33.44,-23.87,30.75,313.06,-81.96,-176.75
10585,52.414864,-1.59999,181.32,10.5,4,122.98,25 / 27,1061421,2019-09-08 10:25:28:045,-0.1295,0.3899,8.7022,-0.0446,0.0547,9.8063,0.0146,-0.1443,0.0349,-33.94,-23.37,30.75,312.18,-82.32,-177.07
10586,52.414864,-1.59999,181.32,10.5,4,122.98,25 / 27,1061522,2019-09-08 10:25:28:146,-1.2151,-0.5659,9.8406,-0.0008,0.0136,9.8066,0.0459,-0.0645,-0.0005,-33.31,-23.87,30.5,311.38,-82.37,-178.53
10587,52.414864,-1.59999,181.32,10.5,4,122.98,25 / 27,1061621,2019-09-08 10:25:28:245,-0.9672,1.5427,9.6596,0.0059,-0.0056,9.8066,-0.0451,-0.0478,-0.0008,-32.94,-24.12,30.63,310.59,-82.32,-179.27
10588,52.414864,-1.59999,181.32,10.5,4,122.98,25 / 27,1061722,2019-09-08 10:25:28:346,0.5236,-1.3196,9.6903,0.006,0.0049,9.8066,-0.0228,-0.0287,-0.0179,-32.69,-23.94,30.56,308.97,-82.35,179.17
10589,52.414864,-1.59999,181.32,10.5,4,122.98,25 / 27,1061822,2019-09-08 10:25:28:446,-0.8996,0.0457,9.2107,-0.0207,0.0353,9.8065,0.1491,0.1157,-0.0601,-32.62,-23.87,30.63,307.92,-82.46,178.11
10590,52.414864,-1.59999,181.32,10.5,4,122.98,26 / 27,1061922,2019-09-08 10:25:28:546,-1.1324,-0.7879,9.6119,-0.0302,0.0134,9.8066,-0.1451,-0.0682,0.113,-32.75,-24.31,29.94,308.71,-82.47,179.85
10591,52.414864,-1.59999,181.32,10.5,4,122.98,26 / 27,1062021,2019-09-08 10:25:28:645,1.4679,-0.4703,8.4805,-0.0347,0.0351,9.8065,0.0285,-0.1264,0.0501,-32.19,-24.37,30.0,309.96,-82.87,-179.97
10592,52.414864,-1.59999,181.32,10.5,4,122.98,26 / 27,1062122,2019-09-08 10:25:28:746,-1.4792,0.32,11.5313,-0.0599,0.0082,9.8064,-0.2335,-0.0179,0.051,-32.19,-24.56,30.25,309.53,-83.08,179.63
10593,52.414864,-1.59999,181.32,10.5,4,122.98,26 / 27,1062221,2019-09-08 10:25:28:845,-0.7465,-0.6037,10.2944,-0.0604,0.038,9.8064,0.1541,-0.2271,0.0587,-32.81,-24.06,30.44,308.94,-82.96,179.84
10594,52.414864,-1.59999,181.32,10.5,4,122.98,26 / 27,1062321,2019-09-08 10:25:28:945,2.135,-2.2094,7.821,0.0281,-0.0356,9.8065,-0.0513,-0.1941,0.1335,-32.75,-23.69,30.81,308.83,-82.58,178.92
10595,52.414864,-1.59999,181.32,10.5,4,122.98,26 / 27,1062422,2019-09-08 10:25:29:046,-0.6648,-0.8276,9.9934,-0.0155,-0.0134,9.8065,-0.0869,-0.1168,-0.0686,-32.75,-23.87,30.75,309.61,-82.65,179.64
10596,52.414864,-1.59999,181.32,10.5,4,122.98,26 / 27,1062521,2019-09-08 10:25:29:145,-0.8943,1.7109,9.2937,-0.0155,0.0109,9.8066,-0.1223,-0.016,-0.0484,-33.25,-24.31,30.13,308.5,-82.99,179.4
10597,52.414864,-1.59999,181.32,10.5,4,122.98,26 / 27,1062621,2019-09-08 10:25:29:245,0.875,0.155,9.2311,-0.0264,0.008,9.8066,0.2191,-0.1049,0.1057,-33.37,-23.5,29.88,310.35,-83.15,-179.02
10598,52.414864,-1.59999,181.32,10.5,4,122.98,26 / 27,1062721,2019-09-08 10:25:29:345,0.3044,-0.2209,10.5154,0.0184,-0.0269,9.8065,0.2181,0.0016,-0.0082,-32.81,-23.81,30.06,311.12,-82.8,-178.0
