,GPS LATITUDE (degrees), GPS LONGITUDE (degrees), GPS ALTITUDE (m), GPS SPEED (Kmh), GPS ACCURACY (m), GPS ORIENTATION (Â°),GPS SATELLITES IN RANGE, TIME SINCE START (ms), DATE (YYYY-MO-DD HH-MI-SS_SSS), ACCELEROMETER X (m/s²) , ACCELEROMETER Y (m/s²), ACCELEROMETER Z (m/s²), GRAVITY X (m/s²), GRAVITY Y (m/s²), GRAVITY Z (m/s²), GYROSCOPE Yaw (rad/s), GYROSCOPE Pitch (rad/s), GYROSCOPE Roll (rad/s), MAGNETIC FIELD X (Î¼T), MAGNETIC FIELD Y (Î¼T), MAGNETIC FIELD Z (Î¼T), ORIENTATION (Yaw) (Â°), ORIENTATION (Pitch) (Â°), ORIENTATION (Roll ) (Â°)
6327,53.1884,-1.612643,162.86,13.79,6,156.02,17 / 18,2105314,2019-11-06 16:41:25:776,-0.8278,-3.5665,9.9875,0.0073,0.0054,9.8066,0.0641,-0.225,0.0597,-33.81,-39.81,54.25,337.35,-84.77,-169.11
6328,53.1884,-1.612643,162.86,13.79,6,156.02,17 / 18,2105414,2019-11-06 16:41:25:876,0.8026,0.1642,9.4753,-0.0193,-0.0114,9.8066,-0.0632,0.1327,-0.0382,-22.37,-37.19,31.31,333.29,-84.78,-168.97
6329,53.1884,-1.612643,162.86,13.79,6,156.02,17 / 18,2105514,2019-11-06 16:41:25:976,0.0986,0.8198,9.4153,0.0097,0.0218,9.8066,0.0136,-0.2835,0.1523,-18.5,-37.31,31.06,339.15,-84.95,-168.78
6330,53.1884,-1.612643,162.86,13.79,6,156.02,17 / 18,2105614,2019-11-06 16:41:26:076,0.969,1.4296,9.4382,-0.0242,0.0009,9.8066,-0.0219,0.0986,-0.0897,-17.12,-36.37,30.69,340.71,-85.15,-168.86
6331,53.1884,-1.612643,162.86,13.79,6,156.02,17 / 18,2105714,2019-11-06 16:41:26:176,0.7356,1.3295,9.375,0.0162,0.0012,9.8066,0.016,-0.1802,-0.0324,-18.19,-36.62,30.94,335.76,-85.15,-171.96
6332,53.1884,-1.612643,162.86,13.79,6,156.02,17 / 18,2105814,2019-11-06 16:41:26:276,-0.0341,-0.5831,10.1024,0.0147,0.0301,9.8066,0.0147,-0.0061,0.0598,-21.19,-36.62,31.38,328.77,-85.17,-174.55
6333,53.1884,-1.612643,162.86,13.79,6,156.02,17 / 19,2105916,2019-11-06 16:41:26:378,0.3539,0.5828,9.9534,0.0076,0.0024,9.8065,0.0254,-0.1254,0.0026,-29.87,-38.81,59.25,335.84,-84.98,-175.92
6334,53.1884,-1.612643,162.86,13.79,6,156.02,17 / 19,2106014,2019-11-06 16:41:26:476,0.6934,-1.3892,9.7306,-0.0059,0.0154,9.8066,-0.0415,-0.0105,0.0532,-15.44,-33.75,42.63,344.9,-85.13,-174.87
6335,53.1884,-1.612643,162.86,13.79,6,156.02,17 / 19,2106114,2019-11-06 16:41:26:576,0.4566,0.3821,10.0524,0.0098,-0.0091,9.8066,-0.0126,-0.0872,0.047,-15.25,-34.56,35.06,341.32,-85.22,-174.02
6336,53.1884,-1.612643,162.86,13.79,6,156.02,17 / 19,2106213,2019-11-06 16:41:26:675,-0.6575,0.3514,9.9013,-0.024,0.0234,9.8065,-0.0491,0.0041,-0.0312,-15.56,-35.56,32.5,340.19,-85.41,-172.36
6337,53.1884,-1.612643,162.86,13.79,6,156.02,17 / 19,2106314,2019-11-06 16:41:26:776,0.3179,2.1731,10.0134,-0.0011,-0.0113,9.8066,0.0518,-0.1129,-0.0613,-15.81,-35.5,31.81,338.5,-85.45,-173.24
6338,53.1884,-1.612643,162.86,13.79,6,156.02,17 / 19,2106414,2019-11-06 16:41:26:876,-2.8137,2.3249,9.4061,0.0034,0.0359,9.8065,-0.1428,-0.0207,0.1267,-15.25,-35.56,32.13,340.8,-85.62,-172.57
6339,53.1884,-1.612643,162.86,13.79,6,156.02,17 / 19,2106514,2019-11-06 16:41:26:976,-1.0,-0.3815,9.329,0.026,0.0041,9.8065,-0.022,-0.1796,0.1349,-15.0,-34.94,33.94,342.15,-85.91,-172.82
6340,53.1884,-1.612643,162.86,13.79,6,156.02,17 / 19,2106614,2019-11-06 16:41:27:076,0.1997,-0.3993,10.2592,-0.0145,0.0145,9.8065,0.0857,-0.0925,-0.0512,-15.87,-33.81,39.88,346.01,-85.95,-171.38
6341,53.1884,-1.612643,162.86,13.79,6,156.02,17 / 19,2106714,2019-11-06 16:41:27:176,-1.3209,0.7021,9.2789,-0.0445,0.0104,9.8065,0.0502,0.1045,-0.1649,-30.37,-40.44,56.06,338.25,-86.01,-172.59
6342,53.1884,-1.612643,162.86,13.79,6,156.02,17 / 19,2106814,2019-11-06 16:41:27:276,-0.8587,-0.692,9.8385,0.0262,-0.0043,9.8065,-0.031,-0.0535,0.1226,-24.5,-42.56,29.88,328.36,-86.05,-170.6
6343,53.1884,-1.612643,162.86,13.79,6,156.02,16 / 18,2106914,2019-11-06 16:41:27:376,-1.172,0.8811,10.0205,0.0059,-0.0434,9.8065,-0.0573,0.338,-0.0985,-20.56,-41.19,32.69,334.41,-86.07,-171.28
6344,53.1884,-1.612643,162.86,13.79,6,156.02,16 / 18,2107014,2019-11-06 16:41:27:476,1.3711,2.9564,9.3029,-0.0096,0.0076,9.8066,-0.0256,0.2005,-0.1071,-18.62,-38.0,33.94,337.88,-85.82,-171.34
6345,53.1884,-1.612643,162.86,13.79,6,156.02,16 / 18,2107114,2019-11-06 16:41:27:576,0.5517,0.2734,10.3699,-0.0287,0.0008,9.8066,0.0509,0.1641,-0.1109,-18.31,-36.75,32.25,338.83,-85.97,-170.3
6346,53.1884,-1.612643,162.86,13.79,6,156.02,16 / 18,2107213,2019-11-06 16:41:27:675,-0.1192,0.5431,9.7207,-0.0099,0.0062,9.8066,-0.0371,0.0047,0.0074,-22.19,-37.31,31.81,332.02,-86.05,-171.65
6347,53.1884,-1.612643,162.86,13.79,6,156.02,16 / 18,2107313,2019-11-06 16:41:27:775,-1.9332,-0.1844,10.7673,-0.025,-0.0131,9.8065,-0.0627,0.1756,-0.034,-33.94,-39.06,53.25,336.81,-86.14,-169.52
6348,53.1884,-1.612643,162.86,13.79,6,156.02,16 / 18,2107413,2019-11-06 16:41:27:875,0.1695,0.1244,10.1048,-0.0129,-0.0028,9.8066,-0.0336,0.2257,-0.0772,-15.87,-33.19,42.69,353.78,-86.22,-165.5
6349,53.1884,-1.612643,162.86,13.79,6,156.02,16 / 18,2107513,2019-11-06 16:41:27:975,-0.7179,-0.6139,10.0059,-0.0152,-0.0153,9.8066,-0.0271,0.2152,-0.0926,-15.81,-34.62,34.81,348.34,-86.21,-166.37
6350,53.1884,-1.612643,162.86,13.79,6,156.02,16 / 18,2107613,2019-11-06 16:41:28:075,1.1425,1.2475,9.8679,-0.0129,0.0035,9.8066,-0.0365,0.0979,-0.1118,-16.0,-34.69,32.88,347.38,-86.22,-165.94
6351,53.1884,-1.612643,162.86,13.79,6,156.02,16 / 18,2107713,2019-11-06 16:41:28:175,0.9277,-0.4942,9.9154,-0.0261,-0.0016,9.8066,0.0137,0.1109,-0.0913,-15.81,-35.44,32.13,346.77,-86.38,-165.83
6352,53.1884,-1.612643,162.86,13.79,6,156.02,16 / 18,2107814,2019-11-06 16:41:28:276,1.8784,0.7876,9.5789,0.0024,-0.0085,9.8066,-0.0768,0.2387,-0.0671,-15.81,-35.75,32.56,346.04,-86.36,-167.21
6353,53.1884,-1.612643,162.86,13.79,6,156.02,19 / 19,2107916,2019-11-06 16:41:28:378,-2.0619,-1.0658,10.0164,-0.0123,-0.0276,9.8065,-0.0242,0.0984,-0.0459,-15.12,-35.5,34.5,348.96,-86.5,-167.2
6354,53.1884,-1.612643,162.86,13.79,6,156.02,19 / 19,2108014,2019-11-06 16:41:28:476,0.7413,0.7672,9.5937,-0.0226,-0.0119,9.8066,-0.026,0.3354,-0.1072,-15.44,-34.37,39.75,353.49,-86.36,-165.61
6355,53.1884,-1.612643,162.86,13.79,6,156.02,19 / 19,2108113,2019-11-06 16:41:28:575,-2.2252,0.0485,9.9267,-0.0117,-0.0004,9.8066,0.0154,-0.1559,-0.0264,-32.94,-40.06,56.06,344.69,-86.48,-164.2
6356,53.1884,-1.612643,162.86,13.79,6,156.02,19 / 19,2108214,2019-11-06 16:41:28:676,0.7239,0.028,10.1029,-0.0135,-0.0169,9.8066,-0.0105,0.1141,-0.0414,-23.31,-37.87,32.19,338.84,-86.42,-164.17
6357,53.1884,-1.612643,162.86,13.79,6,156.02,19 / 19,2108314,2019-11-06 16:41:28:776,0.0253,-1.5818,10.4904,-0.0027,-0.0069,9.8066,-0.0047,-0.1237,-0.0102,-19.19,-36.62,31.06,342.73,-86.39,-164.64
6358,53.1884,-1.612643,162.86,13.79,6,156.02,19 / 19,2108413,2019-11-06 16:41:28:875,0.6994,0.0448,9.2595,-0.0073,-0.0133,9.8066,-0.0167,0.1673,-0.0485,-17.94,-36.37,30.63,344.62,-86.27,-164.22
6359,53.1884,-1.612643,162.86,13.79,6,156.02,19 / 19,2108513,2019-11-06 16:41:28:975,-0.9274,-1.3107,10.1226,-0.0071,-0.0117,9.8066,-0.0452,-0.0728,0.0041,-17.75,-37.0,30.88,343.51,-86.32,-165.24
6360,53.1884,-1.612643,162.86,13.79,6,156.02,19 / 19,2108613,2019-11-06 16:41:29:075,-0.035,-1.0809,9.8963,0.01,-0.0176,9.8066,0.0742,0.0275,-0.0461,-21.0,-37.12,31.06,338.83,-86.18,-165.65
6361,53.1884,-1.612643,162.86,13.79,6,156.02,19 / 19,2108713,2019-11-06 16:41:29:175,0.1031,-2.016,9.6247,0.0188,0.0003,9.8065,0.0756,-0.0824,0.0856,-32.44,-39.75,57.13,340.67,-85.89,-169.14
6362,53.1884,-1.612643,162.86,13.79,6,156.02,19 / 19,2108814,2019-11-06 16:41:29:276,0.203,0.7639,10.2368,-0.0173,-0.0039,9.8065,0.0526,0.0434,-0.1197,-15.31,-33.56,45.25,352.74,-85.73,-168.42
6363,53.1884,-1.612643,162.86,13.79,6,156.02,17 / 19,2108915,2019-11-06 16:41:29:377,0.6918,-0.148,9.9584,-0.0001,-0.0036,9.8066,0.0606,-0.1411,-0.0745,-14.75,-34.87,36.19,346.27,-85.76,-170.18
6364,53.1884,-1.612643,162.86,13.79,6,156.02,17 / 19,2109014,2019-11-06 16:41:29:476,-2.2534,-0.1563,9.2372,0.0255,0.0014,9.8065,-0.1038,-0.0197,0.2044,-15.94,-35.81,33.5,342.12,-85.72,-171.38
6365,53.1884,-1.612643,162.86,13.79,6,156.02,17 / 19,2109114,2019-11-06 16:41:29:576,-1.7418,-0.4168,9.8008,0.019,0.015,9.8066,-0.0565,-0.3014,0.1137,-16.06,-35.37,33.06,345.86,-85.96,-167.29
6366,53.1884,-1.612643,162.86,13.79,6,156.02,17 / 19,2109214,2019-11-06 16:41:29:676,-1.3228,-0.4673,10.474,0.001,0.0096,9.8066,0.0293,-0.0984,0.1122,-15.81,-35.0,32.63,345.12,-86.13,-168.03
6367,53.1884,-1.612643,162.86,13.79,6,156.02,17 / 19,2109314,2019-11-06 16:41:29:776,2.0571,0.9768,9.0085,0.0031,0.0329,9.8065,0.059,-0.2427,0.078,-14.94,-34.75,34.38,346.32,-86.15,-168.99
6368,53.1884,-1.612643,162.86,13.79,6,156.02,17 / 19,2109414,2019-11-06 16:41:29:876,0.2599,-1.2558,9.8669,0.014,0.0195,9.8065,-0.0596,-0.2205,0.1421,-15.06,-34.31,40.31,350.79,-86.27,-168.16
6369,53.1884,-1.612643,162.86,13.79,6,156.02,17 / 19,2109514,2019-11-06 16:41:29:976,0.0065,3.0025,9.3673,0.0305,-0.0079,9.8065,0.0377,-0.0547,0.0716,-26.5,-38.06,60.0,349.77,-86.18,-166.39
6370,53.1884,-1.612643,162.86,13.79,6,156.02,17 / 19,2109614,2019-11-06 16:41:30:076,1.1056,-1.603,9.9388,0.0087,0.0093,9.8066,0.0423,-0.1093,0.0153,-22.75,-37.06,31.94,333.98,-85.98,-168.6
6371,53.1884,-1.612643,162.86,13.79,6,156.02,17 / 19,2109714,2019-11-06 16:41:30:176,1.7003,0.6072,10.027,-0.0129,0.0096,9.8066,-0.0403,-0.0163,-0.0924,-18.37,-36.81,31.44,339.32,-86.02,-169.05
6372,53.1884,-1.612643,162.86,13.79,6,156.02,17 / 19,2109814,2019-11-06 16:41:30:276,-0.6376,-0.6171,9.7797,0.0196,0.0105,9.8066,-0.07,-0.0378,0.1147,-17.94,-36.69,30.88,340.68,-86.31,-167.88
6373,53.1884,-1.612643,162.86,13.79,6,156.02,17 / 19,2109925,2019-11-06 16:41:30:387,-0.4651,0.5568,9.9451,-0.0084,-0.011,9.8066,0.0699,0.0931,-0.0967,-17.62,-36.37,31.25,342.32,-86.41,-166.41
6374,53.1884,-1.612643,162.86,13.79,6,156.02,17 / 19,2110014,2019-11-06 16:41:30:476,-1.6399,-0.3032,9.6366,0.0077,0.0051,9.8066,-0.0187,-0.0808,0.0886,-19.94,-37.5,31.0,338.86,-86.31,-166.94
6375,53.1884,-1.612643,162.86,13.79,6,156.02,17 / 19,2110114,2019-11-06 16:41:30:576,-0.3714,-1.5114,10.1689,-0.0112,-0.0067,9.8066,0.001,0.0435,-0.1359,-33.06,-39.87,55.31,343.11,-86.34,-165.23
6376,53.1884,-1.612643,162.86,13.79,6,156.02,17 / 19,2110213,2019-11-06 16:41:30:675,-0.5329,-0.6392,10.8446,0.0263,0.0154,9.8065,-0.0097,-0.0731,0.1088,-14.87,-33.75,46.44,354.23,-86.46,-167.44
6377,53.1884,-1.612643,162.86,13.79,6,156.02,17 / 19,2110313,2019-11-06 16:41:30:775,-0.201,1.0231,9.4337,0.0064,0.0085,9.8066,0.0784,0.0565,-0.0702,-15.06,-35.25,36.69,349.66,-86.47,-167.7
6378,53.1884,-1.612643,162.86,13.79,6,156.02,17 / 19,2110413,2019-11-06 16:41:30:875,0.2095,0.7676,9.4466,0.0193,0.0031,9.8066,-0.1148,-0.1767,0.0316,-15.81,-35.75,33.0,341.25,-86.46,-171.73
6379,53.1884,-1.612643,162.86,13.79,6,156.02,17 / 19,2110513,2019-11-06 16:41:30:975,1.9319,1.4476,8.9961,0.0087,0.0129,9.8065,-0.0379,0.0686,-0.0114,-15.56,-36.0,31.94,341.27,-86.56,-171.03
6380,53.1884,-1.612643,162.86,13.79,6,156.02,17 / 19,2110613,2019-11-06 16:41:31:075,-0.1181,-0.3319,9.8346,0.0087,0.027,9.8066,0.0081,-0.0737,0.0153,-15.06,-35.69,32.0,341.72,-86.63,-172.06
6381,53.1884,-1.612643,162.86,13.79,6,156.02,17 / 19,2110714,2019-11-06 16:41:31:176,-2.4773,-0.6096,10.2933,-0.0302,-0.0142,9.8065,-0.0493,0.2163,-0.1365,-14.87,-36.12,33.81,346.51,-86.7,-168.92
6382,53.1884,-1.612643,162.86,13.79,6,156.02,17 / 19,2110813,2019-11-06 16:41:31:275,-1.8404,0.2071,10.0994,0.003,-0.0068,9.8066,-0.0542,-0.0112,-0.0038,-14.5,-34.37,39.38,349.71,-86.81,-170.06
6383,53.187206,-1.61188,162.28,16.15,4,160.74,17 / 20,2110914,2019-11-06 16:41:31:376,-0.5907,-0.0705,9.7232,-0.0182,0.0013,9.8066,0.0078,-0.0875,-0.0448,-20.19,-37.31,58.69,351.47,-86.91,-169.52
6384,53.187206,-1.61188,162.28,16.15,4,160.74,17 / 20,2111014,2019-11-06 16:41:31:476,-0.1675,1.1301,9.7914,-0.0101,0.0219,9.8066,-0.0176,-0.0776,0.0619,-22.56,-37.94,32.06,334.92,-87.18,-168.2
6385,53.187206,-1.61188,162.28,16.15,4,160.74,17 / 20,2111114,2019-11-06 16:41:31:576,-0.049,0.5698,9.9728,-0.0016,0.0208,9.8066,-0.0307,-0.0221,0.0315,-17.62,-36.12,31.06,341.69,-87.38,-167.33
6386,53.187206,-1.61188,162.28,16.15,4,160.74,17 / 20,2111213,2019-11-06 16:41:31:675,0.2871,-0.3929,9.2624,0.0006,0.027,9.8065,0.006,0.002,0.0268,-16.94,-36.44,31.06,344.64,-87.44,-165.92
6387,53.187206,-1.61188,162.28,16.15,4,160.74,17 / 20,2111313,2019-11-06 16:41:31:775,0.0373,-1.0365,9.7625,0.0024,-0.0114,9.8066,-0.0497,-0.036,0.0019,-16.69,-36.56,31.13,343.39,-87.59,-167.14
6388,53.187206,-1.61188,162.28,16.15,4,160.74,17 / 20,2111414,2019-11-06 16:41:31:876,-0.0224,0.72,9.9062,0.0132,0.0049,9.8066,0.0057,-0.1253,0.0071,-18.94,-37.0,31.0,341.09,-87.61,-166.6
6389,53.187206,-1.61188,162.28,16.15,4,160.74,17 / 20,2111514,2019-11-06 16:41:31:976,-0.8267,-1.4548,10.116,0.0022,0.0166,9.8066,0.0164,-0.1695,0.1151,-32.62,-39.19,42.94,334.09,-87.67,-167.65
6390,53.187206,-1.61188,162.28,16.15,4,160.74,17 / 20,2111614,2019-11-06 16:41:32:076,0.1728,-0.0943,9.238,0.0018,0.0082,9.8066,-0.0107,0.0312,-0.0114,-14.81,-33.31,45.25,355.04,-87.77,-166.39
6391,53.187206,-1.61188,162.28,16.15,4,160.74,17 / 20,2111714,2019-11-06 16:41:32:176,0.5185,-1.2793,9.483,-0.007,0.0042,9.8066,-0.0063,0.0369,-0.0502,-14.62,-34.69,35.38,350.97,-87.77,-165.51
6392,53.187206,-1.61188,162.28,16.15,4,160.74,17 / 20,2111814,2019-11-06 16:41:32:276,-0.1529,0.6657,9.9869,-0.0138,-0.0007,9.8066,0.0399,-0.0628,-0.0162,-14.81,-35.62,32.63,345.93,-87.76,-169.07
6393,53.187206,-1.61188,162.28,16.15,4,160.74,16 / 19,2111914,2019-11-06 16:41:32:376,-0.6369,-0.0224,9.7797,0.0101,0.0077,9.8066,-0.0031,-0.077,0.071,-14.81,-35.94,32.19,346.23,-87.78,-168.1
6394,53.187206,-1.61188,162.28,16.15,4,160.74,16 / 19,2112013,2019-11-06 16:41:32:475,1.3326,0.474,9.9432,-0.0053,0.0021,9.8066,0.0254,0.0994,-0.0503,-14.37,-35.62,32.13,349.68,-87.72,-166.26
6395,53.187206,-1.61188,162.28,16.15,4,160.74,16 / 19,2112113,2019-11-06 16:41:32:575,0.2542,-0.1085,9.8871,0.0181,0.0004,9.8066,0.0423,-0.047,-0.0008,-14.44,-35.56,33.06,350.97,-87.76,-165.68
6396,53.187206,-1.61188,162.28,16.15,4,160.74,16 / 19,2112213,2019-11-06 16:41:32:675,-1.355,0.2808,9.8233,-0.0253,0.0154,9.8065,-0.0496,0.0764,-0.0938,-14.44,-34.5,39.25,358.07,-87.84,-162.12
6397,53.187206,-1.61188,162.28,16.15,4,160.74,16 / 19,2112313,2019-11-06 16:41:32:775,-0.0463,-1.2816,10.5131,-0.0031,0.008,9.8066,-0.024,0.0214,0.0433,-25.44,-38.56,60.88,357.47,-87.87,-160.19
6398,53.187206,-1.61188,162.28,16.15,4,160.74,16 / 19,2112414,2019-11-06 16:41:32:876,-1.363,-0.4185,10.076,0.0225,-0.0058,9.8066,0.1059,0.1103,-0.049,-26.44,-38.19,34.13,338.32,-87.86,-163.56
6399,53.187206,-1.61188,162.28,16.15,4,160.74,16 / 19,2112513,2019-11-06 16:41:32:975,0.5005,-0.7215,9.3362,0.0293,0.0015,9.8066,-0.0815,0.0107,-0.0059,-17.06,-37.25,30.88,345.22,-87.85,-165.45
6400,53.187206,-1.61188,162.28,16.15,4,160.74,16 / 19,2112613,2019-11-06 16:41:33:075,-0.4042,-0.1954,9.3036,-0.0139,-0.0003,9.8066,-0.0373,-0.1134,0.0291,-16.5,-36.75,30.69,346.06,-87.74,-166.05
6401,53.187206,-1.61188,162.28,16.15,4,160.74,16 / 19,2112713,2019-11-06 16:41:33:175,-0.7917,-0.7214,10.5492,-0.0029,-0.0277,9.8065,0.1002,-0.1274,0.0799,-16.94,-37.0,30.31,338.68,-87.77,-170.9
6402,53.187206,-1.61188,162.28,16.15,4,160.74,16 / 19,2112813,2019-11-06 16:41:33:275,-1.0899,0.8434,9.4625,0.0098,0.0087,9.8065,0.0671,0.0149,-0.0812,-19.37,-37.19,30.69,334.87,-87.77,-172.65
6403,53.187206,-1.61188,162.28,16.15,4,160.74,19 / 21,2112914,2019-11-06 16:41:33:376,-1.0091,-0.311,9.489,0.0075,0.0264,9.8066,-0.0988,-0.0147,0.0204,-32.31,-40.44,46.25,333.54,-87.78,-170.91
6404,53.187206,-1.61188,162.28,16.15,4,160.74,19 / 21,2113014,2019-11-06 16:41:33:476,-0.1777,-0.0612,10.1191,-0.016,0.0169,9.8066,-0.1439,-0.0017,0.0244,-15.25,-34.87,52.88,352.02,-87.89,-171.98
6405,53.187206,-1.61188,162.28,16.15,4,160.74,19 / 21,2113114,2019-11-06 16:41:33:576,-2.23,0.4558,10.4531,-0.022,-0.0061,9.8066,0.0151,0.0147,0.0492,-13.75,-35.25,35.63,349.8,-88.09,-168.64
6406,53.187206,-1.61188,162.28,16.15,4,160.74,19 / 21,2113214,2019-11-06 16:41:33:676,-0.3814,-0.1815,9.6424,0.0021,-0.0045,9.8066,-0.0383,-0.0921,0.0342,-14.25,-35.37,33.31,347.36,-88.23,-169.27
6407,53.187206,-1.61188,162.28,16.15,4,160.74,19 / 21,2113314,2019-11-06 16:41:33:776,-1.6657,0.5195,10.269,-0.0221,-0.0044,9.8066,0.0289,-0.0893,0.0327,-13.94,-35.62,32.38,347.27,-88.17,-168.68
6408,53.187206,-1.61188,162.28,16.15,4,160.74,19 / 21,2113414,2019-11-06 16:41:33:876,-1.1457,1.8082,9.4479,-0.0176,0.0007,9.8066,-0.0095,-0.1292,0.1303,-13.56,-35.69,32.38,355.79,-88.28,-160.45
6409,53.187206,-1.61188,162.28,16.15,4,160.74,19 / 21,2113514,2019-11-06 16:41:33:976,1.0399,-0.9256,9.2825,-0.0085,-0.0281,9.8066,0.0837,-0.049,-0.0004,-14.25,-35.0,32.81,2.55,-88.41,-154.53
6410,53.187206,-1.61188,162.28,16.15,4,160.74,19 / 21,2113614,2019-11-06 16:41:34:076,-0.8363,0.2986,9.7194,0.0124,-0.0102,9.8066,0.0499,-0.1866,0.091,-13.5,-34.69,37.69,6.7,-88.09,-154.61
6411,53.187206,-1.61188,162.28,16.15,4,160.74,19 / 21,2113714,2019-11-06 16:41:34:176,-1.8195,-0.1163,10.0112,-0.0097,-0.0014,9.8066,-0.0236,-0.135,0.0302,-25.69,-38.87,59.69,9.19,-88.04,-147.57
6412,53.187206,-1.61188,162.28,16.15,4,160.74,19 / 21,2113814,2019-11-06 16:41:34:276,-0.3819,-0.2008,8.9204,-0.0036,-0.0069,9.8066,-0.0807,-0.1,0.022,-25.75,-38.06,33.81,355.48,-88.05,-146.98
6413,53.187206,-1.61188,162.28,16.15,4,160.74,19 / 20,2113914,2019-11-06 16:41:34:376,-0.3738,0.1227,10.3375,-0.0081,-0.0097,9.8066,0.0748,0.0154,0.0024,-18.12,-37.62,30.81,1.32,-88.04,-148.59
6414,53.187206,-1.61188,162.28,16.15,4,160.74,19 / 20,2114014,2019-11-06 16:41:34:476,-1.449,0.5664,10.0741,0.0169,0.0097,9.8066,0.0138,-0.0851,0.0234,-16.25,-37.0,30.56,3.36,-88.12,-149.46
6415,53.187206,-1.61188,162.28,16.15,4,160.74,19 / 20,2114114,2019-11-06 16:41:34:576,-0.2412,0.7084,9.6006,-0.0128,0.011,9.8066,-0.1058,0.0199,-0.0065,-16.12,-36.81,30.94,6.64,-88.17,-146.28
6416,53.187206,-1.61188,162.28,16.15,4,160.74,19 / 20,2114214,2019-11-06 16:41:34:676,-0.7668,0.3495,9.5679,-0.0087,0.0034,9.8066,-0.0119,-0.2713,0.1677,-17.75,-37.75,30.13,7.58,-88.24,-141.72
6417,53.187206,-1.61188,162.28,16.15,4,160.74,19 / 20,2114313,2019-11-06 16:41:34:775,-0.609,-2.4526,9.7695,-0.0169,-0.0238,9.8066,0.046,-0.159,0.0237,-32.75,-40.19,46.38,6.45,-88.24,-138.04
6418,53.187206,-1.61188,162.28,16.15,4,160.74,19 / 20,2114414,2019-11-06 16:41:34:876,-0.7373,-0.5712,10.1219,-0.0078,-0.0079,9.8065,0.0791,-0.2923,0.1182,-15.56,-34.31,53.5,24.94,-88.29,-139.0
6419,53.187206,-1.61188,162.28,16.15,4,160.74,19 / 20,2114513,2019-11-06 16:41:34:975,-1.278,-1.4338,9.4666,-0.0188,-0.0088,9.8066,-0.0092,-0.2175,0.0846,-13.37,-35.06,38.06,21.44,-88.45,-140.17
6420,53.187206,-1.61188,162.28,16.15,4,160.74,19 / 20,2114613,2019-11-06 16:41:35:075,2.0688,0.9233,9.4202,-0.0385,0.0049,9.8066,-0.1331,-0.0721,0.0925,-13.69,-35.81,32.19,24.01,-88.44,-133.03
6421,53.187206,-1.61188,162.28,16.15,4,160.74,19 / 20,2114713,2019-11-06 16:41:35:175,-0.3257,0.6841,10.8784,-0.0249,0.0265,9.8065,-0.0285,-0.0696,0.07,-14.75,-36.37,32.0,27.03,-88.45,-128.58
6422,53.187206,-1.61188,162.28,16.15,4,160.74,19 / 20,2114813,2019-11-06 16:41:35:275,-3.0989,-3.7039,10.177,0.0097,-0.0183,9.8066,0.0735,-0.1726,0.222,-14.44,-35.75,32.75,33.92,-88.45,-123.97
6423,53.187206,-1.61188,162.28,16.15,4,160.74,19 / 20,2114913,2019-11-06 16:41:35:375,-1.6389,0.3599,10.7185,-0.0199,-0.0645,9.8064,0.097,-0.0967,-0.0358,-13.94,-35.06,33.81,24.45,-87.98,-133.98
6424,53.187206,-1.61188,162.28,16.15,4,160.74,19 / 20,2115014,2019-11-06 16:41:35:476,2.9579,0.9806,9.0592,-0.0104,0.0142,9.8066,0.037,-0.3959,0.1681,-13.12,-34.44,37.44,30.36,-88.14,-131.11
6425,53.187206,-1.61188,162.28,16.15,4,160.74,19 / 20,2115114,2019-11-06 16:41:35:576,-0.8513,0.0489,10.0654,-0.0361,-0.0041,9.8066,-0.0267,-0.3121,0.1911,-14.94,-35.56,56.13,34.06,-88.17,-131.6
6426,53.187206,-1.61188,162.28,16.15,4,160.74,19 / 20,2115214,2019-11-06 16:41:35:676,1.7288,1.3581,9.3228,-0.0259,-0.0201,9.8065,0.0459,-0.1766,0.0835,-24.06,-38.06,34.69,18.18,-88.08,-127.93
6427,53.187206,-1.61188,162.28,16.15,4,160.74,19 / 20,2115314,2019-11-06 16:41:35:776,-1.4059,-1.4844,10.0378,-0.0027,0.0204,9.8066,0.0571,-0.2623,0.1086,-16.81,-36.87,30.75,25.38,-88.26,-126.67
6428,53.187206,-1.61188,162.28,16.15,4,160.74,19 / 20,2115413,2019-11-06 16:41:35:875,0.1999,0.8494,9.7467,-0.0036,0.0297,9.8065,-0.0599,0.0326,-0.0838,-15.62,-36.06,29.81,27.13,-88.29,-125.63
6429,53.187206,-1.61188,162.28,16.15,4,160.74,19 / 20,2115513,2019-11-06 16:41:35:975,-2.2823,-1.4272,10.2857,0.0325,0.0267,9.8065,0.0184,-0.2911,0.0833,-15.5,-35.94,30.5,33.27,-88.6,-121.72
6430,53.187206,-1.61188,162.28,16.15,4,160.74,19 / 20,2115614,2019-11-06 16:41:36:076,0.0283,2.0249,10.974,0.0201,-0.0361,9.8065,0.0257,0.2636,-0.1443,-17.25,-37.37,30.5,19.06,-88.53,-132.71
6431,53.187206,-1.61188,162.28,16.15,4,160.74,19 / 20,2115714,2019-11-06 16:41:36:176,-1.38,-0.8446,8.7301,0.0234,0.0228,9.8065,0.0552,-0.2384,-0.052,-28.19,-39.37,37.44,4.49,-88.71,-138.48
6432,53.187206,-1.61188,162.28,16.15,4,160.74,19 / 20,2115814,2019-11-06 16:41:36:276,-7.1901,2.2101,10.5655,-0.0191,-0.0522,9.8065,0.0921,0.6848,-0.2527,-18.19,-36.25,58.94,10.22,-88.97,-152.92
6433,53.187206,-1.61188,162.28,16.15,4,160.74,18 / 18,2115914,2019-11-06 16:41:36:376,-4.6958,0.337,11.0308,0.057,-0.0418,9.8063,-0.1052,0.4726,-0.2183,-12.19,-34.56,36.0,357.45,-88.45,-164.05
6434,53.187206,-1.61188,162.28,16.15,4,160.74,18 / 18,2116014,2019-11-06 16:41:36:476,-5.8933,-2.8083,9.4092,-0.0936,-0.064,9.8059,-0.084,0.5359,-0.2682,-12.87,-35.62,32.94,0.7,-88.72,-157.82
6435,53.187206,-1.61188,162.28,16.15,4,160.74,18 / 18,2116113,2019-11-06 16:41:36:575,4.4372,1.6305,9.4799,-0.0795,-0.0344,9.8062,-0.0437,0.5954,-0.4579,-13.19,-36.62,31.38,17.83,-88.37,-139.98
6436,53.187206,-1.61188,162.28,16.15,4,160.74,18 / 18,2116214,2019-11-06 16:41:36:676,-5.2584,0.1272,10.0652,-0.0555,-0.0213,9.8064,-0.007,0.1639,-0.225,-12.69,-36.69,32.19,15.26,-88.4,-143.09
6437,53.187206,-1.61188,162.28,16.15,4,160.74,18 / 18,2116313,2019-11-06 16:41:36:775,1.7235,1.7606,9.6392,-0.0351,-0.0336,9.8065,-0.0999,0.4646,-0.2086,-12.25,-35.81,32.63,13.48,-88.56,-146.88
6438,53.187206,-1.61188,162.28,16.15,4,160.74,18 / 18,2116414,2019-11-06 16:41:36:876,-3.9812,-2.1862,9.2856,-0.0146,-0.0172,9.8066,-0.0702,-0.4544,0.2284,-11.44,-33.94,36.13,13.63,-88.67,-149.67
6439,53.187206,-1.61188,162.28,16.15,4,160.74,18 / 18,2116514,2019-11-06 16:41:36:976,-7.3157,-0.0397,10.983,-0.0636,0.0007,9.8064,0.1137,0.136,-0.0654,-20.12,-37.56,58.75,27.98,-88.39,-133.76
6440,53.187206,-1.61188,162.28,16.15,4,160.74,18 / 18,2116613,2019-11-06 16:41:37:075,-2.241,-1.7473,10.773,0.0175,0.0944,9.8062,0.258,-0.6043,0.2739,-27.06,-39.44,36.31,15.94,-88.53,-127.55
6441,53.187206,-1.61188,162.28,16.15,4,160.74,18 / 18,2116713,2019-11-06 16:41:37:175,-2.2736,-1.2155,9.8782,0.0326,0.0022,9.8066,-0.0077,-0.409,0.0528,-16.81,-37.56,30.88,10.98,-88.84,-140.52
6442,53.187206,-1.61188,162.28,16.15,4,160.74,18 / 18,2116813,2019-11-06 16:41:37:275,2.1672,1.3121,10.0055,0.0278,0.0215,9.8066,0.0347,-0.1974,0.0978,-14.5,-37.37,30.94,7.86,-88.99,-147.99
6443,53.187206,-1.61188,162.28,16.15,4,160.74,18 / 20,2116914,2019-11-06 16:41:37:376,-0.5103,-1.5259,9.2949,0.044,0.0052,9.8065,-0.0346,-0.3373,0.2111,-14.37,-37.37,30.25,3.94,-88.88,-151.13
6444,53.187206,-1.61188,162.28,16.15,4,160.74,18 / 20,2117014,2019-11-06 16:41:37:476,2.6361,-0.0815,9.4959,-0.0112,0.0299,9.8065,-0.0655,0.0679,-0.0079,-16.37,-37.87,30.69,12.23,-88.77,-140.76
6445,53.187206,-1.61188,162.28,16.15,4,160.74,18 / 20,2117114,2019-11-06 16:41:37:576,0.5455,-2.1828,9.6563,0.0213,0.0015,9.8066,-0.0354,-0.168,0.142,-25.0,-39.31,34.06,10.38,-88.87,-133.48
6446,53.187206,-1.61188,162.28,16.15,4,160.74,18 / 20,2117214,2019-11-06 16:41:37:676,0.4253,2.4796,8.9945,0.0068,0.036,9.8065,-0.0648,-0.107,0.0849,-14.06,-35.12,54.38,40.36,-89.0,-125.51
6447,53.187206,-1.61188,162.28,16.15,4,160.74,18 / 20,2117314,2019-11-06 16:41:37:776,-0.5866,-1.9927,10.4686,0.0163,0.052,9.8065,0.0588,-0.174,-0.0119,-12.44,-34.62,37.13,55.84,-89.06,-106.89
6448,53.187206,-1.61188,162.28,16.15,4,160.74,18 / 20,2117414,2019-11-06 16:41:37:876,-2.2874,-0.5008,9.3995,-0.0404,0.002,9.8065,0.0399,0.2697,-0.1715,-12.94,-36.87,33.19,47.61,-89.21,-111.5
6449,53.187206,-1.61188,162.28,16.15,4,160.74,18 / 20,2117514,2019-11-06 16:41:37:976,-0.1399,-2.4238,9.789,0.0022,-0.002,9.8066,-0.016,0.1227,-0.0627,-12.62,-36.25,31.69,48.44,-89.14,-110.13
6450,53.187206,-1.61188,162.28,16.15,4,160.74,18 / 20,2117614,2019-11-06 16:41:38:076,-1.4042,-0.41,9.8501,-0.0283,-0.0233,9.8065,-0.0138,0.2293,-0.1558,-12.69,-36.56,31.88,42.47,-89.15,-116.04
6451,53.187206,-1.61188,162.28,16.15,4,160.74,18 / 20,2117714,2019-11-06 16:41:38:176,2.5523,-1.0295,9.6978,-0.0097,-0.008,9.8066,0.0191,0.1379,-0.0951,-11.94,-36.06,33.13,42.79,-89.02,-117.91
6452,53.187206,-1.61188,162.28,16.15,4,160.74,18 / 20,2117814,2019-11-06 16:41:38:276,0.2211,-0.3242,10.0971,-0.0366,-0.0073,9.8065,0.0247,0.1966,-0.1358,-11.62,-34.31,37.69,48.3,-88.93,-114.86
6453,53.187206,-1.61188,162.28,16.15,4,160.74,17 / 17,2117914,2019-11-06 16:41:38:376,1.8897,-0.4663,9.413,-0.0224,-0.0008,9.8066,-0.013,0.1702,-0.1751,-14.0,-36.37,55.94,50.65,-89.0,-115.8
6454,53.187206,-1.61188,162.28,16.15,4,160.74,17 / 17,2118013,2019-11-06 16:41:38:475,0.341,-1.9048,10.1721,0.0018,-0.0203,9.8066,-0.0292,0.0588,-0.0622,-29.56,-40.44,40.56,23.65,-89.12,-120.43
6455,53.187206,-1.61188,162.28,16.15,4,160.74,17 / 17,2118114,2019-11-06 16:41:38:576,1.4298,-1.8497,9.6223,-0.0019,-0.0066,9.8066,0.0367,0.0203,-0.0197,-15.37,-37.31,30.31,26.21,-89.04,-127.7
6456,53.187206,-1.61188,162.28,16.15,4,160.74,17 / 17,2118214,2019-11-06 16:41:38:676,-1.1476,-0.2781,10.3052,0.0027,0.0058,9.8066,0.0312,-0.0643,0.0053,-14.12,-37.31,30.94,21.76,-88.98,-134.35
6457,53.187206,-1.61188,162.28,16.15,4,160.74,17 / 17,2118314,2019-11-06 16:41:38:776,-1.0353,1.0648,9.9787,-0.0179,-0.0041,9.8066,-0.0658,0.0909,-0.0291,-13.81,-37.19,31.31,25.82,-89.03,-130.34
6458,53.187206,-1.61188,162.28,16.15,4,160.74,17 / 17,2118414,2019-11-06 16:41:38:876,-0.941,0.0986,9.6589,-0.0076,-0.006,9.8066,-0.0054,-0.0707,0.0195,-15.87,-37.06,30.69,33.05,-89.07,-120.19
6459,53.187206,-1.61188,162.28,16.15,4,160.74,17 / 17,2118514,2019-11-06 16:41:38:976,-0.4081,-0.0799,9.9956,-0.0125,0.0114,9.8066,0.0308,-0.0578,0.0162,-26.06,-39.5,35.75,30.04,-89.06,-114.53
6460,53.187206,-1.61188,162.28,16.15,4,160.74,17 / 17,2118614,2019-11-06 16:41:39:076,0.2305,-2.3276,9.4867,-0.0017,-0.0108,9.8066,0.0815,0.0964,-0.0816,-19.12,-36.69,60.38,43.55,-88.95,-119.31
6461,53.187206,-1.61188,162.28,16.15,4,160.74,17 / 17,2118714,2019-11-06 16:41:39:176,0.168,-2.1036,10.2777,0.0052,-0.015,9.8066,-0.0429,-0.0246,0.0602,-11.69,-34.69,36.5,32.19,-88.84,-130.4
6462,53.187206,-1.61188,162.28,16.15,4,160.74,17 / 17,2118814,2019-11-06 16:41:39:276,-1.0142,-0.7449,9.3089,0.0083,0.0054,9.8066,-0.0186,0.0564,0.0667,-12.44,-35.87,33.5,35.72,-88.72,-125.59
6463,53.187206,-1.61188,162.28,16.15,4,160.74,17 / 20,2118914,2019-11-06 16:41:39:376,-0.0433,-0.1439,9.817,-0.0215,-0.0009,9.8066,-0.0257,-0.0167,-0.0601,-11.87,-35.94,32.56,36.19,-88.72,-124.61
6464,53.187206,-1.61188,162.28,16.15,4,160.74,17 / 20,2119014,2019-11-06 16:41:39:476,0.5197,-1.0075,9.3075,0.0026,-0.0077,9.8066,-0.0698,0.0602,-0.0038,-12.0,-36.87,32.19,33.4,-88.76,-126.79
6465,53.187206,-1.61188,162.28,16.15,4,160.74,17 / 20,2119113,2019-11-06 16:41:39:575,1.1744,-1.277,9.9923,-0.0068,0.0023,9.8066,0.006,0.0734,-0.0102,-11.69,-36.69,32.75,39.23,-88.8,-121.59
6466,53.187206,-1.61188,162.28,16.15,4,160.74,17 / 20,2119214,2019-11-06 16:41:39:676,-0.003,-1.213,9.7763,-0.0057,0.0006,9.8066,0.0379,-0.0664,-0.0321,-11.44,-35.12,35.81,41.68,-88.77,-122.09
6467,53.187206,-1.61188,162.28,16.15,4,160.74,17 / 20,2119314,2019-11-06 16:41:39:776,0.238,-2.0134,10.1063,-0.0043,-0.0102,9.8066,-0.024,-0.0261,0.0228,-17.81,-38.19,58.25,41.74,-88.73,-121.56
6468,53.187206,-1.61188,162.28,16.15,4,160.74,17 / 20,2119413,2019-11-06 16:41:39:875,-0.1682,-0.8687,9.9949,0.0002,-0.0111,9.8066,-0.0071,-0.0165,0.0383,-27.0,-38.81,37.56,24.37,-88.75,-120.67
6469,53.187206,-1.61188,162.28,16.15,4,160.74,17 / 20,2119513,2019-11-06 16:41:39:975,1.2957,-2.1194,9.5616,0.0014,-0.0137,9.8066,0.0663,-0.0221,-0.0695,-16.06,-37.06,30.31,27.19,-88.59,-125.45
6470,53.187206,-1.61188,162.28,16.15,4,160.74,17 / 20,2119614,2019-11-06 16:41:40:076,1.1559,-2.4052,8.9177,0.0329,-0.0009,9.8065,0.0099,-0.2637,0.1264,-14.0,-36.87,30.88,15.95,-88.54,-140.18
6471,53.187206,-1.61188,162.28,16.15,4,160.74,17 / 20,2119714,2019-11-06 16:41:40:176,-0.2501,-1.1932,8.1919,-0.0069,0.0172,9.8066,-0.0147,-0.0947,0.1145,-14.12,-36.75,30.0,22.06,-88.39,-133.61
6472,53.187206,-1.61188,162.28,16.15,4,160.74,17 / 20,2119814,2019-11-06 16:41:40:276,-1.4686,-1.3343,11.3283,-0.0236,0.0162,9.8066,-0.2485,0.585,-0.2588,-15.31,-37.62,30.0,25.1,-88.26,-129.18
6473,53.185932,-1.611393,163.54,17.24,4,172.69,17 / 19,2119914,2019-11-06 16:41:40:376,-2.5217,-8.5175,14.6109,0.0361,-0.046,9.8064,0.138,-0.0341,0.0533,-28.31,-39.5,39.25,19.97,-88.4,-124.8
6474,53.185932,-1.611393,163.54,17.24,4,172.69,17 / 19,2120014,2019-11-06 16:41:40:476,-7.2208,-2.1025,10.9942,-0.0876,-0.076,9.806,-0.086,1.2076,-0.4508,-16.5,-35.31,58.81,29.99,-88.3,-135.33
6475,53.185932,-1.611393,163.54,17.24,4,172.69,17 / 19,2120114,2019-11-06 16:41:40:576,9.5722,1.6064,7.8001,-0.0937,-0.0708,9.8059,-0.2095,1.1525,-0.6681,-12.25,-34.69,38.06,29.48,-87.82,-133.96
6476,53.185932,-1.611393,163.54,17.24,4,172.69,17 / 19,2120213,2019-11-06 16:41:40:675,-3.5886,-1.4776,9.9364,-0.0641,-0.0238,9.8063,-0.0058,0.2677,-0.1193,-11.25,-36.06,33.31,29.26,-88.12,-133.27
6477,53.185932,-1.611393,163.54,17.24,4,172.69,17 / 19,2120314,2019-11-06 16:41:40:776,7.6826,2.3841,8.1794,-0.093,-0.0625,9.806,-0.116,0.9377,-0.5382,-11.87,-36.37,32.25,29.16,-88.06,-131.29
6478,53.185932,-1.611393,163.54,17.24,4,172.69,17 / 19,2120413,2019-11-06 16:41:40:875,-0.5831,-1.9826,10.0016,-0.0114,-0.0253,9.8066,0.0133,-0.1448,0.0295,-11.44,-36.31,31.94,23.02,-88.45,-138.66
6479,53.185932,-1.611393,163.54,17.24,4,172.69,17 / 19,2120513,2019-11-06 16:41:40:975,4.8173,1.4339,9.2057,-0.0556,-0.0406,9.8064,0.0086,0.4536,-0.2828,-11.25,-35.81,32.88,20.94,-88.17,-141.31
6480,53.185932,-1.611393,163.54,17.24,4,172.69,17 / 19,2120613,2019-11-06 16:41:41:075,-2.7201,0.5318,10.4758,0.0173,0.0119,9.8066,0.0684,-0.1875,0.0664,-10.56,-34.69,36.19,15.2,-88.31,-148.23
6481,53.185932,-1.611393,163.54,17.24,4,172.69,17 / 19,2120713,2019-11-06 16:41:41:175,-0.2583,-0.5112,9.8234,-0.0271,-0.0273,9.8065,-0.0568,0.1791,-0.1076,-10.44,-35.37,50.5,15.07,-88.27,-154.14
6482,53.185932,-1.611393,163.54,17.24,4,172.69,17 / 19,2120814,2019-11-06 16:41:41:276,-0.9074,-0.9599,10.6114,0.0089,0.0092,9.8066,0.0749,-0.2201,0.0818,-25.37,-39.12,35.19,346.05,-88.34,-158.05
6483,53.185932,-1.611393,163.54,17.24,4,172.69,16 / 18,2120914,2019-11-06 16:41:41:376,-0.9845,-0.3026,9.5371,-0.002,-0.0067,9.8066,-0.1732,-0.0495,0.058,-15.56,-37.81,29.63,356.32,-88.3,-155.48
6484,53.185932,-1.611393,163.54,17.24,4,172.69,16 / 18,2121013,2019-11-06 16:41:41:475,2.1435,-1.2445,10.8955,-0.0033,0.0009,9.8066,-0.15,-0.1129,0.0005,-13.69,-39.31,30.38,1.27,-88.47,-153.75
6485,53.185932,-1.611393,163.54,17.24,4,172.69,16 / 18,2121114,2019-11-06 16:41:41:576,3.9624,-0.7598,9.4997,0.0329,-0.0048,9.8065,-0.1048,-0.0232,-0.0574,-13.81,-38.81,32.5,12.37,-88.69,-144.94
6486,53.185932,-1.611393,163.54,17.24,4,172.69,16 / 18,2121213,2019-11-06 16:41:41:675,-1.6849,-2.0357,10.5879,0.0224,0.0369,9.8065,0.1434,-0.2992,0.1282,-14.87,-37.44,31.88,12.6,-88.91,-142.53
6487,53.185932,-1.611393,163.54,17.24,4,172.69,16 / 18,2121313,2019-11-06 16:41:41:775,-1.6875,-2.8518,9.7768,-0.0486,-0.0369,9.8064,0.0282,0.4143,-0.3692,-22.62,-39.56,34.0,0.8,-88.82,-145.14
6488,53.185932,-1.611393,163.54,17.24,4,172.69,16 / 18,2121414,2019-11-06 16:41:41:876,-4.7929,-1.2438,10.2083,0.0431,0.0285,9.8065,0.0071,-0.1281,0.1423,-14.81,-36.12,57.88,20.48,-88.82,-145.27
6489,53.185932,-1.611393,163.54,17.24,4,172.69,16 / 18,2121514,2019-11-06 16:41:41:976,-0.2355,0.9958,9.8478,-0.0582,-0.0241,9.8064,0.0301,0.5978,-0.3522,-11.75,-35.0,38.94,18.22,-88.68,-145.03
6490,53.185932,-1.611393,163.54,17.24,4,172.69,16 / 18,2121614,2019-11-06 16:41:42:076,5.5914,-0.031,9.5411,0.017,-0.0079,9.8066,0.0051,0.0854,-0.1217,-11.81,-36.19,33.88,14.99,-88.48,-145.97
6491,53.185932,-1.611393,163.54,17.24,4,172.69,16 / 18,2121713,2019-11-06 16:41:42:175,4.2181,0.3302,9.3783,-0.0559,-0.0427,9.8063,-0.077,0.6232,-0.3642,-11.81,-36.25,32.94,16.58,-88.2,-143.97
6492,53.185932,-1.611393,163.54,17.24,4,172.69,16 / 18,2121813,2019-11-06 16:41:42:275,1.1914,0.0383,10.2575,0.0038,0.018,9.8065,-0.0417,0.1581,-0.0867,-11.69,-36.25,32.5,12.0,-88.5,-148.34
6493,53.185932,-1.611393,163.54,17.24,4,172.69,18 / 19,2121913,2019-11-06 16:41:42:375,-3.9956,-0.8364,9.7545,-0.0694,-0.0253,9.8063,-0.0343,0.5564,-0.2983,-10.81,-36.12,33.56,9.06,-88.68,-153.22
6494,53.185932,-1.611393,163.54,17.24,4,172.69,18 / 19,2122013,2019-11-06 16:41:42:475,0.5287,1.3962,9.865,-0.0245,0.0388,9.8065,-0.0499,0.5449,-0.2482,-10.56,-35.06,36.5,29.35,-88.73,-134.66
6495,53.185932,-1.611393,163.54,17.24,4,172.69,18 / 19,2122114,2019-11-06 16:41:42:576,-4.4419,3.2106,11.0827,-0.0482,-0.0023,9.8065,-0.1587,0.1888,-0.0313,-10.69,-34.56,53.13,30.21,-88.75,-138.48
6496,53.185932,-1.611393,163.54,17.24,4,172.69,18 / 19,2122214,2019-11-06 16:41:42:676,4.8753,-0.046,9.9964,-0.0647,-0.0485,9.8063,-0.0138,0.485,-0.2079,-30.87,-40.75,45.75,30.93,-88.58,-115.64
6497,53.185932,-1.611393,163.54,17.24,4,172.69,18 / 19,2122314,2019-11-06 16:41:42:776,0.6623,0.1797,9.3856,0.0072,0.0071,9.8066,0.0877,-0.2005,0.1374,-14.5,-36.87,31.81,41.22,-88.69,-116.07
6498,53.185932,-1.611393,163.54,17.24,4,172.69,18 / 19,2122414,2019-11-06 16:41:42:876,3.2509,-0.1255,8.3368,-0.0566,-0.017,9.8064,-0.0678,0.1856,-0.153,-13.37,-37.25,31.5,47.61,-88.53,-111.45
6499,53.185932,-1.611393,163.54,17.24,4,172.69,18 / 19,2122513,2019-11-06 16:41:42:975,-0.58,-1.5943,9.6289,-0.0062,0.0316,9.8066,-0.0485,-0.219,0.1363,-13.87,-37.25,31.63,57.96,-88.59,-99.69
6500,53.185932,-1.611393,163.54,17.24,4,172.69,18 / 19,2122613,2019-11-06 16:41:43:075,-1.7597,-0.6622,9.9223,-0.0196,-0.0074,9.8066,-0.0145,-0.0243,0.0358,-15.19,-37.69,30.44,70.3,-88.49,-84.76
6501,53.185932,-1.611393,163.54,17.24,4,172.69,18 / 19,2122714,2019-11-06 16:41:43:176,-1.1302,-3.6868,9.919,0.0495,0.0184,9.8064,0.055,-0.4351,0.2708,-23.12,-40.0,33.13,59.69,-88.38,-86.83
6502,53.185932,-1.611393,163.54,17.24,4,172.69,18 / 19,2122814,2019-11-06 16:41:43:276,-0.6512,0.3586,10.0256,0.0051,-0.0187,9.8066,0.0197,-0.0652,0.0039,-21.56,-38.69,61.06,63.28,-88.47,-97.71
6503,53.185932,-1.611393,163.54,17.24,4,172.69,17 / 17,2122914,2019-11-06 16:41:43:376,3.6406,0.4868,9.3575,0.0562,0.0227,9.8064,0.0538,-0.4285,0.2291,-10.81,-35.5,38.75,63.84,-88.88,-101.28
6504,53.185932,-1.611393,163.54,17.24,4,172.69,17 / 17,2123013,2019-11-06 16:41:43:475,1.5953,-0.5912,8.6149,0.006,0.0007,9.8066,0.0666,-0.1868,0.0187,-11.56,-35.75,34.81,56.17,-88.74,-105.93
6505,53.185932,-1.611393,163.54,17.24,4,172.69,17 / 17,2123113,2019-11-06 16:41:43:575,1.5447,0.4582,10.2344,0.0212,0.0092,9.8066,0.0393,-0.2554,0.0377,-11.56,-35.62,32.5,49.28,-88.76,-111.71
6506,53.185932,-1.611393,163.54,17.24,4,172.69,17 / 17,2123214,2019-11-06 16:41:43:676,-1.9442,-2.0234,10.3816,0.0452,0.0161,9.8065,0.1427,-0.4591,0.2247,-11.56,-36.12,32.5,41.15,-88.99,-119.56
6507,53.185932,-1.611393,163.54,17.24,4,172.69,17 / 17,2123314,2019-11-06 16:41:43:776,3.8146,1.6941,9.5167,0.0105,0.0288,9.8066,-0.0256,-0.1371,-0.0843,-11.56,-35.94,33.19,35.96,-88.79,-124.79
6508,53.185932,-1.611393,163.54,17.24,4,172.69,17 / 17,2123414,2019-11-06 16:41:43:876,-4.305,-2.759,9.8561,0.0834,0.0487,9.8062,0.008,-0.5886,0.3704,-10.81,-34.62,36.0,45.05,-89.2,-118.49
6509,53.185932,-1.611393,163.54,17.24,4,172.69,17 / 17,2123514,2019-11-06 16:41:43:976,0.0857,1.6101,10.1051,0.0121,0.007,9.8066,-0.06,0.1406,-0.0707,-13.94,-36.12,56.56,56.77,-89.15,-109.88
6510,53.185932,-1.611393,163.54,17.24,4,172.69,17 / 17,2123614,2019-11-06 16:41:44:076,-3.9158,-1.1435,10.3984,0.0492,0.0513,9.8063,0.0794,-0.3922,0.2153,-28.62,-38.75,41.5,42.8,-89.31,-102.94
6511,53.185932,-1.611393,163.54,17.24,4,172.69,17 / 17,2123713,2019-11-06 16:41:44:175,2.1489,-0.6313,9.5176,-0.0241,0.0027,9.8065,-0.0399,0.2778,-0.1187,-15.56,-36.62,31.31,48.71,-89.14,-104.68
6512,53.185932,-1.611393,163.54,17.24,4,172.69,17 / 17,2123814,2019-11-06 16:41:44:276,1.3708,-0.0825,9.5352,0.0177,0.0236,9.8066,0.0078,-0.1544,0.1018,-13.19,-35.56,31.44,72.83,-89.14,-85.31
6513,53.185932,-1.611393,163.54,17.24,4,172.69,18 / 19,2123914,2019-11-06 16:41:44:376,2.3199,1.5962,9.3536,-0.0166,-0.0099,9.8066,-0.025,0.2184,-0.1051,-13.25,-36.94,30.94,69.36,-89.05,-88.87
6514,53.185932,-1.611393,163.54,17.24,4,172.69,18 / 19,2124013,2019-11-06 16:41:44:475,-0.4566,-0.7681,9.3549,0.0194,0.0197,9.8066,-0.0616,-0.1014,0.0775,-14.56,-36.94,30.31,71.16,-88.99,-83.33
6515,53.185932,-1.611393,163.54,17.24,4,172.69,18 / 19,2124113,2019-11-06 16:41:44:575,-4.5063,0.8129,10.1942,-0.061,-0.0028,9.8064,-0.0476,0.3688,-0.2354,-25.37,-39.62,36.13,77.68,-88.52,-68.87
6516,53.185932,-1.611393,163.54,17.24,4,172.69,18 / 19,2124214,2019-11-06 16:41:44:676,-1.258,-1.3262,9.1689,0.0079,0.0054,9.8066,-0.1115,0.2181,-0.0766,-18.06,-36.37,59.94,105.03,-88.58,-59.06
6517,53.185932,-1.611393,163.54,17.24,4,172.69,18 / 19,2124314,2019-11-06 16:41:44:776,-1.4223,-0.9206,10.6157,-0.051,-0.0419,9.8064,-0.0985,0.4148,-0.2812,-11.0,-34.69,39.0,112.18,-88.64,-53.15
6518,53.185932,-1.611393,163.54,17.24,4,172.69,18 / 19,2124414,2019-11-06 16:41:44:876,4.1477,-0.986,9.4459,0.0022,-0.0177,9.8066,0.1127,0.2587,-0.0819,-10.56,-35.06,33.81,101.79,-88.63,-61.59
6519,53.185932,-1.611393,163.54,17.24,4,172.69,18 / 19,2124514,2019-11-06 16:41:44:976,0.894,-0.8576,10.0252,-0.0613,-0.005,9.8064,-0.043,0.374,-0.2393,-11.06,-35.87,32.5,90.75,-88.8,-72.06
6520,53.185932,-1.611393,163.54,17.24,4,172.69,18 / 19,2124613,2019-11-06 16:41:45:075,3.2898,0.8056,9.8075,-0.0286,-0.0229,9.8065,-0.0109,0.4289,-0.1674,-11.87,-36.25,31.75,91.34,-88.58,-69.6
6521,53.185932,-1.611393,163.54,17.24,4,172.69,18 / 19,2124713,2019-11-06 16:41:45:175,-2.6492,-0.258,9.6554,-0.0439,-0.0008,9.8065,0.0259,0.2168,-0.1016,-11.0,-36.12,33.25,95.66,-88.41,-67.55
6522,53.185932,-1.611393,163.54,17.24,4,172.69,18 / 19,2124813,2019-11-06 16:41:45:275,1.4484,-1.1842,9.6641,-0.0516,-0.0192,9.8064,-0.0296,0.361,-0.288,-11.12,-35.37,36.06,95.19,-88.43,-69.28
6523,53.185932,-1.611393,163.54,17.24,4,172.69,17 / 18,2124913,2019-11-06 16:41:45:375,-2.5584,-0.5881,10.2081,-0.0345,-0.0298,9.8065,-0.0052,0.2242,-0.0776,-10.25,-35.0,51.75,102.33,-88.72,-67.61
6524,53.185932,-1.611393,163.54,17.24,4,172.69,17 / 18,2125013,2019-11-06 16:41:45:475,1.8968,1.429,9.4631,-0.0178,-0.0354,9.8065,-0.0813,0.3094,-0.1766,-25.44,-38.19,35.88,67.53,-88.63,-78.8
6525,53.185932,-1.611393,163.54,17.24,4,172.69,17 / 18,2125113,2019-11-06 16:41:45:575,-0.3433,-0.4717,10.678,-0.0211,-0.0265,9.8066,0.0491,0.1781,-0.148,-14.75,-36.87,31.94,77.27,-88.78,-78.86
6526,53.185932,-1.611393,163.54,17.24,4,172.69,17 / 18,2125214,2019-11-06 16:41:45:676,0.7884,0.7368,9.5872,-0.0183,-0.0224,9.8066,-0.0228,0.2229,-0.053,-13.0,-36.56,31.0,72.92,-88.73,-85.67
6527,53.185932,-1.611393,163.54,17.24,4,172.69,17 / 18,2125314,2019-11-06 16:41:45:776,-0.6491,0.9171,10.0839,-0.0163,-0.0036,9.8066,-0.0832,-0.1245,-0.0237,-13.0,-37.31,31.25,70.34,-88.74,-88.22
6528,53.185932,-1.611393,163.54,17.24,4,172.69,17 / 18,2125414,2019-11-06 16:41:45:876,1.1855,-1.035,9.5554,0.0124,0.013,9.8066,0.0188,-0.0536,0.0744,-14.69,-36.81,31.06,78.98,-88.79,-76.48
6529,53.185932,-1.611393,163.54,17.24,4,172.69,17 / 18,2125514,2019-11-06 16:41:45:976,0.6785,0.044,9.6392,0.0099,0.0318,9.8066,0.0767,-0.1011,-0.0042,-22.19,-38.56,33.88,68.56,-88.78,-79.63
6530,53.185932,-1.611393,163.54,17.24,4,172.69,17 / 18,2125614,2019-11-06 16:41:46:076,-1.6851,1.1327,9.6916,0.0166,0.027,9.8066,-0.0225,-0.2337,0.0365,-12.75,-34.44,55.81,101.31,-89.02,-66.19
6531,53.185932,-1.611393,163.54,17.24,4,172.69,17 / 18,2125714,2019-11-06 16:41:46:176,8.7887,4.0212,10.5251,0.0507,-0.0166,9.8065,-0.1832,0.7794,-0.2689,-10.31,-33.87,37.81,101.31,-89.05,-64.76
6532,53.185932,-1.611393,163.54,17.24,4,172.69,17 / 18,2125814,2019-11-06 16:41:46:276,3.5672,3.2048,8.9046,0.0039,-0.0504,9.8064,-0.0949,0.5462,-0.2819,-10.69,-35.19,34.06,98.65,-89.28,-64.12
6533,53.185932,-1.611393,163.54,17.24,4,172.69,17 / 18,2125914,2019-11-06 16:41:46:376,-14.1098,-3.5942,10.5384,-0.238,-0.0863,9.8034,0.0562,1.1457,-0.5924,-11.56,-36.06,32.88,68.42,-88.3,-93.23
6534,53.185932,-1.611393,163.54,17.24,4,172.69,17 / 18,2126014,2019-11-06 16:41:46:476,5.3138,2.4719,7.9533,-0.1326,-0.0908,9.8052,-0.2449,1.5186,-0.7431,-11.81,-35.25,32.0,65.86,-88.54,-94.95
6535,53.185932,-1.611393,163.54,17.24,4,172.69,17 / 18,2126113,2019-11-06 16:41:46:575,-8.0143,-3.47,10.2228,-0.0671,-0.0291,9.8064,-0.0562,0.0453,-0.0711,-11.31,-35.44,33.19,76.85,-88.99,-85.7
6536,53.185932,-1.611393,163.54,17.24,4,172.69,17 / 18,2126214,2019-11-06 16:41:46:676,1.9725,0.5034,9.0643,-0.1157,-0.0404,9.8059,-0.1144,0.96,-0.4413,-11.44,-34.94,37.5,84.98,-88.46,-80.24
6537,53.185932,-1.611393,163.54,17.24,4,172.69,17 / 18,2126314,2019-11-06 16:41:46:776,-6.1242,-1.4741,10.5163,-0.0017,0.0143,9.8066,0.0283,-0.2409,0.1287,-13.31,-35.94,56.25,95.96,-88.67,-71.8
6538,53.185932,-1.611393,163.54,17.24,4,172.69,17 / 18,2126414,2019-11-06 16:41:46:876,6.0155,0.6874,9.0705,-0.0775,-0.0568,9.8062,-0.0489,0.5855,-0.3243,-29.0,-39.94,40.38,73.79,-88.53,-71.41
6539,53.185932,-1.611393,163.54,17.24,4,172.69,17 / 18,2126514,2019-11-06 16:41:46:976,2.8627,-0.5915,9.9761,0.0177,0.0009,9.8066,0.0533,-0.4434,0.1984,-15.19,-36.5,31.5,91.72,-88.71,-64.47
6540,53.185932,-1.611393,163.54,17.24,4,172.69,17 / 18,2126614,2019-11-06 16:41:47:076,3.8205,2.0919,9.677,-0.041,-0.038,9.8064,-0.1232,0.1886,-0.0178,-13.69,-36.62,31.19,83.52,-88.49,-73.81
6541,53.185932,-1.611393,163.54,17.24,4,172.69,17 / 18,2126714,2019-11-06 16:41:47:176,-0.5993,-0.9009,9.3648,0.0445,0.0256,9.8065,0.0019,-0.4152,0.2937,-13.94,-36.56,30.75,89.03,-88.23,-68.59
6542,53.185932,-1.611393,163.54,17.24,4,172.69,17 / 18,2126813,2019-11-06 16:41:47:275,-2.0451,-1.8864,10.0781,-0.0306,-0.0178,9.8065,-0.0039,0.0905,-0.0845,-16.0,-37.06,30.56,84.92,-88.23,-69.65
6543,53.185932,-1.611393,163.54,17.24,4,172.69,18 / 18,2126913,2019-11-06 16:41:47:375,-1.9319,-1.97,10.0175,0.0258,0.0571,9.8064,0.0551,-0.3186,0.1909,-25.31,-39.75,34.94,82.06,-88.28,-63.99
6544,53.185932,-1.611393,163.54,17.24,4,172.69,18 / 18,2127014,2019-11-06 16:41:47:476,0.192,-0.0696,9.7499,-0.0171,-0.0138,9.8066,0.0336,-0.0232,-0.0575,-19.37,-37.56,60.31,107.25,-88.42,-56.08
6545,53.185932,-1.611393,163.54,17.24,4,172.69,18 / 18,2127114,2019-11-06 16:41:47:576,2.7144,1.3502,9.3797,0.032,0.025,9.8066,0.0647,-0.2785,0.1205,-10.94,-35.12,37.13,115.33,-88.62,-49.24
6546,53.185932,-1.611393,163.54,17.24,4,172.69,18 / 18,2127214,2019-11-06 16:41:47:676,0.1738,0.4222,10.0341,0.0096,0.0078,9.8066,-0.0078,-0.2158,0.132,-11.56,-35.69,32.81,108.79,-88.58,-52.6
6547,53.185932,-1.611393,163.54,17.24,4,172.69,18 / 18,2127314,2019-11-06 16:41:47:776,1.707,0.7573,9.8808,0.0396,0.0089,9.8065,-0.0159,-0.0876,0.1157,-12.06,-37.06,32.38,102.71,-88.43,-58.38
6548,53.185932,-1.611393,163.54,17.24,4,172.69,18 / 18,2127414,2019-11-06 16:41:47:876,-0.562,-1.2514,10.3998,0.0144,0.0045,9.8066,0.0604,-0.1127,0.0403,-11.69,-36.25,31.69,103.07,-88.63,-57.78
6549,53.185932,-1.611393,163.54,17.24,4,172.69,18 / 18,2127514,2019-11-06 16:41:47:976,1.1918,-0.3884,10.0122,0.0168,0.0218,9.8066,0.0895,-0.0266,-0.0177,-11.75,-35.87,32.5,101.06,-88.72,-60.24
6550,53.185932,-1.611393,163.54,17.24,4,172.69,18 / 18,2127614,2019-11-06 16:41:48:076,0.2897,-0.4299,9.6279,0.0119,0.0008,9.8066,-0.0277,0.0029,0.0261,-10.87,-35.37,35.75,108.7,-88.94,-55.25
6551,53.185932,-1.611393,163.54,17.24,4,172.69,18 / 18,2127714,2019-11-06 16:41:48:176,0.5585,0.1867,9.5641,0.0123,-0.0017,9.8066,-0.0155,0.0693,0.0534,-15.56,-36.87,56.88,111.08,-89.0,-53.81
6552,53.185932,-1.611393,163.54,17.24,4,172.69,18 / 18,2127814,2019-11-06 16:41:48:276,0.9963,0.8657,9.5543,-0.0388,0.0069,9.8065,0.0547,0.1405,-0.1416,-28.06,-39.31,37.94,89.16,-88.94,-55.33
6553,53.185932,-1.611393,163.54,17.24,4,172.69,18 / 19,2127914,2019-11-06 16:41:48:376,-0.745,-0.2642,10.4405,-0.0007,-0.0174,9.8066,0.0056,0.0196,0.0451,-15.56,-37.44,31.88,95.78,-89.05,-58.63
6554,53.185932,-1.611393,163.54,17.24,4,172.69,18 / 19,2128014,2019-11-06 16:41:48:476,-0.4587,-1.4107,9.2495,-0.008,-0.0078,9.8066,-0.0092,-0.0477,0.0575,-13.62,-36.5,30.44,90.92,-89.03,-65.13
6555,53.185932,-1.611393,163.54,17.24,4,172.69,18 / 19,2128114,2019-11-06 16:41:48:576,-0.5569,-0.3488,10.4298,0.0412,0.0343,9.8064,-0.015,-0.3193,0.2218,-13.5,-37.31,30.38,86.78,-88.88,-71.07
6556,53.185932,-1.611393,163.54,17.24,4,172.69,18 / 19,2128213,2019-11-06 16:41:48:675,-1.0711,-2.2318,10.2539,0.0179,0.0122,9.8065,-0.0013,-0.2568,0.2188,-14.94,-37.81,30.56,96.93,-88.89,-58.46
6557,53.185932,-1.611393,163.54,17.24,4,172.69,18 / 19,2128313,2019-11-06 16:41:48:775,3.5588,0.7808,9.269,0.0444,0.0244,9.8065,0.0032,-0.2831,0.1726,-27.19,-39.69,37.38,80.19,-88.95,-64.59
6558,53.185932,-1.611393,163.54,17.24,4,172.69,18 / 19,2128414,2019-11-06 16:41:48:876,-0.9243,0.0112,9.8145,0.0024,0.0237,9.8065,0.0513,-0.3124,0.1303,-16.44,-36.44,58.88,98.56,-88.71,-67.01
6559,53.185932,-1.611393,163.54,17.24,4,172.69,18 / 19,2128514,2019-11-06 16:41:48:976,2.6479,0.095,9.6465,-0.0013,0.0062,9.8066,-0.003,-0.0173,-0.0263,-12.25,-35.25,38.38,96.26,-88.67,-67.38
6560,53.185932,-1.611393,163.54,17.24,4,172.69,18 / 19,2128614,2019-11-06 16:41:49:076,-1.0844,-0.117,9.6488,0.038,0.0059,9.8065,0.0094,-0.3016,0.1625,-11.56,-36.31,33.56,92.79,-88.68,-69.08
6561,53.185932,-1.611393,163.54,17.24,4,172.69,18 / 19,2128714,2019-11-06 16:41:49:176,1.6462,0.1544,9.6201,-0.0039,0.0054,9.8066,-0.045,0.1573,-0.0196,-12.25,-36.5,31.75,92.79,-88.49,-68.24
6562,53.185932,-1.611393,163.54,17.24,4,172.69,18 / 19,2128814,2019-11-06 16:41:49:276,-1.1059,-0.9484,10.2634,0.0198,0.0027,9.8066,0.0273,-0.1702,0.014,-11.94,-36.37,31.06,93.7,-88.49,-66.78
6563,53.184513,-1.611059,163.93,18.3,4,173.73,17 / 18,2128914,2019-11-06 16:41:49:376,0.0677,0.0167,10.0955,0.023,0.0226,9.8066,-0.0079,-0.3027,0.1536,-11.5,-36.06,31.81,92.75,-88.34,-70.04
6564,53.184513,-1.611059,163.93,18.3,4,173.73,17 / 18,2129014,2019-11-06 16:41:49:476,1.8137,0.1229,9.5749,0.0298,-0.0029,9.8065,0.0218,-0.2828,0.1718,-11.12,-34.94,35.31,93.78,-88.28,-70.41
6565,53.184513,-1.611059,163.93,18.3,4,173.73,17 / 18,2129113,2019-11-06 16:41:49:575,0.5841,0.9719,10.2682,0.0032,0.0004,9.8066,-0.0106,-0.0517,0.0228,-15.31,-36.37,57.69,91.49,-88.38,-74.99
6566,53.184513,-1.611059,163.93,18.3,4,173.73,17 / 18,2129213,2019-11-06 16:41:49:675,-0.0186,-0.3535,9.6459,0.0394,0.0015,9.8066,-0.1102,-0.0339,0.0841,-28.12,-38.25,39.44,71.04,-88.31,-74.56
6567,53.184513,-1.611059,163.93,18.3,4,173.73,17 / 18,2129314,2019-11-06 16:41:49:776,-0.5909,-0.3274,9.8062,-0.0125,0.009,9.8065,0.029,0.0652,-0.0581,-16.37,-36.12,30.25,81.99,-88.42,-71.6
6568,53.184513,-1.611059,163.93,18.3,4,173.73,17 / 18,2129414,2019-11-06 16:41:49:876,0.7032,-0.5975,9.8096,0.0055,0.0104,9.8065,-0.0442,-0.0819,0.007,-13.62,-36.81,30.06,87.28,-88.57,-69.3
6569,53.184513,-1.611059,163.93,18.3,4,173.73,17 / 18,2129514,2019-11-06 16:41:49:976,0.9842,-0.5189,9.9832,0.0025,-0.0128,9.8065,0.0863,-0.0753,0.0151,-13.56,-36.37,29.94,83.41,-88.59,-73.1
6570,53.184513,-1.611059,163.93,18.3,4,173.73,17 / 18,2129613,2019-11-06 16:41:50:075,1.2205,-0.4638,9.4327,0.0085,0.0139,9.8066,-0.0265,-0.0563,0.0226,-14.37,-37.69,29.75,75.43,-88.59,-81.13
6571,53.184513,-1.611059,163.93,18.3,4,173.73,17 / 18,2129716,2019-11-06 16:41:50:178,-0.6668,-0.5029,9.891,0.0083,0.0235,9.8066,0.0003,-0.1846,0.052,-26.44,-39.62,35.94,73.78,-88.66,-71.55
6572,53.184513,-1.611059,163.93,18.3,4,173.73,17 / 18,2129814,2019-11-06 16:41:50:276,0.8557,2.3729,9.9623,0.0065,0.0024,9.8066,-0.0979,0.1447,-0.0552,-18.0,-36.75,59.63,99.18,-88.67,-64.9
6573,53.184513,-1.611059,163.93,18.3,4,173.73,17 / 19,2129914,2019-11-06 16:41:50:376,0.138,-0.799,10.0412,0.0155,0.0105,9.8066,-0.0043,0.0234,0.0153,-11.12,-35.37,37.94,109.47,-88.7,-55.47
6574,53.184513,-1.611059,163.93,18.3,4,173.73,17 / 19,2130013,2019-11-06 16:41:50:475,0.8774,-0.6005,10.2165,0.0077,0.0045,9.8066,0.0368,0.0346,-0.0656,-10.69,-36.81,33.75,107.76,-88.67,-55.62
6575,53.184513,-1.611059,163.93,18.3,4,173.73,17 / 19,2130114,2019-11-06 16:41:50:576,-2.0248,0.9025,10.2665,0.0007,0.0005,9.8066,0.0484,0.2675,-0.1637,-11.0,-36.56,32.38,108.38,-88.61,-54.09
6576,53.184513,-1.611059,163.93,18.3,4,173.73,17 / 19,2130214,2019-11-06 16:41:50:676,-1.2645,-0.7352,8.8998,0.0624,-0.0016,9.8064,-0.0662,0.1847,-0.0906,-11.44,-36.62,31.75,107.05,-88.82,-55.21
6577,53.184513,-1.611059,163.93,18.3,4,173.73,17 / 19,2130314,2019-11-06 16:41:50:776,-0.6864,-1.9781,9.6551,-0.0008,0.0248,9.8065,-0.0842,0.4043,-0.2161,-11.75,-36.31,32.44,103.46,-88.69,-57.32
6578,53.184513,-1.611059,163.93,18.3,4,173.73,17 / 19,2130413,2019-11-06 16:41:50:875,3.7258,-0.3756,9.5255,0.0593,0.0109,9.8064,0.0317,0.2902,-0.1892,-10.37,-35.94,35.38,107.09,-88.72,-58.16
6579,53.184513,-1.611059,163.93,18.3,4,173.73,17 / 19,2130513,2019-11-06 16:41:50:975,1.173,0.0281,9.6304,0.0282,-0.0115,9.8066,-0.0598,0.4128,-0.246,-15.0,-37.37,55.94,98.65,-89.16,-66.88
6580,53.184513,-1.611059,163.93,18.3,4,173.73,17 / 19,2130613,2019-11-06 16:41:51:075,2.6207,0.3392,9.873,0.0327,0.0349,9.8065,0.0072,0.2627,-0.1366,-28.44,-40.37,38.63,76.8,-89.06,-68.28
6581,53.184513,-1.611059,163.93,18.3,4,173.73,17 / 19,2130713,2019-11-06 16:41:51:175,-2.9964,-1.1908,10.3193,0.0234,0.0206,9.8065,0.0217,0.3535,-0.2033,-15.37,-37.37,30.81,99.9,-89.19,-55.14
6582,53.184513,-1.611059,163.93,18.3,4,173.73,17 / 19,2130813,2019-11-06 16:41:51:275,0.8966,-1.5159,10.3068,0.0483,0.0026,9.8065,0.0088,0.318,-0.1596,-13.56,-37.19,30.38,86.16,-89.36,-69.54
6583,53.184513,-1.611059,163.93,18.3,4,173.73,18 / 21,2130913,2019-11-06 16:41:51:375,-1.8018,-1.2664,9.5548,0.0297,0.0064,9.8066,0.0287,0.2623,-0.139,-13.37,-36.94,30.56,79.52,-89.3,-78.48
6584,53.184513,-1.611059,163.93,18.3,4,173.73,18 / 21,2131014,2019-11-06 16:41:51:476,1.7564,-0.7935,9.559,0.0295,0.0144,9.8065,-0.0091,0.2477,-0.1634,-14.75,-37.94,30.5,74.62,-89.14,-80.47
6585,53.184513,-1.611059,163.93,18.3,4,173.73,18 / 21,2131114,2019-11-06 16:41:51:576,-1.5588,-1.9675,10.1175,0.0148,0.0017,9.8066,0.0586,-0.0866,0.0723,-26.19,-39.75,36.75,62.44,-89.3,-83.02
6586,53.184513,-1.611059,163.93,18.3,4,173.73,18 / 21,2131213,2019-11-06 16:41:51:675,0.3135,0.1259,10.3428,-0.014,-0.014,9.8066,0.0259,0.0464,-0.0373,-17.12,-36.94,59.31,91.07,-89.26,-73.3
6587,53.184513,-1.611059,163.93,18.3,4,173.73,18 / 21,2131313,2019-11-06 16:41:51:775,2.6128,-0.9855,9.1623,0.0248,-0.0162,9.8066,0.0861,-0.372,0.2186,-11.31,-35.25,38.75,80.81,-89.36,-83.99
6588,53.184513,-1.611059,163.93,18.3,4,173.73,18 / 21,2131413,2019-11-06 16:41:51:875,3.1445,-0.3526,9.6414,-0.0449,-0.0201,9.8065,0.0405,0.0008,-0.0308,-11.0,-35.94,33.25,68.71,-89.21,-93.61
6589,53.184513,-1.611059,163.93,18.3,4,173.73,18 / 21,2131513,2019-11-06 16:41:51:975,-0.8966,-0.5136,9.9256,0.015,-0.014,9.8066,0.1174,-0.3166,0.1624,-11.75,-36.12,31.44,52.97,-89.37,-106.42
6590,53.184513,-1.611059,163.93,18.3,4,173.73,18 / 21,2131613,2019-11-06 16:41:52:075,-2.5707,-1.5329,10.2045,-0.0318,-0.0309,9.8065,0.0578,-0.2371,0.077,-11.5,-36.19,31.25,69.08,-89.49,-91.91
6591,53.184513,-1.611059,163.93,18.3,4,173.73,18 / 21,2131713,2019-11-06 16:41:52:175,-0.8989,0.258,9.7495,-0.0059,-0.0193,9.8066,0.0499,-0.4622,0.2071,-10.62,-35.5,32.69,65.42,-89.31,-96.78
6592,53.184513,-1.611059,163.93,18.3,4,173.73,18 / 21,2131813,2019-11-06 16:41:52:275,-3.776,-1.9856,10.5254,-0.0336,-0.0317,9.8065,0.0963,-0.509,0.159,-10.31,-35.25,35.63,57.76,-89.51,-107.1
6593,53.184513,-1.611059,163.93,18.3,4,173.73,17 / 19,2131913,2019-11-06 16:41:52:375,2.8764,0.3255,9.7539,-0.0535,-0.0445,9.8064,0.052,-0.1571,0.0055,-10.31,-35.12,50.56,47.9,-89.22,-121.4
6594,53.184513,-1.611059,163.93,18.3,4,173.73,17 / 19,2132013,2019-11-06 16:41:52:475,2.5181,0.0285,9.933,-0.0191,-0.0212,9.8065,-0.0186,-0.5933,0.3425,-25.06,-38.81,35.25,22.57,-89.39,-122.1
6595,53.184513,-1.611059,163.93,18.3,4,173.73,17 / 19,2132113,2019-11-06 16:41:52:575,4.6858,0.868,9.4332,-0.0664,-0.0472,9.8062,-0.008,0.0415,-0.0071,-15.12,-37.69,29.5,30.12,-89.39,-123.66
6596,53.184513,-1.611059,163.93,18.3,4,173.73,17 / 19,2132213,2019-11-06 16:41:52:675,-2.6747,-2.7074,10.4907,-0.0045,0.0091,9.8066,0.0215,-0.4494,0.2618,-13.12,-37.06,30.0,357.93,-89.53,-158.62
6597,53.184513,-1.611059,163.93,18.3,4,173.73,17 / 19,2132314,2019-11-06 16:41:52:776,-0.2983,-0.2304,10.3146,-0.0441,-0.022,9.8064,-0.0222,0.1761,-0.125,-13.31,-37.19,30.69,2.77,-89.68,-154.5
6598,53.184513,-1.611059,163.93,18.3,4,173.73,17 / 19,2132413,2019-11-06 16:41:52:875,-3.1375,-0.6539,9.3717,0.0136,0.0099,9.8066,0.0022,-0.3374,0.1503,-14.31,-37.19,30.06,330.21,-89.75,175.37
6599,53.184513,-1.611059,163.93,18.3,4,173.73,17 / 19,2132513,2019-11-06 16:41:52:975,3.0341,1.9414,9.6677,-0.0496,-0.0201,9.8065,-0.0605,0.208,-0.124,-22.0,-39.31,32.81,320.7,-89.82,174.51
6600,53.184513,-1.611059,163.93,18.3,4,173.73,17 / 19,2132613,2019-11-06 16:41:53:075,1.2319,-0.2329,10.1723,0.0181,0.0089,9.8066,0.077,-0.2583,0.1507,-13.25,-35.31,56.06,290.26,-89.62,123.54
6601,53.184513,-1.611059,163.93,18.3,4,173.73,17 / 19,2132714,2019-11-06 16:41:53:176,3.7029,1.554,9.7292,-0.038,-0.0122,9.8065,-0.0878,0.2763,-0.1943,-10.12,-34.62,37.56,284.85,-89.78,119.78
6602,53.184513,-1.611059,163.93,18.3,4,173.73,17 / 19,2132814,2019-11-06 16:41:53:276,0.427,-0.1119,9.8675,0.0101,0.0267,9.8066,-0.0519,0.0105,0.0873,-10.12,-34.87,32.88,292.78,-89.73,129.89
6603,53.184513,-1.611059,163.93,18.3,4,173.73,19 / 20,2132913,2019-11-06 16:41:53:375,-1.6721,-2.0085,9.5402,0.0069,-0.026,9.8065,0.0671,0.3025,-0.1755,-10.37,-35.19,31.5,299.44,-89.66,137.1
6604,53.184513,-1.611059,163.93,18.3,4,173.73,19 / 20,2133013,2019-11-06 16:41:53:475,-0.9564,0.2769,9.9194,0.0481,-0.0038,9.8064,-0.0224,0.1987,-0.091,-10.37,-35.81,31.56,327.45,-89.6,165.04
6605,53.184513,-1.611059,163.93,18.3,4,173.73,19 / 20,2133113,2019-11-06 16:41:53:575,-2.2941,-0.6595,9.761,0.0267,0.0138,9.8065,-0.0276,0.296,-0.1529,-10.12,-35.87,32.69,309.86,-89.45,147.17
6606,53.184513,-1.611059,163.93,18.3,4,173.73,19 / 20,2133213,2019-11-06 16:41:53:675,2.964,1.6608,9.7877,0.0511,0.0199,9.8064,-0.0948,0.2711,-0.2193,-9.87,-35.19,35.81,316.37,-89.65,152.13
6607,53.184513,-1.611059,163.93,18.3,4,173.73,19 / 20,2133313,2019-11-06 16:41:53:775,-1.0439,-0.693,9.61,0.0074,0.0315,9.8066,-0.0602,0.0901,-0.028,-9.75,-34.69,50.56,290.17,-89.69,121.46
6608,53.184513,-1.611059,163.93,18.3,4,173.73,19 / 20,2133413,2019-11-06 16:41:53:875,1.2598,0.7854,10.2934,0.0026,0.0105,9.8066,0.0269,0.183,-0.1271,-24.12,-39.25,35.06,274.71,-89.5,129.61
6609,53.184513,-1.611059,163.93,18.3,4,173.73,19 / 20,2133513,2019-11-06 16:41:53:975,-0.5489,-0.4029,9.7561,0.0437,0.0048,9.8065,-0.0139,-0.0471,0.0564,-14.19,-37.06,30.19,282.76,-89.34,128.49
6610,53.184513,-1.611059,163.93,18.3,4,173.73,19 / 20,2133613,2019-11-06 16:41:54:075,-0.2052,1.3704,9.6022,0.0109,0.01,9.8066,-0.0552,0.0819,-0.1274,-12.94,-37.31,30.56,278.75,-89.42,122.13
6611,53.184513,-1.611059,163.93,18.3,4,173.73,19 / 20,2133713,2019-11-06 16:41:54:175,0.0744,-2.4209,9.7746,0.0199,0.0159,9.8066,-0.0102,-0.0283,-0.0495,-13.06,-37.81,29.88,266.66,-89.31,110.9
6612,53.184513,-1.611059,163.93,18.3,4,173.73,19 / 20,2133813,2019-11-06 16:41:54:275,0.4527,-0.0061,8.9318,-0.0218,0.0137,9.8065,-0.1045,0.0918,0.0324,-13.56,-39.81,30.06,266.25,-89.0,112.47
6613,53.184513,-1.611059,163.93,18.3,4,173.73,18 / 20,2133913,2019-11-06 16:41:54:375,0.9534,-0.1271,9.5975,0.0113,0.0486,9.8065,-0.0139,-0.2041,0.1617,-21.75,-40.81,33.69,240.71,-88.85,94.63
6614,53.184513,-1.611059,163.93,18.3,4,173.73,18 / 20,2134014,2019-11-06 16:41:54:476,3.4999,-0.0573,9.5722,-0.0102,-0.0326,9.8066,0.134,0.2685,-0.1797,-12.0,-36.06,55.06,278.02,-88.96,110.99
6615,53.184513,-1.611059,163.93,18.3,4,173.73,18 / 20,2134114,2019-11-06 16:41:54:576,-2.8952,-0.6092,10.3813,0.045,-0.0088,9.8065,0.1298,-0.2669,0.1117,-9.0,-34.31,37.69,278.99,-88.83,113.33
6616,53.184513,-1.611059,163.93,18.3,4,173.73,18 / 20,2134214,2019-11-06 16:41:54:676,-0.3204,-3.231,9.4967,-0.0115,-0.0274,9.8066,-0.0399,0.0996,-0.0989,-9.87,-35.37,33.38,283.81,-88.73,121.92
6617,53.184513,-1.611059,163.93,18.3,4,173.73,18 / 20,2134314,2019-11-06 16:41:54:776,-2.6324,1.4506,9.9486,-0.0018,0.0244,9.8066,-0.0763,-0.2999,0.1189,-9.62,-36.25,31.81,289.11,-88.73,127.76
6618,53.184513,-1.611059,163.93,18.3,4,173.73,18 / 20,2134414,2019-11-06 16:41:54:876,-2.3119,0.0204,9.6702,-0.0252,-0.0107,9.8066,0.0215,-0.2152,0.0722,-10.06,-36.81,31.69,276.22,-88.9,114.79
6619,53.184513,-1.611059,163.93,18.3,4,173.73,18 / 20,2134514,2019-11-06 16:41:54:976,2.0135,-0.0774,9.4473,-0.0194,-0.0116,9.8066,-0.0319,-0.1449,0.0849,-9.31,-36.06,32.44,285.45,-88.87,122.34
6620,53.184513,-1.611059,163.93,18.3,4,173.73,18 / 20,2134614,2019-11-06 16:41:55:076,-2.4425,-0.4448,10.2161,-0.0187,-0.0048,9.8066,0.0562,-0.3863,0.1154,-9.62,-34.87,36.94,281.66,-88.86,117.8
6621,53.184513,-1.611059,163.93,18.3,4,173.73,18 / 20,2134714,2019-11-06 16:41:55:176,2.1461,-1.437,8.9916,-0.0371,-0.0208,9.8065,-0.1033,0.1246,-0.0749,-12.12,-35.94,55.13,279.06,-88.95,112.04
6622,53.184513,-1.611059,163.93,18.3,4,173.73,18 / 20,2134813,2019-11-06 16:41:55:275,-0.9393,3.1729,10.1232,-0.0021,0.0402,9.8065,-0.0235,-0.0282,-0.0112,-27.56,-39.69,40.44,236.05,-88.98,91.73
6623,53.184513,-1.611059,163.93,18.3,4,173.73,18 / 19,2134914,2019-11-06 16:41:55:376,0.1167,0.4245,9.5053,0.0157,0.0213,9.8065,-0.0151,0.4819,-0.2078,-13.06,-36.81,30.31,228.84,-88.76,73.31
6624,53.184513,-1.611059,163.93,18.3,4,173.73,18 / 19,2135013,2019-11-06 16:41:55:475,2.7768,3.304,10.199,0.0743,0.0046,9.8063,0.0786,0.4858,-0.3116,-11.44,-36.87,30.44,232.37,-88.85,73.56
6625,53.184513,-1.611059,163.93,18.3,4,173.73,18 / 19,2135113,2019-11-06 16:41:55:575,-3.2182,-3.1462,9.4384,0.0584,0.0341,9.8064,0.0182,0.331,-0.3182,-11.37,-36.94,30.25,242.34,-88.54,83.97
6626,53.184513,-1.611059,163.93,18.3,4,173.73,18 / 19,2135214,2019-11-06 16:41:55:676,-0.6858,2.078,8.8491,0.0586,0.0283,9.8064,-0.0758,0.3563,-0.1717,-13.56,-38.19,29.75,239.3,-88.39,85.9
6627,53.184513,-1.611059,163.93,18.3,4,173.73,18 / 19,2135317,2019-11-06 16:41:55:779,-1.6723,-0.6105,10.9298,0.0062,0.0307,9.8066,0.021,0.015,-0.0967,-22.56,-40.37,35.25,226.68,-88.42,81.08
6628,53.184513,-1.611059,163.93,18.3,4,173.73,18 / 19,2135413,2019-11-06 16:41:55:875,-0.5789,-0.5874,9.6923,0.0057,-0.0197,9.8066,0.055,0.2104,-0.036,-16.19,-37.5,60.25,255.95,-88.31,91.85
6629,53.184513,-1.611059,163.93,18.3,4,173.73,18 / 19,2135513,2019-11-06 16:41:55:975,-2.7474,-0.1676,9.5591,0.0297,0.0082,9.8066,-0.0443,-0.2354,0.0919,-8.62,-34.87,36.5,260.46,-88.1,95.85
6630,53.184513,-1.611059,163.93,18.3,4,173.73,18 / 19,2135613,2019-11-06 16:41:56:075,0.4253,-1.1945,9.504,-0.0304,0.0136,9.8066,-0.044,-0.0013,-0.0497,-8.12,-35.94,32.06,254.79,-88.07,90.85
6631,53.184513,-1.611059,163.93,18.3,4,173.73,18 / 19,2135713,2019-11-06 16:41:56:175,0.6757,2.7877,10.1331,0.0033,0.0326,9.8065,0.0125,-0.2477,0.0993,-9.37,-36.5,32.0,240.21,-88.05,77.74
6632,53.184513,-1.611059,163.93,18.3,4,173.73,18 / 19,2135814,2019-11-06 16:41:56:276,-1.5194,-0.3064,9.3377,-0.0044,-0.0006,9.8066,-0.0105,-0.2665,0.0552,-8.31,-36.62,31.13,237.11,-87.94,73.57
6633,53.184513,-1.611059,163.93,18.3,4,173.73,16 / 17,2135914,2019-11-06 16:41:56:376,0.7742,1.9869,10.2215,-0.0101,-0.0332,9.8065,-0.0061,0.0154,-0.0074,-8.56,-36.37,32.75,241.96,-87.89,79.17
6634,53.184513,-1.611059,163.93,18.3,4,173.73,16 / 17,2136014,2019-11-06 16:41:56:476,-0.4116,1.3292,9.837,0.0123,0.0124,9.8066,0.0065,-0.1667,0.0621,-7.31,-35.75,35.63,249.09,-87.72,82.17
