,GPS LATITUDE (degrees), GPS LONGITUDE (degrees), GPS ALTITUDE (m), GPS SPEED (Kmh), GPS ACCURACY (m), GPS ORIENTATION (Â°),GPS SATELLITES IN RANGE, TIME SINCE START (ms), DATE (YYYY-MO-DD HH-MI-SS_SSS), ACCELEROMETER X (m/s²) , ACCELEROMETER Y (m/s²), ACCELEROMETER Z (m/s²), GRAVITY X (m/s²), GRAVITY Y (m/s²), GRAVITY Z (m/s²), GYROSCOPE Yaw (rad/s), GYROSCOPE Pitch (rad/s), GYROSCOPE Roll (rad/s), MAGNETIC FIELD X (Î¼T), MAGNETIC FIELD Y (Î¼T), MAGNETIC FIELD Z (Î¼T), ORIENTATION (Yaw) (Â°), ORIENTATION (Pitch) (Â°), ORIENTATION (Roll ) (Â°)
65501,53.791416,-1.759761,177.58,7.16,6,282.63,22 / 24,6550139,2019-11-08 11:46:27:750,0.5608,0.8727,10.0116,0.0087,0.0107,9.8066,-0.0118,0.1534,-0.0218,6.0,-41.94,53.25,21.31,-79.48,-168.48
65502,53.791416,-1.759761,177.58,7.16,6,282.63,22 / 24,6550238,2019-11-08 11:46:27:849,-0.409,-0.1309,9.8543,0.0079,0.0065,9.8066,-0.0377,0.2251,-0.0455,6.19,-41.87,53.0,21.1,-79.5,-168.65
65503,53.791416,-1.759761,177.58,7.16,6,282.63,22 / 24,6550338,2019-11-08 11:46:27:949,-0.573,0.5816,9.4611,-0.0099,0.0132,9.8066,-0.0128,0.2294,-0.0666,5.69,-41.56,53.38,21.84,-79.47,-168.03
65504,53.791416,-1.759761,177.58,7.16,6,282.63,22 / 24,6550438,2019-11-08 11:46:28:049,-0.6694,1.6533,9.9494,0.0037,-0.0055,9.8065,0.0206,-0.0375,0.0785,5.31,-41.56,53.5,21.55,-79.48,-167.05
65505,53.791416,-1.759761,177.58,7.16,6,282.63,20 / 22,6550538,2019-11-08 11:46:28:149,-1.599,1.2147,10.5731,-0.0073,-0.0019,9.8066,0.0212,0.106,-0.0612,5.75,-41.56,53.5,23.89,-79.51,-166.08
65506,53.791416,-1.759761,177.58,7.16,6,282.63,20 / 22,6550638,2019-11-08 11:46:28:249,1.3032,1.8346,9.5135,0.0152,-0.0238,9.8066,0.1048,-0.0934,0.0534,5.44,-41.75,53.81,21.33,-79.42,-167.27
65507,53.791416,-1.759761,177.58,7.16,6,282.63,20 / 22,6550738,2019-11-08 11:46:28:349,-0.6251,1.0156,9.8774,0.0209,-0.0103,9.8066,0.0207,-0.0543,0.0415,5.25,-41.25,53.69,19.93,-79.28,-168.44
65508,53.791416,-1.759761,177.58,7.16,6,282.63,20 / 22,6550838,2019-11-08 11:46:28:449,1.6604,0.293,9.1039,0.0019,0.0019,9.8066,0.0075,0.0671,0.033,5.44,-42.0,53.75,19.47,-79.35,-168.87
65509,53.791416,-1.759761,177.58,7.16,6,282.63,20 / 22,6550938,2019-11-08 11:46:28:549,-0.3182,1.0315,9.7453,-0.0636,0.0196,9.8063,0.0521,0.0072,0.0041,6.06,-41.75,54.44,24.01,-79.26,-166.07
65510,53.791416,-1.759761,177.58,7.16,6,282.63,20 / 22,6551038,2019-11-08 11:46:28:649,-0.3198,1.1711,10.3763,-0.0252,-0.0289,9.8065,0.0564,0.0431,0.0577,6.0,-41.69,54.56,24.37,-79.14,-165.64
65511,53.791416,-1.759761,177.58,7.16,6,282.63,20 / 22,6551138,2019-11-08 11:46:28:749,-0.3759,1.4592,9.8585,0.0134,0.0054,9.8066,-0.0391,0.116,-0.0474,5.25,-40.87,54.56,24.2,-78.81,-164.8
65512,53.791416,-1.759761,177.58,7.16,6,282.63,20 / 22,6551238,2019-11-08 11:46:28:849,0.1727,1.1122,9.5899,-0.0015,0.0215,9.8065,-0.0347,0.1313,-0.0336,5.06,-41.44,54.63,23.29,-78.95,-165.52
65513,53.791416,-1.759761,177.58,7.16,6,282.63,20 / 22,6551338,2019-11-08 11:46:28:949,0.1785,0.5878,9.4673,0.0129,-0.0019,9.8066,-0.0557,0.0416,-0.0671,5.56,-41.56,54.69,24.21,-79.22,-165.74
65514,53.791416,-1.759761,177.58,7.16,6,282.63,20 / 22,6551438,2019-11-08 11:46:29:049,0.4865,1.4601,9.5717,0.0025,0.001,9.8066,-0.0014,0.1373,0.002,5.75,-41.19,55.06,22.87,-79.44,-166.74
65515,53.791416,-1.759761,177.58,7.16,6,282.63,22 / 23,6551539,2019-11-08 11:46:29:150,-0.1116,0.1628,10.1602,-0.0166,0.0055,9.8065,0.0159,0.0783,-0.0153,5.5,-41.5,54.5,23.82,-79.44,-165.92
65516,53.791416,-1.759761,177.58,7.16,6,282.63,22 / 23,6551638,2019-11-08 11:46:29:249,0.4061,0.2063,9.9625,0.0112,-0.0122,9.8065,-0.0253,0.076,0.0213,5.75,-41.75,55.31,23.33,-79.36,-166.45
65517,53.791416,-1.759761,177.58,7.16,6,282.63,22 / 23,6551738,2019-11-08 11:46:29:349,0.031,0.6644,9.8181,0.0051,0.0005,9.8066,-0.0224,0.049,-0.0098,5.69,-41.44,55.44,22.22,-79.39,-167.32
65518,53.791416,-1.759761,177.58,7.16,6,282.63,22 / 23,6551839,2019-11-08 11:46:29:450,-0.0206,0.6096,9.7426,0.0059,-0.0019,9.8066,0.0072,0.0886,-0.0353,5.5,-41.37,55.94,23.15,-79.49,-166.31
65519,53.791416,-1.759761,177.58,7.16,6,282.63,22 / 23,6551939,2019-11-08 11:46:29:550,0.3617,1.108,10.1786,0.0011,-0.0102,9.8066,0.0299,0.0318,0.0125,6.19,-41.69,55.94,22.6,-79.45,-166.88
65520,53.791416,-1.759761,177.58,7.16,6,282.63,22 / 23,6552039,2019-11-08 11:46:29:650,0.0579,0.8972,9.8,0.0083,-0.0036,9.8066,0.0054,0.0754,-0.0785,5.81,-41.56,55.75,22.39,-79.49,-167.04
65521,53.791416,-1.759761,177.58,7.16,6,282.63,22 / 23,6552139,2019-11-08 11:46:29:750,0.2133,0.8944,10.0144,0.0057,-0.0017,9.8065,-0.0021,0.1118,-0.0492,5.5,-42.12,55.88,21.38,-79.55,-167.89
65522,53.791416,-1.759761,177.58,7.16,6,282.63,22 / 23,6552239,2019-11-08 11:46:29:850,0.1316,1.166,9.8284,0.0002,0.0063,9.8066,-0.014,0.0555,0.0082,5.5,-42.19,56.31,19.93,-79.54,-169.14
65523,53.791416,-1.759761,177.58,7.16,6,282.63,22 / 23,6552339,2019-11-08 11:46:29:950,-0.6923,1.042,10.0984,-0.0035,-0.0018,9.8066,-0.0569,0.2017,-0.034,5.5,-42.25,56.0,20.34,-79.58,-168.78
65524,53.791416,-1.759761,177.58,7.16,6,282.63,22 / 23,6552439,2019-11-08 11:46:30:050,1.8022,0.409,10.1837,-0.0239,0.0257,9.8066,-0.0665,0.1492,-0.0161,6.31,-41.62,56.75,21.0,-79.87,-167.96
65525,53.791443,-1.760615,179.62,2.99,6,254.83,21 / 22,6552538,2019-11-08 11:46:30:149,0.2471,1.4774,9.1613,-0.0121,-0.0092,9.8065,0.0007,0.0442,-0.1053,5.88,-41.44,56.94,21.67,-79.81,-167.33
65526,53.791443,-1.760615,179.62,2.99,6,254.83,21 / 22,6552641,2019-11-08 11:46:30:252,-0.0313,0.8021,10.0395,0.0022,0.022,9.8066,-0.0962,0.0768,0.0548,5.69,-41.5,56.88,20.38,-79.71,-168.49
65527,53.791443,-1.760615,179.62,2.99,6,254.83,21 / 22,6552739,2019-11-08 11:46:30:350,0.1499,0.6077,10.6474,0.0009,0.024,9.8066,0.0888,0.0597,-0.0039,5.5,-41.62,56.81,21.68,-79.98,-167.33
65528,53.791443,-1.760615,179.62,2.99,6,254.83,21 / 22,6552839,2019-11-08 11:46:30:450,-0.409,1.654,9.3846,-0.0061,0.004,9.8066,0.0689,-0.0021,0.0007,5.06,-41.37,56.81,19.39,-79.99,-168.27
65529,53.791443,-1.760615,179.62,2.99,6,254.83,21 / 22,6552939,2019-11-08 11:46:30:550,0.5894,1.2155,9.8691,0.0169,0.0009,9.8066,-0.0139,0.077,0.0268,5.88,-41.31,57.38,20.02,-79.98,-168.72
65530,53.791443,-1.760615,179.62,2.99,6,254.83,21 / 22,6553039,2019-11-08 11:46:30:650,0.0069,1.0651,9.6597,0.0073,0.0025,9.8066,0.0013,0.0355,0.0226,5.94,-41.87,57.44,21.33,-80.03,-167.63
65531,53.791443,-1.760615,179.62,2.99,6,254.83,21 / 22,6553139,2019-11-08 11:46:30:750,0.3841,1.3485,9.5691,-0.0022,0.0047,9.8066,0.0114,0.0875,-0.0644,6.06,-41.87,57.06,21.19,-80.07,-167.73
65532,53.791443,-1.760615,179.62,2.99,6,254.83,21 / 22,6553239,2019-11-08 11:46:30:850,0.2012,1.4538,9.8522,0.001,-0.0102,9.8066,-0.0055,0.0303,0.0095,6.44,-41.0,56.94,21.03,-80.04,-167.82
65533,53.791443,-1.760615,179.62,2.99,6,254.83,21 / 22,6553339,2019-11-08 11:46:30:950,0.1731,1.2988,10.0197,0.0037,0.0032,9.8066,-0.0434,0.0503,0.0422,6.0,-41.62,57.19,20.91,-79.97,-168.0
65534,53.791443,-1.760615,179.62,2.99,6,254.83,21 / 22,6553438,2019-11-08 11:46:31:049,-0.6502,1.6448,9.8687,-0.0003,-0.0031,9.8066,-0.0127,0.0947,-0.013,5.88,-41.12,56.94,21.89,-80.11,-167.04
65535,53.791443,-1.760615,179.62,2.99,6,254.83,22 / 22,6553539,2019-11-08 11:46:31:150,-0.3532,1.5305,9.5165,-0.0032,-0.0111,9.8066,-0.0398,0.0196,0.0241,5.44,-41.25,57.31,20.77,-80.11,-167.03
65536,53.791443,-1.760615,179.62,2.99,6,254.83,22 / 22,6553638,2019-11-08 11:46:31:249,0.7004,0.9539,9.9443,-0.0213,0.0,9.8066,-0.0368,-0.0256,0.0286,5.31,-41.44,57.5,21.52,-80.08,-166.26
65537,53.791443,-1.760615,179.62,2.99,6,254.83,22 / 22,6553739,2019-11-08 11:46:31:350,0.0487,0.6999,10.1222,0.0039,0.0179,9.8065,0.0432,0.0241,-0.0101,5.25,-41.56,56.88,20.6,-80.08,-167.25
65538,53.791443,-1.760615,179.62,2.99,6,254.83,22 / 22,6553838,2019-11-08 11:46:31:449,-0.1346,1.0006,9.5642,-0.0015,0.0135,9.8066,0.0101,0.041,-0.0266,4.75,-41.5,57.0,20.87,-80.12,-166.94
65539,53.791443,-1.760615,179.62,2.99,6,254.83,22 / 22,6553938,2019-11-08 11:46:31:549,0.7483,0.6237,10.046,0.0062,-0.0287,9.8065,-0.0301,0.1204,-0.0492,5.94,-42.0,57.5,21.62,-80.12,-167.19
65540,53.791443,-1.760615,179.62,2.99,6,254.83,22 / 22,6554038,2019-11-08 11:46:31:649,-1.0341,1.094,9.8252,-0.013,-0.0093,9.8066,-0.0359,0.0614,-0.0766,5.19,-41.44,57.13,20.07,-80.14,-167.63
65541,53.791443,-1.760615,179.62,2.99,6,254.83,22 / 22,6554138,2019-11-08 11:46:31:749,0.7047,0.3953,9.8854,0.0049,0.0007,9.8066,0.0089,0.0786,-0.0344,5.69,-41.12,57.88,20.52,-80.12,-168.1
65542,53.791443,-1.760615,179.62,2.99,6,254.83,22 / 22,6554238,2019-11-08 11:46:31:849,0.1742,0.7635,9.5181,0.0071,0.0049,9.8066,-0.0008,-0.0059,0.0033,5.63,-41.87,58.25,20.24,-80.1,-168.4
65543,53.791443,-1.760615,179.62,2.99,6,254.83,22 / 22,6554338,2019-11-08 11:46:31:949,-0.0922,1.141,9.5712,-0.0033,0.0119,9.8065,-0.0326,0.0217,-0.0131,5.88,-41.44,57.94,20.3,-80.19,-168.27
65544,53.791443,-1.760615,179.62,2.99,6,254.83,22 / 22,6554439,2019-11-08 11:46:32:050,-0.4932,0.6151,10.0575,0.0032,0.0013,9.8066,-0.0411,0.0062,-0.027,5.44,-40.87,56.94,20.08,-80.29,-167.58
65545,53.791443,-1.760615,179.62,2.99,6,254.83,20 / 21,6554538,2019-11-08 11:46:32:149,0.0292,1.1523,9.6127,-0.0005,0.0075,9.8066,0.015,-0.0898,0.055,5.19,-42.0,57.44,19.98,-80.41,-167.69
65546,53.791443,-1.760615,179.62,2.99,6,254.83,20 / 21,6554639,2019-11-08 11:46:32:250,-0.6222,1.3938,9.545,-0.004,0.0047,9.8066,-0.0323,0.0794,-0.0285,5.44,-41.56,58.06,19.88,-80.49,-167.63
65547,53.791443,-1.760615,179.62,2.99,6,254.83,20 / 21,6554739,2019-11-08 11:46:32:350,0.2523,0.8447,9.9082,-0.0068,0.0068,9.8066,-0.0008,0.1071,-0.0602,5.81,-41.19,57.31,21.57,-80.59,-167.17
65548,53.791443,-1.760615,179.62,2.99,6,254.83,20 / 21,6554839,2019-11-08 11:46:32:450,0.3013,1.2984,9.5834,-0.0013,0.006,9.8066,0.014,-0.0124,0.0031,5.38,-41.56,57.94,20.2,-80.62,-167.3
65549,53.791443,-1.760615,179.62,2.99,6,254.83,20 / 21,6554940,2019-11-08 11:46:32:551,0.3192,-0.0484,9.6026,-0.0078,-0.0004,9.8066,0.0011,0.009,-0.0568,5.06,-41.56,57.44,20.2,-80.69,-167.41
65550,53.791443,-1.760615,179.62,2.99,6,254.83,20 / 21,6555038,2019-11-08 11:46:32:649,-0.6806,-0.4365,10.0225,0.0064,-0.0075,9.8066,0.0271,-0.0079,0.0267,6.06,-41.19,57.88,20.44,-80.58,-168.02
65551,53.791443,-1.760615,179.62,2.99,6,254.83,20 / 21,6555138,2019-11-08 11:46:32:749,0.7147,-0.6985,9.6699,0.0133,0.0028,9.8066,-0.0078,0.1075,-0.0858,5.81,-41.44,57.63,21.52,-80.49,-167.1
65552,53.791443,-1.760615,179.62,2.99,6,254.83,20 / 21,6555238,2019-11-08 11:46:32:849,0.0023,-0.471,9.7269,0.0125,0.0059,9.8066,0.0231,-0.0119,-0.0202,5.19,-41.25,58.19,20.26,-80.49,-167.24
65553,53.791443,-1.760615,179.62,2.99,6,254.83,20 / 21,6555338,2019-11-08 11:46:32:949,0.7481,-0.0808,9.5916,-0.0044,0.0002,9.8066,-0.0261,0.1503,-0.0489,5.75,-41.19,58.31,21.13,-80.61,-167.41
65554,53.791443,-1.760615,179.62,2.99,6,254.83,20 / 21,6555438,2019-11-08 11:46:33:049,-0.1804,-0.0277,9.76,0.0109,0.0057,9.8066,0.0216,-0.0431,0.0672,5.63,-40.87,58.5,20.58,-80.67,-167.74
65555,53.791443,-1.760615,179.62,2.99,6,254.83,21 / 22,6555538,2019-11-08 11:46:33:149,-0.5912,-0.1495,9.969,-0.0026,0.0002,9.8066,0.0024,0.0482,-0.0497,6.25,-41.25,58.06,21.05,-80.61,-167.48
65556,53.791443,-1.760615,179.62,2.99,6,254.83,21 / 22,6555639,2019-11-08 11:46:33:250,-0.1827,-0.4189,9.8453,0.0158,0.0049,9.8066,-0.0198,-0.0323,-0.0129,5.75,-40.94,58.06,20.55,-80.66,-167.91
65557,53.791443,-1.760615,179.62,2.99,6,254.83,21 / 22,6555739,2019-11-08 11:46:33:350,0.1723,-0.2071,9.9554,0.0086,-0.0011,9.8066,-0.0118,0.053,0.0041,6.13,-41.31,57.88,19.84,-80.72,-168.52
65558,53.791443,-1.760615,179.62,2.99,6,254.83,21 / 22,6555839,2019-11-08 11:46:33:450,-0.6148,-0.0375,9.5934,-0.0137,0.004,9.8066,0.0414,-0.0073,-0.1532,5.81,-41.75,58.25,20.32,-80.71,-168.15
65559,53.791443,-1.760615,179.62,2.99,6,254.83,21 / 22,6555938,2019-11-08 11:46:33:549,0.1072,-0.5467,10.2519,-0.0025,0.0229,9.8065,0.0444,0.0632,-0.0467,5.94,-40.94,58.56,19.29,-80.66,-168.88
65560,53.791443,-1.760615,179.62,2.99,6,254.83,21 / 22,6556038,2019-11-08 11:46:33:649,-0.1165,-0.1641,9.7976,-0.0043,0.0102,9.8066,-0.0149,-0.0141,0.0264,6.31,-41.25,58.5,20.12,-80.82,-168.1
65561,53.791443,-1.760615,179.62,2.99,6,254.83,21 / 22,6556138,2019-11-08 11:46:33:749,-0.2428,-0.3301,9.7893,-0.0013,-0.0009,9.8066,-0.011,0.0242,-0.0022,5.75,-41.31,58.25,21.05,-80.88,-167.4
65562,53.791443,-1.760615,179.62,2.99,6,254.83,21 / 22,6556238,2019-11-08 11:46:33:849,-0.3286,-0.2285,9.9942,-0.0031,-0.0036,9.8065,-0.0167,0.0178,-0.0165,5.75,-41.31,58.88,20.74,-80.88,-167.54
65563,53.791443,-1.760615,179.62,2.99,6,254.83,21 / 22,6556338,2019-11-08 11:46:33:949,-0.1911,-0.3153,9.836,0.0004,0.0042,9.8066,-0.0363,0.0067,-0.0057,5.19,-40.94,58.38,19.9,-80.91,-167.43
65564,53.791443,-1.760615,179.62,2.99,6,254.83,21 / 22,6556438,2019-11-08 11:46:34:049,-0.0361,-0.2764,9.7632,0.0034,0.0049,9.8066,0.0079,0.005,-0.0151,5.88,-41.37,58.38,21.85,-81.03,-166.64
65565,53.791443,-1.760615,179.62,2.99,6,254.83,20 / 22,6556538,2019-11-08 11:46:34:149,-0.2377,-0.2938,9.8991,0.0012,-0.0013,9.8066,0.0184,0.0029,-0.0051,6.13,-40.75,58.13,21.54,-81.03,-166.92
65566,53.791443,-1.760615,179.62,2.99,6,254.83,20 / 22,6556639,2019-11-08 11:46:34:250,-0.2685,-0.0912,9.7438,0.0043,0.0113,9.8066,-0.018,0.0413,-0.0133,5.75,-41.06,58.94,21.18,-81.0,-167.11
65567,53.791443,-1.760615,179.62,2.99,6,254.83,20 / 22,6556738,2019-11-08 11:46:34:349,-0.3127,-0.3064,9.989,-0.0001,0.0158,9.8066,0.0268,-0.0141,0.0322,5.94,-41.37,58.94,21.85,-81.28,-166.43
65568,53.791443,-1.760615,179.62,2.99,6,254.83,20 / 22,6556838,2019-11-08 11:46:34:449,-0.2077,-0.4106,10.0184,-0.0025,0.0036,9.8066,-0.042,0.0076,0.0121,5.56,-41.44,58.0,22.35,-81.25,-166.12
65569,53.791443,-1.760615,179.62,2.99,6,254.83,20 / 22,6556938,2019-11-08 11:46:34:549,0.0004,-0.505,9.8167,0.0057,0.0079,9.8066,-0.0274,-0.0779,-0.0055,5.94,-41.75,58.25,22.88,-81.34,-165.68
65570,53.791443,-1.760615,179.62,2.99,6,254.83,20 / 22,6557038,2019-11-08 11:46:34:649,0.1211,-0.0326,9.5449,0.0151,-0.0086,9.8066,0.0765,0.0416,-0.0614,5.88,-41.81,58.38,22.75,-81.42,-165.77
65571,53.791443,-1.760615,179.62,2.99,6,254.83,20 / 22,6557138,2019-11-08 11:46:34:749,-0.7665,-0.7052,10.4237,-0.0025,0.0069,9.8066,0.0143,0.0975,0.0956,5.81,-40.69,58.44,20.83,-81.27,-167.47
65572,53.791443,-1.760615,179.62,2.99,6,254.83,20 / 22,6557238,2019-11-08 11:46:34:849,0.1023,-0.3746,9.7328,0.0168,-0.0033,9.8065,0.0169,-0.0101,-0.0468,5.38,-41.0,58.69,21.07,-81.21,-166.19
65573,53.791443,-1.760615,179.62,2.99,6,254.83,20 / 22,6557338,2019-11-08 11:46:34:949,-0.5111,0.1821,9.9492,0.0057,-0.0002,9.8066,-0.0114,-0.0099,0.0173,6.25,-41.06,58.31,20.63,-81.25,-167.66
65574,53.791443,-1.760615,179.62,2.99,6,254.83,20 / 22,6557438,2019-11-08 11:46:35:049,-0.4356,-0.3319,9.9225,-0.0103,0.0065,9.8065,-0.0016,0.0298,-0.0386,5.5,-41.56,58.69,21.73,-81.37,-166.56
65575,53.791443,-1.760615,179.62,2.99,6,254.83,22 / 24,6557539,2019-11-08 11:46:35:150,-0.053,-0.3304,9.6379,0.003,-0.0024,9.8066,0.057,-0.1147,-0.0584,6.19,-41.56,58.81,21.91,-81.39,-166.39
65576,53.791443,-1.760615,179.62,2.99,6,254.83,22 / 24,6557639,2019-11-08 11:46:35:250,-0.9559,-0.2312,9.934,-0.0191,0.0266,9.8065,-0.0533,-0.0179,0.0482,6.44,-41.44,58.31,21.92,-81.39,-166.47
65577,53.791443,-1.760615,179.62,2.99,6,254.83,22 / 24,6557738,2019-11-08 11:46:35:349,-0.1939,-0.3361,10.0095,-0.0046,0.0031,9.8066,0.037,0.0373,-0.0632,5.94,-41.31,58.44,24.19,-81.43,-164.42
65578,53.791443,-1.760615,179.62,2.99,6,254.83,22 / 24,6557838,2019-11-08 11:46:35:449,-0.0122,-0.4707,9.9611,0.0159,-0.0183,9.8065,-0.0209,0.0484,0.0136,6.44,-41.19,58.75,21.83,-81.34,-166.43
65579,53.791443,-1.760615,179.62,2.99,6,254.83,22 / 24,6557938,2019-11-08 11:46:35:549,0.0957,-1.2476,10.343,-0.0144,0.007,9.8066,0.005,0.0796,0.0197,5.94,-41.0,58.63,22.6,-81.38,-165.73
65580,53.791443,-1.760615,179.62,2.99,6,254.83,22 / 24,6558038,2019-11-08 11:46:35:649,-0.3444,-0.6171,10.3861,0.0096,0.0052,9.8066,-0.0019,0.1078,-0.0245,5.31,-41.5,58.13,22.06,-81.37,-165.37
65581,53.791443,-1.760615,179.62,2.99,6,254.83,22 / 24,6558138,2019-11-08 11:46:35:749,0.2016,-0.792,10.1889,-0.0119,0.0002,9.8066,0.011,0.0907,-0.0657,5.31,-41.06,58.13,22.05,-81.52,-165.33
65582,53.791443,-1.760615,179.62,2.99,6,254.83,22 / 24,6558238,2019-11-08 11:46:35:849,-0.1334,-0.0897,9.5938,-0.0019,0.0062,9.8066,0.0219,-0.0277,-0.0081,5.88,-41.5,59.0,23.43,-81.5,-164.94
65583,53.791443,-1.760615,179.62,2.99,6,254.83,22 / 24,6558338,2019-11-08 11:46:35:949,-0.1955,-0.1307,9.8194,-0.003,0.0002,9.8066,-0.0021,-0.0025,-0.0146,5.56,-41.25,58.69,23.29,-81.52,-165.06
65584,53.791443,-1.760615,179.62,2.99,6,254.83,22 / 24,6558438,2019-11-08 11:46:36:049,0.2273,-0.4972,9.8617,0.0051,-0.0003,9.8066,-0.0124,-0.0618,0.0169,5.94,-41.56,58.5,23.5,-81.53,-164.93
65585,53.791443,-1.760615,179.62,2.99,6,254.83,22 / 24,6558539,2019-11-08 11:46:36:150,-0.6271,-0.1068,9.855,0.0027,0.0043,9.8066,0.0001,-0.0326,0.0197,5.81,-41.44,58.38,23.52,-81.56,-164.98
65586,53.791443,-1.760615,179.62,2.99,6,254.83,22 / 24,6558639,2019-11-08 11:46:36:250,-0.153,-0.4406,9.8756,-0.0022,0.0046,9.8065,-0.0044,-0.0183,0.023,5.5,-41.0,58.69,23.59,-81.55,-164.78
65587,53.791443,-1.760615,179.62,2.99,6,254.83,22 / 24,6558740,2019-11-08 11:46:36:351,-0.2689,-0.6029,10.1137,-0.002,0.0104,9.8066,0.0194,-0.0105,0.0027,5.31,-41.87,58.75,23.1,-81.6,-164.3
65588,53.791443,-1.760615,179.62,2.99,6,254.83,22 / 24,6558838,2019-11-08 11:46:36:449,-0.1696,-0.2694,9.6913,-0.0094,0.0025,9.8066,0.0044,0.0345,-0.0156,5.38,-40.75,58.56,23.44,-81.55,-163.96
65589,53.791443,-1.760615,179.62,2.99,6,254.83,22 / 24,6558939,2019-11-08 11:46:36:550,-0.0104,-0.3869,9.907,0.0069,0.005,9.8065,0.006,0.0176,0.0057,5.69,-41.0,57.5,24.67,-81.55,-163.95
65590,53.791443,-1.760615,179.62,2.99,6,254.83,22 / 24,6559039,2019-11-08 11:46:36:650,-0.2212,-0.4617,9.8376,0.0025,0.0019,9.8066,0.0069,-0.0196,0.0054,5.5,-41.44,58.06,24.53,-81.62,-164.05
65591,53.791443,-1.760615,179.62,2.99,6,254.83,22 / 24,6559139,2019-11-08 11:46:36:750,-0.2255,-0.5585,9.9195,0.0075,-0.0023,9.8066,-0.0021,0.0293,-0.0195,5.56,-41.31,57.69,24.41,-81.57,-164.18
65592,53.791443,-1.760615,179.62,2.99,6,254.83,22 / 24,6559239,2019-11-08 11:46:36:850,-0.4624,-0.1538,9.7976,-0.0009,-0.0014,9.8066,-0.0017,0.016,-0.0148,5.75,-41.31,58.0,24.31,-81.58,-164.26
65593,53.791443,-1.760615,179.62,2.99,6,254.83,22 / 24,6559338,2019-11-08 11:46:36:949,-0.3789,-0.1172,9.7665,0.0022,-0.0009,9.8066,-0.003,-0.0307,0.0019,5.88,-41.06,58.31,24.43,-81.58,-164.15
65594,53.791443,-1.760615,179.62,2.99,6,254.83,22 / 24,6559438,2019-11-08 11:46:37:049,-0.3899,-0.5613,10.051,-0.0039,-0.0029,9.8066,-0.0274,0.0265,-0.0203,5.69,-41.44,58.63,24.4,-81.58,-164.04
65595,53.791443,-1.760615,179.62,2.99,6,254.83,19 / 24,6559538,2019-11-08 11:46:37:149,-0.0112,-0.403,9.7909,0.0009,0.0021,9.8065,-0.0146,0.0131,-0.007,5.56,-41.06,58.19,24.75,-81.58,-163.87
65596,53.791443,-1.760615,179.62,2.99,6,254.83,19 / 24,6559638,2019-11-08 11:46:37:249,-0.7143,-0.0203,9.7864,-0.0044,-0.0011,9.8066,0.0019,0.0408,-0.096,4.88,-41.12,57.75,23.72,-81.6,-163.81
65597,53.791443,-1.760615,179.62,2.99,6,254.83,19 / 24,6559738,2019-11-08 11:46:37:349,0.3772,-0.6977,9.743,-0.0253,0.0058,9.8066,0.0213,0.0231,-0.0718,5.81,-41.37,58.13,24.62,-81.52,-164.0
65598,53.791443,-1.760615,179.62,2.99,6,254.83,19 / 24,6559839,2019-11-08 11:46:37:450,-0.6607,-0.3447,9.8977,0.0009,-0.0037,9.8066,0.0193,0.0685,-0.0372,5.0,-41.12,58.5,23.02,-81.53,-164.34
65599,53.791443,-1.760615,179.62,2.99,6,254.83,19 / 24,6559939,2019-11-08 11:46:37:550,0.6722,-0.3799,9.502,0.0018,-0.0094,9.8066,-0.1325,0.1806,-0.1644,5.75,-41.0,58.56,23.84,-81.38,-164.61
65600,53.791443,-1.760615,179.62,2.99,6,254.83,19 / 24,6560038,2019-11-08 11:46:37:649,-0.8984,-0.3877,10.1666,-0.0163,-0.0126,9.8066,-0.009,0.0033,-0.0317,5.63,-41.44,58.25,23.96,-81.56,-164.58
65601,53.791443,-1.760615,179.62,2.99,6,254.83,19 / 24,6560138,2019-11-08 11:46:37:749,-0.6339,-0.3356,9.827,-0.0183,-0.0071,9.8065,-0.0294,0.0701,-0.0763,5.63,-41.69,58.06,23.93,-81.62,-164.64
65602,53.791443,-1.760615,179.62,2.99,6,254.83,19 / 24,6560238,2019-11-08 11:46:37:849,-0.4554,-0.3668,9.8146,0.0005,-0.0018,9.8065,-0.015,-0.0396,0.0179,5.5,-41.75,58.75,24.51,-81.55,-164.01
65603,53.791443,-1.760615,179.62,2.99,6,254.83,19 / 24,6560339,2019-11-08 11:46:37:950,-0.3201,-0.4838,10.0572,0.0096,-0.0011,9.8066,-0.0038,-0.002,-0.0302,5.63,-41.06,58.13,24.13,-81.56,-164.44
65604,53.791443,-1.760615,179.62,2.99,6,254.83,19 / 24,6560439,2019-11-08 11:46:38:050,-0.0913,-0.3867,9.8055,0.004,0.0,9.8065,0.0161,0.0575,0.0144,6.13,-41.12,58.25,23.4,-81.58,-165.08
65605,53.791443,-1.760615,179.62,2.99,6,254.83,20 / 23,6560538,2019-11-08 11:46:38:149,-0.1494,-0.4548,9.8141,-0.0023,-0.0051,9.8066,0.0023,-0.0004,-0.0035,5.13,-40.94,58.19,22.41,-81.52,-165.01
65606,53.791443,-1.760615,179.62,2.99,6,254.83,20 / 23,6560640,2019-11-08 11:46:38:251,-0.3684,-0.2429,9.8599,-0.0051,-0.0033,9.8066,-0.0027,0.0264,-0.026,5.88,-41.56,58.44,23.65,-81.5,-164.94
65607,53.791443,-1.760615,179.62,2.99,6,254.83,20 / 23,6560738,2019-11-08 11:46:38:349,-0.3981,-0.482,10.0194,-0.0126,0.0028,9.8066,-0.0078,0.0221,-0.0049,6.19,-40.69,57.88,23.82,-81.46,-164.75
65608,53.791443,-1.760615,179.62,2.99,6,254.83,20 / 23,6560839,2019-11-08 11:46:38:450,-0.3173,-0.474,9.8793,-0.0027,0.0004,9.8066,-0.0208,-0.0043,-0.0236,5.06,-41.69,57.75,23.55,-81.47,-164.07
65609,53.791443,-1.760615,179.62,2.99,6,254.83,20 / 23,6560939,2019-11-08 11:46:38:550,-0.2229,-0.1986,9.8554,0.0007,-0.0001,9.8066,-0.0073,-0.0197,-0.0023,5.88,-41.94,58.56,24.39,-81.49,-164.14
65610,53.791443,-1.760615,179.62,2.99,6,254.83,20 / 23,6561038,2019-11-08 11:46:38:649,-0.1329,-0.479,9.9403,-0.0031,0.0,9.8065,-0.019,0.009,0.0023,6.31,-41.81,58.69,24.47,-81.49,-164.07
65611,53.791443,-1.760615,179.62,2.99,6,254.83,20 / 23,6561138,2019-11-08 11:46:38:749,-0.2345,-0.4212,9.8614,-0.0235,0.0054,9.8066,-0.0121,0.0585,-0.0384,5.13,-41.69,58.44,24.02,-81.49,-163.64
65612,53.791443,-1.760615,179.62,2.99,6,254.83,20 / 23,6561238,2019-11-08 11:46:38:849,-0.2027,-0.4812,9.9863,-0.0007,-0.0089,9.8065,-0.0064,0.0339,-0.0558,5.38,-41.62,58.13,24.83,-81.49,-162.92
65613,53.791443,-1.760615,179.62,2.99,6,254.83,20 / 23,6561338,2019-11-08 11:46:38:949,-0.0518,-0.4726,9.8185,0.0002,-0.0039,9.8066,-0.0061,0.0411,0.0055,5.63,-41.69,58.13,25.6,-81.45,-163.22
65614,53.791443,-1.760615,179.62,2.99,6,254.83,20 / 23,6561439,2019-11-08 11:46:39:050,-0.0239,-0.1368,9.7502,0.0017,-0.0016,9.8066,0.0031,-0.0023,0.0125,5.63,-41.56,59.19,25.74,-81.42,-162.95
65615,53.791443,-1.760615,179.62,2.99,6,254.83,20 / 24,6561540,2019-11-08 11:46:39:151,0.003,-0.2977,9.8473,-0.0065,-0.0027,9.8066,-0.0078,-0.0023,-0.0336,5.94,-41.56,58.63,25.91,-81.38,-162.81
65616,53.791443,-1.760615,179.62,2.99,6,254.83,20 / 24,6561639,2019-11-08 11:46:39:250,0.0174,-0.4862,9.916,-0.0002,-0.0021,9.8066,-0.0197,-0.0325,0.0007,5.31,-41.37,58.69,24.65,-81.37,-162.93
65617,53.791443,-1.760615,179.62,2.99,6,254.83,20 / 24,6561738,2019-11-08 11:46:39:349,-0.3408,-0.2769,9.8166,0.0017,0.0004,9.8066,-0.0051,-0.0028,0.0151,6.0,-41.12,58.44,25.96,-81.34,-162.86
65618,53.791443,-1.760615,179.62,2.99,6,254.83,20 / 24,6561838,2019-11-08 11:46:39:449,-0.3009,-0.1496,9.7979,-0.0103,0.0061,9.8065,-0.0153,-0.0634,0.0605,5.69,-41.31,58.75,25.73,-81.28,-162.95
65619,53.791443,-1.760615,179.62,2.99,6,254.83,20 / 24,6561939,2019-11-08 11:46:39:550,-1.0404,-0.6941,10.3448,-0.0155,-0.007,9.8066,0.0857,0.1143,-0.1696,6.38,-40.81,58.94,27.38,-81.19,-161.5
65620,53.791443,-1.760615,179.62,2.99,6,254.83,20 / 24,6562039,2019-11-08 11:46:39:650,-0.7361,-0.3965,9.8526,0.007,0.019,9.8066,0.0688,-0.0382,-0.0214,6.19,-41.62,58.25,26.01,-81.21,-162.94
65621,53.791443,-1.760615,179.62,2.99,6,254.83,20 / 24,6562139,2019-11-08 11:46:39:750,-1.919,-0.1778,10.0625,0.0289,0.011,9.8066,0.0356,-0.1662,0.1407,5.81,-41.31,57.94,25.51,-81.31,-163.28
65622,53.791443,-1.760615,179.62,2.99,6,254.83,20 / 24,6562238,2019-11-08 11:46:39:849,0.4387,-0.1551,9.6526,0.0438,-0.0038,9.8065,0.0048,-0.0146,0.003,5.75,-41.0,58.63,25.35,-81.12,-163.35
65623,53.791443,-1.760615,179.62,2.99,6,254.83,20 / 24,6562338,2019-11-08 11:46:39:949,-0.4267,-0.5062,9.9701,-0.0174,-0.0031,9.8066,0.0247,-0.0246,0.0032,6.31,-41.75,58.44,24.18,-81.26,-164.55
65624,53.791443,-1.760615,179.62,2.99,6,254.83,20 / 24,6562438,2019-11-08 11:46:40:049,0.2227,-0.6394,9.9624,0.0199,0.0163,9.8066,-0.0115,-0.0436,0.0346,6.0,-41.62,58.38,25.71,-80.97,-163.29
65625,53.791443,-1.760615,179.62,2.99,6,254.83,18 / 23,6562538,2019-11-08 11:46:40:149,-0.2259,-0.2182,9.9315,0.0002,0.0037,9.8066,-0.0353,0.0298,0.0108,5.25,-41.87,58.63,24.57,-81.13,-163.15
65626,53.791443,-1.760615,179.62,2.99,6,254.83,18 / 23,6562639,2019-11-08 11:46:40:250,0.2043,-0.4975,9.9522,0.0038,0.0014,9.8066,-0.0119,-0.0363,0.019,5.06,-40.81,58.06,25.04,-81.18,-162.78
65627,53.791443,-1.760615,179.62,2.99,6,254.83,18 / 23,6562739,2019-11-08 11:46:40:350,-0.2431,-0.0391,9.7581,0.0083,0.0011,9.8066,0.0144,-0.0125,0.0436,5.44,-40.69,58.13,24.89,-81.2,-162.9
65628,53.791443,-1.760615,179.62,2.99,6,254.83,18 / 23,6562838,2019-11-08 11:46:40:449,0.086,-0.4463,9.7706,0.0043,0.0011,9.8066,0.0033,0.0181,-0.002,6.0,-40.69,58.19,26.2,-81.16,-162.71
65629,53.791443,-1.760615,179.62,2.99,6,254.83,18 / 23,6562938,2019-11-08 11:46:40:549,-0.0738,-0.3257,9.9261,0.0013,0.0017,9.8066,0.0105,-0.0246,0.0007,6.06,-41.56,58.63,25.89,-81.18,-162.9
65630,53.791443,-1.760615,179.62,2.99,6,254.83,18 / 23,6563038,2019-11-08 11:46:40:649,-0.2895,-0.2871,9.9083,-0.0001,0.0013,9.8066,0.0035,0.0315,-0.0158,6.31,-41.62,58.44,26.27,-81.14,-162.73
65631,53.791443,-1.760615,179.62,2.99,6,254.83,18 / 23,6563138,2019-11-08 11:46:40:749,-0.0076,-0.4681,9.9523,-0.0054,0.0039,9.8066,0.0145,0.0305,-0.0268,5.94,-41.62,58.13,26.32,-81.13,-162.69
65632,53.791443,-1.760615,179.62,2.99,6,254.83,18 / 23,6563238,2019-11-08 11:46:40:849,-0.7785,-0.1825,9.8973,-0.0218,-0.0022,9.8065,-0.0051,0.0307,-0.0441,6.38,-41.25,58.19,26.11,-81.12,-162.82
65633,53.791443,-1.760615,179.62,2.99,6,254.83,18 / 23,6563339,2019-11-08 11:46:40:950,-0.1773,-0.304,9.874,-0.0046,-0.0024,9.8066,-0.0059,0.0027,0.0175,6.06,-41.31,58.44,26.7,-81.07,-162.3
65634,53.791443,-1.760615,179.62,2.99,6,254.83,18 / 23,6563439,2019-11-08 11:46:41:050,-0.225,-0.65,9.8365,0.0018,-0.0091,9.8066,-0.0355,-0.0138,0.03,5.69,-41.12,58.56,26.91,-81.01,-161.99
65635,53.791443,-1.760615,179.62,2.99,6,254.83,18 / 23,6563539,2019-11-08 11:46:41:150,0.0263,-1.0255,9.9058,0.0048,-0.0005,9.8066,0.0188,0.0153,-0.0149,6.19,-40.87,58.56,26.88,-80.95,-162.04
65636,53.791443,-1.760615,179.62,2.99,6,254.83,18 / 23,6563639,2019-11-08 11:46:41:250,0.4789,-0.6416,9.6933,0.0078,-0.0097,9.8065,-0.0098,0.0883,-0.0524,5.56,-41.62,58.75,26.42,-80.87,-162.55
65637,53.791443,-1.760615,179.62,2.99,6,254.83,18 / 23,6563739,2019-11-08 11:46:41:350,-0.2347,-1.4836,10.0144,-0.0019,-0.0068,9.8066,0.0252,-0.0061,0.0154,5.88,-41.56,58.69,26.6,-80.73,-162.44
65638,53.791443,-1.760615,179.62,2.99,6,254.83,18 / 23,6563839,2019-11-08 11:46:41:450,-0.3722,-1.6528,9.841,0.0004,-0.0057,9.8066,0.0423,-0.0259,0.0144,6.25,-40.81,59.0,26.22,-80.62,-162.75
65639,53.791443,-1.760615,179.62,2.99,6,254.83,18 / 23,6563939,2019-11-08 11:46:41:550,-0.4309,-3.6073,9.8806,-0.0027,-0.0287,9.8065,0.0559,0.0279,-0.0034,5.75,-41.06,59.25,25.77,-80.28,-163.28
65640,53.791443,-1.760615,179.62,2.99,6,254.83,18 / 23,6564038,2019-11-08 11:46:41:649,-0.2312,-1.1792,9.9999,-0.0109,-0.0244,9.8066,0.0091,-0.038,0.0622,6.06,-41.81,59.81,25.51,-79.99,-163.54
65641,53.791443,-1.760615,179.62,2.99,6,254.83,18 / 23,6564138,2019-11-08 11:46:41:749,-0.2241,-2.4767,9.6686,-0.0066,-0.0054,9.8065,-0.0207,-0.0526,-0.032,5.75,-40.94,59.38,26.03,-79.81,-163.22
65642,53.791443,-1.760615,179.62,2.99,6,254.83,18 / 23,6564240,2019-11-08 11:46:41:851,0.0778,-1.4045,9.7179,0.0275,0.007,9.8065,-0.0343,-0.0278,-0.0102,5.94,-40.62,59.31,26.31,-79.72,-163.01
65643,53.791443,-1.760615,179.62,2.99,6,254.83,18 / 23,6564338,2019-11-08 11:46:41:949,-0.5475,-2.5589,10.8213,0.0098,0.0167,9.8066,-0.2221,0.0829,-0.125,6.38,-41.75,59.25,25.77,-79.99,-163.46
65644,53.791443,-1.760615,179.62,2.99,6,254.83,18 / 23,6564439,2019-11-08 11:46:42:050,0.4761,-0.4622,9.2245,0.033,-0.0016,9.8065,0.0473,0.212,-0.2299,6.31,-40.69,58.75,27.68,-80.03,-161.68
65645,53.791443,-1.760615,179.62,2.99,6,254.83,20 / 24,6564538,2019-11-08 11:46:42:149,-1.0734,-4.243,10.2593,0.0259,-0.0306,9.8065,0.0527,-0.0611,0.0499,6.38,-40.19,58.94,22.9,-79.92,-165.86
65646,53.791443,-1.760615,179.62,2.99,6,254.83,20 / 24,6564639,2019-11-08 11:46:42:250,-0.5306,-1.4393,9.9465,0.0009,0.0184,9.8065,-0.03,-0.1111,0.0981,6.56,-41.19,58.5,24.83,-79.88,-165.2
65647,53.791443,-1.760615,179.62,2.99,6,254.83,20 / 24,6564738,2019-11-08 11:46:42:349,-1.418,-2.0771,9.9309,0.0113,0.0124,9.8066,-0.0587,-0.1836,0.0867,6.44,-41.19,59.06,24.87,-80.01,-164.17
65648,53.791443,-1.760615,179.62,2.99,6,254.83,20 / 24,6564839,2019-11-08 11:46:42:450,-0.4358,-2.52,9.9697,-0.0006,0.0197,9.8065,0.0031,-0.1104,-0.09,6.13,-41.25,58.06,25.61,-80.27,-163.57
65649,53.791443,-1.760615,179.62,2.99,6,254.83,20 / 24,6564938,2019-11-08 11:46:42:549,0.4595,0.0102,9.6924,-0.0051,0.0137,9.8066,-0.1264,-0.0814,0.2362,5.81,-41.19,57.88,24.98,-80.41,-164.08
65650,53.791443,-1.760615,179.62,2.99,6,254.83,20 / 24,6565039,2019-11-08 11:46:42:650,-0.9377,-0.9267,10.0327,0.003,-0.0457,9.8065,-0.0945,0.0948,-0.1227,6.06,-40.87,57.69,25.92,-80.4,-163.25
65651,53.791443,-1.760615,179.62,2.99,6,254.83,20 / 24,6565138,2019-11-08 11:46:42:749,0.3878,-0.8945,9.8922,-0.0004,0.0124,9.8066,0.0205,-0.0213,-0.0304,6.56,-41.31,57.63,25.53,-80.28,-164.61
65652,53.791443,-1.760615,179.62,2.99,6,254.83,20 / 24,6565239,2019-11-08 11:46:42:850,-0.9464,-1.431,10.0712,0.0051,-0.0072,9.8066,0.0002,-0.0206,-0.0738,6.75,-41.5,57.38,25.47,-80.29,-164.83
65653,53.791443,-1.760615,179.62,2.99,6,254.83,20 / 24,6565338,2019-11-08 11:46:42:949,-0.0501,-1.9831,9.8308,0.0053,-0.0067,9.8066,-0.0226,-0.0561,-0.049,8.0,-40.81,57.63,25.48,-80.26,-165.62
65654,53.791443,-1.760615,179.62,2.99,6,254.83,20 / 24,6565439,2019-11-08 11:46:43:050,-0.0856,-2.0859,10.0593,-0.0013,-0.0112,9.8066,0.0249,-0.0411,0.0201,7.44,-41.37,57.13,23.72,-80.31,-166.36
65655,53.791443,-1.760615,179.62,2.99,6,254.83,19 / 23,6565539,2019-11-08 11:46:43:150,-0.3617,-3.7142,9.9982,-0.0185,-0.0085,9.8066,-0.0077,-0.0213,0.0162,6.94,-41.81,57.31,24.34,-80.07,-165.97
65656,53.791443,-1.760615,179.62,2.99,6,254.83,19 / 23,6565638,2019-11-08 11:46:43:249,-0.2464,-2.5211,10.0561,-0.0101,0.0026,9.8066,0.0638,-0.0261,-0.0915,6.31,-41.44,57.5,23.66,-80.07,-165.36
65657,53.791443,-1.760615,179.62,2.99,6,254.83,19 / 23,6565738,2019-11-08 11:46:43:349,0.2642,-2.6989,9.9393,-0.0025,-0.0144,9.8066,-0.0228,0.0934,-0.0023,6.81,-42.12,57.5,22.58,-79.87,-167.41
65658,53.791443,-1.760615,179.62,2.99,6,254.83,19 / 23,6565838,2019-11-08 11:46:43:449,0.0228,-3.5928,9.7655,0.0026,0.003,9.8066,-0.0463,-0.0335,0.0496,7.38,-41.44,57.06,22.98,-79.81,-167.18
65659,53.791443,-1.760615,179.62,2.99,6,254.83,19 / 23,6565938,2019-11-08 11:46:43:549,-0.8087,-2.5321,9.9527,0.0077,0.0105,9.8066,0.0489,-0.0255,0.0121,6.63,-41.25,57.38,23.26,-79.89,-166.91
65660,53.791443,-1.760615,179.62,2.99,6,254.83,19 / 23,6566039,2019-11-08 11:46:43:650,0.2537,-0.061,9.5151,0.0249,0.0263,9.8065,-0.1707,0.0933,-0.002,6.63,-41.81,57.19,21.63,-79.77,-168.44
65661,53.791443,-1.760615,179.62,2.99,6,254.83,19 / 23,6566138,2019-11-08 11:46:43:749,-0.3332,0.2694,9.7715,0.0057,0.0176,9.8066,-0.1391,0.0065,0.029,7.0,-41.5,56.56,21.54,-80.46,-168.22
65662,53.791443,-1.760615,179.62,2.99,6,254.83,19 / 23,6566239,2019-11-08 11:46:43:850,-0.7466,0.0896,9.8535,-0.0269,0.0294,9.8065,-0.0566,-0.028,0.0876,7.75,-41.75,56.5,23.81,-80.73,-167.19
65663,53.791443,-1.760615,179.62,2.99,6,254.83,19 / 23,6566338,2019-11-08 11:46:43:949,-0.0915,-0.4794,9.8175,0.0081,-0.0301,9.8066,0.0363,-0.0428,-0.1985,7.31,-41.31,55.88,25.21,-80.82,-165.04
65664,53.791443,-1.760615,179.62,2.99,6,254.83,19 / 23,6566438,2019-11-08 11:46:44:049,0.3424,-1.6686,9.8811,-0.0081,0.023,9.8066,-0.0746,-0.0979,0.0966,6.63,-41.56,55.56,21.71,-80.56,-168.28
65665,53.791443,-1.760615,179.62,2.99,6,254.83,19 / 23,6566538,2019-11-08 11:46:44:149,0.2266,-3.8633,9.1923,-0.021,0.0242,9.8065,-0.0979,-0.0552,0.1943,6.69,-42.12,55.63,24.85,-80.82,-165.42
65666,53.791443,-1.760615,179.62,2.99,6,254.83,19 / 23,6566638,2019-11-08 11:46:44:249,0.0714,-0.818,11.8761,-0.021,-0.0008,9.8065,0.1793,0.1847,-0.3808,6.69,-41.62,55.75,28.8,-80.87,-161.91
65667,53.791443,-1.760615,179.62,2.99,6,254.83,19 / 23,6566738,2019-11-08 11:46:44:349,-1.2409,-1.3527,11.04,-0.0018,-0.047,9.8064,0.0552,0.2269,-0.0522,7.69,-41.37,56.5,21.43,-80.15,-169.4
65668,53.791443,-1.760615,179.62,2.99,6,254.83,19 / 23,6566838,2019-11-08 11:46:44:449,-1.8764,-3.5916,10.3995,0.0181,-0.0475,9.8065,0.1218,-0.0353,0.0372,6.94,-40.81,56.75,19.47,-79.52,-170.32
65669,53.791443,-1.760615,179.62,2.99,6,254.83,19 / 23,6566938,2019-11-08 11:46:44:549,0.2642,-3.6513,8.3518,-0.0065,-0.0384,9.8065,-0.1164,0.1479,0.0988,6.69,-41.25,57.5,17.52,-78.87,-172.01
65670,53.791443,-1.760615,179.62,2.99,6,254.83,19 / 23,6567039,2019-11-08 11:46:44:650,-0.3519,-2.6003,8.1094,-0.0343,-0.0024,9.8065,0.1158,0.2754,-0.0842,6.88,-41.44,58.0,21.63,-78.73,-168.54
65671,53.791443,-1.760615,179.62,2.99,6,254.83,19 / 23,6567139,2019-11-08 11:46:44:750,-0.583,-3.4529,10.3408,-0.0566,-0.0242,9.8064,-0.0095,0.1893,0.0175,6.5,-41.62,58.06,24.33,-78.09,-166.53
65672,53.791443,-1.760615,179.62,2.99,6,254.83,19 / 23,6567239,2019-11-08 11:46:44:850,0.1826,-1.4908,11.7713,0.0501,0.0202,9.8064,-0.4248,0.1484,0.1984,6.69,-41.62,58.06,22.33,-78.4,-168.12
65673,53.791443,-1.760615,179.62,2.99,6,254.83,19 / 23,6567339,2019-11-08 11:46:44:950,0.0248,-0.4101,10.599,-0.0018,0.0503,9.8065,-0.3343,0.3665,-0.0099,6.44,-41.69,56.94,23.08,-79.31,-166.35
65674,53.791443,-1.760615,179.62,2.99,6,254.83,19 / 23,6567439,2019-11-08 11:46:45:050,1.0655,-0.2131,9.3027,0.0091,0.0211,9.8066,-0.0654,0.2482,-0.1385,7.06,-41.62,56.25,24.54,-80.34,-165.87
65675,53.79142,-1.760758,179.83,5.43,6,256.49,22 / 25,6567539,2019-11-08 11:46:45:150,-1.6934,-2.3152,9.1943,-0.033,-0.0089,9.8065,-0.1217,0.1843,0.0611,6.38,-41.69,55.88,22.72,-80.55,-166.39
65676,53.79142,-1.760758,179.83,5.43,6,256.49,22 / 25,6567638,2019-11-08 11:46:45:249,-1.1601,-2.4377,9.5406,0.0328,-0.0451,9.8065,0.0285,-0.1465,0.1669,6.81,-41.5,56.69,24.29,-80.16,-165.91
65677,53.79142,-1.760758,179.83,5.43,6,256.49,22 / 25,6567738,2019-11-08 11:46:45:349,-1.5211,-0.9456,10.4815,-0.0068,-0.0331,9.8065,0.1167,-0.0947,0.0294,6.19,-41.5,57.5,23.6,-79.8,-165.5
65678,53.79142,-1.760758,179.83,5.43,6,256.49,22 / 25,6567838,2019-11-08 11:46:45:449,-0.3354,-2.1237,9.2923,0.0232,-0.003,9.8065,-0.0797,-0.0027,-0.0041,6.38,-41.87,56.75,22.02,-79.69,-167.14
65679,53.79142,-1.760758,179.83,5.43,6,256.49,22 / 25,6567938,2019-11-08 11:46:45:549,0.6678,-3.4452,9.4569,0.0296,0.0229,9.8066,0.0206,-0.1189,0.0844,6.0,-41.56,56.88,21.92,-79.89,-167.16
65680,53.79142,-1.760758,179.83,5.43,6,256.49,22 / 25,6568038,2019-11-08 11:46:45:649,-0.5234,-1.8722,8.2963,-0.0207,0.0335,9.8065,-0.0734,0.0444,-0.0189,6.63,-42.31,56.94,24.17,-80.19,-166.07
65681,53.79142,-1.760758,179.83,5.43,6,256.49,22 / 25,6568139,2019-11-08 11:46:45:750,2.3633,-2.0871,8.6113,0.0177,0.0478,9.8065,-0.0968,-0.3873,0.2179,6.56,-41.75,55.75,24.33,-80.64,-165.95
65682,53.79142,-1.760758,179.83,5.43,6,256.49,22 / 25,6568238,2019-11-08 11:46:45:849,-2.0999,-1.0899,11.633,-0.0185,0.0386,9.8065,-0.1176,0.1252,0.0124,6.75,-42.12,55.19,27.72,-81.0,-162.99
65683,53.79142,-1.760758,179.83,5.43,6,256.49,22 / 25,6568338,2019-11-08 11:46:45:949,1.6668,-2.6937,10.3197,0.1415,-0.0447,9.8055,0.0464,0.1938,-0.4161,6.13,-41.25,55.69,28.92,-81.4,-160.49
65684,53.79142,-1.760758,179.83,5.43,6,256.49,22 / 25,6568438,2019-11-08 11:46:46:049,-0.8984,-0.3463,9.984,0.0063,-0.0356,9.8066,0.2095,0.0212,-0.0156,6.88,-41.62,55.81,21.54,-81.35,-168.16
65685,53.79142,-1.760758,179.83,5.43,6,256.49,21 / 24,6568539,2019-11-08 11:46:46:150,-4.3129,-3.7754,10.9775,-0.0504,-0.1026,9.8059,0.1858,0.2722,-0.091,7.19,-40.69,57.06,20.44,-80.63,-169.14
65686,53.79142,-1.760758,179.83,5.43,6,256.49,21 / 24,6568638,2019-11-08 11:46:46:249,-1.6833,-1.856,9.6081,-0.0766,-0.0925,9.8059,0.1848,-0.2531,-0.1425,7.31,-40.75,58.06,21.41,-78.96,-168.65
65687,53.79142,-1.760758,179.83,5.43,6,256.49,21 / 24,6568738,2019-11-08 11:46:46:349,0.098,-1.8139,10.6402,-0.0042,0.0457,9.8065,-0.2754,0.1046,0.0472,6.88,-40.62,57.81,14.23,-78.85,-174.83
65688,53.79142,-1.760758,179.83,5.43,6,256.49,21 / 24,6568838,2019-11-08 11:46:46:449,-0.3237,-0.5467,9.5705,-0.0322,0.0501,9.8065,-0.0365,0.0537,-0.0978,6.19,-41.25,57.0,15.62,-79.66,-172.61
65689,53.79142,-1.760758,179.83,5.43,6,256.49,21 / 24,6568938,2019-11-08 11:46:46:549,0.5816,-0.6789,9.0454,0.0438,0.0178,9.8065,-0.0111,0.2176,0.0248,6.88,-40.81,56.94,15.45,-79.9,-173.69
65690,53.79142,-1.760758,179.83,5.43,6,256.49,21 / 24,6569039,2019-11-08 11:46:46:650,0.1536,-1.6481,10.2013,-0.0283,0.0088,9.8065,0.0299,0.0063,0.0037,6.88,-40.81,57.19,15.78,-80.18,-173.34
65691,53.79142,-1.760758,179.83,5.43,6,256.49,21 / 24,6569138,2019-11-08 11:46:46:749,-0.6931,-1.4439,10.6538,0.0118,-0.0405,9.8065,-0.0702,0.1503,-0.2058,7.38,-40.19,56.25,14.72,-79.85,-174.44
65692,53.79142,-1.760758,179.83,5.43,6,256.49,21 / 24,6569238,2019-11-08 11:46:46:849,-2.1067,-0.9218,9.2323,-0.0537,0.0582,9.8062,-0.153,0.0983,0.1622,7.06,-41.12,56.44,15.11,-80.09,-174.1
65693,53.79142,-1.760758,179.83,5.43,6,256.49,21 / 24,6569339,2019-11-08 11:46:46:950,0.6961,-1.9304,10.4013,0.0068,-0.0079,9.8066,-0.0616,0.0303,-0.0593,6.31,-40.81,57.25,15.73,-80.47,-172.33
65694,53.79142,-1.760758,179.83,5.43,6,256.49,21 / 24,6569439,2019-11-08 11:46:47:050,0.4226,-0.9127,9.2057,0.0176,-0.019,9.8065,-0.0699,-0.0361,0.1164,6.13,-41.12,57.13,15.77,-80.56,-172.27
65695,53.79142,-1.760758,179.83,5.43,6,256.49,21 / 24,6569538,2019-11-08 11:46:47:149,-2.3541,-1.2451,10.2899,0.0263,0.0078,9.8065,-0.1203,0.319,-0.1512,6.06,-40.87,57.75,15.08,-80.49,-172.76
65696,53.79142,-1.760758,179.83,5.43,6,256.49,21 / 24,6569639,2019-11-08 11:46:47:250,1.6137,-1.6061,9.8134,-0.0115,-0.0136,9.8066,-0.0585,0.2045,-0.087,6.31,-41.19,57.75,15.04,-80.29,-172.84
65697,53.79142,-1.760758,179.83,5.43,6,256.49,21 / 24,6569739,2019-11-08 11:46:47:350,-2.4538,-0.7694,9.8851,0.0027,0.0119,9.8066,0.0113,0.3294,-0.084,6.63,-41.37,58.19,16.4,-80.3,-172.62
65698,53.79142,-1.760758,179.83,5.43,6,256.49,21 / 24,6569839,2019-11-08 11:46:47:450,-0.1743,0.3512,10.0982,-0.0535,-0.0046,9.8065,-0.0424,0.4263,-0.3395,6.38,-41.06,58.31,16.0,-80.21,-172.02
65699,53.79142,-1.760758,179.83,5.43,6,256.49,21 / 24,6569939,2019-11-08 11:46:47:550,-4.1391,0.6915,10.5306,0.0089,-0.03,9.8065,-0.0773,0.0252,-0.0335,6.69,-40.87,58.56,15.41,-80.22,-173.36
65700,53.79142,-1.760758,179.83,5.43,6,256.49,21 / 24,6570038,2019-11-08 11:46:47:649,-0.3577,0.2761,9.4982,-0.0883,0.0323,9.8061,0.0105,0.2805,-0.278,6.94,-41.31,58.44,12.55,-80.22,-175.99
65701,53.79142,-1.760758,179.83,5.43,6,256.49,21 / 24,6570138,2019-11-08 11:46:47:749,1.9612,0.222,9.2669,-0.0724,0.0311,9.8063,0.0584,-0.0894,0.0793,6.56,-41.31,58.19,16.49,-80.39,-172.52
65702,53.79142,-1.760758,179.83,5.43,6,256.49,21 / 24,6570238,2019-11-08 11:46:47:849,0.6537,2.0605,9.6134,-0.0054,-0.0279,9.8066,-0.0684,0.1067,-0.0853,6.69,-41.75,58.0,16.65,-80.44,-172.41
65703,53.79142,-1.760758,179.83,5.43,6,256.49,21 / 24,6570338,2019-11-08 11:46:47:949,1.8375,0.3288,9.4378,0.0178,0.0088,9.8066,0.0957,-0.1951,0.0298,6.25,-41.31,57.75,15.8,-80.47,-172.13
65704,53.79142,-1.760758,179.83,5.43,6,256.49,21 / 24,6570439,2019-11-08 11:46:48:050,-0.4843,0.4675,10.1005,-0.003,-0.0176,9.8066,0.0947,0.0104,0.0124,6.75,-41.69,57.81,16.36,-80.34,-172.69
65705,53.79142,-1.760758,179.83,5.43,6,256.49,22 / 24,6570539,2019-11-08 11:46:48:150,0.3272,0.5721,9.8342,-0.0014,0.012,9.8066,-0.0286,-0.0111,0.03,6.63,-41.5,58.38,16.6,-80.04,-172.51
65706,53.79142,-1.760758,179.83,5.43,6,256.49,22 / 24,6570639,2019-11-08 11:46:48:250,0.1498,1.4567,9.8774,-0.0098,0.0209,9.8066,0.0131,0.0636,-0.0135,6.5,-41.62,58.19,17.64,-80.22,-171.61
65707,53.79142,-1.760758,179.83,5.43,6,256.49,22 / 24,6570739,2019-11-08 11:46:48:350,0.2126,-0.5854,10.8158,0.0145,-0.0208,9.8065,-0.0216,-0.0211,-0.0546,6.75,-41.44,58.13,18.41,-80.38,-170.84
65708,53.79142,-1.760758,179.83,5.43,6,256.49,22 / 24,6570839,2019-11-08 11:46:48:450,1.1804,0.2496,9.6479,0.029,-0.0114,9.8065,-0.04,0.1117,-0.0448,6.69,-41.19,58.5,15.0,-80.21,-173.71
65709,53.79142,-1.760758,179.83,5.43,6,256.49,22 / 24,6570938,2019-11-08 11:46:48:549,0.3458,-0.4247,9.4335,-0.012,-0.0065,9.8066,0.0899,-0.0419,0.0078,6.5,-41.44,58.06,15.32,-80.18,-173.59
65710,53.79142,-1.760758,179.83,5.43,6,256.49,22 / 24,6571038,2019-11-08 11:46:48:649,0.1962,-0.2729,9.4421,0.0125,-0.0136,9.8066,-0.0051,-0.0234,-0.0498,6.19,-41.37,58.63,15.25,-80.08,-172.57
65711,53.79142,-1.760758,179.83,5.43,6,256.49,22 / 24,6571138,2019-11-08 11:46:48:749,-0.4522,-0.0162,10.0932,0.0293,-0.0054,9.8065,-0.0479,0.1704,-0.0148,6.69,-41.0,58.56,13.71,-79.98,-174.89
65712,53.79142,-1.760758,179.83,5.43,6,256.49,22 / 24,6571238,2019-11-08 11:46:48:849,-0.4567,0.2226,9.6299,-0.023,0.0291,9.8065,-0.0635,0.0188,0.1208,5.81,-41.69,58.75,13.28,-80.05,-174.33
65713,53.79142,-1.760758,179.83,5.43,6,256.49,22 / 24,6571338,2019-11-08 11:46:48:949,0.051,0.774,9.3169,0.003,0.0143,9.8065,0.0283,0.0393,-0.0488,6.63,-41.75,58.31,17.77,-80.23,-171.49
65714,53.79142,-1.760758,179.83,5.43,6,256.49,22 / 24,6571439,2019-11-08 11:46:49:050,-0.2528,-0.9161,9.9288,0.0216,-0.0247,9.8065,-0.0307,-0.0271,-0.0673,6.69,-41.0,58.44,15.63,-80.11,-173.34
65715,53.79142,-1.760758,179.83,5.43,6,256.49,21 / 23,6571539,2019-11-08 11:46:49:150,-0.6241,0.2116,10.26,-0.0409,0.0381,9.8064,-0.0266,0.0627,0.0653,6.69,-41.37,58.0,17.56,-80.31,-171.6
65716,53.79142,-1.760758,179.83,5.43,6,256.49,21 / 23,6571639,2019-11-08 11:46:49:250,0.1075,-0.0946,9.8159,0.0175,-0.0446,9.8065,0.0041,0.0278,-0.1591,7.0,-40.44,57.81,16.81,-80.03,-172.28
65717,53.79142,-1.760758,179.83,5.43,6,256.49,21 / 23,6571739,2019-11-08 11:46:49:350,-0.0559,-1.0276,9.5787,0.0022,0.0037,9.8066,-0.0404,0.0246,0.0335,6.5,-41.06,58.25,15.18,-79.99,-173.75
65718,53.79142,-1.760758,179.83,5.43,6,256.49,21 / 23,6571838,2019-11-08 11:46:49:449,-0.3935,-0.444,10.1169,-0.0086,-0.0057,9.8066,0.011,0.0079,-0.0364,6.56,-40.56,58.81,15.6,-80.03,-173.23
65719,53.79142,-1.760758,179.83,5.43,6,256.49,21 / 23,6571938,2019-11-08 11:46:49:549,-0.7124,-0.036,10.0766,0.0066,-0.0124,9.8065,0.0399,0.0609,-0.0656,6.81,-41.5,58.5,13.55,-79.81,-175.07
65720,53.79142,-1.760758,179.83,5.43,6,256.49,21 / 23,6572038,2019-11-08 11:46:49:649,-0.3847,1.0408,9.8484,-0.0395,-0.0034,9.8065,-0.0268,0.0609,-0.0066,7.0,-41.06,58.81,14.41,-79.63,-174.35
65721,53.79142,-1.760758,179.83,5.43,6,256.49,21 / 23,6572139,2019-11-08 11:46:49:750,-1.3489,-0.2954,9.9507,0.0095,-0.0036,9.8065,0.0647,-0.23,0.057,7.19,-40.75,58.69,14.36,-79.53,-174.42
65722,53.79142,-1.760758,179.83,5.43,6,256.49,21 / 23,6572238,2019-11-08 11:46:49:849,-0.6428,-1.5751,10.1088,0.0045,0.0054,9.8066,-0.0157,-0.0597,0.0772,7.0,-41.5,58.5,13.13,-79.54,-175.48
65723,53.79142,-1.760758,179.83,5.43,6,256.49,21 / 23,6572338,2019-11-08 11:46:49:949,-0.3638,0.3929,9.4351,-0.0377,-0.0067,9.8065,0.0715,0.0171,-0.045,6.56,-41.06,58.81,15.42,-79.49,-173.52
65724,53.79142,-1.760758,179.83,5.43,6,256.49,21 / 23,6572439,2019-11-08 11:46:50:050,1.4559,-1.8936,9.6807,0.0159,0.0017,9.8066,0.0348,-0.0056,0.0534,6.63,-41.37,58.5,14.94,-79.35,-173.96
65725,53.79142,-1.760758,179.83,5.43,6,256.49,21 / 23,6572540,2019-11-08 11:46:50:151,-0.7127,-0.4543,9.7585,0.0242,0.0022,9.8066,-0.0597,0.0755,-0.101,7.13,-41.37,58.44,14.14,-79.32,-174.8
65726,53.79142,-1.760758,179.83,5.43,6,256.49,21 / 23,6572639,2019-11-08 11:46:50:250,0.3698,0.3218,9.3923,0.0002,-0.002,9.8066,-0.0037,0.08,-0.0068,6.25,-41.25,58.56,12.98,-79.22,-174.72
65727,53.79142,-1.760758,179.83,5.43,6,256.49,21 / 23,6572738,2019-11-08 11:46:50:349,-2.106,-0.7287,10.4278,-0.0191,-0.011,9.8066,-0.0222,0.1027,-0.0788,7.5,-41.62,58.44,15.91,-79.21,-174.33
65728,53.79142,-1.760758,179.83,5.43,6,256.49,21 / 23,6572838,2019-11-08 11:46:50:449,-0.1956,-0.4072,9.9972,-0.0068,-0.0044,9.8066,-0.0322,0.1202,-0.095,6.44,-41.0,57.69,13.07,-79.18,-174.77
65729,53.79142,-1.760758,179.83,5.43,6,256.49,21 / 23,6572938,2019-11-08 11:46:50:549,-0.7235,-0.8746,10.5859,-0.0135,-0.0084,9.8066,0.017,-0.0139,-0.0434,7.44,-40.87,57.88,14.43,-79.18,-174.58
65730,53.79142,-1.760758,179.83,5.43,6,256.49,21 / 23,6573038,2019-11-08 11:46:50:649,-0.2417,-0.6168,9.4872,-0.0043,-0.0222,9.8066,-0.0461,0.0044,-0.0727,7.06,-40.94,58.75,13.9,-78.97,-174.93
65731,53.79142,-1.760758,179.83,5.43,6,256.49,21 / 23,6573139,2019-11-08 11:46:50:750,0.5503,-0.7937,9.6573,-0.0204,-0.0051,9.8066,-0.0134,-0.0604,-0.0039,7.06,-40.94,57.5,14.18,-79.03,-174.83
65732,53.79142,-1.760758,179.83,5.43,6,256.49,21 / 23,6573239,2019-11-08 11:46:50:850,0.1399,0.0705,9.6888,0.0253,-0.0092,9.8066,-0.008,0.0444,-0.0333,6.44,-41.62,58.63,12.45,-79.06,-175.24
65733,53.79142,-1.760758,179.83,5.43,6,256.49,21 / 23,6573339,2019-11-08 11:46:50:950,1.1165,-0.6721,9.7915,0.0197,0.0033,9.8065,-0.0036,-0.1272,0.0988,7.44,-40.94,58.13,13.18,-79.04,-175.68
65734,53.79142,-1.760758,179.83,5.43,6,256.49,21 / 23,6573439,2019-11-08 11:46:51:050,-1.174,1.0957,9.4124,0.004,0.0101,9.8066,0.0462,-0.0032,-0.0283,6.5,-40.87,57.56,13.03,-79.12,-175.79
65735,53.79142,-1.760758,179.83,5.43,6,256.49,21 / 22,6573539,2019-11-08 11:46:51:150,0.8836,-0.1567,9.5822,0.0021,-0.0112,9.8066,-0.0946,0.0169,-0.0239,7.44,-41.0,58.06,11.42,-79.05,-177.18
65736,53.79142,-1.760758,179.83,5.43,6,256.49,21 / 22,6573638,2019-11-08 11:46:51:249,-0.2764,0.2401,10.793,0.0136,-0.0049,9.8066,0.058,-0.0146,0.0012,7.69,-40.75,57.38,12.93,-79.27,-176.98
65737,53.79142,-1.760758,179.83,5.43,6,256.49,21 / 22,6573739,2019-11-08 11:46:51:350,0.7221,-0.308,10.177,-0.0216,0.0017,9.8065,-0.0949,0.0229,0.0246,7.25,-40.31,57.88,10.65,-79.17,-177.78
65738,53.79142,-1.760758,179.83,5.43,6,256.49,21 / 22,6573839,2019-11-08 11:46:51:450,0.7809,0.4,9.3582,0.0115,0.024,9.8066,0.0323,-0.0037,0.1261,6.5,-41.06,57.81,12.53,-79.34,-176.18
65739,53.79142,-1.760758,179.83,5.43,6,256.49,21 / 22,6573939,2019-11-08 11:46:51:550,0.542,-0.313,9.5901,0.0031,-0.0081,9.8066,-0.0097,0.0218,-0.0062,6.88,-40.62,58.06,13.26,-79.34,-175.55
65740,53.79142,-1.760758,179.83,5.43,6,256.49,21 / 22,6574039,2019-11-08 11:46:51:650,-0.4099,0.6288,10.2366,0.0035,0.0023,9.8066,0.0049,-0.0398,0.0189,7.31,-41.19,58.56,13.25,-79.24,-175.44
65741,53.79142,-1.760758,179.83,5.43,6,256.49,21 / 22,6574139,2019-11-08 11:46:51:750,-0.2412,0.9186,10.0165,-0.0166,-0.0032,9.8066,-0.0242,0.0582,-0.0027,6.63,-41.31,58.06,13.21,-79.26,-175.61
65742,53.79142,-1.760758,179.83,5.43,6,256.49,21 / 22,6574239,2019-11-08 11:46:51:850,0.188,-0.2937,9.902,0.0037,0.0034,9.8066,-0.0131,0.0277,0.0021,7.0,-41.0,57.81,14.02,-79.25,-174.92
65743,53.79142,-1.760758,179.83,5.43,6,256.49,21 / 22,6574339,2019-11-08 11:46:51:950,-0.0674,-0.3447,9.7164,-0.026,-0.0022,9.8065,0.0442,0.0402,-0.0092,6.25,-41.44,58.13,14.16,-79.25,-173.82
65744,53.79142,-1.760758,179.83,5.43,6,256.49,21 / 22,6574439,2019-11-08 11:46:52:050,-0.2473,-0.496,10.0747,0.0094,0.0005,9.8066,-0.0336,0.0067,0.0425,6.69,-40.94,58.69,14.37,-79.06,-174.52
65745,53.79142,-1.760758,179.83,5.43,6,256.49,22 / 23,6574539,2019-11-08 11:46:52:150,-1.7002,-0.9778,9.5474,-0.0197,0.0086,9.8066,0.0972,-0.0103,-0.0956,6.88,-41.0,59.13,16.02,-79.15,-173.08
65746,53.79142,-1.760758,179.83,5.43,6,256.49,22 / 23,6574638,2019-11-08 11:46:52:249,0.2967,-0.844,10.4776,0.0077,-0.003,9.8066,0.0413,0.151,-0.1464,6.44,-40.5,58.81,15.36,-79.23,-172.62
65747,53.79142,-1.760758,179.83,5.43,6,256.49,22 / 23,6574738,2019-11-08 11:46:52:349,0.3347,-0.8563,9.3432,-0.0169,0.0163,9.8066,-0.0102,-0.0315,0.1104,6.63,-40.75,58.56,14.27,-79.08,-174.59
65748,53.79142,-1.760758,179.83,5.43,6,256.49,22 / 23,6574839,2019-11-08 11:46:52:450,-0.2396,0.1477,9.8017,-0.0049,-0.0068,9.8066,0.0383,0.0092,-0.0272,7.0,-41.0,58.63,15.54,-79.16,-173.49
65749,53.79142,-1.760758,179.83,5.43,6,256.49,22 / 23,6574938,2019-11-08 11:46:52:549,-0.371,1.2224,10.2126,-0.0036,-0.0069,9.8066,-0.0252,-0.0408,-0.0133,6.94,-40.56,59.31,14.51,-79.0,-174.4
65750,53.79142,-1.760758,179.83,5.43,6,256.49,22 / 23,6575039,2019-11-08 11:46:52:650,-0.6307,0.3708,10.2088,0.008,-0.0056,9.8066,0.049,-0.0916,0.0212,7.75,-40.87,58.69,15.17,-78.91,-174.81
65751,53.79142,-1.760758,179.83,5.43,6,256.49,22 / 23,6575138,2019-11-08 11:46:52:749,-0.0682,1.2355,9.5768,0.0215,-0.0308,9.8066,0.0108,0.0994,0.0029,8.0,-40.19,58.5,13.66,-78.67,-176.11
65752,53.79142,-1.760758,179.83,5.43,6,256.49,22 / 23,6575239,2019-11-08 11:46:52:850,-0.9624,1.3097,8.9204,-0.0484,0.0315,9.8065,-0.1112,-0.141,0.2272,7.13,-40.94,57.81,14.69,-78.74,-174.46
65753,53.79142,-1.760758,179.83,5.43,6,256.49,22 / 23,6575339,2019-11-08 11:46:52:950,-1.0992,-1.2858,9.3221,0.0139,0.0361,9.8065,-0.0739,-0.0065,-0.0029,7.0,-40.75,57.81,16.12,-79.08,-173.16
65754,53.79142,-1.760758,179.83,5.43,6,256.49,22 / 23,6575439,2019-11-08 11:46:53:050,2.745,1.7031,12.4696,-0.0265,0.0617,9.8063,0.1236,0.2547,-0.2633,7.0,-40.44,56.94,16.0,-79.29,-173.32
65755,53.79142,-1.760758,179.83,5.43,6,256.49,22 / 23,6575538,2019-11-08 11:46:53:149,2.1508,4.1182,13.9062,0.0659,-0.0729,9.8061,0.1464,-0.1606,0.0818,7.69,-39.94,58.63,15.8,-79.51,-174.08
65756,53.79142,-1.760758,179.83,5.43,6,256.49,22 / 23,6575638,2019-11-08 11:46:53:249,-4.2265,0.5232,8.126,-0.0855,-0.0529,9.8061,0.1272,-0.1366,0.3893,6.94,-39.81,58.88,12.04,-78.45,-176.58
65757,53.79142,-1.760758,179.83,5.43,6,256.49,22 / 23,6575738,2019-11-08 11:46:53:349,0.7045,-3.0074,9.0098,0.0812,-0.0965,9.8058,0.0353,-0.2782,0.1715,7.19,-39.31,60.13,13.68,-77.43,-175.2
65758,53.79142,-1.760758,179.83,5.43,6,256.49,22 / 23,6575838,2019-11-08 11:46:53:449,0.3711,-1.5893,8.4286,0.0481,0.0816,9.8061,-0.1384,-0.3621,0.2118,7.06,-40.75,59.94,11.28,-77.39,-177.3
65759,53.79142,-1.760758,179.83,5.43,6,256.49,22 / 23,6575938,2019-11-08 11:46:53:549,4.2501,3.516,6.3695,0.0152,0.1613,9.8053,-0.1778,-0.0063,-0.0383,6.13,-41.12,57.44,11.64,-78.76,-176.2
65760,53.79142,-1.760758,179.83,5.43,6,256.49,22 / 23,6576038,2019-11-08 11:46:53:649,1.6031,0.8757,9.351,0.0442,0.0806,9.8061,0.0795,-0.0008,0.0644,7.31,-41.19,56.75,14.64,-79.89,-174.4
65761,53.79142,-1.760758,179.83,5.43,6,256.49,22 / 23,6576138,2019-11-08 11:46:53:749,-2.4077,2.4252,9.9391,-0.0264,-0.0396,9.8065,0.1636,0.1829,-0.1924,6.5,-40.81,57.44,14.23,-80.16,-174.69
65762,53.79142,-1.760758,179.83,5.43,6,256.49,22 / 23,6576238,2019-11-08 11:46:53:849,-3.0731,1.6112,11.1189,0.0219,-0.0588,9.8063,0.1849,-0.2317,0.1534,7.13,-40.0,57.94,13.74,-79.07,-175.15
65763,53.79142,-1.760758,179.83,5.43,6,256.49,22 / 23,6576338,2019-11-08 11:46:53:949,-5.5784,-1.4327,10.6384,-0.0474,-0.0197,9.8065,-0.2299,0.7775,-0.525,6.81,-40.25,57.81,13.31,-78.6,-175.61
65764,53.79142,-1.760758,179.83,5.43,6,256.49,22 / 23,6576438,2019-11-08 11:46:54:049,2.5168,-2.8369,8.6906,-0.0319,0.072,9.8063,-0.3753,0.0798,-0.178,7.06,-40.94,57.19,14.09,-79.12,-175.04
65765,53.79119,-1.761872,179.05,8.87,6,251.63,23 / 25,6576539,2019-11-08 11:46:54:150,1.8871,1.7591,9.5371,0.0302,0.1401,9.8055,0.0501,0.4995,0.0731,6.13,-41.62,56.44,14.63,-80.69,-173.41
65766,53.79119,-1.761872,179.05,8.87,6,251.63,23 / 25,6576639,2019-11-08 11:46:54:250,0.3735,0.1335,10.6027,0.0437,-0.0278,9.8065,0.0777,0.1884,-0.0771,7.88,-41.19,57.13,16.55,-80.54,-173.56
65767,53.79119,-1.761872,179.05,8.87,6,251.63,23 / 25,6576739,2019-11-08 11:46:54:350,-0.8863,-1.5021,9.9046,-0.0674,-0.026,9.8064,0.0886,-0.2235,-0.0072,7.0,-40.5,56.56,15.62,-80.06,-173.46
65768,53.79119,-1.761872,179.05,8.87,6,251.63,23 / 25,6576839,2019-11-08 11:46:54:450,1.8369,-1.1169,9.5614,0.0991,-0.1303,9.8053,0.2464,-0.3911,-0.1687,7.38,-40.62,57.5,15.48,-79.2,-173.68
65769,53.79119,-1.761872,179.05,8.87,6,251.63,23 / 25,6576940,2019-11-08 11:46:54:551,0.1213,-2.1853,10.3406,0.0028,-0.0297,9.8065,-0.2332,-0.0185,-0.1711,8.19,-40.56,58.75,8.77,-77.98,179.6
65770,53.79119,-1.761872,179.05,8.87,6,251.63,23 / 25,6577039,2019-11-08 11:46:54:650,-0.7696,1.3233,8.7906,-0.0725,0.0681,9.8061,-0.0247,0.0582,0.0299,7.06,-40.87,57.5,10.53,-78.73,-177.98
65771,53.79119,-1.761872,179.05,8.87,6,251.63,23 / 25,6577138,2019-11-08 11:46:54:749,-0.7843,-0.6454,10.2706,0.0078,-0.0127,9.8065,0.0713,0.126,-0.2279,7.56,-40.62,57.81,14.2,-78.92,-175.8
65772,53.79119,-1.761872,179.05,8.87,6,251.63,23 / 25,6577240,2019-11-08 11:46:54:851,-0.2742,0.0638,10.5806,0.0009,-0.0279,9.8066,-0.0472,0.0914,-0.0265,6.75,-40.87,58.44,11.09,-78.83,-177.5
65773,53.79119,-1.761872,179.05,8.87,6,251.63,23 / 25,6577338,2019-11-08 11:46:54:949,-0.5509,-1.4177,9.5813,0.0003,-0.0427,9.8065,0.0024,-0.0335,0.0092,7.38,-41.06,58.25,11.22,-78.65,-177.42
65774,53.79119,-1.761872,179.05,8.87,6,251.63,23 / 25,6577438,2019-11-08 11:46:55:049,0.277,-0.9689,10.4942,-0.0048,0.0087,9.8066,0.0172,0.0955,-0.0973,6.63,-41.12,58.56,10.64,-78.33,-177.82
65775,53.79119,-1.761872,179.05,8.87,6,251.63,23 / 25,6577538,2019-11-08 11:46:55:149,-1.4817,0.9661,10.132,0.0059,0.0038,9.8066,-0.0752,0.2281,-0.1963,6.69,-40.44,57.88,9.95,-78.37,-178.5
65776,53.79119,-1.761872,179.05,8.87,6,251.63,21 / 23,6577639,2019-11-08 11:46:55:250,-2.2931,1.643,9.7664,-0.0147,0.0344,9.8065,-0.0539,0.4098,-0.2036,6.94,-40.69,57.69,10.77,-78.64,-177.8
65777,53.79119,-1.761872,179.05,8.87,6,251.63,21 / 23,6577740,2019-11-08 11:46:55:351,-3.1053,-0.1355,10.3202,-0.0142,-0.0002,9.8065,0.0707,0.0287,-0.0066,6.88,-40.56,58.63,10.09,-78.82,-178.21
65778,53.79119,-1.761872,179.05,8.87,6,251.63,21 / 23,6577838,2019-11-08 11:46:55:449,0.1723,0.362,9.3802,-0.0464,-0.0172,9.8065,-0.0461,0.3634,-0.1974,6.5,-40.62,58.31,10.99,-78.68,-177.61
65779,53.79119,-1.761872,179.05,8.87,6,251.63,21 / 23,6577938,2019-11-08 11:46:55:549,4.8842,0.5215,10.237,0.0386,-0.033,9.8064,0.0777,-0.5419,0.3617,7.19,-40.62,58.81,11.11,-78.61,-177.38
65780,53.79119,-1.761872,179.05,8.87,6,251.63,21 / 23,6578038,2019-11-08 11:46:55:649,-5.1188,-1.7366,10.7288,0.0096,-0.0131,9.8066,0.1009,-0.066,0.1064,6.44,-41.0,58.5,9.19,-78.31,-178.09
65781,53.79119,-1.761872,179.05,8.87,6,251.63,21 / 23,6578138,2019-11-08 11:46:55:749,6.2404,0.5996,8.2551,-0.0817,-0.0113,9.8063,-0.167,0.4487,-0.2074,6.38,-41.19,58.88,9.5,-78.14,-177.85
65782,53.79119,-1.761872,179.05,8.87,6,251.63,21 / 23,6578239,2019-11-08 11:46:55:850,-0.14,1.838,10.3597,0.0379,0.0045,9.8065,-0.1137,0.271,-0.1286,6.5,-41.44,58.0,9.49,-78.41,-178.92
65783,53.79119,-1.761872,179.05,8.87,6,251.63,21 / 23,6578338,2019-11-08 11:46:55:949,-3.4293,0.3454,10.4903,0.0084,-0.0075,9.8066,-0.1747,0.3628,-0.2238,6.5,-41.31,58.94,9.85,-78.3,-178.49
65784,53.79119,-1.761872,179.05,8.87,6,251.63,21 / 23,6578438,2019-11-08 11:46:56:049,-2.3838,-2.6186,10.9568,0.0312,0.0361,9.8065,-0.0636,-0.1817,0.1419,6.06,-41.12,59.25,8.59,-78.79,-178.53
65785,53.79119,-1.761872,179.05,8.87,6,251.63,20 / 23,6578539,2019-11-08 11:46:56:150,0.7131,-1.5619,10.0326,-0.0297,-0.01,9.8066,-0.0072,0.4107,-0.2481,6.56,-41.06,58.75,9.86,-78.86,-178.4
65786,53.79119,-1.761872,179.05,8.87,6,251.63,20 / 23,6578638,2019-11-08 11:46:56:249,2.2177,1.6689,9.0168,-0.0021,-0.0428,9.8065,-0.0494,0.3046,-0.0935,6.13,-40.44,59.5,9.29,-78.71,-177.8
65787,53.79119,-1.761872,179.05,8.87,6,251.63,20 / 23,6578740,2019-11-08 11:46:56:351,-2.356,-1.8086,10.6083,-0.0246,-0.0231,9.8065,-0.102,0.1079,-0.004,6.56,-40.56,59.19,10.74,-78.32,-177.73
65788,53.79119,-1.761872,179.05,8.87,6,251.63,20 / 23,6578839,2019-11-08 11:46:56:450,-1.5688,-0.8146,9.3178,-0.0159,-0.01,9.8065,-0.1084,0.2991,-0.2133,6.63,-41.19,59.56,10.85,-78.3,-177.51
65789,53.79119,-1.761872,179.05,8.87,6,251.63,20 / 23,6578940,2019-11-08 11:46:56:551,-0.206,2.2642,10.2486,0.0368,0.0278,9.8065,-0.0895,-0.0709,0.1029,6.5,-40.25,59.44,11.22,-78.83,-177.21
65790,53.79119,-1.761872,179.05,8.87,6,251.63,20 / 23,6579038,2019-11-08 11:46:56:649,0.1934,1.2828,9.2535,-0.0123,0.0112,9.8065,-0.0496,0.3447,-0.2137,6.38,-41.25,59.06,10.67,-79.04,-176.72
65791,53.79119,-1.761872,179.05,8.87,6,251.63,20 / 23,6579138,2019-11-08 11:46:56:749,0.613,-0.9834,10.366,0.0328,-0.0168,9.8065,0.0653,-0.2091,0.1336,6.81,-41.06,59.69,11.75,-78.88,-176.65
65792,53.79119,-1.761872,179.05,8.87,6,251.63,20 / 23,6579238,2019-11-08 11:46:56:849,-1.7592,1.0414,10.2064,-0.0206,-0.025,9.8065,0.0241,0.0332,-0.0382,7.25,-40.62,59.44,12.38,-78.57,-176.31
65793,53.79119,-1.761872,179.05,8.87,6,251.63,20 / 23,6579339,2019-11-08 11:46:56:950,0.8865,2.6852,9.2988,-0.0026,-0.0156,9.8066,0.0111,0.0323,-0.0005,6.06,-40.81,58.81,11.84,-78.11,-175.89
65794,53.79119,-1.761872,179.05,8.87,6,251.63,20 / 23,6579439,2019-11-08 11:46:57:050,-0.0841,-3.4558,10.4573,0.0077,-0.0283,9.8066,0.1056,-0.1281,0.0617,7.13,-40.75,59.44,13.25,-77.91,-175.7
65795,53.79119,-1.761872,179.05,8.87,6,251.63,20 / 21,6579540,2019-11-08 11:46:57:151,-1.416,2.5931,9.6916,-0.0168,-0.012,9.8066,0.0353,0.0933,-0.0768,6.75,-40.06,59.06,12.6,-77.75,-176.23
65796,53.79119,-1.761872,179.05,8.87,6,251.63,20 / 21,6579639,2019-11-08 11:46:57:250,-2.187,1.5603,9.8318,-0.0061,0.0,9.8066,-0.0171,-0.2469,0.1582,7.13,-39.62,58.75,11.93,-77.69,-176.8
65797,53.79119,-1.761872,179.05,8.87,6,251.63,20 / 21,6579738,2019-11-08 11:46:57:349,-1.709,0.3059,10.3596,-0.0253,-0.0042,9.8065,-0.0276,0.2686,-0.1555,6.69,-40.06,58.69,12.59,-77.63,-176.26
65798,53.79119,-1.761872,179.05,8.87,6,251.63,20 / 21,6579838,2019-11-08 11:46:57:449,1.9944,-0.3357,9.8944,0.0086,0.0008,9.8066,0.0263,-0.0485,0.1022,6.75,-39.44,59.44,12.61,-77.75,-176.18
65799,53.79119,-1.761872,179.05,8.87,6,251.63,20 / 21,6579938,2019-11-08 11:46:57:549,1.4327,0.2656,9.5834,-0.0138,0.0133,9.8066,0.0231,0.0241,0.0123,6.69,-39.94,59.81,13.08,-77.92,-175.66
65800,53.79119,-1.761872,179.05,8.87,6,251.63,20 / 21,6580039,2019-11-08 11:46:57:650,-0.4886,-1.5615,10.2423,-0.0134,0.0122,9.8066,-0.0139,0.0507,0.0742,6.94,-40.0,59.56,12.61,-77.8,-176.08
65801,53.79119,-1.761872,179.05,8.87,6,251.63,20 / 21,6580139,2019-11-08 11:46:57:750,2.1418,2.23,9.227,-0.0048,0.0123,9.8066,0.0683,-0.1429,0.1736,6.5,-40.25,59.56,12.71,-77.94,-175.96
65802,53.79119,-1.761872,179.05,8.87,6,251.63,20 / 21,6580239,2019-11-08 11:46:57:850,0.2343,1.6524,9.0887,-0.0232,-0.0164,9.8065,-0.0204,0.0144,-0.0388,6.88,-40.06,60.31,12.35,-77.83,-176.29
65803,53.79119,-1.761872,179.05,8.87,6,251.63,20 / 21,6580339,2019-11-08 11:46:57:950,1.4436,-0.6039,10.3399,-0.0012,0.0049,9.8066,0.0143,-0.1214,0.1121,6.94,-39.87,59.75,12.79,-77.62,-175.96
65804,53.79119,-1.761872,179.05,8.87,6,251.63,20 / 21,6580438,2019-11-08 11:46:58:049,-1.7022,-1.7257,9.785,-0.024,0.0369,9.8065,-0.1329,-0.0034,0.0683,7.13,-39.37,59.94,12.54,-77.34,-176.17
65805,53.79119,-1.761872,179.05,8.87,6,251.63,18 / 23,6580538,2019-11-08 11:46:58:149,-0.0013,-2.7016,10.2559,-0.0055,0.0131,9.8066,-0.1225,-0.0894,0.1225,7.06,-40.06,60.19,13.25,-77.58,-175.57
65806,53.79119,-1.761872,179.05,8.87,6,251.63,18 / 23,6580638,2019-11-08 11:46:58:249,-1.2908,0.3929,9.4115,0.0052,-0.0024,9.8066,-0.0019,-0.1749,0.0829,7.06,-40.37,60.19,13.74,-77.66,-175.15
65807,53.79119,-1.761872,179.05,8.87,6,251.63,18 / 23,6580738,2019-11-08 11:46:58:349,-1.7604,0.462,10.6043,-0.0163,-0.0083,9.8065,-0.0374,0.1925,-0.0847,7.56,-39.56,59.0,15.59,-77.81,-174.66
65808,53.79119,-1.761872,179.05,8.87,6,251.63,18 / 23,6580838,2019-11-08 11:46:58:449,-0.2843,1.9717,9.4679,0.0242,0.0005,9.8066,0.0241,-0.0267,-0.0446,6.75,-40.06,60.31,14.56,-77.8,-174.43
65809,53.79119,-1.761872,179.05,8.87,6,251.63,18 / 23,6580939,2019-11-08 11:46:58:550,-0.7704,-3.7722,10.1253,-0.0186,-0.0251,9.8065,0.1148,-0.2136,0.2378,7.5,-39.37,59.63,15.47,-77.59,-174.59
65810,53.79119,-1.761872,179.05,8.87,6,251.63,18 / 23,6581038,2019-11-08 11:46:58:649,2.1685,2.0258,9.4598,0.016,-0.0101,9.8065,0.029,0.0546,-0.0468,7.44,-40.56,60.25,14.4,-77.41,-174.7
65811,53.79119,-1.761872,179.05,8.87,6,251.63,18 / 23,6581138,2019-11-08 11:46:58:749,-0.527,-0.3776,10.2589,-0.014,-0.0222,9.8065,0.0478,0.2318,-0.1614,8.25,-39.81,59.94,14.29,-77.2,-175.72
