,GPS LATITUDE (degrees),GPS LONGITUDE (degrees), GPS ALTITUDE (m),GPS SPEED (Kmh),GPS ACCURACY (m),GPS ORIENTATION (Â°), SATELLITES IN RANGE, TIME SINCE START (ms), DATE (YYYY-MO-DD HH-MI-SS_SSS),ACCELEROMETER X (m/s²) , ACCELEROMETER Y (m/s²), ACCELEROMETER Z (m/s²), GRAVITY X (m/s²), GRAVITY Y (m/s²), GRAVITY Z (m/s²), GYROSCOPE Yaw (rad/s), GYROSCOPE Pitch (rad/s), GYROSCOPE Roll (rad/s)
6173,48.47461,-2.570046,124.91,30.45,4.288,99.7,Nov-19,617311,2019-08-18 15:23:59:848,-0.9109,-0.1891,10.1541,-0.6858,-0.1749,9.7811,-0.0037,-0.0032,-0.0017
6174,48.47461,-2.570046,124.91,30.45,4.288,99.7,Nov-19,617411,2019-08-18 15:23:59:948,-0.9055,-0.1873,10.5934,-0.6858,-0.1742,9.7811,-0.002,-0.0188,-0.0025
6175,48.47461,-2.570046,124.91,30.45,4.288,99.7,Nov-19,617511,2019-08-18 15:24:00:048,-0.9301,-0.073,10.3318,-0.6664,-0.1704,9.7825,0.002,-0.0203,-0.0004
6176,48.47461,-2.570046,124.91,30.45,4.288,99.7,Nov-19,617611,2019-08-18 15:24:00:148,-0.8235,-0.0347,9.4663,-0.6572,-0.1689,9.7831,-0.0017,-0.006,-0.0001
6177,48.47461,-2.570046,124.91,30.45,4.288,99.7,Nov-19,617711,2019-08-18 15:24:00:248,-0.8289,0.0365,9.8859,-0.6542,-0.1672,9.7834,-0.0013,-0.0103,0.0002
6178,48.47461,-2.570046,124.91,30.45,4.288,99.7,Nov-19,617811,2019-08-18 15:24:00:348,-0.9953,0.1604,10.0086,-0.652,-0.1644,9.7836,0.0038,-0.0105,0.0018
6179,48.47461,-2.570046,124.91,30.45,4.288,99.7,Nov-19,617912,2019-08-18 15:24:00:449,-0.9349,-0.0479,10.679,-0.6426,-0.1535,9.7844,0.0089,-0.0136,0.0036
6180,48.47461,-2.570046,124.91,30.45,4.288,99.7,Nov-19,618011,2019-08-18 15:24:00:548,-0.9068,-0.0335,10.9364,-0.6377,-0.1439,9.7848,0.0078,-0.0181,0.0056
6181,48.47461,-2.570046,124.91,30.45,4.288,99.7,Nov-19,618112,2019-08-18 15:24:00:649,-1.0312,0.0156,10.1595,-0.6213,-0.1238,9.7862,0.0094,-0.0199,0.007
6182,48.474297,-2.56633,110.3,30.55,5.36,98.8,Dec-20,618211,2019-08-18 15:24:00:748,-0.7559,0.1006,9.8231,-0.6197,-0.1129,9.7864,0.0121,0.0082,0.0048
6183,48.474297,-2.56633,110.3,30.55,5.36,98.8,Dec-20,618311,2019-08-18 15:24:00:848,-0.7936,0.2454,9.4424,-0.6331,-0.0919,9.7858,0.0086,0.0095,0.0059
6184,48.474297,-2.56633,110.3,30.55,5.36,98.8,Dec-20,618411,2019-08-18 15:24:00:948,-0.8774,0.1592,10.4635,-0.6364,-0.0862,9.7856,0.0061,-0.0226,0.0062
6185,48.474297,-2.56633,110.3,30.55,5.36,98.8,Dec-20,618511,2019-08-18 15:24:01:048,-0.8301,0.3861,10.2827,-0.6087,-0.065,9.7875,0.0114,-0.0332,0.005
6186,48.474297,-2.56633,110.3,30.55,5.36,98.8,Dec-20,618611,2019-08-18 15:24:01:148,-0.8319,0.4357,10.6892,-0.5975,-0.052,9.7883,0.0065,-0.0187,0.0052
6187,48.474297,-2.56633,110.3,30.55,5.36,98.8,Dec-20,618712,2019-08-18 15:24:01:249,-0.6338,0.0233,10.0768,-0.5918,-0.0262,9.7887,0.0165,-0.0016,0.0066
6188,48.474297,-2.56633,110.3,30.55,5.36,98.8,Dec-20,618813,2019-08-18 15:24:01:350,-0.7966,0.2412,9.768,-0.5892,-0.0163,9.7889,0.0068,-0.0059,0.0073
6189,48.474297,-2.56633,110.3,30.55,5.36,98.8,Dec-20,618912,2019-08-18 15:24:01:449,-1.0241,0.4322,9.7776,-0.587,-0.0071,9.7891,-0.0069,-0.017,0.0032
6190,48.474297,-2.56633,110.3,30.55,5.36,98.8,Dec-20,619012,2019-08-18 15:24:01:549,-0.6805,-0.073,10.1493,-0.5718,-0.0058,9.79,-0.0026,-0.0284,0.0029
6191,48.474297,-2.56633,110.3,30.55,5.36,98.8,Dec-20,619112,2019-08-18 15:24:01:649,-0.8331,0.4004,9.8524,-0.5535,-0.0004,9.791,-0.0005,-0.0109,0.0042
6192,48.474297,-2.56633,110.3,30.55,5.36,98.8,14 / 19,619211,2019-08-18 15:24:01:748,-0.5488,-0.0539,10.3743,-0.5493,0.0061,9.7913,0.0127,-0.0043,0.0034
6193,48.474297,-2.56633,110.3,30.55,5.36,98.8,14 / 19,619311,2019-08-18 15:24:01:848,-0.656,0.2233,10.2822,-0.5465,0.0203,9.7914,-0.0027,-0.0086,0.003
6194,48.474297,-2.56633,110.3,30.55,5.36,98.8,14 / 19,619411,2019-08-18 15:24:01:948,-1.0732,0.6333,10.327,-0.5478,0.0201,9.7913,-0.0197,-0.0355,-0.0023
6195,48.474297,-2.56633,110.3,30.55,5.36,98.8,14 / 19,619511,2019-08-18 15:24:02:048,-1.4017,0.5507,10.8645,-0.5419,0.0123,9.7917,-0.0165,0.0016,-0.0032
6196,48.474297,-2.56633,110.3,30.55,5.36,98.8,14 / 19,619611,2019-08-18 15:24:02:148,-0.9989,-0.556,10.4102,-0.5323,-0.0027,9.7922,0.0194,-0.0101,0.0031
6197,48.474297,-2.56633,110.3,30.55,5.36,98.8,14 / 19,619711,2019-08-18 15:24:02:248,-0.6991,-0.7739,10.0954,-0.5239,0.0039,9.7926,0.0189,-0.0194,0.0075
6198,48.474297,-2.56633,110.3,30.55,5.36,98.8,14 / 19,619812,2019-08-18 15:24:02:349,-0.7978,0.4388,10.9406,-0.5039,0.0326,9.7936,0.013,-0.0239,0.0049
6199,48.474297,-2.56633,110.3,30.55,5.36,98.8,14 / 19,619911,2019-08-18 15:24:02:448,-0.5728,-0.1017,10.3809,-0.4919,0.0413,9.7942,-0.0024,-0.0207,-0.0044
6200,48.474297,-2.56633,110.3,30.55,5.36,98.8,14 / 19,620011,2019-08-18 15:24:02:548,-0.6625,0.0994,10.4916,-0.473,0.0361,9.7952,-0.0128,-0.0221,-0.0058
6201,48.474297,-2.56633,110.3,30.55,5.36,98.8,14 / 19,620112,2019-08-18 15:24:02:649,-0.5321,0.088,10.5802,-0.4618,0.0305,9.7957,-0.0043,-0.0263,-0.0031
6202,48.474297,-2.56633,110.3,30.55,5.36,98.8,Dec-15,620212,2019-08-18 15:24:02:749,-0.6194,0.0371,10.1325,-0.4377,0.032,9.7968,-0.0008,-0.0157,-0.0011
6203,48.474297,-2.56633,110.3,30.55,5.36,98.8,Dec-15,620311,2019-08-18 15:24:02:848,-0.7086,-0.0054,9.9111,-0.4296,0.03,9.7972,0.0067,-0.0011,0.0007
6204,48.474297,-2.56633,110.3,30.55,5.36,98.8,Dec-15,620411,2019-08-18 15:24:02:948,-0.6949,0.1401,9.7195,-0.435,0.0368,9.7969,0.0092,0.0035,0.0
6205,48.474297,-2.56633,110.3,30.55,5.36,98.8,Dec-15,620511,2019-08-18 15:24:03:048,-0.6152,0.0485,9.7207,-0.438,0.0429,9.7968,0.0054,-0.0087,-0.0015
6206,48.474297,-2.56633,110.3,30.55,5.36,98.8,Dec-15,620611,2019-08-18 15:24:03:148,-0.8397,0.0072,9.6459,-0.4303,0.0505,9.7971,0.0001,-0.0103,-0.0031
6207,48.474297,-2.56633,110.3,30.55,5.36,98.8,Dec-15,620711,2019-08-18 15:24:03:248,-0.7074,-0.0239,9.75,-0.426,0.0491,9.7973,-0.002,-0.0025,-0.0033
6208,48.474297,-2.56633,110.3,30.55,5.36,98.8,Dec-15,620811,2019-08-18 15:24:03:348,-0.7284,0.0976,10.4934,-0.4211,0.0483,9.7975,0.0019,-0.0104,-0.0004
6209,48.474297,-2.56633,110.3,30.55,5.36,98.8,Dec-15,620911,2019-08-18 15:24:03:448,-0.5692,0.1347,10.1062,-0.4218,0.0511,9.7974,0.0043,-0.0022,0.003
6210,48.474297,-2.56633,110.3,30.55,5.36,98.8,Dec-15,621011,2019-08-18 15:24:03:548,-0.5099,0.2472,10.1134,-0.4268,0.0562,9.7972,-0.0069,-0.0049,0.0066
6211,48.474297,-2.56633,110.3,30.55,5.36,98.8,Dec-15,621111,2019-08-18 15:24:03:648,-0.5267,0.0132,9.2526,-0.4321,0.0545,9.797,-0.0288,-0.0326,0.0051
6212,48.474297,-2.56633,110.3,30.55,5.36,98.8,14 / 18,621211,2019-08-18 15:24:03:748,-0.2615,2.1063,10.4623,-0.3953,0.032,9.7986,-0.0053,-0.0007,-0.004
6213,48.474297,-2.56633,110.3,30.55,5.36,98.8,14 / 18,621311,2019-08-18 15:24:03:848,-1.133,0.0611,10.4857,-0.4057,0.0391,9.7982,0.0022,-0.024,0.0032
6214,48.474297,-2.56633,110.3,30.55,5.36,98.8,14 / 18,621412,2019-08-18 15:24:03:949,-0.456,0.2263,9.2598,-0.4042,0.0485,9.7982,-0.0141,-0.0135,0.0022
6215,48.474297,-2.56633,110.3,30.55,5.36,98.8,14 / 18,621512,2019-08-18 15:24:04:049,-0.6859,0.2879,9.0132,-0.406,0.0321,9.7982,-0.0275,-0.0014,-0.0003
6216,48.474297,-2.56633,110.3,30.55,5.36,98.8,14 / 18,621611,2019-08-18 15:24:04:148,-0.8924,0.2382,9.8392,-0.4085,0.0228,9.7981,-0.0035,-0.0114,0.0032
6217,48.474297,-2.56633,110.3,30.55,5.36,98.8,14 / 18,621711,2019-08-18 15:24:04:248,-0.6057,-0.0748,10.0499,-0.4087,0.0287,9.7981,-0.007,-0.0051,0.0054
6218,48.474297,-2.56633,110.3,30.55,5.36,98.8,14 / 18,621811,2019-08-18 15:24:04:348,-0.5548,0.0982,9.9003,-0.4173,0.0221,9.7977,-0.0088,0.0026,0.0039
6219,48.474297,-2.56633,110.3,30.55,5.36,98.8,14 / 18,621911,2019-08-18 15:24:04:448,-0.5207,0.1975,10.0308,-0.4279,0.0157,9.7973,-0.0157,0.0047,0.003
6220,48.474297,-2.56633,110.3,30.55,5.36,98.8,14 / 18,622012,2019-08-18 15:24:04:549,-0.6823,0.021,10.3145,-0.435,0.0033,9.797,-0.0033,-0.0131,-0.0016
6221,48.474297,-2.56633,110.3,30.55,5.36,98.8,14 / 18,622111,2019-08-18 15:24:04:648,-0.9798,0.0748,10.0373,-0.4335,0.0043,9.7971,-0.0045,-0.0073,0.0014
6222,48.474297,-2.56633,110.3,30.55,5.36,98.8,14 / 19,622211,2019-08-18 15:24:04:748,-0.41,-0.094,9.8781,-0.4322,0.0036,9.7971,0.0031,-0.0005,-0.0019
6223,48.474297,-2.56633,110.3,30.55,5.36,98.8,14 / 19,622311,2019-08-18 15:24:04:848,-0.8044,0.0665,9.6746,-0.4343,0.0053,9.797,0.0065,-0.0092,-0.0021
6224,48.474297,-2.56633,110.3,30.55,5.36,98.8,14 / 19,622411,2019-08-18 15:24:04:948,-0.5889,-0.076,9.7117,-0.4301,0.0125,9.7972,-0.0093,0.001,-0.0065
6225,48.474297,-2.56633,110.3,30.55,5.36,98.8,14 / 19,622511,2019-08-18 15:24:05:048,-0.6099,0.0623,9.2796,-0.4296,-0.0023,9.7972,-0.0211,0.0028,-0.007
6226,48.474297,-2.56633,110.3,30.55,5.36,98.8,14 / 19,622611,2019-08-18 15:24:05:148,-0.4129,-0.2185,9.3813,-0.436,-0.0148,9.7969,-0.0132,-0.0047,-0.0073
6227,48.474297,-2.56633,110.3,30.55,5.36,98.8,14 / 19,622711,2019-08-18 15:24:05:248,-0.6111,-0.2071,10.0284,-0.4374,-0.0341,9.7968,-0.0075,-0.0082,-0.0067
6228,48.474297,-2.56633,110.3,30.55,5.36,98.8,14 / 19,622811,2019-08-18 15:24:05:348,-0.4668,-0.2113,10.2181,-0.4336,-0.0383,9.797,-0.0065,-0.0203,-0.005
6229,48.474297,-2.56633,110.3,30.55,5.36,98.8,14 / 19,622911,2019-08-18 15:24:05:448,-0.544,-0.0497,10.1415,-0.4201,-0.0442,9.7975,0.0019,-0.0131,-0.0054
6230,48.474297,-2.56633,110.3,30.55,5.36,98.8,14 / 19,623012,2019-08-18 15:24:05:549,-0.7308,-0.0191,10.5599,-0.4195,-0.0435,9.7976,-0.001,-0.009,-0.004
6231,48.474297,-2.56633,110.3,30.55,5.36,98.8,14 / 19,623111,2019-08-18 15:24:05:648,-0.6362,0.012,10.5006,-0.3938,-0.0523,9.7986,-0.0106,-0.0253,-0.0065
6232,48.474297,-2.56633,110.3,30.55,5.36,98.8,15 / 20,623211,2019-08-18 15:24:05:748,-0.3196,-0.2095,9.34,-0.3801,-0.0633,9.7991,-0.0097,0.0023,-0.005
6233,48.474297,-2.56633,110.3,30.55,5.36,98.8,15 / 20,623311,2019-08-18 15:24:05:848,-0.4698,-0.0616,9.4969,-0.393,-0.0648,9.7986,0.0042,0.012,-0.0014
6234,48.474297,-2.56633,110.3,30.55,5.36,98.8,15 / 20,623411,2019-08-18 15:24:05:948,-0.3094,-0.1305,9.6303,-0.3956,-0.0607,9.7985,0.0041,0.002,-0.0005
6235,48.474297,-2.56633,110.3,30.55,5.36,98.8,15 / 20,623511,2019-08-18 15:24:06:048,-0.5063,-0.3621,9.9733,-0.4021,-0.0543,9.7983,0.0052,-0.0013,-0.0029
6236,48.474297,-2.56633,110.3,30.55,5.36,98.8,15 / 20,623612,2019-08-18 15:24:06:149,-0.5183,0.2706,10.0397,-0.4045,-0.0489,9.7982,0.0083,0.0094,-0.003
6237,48.474297,-2.56633,110.3,30.55,5.36,98.8,15 / 20,623711,2019-08-18 15:24:06:248,-0.4704,-0.0796,9.5956,-0.4214,-0.039,9.7975,-0.0048,0.0083,-0.0021
6238,48.474297,-2.56633,110.3,30.55,5.36,98.8,15 / 20,623812,2019-08-18 15:24:06:349,-0.4309,0.2227,9.2251,-0.4239,-0.0413,9.7974,-0.009,0.015,-0.002
6239,48.474297,-2.56633,110.3,30.55,5.36,98.8,15 / 20,623911,2019-08-18 15:24:06:448,-0.3848,0.085,8.9109,-0.4568,-0.0441,9.7959,-0.0038,0.0225,-0.0016
6240,48.474297,-2.56633,110.3,30.55,5.36,98.8,15 / 20,624011,2019-08-18 15:24:06:548,-0.3286,0.255,8.9875,-0.4674,-0.0461,9.7954,-0.0119,0.0151,-0.0018
6241,48.474297,-2.56633,110.3,30.55,5.36,98.8,15 / 20,624111,2019-08-18 15:24:06:648,-0.5087,0.1622,9.6411,-0.4733,-0.0559,9.7951,-0.0072,0.0005,-0.0004
6242,48.474297,-2.56633,110.3,30.55,5.36,98.8,14 / 19,624211,2019-08-18 15:24:06:748,-0.6021,-0.0114,9.9158,-0.4766,-0.0556,9.7949,-0.0014,0.0051,0.0001
6243,48.474297,-2.56633,110.3,30.55,5.36,98.8,14 / 19,624311,2019-08-18 15:24:06:848,-0.6099,0.0264,10.0056,-0.4775,-0.0566,9.7949,-0.005,0.0031,-0.0021
6244,48.474297,-2.56633,110.3,30.55,5.36,98.8,14 / 19,624411,2019-08-18 15:24:06:948,-0.4961,0.3238,10.169,-0.4754,-0.056,9.795,0.004,-0.0044,-0.0009
6245,48.474297,-2.56633,110.3,30.55,5.36,98.8,14 / 19,624511,2019-08-18 15:24:07:048,-0.4949,0.4202,9.6142,-0.4788,-0.0427,9.7949,-0.001,0.0032,0.0002
6246,48.474297,-2.56633,110.3,30.55,5.36,98.8,14 / 19,624612,2019-08-18 15:24:07:149,-0.4477,0.2442,10.1152,-0.4817,-0.0402,9.7947,-0.0042,0.0026,-0.0022
6247,48.474297,-2.56633,110.3,30.55,5.36,98.8,14 / 19,624711,2019-08-18 15:24:07:248,-0.3495,0.2855,10.4037,-0.4582,-0.0414,9.7959,-0.01,-0.0315,-0.0029
6248,48.474297,-2.56633,110.3,30.55,5.36,98.8,14 / 19,624812,2019-08-18 15:24:07:349,-0.5853,0.3597,10.1409,-0.4375,-0.0424,9.7968,-0.0107,-0.0352,-0.0034
6249,48.474297,-2.56633,110.3,30.55,5.36,98.8,14 / 19,624911,2019-08-18 15:24:07:448,-0.3525,0.0048,10.0541,-0.4041,-0.0512,9.7982,-0.0097,-0.0136,-0.0023
6250,48.474297,-2.56633,110.3,30.55,5.36,98.8,14 / 19,625011,2019-08-18 15:24:07:548,-0.4159,-0.0724,9.6321,-0.4021,-0.0585,9.7982,-0.0244,-0.0034,-0.0037
6251,48.474297,-2.56633,110.3,30.55,5.36,98.8,14 / 19,625113,2019-08-18 15:24:07:650,-0.2711,0.0629,8.9097,-0.3954,-0.0872,9.7983,-0.0275,-0.0022,-0.0044
6252,48.474297,-2.56633,110.3,30.55,5.36,98.8,13 / 18,625211,2019-08-18 15:24:07:748,-0.2651,0.243,9.2167,-0.3958,-0.0985,9.7982,-0.0226,0.0013,-0.0038
6253,48.474297,-2.56633,110.3,30.55,5.36,98.8,13 / 18,625311,2019-08-18 15:24:07:848,-0.4129,0.2939,9.677,-0.3893,-0.1196,9.7982,-0.0206,-0.0038,-0.0019
6254,48.474297,-2.56633,110.3,30.55,5.36,98.8,13 / 18,625411,2019-08-18 15:24:07:948,-0.298,0.3573,9.8273,-0.3873,-0.119,9.7983,-0.0025,-0.0035,-0.0004
6255,48.474297,-2.56633,110.3,30.55,5.36,98.8,13 / 18,625512,2019-08-18 15:24:08:049,-0.2136,0.1401,10.0463,-0.3809,-0.1153,9.7986,-0.0042,-0.0044,-0.0034
6256,48.474297,-2.56633,110.3,30.55,5.36,98.8,13 / 18,625611,2019-08-18 15:24:08:148,-0.4572,0.0539,9.7333,-0.3777,-0.1138,9.7987,-0.0047,0.0076,-0.001
6257,48.474297,-2.56633,110.3,30.55,5.36,98.8,13 / 18,625711,2019-08-18 15:24:08:248,-0.2735,-0.1119,9.7153,-0.3774,-0.116,9.7987,-0.0149,-0.0053,-0.0023
6258,48.474297,-2.56633,110.3,30.55,5.36,98.8,13 / 18,625813,2019-08-18 15:24:08:350,-0.1669,-0.0054,9.6728,-0.3734,-0.1227,9.7988,-0.0134,-0.0041,-0.0031
6259,48.474297,-2.56633,110.3,30.55,5.36,98.8,13 / 18,625911,2019-08-18 15:24:08:448,-0.2579,0.0982,9.838,-0.3716,-0.1261,9.7988,-0.0088,0.0003,-0.0038
6260,48.474297,-2.56633,110.3,30.55,5.36,98.8,13 / 18,626011,2019-08-18 15:24:08:548,-0.3076,0.0676,9.5848,-0.369,-0.1319,9.7988,-0.0104,0.0002,-0.0052
6261,48.474297,-2.56633,110.3,30.55,5.36,98.8,13 / 18,626111,2019-08-18 15:24:08:648,-0.3226,-0.1556,10.3049,-0.3685,-0.1345,9.7988,-0.0107,-0.0044,-0.0097
6262,48.474297,-2.56633,110.3,30.55,5.36,98.8,14 / 20,626211,2019-08-18 15:24:08:748,-0.3926,-0.501,9.9398,-0.364,-0.1474,9.7988,-0.0032,-0.0026,-0.0168
6263,48.474297,-2.56633,110.3,30.55,5.36,98.8,14 / 20,626311,2019-08-18 15:24:08:848,-0.4111,-0.5656,9.9386,-0.3639,-0.1529,9.7987,-0.0016,-0.0008,-0.0204
6264,48.474297,-2.56633,110.3,30.55,5.36,98.8,14 / 20,626411,2019-08-18 15:24:08:948,-0.1227,-0.7081,9.5274,-0.3512,-0.168,9.7989,0.0002,0.0015,-0.0247
6265,48.474297,-2.56633,110.3,30.55,5.36,98.8,14 / 20,626511,2019-08-18 15:24:09:048,-0.2023,-0.1718,9.5818,-0.3468,-0.1752,9.7989,-0.0061,0.0032,-0.0249
6266,48.474297,-2.56633,110.3,30.55,5.36,98.8,14 / 20,626611,2019-08-18 15:24:09:148,0.1371,-0.501,9.9511,-0.3491,-0.2002,9.7984,-0.013,0.002,-0.0262
6267,48.474297,-2.56633,110.3,30.55,5.36,98.8,14 / 20,626711,2019-08-18 15:24:09:248,-0.1424,-0.7727,10.1577,-0.3449,-0.2179,9.7982,-0.0097,-0.009,-0.0263
6268,48.474297,-2.56633,110.3,30.55,5.36,98.8,14 / 20,626811,2019-08-18 15:24:09:348,0.1455,-0.6524,10.0206,-0.3249,-0.2374,9.7984,-0.0025,-0.0128,-0.0221
6269,48.474297,-2.56633,110.3,30.55,5.36,98.8,14 / 20,626912,2019-08-18 15:24:09:449,-0.0963,-0.5896,10.1983,-0.315,-0.2455,9.7985,0.0025,0.0015,-0.0217
6270,48.474297,-2.56633,110.3,30.55,5.36,98.8,14 / 20,627011,2019-08-18 15:24:09:548,-0.1747,-0.3687,10.2265,-0.3036,-0.2521,9.7987,0.0035,-0.0032,-0.0212
6271,48.474297,-2.56633,110.3,30.55,5.36,98.8,14 / 20,627111,2019-08-18 15:24:09:648,-0.1795,-0.3537,9.4149,-0.299,-0.2565,9.7987,-0.0014,0.0045,-0.0212
6272,48.47393,-2.562708,117.24,29.99,4.288,100.4,13 / 18,627211,2019-08-18 15:24:09:748,-0.1651,-0.1784,9.7446,-0.3018,-0.2688,9.7983,-0.0022,0.0085,-0.0209
6273,48.47393,-2.562708,117.24,29.99,4.288,100.4,13 / 18,627311,2019-08-18 15:24:09:848,-0.6093,-0.4627,9.3765,-0.3057,-0.2744,9.798,-0.0033,0.0043,-0.0213
6274,48.47393,-2.562708,117.24,29.99,4.288,100.4,13 / 18,627411,2019-08-18 15:24:09:948,-0.2106,-0.7117,9.938,-0.312,-0.2915,9.7974,-0.006,0.0033,-0.023
6275,48.47393,-2.562708,117.24,29.99,4.288,100.4,13 / 18,627511,2019-08-18 15:24:10:048,-0.2872,-0.6829,9.2568,-0.3161,-0.3,9.797,-0.0066,0.0128,-0.0224
6276,48.47393,-2.562708,117.24,29.99,4.288,100.4,13 / 18,627611,2019-08-18 15:24:10:148,-0.3022,-0.5794,10.0086,-0.3293,-0.321,9.7959,-0.0034,0.0081,-0.0227
6277,48.47393,-2.562708,117.24,29.99,4.288,100.4,13 / 18,627711,2019-08-18 15:24:10:248,-0.5327,-0.7673,10.0409,-0.3324,-0.3253,9.7956,0.0077,-0.0076,-0.023
6278,48.47393,-2.562708,117.24,29.99,4.288,100.4,13 / 18,627811,2019-08-18 15:24:10:348,-0.714,-0.8092,10.1684,-0.3247,-0.3284,9.7958,0.0032,-0.0138,-0.0232
6279,48.47393,-2.562708,117.24,29.99,4.288,100.4,13 / 18,627912,2019-08-18 15:24:10:449,-0.5416,-0.5794,9.7883,-0.3173,-0.3355,9.7958,0.0023,-0.003,-0.0199
6280,48.47393,-2.562708,117.24,29.99,4.288,100.4,13 / 18,628011,2019-08-18 15:24:10:548,-0.4064,-0.4693,10.0751,-0.3183,-0.3434,9.7955,0.0011,0.0045,-0.0197
6281,48.47393,-2.562708,117.24,29.99,4.288,100.4,13 / 18,628111,2019-08-18 15:24:10:648,-0.1975,-0.6596,9.9529,-0.3194,-0.346,9.7953,0.0013,0.0115,-0.0189
6282,48.47393,-2.562708,117.24,29.99,4.288,100.4,14 / 17,628211,2019-08-18 15:24:10:748,-0.3202,-0.3322,9.5238,-0.3382,-0.3528,9.7945,0.003,0.014,-0.0184
6283,48.47393,-2.562708,117.24,29.99,4.288,100.4,14 / 17,628311,2019-08-18 15:24:10:848,-0.2998,-0.5788,9.4364,-0.3458,-0.3566,9.7941,-0.0002,0.0118,-0.0186
6284,48.47393,-2.562708,117.24,29.99,4.288,100.4,14 / 17,628411,2019-08-18 15:24:10:948,-0.471,-0.5082,9.5824,-0.3578,-0.3634,9.7934,-0.001,0.0106,-0.0189
6285,48.47393,-2.562708,117.24,29.99,4.288,100.4,14 / 17,628511,2019-08-18 15:24:11:048,-0.5716,-0.5836,9.8261,-0.3635,-0.3668,9.793,0.0039,-0.0075,-0.0175
6286,48.47393,-2.562708,117.24,29.99,4.288,100.4,14 / 17,628611,2019-08-18 15:24:11:148,-0.404,-0.3687,9.6884,-0.355,-0.3598,9.7936,0.0009,-0.0073,-0.0152
6287,48.47393,-2.562708,117.24,29.99,4.288,100.4,14 / 17,628711,2019-08-18 15:24:11:248,-0.3273,-0.2179,9.7692,-0.3534,-0.3621,9.7936,-0.0079,0.0037,-0.0171
6288,48.47393,-2.562708,117.24,29.99,4.288,100.4,14 / 17,628811,2019-08-18 15:24:11:348,-0.3609,-0.1323,9.2892,-0.3607,-0.3751,9.7928,-0.003,0.0127,-0.0171
6289,48.47393,-2.562708,117.24,29.99,4.288,100.4,14 / 17,628911,2019-08-18 15:24:11:448,-0.1723,-0.677,9.8518,-0.3701,-0.3773,9.7924,-0.0058,0.0042,-0.0151
6290,48.47393,-2.562708,117.24,29.99,4.288,100.4,14 / 17,629011,2019-08-18 15:24:11:548,-0.4961,-0.4274,9.1658,-0.3824,-0.379,9.7919,0.0052,0.0112,-0.0144
6291,48.47393,-2.562708,117.24,29.99,4.288,100.4,14 / 17,629112,2019-08-18 15:24:11:649,-0.5339,-0.3723,9.7075,-0.3869,-0.3782,9.7917,0.0034,0.0097,-0.0145
6292,48.47393,-2.562708,117.24,29.99,4.288,100.4,14 / 18,629212,2019-08-18 15:24:11:749,-0.2837,-0.5154,9.5453,-0.394,-0.3779,9.7914,-0.0066,0.0019,-0.0166
6293,48.47393,-2.562708,117.24,29.99,4.288,100.4,14 / 18,629311,2019-08-18 15:24:11:848,-0.465,-0.4705,10.1235,-0.397,-0.3858,9.791,-0.0063,-0.0038,-0.0175
6294,48.47393,-2.562708,117.24,29.99,4.288,100.4,14 / 18,629411,2019-08-18 15:24:11:948,-0.3303,-0.7063,10.4246,-0.3912,-0.3908,9.791,-0.0074,-0.0208,-0.0236
6295,48.47393,-2.562708,117.24,29.99,4.288,100.4,14 / 18,629511,2019-08-18 15:24:12:048,-0.1364,-0.6722,10.3947,-0.3693,-0.4006,9.7915,-0.0004,-0.0183,-0.031
6296,48.47393,-2.562708,117.24,29.99,4.288,100.4,14 / 18,629611,2019-08-18 15:24:12:148,0.0952,-0.8092,9.8332,-0.3563,-0.4094,9.7916,-0.0038,-0.0097,-0.036
6297,48.47393,-2.562708,117.24,29.99,4.288,100.4,14 / 18,629711,2019-08-18 15:24:12:248,-0.0664,-0.5974,9.8895,-0.3405,-0.4201,9.7917,0.0121,0.0005,-0.0387
6298,48.47393,-2.562708,117.24,29.99,4.288,100.4,14 / 18,629811,2019-08-18 15:24:12:348,-0.1358,-0.9487,9.944,-0.3357,-0.423,9.7918,0.0052,-0.0021,-0.0376
6299,48.47393,-2.562708,117.24,29.99,4.288,100.4,14 / 18,629911,2019-08-18 15:24:12:448,-0.0885,-0.9164,9.8105,-0.321,-0.4311,9.7919,0.0104,-0.0006,-0.0374
6300,48.47393,-2.562708,117.24,29.99,4.288,100.4,14 / 18,630012,2019-08-18 15:24:12:549,-0.1885,-0.8098,9.6243,-0.3129,-0.4316,9.7922,0.0107,0.0018,-0.0348
6301,48.47393,-2.562708,117.24,29.99,4.288,100.4,14 / 18,630111,2019-08-18 15:24:12:648,0.0246,-1.169,10.4114,-0.3088,-0.4368,9.792,0.0048,0.002,-0.0358
6302,48.47393,-2.562708,117.24,29.99,4.288,100.4,15 / 19,630211,2019-08-18 15:24:12:748,-0.0532,-0.8649,9.8961,-0.3094,-0.4399,9.7919,-0.0012,-0.001,-0.0358
6303,48.47393,-2.562708,117.24,29.99,4.288,100.4,15 / 19,630312,2019-08-18 15:24:12:849,0.039,-0.6255,9.5016,-0.3077,-0.4574,9.7911,-0.0047,0.0146,-0.0335
6304,48.47393,-2.562708,117.24,29.99,4.288,100.4,15 / 19,630411,2019-08-18 15:24:12:948,-0.3148,-0.5674,9.5932,-0.314,-0.4618,9.7907,0.0007,-0.0026,-0.0326
6305,48.47393,-2.562708,117.24,29.99,4.288,100.4,15 / 19,630511,2019-08-18 15:24:13:048,-0.1783,-0.4723,9.4771,-0.3006,-0.4732,9.7906,-0.0005,0.0002,-0.0268
6306,48.47393,-2.562708,117.24,29.99,4.288,100.4,15 / 19,630611,2019-08-18 15:24:13:148,-0.1777,-0.7338,10.0726,-0.3022,-0.4786,9.7903,-0.0006,0.0101,-0.0238
6307,48.47393,-2.562708,117.24,29.99,4.288,100.4,15 / 19,630711,2019-08-18 15:24:13:248,-0.4967,-0.4788,10.087,-0.3159,-0.4771,9.7899,-0.0023,0.0045,-0.0237
6308,48.47393,-2.562708,117.24,29.99,4.288,100.4,15 / 19,630812,2019-08-18 15:24:13:349,-0.2621,-0.8404,9.9134,-0.3177,-0.4794,9.7898,-0.0007,-0.004,-0.0245
6309,48.47393,-2.562708,117.24,29.99,4.288,100.4,15 / 19,630911,2019-08-18 15:24:13:448,-0.6356,-0.4226,10.16,-0.3121,-0.4821,9.7898,-0.0015,-0.002,-0.0253
6310,48.47393,-2.562708,117.24,29.99,4.288,100.4,15 / 19,631011,2019-08-18 15:24:13:548,-0.3926,-0.7033,10.5449,-0.3116,-0.4825,9.7898,0.0014,-0.0034,-0.024
6311,48.47393,-2.562708,117.24,29.99,4.288,100.4,15 / 19,631111,2019-08-18 15:24:13:648,-0.629,-0.2741,9.5274,-0.3127,-0.4853,9.7896,0.0016,0.0056,-0.0241
6312,48.47393,-2.562708,117.24,29.99,4.288,100.4,15 / 20,631212,2019-08-18 15:24:13:749,-0.5392,-0.6991,9.7931,-0.3216,-0.4838,9.7894,-0.0003,0.0023,-0.0256
6313,48.47393,-2.562708,117.24,29.99,4.288,100.4,15 / 20,631311,2019-08-18 15:24:13:848,-0.544,-0.2927,9.5908,-0.3175,-0.4929,9.7891,-0.0053,-0.0129,-0.0253
6314,48.47393,-2.562708,117.24,29.99,4.288,100.4,15 / 20,631411,2019-08-18 15:24:13:948,-0.4686,-0.6835,9.4891,-0.3152,-0.4974,9.789,-0.0111,-0.002,-0.0257
6315,48.47393,-2.562708,117.24,29.99,4.288,100.4,15 / 20,631511,2019-08-18 15:24:14:048,-0.4285,-0.5237,9.5537,-0.3153,-0.5165,9.788,-0.0095,-0.0008,-0.0262
6316,48.47393,-2.562708,117.24,29.99,4.288,100.4,15 / 20,631611,2019-08-18 15:24:14:148,-0.4596,-0.5172,9.5298,-0.3159,-0.5228,9.7876,-0.005,0.0047,-0.0281
6317,48.47393,-2.562708,117.24,29.99,4.288,100.4,15 / 20,631711,2019-08-18 15:24:14:248,-0.4088,-0.8888,10.1798,-0.3131,-0.5399,9.7868,-0.0055,-0.0057,-0.0285
6318,48.47393,-2.562708,117.24,29.99,4.288,100.4,15 / 20,631811,2019-08-18 15:24:14:348,-0.3573,-0.6333,9.8458,-0.3206,-0.5388,9.7866,-0.0002,-0.0076,-0.0271
6319,48.47393,-2.562708,117.24,29.99,4.288,100.4,15 / 20,631911,2019-08-18 15:24:14:448,-0.465,-0.7308,10.2857,-0.3153,-0.5529,9.786,-0.0151,-0.011,-0.0307
6320,48.47393,-2.562708,117.24,29.99,4.288,100.4,15 / 20,632011,2019-08-18 15:24:14:548,-0.2741,-0.6805,9.4603,-0.3099,-0.5661,9.7854,-0.0165,-0.0099,-0.0303
6321,48.47393,-2.562708,117.24,29.99,4.288,100.4,15 / 20,632111,2019-08-18 15:24:14:648,-0.3208,-0.8056,9.5286,-0.3124,-0.59,9.7839,-0.0106,0.0134,-0.0291
6322,48.47393,-2.562708,117.24,29.99,4.288,100.4,15 / 20,632211,2019-08-18 15:24:14:748,-0.4273,-0.6889,9.6764,-0.3222,-0.5997,9.783,-0.0008,0.0118,-0.0267
6323,48.47393,-2.562708,117.24,29.99,4.288,100.4,15 / 20,632311,2019-08-18 15:24:14:848,-0.5105,-0.8583,10.0272,-0.3276,-0.5983,9.7829,0.0035,-0.004,-0.028
6324,48.47393,-2.562708,117.24,29.99,4.288,100.4,15 / 20,632411,2019-08-18 15:24:14:948,-0.4345,-0.7757,10.2091,-0.3212,-0.6014,9.7829,-0.0017,-0.0101,-0.0283
6325,48.47393,-2.562708,117.24,29.99,4.288,100.4,15 / 20,632511,2019-08-18 15:24:15:048,-0.5093,-0.9098,9.3748,-0.31,-0.6107,9.7827,-0.0081,0.0024,-0.028
6326,48.47393,-2.562708,117.24,29.99,4.288,100.4,15 / 20,632611,2019-08-18 15:24:15:148,-0.4698,-0.51,9.267,-0.3169,-0.6222,9.7818,-0.015,0.0141,-0.0287
6327,48.47393,-2.562708,117.24,29.99,4.288,100.4,15 / 20,632711,2019-08-18 15:24:15:248,-0.395,-0.9858,9.9027,-0.3263,-0.6325,9.7808,0.0054,0.0047,-0.0275
6328,48.47393,-2.562708,117.24,29.99,4.288,100.4,15 / 20,632811,2019-08-18 15:24:15:348,-0.4195,-0.975,10.0373,-0.3321,-0.6297,9.7808,0.0116,-0.0078,-0.0265
6329,48.47393,-2.562708,117.24,29.99,4.288,100.4,15 / 20,632912,2019-08-18 15:24:15:449,-0.4111,0.1401,10.4216,-0.3301,-0.6268,9.781,-0.0029,-0.0067,-0.0284
6330,48.47393,-2.562708,117.24,29.99,4.288,100.4,15 / 20,633011,2019-08-18 15:24:15:548,0.1425,-0.5884,9.1473,-0.2799,-0.6504,9.7811,0.0085,0.021,-0.0252
6331,48.47393,-2.562708,117.24,29.99,4.288,100.4,15 / 20,633111,2019-08-18 15:24:15:648,-0.6967,-1.0169,9.8422,-0.3337,-0.6381,9.7802,0.0162,0.0138,-0.0222
6332,48.47393,-2.562708,117.24,29.99,4.288,100.4,13 / 20,633211,2019-08-18 15:24:15:748,-0.6224,-0.9283,9.6537,-0.3419,-0.6299,9.7804,-0.0031,-0.0146,-0.0284
6333,48.47393,-2.562708,117.24,29.99,4.288,100.4,13 / 20,633311,2019-08-18 15:24:15:848,-0.392,-0.7278,9.7387,-0.3367,-0.6279,9.7807,-0.0014,-0.004,-0.0296
6334,48.47393,-2.562708,117.24,29.99,4.288,100.4,13 / 20,633411,2019-08-18 15:24:15:948,-0.3226,-0.5794,9.6944,-0.3325,-0.6314,9.7807,-0.0012,-0.0022,-0.029
6335,48.47393,-2.562708,117.24,29.99,4.288,100.4,13 / 20,633511,2019-08-18 15:24:16:048,-0.5345,-0.7895,9.3843,-0.3324,-0.6329,9.7806,-0.0017,0.0085,-0.0285
6336,48.47393,-2.562708,117.24,29.99,4.288,100.4,13 / 20,633612,2019-08-18 15:24:16:149,-0.2645,-0.7344,9.4412,-0.3408,-0.6404,9.7798,-0.0039,0.0013,-0.0271
6337,48.47393,-2.562708,117.24,29.99,4.288,100.4,13 / 20,633712,2019-08-18 15:24:16:249,-0.4393,-1.0199,9.7081,-0.3429,-0.6456,9.7794,-0.0107,0.0063,-0.0291
6338,48.47393,-2.562708,117.24,29.99,4.288,100.4,13 / 20,633811,2019-08-18 15:24:16:348,-0.5853,-0.7757,9.9051,-0.3518,-0.6623,9.7779,-0.0111,-0.0007,-0.0283
6339,48.47393,-2.562708,117.24,29.99,4.288,100.4,13 / 20,633911,2019-08-18 15:24:16:448,-0.6799,-0.2981,9.6399,-0.355,-0.6671,9.7775,-0.0102,-0.0086,-0.0306
6340,48.47393,-2.562708,117.24,29.99,4.288,100.4,13 / 20,634011,2019-08-18 15:24:16:548,-0.386,-0.7225,9.8225,-0.3459,-0.6847,9.7766,-0.0099,-0.0034,-0.0285
6341,48.47393,-2.562708,117.24,29.99,4.288,100.4,13 / 20,634111,2019-08-18 15:24:16:648,-0.5081,-1.0157,9.61,-0.3464,-0.692,9.7761,-0.0067,0.0008,-0.0294
6342,48.47393,-2.562708,117.24,29.99,4.288,100.4,Oct-18,634211,2019-08-18 15:24:16:748,-0.6404,-0.8152,9.9386,-0.3353,-0.7053,9.7755,-0.0065,-0.0167,-0.0352
6343,48.47393,-2.562708,117.24,29.99,4.288,100.4,Oct-18,634311,2019-08-18 15:24:16:848,-0.4189,-1.0475,10.0649,-0.3243,-0.7131,9.7753,-0.0062,-0.0158,-0.0357
6344,48.47393,-2.562708,117.24,29.99,4.288,100.4,Oct-18,634412,2019-08-18 15:24:16:949,-0.2238,-0.8882,9.8362,-0.3143,-0.7258,9.7747,-0.0023,0.0043,-0.0348
6345,48.47393,-2.562708,117.24,29.99,4.288,100.4,Oct-18,634511,2019-08-18 15:24:17:048,-0.4207,-0.6799,9.786,-0.3213,-0.7357,9.7737,0.0025,0.0057,-0.0325
6346,48.47393,-2.562708,117.24,29.99,4.288,100.4,Oct-18,634611,2019-08-18 15:24:17:148,-0.4501,-0.9918,10.0553,-0.3246,-0.7391,9.7734,0.0084,0.002,-0.032
6347,48.47393,-2.562708,117.24,29.99,4.288,100.4,Oct-18,634711,2019-08-18 15:24:17:248,-0.6266,-0.7997,9.6255,-0.3236,-0.7365,9.7736,0.0009,-0.017,-0.0358
6348,48.47393,-2.562708,117.24,29.99,4.288,100.4,Oct-18,634811,2019-08-18 15:24:17:348,-0.5374,-1.087,9.9984,-0.3072,-0.7449,9.7735,-0.0048,-0.0124,-0.0345
6349,48.47393,-2.562708,117.24,29.99,4.288,100.4,Oct-18,634912,2019-08-18 15:24:17:449,-0.3938,-0.8404,9.8302,-0.3102,-0.7515,9.7729,0.002,0.0157,-0.032
6350,48.47393,-2.562708,117.24,29.99,4.288,100.4,Oct-18,635011,2019-08-18 15:24:17:548,-0.2663,-0.811,9.9535,-0.3284,-0.7568,9.7719,-0.0003,0.014,-0.0329
6351,48.47393,-2.562708,117.24,29.99,4.288,100.4,Oct-18,635111,2019-08-18 15:24:17:648,-0.5572,-0.9816,9.9488,-0.3272,-0.7612,9.7716,-0.0054,-0.0066,-0.0348
6352,48.47393,-2.562708,117.24,29.99,4.288,100.4,Dec-20,635212,2019-08-18 15:24:17:749,-0.5841,-0.8942,9.7937,-0.3199,-0.7733,9.7709,-0.0101,-0.0075,-0.0334
6353,48.47393,-2.562708,117.24,29.99,4.288,100.4,Dec-20,635311,2019-08-18 15:24:17:848,-0.2831,-0.9685,9.4633,-0.3157,-0.7832,9.7702,-0.0147,-0.0025,-0.0334
6354,48.47393,-2.562708,117.24,29.99,4.288,100.4,Dec-20,635411,2019-08-18 15:24:17:948,-0.4273,-0.7823,9.6291,-0.3263,-0.8086,9.7678,-0.0066,0.012,-0.034
6355,48.47393,-2.562708,117.24,29.99,4.288,100.4,Dec-20,635511,2019-08-18 15:24:18:048,-0.3058,-0.9726,10.1247,-0.3313,-0.8124,9.7673,0.0002,0.0053,-0.0339
6356,48.47393,-2.562708,117.24,29.99,4.288,100.4,Dec-20,635611,2019-08-18 15:24:18:148,-0.5452,-1.0295,10.1535,-0.3314,-0.8138,9.7672,0.0046,-0.0121,-0.0332
6357,48.47393,-2.562708,117.24,29.99,4.288,100.4,Dec-20,635711,2019-08-18 15:24:18:248,-0.4088,-0.729,10.2456,-0.3235,-0.8142,9.7674,0.0071,-0.0079,-0.0339
6358,48.47393,-2.562708,117.24,29.99,4.288,100.4,Dec-20,635811,2019-08-18 15:24:18:348,-0.6943,-0.7625,9.7596,-0.3147,-0.8033,9.7686,0.0158,-0.004,-0.0307
6359,48.47393,-2.562708,117.24,29.99,4.288,100.4,Dec-20,635911,2019-08-18 15:24:18:448,-0.471,-0.8236,10.1205,-0.3132,-0.7987,9.7691,0.0076,0.0022,-0.03
6360,48.47393,-2.562708,117.24,29.99,4.288,100.4,Dec-20,636011,2019-08-18 15:24:18:548,-0.7475,-0.987,9.6854,-0.3206,-0.7962,9.769,0.0,0.0043,-0.0325
6361,48.47393,-2.562708,117.24,29.99,4.288,100.4,Dec-20,636111,2019-08-18 15:24:18:648,-0.5243,-0.9996,9.5232,-0.3242,-0.8016,9.7685,-0.007,-0.0021,-0.0344
6362,48.473194,-2.559304,122.39,28.56,6.432,114.5,14 / 20,636211,2019-08-18 15:24:18:748,-0.6218,-0.9643,9.0174,-0.3293,-0.8121,9.7674,-0.0112,0.0055,-0.0343
6363,48.473194,-2.559304,122.39,28.56,6.432,114.5,14 / 20,636311,2019-08-18 15:24:18:848,-0.2513,-0.7422,9.6417,-0.333,-0.8239,9.7663,-0.0065,-0.0013,-0.0349
6364,48.473194,-2.559304,122.39,28.56,6.432,114.5,14 / 20,636411,2019-08-18 15:24:18:948,-0.3375,-1.1594,9.6208,-0.3356,-0.8291,9.7658,-0.0079,0.0041,-0.0359
6365,48.473194,-2.559304,122.39,28.56,6.432,114.5,14 / 20,636511,2019-08-18 15:24:19:048,-0.4728,-0.7087,9.9176,-0.3336,-0.8466,9.7643,-0.0015,-0.0085,-0.031
6366,48.473194,-2.559304,122.39,28.56,6.432,114.5,14 / 20,636611,2019-08-18 15:24:19:148,-0.5967,-0.8733,9.7722,-0.3306,-0.8471,9.7644,-0.005,-0.0134,-0.0291
6367,48.473194,-2.559304,122.39,28.56,6.432,114.5,14 / 20,636711,2019-08-18 15:24:19:248,-0.486,-0.7847,9.6734,-0.3215,-0.852,9.7643,-0.01,0.0,-0.0262
6368,48.473194,-2.559304,122.39,28.56,6.432,114.5,14 / 20,636811,2019-08-18 15:24:19:348,-0.4141,-0.8027,9.6638,-0.3267,-0.8581,9.7636,-0.0091,0.0085,-0.0255
6369,48.473194,-2.559304,122.39,28.56,6.432,114.5,14 / 20,636911,2019-08-18 15:24:19:448,-0.6404,-0.5543,9.8745,-0.3384,-0.865,9.7626,-0.0026,0.0023,-0.025
6370,48.473194,-2.559304,122.39,28.56,6.432,114.5,14 / 20,637011,2019-08-18 15:24:19:548,-0.705,-1.078,9.7584,-0.3414,-0.8661,9.7624,0.0016,0.0029,-0.0253
6371,48.473194,-2.559304,122.39,28.56,6.432,114.5,14 / 20,637111,2019-08-18 15:24:19:648,-0.5267,-0.3597,10.0948,-0.3518,-0.8602,9.7625,0.0014,0.0099,-0.0239
6372,48.473194,-2.559304,122.39,28.56,6.432,114.5,Dec-18,637211,2019-08-18 15:24:19:748,-0.2926,-0.683,9.6339,-0.3573,-0.8613,9.7622,-0.0106,-0.005,-0.0271
6373,48.473194,-2.559304,122.39,28.56,6.432,114.5,Dec-18,637311,2019-08-18 15:24:19:848,-0.8259,-0.3669,9.2832,-0.3655,-0.8681,9.7613,-0.0006,0.0111,-0.0224
6374,48.473194,-2.559304,122.39,28.56,6.432,114.5,Dec-18,637411,2019-08-18 15:24:19:948,-0.456,-0.9373,10.1606,-0.3785,-0.8621,9.7613,0.0034,0.0044,-0.0226
6375,48.473194,-2.559304,122.39,28.56,6.432,114.5,Dec-18,637511,2019-08-18 15:24:20:048,-0.6428,-0.6123,9.9978,-0.373,-0.8619,9.7616,-0.0046,-0.0134,-0.0248
6376,48.473194,-2.559304,122.39,28.56,6.432,114.5,Dec-18,637611,2019-08-18 15:24:20:148,-0.5728,-0.653,9.9865,-0.3741,-0.8562,9.762,-0.0006,0.007,-0.0228
6377,48.473194,-2.559304,122.39,28.56,6.432,114.5,Dec-18,637711,2019-08-18 15:24:20:248,-0.4776,-0.9948,10.2804,-0.3827,-0.8525,9.762,-0.0018,0.0004,-0.022
6378,48.473194,-2.559304,122.39,28.56,6.432,114.5,Dec-18,637811,2019-08-18 15:24:20:348,-0.7631,-0.6321,9.9093,-0.3817,-0.85,9.7623,-0.003,-0.0164,-0.0256
6379,48.473194,-2.559304,122.39,28.56,6.432,114.5,Dec-18,637911,2019-08-18 15:24:20:448,-0.8253,-0.6291,9.431,-0.3645,-0.8518,9.7628,-0.0088,-0.0149,-0.0253
6380,48.473194,-2.559304,122.39,28.56,6.432,114.5,Dec-18,638011,2019-08-18 15:24:20:548,-0.559,-0.7655,9.6232,-0.3685,-0.8511,9.7627,0.0048,0.0027,-0.0231
6381,48.473194,-2.559304,122.39,28.56,6.432,114.5,Dec-18,638111,2019-08-18 15:24:20:648,-0.4291,-0.7548,9.6339,-0.3739,-0.8467,9.7629,-0.0042,0.0092,-0.0262
6382,48.473194,-2.559304,122.39,28.56,6.432,114.5,15 / 20,638211,2019-08-18 15:24:20:748,-0.5572,-0.6686,9.5573,-0.38,-0.8473,9.7626,-0.0035,-0.0067,-0.0251
6383,48.473194,-2.559304,122.39,28.56,6.432,114.5,15 / 20,638311,2019-08-18 15:24:20:848,-0.562,-0.8589,10.3378,-0.3749,-0.8451,9.763,0.0082,0.017,-0.0243
6384,48.473194,-2.559304,122.39,28.56,6.432,114.5,15 / 20,638412,2019-08-18 15:24:20:949,-0.5033,-0.7284,9.6303,-0.3928,-0.8383,9.7629,0.0082,0.017,-0.0243
6385,48.473194,-2.559304,122.39,28.56,6.432,114.5,15 / 20,638511,2019-08-18 15:24:21:048,-0.541,-0.7027,9.4556,-0.4069,-0.819,9.7639,0.0086,0.0042,-0.0215
6386,48.473194,-2.559304,122.39,28.56,6.432,114.5,15 / 20,638611,2019-08-18 15:24:21:148,-0.8337,-0.4914,9.4687,-0.4141,-0.822,9.7634,-0.0083,0.002,-0.0238
6387,48.473194,-2.559304,122.39,28.56,6.432,114.5,15 / 20,638711,2019-08-18 15:24:21:248,-0.4788,-0.5674,10.4593,-0.4226,-0.8139,9.7637,0.0091,0.0084,-0.0212
6388,48.473194,-2.559304,122.39,28.56,6.432,114.5,15 / 20,638812,2019-08-18 15:24:21:349,-0.6566,-0.8236,9.829,-0.4221,-0.8095,9.7641,0.005,-0.0035,-0.0207
6389,48.473194,-2.559304,122.39,28.56,6.432,114.5,15 / 20,638912,2019-08-18 15:24:21:449,-0.7529,-0.1682,9.7016,-0.4198,-0.7954,9.7653,0.0067,-0.0031,-0.0231
6390,48.473194,-2.559304,122.39,28.56,6.432,114.5,15 / 20,639011,2019-08-18 15:24:21:548,-0.6212,-0.6823,9.7967,-0.418,-0.7906,9.7658,0.0062,-0.0071,-0.0226
6391,48.473194,-2.559304,122.39,28.56,6.432,114.5,15 / 20,639111,2019-08-18 15:24:21:648,-0.6063,-0.3879,10.3887,-0.4106,-0.7824,9.7668,-0.0076,-0.0195,-0.0227
6392,48.473194,-2.559304,122.39,28.56,6.432,114.5,14 / 19,639211,2019-08-18 15:24:21:748,-0.7392,-0.6817,10.1708,-0.4055,-0.7824,9.767,-0.0032,-0.0115,-0.0244
6393,48.473194,-2.559304,122.39,28.56,6.432,114.5,14 / 19,639311,2019-08-18 15:24:21:848,-0.6075,-0.5465,9.9452,-0.3987,-0.7817,9.7673,-0.0062,-0.0025,-0.0234
6394,48.473194,-2.559304,122.39,28.56,6.432,114.5,14 / 19,639412,2019-08-18 15:24:21:949,-0.6655,-0.513,9.252,-0.4014,-0.7874,9.7667,-0.0178,0.0051,-0.0248
6395,48.473194,-2.559304,122.39,28.56,6.432,114.5,14 / 19,639511,2019-08-18 15:24:22:048,-0.3878,-0.6542,9.3305,-0.4103,-0.8062,9.7648,-0.0157,0.0068,-0.0239
6396,48.473194,-2.559304,122.39,28.56,6.432,114.5,14 / 19,639612,2019-08-18 15:24:22:149,-0.541,-0.4555,9.5783,-0.4176,-0.8112,9.7641,-0.0055,0.0074,-0.0253
6397,48.473194,-2.559304,122.39,28.56,6.432,114.5,14 / 19,639711,2019-08-18 15:24:22:248,-0.6631,-0.7488,9.6357,-0.4205,-0.8112,9.764,0.0007,0.0032,-0.0218
6398,48.473194,-2.559304,122.39,28.56,6.432,114.5,14 / 19,639811,2019-08-18 15:24:22:348,-0.6661,-0.5159,9.5358,-0.4271,-0.8025,9.7644,0.0035,0.0057,-0.0208
6399,48.473194,-2.559304,122.39,28.56,6.432,114.5,14 / 19,639911,2019-08-18 15:24:22:448,-0.5985,-0.6554,10.1116,-0.4313,-0.7992,9.7645,0.0081,0.0122,-0.0224
6400,48.473194,-2.559304,122.39,28.56,6.432,114.5,14 / 19,640011,2019-08-18 15:24:22:548,-0.4896,-0.6321,9.744,-0.4407,-0.785,9.7652,0.0063,-0.0005,-0.0213
6401,48.473194,-2.559304,122.39,28.56,6.432,114.5,14 / 19,640111,2019-08-18 15:24:22:648,-0.7326,-0.4507,10.3079,-0.4436,-0.7814,9.7654,-0.0002,0.001,-0.0248
6402,48.473194,-2.559304,122.39,28.56,6.432,114.5,14 / 19,640211,2019-08-18 15:24:22:748,-0.7619,-0.7703,9.8733,-0.4419,-0.7718,9.7662,0.0093,-0.0163,-0.0257
6403,48.473194,-2.559304,122.39,28.56,6.432,114.5,14 / 19,640311,2019-08-18 15:24:22:848,-0.3681,-0.6853,9.8446,-0.4318,-0.7672,9.7671,0.0047,-0.0089,-0.0272
6404,48.473194,-2.559304,122.39,28.56,6.432,114.5,14 / 19,640411,2019-08-18 15:24:22:948,-0.5213,-0.7165,9.8937,-0.4243,-0.7682,9.7673,-0.0146,-0.0046,-0.0319
6405,48.473194,-2.559304,122.39,28.56,6.432,114.5,14 / 19,640511,2019-08-18 15:24:23:048,-0.4028,-0.8703,10.2355,-0.4185,-0.779,9.7667,-0.0108,-0.0087,-0.0324
6406,48.473194,-2.559304,122.39,28.56,6.432,114.5,14 / 19,640611,2019-08-18 15:24:23:148,-0.6093,-0.6883,9.4095,-0.4076,-0.7913,9.7662,-0.0173,-0.0123,-0.0309
6407,48.473194,-2.559304,122.39,28.56,6.432,114.5,14 / 19,640711,2019-08-18 15:24:23:248,-0.7703,-0.9822,8.7451,-0.4016,-0.8048,9.7653,-0.0142,0.003,-0.0315
6408,48.473194,-2.559304,122.39,28.56,6.432,114.5,14 / 19,640811,2019-08-18 15:24:23:348,-0.5692,-0.6207,9.3215,-0.4064,-0.8228,9.7636,-0.012,0.0006,-0.0334
6409,48.473194,-2.559304,122.39,28.56,6.432,114.5,14 / 19,640911,2019-08-18 15:24:23:448,-0.2657,-0.9194,9.601,-0.4076,-0.8302,9.7629,-0.0077,0.0066,-0.033
6410,48.473194,-2.559304,122.39,28.56,6.432,114.5,14 / 19,641011,2019-08-18 15:24:23:548,-0.6745,-0.489,9.1449,-0.4172,-0.8429,9.7614,-0.009,0.0065,-0.0323
6411,48.473194,-2.559304,122.39,28.56,6.432,114.5,14 / 19,641111,2019-08-18 15:24:23:648,-0.3214,-0.9816,9.9081,-0.4158,-0.8486,9.761,-0.0006,-0.0051,-0.0302
6412,48.473194,-2.559304,122.39,28.56,6.432,114.5,13 / 18,641211,2019-08-18 15:24:23:748,-0.4584,-0.6273,10.5006,-0.4033,-0.8489,9.7615,0.0012,-0.0117,-0.0307
6413,48.473194,-2.559304,122.39,28.56,6.432,114.5,13 / 18,641311,2019-08-18 15:24:23:848,-0.55,-0.8691,10.3199,-0.3989,-0.8466,9.7619,0.0047,-0.0024,-0.0288
6414,48.473194,-2.559304,122.39,28.56,6.432,114.5,13 / 18,641412,2019-08-18 15:24:23:949,-0.5063,-0.838,9.5962,-0.3996,-0.8373,9.7627,-0.0013,0.008,-0.029
6415,48.473194,-2.559304,122.39,28.56,6.432,114.5,13 / 18,641511,2019-08-18 15:24:24:048,-0.5674,-0.7937,9.1455,-0.4057,-0.8366,9.7625,-0.0013,0.008,-0.029
6416,48.473194,-2.559304,122.39,28.56,6.432,114.5,13 / 18,641611,2019-08-18 15:24:24:148,-0.2118,-0.7272,9.7363,-0.4112,-0.8312,9.7627,0.0052,0.0042,-0.0312
6417,48.473194,-2.559304,122.39,28.56,6.432,114.5,13 / 18,641711,2019-08-18 15:24:24:248,-0.547,-0.7787,10.3821,-0.4071,-0.8333,9.7627,-0.005,-0.0076,-0.0307
6418,48.473194,-2.559304,122.39,28.56,6.432,114.5,13 / 18,641811,2019-08-18 15:24:24:348,-0.4153,-0.8003,10.2091,-0.3944,-0.8365,9.7629,0.0013,-0.0108,-0.0288
6419,48.473194,-2.559304,122.39,28.56,6.432,114.5,13 / 18,641911,2019-08-18 15:24:24:448,-0.6075,-0.6668,9.8153,-0.3853,-0.8336,9.7636,0.0019,-0.0112,-0.0294
6420,48.473194,-2.559304,122.39,28.56,6.432,114.5,13 / 18,642011,2019-08-18 15:24:24:548,-0.4513,-0.3741,10.0505,-0.3695,-0.8358,9.764,-0.0072,-0.0169,-0.0309
6421,48.473194,-2.559304,122.39,28.56,6.432,114.5,13 / 18,642111,2019-08-18 15:24:24:648,-0.635,-0.8116,11.0668,-0.3653,-0.8382,9.7639,0.0,-0.0339,-0.0298
6422,48.473194,-2.559304,122.39,28.56,6.432,114.5,13 / 18,642211,2019-08-18 15:24:24:748,-1.0043,0.1084,8.9911,-0.3668,-0.8455,9.7632,-0.0061,0.0109,-0.0344
6423,48.473194,-2.559304,122.39,28.56,6.432,114.5,13 / 18,642311,2019-08-18 15:24:24:848,0.127,-0.9158,9.7195,-0.3659,-0.8439,9.7634,-0.0038,0.0051,-0.0316
6424,48.473194,-2.559304,122.39,28.56,6.432,114.5,13 / 18,642412,2019-08-18 15:24:24:949,-0.3687,-0.7039,8.9276,-0.3718,-0.8547,9.7623,-0.0061,0.0017,-0.0315
6425,48.473194,-2.559304,122.39,28.56,6.432,114.5,13 / 18,642511,2019-08-18 15:24:25:048,-0.4052,-0.6327,10.1564,-0.3708,-0.8556,9.7622,0.0017,0.0015,-0.0283
6426,48.473194,-2.559304,122.39,28.56,6.432,114.5,13 / 18,642611,2019-08-18 15:24:25:148,-0.4734,-0.7673,9.8949,-0.3646,-0.8542,9.7626,0.0003,-0.0074,-0.0264
6427,48.473194,-2.559304,122.39,28.56,6.432,114.5,13 / 18,642711,2019-08-18 15:24:25:248,-0.4866,-0.6476,9.9416,-0.3597,-0.8494,9.7632,-0.0002,0.0013,-0.0267
6428,48.473194,-2.559304,122.39,28.56,6.432,114.5,13 / 18,642811,2019-08-18 15:24:25:348,-0.3734,-0.75,9.9811,-0.363,-0.8463,9.7633,-0.0031,0.0138,-0.0245
6429,48.473194,-2.559304,122.39,28.56,6.432,114.5,13 / 18,642911,2019-08-18 15:24:25:448,-0.4435,-0.5602,9.8667,-0.3737,-0.8535,9.7623,-0.0129,0.0084,-0.0284
6430,48.473194,-2.559304,122.39,28.56,6.432,114.5,13 / 18,643011,2019-08-18 15:24:25:548,-0.6278,-0.72,9.914,-0.3826,-0.8562,9.7617,-0.0099,-0.0027,-0.0288
6431,48.473194,-2.559304,122.39,28.56,6.432,114.5,13 / 18,643111,2019-08-18 15:24:25:648,-0.796,-0.7398,10.3252,-0.3695,-0.8588,9.762,0.0017,-0.0177,-0.0282
6432,48.473194,-2.559304,122.39,28.56,6.432,114.5,15 / 20,643211,2019-08-18 15:24:25:748,-0.2621,-0.8003,10.3145,-0.3606,-0.852,9.7629,0.0068,-0.017,-0.0257
6433,48.473194,-2.559304,122.39,28.56,6.432,114.5,15 / 20,643311,2019-08-18 15:24:25:848,-0.4836,-0.4639,9.9547,-0.3405,-0.8424,9.7645,0.0029,-0.0118,-0.0252
6434,48.473194,-2.559304,122.39,28.56,6.432,114.5,15 / 20,643411,2019-08-18 15:24:25:948,-0.3854,-0.6614,9.7016,-0.3406,-0.8401,9.7647,-0.0039,0.0055,-0.0269
6435,48.473194,-2.559304,122.39,28.56,6.432,114.5,15 / 20,643511,2019-08-18 15:24:26:048,-0.6021,-0.5135,8.8313,-0.3519,-0.844,9.7639,-0.0081,0.0151,-0.0281
6436,48.473194,-2.559304,122.39,28.56,6.432,114.5,15 / 20,643611,2019-08-18 15:24:26:148,-0.4495,-0.343,9.2514,-0.3613,-0.8475,9.7633,-0.0086,0.0114,-0.028
6437,48.473194,-2.559304,122.39,28.56,6.432,114.5,15 / 20,643712,2019-08-18 15:24:26:249,-0.1897,-0.8685,9.4005,-0.3725,-0.8635,9.7615,-0.0114,0.0065,-0.0292
6438,48.473194,-2.559304,122.39,28.56,6.432,114.5,15 / 20,643811,2019-08-18 15:24:26:348,-0.723,-0.7218,9.8081,-0.3742,-0.8698,9.7608,-0.0056,0.0033,-0.0285
6439,48.473194,-2.559304,122.39,28.56,6.432,114.5,15 / 20,643912,2019-08-18 15:24:26:449,-0.2711,-1.0229,10.017,-0.3734,-0.8714,9.7607,0.0012,-0.0017,-0.027
6440,48.473194,-2.559304,122.39,28.56,6.432,114.5,15 / 20,644011,2019-08-18 15:24:26:548,-0.5919,-0.4573,9.7764,-0.3766,-0.8645,9.7612,0.0064,0.0012,-0.0245
6441,48.473194,-2.559304,122.39,28.56,6.432,114.5,15 / 20,644111,2019-08-18 15:24:26:648,-0.4094,-0.917,10.0816,-0.3794,-0.853,9.7621,0.0129,-0.006,-0.0266
6442,48.473194,-2.559304,122.39,28.56,6.432,114.5,15 / 19,644211,2019-08-18 15:24:26:748,-0.7816,-0.4926,9.5106,-0.3727,-0.8398,9.7635,0.008,-0.0052,-0.0294
6443,48.473194,-2.559304,122.39,28.56,6.432,114.5,15 / 19,644311,2019-08-18 15:24:26:848,-0.5285,-0.6877,9.2999,-0.3729,-0.8297,9.7644,-0.0006,0.0069,-0.0288
6444,48.473194,-2.559304,122.39,28.56,6.432,114.5,15 / 19,644411,2019-08-18 15:24:26:948,-0.5596,-0.65,9.5429,-0.375,-0.8315,9.7641,-0.0031,0.0037,-0.0279
6445,48.473194,-2.559304,122.39,28.56,6.432,114.5,15 / 19,644511,2019-08-18 15:24:27:048,-0.2729,-0.8463,9.762,-0.3797,-0.8339,9.7638,-0.0051,0.0042,-0.0277
6446,48.473194,-2.559304,122.39,28.56,6.432,114.5,15 / 19,644611,2019-08-18 15:24:27:148,-0.6242,-0.7434,9.8703,-0.3839,-0.8352,9.7635,-0.0066,0.0014,-0.0269
6447,48.473194,-2.559304,122.39,28.56,6.432,114.5,15 / 19,644711,2019-08-18 15:24:27:248,-0.5027,-0.8392,9.3999,-0.3884,-0.8376,9.7631,-0.0007,0.0074,-0.0263
6448,48.473194,-2.559304,122.39,28.56,6.432,114.5,15 / 19,644811,2019-08-18 15:24:27:348,-0.7182,-0.6021,9.5585,-0.393,-0.8377,9.7629,-0.0043,-0.0049,-0.0278
6449,48.473194,-2.559304,122.39,28.56,6.432,114.5,15 / 19,644911,2019-08-18 15:24:27:448,-0.5368,-0.6961,10.4659,-0.3879,-0.8423,9.7627,-0.0033,-0.0056,-0.028
6450,48.473194,-2.559304,122.39,28.56,6.432,114.5,15 / 19,645011,2019-08-18 15:24:27:548,-0.6577,-0.7913,10.1241,-0.3864,-0.842,9.7628,-0.0024,-0.0091,-0.0265
6451,48.473194,-2.559304,122.39,28.56,6.432,114.5,15 / 19,645111,2019-08-18 15:24:27:648,-0.6009,-0.656,10.5623,-0.3709,-0.8387,9.7637,0.0044,-0.0208,-0.0251
6452,48.471966,-2.556388,116.47,27.89,6.432,127.0,15 / 19,645211,2019-08-18 15:24:27:748,-0.4411,-0.3855,9.1712,-0.3621,-0.8336,9.7644,-0.0043,-0.0039,-0.0246
6453,48.471966,-2.556388,116.47,27.89,6.432,127.0,15 / 19,645312,2019-08-18 15:24:27:849,-0.462,-0.3406,9.185,-0.3769,-0.8445,9.7629,-0.0137,0.0158,-0.0248
6454,48.471966,-2.556388,116.47,27.89,6.432,127.0,15 / 19,645411,2019-08-18 15:24:27:948,-0.383,-0.7925,9.6896,-0.3893,-0.8529,9.7617,-0.021,-0.0011,-0.0277
6455,48.471966,-2.556388,116.47,27.89,6.432,127.0,15 / 19,645511,2019-08-18 15:24:28:048,-0.7374,-0.8404,9.5453,-0.3945,-0.8637,9.7606,-0.002,0.0034,-0.0265
6456,48.471966,-2.556388,116.47,27.89,6.432,127.0,15 / 19,645611,2019-08-18 15:24:28:148,-0.5943,-0.8882,10.0637,-0.3953,-0.8606,9.7608,0.0039,-0.0073,-0.0244
6457,48.471966,-2.556388,116.47,27.89,6.432,127.0,15 / 19,645711,2019-08-18 15:24:28:248,-0.7134,-0.8463,10.8609,-0.3931,-0.857,9.7612,0.0079,-0.0017,-0.0254
6458,48.471966,-2.556388,116.47,27.89,6.432,127.0,15 / 19,645811,2019-08-18 15:24:28:348,-0.659,-0.8565,10.2181,-0.3947,-0.844,9.7623,0.0045,-0.0023,-0.023
6459,48.471966,-2.556388,116.47,27.89,6.432,127.0,15 / 19,645912,2019-08-18 15:24:28:449,-0.5931,-0.6835,9.7776,-0.4023,-0.8365,9.7626,0.0045,-0.0023,-0.023
6460,48.471966,-2.556388,116.47,27.89,6.432,127.0,15 / 19,646011,2019-08-18 15:24:28:548,-0.5584,-0.8176,8.8708,-0.4086,-0.828,9.7631,0.0027,0.0028,-0.0255
6461,48.471966,-2.556388,116.47,27.89,6.432,127.0,15 / 19,646111,2019-08-18 15:24:28:648,-0.6536,-0.4693,9.6752,-0.4134,-0.8229,9.7633,-0.0042,-0.004,-0.0239
6462,48.471966,-2.556388,116.47,27.89,6.432,127.0,15 / 20,646211,2019-08-18 15:24:28:748,-0.7074,-0.6458,10.2121,-0.4184,-0.8211,9.7633,-0.0034,-0.0063,-0.0217
6463,48.471966,-2.556388,116.47,27.89,6.432,127.0,15 / 20,646311,2019-08-18 15:24:28:848,-0.8493,-0.6656,10.1594,-0.4179,-0.8156,9.7637,-0.0015,-0.006,-0.0144
6464,48.471966,-2.556388,116.47,27.89,6.432,127.0,15 / 20,646411,2019-08-18 15:24:28:948,-0.7607,-0.7051,9.6818,-0.4192,-0.8073,9.7644,0.0003,-0.0099,-0.0135
6465,48.471966,-2.556388,116.47,27.89,6.432,127.0,15 / 20,646511,2019-08-18 15:24:29:048,-0.6212,-0.2233,9.9482,-0.4201,-0.8028,9.7647,0.007,-0.0037,-0.0108
6466,48.471966,-2.556388,116.47,27.89,6.432,127.0,15 / 20,646611,2019-08-18 15:24:29:148,-0.7194,-0.595,10.1804,-0.4261,-0.7868,9.7657,-0.0061,0.0035,-0.0144
6467,48.471966,-2.556388,116.47,27.89,6.432,127.0,15 / 20,646712,2019-08-18 15:24:29:249,-0.8972,-0.2023,9.3376,-0.4353,-0.7859,9.7654,-0.0163,0.0049,-0.0144
6468,48.471966,-2.556388,116.47,27.89,6.432,127.0,15 / 20,646811,2019-08-18 15:24:29:348,-0.9139,-0.3472,9.4256,-0.4444,-0.7977,9.764,-0.0184,-0.0039,-0.0173
6469,48.471966,-2.556388,116.47,27.89,6.432,127.0,15 / 20,646911,2019-08-18 15:24:29:448,-0.6691,-0.3454,9.2658,-0.4463,-0.8019,9.7636,-0.0164,-0.0083,-0.0165
6470,48.471966,-2.556388,116.47,27.89,6.432,127.0,15 / 20,647012,2019-08-18 15:24:29:549,-0.9014,-0.4052,10.2558,-0.4486,-0.808,9.763,-0.0138,-0.0113,-0.0137
6471,48.471966,-2.556388,116.47,27.89,6.432,127.0,15 / 20,647111,2019-08-18 15:24:29:648,-0.8954,-0.5752,10.2474,-0.4497,-0.81,9.7628,-0.0129,-0.0041,-0.0117
6472,48.471966,-2.556388,116.47,27.89,6.432,127.0,17 / 20,647211,2019-08-18 15:24:29:748,-0.8619,-0.501,9.9224,-0.4544,-0.8059,9.7629,0.0039,0.0048,-0.0099
6473,48.471966,-2.556388,116.47,27.89,6.432,127.0,17 / 20,647312,2019-08-18 15:24:29:849,-0.6709,-0.1796,9.5076,-0.4629,-0.7945,9.7634,0.0017,0.0075,-0.0103
6474,48.471966,-2.556388,116.47,27.89,6.432,127.0,17 / 20,647411,2019-08-18 15:24:29:948,-0.6631,-0.155,9.5555,-0.4778,-0.7852,9.7635,-0.0078,0.0048,-0.0112
6475,48.471966,-2.556388,116.47,27.89,6.432,127.0,17 / 20,647511,2019-08-18 15:24:30:048,-0.5841,-0.4214,10.0349,-0.4835,-0.7831,9.7634,-0.0047,-0.0017,-0.0134
6476,48.471966,-2.556388,116.47,27.89,6.432,127.0,17 / 20,647611,2019-08-18 15:24:30:148,-1.0426,-0.41,10.1325,-0.4824,-0.7744,9.7641,-0.0005,-0.0023,-0.0142
6477,48.471966,-2.556388,116.47,27.89,6.432,127.0,17 / 20,647711,2019-08-18 15:24:30:248,-0.7104,-0.4022,9.9595,-0.4775,-0.77,9.7647,-0.0028,-0.0159,-0.0112
6478,48.471966,-2.556388,116.47,27.89,6.432,127.0,17 / 20,647811,2019-08-18 15:24:30:348,-0.7487,-0.4154,10.2726,-0.4623,-0.7588,9.7663,-0.0006,-0.0106,-0.0116
6479,48.471966,-2.556388,116.47,27.89,6.432,127.0,17 / 20,647911,2019-08-18 15:24:30:448,-0.6691,-0.5016,9.9805,-0.4536,-0.7591,9.7667,-0.0061,-0.0121,-0.0123
6480,48.471966,-2.556388,116.47,27.89,6.432,127.0,17 / 20,648011,2019-08-18 15:24:30:548,-0.9247,-0.5028,10.032,-0.4477,-0.7547,9.7673,-0.0065,-0.0112,-0.0138
6481,48.471966,-2.556388,116.47,27.89,6.432,127.0,17 / 20,648111,2019-08-18 15:24:30:648,-0.6769,-0.483,9.7542,-0.4419,-0.7549,9.7676,-0.0095,-0.0144,-0.0147
6482,48.471966,-2.556388,116.47,27.89,6.432,127.0,16 / 20,648211,2019-08-18 15:24:30:748,-0.5159,-0.3944,9.6112,-0.4341,-0.7609,9.7674,-0.0161,-0.0005,-0.0147
6483,48.471966,-2.556388,116.47,27.89,6.432,127.0,16 / 20,648311,2019-08-18 15:24:30:848,-0.7098,-0.4531,9.9781,-0.4388,-0.765,9.7669,-0.0084,-0.0019,-0.0131
6484,48.471966,-2.556388,116.47,27.89,6.432,127.0,16 / 20,648411,2019-08-18 15:24:30:948,-0.738,-0.589,10.1181,-0.4391,-0.7626,9.7671,-0.0021,-0.014,-0.0126
6485,48.471966,-2.556388,116.47,27.89,6.432,127.0,16 / 20,648511,2019-08-18 15:24:31:048,-0.6416,-0.5896,9.6555,-0.4333,-0.7568,9.7678,-0.0004,-0.0084,-0.0111
6486,48.471966,-2.556388,116.47,27.89,6.432,127.0,16 / 20,648611,2019-08-18 15:24:31:148,-0.714,-0.3753,9.7632,-0.4384,-0.7519,9.7679,-0.0051,-0.0077,-0.0107
6487,48.471966,-2.556388,116.47,27.89,6.432,127.0,16 / 20,648711,2019-08-18 15:24:31:248,-0.5057,-0.1293,9.8506,-0.4362,-0.7494,9.7682,-0.0044,-0.01,-0.0116
6488,48.471966,-2.556388,116.47,27.89,6.432,127.0,16 / 20,648811,2019-08-18 15:24:31:348,-0.5889,-0.2604,9.999,-0.4344,-0.7445,9.7687,-0.0043,-0.0176,-0.0108
6489,48.471966,-2.556388,116.47,27.89,6.432,127.0,16 / 20,648911,2019-08-18 15:24:31:448,-0.8218,-0.4226,10.3211,-0.4253,-0.7417,9.7693,-0.0086,-0.0108,-0.0113
6490,48.471966,-2.556388,116.47,27.89,6.432,127.0,16 / 20,649011,2019-08-18 15:24:31:548,-0.7344,-0.5968,10.2397,-0.4223,-0.7391,9.7696,-0.002,-0.0145,-0.0098
6491,48.471966,-2.556388,116.47,27.89,6.432,127.0,16 / 20,649111,2019-08-18 15:24:31:648,-0.6841,-0.5536,9.9128,-0.4127,-0.7347,9.7704,-0.0136,-0.0151,-0.0101
6492,48.471966,-2.556388,116.47,27.89,6.432,127.0,14 / 18,649211,2019-08-18 15:24:31:748,-0.8092,-0.2699,10.3259,-0.4088,-0.7343,9.7706,-0.0047,-0.0272,-0.0094
6493,48.471966,-2.556388,116.47,27.89,6.432,127.0,14 / 18,649311,2019-08-18 15:24:31:848,-0.6979,-0.3011,9.9362,-0.3818,-0.7301,9.772,-0.0091,-0.0123,-0.0097
6494,48.471966,-2.556388,116.47,27.89,6.432,127.0,14 / 18,649411,2019-08-18 15:24:31:948,-0.6344,-0.3382,9.5381,-0.3925,-0.7365,9.7711,-0.0182,0.0082,-0.0066
6495,48.471966,-2.556388,116.47,27.89,6.432,127.0,14 / 18,649511,2019-08-18 15:24:32:048,-0.5494,-0.4315,9.4011,-0.4137,-0.7238,9.7712,0.0076,0.0075,-0.0031
6496,48.471966,-2.556388,116.47,27.89,6.432,127.0,14 / 18,649611,2019-08-18 15:24:32:148,-0.7631,-0.3873,10.4928,-0.4189,-0.7019,9.7725,0.0169,-0.0201,-0.0064
6497,48.471966,-2.556388,116.47,27.89,6.432,127.0,14 / 18,649711,2019-08-18 15:24:32:248,-0.6787,-0.2789,10.4916,-0.4061,-0.6663,9.7756,0.0049,-0.0089,-0.0085
6498,48.471966,-2.556388,116.47,27.89,6.432,127.0,14 / 18,649811,2019-08-18 15:24:32:348,-0.8726,-0.1885,10.2899,-0.4093,-0.6569,9.7761,0.0034,0.0042,-0.0072
6499,48.471966,-2.556388,116.47,27.89,6.432,127.0,14 / 18,649911,2019-08-18 15:24:32:448,-0.5985,-0.2592,9.7913,-0.415,-0.6538,9.776,-0.013,-0.0106,-0.01
6500,48.471966,-2.556388,116.47,27.89,6.432,127.0,14 / 18,650012,2019-08-18 15:24:32:549,-0.7924,-0.3609,9.7596,-0.4139,-0.6547,9.776,-0.0018,-0.0144,-0.0075
6501,48.471966,-2.556388,116.47,27.89,6.432,127.0,14 / 18,650111,2019-08-18 15:24:32:648,-0.7326,-0.3867,10.3241,-0.3997,-0.6398,9.7776,0.0018,-0.0128,-0.0059
6502,48.471966,-2.556388,116.47,27.89,6.432,127.0,15 / 19,650211,2019-08-18 15:24:32:748,-0.7368,-0.2658,10.1666,-0.3983,-0.6347,9.778,-0.0056,-0.0083,-0.0065
6503,48.471966,-2.556388,116.47,27.89,6.432,127.0,15 / 19,650311,2019-08-18 15:24:32:848,-0.7511,-0.2071,9.7728,-0.3965,-0.6326,9.7782,-0.0082,-0.0171,-0.007
6504,48.471966,-2.556388,116.47,27.89,6.432,127.0,15 / 19,650412,2019-08-18 15:24:32:949,-0.6883,-0.2364,9.5884,-0.3943,-0.6296,9.7785,-0.0006,-0.0107,-0.0053
6505,48.471966,-2.556388,116.47,27.89,6.432,127.0,15 / 19,650511,2019-08-18 15:24:33:048,-0.8056,-0.1149,10.1894,-0.3892,-0.6252,9.779,-0.014,-0.0099,-0.0016
6506,48.471966,-2.556388,116.47,27.89,6.432,127.0,15 / 19,650611,2019-08-18 15:24:33:148,-0.7721,-0.2586,10.1684,-0.3902,-0.6217,9.7791,-0.0145,-0.0139,0.0042
6507,48.471966,-2.556388,116.47,27.89,6.432,127.0,15 / 19,650711,2019-08-18 15:24:33:248,-0.8786,0.0688,9.8871,-0.3883,-0.6179,9.7795,-0.0045,-0.0096,0.0066
6508,48.471966,-2.556388,116.47,27.89,6.432,127.0,15 / 19,650811,2019-08-18 15:24:33:348,-0.7703,-0.0587,9.6884,-0.388,-0.6068,9.7802,-0.0028,-0.0131,0.0067
6509,48.471966,-2.556388,116.47,27.89,6.432,127.0,15 / 19,650911,2019-08-18 15:24:33:448,-0.8876,0.2658,10.275,-0.3883,-0.5901,9.7812,-0.0027,-0.0135,0.0061
6510,48.471966,-2.556388,116.47,27.89,6.432,127.0,15 / 19,651011,2019-08-18 15:24:33:548,-0.7254,-0.1275,9.9805,-0.3831,-0.584,9.7817,-0.0033,-0.0155,0.0065
6511,48.471966,-2.556388,116.47,27.89,6.432,127.0,15 / 19,651111,2019-08-18 15:24:33:648,-1.0013,0.2484,10.0966,-0.3976,-0.5617,9.7825,0.0028,0.0029,0.006
6512,48.471966,-2.556388,116.47,27.89,6.432,127.0,15 / 20,651211,2019-08-18 15:24:33:748,-0.6823,-0.2849,10.1343,-0.4009,-0.5461,9.7832,0.0137,-0.0153,0.0042
6513,48.471966,-2.556388,116.47,27.89,6.432,127.0,15 / 20,651311,2019-08-18 15:24:33:848,-0.7942,0.0246,10.3606,-0.3994,-0.5344,9.7839,0.0031,-0.0276,0.0021
6514,48.471966,-2.556388,116.47,27.89,6.432,127.0,15 / 20,651411,2019-08-18 15:24:33:948,-0.6991,-0.1048,10.1989,-0.3797,-0.5125,9.7859,-0.0079,-0.0006,0.0013
6515,48.471966,-2.556388,116.47,27.89,6.432,127.0,15 / 20,651511,2019-08-18 15:24:34:048,-0.623,-0.2035,9.4023,-0.3797,-0.5124,9.7859,-0.0156,0.0046,-0.0025
6516,48.471966,-2.556388,116.47,27.89,6.432,127.0,15 / 20,651611,2019-08-18 15:24:34:148,-0.735,-0.0168,9.1874,-0.3927,-0.5157,9.7852,-0.0199,0.0051,-0.0054
6517,48.471966,-2.556388,116.47,27.89,6.432,127.0,15 / 20,651711,2019-08-18 15:24:34:248,-0.4848,-0.1287,9.4903,-0.3993,-0.5256,9.7844,-0.0126,-0.0135,-0.0068
6518,48.471966,-2.556388,116.47,27.89,6.432,127.0,15 / 20,651811,2019-08-18 15:24:34:348,-0.7128,-0.349,10.5856,-0.3895,-0.5304,9.7845,0.0071,-0.0237,-0.0051
6519,48.471966,-2.556388,116.47,27.89,6.432,127.0,15 / 20,651911,2019-08-18 15:24:34:448,-0.5823,-0.5243,10.6664,-0.3777,-0.5184,9.7857,0.0164,-0.023,-0.0024
6520,48.471966,-2.556388,116.47,27.89,6.432,127.0,15 / 20,652012,2019-08-18 15:24:34:549,-0.7769,-0.1772,10.278,-0.3734,-0.4925,9.7872,0.0035,-0.0094,-0.0046
6521,48.471966,-2.556388,116.47,27.89,6.432,127.0,15 / 20,652111,2019-08-18 15:24:34:648,-0.4339,-0.3603,9.7716,-0.375,-0.4868,9.7874,0.0061,-0.005,-0.0049
6522,48.471966,-2.556388,116.47,27.89,6.432,127.0,15 / 20,652213,2019-08-18 15:24:34:750,-0.3692,-0.0748,9.1551,-0.372,-0.4724,9.7882,0.0047,-0.0044,-0.0063
6523,48.471966,-2.556388,116.47,27.89,6.432,127.0,15 / 20,652311,2019-08-18 15:24:34:848,-0.8325,-0.243,9.932,-0.3747,-0.466,9.7884,0.002,0.0039,-0.008
6524,48.471966,-2.556388,116.47,27.89,6.432,127.0,15 / 20,652411,2019-08-18 15:24:34:948,-0.6601,-0.1425,9.7758,-0.3807,-0.4582,9.7885,0.0006,-0.0028,-0.0085
6525,48.471966,-2.556388,116.47,27.89,6.432,127.0,15 / 20,652512,2019-08-18 15:24:35:049,-0.635,-0.3094,10.023,-0.3816,-0.4554,9.7886,0.0001,-0.006,-0.0085
6526,48.471966,-2.556388,116.47,27.89,6.432,127.0,15 / 20,652612,2019-08-18 15:24:35:149,-0.6212,-0.2454,9.9829,-0.3784,-0.4458,9.7892,0.0048,-0.0053,-0.0066
6527,48.471966,-2.556388,116.47,27.89,6.432,127.0,15 / 20,652711,2019-08-18 15:24:35:248,-0.6183,-0.4878,10.6185,-0.3761,-0.444,9.7894,-0.0026,-0.0079,-0.0047
6528,48.471966,-2.556388,116.47,27.89,6.432,127.0,15 / 20,652811,2019-08-18 15:24:35:348,-0.6296,-0.2795,10.6275,-0.3763,-0.4394,9.7896,0.0,-0.008,-0.0034
6529,48.471966,-2.556388,116.47,27.89,6.432,127.0,15 / 20,652911,2019-08-18 15:24:35:448,-0.7428,-0.349,10.169,-0.3699,-0.4343,9.79,-0.0056,-0.0172,-0.0022
6530,48.471966,-2.556388,116.47,27.89,6.432,127.0,15 / 20,653011,2019-08-18 15:24:35:548,-0.8188,0.2418,9.3873,-0.373,-0.4306,9.7901,-0.0086,0.0042,0.0011
6531,48.471966,-2.556388,116.47,27.89,6.432,127.0,15 / 20,653111,2019-08-18 15:24:35:648,-0.7924,-0.2089,9.8081,-0.3795,-0.433,9.7897,0.0005,0.0086,0.0032
6532,48.471966,-2.556388,116.47,27.89,6.432,127.0,15 / 20,653212,2019-08-18 15:24:35:749,-0.6494,-0.1969,10.1433,-0.399,-0.4142,9.7898,0.0111,0.0012,0.0048
6533,48.471966,-2.556388,116.47,27.89,6.432,127.0,15 / 20,653311,2019-08-18 15:24:35:848,-0.89,-0.1161,10.2319,-0.4045,-0.404,9.79,0.0094,-0.0008,0.0043
6534,48.471966,-2.556388,116.47,27.89,6.432,127.0,15 / 20,653411,2019-08-18 15:24:35:948,-0.6476,-0.3519,10.087,-0.4125,-0.3754,9.7908,0.0147,-0.0034,0.0015
6535,48.471966,-2.556388,116.47,27.89,6.432,127.0,15 / 20,653511,2019-08-18 15:24:36:048,-0.8762,0.0365,9.832,-0.4123,-0.365,9.7912,0.0128,-0.0125,0.0022
6536,48.471966,-2.556388,116.47,27.89,6.432,127.0,15 / 20,653612,2019-08-18 15:24:36:149,-0.632,0.1107,10.0296,-0.4184,-0.3353,9.792,0.0103,-0.0022,0.0
6537,48.471966,-2.556388,116.47,27.89,6.432,127.0,15 / 20,653711,2019-08-18 15:24:36:248,-0.8846,-0.0407,10.5,-0.4229,-0.328,9.792,-0.0081,-0.0144,0.0012
6538,48.471966,-2.556388,116.47,27.89,6.432,127.0,15 / 20,653811,2019-08-18 15:24:36:348,-0.6338,-0.1293,10.3372,-0.4186,-0.3268,9.7923,0.0024,-0.0085,0.0006
6539,48.471966,-2.556388,116.47,27.89,6.432,127.0,15 / 20,653911,2019-08-18 15:24:36:448,-0.7326,0.0455,9.7057,-0.4216,-0.3168,9.7925,0.0,0.003,0.0013
6540,48.471966,-2.556388,116.47,27.89,6.432,127.0,15 / 20,654011,2019-08-18 15:24:36:548,-0.9085,-0.0072,9.7662,-0.4293,-0.3103,9.7923,-0.0056,-0.0171,0.0004
6541,48.471966,-2.556388,116.47,27.89,6.432,127.0,15 / 20,654111,2019-08-18 15:24:36:648,-0.7074,0.0251,10.4282,-0.4201,-0.3078,9.7928,-0.0062,-0.0226,0.0008
6542,48.470448,-2.553872,114.06,27.8,4.288,133.6,Nov-18,654211,2019-08-18 15:24:36:748,-0.9289,-0.2532,10.3223,-0.4044,-0.3109,9.7934,-0.0088,-0.0116,-0.0007
6543,48.470448,-2.553872,114.06,27.8,4.288,133.6,Nov-18,654311,2019-08-18 15:24:36:848,-0.8613,-0.0449,10.609,-0.4026,-0.3153,9.7933,-0.0153,-0.0144,-0.0013
6544,48.470448,-2.553872,114.06,27.8,4.288,133.6,Nov-18,654412,2019-08-18 15:24:36:949,-0.6787,-0.1024,9.8368,-0.3938,-0.3238,9.7934,-0.0127,-0.0139,-0.0001
6545,48.470448,-2.553872,114.06,27.8,4.288,133.6,Nov-18,654511,2019-08-18 15:24:37:048,-0.7254,0.0569,9.8177,-0.3936,-0.3243,9.7934,-0.0067,-0.0065,0.0024
6546,48.470448,-2.553872,114.06,27.8,4.288,133.6,Nov-18,654611,2019-08-18 15:24:37:148,-0.6608,-0.0371,9.8853,-0.3961,-0.3247,9.7933,-0.0008,0.0029,0.0026
6547,48.470448,-2.553872,114.06,27.8,4.288,133.6,Nov-18,654711,2019-08-18 15:24:37:248,-0.7404,-0.2735,10.0882,-0.4124,-0.3189,9.7928,-0.0092,-0.0097,0.0012
6548,48.470448,-2.553872,114.06,27.8,4.288,133.6,Nov-18,654811,2019-08-18 15:24:37:348,-0.6955,0.1042,9.4364,-0.4118,-0.3195,9.7928,-0.0107,-0.018,0.0011
6549,48.470448,-2.553872,114.06,27.8,4.288,133.6,Nov-18,654911,2019-08-18 15:24:37:448,-0.7152,0.0539,9.4196,-0.405,-0.3213,9.793,-0.0074,0.0026,-0.0007
6550,48.470448,-2.553872,114.06,27.8,4.288,133.6,Nov-18,655011,2019-08-18 15:24:37:548,-0.6452,-0.1784,10.4049,-0.411,-0.3235,9.7927,-0.0066,-0.0014,0.0004
6551,48.470448,-2.553872,114.06,27.8,4.288,133.6,Nov-18,655111,2019-08-18 15:24:37:648,-0.7032,-0.1335,9.9505,-0.415,-0.3164,9.7928,-0.0006,-0.0089,0.0009
6552,48.470448,-2.553872,114.06,27.8,4.288,133.6,Nov-18,655211,2019-08-18 15:24:37:748,-0.6787,-0.1125,9.7057,-0.418,-0.3154,9.7927,-0.0061,-0.0012,0.0001
6553,48.470448,-2.553872,114.06,27.8,4.288,133.6,Nov-18,655313,2019-08-18 15:24:37:850,-0.8625,0.2454,9.6501,-0.4295,-0.3163,9.7921,-0.002,-0.0017,0.0006
6554,48.470448,-2.553872,114.06,27.8,4.288,133.6,Nov-18,655412,2019-08-18 15:24:37:949,-0.6649,-0.3322,10.1229,-0.431,-0.3159,9.7921,-0.0062,-0.0074,0.0009
