,GPS LATITUDE (degrees),GPS LONGITUDE (degrees), GPS ALTITUDE (m),GPS SPEED (Kmh),GPS ACCURACY (m),GPS ORIENTATION (Â°), SATELLITES IN RANGE, TIME SINCE START (ms), DATE (YYYY-MO-DD HH-MI-SS_SSS),ACCELEROMETER X (m/s²) , ACCELEROMETER Y (m/s²), ACCELEROMETER Z (m/s²), GRAVITY X (m/s²), GRAVITY Y (m/s²), GRAVITY Z (m/s²), GYROSCOPE Yaw (rad/s), GYROSCOPE Pitch (rad/s), GYROSCOPE Roll (rad/s)
70167,45.6811,0.122845,136.51,26.99,20.368,118.3,0 / 17,7016645,2019-08-19 00:16:46:178,-0.3694,0.5701,9.6194,-0.4445,0.6584,9.7744,-0.0206,0.0098,0.016
70168,45.6811,0.122845,136.51,26.99,20.368,118.3,0 / 17,7016746,2019-08-19 00:16:46:279,-0.5478,0.2935,9.5488,-0.4546,0.6428,9.775,-0.011,0.013,0.0149
70169,45.6811,0.122845,136.51,26.99,20.368,118.3,0 / 17,7016846,2019-08-19 00:16:46:379,-0.5382,0.3103,9.319,-0.4637,0.624,9.7758,-0.0004,0.0034,0.016
70170,45.6811,0.122845,136.51,26.99,20.368,118.3,0 / 17,7016945,2019-08-19 00:16:46:478,-0.4466,0.4025,9.8984,-0.4714,0.5586,9.7794,-0.0004,-0.0009,0.0149
70171,45.6811,0.122845,136.51,26.99,20.368,118.3,0 / 17,7017045,2019-08-19 00:16:46:578,-0.4478,0.3498,9.808,-0.4657,0.513,9.7821,-0.0057,-0.0051,0.0149
70172,45.6811,0.122845,136.51,26.99,20.368,118.3,0 / 17,7017146,2019-08-19 00:16:46:679,-0.6106,0.3025,9.5638,-0.4878,0.4655,9.7834,-0.0046,0.0076,0.0171
70173,45.6811,0.122845,136.51,26.99,20.368,118.3,0 / 17,7017245,2019-08-19 00:16:46:778,-0.4879,0.2181,9.4147,-0.4883,0.4329,9.7849,-0.0132,-0.0009,0.016
70174,45.6811,0.122845,136.51,26.99,20.368,118.3,0 / 17,7017346,2019-08-19 00:16:46:879,-0.4053,0.3259,9.8648,-0.4849,0.4226,9.7855,-0.0014,-0.0009,0.016
70175,45.6811,0.122845,136.51,26.99,20.368,118.3,0 / 17,7017445,2019-08-19 00:16:46:978,-0.3778,0.1026,9.3986,-0.4833,0.406,9.7863,0.0049,0.0045,0.0192
70176,45.6811,0.122845,136.51,26.99,20.368,118.3,0 / 17,7017545,2019-08-19 00:16:47:078,-0.4359,0.6048,9.559,-0.477,0.403,9.7867,0.0018,0.0013,0.0192
70177,45.6811,0.122845,136.51,26.99,20.368,118.3,0 / 17,7017646,2019-08-19 00:16:47:179,-0.3281,0.4061,9.7828,-0.4565,0.4121,9.7873,-0.0036,-0.0062,0.0203
70178,45.6811,0.122845,136.51,26.99,20.368,118.3,0 / 17,7017746,2019-08-19 00:16:47:279,-0.2383,0.4432,10.1533,-0.4374,0.4273,9.7876,0.0007,0.0023,0.0235
70179,45.6811,0.122845,136.51,26.99,20.368,118.3,0 / 17,7017846,2019-08-19 00:16:47:379,-0.3988,0.3636,9.7876,-0.4346,0.4439,9.787,-0.0004,-0.0073,0.0256
70180,45.6811,0.122845,136.51,26.99,20.368,118.3,0 / 17,7017945,2019-08-19 00:16:47:478,-0.467,0.3444,9.9887,-0.4262,0.4565,9.7867,-0.0025,-0.0158,0.0266
70181,45.6811,0.122845,136.51,26.99,20.368,118.3,0 / 17,7018045,2019-08-19 00:16:47:578,-0.3856,0.5826,9.6386,-0.4203,0.4868,9.7855,-0.0046,-0.0041,0.0245
70182,45.6811,0.122845,136.51,26.99,20.368,118.3,0 / 17,7018146,2019-08-19 00:16:47:679,-0.2419,0.5653,10.3802,-0.409,0.5047,9.7851,-0.01,-0.0019,0.0235
70183,45.6811,0.122845,136.51,26.99,20.368,118.3,0 / 17,7018246,2019-08-19 00:16:47:779,-0.3832,0.5228,9.7966,-0.4118,0.5037,9.785,-0.01,0.0066,0.0235
70184,45.6811,0.122845,136.51,26.99,20.368,118.3,0 / 17,7018346,2019-08-19 00:16:47:879,-0.5616,0.6467,9.5243,-0.422,0.5054,9.7845,0.0028,0.0108,0.0266
70185,45.6811,0.122845,136.51,26.99,20.368,118.3,0 / 17,7018445,2019-08-19 00:16:47:978,-0.2916,0.688,9.4279,-0.4234,0.526,9.7834,0.0071,0.0045,0.0309
70186,45.6811,0.122845,136.51,26.99,20.368,118.3,0 / 17,7018546,2019-08-19 00:16:48:079,-0.4909,0.7119,10.2874,-0.4253,0.5543,9.7817,0.0018,0.0023,0.033
70187,45.6811,0.122845,136.51,26.99,20.368,118.3,0 / 17,7018645,2019-08-19 00:16:48:178,-0.467,0.673,9.7727,-0.4194,0.5668,9.7813,0.0007,-0.0041,0.032
70188,45.6811,0.122845,136.51,26.99,20.368,118.3,0 / 17,7018746,2019-08-19 00:16:48:279,-0.6053,0.4958,9.6332,-0.4344,0.6339,9.7765,-0.0025,0.0013,0.032
70189,45.6811,0.122845,136.51,26.99,20.368,118.3,0 / 17,7018846,2019-08-19 00:16:48:379,-0.3138,0.9454,9.887,-0.4303,0.6729,9.7741,0.0007,-0.0019,0.032
70190,45.6811,0.122845,136.51,26.99,20.368,118.3,0 / 17,7018946,2019-08-19 00:16:48:479,-0.376,0.7598,9.9349,-0.418,0.6881,9.7735,-0.0004,-0.0051,0.032
70191,45.6811,0.122845,136.51,26.99,20.368,118.3,0 / 17,7019046,2019-08-19 00:16:48:579,-0.4418,0.7879,9.9061,-0.4244,0.7072,9.7719,0.0007,-0.0083,0.032
70192,45.6811,0.122845,136.51,26.99,20.368,118.3,0 / 17,7019147,2019-08-19 00:16:48:680,-0.5544,0.6664,9.8439,-0.4226,0.7226,9.7709,-0.0014,-0.0009,0.032
70193,45.6811,0.122845,136.51,26.99,20.368,118.3,0 / 17,7019246,2019-08-19 00:16:48:779,-0.2162,0.8484,9.6476,-0.4135,0.7203,9.7714,-0.0046,0.0087,0.0298
70194,45.6811,0.122845,136.51,26.99,20.368,118.3,0 / 17,7019345,2019-08-19 00:16:48:878,-0.2749,0.7885,10.1156,-0.4117,0.726,9.7711,-0.0004,-0.0062,0.0309
70195,45.6811,0.122845,136.51,26.99,20.368,118.3,0 / 17,7019446,2019-08-19 00:16:48:979,-0.5149,0.9172,9.8038,-0.4129,0.727,9.7709,-0.0078,-0.0019,0.0309
70196,45.6811,0.122845,136.51,26.99,20.368,118.3,0 / 17,7019546,2019-08-19 00:16:49:079,-0.4227,0.7437,9.1316,-0.4002,0.7391,9.7706,0.0028,0.0108,0.032
70197,45.6811,0.122845,136.51,26.99,20.368,118.3,0 / 17,7019645,2019-08-19 00:16:49:178,-0.3503,0.7425,9.4895,-0.398,0.7514,9.7697,0.0081,0.0045,0.032
70198,45.6811,0.122845,136.51,26.99,20.368,118.3,0 / 17,7019746,2019-08-19 00:16:49:279,-0.3952,0.8681,9.8714,-0.3832,0.7593,9.7697,0.0018,-0.0019,0.0373
70199,45.6811,0.122845,136.51,26.99,20.368,118.3,0 / 17,7019846,2019-08-19 00:16:49:379,-0.522,1.0561,9.3477,-0.3895,0.7673,9.7688,0.0028,0.0098,0.0373
70200,45.6811,0.122845,136.51,26.99,20.368,118.3,0 / 17,7019945,2019-08-19 00:16:49:478,-0.4832,0.8735,9.5398,-0.3816,0.7775,9.7683,-0.0014,-0.0126,0.0384
70201,45.6811,0.122845,136.51,26.99,20.368,118.3,0 / 17,7020045,2019-08-19 00:16:49:578,-0.4233,1.0615,9.9582,-0.3729,0.7792,9.7685,-0.0046,-0.0115,0.0384
70202,45.6811,0.122845,136.51,26.99,20.368,118.3,0 / 17,7020146,2019-08-19 00:16:49:679,-0.4131,0.8616,10.0731,-0.3702,0.7779,9.7687,-0.0142,0.0013,0.0373
70203,45.6811,0.122845,136.51,26.99,20.368,118.3,0 / 17,7020246,2019-08-19 00:16:49:779,-0.4855,0.9609,9.5662,-0.3845,0.7962,9.7667,-0.01,0.0013,0.0373
70204,45.6811,0.122845,136.51,26.99,20.368,118.3,0 / 17,7020346,2019-08-19 00:16:49:879,-0.6465,0.9735,9.8355,-0.4036,0.8243,9.7636,-0.0046,-0.003,0.0384
70205,45.6811,0.122845,136.51,26.99,20.368,118.3,0 / 17,7020446,2019-08-19 00:16:49:979,-0.4131,1.0118,9.8726,-0.4243,0.8456,9.7609,0.0007,0.0002,0.0373
70206,45.6811,0.122845,136.51,26.99,20.368,118.3,0 / 17,7020545,2019-08-19 00:16:50:078,-0.3754,0.9855,9.7337,-0.4386,0.8723,9.7579,-0.0004,0.0045,0.0384
70207,45.6811,0.122845,136.51,26.99,20.368,118.3,0 / 17,7020645,2019-08-19 00:16:50:178,-0.5023,0.9765,9.5512,-0.4502,0.8803,9.7567,0.0007,0.0023,0.0384
70208,45.6811,0.122845,136.51,26.99,20.368,118.3,0 / 17,7020746,2019-08-19 00:16:50:279,-0.5538,0.8681,9.7601,-0.4504,0.8906,9.7557,-0.0004,-0.0051,0.0362
70209,45.6811,0.122845,136.51,26.99,20.368,118.3,0 / 17,7020846,2019-08-19 00:16:50:379,-0.4646,0.9885,9.486,-0.4448,0.8861,9.7564,0.0007,0.0034,0.0341
70210,45.6811,0.122845,136.51,26.99,20.368,118.3,0 / 17,7020946,2019-08-19 00:16:50:479,-0.3634,0.9083,9.5979,-0.4405,0.8716,9.7579,-0.0004,0.013,0.0309
70211,45.6811,0.122845,136.51,26.99,20.368,118.3,0 / 17,7021046,2019-08-19 00:16:50:579,-0.6352,0.758,9.4596,-0.449,0.8653,9.7581,0.0028,0.0119,0.032
70212,45.6811,0.122845,136.51,26.99,20.368,118.3,0 / 17,7021146,2019-08-19 00:16:50:679,-0.4897,0.7269,9.8283,-0.4591,0.8637,9.7577,0.0103,-0.0009,0.032
70213,45.6811,0.122845,136.51,26.99,20.368,118.3,0 / 17,7021245,2019-08-19 00:16:50:778,-0.5077,0.6748,9.9025,-0.4515,0.8414,9.7601,0.0081,-0.0115,0.032
70214,45.6811,0.122845,136.51,26.99,20.368,118.3,0 / 17,7021345,2019-08-19 00:16:50:878,-0.5741,0.8885,9.9157,-0.4435,0.8497,9.7597,0.0113,-0.0094,0.0309
70215,45.6811,0.122845,136.51,26.99,20.368,118.3,0 / 17,7021445,2019-08-19 00:16:50:978,-0.5131,0.615,9.7613,-0.4436,0.8527,9.7594,0.0018,0.0023,0.0309
70216,45.6811,0.122845,136.51,26.99,20.368,118.3,0 / 17,7021545,2019-08-19 00:16:51:078,-0.4867,0.8418,10.1078,-0.4488,0.8272,9.7614,-0.0089,-0.0094,0.0309
70217,45.6811,0.122845,136.51,26.99,20.368,118.3,0 / 17,7021646,2019-08-19 00:16:51:179,-0.5286,0.8352,9.8547,-0.4602,0.8163,9.7618,-0.0036,-0.0169,0.0309
70218,45.6811,0.122845,136.51,26.99,20.368,118.3,0 / 17,7021746,2019-08-19 00:16:51:279,-0.3299,0.8089,10.4694,-0.4465,0.7913,9.7645,-0.0068,-0.0115,0.0298
70219,45.6811,0.122845,136.51,26.99,20.368,118.3,0 / 17,7021846,2019-08-19 00:16:51:379,-0.4604,0.5976,9.9881,-0.4583,0.7762,9.7651,-0.01,0.0002,0.0298
70220,45.6811,0.122845,136.51,26.99,20.368,118.3,0 / 17,7021946,2019-08-19 00:16:51:479,-0.5921,0.7365,9.9839,-0.463,0.7671,9.7656,-0.01,0.0045,0.0288
70221,45.6811,0.122845,136.51,26.99,20.368,118.3,0 / 17,7022046,2019-08-19 00:16:51:579,-0.892,0.785,10.2569,-0.4718,0.7301,9.768,-0.0217,-0.0019,0.032
70222,45.6811,0.122845,136.51,26.99,20.368,118.3,0 / 17,7022146,2019-08-19 00:16:51:679,0.0244,0.7311,10.0468,-0.4635,0.7228,9.769,-0.0121,-0.0062,0.032
70223,45.6811,0.122845,136.51,26.99,20.368,118.3,0 / 17,7022245,2019-08-19 00:16:51:778,-0.4508,0.8071,9.5446,-0.4604,0.7134,9.7698,-0.0206,-0.003,0.033
70224,45.6811,0.122845,136.51,26.99,20.368,118.3,0 / 17,7022346,2019-08-19 00:16:51:879,-0.4317,0.6856,9.2813,-0.4879,0.7033,9.7692,-0.0078,0.0322,0.0309
70225,45.6811,0.122845,136.51,26.99,20.368,118.3,0 / 17,7022445,2019-08-19 00:16:51:978,-0.6861,0.5844,9.0197,-0.5106,0.7102,9.7676,0.0039,0.0055,0.0352
70226,45.6811,0.122845,136.51,26.99,20.368,118.3,0 / 17,7022545,2019-08-19 00:16:52:078,-0.4891,0.6856,9.9959,-0.5053,0.7141,9.7676,-0.0036,-0.0094,0.0341
70227,45.6811,0.122845,136.51,26.99,20.368,118.3,0 / 17,7022645,2019-08-19 00:16:52:178,-0.6005,0.8358,10.306,-0.4966,0.7217,9.7674,0.0081,-0.0094,0.032
70228,45.6811,0.122845,136.51,26.99,20.368,118.3,0 / 17,7022745,2019-08-19 00:16:52:278,-0.4472,0.609,10.2066,-0.4932,0.7324,9.7668,0.0167,-0.0019,0.0309
70229,45.6811,0.122845,136.51,26.99,20.368,118.3,0 / 17,7022845,2019-08-19 00:16:52:378,-0.8195,0.7209,9.5739,-0.4959,0.731,9.7668,-0.0046,0.0023,0.0298
70230,45.6811,0.122845,136.51,26.99,20.368,118.3,0 / 17,7022946,2019-08-19 00:16:52:479,-0.5777,0.5641,10.2329,-0.503,0.7276,9.7667,-0.0004,0.0055,0.0309
70231,45.6811,0.122845,136.51,26.99,20.368,118.3,0 / 17,7023046,2019-08-19 00:16:52:579,-0.5155,0.7131,9.3818,-0.5028,0.7328,9.7663,0.0081,-0.0009,0.0309
70232,45.6811,0.122845,136.51,26.99,20.368,118.3,0 / 17,7023145,2019-08-19 00:16:52:678,-0.5262,0.8035,9.9869,-0.5003,0.7381,9.766,0.0081,-0.0019,0.032
70233,45.6811,0.122845,136.51,26.99,20.368,118.3,0 / 17,7023245,2019-08-19 00:16:52:778,-0.6657,0.5408,9.7284,-0.5214,0.7159,9.7666,0.0092,-0.0041,0.0298
70234,45.6811,0.122845,136.51,26.99,20.368,118.3,0 / 17,7023346,2019-08-19 00:16:52:879,-0.78,0.6694,9.805,-0.5324,0.7279,9.7651,0.0049,0.0023,0.0277
70235,45.6811,0.122845,136.51,26.99,20.368,118.3,0 / 17,7023446,2019-08-19 00:16:52:979,-0.5705,0.6407,10.1851,-0.5322,0.7225,9.7655,0.0007,-0.0115,0.0277
70236,45.6811,0.122845,136.51,26.99,20.368,118.3,0 / 17,7023546,2019-08-19 00:16:53:079,-0.3168,0.5904,9.3273,-0.5433,0.7124,9.7656,-0.0185,0.0204,0.0266
70237,45.6811,0.122845,136.51,26.99,20.368,118.3,0 / 17,7023646,2019-08-19 00:16:53:179,-0.4538,0.7054,9.6129,-0.5478,0.7042,9.766,-0.0036,-0.0019,0.0266
70238,45.6811,0.122845,136.51,26.99,20.368,118.3,0 / 17,7023746,2019-08-19 00:16:53:279,-0.8914,0.8167,9.708,-0.5519,0.7017,9.7659,0.0039,0.0013,0.0288
70239,45.6811,0.122845,136.51,26.99,20.368,118.3,0 / 17,7023845,2019-08-19 00:16:53:378,-0.5867,0.5964,9.7517,-0.5517,0.6965,9.7663,-0.0036,-0.0019,0.0277
70240,45.6811,0.122845,136.51,26.99,20.368,118.3,0 / 17,7023946,2019-08-19 00:16:53:479,-0.4413,0.673,9.9672,-0.5479,0.6993,9.7663,0.0049,-0.0041,0.0288
70241,45.6811,0.122845,136.51,26.99,20.368,118.3,0 / 17,7024046,2019-08-19 00:16:53:579,-0.5131,0.6922,10.2473,-0.5381,0.6985,9.7669,0.0007,-0.0094,0.0288
70242,45.6811,0.122845,136.51,26.99,20.368,118.3,0 / 17,7024145,2019-08-19 00:16:53:678,-0.6358,0.6156,9.8696,-0.5418,0.6857,9.7676,-0.0014,-0.0041,0.0277
70243,45.6811,0.122845,136.51,26.99,20.368,118.3,0 / 17,7024245,2019-08-19 00:16:53:778,-0.5388,0.6928,9.4638,-0.5366,0.6807,9.7683,-0.0068,0.0098,0.0266
70244,45.6811,0.122845,136.51,26.99,20.368,118.3,0 / 17,7024346,2019-08-19 00:16:53:879,-0.4454,0.5671,9.7296,-0.5407,0.6771,9.7683,-0.0025,0.0066,0.0266
70245,45.6811,0.122845,136.51,26.99,20.368,118.3,Oct-17,7024446,2019-08-19 00:16:53:979,-0.6011,0.5844,10.106,-0.5337,0.6809,9.7684,0.0028,-0.0094,0.0256
70246,45.6811,0.122845,136.51,26.99,20.368,118.3,Oct-17,7024545,2019-08-19 00:16:54:078,-0.5897,0.6593,9.8523,-0.5288,0.6818,9.7686,0.0039,-0.0041,0.0266
70247,45.6811,0.122845,136.51,26.99,20.368,118.3,Oct-17,7024645,2019-08-19 00:16:54:178,-0.5645,0.77,9.5632,-0.5354,0.6868,9.7679,0.0071,0.0119,0.0277
70248,45.6811,0.122845,136.51,26.99,20.368,118.3,Oct-17,7024745,2019-08-19 00:16:54:278,-0.5191,0.5455,9.9307,-0.5437,0.6931,9.767,0.0135,0.013,0.0266
70249,45.6811,0.122845,136.51,26.99,20.368,118.3,Oct-17,7024846,2019-08-19 00:16:54:379,-0.3652,0.6305,9.6176,-0.528,0.6836,9.7685,0.006,-0.0051,0.0256
70250,45.6811,0.122845,136.51,26.99,20.368,118.3,Oct-17,7024945,2019-08-19 00:16:54:478,-0.461,0.4875,9.7481,-0.5158,0.6677,9.7703,-0.0025,-0.0019,0.0256
70251,45.6811,0.122845,136.51,26.99,20.368,118.3,Oct-17,7025045,2019-08-19 00:16:54:578,-0.5418,0.7371,9.7152,-0.5264,0.6598,9.7703,0.0049,0.0076,0.0235
70252,45.6811,0.122845,136.51,26.99,20.368,118.3,Oct-17,7025145,2019-08-19 00:16:54:678,-0.5215,0.4941,9.3734,-0.5265,0.6566,9.7705,0.0039,0.0119,0.0213
70253,45.6811,0.122845,136.51,26.99,20.368,118.3,Oct-17,7025245,2019-08-19 00:16:54:778,-0.4299,0.5964,9.6188,-0.5217,0.6339,9.7722,0.0028,-0.0019,0.0171
70254,45.6811,0.122845,136.51,26.99,20.368,118.3,Oct-17,7025345,2019-08-19 00:16:54:878,-0.4239,0.5084,9.5117,-0.5373,0.2412,9.789,0.0176,0.0008,0.0144
70255,45.68047,0.12602,130.89,28.05,8.576,100.5,0 / 17,7025446,2019-08-19 00:16:54:979,-0.4371,0.2187,9.5703,-0.4777,0.3671,9.7881,0.0124,0.0022,0.0146
70256,45.68047,0.12602,130.89,28.05,8.576,100.5,0 / 17,7025545,2019-08-19 00:16:55:078,-0.6154,0.2708,10.0151,-0.4743,0.379,9.7878,0.0168,-0.0025,0.0146
70257,45.68047,0.12602,130.89,28.05,8.576,100.5,0 / 17,7025645,2019-08-19 00:16:55:178,-0.3305,0.351,9.7505,-0.4665,0.3868,9.7879,0.0171,0.001,0.0147
70258,45.68047,0.12602,130.89,28.05,8.576,100.5,0 / 17,7025745,2019-08-19 00:16:55:278,-0.3772,0.3845,9.7685,-0.4645,0.4071,9.7872,0.0131,-0.0014,0.0143
70259,45.68047,0.12602,130.89,28.05,8.576,100.5,0 / 17,7025846,2019-08-19 00:16:55:379,-0.4191,0.664,9.778,-0.4605,0.4143,9.7871,0.0108,-0.0082,0.0142
70260,45.68047,0.12602,130.89,28.05,8.576,100.5,0 / 17,7025946,2019-08-19 00:16:55:479,-0.5382,0.3702,9.6015,-0.4498,0.433,9.7868,0.012,0.0084,0.0139
70261,45.68047,0.12602,130.89,28.05,8.576,100.5,0 / 17,7026045,2019-08-19 00:16:55:578,-0.4323,0.3085,9.6087,-0.4599,0.4428,9.7858,0.0121,0.0114,0.0142
70262,45.68047,0.12602,130.89,28.05,8.576,100.5,0 / 17,7026146,2019-08-19 00:16:55:679,-0.3317,0.4498,10.024,-0.4624,0.4629,9.7848,0.0207,-0.0034,0.0153
70263,45.68047,0.12602,130.89,28.05,8.576,100.5,0 / 17,7026245,2019-08-19 00:16:55:778,-0.3126,0.6646,9.9486,-0.4547,0.4739,9.7846,0.019,-0.0114,0.0162
70264,45.68047,0.12602,130.89,28.05,8.576,100.5,0 / 17,7026345,2019-08-19 00:16:55:878,-0.6364,0.4893,9.869,-0.4469,0.5083,9.7833,0.0177,-0.0034,0.0177
70265,45.68047,0.12602,130.89,28.05,8.576,100.5,0 / 17,7026446,2019-08-19 00:16:55:979,-0.5867,0.7,9.5781,-0.4463,0.5225,9.7825,0.0128,0.0042,0.0173
70266,45.68047,0.12602,130.89,28.05,8.576,100.5,0 / 17,7026546,2019-08-19 00:16:56:079,-0.3575,0.4719,9.699,-0.4596,0.5388,9.781,0.0033,0.0128,0.0164
70267,45.68047,0.12602,130.89,28.05,8.576,100.5,0 / 17,7026646,2019-08-19 00:16:56:179,-0.3946,0.7754,9.4638,-0.4695,0.5502,9.7799,0.0061,0.0178,0.0166
70268,45.68047,0.12602,130.89,28.05,8.576,100.5,0 / 17,7026746,2019-08-19 00:16:56:279,-0.464,0.4659,9.8798,-0.4862,0.5584,9.7787,0.0114,-0.001,0.0166
70269,45.68047,0.12602,130.89,28.05,8.576,100.5,0 / 17,7026846,2019-08-19 00:16:56:379,-0.5526,0.4372,9.787,-0.4873,0.5724,9.7778,0.0158,-0.0076,0.0177
70270,45.68047,0.12602,130.89,28.05,8.576,100.5,0 / 17,7026946,2019-08-19 00:16:56:479,-0.4478,0.7077,9.8044,-0.4817,0.5873,9.7772,0.0143,-0.007,0.0175
70271,45.68047,0.12602,130.89,28.05,8.576,100.5,0 / 17,7027045,2019-08-19 00:16:56:578,-0.4604,0.6976,9.8541,-0.4844,0.6079,9.7758,0.0162,0.0072,0.015
70272,45.68047,0.12602,130.89,28.05,8.576,100.5,0 / 17,7027145,2019-08-19 00:16:56:678,-0.2413,0.4067,9.8541,-0.485,0.6177,9.7752,0.0159,0.0054,0.0145
70273,45.68047,0.12602,130.89,28.05,8.576,100.5,0 / 17,7027246,2019-08-19 00:16:56:779,-0.7669,0.5964,9.4806,-0.4858,0.6365,9.7739,0.0135,0.0013,0.0134
70274,45.68047,0.12602,130.89,28.05,8.576,100.5,0 / 17,7027346,2019-08-19 00:16:56:879,-0.4754,0.4611,9.9019,-0.4846,0.6388,9.7738,0.0003,-0.0083,0.0131
70275,45.68047,0.12602,130.89,28.05,8.576,100.5,0 / 17,7027445,2019-08-19 00:16:56:978,-0.5442,0.6443,9.86,-0.4695,0.6474,9.774,0.0105,-0.0037,0.0129
70276,45.68047,0.12602,130.89,28.05,8.576,100.5,0 / 17,7027545,2019-08-19 00:16:57:078,-0.2413,0.7951,9.9043,-0.4687,0.6509,9.7738,0.0094,0.0072,0.0136
70277,45.68047,0.12602,130.89,28.05,8.576,100.5,0 / 17,7027646,2019-08-19 00:16:57:179,-0.3706,0.5743,9.7014,-0.4704,0.6622,9.773,0.0085,0.0006,0.0144
70278,45.68047,0.12602,130.89,28.05,8.576,100.5,0 / 17,7027746,2019-08-19 00:16:57:279,-0.3515,0.5737,9.8217,-0.4652,0.6696,9.7727,0.008,-0.006,0.0112
70279,45.68047,0.12602,130.89,28.05,8.576,100.5,0 / 17,7027845,2019-08-19 00:16:57:378,-0.5675,0.6192,10.2066,-0.4559,0.6763,9.7727,0.0075,-0.0032,0.012
70280,45.68047,0.12602,130.89,28.05,8.576,100.5,0 / 17,7027946,2019-08-19 00:16:57:479,-0.4885,0.6216,9.55,-0.4524,0.6789,9.7727,0.0092,-0.0027,0.0117
70281,45.68047,0.12602,130.89,28.05,8.576,100.5,0 / 17,7028046,2019-08-19 00:16:57:579,-0.306,0.5581,9.7284,-0.4514,0.6915,9.7718,0.0141,0.0081,0.0113
70282,45.68047,0.12602,130.89,28.05,8.576,100.5,0 / 17,7028146,2019-08-19 00:16:57:679,-0.3455,0.7215,9.8163,-0.4558,0.6933,9.7715,0.0109,0.0085,0.0097
70283,45.68047,0.12602,130.89,28.05,8.576,100.5,0 / 17,7028246,2019-08-19 00:16:57:779,-0.455,0.5192,9.4279,-0.4646,0.6977,9.7708,0.0057,-0.0013,0.0088
70284,45.68047,0.12602,130.89,28.05,8.576,100.5,0 / 17,7028346,2019-08-19 00:16:57:879,-0.5197,0.5569,10.1318,-0.4611,0.6985,9.7709,0.0031,-0.0178,0.0064
70285,45.68047,0.12602,130.89,28.05,8.576,100.5,0 / 17,7028446,2019-08-19 00:16:57:979,-0.4526,0.2163,10.1988,-0.4327,0.6812,9.7734,-0.0073,-0.0141,-0.0039
70286,45.68047,0.12602,130.89,28.05,8.576,100.5,0 / 17,7028545,2019-08-19 00:16:58:078,-0.3275,0.254,10.1803,-0.4268,0.6697,9.7744,-0.0092,-0.002,-0.0092
70287,45.68047,0.12602,130.89,28.05,8.576,100.5,0 / 17,7028645,2019-08-19 00:16:58:178,-0.2461,0.1242,9.7062,-0.4331,0.6352,9.7765,-0.0055,0.0122,-0.01
70288,45.68047,0.12602,130.89,28.05,8.576,100.5,0 / 17,7028746,2019-08-19 00:16:58:279,-0.4646,-0.1302,9.6111,-0.4387,0.6232,9.777,0.0028,0.01,-0.0081
70289,45.68047,0.12602,130.89,28.05,8.576,100.5,0 / 17,7028846,2019-08-19 00:16:58:379,-0.3856,0.1601,9.5249,-0.4417,0.6063,9.7779,0.0055,0.0027,-0.0082
70290,45.68047,0.12602,130.89,28.05,8.576,100.5,0 / 17,7028945,2019-08-19 00:16:58:478,-0.2892,0.0038,9.4435,-0.4409,0.5981,9.7785,0.004,0.0043,-0.0093
70291,45.68047,0.12602,130.89,28.05,8.576,100.5,0 / 17,7029045,2019-08-19 00:16:58:578,-0.2318,0.2097,9.872,-0.4414,0.5868,9.7791,0.0079,-0.0017,-0.0094
70292,45.68047,0.12602,130.89,28.05,8.576,100.5,0 / 17,7029146,2019-08-19 00:16:58:679,-0.297,0.0027,9.8744,-0.433,0.5793,9.7799,0.0064,-0.0081,-0.0092
70293,45.68047,0.12602,130.89,28.05,8.576,100.5,0 / 17,7029245,2019-08-19 00:16:58:778,-0.2982,0.0487,9.8283,-0.4127,0.5617,9.7819,-0.0007,-0.0117,-0.0097
70294,45.68047,0.12602,130.89,28.05,8.576,100.5,0 / 17,7029345,2019-08-19 00:16:58:878,-0.3742,0.0487,9.972,-0.4129,0.5559,9.7822,-0.0024,0.0075,-0.0099
70295,45.68047,0.12602,130.89,28.05,8.576,100.5,0 / 17,7029446,2019-08-19 00:16:58:979,-0.2737,0.0781,9.9385,-0.4147,0.5463,9.7826,-0.0055,0.0003,-0.0103
70296,45.68047,0.12602,130.89,28.05,8.576,100.5,0 / 17,7029545,2019-08-19 00:16:59:078,-0.2898,0.102,10.1246,-0.4112,0.5259,9.7839,0.0,-0.0034,-0.0098
70297,45.68047,0.12602,130.89,28.05,8.576,100.5,0 / 17,7029645,2019-08-19 00:16:59:178,-0.3934,-0.0243,9.7816,-0.4078,0.5193,9.7844,-0.0053,-0.0005,-0.0086
70298,45.68047,0.12602,130.89,28.05,8.576,100.5,0 / 17,7029745,2019-08-19 00:16:59:278,-0.4407,-0.0632,9.881,-0.4087,0.4931,9.7857,0.0024,0.0025,-0.0097
70299,45.68047,0.12602,130.89,28.05,8.576,100.5,0 / 17,7029846,2019-08-19 00:16:59:379,-0.6896,0.0763,9.8038,-0.4112,0.4854,9.786,0.0097,0.0017,-0.0104
70300,45.68047,0.12602,130.89,28.05,8.576,100.5,0 / 17,7029945,2019-08-19 00:16:59:478,-0.4137,-0.414,9.5422,-0.4207,0.478,9.786,0.0025,0.0045,-0.0128
70301,45.68047,0.12602,130.89,28.05,8.576,100.5,0 / 17,7030045,2019-08-19 00:16:59:578,-0.5478,-0.0901,9.8038,-0.4243,0.4676,9.7863,-0.0006,0.0008,-0.0129
70302,45.68047,0.12602,130.89,28.05,8.576,100.5,0 / 17,7030146,2019-08-19 00:16:59:679,-0.4448,-0.2631,9.8858,-0.4269,0.4489,9.7871,0.0048,-0.0012,-0.0148
70303,45.68047,0.12602,130.89,28.05,8.576,100.5,0 / 17,7030246,2019-08-19 00:16:59:779,-0.4909,-0.3128,9.7583,-0.4292,0.4409,9.7873,0.0008,-0.0081,-0.018
70304,45.68047,0.12602,130.89,28.05,8.576,100.5,0 / 17,7030345,2019-08-19 00:16:59:878,-0.5639,-0.2068,10.0845,-0.4197,0.4149,9.7889,-0.0013,-0.0137,-0.0199
70305,45.68047,0.12602,130.89,28.05,8.576,100.5,0 / 17,7030445,2019-08-19 00:16:59:978,-0.5226,-0.405,9.5835,-0.4161,0.4045,9.7895,-0.0009,-0.0028,-0.0226
70306,45.68047,0.12602,130.89,28.05,8.576,100.5,0 / 17,7030546,2019-08-19 00:17:00:079,-0.2521,-0.3206,9.4488,-0.4269,0.3744,9.7902,-0.0014,0.0103,-0.0258
70307,45.68047,0.12602,130.89,28.05,8.576,100.5,0 / 17,7030646,2019-08-19 00:17:00:179,-0.3209,-0.3493,9.6889,-0.4321,0.36,9.7905,-0.0039,0.0066,-0.0269
70308,45.68047,0.12602,130.89,28.05,8.576,100.5,0 / 17,7030746,2019-08-19 00:17:00:279,-0.3413,-0.5899,9.5877,-0.4427,0.3288,9.7911,-0.0001,0.0086,-0.0273
70309,45.68047,0.12602,130.89,28.05,8.576,100.5,0 / 17,7030846,2019-08-19 00:17:00:379,-0.5209,-0.4313,9.383,-0.4472,0.3093,9.7916,0.0022,0.0062,-0.0278
70310,45.68047,0.12602,130.89,28.05,8.576,100.5,0 / 17,7030946,2019-08-19 00:17:00:479,-0.4299,-0.2877,9.4722,-0.4545,0.2849,9.792,-0.0005,0.0058,-0.0274
70311,45.68047,0.12602,130.89,28.05,8.576,100.5,0 / 17,7031045,2019-08-19 00:17:00:578,-0.4556,-0.5331,10.1767,-0.4517,0.2695,9.7925,-0.0052,-0.0164,-0.0261
70312,45.68047,0.12602,130.89,28.05,8.576,100.5,0 / 17,7031145,2019-08-19 00:17:00:678,-0.2934,-0.5139,10.2431,-0.4377,0.2459,9.7938,-0.0047,-0.0093,-0.0265
70313,45.68047,0.12602,130.89,28.05,8.576,100.5,0 / 17,7031245,2019-08-19 00:17:00:778,-0.4137,-0.3313,9.802,-0.4368,0.2263,9.7943,0.0027,0.0001,-0.0267
70314,45.68047,0.12602,130.89,28.05,8.576,100.5,0 / 17,7031345,2019-08-19 00:17:00:878,-0.6418,-0.5259,9.6865,-0.4482,0.205,9.7943,0.0021,-0.0013,-0.0274
70315,45.68047,0.12602,130.89,28.05,8.576,100.5,0 / 17,7031445,2019-08-19 00:17:00:978,-0.5472,-0.3559,9.6811,-0.4465,0.1956,9.7945,0.0054,-0.0055,-0.0264
70316,45.68047,0.12602,130.89,28.05,8.576,100.5,0 / 17,7031545,2019-08-19 00:17:01:078,-0.4347,-0.5564,9.5727,-0.4459,0.179,9.7949,0.008,0.0008,-0.0255
70317,45.68047,0.12602,130.89,28.05,8.576,100.5,0 / 17,7031645,2019-08-19 00:17:01:178,-0.4305,-0.3864,9.8146,-0.4462,0.1728,9.795,0.0049,-0.004,-0.0264
70318,45.68047,0.12602,130.89,28.05,8.576,100.5,0 / 17,7031746,2019-08-19 00:17:01:279,-0.385,-0.4343,9.9175,-0.4435,0.1522,9.7954,-0.0037,0.0007,-0.0269
70319,45.68047,0.12602,130.89,28.05,8.576,100.5,0 / 17,7031846,2019-08-19 00:17:01:379,-0.5879,-0.5983,9.5745,-0.4459,0.1411,9.7955,-0.0019,0.0052,-0.0266
70320,45.68047,0.12602,130.89,28.05,8.576,100.5,0 / 17,7031945,2019-08-19 00:17:01:478,-0.531,-0.5642,9.6877,-0.4545,0.112,9.7955,0.0156,-0.0029,-0.0259
70321,45.68047,0.12602,130.89,28.05,8.576,100.5,0 / 17,7032045,2019-08-19 00:17:01:578,-0.5292,-0.469,9.6224,-0.4473,0.1066,9.7959,0.0077,-0.0117,-0.0257
70322,45.68047,0.12602,130.89,28.05,8.576,100.5,0 / 17,7032146,2019-08-19 00:17:01:679,-0.394,-0.4259,9.9037,-0.4437,0.1003,9.7961,0.004,0.0058,-0.029
70323,45.68047,0.12602,130.89,28.05,8.576,100.5,0 / 17,7032246,2019-08-19 00:17:01:779,-0.4604,-0.5247,9.9887,-0.4519,0.081,9.7959,0.0059,0.0081,-0.0311
70324,45.68047,0.12602,130.89,28.05,8.576,100.5,0 / 17,7032345,2019-08-19 00:17:01:878,-0.555,-0.5935,9.8241,-0.4577,0.0737,9.7957,0.0022,-0.0024,-0.0336
70325,45.68047,0.12602,130.89,28.05,8.576,100.5,0 / 17,7032446,2019-08-19 00:17:01:979,-0.6675,-0.6983,9.8672,-0.4542,0.0521,9.796,0.0062,-0.0121,-0.0304
70326,45.68047,0.12602,130.89,28.05,8.576,100.5,0 / 17,7032546,2019-08-19 00:17:02:079,-0.6531,-0.5708,10.0564,-0.4496,0.0457,9.7962,0.009,-0.009,-0.0307
70327,45.68047,0.12602,130.89,28.05,8.576,100.5,0 / 17,7032645,2019-08-19 00:17:02:178,-0.3551,-0.6288,9.5614,-0.4475,0.0321,9.7964,0.009,0.0037,-0.0303
70328,45.68047,0.12602,130.89,28.05,8.576,100.5,0 / 17,7032746,2019-08-19 00:17:02:279,-0.5394,-0.4912,9.9624,-0.4581,0.0243,9.7959,0.0074,0.0071,-0.0303
70329,45.68047,0.12602,130.89,28.05,8.576,100.5,0 / 17,7032845,2019-08-19 00:17:02:378,-0.5717,-0.73,10.2467,-0.4582,0.008,9.7959,-0.0055,-0.0144,-0.0301
70330,45.68047,0.12602,130.89,28.05,8.576,100.5,0 / 17,7032945,2019-08-19 00:17:02:478,-0.6723,-0.5839,10.1491,-0.4494,-0.0083,9.7963,0.0029,-0.011,-0.03
70331,45.68047,0.12602,130.89,28.05,8.576,100.5,0 / 17,7033046,2019-08-19 00:17:02:579,-0.6364,-0.4247,9.8505,-0.439,-0.0209,9.7968,0.0029,-0.0069,-0.0286
70332,45.68047,0.12602,130.89,28.05,8.576,100.5,0 / 17,7033145,2019-08-19 00:17:02:678,-0.4676,-0.5277,9.6631,-0.4362,-0.031,9.7969,0.0049,-0.0016,-0.0291
70333,45.68047,0.12602,130.89,28.05,8.576,100.5,0 / 17,7033245,2019-08-19 00:17:02:778,-0.4233,-0.4385,9.3692,-0.4487,-0.0456,9.7963,-0.001,0.0163,-0.0292
70334,45.68047,0.12602,130.89,28.05,8.576,100.5,0 / 17,7033345,2019-08-19 00:17:02:878,-0.4604,-0.472,9.4506,-0.4614,-0.0555,9.7956,-0.0015,0.0136,-0.0307
70335,45.68047,0.12602,130.89,28.05,8.576,100.5,Nov-17,7033446,2019-08-19 00:17:02:979,-0.628,-0.5564,9.1663,-0.4824,-0.0726,9.7945,0.0082,0.0076,-0.031
70336,45.68047,0.12602,130.89,28.05,8.576,100.5,Nov-17,7033546,2019-08-19 00:17:03:079,-0.5975,-0.4792,9.5668,-0.4876,-0.0777,9.7942,0.0038,0.0051,-0.0309
70337,45.68047,0.12602,130.89,28.05,8.576,100.5,Nov-17,7033646,2019-08-19 00:17:03:179,-0.5699,-0.5809,9.7415,-0.4904,-0.0943,9.7939,0.0063,-0.0055,-0.0299
70338,45.68047,0.12602,130.89,28.05,8.576,100.5,Nov-17,7033745,2019-08-19 00:17:03:278,-0.619,-0.5211,10.1096,-0.4911,-0.0986,9.7938,0.0058,-0.0028,-0.0296
70339,45.68047,0.12602,130.89,28.05,8.576,100.5,Nov-17,7033845,2019-08-19 00:17:03:378,-0.6855,-0.5786,9.5548,-0.502,-0.1041,9.7932,0.0124,0.0082,-0.0289
70340,45.68047,0.12602,130.89,28.05,8.576,100.5,Nov-17,7033945,2019-08-19 00:17:03:478,-0.7471,-0.4217,9.6075,-0.5127,-0.1054,9.7927,0.0051,-0.0014,-0.03
70341,45.68047,0.12602,130.89,28.05,8.576,100.5,Nov-17,7034046,2019-08-19 00:17:03:579,-0.9368,-0.5426,9.6931,-0.514,-0.1177,9.7925,0.0014,-0.0026,-0.0294
70342,45.68047,0.12602,130.89,28.05,8.576,100.5,Nov-17,7034146,2019-08-19 00:17:03:679,-0.4718,-0.3565,9.7242,-0.5074,-0.1203,9.7928,0.0012,-0.013,-0.0299
70343,45.68047,0.12602,130.89,28.05,8.576,100.5,Nov-17,7034245,2019-08-19 00:17:03:778,-0.7196,-0.496,10.2617,-0.5001,-0.1287,9.793,0.0054,-0.0072,-0.0296
70344,45.68047,0.12602,130.89,28.05,8.576,100.5,Nov-17,7034345,2019-08-19 00:17:03:878,-0.5975,-0.6953,10.2042,-0.493,-0.1377,9.7933,0.0025,-0.0082,-0.0294
70345,45.68006,0.129304,137.08,28.66,9.648001,104.0,0 / 17,7034445,2019-08-19 00:17:03:978,-0.6687,-0.4433,9.565,-0.4942,-0.1548,9.793,0.0022,0.0067,-0.0302
70346,45.68006,0.129304,137.08,28.66,9.648001,104.0,0 / 17,7034545,2019-08-19 00:17:04:078,-0.5418,-0.4942,9.3788,-0.4996,-0.158,9.7926,0.0018,0.0054,-0.0311
70347,45.68006,0.129304,137.08,28.66,9.648001,104.0,0 / 17,7034645,2019-08-19 00:17:04:178,-0.616,-0.3481,9.2549,-0.5041,-0.1787,9.7921,-0.0062,0.0038,-0.0304
70348,45.68006,0.129304,137.08,28.66,9.648001,104.0,0 / 17,7034746,2019-08-19 00:17:04:279,-0.6094,-0.5696,9.9714,-0.5099,-0.1881,9.7916,0.0016,0.0097,-0.0302
70349,45.68006,0.129304,137.08,28.66,9.648001,104.0,0 / 17,7034846,2019-08-19 00:17:04:379,-0.6334,-0.7449,9.9253,-0.5185,-0.1925,9.791,0.001,-0.0011,-0.03
70350,45.68006,0.129304,137.08,28.66,9.648001,104.0,0 / 17,7034945,2019-08-19 00:17:04:478,-0.8273,-0.5337,9.7547,-0.5229,-0.2025,9.7906,0.0029,-0.0122,-0.0294
70351,45.68006,0.129304,137.08,28.66,9.648001,104.0,0 / 17,7035045,2019-08-19 00:17:04:578,-0.7333,-0.5606,9.9893,-0.5159,-0.2074,9.7909,0.0023,-0.0139,-0.0291
70352,45.68006,0.129304,137.08,28.66,9.648001,104.0,0 / 17,7035146,2019-08-19 00:17:04:679,-0.3844,-0.4253,9.6637,-0.5143,-0.2134,9.7908,0.0072,-0.0037,-0.0277
70353,45.68006,0.129304,137.08,28.66,9.648001,104.0,0 / 17,7035246,2019-08-19 00:17:04:779,-0.5604,-0.5277,9.7858,-0.5209,-0.2137,9.7905,0.0061,0.004,-0.0282
70354,45.68006,0.129304,137.08,28.66,9.648001,104.0,0 / 17,7035345,2019-08-19 00:17:04:878,-0.8363,-0.5139,9.7445,-0.537,-0.2221,9.7894,0.0011,0.0031,-0.0306
70355,45.68006,0.129304,137.08,28.66,9.648001,104.0,0 / 17,7035445,2019-08-19 00:17:04:978,-0.9476,-0.6294,9.7397,-0.5426,-0.2233,9.7891,0.0022,0.0004,-0.0304
70356,45.68006,0.129304,137.08,28.66,9.648001,104.0,0 / 17,7035545,2019-08-19 00:17:05:078,-0.8471,-0.3703,9.529,-0.55,-0.2388,9.7883,-0.0108,-0.0054,-0.0307
70357,45.68006,0.129304,137.08,28.66,9.648001,104.0,0 / 17,7035645,2019-08-19 00:17:05:178,-0.7722,-0.6276,9.8702,-0.5523,-0.2513,9.7879,-0.0082,-0.0071,-0.0309
70358,45.68006,0.129304,137.08,28.66,9.648001,104.0,0 / 17,7035745,2019-08-19 00:17:05:278,-0.7321,-0.4995,9.9432,-0.5494,-0.2737,9.7874,-0.0086,-0.0096,-0.0304
70359,45.68006,0.129304,137.08,28.66,9.648001,104.0,0 / 17,7035846,2019-08-19 00:17:05:379,-0.9392,-0.6312,9.6218,-0.5515,-0.2857,9.787,-0.0107,0.0079,-0.0313
70360,45.68006,0.129304,137.08,28.66,9.648001,104.0,0 / 17,7035946,2019-08-19 00:17:05:479,-0.9374,-0.5055,9.8187,-0.5693,-0.3135,9.7851,-0.0078,0.0012,-0.0335
70361,45.68006,0.129304,137.08,28.66,9.648001,104.0,0 / 17,7036046,2019-08-19 00:17:05:579,-0.8291,-0.5372,9.5979,-0.5745,-0.3287,9.7843,-0.0133,-0.0053,-0.0332
70362,45.68006,0.129304,137.08,28.66,9.648001,104.0,0 / 17,7036146,2019-08-19 00:17:05:679,-0.8997,-0.7437,9.6661,-0.5802,-0.3549,9.783,-0.003,0.0076,-0.0335
70363,45.68006,0.129304,137.08,28.66,9.648001,104.0,0 / 17,7036246,2019-08-19 00:17:05:779,-1.0458,-0.9676,9.9905,-0.5937,-0.3642,9.7819,0.0063,0.0036,-0.0352
70364,45.68006,0.129304,137.08,28.66,9.648001,104.0,0 / 17,7036345,2019-08-19 00:17:05:878,-1.0482,-0.7952,9.5584,-0.6041,-0.3733,9.7809,0.0036,0.0055,-0.0353
70365,45.68006,0.129304,137.08,28.66,9.648001,104.0,0 / 17,7036445,2019-08-19 00:17:05:978,-0.8848,-0.6282,9.3836,-0.6133,-0.3792,9.7801,0.0004,0.0108,-0.0366
70366,45.68006,0.129304,137.08,28.66,9.648001,104.0,0 / 17,7036545,2019-08-19 00:17:06:078,-0.8297,-0.648,9.7002,-0.634,-0.3935,9.7782,0.0038,-0.0009,-0.0365
70367,45.68006,0.129304,137.08,28.66,9.648001,104.0,0 / 17,7036645,2019-08-19 00:17:06:178,-0.9303,-0.882,10.3886,-0.6306,-0.398,9.7783,0.0,-0.0143,-0.0369
70368,45.68006,0.129304,137.08,28.66,9.648001,104.0,0 / 17,7036746,2019-08-19 00:17:06:279,-0.9488,-0.8982,9.8858,-0.6191,-0.4127,9.7784,0.0068,-0.0097,-0.0356
70369,45.68006,0.129304,137.08,28.66,9.648001,104.0,0 / 17,7036846,2019-08-19 00:17:06:379,-1.0398,-0.6192,9.9055,-0.6195,-0.4151,9.7783,0.0019,-0.006,-0.0341
70370,45.68006,0.129304,137.08,28.66,9.648001,104.0,0 / 17,7036945,2019-08-19 00:17:06:478,-0.9895,-0.9209,9.6236,-0.6416,-0.4398,9.7758,-0.0054,-0.0009,-0.0338
70371,45.68006,0.129304,137.08,28.66,9.648001,104.0,0 / 17,7037045,2019-08-19 00:17:06:578,-1.0224,-0.7222,9.808,-0.6463,-0.4419,9.7754,-0.0009,-0.0032,-0.0338
70372,45.68006,0.129304,137.08,28.66,9.648001,104.0,0 / 17,7037145,2019-08-19 00:17:06:678,-1.0488,-0.6582,9.5069,-0.6555,-0.4549,9.7741,0.007,-0.001,-0.0359
70373,45.68006,0.129304,137.08,28.66,9.648001,104.0,0 / 17,7037245,2019-08-19 00:17:06:778,-1.1278,-1.0011,9.1579,-0.6671,-0.4611,9.7731,0.0007,0.0117,-0.0352
70374,45.68006,0.129304,137.08,28.66,9.648001,104.0,0 / 17,7037345,2019-08-19 00:17:06:878,-0.9758,-0.7198,9.9468,-0.6825,-0.4726,9.7715,-0.0023,-0.0035,-0.0362
70375,45.68006,0.129304,137.08,28.66,9.648001,104.0,0 / 17,7037446,2019-08-19 00:17:06:979,-1.0685,-0.9347,9.8678,-0.6888,-0.4792,9.7707,0.0049,0.0004,-0.0366
70376,45.68006,0.129304,137.08,28.66,9.648001,104.0,0 / 17,7037546,2019-08-19 00:17:07:079,-1.0967,-0.5899,9.8421,-0.7119,-0.5035,9.7678,-0.0028,0.0066,-0.0358
70377,45.68006,0.129304,137.08,28.66,9.648001,104.0,0 / 17,7037646,2019-08-19 00:17:07:179,-0.8938,-0.6043,9.5961,-0.7196,-0.5089,9.767,0.0041,-0.0008,-0.0358
70378,45.68006,0.129304,137.08,28.66,9.648001,104.0,0 / 17,7037745,2019-08-19 00:17:07:278,-0.6938,-0.9066,9.7846,-0.7187,-0.5126,9.7668,0.0033,-0.0101,-0.036
70379,45.68006,0.129304,137.08,28.66,9.648001,104.0,0 / 17,7037846,2019-08-19 00:17:07:379,-0.7088,-0.6731,10.1264,-0.7053,-0.5165,9.7676,0.0086,-0.0033,-0.0358
70380,45.68006,0.129304,137.08,28.66,9.648001,104.0,0 / 17,7037946,2019-08-19 00:17:07:479,-0.8417,-0.7707,9.8391,-0.7013,-0.5177,9.7678,0.0096,-0.0066,-0.037
70381,45.68006,0.129304,137.08,28.66,9.648001,104.0,0 / 17,7038045,2019-08-19 00:17:07:578,-0.7561,-0.7186,9.781,-0.6928,-0.5173,9.7685,0.0031,-0.0008,-0.0368
70382,45.68006,0.129304,137.08,28.66,9.648001,104.0,0 / 17,7038146,2019-08-19 00:17:07:679,-0.7405,-0.8485,9.8176,-0.6956,-0.5229,9.768,-0.0011,0.0054,-0.0357
70383,45.68006,0.129304,137.08,28.66,9.648001,104.0,0 / 17,7038245,2019-08-19 00:17:07:778,-1.032,-0.8353,9.7888,-0.7042,-0.5212,9.7674,0.0145,-0.003,-0.0357
70384,45.68006,0.129304,137.08,28.66,9.648001,104.0,0 / 17,7038346,2019-08-19 00:17:07:879,-0.9117,-0.7372,9.5542,-0.7003,-0.5207,9.7677,0.0072,-0.0091,-0.0354
70385,45.68006,0.129304,137.08,28.66,9.648001,104.0,0 / 17,7038446,2019-08-19 00:17:07:979,-0.8686,-0.7533,10.1282,-0.7003,-0.5134,9.7681,0.0099,0.0004,-0.0329
70386,45.68006,0.129304,137.08,28.66,9.648001,104.0,0 / 17,7038545,2019-08-19 00:17:08:078,-0.7501,-0.5349,9.9313,-0.7008,-0.5129,9.7681,0.0011,-0.0023,-0.0347
70387,45.68006,0.129304,137.08,28.66,9.648001,104.0,0 / 17,7038646,2019-08-19 00:17:08:179,-0.801,-0.5947,9.538,-0.697,-0.5139,9.7683,0.0088,-0.0048,-0.035
70388,45.68006,0.129304,137.08,28.66,9.648001,104.0,0 / 17,7038745,2019-08-19 00:17:08:278,-0.6196,-0.5648,9.8972,-0.6921,-0.5114,9.7688,-0.0036,-0.0089,-0.0333
70389,45.68006,0.129304,137.08,28.66,9.648001,104.0,0 / 17,7038845,2019-08-19 00:17:08:378,-0.6699,-0.6821,9.5159,-0.6877,-0.5204,9.7687,-0.0018,0.004,-0.0319
70390,45.68006,0.129304,137.08,28.66,9.648001,104.0,0 / 17,7038945,2019-08-19 00:17:08:478,-0.7764,-0.7551,9.5883,-0.6942,-0.524,9.768,0.0001,0.0119,-0.0321
70391,45.68006,0.129304,137.08,28.66,9.648001,104.0,0 / 17,7039046,2019-08-19 00:17:08:579,-0.6914,-0.3565,9.6332,-0.6969,-0.5282,9.7676,-0.0061,-0.0028,-0.0321
70392,45.68006,0.129304,137.08,28.66,9.648001,104.0,0 / 17,7039146,2019-08-19 00:17:08:679,-0.789,-0.5672,10.4825,-0.6876,-0.5231,9.7685,0.0042,-0.0142,-0.0301
70393,45.68006,0.129304,137.08,28.66,9.648001,104.0,0 / 17,7039246,2019-08-19 00:17:08:779,-0.6441,-0.4882,9.453,-0.6781,-0.519,9.7694,0.0075,0.0131,-0.0269
70394,45.68006,0.129304,137.08,28.66,9.648001,104.0,0 / 17,7039345,2019-08-19 00:17:08:878,-0.8201,-0.5115,9.2136,-0.6879,-0.5138,9.769,0.0063,0.0167,-0.0275
70395,45.68006,0.129304,137.08,28.66,9.648001,104.0,0 / 17,7039445,2019-08-19 00:17:08:978,-0.5969,-0.466,9.2334,-0.7038,-0.5115,9.768,-0.0015,0.0039,-0.0293
70396,45.68006,0.129304,137.08,28.66,9.648001,104.0,0 / 17,7039545,2019-08-19 00:17:09:078,-0.9392,-0.3972,9.96,-0.7072,-0.5114,9.7677,0.0044,-0.0174,-0.0286
70397,45.68006,0.129304,137.08,28.66,9.648001,104.0,0 / 17,7039645,2019-08-19 00:17:09:178,-0.7094,-0.6492,9.8942,-0.6874,-0.507,9.7694,0.0027,-0.0155,-0.0265
70398,45.68006,0.129304,137.08,28.66,9.648001,104.0,0 / 17,7039745,2019-08-19 00:17:09:278,-0.6286,-0.4768,9.4889,-0.6835,-0.5068,9.7697,-0.0004,0.0054,-0.0251
70399,45.68006,0.129304,137.08,28.66,9.648001,104.0,0 / 17,7039845,2019-08-19 00:17:09:378,-0.6142,-0.3661,8.9275,-0.7138,-0.5064,9.7675,0.0004,0.0322,-0.0268
70400,45.68006,0.129304,137.08,28.66,9.648001,104.0,0 / 17,7039946,2019-08-19 00:17:09:479,-0.6465,-0.3529,9.1555,-0.7275,-0.5041,9.7666,0.0116,0.02,-0.0259
70401,45.68006,0.129304,137.08,28.66,9.648001,104.0,0 / 17,7040046,2019-08-19 00:17:09:579,-0.7172,-0.323,10.1563,-0.72,-0.485,9.7681,0.0135,-0.0184,-0.0252
70402,45.68006,0.129304,137.08,28.66,9.648001,104.0,0 / 17,7040145,2019-08-19 00:17:09:678,-0.6579,-0.3002,10.9093,-0.7057,-0.4779,9.7695,0.0082,-0.0249,-0.0238
70403,45.68006,0.129304,137.08,28.66,9.648001,104.0,0 / 17,7040245,2019-08-19 00:17:09:778,-0.7764,-0.3445,10.3682,-0.6849,-0.4714,9.7713,0.0108,-0.0174,-0.0228
70404,45.68006,0.129304,137.08,28.66,9.648001,104.0,0 / 17,7040345,2019-08-19 00:17:09:878,-0.707,-0.3493,10.0737,-0.6701,-0.4544,9.7732,0.0057,-0.0025,-0.0228
70405,45.68006,0.129304,137.08,28.66,9.648001,104.0,0 / 17,7040446,2019-08-19 00:17:09:979,-0.8722,-0.1991,8.9658,-0.6763,-0.4524,9.7728,-0.0071,0.0145,-0.0246
70406,45.68006,0.129304,137.08,28.66,9.648001,104.0,0 / 17,7040546,2019-08-19 00:17:10:079,-0.9787,-0.4313,9.4309,-0.7003,-0.4517,9.7712,0.0017,0.0021,-0.0246
70407,45.68006,0.129304,137.08,28.66,9.648001,104.0,0 / 17,7040646,2019-08-19 00:17:10:179,-0.944,-0.3691,9.6212,-0.7042,-0.4504,9.771,-0.0032,0.0028,-0.0242
70408,45.68006,0.129304,137.08,28.66,9.648001,104.0,0 / 17,7040746,2019-08-19 00:17:10:279,-0.9883,-0.3571,9.7523,-0.72,-0.452,9.7697,0.0067,0.0084,-0.0224
70409,45.68006,0.129304,137.08,28.66,9.648001,104.0,0 / 17,7040845,2019-08-19 00:17:10:378,-1.1158,-0.2416,9.969,-0.7289,-0.4466,9.7693,0.0061,-0.0017,-0.0216
70410,45.68006,0.129304,137.08,28.66,9.648001,104.0,0 / 17,7040945,2019-08-19 00:17:10:478,-1.1427,-0.1901,10.1402,-0.7294,-0.4397,9.7696,-0.0012,-0.0143,-0.0188
70411,45.68006,0.129304,137.08,28.66,9.648001,104.0,0 / 17,7041045,2019-08-19 00:17:10:578,-1.1511,-0.2428,9.7493,-0.7102,-0.4335,9.7713,0.0032,-0.013,-0.0198
70412,45.68006,0.129304,137.08,28.66,9.648001,104.0,0 / 17,7041146,2019-08-19 00:17:10:679,-0.2599,-0.162,9.2262,-0.7032,-0.4207,9.7724,0.0031,-0.001,-0.0205
70413,45.68006,0.129304,137.08,28.66,9.648001,104.0,0 / 17,7041245,2019-08-19 00:17:10:778,-0.5286,0.0236,9.8116,-0.6976,-0.4183,9.7729,-0.0026,0.0047,-0.0201
70414,45.68006,0.129304,137.08,28.66,9.648001,104.0,0 / 17,7041346,2019-08-19 00:17:10:879,-0.4837,-0.2476,9.6595,-0.6969,-0.4148,9.7731,-0.0071,0.0067,-0.02
70415,45.68006,0.129304,137.08,28.66,9.648001,104.0,0 / 17,7041445,2019-08-19 00:17:10:978,-0.5406,0.0918,9.1508,-0.7003,-0.4146,9.7728,-0.0064,0.0118,-0.0208
70416,45.68006,0.129304,137.08,28.66,9.648001,104.0,0 / 17,7041546,2019-08-19 00:17:11:079,-0.7136,-0.2685,9.945,-0.694,-0.3822,9.7746,0.0036,0.0142,-0.0207
70417,45.68006,0.129304,137.08,28.66,9.648001,104.0,0 / 17,7041646,2019-08-19 00:17:11:179,-0.6938,-0.2122,10.4359,-0.6926,-0.3811,9.7747,-0.003,-0.0031,-0.0197
70418,45.68006,0.129304,137.08,28.66,9.648001,104.0,0 / 17,7041746,2019-08-19 00:17:11:279,-0.4167,-0.2607,9.7643,-0.6691,-0.3743,9.7766,-0.0005,-0.0116,-0.0187
70419,45.68006,0.129304,137.08,28.66,9.648001,104.0,0 / 17,7041845,2019-08-19 00:17:11:378,-0.5556,-0.0494,9.699,-0.6646,-0.37,9.7771,0.0027,0.0,-0.0193
70420,45.68006,0.129304,137.08,28.66,9.648001,104.0,0 / 17,7041946,2019-08-19 00:17:11:479,-0.6244,-0.2134,9.6853,-0.6663,-0.3627,9.7773,-0.0013,0.0118,-0.0189
70421,45.68006,0.129304,137.08,28.66,9.648001,104.0,0 / 17,7042046,2019-08-19 00:17:11:579,-0.5077,-0.1644,9.5446,-0.6688,-0.3633,9.7771,-0.0063,-0.0038,-0.0215
70422,45.68006,0.129304,137.08,28.66,9.648001,104.0,0 / 17,7042145,2019-08-19 00:17:11:678,-0.7309,-0.3679,8.6629,-0.656,-0.3739,9.7775,0.009,0.0284,-0.0203
70423,45.68006,0.129304,137.08,28.66,9.648001,104.0,0 / 17,7042245,2019-08-19 00:17:11:778,-0.9488,-0.1901,9.0646,-0.6815,-0.3659,9.7761,0.0127,0.0349,-0.0187
70424,45.68006,0.129304,137.08,28.66,9.648001,104.0,0 / 17,7042345,2019-08-19 00:17:11:878,-1.0087,-0.3517,9.881,-0.6974,-0.3475,9.7756,0.0037,-0.0217,-0.0194
70425,45.68006,0.129304,137.08,28.66,9.648001,104.0,Oct-17,7042445,2019-08-19 00:17:11:978,-0.5095,-0.3421,11.0488,-0.6799,-0.3447,9.777,-0.0064,-0.0251,-0.022
70426,45.68006,0.129304,137.08,28.66,9.648001,104.0,Oct-17,7042545,2019-08-19 00:17:12:078,-0.8872,-0.3589,10.5442,-0.6551,-0.3627,9.778,-0.0178,-0.0092,-0.026
70427,45.68006,0.129304,137.08,28.66,9.648001,104.0,Oct-17,7042646,2019-08-19 00:17:12:179,-0.4867,-0.5001,9.5913,-0.6532,-0.3748,9.7777,-0.0129,-0.0053,-0.0292
70428,45.68006,0.129304,137.08,28.66,9.648001,104.0,Oct-17,7042746,2019-08-19 00:17:12:279,-0.8267,-0.49,9.2244,-0.6582,-0.3937,9.7766,-0.0079,0.0094,-0.0307
70429,45.68006,0.129304,137.08,28.66,9.648001,104.0,Oct-17,7042845,2019-08-19 00:17:12:378,-0.7076,-0.4654,9.137,-0.6643,-0.4015,9.7759,-0.006,0.0127,-0.0329
70430,45.68006,0.129304,137.08,28.66,9.648001,104.0,Oct-17,7042945,2019-08-19 00:17:12:478,-0.6478,-0.481,9.2801,-0.6759,-0.4129,9.7746,0.0051,0.0076,-0.0337
70431,45.68006,0.129304,137.08,28.66,9.648001,104.0,Oct-17,7043045,2019-08-19 00:17:12:578,-0.4209,-0.5127,9.7924,-0.6773,-0.4118,9.7746,0.0053,-0.0038,-0.0309
70432,45.68006,0.129304,137.08,28.66,9.648001,104.0,Oct-17,7043146,2019-08-19 00:17:12:679,-0.8028,-0.4918,9.9426,-0.6649,-0.4149,9.7753,0.0031,-0.0042,-0.0316
70433,45.68006,0.129304,137.08,28.66,9.648001,104.0,Oct-17,7043246,2019-08-19 00:17:12:779,-0.3329,-0.3625,9.8283,-0.6651,-0.4161,9.7752,0.0034,0.002,-0.0309
70434,45.68006,0.129304,137.08,28.66,9.648001,104.0,Oct-17,7043345,2019-08-19 00:17:12:878,-0.6807,-0.463,9.6589,-0.6677,-0.417,9.775,0.0059,0.013,-0.0301
70435,45.68006,0.129304,137.08,28.66,9.648001,104.0,Oct-17,7043445,2019-08-19 00:17:12:978,-0.5861,-0.4487,9.7906,-0.6801,-0.4156,9.7742,0.0055,0.014,-0.0311
70436,45.68006,0.129304,137.08,28.66,9.648001,104.0,Oct-17,7043545,2019-08-19 00:17:13:078,-0.6687,-0.4163,9.6865,-0.684,-0.4175,9.7739,-0.0032,-0.0014,-0.0319
70437,45.68006,0.129304,137.08,28.66,9.648001,104.0,Oct-17,7043646,2019-08-19 00:17:13:179,-0.6011,-0.3679,10.1719,-0.6705,-0.4249,9.7745,0.0005,-0.0116,-0.0303
70438,45.68006,0.129304,137.08,28.66,9.648001,104.0,Oct-17,7043746,2019-08-19 00:17:13:279,-0.5268,-0.7054,10.2341,-0.6615,-0.4283,9.7749,0.002,-0.006,-0.0287
70439,45.68006,0.129304,137.08,28.66,9.648001,104.0,Oct-17,7043845,2019-08-19 00:17:13:378,-0.4825,-0.475,9.9313,-0.6471,-0.4263,9.776,0.0,-0.0087,-0.0281
70440,45.68006,0.129304,137.08,28.66,9.648001,104.0,Oct-17,7043946,2019-08-19 00:17:13:479,-0.5837,-0.2422,9.7236,-0.6404,-0.4265,9.7764,0.0063,-0.0106,-0.0284
70441,45.68006,0.129304,137.08,28.66,9.648001,104.0,Oct-17,7044046,2019-08-19 00:17:13:579,-0.5807,-0.5241,9.8936,-0.6272,-0.4237,9.7774,-0.0003,0.0022,-0.0265
70442,45.68006,0.129304,137.08,28.66,9.648001,104.0,Oct-17,7044145,2019-08-19 00:17:13:678,-0.5478,-0.3846,9.7571,-0.6271,-0.4258,9.7773,-0.0002,0.0068,-0.0288
70443,45.68006,0.129304,137.08,28.66,9.648001,104.0,Oct-17,7044245,2019-08-19 00:17:13:778,-0.5604,-0.4092,9.6619,-0.6293,-0.4342,9.7768,0.0001,0.0062,-0.0287
70444,45.68006,0.129304,137.08,28.66,9.648001,104.0,Oct-17,7044346,2019-08-19 00:17:13:879,-0.4825,-0.5229,9.6793,-0.6354,-0.4367,9.7763,-0.001,0.0107,-0.0283
70445,45.68006,0.129304,137.08,28.66,9.648001,104.0,Oct-17,7044445,2019-08-19 00:17:13:978,-0.8501,-0.4457,9.6021,-0.648,-0.4402,9.7753,0.0023,0.0111,-0.0278
70446,45.68006,0.129304,137.08,28.66,9.648001,104.0,Oct-17,7044545,2019-08-19 00:17:14:078,-0.8153,-0.5414,9.7044,-0.6583,-0.4397,9.7746,0.0048,0.0201,-0.0278
70447,45.68006,0.129304,137.08,28.66,9.648001,104.0,Oct-17,7044646,2019-08-19 00:17:14:179,-0.9195,-0.4995,9.3627,-0.6773,-0.4384,9.7734,0.0005,0.001,-0.0272
70448,45.68006,0.129304,137.08,28.66,9.648001,104.0,Oct-17,7044746,2019-08-19 00:17:14:279,-0.7854,-0.2859,9.6476,-0.6743,-0.4377,9.7736,0.0031,-0.0084,-0.0268
70449,45.68006,0.129304,137.08,28.66,9.648001,104.0,Oct-17,7044846,2019-08-19 00:17:14:379,-0.7298,-0.5229,10.6244,-0.6514,-0.436,9.7753,0.0019,-0.0186,-0.0269
70450,45.68006,0.129304,137.08,28.66,9.648001,104.0,Oct-17,7044945,2019-08-19 00:17:14:478,-0.4371,-0.5546,9.9456,-0.6402,-0.4372,9.776,0.0013,-0.0157,-0.0262
70451,45.68006,0.129304,137.08,28.66,9.648001,104.0,Oct-17,7045046,2019-08-19 00:17:14:579,-0.6549,-0.3266,9.5614,-0.6313,-0.4368,9.7766,0.0006,-0.0009,-0.0261
70452,45.68006,0.129304,137.08,28.66,9.648001,104.0,Oct-17,7045145,2019-08-19 00:17:14:678,-0.4957,-0.5307,9.8044,-0.6317,-0.4381,9.7765,-0.0005,0.0081,-0.0256
70453,45.68006,0.129304,137.08,28.66,9.648001,104.0,Oct-17,7045246,2019-08-19 00:17:14:779,-0.61,-0.2667,9.626,-0.6416,-0.4371,9.7759,-0.0021,0.0009,-0.0271
70454,45.68006,0.129304,137.08,28.66,9.648001,104.0,Oct-17,7045346,2019-08-19 00:17:14:879,-0.6352,-0.4702,9.3956,-0.6399,-0.4394,9.7759,-0.0033,0.0034,-0.026
70455,45.68006,0.129304,137.08,28.66,9.648001,104.0,Oct-17,7045445,2019-08-19 00:17:14:978,-0.4574,-0.5097,9.8529,-0.6414,-0.4412,9.7757,0.004,0.0032,-0.0256
70456,45.68006,0.129304,137.08,28.66,9.648001,104.0,Oct-17,7045545,2019-08-19 00:17:15:078,-0.4365,-0.2859,9.4315,-0.6401,-0.4413,9.7758,0.0,-0.0004,-0.0241
70457,45.68006,0.129304,137.08,28.66,9.648001,104.0,Oct-17,7045645,2019-08-19 00:17:15:178,-0.5999,-0.4343,9.2693,-0.6403,-0.4378,9.7759,0.0077,0.0043,-0.0237
70458,45.68006,0.129304,137.08,28.66,9.648001,104.0,Oct-17,7045745,2019-08-19 00:17:15:278,-0.5496,-0.5019,10.0851,-0.6411,-0.427,9.7764,0.0098,0.0004,-0.0251
70459,45.68006,0.129304,137.08,28.66,9.648001,104.0,Oct-17,7045846,2019-08-19 00:17:15:379,-0.5969,-0.3972,10.0091,-0.6252,-0.4182,9.7778,0.0095,-0.0141,-0.0231
70460,45.68006,0.129304,137.08,28.66,9.648001,104.0,Oct-17,7045946,2019-08-19 00:17:15:479,-0.5705,-0.3092,9.896,-0.6163,-0.4114,9.7786,0.0075,-0.0122,-0.0232
70461,45.68006,0.129304,137.08,28.66,9.648001,104.0,Oct-17,7046045,2019-08-19 00:17:15:578,-0.4071,-0.5013,9.9205,-0.6091,-0.4055,9.7793,0.006,0.004,-0.0246
70462,45.68006,0.129304,137.08,28.66,9.648001,104.0,Oct-17,7046145,2019-08-19 00:17:15:678,-0.5358,-0.2134,9.4506,-0.6096,-0.398,9.7796,-0.0053,0.0149,-0.0241
70463,45.68006,0.129304,137.08,28.66,9.648001,104.0,Oct-17,7046245,2019-08-19 00:17:15:778,-0.543,-0.2918,9.5955,-0.618,-0.4033,9.7788,-0.0053,0.0149,-0.0241
70464,45.68006,0.129304,137.08,28.66,9.648001,104.0,Oct-17,7046345,2019-08-19 00:17:15:878,-0.5663,-0.3936,9.571,-0.617,-0.3987,9.7791,0.0028,-0.0005,-0.0261
70465,45.68006,0.129304,137.08,28.66,9.648001,104.0,Oct-17,7046447,2019-08-19 00:17:15:980,-0.7842,-0.3284,9.7721,-0.6167,-0.4004,9.779,0.0002,-0.0042,-0.0242
70466,45.68006,0.129304,137.08,28.66,9.648001,104.0,Oct-17,7046546,2019-08-19 00:17:16:079,-0.7681,-0.3685,10.106,-0.6129,-0.4014,9.7792,0.0014,-0.0019,-0.0248
70467,45.68006,0.129304,137.08,28.66,9.648001,104.0,Oct-17,7046645,2019-08-19 00:17:16:178,-0.4598,-0.4786,9.444,-0.614,-0.4021,9.7791,0.0021,0.0076,-0.0266
70468,45.68006,0.129304,137.08,28.66,9.648001,104.0,Oct-17,7046745,2019-08-19 00:17:16:278,-0.8447,-0.5612,9.7864,-0.6271,-0.4045,9.7782,0.0018,0.0018,-0.0289
70469,45.68006,0.129304,137.08,28.66,9.648001,104.0,Oct-17,7046845,2019-08-19 00:17:16:378,-0.4957,-0.5426,9.3219,-0.631,-0.404,9.778,0.0064,-0.0008,-0.0313
70470,45.68006,0.129304,137.08,28.66,9.648001,104.0,Oct-17,7046945,2019-08-19 00:17:16:478,-0.9135,-0.2996,9.0101,-0.6364,-0.4078,9.7775,-0.0067,0.0081,-0.0306
70471,45.68006,0.129304,137.08,28.66,9.648001,104.0,Oct-17,7047046,2019-08-19 00:17:16:579,-0.8764,-0.6641,9.5434,-0.6448,-0.4133,9.7767,-0.0038,0.0118,-0.0301
70472,45.68006,0.129304,137.08,28.66,9.648001,104.0,Oct-17,7047146,2019-08-19 00:17:16:679,-0.9135,-0.5929,9.8505,-0.6593,-0.4196,9.7755,0.0075,-0.0022,-0.0296
70473,45.68006,0.129304,137.08,28.66,9.648001,104.0,Oct-17,7047246,2019-08-19 00:17:16:779,-0.8225,-0.4109,9.7074,-0.6581,-0.4184,9.7756,0.0034,-0.0067,-0.0289
70474,45.68006,0.129304,137.08,28.66,9.648001,104.0,Oct-17,7047345,2019-08-19 00:17:16:878,-0.8357,-0.5558,9.981,-0.6565,-0.4221,9.7755,0.004,0.001,-0.0286
70475,45.68006,0.129304,137.08,28.66,9.648001,104.0,Oct-17,7047446,2019-08-19 00:17:16:979,-0.7339,-0.6073,10.124,-0.659,-0.4214,9.7754,0.0029,-0.0013,-0.0287
70476,45.68006,0.129304,137.08,28.66,9.648001,104.0,Oct-17,7047546,2019-08-19 00:17:17:079,-0.7525,-0.4301,9.9361,-0.6627,-0.4204,9.7752,-0.0027,-0.0001,-0.03
70477,45.68006,0.129304,137.08,28.66,9.648001,104.0,Oct-17,7047646,2019-08-19 00:17:17:179,-0.7818,-0.5115,9.9642,-0.6634,-0.4282,9.7748,0.0055,-0.005,-0.0299
70478,45.68006,0.129304,137.08,28.66,9.648001,104.0,Oct-17,7047746,2019-08-19 00:17:17:279,-0.5616,-0.6174,10.1114,-0.6547,-0.4272,9.7754,0.0045,-0.0105,-0.0301
70479,45.68006,0.129304,137.08,28.66,9.648001,104.0,Oct-17,7047845,2019-08-19 00:17:17:378,-0.807,-0.393,9.729,-0.6493,-0.4296,9.7757,-0.0009,-0.0046,-0.0305
70480,45.68006,0.129304,137.08,28.66,9.648001,104.0,Oct-17,7047945,2019-08-19 00:17:17:478,-0.3347,-0.9951,9.5039,-0.6543,-0.4292,9.7754,0.0077,0.0031,-0.0298
70481,45.68006,0.129304,137.08,28.66,9.648001,104.0,Oct-17,7048045,2019-08-19 00:17:17:578,-0.7214,-0.5223,9.7188,-0.6586,-0.4351,9.7748,-0.0082,0.0046,-0.0316
70482,45.68006,0.129304,137.08,28.66,9.648001,104.0,Oct-17,7048146,2019-08-19 00:17:17:679,-0.3688,-0.7886,10.142,-0.6495,-0.4447,9.775,0.0033,-0.0118,-0.0319
70483,45.68006,0.129304,137.08,28.66,9.648001,104.0,Oct-17,7048245,2019-08-19 00:17:17:778,-0.5394,-0.4217,9.7786,-0.6431,-0.4413,9.7756,0.009,-0.0029,-0.027
70484,45.68006,0.129304,137.08,28.66,9.648001,104.0,Oct-17,7048345,2019-08-19 00:17:17:878,-0.5496,-0.5175,9.7427,-0.6399,-0.4315,9.7762,0.004,0.004,-0.026
70485,45.68006,0.129304,137.08,28.66,9.648001,104.0,Oct-17,7048446,2019-08-19 00:17:17:979,-0.6699,-0.4235,9.5033,-0.6413,-0.4279,9.7763,0.0081,0.0077,-0.0259
70486,45.68006,0.129304,137.08,28.66,9.648001,104.0,Oct-17,7048546,2019-08-19 00:17:18:079,-0.5621,-0.3643,9.5835,-0.6511,-0.4223,9.7759,0.0,0.0089,-0.0269
70487,45.68006,0.129304,137.08,28.66,9.648001,104.0,Oct-17,7048645,2019-08-19 00:17:18:178,-0.6513,-0.3978,9.5452,-0.6545,-0.421,9.7757,0.0011,-0.0019,-0.0277
70488,45.68006,0.129304,137.08,28.66,9.648001,104.0,Oct-17,7048746,2019-08-19 00:17:18:279,-0.5227,-0.4948,9.8487,-0.6491,-0.4196,9.7761,-0.0022,-0.0141,-0.0241
70489,45.68006,0.129304,137.08,28.66,9.648001,104.0,Oct-17,7048846,2019-08-19 00:17:18:379,-0.5813,-0.2901,9.7559,-0.6279,-0.4168,9.7776,0.0049,-0.0055,-0.0224
70490,45.68006,0.129304,137.08,28.66,9.648001,104.0,Oct-17,7048946,2019-08-19 00:17:18:479,-0.5095,-0.1811,9.7385,-0.6253,-0.4146,9.7779,0.0,0.0044,-0.021
70491,45.68006,0.129304,137.08,28.66,9.648001,104.0,Oct-17,7049045,2019-08-19 00:17:18:578,-0.464,-0.2344,10.0175,-0.6302,-0.4074,9.7779,-0.0015,0.0018,-0.0232
70492,45.68006,0.129304,137.08,28.66,9.648001,104.0,Oct-17,7049145,2019-08-19 00:17:18:678,-0.4921,-0.2422,9.6859,-0.6284,-0.4084,9.778,0.0028,-0.003,-0.0251
70493,45.68006,0.129304,137.08,28.66,9.648001,104.0,Oct-17,7049245,2019-08-19 00:17:18:778,-0.5173,-0.4146,9.9432,-0.6074,-0.3871,9.7802,-0.0025,-0.0119,-0.0226
70494,45.68006,0.129304,137.08,28.66,9.648001,104.0,Oct-17,7049346,2019-08-19 00:17:18:879,-0.4592,-0.2883,9.9971,-0.5965,-0.3872,9.7808,-0.0025,-0.0119,-0.0226
70495,45.68006,0.129304,137.08,28.66,9.648001,104.0,Oct-17,7049446,2019-08-19 00:17:18:979,-0.546,-0.2691,9.4931,-0.5819,-0.3836,9.7819,0.0014,-0.0053,-0.021
70496,45.68006,0.129304,137.08,28.66,9.648001,104.0,Oct-17,7049546,2019-08-19 00:17:19:079,-0.4335,-0.1578,9.4638,-0.5808,-0.3777,9.7821,0.0044,0.0085,-0.0218
70497,45.68006,0.129304,137.08,28.66,9.648001,104.0,Oct-17,7049646,2019-08-19 00:17:19:179,-0.6124,-0.3272,10.1647,-0.5889,-0.3687,9.782,0.0057,0.0095,-0.0223
70498,45.68006,0.129304,137.08,28.66,9.648001,104.0,Oct-17,7049745,2019-08-19 00:17:19:278,-0.5849,-0.3595,9.5584,-0.5916,-0.3631,9.7821,0.0002,-0.0074,-0.0228
70499,45.68006,0.129304,137.08,28.66,9.648001,104.0,Oct-17,7049846,2019-08-19 00:17:19:379,-0.868,-0.3565,9.7918,-0.5932,-0.3627,9.782,-0.0009,0.0122,-0.0237
70500,45.68006,0.129304,137.08,28.66,9.648001,104.0,Oct-17,7049946,2019-08-19 00:17:19:479,-0.8159,-0.2793,9.6787,-0.6019,-0.3642,9.7814,-0.0092,0.0081,-0.0255
70501,45.68006,0.129304,137.08,28.66,9.648001,104.0,Oct-17,7050045,2019-08-19 00:17:19:578,-0.7896,-0.2918,9.8056,-0.6196,-0.3722,9.78,-0.0033,0.004,-0.0283
70502,45.68006,0.129304,137.08,28.66,9.648001,104.0,Oct-17,7050145,2019-08-19 00:17:19:678,-0.7681,-0.5468,9.9367,-0.6214,-0.3769,9.7797,-0.0065,-0.0091,-0.0278
70503,45.68006,0.129304,137.08,28.66,9.648001,104.0,Oct-17,7050246,2019-08-19 00:17:19:779,-0.7615,-0.4912,9.5817,-0.6157,-0.3838,9.7798,-0.0017,-0.0006,-0.0269
70504,45.68006,0.129304,137.08,28.66,9.648001,104.0,Oct-17,7050345,2019-08-19 00:17:19:878,-0.956,-0.3655,9.4327,-0.6202,-0.3891,9.7793,-0.0014,0.0079,-0.0269
70505,45.68006,0.129304,137.08,28.66,9.648001,104.0,Oct-17,7050446,2019-08-19 00:17:19:979,-0.8189,-0.6055,9.8403,-0.6392,-0.3957,9.7778,-0.0038,0.0159,-0.0255
70506,45.68006,0.129304,137.08,28.66,9.648001,104.0,Oct-17,7050546,2019-08-19 00:17:20:079,-0.777,-0.3966,9.5668,-0.6509,-0.3974,9.777,0.0027,0.0058,-0.0264
70507,45.68006,0.129304,137.08,28.66,9.648001,104.0,Oct-17,7050646,2019-08-19 00:17:20:179,-0.6232,-0.4977,9.5177,-0.6495,-0.4053,9.7767,-0.003,-0.0067,-0.0321
70508,45.68006,0.129304,137.08,28.66,9.648001,104.0,Oct-17,7050745,2019-08-19 00:17:20:278,-0.7208,-0.4756,9.9654,-0.6479,-0.414,9.7765,-0.0182,-0.0023,-0.0353
70509,45.68006,0.129304,137.08,28.66,9.648001,104.0,Oct-17,7050845,2019-08-19 00:17:20:378,-0.78,-0.651,10.0767,-0.6491,-0.4437,9.7751,-0.0079,-0.0069,-0.0351
70510,45.68006,0.129304,137.08,28.66,9.648001,104.0,Oct-17,7050945,2019-08-19 00:17:20:478,-0.8973,-0.5905,9.8642,-0.6479,-0.4533,9.7747,-0.0133,-0.0035,-0.0352
70511,45.68006,0.129304,137.08,28.66,9.648001,104.0,Oct-17,7051045,2019-08-19 00:17:20:578,-0.6819,-0.6599,10.0887,-0.6504,-0.4643,9.774,0.005,-0.0035,-0.0351
70512,45.68006,0.129304,137.08,28.66,9.648001,104.0,Oct-17,7051145,2019-08-19 00:17:20:678,-0.8112,-0.6671,9.8553,-0.6428,-0.4661,9.7745,0.004,-0.016,-0.0344
70513,45.68006,0.129304,137.08,28.66,9.648001,104.0,Oct-17,7051245,2019-08-19 00:17:20:778,-0.8231,-0.5678,10.2892,-0.6303,-0.4604,9.7755,0.0133,-0.0137,-0.033
70514,45.68006,0.129304,137.08,28.66,9.648001,104.0,Oct-17,7051346,2019-08-19 00:17:20:879,-0.8076,-0.542,9.8744,-0.6237,-0.4573,9.7761,0.0068,-0.0038,-0.033
70515,45.68006,0.129304,137.08,28.66,9.648001,104.0,Nov-17,7051446,2019-08-19 00:17:20:979,-0.8926,-0.56,9.966,-0.6242,-0.4561,9.7761,0.003,-0.0012,-0.0352
70516,45.68006,0.129304,137.08,28.66,9.648001,104.0,Nov-17,7051546,2019-08-19 00:17:21:079,-0.6801,-0.7384,9.7565,-0.6273,-0.4583,9.7758,0.0058,0.0054,-0.0347
70517,45.68006,0.129304,137.08,28.66,9.648001,104.0,Nov-17,7051645,2019-08-19 00:17:21:178,-0.8189,-0.7354,9.3992,-0.6327,-0.459,9.7754,0.008,0.0037,-0.0347
70518,45.68006,0.129304,137.08,28.66,9.648001,104.0,Nov-17,7051745,2019-08-19 00:17:21:278,-0.7956,-0.4409,9.6266,-0.6394,-0.4581,9.7751,0.0062,-0.004,-0.0331
70519,45.68006,0.129304,137.08,28.66,9.648001,104.0,Nov-17,7051846,2019-08-19 00:17:21:379,-0.8656,-0.4109,9.6955,-0.6396,-0.4562,9.7751,0.012,0.0005,-0.0295
70520,45.68006,0.129304,137.08,28.66,9.648001,104.0,Nov-17,7051946,2019-08-19 00:17:21:479,-0.8351,-0.6085,9.6111,-0.6689,-0.4498,9.7735,0.0097,0.0002,-0.0274
70521,45.68006,0.129304,137.08,28.66,9.648001,104.0,Nov-17,7052046,2019-08-19 00:17:21:579,-0.974,-0.4181,9.7385,-0.6868,-0.4386,9.7727,0.0108,0.0067,-0.0264
70522,45.68006,0.129304,137.08,28.66,9.648001,104.0,Nov-17,7052145,2019-08-19 00:17:21:678,-0.8513,-0.2763,9.2765,-0.7122,-0.4211,9.7717,0.0124,0.0181,-0.0256
70523,45.68006,0.129304,137.08,28.66,9.648001,104.0,Nov-17,7052246,2019-08-19 00:17:21:779,-1.0296,-0.4092,9.7158,-0.7263,-0.4144,9.7709,0.0099,0.0146,-0.0224
70524,45.68006,0.129304,137.08,28.66,9.648001,104.0,Nov-17,7052346,2019-08-19 00:17:21:879,-1.1134,-0.2685,9.7002,-0.7835,-0.3893,9.7675,0.0125,0.0096,-0.0195
70525,45.67804,0.134405,111.94,24.5,12.864,132.3,0 / 17,7052446,2019-08-19 00:17:21:979,-1.1015,0.0452,9.8415,-0.7901,-0.3704,9.7677,0.0177,-0.0041,-0.0128
70526,45.67804,0.134405,111.94,24.5,12.864,132.3,0 / 17,7052546,2019-08-19 00:17:22:079,-1.0829,0.09,9.8792,-0.7907,-0.3429,9.7687,0.0081,-0.0072,-0.0035
70527,45.67804,0.134405,111.94,24.5,12.864,132.3,0 / 17,7052646,2019-08-19 00:17:22:179,-1.0667,0.4043,9.9618,-0.7949,-0.3291,9.7688,0.005,-0.0015,-0.0027
70528,45.67804,0.134405,111.94,24.5,12.864,132.3,0 / 17,7052746,2019-08-19 00:17:22:279,-1.1972,0.1128,9.4614,-0.8202,-0.2908,9.768,0.0001,0.0035,-0.0038
70529,45.67804,0.134405,111.94,24.5,12.864,132.3,0 / 17,7052846,2019-08-19 00:17:22:379,-1.2822,0.3283,9.9923,-0.8322,-0.286,9.7671,-0.0005,0.0017,-0.0048
70530,45.67804,0.134405,111.94,24.5,12.864,132.3,0 / 17,7052945,2019-08-19 00:17:22:478,-1.2894,0.2846,9.5578,-0.8771,-0.2316,9.7646,-0.0014,-0.0007,-0.0044
70531,45.67804,0.134405,111.94,24.5,12.864,132.3,0 / 17,7053045,2019-08-19 00:17:22:578,-1.1104,0.1864,9.9642,-0.8861,-0.2274,9.7639,0.0058,-0.0017,-0.0047
70532,45.67804,0.134405,111.94,24.5,12.864,132.3,0 / 17,7053145,2019-08-19 00:17:22:678,-1.1954,0.0745,9.7356,-0.893,-0.2034,9.7638,0.0087,-0.0032,-0.0057
70533,45.67804,0.134405,111.94,24.5,12.864,132.3,0 / 17,7053245,2019-08-19 00:17:22:778,-1.3349,0.2391,9.5153,-0.897,-0.1942,9.7636,0.0126,0.0043,-0.0041
70534,45.67804,0.134405,111.94,24.5,12.864,132.3,0 / 17,7053345,2019-08-19 00:17:22:878,-1.2726,0.3726,9.6793,-0.9157,-0.1644,9.7624,0.0162,-0.0005,-0.0029
70535,45.67804,0.134405,111.94,24.5,12.864,132.3,0 / 17,7053445,2019-08-19 00:17:22:978,-1.4678,0.2726,9.6254,-0.9229,-0.1498,9.762,0.0175,0.0009,-0.003
70536,45.67804,0.134405,111.94,24.5,12.864,132.3,0 / 17,7053545,2019-08-19 00:17:23:078,-1.3744,0.3283,9.7134,-0.9403,-0.1265,9.7606,-0.0111,0.0084,-0.0033
70537,45.67804,0.134405,111.94,24.5,12.864,132.3,0 / 17,7053646,2019-08-19 00:17:23:179,-1.2535,0.3265,10.0498,-0.954,-0.132,9.7592,-0.0257,-0.004,-0.0051
70538,45.67804,0.134405,111.94,24.5,12.864,132.3,0 / 17,7053746,2019-08-19 00:17:23:279,-1.3421,0.0332,10.0013,-0.9514,-0.1552,9.7592,-0.0295,-0.0168,-0.0057
70539,45.67804,0.134405,111.94,24.5,12.864,132.3,0 / 17,7053846,2019-08-19 00:17:23:379,-0.9237,0.1732,9.7738,-0.9438,-0.1705,9.7596,-0.017,-0.0051,-0.0057
70540,45.67804,0.134405,111.94,24.5,12.864,132.3,0 / 17,7053946,2019-08-19 00:17:23:479,-1.0033,0.0829,9.6033,-0.9396,-0.1747,9.76,-0.0017,0.0008,-0.0048
70541,45.67804,0.134405,111.94,24.5,12.864,132.3,0 / 17,7054046,2019-08-19 00:17:23:579,-0.9111,0.1792,9.3818,-0.9405,-0.1722,9.7599,-0.0017,0.0045,-0.0043
70542,45.67804,0.134405,111.94,24.5,12.864,132.3,0 / 17,7054146,2019-08-19 00:17:23:679,-1.056,0.2594,10.0031,-0.9452,-0.1681,9.7595,0.0012,0.0031,-0.0047
70543,45.67804,0.134405,111.94,24.5,12.864,132.3,0 / 17,7054246,2019-08-19 00:17:23:779,-0.9123,0.3055,10.4197,-0.9433,-0.1539,9.76,0.0018,-0.0114,-0.0053
70544,45.67804,0.134405,111.94,24.5,12.864,132.3,0 / 17,7054345,2019-08-19 00:17:23:878,-0.9027,0.108,9.966,-0.9279,-0.1492,9.7615,-0.0009,-0.0158,-0.005
70545,45.67804,0.134405,111.94,24.5,12.864,132.3,0 / 17,7054445,2019-08-19 00:17:23:978,-0.7932,0.1475,9.6248,-0.9161,-0.1421,9.7627,-0.0027,0.0075,-0.005
70546,45.67804,0.134405,111.94,24.5,12.864,132.3,0 / 17,7054545,2019-08-19 00:17:24:078,-0.7531,0.1188,9.5302,-0.9204,-0.1378,9.7624,-0.0045,0.0112,-0.0063
70547,45.67804,0.134405,111.94,24.5,12.864,132.3,0 / 17,7054645,2019-08-19 00:17:24:178,-0.807,-0.0913,9.6942,-0.9268,-0.1342,9.7618,-0.0042,-0.0027,-0.0124
70548,45.67804,0.134405,111.94,24.5,12.864,132.3,0 / 17,7054745,2019-08-19 00:17:24:278,-0.813,-0.2655,9.4656,-0.9241,-0.1367,9.7621,-0.0089,-0.0034,-0.0167
