,GPS LATITUDE (degrees), GPS LONGITUDE (degrees), GPS ALTITUDE (m), GPS SPEED (Kmh), GPS ACCURACY (m), GPS ORIENTATION (Â°),GPS SATELLITES IN RANGE, TIME SINCE START (ms), DATE (YYYY-MO-DD HH-MI-SS_SSS), ACCELEROMETER X (m/s²) , ACCELEROMETER Y (m/s²), ACCELEROMETER Z (m/s²), GRAVITY X (m/s²), GRAVITY Y (m/s²), GRAVITY Z (m/s²), GYROSCOPE Yaw (rad/s), GYROSCOPE Pitch (rad/s), GYROSCOPE Roll (rad/s), MAGNETIC FIELD X (Î¼T), MAGNETIC FIELD Y (Î¼T), MAGNETIC FIELD Z (Î¼T), ORIENTATION (Yaw) (Â°), ORIENTATION (Pitch) (Â°), ORIENTATION (Roll ) (Â°)
1121,50.98216,-3.689974,295,25.91,11.0,273.7,Jul-21,560562,2020-03-21 14:38:17:874,1.0337,-0.2081,9.5605,0.01,0.0001,9.8066,-0.0543,0.0113,-0.0043,-12.01,-23.7,-41.53,97.39,-11.86,4.61
1122,50.98216,-3.689974,295,25.91,11.0,273.7,Jul-21,561062,2020-03-21 14:38:18:374,1.0074,0.3844,9.1639,0.0112,0.0073,9.8066,-0.0639,0.0219,-0.0011,-13.13,-24.07,-41.96,99.49,-11.78,4.99
1123,50.98216,-3.689974,295,25.91,11.0,273.7,Jul-21,561562,2020-03-21 14:38:18:874,0.8396,-0.5261,10.959,0.0252,-0.0096,9.8066,-0.0341,-0.01,-0.0234,-12.76,-23.7,-40.65,100.07,-11.68,5.11
1124,50.98216,-3.689974,295,25.91,11.0,273.7,Jul-21,562062,2020-03-21 14:38:19:374,0.2755,0.5937,9.8952,0.0099,0.0031,9.8066,-0.0373,0.006,-0.0149,-13.51,-24.07,-41.96,101.7,-11.58,5.68
1125,50.98216,-3.689974,295,25.91,11.0,273.7,Jul-21,562562,2020-03-21 14:38:19:874,0.7526,0.2329,10.1041,0.0131,-0.0092,9.8066,-0.0618,-0.0175,-0.016,-13.51,-24.07,-41.09,102.14,-11.54,6.17
1126,50.98216,-3.689974,295,25.91,11.0,273.7,Jul-21,563062,2020-03-21 14:38:20:374,0.5291,-0.231,10.0553,0.0042,0.0002,9.8067,-0.017,0.0049,-0.0053,-13.88,-23.7,-42.4,101.82,-11.44,6.44
1127,50.98216,-3.689974,295,25.91,11.0,273.7,Jul-21,563562,2020-03-21 14:38:20:874,0.5742,-0.1149,9.3524,-0.0042,-0.0039,9.8066,-0.0298,-0.0303,-0.0256,-13.88,-24.45,-42.4,102.0,-11.33,6.04
1128,50.98216,-3.689974,295,25.91,11.0,273.7,Jul-21,564062,2020-03-21 14:38:21:374,0.1457,0.1906,9.9241,0.016,0.0073,9.8066,0.0298,0.0028,-0.033,-14.26,-24.07,-41.53,101.97,-11.33,6.52
1129,50.98216,-3.689974,295,25.91,11.0,273.7,Jul-21,564562,2020-03-21 14:38:21:874,-0.4049,0.1776,10.1984,-0.0038,-0.007,9.8066,-0.0138,-0.0345,-0.0288,-14.26,-23.7,-41.53,102.32,-11.09,6.35
1130,50.98216,-3.689974,295,25.91,11.0,273.7,May-20,565062,2020-03-21 14:38:22:374,-0.3127,0.2288,9.3527,-0.0115,0.0056,9.8066,-0.0352,0.0123,-0.016,-14.26,-24.07,-41.53,102.21,-11.15,6.49
1131,50.98216,-3.689974,295,25.91,11.0,273.7,May-20,565562,2020-03-21 14:38:22:874,-0.2793,-0.3074,8.6436,0.008,-0.003,9.8066,-0.0064,0.0092,-0.0266,-14.26,-23.7,-41.53,102.22,-11.11,7.05
1132,50.982567,-3.69383,311,26.19,17.0,283.7,Jun-20,566062,2020-03-21 14:38:23:374,-0.5121,0.0574,9.5459,-0.0121,0.0038,9.8066,-0.0096,0.0411,-0.0224,-14.63,-23.7,-41.96,104.39,-10.82,7.41
1133,50.982567,-3.69383,311,26.19,17.0,283.7,Jun-20,566562,2020-03-21 14:38:23:874,-0.4051,-0.516,10.0698,-0.0083,0.0017,9.8066,-0.0831,0.0219,-0.0064,-15.32,-23.32,-41.96,105.05,-10.67,7.3
1134,50.982567,-3.69383,311,26.19,17.0,283.7,Jun-20,567062,2020-03-21 14:38:24:374,0.6027,-0.1218,11.1091,-0.0119,-0.0083,9.8066,0.0256,-0.0441,-0.0362,-15.01,-23.32,-41.53,105.05,-10.7,7.0
1135,50.982567,-3.69383,311,26.19,17.0,283.7,Jun-20,567562,2020-03-21 14:38:24:874,-0.7713,-0.6287,9.9986,0.0058,-0.0021,9.8066,-0.0522,-0.0122,-0.0128,-15.32,-23.32,-41.53,105.15,-10.67,6.72
1136,50.982567,-3.69383,311,26.19,17.0,283.7,Jun-20,568062,2020-03-21 14:38:25:374,0.5083,-0.4102,9.8008,-0.001,0.0024,9.8066,0.0298,0.0049,-0.0245,-15.14,-22.01,-38.69,106.97,-10.6,7.04
1137,50.982567,-3.69383,311,26.19,17.0,283.7,Jun-20,568562,2020-03-21 14:38:25:874,-1.361,-0.2222,10.3194,-0.0046,-0.0059,9.8066,-0.0543,-0.0324,-0.0181,-14.76,-22.38,-38.69,107.13,-10.42,7.38
1138,50.982567,-3.69383,311,26.19,17.0,283.7,Jun-20,569061,2020-03-21 14:38:26:373,0.3672,-0.115,9.9929,0.0104,0.0063,9.8066,0.0597,0.0092,-0.0437,-15.14,-22.76,-38.69,106.57,-10.5,6.98
1139,50.982567,-3.69383,311,26.19,17.0,283.7,Jun-20,569561,2020-03-21 14:38:26:873,0.2147,-0.2412,8.342,0.0045,-0.0001,9.8067,0.0096,0.007,-0.0256,-15.51,-21.63,-38.69,109.11,-10.32,7.57
1140,50.982567,-3.69383,311,26.19,17.0,283.7,Jun-20,570062,2020-03-21 14:38:27:374,-0.3935,0.2761,10.6212,0.0029,0.007,9.8066,-0.0352,-0.0143,-0.033,-15.89,-22.38,-39.13,109.31,-10.31,6.81
1141,50.982567,-3.69383,311,26.19,17.0,283.7,Jun-20,570562,2020-03-21 14:38:27:874,-0.296,0.2503,9.7709,-0.0019,-0.0049,9.8067,-0.0213,-0.0068,-0.0181,-15.89,-22.38,-38.25,109.81,-10.24,6.86
1142,50.982567,-3.69383,311,26.19,17.0,283.7,Jun-20,571061,2020-03-21 14:38:28:373,-0.5415,0.3743,8.8148,0.014,0.0027,9.8066,0.0277,-0.026,-0.0575,-16.26,-22.01,-39.57,109.02,-10.28,6.53
1143,50.982567,-3.69383,311,26.19,17.0,283.7,Jun-20,571561,2020-03-21 14:38:28:873,-0.2151,0.1455,10.6028,-0.0054,0.0033,9.8066,-0.0298,0.0422,-0.0181,-16.64,-21.63,-38.32,111.74,-10.2,6.84
1144,50.982567,-3.69383,311,26.19,17.0,283.7,Aug-20,572062,2020-03-21 14:38:29:374,0.4175,0.7523,9.1122,0.0121,-0.0016,9.8066,0.0586,-0.0079,-0.0586,-16.64,-21.63,-39.19,111.19,-10.24,7.14
1145,50.982567,-3.69383,311,26.19,17.0,283.7,Aug-20,572562,2020-03-21 14:38:29:874,0.4136,0.3245,9.9419,0.0067,0.0073,9.8066,0.0011,0.0219,-0.0266,-17.01,-20.95,-38.75,111.85,-10.16,7.53
1146,50.982567,-3.69383,311,26.19,17.0,283.7,Aug-20,573062,2020-03-21 14:38:30:374,-0.8856,0.3632,9.7203,-0.0111,-0.0016,9.8066,-0.017,0.0187,-0.0202,-17.01,-21.63,-38.75,111.03,-10.28,7.44
1147,50.982567,-3.69383,311,26.19,17.0,283.7,Aug-20,573562,2020-03-21 14:38:30:874,-0.7802,-0.3455,9.554,-0.0065,-0.0019,9.8066,-0.0277,-0.0249,-0.0192,-17.39,-21.32,-38.32,112.21,-10.39,6.9
1148,50.982567,-3.69383,311,26.19,17.0,283.7,Aug-20,574062,2020-03-21 14:38:31:374,0.0738,-0.065,9.8221,-0.0022,-0.0043,9.8066,0.0,0.0102,-0.0202,-17.39,-21.32,-38.32,112.26,-10.47,6.4
1149,50.982567,-3.69383,311,26.19,17.0,283.7,Aug-20,574562,2020-03-21 14:38:31:874,-0.7516,0.4133,9.8933,-0.014,0.0072,9.8066,-0.0075,0.0209,-0.0117,-18.14,-21.63,-39.19,112.93,-10.63,5.87
1150,50.982567,-3.69383,311,26.19,17.0,283.7,Aug-20,575062,2020-03-21 14:38:32:374,-0.5819,0.1305,9.8341,-0.0074,-0.0011,9.8066,-0.0405,0.0113,-0.0011,-18.45,-22.01,-38.75,112.81,-10.75,5.81
1151,50.982567,-3.69383,311,26.19,17.0,283.7,Aug-20,575562,2020-03-21 14:38:32:874,-1.0028,-0.3834,9.4066,-0.0079,-0.0017,9.8066,-0.0607,-0.0068,-0.0107,-18.82,-20.95,-38.32,115.8,-10.96,5.4
1152,50.982567,-3.69383,311,26.19,17.0,283.7,Aug-20,576062,2020-03-21 14:38:33:374,-0.8945,-0.0453,8.5782,0.0047,0.0045,9.8066,-0.0256,-0.0164,-0.033,-18.82,-20.95,-38.32,115.53,-11.08,5.68
1153,50.982567,-3.69383,311,26.19,17.0,283.7,Aug-20,576562,2020-03-21 14:38:33:874,-0.0442,-0.3521,8.9733,-0.0056,0.0096,9.8066,-0.0309,0.0155,-0.0064,-19.2,-20.2,-38.75,115.59,-11.09,6.5
1154,50.982567,-3.69383,311,26.19,17.0,283.7,Aug-20,577061,2020-03-21 14:38:34:373,-0.7499,-0.3588,10.1866,-0.0028,-0.0008,9.8066,-0.0895,0.039,-0.0053,-19.1,-20.09,-37.01,116.11,-11.17,7.25
1155,50.982567,-3.69383,311,26.19,17.0,283.7,Aug-20,577562,2020-03-21 14:38:34:874,0.6363,0.111,9.9408,0.0113,0.0029,9.8066,0.0021,0.0198,-0.0426,-19.1,-19.34,-36.19,117.24,-11.2,7.8
1156,50.982567,-3.69383,311,26.19,17.0,283.7,Aug-20,578062,2020-03-21 14:38:35:374,-0.2278,-0.509,9.5972,-0.0011,-0.0016,9.8067,-0.0394,0.0155,-0.0192,-19.47,-19.72,-35.32,116.46,-11.47,7.99
1157,50.982567,-3.69383,311,26.19,17.0,283.7,Aug-20,578562,2020-03-21 14:38:35:874,-0.1097,-0.3446,9.686,0.0001,-0.002,9.8067,-0.0085,-0.0015,-0.0245,-19.85,-19.34,-36.19,118.5,-11.61,8.05
1158,50.982567,-3.69383,311,26.19,17.0,283.7,Aug-20,579061,2020-03-21 14:38:36:373,-0.5594,-0.4238,9.684,-0.0059,-0.0008,9.8067,-0.0447,0.0273,-0.0128,-20.6,-19.72,-35.76,119.12,-11.83,7.95
1159,50.982567,-3.69383,311,26.19,17.0,283.7,Aug-20,579562,2020-03-21 14:38:36:874,-0.7844,0.1273,9.7332,-0.0169,0.0011,9.8066,-0.0256,0.0134,-0.0181,-20.22,-19.34,-36.19,118.29,-11.94,7.62
1160,50.982567,-3.69383,311,26.19,17.0,283.7,Apr-20,580062,2020-03-21 14:38:37:374,0.0078,0.2939,9.3027,-0.0245,0.0081,9.8066,-0.0075,0.023,-0.0139,-20.97,-18.97,-35.76,119.99,-12.14,7.36
1161,50.982567,-3.69383,311,26.19,17.0,283.7,Apr-20,580562,2020-03-21 14:38:37:874,0.0886,-0.1804,10.2949,-0.0019,0.0057,9.8066,-0.0256,0.0294,-0.0149,-21.35,-19.34,-35.76,120.07,-12.27,6.84
1162,50.982567,-3.69383,311,26.19,17.0,283.7,Jul-20,581062,2020-03-21 14:38:38:374,-0.0051,-0.3214,9.9963,0.0025,-0.0089,9.8066,0.0117,-0.0249,-0.016,-21.35,-19.34,-35.32,120.37,-12.63,6.38
1163,50.982567,-3.69383,311,26.19,17.0,283.7,Jul-20,581561,2020-03-21 14:38:38:873,-0.2624,0.1936,9.09,-0.0089,0.0028,9.8066,0.0064,0.0209,-0.0107,-21.35,-18.59,-35.32,120.27,-12.83,6.11
1164,50.984512,-3.699226,280,26.52,15.0,307.9,Aug-20,582062,2020-03-21 14:38:39:374,0.3524,-1.4559,8.7087,0.0108,0.0082,9.8066,-0.033,0.0134,0.0011,-21.35,-18.97,-35.76,119.73,-12.81,6.14
1165,50.984512,-3.699226,280,26.52,15.0,307.9,Aug-20,582562,2020-03-21 14:38:39:874,-1.114,-0.2864,9.8326,-0.0209,0.0008,9.8066,-0.0511,0.0145,0.0043,-21.66,-17.84,-35.32,122.54,-13.43,5.98
1166,50.984512,-3.699226,280,26.52,15.0,307.9,Aug-20,583062,2020-03-21 14:38:40:374,-0.9232,0.7354,8.7615,-0.007,0.0055,9.8066,0.0266,0.0006,-0.0266,-21.35,-18.59,-35.32,119.21,-13.92,5.46
1167,50.984512,-3.699226,280,26.52,15.0,307.9,Aug-20,583562,2020-03-21 14:38:40:874,-0.1042,0.351,9.5895,-0.0067,-0.001,9.8066,0.0384,-0.009,-0.0181,-22.41,-18.59,-35.76,120.1,-14.37,5.12
1168,50.984512,-3.699226,280,26.52,15.0,307.9,Aug-20,584062,2020-03-21 14:38:41:374,-0.2931,0.0371,9.6221,-0.0067,0.0051,9.8066,-0.0415,0.0177,0.0032,-22.41,-18.59,-35.32,120.75,-14.39,4.91
1169,50.984512,-3.699226,280,26.52,15.0,307.9,Aug-20,584562,2020-03-21 14:38:41:874,0.0982,0.3039,9.3683,-0.0044,0.0075,9.8066,0.0053,0.0273,-0.0064,-22.78,-18.59,-35.76,121.93,-14.59,4.6
1170,50.984512,-3.699226,280,26.52,15.0,307.9,Aug-20,585062,2020-03-21 14:38:42:374,-0.3046,-0.6703,9.5912,-0.0052,-0.001,9.8066,-0.0586,0.0049,0.0011,-22.78,-18.22,-34.88,123.58,-14.7,4.55
1171,50.984512,-3.699226,280,26.52,15.0,307.9,Aug-20,585562,2020-03-21 14:38:42:874,-0.113,0.0043,9.4424,0.0049,0.0071,9.8066,-0.0224,0.0187,-0.0011,-22.41,-17.84,-34.88,121.69,-14.57,4.86
1172,50.984512,-3.699226,280,26.52,15.0,307.9,Aug-20,586062,2020-03-21 14:38:43:374,0.1213,-0.0942,9.3606,-0.006,0.0007,9.8066,0.0288,0.0092,-0.0181,-22.78,-17.84,-35.76,122.77,-14.75,4.82
1173,50.984512,-3.699226,280,26.52,15.0,307.9,Aug-20,586562,2020-03-21 14:38:43:874,-0.0638,0.1302,9.7184,-0.0008,-0.0053,9.8067,-0.0064,-0.0047,-0.0021,-22.78,-17.84,-34.88,123.35,-14.72,4.91
1174,50.984512,-3.699226,280,26.52,15.0,307.9,Aug-20,587062,2020-03-21 14:38:44:374,-0.1559,0.3908,9.3802,0.0015,0.0021,9.8067,0.0224,0.0092,-0.0128,-23.16,-18.22,-35.32,123.4,-14.68,4.91
1175,50.984512,-3.699226,280,26.52,15.0,307.9,Aug-20,587562,2020-03-21 14:38:44:874,1.1389,-0.0063,9.1914,-0.0027,0.0034,9.8067,-0.0096,0.0262,0.0011,-23.53,-17.09,-35.32,126.35,-14.7,5.1
1176,50.984512,-3.699226,280,26.52,15.0,307.9,Jun-20,588062,2020-03-21 14:38:45:374,0.2509,-0.218,10.2042,0.0045,-0.0051,9.8066,-0.0181,-0.0068,-0.0085,-23.16,-17.47,-34.88,124.6,-14.7,4.97
1177,50.984512,-3.699226,280,26.52,15.0,307.9,Jun-20,588562,2020-03-21 14:38:45:874,0.2193,-0.352,9.0575,0.0038,0.001,9.8067,0.0181,-0.0175,-0.0234,-23.53,-17.84,-34.88,125.26,-14.58,5.03
1178,50.984512,-3.699226,280,26.52,15.0,307.9,Jul-20,589062,2020-03-21 14:38:46:374,0.0281,0.5116,9.962,-0.0065,-0.0064,9.8066,0.0277,0.007,-0.0139,-23.91,-17.47,-34.44,126.97,-14.69,5.07
1179,50.984512,-3.699226,280,26.52,15.0,307.9,Jul-20,589561,2020-03-21 14:38:46:873,0.3186,0.2521,9.3995,0.0042,0.0051,9.8066,0.0458,-0.0047,-0.0107,-23.91,-17.84,-34.88,125.26,-14.68,4.82
1180,50.984512,-3.699226,280,26.52,15.0,307.9,Jul-20,590062,2020-03-21 14:38:47:374,-0.6137,-0.4436,9.5148,-0.002,-0.0059,9.8066,-0.0373,-0.0175,-0.0053,-24.28,-17.47,-35.32,126.46,-14.74,4.85
1181,50.984512,-3.699226,280,26.52,15.0,307.9,Jul-20,590562,2020-03-21 14:38:47:874,0.1794,0.032,9.8511,-0.0032,-0.0008,9.8067,-0.0064,-0.0036,-0.0075,-23.91,-17.09,-34.01,127.23,-14.6,4.83
1182,50.98561,-3.7014,260,24.37,34.0,312.6,Jul-20,591062,2020-03-21 14:38:48:374,-0.3114,0.3115,8.7142,-0.0015,0.0083,9.8066,-0.0234,0.0432,0.0,-24.66,-17.47,-34.88,128.11,-14.68,5.13
1183,50.98561,-3.7014,260,24.37,34.0,312.6,Jul-20,591562,2020-03-21 14:38:48:874,0.2536,0.3679,10.7772,0.012,0.0062,9.8066,0.0352,0.0209,-0.0149,-24.28,-17.16,-34.44,127.31,-14.51,4.86
1184,50.98561,-3.7014,260,24.37,34.0,312.6,Jul-20,592062,2020-03-21 14:38:49:374,0.232,-0.1647,9.8844,-0.0076,0.0008,9.8066,-0.0202,0.0273,0.0043,-24.66,-17.47,-34.88,128.45,-14.42,5.08
1185,50.98561,-3.7014,260,24.37,34.0,312.6,Jul-20,592562,2020-03-21 14:38:49:874,-0.3575,-0.0074,9.3421,-0.0041,0.0042,9.8066,0.0192,0.0251,-0.0043,-25.03,-17.47,-34.44,129.11,-14.49,4.79
1186,50.98561,-3.7014,260,24.37,34.0,312.6,Jul-20,593062,2020-03-21 14:38:50:374,-0.1537,-0.3852,10.0497,-0.004,-0.0051,9.8066,-0.0277,-0.01,-0.0053,-25.03,-17.47,-35.32,128.67,-14.44,4.71
1187,50.98561,-3.7014,260,24.37,34.0,312.6,Jul-20,593562,2020-03-21 14:38:50:874,-0.0507,-0.3863,9.175,-0.0028,0.0018,9.8067,0.0352,0.0113,-0.016,-24.59,-16.78,-32.18,130.17,-14.52,4.81
1188,50.98561,-3.7014,260,24.37,34.0,312.6,Jul-20,594062,2020-03-21 14:38:51:374,-0.4878,-0.3129,9.1805,-0.0028,-0.0012,9.8067,0.0501,0.007,-0.0181,-24.59,-17.1,-32.56,129.66,-14.5,4.78
1189,50.98561,-3.7014,260,24.37,34.0,312.6,Jul-20,594562,2020-03-21 14:38:51:874,-0.6864,-0.032,10.1206,-0.0018,0.0102,9.8066,0.0969,0.0145,-0.0298,-24.9,-16.41,-33.0,130.93,-14.53,4.98
1190,50.98561,-3.7014,260,24.37,34.0,312.6,Mar-20,595062,2020-03-21 14:38:52:374,-0.5071,-0.2174,9.7347,-0.0044,-0.0036,9.8067,0.0554,0.0017,-0.0149,-24.59,-16.41,-32.18,131.66,-14.49,4.79
1191,50.98561,-3.7014,260,24.37,34.0,312.6,Mar-20,595562,2020-03-21 14:38:52:874,0.042,-0.0166,9.691,0.0025,-0.0027,9.8067,-0.0565,-0.0132,-0.0032,-24.9,-17.1,-33.0,129.61,-14.39,5.05
1192,50.98561,-3.7014,260,24.37,34.0,312.6,Mar-20,596062,2020-03-21 14:38:53:374,-0.0404,0.3077,9.5414,0.0078,-0.0021,9.8066,-0.0106,-0.0249,-0.0096,-24.9,-16.41,-32.18,131.45,-14.43,5.19
1193,50.98561,-3.7014,260,24.37,34.0,312.6,Mar-20,596563,2020-03-21 14:38:53:875,1.01,0.6872,10.3979,0.0005,-0.003,9.8066,-0.0138,-0.0335,-0.0085,-24.9,-16.41,-32.56,130.77,-14.48,5.29
1194,50.98561,-3.7014,260,24.37,34.0,312.6,May-20,597062,2020-03-21 14:38:54:374,0.5156,0.3971,9.917,0.0041,-0.0019,9.8066,0.0277,-0.0143,-0.0171,-25.27,-16.78,-32.18,129.89,-14.47,5.34
1195,50.98561,-3.7014,260,24.37,34.0,312.6,May-20,597562,2020-03-21 14:38:54:874,0.137,-0.3354,10.062,0.0025,-0.0003,9.8067,-0.0128,-0.0004,-0.0011,-24.59,-16.78,-32.18,130.13,-14.54,4.84
1196,50.98561,-3.7014,260,24.37,34.0,312.6,May-20,598062,2020-03-21 14:38:55:374,-0.1695,0.5568,9.0304,-0.0035,0.0031,9.8067,-0.0075,-0.0047,0.0011,-24.9,-16.78,-32.56,129.67,-14.52,4.73
1197,50.98561,-3.7014,260,24.37,34.0,312.6,May-20,598562,2020-03-21 14:38:55:874,-0.2686,-0.8089,9.4041,-0.0052,0.0034,9.8066,0.0437,0.0198,-0.0117,-24.9,-16.41,-32.18,131.53,-14.66,4.7
1198,50.98561,-3.7014,260,24.37,34.0,312.6,May-20,599062,2020-03-21 14:38:56:374,-1.0793,-0.4409,10.2849,0.0078,0.0023,9.8066,0.0458,-0.0015,-0.0192,-25.27,-16.03,-32.56,131.06,-14.44,4.93
1199,50.98561,-3.7014,260,24.37,34.0,312.6,May-20,599562,2020-03-21 14:38:56:874,-0.3205,0.35,10.2788,-0.0024,0.0084,9.8066,0.0139,0.0049,-0.0181,-25.27,-15.66,-32.12,131.2,-14.66,5.21
1200,50.98561,-3.7014,260,24.37,34.0,312.6,May-20,600062,2020-03-21 14:38:57:374,-0.1141,0.0205,9.5986,-0.0122,-0.0023,9.8066,-0.0405,0.0102,0.0053,-25.27,-16.41,-33.0,130.66,-14.68,5.12
1201,50.98561,-3.7014,260,24.37,34.0,312.6,May-20,600562,2020-03-21 14:38:57:874,1.1258,0.5812,9.9673,0.0066,0.0039,9.8066,0.0661,0.0092,-0.0128,-25.27,-16.41,-32.56,130.4,-14.84,5.23
1202,50.98561,-3.7014,260,24.37,34.0,312.6,May-20,601062,2020-03-21 14:38:58:374,-0.1785,0.1469,10.3043,0.0093,0.0015,9.8066,-0.0043,0.0219,-0.0064,-25.27,-16.03,-31.75,130.85,-14.85,5.42
1203,50.98561,-3.7014,260,24.37,34.0,312.6,May-20,601562,2020-03-21 14:38:58:874,0.3351,0.3974,9.9384,0.0018,0.0013,9.8067,0.0181,0.0198,-0.0117,-25.27,-15.66,-33.0,130.07,-15.0,5.47
1204,50.98561,-3.7014,260,24.37,34.0,312.6,May-20,602062,2020-03-21 14:38:59:374,0.2665,-0.1598,9.4474,-0.0009,-0.003,9.8067,-0.0469,-0.0132,-0.0021,-25.27,-16.03,-33.0,129.93,-15.0,5.67
1205,50.98561,-3.7014,260,24.37,34.0,312.6,May-20,602562,2020-03-21 14:38:59:874,0.0561,0.5678,9.4944,-0.0038,-0.0026,9.8067,0.0213,-0.0036,-0.033,-24.59,-15.66,-32.56,129.95,-15.08,5.51
1206,50.98561,-3.7014,260,24.37,34.0,312.6,Jun-20,603061,2020-03-21 14:39:00:373,0.2523,0.2713,10.3778,0.0006,0.0044,9.8067,0.0202,-0.01,-0.0128,-25.65,-16.41,-32.56,131.67,-14.99,5.57
1207,50.98561,-3.7014,260,24.37,34.0,312.6,Jun-20,603562,2020-03-21 14:39:00:874,-0.6836,-0.4757,10.0459,-0.0014,-0.0012,9.8066,-0.0362,0.0081,-0.0053,-25.65,-15.28,-32.56,133.41,-14.98,5.23
1208,50.987957,-3.705308,264,28.34,18.0,318.7,Jun-20,604062,2020-03-21 14:39:01:374,-0.3536,0.5411,10.1414,0.0029,0.0044,9.8066,-0.0202,0.0241,0.0085,-26.02,-15.66,-32.56,131.7,-15.1,5.34
1209,50.987957,-3.705308,264,28.34,18.0,318.7,Jun-20,604562,2020-03-21 14:39:01:874,-0.2289,0.2911,9.5976,0.0001,0.0094,9.8066,0.0075,0.0145,-0.0139,-25.65,-15.66,-32.56,131.74,-15.03,5.39
1210,50.987957,-3.705308,264,28.34,18.0,318.7,Jun-20,605062,2020-03-21 14:39:02:374,0.2121,0.4041,9.2608,-0.0012,0.0116,9.8066,0.0533,0.0006,-0.0202,-26.02,-15.66,-32.56,131.52,-15.24,5.39
1211,50.987957,-3.705308,264,28.34,18.0,318.7,Jun-20,605562,2020-03-21 14:39:02:874,-0.1848,0.3211,8.8722,-0.0122,0.0048,9.8066,0.0245,0.023,-0.0053,-25.65,-15.28,-31.75,134.19,-14.81,5.19
1212,50.987957,-3.705308,264,28.34,18.0,318.7,Jun-20,606062,2020-03-21 14:39:03:374,0.6212,-0.4765,10.2254,0.009,-0.0028,9.8066,-0.0437,0.0273,0.0106,-25.65,-14.91,-31.75,134.07,-15.15,4.86
1213,50.987957,-3.705308,264,28.34,18.0,318.7,Jun-20,606562,2020-03-21 14:39:03:874,0.6374,0.4126,10.0842,0.0076,0.0017,9.8066,0.0181,0.0347,0.0,-25.65,-15.28,-31.75,134.12,-15.01,5.0
1214,50.987957,-3.705308,264,28.34,18.0,318.7,Jun-20,607061,2020-03-21 14:39:04:373,0.3915,0.5084,9.687,0.0049,-0.0049,9.8066,0.0149,-0.0143,-0.0181,-25.65,-14.91,-31.75,133.84,-15.14,5.2
1215,50.987957,-3.705308,264,28.34,18.0,318.7,Jun-20,607562,2020-03-21 14:39:04:874,0.0164,-0.1134,9.8668,0.0049,0.0092,9.8066,-0.0266,0.0038,-0.0064,-25.65,-14.91,-32.12,134.03,-15.03,5.09
1216,50.987957,-3.705308,264,28.34,18.0,318.7,Jun-20,608062,2020-03-21 14:39:05:374,0.2692,0.2027,9.8896,0.0025,-0.001,9.8066,-0.0117,0.0017,-0.0075,-26.4,-14.91,-32.56,133.15,-15.01,5.54
1217,50.987957,-3.705308,264,28.34,18.0,318.7,Jun-20,608562,2020-03-21 14:39:05:874,0.0141,-0.5391,9.2201,0.0109,0.0081,9.8066,-0.0394,-0.0058,-0.0139,-26.02,-14.91,-32.12,133.7,-15.03,5.55
1218,50.987957,-3.705308,264,28.34,18.0,318.7,Jun-20,609062,2020-03-21 14:39:06:374,-0.0279,-0.0126,9.9469,0.0043,0.0012,9.8066,0.0011,0.0166,-0.0064,-26.02,-14.91,-31.75,133.9,-14.99,5.33
1219,50.987957,-3.705308,264,28.34,18.0,318.7,Jun-20,609562,2020-03-21 14:39:06:874,0.373,0.2841,10.3869,0.0024,-0.0001,9.8066,0.0618,-0.0058,-0.0224,-26.4,-14.91,-31.75,134.05,-15.09,4.97
1220,50.987957,-3.705308,264,28.34,18.0,318.7,Jun-20,610062,2020-03-21 14:39:07:374,-0.2262,-0.1048,9.319,-0.0081,0.0009,9.8066,-0.0064,-0.0047,-0.0117,-26.4,-14.53,-31.75,134.06,-15.03,5.05
1221,50.987957,-3.705308,264,28.34,18.0,318.7,Jun-20,610562,2020-03-21 14:39:07:874,-1.513,-0.4417,9.968,-0.0036,0.0005,9.8067,-0.0511,-0.0068,-0.0075,-26.77,-15.28,-32.56,135.23,-15.11,4.74
1222,50.987957,-3.705308,264,28.34,18.0,318.7,Apr-20,611061,2020-03-21 14:39:08:373,-0.0206,0.5815,10.536,0.0076,-0.0065,9.8066,0.0117,-0.0377,-0.0128,-26.02,-14.91,-32.56,133.63,-15.14,4.69
1223,50.987957,-3.705308,264,28.34,18.0,318.7,Apr-20,611562,2020-03-21 14:39:08:874,-0.1859,0.2679,8.9564,-0.0049,0.0081,9.8066,-0.0128,-0.0058,-0.0181,-26.02,-14.16,-31.75,135.84,-15.1,4.76
1224,50.987957,-3.705308,264,28.34,18.0,318.7,May-20,612062,2020-03-21 14:39:09:374,1.1397,0.2257,10.1091,-0.0003,0.0065,9.8066,-0.0043,0.0241,0.0011,-26.77,-14.91,-31.75,135.44,-15.17,5.11
1225,50.987957,-3.705308,264,28.34,18.0,318.7,May-20,612562,2020-03-21 14:39:09:874,0.2817,0.9513,10.3783,0.0034,0.0093,9.8066,0.016,0.0134,-0.0117,-26.77,-14.91,-31.75,135.53,-15.0,5.23
1226,50.987957,-3.705308,264,28.34,18.0,318.7,May-20,613062,2020-03-21 14:39:10:374,0.0501,-0.0382,8.4803,-0.0082,0.0169,9.8066,0.0309,-0.0004,-0.0224,-26.4,-13.78,-31.75,135.41,-15.11,5.29
1227,50.987957,-3.705308,264,28.34,18.0,318.7,May-20,613562,2020-03-21 14:39:10:874,0.197,0.6023,9.3551,-0.0098,-0.002,9.8066,0.0075,0.0155,-0.0064,-26.4,-14.16,-31.75,135.36,-15.18,5.26
1228,50.987957,-3.705308,264,28.34,18.0,318.7,May-20,614062,2020-03-21 14:39:11:374,-0.3374,-0.1775,9.9584,-0.0049,0.0039,9.8066,0.0021,-0.0036,-0.0107,-26.77,-14.91,-31.75,135.38,-15.1,5.3
1229,50.987957,-3.705308,264,28.34,18.0,318.7,May-20,614562,2020-03-21 14:39:11:874,-0.4408,-0.0419,9.1562,0.0046,-0.0037,9.8066,0.0053,-0.01,-0.016,-27.52,-14.16,-31.31,138.84,-15.31,5.26
1230,50.990353,-3.70792,250,30.28,40.0,326.1,May-20,615061,2020-03-21 14:39:12:373,-0.3801,0.9702,10.22,-0.0165,0.0072,9.8066,-0.0085,0.0273,0.0043,-26.77,-14.16,-32.18,136.47,-15.44,5.51
1231,50.990353,-3.70792,250,30.28,40.0,326.1,May-20,615562,2020-03-21 14:39:12:874,-0.8531,-0.105,8.9255,-0.0038,0.016,9.8066,-0.0586,0.0273,-0.0064,-26.77,-13.41,-30.87,138.16,-15.98,5.57
1232,50.990353,-3.70792,250,30.28,40.0,326.1,May-20,616061,2020-03-21 14:39:13:373,-0.4065,0.1084,9.4827,-0.0145,0.001,9.8066,-0.0533,-0.009,-0.0064,-27.15,-13.78,-31.75,134.68,-16.93,5.8
1233,50.990353,-3.70792,250,30.28,40.0,326.1,May-20,616562,2020-03-21 14:39:13:874,-0.307,0.8697,9.8212,-0.0137,0.0135,9.8066,0.0629,0.0262,-0.0256,-27.52,-13.47,-31.31,137.73,-17.65,5.92
1234,50.990353,-3.70792,250,30.28,40.0,326.1,May-20,617062,2020-03-21 14:39:14:374,0.1993,0.3856,10.5437,-0.0119,-0.0084,9.8066,0.032,0.0177,-0.0021,-26.39,-13.48,-29.66,134.58,-18.32,5.75
1235,50.990353,-3.70792,250,30.28,40.0,326.1,May-20,617562,2020-03-21 14:39:14:874,-0.0441,0.6094,10.1592,-0.0045,0.0029,9.8066,0.0224,0.0038,-0.0128,-26.77,-13.17,-29.66,135.89,-18.86,5.46
1236,50.990353,-3.70792,250,30.28,40.0,326.1,Mar-20,618062,2020-03-21 14:39:15:374,-0.914,-0.39,10.2185,-0.0064,0.0034,9.8066,-0.0479,-0.0026,0.0011,-26.77,-12.79,-30.53,134.87,-19.08,5.5
1237,50.990353,-3.70792,250,30.28,40.0,326.1,Mar-20,618562,2020-03-21 14:39:15:874,0.1448,-0.0724,9.7794,-0.0045,0.0074,9.8066,0.0288,-0.026,-0.016,-27.14,-12.79,-30.09,135.13,-19.54,5.47
1238,50.990353,-3.70792,250,30.28,40.0,326.1,Jun-20,619062,2020-03-21 14:39:16:374,0.1422,-0.2502,9.5705,-0.004,0.0119,9.8066,0.0021,0.0081,-0.0011,-27.14,-12.42,-30.91,135.38,-19.79,6.04
1239,50.990353,-3.70792,250,30.28,40.0,326.1,Jun-20,619561,2020-03-21 14:39:16:873,0.0342,-0.8519,10.2976,0.0016,0.0071,9.8066,0.0032,-0.0143,-0.0043,-27.14,-12.04,-30.09,135.94,-20.06,5.97
1240,50.990353,-3.70792,250,30.28,40.0,326.1,Jul-20,620062,2020-03-21 14:39:17:374,0.3649,0.1311,9.0877,-0.005,0.0072,9.8066,0.0618,-0.01,-0.0032,-26.77,-11.29,-30.97,136.93,-19.93,6.2
1241,50.990353,-3.70792,250,30.28,40.0,326.1,Jul-20,620562,2020-03-21 14:39:17:874,-0.0659,-0.0303,10.4375,0.0161,-0.0088,9.8066,0.0575,-0.0409,0.0,-27.14,-11.67,-30.91,135.7,-19.79,5.64
1242,50.990353,-3.70792,250,30.28,40.0,326.1,Aug-20,621063,2020-03-21 14:39:18:375,0.3321,-0.9803,9.9921,0.0095,-0.0311,9.8066,0.0298,0.0113,0.0256,-27.14,-11.67,-30.91,137.42,-19.24,4.41
1243,50.990353,-3.70792,250,30.28,40.0,326.1,Aug-20,621562,2020-03-21 14:39:18:874,0.9044,-0.5685,9.3077,-0.0063,-0.0105,9.8066,0.0075,-0.0068,0.032,-26.77,-11.67,-31.34,139.53,-17.77,3.94
1244,50.990353,-3.70792,250,30.28,40.0,326.1,Aug-20,622062,2020-03-21 14:39:19:374,0.5008,0.1231,10.2433,0.0047,-0.0164,9.8066,-0.0266,-0.0068,0.0341,-26.39,-11.29,-30.53,141.31,-16.91,3.5
1245,50.990353,-3.70792,250,30.28,40.0,326.1,Aug-20,622562,2020-03-21 14:39:19:874,0.3607,-0.3668,9.3735,0.0052,-0.0046,9.8066,-0.0288,0.0028,0.0277,-26.77,-11.67,-30.91,141.82,-16.28,3.18
1246,50.990353,-3.70792,250,30.28,40.0,326.1,Aug-20,623062,2020-03-21 14:39:20:374,-0.2522,0.2263,10.2918,0.0091,-0.0083,9.8066,0.0746,-0.0196,0.0106,-26.02,-12.04,-30.91,141.31,-15.59,2.85
1247,50.990353,-3.70792,250,30.28,40.0,326.1,Aug-20,623562,2020-03-21 14:39:20:874,-0.3827,-0.7435,9.3696,0.0006,-0.0142,9.8066,-0.0437,0.0187,0.0415,-26.02,-12.79,-30.53,140.32,-15.15,2.27
1248,50.990353,-3.70792,250,30.28,40.0,326.1,Aug-20,624062,2020-03-21 14:39:21:374,0.5853,-0.7252,9.4319,0.0289,0.0191,9.8066,0.0011,-0.0185,0.0149,-26.77,-12.42,-31.34,144.31,-14.88,2.07
1249,50.990353,-3.70792,250,30.28,40.0,326.1,Aug-20,624566,2020-03-21 14:39:21:878,-0.0968,1.0113,10.147,0.0017,0.0054,9.8067,0.0565,0.0006,0.0202,-26.02,-12.79,-30.91,140.92,-14.7,2.12
1250,50.990353,-3.70792,250,30.28,40.0,326.1,Aug-20,625062,2020-03-21 14:39:22:374,-0.4788,-0.3635,9.249,-0.0053,-0.0079,9.8066,0.017,-0.0036,0.0256,-26.02,-13.17,-31.34,141.39,-14.58,1.75
1251,50.990353,-3.70792,250,30.28,40.0,326.1,Aug-20,625563,2020-03-21 14:39:22:875,0.0655,0.8885,9.4759,-0.0078,0.0161,9.8066,-0.0085,0.0134,0.0469,-25.64,-13.86,-31.34,139.84,-14.76,1.14
1252,50.990353,-3.70792,250,30.28,40.0,326.1,May-20,626062,2020-03-21 14:39:23:374,-0.1883,-0.0848,12.0028,-0.0011,0.0086,9.8066,-0.0469,0.0496,0.0703,-25.27,-12.79,-30.91,140.55,-14.7,0.87
1253,50.990353,-3.70792,250,30.28,40.0,326.1,May-20,626561,2020-03-21 14:39:23:873,0.17,-0.5811,9.9411,0.01,-0.0032,9.8066,-0.0437,-0.026,0.0362,-25.27,-13.86,-31.34,138.53,-14.87,0.67
1254,50.990353,-3.70792,250,30.28,40.0,326.1,Jun-20,627062,2020-03-21 14:39:24:374,-0.3838,-0.2548,9.2493,0.0034,0.0008,9.8067,0.0043,-0.026,0.0224,-25.27,-13.86,-31.34,138.62,-14.78,0.68
1255,50.990353,-3.70792,250,30.28,40.0,326.1,Jun-20,627562,2020-03-21 14:39:24:874,-0.431,-0.264,9.0918,-0.0044,0.0123,9.8066,-0.0479,0.0155,0.0341,-24.89,-13.86,-30.91,137.93,-14.74,1.46
1256,50.99321,-3.710903,245,28.8,22.0,317.2,Jun-20,628062,2020-03-21 14:39:25:374,-0.0209,0.369,10.5136,-0.0102,-0.0166,9.8066,-0.0554,0.007,0.0437,-24.89,-13.86,-30.91,137.75,-14.74,1.67
1257,50.99321,-3.710903,245,28.8,22.0,317.2,Jun-20,628562,2020-03-21 14:39:25:874,-0.4382,0.5739,10.5242,0.0056,-0.0045,9.8066,0.0256,-0.0196,0.0213,-24.28,-13.46,-30.43,138.17,-14.69,2.08
1258,50.99321,-3.710903,245,28.8,22.0,317.2,Jun-20,629062,2020-03-21 14:39:26:374,0.7198,-0.274,9.788,0.0056,-0.0053,9.8066,-0.0469,0.0145,0.0415,-24.28,-14.21,-30.43,136.35,-14.62,2.03
1259,50.99321,-3.710903,245,28.8,22.0,317.2,Jun-20,629562,2020-03-21 14:39:26:874,0.6655,-0.0196,10.4722,0.0015,-0.0113,9.8066,-0.0362,-0.0175,0.0298,-23.59,-13.83,-30.43,136.48,-14.41,2.15
1260,50.99321,-3.710903,245,28.8,22.0,317.2,Jun-20,630062,2020-03-21 14:39:27:374,-0.8161,-0.8923,10.4261,-0.0197,-0.0035,9.8066,-0.0543,-0.0185,0.0447,-22.84,-14.21,-30.43,134.91,-14.54,1.7
1261,50.99321,-3.710903,245,28.8,22.0,317.2,Jun-20,630562,2020-03-21 14:39:27:874,-1.127,-0.8769,9.9373,-0.0185,-0.0111,9.8066,-0.0415,-0.0303,0.0437,-22.84,-14.96,-30.43,133.34,-14.74,1.07
1262,50.99321,-3.710903,245,28.8,22.0,317.2,Jun-20,631062,2020-03-21 14:39:28:374,0.315,0.3249,10.08,-0.0025,-0.0022,9.8067,-0.066,-0.0079,0.0511,-23.59,-10.15,-30.87,145.0,-14.56,1.59
1263,50.99321,-3.710903,245,28.8,22.0,317.2,Jun-20,631562,2020-03-21 14:39:28:874,0.2567,-0.2368,11.3394,0.0194,0.0125,9.8066,-0.0469,-0.0356,0.0288,-15.09,-12.4,-32.18,116.76,-14.76,1.33
1264,50.99321,-3.710903,245,28.8,22.0,317.2,Jun-20,632062,2020-03-21 14:39:29:374,-0.3889,-0.3527,10.588,0.0223,0.0165,9.8066,0.0416,-0.0377,0.0128,-20.59,-14.96,-30.43,128.93,-15.03,1.1
1265,50.99321,-3.710903,245,28.8,22.0,317.2,Jun-20,632561,2020-03-21 14:39:29:873,-0.6611,0.4782,8.5784,-0.0042,0.0057,9.8066,0.0884,-0.0281,-0.0064,-21.34,-15.71,-31.31,126.26,-15.1,1.46
1266,50.99321,-3.710903,245,28.8,22.0,317.2,Jun-20,633062,2020-03-21 14:39:30:374,-0.0569,0.5424,8.4065,-0.0141,0.0099,9.8066,-0.016,0.0539,0.0501,-20.59,-16.08,-30.87,126.57,-14.88,1.42
1267,50.99321,-3.710903,245,28.8,22.0,317.2,Jun-20,633561,2020-03-21 14:39:30:873,-0.61,-0.064,10.6586,0.0341,0.0099,9.8066,-0.0032,-0.01,0.0192,-20.59,-14.96,-31.74,127.07,-15.05,1.83
1268,50.99321,-3.710903,245,28.8,22.0,317.2,Apr-20,634062,2020-03-21 14:39:31:374,0.0283,-0.2039,10.5422,0.0079,0.0219,9.8066,-0.0245,0.0113,0.0351,-20.28,-16.08,-31.31,123.88,-15.18,1.53
1269,50.99321,-3.710903,245,28.8,22.0,317.2,Apr-20,634561,2020-03-21 14:39:31:873,-0.0867,-0.1024,9.5,-0.0033,0.0032,9.8066,-0.0064,-0.0079,0.0298,-19.91,-16.08,-31.74,122.9,-15.25,1.85
1270,50.99321,-3.710903,245,28.8,22.0,317.2,Jun-20,635062,2020-03-21 14:39:32:374,-0.3893,-0.0302,9.5365,-0.0011,-0.0029,9.8067,0.0,-0.0122,0.0373,-19.91,-16.4,-31.31,123.29,-15.57,1.59
1271,50.99321,-3.710903,245,28.8,22.0,317.2,Jun-20,635562,2020-03-21 14:39:32:874,-0.2464,0.4499,9.1218,-0.0077,0.002,9.8066,0.0256,0.0102,0.0202,-19.91,-16.4,-31.31,123.51,-15.37,1.69
1272,50.99321,-3.710903,245,28.8,22.0,317.2,Aug-20,636062,2020-03-21 14:39:33:374,-0.184,0.1042,10.0839,-0.0045,0.0014,9.8066,-0.0288,-0.0122,0.0362,-19.69,-16.79,-31.37,122.14,-15.39,1.46
1273,50.99321,-3.710903,245,28.8,22.0,317.2,Aug-20,636562,2020-03-21 14:39:33:874,0.6747,0.0734,9.5613,0.01,0.0003,9.8066,-0.0543,-0.0047,0.0362,-19.32,-16.04,-31.8,120.52,-15.27,1.88
1274,50.99321,-3.710903,245,28.8,22.0,317.2,Aug-20,637062,2020-03-21 14:39:34:374,-0.4542,-0.0886,9.341,0.0029,0.0039,9.8066,0.0245,-0.0015,0.0266,-18.94,-16.04,-29.62,121.81,-15.36,1.84
1275,50.99321,-3.710903,245,28.8,22.0,317.2,Aug-20,637562,2020-03-21 14:39:34:874,-0.2415,0.5501,10.5163,0.0045,-0.0053,9.8066,-0.0085,-0.0217,0.0245,-18.94,-16.42,-30.93,121.26,-15.23,1.9
1276,50.99321,-3.710903,245,28.8,22.0,317.2,Aug-20,638062,2020-03-21 14:39:35:374,-0.1965,-0.1468,9.3861,-0.0026,0.0019,9.8067,-0.0469,0.0049,0.0341,-18.94,-16.42,-31.8,120.34,-15.2,2.34
1277,50.99321,-3.710903,245,28.8,22.0,317.2,Aug-20,638562,2020-03-21 14:39:35:874,-0.2397,0.2203,9.6351,-0.0054,-0.0001,9.8066,-0.016,-0.0111,0.0277,-18.57,-16.48,-31.37,120.99,-15.09,2.7
1278,50.99321,-3.710903,245,28.8,22.0,317.2,Aug-20,639062,2020-03-21 14:39:36:374,0.4282,-0.2045,9.79,0.0179,0.0036,9.8066,0.033,-0.01,0.0149,-18.19,-16.79,-31.37,117.54,-14.99,2.56
1279,50.99321,-3.710903,245,28.8,22.0,317.2,Aug-20,639562,2020-03-21 14:39:36:874,0.3082,0.043,10.4003,0.0039,-0.0012,9.8067,0.0266,-0.009,0.0234,-17.82,-16.79,-30.93,117.56,-15.06,2.3
1280,50.99321,-3.710903,245,28.8,22.0,317.2,Aug-20,640062,2020-03-21 14:39:37:374,0.9974,0.201,9.2431,0.0088,0.005,9.8066,-0.0053,0.0262,0.0405,-17.44,-17.17,-31.37,115.17,-15.03,2.29
1281,50.99321,-3.710903,245,28.8,22.0,317.2,Aug-20,640562,2020-03-21 14:39:37:874,-0.2666,-0.2656,8.7635,0.0015,0.0055,9.8067,0.017,0.0134,0.017,-17.44,-17.17,-31.37,115.3,-14.86,2.58
1282,50.99321,-3.710903,245,28.8,22.0,317.2,Aug-20,641062,2020-03-21 14:39:38:374,-0.7132,-0.0059,8.8981,0.0049,0.0033,9.8066,-0.0117,0.0166,0.0277,-17.44,-17.17,-32.24,114.75,-14.68,2.85
1283,50.99321,-3.710903,245,28.8,22.0,317.2,Aug-20,641561,2020-03-21 14:39:38:873,0.0485,-0.2151,9.9974,-0.0001,-0.0033,9.8066,0.0181,-0.0079,0.0149,-17.44,-16.79,-31.37,115.49,-14.75,2.5
1284,50.99321,-3.710903,245,28.8,22.0,317.2,0 / 20,642062,2020-03-21 14:39:39:374,0.193,-0.2442,9.397,0.0021,0.0021,9.8066,0.0234,-0.01,0.0266,-17.44,-16.79,-31.37,115.53,-14.59,2.95
1285,50.99321,-3.710903,245,28.8,22.0,317.2,0 / 20,642562,2020-03-21 14:39:39:874,0.685,0.3207,10.4671,0.0064,0.0032,9.8066,0.0234,0.0081,0.016,-17.07,-17.17,-31.8,114.9,-14.63,2.68
1286,50.99321,-3.710903,245,28.8,22.0,317.2,May-20,643062,2020-03-21 14:39:40:374,-0.5223,0.0354,7.9956,0.0,0.0109,9.8066,-0.0415,0.0337,0.0224,-16.69,-17.54,-30.93,114.12,-14.73,3.24
1287,50.99321,-3.710903,245,28.8,22.0,317.2,May-20,643562,2020-03-21 14:39:40:874,0.9024,-0.0886,9.8002,-0.0093,0.0017,9.8066,-0.0202,-0.0132,0.0138,-16.69,-17.92,-30.93,114.03,-14.68,3.71
1288,50.99321,-3.710903,245,28.8,22.0,317.2,May-20,644062,2020-03-21 14:39:41:374,-0.5828,0.185,9.4142,0.0133,0.005,9.8066,0.0021,-0.0249,0.0011,-16.69,-17.92,-31.8,113.07,-14.6,4.89
1289,50.99321,-3.710903,245,28.8,22.0,317.2,May-20,644562,2020-03-21 14:39:41:874,-0.4691,0.1068,9.3559,0.0056,0.0102,9.8066,0.0341,0.0187,-0.0085,-16.69,-17.92,-31.37,113.75,-14.51,5.26
1290,50.995407,-3.716249,222,27.23,28.0,295.0,Jun-20,645062,2020-03-21 14:39:42:374,-0.3986,0.7176,9.4423,0.0003,0.0103,9.8066,0.0256,0.006,-0.0064,-16.69,-17.92,-31.8,113.16,-14.37,5.59
1291,50.995407,-3.716249,222,27.23,28.0,295.0,Jun-20,645561,2020-03-21 14:39:42:873,-0.3162,-0.4886,10.6963,-0.0009,0.0021,9.8067,-0.0405,0.023,0.0245,-16.32,-17.92,-30.93,111.52,-14.38,5.77
1292,50.995407,-3.716249,222,27.23,28.0,295.0,Jun-20,646062,2020-03-21 14:39:43:374,0.9633,-0.5524,10.4528,0.0129,-0.0115,9.8066,-0.081,-0.026,0.0213,-16.32,-17.54,-30.93,111.35,-14.43,6.16
1293,50.995407,-3.716249,222,27.23,28.0,295.0,Jun-20,646562,2020-03-21 14:39:43:874,-0.5091,-0.2079,8.6437,-0.0014,-0.0016,9.8066,-0.0096,-0.0196,0.0021,-16.69,-17.92,-31.37,113.48,-14.39,6.7
1294,50.995407,-3.716249,222,27.23,28.0,295.0,Jun-20,647062,2020-03-21 14:39:44:374,0.1026,0.1801,9.3536,0.0088,0.0065,9.8066,0.0202,0.0145,-0.0064,-16.69,-18.29,-31.8,112.92,-14.31,6.69
1295,50.995407,-3.716249,222,27.23,28.0,295.0,Jun-20,647562,2020-03-21 14:39:44:874,-0.0603,0.5489,9.9304,0.0045,0.0027,9.8066,0.0352,0.006,-0.0032,-16.69,-17.54,-31.8,112.98,-14.14,7.23
1296,50.995407,-3.716249,222,27.23,28.0,295.0,Jun-20,648062,2020-03-21 14:39:45:374,0.1772,-0.6013,10.1293,-0.0024,-0.0039,9.8066,-0.033,0.0028,0.0181,-16.69,-18.29,-31.37,113.55,-14.29,6.91
1297,50.995407,-3.716249,222,27.23,28.0,295.0,Jun-20,648562,2020-03-21 14:39:45:874,-0.6433,-0.9526,9.9835,-0.0112,-0.0136,9.8066,-0.0692,-0.0399,0.0149,-16.32,-17.54,-30.93,111.46,-14.27,6.55
1298,50.995407,-3.716249,222,27.23,28.0,295.0,Jun-20,649061,2020-03-21 14:39:46:373,-0.8277,0.0131,8.9919,-0.0078,0.0029,9.8066,-0.0256,-0.0015,0.0032,-16.69,-18.29,-31.8,112.9,-14.37,6.48
1299,50.995407,-3.716249,222,27.23,28.0,295.0,Jun-20,649562,2020-03-21 14:39:46:874,-0.7333,-0.8303,10.729,-0.011,0.0038,9.8066,-0.1406,0.0145,0.0447,-16.0,-18.29,-31.37,111.44,-14.32,6.39
1300,50.995407,-3.716249,222,27.23,28.0,295.0,Jun-20,650062,2020-03-21 14:39:47:374,0.1635,0.1291,9.3605,-0.0062,-0.0052,9.8066,0.0288,-0.0079,-0.0032,-16.69,-18.29,-31.8,113.11,-14.25,6.33
1301,50.995407,-3.716249,222,27.23,28.0,295.0,Jun-20,650562,2020-03-21 14:39:47:874,-0.1301,0.4785,9.5697,-0.0043,-0.0016,9.8066,0.0181,0.0209,0.0096,-16.32,-18.29,-31.8,111.14,-14.06,6.28
1302,50.995407,-3.716249,222,27.23,28.0,295.0,Jul-20,651062,2020-03-21 14:39:48:374,-0.2103,0.5532,9.6812,-0.0017,0.0015,9.8067,0.0277,0.0049,-0.0011,-16.69,-18.67,-31.8,112.5,-14.16,5.74
1303,50.995407,-3.716249,222,27.23,28.0,295.0,Jul-20,651562,2020-03-21 14:39:48:874,0.7722,0.0351,8.9903,0.0005,-0.0094,9.8066,0.0842,-0.0228,-0.0139,-16.69,-18.67,-31.37,113.1,-14.15,5.92
1304,50.995407,-3.716249,222,27.23,28.0,295.0,Jul-20,652062,2020-03-21 14:39:49:374,0.1689,-0.0211,9.1351,0.0036,0.0044,9.8066,0.0352,-0.0111,-0.0032,-16.32,-17.92,-31.37,111.9,-14.0,6.21
1305,50.995407,-3.716249,222,27.23,28.0,295.0,Jul-20,652561,2020-03-21 14:39:49:873,-1.1297,-0.3932,7.6232,-0.0044,0.0005,9.8066,-0.0064,0.0038,0.0011,-16.07,-17.97,-30.16,112.88,-13.84,5.74
1306,50.995407,-3.716249,222,27.23,28.0,295.0,Jul-20,653062,2020-03-21 14:39:50:374,-0.6295,0.4567,8.9966,-0.0089,0.0048,9.8066,-0.0149,0.0219,0.0096,-16.45,-17.22,-30.6,113.06,-13.82,6.15
1307,50.995407,-3.716249,222,27.23,28.0,295.0,Jul-20,653561,2020-03-21 14:39:50:873,0.1338,0.2085,9.6705,0.0092,-0.0017,9.8066,0.0479,-0.0036,-0.0171,-15.76,-17.59,-30.16,112.69,-13.99,5.76
1308,50.995407,-3.716249,222,27.23,28.0,295.0,Jul-20,654062,2020-03-21 14:39:51:374,-0.3415,0.7884,9.9763,-0.0206,-0.0158,9.8066,-0.0298,0.0006,0.0266,-16.45,-17.97,-31.03,112.18,-13.81,6.06
1309,50.995407,-3.716249,222,27.23,28.0,295.0,Jul-20,654561,2020-03-21 14:39:51:873,0.0171,0.4791,9.7061,-0.0026,0.0031,9.8066,-0.0266,-0.009,0.0138,-16.07,-17.59,-30.16,112.6,-13.84,6.8
1310,50.995407,-3.716249,222,27.23,28.0,295.0,Jul-20,655062,2020-03-21 14:39:52:374,1.0068,0.6995,9.9935,0.01,0.003,9.8066,0.0874,0.0038,-0.0213,-16.45,-16.84,-31.03,112.84,-13.83,6.82
1311,50.995407,-3.716249,222,27.23,28.0,295.0,Jul-20,655561,2020-03-21 14:39:52:873,0.629,0.6281,10.5885,0.0076,-0.0078,9.8066,-0.0735,0.0358,0.0234,-16.07,-17.22,-31.03,112.7,-13.88,7.08
1312,50.995407,-3.716249,222,27.23,28.0,295.0,Jul-20,656062,2020-03-21 14:39:53:374,-0.3095,0.1683,10.16,0.0208,0.0128,9.8066,0.0245,0.0017,-0.0181,-16.82,-17.59,-31.47,114.03,-13.96,6.63
1313,50.995407,-3.716249,222,27.23,28.0,295.0,Jul-20,656562,2020-03-21 14:39:53:874,-0.2361,0.5377,9.2063,-0.0089,-0.002,9.8066,0.032,-0.0036,-0.0075,-16.07,-17.97,-30.16,112.79,-13.74,6.52
1314,50.995407,-3.716249,222,27.23,28.0,295.0,Jul-20,657062,2020-03-21 14:39:54:374,-0.5664,-0.7065,8.9423,0.0023,0.0076,9.8066,-0.0511,0.0283,0.0138,-16.07,-17.22,-31.03,113.07,-13.74,6.46
1315,50.995407,-3.716249,222,27.23,28.0,295.0,Jul-20,657562,2020-03-21 14:39:54:874,1.0971,-0.6311,10.2593,0.0192,0.0104,9.8066,0.0117,0.0219,0.0085,-16.07,-17.22,-31.03,113.13,-13.6,6.86
1316,50.995407,-3.716249,222,27.23,28.0,295.0,Jan-20,658062,2020-03-21 14:39:55:374,-0.6594,-0.3799,9.8043,-0.004,-0.005,9.8066,-0.0447,0.0017,0.016,-16.45,-17.59,-30.6,112.14,-13.69,6.79
1317,50.995407,-3.716249,222,27.23,28.0,295.0,Jan-20,658562,2020-03-21 14:39:55:874,-0.1061,0.2301,9.4073,-0.0251,-0.0043,9.8066,0.017,-0.0122,0.0075,-15.76,-17.59,-30.16,113.2,-13.41,6.53
1318,50.995407,-3.716249,222,27.23,28.0,295.0,Feb-20,659062,2020-03-21 14:39:56:374,-0.04,-0.7256,9.4165,-0.0027,0.001,9.8066,-0.0767,0.04,0.0341,-15.76,-17.59,-30.6,112.63,-13.52,5.79
1319,50.995407,-3.716249,222,27.23,28.0,295.0,Feb-20,659562,2020-03-21 14:39:56:874,0.6039,0.4466,11.167,0.0138,0.009,9.8066,-0.0245,0.0294,0.0245,-19.07,-16.47,-36.6,117.9,-13.23,5.95
1320,50.995407,-3.716249,222,27.23,28.0,295.0,Jul-20,660062,2020-03-21 14:39:57:374,0.4042,-0.3081,10.3746,-0.0019,0.0035,9.8066,-0.0032,0.0092,0.0106,-14.64,-17.22,-30.16,112.71,-12.95,5.56
1321,50.995407,-3.716249,222,27.23,28.0,295.0,Jul-20,660562,2020-03-21 14:39:57:874,-0.2039,0.4173,9.7918,0.0041,0.01,9.8066,-0.0213,0.055,0.0106,-15.39,-17.97,-31.03,111.06,-12.97,5.82
1322,50.996674,-3.721812,192,26.13,30.0,292.4,Jul-20,661062,2020-03-21 14:39:58:374,0.4078,-0.3009,11.074,0.0124,-0.0006,9.8066,-0.0181,-0.0143,0.017,-15.01,-17.97,-31.03,111.14,-12.86,6.06
1323,50.996674,-3.721812,192,26.13,30.0,292.4,Jul-20,661562,2020-03-21 14:39:58:874,0.3994,0.2358,11.324,0.0089,0.0003,9.8066,0.0746,-0.0622,-0.0341,-15.01,-17.22,-31.03,111.94,-12.9,6.16
1324,50.996674,-3.721812,192,26.13,30.0,292.4,Jul-20,662063,2020-03-21 14:39:59:375,-0.149,0.185,9.5246,-0.0049,0.0031,9.8066,-0.017,0.0134,0.0011,-15.01,-17.59,-31.03,111.18,-12.81,6.15
1325,50.996674,-3.721812,192,26.13,30.0,292.4,Jul-20,662562,2020-03-21 14:39:59:874,1.1173,0.2095,9.9446,0.0,0.0032,9.8066,0.0533,0.007,-0.0043,-14.64,-17.59,-31.03,111.34,-12.68,6.18
1326,50.996674,-3.721812,192,26.13,30.0,292.4,Jul-20,663062,2020-03-21 14:40:00:374,0.3145,-0.1494,9.1641,0.0016,-0.0019,9.8067,-0.0032,0.0017,-0.0021,-14.64,-17.59,-31.47,111.56,-12.47,6.33
1327,50.996674,-3.721812,192,26.13,30.0,292.4,Jul-20,663562,2020-03-21 14:40:00:874,-0.4893,-0.5355,10.3272,0.0048,-0.0002,9.8066,0.0117,-0.0196,0.0021,-14.64,-17.97,-31.03,111.94,-12.26,5.95
1328,50.996674,-3.721812,192,26.13,30.0,292.4,Jul-20,664062,2020-03-21 14:40:01:374,-0.2342,-0.0132,10.1639,-0.0069,-0.0063,9.8066,0.0245,-0.0047,0.0053,-14.64,-17.97,-31.03,112.28,-12.06,5.7
1329,50.996674,-3.721812,192,26.13,30.0,292.4,Jul-20,664562,2020-03-21 14:40:01:874,-0.2913,-0.547,9.6097,-0.0043,-0.0012,9.8066,-0.0437,-0.0122,0.0085,-14.64,-16.84,-31.85,112.68,-12.0,5.76
1330,50.996674,-3.721812,192,26.13,30.0,292.4,Jul-20,665062,2020-03-21 14:40:02:374,-0.0451,-0.859,9.8248,0.0052,0.0041,9.8066,0.0075,-0.0271,0.0,-14.26,-17.59,-31.47,110.38,-11.85,5.14
1331,50.996674,-3.721812,192,26.13,30.0,292.4,Jul-20,665561,2020-03-21 14:40:02:873,-1.156,-0.3029,9.4612,0.0135,0.0019,9.8066,-0.0628,-0.026,0.0032,-13.89,-17.97,-31.85,109.92,-11.72,5.37
1332,50.996674,-3.721812,192,26.13,30.0,292.4,Jun-20,666062,2020-03-21 14:40:03:374,0.0647,-0.2476,9.8093,0.0253,0.0031,9.8066,-0.0511,0.0049,0.0053,-13.89,-17.97,-31.85,110.13,-11.49,5.72
1333,50.996674,-3.721812,192,26.13,30.0,292.4,Jun-20,666562,2020-03-21 14:40:03:874,0.3754,-0.5178,9.8489,0.0145,0.0005,9.8066,0.016,-0.0303,-0.0224,-13.51,-17.97,-31.47,110.68,-11.42,6.07
1334,50.996674,-3.721812,192,26.13,30.0,292.4,Jul-20,667062,2020-03-21 14:40:04:374,0.6419,-0.227,9.2928,0.0145,0.0056,9.8066,0.0032,-0.0217,-0.0149,-13.89,-17.59,-31.03,110.66,-11.26,6.9
1335,50.996674,-3.721812,192,26.13,30.0,292.4,Jul-20,667562,2020-03-21 14:40:04:874,1.1437,-0.0448,9.8759,-0.0057,-0.0088,9.8066,0.0533,-0.0228,-0.0128,-13.51,-17.97,-31.47,110.95,-11.11,6.57
1336,50.996674,-3.721812,192,26.13,30.0,292.4,Jul-20,668062,2020-03-21 14:40:05:374,-1.7759,-0.5044,8.7981,-0.0011,0.0141,9.8066,-0.1119,-0.0004,0.0266,-13.89,-18.72,-31.85,109.98,-10.85,6.42
1337,50.996674,-3.721812,192,26.13,30.0,292.4,Jul-20,668562,2020-03-21 14:40:05:874,-0.1943,-0.5618,9.6076,0.0014,-0.0035,9.8066,-0.0565,0.0017,0.0106,-13.89,-17.97,-30.16,111.78,-10.88,6.54
1338,50.996674,-3.721812,192,26.13,30.0,292.4,Jul-20,669062,2020-03-21 14:40:06:374,-1.0974,-0.3716,9.2851,0.0008,0.0025,9.8067,-0.0106,0.0102,0.0106,-13.51,-17.97,-31.91,111.15,-10.64,6.1
1339,50.996674,-3.721812,192,26.13,30.0,292.4,Jul-20,669562,2020-03-21 14:40:06:874,-0.1724,-0.0321,9.97,-0.0019,-0.0009,9.8067,-0.0032,-0.0239,0.0053,-12.76,-17.97,-31.03,109.53,-10.55,5.81
1340,50.996674,-3.721812,192,26.13,30.0,292.4,Jul-20,670062,2020-03-21 14:40:07:374,0.4259,-0.3149,9.9591,0.0031,-0.0052,9.8066,-0.0021,0.0219,0.0138,-13.14,-17.97,-30.6,109.6,-10.58,5.4
1341,50.996674,-3.721812,192,26.13,30.0,292.4,Jul-20,670562,2020-03-21 14:40:07:874,0.8456,0.6572,9.4145,0.003,0.0011,9.8067,0.032,0.007,0.0064,-13.51,-17.97,-31.03,112.2,-10.45,5.22
1342,50.996674,-3.721812,192,26.13,30.0,292.4,Jul-20,671062,2020-03-21 14:40:08:374,0.5704,0.0025,9.7792,0.0082,0.0041,9.8066,0.032,-0.0058,-0.0075,-12.76,-17.97,-31.91,109.25,-10.42,5.57
1343,50.996674,-3.721812,192,26.13,30.0,292.4,Jul-20,671562,2020-03-21 14:40:08:874,0.5874,0.6365,9.2881,0.0045,0.0048,9.8066,-0.0106,0.0219,0.0,-13.14,-18.34,-31.47,109.66,-10.45,5.84
1344,50.996674,-3.721812,192,26.13,30.0,292.4,Jul-20,672062,2020-03-21 14:40:09:374,0.0275,0.3009,9.3632,0.001,-0.0024,9.8067,0.0,0.0081,-0.0117,-13.51,-17.97,-31.03,111.91,-10.38,6.38
1345,50.996674,-3.721812,192,26.13,30.0,292.4,Jul-20,672562,2020-03-21 14:40:09:874,-0.1511,-0.0065,9.8935,-0.0091,-0.0044,9.8066,0.0075,-0.0249,-0.0149,-13.51,-17.59,-31.91,111.41,-10.36,6.4
1346,50.996674,-3.721812,192,26.13,30.0,292.4,Jul-20,673062,2020-03-21 14:40:10:374,0.1931,0.1992,9.3068,-0.0026,-0.0067,9.8066,0.0149,0.0017,-0.0021,-13.89,-18.34,-32.35,111.31,-10.46,6.32
1347,50.996674,-3.721812,192,26.13,30.0,292.4,Jul-20,673562,2020-03-21 14:40:10:874,0.4366,0.35,9.6656,0.0034,-0.0053,9.8066,0.033,0.0081,-0.0075,-13.51,-18.34,-32.72,110.83,-10.49,6.05
1348,50.996674,-3.721812,192,26.13,30.0,292.4,0 / 20,674061,2020-03-21 14:40:11:373,-0.7436,0.0365,9.1643,0.001,0.0073,9.8066,0.0288,0.0209,-0.0032,-13.14,-17.59,-31.91,108.99,-10.39,6.68
1349,50.996674,-3.721812,192,26.13,30.0,292.4,0 / 20,674562,2020-03-21 14:40:11:874,-0.9241,-0.3893,10.6117,-0.0309,-0.0106,9.8066,0.0256,0.0102,-0.0021,-13.51,-18.34,-31.47,111.84,-10.44,6.39
1350,50.996674,-3.721812,192,26.13,30.0,292.4,Jun-20,675062,2020-03-21 14:40:12:374,-0.299,0.0454,9.1622,0.0155,0.0082,9.8066,0.0501,0.0177,-0.0245,-13.51,-17.59,-31.47,111.74,-10.4,6.84
1351,50.996674,-3.721812,192,26.13,30.0,292.4,Jun-20,675561,2020-03-21 14:40:12:873,0.1364,0.219,10.4225,-0.0063,-0.0077,9.8066,-0.0075,-0.0175,0.0011,-13.14,-17.59,-30.6,109.28,-10.53,6.91
1352,50.996674,-3.721812,192,26.13,30.0,292.4,Aug-20,676062,2020-03-21 14:40:13:374,-0.2779,0.0892,9.713,-0.0112,-0.0082,9.8066,0.0501,-0.0047,-0.0107,-13.89,-17.59,-31.47,111.76,-10.49,6.43
1353,50.996674,-3.721812,192,26.13,30.0,292.4,Aug-20,676562,2020-03-21 14:40:13:874,0.3283,0.3771,9.8814,0.0012,0.0047,9.8066,0.0043,-0.0271,-0.0117,-13.14,-17.97,-31.03,109.35,-10.6,6.3
1354,50.998234,-3.727562,178,27.19,17.0,292.7,Aug-20,677062,2020-03-21 14:40:14:374,-0.5095,0.1175,8.7937,-0.016,0.0019,9.8066,0.033,0.0049,-0.0107,-13.14,-18.34,-31.91,108.88,-10.57,6.16
1355,50.998234,-3.727562,178,27.19,17.0,292.7,Aug-20,677562,2020-03-21 14:40:14:874,0.9614,-0.1199,10.1118,0.0037,-0.0068,9.8066,-0.0298,0.0326,0.0266,-14.26,-18.34,-31.47,111.63,-10.59,6.45
1356,50.998234,-3.727562,178,27.19,17.0,292.7,Aug-20,678062,2020-03-21 14:40:15:374,0.2278,0.4365,8.9162,0.0053,0.0002,9.8066,0.0085,0.0305,0.0,-13.89,-17.59,-31.47,111.72,-10.52,6.45
1357,50.998234,-3.727562,178,27.19,17.0,292.7,Aug-20,678562,2020-03-21 14:40:15:874,0.0602,0.454,9.4925,-0.0032,-0.0008,9.8066,-0.033,0.0134,0.0106,-13.89,-17.97,-31.03,111.76,-10.57,6.08
1358,50.998234,-3.727562,178,27.19,17.0,292.7,Aug-20,679063,2020-03-21 14:40:16:375,0.8238,-0.1335,9.5117,0.0022,-0.0043,9.8067,0.0234,-0.0153,-0.0096,-13.51,-17.97,-30.6,111.69,-10.68,5.87
1359,50.998234,-3.727562,178,27.19,17.0,292.7,Aug-20,679562,2020-03-21 14:40:16:874,-0.1064,-0.1464,9.218,0.0002,-0.0039,9.8066,-0.0021,0.0017,-0.0032,-13.89,-17.97,-31.03,111.85,-10.53,5.98
1360,50.998234,-3.727562,178,27.19,17.0,292.7,Aug-20,680062,2020-03-21 14:40:17:374,0.3052,0.8755,9.9387,-0.0015,0.007,9.8066,-0.0724,0.023,0.0213,-13.51,-17.59,-31.47,111.7,-10.58,6.25
1361,50.998234,-3.727562,178,27.19,17.0,292.7,Aug-20,680562,2020-03-21 14:40:17:874,0.5339,0.3839,9.8239,-0.0032,-0.0089,9.8066,-0.081,-0.0377,0.0085,-13.51,-17.97,-31.47,111.75,-10.49,6.47
1362,50.998234,-3.727562,178,27.19,17.0,292.7,Aug-20,681062,2020-03-21 14:40:18:374,-0.3729,0.0076,10.8018,0.0012,0.0005,9.8067,-0.0043,-0.0164,-0.0021,-13.51,-17.97,-31.47,111.79,-10.51,6.24
1363,50.998234,-3.727562,178,27.19,17.0,292.7,Aug-20,681562,2020-03-21 14:40:18:874,0.2906,0.4076,10.2112,0.0051,0.0021,9.8066,-0.081,-0.0377,0.0096,-13.51,-17.59,-31.91,110.98,-10.65,6.6
1364,50.998234,-3.727562,178,27.19,17.0,292.7,0 / 20,682061,2020-03-21 14:40:19:373,1.188,0.4028,9.9659,-0.0085,-0.0077,9.8066,-0.0479,-0.0281,0.0096,-13.89,-17.97,-30.6,111.32,-10.76,6.75
1365,50.998234,-3.727562,178,27.19,17.0,292.7,0 / 20,682562,2020-03-21 14:40:19:874,-0.1545,-0.5913,9.8837,-0.0008,0.0047,9.8067,0.0575,-0.0335,-0.0234,-13.51,-17.97,-31.47,111.4,-10.74,6.57
1366,50.998234,-3.727562,178,27.19,17.0,292.7,Feb-20,683062,2020-03-21 14:40:20:374,-0.072,-0.3437,9.9301,0.0039,-0.0073,9.8066,0.0053,-0.0153,-0.0032,-13.51,-18.34,-32.28,110.82,-10.81,6.44
1367,50.998234,-3.727562,178,27.19,17.0,292.7,Feb-20,683562,2020-03-21 14:40:20:874,-0.0231,-0.6444,9.4655,-0.009,0.0032,9.8066,0.0724,0.0028,-0.0192,-13.51,-17.59,-31.47,111.48,-10.76,6.22
1368,50.998234,-3.727562,178,27.19,17.0,292.7,May-20,684062,2020-03-21 14:40:21:374,0.6687,0.1475,11.0876,0.0066,-0.0096,9.8066,-0.0011,-0.0217,0.0,-13.14,-17.59,-31.47,109.15,-10.77,6.19
1369,50.998234,-3.727562,178,27.19,17.0,292.7,May-20,684561,2020-03-21 14:40:21:873,-0.0318,-0.2185,9.5513,-0.0057,-0.0069,9.8066,-0.0043,-0.0068,0.0053,-13.89,-18.34,-31.91,110.94,-10.78,6.15
1370,50.998234,-3.727562,178,27.19,17.0,292.7,Jun-20,685062,2020-03-21 14:40:22:374,-0.7239,-0.355,9.9736,-0.0101,-0.0083,9.8066,0.0416,-0.0239,-0.0011,-13.89,-18.34,-31.91,110.99,-10.89,5.55
1371,50.998234,-3.727562,178,27.19,17.0,292.7,Jun-20,685562,2020-03-21 14:40:22:874,-0.0713,0.5034,9.3166,-0.0052,-0.005,9.8066,-0.0479,-0.01,0.0128,-13.89,-18.34,-31.91,111.05,-10.83,5.58
1372,50.998966,-3.730659,186,24.9,21.0,289.0,Jun-20,686062,2020-03-21 14:40:23:374,-0.3695,0.5234,10.3886,-0.0091,0.0045,9.8066,-0.0192,0.0038,0.0085,-13.51,-18.34,-31.91,111.18,-10.72,5.65
1373,50.998966,-3.730659,186,24.9,21.0,289.0,Jun-20,686562,2020-03-21 14:40:23:874,-0.4565,0.0809,10.4666,-0.0048,0.0019,9.8067,-0.0106,-0.0505,-0.0032,-13.51,-17.59,-31.91,111.24,-10.71,5.5
1374,50.998966,-3.730659,186,24.9,21.0,289.0,Jun-20,687062,2020-03-21 14:40:24:374,-0.7528,-0.1244,9.8363,-0.0023,-0.001,9.8067,-0.0383,-0.0462,-0.0021,-13.14,-18.34,-31.47,109.23,-10.81,5.69
1375,50.998966,-3.730659,186,24.9,21.0,289.0,Jun-20,687562,2020-03-21 14:40:24:874,-0.7692,-0.9532,9.7426,0.0062,-0.0083,9.8066,-0.0767,0.0092,0.0234,-13.51,-17.97,-31.47,111.46,-10.84,5.97
1376,50.998966,-3.730659,186,24.9,21.0,289.0,Jun-20,688062,2020-03-21 14:40:25:374,-0.3275,0.0592,9.3289,0.0044,0.0034,9.8066,0.0373,-0.0047,-0.0139,-13.51,-18.34,-31.47,111.31,-10.93,6.08
1377,50.998966,-3.730659,186,24.9,21.0,289.0,Jun-20,688561,2020-03-21 14:40:25:873,-0.2402,0.6442,8.5589,-0.0028,-0.0058,9.8066,0.0416,-0.0026,-0.0085,-13.51,-17.59,-31.03,111.41,-10.72,6.65
1378,50.998966,-3.730659,186,24.9,21.0,289.0,Jun-20,689062,2020-03-21 14:40:26:374,0.7049,0.7754,9.8006,-0.0051,0.0046,9.8066,0.114,0.0251,-0.0171,-15.01,-15.03,-29.72,117.73,-10.69,6.05
1379,50.998966,-3.730659,186,24.9,21.0,289.0,Jun-20,689562,2020-03-21 14:40:26:874,-0.0381,0.1006,9.9013,-0.0072,-0.0157,9.8066,0.0117,-0.026,0.0,-12.56,-12.99,-23.95,119.15,-10.75,5.79
1380,50.998966,-3.730659,186,24.9,21.0,289.0,Jun-20,690061,2020-03-21 14:40:27:373,0.0056,0.2572,10.0377,-0.0051,-0.0047,9.8066,-0.0628,-0.0079,0.0202,-23.45,-3.22,-32.28,159.02,-10.9,6.09
1381,50.998966,-3.730659,186,24.9,21.0,289.0,Jun-20,690562,2020-03-21 14:40:27:874,0.0241,-0.0829,9.84,0.0029,0.0034,9.8066,0.0192,-0.0004,0.0011,-10.2,-4.72,-33.6,112.65,-10.79,6.16
1382,50.998966,-3.730659,186,24.9,21.0,289.0,Sep-20,691062,2020-03-21 14:40:28:374,0.4466,-0.5673,9.8395,0.0035,-0.0105,9.8066,0.0085,-0.0143,-0.0064,-9.82,1.59,-36.16,148.89,-10.92,6.06
1383,50.998966,-3.730659,186,24.9,21.0,289.0,Sep-20,691562,2020-03-21 14:40:28:874,0.8667,-0.1877,11.0049,0.007,-0.0063,9.8066,-0.049,-0.0239,0.0032,-10.95,-19.78,-31.91,102.69,-10.8,5.96
1384,50.998966,-3.730659,186,24.9,21.0,289.0,Sep-20,692062,2020-03-21 14:40:29:374,-0.7845,0.0466,9.2617,0.0019,0.0051,9.8066,-0.0064,-0.009,-0.0011,-12.39,-18.72,-25.03,109.18,-10.86,5.9
1385,50.998966,-3.730659,186,24.9,21.0,289.0,Sep-20,692562,2020-03-21 14:40:29:874,0.8882,-0.6904,10.5462,-0.0215,-0.0085,9.8066,0.0234,-0.0047,0.0021,-9.07,-9.47,-33.16,103.27,-10.61,6.54
1386,50.998966,-3.730659,186,24.9,21.0,289.0,Sep-20,693062,2020-03-21 14:40:30:374,0.7503,-0.0489,9.2061,0.0083,0.0089,9.8066,0.0362,0.0273,-0.0075,-22.39,-15.78,-38.72,126.22,-10.66,6.27
1387,50.998966,-3.730659,186,24.9,21.0,289.0,Sep-20,693562,2020-03-21 14:40:30:874,-0.8225,-0.0691,9.9762,-0.0047,-0.007,9.8066,0.0128,0.007,0.0043,-2.07,-9.84,-46.91,67.29,-10.62,6.63
1388,50.998966,-3.730659,186,24.9,21.0,289.0,Sep-20,694062,2020-03-21 14:40:31:374,-0.5159,-0.4331,8.9818,0.0042,0.0077,9.8066,0.0352,0.0198,-0.0085,-22.39,-23.84,-34.91,119.6,-10.52,6.4
1389,50.998966,-3.730659,186,24.9,21.0,289.0,Sep-20,694562,2020-03-21 14:40:31:874,0.2044,-0.5318,10.8465,-0.0083,-0.014,9.8066,-0.017,0.0475,0.016,-11.7,-15.78,-28.47,110.3,-10.48,6.66
1390,50.998966,-3.730659,186,24.9,21.0,289.0,Sep-20,695062,2020-03-21 14:40:32:374,0.2227,-0.5356,9.6252,-0.0047,-0.0014,9.8066,0.0533,0.0113,-0.0096,-13.51,-17.97,-30.16,112.5,-10.44,5.92
1391,50.998966,-3.730659,186,24.9,21.0,289.0,Sep-20,695562,2020-03-21 14:40:32:874,-0.1405,0.487,10.6534,-0.0041,-0.0101,9.8066,0.0107,-0.0122,0.0021,-13.89,-17.97,-30.16,112.26,-10.56,6.19
1392,50.998966,-3.730659,186,24.9,21.0,289.0,Sep-20,696062,2020-03-21 14:40:33:374,-0.5918,0.5549,10.5145,-0.0076,-0.0079,9.8066,-0.065,-0.0324,0.016,-13.51,-17.59,-30.16,112.0,-10.79,6.13
1393,50.998966,-3.730659,186,24.9,21.0,289.0,Sep-20,696562,2020-03-21 14:40:33:874,0.3587,0.4904,9.0107,0.0102,0.0045,9.8066,0.0181,0.0017,-0.0043,-13.14,-17.59,-30.6,109.12,-10.88,5.78
1394,50.998966,-3.730659,186,24.9,21.0,289.0,Sep-20,697062,2020-03-21 14:40:34:374,-0.0152,0.6045,10.4227,-0.0049,0.0017,9.8066,-0.0895,-0.0217,0.0128,-13.51,-17.59,-30.6,111.39,-10.91,5.91
1395,50.998966,-3.730659,186,24.9,21.0,289.0,Sep-20,697562,2020-03-21 14:40:34:874,-0.0494,-0.4058,9.6462,0.0009,-0.0035,9.8067,0.0405,-0.0122,-0.0117,-12.76,-17.97,-31.47,109.05,-10.9,5.91
1396,50.998966,-3.730659,186,24.9,21.0,289.0,Sep-20,698062,2020-03-21 14:40:35:374,-0.4346,0.1195,9.0461,0.0071,0.0019,9.8066,0.049,-0.0313,-0.0149,-14.26,-18.34,-31.47,111.38,-10.88,6.06
1397,50.998966,-3.730659,186,24.9,21.0,289.0,Sep-20,698562,2020-03-21 14:40:35:874,0.4603,0.25,10.2967,-0.0007,0.0013,9.8067,-0.0106,-0.0058,-0.0032,-13.89,-17.22,-31.03,112.41,-10.75,6.18
1398,50.998966,-3.730659,186,24.9,21.0,289.0,Apr-20,699061,2020-03-21 14:40:36:373,-0.0943,0.1992,9.7412,-0.001,0.0018,9.8067,0.017,-0.0079,-0.0085,-13.89,-18.34,-31.03,111.61,-10.62,6.38
1399,50.998966,-3.730659,186,24.9,21.0,289.0,Apr-20,699562,2020-03-21 14:40:36:874,0.1436,-0.2899,9.1668,-0.0001,-0.0014,9.8067,0.0266,0.0102,-0.0043,-13.14,-17.59,-31.03,109.31,-10.56,6.61
1400,50.999992,-3.735424,184,26.2,13.0,289.6,Jul-20,700062,2020-03-21 14:40:37:374,0.0998,0.062,10.1023,-0.001,0.0045,9.8066,-0.0085,0.0038,-0.0032,-13.14,-17.59,-31.03,109.32,-10.62,6.27
1401,50.999992,-3.735424,184,26.2,13.0,289.6,Jul-20,700562,2020-03-21 14:40:37:874,-0.7386,-0.266,8.7995,0.0024,0.0031,9.8066,0.0192,0.0198,0.0,-13.14,-17.59,-31.03,109.27,-10.61,6.54
1402,50.999992,-3.735424,184,26.2,13.0,289.6,Jul-20,701062,2020-03-21 14:40:38:374,-0.8888,0.4449,9.9368,-0.0317,-0.0094,9.8066,-0.0607,0.0102,0.0245,-13.89,-17.97,-31.03,111.34,-10.78,6.63
1403,50.999992,-3.735424,184,26.2,13.0,289.6,Jul-20,701562,2020-03-21 14:40:38:874,-0.4896,0.37,9.1035,-0.0128,-0.0044,9.8066,-0.0256,0.0209,0.017,-13.51,-17.59,-31.47,111.52,-10.75,6.15
1404,50.999992,-3.735424,184,26.2,13.0,289.6,Jul-20,702062,2020-03-21 14:40:39:374,-0.1526,0.1736,9.1875,0.0107,-0.0098,9.8066,0.0352,0.0028,0.0011,-13.51,-17.97,-31.03,111.6,-10.82,5.61
1405,50.999992,-3.735424,184,26.2,13.0,289.6,Jul-20,702562,2020-03-21 14:40:39:874,-0.6294,0.6684,8.9852,-0.013,0.0016,9.8066,-0.0011,0.0177,0.0128,-13.14,-17.59,-30.16,110.05,-10.7,5.13
1406,50.999992,-3.735424,184,26.2,13.0,289.6,Jul-20,703062,2020-03-21 14:40:40:374,0.5656,0.833,10.7718,-0.0102,-0.005,9.8066,-0.0874,-0.0079,0.0256,-12.76,-17.97,-30.6,109.87,-10.57,4.58
1407,50.999992,-3.735424,184,26.2,13.0,289.6,Jul-20,703562,2020-03-21 14:40:40:874,0.9703,0.3102,10.9111,0.0064,-0.0031,9.8066,-0.0799,-0.0271,0.0032,-12.76,-19.47,-30.16,109.72,-10.73,3.12
1408,50.999992,-3.735424,184,26.2,13.0,289.6,Jul-20,704062,2020-03-21 14:40:41:374,0.798,-0.6287,8.672,-0.0173,-0.0066,9.8066,-0.0277,0.0187,0.0181,-12.76,-19.78,-31.03,108.16,-10.9,3.27
1409,50.999992,-3.735424,184,26.2,13.0,289.6,Jul-20,704562,2020-03-21 14:40:41:874,0.801,0.5071,10.1909,0.0089,0.0024,9.8066,0.0085,-0.0004,-0.0064,-12.76,-19.47,-30.16,109.64,-10.79,3.16
1410,50.999992,-3.735424,184,26.2,13.0,289.6,Jul-20,705062,2020-03-21 14:40:42:374,-0.0621,-0.7043,10.7007,0.0093,-0.0198,9.8066,0.0661,-0.0484,-0.0096,-13.14,-20.16,-29.72,108.9,-10.81,2.75
1411,50.999992,-3.735424,184,26.2,13.0,289.6,Jul-20,705562,2020-03-21 14:40:42:874,0.6471,-0.3952,8.6978,0.0069,0.0035,9.8066,0.032,-0.0047,-0.0096,-12.76,-20.16,-29.72,109.19,-10.57,2.76
1412,50.999992,-3.735424,184,26.2,13.0,289.6,Jul-20,706062,2020-03-21 14:40:43:374,0.4332,-0.2225,10.681,0.0165,0.0039,9.8066,0.0245,-0.0068,-0.0011,-12.76,-19.78,-30.16,109.34,-10.48,2.63
1413,50.999992,-3.735424,184,26.2,13.0,289.6,Jul-20,706562,2020-03-21 14:40:43:874,0.6943,0.0584,10.5096,-0.0026,-0.0081,9.8066,-0.0959,-0.01,0.0245,-12.39,-19.47,-30.6,107.18,-10.36,3.5
1414,50.999992,-3.735424,184,26.2,13.0,289.6,0 / 20,707062,2020-03-21 14:40:44:374,0.6569,-0.3311,9.4968,0.0045,-0.003,9.8066,-0.0341,0.0049,-0.0075,-12.76,-19.47,-30.6,109.6,-10.18,4.42
1415,50.999992,-3.735424,184,26.2,13.0,289.6,0 / 20,707562,2020-03-21 14:40:44:874,0.5265,0.5526,9.8429,0.0266,0.0086,9.8066,-0.0639,-0.009,-0.0128,-12.76,-19.47,-30.16,110.02,-10.03,5.33
1416,50.999992,-3.735424,184,26.2,13.0,289.6,Jul-20,708062,2020-03-21 14:40:45:374,-0.5734,-0.6326,10.4266,-0.0069,-0.0036,9.8066,0.017,0.0102,-0.0128,-13.14,-19.09,-30.6,109.61,-9.71,6.54
1417,50.999992,-3.735424,184,26.2,13.0,289.6,Jul-20,708562,2020-03-21 14:40:45:874,0.7953,0.1852,10.0517,0.0118,-0.0013,9.8066,0.0149,-0.0036,-0.0234,-13.51,-19.09,-29.72,112.39,-9.52,6.9
1418,50.999992,-3.735424,184,26.2,13.0,289.6,Jul-20,709062,2020-03-21 14:40:46:374,-0.2867,0.2889,9.9239,-0.0098,-0.0027,9.8066,-0.0309,-0.0079,-0.0021,-12.76,-19.09,-30.6,109.84,-9.41,7.07
1419,50.999992,-3.735424,184,26.2,13.0,289.6,Jul-20,709562,2020-03-21 14:40:46:874,0.4782,0.4934,9.9412,-0.0213,-0.0098,9.8066,-0.0266,-0.0026,-0.0075,-13.14,-19.47,-29.72,110.67,-9.21,6.51
1420,51.000927,-3.739013,212,26.5,29.0,292.0,Jul-20,710062,2020-03-21 14:40:47:374,-0.508,-0.5328,9.9543,-0.0093,-0.0036,9.8066,-0.033,0.0187,-0.0032,-13.51,-19.09,-30.16,113.12,-9.18,5.8
1421,51.000927,-3.739013,212,26.5,29.0,292.0,Jul-20,710562,2020-03-21 14:40:47:874,-0.759,0.0357,9.1883,-0.0133,-0.0063,9.8066,0.0075,-0.0249,-0.0192,-12.76,-19.78,-30.16,110.38,-9.05,5.33
1422,51.000927,-3.739013,212,26.5,29.0,292.0,Jul-20,711061,2020-03-21 14:40:48:373,-0.5852,0.385,9.311,0.0027,-0.0011,9.8067,0.0543,-0.0058,-0.0171,-12.76,-18.72,-30.16,111.22,-9.07,5.18
1423,51.000927,-3.739013,212,26.5,29.0,292.0,Jul-20,711562,2020-03-21 14:40:48:874,-0.4836,0.0449,8.9764,-0.022,-0.0056,9.8066,-0.033,-0.01,-0.0021,-12.39,-19.09,-29.72,109.02,-9.05,4.88
1424,51.000927,-3.739013,212,26.5,29.0,292.0,Jul-20,712062,2020-03-21 14:40:49:374,-0.4955,-0.0099,9.1795,-0.0036,-0.0011,9.8066,-0.033,-0.009,-0.0096,-13.14,-19.47,-29.72,111.7,-8.81,4.64
1425,51.000927,-3.739013,212,26.5,29.0,292.0,Jul-20,712562,2020-03-21 14:40:49:874,0.3619,-0.6438,9.571,0.0017,0.0028,9.8066,-0.0341,-0.0036,-0.0011,-13.14,-19.47,-30.6,111.57,-8.54,4.75
1426,51.000927,-3.739013,212,26.5,29.0,292.0,Jul-20,713062,2020-03-21 14:40:50:374,-0.715,-0.4648,10.0576,-0.0004,-0.0039,9.8066,-0.0405,-0.0036,-0.0032,-13.51,-19.47,-30.6,113.96,-8.39,4.84
1427,51.000927,-3.739013,212,26.5,29.0,292.0,Jul-20,713562,2020-03-21 14:40:50:874,0.3035,-0.3544,10.0237,-0.0007,-0.0023,9.8066,-0.0234,0.0017,0.0,-13.14,-19.09,-30.16,112.35,-8.23,4.79
1428,51.000927,-3.739013,212,26.5,29.0,292.0,Jul-20,714062,2020-03-21 14:40:51:374,0.2251,-0.0439,9.864,0.003,-0.0021,9.8067,0.0213,0.0113,-0.0043,-12.76,-19.47,-30.6,112.22,-8.16,4.26
1429,51.000927,-3.739013,212,26.5,29.0,292.0,Jul-20,714562,2020-03-21 14:40:51:874,-0.0131,-0.3962,9.5776,-0.013,-0.0004,9.8066,0.0064,0.007,-0.0021,-12.76,-19.09,-31.47,112.44,-8.07,3.97
1430,51.000927,-3.739013,212,26.5,29.0,292.0,0 / 20,715062,2020-03-21 14:40:52:374,0.7837,-0.2472,10.1099,0.0009,0.0008,9.8067,0.0064,0.0187,0.0043,-13.14,-19.47,-30.16,113.15,-8.03,3.28
1431,51.000927,-3.739013,212,26.5,29.0,292.0,0 / 20,715562,2020-03-21 14:40:52:874,-0.8562,-0.0962,9.4464,0.0029,0.0122,9.8066,-0.0128,0.0123,-0.0043,-12.76,-19.47,-30.6,113.1,-7.9,2.85
1432,51.000927,-3.739013,212,26.5,29.0,292.0,Feb-20,716062,2020-03-21 14:40:53:374,0.4496,-0.0338,10.024,0.0091,-0.0018,9.8066,-0.0032,-0.01,-0.0117,-13.14,-19.09,-31.03,112.89,-7.87,3.48
1433,51.000927,-3.739013,212,26.5,29.0,292.0,Feb-20,716562,2020-03-21 14:40:53:874,0.0108,-0.1304,9.4519,0.0172,0.0063,9.8066,0.0021,-0.0132,-0.0213,-12.07,-18.72,-31.47,110.59,-7.77,3.68
1434,51.000927,-3.739013,212,26.5,29.0,292.0,Feb-20,717061,2020-03-21 14:40:54:373,0.6946,-0.0631,9.5844,0.0176,0.0038,9.8066,0.0543,0.0038,-0.0245,-12.76,-20.16,-31.47,111.85,-7.73,4.27
1435,51.000927,-3.739013,212,26.5,29.0,292.0,Feb-20,717562,2020-03-21 14:40:54:874,0.0699,-0.3381,10.6127,0.0024,-0.0082,9.8066,-0.0138,-0.0185,-0.0107,-13.51,-18.72,-31.03,115.18,-7.43,4.65
