,GPS LATITUDE (degrees), GPS LONGITUDE (degrees), GPS ALTITUDE (m), GPS SPEED (Kmh), GPS ACCURACY (m), GPS ORIENTATION (Â°),GPS SATELLITES IN RANGE, TIME SINCE START (ms), DATE (YYYY-MO-DD HH-MI-SS_SSS), ACCELEROMETER X (m/s²) , ACCELEROMETER Y (m/s²), ACCELEROMETER Z (m/s²), GRAVITY X (m/s²), GRAVITY Y (m/s²), GRAVITY Z (m/s²), GYROSCOPE Yaw (rad/s), GYROSCOPE Pitch (rad/s), GYROSCOPE Roll (rad/s), MAGNETIC FIELD X (Î¼T), MAGNETIC FIELD Y (Î¼T), MAGNETIC FIELD Z (Î¼T), ORIENTATION (Yaw) (Â°), ORIENTATION (Pitch) (Â°), ORIENTATION (Roll ) (Â°)
8087,52.361576,-1.805557,208.76,22.46,4,25.71,23 / 23,1122708,2020-01-08 16:39:57:684,0.9692,1.6158,10.387,-0.009,0.0233,9.8065,-0.0487,-0.0131,0.0338,-9.12,-36.5,-11.12,223.82,-86.91,-170.08
8088,52.361576,-1.805557,208.76,22.46,4,25.71,23 / 23,1122808,2020-01-08 16:39:57:784,0.2254,-0.835,9.0646,-0.01,-0.0424,9.8065,-0.1414,-0.033,0.0925,-8.87,-36.31,-11.06,222.28,-86.9,-171.76
8089,52.361576,-1.805557,208.76,22.46,4,25.71,23 / 23,1122908,2020-01-08 16:39:57:884,1.7179,-1.7551,9.2072,-0.0218,0.0467,9.8065,0.0124,-0.032,0.0688,-8.81,-36.75,-11.0,219.75,-87.05,-174.66
8090,52.361576,-1.805557,208.76,22.46,4,25.71,23 / 23,1123008,2020-01-08 16:39:57:984,1.6556,3.0707,10.0994,-0.0003,0.0095,9.8066,0.0051,-0.1699,-0.0253,-8.87,-36.37,-10.87,224.1,-87.1,-170.11
8091,52.361576,-1.805557,208.76,22.46,4,25.71,23 / 23,1123108,2020-01-08 16:39:58:084,-0.2531,0.3565,9.1335,0.0196,-0.011,9.8066,0.1329,-0.2431,-0.0696,-9.25,-36.37,-10.94,226.23,-87.19,-167.96
8092,52.361576,-1.805557,208.76,22.46,4,25.71,23 / 23,1123208,2020-01-08 16:39:58:184,-1.283,0.0962,8.1292,0.0379,-0.0131,9.8065,0.1391,-0.1778,0.132,-8.87,-36.5,-11.06,230.51,-87.12,-163.17
8093,52.361576,-1.805557,208.76,22.46,4,25.71,23 / 23,1123308,2020-01-08 16:39:58:284,-0.3007,1.1276,9.9717,-0.0137,-0.0196,9.8066,0.3016,-0.08,0.1121,-9.0,-37.0,-10.81,227.97,-87.45,-166.41
8094,52.361576,-1.805557,208.76,22.46,4,25.71,23 / 23,1123408,2020-01-08 16:39:58:384,1.5631,2.3398,10.5602,0.0064,0.0601,9.8064,0.2417,0.0363,-0.1602,-8.94,-36.37,-10.56,230.65,-87.39,-163.56
8095,52.361576,-1.805557,208.76,22.46,4,25.71,23 / 23,1123508,2020-01-08 16:39:58:484,-2.0269,2.6157,10.1345,0.0417,-0.0334,9.8064,0.0919,0.13,-0.2326,-8.81,-36.5,-11.12,232.19,-87.24,-161.6
8096,52.361576,-1.805557,208.76,22.46,4,25.71,23 / 23,1123608,2020-01-08 16:39:58:584,2.5157,-1.4944,10.3287,0.0352,0.0104,9.8066,0.1349,0.1,-0.1087,-9.31,-36.75,-11.69,225.16,-87.35,-167.1
8097,52.361576,-1.805557,208.76,22.46,4,25.71,23 / 23,1123708,2020-01-08 16:39:58:684,1.1212,1.4928,9.9735,0.0246,-0.0211,9.8065,0.0146,0.1869,-0.013,-8.94,-36.56,-11.12,227.47,-87.24,-166.55
8098,52.361576,-1.805557,208.76,22.46,4,25.71,23 / 23,1123808,2020-01-08 16:39:58:784,1.6996,-1.9678,10.2625,-0.0219,0.0051,9.8066,-0.0476,0.2194,-0.1416,-8.94,-36.0,-11.37,226.79,-87.29,-167.53
8099,52.361576,-1.805557,208.76,22.46,4,25.71,23 / 23,1123908,2020-01-08 16:39:58:884,-1.8523,0.904,9.5696,0.0253,-0.0188,9.8066,-0.0487,0.2096,-0.1919,-8.94,-36.62,-11.37,232.16,-87.44,-161.88
8100,52.361576,-1.805557,208.76,22.46,4,25.71,23 / 23,1124008,2020-01-08 16:39:58:984,1.0737,0.2812,10.6175,0.0098,0.0219,9.8066,0.0224,0.1639,-0.0931,-8.94,-36.37,-10.81,230.48,-87.52,-164.0
8101,52.361576,-1.805557,208.76,22.46,4,25.71,23 / 23,1124108,2020-01-08 16:39:59:084,0.8387,-1.6016,8.7776,0.0124,0.0059,9.8066,0.04,0.1574,-0.1201,-9.0,-36.31,-11.69,228.61,-87.41,-163.61
8102,52.361576,-1.805557,208.76,22.46,4,25.71,23 / 23,1124208,2020-01-08 16:39:59:184,1.9001,0.0152,10.6225,0.0013,0.0077,9.8066,-0.0436,0.03,-0.125,-9.12,-36.56,-11.25,232.56,-87.53,-161.64
8103,52.361576,-1.805557,208.76,22.46,4,25.71,23 / 23,1124307,2020-01-08 16:39:59:283,1.3764,-1.7175,8.6641,0.0025,0.0113,9.8066,-0.0238,-0.0853,0.1387,-9.0,-36.25,-11.31,228.32,-87.39,-166.05
8104,52.361576,-1.805557,208.76,22.46,4,25.71,23 / 23,1124408,2020-01-08 16:39:59:384,-1.3373,1.8833,10.5737,-0.0204,0.0343,9.8066,-0.0341,-0.0781,0.1781,-9.25,-35.62,-11.94,225.41,-87.47,-167.16
8105,52.361576,-1.805557,208.76,22.46,4,25.71,23 / 23,1124507,2020-01-08 16:39:59:483,-0.2227,-0.716,10.4025,-0.0295,0.0225,9.8066,0.0091,-0.1615,0.0254,-9.19,-36.44,-11.25,231.8,-87.6,-162.72
8106,52.361576,-1.805557,208.76,22.46,4,25.71,23 / 23,1124608,2020-01-08 16:39:59:584,-1.2074,2.199,11.5982,-0.0106,0.0328,9.8065,-0.1264,-0.2695,0.1767,-9.12,-36.62,-11.69,231.6,-87.57,-160.6
8107,52.361576,-1.805557,208.76,22.46,4,25.71,23 / 23,1124708,2020-01-08 16:39:59:684,1.6572,-1.7798,10.0734,-0.0339,0.0553,9.8064,-0.0942,-0.4367,0.2733,-8.62,-36.87,-11.75,223.65,-87.46,-168.93
8108,52.361576,-1.805557,208.76,22.46,4,25.71,23 / 23,1124808,2020-01-08 16:39:59:784,-1.2887,3.1849,11.6878,-0.0045,0.0425,9.8065,-0.2767,-0.221,0.2651,-8.94,-36.81,-11.56,228.36,-87.7,-164.29
8109,52.361576,-1.805557,208.76,22.46,4,25.71,23 / 23,1124908,2020-01-08 16:39:59:884,0.9731,-3.0169,6.6012,0.0162,0.1101,9.806,-0.3916,-0.2261,0.1928,-9.31,-36.62,-12.06,222.38,-87.26,-169.96
8110,52.361576,-1.805557,208.76,22.46,4,25.71,23 / 23,1125008,2020-01-08 16:39:59:984,-1.085,3.4105,13.1479,0.0174,-0.0102,9.8066,-0.38,-0.3511,0.2126,-8.87,-35.87,-9.75,232.4,-87.49,-164.29
8111,52.361576,-1.805557,208.76,22.46,4,25.71,23 / 23,1125107,2020-01-08 16:40:00:083,0.0209,1.1594,9.2933,-0.0024,0.1502,9.8054,-0.2639,-0.3451,0.2444,-8.75,-34.37,-12.12,220.32,-87.24,-172.54
8112,52.361576,-1.805557,208.76,22.46,4,25.71,23 / 23,1125208,2020-01-08 16:40:00:184,-2.2916,1.8725,8.9204,-0.0323,0.0053,9.8066,-0.2305,-0.0361,0.3725,-9.19,-36.0,-12.0,224.71,-87.44,-167.86
8113,52.361576,-1.805557,208.76,22.46,4,25.71,23 / 23,1125307,2020-01-08 16:40:00:283,-0.682,-1.7678,7.2312,-0.0203,0.0355,9.8065,-0.269,-0.0275,0.1335,-9.62,-34.44,-11.06,232.46,-87.83,-165.89
8114,52.361576,-1.805557,208.76,22.46,4,25.71,23 / 23,1125407,2020-01-08 16:40:00:383,0.9966,0.4908,11.3289,0.0538,0.017,9.8065,-0.1408,-0.3185,0.0226,-9.37,-36.06,-13.5,228.39,-88.06,-163.02
8115,52.361576,-1.805557,208.76,22.46,4,25.71,23 / 23,1125508,2020-01-08 16:40:00:484,2.701,-2.9979,10.6865,-0.0433,0.0743,9.8062,-0.0888,-0.1927,0.1998,-10.69,-38.06,-13.37,227.93,-87.76,-168.61
8116,52.361576,-1.805557,208.76,22.46,4,25.71,23 / 23,1125608,2020-01-08 16:40:00:584,-0.5112,4.2481,12.1936,-0.0009,0.0495,9.8065,-0.177,-0.2299,0.2593,-10.5,-38.44,-10.75,229.45,-87.41,-167.82
8117,52.361576,-1.805557,208.76,22.46,4,25.71,23 / 23,1125708,2020-01-08 16:40:00:684,0.9992,-1.7373,8.033,-0.0054,0.0767,9.8063,-0.2619,-0.2738,0.2083,-9.81,-36.87,-12.75,227.24,-87.41,-166.05
8118,52.361576,-1.805557,208.76,22.46,4,25.71,23 / 23,1125808,2020-01-08 16:40:00:784,-1.4376,2.3869,10.4136,-0.0065,0.0343,9.8066,-0.1806,-0.0862,0.1622,-9.94,-36.19,-12.75,234.43,-87.58,-158.83
8119,52.361576,-1.805557,208.76,22.46,4,25.71,23 / 23,1125908,2020-01-08 16:40:00:884,1.2012,-1.008,8.9883,-0.0243,0.0298,9.8066,-0.1398,-0.0083,0.0673,-10.37,-36.62,-13.87,231.97,-87.72,-159.73
8120,52.361576,-1.805557,208.76,22.46,4,25.71,23 / 23,1126008,2020-01-08 16:40:00:984,1.2213,-0.1808,10.0648,0.0253,0.0091,9.8066,-0.0056,0.1059,-0.1053,-10.25,-37.37,-15.94,229.14,-87.56,-159.27
8121,52.361576,-1.805557,208.76,22.46,4,25.71,23 / 23,1126108,2020-01-08 16:40:01:084,0.5632,-1.7135,9.2655,0.0042,0.0043,9.8066,0.0607,0.1111,-0.1059,-11.5,-41.0,-19.0,226.15,-87.55,-160.65
8122,52.361576,-1.805557,208.76,22.46,4,25.71,23 / 23,1126208,2020-01-08 16:40:01:184,1.6279,-0.7886,10.0746,0.0276,-0.026,9.8066,0.0988,0.1647,-0.2148,-14.44,-54.0,-24.87,225.76,-87.48,-160.12
8123,52.361576,-1.805557,208.76,22.46,4,25.71,23 / 23,1126308,2020-01-08 16:40:01:284,1.1392,-0.1529,8.1908,0.0154,0.0237,9.8066,-0.1775,-0.1653,-0.0411,-14.75,-73.31,-11.5,242.78,-87.33,-161.63
8124,52.361576,-1.805557,208.76,22.46,4,25.71,23 / 23,1126408,2020-01-08 16:40:01:384,2.4505,-2.1029,10.3434,0.0016,0.0614,9.8064,-0.0797,-0.0956,0.2862,-15.81,-72.75,-6.87,256.39,-87.27,-158.83
8125,52.361576,-1.805557,208.76,22.46,4,25.71,23 / 23,1126508,2020-01-08 16:40:01:484,-1.4844,1.0606,8.6507,0.0448,-0.0288,9.8065,-0.0187,-0.1622,0.1302,-16.75,-72.0,-7.12,256.79,-87.14,-159.88
8126,52.361576,-1.805557,208.76,22.46,4,25.71,23 / 23,1126608,2020-01-08 16:40:01:584,-0.4909,0.2595,10.6085,0.0106,0.011,9.8066,-0.0346,-0.2684,0.0826,-17.0,-71.94,-8.94,249.96,-87.23,-162.38
8127,52.361576,-1.805557,208.76,22.46,4,25.71,23 / 23,1126708,2020-01-08 16:40:01:684,-2.0871,2.5086,8.7291,0.035,0.0076,9.8065,0.0306,-0.2332,0.17,-15.87,-72.94,-9.62,247.51,-87.18,-160.36
8128,52.361576,-1.805557,208.76,22.46,4,25.71,23 / 23,1126807,2020-01-08 16:40:01:783,0.9488,-0.9149,9.4249,-0.054,0.0103,9.8065,0.1101,-0.3919,0.2773,-13.75,-74.06,-10.12,244.82,-87.18,-158.61
8129,52.361576,-1.805557,208.76,22.46,4,25.71,23 / 23,1126908,2020-01-08 16:40:01:884,0.2353,-0.7809,10.5522,0.0174,-0.0244,9.8065,0.0598,-0.3174,0.1695,-10.37,-74.37,-5.19,241.96,-87.27,-165.34
8130,52.361576,-1.805557,208.76,22.46,4,25.71,23 / 24,1127008,2020-01-08 16:40:01:984,-1.7668,-2.6728,9.9158,-0.0018,0.0297,9.8066,-0.0041,-0.3711,0.2241,-7.12,-57.25,6.5,321.12,-87.22,-163.74
8131,52.361576,-1.805557,208.76,22.46,4,25.71,23 / 24,1127108,2020-01-08 16:40:02:084,1.2328,0.558,10.011,-0.0156,-0.0294,9.8065,0.0329,-0.3496,0.2236,-7.37,-35.31,-1.94,258.98,-87.38,-162.61
8132,52.361576,-1.805557,208.76,22.46,4,25.71,23 / 24,1127207,2020-01-08 16:40:02:183,-1.4592,1.3921,9.1701,-0.032,0.0076,9.8065,0.0884,-0.1156,0.0558,-8.06,-33.87,-6.44,240.32,-87.29,-164.81
8133,52.361576,-1.805557,208.76,22.46,4,25.71,23 / 24,1127308,2020-01-08 16:40:02:284,-1.0095,0.7094,8.8968,-0.0016,0.0194,9.8066,0.1006,-0.1039,0.0017,-8.31,-33.25,-8.44,230.2,-87.23,-168.61
8134,52.361576,-1.805557,208.76,22.46,4,25.71,23 / 24,1127407,2020-01-08 16:40:02:383,-2.0296,2.035,10.3808,-0.0319,0.032,9.8065,0.0659,-0.0693,-0.0538,-8.94,-33.69,-9.5,227.45,-87.05,-171.78
8135,52.361576,-1.805557,208.76,22.46,4,25.71,23 / 24,1127508,2020-01-08 16:40:02:484,3.5149,-3.1738,9.7605,-0.0385,0.0363,9.8064,0.0021,0.1081,-0.1165,-9.37,-34.56,-10.44,225.14,-87.04,-171.41
8136,52.361576,-1.805557,208.76,22.46,4,25.71,23 / 24,1127608,2020-01-08 16:40:02:584,-0.4938,0.2242,8.5763,-0.0659,0.039,9.8063,-0.0652,0.1702,-0.2128,-9.12,-34.75,-11.06,226.35,-87.07,-167.74
8137,52.361576,-1.805557,208.76,22.46,4,25.71,23 / 24,1127708,2020-01-08 16:40:02:684,1.3393,-1.0447,10.8122,-0.07,-0.0036,9.8064,-0.122,0.1008,-0.1019,-9.5,-34.94,-10.81,221.43,-87.45,-173.72
8138,52.361576,-1.805557,208.76,22.46,4,25.71,23 / 24,1127807,2020-01-08 16:40:02:783,-2.1922,2.1928,10.68,-0.0382,0.0448,9.8064,-0.2068,0.1273,0.1327,-9.25,-35.12,-11.37,221.31,-87.33,-173.66
8139,52.361576,-1.805557,208.76,22.46,4,25.71,23 / 23,1127908,2020-01-08 16:40:02:884,1.2381,0.9082,11.1605,-0.0041,-0.0284,9.8065,-0.0891,-0.0061,0.0622,-9.75,-35.25,-10.81,230.7,-87.44,-166.93
8140,52.361576,-1.805557,208.76,22.46,4,25.71,23 / 23,1128008,2020-01-08 16:40:02:984,-0.0231,-0.4289,9.7613,0.016,0.0253,9.8066,-0.0806,-0.0618,-0.0108,-10.06,-36.12,-10.56,231.3,-87.45,-166.18
8141,52.361576,-1.805557,208.76,22.46,4,25.71,23 / 23,1128108,2020-01-08 16:40:03:084,0.0937,2.8036,11.1538,0.0245,0.0152,9.8066,0.0487,0.1,0.1815,-9.81,-35.06,-11.31,229.16,-87.05,-167.88
8142,52.361576,-1.805557,208.76,22.46,4,25.71,23 / 23,1128207,2020-01-08 16:40:03:183,-2.6342,2.739,9.6696,0.038,-0.1243,9.8058,-0.1871,-0.0218,0.2546,-10.12,-35.37,-10.94,223.81,-87.08,-173.74
8143,52.361576,-1.805557,208.76,22.46,4,25.71,23 / 23,1128307,2020-01-08 16:40:03:283,-0.0986,0.4426,11.3431,-0.0073,-0.0309,9.8066,-0.1382,-0.0639,-0.0208,-9.81,-35.06,-10.87,229.96,-87.46,-167.76
8144,52.361576,-1.805557,208.76,22.46,4,25.71,23 / 23,1128408,2020-01-08 16:40:03:384,2.2027,-1.5851,9.6328,0.0356,-0.0173,9.8065,-0.0683,-0.2357,-0.0563,-10.0,-35.37,-10.06,235.8,-87.17,-163.44
8145,52.361576,-1.805557,208.76,22.46,4,25.71,23 / 23,1128508,2020-01-08 16:40:03:484,0.7395,1.0104,10.7828,-0.0114,-0.0445,9.8065,-0.1639,-0.2412,0.2017,-10.37,-34.56,-10.25,237.54,-87.27,-161.77
8146,52.361576,-1.805557,208.76,22.46,4,25.71,23 / 23,1128608,2020-01-08 16:40:03:584,1.5633,-2.5862,8.3981,0.0158,-0.0556,9.8065,-0.2719,-0.304,0.2939,-10.31,-33.5,-10.19,232.81,-87.15,-166.93
8147,52.361576,-1.805557,208.76,22.46,4,25.71,23 / 23,1128708,2020-01-08 16:40:03:684,-1.5963,2.0187,11.738,0.0118,-0.0664,9.8063,-0.3124,-0.3306,0.2412,-10.06,-33.81,-11.19,234.51,-87.32,-162.79
8148,52.361576,-1.805557,208.76,22.46,4,25.71,23 / 23,1128808,2020-01-08 16:40:03:784,0.7579,0.4724,10.8411,-0.0128,-0.0913,9.8061,-0.3423,-0.2323,0.2654,-10.56,-33.31,-11.87,230.17,-87.11,-167.87
8149,52.361576,-1.805557,208.76,22.46,4,25.71,23 / 23,1128909,2020-01-08 16:40:03:885,0.9761,1.0447,9.968,0.0169,-0.0317,9.8066,-0.1789,-0.1573,0.1621,-11.44,-35.0,-16.06,227.38,-87.45,-163.76
8150,52.363155,-1.804109,208.73,22.31,4,32.71,23 / 23,1129008,2020-01-08 16:40:03:984,1.6317,-3.6715,8.7945,0.0141,-0.0378,9.8065,-0.1702,-0.3693,0.1153,-9.56,-53.5,-23.75,211.52,-87.28,-168.23
8151,52.363155,-1.804109,208.73,22.31,4,32.71,23 / 23,1129108,2020-01-08 16:40:04:084,-1.7967,3.341,11.0628,0.0326,-0.0603,9.8064,-0.1824,-0.2964,0.2959,-6.0,-63.0,-6.44,225.53,-87.26,-164.82
8152,52.363155,-1.804109,208.73,22.31,4,32.71,23 / 23,1129207,2020-01-08 16:40:04:183,1.8845,-3.891,7.5573,0.0493,-0.0979,9.8059,-0.2345,-0.2342,0.3653,-1.87,-49.44,-2.69,206.47,-87.29,-170.61
8153,52.363155,-1.804109,208.73,22.31,4,32.71,23 / 23,1129307,2020-01-08 16:40:04:283,1.4487,0.2188,10.4918,0.0452,-0.0627,9.8063,-0.1981,-0.4081,0.3167,1.81,-43.87,-10.31,186.35,-87.66,-161.23
8154,52.363155,-1.804109,208.73,22.31,4,32.71,23 / 23,1129408,2020-01-08 16:40:04:384,3.5121,-1.0175,8.8891,0.0637,-0.0285,9.8063,-0.1993,-0.4496,0.2391,3.25,-46.12,-15.06,181.85,-87.47,-166.6
8155,52.363155,-1.804109,208.73,22.31,4,32.71,23 / 23,1129507,2020-01-08 16:40:04:483,-3.7732,0.9141,10.5516,0.0357,-0.0056,9.8065,-0.2434,-0.33,0.3806,3.31,-51.75,-19.19,185.97,-87.38,-164.33
8156,52.363155,-1.804109,208.73,22.31,4,32.71,23 / 23,1129608,2020-01-08 16:40:04:584,-2.1856,1.3431,10.3783,0.0673,-0.0499,9.8062,-0.2441,-0.2619,0.3381,0.63,-69.0,-16.31,191.56,-87.58,-162.79
8157,52.363155,-1.804109,208.73,22.31,4,32.71,23 / 23,1129708,2020-01-08 16:40:04:684,-0.2837,2.9695,11.1431,-0.0057,-0.0284,9.8066,-0.1212,-0.2641,0.06,-3.94,-64.0,-0.87,234.39,-87.52,-168.41
8158,52.363155,-1.804109,208.73,22.31,4,32.71,23 / 23,1129807,2020-01-08 16:40:04:783,-0.7629,-2.2558,8.8745,-0.0145,-0.0268,9.8066,-0.0903,-0.1936,-0.0161,-8.94,-43.06,1.13,279.27,-87.51,-165.28
8159,52.363155,-1.804109,208.73,22.31,4,32.71,23 / 23,1129908,2020-01-08 16:40:04:884,0.7765,-1.2594,10.2743,0.0176,-0.0521,9.8065,0.011,-0.1379,0.2922,-10.0,-35.69,-5.19,245.47,-87.39,-170.3
8160,52.363155,-1.804109,208.73,22.31,4,32.71,23 / 23,1130007,2020-01-08 16:40:04:983,0.8756,-0.2152,10.6145,0.0505,-0.0004,9.8065,0.0984,-0.0475,0.2491,-10.75,-34.37,-8.31,240.74,-87.48,-167.74
8161,52.363155,-1.804109,208.73,22.31,4,32.71,23 / 23,1130108,2020-01-08 16:40:05:084,-0.9314,-2.0358,7.8483,0.0189,0.0554,9.8065,-0.1014,0.1891,-0.1382,-10.5,-34.75,-9.12,235.93,-87.14,-165.94
8162,52.363155,-1.804109,208.73,22.31,4,32.71,23 / 23,1130208,2020-01-08 16:40:05:184,-1.0132,2.0315,10.5453,-0.0239,0.0365,9.8065,-0.0749,0.2494,-0.194,-10.56,-34.94,-9.5,243.3,-87.23,-161.31
8163,52.363155,-1.804109,208.73,22.31,4,32.71,23 / 23,1130307,2020-01-08 16:40:05:283,-0.0175,0.409,9.2169,0.0237,0.0289,9.8065,-0.031,0.125,-0.0243,-10.75,-35.19,-9.37,241.66,-87.28,-163.16
8164,52.363155,-1.804109,208.73,22.31,4,32.71,23 / 23,1130408,2020-01-08 16:40:05:384,-0.2974,1.1773,9.5047,-0.0256,0.0137,9.8066,-0.0195,0.1397,-0.0074,-10.31,-35.75,-9.87,234.63,-87.33,-164.84
8165,52.363155,-1.804109,208.73,22.31,4,32.71,23 / 23,1130507,2020-01-08 16:40:05:483,2.9998,-2.2006,10.1258,-0.0177,0.0024,9.8065,0.0036,0.1677,-0.141,-10.19,-35.37,-10.69,235.38,-87.33,-161.74
8166,52.363155,-1.804109,208.73,22.31,4,32.71,23 / 23,1130608,2020-01-08 16:40:05:584,0.7434,-1.2176,9.1053,-0.0279,0.0449,9.8065,0.1166,0.0838,-0.127,-9.94,-36.0,-10.12,240.93,-87.31,-158.09
8167,52.363155,-1.804109,208.73,22.31,4,32.71,23 / 23,1130707,2020-01-08 16:40:05:683,0.4541,-0.0658,10.2608,-0.0067,-0.0062,9.8066,0.1293,0.1452,-0.0825,-10.75,-35.69,-9.69,241.1,-87.37,-161.05
8168,52.363155,-1.804109,208.73,22.31,4,32.71,23 / 23,1130808,2020-01-08 16:40:05:784,-1.1139,2.1438,10.7164,-0.017,0.0582,9.8064,0.0729,0.1361,-0.0841,-10.44,-36.06,-10.06,238.87,-87.3,-160.27
8169,52.363155,-1.804109,208.73,22.31,4,32.71,23 / 23,1130909,2020-01-08 16:40:05:885,1.0063,-1.129,8.972,0.0001,-0.0054,9.8066,-0.0003,-0.0116,-0.0364,-10.69,-36.12,-9.81,239.7,-87.32,-162.45
8170,52.363155,-1.804109,208.73,22.31,4,32.71,23 / 23,1131008,2020-01-08 16:40:05:984,0.6446,-0.1269,9.2352,-0.0069,0.0068,9.8066,0.1156,-0.0651,0.0583,-10.94,-36.5,-9.25,245.23,-87.37,-159.43
8171,52.363155,-1.804109,208.73,22.31,4,32.71,23 / 23,1131107,2020-01-08 16:40:06:083,-0.1287,0.139,9.3374,0.0099,0.001,9.8066,0.072,0.0959,-0.0779,-10.81,-35.94,-9.06,246.11,-87.19,-158.1
8172,52.363155,-1.804109,208.73,22.31,4,32.71,23 / 23,1131208,2020-01-08 16:40:06:184,-1.6194,2.1919,13.2575,0.0196,0.1,9.8061,-0.3091,-0.0818,0.1659,-10.44,-34.87,-9.06,246.37,-87.37,-155.39
8173,52.363155,-1.804109,208.73,22.31,4,32.71,23 / 23,1131308,2020-01-08 16:40:06:284,1.2191,2.3195,9.7304,-0.0055,0.0926,9.8062,-0.3114,-0.073,0.2384,-8.94,-34.69,-8.44,236.91,-87.22,-164.71
8174,52.363155,-1.804109,208.73,22.31,4,32.71,23 / 23,1131408,2020-01-08 16:40:06:384,0.4113,3.5877,12.7967,-0.0331,0.0992,9.806,-0.5414,-0.2867,0.0627,-9.37,-33.87,-12.37,222.84,-87.05,-169.51
8175,52.363155,-1.804109,208.73,22.31,4,32.71,23 / 23,1131508,2020-01-08 16:40:06:484,1.6134,-1.7419,8.6533,0.0507,0.1045,9.8059,-0.4006,-0.3336,0.245,-10.69,-36.19,-11.62,231.56,-87.27,-166.24
8176,52.363155,-1.804109,208.73,22.31,4,32.71,23 / 23,1131608,2020-01-08 16:40:06:584,-1.006,3.4249,13.6197,-0.0532,-0.0573,9.8063,-0.0775,-0.4878,0.1876,-11.19,-36.12,-11.0,235.47,-87.09,-163.99
8177,52.363155,-1.804109,208.73,22.31,4,32.71,23 / 23,1131707,2020-01-08 16:40:06:683,-1.0847,-2.9427,10.4992,0.005,0.0655,9.8064,0.066,-0.1252,0.1314,-10.56,-36.44,-10.44,237.41,-87.14,-164.5
8178,52.363155,-1.804109,208.73,22.31,4,32.71,23 / 23,1131808,2020-01-08 16:40:06:784,-0.2377,-4.5835,8.118,-0.0478,-0.0701,9.8062,0.188,0.3969,-0.2573,-10.81,-36.06,-9.56,237.78,-86.76,-163.34
8179,52.363155,-1.804109,208.73,22.31,4,32.71,23 / 23,1131908,2020-01-08 16:40:06:884,1.4861,-1.4903,6.6982,0.06,-0.0309,9.8064,0.3029,0.4738,-0.6164,-10.19,-36.75,-9.81,237.61,-86.88,-160.53
8180,52.363155,-1.804109,208.73,22.31,4,32.71,23 / 23,1132009,2020-01-08 16:40:06:985,-3.1861,1.8772,9.2757,0.0648,-0.2124,9.8041,0.384,0.8289,-0.6979,-10.5,-36.44,-9.87,248.05,-87.22,-150.38
8181,52.363155,-1.804109,208.73,22.31,4,32.71,23 / 23,1132108,2020-01-08 16:40:07:084,-2.4199,5.0506,11.5493,-0.0086,-0.1038,9.806,0.3658,0.9177,-0.5955,-10.81,-36.0,-9.19,243.75,-87.33,-160.9
8182,52.363155,-1.804109,208.73,22.31,4,32.71,23 / 23,1132207,2020-01-08 16:40:07:183,4.6537,-8.2427,7.3578,0.0522,-0.1581,9.8052,0.2853,0.8142,-0.7716,-10.87,-36.06,-9.37,234.41,-87.42,-171.0
8183,52.363155,-1.804109,208.73,22.31,4,32.71,23 / 23,1132308,2020-01-08 16:40:07:284,1.903,1.0088,12.5473,0.0124,-0.1134,9.8059,0.325,0.6509,-0.6221,-10.56,-36.19,-9.56,240.81,-87.51,-161.66
8184,52.363155,-1.804109,208.73,22.31,4,32.71,23 / 23,1132408,2020-01-08 16:40:07:384,3.0016,-5.2145,7.3169,0.0376,-0.0748,9.8062,0.1985,0.6181,-0.3087,-10.94,-36.5,-9.87,234.18,-87.31,-168.27
8185,52.363155,-1.804109,208.73,22.31,4,32.71,23 / 23,1132507,2020-01-08 16:40:07:483,-2.548,3.0871,10.3793,0.0368,-0.1097,9.8059,0.0936,0.5812,-0.2528,-10.12,-36.5,-9.5,245.79,-87.31,-155.66
8186,52.363155,-1.804109,208.73,22.31,4,32.71,23 / 23,1132608,2020-01-08 16:40:07:584,2.0569,-2.098,9.779,0.0386,-0.0422,9.8064,0.0618,0.2205,-0.3631,-10.94,-36.12,-9.69,245.49,-87.23,-156.14
8187,52.363155,-1.804109,208.73,22.31,4,32.71,23 / 23,1132708,2020-01-08 16:40:07:684,-1.5195,1.5595,8.5492,0.0578,-0.048,9.8064,0.1466,0.1787,-0.2949,-11.37,-36.0,-9.37,244.16,-87.23,-160.25
8188,52.363155,-1.804109,208.73,22.31,4,32.71,23 / 23,1132808,2020-01-08 16:40:07:784,1.6072,-3.1704,9.6841,-0.0166,-0.0398,9.8065,0.2028,0.0415,-0.0279,-11.94,-36.0,-9.37,242.56,-87.22,-164.65
8189,52.363155,-1.804109,208.73,22.31,4,32.71,23 / 23,1132908,2020-01-08 16:40:07:884,-0.9655,-0.7452,11.1364,0.0452,-0.0214,9.8064,0.2193,-0.1015,0.0308,-10.81,-36.31,-9.25,242.81,-87.23,-161.67
8190,52.363155,-1.804109,208.73,22.31,4,32.71,23 / 23,1133010,2020-01-08 16:40:07:986,2.1315,0.2052,10.4462,-0.005,0.0007,9.8066,0.0468,-0.0913,0.1043,-11.5,-36.37,-9.0,240.19,-87.24,-164.47
8191,52.363155,-1.804109,208.73,22.31,4,32.71,23 / 23,1133108,2020-01-08 16:40:08:084,0.2212,2.481,9.6494,0.0098,-0.0494,9.8064,-0.0125,-0.0789,0.141,-11.62,-36.06,-9.31,248.31,-87.28,-158.76
8192,52.363155,-1.804109,208.73,22.31,4,32.71,23 / 23,1133208,2020-01-08 16:40:08:184,-0.1618,0.6595,10.5349,0.0109,0.0066,9.8066,-0.1118,-0.1618,0.0175,-11.12,-36.37,-9.56,246.14,-87.52,-156.1
8193,52.363155,-1.804109,208.73,22.31,4,32.71,23 / 23,1133307,2020-01-08 16:40:08:283,-1.1453,-0.057,10.2311,-0.026,0.0031,9.8066,-0.1891,-0.3606,0.0149,-11.62,-36.37,-9.75,249.86,-87.75,-155.48
8194,52.363155,-1.804109,208.73,22.31,4,32.71,23 / 23,1133407,2020-01-08 16:40:08:383,-2.1302,-0.7695,7.2817,-0.0498,0.0936,9.806,-0.406,-0.2775,0.44,-11.5,-36.19,-11.0,259.99,-87.95,-140.34
8195,52.363155,-1.804109,208.73,22.31,4,32.71,23 / 23,1133507,2020-01-08 16:40:08:483,3.1945,0.1297,9.5157,-0.003,-0.05,9.8065,-0.2841,-0.2579,0.5385,-11.75,-36.19,-10.12,261.01,-87.82,-144.22
8196,52.363155,-1.804109,208.73,22.31,4,32.71,23 / 23,1133608,2020-01-08 16:40:08:584,3.2236,-2.4779,8.2148,0.0175,-0.1056,9.806,-0.0975,-0.2897,0.265,-11.62,-36.56,-10.5,239.84,-87.59,-165.43
8197,52.363155,-1.804109,208.73,22.31,4,32.71,23 / 23,1133709,2020-01-08 16:40:08:685,-0.9625,0.8359,11.0904,0.0096,0.0019,9.8066,-0.0555,-0.2275,0.0649,-11.5,-36.19,-10.19,247.25,-87.71,-155.36
8198,52.363155,-1.804109,208.73,22.31,4,32.71,23 / 23,1133808,2020-01-08 16:40:08:784,-0.471,2.6735,11.6447,-0.0026,-0.0141,9.8066,0.3215,-0.0675,0.0617,-11.5,-36.12,-9.44,248.69,-87.73,-156.66
8199,52.363155,-1.804109,208.73,22.31,4,32.71,23 / 23,1133908,2020-01-08 16:40:08:884,2.3196,-2.2015,8.5055,0.004,-0.0461,9.8065,0.1484,-0.0937,-0.1567,-11.56,-36.19,-9.87,246.44,-87.51,-158.51
8200,52.363155,-1.804109,208.73,22.31,4,32.71,23 / 23,1134008,2020-01-08 16:40:08:984,0.0652,0.8279,11.6647,0.0228,-0.1342,9.8056,0.2608,0.14,-0.0841,-10.75,-36.5,-9.56,261.96,-87.87,-140.66
8201,52.363155,-1.804109,208.73,22.31,4,32.71,23 / 23,1134107,2020-01-08 16:40:09:083,1.7165,-0.8286,10.753,0.0449,-0.0149,9.8065,0.074,0.1654,0.0508,-10.81,-36.0,-9.69,256.98,-88.27,-146.65
8202,52.363155,-1.804109,208.73,22.31,4,32.71,23 / 23,1134209,2020-01-08 16:40:09:185,1.7419,0.4242,11.6849,0.0244,0.0266,9.8065,-0.0706,0.3611,-0.1091,-10.81,-36.62,-10.12,254.95,-87.88,-147.69
8203,52.363155,-1.804109,208.73,22.31,4,32.71,23 / 23,1134308,2020-01-08 16:40:09:284,2.2,-3.962,12.1092,-0.0795,-0.1011,9.8058,-0.11,0.3213,-0.3976,-10.81,-36.25,-9.44,264.69,-88.16,-141.38
8204,52.363155,-1.804109,208.73,22.31,4,32.71,23 / 23,1134408,2020-01-08 16:40:09:384,-5.7587,7.6519,12.7407,0.0286,-0.1449,9.8055,0.3757,0.7756,-0.785,-9.94,-36.44,-10.0,253.88,-87.83,-145.81
8205,52.363155,-1.804109,208.73,22.31,4,32.71,23 / 23,1134508,2020-01-08 16:40:09:484,1.5154,-4.8966,6.8847,-0.0125,-0.1328,9.8057,0.2686,0.513,-0.5426,-10.81,-35.87,-9.75,242.95,-87.88,-160.22
8206,52.363155,-1.804109,208.73,22.31,4,32.71,23 / 23,1134608,2020-01-08 16:40:09:584,0.1413,4.4667,11.2016,0.0273,-0.1629,9.8052,0.3536,0.6265,-0.3192,-11.25,-36.44,-9.75,269.35,-88.31,-134.27
8207,52.363155,-1.804109,208.73,22.31,4,32.71,23 / 23,1134707,2020-01-08 16:40:09:683,3.5794,-5.4823,8.3421,0.0075,-0.0273,9.8066,0.3343,0.6249,-0.5125,-11.56,-36.31,-10.0,260.74,-88.01,-144.93
8208,52.363155,-1.804109,208.73,22.31,4,32.71,23 / 23,1134808,2020-01-08 16:40:09:784,0.7547,2.3693,11.627,0.0309,-0.1333,9.8056,0.3706,0.5455,-0.496,-11.56,-36.06,-9.19,275.29,-87.87,-132.74
8209,52.363155,-1.804109,208.73,22.31,4,32.71,23 / 23,1134907,2020-01-08 16:40:09:883,-0.4018,2.9594,10.4282,-0.0107,-0.0372,9.8065,0.2037,0.4068,-0.3661,-11.56,-36.44,-9.37,268.46,-87.88,-139.58
8210,52.363155,-1.804109,208.73,22.31,4,32.71,23 / 23,1135008,2020-01-08 16:40:09:984,-1.0299,3.4892,10.6722,0.0163,-0.0721,9.8063,0.0668,0.2956,-0.1922,-11.25,-35.56,-9.69,265.03,-88.0,-137.87
8211,52.363155,-1.804109,208.73,22.31,4,32.71,23 / 23,1135108,2020-01-08 16:40:10:084,2.9404,-0.8009,9.8089,-0.0233,0.0283,9.8065,0.0099,0.2318,-0.126,-11.19,-35.94,-9.12,264.06,-87.99,-141.57
8212,52.363155,-1.804109,208.73,22.31,4,32.71,23 / 23,1135208,2020-01-08 16:40:10:184,1.3798,0.1144,10.3981,0.0368,-0.0357,9.8065,0.0723,0.065,-0.1867,-11.44,-36.12,-9.37,263.29,-87.92,-142.19
8213,52.363155,-1.804109,208.73,22.31,4,32.71,23 / 23,1135308,2020-01-08 16:40:10:284,1.508,-1.141,9.8119,-0.0167,-0.016,9.8066,0.1154,-0.0305,-0.0635,-10.87,-36.0,-9.44,255.37,-87.91,-150.23
8214,52.363155,-1.804109,208.73,22.31,4,32.71,23 / 23,1135407,2020-01-08 16:40:10:383,-0.3471,0.3632,10.2697,0.0008,-0.0269,9.8066,0.1206,0.0503,0.0487,-11.37,-36.06,-10.37,256.67,-88.06,-146.48
8215,52.363155,-1.804109,208.73,22.31,4,32.71,23 / 23,1135508,2020-01-08 16:40:10:484,-0.4888,0.0783,9.2917,-0.0198,-0.0154,9.8066,0.123,-0.2087,-0.0838,-12.31,-35.87,-10.25,259.07,-88.04,-146.7
8216,52.363155,-1.804109,208.73,22.31,4,32.71,23 / 23,1135607,2020-01-08 16:40:10:583,1.1465,0.7345,9.9863,-0.0258,-0.009,9.8066,0.1027,-0.1622,0.0731,-12.0,-35.69,-10.25,255.7,-88.11,-150.28
8217,52.363155,-1.804109,208.73,22.31,4,32.71,23 / 23,1135708,2020-01-08 16:40:10:684,-0.2668,0.8941,9.7148,-0.0314,0.007,9.8066,0.0679,-0.0937,0.1258,-11.94,-36.44,-10.19,255.49,-87.87,-149.96
8218,52.363155,-1.804109,208.73,22.31,4,32.71,23 / 23,1135807,2020-01-08 16:40:10:783,1.6183,0.9621,10.1302,0.0077,0.0107,9.8066,0.0207,-0.1121,0.0599,-11.69,-36.06,-9.87,253.88,-87.88,-151.64
8219,52.363155,-1.804109,208.73,22.31,4,32.71,23 / 23,1135908,2020-01-08 16:40:10:884,-0.1278,0.1012,9.743,-0.0012,-0.0037,9.8066,-0.0144,-0.1213,0.0573,-11.37,-36.37,-9.31,253.51,-87.88,-152.05
8220,52.363155,-1.804109,208.73,22.31,4,32.71,23 / 23,1136008,2020-01-08 16:40:10:984,1.0364,-1.1954,8.2911,0.0121,0.0262,9.8065,-0.067,0.0979,0.1146,-11.75,-35.87,-9.75,252.05,-87.69,-153.09
8221,52.363155,-1.804109,208.73,22.31,4,32.71,23 / 23,1136108,2020-01-08 16:40:11:084,1.2016,-2.3082,11.1297,0.0429,-0.0468,9.8064,0.0383,0.1637,-0.3802,-11.94,-36.0,-9.56,249.64,-87.8,-155.81
8222,52.363155,-1.804109,208.73,22.31,4,32.71,23 / 23,1136208,2020-01-08 16:40:11:184,2.6075,-1.9341,9.2674,0.0133,0.0847,9.8062,0.0599,-0.0298,-0.239,-12.31,-35.5,-9.81,244.22,-87.52,-160.98
8223,52.363155,-1.804109,208.73,22.31,4,32.71,23 / 23,1136307,2020-01-08 16:40:11:283,-1.4305,1.5227,10.2031,-0.0084,0.0283,9.8066,-0.0926,0.1906,0.0695,-11.94,-35.5,-9.56,252.01,-87.62,-153.13
8224,52.363155,-1.804109,208.73,22.31,4,32.71,23 / 23,1136409,2020-01-08 16:40:11:385,-1.4908,-0.5464,9.2075,-0.0146,0.0081,9.8066,-0.1155,0.163,-0.0272,-12.31,-36.12,-8.37,257.38,-87.73,-153.4
8225,52.363155,-1.804109,208.73,22.31,4,32.71,23 / 23,1136508,2020-01-08 16:40:11:484,1.2218,3.1077,10.8061,0.051,0.011,9.8065,0.0799,-0.1565,-0.17,-11.87,-35.94,-9.37,251.78,-87.33,-155.28
8226,52.363155,-1.804109,208.73,22.31,4,32.71,23 / 23,1136608,2020-01-08 16:40:11:584,1.9583,-1.6162,8.3394,-0.0207,0.0771,9.8063,-0.0853,-0.1256,0.0375,-12.37,-35.75,-10.0,247.88,-87.49,-156.97
8227,52.363155,-1.804109,208.73,22.31,4,32.71,23 / 23,1136708,2020-01-08 16:40:11:684,1.0732,2.5806,10.0971,-0.0141,0.0425,9.8065,0.0667,-0.0274,0.1308,-11.81,-35.94,-8.81,256.97,-87.37,-150.01
8228,52.363155,-1.804109,208.73,22.31,4,32.71,23 / 23,1136808,2020-01-08 16:40:11:784,-0.3805,0.1045,8.6908,0.04,0.038,9.8065,0.2092,-0.1277,-0.0356,-12.25,-35.87,-9.44,250.28,-87.23,-156.6
8229,52.363155,-1.804109,208.73,22.31,4,32.71,23 / 23,1136908,2020-01-08 16:40:11:884,-1.2985,1.2619,10.7435,-0.0273,-0.0019,9.8066,0.271,-0.0596,-0.0493,-11.62,-36.25,-8.56,249.2,-87.16,-157.55
8230,52.363155,-1.804109,208.73,22.31,4,32.71,23 / 23,1137008,2020-01-08 16:40:11:984,1.6486,-0.4559,11.1668,-0.0293,0.0161,9.8065,0.2307,-0.0339,-0.0652,-11.94,-35.75,-9.12,247.5,-87.24,-159.52
8231,52.363155,-1.804109,208.73,22.31,4,32.71,23 / 23,1137108,2020-01-08 16:40:12:084,0.5157,1.2562,10.7105,-0.0422,-0.0288,9.8064,0.1282,0.0585,0.0015,-11.44,-35.87,-9.94,250.41,-87.74,-152.16
8232,52.363155,-1.804109,208.73,22.31,4,32.71,23 / 23,1137208,2020-01-08 16:40:12:184,1.1941,-0.3516,10.2744,-0.0028,0.0019,9.8066,0.1343,0.0739,-0.0096,-11.69,-35.87,-9.75,252.03,-87.59,-152.89
8233,52.363155,-1.804109,208.73,22.31,4,32.71,23 / 23,1137308,2020-01-08 16:40:12:284,0.3184,0.9747,9.3811,-0.0031,-0.0069,9.8066,-0.0203,0.0759,-0.1867,-11.81,-36.44,-9.5,251.12,-87.52,-156.39
8234,52.363155,-1.804109,208.73,22.31,4,32.71,23 / 23,1137408,2020-01-08 16:40:12:384,0.5734,-1.8755,10.2561,-0.0467,0.0104,9.8065,-0.0659,0.1583,-0.1593,-11.31,-36.06,-9.19,246.0,-87.45,-158.83
8235,52.363155,-1.804109,208.73,22.31,4,32.71,23 / 23,1137507,2020-01-08 16:40:12:483,0.4009,1.9546,10.7693,0.0031,0.0239,9.8065,0.0443,0.2205,-0.062,-11.75,-36.12,-9.12,253.86,-87.5,-153.51
8236,52.363155,-1.804109,208.73,22.31,4,32.71,23 / 23,1137608,2020-01-08 16:40:12:584,0.0744,-1.3372,7.9573,0.003,0.0402,9.8066,0.0727,0.0864,-0.1339,-11.81,-36.06,-9.12,249.73,-87.48,-157.74
8237,52.363155,-1.804109,208.73,22.31,4,32.71,23 / 23,1137708,2020-01-08 16:40:12:684,-0.8371,1.0582,9.2653,0.0016,0.0403,9.8065,0.0526,0.1394,-0.1326,-11.69,-35.87,-9.12,249.76,-87.5,-157.76
8238,52.363155,-1.804109,208.73,22.31,4,32.71,23 / 23,1137807,2020-01-08 16:40:12:783,0.8498,-0.8712,8.8407,-0.002,0.0305,9.8065,0.053,0.1604,-0.094,-11.44,-35.75,-9.19,248.54,-87.5,-156.28
8239,52.363155,-1.804109,208.73,22.31,4,32.71,23 / 23,1137907,2020-01-08 16:40:12:883,0.3165,1.9339,10.9938,0.0339,0.0237,9.8065,0.0454,0.1163,-0.1269,-11.56,-35.81,-8.75,257.71,-87.73,-150.09
8240,52.36461,-1.802373,207.96,22.73,4,39.52,23 / 23,1138008,2020-01-08 16:40:12:984,0.9548,0.9396,9.6197,0.0078,0.0531,9.8064,0.1021,0.0181,-0.1302,-12.0,-36.12,-8.94,254.07,-87.51,-153.32
8241,52.36461,-1.802373,207.96,22.73,4,39.52,23 / 23,1138108,2020-01-08 16:40:13:084,-0.1396,1.2641,10.9034,-0.0033,0.0358,9.8066,0.1157,0.1422,-0.066,-11.62,-35.87,-9.37,261.39,-87.51,-145.82
8242,52.36461,-1.802373,207.96,22.73,4,39.52,23 / 23,1138208,2020-01-08 16:40:13:184,0.0383,-0.1144,7.9546,0.0117,0.0319,9.8066,0.1053,0.1182,-0.1245,-12.06,-35.69,-9.44,257.57,-87.57,-149.87
8243,52.36461,-1.802373,207.96,22.73,4,39.52,23 / 23,1138307,2020-01-08 16:40:13:283,0.3345,0.0508,10.9187,0.0199,0.0452,9.8065,0.0961,-0.0052,-0.1871,-12.31,-36.62,-8.94,253.73,-87.38,-153.19
8244,52.36461,-1.802373,207.96,22.73,4,39.52,23 / 23,1138408,2020-01-08 16:40:13:384,-0.6972,-0.7004,8.936,0.0349,0.036,9.8065,0.0508,0.0367,0.0633,-12.06,-35.87,-8.5,257.33,-87.14,-152.0
8245,52.36461,-1.802373,207.96,22.73,4,39.52,23 / 23,1138508,2020-01-08 16:40:13:484,0.2391,0.5525,10.0645,-0.0047,-0.0169,9.8066,0.0731,0.1281,0.0357,-11.87,-36.06,-9.0,254.82,-87.23,-151.9
8246,52.36461,-1.802373,207.96,22.73,4,39.52,23 / 23,1138608,2020-01-08 16:40:13:584,0.1825,-1.2081,9.2983,-0.0174,0.0372,9.8065,0.1191,0.0043,-0.1997,-12.06,-36.0,-9.12,256.01,-87.53,-151.36
8247,52.36461,-1.802373,207.96,22.73,4,39.52,23 / 23,1138707,2020-01-08 16:40:13:683,0.9131,1.3245,10.0615,-0.013,0.0139,9.8065,0.0618,-0.0548,-0.0771,-12.19,-35.87,-8.94,259.94,-87.53,-147.35
8248,52.36461,-1.802373,207.96,22.73,4,39.52,23 / 23,1138808,2020-01-08 16:40:13:784,0.524,0.5038,10.0928,0.0318,0.0129,9.8065,0.0051,0.231,0.072,-11.69,-36.06,-9.0,256.59,-87.39,-150.45
8249,52.36461,-1.802373,207.96,22.73,4,39.52,23 / 23,1138908,2020-01-08 16:40:13:884,-3.7744,-0.5087,8.5811,-0.0123,-0.0069,9.8066,0.106,0.2454,-0.1701,-11.81,-36.0,-8.75,258.92,-87.62,-148.61
8250,52.36461,-1.802373,207.96,22.73,4,39.52,23 / 23,1139008,2020-01-08 16:40:13:984,1.3529,0.504,10.4665,-0.0247,0.0547,9.8064,0.184,-0.0712,-0.2056,-12.25,-35.44,-8.87,261.26,-87.72,-146.6
8251,52.36461,-1.802373,207.96,22.73,4,39.52,23 / 23,1139108,2020-01-08 16:40:14:084,1.6684,2.7584,11.8038,0.0096,0.0227,9.8066,0.1532,0.1517,0.0127,-11.31,-35.56,-9.31,255.66,-87.51,-148.94
8252,52.36461,-1.802373,207.96,22.73,4,39.52,23 / 23,1139208,2020-01-08 16:40:14:184,1.6395,-1.8601,8.3794,0.0047,0.0529,9.8065,0.1542,0.1333,-0.2426,-12.19,-36.31,-8.69,254.71,-87.58,-152.82
8253,52.36461,-1.802373,207.96,22.73,4,39.52,23 / 23,1139308,2020-01-08 16:40:14:284,0.5881,1.0037,9.9036,-0.017,0.0402,9.8065,0.0984,0.1318,-0.2246,-12.0,-35.31,-8.87,259.73,-87.54,-147.75
8254,52.36461,-1.802373,207.96,22.73,4,39.52,23 / 23,1139408,2020-01-08 16:40:14:384,1.2473,-0.0341,8.9691,0.0056,0.0166,9.8066,-0.2014,0.1028,0.0499,-12.06,-35.87,-8.87,263.15,-87.46,-143.93
8255,52.36461,-1.802373,207.96,22.73,4,39.52,23 / 23,1139508,2020-01-08 16:40:14:484,-0.1646,1.3508,9.4108,-0.0166,-0.0224,9.8066,-0.248,0.1641,0.1033,-12.25,-35.62,-9.31,258.54,-87.35,-148.36
8256,52.36461,-1.802373,207.96,22.73,4,39.52,23 / 23,1139608,2020-01-08 16:40:14:584,0.0808,-1.7556,8.4395,-0.0262,0.0516,9.8065,-0.2867,0.0297,-0.1032,-12.56,-35.75,-9.25,258.63,-87.46,-151.01
8257,52.36461,-1.802373,207.96,22.73,4,39.52,23 / 23,1139708,2020-01-08 16:40:14:684,-1.1795,2.117,9.5083,-0.0356,-0.0287,9.8065,-0.2309,-0.0599,0.0222,-11.75,-36.06,-8.69,258.53,-87.41,-148.5
8258,52.36461,-1.802373,207.96,22.73,4,39.52,23 / 23,1139808,2020-01-08 16:40:14:784,-0.1962,0.9871,9.8768,-0.0234,0.0118,9.8065,-0.0998,-0.1984,0.194,-12.31,-35.87,-8.37,262.36,-87.67,-148.18
8259,52.36461,-1.802373,207.96,22.73,4,39.52,23 / 23,1139908,2020-01-08 16:40:14:884,0.7677,2.0094,11.1115,-0.0076,-0.0248,9.8066,-0.1351,-0.1934,0.1098,-12.06,-36.44,-9.31,266.8,-87.72,-140.86
8260,52.36461,-1.802373,207.96,22.73,4,39.52,23 / 23,1140008,2020-01-08 16:40:14:984,1.3786,-0.1366,9.9611,0.0049,0.0099,9.8066,-0.143,-0.1359,0.0984,-12.12,-35.87,-8.94,263.76,-87.55,-143.52
8261,52.36461,-1.802373,207.96,22.73,4,39.52,23 / 23,1140108,2020-01-08 16:40:15:084,0.9981,-1.5954,8.8992,-0.0004,-0.0387,9.8065,-0.0288,-0.2568,0.1403,-12.44,-35.69,-8.94,265.06,-87.69,-142.54
8262,52.36461,-1.802373,207.96,22.73,4,39.52,23 / 23,1140208,2020-01-08 16:40:15:184,2.0986,-0.1518,10.0431,-0.029,-0.0108,9.8066,-0.0069,-0.2904,0.1344,-12.56,-36.31,-8.44,272.05,-87.77,-141.08
8263,52.36461,-1.802373,207.96,22.73,4,39.52,23 / 23,1140308,2020-01-08 16:40:15:284,1.5329,-1.9424,9.9124,0.006,-0.0464,9.8065,-0.0522,-0.1652,0.0514,-12.87,-36.19,-9.44,267.61,-87.7,-142.44
8264,52.36461,-1.802373,207.96,22.73,4,39.52,23 / 23,1140407,2020-01-08 16:40:15:383,1.6246,1.5168,11.813,0.0112,-0.0254,9.8066,-0.0115,0.0429,0.0497,-11.87,-35.87,-8.56,268.24,-87.68,-139.31
8265,52.36461,-1.802373,207.96,22.73,4,39.52,23 / 23,1140507,2020-01-08 16:40:15:483,-0.7739,-2.7021,9.191,-0.0236,-0.0419,9.8064,-0.0374,-0.1063,0.091,-11.56,-35.94,-8.94,269.63,-87.87,-138.38
8266,52.36461,-1.802373,207.96,22.73,4,39.52,23 / 23,1140607,2020-01-08 16:40:15:583,0.8196,0.1232,8.8412,0.0214,-0.0081,9.8066,-0.1518,-0.0711,0.0557,-12.25,-35.87,-8.81,267.92,-87.8,-139.93
8267,52.36461,-1.802373,207.96,22.73,4,39.52,23 / 23,1140709,2020-01-08 16:40:15:685,1.311,-1.7342,9.7777,0.0421,-0.019,9.8064,-0.0818,0.0376,0.0599,-12.44,-35.87,-8.69,264.03,-87.8,-143.85
8268,52.36461,-1.802373,207.96,22.73,4,39.52,23 / 23,1140808,2020-01-08 16:40:15:784,-0.2197,1.3118,10.4984,0.007,-0.0369,9.8065,0.1202,0.2235,-0.152,-13.0,-35.56,-8.81,270.54,-87.63,-139.36
8269,52.36461,-1.802373,207.96,22.73,4,39.52,23 / 23,1140908,2020-01-08 16:40:15:884,0.7548,1.8915,11.9277,0.0247,0.0304,9.8065,0.3338,0.1616,-0.2088,-12.12,-36.37,-8.5,272.86,-87.69,-137.68
8270,52.36461,-1.802373,207.96,22.73,4,39.52,23 / 23,1141009,2020-01-08 16:40:15:985,1.009,0.7199,10.9289,-0.0185,-0.0489,9.8064,0.1351,0.0701,-0.1051,-13.06,-35.75,-9.19,271.65,-87.68,-138.36
8271,52.36461,-1.802373,207.96,22.73,4,39.52,23 / 23,1141108,2020-01-08 16:40:16:084,0.2395,-0.5208,10.8828,0.0393,0.0181,9.8065,-0.117,0.096,0.0882,-13.19,-36.0,-9.06,265.65,-87.54,-144.05
8272,52.36461,-1.802373,207.96,22.73,4,39.52,23 / 23,1141208,2020-01-08 16:40:16:184,1.7811,-1.3318,8.9753,0.0326,0.0575,9.8064,-0.13,-0.0271,0.1233,-12.81,-35.62,-8.94,261.69,-87.48,-147.93
8273,52.36461,-1.802373,207.96,22.73,4,39.52,23 / 23,1141308,2020-01-08 16:40:16:284,-0.383,-0.7938,9.1794,-0.0212,0.0426,9.8064,-0.0577,-0.1441,0.1145,-12.5,-36.62,-8.37,266.28,-87.39,-143.32
8274,52.36461,-1.802373,207.96,22.73,4,39.52,23 / 23,1141407,2020-01-08 16:40:16:383,-0.284,-1.231,9.7266,-0.0039,0.0101,9.8066,-0.0235,-0.0425,0.0224,-12.62,-36.19,-8.56,266.32,-87.49,-143.27
8275,52.36461,-1.802373,207.96,22.73,4,39.52,23 / 23,1141509,2020-01-08 16:40:16:485,-1.1447,-0.9532,9.966,-0.0133,0.0044,9.8066,0.058,0.0091,-0.064,-13.37,-36.5,-9.25,266.84,-87.52,-142.82
8276,52.36461,-1.802373,207.96,22.73,4,39.52,23 / 23,1141608,2020-01-08 16:40:16:584,-0.9296,0.8681,10.662,0.0058,-0.0019,9.8066,-0.1117,-0.0834,0.0394,-13.25,-36.0,-8.19,269.41,-87.62,-143.36
8277,52.36461,-1.802373,207.96,22.73,4,39.52,23 / 23,1141707,2020-01-08 16:40:16:683,-0.1304,1.5594,9.4019,-0.0012,0.0683,9.8064,-0.0085,-0.1275,0.1637,-12.12,-36.12,-8.44,261.4,-87.64,-149.07
8278,52.36461,-1.802373,207.96,22.73,4,39.52,23 / 23,1141808,2020-01-08 16:40:16:784,0.5474,-1.5774,8.6083,0.0185,0.0142,9.8066,-0.1518,-0.1843,0.0203,-12.75,-35.81,-9.12,264.67,-87.42,-144.78
8279,52.36461,-1.802373,207.96,22.73,4,39.52,23 / 24,1141908,2020-01-08 16:40:16:884,-0.2744,1.7313,10.7151,0.0252,0.0436,9.8065,-0.1477,-0.1012,0.2324,-12.81,-36.12,-8.12,268.62,-87.52,-143.91
8280,52.36461,-1.802373,207.96,22.73,4,39.52,23 / 24,1142008,2020-01-08 16:40:16:984,-3.2956,-0.6121,9.9208,-0.0041,0.0214,9.8066,-0.1014,-0.1859,0.2439,-12.69,-35.37,-8.5,265.06,-87.31,-147.17
8281,52.36461,-1.802373,207.96,22.73,4,39.52,23 / 24,1142108,2020-01-08 16:40:17:084,0.1739,0.9951,11.7393,-0.0127,0.0574,9.8065,-0.2177,-0.277,0.0859,-12.81,-35.62,-8.31,271.76,-87.34,-140.36
8282,52.36461,-1.802373,207.96,22.73,4,39.52,23 / 24,1142207,2020-01-08 16:40:17:183,1.5493,0.3751,5.9119,0.0567,0.0593,9.8063,-0.5411,-0.2187,0.0695,-12.87,-35.81,-8.87,258.53,-87.13,-150.36
8283,52.36461,-1.802373,207.96,22.73,4,39.52,23 / 24,1142308,2020-01-08 16:40:17:284,-0.6424,2.1049,11.8225,0.0271,0.0366,9.8065,-0.3836,-0.2894,0.0272,-12.5,-35.94,-7.87,260.45,-87.25,-149.09
8284,52.36461,-1.802373,207.96,22.73,4,39.52,23 / 24,1142407,2020-01-08 16:40:17:383,0.8059,-6.191,6.8735,0.0507,0.1501,9.8053,-0.3372,-0.4411,0.1622,-13.44,-35.62,-8.5,257.06,-87.39,-155.33
8285,52.36461,-1.802373,207.96,22.73,4,39.52,23 / 24,1142508,2020-01-08 16:40:17:484,-3.1045,3.704,10.0171,-0.0464,0.0391,9.8064,0.0194,-0.472,0.4454,-12.5,-36.19,-8.81,265.39,-87.66,-142.12
8286,52.36461,-1.802373,207.96,22.73,4,39.52,23 / 24,1142608,2020-01-08 16:40:17:584,0.8909,-1.478,8.1488,-0.0259,0.0985,9.8061,0.0104,-0.1582,0.3951,-12.94,-35.94,-9.25,264.8,-87.69,-145.27
8287,52.36461,-1.802373,207.96,22.73,4,39.52,23 / 24,1142708,2020-01-08 16:40:17:684,-0.1965,4.3004,11.5051,0.0146,0.0154,9.8066,-0.2143,-0.1582,-0.1008,-12.81,-35.5,-9.31,274.7,-87.84,-135.82
8288,52.36461,-1.802373,207.96,22.73,4,39.52,23 / 24,1142807,2020-01-08 16:40:17:783,1.5188,-1.3515,10.3726,-0.0496,0.0515,9.8063,0.0059,-0.064,0.0169,-13.19,-36.0,-8.37,277.99,-88.16,-136.09
8289,52.36461,-1.802373,207.96,22.73,4,39.52,23 / 23,1142908,2020-01-08 16:40:17:884,-1.014,-1.6823,8.9012,-0.0547,0.0208,9.8064,0.0957,-0.0055,0.1066,-12.87,-35.0,-8.62,273.34,-88.14,-137.85
8290,52.36461,-1.802373,207.96,22.73,4,39.52,23 / 23,1143008,2020-01-08 16:40:17:984,-1.4916,0.3549,9.4202,-0.0063,0.0101,9.8066,0.0299,0.1356,-0.0856,-13.44,-35.94,-8.37,278.11,-88.12,-135.88
8291,52.36461,-1.802373,207.96,22.73,4,39.52,23 / 23,1143107,2020-01-08 16:40:18:083,-1.6305,0.6653,8.9734,0.0289,-0.0208,9.8065,-0.1246,0.1438,-0.1177,-12.56,-35.06,-8.94,276.98,-87.88,-133.67
8292,52.36461,-1.802373,207.96,22.73,4,39.52,23 / 23,1143208,2020-01-08 16:40:18:184,0.615,0.7476,10.4786,0.0084,0.0046,9.8066,-0.022,0.0697,-0.0004,-13.31,-35.5,-8.25,279.69,-88.05,-134.27
8293,52.36461,-1.802373,207.96,22.73,4,39.52,23 / 23,1143308,2020-01-08 16:40:18:284,0.54,-0.1472,9.0057,0.0061,0.0196,9.8066,-0.0051,0.1384,-0.0525,-12.94,-35.19,-8.31,278.19,-88.06,-135.78
8294,52.36461,-1.802373,207.96,22.73,4,39.52,23 / 23,1143408,2020-01-08 16:40:18:384,0.7041,-0.0314,11.1809,-0.0377,0.0007,9.8066,-0.1109,0.1048,-0.1377,-13.12,-35.25,-9.0,275.98,-87.94,-134.78
8295,52.36461,-1.802373,207.96,22.73,4,39.52,23 / 23,1143508,2020-01-08 16:40:18:484,0.6733,-1.5045,10.0357,0.0019,0.0041,9.8066,-0.1545,-0.0474,0.1068,-13.5,-34.87,-8.44,277.9,-88.04,-136.03
8296,52.36461,-1.802373,207.96,22.73,4,39.52,23 / 23,1143608,2020-01-08 16:40:18:584,-1.1652,0.2319,8.7511,-0.0359,-0.0219,9.8065,-0.0802,-0.0842,0.1861,-13.12,-35.31,-8.5,278.09,-88.14,-136.07
8297,52.36461,-1.802373,207.96,22.73,4,39.52,23 / 23,1143708,2020-01-08 16:40:18:684,0.2638,0.3322,10.5416,-0.0196,0.0083,9.8066,-0.0504,-0.0421,-0.0622,-12.94,-34.94,-8.5,278.32,-88.0,-135.52
8298,52.36461,-1.802373,207.96,22.73,4,39.52,23 / 23,1143808,2020-01-08 16:40:18:784,-0.0057,0.0667,10.3239,0.0033,-0.0067,9.8066,-0.1121,-0.0101,-0.0827,-13.37,-34.69,-8.37,278.61,-87.9,-135.01
8299,52.36461,-1.802373,207.96,22.73,4,39.52,23 / 23,1143908,2020-01-08 16:40:18:884,0.7392,-0.414,9.6275,-0.0052,0.0114,9.8066,0.0186,-0.1265,0.1511,-13.69,-35.06,-8.81,280.15,-88.02,-132.99
8300,52.36461,-1.802373,207.96,22.73,4,39.52,23 / 23,1144007,2020-01-08 16:40:18:983,0.2671,-0.1406,9.7791,0.0126,0.0025,9.8066,0.0694,-0.1623,0.1389,-12.81,-34.81,-7.94,279.83,-87.96,-133.94
8301,52.36461,-1.802373,207.96,22.73,4,39.52,23 / 23,1144108,2020-01-08 16:40:19:084,-1.1449,-1.0086,8.8148,0.0213,0.0086,9.8066,-0.1533,-0.053,-0.0258,-12.81,-35.19,-8.81,276.45,-87.85,-134.11
8302,52.36461,-1.802373,207.96,22.73,4,39.52,23 / 23,1144208,2020-01-08 16:40:19:184,-0.6932,-0.3421,10.8907,0.0087,-0.0116,9.8066,-0.1669,0.0041,0.0266,-13.12,-34.69,-8.56,277.65,-87.96,-133.17
8303,52.36461,-1.802373,207.96,22.73,4,39.52,23 / 23,1144308,2020-01-08 16:40:19:284,-0.0974,-0.2175,10.5263,-0.002,0.0244,9.8066,-0.0608,-0.1338,0.115,-13.69,-34.37,-9.0,276.79,-87.92,-136.24
8304,52.36461,-1.802373,207.96,22.73,4,39.52,23 / 23,1144408,2020-01-08 16:40:19:384,0.1684,1.2206,9.337,0.0055,-0.0124,9.8066,0.1502,0.0465,-0.1421,-14.0,-34.44,-8.25,280.19,-87.89,-135.66
8305,52.36461,-1.802373,207.96,22.73,4,39.52,23 / 23,1144507,2020-01-08 16:40:19:483,0.3037,4.6409,10.2031,-0.0023,-0.0686,9.8064,0.1204,0.1361,-0.2425,-14.12,-34.06,-8.62,280.88,-87.74,-131.85
8306,52.36461,-1.802373,207.96,22.73,4,39.52,23 / 23,1144608,2020-01-08 16:40:19:584,1.8959,-2.6512,8.4232,-0.0011,-0.0665,9.8063,0.2647,0.2352,-0.209,-14.44,-33.87,-8.12,290.23,-87.81,-125.67
8307,52.36461,-1.802373,207.96,22.73,4,39.52,23 / 23,1144708,2020-01-08 16:40:19:684,0.522,0.4264,13.4676,-0.0373,-0.0568,9.8063,0.2083,0.1536,-0.2093,-14.19,-33.75,-7.12,287.79,-87.95,-131.39
8308,52.36461,-1.802373,207.96,22.73,4,39.52,23 / 23,1144808,2020-01-08 16:40:19:784,1.8992,-0.7672,10.0801,0.1217,0.0599,9.8056,-0.0715,0.2407,0.0578,-14.31,-33.75,-7.0,293.47,-88.33,-126.62
8309,52.36461,-1.802373,207.96,22.73,4,39.52,23 / 23,1144908,2020-01-08 16:40:19:884,-0.7819,-4.5708,6.8862,0.0107,-0.0148,9.8066,-0.1937,0.41,0.2452,-14.62,-33.06,-7.62,280.19,-87.85,-137.62
8310,52.36461,-1.802373,207.96,22.73,4,39.52,23 / 23,1145008,2020-01-08 16:40:19:984,-1.7874,3.3267,12.3344,0.0227,0.1426,9.8055,-0.2772,0.0684,-0.1473,-14.25,-32.69,-7.19,276.5,-87.57,-141.84
8311,52.36461,-1.802373,207.96,22.73,4,39.52,23 / 23,1145108,2020-01-08 16:40:20:084,0.3631,2.4576,10.6232,0.0464,-0.0748,9.8062,-0.255,-0.023,-0.1948,-13.75,-33.69,-6.81,290.92,-87.42,-127.25
8312,52.36461,-1.802373,207.96,22.73,4,39.52,23 / 23,1145208,2020-01-08 16:40:20:184,0.5877,-0.4051,9.7639,0.0301,0.0208,9.8065,-0.1343,-0.2108,0.0088,-13.62,-33.25,-6.37,294.77,-87.8,-127.69
8313,52.36461,-1.802373,207.96,22.73,4,39.52,23 / 23,1145308,2020-01-08 16:40:20:284,1.6437,-4.0667,9.7814,-0.0227,0.0403,9.8065,-0.0603,-0.1912,0.396,-13.37,-32.81,-6.44,286.2,-87.98,-134.54
8314,52.36461,-1.802373,207.96,22.73,4,39.52,23 / 23,1145408,2020-01-08 16:40:20:384,1.9588,-1.279,10.1598,-0.0861,0.0673,9.806,0.2438,-0.4369,0.1569,-13.81,-32.12,-6.44,289.42,-87.52,-132.45
8315,52.36461,-1.802373,207.96,22.73,4,39.52,23 / 23,1145508,2020-01-08 16:40:20:484,0.2922,-0.1373,10.2265,-0.01,-0.0565,9.8065,0.1199,-0.3376,-0.0654,-13.31,-32.25,-6.69,280.19,-87.65,-136.48
8316,52.36461,-1.802373,207.96,22.73,4,39.52,23 / 23,1145608,2020-01-08 16:40:20:584,-1.396,-0.3434,7.7651,-0.048,-0.0338,9.8065,0.2597,-0.0777,0.077,-12.56,-32.5,-7.19,287.3,-87.89,-130.02
8317,52.36461,-1.802373,207.96,22.73,4,39.52,23 / 23,1145708,2020-01-08 16:40:20:684,-0.2231,0.3516,8.7197,-0.0107,-0.0074,9.8066,0.171,-0.1456,0.102,-12.56,-32.75,-7.62,279.91,-87.69,-133.54
8318,52.36461,-1.802373,207.96,22.73,4,39.52,23 / 23,1145808,2020-01-08 16:40:20:784,-0.4456,0.7764,8.6109,-0.028,-0.017,9.8065,0.0441,-0.0028,-0.0707,-12.87,-33.31,-7.25,282.43,-87.71,-134.25
8319,52.36461,-1.802373,207.96,22.73,4,39.52,23 / 23,1145908,2020-01-08 16:40:20:884,-0.5899,0.4092,9.8249,-0.0413,-0.0215,9.8064,-0.0194,0.0376,-0.0644,-12.69,-33.19,-7.56,283.86,-87.95,-130.23
8320,52.36461,-1.802373,207.96,22.73,4,39.52,23 / 23,1146008,2020-01-08 16:40:20:984,-0.3628,-1.4163,9.3017,0.0129,0.0108,9.8066,-0.0698,-0.0032,0.0691,-12.81,-32.37,-6.94,288.79,-87.9,-128.59
8321,52.36461,-1.802373,207.96,22.73,4,39.52,23 / 23,1146108,2020-01-08 16:40:21:084,1.2103,1.2401,9.6857,0.0051,-0.0323,9.8065,-0.056,-0.0342,0.0287,-12.12,-33.12,-7.5,289.13,-87.81,-125.67
8322,52.36461,-1.802373,207.96,22.73,4,39.52,23 / 23,1146207,2020-01-08 16:40:21:183,1.8752,0.5589,10.251,0.0321,0.007,9.8065,-0.112,0.0048,-0.0548,-12.19,-33.81,-7.5,285.3,-87.69,-128.95
8323,52.36461,-1.802373,207.96,22.73,4,39.52,23 / 23,1146308,2020-01-08 16:40:21:284,0.2241,1.3258,9.8763,-0.0159,-0.0038,9.8065,-0.0914,0.0298,0.0639,-13.0,-33.5,-7.19,287.74,-87.71,-129.06
8324,52.36461,-1.802373,207.96,22.73,4,39.52,23 / 23,1146407,2020-01-08 16:40:21:383,0.0143,-0.9754,9.5014,-0.014,-0.0081,9.8066,0.0937,-0.0539,0.0457,-12.44,-33.44,-7.69,277.47,-87.53,-133.21
8325,52.36461,-1.802373,207.96,22.73,4,39.52,23 / 23,1146508,2020-01-08 16:40:21:484,-0.2583,1.3732,9.9883,0.0003,-0.0107,9.8066,0.0148,-0.0021,-0.0815,-12.25,-32.81,-7.69,277.21,-87.66,-133.77
8326,52.36461,-1.802373,207.96,22.73,4,39.52,23 / 23,1146607,2020-01-08 16:40:21:583,-0.7096,0.3061,8.7411,-0.001,-0.0041,9.8066,-0.1223,0.0616,-0.0402,-13.0,-33.31,-8.31,276.33,-87.8,-137.33
8327,52.36461,-1.802373,207.96,22.73,4,39.52,23 / 23,1146708,2020-01-08 16:40:21:684,-1.2728,2.2262,9.5234,-0.0166,-0.0262,9.8066,-0.1006,0.0407,0.1045,-12.81,-33.06,-8.0,283.22,-87.98,-130.9
8328,52.36461,-1.802373,207.96,22.73,4,39.52,23 / 23,1146808,2020-01-08 16:40:21:784,1.2549,-0.0351,10.1437,0.0342,-0.0223,9.8066,-0.0417,0.0021,-0.015,-12.62,-33.37,-8.62,280.17,-87.81,-130.63
8329,52.36461,-1.802373,207.96,22.73,4,39.52,23 / 23,1146908,2020-01-08 16:40:21:884,-1.1459,1.1886,9.4322,0.0025,-0.0187,9.8066,-0.0353,0.0622,-0.1196,-13.31,-33.37,-8.87,281.08,-87.97,-130.05
8330,52.36595,-1.800298,206.81,22.34,4,46.26,23 / 23,1147008,2020-01-08 16:40:21:984,-0.3756,-0.972,9.473,0.0113,-0.0084,9.8066,0.0028,-0.0751,-0.0296,-14.12,-33.44,-8.75,283.65,-87.96,-129.67
8331,52.36595,-1.800298,206.81,22.34,4,46.26,23 / 23,1147107,2020-01-08 16:40:22:083,-0.2545,1.2383,12.016,0.0096,-0.0167,9.8066,0.0094,-0.1905,0.1683,-14.37,-32.69,-7.87,290.75,-87.74,-125.16
8332,52.36595,-1.800298,206.81,22.34,4,46.26,23 / 23,1147207,2020-01-08 16:40:22:183,2.7346,-1.6668,9.9432,0.0387,-0.0129,9.8065,-0.4287,0.1304,0.3674,-15.37,-33.31,-7.5,294.65,-87.54,-125.86
8333,52.36595,-1.800298,206.81,22.34,4,46.26,23 / 23,1147308,2020-01-08 16:40:22:284,2.8191,1.0845,12.6094,-0.0244,-0.0915,9.8062,-0.3754,0.0853,0.0804,-15.0,-33.5,-6.81,298.25,-87.77,-122.79
8334,52.36595,-1.800298,206.81,22.34,4,46.26,23 / 23,1147408,2020-01-08 16:40:22:384,0.3567,-0.4712,8.405,0.0043,0.0015,9.8066,-0.1922,-0.2054,-0.029,-15.81,-35.0,-8.0,296.0,-87.89,-123.7
8335,52.36595,-1.800298,206.81,22.34,4,46.26,23 / 23,1147508,2020-01-08 16:40:22:484,0.8957,0.1661,10.6816,-0.0128,-0.0488,9.8064,-0.2242,-0.0393,0.2346,-15.31,-34.5,-9.12,295.89,-87.62,-118.96
8336,52.36595,-1.800298,206.81,22.34,4,46.26,23 / 23,1147608,2020-01-08 16:40:22:584,-0.5176,-0.5405,8.6162,0.0183,-0.0361,9.8065,-0.2174,-0.0241,0.0516,-16.19,-33.37,-9.56,288.22,-87.78,-126.08
8337,52.36595,-1.800298,206.81,22.34,4,46.26,23 / 23,1147708,2020-01-08 16:40:22:684,1.8576,2.2781,10.7327,-0.0386,-0.0272,9.8065,-0.0617,-0.1491,0.0545,-16.12,-31.81,-9.44,295.57,-87.83,-121.64
8338,52.36595,-1.800298,206.81,22.34,4,46.26,23 / 23,1147808,2020-01-08 16:40:22:784,0.1239,1.4344,8.828,-0.0207,0.0115,9.8066,-0.0459,-0.106,0.105,-15.87,-31.75,-8.62,294.31,-87.89,-122.97
8339,52.36595,-1.800298,206.81,22.34,4,46.26,23 / 23,1147908,2020-01-08 16:40:22:884,0.1737,0.2326,10.0536,-0.0142,-0.0286,9.8066,-0.094,0.0188,0.0831,-15.75,-31.94,-8.12,299.72,-87.86,-120.37
8340,52.36595,-1.800298,206.81,22.34,4,46.26,23 / 23,1148007,2020-01-08 16:40:22:983,-0.6774,-0.7326,8.5745,-0.0016,-0.0189,9.8065,-0.1172,-0.0052,0.0283,-15.87,-32.44,-8.19,296.23,-87.88,-123.79
8341,52.36595,-1.800298,206.81,22.34,4,46.26,23 / 23,1148108,2020-01-08 16:40:23:084,0.5663,0.1765,10.8669,-0.0334,-0.0431,9.8065,-0.1522,-0.0276,0.079,-15.69,-32.44,-8.19,303.22,-87.82,-116.93
8342,52.36595,-1.800298,206.81,22.34,4,46.26,23 / 23,1148207,2020-01-08 16:40:23:183,-0.5107,-0.5482,8.314,-0.0231,-0.0167,9.8065,-0.2018,-0.0004,0.0685,-16.44,-32.25,-8.12,304.47,-87.8,-115.71
8343,52.36595,-1.800298,206.81,22.34,4,46.26,23 / 23,1148308,2020-01-08 16:40:23:284,0.3849,0.7723,10.5393,-0.0343,-0.0286,9.8065,0.0127,0.0001,0.0436,-15.62,-31.56,-7.69,311.26,-87.86,-109.28
8344,52.36595,-1.800298,206.81,22.34,4,46.26,23 / 23,1148408,2020-01-08 16:40:23:384,0.4378,0.9241,11.3388,0.0364,0.0329,9.8064,0.0987,-0.0526,-0.0837,-15.37,-31.62,-8.0,303.85,-87.92,-114.81
8345,52.36595,-1.800298,206.81,22.34,4,46.26,23 / 23,1148508,2020-01-08 16:40:23:484,-0.562,0.1882,10.1548,0.0062,0.0194,9.8066,0.1265,0.061,-0.1271,-14.87,-31.87,-7.31,309.04,-87.9,-112.77
8346,52.36595,-1.800298,206.81,22.34,4,46.26,23 / 23,1148607,2020-01-08 16:40:23:583,0.4242,1.7343,10.3632,0.0129,0.0248,9.8065,0.1155,0.1323,-0.03,-15.56,-32.0,-7.56,308.33,-87.89,-112.13
8347,52.36595,-1.800298,206.81,22.34,4,46.26,23 / 23,1148708,2020-01-08 16:40:23:684,-0.2351,-0.6959,8.8838,0.0013,0.0115,9.8066,0.0622,0.0826,-0.1096,-16.12,-32.12,-8.37,304.8,-87.94,-115.59
8348,52.36595,-1.800298,206.81,22.34,4,46.26,23 / 23,1148808,2020-01-08 16:40:23:784,0.6208,-0.1493,9.33,-0.0104,0.0304,9.8066,0.0037,0.0971,-0.1854,-16.31,-32.37,-8.19,307.12,-87.73,-113.05
8349,52.36595,-1.800298,206.81,22.34,4,46.26,23 / 23,1148908,2020-01-08 16:40:23:884,0.9907,0.1356,9.6724,-0.0092,-0.016,9.8066,0.0246,0.0431,-0.0426,-15.69,-31.75,-8.44,308.46,-87.67,-111.69
8350,52.36595,-1.800298,206.81,22.34,4,46.26,23 / 23,1149008,2020-01-08 16:40:23:984,0.6327,1.1272,10.344,0.0092,0.0099,9.8066,0.0437,0.1218,0.0125,-16.0,-32.37,-7.25,309.19,-87.67,-113.84
8351,52.36595,-1.800298,206.81,22.34,4,46.26,23 / 23,1149107,2020-01-08 16:40:24:083,0.0657,0.2405,9.3505,0.0046,0.0367,9.8065,0.1271,0.1419,-0.1791,-16.12,-32.5,-7.94,303.25,-87.71,-116.74
8352,52.36595,-1.800298,206.81,22.34,4,46.26,23 / 23,1149208,2020-01-08 16:40:24:184,-0.8269,0.5814,10.0284,-0.0073,0.0381,9.8065,-0.0499,0.0904,-0.166,-15.81,-32.69,-7.37,308.71,-87.57,-114.05
8353,52.36595,-1.800298,206.81,22.34,4,46.26,23 / 23,1149308,2020-01-08 16:40:24:284,-0.6349,-0.0719,10.8054,-0.01,-0.0138,9.8066,-0.1881,-0.0085,0.1133,-16.06,-33.0,-7.75,305.39,-87.69,-114.55
8354,52.36595,-1.800298,206.81,22.34,4,46.26,23 / 23,1149408,2020-01-08 16:40:24:384,0.5198,0.7309,10.0341,0.0007,-0.0211,9.8066,-0.0763,-0.032,0.1143,-15.81,-32.0,-7.69,304.5,-87.78,-115.64
8355,52.36595,-1.800298,206.81,22.34,4,46.26,23 / 23,1149509,2020-01-08 16:40:24:485,2.5631,1.3381,10.0023,-0.0117,0.0125,9.8065,-0.2503,-0.1777,0.0033,-15.81,-32.06,-7.44,309.24,-87.75,-113.92
8356,52.36595,-1.800298,206.81,22.34,4,46.26,23 / 23,1149608,2020-01-08 16:40:24:584,-1.0174,-0.7189,10.5569,0.0113,0.0168,9.8066,-0.3179,-0.2486,0.1387,-15.37,-33.06,-7.56,304.45,-87.73,-113.82
8357,52.36595,-1.800298,206.81,22.34,4,46.26,23 / 23,1149708,2020-01-08 16:40:24:684,-1.1625,-1.4204,11.2266,0.0235,0.0829,9.8062,-0.0553,-0.1615,0.3266,-15.87,-32.56,-7.62,310.96,-87.52,-109.0
8358,52.36595,-1.800298,206.81,22.34,4,46.26,23 / 23,1149808,2020-01-08 16:40:24:784,1.7573,-0.1611,9.525,0.0323,-0.0095,9.8065,0.0725,-0.1618,0.1331,-15.94,-32.44,-7.87,300.93,-87.47,-118.59
8359,52.36595,-1.800298,206.81,22.34,4,46.26,23 / 23,1149908,2020-01-08 16:40:24:884,2.0705,2.4614,10.747,0.0091,0.0053,9.8066,0.1367,-0.108,-0.1053,-16.62,-32.62,-7.62,306.61,-87.63,-114.82
8360,52.36595,-1.800298,206.81,22.34,4,46.26,23 / 23,1150008,2020-01-08 16:40:24:984,0.9341,-2.6395,8.1488,0.0265,0.0785,9.8063,0.1408,0.023,-0.0416,-15.94,-33.06,-7.5,302.59,-87.58,-119.91
8361,52.36595,-1.800298,206.81,22.34,4,46.26,23 / 23,1150107,2020-01-08 16:40:25:083,-0.7995,3.2997,9.9455,-0.0184,0.0289,9.8065,0.1867,-0.0027,-0.0767,-16.06,-32.44,-7.37,306.37,-87.47,-116.24
8362,52.36595,-1.800298,206.81,22.34,4,46.26,23 / 23,1150208,2020-01-08 16:40:25:184,0.6761,-3.1906,9.5419,-0.017,0.0804,9.8062,0.1321,0.2002,-0.2214,-16.06,-32.19,-7.5,301.5,-87.65,-121.17
8363,52.36595,-1.800298,206.81,22.34,4,46.26,23 / 23,1150308,2020-01-08 16:40:25:284,-0.4182,3.4853,10.8538,-0.0039,0.0323,9.8065,0.1266,0.2183,-0.1595,-16.25,-32.56,-7.69,302.08,-87.43,-117.31
8364,52.36595,-1.800298,206.81,22.34,4,46.26,23 / 23,1150408,2020-01-08 16:40:25:384,-0.7944,-2.6511,8.9941,-0.0139,0.0573,9.8064,-0.0132,0.1852,-0.147,-16.0,-32.62,-7.37,303.28,-87.58,-119.25
8365,52.36595,-1.800298,206.81,22.34,4,46.26,23 / 23,1150507,2020-01-08 16:40:25:483,-0.5941,3.3159,8.2276,0.0301,0.0247,9.8066,-0.1637,0.3863,-0.1986,-16.06,-32.62,-7.69,301.01,-87.49,-118.42
8366,52.36595,-1.800298,206.81,22.34,4,46.26,23 / 23,1150608,2020-01-08 16:40:25:584,-0.0367,-2.7107,9.375,-0.03,0.0265,9.8065,-0.1528,0.2837,-0.1843,-15.87,-32.75,-6.69,306.4,-87.54,-116.21
8367,52.36595,-1.800298,206.81,22.34,4,46.26,23 / 23,1150707,2020-01-08 16:40:25:683,-0.1126,0.2172,10.4486,0.0157,0.0193,9.8066,-0.0013,0.2361,-0.1131,-16.19,-32.81,-7.62,306.76,-87.44,-112.85
8368,52.36595,-1.800298,206.81,22.34,4,46.26,23 / 23,1150808,2020-01-08 16:40:25:784,1.458,-1.945,10.7389,-0.0004,0.0259,9.8066,-0.0133,0.2635,-0.0932,-15.87,-32.37,-7.06,307.03,-87.44,-115.56
8369,52.36595,-1.800298,206.81,22.34,4,46.26,23 / 23,1150907,2020-01-08 16:40:25:883,0.3148,1.1687,9.6103,0.0188,0.0026,9.8066,-0.1309,0.06,-0.1323,-15.87,-32.5,-7.62,306.98,-87.53,-112.89
8370,52.36595,-1.800298,206.81,22.34,4,46.26,23 / 23,1151008,2020-01-08 16:40:25:984,0.4367,1.1259,9.8543,0.0081,0.0175,9.8066,0.0491,0.0729,0.0273,-15.94,-32.25,-7.69,304.25,-87.39,-115.29
8371,52.36595,-1.800298,206.81,22.34,4,46.26,23 / 23,1151108,2020-01-08 16:40:26:084,1.3917,1.421,10.1501,0.0244,-0.006,9.8066,0.0998,-0.0088,0.0253,-15.75,-32.62,-7.06,303.25,-87.2,-118.65
8372,52.36595,-1.800298,206.81,22.34,4,46.26,23 / 23,1151208,2020-01-08 16:40:26:184,-0.3754,-0.5223,9.118,0.007,0.0164,9.8066,0.0452,0.0951,-0.1109,-16.0,-33.06,-7.5,300.56,-87.29,-121.37
8373,52.36595,-1.800298,206.81,22.34,4,46.26,23 / 23,1151307,2020-01-08 16:40:26:283,0.2776,1.0884,10.4085,-0.0006,0.01,9.8066,0.0795,0.0417,-0.1118,-15.37,-32.12,-7.06,299.73,-87.44,-120.93
8374,52.36595,-1.800298,206.81,22.34,4,46.26,23 / 23,1151408,2020-01-08 16:40:26:384,-0.7158,1.6965,10.8997,-0.0138,0.0118,9.8066,0.0425,-0.0213,-0.0292,-15.75,-32.19,-7.19,301.81,-87.63,-120.84
8375,52.36595,-1.800298,206.81,22.34,4,46.26,23 / 23,1151507,2020-01-08 16:40:26:483,0.2843,1.1997,9.8312,0.031,0.0294,9.8065,0.0556,0.0302,0.0231,-16.12,-32.69,-7.06,303.79,-87.66,-118.88
8376,52.36595,-1.800298,206.81,22.34,4,46.26,23 / 23,1151607,2020-01-08 16:40:26:583,0.2159,1.6835,7.979,0.0123,-0.0082,9.8066,0.0111,-0.0606,0.0404,-15.25,-32.56,-8.25,295.79,-87.56,-121.84
8377,52.36595,-1.800298,206.81,22.34,4,46.26,23 / 23,1151708,2020-01-08 16:40:26:684,-0.5369,1.1564,10.8237,0.0098,0.0097,9.8066,0.0697,-0.0627,0.0116,-15.37,-32.56,-7.31,300.93,-87.57,-119.87
8378,52.36595,-1.800298,206.81,22.34,4,46.26,23 / 23,1151808,2020-01-08 16:40:26:784,0.6652,1.3146,9.5383,0.0299,0.0049,9.8066,0.0447,0.093,0.0309,-16.06,-32.37,-7.12,302.28,-87.48,-120.15
8379,52.36595,-1.800298,206.81,22.34,4,46.26,23 / 23,1151909,2020-01-08 16:40:26:885,0.2566,1.2143,9.8427,0.0046,-0.0128,9.8066,0.0482,0.0581,0.0093,-15.5,-32.87,-7.25,301.66,-87.48,-119.02
8380,52.36595,-1.800298,206.81,22.34,4,46.26,23 / 23,1152008,2020-01-08 16:40:26:984,1.8172,-0.4269,10.0908,0.0057,0.0144,9.8066,-0.0503,0.1831,-0.1374,-15.75,-32.37,-7.81,301.33,-87.35,-118.02
8381,52.36595,-1.800298,206.81,22.34,4,46.26,23 / 23,1152108,2020-01-08 16:40:27:084,-0.3594,-0.3016,10.3058,-0.031,0.0063,9.8066,-0.1007,0.1596,-0.1036,-15.62,-32.5,-7.69,306.53,-87.33,-113.04
8382,52.36595,-1.800298,206.81,22.34,4,46.26,23 / 23,1152208,2020-01-08 16:40:27:184,1.599,0.5313,10.9839,0.0023,-0.005,9.8066,0.0253,0.0524,-0.0142,-15.19,-32.69,-7.56,304.05,-87.13,-113.23
8383,52.36595,-1.800298,206.81,22.34,4,46.26,23 / 23,1152308,2020-01-08 16:40:27:284,2.1564,1.3843,9.9425,0.0324,0.0173,9.8065,-0.018,-0.0672,0.0109,-15.5,-32.75,-7.5,305.88,-87.2,-114.55
8384,52.36595,-1.800298,206.81,22.34,4,46.26,23 / 23,1152408,2020-01-08 16:40:27:384,0.8881,-0.052,14.8283,-0.1166,-0.0818,9.8056,0.1525,-0.2658,0.0486,-15.69,-32.87,-7.75,294.6,-86.93,-123.65
8385,52.36595,-1.800298,206.81,22.34,4,46.26,23 / 23,1152507,2020-01-08 16:40:27:483,0.7616,-0.33,8.9675,0.0987,0.0685,9.8059,0.4145,-0.1239,-0.0181,-15.56,-32.75,-7.87,303.08,-87.09,-115.82
8386,52.36595,-1.800298,206.81,22.34,4,46.26,23 / 23,1152608,2020-01-08 16:40:27:584,-2.1756,-1.4463,7.0523,0.0063,-0.0051,9.8066,0.3403,-0.0753,-0.1523,-15.19,-33.12,-7.75,310.48,-87.1,-107.11
8387,52.36595,-1.800298,206.81,22.34,4,46.26,23 / 23,1152708,2020-01-08 16:40:27:684,2.3878,-0.975,11.3618,0.0522,0.0564,9.8063,0.1986,0.0585,-0.1399,-15.44,-33.94,-6.81,315.54,-87.01,-105.11
8388,52.36595,-1.800298,206.81,22.34,4,46.26,23 / 23,1152807,2020-01-08 16:40:27:783,-0.0414,1.5686,8.4457,0.0666,0.0065,9.8064,-0.0064,0.1047,-0.0639,-14.56,-33.25,-7.37,306.52,-86.88,-113.42
8389,52.36595,-1.800298,206.81,22.34,4,46.26,23 / 23,1152908,2020-01-08 16:40:27:884,1.361,0.1793,11.3766,-0.0055,0.0035,9.8066,-0.0712,0.0835,-0.0487,-14.94,-33.12,-7.56,304.5,-87.0,-112.58
8390,52.36595,-1.800298,206.81,22.34,4,46.26,23 / 23,1153008,2020-01-08 16:40:27:984,1.0606,-1.036,9.7165,0.0325,0.0077,9.8065,-0.112,0.2249,-0.0625,-15.94,-33.5,-7.31,309.04,-86.96,-112.83
8391,52.36595,-1.800298,206.81,22.34,4,46.26,23 / 23,1153108,2020-01-08 16:40:28:084,0.8184,0.0185,9.962,-0.0104,0.0227,9.8066,-0.0789,0.2332,-0.0515,-15.25,-33.5,-6.5,313.75,-86.92,-109.86
8392,52.36595,-1.800298,206.81,22.34,4,46.26,23 / 23,1153208,2020-01-08 16:40:28:184,2.2643,-0.5673,9.5665,-0.0078,0.026,9.8066,0.0513,0.1775,-0.1142,-14.81,-33.0,-7.19,311.96,-86.97,-108.48
8393,52.36595,-1.800298,206.81,22.34,4,46.26,23 / 23,1153308,2020-01-08 16:40:28:284,0.2365,2.6737,9.4831,-0.0159,0.0254,9.8065,-0.0759,0.0499,-0.0856,-15.19,-33.25,-6.81,310.97,-86.73,-109.03
8394,52.36595,-1.800298,206.81,22.34,4,46.26,23 / 23,1153407,2020-01-08 16:40:28:383,0.2433,-1.366,9.6186,-0.0108,0.043,9.8065,-0.1009,0.0628,0.1009,-14.75,-33.19,-7.5,309.0,-86.94,-111.19
