,GPS LATITUDE (degrees), GPS LONGITUDE (degrees), GPS ALTITUDE (m), GPS SPEED (Kmh), GPS ACCURACY (m), GPS ORIENTATION (Â°),GPS SATELLITES IN RANGE, TIME SINCE START (ms), DATE (YYYY-MO-DD HH-MI-SS_SSS), ACCELEROMETER X (m/s²) , ACCELEROMETER Y (m/s²), ACCELEROMETER Z (m/s²), GRAVITY X (m/s²), GRAVITY Y (m/s²), GRAVITY Z (m/s²), GYROSCOPE Yaw (rad/s), GYROSCOPE Pitch (rad/s), GYROSCOPE Roll (rad/s), MAGNETIC FIELD X (Î¼T), MAGNETIC FIELD Y (Î¼T), MAGNETIC FIELD Z (Î¼T), ORIENTATION (Yaw) (Â°), ORIENTATION (Pitch) (Â°), ORIENTATION (Roll ) (Â°)
19263,52.413837,-1.549963,148.91,8.9,2,334.48,20 / 21,1934729,2019-09-06 18:48:21:411,-1.1813,-0.9719,9.353,0.0058,0.0431,9.8065,0.0692,-0.036,-0.0263,3.63,-30.37,23.63,359.08,-83.26,169.76
19264,52.413837,-1.549963,148.91,8.9,2,334.48,20 / 21,1934829,2019-09-06 18:48:21:511,-1.0278,0.0919,9.1614,0.0106,0.0313,9.8065,-0.034,-0.0056,-0.0072,3.44,-30.12,23.19,355.62,-83.49,168.85
19265,52.413837,-1.549963,148.91,8.9,2,334.48,20 / 21,1934929,2019-09-06 18:48:21:611,-1.5031,0.2465,9.3983,0.0003,0.0279,9.8065,0.0195,-0.0965,0.0256,3.19,-29.62,24.06,353.93,-83.73,167.67
19266,52.413837,-1.549963,148.91,8.9,2,334.48,20 / 21,1935029,2019-09-06 18:48:21:711,-0.2471,-0.6555,9.9386,0.0186,0.0374,9.8065,-0.031,-0.0075,-0.1043,2.94,-30.87,23.38,352.16,-83.89,165.89
19267,52.413837,-1.549963,148.91,8.9,2,334.48,20 / 21,1935130,2019-09-06 18:48:21:812,-1.461,-0.8184,10.252,0.003,-0.015,9.8066,0.0552,-0.0765,0.0024,4.06,-29.62,23.38,352.9,-83.8,164.05
19268,52.413837,-1.549963,148.91,8.9,2,334.48,20 / 21,1935228,2019-09-06 18:48:21:910,-0.4028,-0.1447,10.1006,-0.0083,0.001,9.8066,-0.0034,-0.0029,0.0704,3.69,-30.25,23.13,352.63,-83.86,163.81
19269,52.413837,-1.549963,148.91,8.9,2,334.48,20 / 21,1935329,2019-09-06 18:48:22:011,-0.7919,-0.6221,9.4658,0.0005,-0.0136,9.8066,-0.031,0.0506,-0.0128,4.06,-30.06,23.38,352.02,-83.93,163.28
19270,52.413837,-1.549963,148.91,8.9,2,334.48,20 / 21,1935428,2019-09-06 18:48:22:110,-0.5311,-0.4519,9.4557,-0.0043,-0.009,9.8066,-0.0932,-0.0055,-0.016,3.94,-29.94,23.0,352.75,-83.93,163.91
19271,52.413837,-1.549963,148.91,8.9,2,334.48,20 / 21,1935528,2019-09-06 18:48:22:210,-0.9641,-0.2909,9.7869,-0.0102,0.0198,9.8066,-0.0935,0.0,0.0246,4.06,-29.94,22.63,353.04,-84.3,164.09
19272,52.413837,-1.549963,148.91,8.9,2,334.48,20 / 21,1935629,2019-09-06 18:48:22:311,-0.8382,-0.6837,10.0252,-0.0045,0.0343,9.8065,0.0564,-0.023,0.0669,3.81,-30.31,22.56,353.76,-84.5,164.69
19273,52.413837,-1.549963,148.91,8.9,2,334.48,20 / 21,1935729,2019-09-06 18:48:22:411,0.2023,-0.7858,9.5605,0.0055,-0.0191,9.8066,0.0046,0.0619,-0.0917,4.0,-29.87,22.5,353.56,-84.54,164.51
19274,52.413837,-1.549963,148.91,8.9,2,334.48,20 / 21,1935829,2019-09-06 18:48:22:511,-1.1626,-0.6423,9.1965,-0.0135,-0.0227,9.8065,-0.1245,-0.0371,0.0942,4.06,-30.62,22.38,355.34,-84.52,165.67
19275,52.413837,-1.549963,148.91,8.9,2,334.48,20 / 21,1935928,2019-09-06 18:48:22:610,-0.7117,0.5286,9.9967,0.0066,0.0298,9.8066,-0.2066,-0.0239,-0.0315,3.88,-30.06,21.81,354.32,-84.64,164.75
19276,52.413837,-1.549963,148.91,8.9,2,334.48,20 / 21,1936028,2019-09-06 18:48:22:710,-0.1416,-0.2694,9.837,0.0016,0.0268,9.8066,0.0923,-0.0361,0.0899,4.0,-30.19,22.0,353.38,-84.85,163.9
19277,52.413837,-1.549963,148.91,8.9,2,334.48,20 / 21,1936128,2019-09-06 18:48:22:810,-2.2585,-1.3871,9.2635,0.0087,-0.0039,9.8066,0.0522,-0.0222,0.0142,4.19,-30.06,22.19,353.79,-84.87,164.25
19278,52.413837,-1.549963,148.91,8.9,2,334.48,20 / 21,1936228,2019-09-06 18:48:22:910,-1.3662,0.0573,9.4269,-0.0059,-0.0286,9.8065,-0.0553,0.0006,0.0424,3.81,-30.19,22.13,353.97,-84.72,164.43
19279,52.413837,-1.549963,148.91,8.9,2,334.48,20 / 21,1936328,2019-09-06 18:48:23:010,0.0408,-0.2081,8.8614,0.0092,0.0167,9.8066,-0.0785,0.0924,-0.0396,4.13,-30.44,21.5,354.2,-84.7,164.63
19280,52.413837,-1.549963,148.91,8.9,2,334.48,20 / 21,1936429,2019-09-06 18:48:23:111,-0.5347,0.8405,10.4114,0.0002,0.0282,9.8066,0.0739,-0.0266,0.0209,4.19,-30.19,22.06,355.05,-84.72,165.38
19281,52.413837,-1.549963,148.91,8.9,2,334.48,20 / 21,1936528,2019-09-06 18:48:23:210,-1.9456,-1.9927,9.4134,-0.0087,-0.0127,9.8066,-0.1767,0.069,-0.0081,4.25,-29.81,21.13,355.63,-84.81,165.42
19282,52.413837,-1.549963,148.91,8.9,2,334.48,20 / 21,1936629,2019-09-06 18:48:23:311,-1.2728,-0.5282,10.0991,-0.0027,0.0002,9.8066,-0.1606,0.0476,0.005,3.69,-30.69,21.5,355.43,-84.94,165.7
19283,52.413837,-1.549963,148.91,8.9,2,334.48,20 / 21,1936729,2019-09-06 18:48:23:411,-1.4989,-0.4142,9.5169,0.0138,0.0295,9.8065,-0.1898,0.0486,0.0163,3.81,-30.62,21.38,355.0,-85.26,164.83
19284,52.413837,-1.549963,148.91,8.9,2,334.48,20 / 21,1936829,2019-09-06 18:48:23:511,-0.5079,0.9865,10.0328,-0.0028,0.0025,9.8066,0.0597,-0.0373,-0.0063,4.0,-31.12,21.19,355.79,-85.3,165.52
19285,52.413837,-1.549963,148.91,8.9,2,334.48,20 / 21,1936929,2019-09-06 18:48:23:611,-0.6042,0.7542,10.229,-0.0065,0.0046,9.8066,0.0579,-0.0032,-0.0258,3.63,-30.31,21.44,354.58,-85.36,164.42
19286,52.413837,-1.549963,148.91,8.9,2,334.48,20 / 21,1937029,2019-09-06 18:48:23:711,-0.5994,-1.1023,9.5394,0.0001,0.0076,9.8066,-0.1316,0.0231,0.0423,4.31,-30.5,21.38,355.27,-85.27,165.05
19287,52.413837,-1.549963,148.91,8.9,2,334.48,20 / 21,1937129,2019-09-06 18:48:23:811,-0.5062,0.0586,9.8351,-0.0087,0.0085,9.8066,-0.0307,0.0606,0.0447,3.63,-30.44,21.31,356.2,-85.32,165.86
19288,52.413837,-1.549963,148.91,8.9,2,334.48,20 / 21,1937229,2019-09-06 18:48:23:911,-0.0716,2.1683,9.4265,-0.0088,0.009,9.8066,-0.0413,0.0161,-0.0168,3.88,-30.75,20.88,358.32,-85.54,167.73
19289,52.413837,-1.549963,148.91,8.9,2,334.48,20 / 21,1937328,2019-09-06 18:48:24:010,-1.1802,0.4257,9.6718,-0.0087,0.0043,9.8066,0.0059,-0.0619,0.0374,3.44,-31.31,20.75,358.79,-85.7,170.79
19290,52.413845,-1.550868,149.09,10.76,3,251.36,20 / 21,1937428,2019-09-06 18:48:24:110,-0.7926,0.0452,10.1603,-0.0171,-0.0116,9.8066,0.0227,0.0473,-0.0088,2.94,-30.81,20.69,0.96,-85.63,172.72
19291,52.413845,-1.550868,149.09,10.76,3,251.36,20 / 21,1937528,2019-09-06 18:48:24:210,-0.9417,-0.3334,10.1181,0.0093,-0.0204,9.8066,0.0486,-0.0045,-0.0147,3.44,-30.94,20.5,1.69,-85.34,173.35
19292,52.413845,-1.550868,149.09,10.76,3,251.36,20 / 21,1937628,2019-09-06 18:48:24:310,-0.0714,-0.0105,9.9652,-0.0028,-0.0357,9.8066,-0.0064,0.062,0.0033,3.38,-31.0,20.88,1.18,-85.11,172.9
19293,52.413845,-1.550868,149.09,10.76,3,251.36,20 / 21,1937729,2019-09-06 18:48:24:411,-1.6689,0.4606,10.4375,0.003,0.0113,9.8066,-0.0199,0.0489,-0.0903,3.44,-30.62,20.88,359.57,-85.01,171.5
19294,52.413845,-1.550868,149.09,10.76,3,251.36,20 / 21,1937829,2019-09-06 18:48:24:511,-0.4047,0.4273,9.6793,0.0221,0.012,9.8066,0.024,-0.0454,0.0203,3.19,-30.75,20.94,356.78,-85.03,169.07
19295,52.413845,-1.550868,149.09,10.76,3,251.36,20 / 21,1937928,2019-09-06 18:48:24:610,-1.227,0.3411,9.9536,0.0116,0.0018,9.8066,0.0545,-0.0414,0.0238,3.94,-30.44,21.38,358.68,-84.94,168.06
19296,52.413845,-1.550868,149.09,10.76,3,251.36,20 / 21,1938029,2019-09-06 18:48:24:711,0.6168,1.0328,10.5255,0.0109,0.0025,9.8065,0.0728,0.0486,0.0375,3.88,-31.0,20.25,358.06,-84.82,167.02
19297,52.413845,-1.550868,149.09,10.76,3,251.36,20 / 21,1938128,2019-09-06 18:48:24:810,-1.7533,-0.0178,10.5291,-0.0127,-0.0182,9.8066,0.1918,-0.05,0.0718,3.56,-30.81,22.0,358.94,-84.56,168.78
19298,52.413845,-1.550868,149.09,10.76,3,251.36,20 / 21,1938229,2019-09-06 18:48:24:911,-1.0771,-2.0525,9.5491,0.0163,-0.0041,9.8065,0.2391,-0.0115,-0.036,3.88,-29.94,21.5,359.04,-84.38,168.86
19299,52.413845,-1.550868,149.09,10.76,3,251.36,20 / 21,1938328,2019-09-06 18:48:25:010,0.6801,0.3997,9.4854,-0.0048,-0.0201,9.8066,-0.2702,-0.0846,0.1306,3.38,-30.62,21.81,354.83,-84.32,167.8
19300,52.413845,-1.550868,149.09,10.76,3,251.36,20 / 21,1938429,2019-09-06 18:48:25:111,-0.7492,-0.0592,8.4197,-0.0294,-0.0352,9.8065,-0.2049,0.0381,0.0221,3.38,-30.44,20.44,359.86,-84.56,171.35
19301,52.413845,-1.550868,149.09,10.76,3,251.36,20 / 21,1938529,2019-09-06 18:48:25:211,1.2099,2.1565,9.6248,0.0,0.0877,9.8062,-0.0186,0.0472,-0.0959,3.25,-31.12,20.5,359.6,-85.38,171.52
19302,52.413845,-1.550868,149.09,10.76,3,251.36,20 / 21,1938628,2019-09-06 18:48:25:310,-1.2809,1.2382,10.0027,-0.0007,0.0306,9.8065,-0.1557,-0.1581,0.1147,3.5,-31.37,21.13,3.98,-85.2,172.7
19303,52.413845,-1.550868,149.09,10.76,3,251.36,20 / 21,1938729,2019-09-06 18:48:25:411,-1.2171,0.0228,10.3847,-0.0223,-0.0252,9.8065,0.2558,-0.0218,0.0943,3.63,-30.0,20.75,9.48,-84.88,177.47
19304,52.413845,-1.550868,149.09,10.76,3,251.36,20 / 21,1938829,2019-09-06 18:48:25:511,-1.3761,-0.4861,9.79,-0.0001,0.0293,9.8065,-0.248,-0.0413,-0.0728,2.69,-31.25,20.56,7.75,-84.94,178.59
19305,52.413845,-1.550868,149.09,10.76,3,251.36,20 / 21,1938929,2019-09-06 18:48:25:611,-2.2372,-0.1958,10.5555,-0.0081,-0.0307,9.8066,-0.1115,-0.1832,0.0273,3.0,-30.56,20.88,10.1,-84.94,-179.36
19306,52.413845,-1.550868,149.09,10.76,3,251.36,20 / 21,1939028,2019-09-06 18:48:25:710,-1.7904,0.0059,11.1698,0.0125,0.0104,9.8066,-0.0339,-0.1646,-0.059,3.56,-30.87,20.56,12.57,-84.84,-179.89
19307,52.413845,-1.550868,149.09,10.76,3,251.36,20 / 21,1939128,2019-09-06 18:48:25:810,-1.048,0.0844,9.3279,0.0238,-0.0347,9.8065,-0.0046,-0.0401,0.0963,2.94,-30.56,20.69,4.8,-84.7,176.01
19308,52.413845,-1.550868,149.09,10.76,3,251.36,20 / 21,1939228,2019-09-06 18:48:25:910,-1.0465,0.2875,9.8046,-0.0005,-0.029,9.8066,-0.2006,-0.0523,-0.017,3.19,-30.25,20.81,4.33,-84.6,175.61
19309,52.413845,-1.550868,149.09,10.76,3,251.36,20 / 21,1939328,2019-09-06 18:48:26:010,-0.3205,-0.0405,9.6701,0.0082,0.0528,9.8065,0.2918,-0.0593,-0.0072,3.19,-30.37,21.0,3.71,-84.82,175.09
19310,52.413845,-1.550868,149.09,10.76,3,251.36,20 / 21,1939428,2019-09-06 18:48:26:110,1.8229,1.5143,8.8922,0.0008,0.0408,9.8065,0.1101,0.1433,-0.081,2.69,-31.19,21.19,4.59,-84.7,175.82
19311,52.413845,-1.550868,149.09,10.76,3,251.36,20 / 21,1939529,2019-09-06 18:48:26:211,-0.4629,0.3834,8.773,-0.0173,0.0142,9.8066,-0.0405,-0.036,-0.042,3.19,-30.5,21.13,5.74,-84.67,176.83
19312,52.413845,-1.550868,149.09,10.76,3,251.36,20 / 21,1939628,2019-09-06 18:48:26:310,-1.2659,-0.964,8.969,0.0138,0.0317,9.8066,-0.095,-0.1319,0.0054,2.44,-30.5,20.69,3.51,-84.53,177.58
19313,52.413845,-1.550868,149.09,10.76,3,251.36,20 / 21,1939729,2019-09-06 18:48:26:411,-1.7148,-1.2361,9.2483,0.0098,-0.0096,9.8065,0.0091,0.0247,0.015,2.63,-30.25,20.81,7.16,-84.49,178.03
19314,52.413845,-1.550868,149.09,10.76,3,251.36,20 / 21,1939828,2019-09-06 18:48:26:510,0.7504,0.852,9.5507,-0.0001,-0.006,9.8066,-0.185,0.1332,-0.098,2.56,-31.12,20.63,6.05,-84.53,177.05
19315,52.413845,-1.550868,149.09,10.76,3,251.36,20 / 21,1939929,2019-09-06 18:48:26:611,-0.932,0.8188,10.5347,-0.0016,0.0134,9.8066,0.0325,-0.0434,0.03,3.19,-30.56,21.0,4.16,-84.89,175.48
19316,52.413845,-1.550868,149.09,10.76,3,251.36,20 / 21,1940029,2019-09-06 18:48:26:711,-0.1644,1.5267,10.0834,0.0052,-0.0084,9.8066,0.0456,0.0106,-0.0093,3.0,-30.06,20.81,4.28,-84.86,175.59
19317,52.413845,-1.550868,149.09,10.76,3,251.36,20 / 21,1940128,2019-09-06 18:48:26:810,-1.2668,-0.2147,9.3359,-0.0124,-0.03,9.8066,0.0552,-0.0071,-0.0312,2.94,-30.62,20.94,5.2,-84.36,176.3
19318,52.413845,-1.550868,149.09,10.76,3,251.36,20 / 21,1940229,2019-09-06 18:48:26:911,-1.1715,-0.4458,9.2897,0.0062,-0.0028,9.8066,-0.0117,-0.0352,-0.0085,3.25,-29.94,21.13,4.62,-84.17,175.8
19319,52.413845,-1.550868,149.09,10.76,3,251.36,20 / 21,1940328,2019-09-06 18:48:27:010,-0.8826,0.6186,9.789,0.016,0.0354,9.8065,0.017,-0.0618,0.0315,3.19,-30.06,20.75,2.33,-84.5,173.87
19320,52.413845,-1.550868,149.09,10.76,3,251.36,20 / 21,1940429,2019-09-06 18:48:27:111,-0.8584,1.1498,10.3845,0.0025,0.0063,9.8066,-0.0305,-0.0278,-0.065,3.38,-29.75,21.5,1.38,-84.56,173.43
19321,52.413845,-1.550868,149.09,10.76,3,251.36,20 / 21,1940528,2019-09-06 18:48:27:210,-0.7685,0.1384,9.9171,0.0023,-0.0309,9.8066,0.0916,-0.0749,0.0208,3.38,-30.25,20.25,0.24,-84.36,171.67
19322,52.413845,-1.550868,149.09,10.76,3,251.36,20 / 21,1940629,2019-09-06 18:48:27:311,-1.0898,-0.4884,10.2784,-0.0082,-0.0306,9.8066,0.0687,-0.0188,-0.0243,3.38,-30.0,21.06,1.03,-84.07,172.74
19323,52.413845,-1.550868,149.09,10.76,3,251.36,20 / 21,1940729,2019-09-06 18:48:27:411,-1.3892,0.0728,9.357,-0.0174,-0.0167,9.8065,-0.0427,-0.0066,0.0274,2.81,-30.19,20.88,1.48,-83.98,173.12
19324,52.413845,-1.550868,149.09,10.76,3,251.36,20 / 21,1940828,2019-09-06 18:48:27:510,-0.3458,-0.1827,9.4402,-0.0031,0.002,9.8066,-0.0444,0.0107,-0.0301,2.94,-30.12,20.75,1.96,-84.2,173.54
19325,52.413845,-1.550868,149.09,10.76,3,251.36,20 / 21,1940928,2019-09-06 18:48:27:610,-0.8431,0.7828,9.8302,-0.0134,0.0351,9.8065,0.0141,-0.0179,0.016,2.88,-30.37,20.63,2.37,-84.45,173.9
19326,52.413845,-1.550868,149.09,10.76,3,251.36,20 / 21,1941028,2019-09-06 18:48:27:710,-0.5058,-0.2328,9.3311,-0.0084,0.0296,9.8066,0.0409,0.0061,0.0176,2.31,-30.12,20.5,1.87,-84.71,176.18
19327,52.413845,-1.550868,149.09,10.76,3,251.36,20 / 21,1941129,2019-09-06 18:48:27:811,-0.5219,0.0386,9.4966,-0.0176,0.0056,9.8066,0.021,-0.0054,0.0582,2.88,-30.25,20.38,9.26,-84.68,179.43
19328,52.413845,-1.550868,149.09,10.76,3,251.36,20 / 21,1941229,2019-09-06 18:48:27:911,-0.2353,0.1692,9.3039,-0.0124,-0.0048,9.8066,0.0102,0.0268,0.0789,2.25,-30.19,20.31,8.65,-84.7,-178.29
19329,52.413845,-1.550868,149.09,10.76,3,251.36,20 / 21,1941328,2019-09-06 18:48:28:010,-1.2592,0.1389,9.8293,-0.0191,0.0374,9.8065,0.0031,-0.0049,-0.0949,2.06,-30.19,20.88,12.82,-84.93,-174.27
19330,52.413845,-1.550868,149.09,10.76,3,251.36,20 / 21,1941428,2019-09-06 18:48:28:110,-0.259,-0.9764,9.548,0.0056,0.037,9.8065,0.1618,-0.1196,0.0841,2.13,-30.19,20.06,14.17,-84.87,-173.47
19331,52.413845,-1.550868,149.09,10.76,3,251.36,20 / 21,1941529,2019-09-06 18:48:28:211,-0.7642,1.0227,10.3819,0.0066,-0.0419,9.8065,-0.0661,-0.0727,-0.038,2.0,-30.62,20.56,13.63,-84.47,-173.79
19332,52.413845,-1.550868,149.09,10.76,3,251.36,20 / 21,1941628,2019-09-06 18:48:28:310,-1.0933,0.835,10.4352,-0.0017,-0.0467,9.8065,0.0648,-0.0045,-0.1199,3.19,-31.81,20.5,14.86,-84.05,-175.64
19333,52.413845,-1.550868,149.09,10.76,3,251.36,20 / 21,1941729,2019-09-06 18:48:28:411,0.4823,-1.1622,8.6303,0.0295,0.0171,9.8065,-0.0046,-0.0613,0.0837,3.19,-32.44,20.69,10.18,-84.17,-179.55
19334,52.413845,-1.550868,149.09,10.76,3,251.36,20 / 21,1941829,2019-09-06 18:48:28:511,-1.096,0.3872,9.6425,-0.0103,0.0189,9.8066,-0.0121,0.0185,-0.1117,3.56,-32.19,22.5,12.35,-84.23,-179.27
19335,52.413845,-1.550868,149.09,10.76,3,251.36,20 / 21,1941929,2019-09-06 18:48:28:611,-0.405,-1.3835,9.8045,0.0097,-0.02,9.8066,-0.0656,-0.0787,0.0203,3.31,-31.87,21.06,6.93,-84.4,177.75
19336,52.413845,-1.550868,149.09,10.76,3,251.36,20 / 21,1942028,2019-09-06 18:48:28:710,-0.9409,-0.5622,10.0922,-0.0156,-0.0257,9.8066,0.0608,0.0383,-0.0279,2.81,-32.0,21.06,8.1,-84.44,178.75
19337,52.413845,-1.550868,149.09,10.76,3,251.36,20 / 21,1942128,2019-09-06 18:48:28:810,-1.2373,0.419,10.2001,-0.0234,-0.0211,9.8066,-0.0391,-0.0334,0.0432,2.63,-31.37,21.31,7.35,-84.58,178.17
19338,52.413845,-1.550868,149.09,10.76,3,251.36,20 / 21,1942228,2019-09-06 18:48:28:910,-0.5059,-0.157,10.5848,-0.0135,-0.0148,9.8066,-0.039,-0.0141,-0.0095,3.63,-30.75,20.5,13.64,-84.38,-179.13
19339,52.413845,-1.550868,149.09,10.76,3,251.36,20 / 21,1942329,2019-09-06 18:48:29:011,-0.9623,1.0226,10.8103,-0.014,-0.0084,9.8066,0.1593,-0.0555,0.0604,3.31,-31.12,20.88,12.91,-84.25,-177.16
19340,52.413845,-1.550868,149.09,10.76,3,251.36,20 / 21,1942428,2019-09-06 18:48:29:110,-1.1842,-1.3007,9.4753,-0.0034,-0.016,9.8066,0.1014,-0.0635,-0.0242,3.19,-31.0,22.06,12.63,-84.01,-177.03
19341,52.413845,-1.550868,149.09,10.76,3,251.36,20 / 21,1942529,2019-09-06 18:48:29:211,-2.9521,0.152,10.2403,0.0145,0.0659,9.8064,0.1405,-0.2708,0.1643,1.75,-30.5,21.5,9.2,-84.34,-177.27
19342,52.413845,-1.550868,149.09,10.76,3,251.36,20 / 21,1942629,2019-09-06 18:48:29:311,-0.7105,-0.8765,9.738,0.0024,0.1014,9.8061,0.0845,-0.0193,-0.1438,2.5,-31.75,20.69,15.33,-84.52,-175.05
19343,52.413845,-1.550868,149.09,10.76,3,251.36,20 / 21,1942729,2019-09-06 18:48:29:411,-2.8617,0.8536,10.4586,0.0091,-0.0405,9.8065,0.06,-0.1581,0.1324,2.94,-31.56,20.56,14.32,-84.73,-175.83
19344,52.413845,-1.550868,149.09,10.76,3,251.36,20 / 21,1942829,2019-09-06 18:48:29:511,-0.8354,0.3402,10.0912,-0.0092,-0.0247,9.8066,0.096,-0.0509,-0.0577,3.06,-31.62,20.75,13.73,-84.25,-176.52
19345,52.413845,-1.550868,149.09,10.76,3,251.36,20 / 21,1942928,2019-09-06 18:48:29:610,-0.7576,-1.4553,9.6042,0.0025,-0.0282,9.8066,-0.0786,-0.12,-0.0008,3.25,-31.19,20.88,13.71,-83.81,-176.64
19346,52.413845,-1.550868,149.09,10.76,3,251.36,20 / 21,1943029,2019-09-06 18:48:29:711,-1.7958,-0.2005,9.5094,0.0046,-0.0061,9.8066,-0.0634,-0.0233,0.0547,3.13,-31.94,21.0,13.57,-83.86,-176.81
19347,52.413845,-1.550868,149.09,10.76,3,251.36,20 / 21,1943129,2019-09-06 18:48:29:811,-1.0119,1.2612,10.5711,-0.0172,0.0064,9.8066,-0.0378,-0.165,0.0455,2.94,-31.25,20.88,15.06,-84.16,-175.36
19348,52.413845,-1.550868,149.09,10.76,3,251.36,20 / 21,1943229,2019-09-06 18:48:29:911,-0.2242,-0.7296,11.1315,0.0016,0.0275,9.8065,0.1292,0.0138,-0.1461,3.38,-31.19,20.81,17.37,-84.27,-173.33
19349,52.413845,-1.550868,149.09,10.76,3,251.36,20 / 21,1943329,2019-09-06 18:48:30:011,-2.0281,0.0473,8.6763,-0.0067,-0.0807,9.8063,-0.1357,0.0064,-0.0706,3.06,-31.25,21.44,12.83,-84.28,-177.22
19350,52.413845,-1.550868,149.09,10.76,3,251.36,20 / 21,1943430,2019-09-06 18:48:30:112,-1.6422,-1.1043,10.928,0.035,-0.0094,9.8066,0.0707,-0.0636,0.0338,3.88,-31.0,20.81,11.39,-83.83,178.78
19351,52.413845,-1.550868,149.09,10.76,3,251.36,20 / 21,1943529,2019-09-06 18:48:30:211,-0.1075,-0.009,11.111,0.0113,-0.017,9.8065,0.0345,0.0088,-0.1687,3.94,-30.62,21.5,5.36,-83.74,174.21
19352,52.413845,-1.550868,149.09,10.76,3,251.36,20 / 21,1943629,2019-09-06 18:48:30:311,0.186,-0.3216,10.114,0.0261,0.0265,9.8065,0.1057,-0.0001,-0.0569,3.75,-30.94,21.38,2.55,-83.81,171.35
19353,52.413845,-1.550868,149.09,10.76,3,251.36,20 / 21,1943728,2019-09-06 18:48:30:410,-0.386,-0.376,9.8872,-0.0007,-0.0107,9.8066,-0.0228,0.0156,0.0154,3.94,-30.56,20.63,1.84,-83.69,170.75
19354,52.413845,-1.550868,149.09,10.76,3,251.36,20 / 21,1943829,2019-09-06 18:48:30:511,-0.4438,0.8291,9.6931,-0.0078,-0.0061,9.8066,-0.0465,-0.0401,0.0607,4.38,-31.06,20.88,2.41,-83.71,171.23
19355,52.413845,-1.550868,149.09,10.76,3,251.36,20 / 21,1943929,2019-09-06 18:48:30:611,-0.3295,0.1806,9.8007,0.0019,0.0088,9.8066,-0.005,-0.0377,-0.0163,3.56,-31.25,21.0,5.35,-83.78,173.69
19356,52.413845,-1.550868,149.09,10.76,3,251.36,20 / 21,1944029,2019-09-06 18:48:30:711,-0.1064,-0.076,10.2151,-0.0148,-0.0358,9.8065,-0.0145,0.0663,-0.0325,4.0,-31.0,20.88,6.09,-83.72,174.31
19357,52.413845,-1.550868,149.09,10.76,3,251.36,20 / 21,1944129,2019-09-06 18:48:30:811,-1.4006,-1.0321,9.6481,-0.0067,-0.0109,9.8066,-0.048,0.0643,-0.05,3.75,-30.69,21.19,5.75,-83.6,174.0
19358,52.413845,-1.550868,149.09,10.76,3,251.36,20 / 21,1944228,2019-09-06 18:48:30:910,-0.8891,0.5558,9.6687,0.007,-0.0058,9.8066,-0.0906,0.0149,-0.0492,4.13,-30.69,20.75,5.17,-83.66,173.53
19359,52.413845,-1.550868,149.09,10.76,3,251.36,20 / 21,1944329,2019-09-06 18:48:31:011,-0.0086,1.2005,9.9927,-0.0066,0.0122,9.8066,-0.049,0.0011,0.0729,3.81,-31.31,21.19,5.36,-83.86,173.72
19360,52.413845,-1.550868,149.09,10.76,3,251.36,20 / 21,1944428,2019-09-06 18:48:31:110,0.7455,1.156,10.2781,0.0011,0.0122,9.8066,-0.0516,0.042,0.0033,4.19,-30.56,21.44,5.72,-83.93,174.03
19361,52.413845,-1.550868,149.09,10.76,3,251.36,20 / 21,1944529,2019-09-06 18:48:31:211,1.01,1.2622,9.5569,-0.0484,0.025,9.8065,0.0149,-0.0816,0.1145,4.06,-31.19,20.75,9.28,-83.65,176.96
19362,52.413845,-1.550868,149.09,10.76,3,251.36,20 / 21,1944629,2019-09-06 18:48:31:311,-2.5037,0.7338,8.835,-0.0107,0.0307,9.8065,0.0171,-0.1205,0.2146,3.31,-31.12,21.13,15.38,-83.64,-175.31
19363,52.413845,-1.550868,149.09,10.76,3,251.36,20 / 21,1944728,2019-09-06 18:48:31:410,1.147,3.8646,8.4314,-0.0066,0.0655,9.8064,0.0595,-0.3079,0.0764,3.06,-31.5,21.19,19.73,-83.88,-171.52
19364,52.413845,-1.550868,149.09,10.76,3,251.36,20 / 21,1944828,2019-09-06 18:48:31:510,-1.0133,0.2808,10.9094,0.0162,0.0738,9.8063,0.0696,-0.0896,-0.0044,3.13,-31.25,20.38,22.56,-84.09,-169.55
19365,52.413845,-1.550868,149.09,10.76,3,251.36,20 / 21,1944928,2019-09-06 18:48:31:610,-0.7585,0.8136,9.8178,0.0184,-0.0259,9.8065,0.0576,-0.0155,0.0158,3.63,-31.19,20.5,19.85,-84.02,-173.98
19366,52.413845,-1.550868,149.09,10.76,3,251.36,20 / 21,1945029,2019-09-06 18:48:31:711,-0.2033,1.0416,10.068,0.0073,-0.0184,9.8065,0.0949,0.0268,-0.0366,3.19,-31.44,20.44,15.4,-83.94,-175.68
19367,52.413845,-1.550868,149.09,10.76,3,251.36,20 / 21,1945129,2019-09-06 18:48:31:811,-1.4671,0.4222,10.4153,-0.0112,-0.0302,9.8065,0.0743,-0.0543,0.0234,4.0,-31.19,20.5,16.11,-83.92,-177.2
19368,52.413845,-1.550868,149.09,10.76,3,251.36,20 / 21,1945229,2019-09-06 18:48:31:911,-0.1898,-1.1997,9.4814,0.002,0.0158,9.8066,-0.0172,-0.0639,-0.054,3.25,-31.19,20.56,13.39,-83.86,-176.89
19369,52.413845,-1.550868,149.09,10.76,3,251.36,20 / 21,1945328,2019-09-06 18:48:32:010,-0.668,1.091,11.2143,-0.0063,-0.0002,9.8066,0.1304,0.048,-0.022,3.75,-31.56,20.75,15.68,-83.96,-177.63
19370,52.413845,-1.550868,149.09,10.76,3,251.36,20 / 21,1945429,2019-09-06 18:48:32:111,-0.5932,0.875,10.6677,-0.0002,0.0141,9.8066,0.2552,-0.0384,0.0215,3.31,-31.19,21.38,12.68,-83.94,-177.46
19371,52.413845,-1.550868,149.09,10.76,3,251.36,20 / 21,1945529,2019-09-06 18:48:32:211,-0.42,-1.6446,9.9765,-0.0163,-0.0734,9.8063,-0.1253,-0.057,0.0592,3.25,-30.69,21.31,12.56,-83.11,-177.85
19372,52.413845,-1.550868,149.09,10.76,3,251.36,20 / 21,1945628,2019-09-06 18:48:32:310,-0.3157,0.5317,9.6918,-0.0132,-0.0339,9.8066,-0.1782,0.0194,0.014,3.94,-30.94,20.88,17.04,-83.11,-176.78
19373,52.413845,-1.550868,149.09,10.76,3,251.36,20 / 21,1945728,2019-09-06 18:48:32:410,-0.5812,1.4716,10.3397,0.0,0.023,9.8066,0.0736,0.0071,-0.0378,3.25,-31.06,21.06,13.98,-83.28,-176.61
19374,52.413845,-1.550868,149.09,10.76,3,251.36,20 / 21,1945829,2019-09-06 18:48:32:511,0.8985,1.1572,10.5404,0.0169,-0.0087,9.8066,-0.0187,0.0848,-0.1143,3.94,-30.87,20.81,15.73,-83.27,-177.8
19375,52.413845,-1.550868,149.09,10.76,3,251.36,20 / 21,1945929,2019-09-06 18:48:32:611,3.1368,-0.178,6.9107,0.0099,0.0804,9.8062,0.3051,-0.241,0.0397,3.69,-30.12,21.25,13.01,-83.32,-179.97
19376,52.413845,-1.550868,149.09,10.76,3,251.36,20 / 21,1946028,2019-09-06 18:48:32:710,-2.5305,0.3134,10.426,0.0799,0.1774,9.8047,-0.1733,-0.2418,0.0812,3.63,-30.94,21.56,12.73,-83.32,-179.7
19377,52.413845,-1.550868,149.09,10.76,3,251.36,20 / 21,1946129,2019-09-06 18:48:32:811,-2.6706,3.0286,10.6602,0.0651,0.1299,9.8055,0.5686,-0.3148,0.2012,4.06,-29.69,21.75,9.49,-83.98,177.81
19378,52.413845,-1.550868,149.09,10.76,3,251.36,20 / 21,1946229,2019-09-06 18:48:32:911,3.1227,3.308,9.2196,0.0608,0.2347,9.8036,0.0344,0.1228,-0.1395,4.69,-28.81,20.44,12.72,-84.36,176.88
19379,52.413845,-1.550868,149.09,10.76,3,251.36,20 / 21,1946328,2019-09-06 18:48:33:010,4.3689,-0.4782,13.2929,-0.0231,0.0133,9.8066,0.6198,0.3308,-0.1764,4.38,-28.44,20.88,9.79,-83.69,177.54
19380,52.41355,-1.552391,148.98,12.88,2,254.65,20 / 21,1946429,2019-09-06 18:48:33:111,2.7746,-0.1312,9.4582,0.0283,0.093,9.8061,0.5216,-0.1155,0.1981,4.31,-27.25,20.94,11.88,-82.66,179.09
19381,52.41355,-1.552391,148.98,12.88,2,254.65,20 / 21,1946528,2019-09-06 18:48:33:210,1.4863,-0.6398,10.8977,-0.0201,0.0613,9.8063,0.1664,0.1924,-0.0215,3.56,-26.19,21.94,14.9,-82.73,-177.69
19382,52.41355,-1.552391,148.98,12.88,2,254.65,20 / 21,1946629,2019-09-06 18:48:33:311,-0.086,1.3151,9.5067,-0.017,-0.0073,9.8066,-0.1725,0.0747,0.0051,3.5,-28.12,21.31,18.25,-83.15,-175.46
19383,52.41355,-1.552391,148.98,12.88,2,254.65,20 / 21,1946728,2019-09-06 18:48:33:410,0.1459,0.9441,8.7184,-0.0068,-0.0106,9.8066,-0.0681,-0.0024,-0.0109,3.13,-29.62,20.88,15.88,-83.47,-174.87
19384,52.41355,-1.552391,148.98,12.88,2,254.65,20 / 21,1946829,2019-09-06 18:48:33:511,-0.1542,1.1796,9.913,0.0024,0.0151,9.8066,-0.0314,-0.0444,-0.1567,2.81,-30.37,20.81,16.36,-83.54,-174.44
19385,52.41355,-1.552391,148.98,12.88,2,254.65,20 / 21,1946928,2019-09-06 18:48:33:610,0.2387,1.1054,9.0871,0.0103,-0.0181,9.8066,-0.1106,-0.0726,0.1039,3.13,-30.81,21.94,13.62,-83.28,-176.44
19386,52.41355,-1.552391,148.98,12.88,2,254.65,20 / 21,1947028,2019-09-06 18:48:33:710,-1.0471,0.5338,9.6793,-0.0125,0.0065,9.8066,0.1183,-0.0444,0.0139,3.25,-30.75,21.5,16.47,-82.94,-174.21
19387,52.41355,-1.552391,148.98,12.88,2,254.65,20 / 21,1947128,2019-09-06 18:48:33:810,0.874,-1.2721,10.9258,-0.0147,0.027,9.8066,0.0946,0.0029,0.0204,3.44,-30.69,21.88,17.47,-82.87,-173.4
19388,52.41355,-1.552391,148.98,12.88,2,254.65,20 / 21,1947229,2019-09-06 18:48:33:911,-0.6473,-1.3875,9.5436,-0.0124,-0.0051,9.8066,-0.0281,-0.0001,-0.0972,3.69,-31.31,22.0,22.1,-82.71,-172.16
19389,52.41355,-1.552391,148.98,12.88,2,254.65,20 / 21,1947329,2019-09-06 18:48:34:011,-1.3594,-1.1871,9.2102,0.0077,0.0345,9.8065,0.1294,0.0262,0.0178,3.56,-31.12,21.63,22.81,-82.99,-171.41
19390,52.41355,-1.552391,148.98,12.88,2,254.65,20 / 21,1947429,2019-09-06 18:48:34:111,-0.9764,1.5526,9.93,-0.0071,-0.0227,9.8066,-0.2114,-0.0126,0.0178,2.88,-31.5,21.63,20.52,-83.26,-170.67
19391,52.41355,-1.552391,148.98,12.88,2,254.65,20 / 21,1947528,2019-09-06 18:48:34:210,0.9561,1.5195,10.4272,-0.0022,-0.0148,9.8066,-0.0337,0.0249,-0.0907,3.44,-31.12,21.31,21.04,-83.35,-170.7
19392,52.41355,-1.552391,148.98,12.88,2,254.65,20 / 21,1947628,2019-09-06 18:48:34:310,-0.4713,1.5153,10.5264,0.0054,0.0142,9.8066,0.1905,-0.0082,0.0242,3.19,-31.12,20.94,21.37,-83.32,-170.45
19393,52.41355,-1.552391,148.98,12.88,2,254.65,20 / 21,1947729,2019-09-06 18:48:34:411,-1.2393,0.2885,10.0451,-0.0041,-0.0194,9.8065,0.0092,-0.0507,-0.0369,3.06,-31.5,21.25,20.77,-82.9,-171.18
19394,52.41355,-1.552391,148.98,12.88,2,254.65,20 / 21,1947829,2019-09-06 18:48:34:511,-2.1515,-1.4188,9.5989,-0.0072,-0.0033,9.8066,-0.0036,0.0362,-0.107,3.44,-31.0,21.5,20.26,-82.83,-171.11
19395,52.41355,-1.552391,148.98,12.88,2,254.65,20 / 21,1947929,2019-09-06 18:48:34:611,-0.6115,0.819,9.3895,0.0239,0.0108,9.8066,-0.1079,0.0498,-0.066,3.31,-30.75,21.56,17.97,-83.08,-172.89
19396,52.41355,-1.552391,148.98,12.88,2,254.65,20 / 21,1948029,2019-09-06 18:48:34:711,-0.2496,-0.8471,9.4157,0.0042,-0.0118,9.8066,-0.0243,0.0159,-0.0426,3.5,-30.94,21.19,20.66,-83.27,-173.69
19397,52.41355,-1.552391,148.98,12.88,2,254.65,20 / 21,1948128,2019-09-06 18:48:34:810,-1.6319,-0.5209,9.2743,0.0067,0.0048,9.8066,-0.0023,-0.0888,0.0298,3.5,-31.44,21.69,18.82,-83.39,-174.55
19398,52.41355,-1.552391,148.98,12.88,2,254.65,20 / 21,1948228,2019-09-06 18:48:34:910,-0.8709,-0.204,9.9756,-0.0099,-0.0233,9.8065,-0.1732,-0.0572,0.0315,3.19,-31.06,21.31,17.12,-83.45,-173.93
19399,52.41355,-1.552391,148.98,12.88,2,254.65,20 / 21,1948329,2019-09-06 18:48:35:011,0.2686,0.56,9.8702,-0.0134,-0.0386,9.8065,0.1556,-0.0522,0.0616,3.56,-31.37,20.94,21.01,-83.55,-173.25
19400,52.41355,-1.552391,148.98,12.88,2,254.65,20 / 21,1948429,2019-09-06 18:48:35:111,-0.8828,1.6219,10.0012,-0.0031,0.031,9.8066,0.1025,-0.0347,-0.0369,3.19,-31.56,21.38,20.84,-83.62,-170.83
19401,52.41355,-1.552391,148.98,12.88,2,254.65,20 / 21,1948529,2019-09-06 18:48:35:211,-1.2091,-0.5372,10.2321,-0.0021,-0.0026,9.8066,-0.0789,0.1441,-0.0536,3.44,-30.87,21.56,19.82,-83.39,-171.19
19402,52.41355,-1.552391,148.98,12.88,2,254.65,20 / 21,1948628,2019-09-06 18:48:35:310,-0.3611,-0.4981,10.2721,-0.0052,-0.0566,9.8064,-0.0706,-0.1286,0.0833,4.19,-31.19,21.06,21.71,-83.33,-172.78
19403,52.41355,-1.552391,148.98,12.88,2,254.65,20 / 21,1948728,2019-09-06 18:48:35:410,-1.0508,1.365,9.3216,-0.0154,-0.0287,9.8065,-0.1287,-0.109,-0.0461,3.19,-31.62,21.56,19.23,-82.96,-172.01
19404,52.41355,-1.552391,148.98,12.88,2,254.65,20 / 21,1948829,2019-09-06 18:48:35:511,-0.2184,-0.3591,9.4786,0.0072,0.0281,9.8065,-0.0063,-0.0291,0.1028,3.94,-31.69,21.38,22.88,-83.39,-171.89
19405,52.41355,-1.552391,148.98,12.88,2,254.65,20 / 21,1948929,2019-09-06 18:48:35:611,-1.4492,0.1026,9.8196,-0.0138,0.0389,9.8066,-0.0038,-0.0077,0.0475,3.63,-31.19,20.63,25.21,-83.62,-169.65
19406,52.41355,-1.552391,148.98,12.88,2,254.65,20 / 21,1949029,2019-09-06 18:48:35:711,-1.2025,0.3157,10.0175,-0.0148,-0.0202,9.8065,-0.0047,-0.0208,0.0453,3.06,-31.25,20.69,24.64,-83.52,-167.57
19407,52.41355,-1.552391,148.98,12.88,2,254.65,20 / 21,1949129,2019-09-06 18:48:35:811,-1.2014,-0.1512,10.2848,-0.0218,-0.0362,9.8065,-0.0076,-0.0389,-0.0272,2.81,-31.69,21.19,25.84,-83.35,-166.82
19408,52.41355,-1.552391,148.98,12.88,2,254.65,20 / 21,1949228,2019-09-06 18:48:35:910,-2.3415,-0.8335,10.914,0.0012,0.0018,9.8066,0.1625,-0.1113,0.0154,3.25,-31.62,20.88,25.98,-83.3,-166.73
19409,52.41355,-1.552391,148.98,12.88,2,254.65,20 / 21,1949328,2019-09-06 18:48:36:010,-0.2991,-1.4698,9.1499,0.0152,0.0528,9.8064,0.1559,0.008,0.0206,3.44,-31.56,20.38,26.88,-83.54,-166.42
19410,52.41355,-1.552391,148.98,12.88,2,254.65,20 / 21,1949429,2019-09-06 18:48:36:111,-2.0714,-1.1644,10.7995,-0.0138,-0.029,9.8066,-0.1392,-0.0254,0.0283,2.94,-31.75,20.13,27.66,-83.49,-165.81
19411,52.41355,-1.552391,148.98,12.88,2,254.65,20 / 21,1949528,2019-09-06 18:48:36:210,-0.2153,2.1501,9.7252,-0.0085,0.0023,9.8066,0.1716,-0.0081,-0.0356,3.13,-31.62,20.13,27.98,-83.73,-165.35
19412,52.41355,-1.552391,148.98,12.88,2,254.65,20 / 21,1949628,2019-09-06 18:48:36:310,-1.5261,-0.8408,9.0704,0.0095,-0.0094,9.8066,-0.0654,-0.0537,-0.0034,3.31,-31.56,20.5,27.53,-83.54,-165.26
19413,52.41355,-1.552391,148.98,12.88,2,254.65,20 / 21,1949728,2019-09-06 18:48:36:410,0.0603,0.694,10.357,-0.0168,-0.0303,9.8065,-0.0312,0.0394,0.074,3.31,-31.69,20.56,26.65,-83.39,-166.11
19414,52.41355,-1.552391,148.98,12.88,2,254.65,20 / 21,1949829,2019-09-06 18:48:36:511,-2.3713,0.9486,10.6436,-0.0202,0.0502,9.8065,0.2657,-0.068,-0.1407,3.0,-31.62,20.69,30.87,-83.55,-162.42
19415,52.41355,-1.552391,148.98,12.88,2,254.65,20 / 21,1949929,2019-09-06 18:48:36:611,0.5688,-0.8932,10.8441,0.0165,0.1401,9.8056,0.28,0.2874,-0.1225,3.25,-31.69,20.31,31.86,-83.82,-161.99
19416,52.41355,-1.552391,148.98,12.88,2,254.65,20 / 21,1950029,2019-09-06 18:48:36:711,-1.109,0.9939,11.4667,-0.0498,-0.0625,9.8063,0.164,0.0944,-0.0679,2.94,-31.87,20.69,29.82,-83.57,-163.29
19417,52.41355,-1.552391,148.98,12.88,2,254.65,20 / 21,1950129,2019-09-06 18:48:36:811,2.6106,0.3487,11.3311,0.0025,0.0614,9.8064,0.2608,0.1914,-0.2889,2.88,-31.62,19.81,31.31,-83.95,-162.34
19418,52.41355,-1.552391,148.98,12.88,2,254.65,20 / 21,1950229,2019-09-06 18:48:36:911,-1.0767,-0.8853,9.9303,-0.0039,-0.0958,9.8061,-0.019,0.0464,-0.0185,3.13,-30.87,20.0,28.48,-84.05,-164.53
19419,52.41355,-1.552391,148.98,12.88,2,254.65,20 / 21,1950329,2019-09-06 18:48:37:011,-0.6922,0.6176,9.022,0.0011,-0.0513,9.8064,-0.0157,-0.0017,0.0434,3.63,-31.62,20.63,27.31,-83.62,-168.0
19420,52.41355,-1.552391,148.98,12.88,2,254.65,19 / 20,1950429,2019-09-06 18:48:37:111,-1.0327,0.6646,9.4252,0.0212,0.0385,9.8065,-0.0799,0.0154,-0.0313,4.0,-32.25,19.5,28.0,-84.09,-167.79
19421,52.41355,-1.552391,148.98,12.88,2,254.65,19 / 20,1950528,2019-09-06 18:48:37:210,-0.7879,1.695,10.3639,0.0144,0.0113,9.8066,-0.0635,-0.1071,0.0183,3.5,-31.06,19.25,27.08,-84.24,-169.12
19422,52.41355,-1.552391,148.98,12.88,2,254.65,19 / 20,1950628,2019-09-06 18:48:37:310,-1.6007,0.0536,10.2371,-0.0064,-0.0364,9.8065,0.0566,0.0466,-0.0873,4.19,-31.19,19.38,27.19,-84.14,-169.1
19423,52.41355,-1.552391,148.98,12.88,2,254.65,19 / 20,1950729,2019-09-06 18:48:37:411,-0.0159,-0.5543,10.0397,0.0132,-0.0119,9.8065,0.1144,-0.0358,0.1634,4.44,-31.56,19.81,23.17,-83.78,-172.1
19424,52.41355,-1.552391,148.98,12.88,2,254.65,19 / 20,1950829,2019-09-06 18:48:37:511,-1.0655,-0.776,9.1672,-0.0104,-0.0014,9.8066,-0.1506,-0.0368,-0.1264,3.5,-31.62,20.38,25.38,-83.49,-170.45
19425,52.41355,-1.552391,148.98,12.88,2,254.65,19 / 20,1950929,2019-09-06 18:48:37:611,-0.2829,-1.3955,8.5191,0.0173,0.0544,9.8064,0.001,-0.0007,0.0164,3.75,-31.5,19.56,24.86,-83.96,-170.43
19426,52.41355,-1.552391,148.98,12.88,2,254.65,19 / 20,1951029,2019-09-06 18:48:37:711,-0.5752,0.7822,10.3046,0.0025,0.017,9.8065,0.0233,-0.0543,-0.0088,3.94,-31.25,19.38,26.64,-84.14,-169.56
19427,52.41355,-1.552391,148.98,12.88,2,254.65,19 / 20,1951129,2019-09-06 18:48:37:811,0.0511,1.2684,10.2972,0.0108,0.0085,9.8065,0.082,0.0036,-0.0555,3.63,-31.56,19.75,25.3,-84.16,-170.05
19428,52.41355,-1.552391,148.98,12.88,2,254.65,19 / 20,1951228,2019-09-06 18:48:37:910,-0.1671,-1.0943,9.9124,-0.0049,-0.0381,9.8065,-0.035,-0.0749,0.0543,3.88,-31.5,19.81,23.38,-84.08,-171.61
19429,52.41355,-1.552391,148.98,12.88,2,254.65,19 / 20,1951329,2019-09-06 18:48:38:011,-0.3138,0.2107,9.6696,0.0057,-0.0198,9.8066,-0.0627,-0.1208,-0.02,4.25,-31.19,19.13,23.44,-83.86,-172.46
19430,52.41355,-1.552391,148.98,12.88,2,254.65,19 / 20,1951428,2019-09-06 18:48:38:110,-0.6348,1.0422,10.203,0.0255,0.0473,9.8065,0.0982,-0.1162,0.0658,4.44,-32.06,19.25,22.61,-84.28,-173.0
19431,52.41355,-1.552391,148.98,12.88,2,254.65,19 / 20,1951528,2019-09-06 18:48:38:210,-0.1542,0.2101,9.7959,-0.0036,0.041,9.8066,0.0824,0.029,0.0053,3.5,-31.44,19.94,22.96,-84.33,-171.81
19432,52.41355,-1.552391,148.98,12.88,2,254.65,19 / 20,1951629,2019-09-06 18:48:38:311,-1.1702,1.6866,9.7998,-0.0075,0.0128,9.8066,0.0083,0.0242,-0.0376,3.38,-31.44,19.44,21.67,-84.27,-170.81
19433,52.41355,-1.552391,148.98,12.88,2,254.65,19 / 20,1951728,2019-09-06 18:48:38:410,-0.4298,1.068,10.4016,0.0048,0.0103,9.8066,0.082,0.0078,0.0599,3.56,-31.5,19.75,24.57,-84.28,-170.46
19434,52.41355,-1.552391,148.98,12.88,2,254.65,19 / 20,1951828,2019-09-06 18:48:38:510,-0.6916,-0.2952,9.9567,-0.0149,-0.0077,9.8065,0.0245,-0.0336,-0.0071,3.5,-31.0,19.75,26.32,-84.03,-169.14
19435,52.41355,-1.552391,148.98,12.88,2,254.65,19 / 20,1951930,2019-09-06 18:48:38:612,-0.663,0.2327,10.0331,0.0041,0.024,9.8065,0.1155,-0.0842,-0.0285,4.19,-31.0,19.38,28.14,-84.11,-168.31
19436,52.41355,-1.552391,148.98,12.88,2,254.65,19 / 20,1952028,2019-09-06 18:48:38:710,-0.269,0.8604,9.7651,-0.0055,-0.0199,9.8066,-0.1456,-0.03,0.048,4.06,-31.25,19.25,27.8,-84.02,-168.67
19437,52.41355,-1.552391,148.98,12.88,2,254.65,19 / 20,1952129,2019-09-06 18:48:38:811,-1.4868,1.0601,9.8977,-0.0048,-0.0204,9.8065,-0.1283,-0.1209,0.0878,4.13,-31.87,19.0,28.26,-84.03,-168.42
19438,52.41355,-1.552391,148.98,12.88,2,254.65,19 / 20,1952229,2019-09-06 18:48:38:911,0.2747,0.3532,9.2271,-0.0042,0.0179,9.8066,0.0976,-0.1745,0.0073,4.44,-31.0,19.13,29.48,-84.08,-167.2
19439,52.41355,-1.552391,148.98,12.88,2,254.65,19 / 20,1952328,2019-09-06 18:48:39:010,-0.4623,-0.6028,10.3298,0.022,0.0494,9.8065,0.0945,-0.1285,0.0228,3.69,-31.5,18.81,31.27,-84.27,-165.5
19440,52.41355,-1.552391,148.98,12.88,2,254.65,19 / 21,1952429,2019-09-06 18:48:39:111,-2.8818,0.2218,10.2517,0.0048,-0.0301,9.8066,0.0025,-0.1498,0.1264,3.13,-31.69,18.69,28.55,-84.23,-165.13
19441,52.41355,-1.552391,148.98,12.88,2,254.65,19 / 21,1952528,2019-09-06 18:48:39:210,0.6657,0.1349,9.7833,-0.0227,-0.0032,9.8066,0.0052,0.0609,-0.0946,3.69,-31.0,19.13,32.17,-84.03,-164.94
19442,52.41355,-1.552391,148.98,12.88,2,254.65,19 / 21,1952628,2019-09-06 18:48:39:310,-0.7918,1.7555,10.5985,-0.0036,0.0109,9.8066,0.1567,-0.012,0.0234,4.25,-31.81,19.56,31.76,-84.07,-164.59
19443,52.41355,-1.552391,148.98,12.88,2,254.65,19 / 21,1952728,2019-09-06 18:48:39:410,-1.1269,-1.1058,9.2981,-0.0036,0.0047,9.8066,0.0814,-0.0222,-0.032,3.88,-31.5,18.31,34.11,-84.02,-164.2
19444,52.41355,-1.552391,148.98,12.88,2,254.65,19 / 21,1952829,2019-09-06 18:48:39:511,-0.6096,0.4888,10.9255,-0.0108,-0.0146,9.8065,0.0646,0.0463,-0.0796,3.25,-31.75,19.13,29.61,-83.83,-164.58
19445,52.41355,-1.552391,148.98,12.88,2,254.65,19 / 21,1952929,2019-09-06 18:48:39:611,-3.0538,1.8557,8.6263,0.0033,-0.0234,9.8066,-0.1521,-0.1591,-0.0265,3.94,-31.69,18.44,32.65,-83.74,-165.9
19446,52.41355,-1.552391,148.98,12.88,2,254.65,19 / 21,1953029,2019-09-06 18:48:39:711,-0.6298,2.4771,11.4523,-0.0257,0.0049,9.8066,-0.0888,0.1325,-0.0817,3.88,-31.5,18.63,29.12,-83.96,-167.6
19447,52.41355,-1.552391,148.98,12.88,2,254.65,19 / 21,1953129,2019-09-06 18:48:39:811,-1.3753,-0.2828,11.1855,0.0086,0.0557,9.8064,0.0834,0.0714,-0.0203,3.88,-31.75,19.25,30.05,-84.2,-166.75
19448,52.41355,-1.552391,148.98,12.88,2,254.65,19 / 21,1953229,2019-09-06 18:48:39:911,-3.6677,-1.1617,9.5018,-0.058,-0.0648,9.8062,0.0098,0.0788,-0.1531,4.13,-31.12,19.0,29.85,-83.9,-167.04
19449,52.41355,-1.552391,148.98,12.88,2,254.65,19 / 21,1953329,2019-09-06 18:48:40:011,-0.1897,0.443,10.5721,0.0048,0.0023,9.8066,0.0473,-0.0319,0.0506,4.25,-30.87,18.94,30.02,-84.16,-166.66
19450,52.41355,-1.552391,148.98,12.88,2,254.65,21 / 21,1953430,2019-09-06 18:48:40:112,-0.455,-0.2079,10.8225,-0.0239,-0.0398,9.8065,-0.0371,-0.0703,0.0454,3.5,-30.81,19.13,30.5,-84.22,-166.21
19451,52.41355,-1.552391,148.98,12.88,2,254.65,21 / 21,1953529,2019-09-06 18:48:40:211,-0.7981,0.6077,9.6161,-0.0221,-0.0672,9.8063,0.0703,-0.037,-0.0384,3.44,-30.19,18.75,28.08,-83.67,-165.69
19452,52.41355,-1.552391,148.98,12.88,2,254.65,21 / 21,1953628,2019-09-06 18:48:40:310,-1.6674,-1.2225,9.1593,0.0034,-0.0095,9.8066,0.0449,-0.0444,0.0835,3.19,-30.25,17.94,26.7,-83.59,-167.64
19453,52.41355,-1.552391,148.98,12.88,2,254.65,21 / 21,1953728,2019-09-06 18:48:40:410,0.0142,1.427,9.8128,-0.0124,-0.014,9.8066,-0.2121,-0.0108,-0.0553,4.25,-30.94,16.25,33.52,-83.49,-167.45
19454,52.41355,-1.552391,148.98,12.88,2,254.65,21 / 21,1953828,2019-09-06 18:48:40:510,-0.2764,0.5578,9.8694,0.0229,0.0174,9.8065,0.0256,-0.0047,0.0172,6.19,-31.81,17.63,37.43,-83.88,-167.45
19455,52.41355,-1.552391,148.98,12.88,2,254.65,21 / 21,1953928,2019-09-06 18:48:40:610,-0.4697,-0.2391,9.1983,0.013,-0.0114,9.8065,-0.1404,-0.0395,0.0494,5.94,-30.94,18.44,35.75,-84.04,-168.53
19456,52.41355,-1.552391,148.98,12.88,2,254.65,21 / 21,1954029,2019-09-06 18:48:40:711,-0.6463,0.2772,9.7058,0.0093,0.0095,9.8066,0.0584,-0.033,-0.0737,4.56,-31.37,18.25,32.59,-84.17,-168.28
19457,52.41355,-1.552391,148.98,12.88,2,254.65,21 / 21,1954128,2019-09-06 18:48:40:810,0.5522,-0.6834,9.5598,-0.0094,-0.0169,9.8066,0.0172,0.0602,-0.0564,3.38,-31.37,18.31,25.02,-84.2,-168.73
19458,52.41355,-1.552391,148.98,12.88,2,254.65,21 / 21,1954228,2019-09-06 18:48:40:910,-0.7778,0.7707,10.2833,-0.0053,0.0088,9.8066,0.0328,-0.0137,0.0531,4.38,-31.31,18.31,28.66,-84.14,-168.73
19459,52.41355,-1.552391,148.98,12.88,2,254.65,21 / 21,1954329,2019-09-06 18:48:41:011,-0.1041,1.0396,10.0832,-0.0033,0.0084,9.8066,0.008,-0.0101,-0.0775,4.75,-31.0,17.88,32.5,-84.06,-168.47
19460,52.41355,-1.552391,148.98,12.88,2,254.65,21 / 21,1954428,2019-09-06 18:48:41:110,-0.1104,0.5718,10.5121,-0.0016,-0.0108,9.8066,0.0583,0.0014,0.108,4.5,-31.62,18.31,32.58,-84.01,-168.61
19461,52.41355,-1.552391,148.98,12.88,2,254.65,21 / 21,1954529,2019-09-06 18:48:41:211,-1.5449,0.3868,10.0914,-0.0135,-0.0163,9.8066,0.0657,-0.0344,0.0296,4.44,-31.37,18.13,29.61,-83.94,-168.1
19462,52.41355,-1.552391,148.98,12.88,2,254.65,21 / 21,1954629,2019-09-06 18:48:41:311,-0.5214,1.0434,9.3503,0.0107,0.026,9.8066,0.0124,-0.0209,0.0035,3.69,-31.25,18.0,29.47,-83.91,-168.24
19463,52.41355,-1.552391,148.98,12.88,2,254.65,21 / 21,1954728,2019-09-06 18:48:41:410,-0.2006,0.6346,10.1727,-0.0011,0.0143,9.8066,-0.0191,-0.0504,0.0335,4.56,-31.31,17.69,33.37,-83.99,-167.79
19464,52.41355,-1.552391,148.98,12.88,2,254.65,21 / 21,1954828,2019-09-06 18:48:41:510,-0.4361,0.1827,9.7997,-0.0007,0.007,9.8066,0.0423,-0.0406,-0.0187,4.81,-30.94,17.75,34.55,-84.04,-166.74
19465,52.41355,-1.552391,148.98,12.88,2,254.65,21 / 21,1954928,2019-09-06 18:48:41:610,-0.6834,-1.2132,9.2141,0.01,0.0106,9.8066,0.043,-0.0341,-0.0025,5.13,-31.25,17.81,34.2,-84.06,-167.02
19466,52.41355,-1.552391,148.98,12.88,2,254.65,21 / 21,1955028,2019-09-06 18:48:41:710,-0.7046,0.153,9.1731,-0.0033,-0.0103,9.8066,-0.2076,-0.0636,-0.0164,4.56,-31.0,18.13,34.34,-84.03,-166.92
19467,52.41355,-1.552391,148.98,12.88,2,254.65,21 / 21,1955128,2019-09-06 18:48:41:810,-0.2201,-0.0495,10.031,0.0018,-0.0218,9.8066,-0.1266,-0.0265,-0.0498,4.75,-31.31,17.94,33.61,-84.15,-167.43
19468,52.41355,-1.552391,148.98,12.88,2,254.65,21 / 21,1955229,2019-09-06 18:48:41:911,0.1648,1.6512,10.0789,0.0152,0.0067,9.8066,0.0333,-0.0421,-0.0357,5.31,-30.75,17.31,32.95,-84.28,-169.02
19469,52.41355,-1.552391,148.98,12.88,2,254.65,21 / 21,1955328,2019-09-06 18:48:42:010,0.423,-0.3686,9.5682,0.0059,-0.0018,9.8066,0.0346,-0.0027,-0.0307,5.06,-30.87,17.38,31.16,-84.26,-170.55
19470,52.413372,-1.554053,149.46,12.8,2,267.33,21 / 21,1955428,2019-09-06 18:48:42:110,-0.5051,0.731,10.0518,-0.0132,-0.0037,9.8066,0.0154,-0.0361,0.0197,4.5,-31.0,17.13,31.77,-84.13,-170.17
19471,52.413372,-1.554053,149.46,12.8,2,267.33,21 / 21,1955528,2019-09-06 18:48:42:210,-0.7635,0.5387,9.8776,-0.0204,-0.0111,9.8066,-0.0693,-0.0619,0.0322,4.94,-31.31,16.94,34.73,-83.97,-167.83
19472,52.413372,-1.554053,149.46,12.8,2,267.33,21 / 21,1955629,2019-09-06 18:48:42:311,-0.7008,1.2891,9.9578,-0.0068,0.0251,9.8065,0.0675,-0.0282,0.0089,4.75,-32.0,17.38,37.85,-84.08,-165.26
19473,52.413372,-1.554053,149.46,12.8,2,267.33,21 / 21,1955729,2019-09-06 18:48:42:411,-0.9353,0.7562,9.6161,0.0003,0.0141,9.8066,-0.0724,-0.0175,-0.0149,4.19,-31.37,17.38,34.85,-84.03,-164.61
19474,52.413372,-1.554053,149.46,12.8,2,267.33,21 / 21,1955828,2019-09-06 18:48:42:510,-0.4518,1.2091,9.6302,-0.0071,-0.0085,9.8066,-0.0553,-0.0351,0.011,4.31,-32.0,17.31,35.41,-84.0,-164.35
19475,52.413372,-1.554053,149.46,12.8,2,267.33,21 / 21,1955928,2019-09-06 18:48:42:610,-0.4415,0.708,9.5937,0.0004,-0.0078,9.8066,-0.0536,-0.0217,0.013,4.94,-31.81,16.56,39.04,-83.98,-164.38
19476,52.413372,-1.554053,149.46,12.8,2,267.33,21 / 21,1956028,2019-09-06 18:48:42:710,-0.5814,0.3607,9.6726,0.0149,0.0221,9.8066,0.0133,-0.0612,-0.0681,4.63,-31.31,17.0,38.0,-84.23,-164.76
19477,52.413372,-1.554053,149.46,12.8,2,267.33,21 / 21,1956128,2019-09-06 18:48:42:810,-0.0219,1.445,9.7132,0.0166,0.0168,9.8066,0.0291,-0.0819,-0.0469,4.69,-31.37,16.63,37.4,-84.32,-165.18
19478,52.413372,-1.554053,149.46,12.8,2,267.33,21 / 21,1956228,2019-09-06 18:48:42:910,-0.1097,0.7886,9.6174,0.0018,-0.0085,9.8066,-0.0157,-0.0334,0.0549,5.38,-31.12,16.81,36.06,-84.33,-166.31
19479,52.413372,-1.554053,149.46,12.8,2,267.33,21 / 21,1956328,2019-09-06 18:48:43:010,0.0836,0.8287,9.4593,-0.0081,-0.0355,9.8065,-0.1805,-0.0034,0.0519,4.44,-30.81,16.19,33.55,-84.26,-166.59
19480,52.413372,-1.554053,149.46,12.8,2,267.33,21 / 21,1956429,2019-09-06 18:48:43:111,0.1899,0.1813,9.7522,-0.0051,0.0355,9.8065,0.0745,-0.0231,-0.059,4.25,-31.44,16.5,33.87,-84.31,-165.13
19481,52.413372,-1.554053,149.46,12.8,2,267.33,21 / 21,1956528,2019-09-06 18:48:43:210,-0.0632,0.1138,9.3246,0.0076,0.0152,9.8066,0.0025,0.0033,0.0502,4.13,-31.06,16.0,36.98,-84.42,-163.52
19482,52.413372,-1.554053,149.46,12.8,2,267.33,21 / 21,1956629,2019-09-06 18:48:43:311,0.1858,1.0622,9.121,-0.0175,0.0316,9.8066,0.032,-0.0428,0.1159,3.69,-31.0,16.25,40.9,-84.4,-160.18
19483,52.413372,-1.554053,149.46,12.8,2,267.33,21 / 21,1956728,2019-09-06 18:48:43:410,-1.1615,0.2877,9.9842,-0.0138,0.0401,9.8065,-0.0123,-0.0513,0.0158,3.81,-31.44,16.25,45.03,-84.37,-156.66
19484,52.413372,-1.554053,149.46,12.8,2,267.33,21 / 21,1956828,2019-09-06 18:48:43:510,-1.0368,-1.079,10.716,-0.0215,0.0009,9.8066,0.2109,-0.0823,0.0568,4.0,-31.25,17.0,47.86,-84.3,-153.05
19485,52.413372,-1.554053,149.46,12.8,2,267.33,21 / 21,1956929,2019-09-06 18:48:43:611,-0.6065,1.3127,9.941,-0.0024,0.0029,9.8065,0.2228,-0.0023,-0.0005,4.0,-31.25,16.5,49.71,-84.31,-151.4
19486,52.413372,-1.554053,149.46,12.8,2,267.33,21 / 21,1957028,2019-09-06 18:48:43:710,0.416,0.7295,10.4755,-0.0167,-0.0422,9.8065,-0.0724,0.037,-0.0474,4.38,-31.56,16.81,50.14,-84.38,-151.18
19487,52.413372,-1.554053,149.46,12.8,2,267.33,21 / 21,1957129,2019-09-06 18:48:43:811,-0.1893,0.4701,10.2422,0.0008,-0.0355,9.8066,0.0075,0.0304,-0.1153,4.13,-31.44,16.44,48.47,-84.18,-153.95
19488,52.413372,-1.554053,149.46,12.8,2,267.33,21 / 21,1957228,2019-09-06 18:48:43:910,1.3802,1.8379,11.0112,0.0195,-0.008,9.8066,0.1127,-0.0253,0.0466,4.38,-30.81,15.75,43.24,-84.25,-158.37
19489,52.413372,-1.554053,149.46,12.8,2,267.33,21 / 21,1957328,2019-09-06 18:48:44:010,0.1737,1.2927,9.6909,-0.0063,-0.0264,9.8066,-0.071,0.0347,-0.0879,4.5,-31.19,16.06,45.64,-84.1,-159.7
19490,52.413372,-1.554053,149.46,12.8,2,267.33,20 / 20,1957428,2019-09-06 18:48:44:110,-0.079,1.6876,9.5635,0.0098,0.0251,9.8065,0.012,0.0489,-0.032,5.0,-31.37,16.38,43.7,-84.19,-161.25
19491,52.413372,-1.554053,149.46,12.8,2,267.33,20 / 20,1957529,2019-09-06 18:48:44:211,1.0222,0.7319,9.9876,0.0086,0.0263,9.8066,0.0072,-0.0027,0.0439,4.94,-31.06,16.06,43.77,-84.36,-160.97
19492,52.413372,-1.554053,149.46,12.8,2,267.33,20 / 20,1957628,2019-09-06 18:48:44:310,0.0997,0.7334,10.3235,-0.0186,-0.0118,9.8066,0.0568,-0.0402,0.0216,4.44,-31.12,16.06,40.56,-84.19,-160.75
19493,52.413372,-1.554053,149.46,12.8,2,267.33,20 / 20,1957729,2019-09-06 18:48:44:411,-0.3823,1.2033,9.7635,-0.0185,-0.0107,9.8066,0.0528,-0.0183,-0.0252,4.81,-31.31,16.31,45.97,-84.13,-159.36
19494,52.413372,-1.554053,149.46,12.8,2,267.33,20 / 20,1957828,2019-09-06 18:48:44:510,1.4949,1.5237,8.9029,0.0006,0.0189,9.8065,-0.0887,-0.067,0.0709,4.31,-31.12,15.75,42.03,-84.24,-159.42
19495,52.413372,-1.554053,149.46,12.8,2,267.33,20 / 20,1957929,2019-09-06 18:48:44:611,2.6384,4.2186,9.1717,0.0005,0.0338,9.8065,-0.1072,0.0443,-0.0185,4.5,-31.94,15.81,49.57,-84.47,-155.99
19496,52.413372,-1.554053,149.46,12.8,2,267.33,20 / 20,1958028,2019-09-06 18:48:44:710,1.9747,1.8217,10.6911,-0.0144,0.0025,9.8066,0.0062,0.0018,-0.0554,4.44,-31.25,15.75,47.39,-84.49,-154.44
19497,52.413372,-1.554053,149.46,12.8,2,267.33,20 / 20,1958129,2019-09-06 18:48:44:811,0.7883,2.3649,10.5074,-0.0134,-0.0186,9.8066,0.08,-0.0662,0.1036,3.88,-31.87,15.94,48.72,-84.29,-153.83
19498,52.413372,-1.554053,149.46,12.8,2,267.33,20 / 20,1958229,2019-09-06 18:48:44:911,0.6708,2.8654,10.3291,-0.0284,0.0084,9.8066,0.0844,0.0462,0.0413,4.31,-31.44,15.88,51.42,-83.8,-151.95
19499,52.413372,-1.554053,149.46,12.8,2,267.33,20 / 20,1958328,2019-09-06 18:48:45:010,-0.1676,2.7339,9.559,-0.0192,0.0099,9.8065,0.0003,-0.0198,0.0015,3.63,-32.25,16.06,53.55,-83.48,-150.92
19500,52.413372,-1.554053,149.46,12.8,2,267.33,21 / 21,1958428,2019-09-06 18:48:45:110,-0.1411,2.6098,9.4551,0.0019,0.0105,9.8066,-0.0802,-0.0415,-0.0442,4.13,-32.44,16.69,52.42,-83.47,-150.55
19501,52.413372,-1.554053,149.46,12.8,2,267.33,21 / 21,1958529,2019-09-06 18:48:45:211,0.3353,2.9969,9.6321,0.029,0.015,9.8066,-0.0502,-0.0327,-0.0472,3.69,-31.69,15.94,53.12,-83.96,-150.5
19502,52.413372,-1.554053,149.46,12.8,2,267.33,21 / 21,1958628,2019-09-06 18:48:45:310,0.6517,2.2925,10.235,0.0219,0.0034,9.8066,0.0164,-0.0358,-0.066,4.25,-31.69,15.5,51.18,-84.25,-151.73
19503,52.413372,-1.554053,149.46,12.8,2,267.33,21 / 21,1958728,2019-09-06 18:48:45:410,0.3635,2.0764,9.623,0.0351,-0.0067,9.8065,0.0514,-0.1094,-0.0229,4.25,-31.75,16.31,47.43,-84.35,-154.85
19504,52.413372,-1.554053,149.46,12.8,2,267.33,21 / 21,1958829,2019-09-06 18:48:45:511,0.4809,1.9921,9.4387,0.0131,0.0036,9.8066,-0.1061,0.0261,-0.1258,4.75,-31.81,15.63,46.68,-84.49,-158.49
19505,52.413372,-1.554053,149.46,12.8,2,267.33,21 / 21,1958929,2019-09-06 18:48:45:611,0.3439,2.2177,10.0579,0.016,-0.0015,9.8066,0.0006,-0.0997,0.0669,4.75,-31.87,15.44,45.98,-84.56,-160.53
19506,52.413372,-1.554053,149.46,12.8,2,267.33,21 / 21,1959029,2019-09-06 18:48:45:711,0.2687,3.0092,9.6002,0.0049,0.0109,9.8066,-0.0401,-0.0014,-0.0853,4.81,-31.75,15.06,46.31,-84.76,-159.95
19507,52.413372,-1.554053,149.46,12.8,2,267.33,21 / 21,1959128,2019-09-06 18:48:45:810,1.3255,2.9525,9.6546,0.01,0.0012,9.8066,-0.0183,0.0244,0.0598,4.69,-31.69,15.0,45.1,-85.01,-160.62
19508,52.413372,-1.554053,149.46,12.8,2,267.33,21 / 21,1959229,2019-09-06 18:48:45:911,0.6783,2.8192,9.739,-0.0028,0.0001,9.8065,-0.0524,-0.0101,0.0807,5.31,-31.12,15.06,45.26,-85.07,-160.17
19509,52.413372,-1.554053,149.46,12.8,2,267.33,21 / 21,1959328,2019-09-06 18:48:46:010,1.2291,1.5689,9.6046,-0.001,0.0052,9.8065,0.0167,0.0116,-0.0982,4.5,-31.69,14.81,46.62,-85.06,-159.22
19510,52.413372,-1.554053,149.46,12.8,2,267.33,21 / 21,1959429,2019-09-06 18:48:46:111,0.6522,1.9915,9.7776,-0.0023,0.0008,9.8066,0.073,-0.0591,0.0213,4.88,-31.69,15.44,46.53,-85.14,-159.17
19511,52.413372,-1.554053,149.46,12.8,2,267.33,21 / 21,1959528,2019-09-06 18:48:46:210,1.2196,1.658,9.969,-0.01,-0.0128,9.8066,-0.0708,-0.0517,0.0883,4.75,-31.62,14.5,47.69,-84.99,-158.37
19512,52.413372,-1.554053,149.46,12.8,2,267.33,21 / 21,1959629,2019-09-06 18:48:46:311,0.3201,2.4954,9.624,-0.0158,-0.0109,9.8066,-0.0421,0.0215,-0.0441,4.13,-31.62,15.0,45.15,-85.01,-157.21
19513,52.413372,-1.554053,149.46,12.8,2,267.33,21 / 21,1959728,2019-09-06 18:48:46:410,0.7342,0.8465,9.7993,0.0075,0.0251,9.8065,0.0234,-0.0421,0.0399,4.88,-31.56,15.44,51.56,-85.06,-154.85
19514,52.413372,-1.554053,149.46,12.8,2,267.33,21 / 21,1959829,2019-09-06 18:48:46:511,0.1981,0.7726,9.705,-0.002,0.0124,9.8065,0.0072,-0.02,0.0586,4.31,-31.5,15.19,48.34,-84.95,-154.26
19515,52.413372,-1.554053,149.46,12.8,2,267.33,21 / 21,1959929,2019-09-06 18:48:46:611,-0.0208,0.1329,9.7761,-0.0109,0.0058,9.8066,0.0254,-0.0199,0.0019,4.56,-31.31,14.75,53.62,-84.78,-153.2
19516,52.413372,-1.554053,149.46,12.8,2,267.33,21 / 21,1960029,2019-09-06 18:48:46:711,-0.5578,0.423,10.1139,-0.0061,0.0032,9.8066,0.043,-0.0523,0.013,4.69,-31.69,15.38,55.52,-84.62,-152.05
19517,52.413372,-1.554053,149.46,12.8,2,267.33,21 / 21,1960129,2019-09-06 18:48:46:811,-0.1698,-0.0375,9.9966,-0.0024,-0.0087,9.8066,-0.0048,-0.014,0.0122,4.06,-31.87,14.69,51.32,-84.57,-152.52
19518,52.413372,-1.554053,149.46,12.8,2,267.33,21 / 21,1960229,2019-09-06 18:48:46:911,0.0376,0.5988,9.8307,-0.0064,-0.0055,9.8066,-0.0622,-0.0364,-0.0271,5.19,-31.69,15.56,53.7,-84.57,-152.18
19519,52.413372,-1.554053,149.46,12.8,2,267.33,21 / 21,1960329,2019-09-06 18:48:47:011,-0.264,0.1764,9.7773,0.0028,0.0107,9.8066,0.0383,-0.046,0.0105,4.44,-32.06,15.19,52.53,-84.68,-151.27
19520,52.413372,-1.554053,149.46,12.8,2,267.33,20 / 20,1960429,2019-09-06 18:48:47:111,0.6158,0.5914,10.0073,0.01,0.003,9.8066,0.0416,-0.0314,-0.0116,4.38,-31.31,14.56,51.65,-84.72,-151.71
19521,52.413372,-1.554053,149.46,12.8,2,267.33,20 / 20,1960529,2019-09-06 18:48:47:211,-0.17,-0.1135,10.1373,0.0013,-0.0047,9.8066,0.0057,-0.0536,-0.0086,4.63,-30.87,14.75,55.36,-84.74,-151.71
19522,52.413372,-1.554053,149.46,12.8,2,267.33,20 / 20,1960628,2019-09-06 18:48:47:310,0.459,0.0128,9.8639,0.0081,-0.0057,9.8065,0.0239,-0.0207,-0.0217,4.63,-31.44,14.63,54.2,-84.77,-152.71
19523,52.413372,-1.554053,149.46,12.8,2,267.33,20 / 20,1960729,2019-09-06 18:48:47:411,0.0679,0.6652,9.798,-0.0074,-0.0081,9.8065,-0.0169,0.0141,-0.0023,4.19,-30.62,14.75,50.04,-84.71,-153.14
19524,52.413372,-1.554053,149.46,12.8,2,267.33,20 / 20,1960828,2019-09-06 18:48:47:510,-0.0483,0.0247,9.9199,-0.007,-0.0098,9.8065,0.0011,-0.0238,0.0103,4.38,-30.69,15.06,50.24,-84.69,-153.0
19525,52.413372,-1.554053,149.46,12.8,2,267.33,20 / 20,1960929,2019-09-06 18:48:47:611,-0.6789,-0.5132,10.0922,-0.0024,0.0007,9.8066,-0.0501,-0.0162,0.0036,4.25,-30.62,15.38,50.51,-84.67,-152.79
19526,52.413372,-1.554053,149.46,12.8,2,267.33,20 / 20,1961029,2019-09-06 18:48:47:711,-0.3749,-1.0364,9.815,-0.0063,0.0045,9.8066,0.0315,-0.0572,0.0319,4.0,-30.19,15.13,50.74,-84.7,-152.28
19527,52.413372,-1.554053,149.46,12.8,2,267.33,20 / 20,1961129,2019-09-06 18:48:47:811,-0.3724,-0.7546,9.8148,-0.007,0.0075,9.8066,0.0221,-0.0384,0.0044,4.75,-29.87,15.81,54.63,-84.64,-150.69
19528,52.413372,-1.554053,149.46,12.8,2,267.33,20 / 20,1961228,2019-09-06 18:48:47:910,-1.2201,-0.9876,9.9361,-0.005,0.0127,9.8066,0.1099,-0.0249,0.0088,4.75,-29.37,15.5,56.65,-84.66,-148.57
19529,52.413372,-1.554053,149.46,12.8,2,267.33,20 / 20,1961328,2019-09-06 18:48:48:010,-0.2025,-0.8955,9.9832,0.012,0.0032,9.8066,-0.0431,-0.0345,0.0232,4.44,-29.25,15.31,53.97,-84.79,-148.98
19530,52.413372,-1.554053,149.46,12.8,2,267.33,21 / 21,1961429,2019-09-06 18:48:48:111,-0.2752,-0.6879,9.9647,-0.0107,-0.0038,9.8066,-0.0772,-0.0219,-0.0081,5.81,-29.94,14.75,61.72,-84.77,-148.78
19531,52.413372,-1.554053,149.46,12.8,2,267.33,21 / 21,1961529,2019-09-06 18:48:48:211,-1.0737,-1.4863,9.774,-0.0002,0.0125,9.8066,0.0579,-0.0131,-0.001,5.31,-30.62,15.19,60.02,-84.79,-147.42
19532,52.413372,-1.554053,149.46,12.8,2,267.33,21 / 21,1961629,2019-09-06 18:48:48:311,-1.431,-1.0069,9.7426,0.0095,0.0187,9.8066,0.0543,-0.0558,0.0463,5.06,-30.87,14.69,60.36,-84.8,-147.09
19533,52.413372,-1.554053,149.46,12.8,2,267.33,21 / 21,1961728,2019-09-06 18:48:48:410,-1.0412,-1.9486,9.7494,0.0062,-0.0043,9.8066,0.0005,-0.0169,-0.0378,5.63,-30.81,14.69,63.97,-84.79,-146.96
19534,52.413372,-1.554053,149.46,12.8,2,267.33,21 / 21,1961828,2019-09-06 18:48:48:510,-1.1603,-1.8325,9.989,0.0059,-0.001,9.8066,0.0134,-0.0255,-0.0185,5.06,-31.12,14.19,61.47,-84.94,-147.62
19535,52.413372,-1.554053,149.46,12.8,2,267.33,21 / 21,1961929,2019-09-06 18:48:48:611,-0.5867,-1.7268,9.9019,0.0056,-0.0037,9.8066,0.0081,-0.0314,0.0147,5.56,-30.62,14.31,63.3,-85.09,-148.96
19536,52.413372,-1.554053,149.46,12.8,2,267.33,21 / 21,1962028,2019-09-06 18:48:48:710,-0.409,-1.3623,10.1925,0.0073,-0.0055,9.8066,0.0363,-0.0013,-0.0313,5.31,-30.81,14.75,57.0,-85.14,-149.56
19537,52.413372,-1.554053,149.46,12.8,2,267.33,21 / 21,1962128,2019-09-06 18:48:48:810,-0.2781,-1.1015,9.8188,0.0083,0.0025,9.8066,-0.0296,0.0516,-0.1101,5.06,-31.06,13.94,56.77,-85.33,-151.15
19538,52.413372,-1.554053,149.46,12.8,2,267.33,21 / 21,1962228,2019-09-06 18:48:48:910,-0.6935,-1.7847,9.465,0.0259,0.0137,9.8065,0.0254,-0.0129,0.0191,5.69,-30.69,14.0,58.53,-85.52,-152.56
19539,52.413372,-1.554053,149.46,12.8,2,267.33,21 / 21,1962329,2019-09-06 18:48:49:011,-1.1186,-2.1151,9.7621,-0.0002,-0.0132,9.8066,-0.0871,0.0109,-0.0597,5.19,-31.12,13.63,53.47,-85.57,-153.72
19540,52.413372,-1.554053,149.46,12.8,2,267.33,21 / 21,1962428,2019-09-06 18:48:49:110,-0.0878,-0.8183,10.1942,0.0011,-0.0035,9.8066,0.0208,0.0751,-0.0171,5.63,-30.19,13.31,57.88,-85.65,-154.73
19541,52.413372,-1.554053,149.46,12.8,2,267.33,21 / 21,1962529,2019-09-06 18:48:49:211,0.0474,-2.1073,9.7473,-0.0068,-0.0021,9.8066,-0.0162,0.0153,-0.0013,5.25,-31.19,12.63,54.13,-85.64,-154.88
19542,52.413372,-1.554053,149.46,12.8,2,267.33,21 / 21,1962628,2019-09-06 18:48:49:310,-0.9726,-2.8521,9.4158,0.0015,0.013,9.8066,0.0607,0.0755,-0.0171,4.38,-31.37,13.38,51.24,-85.66,-153.69
19543,52.413372,-1.554053,149.46,12.8,2,267.33,21 / 21,1962729,2019-09-06 18:48:49:411,-1.2245,-1.0151,9.4862,-0.0141,-0.0066,9.8066,-0.0368,-0.0336,-0.0047,3.69,-31.37,14.69,48.9,-85.69,-152.61
19544,52.413372,-1.554053,149.46,12.8,2,267.33,21 / 21,1962828,2019-09-06 18:48:49:510,0.7059,-1.3962,9.6865,-0.0002,-0.0096,9.8066,-0.0934,0.0743,-0.0641,3.06,-31.31,14.88,46.36,-85.72,-151.31
19545,52.413372,-1.554053,149.46,12.8,2,267.33,21 / 21,1962929,2019-09-06 18:48:49:611,0.6071,-1.6469,9.7813,-0.0003,0.0121,9.8065,0.1038,0.0363,0.1214,4.38,-31.06,15.38,50.75,-85.89,-150.62
19546,52.413372,-1.554053,149.46,12.8,2,267.33,21 / 21,1963028,2019-09-06 18:48:49:710,0.9794,-1.8698,9.7434,-0.016,-0.0148,9.8066,0.0438,0.0881,-0.122,4.38,-31.69,15.0,53.18,-85.78,-148.81
19547,52.413372,-1.554053,149.46,12.8,2,267.33,21 / 21,1963129,2019-09-06 18:48:49:811,0.2177,-1.7097,9.8431,-0.0054,0.0161,9.8066,0.0081,0.0385,0.039,5.06,-30.87,15.69,55.77,-85.72,-148.23
19548,52.413372,-1.554053,149.46,12.8,2,267.33,21 / 21,1963228,2019-09-06 18:48:49:910,-0.9488,-1.4559,10.0654,0.0088,0.0241,9.8066,0.0968,0.0398,0.0772,4.5,-31.31,15.31,58.99,-85.71,-146.75
19549,52.413372,-1.554053,149.46,12.8,2,267.33,21 / 21,1963328,2019-09-06 18:48:50:010,-0.7928,-1.7888,9.3784,-0.0157,-0.0043,9.8066,-0.1217,0.0374,0.0014,5.19,-31.56,15.38,60.16,-85.64,-146.03
19550,52.413372,-1.554053,149.46,12.8,2,267.33,21 / 21,1963429,2019-09-06 18:48:50:111,-0.5073,-0.8374,9.6318,-0.0022,-0.0029,9.8066,-0.0241,0.0014,0.0478,4.44,-31.31,15.38,57.71,-85.65,-144.67
19551,52.413372,-1.554053,149.46,12.8,2,267.33,21 / 21,1963528,2019-09-06 18:48:50:210,-1.074,-0.202,10.4633,-0.0045,0.0107,9.8066,0.1297,0.0395,-0.0429,5.25,-31.06,15.38,62.12,-85.61,-144.02
19552,52.413372,-1.554053,149.46,12.8,2,267.33,21 / 21,1963629,2019-09-06 18:48:50:311,-0.541,-2.1172,9.9177,-0.0018,0.014,9.8066,0.0742,0.0524,-0.0578,4.63,-31.62,15.44,63.51,-85.6,-142.99
19553,52.413372,-1.554053,149.46,12.8,2,267.33,21 / 21,1963729,2019-09-06 18:48:50:411,-0.5028,-1.5821,9.9417,-0.0061,-0.0136,9.8066,-0.0857,-0.0268,0.0032,5.13,-31.25,15.38,61.54,-85.52,-144.71
19554,52.413372,-1.554053,149.46,12.8,2,267.33,21 / 21,1963828,2019-09-06 18:48:50:510,-0.1092,-0.1469,9.8744,0.0057,0.0046,9.8066,-0.037,0.0105,-0.028,5.06,-31.62,15.13,61.94,-85.58,-144.5
19555,52.413372,-1.554053,149.46,12.8,2,267.33,21 / 21,1963929,2019-09-06 18:48:50:611,-0.5164,-0.2836,10.2688,-0.0141,-0.0053,9.8066,-0.0725,-0.0083,0.0157,5.25,-31.31,15.56,60.71,-85.53,-143.96
19556,52.413372,-1.554053,149.46,12.8,2,267.33,21 / 21,1964029,2019-09-06 18:48:50:711,-0.3443,-0.8776,9.8855,0.0016,0.0144,9.8066,0.0604,0.0021,0.0505,4.44,-31.69,15.31,60.42,-85.6,-142.51
19557,52.413372,-1.554053,149.46,12.8,2,267.33,21 / 21,1964129,2019-09-06 18:48:50:811,-0.7706,-1.5129,9.7692,-0.0156,-0.0173,9.8066,0.019,-0.0137,0.0639,5.0,-31.06,15.63,63.41,-85.54,-141.42
19558,52.413372,-1.554053,149.46,12.8,2,267.33,21 / 21,1964229,2019-09-06 18:48:50:911,-0.8748,-1.6244,9.6038,-0.0111,0.0026,9.8066,0.0635,0.0585,-0.0147,4.44,-31.87,14.69,62.69,-85.4,-140.78
19559,52.413372,-1.554053,149.46,12.8,2,267.33,21 / 21,1964328,2019-09-06 18:48:51:010,-0.289,-0.8876,10.207,-0.0061,-0.0025,9.8066,0.0237,0.0221,0.0129,5.25,-31.75,15.63,65.41,-85.31,-140.2
19560,52.413395,-1.555259,150.25,9.35,3,273.68,21 / 21,1964429,2019-09-06 18:48:51:111,-1.3726,-1.5157,9.8246,-0.0095,-0.0055,9.8066,0.0484,-0.0118,-0.001,4.38,-31.19,15.5,62.24,-85.33,-139.67
19561,52.413395,-1.555259,150.25,9.35,3,273.68,21 / 21,1964528,2019-09-06 18:48:51:210,-1.3333,-2.0619,10.0327,-0.0176,-0.025,9.8066,-0.0395,-0.0213,-0.0241,5.25,-32.44,15.69,65.35,-85.09,-140.66
19562,52.413395,-1.555259,150.25,9.35,3,273.68,21 / 21,1964629,2019-09-06 18:48:51:311,0.2062,-0.5064,9.8071,0.0156,-0.017,9.8065,0.054,-0.0845,0.1084,4.69,-31.5,15.5,63.46,-85.2,-141.95
19563,52.413395,-1.555259,150.25,9.35,3,273.68,21 / 21,1964728,2019-09-06 18:48:51:410,-0.695,-1.0059,10.2154,-0.0044,0.0036,9.8066,0.0422,-0.0858,0.02,4.69,-31.81,15.56,64.74,-85.09,-141.21
19564,52.413395,-1.555259,150.25,9.35,3,273.68,21 / 21,1964829,2019-09-06 18:48:51:511,0.1369,-1.277,9.4095,-0.0046,-0.0026,9.8066,-0.0677,0.0259,-0.0409,4.94,-31.5,15.19,66.82,-84.99,-140.78
19565,52.413395,-1.555259,150.25,9.35,3,273.68,21 / 21,1964929,2019-09-06 18:48:51:611,-0.0961,-0.214,9.7069,0.0045,0.0219,9.8065,-0.0797,-0.0237,-0.0426,4.19,-31.62,15.0,65.27,-85.06,-139.05
19566,52.413395,-1.555259,150.25,9.35,3,273.68,21 / 21,1965029,2019-09-06 18:48:51:711,-0.5411,-0.0001,9.9312,0.0147,0.0308,9.8066,0.0409,0.0089,0.0139,4.44,-32.06,15.06,65.62,-85.15,-138.55
19567,52.413395,-1.555259,150.25,9.35,3,273.68,21 / 21,1965129,2019-09-06 18:48:51:811,-1.2066,-1.2173,10.2371,-0.0031,-0.0111,9.8066,0.0621,0.021,-0.0483,4.44,-31.75,15.75,64.61,-85.19,-137.97
19568,52.413395,-1.555259,150.25,9.35,3,273.68,21 / 21,1965228,2019-09-06 18:48:51:910,-0.6439,-1.2816,9.8401,-0.0047,0.0165,9.8065,0.2443,-0.0695,0.0482,4.69,-31.69,15.5,68.02,-85.14,-138.05
19569,52.413395,-1.555259,150.25,9.35,3,273.68,21 / 21,1965328,2019-09-06 18:48:52:010,-1.6481,-1.9856,9.4192,0.0,-0.0173,9.8066,-0.1237,0.0073,-0.047,4.5,-31.69,15.06,69.03,-84.88,-139.23
19570,52.413395,-1.555259,150.25,9.35,3,273.68,21 / 21,1965428,2019-09-06 18:48:52:110,-0.3071,-2.453,9.0296,-0.004,0.0039,9.8066,-0.0718,-0.029,-0.0222,4.25,-32.25,15.13,64.99,-84.98,-139.47
19571,52.413395,-1.555259,150.25,9.35,3,273.68,21 / 21,1965529,2019-09-06 18:48:52:211,-0.7869,-0.4177,9.9184,0.0318,0.0563,9.8064,0.0342,-0.0779,0.0409,4.0,-32.0,15.19,68.12,-85.43,-135.67
19572,52.413395,-1.555259,150.25,9.35,3,273.68,21 / 21,1965628,2019-09-06 18:48:52:310,-0.0682,0.5072,10.6455,0.0226,0.0219,9.8065,0.0061,-0.0628,-0.0526,4.69,-32.37,14.13,73.93,-85.55,-135.03
