,GPS LATITUDE (degrees), GPS LONGITUDE (degrees), GPS ALTITUDE (m), GPS SPEED (Kmh), GPS ACCURACY (m), GPS ORIENTATION (Â°),GPS SATELLITES IN RANGE, TIME SINCE START (ms), DATE (YYYY-MO-DD HH-MI-SS_SSS), ACCELEROMETER X (m/s²) , ACCELEROMETER Y (m/s²), ACCELEROMETER Z (m/s²), GRAVITY X (m/s²), GRAVITY Y (m/s²), GRAVITY Z (m/s²), GYROSCOPE Yaw (rad/s), GYROSCOPE Pitch (rad/s), GYROSCOPE Roll (rad/s), MAGNETIC FIELD X (Î¼T), MAGNETIC FIELD Y (Î¼T), MAGNETIC FIELD Z (Î¼T), ORIENTATION (Yaw) (Â°), ORIENTATION (Pitch) (Â°), ORIENTATION (Roll ) (Â°)
28238,52.41353,-1.54657,149.46,10.4,2,199.39,21 / 21,2832228,2019-09-06 19:03:18:910,-0.223,1.3081,10.1079,-0.0025,0.0069,9.8066,-0.0114,-0.0577,-0.0068,-3.37,-34.62,26.56,91.68,-87.11,-85.71
28239,52.41353,-1.54657,149.46,10.4,2,199.39,21 / 21,2832329,2019-09-06 19:03:19:011,-0.3384,1.7069,10.2302,0.0035,0.0089,9.8066,-0.0187,-0.0377,-0.0094,-3.69,-34.62,26.31,92.36,-87.1,-82.76
28240,52.41353,-1.54657,149.46,10.4,2,199.39,21 / 21,2832429,2019-09-06 19:03:19:111,-0.3977,1.4942,10.2054,0.0061,-0.0018,9.8066,0.0156,-0.0648,-0.0176,-3.81,-34.44,26.75,94.16,-87.15,-80.95
28241,52.41353,-1.54657,149.46,10.4,2,199.39,21 / 21,2832528,2019-09-06 19:03:19:210,-0.2105,1.1955,9.7059,0.0001,-0.0039,9.8065,-0.0199,-0.0785,0.0167,-4.0,-34.62,25.75,93.96,-87.15,-81.08
28242,52.41353,-1.54657,149.46,10.4,2,199.39,21 / 21,2832629,2019-09-06 19:03:19:311,-0.0652,0.8312,9.856,-0.004,0.0077,9.8066,-0.0269,-0.0831,0.0207,-3.12,-35.0,26.19,96.98,-87.1,-80.28
28243,52.41353,-1.54657,149.46,10.4,2,199.39,21 / 21,2832728,2019-09-06 19:03:19:410,-0.0496,-0.126,9.6359,-0.0051,0.0133,9.8066,0.0142,-0.0787,-0.0024,-3.69,-34.81,25.94,94.85,-87.05,-80.32
28244,52.41353,-1.54657,149.46,10.4,2,199.39,21 / 21,2832828,2019-09-06 19:03:19:510,-0.2977,-0.0158,9.8187,-0.0058,0.0041,9.8066,0.0049,-0.077,0.0198,-2.87,-35.06,26.13,96.84,-86.97,-80.61
28245,52.41353,-1.54657,149.46,10.4,2,199.39,21 / 21,2832928,2019-09-06 19:03:19:610,0.0248,0.0437,10.0132,-0.0063,0.0051,9.8066,0.0205,-0.0764,-0.0078,-2.87,-35.19,25.81,98.22,-86.84,-79.37
28246,52.41353,-1.54657,149.46,10.4,2,199.39,21 / 21,2833029,2019-09-06 19:03:19:711,-0.1992,-0.0638,10.1635,-0.0043,-0.0037,9.8066,0.0035,-0.1003,0.0132,-2.75,-35.0,25.5,98.84,-86.82,-78.77
28247,52.41353,-1.54657,149.46,10.4,2,199.39,21 / 21,2833129,2019-09-06 19:03:19:811,-0.0026,-0.4828,9.6673,-0.0047,-0.0094,9.8066,-0.0029,-0.0874,0.0139,-3.12,-34.69,26.0,98.24,-86.77,-79.44
28248,52.41353,-1.54657,149.46,10.4,2,199.39,21 / 21,2833229,2019-09-06 19:03:19:911,-0.0752,-0.5292,9.8019,-0.0092,0.001,9.8066,0.0199,-0.0904,0.0436,-2.06,-34.81,25.69,100.39,-86.65,-79.63
28249,52.41353,-1.54657,149.46,10.4,2,199.39,21 / 21,2833330,2019-09-06 19:03:20:012,-0.3703,-0.8649,9.8621,-0.0114,0.0012,9.8065,0.0052,-0.1014,0.0173,-2.19,-34.94,25.56,100.56,-86.51,-79.64
28250,52.41353,-1.54657,149.46,10.4,2,199.39,21 / 21,2833430,2019-09-06 19:03:20:112,-0.3029,-1.0124,10.0075,-0.0102,0.0037,9.8066,0.019,-0.118,0.0378,-1.69,-35.37,25.88,100.73,-86.39,-79.62
28251,52.41353,-1.54657,149.46,10.4,2,199.39,21 / 21,2833529,2019-09-06 19:03:20:211,-0.3764,-0.5992,10.1992,-0.0077,0.0015,9.8066,0.0081,-0.1252,0.0115,-1.37,-35.12,25.25,102.79,-86.22,-80.06
28252,52.41353,-1.54657,149.46,10.4,2,199.39,21 / 21,2833630,2019-09-06 19:03:20:312,-0.2525,-0.717,9.9722,0.0004,-0.0015,9.8066,-0.0013,-0.1151,-0.0028,-1.56,-35.31,25.81,99.96,-86.18,-80.69
28253,52.41353,-1.54657,149.46,10.4,2,199.39,21 / 21,2833728,2019-09-06 19:03:20:410,-0.2255,-0.7317,9.6576,0.0015,-0.001,9.8066,0.0043,-0.1278,-0.0042,-1.87,-35.31,25.75,99.85,-86.18,-80.8
28254,52.41353,-1.54657,149.46,10.4,2,199.39,21 / 21,2833829,2019-09-06 19:03:20:511,0.1124,-0.7381,9.6533,-0.0066,0.0013,9.8066,0.0115,-0.151,0.0215,-1.75,-34.75,25.63,99.93,-86.11,-80.8
28255,52.41353,-1.54657,149.46,10.4,2,199.39,21 / 21,2833929,2019-09-06 19:03:20:611,-0.1159,-0.3084,10.1241,-0.0146,-0.0026,9.8066,-0.0486,-0.1528,0.0096,-1.44,-35.37,25.69,101.87,-85.96,-81.23
28256,52.41353,-1.54657,149.46,10.4,2,199.39,21 / 21,2834029,2019-09-06 19:03:20:711,-0.6834,-0.0735,10.1013,-0.0111,-0.0061,9.8066,0.0364,-0.1794,0.0156,-1.69,-35.19,25.31,99.72,-85.82,-81.46
28257,52.41353,-1.54657,149.46,10.4,2,199.39,21 / 21,2834128,2019-09-06 19:03:20:810,-0.8439,-0.4353,10.013,-0.0046,-0.0073,9.8066,0.0262,-0.1881,-0.0228,-1.31,-34.75,25.69,100.05,-85.71,-83.42
28258,52.41353,-1.54657,149.46,10.4,2,199.39,21 / 21,2834228,2019-09-06 19:03:20:910,-0.4086,-0.3967,10.0702,0.0103,-0.0077,9.8066,0.0183,-0.2041,-0.0186,-0.62,-34.75,25.56,98.2,-85.84,-85.14
28259,52.41353,-1.54657,149.46,10.4,2,199.39,21 / 21,2834329,2019-09-06 19:03:21:011,-0.105,-0.4765,10.0561,0.018,-0.0086,9.8066,0.0068,-0.1932,-0.045,0.06,-34.94,25.06,99.37,-86.05,-86.07
28260,52.413105,-1.5468,149.19,1.99,3,207.9,21 / 21,2834429,2019-09-06 19:03:21:111,0.2738,-0.273,9.9206,0.0083,-0.0121,9.8066,0.0042,-0.2084,-0.0073,0.69,-34.87,25.69,99.35,-86.2,-87.9
28261,52.413105,-1.5468,149.19,1.99,3,207.9,21 / 21,2834528,2019-09-06 19:03:21:210,0.1005,-0.1333,9.5158,-0.0069,-0.0238,9.8065,-0.0043,-0.2128,0.0278,1.25,-35.06,25.44,96.74,-86.22,-90.81
28262,52.413105,-1.5468,149.19,1.99,3,207.9,21 / 21,2834628,2019-09-06 19:03:21:310,-0.6435,-0.1392,9.852,-0.0227,-0.0054,9.8066,0.0695,-0.2333,0.0466,1.69,-34.69,25.5,95.63,-85.91,-94.23
28263,52.413105,-1.5468,149.19,1.99,3,207.9,21 / 21,2834729,2019-09-06 19:03:21:411,-0.5229,-0.6008,9.7323,-0.0158,0.0007,9.8066,0.0259,-0.2238,0.0285,1.69,-34.5,25.69,93.91,-85.71,-96.07
28264,52.413105,-1.5468,149.19,1.99,3,207.9,21 / 21,2834829,2019-09-06 19:03:21:511,-0.8021,-0.5875,10.1525,-0.0179,-0.0184,9.8066,0.0319,-0.2555,0.0313,1.63,-34.69,26.19,92.25,-85.53,-98.17
28265,52.413105,-1.5468,149.19,1.99,3,207.9,21 / 21,2834929,2019-09-06 19:03:21:611,-0.8158,-0.2609,9.9207,-0.0126,-0.0155,9.8066,0.0641,-0.2718,0.0193,2.19,-34.44,25.56,89.06,-85.25,-101.55
28266,52.413105,-1.5468,149.19,1.99,3,207.9,21 / 21,2835028,2019-09-06 19:03:21:710,-1.1035,-1.257,9.7476,-0.0125,-0.0335,9.8066,0.0212,-0.2904,0.0092,3.0,-34.94,24.69,87.11,-85.09,-106.59
28267,52.413105,-1.5468,149.19,1.99,3,207.9,21 / 21,2835129,2019-09-06 19:03:21:811,-0.8774,-1.4684,9.8151,-0.0084,-0.0257,9.8065,0.0321,-0.3136,0.0012,3.44,-34.69,24.31,84.78,-84.98,-109.64
28268,52.413105,-1.5468,149.19,1.99,3,207.9,21 / 21,2835228,2019-09-06 19:03:21:910,-0.7502,-1.4142,9.8772,-0.0059,-0.0035,9.8066,0.0262,-0.3494,0.0154,3.38,-34.06,24.38,82.16,-84.88,-112.16
28269,52.413105,-1.5468,149.19,1.99,3,207.9,21 / 21,2835329,2019-09-06 19:03:22:011,-0.7283,-1.9822,9.5563,-0.0064,0.0152,9.8066,0.0075,-0.3385,0.0396,4.19,-34.19,23.88,84.78,-84.75,-112.06
28270,52.413105,-1.5468,149.19,1.99,3,207.9,21 / 21,2835428,2019-09-06 19:03:22:110,-1.172,-1.6503,10.1196,-0.0498,-0.0087,9.8064,0.0432,-0.4346,0.1454,3.81,-34.06,23.69,86.04,-84.21,-111.56
28271,52.413105,-1.5468,149.19,1.99,3,207.9,21 / 21,2835529,2019-09-06 19:03:22:211,-2.0647,-0.5951,10.0917,-0.0448,-0.0079,9.8065,-0.0058,-0.3985,0.0625,5.0,-34.0,23.0,90.38,-83.67,-111.1
28272,52.413105,-1.5468,149.19,1.99,3,207.9,21 / 21,2835628,2019-09-06 19:03:22:310,-1.981,-0.4638,10.5621,-0.0267,-0.0118,9.8066,-0.0529,-0.4488,0.0737,5.31,-34.25,22.38,91.55,-83.23,-111.54
28273,52.413105,-1.5468,149.19,1.99,3,207.9,21 / 21,2835728,2019-09-06 19:03:22:410,-2.0829,-0.8296,9.9568,-0.0039,0.0138,9.8066,-0.0585,-0.478,0.0358,5.13,-34.94,21.31,93.75,-83.09,-110.92
28274,52.413105,-1.5468,149.19,1.99,3,207.9,21 / 21,2835828,2019-09-06 19:03:22:510,-1.433,0.0927,9.5187,0.0056,0.0057,9.8065,-0.0225,-0.4961,0.0475,6.31,-36.0,20.06,98.31,-83.06,-110.32
28275,52.413105,-1.5468,149.19,1.99,3,207.9,21 / 21,2835928,2019-09-06 19:03:22:610,-1.4159,-0.0876,9.8119,-0.0026,0.0074,9.8066,-0.0374,-0.4815,0.0108,6.56,-36.19,19.06,102.41,-83.04,-109.95
28276,52.413105,-1.5468,149.19,1.99,3,207.9,21 / 21,2836028,2019-09-06 19:03:22:710,-1.0235,0.2983,10.2467,-0.022,-0.007,9.8066,-0.0091,-0.5346,0.0848,7.0,-35.44,18.75,101.7,-82.81,-110.76
28277,52.413105,-1.5468,149.19,1.99,3,207.9,21 / 21,2836128,2019-09-06 19:03:22:810,-0.8599,0.2555,9.9644,-0.0183,-0.0035,9.8066,-0.0004,-0.5187,0.0352,6.94,-35.87,18.44,103.75,-82.6,-110.98
28278,52.413105,-1.5468,149.19,1.99,3,207.9,21 / 21,2836228,2019-09-06 19:03:22:910,-0.9979,0.5346,10.1106,-0.0342,0.0089,9.8066,-0.0199,-0.5497,0.1153,7.5,-35.5,16.31,109.58,-82.18,-111.47
28279,52.413105,-1.5468,149.19,1.99,3,207.9,21 / 21,2836329,2019-09-06 19:03:23:011,-1.7411,0.1691,9.7335,-0.0334,0.0049,9.8065,-0.022,-0.5553,0.0916,7.63,-36.0,15.75,110.1,-81.76,-112.14
28280,52.413105,-1.5468,149.19,1.99,3,207.9,21 / 21,2836430,2019-09-06 19:03:23:112,-1.9614,1.1284,10.2,-0.0209,0.0047,9.8066,-0.0428,-0.5937,0.057,8.31,-35.69,15.13,111.87,-81.39,-113.25
28281,52.413105,-1.5468,149.19,1.99,3,207.9,21 / 21,2836529,2019-09-06 19:03:23:211,-0.9869,0.474,9.9423,-0.0085,-0.0063,9.8066,-0.013,-0.562,0.0196,8.94,-36.69,13.0,118.78,-81.18,-114.14
28282,52.413105,-1.5468,149.19,1.99,3,207.9,21 / 21,2836628,2019-09-06 19:03:23:310,-0.7359,-0.0693,9.5853,-0.0039,-0.0072,9.8066,0.0308,-0.5195,0.0234,9.0,-36.75,12.88,117.36,-81.23,-115.71
28283,52.413105,-1.5468,149.19,1.99,3,207.9,21 / 21,2836729,2019-09-06 19:03:23:411,-0.7016,-0.0924,9.9127,-0.0192,-0.0103,9.8066,-0.0047,-0.5058,0.0384,8.81,-36.19,12.5,115.61,-81.06,-117.61
28284,52.413105,-1.5468,149.19,1.99,3,207.9,21 / 21,2836828,2019-09-06 19:03:23:510,-0.6139,-0.3287,10.1435,-0.0286,-0.0036,9.8065,0.0173,-0.4432,0.0518,8.75,-36.87,11.25,120.67,-80.7,-119.72
28285,52.413105,-1.5468,149.19,1.99,3,207.9,21 / 21,2836928,2019-09-06 19:03:23:610,-1.2731,0.1472,10.0782,-0.0224,0.0024,9.8066,-0.0114,-0.4681,0.0813,9.19,-36.81,10.38,123.56,-80.46,-120.62
28286,52.413105,-1.5468,149.19,1.99,3,207.9,21 / 21,2837029,2019-09-06 19:03:23:711,-1.4184,0.0354,10.251,-0.03,-0.002,9.8066,-0.0113,-0.3976,0.0431,8.94,-36.25,9.56,123.12,-80.26,-121.0
28287,52.413105,-1.5468,149.19,1.99,3,207.9,21 / 21,2837132,2019-09-06 19:03:23:814,-2.4244,-0.4296,9.5435,-0.0257,-0.0088,9.8065,0.0175,-0.3912,0.0394,9.0,-36.19,9.25,125.88,-79.94,-122.54
28288,52.413105,-1.5468,149.19,1.99,3,207.9,21 / 21,2837229,2019-09-06 19:03:23:911,-2.713,-0.1567,9.7006,-0.0323,-0.0082,9.8065,-0.0474,-0.3611,0.0254,8.81,-36.56,8.06,129.19,-79.72,-124.15
28289,52.413105,-1.5468,149.19,1.99,3,207.9,21 / 21,2837329,2019-09-06 19:03:24:011,-1.9783,-0.2417,9.8794,-0.035,-0.0181,9.8065,-0.0443,-0.3036,0.019,8.75,-36.31,8.13,127.82,-79.59,-125.62
28290,52.413105,-1.5468,149.19,1.99,3,207.9,21 / 21,2837430,2019-09-06 19:03:24:112,-1.1979,-0.5179,10.2604,0.0002,-0.0049,9.8066,-0.0296,-0.2882,-0.0062,9.31,-36.75,7.38,131.15,-79.63,-126.87
28291,52.413105,-1.5468,149.19,1.99,3,207.9,21 / 21,2837529,2019-09-06 19:03:24:211,-0.2811,-0.6321,9.8998,0.0094,-0.0141,9.8066,0.0074,-0.2133,-0.0368,9.0,-36.31,7.06,129.84,-79.69,-127.8
28292,52.413105,-1.5468,149.19,1.99,3,207.9,21 / 21,2837629,2019-09-06 19:03:24:311,-0.7305,-0.9143,10.088,0.0069,-0.014,9.8066,0.0686,-0.1924,0.0188,8.5,-36.06,6.31,132.86,-79.9,-128.56
28293,52.413105,-1.5468,149.19,1.99,3,207.9,21 / 21,2837729,2019-09-06 19:03:24:411,-0.5023,-0.8345,10.2737,0.0179,-0.0033,9.8066,-0.0997,-0.1154,-0.0407,9.31,-36.25,6.63,128.38,-80.09,-128.78
28294,52.413105,-1.5468,149.19,1.99,3,207.9,21 / 21,2837829,2019-09-06 19:03:24:511,-1.1844,0.0237,9.9589,-0.0316,-0.0143,9.8065,-0.0227,-0.1619,0.0387,9.44,-36.0,5.63,131.27,-80.11,-130.28
28295,52.413105,-1.5468,149.19,1.99,3,207.9,21 / 21,2837929,2019-09-06 19:03:24:611,-1.718,-0.7929,9.9558,-0.0231,-0.0043,9.8066,-0.0083,-0.0902,0.0,9.19,-36.25,5.44,135.22,-80.06,-130.64
28296,52.413105,-1.5468,149.19,1.99,3,207.9,21 / 21,2838028,2019-09-06 19:03:24:710,-1.2827,0.0672,9.9514,-0.0159,-0.0134,9.8065,-0.0531,-0.0773,-0.0206,8.38,-35.94,5.38,134.13,-80.09,-131.8
28297,52.413105,-1.5468,149.19,1.99,3,207.9,21 / 21,2838128,2019-09-06 19:03:24:810,-0.2256,-0.3924,9.6764,-0.0288,-0.0147,9.8066,-0.0429,-0.1019,-0.0166,9.19,-35.37,5.44,132.98,-80.1,-133.06
28298,52.413105,-1.5468,149.19,1.99,3,207.9,21 / 21,2838228,2019-09-06 19:03:24:910,-0.5832,-0.1674,10.0526,0.0101,-0.0164,9.8066,0.0875,-0.0585,-0.0452,9.13,-35.94,6.06,128.73,-80.11,-133.9
28299,52.413105,-1.5468,149.19,1.99,3,207.9,21 / 21,2838329,2019-09-06 19:03:25:011,-0.249,-0.0109,10.4019,0.01,-0.0192,9.8066,0.0566,-0.0924,-0.0235,9.69,-35.56,4.94,131.49,-80.31,-135.69
28300,52.413105,-1.5468,149.19,1.99,3,207.9,21 / 21,2838428,2019-09-06 19:03:25:110,-1.4429,-0.1004,9.5385,-0.0319,-0.0303,9.8065,0.0321,-0.0965,0.012,9.88,-35.62,5.06,129.44,-80.34,-138.48
28301,52.413105,-1.5468,149.19,1.99,3,207.9,21 / 21,2838528,2019-09-06 19:03:25:210,-1.0838,-0.6904,10.2402,-0.0368,-0.0142,9.8066,0.027,-0.0573,-0.0107,10.19,-35.19,5.5,123.99,-80.37,-139.53
28302,52.413105,-1.5468,149.19,1.99,3,207.9,21 / 21,2838628,2019-09-06 19:03:25:310,-0.1879,-0.7811,9.9887,0.001,-0.0132,9.8066,0.0488,-0.0691,-0.0325,10.38,-35.56,4.63,127.46,-80.48,-140.83
28303,52.413105,-1.5468,149.19,1.99,3,207.9,21 / 21,2838729,2019-09-06 19:03:25:411,-1.113,-0.7731,9.846,0.0053,-0.0156,9.8066,0.0365,-0.0664,0.0282,10.69,-35.37,5.31,126.13,-80.48,-142.04
28304,52.413105,-1.5468,149.19,1.99,3,207.9,21 / 21,2838829,2019-09-06 19:03:25:511,-0.8806,-0.8422,10.4232,-0.0194,-0.0031,9.8066,0.032,-0.0074,-0.0147,11.06,-34.94,4.81,125.44,-80.44,-143.03
28305,52.413105,-1.5468,149.19,1.99,3,207.9,21 / 21,2838929,2019-09-06 19:03:25:611,-0.907,0.2004,10.2482,-0.0057,-0.0058,9.8065,-0.0162,-0.0069,-0.0119,10.81,-35.06,4.31,128.79,-80.35,-144.02
28306,52.413105,-1.5468,149.19,1.99,3,207.9,21 / 21,2839029,2019-09-06 19:03:25:711,-0.931,-1.5281,9.4767,-0.0146,-0.0052,9.8066,-0.0298,-0.0828,0.0031,10.44,-34.81,3.81,128.14,-80.27,-145.5
28307,52.413105,-1.5468,149.19,1.99,3,207.9,21 / 21,2839128,2019-09-06 19:03:25:810,-0.6818,-0.8935,9.8225,0.0105,-0.004,9.8066,-0.0747,-0.0587,0.0147,10.06,-34.87,3.5,128.29,-80.21,-145.44
28308,52.413105,-1.5468,149.19,1.99,3,207.9,21 / 21,2839229,2019-09-06 19:03:25:911,-1.7011,0.0509,10.2177,0.0127,-0.0069,9.8066,0.1399,-0.0246,0.0037,8.94,-35.31,3.81,128.59,-80.27,-145.31
28309,52.413105,-1.5468,149.19,1.99,3,207.9,21 / 21,2839331,2019-09-06 19:03:26:013,-0.3681,0.3893,10.4138,0.0082,-0.0015,9.8066,0.0529,-0.114,0.0324,9.63,-34.44,4.06,127.59,-80.32,-145.33
28310,52.413105,-1.5468,149.19,1.99,3,207.9,21 / 21,2839429,2019-09-06 19:03:26:111,-0.3261,0.7643,9.9896,-0.0128,-0.0011,9.8066,-0.0918,-0.1203,0.0637,10.06,-35.44,4.25,128.49,-80.33,-144.85
28311,52.413105,-1.5468,149.19,1.99,3,207.9,21 / 21,2839528,2019-09-06 19:03:26:210,-0.1395,-0.1769,9.9056,-0.0104,0.0014,9.8066,-0.027,-0.0343,-0.0466,9.19,-35.0,3.63,128.77,-80.28,-145.02
28312,52.413105,-1.5468,149.19,1.99,3,207.9,21 / 21,2839629,2019-09-06 19:03:26:311,-1.0321,-0.4699,9.4011,-0.0154,-0.0063,9.8066,-0.0332,-0.043,0.0275,9.19,-34.69,3.38,132.6,-80.28,-146.08
28313,52.413105,-1.5468,149.19,1.99,3,207.9,21 / 21,2839729,2019-09-06 19:03:26:411,0.0617,-0.3321,9.6691,-0.0085,-0.001,9.8066,-0.074,-0.0228,0.0088,9.06,-35.44,3.56,127.87,-80.33,-146.14
28314,52.413105,-1.5468,149.19,1.99,3,207.9,21 / 21,2839830,2019-09-06 19:03:26:512,-0.6548,-0.468,9.9027,0.0331,-0.0158,9.8065,0.1155,-0.0166,0.0187,7.75,-34.5,4.25,126.87,-80.61,-146.21
28315,52.413105,-1.5468,149.19,1.99,3,207.9,21 / 21,2839928,2019-09-06 19:03:26:610,-0.1529,-0.3182,10.0104,0.0203,-0.0018,9.8066,0.027,-0.0201,-0.0443,8.19,-33.75,5.75,116.44,-80.65,-146.39
28316,52.413105,-1.5468,149.19,1.99,3,207.9,21 / 21,2840029,2019-09-06 19:03:26:711,-0.6425,-1.4217,9.5935,0.0029,-0.0163,9.8066,-0.029,-0.0777,0.0155,8.69,-33.56,6.69,112.3,-80.68,-146.42
28317,52.413105,-1.5468,149.19,1.99,3,207.9,21 / 21,2840128,2019-09-06 19:03:26:810,0.8365,-0.0094,9.531,-0.0121,-0.009,9.8065,-0.0964,0.0303,-0.041,10.94,-33.12,6.13,116.25,-80.73,-147.44
28318,52.413105,-1.5468,149.19,1.99,3,207.9,21 / 21,2840229,2019-09-06 19:03:26:911,1.0887,-0.5815,10.0039,0.0155,0.0031,9.8065,-0.0586,0.0037,-0.0077,11.69,-34.19,5.25,120.85,-80.94,-147.13
28319,52.413105,-1.5468,149.19,1.99,3,207.9,21 / 21,2840328,2019-09-06 19:03:27:010,-0.0382,-0.5106,9.881,0.0177,-0.0025,9.8066,-0.0082,-0.0229,-0.0238,11.19,-34.37,4.75,120.58,-81.04,-147.05
28320,52.413105,-1.5468,149.19,1.99,3,207.9,21 / 21,2840428,2019-09-06 19:03:27:110,0.4496,-1.4284,9.877,-0.037,0.0046,9.8065,-0.1259,0.0666,-0.0282,11.5,-34.94,4.44,124.99,-80.98,-147.23
28321,52.413105,-1.5468,149.19,1.99,3,207.9,21 / 21,2840528,2019-09-06 19:03:27:210,-0.1996,-0.062,9.4795,-0.0155,-0.0101,9.8066,0.0346,-0.0358,0.0808,11.19,-34.69,3.81,124.8,-81.17,-147.22
28322,52.413105,-1.5468,149.19,1.99,3,207.9,21 / 21,2840628,2019-09-06 19:03:27:310,0.1498,-0.0276,9.9078,0.0033,-0.0058,9.8066,-0.019,0.0166,-0.0398,11.5,-35.12,4.13,124.54,-81.16,-147.38
28323,52.413105,-1.5468,149.19,1.99,3,207.9,21 / 21,2840728,2019-09-06 19:03:27:410,0.282,0.0693,10.0906,-0.0139,-0.0044,9.8066,-0.0053,-0.0546,0.0348,11.19,-35.5,3.56,124.04,-81.23,-148.04
28324,52.413105,-1.5468,149.19,1.99,3,207.9,21 / 21,2840828,2019-09-06 19:03:27:510,-0.0099,-1.1712,10.0284,0.0082,-0.0123,9.8066,0.0651,0.0376,-0.0247,10.94,-34.31,4.0,122.57,-81.29,-149.09
28325,52.413105,-1.5468,149.19,1.99,3,207.9,21 / 21,2840928,2019-09-06 19:03:27:610,-0.3204,-0.2613,9.8472,0.0111,-0.006,9.8066,0.1107,0.0051,0.0014,11.19,-34.94,3.88,122.57,-81.26,-149.85
28326,52.413105,-1.5468,149.19,1.99,3,207.9,21 / 21,2841028,2019-09-06 19:03:27:710,0.4587,-0.3237,9.6646,-0.0167,-0.0063,9.8066,-0.0512,0.016,0.0213,11.19,-34.94,3.94,121.97,-81.28,-150.56
28327,52.413105,-1.5468,149.19,1.99,3,207.9,21 / 21,2841129,2019-09-06 19:03:27:811,0.9154,-0.6537,10.0525,-0.0078,0.0043,9.8066,-0.0693,0.0203,0.0333,11.25,-34.69,4.5,117.52,-81.22,-151.07
28328,52.413105,-1.5468,149.19,1.99,3,207.9,21 / 21,2841229,2019-09-06 19:03:27:911,1.4177,-0.9732,10.0123,0.0248,0.0082,9.8066,0.0362,0.0268,-0.0302,11.31,-34.62,3.88,122.68,-81.25,-149.74
28329,52.413105,-1.5468,149.19,1.99,3,207.9,21 / 21,2841330,2019-09-06 19:03:28:012,0.7423,-1.7624,9.6419,0.0249,-0.0028,9.8065,0.049,0.0994,-0.0037,11.56,-33.56,3.5,121.89,-81.21,-149.96
28330,52.413105,-1.5468,149.19,1.99,3,207.9,21 / 21,2841429,2019-09-06 19:03:28:111,0.247,-0.459,10.3507,-0.0518,0.014,9.8064,0.0141,0.041,-0.0036,10.06,-34.31,3.19,126.99,-80.77,-150.83
28331,52.413105,-1.5468,149.19,1.99,3,207.9,21 / 21,2841529,2019-09-06 19:03:28:211,1.2268,-1.1261,9.3357,-0.0415,0.001,9.8065,-0.0057,-0.0213,0.0195,9.5,-33.87,2.56,126.96,-80.64,-151.26
28332,52.413105,-1.5468,149.19,1.99,3,207.9,21 / 21,2841628,2019-09-06 19:03:28:310,2.228,-0.8357,9.6178,0.0044,0.0088,9.8066,-0.0619,0.0036,0.0193,9.31,-33.94,3.19,127.83,-80.65,-150.99
28333,52.413105,-1.5468,149.19,1.99,3,207.9,21 / 21,2841729,2019-09-06 19:03:28:411,1.5168,-0.2631,9.5775,0.0247,0.0045,9.8066,-0.0151,-0.018,-0.0124,7.5,-34.12,2.69,129.32,-80.67,-149.97
28334,52.413105,-1.5468,149.19,1.99,3,207.9,21 / 21,2841828,2019-09-06 19:03:28:510,-0.0929,-0.6515,9.5124,0.0004,-0.0182,9.8066,-0.0376,0.012,0.0135,7.63,-33.75,4.31,123.14,-80.83,-150.74
28335,52.413105,-1.5468,149.19,1.99,3,207.9,21 / 21,2841929,2019-09-06 19:03:28:611,0.3121,-0.9347,10.1538,-0.0043,0.0002,9.8066,-0.0568,-0.0233,-0.0382,9.13,-34.87,5.19,118.48,-80.95,-150.49
28336,52.413105,-1.5468,149.19,1.99,3,207.9,21 / 21,2842028,2019-09-06 19:03:28:710,0.3173,-0.6718,9.8257,-0.0123,-0.0027,9.8066,-0.0676,0.0397,-0.0481,9.25,-34.87,4.56,117.53,-81.07,-151.32
28337,52.413105,-1.5468,149.19,1.99,3,207.9,21 / 21,2842129,2019-09-06 19:03:28:811,0.8611,-1.1374,9.7871,-0.0254,-0.0005,9.8066,-0.0394,-0.0266,0.064,10.38,-34.62,4.44,121.9,-81.01,-151.77
28338,52.413105,-1.5468,149.19,1.99,3,207.9,21 / 21,2842228,2019-09-06 19:03:28:910,1.0718,0.5499,10.0287,0.0046,0.0065,9.8066,0.1052,-0.047,0.0068,9.94,-34.44,3.94,122.14,-80.82,-151.22
28339,52.413105,-1.5468,149.19,1.99,3,207.9,21 / 21,2842330,2019-09-06 19:03:29:012,0.3753,-0.9259,9.7951,0.0134,0.0037,9.8066,0.0561,0.0034,-0.0026,10.19,-34.0,4.31,122.18,-80.72,-151.46
28340,52.413105,-1.5468,149.19,1.99,3,207.9,21 / 21,2842429,2019-09-06 19:03:29:111,0.6523,-0.6847,10.2205,-0.002,0.0074,9.8066,0.0061,-0.0029,0.0128,10.69,-33.5,3.75,121.87,-80.6,-151.05
28341,52.413105,-1.5468,149.19,1.99,3,207.9,21 / 21,2842528,2019-09-06 19:03:29:210,0.5396,0.059,10.1537,-0.0002,0.0072,9.8066,-0.0162,-0.0376,0.0323,10.44,-32.5,4.31,122.13,-80.54,-150.39
28342,52.413105,-1.5468,149.19,1.99,3,207.9,21 / 21,2842629,2019-09-06 19:03:29:311,0.5991,-0.149,9.2851,-0.0049,0.0066,9.8066,0.0157,-0.0663,0.0446,9.38,-32.12,4.06,123.48,-80.4,-149.33
28343,52.413105,-1.5468,149.19,1.99,3,207.9,21 / 21,2842729,2019-09-06 19:03:29:411,0.7757,0.4262,9.4558,-0.0193,0.0097,9.8066,-0.0085,-0.0862,0.0034,8.0,-32.25,4.0,124.32,-80.29,-148.95
28344,52.413105,-1.5468,149.19,1.99,3,207.9,21 / 21,2842829,2019-09-06 19:03:29:511,0.4617,-0.395,9.805,0.0146,-0.0115,9.8066,-0.025,-0.094,0.0072,8.88,-32.81,4.13,124.03,-80.39,-149.55
28345,52.413105,-1.5468,149.19,1.99,3,207.9,21 / 21,2842930,2019-09-06 19:03:29:612,0.5123,-0.0684,10.1927,0.0027,-0.0064,9.8066,-0.0044,-0.0445,-0.014,9.06,-33.87,4.13,124.36,-80.39,-150.01
28346,52.413105,-1.5468,149.19,1.99,3,207.9,21 / 21,2843029,2019-09-06 19:03:29:711,0.0962,-0.813,10.3729,-0.0225,-0.0094,9.8066,0.0745,-0.0365,-0.0472,9.13,-33.31,3.38,127.8,-80.44,-150.8
28347,52.413105,-1.5468,149.19,1.99,3,207.9,21 / 21,2843128,2019-09-06 19:03:29:810,-0.5231,1.123,10.6671,0.0153,0.0028,9.8065,0.2068,-0.1304,0.0582,10.13,-34.37,4.31,123.03,-80.4,-151.28
28348,52.413105,-1.5468,149.19,1.99,3,207.9,21 / 21,2843228,2019-09-06 19:03:29:910,-0.9492,-1.1045,8.8027,-0.0289,-0.0132,9.8065,0.1575,-0.0221,-0.0258,9.69,-34.44,4.06,122.49,-80.15,-152.72
28349,52.413105,-1.5468,149.19,1.99,3,207.9,21 / 21,2843331,2019-09-06 19:03:30:013,-0.7777,-1.3048,8.7979,-0.023,-0.0046,9.8065,-0.2543,0.0187,-0.0506,10.19,-33.94,3.31,126.39,-80.23,-153.19
28350,52.41319,-1.547455,147.22,7.32,3,290.04,21 / 21,2843429,2019-09-06 19:03:30:111,0.4205,-1.4977,8.8827,0.0614,0.014,9.8064,-0.2355,-0.0135,0.1203,9.25,-34.5,3.63,123.92,-80.49,-150.31
28351,52.41319,-1.547455,147.22,7.32,3,290.04,21 / 21,2843529,2019-09-06 19:03:30:211,1.4375,0.373,9.1526,-0.0078,0.0035,9.8065,-0.0511,-0.0326,-0.0789,9.31,-33.37,3.0,128.63,-80.46,-149.57
28352,52.41319,-1.547455,147.22,7.32,3,290.04,21 / 21,2843629,2019-09-06 19:03:30:311,1.4517,-0.7576,10.4255,0.0318,-0.018,9.8065,-0.079,-0.0164,-0.1008,9.56,-33.44,3.44,126.61,-80.88,-150.27
28353,52.41319,-1.547455,147.22,7.32,3,290.04,21 / 21,2843729,2019-09-06 19:03:30:411,-0.0245,-2.1707,10.5652,0.0274,-0.0142,9.8065,0.01,0.0155,0.0,8.88,-34.12,3.13,126.67,-81.21,-150.84
28354,52.41319,-1.547455,147.22,7.32,3,290.04,21 / 21,2843829,2019-09-06 19:03:30:511,0.2563,-0.0405,10.043,-0.0284,0.0051,9.8066,0.0579,-0.0741,0.0086,9.38,-33.75,3.63,121.22,-81.22,-151.55
28355,52.41319,-1.547455,147.22,7.32,3,290.04,21 / 21,2843929,2019-09-06 19:03:30:611,-0.5222,-0.3735,9.9217,-0.0204,-0.011,9.8066,-0.0121,0.0931,-0.0247,9.75,-33.69,3.75,120.36,-81.26,-152.23
28356,52.41319,-1.547455,147.22,7.32,3,290.04,21 / 21,2844029,2019-09-06 19:03:30:711,0.2115,-0.7126,9.8677,-0.008,-0.0167,9.8066,0.0136,0.015,0.0051,10.88,-32.81,3.63,118.35,-81.2,-153.92
28357,52.41319,-1.547455,147.22,7.32,3,290.04,21 / 21,2844129,2019-09-06 19:03:30:811,-0.1176,-0.4928,10.0662,0.0024,0.0006,9.8066,0.0456,0.0419,0.0319,10.5,-33.25,3.94,117.76,-81.18,-154.69
28358,52.41319,-1.547455,147.22,7.32,3,290.04,21 / 21,2844228,2019-09-06 19:03:30:910,0.4122,-1.2353,9.4118,-0.0021,-0.0072,9.8066,-0.0054,0.069,0.0007,10.19,-32.56,4.38,117.98,-81.13,-154.85
28359,52.41319,-1.547455,147.22,7.32,3,290.04,21 / 21,2844329,2019-09-06 19:03:31:011,0.3908,-0.2674,9.6658,-0.0042,0.0036,9.8066,0.0681,0.0579,0.0163,10.44,-31.69,4.69,112.36,-81.13,-155.18
28360,52.41319,-1.547455,147.22,7.32,3,290.04,21 / 21,2844430,2019-09-06 19:03:31:112,-0.4399,-0.7963,9.8365,0.0062,-0.0023,9.8066,0.0979,0.0855,-0.0069,8.5,-31.44,3.56,117.27,-81.07,-154.48
28361,52.41319,-1.547455,147.22,7.32,3,290.04,21 / 21,2844529,2019-09-06 19:03:31:211,0.7548,-1.4584,9.6263,0.005,-0.0109,9.8066,-0.075,0.0415,-0.0655,8.31,-30.62,3.31,122.53,-81.17,-154.86
28362,52.41319,-1.547455,147.22,7.32,3,290.04,21 / 21,2844630,2019-09-06 19:03:31:312,0.1795,-1.5709,9.4585,0.004,0.0003,9.8065,-0.0226,0.0583,-0.0023,7.5,-29.94,3.88,116.38,-81.2,-154.44
28363,52.41319,-1.547455,147.22,7.32,3,290.04,21 / 21,2844730,2019-09-06 19:03:31:412,-0.3566,-0.8571,9.764,-0.0147,-0.0028,9.8066,-0.0209,0.0289,0.0517,8.0,-29.62,5.0,110.46,-81.24,-154.62
28364,52.41319,-1.547455,147.22,7.32,3,290.04,21 / 21,2844829,2019-09-06 19:03:31:511,0.1325,-1.0628,9.8537,0.0363,0.0021,9.8065,-0.0968,0.0063,-0.0458,9.31,-31.69,5.06,112.63,-81.35,-153.91
28365,52.41319,-1.547455,147.22,7.32,3,290.04,21 / 21,2844928,2019-09-06 19:03:31:610,-0.696,-0.5517,9.9998,0.0278,0.0197,9.8065,0.1384,0.004,0.0456,9.63,-32.37,4.81,113.72,-81.27,-153.14
28366,52.41319,-1.547455,147.22,7.32,3,290.04,21 / 21,2845028,2019-09-06 19:03:31:710,-0.3111,-0.1263,10.1243,-0.041,0.0163,9.8065,0.1057,0.0306,0.0796,10.19,-34.37,4.5,116.03,-81.03,-152.62
28367,52.41319,-1.547455,147.22,7.32,3,290.04,21 / 21,2845128,2019-09-06 19:03:31:810,0.7725,-1.6504,9.3293,-0.0306,-0.0053,9.8066,-0.1047,0.0548,-0.0226,10.06,-35.19,4.56,116.65,-81.08,-152.5
28368,52.41319,-1.547455,147.22,7.32,3,290.04,21 / 21,2845228,2019-09-06 19:03:31:910,0.6124,-0.1232,10.1856,0.0176,0.0186,9.8065,0.0139,0.0122,0.0484,10.25,-35.37,4.63,117.44,-81.12,-151.37
28369,52.41319,-1.547455,147.22,7.32,3,290.04,21 / 21,2845328,2019-09-06 19:03:32:010,0.832,-1.3732,9.6287,0.0163,0.0104,9.8065,-0.0517,0.0475,0.046,9.44,-35.31,4.88,118.56,-81.2,-149.55
28370,52.41319,-1.547455,147.22,7.32,3,290.04,21 / 21,2845429,2019-09-06 19:03:32:111,0.1245,-0.907,10.0586,-0.0093,0.0321,9.8065,0.0477,0.0277,0.1021,9.44,-35.62,4.94,121.28,-81.0,-147.51
28371,52.41319,-1.547455,147.22,7.32,3,290.04,21 / 21,2845529,2019-09-06 19:03:32:211,1.2947,-0.9991,10.1105,-0.0152,0.027,9.8066,-0.0494,0.0515,0.0977,9.13,-35.75,4.63,123.1,-80.78,-145.76
28372,52.41319,-1.547455,147.22,7.32,3,290.04,21 / 21,2845629,2019-09-06 19:03:32:311,0.3976,-0.5881,9.9274,0.0188,0.0244,9.8066,0.0171,0.0997,0.0617,9.19,-36.12,5.0,125.1,-80.55,-143.77
28373,52.41319,-1.547455,147.22,7.32,3,290.04,21 / 21,2845729,2019-09-06 19:03:32:411,1.0366,-1.0858,9.995,-0.0002,0.017,9.8066,-0.0365,0.0655,0.0139,8.69,-36.25,4.44,131.43,-80.46,-141.46
28374,52.41319,-1.547455,147.22,7.32,3,290.04,21 / 21,2845828,2019-09-06 19:03:32:510,0.316,-0.7736,9.3031,0.013,0.0275,9.8066,-0.0388,0.0204,0.0846,9.31,-35.75,5.0,128.72,-80.33,-139.36
28375,52.41319,-1.547455,147.22,7.32,3,290.04,21 / 21,2845929,2019-09-06 19:03:32:611,2.3923,0.3315,9.7452,-0.0269,0.0374,9.8065,0.0307,0.0769,0.0524,8.75,-36.5,4.63,130.53,-79.92,-137.96
28376,52.41319,-1.547455,147.22,7.32,3,290.04,21 / 21,2846029,2019-09-06 19:03:32:711,1.0763,-1.1177,10.3444,0.0246,-0.0046,9.8066,0.0758,0.0981,-0.1064,9.25,-35.87,4.88,131.03,-80.11,-136.66
28377,52.41319,-1.547455,147.22,7.32,3,290.04,21 / 21,2846128,2019-09-06 19:03:32:810,0.8019,-0.9349,9.5511,0.0222,-0.0111,9.8065,-0.1028,0.0901,-0.0036,8.81,-35.75,4.94,130.83,-80.25,-136.58
28378,52.41319,-1.547455,147.22,7.32,3,290.04,21 / 21,2846230,2019-09-06 19:03:32:912,1.6168,-0.6408,9.2885,0.0103,-0.0125,9.8066,-0.0606,0.0136,-0.0729,9.31,-35.5,4.88,130.06,-80.45,-136.3
28379,52.41319,-1.547455,147.22,7.32,3,290.04,21 / 21,2846329,2019-09-06 19:03:33:011,3.2093,0.3243,10.4222,-0.0191,-0.0051,9.8065,-0.0069,0.0536,-0.0031,9.19,-35.44,4.63,129.56,-80.73,-136.21
28380,52.41319,-1.547455,147.22,7.32,3,290.04,21 / 21,2846431,2019-09-06 19:03:33:113,1.2771,-0.3034,8.6906,0.0121,-0.0149,9.8066,-0.0478,0.0894,-0.0404,9.06,-35.0,4.5,129.19,-80.97,-136.02
28381,52.41319,-1.547455,147.22,7.32,3,290.04,21 / 21,2846529,2019-09-06 19:03:33:211,1.4436,-1.4234,9.4392,0.0214,-0.0048,9.8066,-0.0572,0.0607,-0.0194,8.5,-34.75,4.75,129.04,-81.14,-135.74
28382,52.41319,-1.547455,147.22,7.32,3,290.04,21 / 21,2846628,2019-09-06 19:03:33:310,1.3286,-1.1991,9.8008,0.0061,0.0134,9.8065,0.0399,0.0329,0.0746,8.56,-35.06,4.69,130.46,-81.26,-133.45
28383,52.41319,-1.547455,147.22,7.32,3,290.04,21 / 21,2846729,2019-09-06 19:03:33:411,2.4001,-0.3468,10.4634,-0.0048,0.0204,9.8066,-0.1399,-0.0177,0.0299,8.31,-34.87,4.31,136.49,-81.24,-130.98
28384,52.41319,-1.547455,147.22,7.32,3,290.04,21 / 21,2846829,2019-09-06 19:03:33:511,2.7668,-0.1556,9.4146,0.0147,0.0104,9.8065,0.1568,-0.026,0.0267,8.88,-35.56,4.75,134.0,-81.2,-129.38
28385,52.41319,-1.547455,147.22,7.32,3,290.04,21 / 21,2846932,2019-09-06 19:03:33:614,2.4665,-0.2206,9.1774,-0.023,-0.0012,9.8066,0.1034,-0.0134,0.0019,8.13,-35.81,5.0,133.21,-81.01,-130.39
28386,52.41319,-1.547455,147.22,7.32,3,290.04,21 / 21,2847028,2019-09-06 19:03:33:710,2.2477,0.4273,9.5243,-0.0066,0.0049,9.8066,0.0227,-0.081,0.0277,8.94,-35.62,5.44,132.86,-80.82,-132.04
28387,52.41319,-1.547455,147.22,7.32,3,290.04,21 / 21,2847130,2019-09-06 19:03:33:812,2.1167,0.0387,10.631,0.022,0.0061,9.8065,0.0738,-0.0125,-0.0368,8.94,-36.44,5.75,128.68,-80.79,-132.05
28388,52.41319,-1.547455,147.22,7.32,3,290.04,21 / 21,2847229,2019-09-06 19:03:33:911,2.326,0.329,9.9812,-0.0137,-0.0157,9.8066,0.0967,-0.0363,-0.0009,8.44,-36.19,4.94,131.94,-80.84,-132.77
28389,52.41319,-1.547455,147.22,7.32,3,290.04,21 / 21,2847329,2019-09-06 19:03:34:011,2.225,0.1968,9.732,-0.0197,-0.0056,9.8066,-0.0837,-0.084,0.019,8.31,-36.5,5.69,127.1,-80.94,-132.79
28390,52.41319,-1.547455,147.22,7.32,3,290.04,21 / 21,2847428,2019-09-06 19:03:34:110,2.8078,0.4294,9.442,0.001,-0.0094,9.8065,-0.0615,-0.0789,-0.0336,8.56,-36.37,4.88,131.68,-81.01,-133.16
28391,52.41319,-1.547455,147.22,7.32,3,290.04,21 / 21,2847528,2019-09-06 19:03:34:210,2.9531,0.3379,9.5948,-0.0217,-0.0088,9.8065,-0.0129,-0.0712,0.0201,8.19,-36.0,5.31,130.63,-81.08,-133.9
28392,52.41319,-1.547455,147.22,7.32,3,290.04,21 / 21,2847629,2019-09-06 19:03:34:311,3.1189,0.6268,9.5232,0.0364,-0.0012,9.8065,-0.1066,-0.0961,0.0318,8.38,-36.44,4.75,130.93,-81.18,-133.15
28393,52.41319,-1.547455,147.22,7.32,3,290.04,21 / 21,2847728,2019-09-06 19:03:34:410,2.7673,0.7833,9.5946,0.0268,-0.0062,9.8066,0.0934,-0.0637,-0.0346,8.94,-36.44,5.06,130.79,-81.24,-133.77
28394,52.41319,-1.547455,147.22,7.32,3,290.04,21 / 21,2847829,2019-09-06 19:03:34:511,2.9547,-0.2065,10.2262,-0.016,-0.0072,9.8066,0.1218,-0.1085,0.0468,8.13,-36.69,4.25,135.18,-81.25,-134.4
28395,52.41319,-1.547455,147.22,7.32,3,290.04,21 / 21,2847929,2019-09-06 19:03:34:611,3.0092,0.1828,9.7635,-0.0007,-0.013,9.8066,-0.0707,-0.1245,-0.022,8.19,-37.06,4.38,134.15,-81.36,-135.59
28396,52.41319,-1.547455,147.22,7.32,3,290.04,21 / 21,2848029,2019-09-06 19:03:34:711,2.487,-0.5295,9.6241,0.0027,0.0018,9.8066,0.0858,-0.0808,0.0502,8.44,-36.94,4.25,133.96,-81.43,-135.66
28397,52.41319,-1.547455,147.22,7.32,3,290.04,21 / 21,2848128,2019-09-06 19:03:34:810,2.2723,0.375,9.7966,0.0038,0.0006,9.8066,0.0099,-0.0867,0.0165,7.94,-38.0,4.0,134.62,-81.36,-135.67
28398,52.41319,-1.547455,147.22,7.32,3,290.04,21 / 21,2848228,2019-09-06 19:03:34:910,2.1994,-0.0063,9.7817,-0.0061,-0.0055,9.8066,-0.0109,-0.1128,-0.014,8.0,-36.81,3.06,138.32,-81.47,-136.25
28399,52.41319,-1.547455,147.22,7.32,3,290.04,21 / 21,2848328,2019-09-06 19:03:35:010,2.2936,-0.0395,9.8013,-0.0136,-0.0056,9.8066,-0.0029,-0.1142,-0.0112,7.88,-37.0,3.56,133.08,-81.41,-137.04
28400,52.41319,-1.547455,147.22,7.32,3,290.04,21 / 21,2848429,2019-09-06 19:03:35:111,2.7979,-0.413,9.9974,-0.0012,-0.0099,9.8066,0.0609,-0.0867,0.0129,8.13,-36.5,3.31,136.77,-81.42,-138.0
28401,52.41319,-1.547455,147.22,7.32,3,290.04,21 / 21,2848529,2019-09-06 19:03:35:211,2.7665,-0.2108,9.9841,0.0013,-0.0046,9.8066,0.0387,-0.0992,0.0041,8.69,-36.62,3.63,131.62,-81.47,-138.9
28402,52.41319,-1.547455,147.22,7.32,3,290.04,21 / 21,2848629,2019-09-06 19:03:35:311,2.7859,-0.346,9.699,-0.002,-0.0037,9.8066,-0.0124,-0.0878,-0.0023,8.44,-37.5,3.69,131.13,-81.48,-139.68
28403,52.41319,-1.547455,147.22,7.32,3,290.04,21 / 21,2848729,2019-09-06 19:03:35:411,2.9024,-0.3881,9.5636,-0.0052,0.0037,9.8066,0.0313,-0.1127,0.055,7.81,-37.75,3.38,136.61,-81.42,-139.78
28404,52.41319,-1.547455,147.22,7.32,3,290.04,21 / 21,2848828,2019-09-06 19:03:35:510,2.9396,-0.3783,9.9564,0.0104,-0.0015,9.8066,-0.0203,-0.1164,-0.0066,7.5,-37.31,2.63,136.29,-81.47,-139.33
28405,52.41319,-1.547455,147.22,7.32,3,290.04,21 / 21,2848928,2019-09-06 19:03:35:610,3.0304,-0.2465,9.8958,0.0091,-0.0027,9.8066,0.0223,-0.0839,-0.0082,7.44,-37.12,3.0,136.78,-81.54,-139.16
28406,52.41319,-1.547455,147.22,7.32,3,290.04,21 / 21,2849029,2019-09-06 19:03:35:711,2.5879,-0.7057,9.6298,-0.009,-0.0038,9.8066,0.0547,-0.0717,0.0135,7.56,-37.31,2.81,136.0,-81.59,-139.38
28407,52.41319,-1.547455,147.22,7.32,3,290.04,21 / 21,2849129,2019-09-06 19:03:35:811,2.9761,-0.8105,9.6703,0.0016,-0.0064,9.8066,-0.0463,-0.0751,-0.0162,8.31,-37.44,2.31,140.49,-81.64,-139.8
28408,52.41319,-1.547455,147.22,7.32,3,290.04,21 / 21,2849229,2019-09-06 19:03:35:911,2.6073,-1.0787,9.7185,0.002,-0.0057,9.8066,-0.0051,-0.0675,0.004,7.94,-36.62,2.13,140.1,-81.81,-139.88
28409,52.41319,-1.547455,147.22,7.32,3,290.04,21 / 21,2849329,2019-09-06 19:03:36:011,2.3889,-0.605,9.886,0.0024,-0.0023,9.8066,-0.001,-0.0621,0.0062,8.19,-37.12,2.63,135.13,-81.89,-139.7
28410,52.41319,-1.547455,147.22,7.32,3,290.04,20 / 20,2849428,2019-09-06 19:03:36:110,2.0221,-0.5692,9.815,0.0117,-0.0027,9.8066,-0.006,-0.0577,-0.0035,7.88,-38.12,2.63,135.67,-82.0,-139.26
28411,52.41319,-1.547455,147.22,7.32,3,290.04,20 / 20,2849528,2019-09-06 19:03:36:210,2.0283,-0.5941,9.7771,0.0116,-0.0016,9.8066,-0.0037,-0.0315,0.0018,7.81,-38.19,2.19,140.67,-82.07,-138.88
28412,52.41319,-1.547455,147.22,7.32,3,290.04,20 / 20,2849629,2019-09-06 19:03:36:311,1.6672,-0.7171,9.8161,0.0012,-0.0038,9.8066,0.0248,-0.03,0.0145,7.56,-39.06,2.38,141.17,-82.14,-138.56
28413,52.41319,-1.547455,147.22,7.32,3,290.04,20 / 20,2849730,2019-09-06 19:03:36:412,1.1091,-0.7374,9.846,-0.0042,-0.0009,9.8066,-0.0156,-0.0203,0.0046,7.56,-38.31,1.44,145.41,-82.2,-138.57
28414,52.41319,-1.547455,147.22,7.32,3,290.04,20 / 20,2849829,2019-09-06 19:03:36:511,1.0539,-0.486,9.7408,0.0071,0.0012,9.8066,-0.0056,-0.0194,0.0092,7.75,-38.5,1.88,140.9,-82.24,-137.99
28415,52.41319,-1.547455,147.22,7.32,3,290.04,20 / 20,2849929,2019-09-06 19:03:36:611,0.8879,-0.5197,9.6725,0.0043,-0.0007,9.8066,0.0133,-0.0123,0.0132,7.13,-38.44,1.56,141.83,-82.26,-137.82
28416,52.41319,-1.547455,147.22,7.32,3,290.04,20 / 20,2850029,2019-09-06 19:03:36:711,0.8327,-0.4582,9.7516,0.0072,-0.0023,9.8066,0.0041,-0.0189,0.0023,7.69,-38.5,1.19,146.01,-82.35,-137.23
28417,52.41319,-1.547455,147.22,7.32,3,290.04,20 / 20,2850129,2019-09-06 19:03:36:811,0.7196,-0.5171,9.8379,0.0103,-0.0017,9.8066,-0.0002,-0.0173,-0.0023,7.69,-38.0,1.69,141.36,-82.42,-136.73
28418,52.41319,-1.547455,147.22,7.32,3,290.04,20 / 20,2850229,2019-09-06 19:03:36:911,0.67,-0.524,9.7966,0.0071,-0.0018,9.8066,-0.0025,-0.0083,0.0032,7.88,-38.06,1.69,141.46,-82.49,-136.39
28419,52.41319,-1.547455,147.22,7.32,3,290.04,20 / 20,2850329,2019-09-06 19:03:37:011,0.8263,-0.4088,9.7289,0.0077,-0.0037,9.8066,-0.0074,-0.0063,-0.0023,7.69,-38.62,1.5,141.97,-82.61,-135.86
28420,52.41319,-1.547455,147.22,7.32,3,290.04,20 / 20,2850429,2019-09-06 19:03:37:111,0.1158,-0.3823,9.8534,0.0083,-0.0008,9.8065,-0.0044,-0.0088,0.0053,8.0,-38.62,1.88,142.27,-82.7,-135.12
28421,52.41319,-1.547455,147.22,7.32,3,290.04,20 / 20,2850529,2019-09-06 19:03:37:211,-0.2361,-0.2596,9.8033,0.0046,-0.0002,9.8066,0.0239,0.0036,0.0138,7.88,-38.75,1.56,142.42,-82.73,-134.79
28422,52.41319,-1.547455,147.22,7.32,3,290.04,20 / 20,2850629,2019-09-06 19:03:37:311,-0.3421,-0.2048,9.8012,0.0052,-0.0015,9.8066,0.0248,-0.0061,0.0062,8.0,-38.25,1.56,142.21,-82.77,-134.42
28423,52.41319,-1.547455,147.22,7.32,3,290.04,20 / 20,2850729,2019-09-06 19:03:37:411,-0.1169,-0.1564,9.7598,0.004,-0.0039,9.8066,-0.0011,-0.0025,-0.0089,7.75,-37.62,1.31,147.07,-82.82,-134.33
28424,52.41319,-1.547455,147.22,7.32,3,290.04,20 / 20,2850829,2019-09-06 19:03:37:511,0.0812,-0.2937,9.8069,0.01,-0.0028,9.8066,-0.0057,-0.0105,-0.0009,8.0,-38.0,1.56,142.5,-82.95,-133.46
28425,52.41319,-1.547455,147.22,7.32,3,290.04,20 / 20,2850929,2019-09-06 19:03:37:611,-0.1774,-0.3147,9.8793,0.0065,-0.0042,9.8066,-0.004,0.0016,0.008,8.19,-37.94,1.38,147.53,-83.02,-133.08
28426,52.41319,-1.547455,147.22,7.32,3,290.04,20 / 20,2851028,2019-09-06 19:03:37:710,-0.2178,-0.2991,9.791,0.0068,-0.0016,9.8066,0.0079,0.0029,0.006,7.38,-38.62,1.69,143.7,-83.09,-132.66
28427,52.41319,-1.547455,147.22,7.32,3,290.04,20 / 20,2851128,2019-09-06 19:03:37:810,-0.0704,-0.3349,9.7848,0.006,-0.003,9.8066,0.0005,0.0003,-0.0009,7.5,-38.31,1.31,147.87,-83.18,-132.17
28428,52.41319,-1.547455,147.22,7.32,3,290.04,20 / 20,2851228,2019-09-06 19:03:37:910,-0.0389,-0.2498,9.8072,0.0081,-0.002,9.8066,0.0069,-0.0068,0.005,7.81,-38.5,1.88,143.27,-83.28,-131.36
28429,52.41319,-1.547455,147.22,7.32,3,290.04,20 / 20,2851328,2019-09-06 19:03:38:010,-0.2607,-0.2148,9.7923,0.0055,-0.0016,9.8066,-0.0095,-0.0117,-0.008,7.75,-39.06,2.31,143.79,-83.33,-130.96
28430,52.41319,-1.547455,147.22,7.32,3,290.04,20 / 20,2851429,2019-09-06 19:03:38:111,-0.1902,-0.2529,9.8305,0.0054,-0.0009,9.8066,0.0043,0.0027,0.007,8.38,-38.19,1.5,143.71,-83.41,-130.36
28431,52.41319,-1.547455,147.22,7.32,3,290.04,20 / 20,2851529,2019-09-06 19:03:38:211,0.0288,-0.3747,9.8286,0.0063,-0.0015,9.8066,0.012,-0.0072,0.0046,7.38,-37.62,1.25,149.79,-83.46,-129.88
28432,52.41319,-1.547455,147.22,7.32,3,290.04,20 / 20,2851629,2019-09-06 19:03:38:311,-0.2557,-0.3233,9.8523,0.006,-0.0017,9.8066,0.0103,0.0021,-0.0061,7.81,-37.87,1.38,149.17,-83.52,-129.39
28433,52.41319,-1.547455,147.22,7.32,3,290.04,20 / 20,2851729,2019-09-06 19:03:38:411,-0.2653,-0.217,9.8074,0.0063,0.0001,9.8066,-0.0087,-0.0042,-0.001,7.63,-37.87,1.44,149.6,-83.59,-128.6
28434,52.41319,-1.547455,147.22,7.32,3,290.04,20 / 20,2851829,2019-09-06 19:03:38:511,-0.4016,-0.2573,9.765,0.006,-0.0015,9.8066,-0.0032,-0.0027,0.0069,7.69,-38.37,1.31,149.98,-83.66,-127.86
28435,52.41319,-1.547455,147.22,7.32,3,290.04,20 / 20,2851928,2019-09-06 19:03:38:610,-0.0795,-0.2927,9.7858,0.0045,-0.0009,9.8066,0.0157,-0.0025,0.0021,7.81,-38.62,1.69,145.47,-83.71,-127.44
28436,52.41319,-1.547455,147.22,7.32,3,290.04,20 / 20,2852028,2019-09-06 19:03:38:710,-0.3137,-0.2782,9.8115,0.007,-0.0013,9.8066,0.014,-0.0057,0.0014,7.56,-38.81,1.88,145.82,-83.79,-126.72
28437,52.41319,-1.547455,147.22,7.32,3,290.04,20 / 20,2852128,2019-09-06 19:03:38:810,-0.2467,-0.3376,9.9089,0.0078,0.0002,9.8066,-0.0108,-0.0106,-0.0055,7.75,-38.75,1.44,151.18,-83.84,-126.06
28438,52.41319,-1.547455,147.22,7.32,3,290.04,20 / 20,2852228,2019-09-06 19:03:38:910,-0.3865,-0.2261,9.7865,0.0044,0.0006,9.8066,-0.0017,-0.0012,0.011,7.69,-38.06,1.19,151.24,-83.89,-125.48
28439,52.41319,-1.547455,147.22,7.32,3,290.04,20 / 20,2852329,2019-09-06 19:03:39:011,-0.0878,-0.3171,9.8165,0.004,0.0002,9.8066,0.0212,-0.006,0.0061,7.38,-38.37,1.56,146.77,-83.93,-124.76
28440,52.413277,-1.548021,147.06,0.0,2,293.4,21 / 21,2852428,2019-09-06 19:03:39:110,-0.3621,-0.3269,9.8211,0.0068,-0.0022,9.8066,0.0115,-0.0059,-0.0059,7.63,-38.25,1.75,146.9,-84.0,-124.21
28441,52.413277,-1.548021,147.06,0.0,2,293.4,21 / 21,2852529,2019-09-06 19:03:39:211,-0.4363,-0.2768,9.836,0.0112,-0.0013,9.8066,0.0092,0.0127,0.0114,7.75,-38.12,1.38,152.43,-84.05,-123.4
28442,52.413277,-1.548021,147.06,0.0,2,293.4,21 / 21,2852629,2019-09-06 19:03:39:311,-0.307,-0.2351,9.7999,0.0025,0.0006,9.8066,-0.0062,-0.0176,-0.0102,7.88,-38.94,1.13,153.14,-84.09,-122.64
28443,52.413277,-1.548021,147.06,0.0,2,293.4,21 / 21,2852729,2019-09-06 19:03:39:411,-0.1407,-0.3403,9.8458,0.0034,0.0,9.8066,-0.0162,0.001,-0.0045,7.19,-38.37,1.38,153.73,-84.13,-122.12
28444,52.413277,-1.548021,147.06,0.0,2,293.4,21 / 21,2852829,2019-09-06 19:03:39:511,-0.3549,-0.318,9.8435,0.0052,-0.0011,9.8066,0.0125,-0.0137,0.0177,7.56,-38.5,1.31,153.5,-84.17,-121.6
28445,52.413277,-1.548021,147.06,0.0,2,293.4,21 / 21,2852929,2019-09-06 19:03:39:611,-0.0528,-0.3284,9.9514,0.0056,0.0019,9.8066,0.018,-0.0044,-0.0006,7.63,-38.31,1.75,148.95,-84.21,-120.79
28446,52.413277,-1.548021,147.06,0.0,2,293.4,21 / 21,2853028,2019-09-06 19:03:39:710,-0.2941,-0.2157,9.9666,0.0036,0.0002,9.8066,-0.0208,-0.0103,-0.0128,7.63,-37.56,0.94,154.52,-84.22,-120.03
28447,52.413277,-1.548021,147.06,0.0,2,293.4,21 / 21,2853129,2019-09-06 19:03:39:811,-0.3645,-0.2894,9.9017,0.0046,-0.0002,9.8066,-0.0044,-0.0066,0.0064,7.56,-38.0,1.88,149.85,-84.27,-119.38
28448,52.413277,-1.548021,147.06,0.0,2,293.4,21 / 21,2853229,2019-09-06 19:03:39:911,-0.2915,-0.4142,9.8692,0.0064,0.0009,9.8066,0.0163,-0.0057,0.0161,7.88,-38.06,2.06,150.34,-84.32,-118.57
28449,52.413277,-1.548021,147.06,0.0,2,293.4,21 / 21,2853329,2019-09-06 19:03:40:011,-0.1017,-0.2589,9.9232,0.0039,0.0009,9.8066,0.0055,-0.0094,-0.0051,7.63,-37.44,2.13,150.4,-84.33,-118.12
28450,52.413277,-1.548021,147.06,0.0,2,293.4,20 / 21,2853429,2019-09-06 19:03:40:111,-0.3698,-0.28,9.9477,0.0047,0.0009,9.8066,-0.0117,-0.0123,-0.0081,7.56,-38.62,1.75,151.18,-84.35,-117.66
28451,52.413277,-1.548021,147.06,0.0,2,293.4,20 / 21,2853529,2019-09-06 19:03:40:211,-0.4483,-0.1854,9.8759,0.0061,-0.0008,9.8066,0.014,-0.0009,0.0168,7.88,-39.31,1.38,156.75,-84.39,-116.8
28452,52.413277,-1.548021,147.06,0.0,2,293.4,20 / 21,2853629,2019-09-06 19:03:40:311,-0.4051,-0.236,9.788,0.0032,0.0004,9.8066,0.0123,0.0023,0.0072,7.88,-38.37,2.0,152.0,-84.42,-116.0
28453,52.413277,-1.548021,147.06,0.0,2,293.4,20 / 21,2853730,2019-09-06 19:03:40:412,-0.6525,-0.2876,9.7475,0.0021,0.0016,9.8066,-0.0052,-0.0236,-0.0114,7.56,-38.56,1.81,152.56,-84.43,-115.53
28454,52.413277,-1.548021,147.06,0.0,2,293.4,20 / 21,2853829,2019-09-06 19:03:40:511,-0.4333,-0.2804,9.7219,0.0056,-0.0004,9.8066,-0.01,0.0018,0.0042,7.31,-38.12,1.13,158.18,-84.45,-114.73
28455,52.413277,-1.548021,147.06,0.0,2,293.4,20 / 21,2853928,2019-09-06 19:03:40:610,-0.4527,-0.3833,9.9548,0.0064,-0.0013,9.8066,0.0077,0.002,0.0211,7.44,-37.87,1.69,152.96,-84.49,-114.18
28456,52.413277,-1.548021,147.06,0.0,2,293.4,20 / 21,2854029,2019-09-06 19:03:40:711,-0.4869,-0.3765,9.8861,0.0033,0.0011,9.8066,0.014,-0.0038,-0.0035,7.44,-37.5,1.25,158.68,-84.49,-113.63
28457,52.413277,-1.548021,147.06,0.0,2,293.4,20 / 21,2854129,2019-09-06 19:03:40:811,-0.1392,-0.3722,10.0072,0.0023,-0.0004,9.8066,-0.0158,-0.0042,-0.0109,8.0,-38.19,1.75,153.97,-84.49,-113.09
28458,52.413277,-1.548021,147.06,0.0,2,293.4,20 / 21,2854229,2019-09-06 19:03:40:911,-0.5287,-0.3736,9.9596,0.0035,0.0005,9.8066,0.0042,-0.0138,0.0093,7.81,-38.25,1.38,159.43,-84.53,-112.46
28459,52.413277,-1.548021,147.06,0.0,2,293.4,20 / 21,2854329,2019-09-06 19:03:41:011,-0.5514,-0.2724,9.8045,0.0024,0.0011,9.8066,0.0007,-0.0077,0.0001,7.63,-38.44,2.06,154.65,-84.53,-112.07
28460,52.413277,-1.548021,147.06,0.0,2,293.4,21 / 21,2854430,2019-09-06 19:03:41:112,-0.6091,-0.3312,9.8964,0.0029,0.0007,9.8066,-0.0127,-0.0163,-0.0124,7.44,-38.69,2.38,154.91,-84.52,-111.59
28461,52.413277,-1.548021,147.06,0.0,2,293.4,21 / 21,2854529,2019-09-06 19:03:41:211,-0.9339,-0.3553,9.7757,0.0052,-0.0004,9.8066,-0.0092,-0.0218,-0.0146,7.19,-38.37,1.75,154.87,-84.53,-111.28
28462,52.413277,-1.548021,147.06,0.0,2,293.4,21 / 21,2854630,2019-09-06 19:03:41:312,-0.5564,-0.3658,9.8996,-0.0026,0.0029,9.8066,0.0113,-0.011,0.0047,7.75,-38.06,2.19,155.45,-84.54,-110.91
28463,52.413277,-1.548021,147.06,0.0,2,293.4,21 / 21,2854730,2019-09-06 19:03:41:412,-0.8201,-0.2734,9.7874,0.0036,0.0003,9.8066,-0.0068,-0.0024,0.0081,7.44,-37.81,0.69,160.87,-84.52,-110.59
28464,52.413277,-1.548021,147.06,0.0,2,293.4,21 / 21,2854828,2019-09-06 19:03:41:510,-0.9899,-0.2343,9.7384,0.0007,-0.0002,9.8066,0.0161,-0.01,0.0083,7.38,-37.5,1.38,160.89,-84.53,-110.3
28465,52.413277,-1.548021,147.06,0.0,2,293.4,21 / 21,2854928,2019-09-06 19:03:41:610,-0.8575,-0.2464,9.7916,0.0022,0.0008,9.8066,-0.0101,-0.0108,0.0021,7.94,-37.25,1.44,161.05,-84.54,-109.9
28466,52.413277,-1.548021,147.06,0.0,2,293.4,21 / 21,2855029,2019-09-06 19:03:41:711,-0.8388,-0.3175,9.7833,0.0073,-0.0017,9.8066,-0.008,-0.0179,-0.0037,8.25,-38.37,1.38,161.39,-84.53,-109.65
28467,52.413277,-1.548021,147.06,0.0,2,293.4,21 / 21,2855129,2019-09-06 19:03:41:811,-0.744,-0.2398,9.8945,0.005,0.0007,9.8066,0.0069,-0.0238,0.002,7.94,-37.62,1.19,161.81,-84.56,-109.02
28468,52.413277,-1.548021,147.06,0.0,2,293.4,21 / 21,2855228,2019-09-06 19:03:41:910,-0.587,-0.3796,9.9461,0.0023,0.0008,9.8066,-0.0002,-0.026,0.0015,8.31,-38.12,1.0,162.02,-84.57,-108.69
28469,52.413277,-1.548021,147.06,0.0,2,293.4,21 / 21,2855328,2019-09-06 19:03:42:010,-0.8509,-0.2232,9.8297,0.0029,0.0009,9.8066,-0.005,-0.0138,0.0065,7.69,-37.81,1.31,162.21,-84.57,-108.43
28470,52.413277,-1.548021,147.06,0.0,2,293.4,21 / 21,2855430,2019-09-06 19:03:42:112,-0.9199,-0.2996,9.8291,0.0019,0.0004,9.8066,0.0076,-0.0153,0.0103,7.13,-37.44,1.0,162.39,-84.57,-108.02
28471,52.413277,-1.548021,147.06,0.0,2,293.4,21 / 21,2855528,2019-09-06 19:03:42:210,-0.9427,-0.13,9.8865,0.0021,-0.0017,9.8066,-0.0168,-0.0162,-0.0033,7.69,-37.62,1.13,162.58,-84.59,-107.87
28472,52.413277,-1.548021,147.06,0.0,2,293.4,21 / 21,2855629,2019-09-06 19:03:42:311,-1.0288,-0.0765,9.8319,0.0004,-0.0013,9.8066,-0.0102,-0.0422,0.0004,7.63,-38.0,1.38,162.74,-84.59,-107.64
28473,52.413277,-1.548021,147.06,0.0,2,293.4,21 / 21,2855729,2019-09-06 19:03:42:411,-0.9582,-0.39,9.7515,-0.0017,-0.0002,9.8066,0.0054,-0.0303,-0.001,7.63,-37.94,1.63,157.71,-84.59,-107.65
28474,52.413277,-1.548021,147.06,0.0,2,293.4,21 / 21,2855828,2019-09-06 19:03:42:510,-2.1405,-0.1692,9.7404,-0.0001,0.0002,9.8066,0.001,-0.047,0.0115,7.56,-38.06,1.25,162.59,-84.6,-107.85
28475,52.413277,-1.548021,147.06,0.0,2,293.4,21 / 21,2855928,2019-09-06 19:03:42:610,-1.6598,-0.0806,9.7368,-0.0034,-0.0001,9.8066,0.0048,-0.0398,0.0009,7.0,-37.81,1.31,162.36,-84.59,-108.28
28476,52.413277,-1.548021,147.06,0.0,2,293.4,21 / 21,2856029,2019-09-06 19:03:42:711,-2.0918,-0.1108,9.6592,0.0016,0.0026,9.8066,0.0023,-0.049,0.0245,7.63,-37.5,1.38,162.2,-84.54,-108.28
28477,52.413277,-1.548021,147.06,0.0,2,293.4,21 / 21,2856128,2019-09-06 19:03:42:810,-2.8281,-0.4143,9.7948,0.0033,0.0011,9.8066,0.0362,-0.0647,-0.0005,6.88,-37.37,1.88,156.16,-84.51,-109.14
28478,52.413277,-1.548021,147.06,0.0,2,293.4,21 / 21,2856229,2019-09-06 19:03:42:911,-2.6419,-0.2226,9.6139,-0.006,0.0047,9.8066,0.0212,-0.0874,0.0215,7.06,-37.25,2.0,156.05,-84.46,-109.39
28479,52.413277,-1.548021,147.06,0.0,2,293.4,21 / 21,2856329,2019-09-06 19:03:43:011,-2.7048,-0.3699,9.4974,-0.0009,0.0058,9.8066,-0.0495,-0.0992,0.0222,6.75,-37.37,2.75,150.97,-84.38,-109.07
28480,52.413277,-1.548021,147.06,0.0,2,293.4,21 / 21,2856429,2019-09-06 19:03:43:111,-1.7948,0.0132,9.6372,0.0079,0.0114,9.8066,-0.0497,-0.1121,0.031,7.19,-37.25,2.38,157.54,-84.27,-107.61
28481,52.413277,-1.548021,147.06,0.0,2,293.4,21 / 21,2856529,2019-09-06 19:03:43:211,-3.1353,-0.0258,9.8392,0.0048,0.0149,9.8066,0.0053,-0.1494,0.0416,6.94,-37.31,1.69,158.26,-84.14,-106.78
28482,52.413277,-1.548021,147.06,0.0,2,293.4,21 / 21,2856628,2019-09-06 19:03:43:310,-2.1323,0.2601,9.6928,-0.0012,0.0127,9.8066,-0.0016,-0.1431,0.0397,6.0,-38.37,1.25,164.76,-83.92,-105.72
28483,52.413277,-1.548021,147.06,0.0,2,293.4,21 / 21,2856729,2019-09-06 19:03:43:411,-2.1547,0.6038,9.5367,-0.0005,0.0136,9.8066,-0.0709,-0.1797,0.0386,5.75,-38.5,0.88,165.33,-83.78,-105.0
28484,52.413277,-1.548021,147.06,0.0,2,293.4,21 / 21,2856831,2019-09-06 19:03:43:513,-2.3051,0.3174,9.6849,0.0034,0.0105,9.8066,-0.055,-0.1776,0.0258,5.5,-38.37,0.69,166.02,-83.69,-103.99
28485,52.413277,-1.548021,147.06,0.0,2,293.4,21 / 21,2856929,2019-09-06 19:03:43:611,-1.2651,0.4938,9.9291,0.0035,0.0094,9.8066,0.0257,-0.2375,0.0429,5.81,-37.69,0.75,166.53,-83.52,-103.38
28486,52.413277,-1.548021,147.06,0.0,2,293.4,21 / 21,2857028,2019-09-06 19:03:43:710,-2.0628,0.848,9.6578,0.0049,0.007,9.8066,-0.0126,-0.2376,0.0161,5.06,-37.44,-0.5,172.95,-83.41,-102.98
28487,52.413277,-1.548021,147.06,0.0,2,293.4,21 / 21,2857129,2019-09-06 19:03:43:811,-2.1713,1.7092,10.171,0.0161,0.0228,9.8066,-0.0526,-0.2741,0.1054,4.63,-36.62,-0.75,179.6,-83.19,-102.05
28488,52.413277,-1.548021,147.06,0.0,2,293.4,21 / 21,2857228,2019-09-06 19:03:43:910,-1.1895,1.3207,10.1189,0.01,-0.008,9.8066,-0.0705,-0.2998,-0.017,4.94,-37.75,-0.81,179.7,-82.96,-101.88
28489,52.413277,-1.548021,147.06,0.0,2,293.4,21 / 21,2857328,2019-09-06 19:03:44:010,-0.6108,1.0061,10.9575,-0.0074,-0.0052,9.8066,-0.0114,-0.3592,0.0256,4.63,-37.87,-1.25,178.58,-83.0,-104.01
28490,52.413277,-1.548021,147.06,0.0,2,293.4,21 / 21,2857429,2019-09-06 19:03:44:111,-0.874,1.0596,9.9816,-0.0469,0.0243,9.8065,0.0423,-0.3558,0.0528,4.0,-38.06,-1.44,178.79,-82.91,-106.61
28491,52.413277,-1.548021,147.06,0.0,2,293.4,21 / 21,2857528,2019-09-06 19:03:44:210,-1.2776,1.4971,9.1151,-0.0347,0.0244,9.8065,0.0838,-0.3952,0.0798,3.5,-38.25,-2.0,182.05,-82.5,-112.26
28492,52.413277,-1.548021,147.06,0.0,2,293.4,21 / 21,2857629,2019-09-06 19:03:44:311,-1.3273,2.7237,9.5907,-0.0178,0.0421,9.8065,0.0623,-0.448,0.1216,2.81,-38.25,-2.44,183.08,-81.76,-115.99
28493,52.413277,-1.548021,147.06,0.0,2,293.4,21 / 21,2857728,2019-09-06 19:03:44:410,-0.433,2.4889,9.8977,-0.0331,0.0425,9.8065,0.0428,-0.4688,0.0578,2.25,-37.31,-1.87,185.55,-81.28,-118.46
28494,52.413277,-1.548021,147.06,0.0,2,293.4,21 / 21,2857828,2019-09-06 19:03:44:510,-1.1281,2.6424,9.5672,-0.0277,0.0462,9.8064,0.0977,-0.4844,0.0898,1.63,-38.31,-2.19,184.17,-80.71,-121.82
28495,52.413277,-1.548021,147.06,0.0,2,293.4,21 / 21,2857929,2019-09-06 19:03:44:611,1.3064,1.111,10.0773,-0.0139,0.0077,9.8065,-0.0695,-0.4713,-0.0291,1.25,-38.31,-3.56,196.31,-80.35,-124.13
28496,52.413277,-1.548021,147.06,0.0,2,293.4,21 / 21,2858028,2019-09-06 19:03:44:710,0.9689,1.428,10.0836,0.0015,-0.0685,9.8063,-0.1131,-0.4638,-0.0439,1.38,-38.12,-3.87,195.99,-80.51,-125.41
28497,52.413277,-1.548021,147.06,0.0,2,293.4,21 / 21,2858128,2019-09-06 19:03:44:810,0.5856,-0.2352,10.4696,0.002,-0.04,9.8065,-0.1841,-0.5016,0.0468,1.13,-38.19,-5.12,200.41,-81.27,-125.23
28498,52.413277,-1.548021,147.06,0.0,2,293.4,21 / 21,2858228,2019-09-06 19:03:44:910,-0.8963,0.2178,10.7628,-0.0074,0.0313,9.8065,0.0101,-0.4443,0.0454,0.13,-38.12,-5.0,205.32,-81.31,-125.45
28499,52.413277,-1.548021,147.06,0.0,2,293.4,21 / 21,2858328,2019-09-06 19:03:45:010,1.2089,1.8835,10.0838,0.0113,0.0519,9.8064,0.0283,-0.4906,0.1788,-0.69,-38.25,-5.0,209.38,-80.74,-126.09
28500,52.413277,-1.548021,147.06,0.0,2,293.4,21 / 21,2858428,2019-09-06 19:03:45:110,0.992,3.1676,9.616,0.005,0.0699,9.8063,0.0212,-0.44,0.0947,-1.75,-38.19,-5.19,212.14,-79.8,-128.19
28501,52.413277,-1.548021,147.06,0.0,2,293.4,21 / 21,2858528,2019-09-06 19:03:45:210,3.0347,3.0467,10.2189,-0.0272,0.0734,9.8062,-0.1984,-0.4279,0.0014,-2.19,-37.69,-5.44,210.58,-79.39,-130.04
28502,52.413277,-1.548021,147.06,0.0,2,293.4,21 / 21,2858628,2019-09-06 19:03:45:310,0.53,2.1389,9.1234,-0.0113,-0.0188,9.8066,-0.2087,-0.3882,0.0652,-3.19,-37.44,-5.69,216.97,-79.18,-131.29
28503,52.413277,-1.548021,147.06,0.0,2,293.4,21 / 21,2858728,2019-09-06 19:03:45:410,1.5671,1.3655,10.1181,-0.0075,0.023,9.8066,0.0569,-0.4545,0.008,-3.69,-37.56,-6.5,220.67,-79.08,-132.57
28504,52.413277,-1.548021,147.06,0.0,2,293.4,21 / 21,2858829,2019-09-06 19:03:45:511,2.0114,0.6294,10.2121,-0.0018,-0.0207,9.8066,-0.0038,-0.5673,0.0919,-4.25,-37.56,-7.12,221.15,-79.06,-132.71
28505,52.413277,-1.548021,147.06,0.0,2,293.4,21 / 21,2858929,2019-09-06 19:03:45:611,0.8492,1.4872,10.1157,-0.0016,-0.0172,9.8065,-0.0952,-0.4424,0.0638,-5.44,-38.06,-6.37,225.55,-79.05,-133.03
28506,52.413277,-1.548021,147.06,0.0,2,293.4,21 / 21,2859029,2019-09-06 19:03:45:711,1.0213,-0.3939,9.5258,0.0034,0.0209,9.8065,-0.0984,-0.4617,0.1061,-6.31,-36.87,-6.75,230.79,-78.93,-133.2
28507,52.413277,-1.548021,147.06,0.0,2,293.4,21 / 21,2859129,2019-09-06 19:03:45:811,1.133,-0.6565,9.7961,0.0051,0.0292,9.8066,0.0928,-0.4033,0.014,-6.87,-37.31,-6.44,235.24,-78.77,-134.09
28508,52.413277,-1.548021,147.06,0.0,2,293.4,21 / 21,2859232,2019-09-06 19:03:45:914,1.7911,-0.7316,10.2368,0.0006,-0.0083,9.8066,0.088,-0.4252,0.1321,-7.12,-37.5,-6.31,234.86,-78.78,-134.74
28509,52.413277,-1.548021,147.06,0.0,2,293.4,21 / 21,2859328,2019-09-06 19:03:46:010,2.2689,2.1458,10.4478,-0.0106,-0.0187,9.8066,0.048,-0.3328,-0.0102,-8.06,-37.12,-7.31,237.62,-78.63,-135.73
28510,52.413277,-1.548021,147.06,0.0,2,293.4,21 / 21,2859430,2019-09-06 19:03:46:112,1.7031,1.1722,10.3042,0.0074,0.0446,9.8065,0.0349,-0.3222,0.0122,-8.87,-36.87,-6.81,239.69,-78.28,-137.66
28511,52.413277,-1.548021,147.06,0.0,2,293.4,21 / 21,2859528,2019-09-06 19:03:46:210,1.766,1.6254,10.3899,0.0047,0.0471,9.8065,-0.1367,-0.24,0.0025,-9.25,-36.69,-7.06,239.21,-78.28,-138.35
28512,52.413277,-1.548021,147.06,0.0,2,293.4,21 / 21,2859630,2019-09-06 19:03:46:312,1.8956,0.6877,9.9082,-0.0247,-0.0268,9.8065,-0.0432,-0.2561,0.0082,-9.81,-36.94,-6.19,244.39,-78.2,-138.59
28513,52.413277,-1.548021,147.06,0.0,2,293.4,21 / 21,2859729,2019-09-06 19:03:46:411,1.0401,1.2887,9.625,-0.0054,-0.0043,9.8066,0.0576,-0.3605,0.0916,-10.19,-37.37,-6.12,244.6,-78.37,-138.91
28514,52.413277,-1.548021,147.06,0.0,2,293.4,21 / 21,2859828,2019-09-06 19:03:46:510,1.809,1.7351,9.8436,0.0157,0.0417,9.8064,0.0192,-0.3101,0.0076,-10.44,-36.94,-6.94,241.15,-78.13,-140.65
28515,52.413277,-1.548021,147.06,0.0,2,293.4,21 / 21,2859929,2019-09-06 19:03:46:611,-0.1269,-0.0584,9.1372,0.0254,0.0507,9.8064,-0.0948,-0.2182,-0.0204,-11.12,-37.06,-6.75,244.13,-78.0,-141.19
28516,52.413277,-1.548021,147.06,0.0,2,293.4,21 / 21,2860028,2019-09-06 19:03:46:710,0.3036,0.3489,9.5117,-0.0182,-0.0467,9.8065,-0.1714,-0.2093,0.063,-11.56,-36.75,-6.06,250.33,-78.13,-140.5
28517,52.413277,-1.548021,147.06,0.0,2,293.4,21 / 21,2860130,2019-09-06 19:03:46:812,1.0978,-0.628,10.1524,-0.0276,-0.029,9.8065,0.1415,-0.2265,0.0293,-11.5,-37.69,-5.87,245.24,-78.04,-141.11
28518,52.413277,-1.548021,147.06,0.0,2,293.4,21 / 21,2860229,2019-09-06 19:03:46:911,1.5952,0.62,9.9034,0.0109,0.0485,9.8064,0.2472,-0.111,-0.072,-12.06,-36.56,-6.12,248.8,-77.95,-141.89
28519,52.413277,-1.548021,147.06,0.0,2,293.4,21 / 21,2860329,2019-09-06 19:03:47:011,0.9459,0.1117,10.6702,0.0302,0.0561,9.8064,-0.1604,-0.166,0.0857,-11.75,-37.0,-5.75,247.04,-77.7,-143.4
28520,52.413277,-1.548021,147.06,0.0,2,293.4,21 / 21,2860430,2019-09-06 19:03:47:112,-0.5807,1.7084,9.8377,-0.0007,0.0422,9.8065,-0.0387,-0.0897,-0.1034,-12.19,-36.94,-5.81,245.95,-77.76,-145.02
28521,52.413277,-1.548021,147.06,0.0,2,293.4,21 / 21,2860529,2019-09-06 19:03:47:211,0.368,0.5536,9.5101,0.0205,0.0374,9.8065,-0.0799,-0.1345,0.0746,-13.31,-37.62,-6.19,247.76,-77.67,-145.58
28522,52.413277,-1.548021,147.06,0.0,2,293.4,21 / 21,2860628,2019-09-06 19:03:47:310,1.2563,1.9853,9.7038,-0.0152,-0.0161,9.8066,-0.064,-0.1181,0.0259,-12.62,-36.87,-5.56,248.97,-77.99,-145.9
28523,52.413277,-1.548021,147.06,0.0,2,293.4,21 / 21,2860728,2019-09-06 19:03:47:410,0.3073,0.8616,9.672,-0.0216,-0.0088,9.8066,0.0228,-0.0009,-0.0328,-12.94,-36.81,-6.87,247.06,-78.19,-146.34
28524,52.413277,-1.548021,147.06,0.0,2,293.4,21 / 21,2860828,2019-09-06 19:03:47:510,0.5987,1.5486,9.8398,0.0046,0.0105,9.8066,0.2409,-0.1177,0.084,-12.87,-37.0,-6.12,249.53,-78.21,-145.84
28525,52.413277,-1.548021,147.06,0.0,2,293.4,21 / 21,2860929,2019-09-06 19:03:47:611,-0.3587,-0.5442,9.7301,0.0331,0.0195,9.8065,-0.0782,-0.0662,0.0745,-13.37,-36.81,-6.56,246.97,-78.07,-146.12
28526,52.413277,-1.548021,147.06,0.0,2,293.4,21 / 21,2861028,2019-09-06 19:03:47:710,-0.4756,-0.9173,8.7678,-0.0141,-0.0375,9.8065,-0.1339,-0.0573,-0.0053,-12.87,-37.12,-6.31,250.01,-78.11,-144.96
28527,52.413277,-1.548021,147.06,0.0,2,293.4,21 / 21,2861129,2019-09-06 19:03:47:811,1.8726,1.6676,11.065,-0.0143,-0.054,9.8064,0.1294,-0.0464,0.0985,-13.5,-37.69,-6.5,249.23,-78.0,-144.7
28528,52.413277,-1.548021,147.06,0.0,2,293.4,21 / 21,2861228,2019-09-06 19:03:47:910,0.7164,1.2121,8.7814,0.0215,0.011,9.8065,0.121,-0.0575,0.1596,-13.37,-36.44,-5.69,249.81,-77.66,-144.88
28529,52.413277,-1.548021,147.06,0.0,2,293.4,21 / 21,2861330,2019-09-06 19:03:48:012,1.6407,-2.4104,8.5775,-0.0259,0.0028,9.8066,0.1988,0.1941,-0.0442,-13.75,-36.81,-6.31,252.32,-77.87,-145.11
28530,52.41347,-1.548082,148.26,8.07,3,16.59,21 / 21,2861430,2019-09-06 19:03:48:112,-1.0352,-0.066,10.1759,0.0402,0.0118,9.8065,0.0112,-0.002,0.2062,-14.25,-35.5,-5.69,253.46,-77.51,-144.57
28531,52.41347,-1.548082,148.26,8.07,3,16.59,21 / 21,2861528,2019-09-06 19:03:48:210,0.5326,1.5284,10.7925,-0.0382,-0.0298,9.8065,0.2159,0.0533,-0.073,-13.62,-35.69,-4.69,255.68,-77.59,-143.96
28532,52.41347,-1.548082,148.26,8.07,3,16.59,21 / 21,2861628,2019-09-06 19:03:48:310,-0.7011,0.4051,9.9446,-0.0243,0.0004,9.8065,0.145,0.0633,0.0866,-13.37,-35.06,-4.94,253.73,-77.96,-144.66
28533,52.41347,-1.548082,148.26,8.07,3,16.59,21 / 21,2861729,2019-09-06 19:03:48:411,-1.0919,1.9163,8.4796,0.0309,0.0123,9.8066,-0.0562,-0.0885,0.0027,-13.12,-35.69,-5.44,251.49,-77.72,-145.72
28534,52.41347,-1.548082,148.26,8.07,3,16.59,21 / 21,2861828,2019-09-06 19:03:48:510,-0.4782,0.3042,9.0555,0.0123,-0.0041,9.8066,-0.0931,0.0101,0.0138,-13.5,-35.56,-6.12,249.42,-77.52,-144.97
28535,52.41347,-1.548082,148.26,8.07,3,16.59,21 / 21,2861929,2019-09-06 19:03:48:611,-1.7932,-0.4835,9.4214,-0.0827,-0.0525,9.8061,-0.0788,-0.0379,0.052,-13.44,-36.0,-6.69,248.68,-78.03,-144.75
28536,52.41347,-1.548082,148.26,8.07,3,16.59,21 / 21,2862029,2019-09-06 19:03:48:711,-2.0143,-1.1813,9.4112,0.0149,0.023,9.8066,0.4141,-0.0115,0.1211,-13.87,-35.44,-6.69,251.35,-77.95,-145.67
28537,52.41347,-1.548082,148.26,8.07,3,16.59,21 / 21,2862128,2019-09-06 19:03:48:810,-1.8655,-2.8419,8.8396,-0.055,-0.0596,9.8063,0.3477,0.0239,0.1702,-13.56,-36.06,-5.37,253.59,-77.75,-146.89
28538,52.41347,-1.548082,148.26,8.07,3,16.59,21 / 21,2862228,2019-09-06 19:03:48:910,1.3399,1.5808,9.5363,-0.0285,-0.0585,9.8064,0.1427,0.0734,0.0293,-13.62,-35.69,-5.12,254.52,-77.85,-146.07
28539,52.41347,-1.548082,148.26,8.07,3,16.59,21 / 21,2862329,2019-09-06 19:03:49:011,-0.0543,-0.9283,11.2346,-0.0277,-0.0274,9.8065,0.1196,-0.0705,-0.1867,-13.25,-36.31,-5.75,249.28,-77.8,-145.93
28540,52.41347,-1.548082,148.26,8.07,3,16.59,21 / 21,2862429,2019-09-06 19:03:49:111,-0.7355,1.6509,9.6389,0.0134,0.0138,9.8065,0.0298,0.105,-0.1966,-13.25,-36.19,-5.56,249.2,-78.02,-146.61
28541,52.41347,-1.548082,148.26,8.07,3,16.59,21 / 21,2862528,2019-09-06 19:03:49:210,-0.2348,0.5791,9.7399,-0.0087,0.0075,9.8066,0.0944,-0.0198,0.0957,-13.5,-36.31,-5.81,248.82,-78.0,-147.05
28542,52.41347,-1.548082,148.26,8.07,3,16.59,21 / 21,2862629,2019-09-06 19:03:49:311,-2.942,-0.579,9.9268,0.0269,-0.0011,9.8065,-0.0789,0.0807,-0.1454,-13.75,-35.87,-5.56,251.69,-77.83,-146.63
28543,52.41347,-1.548082,148.26,8.07,3,16.59,21 / 21,2862728,2019-09-06 19:03:49:410,-0.2627,-2.0644,9.2165,-0.0213,-0.0083,9.8066,0.1321,-0.1709,0.1026,-13.44,-36.44,-5.69,248.84,-77.96,-146.89
28544,52.41347,-1.548082,148.26,8.07,3,16.59,21 / 21,2862829,2019-09-06 19:03:49:511,0.9358,2.1184,10.2639,-0.0264,-0.0075,9.8065,0.2058,-0.0186,0.037,-13.25,-35.87,-5.44,250.72,-77.87,-147.1
28545,52.41347,-1.548082,148.26,8.07,3,16.59,21 / 21,2862929,2019-09-06 19:03:49:611,-2.2062,1.2773,9.237,-0.0046,-0.0132,9.8066,0.089,0.1291,-0.0152,-13.69,-36.62,-5.5,253.19,-77.88,-146.8
28546,52.41347,-1.548082,148.26,8.07,3,16.59,21 / 21,2863029,2019-09-06 19:03:49:711,1.8596,-1.0489,10.7522,0.0354,0.0578,9.8064,-0.1215,0.0738,-0.0175,-13.37,-36.19,-5.31,251.33,-77.96,-146.63
28547,52.41347,-1.548082,148.26,8.07,3,16.59,21 / 21,2863128,2019-09-06 19:03:49:810,-0.7046,2.7982,9.0037,0.0488,0.0696,9.8062,-0.0683,0.1256,-0.0371,-13.37,-36.5,-6.06,246.88,-77.65,-148.55
28548,52.41347,-1.548082,148.26,8.07,3,16.59,21 / 21,2863228,2019-09-06 19:03:49:910,0.265,-0.3182,9.7418,-0.0361,-0.0369,9.8065,0.0303,0.0364,0.079,-13.44,-36.31,-5.37,250.12,-77.94,-148.05
28549,52.41347,-1.548082,148.26,8.07,3,16.59,21 / 21,2863329,2019-09-06 19:03:50:011,-0.2716,-1.1621,9.3375,0.0052,-0.0148,9.8066,-0.1637,-0.0538,-0.0447,-13.12,-36.12,-5.87,247.53,-77.82,-148.18
