,GPS LATITUDE (degrees), GPS LONGITUDE (degrees), GPS ALTITUDE (m), GPS SPEED (Kmh), GPS ACCURACY (m), GPS ORIENTATION (Â°),GPS SATELLITES IN RANGE, TIME SINCE START (ms), DATE (YYYY-MO-DD HH-MI-SS_SSS), ACCELEROMETER X (m/s²) , ACCELEROMETER Y (m/s²), ACCELEROMETER Z (m/s²), GRAVITY X (m/s²), GRAVITY Y (m/s²), GRAVITY Z (m/s²), GYROSCOPE Yaw (rad/s), GYROSCOPE Pitch (rad/s), GYROSCOPE Roll (rad/s), MAGNETIC FIELD X (Î¼T), MAGNETIC FIELD Y (Î¼T), MAGNETIC FIELD Z (Î¼T), ORIENTATION (Yaw) (Â°), ORIENTATION (Pitch) (Â°), ORIENTATION (Roll ) (Â°)
23047,53.272423,-1.730216,325.99,17.23,4,171.58,20 / 21,2304728,2019-11-06 15:36:01:845,-1.2679,0.5232,9.8294,-0.0522,0.0045,9.8064,0.0632,-0.2351,0.1208,-11.0,-35.87,34.5,24.32,-88.37,-138.9
23048,53.272423,-1.730216,325.99,17.23,4,171.58,20 / 21,2304831,2019-11-06 15:36:01:948,6.2721,1.4682,8.6119,-0.0927,-0.0597,9.8059,-0.0594,0.6702,-0.2358,-11.31,-34.94,36.81,31.61,-88.04,-132.78
23049,53.272423,-1.730216,325.99,17.23,4,171.58,20 / 21,2304928,2019-11-06 15:36:02:045,-3.9359,-3.0306,10.3081,0.0313,0.0153,9.8065,0.0661,-0.5191,0.1982,-11.12,-34.31,48.88,36.12,-88.09,-132.01
23050,53.272423,-1.730216,325.99,17.23,4,171.58,20 / 21,2305028,2019-11-06 15:36:02:145,-1.2873,1.1862,9.3931,0.0165,-0.0292,9.8066,-0.0395,0.0117,0.0822,-27.81,-39.25,38.5,4.57,-88.18,-139.87
23051,53.272423,-1.730216,325.99,17.23,4,171.58,20 / 21,2305128,2019-11-06 15:36:02:245,4.2458,0.2238,9.6927,0.0495,0.0036,9.8065,-0.077,-0.3907,0.3313,-16.19,-36.69,31.69,16.01,-88.07,-137.98
23052,53.272423,-1.730216,325.99,17.23,4,171.58,20 / 21,2305228,2019-11-06 15:36:02:345,4.7662,1.7722,9.7306,-0.0257,-0.0126,9.8066,-0.0874,0.2241,-0.0207,-14.37,-36.69,30.81,22.09,-87.97,-134.45
23053,53.272423,-1.730216,325.99,17.23,4,171.58,20 / 20,2305328,2019-11-06 15:36:02:445,-0.7587,-0.1876,9.0952,0.0383,0.035,9.8065,0.0646,-0.2826,0.2736,-14.75,-36.69,31.75,20.79,-88.04,-134.83
23054,53.272423,-1.730216,325.99,17.23,4,171.58,20 / 20,2305428,2019-11-06 15:36:02:545,-1.917,-1.9089,10.2519,-0.0356,-0.0216,9.8065,-0.0717,-0.0136,-0.0295,-15.69,-36.69,31.31,20.35,-87.79,-133.18
23055,53.272423,-1.730216,325.99,17.23,4,171.58,20 / 20,2305528,2019-11-06 15:36:02:645,1.0045,-1.8884,8.6752,0.0032,0.0214,9.8066,-0.0384,-0.1238,0.1181,-23.25,-38.37,33.56,24.84,-87.99,-121.88
23056,53.272423,-1.730216,325.99,17.23,4,171.58,20 / 20,2305628,2019-11-06 15:36:02:745,-2.9777,-0.2634,10.7077,0.0063,0.017,9.8066,0.0279,-0.3315,0.1182,-15.75,-35.31,58.75,49.71,-88.09,-115.97
23057,53.272423,-1.730216,325.99,17.23,4,171.58,20 / 20,2305728,2019-11-06 15:36:02:845,-1.1678,0.0581,9.9524,0.0106,-0.0179,9.8066,0.0607,0.222,-0.0789,-12.06,-34.87,38.88,48.59,-88.0,-115.61
23058,53.272423,-1.730216,325.99,17.23,4,171.58,20 / 20,2305828,2019-11-06 15:36:02:945,-3.4506,-0.4996,10.8848,0.026,-0.0296,9.8065,0.0475,-0.3324,0.0278,-11.5,-34.87,35.13,31.43,-87.86,-132.21
23059,53.272423,-1.730216,325.99,17.23,4,171.58,20 / 20,2305928,2019-11-06 15:36:03:045,7.0439,2.342,12.713,0.0663,0.0341,9.8064,0.457,-0.5209,-0.0147,-11.75,-35.44,33.81,11.84,-87.92,-149.14
23060,53.272423,-1.730216,325.99,17.23,4,171.58,20 / 20,2306028,2019-11-06 15:36:03:145,-3.7012,-4.6198,11.0929,0.1976,0.0199,9.8046,0.0012,-1.3241,0.682,-10.87,-35.56,33.81,351.32,-87.42,-170.35
23061,53.272423,-1.730216,325.99,17.23,4,171.58,20 / 20,2306129,2019-11-06 15:36:03:246,10.3833,3.7123,6.5526,0.0403,0.0496,9.8064,-0.2313,0.1687,0.0392,-12.0,-35.56,33.94,1.4,-87.42,-159.22
23062,53.272423,-1.730216,325.99,17.23,4,171.58,20 / 20,2306228,2019-11-06 15:36:03:345,-6.2704,-1.852,9.9433,0.0799,0.0645,9.8061,-0.0008,-0.754,0.5853,-11.31,-34.87,38.19,12.76,-87.9,-151.51
23063,53.272423,-1.730216,325.99,17.23,4,171.58,20 / 20,2306328,2019-11-06 15:36:03:445,1.3277,-0.7835,8.5966,0.0162,-0.0006,9.8066,0.1467,-0.2336,0.0552,-12.5,-35.31,54.81,29.37,-87.54,-139.09
23064,53.272423,-1.730216,325.99,17.23,4,171.58,20 / 20,2306428,2019-11-06 15:36:03:545,0.0502,-1.6057,10.7202,0.0554,0.019,9.8065,0.2343,-0.4275,0.0771,-30.75,-39.31,45.19,354.19,-87.24,-151.04
23065,53.272423,-1.730216,325.99,17.23,4,171.58,20 / 20,2306528,2019-11-06 15:36:03:645,5.0872,0.141,11.2611,0.0604,0.0101,9.8064,0.0265,0.0844,-0.11,-15.19,-36.62,31.25,346.7,-86.98,-166.71
23066,53.272423,-1.730216,325.99,17.23,4,171.58,20 / 20,2306628,2019-11-06 15:36:03:745,-1.8516,0.0891,11.5052,0.0811,0.0213,9.8062,0.0218,-0.4036,0.2061,-13.5,-36.37,32.44,341.16,-86.98,-175.69
23067,53.272423,-1.730216,325.99,17.23,4,171.58,20 / 20,2306728,2019-11-06 15:36:03:845,3.8458,-1.6725,9.9094,0.0444,-0.0163,9.8065,0.0337,0.0228,-0.0027,-13.06,-36.19,32.75,339.45,-86.84,-177.89
23068,53.272423,-1.730216,325.99,17.23,4,171.58,20 / 20,2306828,2019-11-06 15:36:03:945,-2.1361,-0.06,8.821,0.0369,0.0133,9.8066,-0.0449,-0.3405,0.2517,-15.44,-36.5,32.5,331.16,-86.62,177.26
23069,53.272423,-1.730216,325.99,17.23,4,171.58,20 / 20,2306929,2019-11-06 15:36:04:046,1.9691,-0.7002,10.0604,0.0221,-0.0069,9.8066,-0.1043,0.0535,0.0877,-26.12,-38.19,37.06,327.68,-86.67,-175.68
23070,53.272423,-1.730216,325.99,17.23,4,171.58,20 / 20,2307028,2019-11-06 15:36:04:145,-3.036,0.6136,11.3872,0.0115,0.0087,9.8065,0.0597,-0.3234,0.1182,-18.25,-36.25,62.31,348.9,-86.61,-174.53
23071,53.272423,-1.730216,325.99,17.23,4,171.58,20 / 20,2307128,2019-11-06 15:36:04:245,-1.0364,0.2329,11.0911,0.0147,-0.05,9.8065,0.0587,0.3295,-0.0526,-11.44,-33.62,39.5,349.94,-86.27,-174.13
23072,53.272423,-1.730216,325.99,17.23,4,171.58,20 / 20,2307228,2019-11-06 15:36:04:345,4.8778,1.8893,9.2505,-0.0144,-0.0127,9.8066,0.0264,0.3558,-0.2694,-10.56,-35.12,35.5,346.31,-86.04,-175.8
23073,53.272423,-1.730216,325.99,17.23,4,171.58,20 / 20,2307329,2019-11-06 15:36:04:446,-1.764,1.1437,10.0685,-0.0705,0.0017,9.8064,0.0043,0.1387,0.0238,-11.87,-34.81,34.5,344.99,-86.04,-175.08
23074,53.272423,-1.730216,325.99,17.23,4,171.58,20 / 20,2307428,2019-11-06 15:36:04:545,-0.9293,1.5616,11.3196,-0.0774,-0.0873,9.8059,0.0304,0.2094,0.0052,-12.25,-34.62,34.56,359.37,-85.78,-161.66
23075,53.272423,-1.730216,325.99,17.23,4,171.58,20 / 20,2307528,2019-11-06 15:36:04:645,0.7873,0.5502,11.4801,0.0132,-0.043,9.8065,0.1686,-0.4721,0.1221,-11.75,-34.69,35.88,1.12,-85.37,-160.53
23076,53.272423,-1.730216,325.99,17.23,4,171.58,20 / 20,2307628,2019-11-06 15:36:04:745,0.9912,0.34,8.8636,0.0463,-0.0133,9.8065,0.0162,-0.2239,0.1501,-11.25,-33.44,38.94,0.83,-84.78,-163.49
23077,53.272423,-1.730216,325.99,17.23,4,171.58,20 / 20,2307729,2019-11-06 15:36:04:846,-0.589,-1.007,9.801,0.0421,0.0438,9.8064,0.0113,-0.3406,0.1468,-10.62,-32.69,50.0,4.65,-84.9,-163.22
23078,53.272423,-1.730216,325.99,17.23,4,171.58,20 / 20,2307830,2019-11-06 15:36:04:947,-0.7525,-0.1405,8.1658,0.0036,0.0194,9.8065,-0.0888,-0.1611,0.1783,-25.75,-37.94,37.69,339.5,-85.34,-164.71
23079,53.272423,-1.730216,325.99,17.23,4,171.58,20 / 20,2307928,2019-11-06 15:36:05:045,3.9199,0.0001,10.0269,0.0175,-0.0088,9.8066,0.0428,-0.42,0.2898,-16.06,-35.56,33.31,354.11,-85.34,-159.53
23080,53.272423,-1.730216,325.99,17.23,4,171.58,20 / 20,2308029,2019-11-06 15:36:05:146,1.7523,-1.4734,11.6945,0.0085,-0.0271,9.8066,0.0934,-0.192,0.1198,-15.06,-35.5,34.13,357.51,-84.73,-158.46
23081,53.272423,-1.730216,325.99,17.23,4,171.58,20 / 20,2308129,2019-11-06 15:36:05:246,-0.5903,-0.957,10.056,0.0155,-0.0036,9.8066,-0.0464,-0.1371,0.0175,-14.06,-35.19,33.81,357.95,-84.31,-159.46
23082,53.272423,-1.730216,325.99,17.23,4,171.58,20 / 21,2308228,2019-11-06 15:36:05:345,1.8574,0.0121,10.4824,-0.0035,0.0298,9.8065,0.1336,0.1652,-0.2458,-16.06,-35.56,33.19,352.52,-84.44,-160.87
23083,53.272423,-1.730216,325.99,17.23,4,171.58,20 / 21,2308328,2019-11-06 15:36:05:445,0.9381,-0.4855,10.1424,0.0087,-0.0499,9.8064,0.0147,0.7165,-0.3765,-24.81,-37.81,37.69,337.02,-84.39,-167.71
23084,53.272423,-1.730216,325.99,17.23,4,171.58,20 / 21,2308428,2019-11-06 15:36:05:545,5.9729,1.2326,9.4568,-0.0586,-0.0199,9.8064,-0.0248,0.7917,-0.5361,-12.44,-31.81,56.94,357.57,-84.14,-170.39
23085,53.272423,-1.730216,325.99,17.23,4,171.58,20 / 21,2308528,2019-11-06 15:36:05:645,-6.4185,0.5833,8.7743,-0.0958,-0.005,9.8061,-0.0628,0.4549,-0.2761,-11.44,-33.12,40.88,348.36,-84.42,-175.7
23086,53.272423,-1.730216,325.99,17.23,4,171.58,20 / 21,2308628,2019-11-06 15:36:05:745,1.7784,0.1024,9.6374,-0.0629,-0.0016,9.8064,-0.1845,0.6764,-0.3345,-11.19,-34.5,36.88,353.23,-84.9,-169.66
23087,53.272423,-1.730216,325.99,17.23,4,171.58,20 / 21,2308728,2019-11-06 15:36:05:845,-3.4935,-1.3286,10.0379,-0.016,-0.0404,9.8066,-0.1406,0.4128,-0.1221,-11.81,-34.44,35.25,349.99,-84.79,-170.22
23088,53.272423,-1.730216,325.99,17.23,4,171.58,20 / 21,2308828,2019-11-06 15:36:05:945,3.8064,0.5656,11.3006,-0.0672,-0.0396,9.8063,0.1289,0.3793,-0.3848,-12.0,-34.62,35.44,350.92,-84.73,-169.33
23089,53.272423,-1.730216,325.99,17.23,4,171.58,20 / 21,2308928,2019-11-06 15:36:06:045,3.3275,-2.123,10.2677,-0.0945,-0.0581,9.806,0.1402,0.6186,-0.4386,-11.06,-33.87,36.06,347.19,-84.53,-174.67
23090,53.272423,-1.730216,325.99,17.23,4,171.58,20 / 21,2309028,2019-11-06 15:36:06:145,0.9794,-3.3071,9.298,-0.041,0.0723,9.8063,-0.0881,-0.0708,-0.1131,-11.37,-33.31,40.31,353.68,-84.68,-170.45
23091,53.272423,-1.730216,325.99,17.23,4,171.58,20 / 21,2309128,2019-11-06 15:36:06:245,1.1585,-0.4799,9.632,-0.0889,0.0323,9.8061,0.0804,0.5756,-0.449,-13.56,-34.56,57.5,356.1,-85.3,-170.13
23092,53.272423,-1.730216,325.99,17.23,4,171.58,20 / 21,2309228,2019-11-06 15:36:06:345,2.4674,3.0975,8.8612,0.0789,-0.0112,9.8063,-0.0954,-0.2234,0.1373,-29.81,-38.5,44.69,334.49,-85.35,-170.34
23093,53.272423,-1.730216,325.99,17.23,4,171.58,21 / 21,2309328,2019-11-06 15:36:06:445,4.8353,2.5239,9.1757,0.0081,-0.054,9.8065,-0.0632,0.4881,-0.3216,-15.25,-35.69,33.56,343.92,-85.02,-170.88
23094,53.272423,-1.730216,325.99,17.23,4,171.58,21 / 21,2309428,2019-11-06 15:36:06:545,-1.5315,0.3942,11.5782,0.0164,0.0205,9.8065,0.09,-0.1515,0.0012,-13.5,-34.81,33.5,344.03,-85.06,-173.68
23095,53.272423,-1.730216,325.99,17.23,4,171.58,21 / 21,2309528,2019-11-06 15:36:06:645,-3.2545,0.4928,9.3355,-0.0439,-0.0132,9.8065,0.0289,0.5138,-0.3492,-12.75,-35.19,33.94,341.7,-84.99,-175.8
23096,53.272423,-1.730216,325.99,17.23,4,171.58,21 / 21,2309628,2019-11-06 15:36:06:745,-2.8633,-1.9007,9.9,0.0537,0.0049,9.8064,-0.0325,-0.0702,0.0772,-15.81,-36.25,34.06,335.19,-84.88,-177.46
23097,53.272423,-1.730216,325.99,17.23,4,171.58,21 / 21,2309728,2019-11-06 15:36:06:845,-0.3079,4.8295,10.8142,0.0216,-0.0519,9.8065,-0.2013,0.4496,-0.1457,-26.56,-38.44,40.44,325.35,-84.89,-178.23
23098,53.272423,-1.730216,325.99,17.23,4,171.58,21 / 21,2309828,2019-11-06 15:36:06:945,0.5221,0.8857,12.1391,-0.0019,-0.0014,9.8066,0.2256,0.0764,-0.0436,-16.81,-34.19,62.88,346.62,-84.68,-177.58
23099,53.272423,-1.730216,325.99,17.23,4,171.58,21 / 21,2309928,2019-11-06 15:36:07:045,-3.2184,0.4183,7.6382,-0.0287,0.0279,9.8065,-0.0453,0.3224,-0.131,-10.06,-33.56,40.63,348.11,-84.4,-177.2
23100,53.272423,-1.730216,325.99,17.23,4,171.58,21 / 21,2310028,2019-11-06 15:36:07:145,-1.736,2.7055,6.1537,-0.0889,0.0367,9.8061,-0.1061,0.3231,-0.3187,-10.37,-34.62,36.19,346.38,-84.94,-176.93
23101,53.272423,-1.730216,325.99,17.23,4,171.58,21 / 21,2310128,2019-11-06 15:36:07:245,0.3195,0.0504,9.9122,-0.0533,0.0029,9.8064,0.0887,0.1464,-0.1254,-10.69,-35.06,35.44,341.66,-85.35,-179.44
23102,53.272423,-1.730216,325.99,17.23,4,171.58,21 / 21,2310228,2019-11-06 15:36:07:345,-0.1296,2.8905,8.3882,0.0484,-0.0371,9.8064,-0.1283,-0.0547,0.1255,-11.12,-34.37,35.13,344.45,-85.27,-176.88
23103,53.27098,-1.729873,328.03,18.24,4,172.02,20 / 21,2310328,2019-11-06 15:36:07:445,-4.0101,0.356,11.5574,0.003,-0.0118,9.8066,-0.1223,0.4977,-0.2276,-10.44,-34.31,36.06,347.23,-85.17,-176.23
23104,53.27098,-1.729873,328.03,18.24,4,172.02,20 / 21,2310429,2019-11-06 15:36:07:546,-0.9382,-0.6757,10.6539,-0.0215,0.0151,9.8066,0.0741,0.2564,-0.2086,-10.25,-33.31,40.19,345.72,-85.21,-179.25
23105,53.27098,-1.729873,328.03,18.24,4,172.02,20 / 21,2310529,2019-11-06 15:36:07:646,-2.0997,1.1568,10.8051,-0.0656,0.0027,9.8064,0.0531,0.3537,-0.2506,-11.81,-34.12,57.75,345.21,-85.02,177.68
23106,53.27098,-1.729873,328.03,18.24,4,172.02,20 / 21,2310628,2019-11-06 15:36:07:745,2.1007,3.0493,9.3646,0.0028,-0.0196,9.8066,-0.1437,0.354,-0.1022,-29.75,-38.37,44.13,324.03,-85.15,-179.55
23107,53.27098,-1.729873,328.03,18.24,4,172.02,20 / 21,2310728,2019-11-06 15:36:07:845,-0.3893,-0.0042,9.6203,-0.0323,-0.041,9.8065,-0.043,0.3851,-0.1795,-14.62,-35.06,33.06,336.87,-85.18,-176.79
23108,53.27098,-1.729873,328.03,18.24,4,172.02,20 / 21,2310828,2019-11-06 15:36:07:945,3.2565,2.8539,9.585,-0.0314,-0.0338,9.8065,0.0031,0.5091,-0.2217,-13.31,-34.87,33.19,339.56,-85.16,-177.21
23109,53.27098,-1.729873,328.03,18.24,4,172.02,20 / 21,2310928,2019-11-06 15:36:08:045,-4.3718,-0.2435,10.3759,-0.0281,-0.0193,9.8065,0.133,0.1945,-0.1359,-13.44,-34.87,33.63,338.97,-85.05,-178.33
23110,53.27098,-1.729873,328.03,18.24,4,172.02,20 / 21,2311028,2019-11-06 15:36:08:145,2.3706,3.7885,10.5302,-0.0327,-0.0431,9.8064,-0.0646,0.6509,-0.2659,-15.44,-35.31,32.94,333.61,-84.82,-179.63
23111,53.27098,-1.729873,328.03,18.24,4,172.02,20 / 21,2311128,2019-11-06 15:36:08:245,-3.3233,0.0956,10.2996,0.0151,0.0223,9.8065,0.1066,-0.1938,0.11,-26.12,-37.37,39.44,321.15,-84.86,177.5
23112,53.27098,-1.729873,328.03,18.24,4,172.02,20 / 21,2311228,2019-11-06 15:36:08:345,0.1177,0.7402,9.2161,-0.0327,-0.0289,9.8065,-0.097,0.3047,-0.1551,-17.75,-34.75,62.88,339.51,-84.84,176.49
23113,53.27098,-1.729873,328.03,18.24,4,172.02,20 / 21,2311328,2019-11-06 15:36:08:445,-2.8877,0.2175,9.5353,-0.0021,-0.0003,9.8066,0.0234,-0.0841,0.1396,-10.94,-32.44,40.56,339.52,-85.02,175.92
23114,53.27098,-1.729873,328.03,18.24,4,172.02,20 / 21,2311428,2019-11-06 15:36:08:545,2.0358,2.6199,8.9173,-0.0466,-0.0175,9.8065,0.001,0.33,-0.1841,-11.5,-33.87,35.81,340.15,-85.02,178.73
23115,53.27098,-1.729873,328.03,18.24,4,172.02,20 / 21,2311528,2019-11-06 15:36:08:645,-0.1373,0.5901,9.217,-0.0085,-0.0008,9.8066,0.1082,-0.1844,0.0681,-11.19,-34.44,35.0,338.47,-84.84,177.75
23116,53.27098,-1.729873,328.03,18.24,4,172.02,20 / 21,2311628,2019-11-06 15:36:08:745,1.8564,2.6479,9.4512,-0.0099,-0.0309,9.8065,-0.0582,0.2641,-0.1723,-11.62,-34.81,35.0,337.43,-84.6,178.4
23117,53.27098,-1.729873,328.03,18.24,4,172.02,20 / 21,2311729,2019-11-06 15:36:08:846,-1.7173,0.6303,10.45,0.0149,-0.013,9.8066,-0.0159,-0.1377,0.0416,-11.44,-34.37,36.44,337.1,-84.59,176.08
23118,53.27098,-1.729873,328.03,18.24,4,172.02,20 / 21,2311828,2019-11-06 15:36:08:945,-0.7462,-0.0819,9.7773,-0.0254,-0.0001,9.8066,0.0468,0.2606,-0.08,-10.94,-33.62,39.69,339.89,-84.7,176.84
23119,53.27098,-1.729873,328.03,18.24,4,172.02,20 / 21,2311928,2019-11-06 15:36:09:045,-3.4636,-0.068,10.0128,0.0135,-0.0105,9.8066,0.035,-0.3757,0.1551,-10.31,-32.94,53.0,345.44,-84.52,177.03
23120,53.27098,-1.729873,328.03,18.24,4,172.02,20 / 21,2312029,2019-11-06 15:36:09:146,0.343,2.2125,9.5134,-0.0176,-0.0361,9.8066,-0.0491,0.2077,0.0017,-25.87,-37.56,38.06,321.26,-84.38,178.68
23121,53.27098,-1.729873,328.03,18.24,4,172.02,20 / 21,2312128,2019-11-06 15:36:09:245,-0.9527,1.6777,9.0633,0.0302,0.0484,9.8065,0.0746,-0.589,0.3606,-15.75,-35.81,33.44,333.02,-84.45,-178.53
23122,53.27098,-1.729873,328.03,18.24,4,172.02,20 / 21,2312228,2019-11-06 15:36:09:345,-3.8228,-2.0428,10.7636,-0.0176,0.0011,9.8066,0.1084,-0.1452,0.0334,-14.0,-35.5,33.94,336.11,-84.54,-179.31
23123,53.27098,-1.729873,328.03,18.24,4,172.02,20 / 21,2312328,2019-11-06 15:36:09:445,-1.0762,-1.7738,10.3842,0.0334,0.0367,9.8065,0.1355,-0.5418,0.2012,-13.31,-35.75,33.5,334.61,-84.51,177.96
23124,53.27098,-1.729873,328.03,18.24,4,172.02,20 / 21,2312428,2019-11-06 15:36:09:545,-3.2038,0.7398,9.3503,0.021,-0.0029,9.8065,-0.0332,-0.3039,0.2201,-15.31,-35.94,33.38,332.3,-84.42,179.44
23125,53.27098,-1.729873,328.03,18.24,4,172.02,20 / 21,2312530,2019-11-06 15:36:09:647,3.7523,2.9484,9.8902,0.0361,0.0323,9.8065,-0.1034,-0.4905,0.3735,-23.87,-38.0,37.31,326.87,-84.56,-177.48
23126,53.27098,-1.729873,328.03,18.24,4,172.02,20 / 21,2312628,2019-11-06 15:36:09:745,1.8296,-0.0707,10.1873,-0.0177,0.035,9.8065,0.2192,-0.3218,0.1285,-13.75,-33.12,58.06,349.81,-84.83,-176.07
23127,53.27098,-1.729873,328.03,18.24,4,172.02,20 / 21,2312728,2019-11-06 15:36:09:845,1.867,1.2684,9.2164,0.0119,0.0567,9.8064,0.2306,-0.3747,0.1241,-12.0,-33.31,40.5,348.31,-84.45,-174.45
23128,53.27098,-1.729873,328.03,18.24,4,172.02,20 / 21,2312828,2019-11-06 15:36:09:945,-3.0914,-0.6403,9.6142,0.0361,0.029,9.8065,-0.1666,-0.4745,0.2059,-11.44,-34.0,36.56,345.09,-84.77,-177.11
23129,53.27098,-1.729873,328.03,18.24,4,172.02,20 / 21,2312928,2019-11-06 15:36:10:045,1.0556,0.2309,8.3297,0.0725,0.016,9.8063,-0.1292,-0.134,0.3178,-12.06,-35.12,34.63,339.5,-85.02,-179.86
23130,53.27098,-1.729873,328.03,18.24,4,172.02,20 / 21,2313028,2019-11-06 15:36:10:145,-0.1243,1.5186,9.1794,0.0198,0.0415,9.8065,0.0145,-0.2006,-0.0077,-12.06,-35.0,34.06,341.38,-85.25,-177.65
23131,53.27098,-1.729873,328.03,18.24,4,172.02,20 / 21,2313128,2019-11-06 15:36:10:245,2.6317,0.2301,10.0257,0.0239,0.016,9.8066,0.0999,-0.3475,0.1604,-11.37,-34.44,34.31,343.49,-85.17,-177.22
23132,53.27098,-1.729873,328.03,18.24,4,172.02,20 / 21,2313228,2019-11-06 15:36:10:345,-0.5216,-0.1969,10.034,0.0119,0.0143,9.8065,0.1154,-0.5863,0.2073,-11.12,-34.19,39.13,345.08,-85.14,-178.07
23133,53.27098,-1.729873,328.03,18.24,4,172.02,19 / 21,2313328,2019-11-06 15:36:10:445,5.5818,1.5163,9.5822,0.0528,0.0024,9.8064,0.0282,-0.4209,0.2394,-11.62,-34.25,54.81,351.0,-84.79,-176.16
23134,53.27098,-1.729873,328.03,18.24,4,172.02,19 / 21,2313428,2019-11-06 15:36:10:545,-4.1435,-2.7186,10.0235,0.0537,0.0356,9.8064,0.0545,-0.6992,0.4077,-30.56,-39.37,46.5,326.9,-84.66,-177.56
23135,53.27098,-1.729873,328.03,18.24,4,172.02,19 / 21,2313528,2019-11-06 15:36:10:645,1.9496,1.8331,8.8736,0.033,0.0346,9.8065,-0.0969,-0.1732,0.0733,-15.94,-35.94,32.69,335.42,-84.91,-176.55
23136,53.27098,-1.729873,328.03,18.24,4,172.02,19 / 21,2313628,2019-11-06 15:36:10:745,-5.8286,0.3294,8.7714,0.0599,0.0548,9.8062,-0.0644,-0.5567,0.316,-13.5,-35.81,33.0,339.4,-85.14,-177.3
23137,53.27098,-1.729873,328.03,18.24,4,172.02,19 / 21,2313728,2019-11-06 15:36:10:845,3.1625,1.0824,8.7181,0.0334,0.0346,9.8064,0.0779,-0.0059,0.0572,-13.75,-36.06,32.94,339.12,-85.14,-176.08
23138,53.27098,-1.729873,328.03,18.24,4,172.02,19 / 21,2313828,2019-11-06 15:36:10:945,-4.8859,-5.1432,9.5081,0.054,0.01,9.8065,0.1226,-0.7487,0.2367,-15.69,-36.44,32.69,332.89,-84.95,-178.9
23139,53.27098,-1.729873,328.03,18.24,4,172.02,19 / 21,2313928,2019-11-06 15:36:11:045,2.7593,3.6324,9.5901,-0.0246,-0.0147,9.8065,-0.0593,0.332,-0.0539,-25.94,-38.56,37.81,326.89,-84.89,-176.26
23140,53.27098,-1.729873,328.03,18.24,4,172.02,19 / 21,2314028,2019-11-06 15:36:11:145,0.3242,-0.4994,9.7025,0.0144,0.008,9.8065,0.0716,-0.2645,0.1382,-20.06,-35.75,62.75,350.14,-84.79,-171.72
23141,53.27098,-1.729873,328.03,18.24,4,172.02,19 / 21,2314128,2019-11-06 15:36:11:245,3.9727,0.6662,9.7609,-0.0286,-0.0552,9.8064,0.0048,0.5231,-0.3024,-11.75,-33.69,39.56,352.55,-84.24,-170.11
23142,53.27098,-1.729873,328.03,18.24,4,172.02,19 / 21,2314228,2019-11-06 15:36:11:345,0.9424,-1.5993,10.7709,0.0079,0.0076,9.8066,0.0665,0.0658,-0.0247,-11.62,-34.06,35.75,348.73,-84.27,-171.78
23143,53.27098,-1.729873,328.03,18.24,4,172.02,19 / 21,2314328,2019-11-06 15:36:11:445,-5.6556,0.7224,8.379,-0.0832,0.0152,9.8062,0.0257,0.6066,-0.356,-12.31,-34.81,34.63,347.69,-84.52,-172.23
23144,53.27098,-1.729873,328.03,18.24,4,172.02,19 / 21,2314428,2019-11-06 15:36:11:545,-2.0342,-0.475,8.9293,-0.0408,-0.0118,9.8065,0.1303,0.477,-0.1682,-11.94,-35.19,33.88,352.4,-84.76,-167.45
23145,53.27098,-1.729873,328.03,18.24,4,172.02,19 / 21,2314528,2019-11-06 15:36:11:645,-7.9331,-0.9616,11.9952,-0.0917,-0.0616,9.806,0.0637,0.4764,-0.4755,-12.44,-34.37,34.56,350.24,-84.59,-169.95
23146,53.27098,-1.729873,328.03,18.24,4,172.02,19 / 21,2314628,2019-11-06 15:36:11:745,0.9581,-0.2254,11.7169,-0.0126,-0.0683,9.8063,0.0882,0.8316,-0.0372,-11.44,-33.44,38.5,354.69,-84.05,-169.08
23147,53.27098,-1.729873,328.03,18.24,4,172.02,19 / 21,2314728,2019-11-06 15:36:11:845,-3.8138,-0.2175,10.6383,0.0478,0.0207,9.8065,-0.0969,-0.2709,0.1365,-13.37,-33.87,57.44,357.4,-83.95,-169.58
23148,53.27098,-1.729873,328.03,18.24,4,172.02,19 / 21,2314828,2019-11-06 15:36:11:945,-0.5573,-0.9397,10.5819,-0.0389,0.0006,9.8065,0.005,-0.0697,-0.0167,-30.62,-38.0,44.44,333.38,-84.39,-169.57
23149,53.27098,-1.729873,328.03,18.24,4,172.02,19 / 21,2314928,2019-11-06 15:36:12:045,1.3571,2.5479,7.7014,0.0318,0.0595,9.8064,0.1338,-0.1475,0.2253,-16.44,-36.12,33.44,343.72,-84.58,-168.85
23150,53.27098,-1.729873,328.03,18.24,4,172.02,19 / 21,2315028,2019-11-06 15:36:12:145,-0.5213,1.0163,9.5037,-0.0223,0.002,9.8066,0.0523,-0.1118,-0.155,-14.44,-35.44,33.69,344.82,-84.75,-171.43
23151,53.27098,-1.729873,328.03,18.24,4,172.02,19 / 21,2315128,2019-11-06 15:36:12:245,1.6233,-0.8323,9.4897,0.0074,0.0387,9.8065,0.0091,-0.0563,0.1338,-13.31,-35.62,33.38,344.26,-84.88,-172.77
23152,53.27098,-1.729873,328.03,18.24,4,172.02,19 / 21,2315229,2019-11-06 15:36:12:346,-1.795,2.5644,9.2289,-0.0005,0.02,9.8066,-0.1205,-0.16,-0.0549,-15.06,-35.75,33.19,341.3,-85.35,-172.72
23153,53.27098,-1.729873,328.03,18.24,4,172.02,20 / 21,2315328,2019-11-06 15:36:12:445,-0.2687,0.5206,10.7051,0.0,0.0,9.8066,0.1164,0.0284,0.0147,-27.19,-38.94,39.5,331.3,-85.57,-172.89
23154,53.27098,-1.729873,328.03,18.24,4,172.02,20 / 21,2315428,2019-11-06 15:36:12:545,-1.2581,2.3252,9.825,0.0101,-0.0251,9.8065,-0.0182,-0.0612,0.0737,-18.62,-35.25,63.31,349.8,-85.24,-172.94
23155,53.27098,-1.729873,328.03,18.24,4,172.02,20 / 21,2315528,2019-11-06 15:36:12:645,3.0567,0.2849,10.4077,0.0281,-0.0114,9.8066,-0.0615,-0.2498,0.1667,-12.37,-33.5,41.88,352.93,-84.96,-170.63
23156,53.27098,-1.729873,328.03,18.24,4,172.02,20 / 21,2315628,2019-11-06 15:36:12:745,-2.962,-0.6432,11.0389,0.0148,0.0501,9.8065,-0.0088,-0.546,0.3201,-11.94,-34.12,36.94,351.76,-85.16,-169.64
23157,53.27098,-1.729873,328.03,18.24,4,172.02,20 / 21,2315728,2019-11-06 15:36:12:845,0.7628,4.2768,8.6291,-0.0043,0.0208,9.8065,-0.0737,0.0593,-0.0806,-12.62,-34.75,34.81,353.45,-85.53,-165.67
23158,53.27098,-1.729873,328.03,18.24,4,172.02,20 / 21,2315828,2019-11-06 15:36:12:945,-0.5936,-1.4959,10.1248,0.0122,0.0278,9.8066,0.0332,-0.1001,-0.038,-12.62,-35.31,35.06,353.5,-85.76,-165.66
23159,53.27098,-1.729873,328.03,18.24,4,172.02,20 / 21,2315928,2019-11-06 15:36:13:045,-1.3014,-0.0465,10.1423,-0.0101,-0.0201,9.8065,0.0589,0.2799,-0.1653,-12.06,-34.81,35.81,351.8,-85.74,-169.19
23160,53.27098,-1.729873,328.03,18.24,4,172.02,20 / 21,2316028,2019-11-06 15:36:13:145,-2.4757,-2.0087,10.5793,0.02,0.0005,9.8066,0.0539,-0.0823,-0.0822,-10.87,-33.69,39.38,353.19,-85.48,-170.59
23161,53.27098,-1.729873,328.03,18.24,4,172.02,20 / 21,2316129,2019-11-06 15:36:13:246,-0.7107,1.7601,10.0878,-0.0309,-0.0321,9.8065,-0.0045,0.4749,-0.293,-10.87,-32.37,52.25,353.64,-85.35,-174.08
23162,53.27098,-1.729873,328.03,18.24,4,172.02,20 / 21,2316228,2019-11-06 15:36:13:345,3.203,2.1985,9.3628,0.0304,-0.0077,9.8066,-0.0266,0.0236,-0.1237,-30.69,-39.19,52.44,331.98,-84.97,-175.61
23163,53.27098,-1.729873,328.03,18.24,4,172.02,18 / 21,2316328,2019-11-06 15:36:13:445,0.8694,2.2523,9.3416,-0.0501,-0.0125,9.8064,-0.1167,0.5013,-0.2693,-15.5,-35.5,33.38,338.43,-85.17,-175.34
23164,53.27098,-1.729873,328.03,18.24,4,172.02,18 / 21,2316428,2019-11-06 15:36:13:545,2.2608,2.6355,8.7173,-0.0005,0.0006,9.8066,-0.1073,0.3448,-0.138,-13.75,-35.5,33.81,338.21,-85.38,-177.71
23165,53.27098,-1.729873,328.03,18.24,4,172.02,18 / 21,2316529,2019-11-06 15:36:13:646,-3.0081,-0.5361,10.5324,-0.0302,-0.0285,9.8065,-0.0786,0.2857,-0.1311,-12.81,-35.31,34.31,339.4,-85.42,-178.06
23166,53.27098,-1.729873,328.03,18.24,4,172.02,18 / 21,2316629,2019-11-06 15:36:13:746,-0.244,0.3386,10.844,-0.0292,-0.0053,9.8065,-0.0486,0.3171,-0.0839,-15.5,-35.81,33.56,338.91,-85.48,-175.65
23167,53.27098,-1.729873,328.03,18.24,4,172.02,18 / 21,2316728,2019-11-06 15:36:13:845,-3.9148,-1.1322,8.4046,-0.0283,-0.0245,9.8065,-0.1013,0.2275,-0.0582,-23.44,-37.69,36.0,332.53,-85.72,-173.08
23168,53.27098,-1.729873,328.03,18.24,4,172.02,18 / 21,2316829,2019-11-06 15:36:13:946,3.5034,0.2449,10.4645,-0.0705,0.0076,9.8063,0.0575,0.3842,-0.3648,-22.69,-36.94,63.56,350.34,-85.83,-169.48
23169,53.27098,-1.729873,328.03,18.24,4,172.02,18 / 21,2316928,2019-11-06 15:36:14:045,-0.8593,-1.8385,11.829,-0.0566,-0.0253,9.8064,0.0946,0.3786,-0.2285,-11.5,-33.0,40.44,354.24,-85.6,-170.02
23170,53.27098,-1.729873,328.03,18.24,4,172.02,18 / 21,2317029,2019-11-06 15:36:14:146,3.3911,2.2823,9.584,-0.0143,-0.056,9.8065,-0.1517,0.4755,-0.1938,-11.5,-34.37,37.19,349.9,-85.52,-172.82
23171,53.27098,-1.729873,328.03,18.24,4,172.02,18 / 21,2317128,2019-11-06 15:36:14:245,-0.0194,-1.3197,10.3026,-0.0076,-0.028,9.8066,-0.034,0.004,0.1356,-11.37,-33.94,36.25,350.62,-85.51,-171.7
23172,53.27098,-1.729873,328.03,18.24,4,172.02,18 / 21,2317228,2019-11-06 15:36:14:345,0.9585,-1.2971,8.7796,-0.0369,-0.0138,9.8066,-0.0633,0.2041,-0.21,-12.0,-34.81,35.44,352.34,-85.28,-168.12
23173,53.27098,-1.729873,328.03,18.24,4,172.02,20 / 21,2317328,2019-11-06 15:36:14:445,-2.5273,-0.5497,10.3006,-0.0156,-0.016,9.8065,-0.0776,0.1635,-0.2086,-11.81,-34.75,35.38,351.18,-85.54,-169.22
23174,53.27098,-1.729873,328.03,18.24,4,172.02,20 / 21,2317428,2019-11-06 15:36:14:545,0.1047,-0.2187,9.0632,0.0186,-0.0052,9.8066,-0.0386,0.1929,-0.0859,-10.69,-33.69,37.5,351.57,-85.64,-171.71
23175,53.27098,-1.729873,328.03,18.24,4,172.02,20 / 21,2317529,2019-11-06 15:36:14:646,-1.5458,0.136,10.471,0.0334,-0.0071,9.8066,0.0229,0.0615,-0.0365,-9.69,-33.44,53.19,350.91,-85.52,-177.94
23176,53.27098,-1.729873,328.03,18.24,4,172.02,20 / 21,2317628,2019-11-06 15:36:14:745,0.8219,4.2239,11.4946,-0.007,-0.0422,9.8065,0.119,0.3197,-0.2357,-30.19,-39.69,51.38,327.59,-85.26,179.86
23177,53.27098,-1.729873,328.03,18.24,4,172.02,20 / 21,2317728,2019-11-06 15:36:14:845,3.5981,2.3218,9.0828,-0.0003,0.0167,9.8066,0.1229,-0.6532,0.3347,-17.31,-35.94,34.5,330.25,-84.77,178.66
23178,53.27098,-1.729873,328.03,18.24,4,172.02,20 / 21,2317828,2019-11-06 15:36:14:945,0.9477,-0.6015,7.8486,-0.0258,0.0285,9.8065,0.0902,-0.3588,0.0722,-13.0,-35.69,34.06,339.42,-84.86,-177.8
23179,53.27098,-1.729873,328.03,18.24,4,172.02,20 / 21,2317928,2019-11-06 15:36:15:045,2.2601,4.0338,7.7798,-0.0423,0.0457,9.8064,-0.0074,-0.0995,-0.1266,-13.56,-35.56,33.5,338.45,-85.17,-177.37
23180,53.27098,-1.729873,328.03,18.24,4,172.02,20 / 21,2318028,2019-11-06 15:36:15:145,-1.599,0.0836,9.4578,0.0704,0.0511,9.8062,0.0573,-0.4528,0.2826,-14.19,-35.69,33.25,336.82,-85.57,-178.38
23181,53.27098,-1.729873,328.03,18.24,4,172.02,20 / 21,2318128,2019-11-06 15:36:15:245,2.5043,3.7519,9.927,0.0092,-0.0183,9.8065,-0.0416,0.3346,-0.28,-23.37,-37.69,36.56,326.77,-85.22,-178.99
23182,53.27098,-1.729873,328.03,18.24,4,172.02,20 / 21,2318228,2019-11-06 15:36:15:345,-2.067,-0.8535,10.1146,0.0405,0.0145,9.8066,-0.064,-0.2945,0.2054,-20.81,-36.44,64.56,338.02,-85.26,176.93
23183,53.27098,-1.729873,328.03,18.24,4,172.02,21 / 21,2318328,2019-11-06 15:36:15:445,0.3653,0.6514,9.9827,0.0126,-0.0087,9.8065,-0.1101,0.1803,0.0469,-11.12,-33.0,42.31,343.98,-85.56,179.63
23184,53.27098,-1.729873,328.03,18.24,4,172.02,21 / 21,2318428,2019-11-06 15:36:15:545,0.0252,-0.5662,10.3789,-0.0067,0.0182,9.8066,0.137,-0.1355,0.0171,-11.0,-34.5,36.38,342.09,-85.57,-179.64
23185,53.27098,-1.729873,328.03,18.24,4,172.02,21 / 21,2318528,2019-11-06 15:36:15:645,1.595,1.1836,8.7447,-0.0109,0.0468,9.8064,0.1299,0.0598,-0.025,-11.81,-35.25,34.94,341.54,-85.41,-178.1
23186,53.27098,-1.729873,328.03,18.24,4,172.02,21 / 21,2318629,2019-11-06 15:36:15:746,-0.0353,2.0546,9.0642,0.0034,0.0143,9.8066,-0.0021,-0.0177,0.0543,-11.44,-34.87,35.0,342.2,-85.6,-179.02
23187,53.27098,-1.729873,328.03,18.24,4,172.02,21 / 21,2318728,2019-11-06 15:36:15:845,-2.1293,-2.1277,9.7868,0.0385,-0.0449,9.8064,-0.0779,-0.1303,0.1555,-10.87,-34.5,36.0,341.92,-84.96,-179.61
23188,53.27098,-1.729873,328.03,18.24,4,172.02,21 / 21,2318829,2019-11-06 15:36:15:946,2.4675,-0.7856,9.4473,-0.0145,-0.0004,9.8066,0.0155,-0.1915,0.0435,-10.81,-33.81,37.31,342.93,-85.05,-179.17
23189,53.27098,-1.729873,328.03,18.24,4,172.02,21 / 21,2318928,2019-11-06 15:36:16:045,3.8171,1.5599,8.702,0.0422,0.0456,9.8064,-0.0464,-0.2845,0.2698,-10.69,-33.75,44.31,346.87,-85.23,-178.24
23190,53.27098,-1.729873,328.03,18.24,4,172.02,21 / 21,2319028,2019-11-06 15:36:16:145,-2.7095,-0.1464,9.3802,-0.0072,0.019,9.8066,0.1045,-0.3867,0.1547,-31.31,-38.94,50.81,329.61,-85.58,-177.56
23191,53.27098,-1.729873,328.03,18.24,4,172.02,21 / 21,2319128,2019-11-06 15:36:16:245,0.4083,1.0761,9.4156,0.0308,0.0038,9.8066,-0.0306,-0.0986,0.1363,-16.75,-35.56,32.81,333.82,-85.49,-176.93
23192,53.27098,-1.729873,328.03,18.24,4,172.02,21 / 21,2319228,2019-11-06 15:36:16:345,-0.2151,-1.1582,9.474,0.0091,0.0189,9.8066,-0.0572,-0.1354,0.0322,-14.12,-36.5,33.63,338.53,-85.45,-177.4
23193,53.26963,-1.729572,330.88,16.17,4,171.86,19 / 21,2319328,2019-11-06 15:36:16:445,1.8364,1.6482,10.5059,0.0164,-0.0046,9.8065,0.0117,-0.1912,0.0435,-13.5,-35.56,33.31,337.77,-85.54,-178.95
23194,53.26963,-1.729572,330.88,16.17,4,171.86,19 / 21,2319428,2019-11-06 15:36:16:545,-1.3994,-1.1697,11.1609,0.0138,0.0265,9.8066,0.1887,-0.32,0.1266,-13.75,-35.31,33.44,337.38,-85.48,-177.87
23195,53.26963,-1.729572,330.88,16.17,4,171.86,19 / 21,2319528,2019-11-06 15:36:16:645,-0.4692,0.1679,8.4244,-0.0201,0.0215,9.8066,-0.0833,-0.1473,0.0427,-19.12,-37.0,33.75,332.95,-85.38,-175.78
23196,53.26963,-1.729572,330.88,16.17,4,171.86,19 / 21,2319628,2019-11-06 15:36:16:745,-1.9148,1.0948,10.1366,0.0123,0.0356,9.8065,0.0527,-0.1585,0.1357,-21.94,-36.62,64.06,345.2,-85.74,-175.19
23197,53.26963,-1.729572,330.88,16.17,4,171.86,19 / 21,2319728,2019-11-06 15:36:16:845,0.3481,0.5346,9.8268,0.0009,-0.0022,9.8066,-0.0496,-0.0685,-0.0524,-11.44,-32.87,42.44,351.39,-85.78,-173.43
23198,53.26963,-1.729572,330.88,16.17,4,171.86,19 / 21,2319828,2019-11-06 15:36:16:945,0.2194,0.9398,9.1611,0.0386,0.0275,9.8065,0.1092,-0.198,0.2046,-11.31,-34.06,36.25,346.21,-85.87,-175.88
23199,53.26963,-1.729572,330.88,16.17,4,171.86,19 / 21,2319928,2019-11-06 15:36:17:045,0.5342,0.3983,9.3658,0.0231,-0.0046,9.8066,-0.0818,0.1472,-0.0072,-11.81,-35.06,34.19,344.22,-85.7,-175.16
23200,53.26963,-1.729572,330.88,16.17,4,171.86,19 / 21,2320028,2019-11-06 15:36:17:145,2.0232,2.3762,9.2376,0.0055,0.0183,9.8065,-0.1015,0.2166,-0.0854,-11.94,-35.12,34.38,342.55,-86.03,-176.82
23201,53.26963,-1.729572,330.88,16.17,4,171.86,19 / 21,2320128,2019-11-06 15:36:17:245,-0.8545,0.2804,7.9185,-0.0136,0.0067,9.8066,0.2101,-0.231,0.1063,-12.12,-35.5,34.31,344.39,-86.14,-175.13
23202,53.26963,-1.729572,330.88,16.17,4,171.86,19 / 21,2320228,2019-11-06 15:36:17:345,2.8536,3.7903,9.3338,-0.0415,-0.0053,9.8065,-0.0568,0.1093,-0.0963,-10.87,-34.0,36.75,347.81,-85.97,-174.85
23203,53.26963,-1.729572,330.88,16.17,4,171.86,21 / 21,2320329,2019-11-06 15:36:17:446,2.4423,1.5229,10.7055,0.0659,0.0114,9.8064,0.1056,-0.5569,0.3608,-11.12,-33.5,44.0,350.77,-85.92,-174.7
23204,53.26963,-1.729572,330.88,16.17,4,171.86,21 / 21,2320428,2019-11-06 15:36:17:545,-5.0932,-2.6617,9.556,0.0348,-0.0177,9.8065,0.05,-0.5086,0.2193,-25.06,-38.62,61.13,339.28,-85.53,-177.44
23205,53.26963,-1.729572,330.88,16.17,4,171.86,21 / 21,2320528,2019-11-06 15:36:17:645,1.0882,2.094,8.9789,0.0256,0.0337,9.8065,-0.0559,-0.0006,0.2324,-17.5,-36.69,33.25,331.99,-85.59,-178.62
23206,53.26963,-1.729572,330.88,16.17,4,171.86,21 / 21,2320628,2019-11-06 15:36:17:745,2.2363,0.9069,9.8147,-0.0165,0.0309,9.8065,0.0743,0.1069,-0.2532,-14.25,-35.69,33.13,340.7,-85.7,-174.83
23207,53.26963,-1.729572,330.88,16.17,4,171.86,21 / 21,2320728,2019-11-06 15:36:17:845,-1.2197,0.8925,8.0641,-0.0525,0.0221,9.8064,0.0924,-0.1272,-0.0372,-14.12,-35.75,33.06,336.19,-85.76,-179.04
23208,53.26963,-1.729572,330.88,16.17,4,171.86,21 / 21,2320828,2019-11-06 15:36:17:945,2.0643,2.0811,8.8989,0.0277,-0.0086,9.8065,-0.0903,-0.0593,0.1281,-14.5,-35.56,32.5,337.96,-85.99,-177.49
23209,53.26963,-1.729572,330.88,16.17,4,171.86,21 / 21,2320929,2019-11-06 15:36:18:046,0.0904,3.367,10.0881,0.0549,0.0062,9.8065,0.037,-0.4178,0.2672,-18.06,-37.19,33.81,335.49,-85.98,-174.96
23210,53.26963,-1.729572,330.88,16.17,4,171.86,21 / 21,2321028,2019-11-06 15:36:18:145,-1.606,-0.2042,9.889,0.0009,-0.0034,9.8066,0.0478,-0.1968,0.1175,-28.87,-39.25,58.0,336.37,-85.65,-175.96
23211,53.26963,-1.729572,330.88,16.17,4,171.86,21 / 21,2321128,2019-11-06 15:36:18:245,-0.9009,0.7608,9.3752,-0.0041,0.0059,9.8066,-0.0104,-0.0639,-0.1029,-11.75,-33.5,42.88,349.74,-85.77,-174.09
23212,53.26963,-1.729572,330.88,16.17,4,171.86,21 / 21,2321228,2019-11-06 15:36:18:345,-4.3504,-0.5611,9.445,0.0358,0.0289,9.8065,-0.0386,-0.3423,0.3396,-11.12,-34.25,35.94,345.34,-85.93,-176.7
23213,53.26963,-1.729572,330.88,16.17,4,171.86,20 / 21,2321328,2019-11-06 15:36:18:445,2.3909,1.889,9.7296,0.0769,0.0312,9.8063,-0.057,-0.1189,0.1237,-11.44,-35.12,33.94,348.74,-86.09,-172.56
23214,53.26963,-1.729572,330.88,16.17,4,171.86,20 / 21,2321428,2019-11-06 15:36:18:545,-2.7239,0.1725,8.2969,0.0358,0.0431,9.8064,0.1497,-0.3022,-0.0234,-11.75,-35.37,33.44,334.67,-86.14,176.35
23215,53.26963,-1.729572,330.88,16.17,4,171.86,20 / 21,2321528,2019-11-06 15:36:18:645,1.2206,-0.5758,10.6276,-0.0569,-0.0058,9.8064,0.0692,0.3935,-0.353,-10.81,-35.25,34.44,334.37,-85.85,174.11
23216,53.26963,-1.729572,330.88,16.17,4,171.86,20 / 21,2321628,2019-11-06 15:36:18:745,1.9136,4.7803,7.1813,0.0533,0.0272,9.8064,-0.4503,0.0624,0.1708,-11.25,-35.19,34.88,333.07,-86.35,172.14
23217,53.26963,-1.729572,330.88,16.17,4,171.86,20 / 21,2321728,2019-11-06 15:36:18:845,-0.8599,5.2563,8.7768,0.0107,-0.0574,9.8064,-0.1972,0.3764,0.0291,-11.62,-33.62,42.81,339.79,-86.91,176.23
23218,53.26963,-1.729572,330.88,16.17,4,171.86,20 / 21,2321828,2019-11-06 15:36:18:945,3.2819,0.2232,10.3283,-0.0212,-0.0155,9.8066,0.168,0.2144,-0.3478,-26.5,-38.44,59.75,333.34,-86.85,177.63
23219,53.26963,-1.729572,330.88,16.17,4,171.86,20 / 21,2321928,2019-11-06 15:36:19:045,-4.2181,-3.4919,11.0218,-0.0984,-0.0604,9.8059,0.0016,0.5683,-0.517,-20.06,-37.75,33.81,316.97,-86.45,169.83
23220,53.26963,-1.729572,330.88,16.17,4,171.86,20 / 21,2322028,2019-11-06 15:36:19:145,0.3979,0.6551,8.7653,0.0324,-0.0473,9.8064,-0.2223,0.3825,0.0402,-14.56,-36.19,31.81,328.93,-86.25,176.07
23221,53.26963,-1.729572,330.88,16.17,4,171.86,20 / 21,2322128,2019-11-06 15:36:19:245,-0.9531,-0.0848,7.7698,-0.004,0.011,9.8065,-0.2306,-0.2116,0.1723,-13.75,-36.87,32.19,330.65,-86.48,176.16
23222,53.26963,-1.729572,330.88,16.17,4,171.86,20 / 21,2322228,2019-11-06 15:36:19:345,1.0503,-0.5423,9.4575,-0.0396,0.0464,9.8064,0.2076,0.3673,-0.2207,-15.12,-36.87,31.44,330.23,-87.08,177.64
23223,53.26963,-1.729572,330.88,16.17,4,171.86,20 / 20,2322328,2019-11-06 15:36:19:445,-2.2017,2.724,6.3829,-0.0662,0.0737,9.8061,0.2426,-0.163,-0.0204,-19.5,-38.37,31.56,324.24,-87.65,176.36
23224,53.26963,-1.729572,330.88,16.17,4,171.86,20 / 20,2322428,2019-11-06 15:36:19:545,0.7181,3.6277,7.0644,-0.0052,0.0008,9.8066,-0.17,0.2951,-0.1244,-29.5,-40.69,56.25,318.76,-87.62,167.19
23225,53.26963,-1.729572,330.88,16.17,4,171.86,20 / 20,2322528,2019-11-06 15:36:19:645,-0.388,-1.9384,11.1571,0.0075,0.0185,9.8066,-0.0667,-0.025,0.1713,-11.56,-33.62,45.81,329.12,-87.72,164.6
23226,53.26963,-1.729572,330.88,16.17,4,171.86,20 / 20,2322628,2019-11-06 15:36:19:745,-0.5018,2.9578,8.0331,-0.0287,-0.0347,9.8065,-0.2896,0.2827,-0.0201,-11.69,-35.56,34.81,326.41,-88.13,166.35
23227,53.26963,-1.729572,330.88,16.17,4,171.86,20 / 20,2322728,2019-11-06 15:36:19:845,-3.0016,1.0913,7.7594,-0.0205,0.0276,9.8065,-0.1762,-0.0536,0.2312,-12.25,-36.06,31.63,331.62,-88.83,172.76
23228,53.26963,-1.729572,330.88,16.17,4,171.86,20 / 20,2322828,2019-11-06 15:36:19:945,3.1502,0.4239,9.8765,-0.0906,0.0309,9.8061,0.0328,0.2118,-0.176,-13.12,-36.19,31.38,12.77,-89.45,-144.61
23229,53.26963,-1.729572,330.88,16.17,4,171.86,20 / 20,2322928,2019-11-06 15:36:20:045,1.3933,1.9854,8.1234,-0.0141,0.0437,9.8065,0.1657,-0.1884,0.0873,-12.94,-36.87,31.19,75.28,-89.7,-82.29
23230,53.26963,-1.729572,330.88,16.17,4,171.86,20 / 20,2323028,2019-11-06 15:36:20:145,0.9361,1.2957,8.9534,0.01,-0.0103,9.8066,-0.1223,0.0743,-0.0144,-12.81,-36.06,32.25,53.31,-89.71,-104.82
23231,53.26963,-1.729572,330.88,16.17,4,171.86,20 / 20,2323128,2019-11-06 15:36:20:245,0.6891,0.1585,11.5342,0.0683,-0.0217,9.8063,-0.2328,-0.0729,0.1125,-12.06,-35.0,36.88,136.18,-89.76,-26.0
23232,53.26963,-1.729572,330.88,16.17,4,171.86,20 / 20,2323228,2019-11-06 15:36:20:345,-0.0335,-1.2268,8.4741,0.0402,0.0073,9.8066,0.0186,-0.0862,0.0233,-26.25,-40.5,56.44,212.31,-89.46,57.4
23233,53.26963,-1.729572,330.88,16.17,4,171.86,19 / 19,2323328,2019-11-06 15:36:20:445,1.1576,0.6684,7.849,0.0332,-0.0146,9.8066,-0.0419,0.0246,0.0173,-22.06,-38.44,30.75,216.57,-89.29,72.35
23234,53.26963,-1.729572,330.88,16.17,4,171.86,19 / 19,2323428,2019-11-06 15:36:20:545,-0.905,0.5253,11.1837,-0.0249,-0.0044,9.8066,0.2043,-0.0731,0.0176,-16.19,-38.0,29.25,252.38,-89.27,102.06
23235,53.26963,-1.729572,330.88,16.17,4,171.86,19 / 19,2323528,2019-11-06 15:36:20:645,0.9578,0.2423,8.7334,-0.0207,-0.0034,9.8066,0.1389,0.0894,-0.0097,-15.25,-37.0,29.19,281.76,-89.23,129.97
23236,53.26963,-1.729572,330.88,16.17,4,171.86,19 / 19,2323629,2019-11-06 15:36:20:746,5.6738,2.1929,8.729,-0.0109,0.0099,9.8066,0.1182,0.491,-0.0611,-16.25,-37.5,28.19,289.94,-89.28,140.46
23237,53.26963,-1.729572,330.88,16.17,4,171.86,19 / 19,2323728,2019-11-06 15:36:20:845,-3.1427,-0.7499,8.1363,-0.0197,0.06,9.8064,0.1185,-0.6078,0.4475,-18.31,-38.37,28.56,325.59,-89.45,177.76
23238,53.26963,-1.729572,330.88,16.17,4,171.86,19 / 19,2323828,2019-11-06 15:36:20:945,-1.1089,-1.0366,9.1021,-0.0609,-0.05,9.8063,-0.0658,-0.0281,-0.1318,-32.31,-40.87,53.19,21.98,-89.54,-127.01
23239,53.26963,-1.729572,330.88,16.17,4,171.86,19 / 19,2323929,2019-11-06 15:36:21:046,-0.3317,0.6976,10.1898,-0.0686,0.0047,9.8063,-0.0262,0.5483,-0.1612,-13.62,-34.87,43.38,45.67,-89.67,-116.47
23240,53.26963,-1.729572,330.88,16.17,4,171.86,19 / 19,2324029,2019-11-06 15:36:21:146,5.0808,3.3119,10.661,-0.0687,-0.0822,9.806,0.2179,0.6051,-0.4803,-13.56,-36.0,33.88,48.84,-89.14,-109.41
23241,53.26963,-1.729572,330.88,16.17,4,171.86,19 / 19,2324129,2019-11-06 15:36:21:246,0.5363,-0.7004,9.2919,0.0101,-0.0123,9.8066,0.1262,-0.099,-0.0905,-13.56,-36.44,30.69,357.87,-88.92,-157.78
23242,53.26963,-1.729572,330.88,16.17,4,171.86,19 / 19,2324229,2019-11-06 15:36:21:346,1.5515,1.7266,8.9771,0.0175,0.0032,9.8065,-0.1494,0.11,0.0883,-13.94,-36.69,30.13,346.4,-88.91,-168.3
23243,53.26963,-1.729572,330.88,16.17,4,171.86,20 / 21,2324328,2019-11-06 15:36:21:445,0.5033,1.194,9.9877,0.0331,0.0483,9.8065,0.0964,-0.2896,0.0981,-14.06,-36.62,29.75,350.04,-89.2,-164.79
23244,53.26963,-1.729572,330.88,16.17,4,171.86,20 / 21,2324429,2019-11-06 15:36:21:546,1.0437,0.4927,9.6064,-0.0006,0.028,9.8066,-0.058,-0.0391,-0.0441,-13.44,-36.37,31.13,319.3,-89.6,162.33
23245,53.26963,-1.729572,330.88,16.17,4,171.86,20 / 21,2324528,2019-11-06 15:36:21:645,-3.0208,-0.6165,8.2781,0.0097,-0.0428,9.8065,-0.432,-0.34,0.2566,-13.06,-34.94,35.06,220.12,-89.93,60.54
23246,53.26963,-1.729572,330.88,16.17,4,171.86,20 / 21,2324628,2019-11-06 15:36:21:745,-0.6244,-1.0589,8.5999,0.0153,0.0019,9.8066,-0.099,-0.0987,0.3015,-19.81,-37.19,55.13,120.67,-89.54,-39.6
23247,53.26963,-1.729572,330.88,16.17,4,171.86,20 / 21,2324728,2019-11-06 15:36:21:845,0.023,3.8714,7.3553,-0.0157,0.0757,9.8063,0.2522,-0.3958,0.0221,-23.5,-38.19,29.19,102.49,-89.29,-39.8
23248,53.26963,-1.729572,330.88,16.17,4,171.86,20 / 21,2324828,2019-11-06 15:36:21:945,-1.6619,-0.4133,9.8189,-0.0073,0.0617,9.8064,0.2016,-0.3749,0.1088,-17.37,-37.37,27.44,113.16,-89.63,-35.04
23249,53.26963,-1.729572,330.88,16.17,4,171.86,20 / 21,2324928,2019-11-06 15:36:22:045,4.1872,-0.0422,10.9468,0.0459,0.0421,9.8064,0.0185,-0.2242,0.0549,-16.5,-37.81,27.88,102.16,-89.72,-48.42
23250,53.26963,-1.729572,330.88,16.17,4,171.86,20 / 21,2325028,2019-11-06 15:36:22:145,-2.4574,-2.3381,9.1493,0.0871,0.0485,9.8061,-0.0015,-0.4317,0.3155,-16.19,-37.37,27.31,196.35,-89.36,47.22
23251,53.26963,-1.729572,330.88,16.17,4,171.86,20 / 21,2325128,2019-11-06 15:36:22:245,0.6828,-0.543,10.1314,0.0601,0.0454,9.8063,-0.0283,-0.2126,0.127,-18.81,-37.75,27.56,178.37,-89.55,32.52
23252,53.26963,-1.729572,330.88,16.17,4,171.86,20 / 21,2325228,2019-11-06 15:36:22:345,-1.211,-3.6646,10.1739,0.0457,0.0629,9.8063,0.0603,-0.4906,0.2651,-31.44,-41.19,38.69,204.01,-89.1,62.79
23253,53.26963,-1.729572,330.88,16.17,4,171.86,19 / 20,2325328,2019-11-06 15:36:22:445,-0.7635,0.1623,10.1303,-0.0106,-0.0049,9.8066,-0.0808,0.1931,-0.0941,-14.0,-35.12,43.06,206.93,-89.25,45.22
23254,53.26963,-1.729572,330.88,16.17,4,171.86,19 / 20,2325429,2019-11-06 15:36:22:546,-2.4978,-2.4161,10.9311,0.0229,0.0455,9.8064,0.1006,-0.2976,0.1031,-13.87,-35.5,32.88,200.21,-88.97,43.55
23255,53.26963,-1.729572,330.88,16.17,4,171.86,19 / 20,2325528,2019-11-06 15:36:22:645,3.8034,-1.4277,9.0216,-0.0072,0.0246,9.8065,0.0713,0.217,-0.0577,-14.12,-37.0,29.81,212.22,-89.14,57.74
23256,53.26963,-1.729572,330.88,16.17,4,171.86,19 / 20,2325628,2019-11-06 15:36:22:745,1.3064,0.4684,8.3948,0.0219,0.0249,9.8065,-0.1102,-0.2183,0.0623,-14.31,-36.5,28.56,205.6,-88.91,51.89
23257,53.26963,-1.729572,330.88,16.17,4,171.86,19 / 20,2325728,2019-11-06 15:36:22:845,-2.3794,-0.7534,9.7763,0.0075,-0.02,9.8066,-0.2068,-0.1086,0.2498,-14.0,-37.19,28.19,193.77,-88.71,40.7
23258,53.26963,-1.729572,330.88,16.17,4,171.86,19 / 20,2325828,2019-11-06 15:36:22:945,2.6638,-0.6153,8.4127,-0.0535,0.0288,9.8064,0.0333,0.0601,-0.0034,-14.25,-36.69,28.63,169.14,-88.45,14.58
23259,53.26963,-1.729572,330.88,16.17,4,171.86,19 / 20,2325928,2019-11-06 15:36:23:045,2.7638,0.2778,8.7742,-0.0131,0.06,9.8064,0.1185,-0.2604,-0.1128,-14.19,-35.81,34.5,164.22,-88.38,5.61
23260,53.26963,-1.729572,330.88,16.17,4,171.86,19 / 20,2326028,2019-11-06 15:36:23:145,-5.2941,-4.1615,10.9459,0.1206,0.0572,9.8057,0.1978,-0.8637,0.6435,-20.69,-38.5,55.0,181.21,-88.43,22.13
23261,53.26963,-1.729572,330.88,16.17,4,171.86,19 / 20,2326128,2019-11-06 15:36:23:245,5.6567,2.3881,9.1776,0.0124,0.0485,9.8065,-0.0469,0.4112,-0.1643,-30.56,-40.12,32.94,138.77,-88.69,1.23
23262,53.26963,-1.729572,330.88,16.17,4,171.86,19 / 20,2326228,2019-11-06 15:36:23:345,0.7394,5.3074,7.942,0.0466,0.0741,9.8063,-0.0856,-0.6363,0.3231,-17.44,-37.94,26.63,167.45,-88.13,19.16
23263,53.26963,-1.729572,330.88,16.17,4,171.86,19 / 20,2326328,2019-11-06 15:36:23:445,3.1557,2.4913,7.1775,-0.0374,-0.0225,9.8065,-0.037,0.8189,-0.1618,-16.94,-37.69,26.5,160.03,-87.78,11.34
23264,53.26963,-1.729572,330.88,16.17,4,171.86,19 / 20,2326428,2019-11-06 15:36:23:545,5.1314,0.1938,8.6742,-0.0854,-0.0101,9.8062,-0.0764,0.3957,-0.4184,-17.25,-37.94,26.13,151.45,-87.92,3.42
23265,53.26963,-1.729572,330.88,16.17,4,171.86,19 / 20,2326528,2019-11-06 15:36:23:645,-4.3726,-1.9821,11.2575,-0.0577,-0.0496,9.8063,-0.0164,0.549,-0.1373,-18.56,-38.69,26.94,145.2,-87.82,-1.12
23266,53.26963,-1.729572,330.88,16.17,4,171.86,19 / 20,2326628,2019-11-06 15:36:23:745,2.1933,0.7725,8.7164,0.0026,-0.1042,9.8061,-0.1507,0.5947,-0.2728,-32.94,-41.94,37.06,136.74,-88.11,-2.61
23267,53.26963,-1.729572,330.88,16.17,4,171.86,19 / 20,2326728,2019-11-06 15:36:23:845,-3.3166,-1.631,11.1851,-0.0305,0.0101,9.8066,0.2314,-0.2358,0.0729,-17.37,-36.31,52.25,165.31,-87.98,3.09
23268,53.26963,-1.729572,330.88,16.17,4,171.86,19 / 20,2326828,2019-11-06 15:36:23:945,1.1024,-2.0358,10.8662,-0.0332,-0.0687,9.8063,-0.1187,0.5094,-0.2606,-14.69,-36.12,31.31,147.95,-88.21,-7.21
23269,53.26963,-1.729572,330.88,16.17,4,171.86,19 / 20,2326928,2019-11-06 15:36:24:045,-3.004,-2.205,8.9679,0.0258,-0.0102,9.8065,-0.0488,-0.1966,0.1086,-14.81,-37.37,28.69,155.3,-88.47,1.93
23270,53.26963,-1.729572,330.88,16.17,4,171.86,19 / 20,2327029,2019-11-06 15:36:24:146,2.8039,2.1102,8.3931,-0.042,-0.0045,9.8065,-0.1135,0.3777,-0.1593,-15.12,-37.19,27.63,156.92,-88.54,4.44
23271,53.26963,-1.729572,330.88,16.17,4,171.86,19 / 20,2327128,2019-11-06 15:36:24:245,0.5328,0.0433,11.3414,0.1157,0.0333,9.8058,0.0839,-0.8013,0.4085,-14.0,-37.19,27.44,187.64,-88.52,35.29
23272,53.26963,-1.729572,330.88,16.17,4,171.86,19 / 20,2327228,2019-11-06 15:36:24:345,-3.8563,-4.1283,12.7046,0.0651,-0.0751,9.8061,0.0628,-0.4807,0.1449,-13.75,-36.56,28.5,206.1,-89.0,52.37
23273,53.26963,-1.729572,330.88,16.17,4,171.86,20 / 21,2327328,2019-11-06 15:36:24:445,8.85,5.616,10.1722,0.1429,0.0563,9.8054,0.4166,-1.0095,0.4471,-14.06,-35.87,31.75,226.66,-88.95,71.07
23274,53.26963,-1.729572,330.88,16.17,4,171.86,20 / 21,2327428,2019-11-06 15:36:24:545,-4.0214,-0.2857,12.521,0.1454,0.0213,9.8055,0.2294,-1.3297,0.7393,-19.31,-37.62,55.44,258.65,-88.14,98.89
23275,53.26963,-1.729572,330.88,16.17,4,171.86,20 / 21,2327528,2019-11-06 15:36:24:645,7.1952,8.8285,10.6048,0.0935,0.0443,9.806,0.1479,-0.4397,0.3732,-29.56,-39.69,34.75,270.35,-88.45,132.3
23276,53.26963,-1.729572,330.88,16.17,4,171.86,20 / 21,2327628,2019-11-06 15:36:24:745,-4.173,-2.451,14.6135,0.124,0.0526,9.8056,0.2931,-1.2301,0.5763,-18.62,-36.94,29.63,287.6,-87.65,142.3
23277,53.26963,-1.729572,330.88,16.17,4,171.86,20 / 21,2327729,2019-11-06 15:36:24:846,8.4727,2.1396,10.7728,-0.0193,-0.039,9.8065,0.2538,0.2978,-0.314,-16.12,-36.25,30.19,305.59,-87.05,156.24
23278,53.26963,-1.729572,330.88,16.17,4,171.86,20 / 21,2327828,2019-11-06 15:36:24:945,-3.1873,-3.8698,10.6627,0.0638,0.1033,9.8059,0.2899,-0.6407,0.4471,-16.0,-36.62,30.25,303.47,-86.73,154.56
23279,53.26963,-1.729572,330.88,16.17,4,171.86,20 / 21,2327928,2019-11-06 15:36:25:045,0.6077,1.4815,12.055,-0.0238,-0.0258,9.8066,-0.2709,0.3841,-0.1463,-18.12,-37.5,29.31,309.52,-86.9,163.99
23280,53.26963,-1.729572,330.88,16.17,4,171.86,20 / 21,2328028,2019-11-06 15:36:25:145,-10.2732,-5.3088,11.1756,0.0793,0.062,9.8061,-0.094,-0.7595,0.4764,-31.94,-39.81,39.94,307.96,-87.21,168.37
23281,53.26963,-1.729572,330.88,16.17,4,171.86,20 / 21,2328129,2019-11-06 15:36:25:246,3.7948,2.344,10.5979,-0.0897,-0.078,9.8059,0.0939,1.108,-0.5243,-19.81,-34.94,56.75,338.43,-86.93,178.45
23282,53.26963,-1.729572,330.88,16.17,4,171.86,20 / 21,2328229,2019-11-06 15:36:25:346,8.7339,6.4355,9.8256,0.0674,0.0046,9.8063,-0.0136,-0.2848,0.0814,-15.19,-34.12,38.31,341.87,-86.24,-175.58
23283,53.268425,-1.729047,334.23,17.14,6,159.59,20 / 20,2328328,2019-11-06 15:36:25:445,6.9989,1.9641,10.7804,0.0711,0.0083,9.8064,0.0372,-0.5458,0.1031,-14.87,-35.5,34.25,348.55,-85.63,-166.79
23284,53.268425,-1.729047,334.23,17.14,6,159.59,20 / 20,2328428,2019-11-06 15:36:25:545,6.8346,4.1861,9.0134,0.1638,0.1111,9.8046,0.0909,-0.9633,0.6228,-15.25,-35.37,32.06,329.87,-85.63,177.23
23285,53.268425,-1.729047,334.23,17.14,6,159.59,20 / 20,2328528,2019-11-06 15:36:25:645,-5.1392,-1.6931,8.9007,0.1016,0.0718,9.8058,0.0554,-0.935,0.3464,-15.12,-35.87,32.19,328.27,-85.61,175.81
23286,53.268425,-1.729047,334.23,17.14,6,159.59,20 / 20,2328628,2019-11-06 15:36:25:745,0.8312,1.7907,8.3277,0.0786,0.072,9.8061,0.0512,-0.4879,0.2289,-13.94,-35.94,32.44,330.41,-85.46,176.42
23287,53.268425,-1.729047,334.23,17.14,6,159.59,20 / 20,2328728,2019-11-06 15:36:25:845,-7.024,-1.9416,11.1891,0.0695,0.0505,9.8063,0.1423,-0.9979,0.5057,-13.69,-33.94,36.88,324.71,-85.51,167.74
23288,53.268425,-1.729047,334.23,17.14,6,159.59,20 / 20,2328828,2019-11-06 15:36:25:945,6.1318,2.1277,10.1552,0.0474,-0.0133,9.8065,0.142,-0.5684,0.2233,-14.87,-34.44,53.13,337.84,-85.48,174.76
23289,53.268425,-1.729047,334.23,17.14,6,159.59,20 / 20,2328928,2019-11-06 15:36:26:045,-0.6317,-3.4231,11.401,0.0811,0.0561,9.8061,0.3184,-0.8811,0.5525,-33.56,-38.81,45.56,315.4,-84.92,174.42
23290,53.268425,-1.729047,334.23,17.14,6,159.59,20 / 20,2329028,2019-11-06 15:36:26:145,3.0294,3.5034,8.3526,-0.0166,0.0394,9.8065,-0.0408,-0.029,-0.0723,-18.31,-36.44,31.38,326.21,-84.84,179.34
23291,53.268425,-1.729047,334.23,17.14,6,159.59,20 / 20,2329128,2019-11-06 15:36:26:245,-2.4781,-0.134,10.4648,0.0451,0.0653,9.8063,0.1089,-0.6093,0.4111,-17.37,-35.87,31.5,325.88,-84.91,176.8
23292,53.268425,-1.729047,334.23,17.14,6,159.59,20 / 20,2329228,2019-11-06 15:36:26:345,2.2263,2.9573,9.8867,0.0106,0.0141,9.8066,0.0004,0.1637,-0.1072,-16.75,-36.31,31.38,328.71,-84.96,-179.79
23293,53.268425,-1.729047,334.23,17.14,6,159.59,20 / 20,2329328,2019-11-06 15:36:26:445,-5.9623,2.0269,9.9578,0.0412,0.0473,9.8064,-0.0399,-0.4067,0.2094,-19.12,-36.44,31.81,322.16,-85.11,175.86
23294,53.268425,-1.729047,334.23,17.14,6,159.59,20 / 20,2329428,2019-11-06 15:36:26:545,-0.1199,4.4444,12.0597,0.0699,0.0091,9.8063,-0.0566,-0.0428,0.1805,-28.69,-38.94,36.06,315.62,-85.23,177.39
23295,53.268425,-1.729047,334.23,17.14,6,159.59,20 / 20,2329528,2019-11-06 15:36:26:645,-4.2365,3.02,10.0922,0.0778,-0.0491,9.8061,-0.2044,-0.3611,0.2687,-23.12,-36.31,61.56,333.33,-84.63,175.09
23296,53.268425,-1.729047,334.23,17.14,6,159.59,20 / 20,2329629,2019-11-06 15:36:26:746,2.2978,3.6608,10.2039,0.0215,-0.0415,9.8065,0.0211,-0.1135,0.1109,-14.12,-33.44,38.94,335.3,-84.38,177.02
23297,53.268425,-1.729047,334.23,17.14,6,159.59,20 / 20,2329728,2019-11-06 15:36:26:845,-2.8784,0.0765,10.1169,0.0287,0.0149,9.8065,0.0646,-0.3306,0.2359,-14.37,-35.44,34.88,334.43,-84.23,178.65
23298,53.268425,-1.729047,334.23,17.14,6,159.59,20 / 20,2329828,2019-11-06 15:36:26:945,0.4692,0.4596,9.5212,-0.0046,-0.0022,9.8066,-0.0304,-0.0393,-0.0244,-15.06,-34.87,33.31,334.63,-84.17,-178.4
23299,53.268425,-1.729047,334.23,17.14,6,159.59,20 / 20,2329928,2019-11-06 15:36:27:045,-4.412,-0.1324,9.5852,0.0209,0.0442,9.8065,-0.0132,-0.3443,0.2282,-14.94,-34.94,33.0,334.27,-84.37,-178.81
23300,53.268425,-1.729047,334.23,17.14,6,159.59,20 / 20,2330028,2019-11-06 15:36:27:145,1.431,2.2641,10.5073,0.035,0.0011,9.8065,-0.0417,0.0705,-0.0866,-14.81,-35.56,33.94,332.16,-84.43,178.6
23301,53.268425,-1.729047,334.23,17.14,6,159.59,20 / 20,2330129,2019-11-06 15:36:27:246,-0.1718,-1.0025,10.5019,0.0647,0.0008,9.8064,0.1101,-0.0428,-0.0999,-14.25,-34.44,36.88,332.06,-84.23,175.23
23302,53.268425,-1.729047,334.23,17.14,6,159.59,20 / 20,2330228,2019-11-06 15:36:27:345,3.0304,0.5675,10.5702,-0.0064,-0.0082,9.8066,-0.0392,0.3105,0.019,-13.81,-32.94,48.19,336.45,-83.83,174.46
23303,53.268425,-1.729047,334.23,17.14,6,159.59,20 / 20,2330330,2019-11-06 15:36:27:447,-2.4238,0.3448,10.491,0.0197,0.0201,9.8065,-0.004,-0.2257,0.1271,-33.12,-39.94,54.31,321.33,-83.65,175.44
23304,53.268425,-1.729047,334.23,17.14,6,159.59,20 / 20,2330428,2019-11-06 15:36:27:545,-3.0252,1.7204,11.029,-0.02,-0.0118,9.8066,0.0016,0.1074,0.0191,-18.87,-36.56,32.0,323.68,-83.84,178.17
23305,53.268425,-1.729047,334.23,17.14,6,159.59,20 / 20,2330528,2019-11-06 15:36:27:645,-2.2304,-1.1851,10.4426,-0.0052,-0.0269,9.8066,0.0849,-0.319,0.2782,-17.62,-35.69,32.5,327.59,-83.76,179.55
23306,53.268425,-1.729047,334.23,17.14,6,159.59,20 / 20,2330628,2019-11-06 15:36:27:745,-2.2339,2.014,10.3427,-0.0003,-0.0453,9.8065,0.1175,-0.148,0.0029,-16.94,-35.81,33.19,328.73,-83.34,179.51
23307,53.268425,-1.729047,334.23,17.14,6,159.59,20 / 20,2330729,2019-11-06 15:36:27:846,0.2251,3.7295,9.6246,-0.0154,-0.0358,9.8066,0.079,-0.0927,0.1397,-18.75,-35.81,33.19,328.06,-82.77,-178.19
23308,53.268425,-1.729047,334.23,17.14,6,159.59,20 / 20,2330828,2019-11-06 15:36:27:945,-0.1718,1.5231,8.8688,-0.0278,-0.0129,9.8065,-0.0701,-0.0622,-0.016,-27.19,-36.75,36.19,319.88,-82.84,-179.23
23309,53.268425,-1.729047,334.23,17.14,6,159.59,20 / 20,2330929,2019-11-06 15:36:28:046,0.1095,2.3112,9.7634,-0.015,-0.011,9.8066,0.1012,-0.2682,0.1363,-26.12,-36.31,63.06,339.75,-82.82,-176.37
23310,53.268425,-1.729047,334.23,17.14,6,159.59,20 / 20,2331028,2019-11-06 15:36:28:145,-1.7862,0.2608,11.2324,-0.0221,-0.0597,9.8064,0.0962,-0.158,0.0371,-15.75,-33.19,40.38,340.79,-82.42,-175.35
23311,53.268425,-1.729047,334.23,17.14,6,159.59,20 / 20,2331129,2019-11-06 15:36:28:246,-0.6023,3.6606,9.7702,0.0179,-0.0145,9.8065,0.0057,-0.0145,-0.1522,-15.06,-33.44,36.88,340.4,-82.39,-175.27
23312,53.268425,-1.729047,334.23,17.14,6,159.59,20 / 20,2331228,2019-11-06 15:36:28:345,-0.8128,-0.7415,10.535,0.0018,-0.0078,9.8066,0.0619,0.0148,0.0979,-16.12,-34.44,35.69,337.74,-82.51,-175.68
23313,53.268425,-1.729047,334.23,17.14,6,159.59,20 / 20,2331328,2019-11-06 15:36:28:445,1.7439,-1.5425,10.6904,0.0315,-0.0017,9.8066,-0.085,-0.1102,-0.0611,-15.25,-34.94,35.25,335.0,-82.38,-178.66
23314,53.268425,-1.729047,334.23,17.14,6,159.59,20 / 20,2331428,2019-11-06 15:36:28:545,0.2702,0.0772,10.1022,-0.0154,0.0125,9.8066,0.0037,-0.0129,0.0501,-14.69,-33.94,35.44,333.35,-82.34,179.82
23315,53.268425,-1.729047,334.23,17.14,6,159.59,20 / 20,2331528,2019-11-06 15:36:28:645,0.5281,1.3573,9.6699,0.0238,-0.0278,9.8065,0.0872,0.0094,-0.0314,-14.56,-33.5,38.56,335.37,-82.22,179.17
23316,53.268425,-1.729047,334.23,17.14,6,159.59,20 / 20,2331628,2019-11-06 15:36:28:745,0.6112,0.4705,9.7411,0.0291,-0.0137,9.8065,0.0289,-0.131,0.0349,-14.37,-32.56,54.81,343.0,-81.95,178.8
23317,53.268425,-1.729047,334.23,17.14,6,159.59,20 / 20,2331728,2019-11-06 15:36:28:845,0.5951,-0.3352,9.4245,-0.0303,-0.0015,9.8065,-0.0507,0.1675,0.0379,-34.37,-39.06,50.31,321.75,-81.94,179.46
23318,53.268425,-1.729047,334.23,17.14,6,159.59,20 / 20,2331828,2019-11-06 15:36:28:945,-2.5775,0.311,10.0222,-0.0378,0.0279,9.8065,-0.161,-0.0933,0.073,-20.19,-35.19,34.94,324.95,-81.65,179.15
23319,53.268425,-1.729047,334.23,17.14,6,159.59,20 / 20,2331928,2019-11-06 15:36:29:045,-0.5683,3.2163,8.2697,-0.0011,-0.0267,9.8066,0.0806,0.121,0.2002,-16.94,-34.56,34.13,328.04,-81.64,178.96
23320,53.268425,-1.729047,334.23,17.14,6,159.59,20 / 20,2332028,2019-11-06 15:36:29:145,-3.7972,-2.0013,10.0651,0.079,-0.0178,9.8062,0.208,-0.3109,-0.1833,-17.0,-34.94,33.94,329.39,-81.65,-179.87
23321,53.268425,-1.729047,334.23,17.14,6,159.59,20 / 20,2332128,2019-11-06 15:36:29:245,2.7272,0.7148,11.4198,-0.0315,-0.046,9.8065,0.1837,0.2417,-0.0394,-16.94,-35.06,34.31,330.46,-81.27,-178.73
23322,53.268425,-1.729047,334.23,17.14,6,159.59,20 / 20,2332229,2019-11-06 15:36:29:346,-1.0232,0.7867,8.8569,-0.0141,-0.0094,9.8066,-0.1202,-0.0693,0.0708,-27.5,-37.0,38.13,320.99,-81.2,-178.88
23323,53.268425,-1.729047,334.23,17.14,6,159.59,21 / 21,2332328,2019-11-06 15:36:29:445,-0.1892,-1.0529,10.3127,-0.0166,0.021,9.8065,-0.1434,0.0604,0.0249,-24.94,-35.37,64.5,338.84,-81.25,-178.31
23324,53.268425,-1.729047,334.23,17.14,6,159.59,21 / 21,2332428,2019-11-06 15:36:29:545,-0.4146,0.0403,10.5637,-0.011,0.0247,9.8066,-0.0701,0.0739,-0.0117,-15.19,-32.0,42.81,340.43,-81.29,-178.09
23325,53.268425,-1.729047,334.23,17.14,6,159.59,21 / 21,2332528,2019-11-06 15:36:29:645,0.2505,0.0294,11.9685,0.0535,0.0165,9.8065,0.26,0.2408,-0.4944,-15.44,-33.62,36.88,334.76,-81.63,-179.9
23326,53.268425,-1.729047,334.23,17.14,6,159.59,21 / 21,2332628,2019-11-06 15:36:29:745,-0.7177,1.1696,8.9621,0.0166,0.0647,9.8063,-0.208,0.1938,0.046,-15.44,-34.12,36.13,334.1,-81.6,-179.84
23327,53.268425,-1.729047,334.23,17.14,6,159.59,21 / 21,2332728,2019-11-06 15:36:29:845,0.2639,-0.3955,12.0205,-0.0072,0.0178,9.8066,-0.1983,0.0987,0.2043,-15.06,-34.12,35.94,329.86,-81.66,176.39
23328,53.268425,-1.729047,334.23,17.14,6,159.59,21 / 21,2332828,2019-11-06 15:36:29:945,2.8325,0.7887,13.6588,-0.0092,0.0313,9.8065,0.0986,0.2296,-0.2879,-14.56,-33.87,36.88,330.07,-81.62,175.96
23329,53.268425,-1.729047,334.23,17.14,6,159.59,21 / 21,2332928,2019-11-06 15:36:30:045,-1.4474,1.0094,8.4783,0.0317,-0.0138,9.8066,0.0746,-0.267,0.2434,-14.5,-33.19,39.13,333.84,-81.68,176.75
23330,53.268425,-1.729047,334.23,17.14,6,159.59,21 / 21,2333028,2019-11-06 15:36:30:145,-1.6449,0.4874,12.4616,0.0125,-0.0538,9.8065,0.0933,-0.2175,-0.1031,-13.94,-32.19,47.06,338.96,-81.94,177.63
23331,53.268425,-1.729047,334.23,17.14,6,159.59,21 / 21,2333128,2019-11-06 15:36:30:245,2.5596,1.0827,11.4954,-0.0356,-0.032,9.8064,0.1828,0.1,-0.1984,-34.37,-38.62,49.69,323.36,-81.75,-178.96
23332,53.268425,-1.729047,334.23,17.14,6,159.59,21 / 21,2333228,2019-11-06 15:36:30:345,-2.2627,-0.2687,8.2755,-0.0312,0.0069,9.8065,-0.2638,-0.2475,0.3318,-20.19,-35.69,35.06,325.31,-81.61,179.61
23333,53.268425,-1.729047,334.23,17.14,6,159.59,20 / 21,2333328,2019-11-06 15:36:30:445,1.2322,1.6613,8.9374,-0.0553,0.0084,9.8064,-0.1856,-0.0946,0.2146,-17.12,-34.81,34.56,331.29,-81.87,-179.05
23334,53.268425,-1.729047,334.23,17.14,6,159.59,20 / 21,2333429,2019-11-06 15:36:30:546,-1.7713,0.3556,9.8381,-0.0143,0.0102,9.8066,0.1756,-0.3868,-0.0445,-16.31,-34.87,33.69,331.54,-82.41,-179.68
23335,53.268425,-1.729047,334.23,17.14,6,159.59,20 / 21,2333528,2019-11-06 15:36:30:645,2.2862,-0.3432,11.0971,-0.0191,-0.0269,9.8065,0.1472,-0.0687,-0.0088,-18.19,-35.5,33.44,329.65,-82.62,-178.06
23336,53.268425,-1.729047,334.23,17.14,6,159.59,20 / 21,2333628,2019-11-06 15:36:30:745,-3.1114,0.0333,9.5701,-0.0182,-0.036,9.8065,-0.0727,-0.2605,0.1947,-22.94,-36.87,34.69,321.38,-82.54,179.05
23337,53.268425,-1.729047,334.23,17.14,6,159.59,20 / 21,2333728,2019-11-06 15:36:30:845,3.0039,2.0023,11.674,-0.0128,-0.0114,9.8066,-0.1498,-0.3655,0.2049,-22.94,-35.31,64.31,338.41,-82.3,179.81
23338,53.268425,-1.729047,334.23,17.14,6,159.59,20 / 21,2333830,2019-11-06 15:36:30:947,1.5632,0.9652,11.5642,-0.0685,-0.0148,9.8064,0.1001,-0.2186,0.1806,-14.75,-32.19,43.81,336.32,-82.14,177.51
23339,53.268425,-1.729047,334.23,17.14,6,159.59,20 / 21,2333928,2019-11-06 15:36:31:045,0.0271,0.2096,7.3576,0.0363,-0.0311,9.8065,-0.071,-0.2813,0.0526,-14.25,-34.25,37.94,335.03,-82.11,178.25
23340,53.268425,-1.729047,334.23,17.14,6,159.59,20 / 21,2334028,2019-11-06 15:36:31:145,-2.8748,-0.5721,11.7907,0.0027,-0.0286,9.8065,0.2337,-0.2606,0.1507,-14.75,-34.31,35.5,333.88,-82.38,179.63
23341,53.268425,-1.729047,334.23,17.14,6,159.59,20 / 21,2334128,2019-11-06 15:36:31:245,-2.2536,-1.2474,10.4614,-0.0174,-0.0023,9.8066,0.1629,-0.3777,0.1703,-14.37,-33.87,35.63,334.91,-82.8,179.02
23342,53.268425,-1.729047,334.23,17.14,6,159.59,20 / 21,2334228,2019-11-06 15:36:31:345,-1.8044,-0.156,8.7284,-0.0552,-0.0029,9.8064,-0.1516,-0.046,0.2022,-14.44,-33.87,35.81,334.67,-82.93,178.75
23343,53.268425,-1.729047,334.23,17.14,6,159.59,21 / 21,2334328,2019-11-06 15:36:31:445,4.3711,1.1144,9.5969,-0.0027,-0.0038,9.8066,-0.064,-0.4654,0.4908,-14.12,-33.19,37.81,335.63,-83.07,178.34
23344,53.268425,-1.729047,334.23,17.14,6,159.59,21 / 21,2334428,2019-11-06 15:36:31:545,2.7483,2.848,10.7171,-0.0248,-0.0115,9.8066,0.1244,0.1196,-0.2336,-14.19,-32.37,46.94,339.67,-83.08,177.96
23345,53.268425,-1.729047,334.23,17.14,6,159.59,21 / 21,2334528,2019-11-06 15:36:31:645,-0.8817,-0.9709,9.4206,0.0475,-0.0227,9.8065,0.1888,-0.3833,0.156,-31.19,-38.25,58.88,328.31,-82.97,178.32
23346,53.268425,-1.729047,334.23,17.14,6,159.59,21 / 21,2334628,2019-11-06 15:36:31:745,-1.685,-0.9203,10.3893,0.0008,-0.0208,9.8066,-0.0687,0.0985,-0.0898,-19.62,-35.19,34.56,324.64,-83.1,178.05
23347,53.268425,-1.729047,334.23,17.14,6,159.59,21 / 21,2334728,2019-11-06 15:36:31:845,3.2764,2.999,9.2427,-0.007,0.0345,9.8065,0.0055,-0.4512,0.3228,-17.19,-35.06,33.63,326.85,-83.32,176.95
23348,53.268425,-1.729047,334.23,17.14,6,159.59,21 / 21,2334828,2019-11-06 15:36:31:945,5.3774,3.2705,8.8094,-0.0406,-0.0268,9.8064,0.0384,0.268,-0.1578,-16.5,-35.44,33.75,326.04,-83.29,174.92
23349,53.268425,-1.729047,334.23,17.14,6,159.59,21 / 21,2334928,2019-11-06 15:36:32:045,-1.5574,-1.3434,9.5871,0.0383,0.0148,9.8065,0.1567,-0.5111,0.1676,-17.37,-35.06,33.19,324.6,-83.37,175.66
23350,53.268425,-1.729047,334.23,17.14,6,159.59,21 / 21,2335028,2019-11-06 15:36:32:145,-1.8376,-1.9039,10.3814,-0.0051,-0.0308,9.8066,-0.0227,0.1577,0.0032,-22.87,-36.56,34.31,318.33,-83.42,176.54
23351,53.268425,-1.729047,334.23,17.14,6,159.59,21 / 21,2335128,2019-11-06 15:36:32:245,-3.2992,-1.9547,9.4559,-0.001,0.0232,9.8066,-0.0838,-0.4843,0.3037,-29.69,-38.37,61.69,328.18,-83.39,176.1
23352,53.268425,-1.729047,334.23,17.14,6,159.59,21 / 21,2335228,2019-11-06 15:36:32:345,-0.2937,-0.7128,11.1198,-0.0542,-0.0135,9.8064,0.0643,0.0138,0.0186,-14.44,-33.44,42.69,338.84,-83.36,178.75
