,GPS LATITUDE (degrees), GPS LONGITUDE (degrees), GPS ALTITUDE (m), GPS SPEED (Kmh), GPS ACCURACY (m), GPS ORIENTATION (Â°),GPS SATELLITES IN RANGE, TIME SINCE START (ms), DATE (YYYY-MO-DD HH-MI-SS_SSS), ACCELEROMETER X (m/s²) , ACCELEROMETER Y (m/s²), ACCELEROMETER Z (m/s²), GRAVITY X (m/s²), GRAVITY Y (m/s²), GRAVITY Z (m/s²), GYROSCOPE Yaw (rad/s), GYROSCOPE Pitch (rad/s), GYROSCOPE Roll (rad/s), MAGNETIC FIELD X (Î¼T), MAGNETIC FIELD Y (Î¼T), MAGNETIC FIELD Z (Î¼T), ORIENTATION (Yaw) (Â°), ORIENTATION (Pitch) (Â°), ORIENTATION (Roll ) (Â°)
26207,52.406796,-1.506066,138.07,4.28,4,219.25,20 / 20,3097108,2019-09-04 20:58:09:221,-0.3395,-0.0813,10.4121,0.0009,-0.0023,9.8066,0.0016,0.0671,0.0009,-6.31,-29.87,21.13,233.9,-86.31,73.89
26208,52.406796,-1.506066,138.07,4.28,4,219.25,20 / 20,3097207,2019-09-04 20:58:09:320,-0.5025,0.0551,9.9699,-0.0074,-0.0049,9.8066,0.0023,0.0635,0.0262,-6.37,-28.75,22.06,234.96,-86.33,73.98
26209,52.406796,-1.506066,138.07,4.28,4,219.25,20 / 20,3097308,2019-09-04 20:58:09:421,-1.0036,-0.1372,9.8732,-0.009,-0.0114,9.8066,0.0204,0.046,0.023,-6.12,-29.94,22.19,235.46,-86.53,74.44
26210,52.406796,-1.506066,138.07,4.28,4,219.25,20 / 21,3097408,2019-09-04 20:58:09:521,-1.0419,0.0848,9.8733,-0.005,-0.013,9.8066,0.0261,0.0319,0.0077,-7.12,-28.69,21.5,234.77,-86.65,75.82
26211,52.406796,-1.506066,138.07,4.28,4,219.25,20 / 21,3097507,2019-09-04 20:58:09:620,-0.8405,-0.1898,9.7099,0.0034,-0.0075,9.8066,0.0063,0.0487,-0.0118,-7.75,-28.5,22.81,236.29,-86.75,78.54
26212,52.406796,-1.506066,138.07,4.28,4,219.25,20 / 21,3097608,2019-09-04 20:58:09:721,-0.7751,0.3251,9.7313,0.0045,0.0036,9.8066,0.002,0.0244,-0.0135,-7.69,-28.0,23.13,236.55,-86.62,78.93
26213,52.406796,-1.506066,138.07,4.28,4,219.25,20 / 21,3097707,2019-09-04 20:58:09:820,-0.6156,0.3516,9.9546,0.0032,0.0004,9.8066,0.0074,0.023,-0.0034,-8.12,-28.06,22.63,236.93,-86.58,79.36
26214,52.406796,-1.506066,138.07,4.28,4,219.25,20 / 21,3097808,2019-09-04 20:58:09:921,-0.7119,-0.3105,9.5898,-0.0076,-0.0114,9.8066,0.0117,0.0253,0.0328,-9.12,-26.12,22.81,235.96,-86.61,80.24
26215,52.406796,-1.506066,138.07,4.28,4,219.25,20 / 21,3097907,2019-09-04 20:58:10:020,-1.1382,-0.2395,9.3818,-0.0008,-0.0023,9.8066,-0.0084,0.0302,-0.0003,-9.0,-26.94,22.44,236.1,-86.75,81.38
26216,52.406796,-1.506066,138.07,4.28,4,219.25,20 / 21,3098007,2019-09-04 20:58:10:120,-1.243,-0.4659,9.8732,0.0099,0.0069,9.8065,-0.0102,0.0193,-0.031,-8.81,-26.37,21.94,235.61,-86.7,80.79
26217,52.406796,-1.506066,138.07,4.28,4,219.25,20 / 21,3098107,2019-09-04 20:58:10:220,-0.5133,-0.0457,9.659,0.018,0.0123,9.8066,-0.0047,0.0175,-0.0499,-9.37,-26.12,21.25,234.48,-86.41,80.96
26218,52.406796,-1.506066,138.07,4.28,4,219.25,20 / 21,3098208,2019-09-04 20:58:10:321,-0.0418,0.0716,9.6718,-0.0016,0.0096,9.8066,-0.0324,0.0125,0.0087,-9.12,-26.12,21.31,233.27,-86.19,79.89
26219,52.406796,-1.506066,138.07,4.28,4,219.25,20 / 21,3098308,2019-09-04 20:58:10:421,-0.504,-0.1456,9.4842,-0.0057,0.0042,9.8066,-0.0035,0.0128,-0.0054,-9.19,-26.44,20.5,231.65,-86.22,78.16
26220,52.406796,-1.506066,138.07,4.28,4,219.25,21 / 21,3098407,2019-09-04 20:58:10:520,-0.7139,-0.2742,9.9469,-0.0114,-0.0089,9.8066,-0.0079,0.0193,0.0391,-9.25,-26.62,20.0,230.75,-86.24,78.51
26221,52.406796,-1.506066,138.07,4.28,4,219.25,21 / 21,3098508,2019-09-04 20:58:10:621,-1.2185,-0.1631,9.9376,-0.0027,-0.0005,9.8066,-0.0021,0.0001,-0.016,-8.94,-27.31,19.63,230.26,-86.43,77.82
26222,52.406796,-1.506066,138.07,4.28,4,219.25,21 / 21,3098607,2019-09-04 20:58:10:720,-0.9036,-0.1912,9.9652,0.0019,-0.006,9.8066,0.0151,0.0201,0.0038,-8.06,-27.87,19.06,231.6,-86.37,78.25
26223,52.406796,-1.506066,138.07,4.28,4,219.25,21 / 21,3098708,2019-09-04 20:58:10:821,-0.8753,-0.7272,9.4257,0.0011,-0.0049,9.8066,-0.0041,-0.0059,0.0005,-8.25,-28.12,18.0,231.7,-86.4,79.62
26224,52.406796,-1.506066,138.07,4.28,4,219.25,21 / 21,3098808,2019-09-04 20:58:10:921,-0.4514,0.0329,10.0035,-0.0078,0.008,9.8066,-0.012,-0.0071,0.0179,-7.75,-29.37,18.19,229.58,-86.37,77.56
26225,52.406796,-1.506066,138.07,4.28,4,219.25,21 / 21,3098907,2019-09-04 20:58:11:020,-0.7772,-0.0061,10.1009,-0.0176,-0.0004,9.8066,-0.0074,-0.002,0.0364,-6.81,-30.94,18.31,230.32,-86.5,75.85
26226,52.406796,-1.506066,138.07,4.28,4,219.25,21 / 21,3099008,2019-09-04 20:58:11:121,-0.8692,-0.2096,9.8608,-0.0159,-0.0057,9.8066,-0.0044,-0.0068,0.0386,-6.56,-31.5,18.13,229.39,-86.64,74.69
26227,52.406796,-1.506066,138.07,4.28,4,219.25,21 / 21,3099108,2019-09-04 20:58:11:221,-1.2767,-0.2494,9.7626,-0.0139,0.001,9.8066,-0.0184,0.0251,0.0112,-6.44,-32.0,19.06,230.92,-86.87,72.3
26228,52.406796,-1.506066,138.07,4.28,4,219.25,21 / 21,3099207,2019-09-04 20:58:11:320,-0.727,-0.3178,9.5976,0.0128,0.0033,9.8065,0.0013,-0.0013,-0.0327,-5.94,-32.19,19.56,231.25,-86.85,71.67
26229,52.406796,-1.506066,138.07,4.28,4,219.25,21 / 21,3099308,2019-09-04 20:58:11:421,-0.4566,-0.0477,9.8441,0.0006,-0.0021,9.8066,0.0061,-0.0109,0.0056,-5.87,-32.31,20.13,232.42,-86.73,73.05
26230,52.406796,-1.506066,138.07,4.28,4,219.25,21 / 21,3099407,2019-09-04 20:58:11:520,-0.5513,0.1053,9.5711,-0.0095,0.0018,9.8066,-0.0106,-0.0075,0.0244,-6.62,-32.06,20.44,228.89,-86.83,71.75
26231,52.406796,-1.506066,138.07,4.28,4,219.25,21 / 21,3099508,2019-09-04 20:58:11:621,-1.1332,-0.1111,9.7185,-0.0077,-0.0016,9.8066,0.0037,-0.014,-0.0008,-5.87,-32.06,21.06,231.21,-86.92,70.64
26232,52.406796,-1.506066,138.07,4.28,4,219.25,21 / 21,3099608,2019-09-04 20:58:11:721,-0.823,-0.4278,10.1373,0.003,0.0,9.8066,0.0005,-0.0025,-0.0083,-6.44,-32.19,21.19,231.68,-86.9,71.15
26233,52.406796,-1.506066,138.07,4.28,4,219.25,21 / 21,3099708,2019-09-04 20:58:11:821,-0.5675,0.1586,9.8488,0.0023,0.0014,9.8066,0.0006,-0.0015,-0.0174,-6.31,-32.06,22.0,232.73,-86.86,71.46
26234,52.406796,-1.506066,138.07,4.28,4,219.25,21 / 21,3099808,2019-09-04 20:58:11:921,-0.7248,-0.3585,9.5052,-0.0013,-0.0004,9.8066,-0.0071,-0.0087,-0.0032,-6.56,-31.5,22.25,230.76,-86.83,71.67
26235,52.406796,-1.506066,138.07,4.28,4,219.25,21 / 21,3099908,2019-09-04 20:58:12:021,-0.827,-0.5827,9.4228,0.0028,0.0096,9.8066,-0.0326,-0.0055,-0.0265,-6.69,-31.06,22.25,229.83,-86.78,70.75
26236,52.406796,-1.506066,138.07,4.28,4,219.25,21 / 21,3100008,2019-09-04 20:58:12:121,-0.7028,0.0416,10.0038,-0.0024,0.0134,9.8066,-0.0295,0.0057,0.005,-7.37,-29.94,22.38,226.51,-86.57,67.34
26237,52.406796,-1.506066,138.07,4.28,4,219.25,21 / 21,3100108,2019-09-04 20:58:12:221,-0.481,0.3198,10.3089,-0.0003,0.0046,9.8066,-0.0064,-0.006,-0.0116,-6.94,-29.81,22.81,226.04,-86.54,66.02
26238,52.406796,-1.506066,138.07,4.28,4,219.25,21 / 21,3100207,2019-09-04 20:58:12:320,-1.1089,0.3977,10.3694,0.0007,-0.0075,9.8066,0.0352,-0.0041,0.0041,-7.56,-29.25,22.44,222.9,-86.53,65.76
26239,52.406796,-1.506066,138.07,4.28,4,219.25,21 / 21,3100308,2019-09-04 20:58:12:421,-1.2626,0.0226,9.5652,0.0094,-0.0242,9.8065,0.0874,-0.0052,-0.0031,-8.12,-28.25,21.81,227.23,-86.67,70.09
26240,52.406796,-1.506066,138.07,4.28,4,219.25,20 / 20,3100407,2019-09-04 20:58:12:520,-0.579,-0.9177,9.3388,0.0028,-0.0187,9.8066,0.0283,-0.011,0.0113,-7.87,-29.19,21.56,234.39,-86.8,77.56
26241,52.406796,-1.506066,138.07,4.28,4,219.25,20 / 20,3100507,2019-09-04 20:58:12:620,-0.7839,-0.4077,9.3634,0.002,0.0024,9.8066,-0.0115,-0.0085,-0.0064,-8.31,-30.0,20.69,233.86,-86.81,78.12
26242,52.406796,-1.506066,138.07,4.28,4,219.25,20 / 20,3100607,2019-09-04 20:58:12:720,-1.0251,0.2313,10.382,-0.0036,0.0161,9.8065,-0.0371,0.0002,-0.0097,-8.25,-30.25,20.25,230.88,-86.75,76.15
26243,52.406796,-1.506066,138.07,4.28,4,219.25,20 / 20,3100707,2019-09-04 20:58:12:820,-1.4949,1.0274,10.3069,-0.0007,0.008,9.8066,0.0,0.0105,-0.0142,-7.12,-31.69,19.69,229.62,-86.65,72.73
26244,52.406796,-1.506066,138.07,4.28,4,219.25,20 / 20,3100807,2019-09-04 20:58:12:920,-1.1533,-0.2226,9.6732,-0.0001,-0.0056,9.8066,0.0449,-0.0018,-0.0135,-7.12,-32.37,19.44,229.3,-86.62,73.53
26245,52.406796,-1.506066,138.07,4.28,4,219.25,20 / 20,3100908,2019-09-04 20:58:13:021,-0.945,0.1616,9.4689,0.0119,-0.0056,9.8066,0.021,0.0026,-0.0126,-6.19,-33.12,21.06,236.21,-86.6,76.39
26246,52.406796,-1.506066,138.07,4.28,4,219.25,20 / 20,3101008,2019-09-04 20:58:13:121,-0.569,0.3171,10.1267,-0.0071,-0.0022,9.8066,-0.0036,-0.0361,0.0331,-6.25,-33.06,20.69,237.37,-86.63,77.56
26247,52.406796,-1.506066,138.07,4.28,4,219.25,20 / 20,3101107,2019-09-04 20:58:13:220,-1.2813,0.1762,10.6553,-0.0104,0.0032,9.8066,-0.0138,0.0081,0.0098,-6.5,-32.62,21.19,236.06,-86.73,76.07
26248,52.406796,-1.506066,138.07,4.28,4,219.25,20 / 20,3101208,2019-09-04 20:58:13:321,-1.8085,-0.0068,10.1152,0.0079,-0.0039,9.8066,0.027,0.0108,-0.0332,-6.37,-32.31,22.44,236.68,-86.72,75.74
26249,52.406796,-1.506066,138.07,4.28,4,219.25,20 / 20,3101308,2019-09-04 20:58:13:421,-0.5469,-0.2823,9.532,0.0126,-0.0077,9.8066,0.0248,0.0195,-0.0137,-6.5,-32.56,22.56,240.49,-86.59,79.19
26250,52.406796,-1.506066,138.07,4.28,4,219.25,21 / 21,3101408,2019-09-04 20:58:13:521,-0.5546,0.5196,9.5651,0.0004,-0.0051,9.8066,0.0177,0.0013,-0.002,-6.37,-31.69,22.5,242.83,-86.6,81.5
26251,52.406796,-1.506066,138.07,4.28,4,219.25,21 / 21,3101508,2019-09-04 20:58:13:621,-1.0502,-0.551,10.2328,0.002,0.005,9.8066,-0.0058,-0.0019,-0.0166,-6.25,-30.75,22.75,242.85,-86.57,81.41
26252,52.406796,-1.506066,138.07,4.28,4,219.25,21 / 21,3101607,2019-09-04 20:58:13:720,-0.9035,0.2954,9.5282,0.0067,0.0054,9.8066,-0.0111,0.0033,-0.0231,-7.0,-31.75,22.63,240.27,-86.48,81.22
26253,52.406796,-1.506066,138.07,4.28,4,219.25,21 / 21,3101707,2019-09-04 20:58:13:820,-0.4713,-0.0895,9.8687,0.0003,0.0027,9.8066,-0.0094,0.0034,-0.0089,-6.81,-30.12,22.5,239.88,-86.38,80.67
26254,52.406796,-1.506066,138.07,4.28,4,219.25,21 / 21,3101807,2019-09-04 20:58:13:920,-0.8382,0.0456,9.9739,0.0005,-0.0006,9.8066,0.0056,0.0077,0.0051,-6.5,-29.81,22.44,240.84,-86.34,80.25
26255,52.406796,-1.506066,138.07,4.28,4,219.25,21 / 21,3101908,2019-09-04 20:58:14:021,-0.8031,-0.2083,10.0181,0.0071,0.0044,9.8066,-0.0048,0.0044,-0.0301,-6.5,-29.87,21.06,240.09,-86.3,80.39
26256,52.406796,-1.506066,138.07,4.28,4,219.25,21 / 21,3102008,2019-09-04 20:58:14:121,-1.2012,-0.1982,9.6981,-0.0007,0.0005,9.8066,0.0005,0.0068,-0.0051,-6.5,-29.87,21.56,240.31,-86.22,79.84
26257,52.406796,-1.506066,138.07,4.28,4,219.25,21 / 21,3102107,2019-09-04 20:58:14:220,-0.317,-0.0932,9.6337,0.0083,0.0007,9.8066,0.0074,0.0026,-0.0038,-5.87,-30.44,21.94,240.64,-86.15,80.26
26258,52.406796,-1.506066,138.07,4.28,4,219.25,21 / 21,3102208,2019-09-04 20:58:14:321,-0.9826,-0.2076,9.9145,-0.0077,0.0057,9.8066,-0.0163,0.0019,0.0029,-6.37,-30.62,20.75,239.48,-86.19,80.03
26259,52.406796,-1.506066,138.07,4.28,4,219.25,21 / 21,3102307,2019-09-04 20:58:14:420,-0.8085,0.1013,9.779,-0.0038,0.0062,9.8066,-0.0112,0.0029,0.0146,-5.94,-31.0,20.81,237.49,-86.21,77.92
26260,52.406796,-1.506066,138.07,4.28,4,219.25,21 / 21,3102407,2019-09-04 20:58:14:520,-0.8124,0.1018,9.8299,-0.0081,0.0068,9.8066,-0.0187,-0.0019,0.0083,-5.62,-31.06,21.31,236.14,-86.27,76.43
26261,52.406796,-1.506066,138.07,4.28,4,219.25,21 / 21,3102508,2019-09-04 20:58:14:621,-0.8579,-0.0754,9.3256,-0.0067,0.0043,9.8066,-0.0013,-0.0045,0.0086,-6.37,-30.87,20.19,233.01,-86.31,74.03
26262,52.406796,-1.506066,138.07,4.28,4,219.25,21 / 21,3102608,2019-09-04 20:58:14:721,-0.5372,-0.0609,9.8597,-0.0011,0.0069,9.8066,-0.0174,-0.0015,-0.0021,-5.56,-31.06,20.81,232.67,-86.31,72.74
26263,52.406796,-1.506066,138.07,4.28,4,219.25,21 / 21,3102708,2019-09-04 20:58:14:821,-0.9039,0.1163,9.8867,-0.0058,0.0061,9.8066,-0.0075,0.0048,0.0025,-5.94,-31.62,21.06,231.22,-86.31,71.33
26264,52.406796,-1.506066,138.07,4.28,4,219.25,21 / 21,3102807,2019-09-04 20:58:14:920,-0.7723,0.054,9.7341,-0.0012,0.0036,9.8066,-0.0144,-0.006,0.0009,-6.31,-30.75,21.25,230.6,-86.32,70.53
26265,52.406796,-1.506066,138.07,4.28,4,219.25,21 / 21,3102908,2019-09-04 20:58:15:021,-0.9614,0.0701,10.0076,-0.0026,0.0065,9.8066,-0.0066,0.0009,-0.0057,-5.56,-31.06,20.88,228.89,-86.29,68.74
26266,52.406796,-1.506066,138.07,4.28,4,219.25,21 / 21,3103008,2019-09-04 20:58:15:121,-1.1753,-0.0026,9.8867,-0.0073,-0.001,9.8066,0.0051,0.0027,0.0089,-6.19,-30.81,21.19,228.37,-86.29,68.19
26267,52.406796,-1.506066,138.07,4.28,4,219.25,21 / 21,3103107,2019-09-04 20:58:15:220,-1.3901,0.6046,9.9085,0.0027,-0.0011,9.8066,0.012,0.0016,-0.0128,-6.06,-29.62,21.38,228.34,-86.34,67.98
26268,52.406796,-1.506066,138.07,4.28,4,219.25,21 / 21,3103208,2019-09-04 20:58:15:321,-0.5003,0.2311,9.5257,0.0124,-0.0062,9.8066,0.0323,-0.0082,-0.0238,-6.25,-30.87,21.44,230.81,-86.24,70.83
26269,52.406796,-1.506066,138.07,4.28,4,219.25,21 / 21,3103308,2019-09-04 20:58:15:421,-0.8376,-0.4575,9.3567,-0.0045,-0.0062,9.8066,0.0046,-0.0042,0.005,-6.44,-30.44,21.56,232.92,-86.28,72.02
26270,52.406345,-1.505905,138.84,7.17,4,163.83,21 / 21,3103407,2019-09-04 20:58:15:520,-0.9303,0.1306,10.2654,0.0065,0.0063,9.8066,-0.0064,-0.0003,-0.0267,-5.62,-30.31,22.06,232.83,-86.28,71.94
26271,52.406345,-1.505905,138.84,7.17,4,163.83,21 / 21,3103508,2019-09-04 20:58:15:621,-0.8888,0.5652,10.5519,0.0003,-0.0001,9.8066,0.0087,-0.0021,0.002,-6.06,-30.0,21.31,231.65,-86.14,71.69
26272,52.406345,-1.505905,138.84,7.17,4,163.83,21 / 21,3103607,2019-09-04 20:58:15:720,-0.3671,0.4772,9.3282,-0.0003,-0.0071,9.8066,0.0338,-0.012,0.0111,-6.56,-29.06,22.0,231.1,-86.18,72.42
26273,52.406345,-1.505905,138.84,7.17,4,163.83,21 / 21,3103708,2019-09-04 20:58:15:821,-1.1573,-0.3474,8.8941,0.0035,-0.0069,9.8066,0.0098,0.0073,-0.0093,-6.19,-30.0,22.13,234.8,-86.31,73.96
26274,52.406345,-1.505905,138.84,7.17,4,163.83,21 / 21,3103807,2019-09-04 20:58:15:920,-1.4123,0.2122,10.0653,-0.0001,0.0066,9.8066,-0.0238,0.0103,-0.0072,-6.75,-29.56,21.13,231.98,-86.29,74.33
26275,52.406345,-1.505905,138.84,7.17,4,163.83,21 / 21,3103908,2019-09-04 20:58:16:021,-0.7506,0.1479,10.3195,0.0041,0.0162,9.8066,-0.0281,-0.0038,-0.0229,-5.62,-29.94,21.44,232.75,-86.19,72.81
26276,52.406345,-1.505905,138.84,7.17,4,163.83,21 / 21,3104007,2019-09-04 20:58:16:120,-1.1721,0.711,9.5777,0.0064,0.0133,9.8066,-0.0007,0.0008,-0.0287,-5.75,-30.37,20.69,230.47,-85.96,70.63
26277,52.406345,-1.505905,138.84,7.17,4,163.83,21 / 21,3104107,2019-09-04 20:58:16:220,-0.7755,0.8219,9.5023,0.0145,-0.0014,9.8066,0.0167,0.0035,-0.0323,-6.25,-29.81,20.25,230.55,-85.81,71.83
26278,52.406345,-1.505905,138.84,7.17,4,163.83,21 / 21,3104208,2019-09-04 20:58:16:321,-0.7597,-0.2666,9.3894,0.0111,0.0018,9.8066,-0.0049,-0.0013,-0.0382,-5.31,-29.87,21.19,234.77,-85.7,72.97
26279,52.406345,-1.505905,138.84,7.17,4,163.83,21 / 21,3104307,2019-09-04 20:58:16:420,-0.6618,0.2728,9.8025,0.0118,0.0172,9.8066,-0.0395,0.0003,-0.0418,-5.19,-30.56,20.69,233.83,-85.5,72.37
26280,52.406345,-1.505905,138.84,7.17,4,163.83,21 / 21,3104408,2019-09-04 20:58:16:521,-1.3122,0.3285,9.7053,0.0088,0.0205,9.8066,-0.0351,0.0051,-0.0418,-5.5,-30.25,20.69,233.11,-85.39,71.54
26281,52.406345,-1.505905,138.84,7.17,4,163.83,21 / 21,3104507,2019-09-04 20:58:16:620,-1.1494,0.387,10.1799,0.0052,0.0128,9.8066,-0.0119,0.0029,-0.0239,-5.12,-29.87,20.75,230.34,-84.97,69.01
26282,52.406345,-1.505905,138.84,7.17,4,163.83,21 / 21,3104609,2019-09-04 20:58:16:722,-0.8092,0.4851,10.1897,0.0133,0.002,9.8066,0.0223,-0.0031,-0.0297,-5.06,-29.25,21.13,230.25,-84.84,68.88
26283,52.406345,-1.505905,138.84,7.17,4,163.83,21 / 21,3104707,2019-09-04 20:58:16:820,-0.7672,-0.1114,9.5462,0.0033,-0.0028,9.8066,0.0123,-0.0027,-0.0116,-5.25,-28.94,21.13,231.28,-84.75,70.08
26284,52.406345,-1.505905,138.84,7.17,4,163.83,21 / 21,3104807,2019-09-04 20:58:16:920,-0.8474,0.16,9.4683,-0.0004,0.0023,9.8066,0.0008,-0.0039,-0.0036,-4.94,-29.56,21.13,231.2,-84.74,70.19
26285,52.406345,-1.505905,138.84,7.17,4,163.83,21 / 21,3104908,2019-09-04 20:58:17:021,-0.8406,0.1955,10.1031,0.0017,0.0058,9.8066,-0.0156,0.0072,-0.0156,-5.37,-29.5,20.69,230.83,-84.7,69.64
26286,52.406345,-1.505905,138.84,7.17,4,163.83,21 / 21,3105008,2019-09-04 20:58:17:121,-1.0575,0.3732,9.7155,0.0016,0.0143,9.8066,-0.0193,-0.0084,-0.0194,-4.94,-29.81,20.75,229.14,-84.54,68.16
26287,52.406345,-1.505905,138.84,7.17,4,163.83,21 / 21,3105108,2019-09-04 20:58:17:221,-0.6404,0.416,9.5705,0.0044,0.0085,9.8066,-0.0098,0.0029,-0.0211,-4.87,-29.75,21.06,228.41,-84.44,67.46
26288,52.406345,-1.505905,138.84,7.17,4,163.83,21 / 21,3105208,2019-09-04 20:58:17:321,-0.7024,0.2551,9.4948,-0.0051,0.0024,9.8066,-0.0003,-0.0025,0.0079,-5.69,-29.19,20.88,225.94,-84.4,67.11
26289,52.406345,-1.505905,138.84,7.17,4,163.83,21 / 21,3105308,2019-09-04 20:58:17:421,-1.3123,0.3619,9.7499,-0.0031,-0.0012,9.8066,0.0001,-0.0025,0.0049,-5.25,-29.69,21.0,227.54,-84.45,66.51
26290,52.406345,-1.505905,138.84,7.17,4,163.83,19 / 20,3105407,2019-09-04 20:58:17:520,-1.1677,0.113,9.8905,0.0013,-0.004,9.8066,0.0098,0.0017,-0.0096,-5.25,-28.94,21.38,227.77,-84.48,66.54
26291,52.406345,-1.505905,138.84,7.17,4,163.83,19 / 20,3105508,2019-09-04 20:58:17:621,-0.9311,-0.227,9.8879,0.005,0.0031,9.8066,-0.0039,-0.0001,-0.0203,-5.31,-28.75,21.13,228.16,-84.44,66.99
26292,52.406345,-1.505905,138.84,7.17,4,163.83,19 / 20,3105607,2019-09-04 20:58:17:720,-0.9356,0.4798,10.2194,0.0052,0.0035,9.8066,0.0091,-0.0112,-0.0115,-5.37,-28.56,21.31,227.91,-84.31,66.85
26293,52.406345,-1.505905,138.84,7.17,4,163.83,19 / 20,3105708,2019-09-04 20:58:17:821,-0.6459,0.5052,10.3205,0.0009,-0.0031,9.8066,0.0187,-0.0061,-0.0078,-5.12,-28.87,20.25,227.31,-84.3,67.11
26294,52.406345,-1.505905,138.84,7.17,4,163.83,19 / 20,3105808,2019-09-04 20:58:17:921,-0.9654,0.3608,9.9414,0.0004,-0.0134,9.8066,0.0387,0.003,-0.0031,-5.06,-28.31,20.13,228.23,-84.34,67.88
26295,52.406345,-1.505905,138.84,7.17,4,163.83,19 / 20,3105908,2019-09-04 20:58:18:021,-1.0414,0.0276,10.3468,0.012,-0.0149,9.8066,0.0598,0.0008,-0.0361,-4.69,-29.12,20.5,231.23,-84.42,70.35
26296,52.406345,-1.505905,138.84,7.17,4,163.83,19 / 20,3106008,2019-09-04 20:58:18:121,-0.4146,-0.1152,9.5453,0.0234,-0.0191,9.8066,0.0617,-0.0001,-0.0343,-5.0,-29.06,19.94,233.11,-84.34,73.4
26297,52.406345,-1.505905,138.84,7.17,4,163.83,19 / 20,3106108,2019-09-04 20:58:18:221,-0.3411,-0.0626,9.4001,0.0081,-0.0065,9.8066,0.0142,-0.0059,-0.0198,-4.25,-28.87,20.56,239.56,-84.25,76.97
26298,52.406345,-1.505905,138.84,7.17,4,163.83,19 / 20,3106208,2019-09-04 20:58:18:321,-0.271,-0.0437,9.6082,0.0032,0.0126,9.8065,-0.0312,-0.0048,-0.0143,-4.44,-30.19,20.81,238.86,-84.13,76.59
26299,52.406345,-1.505905,138.84,7.17,4,163.83,19 / 20,3106307,2019-09-04 20:58:18:420,-0.7344,0.169,10.0671,-0.0033,0.0165,9.8066,-0.0417,0.0023,-0.0215,-5.31,-29.69,20.19,234.08,-84.05,75.01
26300,52.406345,-1.505905,138.84,7.17,4,163.83,20 / 21,3106407,2019-09-04 20:58:18:520,-0.9641,0.2948,9.8722,0.0078,0.02,9.8066,-0.0244,-0.005,-0.0365,-4.31,-30.12,20.69,235.44,-83.92,73.14
26301,52.406345,-1.505905,138.84,7.17,4,163.83,20 / 21,3106508,2019-09-04 20:58:18:621,-0.4964,0.3264,9.4256,0.0065,0.0101,9.8066,-0.0058,-0.0003,-0.0378,-3.87,-30.87,20.13,233.08,-83.66,71.96
26302,52.406345,-1.505905,138.84,7.17,4,163.83,20 / 21,3106607,2019-09-04 20:58:18:720,-0.2485,0.1975,9.4948,0.0088,0.0038,9.8066,0.0023,0.0037,-0.019,-3.94,-30.87,19.38,232.15,-83.54,72.05
26303,52.406345,-1.505905,138.84,7.17,4,163.83,20 / 21,3106708,2019-09-04 20:58:18:821,-0.0724,0.1301,9.6904,0.0005,0.0053,9.8066,-0.0063,-0.0057,0.0069,-3.81,-30.69,20.44,232.85,-83.44,71.97
26304,52.406345,-1.505905,138.84,7.17,4,163.83,20 / 21,3106808,2019-09-04 20:58:18:921,-0.929,-0.1261,10.3225,0.0013,0.0077,9.8066,-0.0072,-0.0079,-0.0173,-3.81,-31.94,19.75,231.61,-83.42,70.87
26305,52.406345,-1.505905,138.84,7.17,4,163.83,20 / 21,3106908,2019-09-04 20:58:19:021,-0.9183,0.1464,10.0077,-0.0058,0.0007,9.8066,-0.0002,0.0038,0.0046,-4.12,-31.75,18.69,230.38,-83.42,70.48
26306,52.406345,-1.505905,138.84,7.17,4,163.83,20 / 21,3107007,2019-09-04 20:58:19:120,-0.468,-0.1759,9.5651,0.0062,-0.0003,9.8066,0.0069,-0.0003,-0.0153,-3.06,-31.44,19.69,233.96,-83.4,70.53
26307,52.406345,-1.505905,138.84,7.17,4,163.83,20 / 21,3107107,2019-09-04 20:58:19:220,-0.1473,-0.0851,9.5542,0.0024,0.0029,9.8066,-0.0034,-0.0082,-0.0056,-3.5,-32.81,19.44,232.82,-83.33,70.78
26308,52.406345,-1.505905,138.84,7.17,4,163.83,20 / 21,3107208,2019-09-04 20:58:19:321,-0.369,-0.0084,9.4468,-0.0137,0.0107,9.8066,-0.0511,0.0139,0.0208,-3.94,-32.62,19.0,229.71,-83.36,70.07
26309,52.406345,-1.505905,138.84,7.17,4,163.83,20 / 21,3107308,2019-09-04 20:58:19:421,-0.6406,-0.1886,9.4486,-0.0186,0.0167,9.8066,-0.0557,0.0012,0.0185,-3.81,-32.75,19.06,227.92,-83.39,68.0
26310,52.406345,-1.505905,138.84,7.17,4,163.83,19 / 20,3107407,2019-09-04 20:58:19:520,-0.3914,-0.0092,9.9593,-0.0175,0.0163,9.8065,-0.0466,0.0003,0.0297,-3.69,-33.87,19.06,224.33,-83.37,64.18
26311,52.406345,-1.505905,138.84,7.17,4,163.83,19 / 20,3107508,2019-09-04 20:58:19:621,-0.4764,-0.069,10.0376,-0.017,0.0058,9.8066,-0.0069,0.0033,0.0268,-4.37,-33.5,18.44,221.03,-83.44,61.1
26312,52.406345,-1.505905,138.84,7.17,4,163.83,19 / 20,3107608,2019-09-04 20:58:19:721,-0.1097,-0.3654,9.6123,-0.0049,-0.0103,9.8066,0.026,0.0015,0.0142,-3.31,-34.44,20.56,225.27,-83.62,60.52
26313,52.406345,-1.505905,138.84,7.17,4,163.83,19 / 20,3107708,2019-09-04 20:58:19:821,-0.1668,-0.4387,9.3877,-0.0137,-0.0154,9.8066,0.0194,0.0101,0.0544,-4.06,-35.06,20.06,222.33,-83.81,60.66
26314,52.406345,-1.505905,138.84,7.17,4,163.83,19 / 20,3107808,2019-09-04 20:58:19:921,-0.3278,-0.1273,10.4658,-0.0191,-0.0071,9.8066,0.0041,0.0117,0.0429,-4.5,-33.87,20.75,222.91,-84.06,59.99
26315,52.406345,-1.505905,138.84,7.17,4,163.83,19 / 20,3107908,2019-09-04 20:58:20:021,-0.4156,-0.3458,10.4941,-0.0165,-0.0083,9.8066,0.0146,-0.0022,0.0367,-5.0,-34.75,21.5,220.32,-84.36,58.66
26316,52.406345,-1.505905,138.84,7.17,4,163.83,19 / 20,3108007,2019-09-04 20:58:20:120,-0.4513,-0.3907,10.3553,-0.0002,-0.0086,9.8066,0.0296,0.0148,0.0018,-5.25,-33.37,21.38,219.54,-84.53,58.13
26317,52.406345,-1.505905,138.84,7.17,4,163.83,19 / 20,3108108,2019-09-04 20:58:20:221,-0.2268,-0.5131,10.343,0.0014,-0.025,9.8066,0.0884,0.0062,0.02,-5.25,-32.81,21.69,222.63,-84.72,60.55
26318,52.406345,-1.505905,138.84,7.17,4,163.83,19 / 20,3108208,2019-09-04 20:58:20:321,-0.0045,-0.7271,10.0834,-0.0015,-0.0318,9.8065,0.0718,0.0107,0.0323,-5.19,-33.44,22.75,228.02,-85.11,65.28
26319,52.406345,-1.505905,138.84,7.17,4,163.83,19 / 20,3108308,2019-09-04 20:58:20:421,0.3069,-0.9568,9.5765,0.0039,-0.0258,9.8066,0.031,0.0156,0.0352,-5.81,-32.69,22.69,228.79,-85.33,68.19
26320,52.406345,-1.505905,138.84,7.17,4,163.83,20 / 21,3108407,2019-09-04 20:58:20:520,-0.245,-1.023,9.4322,0.001,0.002,9.8066,-0.0076,0.0133,-0.0071,-5.25,-32.5,23.25,232.02,-85.46,69.06
26321,52.406345,-1.505905,138.84,7.17,4,163.83,20 / 21,3108508,2019-09-04 20:58:20:621,-0.4969,-0.3226,9.9662,0.0012,0.018,9.8066,-0.0431,0.0093,-0.0412,-6.0,-31.94,22.75,228.1,-85.35,67.29
26322,52.406345,-1.505905,138.84,7.17,4,163.83,20 / 21,3108607,2019-09-04 20:58:20:720,-0.4727,-0.2418,10.0448,0.0048,0.0189,9.8066,-0.0367,0.0147,-0.0299,-6.12,-30.81,22.94,226.39,-85.13,65.51
26323,52.406345,-1.505905,138.84,7.17,4,163.83,20 / 21,3108708,2019-09-04 20:58:20:821,-0.165,-0.0679,10.1482,0.0031,-0.0005,9.8066,0.0221,0.0109,-0.0211,-5.56,-30.87,22.69,225.47,-84.96,64.68
26324,52.406345,-1.505905,138.84,7.17,4,163.83,20 / 21,3108808,2019-09-04 20:58:20:921,-0.2153,-0.7552,9.4808,0.0089,-0.0086,9.8066,0.0321,0.0256,-0.019,-6.0,-29.56,23.44,227.43,-84.94,66.65
26325,52.406345,-1.505905,138.84,7.17,4,163.83,20 / 21,3108907,2019-09-04 20:58:21:020,-0.2188,-0.4738,9.7094,0.0109,-0.0006,9.8065,0.0019,0.0332,-0.02,-6.37,-29.31,23.38,228.7,-84.88,67.91
26326,52.406345,-1.505905,138.84,7.17,4,163.83,20 / 21,3109008,2019-09-04 20:58:21:121,-0.004,-0.4009,9.9451,0.0091,0.0078,9.8066,-0.0131,0.0328,-0.0252,-6.37,-29.25,22.94,228.87,-84.78,68.18
26327,52.406345,-1.505905,138.84,7.17,4,163.83,20 / 21,3109108,2019-09-04 20:58:21:221,-0.1155,-0.4012,9.2322,-0.0004,0.0069,9.8066,-0.0035,0.0301,-0.004,-6.5,-28.44,22.31,227.6,-84.65,67.59
26328,52.406345,-1.505905,138.84,7.17,4,163.83,20 / 21,3109208,2019-09-04 20:58:21:321,0.2877,-0.6005,9.7904,-0.0058,0.0004,9.8066,-0.0032,0.0332,0.0146,-5.44,-28.56,22.88,229.99,-84.64,67.21
26329,52.406345,-1.505905,138.84,7.17,4,163.83,20 / 21,3109307,2019-09-04 20:58:21:420,-0.5268,-0.1683,10.1183,-0.0069,-0.0016,9.8066,0.0034,0.0403,-0.0056,-5.31,-28.94,21.13,227.81,-84.74,66.33
26330,52.406345,-1.505905,138.84,7.17,4,163.83,20 / 21,3109407,2019-09-04 20:58:21:520,-0.1569,-0.277,10.3521,0.0069,-0.0023,9.8066,0.011,0.0387,-0.011,-5.19,-29.75,21.75,229.03,-84.71,67.04
26331,52.406345,-1.505905,138.84,7.17,4,163.83,20 / 21,3109508,2019-09-04 20:58:21:621,0.3417,-0.432,9.3898,0.0009,-0.0031,9.8066,0.0092,0.036,0.0168,-5.12,-30.69,21.5,229.26,-84.72,67.45
26332,52.406345,-1.505905,138.84,7.17,4,163.83,20 / 21,3109607,2019-09-04 20:58:21:720,-0.3985,-0.2694,9.5498,-0.0116,-0.0076,9.8066,0.0065,0.0395,0.0297,-5.44,-31.62,21.81,229.13,-84.83,67.39
26333,52.406345,-1.505905,138.84,7.17,4,163.83,20 / 21,3109707,2019-09-04 20:58:21:820,-0.0843,-0.3037,9.8711,-0.0057,0.0045,9.8066,-0.0166,0.04,0.0014,-5.81,-31.56,21.75,226.21,-84.96,66.47
26334,52.406345,-1.505905,138.84,7.17,4,163.83,20 / 21,3109808,2019-09-04 20:58:21:921,0.161,-0.4685,9.5098,-0.0078,0.0047,9.8066,-0.019,0.0322,0.0156,-5.62,-31.0,22.81,226.27,-84.94,65.56
26335,52.406345,-1.505905,138.84,7.17,4,163.83,20 / 21,3109908,2019-09-04 20:58:22:021,-0.0869,-0.5507,9.5663,-0.0138,0.0068,9.8066,-0.0309,0.0401,0.0269,-5.56,-30.87,23.75,224.99,-85.03,63.33
26336,52.406345,-1.505905,138.84,7.17,4,163.83,20 / 21,3110008,2019-09-04 20:58:22:121,0.0698,0.0558,9.9617,-0.0038,0.0061,9.8066,-0.0205,0.0489,0.0004,-5.31,-30.19,22.94,224.32,-85.06,60.88
26337,52.406345,-1.505905,138.84,7.17,4,163.83,20 / 21,3110108,2019-09-04 20:58:22:221,-0.322,0.0136,10.3724,-0.0103,0.0048,9.8066,0.0028,0.0464,0.0112,-5.62,-29.5,23.25,220.99,-85.09,59.43
26338,52.406345,-1.505905,138.84,7.17,4,163.83,20 / 21,3110208,2019-09-04 20:58:22:321,-0.5546,-0.0629,10.0093,0.0065,-0.0129,9.8065,0.0393,0.0427,-0.0078,-5.19,-30.25,23.0,223.14,-85.15,59.54
26339,52.406345,-1.505905,138.84,7.17,4,163.83,20 / 21,3110307,2019-09-04 20:58:22:420,-0.0826,-0.196,9.74,0.0098,-0.0164,9.8065,0.0643,0.0466,-0.0182,-5.81,-28.31,22.31,223.82,-85.23,63.04
26340,52.406345,-1.505905,138.84,7.17,4,163.83,20 / 21,3110408,2019-09-04 20:58:22:521,-0.6346,-0.4878,10.1472,0.0111,-0.0135,9.8066,0.0389,0.0419,-0.0191,-5.69,-28.44,22.69,228.77,-85.28,67.48
26341,52.406345,-1.505905,138.84,7.17,4,163.83,20 / 21,3110507,2019-09-04 20:58:22:620,0.86,-0.4585,9.1792,0.0054,-0.0012,9.8066,-0.0156,0.0502,0.0061,-7.62,-27.69,22.88,226.38,-85.21,69.45
26342,52.406345,-1.505905,138.84,7.17,4,163.83,20 / 21,3110608,2019-09-04 20:58:22:721,0.06,-0.1311,9.6565,-0.0226,0.011,9.8065,-0.0657,0.0425,0.0466,-8.0,-27.5,22.31,223.74,-85.25,67.41
26343,52.406345,-1.505905,138.84,7.17,4,163.83,20 / 21,3110708,2019-09-04 20:58:22:821,-0.6874,-0.3285,9.7326,-0.0179,0.0199,9.8065,-0.0515,0.047,0.0142,-7.81,-27.69,22.13,217.82,-85.26,61.19
26344,52.406345,-1.505905,138.84,7.17,4,163.83,20 / 21,3110808,2019-09-04 20:58:22:921,-0.1395,0.4662,9.672,-0.0085,0.0198,9.8066,-0.0452,0.0454,0.0192,-7.19,-28.12,21.25,216.46,-85.14,58.45
26345,52.406345,-1.505905,138.84,7.17,4,163.83,20 / 21,3110908,2019-09-04 20:58:23:021,1.0981,0.3401,9.2264,-0.018,-0.0025,9.8065,-0.0172,0.0325,0.0837,-7.5,-28.94,20.69,214.63,-85.14,56.59
26346,52.406345,-1.505905,138.84,7.17,4,163.83,20 / 21,3111008,2019-09-04 20:58:23:121,-0.4261,0.4371,10.6029,-0.0423,-0.0082,9.8065,-0.0279,0.0354,0.103,-7.75,-29.81,20.44,206.69,-85.51,51.22
26347,52.406345,-1.505905,138.84,7.17,4,163.83,20 / 21,3111107,2019-09-04 20:58:23:220,-1.154,0.9658,10.8823,-0.0242,-0.0201,9.8066,0.0438,0.0331,0.067,-7.87,-29.94,20.44,202.65,-85.81,46.65
26348,52.406345,-1.505905,138.84,7.17,4,163.83,20 / 21,3111207,2019-09-04 20:58:23:320,-0.5117,-0.2446,9.6671,-0.0171,-0.0338,9.8066,0.0752,0.0138,0.0718,-8.19,-30.94,20.94,201.92,-86.37,44.6
26349,52.406345,-1.505905,138.84,7.17,4,163.83,20 / 21,3111307,2019-09-04 20:58:23:420,-0.7602,-0.3735,9.0586,-0.0047,-0.0235,9.8066,0.0213,0.0317,0.0333,-7.75,-30.44,20.63,203.19,-86.82,45.69
26350,52.406345,-1.505905,138.84,7.17,4,163.83,19 / 21,3111407,2019-09-04 20:58:23:520,-0.058,-0.4937,8.9926,-0.0199,0.0076,9.8066,-0.0785,0.0301,0.0334,-8.25,-31.37,20.5,200.73,-87.03,43.01
26351,52.406345,-1.505905,138.84,7.17,4,163.83,19 / 21,3111508,2019-09-04 20:58:23:621,-0.7989,0.2316,9.5888,-0.0256,0.0395,9.8065,-0.1069,0.0365,0.008,-8.19,-32.56,20.25,192.64,-86.76,35.5
26352,52.406345,-1.505905,138.84,7.17,4,163.83,19 / 21,3111608,2019-09-04 20:58:23:721,-0.5248,0.5014,10.226,-0.0059,0.0281,9.8065,-0.0395,0.0418,-0.0305,-9.19,-32.5,19.88,184.78,-86.21,29.46
26353,52.406345,-1.505905,138.84,7.17,4,163.83,19 / 21,3111707,2019-09-04 20:58:23:820,-0.4007,0.4471,10.4344,0.0148,-0.0154,9.8065,0.0664,0.0334,-0.0161,-8.37,-32.87,21.44,190.98,-86.16,32.88
26354,52.406345,-1.505905,138.84,7.17,4,163.83,19 / 21,3111808,2019-09-04 20:58:23:921,-0.4472,-0.0039,9.5151,0.0141,-0.0265,9.8066,0.0679,0.0267,-0.0063,-8.69,-31.37,22.56,194.24,-86.41,36.69
26355,52.406345,-1.505905,138.84,7.17,4,163.83,19 / 21,3111908,2019-09-04 20:58:24:021,-0.2028,0.083,9.5721,0.0053,-0.0072,9.8066,-0.0008,0.0283,-0.0078,-9.19,-30.87,23.19,197.19,-86.61,39.79
26356,52.406345,-1.505905,138.84,7.17,4,163.83,19 / 21,3112008,2019-09-04 20:58:24:121,-0.4948,0.3226,10.1634,-0.0036,0.0058,9.8065,-0.0275,0.0122,0.0059,-9.62,-29.62,22.75,195.57,-86.6,40.13
26357,52.406345,-1.505905,138.84,7.17,4,163.83,19 / 21,3112107,2019-09-04 20:58:24:220,-0.7697,0.488,10.153,-0.0051,0.0026,9.8065,0.0009,0.0135,0.0075,-10.31,-28.37,23.13,194.01,-86.53,38.42
26358,52.406345,-1.505905,138.84,7.17,4,163.83,19 / 21,3112207,2019-09-04 20:58:24:320,-0.1814,0.3215,9.932,-0.0026,-0.0074,9.8066,0.0208,0.0062,0.0261,-10.37,-28.62,23.13,193.3,-86.58,37.68
26359,52.406345,-1.505905,138.84,7.17,4,163.83,19 / 21,3112308,2019-09-04 20:58:24:421,-0.3525,-0.2444,9.3786,0.0001,-0.0068,9.8066,0.0091,0.0145,0.0053,-11.37,-27.37,23.06,190.82,-86.74,37.01
26360,52.4058,-1.505663,139.26,8.08,3,158.02,19 / 21,3112407,2019-09-04 20:58:24:520,-0.6192,0.0332,9.5959,-0.0096,-0.0063,9.8065,-0.0162,-0.001,0.0159,-11.25,-27.37,22.19,189.18,-86.83,36.28
26361,52.4058,-1.505663,139.26,8.08,3,158.02,19 / 21,3112508,2019-09-04 20:58:24:621,-0.4383,0.4143,10.1032,-0.0107,0.0051,9.8066,-0.0197,0.0034,0.0203,-12.0,-27.25,21.44,183.37,-86.75,33.32
26362,52.4058,-1.505663,139.26,8.08,3,158.02,19 / 21,3112607,2019-09-04 20:58:24:720,-0.5162,0.466,9.8795,-0.0128,-0.0007,9.8066,-0.0037,0.0011,0.0249,-11.87,-26.56,21.0,180.91,-86.74,30.71
26363,52.4058,-1.505663,139.26,8.08,3,158.02,19 / 21,3112708,2019-09-04 20:58:24:821,-1.0471,-0.1737,9.6897,-0.0129,-0.0097,9.8065,0.0033,-0.002,0.0289,-11.62,-27.81,20.5,178.38,-86.81,28.02
26364,52.4058,-1.505663,139.26,8.08,3,158.02,19 / 21,3112808,2019-09-04 20:58:24:921,-0.6024,-0.1889,9.8764,-0.0071,-0.0047,9.8066,-0.0025,-0.006,0.0205,-11.69,-27.56,20.94,175.46,-86.93,24.93
26365,52.4058,-1.505663,139.26,8.08,3,158.02,19 / 21,3112908,2019-09-04 20:58:25:021,-0.8879,0.1291,9.807,-0.0119,0.0016,9.8066,-0.0242,-0.0016,0.0187,-11.81,-28.06,19.75,172.42,-86.94,22.91
26366,52.4058,-1.505663,139.26,8.08,3,158.02,19 / 21,3113008,2019-09-04 20:58:25:121,-0.5461,0.2371,10.413,-0.0097,0.0014,9.8066,-0.0112,0.0001,0.0242,-11.44,-27.87,19.69,171.3,-86.87,19.54
26367,52.4058,-1.505663,139.26,8.08,3,158.02,19 / 21,3113108,2019-09-04 20:58:25:221,-0.8566,0.1672,9.7755,-0.0012,-0.005,9.8066,0.0185,-0.0112,0.0021,-11.0,-29.06,20.06,169.27,-86.91,17.37
26368,52.4058,-1.505663,139.26,8.08,3,158.02,19 / 21,3113208,2019-09-04 20:58:25:321,-0.5985,0.4152,9.9423,0.0034,-0.0071,9.8066,0.0299,-0.019,0.0069,-11.5,-29.5,19.25,168.46,-86.99,17.75
26369,52.4058,-1.505663,139.26,8.08,3,158.02,19 / 21,3113307,2019-09-04 20:58:25:420,-0.5311,-0.0129,9.6963,-0.0029,-0.0111,9.8066,0.0162,-0.0113,0.0213,-10.75,-29.5,19.88,168.67,-87.12,16.78
26370,52.4058,-1.505663,139.26,8.08,3,158.02,19 / 20,3113407,2019-09-04 20:58:25:520,-1.0252,-0.071,9.7805,-0.0087,-0.0027,9.8066,-0.006,-0.0062,0.0162,-10.56,-30.12,19.81,166.06,-87.23,14.01
26371,52.4058,-1.505663,139.26,8.08,3,158.02,19 / 20,3113508,2019-09-04 20:58:25:621,-0.6456,0.1323,9.9736,-0.0027,0.0002,9.8066,-0.0096,-0.0095,0.006,-11.12,-30.44,20.13,164.91,-87.21,12.79
26372,52.4058,-1.505663,139.26,8.08,3,158.02,19 / 20,3113608,2019-09-04 20:58:25:721,-0.7189,0.3677,9.5592,-0.0119,0.0019,9.8066,-0.0192,-0.0176,0.0121,-9.69,-30.37,20.06,164.82,-87.16,10.41
26373,52.4058,-1.505663,139.26,8.08,3,158.02,19 / 20,3113708,2019-09-04 20:58:25:821,-0.5901,0.1565,9.7674,-0.0131,0.0032,9.8066,-0.0261,-0.0066,0.0259,-10.5,-30.75,20.19,162.06,-87.04,7.39
26374,52.4058,-1.505663,139.26,8.08,3,158.02,19 / 20,3113807,2019-09-04 20:58:25:920,-1.135,0.1246,9.4339,-0.0138,0.0029,9.8065,-0.0287,-0.0234,0.0169,-9.94,-30.75,20.19,159.49,-86.94,4.6
26375,52.4058,-1.505663,139.26,8.08,3,158.02,19 / 20,3113907,2019-09-04 20:58:26:020,-1.195,0.0993,9.8373,-0.0049,0.0142,9.8066,-0.0336,-0.0324,0.0094,-9.75,-30.87,20.19,159.18,-86.8,4.2
26376,52.4058,-1.505663,139.26,8.08,3,158.02,19 / 20,3114007,2019-09-04 20:58:26:120,-0.5691,1.1363,10.7104,-0.0071,0.01,9.8066,-0.0202,-0.0222,0.0181,-11.0,-30.81,20.13,156.41,-86.56,3.39
26377,52.4058,-1.505663,139.26,8.08,3,158.02,19 / 20,3114108,2019-09-04 20:58:26:221,-1.3391,0.214,10.4062,-0.0062,-0.0151,9.8066,0.035,-0.0306,0.0279,-10.06,-30.87,20.63,157.24,-86.56,0.96
26378,52.4058,-1.505663,139.26,8.08,3,158.02,19 / 20,3114208,2019-09-04 20:58:26:321,-0.5086,0.2796,10.1437,0.0108,-0.0143,9.8066,0.0556,-0.0375,-0.0284,-10.25,-30.25,20.13,154.53,-86.81,-0.71
26379,52.4058,-1.505663,139.26,8.08,3,158.02,19 / 20,3114308,2019-09-04 20:58:26:421,-1.2901,0.0742,9.6938,-0.0022,-0.0215,9.8066,0.0443,-0.0579,0.0067,-10.31,-29.81,21.13,155.35,-87.05,-0.74
26380,52.4058,-1.505663,139.26,8.08,3,158.02,19 / 20,3114408,2019-09-04 20:58:26:521,-1.1735,0.0908,9.5849,-0.0072,-0.0083,9.8066,-0.0055,-0.0622,0.0269,-10.44,-30.37,20.5,152.12,-87.27,-4.04
26381,52.4058,-1.505663,139.26,8.08,3,158.02,19 / 20,3114507,2019-09-04 20:58:26:620,-1.2859,-0.0393,9.8483,-0.0149,0.0075,9.8066,-0.022,-0.0683,0.0167,-10.69,-30.19,20.75,147.96,-87.17,-6.26
26382,52.4058,-1.505663,139.26,8.08,3,158.02,19 / 20,3114608,2019-09-04 20:58:26:721,-1.6898,0.2362,9.5001,-0.0112,0.0057,9.8066,-0.0343,-0.0772,0.0124,-10.31,-29.87,21.0,147.83,-86.95,-8.77
26383,52.4058,-1.505663,139.26,8.08,3,158.02,19 / 20,3114707,2019-09-04 20:58:26:820,-1.3908,-0.0896,10.206,-0.0035,0.0096,9.8066,-0.0272,-0.0906,-0.0162,-10.37,-30.31,20.13,146.48,-86.72,-9.34
26384,52.4058,-1.505663,139.26,8.08,3,158.02,19 / 20,3114808,2019-09-04 20:58:26:921,-1.5029,0.2178,9.3645,-0.0014,0.0086,9.8066,-0.0235,-0.1001,-0.0054,-9.81,-29.87,20.0,147.32,-86.63,-8.52
26385,52.4058,-1.505663,139.26,8.08,3,158.02,19 / 20,3114907,2019-09-04 20:58:27:020,-1.9587,0.0893,9.9647,-0.0127,0.007,9.8065,-0.0262,-0.1085,0.0003,-8.75,-30.5,19.94,149.19,-86.49,-8.99
26386,52.4058,-1.505663,139.26,8.08,3,158.02,19 / 20,3115008,2019-09-04 20:58:27:121,-1.5417,0.2047,9.9477,0.0049,0.0075,9.8066,-0.0034,-0.1226,-0.02,-9.37,-30.94,19.19,148.44,-86.33,-9.0
26387,52.4058,-1.505663,139.26,8.08,3,158.02,19 / 20,3115108,2019-09-04 20:58:27:221,-1.7084,0.0941,9.8916,0.0035,0.0003,9.8066,0.0064,-0.121,-0.0238,-8.56,-30.31,20.44,149.78,-86.32,-8.47
26388,52.4058,-1.505663,139.26,8.08,3,158.02,19 / 20,3115208,2019-09-04 20:58:27:321,-1.8276,-0.016,10.1794,0.0084,-0.0016,9.8066,0.0109,-0.1378,-0.0294,-8.44,-31.31,20.31,153.54,-86.38,-6.94
26389,52.4058,-1.505663,139.26,8.08,3,158.02,19 / 20,3115308,2019-09-04 20:58:27:421,-1.5729,-0.0121,10.0618,0.0137,-0.0006,9.8066,0.0105,-0.152,-0.0501,-7.62,-30.56,20.06,155.78,-86.48,-4.46
26390,52.4058,-1.505663,139.26,8.08,3,158.02,20 / 21,3115408,2019-09-04 20:58:27:521,-1.8011,-0.0208,9.9736,0.01,-0.0014,9.8066,0.0151,-0.1757,-0.0359,-6.69,-30.31,20.88,160.69,-86.53,-2.4
26391,52.4058,-1.505663,139.26,8.08,3,158.02,20 / 21,3115507,2019-09-04 20:58:27:620,-1.712,0.1354,9.9016,0.0153,-0.0002,9.8066,0.0162,-0.1695,-0.0612,-5.37,-31.75,20.88,166.89,-86.61,-0.84
26392,52.4058,-1.505663,139.26,8.08,3,158.02,20 / 21,3115608,2019-09-04 20:58:27:721,-1.5951,0.3029,9.8979,0.0119,-0.0061,9.8066,0.0295,-0.1877,-0.0255,-5.25,-31.87,20.25,170.21,-86.71,3.4
26393,52.4058,-1.505663,139.26,8.08,3,158.02,20 / 21,3115707,2019-09-04 20:58:27:820,-1.9687,0.0168,9.5456,0.0154,-0.0015,9.8066,0.009,-0.1944,-0.0642,-4.75,-32.31,21.5,172.39,-86.81,4.6
26394,52.4058,-1.505663,139.26,8.08,3,158.02,20 / 21,3115807,2019-09-04 20:58:27:920,-1.2576,0.1446,10.1031,0.013,0.0068,9.8066,-0.0014,-0.2017,-0.045,-4.0,-32.62,20.81,178.9,-86.77,9.59
26395,52.4058,-1.505663,139.26,8.08,3,158.02,20 / 21,3115907,2019-09-04 20:58:28:020,-1.6014,0.2169,9.7754,0.0192,0.0092,9.8065,-0.0068,-0.2024,-0.0618,-3.56,-32.69,21.63,182.57,-86.65,13.09
26396,52.4058,-1.505663,139.26,8.08,3,158.02,20 / 21,3116008,2019-09-04 20:58:28:121,-1.6932,0.6614,9.9316,0.0054,0.0055,9.8066,-0.0065,-0.1991,-0.0124,-2.87,-32.75,21.44,186.3,-86.57,15.0
26397,52.4058,-1.505663,139.26,8.08,3,158.02,20 / 21,3116108,2019-09-04 20:58:28:221,-1.8976,0.614,10.3219,0.0012,0.0014,9.8066,0.0112,-0.1911,-0.0224,-2.31,-33.19,21.56,188.68,-86.49,14.65
26398,52.4058,-1.505663,139.26,8.08,3,158.02,20 / 21,3116208,2019-09-04 20:58:28:321,-1.9849,0.3122,9.1929,0.0002,-0.0136,9.8066,0.0255,-0.2058,0.0083,-2.0,-33.12,22.06,189.45,-86.58,15.46
26399,52.4058,-1.505663,139.26,8.08,3,158.02,19 / 20,3116308,2019-09-04 20:58:28:421,-2.3849,0.0586,8.5251,0.0167,-0.001,9.8065,-0.0134,-0.1879,-0.0628,-1.44,-33.31,22.31,191.81,-86.69,15.4
26400,52.4058,-1.505663,139.26,8.08,3,158.02,19 / 20,3116408,2019-09-04 20:58:28:521,-1.4763,-0.0678,9.8166,0.0183,0.0101,9.8066,-0.0287,-0.2144,-0.0463,-0.25,-33.94,22.31,198.53,-86.5,20.22
26401,52.4058,-1.505663,139.26,8.08,3,158.02,19 / 20,3116508,2019-09-04 20:58:28:621,-1.7212,-0.1983,9.6694,-0.0034,0.0179,9.8066,-0.054,-0.2525,-0.0177,-0.69,-33.25,22.0,195.44,-86.22,19.51
26402,52.4058,-1.505663,139.26,8.08,3,158.02,19 / 20,3116608,2019-09-04 20:58:28:721,-1.8748,0.7929,9.9487,0.0016,0.0307,9.8066,-0.0688,-0.2409,-0.035,-0.12,-34.0,22.63,196.45,-85.9,18.12
26403,52.4058,-1.505663,139.26,8.08,3,158.02,19 / 20,3116709,2019-09-04 20:58:28:822,-1.9248,0.6004,9.9708,0.012,0.0188,9.8065,-0.0198,-0.2288,-0.0473,0.0,-34.31,22.63,196.11,-85.56,17.89
26404,52.4058,-1.505663,139.26,8.08,3,158.02,19 / 20,3116808,2019-09-04 20:58:28:921,-1.4189,-0.0465,9.5998,0.0024,0.005,9.8066,-0.0049,-0.2269,-0.0477,0.81,-34.06,22.31,198.99,-85.36,18.66
26405,52.4058,-1.505663,139.26,8.08,3,158.02,19 / 20,3116908,2019-09-04 20:58:29:021,-1.1635,0.0823,9.4111,-0.0042,0.0019,9.8066,0.0082,-0.2477,-0.0051,0.94,-33.62,23.0,199.38,-85.25,19.15
26406,52.4058,-1.505663,139.26,8.08,3,158.02,19 / 20,3117007,2019-09-04 20:58:29:120,-1.3643,0.2482,9.96,-0.0066,-0.0018,9.8066,0.0158,-0.2442,-0.0119,0.69,-32.81,22.5,198.6,-85.29,18.21
26407,52.4058,-1.505663,139.26,8.08,3,158.02,19 / 20,3117108,2019-09-04 20:58:29:221,-1.3829,0.084,9.6913,-0.0065,0.0019,9.8066,0.0049,-0.241,0.0027,1.56,-33.69,22.63,200.06,-85.34,17.38
26408,52.4058,-1.505663,139.26,8.08,3,158.02,19 / 20,3117208,2019-09-04 20:58:29:321,-1.8881,0.2693,10.154,-0.0157,0.006,9.8066,0.002,-0.2416,0.0087,1.81,-31.87,22.88,197.81,-85.35,14.75
26409,52.4058,-1.505663,139.26,8.08,3,158.02,19 / 20,3117308,2019-09-04 20:58:29:421,-1.4623,0.2337,9.5517,-0.0009,-0.0031,9.8066,0.0114,-0.2364,-0.0132,1.63,-32.0,23.13,196.86,-85.36,13.71
26410,52.4058,-1.505663,139.26,8.08,3,158.02,19 / 20,3117407,2019-09-04 20:58:29:520,-1.5815,-0.1563,9.7501,-0.005,-0.0026,9.8066,0.0103,-0.249,-0.001,2.13,-31.62,22.88,196.32,-85.42,13.08
26411,52.4058,-1.505663,139.26,8.08,3,158.02,19 / 20,3117507,2019-09-04 20:58:29:620,-1.4844,0.15,9.9766,-0.0131,0.0021,9.8066,-0.0022,-0.2502,0.0035,3.06,-30.75,21.81,196.69,-85.46,10.7
26412,52.4058,-1.505663,139.26,8.08,3,158.02,19 / 20,3117608,2019-09-04 20:58:29:721,-1.7738,0.145,10.2521,-0.0154,0.0003,9.8066,0.0083,-0.269,0.0002,2.69,-31.06,22.19,194.85,-85.49,8.65
26413,52.4058,-1.505663,139.26,8.08,3,158.02,19 / 20,3117707,2019-09-04 20:58:29:820,-1.9379,0.3922,9.7735,-0.0103,-0.0023,9.8066,0.0102,-0.2605,-0.0054,3.69,-31.06,21.69,195.92,-85.53,7.27
26414,52.4058,-1.505663,139.26,8.08,3,158.02,19 / 20,3117807,2019-09-04 20:58:29:920,-1.99,0.1648,9.6737,-0.0079,-0.0039,9.8066,0.007,-0.2647,-0.0091,3.63,-29.87,21.13,194.74,-85.62,5.48
26415,52.4058,-1.505663,139.26,8.08,3,158.02,19 / 20,3117908,2019-09-04 20:58:30:021,-1.8132,0.3834,9.9866,-0.0044,0.0003,9.8066,0.0076,-0.2881,-0.0185,3.69,-30.12,20.69,193.9,-85.64,4.54
26416,52.4058,-1.505663,139.26,8.08,3,158.02,19 / 20,3118008,2019-09-04 20:58:30:121,-1.553,0.4473,9.8895,-0.0052,-0.0006,9.8066,-0.0029,-0.2711,-0.0152,4.38,-30.56,19.94,193.32,-85.68,3.49
26417,52.4058,-1.505663,139.26,8.08,3,158.02,19 / 20,3118108,2019-09-04 20:58:30:221,-1.4755,-0.0004,9.9828,-0.0078,-0.0012,9.8066,0.0064,-0.2879,-0.0026,5.81,-30.56,19.63,197.16,-85.73,2.28
26418,52.4058,-1.505663,139.26,8.08,3,158.02,19 / 20,3118208,2019-09-04 20:58:30:321,-1.5861,0.1228,10.0009,-0.0124,0.0023,9.8066,0.0029,-0.2849,0.0009,5.56,-30.69,19.56,195.39,-85.75,0.32
26419,52.4058,-1.505663,139.26,8.08,3,158.02,19 / 20,3118307,2019-09-04 20:58:30:420,-1.87,0.0749,10.5308,-0.011,-0.0037,9.8066,0.0274,-0.2768,-0.0076,5.31,-30.81,18.94,191.74,-85.77,-1.68
26420,52.4058,-1.505663,139.26,8.08,3,158.02,19 / 21,3118408,2019-09-04 20:58:30:521,-1.8666,0.067,10.2858,-0.0076,-0.0102,9.8066,0.0353,-0.2865,-0.0191,5.94,-31.75,18.69,192.67,-85.94,-3.45
26421,52.4058,-1.505663,139.26,8.08,3,158.02,19 / 21,3118508,2019-09-04 20:58:30:621,-1.5117,0.3488,10.1493,-0.0091,-0.0127,9.8066,0.0361,-0.2806,-0.0198,5.94,-31.81,17.88,192.53,-86.1,-4.51
26422,52.4058,-1.505663,139.26,8.08,3,158.02,19 / 21,3118608,2019-09-04 20:58:30:721,-1.3503,0.0382,9.9303,-0.0104,-0.0167,9.8066,0.0428,-0.2893,0.0037,5.44,-32.69,17.81,188.62,-86.39,-5.97
26423,52.4058,-1.505663,139.26,8.08,3,158.02,19 / 21,3118708,2019-09-04 20:58:30:821,-1.8457,0.1082,10.5539,-0.0109,-0.0183,9.8066,0.0478,-0.2784,-0.0318,6.5,-32.94,18.31,190.36,-86.7,-9.89
26424,52.4058,-1.505663,139.26,8.08,3,158.02,19 / 21,3118810,2019-09-04 20:58:30:923,-1.8056,0.1475,10.0107,-0.0089,-0.0164,9.8066,0.0374,-0.2724,-0.0112,6.44,-32.87,18.75,186.17,-86.92,-10.81
26425,52.4058,-1.505663,139.26,8.08,3,158.02,19 / 21,3118907,2019-09-04 20:58:31:020,-1.4667,-0.0265,10.1136,0.0022,-0.0103,9.8065,0.0077,-0.2499,-0.0352,5.94,-32.37,18.56,185.95,-87.08,-11.09
26426,52.4058,-1.505663,139.26,8.08,3,158.02,19 / 21,3119007,2019-09-04 20:58:31:120,-0.7813,-0.2352,9.9857,0.0055,-0.0075,9.8066,0.0059,-0.2451,-0.0372,7.13,-32.19,18.88,190.25,-87.21,-9.21
26427,52.4058,-1.505663,139.26,8.08,3,158.02,19 / 21,3119108,2019-09-04 20:58:31:221,-0.7312,-0.3174,9.8471,0.0025,0.0004,9.8066,-0.0103,-0.2114,-0.0056,7.38,-31.87,18.88,191.25,-87.26,-8.15
26428,52.4058,-1.505663,139.26,8.08,3,158.02,19 / 21,3119208,2019-09-04 20:58:31:321,-0.7734,0.0826,9.9285,-0.005,0.0071,9.8066,-0.0108,-0.2072,-0.0005,7.0,-31.81,18.94,190.23,-87.19,-9.22
26429,52.4058,-1.505663,139.26,8.08,3,158.02,19 / 21,3119307,2019-09-04 20:58:31:420,-0.8325,0.3135,9.6482,-0.0054,0.0028,9.8066,-0.0055,-0.1844,-0.0032,7.75,-31.69,18.81,190.9,-87.13,-11.11
26430,52.4058,-1.505663,139.26,8.08,3,158.02,19 / 21,3119407,2019-09-04 20:58:31:520,-0.8786,0.3338,9.5964,-0.0052,0.0033,9.8066,-0.0049,-0.1787,-0.0001,9.0,-31.75,18.25,193.19,-87.11,-12.35
26431,52.4058,-1.505663,139.26,8.08,3,158.02,19 / 21,3119508,2019-09-04 20:58:31:621,-1.0305,0.6109,9.92,-0.0037,-0.0005,9.8066,0.0088,-0.1852,-0.0066,8.25,-31.56,18.19,189.92,-87.1,-13.24
26432,52.4058,-1.505663,139.26,8.08,3,158.02,19 / 21,3119608,2019-09-04 20:58:31:721,-1.2568,0.3818,9.9962,-0.0035,-0.0026,9.8066,0.0028,-0.2043,-0.0202,9.0,-31.31,18.63,190.15,-87.14,-14.47
26433,52.4058,-1.505663,139.26,8.08,3,158.02,19 / 21,3119707,2019-09-04 20:58:31:820,-0.9965,0.267,9.831,0.0076,-0.002,9.8066,-0.0127,-0.1838,-0.0333,10.0,-31.31,18.63,193.37,-87.17,-13.46
26434,52.4058,-1.505663,139.26,8.08,3,158.02,19 / 21,3119808,2019-09-04 20:58:31:921,-1.3644,0.3773,9.6516,0.0004,0.0032,9.8066,-0.0151,-0.1788,-0.0114,9.81,-31.0,17.69,196.02,-87.14,-11.87
26435,52.4058,-1.505663,139.26,8.08,3,158.02,19 / 21,3119908,2019-09-04 20:58:32:021,-0.8581,0.078,9.7887,0.0067,0.0077,9.8066,-0.0359,-0.1658,-0.0167,9.19,-30.56,18.38,194.7,-87.02,-10.72
26436,52.4058,-1.505663,139.26,8.08,3,158.02,19 / 21,3120008,2019-09-04 20:58:32:121,-1.1129,0.7083,10.1412,0.0041,0.0113,9.8066,-0.0275,-0.1919,-0.0175,10.69,-30.75,18.31,199.41,-86.88,-10.52
26437,52.4058,-1.505663,139.26,8.08,3,158.02,19 / 21,3120108,2019-09-04 20:58:32:221,-0.6146,0.6946,9.9669,0.0088,-0.0019,9.8065,-0.01,-0.1816,-0.0419,11.56,-30.12,17.06,203.76,-86.82,-9.64
26438,52.4058,-1.505663,139.26,8.08,3,158.02,19 / 21,3120207,2019-09-04 20:58:32:320,-0.5613,0.3477,9.6723,0.0003,-0.005,9.8066,0.0077,-0.1927,-0.0182,10.81,-29.56,17.25,203.59,-86.84,-7.47
26439,52.4058,-1.505663,139.26,8.08,3,158.02,19 / 21,3120308,2019-09-04 20:58:32:421,-1.1028,0.4957,9.6458,-0.0056,-0.0023,9.8066,0.0123,-0.2085,-0.0112,11.69,-28.87,17.25,205.25,-86.88,-8.15
26440,52.4058,-1.505663,139.26,8.08,3,158.02,18 / 20,3120408,2019-09-04 20:58:32:521,-1.3059,0.4811,9.9764,-0.0078,-0.004,9.8066,0.0144,-0.2139,-0.0114,11.69,-28.94,17.63,202.36,-86.98,-9.82
26441,52.4058,-1.505663,139.26,8.08,3,158.02,18 / 20,3120507,2019-09-04 20:58:32:620,-1.0299,0.5194,9.8284,-0.002,-0.0098,9.8066,0.0136,-0.2192,-0.02,11.31,-28.44,16.63,200.75,-87.07,-10.74
26442,52.4058,-1.505663,139.26,8.08,3,158.02,18 / 20,3120608,2019-09-04 20:58:32:721,-1.1716,0.1808,9.3472,-0.0063,-0.0041,9.8066,0.0006,-0.2246,-0.0112,11.75,-27.87,16.25,204.05,-87.21,-11.26
26443,52.4058,-1.505663,139.26,8.08,3,158.02,18 / 20,3120707,2019-09-04 20:58:32:820,-1.2715,0.4019,9.5804,-0.0032,0.0018,9.8066,-0.0069,-0.2354,-0.0081,12.13,-28.25,15.81,203.22,-87.21,-12.14
26444,52.4058,-1.505663,139.26,8.08,3,158.02,18 / 20,3120808,2019-09-04 20:58:32:921,-1.574,0.3337,9.7417,-0.002,-0.0015,9.8066,-0.0055,-0.2333,-0.0166,12.13,-27.75,14.19,205.81,-87.22,-12.98
26445,52.4058,-1.505663,139.26,8.08,3,158.02,18 / 20,3120908,2019-09-04 20:58:33:021,-0.7617,0.3358,9.8153,-0.0011,-0.0044,9.8066,0.0067,-0.2394,-0.0147,12.56,-27.06,13.75,208.22,-87.26,-12.85
26446,52.4058,-1.505663,139.26,8.08,3,158.02,18 / 20,3121007,2019-09-04 20:58:33:120,-0.8452,-0.0621,10.2435,-0.0011,-0.0044,9.8066,0.0017,-0.2446,0.0068,12.75,-27.06,13.75,208.22,-87.26,-12.85
26447,52.4058,-1.505663,139.26,8.08,3,158.02,18 / 20,3121107,2019-09-04 20:58:33:220,-1.8322,0.4833,8.8822,-0.0033,-0.0015,9.8066,-0.0054,-0.2604,-0.0083,13.63,-28.0,11.81,213.15,-87.38,-14.1
26448,52.4058,-1.505663,139.26,8.08,3,158.02,18 / 20,3121208,2019-09-04 20:58:33:321,-1.6189,0.591,9.1491,0.0075,0.0079,9.8066,-0.036,-0.2663,-0.0187,13.63,-28.31,11.44,214.36,-87.33,-15.14
26449,52.4058,-1.505663,139.26,8.08,3,158.02,18 / 20,3121308,2019-09-04 20:58:33:421,-1.7251,0.6425,9.9496,0.0074,0.0083,9.8066,-0.037,-0.281,-0.0116,14.13,-29.75,10.75,214.79,-87.13,-14.33
26450,52.405354,-1.505745,138.86,6.06,4,244.54,18 / 20,3121407,2019-09-04 20:58:33:520,-1.204,1.1089,9.8153,0.0165,-0.0017,9.8066,-0.0158,-0.2782,-0.0415,15.25,-30.19,9.56,218.95,-87.02,-14.27
26451,52.405354,-1.505745,138.86,6.06,4,244.54,18 / 20,3121507,2019-09-04 20:58:33:620,-1.218,0.6913,9.5071,0.0061,-0.0002,9.8066,-0.0154,-0.2713,-0.0106,15.31,-29.94,9.5,221.74,-86.93,-11.21
26452,52.405354,-1.505745,138.86,6.06,4,244.54,18 / 20,3121607,2019-09-04 20:58:33:720,-1.3194,0.6873,9.4005,0.0033,0.0011,9.8066,-0.021,-0.2892,-0.0115,15.44,-29.62,9.13,224.48,-86.88,-10.84
26453,52.405354,-1.505745,138.86,6.06,4,244.54,18 / 20,3121708,2019-09-04 20:58:33:821,-0.7942,1.5955,10.6508,0.0036,0.0149,9.8065,-0.0413,-0.2864,-0.0094,16.75,-29.69,8.38,228.82,-86.75,-12.11
26454,52.405354,-1.505745,138.86,6.06,4,244.54,18 / 20,3121808,2019-09-04 20:58:33:921,-1.3474,1.8829,10.155,-0.0052,-0.006,9.8066,0.0105,-0.2656,-0.0608,16.13,-30.37,7.31,229.93,-86.65,-12.08
26455,52.405354,-1.505745,138.86,6.06,4,244.54,18 / 20,3121908,2019-09-04 20:58:34:021,-0.5976,0.9575,9.5752,0.0062,-0.0273,9.8065,0.0095,-0.2532,-0.0511,16.69,-30.44,6.88,236.28,-86.82,-7.06
26456,52.405354,-1.505745,138.86,6.06,4,244.54,18 / 20,3122008,2019-09-04 20:58:34:121,-0.7012,0.9806,9.5316,-0.0104,-0.0042,9.8065,0.0262,-0.2695,-0.0121,16.94,-30.25,7.56,234.58,-86.92,-6.25
26457,52.405354,-1.505745,138.86,6.06,4,244.54,18 / 20,3122108,2019-09-04 20:58:34:221,-0.5317,0.959,9.9078,-0.0098,-0.0004,9.8066,0.0093,-0.2388,-0.009,17.19,-30.94,6.75,235.9,-87.11,-7.71
26458,52.405354,-1.505745,138.86,6.06,4,244.54,18 / 20,3122207,2019-09-04 20:58:34:320,-0.2022,1.987,9.6318,0.0056,0.0022,9.8066,-0.0054,-0.2418,-0.0304,17.63,-31.44,5.63,239.52,-87.06,-7.93
26459,52.405354,-1.505745,138.86,6.06,4,244.54,18 / 20,3122308,2019-09-04 20:58:34:421,-0.2171,1.1159,9.748,-0.0058,-0.0074,9.8066,0.0194,-0.2311,-0.0227,17.81,-30.44,5.56,241.01,-87.12,-6.6
26460,52.405354,-1.505745,138.86,6.06,4,244.54,18 / 19,3122407,2019-09-04 20:58:34:520,-0.6516,1.0474,9.6975,-0.0151,-0.0084,9.8065,0.0461,-0.2378,-0.0204,17.94,-31.31,5.63,241.09,-87.27,-6.59
26461,52.405354,-1.505745,138.86,6.06,4,244.54,18 / 19,3122508,2019-09-04 20:58:34:621,-0.6865,0.8173,9.7811,-0.0127,-0.0086,9.8066,0.0301,-0.2244,-0.0202,18.5,-31.0,4.56,245.82,-87.57,-5.95
26462,52.405354,-1.505745,138.86,6.06,4,244.54,18 / 19,3122608,2019-09-04 20:58:34:721,-0.9883,0.6342,10.1727,-0.0013,-0.0032,9.8066,-0.0058,-0.2043,-0.0173,18.69,-30.62,5.19,246.81,-87.7,-5.12
26463,52.405354,-1.505745,138.86,6.06,4,244.54,18 / 19,3122708,2019-09-04 20:58:34:821,-1.0214,0.5608,10.2673,0.0037,-0.0033,9.8066,-0.0063,-0.2015,-0.0258,18.19,-30.62,4.5,247.18,-87.68,-3.76
26464,52.405354,-1.505745,138.86,6.06,4,244.54,18 / 19,3122808,2019-09-04 20:58:34:921,-0.9065,0.3809,9.7723,-0.0033,-0.0116,9.8066,0.0095,-0.1593,-0.0343,19.13,-30.94,4.25,254.32,-87.75,-0.34
26465,52.405354,-1.505745,138.86,6.06,4,244.54,18 / 19,3122908,2019-09-04 20:58:35:021,-0.5353,-0.3697,9.6878,-0.001,-0.0113,9.8066,0.003,-0.1428,-0.0325,18.88,-31.06,4.94,254.47,-87.81,2.54
26466,52.405354,-1.505745,138.86,6.06,4,244.54,18 / 19,3123008,2019-09-04 20:58:35:121,-0.9129,-0.0801,9.68,-0.0032,-0.0042,9.8066,0.005,-0.1284,-0.012,19.06,-30.56,4.31,259.15,-87.84,4.42
26467,52.405354,-1.505745,138.86,6.06,4,244.54,18 / 19,3123108,2019-09-04 20:58:35:221,-0.7879,-0.0282,9.4576,-0.0013,-0.0021,9.8066,-0.0129,-0.1198,-0.015,19.06,-29.37,4.06,260.45,-87.89,5.44
26468,52.405354,-1.505745,138.86,6.06,4,244.54,18 / 19,3123207,2019-09-04 20:58:35:320,-0.6386,0.1138,9.7545,0.0102,-0.0014,9.8066,-0.0208,-0.084,-0.0177,19.5,-29.31,3.94,261.7,-87.8,6.09
26469,52.405354,-1.505745,138.86,6.06,4,244.54,18 / 19,3123308,2019-09-04 20:58:35:421,-0.4963,-0.5137,10.4909,-0.0002,-0.0032,9.8066,-0.0046,-0.0929,0.0007,19.56,-28.62,3.94,263.12,-87.71,7.66
26470,52.405354,-1.505745,138.86,6.06,4,244.54,18 / 21,3123408,2019-09-04 20:58:35:521,-0.6786,-0.1621,10.024,-0.0131,0.0037,9.8066,0.0208,-0.0777,0.005,18.5,-28.12,3.75,259.95,-87.85,4.89
26471,52.405354,-1.505745,138.86,6.06,4,244.54,18 / 21,3123507,2019-09-04 20:58:35:620,-1.1244,-0.3266,9.8133,-0.0155,0.0024,9.8066,0.0323,-0.0736,0.0239,19.31,-27.81,3.81,258.79,-88.0,3.5
26472,52.405354,-1.505745,138.86,6.06,4,244.54,18 / 21,3123608,2019-09-04 20:58:35:721,-0.9768,-0.2801,9.1639,-0.0102,0.0068,9.8066,0.0046,-0.0579,0.0089,18.38,-27.31,3.31,257.78,-88.15,-0.09
26473,52.405354,-1.505745,138.86,6.06,4,244.54,18 / 21,3123707,2019-09-04 20:58:35:820,-0.9716,0.3002,9.837,0.0108,0.0023,9.8066,-0.05,-0.0563,-0.0168,19.06,-27.19,2.31,258.57,-88.14,-2.85
26474,52.405354,-1.505745,138.86,6.06,4,244.54,18 / 21,3123808,2019-09-04 20:58:35:921,-0.5152,-0.24,10.0368,0.0129,-0.0055,9.8066,-0.0444,-0.039,-0.0171,19.0,-26.81,2.38,260.17,-87.96,-0.99
26475,52.405354,-1.505745,138.86,6.06,4,244.54,18 / 21,3123908,2019-09-04 20:58:36:021,-0.4262,-0.5292,10.1622,0.0119,0.0003,9.8066,-0.0203,-0.0416,-0.0073,18.56,-27.37,1.63,261.94,-87.75,1.09
26476,52.405354,-1.505745,138.86,6.06,4,244.54,18 / 21,3124007,2019-09-04 20:58:36:120,-0.5246,-0.0473,9.4834,-0.0046,-0.0049,9.8066,0.0192,-0.0308,-0.023,19.5,-27.06,1.56,263.42,-87.79,2.08
26477,52.405354,-1.505745,138.86,6.06,4,244.54,18 / 21,3124108,2019-09-04 20:58:36:221,-0.6733,-0.7288,9.8377,-0.0038,-0.0108,9.8066,-0.0057,0.0066,-0.0199,19.25,-27.0,1.81,266.3,-87.86,5.32
26478,52.405354,-1.505745,138.86,6.06,4,244.54,18 / 21,3124208,2019-09-04 20:58:36:321,-0.4604,-0.3515,10.2479,-0.0013,-0.0092,9.8066,0.0018,-0.0035,-0.0306,19.31,-27.62,1.94,268.11,-87.88,7.23
26479,52.405354,-1.505745,138.86,6.06,4,244.54,19 / 20,3124308,2019-09-04 20:58:36:421,-0.0873,-0.5568,9.9241,-0.0028,-0.0051,9.8066,0.005,0.001,-0.013,19.13,-26.37,1.81,272.46,-87.91,11.31
26480,52.405354,-1.505745,138.86,6.06,4,244.54,19 / 20,3124408,2019-09-04 20:58:36:521,-0.4664,-0.7023,10.2204,-0.008,-0.0041,9.8066,0.0225,-0.0048,-0.0024,19.94,-25.56,1.0,277.21,-87.92,12.76
26481,52.405354,-1.505745,138.86,6.06,4,244.54,19 / 20,3124507,2019-09-04 20:58:36:620,-0.6966,-0.601,9.5882,-0.0081,-0.0027,9.8066,0.0049,-0.0099,-0.0043,19.19,-26.31,0.0,282.37,-88.07,14.97
26482,52.405354,-1.505745,138.86,6.06,4,244.54,19 / 20,3124608,2019-09-04 20:58:36:721,0.3821,-0.3771,9.7005,0.001,-0.0035,9.8066,-0.0068,0.008,-0.0122,19.31,-28.94,-0.69,285.55,-88.08,15.37
26483,52.405354,-1.505745,138.86,6.06,4,244.54,19 / 20,3124707,2019-09-04 20:58:36:820,0.0791,-0.2349,9.8111,0.0059,0.0025,9.8066,-0.027,-0.0031,0.0037,18.5,-29.75,0.25,282.02,-88.04,15.06
26484,52.405354,-1.505745,138.86,6.06,4,244.54,19 / 20,3124808,2019-09-04 20:58:36:921,0.9177,-0.1875,9.7729,0.0107,-0.0023,9.8066,-0.013,0.0087,-0.0013,19.06,-29.44,1.56,275.26,-87.93,14.4
26485,52.405354,-1.505745,138.86,6.06,4,244.54,19 / 20,3124907,2019-09-04 20:58:37:020,0.9204,-0.0505,10.1619,-0.0003,0.0031,9.8066,0.0008,0.003,-0.0007,19.25,-28.94,1.75,274.49,-87.85,13.76
26486,52.405354,-1.505745,138.86,6.06,4,244.54,19 / 20,3125007,2019-09-04 20:58:37:120,0.6401,-0.1135,10.136,-0.0147,-0.0009,9.8066,0.0349,0.001,0.0021,19.44,-28.12,2.44,275.41,-87.91,14.48
26487,52.405354,-1.505745,138.86,6.06,4,244.54,19 / 20,3125108,2019-09-04 20:58:37:221,0.2037,-0.2927,9.3641,-0.0188,-0.0084,9.8066,0.0353,0.0003,-0.0096,19.06,-27.56,1.88,278.54,-88.19,17.18
26488,52.405354,-1.505745,138.86,6.06,4,244.54,19 / 20,3125208,2019-09-04 20:58:37:321,0.158,-0.1616,9.7566,-0.0014,0.0061,9.8066,-0.0053,-0.001,0.006,18.94,-27.5,1.13,281.85,-88.31,17.22
26489,52.405354,-1.505745,138.86,6.06,4,244.54,19 / 20,3125308,2019-09-04 20:58:37:421,0.5403,-0.3059,9.9301,0.003,0.0045,9.8066,-0.0048,0.0101,0.0147,19.75,-27.44,0.69,280.54,-88.29,15.67
26490,52.405354,-1.505745,138.86,6.06,4,244.54,19 / 20,3125407,2019-09-04 20:58:37:520,0.5432,-0.6014,10.3043,-0.0048,0.004,9.8066,0.0121,0.0,0.01,18.69,-27.81,0.56,278.63,-88.3,14.12
26491,52.405354,-1.505745,138.86,6.06,4,244.54,19 / 20,3125508,2019-09-04 20:58:37:621,0.7047,-0.3313,9.6687,-0.0133,0.0058,9.8066,0.0263,0.0086,0.0148,19.44,-28.94,-0.31,280.09,-88.46,12.41
26492,52.405354,-1.505745,138.86,6.06,4,244.54,19 / 20,3125607,2019-09-04 20:58:37:720,0.5827,-0.5814,9.769,-0.0019,0.0106,9.8066,-0.0023,-0.0073,0.0368,18.56,-30.25,0.25,277.93,-88.57,10.17
26493,52.405354,-1.505745,138.86,6.06,4,244.54,19 / 20,3125708,2019-09-04 20:58:37:821,0.6176,-0.1849,10.1723,-0.0008,0.0109,9.8066,0.0029,0.0136,0.0277,18.06,-31.19,0.19,269.34,-88.59,1.76
26494,52.405354,-1.505745,138.86,6.06,4,244.54,19 / 20,3125808,2019-09-04 20:58:37:921,0.8357,0.1406,10.2094,-0.0095,0.0055,9.8066,0.0249,0.0017,0.0203,18.0,-31.5,2.13,256.6,-88.67,-4.85
26495,52.405354,-1.505745,138.86,6.06,4,244.54,19 / 20,3125907,2019-09-04 20:58:38:020,0.6205,-0.1638,10.1128,-0.0155,0.0081,9.8065,0.0332,0.0015,0.0233,18.25,-31.06,3.69,245.08,-88.8,-10.56
26496,52.405354,-1.505745,138.86,6.06,4,244.54,19 / 20,3126007,2019-09-04 20:58:38:120,0.6931,-0.0045,9.819,-0.0128,0.0004,9.8066,0.0293,-0.0309,0.013,19.06,-28.81,4.94,237.27,-88.94,-16.67
26497,52.405354,-1.505745,138.86,6.06,4,244.54,19 / 20,3126107,2019-09-04 20:58:38:220,1.1142,0.0803,9.783,-0.0072,0.0033,9.8066,0.0186,-0.006,0.0079,19.88,-26.06,5.25,230.05,-89.07,-25.02
26498,52.405354,-1.505745,138.86,6.06,4,244.54,19 / 20,3126207,2019-09-04 20:58:38:320,0.5109,-0.3915,10.1203,-0.0112,0.0028,9.8066,0.0202,-0.0065,0.023,20.88,-23.87,4.75,225.41,-89.14,-30.52
26499,52.405354,-1.505745,138.86,6.06,4,244.54,19 / 20,3126307,2019-09-04 20:58:38:420,0.717,-0.3744,9.8017,-0.0084,0.0109,9.8066,0.0169,-0.0058,0.0374,20.38,-23.56,3.25,215.8,-89.16,-45.08
26500,52.405354,-1.505745,138.86,6.06,4,244.54,19 / 20,3126408,2019-09-04 20:58:38:521,0.8786,0.2172,10.2336,-0.0077,0.0087,9.8066,0.0201,-0.0103,0.0116,20.44,-23.62,1.25,206.95,-89.06,-59.68
26501,52.405354,-1.505745,138.86,6.06,4,244.54,19 / 20,3126508,2019-09-04 20:58:38:621,0.7493,0.0231,9.9764,-0.0106,-0.0056,9.8066,0.0358,-0.0207,-0.0298,19.0,-24.31,0.25,203.5,-89.11,-66.06
26502,52.405354,-1.505745,138.86,6.06,4,244.54,19 / 20,3126608,2019-09-04 20:58:38:721,0.637,-0.5121,9.177,-0.0018,0.0046,9.8066,-0.0049,-0.0122,0.0362,19.13,-24.87,0.13,198.29,-89.27,-71.41
26503,52.405354,-1.505745,138.86,6.06,4,244.54,19 / 20,3126708,2019-09-04 20:58:38:821,0.551,-0.8887,9.6569,0.0051,0.0054,9.8066,-0.0142,-0.0145,-0.0095,17.75,-25.69,0.44,197.32,-89.13,-72.31
26504,52.405354,-1.505745,138.86,6.06,4,244.54,19 / 20,3126808,2019-09-04 20:58:38:921,0.507,-0.0155,10.222,0.0121,-0.0029,9.8066,-0.0208,0.0013,-0.01,17.81,-26.12,0.81,199.46,-89.11,-66.93
26505,52.405354,-1.505745,138.86,6.06,4,244.54,19 / 20,3126908,2019-09-04 20:58:39:021,1.2072,-0.6562,9.9453,-0.0018,-0.0061,9.8066,0.0303,-0.006,-0.006,18.19,-25.81,0.63,207.7,-89.14,-58.55
26506,52.405354,-1.505745,138.86,6.06,4,244.54,19 / 20,3127008,2019-09-04 20:58:39:121,0.5384,-0.3543,9.9474,-0.0215,-0.0021,9.8065,0.0534,-0.0067,-0.0034,18.25,-26.25,1.38,185.31,-89.24,-81.41
26507,52.405354,-1.505745,138.86,6.06,4,244.54,19 / 20,3127108,2019-09-04 20:58:39:221,0.9718,-0.3011,9.6097,-0.02,-0.0008,9.8066,0.0537,-0.0081,0.0055,19.25,-26.31,1.94,165.39,-89.23,-98.86
26508,52.405354,-1.505745,138.86,6.06,4,244.54,19 / 20,3127208,2019-09-04 20:58:39:321,0.4326,-0.0244,9.2198,-0.0035,0.0042,9.8066,-0.0091,-0.0299,0.0043,19.13,-26.25,1.63,153.59,-89.14,-110.92
26509,52.405354,-1.505745,138.86,6.06,4,244.54,19 / 20,3127307,2019-09-04 20:58:39:420,0.6727,-0.0966,9.8889,0.012,-0.0037,9.8066,-0.0329,-0.0005,-0.0093,19.31,-26.81,1.5,159.26,-89.17,-105.15
26510,52.405354,-1.505745,138.86,6.06,4,244.54,19 / 20,3127408,2019-09-04 20:58:39:521,0.8231,-0.5863,10.69,0.0108,-0.0065,9.8065,-0.0174,0.0045,-0.0064,19.19,-26.75,0.94,173.11,-89.25,-94.01
26511,52.405354,-1.505745,138.86,6.06,4,244.54,19 / 20,3127507,2019-09-04 20:58:39:620,1.0362,-0.1369,10.1917,-0.0049,0.0017,9.8066,0.0364,-0.0024,0.0043,20.06,-27.25,1.13,178.82,-89.28,-88.33
26512,52.405354,-1.505745,138.86,6.06,4,244.54,19 / 20,3127608,2019-09-04 20:58:39:721,0.5055,-0.4886,9.0152,-0.0251,-0.0012,9.8065,0.0631,-0.0042,0.0081,20.0,-27.37,1.94,148.45,-89.2,-116.4
26513,52.405354,-1.505745,138.86,6.06,4,244.54,19 / 20,3127707,2019-09-04 20:58:39:820,0.3494,0.4989,9.1689,-0.0177,0.0063,9.8066,0.0346,0.0152,0.0174,20.0,-27.5,1.19,141.42,-89.02,-126.54
26514,52.405354,-1.505745,138.86,6.06,4,244.54,19 / 20,3127808,2019-09-04 20:58:39:921,0.6502,-0.4659,10.0156,0.0129,-0.0054,9.8066,-0.0431,-0.0061,-0.0119,20.88,-27.37,1.06,139.21,-89.02,-128.88
26515,52.405354,-1.505745,138.86,6.06,4,244.54,19 / 20,3127908,2019-09-04 20:58:40:021,1.0362,-0.4852,10.3694,0.0187,-0.0024,9.8066,-0.0347,-0.0075,-0.0071,20.38,-27.12,1.69,148.8,-89.25,-116.0
26516,52.405354,-1.505745,138.86,6.06,4,244.54,19 / 20,3128008,2019-09-04 20:58:40:121,0.3498,-0.4232,10.3832,0.0034,0.0027,9.8066,0.0114,-0.01,0.0057,21.0,-26.5,0.94,159.87,-89.29,-107.71
