,GPS LATITUDE (degrees), GPS LONGITUDE (degrees), GPS ALTITUDE (m), GPS SPEED (Kmh), GPS ACCURACY (m), GPS ORIENTATION (Â°),GPS SATELLITES IN RANGE, TIME SINCE START (ms), DATE (YYYY-MO-DD HH-MI-SS_SSS), ACCELEROMETER X (m/s²) , ACCELEROMETER Y (m/s²), ACCELEROMETER Z (m/s²), GRAVITY X (m/s²), GRAVITY Y (m/s²), GRAVITY Z (m/s²), GYROSCOPE Yaw (rad/s), GYROSCOPE Pitch (rad/s), GYROSCOPE Roll (rad/s), MAGNETIC FIELD X (Î¼T), MAGNETIC FIELD Y (Î¼T), MAGNETIC FIELD Z (Î¼T), ORIENTATION (Yaw) (Â°), ORIENTATION (Pitch) (Â°), ORIENTATION (Roll ) (Â°),Unnamed: 24
18850,52.001926,-2.0774,76,2.12,10.0,302.1,,18 / 24,1885046,2019-08-16 12:00:49:415,0.1008,-0.358,9.542,0.0089,-0.0012,9.8066,0.0106,0.0251,0.016,17.46,23.9,4.91,305.8,7.39,1.71
18851,52.001926,-2.0774,76,2.12,10.0,302.1,,18 / 24,1885146,2019-08-16 12:00:49:515,0.1582,-0.3254,9.8072,0.0002,-0.0037,9.8067,0.0096,0.0155,0.0149,16.85,24.22,5.44,305.8,7.26,1.68
18852,52.001926,-2.077416,76,1.35,10.0,301.2,,18 / 24,1885246,2019-08-16 12:00:49:615,0.1041,-0.3698,9.877,0.0015,-0.0082,9.8066,-0.0043,-0.0249,0.0053,16.97,24.18,5.25,305.79,7.25,1.7
18853,52.001926,-2.077416,76,1.35,10.0,301.2,,18 / 24,1885345,2019-08-16 12:00:49:714,0.0982,-0.4256,9.4889,0.0022,-0.0221,9.8066,0.0096,0.0134,0.0074,17.08,24.05,5.43,305.79,7.25,1.7
18854,52.001926,-2.077416,76,1.35,10.0,301.2,,18 / 24,1885446,2019-08-16 12:00:49:815,-0.0636,-0.1533,9.713,0.007,-0.0236,9.8066,-0.0128,0.0326,0.0042,17.29,24.14,4.29,305.62,7.11,1.74
18855,52.001926,-2.077416,76,1.35,10.0,301.2,,18 / 24,1885545,2019-08-16 12:00:49:914,0.2171,-0.1917,9.918,0.0141,-0.0047,9.8066,0.001,0.0187,0.0042,17.29,24.14,4.29,305.62,7.11,1.74
18856,52.001926,-2.077416,76,1.35,10.0,301.2,,18 / 24,1885646,2019-08-16 12:00:50:015,0.0895,-0.2698,9.5335,0.0047,-0.0023,9.8066,0.001,0.0187,0.0042,17.37,23.96,4.94,305.78,7.04,1.69
18857,52.001926,-2.077416,76,1.35,10.0,301.2,,18 / 24,1885746,2019-08-16 12:00:50:115,0.1563,0.4953,10.1909,0.0106,-0.0053,9.8066,0.0117,-0.0058,0.0053,16.86,24.23,5.36,305.78,6.98,1.66
18858,52.001926,-2.077416,76,1.35,10.0,301.2,,18 / 24,1885845,2019-08-16 12:00:50:214,0.0584,-0.172,9.7292,0.0053,-0.0131,9.8066,0.0085,0.0134,0.0128,16.86,24.23,5.36,305.78,6.98,1.66
18859,52.001926,-2.077416,76,1.35,10.0,301.2,,18 / 24,1885945,2019-08-16 12:00:50:314,0.1425,-0.195,9.7528,0.0027,-0.0142,9.8066,0.0,-0.0058,-0.0043,17.35,23.74,5.93,305.78,6.98,1.66
18860,52.001926,-2.077416,76,1.35,10.0,301.2,,18 / 24,1886045,2019-08-16 12:00:50:414,0.0138,0.1713,9.9122,0.0007,-0.0185,9.8066,0.0042,0.0198,-0.0043,17.14,24.13,4.87,305.77,6.89,1.72
18861,52.001926,-2.077416,76,1.35,10.0,301.2,,18 / 24,1886145,2019-08-16 12:00:50:514,0.132,0.0845,9.8973,0.0147,-0.007,9.8066,-0.0032,0.0241,0.0085,17.14,24.13,4.87,305.77,6.89,1.72
18862,52.001926,-2.077425,76,0.83,10.0,301.1,,18 / 24,1886245,2019-08-16 12:00:50:614,0.1196,-0.2736,9.8859,0.0043,-0.0028,9.8067,0.0064,0.0124,0.001,17.18,24.2,4.39,305.62,6.81,1.68
18863,52.001926,-2.077425,76,0.83,10.0,301.1,,18 / 24,1886346,2019-08-16 12:00:50:715,-0.08,0.3713,10.5602,0.0051,-0.0102,9.8066,0.0032,-0.0047,0.0032,17.65,23.97,3.69,307.15,6.78,1.66
18864,52.001926,-2.077425,76,0.83,10.0,301.1,,18 / 24,1886446,2019-08-16 12:00:50:815,0.2271,-0.3125,9.8675,0.0182,-0.0261,9.8066,0.0032,-0.0047,0.0032,17.65,23.97,3.69,307.15,6.78,1.66
18865,52.001926,-2.077425,76,0.83,10.0,301.1,,18 / 24,1886546,2019-08-16 12:00:50:915,0.136,-0.4701,10.1799,0.0293,-0.0366,9.8065,-0.0064,0.0369,0.0074,16.91,24.31,4.81,305.76,6.59,1.67
18866,52.001926,-2.077425,76,0.83,10.0,301.1,,18 / 24,1886646,2019-08-16 12:00:51:015,0.2638,-0.4299,10.0166,0.0566,-0.0669,9.8063,-0.0053,0.0113,0.0021,18.19,23.56,3.7,307.13,6.08,1.63
18867,52.001926,-2.077425,76,0.83,10.0,301.1,,18 / 24,1886745,2019-08-16 12:00:51:114,0.1784,-0.2487,9.65,0.0159,-0.0207,9.8066,-0.0011,-0.0122,0.0074,18.19,23.56,3.7,307.13,6.08,1.63
18868,52.001926,-2.077425,76,0.83,10.0,301.1,,18 / 24,1886846,2019-08-16 12:00:51:215,0.2229,-0.3948,9.6796,0.0222,-0.0266,9.8066,0.0,0.0198,0.0021,17.29,24.15,4.21,305.59,5.93,1.63
18869,52.001926,-2.077425,76,0.83,10.0,301.1,,18 / 24,1886946,2019-08-16 12:00:51:315,0.2024,-0.2361,9.7609,0.039,-0.0482,9.8065,-0.0032,-0.0015,0.0053,17.33,24.2,3.73,305.59,5.93,1.63
18870,52.001926,-2.077425,76,0.83,10.0,301.1,,18 / 24,1887045,2019-08-16 12:00:51:414,0.3826,-0.2002,9.8565,0.0218,-0.0224,9.8066,0.001,-0.0111,0.0042,17.06,24.31,4.23,305.57,5.41,1.62
18871,52.001926,-2.077425,76,0.83,10.0,301.1,,18 / 24,1887145,2019-08-16 12:00:51:514,0.2874,-0.1599,9.6428,0.0147,-0.0198,9.8066,0.0117,0.0038,0.0,16.68,24.46,4.82,305.68,5.23,1.59
18872,52.001926,-2.077425,76,0.83,10.0,301.1,,18 / 24,1887245,2019-08-16 12:00:51:614,0.2547,-0.1056,9.7983,0.0338,-0.042,9.8065,0.0117,0.0038,0.0,16.84,24.42,4.51,305.68,5.23,1.59
18873,52.001926,-2.077425,76,0.83,10.0,301.1,,18 / 24,1887345,2019-08-16 12:00:51:714,0.3197,-0.2414,9.8666,0.0481,-0.0654,9.8063,0.0021,0.0113,-0.0011,16.84,24.42,4.51,305.68,5.23,1.59
18874,52.001926,-2.077425,76,0.83,10.0,301.1,,18 / 24,1887446,2019-08-16 12:00:51:815,0.0941,-0.2297,9.7853,0.0123,-0.0199,9.8066,-0.0085,-0.0111,0.0106,17.29,24.14,4.29,305.54,4.75,1.58
18875,52.001926,-2.077425,76,0.83,10.0,301.1,,18 / 24,1887546,2019-08-16 12:00:51:915,0.0699,-0.0886,9.7464,0.0281,-0.0391,9.8065,-0.0011,0.0251,0.0096,17.29,24.14,4.29,305.54,4.75,1.58
18876,52.001926,-2.077425,76,0.83,10.0,301.1,,18 / 24,1887645,2019-08-16 12:00:52:014,-0.0068,-0.1386,9.9289,0.0091,-0.0126,9.8066,0.0042,0.0102,-0.0064,16.79,24.13,5.99,305.71,4.47,1.58
18877,52.001926,-2.077425,76,0.83,10.0,301.1,,18 / 24,1887746,2019-08-16 12:00:52:115,0.077,-0.056,9.6791,0.0143,-0.018,9.8066,-0.0181,0.0028,0.0032,16.95,24.36,4.41,305.71,4.47,1.58
18878,52.001926,-2.077425,76,0.83,10.0,301.1,,18 / 24,1887845,2019-08-16 12:00:52:214,0.0509,0.1178,9.9137,0.0224,-0.0235,9.8066,-0.0107,0.0209,0.0117,17.24,24.07,4.84,305.61,4.28,1.56
18879,52.001926,-2.077425,76,0.83,10.0,301.1,,18 / 24,1887945,2019-08-16 12:00:52:314,-0.0112,0.0971,9.7663,0.0116,0.0026,9.8066,0.0021,0.0273,0.0053,17.24,24.07,4.84,305.61,4.28,1.56
18880,52.001926,-2.077425,76,0.83,10.0,301.1,,18 / 24,1888045,2019-08-16 12:00:52:414,-0.0571,0.1819,9.6319,-0.0098,0.0013,9.8066,-0.0032,-0.0058,0.0,16.95,24.36,4.41,305.53,4.27,1.48
18881,52.001926,-2.077425,76,0.83,10.0,301.1,,18 / 24,1888145,2019-08-16 12:00:52:514,-0.1064,0.0034,9.5808,-0.0132,0.0032,9.8066,-0.0032,-0.0058,0.0,17.17,23.98,5.47,305.61,4.31,1.52
18882,52.001926,-2.077442,76,0.84,10.0,301.2,,18 / 24,1888245,2019-08-16 12:00:52:614,0.0659,0.1302,9.5621,-0.0079,0.0103,9.8066,-0.0022,0.0219,0.0032,16.56,24.51,5.01,304.51,4.37,1.58
18883,52.001926,-2.077442,76,0.84,10.0,301.2,,18 / 24,1888345,2019-08-16 12:00:52:714,0.0545,0.1434,9.7298,-0.006,0.0186,9.8066,-0.0171,0.0155,0.0042,16.67,24.44,4.98,304.51,4.37,1.58
18884,52.001926,-2.077442,76,0.84,10.0,301.2,,18 / 24,1888446,2019-08-16 12:00:52:815,-0.1952,0.1817,9.8091,-0.0101,0.0369,9.8066,-0.0053,-0.0281,0.0106,16.9,24.29,4.97,305.64,4.58,1.5
18885,52.001926,-2.077442,76,0.84,10.0,301.2,,18 / 24,1888546,2019-08-16 12:00:52:915,-0.0108,-0.0233,9.7128,-0.0087,0.0108,9.8066,0.0053,0.0336,0.0021,16.9,24.29,4.97,305.64,4.58,1.5
18886,52.001926,-2.077442,76,0.84,10.0,301.2,,18 / 24,1888645,2019-08-16 12:00:53:014,-0.1964,-0.0152,9.7589,-0.0064,-0.0023,9.8066,-0.0149,0.0027,0.0149,17.27,23.93,5.43,305.64,4.67,1.51
18887,52.001926,-2.077442,76,0.84,10.0,301.2,,18 / 24,1888745,2019-08-16 12:00:53:114,-0.2119,0.3606,10.1332,-0.0137,0.0005,9.8066,0.0074,-0.0004,0.0074,17.33,24.01,4.81,305.64,4.67,1.51
18888,52.001926,-2.077442,76,0.84,10.0,301.2,,18 / 24,1888845,2019-08-16 12:00:53:214,-0.0345,0.1701,9.8251,-0.0148,0.0074,9.8066,0.0074,-0.0004,0.0074,16.89,24.27,5.05,305.64,4.75,1.55
18889,52.001926,-2.077442,76,0.84,10.0,301.2,,18 / 24,1888946,2019-08-16 12:00:53:315,0.0547,0.0683,9.9698,0.0022,0.0044,9.8066,0.001,0.0038,0.0042,16.89,24.27,5.05,305.64,4.75,1.55
18890,52.001926,-2.077442,76,0.84,10.0,301.2,,18 / 24,1889045,2019-08-16 12:00:53:414,-0.1808,-0.0183,9.8227,-0.0011,-0.0016,9.8067,-0.0085,-0.0026,0.0042,17.37,24.07,4.35,305.55,4.77,1.53
18891,52.001926,-2.077442,76,0.84,10.0,301.2,,18 / 24,1889145,2019-08-16 12:00:53:514,-0.1427,-0.1795,9.8963,-0.0054,-0.0015,9.8066,-0.0032,-0.0239,0.0085,17.06,24.02,5.67,305.75,4.78,1.56
18892,52.00193,-2.077452,76,0.84,10.0,301.3,,18 / 24,1889246,2019-08-16 12:00:53:615,-0.239,0.0602,9.7149,-0.0067,0.0017,9.8066,0.0074,0.0272,0.0042,17.06,24.02,5.67,305.75,4.78,1.56
18893,52.00193,-2.077452,76,0.84,10.0,301.3,,18 / 24,1889345,2019-08-16 12:00:53:714,-0.0657,0.0287,9.8783,0.0024,0.0015,9.8067,0.0,0.0123,0.0053,17.27,24.12,4.45,305.54,4.81,1.59
18894,52.00193,-2.077452,76,0.84,10.0,301.3,,18 / 24,1889446,2019-08-16 12:00:53:815,-0.1856,-0.0172,9.7971,-0.0022,0.0023,9.8067,0.0,-0.0143,0.0042,17.53,23.82,5.03,305.54,4.81,1.59
18895,52.00193,-2.077452,76,0.84,10.0,301.3,,18 / 24,1889545,2019-08-16 12:00:53:914,-0.1825,-0.1653,9.9681,-0.0052,-0.0005,9.8066,0.0,-0.0143,0.0042,16.88,24.26,5.13,305.64,4.83,1.62
18896,52.00193,-2.077452,76,0.84,10.0,301.3,,18 / 24,1889645,2019-08-16 12:00:54:014,0.1006,-0.044,9.6418,0.0047,0.0008,9.8067,0.0042,0.0155,0.0,16.88,24.26,5.13,305.64,4.83,1.62
18897,52.00193,-2.077452,76,0.84,10.0,301.3,,18 / 24,1889745,2019-08-16 12:00:54:114,-0.1512,0.1268,9.894,0.0024,0.0055,9.8066,0.0096,-0.0058,-0.0022,17.27,24.11,4.53,305.65,4.82,1.59
18898,52.00193,-2.077452,76,0.84,10.0,301.3,,18 / 24,1889845,2019-08-16 12:00:54:214,-0.2078,0.0892,9.9362,0.0083,0.0076,9.8066,0.017,-0.0196,0.0053,17.09,23.87,6.17,305.76,4.83,1.53
18899,52.00193,-2.077452,76,0.84,10.0,301.3,,18 / 24,1889946,2019-08-16 12:00:54:315,0.2175,-0.0557,9.7523,-0.0049,-0.0047,9.8066,-0.0054,0.0155,0.0053,17.09,23.87,6.17,305.76,4.83,1.53
18900,52.00193,-2.077452,76,0.84,10.0,301.3,,18 / 24,1890045,2019-08-16 12:00:54:414,-0.1747,-0.0422,9.9819,0.0054,-0.0085,9.8066,0.0085,-0.0047,0.0021,16.11,24.8,5.04,302.98,4.82,1.56
18901,52.00193,-2.077452,76,0.84,10.0,301.3,,18 / 24,1890145,2019-08-16 12:00:54:514,0.2218,-0.1166,9.7504,-0.0016,-0.0045,9.8066,0.001,-0.0143,0.0042,16.88,24.26,5.13,305.64,4.76,1.56
18902,52.00193,-2.077452,76,0.84,10.0,301.3,,18 / 24,1890245,2019-08-16 12:00:54:614,0.0109,-0.0634,9.7611,0.0069,-0.0106,9.8066,-0.0192,0.0326,0.0096,17.23,24.14,4.52,305.64,4.76,1.56
18903,52.00193,-2.077452,76,0.84,10.0,301.3,,18 / 24,1890345,2019-08-16 12:00:54:714,0.1767,-0.2332,9.8954,0.0227,-0.0249,9.8066,0.001,0.0219,0.0032,17.23,24.14,4.52,305.64,4.76,1.56
18904,52.00193,-2.077452,76,0.84,10.0,301.3,,18 / 24,1890446,2019-08-16 12:00:54:815,0.2113,-0.2308,9.6092,0.0129,-0.0149,9.8066,0.001,0.0219,0.0032,16.08,24.91,4.58,302.96,4.57,1.54
18905,52.00193,-2.077452,76,0.84,10.0,301.3,,18 / 24,1890546,2019-08-16 12:00:54:915,0.1352,-0.3094,9.5939,0.0237,-0.034,9.8066,0.0,0.007,0.0042,16.83,24.48,4.17,302.96,4.57,1.54
18906,52.00193,-2.077452,76,0.84,10.0,301.3,,18 / 24,1890646,2019-08-16 12:00:55:015,0.1094,-0.2149,9.8167,0.0049,-0.0142,9.8066,0.001,-0.0101,0.0021,16.22,24.7,5.2,302.94,4.32,1.53
18907,52.00193,-2.077452,76,0.84,10.0,301.3,,18 / 24,1890746,2019-08-16 12:00:55:115,0.1727,-0.2541,9.9544,0.0149,-0.0236,9.8066,-0.0107,0.0081,0.0032,17.27,24.2,4.04,305.51,4.16,1.54
18908,52.00193,-2.077452,76,0.84,10.0,301.3,,18 / 24,1890846,2019-08-16 12:00:55:215,0.3014,-0.1522,9.6413,0.0196,-0.0068,9.8066,-0.0075,0.0166,0.0064,17.27,24.2,4.04,305.51,4.16,1.54
18909,52.00193,-2.077452,76,0.84,10.0,301.3,,18 / 24,1890945,2019-08-16 12:00:55:314,-0.1451,-0.0843,9.8954,0.0011,-0.0113,9.8066,0.0149,0.0027,0.001,17.12,24.19,4.7,305.59,3.99,1.46
18910,52.00193,-2.077452,76,0.84,10.0,301.3,,18 / 24,1891045,2019-08-16 12:00:55:414,0.1001,-0.2324,9.7349,0.0112,-0.0249,9.8066,-0.0064,0.0134,0.0074,16.94,24.42,4.08,305.5,3.83,1.49
18911,52.00193,-2.077452,76,0.84,10.0,301.3,,18 / 24,1891145,2019-08-16 12:00:55:514,0.0319,-0.1401,9.5966,0.0083,-0.007,9.8066,0.0021,-0.009,0.0032,16.94,24.42,4.08,305.5,3.83,1.49
18912,52.001938,-2.077462,74,0.63,10.0,302.8,,17 / 24,1891245,2019-08-16 12:00:55:614,-0.0572,-0.1608,9.9417,0.0125,-0.0065,9.8066,0.0,0.024,0.0021,17.54,24.08,3.53,307.04,3.77,1.47
18913,52.001938,-2.077462,74,0.63,10.0,302.8,,17 / 24,1891345,2019-08-16 12:00:55:714,0.03,0.0268,9.8174,0.0202,-0.0138,9.8066,0.0,0.024,0.0021,17.21,24.31,3.56,307.04,3.77,1.47
18914,52.001938,-2.077462,74,0.63,10.0,302.8,,17 / 24,1891446,2019-08-16 12:00:55:815,0.039,0.0077,9.5243,0.0067,-0.0065,9.8066,0.001,0.0198,0.001,17.0,24.3,4.54,305.57,3.63,1.43
18915,52.001938,-2.077462,74,0.63,10.0,302.8,,17 / 24,1891547,2019-08-16 12:00:55:916,-0.0414,0.0154,9.6403,0.0073,-0.0129,9.8066,0.0096,-0.0047,0.0074,17.0,24.3,4.54,305.57,3.63,1.43
18916,52.001938,-2.077462,74,0.63,10.0,302.8,,17 / 24,1891645,2019-08-16 12:00:56:014,0.022,-0.1097,9.8027,0.0067,-0.0106,9.8066,-0.0032,0.0155,0.0053,16.93,24.41,4.16,305.49,3.55,1.44
18917,52.001938,-2.077462,74,0.63,10.0,302.8,,17 / 24,1891745,2019-08-16 12:00:56:114,-0.1509,-0.1505,9.8715,0.0105,-0.0159,9.8066,-0.0213,-0.0005,0.0106,16.93,24.41,4.16,305.48,3.44,1.44
18918,52.001938,-2.077462,74,0.63,10.0,302.8,,17 / 24,1891845,2019-08-16 12:00:56:214,0.0605,0.0213,9.7991,0.0105,-0.0064,9.8066,-0.0086,0.04,0.0042,16.93,24.41,4.16,305.48,3.44,1.44
18919,52.001938,-2.077462,74,0.63,10.0,302.8,,17 / 24,1891945,2019-08-16 12:00:56:314,-0.1775,-0.1283,9.9195,-0.0002,-0.0006,9.8067,-0.0086,0.04,0.0042,17.36,24.13,4.03,305.48,3.37,1.41
18920,52.001938,-2.077462,74,0.63,10.0,302.8,,17 / 24,1892046,2019-08-16 12:00:56:415,-0.1056,0.0881,9.6532,0.0046,0.0021,9.8066,-0.0032,0.0208,0.0042,16.59,24.64,4.2,304.38,3.37,1.42
18921,52.001938,-2.077462,74,0.63,10.0,302.8,,17 / 24,1892145,2019-08-16 12:00:56:514,-0.1821,-0.0087,9.9648,0.0104,-0.0008,9.8066,-0.0043,0.0006,0.0032,16.59,24.64,4.2,304.38,3.37,1.42
18922,52.001938,-2.077462,74,0.63,10.0,302.8,,17 / 24,1892245,2019-08-16 12:00:56:614,-0.0664,-0.1348,9.95,-0.0025,-0.003,9.8066,-0.0064,0.0006,0.0085,17.26,24.19,4.12,305.48,3.33,1.37
18923,52.001938,-2.077462,74,0.63,10.0,302.8,,17 / 24,1892345,2019-08-16 12:00:56:714,-0.0127,0.0341,9.562,-0.0027,-0.0073,9.8066,0.0064,0.0006,0.0053,16.93,24.41,4.16,305.48,3.33,1.37
18924,52.001938,-2.077462,74,0.63,10.0,302.8,,17 / 24,1892445,2019-08-16 12:00:56:814,-0.0799,0.16,9.8027,-0.0008,-0.005,9.8067,-0.0128,0.0336,0.0032,17.3,24.24,3.64,305.48,3.3,1.41
18925,52.001938,-2.077462,74,0.63,10.0,302.8,,17 / 24,1892545,2019-08-16 12:00:56:914,0.0199,0.1091,9.9184,0.0029,-0.002,9.8067,-0.0011,-0.0069,0.0063,17.3,24.24,3.64,305.47,3.28,1.4
18926,52.001938,-2.077462,74,0.63,10.0,302.8,,17 / 24,1892645,2019-08-16 12:00:57:014,0.1583,0.1379,9.6455,-0.002,0.0026,9.8066,0.0032,-0.008,0.0053,17.21,24.12,4.67,305.47,3.28,1.4
18927,52.001938,-2.077462,74,0.63,10.0,302.8,,17 / 24,1892745,2019-08-16 12:00:57:114,-0.0981,0.2288,9.7959,0.003,0.0063,9.8066,0.0032,-0.008,0.0053,17.21,24.12,4.67,305.54,3.3,1.36
18928,52.001938,-2.077462,74,0.63,10.0,302.8,,17 / 24,1892846,2019-08-16 12:00:57:215,0.0945,0.2492,9.6602,0.0026,0.0029,9.8067,0.0021,-0.009,0.0032,17.21,24.12,4.67,305.54,3.3,1.36
18929,52.001938,-2.077462,74,0.63,10.0,302.8,,17 / 24,1892945,2019-08-16 12:00:57:314,0.0732,0.0716,9.9179,-0.0023,-0.0021,9.8067,0.0074,0.0059,0.0063,17.76,23.72,4.69,307.09,3.31,1.34
18930,52.001938,-2.077462,74,0.63,10.0,302.8,,17 / 24,1893045,2019-08-16 12:00:57:414,-0.1219,0.1577,9.8288,-0.0071,0.0001,9.8066,0.0,0.0091,0.0032,16.92,24.4,4.24,307.09,3.31,1.34
18931,52.001938,-2.077462,74,0.63,10.0,302.8,,17 / 24,1893145,2019-08-16 12:00:57:514,-0.1907,0.0376,10.0023,-0.0056,0.004,9.8066,0.0032,-0.0026,0.0063,17.43,23.94,4.82,305.55,3.35,1.35
18932,52.001945,-2.077481,74,0.91,10.0,302.5,,17 / 24,1893245,2019-08-16 12:00:57:614,0.1476,0.0517,9.8007,0.002,0.0021,9.8066,0.0149,0.0059,0.0032,17.43,23.94,4.82,305.55,3.35,1.35
18933,52.001945,-2.077481,74,0.91,10.0,302.5,,17 / 24,1893345,2019-08-16 12:00:57:714,-0.0811,0.1043,9.8277,-0.0033,0.0045,9.8066,-0.0075,-0.0101,-0.0011,16.57,24.72,3.79,304.39,3.35,1.34
18934,52.001945,-2.077481,74,0.91,10.0,302.5,,17 / 24,1893445,2019-08-16 12:00:57:814,0.001,0.1429,9.7659,-0.0049,0.0066,9.8066,-0.0075,-0.0101,-0.0011,17.8,23.94,3.16,304.39,3.35,1.34
18935,52.001945,-2.077481,74,0.91,10.0,302.5,,17 / 24,1893546,2019-08-16 12:00:57:915,0.0625,0.0343,9.6803,-0.0039,0.0131,9.8066,0.0085,-0.0186,0.0032,17.19,24.29,3.81,305.49,3.43,1.31
18936,52.001945,-2.077481,74,0.91,10.0,302.5,,17 / 24,1893646,2019-08-16 12:00:58:015,-0.1502,0.0333,9.7489,-0.0033,0.0037,9.8066,0.0074,-0.0154,0.0021,17.48,24.01,4.25,305.49,3.43,1.31
18937,52.001945,-2.077481,74,0.91,10.0,302.5,,17 / 24,1893745,2019-08-16 12:00:58:114,-0.086,-0.1168,9.7464,-0.0041,-0.0032,9.8066,-0.0086,0.0197,0.0042,17.26,24.18,4.2,305.5,3.46,1.32
18938,52.001945,-2.077481,74,0.91,10.0,302.5,,17 / 24,1893845,2019-08-16 12:00:58:214,-0.1955,0.034,9.7909,-0.0119,-0.0033,9.8066,0.0181,-0.0016,0.0,16.88,24.33,4.8,305.5,3.46,1.32
18939,52.001945,-2.077481,74,0.91,10.0,302.5,,17 / 24,1893945,2019-08-16 12:00:58:314,-0.0784,0.003,9.9797,-0.0113,0.0015,9.8066,0.0053,0.0006,0.0021,16.88,24.33,4.8,305.5,3.46,1.32
18940,52.001945,-2.077481,74,0.91,10.0,302.5,,17 / 24,1894045,2019-08-16 12:00:58:414,0.0215,0.1488,9.5841,0.003,0.009,9.8066,-0.0171,0.0102,0.0053,17.21,24.11,4.75,305.56,3.51,1.37
18941,52.001945,-2.077481,74,0.91,10.0,302.5,,17 / 24,1894146,2019-08-16 12:00:58:515,-0.1141,0.1796,9.6759,-0.0018,0.0053,9.8067,0.0053,-0.025,0.001,16.82,24.26,5.35,305.57,3.54,1.32
18942,52.001953,-2.077498,73,1.42,10.0,303.6,,17 / 24,1894245,2019-08-16 12:00:58:614,0.1058,0.1215,9.7707,-0.0046,0.0134,9.8066,0.0053,-0.025,0.001,16.9,24.59,3.18,305.57,3.54,1.32
18943,52.001953,-2.077498,73,1.42,10.0,303.6,,17 / 24,1894346,2019-08-16 12:00:58:715,-0.3115,0.0453,9.9559,-0.0071,0.016,9.8066,-0.0096,0.0219,0.0053,17.09,24.15,4.94,305.58,3.64,1.3
18944,52.001953,-2.077498,73,1.42,10.0,303.6,,17 / 24,1894445,2019-08-16 12:00:58:814,-0.0495,-0.044,9.8875,-0.0025,0.0047,9.8066,-0.0213,0.008,0.0095,17.09,24.15,4.94,305.58,3.64,1.3
18945,52.001953,-2.077498,73,1.42,10.0,303.6,,17 / 24,1894545,2019-08-16 12:00:58:914,0.0108,-0.037,9.7011,-0.0007,0.0088,9.8066,-0.0032,-0.0016,0.0042,17.26,24.18,4.2,305.51,3.67,1.3
18946,52.001953,-2.077498,73,1.42,10.0,303.6,,17 / 24,1894646,2019-08-16 12:00:59:015,-0.2362,0.064,9.7802,-0.0005,0.0109,9.8066,0.0106,0.0165,0.0031,17.53,23.89,4.71,307.13,3.73,1.26
18947,52.001953,-2.077498,73,1.42,10.0,303.6,,17 / 24,1894745,2019-08-16 12:00:59:114,0.1618,0.0652,9.6997,-0.0035,0.0029,9.8066,-0.0181,0.0251,0.0063,17.42,23.93,4.89,305.6,3.74,1.27
18948,52.001953,-2.077498,73,1.42,10.0,303.6,,17 / 24,1894846,2019-08-16 12:00:59:215,0.0606,0.1636,9.7551,-0.0091,0.0067,9.8066,0.0234,-0.0005,0.0042,17.25,24.17,4.28,305.6,3.74,1.27
18949,52.001953,-2.077498,73,1.42,10.0,303.6,,17 / 24,1894946,2019-08-16 12:00:59:315,-0.1211,0.2654,9.8733,-0.0139,0.0123,9.8066,0.0042,0.0176,0.0042,17.25,24.17,4.28,305.6,3.74,1.27
18950,52.001953,-2.077498,73,1.42,10.0,303.6,,17 / 24,1895046,2019-08-16 12:00:59:415,0.0771,0.1652,10.0165,-0.0045,0.0029,9.8067,-0.0224,0.0112,0.0085,17.43,23.94,4.82,305.6,3.85,1.3
18951,52.001953,-2.077498,73,1.42,10.0,303.6,,17 / 24,1895146,2019-08-16 12:00:59:515,-0.0455,0.1698,10.0071,-0.0073,0.0062,9.8066,-0.0086,-0.0207,0.0074,16.92,24.4,4.24,305.52,3.9,1.31
18952,52.00196,-2.077517,73,1.51,10.0,302.1,,17 / 24,1895246,2019-08-16 12:00:59:615,-0.0052,0.0778,9.8954,-0.0058,0.0077,9.8066,-0.0086,-0.0207,0.0074,16.92,24.4,4.24,305.52,3.9,1.31
18953,52.00196,-2.077517,73,1.51,10.0,302.1,,17 / 24,1895345,2019-08-16 12:00:59:714,-0.1319,0.0614,9.5765,-0.0103,0.0156,9.8066,-0.0032,0.0133,-0.0011,17.15,24.23,4.38,305.53,4.01,1.31
18954,52.00196,-2.077517,73,1.51,10.0,302.1,,17 / 24,1895445,2019-08-16 12:00:59:814,-0.2573,-0.049,9.7967,0.001,0.0077,9.8066,0.0106,0.0101,-0.0011,17.15,24.23,4.38,305.53,4.01,1.31
18955,52.00196,-2.077517,73,1.51,10.0,302.1,,17 / 24,1895545,2019-08-16 12:00:59:914,-0.0466,-0.2706,9.9418,-0.0055,0.005,9.8066,0.0032,0.0336,0.0053,17.26,24.39,2.73,305.45,4.05,1.28
18956,52.00196,-2.077517,73,1.51,10.0,302.1,,17 / 24,1895645,2019-08-16 12:01:00:014,-0.1178,-0.2154,9.7834,-0.0091,0.0089,9.8066,-0.0032,-0.0176,0.0042,16.4,24.84,3.74,305.45,4.05,1.28
18957,52.00196,-2.077517,73,1.51,10.0,302.1,,17 / 24,1895745,2019-08-16 12:01:00:114,-0.0637,-0.1047,9.9662,-0.0072,0.002,9.8066,-0.0128,-0.0154,0.0063,15.65,25.58,0.97,301.57,4.14,1.28
18958,52.00196,-2.077517,73,1.51,10.0,302.1,,17 / 24,1895845,2019-08-16 12:01:00:214,-0.0921,-0.0705,9.9953,-0.0096,0.0073,9.8066,-0.0128,-0.0154,0.0063,15.65,25.58,0.97,301.57,4.14,1.28
18959,52.00196,-2.077517,73,1.51,10.0,302.1,,17 / 24,1895945,2019-08-16 12:01:00:314,-0.14,0.0209,9.7392,-0.0008,-0.0025,9.8067,0.0,0.008,0.0074,16.29,25.17,1.04,302.58,4.2,1.3
18960,52.00196,-2.077517,73,1.51,10.0,302.1,,17 / 24,1896045,2019-08-16 12:01:00:414,-0.1124,0.0289,9.864,-0.0019,0.0007,9.8067,-0.0075,0.0123,0.0074,16.89,24.69,2.22,304.27,4.19,1.31
18961,52.00196,-2.077517,73,1.51,10.0,302.1,,17 / 24,1896146,2019-08-16 12:01:00:515,0.1191,0.2573,9.74,-0.0079,0.0101,9.8066,0.0021,-0.0048,0.0053,16.95,24.66,2.17,304.27,4.19,1.31
18962,52.001972,-2.077537,73,1.28,10.0,303.0,,17 / 24,1896245,2019-08-16 12:01:00:614,-0.0228,0.2221,9.9691,-0.0046,0.0208,9.8066,0.0,-0.0144,0.0042,16.95,24.66,2.17,304.27,4.19,1.31
18963,52.001972,-2.077537,73,1.28,10.0,303.0,,17 / 24,1896346,2019-08-16 12:01:00:715,0.2835,0.2034,9.5635,-0.0007,0.0063,9.8066,-0.0064,0.0251,0.0042,17.23,24.34,3.31,305.46,4.31,1.27
18964,52.001972,-2.077537,73,1.28,10.0,303.0,,17 / 24,1896445,2019-08-16 12:01:00:814,-0.0887,0.2385,9.8045,-0.0004,-0.0007,9.8067,0.016,-0.0016,0.0074,17.65,24.05,3.21,307.01,4.34,1.25
18965,52.001972,-2.077537,73,1.28,10.0,303.0,,17 / 24,1896545,2019-08-16 12:01:00:914,0.1581,0.1791,9.5758,-0.0083,0.0008,9.8066,0.016,-0.0016,0.0074,17.14,24.22,4.46,305.56,4.37,1.29
18966,52.001972,-2.077537,73,1.28,10.0,303.0,,17 / 24,1896645,2019-08-16 12:01:01:014,0.0,0.0723,9.7939,-0.0027,0.0036,9.8067,-0.0022,0.0027,0.0063,17.14,24.22,4.46,305.56,4.37,1.29
18967,52.001972,-2.077537,73,1.28,10.0,303.0,,17 / 24,1896746,2019-08-16 12:01:01:115,0.0411,0.0632,9.7974,-0.0038,0.0079,9.8066,-0.0075,0.0091,0.0063,17.61,24.0,3.76,307.1,4.42,1.28
18968,52.001972,-2.077537,73,1.28,10.0,303.0,,17 / 24,1896845,2019-08-16 12:01:01:214,0.0674,0.0414,9.7984,0.0075,0.0081,9.8066,0.0032,-0.009,0.0031,17.47,23.99,4.41,307.1,4.42,1.28
18969,52.001972,-2.077537,73,1.28,10.0,303.0,,17 / 24,1896945,2019-08-16 12:01:01:314,0.1211,0.0861,9.5893,0.0089,0.0105,9.8066,0.016,-0.0144,0.0063,17.32,24.28,3.24,305.47,4.44,1.2
18970,52.001972,-2.077537,73,1.28,10.0,303.0,,17 / 24,1897045,2019-08-16 12:01:01:414,-0.1589,-0.1007,9.9377,-0.0095,0.0016,9.8066,0.0074,0.008,0.0053,17.32,24.28,3.24,305.47,4.44,1.2
18971,52.001972,-2.077537,73,1.28,10.0,303.0,,17 / 24,1897145,2019-08-16 12:01:01:514,-0.0048,-0.1618,9.8221,-0.0015,-0.0019,9.8067,0.0223,0.0123,-0.0001,17.06,24.39,3.75,305.57,4.48,1.24
18972,52.00198,-2.077557,73,1.74,10.0,302.7,,17 / 24,1897245,2019-08-16 12:01:01:614,-0.0317,0.1208,10.0126,-0.0047,0.0043,9.8066,0.0021,-0.0197,0.0031,17.61,24.0,3.76,307.11,4.52,1.25
18973,52.00198,-2.077557,73,1.74,10.0,302.7,,17 / 24,1897345,2019-08-16 12:01:01:714,-0.0762,0.0187,9.8247,-0.0004,-0.0015,9.8066,-0.0149,0.008,0.0127,17.61,24.0,3.76,307.11,4.52,1.25
18974,52.00198,-2.077557,73,1.74,10.0,302.7,,17 / 24,1897445,2019-08-16 12:01:01:814,-0.0329,0.0012,9.8215,0.0021,0.0053,9.8066,-0.0149,0.008,0.0127,17.34,24.11,4.26,305.57,4.51,1.25
18975,52.00198,-2.077557,73,1.74,10.0,302.7,,17 / 24,1897545,2019-08-16 12:01:01:914,0.0531,-0.0155,9.9334,-0.0015,0.0065,9.8066,0.0074,0.0187,0.0031,17.06,24.39,3.75,305.57,4.53,1.23
18976,52.00198,-2.077557,73,1.74,10.0,302.7,,17 / 24,1897645,2019-08-16 12:01:02:014,-0.1001,0.0326,9.8009,0.0021,0.0041,9.8067,0.0053,0.0016,0.0063,17.55,24.1,3.36,305.57,4.53,1.23
18977,52.00198,-2.077557,73,1.74,10.0,302.7,,17 / 24,1897746,2019-08-16 12:01:02:115,0.0388,-0.1522,9.7767,-0.0064,0.0003,9.8066,0.0021,-0.0101,0.0042,17.06,24.39,3.75,305.57,4.55,1.22
18978,52.00198,-2.077557,73,1.74,10.0,302.7,,17 / 24,1897846,2019-08-16 12:01:02:215,-0.1319,-0.0811,9.6743,-0.0025,-0.0029,9.8066,0.0021,0.0219,0.0021,17.06,24.39,3.75,305.57,4.55,1.22
18979,52.00198,-2.077557,73,1.74,10.0,302.7,,17 / 24,1897946,2019-08-16 12:01:02:315,-0.0244,-0.1049,9.9084,0.0028,0.0037,9.8067,-0.0043,0.0027,0.0063,17.47,23.8,5.33,305.67,4.55,1.24
18980,52.00198,-2.077557,73,1.74,10.0,302.7,,17 / 24,1898046,2019-08-16 12:01:02:415,-0.082,0.0046,9.9037,0.0038,0.0118,9.8066,-0.0267,0.008,0.0085,16.76,24.66,3.3,305.67,4.55,1.24
18981,52.00198,-2.077557,73,1.74,10.0,302.7,,17 / 24,1898145,2019-08-16 12:01:02:514,0.0248,-0.0434,10.0255,0.01,0.0146,9.8066,-0.0011,0.0144,0.0085,16.84,24.55,3.7,304.49,4.58,1.14
18982,52.00199,-2.077578,73,1.52,10.0,303.6,,17 / 24,1898246,2019-08-16 12:01:02:615,-0.0477,-0.0343,9.9884,-0.0002,0.0039,9.8066,-0.0011,0.0144,0.0085,16.84,24.55,3.7,304.49,4.58,1.14
18983,52.00199,-2.077578,73,1.52,10.0,303.6,,17 / 24,1898345,2019-08-16 12:01:02:714,-0.0048,-0.2367,9.7984,0.0013,0.0067,9.8066,-0.0011,-0.0112,0.0074,16.69,24.55,4.34,304.49,4.6,1.13
18984,52.00199,-2.077578,73,1.52,10.0,303.6,,17 / 24,1898446,2019-08-16 12:01:02:815,-0.265,-0.1636,9.8937,-0.0062,0.0018,9.8066,-0.0139,-0.0016,0.0106,17.02,24.55,2.78,304.38,4.63,1.15
18985,52.00199,-2.077578,73,1.52,10.0,303.6,,17 / 24,1898546,2019-08-16 12:01:02:915,0.003,-0.1254,9.8445,0.0003,-0.0005,9.8066,0.001,0.0048,0.0085,17.02,24.55,2.78,304.38,4.63,1.15
18986,52.00199,-2.077578,73,1.52,10.0,303.6,,17 / 24,1898645,2019-08-16 12:01:03:014,0.0222,-0.0079,9.8879,0.0043,0.0,9.8066,0.0042,0.0229,0.0031,17.51,24.04,3.93,307.13,4.62,1.13
18987,52.00199,-2.077578,73,1.52,10.0,303.6,,17 / 24,1898745,2019-08-16 12:01:03:114,-0.0901,-0.0912,10.0532,-0.0084,0.0037,9.8066,0.0074,-0.0069,0.001,17.51,24.04,3.93,307.13,4.58,1.12
18988,52.00199,-2.077578,73,1.52,10.0,303.6,,17 / 24,1898846,2019-08-16 12:01:03:215,-0.0301,0.0672,9.6583,-0.0087,0.0063,9.8066,0.0032,-0.0037,0.0042,17.51,24.04,3.93,307.13,4.58,1.12
18989,52.00199,-2.077578,73,1.52,10.0,303.6,,17 / 24,1898946,2019-08-16 12:01:03:315,-0.1643,0.0929,10.0059,-0.0032,0.0042,9.8066,0.0032,-0.0037,0.0042,16.95,24.44,3.92,305.59,4.64,1.14
18990,52.00199,-2.077578,73,1.52,10.0,303.6,,17 / 24,1899045,2019-08-16 12:01:03:414,-0.0821,-0.0538,9.8525,0.0007,0.0048,9.8066,-0.0022,0.0005,0.0117,17.06,24.38,3.83,305.59,4.67,1.14
18991,52.00199,-2.077578,73,1.52,10.0,303.6,,17 / 24,1899146,2019-08-16 12:01:03:515,0.0388,0.0285,9.8484,0.0034,0.0067,9.8066,0.0213,-0.0165,-0.0022,17.32,24.27,3.32,305.49,4.69,1.1
18992,52.002,-2.077599,73,1.31,9.0,301.6,,17 / 24,1899245,2019-08-16 12:01:03:614,-0.1469,-0.0002,9.8297,-0.0037,-0.0012,9.8066,0.0128,-0.008,0.0042,17.32,24.27,3.32,305.49,4.69,1.1
18993,52.002,-2.077599,73,1.31,9.0,301.6,,17 / 24,1899345,2019-08-16 12:01:03:714,0.0199,-0.0112,9.7563,0.0075,-0.0018,9.8066,0.0128,-0.008,0.0042,17.21,24.4,2.89,305.49,4.69,1.12
18994,52.002,-2.077599,73,1.31,9.0,301.6,,17 / 24,1899445,2019-08-16 12:01:03:814,-0.1282,0.0627,10.1259,-0.0006,0.0034,9.8066,-0.0032,0.0059,0.0095,17.21,24.4,2.89,305.49,4.66,1.09
18995,52.002,-2.077599,73,1.31,9.0,301.6,,17 / 24,1899545,2019-08-16 12:01:03:914,0.0876,-0.0185,9.91,0.0048,0.005,9.8066,-0.0085,0.0069,0.0063,16.68,24.77,2.89,305.49,4.66,1.09
18996,52.002,-2.077599,73,1.31,9.0,301.6,,17 / 24,1899646,2019-08-16 12:01:04:015,-0.0528,0.0416,9.629,0.004,0.0025,9.8066,0.0096,0.0037,-0.0011,17.12,24.48,2.8,305.49,4.66,1.06
18997,52.002,-2.077599,73,1.31,9.0,301.6,,17 / 24,1899745,2019-08-16 12:01:04:114,-0.0689,-0.1858,9.9056,-0.0039,-0.004,9.8066,-0.0171,0.0176,0.0095,17.12,24.48,2.8,305.49,4.66,1.06
18998,52.002,-2.077599,73,1.31,9.0,301.6,,17 / 24,1899846,2019-08-16 12:01:04:215,0.055,-0.1334,9.6717,0.0033,0.005,9.8067,-0.0309,0.0027,0.0117,17.63,24.11,2.8,307.03,4.65,1.1
18999,52.002,-2.077599,73,1.31,9.0,301.6,,17 / 24,1899945,2019-08-16 12:01:04:314,0.014,-0.0284,9.8197,0.0044,0.0106,9.8066,0.0085,-0.0176,0.0031,17.09,24.44,3.27,305.5,4.69,1.04
19000,52.002,-2.077599,73,1.31,9.0,301.6,,17 / 24,1900046,2019-08-16 12:01:04:415,-0.0939,0.0739,9.9362,0.0083,-0.0009,9.8066,0.0138,0.0112,0.0063,16.91,24.47,3.91,305.5,4.69,1.04
19001,52.002,-2.077599,73,1.31,9.0,301.6,,17 / 24,1900146,2019-08-16 12:01:04:515,0.0809,-0.0497,9.8947,0.0055,-0.006,9.8066,0.0138,0.0112,0.0063,16.91,24.47,3.91,305.5,4.69,1.04
19002,52.002007,-2.077617,72,1.24,9.0,301.6,,17 / 24,1900245,2019-08-16 12:01:04:614,0.0531,0.2199,9.6973,-0.0007,0.0007,9.8067,-0.0117,0.0261,0.0095,16.76,24.65,3.39,304.4,4.64,1.03
19003,52.002007,-2.077617,72,1.24,9.0,301.6,,17 / 24,1900345,2019-08-16 12:01:04:714,-0.0175,0.0221,9.7763,-0.0027,0.007,9.8066,-0.0011,0.0122,0.0106,16.87,24.63,2.92,304.4,4.68,1.02
19004,52.002007,-2.077617,72,1.24,9.0,301.6,,17 / 24,1900445,2019-08-16 12:01:04:814,0.0985,0.0009,9.4741,0.0008,0.0051,9.8066,-0.0139,0.0027,0.0085,16.64,24.8,2.88,304.4,4.7,1.0
19005,52.002007,-2.077617,72,1.24,9.0,301.6,,17 / 24,1900545,2019-08-16 12:01:04:914,0.0732,-0.1746,9.853,0.0029,0.0021,9.8066,-0.0085,-0.0197,0.0117,16.64,24.8,2.88,304.4,4.7,1.0
19006,52.002007,-2.077617,72,1.24,9.0,301.6,,17 / 24,1900646,2019-08-16 12:01:05:015,-0.0453,-0.1387,9.9417,0.0039,-0.0015,9.8066,0.0021,0.0058,0.0063,16.9,24.68,2.34,304.3,4.7,0.98
19007,52.002007,-2.077617,72,1.24,9.0,301.6,,17 / 24,1900745,2019-08-16 12:01:05:114,-0.0087,-0.2505,9.7357,0.0077,-0.005,9.8066,0.0192,0.0133,0.001,17.02,24.54,2.86,304.3,4.7,0.98
19008,52.002007,-2.077617,72,1.24,9.0,301.6,,17 / 24,1900845,2019-08-16 12:01:05:214,0.0094,-0.1386,9.8573,0.0039,-0.0079,9.8066,-0.0064,0.0144,0.0063,16.61,24.74,3.45,304.4,4.65,0.99
19009,52.002007,-2.077617,72,1.24,9.0,301.6,,17 / 24,1900945,2019-08-16 12:01:05:314,-0.066,-0.068,9.8769,0.0048,0.0004,9.8066,-0.0064,0.0144,0.0063,16.61,24.74,3.45,304.4,4.65,0.99
19010,52.002007,-2.077617,72,1.24,9.0,301.6,,17 / 24,1901046,2019-08-16 12:01:05:415,0.131,-0.076,10.007,0.0081,0.0032,9.8066,-0.0085,0.009,0.0095,16.79,24.7,2.82,304.4,4.65,0.99
19011,52.002007,-2.077617,72,1.24,9.0,301.6,,17 / 24,1901146,2019-08-16 12:01:05:515,-0.0592,-0.0602,9.8481,0.0124,0.0016,9.8066,-0.0053,0.0101,0.0117,16.83,24.53,3.86,304.52,4.62,0.92
19012,52.002014,-2.077636,71,1.48,9.0,301.8,,17 / 24,1901245,2019-08-16 12:01:05:614,0.1205,-0.0929,9.8271,0.0012,-0.0024,9.8067,-0.0032,-0.0112,0.0021,16.95,24.52,3.42,304.41,4.6,0.92
19013,52.002014,-2.077636,71,1.48,9.0,301.8,,17 / 24,1901345,2019-08-16 12:01:05:714,0.056,-0.0511,9.9438,-0.001,0.0051,9.8066,-0.0064,0.0005,0.0095,16.95,24.52,3.42,304.41,4.6,0.92
19014,52.002014,-2.077636,71,1.48,9.0,301.8,,17 / 24,1901445,2019-08-16 12:01:05:814,-0.0792,-0.0478,9.8769,0.0032,-0.0026,9.8067,0.0128,-0.008,0.0053,16.68,24.54,4.42,304.52,4.64,0.89
19015,52.002014,-2.077636,71,1.48,9.0,301.8,,17 / 24,1901545,2019-08-16 12:01:05:914,0.083,-0.0077,9.7982,0.0021,0.0033,9.8066,0.0021,0.0122,0.0085,16.73,24.6,3.86,304.52,4.62,0.88
19016,52.002014,-2.077636,71,1.48,9.0,301.8,,17 / 24,1901645,2019-08-16 12:01:06:014,0.0064,-0.0235,9.8725,0.0022,0.0005,9.8067,0.017,0.0016,0.0063,17.54,24.17,2.87,307.06,4.63,0.86
19017,52.002014,-2.077636,71,1.48,9.0,301.8,,17 / 24,1901745,2019-08-16 12:01:06:114,0.175,-0.0504,9.8355,0.004,0.0021,9.8066,0.017,0.0016,0.0063,17.54,24.17,2.87,307.06,4.63,0.86
19018,52.002014,-2.077636,71,1.48,9.0,301.8,,17 / 24,1901846,2019-08-16 12:01:06:215,0.1595,-0.0918,9.542,0.0023,-0.0006,9.8067,-0.0032,0.0165,0.0106,16.39,24.82,3.9,302.95,4.62,0.83
19019,52.002014,-2.077636,71,1.48,9.0,301.8,,17 / 24,1901945,2019-08-16 12:01:06:314,-0.2832,-0.0741,9.997,-0.0022,0.0018,9.8066,-0.0277,0.0218,0.0138,16.13,25.07,3.36,302.84,4.61,0.82
19020,52.002014,-2.077636,71,1.48,9.0,301.8,,17 / 24,1902045,2019-08-16 12:01:06:414,-0.0171,-0.0281,9.5299,-0.0017,0.0022,9.8066,0.0138,0.0048,0.0031,17.09,24.44,3.27,305.52,4.63,0.83
19021,52.002014,-2.077636,71,1.48,9.0,301.8,,17 / 24,1902146,2019-08-16 12:01:06:515,-0.1398,-0.0779,10.092,0.0023,-0.0001,9.8067,0.0085,0.0005,0.0053,17.09,24.44,3.27,305.52,4.63,0.83
19022,52.002026,-2.077653,71,1.36,9.0,301.6,,17 / 24,1902245,2019-08-16 12:01:06:614,0.0654,-0.0042,9.8519,0.0057,0.0028,9.8066,-0.0181,-0.0037,0.0149,16.73,24.61,3.78,304.53,4.62,0.79
19023,52.002026,-2.077653,71,1.36,9.0,301.6,,17 / 24,1902345,2019-08-16 12:01:06:714,0.2014,0.1666,9.7984,0.0013,0.0098,9.8066,0.0106,-0.0123,0.0063,17.06,24.39,3.75,304.53,4.62,0.79
19024,52.002026,-2.077653,71,1.36,9.0,301.6,,17 / 24,1902445,2019-08-16 12:01:06:814,0.2147,0.0889,9.8255,0.0086,0.0165,9.8066,0.0064,0.0229,0.0138,17.1,24.45,3.12,305.53,4.67,0.69
19025,52.002026,-2.077653,71,1.36,9.0,301.6,,17 / 24,1902545,2019-08-16 12:01:06:914,0.0613,0.0794,9.636,-0.0015,-0.0064,9.8066,0.0064,0.0229,0.0138,17.1,24.45,3.12,305.53,4.67,0.69
19026,52.002026,-2.077653,71,1.36,9.0,301.6,,17 / 24,1902645,2019-08-16 12:01:07:014,-0.0924,0.0938,9.8426,-0.0054,0.0032,9.8066,-0.0117,0.0101,0.0085,17.07,24.4,3.67,305.64,4.65,0.72
19027,52.002026,-2.077653,71,1.36,9.0,301.6,,17 / 24,1902745,2019-08-16 12:01:07:114,0.0182,0.0017,10.0099,-0.0022,0.0067,9.8066,0.0021,-0.0059,0.0074,17.03,24.56,2.62,304.43,4.68,0.74
19028,52.002026,-2.077653,71,1.36,9.0,301.6,,17 / 24,1902845,2019-08-16 12:01:07:214,0.1616,-0.0565,9.8486,0.0084,0.0093,9.8066,-0.0117,0.0208,0.0085,16.97,24.47,3.67,304.43,4.68,0.74
19029,52.002026,-2.077653,71,1.36,9.0,301.6,,17 / 24,1902945,2019-08-16 12:01:07:314,-0.051,0.028,9.9824,0.0165,0.0127,9.8066,-0.0149,0.0016,0.0063,16.97,24.47,3.67,304.43,4.68,0.74
19030,52.002026,-2.077653,71,1.36,9.0,301.6,,17 / 24,1903046,2019-08-16 12:01:07:415,-0.0277,-0.0643,10.1338,0.0009,0.0039,9.8067,0.0234,-0.0197,0.0085,16.7,24.57,4.18,304.56,4.69,0.61
19031,52.002026,-2.077653,71,1.36,9.0,301.6,,17 / 24,1903145,2019-08-16 12:01:07:514,0.1963,-0.1535,9.6027,0.0045,0.007,9.8066,-0.0107,-0.0091,0.0106,17.04,24.36,4.07,304.56,4.69,0.61
19032,52.00203,-2.077671,71,1.64,9.0,300.9,,17 / 24,1903246,2019-08-16 12:01:07:615,-0.1982,-0.1002,9.6389,0.006,0.011,9.8066,-0.0107,0.0218,0.0117,16.4,24.85,3.66,302.99,4.72,0.55
19033,52.00203,-2.077671,71,1.64,9.0,300.9,,17 / 24,1903345,2019-08-16 12:01:07:714,-0.0613,-0.1952,9.7486,0.0014,-0.0026,9.8067,-0.0107,0.0218,0.0117,16.97,24.47,3.59,302.99,4.72,0.55
19034,52.00203,-2.077671,71,1.64,9.0,300.9,,17 / 24,1903446,2019-08-16 12:01:07:815,0.1238,-0.1903,9.4612,0.0024,0.0018,9.8066,0.0224,0.009,0.0042,16.75,24.64,3.55,304.57,4.7,0.56
19035,52.00203,-2.077671,71,1.64,9.0,300.9,,17 / 24,1903546,2019-08-16 12:01:07:915,-0.1402,-0.2023,9.6203,-0.0003,-0.0001,9.8067,0.0053,-0.008,0.0085,16.75,24.64,3.55,304.57,4.7,0.56
19036,52.00203,-2.077671,71,1.64,9.0,300.9,,17 / 24,1903646,2019-08-16 12:01:08:015,0.148,-0.3007,9.5954,0.008,-0.0002,9.8066,-0.0053,0.0293,0.0117,16.75,24.64,3.47,304.45,4.7,0.56
19037,52.00203,-2.077671,71,1.64,9.0,300.9,,17 / 24,1903745,2019-08-16 12:01:08:114,-0.047,-0.1845,9.6995,0.008,0.002,9.8066,0.0106,0.0048,0.0021,17.08,24.34,4.0,305.67,4.68,0.52
19038,52.00203,-2.077671,71,1.64,9.0,300.9,,17 / 24,1903845,2019-08-16 12:01:08:214,0.0561,-0.2385,9.9182,0.0003,-0.0007,9.8067,0.0117,-0.0038,0.0053,17.08,24.34,4.0,305.67,4.68,0.52
19039,52.00203,-2.077671,71,1.64,9.0,300.9,,17 / 24,1903945,2019-08-16 12:01:08:314,0.0927,-0.1062,9.6935,-0.0014,0.0006,9.8067,-0.0245,0.0037,0.0063,16.87,24.51,3.87,304.57,4.68,0.52
19040,52.00203,-2.077671,71,1.64,9.0,300.9,,17 / 24,1904045,2019-08-16 12:01:08:414,-0.2545,-0.0658,9.9018,-0.0073,0.0015,9.8066,-0.0245,0.0037,0.0063,17.41,24.12,3.88,304.57,4.68,0.52
19041,52.00203,-2.077671,71,1.64,9.0,300.9,,17 / 24,1904145,2019-08-16 12:01:08:514,0.1682,-0.0457,9.836,0.0037,0.0019,9.8067,-0.0053,0.0133,0.0042,17.09,24.35,3.92,305.67,4.67,0.49
19042,52.002037,-2.077692,72,1.66,9.0,299.8,,17 / 24,1904245,2019-08-16 12:01:08:614,-0.018,0.0326,9.7746,0.0051,0.001,9.8066,-0.0053,0.0133,0.0063,16.99,24.41,3.92,305.68,4.66,0.46
19043,52.002037,-2.077692,72,1.66,9.0,299.8,,17 / 24,1904345,2019-08-16 12:01:08:714,0.002,-0.1226,9.9769,0.0023,-0.0024,9.8067,-0.0043,-0.0059,0.0106,16.99,24.41,3.92,305.68,4.66,0.46
19044,52.002037,-2.077692,72,1.66,9.0,299.8,,17 / 24,1904445,2019-08-16 12:01:08:814,-0.2226,-0.0141,9.9408,0.0049,-0.0035,9.8066,0.0117,0.0026,0.0042,17.02,24.46,3.44,305.56,4.63,0.45
19045,52.002037,-2.077692,72,1.66,9.0,299.8,,17 / 24,1904545,2019-08-16 12:01:08:914,-0.0734,-0.0704,9.8783,0.0055,0.0021,9.8066,-0.0011,0.0058,0.0074,16.4,24.89,3.41,302.88,4.62,0.46
19046,52.002037,-2.077692,72,1.66,9.0,299.8,,17 / 24,1904645,2019-08-16 12:01:09:014,0.0278,-0.0187,9.7318,0.0075,0.0067,9.8066,-0.016,0.009,0.0042,16.5,24.91,2.69,302.88,4.62,0.46
19047,52.002037,-2.077692,72,1.66,9.0,299.8,,17 / 24,1904745,2019-08-16 12:01:09:114,0.0213,0.1056,9.835,0.0182,0.0083,9.8066,0.0011,0.0058,0.0095,16.5,24.91,2.69,302.88,4.62,0.46
19048,52.002037,-2.077692,72,1.66,9.0,299.8,,17 / 24,1904845,2019-08-16 12:01:09:214,0.1225,0.0823,10.0692,0.0004,0.0022,9.8067,0.017,0.0026,0.0021,16.21,24.96,3.78,303.01,4.6,0.34
19049,52.002037,-2.077692,72,1.66,9.0,299.8,,17 / 24,1904946,2019-08-16 12:01:09:315,0.1477,0.1765,9.761,0.001,0.0023,9.8066,0.017,0.0026,0.0021,16.21,24.96,3.78,303.01,4.6,0.34
19050,52.002037,-2.077692,72,1.66,9.0,299.8,,17 / 24,1905045,2019-08-16 12:01:09:414,0.1108,0.0881,9.9025,-0.0006,-0.0037,9.8067,-0.0128,0.0122,0.0117,16.7,24.71,3.22,304.47,4.61,0.33
19051,52.002037,-2.077692,72,1.66,9.0,299.8,,17 / 24,1905145,2019-08-16 12:01:09:514,0.1549,-0.012,9.9869,-0.0049,-0.0065,9.8066,0.0138,0.0026,0.0063,16.96,24.6,2.68,304.47,4.59,0.37
19052,52.00204,-2.077714,72,1.6,9.0,298.9,,17 / 24,1905245,2019-08-16 12:01:09:614,0.1368,0.0773,10.0002,0.0025,-0.0005,9.8066,0.0042,0.0207,0.0031,17.33,24.4,2.16,304.47,4.59,0.37
19053,52.00204,-2.077714,72,1.6,9.0,298.9,,17 / 24,1905345,2019-08-16 12:01:09:714,0.1406,0.0261,9.6637,0.0075,0.0018,9.8066,-0.0277,0.0111,0.0085,16.99,24.64,2.1,304.35,4.58,0.33
19054,52.00204,-2.077714,72,1.6,9.0,298.9,,17 / 24,1905445,2019-08-16 12:01:09:814,-0.1462,-0.1302,10.0214,0.0034,0.0013,9.8067,0.016,-0.0006,-0.0011,16.99,24.64,2.1,304.35,4.58,0.33
19055,52.00204,-2.077714,72,1.6,9.0,298.9,,17 / 24,1905545,2019-08-16 12:01:09:914,0.0794,0.0875,9.8069,-0.0006,-0.0036,9.8066,0.0074,0.0069,0.0074,17.22,24.46,2.21,305.45,4.57,0.29
19056,52.00204,-2.077714,72,1.6,9.0,298.9,,17 / 24,1905645,2019-08-16 12:01:10:014,-0.1022,0.121,9.9798,-0.0064,-0.0036,9.8066,-0.0139,0.0026,0.0138,16.5,24.92,2.61,305.45,4.57,0.29
19057,52.00204,-2.077714,72,1.6,9.0,298.9,,17 / 24,1905745,2019-08-16 12:01:10:114,-0.0323,0.1651,9.8295,0.0015,0.0026,9.8067,-0.0139,0.0026,0.0138,16.66,24.66,3.8,304.59,4.57,0.33
19058,52.00204,-2.077714,72,1.6,9.0,298.9,,17 / 24,1905845,2019-08-16 12:01:10:214,-0.1273,0.1489,9.8867,0.0039,0.0085,9.8066,-0.0139,-0.0059,0.0074,16.7,24.71,3.22,304.47,4.6,0.28
19059,52.00204,-2.077714,72,1.6,9.0,298.9,,17 / 24,1905946,2019-08-16 12:01:10:315,-0.1836,-0.0584,9.8978,-0.0007,0.004,9.8066,-0.0053,0.0015,0.0053,16.7,24.71,3.22,304.47,4.6,0.28
19060,52.00204,-2.077714,72,1.6,9.0,298.9,,17 / 24,1906045,2019-08-16 12:01:10:414,0.2143,-0.2094,9.8783,0.0032,0.0012,9.8067,-0.0021,-0.0102,0.001,16.44,24.82,3.75,303.02,4.62,0.27
19061,52.00204,-2.077714,72,1.6,9.0,298.9,,17 / 24,1906146,2019-08-16 12:01:10:515,0.01,-0.0812,9.7465,0.0012,0.005,9.8066,-0.0021,0.0143,0.0117,16.89,24.49,3.85,305.7,4.64,0.25
19062,52.002045,-2.077736,72,1.62,9.0,297.8,,17 / 24,1906246,2019-08-16 12:01:10:615,-0.0582,-0.0751,9.833,0.0006,0.0018,9.8066,0.0064,0.0207,0.001,16.89,24.49,3.85,305.7,4.64,0.25
19063,52.002045,-2.077736,72,1.62,9.0,297.8,,17 / 24,1906346,2019-08-16 12:01:10:715,0.0636,-0.0972,9.6348,-0.0006,0.0003,9.8067,-0.0075,-0.0155,0.0063,16.5,24.92,2.61,304.48,4.64,0.25
19064,52.002045,-2.077736,72,1.62,9.0,297.8,,17 / 24,1906445,2019-08-16 12:01:10:814,-0.0741,0.005,9.7085,0.0018,0.0035,9.8066,-0.0171,-0.007,0.0106,16.73,24.76,2.65,304.48,4.64,0.25
19065,52.002045,-2.077736,72,1.62,9.0,297.8,,17 / 24,1906545,2019-08-16 12:01:10:914,0.1465,-0.1728,9.5031,0.0146,0.0057,9.8066,0.0266,0.0196,-0.0022,16.73,24.76,2.65,304.48,4.64,0.25
19066,52.002045,-2.077736,72,1.62,9.0,297.8,,17 / 24,1906645,2019-08-16 12:01:11:014,-0.199,-0.0807,9.8744,-0.006,-0.0045,9.8066,0.0266,0.0196,-0.0022,16.73,24.76,2.65,304.49,4.62,0.17
19067,52.002045,-2.077736,72,1.62,9.0,297.8,,17 / 24,1906746,2019-08-16 12:01:11:115,0.0722,0.2128,9.8646,0.0005,0.0021,9.8067,-0.0096,-0.0166,0.0159,17.1,24.57,2.05,304.36,4.62,0.21
19068,52.002045,-2.077736,72,1.62,9.0,297.8,,17 / 24,1906846,2019-08-16 12:01:11:215,-0.1903,-0.0475,10.0922,0.0002,-0.0013,9.8067,0.0106,0.0015,0.001,17.1,24.57,2.05,304.36,4.62,0.21
19069,52.002045,-2.077736,72,1.62,9.0,297.8,,17 / 24,1906945,2019-08-16 12:01:11:314,0.062,-0.1487,10.0421,0.0033,0.0038,9.8066,0.0042,0.0015,0.0021,16.5,24.92,2.61,304.48,4.61,0.21
19070,52.002045,-2.077736,72,1.62,9.0,297.8,,17 / 24,1907046,2019-08-16 12:01:11:415,-0.0886,-0.0226,9.9675,0.0076,0.0077,9.8066,0.0011,0.0228,0.0042,17.07,24.52,2.7,304.49,4.62,0.18
19071,52.002045,-2.077736,72,1.62,9.0,297.8,,17 / 24,1907146,2019-08-16 12:01:11:515,0.1355,0.0294,9.7756,0.0132,0.0135,9.8066,-0.0011,0.0079,0.0074,17.0,24.43,3.76,305.73,4.64,0.08
19072,52.00205,-2.077757,72,1.54,9.0,297.8,,17 / 24,1907245,2019-08-16 12:01:11:614,-0.1942,-0.0026,10.0722,-0.0033,-0.0016,9.8067,0.0181,0.0047,-0.0033,17.0,24.43,3.76,305.73,4.64,0.08
19073,52.00205,-2.077757,72,1.54,9.0,297.8,,17 / 24,1907345,2019-08-16 12:01:11:714,-0.1031,0.0326,10.0635,0.0001,-0.0027,9.8066,0.0074,-0.0027,0.0117,16.43,24.95,2.75,302.92,4.65,0.1
19074,52.00205,-2.077757,72,1.54,9.0,297.8,,17 / 24,1907446,2019-08-16 12:01:11:815,0.0799,0.0843,9.8797,0.0005,-0.001,9.8066,-0.0139,0.0047,0.0106,17.3,24.36,2.74,305.6,4.64,0.1
19075,52.00205,-2.077757,72,1.54,9.0,297.8,,17 / 24,1907545,2019-08-16 12:01:11:914,0.1166,0.1752,9.7746,0.0176,0.0093,9.8066,-0.0053,0.0047,0.0074,17.3,24.36,2.74,305.6,4.64,0.1
19076,52.00205,-2.077757,72,1.54,9.0,297.8,,17 / 24,1907645,2019-08-16 12:01:12:014,0.0171,0.0236,9.8398,0.0037,0.002,9.8067,-0.0053,0.0047,0.0074,16.81,24.65,3.15,304.51,4.62,-0.02
19077,52.00205,-2.077757,72,1.54,9.0,297.8,,17 / 24,1907745,2019-08-16 12:01:12:114,0.0815,-0.149,9.7046,0.0065,0.0007,9.8066,0.0021,0.0122,0.0053,16.99,24.42,3.84,305.74,4.61,-0.05
19078,52.00205,-2.077757,72,1.54,9.0,297.8,,17 / 24,1907845,2019-08-16 12:01:12:214,0.065,0.0595,9.5042,0.0006,-0.0036,9.8067,-0.0053,0.0079,0.0159,16.99,24.42,3.84,305.74,4.61,-0.05
19079,52.00205,-2.077757,72,1.54,9.0,297.8,,17 / 24,1907945,2019-08-16 12:01:12:314,-0.046,0.0761,9.82,-0.0023,0.0039,9.8066,-0.0064,0.01,0.0127,16.77,24.59,3.79,304.64,4.59,-0.04
19080,52.00205,-2.077757,72,1.54,9.0,297.8,,17 / 24,1908045,2019-08-16 12:01:12:414,-0.0002,0.151,9.651,-0.0026,0.0073,9.8066,0.0138,-0.0198,-0.0086,16.68,24.45,4.9,305.87,4.61,-0.04
19081,52.00205,-2.077757,72,1.54,9.0,297.8,,17 / 24,1908146,2019-08-16 12:01:12:515,0.0577,0.1428,9.7067,-0.0015,0.0088,9.8066,-0.0245,0.0079,0.0117,16.31,24.15,7.13,304.55,4.66,-0.07
19082,52.002056,-2.07778,72,1.63,9.0,297.3,,17 / 24,1908245,2019-08-16 12:01:12:614,-0.0111,-0.1015,9.9966,-0.0001,0.0014,9.8067,-0.0096,0.0143,0.0117,16.31,24.15,7.13,304.55,4.66,-0.07
19083,52.002056,-2.07778,72,1.63,9.0,297.3,,17 / 24,1908346,2019-08-16 12:01:12:715,-0.0847,-0.0584,9.8267,0.0061,0.0033,9.8066,0.0128,0.0058,0.0063,15.61,24.59,7.18,303.47,4.66,-0.11
19084,52.002056,-2.07778,72,1.63,9.0,297.3,,17 / 24,1908445,2019-08-16 12:01:12:814,-0.0942,-0.2458,9.9276,-0.0009,-0.0081,9.8066,0.0128,0.0058,0.0063,15.61,24.59,7.18,303.47,4.66,-0.11
19085,52.002056,-2.07778,72,1.63,9.0,297.3,,17 / 24,1908545,2019-08-16 12:01:12:914,0.0033,-0.0951,9.7999,0.0036,-0.011,9.8066,0.0021,0.0164,0.0074,17.18,23.53,7.18,306.13,4.62,-0.08
19086,52.002056,-2.07778,72,1.63,9.0,297.3,,17 / 24,1908645,2019-08-16 12:01:13:014,-0.0169,-0.1372,9.6283,-0.0071,-0.0059,9.8066,0.0138,-0.0155,0.0053,17.15,23.93,5.79,305.99,4.56,-0.06
19087,52.002056,-2.07778,72,1.63,9.0,297.3,,17 / 24,1908745,2019-08-16 12:01:13:114,-0.1946,-0.2424,9.8183,0.0005,0.0042,9.8066,0.0,0.0196,-0.0065,17.11,24.3,4.07,305.73,4.55,0.0
19088,52.002056,-2.07778,72,1.63,9.0,297.3,,17 / 24,1908846,2019-08-16 12:01:13:215,0.1033,-0.1779,9.9337,0.0111,0.0223,9.8066,-0.0213,-0.0006,0.0031,17.29,24.35,2.82,305.73,4.55,0.0
19089,52.002056,-2.07778,72,1.63,9.0,297.3,,17 / 24,1908945,2019-08-16 12:01:13:314,0.2173,0.5274,9.723,0.0224,0.0348,9.8066,-0.0107,-0.0059,-0.0033,17.29,24.35,2.82,305.73,4.55,0.0
19090,52.002056,-2.07778,72,1.63,9.0,297.3,,17 / 24,1909045,2019-08-16 12:01:13:414,0.0704,0.248,9.6673,0.0042,-0.0024,9.8067,0.0138,0.0228,-0.0065,16.43,24.94,2.83,302.95,4.64,-0.23
19091,52.002056,-2.07778,72,1.63,9.0,297.3,,17 / 24,1909145,2019-08-16 12:01:13:514,-0.0851,0.0368,9.702,-0.0071,0.0034,9.8066,0.0138,0.0228,-0.0065,16.98,24.62,2.35,302.95,4.64,-0.23
19092,52.00206,-2.077804,72,1.67,9.0,297.6,,17 / 24,1909245,2019-08-16 12:01:13:614,-0.0856,-0.0538,9.853,-0.0129,0.0094,9.8066,-0.0085,-0.0091,0.0117,16.72,24.74,2.89,304.53,4.73,-0.19
19093,52.00206,-2.077804,72,1.67,9.0,297.6,,17 / 24,1909346,2019-08-16 12:01:13:715,0.0737,0.15,9.7835,0.0026,-0.0064,9.8066,0.0011,0.0026,0.0159,16.72,24.74,2.89,304.53,4.73,-0.19
19094,52.00206,-2.077804,72,1.67,9.0,297.6,,17 / 24,1909446,2019-08-16 12:01:13:815,-0.0368,-0.0332,10.0543,0.0067,0.0082,9.8066,0.0128,-0.0038,-0.0064,16.72,24.74,2.89,304.53,4.73,-0.19
19095,52.00206,-2.077804,72,1.67,9.0,297.6,,17 / 24,1909546,2019-08-16 12:01:13:915,-0.0928,-0.0215,9.8068,-0.0005,0.0,9.8067,-0.016,-0.0155,0.001,17.11,24.38,3.56,305.78,4.74,-0.25
19096,52.00206,-2.077804,72,1.67,9.0,297.6,,17 / 24,1909645,2019-08-16 12:01:14:014,0.0034,0.1986,9.8722,-0.003,-0.001,9.8067,-0.0021,0.0047,0.0127,16.62,24.72,3.55,304.67,4.75,-0.25
19097,52.00206,-2.077804,72,1.67,9.0,297.6,,17 / 24,1909745,2019-08-16 12:01:14:114,-0.0217,-0.3899,9.3342,0.002,0.0107,9.8066,0.001,0.01,-0.0011,16.39,24.88,3.5,302.97,4.79,-0.3
19098,52.00206,-2.077804,72,1.67,9.0,297.6,,17 / 24,1909846,2019-08-16 12:01:14:215,0.0346,0.1353,9.8806,-0.0022,-0.0038,9.8066,-0.0171,-0.0049,0.001,16.39,24.88,3.5,302.97,4.79,-0.3
19099,52.00206,-2.077804,72,1.67,9.0,297.6,,17 / 24,1909945,2019-08-16 12:01:14:314,-0.0861,0.131,10.0075,-0.0005,-0.0053,9.8066,-0.0011,0.0058,-0.0022,16.79,24.62,3.47,304.54,4.77,-0.28
19100,52.00206,-2.077804,72,1.67,9.0,297.6,,17 / 24,1910045,2019-08-16 12:01:14:414,-0.1803,-0.1979,10.1277,0.0056,-0.0008,9.8067,-0.0011,0.0058,-0.0022,16.64,24.71,3.54,304.68,4.74,-0.3
19101,52.00206,-2.077804,72,1.67,9.0,297.6,,17 / 24,1910146,2019-08-16 12:01:14:515,-0.0051,0.1251,9.966,-0.0021,0.0014,9.8067,0.0032,0.0015,0.001,16.64,24.71,3.54,304.68,4.74,-0.3
19102,52.002064,-2.077825,74,1.54,9.0,297.2,,17 / 24,1910245,2019-08-16 12:01:14:614,0.0558,0.009,9.7661,-0.0004,0.0044,9.8067,-0.0085,0.0068,0.0053,17.04,24.57,2.37,304.42,4.72,-0.36
19103,52.002064,-2.077825,74,1.54,9.0,297.2,,17 / 24,1910345,2019-08-16 12:01:14:714,-0.086,-0.0092,9.9089,-0.0047,0.0077,9.8066,-0.0043,-0.0155,0.0127,16.58,24.74,3.62,304.42,4.72,-0.36
19104,52.002064,-2.077825,74,1.54,9.0,297.2,,17 / 24,1910445,2019-08-16 12:01:14:814,-0.1298,-0.1503,9.8079,-0.0092,-0.0002,9.8066,0.0128,0.0313,0.0042,16.58,24.74,3.62,304.42,4.72,-0.36
19105,52.002064,-2.077825,74,1.54,9.0,297.2,,17 / 24,1910546,2019-08-16 12:01:14:915,0.0318,0.4117,10.245,0.001,0.0015,9.8067,-0.0139,-0.0006,0.0106,15.77,25.34,3.08,302.97,4.75,-0.31
19106,52.002064,-2.077825,74,1.54,9.0,297.2,,17 / 24,1910645,2019-08-16 12:01:15:014,0.0678,-0.2248,9.644,0.0069,0.0085,9.8066,-0.0032,0.009,0.0063,17.36,24.27,3.1,305.66,4.77,-0.38
19107,52.002064,-2.077825,74,1.54,9.0,297.2,,17 / 24,1910745,2019-08-16 12:01:15:114,-0.182,-0.1754,9.7912,0.0063,-0.0061,9.8066,-0.0032,0.009,0.0063,17.1,24.39,3.55,305.66,4.77,-0.38
19108,52.002064,-2.077825,74,1.54,9.0,297.2,,17 / 24,1910846,2019-08-16 12:01:15:215,0.1189,0.3414,10.1617,-0.0006,-0.0069,9.8066,0.0213,0.0111,0.0149,17.1,24.39,3.55,305.66,4.77,-0.38
19109,52.002064,-2.077825,74,1.54,9.0,297.2,,17 / 24,1910945,2019-08-16 12:01:15:314,0.0408,0.0738,9.7833,-0.0012,0.0072,9.8066,-0.0096,0.0047,0.0085,16.46,24.82,3.62,303.11,4.74,-0.35
19110,52.002064,-2.077825,74,1.54,9.0,297.2,,17 / 24,1911045,2019-08-16 12:01:15:414,0.0072,-0.2235,9.549,0.0032,0.0045,9.8066,-0.0021,0.0079,0.0138,16.56,24.83,3.05,303.11,4.74,-0.35
19111,52.002064,-2.077825,74,1.54,9.0,297.2,,17 / 24,1911145,2019-08-16 12:01:15:514,-0.0685,0.2846,10.1581,0.0043,0.0025,9.8066,-0.0181,0.0036,0.0063,16.52,24.78,3.62,304.69,4.74,-0.38
19112,52.00207,-2.077847,74,1.55,9.0,296.8,,17 / 24,1911246,2019-08-16 12:01:15:615,-0.0396,-0.0089,9.8885,0.0007,0.0088,9.8066,-0.0011,-0.0049,0.0063,17.2,24.54,1.39,304.29,4.74,-0.41
19113,52.00207,-2.077847,74,1.55,9.0,296.8,,17 / 24,1911345,2019-08-16 12:01:15:714,0.1166,-0.0367,9.7057,-0.0015,0.0078,9.8066,-0.0011,-0.007,0.0085,17.2,24.54,1.39,304.29,4.74,-0.41
19114,52.00207,-2.077847,74,1.55,9.0,296.8,,17 / 24,1911445,2019-08-16 12:01:15:814,0.0287,-0.1923,10.0065,-0.0009,0.0015,9.8067,0.0053,-0.0166,-0.0001,16.79,24.67,3.09,304.56,4.78,-0.43
19115,52.00207,-2.077847,74,1.55,9.0,296.8,,17 / 24,1911545,2019-08-16 12:01:15:914,0.1294,-0.0346,9.6924,0.0075,0.0045,9.8066,0.0011,0.0122,0.0042,17.13,24.44,3.06,305.67,4.78,-0.48
19116,52.00207,-2.077847,74,1.55,9.0,296.8,,17 / 24,1911645,2019-08-16 12:01:16:014,-0.1598,-0.0109,9.9735,-0.001,-0.0014,9.8067,-0.016,-0.0006,0.0106,17.13,24.44,3.06,305.67,4.78,-0.48
19117,52.00207,-2.077847,74,1.55,9.0,296.8,,17 / 24,1911745,2019-08-16 12:01:16:114,0.2316,-0.0206,9.7292,0.0031,0.0053,9.8066,-0.016,-0.0006,0.0106,16.75,24.62,3.67,304.71,4.77,-0.47
19118,52.00207,-2.077847,74,1.55,9.0,296.8,,17 / 24,1911845,2019-08-16 12:01:16:214,0.0887,0.0521,9.6791,0.0113,0.0094,9.8066,-0.0032,-0.0059,0.0053,16.75,24.62,3.67,304.71,4.77,-0.47
19119,52.00207,-2.077847,74,1.55,9.0,296.8,,17 / 24,1911945,2019-08-16 12:01:16:314,0.0132,0.089,9.8304,0.0085,0.0036,9.8066,0.0064,-0.0006,-0.0033,16.81,24.71,2.59,304.57,4.76,-0.52
19120,52.00207,-2.077847,74,1.55,9.0,296.8,,17 / 24,1912045,2019-08-16 12:01:16:414,-0.3018,0.1704,10.0267,0.001,-0.0006,9.8067,-0.0139,0.0015,0.0085,17.36,24.26,3.19,304.57,4.76,-0.52
19121,52.00207,-2.077847,74,1.55,9.0,296.8,,17 / 24,1912145,2019-08-16 12:01:16:514,0.2435,0.3293,9.7332,0.0077,0.0065,9.8066,0.0085,0.0058,0.0031,16.37,24.68,4.78,303.29,4.77,-0.58
19122,52.002075,-2.077869,73,1.73,9.0,297.2,,17 / 24,1912245,2019-08-16 12:01:16:614,-0.0148,0.1177,9.9008,0.0009,0.0067,9.8066,0.017,-0.0038,0.0117,16.37,24.68,4.78,303.29,4.77,-0.58
19123,52.002075,-2.077869,73,1.73,9.0,297.2,,17 / 24,1912345,2019-08-16 12:01:16:714,0.055,-0.0606,9.7285,0.0023,0.0006,9.8067,0.001,0.0207,-0.0001,16.45,24.8,3.78,303.15,4.8,-0.61
19124,52.002075,-2.077869,73,1.73,9.0,297.2,,17 / 24,1912445,2019-08-16 12:01:16:814,-0.0981,0.0576,9.9374,-0.002,0.0026,9.8067,0.0032,0.0047,0.0021,16.45,24.8,3.78,303.15,4.8,-0.61
19125,52.002075,-2.077869,73,1.73,9.0,297.2,,17 / 24,1912545,2019-08-16 12:01:16:914,-0.0877,-0.1585,10.0278,0.0022,0.0005,9.8067,0.0032,0.0047,0.0021,16.78,24.66,3.17,304.59,4.82,-0.61
19126,52.002075,-2.077869,73,1.73,9.0,297.2,,17 / 24,1912645,2019-08-16 12:01:17:014,0.0943,0.1404,9.7334,0.0064,0.0045,9.8066,-0.0139,-0.006,0.0085,16.49,24.86,3.2,304.59,4.82,-0.61
19127,52.002075,-2.077869,73,1.73,9.0,297.2,,17 / 24,1912745,2019-08-16 12:01:17:114,-0.1059,0.3359,10.507,0.0082,0.0081,9.8066,-0.0064,0.0324,0.0085,16.49,24.86,3.2,304.59,4.82,-0.61
19128,52.002075,-2.077869,73,1.73,9.0,297.2,,17 / 24,1912845,2019-08-16 12:01:17:214,-0.0966,0.0616,9.7948,-0.0002,-0.0054,9.8066,0.0042,-0.0145,-0.0022,16.74,24.61,3.75,304.74,4.83,-0.67
19129,52.002075,-2.077869,73,1.73,9.0,297.2,,17 / 24,1912945,2019-08-16 12:01:17:314,0.0364,0.011,9.7728,0.0036,-0.0008,9.8066,-0.0128,0.01,0.0085,16.78,24.66,3.17,304.59,4.8,-0.65
19130,52.002075,-2.077869,73,1.73,9.0,297.2,,17 / 24,1913046,2019-08-16 12:01:17:415,0.0862,-0.0519,9.8612,0.0048,-0.0063,9.8066,-0.0011,-0.0102,0.0053,16.7,24.54,4.33,304.59,4.8,-0.65
19131,52.002075,-2.077869,73,1.73,9.0,297.2,,17 / 24,1913145,2019-08-16 12:01:17:514,-0.1722,-0.2904,9.6366,0.0165,-0.0028,9.8066,-0.0032,0.0079,0.0127,16.7,24.54,4.33,304.74,4.74,-0.72
19132,52.002083,-2.077892,74,1.62,10.0,296.7,,17 / 24,1913246,2019-08-16 12:01:17:615,-0.0484,-0.0004,9.8268,0.006,0.0034,9.8066,-0.0032,0.0079,0.0127,17.27,24.14,4.35,305.85,4.73,-0.77
19133,52.002083,-2.077892,74,1.62,10.0,296.7,,17 / 24,1913346,2019-08-16 12:01:17:715,0.0223,0.1218,9.903,-0.0007,0.0068,9.8066,-0.0064,0.0111,0.0042,17.27,24.14,4.35,305.85,4.73,-0.77
19134,52.002083,-2.077892,74,1.62,10.0,296.7,,17 / 24,1913445,2019-08-16 12:01:17:814,-0.1342,0.2066,10.0721,0.004,-0.0044,9.8067,-0.0064,0.0036,0.0085,16.22,24.96,3.73,303.17,4.77,-0.79
19135,52.002083,-2.077892,74,1.62,10.0,296.7,,17 / 24,1913545,2019-08-16 12:01:17:914,0.1884,-0.0209,9.8804,0.0046,-0.0018,9.8067,-0.016,0.0122,0.0053,16.47,24.7,4.35,303.17,4.77,-0.79
19136,52.002083,-2.077892,74,1.62,10.0,296.7,,17 / 24,1913646,2019-08-16 12:01:18:015,0.1126,-0.012,9.6569,0.0074,0.007,9.8066,-0.0064,0.0026,0.0074,16.45,24.8,3.78,303.18,4.78,-0.84
19137,52.002083,-2.077892,74,1.62,10.0,296.7,,17 / 24,1913745,2019-08-16 12:01:18:114,0.0496,0.0687,9.7545,0.006,-0.0001,9.8066,0.0053,-0.006,-0.0022,16.41,24.73,4.37,303.18,4.78,-0.84
19138,52.002083,-2.077892,74,1.62,10.0,296.7,,17 / 24,1913845,2019-08-16 12:01:18:214,0.09,0.0921,9.5261,0.0064,0.0016,9.8066,0.0042,0.0047,0.0031,16.41,24.73,4.37,303.18,4.78,-0.84
19139,52.002083,-2.077892,74,1.62,10.0,296.7,,17 / 24,1913945,2019-08-16 12:01:18:314,0.1438,0.0108,9.7169,0.0095,0.0049,9.8066,-0.0107,0.0036,0.0031,16.42,24.63,4.84,303.34,4.77,-0.91
19140,52.002083,-2.077892,74,1.62,10.0,296.7,,17 / 24,1914045,2019-08-16 12:01:18:414,0.0662,-0.0203,9.574,0.0037,-0.0007,9.8067,-0.0107,0.0036,0.0031,16.74,24.6,3.84,303.34,4.77,-0.91
19141,52.002083,-2.077892,74,1.62,10.0,296.7,,17 / 24,1914145,2019-08-16 12:01:18:514,-0.0827,0.0808,9.7487,0.0102,0.0019,9.8066,-0.0085,-0.0028,0.0031,16.74,24.6,3.84,304.77,4.75,-0.96
19142,52.002087,-2.077913,74,1.7,10.0,296.8,,17 / 24,1914245,2019-08-16 12:01:18:614,-0.0074,-0.0709,9.7695,0.0032,-0.0025,9.8066,0.0106,-0.0038,0.001,16.74,24.6,3.84,304.77,4.75,-0.96
19143,52.002087,-2.077913,74,1.7,10.0,296.8,,17 / 24,1914346,2019-08-16 12:01:18:715,-0.1542,-0.2875,9.9508,-0.0011,-0.0036,9.8066,-0.0043,0.0057,0.001,16.51,24.76,3.78,304.77,4.73,-0.97
19144,52.002087,-2.077913,74,1.7,10.0,296.8,,17 / 24,1914446,2019-08-16 12:01:18:815,0.1366,-0.02,9.7186,0.0046,0.0013,9.8066,-0.0107,0.0153,0.0063,17.08,24.37,3.8,305.87,4.71,-0.95
19145,52.002087,-2.077913,74,1.7,10.0,296.8,,17 / 24,1914545,2019-08-16 12:01:18:914,-0.1995,0.3064,9.987,0.0049,0.0094,9.8066,-0.0011,-0.0241,-0.0033,17.08,24.37,3.8,305.87,4.71,-0.95
19146,52.002087,-2.077913,74,1.7,10.0,296.8,,17 / 24,1914646,2019-08-16 12:01:19:015,0.0857,0.2378,10.0756,-0.0023,0.0076,9.8066,0.0149,-0.0049,0.0063,16.92,24.36,4.47,305.88,4.74,-1.01
19147,52.002087,-2.077913,74,1.7,10.0,296.8,,17 / 24,1914745,2019-08-16 12:01:19:114,0.0672,0.0364,9.5846,0.0025,0.004,9.8066,-0.0085,0.0175,0.0021,16.57,24.86,2.72,304.63,4.75,-1.03
19148,52.002087,-2.077913,74,1.7,10.0,296.8,,17 / 24,1914845,2019-08-16 12:01:19:214,-0.2162,-0.1108,9.8807,-0.0023,-0.0032,9.8067,-0.0011,0.0036,0.0031,16.57,24.86,2.72,304.63,4.75,-1.03
19149,52.002087,-2.077913,74,1.7,10.0,296.8,,17 / 24,1914945,2019-08-16 12:01:19:314,0.1067,-0.1085,9.7813,0.0069,0.0055,9.8066,-0.0011,0.0036,0.0031,16.78,24.77,2.21,304.48,4.74,-1.01
19150,52.002087,-2.077913,74,1.7,10.0,296.8,,17 / 24,1915046,2019-08-16 12:01:19:415,-0.1427,-0.1081,9.5834,0.0095,0.0088,9.8066,-0.0021,-0.0252,0.0106,17.04,24.53,2.79,304.48,4.74,-1.01
19151,52.002087,-2.077913,74,1.7,10.0,296.8,,17 / 24,1915145,2019-08-16 12:01:19:514,0.1033,-0.1115,9.6417,0.0083,-0.0035,9.8066,0.0106,0.0004,0.0074,16.8,24.7,2.75,304.64,4.75,-1.09
19152,52.002094,-2.077935,74,1.45,10.0,296.7,,17 / 22,1915245,2019-08-16 12:01:19:614,-0.0752,0.0363,9.9058,0.0152,-0.0072,9.8066,-0.0128,0.0238,0.0042,16.8,24.7,2.75,304.64,4.67,-1.14
19153,52.002094,-2.077935,74,1.45,10.0,296.7,,17 / 22,1915345,2019-08-16 12:01:19:714,-0.2624,-0.1988,10.067,-0.0041,0.0014,9.8067,-0.0181,0.0079,-0.0033,17.15,24.46,2.73,304.64,4.67,-1.14
19154,52.002094,-2.077935,74,1.45,10.0,296.7,,17 / 22,1915445,2019-08-16 12:01:19:814,-0.0272,0.0032,9.4558,0.0001,0.0077,9.8066,-0.0021,-0.0177,0.0074,17.63,24.11,2.8,307.29,4.71,-1.16
19155,52.002094,-2.077935,74,1.45,10.0,296.7,,17 / 22,1915545,2019-08-16 12:01:19:914,-0.0855,0.3806,10.2886,0.004,0.0031,9.8066,-0.0075,0.0334,0.0074,17.63,24.11,2.8,307.29,4.71,-1.16
19156,52.002094,-2.077935,74,1.45,10.0,296.7,,17 / 22,1915646,2019-08-16 12:01:20:015,0.1094,0.0286,9.4264,0.0015,0.0003,9.8067,-0.0053,0.027,-0.0022,16.57,24.86,2.72,304.65,4.68,-1.19
19157,52.002094,-2.077935,74,1.45,10.0,296.7,,17 / 22,1915746,2019-08-16 12:01:20:115,-0.089,-0.0195,9.9729,0.001,-0.0003,9.8066,-0.0053,0.027,-0.0022,16.57,24.86,2.72,304.65,4.68,-1.19
19158,52.002094,-2.077935,74,1.45,10.0,296.7,,17 / 22,1915845,2019-08-16 12:01:20:214,-0.0914,-0.0912,10.0298,0.0002,0.005,9.8067,0.0,-0.0294,0.0074,16.8,24.7,2.75,304.65,4.67,-1.2
19159,52.002094,-2.077935,74,1.45,10.0,296.7,,17 / 22,1915945,2019-08-16 12:01:20:314,0.0667,-0.1217,9.6337,0.005,0.0019,9.8066,0.0032,0.0238,0.0063,17.04,24.53,2.79,304.65,4.7,-1.22
19160,52.002094,-2.077935,74,1.45,10.0,296.7,,17 / 22,1916047,2019-08-16 12:01:20:416,-0.0004,0.0712,9.9244,-0.0011,-0.0032,9.8066,0.0032,-0.0241,0.0042,16.77,24.65,3.34,304.66,4.69,-1.25
19161,52.002094,-2.077935,74,1.45,10.0,296.7,,17 / 22,1916145,2019-08-16 12:01:20:514,-0.147,-0.1446,9.5796,-0.0041,-0.0097,9.8066,-0.0021,0.0292,0.0031,16.77,24.65,3.34,304.66,4.69,-1.25
19162,52.0021,-2.077954,74,1.3,10.0,296.4,,17 / 24,1916246,2019-08-16 12:01:20:615,-0.2309,0.2535,9.9537,0.002,0.0055,9.8066,-0.0096,0.0175,0.0085,16.8,24.69,2.84,304.65,4.66,-1.19
19163,52.0021,-2.077954,74,1.3,10.0,296.4,,17 / 24,1916345,2019-08-16 12:01:20:714,0.1289,0.2757,10.1274,0.0122,0.0104,9.8066,-0.0043,-0.0316,0.0117,17.31,24.4,2.23,305.61,4.67,-1.29
19164,52.0021,-2.077954,74,1.3,10.0,296.4,,17 / 24,1916446,2019-08-16 12:01:20:815,0.1011,-0.0068,9.4946,0.0036,-0.0007,9.8066,0.0064,-0.006,0.0021,17.31,24.4,2.23,305.61,4.67,-1.29
19165,52.0021,-2.077954,74,1.3,10.0,296.4,,17 / 24,1916545,2019-08-16 12:01:20:914,0.1332,0.0636,9.5067,-0.0009,-0.0014,9.8066,0.0064,-0.006,0.0021,16.77,24.65,3.34,304.66,4.65,-1.3
19166,52.0021,-2.077954,74,1.3,10.0,296.4,,17 / 24,1916645,2019-08-16 12:01:21:014,0.104,0.1683,9.674,-0.0004,0.0083,9.8066,-0.0064,0.0004,0.0042,16.91,24.54,3.45,304.66,4.62,-1.29
19167,52.0021,-2.077954,74,1.3,10.0,296.4,,17 / 24,1916746,2019-08-16 12:01:21:115,0.2242,0.0047,9.7629,0.0058,0.009,9.8066,-0.0043,-0.0102,0.0085,16.91,24.54,3.45,304.66,4.62,-1.29
19168,52.0021,-2.077954,74,1.3,10.0,296.4,,17 / 24,1916845,2019-08-16 12:01:21:214,-0.1893,-0.0273,9.7208,-0.0015,-0.0034,9.8067,0.0106,0.0079,0.0074,17.27,24.42,2.31,305.61,4.64,-1.35
19169,52.0021,-2.077954,74,1.3,10.0,296.4,,17 / 24,1916946,2019-08-16 12:01:21:315,-0.0768,-0.0509,10.1044,-0.0086,-0.0033,9.8066,-0.0053,-0.0017,0.0053,16.87,24.47,4.05,305.61,4.64,-1.35
19170,52.0021,-2.077954,74,1.3,10.0,296.4,,17 / 24,1917046,2019-08-16 12:01:21:415,0.006,-0.0318,9.7165,-0.0157,-0.0025,9.8066,0.0064,0.0004,0.0063,17.01,24.48,3.39,305.76,4.68,-1.27
19171,52.0021,-2.077954,74,1.3,10.0,296.4,,17 / 24,1917146,2019-08-16 12:01:21:515,-0.0782,-0.0631,9.9778,0.0082,-0.0037,9.8066,-0.0043,-0.0156,0.0042,16.86,24.47,4.14,305.91,4.64,-1.3
19172,52.00211,-2.077973,74,1.38,10.0,296.5,,16 / 24,1917246,2019-08-16 12:01:21:615,0.0037,-0.1974,9.5946,0.0033,0.0058,9.8066,-0.0053,0.0196,-0.0001,16.86,24.47,4.14,305.91,4.64,-1.3
