,GPS LATITUDE (degrees), GPS LONGITUDE (degrees), GPS ALTITUDE (m), GPS SPEED (Kmh), GPS ACCURACY (m), GPS ORIENTATION (Â°),GPS SATELLITES IN RANGE, TIME SINCE START (ms), DATE (YYYY-MO-DD HH-MI-SS_SSS), ACCELEROMETER X (m/s²) , ACCELEROMETER Y (m/s²), ACCELEROMETER Z (m/s²), GRAVITY X (m/s²), GRAVITY Y (m/s²), GRAVITY Z (m/s²), GYROSCOPE Yaw (rad/s), GYROSCOPE Pitch (rad/s), GYROSCOPE Roll (rad/s), MAGNETIC FIELD X (Î¼T), MAGNETIC FIELD Y (Î¼T), MAGNETIC FIELD Z (Î¼T), ORIENTATION (Yaw) (Â°), ORIENTATION (Pitch) (Â°), ORIENTATION (Roll ) (Â°)
21260,51.552998,-2.545476,105,9.21,10,244.6,Nov-21,2126024,2019-08-16 13:24:39:804,0.0376,0.4945,9.7671,0.0037,0.0303,9.8066,0.0085,-0.0059,-0.008,-6.88,31.42,9.57,256.85,-3.06,4.35
21261,51.552998,-2.545476,105,9.21,10,244.6,Nov-21,2126123,2019-08-16 13:24:39:903,0.1362,0.372,9.8483,0.0139,0.0679,9.8064,0.0106,0.0176,-0.009,-7.56,31.1,10.01,256.85,-3.06,4.35
21262,51.552998,-2.545476,105,9.21,10,244.6,Nov-21,2126224,2019-08-16 13:24:40:004,0.0698,0.4382,9.8641,0.0368,0.1146,9.8059,0.001,0.0229,0.0048,-7.56,31.1,10.01,256.85,-3.06,4.35
21263,51.552998,-2.545476,105,9.21,10,244.6,Nov-21,2126323,2019-08-16 13:24:40:103,-0.1898,0.2512,9.8473,0.0118,0.036,9.8066,0.001,0.0229,0.0048,-7.19,31.42,10.01,257.0,-2.36,4.3
21264,51.552998,-2.545476,105,9.21,10,244.6,Nov-21,2126423,2019-08-16 13:24:40:203,-0.1226,0.0827,10.1872,0.0235,0.0831,9.8063,0.017,-0.0123,0.0027,-7.56,31.42,10.45,255.4,-1.85,4.27
21265,51.552998,-2.545476,105,9.21,10,244.6,Nov-21,2126524,2019-08-16 13:24:40:304,0.1565,0.25,9.3246,0.0166,0.0346,9.8066,-0.0075,-0.0101,0.0005,-7.25,30.73,10.01,255.4,-1.85,4.27
21266,51.552998,-2.545476,105,9.21,10,244.6,Nov-21,2126623,2019-08-16 13:24:40:403,0.2332,0.276,9.8549,0.035,0.0631,9.8064,-0.0224,-0.0133,-0.0037,-7.25,30.73,10.01,255.4,-1.85,4.27
21267,51.552998,-2.545476,105,9.21,10,244.6,Nov-21,2126723,2019-08-16 13:24:40:503,0.1611,0.2625,9.9914,0.0265,0.0574,9.8064,-0.0064,-0.0602,-0.008,-6.88,31.1,9.57,257.19,-1.45,4.17
21268,51.55296,-2.545601,105,9.57,10,244.9,Nov-21,2126823,2019-08-16 13:24:40:603,0.0253,0.3447,10.2213,0.056,0.1191,9.8058,0.0096,-0.0251,-0.0005,-7.19,30.35,8.32,256.94,-0.7,4.0
21269,51.55296,-2.545601,105,9.57,10,244.9,Nov-21,2126922,2019-08-16 13:24:40:702,0.4036,0.2969,9.4322,0.0277,0.0418,9.8065,-0.0235,0.0037,-0.0133,-6.5,30.35,9.14,257.0,-0.42,3.9
21270,51.55296,-2.545601,105,9.57,10,244.9,Nov-21,2127023,2019-08-16 13:24:40:803,0.1731,0.0048,9.3984,0.0102,0.0282,9.8066,-0.0235,0.0037,-0.0133,-6.5,30.35,9.14,257.0,-0.42,3.9
21271,51.55296,-2.545601,105,9.57,10,244.9,Nov-21,2127123,2019-08-16 13:24:40:903,-0.0388,0.2794,9.7712,0.0129,0.0634,9.8064,0.0202,-0.0293,-0.0112,-6.5,30.35,9.57,257.11,-0.04,3.91
21272,51.55296,-2.545601,105,9.57,10,244.9,Nov-21,2127223,2019-08-16 13:24:41:003,0.1312,0.1729,9.6091,0.0339,0.0757,9.8063,0.001,-0.0251,-0.008,-6.88,29.98,8.7,257.11,-0.04,3.91
21273,51.55296,-2.545601,105,9.57,10,244.9,Nov-21,2127323,2019-08-16 13:24:41:103,0.0075,0.1076,9.8552,0.0163,0.025,9.8066,0.0117,-0.0272,-0.009,-6.13,29.6,9.57,259.01,0.43,3.81
21274,51.55296,-2.545601,105,9.57,10,244.9,Nov-21,2127423,2019-08-16 13:24:41:203,0.0915,0.3036,9.9722,0.0304,0.0633,9.8064,-0.016,0.0037,-0.0122,-6.13,29.6,9.57,259.01,0.43,3.81
21275,51.55296,-2.545601,105,9.57,10,244.9,Nov-21,2127523,2019-08-16 13:24:41:303,0.1405,0.0902,9.6625,0.0257,0.034,9.8066,0.0287,0.0133,-0.0144,-6.5,29.23,8.76,256.85,0.83,3.71
21276,51.55296,-2.545601,105,9.57,10,244.9,Nov-21,2127623,2019-08-16 13:24:41:403,0.2591,0.0431,9.5241,0.0287,0.0373,9.8065,0.0234,0.0176,-0.0027,-6.88,29.6,8.32,257.26,1.08,3.6
21277,51.55296,-2.545601,105,9.57,10,244.9,Nov-21,2127723,2019-08-16 13:24:41:503,0.0513,-0.0698,9.7329,-0.0094,-0.0073,9.8066,0.0234,0.0176,-0.0027,-6.88,29.6,8.32,257.26,1.08,3.6
21278,51.552925,-2.54573,105,9.71,10,245.2,Nov-21,2127823,2019-08-16 13:24:41:603,0.0928,-0.2806,9.1155,-0.0101,-0.0008,9.8066,-0.032,0.0431,-0.0005,-6.5,29.98,8.76,257.31,1.03,3.64
21279,51.552925,-2.54573,105,9.71,10,245.2,Nov-21,2127923,2019-08-16 13:24:41:703,-0.292,-0.0387,9.6106,-0.0068,-0.0025,9.8066,-0.0064,0.0144,0.0016,-6.13,29.6,9.2,259.1,1.0,3.68
21280,51.552925,-2.54573,105,9.71,10,245.2,Nov-21,2128023,2019-08-16 13:24:41:803,-0.1683,0.1807,9.8457,-0.0053,-0.0018,9.8066,-0.0203,0.0122,0.0016,-6.5,29.6,8.32,259.1,1.0,3.68
21281,51.552925,-2.54573,105,9.71,10,245.2,Nov-21,2128123,2019-08-16 13:24:41:903,-0.056,0.1002,9.9106,0.0013,0.0186,9.8066,-0.0032,-0.0048,-0.0037,-6.5,29.6,8.32,259.1,1.0,3.68
21282,51.552925,-2.54573,105,9.71,10,245.2,Nov-21,2128223,2019-08-16 13:24:42:003,0.0277,0.1663,9.6041,0.0162,0.0663,9.8064,-0.0107,-0.0453,-0.0048,-6.13,29.6,8.76,259.18,1.36,3.7
21283,51.552925,-2.54573,105,9.71,10,245.2,Nov-21,2128323,2019-08-16 13:24:42:103,-0.0678,0.3045,9.6877,0.0188,0.1181,9.8059,-0.0032,0.0048,0.0016,-6.13,29.23,8.32,259.18,1.36,3.7
21284,51.552925,-2.54573,105,9.71,10,245.2,Nov-21,2128423,2019-08-16 13:24:42:203,-0.0839,0.3032,10.0112,0.0186,0.1484,9.8055,-0.0107,-0.0027,0.0005,-6.13,29.6,8.76,259.38,2.23,3.76
21285,51.552925,-2.54573,105,9.71,10,245.2,Nov-21,2128523,2019-08-16 13:24:42:303,0.0443,0.19,9.878,0.0053,0.0404,9.8066,-0.0107,-0.0027,0.0005,-5.75,29.23,8.32,259.38,2.23,3.76
21286,51.552925,-2.54573,105,9.71,10,245.2,Nov-21,2128623,2019-08-16 13:24:42:403,0.0087,0.145,10.0142,0.0163,0.0974,9.8062,-0.016,-0.0133,-0.0027,-6.13,29.23,7.89,259.06,2.8,3.77
21287,51.552925,-2.54573,105,9.71,10,245.2,Nov-21,2128723,2019-08-16 13:24:42:503,-0.0094,0.237,9.5599,0.0091,0.0657,9.8064,0.001,-0.0187,-0.0005,-5.38,28.85,7.89,261.02,3.19,3.79
21288,51.552853,-2.545866,107,9.57,10,244.4,Dec-21,2128823,2019-08-16 13:24:42:603,-0.2183,0.1862,10.3238,0.0117,0.0623,9.8064,-0.0331,-0.0357,-0.0069,-5.38,28.85,7.89,261.02,3.19,3.79
21289,51.552853,-2.545866,107,9.57,10,244.4,Dec-21,2128923,2019-08-16 13:24:42:703,-0.0089,0.1965,10.0808,0.022,0.1111,9.806,0.0106,-0.0666,0.0123,-5.38,28.85,8.32,261.16,3.85,3.77
21290,51.552853,-2.545866,107,9.57,10,244.4,Dec-21,2129023,2019-08-16 13:24:42:803,-0.0977,0.2597,10.0912,0.0134,0.0912,9.8062,-0.0256,-0.1326,0.0432,-5.8,28.34,7.95,261.16,3.85,3.77
21291,51.552853,-2.545866,107,9.57,10,244.4,Dec-21,2129123,2019-08-16 13:24:42:903,-0.0665,0.1513,10.3051,0.0534,0.255,9.8032,-0.0373,-0.2552,0.0581,-5.26,28.46,7.9,261.2,5.34,3.7
21292,51.552853,-2.545866,107,9.57,10,244.4,Dec-21,2129224,2019-08-16 13:24:43:004,0.2215,0.7498,9.4631,0.1336,0.6364,9.7851,-0.0458,-0.4821,0.1763,-5.26,28.46,7.9,261.2,5.34,3.7
21293,51.552853,-2.545866,107,9.57,10,244.4,Dec-21,2129323,2019-08-16 13:24:43:103,0.7879,1.1475,10.0876,-0.0184,0.5161,9.793,0.0096,-0.2946,0.0751,-4.07,29.34,4.72,263.3,9.14,3.49
21294,51.552853,-2.545866,107,9.57,10,244.4,Dec-21,2129423,2019-08-16 13:24:43:203,0.1974,1.7834,10.9178,0.0306,0.105,9.806,0.0096,-0.2946,0.0751,-6.0,29.39,-0.3,257.74,12.12,3.96
21295,51.552853,-2.545866,107,9.57,10,244.4,Dec-21,2129523,2019-08-16 13:24:43:303,0.3112,0.5535,9.8152,0.0396,0.1542,9.8054,-0.0426,-0.0016,0.0069,-6.0,29.39,-0.3,257.74,12.12,3.96
21296,51.552853,-2.545866,107,9.57,10,244.4,Dec-21,2129623,2019-08-16 13:24:43:403,-0.0647,0.2533,10.1566,0.0188,0.0451,9.8065,0.0074,0.0229,0.0016,-6.36,29.3,1.15,258.18,13.05,3.93
21297,51.552853,-2.545866,107,9.57,10,244.4,Dec-21,2129723,2019-08-16 13:24:43:503,0.2901,0.425,10.0398,0.0374,0.0826,9.8062,0.0159,0.0197,0.0027,-5.87,29.42,0.43,257.75,13.57,3.81
21298,51.55281,-2.545991,107,9.71,10,242.1,Dec-21,2129823,2019-08-16 13:24:43:603,0.3882,0.6139,10.5171,0.0043,0.0414,9.8066,-0.0118,-0.041,0.0059,-5.19,29.53,1.13,257.75,13.57,3.81
21299,51.55281,-2.545991,107,9.71,10,242.1,Dec-21,2129922,2019-08-16 13:24:43:702,0.4763,0.4898,10.0876,0.0186,0.0877,9.8062,-0.0171,-0.008,0.0037,-5.19,29.53,1.13,257.75,13.57,3.81
21300,51.55281,-2.545991,107,9.71,10,242.1,Dec-21,2130023,2019-08-16 13:24:43:803,0.3766,0.2759,9.4775,0.0387,0.1239,9.8058,0.0234,-0.0069,-0.0058,-5.66,29.46,0.51,258.25,14.32,3.74
21301,51.55281,-2.545991,107,9.71,10,242.1,Dec-21,2130123,2019-08-16 13:24:43:903,0.0639,0.7499,9.8085,0.0216,0.062,9.8064,0.0234,-0.0069,-0.0058,-5.91,29.39,1.06,258.27,14.68,3.69
21302,51.55281,-2.545991,107,9.71,10,242.1,Dec-21,2130223,2019-08-16 13:24:44:003,-0.321,0.4792,10.1099,0.0383,0.1062,9.806,0.001,0.0282,0.0059,-6.46,29.29,-0.84,258.27,14.68,3.69
21303,51.55281,-2.545991,107,9.71,10,242.1,Dec-21,2130323,2019-08-16 13:24:44:103,0.0171,0.694,10.1589,0.0531,0.1629,9.8052,-0.0075,-0.008,0.0027,-6.46,29.29,-0.84,258.27,14.68,3.69
21304,51.55281,-2.545991,107,9.71,10,242.1,Dec-21,2130423,2019-08-16 13:24:44:203,0.2508,0.7865,10.1682,0.0168,0.0584,9.8065,0.0085,-0.0037,-0.0058,-7.13,29.14,0.5,255.98,15.68,3.57
21305,51.55281,-2.545991,107,9.71,10,242.1,Dec-21,2130523,2019-08-16 13:24:44:303,-0.0321,0.4723,9.9533,0.0343,0.1084,9.806,-0.0043,0.008,0.0027,-7.67,29.0,-0.18,255.98,15.68,3.57
21306,51.55281,-2.545991,107,9.71,10,242.1,Dec-21,2130623,2019-08-16 13:24:44:403,-0.1433,0.1797,10.3164,0.0176,0.033,9.8066,-0.0043,0.0005,-0.0027,-7.67,29.0,0.5,254.22,16.34,3.53
21307,51.55281,-2.545991,107,9.71,10,242.1,Dec-21,2130723,2019-08-16 13:24:44:503,0.1125,0.3643,9.9195,0.0285,0.0755,9.8063,0.0032,-0.0314,-0.0058,-7.81,28.96,-0.18,254.24,16.81,3.49
21308,51.55279,-2.546088,105,8.33,10,242.4,Nov-21,2130823,2019-08-16 13:24:44:603,-0.1151,-0.057,9.466,0.0175,0.0288,9.8066,-0.0128,-0.0165,-0.0048,-7.81,28.96,-0.18,254.24,16.81,3.49
21309,51.55279,-2.546088,105,8.33,10,242.4,Nov-21,2130923,2019-08-16 13:24:44:703,0.1053,0.1111,10.0578,0.0269,0.0517,9.8065,-0.0128,-0.0165,-0.0048,-8.2,28.86,-0.17,254.27,17.14,3.42
21310,51.55279,-2.546088,105,8.33,10,242.4,Nov-21,2131023,2019-08-16 13:24:44:803,0.1642,0.0225,10.5159,0.0005,0.0225,9.8066,0.0159,-0.0208,-0.0101,-7.96,28.91,-0.88,254.27,17.14,3.42
21311,51.55279,-2.546088,105,8.33,10,242.4,Nov-21,2131124,2019-08-16 13:24:44:904,0.3287,-0.0409,9.8339,0.0156,0.0154,9.8066,-0.0224,-0.0155,-0.0069,-7.13,29.13,-0.85,255.45,17.43,3.42
21312,51.55279,-2.546088,105,8.33,10,242.4,Nov-21,2131223,2019-08-16 13:24:45:003,-0.0703,-0.011,9.7277,0.0131,0.0243,9.8066,0.0159,0.0208,-0.0027,-7.37,29.04,-1.48,255.45,17.43,3.42
21313,51.55279,-2.546088,105,8.33,10,242.4,Nov-21,2131323,2019-08-16 13:24:45:103,-0.0044,-0.4422,9.7167,-0.0078,0.0049,9.8066,-0.0171,0.009,0.0027,-7.96,28.91,-0.88,253.71,17.59,3.38
21314,51.55279,-2.546088,105,8.33,10,242.4,Nov-21,2131423,2019-08-16 13:24:45:203,-0.0309,-0.4938,9.807,-0.0083,-0.0133,9.8066,-0.0128,0.0133,-0.0037,-7.96,28.91,-0.88,253.71,17.59,3.38
21315,51.55279,-2.546088,105,8.33,10,242.4,Nov-21,2131523,2019-08-16 13:24:45:303,-0.4809,-0.5813,9.6916,-0.0033,-0.0231,9.8066,0.0032,-0.0208,-0.0069,-7.93,28.91,1.21,254.86,17.5,3.41
21316,51.55279,-2.546088,105,8.33,10,242.4,Nov-21,2131623,2019-08-16 13:24:45:403,-0.3112,-0.7942,10.1521,-0.0112,-0.0428,9.8066,0.0128,0.0069,-0.009,-7.26,29.09,-0.87,255.46,17.24,3.41
21317,51.55279,-2.546088,105,8.33,10,242.4,Nov-21,2131723,2019-08-16 13:24:45:503,0.1091,-0.3631,9.6979,0.0007,-0.0251,9.8066,-0.0096,-0.0176,-0.0027,-6.82,29.21,-0.18,255.46,17.24,3.41
21318,51.55275,-2.546182,106,6.91,10,242.6,Nov-21,2131823,2019-08-16 13:24:45:603,-0.3157,-0.7589,9.8799,-0.0015,-0.0523,9.8065,-0.0096,-0.0176,-0.0027,-6.82,29.21,-0.18,255.46,17.24,3.41
21319,51.55275,-2.546182,106,6.91,10,242.6,Nov-21,2131923,2019-08-16 13:24:45:703,-0.0823,-0.8378,10.1274,-0.0128,-0.0757,9.8064,-0.0107,0.0144,-0.0154,-6.95,29.17,-0.9,255.48,16.79,3.37
21320,51.55275,-2.546182,106,6.91,10,242.6,Nov-21,2132023,2019-08-16 13:24:45:803,-0.2539,-0.7072,9.8226,-0.008,-0.0359,9.8066,0.0021,0.0144,-0.0133,-7.96,28.92,0.51,254.83,16.59,3.33
21321,51.55275,-2.546182,106,6.91,10,242.6,Nov-21,2132123,2019-08-16 13:24:45:903,-0.1016,-0.3758,9.4832,-0.0163,-0.066,9.8064,-0.0064,0.0367,-0.008,-7.96,28.92,0.51,254.83,16.59,3.33
21322,51.55275,-2.546182,106,6.91,10,242.6,Nov-21,2132223,2019-08-16 13:24:46:003,-0.1388,-0.529,9.9371,-0.0084,-0.0282,9.8066,-0.0054,-0.0251,-0.008,-7.96,28.91,-0.88,253.73,16.19,3.33
21323,51.55275,-2.546182,106,6.91,10,242.6,Nov-21,2132323,2019-08-16 13:24:46:103,-0.1075,-0.9725,10.0343,-0.0214,-0.0729,9.8064,0.017,0.0282,-0.0165,-7.36,29.0,-2.17,254.98,15.75,3.33
21324,51.55275,-2.546182,106,6.91,10,242.6,Nov-21,2132423,2019-08-16 13:24:46:203,-0.2574,-0.5761,10.6642,-0.0188,-0.0364,9.8066,-0.0022,0.0048,-0.0027,-6.13,29.32,-1.56,254.98,15.75,3.33
21325,51.55275,-2.546182,106,6.91,10,242.6,Nov-21,2132523,2019-08-16 13:24:46:303,-0.4423,-0.9603,10.1318,-0.0276,-0.0727,9.8063,-0.0022,0.0048,-0.0027,-6.13,29.32,-1.56,254.98,15.75,3.33
21326,51.55275,-2.546182,106,6.91,10,242.6,Nov-21,2132623,2019-08-16 13:24:46:403,-0.2983,-0.9621,9.8035,-0.0356,-0.1169,9.8059,-0.0043,0.0144,-0.0112,-6.94,29.14,-1.61,255.01,15.04,3.35
21327,51.55275,-2.546182,106,6.91,10,242.6,Nov-21,2132723,2019-08-16 13:24:46:503,-0.5754,-0.645,10.0111,-0.0126,-0.043,9.8065,0.0,0.0101,-0.009,-6.94,29.14,-1.61,255.03,14.77,3.36
21328,51.552708,-2.546267,106,5.97,9,242.8,Nov-21,2132823,2019-08-16 13:24:46:603,-0.5359,-0.3954,9.6299,-0.012,-0.0289,9.8066,-0.0043,0.0325,0.0005,-6.94,29.14,-1.61,255.03,14.77,3.36
21329,51.552708,-2.546267,106,5.97,9,242.8,Nov-21,2132923,2019-08-16 13:24:46:703,-0.2707,-0.5546,10.1091,-0.0277,-0.0615,9.8064,0.0042,0.0026,-0.0112,-6.82,29.13,-2.29,255.03,14.39,3.42
21330,51.552708,-2.546267,106,5.97,9,242.8,Nov-21,2133023,2019-08-16 13:24:46:803,-0.176,-0.8392,10.2142,-0.0341,-0.073,9.8063,0.0096,0.0218,-0.0058,-6.82,29.13,-2.29,255.03,14.39,3.42
21331,51.552708,-2.546267,106,5.97,9,242.8,Nov-21,2133123,2019-08-16 13:24:46:903,-0.1016,-0.5649,9.3916,-0.0067,-0.0357,9.8066,-0.0128,0.025,-0.0058,-6.8,29.14,-2.18,255.04,13.92,3.51
21332,51.552708,-2.546267,106,5.97,9,242.8,Nov-21,2133224,2019-08-16 13:24:47:004,-0.0982,-0.2844,9.8992,-0.0137,-0.0749,9.8064,0.0021,-0.0101,-0.0069,-6.23,29.31,-1.49,255.04,13.92,3.51
21333,51.552708,-2.546267,106,5.97,9,242.8,Nov-21,2133324,2019-08-16 13:24:47:104,-0.0582,-0.7742,9.8417,-0.017,-0.051,9.8065,0.0117,0.0133,0.0016,-6.81,29.18,-1.48,255.54,13.48,3.47
21334,51.552708,-2.546267,106,5.97,9,242.8,Nov-21,2133423,2019-08-16 13:24:47:203,-0.1334,-0.6034,9.3832,-0.0361,-0.1026,9.806,0.0117,0.0133,0.0016,-6.95,29.17,-0.9,255.55,12.84,3.53
21335,51.552708,-2.546267,106,5.97,9,242.8,Nov-21,2133523,2019-08-16 13:24:47:303,-0.3331,-0.5092,9.811,-0.022,-0.0474,9.8065,0.0277,-0.008,-0.0048,-6.95,29.17,-0.9,255.55,12.84,3.53
21336,51.552708,-2.546267,106,5.97,9,242.8,Nov-21,2133623,2019-08-16 13:24:47:403,-0.2019,-0.3438,9.4825,-0.0197,-0.0401,9.8066,0.0117,-0.0091,-0.0069,-5.66,29.46,-0.18,257.81,12.54,3.58
21337,51.552708,-2.546267,106,5.97,9,242.8,Nov-21,2133723,2019-08-16 13:24:47:503,-0.2278,-0.8439,9.5612,-0.0195,-0.0582,9.8065,-0.0181,0.041,-0.008,-6.81,29.18,-1.48,255.54,12.29,3.65
21338,51.552692,-2.546333,106,5.4,9,243.2,Nov-21,2133823,2019-08-16 13:24:47:603,-0.1844,-0.7142,9.9906,-0.009,-0.0496,9.8065,0.0021,0.0058,-0.0112,-6.23,29.27,-2.19,257.01,11.52,3.65
21339,51.552692,-2.546333,106,5.4,9,243.2,Nov-21,2133923,2019-08-16 13:24:47:703,-0.2185,-0.7506,9.9102,-0.0201,-0.0411,9.8065,0.0053,0.0016,-0.009,-6.11,29.33,-1.46,257.43,11.23,3.64
21340,51.552692,-2.546333,106,5.4,9,243.2,Nov-21,2134023,2019-08-16 13:24:47:803,-0.2549,-0.83,9.7664,-0.0422,-0.1003,9.806,-0.0064,0.0133,0.0112,-6.11,29.33,-1.46,257.43,11.23,3.64
21341,51.552692,-2.546333,106,5.4,9,243.2,Nov-21,2134122,2019-08-16 13:24:47:902,-0.1996,-0.6513,10.0937,-0.0194,-0.0562,9.8065,-0.0064,0.0133,0.0112,-6.02,29.38,-0.86,257.44,10.6,3.75
21342,51.552692,-2.546333,106,5.4,9,243.2,Nov-21,2134223,2019-08-16 13:24:48:003,-0.1833,-0.4013,9.7345,-0.034,-0.095,9.8061,0.0042,0.0026,0.0005,-6.14,29.36,-0.08,257.82,10.02,3.83
21343,51.552692,-2.546333,106,5.4,9,243.2,Nov-21,2134323,2019-08-16 13:24:48:103,-0.0424,-0.5994,9.733,-0.0171,-0.0396,9.8066,0.0021,0.0186,0.0016,-6.14,29.36,-0.08,257.82,10.02,3.83
21344,51.552692,-2.546333,106,5.4,9,243.2,Nov-21,2134423,2019-08-16 13:24:48:203,-0.1422,-0.7268,9.7989,-0.0165,-0.0562,9.8065,-0.0128,0.0165,0.0005,-6.7,29.23,-0.87,255.62,9.77,3.88
21345,51.552692,-2.546333,106,5.4,9,243.2,Nov-21,2134523,2019-08-16 13:24:48:303,-0.0989,-0.5415,9.9663,-0.0366,-0.1122,9.8059,0.0021,-0.0006,-0.0058,-5.76,29.44,-0.18,257.83,9.08,3.92
21346,51.552692,-2.546333,106,5.4,9,243.2,Nov-21,2134623,2019-08-16 13:24:48:403,-0.1666,-0.6309,9.6965,-0.008,-0.0476,9.8065,-0.0043,0.0005,-0.0016,-5.76,29.44,-0.18,257.83,9.08,3.92
21347,51.552692,-2.546333,106,5.4,9,243.2,Nov-21,2134723,2019-08-16 13:24:48:503,-0.1151,-0.5245,9.7929,-0.0168,-0.0508,9.8065,0.0181,0.009,0.0005,-5.56,29.48,0.5,258.16,8.54,3.9
21348,51.552654,-2.546414,107,5.48,9,243.2,Nov-21,2134823,2019-08-16 13:24:48:603,0.148,-0.5121,9.6843,-0.0261,-0.1021,9.8061,0.0181,0.009,0.0005,-6.02,29.36,-1.44,257.59,7.92,3.92
21349,51.552654,-2.546414,107,5.48,9,243.2,Nov-21,2134923,2019-08-16 13:24:48:703,0.0752,-0.3699,9.4364,-0.0118,-0.0374,9.8066,-0.0086,0.0101,-0.0016,-6.02,29.36,-1.44,257.59,7.92,3.92
21350,51.552654,-2.546414,107,5.48,9,243.2,Nov-21,2135023,2019-08-16 13:24:48:803,-0.202,-0.4726,9.8723,-0.0076,-0.0403,9.8066,-0.0107,0.0239,0.0005,-6.14,29.36,-0.18,257.88,7.69,3.95
21351,51.552654,-2.546414,107,5.48,9,243.2,Nov-21,2135123,2019-08-16 13:24:48:903,-0.2333,-0.3823,9.7141,-0.0112,-0.0513,9.8065,-0.0213,0.0069,0.0059,-6.02,29.39,-0.18,257.89,7.45,3.94
21352,51.552654,-2.546414,107,5.48,9,243.2,Nov-21,2135223,2019-08-16 13:24:49:003,-0.1708,-0.4007,9.9801,-0.0245,-0.1042,9.8061,0.0213,0.0154,-0.0101,-6.02,29.39,-0.18,257.89,7.45,3.94
21353,51.552654,-2.546414,107,5.48,9,243.2,Nov-21,2135323,2019-08-16 13:24:49:103,0.0029,-0.2941,9.6121,-0.0048,-0.0352,9.8066,-0.0118,0.0058,-0.0048,-6.14,29.35,-0.87,257.66,6.83,3.95
21354,51.552654,-2.546414,107,5.48,9,243.2,Nov-21,2135423,2019-08-16 13:24:49:203,0.1596,-0.3939,9.6455,-0.0085,-0.0704,9.8064,0.0128,0.0154,-0.0016,-6.14,29.35,-0.87,257.7,6.41,3.91
21355,51.552654,-2.546414,107,5.48,9,243.2,Nov-21,2135524,2019-08-16 13:24:49:304,-0.3392,-0.3366,9.6007,-0.0054,-0.0486,9.8065,0.0021,0.0026,-0.008,-6.14,29.35,-0.87,257.7,6.41,3.91
21356,51.552654,-2.546414,107,5.48,9,243.2,Nov-21,2135624,2019-08-16 13:24:49:404,-0.4199,-0.1781,9.9439,-0.0055,-0.0296,9.8066,0.0021,0.0026,-0.008,-5.56,29.48,-0.18,257.96,5.91,3.92
21357,51.552654,-2.546414,107,5.48,9,243.2,Nov-21,2135723,2019-08-16 13:24:49:503,-0.166,-0.3344,10.0337,-0.0014,-0.0254,9.8066,-0.0043,-0.0016,-0.0027,-6.02,29.38,-0.86,257.75,5.74,3.91
21358,51.552624,-2.546487,107,5.77,9,243.3,Nov-21,2135824,2019-08-16 13:24:49:604,-0.1539,-0.2223,9.3888,-0.012,-0.0536,9.8065,-0.0107,-0.0069,0.0048,-6.02,29.38,-0.86,257.75,5.74,3.91
21359,51.552624,-2.546487,107,5.77,9,243.3,Nov-21,2135923,2019-08-16 13:24:49:703,-0.4161,-0.0393,10.1287,-0.0031,-0.0191,9.8066,0.0191,0.0101,-0.0165,-6.58,29.26,-0.85,255.9,5.42,3.91
21360,51.552624,-2.546487,107,5.77,9,243.3,Nov-21,2136022,2019-08-16 13:24:49:802,-0.2735,-0.0463,9.997,-0.0063,-0.0374,9.8066,-0.0203,0.0069,0.0005,-6.82,29.22,-0.08,256.12,5.2,3.9
21361,51.552624,-2.546487,107,5.77,9,243.3,Nov-21,2136123,2019-08-16 13:24:49:903,-0.2977,-0.0225,9.7242,-0.005,-0.0198,9.8066,-0.0192,0.0101,-0.0026,-6.68,29.24,-0.77,255.93,5.08,3.9
21362,51.552624,-2.546487,107,5.77,9,243.3,Nov-21,2136223,2019-08-16 13:24:50:003,-0.0122,-0.2036,9.5614,0.0003,-0.0375,9.8066,0.0245,-0.0229,-0.0048,-6.58,29.26,-0.85,255.93,5.08,3.9
21363,51.552624,-2.546487,107,5.77,9,243.3,Nov-21,2136323,2019-08-16 13:24:50:103,0.4311,-0.2958,9.3133,0.0061,-0.0599,9.8065,0.0245,-0.0229,-0.0048,-6.58,29.26,-0.85,255.93,5.08,3.9
21364,51.552624,-2.546487,107,5.77,9,243.3,Nov-21,2136423,2019-08-16 13:24:50:203,0.0721,-0.0458,9.7131,-0.0021,-0.0701,9.8064,-0.0086,-0.0016,0.0037,-6.14,29.36,-0.08,258.03,4.68,3.81
21365,51.552624,-2.546487,107,5.77,9,243.3,Nov-21,2136523,2019-08-16 13:24:50:303,0.1344,0.2571,10.3539,-0.0136,-0.0187,9.8066,0.0064,0.0176,-0.0027,-6.68,29.24,-0.77,255.97,4.55,3.86
21366,51.552624,-2.546487,107,5.77,9,243.3,Nov-21,2136623,2019-08-16 13:24:50:403,0.0067,0.2103,10.2708,-0.0078,-0.0247,9.8066,-0.0181,-0.0155,0.0005,-6.68,29.24,-0.77,255.97,4.55,3.86
21367,51.552624,-2.546487,107,5.77,9,243.3,Nov-21,2136723,2019-08-16 13:24:50:503,-0.0392,0.0922,9.5249,-0.0007,-0.0073,9.8066,0.0128,-0.0059,-0.0058,-6.24,29.33,-0.89,257.86,4.4,3.87
21368,51.552612,-2.546565,106,6.38,9,243.7,Nov-21,2136823,2019-08-16 13:24:50:603,0.0199,-0.0497,9.4724,-0.0027,-0.0225,9.8066,0.0074,-0.0155,-0.0016,-6.68,29.24,-0.77,255.99,4.27,3.86
21369,51.552612,-2.546565,106,6.38,9,243.7,Nov-21,2136923,2019-08-16 13:24:50:703,-0.0999,0.2271,9.6872,-0.0064,-0.0075,9.8066,0.0191,0.0197,-0.0005,-6.14,29.35,-0.77,255.99,4.27,3.86
21370,51.552612,-2.546565,106,6.38,9,243.7,Nov-21,2137023,2019-08-16 13:24:50:803,0.1507,-0.0186,9.6881,-0.0139,-0.013,9.8066,0.0191,0.0197,-0.0005,-6.14,29.35,-0.77,255.99,4.27,3.86
21371,51.552612,-2.546565,106,6.38,9,243.7,Nov-21,2137123,2019-08-16 13:24:50:903,0.1957,0.3348,10.28,-0.0031,-0.0099,9.8066,-0.0096,-0.0112,-0.0016,-6.14,29.36,-0.18,258.04,4.18,3.92
21372,51.552612,-2.546565,106,6.38,9,243.7,Nov-21,2137223,2019-08-16 13:24:51:003,0.237,0.2622,10.0033,-0.0063,-0.0182,9.8066,-0.0086,-0.0037,0.0037,-6.71,29.24,-0.18,256.17,4.06,3.94
21373,51.552612,-2.546565,106,6.38,9,243.7,Nov-21,2137323,2019-08-16 13:24:51:103,-0.2371,0.091,9.6872,-0.0081,0.0019,9.8066,-0.0086,0.0101,-0.0026,-6.7,29.23,-0.77,256.17,4.06,3.94
21374,51.552612,-2.546565,106,6.38,9,243.7,Nov-21,2137422,2019-08-16 13:24:51:202,-0.1799,0.407,9.7574,-0.01,-0.0048,9.8066,-0.0043,0.0122,-0.0005,-6.13,29.33,-1.47,257.88,4.02,3.99
21375,51.552612,-2.546565,106,6.38,9,243.7,Nov-21,2137523,2019-08-16 13:24:51:303,0.3814,0.1125,10.0901,0.01,0.0057,9.8066,-0.0245,0.0026,0.0016,-6.13,29.33,-1.47,257.88,4.02,3.99
21376,51.552612,-2.546565,106,6.38,9,243.7,Nov-21,2137623,2019-08-16 13:24:51:403,0.4405,0.3635,9.9201,0.0012,-0.0062,9.8066,0.0255,0.0367,-0.009,-6.7,29.21,-1.46,256.0,4.07,3.94
21377,51.552612,-2.546565,106,6.38,9,243.7,Nov-21,2137723,2019-08-16 13:24:51:503,0.0716,-0.2091,9.5273,-0.0138,-0.0079,9.8066,-0.0128,-0.0006,-0.0048,-6.12,29.36,-0.77,256.0,4.07,3.94
21378,51.552593,-2.546657,106,6.95,9,243.9,Nov-21,2137823,2019-08-16 13:24:51:603,-0.1623,0.2282,9.6506,-0.0062,-0.0076,9.8066,-0.0128,-0.0006,-0.0048,-6.02,29.36,-1.44,257.88,4.02,3.96
21379,51.552593,-2.546657,106,6.95,9,243.9,Nov-21,2137923,2019-08-16 13:24:51:703,0.0027,0.2203,10.1066,-0.009,-0.003,9.8066,0.0298,0.073,-0.0037,-6.58,29.27,-0.08,256.17,3.99,4.01
21380,51.552593,-2.546657,106,6.95,9,243.9,Nov-21,2138022,2019-08-16 13:24:51:802,0.3493,-0.0101,9.8542,-0.0001,-0.0002,9.8067,-0.0426,0.0026,0.0133,-6.68,29.21,-1.46,256.0,3.96,4.04
21381,51.552593,-2.546657,106,6.95,9,243.9,Nov-21,2138123,2019-08-16 13:24:51:903,0.1162,0.0376,10.2744,0.0064,-0.0014,9.8066,0.0085,-0.04,-0.0027,-6.7,29.23,-0.77,256.0,3.96,4.04
21382,51.552593,-2.546657,106,6.95,9,243.9,Nov-21,2138222,2019-08-16 13:24:52:002,-0.1734,0.4235,9.7372,-0.0017,-0.0033,9.8067,0.0202,-0.0357,-0.0101,-6.7,29.23,-0.77,256.0,3.96,4.04
21383,51.552593,-2.546657,106,6.95,9,243.9,Nov-21,2138323,2019-08-16 13:24:52:103,-0.1429,0.5576,10.3451,-0.0032,0.0088,9.8066,-0.0118,-0.0336,0.0048,-6.11,29.33,-1.46,257.88,3.94,4.04
21384,51.552593,-2.546657,106,6.95,9,243.9,Nov-21,2138423,2019-08-16 13:24:52:203,0.3076,0.1279,9.825,0.0032,-0.0008,9.8067,0.0117,0.0069,-0.0037,-6.12,29.36,0.51,258.2,3.99,4.07
21385,51.552593,-2.546657,106,6.95,9,243.9,Nov-21,2138523,2019-08-16 13:24:52:303,0.1855,-0.1073,9.5465,0.0067,0.0052,9.8066,0.0117,0.0069,-0.0037,-6.14,29.35,-0.77,258.2,3.99,4.07
21386,51.552593,-2.546657,106,6.95,9,243.9,Nov-21,2138623,2019-08-16 13:24:52:403,0.1262,0.0543,9.7918,0.0016,0.0049,9.8067,-0.0171,0.0442,0.0016,-5.54,29.41,-2.12,257.71,4.02,4.07
21387,51.552593,-2.546657,106,6.95,9,243.9,Nov-21,2138723,2019-08-16 13:24:52:503,0.0955,-0.3457,9.5156,-0.0043,-0.0154,9.8066,0.0149,-0.0272,-0.0037,-5.54,29.41,-2.12,257.71,4.02,4.07
21388,51.552563,-2.546757,106,7.38,9,244.1,Nov-21,2138823,2019-08-16 13:24:52:603,-0.29,0.5761,10.52,-0.0069,-0.015,9.8066,0.0191,-0.0059,-0.009,-5.75,29.41,-1.5,257.71,4.02,4.07
21389,51.552563,-2.546757,106,7.38,9,244.1,Nov-21,2138923,2019-08-16 13:24:52:703,0.0927,0.1187,9.7814,-0.0118,-0.0211,9.8066,-0.0107,0.0197,0.0048,-6.02,29.38,-0.76,257.88,3.88,4.11
21390,51.552563,-2.546757,106,7.38,9,244.1,Nov-21,2139023,2019-08-16 13:24:52:803,-0.0037,-0.0379,9.7369,0.0016,0.0031,9.8067,0.0149,-0.0144,-0.0069,-6.02,29.38,-0.76,257.88,3.88,4.11
21391,51.552563,-2.546757,106,7.38,9,244.1,Nov-21,2139123,2019-08-16 13:24:52:903,-0.2076,0.2239,10.3883,0.0054,-0.0038,9.8066,0.0,-0.0229,0.0005,-5.55,29.47,-0.86,257.88,3.9,4.11
21392,51.552563,-2.546757,106,7.38,9,244.1,Nov-21,2139224,2019-08-16 13:24:53:004,0.05,-0.219,10.1569,-0.0028,0.0178,9.8066,-0.0032,0.0538,-0.0027,-6.14,29.36,0.51,258.2,3.89,4.07
21393,51.552563,-2.546757,106,7.38,9,244.1,Nov-21,2139323,2019-08-16 13:24:53:103,-0.2165,0.4006,9.986,-0.0072,0.0121,9.8066,-0.0032,0.0538,-0.0027,-6.14,29.36,0.51,258.2,3.89,4.07
21394,51.552563,-2.546757,106,7.38,9,244.1,Nov-21,2139423,2019-08-16 13:24:53:203,0.2861,0.0443,8.9832,0.0052,-0.0014,9.8066,-0.0245,0.0634,0.0069,-6.02,29.38,-0.76,257.88,3.95,4.13
21395,51.552563,-2.546757,106,7.38,9,244.1,Nov-21,2139523,2019-08-16 13:24:53:303,0.3738,0.0006,10.1189,0.0101,0.0042,9.8066,-0.0064,-0.0591,-0.0037,-6.23,29.31,-1.49,257.88,3.99,4.07
21396,51.552563,-2.546757,106,7.38,9,244.1,Nov-21,2139623,2019-08-16 13:24:53:403,0.0524,0.3102,9.9126,0.0021,0.0009,9.8067,0.0309,-0.0208,-0.0048,-6.14,29.35,-0.77,257.88,3.99,4.07
21397,51.552563,-2.546757,106,7.38,9,244.1,Nov-21,2139723,2019-08-16 13:24:53:503,0.1955,0.202,10.3895,-0.0024,0.0032,9.8066,0.0191,-0.008,-0.0037,-6.14,29.35,-0.77,257.88,3.99,4.07
21398,51.55253,-2.546864,106,7.98,9,244.2,Nov-21,2139823,2019-08-16 13:24:53:603,-0.0784,-0.0431,9.2047,-0.0059,0.0076,9.8066,-0.0213,-0.0219,-0.0005,-5.66,29.46,-0.08,258.04,4.0,4.09
21399,51.55253,-2.546864,106,7.98,9,244.2,Nov-21,2139923,2019-08-16 13:24:53:703,-0.1771,0.3063,9.8525,-0.0092,0.0223,9.8066,0.0191,0.0048,-0.0165,-5.66,29.42,-1.47,258.04,4.0,4.09
21400,51.55253,-2.546864,106,7.98,9,244.2,Nov-21,2140023,2019-08-16 13:24:53:803,0.0327,-0.0869,10.2494,-0.0024,0.0176,9.8066,0.0053,0.0186,-0.0016,-6.7,29.21,-1.46,255.98,4.1,4.13
21401,51.55253,-2.546864,106,7.98,9,244.2,Nov-21,2140122,2019-08-16 13:24:53:902,-0.1842,0.3741,9.2453,0.0309,0.0396,9.8065,0.0053,0.0186,-0.0016,-6.7,29.21,-1.46,255.98,4.1,4.13
21402,51.55253,-2.546864,106,7.98,9,244.2,Nov-21,2140223,2019-08-16 13:24:54:003,0.0425,-0.1135,9.7644,0.0045,0.0176,9.8066,0.0234,-0.0069,-0.0058,-5.45,29.5,0.49,259.93,4.37,4.01
21403,51.55253,-2.546864,106,7.98,9,244.2,Nov-21,2140324,2019-08-16 13:24:54:104,-0.1441,-0.1407,9.4434,0.0087,0.0081,9.8066,0.017,0.0676,0.0016,-6.14,29.36,-0.18,259.93,4.37,4.01
21404,51.55253,-2.546864,106,7.98,9,244.2,Nov-21,2140423,2019-08-16 13:24:54:203,0.0448,0.0403,9.7334,-0.001,0.0145,9.8066,-0.0086,-0.0208,-0.0027,-6.68,29.24,-0.77,255.97,4.42,3.96
21405,51.55253,-2.546864,106,7.98,9,244.2,Nov-21,2140523,2019-08-16 13:24:54:303,-0.2776,0.6038,10.2201,-0.0078,0.0196,9.8066,0.0277,-0.0261,-0.0176,-5.56,29.48,0.5,258.19,4.52,4.04
21406,51.55253,-2.546864,106,7.98,9,244.2,Nov-21,2140623,2019-08-16 13:24:54:403,-0.0061,0.7253,10.307,0.0125,0.0049,9.8066,0.0245,-0.008,-0.0154,-5.8,29.43,-0.08,258.19,4.52,4.04
21407,51.55253,-2.546864,106,7.98,9,244.2,Nov-21,2140723,2019-08-16 13:24:54:503,0.3853,0.1369,9.1689,0.0073,0.0288,9.8066,0.0181,0.0005,-0.0037,-5.8,29.43,-0.08,258.19,4.52,4.04
21408,51.552513,-2.546972,105,8.42,9,244.7,Nov-21,2140823,2019-08-16 13:24:54:603,0.1351,0.1173,9.5442,0.0158,0.0118,9.8066,0.0181,0.0005,-0.0037,-6.02,29.39,-0.08,258.0,4.7,4.03
21409,51.552513,-2.546972,105,8.42,9,244.7,Nov-21,2140923,2019-08-16 13:24:54:703,0.1499,0.2567,9.7952,0.0212,0.0383,9.8066,-0.0011,-0.0346,-0.0037,-6.02,29.39,-0.18,258.0,4.94,3.95
21410,51.552513,-2.546972,105,8.42,9,244.7,Nov-21,2141023,2019-08-16 13:24:54:803,0.1285,0.2302,9.6751,0.0139,0.0178,9.8066,-0.0309,0.0133,0.0005,-6.02,29.39,-0.18,258.0,4.94,3.95
21411,51.552513,-2.546972,105,8.42,9,244.7,Nov-21,2141123,2019-08-16 13:24:54:903,-0.1717,0.6501,9.9568,0.0023,0.0226,9.8066,0.0255,-0.0549,-0.0154,-5.45,29.5,-0.08,260.22,5.06,3.9
21412,51.552513,-2.546972,105,8.42,9,244.7,Nov-21,2141223,2019-08-16 13:24:55:003,0.2187,0.4458,9.3915,-0.007,-0.0087,9.8066,0.0064,0.0037,-0.0048,-4.99,29.57,-0.77,260.02,5.19,3.91
21413,51.552513,-2.546972,105,8.42,9,244.7,Nov-21,2141323,2019-08-16 13:24:55:103,0.2302,-0.1913,9.5177,0.0021,0.0108,9.8066,0.0436,-0.0091,-0.0058,-5.55,29.47,-0.76,257.79,5.13,3.94
21414,51.552513,-2.546972,105,8.42,9,244.7,Nov-21,2141423,2019-08-16 13:24:55:203,-0.2628,0.4776,10.3323,0.0018,0.0102,9.8066,0.0245,0.0026,-0.0133,-5.55,29.47,-0.76,257.79,5.13,3.94
21415,51.552513,-2.546972,105,8.42,9,244.7,Nov-21,2141523,2019-08-16 13:24:55:303,0.1189,0.2862,10.1547,-0.0125,0.0127,9.8066,-0.0309,-0.0112,-0.0027,-6.02,29.39,-0.08,257.99,5.19,3.94
21416,51.552513,-2.546972,105,8.42,9,244.7,Nov-21,2141623,2019-08-16 13:24:55:403,0.312,0.1774,9.4141,-0.0026,0.0258,9.8066,-0.0309,-0.0112,-0.0027,-6.02,29.38,-0.76,257.77,5.34,3.99
21417,51.552513,-2.546972,105,8.42,9,244.7,Nov-21,2141723,2019-08-16 13:24:55:503,0.2671,-0.2549,9.8772,0.0098,0.0397,9.8066,0.0117,0.0527,-0.0016,-6.02,29.38,-0.76,257.77,5.34,3.99
21418,51.552483,-2.547085,104,8.83,9,245.0,13 / 21,2141823,2019-08-16 13:24:55:603,-0.3114,0.5658,9.9483,0.0204,0.0501,9.8065,-0.0288,0.024,0.0048,-5.91,29.38,-1.41,257.75,5.65,3.93
21419,51.552483,-2.547085,104,8.83,9,245.0,13 / 21,2141923,2019-08-16 13:24:55:703,0.0753,0.0214,9.8613,-0.0014,0.0304,9.8066,0.0032,0.0218,-0.0101,-6.02,29.38,-0.76,257.75,5.65,3.93
21420,51.552483,-2.547085,104,8.83,9,245.0,13 / 21,2142024,2019-08-16 13:24:55:804,0.0863,0.2246,9.4109,-0.0004,0.0447,9.8065,-0.0203,0.0208,-0.0069,-6.02,29.38,-0.76,257.73,5.9,3.99
21421,51.552483,-2.547085,104,8.83,9,245.0,13 / 21,2142123,2019-08-16 13:24:55:903,0.2039,0.5268,10.4346,0.0102,0.0161,9.8066,-0.0171,0.0101,-0.0037,-6.02,29.38,-0.76,257.73,5.9,3.99
21422,51.552483,-2.547085,104,8.83,9,245.0,13 / 21,2142223,2019-08-16 13:24:56:003,0.4714,0.0802,9.4836,0.0054,0.0088,9.8066,0.0074,0.0229,0.0048,-6.02,29.39,-0.08,257.96,6.02,3.89
21423,51.552483,-2.547085,104,8.83,9,245.0,13 / 21,2142324,2019-08-16 13:24:56:104,0.3958,-0.3034,9.1105,0.0015,0.0163,9.8066,0.0074,0.0229,0.0048,-6.12,29.36,-0.77,257.73,6.08,3.87
21424,51.552483,-2.547085,104,8.83,9,245.0,13 / 21,2142423,2019-08-16 13:24:56:203,0.0259,0.5287,10.085,-0.0045,0.058,9.8065,0.0383,-0.1039,-0.0112,-5.56,29.48,-0.08,257.73,6.08,3.87
21425,51.552483,-2.547085,104,8.83,9,245.0,13 / 21,2142523,2019-08-16 13:24:56:303,0.2016,0.2231,9.6706,-0.0035,0.0705,9.8064,0.0127,0.008,-0.0101,-5.45,29.5,-0.08,260.14,6.48,3.98
21426,51.552483,-2.547085,104,8.83,9,245.0,13 / 21,2142624,2019-08-16 13:24:56:404,0.1449,-0.107,9.8095,0.0069,0.0147,9.8066,-0.0203,0.0261,-0.008,-4.98,29.56,1.19,260.14,6.48,3.98
21427,51.552483,-2.547085,104,8.83,9,245.0,13 / 21,2142723,2019-08-16 13:24:56:503,0.1207,0.379,9.5432,0.0175,0.0327,9.8066,-0.0011,0.0208,-0.0027,-4.98,29.56,1.19,260.14,6.48,3.98
21428,51.552464,-2.547206,103,9.02,9,245.5,13 / 21,2142823,2019-08-16 13:24:56:603,-0.1125,0.5009,10.1144,0.0186,0.0565,9.8065,0.0085,0.0026,0.0005,-5.45,29.5,0.49,259.81,6.82,3.92
21429,51.552464,-2.547206,103,9.02,9,245.5,13 / 21,2142923,2019-08-16 13:24:56:703,0.1399,-0.1774,9.4044,0.0053,0.0214,9.8066,0.0021,0.0463,-0.0101,-5.45,29.5,0.49,259.81,6.82,3.92
21430,51.552464,-2.547206,103,9.02,9,245.5,13 / 21,2143023,2019-08-16 13:24:56:803,-0.1621,0.5199,10.0165,0.0011,0.015,9.8066,-0.0213,0.0208,-0.0027,-4.99,29.58,-0.08,260.12,6.95,3.92
21431,51.552464,-2.547206,103,9.02,9,245.5,13 / 21,2143123,2019-08-16 13:24:56:903,0.2714,0.4582,9.9069,0.0149,0.0213,9.8066,-0.0213,0.0208,-0.0027,-6.81,29.18,-1.48,255.78,7.11,3.88
21432,51.552464,-2.547206,103,9.02,9,245.5,13 / 21,2143223,2019-08-16 13:24:57:003,0.1531,-0.1786,10.0121,0.0191,0.0393,9.8066,0.0053,-0.0091,-0.0101,-5.66,29.42,-1.47,255.78,7.11,3.88
21433,51.552464,-2.547206,103,9.02,9,245.5,13 / 21,2143323,2019-08-16 13:24:57:103,-0.1977,0.2466,9.8818,0.0307,0.0541,9.8065,-0.0139,-0.0005,-0.0016,-5.66,29.42,-1.47,255.78,7.11,3.88
21434,51.552464,-2.547206,103,9.02,9,245.5,13 / 21,2143423,2019-08-16 13:24:57:203,-0.0681,-0.2689,9.5809,0.0079,0.0308,9.8066,-0.0032,0.0314,-0.0016,-4.99,29.57,-0.86,259.86,7.46,3.79
21435,51.552464,-2.547206,103,9.02,9,245.5,13 / 21,2143523,2019-08-16 13:24:57:303,-0.1667,0.4328,9.862,0.0105,0.0619,9.8064,-0.0054,0.0165,-0.0005,-4.41,29.63,-1.55,261.41,7.83,3.79
21436,51.552464,-2.547206,103,9.02,9,245.5,13 / 21,2143623,2019-08-16 13:24:57:403,0.1315,0.2324,9.4383,0.0074,0.0309,9.8066,-0.0192,0.0037,-0.0154,-4.5,29.62,-1.58,261.41,7.83,3.79
21437,51.552464,-2.547206,103,9.02,9,245.5,13 / 21,2143723,2019-08-16 13:24:57:503,0.1517,0.4003,9.7352,0.0214,0.0469,9.8065,-0.0043,0.0037,-0.0037,-4.5,29.65,-0.88,259.82,8.12,3.71
21438,51.55245,-2.547316,101,9.18,9,246.1,13 / 21,2143823,2019-08-16 13:24:57:603,-0.1154,0.2672,9.7384,0.0135,0.0178,9.8066,-0.0054,-0.0314,-0.0101,-4.5,29.65,-0.88,259.82,8.12,3.71
21439,51.55245,-2.547316,101,9.18,9,246.1,13 / 21,2143924,2019-08-16 13:24:57:704,-0.2246,0.0493,9.9537,0.0103,0.0192,9.8066,-0.0054,-0.0314,-0.0101,-4.5,29.62,-1.58,261.38,8.23,3.65
21440,51.55245,-2.547316,101,9.18,9,246.1,13 / 21,2144023,2019-08-16 13:24:57:803,-0.2152,-0.2443,9.8398,0.0141,0.0444,9.8065,0.0021,-0.0133,-0.0101,-4.42,29.67,-0.28,261.95,8.5,3.6
21441,51.55245,-2.547316,101,9.18,9,246.1,13 / 21,2144123,2019-08-16 13:24:57:903,-0.2459,0.3538,10.357,-0.0073,0.031,9.8066,0.0245,-0.0165,-0.0144,-4.33,29.68,-0.27,261.95,8.5,3.6
21442,51.55245,-2.547316,101,9.18,9,246.1,13 / 21,2144224,2019-08-16 13:24:58:004,-0.0235,0.4423,10.0192,0.0013,0.0511,9.8065,-0.0288,0.0037,-0.0037,-4.33,29.68,-0.27,261.95,8.5,3.6
21443,51.55245,-2.547316,101,9.18,9,246.1,13 / 21,2144323,2019-08-16 13:24:58:103,0.0844,0.3783,10.3018,0.006,0.0292,9.8066,0.0127,0.0048,-0.0037,-5.08,29.52,-1.67,259.48,8.8,3.64
21444,51.55245,-2.547316,101,9.18,9,246.1,13 / 21,2144423,2019-08-16 13:24:58:203,-0.0607,0.4876,10.4359,0.0038,0.0241,9.8066,0.0053,0.0453,-0.0016,-3.84,29.74,-0.97,261.62,8.94,3.64
21445,51.55245,-2.547316,101,9.18,9,246.1,13 / 21,2144524,2019-08-16 13:24:58:304,0.0097,-0.0395,10.1161,-0.0023,0.0238,9.8066,-0.0022,0.009,-0.0037,-3.84,29.74,-0.97,261.62,8.94,3.64
21446,51.55245,-2.547316,101,9.18,9,246.1,13 / 21,2144623,2019-08-16 13:24:58:403,-0.2662,0.1204,10.0481,-0.0024,0.0244,9.8066,0.0042,-0.0059,-0.0016,-4.33,29.67,-0.94,261.6,9.07,3.67
21447,51.55245,-2.547316,101,9.18,9,246.1,13 / 21,2144724,2019-08-16 13:24:58:504,-0.2025,0.3409,9.823,-0.0078,0.033,9.8066,0.0042,-0.0059,-0.0016,-4.33,29.67,-0.94,261.6,9.07,3.67
21448,51.552425,-2.54744,100,9.05,9,246.5,13 / 21,2144823,2019-08-16 13:24:58:603,-0.1803,-0.4394,10.0828,0.0002,0.0131,9.8066,0.0181,-0.0559,-0.009,-4.99,29.57,-0.96,259.73,9.26,3.75
21449,51.552425,-2.54744,100,9.05,9,246.5,13 / 21,2144923,2019-08-16 13:24:58:703,-0.1931,-0.2911,9.1694,-0.0079,0.0015,9.8066,0.0298,0.0548,-0.0027,-4.4,29.58,-2.33,261.24,9.33,3.76
21450,51.552425,-2.54744,100,9.05,9,246.5,13 / 21,2145022,2019-08-16 13:24:58:802,-0.0508,0.0379,9.7809,-0.0095,0.0245,9.8066,0.0,-0.0144,0.0037,-4.67,29.53,-2.47,259.37,9.47,3.84
21451,51.552425,-2.54744,100,9.05,9,246.5,13 / 21,2145123,2019-08-16 13:24:58:903,-0.3124,0.0824,9.8463,-0.0153,0.0131,9.8066,0.0351,-0.0538,-0.0037,-4.41,29.62,-1.75,261.19,9.68,3.84
21452,51.552425,-2.54744,100,9.05,9,246.5,13 / 21,2145223,2019-08-16 13:24:59:003,-0.2853,0.0464,10.4888,-0.021,0.0342,9.8066,0.0138,0.0239,0.0037,-4.41,29.62,-1.75,261.19,9.68,3.84
21453,51.552425,-2.54744,100,9.05,9,246.5,13 / 21,2145324,2019-08-16 13:24:59:104,0.328,0.2456,9.7684,0.003,0.0182,9.8066,-0.0022,0.0112,0.0069,-4.5,29.64,-0.98,259.65,9.86,3.99
21454,51.552425,-2.54744,100,9.05,9,246.5,13 / 21,2145423,2019-08-16 13:24:59:203,0.1924,0.5297,9.8546,-0.0101,0.0485,9.8065,0.0298,0.0431,-0.0016,-3.76,29.75,-0.95,261.45,10.13,4.1
21455,51.552425,-2.54744,100,9.05,9,246.5,13 / 21,2145524,2019-08-16 13:24:59:304,0.0223,0.0672,9.7949,-0.0045,0.0111,9.8066,-0.0086,-0.0229,-0.008,-3.76,29.75,-0.95,261.45,10.13,4.1
21456,51.552425,-2.54744,100,9.05,9,246.5,13 / 21,2145623,2019-08-16 13:24:59:403,-0.1531,-0.4738,10.0362,-0.0092,0.0021,9.8066,-0.0086,-0.0229,-0.008,-4.33,29.67,-0.94,261.43,10.19,4.14
21457,51.552425,-2.54744,100,9.05,9,246.5,13 / 21,2145723,2019-08-16 13:24:59:503,-0.3514,0.3469,10.506,-0.0107,0.0191,9.8066,0.0223,-0.0272,-0.008,-4.33,29.64,-1.62,261.05,10.29,4.22
21458,51.5524,-2.547557,100,8.7,10,246.8,13 / 21,2145823,2019-08-16 13:24:59:603,0.144,-0.2916,9.3477,0.019,-0.0123,9.8066,-0.0203,0.0367,-0.0016,-4.33,29.64,-1.62,261.05,10.29,4.22
21459,51.5524,-2.547557,100,8.7,10,246.8,13 / 21,2145923,2019-08-16 13:24:59:703,0.0843,-0.5202,10.1507,0.0211,-0.0201,9.8066,0.0117,-0.0091,0.0016,-4.8,29.57,-1.58,259.26,10.2,4.08
21460,51.5524,-2.547557,100,8.7,10,246.8,13 / 21,2146024,2019-08-16 13:24:59:804,-0.1173,-0.5847,9.7711,0.0102,-0.0009,9.8066,0.0032,-0.0389,-0.0154,-4.33,29.64,-1.62,261.1,10.07,4.09
21461,51.5524,-2.547557,100,8.7,10,246.8,13 / 21,2146123,2019-08-16 13:24:59:903,-0.3042,-0.1477,10.0913,0.036,0.0189,9.8066,-0.0363,-0.0133,0.0048,-4.89,29.58,-0.94,261.1,10.07,4.09
21462,51.5524,-2.547557,100,8.7,10,246.8,13 / 21,2146223,2019-08-16 13:25:00:003,-0.0906,-0.1047,9.1108,0.053,0.0485,9.8064,-0.0064,-0.008,0.0037,-4.33,29.64,-1.62,261.12,10.4,3.82
21463,51.5524,-2.547557,100,8.7,10,246.8,13 / 21,2146323,2019-08-16 13:25:00:103,0.0529,0.1014,9.8157,0.0115,0.0276,9.8066,-0.0064,-0.008,0.0037,-4.33,29.64,-1.62,261.12,10.4,3.82
21464,51.5524,-2.547557,100,8.7,10,246.8,13 / 21,2146423,2019-08-16 13:25:00:203,0.1097,0.0451,9.9192,0.0111,0.0174,9.8066,-0.0043,0.008,-0.0016,-4.24,29.66,-1.59,261.11,10.57,3.78
21465,51.5524,-2.547557,100,8.7,10,246.8,13 / 21,2146522,2019-08-16 13:25:00:302,-0.0124,0.0687,10.2226,0.0186,0.032,9.8066,-0.0203,-0.0304,-0.009,-4.97,29.49,-2.32,258.93,10.77,3.7
21466,51.5524,-2.547557,100,8.7,10,246.8,13 / 21,2146623,2019-08-16 13:25:00:403,0.0618,0.151,9.6466,0.0031,0.0206,9.8066,0.0181,0.0271,-0.0176,-4.97,29.49,-2.32,258.93,10.77,3.7
21467,51.5524,-2.547557,100,8.7,10,246.8,13 / 21,2146723,2019-08-16 13:25:00:503,0.0691,-0.04,9.7197,-0.0024,0.0038,9.8066,0.0053,0.0485,0.0069,-4.41,29.63,-1.65,261.09,10.89,3.71
21468,51.552364,-2.547666,100,8.45,10,247.0,13 / 21,2146823,2019-08-16 13:25:00:603,-0.0871,-0.2218,9.7943,-0.0156,-0.016,9.8066,-0.0032,0.0101,-0.0058,-4.5,29.64,-0.98,259.62,10.78,3.79
21469,51.552364,-2.547666,100,8.45,10,247.0,13 / 21,2146923,2019-08-16 13:25:00:703,-0.0406,-0.4421,9.2015,0.0043,-0.0176,9.8066,0.0138,-0.0005,-0.0112,-3.83,29.71,-1.65,259.62,10.78,3.79
21470,51.552364,-2.547666,100,8.45,10,247.0,13 / 21,2147022,2019-08-16 13:25:00:802,-0.2119,-0.0759,10.2465,0.0031,-0.0056,9.8066,0.0032,0.009,-0.0037,-3.91,29.73,-0.99,261.47,10.74,3.72
21471,51.552364,-2.547666,100,8.45,10,247.0,13 / 21,2147123,2019-08-16 13:25:00:903,0.2577,-0.2718,9.7909,-0.0065,-0.0059,9.8066,0.0032,0.009,-0.0037,-3.91,29.73,-0.99,261.47,10.74,3.72
21472,51.552364,-2.547666,100,8.45,10,247.0,13 / 21,2147223,2019-08-16 13:25:01:003,0.0836,-0.3135,9.633,-0.0022,0.0013,9.8066,-0.0203,-0.0219,-0.0027,-3.83,29.71,-1.65,261.1,10.7,3.75
21473,51.552364,-2.547666,100,8.45,10,247.0,13 / 21,2147322,2019-08-16 13:25:01:102,-0.1331,-0.1467,9.9923,-0.0033,0.0249,9.8066,-0.0075,0.0208,-0.0016,-4.33,29.64,-1.62,261.1,10.7,3.75
21474,51.552364,-2.547666,100,8.45,10,247.0,13 / 21,2147422,2019-08-16 13:25:01:202,0.0603,-0.1139,9.8065,-0.0001,0.0088,9.8066,0.0223,0.0218,-0.0208,-3.89,29.6,-2.98,260.71,10.84,3.8
21475,51.552364,-2.547666,100,8.45,10,247.0,13 / 21,2147523,2019-08-16 13:25:01:303,0.0306,-0.1642,9.6233,0.0093,0.0004,9.8066,-0.0118,0.008,-0.0122,-3.82,29.61,-2.92,260.72,10.85,3.74
21476,51.552364,-2.547666,100,8.45,10,247.0,13 / 21,2147623,2019-08-16 13:25:01:403,-0.3596,0.2189,10.1414,0.0044,-0.0138,9.8066,-0.0171,0.0495,-0.0016,-4.98,29.5,-2.23,259.27,10.78,3.7
21477,51.552364,-2.547666,100,8.45,10,247.0,13 / 21,2147723,2019-08-16 13:25:01:503,0.0526,-0.0482,9.6983,-0.004,0.0004,9.8067,0.0064,-0.0421,-0.009,-4.98,29.5,-2.23,259.27,10.78,3.7
21478,51.552326,-2.547768,101,8.16,10,247.3,13 / 21,2147822,2019-08-16 13:25:01:602,0.0795,-0.3184,9.5547,0.002,-0.0101,9.8066,0.0213,-0.0442,0.0027,-3.75,29.68,-2.29,261.12,10.72,3.68
21479,51.552326,-2.547768,101,8.16,10,247.3,13 / 21,2147923,2019-08-16 13:25:01:703,-0.0106,-0.2456,9.6551,-0.0098,-0.0127,9.8066,0.0213,-0.0442,0.0027,-4.4,29.58,-2.33,261.11,10.76,3.69
21480,51.552326,-2.547768,101,8.16,10,247.3,13 / 21,2148023,2019-08-16 13:25:01:803,0.0911,0.0565,9.2743,-0.0039,-0.0055,9.8066,0.0064,-0.0346,-0.0112,-4.4,29.58,-2.33,261.11,10.76,3.69
21481,51.552326,-2.547768,101,8.16,10,247.3,13 / 21,2148122,2019-08-16 13:25:01:902,0.164,-0.4094,10.0547,0.0073,0.0136,9.8066,0.0053,-0.0187,0.0027,-4.98,29.54,-1.64,259.28,10.73,3.71
21482,51.552326,-2.547768,101,8.16,10,247.3,13 / 21,2148223,2019-08-16 13:25:02:003,0.1486,0.0898,9.1762,0.0068,0.01,9.8066,-0.0043,0.0335,-0.0133,-4.41,29.63,-1.65,261.11,10.79,3.68
21483,51.552326,-2.547768,101,8.16,10,247.3,13 / 21,2148323,2019-08-16 13:25:02:103,-0.1044,-0.2896,10.4847,-0.01,-0.007,9.8066,0.0319,-0.0059,-0.0112,-4.41,29.63,-1.65,261.11,10.79,3.68
21484,51.552326,-2.547768,101,8.16,10,247.3,13 / 21,2148423,2019-08-16 13:25:02:203,0.0213,0.0944,9.786,-0.0154,-0.0063,9.8066,-0.0128,0.0165,-0.0037,-4.99,29.58,0.31,260.0,10.74,3.77
21485,51.552326,-2.547768,101,8.16,10,247.3,13 / 21,2148524,2019-08-16 13:25:02:304,0.0336,0.152,9.9821,-0.0006,-0.0076,9.8066,-0.0075,0.0261,-0.0048,-4.99,29.58,0.31,260.0,10.74,3.77
21486,51.552326,-2.547768,101,8.16,10,247.3,13 / 21,2148623,2019-08-16 13:25:02:403,-0.1248,0.3709,9.4961,-0.004,0.0034,9.8066,0.0181,-0.0272,-0.0133,-4.33,29.68,-0.27,261.83,10.7,3.76
21487,51.552326,-2.547768,101,8.16,10,247.3,13 / 21,2148723,2019-08-16 13:25:02:503,-0.0385,0.0092,9.9375,-0.0015,-0.002,9.8066,-0.0043,0.009,-0.0101,-4.5,29.62,-1.58,261.1,10.68,3.77
21488,51.552303,-2.547861,100,7.61,10,247.9,13 / 20,2148823,2019-08-16 13:25:02:603,-0.2884,0.0405,9.7469,-0.0015,-0.0073,9.8066,-0.0043,0.009,-0.0101,-4.41,29.63,-1.65,261.1,10.68,3.77
21489,51.552303,-2.547861,100,7.61,10,247.9,13 / 20,2148923,2019-08-16 13:25:02:703,0.1558,-0.2596,9.3748,-0.0048,0.0001,9.8066,-0.0363,0.0186,-0.0037,-4.41,29.63,-1.65,261.1,10.68,3.77
21490,51.552303,-2.547861,100,7.61,10,247.9,13 / 20,2149023,2019-08-16 13:25:02:803,-0.0858,0.3619,10.3018,-0.0009,-0.0087,9.8066,-0.0139,0.0325,0.0027,-4.99,29.58,-0.28,259.99,10.68,3.8
21491,51.552303,-2.547861,100,7.61,10,247.9,13 / 20,2149123,2019-08-16 13:25:02:903,0.1465,-0.0868,9.4478,0.0038,0.0007,9.8066,-0.0267,0.0144,0.0016,-3.84,29.75,-0.28,261.83,10.63,3.8
21492,51.552303,-2.547861,100,7.61,10,247.9,13 / 20,2149223,2019-08-16 13:25:03:003,0.0187,-0.3974,9.7033,0.0084,-0.0051,9.8066,0.0191,-0.0176,-0.009,-3.84,29.75,-0.28,261.83,10.63,3.8
21493,51.552303,-2.547861,100,7.61,10,247.9,13 / 20,2149323,2019-08-16 13:25:03:103,-0.0159,0.0647,9.812,0.003,-0.0062,9.8066,0.0,0.0474,-0.0069,-3.91,29.73,-0.88,261.48,10.61,3.74
21494,51.552303,-2.547861,100,7.61,10,247.9,13 / 20,2149422,2019-08-16 13:25:03:202,0.2091,-0.1452,9.5858,0.0077,-0.0116,9.8066,0.0085,0.0112,-0.0016,-3.84,29.74,-0.87,261.49,10.55,3.69
21495,51.552303,-2.547861,100,7.61,10,247.9,13 / 20,2149523,2019-08-16 13:25:03:303,-0.1008,0.2219,10.216,-0.0026,-0.0088,9.8066,0.0181,-0.0559,-0.0069,-4.41,29.66,-0.96,261.49,10.55,3.69
21496,51.552303,-2.547861,100,7.61,10,247.9,13 / 20,2149623,2019-08-16 13:25:03:403,-0.1791,0.2506,10.3267,-0.0041,-0.0121,9.8066,-0.0011,-0.008,-0.0122,-4.41,29.66,-0.96,261.5,10.47,3.7
21497,51.552303,-2.547861,100,7.61,10,247.9,13 / 20,2149723,2019-08-16 13:25:03:503,-0.0309,-0.0362,9.366,0.0031,0.0131,9.8066,-0.0011,-0.008,-0.0122,-4.41,29.66,-0.96,261.5,10.47,3.7
21498,51.55228,-2.547959,101,7.35,10,248.3,13 / 21,2149823,2019-08-16 13:25:03:603,0.2084,-0.1758,9.7213,-0.0024,-0.0014,9.8067,-0.0011,0.0442,-0.0058,-3.82,29.62,-2.82,260.77,10.55,3.69
21499,51.55228,-2.547959,101,7.35,10,248.3,13 / 21,2149923,2019-08-16 13:25:03:703,0.1466,-0.0014,10.2586,-0.0003,-0.0021,9.8067,-0.015,-0.0048,-0.0005,-3.84,29.74,-0.87,261.49,10.54,3.71
21500,51.55228,-2.547959,101,7.35,10,248.3,13 / 21,2150023,2019-08-16 13:25:03:803,-0.0479,0.001,10.1675,0.0028,-0.0043,9.8066,0.0181,0.0144,-0.0058,-4.33,29.67,-0.85,261.5,10.52,3.69
21501,51.55228,-2.547959,101,7.35,10,248.3,13 / 21,2150123,2019-08-16 13:25:03:903,-0.0499,-0.0933,9.9472,0.0028,-0.0079,9.8066,-0.0032,0.0314,-0.009,-4.33,29.67,-0.85,261.5,10.52,3.69
21502,51.55228,-2.547959,101,7.35,10,248.3,13 / 21,2150223,2019-08-16 13:25:04:003,-0.028,-0.1967,9.6324,0.008,-0.0001,9.8066,-0.0011,0.0026,-0.009,-4.42,29.67,-0.28,261.86,10.47,3.66
21503,51.55228,-2.547959,101,7.35,10,248.3,13 / 21,2150323,2019-08-16 13:25:04:103,-0.366,-0.0045,9.9968,0.007,-0.0085,9.8066,-0.0075,0.0133,-0.0133,-3.76,29.72,-1.52,261.16,10.43,3.61
21504,51.55228,-2.547959,101,7.35,10,248.3,13 / 21,2150423,2019-08-16 13:25:04:203,-0.0205,0.1819,9.789,0.0005,-0.0048,9.8066,-0.0032,0.0016,-0.009,-3.76,29.72,-1.52,261.16,10.43,3.61
21505,51.55228,-2.547959,101,7.35,10,248.3,13 / 21,2150523,2019-08-16 13:25:04:303,-0.3144,-0.0184,10.0539,0.0019,-0.0006,9.8067,-0.0032,0.0016,-0.009,-3.39,29.81,-0.29,263.73,10.4,3.61
21506,51.55228,-2.547959,101,7.35,10,248.3,13 / 21,2150622,2019-08-16 13:25:04:402,-0.1808,0.0655,9.2463,0.0058,-0.0051,9.8066,0.0127,-0.0038,-0.0027,-3.83,29.71,-1.55,261.17,10.38,3.57
21507,51.55228,-2.547959,101,7.35,10,248.3,13 / 21,2150724,2019-08-16 13:25:04:504,0.1634,-0.2868,9.5809,-0.0154,-0.0139,9.8066,-0.0054,-0.0261,-0.0122,-3.83,29.71,-1.55,261.17,10.38,3.57
21508,51.552265,-2.548049,101,6.95,10,248.7,13 / 21,2150823,2019-08-16 13:25:04:603,-0.0465,0.2008,9.2674,-0.0055,-0.0056,9.8066,0.0042,0.0208,0.0048,-3.84,29.74,-0.87,261.52,10.28,3.65
21509,51.552265,-2.548049,101,6.95,10,248.7,13 / 21,2150923,2019-08-16 13:25:04:703,-0.0331,-0.3287,9.5523,-0.0061,-0.0121,9.8066,-0.0171,0.0154,-0.0005,-4.41,29.63,-1.55,261.17,10.25,3.67
21510,51.552265,-2.548049,101,6.95,10,248.7,13 / 21,2151023,2019-08-16 13:25:04:803,0.315,0.3791,9.4122,-0.0177,-0.0155,9.8066,-0.0064,-0.0176,-0.0037,-3.91,29.7,-1.58,261.17,10.25,3.67
21511,51.552265,-2.548049,101,6.95,10,248.7,13 / 21,2151123,2019-08-16 13:25:04:903,-0.1475,-0.0966,9.7376,-0.0122,-0.0208,9.8066,0.0351,0.0314,-0.0112,-3.84,29.74,-0.87,261.52,10.12,3.73
21512,51.552265,-2.548049,101,6.95,10,248.7,13 / 21,2151224,2019-08-16 13:25:05:004,-0.1186,-0.7253,10.2803,-0.0058,-0.0043,9.8066,0.0106,-0.0251,-0.0112,-3.84,29.74,-0.87,261.52,10.12,3.73
21513,51.552265,-2.548049,101,6.95,10,248.7,13 / 21,2151323,2019-08-16 13:25:05:103,-0.1312,-0.3895,10.3716,-0.0063,-0.0168,9.8066,0.0106,-0.0251,-0.0112,-3.13,29.82,-0.84,263.37,10.09,3.76
21514,51.552265,-2.548049,101,6.95,10,248.7,13 / 21,2151424,2019-08-16 13:25:05:204,-0.1021,-0.345,9.6625,-0.0186,-0.0187,9.8066,0.0234,0.0037,-0.0037,-4.33,29.68,-0.27,263.37,10.09,3.76
21515,51.552265,-2.548049,101,6.95,10,248.7,13 / 21,2151523,2019-08-16 13:25:05:303,0.137,0.3817,9.5085,-0.0246,-0.0312,9.8066,-0.0022,-0.0006,0.0091,-4.41,29.63,-1.55,261.16,9.89,3.88
21516,51.552265,-2.548049,101,6.95,10,248.7,13 / 21,2151623,2019-08-16 13:25:05:403,-0.0876,0.3821,9.7638,0.0008,-0.0022,9.8067,-0.0256,0.0112,-0.0005,-3.76,29.75,-0.85,261.5,9.84,3.9
21517,51.552265,-2.548049,101,6.95,10,248.7,13 / 21,2151723,2019-08-16 13:25:05:503,0.2768,-0.321,9.5666,0.0062,-0.0137,9.8066,0.001,0.0431,-0.0016,-3.76,29.72,-1.52,261.5,9.84,3.9
21518,51.55224,-2.548138,101,6.68,10,248.9,13 / 21,2151823,2019-08-16 13:25:05:603,-0.099,0.0327,10.5447,-0.0061,-0.0004,9.8067,-0.0064,-0.0304,-0.0069,-3.76,29.72,-1.52,261.5,9.84,3.9
21519,51.55224,-2.548138,101,6.68,10,248.9,13 / 21,2151923,2019-08-16 13:25:05:703,0.1422,0.4161,9.7894,-0.0009,-0.0013,9.8067,0.0106,0.0367,0.0048,-4.33,29.67,-0.85,261.5,9.83,3.94
21520,51.55224,-2.548138,101,6.68,10,248.9,13 / 21,2152023,2019-08-16 13:25:05:803,0.1609,-0.5249,10.0711,-0.0011,-0.0088,9.8066,0.0106,0.0367,0.0048,-3.76,29.76,0.4,261.84,9.78,3.94
21521,51.55224,-2.548138,101,6.68,10,248.9,13 / 21,2152123,2019-08-16 13:25:05:903,-0.2211,0.1632,10.4445,-0.0186,-0.0013,9.8066,-0.0405,0.0176,0.0133,-3.76,29.76,0.4,261.84,9.78,3.94
21522,51.55224,-2.548138,101,6.68,10,248.9,13 / 21,2152223,2019-08-16 13:25:06:003,-0.2794,0.4906,9.9434,-0.0205,0.0037,9.8066,0.0127,-0.0378,-0.0133,-3.69,29.77,0.39,261.82,9.78,4.06
21523,51.55224,-2.548138,101,6.68,10,248.9,13 / 21,2152323,2019-08-16 13:25:06:103,0.193,0.1446,9.3793,0.0142,-0.0023,9.8066,0.0149,0.0101,0.0027,-3.84,29.75,-0.18,261.83,9.78,3.98
21524,51.55224,-2.548138,101,6.68,10,248.9,13 / 21,2152423,2019-08-16 13:25:06:203,-0.0216,-0.2705,9.8786,-0.0064,-0.0048,9.8066,0.0032,0.0271,-0.0048,-3.84,29.75,-0.18,261.83,9.78,3.98
21525,51.55224,-2.548138,101,6.68,10,248.9,13 / 21,2152523,2019-08-16 13:25:06:303,-0.2824,-0.0159,10.5101,-0.007,-0.0104,9.8066,0.017,-0.0123,-0.0016,-4.25,29.69,-0.83,261.83,9.78,3.98
21526,51.55224,-2.548138,101,6.68,10,248.9,13 / 21,2152623,2019-08-16 13:25:06:403,0.0136,0.038,10.436,0.005,-0.0067,9.8066,-0.0032,0.0005,-0.0016,-4.42,29.67,-0.18,261.83,9.71,4.01
21527,51.55224,-2.548138,101,6.68,10,248.9,13 / 21,2152723,2019-08-16 13:25:06:503,0.2613,-0.0064,9.7686,-0.0012,-0.007,9.8066,-0.0032,0.0005,-0.0016,-4.33,29.67,-0.85,261.5,9.67,4.01
21528,51.55221,-2.548231,101,6.53,10,248.9,13 / 21,2152823,2019-08-16 13:25:06:603,-0.2597,-0.3338,9.5445,0.0016,-0.0148,9.8066,-0.0224,-0.0006,0.0005,-3.69,29.76,-0.84,261.5,9.67,4.01
21529,51.55221,-2.548231,101,6.53,10,248.9,13 / 21,2152922,2019-08-16 13:25:06:702,-0.2576,-0.0194,10.0734,-0.0005,0.0082,9.8066,0.0223,-0.0219,-0.0058,-4.24,29.62,-2.15,261.18,9.59,3.99
21530,51.55221,-2.548231,101,6.53,10,248.9,13 / 21,2153024,2019-08-16 13:25:06:804,0.0861,0.3095,10.2606,-0.0031,0.0117,9.8066,-0.0224,0.008,-0.0005,-4.24,29.62,-2.15,261.18,9.59,3.99
21531,51.55221,-2.548231,101,6.53,10,248.9,13 / 21,2153123,2019-08-16 13:25:06:903,0.092,-0.2472,9.4585,0.0121,-0.012,9.8066,-0.0331,0.0559,0.0144,-2.61,29.85,-1.53,263.02,9.65,4.01
21532,51.55221,-2.548231,101,6.53,10,248.9,13 / 21,2153223,2019-08-16 13:25:07:003,-0.3563,0.1275,9.9226,0.017,-0.0178,9.8066,-0.0171,0.0048,-0.0027,-3.83,29.71,-1.55,261.2,9.56,3.9
21533,51.55221,-2.548231,101,6.53,10,248.9,13 / 21,2153323,2019-08-16 13:25:07:103,-0.1538,-0.1313,9.6629,0.0055,0.0041,9.8066,0.017,-0.0219,-0.008,-3.25,29.79,-1.46,263.39,9.59,3.87
21534,51.55221,-2.548231,101,6.53,10,248.9,13 / 21,2153423,2019-08-16 13:25:07:203,0.0577,-0.2577,9.3235,0.0014,0.0073,9.8066,-0.0203,0.0144,-0.0037,-3.25,29.79,-1.46,263.39,9.59,3.87
21535,51.55221,-2.548231,101,6.53,10,248.9,13 / 21,2153523,2019-08-16 13:25:07:303,0.168,-0.2879,9.4317,-0.0038,0.0006,9.8067,-0.0203,0.0144,-0.0037,-3.19,29.8,-1.43,263.38,9.63,3.87
21536,51.55221,-2.548231,101,6.53,10,248.9,13 / 21,2153623,2019-08-16 13:25:07:403,-0.0289,0.0926,10.09,-0.0035,-0.0017,9.8067,-0.0043,-0.0101,0.0059,-3.75,29.64,-2.77,263.38,9.63,3.87
21537,51.55221,-2.548231,101,6.53,10,248.9,13 / 21,2153723,2019-08-16 13:25:07:503,-0.1247,-0.0243,9.8191,0.0012,0.0086,9.8066,0.0127,-0.0325,-0.0133,-4.25,29.67,-1.4,261.52,9.62,3.89
21538,51.552185,-2.548319,102,6.32,10,248.9,13 / 20,2153823,2019-08-16 13:25:07:603,0.059,-0.0292,10.123,0.006,-0.0081,9.8066,0.0,-0.0091,-0.0069,-4.25,29.69,-0.83,261.52,9.67,3.89
21539,51.552185,-2.548319,102,6.32,10,248.9,13 / 20,2153923,2019-08-16 13:25:07:703,0.0946,-0.047,10.0424,0.0136,-0.0117,9.8066,-0.0235,-0.0101,0.0016,-4.25,29.69,-0.83,261.52,9.67,3.89
21540,51.552185,-2.548319,102,6.32,10,248.9,13 / 20,2154023,2019-08-16 13:25:07:803,0.2168,-0.0854,9.4499,0.0021,-0.0035,9.8066,-0.0107,0.0399,-0.0048,-3.13,29.8,-1.4,263.4,9.61,3.8
21541,51.552185,-2.548319,102,6.32,10,248.9,13 / 20,2154123,2019-08-16 13:25:07:903,-0.1788,-0.2564,10.068,-0.0061,-0.0075,9.8066,-0.016,0.0357,0.0059,-4.33,29.67,-0.85,263.4,9.61,3.8
21542,51.552185,-2.548319,102,6.32,10,248.9,13 / 20,2154223,2019-08-16 13:25:08:003,0.2637,0.2674,10.0372,-0.0026,-0.0088,9.8066,0.0159,-0.0006,-0.0058,-3.13,29.83,0.49,263.73,9.56,3.81
21543,51.552185,-2.548319,102,6.32,10,248.9,13 / 20,2154324,2019-08-16 13:25:08:104,0.0198,0.0613,10.2232,-0.0011,-0.0097,9.8066,0.0159,-0.0006,-0.0058,-3.13,29.83,0.49,263.73,9.56,3.81
21544,51.552185,-2.548319,102,6.32,10,248.9,13 / 20,2154423,2019-08-16 13:25:08:203,-0.2771,-0.1038,10.1206,-0.0063,-0.0197,9.8066,-0.0022,0.0367,-0.0005,-3.26,29.82,-0.18,263.73,9.44,3.83
21545,51.552185,-2.548319,102,6.32,10,248.9,13 / 20,2154523,2019-08-16 13:25:08:303,-0.1102,0.061,9.7936,0.0001,-0.0076,9.8067,-0.0299,-0.0421,0.0037,-3.26,29.82,-0.18,263.73,9.44,3.83
21546,51.552185,-2.548319,102,6.32,10,248.9,13 / 20,2154624,2019-08-16 13:25:08:404,0.2766,0.0961,9.5379,0.0002,-0.003,9.8066,0.017,-0.0251,-0.0037,-2.57,29.89,-0.17,263.73,9.4,3.83
21547,51.552185,-2.548319,102,6.32,10,248.9,13 / 20,2154723,2019-08-16 13:25:08:503,-0.3184,0.0592,9.6882,-0.011,-0.0075,9.8066,-0.0245,-0.0016,0.0005,-3.07,29.84,0.48,263.73,9.4,3.83
21548,51.55217,-2.548405,101,6.01,10,249.0,13 / 21,2154823,2019-08-16 13:25:08:603,-0.0919,0.0923,9.3059,0.0047,-0.0024,9.8067,0.0074,0.0037,0.0048,-1.96,29.94,-0.17,265.6,9.35,3.89
21549,51.55217,-2.548405,101,6.01,10,249.0,13 / 21,2154923,2019-08-16 13:25:08:703,-0.265,-0.3094,10.345,-0.0005,-0.0092,9.8066,0.0159,-0.0016,-0.0112,-2.52,29.89,0.48,263.73,9.34,3.86
21550,51.55217,-2.548405,101,6.01,10,249.0,13 / 21,2155023,2019-08-16 13:25:08:803,0.1821,0.0064,9.8863,-0.0066,-0.0122,9.8066,0.0042,0.0133,0.0016,-2.52,29.89,0.48,263.73,9.34,3.86
21551,51.55217,-2.548405,101,6.01,10,249.0,13 / 21,2155123,2019-08-16 13:25:08:903,0.1573,-0.3685,9.5766,-0.0063,-0.0206,9.8066,0.0042,0.0133,0.0016,-3.02,29.84,0.47,263.73,9.26,3.89
21552,51.55217,-2.548405,101,6.01,10,249.0,13 / 21,2155223,2019-08-16 13:25:09:003,-0.4758,0.2188,10.252,-0.0088,-0.0296,9.8066,0.0298,-0.0432,-0.0005,-2.47,29.89,0.47,265.61,9.08,3.92
21553,51.55217,-2.548405,101,6.01,10,249.0,13 / 21,2155323,2019-08-16 13:25:09:103,0.1791,-0.497,9.8254,0.0005,-0.0018,9.8067,0.0096,-0.0304,0.0059,-2.52,29.89,0.48,265.61,9.08,3.92
21554,51.55217,-2.548405,101,6.01,10,249.0,13 / 21,2155423,2019-08-16 13:25:09:203,-0.0202,0.4205,9.4894,-0.0026,-0.0216,9.8066,0.0096,0.0112,0.0027,-2.47,29.89,0.47,265.61,8.96,3.93
21555,51.55217,-2.548405,101,6.01,10,249.0,13 / 21,2155523,2019-08-16 13:25:09:303,-0.1052,-0.6097,10.7177,-0.0108,-0.0208,9.8066,0.0053,0.0378,0.0037,-2.47,29.89,0.47,265.61,8.96,3.93
21556,51.55217,-2.548405,101,6.01,10,249.0,13 / 21,2155623,2019-08-16 13:25:09:403,-0.2049,0.4285,9.1903,-0.0017,-0.0044,9.8066,0.0096,-0.0336,-0.0005,-2.52,29.89,-0.08,263.74,8.83,3.98
21557,51.55217,-2.548405,101,6.01,10,249.0,13 / 21,2155722,2019-08-16 13:25:09:502,0.3819,-0.2172,10.085,-0.0015,-0.0279,9.8066,0.0117,0.0346,-0.009,-2.52,29.89,0.48,263.74,8.83,3.98
21558,51.55214,-2.548478,101,5.92,9,249.0,13 / 21,2155823,2019-08-16 13:25:09:603,0.0709,-0.5627,9.5654,-0.0178,-0.0042,9.8066,-0.048,0.0239,0.0016,-2.52,29.89,-0.17,263.75,8.67,3.97
21559,51.55214,-2.548478,101,5.92,9,249.0,13 / 21,2155923,2019-08-16 13:25:09:703,-0.2362,-0.337,9.4891,-0.0112,-0.0216,9.8066,-0.048,0.0239,0.0016,-2.47,29.9,-0.08,263.75,8.67,3.97
21560,51.55214,-2.548478,101,5.92,9,249.0,13 / 21,2156023,2019-08-16 13:25:09:803,-0.1715,0.078,9.4857,-0.0071,-0.0331,9.8066,0.033,0.0261,-0.009,-1.93,29.93,0.47,265.63,8.47,3.99
21561,51.55214,-2.548478,101,5.92,9,249.0,13 / 21,2156123,2019-08-16 13:25:09:903,0.1852,-0.0261,9.3761,-0.0033,-0.0153,9.8066,-0.0118,0.0176,0.0069,-1.93,29.93,0.47,265.63,8.47,3.99
21562,51.55214,-2.548478,101,5.92,9,249.0,13 / 21,2156223,2019-08-16 13:25:10:003,0.0916,0.1755,9.7826,-0.0039,-0.0297,9.8066,0.0064,-0.0442,-0.009,-1.96,29.93,0.48,265.64,8.3,4.0
21563,51.55214,-2.548478,101,5.92,9,249.0,13 / 21,2156324,2019-08-16 13:25:10:104,-0.0477,0.3813,9.7142,-0.0023,-0.0085,9.8066,-0.0075,0.0282,-0.0037,-2.47,29.9,-0.17,265.64,8.25,4.01
21564,51.55214,-2.548478,101,5.92,9,249.0,13 / 21,2156422,2019-08-16 13:25:10:202,0.3101,0.2046,9.3224,-0.0027,-0.0249,9.8066,-0.0341,0.0176,-0.0016,-2.47,29.9,-0.17,265.64,8.25,4.01
21565,51.55214,-2.548478,101,5.92,9,249.0,13 / 21,2156523,2019-08-16 13:25:10:303,0.2809,-0.3765,9.6219,-0.0033,-0.0131,9.8066,0.0191,-0.0027,-0.0133,-1.38,29.97,-0.08,267.54,8.1,4.02
21566,51.55214,-2.548478,101,5.92,9,249.0,13 / 21,2156623,2019-08-16 13:25:10:403,-0.2282,0.0797,10.0255,0.0011,-0.0188,9.8066,-0.0054,-0.0464,0.0027,-1.96,29.93,0.48,265.65,8.02,4.03
21567,51.55214,-2.548478,101,5.92,9,249.0,13 / 21,2156724,2019-08-16 13:25:10:504,-0.243,-0.1955,9.4454,-0.0013,-0.015,9.8066,-0.0054,-0.0464,0.0027,-1.96,29.93,0.48,265.66,7.91,4.02
21568,51.55212,-2.548551,101,5.86,10,249.0,13 / 21,2156823,2019-08-16 13:25:10:603,0.0689,-0.4677,9.7664,0.0012,-0.0285,9.8066,-0.0064,0.008,-0.0069,-1.96,29.93,0.48,265.66,7.91,4.02
21569,51.55212,-2.548551,101,5.86,10,249.0,13 / 21,2156923,2019-08-16 13:25:10:703,0.065,0.1787,10.0832,-0.0032,-0.0103,9.8066,0.0021,-0.0027,-0.0037,-2.0,29.93,0.49,265.67,7.75,4.0
21570,51.55212,-2.548551,101,5.86,10,249.0,13 / 21,2157023,2019-08-16 13:25:10:803,-0.3239,-0.0762,9.847,-0.0057,-0.0187,9.8066,0.017,0.0303,-0.0016,-1.93,29.93,0.47,265.68,7.64,4.02
21571,51.55212,-2.548551,101,5.86,10,249.0,13 / 21,2157124,2019-08-16 13:25:10:904,0.1045,-0.2241,9.9863,-0.0012,-0.0161,9.8066,0.0074,0.0133,0.0027,-1.93,29.93,0.47,265.68,7.64,4.02
21572,51.55212,-2.548551,101,5.86,10,249.0,13 / 21,2157223,2019-08-16 13:25:11:003,0.0851,-0.2948,9.4403,-0.0021,-0.0309,9.8066,-0.0096,0.0144,0.008,-2.0,29.93,0.49,265.69,7.45,4.02
21573,51.55212,-2.548551,101,5.86,10,249.0,13 / 21,2157323,2019-08-16 13:25:11:103,0.0401,-0.0274,9.5083,0.0037,-0.0148,9.8066,-0.0043,-0.0006,-0.0005,-1.43,29.95,1.06,267.83,7.43,4.04
21574,51.55212,-2.548551,101,5.86,10,249.0,13 / 21,2157423,2019-08-16 13:25:11:203,-0.2559,-0.1837,10.2881,0.0089,-0.0329,9.8066,0.0,-0.0187,0.0027,-1.96,29.94,-0.17,267.83,7.43,4.04
21575,51.55212,-2.548551,101,5.86,10,249.0,13 / 21,2157524,2019-08-16 13:25:11:304,0.1796,0.1042,9.4796,0.0109,-0.0413,9.8066,0.0,-0.0187,0.0027,-1.96,29.94,-0.17,267.83,7.43,4.04
21576,51.55212,-2.548551,101,5.86,10,249.0,13 / 21,2157623,2019-08-16 13:25:11:403,0.233,-0.1153,9.5122,-0.0024,-0.0035,9.8067,0.001,0.0122,-0.0016,-0.86,29.98,0.49,267.6,7.19,3.97
21577,51.55212,-2.548551,101,5.86,10,249.0,13 / 21,2157723,2019-08-16 13:25:11:503,-0.1606,-0.2852,9.7544,0.0039,-0.0152,9.8066,0.0181,0.0133,-0.0005,-0.38,29.99,-0.75,267.6,7.19,3.97
21578,51.552113,-2.548635,101,5.93,10,249.3,13 / 21,2157823,2019-08-16 13:25:11:603,0.2149,0.0359,9.8046,0.0028,-0.0122,9.8066,0.017,0.0122,-0.0037,-0.39,29.99,-0.76,269.27,7.11,3.94
21579,51.552113,-2.548635,101,5.93,10,249.3,13 / 21,2157923,2019-08-16 13:25:11:703,0.2266,0.0544,9.605,-0.0076,-0.018,9.8066,0.0,0.009,-0.0059,-0.39,29.99,-0.76,269.27,7.11,3.94
21580,51.552113,-2.548635,101,5.93,10,249.3,13 / 21,2158023,2019-08-16 13:25:11:803,-0.0263,-0.2029,9.5345,0.0056,-0.0021,9.8066,-0.032,0.0016,-0.0016,-0.9,29.99,-0.18,267.62,7.0,3.98
21581,51.552113,-2.548635,101,5.93,10,249.3,13 / 21,2158123,2019-08-16 13:25:11:903,-0.1213,-0.4387,9.5341,0.0126,-0.0168,9.8066,-0.032,0.0016,-0.0016,-0.88,29.99,-0.08,267.63,6.91,3.9
21582,51.552113,-2.548635,101,5.93,10,249.3,13 / 21,2158224,2019-08-16 13:25:12:004,-0.0417,0.0061,9.9426,-0.0042,-0.0146,9.8066,0.0149,0.0389,0.0016,-0.39,29.99,-0.76,267.63,6.91,3.9
21583,51.552113,-2.548635,101,5.93,10,249.3,13 / 21,2158323,2019-08-16 13:25:12:103,-0.0808,-0.0518,9.8144,0.0038,-0.0133,9.8066,-0.0043,-0.0123,0.0069,-0.39,29.99,-0.76,267.63,6.91,3.9
