,GPS LATITUDE (degrees), GPS LONGITUDE (degrees), GPS ALTITUDE (m), GPS SPEED (Kmh), GPS ACCURACY (m), GPS ORIENTATION (Â°),GPS SATELLITES IN RANGE, TIME SINCE START (ms), DATE (YYYY-MO-DD HH-MI-SS_SSS), ACCELEROMETER X (m/s²) , ACCELEROMETER Y (m/s²), ACCELEROMETER Z (m/s²), GRAVITY X (m/s²), GRAVITY Y (m/s²), GRAVITY Z (m/s²), GYROSCOPE Yaw (rad/s), GYROSCOPE Pitch (rad/s), GYROSCOPE Roll (rad/s), MAGNETIC FIELD X (Î¼T), MAGNETIC FIELD Y (Î¼T), MAGNETIC FIELD Z (Î¼T), ORIENTATION (Yaw) (Â°), ORIENTATION (Pitch) (Â°), ORIENTATION (Roll ) (Â°)
54812,52.37737,-1.49201,101,21.3,9.0,96.2,15 / 24,5481241,2019-08-31 11:21:41:320,-0.0211,0.1486,10.5579,-0.0076,-0.0163,9.8066,0.0095,0.0665,-0.0091,-6.03,-24.37,-16.42,103.66,-0.59,0.04
54813,52.37737,-1.49201,101,21.3,9.0,96.2,15 / 24,5481341,2019-08-31 11:21:41:420,-0.1588,0.8797,10.1725,-0.0205,-0.0143,9.8066,-0.0054,0.0495,-0.0027,-6.03,-24.37,-16.42,103.66,-0.59,0.04
54814,52.37737,-1.49201,101,21.3,9.0,96.2,15 / 24,5481441,2019-08-31 11:21:41:520,0.3131,0.4196,9.2175,-0.0226,0.0413,9.8065,-0.0054,0.0495,-0.0027,-5.65,-24.11,-16.93,103.69,-0.53,-0.1
54815,52.37737,-1.49201,101,21.3,9.0,96.2,15 / 24,5481541,2019-08-31 11:21:41:620,-0.0215,0.021,11.088,-0.0436,0.0967,9.8061,-0.032,0.074,-0.0038,-7.03,-23.8,-16.86,105.54,-1.14,-0.21
54816,52.37737,-1.49201,101,21.3,9.0,96.2,15 / 24,5481641,2019-08-31 11:21:41:720,0.4276,1.1405,10.345,-0.034,0.0361,9.8065,-0.032,0.008,0.0058,-6.91,-24.15,-16.64,105.54,-1.14,-0.21
54817,52.37737,-1.49201,101,21.3,9.0,96.2,15 / 24,5481741,2019-08-31 11:21:41:820,-0.6403,0.0573,10.3645,-0.0522,0.063,9.8063,-0.0129,0.0474,-0.0113,-6.91,-24.15,-16.64,105.54,-1.14,-0.21
54818,52.37737,-1.49201,101,21.3,9.0,96.2,15 / 24,5481840,2019-08-31 11:21:41:919,-0.0625,0.3024,9.4082,-0.0727,0.0694,9.8061,0.0244,0.0591,-0.007,-7.03,-23.8,-16.86,105.25,-1.65,-0.51
54819,52.37737,-1.49201,101,21.3,9.0,96.2,15 / 24,5481941,2019-08-31 11:21:42:020,-0.2029,-0.4471,9.9828,0.0137,-0.0389,9.8066,0.033,0.0016,-0.0262,-7.57,-23.97,-16.37,105.25,-1.65,-0.51
54820,52.37734,-1.491697,100,20.85,9.0,96.7,15 / 24,5482114,2019-08-31 11:21:42:193,-0.2402,0.1835,8.1598,0.0081,-0.0031,9.8066,-0.0171,-0.0815,0.009,-6.72,-24.04,-16.65,105.41,-1.41,-0.49
54821,52.37734,-1.491697,100,20.85,9.0,96.7,15 / 24,5482141,2019-08-31 11:21:42:220,-0.1923,0.4985,10.5651,-0.0074,-0.0045,9.8066,-0.0629,0.0633,0.0037,-6.72,-24.06,-16.6,105.41,-1.41,-0.49
54822,52.37734,-1.491697,100,20.85,9.0,96.7,15 / 24,5482243,2019-08-31 11:21:42:322,-0.1322,0.3886,9.3542,-0.0694,0.072,9.8061,-0.0001,-0.0123,0.0164,-6.72,-24.06,-16.6,105.41,-1.41,-0.49
54823,52.37734,-1.491697,100,20.85,9.0,96.7,15 / 24,5482341,2019-08-31 11:21:42:420,0.0932,-0.0901,8.4289,0.0179,0.0401,9.8066,-0.0001,-0.0123,0.0164,-7.45,-23.6,-16.95,105.1,-1.92,-0.77
54824,52.37734,-1.491697,100,20.85,9.0,96.7,15 / 24,5482441,2019-08-31 11:21:42:520,0.148,0.284,10.3861,0.0282,0.0731,9.8063,0.0031,0.0239,0.0005,-7.45,-23.6,-16.95,105.1,-1.92,-0.77
54825,52.37734,-1.491697,100,20.85,9.0,96.7,15 / 24,5482541,2019-08-31 11:21:42:620,0.718,0.4824,10.0025,0.0148,0.0285,9.8066,-0.0224,0.0207,-0.0006,-7.89,-23.38,-17.07,107.73,-2.29,-0.5
54826,52.37734,-1.491697,100,20.85,9.0,96.7,15 / 24,5482641,2019-08-31 11:21:42:720,0.4091,0.3468,11.7754,0.0184,0.0661,9.8064,0.0319,-0.0187,-0.0091,-7.28,-23.91,-16.6,104.55,-2.63,-0.28
54827,52.37734,-1.491697,100,20.85,9.0,96.7,15 / 24,5482741,2019-08-31 11:21:42:820,-0.0521,0.0797,8.4643,0.0083,0.0036,9.8066,-0.0075,-0.0464,-0.0038,-7.21,-23.7,-16.92,104.55,-2.63,-0.28
54828,52.37734,-1.491697,100,20.85,9.0,96.7,15 / 24,5482841,2019-08-31 11:21:42:920,-0.1061,0.5704,9.2293,-0.0175,0.0186,9.8066,0.018,-0.008,-0.0017,-7.21,-23.7,-16.92,104.55,-2.63,-0.28
54829,52.37734,-1.491697,100,20.85,9.0,96.7,15 / 24,5482941,2019-08-31 11:21:43:020,0.0791,1.0178,9.5833,-0.0035,0.0093,9.8066,0.0138,-0.0059,0.0101,-7.74,-23.33,-17.2,107.38,-2.76,-0.35
54830,52.377308,-1.491393,97,20.77,9.0,97.1,15 / 24,5483042,2019-08-31 11:21:43:121,0.0235,-0.0332,10.4942,0.03,0.0055,9.8066,0.001,-0.0443,0.0186,-7.53,-23.45,-17.12,107.34,-2.82,-0.36
54831,52.377308,-1.491393,97,20.77,9.0,97.1,15 / 24,5483141,2019-08-31 11:21:43:220,-0.0105,0.1494,8.1726,0.0121,0.0093,9.8066,0.001,-0.0443,0.0186,-7.11,-23.35,-17.44,105.03,-2.79,-0.18
54832,52.377308,-1.491393,97,20.77,9.0,97.1,15 / 24,5483240,2019-08-31 11:21:43:319,-0.1656,-0.4085,9.0825,0.0056,0.0423,9.8066,0.001,0.0346,-0.0081,-6.74,-23.42,-17.49,105.03,-2.79,-0.18
54833,52.377308,-1.491393,97,20.77,9.0,97.1,15 / 24,5483341,2019-08-31 11:21:43:420,-0.0497,-0.1375,11.2671,0.005,0.0556,9.8065,0.0042,0.0207,0.0015,-7.14,-23.85,-16.74,104.2,-3.1,-0.06
54834,52.377308,-1.491393,97,20.77,9.0,97.1,15 / 24,5483441,2019-08-31 11:21:43:520,0.0196,0.4382,10.4109,-0.0007,0.0334,9.8066,0.0127,0.0463,-0.007,-7.09,-23.68,-17.01,104.2,-3.1,-0.06
54835,52.377308,-1.491393,97,20.77,9.0,97.1,15 / 24,5483541,2019-08-31 11:21:43:620,-0.0579,0.21,9.4996,0.0042,0.0603,9.8065,-0.0256,0.0122,0.0218,-7.09,-23.68,-17.01,104.2,-3.1,-0.06
54836,52.377308,-1.491393,97,20.77,9.0,97.1,15 / 24,5483640,2019-08-31 11:21:43:719,0.149,0.3771,10.9165,-0.0027,0.0303,9.8066,-0.0097,0.0047,0.0079,-8.04,-23.26,-17.15,106.85,-3.44,0.05
54837,52.377308,-1.491393,97,20.77,9.0,97.1,15 / 24,5483741,2019-08-31 11:21:43:820,0.3184,0.7641,10.6592,-0.0016,0.0404,9.8066,0.0415,-0.024,0.0069,-6.92,-23.66,-17.1,103.8,-3.66,0.1
54838,52.377308,-1.491393,97,20.77,9.0,97.1,15 / 24,5483842,2019-08-31 11:21:43:921,0.1171,-0.2035,8.1309,0.0261,-0.0213,9.8066,0.0266,-0.023,0.0005,-7.16,-23.53,-17.18,103.8,-3.66,0.1
54839,52.377308,-1.491393,97,20.77,9.0,97.1,15 / 24,5483941,2019-08-31 11:21:44:020,0.0814,0.0182,10.41,0.0587,-0.0205,9.8065,0.0266,-0.023,0.0005,-7.16,-23.53,-17.18,103.8,-3.66,0.1
54840,52.377285,-1.491098,97,20.72,9.0,97.0,15 / 24,5484041,2019-08-31 11:21:44:120,-0.2223,-0.2965,10.2399,0.0106,0.0149,9.8066,0.0085,0.0218,0.0111,-7.28,-23.91,-16.6,103.9,-3.47,0.41
54841,52.377285,-1.491098,97,20.72,9.0,97.0,15 / 24,5484141,2019-08-31 11:21:44:220,0.18,0.3546,10.8908,0.0293,0.0104,9.8066,0.0361,-0.0048,0.0058,-7.29,-23.55,-17.09,103.87,-3.48,0.59
54842,52.377285,-1.491098,97,20.72,9.0,97.0,15 / 24,5484241,2019-08-31 11:21:44:320,0.1192,-0.082,8.8822,0.014,0.0032,9.8066,-0.0022,-0.0443,0.0175,-7.29,-23.55,-17.09,103.87,-3.48,0.59
54843,52.377285,-1.491098,97,20.72,9.0,97.0,15 / 24,5484340,2019-08-31 11:21:44:419,0.2576,0.2577,9.9794,-0.0022,0.0345,9.8066,0.0159,0.0324,0.0005,-7.22,-23.73,-16.87,103.86,-3.48,0.67
54844,52.377285,-1.491098,97,20.72,9.0,97.0,15 / 24,5484441,2019-08-31 11:21:44:520,0.0653,-0.1654,9.2224,-0.0035,0.0356,9.8066,-0.0022,-0.007,0.009,-7.21,-23.7,-16.92,103.72,-3.69,0.7
54845,52.377285,-1.491098,97,20.72,9.0,97.0,15 / 24,5484541,2019-08-31 11:21:44:620,0.3543,0.3574,9.7687,0.0199,-0.0049,9.8066,-0.0171,-0.0443,0.0186,-7.21,-23.7,-16.92,103.72,-3.69,0.7
54846,52.377285,-1.491098,97,20.72,9.0,97.0,15 / 24,5484641,2019-08-31 11:21:44:720,0.0498,-0.3167,8.6645,0.0168,-0.0163,9.8066,-0.0011,0.0506,0.0164,-6.85,-23.81,-16.92,103.75,-3.63,0.81
54847,52.377285,-1.491098,97,20.72,9.0,97.0,15 / 24,5484741,2019-08-31 11:21:44:820,-0.0797,-0.5518,9.738,0.0226,-0.0234,9.8066,0.0212,0.0516,-0.0049,-6.79,-23.92,-16.78,103.85,-3.47,0.91
54848,52.377285,-1.491098,97,20.72,9.0,97.0,15 / 24,5484841,2019-08-31 11:21:44:920,-0.1892,-0.0009,8.949,0.012,0.0014,9.8066,-0.0022,-0.007,0.0175,-6.79,-23.92,-16.78,103.85,-3.47,0.91
54849,52.377285,-1.491098,97,20.72,9.0,97.0,15 / 24,5484941,2019-08-31 11:21:45:020,0.2966,0.6177,9.1116,0.01,0.0029,9.8066,-0.0022,-0.007,0.0175,-6.86,-23.45,-17.41,104.41,-3.46,0.98
54850,52.37727,-1.490811,98,20.72,9.0,96.6,15 / 24,5485043,2019-08-31 11:21:45:122,0.1234,0.3577,11.4659,0.0117,0.0033,9.8066,0.0074,-0.0251,0.0196,-6.85,-23.81,-16.92,103.84,-3.46,1.04
54851,52.37727,-1.490811,98,20.72,9.0,96.6,15 / 24,5485141,2019-08-31 11:21:45:220,-0.3737,0.0096,9.952,0.0103,-0.0371,9.8066,0.0116,-0.0123,0.0047,-6.85,-23.81,-16.92,103.84,-3.46,1.04
54852,52.37727,-1.490811,98,20.72,9.0,96.6,15 / 24,5485241,2019-08-31 11:21:45:320,-0.4707,0.5203,8.8457,0.0068,-0.009,9.8066,-0.0342,-0.0357,0.0367,-6.86,-23.45,-17.41,104.56,-3.24,1.05
54853,52.37727,-1.490811,98,20.72,9.0,96.6,15 / 24,5485341,2019-08-31 11:21:45:420,-0.1843,-0.1026,8.6267,-0.0001,0.0017,9.8067,-0.0161,0.0399,-0.024,-6.85,-23.81,-16.92,103.98,-3.25,1.05
54854,52.37727,-1.490811,98,20.72,9.0,96.6,15 / 24,5485441,2019-08-31 11:21:45:520,0.1129,0.2744,10.9628,-0.0027,0.0177,9.8066,-0.0278,-0.0016,0.0303,-6.79,-23.92,-16.78,103.98,-3.25,1.05
54855,52.37727,-1.490811,98,20.72,9.0,96.6,15 / 24,5485541,2019-08-31 11:21:45:620,-0.3423,-0.3002,8.9012,-0.0013,0.0253,9.8066,0.0159,-0.0038,-0.0272,-6.79,-23.92,-16.78,103.98,-3.25,1.05
54856,52.37727,-1.490811,98,20.72,9.0,96.6,15 / 24,5485641,2019-08-31 11:21:45:720,-0.0955,-0.5925,10.0824,0.0026,0.0044,9.8066,0.0202,-0.0187,0.0132,-6.85,-24.13,-16.46,104.02,-3.39,1.08
54857,52.37727,-1.490811,98,20.72,9.0,96.6,15 / 24,5485740,2019-08-31 11:21:45:819,0.2076,0.6341,10.5066,0.0034,-0.01,9.8066,0.0202,-0.0187,0.0132,-6.72,-23.75,-17.06,103.92,-3.33,1.08
54858,52.37727,-1.490811,98,20.72,9.0,96.6,15 / 24,5485841,2019-08-31 11:21:45:920,0.1847,-0.3678,9.2286,0.0178,0.0202,9.8066,0.0063,0.0069,0.0132,-6.74,-23.72,-17.09,103.92,-3.33,1.08
54859,52.37727,-1.490811,98,20.72,9.0,96.6,15 / 24,5485941,2019-08-31 11:21:46:020,-0.1991,-0.4378,7.9953,0.0119,-0.0045,9.8066,0.0053,0.0037,-0.0006,-7.16,-23.85,-16.73,103.85,-3.42,1.21
54860,52.37725,-1.490506,99,20.68,9.0,96.4,15 / 24,5486041,2019-08-31 11:21:46:120,0.1239,0.3484,10.1719,-0.0025,-0.0037,9.8066,-0.015,-0.0016,0.0207,-7.16,-23.85,-16.73,103.85,-3.42,1.21
54861,52.37725,-1.490506,99,20.68,9.0,96.4,15 / 24,5486140,2019-08-31 11:21:46:219,-0.657,-0.7162,10.9652,-0.0182,0.0126,9.8066,-0.0544,0.1507,0.009,-7.11,-23.68,-16.99,103.86,-3.4,1.19
54862,52.37725,-1.490506,99,20.68,9.0,96.4,15 / 24,5486241,2019-08-31 11:21:46:320,-0.8239,-0.5404,9.432,-0.0293,0.0162,9.8066,0.0031,0.0846,-0.0081,-7.16,-23.85,-16.73,103.79,-3.54,1.05
54863,52.37725,-1.490506,99,20.68,9.0,96.4,15 / 24,5486341,2019-08-31 11:21:46:420,0.321,0.5109,10.7874,-0.0159,-0.0065,9.8066,0.0095,-0.0432,0.0346,-7.16,-23.85,-16.73,103.79,-3.54,1.05
54864,52.37725,-1.490506,99,20.68,9.0,96.4,15 / 24,5486442,2019-08-31 11:21:46:521,-0.1448,0.019,10.0602,0.0158,-0.039,9.8066,0.0095,-0.0432,0.0346,-6.74,-23.72,-17.09,103.81,-3.52,0.95
54865,52.37725,-1.490506,99,20.68,9.0,96.4,15 / 24,5486541,2019-08-31 11:21:46:620,-0.2284,-0.4104,9.7406,0.0246,-0.0663,9.8064,0.0116,0.0314,-0.0049,-6.79,-23.92,-16.78,104.07,-3.11,1.0
54866,52.37725,-1.490506,99,20.68,9.0,96.4,15 / 24,5486641,2019-08-31 11:21:46:720,0.0134,-0.1531,9.8926,-0.0037,-0.0145,9.8066,0.0298,0.0026,-0.0038,-6.85,-23.81,-16.92,104.07,-3.11,1.0
54867,52.37725,-1.490506,99,20.68,9.0,96.4,15 / 24,5486742,2019-08-31 11:21:46:821,0.2146,-0.1102,9.4656,0.0225,-0.0459,9.8065,0.017,-0.0187,0.0133,-6.85,-23.81,-16.92,104.07,-3.11,1.0
54868,52.37725,-1.490506,99,20.68,9.0,96.4,15 / 24,5486841,2019-08-31 11:21:46:920,0.3668,-0.5917,9.615,0.0545,-0.107,9.8059,0.0127,-0.04,-0.0027,-6.48,-23.87,-16.97,102.02,-2.82,1.06
54869,52.37725,-1.490506,99,20.68,9.0,96.4,15 / 24,5486941,2019-08-31 11:21:47:020,0.2459,-0.7912,9.0501,0.0207,-0.0453,9.8065,0.0106,0.0079,0.0133,-6.79,-23.6,-17.23,104.67,-2.14,1.24
54870,52.377247,-1.490208,99,20.58,9.0,96.1,15 / 24,5487041,2019-08-31 11:21:47:120,0.287,-0.2617,8.8702,0.0256,-0.0557,9.8065,-0.0001,0.0292,0.0143,-6.79,-23.6,-17.23,104.67,-2.14,1.24
54871,52.377247,-1.490208,99,20.58,9.0,96.1,15 / 24,5487141,2019-08-31 11:21:47:220,0.0084,-0.2233,9.8961,0.0236,-0.013,9.8066,-0.0129,0.0335,0.0058,-7.28,-23.94,-16.55,104.89,-1.79,1.3
54872,52.377247,-1.490208,99,20.58,9.0,96.1,15 / 24,5487242,2019-08-31 11:21:47:321,0.0363,0.0254,10.0049,0.0319,-0.0271,9.8066,-0.0129,0.0335,0.0058,-6.85,-23.81,-16.92,105.0,-1.59,1.44
54873,52.377247,-1.490208,99,20.58,9.0,96.1,15 / 24,5487341,2019-08-31 11:21:47:420,0.1235,-0.5388,9.8082,-0.0071,0.0007,9.8066,-0.0256,0.0143,0.0218,-7.59,-23.66,-16.82,105.0,-1.59,1.44
54874,52.377247,-1.490208,99,20.58,9.0,96.1,15 / 24,5487440,2019-08-31 11:21:47:519,0.4322,-0.0954,10.1731,0.0085,0.0007,9.8066,0.0212,0.0175,0.0165,-7.59,-23.66,-16.82,105.0,-1.59,1.44
54875,52.377247,-1.490208,99,20.58,9.0,96.1,15 / 24,5487541,2019-08-31 11:21:47:620,0.5236,-0.3839,10.1747,0.026,-0.015,9.8066,0.05,-0.0176,0.0069,-8.18,-23.63,-16.57,107.16,-1.58,1.49
54876,52.377247,-1.490208,99,20.58,9.0,96.1,15 / 24,5487640,2019-08-31 11:21:47:719,0.3711,-0.1074,8.9881,0.0587,-0.0384,9.8064,-0.0182,-0.0134,0.0388,-7.71,-23.16,-17.44,108.0,-1.26,1.75
54877,52.377247,-1.490208,99,20.58,9.0,96.1,15 / 24,5487741,2019-08-31 11:21:47:820,-0.0426,-0.3215,9.1956,0.025,-0.0206,9.8066,0.0021,-0.0475,0.0335,-7.71,-23.16,-17.44,108.0,-1.26,1.75
54878,52.377247,-1.490208,99,20.58,9.0,96.1,15 / 24,5487841,2019-08-31 11:21:47:920,-0.0716,-0.2485,10.1063,0.0231,-0.0465,9.8065,-0.0139,-0.0379,0.026,-6.99,-22.98,-17.98,105.88,-0.95,1.97
54879,52.377247,-1.490208,99,20.58,9.0,96.1,15 / 24,5487941,2019-08-31 11:21:48:020,0.2034,-0.2035,9.1708,0.0073,-0.0226,9.8066,-0.0139,0.0665,0.025,-5.44,-23.14,-18.3,101.5,-0.65,2.02
54880,52.377247,-1.490208,99,20.58,9.0,96.1,15 / 24,5488041,2019-08-31 11:21:48:120,-0.0672,0.083,9.3767,0.009,-0.0176,9.8066,-0.0139,0.0665,0.025,-4.93,-23.71,-17.7,101.5,-0.65,2.02
54881,52.37722,-1.489918,98,20.05,9.0,95.7,15 / 24,5488141,2019-08-31 11:21:48:220,0.0765,-0.0447,9.0873,0.0215,-0.0187,9.8066,-0.0001,0.0346,0.026,-5.25,-24.1,-17.08,101.16,-0.52,2.12
54882,52.37722,-1.489918,98,20.05,9.0,95.7,15 / 24,5488241,2019-08-31 11:21:48:320,-0.0438,0.3791,9.7031,-0.0144,0.0037,9.8066,-0.015,-0.0144,0.0111,-5.25,-24.1,-17.08,101.16,-0.52,2.12
54883,52.37722,-1.489918,98,20.05,9.0,95.7,15 / 24,5488341,2019-08-31 11:21:48:420,-0.0915,0.3596,10.2025,-0.0039,-0.0001,9.8066,-0.0022,0.0431,-0.0091,-5.4,-24.05,-17.1,101.14,-0.56,2.04
54884,52.37722,-1.489918,98,20.05,9.0,95.7,15 / 24,5488441,2019-08-31 11:21:48:520,-0.0136,0.6371,10.0761,-0.0281,0.0194,9.8066,-0.0214,0.0484,0.0143,-5.4,-24.05,-17.1,101.14,-0.56,2.04
54885,52.37722,-1.489918,98,20.05,9.0,95.7,15 / 24,5488541,2019-08-31 11:21:48:620,0.2092,0.6817,9.5648,-0.0248,0.0472,9.8065,-0.0224,0.0239,0.0388,-5.77,-24.21,-16.75,103.3,-0.7,1.9
54886,52.37722,-1.489918,98,20.05,9.0,95.7,15 / 24,5488641,2019-08-31 11:21:48:720,-0.214,0.4651,11.4403,-0.0422,0.0748,9.8063,0.001,0.0101,0.0037,-5.72,-24.33,-16.6,103.01,-1.18,1.76
54887,52.37722,-1.489918,98,20.05,9.0,95.7,15 / 24,5488741,2019-08-31 11:21:48:820,-0.3642,0.2988,9.659,-0.0095,0.0455,9.8065,0.0085,0.0229,0.0047,-6.1,-23.94,-17.02,103.01,-1.18,1.76
54888,52.37722,-1.489918,98,20.05,9.0,95.7,15 / 24,5488842,2019-08-31 11:21:48:921,-0.3128,0.4563,9.1437,-0.0216,0.0834,9.8063,0.0085,0.0229,0.0047,-6.53,-24.08,-16.65,104.9,-1.68,1.75
54889,52.37722,-1.489918,98,20.05,9.0,95.7,15 / 24,5488941,2019-08-31 11:21:49:020,-0.1605,0.1132,10.2654,-0.0075,-0.0043,9.8066,-0.015,-0.0325,0.0132,-6.53,-24.08,-16.65,104.9,-1.68,1.75
54890,52.37721,-1.489622,98,19.55,9.0,95.1,15 / 24,5489041,2019-08-31 11:21:49:120,0.1394,0.4372,9.4289,-0.016,0.0009,9.8066,-0.0075,-0.0198,0.0111,-6.15,-24.15,-16.7,102.71,-1.67,1.7
54891,52.37721,-1.489622,98,19.55,9.0,95.1,15 / 24,5489142,2019-08-31 11:21:49:221,-0.2361,-0.0813,9.2055,-0.0409,0.0125,9.8066,-0.015,-0.0262,0.0164,-5.98,-24.2,-16.7,102.71,-1.67,1.7
54892,52.37721,-1.489622,98,19.55,9.0,95.1,15 / 24,5489241,2019-08-31 11:21:49:320,-0.263,0.3724,10.4324,-0.0682,0.0456,9.8063,-0.031,0.0143,0.009,-5.98,-24.2,-16.7,102.71,-1.67,1.7
54893,52.37721,-1.489622,98,19.55,9.0,95.1,15 / 24,5489341,2019-08-31 11:21:49:420,-0.3875,0.335,11.7752,-0.0222,0.0302,9.8066,0.0116,-0.0123,0.0324,-6.12,-23.95,-17.0,102.52,-2.02,1.37
54894,52.37721,-1.489622,98,19.55,9.0,95.1,15 / 24,5489441,2019-08-31 11:21:49:520,-0.0771,1.5834,9.9158,-0.0159,0.0486,9.8065,0.0319,-0.0144,0.0186,-6.36,-24.13,-16.65,102.4,-2.22,1.28
54895,52.37721,-1.489622,98,19.55,9.0,95.1,15 / 24,5489541,2019-08-31 11:21:49:620,-0.4092,0.0363,10.2245,-0.0229,0.065,9.8064,0.0255,0.0282,0.0005,-6.91,-24.01,-16.61,104.37,-2.62,1.24
54896,52.37721,-1.489622,98,19.55,9.0,95.1,15 / 24,5489641,2019-08-31 11:21:49:720,-0.0687,0.5997,8.9339,0.0051,0.0258,9.8066,-0.0086,0.0101,0.0101,-6.91,-24.01,-16.61,104.37,-2.62,1.24
54897,52.37721,-1.489622,98,19.55,9.0,95.1,15 / 24,5489741,2019-08-31 11:21:49:820,-0.4958,0.4446,10.0281,-0.0083,-0.0228,9.8066,-0.0086,0.0101,0.0101,-6.48,-24.2,-16.51,102.04,-2.76,1.3
54898,52.37721,-1.489622,98,19.55,9.0,95.1,15 / 24,5489841,2019-08-31 11:21:49:920,-0.1874,0.7039,10.9799,-0.0541,-0.0397,9.8064,0.0074,-0.0783,-0.0049,-6.9,-24.3,-16.18,102.04,-2.76,1.3
54899,52.37721,-1.489622,98,19.55,9.0,95.1,15 / 24,5489941,2019-08-31 11:21:50:020,0.2031,0.0004,9.1786,-0.0209,0.0167,9.8066,-0.0097,0.0282,-0.0027,-6.48,-24.2,-16.51,102.18,-2.6,0.94
54900,52.377193,-1.489328,98,19.4,9.0,95.1,16 / 24,5490041,2019-08-31 11:21:50:120,-0.202,-0.1318,10.0273,-0.054,0.0607,9.8063,0.0159,-0.0016,0.0047,-6.1,-24.26,-16.55,102.18,-2.6,0.94
54901,52.377193,-1.489328,98,19.4,9.0,95.1,16 / 24,5490141,2019-08-31 11:21:50:220,-0.0575,0.6908,10.3289,-0.0651,0.0982,9.8059,0.0308,0.0239,0.0164,-6.53,-24.05,-16.7,104.02,-3.24,0.69
54902,52.377193,-1.489328,98,19.4,9.0,95.1,16 / 24,5490240,2019-08-31 11:21:50:319,-0.5998,-0.6545,8.7417,0.009,0.0439,9.8065,0.017,-0.0144,0.0196,-6.53,-24.08,-16.65,103.86,-3.47,0.81
54903,52.377193,-1.489328,98,19.4,9.0,95.1,16 / 24,5490342,2019-08-31 11:21:50:421,-0.4726,-0.437,8.1865,0.0036,-0.0026,9.8067,0.0159,-0.0581,0.0143,-6.53,-24.08,-16.65,103.86,-3.47,0.81
54904,52.377193,-1.489328,98,19.4,9.0,95.1,16 / 24,5490441,2019-08-31 11:21:50:520,0.4053,0.5528,8.1974,0.0222,0.0017,9.8066,0.0159,-0.0581,0.0143,-6.46,-24.19,-16.52,101.62,-3.45,0.82
54905,52.377193,-1.489328,98,19.4,9.0,95.1,16 / 24,5490541,2019-08-31 11:21:50:620,-0.0976,0.1517,9.9503,0.0227,-0.0279,9.8066,-0.0054,0.0122,0.0069,-6.1,-24.26,-16.55,101.74,-3.27,0.92
54906,52.377193,-1.489328,98,19.4,9.0,95.1,16 / 24,5490641,2019-08-31 11:21:50:720,-0.1762,0.0712,9.0775,0.0037,0.0198,9.8066,-0.0256,-0.0261,0.0239,-6.12,-23.95,-17.0,101.66,-3.38,0.96
54907,52.377193,-1.489328,98,19.4,9.0,95.1,16 / 24,5490741,2019-08-31 11:21:50:820,-0.3213,-0.1257,8.5976,-0.031,0.0499,9.8065,-0.0448,0.0186,0.0154,-6.12,-23.95,-17.0,101.66,-3.38,0.96
54908,52.377193,-1.489328,98,19.4,9.0,95.1,16 / 24,5490841,2019-08-31 11:21:50:920,-0.2172,0.2731,10.104,-0.0354,0.0489,9.8065,-0.0235,0.0133,0.0058,-6.43,-24.02,-16.78,101.46,-3.7,0.85
54909,52.377193,-1.489328,98,19.4,9.0,95.1,16 / 24,5490941,2019-08-31 11:21:51:020,0.1546,0.2288,10.2931,-0.0684,0.095,9.806,-0.0118,0.1091,0.0069,-5.96,-23.47,-17.71,101.33,-4.32,0.56
54910,52.37719,-1.489064,97,19.34,9.0,94.9,16 / 24,5491041,2019-08-31 11:21:51:120,-0.1218,-0.3602,10.6379,-0.0046,-0.0217,9.8066,-0.0139,-0.0943,0.0037,-5.96,-23.47,-17.71,101.33,-4.32,0.56
54911,52.37719,-1.489064,97,19.34,9.0,94.9,15 / 24,5491141,2019-08-31 11:21:51:220,0.1298,-0.0748,9.3288,0.0101,-0.0517,9.8065,-0.0001,-0.0666,-0.007,-5.95,-23.82,-17.24,101.33,-4.32,0.56
54912,52.37719,-1.489064,97,19.34,9.0,94.9,15 / 24,5491241,2019-08-31 11:21:51:320,-0.1846,0.3875,9.7693,0.0016,-0.0577,9.8065,-0.0001,-0.0666,-0.007,-5.86,-23.44,-17.78,101.59,-3.99,0.51
54913,52.37719,-1.489064,97,19.34,9.0,94.9,15 / 24,5491341,2019-08-31 11:21:51:420,-0.3921,-0.23,9.7171,-0.0252,0.0131,9.8066,-0.0214,-0.0293,-0.0049,-5.86,-23.44,-17.78,101.59,-3.99,0.51
54914,52.37719,-1.489064,97,19.34,9.0,94.9,15 / 24,5491441,2019-08-31 11:21:51:520,0.0174,0.3271,10.6094,-0.0183,0.0208,9.8066,-0.0129,-0.0198,0.0239,-5.86,-23.44,-17.78,101.52,-4.09,0.38
54915,52.37719,-1.489064,97,19.34,9.0,94.9,15 / 24,5491543,2019-08-31 11:21:51:622,-0.253,-0.1238,10.2623,-0.0187,0.0317,9.8066,-0.0416,-0.0219,0.0132,-5.97,-23.5,-17.67,100.91,-4.3,0.31
54916,52.37719,-1.489064,97,19.34,9.0,94.9,15 / 24,5491641,2019-08-31 11:21:51:720,0.2085,-0.1294,10.7204,-0.0555,0.091,9.8061,-0.0139,0.0878,0.0143,-6.01,-23.68,-17.41,100.91,-4.3,0.31
54917,52.37719,-1.489064,97,19.34,9.0,94.9,15 / 24,5491741,2019-08-31 11:21:51:820,-0.2539,0.2304,9.6752,-0.0764,0.1158,9.8057,-0.0267,0.0271,0.0207,-6.01,-23.68,-17.41,100.91,-4.3,0.31
54918,52.37719,-1.489064,97,19.34,9.0,94.9,15 / 24,5491841,2019-08-31 11:21:51:920,-0.2111,0.7141,9.5149,-0.0095,0.0004,9.8066,0.0255,-0.008,-0.0123,-5.85,-23.8,-17.33,100.58,-5.05,0.0
54919,52.37719,-1.489064,97,19.34,9.0,94.9,15 / 24,5491941,2019-08-31 11:21:52:020,0.0108,-0.2933,9.5787,-0.0059,-0.039,9.8066,0.0074,-0.0688,-0.0049,-6.11,-23.73,-17.3,100.57,-5.06,-0.06
54920,52.377174,-1.488768,98,19.58,9.0,95.0,15 / 24,5492041,2019-08-31 11:21:52:120,-0.0946,-0.0269,9.2885,0.0032,-0.074,9.8064,-0.0033,-0.0666,-0.0006,-5.96,-23.47,-17.71,100.57,-5.06,-0.06
54921,52.377174,-1.488768,98,19.58,9.0,95.0,15 / 24,5492140,2019-08-31 11:21:52:219,0.1829,-0.0309,9.4579,0.0054,-0.0957,9.8062,-0.0033,-0.0666,-0.0006,-5.58,-23.88,-17.28,100.97,-4.5,-0.13
54922,52.377174,-1.488768,98,19.58,9.0,95.0,15 / 24,5492241,2019-08-31 11:21:52:320,-0.2593,0.0857,9.5584,0.0005,-0.0138,9.8066,-0.0022,0.0111,-0.0017,-5.58,-23.88,-17.28,101.02,-4.42,-0.14
54923,52.377174,-1.488768,98,19.58,9.0,95.0,15 / 24,5492341,2019-08-31 11:21:52:420,0.2005,0.6348,10.2159,-0.002,0.0271,9.8066,0.0148,0.058,-0.0006,-5.58,-23.88,-17.28,101.02,-4.42,-0.14
54924,52.377174,-1.488768,98,19.58,9.0,95.0,15 / 24,5492441,2019-08-31 11:21:52:520,-0.1002,-0.3445,9.9794,-0.0124,0.0686,9.8064,0.0234,0.0719,-0.0017,-5.95,-23.82,-17.24,100.74,-4.83,-0.14
54925,52.377174,-1.488768,98,19.58,9.0,95.0,15 / 24,5492541,2019-08-31 11:21:52:620,0.1211,0.3298,9.3299,-0.0094,0.0066,9.8066,-0.0129,0.0122,-0.0006,-6.11,-23.73,-17.3,100.64,-4.96,-0.16
54926,52.377174,-1.488768,98,19.58,9.0,95.0,15 / 24,5492641,2019-08-31 11:21:52:720,-0.2553,-0.2307,9.8313,-0.0094,-0.0042,9.8066,-0.0022,-0.0293,0.0015,-5.9,-23.62,-17.53,100.64,-4.96,-0.16
54927,52.377174,-1.488768,98,19.58,9.0,95.0,15 / 24,5492741,2019-08-31 11:21:52:820,-0.071,-0.1901,9.6853,-0.002,-0.0042,9.8066,-0.0022,-0.0123,0.0005,-5.94,-24.16,-16.76,100.66,-4.94,-0.18
54928,52.377174,-1.488768,98,19.58,9.0,95.0,15 / 24,5492840,2019-08-31 11:21:52:919,-0.1735,-0.6736,10.0808,0.009,-0.0126,9.8066,0.0148,-0.0102,-0.0113,-5.94,-24.16,-16.76,100.66,-4.94,-0.18
54929,52.377174,-1.488768,98,19.58,9.0,95.0,15 / 24,5492941,2019-08-31 11:21:53:020,0.1251,-0.0049,9.6873,0.0038,-0.0147,9.8066,0.0148,-0.0102,-0.0113,-6.26,-23.56,-17.49,100.72,-4.86,-0.14
54930,52.377174,-1.488768,98,19.58,9.0,95.0,15 / 24,5493041,2019-08-31 11:21:53:120,-0.1745,-0.3026,10.4773,-0.0018,-0.0196,9.8066,-0.0065,0.0239,-0.0049,-5.91,-23.65,-17.49,100.8,-4.75,-0.17
54931,52.37717,-1.488487,97,19.75,9.0,94.9,15 / 24,5493140,2019-08-31 11:21:53:219,-0.1784,0.0868,10.1455,-0.0215,0.0136,9.8066,-0.0416,-0.0198,0.0239,-5.91,-23.65,-17.49,100.8,-4.75,-0.17
54932,52.37717,-1.488487,97,19.75,9.0,94.9,15 / 24,5493241,2019-08-31 11:21:53:320,-0.1854,-0.1966,9.0204,-0.0103,0.023,9.8066,0.0106,0.0122,0.0271,-5.53,-24.02,-17.11,100.73,-4.85,-0.28
54933,52.37717,-1.488487,97,19.75,9.0,94.9,15 / 24,5493341,2019-08-31 11:21:53:420,-0.1477,0.0395,10.1411,-0.0054,0.0553,9.8065,0.0138,-0.0102,0.0101,-6.38,-23.61,-17.37,100.5,-5.17,-0.25
54934,52.37717,-1.488487,97,19.75,9.0,94.9,15 / 24,5493441,2019-08-31 11:21:53:520,-0.077,0.329,9.1846,-0.0033,0.004,9.8066,0.0148,0.0175,-0.008,-6.06,-23.88,-17.11,100.41,-5.29,-0.12
54935,52.37717,-1.488487,97,19.75,9.0,94.9,15 / 24,5493541,2019-08-31 11:21:53:620,-0.1124,-0.456,9.4207,-0.0007,0.0111,9.8066,0.0063,-0.0698,-0.0006,-6.06,-23.88,-17.11,100.41,-5.29,-0.12
54936,52.37717,-1.488487,97,19.75,9.0,94.9,15 / 24,5493641,2019-08-31 11:21:53:720,0.3517,0.4707,9.6643,0.0105,-0.0091,9.8066,0.0063,-0.0698,-0.0006,-5.69,-23.61,-17.61,100.15,-5.36,-0.12
54937,52.37717,-1.488487,97,19.75,9.0,94.9,15 / 24,5493741,2019-08-31 11:21:53:820,0.0708,-0.294,10.0002,0.0134,-0.0007,9.8066,0.0361,0.0314,-0.0027,-5.33,-23.34,-18.08,98.21,-5.29,-0.07
54938,52.37717,-1.488487,97,19.75,9.0,94.9,15 / 24,5493841,2019-08-31 11:21:53:920,0.2233,0.4314,9.3214,0.024,0.015,9.8066,-0.0075,-0.0176,0.0207,-5.33,-23.34,-18.08,98.21,-5.29,-0.07
54939,52.37717,-1.488487,97,19.75,9.0,94.9,15 / 24,5493941,2019-08-31 11:21:54:020,0.1196,0.126,9.9013,-0.0033,0.0143,9.8066,-0.031,-0.0304,0.0228,-5.1,-22.51,-19.17,97.93,-5.36,0.09
54940,52.377155,-1.48819,98,19.94,9.0,95.0,15 / 24,5494041,2019-08-31 11:21:54:120,0.2233,-0.259,10.4782,-0.0054,0.0046,9.8066,-0.0214,-0.0336,0.0026,-4.91,-22.05,-19.74,97.97,-5.45,0.08
54941,52.377155,-1.48819,98,19.94,9.0,95.0,15 / 24,5494141,2019-08-31 11:21:54:220,0.2429,-0.0259,9.3937,-0.0141,0.0275,9.8066,-0.0022,0.0367,-0.0091,-6.09,-21.71,-19.79,100.34,-5.62,0.02
54942,52.377155,-1.48819,98,19.94,9.0,95.0,15 / 24,5494241,2019-08-31 11:21:54:320,-0.6544,-0.8597,9.6197,-0.0133,0.0273,9.8066,-0.0043,-0.0368,-0.0049,-5.77,-21.99,-19.58,100.34,-5.62,0.02
54943,52.377155,-1.48819,98,19.94,9.0,95.0,15 / 24,5494341,2019-08-31 11:21:54:420,-0.0046,-0.4927,9.1578,-0.0211,0.0281,9.8066,-0.0129,-0.0198,0.0058,-5.33,-21.41,-20.33,98.01,-5.8,-0.07
54944,52.377155,-1.48819,98,19.94,9.0,95.0,15 / 24,5494441,2019-08-31 11:21:54:520,-0.0058,-0.1997,10.096,-0.0037,-0.0142,9.8066,-0.0129,-0.0198,0.0058,-5.33,-21.41,-20.33,98.01,-5.8,-0.07
54945,52.377155,-1.48819,98,19.94,9.0,95.0,15 / 24,5494541,2019-08-31 11:21:54:620,-0.3893,-0.9078,11.1235,-0.0153,-0.0436,9.8065,-0.015,0.0015,0.0282,-6.03,-21.12,-20.44,100.89,-5.56,-0.2
54946,52.377155,-1.48819,98,19.94,9.0,95.0,15 / 24,5494642,2019-08-31 11:21:54:721,0.0325,0.1419,9.1113,0.0147,0.0082,9.8066,0.0404,0.0772,-0.0059,-6.09,-21.3,-20.23,100.89,-5.56,-0.2
54947,52.377155,-1.48819,98,19.94,9.0,95.0,15 / 24,5494740,2019-08-31 11:21:54:819,-0.0624,-0.1744,10.7164,0.0147,0.0082,9.8066,0.0809,0.0484,0.0133,-6.09,-21.3,-20.23,100.89,-5.56,-0.2
54948,52.377155,-1.48819,98,19.94,9.0,95.0,15 / 24,5494841,2019-08-31 11:21:54:920,0.0654,0.1864,8.8609,0.0393,0.0226,9.8065,0.0425,-0.0208,-0.0304,-6.26,-21.16,-20.32,100.88,-5.55,0.13
54949,52.377155,-1.48819,98,19.94,9.0,95.0,15 / 24,5494941,2019-08-31 11:21:55:020,0.2291,-0.0859,9.7375,0.0023,0.0237,9.8066,0.017,0.0356,-0.0187,-6.05,-21.44,-20.09,100.78,-5.63,0.38
54950,52.377155,-1.48819,98,19.94,9.0,95.0,15 / 24,5495042,2019-08-31 11:21:55:121,-0.2351,-0.054,10.042,-0.028,0.0548,9.8065,-0.0427,0.0111,0.0196,-6.05,-21.44,-20.09,100.78,-5.63,0.38
54951,52.37715,-1.487891,100,20.26,9.0,94.8,15 / 24,5495141,2019-08-31 11:21:55:220,0.3826,0.0682,9.1946,-0.0131,-0.0207,9.8066,-0.0097,-0.0325,0.0186,-6.0,-22.03,-19.46,100.26,-5.98,0.28
54952,52.37715,-1.487891,100,20.26,9.0,94.8,15 / 24,5495241,2019-08-31 11:21:55:320,-0.188,-0.4893,9.7179,0.0062,-0.0377,9.8066,-0.0182,-0.0421,0.0143,-5.99,-21.64,-19.9,100.1,-5.87,0.19
54953,52.37715,-1.487891,100,20.26,9.0,94.8,15 / 24,5495341,2019-08-31 11:21:55:420,0.0439,0.0967,8.8962,0.0017,-0.0434,9.8066,-0.0182,-0.0421,0.0143,-5.05,-21.49,-20.32,98.17,-5.62,0.15
54954,52.37715,-1.487891,100,20.26,9.0,94.8,15 / 24,5495441,2019-08-31 11:21:55:520,-0.4902,-0.3697,9.7905,-0.008,0.0125,9.8066,-0.0129,-0.0059,0.0101,-5.05,-21.49,-20.32,98.17,-5.62,0.15
54955,52.37715,-1.487891,100,20.26,9.0,94.8,15 / 24,5495541,2019-08-31 11:21:55:620,-0.1502,-0.1727,8.9299,0.0226,-0.042,9.8065,0.0266,-0.0656,0.0101,-6.03,-21.89,-19.6,100.26,-5.7,0.11
54956,52.37715,-1.487891,100,20.26,9.0,94.8,15 / 24,5495641,2019-08-31 11:21:55:720,0.334,0.1021,10.4033,0.0486,-0.0606,9.8063,0.0234,0.0346,-0.0059,-7.16,-22.61,-18.37,102.97,-5.3,0.33
54957,52.37715,-1.487891,100,20.26,9.0,94.8,15 / 24,5495741,2019-08-31 11:21:55:820,0.1829,0.494,9.1056,0.0158,0.0245,9.8066,-0.0033,-0.0027,0.0165,-5.82,-22.95,-18.42,102.97,-5.3,0.33
54958,52.37715,-1.487891,100,20.26,9.0,94.8,15 / 24,5495841,2019-08-31 11:21:55:920,0.0309,-0.6911,10.4749,0.0313,0.0387,9.8065,-0.0139,-0.0155,0.0239,-5.82,-22.95,-18.42,102.97,-5.3,0.33
54959,52.37715,-1.487891,100,20.26,9.0,94.8,15 / 24,5495941,2019-08-31 11:21:56:020,-0.0715,-0.5757,9.4183,-0.0022,-0.0185,9.8066,-0.0246,-0.0528,0.0196,-5.25,-21.15,-20.62,98.03,-5.48,0.56
54960,52.37715,-1.487891,100,20.26,9.0,94.8,15 / 24,5496041,2019-08-31 11:21:56:120,-0.1318,0.1718,8.9835,-0.0071,-0.0038,9.8066,-0.0246,-0.0528,0.0196,-5.09,-20.92,-20.89,98.13,-5.38,0.53
54961,52.37713,-1.487591,99,20.65,9.0,94.9,15 / 24,5496141,2019-08-31 11:21:56:220,-0.0319,-0.1403,9.069,-0.0096,-0.0022,9.8066,0.0095,0.025,-0.0144,-5.09,-20.92,-20.89,98.13,-5.38,0.53
54962,52.37713,-1.487591,99,20.65,9.0,94.9,15 / 24,5496240,2019-08-31 11:21:56:319,0.2917,0.1186,10.1012,-0.0009,-0.0139,9.8066,-0.0001,-0.0027,0.0015,-5.15,-19.62,-22.11,98.27,-5.37,0.48
54963,52.37713,-1.487591,99,20.65,9.0,94.9,15 / 24,5496341,2019-08-31 11:21:56:420,0.0609,0.257,9.906,-0.0101,-0.0051,9.8066,-0.0352,0.0314,0.0005,-6.61,-19.83,-21.52,103.8,-5.29,0.46
54964,52.37713,-1.487591,99,20.65,9.0,94.9,15 / 24,5496441,2019-08-31 11:21:56:520,-0.0477,-0.3711,10.9762,-0.0351,0.0078,9.8066,0.0074,0.0058,0.0026,-6.43,-20.11,-21.31,101.29,-5.38,0.27
54965,52.37713,-1.487591,99,20.65,9.0,94.9,15 / 24,5496541,2019-08-31 11:21:56:620,0.1334,-0.1225,9.6524,-0.0043,0.0272,9.8066,0.0234,0.0026,-0.0112,-6.43,-20.11,-21.31,101.29,-5.38,0.27
54966,52.37713,-1.487591,99,20.65,9.0,94.9,15 / 24,5496641,2019-08-31 11:21:56:720,-0.0123,-0.2314,9.4394,0.0149,0.017,9.8066,0.0063,-0.0198,0.0058,-6.7,-20.08,-21.26,103.83,-5.54,0.28
54967,52.37713,-1.487591,99,20.65,9.0,94.9,15 / 24,5496742,2019-08-31 11:21:56:821,-0.2117,-0.326,8.4389,0.0366,-0.0336,9.8065,0.0063,-0.0198,0.0058,-5.62,-19.33,-22.25,101.66,-5.3,0.44
54968,52.37713,-1.487591,99,20.65,9.0,94.9,15 / 24,5496841,2019-08-31 11:21:56:920,0.1043,-0.0595,10.2885,0.0209,-0.0333,9.8066,-0.0054,-0.0389,0.0101,-5.37,-18.46,-23.03,101.66,-5.3,0.44
54969,52.37713,-1.487591,99,20.65,9.0,94.9,15 / 24,5496941,2019-08-31 11:21:57:020,0.2978,0.2596,8.9083,0.0184,-0.0172,9.8066,0.0084,0.0261,0.0228,-6.24,-19.92,-21.55,101.32,-5.09,0.52
54970,52.37713,-1.487591,99,20.65,9.0,94.9,15 / 24,5497042,2019-08-31 11:21:57:121,0.2456,-0.2291,10.2952,0.0348,-0.0217,9.8066,0.0063,0.0143,0.0005,-6.24,-19.92,-21.55,101.32,-5.09,0.52
54971,52.37711,-1.487292,99,20.96,9.0,94.8,15 / 24,5497141,2019-08-31 11:21:57:220,0.1592,0.1812,9.7118,-0.0097,0.0302,9.8066,-0.0288,0.0527,0.0164,-5.62,-20.03,-21.62,101.47,-4.92,0.69
54972,52.37711,-1.487292,99,20.96,9.0,94.8,15 / 24,5497241,2019-08-31 11:21:57:320,-0.0009,0.3855,10.7121,-0.0367,0.0484,9.8065,-0.0011,0.0388,0.0047,-5.98,-20.21,-21.35,101.47,-4.92,0.69
54973,52.37711,-1.487292,99,20.96,9.0,94.8,15 / 24,5497341,2019-08-31 11:21:57:420,-0.1327,-0.2692,9.1967,-0.0457,0.0631,9.8063,-0.0299,-0.0293,0.0207,-5.98,-20.21,-21.35,101.31,-5.34,0.51
54974,52.37711,-1.487292,99,20.96,9.0,94.8,15 / 24,5497441,2019-08-31 11:21:57:520,0.0862,-0.4032,10.1514,-0.0207,0.0136,9.8066,-0.0331,0.0229,0.0079,-5.98,-20.21,-21.35,101.31,-5.34,0.51
54975,52.37711,-1.487292,99,20.96,9.0,94.8,15 / 24,5497540,2019-08-31 11:21:57:619,-0.3069,-0.256,9.1777,-0.047,0.0072,9.8065,-0.0331,0.0229,0.0079,-6.71,-21.84,-19.44,103.2,-5.43,0.24
54976,52.37711,-1.487292,99,20.96,9.0,94.8,15 / 24,5497641,2019-08-31 11:21:57:720,-0.5874,-0.4074,9.1528,-0.0126,-0.0236,9.8066,-0.0139,-0.0666,-0.007,-5.35,-22.94,-18.58,103.2,-5.43,0.24
54977,52.37711,-1.487292,99,20.96,9.0,94.8,15 / 24,5497741,2019-08-31 11:21:57:820,0.0662,-0.3299,9.2354,-0.0279,-0.0554,9.8065,0.0116,-0.0155,-0.0112,-4.36,-20.97,-21.0,95.7,-5.15,0.01
54978,52.37711,-1.487292,99,20.96,9.0,94.8,15 / 24,5497841,2019-08-31 11:21:57:920,0.1463,0.2425,9.7123,0.0167,-0.0515,9.8065,-0.0256,-0.0826,0.0175,-4.36,-20.97,-21.0,95.7,-5.15,0.01
54979,52.37711,-1.487292,99,20.96,9.0,94.8,15 / 24,5497941,2019-08-31 11:21:58:020,-0.3193,-0.1946,9.1012,-0.0135,0.0003,9.8066,0.001,-0.0453,0.0026,-5.35,-20.43,-21.3,99.11,-4.84,0.08
54980,52.37709,-1.486977,98,21.36,9.0,94.9,15 / 24,5498042,2019-08-31 11:21:58:121,0.158,-0.3146,9.8677,0.0021,0.0169,9.8066,0.0223,0.0346,0.0026,-5.73,-20.2,-21.43,101.86,-4.86,0.0
54981,52.37709,-1.486977,98,21.36,9.0,94.9,15 / 24,5498142,2019-08-31 11:21:58:221,0.3371,-0.2683,10.0557,0.0376,-0.0073,9.8066,0.0383,-0.0389,0.0026,-5.03,-20.5,-21.32,98.58,-4.95,0.03
54982,52.37709,-1.486977,98,21.36,9.0,94.9,15 / 24,5498241,2019-08-31 11:21:58:320,0.4281,-0.7494,9.3082,0.0836,-0.045,9.8062,-0.0107,-0.0134,0.0047,-5.03,-20.5,-21.32,98.58,-4.95,0.03
54983,52.37709,-1.486977,98,21.36,9.0,94.9,15 / 24,5498342,2019-08-31 11:21:58:421,0.3737,-0.7751,9.7251,0.0302,-0.0378,9.8065,-0.0107,-0.0134,0.0047,-5.96,-20.33,-21.24,102.04,-4.62,0.48
54984,52.37709,-1.486977,98,21.36,9.0,94.9,15 / 24,5498440,2019-08-31 11:21:58:519,0.1679,-0.6865,9.8174,0.0535,-0.0668,9.8063,-0.032,-0.0059,0.0164,-6.82,-22.65,-18.45,102.04,-4.62,0.48
54985,52.37709,-1.486977,98,21.36,9.0,94.9,15 / 24,5498541,2019-08-31 11:21:58:620,0.0567,-0.4464,10.5455,0.0696,-0.1131,9.8058,-0.0224,-0.0059,0.025,-4.71,-23.52,-18.02,98.89,-3.89,0.74
54986,52.37709,-1.486977,98,21.36,9.0,94.9,15 / 24,5498641,2019-08-31 11:21:58:720,0.1328,-0.3088,10.4256,0.0082,-0.038,9.8066,0.0074,0.0261,0.0037,-4.71,-23.52,-18.02,98.89,-3.89,0.74
54987,52.37709,-1.486977,98,21.36,9.0,94.9,15 / 24,5498741,2019-08-31 11:21:58:820,0.3087,-0.2839,9.6164,0.0131,-0.0178,9.8066,-0.0043,0.0058,0.009,-4.45,-21.37,-20.58,97.26,-3.55,0.82
54988,52.37709,-1.486977,98,21.36,9.0,94.9,15 / 24,5498841,2019-08-31 11:21:58:920,-0.0439,-0.406,8.8782,-0.0003,-0.0317,9.8066,-0.0161,-0.0134,0.0228,-4.44,-21.34,-20.61,97.36,-3.43,0.88
54989,52.37709,-1.486977,98,21.36,9.0,94.9,15 / 24,5498942,2019-08-31 11:21:59:021,0.1754,-0.0223,9.0255,0.0062,-0.0577,9.8065,0.017,0.0229,0.0037,-4.31,-21.54,-20.43,97.36,-3.43,0.88
54990,52.377083,-1.486651,99,21.61,9.0,94.5,15 / 24,5499041,2019-08-31 11:21:59:120,0.3331,-0.4714,9.2688,0.0237,-0.0921,9.8062,-0.0129,0.0207,0.0164,-6.36,-22.31,-19.02,102.77,-2.88,0.95
54991,52.377083,-1.486651,99,21.61,9.0,94.5,15 / 24,5499141,2019-08-31 11:21:59:220,0.0331,-0.1411,9.4896,0.0128,-0.0127,9.8066,0.018,-0.0038,0.0122,-5.08,-23.23,-18.29,102.77,-2.88,0.95
54992,52.377083,-1.486651,99,21.61,9.0,94.5,15 / 24,5499241,2019-08-31 11:21:59:320,-0.1843,-0.2345,10.0957,0.0295,-0.0376,9.8065,0.018,-0.0038,0.0122,-3.7,-22.69,-19.28,97.67,-2.63,1.07
54993,52.377083,-1.486651,99,21.61,9.0,94.5,15 / 24,5499341,2019-08-31 11:21:59:420,-0.103,0.1002,9.4,0.0095,-0.0209,9.8066,-0.0129,-0.0368,0.0186,-3.7,-22.69,-19.28,97.67,-2.63,1.07
54994,52.377083,-1.486651,99,21.61,9.0,94.5,15 / 24,5499441,2019-08-31 11:21:59:520,-0.0507,0.2472,10.4935,0.0191,-0.0121,9.8066,-0.0022,0.0399,0.0196,-4.48,-21.54,-20.39,97.95,-2.55,1.17
54995,52.377083,-1.486651,99,21.61,9.0,94.5,15 / 24,5499540,2019-08-31 11:21:59:619,-0.1898,-0.2128,10.4218,0.025,0.015,9.8066,0.0138,0.0346,0.0154,-4.74,-21.26,-20.62,97.95,-2.55,1.17
54996,52.377083,-1.486651,99,21.61,9.0,94.5,15 / 24,5499641,2019-08-31 11:21:59:720,0.4008,0.343,9.5599,0.0659,0.0343,9.8064,0.0596,0.0175,0.0196,-4.74,-21.26,-20.62,97.95,-2.55,1.17
54997,52.377083,-1.486651,99,21.61,9.0,94.5,15 / 24,5499740,2019-08-31 11:21:59:819,0.7835,-0.158,8.9125,0.1538,0.0058,9.8054,0.0766,-0.007,0.0079,-4.49,-21.57,-20.36,97.79,-2.69,1.58
54998,52.377083,-1.486651,99,21.61,9.0,94.5,15 / 24,5499842,2019-08-31 11:21:59:921,0.8873,-0.0575,8.8034,0.2133,-0.0076,9.8043,-0.0235,-0.0432,0.0484,-4.62,-20.98,-20.94,97.79,-2.69,1.58
54999,52.377083,-1.486651,99,21.61,9.0,94.5,15 / 24,5499941,2019-08-31 11:22:00:020,1.026,-0.0947,10.0415,0.0437,-0.0017,9.8066,-0.032,0.0207,0.0431,-4.43,-20.9,-21.06,98.11,-2.48,2.81
55000,52.377068,-1.48633,100,21.68,9.0,93.5,15 / 24,5500041,2019-08-31 11:22:00:120,0.7914,0.4422,10.4434,0.0593,0.0313,9.8064,-0.0437,0.0037,0.042,-4.43,-20.9,-21.06,98.11,-2.48,2.81
55001,52.377068,-1.48633,100,21.68,9.0,93.5,15 / 24,5500141,2019-08-31 11:22:00:220,0.2937,0.4114,8.0741,0.0034,0.0067,9.8066,-0.0437,0.0037,0.042,-3.69,-21.04,-21.07,97.96,-2.61,3.18
55002,52.377068,-1.48633,100,21.68,9.0,93.5,15 / 24,5500240,2019-08-31 11:22:00:319,0.353,0.5964,10.9907,-0.0059,0.041,9.8066,0.0063,0.0207,0.0207,-4.48,-20.72,-21.23,97.74,-2.85,3.18
55003,52.377068,-1.48633,100,21.68,9.0,93.5,15 / 24,5500341,2019-08-31 11:22:00:420,-0.3202,-0.2852,8.5274,-0.005,0.0024,9.8066,-0.015,-0.0027,0.0218,-3.55,-20.54,-21.58,97.58,-2.87,3.15
55004,52.377068,-1.48633,100,21.68,9.0,93.5,15 / 24,5500441,2019-08-31 11:22:00:520,-0.1468,-0.1361,9.3133,0.0369,-0.0334,9.8065,0.0276,-0.0123,-0.0038,-3.55,-20.54,-21.58,97.58,-2.87,3.15
55005,52.377068,-1.48633,100,21.68,9.0,93.5,15 / 24,5500541,2019-08-31 11:22:00:620,-0.0902,0.2988,10.4072,0.0584,-0.0514,9.8063,0.0244,0.0047,0.0186,-4.58,-22.02,-19.85,100.21,-2.53,3.45
55006,52.377068,-1.48633,100,21.68,9.0,93.5,15 / 24,5500641,2019-08-31 11:22:00:720,-0.0099,-0.3994,9.2694,-0.0063,0.0002,9.8066,0.0308,0.0303,0.0186,-1.62,-21.34,-21.03,92.97,-2.46,3.58
55007,52.377068,-1.48633,100,21.68,9.0,93.5,15 / 24,5500741,2019-08-31 11:22:00:820,0.1072,-0.1331,9.3154,0.006,0.0197,9.8066,0.0138,0.0175,0.0314,-2.3,-20.41,-21.86,92.97,-2.46,3.58
55008,52.377068,-1.48633,100,21.68,9.0,93.5,15 / 24,5500840,2019-08-31 11:22:00:919,-0.4726,0.0881,10.783,0.0049,0.0309,9.8066,-0.0075,0.0122,0.0207,-2.3,-20.41,-21.86,92.97,-2.46,3.58
55009,52.377068,-1.48633,100,21.68,9.0,93.5,15 / 24,5500941,2019-08-31 11:22:01:020,0.3701,0.6666,9.5858,0.0068,0.034,9.8066,-0.0075,0.0122,0.0207,-3.29,-20.55,-21.64,95.23,-2.64,3.62
55010,52.37706,-1.486018,99,21.8,9.0,92.0,15 / 24,5501041,2019-08-31 11:22:01:120,-0.0017,0.0154,9.0032,0.0255,0.0552,9.8065,-0.0139,0.0122,0.0324,-4.04,-21.3,-21.2,97.62,-2.95,3.8
55011,52.37706,-1.486018,99,21.8,9.0,92.0,15 / 24,5501141,2019-08-31 11:22:01:220,-0.0056,0.4937,10.5202,0.0067,-0.0308,9.8066,-0.0107,-0.0496,0.026,-3.45,-20.76,-21.38,97.62,-2.95,3.8
55012,52.37706,-1.486018,99,21.8,9.0,92.0,15 / 24,5501241,2019-08-31 11:22:01:320,-0.1611,-0.1888,9.0268,0.0039,-0.042,9.8066,-0.0384,-0.0038,0.025,-3.45,-20.76,-21.38,97.62,-2.95,3.8
55013,52.37706,-1.486018,99,21.8,9.0,92.0,15 / 24,5501341,2019-08-31 11:22:01:420,-0.1267,-0.4123,8.6954,-0.0081,-0.0524,9.8065,-0.0065,0.009,0.0452,-3.03,-20.99,-21.22,95.35,-2.65,3.71
55014,52.37706,-1.486018,99,21.8,9.0,92.0,15 / 24,5501443,2019-08-31 11:22:01:522,0.1621,0.186,10.2607,-0.009,0.0151,9.8066,-0.0342,-0.0027,0.0377,-2.57,-20.8,-21.46,95.28,-2.73,3.71
55015,52.37706,-1.486018,99,21.8,9.0,92.0,15 / 24,5501541,2019-08-31 11:22:01:620,-0.2077,0.2908,10.2857,-0.0338,0.014,9.8066,-0.0395,-0.0453,0.0303,-2.57,-20.8,-21.46,95.28,-2.73,3.71
55016,52.37706,-1.486018,99,21.8,9.0,92.0,15 / 24,5501641,2019-08-31 11:22:01:720,-0.0172,0.4413,9.5675,-0.0311,0.0069,9.8066,-0.0256,-0.0517,0.0239,-3.38,-21.13,-21.03,95.2,-2.83,3.52
55017,52.37706,-1.486018,99,21.8,9.0,92.0,15 / 24,5501741,2019-08-31 11:22:01:820,-0.4748,-0.2961,8.8624,-0.0364,-0.0159,9.8066,-0.0097,0.0346,0.0239,-2.92,-20.97,-21.25,95.2,-2.83,3.52
55018,52.37706,-1.486018,99,21.8,9.0,92.0,15 / 24,5501841,2019-08-31 11:22:01:920,-0.3854,-0.5408,8.749,-0.0089,-0.0027,9.8066,-0.0097,0.0346,0.0239,-3.77,-21.16,-20.93,97.82,-2.76,3.3
55019,52.37706,-1.486018,99,21.8,9.0,92.0,15 / 24,5501941,2019-08-31 11:22:02:020,-0.2175,-0.1409,10.6307,-0.0162,0.0004,9.8066,0.0138,-0.0091,0.0367,-3.77,-21.16,-20.93,97.82,-2.76,3.3
55020,52.377056,-1.485697,98,21.94,9.0,90.7,15 / 24,5502041,2019-08-31 11:22:02:120,0.7401,0.7282,11.9571,0.0268,-0.0016,9.8066,0.0244,-0.0144,0.0282,-2.65,-21.44,-20.82,95.26,-2.77,3.21
55021,52.377056,-1.485697,98,21.94,9.0,90.7,15 / 24,5502141,2019-08-31 11:22:02:220,0.5737,0.6137,8.3053,0.0594,0.0361,9.8064,0.034,0.0133,0.0314,-2.23,-20.92,-22.83,92.26,-2.95,3.58
55022,52.377056,-1.485697,98,21.94,9.0,90.7,15 / 24,5502240,2019-08-31 11:22:02:319,-0.4844,0.0311,9.1662,0.0372,0.0141,9.8066,-0.0054,-0.0059,0.0463,-2.23,-20.92,-22.83,92.26,-2.95,3.58
55023,52.377056,-1.485697,98,21.94,9.0,90.7,15 / 24,5502341,2019-08-31 11:22:02:420,0.3303,0.1437,8.3306,0.0759,-0.0394,9.8063,0.0553,-0.0421,0.0154,-2.91,-20.17,-22.45,95.09,-3.02,3.8
55024,52.377056,-1.485697,98,21.94,9.0,90.7,15 / 24,5502441,2019-08-31 11:22:02:520,0.2091,0.053,8.9055,0.0301,-0.0877,9.8062,0.0383,-0.0709,0.0303,-3.29,-20.92,-22.01,95.11,-2.76,4.22
55025,52.377056,-1.485697,98,21.94,9.0,90.7,15 / 24,5502541,2019-08-31 11:22:02:620,0.2882,-0.4034,7.9637,0.0609,-0.1133,9.8058,0.0383,-0.0709,0.0303,-2.23,-20.17,-22.45,95.11,-2.76,4.22
55026,52.377056,-1.485697,98,21.94,9.0,90.7,15 / 24,5502642,2019-08-31 11:22:02:721,0.3502,-0.5521,10.0127,0.041,-0.0123,9.8066,0.034,0.0175,0.0367,-2.54,-20.55,-22.08,95.71,-2.06,4.51
55027,52.377056,-1.485697,98,21.94,9.0,90.7,15 / 24,5502741,2019-08-31 11:22:02:820,0.8161,0.06,10.1752,0.0636,-0.0369,9.8064,0.0106,0.025,0.0399,-2.23,-20.92,-22.39,95.71,-2.06,4.51
55028,52.377056,-1.485697,98,21.94,9.0,90.7,15 / 24,5502841,2019-08-31 11:22:02:920,0.2226,-0.7308,10.0821,0.0832,-0.0392,9.8062,-0.0214,0.0271,0.0505,-1.85,-20.55,-22.89,93.35,-1.79,4.97
55029,52.377056,-1.485697,98,21.94,9.0,90.7,15 / 24,5502941,2019-08-31 11:22:03:020,0.5959,0.444,9.7859,0.0025,-0.0067,9.8066,0.0148,0.058,0.0175,-1.85,-20.55,-22.89,93.35,-1.79,4.97
55030,52.377056,-1.485697,98,21.94,9.0,90.7,15 / 24,5503041,2019-08-31 11:22:03:120,-0.1151,-0.2508,9.8979,-0.0096,-0.0047,9.8066,-0.0001,0.0058,0.0441,-2.91,-21.61,-23.7,95.54,-1.75,4.99
55031,52.377064,-1.485372,99,22.02,9.0,88.9,15 / 24,5503141,2019-08-31 11:22:03:220,-0.3059,-0.5234,9.0757,-0.0081,-0.05,9.8065,-0.0107,-0.0464,0.0388,-3.36,-21.35,-20.81,96.31,-1.46,4.91
55032,52.377064,-1.485372,99,22.02,9.0,88.9,15 / 24,5503241,2019-08-31 11:22:03:320,-0.2466,-0.6382,9.4894,0.0054,-0.0682,9.8064,-0.0107,-0.0464,0.0388,-1.87,-21.81,-20.51,96.31,-1.46,4.91
55033,52.377064,-1.485372,99,22.02,9.0,88.9,15 / 24,5503341,2019-08-31 11:22:03:420,-0.3303,-0.5869,9.6178,0.0118,-0.0232,9.8066,0.0319,-0.0016,0.0228,-0.73,-21.61,-21.2,91.8,-0.76,4.98
55034,52.377064,-1.485372,99,22.02,9.0,88.9,15 / 24,5503441,2019-08-31 11:22:03:520,0.1579,-0.1095,10.47,0.0189,-0.0317,9.8066,-0.0043,0.0303,0.0356,-1.48,-21.98,-21.2,91.8,-0.76,4.98
55035,52.377064,-1.485372,99,22.02,9.0,88.9,15 / 24,5503543,2019-08-31 11:22:03:622,-0.2631,-0.2774,10.4158,0.015,-0.0317,9.8066,-0.0086,-0.0325,0.0292,-1.48,-21.98,-21.2,91.8,-0.76,4.98
55036,52.377064,-1.485372,99,22.02,9.0,88.9,15 / 24,5503641,2019-08-31 11:22:03:720,-0.2987,-0.2027,9.7344,-0.0126,0.0137,9.8066,-0.0384,0.0111,0.0548,-2.23,-22.36,-21.64,94.31,-0.57,5.06
55037,52.377064,-1.485372,99,22.02,9.0,88.9,15 / 24,5503741,2019-08-31 11:22:03:820,-0.1962,-0.3309,9.4742,-0.0101,0.0036,9.8066,0.001,0.0133,0.0132,-1.85,-21.61,-20.76,94.29,-0.66,4.99
55038,52.377064,-1.485372,99,22.02,9.0,88.9,15 / 24,5503841,2019-08-31 11:22:03:920,0.0319,-0.3657,9.6493,-0.0135,-0.0146,9.8066,-0.0203,-0.0347,0.0314,-1.85,-24.17,-19.95,94.06,-0.58,4.91
55039,52.377064,-1.485372,99,22.02,9.0,88.9,15 / 24,5503941,2019-08-31 11:22:04:020,0.0344,-0.3775,10.0634,-0.0044,-0.0379,9.8066,-0.0203,-0.0347,0.0314,-1.85,-24.17,-19.95,94.06,-0.58,4.91
55040,52.37707,-1.485048,100,21.77,9.0,87.2,15 / 24,5504042,2019-08-31 11:22:04:121,-0.2757,-0.2513,10.1433,-0.0211,-0.0656,9.8064,-0.0192,-0.0219,0.0218,-1.1,-24.17,-20.83,94.06,-0.58,4.91
55041,52.37707,-1.485048,100,21.77,9.0,87.2,17 / 24,5504142,2019-08-31 11:22:04:221,0.1867,0.28,9.8733,-0.0108,-0.0144,9.8066,0.0127,0.0037,0.0409,-1.1,-22.73,-23.26,92.13,-0.21,4.76
55042,52.37707,-1.485048,100,21.77,9.0,87.2,17 / 24,5504241,2019-08-31 11:22:04:320,-0.2293,0.1225,9.8444,0.0026,-0.004,9.8066,0.0202,0.0186,0.0132,-1.48,-22.73,-23.2,92.25,-0.07,4.7
55043,52.37707,-1.485048,100,21.77,9.0,87.2,17 / 24,5504341,2019-08-31 11:22:04:420,0.0904,0.4867,8.7025,-0.0215,0.0025,9.8066,-0.0256,0.0069,0.0367,-1.48,-22.73,-23.2,92.25,-0.07,4.7
55044,52.37707,-1.485048,100,21.77,9.0,87.2,17 / 24,5504441,2019-08-31 11:22:04:520,-0.0408,0.4186,10.8526,-0.0173,0.0087,9.8066,-0.0182,0.0495,0.0335,-2.23,-21.98,-22.83,94.73,-0.09,4.57
55045,52.37707,-1.485048,100,21.77,9.0,87.2,17 / 24,5504541,2019-08-31 11:22:04:620,-0.482,-0.2166,9.7778,-0.0352,0.0057,9.8066,0.0148,0.0612,0.0058,-2.25,-21.79,-20.5,94.75,-0.15,4.48
55046,52.37707,-1.485048,100,21.77,9.0,87.2,17 / 24,5504641,2019-08-31 11:22:04:720,-0.5184,0.0982,10.5279,-0.0517,0.0044,9.8065,-0.0118,-0.0102,0.0388,-2.25,-21.79,-20.5,94.75,-0.15,4.48
55047,52.37707,-1.485048,100,21.77,9.0,87.2,17 / 24,5504741,2019-08-31 11:22:04:820,0.017,0.1301,8.7199,-0.0034,0.0125,9.8066,-0.0118,-0.0102,0.0388,-1.1,-22.36,-20.33,92.29,-0.2,4.18
55048,52.37707,-1.485048,100,21.77,9.0,87.2,17 / 24,5504841,2019-08-31 11:22:04:920,0.2367,0.1715,10.3414,-0.007,0.0151,9.8066,0.0692,0.0079,0.0175,-0.73,-22.73,-21.95,92.11,-0.27,4.16
55049,52.37707,-1.485048,100,21.77,9.0,87.2,17 / 24,5504941,2019-08-31 11:22:05:020,-0.3845,0.4462,8.872,-0.0236,0.0384,9.8065,0.0362,0.0324,0.0154,-1.48,-22.36,-22.39,92.0,-0.5,4.03
55050,52.377087,-1.484742,99,21.57,9.0,85.8,18 / 24,5505040,2019-08-31 11:22:05:119,-0.0399,0.8614,9.2298,0.0117,0.0217,9.8066,0.018,0.0111,0.0186,-2.54,-22.36,-21.95,92.0,-0.5,4.03
55051,52.377087,-1.484742,99,21.57,9.0,85.8,18 / 24,5505141,2019-08-31 11:22:05:220,0.0386,0.573,9.3612,0.0246,0.0676,9.8064,0.0074,0.0143,0.0409,-2.54,-22.36,-21.95,92.0,-0.5,4.03
55052,52.377087,-1.484742,99,21.57,9.0,85.8,18 / 24,5505241,2019-08-31 11:22:05:320,0.197,0.2287,9.4729,0.0227,0.0017,9.8066,0.0138,0.0346,0.0356,-0.73,-23.11,-22.01,91.6,-0.89,4.19
55053,52.377087,-1.484742,99,21.57,9.0,85.8,18 / 24,5505341,2019-08-31 11:22:05:420,0.4774,0.8184,9.9252,0.0248,0.0204,9.8066,-0.0022,-0.0315,0.0409,-1.95,-24.65,-23.79,93.54,-0.9,4.32
55054,52.377087,-1.484742,99,21.57,9.0,85.8,18 / 24,5505441,2019-08-31 11:22:05:520,0.445,0.4047,9.9294,0.0275,0.037,9.8065,0.0148,0.0378,0.0356,-1.95,-24.65,-23.79,93.54,-0.9,4.32
55055,52.377087,-1.484742,99,21.57,9.0,85.8,18 / 24,5505542,2019-08-31 11:22:05:621,-0.0912,-0.0468,10.237,0.0131,0.0249,9.8066,0.0148,0.0378,0.0356,-1.2,-21.34,-22.54,91.48,-1.1,4.49
55056,52.377087,-1.484742,99,21.57,9.0,85.8,18 / 24,5505641,2019-08-31 11:22:05:720,-0.1824,-0.0889,9.1695,0.0105,0.0358,9.8066,0.033,0.0495,0.0037,-1.2,-22.09,-23.36,91.48,-1.1,4.49
55057,52.377087,-1.484742,99,21.57,9.0,85.8,18 / 24,5505742,2019-08-31 11:22:05:821,-0.1438,0.1701,9.5162,-0.0068,0.0136,9.8066,-0.0075,0.0037,0.0271,-1.95,-22.09,-22.98,93.65,-1.31,4.56
55058,52.377087,-1.484742,99,21.57,9.0,85.8,18 / 24,5505841,2019-08-31 11:22:05:920,-0.5845,-0.4761,9.9257,-0.0225,0.0328,9.8066,-0.0054,-0.0251,0.0271,-0.08,-21.72,-22.54,88.65,-1.51,4.44
55059,52.377087,-1.484742,99,21.57,9.0,85.8,18 / 24,5505941,2019-08-31 11:22:06:020,-0.2445,0.1578,8.8363,-0.0138,0.0219,9.8066,0.0244,0.0378,0.0069,-0.08,-21.72,-22.54,88.65,-1.51,4.44
55060,52.377087,-1.484742,99,21.57,9.0,85.8,18 / 24,5506041,2019-08-31 11:22:06:120,-0.1341,-0.0295,9.9522,-0.0195,0.02,9.8066,0.0223,-0.0357,0.0132,-0.83,-23.59,-23.36,90.89,-1.63,4.33
55061,52.377113,-1.48443,99,21.56,9.0,84.3,18 / 24,5506141,2019-08-31 11:22:06:220,-0.1375,0.1886,9.4375,-0.0035,0.0037,9.8066,-0.0001,0.009,0.0324,-0.83,-23.59,-23.36,90.89,-1.63,4.33
55062,52.377113,-1.48443,99,21.56,9.0,84.3,18 / 24,5506241,2019-08-31 11:22:06:320,-0.5683,-0.4388,9.3088,-0.0009,-0.0027,9.8066,0.0042,0.0569,0.0196,-0.45,-21.34,-21.73,88.51,-1.65,4.31
55063,52.377113,-1.48443,99,21.56,9.0,84.3,18 / 24,5506341,2019-08-31 11:22:06:420,0.222,0.2925,10.1199,-0.0113,0.0289,9.8066,0.0042,0.0569,0.0196,0.67,-21.34,-23.79,85.71,-1.82,4.32
55064,52.377113,-1.48443,99,21.56,9.0,84.3,18 / 24,5506441,2019-08-31 11:22:06:520,-0.0619,0.2105,11.7043,-0.0242,0.0648,9.8064,-0.0033,0.0239,0.026,-1.2,-21.72,-23.36,85.71,-1.82,4.32
55065,52.377113,-1.48443,99,21.56,9.0,84.3,18 / 24,5506541,2019-08-31 11:22:06:620,0.5292,0.5736,10.7087,-0.0403,0.0119,9.8066,-0.0267,0.0324,0.0207,-0.83,-22.09,-21.29,90.64,-2.18,4.15
55066,52.377113,-1.48443,99,21.56,9.0,84.3,18 / 24,5506641,2019-08-31 11:22:06:720,-0.1422,0.2835,9.4473,-0.0701,0.0289,9.8064,-0.0406,-0.0219,0.0207,-0.83,-22.09,-21.29,90.64,-2.18,4.15
55067,52.377113,-1.48443,99,21.56,9.0,84.3,18 / 24,5506741,2019-08-31 11:22:06:820,-0.4028,-0.1256,10.3903,-0.0301,-0.0203,9.8066,-0.0171,-0.0315,0.0228,0.67,-22.47,-20.86,85.58,-2.36,3.75
55068,52.377113,-1.48443,99,21.56,9.0,84.3,18 / 24,5506841,2019-08-31 11:22:06:920,-0.1192,0.7197,9.4134,-0.0098,-0.0029,9.8066,0.0159,-0.0496,0.0218,1.73,-22.84,-22.11,83.45,-2.22,3.58
55069,52.377113,-1.48443,99,21.56,9.0,84.3,18 / 24,5506941,2019-08-31 11:22:07:020,-0.5454,-0.2437,8.9184,-0.0199,-0.0064,9.8066,-0.0171,-0.0379,0.0356,0.67,-23.22,-23.36,85.73,-2.17,3.47
55070,52.377113,-1.48443,99,21.56,9.0,84.3,18 / 24,5507042,2019-08-31 11:22:07:121,0.0057,0.6735,10.4265,-0.0126,0.0161,9.8066,-0.0097,-0.008,0.0409,0.67,-23.22,-23.36,85.73,-2.17,3.47
55071,52.377132,-1.484109,98,21.78,9.0,83.1,18 / 24,5507141,2019-08-31 11:22:07:220,-0.2702,0.3363,9.6145,-0.019,0.0406,9.8065,-0.0097,-0.008,0.0409,-0.45,-23.53,-22.11,88.04,-2.4,3.34
55072,52.377132,-1.484109,98,21.78,9.0,83.1,18 / 24,5507240,2019-08-31 11:22:07:319,-0.1367,0.1536,9.0605,-0.0085,0.0279,9.8066,0.0095,-0.0166,0.0186,-0.45,-23.53,-20.86,88.04,-2.4,3.34
55073,52.377132,-1.484109,98,21.78,9.0,83.1,18 / 24,5507341,2019-08-31 11:22:07:420,0.3817,0.1289,9.3307,-0.0104,0.066,9.8064,-0.0107,-0.0017,0.0388,0.3,-24.28,-20.86,87.83,-2.79,3.27
55074,52.377132,-1.484109,98,21.78,9.0,83.1,18 / 24,5507441,2019-08-31 11:22:07:520,-0.2056,-0.1956,10.6148,-0.0038,0.0104,9.8066,-0.0192,-0.024,0.0239,0.3,-24.28,-20.86,87.83,-2.79,3.27
55075,52.377132,-1.484109,98,21.78,9.0,83.1,18 / 24,5507542,2019-08-31 11:22:07:621,0.2313,0.6712,10.2212,-0.0074,-0.0126,9.8066,-0.0107,-0.0219,0.0324,1.36,-21.34,-21.29,84.89,-2.84,3.24
55076,52.377132,-1.484109,98,21.78,9.0,83.1,18 / 24,5507641,2019-08-31 11:22:07:720,-0.2634,-0.0952,10.1835,-0.0102,-0.0073,9.8066,0.0212,-0.008,0.0186,0.3,-23.59,-20.92,84.89,-2.84,3.24
55077,52.377132,-1.484109,98,21.78,9.0,83.1,18 / 24,5507741,2019-08-31 11:22:07:820,0.3367,0.2916,10.8261,0.0218,0.0311,9.8066,0.0106,0.0324,0.0324,0.3,-23.9,-21.67,87.71,-2.8,3.19
55078,52.377132,-1.484109,98,21.78,9.0,83.1,18 / 24,5507841,2019-08-31 11:22:07:920,0.4052,0.4,8.8469,0.0297,0.0611,9.8064,-0.0246,-0.0091,0.0441,-0.45,-25.03,-20.48,87.76,-3.16,3.35
55079,52.377132,-1.484109,98,21.78,9.0,83.1,18 / 24,5507941,2019-08-31 11:22:08:020,0.2251,-0.2001,8.7123,0.0231,0.0283,9.8066,-0.0246,-0.0091,0.0441,-0.45,-25.03,-20.48,87.76,-3.16,3.35
55080,52.377132,-1.484109,98,21.78,9.0,83.1,18 / 24,5508043,2019-08-31 11:22:08:122,-0.0663,0.1081,8.9707,0.0162,0.0247,9.8066,0.0298,0.0037,0.0346,0.3,-24.28,-20.48,87.57,-3.31,3.43
55081,52.37715,-1.483786,98,21.94,9.0,81.8,18 / 24,5508144,2019-08-31 11:22:08:223,0.324,0.5764,9.406,0.0196,-0.0007,9.8066,0.0532,0.0005,0.0239,0.98,-24.65,-20.92,85.39,-3.31,3.55
55082,52.37715,-1.483786,98,21.94,9.0,81.8,18 / 24,5508241,2019-08-31 11:22:08:320,0.1914,-0.4499,8.4461,0.0609,-0.0065,9.8065,0.0564,0.0133,0.0122,0.98,-24.65,-20.92,85.39,-3.31,3.55
55083,52.37715,-1.483786,98,21.94,9.0,81.8,18 / 24,5508341,2019-08-31 11:22:08:420,0.3032,0.0117,10.4715,0.0116,0.0088,9.8066,-0.031,-0.0091,0.0377,0.3,-24.65,-20.92,87.69,-3.21,4.22
55084,52.37715,-1.483786,98,21.94,9.0,81.8,18 / 24,5508441,2019-08-31 11:22:08:520,0.2625,-0.3722,9.366,-0.0269,0.0269,9.8066,-0.0789,0.0537,0.0495,-0.08,-23.9,-19.67,87.68,-3.26,4.29
55085,52.37715,-1.483786,98,21.94,9.0,81.8,18 / 24,5508541,2019-08-31 11:22:08:620,-0.2916,-0.1414,9.8633,-0.0147,0.0372,9.8066,0.0074,0.0005,0.0548,-0.08,-23.9,-19.67,87.68,-3.26,4.29
55086,52.37715,-1.483786,98,21.94,9.0,81.8,18 / 24,5508641,2019-08-31 11:22:08:720,0.1156,-0.1299,10.2175,0.0358,-0.0206,9.8066,0.0628,-0.024,0.0218,1.36,-23.53,-20.42,85.27,-3.47,4.19
55087,52.37715,-1.483786,98,21.94,9.0,81.8,18 / 24,5508741,2019-08-31 11:22:08:820,0.2085,-0.2797,9.1605,0.0644,-0.0186,9.8064,0.0628,-0.024,0.0218,0.67,-24.65,-20.86,85.44,-3.37,4.41
55088,52.37715,-1.483786,98,21.94,9.0,81.8,18 / 24,5508841,2019-08-31 11:22:08:920,-0.0167,-0.0311,10.5947,0.0974,-0.0336,9.8061,0.001,0.0047,0.0473,0.3,-23.53,-20.48,87.76,-3.22,4.99
55089,52.37715,-1.483786,98,21.94,9.0,81.8,18 / 24,5508941,2019-08-31 11:22:09:020,-0.4218,-0.0886,10.2505,0.0273,0.0368,9.8065,-0.0033,0.0015,0.0495,0.3,-23.53,-20.48,87.76,-3.22,4.99
55090,52.37715,-1.483786,98,21.94,9.0,81.8,18 / 24,5509042,2019-08-31 11:22:09:121,0.573,0.4246,10.4518,-0.0281,0.0231,9.8066,0.0085,0.0133,0.0335,0.98,-22.47,-20.48,85.0,-3.44,5.14
55091,52.377186,-1.483454,98,22.25,9.0,80.2,20 / 24,5509141,2019-08-31 11:22:09:220,-0.4305,-0.2211,8.6338,-0.0315,0.0086,9.8066,0.0415,-0.04,0.0186,1.38,-22.02,-20.33,84.95,-3.48,4.96
55092,52.377186,-1.483454,98,22.25,9.0,80.2,20 / 24,5509241,2019-08-31 11:22:09:320,0.3311,-0.2969,9.0757,0.0072,-0.0362,9.8066,0.0159,0.0356,0.0239,1.36,-21.4,-20.98,84.95,-3.48,4.96
55093,52.377186,-1.483454,98,22.25,9.0,80.2,20 / 24,5509341,2019-08-31 11:22:09:420,-0.0216,-0.4182,8.1765,-0.0151,0.0308,9.8066,-0.0246,0.0399,0.0409,1.0,-20.68,-21.71,84.8,-3.1,5.07
55094,52.377186,-1.483454,98,22.25,9.0,80.2,20 / 24,5509440,2019-08-31 11:22:09:519,-0.0449,-0.5275,10.2958,-0.0377,0.041,9.8065,-0.0246,0.0399,0.0409,1.0,-20.68,-21.71,84.8,-3.1,5.07
55095,52.377186,-1.483454,98,22.25,9.0,80.2,20 / 24,5509541,2019-08-31 11:22:09:620,-0.4712,0.0108,9.4144,0.0231,0.0312,9.8066,0.0276,0.0729,0.0079,1.36,-19.53,-22.98,84.19,-3.31,4.82
55096,52.377186,-1.483454,98,22.25,9.0,80.2,20 / 24,5509641,2019-08-31 11:22:09:720,0.5311,0.2746,9.9491,0.0102,0.0334,9.8066,0.0063,-0.0283,0.0314,0.3,-19.53,-22.92,86.6,-3.51,4.86
55097,52.377186,-1.483454,98,22.25,9.0,80.2,20 / 24,5509741,2019-08-31 11:22:09:820,-0.3707,-0.2604,9.4168,-0.0002,-0.0133,9.8066,-0.0203,-0.0581,0.0473,0.3,-19.53,-22.92,86.6,-3.51,4.86
55098,52.377186,-1.483454,98,22.25,9.0,80.2,20 / 24,5509841,2019-08-31 11:22:09:920,0.4409,-0.367,8.3784,-0.0114,-0.0151,9.8066,0.0372,0.0292,0.0005,1.01,-20.87,-21.53,84.47,-3.44,4.87
55099,52.377186,-1.483454,98,22.25,9.0,80.2,20 / 24,5509941,2019-08-31 11:22:10:020,0.4176,0.0345,8.8454,-0.0105,-0.054,9.8065,-0.0246,-0.0688,0.0431,2.13,-20.83,-21.48,82.37,-3.12,4.84
55100,52.377224,-1.483137,98,22.47,9.0,78.3,20 / 24,5510041,2019-08-31 11:22:10:120,-0.4021,-0.5992,9.0282,-0.0035,-0.0686,9.8064,0.0244,-0.0666,0.0537,1.75,-20.46,-21.87,82.37,-3.12,4.84
55101,52.377224,-1.483137,98,22.47,9.0,78.3,20 / 24,5510141,2019-08-31 11:22:10:220,-0.2296,-0.6244,10.0717,0.0084,-0.1102,9.806,0.0575,-0.0059,0.0282,1.75,-20.46,-21.87,82.37,-3.12,4.84
55102,52.377224,-1.483137,98,22.47,9.0,78.3,20 / 24,5510241,2019-08-31 11:22:10:320,0.2701,-0.2269,9.8047,0.0398,-0.0875,9.8062,0.0575,-0.0059,0.0282,2.11,-20.97,-22.11,82.83,-2.49,4.97
55103,52.377224,-1.483137,98,22.47,9.0,78.3,20 / 24,5510341,2019-08-31 11:22:10:420,0.3347,-0.2291,10.9033,0.0007,0.0001,9.8066,-0.0001,0.0005,0.0303,2.48,-20.28,-22.11,82.98,-2.01,5.27
55104,52.377224,-1.483137,98,22.47,9.0,78.3,20 / 24,5510442,2019-08-31 11:22:10:521,0.2405,0.2528,9.712,-0.0325,0.0137,9.8066,-0.0192,0.0623,0.0186,0.98,-20.97,-24.17,85.55,-2.06,5.07
55105,52.377224,-1.483137,98,22.47,9.0,78.3,20 / 24,5510542,2019-08-31 11:22:10:621,-0.6294,-0.7183,10.6736,-0.0346,-0.0177,9.8066,-0.0192,0.0814,0.0132,0.98,-20.97,-24.17,85.55,-2.06,5.07
55106,52.377224,-1.483137,98,22.47,9.0,78.3,20 / 24,5510641,2019-08-31 11:22:10:720,-0.0117,-0.0787,9.7785,-0.0841,-0.0231,9.8063,-0.0448,-0.0187,0.0452,0.3,-20.88,-21.53,85.55,-2.06,5.07
55107,52.377224,-1.483137,98,22.47,9.0,78.3,20 / 24,5510741,2019-08-31 11:22:10:820,-0.0937,-0.2122,9.7857,-0.1258,-0.0568,9.8057,-0.0001,-0.0453,0.009,1.73,-21.72,-21.67,83.74,-1.68,4.36
55108,52.377224,-1.483137,98,22.47,9.0,78.3,20 / 24,5510840,2019-08-31 11:22:10:919,-0.0958,-0.0869,9.1371,-0.0143,-0.0299,9.8066,-0.0139,-0.0421,0.0292,1.37,-21.06,-21.32,86.18,-1.49,4.3
55109,52.377224,-1.483137,98,22.47,9.0,78.3,20 / 24,5510941,2019-08-31 11:22:11:020,-0.3366,-0.5203,9.3515,-0.0173,-0.0385,9.8066,0.0148,-0.0251,0.0186,1.37,-21.06,-21.32,86.18,-1.49,4.3
55110,52.377274,-1.482811,99,22.27,10.0,76.8,20 / 24,5511042,2019-08-31 11:22:11:121,-0.3305,-0.3644,10.5521,-0.0025,-0.043,9.8066,0.0148,-0.0251,0.0186,2.13,-20.83,-21.48,84.07,-0.98,4.08
55111,52.377274,-1.482811,99,22.27,10.0,76.8,20 / 24,5511141,2019-08-31 11:22:11:220,-0.4557,-0.3902,10.4572,0.0112,-0.0433,9.8065,0.0457,0.0889,0.0164,2.86,-21.72,-22.92,84.07,-0.98,4.08
55112,52.377274,-1.482811,99,22.27,10.0,76.8,20 / 24,5511241,2019-08-31 11:22:11:320,0.023,0.1045,10.696,0.0063,0.0247,9.8066,0.0063,-0.0336,0.0356,1.36,-22.09,-22.11,86.93,-0.73,4.17
55113,52.377274,-1.482811,99,22.27,10.0,76.8,20 / 24,5511341,2019-08-31 11:22:11:420,-0.1738,-0.0244,10.1368,0.014,0.0202,9.8066,0.0212,0.0335,0.025,1.37,-21.43,-20.95,86.72,-0.86,4.24
55114,52.377274,-1.482811,99,22.27,10.0,76.8,20 / 24,5511441,2019-08-31 11:22:11:520,-0.0654,-0.5643,10.4594,0.0193,-0.0225,9.8066,0.0298,-0.0474,0.0452,1.37,-21.43,-20.95,86.72,-0.86,4.24
55115,52.377274,-1.482811,99,22.27,10.0,76.8,20 / 24,5511542,2019-08-31 11:22:11:621,-0.1114,0.1554,9.1165,-0.0286,0.0052,9.8066,-0.032,0.0111,0.0239,1.74,-21.42,-20.93,84.31,-0.73,4.36
55116,52.377274,-1.482811,99,22.27,10.0,76.8,20 / 24,5511641,2019-08-31 11:22:11:720,-0.2814,-0.1609,9.733,-0.058,-0.0022,9.8065,-0.0011,0.0271,0.0239,2.58,-21.42,-20.85,81.8,-0.69,4.03
55117,52.377274,-1.482811,99,22.27,10.0,76.8,20 / 24,5511740,2019-08-31 11:22:11:819,0.3343,0.2973,9.1977,-0.0002,-0.0229,9.8066,-0.0054,-0.1071,0.026,2.58,-21.42,-20.85,81.8,-0.69,4.03
55118,52.377274,-1.482811,99,22.27,10.0,76.8,20 / 24,5511841,2019-08-31 11:22:11:920,-0.352,-0.2303,10.1116,-0.0048,-0.0621,9.8065,-0.0054,-0.1071,0.026,2.97,-21.39,-20.82,82.11,-0.32,4.05
55119,52.377274,-1.482811,99,22.27,10.0,76.8,20 / 24,5511941,2019-08-31 11:22:12:020,0.4884,0.1609,10.0688,-0.0062,-0.0191,9.8066,-0.0065,0.0346,0.026,3.63,-21.11,-21.0,79.71,-0.21,4.03
55120,52.377274,-1.482811,99,22.27,10.0,76.8,19 / 24,5512041,2019-08-31 11:22:12:120,-0.2345,-0.2479,10.3419,-0.0015,-0.0121,9.8066,0.001,0.0218,0.0132,2.48,-21.34,-21.67,79.71,-0.21,4.03
55121,52.37732,-1.482483,100,22.24,10.0,75.5,19 / 24,5512141,2019-08-31 11:22:12:220,-0.0795,-0.2625,9.7716,-0.0283,-0.0224,9.8066,-0.0171,0.009,0.0282,3.23,-22.09,-22.11,82.67,-0.05,3.89
55122,52.37732,-1.482483,100,22.24,10.0,75.5,19 / 24,5512241,2019-08-31 11:22:12:320,-0.0612,0.1463,9.3385,-0.0251,0.0067,9.8066,-0.0001,0.0016,0.0218,3.23,-22.09,-22.11,82.67,-0.05,3.89
55123,52.37732,-1.482483,100,22.24,10.0,75.5,19 / 24,5512341,2019-08-31 11:22:12:420,0.1357,0.1232,10.7844,-0.0178,0.0284,9.8066,-0.0182,0.0293,0.0186,2.48,-22.09,-22.92,85.06,-0.07,3.74
55124,52.37732,-1.482483,100,22.24,10.0,75.5,19 / 24,5512442,2019-08-31 11:22:12:521,0.2209,0.5909,9.6408,-0.0271,0.0071,9.8066,0.0127,0.0356,0.0175,2.48,-22.09,-22.92,85.06,-0.07,3.74
55125,52.37732,-1.482483,100,22.24,10.0,75.5,19 / 24,5512541,2019-08-31 11:22:12:620,0.1861,0.1106,9.8886,-0.0062,-0.0164,9.8066,0.0127,0.0356,0.0175,2.15,-20.64,-21.67,84.79,-0.1,3.58
55126,52.37732,-1.482483,100,22.24,10.0,75.5,19 / 24,5512641,2019-08-31 11:22:12:720,-0.2048,0.2022,9.9111,-0.0053,-0.02,9.8066,0.0372,0.0431,0.0228,3.55,-19.9,-22.54,79.43,0.02,3.56
55127,52.37732,-1.482483,100,22.24,10.0,75.5,19 / 24,5512741,2019-08-31 11:22:12:820,0.4818,0.3951,10.292,0.0165,-0.0049,9.8066,0.0266,-0.0016,0.0409,3.55,-19.9,-22.54,79.43,0.02,3.56
55128,52.37732,-1.482483,100,22.24,10.0,75.5,19 / 24,5512841,2019-08-31 11:22:12:920,0.4522,-0.0393,9.5525,0.0235,0.0064,9.8066,0.0244,0.0303,0.0271,2.86,-20.28,-22.54,82.06,0.03,3.66
55129,52.37732,-1.482483,100,22.24,10.0,75.5,19 / 24,5512942,2019-08-31 11:22:13:021,0.7337,0.5191,9.8628,0.0505,0.0115,9.8065,-0.0182,0.0719,0.0335,2.86,-19.53,-23.36,82.06,0.03,3.66
55130,52.377373,-1.482168,100,21.84,10.0,74.3,19 / 24,5513041,2019-08-31 11:22:13:120,0.2383,0.2882,9.5438,-0.0064,0.0161,9.8066,-0.0065,-0.0027,0.0452,2.85,-19.66,-24.2,82.02,-0.07,3.94
