,GPS LATITUDE (degrees), GPS LONGITUDE (degrees), GPS ALTITUDE (m), GPS SPEED (Kmh), GPS ACCURACY (m), GPS ORIENTATION (Â°),GPS SATELLITES IN RANGE, TIME SINCE START (ms), DATE (YYYY-MO-DD HH-MI-SS_SSS), ACCELEROMETER X (m/s²) , ACCELEROMETER Y (m/s²), ACCELEROMETER Z (m/s²), GRAVITY X (m/s²), GRAVITY Y (m/s²), GRAVITY Z (m/s²), GYROSCOPE Yaw (rad/s), GYROSCOPE Pitch (rad/s), GYROSCOPE Roll (rad/s), MAGNETIC FIELD X (Î¼T), MAGNETIC FIELD Y (Î¼T), MAGNETIC FIELD Z (Î¼T), ORIENTATION (Yaw) (Â°), ORIENTATION (Pitch) (Â°), ORIENTATION (Roll ) (Â°)
14781,52.722557,-1.582458,139.33,19.06,6,283.36,24 / 25,1478120,2019-11-06 11:06:25:463,-2.3367,0.5811,10.3727,-0.0459,-0.0865,9.8061,-0.011,-0.0626,0.0554,-1.69,-36.37,11.56,243.79,-85.81,84.4
14782,52.722557,-1.582458,139.33,19.06,6,283.36,24 / 25,1478220,2019-11-06 11:06:25:563,-4.2543,-0.8636,9.433,-0.0067,-0.0162,9.8066,-0.0514,0.1596,-0.1244,-2.06,-36.75,11.94,248.84,-86.17,89.2
14783,52.722557,-1.582458,139.33,19.06,6,283.36,24 / 25,1478320,2019-11-06 11:06:25:663,-3.8886,-1.2581,7.9201,0.0032,-0.0028,9.8066,-0.0279,0.1775,-0.249,-2.19,-36.75,11.5,249.11,-86.16,89.53
14784,52.722557,-1.582458,139.33,19.06,6,283.36,24 / 25,1478420,2019-11-06 11:06:25:763,-2.1303,-0.5473,8.4304,-0.0111,0.0874,9.8062,-0.1953,0.1145,-0.0639,-1.62,-36.37,11.19,249.11,-86.16,89.53
14785,52.722557,-1.582458,139.33,19.06,6,283.36,24 / 25,1478520,2019-11-06 11:06:25:863,-2.7569,1.2858,8.9183,-0.0623,0.0208,9.8064,0.1645,-0.2446,0.0386,-2.25,-36.81,10.38,240.49,-86.01,82.33
14786,52.722557,-1.582458,139.33,19.06,6,283.36,24 / 25,1478619,2019-11-06 11:06:25:962,-3.4429,2.035,9.1821,-0.0915,0.0099,9.8062,-0.0934,-0.2923,0.1708,-2.44,-37.37,9.81,235.31,-86.43,77.29
14787,52.722557,-1.582458,139.33,19.06,6,283.36,24 / 25,1478719,2019-11-06 11:06:26:062,-3.8964,-0.6095,10.7797,-0.0165,-0.057,9.8064,-0.0174,-0.0374,0.0323,-2.12,-36.75,10.5,241.18,-86.69,81.09
14788,52.722557,-1.582458,139.33,19.06,6,283.36,24 / 25,1478819,2019-11-06 11:06:26:162,-5.7488,-3.5965,10.1192,-0.0242,-0.0562,9.8064,-0.0262,0.2123,-0.2106,-2.44,-36.87,10.44,241.18,-86.69,81.09
14789,52.722557,-1.582458,139.33,19.06,6,283.36,24 / 25,1478920,2019-11-06 11:06:26:263,-6.0209,-3.1895,9.5067,-0.0179,0.0023,9.8066,-0.0159,-0.3662,0.178,-2.69,-36.69,9.81,239.28,-86.97,85.24
14790,52.722607,-1.582742,139.48,18.74,6,289.24,23 / 23,1479020,2019-11-06 11:06:26:363,-3.6074,0.3866,7.4732,0.0347,0.1194,9.8058,0.0446,-0.3174,-0.027,-2.0,-36.94,9.56,235.25,-86.4,77.31
14791,52.722607,-1.582742,139.48,18.74,6,289.24,23 / 23,1479119,2019-11-06 11:06:26:462,1.0488,0.0034,9.2625,0.1267,0.092,9.8054,-0.0736,0.0851,-0.1196,-2.0,-36.69,9.63,235.25,-86.4,77.31
14792,52.722607,-1.582742,139.48,18.74,6,289.24,23 / 23,1479219,2019-11-06 11:06:26:562,1.4132,-0.1411,9.763,0.0163,0.0466,9.8065,-0.0926,0.3923,-0.3586,-1.94,-36.25,8.81,230.48,-85.49,77.06
14793,52.722607,-1.582742,139.48,18.74,6,289.24,23 / 23,1479320,2019-11-06 11:06:26:663,-1.5154,-0.1295,9.5013,0.0446,-0.0106,9.8065,0.1512,-0.4518,0.1577,-1.31,-36.19,9.13,234.26,-85.02,76.8
14794,52.722607,-1.582742,139.48,18.74,6,289.24,23 / 23,1479420,2019-11-06 11:06:26:763,-3.7163,-2.2635,9.8256,0.1601,-0.0207,9.8053,-0.0591,-0.3497,0.2001,-0.44,-36.06,9.25,242.66,-84.3,83.3
14795,52.722607,-1.582742,139.48,18.74,6,289.24,23 / 23,1479520,2019-11-06 11:06:26:863,-4.1297,-3.8915,9.5949,0.0461,0.0291,9.8064,-0.1032,0.4007,-0.2374,-0.31,-36.31,9.0,242.66,-84.3,83.3
14796,52.722607,-1.582742,139.48,18.74,6,289.24,23 / 23,1479620,2019-11-06 11:06:26:963,-5.7939,-2.8165,10.5387,0.0149,0.0038,9.8065,-0.0052,0.301,-0.3507,-0.12,-36.25,9.38,240.5,-83.75,82.74
14797,52.722607,-1.582742,139.48,18.74,6,289.24,23 / 23,1479722,2019-11-06 11:06:27:065,-2.3569,-4.1417,8.5028,0.0086,-0.0192,9.8066,0.1986,-0.6214,0.6627,-0.87,-35.69,9.31,235.25,-83.6,82.87
14798,52.722607,-1.582742,139.48,18.74,6,289.24,23 / 23,1479820,2019-11-06 11:06:27:163,-1.7268,-1.8546,7.6589,-0.0138,-0.0295,9.8066,0.1695,0.307,-0.2872,-0.44,-35.81,9.13,235.25,-83.6,82.87
14799,52.722607,-1.582742,139.48,18.74,6,289.24,23 / 23,1479920,2019-11-06 11:06:27:263,-1.6757,2.6679,8.722,-0.0282,-0.0497,9.8064,-0.0341,0.3862,-0.3571,-1.25,-35.75,8.63,238.77,-83.67,87.06
14800,52.722683,-1.583029,139.71,19.31,4,293.92,24 / 24,1480021,2019-11-06 11:06:27:364,-2.2424,-3.8952,10.035,-0.0491,0.0256,9.8064,-0.2338,0.0018,0.0728,-1.37,-36.0,8.56,241.17,-83.95,89.0
14801,52.722683,-1.583029,139.71,19.31,4,293.92,24 / 24,1480120,2019-11-06 11:06:27:463,-0.5251,-0.71,10.8533,-0.0401,0.0631,9.8063,0.3049,-0.6899,0.0856,-1.62,-35.69,7.81,230.23,-83.96,84.85
14802,52.722683,-1.583029,139.71,19.31,4,293.92,24 / 24,1480219,2019-11-06 11:06:27:562,-3.257,-5.1332,11.8076,-0.0186,0.0181,9.8066,0.0301,-0.0938,0.0768,-1.44,-35.5,7.38,230.23,-83.96,84.85
14803,52.722683,-1.583029,139.71,19.31,4,293.92,24 / 24,1480320,2019-11-06 11:06:27:663,0.1249,0.4054,10.6723,0.0513,0.0245,9.8064,-0.1208,0.7316,-0.3367,-1.44,-35.81,7.94,233.72,-83.73,83.91
14804,52.722683,-1.583029,139.71,19.31,4,293.92,24 / 24,1480420,2019-11-06 11:06:27:763,4.6939,3.5893,11.9068,0.0955,-0.0119,9.8061,0.0427,0.8595,-0.6233,-1.12,-35.44,7.63,235.54,-83.31,87.23
14805,52.722683,-1.583029,139.71,19.31,4,293.92,24 / 24,1480520,2019-11-06 11:06:27:863,2.0958,-0.4043,10.8249,-0.1125,-0.0966,9.8054,-0.1584,-0.815,0.6476,-1.69,-35.94,7.63,235.54,-83.31,87.23
14806,52.722683,-1.583029,139.71,19.31,4,293.92,24 / 24,1480620,2019-11-06 11:06:27:963,-5.1446,-2.9617,9.0316,-0.1101,-0.002,9.806,-0.0556,-0.5412,0.4187,-1.44,-35.87,7.81,233.36,-84.17,88.15
14807,52.722683,-1.583029,139.71,19.31,4,293.92,24 / 24,1480720,2019-11-06 11:06:28:063,-4.691,-2.0274,8.4766,-0.0981,0.0063,9.8061,0.2659,-0.1456,-0.2121,-1.81,-36.25,8.06,231.48,-84.6,84.2
14808,52.722683,-1.583029,139.71,19.31,4,293.92,24 / 24,1480820,2019-11-06 11:06:28:163,-1.146,-0.7628,7.4461,0.011,0.0068,9.8066,0.0198,-0.1242,0.087,-1.87,-36.44,6.94,227.92,-84.52,84.29
14809,52.722683,-1.583029,139.71,19.31,4,293.92,24 / 24,1480920,2019-11-06 11:06:28:263,-3.2506,-3.4201,7.843,-0.0507,0.0613,9.8063,-0.063,0.3494,-0.3293,-1.94,-36.37,7.38,227.92,-84.52,84.29
14810,52.72276,-1.583278,139.96,19.43,6,298.22,22 / 24,1481020,2019-11-06 11:06:28:363,-6.5687,-0.0092,9.5796,0.0556,0.0363,9.8064,0.0699,0.3545,-0.3479,-1.44,-36.12,6.81,229.54,-84.48,79.46
14811,52.72276,-1.583278,139.96,19.43,6,298.22,22 / 24,1481119,2019-11-06 11:06:28:462,-0.6109,-1.2573,11.5233,0.186,0.02,9.8049,0.1256,-0.0138,-0.0304,-1.81,-35.87,6.75,225.69,-83.55,84.95
14812,52.72276,-1.583278,139.96,19.43,6,298.22,22 / 24,1481220,2019-11-06 11:06:28:563,1.1554,0.4291,10.6546,-0.0232,-0.058,9.8064,0.1739,-0.39,0.1717,-1.56,-35.56,6.63,225.69,-83.55,84.95
14813,52.72276,-1.583278,139.96,19.43,6,298.22,22 / 24,1481320,2019-11-06 11:06:28:663,-1.1182,-0.3959,10.1983,-0.0405,-0.0371,9.8065,0.0333,0.0232,0.0688,-1.75,-36.31,6.63,227.59,-83.88,86.34
14814,52.72276,-1.583278,139.96,19.43,6,298.22,22 / 24,1481419,2019-11-06 11:06:28:762,-3.5712,-1.0019,10.0406,-0.0049,-0.0356,9.8065,-0.0194,0.3759,-0.2385,-2.06,-36.06,6.75,229.73,-84.29,87.65
14815,52.72276,-1.583278,139.96,19.43,6,298.22,22 / 24,1481519,2019-11-06 11:06:28:862,-3.503,-4.1101,10.16,-0.0072,-0.0944,9.8061,0.0384,0.1354,-0.1104,-2.5,-35.81,6.44,229.71,-84.66,91.89
14816,52.72276,-1.583278,139.96,19.43,6,298.22,22 / 24,1481619,2019-11-06 11:06:28:962,-3.124,-5.1322,10.5764,-0.0011,-0.0081,9.8066,0.2417,-0.5357,0.2199,-2.19,-35.87,6.5,229.71,-84.66,91.89
14817,52.72276,-1.583278,139.96,19.43,6,298.22,22 / 24,1481720,2019-11-06 11:06:29:063,2.2565,0.6723,10.835,-0.0029,0.0202,9.8065,-0.1636,-0.0739,0.1249,-2.31,-36.25,6.63,234.79,-84.65,92.81
14818,52.72276,-1.583278,139.96,19.43,6,298.22,22 / 24,1481820,2019-11-06 11:06:29:163,2.9899,2.4827,9.7648,-0.0229,0.0194,9.8066,-0.0072,0.5308,-0.4673,-2.44,-36.37,6.38,228.44,-84.6,90.46
14819,52.72276,-1.583278,139.96,19.43,6,298.22,22 / 24,1481920,2019-11-06 11:06:29:263,1.9796,-0.0292,10.05,-0.0523,0.0321,9.8064,0.037,0.4841,-0.3582,-1.75,-36.5,5.94,228.44,-84.6,90.46
14820,52.72285,-1.583529,140.18,19.73,6,299.75,20 / 21,1482020,2019-11-06 11:06:29:363,-0.9334,-3.8605,10.1336,0.0225,-0.0046,9.8066,-0.0888,0.0418,-0.0007,-1.69,-36.56,6.5,230.17,-84.66,87.36
14821,52.72285,-1.583529,140.18,19.73,6,299.75,20 / 21,1482120,2019-11-06 11:06:29:463,-1.755,-2.6513,10.3783,0.0946,-0.0531,9.806,0.168,-0.3358,0.2249,-2.19,-36.12,5.75,230.17,-84.66,87.36
14822,52.72285,-1.583529,140.18,19.73,6,299.75,20 / 21,1482220,2019-11-06 11:06:29:563,-1.4014,0.2601,10.7357,0.0459,-0.0359,9.8064,0.1155,0.1746,-0.2477,-1.94,-36.31,6.69,234.44,-84.4,93.44
14823,52.72285,-1.583529,140.18,19.73,6,299.75,20 / 21,1482320,2019-11-06 11:06:29:663,0.3527,1.0929,8.5556,0.0309,-0.1555,9.8053,-0.1715,0.4249,0.0844,-2.25,-36.19,6.69,242.81,-84.71,102.64
14824,52.72285,-1.583529,140.18,19.73,6,299.75,20 / 21,1482420,2019-11-06 11:06:29:763,-3.9115,-1.53,7.1122,-0.0911,-0.0138,9.8061,-0.0368,0.4842,-0.373,-1.94,-36.94,7.44,242.81,-84.71,102.64
14825,52.72285,-1.583529,140.18,19.73,6,299.75,20 / 21,1482520,2019-11-06 11:06:29:863,-5.1097,-2.5895,7.4868,-0.031,0.0404,9.8065,-0.1149,-0.3206,0.2981,-2.56,-36.19,6.69,237.81,-85.22,100.58
14826,52.72285,-1.583529,140.18,19.73,6,299.75,20 / 21,1482620,2019-11-06 11:06:29:963,0.4117,1.3622,10.0268,0.0464,0.0138,9.8064,0.119,-0.3466,0.231,-2.69,-36.06,6.31,228.54,-85.0,95.57
14827,52.72285,-1.583529,140.18,19.73,6,299.75,20 / 21,1482720,2019-11-06 11:06:30:063,3.9158,1.9196,12.2713,0.1018,-0.0973,9.8055,0.0239,-0.1419,0.1572,-2.31,-36.62,6.81,244.57,-84.87,104.77
14828,52.72285,-1.583529,140.18,19.73,6,299.75,20 / 21,1482820,2019-11-06 11:06:30:163,1.9863,-0.5969,11.2587,-0.0396,-0.0588,9.8063,0.036,0.1848,-0.0394,-2.44,-36.56,7.31,244.57,-84.87,104.77
14829,52.72285,-1.583529,140.18,19.73,6,299.75,20 / 21,1482920,2019-11-06 11:06:30:263,-1.9488,-1.7847,8.4182,-0.0232,0.0197,9.8066,0.0354,0.3767,-0.1688,-2.69,-36.5,7.0,243.64,-85.48,106.33
14830,52.72294,-1.583786,140.41,20.26,6,298.41,22 / 22,1483020,2019-11-06 11:06:30:363,1.8471,2.1799,9.2225,-0.0007,0.0245,9.8065,-0.2074,0.2443,-0.0153,-2.12,-37.0,7.63,248.04,-85.42,101.5
14831,52.72294,-1.583786,140.41,20.26,6,298.41,22 / 22,1483120,2019-11-06 11:06:30:463,2.5512,0.736,9.1359,-0.0062,0.0236,9.8066,-0.1199,-0.0259,0.0517,-2.0,-36.75,7.56,248.04,-85.42,101.5
14832,52.72294,-1.583786,140.41,20.26,6,298.41,22 / 22,1483220,2019-11-06 11:06:30:563,-0.6656,-2.0613,10.156,-0.0381,-0.0059,9.8065,0.0565,-0.2748,0.129,-2.62,-36.56,7.75,243.08,-85.41,99.67
14833,52.72294,-1.583786,140.41,20.26,6,298.41,22 / 22,1483320,2019-11-06 11:06:30:663,-2.2936,-1.6657,10.1523,-0.025,-0.0169,9.8065,0.0084,-0.0985,0.157,-2.44,-36.37,7.38,243.92,-85.64,99.59
14834,52.72294,-1.583786,140.41,20.26,6,298.41,22 / 22,1483420,2019-11-06 11:06:30:763,-0.5234,-1.9886,10.2785,-0.0579,-0.0106,9.8064,-0.0902,0.3516,-0.1153,-2.37,-36.31,7.31,244.11,-85.97,98.27
14835,52.72294,-1.583786,140.41,20.26,6,298.41,22 / 22,1483520,2019-11-06 11:06:30:863,4.0247,2.2804,10.3852,-0.0114,-0.005,9.8066,-0.0033,0.5914,-0.3611,-2.37,-36.44,7.69,244.11,-85.97,98.27
14836,52.72294,-1.583786,140.41,20.26,6,298.41,22 / 22,1483620,2019-11-06 11:06:30:963,0.7897,1.5506,9.3018,-0.0218,-0.0167,9.8066,-0.109,0.138,-0.024,-2.62,-36.69,7.38,238.81,-86.14,98.21
14837,52.72294,-1.583786,140.41,20.26,6,298.41,22 / 22,1483720,2019-11-06 11:06:31:063,-1.7977,0.6682,10.7116,-0.0241,-0.036,9.8065,0.0835,-0.2736,0.2354,-2.75,-36.44,7.13,241.49,-86.37,99.9
14838,52.72294,-1.583786,140.41,20.26,6,298.41,22 / 22,1483820,2019-11-06 11:06:31:163,-2.2586,-4.2049,11.4042,-0.0025,-0.08,9.8063,0.0749,-0.0768,0.139,-2.81,-36.87,7.81,241.49,-86.37,99.9
14839,52.72294,-1.583786,140.41,20.26,6,298.41,22 / 22,1483920,2019-11-06 11:06:31:263,3.6041,-1.489,10.3879,0.02,-0.0225,9.8065,0.0262,0.0745,-0.0253,-2.69,-37.06,7.94,251.94,-86.58,106.69
14840,52.723022,-1.584053,140.66,20.58,6,296.17,20 / 22,1484020,2019-11-06 11:06:31:363,2.5581,0.6632,9.5146,-0.0004,-0.0072,9.8066,-0.1736,0.4093,-0.0689,-2.75,-36.5,7.75,252.98,-86.6,107.35
14841,52.723022,-1.584053,140.66,20.58,6,296.17,20 / 22,1484120,2019-11-06 11:06:31:463,-1.1107,-0.9916,8.5559,-0.0668,0.005,9.8064,-0.0281,-0.1653,0.102,-2.44,-36.94,8.0,257.22,-86.96,104.67
14842,52.723022,-1.584053,140.66,20.58,6,296.17,20 / 22,1484219,2019-11-06 11:06:31:562,-6.1011,-1.4035,8.3786,-0.0562,0.0139,9.8065,-0.1242,-0.5855,0.5952,-2.62,-36.87,8.0,257.22,-86.96,104.67
14843,52.723022,-1.584053,140.66,20.58,6,296.17,20 / 22,1484320,2019-11-06 11:06:31:663,-3.6608,-1.6768,9.5153,0.0209,0.0034,9.8066,0.2573,-0.499,0.2051,-2.62,-37.31,8.0,249.75,-87.26,101.5
14844,52.723022,-1.584053,140.66,20.58,6,296.17,20 / 22,1484420,2019-11-06 11:06:31:763,3.9067,3.4635,10.4452,0.0703,-0.0127,9.8064,-0.0766,0.222,-0.0364,-2.81,-36.62,8.63,255.18,-86.89,105.41
14845,52.723022,-1.584053,140.66,20.58,6,296.17,20 / 22,1484520,2019-11-06 11:06:31:863,1.7212,0.7736,11.4147,0.0446,-0.0981,9.806,0.2042,0.5346,-0.5788,-2.75,-36.44,9.06,255.18,-86.89,105.41
14846,52.723022,-1.584053,140.66,20.58,6,296.17,20 / 22,1484620,2019-11-06 11:06:31:963,-1.7033,-2.5693,11.8873,0.0256,-0.0262,9.8066,-0.1884,0.0924,0.1355,-2.87,-36.75,8.63,270.55,-86.73,116.35
14847,52.723022,-1.584053,140.66,20.58,6,296.17,20 / 22,1484721,2019-11-06 11:06:32:064,-1.3069,-2.9402,10.1145,-0.0019,0.0426,9.8065,-0.0684,-0.3043,0.164,-2.44,-36.37,8.88,270.78,-86.26,118.08
14848,52.723022,-1.584053,140.66,20.58,6,296.17,20 / 22,1484820,2019-11-06 11:06:32:163,2.1666,0.7204,8.6706,-0.0336,0.113,9.8059,0.1649,-0.4288,0.1997,-2.75,-36.94,9.06,270.78,-86.26,118.08
14849,52.723022,-1.584053,140.66,20.58,6,296.17,20 / 22,1484920,2019-11-06 11:06:32:263,2.9264,1.148,8.3375,-0.0387,0.0294,9.8065,0.0118,0.1543,-0.0235,-2.44,-36.81,8.31,255.77,-86.41,107.53
14850,52.723106,-1.584329,140.95,20.89,4,293.77,24 / 25,1485020,2019-11-06 11:06:32:363,-0.831,-0.067,10.4554,0.0077,-0.0202,9.8066,-0.0122,0.3199,-0.2476,-2.94,-36.81,8.69,253.53,-86.73,104.28
14851,52.723106,-1.584329,140.95,20.89,4,293.77,24 / 25,1485119,2019-11-06 11:06:32:462,0.8304,-1.9904,11.0481,0.0281,-0.0102,9.8065,0.0817,0.1896,-0.037,-2.25,-36.62,9.44,261.96,-86.6,108.12
14852,52.723106,-1.584329,140.95,20.89,4,293.77,24 / 25,1485221,2019-11-06 11:06:32:564,2.2541,0.0574,9.3887,0.0579,0.0026,9.8065,0.0493,0.0979,-0.1046,-2.69,-36.69,9.38,261.96,-86.6,108.12
14853,52.723106,-1.584329,140.95,20.89,4,293.77,24 / 25,1485320,2019-11-06 11:06:32:663,-0.3419,0.5608,8.6287,-0.04,0.0418,9.8064,0.1179,-0.2291,0.0675,-2.69,-36.56,9.0,258.55,-86.21,106.17
14854,52.723106,-1.584329,140.95,20.89,4,293.77,24 / 25,1485420,2019-11-06 11:06:32:763,-1.379,-3.1017,9.8136,0.007,-0.0156,9.8066,-0.1053,-0.185,0.1343,-2.37,-36.94,9.0,253.36,-86.36,100.01
14855,52.723106,-1.584329,140.95,20.89,4,293.77,24 / 25,1485520,2019-11-06 11:06:32:863,1.5037,0.2934,10.9493,0.0559,0.0006,9.8065,-0.1445,-0.0383,0.0209,-2.81,-36.37,9.13,253.36,-86.36,100.01
14856,52.723106,-1.584329,140.95,20.89,4,293.77,24 / 25,1485620,2019-11-06 11:06:32:963,3.4503,0.2009,10.0077,-0.0009,0.0562,9.8065,0.0094,0.2245,-0.0388,-2.37,-36.56,8.44,253.81,-86.05,101.32
14857,52.723106,-1.584329,140.95,20.89,4,293.77,24 / 25,1485720,2019-11-06 11:06:33:063,1.7664,-0.998,10.2244,-0.0037,-0.0175,9.8066,0.0466,-0.0375,-0.0673,-2.25,-36.56,8.88,250.07,-86.1,97.46
14858,52.723106,-1.584329,140.95,20.89,4,293.77,24 / 25,1485820,2019-11-06 11:06:33:163,-1.6942,-1.7576,12.0244,0.0066,-0.064,9.8064,0.0192,-0.2019,0.2041,-1.87,-36.31,9.31,255.77,-86.17,102.94
14859,52.723106,-1.584329,140.95,20.89,4,293.77,24 / 25,1485919,2019-11-06 11:06:33:262,-0.738,-1.9848,9.9811,0.057,0.0274,9.8064,-0.056,0.0091,-0.1561,-2.12,-36.56,9.75,255.77,-86.17,102.94
14860,52.723183,-1.584607,141.24,21.0,4,292.34,21 / 23,1486020,2019-11-06 11:06:33:363,-0.824,-0.2728,9.3965,0.0735,0.0677,9.806,-0.1025,0.079,0.0096,-1.75,-36.56,9.69,252.73,-85.65,99.27
14861,52.723183,-1.584607,141.24,21.0,4,292.34,21 / 23,1486120,2019-11-06 11:06:33:463,1.6673,-0.581,10.7968,-0.0688,0.0171,9.8064,0.1572,-0.058,0.0112,-1.94,-36.0,9.06,248.95,-86.0,96.2
14862,52.723183,-1.584607,141.24,21.0,4,292.34,21 / 23,1486220,2019-11-06 11:06:33:563,2.0979,-0.9134,10.5699,-0.0437,-0.0297,9.8064,-0.0377,-0.0732,0.2197,-1.56,-36.12,9.13,248.95,-86.0,96.2
14863,52.723183,-1.584607,141.24,21.0,4,292.34,21 / 23,1486320,2019-11-06 11:06:33:663,1.639,2.0929,10.3517,-0.0244,-0.032,9.8065,-0.1826,0.2274,-0.0712,-2.19,-36.37,8.94,250.98,-86.3,97.29
14864,52.723183,-1.584607,141.24,21.0,4,292.34,21 / 23,1486419,2019-11-06 11:06:33:762,-0.0357,-0.1695,9.9442,0.024,0.0154,9.8065,0.0039,0.352,-0.2132,-1.75,-36.87,9.63,254.11,-86.4,98.06
14865,52.723183,-1.584607,141.24,21.0,4,292.34,21 / 23,1486519,2019-11-06 11:06:33:862,-0.4699,-0.4566,9.8484,0.0789,0.0023,9.8063,0.0053,-0.2376,0.2235,-1.87,-36.56,9.19,254.11,-86.4,98.06
14866,52.723183,-1.584607,141.24,21.0,4,292.34,21 / 23,1486620,2019-11-06 11:06:33:963,-3.8385,-0.9459,9.8382,0.018,-0.0049,9.8066,-0.0159,-0.1745,0.1042,-1.62,-36.37,9.13,251.57,-85.96,99.66
14867,52.723183,-1.584607,141.24,21.0,4,292.34,21 / 23,1486720,2019-11-06 11:06:34:063,1.2683,-1.3992,9.3297,-0.0057,-0.0317,9.8065,0.085,0.2257,-0.1121,-1.81,-36.31,8.75,252.79,-85.87,100.9
14868,52.723183,-1.584607,141.24,21.0,4,292.34,21 / 23,1486820,2019-11-06 11:06:34:163,1.5156,0.1663,8.4969,-0.0252,0.0265,9.8065,-0.0151,0.3558,-0.2388,-1.62,-36.06,9.0,257.12,-86.05,104.85
14869,52.723183,-1.584607,141.24,21.0,4,292.34,21 / 23,1486920,2019-11-06 11:06:34:263,3.4329,1.8947,9.8186,-0.0801,0.0553,9.8061,-0.1367,-0.3607,0.3046,-2.56,-37.06,9.31,257.12,-86.05,104.85
14870,52.723255,-1.584897,141.62,20.99,4,292.16,22 / 22,1487020,2019-11-06 11:06:34:363,-2.1347,-0.8701,9.668,0.0208,-0.0062,9.8066,0.0949,-0.2855,0.1757,-2.44,-36.75,9.38,249.03,-86.39,95.21
14871,52.723255,-1.584897,141.62,20.99,4,292.16,22 / 22,1487120,2019-11-06 11:06:34:463,-0.0822,-0.4184,10.4899,-0.0101,-0.0254,9.8066,0.0958,0.0235,-0.0672,-2.19,-36.62,8.88,251.55,-86.19,98.71
14872,52.723255,-1.584897,141.62,20.99,4,292.16,22 / 22,1487220,2019-11-06 11:06:34:563,0.4648,-0.9175,11.0561,-0.0246,-0.0433,9.8065,-0.0183,0.1177,0.0218,-1.94,-36.31,9.06,251.55,-86.19,98.71
14873,52.723255,-1.584897,141.62,20.99,4,292.16,22 / 22,1487320,2019-11-06 11:06:34:663,0.0166,2.0273,11.6975,-0.0642,-0.0875,9.806,0.0361,0.3725,-0.1938,-2.62,-36.5,9.19,250.43,-86.4,101.82
14874,52.723255,-1.584897,141.62,20.99,4,292.16,22 / 22,1487420,2019-11-06 11:06:34:763,-1.2989,0.2995,10.1893,0.012,0.0188,9.8066,-0.0029,0.1184,-0.1974,-2.81,-36.81,8.94,255.07,-86.94,105.12
14875,52.723255,-1.584897,141.62,20.99,4,292.16,22 / 22,1487520,2019-11-06 11:06:34:863,-3.1321,-2.6342,9.9036,0.0292,0.0351,9.8065,-0.0106,-0.3451,0.2964,-1.87,-36.81,8.94,256.95,-86.72,102.42
14876,52.723255,-1.584897,141.62,20.99,4,292.16,22 / 22,1487620,2019-11-06 11:06:34:963,-1.0062,1.0808,10.0199,0.0436,0.0204,9.8065,0.1221,-0.3629,0.0727,-1.94,-36.62,9.56,256.95,-86.72,102.42
14877,52.723255,-1.584897,141.62,20.99,4,292.16,22 / 22,1487720,2019-11-06 11:06:35:063,1.5855,0.9954,10.1938,0.0002,0.0247,9.8066,-0.1041,0.4634,-0.2158,-1.31,-36.81,9.94,257.46,-86.44,101.47
14878,52.723255,-1.584897,141.62,20.99,4,292.16,22 / 22,1487820,2019-11-06 11:06:35:163,3.0471,2.0468,9.5867,-0.001,0.0098,9.8066,-0.038,0.5172,-0.2792,-1.06,-37.12,9.94,261.73,-86.43,100.55
14879,52.723255,-1.584897,141.62,20.99,4,292.16,22 / 22,1487919,2019-11-06 11:06:35:262,-2.3728,-4.1575,11.458,-0.0286,0.0417,9.8065,-0.1714,0.218,0.0186,-1.87,-36.94,10.0,261.73,-86.43,100.55
14880,52.723324,-1.585188,141.87,20.95,4,290.52,20 / 22,1488020,2019-11-06 11:06:35:363,-3.2595,-4.2057,12.202,-0.0168,-0.0449,9.8065,0.1331,-0.0943,0.0337,-2.37,-36.56,9.81,254.69,-86.76,97.4
14881,52.723324,-1.585188,141.87,20.95,4,290.52,20 / 22,1488119,2019-11-06 11:06:35:462,4.3348,2.3161,11.1847,-0.0129,-0.0776,9.8063,-0.0116,-0.712,0.4656,-1.81,-36.69,10.0,254.69,-86.76,97.4
14882,52.723324,-1.585188,141.87,20.95,4,290.52,20 / 22,1488220,2019-11-06 11:06:35:563,5.5179,1.3728,10.8902,0.041,0.0073,9.8065,-0.0211,-0.1321,0.2689,-1.25,-36.69,10.13,268.27,-86.72,106.14
14883,52.723324,-1.585188,141.87,20.95,4,290.52,20 / 22,1488320,2019-11-06 11:06:35:663,0.9306,-1.159,10.536,0.0194,0.0244,9.8065,0.0832,0.7223,-0.5567,-1.94,-36.81,10.06,258.46,-86.23,103.28
14884,52.723324,-1.585188,141.87,20.95,4,290.52,20 / 22,1488423,2019-11-06 11:06:35:766,-4.8902,-4.1791,8.7987,0.0202,0.0472,9.8065,-0.189,0.9854,-0.4872,-2.19,-37.06,10.38,258.46,-86.23,103.28
14885,52.723324,-1.585188,141.87,20.95,4,290.52,20 / 22,1488520,2019-11-06 11:06:35:863,-1.7405,-2.4777,9.5191,-0.0461,-0.0381,9.8064,0.2387,-0.5243,0.3437,-2.44,-36.62,9.5,257.77,-86.46,101.74
14886,52.723324,-1.585188,141.87,20.95,4,290.52,20 / 22,1488620,2019-11-06 11:06:35:963,5.4121,0.9782,9.8992,0.0314,-0.0148,9.8066,0.2101,-0.8878,0.2735,-2.19,-36.69,10.88,270.61,-86.94,111.11
14887,52.723324,-1.585188,141.87,20.95,4,290.52,20 / 22,1488721,2019-11-06 11:06:36:064,4.4368,-0.3479,9.5275,0.0404,-0.0035,9.8066,-0.0493,-0.2326,0.3946,-1.56,-36.5,10.81,270.42,-86.7,111.42
14888,52.723324,-1.585188,141.87,20.95,4,290.52,20 / 22,1488822,2019-11-06 11:06:36:165,-0.8082,-2.1956,10.349,0.1506,0.0257,9.8054,0.0215,0.4305,-0.4924,-1.87,-36.75,10.06,270.42,-86.7,111.42
14889,52.723324,-1.585188,141.87,20.95,4,290.52,20 / 22,1488920,2019-11-06 11:06:36:263,-1.7404,-0.7911,9.9429,0.0878,0.0677,9.806,-0.2071,0.8024,-0.4709,-1.06,-36.69,10.63,269.9,-85.82,109.26
14890,52.723392,-1.585479,142.12,20.99,4,288.44,22 / 23,1489020,2019-11-06 11:06:36:363,7.164,2.7482,9.5265,0.0257,0.0129,9.8065,0.0843,0.0942,-0.0038,-1.69,-36.75,10.56,260.08,-85.28,105.97
14891,52.723392,-1.585479,142.12,20.99,4,288.44,22 / 23,1489119,2019-11-06 11:06:36:462,7.3624,3.0073,9.9866,-0.008,0.0245,9.8066,0.0039,-0.6655,0.4249,-1.94,-36.37,10.44,260.08,-85.28,105.97
14892,52.723392,-1.585479,142.12,20.99,4,288.44,22 / 23,1489219,2019-11-06 11:06:36:562,-0.5688,-2.2108,9.5978,-0.0269,-0.0258,9.8066,0.1246,-0.6521,0.4878,-2.12,-36.31,10.56,260.16,-85.57,104.67
14893,52.723392,-1.585479,142.12,20.99,4,288.44,22 / 23,1489320,2019-11-06 11:06:36:663,-3.2967,-2.3048,11.127,0.0761,-0.0137,9.8063,-0.0831,0.5995,-0.3234,-0.94,-36.37,10.88,269.44,-85.6,109.18
14894,52.723392,-1.585479,142.12,20.99,4,288.44,22 / 23,1489420,2019-11-06 11:06:36:763,1.45,-1.8461,10.6878,0.1538,-0.0184,9.8054,0.0701,0.6649,-0.2993,-0.5,-35.81,11.25,269.44,-85.6,109.18
14895,52.723392,-1.585479,142.12,20.99,4,288.44,22 / 23,1489520,2019-11-06 11:06:36:863,5.2476,0.9458,9.6973,0.0545,0.0013,9.8064,-0.0345,0.2111,-0.139,-0.94,-36.06,11.13,267.66,-84.7,110.44
14896,52.723392,-1.585479,142.12,20.99,4,288.44,22 / 23,1489620,2019-11-06 11:06:36:963,3.6918,-0.1096,9.0755,-0.0555,-0.0252,9.8064,0.0019,-0.1667,0.2991,-1.37,-36.31,11.38,268.0,-84.66,110.92
14897,52.723392,-1.585479,142.12,20.99,4,288.44,22 / 23,1489720,2019-11-06 11:06:37:063,0.0512,0.445,9.5996,-0.1288,-0.0648,9.8055,-0.0806,0.3052,-0.1063,-1.75,-36.81,11.44,269.61,-85.41,115.32
14898,52.723392,-1.585479,142.12,20.99,4,288.44,22 / 23,1489820,2019-11-06 11:06:37:163,-2.1562,0.3193,11.1617,-0.0505,-0.023,9.8064,-0.1237,0.0596,-0.0091,-1.06,-36.62,11.31,269.61,-85.41,115.32
14899,52.723392,-1.585479,142.12,20.99,4,288.44,22 / 23,1489920,2019-11-06 11:06:37:263,-2.248,-0.5248,11.2702,0.1592,-0.0568,9.8052,0.1786,-0.3351,-0.0357,-0.69,-35.94,11.5,284.08,-85.7,117.1
14900,52.72345,-1.585775,142.34,21.07,4,285.15,22 / 23,1490020,2019-11-06 11:06:37:363,-0.8504,0.3174,9.2617,0.2326,-0.0654,9.8036,0.0442,-0.1327,0.0376,-0.19,-35.94,12.19,280.29,-84.29,117.5
14901,52.72345,-1.585775,142.34,21.07,4,285.15,22 / 23,1490119,2019-11-06 11:06:37:462,-2.8368,-0.9457,8.6765,0.0829,0.0429,9.8062,-0.006,0.1672,-0.2297,-0.25,-35.94,12.31,275.59,-83.85,114.38
14902,52.72345,-1.585775,142.34,21.07,4,285.15,22 / 23,1490220,2019-11-06 11:06:37:563,0.0131,0.7785,9.3851,-0.0746,0.0354,9.8063,-0.1056,-0.2828,0.4238,-0.31,-36.25,12.06,275.59,-83.85,114.38
14903,52.72345,-1.585775,142.34,21.07,4,285.15,22 / 23,1490320,2019-11-06 11:06:37:663,1.136,-0.0224,9.9263,-0.084,-0.0124,9.8062,-0.1835,-0.2235,0.2926,-0.62,-36.19,11.88,270.62,-84.3,112.73
14904,52.72345,-1.585775,142.34,21.07,4,285.15,22 / 23,1490420,2019-11-06 11:06:37:763,1.2187,-0.6449,10.1554,-0.2086,-0.029,9.8043,0.0284,0.1033,0.0152,-1.87,-36.62,11.94,271.81,-85.52,115.07
14905,52.72345,-1.585775,142.34,21.07,4,285.15,22 / 23,1490520,2019-11-06 11:06:37:863,-2.3223,-2.9724,10.0736,-0.0609,-0.0332,9.8063,-0.0342,0.3796,-0.2361,-1.81,-36.69,12.81,271.81,-85.52,115.07
14906,52.72345,-1.585775,142.34,21.07,4,285.15,22 / 23,1490620,2019-11-06 11:06:37:963,-2.4326,-3.4293,10.5528,0.0219,-0.0339,9.8065,0.1285,-0.1016,-0.0385,-1.5,-36.12,11.94,275.78,-85.86,117.91
14907,52.72345,-1.585775,142.34,21.07,4,285.15,22 / 23,1490720,2019-11-06 11:06:38:063,-1.4308,-1.2743,9.94,-0.0169,-0.0091,9.8066,-0.032,-0.4108,0.3707,-1.37,-36.19,12.06,283.87,-85.67,121.37
14908,52.72345,-1.585775,142.34,21.07,4,285.15,22 / 23,1490820,2019-11-06 11:06:38:163,-0.637,-0.8747,8.24,-0.0708,0.0108,9.8063,-0.0066,-0.2558,0.2961,-2.25,-37.06,12.44,280.63,-86.08,121.92
14909,52.72345,-1.585775,142.34,21.07,4,285.15,22 / 23,1490920,2019-11-06 11:06:38:263,-0.8784,0.9196,8.6174,-0.0148,0.0059,9.8065,0.0364,0.2117,-0.2701,-2.56,-36.69,12.5,280.63,-86.08,121.92
14910,52.7235,-1.58608,142.61,21.2,4,285.95,21 / 22,1491020,2019-11-06 11:06:38:363,0.5549,-1.4203,11.4519,0.0598,-0.0376,9.8064,-0.1591,0.0791,0.1292,-2.12,-36.69,12.06,280.83,-85.93,122.58
14911,52.7235,-1.58608,142.61,21.2,4,285.95,21 / 22,1491119,2019-11-06 11:06:38:462,-2.5482,-4.0619,13.0248,0.0528,0.0154,9.8064,-0.0514,-0.0289,-0.1936,-1.62,-36.81,12.5,280.21,-85.26,122.26
14912,52.7235,-1.58608,142.61,21.2,4,285.95,21 / 22,1491219,2019-11-06 11:06:38:562,-2.1379,-1.0268,13.2857,0.1654,0.0348,9.8052,0.5233,-0.3696,-0.192,-1.06,-37.12,12.88,280.21,-85.26,122.26
14913,52.7235,-1.58608,142.61,21.2,4,285.95,21 / 22,1491319,2019-11-06 11:06:38:662,3.228,-3.6509,11.9568,0.0707,0.052,9.8062,-0.1551,0.1828,-0.1597,-0.87,-36.19,12.88,276.08,-83.88,117.63
14914,52.7235,-1.58608,142.61,21.2,4,285.95,21 / 22,1491420,2019-11-06 11:06:38:763,2.6151,0.6697,10.4282,-0.0084,-0.0077,9.8066,0.1354,0.3086,-0.2013,-0.25,-36.0,13.31,274.44,-83.44,113.0
14915,52.7235,-1.58608,142.61,21.2,4,285.95,21 / 22,1491520,2019-11-06 11:06:38:863,1.1397,0.9273,10.1112,-0.0479,-0.0271,9.8065,-0.2533,0.3513,0.0335,-0.56,-35.87,12.44,270.59,-83.7,114.63
14916,52.7235,-1.58608,142.61,21.2,4,285.95,21 / 22,1491620,2019-11-06 11:06:38:963,-6.7484,-1.4645,11.1745,-0.1212,-0.0807,9.8055,0.1403,0.0943,-0.1699,-0.87,-36.62,13.19,270.59,-83.7,114.63
14917,52.7235,-1.58608,142.61,21.2,4,285.95,21 / 22,1491719,2019-11-06 11:06:39:062,-2.4953,-1.5391,11.3013,-0.0055,-0.0217,9.8066,0.0721,-0.7778,0.5502,-1.19,-36.31,12.81,282.78,-84.37,122.62
14918,52.7235,-1.58608,142.61,21.2,4,285.95,21 / 22,1491819,2019-11-06 11:06:39:162,4.6952,3.6732,9.4035,0.0058,-0.0014,9.8066,0.1639,-0.3671,0.1498,-1.19,-36.37,13.25,282.68,-84.34,122.63
14919,52.7235,-1.58608,142.61,21.2,4,285.95,21 / 22,1491920,2019-11-06 11:06:39:263,3.8623,3.3353,8.9464,-0.0673,-0.0572,9.8062,-0.1927,0.7845,-0.201,-1.0,-36.0,13.94,282.68,-84.34,122.63
14920,52.723553,-1.58638,143.02,21.16,4,285.05,22 / 23,1492020,2019-11-06 11:06:39:363,-8.4724,-3.1426,10.4806,0.0079,-0.0059,9.8066,-0.0952,0.9278,-0.9081,-1.06,-36.06,13.06,288.31,-84.63,127.04
14921,52.723553,-1.58638,143.02,21.16,4,285.05,22 / 23,1492119,2019-11-06 11:06:39:462,1.9435,-0.9333,7.6579,0.0509,0.0114,9.8065,-0.0762,-0.7573,0.4125,-0.87,-36.5,14.0,287.31,-84.37,125.44
14922,52.723553,-1.58638,143.02,21.16,4,285.05,22 / 23,1492220,2019-11-06 11:06:39:563,6.2171,1.9375,8.7445,0.0747,0.0104,9.8063,0.1569,-0.8911,0.5971,-0.87,-35.81,13.94,284.27,-83.97,123.65
14923,52.723553,-1.58638,143.02,21.16,4,285.05,22 / 23,1492320,2019-11-06 11:06:39:663,-1.7608,2.3104,10.1207,-0.0708,-0.0334,9.8062,0.0927,-0.457,0.289,-1.44,-36.44,13.56,284.27,-83.97,123.65
14924,52.723553,-1.58638,143.02,21.16,4,285.05,22 / 23,1492420,2019-11-06 11:06:39:763,-4.2184,1.8851,10.3333,0.0043,-0.0505,9.8064,-0.0057,0.3185,-0.139,-1.56,-35.87,13.19,282.35,-84.31,126.59
14925,52.723553,-1.58638,143.02,21.16,4,285.05,22 / 23,1492520,2019-11-06 11:06:39:863,-5.3708,-0.4411,11.1335,-0.0081,0.0324,9.8065,-0.0761,0.4669,-0.1783,-1.12,-35.94,13.94,286.7,-84.4,124.8
14926,52.723553,-1.58638,143.02,21.16,4,285.05,22 / 23,1492620,2019-11-06 11:06:39:963,2.7875,-1.8916,9.8098,0.0861,0.0824,9.8059,-0.0035,0.0076,-0.0772,-0.94,-36.19,13.75,286.7,-84.4,124.8
14927,52.723553,-1.58638,143.02,21.16,4,285.05,22 / 23,1492720,2019-11-06 11:06:40:063,-2.1939,-1.0384,9.7812,-0.0486,0.0621,9.8063,-0.2304,0.0283,0.1744,-0.81,-36.19,13.19,279.48,-84.02,118.97
14928,52.723553,-1.58638,143.02,21.16,4,285.05,22 / 23,1492820,2019-11-06 11:06:40:163,-1.306,-0.0812,9.8964,-0.0235,0.0174,9.8066,0.0352,0.0428,-0.1129,-0.56,-36.12,13.19,275.82,-84.68,115.06
14929,52.723553,-1.58638,143.02,21.16,4,285.05,22 / 23,1492920,2019-11-06 11:06:40:263,0.2428,0.208,9.5655,-0.0694,0.0103,9.8063,0.0193,-0.3076,0.1825,-1.31,-35.69,13.19,276.8,-85.09,114.84
14930,52.723595,-1.586681,143.38,20.78,6,284.48,21 / 22,1493020,2019-11-06 11:06:40:363,0.0984,-0.0944,8.8527,0.0073,0.0114,9.8066,0.0393,0.016,-0.2089,-1.0,-36.31,14.0,276.8,-85.09,114.84
14931,52.723595,-1.586681,143.38,20.78,6,284.48,21 / 22,1493120,2019-11-06 11:06:40:463,0.3216,-0.579,7.5636,0.033,0.0539,9.8064,-0.2493,0.2017,0.0034,-0.87,-36.25,13.06,272.16,-84.9,110.82
14932,52.723595,-1.586681,143.38,20.78,6,284.48,21 / 22,1493220,2019-11-06 11:06:40:563,-2.376,-1.2031,8.9771,0.0627,0.1151,9.8057,-0.1404,0.3756,-0.2752,-0.69,-35.87,12.81,263.97,-84.51,103.63
14933,52.723595,-1.586681,143.38,20.78,6,284.48,21 / 22,1493320,2019-11-06 11:06:40:663,-1.7191,0.6292,10.0685,-0.0469,0.0202,9.8065,-0.0375,-0.2871,0.2225,-0.94,-36.12,12.44,263.97,-84.51,103.63
14934,52.723595,-1.586681,143.38,20.78,6,284.48,21 / 22,1493421,2019-11-06 11:06:40:764,-0.9738,1.694,9.8021,-0.0368,-0.008,9.8065,0.0829,-0.1013,0.063,-1.06,-35.81,12.88,267.78,-84.77,102.02
14935,52.723595,-1.586681,143.38,20.78,6,284.48,21 / 22,1493520,2019-11-06 11:06:40:863,-0.3249,0.5749,8.9805,-0.0181,-0.021,9.8066,-0.0809,0.1082,-0.2217,-0.25,-36.31,13.0,268.99,-84.88,103.35
14936,52.723595,-1.586681,143.38,20.78,6,284.48,21 / 22,1493620,2019-11-06 11:06:40:963,1.1159,-0.3844,9.2584,0.111,0.0478,9.8059,-0.0546,0.0189,-0.0083,0.0,-36.12,12.88,264.52,-84.22,100.69
14937,52.723595,-1.586681,143.38,20.78,6,284.48,21 / 22,1493720,2019-11-06 11:06:41:063,2.2447,0.3334,10.2918,0.0389,0.0026,9.8066,0.1113,0.1305,-0.0347,0.38,-35.87,13.38,264.52,-84.22,100.69
14938,52.723595,-1.586681,143.38,20.78,6,284.48,21 / 22,1493820,2019-11-06 11:06:41:163,0.9148,0.8795,9.6773,0.0063,-0.0127,9.8066,-0.1006,0.2322,-0.1275,-0.12,-35.81,13.88,265.14,-83.99,100.75
14939,52.723595,-1.586681,143.38,20.78,6,284.48,21 / 22,1493920,2019-11-06 11:06:41:263,-2.9579,-1.6824,9.5371,-0.0676,-0.0077,9.8063,-0.1083,0.154,0.0336,-0.25,-36.06,13.38,265.17,-84.39,100.87
14940,52.72364,-1.586978,143.53,20.51,6,282.91,23 / 25,1494020,2019-11-06 11:06:41:363,-2.3054,-1.3982,10.579,-0.0751,-0.0408,9.8062,0.0276,0.3041,-0.2024,-0.56,-35.87,13.25,265.17,-84.39,100.87
14941,52.72364,-1.586978,143.53,20.51,6,282.91,23 / 25,1494120,2019-11-06 11:06:41:463,2.8178,-0.7026,10.347,0.0529,-0.0351,9.8063,-0.0182,0.137,-0.112,-0.75,-35.75,12.88,268.64,-84.84,103.1
14942,52.72364,-1.586978,143.53,20.51,6,282.91,23 / 25,1494220,2019-11-06 11:06:41:563,2.9359,0.3824,10.0419,0.007,-0.0355,9.8066,0.1127,-0.3511,0.2408,-0.69,-35.87,13.75,268.82,-84.47,107.27
14943,52.72364,-1.586978,143.53,20.51,6,282.91,23 / 25,1494320,2019-11-06 11:06:41:663,-0.5221,-0.5444,10.4094,0.0055,-0.045,9.8065,0.1375,-0.4091,0.1856,-0.25,-36.19,14.19,275.54,-84.44,109.99
14944,52.72364,-1.586978,143.53,20.51,6,282.91,23 / 25,1494420,2019-11-06 11:06:41:763,-3.0917,-2.075,9.7577,0.0077,0.0445,9.8064,-0.2309,0.3205,-0.1579,-0.62,-36.44,14.25,275.54,-84.44,109.99
14945,52.72364,-1.586978,143.53,20.51,6,282.91,23 / 25,1494520,2019-11-06 11:06:41:863,0.046,-0.9745,9.3668,-0.0066,0.0429,9.8065,0.0435,0.2714,-0.2288,-0.87,-36.62,13.88,265.84,-84.39,104.87
14946,52.72364,-1.586978,143.53,20.51,6,282.91,23 / 25,1494620,2019-11-06 11:06:41:963,1.5563,0.6795,9.1558,-0.024,0.0896,9.8061,0.0004,-0.0103,-0.027,-0.25,-35.87,13.0,263.9,-84.47,99.34
14947,52.72364,-1.586978,143.53,20.51,6,282.91,23 / 25,1494720,2019-11-06 11:06:42:063,-0.3656,0.3723,10.3612,-0.0152,0.0381,9.8065,-0.0537,-0.1479,0.0871,-0.12,-36.12,12.88,263.9,-84.47,99.34
14948,52.72364,-1.586978,143.53,20.51,6,282.91,23 / 25,1494820,2019-11-06 11:06:42:163,-0.6725,-0.3891,11.2808,-0.0003,-0.0098,9.8066,0.0486,-0.065,-0.1591,-0.56,-35.75,12.81,262.8,-84.53,96.92
14949,52.72364,-1.586978,143.53,20.51,6,282.91,23 / 25,1494921,2019-11-06 11:06:42:264,0.7671,0.3603,10.7693,0.0066,-0.0075,9.8066,0.1138,-0.2032,0.2287,-0.25,-35.75,13.38,262.13,-84.5,97.42
14950,52.72364,-1.586978,143.53,20.51,6,282.91,22 / 24,1495020,2019-11-06 11:06:42:363,2.1233,-0.6355,9.5234,-0.0438,-0.0631,9.8063,0.0533,-0.0623,0.0623,-0.62,-36.31,13.38,262.24,-84.79,101.06
14951,52.72368,-1.587279,143.69,20.41,6,282.9,22 / 24,1495120,2019-11-06 11:06:42:463,-2.5143,-1.833,9.0645,-0.0675,0.0032,9.8064,0.1215,-0.4001,0.2084,-0.44,-36.12,13.31,262.24,-84.79,101.06
14952,52.72368,-1.587279,143.69,20.41,6,282.9,22 / 24,1495220,2019-11-06 11:06:42:563,-4.7979,-2.3571,9.1157,-0.0121,0.0361,9.8065,0.0659,0.0543,-0.182,-1.0,-36.37,13.19,262.48,-85.18,100.21
14953,52.72368,-1.587279,143.69,20.41,6,282.9,22 / 24,1495320,2019-11-06 11:06:42:663,0.3232,0.6201,9.6154,-0.0023,0.1939,9.8047,0.0095,-0.3705,0.1189,-1.06,-36.69,13.25,249.42,-84.92,87.41
14954,52.72368,-1.587279,143.69,20.41,6,282.9,22 / 24,1495420,2019-11-06 11:06:42:763,4.2906,0.7624,10.1174,-0.0537,0.017,9.8065,-0.0831,-0.4592,0.4191,-1.0,-36.69,12.94,249.42,-84.92,87.41
14955,52.72368,-1.587279,143.69,20.41,6,282.9,22 / 24,1495520,2019-11-06 11:06:42:863,0.9262,1.5203,10.2489,-0.0135,-0.0249,9.8066,0.1269,-0.2661,0.0845,-1.0,-36.06,13.19,248.16,-85.17,84.99
14956,52.72368,-1.587279,143.69,20.41,6,282.9,22 / 24,1495620,2019-11-06 11:06:42:963,-5.8018,-2.6968,11.5637,0.0061,-0.026,9.8066,-0.0576,0.711,-0.5028,-0.56,-36.44,14.0,251.33,-85.36,86.72
14957,52.72368,-1.587279,143.69,20.41,6,282.9,22 / 24,1495719,2019-11-06 11:06:43:062,-1.8558,-1.9989,9.7274,0.061,-0.0588,9.8062,-0.0608,0.5216,-0.2392,-1.0,-36.5,12.69,254.42,-85.12,91.89
14958,52.72368,-1.587279,143.69,20.41,6,282.9,22 / 24,1495820,2019-11-06 11:06:43:163,2.8755,0.7602,8.8519,-0.0012,-0.0164,9.8066,-0.0705,-0.2164,0.0768,-1.06,-36.62,13.25,254.42,-85.12,91.89
14959,52.72368,-1.587279,143.69,20.41,6,282.9,22 / 24,1495920,2019-11-06 11:06:43:263,4.3947,1.5192,8.4951,-0.0274,-0.0209,9.8066,0.195,-0.6946,0.5095,-0.75,-36.56,13.69,258.32,-85.27,94.69
14960,52.723724,-1.58757,143.87,20.18,6,283.21,22 / 24,1496020,2019-11-06 11:06:43:363,-0.4781,-1.9815,8.3696,-0.0422,-0.0209,9.8065,0.1086,-0.5452,0.2252,-0.94,-36.19,13.38,259.02,-85.54,95.59
14961,52.723724,-1.58757,143.87,20.18,6,283.21,22 / 24,1496119,2019-11-06 11:06:43:462,-5.7682,-1.591,10.2739,0.0542,-0.0365,9.8064,0.0232,0.1984,-0.162,-0.81,-35.69,13.13,259.02,-85.54,95.59
14962,52.723724,-1.58757,143.87,20.18,6,283.21,22 / 24,1496219,2019-11-06 11:06:43:562,0.8918,-0.1791,11.0404,0.0232,-0.0095,9.8066,0.036,-0.3209,0.1985,-0.62,-35.69,13.19,261.41,-85.26,98.85
14963,52.723724,-1.58757,143.87,20.18,6,283.21,22 / 24,1496320,2019-11-06 11:06:43:663,0.5919,-0.4722,11.704,-0.0176,0.0035,9.8066,-0.0315,-0.3832,0.2768,-1.25,-35.81,12.69,264.19,-85.37,101.42
14964,52.723724,-1.58757,143.87,20.18,6,283.21,22 / 24,1496420,2019-11-06 11:06:43:763,-1.2743,-3.0797,10.3993,-0.009,0.0074,9.8066,0.1401,-0.3944,0.2841,-1.25,-36.37,13.56,264.93,-85.42,100.82
14965,52.723724,-1.58757,143.87,20.18,6,283.21,22 / 24,1496520,2019-11-06 11:06:43:863,-5.0818,-2.6619,10.9101,0.0051,0.029,9.8065,-0.1818,0.4646,-0.281,-2.0,-36.44,13.0,264.93,-85.42,100.82
14966,52.723724,-1.58757,143.87,20.18,6,283.21,22 / 24,1496620,2019-11-06 11:06:43:963,-1.4572,-0.4985,10.6269,0.0074,-0.0351,9.8065,-0.0851,0.3757,-0.2213,-1.37,-36.37,13.0,262.51,-85.41,99.59
14967,52.723724,-1.58757,143.87,20.18,6,283.21,22 / 24,1496720,2019-11-06 11:06:44:063,2.3339,-0.8556,10.4673,0.0565,-0.0046,9.8064,0.1313,-0.0173,-0.1183,-1.12,-36.31,13.19,265.55,-85.32,102.96
14968,52.723724,-1.58757,143.87,20.18,6,283.21,22 / 24,1496820,2019-11-06 11:06:44:163,1.3118,-0.1395,9.5474,0.1206,-0.02,9.8058,0.0887,-0.2228,0.1024,-0.94,-36.12,13.31,265.55,-85.32,102.96
14969,52.723724,-1.58757,143.87,20.18,6,283.21,22 / 24,1496920,2019-11-06 11:06:44:263,-3.8148,-2.195,7.7084,-0.0225,0.039,9.8065,-0.1505,-0.1375,0.1318,-0.75,-36.56,12.81,263.9,-84.45,103.76
14970,52.723766,-1.587862,144.13,20.04,6,284.31,19 / 19,1497020,2019-11-06 11:06:44:363,-4.4286,-1.2612,8.1276,-0.0624,0.0479,9.8063,-0.1163,0.2932,-0.1623,-0.94,-36.25,12.5,258.95,-84.76,97.69
14971,52.723766,-1.587862,144.13,20.04,6,284.31,19 / 19,1497120,2019-11-06 11:06:44:463,3.769,2.3994,9.4898,-0.1192,0.0657,9.8056,-0.0707,0.6259,-0.2775,-1.12,-36.81,12.38,252.85,-85.34,91.39
14972,52.723766,-1.587862,144.13,20.04,6,284.31,19 / 19,1497220,2019-11-06 11:06:44:563,0.5428,0.1165,11.3187,-0.0134,-0.0646,9.8064,0.0448,0.2951,-0.2629,-0.94,-36.94,12.56,252.85,-85.34,91.39
14973,52.723766,-1.587862,144.13,20.04,6,284.31,19 / 19,1497320,2019-11-06 11:06:44:663,-3.1701,-3.1144,12.2103,0.0433,-0.0149,9.8065,0.1447,-0.5139,0.3639,-1.12,-36.37,12.38,260.63,-85.36,99.2
14974,52.723766,-1.587862,144.13,20.04,6,284.31,19 / 19,1497420,2019-11-06 11:06:44:763,-3.416,-2.6662,11.5682,0.0664,-0.0069,9.8064,-0.0142,0.0263,-0.1639,-1.12,-36.37,12.81,262.13,-84.99,100.38
14975,52.723766,-1.587862,144.13,20.04,6,284.31,19 / 19,1497520,2019-11-06 11:06:44:863,0.6697,0.7161,10.54,0.0036,0.023,9.8066,-0.1012,0.2427,-0.0582,-0.81,-36.37,12.94,262.13,-84.99,100.38
14976,52.723766,-1.587862,144.13,20.04,6,284.31,19 / 19,1497620,2019-11-06 11:06:44:963,0.4779,-0.0805,10.3839,0.0672,0.031,9.8063,0.0526,0.2107,-0.1399,-0.62,-36.19,12.94,260.6,-84.95,98.9
14977,52.723766,-1.587862,144.13,20.04,6,284.31,19 / 19,1497720,2019-11-06 11:06:45:063,-1.6547,-0.7475,10.1448,0.1188,0.0338,9.8058,-0.1388,0.1141,-0.0639,-0.19,-36.19,13.06,262.04,-84.23,98.09
14978,52.723766,-1.587862,144.13,20.04,6,284.31,19 / 19,1497820,2019-11-06 11:06:45:163,-0.8488,0.5134,9.9828,0.0528,-0.02,9.8064,0.0406,-0.1035,0.0581,0.0,-36.19,12.5,262.67,-83.94,99.59
14979,52.723766,-1.587862,144.13,20.04,6,284.31,19 / 19,1497920,2019-11-06 11:06:45:263,3.7637,1.9212,10.7712,-0.072,-0.0597,9.8061,0.1617,-0.3899,0.1636,-0.56,-36.19,12.75,262.67,-83.94,99.59
14980,52.723812,-1.588155,144.35,19.76,6,284.05,21 / 24,1498020,2019-11-06 11:06:45:363,3.793,-0.2012,10.9348,0.0185,-0.0152,9.8066,-0.0578,-0.5643,0.3429,-0.69,-35.94,12.88,262.62,-84.39,102.58
14981,52.723812,-1.588155,144.35,19.76,6,284.05,21 / 24,1498120,2019-11-06 11:06:45:463,-3.9243,-1.966,10.8815,0.0394,0.0377,9.8065,-0.0394,0.5015,-0.4373,-0.87,-35.87,12.88,260.15,-84.13,100.74
14982,52.723812,-1.588155,144.35,19.76,6,284.05,21 / 24,1498220,2019-11-06 11:06:45:563,-4.3669,-2.1726,10.5079,-0.0776,-0.0226,9.8063,-0.1335,0.593,-0.0967,-0.87,-35.81,13.31,260.15,-84.13,100.74
14983,52.723812,-1.588155,144.35,19.76,6,284.05,21 / 24,1498320,2019-11-06 11:06:45:663,0.8066,-1.3394,10.0517,-0.0837,-0.0292,9.8062,0.0227,0.066,-0.1226,-1.69,-36.06,13.0,257.94,-84.6,101.29
14984,52.723812,-1.588155,144.35,19.76,6,284.05,21 / 24,1498420,2019-11-06 11:06:45:763,2.2752,-2.1516,9.7623,-0.0271,0.0102,9.8065,0.0198,-0.3413,0.3467,-1.19,-36.87,13.31,263.3,-85.44,100.68
14985,52.723812,-1.588155,144.35,19.76,6,284.05,21 / 24,1498520,2019-11-06 11:06:45:863,-1.1386,-2.8921,9.9876,0.0313,0.0681,9.8063,-0.0254,0.3204,-0.1264,-1.19,-36.25,13.06,258.7,-85.19,96.21
14986,52.723812,-1.588155,144.35,19.76,6,284.05,21 / 24,1498619,2019-11-06 11:06:45:962,1.0388,-2.3521,8.767,0.0277,0.0254,9.8066,-0.0693,0.1684,-0.2671,-0.31,-36.06,12.69,258.7,-85.19,96.21
14987,52.723812,-1.588155,144.35,19.76,6,284.05,21 / 24,1498720,2019-11-06 11:06:46:063,-0.466,-0.0838,8.4138,0.0014,0.0244,9.8065,0.0519,-0.0127,0.0988,-0.56,-36.25,12.5,254.92,-84.8,93.3
14988,52.723812,-1.588155,144.35,19.76,6,284.05,21 / 24,1498819,2019-11-06 11:06:46:162,-0.4634,-0.2222,9.3428,-0.0305,-0.0026,9.8065,-0.0157,-0.0776,0.0421,-1.12,-36.06,13.13,252.72,-84.98,90.45
14989,52.723812,-1.588155,144.35,19.76,6,284.05,21 / 24,1498920,2019-11-06 11:06:46:263,-0.6757,-1.9831,9.85,-0.0561,-0.0163,9.8064,0.0469,0.0522,-0.0649,-0.56,-36.12,13.25,252.72,-84.98,90.45
14990,52.723858,-1.588441,144.58,19.35,6,283.88,20 / 20,1499020,2019-11-06 11:06:46:363,0.5475,-0.6574,11.1516,-0.0121,-0.0182,9.8065,0.1431,0.0206,-0.087,-1.19,-36.0,12.75,254.27,-85.42,90.9
14991,52.723858,-1.588441,144.58,19.35,6,283.88,20 / 20,1499119,2019-11-06 11:06:46:462,-1.4319,-0.3318,10.8781,-0.0142,-0.0372,9.8065,0.0046,-0.0466,0.1833,-1.56,-36.25,12.88,253.31,-85.63,93.56
14992,52.723858,-1.588441,144.58,19.35,6,283.88,20 / 20,1499220,2019-11-06 11:06:46:563,-1.7743,0.4251,10.5846,-0.0287,-0.0797,9.8062,-0.0236,0.1813,-0.0462,-1.62,-36.44,13.44,253.31,-85.63,93.56
14993,52.723858,-1.588441,144.58,19.35,6,283.88,20 / 20,1499320,2019-11-06 11:06:46:663,-0.0012,2.0875,10.4675,0.001,-0.0531,9.8064,0.0768,-0.0518,0.005,-1.12,-36.81,13.13,262.98,-86.01,102.63
14994,52.723858,-1.588441,144.58,19.35,6,283.88,20 / 20,1499420,2019-11-06 11:06:46:763,-1.4311,3.47,9.9926,0.0218,-0.0489,9.8064,0.1429,-0.2254,0.1551,-1.19,-36.56,13.5,276.42,-85.96,111.19
14995,52.723858,-1.588441,144.58,19.35,6,283.88,20 / 20,1499520,2019-11-06 11:06:46:863,-2.07,0.6453,8.6067,0.0276,-0.0533,9.8064,-0.0667,-0.0684,-0.0195,-1.62,-36.31,12.88,274.68,-85.75,115.13
14996,52.723858,-1.588441,144.58,19.35,6,283.88,20 / 20,1499620,2019-11-06 11:06:46:963,-0.657,-0.1982,10.0237,0.0292,0.0726,9.8062,-0.06,-0.0575,-0.0335,-1.44,-36.69,13.0,274.68,-85.75,115.13
14997,52.723858,-1.588441,144.58,19.35,6,283.88,20 / 20,1499720,2019-11-06 11:06:47:063,0.2578,-1.605,11.4508,0.0181,-0.0044,9.8065,0.0878,0.3247,-0.2322,-1.0,-36.75,13.13,271.35,-85.5,108.66
14998,52.723858,-1.588441,144.58,19.35,6,283.88,20 / 20,1499820,2019-11-06 11:06:47:163,1.6827,-0.1168,10.9605,0.0227,-0.0325,9.8066,0.0864,0.0929,-0.1892,-1.5,-36.06,13.56,274.89,-85.36,110.96
14999,52.723858,-1.588441,144.58,19.35,6,283.88,20 / 20,1499919,2019-11-06 11:06:47:262,-2.6681,-0.616,10.3745,0.0447,-0.0433,9.8064,0.0454,-0.2535,0.2157,-1.12,-36.19,13.94,274.89,-85.36,110.96
15000,52.7239,-1.588728,144.84,19.01,6,284.34,21 / 23,1500020,2019-11-06 11:06:47:363,-2.4398,-0.5916,9.6411,-0.0062,-0.0017,9.8066,0.0376,-0.3287,0.1523,-0.81,-36.12,13.88,276.85,-85.07,113.64
15001,52.7239,-1.588728,144.84,19.01,6,284.34,21 / 23,1500119,2019-11-06 11:06:47:462,0.3974,-1.8078,8.5159,-0.0349,0.0104,9.8066,-0.046,0.0951,-0.0449,-1.5,-36.19,13.88,276.96,-85.28,113.2
15002,52.7239,-1.588728,144.84,19.01,6,284.34,21 / 23,1500220,2019-11-06 11:06:47:563,2.7349,0.1745,8.5295,-0.0415,0.0531,9.8064,-0.1887,0.3737,-0.3244,-1.31,-36.31,12.88,272.81,-85.55,109.61
15003,52.7239,-1.588728,144.84,19.01,6,284.34,21 / 23,1500320,2019-11-06 11:06:47:663,2.0306,-0.0961,9.546,0.0183,0.0701,9.8063,-0.1128,0.166,0.0004,-1.0,-36.0,12.88,272.81,-85.55,109.61
15004,52.7239,-1.588728,144.84,19.01,6,284.34,21 / 23,1500420,2019-11-06 11:06:47:763,-2.614,-2.9203,11.2793,0.0241,0.0163,9.8065,0.0125,-0.1841,0.0534,-1.44,-36.62,13.0,266.95,-85.45,104.38
15005,52.7239,-1.588728,144.84,19.01,6,284.34,21 / 23,1500520,2019-11-06 11:06:47:863,-2.7482,-2.9473,10.3442,0.0492,-0.0187,9.8065,-0.0198,-0.014,0.051,-1.0,-36.37,13.38,267.96,-85.16,105.86
15006,52.7239,-1.588728,144.84,19.01,6,284.34,21 / 23,1500620,2019-11-06 11:06:47:963,-2.6433,-2.1617,10.2221,-0.0185,-0.0199,9.8066,-0.0485,0.2589,-0.2282,-1.31,-35.56,14.13,267.96,-85.16,105.86
15007,52.7239,-1.588728,144.84,19.01,6,284.34,21 / 23,1500720,2019-11-06 11:06:48:063,-2.6087,0.6866,9.7811,-0.0165,-0.0112,9.8066,-0.0317,0.0368,0.0771,-0.94,-36.5,13.13,265.46,-85.27,107.22
15008,52.7239,-1.588728,144.84,19.01,6,284.34,21 / 23,1500820,2019-11-06 11:06:48:163,-0.7666,-1.0327,9.4341,0.0147,-0.0088,9.8066,0.0084,-0.0052,-0.022,-1.19,-36.37,13.13,270.12,-85.41,107.33
15009,52.7239,-1.588728,144.84,19.01,6,284.34,21 / 23,1500920,2019-11-06 11:06:48:263,-2.2002,0.3893,10.1648,-0.0143,0.0015,9.8066,0.0,0.0258,-0.0428,-1.56,-35.94,13.75,267.06,-85.17,107.6
15010,52.723946,-1.589003,145.12,18.87,6,284.71,23 / 23,1501020,2019-11-06 11:06:48:363,1.3385,1.4571,9.397,0.0227,-0.0072,9.8066,0.1144,-0.0821,0.0798,-1.25,-36.12,13.0,267.06,-85.17,107.6
15011,52.723946,-1.589003,145.12,18.87,6,284.71,23 / 23,1501120,2019-11-06 11:06:48:463,-3.4114,0.9532,9.3052,-0.0051,-0.0252,9.8066,0.0483,-0.1136,0.0146,-1.37,-35.75,13.44,271.88,-85.08,110.02
15012,52.723946,-1.589003,145.12,18.87,6,284.71,23 / 23,1501220,2019-11-06 11:06:48:563,-0.8505,-0.9645,9.467,0.0035,0.001,9.8066,0.0078,-0.6031,0.412,-1.25,-36.25,13.0,274.6,-85.13,112.58
15013,52.723946,-1.589003,145.12,18.87,6,284.71,23 / 23,1501320,2019-11-06 11:06:48:663,5.007,-1.3267,9.758,0.0253,-0.0034,9.8066,0.0566,0.4676,-0.3835,-1.0,-36.87,13.38,274.6,-85.13,112.58
15014,52.723946,-1.589003,145.12,18.87,6,284.71,23 / 23,1501420,2019-11-06 11:06:48:763,4.5341,0.0657,9.6069,0.0277,0.0151,9.8065,-0.1078,0.7405,-0.5344,-0.69,-36.37,12.75,279.34,-84.89,113.52
15015,52.723946,-1.589003,145.12,18.87,6,284.71,23 / 23,1501520,2019-11-06 11:06:48:863,-2.3882,0.0205,9.4271,0.0384,0.0407,9.8065,-0.1846,0.3523,-0.136,-0.19,-36.62,13.63,276.13,-84.63,110.47
15016,52.723946,-1.589003,145.12,18.87,6,284.71,23 / 23,1501620,2019-11-06 11:06:48:963,-4.7912,-2.4538,10.0854,0.0379,0.0515,9.8064,0.1343,-0.4983,0.216,-0.69,-35.69,12.44,265.5,-84.43,107.14
15017,52.723946,-1.589003,145.12,18.87,6,284.71,23 / 23,1501720,2019-11-06 11:06:49:063,-1.3097,-2.7895,10.2248,0.0206,-0.0544,9.8064,0.0116,0.0069,-0.0495,-0.56,-36.0,13.0,265.5,-84.43,107.14
15018,52.723946,-1.589003,145.12,18.87,6,284.71,23 / 23,1501820,2019-11-06 11:06:49:163,-0.42,1.2779,9.992,-0.0104,0.0005,9.8066,0.025,0.1223,-0.1228,-0.69,-36.44,13.06,271.92,-84.29,112.35
15019,52.723946,-1.589003,145.12,18.87,6,284.71,23 / 23,1501920,2019-11-06 11:06:49:263,-1.6241,-0.6309,9.9855,-0.0005,0.0256,9.8066,-0.0353,0.2175,-0.0127,-0.62,-36.25,13.75,271.91,-84.29,110.85
15020,52.723988,-1.589281,145.42,18.87,6,283.79,23 / 24,1502020,2019-11-06 11:06:49:363,-2.1898,-2.0682,10.8773,0.1115,-0.0517,9.8058,-0.0071,0.4309,-0.2406,-0.94,-35.94,13.81,271.91,-84.29,110.85
15021,52.723988,-1.589281,145.42,18.87,6,283.79,23 / 24,1502120,2019-11-06 11:06:49:463,5.7907,0.6244,9.9505,0.0003,0.0063,9.8066,0.0003,0.2315,-0.1109,-0.37,-35.94,13.88,276.76,-83.63,113.37
15022,52.723988,-1.589281,145.42,18.87,6,283.79,23 / 24,1502220,2019-11-06 11:06:49:563,5.0058,-0.1002,9.244,-0.0571,-0.0003,9.8064,-0.1588,-0.3204,0.3183,-0.31,-35.44,13.63,278.55,-83.96,113.76
15023,52.723988,-1.589281,145.42,18.87,6,283.79,23 / 24,1502320,2019-11-06 11:06:49:663,-4.2486,-1.607,9.7667,-0.0413,0.0696,9.8063,0.0421,-0.6485,0.3235,-0.44,-35.56,12.88,273.92,-84.25,110.11
15024,52.723988,-1.589281,145.42,18.87,6,283.79,23 / 24,1502420,2019-11-06 11:06:49:763,-4.8404,-1.2522,9.8327,0.0141,0.0776,9.8063,0.1425,-0.5397,0.2747,-0.12,-35.69,13.38,273.92,-84.25,110.11
15025,52.723988,-1.589281,145.42,18.87,6,283.79,23 / 24,1502520,2019-11-06 11:06:49:863,3.8124,1.2672,9.1617,-0.0225,-0.0173,9.8065,-0.0177,0.238,-0.0324,-0.19,-35.87,13.31,269.19,-84.18,105.59
15026,52.723988,-1.589281,145.42,18.87,6,283.79,23 / 24,1502619,2019-11-06 11:06:49:962,1.0135,0.3605,9.7488,-0.1075,-0.0679,9.8058,-0.1273,0.6068,-0.2837,-0.62,-36.25,13.5,272.27,-84.79,109.87
15027,52.723988,-1.589281,145.42,18.87,6,283.79,23 / 24,1502720,2019-11-06 11:06:50:063,-4.2445,-3.2917,9.1069,0.0822,0.0265,9.8062,-0.0718,0.7088,-0.3579,-0.06,-36.19,13.13,272.27,-84.79,109.87
15028,52.723988,-1.589281,145.42,18.87,6,283.79,23 / 24,1502820,2019-11-06 11:06:50:163,-1.7815,-2.0378,9.4904,0.0651,0.0256,9.8063,0.0449,0.3885,-0.3741,0.0,-35.56,13.19,272.13,-84.32,108.12
15029,52.723988,-1.589281,145.42,18.87,6,283.79,23 / 24,1502920,2019-11-06 11:06:50:263,7.1735,2.5215,10.3392,-0.0183,0.0033,9.8066,0.0283,-0.8009,0.6269,0.31,-35.25,13.56,269.86,-83.8,105.63
15030,52.724026,-1.589561,145.73,19.3,6,281.22,22 / 23,1503021,2019-11-06 11:06:50:364,-4.9905,-2.3401,10.0024,-0.0665,-0.0279,9.8063,0.0598,-0.2599,0.243,-0.56,-35.06,12.38,263.77,-84.27,105.36
15031,52.724026,-1.589561,145.73,19.3,6,281.22,22 / 23,1503119,2019-11-06 11:06:50:462,-2.3628,-0.1607,9.1083,-0.0912,-0.0202,9.8062,-0.0797,0.4052,-0.1062,-0.87,-35.75,13.69,263.77,-84.27,105.36
15032,52.724026,-1.589561,145.73,19.3,6,281.22,22 / 23,1503220,2019-11-06 11:06:50:563,-5.9983,-1.0532,10.3574,-0.025,0.0049,9.8065,-0.0693,0.7714,-0.2723,-0.81,-36.0,13.75,272.87,-85.36,108.95
15033,52.724026,-1.589561,145.73,19.3,6,281.22,22 / 23,1503320,2019-11-06 11:06:50:663,5.3103,1.324,9.4228,0.0019,0.0202,9.8065,-0.0889,0.1753,-0.1647,-0.87,-36.12,13.44,270.14,-85.36,107.49
15034,52.724026,-1.589561,145.73,19.3,6,281.22,22 / 23,1503420,2019-11-06 11:06:50:763,7.2027,1.6101,7.2944,0.1129,0.1049,9.8054,0.1137,-0.8127,0.3172,-0.56,-36.12,13.25,270.14,-85.36,107.49
15035,52.724026,-1.589561,145.73,19.3,6,281.22,22 / 23,1503520,2019-11-06 11:06:50:863,-4.1852,-0.3694,8.7973,-0.0728,0.0599,9.8061,0.1106,-1.0137,0.6232,-0.25,-35.56,13.06,265.94,-84.66,100.87
15036,52.724026,-1.589561,145.73,19.3,6,281.22,22 / 23,1503620,2019-11-06 11:06:50:963,-8.4793,-2.1832,8.7033,-0.1549,0.0645,9.8051,-0.0483,-0.2313,0.3222,-0.37,-35.62,13.13,262.82,-85.52,95.23
15037,52.724026,-1.589561,145.73,19.3,6,281.22,22 / 23,1503720,2019-11-06 11:06:51:063,-3.7618,-1.5439,9.0222,-0.0578,-0.0035,9.8065,-0.2159,1.0823,-0.5419,-0.94,-36.62,12.94,258.92,-85.86,94.92
15038,52.724026,-1.589561,145.73,19.3,6,281.22,22 / 23,1503820,2019-11-06 11:06:51:163,5.7142,2.1705,10.4029,0.0358,0.021,9.8066,-0.044,0.5054,-0.2046,-1.25,-36.31,12.81,258.92,-85.86,94.92
15039,52.724026,-1.589561,145.73,19.3,6,281.22,22 / 23,1503919,2019-11-06 11:06:51:262,4.4003,1.3646,10.1363,-0.0098,-0.0197,9.8066,0.1374,-0.1991,0.0886,-1.06,-36.5,13.25,257.61,-85.63,93.87
15040,52.724056,-1.589829,146.02,19.16,6,279.83,23 / 24,1504020,2019-11-06 11:06:51:363,-2.1254,-0.9903,9.8837,-0.0465,-0.0003,9.8065,0.0528,-0.8389,0.4885,-1.31,-36.06,13.06,264.81,-86.12,99.94
15041,52.724056,-1.589829,146.02,19.16,6,279.83,23 / 24,1504120,2019-11-06 11:06:51:463,-1.6793,-0.2225,9.9056,0.0068,0.0475,9.8065,0.1362,0.0559,-0.0768,-1.56,-36.75,13.06,264.81,-86.12,99.94
15042,52.724056,-1.589829,146.02,19.16,6,279.83,23 / 24,1504220,2019-11-06 11:06:51:563,-6.6136,-2.3096,9.8873,-0.036,-0.0186,9.8065,-0.0191,0.6616,-0.4452,-1.62,-37.0,13.19,256.38,-86.05,95.98
15043,52.724056,-1.589829,146.02,19.16,6,279.83,23 / 24,1504320,2019-11-06 11:06:51:663,1.4878,1.0268,9.6522,-0.0016,0.0492,9.8065,-0.3182,0.6276,-0.1317,-1.12,-36.0,13.13,256.71,-85.98,91.96
15044,52.724056,-1.589829,146.02,19.16,6,279.83,23 / 24,1504420,2019-11-06 11:06:51:763,1.7156,-0.6155,9.669,-0.0142,-0.0259,9.8065,-0.0117,0.3853,-0.2777,-0.69,-36.31,13.63,256.71,-85.98,91.96
15045,52.724056,-1.589829,146.02,19.16,6,279.83,23 / 24,1504520,2019-11-06 11:06:51:863,-1.4575,-0.7461,9.4661,0.0186,-0.0381,9.8065,0.1288,-0.439,0.2365,-1.0,-35.94,13.56,258.8,-86.09,93.84
15046,52.724056,-1.589829,146.02,19.16,6,279.83,23 / 24,1504620,2019-11-06 11:06:51:963,-2.7146,-2.083,9.2966,0.0636,-0.0111,9.8064,0.0271,-0.5268,0.3558,-1.0,-36.25,13.69,265.68,-85.76,100.68
15047,52.724056,-1.589829,146.02,19.16,6,279.83,23 / 24,1504720,2019-11-06 11:06:52:063,3.3925,1.8449,7.7582,0.1064,-0.0291,9.806,0.1594,-0.1153,0.0394,-0.87,-36.25,13.56,266.62,-85.15,103.24
15048,52.724056,-1.589829,146.02,19.16,6,279.83,23 / 24,1504820,2019-11-06 11:06:52:163,1.563,-0.0233,10.4505,-0.0512,0.0003,9.8065,-0.1194,-0.0499,-0.1135,-1.0,-36.19,13.31,266.62,-85.15,103.24
15049,52.724056,-1.589829,146.02,19.16,6,279.83,23 / 24,1504920,2019-11-06 11:06:52:263,-7.1946,-2.409,10.7498,0.0121,0.0338,9.8065,-0.1203,0.7878,-0.5707,-1.62,-36.25,13.31,261.1,-85.53,102.02
15050,52.724087,-1.590115,146.37,19.32,6,279.22,22 / 23,1505021,2019-11-06 11:06:52:364,-3.9773,-2.8328,10.2172,0.0516,0.0566,9.8063,-0.1057,0.8802,-0.3026,-1.44,-36.12,13.56,262.24,-85.17,98.69
15051,52.724087,-1.590115,146.37,19.32,6,279.22,22 / 23,1505119,2019-11-06 11:06:52:462,6.8141,1.5945,9.3886,0.0697,-0.0243,9.8063,0.0174,0.1463,-0.2431,-1.19,-36.06,13.69,262.24,-85.17,98.69
15052,52.724087,-1.590115,146.37,19.32,6,279.22,22 / 23,1505220,2019-11-06 11:06:52:563,2.7253,1.569,10.3985,-0.0518,-0.0169,9.8064,0.0557,-0.7241,0.4997,-0.94,-36.0,13.88,263.34,-84.79,100.84
15053,52.724087,-1.590115,146.37,19.32,6,279.22,22 / 23,1505320,2019-11-06 11:06:52:663,-8.1557,-3.6663,10.4603,-0.0969,-0.0376,9.806,0.0841,-0.1835,0.1537,-1.0,-36.94,14.06,266.37,-85.37,102.73
15054,52.724087,-1.590115,146.37,19.32,6,279.22,22 / 23,1505420,2019-11-06 11:06:52:763,-6.8559,-2.5989,9.3416,-0.07,0.0387,9.8062,-0.231,0.6055,-0.3909,-0.87,-36.5,13.19,263.22,-85.76,99.33
15055,52.724087,-1.590115,146.37,19.32,6,279.22,22 / 23,1505520,2019-11-06 11:06:52:863,1.3876,0.2373,8.192,0.0281,0.1338,9.8057,-0.1631,0.6503,-0.323,-1.44,-36.12,13.13,263.22,-85.76,99.33
15056,52.724087,-1.590115,146.37,19.32,6,279.22,22 / 23,1505620,2019-11-06 11:06:52:963,2.2556,0.4048,9.1195,0.0165,0.0262,9.8066,-0.0365,0.1876,-0.1171,-1.06,-36.0,13.38,253.25,-85.44,89.76
15057,52.724087,-1.590115,146.37,19.32,6,279.22,22 / 23,1505720,2019-11-06 11:06:53:063,-1.4339,0.4306,9.8584,-0.0266,-0.0019,9.8066,-0.0163,-0.4777,0.3526,-1.37,-36.31,12.06,251.95,-85.59,89.32
15058,52.724087,-1.590115,146.37,19.32,6,279.22,22 / 23,1505820,2019-11-06 11:06:53:163,-5.4422,-1.5356,9.8572,-0.1006,-0.0222,9.806,0.0164,-0.1641,0.2011,-1.5,-36.69,12.69,251.95,-85.59,89.32
15059,52.724087,-1.590115,146.37,19.32,6,279.22,22 / 23,1505920,2019-11-06 11:06:53:263,-3.1605,-0.9375,10.4777,-0.0103,-0.004,9.8066,-0.0205,0.3893,-0.2302,-1.31,-36.31,12.06,253.63,-86.19,88.43
15060,52.724117,-1.590397,146.64,19.14,6,279.69,20 / 20,1506020,2019-11-06 11:06:53:363,-1.6046,-1.8655,10.019,0.0128,-0.0206,9.8066,0.0083,0.2682,-0.2398,-1.37,-36.06,12.13,254.66,-86.15,90.57
15061,52.724117,-1.590397,146.64,19.14,6,279.69,20 / 20,1506120,2019-11-06 11:06:53:463,1.4544,0.0637,9.777,0.0486,-0.0428,9.8064,0.124,-0.4903,0.2605,-1.31,-36.5,12.25,258.29,-85.93,95.03
15062,52.724117,-1.590397,146.64,19.14,6,279.69,20 / 20,1506219,2019-11-06 11:06:53:562,1.3487,0.0931,9.8423,0.0053,-0.02,9.8066,-0.1026,-0.0636,0.0864,-1.37,-36.25,12.31,258.29,-85.93,95.03
15063,52.724117,-1.590397,146.64,19.14,6,279.69,20 / 20,1506320,2019-11-06 11:06:53:663,0.25,-0.7456,8.7867,-0.0135,0.0025,9.8066,0.0176,0.2854,-0.2462,-1.56,-36.5,12.38,256.68,-85.92,97.97
15064,52.724117,-1.590397,146.64,19.14,6,279.69,20 / 20,1506420,2019-11-06 11:06:53:763,-2.682,-0.6842,8.6385,-0.0109,0.0231,9.8066,-0.025,0.251,-0.1636,-1.56,-36.44,11.94,255.11,-86.15,95.62
15065,52.724117,-1.590397,146.64,19.14,6,279.69,20 / 20,1506520,2019-11-06 11:06:53:863,-3.7204,-0.0204,9.3565,-0.0486,0.0733,9.8062,-0.0204,-0.2285,0.2646,-2.37,-36.69,11.69,255.11,-86.15,95.62
15066,52.724117,-1.590397,146.64,19.14,6,279.69,20 / 20,1506619,2019-11-06 11:06:53:962,-1.8358,0.3783,9.7092,0.012,0.0139,9.8066,0.1972,0.0314,-0.0956,-1.5,-36.81,11.75,246.6,-86.23,86.61
15067,52.724117,-1.590397,146.64,19.14,6,279.69,20 / 20,1506720,2019-11-06 11:06:54:063,-0.7957,0.3536,10.5713,0.0239,-0.0512,9.8064,0.0736,0.1434,-0.2108,-1.44,-36.62,11.81,255.89,-86.1,92.34
15068,52.724117,-1.590397,146.64,19.14,6,279.69,20 / 20,1506820,2019-11-06 11:06:54:163,-1.4969,0.0375,9.5775,0.0496,-0.0826,9.8061,-0.0902,-0.0179,0.07,-1.87,-36.56,12.0,258.15,-85.9,99.9
15069,52.724117,-1.590397,146.64,19.14,6,279.69,20 / 20,1506920,2019-11-06 11:06:54:263,1.6866,-2.1892,9.0875,0.0266,0.0178,9.8066,0.1525,-0.0265,0.0098,-1.75,-36.25,12.31,258.15,-85.9,99.9
15070,52.724144,-1.590681,146.94,19.24,6,280.34,22 / 24,1507020,2019-11-06 11:06:54:363,1.9594,-2.0988,8.6342,0.0553,0.0313,9.8064,-0.2146,0.2441,-0.2467,-1.56,-36.5,11.94,256.1,-85.55,98.45
15071,52.724144,-1.590681,146.94,19.24,6,280.34,22 / 24,1507120,2019-11-06 11:06:54:463,1.3081,2.6784,8.7577,0.0165,0.0373,9.8066,-0.0092,0.2081,-0.1117,-1.12,-35.5,11.94,259.26,-85.41,97.25
15072,52.724144,-1.590681,146.94,19.24,6,280.34,22 / 24,1507221,2019-11-06 11:06:54:564,-0.0658,1.9659,9.1227,0.0032,0.0571,9.8064,0.1577,-0.2175,0.0044,-1.25,-36.0,11.75,259.26,-85.41,97.25
15073,52.724144,-1.590681,146.94,19.24,6,280.34,22 / 24,1507319,2019-11-06 11:06:54:662,-4.4539,-0.9469,10.2442,-0.0253,-0.0225,9.8065,-0.0352,0.1041,0.0442,-1.81,-35.94,11.56,254.52,-85.31,93.28
15074,52.724144,-1.590681,146.94,19.24,6,280.34,22 / 24,1507420,2019-11-06 11:06:54:763,-5.1413,-0.6154,9.933,-0.0301,0.0108,9.8066,-0.0199,0.3925,-0.2224,-2.06,-35.94,11.5,253.15,-85.76,94.67
15075,52.724144,-1.590681,146.94,19.24,6,280.34,22 / 24,1507520,2019-11-06 11:06:54:863,-3.3897,0.4685,9.4371,-0.0248,0.0022,9.8066,-0.0268,0.1619,-0.1227,-1.44,-36.81,11.75,254.01,-86.08,90.43
15076,52.724144,-1.590681,146.94,19.24,6,280.34,22 / 24,1507620,2019-11-06 11:06:54:963,1.7985,-1.2433,8.9009,-0.0142,0.0266,9.8066,-0.1006,-0.1459,0.1767,-1.81,-36.31,11.81,254.01,-86.08,90.43
15077,52.724144,-1.590681,146.94,19.24,6,280.34,22 / 24,1507720,2019-11-06 11:06:55:063,1.2394,-1.0247,9.8371,0.0206,-0.0118,9.8065,0.0484,0.0069,-0.1385,-1.5,-36.31,11.5,248.12,-86.04,88.8
15078,52.724144,-1.590681,146.94,19.24,6,280.34,22 / 24,1507820,2019-11-06 11:06:55:163,-1.742,1.0373,11.0553,-0.0128,-0.0057,9.8065,0.0418,0.1783,-0.1184,-2.0,-36.31,11.44,248.64,-85.83,91.52
15079,52.724144,-1.590681,146.94,19.24,6,280.34,22 / 24,1507920,2019-11-06 11:06:55:263,-2.512,-2.1348,10.6697,-0.0282,-0.0171,9.8065,-0.0158,0.3179,-0.1173,-1.94,-36.5,12.25,248.64,-85.83,91.52
15080,52.72418,-1.590962,147.28,19.38,6,280.61,20 / 21,1508020,2019-11-06 11:06:55:363,-2.4967,-2.8386,10.2989,-0.0237,-0.0409,9.8065,-0.0124,0.0833,-0.0917,-2.19,-36.19,11.63,254.48,-86.22,94.76
15081,52.72418,-1.590962,147.28,19.38,6,280.61,20 / 21,1508120,2019-11-06 11:06:55:463,3.4499,-0.5484,8.855,-0.0318,-0.0132,9.8066,0.0209,-0.543,0.4054,-1.87,-36.06,11.38,254.48,-86.22,94.76
15082,52.72418,-1.590962,147.28,19.38,6,280.61,20 / 21,1508220,2019-11-06 11:06:55:563,1.067,-0.7631,9.395,-0.0043,0.0329,9.8066,0.0079,-0.2277,0.0875,-1.69,-36.69,11.94,249.13,-86.5,92.71
15083,52.72418,-1.590962,147.28,19.38,6,280.61,20 / 21,1508320,2019-11-06 11:06:55:663,-1.3203,-1.174,9.7589,0.0306,0.0249,9.8065,-0.0547,0.233,-0.2496,-2.0,-36.69,11.63,247.35,-86.18,87.57
15084,52.72418,-1.590962,147.28,19.38,6,280.61,20 / 21,1508420,2019-11-06 11:06:55:763,-0.0324,0.0464,9.6611,0.0335,0.0001,9.8066,-0.0045,0.277,-0.115,-1.37,-36.62,11.56,247.35,-86.18,87.57
15085,52.72418,-1.590962,147.28,19.38,6,280.61,20 / 21,1508520,2019-11-06 11:06:55:863,2.7429,-0.5518,9.8285,0.0317,-0.0175,9.8065,0.022,0.3031,-0.1179,-1.37,-35.94,11.56,248.15,-86.0,88.64
15086,52.72418,-1.590962,147.28,19.38,6,280.61,20 / 21,1508620,2019-11-06 11:06:55:963,-0.135,-1.8342,9.6621,0.0145,0.0138,9.8066,-0.0266,0.2493,-0.1707,-1.94,-36.25,11.69,251.73,-85.82,92.98
15087,52.72418,-1.590962,147.28,19.38,6,280.61,20 / 21,1508720,2019-11-06 11:06:56:063,-5.3257,-2.4018,8.8989,-0.0321,0.0087,9.8065,-0.079,-0.1322,0.1596,-1.75,-36.69,10.94,248.69,-85.98,91.45
15088,52.72418,-1.590962,147.28,19.38,6,280.61,20 / 21,1508820,2019-11-06 11:06:56:163,-0.663,-0.2358,8.2379,-0.0942,0.0448,9.8061,0.0235,-0.5738,0.3257,-2.12,-36.31,11.56,248.69,-85.98,91.45
15089,52.72418,-1.590962,147.28,19.38,6,280.61,20 / 21,1508920,2019-11-06 11:06:56:263,2.131,0.3165,9.1041,-0.0465,0.0754,9.8062,-0.0856,0.1868,-0.0099,-1.62,-36.62,11.44,245.19,-86.37,84.41
