,GPS LATITUDE (degrees), GPS LONGITUDE (degrees), GPS ALTITUDE (m), GPS SPEED (Kmh), GPS ACCURACY (m), GPS ORIENTATION (Â°),GPS SATELLITES IN RANGE, TIME SINCE START (ms), DATE (YYYY-MO-DD HH-MI-SS_SSS), ACCELEROMETER X (m/s²) , ACCELEROMETER Y (m/s²), ACCELEROMETER Z (m/s²), GRAVITY X (m/s²), GRAVITY Y (m/s²), GRAVITY Z (m/s²), GYROSCOPE Yaw (rad/s), GYROSCOPE Pitch (rad/s), GYROSCOPE Roll (rad/s), MAGNETIC FIELD X (Î¼T), MAGNETIC FIELD Y (Î¼T), MAGNETIC FIELD Z (Î¼T), ORIENTATION (Yaw) (Â°), ORIENTATION (Pitch) (Â°), ORIENTATION (Roll ) (Â°)
50304,52.36433,-1.445933,137.93,18.41,3.0,146.54,23 / 24,607810,2019-09-07 10:37:20:964,0.2977,-0.077,9.9486,0.0032,0.0101,9.8066,0.0209,0.0648,0.0117,-36.19,-25.06,30.5,339.5,-79.47,-148.98
50305,52.36433,-1.445933,137.93,18.41,3.0,146.54,23 / 24,607910,2019-09-07 10:37:21:064,0.5171,1.175,10.0414,-0.0048,0.0153,9.8066,-0.0156,0.0618,0.0444,-36.94,-25.81,30.31,337.31,-79.62,-149.21
50306,52.36433,-1.445933,137.93,18.41,3.0,146.54,23 / 24,608010,2019-09-07 10:37:21:164,0.3356,0.0203,7.8473,-0.0163,0.0184,9.8066,-0.0828,0.0328,0.0326,-36.81,-25.44,30.31,338.52,-79.72,-148.23
50307,52.36433,-1.445933,137.93,18.41,3.0,146.54,23 / 24,608110,2019-09-07 10:37:21:264,-0.3546,0.1833,9.941,-0.0047,-0.0119,9.8065,0.0117,-0.0171,0.0036,-37.0,-25.12,29.69,340.12,-79.93,-146.84
50308,52.36433,-1.445933,137.93,18.41,3.0,146.54,23 / 24,608211,2019-09-07 10:37:21:365,0.9622,-0.2731,8.6566,-0.0044,-0.0288,9.8065,-0.0103,0.0137,0.0693,-37.25,-25.06,29.69,341.16,-79.66,-145.85
50309,52.363045,-1.444558,138.56,19.7,3.0,145.91,23 / 24,608310,2019-09-07 10:37:21:464,-0.6976,-0.0925,10.3812,-0.0131,-0.0163,9.8066,0.0625,0.0542,0.0738,-37.0,-25.12,29.88,341.78,-79.59,-145.27
50310,52.363045,-1.444558,138.56,19.7,3.0,145.91,23 / 24,608410,2019-09-07 10:37:21:564,-2.0778,-1.3598,10.0949,-0.0077,-0.0088,9.8066,-0.0158,-0.0585,-0.0961,-37.31,-25.12,30.31,342.44,-79.35,-144.64
50311,52.363045,-1.444558,138.56,19.7,3.0,145.91,23 / 24,608510,2019-09-07 10:37:21:664,-1.9743,0.3533,8.6011,-0.0102,0.008,9.8066,-0.0256,-0.0268,-0.0236,-37.94,-24.75,30.0,340.38,-79.39,-145.77
50312,52.363045,-1.444558,138.56,19.7,3.0,145.91,23 / 24,608610,2019-09-07 10:37:21:764,1.2624,0.1472,10.2815,0.0061,0.0255,9.8065,-0.0178,-0.0141,-0.0707,-37.19,-25.12,30.13,340.36,-79.64,-146.56
50313,52.363045,-1.444558,138.56,19.7,3.0,145.91,23 / 24,608710,2019-09-07 10:37:21:864,1.6466,0.4166,8.2913,0.002,0.0226,9.8065,-0.038,-0.0535,-0.0759,-37.06,-25.5,30.0,339.79,-79.87,-147.12
50314,52.363045,-1.444558,138.56,19.7,3.0,145.91,23 / 24,608810,2019-09-07 10:37:21:964,-0.2369,0.6102,9.6138,-0.0062,0.0017,9.8066,0.0135,0.0415,0.0214,-36.5,-25.5,30.63,341.26,-80.12,-147.55
50315,52.363045,-1.444558,138.56,19.7,3.0,145.91,23 / 24,608910,2019-09-07 10:37:22:064,-1.1533,1.517,7.7732,0.0109,-0.005,9.8066,0.0637,0.0984,0.0161,-36.5,-26.0,30.25,339.77,-80.13,-147.87
50316,52.363045,-1.444558,138.56,19.7,3.0,145.91,23 / 24,609010,2019-09-07 10:37:22:164,-0.4766,0.1969,10.1389,0.0159,0.0079,9.8066,0.0494,0.023,-0.0417,-36.62,-25.25,30.13,337.86,-80.19,-148.95
50317,52.363045,-1.444558,138.56,19.7,3.0,145.91,23 / 24,609110,2019-09-07 10:37:22:264,0.2887,-0.787,11.0349,0.0225,0.008,9.8065,0.0025,0.0059,-0.0586,-36.5,-26.12,29.94,336.32,-80.18,-150.99
50318,52.363045,-1.444558,138.56,19.7,3.0,145.91,23 / 24,609211,2019-09-07 10:37:22:365,-0.1251,0.0432,9.7852,0.0129,0.0184,9.8066,-0.025,-0.0126,-0.0494,-36.06,-26.5,30.19,333.97,-80.32,-153.16
50319,52.363045,-1.444558,138.56,19.7,3.0,145.91,22 / 24,609310,2019-09-07 10:37:22:464,-0.6005,0.8744,10.2557,0.0096,0.0166,9.8066,0.0069,-0.0231,-0.0546,-36.37,-25.37,30.56,334.22,-80.5,-154.03
50320,52.363045,-1.444558,138.56,19.7,3.0,145.91,22 / 24,609410,2019-09-07 10:37:22:564,0.5792,-0.2701,10.0085,0.0154,-0.0082,9.8066,0.0669,-0.0022,-0.0076,-36.12,-25.94,30.38,331.41,-80.39,-155.51
50321,52.363045,-1.444558,138.56,19.7,3.0,145.91,22 / 24,609510,2019-09-07 10:37:22:664,0.3679,-0.1561,10.5121,-0.0127,-0.0131,9.8066,-0.0119,-0.012,0.0363,-36.19,-26.31,30.81,332.37,-80.13,-155.51
50322,52.363045,-1.444558,138.56,19.7,3.0,145.91,22 / 24,609610,2019-09-07 10:37:22:764,0.0145,-0.6808,10.8209,-0.0142,-0.0143,9.8065,-0.0758,-0.079,-0.0015,-36.56,-26.0,30.38,332.96,-80.02,-153.25
50323,52.363045,-1.444558,138.56,19.7,3.0,145.91,22 / 24,609710,2019-09-07 10:37:22:864,-2.3217,0.2878,8.8606,-0.0119,0.015,9.8066,-0.0731,-0.0619,-0.042,-36.06,-26.62,30.69,336.15,-80.09,-151.99
50324,52.363045,-1.444558,138.56,19.7,3.0,145.91,22 / 24,609810,2019-09-07 10:37:22:964,-0.6989,-0.1897,8.7051,-0.0079,0.0109,9.8066,-0.0124,0.0102,-0.0325,-36.62,-26.12,30.44,334.72,-80.41,-151.78
50325,52.363045,-1.444558,138.56,19.7,3.0,145.91,22 / 24,609910,2019-09-07 10:37:23:064,-0.9353,0.4087,10.7834,-0.0017,0.0165,9.8066,-0.0008,0.06,0.0007,-35.81,-26.25,30.19,335.13,-80.53,-152.17
50326,52.363045,-1.444558,138.56,19.7,3.0,145.91,22 / 24,610010,2019-09-07 10:37:23:164,-0.1413,0.4297,8.5919,0.0031,0.0131,9.8066,-0.0062,-0.0161,-0.0352,-35.25,-26.75,29.69,335.02,-80.68,-152.99
50327,52.363045,-1.444558,138.56,19.7,3.0,145.91,22 / 24,610118,2019-09-07 10:37:23:272,-0.3631,0.8715,9.9252,0.0075,-0.0002,9.8066,0.0205,0.0144,-0.0155,-36.19,-26.06,29.94,333.74,-80.7,-153.48
50328,52.363045,-1.444558,138.56,19.7,3.0,145.91,22 / 24,610211,2019-09-07 10:37:23:365,0.024,-0.8619,9.9188,0.0044,-0.0025,9.8066,-0.043,-0.0321,-0.0035,-35.62,-25.81,30.06,333.62,-80.68,-153.59
50329,52.363045,-1.444558,138.56,19.7,3.0,145.91,23 / 24,610310,2019-09-07 10:37:23:464,-0.0981,-0.1124,10.5379,-0.0102,0.0004,9.8066,-0.0218,-0.0016,0.0062,-36.5,-26.31,29.94,334.45,-80.72,-152.85
50330,52.363045,-1.444558,138.56,19.7,3.0,145.91,23 / 24,610410,2019-09-07 10:37:23:564,-0.356,-0.1966,9.1806,-0.0056,0.0066,9.8066,0.0096,-0.0116,-0.0453,-35.62,-26.19,30.13,335.03,-80.82,-152.35
50331,52.363045,-1.444558,138.56,19.7,3.0,145.91,23 / 24,610510,2019-09-07 10:37:23:664,0.0188,-0.2478,10.5121,0.0047,0.0033,9.8065,0.0231,0.0525,-0.0033,-35.56,-26.44,29.5,334.47,-80.88,-152.88
50332,52.363045,-1.444558,138.56,19.7,3.0,145.91,23 / 24,610610,2019-09-07 10:37:23:764,-0.2857,-0.5942,9.8153,0.0091,0.0062,9.8066,0.0023,0.0503,-0.0006,-35.69,-26.31,29.88,333.34,-80.94,-153.93
50333,52.363045,-1.444558,138.56,19.7,3.0,145.91,23 / 24,610710,2019-09-07 10:37:23:864,-0.3811,0.3214,11.2937,0.0082,0.0015,9.8066,0.0034,-0.0035,-0.0363,-35.5,-26.0,30.38,332.84,-81.0,-155.16
50334,52.363045,-1.444558,138.56,19.7,3.0,145.91,23 / 24,610810,2019-09-07 10:37:23:964,0.3222,0.6049,9.5616,0.0061,0.0075,9.8066,-0.0085,-0.0518,-0.0381,-35.19,-26.69,30.25,331.89,-80.98,-155.93
50335,52.363045,-1.444558,138.56,19.7,3.0,145.91,23 / 24,610910,2019-09-07 10:37:24:064,0.3085,0.5951,10.3999,0.008,-0.0035,9.8066,0.0535,0.0861,0.0382,-35.25,-26.56,30.13,331.6,-80.93,-156.17
50336,52.363045,-1.444558,138.56,19.7,3.0,145.91,23 / 24,611010,2019-09-07 10:37:24:164,-0.4465,-0.2496,9.478,-0.0062,-0.0056,9.8066,0.0045,0.0379,0.0193,-35.06,-26.06,30.13,330.96,-80.92,-156.85
50337,52.363045,-1.444558,138.56,19.7,3.0,145.91,23 / 24,611110,2019-09-07 10:37:24:264,1.1502,0.0471,10.9107,0.0059,-0.0061,9.8066,0.0444,0.082,0.041,-35.06,-26.69,29.81,331.17,-80.89,-156.55
50338,52.363045,-1.444558,138.56,19.7,3.0,145.91,23 / 24,611210,2019-09-07 10:37:24:364,-0.1932,0.3534,9.6177,0.0082,-0.0092,9.8065,-0.0021,-0.0087,0.0039,-35.06,-26.87,30.69,332.2,-80.8,-156.55
50339,52.363045,-1.444558,138.56,19.7,3.0,145.91,23 / 24,611311,2019-09-07 10:37:24:465,0.304,-0.339,10.5736,0.0062,-0.0201,9.8066,-0.013,-0.0063,0.0063,-35.37,-26.44,30.13,331.52,-80.64,-156.24
50340,52.363045,-1.444558,138.56,19.7,3.0,145.91,23 / 24,611410,2019-09-07 10:37:24:564,-0.3621,0.3086,9.1614,-0.0105,-0.0035,9.8065,-0.0214,0.0209,0.0118,-35.62,-26.69,29.81,331.39,-80.55,-155.48
50341,52.363045,-1.444558,138.56,19.7,3.0,145.91,23 / 24,611510,2019-09-07 10:37:24:664,-0.1143,-0.2845,9.0291,-0.0036,0.0007,9.8066,0.005,0.0382,0.0051,-35.37,-26.37,30.0,332.71,-80.61,-155.15
50342,52.363045,-1.444558,138.56,19.7,3.0,145.91,23 / 24,611610,2019-09-07 10:37:24:764,-0.0291,-0.0926,10.2209,-0.0006,-0.0005,9.8066,-0.0253,0.0034,-0.0027,-35.5,-26.56,30.13,333.03,-80.62,-154.77
50343,52.363045,-1.444558,138.56,19.7,3.0,145.91,23 / 24,611710,2019-09-07 10:37:24:864,-1.1419,0.8228,10.2729,-0.0053,-0.0022,9.8066,-0.0235,-0.0476,-0.0311,-35.5,-26.56,30.0,333.49,-80.64,-154.36
50344,52.363045,-1.444558,138.56,19.7,3.0,145.91,23 / 24,611810,2019-09-07 10:37:24:964,0.7812,0.4126,8.8139,0.005,-0.0018,9.8066,0.003,-0.003,-0.0195,-36.12,-26.37,30.31,332.48,-80.56,-154.59
50345,52.363045,-1.444558,138.56,19.7,3.0,145.91,23 / 24,611910,2019-09-07 10:37:25:064,-0.3944,0.2442,10.2913,-0.0039,0.0078,9.8065,-0.0015,0.0097,-0.001,-35.44,-25.75,30.0,333.4,-80.58,-154.52
50346,52.363045,-1.444558,138.56,19.7,3.0,145.91,23 / 24,612010,2019-09-07 10:37:25:164,0.4108,-0.2783,10.7712,-0.0038,0.0086,9.8066,0.0043,0.0162,0.0055,-35.56,-26.69,30.31,332.58,-80.66,-154.44
50347,52.363045,-1.444558,138.56,19.7,3.0,145.91,23 / 24,612110,2019-09-07 10:37:25:264,0.5555,-0.4203,10.6366,0.0075,-0.0004,9.8066,-0.0009,-0.012,-0.0199,-35.19,-25.94,30.0,332.98,-80.64,-154.91
50348,52.363045,-1.444558,138.56,19.7,3.0,145.91,23 / 24,612210,2019-09-07 10:37:25:364,-0.7367,0.5756,9.1963,0.0065,-0.0115,9.8066,-0.0063,-0.007,-0.0258,-35.06,-26.31,30.38,332.78,-80.71,-155.12
50349,52.363045,-1.444558,138.56,19.7,3.0,145.91,22 / 23,612310,2019-09-07 10:37:25:464,0.6302,-0.6597,10.4256,0.01,-0.0056,9.8065,0.001,-0.0277,-0.029,-35.0,-26.25,30.06,332.18,-80.58,-155.62
50350,52.363045,-1.444558,138.56,19.7,3.0,145.91,22 / 23,612410,2019-09-07 10:37:25:564,1.0243,-0.3102,10.3794,0.0005,-0.0048,9.8066,0.0146,0.0464,0.0234,-35.19,-26.06,30.38,332.04,-80.57,-155.75
50351,52.363045,-1.444558,138.56,19.7,3.0,145.91,22 / 23,612510,2019-09-07 10:37:25:664,-0.2951,0.6658,10.645,-0.0051,-0.0062,9.8066,0.0224,0.0612,0.0505,-35.56,-26.5,30.25,331.86,-80.54,-155.14
50352,52.363045,-1.444558,138.56,19.7,3.0,145.91,22 / 23,612611,2019-09-07 10:37:25:765,0.7707,-0.0751,8.7424,-0.0076,-0.0104,9.8066,-0.0007,-0.0089,0.0236,-35.19,-26.81,30.38,333.73,-80.43,-154.08
50353,52.363045,-1.444558,138.56,19.7,3.0,145.91,22 / 23,612710,2019-09-07 10:37:25:864,0.4107,-0.5055,10.0098,-0.0147,-0.007,9.8066,0.0136,0.0287,0.0171,-35.37,-26.31,30.0,334.52,-80.41,-153.44
50354,52.363045,-1.444558,138.56,19.7,3.0,145.91,22 / 23,612810,2019-09-07 10:37:25:964,-0.3637,-0.2193,10.2324,0.0011,0.0027,9.8066,-0.0027,0.0363,0.0121,-35.62,-26.12,29.94,333.81,-80.49,-153.36
50355,52.363045,-1.444558,138.56,19.7,3.0,145.91,22 / 23,612910,2019-09-07 10:37:26:064,-0.0619,0.4288,9.7609,-0.0064,0.0024,9.8066,-0.0238,-0.0081,-0.0115,-35.19,-26.75,31.0,335.52,-80.58,-153.47
50356,52.363045,-1.444558,138.56,19.7,3.0,145.91,22 / 23,613010,2019-09-07 10:37:26:164,-0.0056,-0.3666,10.4143,-0.0008,0.0024,9.8066,-0.0043,-0.0073,-0.0036,-35.62,-26.25,30.0,333.89,-80.62,-153.33
50357,52.363045,-1.444558,138.56,19.7,3.0,145.91,22 / 23,613110,2019-09-07 10:37:26:264,0.9922,0.162,10.0758,0.0049,-0.0073,9.8066,-0.0092,-0.0184,0.0083,-35.31,-26.25,29.75,334.75,-80.58,-153.29
50358,52.363045,-1.444558,138.56,19.7,3.0,145.91,22 / 23,613210,2019-09-07 10:37:26:364,0.8697,-0.9065,9.1919,0.0056,0.0012,9.8066,0.0097,-0.0148,-0.0116,-35.62,-26.19,30.38,333.94,-80.53,-153.25
50359,52.363045,-1.444558,138.56,19.7,3.0,145.91,23 / 24,613310,2019-09-07 10:37:26:464,0.0236,-0.5852,11.2182,-0.0026,0.0094,9.8066,0.0403,0.0761,0.048,-35.31,-26.62,30.5,335.4,-80.55,-153.57
50360,52.363045,-1.444558,138.56,19.7,3.0,145.91,23 / 24,613410,2019-09-07 10:37:26:564,-1.484,0.8036,9.6344,-0.0092,-0.004,9.8066,0.0167,0.0752,0.0639,-35.44,-26.25,29.75,334.48,-80.51,-153.52
50361,52.363045,-1.444558,138.56,19.7,3.0,145.91,23 / 24,613510,2019-09-07 10:37:26:664,-1.756,0.1159,9.3253,-0.0084,-0.0052,9.8066,0.0309,0.0442,0.0206,-35.75,-25.75,30.0,334.4,-80.46,-152.81
50362,52.363045,-1.444558,138.56,19.7,3.0,145.91,23 / 24,613611,2019-09-07 10:37:26:765,-0.387,-0.2447,10.0246,-0.0079,0.0018,9.8066,-0.0334,-0.0434,-0.0175,-35.37,-25.87,29.75,336.12,-80.35,-151.98
50363,52.363045,-1.444558,138.56,19.7,3.0,145.91,23 / 24,613710,2019-09-07 10:37:26:864,0.1189,-0.3883,9.65,-0.0082,0.0009,9.8066,-0.0309,-0.0066,0.0145,-35.56,-26.75,29.75,336.09,-80.39,-151.18
50364,52.363045,-1.444558,138.56,19.7,3.0,145.91,23 / 24,613810,2019-09-07 10:37:26:964,-0.9508,0.3757,10.1316,0.002,-0.0022,9.8066,0.0063,0.0522,0.0059,-36.06,-26.62,30.19,336.65,-80.39,-150.67
50365,52.363045,-1.444558,138.56,19.7,3.0,145.91,23 / 24,613910,2019-09-07 10:37:27:064,0.0412,0.1829,8.6882,-0.0006,0.0037,9.8066,0.0071,0.0139,-0.0023,-35.56,-26.25,29.81,336.61,-80.43,-150.8
50366,52.363045,-1.444558,138.56,19.7,3.0,145.91,23 / 24,614010,2019-09-07 10:37:27:164,-0.1445,0.1753,9.8891,-0.0012,0.0074,9.8066,-0.0238,-0.0442,-0.0414,-36.0,-25.94,30.56,337.31,-80.48,-151.14
50367,52.363045,-1.444558,138.56,19.7,3.0,145.91,23 / 24,614110,2019-09-07 10:37:27:264,-1.1592,1.0055,9.8783,0.0007,0.0103,9.8066,0.0271,0.0397,-0.0034,-35.81,-26.25,29.94,335.81,-80.6,-151.58
50368,52.363045,-1.444558,138.56,19.7,3.0,145.91,23 / 24,614210,2019-09-07 10:37:27:364,0.327,0.4562,10.1956,0.0023,-0.0076,9.8066,0.0095,-0.0501,-0.0089,-35.62,-26.37,29.75,335.96,-80.51,-151.41
50369,52.363045,-1.444558,138.56,19.7,3.0,145.91,22 / 23,614311,2019-09-07 10:37:27:465,0.0422,0.1431,9.3535,-0.0081,-0.0022,9.8066,0.0045,-0.0063,0.0055,-35.94,-26.44,30.31,336.23,-80.41,-151.14
50370,52.363045,-1.444558,138.56,19.7,3.0,145.91,22 / 23,614410,2019-09-07 10:37:27:564,0.6261,-0.9135,8.8057,0.0001,-0.0053,9.8066,-0.0127,0.0299,0.0294,-36.06,-26.87,29.88,336.38,-80.34,-150.91
50371,52.363045,-1.444558,138.56,19.7,3.0,145.91,22 / 23,614510,2019-09-07 10:37:27:664,0.4925,-0.4176,9.9723,-0.0011,-0.0046,9.8066,-0.0292,-0.0332,-0.0194,-36.12,-26.62,30.13,336.82,-80.33,-150.51
50372,52.363045,-1.444558,138.56,19.7,3.0,145.91,22 / 23,614610,2019-09-07 10:37:27:764,-0.4669,0.3705,10.0664,-0.0018,0.0056,9.8066,-0.0104,0.001,-0.0271,-35.62,-25.87,30.13,336.77,-80.45,-150.66
50373,52.363045,-1.444558,138.56,19.7,3.0,145.91,22 / 23,614710,2019-09-07 10:37:27:864,-0.0209,-0.5434,9.8249,0.0058,0.0138,9.8066,0.0361,0.0284,-0.0099,-35.87,-26.12,30.0,336.4,-80.55,-151.03
50374,52.363045,-1.444558,138.56,19.7,3.0,145.91,22 / 23,614810,2019-09-07 10:37:27:964,-0.2376,-0.0124,9.794,0.01,0.0031,9.8066,0.0042,-0.0161,-0.0104,-35.37,-26.37,29.56,336.87,-80.54,-151.36
50375,52.363045,-1.444558,138.56,19.7,3.0,145.91,22 / 23,614910,2019-09-07 10:37:28:064,0.0437,0.4428,11.2129,0.0031,-0.0041,9.8065,0.0229,0.0364,0.0035,-35.44,-26.0,29.88,336.3,-80.43,-151.84
50376,52.363045,-1.444558,138.56,19.7,3.0,145.91,22 / 23,615010,2019-09-07 10:37:28:164,-0.3767,0.4125,10.2047,-0.0023,-0.0032,9.8065,0.0082,0.0238,0.0149,-35.69,-26.19,30.06,335.9,-80.38,-151.43
50377,52.363045,-1.444558,138.56,19.7,3.0,145.91,22 / 23,615110,2019-09-07 10:37:28:264,-0.4268,-0.405,10.6404,0.0002,-0.0027,9.8066,0.0132,0.0342,0.0393,-36.0,-26.69,30.13,336.15,-80.32,-151.1
50378,52.363045,-1.444558,138.56,19.7,3.0,145.91,22 / 23,615210,2019-09-07 10:37:28:364,-1.0964,0.4655,9.6088,0.0009,0.0006,9.8066,0.024,0.0549,0.0143,-36.06,-26.25,30.0,336.36,-80.24,-150.97
50379,52.363045,-1.444558,138.56,19.7,3.0,145.91,22 / 23,615311,2019-09-07 10:37:28:465,-0.2415,-0.8438,9.6352,0.0103,0.0114,9.8065,0.04,0.08,-0.0054,-35.69,-26.56,30.63,337.17,-80.24,-151.11
50380,52.363045,-1.444558,138.56,19.7,3.0,145.91,22 / 23,615410,2019-09-07 10:37:28:564,0.3204,-0.1397,9.5989,-0.0081,0.004,9.8066,-0.0034,0.0467,0.039,-36.0,-26.25,30.31,335.36,-80.35,-151.91
50381,52.363045,-1.444558,138.56,19.7,3.0,145.91,22 / 23,615510,2019-09-07 10:37:28:664,0.1282,0.8407,10.2636,-0.0128,-0.0013,9.8066,-0.0064,0.0751,0.0533,-36.25,-26.5,29.88,336.25,-80.39,-151.12
50382,52.363045,-1.444558,138.56,19.7,3.0,145.91,22 / 23,615611,2019-09-07 10:37:28:765,-0.6855,0.3851,9.8185,0.0047,-0.0043,9.8066,0.0097,0.0459,0.0136,-36.0,-25.87,29.88,337.22,-80.37,-150.24
50383,52.363045,-1.444558,138.56,19.7,3.0,145.91,22 / 23,615711,2019-09-07 10:37:28:865,0.3344,0.146,10.1159,0.005,-0.0053,9.8066,0.019,0.0358,0.0191,-35.94,-25.94,29.81,337.14,-80.27,-150.28
50384,52.363045,-1.444558,138.56,19.7,3.0,145.91,22 / 23,615811,2019-09-07 10:37:28:965,-0.0625,0.7472,9.7923,0.0011,0.0072,9.8066,0.0566,0.0924,0.0555,-35.75,-26.31,30.19,337.07,-80.22,-150.32
50385,52.363045,-1.444558,138.56,19.7,3.0,145.91,22 / 23,615911,2019-09-07 10:37:29:065,-0.4368,0.4883,9.2536,0.0049,-0.009,9.8066,0.0311,0.05,0.0123,-35.94,-26.37,30.19,336.69,-80.14,-150.65
50386,52.363045,-1.444558,138.56,19.7,3.0,145.91,22 / 23,616010,2019-09-07 10:37:29:164,-0.22,0.2267,10.1227,-0.0104,0.0103,9.8066,0.0127,0.0669,0.0312,-35.44,-26.69,30.38,337.4,-80.22,-150.71
50387,52.363045,-1.444558,138.56,19.7,3.0,145.91,22 / 23,616110,2019-09-07 10:37:29:264,0.2418,0.7377,10.3119,-0.0014,0.0016,9.8065,0.009,0.067,0.0617,-35.87,-26.25,29.69,337.17,-80.26,-150.25
50388,52.363045,-1.444558,138.56,19.7,3.0,145.91,22 / 23,616211,2019-09-07 10:37:29:365,0.9156,-0.438,9.1792,-0.0066,-0.021,9.8066,0.0195,0.0605,0.0607,-36.62,-25.69,30.38,337.28,-80.14,-149.38
50389,52.363045,-1.444558,138.56,19.7,3.0,145.91,22 / 23,616310,2019-09-07 10:37:29:464,0.5971,0.1593,9.8319,-0.0059,-0.0175,9.8066,0.01,0.0089,0.0317,-36.5,-26.12,30.19,339.67,-79.92,-147.91
50390,52.363045,-1.444558,138.56,19.7,3.0,145.91,22 / 23,616410,2019-09-07 10:37:29:564,-1.3467,-0.0102,9.5781,-0.0154,0.0014,9.8066,0.0043,0.0442,0.0124,-36.25,-26.44,30.44,340.11,-79.89,-147.5
50391,52.363045,-1.444558,138.56,19.7,3.0,145.91,22 / 23,616510,2019-09-07 10:37:29:664,-0.6048,0.4451,9.6476,-0.01,0.0058,9.8066,-0.0568,-0.0581,-0.0593,-35.75,-25.69,30.06,341.28,-79.99,-146.49
50392,52.363045,-1.444558,138.56,19.7,3.0,145.91,22 / 23,616610,2019-09-07 10:37:29:764,0.0434,0.9328,9.536,0.0014,0.0044,9.8066,-0.0621,-0.0799,-0.0941,-36.19,-26.37,30.06,340.91,-80.19,-146.87
50393,52.363045,-1.444558,138.56,19.7,3.0,145.91,22 / 23,616710,2019-09-07 10:37:29:864,0.6748,0.2785,9.9279,0.0079,0.0065,9.8065,0.0126,0.0615,0.0402,-36.19,-26.44,30.13,340.45,-80.26,-147.29
50394,52.363045,-1.444558,138.56,19.7,3.0,145.91,22 / 23,616810,2019-09-07 10:37:29:964,-0.5068,0.182,11.2021,0.0073,-0.0089,9.8066,0.0106,-0.0006,-0.0061,-35.94,-26.19,30.44,340.32,-80.22,-147.4
50395,52.363045,-1.444558,138.56,19.7,3.0,145.91,22 / 23,616910,2019-09-07 10:37:30:064,0.2473,0.3219,11.0608,-0.0005,-0.0084,9.8066,-0.0187,0.0005,-0.0086,-35.94,-26.37,30.0,340.25,-80.07,-147.42
50396,52.363045,-1.444558,138.56,19.7,3.0,145.91,22 / 23,617010,2019-09-07 10:37:30:164,-0.228,0.3419,8.6568,-0.0072,0.0061,9.8066,-0.0223,-0.008,-0.0168,-36.19,-27.0,29.56,340.3,-80.15,-147.33
50397,52.363045,-1.444558,138.56,19.7,3.0,145.91,22 / 23,617110,2019-09-07 10:37:30:264,-0.259,-0.294,11.2078,-0.0012,0.0089,9.8065,0.0079,0.0067,-0.0144,-35.69,-26.81,29.75,340.45,-80.31,-147.23
50398,52.363045,-1.444558,138.56,19.7,3.0,145.91,22 / 23,617213,2019-09-07 10:37:30:367,0.2445,-0.3929,8.5395,0.0064,-0.0016,9.8066,0.0085,0.0336,0.0034,-36.31,-26.12,29.75,339.78,-80.32,-147.91
50399,52.36165,-1.443072,138.48,21.19,3.0,146.68,22 / 24,617310,2019-09-07 10:37:30:464,0.1948,-0.096,9.522,0.0026,0.0014,9.8066,0.0178,0.0506,0.0174,-35.87,-26.56,29.44,338.33,-80.32,-148.16
50400,52.36165,-1.443072,138.48,21.19,3.0,146.68,22 / 24,617410,2019-09-07 10:37:30:564,0.8588,0.4348,10.4264,-0.0013,-0.0018,9.8066,0.0342,0.0593,0.0393,-35.75,-26.31,29.19,338.35,-80.34,-148.23
50401,52.36165,-1.443072,138.48,21.19,3.0,146.68,22 / 24,617510,2019-09-07 10:37:30:664,-0.2062,0.6604,10.3844,0.0055,-0.0096,9.8066,0.0058,-0.013,-0.0184,-35.87,-26.62,30.13,339.18,-80.28,-148.36
50402,52.36165,-1.443072,138.48,21.19,3.0,146.68,22 / 24,617611,2019-09-07 10:37:30:765,0.599,0.0477,9.2795,-0.0042,-0.0132,9.8066,-0.0212,-0.0687,-0.0539,-35.75,-25.94,29.56,339.32,-80.22,-148.3
50403,52.36165,-1.443072,138.48,21.19,3.0,146.68,22 / 24,617711,2019-09-07 10:37:30:865,0.5861,0.0897,10.158,-0.0049,-0.0001,9.8066,-0.0322,-0.0915,-0.0779,-36.06,-26.37,29.63,339.99,-80.14,-147.68
50404,52.36165,-1.443072,138.48,21.19,3.0,146.68,22 / 24,617810,2019-09-07 10:37:30:964,-0.8476,0.6761,9.1918,-0.0011,-0.0005,9.8066,0.0347,0.1155,0.0884,-36.06,-26.0,30.19,340.03,-80.16,-147.65
50405,52.36165,-1.443072,138.48,21.19,3.0,146.68,22 / 24,617910,2019-09-07 10:37:31:064,-0.6378,0.5452,9.7322,-0.002,-0.0123,9.8066,-0.0036,0.0159,0.0204,-36.0,-25.87,30.31,340.56,-80.06,-147.15
50406,52.36165,-1.443072,138.48,21.19,3.0,146.68,22 / 24,618011,2019-09-07 10:37:31:165,-0.0954,0.5219,10.1651,-0.0125,-0.0038,9.8066,-0.0205,0.0366,0.0299,-36.69,-26.75,30.69,341.42,-80.11,-146.53
50407,52.36165,-1.443072,138.48,21.19,3.0,146.68,22 / 24,618110,2019-09-07 10:37:31:264,-0.4741,0.8586,10.2534,-0.0099,-0.001,9.8066,-0.0211,-0.0072,-0.0086,-36.44,-26.19,30.38,342.24,-80.14,-145.66
50408,52.36165,-1.443072,138.48,21.19,3.0,146.68,22 / 24,618210,2019-09-07 10:37:31:364,-0.1023,0.861,9.6562,-0.0078,-0.0109,9.8066,0.0078,-0.0147,0.017,-36.25,-26.31,29.94,343.03,-80.12,-144.95
50409,52.36165,-1.443072,138.48,21.19,3.0,146.68,21 / 23,618310,2019-09-07 10:37:31:464,0.6414,-0.5608,9.9878,0.0006,-0.0115,9.8065,-0.026,-0.0782,-0.0378,-36.12,-25.56,30.19,343.39,-80.01,-144.6
50410,52.36165,-1.443072,138.48,21.19,3.0,146.68,21 / 23,618410,2019-09-07 10:37:31:564,0.449,-0.1083,10.2492,0.0024,-0.0047,9.8065,-0.0067,0.0308,0.0343,-36.5,-26.12,30.44,343.19,-79.85,-144.75
50411,52.36165,-1.443072,138.48,21.19,3.0,146.68,21 / 23,618510,2019-09-07 10:37:31:664,-0.32,0.0239,9.5706,0.0036,-0.0083,9.8065,-0.0036,0.0015,-0.0276,-36.5,-26.5,30.0,343.49,-79.82,-144.47
50412,52.36165,-1.443072,138.48,21.19,3.0,146.68,21 / 23,618610,2019-09-07 10:37:31:764,-0.606,0.1045,9.136,0.0001,0.0115,9.8066,-0.0179,-0.0161,-0.024,-37.12,-25.81,30.5,343.72,-79.94,-144.49
50413,52.36165,-1.443072,138.48,21.19,3.0,146.68,21 / 23,618711,2019-09-07 10:37:31:865,-0.8254,0.6014,10.6191,-0.0042,0.0087,9.8066,-0.0143,-0.0388,-0.0456,-37.0,-26.31,30.25,342.42,-80.12,-144.75
50414,52.36165,-1.443072,138.48,21.19,3.0,146.68,21 / 23,618810,2019-09-07 10:37:31:964,-0.1672,0.5315,8.557,0.0008,0.0072,9.8066,-0.0471,-0.027,-0.0205,-36.69,-26.5,30.69,343.06,-80.09,-145.11
50415,52.36165,-1.443072,138.48,21.19,3.0,146.68,21 / 23,618910,2019-09-07 10:37:32:064,0.3075,-0.1753,9.9323,0.0036,0.0056,9.8065,-0.0262,0.0187,0.0062,-36.12,-26.19,30.38,342.51,-80.21,-145.43
50416,52.36165,-1.443072,138.48,21.19,3.0,146.68,21 / 23,619011,2019-09-07 10:37:32:165,-0.5966,-0.0702,10.0744,0.0109,-0.0032,9.8066,0.0324,-0.0323,-0.0517,-36.19,-26.5,30.38,341.95,-80.28,-145.95
50417,52.36165,-1.443072,138.48,21.19,3.0,146.68,21 / 23,619114,2019-09-07 10:37:32:268,-0.4366,0.5981,9.4117,0.0148,-0.0003,9.8066,0.0072,0.0173,-0.0007,-36.12,-26.5,30.56,341.73,-80.26,-147.09
50418,52.36165,-1.443072,138.48,21.19,3.0,146.68,21 / 23,619211,2019-09-07 10:37:32:365,-0.2077,0.4873,9.8906,0.0038,-0.0098,9.8066,-0.01,-0.072,-0.0212,-36.06,-25.94,29.75,340.48,-80.2,-147.25
50419,52.36165,-1.443072,138.48,21.19,3.0,146.68,23 / 24,619311,2019-09-07 10:37:32:465,0.2213,-0.4663,9.8043,-0.0072,-0.007,9.8066,0.0202,0.0377,0.0654,-36.19,-25.87,30.63,341.93,-80.09,-146.87
50420,52.36165,-1.443072,138.48,21.19,3.0,146.68,23 / 24,619410,2019-09-07 10:37:32:564,-0.6398,0.3026,9.1199,-0.0109,0.003,9.8066,-0.0328,0.0396,0.0365,-36.31,-25.75,30.81,342.71,-80.04,-146.16
50421,52.36165,-1.443072,138.48,21.19,3.0,146.68,23 / 24,619510,2019-09-07 10:37:32:664,-0.7405,-0.0918,9.9776,-0.0095,0.008,9.8066,-0.0124,0.0265,0.0149,-36.0,-25.94,30.88,343.75,-80.22,-145.27
50422,52.36165,-1.443072,138.48,21.19,3.0,146.68,23 / 24,619611,2019-09-07 10:37:32:765,-0.2706,-0.123,9.5026,-0.0062,-0.0018,9.8066,0.008,0.0075,0.006,-36.37,-26.25,30.13,342.98,-80.21,-145.01
50423,52.36165,-1.443072,138.48,21.19,3.0,146.68,23 / 24,619710,2019-09-07 10:37:32:864,-0.2972,0.3956,9.4268,-0.0008,-0.0017,9.8066,0.0117,-0.0064,-0.0188,-35.69,-26.37,30.06,343.19,-80.17,-144.81
50424,52.36165,-1.443072,138.48,21.19,3.0,146.68,23 / 24,619811,2019-09-07 10:37:32:965,0.0371,0.2685,11.0263,0.0061,-0.0047,9.8066,0.0085,0.0236,0.0107,-36.37,-26.12,29.81,343.12,-80.14,-144.87
50425,52.36165,-1.443072,138.48,21.19,3.0,146.68,23 / 24,619910,2019-09-07 10:37:33:064,0.2036,0.554,9.47,-0.0009,-0.0017,9.8066,-0.0058,0.0191,0.0083,-35.94,-26.06,30.19,342.86,-80.1,-145.09
50426,52.36165,-1.443072,138.48,21.19,3.0,146.68,23 / 24,620011,2019-09-07 10:37:33:165,-0.7121,0.1962,9.9957,0.0045,0.0071,9.8066,0.0037,0.0298,0.017,-36.44,-26.44,30.44,342.73,-80.12,-145.21
50427,52.36165,-1.443072,138.48,21.19,3.0,146.68,23 / 24,620118,2019-09-07 10:37:33:272,-0.1064,-0.1979,9.7269,0.0016,0.0023,9.8066,-0.0095,0.0017,-0.012,-36.37,-27.12,29.94,342.29,-80.2,-145.56
50428,52.36165,-1.443072,138.48,21.19,3.0,146.68,23 / 24,620210,2019-09-07 10:37:33:364,-0.0456,-0.1622,9.1027,-0.0051,0.0061,9.8066,-0.0113,-0.0379,-0.0434,-36.5,-26.06,29.88,342.44,-80.33,-145.51
50429,52.36165,-1.443072,138.48,21.19,3.0,146.68,22 / 23,620310,2019-09-07 10:37:33:464,-1.0479,0.53,10.1211,-0.0026,0.0072,9.8066,-0.0019,0.0061,-0.0094,-36.25,-26.37,30.06,342.17,-80.36,-145.77
50430,52.36165,-1.443072,138.48,21.19,3.0,146.68,22 / 23,620410,2019-09-07 10:37:33:564,0.2133,0.2631,9.5303,0.0043,-0.004,9.8066,-0.0154,-0.0449,-0.0241,-36.19,-25.87,30.38,342.11,-80.38,-145.82
50431,52.36165,-1.443072,138.48,21.19,3.0,146.68,22 / 23,620510,2019-09-07 10:37:33:664,0.6837,0.0007,9.5543,0.0038,0.0039,9.8066,0.0123,0.0233,0.0214,-35.62,-26.5,29.75,341.68,-80.38,-146.21
50432,52.36165,-1.443072,138.48,21.19,3.0,146.68,22 / 23,620611,2019-09-07 10:37:33:765,-0.683,0.4521,10.0544,0.0053,0.0087,9.8066,0.0108,0.0127,-0.008,-35.94,-25.5,30.19,341.31,-80.47,-146.63
50433,52.36165,-1.443072,138.48,21.19,3.0,146.68,22 / 23,620710,2019-09-07 10:37:33:864,0.0282,0.5249,9.8701,0.0008,0.0001,9.8066,-0.0083,-0.034,-0.0508,-35.25,-26.44,30.0,342.06,-80.46,-146.65
50434,52.36165,-1.443072,138.48,21.19,3.0,146.68,22 / 23,620810,2019-09-07 10:37:33:964,-1.1081,0.003,9.1226,-0.0007,0.0071,9.8066,-0.0044,0.0606,0.0241,-36.19,-26.12,29.81,340.93,-80.48,-146.91
50435,52.36165,-1.443072,138.48,21.19,3.0,146.68,22 / 23,620910,2019-09-07 10:37:34:064,0.1194,0.4325,10.9801,-0.016,0.0055,9.8066,-0.0139,-0.0144,-0.0005,-35.87,-26.06,30.63,342.76,-80.57,-146.23
50436,52.36165,-1.443072,138.48,21.19,3.0,146.68,22 / 23,621010,2019-09-07 10:37:34:164,-0.5492,0.8926,9.847,-0.0059,-0.0143,9.8066,0.0141,0.0232,0.0567,-36.56,-26.31,30.5,342.71,-80.54,-145.52
50437,52.36165,-1.443072,138.48,21.19,3.0,146.68,22 / 23,621110,2019-09-07 10:37:34:264,-0.7444,0.9759,10.0439,-0.0025,-0.014,9.8065,0.0284,0.0521,0.078,-36.44,-26.06,30.44,343.43,-80.35,-144.64
50438,52.36165,-1.443072,138.48,21.19,3.0,146.68,22 / 23,621210,2019-09-07 10:37:34:364,0.201,1.0638,9.9318,-0.0057,-0.0189,9.8066,-0.0094,-0.0501,-0.006,-38.5,-25.56,30.5,343.91,-80.06,-143.61
50439,52.36165,-1.443072,138.48,21.19,3.0,146.68,22 / 23,621310,2019-09-07 10:37:34:464,0.4259,-0.4697,9.4405,-0.0061,0.003,9.8065,-0.0127,0.0011,-0.0083,-36.44,-26.19,27.69,342.69,-80.06,-143.26
50440,52.36165,-1.443072,138.48,21.19,3.0,146.68,22 / 23,621410,2019-09-07 10:37:34:564,-0.5512,0.454,9.1316,-0.0061,0.0045,9.8066,-0.0378,-0.0508,-0.0734,-34.5,-26.12,29.81,347.0,-80.08,-142.97
50441,52.36165,-1.443072,138.48,21.19,3.0,146.68,22 / 23,621511,2019-09-07 10:37:34:665,-0.2744,0.5066,10.0535,0.0016,0.0117,9.8066,0.0103,0.0207,0.0019,-36.12,-26.37,30.44,345.12,-80.22,-143.09
50442,52.36165,-1.443072,138.48,21.19,3.0,146.68,22 / 23,621611,2019-09-07 10:37:34:765,0.6217,-0.1366,10.1614,0.0103,-0.0051,9.8066,0.0022,-0.0219,-0.0176,-36.25,-26.12,30.31,344.73,-80.22,-143.44
50443,52.36165,-1.443072,138.48,21.19,3.0,146.68,22 / 23,621710,2019-09-07 10:37:34:864,0.4083,0.2418,10.4999,0.0096,0.006,9.8066,0.0413,0.0604,0.0109,-36.12,-25.87,30.06,343.73,-80.19,-144.33
50444,52.36165,-1.443072,138.48,21.19,3.0,146.68,22 / 23,621811,2019-09-07 10:37:34:965,0.1426,0.4699,10.7475,-0.0061,-0.0007,9.8066,-0.0029,-0.0467,-0.0407,-36.12,-25.81,30.31,343.64,-80.14,-144.4
50445,52.36165,-1.443072,138.48,21.19,3.0,146.68,22 / 23,621910,2019-09-07 10:37:35:064,-0.4968,-0.0663,10.1589,0.0032,0.0014,9.8066,0.0221,0.0174,0.0185,-36.12,-26.5,30.0,343.38,-80.12,-144.63
50446,52.36165,-1.443072,138.48,21.19,3.0,146.68,22 / 23,622010,2019-09-07 10:37:35:164,-0.806,0.6364,9.4434,0.0013,-0.0081,9.8066,0.0193,0.0122,0.012,-36.06,-25.56,30.06,343.14,-80.04,-144.83
50447,52.36165,-1.443072,138.48,21.19,3.0,146.68,22 / 23,622111,2019-09-07 10:37:35:265,0.2394,0.0934,9.599,0.0072,-0.0116,9.8066,0.0238,0.0852,0.0722,-36.0,-25.62,30.75,343.94,-79.91,-145.03
50448,52.36165,-1.443072,138.48,21.19,3.0,146.68,22 / 23,622210,2019-09-07 10:37:35:364,0.33,-0.5713,8.9866,-0.0047,-0.0069,9.8066,-0.0155,-0.0218,-0.017,-36.37,-25.81,30.63,344.36,-79.83,-144.64
50449,52.36165,-1.443072,138.48,21.19,3.0,146.68,21 / 22,622310,2019-09-07 10:37:35:464,0.1296,0.2839,9.8987,0.0022,-0.0004,9.8065,-0.0183,-0.0199,-0.0175,-36.56,-26.31,30.44,342.85,-79.78,-144.29
50450,52.36165,-1.443072,138.48,21.19,3.0,146.68,21 / 22,622410,2019-09-07 10:37:35:564,0.2266,0.9323,9.6968,0.0034,-0.0028,9.8066,0.0199,-0.018,-0.0215,-36.5,-25.69,30.44,343.95,-79.78,-144.05
50451,52.36165,-1.443072,138.48,21.19,3.0,146.68,21 / 22,622510,2019-09-07 10:37:35:664,0.4843,0.4584,10.7484,0.0029,-0.0066,9.8066,0.0272,-0.0046,-0.0102,-36.31,-26.5,30.63,344.87,-79.68,-144.16
50452,52.36165,-1.443072,138.48,21.19,3.0,146.68,21 / 22,622610,2019-09-07 10:37:35:764,-0.7268,0.2128,10.6274,-0.004,-0.0132,9.8066,0.0326,0.0686,0.0546,-36.87,-26.06,30.13,342.62,-79.45,-144.42
50453,52.36165,-1.443072,138.48,21.19,3.0,146.68,21 / 22,622710,2019-09-07 10:37:35:864,0.1314,0.2917,9.3552,0.0002,-0.008,9.8065,-0.031,-0.007,-0.0122,-36.56,-25.5,30.75,343.99,-79.3,-144.18
50454,52.36165,-1.443072,138.48,21.19,3.0,146.68,21 / 22,622811,2019-09-07 10:37:35:965,-0.2921,0.334,8.7709,-0.0085,-0.006,9.8066,-0.0106,-0.0457,-0.049,-36.44,-25.81,30.63,345.11,-79.33,-143.88
50455,52.36165,-1.443072,138.48,21.19,3.0,146.68,21 / 22,622910,2019-09-07 10:37:36:064,-0.2647,0.2884,9.2322,-0.0021,0.0045,9.8066,-0.0172,-0.046,-0.035,-36.44,-25.75,31.0,345.65,-79.25,-143.39
50456,52.36165,-1.443072,138.48,21.19,3.0,146.68,21 / 22,623010,2019-09-07 10:37:36:164,0.4453,0.1369,9.729,-0.0055,-0.0023,9.8065,-0.0145,-0.0285,-0.021,-36.94,-25.19,30.25,344.06,-79.3,-143.17
50457,52.36165,-1.443072,138.48,21.19,3.0,146.68,21 / 22,623110,2019-09-07 10:37:36:264,-0.5376,0.3586,10.3993,-0.0033,0.0108,9.8066,-0.0018,0.0708,0.0366,-36.75,-25.94,30.81,345.25,-79.38,-143.02
50458,52.36165,-1.443072,138.48,21.19,3.0,146.68,21 / 22,623210,2019-09-07 10:37:36:364,0.4274,0.3697,9.0769,-0.0052,0.009,9.8066,-0.0162,0.0156,-0.0301,-36.62,-25.69,30.5,345.51,-79.44,-142.79
50459,52.36165,-1.443072,138.48,21.19,3.0,146.68,20 / 21,623310,2019-09-07 10:37:36:464,0.1143,0.5032,9.6993,0.0109,0.0087,9.8066,-0.0046,-0.0396,-0.0729,-36.87,-25.56,30.5,344.9,-79.63,-143.38
50460,52.36165,-1.443072,138.48,21.19,3.0,146.68,20 / 21,623410,2019-09-07 10:37:36:564,-0.2513,0.1862,10.0729,0.007,-0.0015,9.8066,0.0293,0.0346,0.0151,-36.69,-25.19,30.38,343.42,-79.63,-143.81
50461,52.36165,-1.443072,138.48,21.19,3.0,146.68,20 / 21,623510,2019-09-07 10:37:36:664,0.189,0.2813,10.2788,0.0011,-0.0012,9.8066,0.0078,0.022,0.0285,-36.31,-26.0,30.44,343.84,-79.57,-144.11
50462,52.36165,-1.443072,138.48,21.19,3.0,146.68,20 / 21,623610,2019-09-07 10:37:36:764,-0.1644,-0.2951,9.8885,0.0016,-0.0074,9.8065,0.0382,0.0225,0.023,-36.37,-25.94,31.13,344.69,-79.45,-144.28
50463,52.36165,-1.443072,138.48,21.19,3.0,146.68,20 / 21,623710,2019-09-07 10:37:36:864,-0.1003,0.295,9.1973,-0.002,-0.0025,9.8066,0.0066,0.0744,0.0421,-36.69,-26.12,30.38,342.86,-79.35,-144.19
50464,52.36165,-1.443072,138.48,21.19,3.0,146.68,20 / 21,623810,2019-09-07 10:37:36:964,-0.0808,0.2193,9.9077,-0.001,0.0065,9.8066,-0.0386,-0.0138,-0.0202,-36.56,-25.69,30.38,343.11,-79.41,-143.98
50465,52.36165,-1.443072,138.48,21.19,3.0,146.68,20 / 21,623910,2019-09-07 10:37:37:064,-0.8817,1.147,8.8749,-0.0069,-0.0014,9.8066,-0.0276,-0.0337,-0.033,-37.0,-25.81,30.38,343.68,-79.55,-143.51
50466,52.36165,-1.443072,138.48,21.19,3.0,146.68,20 / 21,624010,2019-09-07 10:37:37:164,-0.5468,-0.0149,8.872,-0.0027,-0.0045,9.8066,0.0153,0.0733,0.0453,-36.87,-26.31,30.38,343.65,-79.54,-143.53
50467,52.36165,-1.443072,138.48,21.19,3.0,146.68,20 / 21,624112,2019-09-07 10:37:37:266,-0.3657,-0.0519,10.4395,-0.0043,-0.0025,9.8066,0.0046,0.0361,0.0349,-36.56,-25.44,30.19,343.94,-79.53,-143.32
50468,52.36165,-1.443072,138.48,21.19,3.0,146.68,20 / 21,624211,2019-09-07 10:37:37:365,0.1632,0.3231,10.1285,0.0033,-0.0042,9.8066,0.033,0.0437,0.0229,-36.75,-25.62,30.06,344.34,-79.55,-142.91
50469,52.36165,-1.443072,138.48,21.19,3.0,146.68,21 / 22,624311,2019-09-07 10:37:37:465,0.403,-0.7871,11.0333,0.0106,-0.0021,9.8066,0.0284,-0.0089,-0.025,-36.75,-25.37,30.69,344.78,-79.46,-143.51
50470,52.36165,-1.443072,138.48,21.19,3.0,146.68,21 / 22,624410,2019-09-07 10:37:37:564,-0.611,0.0431,10.0242,0.0033,0.0019,9.8066,0.015,0.0703,0.033,-37.19,-25.62,30.75,344.11,-79.45,-144.05
50471,52.36165,-1.443072,138.48,21.19,3.0,146.68,21 / 22,624510,2019-09-07 10:37:37:664,0.0596,0.3047,8.9597,-0.0037,0.0051,9.8066,-0.0312,0.019,-0.006,-36.94,-25.56,30.75,343.71,-79.46,-144.4
50472,52.36165,-1.443072,138.48,21.19,3.0,146.68,21 / 22,624611,2019-09-07 10:37:37:765,-0.7482,0.2779,9.278,-0.0101,0.0082,9.8066,-0.0211,0.0269,-0.0062,-36.12,-26.06,30.38,344.06,-79.62,-143.92
50473,52.36165,-1.443072,138.48,21.19,3.0,146.68,21 / 22,624710,2019-09-07 10:37:37:864,-0.4177,0.4445,9.1157,0.0073,0.0172,9.8066,-0.0171,-0.0579,-0.0766,-36.37,-26.0,30.44,344.19,-79.81,-143.85
50474,52.36165,-1.443072,138.48,21.19,3.0,146.68,21 / 22,624810,2019-09-07 10:37:37:964,-0.2761,0.7815,9.3216,0.0108,-0.0001,9.8066,-0.0216,-0.0363,-0.0439,-36.56,-26.19,30.56,343.23,-79.88,-144.91
50475,52.36165,-1.443072,138.48,21.19,3.0,146.68,21 / 22,624911,2019-09-07 10:37:38:065,0.4672,-0.1485,10.3321,0.0009,-0.007,9.8066,0.0031,-0.002,-0.0103,-37.12,-26.12,29.56,341.94,-79.81,-145.11
50476,52.36165,-1.443072,138.48,21.19,3.0,146.68,21 / 22,625010,2019-09-07 10:37:38:164,0.3108,0.0908,9.7208,-0.0063,0.0027,9.8066,0.0047,0.0578,0.0515,-37.0,-26.56,29.88,342.3,-79.84,-144.73
50477,52.36165,-1.443072,138.48,21.19,3.0,146.68,21 / 22,625110,2019-09-07 10:37:38:264,-0.1691,0.365,9.9239,0.0108,-0.0023,9.8066,0.0334,0.0146,-0.0128,-36.62,-26.62,29.94,342.56,-79.83,-144.5
50478,52.36165,-1.443072,138.48,21.19,3.0,146.68,21 / 22,625210,2019-09-07 10:37:38:364,0.814,-0.0896,9.9092,0.0109,-0.0011,9.8066,0.0123,0.0129,0.0093,-37.12,-25.87,30.13,341.69,-79.75,-145.32
50479,52.36165,-1.443072,138.48,21.19,3.0,146.68,22 / 23,625310,2019-09-07 10:37:38:464,-0.3816,0.7629,8.7515,0.0083,0.0022,9.8066,0.0063,0.0005,-0.0257,-36.44,-25.5,30.63,342.97,-79.74,-145.93
50480,52.36165,-1.443072,138.48,21.19,3.0,146.68,22 / 23,625410,2019-09-07 10:37:38:564,0.208,0.1178,11.022,-0.0009,0.0122,9.8066,0.0039,0.0607,0.0332,-36.37,-26.12,31.38,342.13,-79.78,-146.62
50481,52.36165,-1.443072,138.48,21.19,3.0,146.68,22 / 23,625510,2019-09-07 10:37:38:664,-0.778,0.2852,9.772,-0.0048,0.0076,9.8065,-0.015,0.0,0.0205,-36.25,-26.0,30.5,342.28,-79.83,-146.5
50482,52.36165,-1.443072,138.48,21.19,3.0,146.68,22 / 23,625610,2019-09-07 10:37:38:764,-0.58,0.3646,9.164,-0.0003,-0.0052,9.8066,0.0091,-0.0152,0.0303,-36.56,-25.94,30.38,340.83,-79.86,-146.12
50483,52.36165,-1.443072,138.48,21.19,3.0,146.68,22 / 23,625711,2019-09-07 10:37:38:865,-0.1167,-0.8061,9.8775,-0.0013,0.0004,9.8066,-0.0335,-0.0823,-0.0345,-35.94,-25.62,30.56,342.83,-79.74,-146.0
50484,52.36165,-1.443072,138.48,21.19,3.0,146.68,22 / 23,625810,2019-09-07 10:37:38:964,-0.0809,-0.182,9.7052,-0.0097,0.0035,9.8066,-0.0265,-0.0069,-0.0021,-36.37,-25.62,30.69,343.31,-79.76,-145.57
50485,52.36165,-1.443072,138.48,21.19,3.0,146.68,22 / 23,625910,2019-09-07 10:37:39:064,0.1054,-0.1031,9.6882,-0.0023,-0.0015,9.8066,0.0126,0.0413,0.0215,-36.25,-25.81,30.44,342.74,-79.81,-145.14
50486,52.36165,-1.443072,138.48,21.19,3.0,146.68,22 / 23,626010,2019-09-07 10:37:39:164,0.45,0.3,9.757,0.0057,-0.0026,9.8066,-0.0009,0.0199,0.0081,-36.31,-25.87,30.13,342.75,-79.82,-145.13
50487,52.36165,-1.443072,138.48,21.19,3.0,146.68,22 / 23,626113,2019-09-07 10:37:39:267,0.0363,0.7189,10.1597,0.0048,-0.0034,9.8065,0.0175,-0.0344,-0.0001,-36.69,-25.94,30.63,342.76,-79.81,-145.32
50488,52.36165,-1.443072,138.48,21.19,3.0,146.68,22 / 23,626210,2019-09-07 10:37:39:364,-0.0889,-0.3447,10.5902,-0.0122,-0.0064,9.8066,-0.0223,-0.0517,-0.0164,-36.25,-25.87,30.44,342.81,-79.66,-145.04
50489,52.36023,-1.441533,138.13,21.03,3.0,146.89,21 / 23,626311,2019-09-07 10:37:39:465,-0.2374,0.0914,10.0266,-0.0029,-0.0079,9.8066,0.0077,0.0731,0.0508,-36.31,-25.69,30.56,344.37,-79.6,-144.59
50490,52.36023,-1.441533,138.13,21.03,3.0,146.89,21 / 23,626410,2019-09-07 10:37:39:564,-0.1555,-0.4225,8.6735,0.0,0.0009,9.8066,-0.0198,0.0105,-0.0235,-35.81,-25.75,30.69,344.38,-79.62,-144.58
50491,52.36023,-1.441533,138.13,21.03,3.0,146.89,21 / 23,626511,2019-09-07 10:37:39:665,-0.6549,-0.3618,10.714,0.0016,0.0084,9.8066,0.0043,-0.0103,-0.0394,-36.62,-25.69,30.75,343.45,-79.71,-144.68
50492,52.36023,-1.441533,138.13,21.03,3.0,146.89,21 / 23,626610,2019-09-07 10:37:39:764,0.4847,0.3831,10.0417,0.0011,0.0083,9.8066,0.0079,0.0399,0.0149,-36.06,-26.06,30.0,342.73,-79.8,-145.14
50493,52.36023,-1.441533,138.13,21.03,3.0,146.89,21 / 23,626711,2019-09-07 10:37:39:865,0.3657,0.1911,9.1324,0.0046,0.0029,9.8066,-0.0025,0.0359,0.018,-36.31,-25.62,30.31,342.59,-79.87,-145.29
50494,52.36023,-1.441533,138.13,21.03,3.0,146.89,21 / 23,626810,2019-09-07 10:37:39:964,-0.3241,0.5878,10.7174,0.0054,-0.0053,9.8066,0.0339,0.0384,0.0287,-36.19,-25.31,30.56,343.39,-79.87,-145.58
50495,52.36023,-1.441533,138.13,21.03,3.0,146.89,21 / 23,626911,2019-09-07 10:37:40:065,-0.4713,0.2997,10.5742,0.0023,0.0002,9.8066,0.0126,0.0001,0.0044,-36.31,-25.44,31.0,343.35,-79.75,-145.59
50496,52.36023,-1.441533,138.13,21.03,3.0,146.89,21 / 23,627011,2019-09-07 10:37:40:165,-1.241,-0.3417,10.7396,-0.0048,-0.0047,9.8066,0.0334,0.0082,-0.0148,-36.0,-25.81,30.44,342.49,-79.69,-145.33
50497,52.36023,-1.441533,138.13,21.03,3.0,146.89,21 / 23,627110,2019-09-07 10:37:40:264,0.1676,-0.1475,8.1076,-0.003,0.0003,9.8066,-0.0125,0.0211,0.0119,-36.31,-25.81,30.56,343.56,-79.61,-145.32
50498,52.36023,-1.441533,138.13,21.03,3.0,146.89,21 / 23,627210,2019-09-07 10:37:40:364,-0.3372,0.2803,10.2556,-0.0063,0.0001,9.8066,-0.0304,0.0149,0.0298,-35.94,-25.81,30.63,344.05,-79.64,-144.88
50499,52.36023,-1.441533,138.13,21.03,3.0,146.89,20 / 22,627310,2019-09-07 10:37:40:464,-0.0954,0.2754,10.056,0.0003,-0.0027,9.8066,-0.0152,0.0201,-0.0162,-36.44,-25.25,30.75,344.3,-79.62,-144.72
50500,52.36023,-1.441533,138.13,21.03,3.0,146.89,20 / 22,627410,2019-09-07 10:37:40:564,-0.0881,0.72,9.9125,0.0039,0.0025,9.8066,-0.009,-0.0078,-0.0353,-36.37,-25.56,30.44,343.18,-79.74,-144.73
50501,52.36023,-1.441533,138.13,21.03,3.0,146.89,20 / 22,627510,2019-09-07 10:37:40:664,-0.0186,0.012,9.0977,0.0075,-0.0018,9.8066,-0.0054,-0.0069,-0.0003,-36.0,-25.69,30.69,344.01,-79.77,-144.94
50502,52.36023,-1.441533,138.13,21.03,3.0,146.89,20 / 22,627610,2019-09-07 10:37:40:764,-0.2931,0.0625,9.0945,-0.0018,0.0072,9.8066,-0.007,0.0101,-0.0042,-36.94,-25.87,30.56,343.36,-79.72,-144.77
50503,52.36023,-1.441533,138.13,21.03,3.0,146.89,20 / 22,627710,2019-09-07 10:37:40:864,0.2268,-0.0119,9.8015,-0.004,0.0115,9.8066,0.0125,0.0608,0.0201,-36.19,-25.5,30.5,344.17,-79.86,-144.88
50504,52.36023,-1.441533,138.13,21.03,3.0,146.89,20 / 22,627810,2019-09-07 10:37:40:964,-0.5069,0.6183,9.6419,0.0035,0.0047,9.8066,0.0015,0.0193,-0.0175,-36.5,-25.12,30.5,344.12,-79.9,-144.93
50505,52.36023,-1.441533,138.13,21.03,3.0,146.89,20 / 22,627911,2019-09-07 10:37:41:065,0.2126,-0.4634,9.8718,0.0099,0.0074,9.8066,-0.0268,-0.0542,-0.0706,-36.44,-26.12,30.31,342.26,-79.92,-145.59
50506,52.36023,-1.441533,138.13,21.03,3.0,146.89,20 / 22,628011,2019-09-07 10:37:41:165,0.4263,-0.137,9.5312,0.0032,0.0151,9.8066,-0.0135,0.0076,-0.0313,-36.31,-25.37,29.94,341.93,-80.0,-145.97
50507,52.36023,-1.441533,138.13,21.03,3.0,146.89,20 / 22,628117,2019-09-07 10:37:41:271,0.3274,0.452,9.6649,0.0056,0.0078,9.8066,-0.0123,0.0204,0.0087,-35.5,-26.12,30.31,341.73,-80.14,-146.88
50508,52.36023,-1.441533,138.13,21.03,3.0,146.89,20 / 22,628211,2019-09-07 10:37:41:365,0.564,0.7341,9.5415,0.004,0.0015,9.8066,0.01,0.0443,0.0308,-36.31,-26.37,31.0,341.42,-80.2,-147.36
50509,52.36023,-1.441533,138.13,21.03,3.0,146.89,23 / 24,628311,2019-09-07 10:37:41:465,0.8875,-0.0224,9.623,0.015,-0.0073,9.8066,-0.0004,-0.0508,-0.0191,-35.75,-25.87,30.94,340.59,-80.11,-148.08
50510,52.36023,-1.441533,138.13,21.03,3.0,146.89,23 / 24,628410,2019-09-07 10:37:41:564,0.1209,-0.7196,8.9333,-0.0025,-0.0038,9.8066,-0.0006,-0.0313,-0.0117,-36.0,-26.19,31.06,340.69,-80.01,-147.97
50511,52.36023,-1.441533,138.13,21.03,3.0,146.89,23 / 24,628510,2019-09-07 10:37:41:664,-0.5901,-0.2971,9.5539,-0.004,-0.0001,9.8066,-0.0307,0.0029,0.0209,-35.69,-25.75,30.69,340.97,-80.0,-147.72
50512,52.36023,-1.441533,138.13,21.03,3.0,146.89,23 / 24,628610,2019-09-07 10:37:41:764,0.1345,-0.191,9.8275,-0.0098,-0.0038,9.8065,-0.0098,0.0284,0.0169,-36.06,-25.81,31.19,341.57,-80.03,-147.18
50513,52.36023,-1.441533,138.13,21.03,3.0,146.89,23 / 24,628710,2019-09-07 10:37:41:864,0.5818,-0.6276,9.6163,-0.0059,0.0033,9.8066,0.0304,0.061,0.0068,-35.81,-25.44,30.88,342.51,-80.08,-146.42
50514,52.36023,-1.441533,138.13,21.03,3.0,146.89,23 / 24,628810,2019-09-07 10:37:41:964,0.2196,-0.0118,10.2761,0.006,0.0007,9.8066,0.0006,-0.0313,-0.033,-35.94,-25.75,30.13,341.11,-80.1,-146.66
50515,52.36023,-1.441533,138.13,21.03,3.0,146.89,23 / 24,628910,2019-09-07 10:37:42:064,0.2802,-0.1629,10.3624,-0.0012,-0.0062,9.8066,-0.0576,-0.0359,-0.0171,-35.69,-25.56,30.81,342.01,-80.03,-146.79
50516,52.36023,-1.441533,138.13,21.03,3.0,146.89,23 / 24,629010,2019-09-07 10:37:42:164,-0.4415,0.1759,9.0377,-0.0041,0.002,9.8066,-0.0318,-0.0338,-0.0307,-36.5,-25.94,30.75,342.65,-80.06,-146.22
50517,52.36023,-1.441533,138.13,21.03,3.0,146.89,23 / 24,629118,2019-09-07 10:37:42:272,0.2362,0.1148,9.5575,-0.0042,0.0052,9.8066,0.0126,-0.0109,-0.0084,-36.06,-25.5,30.56,342.92,-80.05,-146.04
50518,52.36023,-1.441533,138.13,21.03,3.0,146.89,23 / 24,629210,2019-09-07 10:37:42:364,0.099,-0.6832,9.9144,0.0039,0.0037,9.8066,0.0034,0.0021,-0.0074,-35.81,-26.12,30.69,342.5,-80.07,-146.36
50519,52.36023,-1.441533,138.13,21.03,3.0,146.89,21 / 23,629310,2019-09-07 10:37:42:464,-0.4688,-0.2717,11.3405,0.0082,0.0008,9.8066,0.0162,-0.0564,-0.054,-36.25,-25.5,30.75,342.3,-80.09,-146.61
50520,52.36023,-1.441533,138.13,21.03,3.0,146.89,21 / 23,629410,2019-09-07 10:37:42:564,0.0526,-0.6326,9.8819,0.0136,-0.0046,9.8066,0.0114,-0.0288,-0.0494,-36.0,-25.87,30.63,341.32,-80.01,-147.4
50521,52.36023,-1.441533,138.13,21.03,3.0,146.89,21 / 23,629510,2019-09-07 10:37:42:664,0.01,0.7407,10.1006,-0.0015,0.0032,9.8066,-0.0166,-0.001,-0.015,-35.62,-25.56,30.56,340.81,-79.96,-147.85
50522,52.36023,-1.441533,138.13,21.03,3.0,146.89,21 / 23,629610,2019-09-07 10:37:42:764,-0.0093,0.2468,9.1827,0.0058,0.0065,9.8066,-0.0173,0.0031,-0.0333,-35.62,-26.06,30.31,338.81,-80.1,-148.73
50523,52.36023,-1.441533,138.13,21.03,3.0,146.89,21 / 23,629710,2019-09-07 10:37:42:864,0.4103,0.6881,9.9887,-0.0031,0.0044,9.8065,-0.0227,-0.0101,-0.0028,-35.94,-25.94,30.56,340.01,-80.15,-148.62
50524,52.36023,-1.441533,138.13,21.03,3.0,146.89,21 / 23,629810,2019-09-07 10:37:42:964,-1.3052,0.2004,10.399,-0.0014,0.0044,9.8066,-0.0024,-0.0191,-0.0321,-36.0,-25.44,30.44,339.52,-80.24,-148.2
50525,52.36023,-1.441533,138.13,21.03,3.0,146.89,21 / 23,629911,2019-09-07 10:37:43:065,-0.5472,0.794,11.0024,-0.0059,0.0044,9.8066,-0.0172,0.0083,-0.0058,-35.75,-25.81,30.81,340.54,-80.3,-148.17
50526,52.36023,-1.441533,138.13,21.03,3.0,146.89,21 / 23,630010,2019-09-07 10:37:43:164,-0.8297,0.6113,10.066,0.0122,-0.0004,9.8066,0.0395,0.0378,0.0164,-35.75,-26.44,30.63,340.67,-80.24,-148.04
50527,52.36023,-1.441533,138.13,21.03,3.0,146.89,21 / 23,630111,2019-09-07 10:37:43:265,-0.3819,0.1527,10.4133,0.0045,-0.0041,9.8066,0.0308,0.0529,0.0358,-36.31,-25.62,30.38,338.86,-80.16,-148.7
50528,52.36023,-1.441533,138.13,21.03,3.0,146.89,21 / 23,630210,2019-09-07 10:37:43:364,-0.0457,0.3562,10.4065,-0.0028,0.0087,9.8066,-0.0356,-0.0194,-0.0163,-35.81,-25.81,30.75,339.76,-80.2,-148.85
50529,52.36023,-1.441533,138.13,21.03,3.0,146.89,21 / 22,630311,2019-09-07 10:37:43:465,-0.7922,0.782,9.7734,0.0082,0.0128,9.8065,-0.0093,-0.0024,-0.0424,-35.31,-26.12,30.5,340.22,-80.32,-149.24
50530,52.36023,-1.441533,138.13,21.03,3.0,146.89,21 / 22,630410,2019-09-07 10:37:43:564,0.1036,0.9068,9.9229,0.0079,0.0077,9.8066,-0.0126,-0.0241,-0.046,-35.37,-26.0,30.81,338.99,-80.43,-150.38
50531,52.36023,-1.441533,138.13,21.03,3.0,146.89,21 / 22,630510,2019-09-07 10:37:43:664,-1.0323,0.6923,10.3574,0.0051,0.0013,9.8066,0.0513,0.0426,0.0042,-35.5,-26.25,31.44,338.1,-80.47,-151.19
50532,52.36023,-1.441533,138.13,21.03,3.0,146.89,21 / 22,630611,2019-09-07 10:37:43:765,-1.1782,0.5742,10.686,0.0207,0.0015,9.8065,0.0457,-0.0206,-0.0368,-35.31,-25.94,31.25,336.79,-80.36,-152.34
50533,52.36023,-1.441533,138.13,21.03,3.0,146.89,21 / 22,630710,2019-09-07 10:37:43:864,-0.2859,0.0958,8.6542,0.0181,0.0189,9.8066,-0.0457,-0.0464,-0.0799,-35.0,-25.87,31.19,334.31,-80.32,-154.57
50534,52.36023,-1.441533,138.13,21.03,3.0,146.89,21 / 22,630810,2019-09-07 10:37:43:964,-1.1688,1.1032,8.6387,-0.0215,0.0239,9.8065,-0.0611,0.0329,-0.001,-35.5,-26.31,30.75,334.54,-80.71,-154.49
50535,52.36023,-1.441533,138.13,21.03,3.0,146.89,21 / 22,630910,2019-09-07 10:37:44:064,0.6837,0.8071,8.4342,-0.009,0.0102,9.8066,0.0478,0.0472,0.0507,-35.44,-26.06,30.13,334.59,-80.86,-153.52
50536,52.36023,-1.441533,138.13,21.03,3.0,146.89,21 / 22,631011,2019-09-07 10:37:44:165,-0.5784,0.3739,11.6539,0.0059,-0.0201,9.8065,0.0274,-0.0172,0.0029,-34.94,-25.44,31.13,335.98,-80.69,-153.24
50537,52.36023,-1.441533,138.13,21.03,3.0,146.89,21 / 22,631110,2019-09-07 10:37:44:264,-0.1961,0.9324,11.7421,0.0029,-0.0214,9.8065,0.061,0.0624,0.0943,-35.62,-24.81,30.81,335.67,-80.28,-152.65
50538,52.36023,-1.441533,138.13,21.03,3.0,146.89,21 / 22,631210,2019-09-07 10:37:44:364,-0.3599,0.291,10.1203,0.0019,-0.0155,9.8066,0.028,-0.0057,0.0279,-35.62,-25.94,31.0,336.14,-80.0,-152.06
50539,52.36023,-1.441533,138.13,21.03,3.0,146.89,21 / 24,631310,2019-09-07 10:37:44:464,-0.3901,0.5688,10.0414,-0.0158,-0.0065,9.8065,-0.0126,-0.0308,0.0076,-35.94,-25.44,31.19,337.65,-79.84,-150.74
50540,52.36023,-1.441533,138.13,21.03,3.0,146.89,21 / 24,631410,2019-09-07 10:37:44:564,-0.9942,0.0973,8.9347,-0.0082,-0.0057,9.8065,-0.0148,0.003,0.0252,-36.37,-25.56,30.94,338.72,-79.79,-149.68
50541,52.36023,-1.441533,138.13,21.03,3.0,146.89,21 / 24,631510,2019-09-07 10:37:44:664,-1.0299,0.5315,9.293,-0.0035,0.0058,9.8066,0.0063,0.0512,0.0244,-35.5,-25.25,31.88,340.89,-79.87,-149.53
50542,52.36023,-1.441533,138.13,21.03,3.0,146.89,21 / 24,631610,2019-09-07 10:37:44:764,-1.4362,0.7005,7.7224,-0.001,0.0123,9.8066,-0.0178,0.0243,-0.0202,-35.44,-25.69,31.13,339.63,-79.95,-149.68
50543,52.36023,-1.441533,138.13,21.03,3.0,146.89,21 / 24,631711,2019-09-07 10:37:44:865,0.0744,0.4036,8.4179,-0.0069,0.004,9.8066,-0.0152,-0.0236,-0.0259,-36.19,-25.62,31.19,338.6,-80.15,-149.88
50544,52.36023,-1.441533,138.13,21.03,3.0,146.89,21 / 24,631810,2019-09-07 10:37:44:964,0.1511,0.9697,9.5008,-0.0058,-0.0033,9.8066,-0.0068,0.0101,0.0032,-35.5,-25.75,31.25,339.22,-80.23,-150.11
50545,52.36023,-1.441533,138.13,21.03,3.0,146.89,21 / 24,631910,2019-09-07 10:37:45:064,0.3674,0.6986,9.0041,0.0007,-0.0021,9.8066,0.0035,-0.0029,-0.0029,-35.87,-25.5,30.63,338.9,-80.2,-149.7
50546,52.36023,-1.441533,138.13,21.03,3.0,146.89,21 / 24,632010,2019-09-07 10:37:45:164,-0.5196,0.4251,9.4474,-0.0001,-0.0074,9.8066,0.0022,-0.0164,-0.0225,-36.0,-25.75,30.5,338.93,-80.11,-149.58
50547,52.36023,-1.441533,138.13,21.03,3.0,146.89,21 / 24,632110,2019-09-07 10:37:45:264,-2.1665,0.3045,9.7193,-0.0095,-0.0038,9.8066,-0.0214,-0.0471,-0.0521,-36.19,-25.5,31.06,339.5,-80.12,-149.13
50548,52.36023,-1.441533,138.13,21.03,3.0,146.89,21 / 24,632210,2019-09-07 10:37:45:364,-0.626,1.1059,8.9783,-0.0046,0.0087,9.8066,-0.0056,0.0485,0.024,-35.69,-25.94,30.69,339.11,-80.18,-149.43
50549,52.36023,-1.441533,138.13,21.03,3.0,146.89,23 / 24,632310,2019-09-07 10:37:45:464,-0.1421,0.6818,9.5958,-0.0035,0.0065,9.8066,-0.0115,0.0603,0.0288,-35.87,-25.5,30.88,339.23,-80.26,-149.41
50550,52.36023,-1.441533,138.13,21.03,3.0,146.89,23 / 24,632410,2019-09-07 10:37:45:564,0.616,0.3341,10.0625,-0.0044,0.0064,9.8066,-0.0224,-0.0278,-0.0248,-36.37,-25.87,30.75,339.77,-80.38,-148.88
50551,52.36023,-1.441533,138.13,21.03,3.0,146.89,23 / 24,632510,2019-09-07 10:37:45:664,-0.4573,0.7847,10.0567,0.0005,0.0078,9.8066,0.0282,0.1092,0.0633,-36.69,-25.5,30.88,339.04,-80.51,-148.9
50552,52.36023,-1.441533,138.13,21.03,3.0,146.89,23 / 24,632610,2019-09-07 10:37:45:764,-1.7576,0.3367,10.5,0.0001,-0.002,9.8066,-0.0374,-0.0624,-0.0961,-36.12,-26.12,30.25,339.3,-80.52,-148.39
50553,52.36023,-1.441533,138.13,21.03,3.0,146.89,23 / 24,632710,2019-09-07 10:37:45:864,-0.4231,1.1013,9.9979,-0.001,0.0139,9.8066,0.0093,0.0535,0.0264,-35.87,-26.31,30.5,339.6,-80.69,-149.11
50554,52.36023,-1.441533,138.13,21.03,3.0,146.89,23 / 24,632810,2019-09-07 10:37:45:964,-0.1615,1.9041,8.1584,-0.001,0.0129,9.8065,-0.0069,0.003,-0.0048,-35.75,-26.06,30.38,338.45,-80.72,-149.21
50555,52.36023,-1.441533,138.13,21.03,3.0,146.89,23 / 24,632910,2019-09-07 10:37:46:064,-0.6867,0.6046,9.7909,0.0003,0.0174,9.8066,0.0052,0.0301,-0.008,-36.56,-26.25,30.63,338.8,-80.89,-149.14
50556,52.36023,-1.441533,138.13,21.03,3.0,146.89,23 / 24,633010,2019-09-07 10:37:46:164,-1.3561,1.0867,9.8032,0.005,-0.0051,9.8066,-0.0008,-0.0091,-0.0114,-35.62,-25.81,30.63,339.3,-80.92,-149.44
50557,52.36023,-1.441533,138.13,21.03,3.0,146.89,23 / 24,633118,2019-09-07 10:37:46:272,-0.7919,0.1334,9.9753,-0.0067,-0.0034,9.8066,-0.0425,-0.0641,-0.0601,-36.19,-25.69,30.13,338.34,-80.87,-149.36
50558,52.36023,-1.441533,138.13,21.03,3.0,146.89,23 / 24,633210,2019-09-07 10:37:46:364,-0.3991,0.7936,9.9802,0.0004,0.0057,9.8066,0.0181,0.0535,0.0366,-35.69,-25.94,30.56,339.15,-80.97,-149.59
50559,52.36023,-1.441533,138.13,21.03,3.0,146.89,23 / 24,633311,2019-09-07 10:37:46:465,-1.4167,1.0509,10.5416,0.0038,-0.0019,9.8065,0.0041,0.0106,-0.0249,-35.81,-26.44,30.25,337.84,-80.99,-149.83
50560,52.36023,-1.441533,138.13,21.03,3.0,146.89,23 / 24,633410,2019-09-07 10:37:46:564,-0.998,0.9186,9.936,0.0004,0.0067,9.8066,0.0243,0.0512,0.0177,-35.44,-26.06,30.31,337.85,-81.01,-150.6
50561,52.36023,-1.441533,138.13,21.03,3.0,146.89,23 / 24,633510,2019-09-07 10:37:46:664,-1.1336,1.6404,9.5157,-0.0023,0.0049,9.8066,-0.0479,-0.048,-0.0374,-35.69,-25.69,30.81,337.9,-81.06,-150.76
50562,52.36023,-1.441533,138.13,21.03,3.0,146.89,23 / 24,633611,2019-09-07 10:37:46:765,0.1796,1.216,9.8881,-0.0106,-0.0016,9.8065,-0.0295,-0.0161,-0.0095,-36.06,-26.0,30.75,338.6,-81.21,-150.15
50563,52.36023,-1.441533,138.13,21.03,3.0,146.89,23 / 24,633711,2019-09-07 10:37:46:865,-1.5015,0.744,8.526,-0.0117,-0.0033,9.8066,-0.0171,-0.047,-0.0027,-35.81,-25.94,30.25,338.48,-81.23,-149.31
50564,52.36023,-1.441533,138.13,21.03,3.0,146.89,23 / 24,633810,2019-09-07 10:37:46:964,-1.8616,1.4763,9.7723,-0.0017,-0.0103,9.8066,0.0039,-0.025,-0.0116,-35.69,-26.0,29.88,338.9,-81.23,-148.94
50565,52.36023,-1.441533,138.13,21.03,3.0,146.89,23 / 24,633911,2019-09-07 10:37:47:065,-1.1623,0.3618,9.9706,0.0029,-0.0037,9.8066,0.0116,0.0015,0.0145,-35.75,-26.31,30.19,338.87,-81.11,-148.93
50566,52.36023,-1.441533,138.13,21.03,3.0,146.89,23 / 24,634011,2019-09-07 10:37:47:165,-1.2283,0.3235,10.1998,-0.0022,-0.0024,9.8066,-0.0489,-0.0619,-0.0499,-35.81,-25.87,30.63,339.79,-81.15,-149.05
50567,52.36023,-1.441533,138.13,21.03,3.0,146.89,23 / 24,634110,2019-09-07 10:37:47:264,-0.522,0.7693,9.6009,0.0024,0.0228,9.8066,0.0041,0.0386,0.0042,-35.31,-25.62,30.81,340.64,-81.28,-149.09
50568,52.36023,-1.441533,138.13,21.03,3.0,146.89,23 / 24,634210,2019-09-07 10:37:47:364,-0.6349,0.9078,10.6842,-0.0014,-0.003,9.8066,-0.0274,-0.0705,-0.07,-35.5,-25.94,30.44,339.38,-81.32,-149.29
50569,52.36023,-1.441533,138.13,21.03,3.0,146.89,22 / 23,634310,2019-09-07 10:37:47:464,-0.9854,1.1746,8.1944,0.0024,-0.0033,9.8066,-0.0065,-0.0535,-0.0789,-35.69,-26.19,30.5,339.22,-81.37,-149.62
50570,52.36023,-1.441533,138.13,21.03,3.0,146.89,22 / 23,634411,2019-09-07 10:37:47:565,0.1056,1.3305,9.6923,0.002,0.0076,9.8066,-0.0168,0.0249,0.0087,-35.5,-26.06,30.5,339.28,-81.45,-150.36
50571,52.36023,-1.441533,138.13,21.03,3.0,146.89,22 / 23,634510,2019-09-07 10:37:47:664,-2.3417,1.5626,9.8682,-0.0096,-0.0041,9.8066,-0.0297,-0.0005,-0.0126,-35.31,-26.06,30.38,338.39,-81.57,-150.25
50572,52.36023,-1.441533,138.13,21.03,3.0,146.89,22 / 23,634611,2019-09-07 10:37:47:765,-1.0213,1.3811,9.6453,-0.0027,-0.0013,9.8066,0.0139,0.0161,0.0185,-35.44,-26.62,30.5,339.67,-81.64,-149.99
50573,52.36023,-1.441533,138.13,21.03,3.0,146.89,22 / 23,634711,2019-09-07 10:37:47:865,-1.7521,1.2718,8.8411,-0.0111,0.0009,9.8066,-0.0101,0.0044,0.0198,-35.12,-26.37,30.69,340.46,-81.62,-149.33
50574,52.36023,-1.441533,138.13,21.03,3.0,146.89,22 / 23,634810,2019-09-07 10:37:47:964,-1.3654,1.1131,9.8112,-0.0094,0.0042,9.8066,0.0063,0.0016,-0.0277,-35.37,-26.62,29.94,339.96,-81.67,-148.78
50575,52.36023,-1.441533,138.13,21.03,3.0,146.89,22 / 23,634910,2019-09-07 10:37:48:064,-1.1738,0.1758,9.5136,0.0029,0.0056,9.8066,0.0042,0.0069,-0.0096,-35.81,-26.44,30.38,338.98,-81.76,-148.99
50576,52.36023,-1.441533,138.13,21.03,3.0,146.89,22 / 23,635010,2019-09-07 10:37:48:164,-0.8425,1.5541,10.3625,0.0081,0.0093,9.8066,0.0355,0.0494,0.0153,-35.37,-26.44,30.56,340.53,-81.78,-149.29
50577,52.36023,-1.441533,138.13,21.03,3.0,146.89,22 / 23,635110,2019-09-07 10:37:48:264,-2.2847,1.8788,9.2477,-0.0023,-0.005,9.8066,0.0117,-0.0323,-0.0237,-35.0,-25.81,30.31,338.93,-81.74,-149.8
50578,52.36023,-1.441533,138.13,21.03,3.0,146.89,22 / 23,635210,2019-09-07 10:37:48:364,-0.0129,1.2083,10.0499,-0.0097,0.0003,9.8066,-0.0496,-0.0567,-0.0417,-35.5,-26.19,30.75,339.91,-81.76,-149.86
50579,52.35889,-1.44009,138.17,15.84,3.0,146.18,21 / 24,635311,2019-09-07 10:37:48:465,-1.7875,1.2919,9.9681,-0.0186,0.0082,9.8065,-0.053,-0.0352,-0.0165,-35.31,-26.44,30.63,340.59,-81.84,-149.26
50580,52.35889,-1.44009,138.17,15.84,3.0,146.18,21 / 24,635410,2019-09-07 10:37:48:564,-1.722,0.9199,9.5039,-0.0019,0.006,9.8066,-0.0012,-0.0419,-0.0601,-35.12,-26.37,29.81,340.44,-82.01,-148.48
50581,52.35889,-1.44009,138.17,15.84,3.0,146.18,21 / 24,635511,2019-09-07 10:37:48:665,-0.7345,1.0944,10.2858,-0.0083,-0.0087,9.8066,0.0198,0.0381,0.0208,-35.5,-26.62,29.94,340.4,-82.0,-148.46
50582,52.35889,-1.44009,138.17,15.84,3.0,146.18,21 / 24,635610,2019-09-07 10:37:48:764,-1.4673,1.7163,10.4174,-0.0073,-0.0045,9.8066,0.0116,0.0358,0.0482,-35.31,-26.5,30.69,342.07,-81.93,-147.92
50583,52.35889,-1.44009,138.17,15.84,3.0,146.18,21 / 24,635710,2019-09-07 10:37:48:864,-2.647,1.7852,10.0261,0.0004,-0.0063,9.8066,-0.0018,0.0344,0.0303,-35.69,-26.44,30.31,340.91,-81.88,-147.25
50584,52.35889,-1.44009,138.17,15.84,3.0,146.18,21 / 24,635810,2019-09-07 10:37:48:964,-1.6392,1.3598,10.6925,-0.0005,-0.004,9.8066,0.0154,0.0411,0.0244,-35.31,-26.25,30.13,342.3,-81.8,-146.73
50585,52.35889,-1.44009,138.17,15.84,3.0,146.18,21 / 24,635910,2019-09-07 10:37:49:064,-2.0423,2.043,9.2977,0.0017,-0.0009,9.8065,0.0007,0.0474,0.0296,-35.25,-26.0,29.56,342.28,-81.85,-146.76
50586,52.35889,-1.44009,138.17,15.84,3.0,146.18,21 / 24,636010,2019-09-07 10:37:49:164,-0.659,0.4959,9.0119,-0.0124,0.0016,9.8066,-0.0138,0.0278,0.0277,-33.75,-26.37,28.88,342.88,-81.88,-146.03
50587,52.35889,-1.44009,138.17,15.84,3.0,146.18,21 / 24,636112,2019-09-07 10:37:49:266,-0.991,0.7164,9.3887,-0.0065,0.011,9.8066,-0.0337,-0.0258,-0.035,-34.12,-26.12,30.38,345.32,-82.01,-144.81
50588,52.35889,-1.44009,138.17,15.84,3.0,146.18,21 / 24,636210,2019-09-07 10:37:49:364,-0.305,1.2537,9.3658,-0.0038,0.0199,9.8066,-0.0131,0.0488,0.0097,-36.0,-26.19,31.5,345.57,-82.2,-144.89
50589,52.35889,-1.44009,138.17,15.84,3.0,146.18,20 / 23,636310,2019-09-07 10:37:49:464,-1.6555,1.7434,9.8762,0.0049,0.0172,9.8065,0.0031,0.0066,-0.0174,-35.62,-26.25,30.88,344.92,-82.31,-144.59
50590,52.35889,-1.44009,138.17,15.84,3.0,146.18,20 / 23,636410,2019-09-07 10:37:49:564,-0.1611,1.5275,9.4104,0.0079,0.0069,9.8066,0.0183,-0.0012,-0.0363,-34.69,-26.06,30.19,343.28,-82.49,-145.97
50591,52.35889,-1.44009,138.17,15.84,3.0,146.18,20 / 23,636511,2019-09-07 10:37:49:665,-0.6429,0.5642,9.9582,0.0151,0.0015,9.8066,0.0062,0.0031,-0.0325,-34.81,-26.56,30.75,342.75,-82.5,-147.36
50592,52.35889,-1.44009,138.17,15.84,3.0,146.18,20 / 23,636610,2019-09-07 10:37:49:764,-0.6303,1.5138,9.2137,0.0089,0.001,9.8066,-0.0176,-0.0253,-0.0501,-34.87,-25.87,30.75,340.97,-82.5,-149.05
50593,52.35889,-1.44009,138.17,15.84,3.0,146.18,20 / 23,636710,2019-09-07 10:37:49:864,-0.6523,1.3041,9.6705,-0.0133,0.0117,9.8065,-0.0254,0.0355,0.0225,-34.31,-25.94,30.88,342.09,-82.72,-148.87
50594,52.35889,-1.44009,138.17,15.84,3.0,146.18,20 / 23,636810,2019-09-07 10:37:49:964,-0.3457,1.1792,9.7997,-0.0157,0.0069,9.8066,-0.0304,0.012,-0.0016,-33.81,-26.19,30.38,342.49,-82.84,-147.57
50595,52.35889,-1.44009,138.17,15.84,3.0,146.18,20 / 23,636911,2019-09-07 10:37:50:065,-0.736,0.8292,9.516,-0.0098,-0.0008,9.8066,-0.0094,-0.0361,-0.0117,-33.69,-26.56,29.13,342.78,-82.88,-146.29
50596,52.35889,-1.44009,138.17,15.84,3.0,146.18,20 / 23,637010,2019-09-07 10:37:50:164,-0.8546,0.6681,9.7432,0.0018,-0.0007,9.8066,0.0176,-0.0054,-0.0112,-34.19,-26.37,28.94,343.6,-82.88,-145.57
50597,52.35889,-1.44009,138.17,15.84,3.0,146.18,20 / 23,637110,2019-09-07 10:37:50:264,-0.8464,1.1418,10.524,-0.0054,-0.0117,9.8066,-0.0404,-0.0271,-0.0043,-34.87,-26.56,28.88,342.62,-82.83,-145.63
50598,52.35889,-1.44009,138.17,15.84,3.0,146.18,20 / 23,637210,2019-09-07 10:37:50:364,-1.4809,0.9903,9.6126,-0.0161,0.0094,9.8066,-0.008,0.0568,0.0398,-34.75,-25.94,29.19,344.08,-82.92,-144.34
50599,52.35889,-1.44009,138.17,15.84,3.0,146.18,22 / 23,637310,2019-09-07 10:37:50:464,-0.4211,0.5101,9.387,-0.0036,-0.0113,9.8066,0.0332,0.0739,0.0469,-34.12,-26.87,29.5,346.19,-83.04,-144.15
50600,52.35889,-1.44009,138.17,15.84,3.0,146.18,22 / 23,637410,2019-09-07 10:37:50:564,-0.7294,0.7527,9.1474,-0.0019,-0.0106,9.8066,-0.0041,-0.0228,-0.0138,-35.5,-27.37,29.94,346.1,-82.85,-143.39
50601,52.35889,-1.44009,138.17,15.84,3.0,146.18,22 / 23,637510,2019-09-07 10:37:50:664,-0.4677,-0.0003,8.4892,0.0002,-0.0018,9.8066,0.0379,0.0898,0.0533,-35.5,-27.31,29.88,345.99,-82.86,-143.5
50602,52.35889,-1.44009,138.17,15.84,3.0,146.18,22 / 23,637611,2019-09-07 10:37:50:765,-0.6037,0.7924,9.2213,0.0009,-0.0038,9.8066,-0.009,0.0024,0.0029,-35.37,-27.37,29.75,345.96,-82.78,-143.51
50603,52.35889,-1.44009,138.17,15.84,3.0,146.18,22 / 23,637710,2019-09-07 10:37:50:864,-0.3653,0.9231,9.5291,-0.0049,0.0176,9.8066,-0.0225,0.0107,-0.0079,-35.12,-26.87,29.88,346.35,-82.97,-143.19
50604,52.35889,-1.44009,138.17,15.84,3.0,146.18,22 / 23,637810,2019-09-07 10:37:50:964,-0.1965,0.5533,9.1667,0.0003,0.0106,9.8066,0.0142,0.0693,0.0209,-35.25,-27.25,29.25,345.17,-83.1,-143.32
50605,52.35889,-1.44009,138.17,15.84,3.0,146.18,22 / 23,637910,2019-09-07 10:37:51:064,-1.4125,0.9285,11.5757,0.0054,-0.0027,9.8066,0.0191,0.0833,0.0522,-35.5,-26.81,29.81,346.24,-83.15,-143.32
50606,52.35889,-1.44009,138.17,15.84,3.0,146.18,22 / 23,638012,2019-09-07 10:37:51:166,-1.0276,1.0755,10.0933,-0.0041,-0.0045,9.8066,-0.0044,-0.0032,-0.0033,-35.56,-26.56,29.25,344.84,-83.04,-142.85
50607,52.35889,-1.44009,138.17,15.84,3.0,146.18,22 / 23,638113,2019-09-07 10:37:51:267,-1.0167,1.7281,10.1444,-0.0059,0.0007,9.8066,-0.048,-0.0658,-0.0392,-35.56,-26.56,30.69,347.26,-82.91,-142.49
