,GPS LATITUDE (degrees), GPS LONGITUDE (degrees), GPS ALTITUDE (m), GPS SPEED (Kmh), GPS ACCURACY (m), GPS ORIENTATION (Â°),GPS SATELLITES IN RANGE, TIME SINCE START (ms), DATE (YYYY-MO-DD HH-MI-SS_SSS), ACCELEROMETER X (m/s²) , ACCELEROMETER Y (m/s²), ACCELEROMETER Z (m/s²), GRAVITY X (m/s²), GRAVITY Y (m/s²), GRAVITY Z (m/s²), GYROSCOPE Yaw (rad/s), GYROSCOPE Pitch (rad/s), GYROSCOPE Roll (rad/s), MAGNETIC FIELD X (Î¼T), MAGNETIC FIELD Y (Î¼T), MAGNETIC FIELD Z (Î¼T), ORIENTATION (Yaw) (Â°), ORIENTATION (Pitch) (Â°), ORIENTATION (Roll ) (Â°)
35416,52.961777,-1.267582,168.89,23.23,4,217.85,21 / 21,5014213,2019-11-06 17:29:54:675,-0.4172,0.0351,10.2097,-0.0048,-0.0071,9.8066,0.0019,0.0437,0.0332,0.13,-36.94,26.31,187.97,-87.58,8.44
35417,52.961777,-1.267582,168.89,23.23,4,217.85,21 / 21,5014314,2019-11-06 17:29:54:776,0.2349,0.0019,9.5785,-0.0165,-0.0059,9.8066,0.0365,-0.0306,0.0621,-0.37,-36.31,27.44,184.99,-87.64,5.25
35418,52.961777,-1.267582,168.89,23.23,4,217.85,21 / 21,5014414,2019-11-06 17:29:54:876,-1.131,0.248,9.3411,0.0067,0.0065,9.8066,-0.0509,-0.145,0.0676,0.06,-36.5,27.75,185.88,-87.47,6.21
35419,52.961777,-1.267582,168.89,23.23,4,217.85,21 / 21,5014514,2019-11-06 17:29:54:976,0.9077,-0.1801,10.8561,-0.0139,0.0219,9.8066,-0.0489,-0.1265,0.1138,-0.31,-36.69,28.0,183.94,-87.43,4.17
35420,52.961777,-1.267582,168.89,23.23,4,217.85,21 / 21,5014614,2019-11-06 17:29:55:076,-1.0657,-0.2858,9.3696,-0.0333,0.0227,9.8065,0.1444,-0.0248,-0.0239,-0.19,-36.94,27.0,186.65,-87.65,7.01
35421,52.961777,-1.267582,168.89,23.23,4,217.85,21 / 21,5014714,2019-11-06 17:29:55:176,0.1227,1.4161,9.2035,-0.0072,-0.021,9.8066,0.1136,-0.0871,-0.0913,-0.19,-36.31,27.88,183.51,-87.6,3.7
35422,52.961777,-1.267582,168.89,23.23,4,217.85,21 / 21,5014814,2019-11-06 17:29:55:276,0.5473,-1.1517,9.6004,0.0066,-0.0053,9.8066,-0.0367,-0.0201,0.0298,0.31,-36.69,27.25,179.67,-87.36,-0.36
35423,52.961777,-1.267582,168.89,23.23,4,217.85,21 / 21,5014914,2019-11-06 17:29:55:376,-1.5117,0.2481,9.7031,-0.0127,-0.0051,9.8066,-0.07,-0.0179,0.0622,0.63,-36.81,27.38,178.37,-87.19,-3.86
35424,52.961777,-1.267582,168.89,23.23,4,217.85,21 / 21,5015014,2019-11-06 17:29:55:476,-0.8981,0.6849,10.2665,0.0181,-0.0289,9.8065,-0.0879,-0.0303,0.0999,0.19,-37.12,27.44,177.69,-87.27,-2.46
35425,52.961777,-1.267582,168.89,23.23,4,217.85,21 / 21,5015113,2019-11-06 17:29:55:575,0.468,-1.1836,10.3602,0.0264,-0.0237,9.8065,0.0039,-0.0161,0.0505,0.06,-36.75,27.13,179.26,-87.31,-0.78
35426,52.961777,-1.267582,168.89,23.23,4,217.85,21 / 21,5015213,2019-11-06 17:29:55:675,0.8812,0.3923,9.0725,0.0039,0.0035,9.8066,0.0949,-0.0773,-0.0563,0.06,-36.81,27.25,178.91,-87.25,-1.16
35427,52.961777,-1.267582,168.89,23.23,4,217.85,21 / 21,5015314,2019-11-06 17:29:55:776,0.3865,0.6168,10.0087,0.0046,0.0108,9.8066,0.065,0.0358,-0.01,0.06,-36.81,27.13,181.61,-87.3,1.71
35428,52.961777,-1.267582,168.89,23.23,4,217.85,21 / 21,5015414,2019-11-06 17:29:55:876,-0.2004,-0.2789,9.7342,0.0026,0.0009,9.8065,-0.0255,-0.0861,-0.0241,0.19,-37.0,27.69,183.78,-87.32,4.01
35429,52.961777,-1.267582,168.89,23.23,4,217.85,21 / 21,5015514,2019-11-06 17:29:55:976,-0.0684,-0.7471,9.5982,-0.0114,-0.0075,9.8066,-0.0765,-0.0297,0.1326,-0.44,-36.87,27.0,187.29,-87.53,7.71
35430,52.961777,-1.267582,168.89,23.23,4,217.85,21 / 21,5015613,2019-11-06 17:29:56:075,0.0334,-1.6184,10.2287,0.0127,-0.0112,9.8066,-0.0351,0.0221,0.0169,0.0,-36.94,27.19,185.65,-87.64,5.96
35431,52.961777,-1.267582,168.89,23.23,4,217.85,21 / 21,5015713,2019-11-06 17:29:56:175,-0.5473,0.8026,9.1336,0.006,-0.0278,9.8065,0.1366,0.0839,-0.073,0.0,-37.25,27.31,186.2,-87.86,6.51
35432,52.961777,-1.267582,168.89,23.23,4,217.85,21 / 21,5015814,2019-11-06 17:29:56:276,0.1978,-1.7517,10.3558,-0.0211,0.0111,9.8066,0.1513,0.0692,-0.1351,-0.25,-36.75,27.81,185.5,-88.0,5.76
35433,52.961777,-1.267582,168.89,23.23,4,217.85,22 / 23,5015914,2019-11-06 17:29:56:376,0.6425,-0.4616,9.8569,-0.0219,0.0116,9.8066,0.0299,0.0159,-0.0432,-0.06,-37.0,27.38,193.53,-88.19,14.1
35434,52.961777,-1.267582,168.89,23.23,4,217.85,22 / 23,5016014,2019-11-06 17:29:56:476,-0.4717,-1.6735,9.9287,-0.0048,-0.0093,9.8066,0.0825,0.0042,0.025,-0.25,-36.56,27.25,191.05,-88.29,11.5
35435,52.961777,-1.267582,168.89,23.23,4,217.85,22 / 23,5016113,2019-11-06 17:29:56:575,1.2608,0.3113,9.9345,0.0141,0.0269,9.8065,-0.0375,0.0024,0.0814,-0.12,-37.25,27.31,194.08,-88.21,14.67
35436,52.961777,-1.267582,168.89,23.23,4,217.85,22 / 23,5016214,2019-11-06 17:29:56:676,1.9868,-2.6104,10.2653,0.0139,-0.0588,9.8064,-0.0731,-0.0027,0.0621,0.13,-36.94,27.56,199.05,-88.52,19.68
35437,52.961777,-1.267582,168.89,23.23,4,217.85,22 / 23,5016314,2019-11-06 17:29:56:776,-0.2017,0.7499,10.3178,0.0146,-0.0343,9.8065,0.0228,0.0177,-0.0076,0.69,-36.31,28.13,208.26,-88.67,27.01
35438,52.961777,-1.267582,168.89,23.23,4,217.85,22 / 23,5016414,2019-11-06 17:29:56:876,0.1434,-1.6513,9.3987,-0.0113,0.0102,9.8066,-0.0438,0.0329,0.0039,0.56,-36.87,27.69,213.32,-88.79,32.14
35439,52.961777,-1.267582,168.89,23.23,4,217.85,22 / 23,5016514,2019-11-06 17:29:56:976,-1.3134,-1.1425,8.9212,-0.0069,0.0231,9.8066,-0.0829,0.0371,0.001,0.06,-37.0,28.31,205.74,-88.62,26.53
35440,52.961777,-1.267582,168.89,23.23,4,217.85,22 / 23,5016613,2019-11-06 17:29:57:075,0.7364,1.0126,8.7716,-0.029,-0.0077,9.8066,-0.1082,0.0115,0.052,-0.31,-37.0,27.56,194.45,-88.4,14.97
35441,52.961777,-1.267582,168.89,23.23,4,217.85,22 / 23,5016713,2019-11-06 17:29:57:175,-0.1465,-1.0267,10.3405,0.002,-0.0235,9.8066,-0.0272,0.1104,0.0528,0.06,-36.94,27.69,188.64,-88.36,8.96
35442,52.961777,-1.267582,168.89,23.23,4,217.85,22 / 23,5016814,2019-11-06 17:29:57:276,2.4835,0.0684,10.5921,-0.0548,0.0164,9.8065,0.1478,0.0419,0.0099,0.0,-36.94,28.31,179.98,-88.31,-0.02
35443,52.961777,-1.267582,168.89,23.23,4,217.85,20 / 21,5016913,2019-11-06 17:29:57:375,-0.9335,-1.435,10.6064,-0.0265,0.0291,9.8065,0.0882,-0.0999,-0.0606,-0.69,-36.87,27.94,180.29,-88.4,2.35
35444,52.961777,-1.267582,168.89,23.23,4,217.85,20 / 21,5017013,2019-11-06 17:29:57:475,-0.5766,-0.8166,9.953,0.0055,-0.0102,9.8066,0.0726,-0.1023,-0.0081,-0.44,-37.06,28.13,179.74,-88.25,-0.27
35445,52.961777,-1.267582,168.89,23.23,4,217.85,20 / 21,5017114,2019-11-06 17:29:57:576,-1.3205,0.3896,9.4216,0.0229,-0.0147,9.8065,-0.125,-0.0611,0.1058,0.25,-37.62,27.81,181.14,-88.14,1.19
35446,52.961777,-1.267582,168.89,23.23,4,217.85,20 / 21,5017214,2019-11-06 17:29:57:676,1.2788,-1.3269,9.6287,-0.0156,0.0119,9.8066,-0.0978,-0.1743,0.1641,0.0,-36.87,27.44,177.73,-87.84,-2.39
35447,52.961777,-1.267582,168.89,23.23,4,217.85,20 / 21,5017314,2019-11-06 17:29:57:776,1.0617,0.8937,8.7328,0.0153,0.0339,9.8065,0.087,-0.1599,0.0813,0.13,-37.0,28.06,178.84,-87.8,-1.22
35448,52.961777,-1.267582,168.89,23.23,4,217.85,20 / 21,5017414,2019-11-06 17:29:57:876,-0.273,1.4794,9.5083,-0.0113,0.0031,9.8066,0.1605,-0.103,-0.0701,-0.5,-36.75,27.13,181.55,-87.7,1.63
35449,52.961777,-1.267582,168.89,23.23,4,217.85,20 / 21,5017514,2019-11-06 17:29:57:976,1.2532,-1.9369,11.0053,0.0113,-0.011,9.8066,0.0174,-0.0638,-0.0075,-0.19,-36.5,28.13,181.69,-87.6,1.78
35450,52.961777,-1.267582,168.89,23.23,4,217.85,20 / 21,5017613,2019-11-06 17:29:58:075,-0.6546,0.1651,8.9334,0.015,-0.0136,9.8065,-0.1021,-0.0376,0.1184,-0.12,-37.0,27.63,180.61,-87.56,0.65
35451,52.961777,-1.267582,168.89,23.23,4,217.85,20 / 21,5017716,2019-11-06 17:29:58:178,-0.3107,1.0331,8.8768,0.0084,0.0049,9.8066,-0.1342,0.017,0.0833,-0.75,-36.5,28.31,178.65,-87.53,0.62
35452,52.961777,-1.267582,168.89,23.23,4,217.85,20 / 21,5017816,2019-11-06 17:29:58:278,-0.3092,-1.2101,9.7271,-0.0084,0.033,9.8065,-0.0004,0.0559,-0.0064,-0.69,-36.5,27.88,177.96,-87.4,-0.12
35453,52.961777,-1.267582,168.89,23.23,4,217.85,22 / 22,5017914,2019-11-06 17:29:58:376,-0.3211,-0.8183,10.1218,-0.0119,0.0017,9.8066,0.0702,0.1136,-0.1695,-0.06,-37.0,28.19,181.7,-87.44,1.8
35454,52.961777,-1.267582,168.89,23.23,4,217.85,22 / 22,5018014,2019-11-06 17:29:58:476,0.9209,0.79,9.4162,0.0261,-0.0126,9.8065,-0.0127,0.1149,-0.099,-0.44,-36.94,28.5,181.93,-87.35,2.04
35455,52.961777,-1.267582,168.89,23.23,4,217.85,22 / 22,5018113,2019-11-06 17:29:58:575,0.0402,-0.2519,9.3853,0.0051,-0.0125,9.8065,-0.0747,0.021,0.0936,-0.75,-36.56,29.0,177.35,-87.46,-0.82
35456,52.961777,-1.267582,168.89,23.23,4,217.85,22 / 22,5018213,2019-11-06 17:29:58:675,0.4691,-4.0261,10.4421,-0.0161,0.0325,9.8065,-0.1504,0.1015,0.0478,-0.81,-36.69,29.06,176.52,-87.5,-1.7
35457,52.961777,-1.267582,168.89,23.23,4,217.85,22 / 22,5018314,2019-11-06 17:29:58:776,-0.5752,0.2399,9.2497,-0.0244,0.025,9.8065,0.0278,0.1121,-0.1031,-0.75,-37.25,29.56,175.18,-87.21,-3.19
35458,52.961777,-1.267582,168.89,23.23,4,217.85,22 / 22,5018413,2019-11-06 17:29:58:875,0.1878,-0.6989,9.0756,0.0162,-0.0316,9.8065,0.0704,0.0223,-0.0933,0.0,-37.62,30.13,177.98,-87.41,-2.14
35459,52.961777,-1.267582,168.89,23.23,4,217.85,22 / 22,5018515,2019-11-06 17:29:58:977,-0.0773,-0.5421,10.1882,0.0186,-0.0174,9.8065,0.0661,-0.0855,0.0172,-0.19,-38.81,29.94,176.36,-87.31,-3.86
35460,52.961777,-1.267582,168.89,23.23,4,217.85,22 / 22,5018614,2019-11-06 17:29:59:076,0.174,-0.7429,10.3274,-0.0191,-0.0044,9.8066,0.0125,-0.1158,0.089,-0.06,-40.12,28.69,175.17,-87.35,-5.13
35461,52.961777,-1.267582,168.89,23.23,4,217.85,22 / 22,5018713,2019-11-06 17:29:59:175,0.3668,-1.809,9.5289,-0.0164,0.0018,9.8066,0.0856,0.0434,-0.039,0.0,-39.75,26.75,176.76,-87.34,-3.46
35462,52.961777,-1.267582,168.89,23.23,4,217.85,22 / 22,5018813,2019-11-06 17:29:59:275,0.2138,0.2757,9.2435,0.0094,-0.0145,9.8066,0.0902,-0.1998,-0.1108,-0.31,-39.37,26.0,175.05,-87.29,-5.29
35463,52.96028,-1.269413,167.95,23.26,4,214.45,21 / 21,5018915,2019-11-06 17:29:59:377,-1.5568,-0.8397,10.4262,0.018,-0.0389,9.8066,0.0614,-0.1715,0.1307,-0.5,-37.81,25.81,172.91,-87.18,-7.59
35464,52.96028,-1.269413,167.95,23.26,4,214.45,21 / 21,5019013,2019-11-06 17:29:59:475,-0.5293,-0.5167,10.9294,-0.031,0.0141,9.8065,-0.0947,-0.0184,0.1079,-0.12,-36.94,26.88,172.45,-87.39,-8.02
35465,52.96028,-1.269413,167.95,23.26,4,214.45,21 / 21,5019114,2019-11-06 17:29:59:576,-1.1085,-0.8527,10.7488,-0.0056,0.0191,9.8066,-0.0566,-0.0665,0.0506,-0.81,-36.87,27.25,169.59,-87.33,-8.94
35466,52.96028,-1.269413,167.95,23.26,4,214.45,21 / 21,5019213,2019-11-06 17:29:59:675,0.1778,-0.7832,9.5479,-0.0057,-0.0095,9.8065,0.0187,-0.0461,0.0217,-0.62,-37.31,27.63,169.1,-87.42,-9.49
35467,52.96028,-1.269413,167.95,23.26,4,214.45,21 / 21,5019313,2019-11-06 17:29:59:775,-0.5508,-1.6764,9.7405,-0.0085,0.0052,9.8066,0.0108,-0.0987,0.0505,-0.56,-36.94,27.19,168.84,-87.39,-9.72
35468,52.96028,-1.269413,167.95,23.26,4,214.45,21 / 21,5019414,2019-11-06 17:29:59:876,0.2402,-0.807,9.3156,-0.0198,-0.0017,9.8066,-0.0455,0.0401,0.0613,-0.62,-36.75,27.25,167.15,-87.33,-11.53
35469,52.96028,-1.269413,167.95,23.26,4,214.45,21 / 21,5019513,2019-11-06 17:29:59:975,1.0677,-0.6073,9.8101,0.0233,0.0078,9.8066,-0.0049,0.1588,-0.1239,-0.62,-37.0,28.0,168.22,-87.37,-10.43
35470,52.96028,-1.269413,167.95,23.26,4,214.45,21 / 21,5019613,2019-11-06 17:30:00:075,-1.4658,-0.9743,10.0696,0.0063,-0.0096,9.8066,-0.0516,0.1019,-0.0596,-0.44,-37.06,28.38,170.98,-87.38,-9.55
35471,52.96028,-1.269413,167.95,23.26,4,214.45,21 / 21,5019714,2019-11-06 17:30:00:176,-0.1581,-0.5969,9.458,-0.0031,-0.0045,9.8066,-0.0945,0.094,0.0817,-0.31,-37.19,28.25,172.36,-87.49,-8.08
35472,52.96028,-1.269413,167.95,23.26,4,214.45,21 / 21,5019814,2019-11-06 17:30:00:276,-0.4094,0.7222,9.0356,0.0267,-0.0251,9.8065,0.0059,0.0083,0.0435,-0.44,-36.75,27.56,175.31,-87.69,-4.94
35473,52.96028,-1.269413,167.95,23.26,4,214.45,21 / 21,5019913,2019-11-06 17:30:00:375,0.9969,-2.0377,10.3912,-0.0184,0.032,9.8066,0.0897,0.0933,-0.0616,-0.62,-36.69,28.0,171.22,-87.49,-7.23
35474,52.96028,-1.269413,167.95,23.26,4,214.45,21 / 21,5020013,2019-11-06 17:30:00:475,-1.0508,-0.6642,9.7881,-0.0304,-0.0041,9.8065,-0.0413,0.1421,-0.0805,-0.31,-36.81,27.75,177.55,-87.55,-2.59
35475,52.96028,-1.269413,167.95,23.26,4,214.45,21 / 21,5020113,2019-11-06 17:30:00:575,0.0487,0.1414,9.6274,0.0169,-0.0201,9.8066,-0.0831,0.2083,-0.0027,-0.56,-36.56,28.19,174.43,-87.58,-3.83
35476,52.96028,-1.269413,167.95,23.26,4,214.45,21 / 21,5020214,2019-11-06 17:30:00:676,0.5466,-1.3306,10.1321,-0.0119,-0.0077,9.8066,-0.0476,0.0516,-0.0818,-0.56,-37.12,28.13,174.74,-87.53,-3.51
35477,52.96028,-1.269413,167.95,23.26,4,214.45,21 / 21,5020314,2019-11-06 17:30:00:776,0.3865,-0.4536,10.403,0.0137,-0.007,9.8066,0.0104,0.0756,-0.0346,-0.25,-36.81,28.0,177.1,-87.56,-3.06
35478,52.96028,-1.269413,167.95,23.26,4,214.45,21 / 21,5020414,2019-11-06 17:30:00:876,0.8748,0.0771,9.7032,0.0004,0.0038,9.8066,-0.0378,0.0343,0.0111,-0.5,-36.37,27.81,176.05,-87.54,-4.16
35479,52.96028,-1.269413,167.95,23.26,4,214.45,21 / 21,5020514,2019-11-06 17:30:00:976,-0.4842,-1.9312,10.0026,0.0058,0.0221,9.8065,-0.0333,0.1264,-0.0315,-0.94,-36.56,28.69,173.92,-87.43,-4.45
35480,52.96028,-1.269413,167.95,23.26,4,214.45,21 / 21,5020614,2019-11-06 17:30:01:076,-1.1084,-0.1476,9.1955,-0.0277,0.0253,9.8065,0.06,0.1563,-0.1407,-0.62,-37.0,28.75,174.66,-87.44,-3.66
35481,52.96028,-1.269413,167.95,23.26,4,214.45,21 / 21,5020713,2019-11-06 17:30:01:175,-0.4036,0.2609,9.2856,0.0036,-0.0107,9.8066,0.0793,0.129,-0.136,-0.56,-37.0,27.94,174.15,-87.33,-4.16
35482,52.96028,-1.269413,167.95,23.26,4,214.45,21 / 21,5020814,2019-11-06 17:30:01:276,0.219,-0.9201,10.1837,0.0153,-0.0047,9.8066,-0.0313,0.0221,0.0576,-1.31,-37.06,27.44,173.73,-87.17,-4.57
35483,52.96028,-1.269413,167.95,23.26,4,214.45,21 / 22,5020914,2019-11-06 17:30:01:376,-0.0422,-0.7823,10.5425,-0.0073,0.0025,9.8066,0.0006,0.0165,0.0629,-0.62,-36.25,27.69,173.92,-87.14,-4.41
35484,52.96028,-1.269413,167.95,23.26,4,214.45,21 / 22,5021014,2019-11-06 17:30:01:476,2.0096,-1.1956,9.9686,-0.0221,0.0027,9.8066,0.0389,0.1049,-0.1592,-0.56,-37.12,28.5,173.99,-87.23,-4.39
35485,52.96028,-1.269413,167.95,23.26,4,214.45,21 / 22,5021113,2019-11-06 17:30:01:575,-0.4971,0.6456,9.1866,0.0276,-0.0022,9.8065,-0.0536,0.1828,-0.1172,-0.75,-36.75,28.13,175.99,-87.27,-2.22
35486,52.96028,-1.269413,167.95,23.26,4,214.45,21 / 22,5021214,2019-11-06 17:30:01:676,-0.7833,-0.7319,10.6859,-0.0102,-0.0204,9.8066,-0.0989,-0.0079,0.0719,-0.44,-37.0,28.5,175.98,-87.22,-4.26
35487,52.96028,-1.269413,167.95,23.26,4,214.45,21 / 22,5021314,2019-11-06 17:30:01:776,0.8052,-0.7709,9.9507,-0.0138,0.0073,9.8065,-0.0881,-0.0024,0.0457,-0.56,-36.75,28.06,172.25,-87.28,-6.18
35488,52.96028,-1.269413,167.95,23.26,4,214.45,21 / 22,5021413,2019-11-06 17:30:01:875,-0.0513,0.2269,9.8964,0.0108,0.0208,9.8065,0.04,-0.0922,0.0325,-0.56,-36.87,28.13,172.21,-87.41,-6.2
35489,52.96028,-1.269413,167.95,23.26,4,214.45,21 / 22,5021514,2019-11-06 17:30:01:976,-0.4327,-0.316,9.6315,0.0026,-0.0073,9.8066,0.0705,-0.1184,0.0129,-0.87,-36.87,27.56,173.78,-87.41,-4.53
35490,52.96028,-1.269413,167.95,23.26,4,214.45,21 / 22,5021613,2019-11-06 17:30:02:075,-0.7263,-0.9947,9.1611,0.0105,-0.0138,9.8066,0.0315,-0.1192,0.0797,-0.87,-36.19,28.44,175.82,-87.5,-2.37
35491,52.96028,-1.269413,167.95,23.26,4,214.45,21 / 22,5021713,2019-11-06 17:30:02:175,0.7074,0.9584,9.9356,-0.0193,-0.0018,9.8065,-0.1216,-0.0072,0.1083,-0.62,-37.06,28.19,174.85,-87.42,-3.4
35492,52.96028,-1.269413,167.95,23.26,4,214.45,21 / 22,5021815,2019-11-06 17:30:02:277,-1.6549,-0.8993,8.7581,-0.0197,0.0182,9.8066,-0.0498,-0.2205,0.1075,-1.12,-37.12,27.44,175.51,-87.3,-2.66
35493,52.96028,-1.269413,167.95,23.26,4,214.45,20 / 22,5021915,2019-11-06 17:30:02:377,0.3946,-0.445,10.565,-0.0436,0.0036,9.8065,0.0843,-0.193,0.1857,-1.25,-36.87,28.06,170.91,-87.1,-7.64
35494,52.96028,-1.269413,167.95,23.26,4,214.45,20 / 22,5022013,2019-11-06 17:30:02:475,0.684,0.3151,10.5941,-0.0002,-0.0287,9.8066,0.1915,0.0102,-0.1411,-0.81,-36.56,27.63,174.68,-87.2,-3.61
35495,52.96028,-1.269413,167.95,23.26,4,214.45,20 / 22,5022114,2019-11-06 17:30:02:576,-0.8239,-0.5317,9.7099,0.0484,-0.0242,9.8064,-0.0018,0.1086,-0.0707,-0.94,-36.56,28.56,178.25,-87.38,0.13
35496,52.96028,-1.269413,167.95,23.26,4,214.45,20 / 22,5022214,2019-11-06 17:30:02:676,-0.2275,-0.7838,10.0684,0.0046,-0.0218,9.8065,-0.1021,0.0225,0.0716,-0.31,-36.94,27.94,177.03,-87.42,-3.14
35497,52.96028,-1.269413,167.95,23.26,4,214.45,20 / 22,5022314,2019-11-06 17:30:02:776,-0.1692,0.3778,9.4319,-0.0261,0.0224,9.8065,-0.048,0.0049,0.0716,-1.12,-36.69,27.94,172.52,-87.23,-5.91
35498,52.96028,-1.269413,167.95,23.26,4,214.45,20 / 22,5022414,2019-11-06 17:30:02:876,-0.1757,0.0844,9.4832,-0.0101,0.0223,9.8065,-0.0639,0.0239,-0.0047,-1.06,-36.69,27.69,171.59,-87.22,-6.89
35499,52.96028,-1.269413,167.95,23.26,4,214.45,20 / 22,5022514,2019-11-06 17:30:02:976,-0.4387,-1.0137,10.2937,0.0077,-0.0187,9.8065,0.0904,0.0574,-0.0344,-1.25,-37.56,28.13,170.9,-87.29,-7.63
35500,52.96028,-1.269413,167.95,23.26,4,214.45,20 / 22,5022614,2019-11-06 17:30:03:076,0.8942,-1.3571,10.727,-0.0092,-0.0119,9.8066,0.1156,0.0096,-0.0207,-0.81,-36.94,28.13,171.98,-87.4,-6.44
35501,52.96028,-1.269413,167.95,23.26,4,214.45,20 / 22,5022714,2019-11-06 17:30:03:176,-0.2152,0.879,10.385,0.0198,-0.0177,9.8065,0.0867,-0.0471,-0.0829,-0.87,-36.75,28.31,171.84,-87.55,-6.57
35502,52.96028,-1.269413,167.95,23.26,4,214.45,20 / 22,5022814,2019-11-06 17:30:03:276,-0.0015,-0.4571,9.4504,0.0092,-0.0015,9.8066,-0.03,-0.1164,0.0068,-0.31,-36.62,27.81,172.09,-87.54,-8.35
35503,52.96028,-1.269413,167.95,23.26,4,214.45,21 / 22,5022914,2019-11-06 17:30:03:376,0.3142,0.5111,8.8058,-0.0369,0.0429,9.8064,-0.0831,0.0347,0.1254,-0.81,-36.62,27.88,168.22,-87.23,-10.47
35504,52.96028,-1.269413,167.95,23.26,4,214.45,21 / 22,5023014,2019-11-06 17:30:03:476,1.0088,0.2269,10.0857,-0.005,0.0108,9.8066,-0.0077,0.0959,-0.0116,-0.44,-37.69,27.88,172.22,-87.23,-8.28
35505,52.96028,-1.269413,167.95,23.26,4,214.45,21 / 22,5023114,2019-11-06 17:30:03:576,-0.4056,-0.1703,9.6054,0.0413,-0.0212,9.8065,0.0889,0.0406,-0.1099,-1.0,-37.19,28.44,172.27,-87.37,-6.15
35506,52.96028,-1.269413,167.95,23.26,4,214.45,21 / 22,5023214,2019-11-06 17:30:03:676,0.6064,0.0451,9.4615,0.0072,-0.0093,9.8066,0.0405,-0.0264,-0.0368,-0.75,-37.19,28.31,171.2,-87.41,-7.26
35507,52.96028,-1.269413,167.95,23.26,4,214.45,21 / 22,5023314,2019-11-06 17:30:03:776,0.272,-0.6809,10.0301,-0.0079,0.0168,9.8066,-0.0406,-0.0745,0.0977,-1.5,-36.56,28.25,171.66,-87.35,-6.8
35508,52.96028,-1.269413,167.95,23.26,4,214.45,21 / 22,5023413,2019-11-06 17:30:03:875,-0.498,0.3517,10.3679,-0.0194,-0.0016,9.8066,0.0261,-0.0272,0.095,-0.75,-37.0,27.94,171.75,-87.37,-6.69
35509,52.96028,-1.269413,167.95,23.26,4,214.45,21 / 22,5023514,2019-11-06 17:30:03:976,-0.7985,-0.0369,9.9345,0.0172,-0.015,9.8066,0.0297,-0.0147,-0.0543,-0.69,-36.81,28.0,173.09,-87.42,-5.27
35510,52.96028,-1.269413,167.95,23.26,4,214.45,21 / 22,5023614,2019-11-06 17:30:04:076,0.7781,0.5579,8.5357,0.0035,0.0157,9.8066,0.0142,-0.0013,-0.0195,-1.0,-36.87,27.81,170.88,-87.32,-7.62
35511,52.96028,-1.269413,167.95,23.26,4,214.45,21 / 22,5023714,2019-11-06 17:30:04:176,0.8168,0.101,9.6579,0.0058,0.0437,9.8065,-0.0493,-0.0941,0.0802,-1.12,-37.5,28.19,172.48,-87.0,-5.98
35512,52.96028,-1.269413,167.95,23.26,4,214.45,21 / 22,5023814,2019-11-06 17:30:04:276,0.3464,0.6127,10.3367,-0.016,-0.0047,9.8065,0.0229,-0.0747,0.0786,-0.81,-37.06,27.75,172.47,-87.02,-5.99
35513,52.96028,-1.269413,167.95,23.26,4,214.45,19 / 20,5023913,2019-11-06 17:30:04:375,0.0846,-1.6476,10.4597,0.0022,-0.0123,9.8066,0.1046,-0.028,-0.0204,-1.19,-36.81,28.13,170.65,-87.1,-7.91
35514,52.96028,-1.269413,167.95,23.26,4,214.45,19 / 20,5024014,2019-11-06 17:30:04:476,0.3193,0.8726,9.6216,-0.0003,0.0229,9.8065,-0.0641,-0.0264,0.0206,-1.0,-36.62,28.25,169.81,-87.3,-8.76
35515,52.96028,-1.269413,167.95,23.26,4,214.45,19 / 20,5024114,2019-11-06 17:30:04:576,-1.8942,0.642,8.9403,0.0173,-0.002,9.8066,-0.0879,-0.1046,0.1864,-1.44,-37.62,28.13,171.41,-87.42,-7.06
35516,52.96028,-1.269413,167.95,23.26,4,214.45,19 / 20,5024213,2019-11-06 17:30:04:675,0.4852,-0.5239,10.6393,0.0018,-0.023,9.8066,-0.0058,-0.141,0.0836,-0.37,-37.5,28.31,172.38,-87.33,-8.08
35517,52.96028,-1.269413,167.95,23.26,4,214.45,19 / 20,5024313,2019-11-06 17:30:04:775,-0.0158,-1.1565,8.3571,0.0306,-0.0207,9.8065,0.0834,-0.0197,-0.0774,-1.0,-37.12,28.44,172.68,-87.51,-5.68
35518,52.96028,-1.269413,167.95,23.26,4,214.45,19 / 20,5024414,2019-11-06 17:30:04:876,0.5119,-0.8206,9.5174,0.0082,-0.0114,9.8066,0.056,-0.0232,-0.0553,-1.31,-36.75,28.63,173.87,-87.61,-4.48
35519,52.96028,-1.269413,167.95,23.26,4,214.45,19 / 20,5024513,2019-11-06 17:30:04:975,-0.2536,-0.9918,10.43,0.0117,-0.0096,9.8066,0.0331,-0.0136,0.0205,-0.69,-36.5,28.75,175.26,-87.7,-3.0
35520,52.96028,-1.269413,167.95,23.26,4,214.45,19 / 20,5024613,2019-11-06 17:30:05:075,-1.0716,0.6325,9.3084,-0.0134,0.0114,9.8066,0.0122,-0.092,-0.0014,-0.87,-36.94,28.25,173.05,-87.87,-5.24
35521,52.96028,-1.269413,167.95,23.26,4,214.45,19 / 20,5024713,2019-11-06 17:30:05:175,-1.2664,1.1118,9.4851,-0.03,-0.0089,9.8065,-0.2024,-0.0507,0.1024,-1.06,-37.06,28.25,169.6,-87.85,-8.86
35522,52.96028,-1.269413,167.95,23.26,4,214.45,19 / 20,5024813,2019-11-06 17:30:05:275,-0.0922,-2.7223,10.3845,-0.0358,-0.0416,9.8064,-0.1325,-0.0691,0.1976,-0.62,-37.06,28.25,172.78,-87.53,-5.58
35523,52.96028,-1.269413,167.95,23.26,4,214.45,20 / 20,5024914,2019-11-06 17:30:05:376,-0.7785,1.4506,9.4861,0.0121,0.05,9.8065,0.2224,-0.0693,-0.105,-0.87,-36.94,28.94,170.36,-87.14,-8.26
35524,52.96028,-1.269413,167.95,23.26,4,214.45,20 / 20,5025014,2019-11-06 17:30:05:476,0.5347,0.1903,9.0691,-0.0105,0.0115,9.8065,0.0928,-0.1214,-0.0602,-0.94,-37.25,28.69,171.14,-87.01,-7.46
35525,52.96028,-1.269413,167.95,23.26,4,214.45,20 / 20,5025114,2019-11-06 17:30:05:576,0.1223,-0.5002,11.3876,-0.0114,0.0285,9.8066,0.1348,-0.1548,-0.0722,-1.25,-36.75,28.5,172.08,-87.07,-6.45
35526,52.96028,-1.269413,167.95,23.26,4,214.45,20 / 20,5025214,2019-11-06 17:30:05:676,-0.8815,-1.0918,9.4345,-0.0297,0.0136,9.8066,0.0167,-0.1192,0.0591,-0.75,-37.0,28.25,174.64,-87.3,-3.65
35527,52.96028,-1.269413,167.95,23.26,4,214.45,20 / 20,5025313,2019-11-06 17:30:05:775,-0.2794,-1.2187,9.4656,0.015,-0.0005,9.8066,-0.0393,-0.0133,-0.0039,-1.0,-36.31,28.75,174.51,-87.28,-3.83
35528,52.96028,-1.269413,167.95,23.26,4,214.45,20 / 20,5025414,2019-11-06 17:30:05:876,-0.0407,-1.6417,10.1326,-0.0161,0.0003,9.8066,-0.0371,0.0891,0.0051,-0.87,-37.19,29.0,176.93,-87.25,-1.28
35529,52.96028,-1.269413,167.95,23.26,4,214.45,20 / 20,5025514,2019-11-06 17:30:05:976,0.346,-0.2879,9.347,0.0072,-0.0055,9.8066,-0.0357,0.0502,0.0292,-1.0,-37.25,28.88,177.23,-87.18,-0.96
35530,52.96028,-1.269413,167.95,23.26,4,214.45,20 / 20,5025613,2019-11-06 17:30:06:075,-0.2765,0.2737,8.9874,0.0191,-0.009,9.8066,0.1565,0.0067,-0.0475,-1.5,-37.06,28.69,178.22,-87.24,0.09
35531,52.96028,-1.269413,167.95,23.26,4,214.45,20 / 20,5025714,2019-11-06 17:30:06:176,1.1403,-1.3651,10.4941,-0.031,0.0289,9.8065,0.1647,-0.0379,-0.1465,-0.69,-36.69,28.38,174.35,-87.25,-3.95
35532,52.96028,-1.269413,167.95,23.26,4,214.45,20 / 20,5025814,2019-11-06 17:30:06:276,-0.8628,-0.0563,10.0586,-0.0355,0.0097,9.8065,-0.1751,0.14,0.0546,-1.19,-37.25,28.63,175.7,-87.4,-2.57
35533,52.96028,-1.269413,167.95,23.26,4,214.45,21 / 21,5025914,2019-11-06 17:30:06:376,0.0802,-1.8429,10.0997,-0.0052,-0.0325,9.8065,-0.1614,0.1382,0.0159,-1.75,-36.75,29.0,168.37,-87.33,-8.35
35534,52.96028,-1.269413,167.95,23.26,4,214.45,21 / 21,5026013,2019-11-06 17:30:06:475,-0.5306,0.0835,9.6713,0.0162,-0.0153,9.8066,0.0175,0.0571,-0.0471,-1.12,-36.87,28.5,170.21,-87.32,-8.39
35535,52.96028,-1.269413,167.95,23.26,4,214.45,21 / 21,5026113,2019-11-06 17:30:06:575,0.6889,-1.4921,10.34,-0.0054,0.0028,9.8066,0.0708,0.0024,-0.107,-1.06,-37.0,29.0,170.94,-87.31,-7.62
35536,52.96028,-1.269413,167.95,23.26,4,214.45,21 / 21,5026214,2019-11-06 17:30:06:676,0.3419,-0.48,9.5472,-0.0096,0.0114,9.8066,0.0267,0.0771,0.0785,-1.5,-36.81,28.88,172.96,-87.41,-5.47
35537,52.96028,-1.269413,167.95,23.26,4,214.45,21 / 21,5026313,2019-11-06 17:30:06:775,-0.2125,-0.0518,9.3702,-0.0147,0.0012,9.8066,0.0102,0.0212,-0.0166,-1.5,-36.62,28.56,169.29,-87.31,-9.36
35538,52.96028,-1.269413,167.95,23.26,4,214.45,21 / 21,5026414,2019-11-06 17:30:06:876,0.7703,-0.6955,10.2213,-0.0309,-0.0134,9.8065,-0.0803,0.046,-0.0279,-1.44,-36.75,29.0,172.13,-87.36,-6.35
35539,52.96028,-1.269413,167.95,23.26,4,214.45,21 / 21,5026513,2019-11-06 17:30:06:975,-0.7279,0.612,8.8245,0.0268,-0.0169,9.8065,-0.1102,0.0708,0.1243,-0.87,-36.81,28.56,169.95,-87.4,-8.64
35540,52.96028,-1.269413,167.95,23.26,4,214.45,21 / 21,5026614,2019-11-06 17:30:07:076,-0.3357,-0.3515,10.1516,0.0271,-0.0202,9.8066,0.0555,-0.0461,-0.0071,-0.75,-36.56,27.88,169.33,-87.4,-9.25
35541,52.96028,-1.269413,167.95,23.26,4,214.45,21 / 21,5026714,2019-11-06 17:30:07:176,-0.0527,-0.5721,10.1187,0.0076,-0.0144,9.8066,0.0957,0.0272,-0.1201,-1.25,-36.37,28.44,170.58,-87.62,-7.86
35542,52.96028,-1.269413,167.95,23.26,4,214.45,21 / 21,5026813,2019-11-06 17:30:07:275,1.5707,-2.2151,10.2584,-0.0001,-0.0154,9.8066,-0.0673,-0.1042,0.1273,-1.0,-37.12,29.38,171.51,-87.86,-6.91
35543,52.96028,-1.269413,167.95,23.26,4,214.45,21 / 21,5026915,2019-11-06 17:30:07:377,-0.044,-1.2786,10.4891,0.0185,0.0039,9.8066,-0.2242,0.0652,0.1894,-1.31,-35.87,29.25,167.11,-87.73,-11.54
35544,52.96028,-1.269413,167.95,23.26,4,214.45,21 / 21,5027013,2019-11-06 17:30:07:475,-0.151,-0.5752,8.894,-0.0044,0.0006,9.8066,-0.0579,0.0935,-0.0573,-0.94,-36.87,28.81,165.84,-87.58,-12.93
35545,52.96028,-1.269413,167.95,23.26,4,214.45,21 / 21,5027114,2019-11-06 17:30:07:576,1.2199,0.5881,10.2185,0.0026,0.0074,9.8065,-0.008,0.1267,-0.1105,-0.87,-36.37,28.94,167.86,-87.54,-10.8
35546,52.96028,-1.269413,167.95,23.26,4,214.45,21 / 21,5027214,2019-11-06 17:30:07:676,0.9806,1.109,10.0521,-0.0001,-0.0031,9.8066,-0.0472,0.1253,-0.0623,-1.37,-36.06,29.44,168.88,-87.47,-9.74
35547,52.96028,-1.269413,167.95,23.26,4,214.45,21 / 21,5027314,2019-11-06 17:30:07:776,0.7685,-1.2043,9.6598,-0.0168,-0.0022,9.8065,0.0288,0.1059,-0.066,-1.62,-36.75,29.0,166.73,-87.37,-10.08
35548,52.96028,-1.269413,167.95,23.26,4,214.45,21 / 21,5027413,2019-11-06 17:30:07:875,-0.3987,0.3317,10.6114,-0.019,-0.0024,9.8066,-0.0055,0.0264,-0.0703,-1.81,-36.5,29.06,167.56,-87.31,-9.2
35549,52.96028,-1.269413,167.95,23.26,4,214.45,21 / 21,5027514,2019-11-06 17:30:07:976,-0.3122,0.5095,9.4695,0.0081,0.0051,9.8066,-0.0136,0.0736,0.0332,-1.56,-36.31,29.19,164.16,-87.22,-12.82
35550,52.96028,-1.269413,167.95,23.26,4,214.45,21 / 21,5027613,2019-11-06 17:30:08:075,-0.8451,-0.9313,9.4188,-0.0168,0.017,9.8066,0.0109,0.1025,-0.0532,-1.69,-36.19,28.44,163.31,-87.1,-13.65
35551,52.96028,-1.269413,167.95,23.26,4,214.45,21 / 21,5027713,2019-11-06 17:30:08:175,0.7685,1.4985,9.3538,0.0025,0.0014,9.8065,-0.0191,0.1029,-0.1549,-1.75,-36.5,28.88,166.12,-86.9,-10.84
35552,52.96028,-1.269413,167.95,23.26,4,214.45,21 / 21,5027814,2019-11-06 17:30:08:276,-0.7986,0.5893,10.5359,0.0105,-0.0122,9.8066,0.0474,-0.0332,-0.0152,-1.87,-36.31,28.25,168.54,-86.85,-8.16
35553,52.95864,-1.271169,166.65,24.2,4,211.45,21 / 21,5027914,2019-11-06 17:30:08:376,-0.1441,-1.9915,10.9132,0.0158,-0.0014,9.8065,0.0343,-0.0151,0.0251,-1.62,-35.69,28.88,168.17,-86.91,-8.65
35554,52.95864,-1.271169,166.65,24.2,4,211.45,21 / 21,5028017,2019-11-06 17:30:08:479,-1.1402,-1.693,11.5753,0.0272,-0.0093,9.8065,0.1765,-0.1058,0.0176,-1.81,-35.5,29.31,173.12,-87.14,-3.34
35555,52.95864,-1.271169,166.65,24.2,4,211.45,21 / 21,5028114,2019-11-06 17:30:08:576,0.4225,0.1999,9.6013,-0.0102,0.0061,9.8066,0.1125,-0.1156,0.0055,-2.69,-35.19,30.19,166.76,-87.43,-8.2
35556,52.95864,-1.271169,166.65,24.2,4,211.45,21 / 21,5028214,2019-11-06 17:30:08:676,0.6163,-0.421,9.2966,-0.0059,0.0161,9.8066,0.0082,0.054,0.0382,-3.81,-33.87,30.69,162.74,-87.45,-10.71
35557,52.95864,-1.271169,166.65,24.2,4,211.45,21 / 21,5028314,2019-11-06 17:30:08:776,-0.0784,-1.796,8.4988,-0.0031,0.0478,9.8065,-0.0019,0.0687,-0.0059,-5.62,-30.37,32.13,154.8,-87.47,-15.55
35558,52.95864,-1.271169,166.65,24.2,4,211.45,21 / 21,5028413,2019-11-06 17:30:08:875,-0.2544,0.729,8.1896,-0.0028,-0.0074,9.8066,-0.1763,0.0083,0.0393,-7.87,-24.37,24.5,150.36,-87.19,-13.13
35559,52.95864,-1.271169,166.65,24.2,4,211.45,21 / 21,5028514,2019-11-06 17:30:08:976,-0.1965,-1.0279,10.5702,0.0243,-0.0026,9.8065,0.0398,0.0935,-0.0502,-7.94,-31.0,19.63,149.31,-87.03,-11.04
35560,52.95864,-1.271169,166.65,24.2,4,211.45,21 / 21,5028614,2019-11-06 17:30:09:076,2.1335,-0.8484,10.4409,0.0159,-0.0305,9.8065,-0.0065,0.1665,-0.0999,-7.25,-35.94,23.06,156.45,-87.39,-8.16
35561,52.95864,-1.271169,166.65,24.2,4,211.45,21 / 21,5028713,2019-11-06 17:30:09:175,-0.4632,-0.2142,10.0251,0.0057,0.0034,9.8066,-0.0198,0.0479,-0.0781,-8.94,-33.87,25.94,157.72,-87.46,-4.35
35562,52.95864,-1.271169,166.65,24.2,4,211.45,21 / 21,5028814,2019-11-06 17:30:09:276,0.3562,-1.9598,10.0213,-0.0168,0.0071,9.8066,0.008,0.0206,0.0355,-8.56,-35.87,27.06,158.41,-87.4,-4.35
35563,52.95864,-1.271169,166.65,24.2,4,211.45,22 / 22,5028914,2019-11-06 17:30:09:376,0.7111,-0.7783,9.1465,0.0039,0.017,9.8066,0.0359,-0.0353,-0.0689,-6.81,-35.0,26.75,158.59,-87.42,-8.04
35564,52.95864,-1.271169,166.65,24.2,4,211.45,22 / 22,5029013,2019-11-06 17:30:09:475,0.6992,-2.0924,10.3245,0.0054,-0.0201,9.8066,-0.0391,0.0868,-0.0664,-3.87,-41.5,25.81,165.83,-87.64,-6.31
35565,52.95864,-1.271169,166.65,24.2,4,211.45,22 / 22,5029114,2019-11-06 17:30:09:576,-0.0397,1.2484,10.5622,0.0071,-0.0159,9.8066,0.0608,0.098,-0.0568,-1.56,-41.62,35.0,174.92,-87.86,-2.04
35566,52.95864,-1.271169,166.65,24.2,4,211.45,22 / 22,5029214,2019-11-06 17:30:09:676,1.2911,-1.4007,9.479,-0.0156,-0.0201,9.8065,-0.1144,0.1136,-0.0476,-2.0,-36.44,34.69,175.78,-88.31,-1.07
35567,52.95864,-1.271169,166.65,24.2,4,211.45,22 / 22,5029314,2019-11-06 17:30:09:776,-0.2646,-0.747,9.1794,-0.0006,0.0079,9.8066,-0.1478,0.1481,0.0293,-1.81,-35.62,32.19,174.21,-87.94,-2.44
35568,52.95864,-1.271169,166.65,24.2,4,211.45,22 / 22,5029414,2019-11-06 17:30:09:876,1.6696,0.0791,9.9244,-0.0114,0.0125,9.8066,0.0062,0.1013,-0.074,-2.19,-35.37,30.81,173.09,-87.68,-3.52
35569,52.95864,-1.271169,166.65,24.2,4,211.45,22 / 22,5029514,2019-11-06 17:30:09:976,0.1635,-0.0746,9.1322,-0.0186,0.0153,9.8066,0.0675,0.0926,-0.0406,-1.62,-35.37,30.81,176.22,-87.77,-0.25
35570,52.95864,-1.271169,166.65,24.2,4,211.45,22 / 22,5029614,2019-11-06 17:30:10:076,1.6316,-1.0477,10.174,-0.0163,0.0108,9.8065,0.0381,0.1836,-0.0718,-1.5,-35.06,30.63,174.32,-87.78,-4.08
35571,52.95864,-1.271169,166.65,24.2,4,211.45,22 / 22,5029714,2019-11-06 17:30:10:176,0.8501,-1.1492,10.1953,-0.0287,-0.0092,9.8066,-0.0701,0.1232,-0.0398,-1.75,-35.31,30.06,168.52,-87.86,-8.16
35572,52.95864,-1.271169,166.65,24.2,4,211.45,22 / 22,5029814,2019-11-06 17:30:10:276,1.6095,-0.5655,9.8724,0.0066,-0.018,9.8065,-0.0605,0.1887,-0.0078,-1.5,-36.19,30.25,171.51,-87.97,-6.93
35573,52.95864,-1.271169,166.65,24.2,4,211.45,21 / 23,5029914,2019-11-06 17:30:10:376,-0.3112,-0.6831,8.6766,-0.0074,0.023,9.8065,-0.0001,0.0156,-0.0842,-1.37,-35.56,30.19,171.43,-88.08,-7.0
35574,52.95864,-1.271169,166.65,24.2,4,211.45,21 / 23,5030013,2019-11-06 17:30:10:475,0.3498,-1.1564,8.8109,-0.0069,-0.0143,9.8066,-0.018,-0.0128,-0.0709,-1.12,-35.25,30.19,174.18,-87.96,-4.15
35575,52.95864,-1.271169,166.65,24.2,4,211.45,21 / 23,5030113,2019-11-06 17:30:10:575,-0.2439,0.4703,9.7139,0.0174,-0.0252,9.8065,-0.0667,-0.0138,0.0613,-1.25,-35.81,29.75,176.05,-87.94,-2.21
35576,52.95864,-1.271169,166.65,24.2,4,211.45,21 / 23,5030213,2019-11-06 17:30:10:675,1.2414,-0.7681,10.896,-0.0116,0.0077,9.8066,0.0222,0.0609,0.0865,-1.19,-35.81,29.69,176.2,-88.11,-2.04
35577,52.95864,-1.271169,166.65,24.2,4,211.45,21 / 23,5030314,2019-11-06 17:30:10:776,-0.7219,-1.3074,9.8941,-0.0185,0.0,9.8065,-0.05,-0.0208,-0.0455,-1.87,-35.81,29.88,172.26,-88.14,-4.22
35578,52.95864,-1.271169,166.65,24.2,4,211.45,21 / 23,5030414,2019-11-06 17:30:10:876,1.7005,-0.1021,10.4697,-0.0201,0.0209,9.8066,-0.0474,-0.0526,0.066,-1.5,-35.94,29.88,173.56,-88.06,-4.79
35579,52.95864,-1.271169,166.65,24.2,4,211.45,21 / 23,5030513,2019-11-06 17:30:10:975,-1.889,0.844,9.8876,-0.0117,0.0206,9.8066,0.1094,-0.061,0.0084,-1.44,-35.5,29.38,173.81,-88.19,-4.45
35580,52.95864,-1.271169,166.65,24.2,4,211.45,21 / 23,5030613,2019-11-06 17:30:11:075,-0.4171,-2.8026,10.4135,-0.0265,-0.0117,9.8065,0.1086,-0.1971,-0.0305,-1.31,-36.12,29.19,172.65,-88.31,-5.64
35581,52.95864,-1.271169,166.65,24.2,4,211.45,21 / 23,5030714,2019-11-06 17:30:11:176,-1.2527,-0.9642,9.8774,0.0119,0.021,9.8066,0.0871,-0.1533,0.0931,-1.44,-35.69,30.0,171.44,-88.42,-6.93
35582,52.95864,-1.271169,166.65,24.2,4,211.45,21 / 23,5030814,2019-11-06 17:30:11:276,0.3257,0.2605,9.5033,-0.0116,0.0055,9.8066,-0.0074,-0.0493,0.0751,-1.12,-36.06,28.88,171.63,-88.32,-6.7
35583,52.95864,-1.271169,166.65,24.2,4,211.45,21 / 21,5030913,2019-11-06 17:30:11:375,0.3521,-0.6549,10.162,-0.0016,0.0007,9.8066,0.0476,-0.172,0.0103,-1.19,-36.25,29.88,174.54,-88.34,-3.73
35584,52.95864,-1.271169,166.65,24.2,4,211.45,21 / 21,5031014,2019-11-06 17:30:11:476,1.9261,0.8355,9.3913,-0.0041,-0.021,9.8066,0.0559,-0.2194,0.0768,-1.56,-36.19,29.44,170.4,-88.41,-5.98
35585,52.95864,-1.271169,166.65,24.2,4,211.45,21 / 21,5031113,2019-11-06 17:30:11:575,-0.9077,-0.4808,10.6468,0.0147,-0.0058,9.8066,0.0476,-0.2466,0.1642,-1.94,-36.62,29.56,166.35,-88.31,-10.32
35586,52.95864,-1.271169,166.65,24.2,4,211.45,21 / 21,5031213,2019-11-06 17:30:11:675,-1.0169,-0.9137,9.4555,-0.0155,-0.0112,9.8066,-0.0113,-0.1814,0.1036,-1.5,-36.12,29.44,166.37,-88.32,-12.14
35587,52.95864,-1.271169,166.65,24.2,4,211.45,21 / 21,5031315,2019-11-06 17:30:11:777,-1.0665,-1.079,9.3406,0.0104,-0.0059,9.8066,-0.012,-0.1152,0.0488,-1.81,-36.44,29.44,165.42,-88.29,-11.16
35588,52.95864,-1.271169,166.65,24.2,4,211.45,21 / 21,5031414,2019-11-06 17:30:11:876,0.2348,0.1471,10.4057,-0.0054,0.0039,9.8066,-0.0469,-0.065,0.0653,-1.44,-36.37,29.38,169.68,-88.4,-8.7
35589,52.95864,-1.271169,166.65,24.2,4,211.45,21 / 21,5031514,2019-11-06 17:30:11:976,-0.7737,-0.8378,9.4727,-0.0204,0.0084,9.8066,0.0911,0.0107,-0.0655,-0.87,-36.62,29.25,171.95,-88.53,-6.34
35590,52.95864,-1.271169,166.65,24.2,4,211.45,21 / 21,5031613,2019-11-06 17:30:12:075,0.5098,0.0694,8.8549,0.0066,-0.0123,9.8066,0.0654,-0.0885,-0.079,-1.12,-36.62,29.06,175.75,-88.54,-2.41
35591,52.95864,-1.271169,166.65,24.2,4,211.45,21 / 21,5031713,2019-11-06 17:30:12:175,-0.3986,1.027,10.1211,0.015,-0.0165,9.8066,0.0175,-0.1295,0.0245,-1.56,-36.94,29.19,169.28,-88.32,-7.17
35592,52.95864,-1.271169,166.65,24.2,4,211.45,21 / 21,5031814,2019-11-06 17:30:12:276,0.2517,-1.5667,10.881,-0.0048,-0.0005,9.8066,-0.0698,-0.047,0.0513,-1.81,-36.37,29.13,169.32,-88.47,-7.08
35593,52.95864,-1.271169,166.65,24.2,4,211.45,21 / 21,5031914,2019-11-06 17:30:12:376,-0.3092,1.6853,9.2293,-0.0149,0.0189,9.8065,-0.0649,-0.0532,0.0908,-1.44,-36.31,29.5,173.7,-88.5,-4.59
35594,52.95864,-1.271169,166.65,24.2,4,211.45,21 / 21,5032013,2019-11-06 17:30:12:475,0.2903,-0.524,9.0998,-0.0123,0.0075,9.8066,0.0266,-0.0367,0.0175,-1.37,-36.06,29.19,174.09,-88.52,-4.12
35595,52.95864,-1.271169,166.65,24.2,4,211.45,21 / 21,5032114,2019-11-06 17:30:12:576,-0.9541,-0.1659,9.8165,0.0078,0.0024,9.8066,0.0308,-0.0926,-0.0267,-1.56,-36.87,29.0,168.26,-88.49,-8.18
35596,52.95864,-1.271169,166.65,24.2,4,211.45,21 / 21,5032214,2019-11-06 17:30:12:676,-1.3477,-0.0048,10.1262,0.0057,-0.0269,9.8065,0.034,-0.0162,-0.0071,-0.5,-36.75,29.31,174.98,-88.61,-5.17
35597,52.95864,-1.271169,166.65,24.2,4,211.45,21 / 21,5032313,2019-11-06 17:30:12:775,-0.4804,0.1711,9.7212,0.0147,-0.0027,9.8066,0.0153,0.0059,0.0223,-1.37,-36.81,29.06,180.54,-88.69,2.53
35598,52.95864,-1.271169,166.65,24.2,4,211.45,21 / 21,5032414,2019-11-06 17:30:12:876,-0.2608,-0.4182,10.546,-0.0013,0.0202,9.8066,-0.0818,0.0255,-0.0052,-1.19,-36.56,29.81,182.35,-88.6,4.33
35599,52.95864,-1.271169,166.65,24.2,4,211.45,21 / 21,5032514,2019-11-06 17:30:12:976,-0.2404,-1.0569,10.0094,-0.0049,-0.0012,9.8066,-0.0077,0.0319,0.0635,-1.12,-36.5,29.5,176.96,-88.66,-1.22
35600,52.95864,-1.271169,166.65,24.2,4,211.45,21 / 21,5032614,2019-11-06 17:30:13:076,-0.1811,-0.2371,9.3178,-0.0069,-0.0054,9.8066,-0.0552,-0.026,0.0472,-1.69,-36.12,28.94,175.07,-88.77,-1.11
35601,52.95864,-1.271169,166.65,24.2,4,211.45,21 / 21,5032714,2019-11-06 17:30:13:176,0.4631,0.3882,10.9833,-0.0035,0.0044,9.8066,0.0329,0.0654,-0.0147,-1.75,-36.56,29.44,173.04,-88.92,-3.18
35602,52.95864,-1.271169,166.65,24.2,4,211.45,21 / 21,5032814,2019-11-06 17:30:13:276,-1.0106,-0.0524,9.5867,0.0253,-0.0194,9.8065,0.0218,0.0868,-0.1153,-1.31,-36.25,30.25,175.69,-89.01,-2.49
35603,52.95864,-1.271169,166.65,24.2,4,211.45,21 / 22,5032917,2019-11-06 17:30:13:379,0.1173,-0.59,9.1438,0.0132,0.0098,9.8066,-0.0532,0.0702,-0.0552,-1.31,-36.37,29.38,171.1,-88.92,-7.13
35604,52.95864,-1.271169,166.65,24.2,4,211.45,21 / 22,5033014,2019-11-06 17:30:13:476,-0.2519,0.2686,9.2489,-0.0025,0.0169,9.8066,-0.0054,-0.031,0.1152,-1.75,-36.62,29.44,174.23,-88.82,-1.98
35605,52.95864,-1.271169,166.65,24.2,4,211.45,21 / 22,5033114,2019-11-06 17:30:13:576,-0.0915,-0.5142,10.2102,-0.0045,-0.0079,9.8066,0.057,-0.0311,-0.0047,-1.25,-36.75,28.88,180.65,-88.87,2.65
35606,52.95864,-1.271169,166.65,24.2,4,211.45,21 / 22,5033213,2019-11-06 17:30:13:675,1.9871,-0.2876,10.2811,0.002,0.0004,9.8066,-0.0407,0.1079,-0.1832,-1.56,-36.31,29.5,176.9,-88.85,0.64
35607,52.95864,-1.271169,166.65,24.2,4,211.45,21 / 22,5033313,2019-11-06 17:30:13:775,-1.2472,-0.3807,9.1995,-0.0073,0.0289,9.8066,-0.092,0.0387,0.0207,-1.31,-36.69,29.19,181.03,-88.95,3.03
35608,52.95864,-1.271169,166.65,24.2,4,211.45,21 / 22,5033414,2019-11-06 17:30:13:876,0.3245,-1.0842,10.4645,-0.0327,-0.0028,9.8066,-0.1258,0.0334,0.1394,-1.44,-37.12,29.44,177.94,-88.96,-0.13
35609,52.95864,-1.271169,166.65,24.2,4,211.45,21 / 22,5033514,2019-11-06 17:30:13:976,0.652,-0.4996,9.5499,-0.0165,-0.0123,9.8066,0.0213,-0.069,0.0815,-1.69,-37.12,29.06,173.95,-88.9,-2.26
35610,52.95864,-1.271169,166.65,24.2,4,211.45,21 / 22,5033614,2019-11-06 17:30:14:076,0.8013,-0.5801,9.9983,0.0114,-0.0076,9.8066,0.1104,0.0141,-0.1607,-2.06,-36.37,29.44,166.3,-88.84,-10.09
35611,52.95864,-1.271169,166.65,24.2,4,211.45,21 / 22,5033714,2019-11-06 17:30:14:176,0.6347,0.6029,9.4284,0.0165,0.005,9.8066,-0.0035,0.0999,-0.1323,-1.19,-36.31,28.94,173.91,-88.86,-4.26
35612,52.95864,-1.271169,166.65,24.2,4,211.45,21 / 22,5033814,2019-11-06 17:30:14:276,-0.8038,-0.6908,9.2424,0.0112,0.0001,9.8066,-0.1326,0.1121,0.0933,-1.5,-36.75,29.31,186.46,-89.03,8.58
35613,52.95864,-1.271169,166.65,24.2,4,211.45,21 / 21,5033915,2019-11-06 17:30:14:377,0.8248,-1.7739,9.7097,0.0201,-0.0106,9.8066,0.0246,0.0662,0.0048,-1.44,-36.25,29.19,192.79,-89.05,15.02
35614,52.95864,-1.271169,166.65,24.2,4,211.45,21 / 21,5034014,2019-11-06 17:30:14:476,-0.8059,-0.4868,9.5628,0.0137,0.0093,9.8066,0.0648,0.0388,-0.0585,-1.81,-36.19,29.38,190.71,-88.93,14.9
35615,52.95864,-1.271169,166.65,24.2,4,211.45,21 / 21,5034114,2019-11-06 17:30:14:576,-0.1648,1.2002,10.4329,-0.0044,-0.0007,9.8066,0.0724,-0.1098,0.0505,-1.62,-36.31,28.81,184.26,-88.79,8.32
35616,52.95864,-1.271169,166.65,24.2,4,211.45,21 / 21,5034214,2019-11-06 17:30:14:676,0.1473,0.0583,9.4453,0.0102,0.0047,9.8066,-0.051,0.0577,-0.0127,-1.37,-36.31,29.5,184.61,-88.7,6.65
35617,52.95864,-1.271169,166.65,24.2,4,211.45,21 / 21,5034313,2019-11-06 17:30:14:775,1.5882,-0.718,9.5515,0.0202,0.0105,9.8065,-0.0212,0.0793,0.0015,-1.75,-36.44,29.38,186.64,-88.72,10.76
35618,52.95864,-1.271169,166.65,24.2,4,211.45,21 / 21,5034413,2019-11-06 17:30:14:875,0.6446,-0.0149,9.5186,0.0084,0.0237,9.8066,-0.0238,-0.1188,0.0295,-1.75,-36.44,29.75,185.24,-88.6,9.2
35619,52.95864,-1.271169,166.65,24.2,4,211.45,21 / 21,5034513,2019-11-06 17:30:14:975,1.6614,0.2208,9.9262,-0.0184,0.0292,9.8066,-0.0907,-0.107,0.1194,-1.19,-36.0,29.38,186.27,-88.46,8.45
35620,52.95864,-1.271169,166.65,24.2,4,211.45,21 / 21,5034613,2019-11-06 17:30:15:075,0.5484,0.1993,8.7877,0.005,-0.0243,9.8066,-0.0704,-0.0529,0.078,-1.44,-36.81,28.88,180.13,-88.37,2.11
35621,52.95864,-1.271169,166.65,24.2,4,211.45,21 / 21,5034713,2019-11-06 17:30:15:175,-0.8328,-0.7693,10.719,-0.0206,-0.0253,9.8066,-0.0125,-0.0677,0.0496,-2.31,-36.0,29.69,175.57,-88.37,-0.76
35622,52.95864,-1.271169,166.65,24.2,4,211.45,21 / 21,5034813,2019-11-06 17:30:15:275,-0.0755,-0.2659,10.2051,0.0033,-0.0059,9.8066,0.0144,-0.0255,0.0153,-2.31,-37.19,28.69,171.05,-88.51,-5.3
35623,52.95864,-1.271169,166.65,24.2,4,211.45,22 / 22,5034913,2019-11-06 17:30:15:375,1.7643,-0.7691,9.4891,-0.0001,-0.0006,9.8066,-0.0066,-0.1358,0.0196,-2.06,-36.06,29.44,170.39,-88.65,-5.94
35624,52.95864,-1.271169,166.65,24.2,4,211.45,22 / 22,5035014,2019-11-06 17:30:15:476,-0.2617,1.3827,9.7405,0.0256,-0.0096,9.8066,-0.0137,-0.036,0.0575,-2.06,-36.31,29.63,176.58,-88.68,0.3
35625,52.95864,-1.271169,166.65,24.2,4,211.45,22 / 22,5035114,2019-11-06 17:30:15:576,-2.2091,0.927,9.5445,-0.0233,-0.0033,9.8065,0.0425,-0.0165,-0.054,-1.75,-36.44,29.75,180.46,-88.63,4.29
35626,52.95864,-1.271169,166.65,24.2,4,211.45,22 / 22,5035214,2019-11-06 17:30:15:676,0.3025,1.9874,9.3561,-0.0098,-0.0135,9.8066,-0.0469,0.1305,-0.0598,-1.31,-36.31,29.38,184.58,-88.69,6.68
35627,52.95864,-1.271169,166.65,24.2,4,211.45,22 / 22,5035313,2019-11-06 17:30:15:775,0.2191,-0.2955,9.913,-0.0108,0.0092,9.8066,-0.0318,0.0239,0.0339,-1.25,-35.94,29.75,189.04,-88.68,11.2
35628,52.95864,-1.271169,166.65,24.2,4,211.45,22 / 22,5035413,2019-11-06 17:30:15:875,0.6267,2.5882,9.8408,0.0106,0.0003,9.8066,-0.0587,-0.0009,0.0436,-1.31,-36.44,29.63,188.34,-88.58,10.49
35629,52.95864,-1.271169,166.65,24.2,4,211.45,22 / 22,5035513,2019-11-06 17:30:15:975,-0.5537,1.5791,9.5598,-0.023,0.0078,9.8066,0.0295,0.1685,-0.1098,-1.56,-35.94,29.25,183.0,-88.55,7.04
35630,52.95864,-1.271169,166.65,24.2,4,211.45,22 / 22,5035614,2019-11-06 17:30:16:076,1.5674,0.1545,9.2915,-0.0329,0.0153,9.8065,-0.0323,0.185,-0.0959,-2.06,-35.94,28.69,176.0,-88.33,-0.2
35631,52.95864,-1.271169,166.65,24.2,4,211.45,22 / 22,5035714,2019-11-06 17:30:16:176,0.09,1.7243,9.6262,-0.0023,0.0141,9.8066,-0.0342,0.0739,-0.0116,-1.75,-35.94,29.56,176.79,-88.2,0.48
35632,52.95864,-1.271169,166.65,24.2,4,211.45,22 / 22,5035814,2019-11-06 17:30:16:276,-0.0559,1.6543,10.5113,-0.0045,-0.0131,9.8066,-0.034,0.0274,-0.0105,-2.0,-36.0,29.5,176.25,-88.2,-0.07
35633,52.95864,-1.271169,166.65,24.2,4,211.45,21 / 22,5035914,2019-11-06 17:30:16:376,-0.5458,-0.3594,10.3999,-0.0079,-0.0138,9.8065,-0.1032,0.1139,0.0236,-1.81,-35.87,29.19,176.87,-88.16,0.69
35634,52.95864,-1.271169,166.65,24.2,4,211.45,21 / 22,5036014,2019-11-06 17:30:16:476,-0.3381,1.1567,9.3294,-0.011,-0.0101,9.8066,-0.052,0.0396,0.0238,-1.75,-35.06,29.13,173.28,-88.24,-3.02
35635,52.95864,-1.271169,166.65,24.2,4,211.45,21 / 22,5036113,2019-11-06 17:30:16:575,-0.8225,1.3045,9.0757,0.0254,-0.0071,9.8066,0.0113,-0.0871,0.0302,-2.0,-35.87,29.19,170.26,-88.13,-6.19
35636,52.95864,-1.271169,166.65,24.2,4,211.45,21 / 22,5036214,2019-11-06 17:30:16:676,0.5964,1.2816,10.1058,-0.0196,0.0053,9.8066,0.0514,-0.0449,-0.0167,-1.69,-36.06,28.94,170.02,-88.18,-6.42
35637,52.95864,-1.271169,166.65,24.2,4,211.45,21 / 22,5036314,2019-11-06 17:30:16:776,-0.0174,-0.5254,9.7675,-0.0016,-0.0107,9.8066,0.0106,0.0455,-0.0335,-2.12,-35.94,28.75,169.98,-88.34,-6.43
35638,52.95864,-1.271169,166.65,24.2,4,211.45,21 / 22,5036414,2019-11-06 17:30:16:876,0.347,0.8217,10.1626,-0.0121,-0.0083,9.8066,0.0219,0.0329,-0.0331,-1.69,-35.81,29.13,170.0,-88.45,-6.39
35639,52.95864,-1.271169,166.65,24.2,4,211.45,21 / 22,5036514,2019-11-06 17:30:16:976,0.2165,-1.1395,9.6007,-0.0118,0.0169,9.8066,-0.0007,0.1052,-0.0892,-2.06,-35.69,29.38,173.75,-88.45,-2.51
35640,52.95864,-1.271169,166.65,24.2,4,211.45,21 / 22,5036614,2019-11-06 17:30:17:076,1.4739,0.7744,10.1532,-0.0022,0.011,9.8066,0.0421,0.156,-0.0996,-2.25,-36.0,29.13,174.3,-88.2,-1.97
35641,52.95864,-1.271169,166.65,24.2,4,211.45,21 / 22,5036714,2019-11-06 17:30:17:176,0.9826,-0.1838,10.3349,-0.0151,-0.0029,9.8066,-0.0138,0.18,-0.1,-2.12,-35.75,29.31,175.09,-88.16,-1.16
35642,52.95864,-1.271169,166.65,24.2,4,211.45,21 / 22,5036813,2019-11-06 17:30:17:275,-0.0951,1.3628,9.3507,0.0003,-0.0138,9.8066,-0.0333,0.1412,-0.0919,-2.06,-36.06,29.31,175.47,-88.24,-0.76
35643,52.95696,-1.272759,165.45,21.81,4,207.59,20 / 21,5036914,2019-11-06 17:30:17:376,-1.5156,0.3723,9.9735,-0.0219,0.0108,9.8066,-0.0666,0.1783,-0.0852,-1.94,-36.81,29.94,172.47,-88.05,-4.03
35644,52.95696,-1.272759,165.45,21.81,4,207.59,20 / 21,5037013,2019-11-06 17:30:17:475,0.39,0.2502,9.6001,0.0013,-0.0003,9.8066,-0.0089,0.0696,-0.059,-2.19,-35.75,29.25,173.31,-87.9,-3.05
35645,52.95696,-1.272759,165.45,21.81,4,207.59,20 / 21,5037113,2019-11-06 17:30:17:575,-0.0559,-0.2075,10.0401,0.0024,-0.0175,9.8066,0.0303,0.0332,-0.0034,-1.94,-36.31,29.5,173.87,-87.84,-2.59
35646,52.95696,-1.272759,165.45,21.81,4,207.59,20 / 21,5037214,2019-11-06 17:30:17:676,-0.1718,-0.471,10.1898,0.0086,-0.0213,9.8066,-0.036,0.063,-0.0417,-2.31,-36.44,28.81,175.43,-88.06,-0.81
35647,52.95696,-1.272759,165.45,21.81,4,207.59,20 / 21,5037314,2019-11-06 17:30:17:776,0.4006,-0.0095,9.5938,0.024,-0.0064,9.8066,-0.1097,-0.0996,0.1075,-2.37,-36.62,29.38,175.44,-88.02,-0.81
35648,52.95696,-1.272759,165.45,21.81,4,207.59,20 / 21,5037414,2019-11-06 17:30:17:876,-0.652,1.4287,9.4766,-0.0025,0.0208,9.8066,-0.1565,-0.0396,0.1436,-1.69,-37.06,28.69,176.41,-87.87,0.19
35649,52.95696,-1.272759,165.45,21.81,4,207.59,20 / 21,5037514,2019-11-06 17:30:17:976,1.1133,0.1313,9.185,-0.001,-0.032,9.8065,-0.1307,0.1174,-0.019,-2.0,-37.37,29.63,178.22,-88.2,1.97
35650,52.95696,-1.272759,165.45,21.81,4,207.59,20 / 21,5037614,2019-11-06 17:30:18:076,0.3768,-0.1202,10.2278,-0.0103,0.0077,9.8066,0.0206,0.0967,-0.0421,-2.19,-36.94,29.13,180.04,-88.31,3.99
35651,52.95696,-1.272759,165.45,21.81,4,207.59,20 / 21,5037714,2019-11-06 17:30:18:176,-0.557,0.7413,9.4051,-0.019,0.0241,9.8066,0.0316,0.128,-0.1184,-1.5,-36.5,29.44,183.83,-88.31,5.95
35652,52.95696,-1.272759,165.45,21.81,4,207.59,20 / 21,5037813,2019-11-06 17:30:18:275,-1.4493,0.3416,9.7743,0.0195,0.0048,9.8065,-0.0095,0.1993,-0.1006,-2.06,-37.0,28.81,181.43,-88.16,5.43
35653,52.95696,-1.272759,165.45,21.81,4,207.59,20 / 20,5037913,2019-11-06 17:30:18:375,-0.0821,0.0417,9.1454,-0.0107,0.0164,9.8066,-0.0389,0.0685,-0.0285,-2.62,-36.19,29.13,179.67,-88.07,5.57
35654,52.95696,-1.272759,165.45,21.81,4,207.59,20 / 20,5038014,2019-11-06 17:30:18:476,-0.5367,0.2512,10.3596,0.0008,0.0211,9.8065,-0.0475,0.0706,-0.0169,-2.12,-36.31,28.75,180.87,-87.81,4.85
35655,52.95696,-1.272759,165.45,21.81,4,207.59,20 / 20,5038114,2019-11-06 17:30:18:576,0.0252,0.4549,10.4198,-0.0086,0.0017,9.8066,0.0407,0.0495,-0.0548,-2.06,-36.37,29.44,181.18,-87.91,5.18
35656,52.95696,-1.272759,165.45,21.81,4,207.59,20 / 20,5038214,2019-11-06 17:30:18:676,0.0432,0.2067,10.0585,-0.0007,-0.0136,9.8066,0.0929,0.005,-0.024,-1.81,-36.81,29.56,181.93,-88.0,5.82
35657,52.95696,-1.272759,165.45,21.81,4,207.59,20 / 20,5038314,2019-11-06 17:30:18:776,0.4616,-0.1932,9.4985,-0.0034,-0.0195,9.8065,0.0423,0.0319,-0.0461,-2.0,-36.37,29.38,179.4,-87.89,3.32
35658,52.95696,-1.272759,165.45,21.81,4,207.59,20 / 20,5038414,2019-11-06 17:30:18:876,-0.0907,0.4421,9.1563,0.0076,-0.0014,9.8066,-0.0305,0.0471,-0.0386,-2.44,-36.75,29.13,177.45,-87.93,1.28
35659,52.95696,-1.272759,165.45,21.81,4,207.59,20 / 20,5038514,2019-11-06 17:30:18:976,-0.2126,-0.4848,9.8942,0.0014,-0.0114,9.8066,0.0435,-0.0197,0.0107,-2.0,-36.69,29.44,175.75,-87.83,-0.51
35660,52.95696,-1.272759,165.45,21.81,4,207.59,20 / 20,5038613,2019-11-06 17:30:19:075,-0.1979,-0.2004,9.7432,0.0135,-0.0061,9.8065,0.0278,-0.0597,-0.0459,-1.69,-37.06,29.0,177.65,-87.94,1.49
35661,52.95696,-1.272759,165.45,21.81,4,207.59,20 / 20,5038713,2019-11-06 17:30:19:175,-0.7248,0.4684,10.4888,0.0088,-0.0182,9.8065,0.0733,-0.0251,-0.0247,-1.69,-37.56,29.0,179.34,-88.07,3.26
35662,52.95696,-1.272759,165.45,21.81,4,207.59,20 / 20,5038813,2019-11-06 17:30:19:275,-0.8734,0.0542,8.9847,0.0003,-0.0115,9.8066,-0.0468,-0.0548,-0.0163,-1.81,-36.94,29.25,180.1,-88.02,4.05
35663,52.95696,-1.272759,165.45,21.81,4,207.59,20 / 21,5038913,2019-11-06 17:30:19:375,0.0539,0.2049,9.0359,0.005,-0.0159,9.8066,-0.0442,-0.054,0.0629,-2.12,-37.44,29.19,179.46,-87.97,3.38
35664,52.95696,-1.272759,165.45,21.81,4,207.59,20 / 21,5039014,2019-11-06 17:30:19:476,0.8489,-0.1348,10.1998,-0.0262,0.006,9.8066,-0.0277,-0.0874,0.1186,-1.56,-37.5,29.19,179.78,-88.08,3.71
35665,52.95696,-1.272759,165.45,21.81,4,207.59,20 / 21,5039114,2019-11-06 17:30:19:576,-1.1921,0.9474,10.0798,-0.0264,0.0058,9.8066,-0.0019,-0.0492,0.0483,-2.37,-37.62,28.56,177.28,-88.02,1.1
35666,52.95696,-1.272759,165.45,21.81,4,207.59,20 / 21,5039214,2019-11-06 17:30:19:676,-0.8895,0.9801,9.7072,0.0018,-0.0047,9.8066,0.0645,-0.115,0.0183,-1.69,-37.37,29.13,176.46,-88.01,0.25
35667,52.95696,-1.272759,165.45,21.81,4,207.59,20 / 21,5039313,2019-11-06 17:30:19:775,-0.4378,-0.3651,9.926,-0.0025,-0.0104,9.8066,0.0565,-0.0585,0.0147,-1.81,-37.06,28.94,174.31,-87.85,-2.01
35668,52.95696,-1.272759,165.45,21.81,4,207.59,20 / 21,5039414,2019-11-06 17:30:19:876,-0.0802,0.8833,9.7131,0.0034,0.0057,9.8066,0.075,-0.0829,-0.0218,-2.06,-37.0,29.0,174.52,-87.79,-1.8
35669,52.95696,-1.272759,165.45,21.81,4,207.59,20 / 21,5039513,2019-11-06 17:30:19:975,-0.9208,0.3078,9.9431,-0.0077,-0.0083,9.8066,0.0426,-0.0846,0.0532,-2.0,-37.06,29.56,174.81,-87.68,-1.63
35670,52.95696,-1.272759,165.45,21.81,4,207.59,20 / 21,5039613,2019-11-06 17:30:20:075,0.1954,-0.3707,10.0131,-0.0113,0.0053,9.8066,-0.0454,-0.0825,0.0582,-2.06,-36.87,29.25,174.97,-87.71,-1.33
35671,52.95696,-1.272759,165.45,21.81,4,207.59,20 / 21,5039713,2019-11-06 17:30:20:175,-1.8671,-0.3863,9.5622,-0.029,-0.0081,9.8066,-0.035,-0.1863,0.1305,-2.12,-36.69,28.75,174.42,-87.8,-1.9
35672,52.95696,-1.272759,165.45,21.81,4,207.59,20 / 21,5039813,2019-11-06 17:30:20:275,-1.1945,0.1888,9.3345,0.0015,-0.0096,9.8066,0.0208,-0.2147,0.1119,-2.62,-36.69,29.69,175.77,-87.82,1.29
35673,52.95696,-1.272759,165.45,21.81,4,207.59,21 / 21,5039913,2019-11-06 17:30:20:375,-0.0166,0.2785,10.1538,-0.0168,-0.0059,9.8066,-0.0185,-0.1806,0.094,-2.25,-36.94,29.19,178.35,-87.78,2.22
35674,52.95696,-1.272759,165.45,21.81,4,207.59,21 / 21,5040013,2019-11-06 17:30:20:475,0.0316,0.6971,10.3668,0.0096,-0.0034,9.8066,0.0167,-0.2196,0.1545,-2.37,-37.0,28.94,179.51,-87.79,3.43
35675,52.95696,-1.272759,165.45,21.81,4,207.59,21 / 21,5040114,2019-11-06 17:30:20:576,-0.2841,-0.2964,9.4841,-0.0182,0.0004,9.8066,-0.0085,-0.0915,0.1085,-1.37,-36.75,29.06,183.51,-87.96,5.64
35676,52.95696,-1.272759,165.45,21.81,4,207.59,21 / 21,5040214,2019-11-06 17:30:20:676,1.4513,0.2277,9.8163,0.0175,0.0036,9.8066,-0.0597,-0.0881,0.0793,-2.0,-36.19,29.25,180.05,-88.0,4.0
35677,52.95696,-1.272759,165.45,21.81,4,207.59,21 / 21,5040314,2019-11-06 17:30:20:776,-0.1266,-1.0305,10.2378,-0.0118,0.0184,9.8066,-0.0832,-0.0135,0.0371,-2.19,-36.69,29.44,176.09,-87.83,-0.15
35678,52.95696,-1.272759,165.45,21.81,4,207.59,21 / 21,5040414,2019-11-06 17:30:20:876,0.6983,0.3519,9.4523,0.0044,-0.0124,9.8066,-0.0605,-0.0373,0.0241,-1.62,-36.81,28.56,178.42,-87.94,2.3
35679,52.95696,-1.272759,165.45,21.81,4,207.59,21 / 21,5040514,2019-11-06 17:30:20:976,-0.3749,-0.8563,9.1414,-0.0118,0.0101,9.8066,-0.0035,0.0308,0.0091,-1.94,-37.06,29.38,179.99,-87.9,3.93
35680,52.95696,-1.272759,165.45,21.81,4,207.59,21 / 21,5040614,2019-11-06 17:30:21:076,1.7466,0.8165,9.3512,-0.0297,-0.0088,9.8066,-0.0912,0.1934,-0.0694,-2.37,-36.87,28.31,177.12,-87.89,1.06
35681,52.95696,-1.272759,165.45,21.81,4,207.59,21 / 21,5040714,2019-11-06 17:30:21:176,-0.6784,-0.5766,10.9551,0.018,-0.0164,9.8066,-0.0283,0.1981,-0.0672,-1.87,-36.81,28.38,181.71,-87.8,5.88
35682,52.95696,-1.272759,165.45,21.81,4,207.59,21 / 21,5040814,2019-11-06 17:30:21:276,0.5833,-0.8628,9.2956,-0.0202,-0.028,9.8065,-0.0383,0.2175,-0.1464,-2.31,-36.81,29.0,185.0,-88.0,9.16
35683,52.95696,-1.272759,165.45,21.81,4,207.59,21 / 21,5040914,2019-11-06 17:30:21:376,0.2107,-0.2521,9.1726,0.0042,0.0042,9.8066,0.0498,0.142,-0.0933,-2.81,-36.81,29.13,186.7,-87.87,12.91
35684,52.95696,-1.272759,165.45,21.81,4,207.59,21 / 21,5041014,2019-11-06 17:30:21:476,1.495,-0.2107,9.9275,-0.0211,0.008,9.8066,0.0552,0.0926,-0.0474,-2.0,-37.25,29.38,186.53,-87.8,10.79
35685,52.95696,-1.272759,165.45,21.81,4,207.59,21 / 21,5041114,2019-11-06 17:30:21:576,0.271,-0.0248,9.644,-0.0092,0.0064,9.8066,-0.0278,0.1108,-0.0631,-1.69,-37.12,28.94,185.76,-87.75,9.99
35686,52.95696,-1.272759,165.45,21.81,4,207.59,21 / 21,5041213,2019-11-06 17:30:21:675,0.3265,-0.2632,9.6614,-0.0107,0.0063,9.8066,-0.0378,0.0372,0.0231,-2.44,-37.0,29.69,183.45,-87.64,7.43
35687,52.95696,-1.272759,165.45,21.81,4,207.59,21 / 21,5041314,2019-11-06 17:30:21:776,0.2419,0.3675,9.9786,-0.0044,-0.0038,9.8066,-0.0251,0.046,0.0024,-2.25,-36.94,28.94,181.49,-87.68,5.51
35688,52.95696,-1.272759,165.45,21.81,4,207.59,21 / 21,5041414,2019-11-06 17:30:21:876,-0.1634,0.9525,9.8464,0.0074,0.0194,9.8066,0.1016,-0.0866,0.0652,-2.5,-36.62,28.94,181.23,-87.56,5.24
35689,52.95696,-1.272759,165.45,21.81,4,207.59,21 / 21,5041514,2019-11-06 17:30:21:976,0.7444,0.9967,9.5098,0.0053,0.0048,9.8066,0.0683,-0.0909,-0.0038,-2.56,-37.06,29.5,177.54,-87.55,3.13
35690,52.95696,-1.272759,165.45,21.81,4,207.59,21 / 21,5041613,2019-11-06 17:30:22:075,-2.2672,-0.5926,10.8408,0.0239,0.0175,9.8065,0.145,-0.2915,0.1254,-2.19,-36.81,29.69,181.99,-87.45,5.92
35691,52.95696,-1.272759,165.45,21.81,4,207.59,21 / 21,5041714,2019-11-06 17:30:22:176,-0.1292,0.2293,9.63,-0.0023,0.0,9.8065,0.0617,-0.2496,0.1194,-2.81,-36.75,29.44,178.97,-87.51,4.82
35692,52.95696,-1.272759,165.45,21.81,4,207.59,21 / 21,5041813,2019-11-06 17:30:22:275,-2.481,-0.1129,10.3509,0.0186,0.0157,9.8066,0.0327,-0.2653,0.0995,-2.94,-37.25,29.06,179.56,-87.45,5.44
35693,52.95696,-1.272759,165.45,21.81,4,207.59,21 / 21,5041913,2019-11-06 17:30:22:375,0.9513,-1.0461,9.7012,-0.0166,-0.0021,9.8066,0.0327,-0.1904,0.1143,-2.69,-37.06,29.25,178.41,-87.47,4.23
35694,52.95696,-1.272759,165.45,21.81,4,207.59,21 / 21,5042013,2019-11-06 17:30:22:475,-0.0593,0.3798,9.6147,0.0227,0.0073,9.8066,-0.0739,-0.1422,0.0996,-2.87,-37.0,29.25,180.93,-87.38,6.89
35695,52.95696,-1.272759,165.45,21.81,4,207.59,21 / 21,5042114,2019-11-06 17:30:22:576,1.7799,-0.7721,9.4467,0.0129,-0.0149,9.8066,-0.0929,-0.0937,0.0887,-2.56,-37.0,28.81,180.11,-87.35,6.02
35696,52.95696,-1.272759,165.45,21.81,4,207.59,21 / 21,5042214,2019-11-06 17:30:22:676,-0.5617,1.8323,9.4344,0.025,-0.0335,9.8065,-0.0972,-0.045,0.054,-2.06,-37.19,29.19,185.05,-87.56,9.26
35697,52.95696,-1.272759,165.45,21.81,4,207.59,21 / 21,5042313,2019-11-06 17:30:22:775,-2.0452,-1.178,11.1439,-0.0264,-0.0444,9.8064,-0.1432,0.1181,-0.0238,-2.56,-36.56,29.94,182.88,-87.55,8.74
35698,52.95696,-1.272759,165.45,21.81,4,207.59,21 / 21,5042414,2019-11-06 17:30:22:876,-0.9918,0.1538,9.9734,-0.0027,0.0023,9.8066,-0.1574,0.3819,-0.1067,-2.37,-37.19,29.0,180.88,-87.45,4.87
35699,52.95696,-1.272759,165.45,21.81,4,207.59,21 / 21,5042514,2019-11-06 17:30:22:976,-3.0066,0.009,9.6553,-0.0514,-0.0352,9.8064,-0.0253,0.4464,-0.2359,-2.94,-37.06,29.38,174.11,-87.45,-0.31
35700,52.95696,-1.272759,165.45,21.81,4,207.59,21 / 21,5042614,2019-11-06 17:30:23:076,3.5367,0.9166,9.6813,-0.0452,0.0069,9.8065,-0.0422,0.5271,-0.272,-2.62,-37.37,29.19,175.76,-87.33,1.42
35701,52.95696,-1.272759,165.45,21.81,4,207.59,21 / 21,5042713,2019-11-06 17:30:23:175,-1.7932,1.6306,9.5475,-0.0412,-0.0123,9.8065,0.0821,0.4892,-0.1985,-2.37,-36.44,29.13,181.57,-87.24,5.61
35702,52.95696,-1.272759,165.45,21.81,4,207.59,21 / 21,5042813,2019-11-06 17:30:23:275,4.8295,1.2828,11.1927,-0.0685,0.0201,9.8064,-0.0121,0.5219,-0.3135,-3.06,-36.94,30.0,175.0,-87.23,0.42
35703,52.95696,-1.272759,165.45,21.81,4,207.59,21 / 21,5042914,2019-11-06 17:30:23:376,-4.6338,-0.285,9.2886,-0.088,-0.0003,9.8062,0.0939,0.5578,-0.408,-2.44,-37.12,29.38,184.25,-87.45,8.43
35704,52.95696,-1.272759,165.45,21.81,4,207.59,21 / 21,5043014,2019-11-06 17:30:23:476,0.0385,0.3819,8.8002,-0.0452,-0.0228,9.8064,0.016,0.4826,-0.33,-3.31,-37.06,29.56,177.75,-87.65,3.35
35705,52.95696,-1.272759,165.45,21.81,4,207.59,21 / 21,5043114,2019-11-06 17:30:23:576,-3.6716,-1.1565,10.2122,-0.0416,-0.0172,9.8065,-0.0845,0.2679,-0.0702,-3.0,-37.31,30.31,176.22,-87.83,1.76
35706,52.95696,-1.272759,165.45,21.81,4,207.59,21 / 21,5043213,2019-11-06 17:30:23:675,1.9571,0.7432,8.8841,-0.0498,-0.0206,9.8065,-0.1518,0.2745,-0.0834,-3.56,-37.44,29.81,172.84,-87.82,0.11
35707,52.95696,-1.272759,165.45,21.81,4,207.59,21 / 21,5043313,2019-11-06 17:30:23:775,-2.5493,-0.3593,9.6774,-0.0196,-0.0003,9.8066,-0.0125,0.0667,-0.0507,-3.06,-37.81,29.88,177.6,-87.64,3.19
35708,52.95696,-1.272759,165.45,21.81,4,207.59,21 / 21,5043414,2019-11-06 17:30:23:876,1.6073,-0.3741,9.6002,-0.0451,-0.0036,9.8065,0.0061,-0.0287,0.0279,-3.25,-37.87,28.94,173.9,-87.57,-0.52
35709,52.95696,-1.272759,165.45,21.81,4,207.59,21 / 21,5043515,2019-11-06 17:30:23:977,-0.48,-0.438,10.2395,-0.0116,-0.0069,9.8066,0.0261,-0.0961,-0.018,-3.75,-38.31,29.56,175.66,-87.57,3.03
35710,52.95696,-1.272759,165.45,21.81,4,207.59,21 / 21,5043614,2019-11-06 17:30:24:076,0.7503,-0.615,9.9213,-0.005,-0.0216,9.8066,-0.0073,-0.1307,0.0761,-3.5,-37.56,28.63,176.48,-87.77,2.21
35711,52.95696,-1.272759,165.45,21.81,4,207.59,21 / 21,5043713,2019-11-06 17:30:24:175,-0.0401,0.4659,10.2809,0.0231,-0.0034,9.8066,-0.0221,-0.2065,0.0844,-3.0,-36.75,28.31,177.88,-87.87,3.9
35712,52.95696,-1.272759,165.45,21.81,4,207.59,21 / 21,5043813,2019-11-06 17:30:24:275,-2.7537,0.7723,10.3756,0.0102,-0.0036,9.8066,-0.0021,-0.2018,0.0999,-3.25,-37.37,28.19,177.14,-87.88,3.11
35713,52.95696,-1.272759,165.45,21.81,4,207.59,21 / 22,5043913,2019-11-06 17:30:24:375,-0.0572,0.1878,10.1993,0.0156,0.008,9.8066,0.0367,-0.0477,0.05,-2.69,-36.56,28.13,176.05,-87.81,1.97
35714,52.95696,-1.272759,165.45,21.81,4,207.59,21 / 22,5044013,2019-11-06 17:30:24:475,-1.7058,-0.1745,9.7679,0.0082,0.0068,9.8066,0.0377,0.0232,-0.021,-2.5,-37.37,28.38,179.0,-87.82,3.03
35715,52.95696,-1.272759,165.45,21.81,4,207.59,21 / 22,5044114,2019-11-06 17:30:24:576,0.1259,0.1381,9.3839,-0.0012,0.0089,9.8066,0.0051,0.1318,-0.059,-2.44,-36.81,28.81,177.12,-87.72,0.92
35716,52.95696,-1.272759,165.45,21.81,4,207.59,21 / 22,5044214,2019-11-06 17:30:24:676,-1.356,0.8892,9.4797,0.0175,0.0131,9.8065,-0.01,0.0984,-0.0426,-3.5,-36.0,28.94,173.92,-87.54,-0.49
35717,52.95696,-1.272759,165.45,21.81,4,207.59,21 / 22,5044313,2019-11-06 17:30:24:775,0.7554,0.1622,9.9351,0.0123,-0.0065,9.8066,-0.0121,0.1477,-0.0529,-3.0,-36.75,29.56,173.88,-87.48,-0.73
35718,52.95696,-1.272759,165.45,21.81,4,207.59,21 / 22,5044413,2019-11-06 17:30:24:875,-1.4596,-0.0718,9.1669,0.0222,0.0043,9.8066,-0.0221,0.0489,-0.1,-3.19,-37.19,29.0,175.1,-87.43,0.73
35719,52.95696,-1.272759,165.45,21.81,4,207.59,21 / 22,5044513,2019-11-06 17:30:24:975,0.4487,0.4336,10.0518,0.0267,-0.0021,9.8066,-0.0503,0.1343,0.0284,-3.37,-37.31,29.19,172.59,-87.49,-1.91
35720,52.95696,-1.272759,165.45,21.81,4,207.59,21 / 22,5044613,2019-11-06 17:30:25:075,-0.6617,-1.1045,9.1156,0.0028,0.0062,9.8066,0.0414,0.1683,-0.0052,-3.25,-36.69,28.81,173.12,-87.59,-1.33
35721,52.95696,-1.272759,165.45,21.81,4,207.59,21 / 22,5044714,2019-11-06 17:30:25:176,-1.9841,0.3087,9.8324,-0.023,0.0019,9.8066,0.0382,0.1534,-0.1282,-3.19,-37.31,29.63,168.99,-87.31,-5.92
35722,52.95696,-1.272759,165.45,21.81,4,207.59,21 / 22,5044814,2019-11-06 17:30:25:276,-1.839,0.362,9.997,0.0128,-0.025,9.8066,0.0808,0.1227,-0.0699,-2.94,-36.69,28.69,169.84,-87.36,-4.84
35723,52.95696,-1.272759,165.45,21.81,4,207.59,20 / 21,5044914,2019-11-06 17:30:25:376,-1.1712,-2.126,9.7538,-0.0329,-0.0042,9.8065,0.0119,0.0269,0.0131,-3.25,-36.81,29.19,171.11,-87.4,-3.48
35724,52.95696,-1.272759,165.45,21.81,4,207.59,20 / 21,5045014,2019-11-06 17:30:25:476,2.8105,0.5003,9.5437,-0.0272,0.0023,9.8066,0.0049,-0.1245,0.0542,-3.44,-36.75,29.5,169.43,-87.2,-5.48
35725,52.95696,-1.272759,165.45,21.81,4,207.59,20 / 21,5045114,2019-11-06 17:30:25:576,-1.497,0.4016,10.6786,-0.0371,-0.012,9.8065,0.0309,-0.3264,0.1896,-3.25,-37.19,29.19,171.63,-87.23,-2.97
35726,52.95696,-1.272759,165.45,21.81,4,207.59,20 / 21,5045214,2019-11-06 17:30:25:676,3.2637,-2.4194,10.6637,-0.0504,-0.0264,9.8065,0.0781,-0.3241,0.2154,-3.62,-35.75,29.75,163.72,-87.47,-9.51
