,GPS LATITUDE (degrees), GPS LONGITUDE (degrees), GPS ALTITUDE (m), GPS SPEED (Kmh), GPS ACCURACY (m), GPS ORIENTATION (Â°),GPS SATELLITES IN RANGE, TIME SINCE START (ms), DATE (YYYY-MO-DD HH-MI-SS_SSS), ACCELEROMETER X (m/s²) , ACCELEROMETER Y (m/s²), ACCELEROMETER Z (m/s²), GRAVITY X (m/s²), GRAVITY Y (m/s²), GRAVITY Z (m/s²), GYROSCOPE Yaw (rad/s), GYROSCOPE Pitch (rad/s), GYROSCOPE Roll (rad/s), MAGNETIC FIELD X (Î¼T), MAGNETIC FIELD Y (Î¼T), MAGNETIC FIELD Z (Î¼T), ORIENTATION (Yaw) (Â°), ORIENTATION (Pitch) (Â°), ORIENTATION (Roll ) (Â°)
53539,52.368362,-1.515086,118,25.89,9.0,43.6,14 / 24,5353941,2019-08-31 11:19:34:020,-0.3513,-0.1368,9.8,0.0173,0.0128,9.8066,0.0074,-0.0347,0.0197,11.51,-20.04,-19.13,57.54,-3.23,1.46
53540,52.368362,-1.515086,118,25.89,9.0,43.6,14 / 24,5354042,2019-08-31 11:19:34:121,-0.4044,-0.3952,10.2106,0.0075,-0.0103,9.8066,0.0308,0.0069,0.0037,11.01,-20.19,-19.27,59.52,-3.35,1.5
53541,52.368538,-1.514822,118,26.01,9.0,43.1,14 / 24,5354141,2019-08-31 11:19:34:220,-0.0053,-0.1157,7.7389,-0.0079,-0.0395,9.8066,0.0308,0.0069,0.0037,11.51,-19.47,-19.71,56.15,-3.32,1.57
53542,52.368538,-1.514822,118,26.01,9.0,43.1,14 / 24,5354241,2019-08-31 11:19:34:320,-0.6714,-0.3733,9.4875,-0.0216,-0.0658,9.8064,-0.0065,-0.0229,0.0026,12.22,-18.92,-19.82,56.46,-2.93,1.68
53543,52.368538,-1.514822,118,26.01,9.0,43.1,14 / 24,5354341,2019-08-31 11:19:34:420,-0.1114,0.1108,10.1262,-0.0266,-0.0138,9.8066,-0.0086,-0.0379,0.0133,12.22,-18.92,-19.82,56.46,-2.93,1.68
53544,52.368538,-1.514822,118,26.01,9.0,43.1,14 / 24,5354441,2019-08-31 11:19:34:520,-0.5886,0.0289,10.4707,-0.0178,0.0196,9.8066,0.0116,0.0143,-0.0112,12.39,-19.2,-19.44,56.58,-2.78,1.6
53545,52.368538,-1.514822,118,26.01,9.0,43.1,14 / 24,5354541,2019-08-31 11:19:34:620,-0.0338,0.3149,10.6057,-0.0014,0.0485,9.8065,-0.0225,0.0335,-0.0027,12.19,-19.31,-19.46,56.49,-2.82,1.45
53546,52.368538,-1.514822,118,26.01,9.0,43.1,14 / 24,5354642,2019-08-31 11:19:34:721,0.053,0.2079,9.6907,-0.0144,0.0643,9.8064,-0.0033,0.0165,0.0026,12.57,-19.47,-19.05,56.49,-2.82,1.45
53547,52.368538,-1.514822,118,26.01,9.0,43.1,14 / 24,5354741,2019-08-31 11:19:34:820,0.5876,0.4288,9.081,-0.0208,0.0586,9.8065,0.0212,-0.041,0.0133,12.57,-19.47,-19.05,56.49,-2.82,1.45
53548,52.368538,-1.514822,118,26.01,9.0,43.1,14 / 24,5354841,2019-08-31 11:19:34:920,0.265,0.2339,9.5515,0.0089,-0.0008,9.8066,-0.0033,-0.0272,0.0016,12.73,-19.13,-19.28,54.22,-3.04,1.16
53549,52.368538,-1.514822,118,26.01,9.0,43.1,14 / 24,5354941,2019-08-31 11:19:35:020,-0.2263,-0.0471,10.7131,0.0154,-0.0026,9.8066,-0.0043,-0.0048,0.0154,13.51,-18.91,-18.97,52.34,-3.08,1.24
53550,52.368538,-1.514822,118,26.01,9.0,43.1,14 / 24,5355041,2019-08-31 11:19:35:120,0.085,0.1266,9.8556,-0.006,-0.0227,9.8066,-0.0043,-0.0048,0.0154,13.51,-18.91,-18.97,52.34,-3.08,1.24
53551,52.368713,-1.51456,119,25.98,9.0,42.9,14 / 24,5355142,2019-08-31 11:19:35:221,0.1134,0.2153,8.9887,-0.0142,-0.0338,9.8066,0.0084,-0.0048,0.0048,13.51,-18.91,-18.97,52.34,-3.08,1.24
53552,52.368713,-1.51456,119,25.98,9.0,42.9,14 / 24,5355241,2019-08-31 11:19:35:320,-0.384,-0.3229,10.2749,-0.0264,-0.0345,9.8066,0.0234,0.0612,-0.0112,13.66,-17.93,-19.79,50.95,-2.82,1.24
53553,52.368713,-1.51456,119,25.98,9.0,42.9,14 / 24,5355341,2019-08-31 11:19:35:420,-0.933,0.0358,8.2353,0.0198,-0.0365,9.8066,0.0841,0.0516,-0.0155,14.98,-16.79,-19.85,47.52,-2.97,1.36
53554,52.368713,-1.51456,119,25.98,9.0,42.9,14 / 24,5355441,2019-08-31 11:19:35:520,-0.6249,-0.4948,9.4393,0.0327,-0.0346,9.8065,0.0734,-0.0538,-0.0027,15.99,-16.05,-19.66,44.28,-2.95,1.63
53555,52.368713,-1.51456,119,25.98,9.0,42.9,14 / 24,5355540,2019-08-31 11:19:35:619,-0.5018,-0.3824,10.7832,-0.0021,0.0143,9.8066,0.0138,0.0708,0.0165,15.99,-16.05,-19.66,44.28,-2.95,1.63
53556,52.368713,-1.51456,119,25.98,9.0,42.9,14 / 24,5355641,2019-08-31 11:19:35:720,1.4511,0.2659,10.3957,0.0245,-0.0038,9.8066,0.0052,0.0154,-0.0059,18.43,-11.68,-20.59,33.41,-3.0,1.56
53557,52.368713,-1.51456,119,25.98,9.0,42.9,14 / 24,5355741,2019-08-31 11:19:35:820,0.2008,0.0347,10.0535,0.0378,0.0068,9.8066,0.034,0.058,-0.0144,19.38,-7.61,-21.6,33.41,-3.0,1.56
53558,52.368713,-1.51456,119,25.98,9.0,42.9,14 / 24,5355840,2019-08-31 11:19:35:919,-0.0927,-0.1454,9.3763,0.0289,-0.0041,9.8066,-0.0193,0.0357,0.0293,14.64,2.28,-26.09,355.68,-3.12,1.68
53559,52.368713,-1.51456,119,25.98,9.0,42.9,14 / 24,5355941,2019-08-31 11:19:36:020,-0.2589,0.2063,10.4666,0.0109,0.0047,9.8066,-0.0193,0.0357,0.0293,4.7,-2.18,-29.55,355.68,-3.12,1.68
53560,52.368713,-1.51456,119,25.98,9.0,42.9,14 / 24,5356041,2019-08-31 11:19:36:120,-0.308,0.1551,9.4916,0.0174,-0.0133,9.8066,-0.0065,-0.0315,0.009,4.7,-2.18,-29.55,355.68,-3.12,1.68
53561,52.368893,-1.514293,120,26.04,9.0,42.5,14 / 24,5356141,2019-08-31 11:19:36:220,-0.3856,-0.6073,9.8687,0.0293,-0.0093,9.8066,0.0585,-0.0112,-0.0091,-6.49,-26.22,-13.05,101.36,-3.23,1.75
53562,52.368893,-1.514293,120,26.04,9.0,42.5,14 / 24,5356241,2019-08-31 11:19:36:320,0.1036,0.138,10.8266,0.0664,-0.0501,9.8063,-0.0619,-0.0123,0.0144,-5.43,-29.23,4.03,100.31,-2.87,2.07
53563,52.368893,-1.514293,120,26.04,9.0,42.5,14 / 24,5356341,2019-08-31 11:19:36:420,-0.5005,-0.4838,9.8027,-0.011,0.0118,9.8066,-0.0043,0.0399,-0.0091,-1.65,-28.57,9.0,100.31,-2.87,2.07
53564,52.368893,-1.514293,120,26.04,9.0,42.5,14 / 24,5356441,2019-08-31 11:19:36:520,0.1074,-0.0026,8.3319,-0.0107,0.0004,9.8066,-0.0683,-0.0655,0.041,3.79,-27.07,12.35,82.92,-3.07,1.88
53565,52.368893,-1.514293,120,26.04,9.0,42.5,14 / 24,5356541,2019-08-31 11:19:36:620,-0.3094,-0.2545,11.5782,-0.0089,-0.0243,9.8066,0.001,-0.0112,0.0037,3.79,-27.07,12.35,82.92,-3.07,1.88
53566,52.368893,-1.514293,120,26.04,9.0,42.5,14 / 24,5356641,2019-08-31 11:19:36:720,-0.0802,-0.5153,9.1267,0.0042,-0.0071,9.8066,0.001,-0.0112,0.0037,7.18,-26.22,12.69,76.19,-2.93,1.84
53567,52.368893,-1.514293,120,26.04,9.0,42.5,14 / 24,5356741,2019-08-31 11:19:36:820,0.2739,0.2245,10.1124,0.0161,-0.0205,9.8066,-0.0065,-0.0112,0.0229,2.49,-27.42,11.9,87.07,-2.83,1.96
53568,52.368893,-1.514293,120,26.04,9.0,42.5,14 / 24,5356841,2019-08-31 11:19:36:920,0.1506,0.1545,9.0096,0.0036,-0.0135,9.8066,-0.0001,-0.0315,0.0133,2.49,-27.42,11.9,87.07,-2.83,1.96
53569,52.368893,-1.514293,120,26.04,9.0,42.5,14 / 24,5356942,2019-08-31 11:19:37:021,0.049,0.2612,9.0366,-0.0092,-0.0283,9.8066,0.018,-0.0101,-0.0048,7.79,-23.27,17.26,72.33,-2.76,1.99
53570,52.36907,-1.514048,120,26.08,9.0,41.9,14 / 24,5357041,2019-08-31 11:19:37:120,0.097,0.039,11.2061,-0.0116,-0.0341,9.8066,0.0021,0.0261,0.009,12.01,-22.35,16.01,62.32,-2.55,1.98
53571,52.36907,-1.514048,120,26.08,9.0,41.9,14 / 24,5357141,2019-08-31 11:19:37:220,0.5747,0.0618,9.6341,-0.0008,0.0228,9.8066,0.0287,0.0634,-0.0091,12.3,-21.96,16.32,62.41,-2.66,1.92
53572,52.36907,-1.514048,120,26.08,9.0,41.9,14 / 24,5357241,2019-08-31 11:19:37:320,-1.0623,-0.3499,10.1817,0.0159,0.0255,9.8066,0.0372,0.0421,0.0005,12.3,-21.96,16.32,62.41,-2.66,1.92
53573,52.36907,-1.514048,120,26.08,9.0,41.9,14 / 24,5357341,2019-08-31 11:19:37:420,0.4132,0.1202,10.2788,-0.0024,0.0134,9.8066,0.0244,0.0165,0.0048,16.14,-21.47,13.36,53.33,-2.84,1.93
53574,52.36907,-1.514048,120,26.08,9.0,41.9,14 / 24,5357441,2019-08-31 11:19:37:520,-0.0277,-0.4025,9.1007,0.0225,0.0042,9.8066,0.0244,0.0165,0.0048,17.49,-22.55,9.25,54.0,-2.89,1.87
53575,52.36907,-1.514048,120,26.08,9.0,41.9,14 / 24,5357541,2019-08-31 11:19:37:620,-0.1289,-0.0377,10.8682,0.0252,-0.0213,9.8066,0.0308,0.0026,0.0154,15.17,-25.02,6.63,59.47,-2.88,2.07
53576,52.36907,-1.514048,120,26.08,9.0,41.9,14 / 24,5357641,2019-08-31 11:19:37:720,-0.3093,-0.4762,9.8288,-0.0183,-0.0219,9.8066,-0.0225,-0.0251,0.0112,15.17,-25.02,6.63,59.47,-2.88,2.07
53577,52.36907,-1.514048,120,26.08,9.0,41.9,14 / 24,5357741,2019-08-31 11:19:37:820,0.6591,0.2861,9.7267,-0.0047,-0.0127,9.8066,0.0202,0.0442,-0.0112,7.19,-26.89,11.18,76.41,-2.71,2.04
53578,52.36907,-1.514048,120,26.08,9.0,41.9,14 / 24,5357841,2019-08-31 11:19:37:920,0.192,0.4775,10.2245,-0.0202,0.0025,9.8066,0.0138,0.0495,0.0165,12.13,-23.59,14.01,64.36,-2.7,1.92
53579,52.36907,-1.514048,120,26.08,9.0,41.9,14 / 24,5357941,2019-08-31 11:19:38:020,0.5034,0.0114,10.4948,0.0036,-0.0228,9.8066,0.0138,-0.0038,0.0229,12.13,-23.59,14.01,64.36,-2.7,1.92
53580,52.369236,-1.513792,120,25.96,9.0,41.5,14 / 24,5358042,2019-08-31 11:19:38:121,0.0974,-0.3052,8.9891,0.0067,-0.0439,9.8066,-0.0129,0.1049,-0.0038,7.35,-23.83,16.68,75.1,-2.48,2.07
53581,52.369236,-1.513792,120,25.96,9.0,41.5,14 / 24,5358141,2019-08-31 11:19:38:220,-0.2294,-0.2059,11.1292,-0.0044,0.0132,9.8066,-0.0129,0.1049,-0.0038,7.79,-19.53,21.39,69.94,-2.55,2.02
53582,52.369236,-1.513792,120,25.96,9.0,41.5,14 / 24,5358241,2019-08-31 11:19:38:320,-0.2877,0.7001,10.1048,-0.0223,0.043,9.8065,-0.0107,0.1038,0.0197,7.79,-19.53,21.39,69.94,-2.55,2.02
53583,52.369236,-1.513792,120,25.96,9.0,41.5,14 / 24,5358342,2019-08-31 11:19:38:421,-0.7604,-1.2631,13.1109,-0.0011,-0.0379,9.8066,0.0585,0.0676,0.0271,10.17,-14.89,23.97,58.22,-2.74,1.81
53584,52.369236,-1.513792,120,25.96,9.0,41.5,14 / 24,5358442,2019-08-31 11:19:38:521,0.6888,0.0847,9.884,-0.016,-0.0166,9.8066,0.1224,0.041,0.0069,29.39,-4.99,-3.37,9.94,-2.55,1.93
53585,52.369236,-1.513792,120,25.96,9.0,41.5,14 / 24,5358541,2019-08-31 11:19:38:620,-0.6806,-0.0481,10.6644,-0.0334,-0.0553,9.8064,0.066,-0.1295,0.0282,29.39,-4.99,-3.37,9.94,-2.55,1.93
53586,52.369236,-1.513792,120,25.96,9.0,41.5,14 / 24,5358641,2019-08-31 11:19:38:720,0.2898,-1.0464,10.6405,-0.0198,-0.0395,9.8066,0.001,-0.0133,0.0335,17.42,-18.82,-15.57,48.08,-2.3,2.21
53587,52.369236,-1.513792,120,25.96,9.0,41.5,14 / 24,5358741,2019-08-31 11:19:38:820,-0.5844,-0.014,10.9147,-0.0489,-0.0472,9.8064,-0.0661,-0.0762,0.0325,16.28,-17.76,-17.87,48.39,-2.05,2.28
53588,52.369236,-1.513792,120,25.96,9.0,41.5,14 / 24,5358841,2019-08-31 11:19:38:920,0.6804,0.1196,11.7091,-0.0118,0.0041,9.8066,-0.0331,0.1188,0.0133,16.43,-17.37,-18.12,46.8,-2.03,2.21
53589,52.369236,-1.513792,120,25.96,9.0,41.5,14 / 24,5358941,2019-08-31 11:19:39:020,0.3753,0.2032,9.57,0.0463,0.0471,9.8064,-0.0331,0.1188,0.0133,16.43,-17.37,-18.12,46.8,-2.03,2.21
53590,52.369415,-1.513538,121,25.89,9.0,41.1,14 / 24,5359041,2019-08-31 11:19:39:120,0.411,0.5303,9.9989,0.0212,0.0186,9.8066,0.0191,0.0197,0.0069,14.15,-18.79,-18.62,53.2,-2.41,2.22
53591,52.369415,-1.513538,121,25.89,9.0,41.1,16 / 24,5359141,2019-08-31 11:19:39:220,0.0767,0.1637,9.7084,0.0218,0.0322,9.8066,-0.0118,-0.0325,0.0144,13.26,-18.55,-19.5,53.2,-2.41,2.22
53592,52.369415,-1.513538,121,25.89,9.0,41.1,16 / 24,5359243,2019-08-31 11:19:39:322,-0.6372,-0.1146,9.9798,-0.0329,-0.0307,9.8065,-0.0043,-0.0048,0.008,13.26,-18.55,-19.5,55.01,-2.49,2.14
53593,52.369415,-1.513538,121,25.89,9.0,41.1,16 / 24,5359341,2019-08-31 11:19:39:420,0.3766,-0.0583,9.929,-0.041,-0.0326,9.8065,-0.0118,-0.0187,0.0229,13.26,-18.55,-19.5,55.01,-2.49,2.14
53594,52.369415,-1.513538,121,25.89,9.0,41.1,16 / 24,5359441,2019-08-31 11:19:39:520,0.0743,0.2722,10.213,-0.0025,-0.022,9.8066,0.0457,0.0048,0.0026,12.67,-19.64,-18.8,56.47,-2.2,2.05
53595,52.369415,-1.513538,121,25.89,9.0,41.1,16 / 24,5359541,2019-08-31 11:19:39:620,-0.3926,-0.2545,9.7637,0.0151,-0.0451,9.8065,0.0138,0.0346,0.0037,12.65,-19.04,-19.43,55.36,-2.03,2.27
53596,52.369415,-1.513538,121,25.89,9.0,41.1,16 / 24,5359641,2019-08-31 11:19:39:720,0.3019,-0.0364,10.6299,0.0114,-0.0054,9.8066,0.0052,0.0026,0.0005,12.8,-18.7,-19.66,55.36,-2.03,2.27
53597,52.369415,-1.513538,121,25.89,9.0,41.1,16 / 24,5359741,2019-08-31 11:19:39:820,-0.3232,0.0087,10.6444,0.0132,-0.0192,9.8066,0.0052,0.0026,0.0005,12.8,-18.7,-19.66,55.36,-2.03,2.27
53598,52.369415,-1.513538,121,25.89,9.0,41.1,16 / 24,5359841,2019-08-31 11:19:39:920,0.1067,-0.2654,11.1483,-0.001,0.0002,9.8067,0.001,0.0772,0.0133,12.08,-18.89,-19.93,57.44,-1.98,2.4
53599,52.369415,-1.513538,121,25.89,9.0,41.1,16 / 24,5359941,2019-08-31 11:19:40:020,0.2456,0.2472,9.6353,-0.0078,0.0255,9.8066,-0.0352,0.0335,0.025,12.99,-18.97,-19.27,57.44,-1.98,2.4
53600,52.36959,-1.513295,120,25.65,9.0,40.7,16 / 24,5360041,2019-08-31 11:19:40:120,-0.0792,0.0311,10.78,-0.0046,0.0301,9.8066,-0.0075,0.0421,0.0101,12.59,-19.1,-19.4,55.31,-2.11,2.28
53601,52.36959,-1.513295,120,25.65,9.0,40.7,16 / 24,5360141,2019-08-31 11:19:40:220,-0.2949,-0.0289,9.9446,0.0093,-0.0114,9.8066,0.0159,-0.0176,0.0112,12.59,-19.1,-19.4,55.31,-2.11,2.28
53602,52.36959,-1.513295,120,25.65,9.0,40.7,16 / 24,5360240,2019-08-31 11:19:40:319,0.1042,0.3985,9.384,-0.0162,-0.0132,9.8066,-0.0043,-0.0187,0.0016,12.23,-18.97,-19.77,57.35,-2.09,2.36
53603,52.36959,-1.513295,120,25.65,9.0,40.7,16 / 24,5360341,2019-08-31 11:19:40:420,-0.7796,0.0013,8.3535,-0.0159,-0.0172,9.8066,0.0052,0.0154,0.0133,12.8,-19.08,-19.29,55.41,-1.98,2.32
53604,52.36959,-1.513295,120,25.65,9.0,40.7,16 / 24,5360441,2019-08-31 11:19:40:520,-0.3789,0.0071,8.766,-0.0331,-0.0373,9.8065,-0.0033,-0.0314,0.0186,12.8,-19.08,-19.29,55.41,-1.98,2.32
53605,52.36959,-1.513295,120,25.65,9.0,40.7,16 / 24,5360541,2019-08-31 11:19:40:620,-0.1716,0.0446,9.0187,-0.0086,-0.0084,9.8066,-0.0033,-0.0314,0.0186,12.48,-19.09,-19.49,57.6,-1.69,2.29
53606,52.36959,-1.513295,120,25.65,9.0,40.7,16 / 24,5360640,2019-08-31 11:19:40:719,-0.4941,-0.4188,10.2397,-0.0132,-0.0114,9.8066,-0.0043,-0.0027,0.0303,12.0,-18.92,-19.95,57.64,-1.59,2.26
53607,52.36959,-1.513295,120,25.65,9.0,40.7,16 / 24,5360741,2019-08-31 11:19:40:820,0.446,0.1898,9.8331,-0.0056,-0.0045,9.8066,-0.0129,-0.0272,0.0293,12.0,-18.92,-19.95,57.64,-1.59,2.26
53608,52.36959,-1.513295,120,25.65,9.0,40.7,16 / 24,5360841,2019-08-31 11:19:40:920,-0.3109,0.0429,9.3746,0.014,0.0104,9.8066,0.017,0.0122,0.009,12.59,-18.49,-19.99,54.24,-1.55,2.24
53609,52.36959,-1.513295,120,25.65,9.0,40.7,16 / 24,5360941,2019-08-31 11:19:41:020,0.3069,0.0016,10.1612,0.0288,0.0178,9.8066,0.0425,0.0442,0.0112,12.24,-18.24,-20.44,56.21,-1.73,2.32
53610,52.36959,-1.513295,120,25.65,9.0,40.7,16 / 24,5361040,2019-08-31 11:19:41:119,-0.3388,0.0532,9.3601,0.0059,0.016,9.8066,-0.0182,-0.0155,-0.0112,12.24,-18.24,-20.44,56.21,-1.73,2.32
53611,52.369774,-1.51305,121,25.67,9.0,40.2,14 / 24,5361141,2019-08-31 11:19:41:220,0.1246,-0.0049,9.8975,-0.0271,0.0083,9.8066,-0.0075,0.0208,-0.008,12.22,-17.64,-20.97,56.12,-1.83,2.3
53612,52.369774,-1.51305,121,25.67,9.0,40.2,14 / 24,5361240,2019-08-31 11:19:41:319,-0.5329,0.1,9.9221,-0.0551,0.0124,9.8065,0.0223,0.0559,0.0016,12.24,-18.24,-20.44,56.12,-1.83,2.3
53613,52.369774,-1.51305,121,25.67,9.0,40.2,14 / 24,5361341,2019-08-31 11:19:41:420,0.0023,0.2276,8.853,-0.0077,0.0011,9.8066,0.0223,0.0559,0.0016,12.1,-18.59,-20.2,57.43,-1.71,1.99
53614,52.369774,-1.51305,121,25.67,9.0,40.2,14 / 24,5361440,2019-08-31 11:19:41:519,-0.0444,0.1637,9.2035,-0.0133,0.0076,9.8066,-0.0097,0.0389,0.009,11.92,-18.32,-20.55,56.01,-1.7,1.9
53615,52.369774,-1.51305,121,25.67,9.0,40.2,14 / 24,5361541,2019-08-31 11:19:41:620,-0.4243,0.0403,10.0545,-0.0221,0.0031,9.8066,-0.0097,-0.008,-0.0059,12.54,-18.41,-20.1,56.01,-1.7,1.9
53616,52.369774,-1.51305,121,25.67,9.0,40.2,14 / 24,5361641,2019-08-31 11:19:41:720,-0.4243,0.0403,10.0545,-0.0509,0.0218,9.8065,-0.0363,0.0037,0.0112,12.54,-18.41,-20.1,56.01,-1.7,1.9
53617,52.369774,-1.51305,121,25.67,9.0,40.2,14 / 24,5361741,2019-08-31 11:19:41:820,-0.0478,0.1823,10.3449,-0.0366,0.0218,9.8066,-0.0107,0.0176,0.0133,12.05,-17.96,-20.79,55.88,-1.64,1.58
53618,52.369774,-1.51305,121,25.67,9.0,40.2,14 / 24,5361841,2019-08-31 11:19:41:920,-0.0984,-0.0526,9.3893,-0.031,0.0368,9.8065,-0.015,-0.024,0.0026,12.07,-18.55,-20.25,57.1,-1.72,1.31
53619,52.369774,-1.51305,121,25.67,9.0,40.2,14 / 24,5361940,2019-08-31 11:19:42:019,0.0752,0.0936,9.8118,-0.0109,0.0164,9.8066,-0.0033,0.0399,0.0005,11.93,-18.89,-20.02,57.06,-1.84,1.39
53620,52.36994,-1.512819,121,25.17,9.0,40.3,14 / 24,5362041,2019-08-31 11:19:42:120,-0.0519,0.2809,8.8721,-0.0448,0.0124,9.8065,-0.0235,-0.0623,-0.0006,11.93,-18.89,-20.02,57.06,-1.84,1.39
53621,52.36994,-1.512819,121,25.17,9.0,40.3,14 / 24,5362141,2019-08-31 11:19:42:220,-0.3714,0.0391,8.9499,-0.017,-0.0184,9.8066,0.0223,0.0026,0.0112,12.88,-18.91,-19.4,55.0,-1.76,1.13
53622,52.36994,-1.512819,121,25.17,9.0,40.3,14 / 24,5362241,2019-08-31 11:19:42:320,-0.119,-0.0282,9.9432,-0.0025,-0.0054,9.8066,0.0223,0.0026,0.0112,12.54,-18.41,-20.1,53.61,-1.61,1.11
53623,52.36994,-1.512819,121,25.17,9.0,40.3,14 / 24,5362341,2019-08-31 11:19:42:420,-0.3007,0.2073,9.3715,0.0133,-0.0243,9.8066,0.083,0.0122,-0.0208,12.54,-18.41,-20.1,53.61,-1.61,1.11
53624,52.36994,-1.512819,121,25.17,9.0,40.3,14 / 24,5362441,2019-08-31 11:19:42:520,-0.4164,0.0659,9.5466,0.0205,-0.05,9.8065,0.0287,-0.0133,-0.0006,12.54,-18.41,-20.1,53.61,-1.61,1.11
53625,52.36994,-1.512819,121,25.17,9.0,40.3,14 / 24,5362541,2019-08-31 11:19:42:620,-0.1611,-0.0474,9.7817,-0.0012,-0.0029,9.8067,-0.0129,-0.0069,0.0154,12.54,-18.41,-20.1,53.87,-1.45,1.38
53626,52.36994,-1.512819,121,25.17,9.0,40.3,14 / 24,5362641,2019-08-31 11:19:42:720,0.2319,0.2698,9.5393,-0.0156,0.0217,9.8066,-0.0342,0.0548,0.0069,12.54,-18.41,-20.1,53.76,-1.5,1.24
53627,52.36994,-1.512819,121,25.17,9.0,40.3,14 / 24,5362742,2019-08-31 11:19:42:821,0.2035,-0.02,10.3498,0.0113,0.0442,9.8065,-0.0118,-0.0165,0.0282,12.37,-18.44,-20.18,55.6,-1.75,1.14
53628,52.36994,-1.512819,121,25.17,9.0,40.3,14 / 24,5362841,2019-08-31 11:19:42:920,0.6467,0.1256,9.2149,0.0043,0.0155,9.8066,-0.0022,-0.0496,0.0207,12.37,-18.44,-20.18,55.6,-1.75,1.14
53629,52.36994,-1.512819,121,25.17,9.0,40.3,14 / 24,5362941,2019-08-31 11:19:43:020,-0.1453,-0.1911,10.5877,-0.0099,-0.0256,9.8066,0.0223,-0.0315,-0.0048,11.93,-18.89,-20.02,56.99,-1.79,1.17
53630,52.370117,-1.512586,121,25.13,9.0,40.1,14 / 24,5363040,2019-08-31 11:19:43:119,0.095,-0.089,8.1199,-0.0036,0.0021,9.8066,0.0223,-0.0315,-0.0048,12.36,-18.14,-20.45,55.72,-1.63,1.21
53631,52.370117,-1.512586,121,25.13,9.0,40.1,14 / 24,5363141,2019-08-31 11:19:43:220,0.0661,-0.3896,9.9836,-0.0027,-0.0119,9.8066,0.0415,-0.0091,-0.0112,12.05,-17.96,-20.79,55.68,-1.63,1.18
53632,52.370117,-1.512586,121,25.13,9.0,40.1,14 / 24,5363241,2019-08-31 11:19:43:320,-0.68,0.0444,10.3613,-0.002,-0.0133,9.8066,0.0042,0.0154,-0.007,12.05,-17.96,-20.79,55.68,-1.63,1.18
53633,52.370117,-1.512586,121,25.13,9.0,40.1,14 / 24,5363341,2019-08-31 11:19:43:420,0.3746,0.0916,9.1683,-0.0018,-0.0015,9.8067,-0.0097,0.0016,0.0143,12.54,-18.41,-20.1,53.7,-1.56,1.22
53634,52.370117,-1.512586,121,25.13,9.0,40.1,14 / 24,5363441,2019-08-31 11:19:43:520,0.0712,0.0996,9.9103,0.011,0.0113,9.8066,0.0234,0.0388,0.0037,12.54,-18.41,-20.1,53.65,-1.65,1.23
53635,52.370117,-1.512586,121,25.13,9.0,40.1,14 / 24,5363541,2019-08-31 11:19:43:620,-0.0157,0.2777,10.1939,0.0088,0.0162,9.8066,0.0191,0.0729,0.0058,12.68,-18.06,-20.33,53.65,-1.65,1.23
53636,52.370117,-1.512586,121,25.13,9.0,40.1,14 / 24,5363640,2019-08-31 11:19:43:719,0.7256,0.0042,8.8544,0.0312,0.0224,9.8066,-0.0171,-0.0112,0.0335,12.98,-17.69,-20.47,53.54,-1.87,1.3
53637,52.370117,-1.512586,121,25.13,9.0,40.1,14 / 24,5363741,2019-08-31 11:19:43:820,0.307,0.0182,9.2235,0.0136,-0.0083,9.8066,0.0212,-0.0251,0.009,12.98,-17.69,-20.47,53.54,-1.87,1.3
53638,52.370117,-1.512586,121,25.13,9.0,40.1,14 / 24,5363841,2019-08-31 11:19:43:920,0.1217,0.1281,9.8824,0.0028,-0.0183,9.8066,0.0212,-0.0251,0.009,12.79,-17.43,-20.8,52.14,-1.82,1.52
53639,52.370117,-1.512586,121,25.13,9.0,40.1,14 / 24,5363941,2019-08-31 11:19:44:020,0.3513,-0.0665,9.1222,-0.0155,-0.021,9.8066,-0.0171,0.0122,0.0356,12.06,-16.29,-22.12,52.7,-1.74,1.6
53640,52.370293,-1.512349,122,25.08,9.0,40.1,14 / 24,5364040,2019-08-31 11:19:44:119,0.3367,-0.0778,9.4579,-0.0236,-0.032,9.8066,-0.0129,-0.0421,0.0154,12.06,-16.29,-22.12,52.7,-1.74,1.6
53641,52.370293,-1.512349,122,25.08,9.0,40.1,14 / 24,5364141,2019-08-31 11:19:44:220,0.0341,0.0216,10.0683,0.0138,0.0148,9.8066,-0.0075,0.0452,0.0154,12.21,-18.2,-20.49,56.01,-1.51,1.6
53642,52.370293,-1.512349,122,25.08,9.0,40.1,14 / 24,5364241,2019-08-31 11:19:44:320,0.2057,0.0038,10.2806,0.0329,0.0345,9.8065,0.0159,0.0665,0.0207,12.07,-18.55,-20.25,57.22,-1.79,1.65
53643,52.370293,-1.512349,122,25.08,9.0,40.1,14 / 24,5364342,2019-08-31 11:19:44:421,-0.046,0.3117,10.1365,0.028,0.011,9.8066,0.0404,0.0048,0.0165,12.21,-18.2,-20.49,55.79,-1.93,1.75
53644,52.370293,-1.512349,122,25.08,9.0,40.1,14 / 24,5364441,2019-08-31 11:19:44:520,-0.0199,0.0141,9.2718,0.0184,0.0176,9.8066,0.0074,0.1038,0.0058,12.05,-17.96,-20.79,55.79,-1.93,1.75
53645,52.370293,-1.512349,122,25.08,9.0,40.1,14 / 24,5364541,2019-08-31 11:19:44:620,0.0353,0.0457,8.6576,0.0223,0.0152,9.8066,0.0074,0.1038,0.0058,12.05,-17.96,-20.79,55.79,-1.93,1.75
53646,52.370293,-1.512349,122,25.08,9.0,40.1,14 / 24,5364641,2019-08-31 11:19:44:720,-0.455,-0.1678,9.4684,0.0374,0.0189,9.8066,-0.0256,0.0197,0.0218,12.07,-18.55,-20.25,57.08,-2.14,1.87
53647,52.370293,-1.512349,122,25.08,9.0,40.1,14 / 24,5364741,2019-08-31 11:19:44:820,0.3205,-0.0051,9.1415,-0.0624,-0.0521,9.8063,-0.0225,-0.0347,0.0111,12.41,-19.07,-19.56,57.08,-2.14,1.87
53648,52.370293,-1.512349,122,25.08,9.0,40.1,14 / 24,5364841,2019-08-31 11:19:44:920,-0.4335,-0.2255,8.0456,-0.0284,-0.0168,9.8066,-0.0129,-0.04,0.0175,13.5,-18.4,-19.47,51.94,-1.69,1.73
53649,52.370293,-1.512349,122,25.08,9.0,40.1,14 / 24,5364940,2019-08-31 11:19:45:019,0.1004,0.1703,9.9149,-0.0253,-0.0484,9.8065,0.0191,-0.0219,0.0229,13.26,-18.88,-19.18,51.94,-1.69,1.73
53650,52.37046,-1.512114,121,24.85,10.0,40.0,14 / 24,5365041,2019-08-31 11:19:45:120,0.6558,-0.0597,9.7867,-0.006,-0.0451,9.8065,0.001,-0.0038,0.0122,13.26,-18.88,-19.18,51.94,-1.69,1.73
53651,52.37046,-1.512114,121,24.85,10.0,40.0,14 / 24,5365141,2019-08-31 11:19:45:220,-0.1633,0.0381,10.0121,0.0553,0.0343,9.8064,-0.0118,0.0538,0.0218,12.98,-17.69,-20.47,54.11,-1.46,1.86
53652,52.37046,-1.512114,121,24.85,10.0,40.0,14 / 24,5365241,2019-08-31 11:19:45:320,0.3794,0.3668,9.8757,0.0987,0.0673,9.8059,0.002,0.0335,0.0101,13.33,-18.17,-19.8,54.11,-1.46,1.86
53653,52.37046,-1.512114,121,24.85,10.0,40.0,14 / 24,5365340,2019-08-31 11:19:45:419,0.0846,0.005,8.6754,-0.0009,0.0096,9.8066,0.002,0.0335,0.0101,12.4,-18.48,-20.12,55.84,-2.12,2.1
53654,52.37046,-1.512114,121,24.85,10.0,40.0,14 / 24,5365441,2019-08-31 11:19:45:520,-0.3251,-0.0943,8.6322,-0.0155,-0.0024,9.8066,-0.0203,-0.0602,0.0133,13.36,-18.21,-19.74,53.8,-2.05,2.03
53655,52.37046,-1.512114,121,24.85,10.0,40.0,14 / 24,5365541,2019-08-31 11:19:45:620,0.2158,0.1177,8.833,-0.037,-0.0167,9.8066,0.0042,-0.0123,0.0026,12.72,-18.68,-19.73,55.29,-1.85,1.92
53656,52.37046,-1.512114,121,24.85,10.0,40.0,14 / 24,5365641,2019-08-31 11:19:45:720,-0.5799,0.0295,9.1606,-0.054,-0.0009,9.8065,-0.0043,0.0048,0.0026,12.72,-18.68,-19.73,55.29,-1.85,1.92
53657,52.37046,-1.512114,121,24.85,10.0,40.0,14 / 24,5365742,2019-08-31 11:19:45:821,-0.3875,-0.0552,9.2456,-0.0212,-0.0083,9.8066,0.0031,-0.0123,0.0101,12.74,-18.39,-19.99,53.87,-1.66,1.66
53658,52.37046,-1.512114,121,24.85,10.0,40.0,14 / 24,5365841,2019-08-31 11:19:45:920,-0.207,-0.0225,10.1236,0.0077,0.0179,9.8066,0.002,0.0495,0.0016,13.62,-17.8,-19.95,51.94,-1.55,1.59
53659,52.37046,-1.512114,121,24.85,10.0,40.0,14 / 24,5365940,2019-08-31 11:19:46:019,0.0594,0.2292,9.4684,0.0121,0.0444,9.8065,-0.0043,0.0751,0.0111,12.72,-18.68,-19.73,55.11,-1.8,1.49
53660,52.37063,-1.511886,121,24.75,10.0,39.6,14 / 24,5366040,2019-08-31 11:19:46:119,-0.2968,-0.1466,10.018,0.0023,0.0105,9.8066,0.0287,0.0154,0.0143,12.72,-18.68,-19.73,55.11,-1.8,1.49
53661,52.37063,-1.511886,121,24.75,10.0,39.6,14 / 24,5366141,2019-08-31 11:19:46:220,-0.1392,-0.179,9.3102,0.0019,-0.0023,9.8067,0.0351,0.058,0.0058,13.06,-18.6,-19.58,55.06,-1.86,1.46
53662,52.37063,-1.511886,121,24.75,10.0,39.6,14 / 24,5366241,2019-08-31 11:19:46:320,-0.2444,-0.134,9.4488,0.02,-0.0065,9.8066,0.0351,0.058,0.0058,12.56,-18.45,-20.05,53.67,-1.89,1.58
53663,52.37063,-1.511886,121,24.75,10.0,39.6,14 / 24,5366341,2019-08-31 11:19:46:420,-0.1145,-0.3903,8.9905,-0.0092,-0.0264,9.8066,-0.015,-0.0496,0.0005,12.56,-18.45,-20.05,53.67,-1.89,1.58
53664,52.37063,-1.511886,121,24.75,10.0,39.6,14 / 24,5366442,2019-08-31 11:19:46:521,-0.2348,-0.3633,10.1847,-0.0205,-0.047,9.8065,0.0084,0.0357,0.0111,13.33,-18.17,-19.8,53.9,-1.6,1.65
53665,52.37063,-1.511886,121,24.75,10.0,39.6,14 / 24,5366541,2019-08-31 11:19:46:620,0.0198,-0.2545,11.2307,-0.0141,-0.0067,9.8066,-0.0203,0.0399,0.0143,12.72,-18.68,-19.73,53.9,-1.6,1.65
53666,52.37063,-1.511886,121,24.75,10.0,39.6,14 / 24,5366641,2019-08-31 11:19:46:720,-0.2645,0.0716,10.7479,-0.007,0.0145,9.8066,-0.0001,0.0836,0.0111,13.17,-17.95,-20.11,53.83,-1.64,1.56
53667,52.37063,-1.511886,121,24.75,10.0,39.6,14 / 24,5366741,2019-08-31 11:19:46:820,-0.2814,-0.2629,9.7666,0.0142,0.006,9.8066,-0.0086,0.0538,0.0261,13.17,-17.95,-20.11,53.83,-1.64,1.56
53668,52.37063,-1.511886,121,24.75,10.0,39.6,14 / 24,5366840,2019-08-31 11:19:46:919,-0.1982,0.1974,9.2192,0.0198,0.0245,9.8066,0.0212,0.025,0.0111,13.21,-18.57,-19.52,55.22,-1.72,1.61
53669,52.37063,-1.511886,121,24.75,10.0,39.6,14 / 24,5366940,2019-08-31 11:19:47:019,-0.1356,-0.3635,9.5031,-0.0079,0.0004,9.8066,0.0212,0.025,0.0111,13.36,-18.21,-19.74,53.68,-1.91,1.62
53670,52.370808,-1.511663,121,24.79,10.0,38.8,13 / 24,5367040,2019-08-31 11:19:47:119,-0.3366,-0.3507,9.9401,-0.0095,-0.0172,9.8066,0.0234,-0.0038,-0.0123,13.36,-18.21,-19.74,53.68,-1.91,1.62
53671,52.370808,-1.511663,121,24.79,10.0,38.8,13 / 24,5367142,2019-08-31 11:19:47:221,0.0124,0.0722,9.1181,-0.0078,-0.0187,9.8066,-0.0011,-0.0134,0.0335,13.06,-18.6,-19.58,55.19,-1.79,1.64
53672,52.370808,-1.511663,121,24.79,10.0,38.8,13 / 24,5367241,2019-08-31 11:19:47:320,0.1689,-0.2156,8.7167,-0.0118,-0.0599,9.8065,-0.0065,-0.0251,0.0378,13.36,-18.21,-19.74,55.19,-1.79,1.64
53673,52.370808,-1.511663,121,24.79,10.0,38.8,13 / 24,5367341,2019-08-31 11:19:47:420,0.2152,-0.4227,9.4097,0.0069,-0.0881,9.8063,0.0127,-0.0165,0.0122,14.01,-18.32,-19.19,52.23,-1.39,1.96
53674,52.370808,-1.511663,121,24.79,10.0,38.8,13 / 24,5367440,2019-08-31 11:19:47:519,-0.5021,-0.0231,9.2357,-0.0037,-0.0255,9.8066,-0.0086,0.009,0.0122,14.01,-18.32,-19.19,52.23,-1.39,1.96
53675,52.370808,-1.511663,121,24.79,10.0,38.8,13 / 24,5367541,2019-08-31 11:19:47:620,0.471,0.3418,10.5707,0.0058,0.0487,9.8065,-0.0342,0.0101,0.0165,13.72,-18.11,-19.59,52.34,-1.28,2.04
53676,52.370808,-1.511663,121,24.79,10.0,38.8,13 / 24,5367641,2019-08-31 11:19:47:720,-0.2504,0.4086,9.446,-0.0151,0.0551,9.8065,-0.0139,0.0026,0.0079,13.36,-18.21,-19.74,54.07,-1.53,1.89
53677,52.370808,-1.511663,121,24.79,10.0,38.8,13 / 24,5367740,2019-08-31 11:19:47:819,-0.6165,0.3368,9.2069,-0.0164,0.0062,9.8066,0.0031,-0.0134,0.0143,13.25,-18.27,-19.76,53.8,-1.74,1.63
53678,52.370808,-1.511663,121,24.79,10.0,38.8,13 / 24,5367840,2019-08-31 11:19:47:919,-0.718,-0.135,9.5492,-0.0309,-0.0121,9.8066,0.0031,-0.0134,0.0143,13.25,-18.27,-19.76,53.8,-1.74,1.63
53679,52.370808,-1.511663,121,24.79,10.0,38.8,13 / 24,5367942,2019-08-31 11:19:48:021,-0.0274,0.0296,10.0327,-0.006,0.0008,9.8066,0.0276,-0.04,0.0047,13.56,-18.48,-19.36,51.9,-1.58,1.53
53680,52.37101,-1.511445,121,25.14,11.0,37.3,13 / 24,5368041,2019-08-31 11:19:48:120,0.0568,0.4076,10.3394,-0.0061,0.0022,9.8066,0.0063,0.0154,-0.0144,13.81,-18.06,-19.57,51.89,-1.56,1.5
53681,52.37101,-1.511445,121,25.14,11.0,37.3,13 / 24,5368141,2019-08-31 11:19:48:220,0.0491,-0.1654,9.4401,-0.023,-0.0136,9.8066,0.0223,0.008,-0.0016,13.36,-18.21,-19.74,53.92,-1.41,1.44
53682,52.37101,-1.511445,121,25.14,11.0,37.3,13 / 24,5368241,2019-08-31 11:19:48:320,0.3029,0.1865,9.6309,-0.0128,-0.0078,9.8066,0.0234,0.0548,-0.0038,13.36,-18.21,-19.74,53.92,-1.41,1.44
53683,52.37101,-1.511445,121,25.14,11.0,37.3,13 / 24,5368341,2019-08-31 11:19:48:420,0.197,0.0856,8.4725,-0.0105,0.0048,9.8066,0.0042,0.0335,0.0175,13.05,-18.0,-20.14,53.9,-1.4,1.37
53684,52.37101,-1.511445,121,25.14,11.0,37.3,13 / 24,5368441,2019-08-31 11:19:48:520,-0.1671,-0.3167,10.5583,0.0109,0.0001,9.8066,0.0084,0.0165,0.0101,13.78,-18.02,-19.63,51.92,-1.44,1.41
53685,52.37101,-1.511445,121,25.14,11.0,37.3,13 / 24,5368541,2019-08-31 11:19:48:620,0.3341,0.1197,9.3599,0.0076,-0.0027,9.8066,0.0031,0.0346,0.0101,13.53,-18.44,-19.41,51.94,-1.45,1.46
53686,52.37101,-1.511445,121,25.14,11.0,37.3,13 / 24,5368641,2019-08-31 11:19:48:720,0.1759,-0.0955,10.5342,0.0072,0.0172,9.8066,0.0031,0.0346,0.0101,13.52,-17.85,-19.97,51.94,-1.45,1.46
53687,52.37101,-1.511445,121,25.14,11.0,37.3,13 / 24,5368741,2019-08-31 11:19:48:820,-0.2493,-0.0367,9.3589,0.0168,0.0249,9.8066,-0.0224,-0.0261,0.0069,13.52,-17.85,-19.97,51.94,-1.45,1.46
53688,52.37101,-1.511445,121,25.14,11.0,37.3,13 / 24,5368841,2019-08-31 11:19:48:920,0.109,-0.2659,10.0482,-0.0061,-0.0026,9.8066,0.0031,-0.0432,0.0101,13.81,-18.06,-19.57,51.82,-1.63,1.44
53689,52.37101,-1.511445,121,25.14,11.0,37.3,13 / 24,5368941,2019-08-31 11:19:49:020,0.2078,0.0942,9.493,-0.0273,-0.0172,9.8066,0.0084,0.0133,0.0037,13.56,-18.48,-19.36,51.82,-1.63,1.44
53690,52.371193,-1.511226,121,24.74,10.0,37.3,13 / 24,5369041,2019-08-31 11:19:49:120,0.0618,0.1841,10.307,-0.0311,-0.0068,9.8066,-0.0001,-0.0123,0.0133,13.56,-18.48,-19.36,51.82,-1.63,1.44
53691,52.371193,-1.511226,121,24.74,10.0,37.3,13 / 24,5369141,2019-08-31 11:19:49:220,0.3813,0.2027,9.6728,0.0146,0.0098,9.8066,0.018,-0.0144,0.0239,13.81,-18.06,-19.57,51.84,-1.48,1.33
53692,52.371193,-1.511226,121,24.74,10.0,37.3,13 / 24,5369240,2019-08-31 11:19:49:319,0.403,0.0912,10.56,0.0176,-0.0051,9.8066,0.0031,0.041,0.0079,13.32,-17.58,-20.34,53.84,-1.52,1.42
53693,52.371193,-1.511226,121,24.74,10.0,37.3,13 / 24,5369341,2019-08-31 11:19:49:420,0.1747,0.1652,8.6745,-0.0132,0.0064,9.8066,-0.0075,-0.0347,0.0154,13.32,-17.58,-20.34,53.84,-1.52,1.42
53694,52.371193,-1.511226,121,24.74,10.0,37.3,13 / 24,5369441,2019-08-31 11:19:49:520,0.0201,-0.1044,9.8249,-0.0162,-0.0033,9.8066,-0.0075,-0.0347,0.0154,14.15,-17.91,-19.47,51.85,-1.51,1.34
53695,52.371193,-1.511226,121,24.74,10.0,37.3,13 / 24,5369541,2019-08-31 11:19:49:620,-0.3093,-0.1921,9.9048,0.0073,-0.0081,9.8066,0.0212,0.0261,0.009,13.56,-18.48,-19.36,51.87,-1.43,1.28
53696,52.371193,-1.511226,121,24.74,10.0,37.3,13 / 24,5369641,2019-08-31 11:19:49:720,-0.0612,0.1129,9.9522,0.0233,-0.0123,9.8066,0.0052,0.0101,0.025,14.21,-17.28,-19.99,50.36,-1.46,1.43
53697,52.371193,-1.511226,121,24.74,10.0,37.3,13 / 24,5369741,2019-08-31 11:19:49:820,0.0015,-0.1213,10.2489,0.0171,0.0114,9.8066,-0.0033,0.0484,0.0111,14.21,-17.28,-19.99,50.36,-1.46,1.43
53698,52.371193,-1.511226,121,24.74,10.0,37.3,13 / 24,5369841,2019-08-31 11:19:49:920,-0.1942,-0.2382,8.4083,0.0138,0.0093,9.8066,-0.0278,-0.0112,0.0229,13.84,-18.09,-19.52,51.86,-1.58,1.46
53699,52.371193,-1.511226,121,24.74,10.0,37.3,13 / 24,5369941,2019-08-31 11:19:50:020,0.1911,0.266,9.4556,0.0061,-0.0019,9.8066,0.0234,0.0026,-0.0048,12.93,-18.4,-19.85,53.83,-1.59,1.5
53700,52.371357,-1.510998,121,24.51,10.0,37.5,13 / 24,5370041,2019-08-31 11:19:50:120,-0.3169,0.1268,9.1295,-0.016,-0.013,9.8066,-0.0182,-0.0304,0.0026,13.62,-17.25,-20.42,50.37,-1.47,1.47
53701,52.371357,-1.510998,121,24.51,10.0,37.5,13 / 24,5370141,2019-08-31 11:19:50:220,-0.5596,-0.0188,9.2886,-0.0267,-0.0016,9.8066,0.0074,0.0069,-0.0134,13.62,-17.25,-20.42,50.37,-1.47,1.47
53702,52.371357,-1.510998,121,24.51,10.0,37.5,13 / 24,5370241,2019-08-31 11:19:50:320,-0.4522,0.0875,10.2402,-0.0073,0.0103,9.8066,0.0095,0.0218,-0.0006,14.29,-18.51,-18.8,53.36,-1.38,1.27
53703,52.371357,-1.510998,121,24.51,10.0,37.5,13 / 24,5370341,2019-08-31 11:19:50:420,-0.7859,0.0235,9.8311,-0.0045,0.0169,9.8066,0.0095,0.0218,-0.0006,13.34,-17.62,-20.29,53.8,-1.4,1.2
53704,52.371357,-1.510998,121,24.51,10.0,37.5,13 / 24,5370441,2019-08-31 11:19:50:520,-0.3414,-0.0063,9.9288,-0.0062,0.0423,9.8066,0.0052,0.042,0.009,13.34,-17.62,-20.29,53.8,-1.4,1.2
53705,52.371357,-1.510998,121,24.51,10.0,37.5,13 / 24,5370541,2019-08-31 11:19:50:620,-0.0133,0.148,9.8202,0.0203,0.0115,9.8066,0.0234,0.0218,0.0122,13.79,-17.47,-20.11,50.05,-1.58,1.02
53706,52.371357,-1.510998,121,24.51,10.0,37.5,13 / 24,5370641,2019-08-31 11:19:50:720,-0.057,-0.1741,8.6131,0.0297,0.0039,9.8066,0.0266,-0.0048,-0.007,13.2,-17.99,-20.06,53.56,-1.71,1.14
53707,52.371357,-1.510998,121,24.51,10.0,37.5,13 / 24,5370741,2019-08-31 11:19:50:820,0.276,0.0181,9.4729,-0.0023,-0.0008,9.8066,-0.0043,-0.0347,-0.0006,13.2,-17.99,-20.06,53.56,-1.71,1.14
53708,52.371357,-1.510998,121,24.51,10.0,37.5,13 / 24,5370840,2019-08-31 11:19:50:919,-0.0294,-0.1171,10.3973,-0.0087,-0.0015,9.8066,-0.0022,0.0442,0.0016,13.21,-18.57,-19.52,55.01,-1.67,1.1
53709,52.371357,-1.510998,121,24.51,10.0,37.5,13 / 24,5370941,2019-08-31 11:19:51:020,0.5674,0.2936,10.6597,-0.0056,0.002,9.8066,-0.0139,-0.0336,0.0133,13.64,-17.84,-19.89,51.59,-1.66,1.07
53710,52.37153,-1.510782,121,24.4,10.0,37.6,13 / 24,5371041,2019-08-31 11:19:51:120,-0.0863,0.1402,9.1118,0.0036,-0.0093,9.8066,0.0202,0.0293,0.0122,13.97,-17.69,-19.8,51.57,-1.64,1.01
53711,52.37153,-1.510782,121,24.4,10.0,37.6,13 / 24,5371141,2019-08-31 11:19:51:220,0.0631,-0.2274,8.8771,0.0103,-0.0193,9.8066,0.0202,0.0293,0.0122,13.97,-17.69,-19.8,51.57,-1.64,1.01
53712,52.37153,-1.510782,121,24.4,10.0,37.6,13 / 24,5371241,2019-08-31 11:19:51:320,0.2903,-0.0109,9.798,0.0319,0.0017,9.8066,0.0106,-0.0208,0.0143,14.18,-17.95,-19.41,51.69,-1.59,1.12
53713,52.37153,-1.510782,121,24.4,10.0,37.6,13 / 24,5371340,2019-08-31 11:19:51:419,0.0747,-0.2973,9.4337,0.0602,-0.0046,9.8065,-0.0129,0.0261,0.0186,13.48,-17.62,-20.2,51.69,-1.59,1.12
53714,52.37153,-1.510782,121,24.4,10.0,37.6,13 / 24,5371441,2019-08-31 11:19:51:520,0.4732,-0.0257,10.9854,0.0562,-0.006,9.8065,0.0042,0.0282,0.0101,13.48,-17.62,-20.2,51.69,-1.59,1.12
53715,52.37153,-1.510782,121,24.4,10.0,37.6,13 / 24,5371541,2019-08-31 11:19:51:620,-0.4964,-0.2072,10.0611,0.007,-0.0004,9.8066,-0.0086,-0.0432,0.0016,14.0,-17.73,-19.74,51.71,-1.76,1.4
53716,52.37153,-1.510782,121,24.4,10.0,37.6,13 / 24,5371641,2019-08-31 11:19:51:720,0.0861,-0.0835,9.3777,0.0193,0.0045,9.8066,0.0042,-0.0261,0.0069,14.0,-17.73,-19.74,51.69,-1.85,1.47
53717,52.37153,-1.510782,121,24.4,10.0,37.6,13 / 24,5371741,2019-08-31 11:19:51:820,-0.4895,-0.2583,9.5578,-0.0055,-0.0057,9.8066,0.0063,-0.0144,-0.007,14.0,-17.73,-19.74,51.69,-1.85,1.47
53718,52.37153,-1.510782,121,24.4,10.0,37.6,13 / 24,5371841,2019-08-31 11:19:51:920,-0.6652,-0.137,9.8879,-0.0252,-0.0083,9.8066,-0.0203,-0.0517,0.0143,13.97,-17.69,-19.8,51.71,-1.81,1.47
53719,52.37153,-1.510782,121,24.4,10.0,37.6,13 / 24,5371940,2019-08-31 11:19:52:019,-0.1544,-0.076,10.0026,-0.0126,0.004,9.8066,0.0138,0.0069,0.0122,14.25,-17.9,-19.4,51.75,-1.6,1.26
53720,52.3717,-1.510565,122,24.45,10.0,36.6,13 / 24,5372041,2019-08-31 11:19:52:120,-0.5442,-0.0074,10.6581,0.022,0.008,9.8066,0.0138,0.0069,0.0122,14.0,-17.73,-19.74,51.71,-1.57,1.18
53721,52.3717,-1.510565,122,24.45,10.0,36.6,13 / 24,5372141,2019-08-31 11:19:52:220,0.0507,-0.1117,11.1182,0.0472,0.0014,9.8065,0.0127,0.0388,0.0143,14.0,-17.73,-19.74,51.71,-1.57,1.18
53722,52.3717,-1.510565,122,24.45,10.0,36.6,13 / 24,5372241,2019-08-31 11:19:52:320,0.5133,-0.0997,9.6023,0.0229,-0.003,9.8066,0.0308,-0.0006,0.0037,14.18,-17.95,-19.41,51.73,-1.75,1.4
53723,52.3717,-1.510565,122,24.45,10.0,36.6,13 / 24,5372340,2019-08-31 11:19:52:419,0.0433,-0.0869,9.6251,0.0507,-0.0042,9.8065,0.0351,0.042,0.0005,13.64,-17.84,-19.89,51.74,-1.91,1.64
53724,52.3717,-1.510565,122,24.45,10.0,36.6,13 / 24,5372441,2019-08-31 11:19:52:520,0.438,-0.1045,10.3718,0.023,0.0066,9.8066,-0.015,-0.1071,0.0218,13.95,-17.09,-20.33,51.74,-1.91,1.64
53725,52.3717,-1.510565,122,24.45,10.0,36.6,13 / 24,5372541,2019-08-31 11:19:52:620,0.0342,0.2146,8.7794,0.0092,-0.0119,9.8066,0.0031,0.0005,0.009,13.92,-17.05,-20.39,50.25,-1.89,1.73
53726,52.3717,-1.510565,122,24.45,10.0,36.6,13 / 24,5372641,2019-08-31 11:19:52:720,0.2246,-0.1084,9.8337,-0.0102,-0.0168,9.8066,-0.0331,-0.04,0.0037,13.92,-17.05,-20.39,50.25,-1.89,1.73
53727,52.3717,-1.510565,122,24.45,10.0,36.6,13 / 24,5372741,2019-08-31 11:19:52:820,0.191,0.2567,9.2975,-0.0301,-0.0178,9.8066,-0.0331,-0.04,0.0037,14.21,-17.28,-19.99,50.33,-1.7,1.66
53728,52.3717,-1.510565,122,24.45,10.0,36.6,13 / 24,5372841,2019-08-31 11:19:52:920,0.0985,-0.1124,10.6782,-0.0036,0.0084,9.8066,-0.0235,0.0165,0.0133,14.62,-17.79,-19.23,49.97,-1.68,1.51
53729,52.3717,-1.510565,122,24.45,10.0,36.6,13 / 24,5372941,2019-08-31 11:19:53:020,0.3006,-0.0709,9.3247,-0.0034,0.014,9.8066,0.0351,0.0612,-0.0016,14.62,-17.79,-19.23,49.97,-1.68,1.51
53730,52.371895,-1.510364,121,24.54,10.0,36.2,13 / 24,5373041,2019-08-31 11:19:53:120,-0.0761,0.0283,10.1235,-0.0003,0.0088,9.8066,0.0084,0.0111,0.0047,14.34,-17.57,-19.64,51.75,-1.73,1.44
53731,52.371895,-1.510364,121,24.54,10.0,36.2,13 / 24,5373141,2019-08-31 11:19:53:220,0.1232,-0.0234,9.1449,0.0087,0.009,9.8066,0.0308,0.0016,-0.0006,14.44,-17.57,-19.57,51.75,-1.73,1.44
53732,52.371895,-1.510364,121,24.54,10.0,36.2,13 / 24,5373241,2019-08-31 11:19:53:320,0.1618,-0.3244,10.0824,0.0069,-0.0222,9.8066,0.0308,-0.0059,0.0005,14.36,-16.9,-20.2,50.3,-1.65,1.55
53733,52.371895,-1.510364,121,24.54,10.0,36.2,13 / 24,5373341,2019-08-31 11:19:53:420,-0.6344,-0.1072,9.0423,-0.0168,-0.0232,9.8066,0.0042,0.0069,0.0111,14.36,-16.9,-20.2,50.3,-1.65,1.55
53734,52.371895,-1.510364,121,24.54,10.0,36.2,13 / 24,5373440,2019-08-31 11:19:53:519,-0.1717,0.0123,9.2733,-0.0127,-0.0249,9.8066,0.0159,0.0356,0.0047,13.77,-17.43,-20.17,50.42,-1.48,1.56
53735,52.371895,-1.510364,121,24.54,10.0,36.2,13 / 24,5373541,2019-08-31 11:19:53:620,-0.1523,-0.216,9.951,-0.0253,-0.0408,9.8065,0.0159,0.0356,0.0047,14.39,-16.94,-20.15,50.62,-1.21,1.6
53736,52.371895,-1.510364,121,24.54,10.0,36.2,13 / 24,5373641,2019-08-31 11:19:53:720,0.0616,-0.1287,8.9251,0.0056,-0.0179,9.8066,0.0255,0.0229,0.0069,14.39,-16.94,-20.15,50.62,-1.21,1.6
53737,52.371895,-1.510364,121,24.54,10.0,36.2,13 / 24,5373741,2019-08-31 11:19:53:820,-0.0999,-0.0735,9.1746,-0.0014,0.001,9.8067,0.0159,0.0356,0.0058,14.34,-17.57,-19.64,52.35,-1.0,1.7
53738,52.371895,-1.510364,121,24.54,10.0,36.2,13 / 24,5373841,2019-08-31 11:19:53:920,-0.0247,0.0834,10.0741,0.0083,0.0227,9.8066,0.0148,0.0836,-0.0091,13.81,-18.06,-19.57,52.35,-1.0,1.69
53739,52.371895,-1.510364,121,24.54,10.0,36.2,13 / 24,5373941,2019-08-31 11:19:54:020,-0.1324,-0.0271,8.7792,0.0024,0.0344,9.8066,-0.0171,-0.0464,0.0207,13.81,-18.06,-19.57,52.35,-1.0,1.69
53740,52.37206,-1.510148,122,24.21,11.0,36.6,13 / 24,5374041,2019-08-31 11:19:54:120,-0.044,0.052,8.9541,-0.0139,-0.0062,9.8066,0.0148,-0.0102,0.0047,13.95,-17.09,-20.33,50.63,-1.17,1.58
53741,52.37206,-1.510148,122,24.21,11.0,36.6,13 / 24,5374140,2019-08-31 11:19:54:219,0.1143,-0.083,9.1134,-0.0267,-0.0052,9.8066,0.034,0.0122,0.0186,15.62,-17.1,-19.08,50.63,-1.17,1.58
53742,52.37206,-1.510148,122,24.21,11.0,36.6,13 / 24,5374240,2019-08-31 11:19:54:319,-0.3902,0.0147,8.8941,-0.008,-0.0059,9.8066,0.0351,0.0143,0.0133,14.72,-18.34,-18.63,50.32,-1.11,1.56
53743,52.37206,-1.510148,122,24.21,11.0,36.6,13 / 24,5374341,2019-08-31 11:19:54:420,0.1898,-0.1065,9.53,0.0127,-0.0177,9.8066,0.001,0.0165,0.0037,14.72,-18.34,-18.63,50.32,-1.11,1.56
53744,52.37206,-1.510148,122,24.21,11.0,36.6,13 / 24,5374441,2019-08-31 11:19:54:520,0.0424,-0.2283,9.4502,-0.0101,-0.0264,9.8066,0.001,0.0165,0.0037,14.29,-18.51,-18.8,53.73,-1.08,1.69
53745,52.37206,-1.510148,122,24.21,11.0,36.6,13 / 24,5374541,2019-08-31 11:19:54:620,-0.2094,-0.1005,8.541,-0.0214,-0.0566,9.8065,0.0031,-0.007,-0.008,15.51,-18.06,-18.26,48.83,-0.74,1.78
53746,52.37206,-1.510148,122,24.21,11.0,36.6,13 / 24,5374641,2019-08-31 11:19:54:720,0.0423,-0.0184,10.3603,-0.03,-0.0118,9.8066,0.017,-0.0357,-0.0208,13.83,-18.91,-18.74,54.04,-0.57,1.7
53747,52.37206,-1.510148,122,24.21,11.0,36.6,13 / 24,5374741,2019-08-31 11:19:54:820,-0.3707,-0.0963,10.4883,-0.0206,-0.0014,9.8066,-0.0161,0.0239,0.0026,13.83,-18.91,-18.74,54.04,-0.57,1.7
53748,52.37206,-1.510148,122,24.21,11.0,36.6,13 / 24,5374841,2019-08-31 11:19:54:920,-0.3029,0.0678,9.4437,-0.0342,0.0033,9.8066,-0.0044,0.0175,0.0005,13.03,-18.84,-19.37,56.0,-0.47,1.52
53749,52.37206,-1.510148,122,24.21,11.0,36.6,13 / 24,5374941,2019-08-31 11:19:55:020,-0.2909,0.0127,9.8182,-0.0153,0.0256,9.8066,-0.0171,0.025,0.0005,9.77,-21.52,-18.48,65.69,-0.47,1.45
53750,52.37225,-1.50996,120,24.21,11.0,35.3,13 / 24,5375040,2019-08-31 11:19:55:119,-0.3122,-0.1226,10.1359,-0.0057,0.0483,9.8065,0.0191,0.0229,0.0026,14.9,-19.03,-17.77,51.9,-0.71,1.3
53751,52.37225,-1.50996,120,24.21,11.0,35.3,13 / 24,5375141,2019-08-31 11:19:55:220,-0.1407,0.0316,10.7806,0.0261,-0.0137,9.8066,0.0415,0.0048,-0.0048,14.9,-19.03,-17.77,51.9,-0.71,1.3
53752,52.37225,-1.50996,120,24.21,11.0,35.3,13 / 24,5375240,2019-08-31 11:19:55:319,0.0483,-0.068,9.9873,0.0232,-0.0109,9.8066,0.0415,0.0048,-0.0048,14.83,-18.04,-18.83,50.49,-0.74,1.47
53753,52.37225,-1.50996,120,24.21,11.0,35.3,13 / 24,5375341,2019-08-31 11:19:55:420,-0.5392,-0.2897,9.598,-0.0004,-0.0136,9.8066,0.001,-0.0048,0.009,14.28,-18.24,-19.06,52.44,-0.78,1.61
53754,52.37225,-1.50996,120,24.21,11.0,35.3,13 / 24,5375441,2019-08-31 11:19:55:520,-0.5274,-0.2181,8.4533,-0.0179,-0.0456,9.8065,-0.0086,-0.0283,0.0154,14.28,-18.24,-19.06,52.44,-0.78,1.61
53755,52.37225,-1.50996,120,24.21,11.0,35.3,13 / 24,5375541,2019-08-31 11:19:55:620,-0.1571,-0.4733,8.7851,-0.0113,-0.0462,9.8065,-0.0001,-0.0219,0.0175,14.5,-17.18,-19.86,49.21,-0.5,1.69
53756,52.37225,-1.50996,120,24.21,11.0,35.3,13 / 24,5375642,2019-08-31 11:19:55:721,0.0899,-0.3648,9.9073,-0.0207,-0.074,9.8063,0.001,0.0495,0.009,14.87,-17.41,-19.39,49.53,-0.1,1.89
53757,52.37225,-1.50996,120,24.21,11.0,35.3,13 / 24,5375741,2019-08-31 11:19:55:820,-0.1859,-0.0134,9.5235,-0.0037,-0.0137,9.8066,-0.0075,0.0005,-0.0112,13.59,-18.52,-19.3,49.53,-0.1,1.89
53758,52.37225,-1.50996,120,24.21,11.0,35.3,13 / 24,5375841,2019-08-31 11:19:55:920,0.0362,-0.178,9.0514,0.0194,0.0083,9.8066,0.0106,0.0335,-0.0155,13.59,-18.52,-19.3,49.53,-0.1,1.89
53759,52.37225,-1.50996,120,24.21,11.0,35.3,13 / 24,5375941,2019-08-31 11:19:56:020,0.0672,-0.2132,10.9654,0.0353,0.0252,9.8066,-0.031,0.0143,0.0122,14.04,-17.34,-20.05,51.47,-0.21,1.94
53760,52.37241,-1.509742,121,23.65,11.0,36.2,13 / 24,5376041,2019-08-31 11:19:56:120,0.0858,0.3696,9.737,0.0109,0.0165,9.8066,-0.031,0.0143,0.0122,14.87,-16.39,-20.26,47.77,-0.45,2.01
53761,52.37241,-1.509742,121,23.65,11.0,36.2,13 / 24,5376141,2019-08-31 11:19:56:220,0.0081,-0.1933,9.9341,0.0062,0.0084,9.8066,-0.0203,-0.0208,0.0165,15.32,-16.23,-20.05,47.77,-0.45,2.01
53762,52.37241,-1.509742,121,23.65,11.0,36.2,13 / 24,5376241,2019-08-31 11:19:56:320,-0.0112,-0.008,10.6753,-0.0155,0.0071,9.8066,0.0351,-0.0166,-0.008,15.32,-16.23,-20.05,47.77,-0.45,2.01
53763,52.37241,-1.509742,121,23.65,11.0,36.2,13 / 24,5376341,2019-08-31 11:19:56:420,-0.1215,0.4112,8.3857,-0.0077,-0.0326,9.8066,0.0159,-0.0336,0.0069,14.6,-17.19,-19.78,49.39,-0.42,1.91
53764,52.37241,-1.509742,121,23.65,11.0,36.2,13 / 24,5376441,2019-08-31 11:19:56:520,-0.1235,-0.3788,8.8496,0.0019,-0.0644,9.8064,-0.0235,-0.0123,0.0047,15.15,-16.64,-19.83,49.7,-0.14,2.17
53765,52.37241,-1.509742,121,23.65,11.0,36.2,13 / 24,5376541,2019-08-31 11:19:56:620,-0.083,-0.1388,10.6182,0.0039,0.0007,9.8067,-0.0544,0.0016,0.0079,14.99,-17.05,-19.61,49.7,-0.16,2.18
53766,52.37241,-1.509742,121,23.65,11.0,36.2,13 / 24,5376641,2019-08-31 11:19:56:720,0.4061,0.2259,10.4745,-0.0016,0.0028,9.8066,0.0159,0.0143,0.0015,14.99,-17.05,-19.61,49.7,-0.16,2.18
53767,52.37241,-1.509742,121,23.65,11.0,36.2,13 / 24,5376741,2019-08-31 11:19:56:820,0.015,0.1467,9.6528,0.0449,0.0114,9.8065,0.0436,0.0644,0.0037,14.69,-16.14,-20.58,48.18,-0.11,2.24
53768,52.37241,-1.509742,121,23.65,11.0,36.2,13 / 24,5376841,2019-08-31 11:19:56:920,0.1351,0.7398,9.5495,0.07,0.0314,9.8064,0.0436,0.0644,0.0037,14.92,-16.39,-20.22,48.06,-0.34,2.39
53769,52.37241,-1.509742,121,23.65,11.0,36.2,13 / 24,5376941,2019-08-31 11:19:57:020,0.2627,0.4394,11.028,0.1369,0.0402,9.8056,0.017,0.0069,0.0101,15.18,-16.84,-19.64,49.49,-1.05,2.83
53770,52.372578,-1.509564,120,23.37,11.0,36.0,13 / 24,5377041,2019-08-31 11:19:57:120,0.2621,0.2458,10.2076,0.0263,-0.002,9.8066,0.0063,-0.0251,0.0186,15.18,-16.84,-19.64,49.49,-1.05,2.83
53771,52.372578,-1.509564,120,23.37,11.0,36.0,13 / 24,5377140,2019-08-31 11:19:57:219,0.6167,0.2889,8.9922,-0.0045,-0.0124,9.8066,0.0127,0.0239,-0.0038,14.27,-16.54,-20.56,51.44,-1.14,2.95
53772,52.372578,-1.509564,120,23.37,11.0,36.0,13 / 24,5377240,2019-08-31 11:19:57:319,0.3334,0.001,9.3191,-0.0137,-0.0181,9.8066,-0.0289,-0.0123,-0.0038,14.91,-16.6,-20.05,49.59,-1.01,2.95
53773,52.372578,-1.509564,120,23.37,11.0,36.0,13 / 24,5377341,2019-08-31 11:19:57:420,-0.121,-0.2584,9.879,-0.0238,-0.029,9.8066,-0.0097,-0.0176,-0.0049,14.91,-16.6,-20.05,49.59,-1.01,2.95
53774,52.372578,-1.509564,120,23.37,11.0,36.0,13 / 24,5377441,2019-08-31 11:19:57:520,-0.1861,-0.0547,9.2473,-0.0621,-0.0391,9.8064,-0.0044,-0.0251,-0.0006,14.91,-16.6,-20.05,49.77,-0.6,2.83
53775,52.372578,-1.509564,120,23.37,11.0,36.0,13 / 24,5377541,2019-08-31 11:19:57:620,-0.2106,0.1847,9.369,-0.0075,0.0014,9.8066,0.0297,0.0346,-0.0059,14.87,-15.97,-20.58,49.77,-0.6,2.83
53776,52.372578,-1.509564,120,23.37,11.0,36.0,13 / 24,5377641,2019-08-31 11:19:57:720,-0.2754,-0.1169,9.4749,0.0069,-0.0052,9.8066,-0.015,-0.0368,0.0047,14.15,-16.51,-20.67,51.76,-0.6,2.88
53777,52.372578,-1.509564,120,23.37,11.0,36.0,13 / 24,5377741,2019-08-31 11:19:57:820,0.0946,0.3462,9.4462,-0.0287,-0.0117,9.8066,-0.015,-0.0368,0.0047,14.15,-16.51,-20.67,51.76,-0.6,2.88
53778,52.372578,-1.509564,120,23.37,11.0,36.0,13 / 24,5377841,2019-08-31 11:19:57:920,0.1739,0.1524,9.4235,-0.0002,0.0051,9.8066,0.0084,0.0122,-0.0049,14.08,-15.81,-21.26,50.22,-0.44,2.79
53779,52.372578,-1.509564,120,23.37,11.0,36.0,13 / 24,5377941,2019-08-31 11:19:58:020,-0.0621,0.3107,9.9925,0.0167,0.0199,9.8066,0.0244,0.0633,-0.0017,14.39,-16.09,-20.83,50.19,-0.46,2.77
53780,52.372776,-1.509377,118,23.27,11.0,35.8,13 / 24,5378041,2019-08-31 11:19:58:120,-0.3963,0.0045,10.2051,0.0275,0.025,9.8066,0.0244,0.0815,0.0047,14.39,-16.09,-20.83,50.19,-0.46,2.77
53781,52.372776,-1.509377,118,23.27,11.0,35.8,13 / 24,5378142,2019-08-31 11:19:58:221,0.1828,0.0497,9.4084,0.0034,-0.009,9.8066,0.0287,-0.0091,0.0015,14.78,-15.92,-20.69,48.14,-0.68,2.8
53782,52.372776,-1.509377,118,23.27,11.0,35.8,13 / 24,5378241,2019-08-31 11:19:58:320,0.4237,0.109,9.8996,0.0101,-0.0091,9.8066,-0.015,-0.0155,0.009,14.84,-15.94,-20.64,48.18,-0.68,2.88
53783,52.372776,-1.509377,118,23.27,11.0,35.8,13 / 24,5378341,2019-08-31 11:19:58:420,-0.2185,-0.0954,9.0426,0.003,0.0112,9.8066,0.002,0.0282,0.009,14.84,-15.94,-20.64,48.18,-0.68,2.88
53784,52.372776,-1.509377,118,23.27,11.0,35.8,13 / 24,5378441,2019-08-31 11:19:58:520,-0.2777,-0.2677,9.4656,-0.014,-0.0348,9.8066,0.0063,-0.0368,0.0069,14.44,-15.71,-21.09,50.07,-0.7,2.83
53785,52.372776,-1.509377,118,23.27,11.0,35.8,13 / 24,5378541,2019-08-31 11:19:58:620,-0.3829,-0.3788,9.3042,0.0,-0.0217,9.8066,0.0116,0.0271,-0.0006,14.84,-15.34,-21.08,46.6,-0.49,2.9
53786,52.372776,-1.509377,118,23.27,11.0,35.8,13 / 24,5378641,2019-08-31 11:19:58:720,0.0883,0.0551,10.7686,0.0059,0.0053,9.8066,0.0116,0.0271,-0.0006,15.23,-15.76,-20.48,46.6,-0.49,2.9
53787,52.372776,-1.509377,118,23.27,11.0,35.8,13 / 24,5378741,2019-08-31 11:19:58:820,-0.1443,0.0193,9.994,0.0249,0.0256,9.8066,-0.0161,0.0591,0.0164,15.23,-15.76,-20.48,46.6,-0.49,2.9
53788,52.372776,-1.509377,118,23.27,11.0,35.8,13 / 24,5378841,2019-08-31 11:19:58:920,0.1471,-0.0928,9.2001,0.0077,-0.0049,9.8066,0.0265,0.0271,-0.0038,14.99,-15.51,-20.85,48.19,-0.7,2.9
53789,52.372776,-1.509377,118,23.27,11.0,35.8,13 / 24,5378942,2019-08-31 11:19:59:021,-0.0349,0.007,8.9261,0.0111,-0.0135,9.8066,0.0042,-0.0219,0.0196,14.54,-15.66,-21.05,48.26,-0.68,3.0
53790,52.372776,-1.509377,118,23.27,11.0,35.8,13 / 24,5379042,2019-08-31 11:19:59:121,0.2445,0.1386,9.0902,-0.0126,-0.0133,9.8066,0.0095,-0.024,0.0111,14.84,-15.94,-20.64,48.33,-0.57,3.0
53791,52.37294,-1.509173,119,22.84,10.0,36.2,13 / 24,5379141,2019-08-31 11:19:59:220,-0.2424,0.1544,9.4959,-0.0049,-0.0251,9.8066,0.001,-0.0293,-0.0017,14.84,-15.94,-20.64,48.33,-0.57,3.0
53792,52.37294,-1.509173,119,22.84,10.0,36.2,13 / 24,5379241,2019-08-31 11:19:59:320,0.3446,0.353,9.977,-0.0292,-0.0454,9.8065,0.0095,0.0005,-0.0038,14.31,-16.08,-20.9,50.5,-0.26,3.05
53793,52.37294,-1.509173,119,22.84,10.0,36.2,13 / 24,5379341,2019-08-31 11:19:59:420,0.0066,-0.0613,8.8386,-0.0023,-0.0148,9.8066,0.0159,0.0346,0.0026,15.14,-15.07,-21.06,50.5,-0.19,3.09
53794,52.37294,-1.509173,119,22.84,10.0,36.2,13 / 24,5379441,2019-08-31 11:19:59:520,0.1133,0.2033,9.9358,0.0354,0.0302,9.8065,0.0159,0.0346,0.0026,15.14,-15.07,-21.06,46.92,-0.19,3.09
53795,52.37294,-1.509173,119,22.84,10.0,36.2,13 / 24,5379541,2019-08-31 11:19:59:620,-0.4102,-0.0075,10.0302,0.0293,0.0468,9.8065,0.0052,0.0644,0.0015,14.64,-15.72,-20.94,48.47,-0.46,3.12
53796,52.37294,-1.509173,119,22.84,10.0,36.2,13 / 24,5379642,2019-08-31 11:19:59:721,-0.3319,0.1221,10.3292,0.0655,0.0827,9.8061,-0.0182,-0.0485,0.0111,14.79,-15.3,-21.15,48.47,-0.46,3.12
53797,52.37294,-1.509173,119,22.84,10.0,36.2,13 / 24,5379742,2019-08-31 11:19:59:821,0.7504,0.4883,9.6718,0.0813,0.1037,9.8058,0.0106,-0.0229,-0.0176,14.79,-15.3,-21.15,48.47,-0.46,3.12
53798,52.37294,-1.509173,119,22.84,10.0,36.2,13 / 24,5379842,2019-08-31 11:19:59:921,-0.2671,0.557,8.7694,0.0013,0.0174,9.8066,0.0063,-0.0336,-0.023,14.54,-15.66,-21.05,47.95,-1.23,3.08
53799,52.37294,-1.509173,119,22.84,10.0,36.2,13 / 24,5379941,2019-08-31 11:20:00:020,-0.5406,0.2067,9.2389,-0.0164,0.0303,9.8066,0.0052,-0.0613,-0.0049,14.34,-15.44,-21.35,47.95,-1.23,3.08
53800,52.3731,-1.508969,118,22.74,10.0,36.2,14 / 24,5380041,2019-08-31 11:20:00:120,0.2884,0.2197,9.3806,-0.0288,0.0391,9.8065,0.0212,0.0538,-0.008,14.82,-14.84,-21.45,46.02,-1.28,2.8
53801,52.3731,-1.508969,118,22.74,10.0,36.2,14 / 24,5380141,2019-08-31 11:20:00:220,0.0245,-0.0535,9.1665,0.0126,0.0256,9.8066,0.0042,0.0293,-0.007,14.82,-14.84,-21.45,46.02,-1.28,2.8
53802,52.3731,-1.508969,118,22.74,10.0,36.2,14 / 24,5380241,2019-08-31 11:20:00:320,0.0092,0.1109,9.8077,0.0162,0.0317,9.8066,0.0042,0.0293,-0.007,14.67,-15.29,-21.24,45.88,-1.44,2.75
53803,52.3731,-1.508969,118,22.74,10.0,36.2,14 / 24,5380341,2019-08-31 11:20:00:420,0.0552,0.1309,9.0287,0.0049,0.001,9.8067,0.0148,-0.0379,-0.0027,14.46,-15.08,-21.53,47.64,-1.64,2.69
53804,52.3731,-1.508969,118,22.74,10.0,36.2,14 / 24,5380441,2019-08-31 11:20:00:520,0.19,0.1555,9.4265,-0.0255,-0.0154,9.8066,-0.0214,-0.0453,0.0015,13.73,-16.02,-21.33,49.35,-1.6,2.65
53805,52.3731,-1.508969,118,22.74,10.0,36.2,14 / 24,5380540,2019-08-31 11:20:00:619,-0.4533,0.0617,9.532,-0.0354,-0.0253,9.8066,0.0031,-0.0347,-0.0017,14.39,-16.09,-20.83,49.35,-1.6,2.65
53806,52.3731,-1.508969,118,22.74,10.0,36.2,14 / 24,5380640,2019-08-31 11:20:00:719,0.7527,0.2346,8.9497,-0.0408,-0.0329,9.8065,-0.0001,-0.008,0.0026,14.39,-16.09,-20.83,49.35,-1.6,2.65
53807,52.3731,-1.508969,118,22.74,10.0,36.2,14 / 24,5380741,2019-08-31 11:20:00:820,-0.0976,-0.2824,9.9299,-0.0084,-0.0074,9.8066,-0.0065,-0.0197,-0.0155,14.19,-15.87,-21.14,49.52,-1.3,2.6
53808,52.3731,-1.508969,118,22.74,10.0,36.2,14 / 24,5380841,2019-08-31 11:20:00:920,-0.081,-0.2605,10.1016,-0.0272,-0.0243,9.8066,-0.0448,-0.0325,0.0069,14.78,-15.92,-20.69,47.73,-1.09,2.57
53809,52.3731,-1.508969,118,22.74,10.0,36.2,14 / 24,5380940,2019-08-31 11:20:01:019,-0.086,-0.1093,9.9338,-0.0132,0.0039,9.8066,-0.0448,-0.0325,0.0069,14.78,-15.92,-20.69,47.73,-1.09,2.57
53810,52.37326,-1.508781,118,22.66,10.0,36.8,14 / 24,5381041,2019-08-31 11:20:01:120,0.5476,-0.1263,10.7198,0.0112,0.0275,9.8066,0.001,0.0388,-0.0049,14.72,-15.9,-20.75,47.71,-1.05,2.5
53811,52.37326,-1.508781,118,22.66,10.0,36.8,14 / 24,5381141,2019-08-31 11:20:01:220,0.3479,0.1892,9.4193,0.028,0.0325,9.8066,0.0361,0.0804,-0.0411,15.07,-16.19,-20.27,47.52,-1.3,2.49
53812,52.37326,-1.508781,118,22.66,10.0,36.8,14 / 24,5381241,2019-08-31 11:20:01:320,-0.1741,-0.2564,8.7665,0.0019,-0.025,9.8066,0.0138,-0.0229,0.0239,15.07,-16.19,-20.27,47.52,-1.3,2.49
53813,52.37326,-1.508781,118,22.66,10.0,36.8,14 / 24,5381341,2019-08-31 11:20:01:420,-0.0752,-0.1651,9.9998,-0.0059,-0.0256,9.8066,0.0116,0.0005,-0.0102,15.48,-16.68,-19.55,49.37,-1.09,2.64
53814,52.37326,-1.508781,118,22.66,10.0,36.8,14 / 24,5381441,2019-08-31 11:20:01:520,-0.0527,-0.1337,9.9179,-0.012,-0.0558,9.8065,-0.0054,-0.0038,-0.0006,15.02,-16.18,-20.31,49.37,-1.09,2.64
53815,52.37326,-1.508781,118,22.66,10.0,36.8,14 / 24,5381541,2019-08-31 11:20:01:620,0.1828,-0.4595,10.9307,-0.0241,-0.0653,9.8064,-0.0203,-0.0347,-0.0038,15.23,-16.41,-19.97,48.05,-0.71,2.78
53816,52.37326,-1.508781,118,22.66,10.0,36.8,14 / 24,5381641,2019-08-31 11:20:01:720,-0.0371,-0.0886,10.415,-0.02,0.0034,9.8066,0.0031,0.0143,0.0026,15.23,-16.41,-19.97,48.05,-0.71,2.78
53817,52.37326,-1.508781,118,22.66,10.0,36.8,14 / 24,5381741,2019-08-31 11:20:01:820,-0.2674,0.0178,9.9741,0.0156,0.0168,9.8066,-0.0075,0.0527,0.0079,14.31,-16.08,-20.9,50.02,-0.65,2.68
53818,52.37326,-1.508781,118,22.66,10.0,36.8,14 / 24,5381840,2019-08-31 11:20:01:919,-0.0098,0.1293,10.0316,0.0345,0.0505,9.8065,-0.0075,0.0527,0.0079,13.46,-16.02,-21.5,51.82,-1.0,2.65
53819,52.37326,-1.508781,118,22.66,10.0,36.8,14 / 24,5381940,2019-08-31 11:20:02:019,-0.258,-0.1962,9.6966,0.0164,0.0067,9.8066,0.0223,0.0229,-0.007,13.46,-16.02,-21.5,51.82,-1.0,2.65
53820,52.373425,-1.508586,116,22.54,10.0,37.1,14 / 24,5382040,2019-08-31 11:20:02:119,-0.2867,-0.306,9.3178,0.0048,-0.0324,9.8066,0.0191,0.0048,-0.0017,13.77,-16.27,-21.11,49.72,-1.09,2.7
53821,52.373425,-1.508586,116,22.54,10.0,37.1,14 / 24,5382141,2019-08-31 11:20:02:220,0.2911,-0.1973,8.9166,0.0003,-0.0634,9.8064,-0.0097,-0.0325,-0.0272,13.54,-15.99,-21.47,49.72,-1.09,2.7
53822,52.373425,-1.508586,116,22.54,10.0,37.1,14 / 24,5382241,2019-08-31 11:20:02:320,0.2556,0.0196,8.5991,-0.0136,-0.0178,9.8066,0.0159,0.0367,-0.0187,13.89,-15.78,-21.4,50.12,-0.68,2.9
53823,52.373425,-1.508586,116,22.54,10.0,37.1,14 / 24,5382341,2019-08-31 11:20:02:420,0.0295,0.1099,8.7494,-0.0069,-0.0175,9.8066,0.0127,-0.0325,-0.0017,14.41,-15.67,-21.14,50.12,-0.68,2.9
53824,52.373425,-1.508586,116,22.54,10.0,37.1,14 / 24,5382441,2019-08-31 11:20:02:520,-0.2615,-0.015,9.7332,-0.001,-0.028,9.8066,0.0255,0.0069,-0.0006,14.41,-15.67,-21.14,50.12,-0.68,2.9
53825,52.373425,-1.508586,116,22.54,10.0,37.1,14 / 24,5382540,2019-08-31 11:20:02:619,-0.2389,0.0975,10.7134,0.009,-0.013,9.8066,-0.0118,0.0144,-0.0134,14.29,-15.6,-21.27,50.27,-0.55,3.0
53826,52.373425,-1.508586,116,22.54,10.0,37.1,14 / 24,5382641,2019-08-31 11:20:02:720,0.1563,-0.2241,10.1241,0.0164,0.0044,9.8066,-0.0118,0.0144,-0.0134,14.31,-14.95,-21.72,48.61,-0.63,3.06
53827,52.373425,-1.508586,116,22.54,10.0,37.1,14 / 24,5382741,2019-08-31 11:20:02:820,-0.0666,0.0509,10.0616,0.0052,0.04,9.8066,-0.0363,0.0325,-0.0091,14.31,-14.95,-21.72,48.61,-0.63,3.06
53828,52.373425,-1.508586,116,22.54,10.0,37.1,14 / 24,5382841,2019-08-31 11:20:02:920,0.0038,0.1737,9.7355,-0.0109,0.0178,9.8066,-0.0086,-0.0208,0.0047,13.8,-15.06,-21.98,48.38,-0.83,2.93
53829,52.373425,-1.508586,116,22.54,10.0,37.1,14 / 24,5382941,2019-08-31 11:20:03:020,0.3683,0.0175,8.6635,-0.0286,0.0067,9.8066,-0.032,-0.0549,-0.008,14.6,-15.22,-21.34,46.35,-0.75,2.78
53830,52.373585,-1.508377,115,22.2,10.0,38.0,14 / 24,5383041,2019-08-31 11:20:03:120,-0.1707,0.0432,10.9238,-0.0434,-0.011,9.8065,-0.0363,-0.0165,-0.0038,15.0,-15.02,-21.2,46.35,-0.75,2.78
53831,52.373585,-1.508377,115,22.2,10.0,38.0,14 / 24,5383141,2019-08-31 11:20:03:220,0.1737,0.1501,10.3573,-0.0274,0.0105,9.8066,-0.0246,-0.0059,-0.0176,14.58,-15.86,-20.88,48.1,-0.46,2.5
53832,52.373585,-1.508377,115,22.2,10.0,38.0,14 / 24,5383241,2019-08-31 11:20:03:320,-0.4933,0.0463,10.0417,-0.0322,0.0224,9.8066,-0.0022,-0.0027,-0.007,14.58,-15.86,-20.88,48.1,-0.46,2.5
53833,52.373585,-1.508377,115,22.2,10.0,38.0,14 / 24,5383341,2019-08-31 11:20:03:420,0.1896,0.4389,11.0957,-0.0132,0.0354,9.8066,0.0393,0.0751,-0.0315,13.79,-15.59,-21.61,49.97,-0.43,2.27
53834,52.373585,-1.508377,115,22.2,10.0,38.0,14 / 24,5383441,2019-08-31 11:20:03:520,-0.3905,0.3337,10.3106,0.0002,0.0676,9.8064,0.0393,0.0751,-0.0315,13.59,-14.83,-22.26,47.84,-0.74,2.02
53835,52.373585,-1.508377,115,22.2,10.0,38.0,14 / 24,5383541,2019-08-31 11:20:03:620,-0.5781,0.1009,8.7582,0.013,0.012,9.8066,-0.0129,-0.0698,-0.0123,13.59,-14.83,-22.26,47.84,-0.74,2.02
53836,52.373585,-1.508377,115,22.2,10.0,38.0,14 / 24,5383641,2019-08-31 11:20:03:720,-0.3672,-0.0115,10.2198,-0.0243,-0.0071,9.8066,0.0095,-0.0528,-0.0379,14.34,-15.59,-21.24,49.49,-0.84,2.03
53837,52.373585,-1.508377,115,22.2,10.0,38.0,14 / 24,5383741,2019-08-31 11:20:03:820,-0.2649,-0.0131,10.6118,-0.0663,-0.0228,9.8064,-0.0193,-0.0858,-0.0262,13.51,-15.96,-21.52,49.65,-0.49,1.82
53838,52.373585,-1.508377,115,22.2,10.0,38.0,14 / 24,5383841,2019-08-31 11:20:03:920,0.1089,0.3106,9.5937,-0.0202,0.0031,9.8066,0.0084,-0.0283,-0.0389,13.51,-15.96,-21.52,49.65,-0.49,1.82
53839,52.373585,-1.508377,115,22.2,10.0,38.0,14 / 24,5383941,2019-08-31 11:20:04:020,0.1618,0.1563,11.9191,-0.0123,0.0116,9.8066,-0.0022,0.0548,-0.0166,13.47,-16.39,-21.21,51.65,-0.42,1.72
53840,52.373737,-1.508166,116,21.88,10.0,39.2,Dec-24,5384041,2019-08-31 11:20:04:120,0.3546,0.1753,9.7243,0.009,0.0101,9.8066,-0.0107,-0.0251,-0.0272,13.98,-15.81,-21.32,49.45,-0.4,1.46
53841,52.373737,-1.508166,116,21.88,10.0,39.2,Dec-24,5384140,2019-08-31 11:20:04:219,-0.0835,0.313,10.656,0.038,0.0494,9.8065,0.0287,0.0655,-0.0283,13.98,-15.81,-21.32,49.45,-0.4,1.46
53842,52.373737,-1.508166,116,21.88,10.0,39.2,Dec-24,5384241,2019-08-31 11:20:04:320,-0.369,0.3596,9.8254,0.0192,0.0282,9.8066,-0.0235,-0.0389,-0.0123,13.61,-15.97,-21.44,49.18,-0.76,1.44
53843,52.373737,-1.508166,116,21.88,10.0,39.2,Dec-24,5384341,2019-08-31 11:20:04:420,-0.0919,-0.1075,9.4105,-0.0339,-0.0077,9.8066,-0.0235,-0.0389,-0.0123,12.7,-16.9,-21.28,52.7,-0.96,1.42
53844,52.373737,-1.508166,116,21.88,10.0,39.2,Dec-24,5384441,2019-08-31 11:20:04:520,-0.2802,-0.2284,8.6821,-0.0683,-0.0439,9.8063,-0.0097,-0.0464,-0.0219,12.7,-16.9,-21.28,52.7,-0.96,1.42
53845,52.373737,-1.508166,116,21.88,10.0,39.2,Dec-24,5384541,2019-08-31 11:20:04:620,-0.1473,-0.2247,9.8694,-0.0236,-0.0005,9.8066,-0.0097,-0.0187,-0.0304,13.51,-15.96,-21.52,49.26,-0.52,1.26
53846,52.373737,-1.508166,116,21.88,10.0,39.2,Dec-24,5384641,2019-08-31 11:20:04:720,0.0438,-0.1471,9.4941,-0.0522,0.0175,9.8065,-0.0075,-0.0006,-0.0262,12.52,-16.67,-21.57,52.87,-0.39,0.96
53847,52.373737,-1.508166,116,21.88,10.0,39.2,Dec-24,5384742,2019-08-31 11:20:04:821,-0.0802,-0.197,10.0662,-0.0264,0.0041,9.8066,-0.0203,0.0229,-0.0187,13.98,-15.81,-21.32,49.11,-0.32,0.82
53848,52.373737,-1.508166,116,21.88,10.0,39.2,Dec-24,5384841,2019-08-31 11:20:04:920,-0.1229,0.3439,10.1327,-0.0118,0.0203,9.8066,-0.0278,-0.0091,-0.0325,13.98,-15.81,-21.32,49.11,-0.32,0.82
53849,52.373737,-1.508166,116,21.88,10.0,39.2,Dec-24,5384941,2019-08-31 11:20:05:020,-0.1687,0.2018,10.3367,-0.0322,0.0402,9.8065,-0.0203,0.0229,-0.0208,13.27,-17.37,-20.55,52.72,-0.36,0.69
53850,52.37386,-1.507957,119,21.48,10.0,40.8,Dec-24,5385041,2019-08-31 11:20:05:120,-0.0718,0.105,10.1336,-0.0464,0.0469,9.8064,-0.0203,0.0229,-0.0208,13.4,-17.03,-20.74,52.72,-0.36,0.69
53851,52.37386,-1.507957,119,21.48,10.0,40.8,Dec-24,5385141,2019-08-31 11:20:05:220,-0.317,-0.093,9.91,-0.052,0.0627,9.8063,-0.0043,0.0058,-0.0272,13.4,-17.03,-20.74,52.37,-0.47,0.23
53852,52.37386,-1.507957,119,21.48,10.0,40.8,Dec-24,5385241,2019-08-31 11:20:05:320,-0.0696,0.0523,9.8477,0.0155,0.0555,9.8065,-0.0395,0.0474,-0.0091,13.0,-17.8,-20.35,53.82,-0.51,0.04
53853,52.37386,-1.507957,119,21.48,10.0,40.8,Dec-24,5385342,2019-08-31 11:20:05:421,0.3919,0.0897,10.1107,0.0359,0.0538,9.8064,0.017,-0.0048,-0.0059,13.0,-17.8,-20.35,53.82,-0.51,0.04
53854,52.37386,-1.507957,119,21.48,10.0,40.8,Dec-24,5385441,2019-08-31 11:20:05:520,-0.2948,-0.2757,10.5662,-0.0245,-0.0497,9.8065,0.002,-0.0741,-0.0208,12.73,-16.94,-21.23,51.93,-0.89,0.03
53855,52.37386,-1.507957,119,21.48,10.0,40.8,Dec-24,5385541,2019-08-31 11:20:05:620,0.3174,-0.0926,7.9537,-0.0193,-0.0555,9.8065,-0.0054,-0.0645,-0.0336,12.95,-17.52,-20.62,53.81,-0.56,0.14
53856,52.37386,-1.507957,119,21.48,10.0,40.8,Dec-24,5385641,2019-08-31 11:20:05:720,0.491,0.6094,8.2086,0.0064,-0.0042,9.8066,0.0052,0.09,0.0111,12.95,-17.52,-20.62,53.81,-0.56,0.14
