,GPS LATITUDE (degrees),GPS LONGITUDE (degrees), GPS ALTITUDE (m),GPS SPEED (Kmh),GPS ACCURACY (m),GPS ORIENTATION (Â°), SATELLITES IN RANGE, TIME SINCE START (ms), DATE (YYYY-MO-DD HH-MI-SS_SSS),ACCELEROMETER X (m/s²) , ACCELEROMETER Y (m/s²), ACCELEROMETER Z (m/s²), GRAVITY X (m/s²), GRAVITY Y (m/s²), GRAVITY Z (m/s²), GYROSCOPE Yaw (rad/s), GYROSCOPE Pitch (rad/s), GYROSCOPE Roll (rad/s)
16802,46.585,-1.120638,62.53,35.26,18.224,333.5,0 / 25,872862,2019-08-12 13:34:18:298,-2.4227,0.0295,9.8633,-2.4009,0.0995,9.5077,-0.0066,0.0004,0.0077
16803,46.585,-1.120638,62.53,35.26,18.224,333.5,0 / 25,872862,2019-08-12 13:34:18:298,-2.4227,0.0295,9.8633,-2.4009,0.0995,9.5077,-0.0066,0.0004,0.0077
16804,46.585,-1.120638,62.53,35.26,18.224,333.5,0 / 25,872863,2019-08-12 13:34:18:299,-2.4227,0.0295,9.8633,-2.4009,0.0995,9.5077,-0.0066,0.0004,0.0077
16805,46.585,-1.120638,62.53,35.26,18.224,333.5,0 / 25,872863,2019-08-12 13:34:18:299,-2.4227,0.0295,9.8633,-2.4009,0.0995,9.5077,-0.0066,0.0004,0.0077
16806,46.585,-1.120638,62.53,35.26,18.224,333.5,0 / 25,872864,2019-08-12 13:34:18:300,-2.4227,0.0295,9.8633,-2.4009,0.0995,9.5077,-0.0066,0.0004,0.0077
16807,46.585,-1.120638,62.53,35.26,18.224,333.5,0 / 25,872864,2019-08-12 13:34:18:300,-2.4227,0.0295,9.8633,-2.4009,0.0995,9.5077,-0.0066,0.0004,0.0077
16808,46.585,-1.120638,62.53,35.26,18.224,333.5,0 / 25,872865,2019-08-12 13:34:18:301,-2.4227,0.0295,9.8633,-2.4009,0.0995,9.5077,-0.0066,0.0004,0.0077
16809,46.585,-1.120638,62.53,35.26,18.224,333.5,0 / 25,872865,2019-08-12 13:34:18:301,-2.4227,0.0295,9.8633,-2.4009,0.0995,9.5077,-0.0066,0.0004,0.0077
16810,46.585,-1.120638,62.53,35.26,18.224,333.5,0 / 25,872865,2019-08-12 13:34:18:301,-2.4227,0.0295,9.8633,-2.4009,0.0995,9.5077,-0.0066,0.0004,0.0077
16811,46.585,-1.120638,62.53,35.26,18.224,333.5,0 / 25,872866,2019-08-12 13:34:18:302,-2.4227,0.0295,9.8633,-2.4009,0.0995,9.5077,-0.0066,0.0004,0.0077
16812,46.585,-1.120638,62.53,35.26,18.224,333.5,0 / 25,872866,2019-08-12 13:34:18:302,-2.4227,0.0295,9.8633,-2.4009,0.0995,9.5077,-0.0066,0.0004,0.0077
16813,46.585,-1.120638,62.53,35.26,18.224,333.5,0 / 25,872866,2019-08-12 13:34:18:302,-2.4227,0.0295,9.8633,-2.4009,0.0995,9.5077,-0.0066,0.0004,0.0077
16814,46.585,-1.120638,62.53,35.26,18.224,333.5,0 / 25,872867,2019-08-12 13:34:18:303,-2.4227,0.0295,9.8633,-2.4009,0.0995,9.5077,-0.0066,0.0004,0.0077
16815,46.585,-1.120638,62.53,35.26,18.224,333.5,0 / 25,872867,2019-08-12 13:34:18:303,-2.4227,0.0295,9.8633,-2.4009,0.0995,9.5077,-0.0066,0.0004,0.0077
16816,46.585,-1.120638,62.53,35.26,18.224,333.5,0 / 25,872868,2019-08-12 13:34:18:304,-2.4227,0.0295,9.8633,-2.4009,0.0995,9.5077,-0.0066,0.0004,0.0077
16817,46.585,-1.120638,62.53,35.26,18.224,333.5,0 / 25,872868,2019-08-12 13:34:18:304,-2.4227,0.0295,9.8633,-2.4009,0.0995,9.5077,-0.0066,0.0004,0.0077
16818,46.585,-1.120638,62.53,35.26,18.224,333.5,0 / 25,872868,2019-08-12 13:34:18:304,-2.4227,0.0295,9.8633,-2.4009,0.0995,9.5077,-0.0066,0.0004,0.0077
16819,46.585,-1.120638,62.53,35.26,18.224,333.5,0 / 25,872869,2019-08-12 13:34:18:305,-2.4227,0.0295,9.8633,-2.4009,0.0995,9.5077,-0.0066,0.0004,0.0077
16820,46.585,-1.120638,62.53,35.26,18.224,333.5,0 / 25,872869,2019-08-12 13:34:18:305,-2.4227,0.0295,9.8633,-2.4009,0.0995,9.5077,-0.0066,0.0004,0.0077
16821,46.585,-1.120638,62.53,35.26,18.224,333.5,0 / 25,872870,2019-08-12 13:34:18:306,-2.4227,0.0295,9.8633,-2.4009,0.0995,9.5077,-0.0066,0.0004,0.0077
16822,46.585,-1.120638,62.53,35.26,18.224,333.5,0 / 25,872870,2019-08-12 13:34:18:306,-2.4227,0.0295,9.8633,-2.4009,0.0995,9.5077,-0.0066,0.0004,0.0077
16823,46.585,-1.120638,62.53,35.26,18.224,333.5,0 / 25,872870,2019-08-12 13:34:18:306,-2.4227,0.0295,9.8633,-2.4009,0.0995,9.5077,-0.0066,0.0004,0.0077
16824,46.585,-1.120638,62.53,35.26,18.224,333.5,0 / 25,872923,2019-08-12 13:34:18:359,-2.4227,0.0295,9.8633,-2.4009,0.0995,9.5077,-0.0066,0.0004,0.0077
16825,46.585,-1.120638,62.53,35.26,18.224,333.5,0 / 25,873024,2019-08-12 13:34:18:460,-2.4227,0.0295,9.8633,-2.4009,0.0995,9.5077,-0.0066,0.0004,0.0077
16826,46.585,-1.120638,62.53,35.26,18.224,333.5,0 / 25,873124,2019-08-12 13:34:18:560,-2.7268,-0.4913,9.7317,-2.4212,-0.2256,9.5004,-0.0077,-0.0017,0.0013
16827,46.585,-1.120638,62.53,35.26,18.224,333.5,0 / 25,873224,2019-08-12 13:34:18:660,-2.4586,-0.4476,9.8705,-2.4128,-0.3403,9.4991,0.0126,-0.0134,-0.0008
16828,46.585,-1.120638,62.53,35.26,18.224,333.5,0 / 25,873324,2019-08-12 13:34:18:760,-2.3988,-0.4201,9.6203,-2.4009,-0.3558,9.5015,0.0041,-0.0134,-0.0019
16829,46.585,-1.120638,62.53,35.26,18.224,333.5,0 / 25,873424,2019-08-12 13:34:18:860,-2.4353,-0.3746,9.8376,-2.3951,-0.3839,9.5019,0.0041,-0.0007,-0.0019
16830,46.585,-1.120638,62.53,35.26,18.224,333.5,0 / 25,873524,2019-08-12 13:34:18:960,-2.4437,-0.4344,10.1985,-2.3869,-0.386,9.5039,0.0019,-0.0102,-0.003
16831,46.585,-1.120638,62.53,35.26,18.224,333.5,0 / 25,873624,2019-08-12 13:34:19:060,-2.4664,-0.2189,9.916,-2.3694,-0.3832,9.5084,-0.0077,-0.0038,-0.0051
16832,46.585,-1.120638,62.53,35.26,18.224,333.5,0 / 25,873723,2019-08-12 13:34:19:159,-2.2988,-0.3387,10.1393,-2.3629,-0.3568,9.511,-0.0013,-0.0049,-0.0019
16833,46.585,-1.120638,62.53,35.26,18.224,333.5,0 / 25,873823,2019-08-12 13:34:19:259,-2.2138,-0.2327,9.6335,-2.3633,-0.3571,9.5109,-0.0002,0.0036,0.0002
16834,46.585,-1.120638,62.53,35.26,18.224,333.5,0 / 25,873923,2019-08-12 13:34:19:359,-2.0372,-0.4194,9.5982,-2.3613,-0.352,9.5116,0.0062,-0.007,0.0024
16835,46.585,-1.120638,62.53,35.26,18.224,333.5,0 / 25,874023,2019-08-12 13:34:19:459,-2.0839,-0.4937,9.7736,-2.3428,-0.3275,9.5171,0.0019,-0.0092,0.0013
16836,46.585,-1.120638,62.53,35.26,18.224,333.5,0 / 25,874123,2019-08-12 13:34:19:559,-2.2928,-0.3758,10.4415,-2.3287,-0.303,9.5213,0.0009,-0.0102,0.0013
16837,46.585,-1.120638,62.53,35.26,18.224,333.5,0 / 25,874223,2019-08-12 13:34:19:659,-2.2521,-0.3895,10.0705,-2.3055,-0.2754,9.5278,0.0009,-0.0113,0.0013
16838,46.585,-1.120638,62.53,35.26,18.224,333.5,0 / 25,874324,2019-08-12 13:34:19:760,-2.1869,-0.2656,9.5898,-2.2829,-0.2514,9.5339,-0.0045,-0.0124,0.0013
16839,46.585,-1.120638,62.53,35.26,18.224,333.5,0 / 25,874423,2019-08-12 13:34:19:859,-2.2719,-0.3781,9.8113,-2.2526,-0.2177,9.5419,-0.0013,-0.0092,0.0034
16840,46.585,-1.120638,62.53,35.26,18.224,333.5,0 / 25,874523,2019-08-12 13:34:19:959,-2.1354,-0.2106,9.4378,-2.2554,-0.2188,9.5413,-0.0055,0.0057,0.0024
16841,46.585,-1.120638,62.53,35.26,18.224,333.5,0 / 25,874624,2019-08-12 13:34:20:060,-2.2485,-0.1489,9.0601,-2.2505,-0.212,9.5426,-0.0023,-0.006,0.0034
16842,46.585,-1.120638,62.53,35.26,18.224,333.5,0 / 25,874724,2019-08-12 13:34:20:160,-2.1516,-0.013,9.3031,-2.2385,-0.2013,9.5456,-0.0034,-0.0007,0.0034
16843,46.585,-1.120638,62.53,35.26,18.224,333.5,0 / 25,874824,2019-08-12 13:34:20:260,-2.3275,-0.1872,9.7394,-2.2324,-0.1771,9.5475,-0.0002,-0.0049,0.0034
16844,46.585,-1.120638,62.53,35.26,18.224,333.5,0 / 25,874924,2019-08-12 13:34:20:360,-2.3509,0.0307,9.2385,-2.2247,-0.175,9.5494,-0.0066,-0.0081,0.0024
16845,46.585,-1.120638,62.53,35.26,18.224,333.5,0 / 25,875024,2019-08-12 13:34:20:460,-2.2473,-0.043,9.1577,-2.2035,-0.1437,9.5548,-0.0055,-0.0081,0.0034
16846,46.585,-1.120638,62.53,35.26,18.224,333.5,0 / 25,875124,2019-08-12 13:34:20:560,-2.3814,-0.0268,9.603,-2.1922,-0.1462,9.5574,0.003,-0.0081,0.0045
16847,46.585,-1.120638,62.53,35.26,18.224,333.5,0 / 25,875223,2019-08-12 13:34:20:659,-2.4113,-0.1292,9.5054,-2.1893,-0.1565,9.5579,-0.0023,0.0015,0.0024
16848,46.585,-1.120638,62.53,35.26,18.224,333.5,0 / 25,875324,2019-08-12 13:34:20:760,-2.3239,-0.1315,9.4396,-2.182,-0.1724,9.5593,-0.0045,-0.0113,-0.0019
16849,46.585,-1.120638,62.53,35.26,18.224,333.5,0 / 25,875424,2019-08-12 13:34:20:860,-2.458,-0.1782,9.9495,-2.1677,-0.1895,9.5622,-0.0098,-0.0145,-0.0051
16850,46.585,-1.120638,62.53,35.26,18.224,333.5,0 / 25,875524,2019-08-12 13:34:20:960,-2.2827,-0.1992,9.1702,-2.1693,-0.2085,9.5614,0.0009,0.0132,-0.003
16851,46.585,-1.120638,62.53,35.26,18.224,333.5,0 / 25,875624,2019-08-12 13:34:21:060,-2.555,-0.256,9.3217,-2.1694,-0.2141,9.5613,-0.0002,0.0079,-0.0019
16852,46.585,-1.120638,62.53,35.26,18.224,333.5,0 / 25,875723,2019-08-12 13:34:21:159,-2.3377,-0.1016,9.4575,-2.169,-0.2257,9.5611,0.0062,-0.0049,0.0002
16853,46.585,-1.120638,62.53,35.26,18.224,333.5,0 / 25,875823,2019-08-12 13:34:21:259,-2.4119,-0.2596,9.8316,-2.1544,-0.225,9.5644,0.003,-0.0177,-0.0008
16854,46.585,-1.120638,62.53,35.26,18.224,333.5,0 / 25,875923,2019-08-12 13:34:21:359,-2.3138,-0.2201,9.4827,-2.1411,-0.2249,9.5674,0.0019,-0.0028,0.0013
16855,46.585,-1.120638,62.53,35.26,18.224,333.5,0 / 25,876023,2019-08-12 13:34:21:459,-2.3605,-0.0932,9.7347,-2.1398,-0.2259,9.5677,0.0009,-0.0049,0.0013
16856,46.585,-1.120638,62.53,35.26,18.224,333.5,0 / 25,876124,2019-08-12 13:34:21:560,-2.2677,-0.0693,9.5347,-2.1234,-0.222,9.5714,-0.0087,-0.0028,0.0013
16857,46.585,-1.120638,62.53,35.26,18.224,333.5,0 / 25,876224,2019-08-12 13:34:21:660,-2.3521,0.0331,9.9412,-2.1198,-0.2281,9.5721,-0.0013,-0.0017,0.0013
16858,46.585,-1.120638,62.53,35.26,18.224,333.5,15 / 25,876323,2019-08-12 13:34:21:759,-2.2228,-0.1483,9.9992,-2.1052,-0.2276,9.5753,-0.0108,-0.0017,0.0013
16859,46.585,-1.120638,62.53,35.26,18.224,333.5,15 / 25,876424,2019-08-12 13:34:21:860,-2.1252,-0.1088,9.327,-2.103,-0.23,9.5757,-0.0055,0.0036,0.0034
16860,46.585,-1.120638,62.53,35.26,18.224,333.5,15 / 25,876523,2019-08-12 13:34:21:959,-2.0827,-0.2243,9.4868,-2.097,-0.2128,9.5775,0.0009,-0.0017,0.0077
16861,46.585,-1.120638,62.53,35.26,18.224,333.5,15 / 25,876623,2019-08-12 13:34:22:059,-2.3126,-0.1094,10.3482,-2.0768,-0.2006,9.5821,0.0009,-0.0209,0.0066
16862,46.585,-1.120638,62.53,35.26,18.224,333.5,15 / 25,876723,2019-08-12 13:34:22:159,-2.1989,0.1588,9.6969,-2.0473,-0.1926,9.5886,-0.0066,-0.0188,0.0066
16863,46.585,-1.120638,62.53,35.26,18.224,333.5,15 / 25,876824,2019-08-12 13:34:22:260,-1.8726,-0.0693,10.0196,-2.0218,-0.1475,9.5948,-0.0034,0.0057,0.0077
16864,46.585,-1.120638,62.53,35.26,18.224,333.5,15 / 25,876924,2019-08-12 13:34:22:360,-2.0343,-0.1717,9.8633,-2.0284,-0.1377,9.5936,0.0019,0.0079,0.0119
16865,46.585,-1.120638,62.53,35.26,18.224,333.5,15 / 25,877025,2019-08-12 13:34:22:461,-1.9361,-0.0238,10.1351,-2.0118,-0.0999,9.5975,-0.0045,-0.0102,0.0088
16866,46.585,-1.120638,62.53,35.26,18.224,333.5,15 / 25,877124,2019-08-12 13:34:22:560,-2.0325,-0.0699,9.8119,-1.99,-0.0585,9.6024,-0.0002,-0.0166,0.0088
16867,46.585,-1.120638,62.53,35.26,18.224,333.5,15 / 25,877223,2019-08-12 13:34:22:659,-1.9911,-0.1543,9.8358,-1.9782,-0.0372,9.605,-0.0034,-0.0007,0.0077
16868,46.587433,-1.122402,58.27,33.72,13.936001,332.5,0 / 25,877323,2019-08-12 13:34:22:759,-1.8325,-0.2267,10.1572,-1.9823,-0.0312,9.6042,0.0019,0.0015,0.0088
16869,46.587433,-1.122402,58.27,33.72,13.936001,332.5,0 / 25,877424,2019-08-12 13:34:22:860,-2.042,-0.1052,10.2171,-1.9834,-0.03,9.6039,-0.0002,-0.0049,0.0088
16870,46.587433,-1.122402,58.27,33.72,13.936001,332.5,0 / 25,877798,2019-08-12 13:34:23:234,-2.042,-0.1052,10.2171,-1.991,-0.0092,9.6024,-0.0023,-0.0007,0.0098
16871,46.587433,-1.122402,58.27,33.72,13.936001,332.5,0 / 25,877799,2019-08-12 13:34:23:235,-2.042,-0.1052,10.2171,-1.991,-0.0092,9.6024,-0.0023,-0.0007,0.0098
16872,46.587433,-1.122402,58.27,33.72,13.936001,332.5,0 / 25,877799,2019-08-12 13:34:23:235,-2.042,-0.1052,10.2171,-1.991,-0.0092,9.6024,-0.0023,-0.0007,0.0098
16873,46.587433,-1.122402,58.27,33.72,13.936001,332.5,0 / 25,877799,2019-08-12 13:34:23:235,-2.042,-0.1052,10.2171,-1.991,-0.0092,9.6024,-0.0023,-0.0007,0.0098
16874,46.587433,-1.122402,58.27,33.72,13.936001,332.5,0 / 25,877800,2019-08-12 13:34:23:236,-2.042,-0.1052,10.2171,-1.991,-0.0092,9.6024,-0.0023,-0.0007,0.0098
16875,46.587433,-1.122402,58.27,33.72,13.936001,332.5,0 / 25,877800,2019-08-12 13:34:23:236,-2.042,-0.1052,10.2171,-1.991,-0.0092,9.6024,-0.0023,-0.0007,0.0098
16876,46.587433,-1.122402,58.27,33.72,13.936001,332.5,0 / 25,877800,2019-08-12 13:34:23:236,-2.042,-0.1052,10.2171,-1.991,-0.0092,9.6024,-0.0023,-0.0007,0.0098
16877,46.587433,-1.122402,58.27,33.72,13.936001,332.5,0 / 25,877801,2019-08-12 13:34:23:237,-2.042,-0.1052,10.2171,-1.991,-0.0092,9.6024,-0.0023,-0.0007,0.0098
16878,46.587433,-1.122402,58.27,33.72,13.936001,332.5,0 / 25,877802,2019-08-12 13:34:23:238,-2.042,-0.1052,10.2171,-1.991,-0.0092,9.6024,-0.0023,-0.0007,0.0098
16879,46.587433,-1.122402,58.27,33.72,13.936001,332.5,0 / 25,877802,2019-08-12 13:34:23:238,-2.042,-0.1052,10.2171,-1.991,-0.0092,9.6024,-0.0023,-0.0007,0.0098
16880,46.587433,-1.122402,58.27,33.72,13.936001,332.5,0 / 25,877803,2019-08-12 13:34:23:239,-2.042,-0.1052,10.2171,-1.991,-0.0092,9.6024,-0.0023,-0.0007,0.0098
16881,46.587433,-1.122402,58.27,33.72,13.936001,332.5,0 / 25,877803,2019-08-12 13:34:23:239,-2.042,-0.1052,10.2171,-1.991,-0.0092,9.6024,-0.0023,-0.0007,0.0098
16882,46.587433,-1.122402,58.27,33.72,13.936001,332.5,0 / 25,877803,2019-08-12 13:34:23:239,-2.042,-0.1052,10.2171,-1.991,-0.0092,9.6024,-0.0023,-0.0007,0.0098
16883,46.587433,-1.122402,58.27,33.72,13.936001,332.5,0 / 25,877804,2019-08-12 13:34:23:240,-2.042,-0.1052,10.2171,-1.991,-0.0092,9.6024,-0.0023,-0.0007,0.0098
16884,46.587433,-1.122402,58.27,33.72,13.936001,332.5,0 / 25,877804,2019-08-12 13:34:23:240,-2.042,-0.1052,10.2171,-1.991,-0.0092,9.6024,-0.0023,-0.0007,0.0098
16885,46.587433,-1.122402,58.27,33.72,13.936001,332.5,0 / 25,877804,2019-08-12 13:34:23:240,-2.042,-0.1052,10.2171,-1.991,-0.0092,9.6024,-0.0023,-0.0007,0.0098
16886,46.587433,-1.122402,58.27,33.72,13.936001,332.5,0 / 25,877805,2019-08-12 13:34:23:241,-2.042,-0.1052,10.2171,-1.991,-0.0092,9.6024,-0.0023,-0.0007,0.0098
16887,46.587433,-1.122402,58.27,33.72,13.936001,332.5,0 / 25,877805,2019-08-12 13:34:23:241,-2.042,-0.1052,10.2171,-1.991,-0.0092,9.6024,-0.0023,-0.0007,0.0098
16888,46.587433,-1.122402,58.27,33.72,13.936001,332.5,0 / 25,877806,2019-08-12 13:34:23:242,-2.042,-0.1052,10.2171,-1.991,-0.0092,9.6024,-0.0023,-0.0007,0.0098
16889,46.587433,-1.122402,58.27,33.72,13.936001,332.5,0 / 25,877806,2019-08-12 13:34:23:242,-2.042,-0.1052,10.2171,-1.991,-0.0092,9.6024,-0.0023,-0.0007,0.0098
16890,46.587433,-1.122402,58.27,33.72,13.936001,332.5,0 / 25,877806,2019-08-12 13:34:23:242,-2.042,-0.1052,10.2171,-1.991,-0.0092,9.6024,-0.0023,-0.0007,0.0098
16891,46.587433,-1.122402,58.27,33.72,13.936001,332.5,0 / 25,877807,2019-08-12 13:34:23:243,-2.042,-0.1052,10.2171,-1.991,-0.0092,9.6024,-0.0023,-0.0007,0.0098
16892,46.587433,-1.122402,58.27,33.72,13.936001,332.5,0 / 25,877807,2019-08-12 13:34:23:243,-2.042,-0.1052,10.2171,-1.991,-0.0092,9.6024,-0.0023,-0.0007,0.0098
16893,46.587433,-1.122402,58.27,33.72,13.936001,332.5,0 / 25,877809,2019-08-12 13:34:23:245,-2.042,-0.1052,10.2171,-1.991,-0.0092,9.6024,-0.0023,-0.0007,0.0098
16894,46.587433,-1.122402,58.27,33.72,13.936001,332.5,0 / 25,877809,2019-08-12 13:34:23:245,-2.042,-0.1052,10.2171,-1.991,-0.0092,9.6024,-0.0023,-0.0007,0.0098
16895,46.587433,-1.122402,58.27,33.72,13.936001,332.5,0 / 25,877810,2019-08-12 13:34:23:246,-2.042,-0.1052,10.2171,-1.991,-0.0092,9.6024,-0.0023,-0.0007,0.0098
16896,46.587433,-1.122402,58.27,33.72,13.936001,332.5,0 / 25,877811,2019-08-12 13:34:23:247,-2.042,-0.1052,10.2171,-1.991,-0.0092,9.6024,-0.0023,-0.0007,0.0098
16897,46.587433,-1.122402,58.27,33.72,13.936001,332.5,0 / 25,877813,2019-08-12 13:34:23:249,-2.042,-0.1052,10.2171,-1.991,-0.0092,9.6024,-0.0023,-0.0007,0.0098
16898,46.587433,-1.122402,58.27,33.72,13.936001,332.5,0 / 25,877813,2019-08-12 13:34:23:249,-2.042,-0.1052,10.2171,-1.991,-0.0092,9.6024,-0.0023,-0.0007,0.0098
16899,46.587433,-1.122402,58.27,33.72,13.936001,332.5,0 / 25,877814,2019-08-12 13:34:23:250,-2.042,-0.1052,10.2171,-1.991,-0.0092,9.6024,-0.0023,-0.0007,0.0098
16900,46.587433,-1.122402,58.27,33.72,13.936001,332.5,0 / 25,877817,2019-08-12 13:34:23:253,-2.042,-0.1052,10.2171,-1.991,-0.0092,9.6024,-0.0023,-0.0007,0.0098
16901,46.587433,-1.122402,58.27,33.72,13.936001,332.5,0 / 25,877817,2019-08-12 13:34:23:253,-2.042,-0.1052,10.2171,-1.991,-0.0092,9.6024,-0.0023,-0.0007,0.0098
16902,46.587433,-1.122402,58.27,33.72,13.936001,332.5,0 / 25,877818,2019-08-12 13:34:23:254,-2.042,-0.1052,10.2171,-1.991,-0.0092,9.6024,-0.0023,-0.0007,0.0098
16903,46.587433,-1.122402,58.27,33.72,13.936001,332.5,0 / 25,877818,2019-08-12 13:34:23:254,-2.042,-0.1052,10.2171,-1.991,-0.0092,9.6024,-0.0023,-0.0007,0.0098
16904,46.587433,-1.122402,58.27,33.72,13.936001,332.5,0 / 25,877819,2019-08-12 13:34:23:255,-2.042,-0.1052,10.2171,-1.991,-0.0092,9.6024,-0.0023,-0.0007,0.0098
16905,46.587433,-1.122402,58.27,33.72,13.936001,332.5,0 / 25,877820,2019-08-12 13:34:23:256,-2.042,-0.1052,10.2171,-1.991,-0.0092,9.6024,-0.0023,-0.0007,0.0098
16906,46.587433,-1.122402,58.27,33.72,13.936001,332.5,0 / 25,877821,2019-08-12 13:34:23:257,-2.042,-0.1052,10.2171,-1.991,-0.0092,9.6024,-0.0023,-0.0007,0.0098
16907,46.587433,-1.122402,58.27,33.72,13.936001,332.5,0 / 25,877822,2019-08-12 13:34:23:258,-2.042,-0.1052,10.2171,-1.991,-0.0092,9.6024,-0.0023,-0.0007,0.0098
16908,46.587433,-1.122402,58.27,33.72,13.936001,332.5,0 / 25,877822,2019-08-12 13:34:23:258,-2.042,-0.1052,10.2171,-1.991,-0.0092,9.6024,-0.0023,-0.0007,0.0098
16909,46.587433,-1.122402,58.27,33.72,13.936001,332.5,0 / 25,877823,2019-08-12 13:34:23:259,-2.042,-0.1052,10.2171,-1.991,-0.0092,9.6024,-0.0023,-0.0007,0.0098
16910,46.587433,-1.122402,58.27,33.72,13.936001,332.5,0 / 25,877823,2019-08-12 13:34:23:259,-2.042,-0.1052,10.2171,-1.991,-0.0092,9.6024,-0.0023,-0.0007,0.0098
16911,46.587433,-1.122402,58.27,33.72,13.936001,332.5,0 / 25,877823,2019-08-12 13:34:23:259,-2.042,-0.1052,10.2171,-1.991,-0.0092,9.6024,-0.0023,-0.0007,0.0098
16912,46.587433,-1.122402,58.27,33.72,13.936001,332.5,0 / 25,877824,2019-08-12 13:34:23:260,-2.042,-0.1052,10.2171,-1.991,-0.0092,9.6024,-0.0023,-0.0007,0.0098
16913,46.587433,-1.122402,58.27,33.72,13.936001,332.5,0 / 25,877824,2019-08-12 13:34:23:260,-2.042,-0.1052,10.2171,-1.991,-0.0092,9.6024,-0.0023,-0.0007,0.0098
16914,46.587433,-1.122402,58.27,33.72,13.936001,332.5,0 / 25,877825,2019-08-12 13:34:23:261,-2.042,-0.1052,10.2171,-1.991,-0.0092,9.6024,-0.0023,-0.0007,0.0098
16915,46.587433,-1.122402,58.27,33.72,13.936001,332.5,0 / 25,877825,2019-08-12 13:34:23:261,-2.042,-0.1052,10.2171,-1.991,-0.0092,9.6024,-0.0023,-0.0007,0.0098
16916,46.587433,-1.122402,58.27,33.72,13.936001,332.5,0 / 25,877825,2019-08-12 13:34:23:261,-2.042,-0.1052,10.2171,-1.991,-0.0092,9.6024,-0.0023,-0.0007,0.0098
16917,46.587433,-1.122402,58.27,33.72,13.936001,332.5,0 / 25,877826,2019-08-12 13:34:23:262,-2.042,-0.1052,10.2171,-1.991,-0.0092,9.6024,-0.0023,-0.0007,0.0098
16918,46.587433,-1.122402,58.27,33.72,13.936001,332.5,0 / 25,877832,2019-08-12 13:34:23:268,-2.042,-0.1052,10.2171,-1.991,-0.0092,9.6024,-0.0023,-0.0007,0.0098
16919,46.587433,-1.122402,58.27,33.72,13.936001,332.5,0 / 25,877933,2019-08-12 13:34:23:369,-2.042,-0.1052,10.2171,-1.991,-0.0092,9.6024,-0.0023,-0.0007,0.0098
16920,46.587433,-1.122402,58.27,33.72,13.936001,332.5,0 / 25,878033,2019-08-12 13:34:23:469,-2.042,-0.1052,10.2171,-1.991,-0.0092,9.6024,-0.0023,-0.0007,0.0098
16921,46.587433,-1.122402,58.27,33.72,13.936001,332.5,0 / 25,878133,2019-08-12 13:34:23:569,-2.042,-0.1052,10.2171,-1.991,-0.0092,9.6024,-0.0023,-0.0007,0.0098
16922,46.587433,-1.122402,58.27,33.72,13.936001,332.5,0 / 25,878233,2019-08-12 13:34:23:669,-2.042,-0.1052,10.2171,-1.991,-0.0092,9.6024,-0.0023,0.0068,0.0098
16923,46.587433,-1.122402,58.27,33.72,13.936001,332.5,0 / 25,878333,2019-08-12 13:34:23:769,-2.1534,0.4101,9.9968,-1.663,0.2216,9.6621,-0.0023,0.0068,0.0098
16924,46.587433,-1.122402,58.27,33.72,13.936001,332.5,0 / 25,878433,2019-08-12 13:34:23:869,-2.1534,0.4101,9.9968,-1.663,0.2216,9.6621,-0.0023,0.0068,0.0098
16925,46.587433,-1.122402,58.27,33.72,13.936001,332.5,0 / 25,878532,2019-08-12 13:34:23:968,-1.7745,0.0205,10.2895,-1.6584,0.2533,9.6621,0.0094,-0.0326,0.0173
16926,46.587433,-1.122402,58.27,33.72,13.936001,332.5,0 / 25,878633,2019-08-12 13:34:24:069,-1.5249,0.2431,10.1656,-1.6559,0.258,9.6624,0.0073,-0.0124,0.0119
16927,46.587433,-1.122402,58.27,33.72,13.936001,332.5,0 / 25,878733,2019-08-12 13:34:24:169,-1.9445,0.5747,9.8232,-1.6288,0.2563,9.667,-0.0162,-0.0326,0.0077
16928,46.587433,-1.122402,58.27,33.72,13.936001,332.5,0 / 25,878833,2019-08-12 13:34:24:269,-1.9104,0.6167,10.2961,-1.6203,0.2437,9.6688,-0.0236,-0.0092,0.0066
16929,46.587433,-1.122402,58.27,33.72,13.936001,332.5,0 / 25,878933,2019-08-12 13:34:24:369,-2.1318,0.1983,9.5353,-1.6228,0.2324,9.6687,-0.0098,0.0079,0.0109
16930,46.587433,-1.122402,58.27,33.72,13.936001,332.5,0 / 25,879033,2019-08-12 13:34:24:469,-1.9948,0.3222,9.1756,-1.6145,0.2359,9.67,0.0009,-0.0528,0.0098
16931,46.587433,-1.122402,58.27,33.72,13.936001,332.5,0 / 25,879133,2019-08-12 13:34:24:569,0.2283,-0.2124,7.6373,-1.6245,0.2428,9.6681,-0.0023,-0.0294,0.0119
16932,46.587433,-1.122402,58.27,33.72,13.936001,332.5,0 / 25,879233,2019-08-12 13:34:24:669,-1.2011,0.6466,10.1279,-1.6328,0.2412,9.6668,-0.0151,-0.0177,0.0088
16933,46.587433,-1.122402,58.27,33.72,13.936001,332.5,0 / 25,879333,2019-08-12 13:34:24:769,-2.0935,0.5053,10.1752,-1.6268,0.2286,9.6681,-0.0141,-0.023,0.0066
16934,46.587433,-1.122402,58.27,33.72,13.936001,332.5,0 / 25,879434,2019-08-12 13:34:24:870,-1.8571,-0.0651,10.3889,-1.6263,0.2286,9.6682,-0.0108,-0.006,0.0119
16935,46.587433,-1.122402,58.27,33.72,13.936001,332.5,0 / 25,879534,2019-08-12 13:34:24:970,-2.4586,0.3694,11.6991,-1.5993,0.2098,9.6731,-0.0194,-0.055,0.0024
16936,46.587433,-1.122402,58.27,33.72,13.936001,332.5,0 / 25,879632,2019-08-12 13:34:25:068,-3.0051,-0.1142,10.4541,-1.6081,0.1967,9.6719,-0.0108,-0.0294,0.0088
16937,46.587433,-1.122402,58.27,33.72,13.936001,332.5,0 / 25,879732,2019-08-12 13:34:25:168,-2.2114,-0.1992,9.9406,-1.596,0.2013,9.6738,0.0073,-0.0763,0.0151
16938,46.587433,-1.122402,58.27,33.72,13.936001,332.5,0 / 25,879832,2019-08-12 13:34:25:268,-1.6117,0.0187,10.0178,-1.5652,0.2092,9.6787,-0.0045,-0.0273,0.013
16939,46.587433,-1.122402,58.27,33.72,13.936001,332.5,0 / 25,879934,2019-08-12 13:34:25:370,-1.4369,0.1157,9.1499,-1.5581,0.2085,9.6798,-0.0108,-0.006,0.0109
16940,46.587433,-1.122402,58.27,33.72,13.936001,332.5,0 / 25,880033,2019-08-12 13:34:25:469,-1.4483,0.2222,8.9942,-1.5712,0.2129,9.6776,0.0041,0.0164,0.0151
16941,46.587433,-1.122402,58.27,33.72,13.936001,332.5,0 / 25,880135,2019-08-12 13:34:25:571,-1.717,0.2414,9.4581,-1.5758,0.2203,9.6767,0.0041,-0.0007,0.0141
16942,46.587433,-1.122402,58.27,33.72,13.936001,332.5,0 / 25,880233,2019-08-12 13:34:25:669,-1.6931,0.315,9.4557,-1.5741,0.2249,9.6769,-0.0034,0.0004,0.0119
16943,46.587433,-1.122402,58.27,33.72,13.936001,332.5,0 / 25,880333,2019-08-12 13:34:25:769,-1.9582,0.5598,10.1129,-1.5703,0.2193,9.6776,-0.0119,-0.007,0.0098
16944,46.587433,-1.122402,58.27,33.72,13.936001,332.5,0 / 25,880433,2019-08-12 13:34:25:869,-1.9582,0.5598,10.1129,-1.5686,0.2148,9.678,-0.0172,-0.0092,0.0098
16945,46.587433,-1.122402,58.27,33.72,13.936001,332.5,0 / 25,880533,2019-08-12 13:34:25:969,-1.9582,0.5598,10.1129,-1.5686,0.2148,9.678,-0.0172,-0.0092,0.0098
16946,46.587433,-1.122402,58.27,33.72,13.936001,332.5,0 / 25,880632,2019-08-12 13:34:26:068,-1.9582,0.5598,10.1129,-1.5686,0.2148,9.678,-0.0172,-0.0092,0.0098
16947,46.587433,-1.122402,58.27,33.72,13.936001,332.5,0 / 25,880732,2019-08-12 13:34:26:168,-1.8589,0.0756,10.1578,-1.5719,0.2045,9.6777,0.0094,-0.0251,0.0162
16948,46.587433,-1.122402,58.27,33.72,13.936001,332.5,14 / 25,880832,2019-08-12 13:34:26:268,-1.5207,0.1198,9.7071,-1.5629,0.207,9.6791,-0.0045,0.0025,0.0119
16949,46.587433,-1.122402,58.27,33.72,13.936001,332.5,14 / 25,880934,2019-08-12 13:34:26:370,-1.4207,0.1881,10.1752,-1.5754,0.2296,9.6766,-0.0023,0.01,0.0119
16950,46.587433,-1.122402,58.27,33.72,13.936001,332.5,14 / 25,881035,2019-08-12 13:34:26:471,-1.5297,0.0367,9.84,-1.6008,0.2342,9.6723,-0.0023,-0.0038,0.0151
16951,46.587433,-1.122402,58.27,33.72,13.936001,332.5,14 / 25,881134,2019-08-12 13:34:26:570,-1.3118,0.2629,9.7203,-1.6112,0.2536,9.6701,0.0051,0.0015,0.0173
16952,46.587433,-1.122402,58.27,33.72,13.936001,332.5,14 / 25,881233,2019-08-12 13:34:26:669,-1.4746,0.4203,9.8268,-1.6022,0.2793,9.6709,0.0073,-0.0209,0.0183
16953,46.587433,-1.122402,58.27,33.72,13.936001,332.5,14 / 25,881334,2019-08-12 13:34:26:770,-1.629,0.549,9.7784,-1.5988,0.2916,9.6711,-0.0066,-0.0017,0.0141
16954,46.587433,-1.122402,58.27,33.72,13.936001,332.5,14 / 25,881434,2019-08-12 13:34:26:870,-1.8577,0.4371,9.7813,-1.6005,0.2864,9.6709,-0.0183,-0.0102,0.0109
16955,46.587433,-1.122402,58.27,33.72,13.936001,332.5,14 / 25,881532,2019-08-12 13:34:26:968,-1.6602,0.4754,9.2792,-1.6021,0.2813,9.6708,-0.0108,0.0079,0.0119
16956,46.587433,-1.122402,58.27,33.72,13.936001,332.5,14 / 25,881634,2019-08-12 13:34:27:070,-1.6877,0.5011,9.5162,-1.6095,0.2816,9.6696,0.0019,0.0089,0.0151
16957,46.587433,-1.122402,58.27,33.72,13.936001,332.5,14 / 25,881733,2019-08-12 13:34:27:169,-1.8589,0.54,9.6557,-1.6014,0.2807,9.6709,0.003,-0.0038,0.0151
16958,46.58969,-1.124409,64.65,33.79,11.792,326.4,0 / 25,881832,2019-08-12 13:34:27:268,-1.7673,0.324,9.9956,-1.5893,0.2784,9.673,-0.0055,-0.006,0.013
16959,46.58969,-1.124409,64.65,33.79,11.792,326.4,0 / 25,881933,2019-08-12 13:34:27:369,-1.7703,0.3479,10.0561,-1.5849,0.2859,9.6735,-0.0066,-0.0102,0.013
16960,46.58969,-1.124409,64.65,33.79,11.792,326.4,0 / 25,882033,2019-08-12 13:34:27:469,-1.6913,-0.0262,10.3129,-1.5717,0.281,9.6758,-0.0002,-0.007,0.013
16961,46.58969,-1.124409,64.65,33.79,11.792,326.4,0 / 25,882133,2019-08-12 13:34:27:569,-1.7182,-0.0346,10.2368,-1.5602,0.2757,9.6778,-0.0087,-0.0188,0.0119
16962,46.58969,-1.124409,64.65,33.79,11.792,326.4,0 / 25,882233,2019-08-12 13:34:27:669,-1.7673,0.3652,9.6275,-1.5509,0.2764,9.6793,-0.0023,0.0015,0.0162
16963,46.58969,-1.124409,64.65,33.79,11.792,326.4,0 / 25,882333,2019-08-12 13:34:27:769,-1.6835,0.1827,10.1662,-1.5516,0.2779,9.6791,-0.0013,-0.006,0.0151
16964,46.58969,-1.124409,64.65,33.79,11.792,326.4,0 / 25,882433,2019-08-12 13:34:27:869,-1.6254,0.0385,9.855,-1.5584,0.2873,9.6778,0.0009,0.0036,0.0141
16965,46.58969,-1.124409,64.65,33.79,11.792,326.4,0 / 25,882814,2019-08-12 13:34:28:250,-1.5201,0.0666,10.0076,-1.5566,0.2813,9.6782,-0.0023,-0.0081,0.0098
16966,46.58969,-1.124409,64.65,33.79,11.792,326.4,0 / 25,882815,2019-08-12 13:34:28:251,-1.5201,0.0666,10.0076,-1.5566,0.2813,9.6782,-0.0023,-0.0081,0.0098
16967,46.58969,-1.124409,64.65,33.79,11.792,326.4,0 / 25,882815,2019-08-12 13:34:28:251,-1.5201,0.0666,10.0076,-1.5566,0.2813,9.6782,-0.0023,-0.0081,0.0098
16968,46.58969,-1.124409,64.65,33.79,11.792,326.4,0 / 25,882816,2019-08-12 13:34:28:252,-1.5201,0.0666,10.0076,-1.5566,0.2813,9.6782,-0.0023,-0.0081,0.0098
16969,46.58969,-1.124409,64.65,33.79,11.792,326.4,0 / 25,882816,2019-08-12 13:34:28:252,-1.5201,0.0666,10.0076,-1.5566,0.2813,9.6782,-0.0023,-0.0081,0.0098
16970,46.58969,-1.124409,64.65,33.79,11.792,326.4,0 / 25,882817,2019-08-12 13:34:28:253,-1.5201,0.0666,10.0076,-1.5566,0.2813,9.6782,-0.0023,-0.0081,0.0098
16971,46.58969,-1.124409,64.65,33.79,11.792,326.4,0 / 25,882817,2019-08-12 13:34:28:253,-1.5201,0.0666,10.0076,-1.5566,0.2813,9.6782,-0.0023,-0.0081,0.0098
16972,46.58969,-1.124409,64.65,33.79,11.792,326.4,0 / 25,882818,2019-08-12 13:34:28:254,-1.5201,0.0666,10.0076,-1.5566,0.2813,9.6782,-0.0023,-0.0081,0.0098
16973,46.58969,-1.124409,64.65,33.79,11.792,326.4,0 / 25,882818,2019-08-12 13:34:28:254,-1.5201,0.0666,10.0076,-1.5566,0.2813,9.6782,-0.0023,-0.0081,0.0098
16974,46.58969,-1.124409,64.65,33.79,11.792,326.4,0 / 25,882818,2019-08-12 13:34:28:254,-1.5201,0.0666,10.0076,-1.5566,0.2813,9.6782,-0.0023,-0.0081,0.0098
16975,46.58969,-1.124409,64.65,33.79,11.792,326.4,0 / 25,882819,2019-08-12 13:34:28:255,-1.5201,0.0666,10.0076,-1.5566,0.2813,9.6782,-0.0023,-0.0081,0.0098
16976,46.58969,-1.124409,64.65,33.79,11.792,326.4,0 / 25,882819,2019-08-12 13:34:28:255,-1.5201,0.0666,10.0076,-1.5566,0.2813,9.6782,-0.0023,-0.0081,0.0098
16977,46.58969,-1.124409,64.65,33.79,11.792,326.4,0 / 25,882820,2019-08-12 13:34:28:256,-1.5201,0.0666,10.0076,-1.5566,0.2813,9.6782,-0.0023,-0.0081,0.0098
16978,46.58969,-1.124409,64.65,33.79,11.792,326.4,0 / 25,882820,2019-08-12 13:34:28:256,-1.5201,0.0666,10.0076,-1.5566,0.2813,9.6782,-0.0023,-0.0081,0.0098
16979,46.58969,-1.124409,64.65,33.79,11.792,326.4,0 / 25,882820,2019-08-12 13:34:28:256,-1.5201,0.0666,10.0076,-1.5566,0.2813,9.6782,-0.0023,-0.0081,0.0098
16980,46.58969,-1.124409,64.65,33.79,11.792,326.4,0 / 25,882821,2019-08-12 13:34:28:257,-1.5201,0.0666,10.0076,-1.5566,0.2813,9.6782,-0.0023,-0.0081,0.0098
16981,46.58969,-1.124409,64.65,33.79,11.792,326.4,0 / 25,882821,2019-08-12 13:34:28:257,-1.5201,0.0666,10.0076,-1.5566,0.2813,9.6782,-0.0023,-0.0081,0.0098
16982,46.58969,-1.124409,64.65,33.79,11.792,326.4,0 / 25,882822,2019-08-12 13:34:28:258,-1.5201,0.0666,10.0076,-1.5566,0.2813,9.6782,-0.0023,-0.0081,0.0098
16983,46.58969,-1.124409,64.65,33.79,11.792,326.4,0 / 25,882822,2019-08-12 13:34:28:258,-1.5201,0.0666,10.0076,-1.5566,0.2813,9.6782,-0.0023,-0.0081,0.0098
16984,46.58969,-1.124409,64.65,33.79,11.792,326.4,0 / 25,882823,2019-08-12 13:34:28:259,-1.5201,0.0666,10.0076,-1.5566,0.2813,9.6782,-0.0023,-0.0081,0.0098
16985,46.58969,-1.124409,64.65,33.79,11.792,326.4,0 / 25,882824,2019-08-12 13:34:28:260,-1.5201,0.0666,10.0076,-1.5566,0.2813,9.6782,-0.0023,-0.0081,0.0098
16986,46.58969,-1.124409,64.65,33.79,11.792,326.4,0 / 25,882824,2019-08-12 13:34:28:260,-1.5201,0.0666,10.0076,-1.5566,0.2813,9.6782,-0.0023,-0.0081,0.0098
16987,46.58969,-1.124409,64.65,33.79,11.792,326.4,0 / 25,882825,2019-08-12 13:34:28:261,-1.5201,0.0666,10.0076,-1.5566,0.2813,9.6782,-0.0023,-0.0081,0.0098
16988,46.58969,-1.124409,64.65,33.79,11.792,326.4,0 / 25,882825,2019-08-12 13:34:28:261,-1.5201,0.0666,10.0076,-1.5566,0.2813,9.6782,-0.0023,-0.0081,0.0098
16989,46.58969,-1.124409,64.65,33.79,11.792,326.4,0 / 25,882825,2019-08-12 13:34:28:261,-1.5201,0.0666,10.0076,-1.5566,0.2813,9.6782,-0.0023,-0.0081,0.0098
16990,46.58969,-1.124409,64.65,33.79,11.792,326.4,0 / 25,882826,2019-08-12 13:34:28:262,-1.5201,0.0666,10.0076,-1.5566,0.2813,9.6782,-0.0023,-0.0081,0.0098
16991,46.58969,-1.124409,64.65,33.79,11.792,326.4,0 / 25,882826,2019-08-12 13:34:28:262,-1.5201,0.0666,10.0076,-1.5566,0.2813,9.6782,-0.0023,-0.0081,0.0098
16992,46.58969,-1.124409,64.65,33.79,11.792,326.4,0 / 25,882827,2019-08-12 13:34:28:263,-1.5201,0.0666,10.0076,-1.5566,0.2813,9.6782,-0.0023,-0.0081,0.0098
16993,46.58969,-1.124409,64.65,33.79,11.792,326.4,0 / 25,882828,2019-08-12 13:34:28:264,-1.5201,0.0666,10.0076,-1.5566,0.2813,9.6782,-0.0023,-0.0081,0.0098
16994,46.58969,-1.124409,64.65,33.79,11.792,326.4,0 / 25,882828,2019-08-12 13:34:28:264,-1.5201,0.0666,10.0076,-1.5566,0.2813,9.6782,-0.0023,-0.0081,0.0098
16995,46.58969,-1.124409,64.65,33.79,11.792,326.4,0 / 25,882829,2019-08-12 13:34:28:265,-1.5201,0.0666,10.0076,-1.5566,0.2813,9.6782,-0.0023,-0.0081,0.0098
16996,46.58969,-1.124409,64.65,33.79,11.792,326.4,0 / 25,882830,2019-08-12 13:34:28:266,-1.5201,0.0666,10.0076,-1.5566,0.2813,9.6782,-0.0023,-0.0081,0.0098
16997,46.58969,-1.124409,64.65,33.79,11.792,326.4,0 / 25,882831,2019-08-12 13:34:28:267,-1.5201,0.0666,10.0076,-1.5566,0.2813,9.6782,-0.0023,-0.0081,0.0098
16998,46.58969,-1.124409,64.65,33.79,11.792,326.4,0 / 25,882832,2019-08-12 13:34:28:268,-1.5201,0.0666,10.0076,-1.5566,0.2813,9.6782,-0.0023,-0.0081,0.0098
16999,46.58969,-1.124409,64.65,33.79,11.792,326.4,0 / 25,882832,2019-08-12 13:34:28:268,-1.5201,0.0666,10.0076,-1.5566,0.2813,9.6782,-0.0023,-0.0081,0.0098
17000,46.58969,-1.124409,64.65,33.79,11.792,326.4,0 / 25,882835,2019-08-12 13:34:28:271,-1.5201,0.0666,10.0076,-1.5566,0.2813,9.6782,-0.0023,-0.0081,0.0098
17001,46.58969,-1.124409,64.65,33.79,11.792,326.4,0 / 25,882836,2019-08-12 13:34:28:272,-1.5201,0.0666,10.0076,-1.5566,0.2813,9.6782,-0.0023,-0.0081,0.0098
17002,46.58969,-1.124409,64.65,33.79,11.792,326.4,0 / 25,882837,2019-08-12 13:34:28:273,-1.5201,0.0666,10.0076,-1.5566,0.2813,9.6782,-0.0023,-0.0081,0.0098
17003,46.58969,-1.124409,64.65,33.79,11.792,326.4,0 / 25,882837,2019-08-12 13:34:28:273,-1.5201,0.0666,10.0076,-1.5566,0.2813,9.6782,-0.0023,-0.0081,0.0098
17004,46.58969,-1.124409,64.65,33.79,11.792,326.4,0 / 25,882838,2019-08-12 13:34:28:274,-1.5201,0.0666,10.0076,-1.5566,0.2813,9.6782,-0.0023,-0.0081,0.0098
17005,46.58969,-1.124409,64.65,33.79,11.792,326.4,0 / 25,882838,2019-08-12 13:34:28:274,-1.5201,0.0666,10.0076,-1.5566,0.2813,9.6782,-0.0023,-0.0081,0.0098
17006,46.58969,-1.124409,64.65,33.79,11.792,326.4,0 / 25,882839,2019-08-12 13:34:28:275,-1.5201,0.0666,10.0076,-1.5566,0.2813,9.6782,-0.0023,-0.0081,0.0098
17007,46.58969,-1.124409,64.65,33.79,11.792,326.4,0 / 25,882840,2019-08-12 13:34:28:276,-1.5201,0.0666,10.0076,-1.5566,0.2813,9.6782,-0.0023,-0.0081,0.0098
17008,46.58969,-1.124409,64.65,33.79,11.792,326.4,0 / 25,882841,2019-08-12 13:34:28:277,-1.5201,0.0666,10.0076,-1.5566,0.2813,9.6782,-0.0023,-0.0081,0.0098
17009,46.58969,-1.124409,64.65,33.79,11.792,326.4,0 / 25,882841,2019-08-12 13:34:28:277,-1.5201,0.0666,10.0076,-1.5566,0.2813,9.6782,-0.0023,-0.0081,0.0098
17010,46.58969,-1.124409,64.65,33.79,11.792,326.4,0 / 25,882842,2019-08-12 13:34:28:278,-1.5201,0.0666,10.0076,-1.5566,0.2813,9.6782,-0.0023,-0.0081,0.0098
17011,46.58969,-1.124409,64.65,33.79,11.792,326.4,0 / 25,882842,2019-08-12 13:34:28:278,-1.5201,0.0666,10.0076,-1.5566,0.2813,9.6782,-0.0023,-0.0081,0.0098
17012,46.58969,-1.124409,64.65,33.79,11.792,326.4,0 / 25,882843,2019-08-12 13:34:28:279,-1.5201,0.0666,10.0076,-1.5566,0.2813,9.6782,-0.0023,-0.0081,0.0098
17013,46.58969,-1.124409,64.65,33.79,11.792,326.4,0 / 25,882843,2019-08-12 13:34:28:279,-1.5201,0.0666,10.0076,-1.5566,0.2813,9.6782,-0.0023,-0.0081,0.0098
17014,46.58969,-1.124409,64.65,33.79,11.792,326.4,0 / 25,882843,2019-08-12 13:34:28:279,-1.5201,0.0666,10.0076,-1.5566,0.2813,9.6782,-0.0023,-0.0081,0.0098
17015,46.58969,-1.124409,64.65,33.79,11.792,326.4,0 / 25,882844,2019-08-12 13:34:28:280,-1.5201,0.0666,10.0076,-1.5566,0.2813,9.6782,-0.0023,-0.0081,0.0098
17016,46.58969,-1.124409,64.65,33.79,11.792,326.4,0 / 25,882844,2019-08-12 13:34:28:280,-1.5201,0.0666,10.0076,-1.5566,0.2813,9.6782,-0.0023,-0.0081,0.0098
17017,46.58969,-1.124409,64.65,33.79,11.792,326.4,0 / 25,882845,2019-08-12 13:34:28:281,-1.5201,0.0666,10.0076,-1.5566,0.2813,9.6782,-0.0023,-0.0081,0.0098
17018,46.58969,-1.124409,64.65,33.79,11.792,326.4,0 / 25,882845,2019-08-12 13:34:28:281,-1.5201,0.0666,10.0076,-1.5566,0.2813,9.6782,-0.0023,-0.0081,0.0098
17019,46.58969,-1.124409,64.65,33.79,11.792,326.4,0 / 25,882846,2019-08-12 13:34:28:282,-1.5201,0.0666,10.0076,-1.5566,0.2813,9.6782,-0.0023,-0.0081,0.0098
17020,46.58969,-1.124409,64.65,33.79,11.792,326.4,0 / 25,882846,2019-08-12 13:34:28:282,-1.5201,0.0666,10.0076,-1.5566,0.2813,9.6782,-0.0023,-0.0081,0.0098
17021,46.58969,-1.124409,64.65,33.79,11.792,326.4,0 / 25,882846,2019-08-12 13:34:28:282,-1.5201,0.0666,10.0076,-1.5566,0.2813,9.6782,-0.0023,-0.0081,0.0098
17022,46.58969,-1.124409,64.65,33.79,11.792,326.4,0 / 25,882847,2019-08-12 13:34:28:283,-1.5201,0.0666,10.0076,-1.5566,0.2813,9.6782,-0.0023,-0.0081,0.0098
17023,46.58969,-1.124409,64.65,33.79,11.792,326.4,0 / 25,882847,2019-08-12 13:34:28:283,-1.5201,0.0666,10.0076,-1.5566,0.2813,9.6782,-0.0023,-0.0081,0.0098
17024,46.58969,-1.124409,64.65,33.79,11.792,326.4,0 / 25,882847,2019-08-12 13:34:28:283,-1.5201,0.0666,10.0076,-1.5566,0.2813,9.6782,-0.0023,-0.0081,0.0098
17025,46.58969,-1.124409,64.65,33.79,11.792,326.4,0 / 25,882848,2019-08-12 13:34:28:284,-1.5201,0.0666,10.0076,-1.5566,0.2813,9.6782,-0.0023,-0.0081,0.0098
17026,46.58969,-1.124409,64.65,33.79,11.792,326.4,0 / 25,882848,2019-08-12 13:34:28:284,-1.5201,0.0666,10.0076,-1.5566,0.2813,9.6782,-0.0023,-0.0081,0.0098
17027,46.58969,-1.124409,64.65,33.79,11.792,326.4,0 / 25,882848,2019-08-12 13:34:28:284,-1.5201,0.0666,10.0076,-1.5566,0.2813,9.6782,-0.0023,-0.0081,0.0098
17028,46.58969,-1.124409,64.65,33.79,11.792,326.4,0 / 25,882849,2019-08-12 13:34:28:285,-1.5201,0.0666,10.0076,-1.5566,0.2813,9.6782,-0.0023,-0.0081,0.0098
17029,46.58969,-1.124409,64.65,33.79,11.792,326.4,0 / 25,882862,2019-08-12 13:34:28:298,-1.5201,0.0666,10.0076,-1.5566,0.2813,9.6782,-0.0023,-0.0081,0.0098
17030,46.58969,-1.124409,64.65,33.79,11.792,326.4,13 / 25,883270,2019-08-12 13:34:28:706,-1.5201,0.0666,10.0076,-1.5566,0.2813,9.6782,-0.0023,-0.0081,0.0098
17031,46.58969,-1.124409,64.65,33.79,11.792,326.4,13 / 25,883271,2019-08-12 13:34:28:707,-1.5201,0.0666,10.0076,-1.5566,0.2813,9.6782,-0.0023,-0.0081,0.0098
17032,46.58969,-1.124409,64.65,33.79,11.792,326.4,13 / 25,883271,2019-08-12 13:34:28:707,-1.5201,0.0666,10.0076,-1.5566,0.2813,9.6782,-0.0023,-0.0081,0.0098
17033,46.58969,-1.124409,64.65,33.79,11.792,326.4,13 / 25,883272,2019-08-12 13:34:28:708,-1.5201,0.0666,10.0076,-1.5566,0.2813,9.6782,-0.0023,-0.0081,0.0098
17034,46.58969,-1.124409,64.65,33.79,11.792,326.4,13 / 25,883273,2019-08-12 13:34:28:709,-1.5201,0.0666,10.0076,-1.5566,0.2813,9.6782,-0.0023,-0.0081,0.0098
17035,46.58969,-1.124409,64.65,33.79,11.792,326.4,13 / 25,883273,2019-08-12 13:34:28:709,-1.5201,0.0666,10.0076,-1.5566,0.2813,9.6782,-0.0023,-0.0081,0.0098
17036,46.58969,-1.124409,64.65,33.79,11.792,326.4,13 / 25,883274,2019-08-12 13:34:28:710,-1.5201,0.0666,10.0076,-1.5566,0.2813,9.6782,-0.0023,-0.0081,0.0098
17037,46.58969,-1.124409,64.65,33.79,11.792,326.4,13 / 25,883274,2019-08-12 13:34:28:710,-1.5201,0.0666,10.0076,-1.5566,0.2813,9.6782,-0.0023,-0.0081,0.0098
17038,46.58969,-1.124409,64.65,33.79,11.792,326.4,13 / 25,883275,2019-08-12 13:34:28:711,-1.5201,0.0666,10.0076,-1.5566,0.2813,9.6782,-0.0023,-0.0081,0.0098
17039,46.58969,-1.124409,64.65,33.79,11.792,326.4,13 / 25,883321,2019-08-12 13:34:28:757,-1.5201,0.0666,10.0076,-1.5566,0.2813,9.6782,-0.0023,-0.0081,0.0098
17040,46.58969,-1.124409,64.65,33.79,11.792,326.4,13 / 25,883736,2019-08-12 13:34:29:172,-1.5201,0.0666,10.0076,-1.5566,0.2813,9.6782,-0.0023,-0.0081,0.0098
17041,46.58969,-1.124409,64.65,33.79,11.792,326.4,0 / 25,883737,2019-08-12 13:34:29:173,-1.5201,0.0666,10.0076,-1.5566,0.2813,9.6782,-0.0023,-0.0081,0.0098
17042,46.58969,-1.124409,64.65,33.79,11.792,326.4,0 / 25,883738,2019-08-12 13:34:29:174,-1.5201,0.0666,10.0076,-1.5566,0.2813,9.6782,-0.0023,-0.0081,0.0098
17043,46.58969,-1.124409,64.65,33.79,11.792,326.4,0 / 25,883738,2019-08-12 13:34:29:174,-1.5201,0.0666,10.0076,-1.5566,0.2813,9.6782,-0.0023,-0.0081,0.0098
17044,46.58969,-1.124409,64.65,33.79,11.792,326.4,0 / 25,883739,2019-08-12 13:34:29:175,-1.5201,0.0666,10.0076,-1.5566,0.2813,9.6782,-0.0023,-0.0081,0.0098
17045,46.58969,-1.124409,64.65,33.79,11.792,326.4,0 / 25,883739,2019-08-12 13:34:29:175,-1.5201,0.0666,10.0076,-1.5566,0.2813,9.6782,-0.0023,-0.0081,0.0098
17046,46.58969,-1.124409,64.65,33.79,11.792,326.4,0 / 25,883739,2019-08-12 13:34:29:175,-1.5201,0.0666,10.0076,-1.5566,0.2813,9.6782,-0.0023,-0.0081,0.0098
17047,46.58969,-1.124409,64.65,33.79,11.792,326.4,0 / 25,883740,2019-08-12 13:34:29:176,-1.5201,0.0666,10.0076,-1.5566,0.2813,9.6782,-0.0023,-0.0081,0.0098
17048,46.58969,-1.124409,64.65,33.79,11.792,326.4,0 / 25,883740,2019-08-12 13:34:29:176,-1.5201,0.0666,10.0076,-1.5566,0.2813,9.6782,-0.0023,-0.0081,0.0098
17049,46.591854,-1.126851,65.54,34.57,8.576,320.1,0 / 25,883779,2019-08-12 13:34:29:215,-1.5201,0.0666,10.0076,-1.5566,0.2813,9.6782,-0.0023,-0.0081,0.0098
17050,46.591854,-1.126851,65.54,34.57,8.576,320.1,0 / 25,883879,2019-08-12 13:34:29:315,-1.5201,0.0666,10.0076,-1.5566,0.2813,9.6782,-0.0023,-0.0081,0.0098
17051,46.591854,-1.126851,65.54,34.57,8.576,320.1,0 / 25,884200,2019-08-12 13:34:29:636,-1.5201,0.0666,10.0076,-1.5566,0.2813,9.6782,-0.0023,-0.0081,0.0098
17052,46.591854,-1.126851,65.54,34.57,8.576,320.1,0 / 25,884201,2019-08-12 13:34:29:637,-1.5201,0.0666,10.0076,-1.5566,0.2813,9.6782,-0.0023,-0.0081,0.0098
17053,46.591854,-1.126851,65.54,34.57,8.576,320.1,0 / 25,884202,2019-08-12 13:34:29:638,-1.5201,0.0666,10.0076,-1.5566,0.2813,9.6782,-0.0023,-0.0081,0.0098
17054,46.591854,-1.126851,65.54,34.57,8.576,320.1,0 / 25,884279,2019-08-12 13:34:29:715,-1.5201,0.0666,10.0076,-1.5566,0.2813,9.6782,-0.0023,-0.0081,0.0098
17055,46.591854,-1.126851,65.54,34.57,8.576,320.1,0 / 25,884380,2019-08-12 13:34:29:816,-1.5201,0.0666,10.0076,-1.5566,0.2813,9.6782,-0.0023,-0.0081,0.0098
17056,46.591854,-1.126851,65.54,34.57,8.576,320.1,0 / 25,884800,2019-08-12 13:34:30:236,-1.3477,0.0145,9.9861,-1.6644,0.1754,9.6628,0.0051,0.0057,0.0119
17057,46.591854,-1.126851,65.54,34.57,8.576,320.1,0 / 25,884801,2019-08-12 13:34:30:237,-1.3477,0.0145,9.9861,-1.6644,0.1754,9.6628,0.0051,0.0057,0.0119
17058,46.591854,-1.126851,65.54,34.57,8.576,320.1,0 / 25,884801,2019-08-12 13:34:30:237,-1.3477,0.0145,9.9861,-1.6644,0.1754,9.6628,0.0051,0.0057,0.0119
17059,46.591854,-1.126851,65.54,34.57,8.576,320.1,0 / 25,884802,2019-08-12 13:34:30:238,-1.3477,0.0145,9.9861,-1.6644,0.1754,9.6628,0.0051,0.0057,0.0119
17060,46.591854,-1.126851,65.54,34.57,8.576,320.1,0 / 25,884803,2019-08-12 13:34:30:239,-1.3477,0.0145,9.9861,-1.6644,0.1754,9.6628,0.0051,0.0057,0.0119
17061,46.591854,-1.126851,65.54,34.57,8.576,320.1,0 / 25,884804,2019-08-12 13:34:30:240,-1.3477,0.0145,9.9861,-1.6644,0.1754,9.6628,0.0051,0.0057,0.0119
17062,46.591854,-1.126851,65.54,34.57,8.576,320.1,0 / 25,884805,2019-08-12 13:34:30:241,-1.3477,0.0145,9.9861,-1.6644,0.1754,9.6628,0.0051,0.0057,0.0119
17063,46.591854,-1.126851,65.54,34.57,8.576,320.1,0 / 25,884805,2019-08-12 13:34:30:241,-1.3477,0.0145,9.9861,-1.6644,0.1754,9.6628,0.0051,0.0057,0.0119
17064,46.591854,-1.126851,65.54,34.57,8.576,320.1,0 / 25,884805,2019-08-12 13:34:30:241,-1.3477,0.0145,9.9861,-1.6644,0.1754,9.6628,0.0051,0.0057,0.0119
17065,46.591854,-1.126851,65.54,34.57,8.576,320.1,0 / 25,884806,2019-08-12 13:34:30:242,-1.3477,0.0145,9.9861,-1.6644,0.1754,9.6628,0.0051,0.0057,0.0119
17066,46.591854,-1.126851,65.54,34.57,8.576,320.1,0 / 25,884806,2019-08-12 13:34:30:242,-1.3477,0.0145,9.9861,-1.6644,0.1754,9.6628,0.0051,0.0057,0.0119
17067,46.591854,-1.126851,65.54,34.57,8.576,320.1,0 / 25,884807,2019-08-12 13:34:30:243,-1.3477,0.0145,9.9861,-1.6644,0.1754,9.6628,0.0051,0.0057,0.0119
17068,46.591854,-1.126851,65.54,34.57,8.576,320.1,0 / 25,884807,2019-08-12 13:34:30:243,-1.3477,0.0145,9.9861,-1.6644,0.1754,9.6628,0.0051,0.0057,0.0119
17069,46.591854,-1.126851,65.54,34.57,8.576,320.1,0 / 25,884807,2019-08-12 13:34:30:243,-1.3477,0.0145,9.9861,-1.6644,0.1754,9.6628,0.0051,0.0057,0.0119
17070,46.591854,-1.126851,65.54,34.57,8.576,320.1,0 / 25,884816,2019-08-12 13:34:30:252,-1.3477,0.0145,9.9861,-1.6644,0.1754,9.6628,0.0051,0.0057,0.0119
17071,46.591854,-1.126851,65.54,34.57,8.576,320.1,0 / 25,884817,2019-08-12 13:34:30:253,-1.3477,0.0145,9.9861,-1.6644,0.1754,9.6628,0.0051,0.0057,0.0119
17072,46.591854,-1.126851,65.54,34.57,8.576,320.1,0 / 25,884818,2019-08-12 13:34:30:254,-1.3477,0.0145,9.9861,-1.6644,0.1754,9.6628,0.0051,0.0057,0.0119
17073,46.591854,-1.126851,65.54,34.57,8.576,320.1,0 / 25,884818,2019-08-12 13:34:30:254,-1.3477,0.0145,9.9861,-1.6644,0.1754,9.6628,0.0051,0.0057,0.0119
17074,46.591854,-1.126851,65.54,34.57,8.576,320.1,0 / 25,884819,2019-08-12 13:34:30:255,-1.3477,0.0145,9.9861,-1.6644,0.1754,9.6628,0.0051,0.0057,0.0119
17075,46.591854,-1.126851,65.54,34.57,8.576,320.1,0 / 25,884819,2019-08-12 13:34:30:255,-1.3477,0.0145,9.9861,-1.6644,0.1754,9.6628,0.0051,0.0057,0.0119
17076,46.591854,-1.126851,65.54,34.57,8.576,320.1,0 / 25,884821,2019-08-12 13:34:30:257,-1.3477,0.0145,9.9861,-1.6644,0.1754,9.6628,0.0051,0.0057,0.0119
17077,46.591854,-1.126851,65.54,34.57,8.576,320.1,0 / 25,884822,2019-08-12 13:34:30:258,-1.3477,0.0145,9.9861,-1.6644,0.1754,9.6628,0.0051,0.0057,0.0119
17078,46.591854,-1.126851,65.54,34.57,8.576,320.1,0 / 25,884823,2019-08-12 13:34:30:259,-1.3477,0.0145,9.9861,-1.6644,0.1754,9.6628,0.0051,0.0057,0.0119
17079,46.591854,-1.126851,65.54,34.57,8.576,320.1,0 / 25,884823,2019-08-12 13:34:30:259,-1.3477,0.0145,9.9861,-1.6644,0.1754,9.6628,0.0051,0.0057,0.0119
17080,46.591854,-1.126851,65.54,34.57,8.576,320.1,0 / 25,884823,2019-08-12 13:34:30:259,-1.3477,0.0145,9.9861,-1.6644,0.1754,9.6628,0.0051,0.0057,0.0119
17081,46.591854,-1.126851,65.54,34.57,8.576,320.1,0 / 25,884919,2019-08-12 13:34:30:355,-1.3477,0.0145,9.9861,-1.6644,0.1754,9.6628,0.0051,0.0057,0.0119
17082,46.591854,-1.126851,65.54,34.57,8.576,320.1,0 / 25,885018,2019-08-12 13:34:30:454,-1.3477,0.0145,9.9861,-1.6644,0.1754,9.6628,0.0051,0.0057,0.0119
17083,46.591854,-1.126851,65.54,34.57,8.576,320.1,0 / 25,885118,2019-08-12 13:34:30:554,-1.495,0.1659,10.0315,-1.69,0.4102,9.6512,-0.0141,-0.007,0.0226
17084,46.591854,-1.126851,65.54,34.57,8.576,320.1,0 / 25,885218,2019-08-12 13:34:30:654,-1.9193,0.8908,9.5623,-1.6973,0.4146,9.6497,-0.0055,0.0047,0.0237
17085,46.591854,-1.126851,65.54,34.57,8.576,320.1,0 / 25,885319,2019-08-12 13:34:30:755,-1.8966,0.9644,9.5569,-1.7007,0.4271,9.6486,-0.0023,0.0004,0.0215
17086,46.591854,-1.126851,65.54,34.57,8.576,320.1,0 / 25,885419,2019-08-12 13:34:30:855,-1.7823,0.6891,9.8705,-1.7134,0.4934,9.6432,-0.0098,-0.0028,0.0205
17087,46.591854,-1.126851,65.54,34.57,8.576,320.1,0 / 25,885519,2019-08-12 13:34:30:955,-1.5931,0.3156,9.8161,-1.7158,0.5168,9.6415,-0.0087,-0.0102,0.0205
17088,46.591854,-1.126851,65.54,34.57,8.576,320.1,0 / 25,885618,2019-08-12 13:34:31:054,-1.5291,0.2587,9.4498,-1.7193,0.5308,9.6401,-0.0045,0.0121,0.0215
17089,46.591854,-1.126851,65.54,34.57,8.576,320.1,0 / 25,885718,2019-08-12 13:34:31:154,-1.5949,0.4119,9.1547,-1.724,0.5391,9.6389,-0.0055,0.0057,0.0215
17090,46.591854,-1.126851,65.54,34.57,8.576,320.1,0 / 25,885818,2019-08-12 13:34:31:254,-1.8152,0.6352,9.4976,-1.7314,0.544,9.6373,-0.013,-0.0113,0.0173
17091,46.591854,-1.126851,65.54,34.57,8.576,320.1,0 / 25,885919,2019-08-12 13:34:31:355,-1.9636,0.8106,9.4743,-1.7362,0.5359,9.6369,-0.0098,-0.006,0.0162
17092,46.591854,-1.126851,65.54,34.57,8.576,320.1,0 / 25,886019,2019-08-12 13:34:31:455,-1.9361,0.7268,9.2145,-1.7571,0.5334,9.6332,-0.0119,0.0164,0.0205
17093,46.591854,-1.126851,65.54,34.57,8.576,320.1,0 / 25,886118,2019-08-12 13:34:31:554,-1.8535,0.6555,9.6748,-1.7671,0.5344,9.6313,-0.0023,0.0057,0.0215
17094,46.591854,-1.126851,65.54,34.57,8.576,320.1,0 / 25,886218,2019-08-12 13:34:31:654,-1.7625,0.5263,9.4072,-1.7976,0.5483,9.6249,-0.0055,0.0143,0.0237
17095,46.591854,-1.126851,65.54,34.57,8.576,320.1,0 / 25,886318,2019-08-12 13:34:31:754,-1.7739,0.3317,9.7939,-1.8054,0.5524,9.6232,-0.0023,-0.007,0.0215
17096,46.591854,-1.126851,65.54,34.57,8.576,320.1,0 / 25,886418,2019-08-12 13:34:31:854,-1.6332,0.2587,9.3917,-1.7973,0.5505,9.6248,0.0051,-0.0028,0.0162
17097,46.591854,-1.126851,65.54,34.57,8.576,320.1,0 / 25,886518,2019-08-12 13:34:31:954,-1.8828,0.2186,10.0345,-1.7969,0.5435,9.6253,-0.0013,-0.0049,0.0119
17098,46.591854,-1.126851,65.54,34.57,8.576,320.1,0 / 25,886619,2019-08-12 13:34:32:055,-2.13,0.5101,10.2614,-1.7946,0.5297,9.6265,-0.0055,0.01,0.013
17099,46.591854,-1.126851,65.54,34.57,8.576,320.1,0 / 25,886718,2019-08-12 13:34:32:154,-2.2635,0.2575,9.8466,-1.7921,0.4967,9.6287,0.0019,-0.0092,0.0151
17100,46.591854,-1.126851,65.54,34.57,8.576,320.1,0 / 25,886818,2019-08-12 13:34:32:254,-1.887,0.6119,9.8526,-1.7927,0.4431,9.6312,0.0009,-0.0038,0.0173
17101,46.591854,-1.126851,65.54,34.57,8.576,320.1,0 / 25,886918,2019-08-12 13:34:32:354,-1.9157,0.4113,9.6856,-1.7895,0.4294,9.6324,-0.0034,0.0068,0.0151
17102,46.591854,-1.126851,65.54,34.57,8.576,320.1,0 / 25,887018,2019-08-12 13:34:32:454,-1.6667,0.151,9.8077,-1.801,0.4244,9.6305,-0.0066,0.0111,0.013
17103,46.591854,-1.126851,65.54,34.57,8.576,320.1,0 / 25,887119,2019-08-12 13:34:32:555,-1.7128,0.2114,9.3426,-1.8085,0.4161,9.6295,-0.0055,0.0079,0.0109
17104,46.591854,-1.126851,65.54,34.57,8.576,320.1,0 / 25,887218,2019-08-12 13:34:32:654,-1.7158,0.0827,9.5695,-1.8289,0.4056,9.6261,-0.0034,0.0015,0.013
17105,46.591854,-1.126851,65.54,34.57,8.576,320.1,0 / 25,887318,2019-08-12 13:34:32:754,-1.8403,0.1737,9.2887,-1.8464,0.3827,9.6236,-0.0087,0.0015,0.0119
17106,46.591854,-1.126851,65.54,34.57,8.576,320.1,0 / 25,887419,2019-08-12 13:34:32:855,-1.6398,0.2527,9.8316,-1.8846,0.3331,9.6181,-0.0034,-0.0028,0.013
17107,46.591854,-1.126851,65.54,34.57,8.576,320.1,0 / 25,887518,2019-08-12 13:34:32:954,-2.0217,0.0821,9.272,-1.8975,0.3081,9.6164,-0.0045,0.0057,0.0109
17108,46.591854,-1.126851,65.54,34.57,8.576,320.1,0 / 25,887619,2019-08-12 13:34:33:055,-2.1821,0.2623,9.9633,-1.9181,0.2666,9.6135,-0.0098,-0.006,0.0066
17109,46.591854,-1.126851,65.54,34.57,8.576,320.1,0 / 25,887718,2019-08-12 13:34:33:154,-2.2222,0.1174,9.5437,-1.9132,0.2574,9.6148,-0.0087,-0.0092,0.0056
17110,46.591854,-1.126851,65.54,34.57,8.576,320.1,0 / 25,887818,2019-08-12 13:34:33:254,-1.9558,0.0797,9.9807,-1.9204,0.2418,9.6137,-0.0087,0.0015,0.0077
17111,46.591854,-1.126851,65.54,34.57,8.576,320.1,0 / 25,887919,2019-08-12 13:34:33:355,-1.8074,-0.0094,9.9442,-1.9364,0.2038,9.6114,-0.0077,0.0015,0.0088
17112,46.591854,-1.126851,65.54,34.57,8.576,320.1,0 / 25,888018,2019-08-12 13:34:33:454,-1.7134,-0.0723,9.4851,-1.9494,0.1648,9.6095,-0.0002,0.0057,0.0088
17113,46.591854,-1.126851,65.54,34.57,8.576,320.1,0 / 25,888118,2019-08-12 13:34:33:554,-1.6907,-0.122,9.1828,-1.9439,0.1546,9.6108,-0.0045,-0.0113,0.0066
17114,46.591854,-1.126851,65.54,34.57,8.576,320.1,0 / 25,888218,2019-08-12 13:34:33:654,-1.7775,-0.2405,9.3953,-1.9238,0.1077,9.6155,-0.0055,0.0015,-0.0008
17115,46.591854,-1.126851,65.54,34.57,8.576,320.1,0 / 25,888319,2019-08-12 13:34:33:755,-1.9175,-0.0118,9.4928,-1.9206,0.0944,9.6163,-0.0077,-0.0038,-0.003
17116,46.591854,-1.126851,65.54,34.57,8.576,320.1,0 / 25,888419,2019-08-12 13:34:33:855,-1.966,-0.2255,9.4096,-1.8905,0.0175,9.6227,-0.0066,0.0089,-0.0019
17117,46.591854,-1.126851,65.54,34.57,8.576,320.1,0 / 25,888519,2019-08-12 13:34:33:955,-1.9505,-0.1717,9.609,-1.8756,-0.0283,9.6256,0.0009,-0.0017,-0.0008
17118,46.591854,-1.126851,65.54,34.57,8.576,320.1,0 / 25,888619,2019-08-12 13:34:34:055,-1.7242,-0.1298,9.3719,-1.8574,-0.0833,9.6288,-0.0045,0.0015,0.0013
17119,46.591854,-1.126851,65.54,34.57,8.576,320.1,0 / 25,888719,2019-08-12 13:34:34:155,-1.5524,-0.2267,9.5473,-1.8403,-0.0991,9.6319,-0.0002,-0.0209,-0.0008
17120,46.591854,-1.126851,65.54,34.57,8.576,320.1,0 / 25,888818,2019-08-12 13:34:34:254,-1.3824,-0.2387,9.8185,-1.8397,-0.0986,9.632,0.0051,0.0143,0.0056
17121,46.591854,-1.126851,65.54,34.57,8.576,320.1,0 / 25,888920,2019-08-12 13:34:34:356,-1.9086,-0.0543,9.6102,-1.8422,-0.0973,9.6316,-0.0023,0.0036,0.0088
17122,46.591854,-1.126851,65.54,34.57,8.576,320.1,0 / 25,889019,2019-08-12 13:34:34:455,-1.808,-0.1369,9.2684,-1.8483,-0.092,9.6305,-0.0055,0.0132,0.0088
17123,46.591854,-1.126851,65.54,34.57,8.576,320.1,0 / 25,889118,2019-08-12 13:34:34:554,-1.6961,0.0558,8.9883,-1.8497,-0.0753,9.6303,0.0019,0.0036,0.0109
17124,46.591854,-1.126851,65.54,34.57,8.576,320.1,0 / 25,889218,2019-08-12 13:34:34:654,-1.7541,-0.034,9.6724,-1.8374,-0.0628,9.6328,-0.0013,-0.0124,0.0109
17125,46.591854,-1.126851,65.54,34.57,8.576,320.1,0 / 25,889318,2019-08-12 13:34:34:754,-1.9367,0.4419,10.0477,-1.8251,-0.0589,9.6351,-0.0045,-0.006,0.0098
17126,46.591854,-1.126851,65.54,34.57,8.576,320.1,0 / 25,889419,2019-08-12 13:34:34:855,-2.1252,0.6065,10.0327,-1.8207,-0.049,9.636,-0.0055,0.0015,0.0119
17127,46.591854,-1.126851,65.54,34.57,8.576,320.1,0 / 25,889765,2019-08-12 13:34:35:201,-2.0953,0.1599,9.9555,-1.8207,-0.049,9.636,-0.0055,0.0015,0.0119
17128,46.591854,-1.126851,65.54,34.57,8.576,320.1,Sep-25,889766,2019-08-12 13:34:35:202,-2.0953,0.1599,9.9555,-1.8207,-0.049,9.636,-0.0055,0.0015,0.0119
17129,46.591854,-1.126851,65.54,34.57,8.576,320.1,Sep-25,889766,2019-08-12 13:34:35:202,-2.0953,0.1599,9.9555,-1.8207,-0.049,9.636,-0.0055,0.0015,0.0119
17130,46.591854,-1.126851,65.54,34.57,8.576,320.1,Sep-25,889819,2019-08-12 13:34:35:255,-2.0953,0.1599,9.9555,-1.8207,-0.049,9.636,-0.0055,0.0015,0.0119
17131,46.591854,-1.126851,65.54,34.57,8.576,320.1,Sep-25,889918,2019-08-12 13:34:35:354,-2.0953,0.1599,9.9555,-1.8207,-0.049,9.636,-0.0055,0.0015,0.0119
17132,46.591854,-1.126851,65.54,34.57,8.576,320.1,Sep-25,890313,2019-08-12 13:34:35:749,-1.8457,0.1282,9.0403,-1.778,0.0622,9.6439,-0.0066,-0.0049,0.0109
17133,46.591854,-1.126851,65.54,34.57,8.576,320.1,Sep-25,890313,2019-08-12 13:34:35:749,-1.8457,0.1282,9.0403,-1.778,0.0622,9.6439,-0.0066,-0.0049,0.0109
17134,46.591854,-1.126851,65.54,34.57,8.576,320.1,Sep-25,890314,2019-08-12 13:34:35:750,-1.8457,0.1282,9.0403,-1.778,0.0622,9.6439,-0.0066,-0.0049,0.0109
17135,46.591854,-1.126851,65.54,34.57,8.576,320.1,Sep-25,890314,2019-08-12 13:34:35:750,-1.8457,0.1282,9.0403,-1.778,0.0622,9.6439,-0.0066,-0.0049,0.0109
17136,46.591854,-1.126851,65.54,34.57,8.576,320.1,Sep-25,890315,2019-08-12 13:34:35:751,-1.8457,0.1282,9.0403,-1.778,0.0622,9.6439,-0.0066,-0.0049,0.0109
17137,46.591854,-1.126851,65.54,34.57,8.576,320.1,Sep-25,890315,2019-08-12 13:34:35:751,-1.8457,0.1282,9.0403,-1.778,0.0622,9.6439,-0.0066,-0.0049,0.0109
17138,46.591854,-1.126851,65.54,34.57,8.576,320.1,Sep-25,890322,2019-08-12 13:34:35:758,-1.8457,0.1282,9.0403,-1.778,0.0622,9.6439,-0.0066,-0.0049,0.0109
17139,46.59401,-1.129527,74.17,34.86,12.864,315.3,0 / 26,890367,2019-08-12 13:34:35:803,-1.8457,0.1282,9.0403,-1.778,0.0622,9.6439,-0.0066,-0.0049,0.0109
17140,46.59401,-1.129527,74.17,34.86,12.864,315.3,0 / 26,890467,2019-08-12 13:34:35:903,-1.8457,0.1282,9.0403,-1.778,0.0622,9.6439,-0.0066,-0.0049,0.0109
17141,46.59401,-1.129527,74.17,34.86,12.864,315.3,0 / 26,890566,2019-08-12 13:34:36:002,-1.7673,0.2461,9.7568,-1.7175,0.0564,9.6549,0.0019,0.0057,0.0098
17142,46.59401,-1.129527,74.17,34.86,12.864,315.3,0 / 26,890666,2019-08-12 13:34:36:102,-1.7835,0.1097,9.6293,-1.708,0.0553,9.6566,-0.0055,-0.0007,0.0088
17143,46.59401,-1.129527,74.17,34.86,12.864,315.3,0 / 26,890767,2019-08-12 13:34:36:203,-1.7589,0.2821,9.357,-1.7098,0.0511,9.6563,-0.0013,0.0047,0.0077
17144,46.59401,-1.129527,74.17,34.86,12.864,315.3,0 / 26,890867,2019-08-12 13:34:36:303,-2.0444,0.3353,10.3805,-1.7083,0.0512,9.6566,-0.0066,0.0025,0.0077
17145,46.59401,-1.129527,74.17,34.86,12.864,315.3,0 / 26,890966,2019-08-12 13:34:36:402,-2.0444,0.3353,10.3805,-1.7083,0.0512,9.6566,-0.0066,-0.007,0.0077
17146,46.59401,-1.129527,74.17,34.86,12.864,315.3,0 / 26,891066,2019-08-12 13:34:36:502,-2.0444,0.3353,10.3805,-1.7083,0.0512,9.6566,-0.0066,-0.007,0.0077
17147,46.59401,-1.129527,74.17,34.86,12.864,315.3,0 / 26,891451,2019-08-12 13:34:36:887,-1.5811,0.0959,9.8843,-1.713,0.0801,9.6556,-0.0055,0.0015,0.0088
17148,46.59401,-1.129527,74.17,34.86,12.864,315.3,0 / 26,891452,2019-08-12 13:34:36:888,-1.5811,0.0959,9.8843,-1.713,0.0801,9.6556,-0.0055,0.0015,0.0088
17149,46.59401,-1.129527,74.17,34.86,12.864,315.3,0 / 26,891452,2019-08-12 13:34:36:888,-1.5811,0.0959,9.8843,-1.713,0.0801,9.6556,-0.0055,0.0015,0.0088
17150,46.59401,-1.129527,74.17,34.86,12.864,315.3,0 / 26,891452,2019-08-12 13:34:36:888,-1.5811,0.0959,9.8843,-1.713,0.0801,9.6556,-0.0055,0.0015,0.0088
17151,46.59401,-1.129527,74.17,34.86,12.864,315.3,0 / 26,891453,2019-08-12 13:34:36:889,-1.5811,0.0959,9.8843,-1.713,0.0801,9.6556,-0.0055,0.0015,0.0088
17152,46.59401,-1.129527,74.17,34.86,12.864,315.3,0 / 26,891453,2019-08-12 13:34:36:889,-1.5811,0.0959,9.8843,-1.713,0.0801,9.6556,-0.0055,0.0015,0.0088
17153,46.59401,-1.129527,74.17,34.86,12.864,315.3,0 / 26,891454,2019-08-12 13:34:36:890,-1.5811,0.0959,9.8843,-1.713,0.0801,9.6556,-0.0055,0.0015,0.0088
17154,46.59401,-1.129527,74.17,34.86,12.864,315.3,0 / 26,891454,2019-08-12 13:34:36:890,-1.5811,0.0959,9.8843,-1.713,0.0801,9.6556,-0.0055,0.0015,0.0088
17155,46.59401,-1.129527,74.17,34.86,12.864,315.3,0 / 26,891457,2019-08-12 13:34:36:893,-1.5811,0.0959,9.8843,-1.713,0.0801,9.6556,-0.0055,0.0015,0.0088
17156,46.59401,-1.129527,74.17,34.86,12.864,315.3,0 / 26,891457,2019-08-12 13:34:36:893,-1.5811,0.0959,9.8843,-1.713,0.0801,9.6556,-0.0055,0.0015,0.0088
17157,46.59401,-1.129527,74.17,34.86,12.864,315.3,0 / 26,891462,2019-08-12 13:34:36:898,-1.5811,0.0959,9.8843,-1.713,0.0801,9.6556,-0.0055,0.0015,0.0088
17158,46.59401,-1.129527,74.17,34.86,12.864,315.3,0 / 26,891463,2019-08-12 13:34:36:899,-1.5811,0.0959,9.8843,-1.713,0.0801,9.6556,-0.0055,0.0015,0.0088
17159,46.59401,-1.129527,74.17,34.86,12.864,315.3,0 / 26,891463,2019-08-12 13:34:36:899,-1.5811,0.0959,9.8843,-1.713,0.0801,9.6556,-0.0055,0.0015,0.0088
17160,46.59401,-1.129527,74.17,34.86,12.864,315.3,0 / 26,891464,2019-08-12 13:34:36:900,-1.5811,0.0959,9.8843,-1.713,0.0801,9.6556,-0.0055,0.0015,0.0088
17161,46.59401,-1.129527,74.17,34.86,12.864,315.3,0 / 26,891464,2019-08-12 13:34:36:900,-1.5811,0.0959,9.8843,-1.713,0.0801,9.6556,-0.0055,0.0015,0.0088
17162,46.59401,-1.129527,74.17,34.86,12.864,315.3,0 / 26,891465,2019-08-12 13:34:36:901,-1.5811,0.0959,9.8843,-1.713,0.0801,9.6556,-0.0055,0.0015,0.0088
17163,46.59401,-1.129527,74.17,34.86,12.864,315.3,0 / 26,891465,2019-08-12 13:34:36:901,-1.5811,0.0959,9.8843,-1.713,0.0801,9.6556,-0.0055,0.0015,0.0088
17164,46.59401,-1.129527,74.17,34.86,12.864,315.3,0 / 26,891466,2019-08-12 13:34:36:902,-1.5811,0.0959,9.8843,-1.713,0.0801,9.6556,-0.0055,0.0015,0.0088
17165,46.59401,-1.129527,74.17,34.86,12.864,315.3,0 / 26,891466,2019-08-12 13:34:36:902,-1.5811,0.0959,9.8843,-1.713,0.0801,9.6556,-0.0055,0.0015,0.0088
17166,46.59401,-1.129527,74.17,34.86,12.864,315.3,0 / 26,891466,2019-08-12 13:34:36:902,-1.5811,0.0959,9.8843,-1.713,0.0801,9.6556,-0.0055,0.0015,0.0088
17167,46.59401,-1.129527,74.17,34.86,12.864,315.3,0 / 26,891467,2019-08-12 13:34:36:903,-1.5811,0.0959,9.8843,-1.713,0.0801,9.6556,-0.0055,0.0015,0.0088
17168,46.59401,-1.129527,74.17,34.86,12.864,315.3,0 / 26,891467,2019-08-12 13:34:36:903,-1.5811,0.0959,9.8843,-1.713,0.0801,9.6556,-0.0055,0.0015,0.0088
17169,46.59401,-1.129527,74.17,34.86,12.864,315.3,0 / 26,891472,2019-08-12 13:34:36:908,-1.5811,0.0959,9.8843,-1.713,0.0801,9.6556,-0.0055,0.0015,0.0088
17170,46.59401,-1.129527,74.17,34.86,12.864,315.3,0 / 26,891473,2019-08-12 13:34:36:909,-1.5811,0.0959,9.8843,-1.713,0.0801,9.6556,-0.0055,0.0015,0.0088
17171,46.59401,-1.129527,74.17,34.86,12.864,315.3,0 / 26,891473,2019-08-12 13:34:36:909,-1.5811,0.0959,9.8843,-1.713,0.0801,9.6556,-0.0055,0.0015,0.0088
17172,46.59401,-1.129527,74.17,34.86,12.864,315.3,0 / 26,891474,2019-08-12 13:34:36:910,-1.5811,0.0959,9.8843,-1.713,0.0801,9.6556,-0.0055,0.0015,0.0088
17173,46.59401,-1.129527,74.17,34.86,12.864,315.3,0 / 26,891474,2019-08-12 13:34:36:910,-1.5811,0.0959,9.8843,-1.713,0.0801,9.6556,-0.0055,0.0015,0.0088
17174,46.59401,-1.129527,74.17,34.86,12.864,315.3,0 / 26,891475,2019-08-12 13:34:36:911,-1.5811,0.0959,9.8843,-1.713,0.0801,9.6556,-0.0055,0.0015,0.0088
17175,46.59401,-1.129527,74.17,34.86,12.864,315.3,0 / 26,891476,2019-08-12 13:34:36:912,-1.5811,0.0959,9.8843,-1.713,0.0801,9.6556,-0.0055,0.0015,0.0088
17176,46.59401,-1.129527,74.17,34.86,12.864,315.3,0 / 26,891476,2019-08-12 13:34:36:912,-1.5811,0.0959,9.8843,-1.713,0.0801,9.6556,-0.0055,0.0015,0.0088
17177,46.59401,-1.129527,74.17,34.86,12.864,315.3,0 / 26,891477,2019-08-12 13:34:36:913,-1.5811,0.0959,9.8843,-1.713,0.0801,9.6556,-0.0055,0.0015,0.0088
17178,46.59401,-1.129527,74.17,34.86,12.864,315.3,0 / 26,891479,2019-08-12 13:34:36:915,-1.5811,0.0959,9.8843,-1.713,0.0801,9.6556,-0.0055,0.0015,0.0088
17179,46.59401,-1.129527,74.17,34.86,12.864,315.3,0 / 26,891480,2019-08-12 13:34:36:916,-1.5811,0.0959,9.8843,-1.713,0.0801,9.6556,-0.0055,0.0015,0.0088
17180,46.59401,-1.129527,74.17,34.86,12.864,315.3,0 / 26,891480,2019-08-12 13:34:36:916,-1.5811,0.0959,9.8843,-1.713,0.0801,9.6556,-0.0055,0.0015,0.0088
17181,46.59401,-1.129527,74.17,34.86,12.864,315.3,0 / 26,891481,2019-08-12 13:34:36:917,-1.5811,0.0959,9.8843,-1.713,0.0801,9.6556,-0.0055,0.0015,0.0088
17182,46.59401,-1.129527,74.17,34.86,12.864,315.3,0 / 26,891481,2019-08-12 13:34:36:917,-1.5811,0.0959,9.8843,-1.713,0.0801,9.6556,-0.0055,0.0015,0.0088
17183,46.59401,-1.129527,74.17,34.86,12.864,315.3,0 / 26,891532,2019-08-12 13:34:36:968,-1.5811,0.0959,9.8843,-1.713,0.0801,9.6556,-0.0055,0.0015,0.0088
17184,46.59401,-1.129527,74.17,34.86,12.864,315.3,0 / 26,891632,2019-08-12 13:34:37:068,-1.5811,0.0959,9.8843,-1.713,0.0801,9.6556,-0.0055,0.0015,0.0088
