,GPS LATITUDE (degrees), GPS LONGITUDE (degrees), GPS ALTITUDE (m), GPS SPEED (Kmh), GPS ACCURACY (m), GPS ORIENTATION (Â°),GPS SATELLITES IN RANGE, TIME SINCE START (ms), DATE (YYYY-MO-DD HH-MI-SS_SSS), ACCELEROMETER X (m/s²) , ACCELEROMETER Y (m/s²), ACCELEROMETER Z (m/s²), GRAVITY X (m/s²), GRAVITY Y (m/s²), GRAVITY Z (m/s²), GYROSCOPE Yaw (rad/s), GYROSCOPE Pitch (rad/s), GYROSCOPE Roll (rad/s), MAGNETIC FIELD X (Î¼T), MAGNETIC FIELD Y (Î¼T), MAGNETIC FIELD Z (Î¼T), ORIENTATION (Yaw) (Â°), ORIENTATION (Pitch) (Â°), ORIENTATION (Roll ) (Â°)
15308,52.724194,-1.595337,150.86,16.07,4,244.52,20 / 22,1530819,2019-11-06 11:07:18:162,-4.2228,-1.9496,9.928,-0.0123,0.0051,9.8066,0.0665,-0.1128,0.0908,-1.06,-35.75,23.56,253.82,-81.84,87.95
15309,52.724194,-1.595337,150.86,16.07,4,244.52,20 / 22,1530919,2019-11-06 11:07:18:262,-0.5589,-0.3547,9.0912,0.029,0.0091,9.8066,-0.0172,-0.0459,-0.1214,-1.06,-35.81,23.13,253.82,-81.84,87.95
15310,52.72413,-1.595559,150.84,16.78,4,245.74,22 / 22,1531019,2019-11-06 11:07:18:362,0.5473,0.1892,9.0993,0.0222,0.015,9.8066,-0.0439,0.1267,-0.0271,-1.31,-35.69,23.56,252.62,-81.43,87.54
15311,52.72413,-1.595559,150.84,16.78,4,245.74,22 / 22,1531120,2019-11-06 11:07:18:463,-1.5632,-0.9975,9.8684,0.0002,-0.0137,9.8066,-0.0332,0.2254,-0.1356,-1.5,-35.19,23.25,251.82,-81.23,86.97
15312,52.72413,-1.595559,150.84,16.78,4,245.74,22 / 22,1531220,2019-11-06 11:07:18:563,-3.6712,-2.4127,9.9222,-0.0273,-0.0243,9.8066,-0.0932,-0.0407,0.0136,-0.81,-35.62,23.19,252.27,-81.42,87.54
15313,52.72413,-1.595559,150.84,16.78,4,245.74,22 / 22,1531320,2019-11-06 11:07:18:663,-0.8155,-1.0221,10.4132,0.0422,-0.033,9.8064,0.1264,-0.2073,0.0671,-0.44,-35.19,23.25,252.27,-81.42,87.54
15314,52.72413,-1.595559,150.84,16.78,4,245.74,22 / 22,1531419,2019-11-06 11:07:18:762,0.8924,0.3791,10.6055,0.0178,-0.0315,9.8065,0.1536,-0.4447,0.1573,-0.37,-35.12,23.0,257.09,-81.12,90.33
15315,52.72413,-1.595559,150.84,16.78,4,245.74,22 / 22,1531520,2019-11-06 11:07:18:863,-2.3014,-1.5495,9.5361,-0.0033,-0.0492,9.8065,-0.0066,0.1841,-0.0849,-1.06,-35.31,23.44,256.57,-81.2,92.13
15316,52.72413,-1.595559,150.84,16.78,4,245.74,22 / 22,1531620,2019-11-06 11:07:18:963,-4.901,-3.0685,9.5145,-0.0985,0.0358,9.8061,-0.1554,0.377,-0.2054,-0.81,-35.56,23.06,256.57,-81.2,92.13
15317,52.72413,-1.595559,150.84,16.78,4,245.74,22 / 22,1531720,2019-11-06 11:07:19:063,-2.8521,-0.9081,9.7519,-0.0463,0.0401,9.8064,-0.1059,0.2426,-0.0888,-0.87,-35.69,22.88,255.09,-81.7,89.8
15318,52.72413,-1.595559,150.84,16.78,4,245.74,22 / 22,1531820,2019-11-06 11:07:19:163,0.9784,-1.0436,9.8119,-0.0328,0.0521,9.8064,0.0347,-0.1399,0.0145,-0.81,-36.12,22.56,252.66,-81.8,87.39
15319,52.72413,-1.595559,150.84,16.78,4,245.74,22 / 22,1531919,2019-11-06 11:07:19:262,0.7498,-0.5202,9.9814,0.0408,0.0169,9.8065,-0.0697,-0.2047,0.1127,-1.12,-35.69,22.94,252.15,-81.54,87.23
15320,52.724068,-1.595793,150.87,17.39,4,247.76,23 / 23,1532019,2019-11-06 11:07:19:362,-1.3266,-2.3842,9.5512,-0.0411,0.0726,9.8062,-0.0289,0.2266,-0.2151,-0.56,-36.0,22.5,252.15,-81.54,87.23
15321,52.724068,-1.595793,150.87,17.39,4,247.76,23 / 23,1532120,2019-11-06 11:07:19:463,-1.4553,-1.1668,10.1093,-0.0203,-0.0026,9.8066,-0.064,0.2255,-0.0727,-0.44,-35.75,21.94,251.0,-81.63,83.95
15322,52.724068,-1.595793,150.87,17.39,4,247.76,23 / 23,1532221,2019-11-06 11:07:19:564,-7.9402,-1.7019,10.4454,-0.0815,-0.0648,9.806,0.123,-0.1424,-0.117,-1.12,-35.25,22.44,251.13,-82.2,85.45
15323,52.724068,-1.595793,150.87,17.39,4,247.76,23 / 23,1532320,2019-11-06 11:07:19:663,-4.8023,-2.7181,10.4472,0.026,-0.0653,9.8063,0.0821,-0.6454,0.4404,0.0,-35.62,22.38,251.13,-82.2,85.45
15324,52.724068,-1.595793,150.87,17.39,4,247.76,23 / 23,1532420,2019-11-06 11:07:19:763,0.0506,-0.3701,9.4057,-0.0033,0.0098,9.8066,0.0562,-0.2941,-0.0011,-1.37,-35.87,22.75,254.49,-82.17,88.46
15325,52.724068,-1.595793,150.87,17.39,4,247.76,23 / 23,1532520,2019-11-06 11:07:19:863,-1.2701,-2.3116,8.7207,-0.0673,0.0267,9.8063,-0.0642,0.0854,-0.0309,-1.0,-35.62,23.0,253.79,-82.48,87.57
15326,52.724068,-1.595793,150.87,17.39,4,247.76,23 / 23,1532620,2019-11-06 11:07:19:963,-5.7549,-3.1172,8.5253,-0.1128,0.1011,9.8054,-0.1086,0.347,-0.2106,-1.19,-35.75,21.63,248.16,-82.91,81.47
15327,52.724068,-1.595793,150.87,17.39,4,247.76,23 / 23,1532720,2019-11-06 11:07:20:063,-2.7659,-2.2989,9.0574,0.0168,0.034,9.8065,-0.0894,0.068,-0.0453,-1.06,-36.31,21.31,248.16,-82.91,81.47
15328,52.724068,-1.595793,150.87,17.39,4,247.76,23 / 23,1532820,2019-11-06 11:07:20:163,-0.1354,-0.8478,8.409,-0.0053,0.0405,9.8065,0.113,-0.1067,-0.0347,-0.94,-35.87,21.19,244.85,-82.69,78.84
15329,52.724068,-1.595793,150.87,17.39,4,247.76,23 / 23,1532920,2019-11-06 11:07:20:263,-1.291,-1.3218,9.0299,0.0147,0.0041,9.8066,0.0615,-0.2975,0.018,-0.62,-35.62,21.06,242.26,-82.62,76.08
15330,52.724014,-1.596042,150.92,18.14,6,252.13,23 / 23,1533020,2019-11-06 11:07:20:363,-1.3457,-0.877,9.7873,0.0413,0.0061,9.8065,-0.0419,0.0145,0.012,-1.37,-36.06,21.31,242.26,-82.62,76.08
15331,52.724014,-1.596042,150.92,18.14,6,252.13,23 / 23,1533119,2019-11-06 11:07:20:462,-2.8266,-3.1278,10.4676,0.0169,-0.0124,9.8066,-0.0314,0.0219,-0.058,-0.44,-35.56,20.56,242.38,-82.3,76.7
15332,52.724014,-1.596042,150.92,18.14,6,252.13,23 / 23,1533219,2019-11-06 11:07:20:562,-1.3508,-3.5104,9.9661,0.0276,0.0052,9.8066,0.0205,-0.1823,0.0104,-0.31,-35.87,20.56,245.85,-82.16,78.07
15333,52.724014,-1.596042,150.92,18.14,6,252.13,23 / 23,1533320,2019-11-06 11:07:20:663,-1.2375,-3.2312,9.9681,0.013,0.0225,9.8065,-0.0798,-0.1751,0.1874,-0.31,-35.37,21.06,245.42,-82.04,77.42
15334,52.724014,-1.596042,150.92,18.14,6,252.13,23 / 23,1533420,2019-11-06 11:07:20:763,-1.8312,-2.6181,9.5635,-0.0546,0.0496,9.8063,-0.1099,0.003,0.0715,-0.19,-35.81,21.0,245.42,-82.04,77.42
15335,52.724014,-1.596042,150.92,18.14,6,252.13,23 / 23,1533520,2019-11-06 11:07:20:863,0.465,-2.8923,9.897,-0.01,0.0192,9.8066,-0.1011,-0.2236,0.2049,-0.56,-35.25,20.63,239.19,-82.16,73.0
15336,52.724014,-1.596042,150.92,18.14,6,252.13,23 / 23,1533620,2019-11-06 11:07:20:963,-0.1591,-1.936,10.2185,-0.0322,0.0382,9.8065,0.003,-0.2361,0.1009,-0.44,-35.94,20.25,238.95,-82.21,70.87
15337,52.724014,-1.596042,150.92,18.14,6,252.13,23 / 23,1533720,2019-11-06 11:07:21:063,-3.6183,-0.4373,9.901,-0.0099,0.0004,9.8066,0.0722,-0.1737,-0.033,-0.44,-35.69,20.63,238.95,-82.21,70.87
15338,52.724014,-1.596042,150.92,18.14,6,252.13,23 / 23,1533820,2019-11-06 11:07:21:163,-3.4945,-1.5517,10.4259,0.0421,-0.0353,9.8065,-0.1074,0.0661,0.1047,-0.06,-35.56,20.19,238.81,-82.25,70.63
15339,52.724014,-1.596042,150.92,18.14,6,252.13,23 / 23,1533920,2019-11-06 11:07:21:263,-2.3262,-1.1783,10.5154,0.0576,-0.0555,9.8063,0.0514,0.1685,-0.2141,-0.5,-35.94,20.56,242.08,-82.12,73.93
15340,52.72397,-1.59631,151.01,18.94,6,255.38,22 / 22,1534022,2019-11-06 11:07:21:365,1.3039,-1.859,10.0275,0.0027,-0.035,9.8066,-0.0816,-0.0438,0.1011,0.38,-35.94,20.56,243.43,-82.2,75.32
15341,52.72397,-1.59631,151.01,18.94,6,255.38,22 / 22,1534120,2019-11-06 11:07:21:463,-2.7651,-0.5576,9.1672,-0.0771,0.0148,9.8063,0.0632,-0.3392,0.1042,-0.12,-35.56,20.38,243.43,-82.2,75.32
15342,52.72397,-1.59631,151.01,18.94,6,255.38,22 / 22,1534220,2019-11-06 11:07:21:563,-7.073,-0.0878,9.0406,-0.0317,-0.0136,9.8066,-0.0001,-0.4259,0.3215,-0.62,-35.69,20.44,238.94,-82.56,73.16
15343,52.72397,-1.59631,151.01,18.94,6,255.38,22 / 22,1534320,2019-11-06 11:07:21:663,-4.8586,-1.5455,9.8052,-0.0173,-0.0098,9.8066,-0.0988,0.4022,-0.2111,-0.37,-35.5,20.63,242.41,-82.68,73.14
15344,52.72397,-1.59631,151.01,18.94,6,255.38,22 / 22,1534420,2019-11-06 11:07:21:763,1.0006,-1.8115,9.2077,0.0026,-0.0094,9.8066,-0.139,0.2896,-0.0358,-0.25,-35.75,20.31,242.41,-82.68,73.14
15345,52.72397,-1.59631,151.01,18.94,6,255.38,22 / 22,1534520,2019-11-06 11:07:21:863,1.2562,-0.1719,9.8303,-0.021,-0.018,9.8065,-0.0332,-0.0017,-0.018,-0.37,-35.81,19.69,242.32,-82.69,73.58
15346,52.72397,-1.59631,151.01,18.94,6,255.38,22 / 22,1534620,2019-11-06 11:07:21:963,-2.2816,-2.2941,8.1497,-0.0226,0.0089,9.8066,0.1406,-0.4069,0.2387,-0.37,-35.87,19.44,242.61,-82.98,74.37
15347,52.72397,-1.59631,151.01,18.94,6,255.38,22 / 22,1534720,2019-11-06 11:07:22:063,-4.3858,-2.2919,8.3962,-0.066,0.0236,9.8064,-0.0924,-0.173,0.1578,-0.69,-36.44,19.56,238.68,-83.25,71.82
15348,52.72397,-1.59631,151.01,18.94,6,255.38,22 / 22,1534820,2019-11-06 11:07:22:163,-1.0524,-1.113,8.7376,-0.0069,0.0075,9.8066,0.0623,-0.1118,-0.0263,-0.56,-36.5,18.88,238.68,-83.25,71.82
15349,52.72397,-1.59631,151.01,18.94,6,255.38,22 / 22,1534920,2019-11-06 11:07:22:263,-0.9509,-1.9864,9.3591,-0.0294,0.0112,9.8066,0.0548,0.0024,-0.0557,-1.0,-36.19,18.94,237.46,-83.5,70.75
15350,52.723927,-1.596588,151.08,19.68,6,258.64,25 / 25,1535021,2019-11-06 11:07:22:364,-1.3464,-2.6627,10.3175,-0.0293,0.0282,9.8065,-0.1079,-0.0528,-0.0106,-1.44,-36.06,19.06,235.54,-83.77,68.19
15351,52.723927,-1.596588,151.08,19.68,6,258.64,25 / 25,1535120,2019-11-06 11:07:22:463,-1.8013,-0.9925,10.0595,-0.0618,0.0527,9.8063,0.0487,0.1681,-0.1687,-0.75,-36.31,18.75,235.54,-83.77,68.19
15352,52.723927,-1.596588,151.08,19.68,6,258.64,25 / 25,1535220,2019-11-06 11:07:22:563,-0.5432,-0.9737,10.6859,-0.0058,-0.0099,9.8066,-0.0826,0.3093,-0.1771,-0.94,-35.87,18.81,234.05,-83.87,63.89
15353,52.723927,-1.596588,151.08,19.68,6,258.64,25 / 25,1535321,2019-11-06 11:07:22:664,-1.1648,-2.3294,9.9222,-0.0181,-0.049,9.8065,0.0489,-0.0819,-0.026,-1.5,-36.06,18.38,233.07,-84.12,65.55
15354,52.723927,-1.596588,151.08,19.68,6,258.64,25 / 25,1535419,2019-11-06 11:07:22:762,-3.6198,-3.2366,9.8011,-0.0728,-0.0406,9.8063,0.196,-0.3491,0.2107,-1.12,-36.37,19.06,233.69,-84.61,64.85
15355,52.723927,-1.596588,151.08,19.68,6,258.64,25 / 25,1535519,2019-11-06 11:07:22:862,-3.9597,-0.8608,9.535,-0.0569,-0.0061,9.8065,-0.0333,0.0769,-0.0172,-1.5,-36.94,18.5,233.69,-84.61,64.85
15356,52.723927,-1.596588,151.08,19.68,6,258.64,25 / 25,1535619,2019-11-06 11:07:22:962,-2.7413,0.5006,9.4549,-0.0357,-0.0074,9.8066,0.0002,0.0879,-0.226,-1.25,-36.56,18.5,230.18,-85.06,60.49
15357,52.723927,-1.596588,151.08,19.68,6,258.64,25 / 25,1535720,2019-11-06 11:07:23:063,-1.1947,-1.0372,10.4297,-0.0001,0.0232,9.8066,-0.0702,0.0279,0.0967,-1.94,-37.0,18.38,224.05,-85.26,57.04
15358,52.723927,-1.596588,151.08,19.68,6,258.64,25 / 25,1535820,2019-11-06 11:07:23:163,-2.4026,-2.4341,9.4309,0.02,0.0405,9.8065,-0.034,-0.033,-0.0867,-2.06,-36.62,18.44,224.05,-85.26,57.04
15359,52.723927,-1.596588,151.08,19.68,6,258.64,25 / 25,1535920,2019-11-06 11:07:23:263,-3.1835,-2.2714,9.3423,-0.0079,0.0379,9.8065,-0.1325,-0.3161,0.0753,-1.25,-36.44,18.31,225.83,-84.92,56.2
15360,52.723896,-1.596882,151.18,20.4,6,261.71,22 / 23,1536020,2019-11-06 11:07:23:363,-0.8741,-1.0279,9.0392,-0.0136,0.0047,9.8065,0.0063,-0.2333,0.1835,-1.37,-36.44,18.31,222.56,-84.86,52.59
15361,52.723896,-1.596882,151.18,20.4,6,261.71,22 / 23,1536120,2019-11-06 11:07:23:463,-0.6923,-0.2298,9.5963,-0.0287,0.0219,9.8066,-0.1018,0.2059,-0.1315,-1.25,-36.62,17.63,220.34,-84.88,50.23
15362,52.723896,-1.596882,151.18,20.4,6,261.71,22 / 23,1536220,2019-11-06 11:07:23:563,-3.7242,-0.7946,10.1652,0.0511,0.0387,9.8064,0.0557,-0.0315,-0.1095,-1.37,-36.62,16.88,220.34,-84.88,50.23
15363,52.723896,-1.596882,151.18,20.4,6,261.71,22 / 23,1536320,2019-11-06 11:07:23:663,-3.5469,-0.7509,10.6057,-0.0438,0.0044,9.8065,-0.1403,-0.1877,0.1374,-1.5,-36.37,16.94,219.31,-84.45,50.0
15364,52.723896,-1.596882,151.18,20.4,6,261.71,22 / 23,1536420,2019-11-06 11:07:23:763,-1.3488,-2.3033,10.1749,-0.0964,-0.0041,9.8061,0.0404,-0.1373,0.0932,-1.69,-36.12,17.06,212.82,-84.8,45.36
15365,52.723896,-1.596882,151.18,20.4,6,261.71,22 / 23,1536520,2019-11-06 11:07:23:863,-3.8727,-0.7146,10.403,-0.0691,-0.0391,9.8062,-0.1025,-0.1185,0.0679,-1.75,-37.06,17.44,212.82,-84.8,45.36
15366,52.723896,-1.596882,151.18,20.4,6,261.71,22 / 23,1536621,2019-11-06 11:07:23:964,-2.5046,-0.6912,10.9164,0.0351,-0.0351,9.8064,0.0743,0.0148,-0.0643,-1.44,-36.0,17.25,210.84,-85.21,42.77
15367,52.723896,-1.596882,151.18,20.4,6,261.71,22 / 23,1536720,2019-11-06 11:07:24:063,-1.7689,-1.8173,9.5066,0.0842,-0.035,9.8061,0.1082,-0.0769,-0.208,-1.5,-36.69,17.63,219.48,-85.1,48.96
15368,52.723896,-1.596882,151.18,20.4,6,261.71,22 / 23,1536820,2019-11-06 11:07:24:163,-2.86,-4.8557,9.4716,0.052,0.0393,9.8064,-0.0244,-0.2662,0.1739,-1.56,-36.5,17.31,216.7,-84.73,49.93
15369,52.723896,-1.596882,151.18,20.4,6,261.71,22 / 23,1536920,2019-11-06 11:07:24:263,-2.3729,-1.0954,9.6059,-0.026,0.0079,9.8065,-0.12,-0.0289,0.1666,-1.44,-36.56,16.88,216.7,-84.73,49.93
15370,52.723873,-1.597191,151.26,21.07,6,264.66,22 / 22,1537020,2019-11-06 11:07:24:363,3.6952,-3.9518,9.7326,-0.0374,-0.0049,9.8065,0.0826,0.536,-0.4291,-1.5,-36.56,16.75,218.03,-84.79,48.28
15371,52.723873,-1.597191,151.26,21.07,6,264.66,22 / 22,1537120,2019-11-06 11:07:24:463,-3.0328,-1.5588,9.6023,-0.0164,-0.0807,9.8063,0.0789,0.3821,-0.3595,-1.31,-36.5,17.25,220.94,-85.21,50.86
15372,52.723873,-1.597191,151.26,21.07,6,264.66,22 / 22,1537220,2019-11-06 11:07:24:563,4.1755,0.1928,10.1068,0.0827,-0.01,9.8062,0.0563,-0.7734,0.334,-1.06,-36.94,16.75,220.94,-85.21,50.86
15373,52.723873,-1.597191,151.26,21.07,6,264.66,22 / 22,1537320,2019-11-06 11:07:24:663,-0.3799,-2.2575,9.6523,0.0151,-0.0153,9.8066,0.1142,-0.4562,0.368,-0.87,-36.56,16.63,224.42,-84.92,55.42
15374,52.723873,-1.597191,151.26,21.07,6,264.66,22 / 22,1537420,2019-11-06 11:07:24:763,-4.8694,-1.9649,9.0407,-0.0453,0.0016,9.8065,0.0256,0.0089,-0.1204,-1.31,-36.19,16.56,224.97,-85.0,55.72
15375,52.723873,-1.597191,151.26,21.07,6,264.66,22 / 22,1537519,2019-11-06 11:07:24:862,-5.4937,-1.6869,8.7514,-0.0984,0.0209,9.8061,0.1103,0.2939,-0.2227,-0.87,-36.25,16.25,219.49,-85.3,49.7
15376,52.723873,-1.597191,151.26,21.07,6,264.66,22 / 22,1537619,2019-11-06 11:07:24:962,-0.4378,-0.2497,9.5059,0.0249,-0.0037,9.8066,0.087,-0.1467,0.0875,-0.31,-36.56,15.81,219.49,-85.3,49.7
15377,52.723873,-1.597191,151.26,21.07,6,264.66,22 / 22,1537719,2019-11-06 11:07:25:062,-0.0333,-0.0601,10.8058,0.0217,-0.029,9.8065,0.0674,-0.3692,0.0371,-0.75,-36.5,16.13,223.24,-85.13,54.23
15378,52.723873,-1.597191,151.26,21.07,6,264.66,22 / 22,1537819,2019-11-06 11:07:25:162,-1.648,-0.2265,10.7138,-0.0278,-0.0167,9.8065,-0.016,-0.2587,0.2929,-0.75,-36.37,15.69,226.88,-85.14,58.35
15379,52.723873,-1.597191,151.26,21.07,6,264.66,22 / 22,1537920,2019-11-06 11:07:25:263,-2.7731,-1.0913,9.115,-0.0413,-0.0157,9.8065,0.0129,0.1054,-0.1962,-1.0,-36.25,15.94,226.88,-85.14,58.35
15380,52.72386,-1.597506,151.32,21.67,6,267.39,21 / 21,1538020,2019-11-06 11:07:25:363,-4.6285,-1.195,7.1354,-0.0096,0.0237,9.8066,-0.0688,-0.1085,0.0475,-0.62,-37.0,15.38,224.51,-85.34,56.08
15381,52.72386,-1.597506,151.32,21.67,6,267.39,21 / 21,1538120,2019-11-06 11:07:25:463,-2.3723,0.5105,7.177,0.0329,0.0291,9.8065,-0.1429,-0.1918,0.1395,-0.19,-36.37,15.13,227.63,-85.08,56.29
15382,52.72386,-1.597506,151.32,21.67,6,267.39,21 / 21,1538220,2019-11-06 11:07:25:563,-0.0337,-0.5145,9.1593,0.0081,0.0536,9.8064,0.073,-0.1622,0.0547,-0.25,-36.06,15.5,225.81,-84.83,54.07
15383,52.72386,-1.597506,151.32,21.67,6,267.39,21 / 21,1538320,2019-11-06 11:07:25:663,-0.2009,-0.7734,10.5662,0.0167,-0.0464,9.8064,0.1469,-0.0322,-0.1009,-0.25,-36.0,16.63,225.81,-84.83,54.07
15384,52.72386,-1.597506,151.32,21.67,6,267.39,21 / 21,1538420,2019-11-06 11:07:25:763,-1.9405,-2.8359,10.6287,0.0248,-0.0204,9.8066,-0.0683,0.1005,-0.0997,-0.62,-36.19,16.19,225.46,-84.94,57.05
15385,52.72386,-1.597506,151.32,21.67,6,267.39,21 / 21,1538520,2019-11-06 11:07:25:863,-3.1348,-1.741,9.8087,0.0024,-0.0218,9.8066,0.1016,-0.1611,0.0478,-0.37,-36.37,16.0,229.73,-85.02,58.21
15386,52.72386,-1.597506,151.32,21.67,6,267.39,21 / 21,1538620,2019-11-06 11:07:25:963,-0.9945,-0.9897,9.5012,-0.0943,0.0526,9.806,-0.0543,-0.2253,0.0998,-0.37,-36.56,16.13,229.73,-85.02,58.21
15387,52.72386,-1.597506,151.32,21.67,6,267.39,21 / 21,1538720,2019-11-06 11:07:26:063,0.9453,-2.0051,9.3308,-0.0299,0.0226,9.8065,-0.1728,-0.2372,0.2528,-0.69,-36.5,15.44,220.62,-85.21,51.12
15388,52.72386,-1.597506,151.32,21.67,6,267.39,21 / 21,1538820,2019-11-06 11:07:26:163,-2.0344,-2.3679,10.9203,0.0157,-0.0048,9.8066,0.0025,0.281,-0.1708,-1.37,-36.62,15.06,216.75,-85.12,47.67
15389,52.72386,-1.597506,151.32,21.67,6,267.39,21 / 21,1538920,2019-11-06 11:07:26:263,-2.2002,-2.4997,11.7072,0.0196,-0.0597,9.8064,-0.1147,0.1416,-0.0345,-0.62,-36.0,15.0,220.35,-85.32,51.35
15390,52.723858,-1.597831,151.35,22.28,6,269.23,24 / 25,1539021,2019-11-06 11:07:26:364,-0.7431,-1.9287,10.5212,-0.0292,-0.0231,9.8065,0.0932,-0.1016,0.0723,-0.56,-36.0,15.5,220.35,-85.32,51.35
15391,52.723858,-1.597831,151.35,22.28,6,269.23,24 / 25,1539120,2019-11-06 11:07:26:463,-0.8986,1.5229,9.0727,-0.0251,0.0109,9.8065,0.0494,-0.1684,0.0786,-0.69,-35.94,15.0,218.92,-85.57,49.34
15392,52.723858,-1.597831,151.35,22.28,6,269.23,24 / 25,1539220,2019-11-06 11:07:26:563,-5.537,1.6702,8.9406,-0.0043,0.0261,9.8065,-0.1284,-0.3196,0.2977,-1.62,-36.56,15.19,212.09,-85.66,45.26
15393,52.723858,-1.597831,151.35,22.28,6,269.23,24 / 25,1539320,2019-11-06 11:07:26:663,-3.9907,1.147,8.7206,0.0206,0.0621,9.8064,0.1228,-0.0087,0.0224,-1.0,-36.06,15.25,212.09,-85.66,45.26
15394,52.723858,-1.597831,151.35,22.28,6,269.23,24 / 25,1539420,2019-11-06 11:07:26:763,1.6,-0.8716,9.8314,-0.0144,-0.0145,9.8066,0.0457,0.3724,-0.4501,-1.06,-36.75,15.25,212.56,-85.22,45.34
15395,52.723858,-1.597831,151.35,22.28,6,269.23,24 / 25,1539520,2019-11-06 11:07:26:863,-0.0495,-0.1704,9.4822,-0.0328,-0.0106,9.8065,-0.0097,0.2156,-0.0753,-1.25,-36.31,14.69,213.4,-85.47,43.12
15396,52.723858,-1.597831,151.35,22.28,6,269.23,24 / 25,1539620,2019-11-06 11:07:26:963,-1.9305,0.6677,9.0522,-0.0556,0.0091,9.8065,0.1137,-0.5427,0.2812,-1.25,-36.37,14.44,209.6,-85.59,39.21
15397,52.723858,-1.597831,151.35,22.28,6,269.23,24 / 25,1539720,2019-11-06 11:07:27:063,-4.9027,-1.5023,8.9602,0.0207,-0.0154,9.8066,-0.1007,-0.1923,0.1374,-1.56,-36.75,14.69,209.6,-85.59,39.21
15398,52.723858,-1.597831,151.35,22.28,6,269.23,24 / 25,1539820,2019-11-06 11:07:27:163,-0.6489,-3.0552,9.1006,0.0186,-0.0466,9.8065,0.1425,0.0645,-0.0731,-1.25,-36.37,14.81,214.37,-85.57,44.11
15399,52.723858,-1.597831,151.35,22.28,6,269.23,24 / 25,1539920,2019-11-06 11:07:27:263,-0.1001,-2.164,9.8429,0.0052,-0.0758,9.8063,0.0923,0.1497,-0.1641,-1.06,-36.44,14.94,218.16,-85.91,47.97
15400,52.723858,-1.598165,151.41,22.46,6,271.1,21 / 21,1540020,2019-11-06 11:07:27:363,0.0488,0.6001,9.6484,-0.0312,-0.0162,9.8065,0.0491,-0.2476,0.2111,-1.06,-36.25,14.44,218.16,-85.91,47.97
15401,52.723858,-1.598165,151.41,22.46,6,271.1,21 / 21,1540120,2019-11-06 11:07:27:463,-2.4272,-1.6938,8.1347,-0.0444,0.0238,9.8065,-0.1404,-0.2005,0.059,-1.56,-36.5,14.06,216.56,-86.09,46.72
15402,52.723858,-1.598165,151.41,22.46,6,271.1,21 / 21,1540220,2019-11-06 11:07:27:563,-2.0382,-1.3421,8.5953,-0.0253,0.0209,9.8066,0.0069,-0.1277,0.1426,-1.37,-37.06,14.0,209.89,-86.11,39.04
15403,52.723858,-1.598165,151.41,22.46,6,271.1,21 / 21,1540320,2019-11-06 11:07:27:663,-1.3401,0.9304,9.4774,-0.0449,-0.0011,9.8065,0.0689,0.1544,-0.217,-1.81,-36.37,13.75,203.68,-86.24,35.61
15404,52.723858,-1.598165,151.41,22.46,6,271.1,21 / 21,1540420,2019-11-06 11:07:27:763,-0.5422,-1.8462,8.8331,0.0047,0.0002,9.8066,-0.0522,-0.0779,0.0578,-1.37,-36.81,13.44,203.68,-86.24,35.61
15405,52.723858,-1.598165,151.41,22.46,6,271.1,21 / 21,1540521,2019-11-06 11:07:27:864,-1.2953,-1.7263,9.3264,0.0107,0.0134,9.8066,0.0897,-0.1314,-0.0427,-1.37,-36.87,13.88,207.18,-86.18,35.82
15406,52.723858,-1.598165,151.41,22.46,6,271.1,21 / 21,1540622,2019-11-06 11:07:27:965,-2.5376,-0.9266,9.5581,-0.0158,0.015,9.8065,-0.0055,-0.0763,0.0682,-1.5,-36.5,13.5,206.19,-86.1,34.64
15407,52.723858,-1.598165,151.41,22.46,6,271.1,21 / 21,1540720,2019-11-06 11:07:28:063,-1.0664,0.0712,9.7947,-0.0238,0.0099,9.8066,0.0357,-0.3016,0.1068,-2.0,-36.19,13.88,206.19,-86.1,34.64
15408,52.723858,-1.598165,151.41,22.46,6,271.1,21 / 21,1540823,2019-11-06 11:07:28:166,0.8015,-0.3648,9.6737,0.046,-0.0251,9.8064,-0.1134,0.2656,-0.3929,-1.31,-36.56,13.56,204.31,-86.05,32.51
15409,52.723858,-1.598165,151.41,22.46,6,271.1,21 / 21,1540920,2019-11-06 11:07:28:263,-0.2395,-0.7306,8.7657,0.0597,0.0066,9.8064,0.0848,0.3107,-0.2355,-1.0,-36.56,13.19,212.91,-85.92,43.54
15410,52.723866,-1.598507,151.46,22.82,4,274.31,21 / 22,1541020,2019-11-06 11:07:28:363,-2.0912,-0.4395,9.6082,0.0963,0.0112,9.8061,0.0535,-0.1596,-0.0997,-0.62,-36.5,12.94,217.36,-85.54,49.17
15411,52.723866,-1.598507,151.46,22.82,4,274.31,21 / 22,1541120,2019-11-06 11:07:28:463,-3.0936,-1.3128,8.1999,0.0013,0.0331,9.8065,-0.0477,-0.2876,0.1509,-0.69,-36.5,13.0,217.36,-85.54,49.17
15412,52.723866,-1.598507,151.46,22.82,4,274.31,21 / 22,1541220,2019-11-06 11:07:28:563,0.1457,2.6469,9.3713,0.0226,-0.02,9.8065,0.108,-0.1493,0.1421,-0.62,-36.12,13.25,216.36,-85.25,48.48
15413,52.723866,-1.598507,151.46,22.82,4,274.31,21 / 22,1541320,2019-11-06 11:07:28:663,-0.1552,-0.2812,9.4829,0.0155,-0.0478,9.8064,-0.1482,0.0436,-0.0988,-0.25,-35.87,13.25,222.86,-85.41,51.46
15414,52.723866,-1.598507,151.46,22.82,4,274.31,21 / 22,1541420,2019-11-06 11:07:28:763,-1.4467,-0.2398,10.2113,-0.0167,-0.0002,9.8065,0.011,0.2634,-0.0357,-0.31,-36.0,12.94,222.86,-85.41,51.46
15415,52.723866,-1.598507,151.46,22.82,4,274.31,21 / 22,1541519,2019-11-06 11:07:28:862,-2.9567,-1.952,10.9098,-0.0229,-0.0368,9.8066,-0.0984,0.0864,-0.1335,-1.06,-37.12,13.5,218.64,-85.48,50.56
15416,52.723866,-1.598507,151.46,22.82,4,274.31,21 / 22,1541620,2019-11-06 11:07:28:963,-0.5967,-0.2425,9.9394,-0.035,-0.0204,9.8066,0.0192,-0.1077,-0.012,-1.06,-37.19,13.69,218.36,-85.7,49.43
15417,52.723866,-1.598507,151.46,22.82,4,274.31,21 / 22,1541720,2019-11-06 11:07:29:063,-0.6177,0.4716,10.046,-0.0536,0.0286,9.8064,0.0442,-0.1982,0.1461,-0.56,-36.12,12.38,213.06,-85.75,44.71
15418,52.723866,-1.598507,151.46,22.82,4,274.31,21 / 22,1541820,2019-11-06 11:07:29:163,-1.0826,-0.1459,9.1,0.0013,0.0448,9.8065,-0.0779,-0.0343,-0.0306,-0.94,-36.69,12.69,213.06,-85.75,44.71
15419,52.723866,-1.598507,151.46,22.82,4,274.31,21 / 22,1541920,2019-11-06 11:07:29:263,-3.8018,-1.2478,8.7553,0.0129,0.0112,9.8066,-0.1357,0.337,-0.2114,-0.56,-36.25,12.88,212.06,-85.52,42.96
15420,52.723885,-1.598842,151.5,22.58,4,275.85,22 / 22,1542020,2019-11-06 11:07:29:363,-3.3663,0.2871,9.5167,0.01,0.0164,9.8066,-0.0024,0.1615,-0.1845,0.0,-36.31,12.0,215.86,-85.17,44.28
15421,52.723885,-1.598842,151.5,22.58,4,275.85,22 / 22,1542120,2019-11-06 11:07:29:463,1.0775,0.0557,9.2515,-0.01,-0.0057,9.8066,-0.1438,-0.2516,0.161,-0.44,-36.5,11.81,215.86,-85.17,44.28
15422,52.723885,-1.598842,151.5,22.58,4,275.85,22 / 22,1542219,2019-11-06 11:07:29:562,0.1112,0.7595,9.4875,-0.0191,-0.0163,9.8065,0.2168,-0.196,0.0692,-0.25,-36.56,12.06,211.41,-85.35,43.35
15423,52.723885,-1.598842,151.5,22.58,4,275.85,22 / 22,1542320,2019-11-06 11:07:29:663,-0.869,0.8031,9.2344,-0.0345,-0.0031,9.8065,-0.0661,0.0206,-0.0518,-0.62,-37.31,12.69,211.97,-85.61,42.91
15424,52.723885,-1.598842,151.5,22.58,4,275.85,22 / 22,1542420,2019-11-06 11:07:29:763,-1.0346,1.2534,10.7308,-0.0367,-0.0207,9.8065,0.1318,-0.2327,0.0586,-0.69,-36.56,12.25,211.97,-85.61,42.91
15425,52.723885,-1.598842,151.5,22.58,4,275.85,22 / 22,1542520,2019-11-06 11:07:29:863,-2.3352,-1.2609,10.8187,0.0029,-0.0483,9.8065,0.1939,-0.2194,0.0495,-0.62,-36.62,12.56,214.76,-85.82,41.29
15426,52.723885,-1.598842,151.5,22.58,4,275.85,22 / 22,1542620,2019-11-06 11:07:29:963,-1.2615,-2.0575,9.396,-0.0156,0.0193,9.8066,-0.2104,-0.0071,0.0129,-1.06,-36.44,12.25,213.44,-86.12,44.55
15427,52.723885,-1.598842,151.5,22.58,4,275.85,22 / 22,1542720,2019-11-06 11:07:30:063,0.1583,0.8331,9.4777,-0.0359,0.0452,9.8064,-0.0449,0.2246,-0.0286,-1.06,-36.5,11.5,209.37,-86.0,39.95
15428,52.723885,-1.598842,151.5,22.58,4,275.85,22 / 22,1542820,2019-11-06 11:07:30:163,0.0872,0.9498,11.388,-0.0458,-0.0156,9.8065,-0.0259,0.067,0.0277,-1.44,-36.87,11.38,209.37,-86.0,39.95
15429,52.723885,-1.598842,151.5,22.58,4,275.85,22 / 22,1542920,2019-11-06 11:07:30:263,0.2949,0.2633,10.5597,0.0241,-0.0392,9.8065,0.0352,-0.3661,0.1741,-0.81,-36.25,11.94,207.08,-86.21,37.1
15430,52.72391,-1.599166,151.5,21.49,4,278.23,22 / 22,1543020,2019-11-06 11:07:30:363,-2.7552,-0.4913,9.6726,0.0329,-0.0234,9.8065,0.0262,-0.1577,0.1445,-0.69,-37.0,11.44,209.33,-86.24,40.65
15431,52.72391,-1.599166,151.5,21.49,4,278.23,22 / 22,1543120,2019-11-06 11:07:30:463,-3.3259,0.7743,9.3269,-0.0179,0.0205,9.8066,-0.0249,0.0316,-0.1171,-1.37,-36.87,11.31,209.33,-86.24,40.65
15432,52.72391,-1.599166,151.5,21.49,4,278.23,22 / 22,1543220,2019-11-06 11:07:30:563,-4.1254,1.9432,9.3436,0.0116,0.0237,9.8066,-0.2007,0.1841,-0.0663,-1.19,-36.25,11.13,207.51,-86.18,38.41
15433,52.72391,-1.599166,151.5,21.49,4,278.23,22 / 22,1543320,2019-11-06 11:07:30:663,-0.4736,1.0424,9.8127,-0.0101,-0.0067,9.8066,0.0688,-0.0751,-0.0217,-1.06,-36.62,10.69,205.87,-85.97,36.91
15434,52.72391,-1.599166,151.5,21.49,4,278.23,22 / 22,1543420,2019-11-06 11:07:30:763,-1.3462,-0.027,9.6325,-0.0245,-0.0181,9.8065,0.095,-0.2649,-0.0316,-0.94,-36.69,10.88,205.87,-85.97,36.91
15435,52.72391,-1.599166,151.5,21.49,4,278.23,22 / 22,1543520,2019-11-06 11:07:30:863,-1.9451,-0.7146,9.2273,0.0391,0.007,9.8065,-0.0501,-0.1679,0.1739,-1.31,-36.69,11.19,205.04,-86.13,35.68
15436,52.72391,-1.599166,151.5,21.49,4,278.23,22 / 22,1543620,2019-11-06 11:07:30:963,-1.392,0.1441,9.5954,0.0169,0.0056,9.8066,0.0095,-0.0194,0.031,-1.06,-35.87,11.19,209.07,-85.89,40.72
15437,52.72391,-1.599166,151.5,21.49,4,278.23,22 / 22,1543720,2019-11-06 11:07:31:063,1.3109,1.3863,9.9064,-0.0416,-0.0176,9.8065,0.1052,0.0009,-0.0389,-0.06,-36.06,11.25,214.71,-85.81,42.47
15438,52.72391,-1.599166,151.5,21.49,4,278.23,22 / 22,1543820,2019-11-06 11:07:31:163,-0.4276,1.2643,10.8718,-0.0702,-0.0196,9.8063,0.0496,0.0316,-0.091,-1.0,-36.75,11.0,214.71,-85.81,42.47
15439,52.72391,-1.599166,151.5,21.49,4,278.23,22 / 22,1543920,2019-11-06 11:07:31:263,-1.6088,0.9389,10.248,-0.003,-0.0103,9.8066,0.0045,0.023,0.0366,-1.31,-36.81,10.63,205.82,-86.25,36.29
15440,52.723946,-1.599471,151.51,20.48,4,280.79,21 / 22,1544020,2019-11-06 11:07:31:363,-0.5675,0.6734,9.6868,0.0147,-0.0108,9.8066,0.008,0.0272,-0.0217,-0.81,-36.25,11.06,205.77,-86.38,36.06
15441,52.723946,-1.599471,151.51,20.48,4,280.79,21 / 22,1544119,2019-11-06 11:07:31:462,-2.36,0.7519,9.897,0.0074,-0.0118,9.8066,0.0003,0.0715,-0.0745,-0.94,-36.87,11.06,205.77,-86.38,36.06
15442,52.723946,-1.599471,151.51,20.48,4,280.79,21 / 22,1544219,2019-11-06 11:07:31:562,-1.0491,-0.3343,9.863,-0.0022,-0.0176,9.8066,0.0303,0.0294,0.0049,-1.25,-36.87,10.44,206.64,-86.42,37.17
15443,52.723946,-1.599471,151.51,20.48,4,280.79,21 / 22,1544320,2019-11-06 11:07:31:663,-0.9322,-0.0536,10.0957,-0.0077,-0.0164,9.8066,0.0464,-0.0645,0.063,-1.0,-36.44,10.63,206.29,-86.66,36.27
15444,52.723946,-1.599471,151.51,20.48,4,280.79,21 / 22,1544420,2019-11-06 11:07:31:763,-0.217,-0.1419,9.9381,-0.0327,-0.0212,9.8065,-0.0953,0.0442,-0.0257,-1.94,-36.81,10.31,199.12,-86.85,34.14
15445,52.723946,-1.599471,151.51,20.48,4,280.79,21 / 22,1544520,2019-11-06 11:07:31:863,-0.8956,1.009,9.3661,-0.0262,0.017,9.8066,-0.0492,0.057,-0.0495,-1.19,-36.94,10.69,199.12,-86.85,34.14
15446,52.723946,-1.599471,151.51,20.48,4,280.79,21 / 22,1544620,2019-11-06 11:07:31:963,-0.825,-0.3388,9.8779,0.0112,0.0041,9.8066,-0.0231,0.0035,-0.0266,-0.87,-36.62,10.69,201.82,-86.81,30.96
15447,52.723946,-1.599471,151.51,20.48,4,280.79,21 / 22,1544720,2019-11-06 11:07:32:063,-1.0075,1.0075,9.8327,0.0153,0.0088,9.8066,0.0042,-0.024,0.0116,-1.25,-36.81,10.31,201.9,-86.72,32.08
15448,52.723946,-1.599471,151.51,20.48,4,280.79,21 / 22,1544820,2019-11-06 11:07:32:163,-1.5566,2.1585,9.647,-0.0106,0.0119,9.8066,0.0929,0.0877,-0.1257,-0.69,-36.75,9.56,201.9,-86.72,32.08
15449,52.723946,-1.599471,151.51,20.48,4,280.79,21 / 22,1544920,2019-11-06 11:07:32:263,-1.284,-0.2338,8.2137,0.0282,0.0097,9.8065,-0.003,0.1459,-0.1263,-1.5,-36.12,9.81,200.75,-86.68,30.65
15450,52.723984,-1.599762,151.51,19.45,4,282.35,21 / 24,1545020,2019-11-06 11:07:32:363,0.5712,1.2034,8.9073,0.0219,-0.0112,9.8066,-0.1936,-0.0634,0.0182,-0.94,-36.37,9.75,202.5,-86.57,32.88
15451,52.723984,-1.599762,151.51,19.45,4,282.35,21 / 24,1545120,2019-11-06 11:07:32:463,2.292,0.6465,9.6721,0.0423,-0.0183,9.8064,0.1048,-0.3912,0.1831,-0.56,-36.25,10.0,206.25,-86.56,37.37
15452,52.723984,-1.599762,151.51,19.45,4,282.35,21 / 24,1545220,2019-11-06 11:07:32:563,-4.9713,-0.9116,9.3037,0.0341,-0.0123,9.8065,-0.0788,-0.2247,0.3184,-0.19,-35.5,10.19,206.25,-86.56,37.37
15453,52.723984,-1.599762,151.51,19.45,4,282.35,21 / 24,1545320,2019-11-06 11:07:32:663,-7.4216,-1.1214,9.5726,-0.005,-0.0088,9.8066,-0.027,0.6045,-0.3658,-1.19,-36.62,10.56,213.92,-86.53,40.86
15454,52.723984,-1.599762,151.51,19.45,4,282.35,21 / 24,1545420,2019-11-06 11:07:32:763,-0.6771,1.5455,9.9528,-0.0643,-0.0025,9.8064,-0.03,0.6567,-0.389,-1.69,-36.19,10.13,203.56,-86.61,39.62
15455,52.723984,-1.599762,151.51,19.45,4,282.35,21 / 24,1545520,2019-11-06 11:07:32:863,6.3204,0.6378,10.1732,-0.2399,-0.0277,9.8037,-0.087,0.0349,-0.0119,-1.56,-36.44,10.06,203.56,-86.61,39.62
15456,52.723984,-1.599762,151.51,19.45,4,282.35,21 / 24,1545620,2019-11-06 11:07:32:963,1.6902,-0.8875,10.8901,-0.0646,-0.0253,9.8064,0.1261,-0.6455,0.4174,-2.06,-36.25,9.94,183.22,-87.06,15.12
15457,52.723984,-1.599762,151.51,19.45,4,282.35,21 / 24,1545719,2019-11-06 11:07:33:062,-4.9283,-0.8929,11.5696,0.0276,-0.0103,9.8065,0.093,-0.3351,0.1059,-2.19,-36.5,9.88,176.8,-87.25,7.58
15458,52.723984,-1.599762,151.51,19.45,4,282.35,21 / 24,1545820,2019-11-06 11:07:33:163,-0.8191,-1.8737,10.3854,-0.0027,0.0246,9.8065,-0.1796,0.3088,-0.079,-1.75,-36.69,9.88,181.1,-87.29,12.6
15459,52.723984,-1.599762,151.51,19.45,4,282.35,21 / 24,1545920,2019-11-06 11:07:33:263,0.4479,0.7784,9.7022,-0.0356,0.0333,9.8065,-0.1053,0.3577,-0.2422,-1.81,-36.81,9.69,181.1,-87.29,12.6
15460,52.724026,-1.600038,151.55,19.05,4,283.79,21 / 22,1546019,2019-11-06 11:07:33:362,-0.5325,0.8238,8.796,-0.0129,0.0364,9.8065,-0.0403,-0.1696,0.0868,-1.44,-36.87,9.88,179.17,-86.88,4.72
15461,52.724026,-1.600038,151.55,19.05,4,283.79,21 / 22,1546119,2019-11-06 11:07:33:462,-1.8475,-0.0593,9.8285,0.0426,0.0333,9.8064,0.0062,-0.1865,0.0757,-1.69,-36.75,9.88,177.68,-86.67,3.48
15462,52.724026,-1.600038,151.55,19.05,4,283.79,21 / 22,1546220,2019-11-06 11:07:33:563,-2.8213,0.8843,10.1185,0.0719,0.045,9.8062,0.0942,-0.0863,-0.0806,-1.25,-36.31,9.69,183.79,-86.39,10.34
15463,52.724026,-1.600038,151.55,19.05,4,283.79,21 / 22,1546320,2019-11-06 11:07:33:663,1.3715,-1.1532,9.8926,0.0803,0.0006,9.8063,0.0019,0.1057,-0.0374,-1.75,-36.12,10.0,185.2,-86.33,17.67
15464,52.724026,-1.600038,151.55,19.05,4,283.79,21 / 22,1546420,2019-11-06 11:07:33:763,1.6301,0.8771,11.1076,-0.0342,-0.0257,9.8065,0.0393,0.0853,-0.088,-2.0,-35.37,9.81,185.2,-86.33,17.67
15465,52.724026,-1.600038,151.55,19.05,4,283.79,21 / 22,1546521,2019-11-06 11:07:33:864,-0.3215,-0.2826,11.3689,-0.0254,-0.0481,9.8065,0.0335,-0.1945,0.2189,-3.06,-33.5,10.06,178.27,-86.49,14.64
15466,52.724026,-1.600038,151.55,19.05,4,283.79,21 / 22,1546620,2019-11-06 11:07:33:963,-3.7046,-1.135,9.4974,-0.0442,-0.0965,9.806,0.0109,-0.3588,0.0714,-2.5,-33.37,9.0,177.28,-87.04,9.31
15467,52.724026,-1.600038,151.55,19.05,4,283.79,21 / 22,1546720,2019-11-06 11:07:34:063,1.2739,-0.7008,8.2361,0.0091,0.0725,9.8063,-0.0259,-0.3817,0.2179,-1.62,-34.31,9.38,177.28,-87.04,9.31
15468,52.724026,-1.600038,151.55,19.05,4,283.79,21 / 22,1546820,2019-11-06 11:07:34:163,1.089,-0.2714,9.1953,-0.0131,0.0156,9.8066,0.0433,0.0538,-0.0838,-2.0,-35.12,9.0,178.38,-86.62,10.55
15469,52.724026,-1.600038,151.55,19.05,4,283.79,21 / 22,1546920,2019-11-06 11:07:34:263,-1.6137,-1.5927,10.2599,-0.0161,-0.0061,9.8066,-0.0213,0.2064,-0.1606,-1.94,-35.87,9.0,176.96,-86.53,8.78
15470,52.724068,-1.600305,151.54,18.87,4,285.66,22 / 22,1547019,2019-11-06 11:07:34:362,-1.7322,-1.1216,10.8535,0.0041,-0.01,9.8066,0.0576,0.0675,-0.0809,-1.81,-36.56,8.94,176.26,-86.64,7.92
15471,52.724068,-1.600305,151.54,18.87,4,285.66,22 / 22,1547119,2019-11-06 11:07:34:462,-1.5166,-0.8954,9.6022,0.0247,0.0033,9.8066,-0.0618,0.0334,-0.0631,-1.87,-35.87,9.5,176.26,-86.64,7.92
15472,52.724068,-1.600305,151.54,18.87,4,285.66,22 / 22,1547219,2019-11-06 11:07:34:562,1.6318,1.0318,8.6025,0.0517,0.0306,9.8064,0.0964,-0.3368,0.1285,-1.56,-36.62,9.31,181.16,-86.5,13.97
15473,52.724068,-1.600305,151.54,18.87,4,285.66,22 / 22,1547320,2019-11-06 11:07:34:663,1.1506,0.059,9.641,0.0869,0.0721,9.8059,0.0083,-0.1701,0.0361,-1.37,-36.44,8.63,191.7,-86.03,21.21
15474,52.724068,-1.600305,151.54,18.87,4,285.66,22 / 22,1547421,2019-11-06 11:07:34:764,-0.3275,-0.443,9.4657,-0.0224,0.0122,9.8066,0.0088,0.1731,-0.0844,-1.69,-36.0,9.0,191.7,-86.03,21.21
15475,52.724068,-1.600305,151.54,18.87,4,285.66,22 / 22,1547519,2019-11-06 11:07:34:862,-0.1893,0.4437,10.233,-0.0229,-0.0275,9.8066,0.0875,0.0912,-0.1151,-1.75,-36.44,9.13,185.22,-85.99,19.17
15476,52.724068,-1.600305,151.54,18.87,4,285.66,22 / 22,1547620,2019-11-06 11:07:34:963,0.7122,-0.865,11.2376,-0.013,-0.0565,9.8064,0.0273,0.2963,-0.1941,-1.25,-36.44,9.81,190.39,-86.32,18.46
15477,52.724068,-1.600305,151.54,18.87,4,285.66,22 / 22,1547719,2019-11-06 11:07:35:062,-0.4961,-0.6256,10.3429,0.0463,-0.0063,9.8065,-0.039,0.1864,-0.1129,-1.12,-36.12,9.31,193.05,-86.3,22.69
15478,52.724068,-1.600305,151.54,18.87,4,285.66,22 / 22,1547820,2019-11-06 11:07:35:163,0.047,-2.2163,9.8201,-0.0162,-0.0007,9.8066,0.0229,-0.0786,0.084,-1.31,-37.06,9.56,193.05,-86.3,22.69
15479,52.724068,-1.600305,151.54,18.87,4,285.66,22 / 22,1547920,2019-11-06 11:07:35:263,2.6604,-0.1719,9.926,-0.0191,-0.0036,9.8066,-0.0064,-0.1181,0.0811,-1.06,-36.81,10.19,192.62,-86.32,21.26
15480,52.724117,-1.600576,151.53,19.06,4,285.32,19 / 20,1548020,2019-11-06 11:07:35:363,2.3961,-0.744,10.1236,-0.0251,-0.0201,9.8066,0.1634,-0.0695,-0.0274,-0.75,-36.37,9.94,191.21,-86.47,19.36
15481,52.724117,-1.600576,151.53,19.06,4,285.32,19 / 20,1548120,2019-11-06 11:07:35:463,-1.1937,-1.9503,10.5965,-0.026,-0.0475,9.8064,-0.0042,0.2541,-0.0674,-1.0,-36.44,9.94,191.21,-86.47,19.36
15482,52.724117,-1.600576,151.53,19.06,4,285.32,19 / 20,1548220,2019-11-06 11:07:35:563,-2.1698,-3.0495,10.4485,-0.0106,-0.0151,9.8065,-0.1661,0.3636,-0.1472,-1.12,-36.12,9.56,189.93,-86.77,17.68
15483,52.724117,-1.600576,151.53,19.06,4,285.32,19 / 20,1548320,2019-11-06 11:07:35:663,0.7902,-0.9728,9.8734,0.0096,0.0265,9.8065,0.0024,0.3089,-0.2193,-2.44,-36.44,9.81,183.74,-86.76,15.79
15484,52.724117,-1.600576,151.53,19.06,4,285.32,19 / 20,1548420,2019-11-06 11:07:35:763,2.458,-0.0635,10.3334,0.0277,0.0389,9.8065,-0.1055,-0.1798,0.1601,-1.31,-36.25,9.5,183.74,-86.76,15.79
15485,52.724117,-1.600576,151.53,19.06,4,285.32,19 / 20,1548520,2019-11-06 11:07:35:863,-0.7675,-1.559,9.4025,-0.0285,0.0219,9.8065,-0.04,-0.2439,0.1982,-1.69,-36.62,10.13,190.29,-86.52,18.21
15486,52.724117,-1.600576,151.53,19.06,4,285.32,19 / 20,1548620,2019-11-06 11:07:35:963,0.8982,-0.496,9.0645,-0.0241,0.0235,9.8066,0.0049,0.0573,0.0013,-1.69,-36.19,9.94,179.71,-86.38,10.96
15487,52.724117,-1.600576,151.53,19.06,4,285.32,19 / 20,1548719,2019-11-06 11:07:36:062,-0.5679,-1.6385,9.4925,-0.0404,0.0069,9.8065,-0.0627,0.1334,-0.0725,-2.31,-37.12,10.13,174.18,-86.23,4.11
15488,52.724117,-1.600576,151.53,19.06,4,285.32,19 / 20,1548820,2019-11-06 11:07:36:163,-2.3912,-0.8727,8.8716,-0.1028,0.0176,9.806,0.0464,-0.3499,0.184,-1.94,-36.75,9.69,174.18,-86.23,4.11
15489,52.724117,-1.600576,151.53,19.06,4,285.32,19 / 20,1548920,2019-11-06 11:07:36:263,2.398,0.3247,9.5152,0.0261,0.0259,9.8066,0.0564,-0.3991,0.1695,-2.19,-37.06,9.19,164.59,-85.85,-7.28
15490,52.72416,-1.60085,151.51,19.37,6,284.58,22 / 23,1549020,2019-11-06 11:07:36:363,0.3118,-0.2995,11.1969,-0.0551,-0.0059,9.8065,-0.0358,-0.2127,0.2498,-2.44,-36.56,9.44,166.12,-85.67,-5.49
15491,52.72416,-1.60085,151.51,19.37,6,284.58,22 / 23,1549120,2019-11-06 11:07:36:463,2.6301,-1.4113,11.2506,-0.0548,-0.0741,9.8062,0.1003,0.1455,-0.0877,-2.5,-37.31,9.56,166.12,-85.67,-5.49
15492,52.72416,-1.60085,151.51,19.37,6,284.58,22 / 23,1549220,2019-11-06 11:07:36:563,-0.8404,-1.3572,10.6385,-0.1206,-0.079,9.8055,-0.0047,-0.1693,0.1125,-2.5,-36.5,10.63,157.31,-85.99,-11.43
15493,52.72416,-1.60085,151.51,19.37,6,284.58,22 / 23,1549320,2019-11-06 11:07:36:663,-3.5736,-3.8288,11.2731,0.0487,-0.0344,9.8064,0.1493,-0.2806,0.0902,-2.87,-36.12,11.88,147.16,-86.19,-24.77
15494,52.72416,-1.60085,151.51,19.37,6,284.58,22 / 23,1549420,2019-11-06 11:07:36:763,-2.4873,-2.6539,10.0294,0.1418,0.0184,9.8055,0.0461,-0.3385,0.1088,-3.81,-36.06,9.56,151.38,-86.47,-12.44
15495,52.72416,-1.60085,151.51,19.37,6,284.58,22 / 23,1549520,2019-11-06 11:07:36:863,5.7265,2.0176,7.5936,0.1375,0.1097,9.805,-0.1034,0.2235,-0.0199,-2.37,-36.44,9.38,151.38,-86.47,-12.44
15496,52.72416,-1.60085,151.51,19.37,6,284.58,22 / 23,1549620,2019-11-06 11:07:36:963,0.6451,-0.9183,9.868,-0.0491,-0.0565,9.8063,0.0128,0.4924,-0.2341,-1.81,-36.87,9.75,173.13,-86.15,2.83
15497,52.72416,-1.60085,151.51,19.37,6,284.58,22 / 23,1549720,2019-11-06 11:07:37:063,-3.3126,-3.2908,10.8469,-0.0655,-0.0847,9.806,-0.2376,0.536,-0.089,-1.75,-37.12,9.38,166.21,-86.57,-4.53
15498,52.72416,-1.60085,151.51,19.37,6,284.58,22 / 23,1549820,2019-11-06 11:07:37:163,3.4449,-0.2822,10.0256,0.0274,0.0666,9.8064,-0.0843,0.3493,-0.2101,-1.81,-37.44,9.69,166.21,-86.57,-4.53
15499,52.72416,-1.60085,151.51,19.37,6,284.58,22 / 23,1549920,2019-11-06 11:07:37:263,8.6319,1.5975,9.8205,-0.0993,0.0128,9.806,0.3097,-0.5381,0.1224,-2.56,-36.69,9.81,169.47,-86.22,-0.75
15500,52.72421,-1.601129,151.49,19.7,4,285.38,22 / 24,1550019,2019-11-06 11:07:37:362,1.323,0.2222,9.5531,-0.1165,-0.0173,9.8059,-0.124,-0.6493,0.6157,-2.31,-37.81,9.69,163.99,-86.0,-8.77
15501,52.72421,-1.601129,151.49,19.7,4,285.38,22 / 24,1550120,2019-11-06 11:07:37:463,-10.7307,-1.8787,9.9128,-0.1696,-0.0386,9.805,0.1214,0.5568,-0.3363,-3.25,-37.25,9.06,147.46,-85.82,-22.83
15502,52.72421,-1.601129,151.49,19.7,4,285.38,22 / 24,1550220,2019-11-06 11:07:37:563,-1.9599,-1.1203,10.4759,0.1016,0.0518,9.806,-0.1466,1.2215,-0.7398,-3.12,-37.25,9.88,147.46,-85.82,-22.83
15503,52.72421,-1.601129,151.49,19.7,4,285.38,22 / 24,1550320,2019-11-06 11:07:37:663,5.525,1.3227,10.6589,0.0254,-0.0081,9.8065,-0.0363,0.8013,-0.4713,-3.37,-36.87,9.44,155.67,-85.83,-13.67
15504,52.72421,-1.601129,151.49,19.7,4,285.38,22 / 24,1550420,2019-11-06 11:07:37:763,5.1958,1.703,9.448,-0.0582,-0.0181,9.8065,0.0887,-0.9769,0.5118,-3.06,-37.06,9.94,156.47,-85.93,-12.55
15505,52.72421,-1.601129,151.49,19.7,4,285.38,22 / 24,1550520,2019-11-06 11:07:37:863,-9.4206,-1.5564,10.1024,-0.0842,-0.0329,9.8062,0.0083,-1.1029,0.6893,-2.81,-37.19,10.13,156.47,-85.93,-12.55
15506,52.72421,-1.601129,151.49,19.7,4,285.38,22 / 24,1550620,2019-11-06 11:07:37:963,-8.3248,-1.5893,9.7162,0.0863,0.0444,9.8061,0.0569,-0.1389,0.0425,-2.19,-37.12,10.06,150.55,-85.87,-19.9
15507,52.72421,-1.601129,151.49,19.7,4,285.38,22 / 24,1550720,2019-11-06 11:07:38:063,1.9401,0.329,8.6507,0.0504,0.0076,9.8064,0.0931,0.5032,-0.468,-2.44,-37.19,9.63,165.67,-85.75,-6.8
15508,52.72421,-1.601129,151.49,19.7,4,285.38,22 / 24,1550820,2019-11-06 11:07:38:163,-0.8551,-1.0572,9.6874,0.0135,0.0076,9.8066,0.0365,0.2062,-0.0911,-2.0,-37.19,9.94,170.35,-85.73,-0.91
15509,52.72421,-1.601129,151.49,19.7,4,285.38,22 / 24,1550920,2019-11-06 11:07:38:263,-0.7836,0.2539,10.0824,0.0523,0.0384,9.8063,-0.1994,0.3499,-0.1425,-1.87,-37.5,9.88,170.35,-85.73,-0.91
15510,52.724247,-1.601405,151.44,19.05,4,282.95,22 / 22,1551019,2019-11-06 11:07:38:362,4.701,1.5236,7.7844,0.0075,0.0397,9.8065,-0.3,0.6671,0.0165,-2.37,-37.25,9.75,173.82,-85.55,3.46
15511,52.724247,-1.601405,151.44,19.05,4,282.95,22 / 22,1551120,2019-11-06 11:07:38:463,3.7654,3.5349,8.62,-0.0552,0.0752,9.8061,0.0984,0.5136,-0.3677,-3.0,-37.56,10.13,167.44,-85.07,0.28
15512,52.724247,-1.601405,151.44,19.05,4,282.95,22 / 22,1551220,2019-11-06 11:07:38:563,-2.7705,0.0218,11.7268,-0.1834,-0.12,9.8041,-0.2831,-0.4438,0.5146,-2.87,-37.19,9.81,167.44,-85.07,0.28
15513,52.724247,-1.601405,151.44,19.05,4,282.95,22 / 22,1551320,2019-11-06 11:07:38:663,-5.8375,2.6398,9.9647,-0.0269,0.0006,9.8065,-0.0376,0.3072,0.1157,-2.87,-37.5,10.19,155.37,-85.37,-14.72
15514,52.724247,-1.601405,151.44,19.05,4,282.95,22 / 22,1551420,2019-11-06 11:07:38:763,-7.8243,-2.5434,10.8697,0.01,-0.0751,9.8063,0.1824,1.1013,-1.0397,-2.81,-37.56,10.56,154.89,-85.29,-16.45
15515,52.724247,-1.601405,151.44,19.05,4,282.95,22 / 22,1551520,2019-11-06 11:07:38:863,-1.1255,2.669,11.0014,0.2077,-0.1215,9.8037,-0.0971,1.0013,-0.4365,-2.06,-37.37,9.88,167.7,-86.36,-3.77
15516,52.724247,-1.601405,151.44,19.05,4,282.95,22 / 22,1551620,2019-11-06 11:07:38:963,11.1971,5.2358,5.9334,0.1637,0.1268,9.8044,0.3848,-0.814,0.3122,-1.94,-36.94,9.88,167.7,-86.36,-3.77
15517,52.724247,-1.601405,151.44,19.05,4,282.95,22 / 22,1551719,2019-11-06 11:07:39:062,-12.2522,0.0082,9.1256,-0.0826,-0.0211,9.8062,0.0772,-1.8019,0.8862,-2.25,-36.62,10.44,179.73,-85.7,10.97
15518,52.724247,-1.601405,151.44,19.05,4,282.95,22 / 22,1551820,2019-11-06 11:07:39:163,15.1216,-0.2523,8.8342,-0.0382,-0.0076,9.8065,0.0669,-0.9866,0.2575,-1.87,-36.56,10.0,166.73,-85.88,-5.35
15519,52.724247,-1.601405,151.44,19.05,4,282.95,22 / 22,1551920,2019-11-06 11:07:39:263,-8.1019,-0.624,10.3672,0.0757,0.0399,9.8062,0.0348,1.337,-0.7531,-2.06,-37.12,10.25,166.73,-85.88,-5.35
15520,52.72429,-1.60167,151.38,17.67,4,281.08,23 / 23,1552020,2019-11-06 11:07:39:363,4.1817,2.6451,8.3675,0.0459,0.0598,9.8063,-0.2321,0.4527,-0.1838,-2.81,-36.81,10.25,171.94,-85.73,1.16
15521,52.72429,-1.60167,151.38,17.67,4,281.08,23 / 23,1552120,2019-11-06 11:07:39:463,1.1762,1.8382,10.5052,-0.0481,-0.0423,9.8064,0.1593,-1.1792,0.7715,-2.62,-37.0,10.06,165.25,-85.78,-1.82
15522,52.72429,-1.60167,151.38,17.67,4,281.08,23 / 23,1552220,2019-11-06 11:07:39:563,-9.954,-0.6462,11.4841,-0.1264,-0.1353,9.8048,0.0375,-0.2181,0.0699,-2.56,-36.87,10.44,153.31,-86.24,-15.93
15523,52.72429,-1.60167,151.38,17.67,4,281.08,23 / 23,1552320,2019-11-06 11:07:39:663,-2.9691,0.9935,8.9543,0.0568,0.0288,9.8064,-0.0197,0.5657,-0.4493,-2.81,-37.0,10.44,153.31,-86.24,-15.93
15524,52.72429,-1.60167,151.38,17.67,4,281.08,23 / 23,1552420,2019-11-06 11:07:39:763,2.6721,1.2111,8.0069,0.0683,0.0429,9.8063,-0.0826,0.7525,-0.5356,-2.44,-37.31,10.19,168.5,-86.28,-2.86
15525,52.72429,-1.60167,151.38,17.67,4,281.08,23 / 23,1552520,2019-11-06 11:07:39:863,2.2833,2.003,8.7139,-0.0405,0.0067,9.8065,0.0376,-0.2556,0.0702,-2.31,-36.5,9.88,177.04,-85.89,7.61
15526,52.72429,-1.60167,151.38,17.67,4,281.08,23 / 23,1552620,2019-11-06 11:07:39:963,-8.8828,-0.4402,11.1417,-0.1265,0.0051,9.8058,-0.0387,-0.7104,0.4287,-2.69,-37.19,9.69,177.04,-85.89,7.61
15527,52.72429,-1.60167,151.38,17.67,4,281.08,23 / 23,1552720,2019-11-06 11:07:40:063,-5.8893,-0.432,10.4989,0.0266,0.018,9.8066,0.112,-0.5115,0.2229,-2.56,-37.06,10.31,162.61,-85.7,-5.2
15528,52.72429,-1.60167,151.38,17.67,4,281.08,23 / 23,1552819,2019-11-06 11:07:40:162,-0.6397,-0.3392,9.9837,0.0926,0.0013,9.8062,0.0167,-0.1321,-0.1567,-1.94,-36.62,9.63,172.8,-85.75,2.19
15529,52.72429,-1.60167,151.38,17.67,4,281.08,23 / 23,1552920,2019-11-06 11:07:40:263,2.5727,1.3639,10.5073,0.1675,0.0043,9.8051,-0.0645,0.1781,-0.4133,-1.25,-36.31,9.5,187.68,-85.74,15.4
15530,52.72432,-1.601916,151.33,16.2,4,284.79,22 / 23,1553020,2019-11-06 11:07:40:363,-0.2361,1.3761,8.9595,0.075,0.0349,9.8063,0.0557,0.013,-0.0292,-1.0,-36.25,9.56,187.68,-85.74,15.4
15531,52.72432,-1.601916,151.33,16.2,4,284.79,22 / 23,1553119,2019-11-06 11:07:40:462,-2.9091,-1.0195,8.2014,-0.0266,0.0225,9.8065,0.0534,-0.2655,0.1281,-1.44,-36.44,8.63,191.11,-85.5,20.87
15532,52.72432,-1.601916,151.33,16.2,4,284.79,22 / 23,1553219,2019-11-06 11:07:40:562,-3.1703,-1.0873,8.694,-0.0916,0.037,9.8061,-0.055,-0.3902,0.1574,-1.5,-36.44,8.75,185.7,-85.35,13.85
15533,52.72432,-1.601916,151.33,16.2,4,284.79,22 / 23,1553319,2019-11-06 11:07:40:662,-4.0352,-1.4918,9.9199,-0.0266,0.0445,9.8065,0.0999,0.1885,-0.2008,-1.37,-35.75,7.94,185.7,-85.35,13.85
15534,52.72432,-1.601916,151.33,16.2,4,284.79,22 / 23,1553420,2019-11-06 11:07:40:763,-2.6266,0.5101,9.8538,0.1153,-0.0892,9.8055,0.0639,-0.1254,-0.1251,-1.44,-36.37,8.0,178.32,-85.11,11.73
15535,52.72432,-1.601916,151.33,16.2,4,284.79,22 / 23,1553520,2019-11-06 11:07:40:863,-0.6594,-1.7149,9.321,0.1619,-0.153,9.8041,0.0849,0.0231,-0.0259,-1.44,-36.25,8.38,193.45,-85.92,24.78
15536,52.72432,-1.601916,151.33,16.2,4,284.79,22 / 23,1553620,2019-11-06 11:07:40:963,0.1622,-0.7352,9.3284,-0.0398,0.0498,9.8064,-0.2028,0.1002,-0.1357,-1.44,-36.25,6.94,189.24,-85.69,20.87
15537,52.72432,-1.601916,151.33,16.2,4,284.79,22 / 23,1553720,2019-11-06 11:07:41:063,-2.1918,0.3227,8.5766,-0.1721,0.1492,9.804,-0.0441,-0.1254,0.2879,-1.87,-36.69,6.25,189.24,-85.69,20.87
15538,52.72432,-1.601916,151.33,16.2,4,284.79,22 / 23,1553820,2019-11-06 11:07:41:163,-3.9319,0.9652,9.9353,-0.1232,0.008,9.8059,-0.1893,-0.0553,-0.1763,-2.37,-36.5,6.0,173.15,-84.86,8.13
15539,52.72432,-1.601916,151.33,16.2,4,284.79,22 / 23,1553919,2019-11-06 11:07:41:262,-3.0285,0.4555,11.0921,-0.0839,-0.0446,9.8062,0.1334,0.0014,0.084,-2.81,-36.94,6.5,165.09,-85.03,2.13
15540,52.72437,-1.602147,151.29,15.72,4,291.91,23 / 23,1554019,2019-11-06 11:07:41:362,-2.9553,-2.2455,10.6166,0.0311,-0.0466,9.8064,0.0844,-0.1392,-0.1843,-2.12,-36.44,6.69,165.09,-85.03,2.13
15541,52.72437,-1.602147,151.29,15.72,4,291.91,23 / 23,1554120,2019-11-06 11:07:41:463,-2.1265,-0.9153,11.5147,0.0339,0.0601,9.8064,-0.0967,-0.3688,0.0308,-2.12,-36.31,6.44,172.48,-85.7,5.59
15542,52.72437,-1.602147,151.29,15.72,4,291.91,23 / 23,1554219,2019-11-06 11:07:41:562,-1.5829,0.6545,10.4514,0.0557,-0.0553,9.8062,0.2408,-0.2982,0.0717,-2.56,-35.62,5.5,165.58,-85.1,5.63
15543,52.72437,-1.602147,151.29,15.72,4,291.91,23 / 23,1554320,2019-11-06 11:07:41:663,-1.0584,1.1406,9.9544,0.1487,-0.1506,9.8044,0.063,-0.3499,0.026,-2.19,-35.94,5.81,177.41,-86.11,14.85
15544,52.72437,-1.602147,151.29,15.72,4,291.91,23 / 23,1554420,2019-11-06 11:07:41:763,-1.6935,-1.9572,10.4634,0.0577,-0.082,9.8061,0.0953,-0.0654,-0.1707,-2.06,-36.31,6.56,177.41,-86.11,14.85
15545,52.72437,-1.602147,151.29,15.72,4,291.91,23 / 23,1554520,2019-11-06 11:07:41:863,-2.1576,-2.3372,10.3497,-0.0129,0.0237,9.8066,-0.0769,0.0225,-0.0423,-1.94,-36.62,6.38,180.85,-86.73,19.56
15546,52.72437,-1.602147,151.29,15.72,4,291.91,23 / 23,1554620,2019-11-06 11:07:41:963,-1.5339,-0.7978,9.9366,-0.0356,0.0518,9.8064,-0.0104,-0.0486,0.0232,-2.87,-36.81,5.69,172.24,-86.43,16.15
15547,52.72437,-1.602147,151.29,15.72,4,291.91,23 / 23,1554720,2019-11-06 11:07:42:063,-1.6906,-1.051,10.184,-0.0549,0.013,9.8064,-0.0439,-0.1137,-0.003,-2.56,-36.75,5.5,172.24,-86.43,16.15
15548,52.72437,-1.602147,151.29,15.72,4,291.91,23 / 23,1554819,2019-11-06 11:07:42:162,-2.5252,-0.583,9.9626,-0.0208,-0.0729,9.8063,0.0546,-0.2316,0.0659,-2.5,-36.62,4.88,174.84,-86.3,11.39
15549,52.72437,-1.602147,151.29,15.72,4,291.91,23 / 23,1554920,2019-11-06 11:07:42:263,-1.8892,-0.3809,9.7812,0.0151,-0.0917,9.8062,0.0522,-0.2341,-0.0354,-2.87,-36.75,5.31,165.99,-86.84,12.11
15550,52.724434,-1.602354,151.24,15.37,4,299.11,23 / 24,1555020,2019-11-06 11:07:42:363,-3.3197,-2.4164,9.956,-0.0361,-0.0053,9.8065,-0.1197,-0.2009,0.0982,-2.75,-36.0,5.31,163.05,-86.81,8.29
15551,52.724434,-1.602354,151.24,15.37,4,299.11,23 / 24,1555120,2019-11-06 11:07:42:463,-2.9198,-1.7936,8.7366,0.0162,0.0231,9.8066,0.0225,-0.1417,-0.008,-2.81,-36.69,5.38,163.05,-86.81,8.29
15552,52.724434,-1.602354,151.24,15.37,4,299.11,23 / 24,1555220,2019-11-06 11:07:42:563,-2.0741,0.3431,8.6092,0.0015,0.0001,9.8066,0.1157,0.0002,-0.1909,-2.87,-36.81,5.13,164.99,-86.71,10.55
15553,52.724434,-1.602354,151.24,15.37,4,299.11,23 / 24,1555320,2019-11-06 11:07:42:663,0.3243,-1.4968,8.9854,-0.0006,-0.0098,9.8066,0.172,-0.2721,0.0656,-3.0,-36.81,5.13,164.68,-86.76,10.23
15554,52.724434,-1.602354,151.24,15.37,4,299.11,23 / 24,1555420,2019-11-06 11:07:42:763,-1.4434,-1.1707,11.0616,-0.0078,-0.0654,9.8064,0.0344,-0.2676,0.0616,-2.87,-37.0,5.81,164.68,-86.76,10.23
15555,52.724434,-1.602354,151.24,15.37,4,299.11,23 / 24,1555520,2019-11-06 11:07:42:863,2.6384,1.1146,10.6658,0.0261,-0.0529,9.8064,0.0071,-0.194,0.1494,-3.12,-36.5,4.94,161.91,-87.11,7.35
15556,52.724434,-1.602354,151.24,15.37,4,299.11,23 / 24,1555620,2019-11-06 11:07:42:963,-0.656,-1.7718,11.0387,-0.0132,-0.1084,9.806,0.131,-0.0893,-0.032,-3.25,-37.0,5.44,155.76,-87.68,0.68
15557,52.724434,-1.602354,151.24,15.37,4,299.11,23 / 24,1555720,2019-11-06 11:07:43:063,-1.3446,-2.0892,10.2546,-0.0076,0.0047,9.8066,-0.0519,0.0338,-0.035,-3.81,-37.06,4.44,144.07,-87.63,-0.03
15558,52.724434,-1.602354,151.24,15.37,4,299.11,23 / 24,1555820,2019-11-06 11:07:43:163,0.2502,-1.0534,8.9024,-0.0405,0.01,9.8065,0.0116,0.0242,-0.0041,-4.12,-36.94,4.81,144.07,-87.63,-0.03
15559,52.724434,-1.602354,151.24,15.37,4,299.11,23 / 24,1555920,2019-11-06 11:07:43:263,0.7502,-0.7166,9.2507,-0.0294,0.0357,9.8065,-0.1493,-0.1167,0.0479,-4.25,-36.87,4.88,146.05,-87.44,-3.55
15560,52.724503,-1.602541,151.17,15.4,4,304.13,22 / 23,1556020,2019-11-06 11:07:43:363,-0.8742,2.3704,10.1055,0.012,0.0231,9.8066,0.0646,0.097,0.0487,-4.37,-37.06,3.81,141.83,-86.98,-5.45
15561,52.724503,-1.602541,151.17,15.4,4,304.13,22 / 23,1556119,2019-11-06 11:07:43:462,2.775,-2.2169,9.5986,0.0157,-0.017,9.8065,0.1093,0.3553,-0.1304,-4.5,-36.37,4.0,141.83,-86.98,-5.45
15562,52.724503,-1.602541,151.17,15.4,4,304.13,22 / 23,1556221,2019-11-06 11:07:43:564,-0.1855,-2.8068,9.7021,0.0233,-0.0189,9.8065,0.0084,0.0702,-0.1652,-4.12,-36.75,5.56,147.16,-87.46,-2.16
15563,52.724503,-1.602541,151.17,15.4,4,304.13,22 / 23,1556320,2019-11-06 11:07:43:663,-0.8359,-2.953,8.4842,0.0016,0.0179,9.8066,0.0582,-0.0372,-0.0654,-3.5,-37.12,5.0,155.74,-87.63,0.54
15564,52.724503,-1.602541,151.17,15.4,4,304.13,22 / 23,1556420,2019-11-06 11:07:43:763,-0.3747,0.3689,8.3462,-0.0204,0.0786,9.8063,-0.1323,-0.3792,0.2028,-3.75,-37.12,4.25,147.21,-87.17,2.15
15565,52.724503,-1.602541,151.17,15.4,4,304.13,22 / 23,1556520,2019-11-06 11:07:43:863,0.0585,-0.3299,9.1085,-0.0755,0.0946,9.8059,0.0539,0.0479,-0.1297,-4.37,-36.62,3.75,147.21,-87.17,2.15
15566,52.724503,-1.602541,151.17,15.4,4,304.13,22 / 23,1556620,2019-11-06 11:07:43:963,0.6022,0.1149,9.5683,0.0055,0.0094,9.8066,-0.0883,0.1894,-0.1051,-3.94,-36.62,3.5,149.21,-86.2,1.43
15567,52.724503,-1.602541,151.17,15.4,4,304.13,22 / 23,1556721,2019-11-06 11:07:44:064,-0.8628,-1.3519,9.9292,0.0107,-0.0116,9.8066,0.0921,0.202,-0.1665,-4.37,-36.44,3.94,148.95,-86.29,1.72
15568,52.724503,-1.602541,151.17,15.4,4,304.13,22 / 23,1556820,2019-11-06 11:07:44:163,0.8035,-1.0192,9.7648,0.0094,-0.0694,9.8063,0.0134,-0.0161,0.0121,-3.94,-36.75,3.69,148.95,-86.29,1.72
15569,52.724503,-1.602541,151.17,15.4,4,304.13,22 / 23,1556920,2019-11-06 11:07:44:263,-0.1254,0.6739,9.1107,-0.0401,-0.001,9.8065,0.0747,-0.0973,-0.0193,-4.37,-36.81,3.69,141.06,-86.66,-1.06
15570,52.724583,-1.602725,151.08,15.73,6,306.44,22 / 22,1557023,2019-11-06 11:07:44:366,0.3827,-1.2175,9.5128,-0.0482,0.004,9.8065,-0.0594,0.0586,0.0842,-4.25,-36.56,4.06,144.24,-86.46,-4.37
15571,52.724583,-1.602725,151.08,15.73,6,306.44,22 / 22,1557120,2019-11-06 11:07:44:463,2.144,0.4154,9.6592,0.0476,-0.0338,9.8064,-0.0034,0.3388,-0.2228,-4.19,-36.75,3.63,144.78,-86.78,-2.41
15572,52.724583,-1.602725,151.08,15.73,6,306.44,22 / 22,1557220,2019-11-06 11:07:44:563,-2.6727,-3.5378,10.1089,-0.019,-0.1064,9.806,0.1677,0.3101,-0.1846,-4.56,-37.12,3.88,144.78,-86.78,-2.41
15573,52.724583,-1.602725,151.08,15.73,6,306.44,22 / 22,1557320,2019-11-06 11:07:44:663,1.7057,-1.9776,9.2055,0.0006,-0.0245,9.8065,0.1002,-0.4557,0.3061,-4.56,-37.06,4.0,129.64,-87.19,-11.61
15574,52.724583,-1.602725,151.08,15.73,6,306.44,22 / 22,1557420,2019-11-06 11:07:44:763,2.7331,0.4484,9.4132,-0.0392,-0.0041,9.8066,-0.0918,-0.229,0.1309,-4.81,-36.94,4.19,127.62,-87.02,-14.77
15575,52.724583,-1.602725,151.08,15.73,6,306.44,22 / 22,1557520,2019-11-06 11:07:44:863,1.854,-2.1399,9.682,-0.0718,-0.015,9.8063,-0.024,-0.0448,0.1987,-4.56,-36.87,3.94,127.62,-87.02,-14.77
15576,52.724583,-1.602725,151.08,15.73,6,306.44,22 / 22,1557620,2019-11-06 11:07:44:963,1.9331,1.6311,10.1242,-0.0079,0.023,9.8065,-0.0509,0.2049,-0.2618,-4.69,-37.12,3.94,118.94,-86.73,-20.48
15577,52.724583,-1.602725,151.08,15.73,6,306.44,22 / 22,1557720,2019-11-06 11:07:45:063,-0.5674,-1.9533,10.0752,-0.0085,-0.0387,9.8065,0.1157,-0.3873,0.05,-4.37,-37.62,4.31,132.94,-86.63,-18.83
15578,52.724583,-1.602725,151.08,15.73,6,306.44,22 / 22,1557820,2019-11-06 11:07:45:163,-3.1239,-2.8203,10.4987,0.0261,-0.0618,9.8064,0.0744,-0.4913,0.2788,-4.37,-36.94,3.88,128.69,-86.98,-21.88
15579,52.724583,-1.602725,151.08,15.73,6,306.44,22 / 22,1557920,2019-11-06 11:07:45:263,3.1821,1.8877,9.093,0.0579,0.0468,9.8064,0.0975,-0.1781,0.0183,-4.19,-36.81,3.81,128.69,-86.98,-21.88
15580,52.724667,-1.602914,151.01,16.39,6,305.86,23 / 23,1558020,2019-11-06 11:07:45:363,2.278,0.5539,9.0097,0.0901,0.0758,9.8059,-0.1889,0.3101,-0.1202,-4.5,-36.62,4.06,139.06,-87.04,-8.71
15581,52.724667,-1.602914,151.01,16.39,6,305.86,23 / 23,1558120,2019-11-06 11:07:45:463,-1.4846,-2.5916,9.776,-0.0055,0.011,9.8066,0.062,0.536,-0.2797,-3.81,-37.19,4.5,143.43,-86.97,-8.37
15582,52.724667,-1.602914,151.01,16.39,6,305.86,23 / 23,1558219,2019-11-06 11:07:45:562,4.5323,0.4581,9.1569,0.0458,0.002,9.8065,-0.1276,0.4648,-0.1196,-3.37,-36.75,4.19,143.43,-86.97,-8.37
15583,52.724667,-1.602914,151.01,16.39,6,305.86,23 / 23,1558320,2019-11-06 11:07:45:663,3.3134,-0.3044,9.8335,-0.0119,-0.0285,9.8066,0.0186,0.2499,-0.0435,-3.62,-36.19,4.31,142.57,-87.11,-3.97
15584,52.724667,-1.602914,151.01,16.39,6,305.86,23 / 23,1558420,2019-11-06 11:07:45:763,0.444,-1.5769,9.4116,-0.0136,0.006,9.8066,-0.0674,0.0479,-0.0161,-3.62,-36.62,5.0,141.19,-87.19,-10.34
15585,52.724667,-1.602914,151.01,16.39,6,305.86,23 / 23,1558520,2019-11-06 11:07:45:863,0.6625,-0.8126,9.8757,0.0045,0.043,9.8065,-0.0613,-0.0942,0.2059,-3.5,-36.31,4.5,151.04,-87.01,-6.94
15586,52.724667,-1.602914,151.01,16.39,6,305.86,23 / 23,1558620,2019-11-06 11:07:45:963,2.8692,-1.2429,10.1047,0.0331,0.0141,9.8065,0.0341,0.4809,-0.1591,-2.69,-37.0,4.63,151.04,-87.01,-6.94
15587,52.724667,-1.602914,151.01,16.39,6,305.86,23 / 23,1558720,2019-11-06 11:07:46:063,8.2988,2.0131,9.8516,0.0117,-0.0471,9.8065,-0.0571,0.9616,-0.4366,-2.75,-36.62,5.5,159.03,-87.04,-0.23
15588,52.724667,-1.602914,151.01,16.39,6,305.86,23 / 23,1558820,2019-11-06 11:07:46:163,0.8163,-1.1956,10.5325,0.0073,-0.0343,9.8065,-0.04,0.7117,-0.4956,-2.87,-36.69,6.25,154.42,-87.65,-4.6
15589,52.724667,-1.602914,151.01,16.39,6,305.86,23 / 23,1558920,2019-11-06 11:07:46:263,-4.0044,-3.6941,10.908,0.0275,-0.035,9.8065,0.038,-0.5916,0.3357,-2.56,-36.44,6.69,154.42,-87.65,-4.6
15590,52.72475,-1.603125,150.89,17.13,6,298.62,23 / 23,1559020,2019-11-06 11:07:46:363,1.1721,-0.0475,9.8975,0.0033,0.0029,9.8066,0.1316,-0.6873,0.4969,-2.06,-36.5,7.38,162.16,-87.9,-3.05
15591,52.72475,-1.603125,150.89,17.13,6,298.62,23 / 23,1559120,2019-11-06 11:07:46:463,8.3499,1.0726,9.7635,0.0527,0.0132,9.8064,0.0771,-0.1417,0.1345,-2.25,-36.56,8.31,172.77,-87.9,5.63
15592,52.72475,-1.603125,150.89,17.13,6,298.62,23 / 23,1559220,2019-11-06 11:07:46:563,6.9548,0.1699,10.7997,0.0783,-0.0323,9.8062,0.003,0.7295,-0.3052,-2.25,-37.56,8.81,185.43,-88.1,18.7
15593,52.72475,-1.603125,150.89,17.13,6,298.62,23 / 23,1559320,2019-11-06 11:07:46:663,-0.7829,-2.7384,9.7027,0.0078,-0.0028,9.8066,0.0582,-0.1113,-0.0046,-1.81,-36.56,9.06,185.43,-88.1,18.7
15594,52.72475,-1.603125,150.89,17.13,6,298.62,23 / 23,1559420,2019-11-06 11:07:46:763,-10.0029,-5.3606,10.1172,-0.0838,-0.0178,9.8062,0.1271,-1.3271,0.9325,-2.37,-36.25,9.38,186.74,-88.11,20.13
15595,52.72475,-1.603125,150.89,17.13,6,298.62,23 / 23,1559520,2019-11-06 11:07:46:863,-1.9397,0.1199,8.5282,-0.2748,-0.0438,9.8026,0.2241,-1.2027,0.8682,-2.69,-37.06,9.06,139.83,-87.87,-27.08
15596,52.72475,-1.603125,150.89,17.13,6,298.62,23 / 23,1559620,2019-11-06 11:07:46:963,11.5707,2.5322,5.9019,0.0075,0.1056,9.806,-0.0425,0.2334,-0.0364,-3.31,-37.12,9.13,139.83,-87.87,-27.08
15597,52.72475,-1.603125,150.89,17.13,6,298.62,23 / 23,1559720,2019-11-06 11:07:47:063,1.8855,-2.4038,9.644,0.0402,0.0618,9.8064,-0.1096,1.2082,-0.7301,-3.94,-36.25,8.88,149.19,-87.39,-17.58
15598,52.72475,-1.603125,150.89,17.13,6,298.62,23 / 23,1559819,2019-11-06 11:07:47:162,-4.3102,-0.7633,9.6883,0.0297,-0.029,9.8065,0.1158,0.2016,-0.1239,-3.94,-37.19,9.0,150.17,-87.11,-11.24
15599,52.72475,-1.603125,150.89,17.13,6,298.62,23 / 23,1559919,2019-11-06 11:07:47:262,-4.9947,-3.4684,10.3881,0.0558,-0.0258,9.8064,-0.0236,-0.7297,0.5476,-3.06,-36.87,9.81,159.81,-87.4,-6.65
15600,52.724815,-1.60335,150.68,17.54,6,292.31,23 / 23,1560020,2019-11-06 11:07:47:363,5.0425,-1.2983,11.6252,-0.0128,-0.0149,9.8066,0.0906,-0.6206,0.3713,-3.19,-37.19,9.44,159.81,-87.4,-6.65
15601,52.724815,-1.60335,150.68,17.54,6,292.31,23 / 23,1560120,2019-11-06 11:07:47:463,10.5842,1.1459,11.2316,-0.0251,-0.0862,9.8062,-0.027,1.1755,-0.8132,-2.75,-37.12,9.44,150.94,-87.8,-14.79
15602,52.724815,-1.60335,150.68,17.54,6,292.31,23 / 23,1560220,2019-11-06 11:07:47:563,4.5691,-2.4572,10.4773,0.2264,-0.0202,9.8039,-0.0611,1.4342,-0.9156,-1.69,-36.12,9.81,189.84,-88.18,22.24
15603,52.724815,-1.60335,150.68,17.54,6,292.31,23 / 23,1560320,2019-11-06 11:07:47:663,-7.5394,-3.4403,10.1975,0.1066,0.061,9.8059,-0.3032,0.784,-0.4428,-0.87,-36.5,10.38,189.84,-88.18,22.24
15604,52.724815,-1.60335,150.68,17.54,6,292.31,23 / 23,1560420,2019-11-06 11:07:47:763,0.1788,-1.7091,9.7733,0.1125,0.021,9.8059,0.0316,-0.1438,0.1381,-1.37,-36.44,11.0,207.11,-87.65,35.87
15605,52.724815,-1.60335,150.68,17.54,6,292.31,23 / 23,1560520,2019-11-06 11:07:47:863,4.5288,1.9251,8.8281,-0.0447,-0.0066,9.8065,0.0415,-0.6348,0.3899,-1.56,-36.25,10.5,214.85,-86.98,50.67
15606,52.724815,-1.60335,150.68,17.54,6,292.31,23 / 23,1560620,2019-11-06 11:07:47:963,-1.7251,-2.5807,9.0626,-0.1369,-0.0516,9.8056,0.0422,-0.2198,0.1645,-1.19,-36.56,11.31,209.74,-87.64,38.85
15607,52.724815,-1.60335,150.68,17.54,6,292.31,23 / 23,1560720,2019-11-06 11:07:48:063,1.0161,-1.3567,10.8423,0.0436,0.0135,9.8065,0.0554,-0.1328,0.0819,-1.62,-36.75,10.69,209.74,-87.64,38.85
15608,52.724815,-1.60335,150.68,17.54,6,292.31,23 / 23,1560820,2019-11-06 11:07:48:163,0.5822,-0.3932,10.7645,-0.0197,0.013,9.8065,-0.0489,0.0936,0.1426,-1.37,-37.19,10.81,216.31,-87.48,46.48
15609,52.724815,-1.60335,150.68,17.54,6,292.31,23 / 23,1560920,2019-11-06 11:07:48:263,2.0229,-1.2032,10.8377,-0.0047,-0.0395,9.8066,-0.0386,-0.137,0.1036,-1.31,-36.81,11.75,215.1,-87.84,43.66
15610,52.724873,-1.603598,150.52,18.09,6,288.89,23 / 23,1561020,2019-11-06 11:07:48:363,2.2896,-2.4746,10.1507,0.0119,-0.0323,9.8065,-0.0023,0.0298,-0.0051,-1.19,-36.94,11.81,215.1,-87.84,43.66
15611,52.724873,-1.603598,150.52,18.09,6,288.89,23 / 23,1561120,2019-11-06 11:07:48:463,1.998,-0.8839,9.1921,-0.0208,0.0451,9.8064,-0.1068,0.0074,0.0556,-2.06,-36.62,11.5,221.53,-87.91,50.41
15612,52.724873,-1.603598,150.52,18.09,6,288.89,23 / 23,1561220,2019-11-06 11:07:48:563,0.1867,-3.2604,10.4027,-0.0077,0.0032,9.8066,0.0162,-0.093,-0.1124,-1.69,-36.75,11.63,203.78,-87.93,35.77
15613,52.724873,-1.603598,150.52,18.09,6,288.89,23 / 23,1561320,2019-11-06 11:07:48:663,0.0438,-2.3192,10.7189,-0.0356,-0.0349,9.8064,0.1097,-0.1333,0.1467,-1.62,-36.94,11.5,200.92,-88.2,32.33
15614,52.724873,-1.603598,150.52,18.09,6,288.89,23 / 23,1561420,2019-11-06 11:07:48:763,-1.0576,-0.4486,11.1726,0.0342,-0.1071,9.806,0.1221,0.0216,-0.2058,-1.87,-36.69,12.19,200.92,-88.2,32.33
15615,52.724873,-1.603598,150.52,18.09,6,288.89,23 / 23,1561520,2019-11-06 11:07:48:863,0.0784,-2.1759,10.4888,0.0391,-0.0061,9.8065,0.0092,-0.0598,-0.0106,-1.94,-36.62,12.5,237.56,-88.55,69.74
15616,52.724873,-1.603598,150.52,18.09,6,288.89,23 / 23,1561620,2019-11-06 11:07:48:963,-1.017,1.2131,10.5725,0.0736,0.04,9.8062,-0.1476,0.1239,0.0142,-1.0,-36.81,12.25,240.77,-88.06,70.72
15617,52.724873,-1.603598,150.52,18.09,6,288.89,23 / 23,1561720,2019-11-06 11:07:49:063,0.3663,0.3351,9.6689,0.028,0.0508,9.8065,0.028,-0.0032,-0.0676,-1.25,-36.69,12.0,240.77,-88.06,70.72
