,GPS LATITUDE (degrees), GPS LONGITUDE (degrees), GPS ALTITUDE (m), GPS SPEED (Kmh), GPS ACCURACY (m), GPS ORIENTATION (Â°),GPS SATELLITES IN RANGE, TIME SINCE START (ms), DATE (YYYY-MO-DD HH-MI-SS_SSS), ACCELEROMETER X (m/s²) , ACCELEROMETER Y (m/s²), ACCELEROMETER Z (m/s²), GRAVITY X (m/s²), GRAVITY Y (m/s²), GRAVITY Z (m/s²), GYROSCOPE Yaw (rad/s), GYROSCOPE Pitch (rad/s), GYROSCOPE Roll (rad/s), MAGNETIC FIELD X (Î¼T), MAGNETIC FIELD Y (Î¼T), MAGNETIC FIELD Z (Î¼T), ORIENTATION (Yaw) (Â°), ORIENTATION (Pitch) (Â°), ORIENTATION (Roll ) (Â°)
1742,52.725132,-1.488389,180.75,7.96,4,294.28,23 / 23,174239,2019-11-08 10:00:11:850,2.3913,0.4868,10.0066,0.0722,-0.0016,9.8063,0.0409,0.1581,-0.2555,-18.19,-43.75,31.38,332.97,-81.74,-172.05
1743,52.725132,-1.488389,180.75,7.96,4,294.28,23 / 23,174338,2019-11-08 10:00:11:949,2.7667,0.368,9.9741,0.0121,0.0183,9.8066,0.0051,0.0399,-0.1126,-17.87,-44.56,30.81,328.7,-81.53,-175.35
1744,52.725132,-1.488389,180.75,7.96,4,294.28,23 / 23,174438,2019-11-08 10:00:12:049,3.0819,-0.1953,10.0188,-0.0112,-0.0118,9.8065,0.0253,0.0304,0.1245,-18.12,-45.19,30.75,326.21,-81.43,-177.36
1745,52.725132,-1.488389,180.75,7.96,4,294.28,23 / 23,174539,2019-11-08 10:00:12:150,4.9756,2.4913,9.4944,-0.0031,-0.0133,9.8066,-0.0088,0.0638,0.0292,-17.12,-44.81,31.13,326.8,-81.46,-178.2
1746,52.725132,-1.488389,180.75,7.96,4,294.28,23 / 23,174639,2019-11-08 10:00:12:250,1.7609,0.1397,10.6846,0.0058,-0.0114,9.8066,0.1129,-0.0907,0.146,-17.44,-43.5,30.25,325.76,-81.35,-178.32
1747,52.725132,-1.488389,180.75,7.96,4,294.28,23 / 23,174738,2019-11-08 10:00:12:349,1.1065,1.3644,9.4699,-0.0244,-0.041,9.8064,0.0293,0.1833,-0.0435,-17.06,-43.62,29.63,327.49,-81.17,-176.6
1748,52.725132,-1.488389,180.75,7.96,4,294.28,23 / 23,174838,2019-11-08 10:00:12:449,-1.4936,-1.0105,9.609,-0.0176,-0.0072,9.8066,-0.0282,-0.2436,0.3737,-16.87,-44.0,29.25,326.61,-81.07,-176.24
1749,52.725132,-1.488389,180.75,7.96,4,294.28,23 / 23,174938,2019-11-08 10:00:12:549,3.2007,1.96,9.7669,-0.0606,-0.0617,9.8062,0.0007,0.2819,0.0657,-16.12,-44.69,29.0,330.97,-80.93,-173.86
1750,52.725132,-1.488389,180.75,7.96,4,294.28,23 / 23,175038,2019-11-08 10:00:12:649,2.7736,3.0257,9.3835,-0.0169,-0.0198,9.8066,-0.0218,-0.0695,0.1353,-15.87,-44.19,28.06,329.49,-80.89,-174.13
1751,52.725132,-1.488389,180.75,7.96,4,294.28,23 / 23,175139,2019-11-08 10:00:12:750,2.4711,1.7858,9.476,-0.026,-0.029,9.8065,-0.0626,0.271,-0.0693,-16.56,-45.12,28.0,328.45,-80.7,-173.25
1752,52.725132,-1.488389,180.75,7.96,4,294.28,23 / 23,175238,2019-11-08 10:00:12:849,1.8712,0.8564,11.4023,0.011,-0.0288,9.8066,0.1159,0.0847,-0.0517,-15.94,-44.94,28.13,331.56,-80.66,-172.17
1753,52.725132,-1.488389,180.75,7.96,4,294.28,23 / 23,175338,2019-11-08 10:00:12:949,1.0799,-0.2863,11.2093,0.0232,-0.0177,9.8065,-0.0607,0.2034,-0.1855,-16.06,-45.62,27.75,330.99,-80.24,-172.15
1754,52.725132,-1.488389,180.75,7.96,4,294.28,23 / 23,175438,2019-11-08 10:00:13:049,4.5687,0.901,9.5661,-0.0063,-0.0084,9.8066,0.002,0.418,0.0346,-16.31,-45.62,28.38,330.18,-80.14,-172.7
1755,52.725132,-1.488389,180.75,7.96,4,294.28,23 / 23,175538,2019-11-08 10:00:13:149,1.5205,1.4138,9.9902,0.0092,0.0551,9.8064,-0.1767,0.2981,-0.2747,-15.62,-45.5,28.69,331.15,-80.56,-173.44
1756,52.725132,-1.488389,180.75,7.96,4,294.28,23 / 23,175639,2019-11-08 10:00:13:250,-1.1116,1.0865,10.249,0.0053,-0.0016,9.8066,0.0809,0.2998,-0.1292,-15.5,-46.31,28.13,333.59,-80.54,-171.83
1757,52.725132,-1.488389,180.75,7.96,4,294.28,23 / 23,175738,2019-11-08 10:00:13:349,1.1625,0.4878,11.1887,-0.0259,-0.0162,9.8066,0.1058,0.291,-0.2582,-15.5,-46.31,28.5,333.05,-80.37,-173.12
1758,52.725132,-1.488389,180.75,7.96,4,294.28,23 / 23,175838,2019-11-08 10:00:13:449,2.514,3.571,8.1826,0.0063,-0.0188,9.8066,-0.1638,0.3257,-0.0314,-15.0,-47.19,28.25,331.36,-80.4,-173.31
1759,52.725132,-1.488389,180.75,7.96,4,294.28,23 / 23,175938,2019-11-08 10:00:13:549,2.4001,0.1429,10.9235,-0.0003,-0.0019,9.8065,-0.0162,0.2114,0.1274,-15.0,-47.25,29.56,335.78,-80.29,-171.78
1760,52.725132,-1.488389,180.75,7.96,4,294.28,23 / 23,176038,2019-11-08 10:00:13:649,2.0,1.4668,10.2939,-0.0533,-0.0253,9.8065,0.0749,0.1263,-0.2195,-15.37,-46.5,32.13,340.35,-80.12,-169.95
1761,52.725132,-1.488389,180.75,7.96,4,294.28,23 / 23,176138,2019-11-08 10:00:13:749,2.3284,-0.0115,10.1427,-0.0083,-0.0184,9.8065,0.0414,-0.2176,-0.0223,-14.19,-45.69,32.75,341.86,-79.92,-170.87
1762,52.725132,-1.488389,180.75,7.96,4,294.28,23 / 23,176239,2019-11-08 10:00:13:850,-1.7884,-0.94,10.4123,0.0275,0.0213,9.8066,0.022,-0.0387,-0.0213,-13.37,-44.25,33.19,343.68,-79.7,-170.99
1763,52.725132,-1.488389,180.75,7.96,4,294.28,23 / 23,176339,2019-11-08 10:00:13:950,1.9194,-0.0396,9.4438,-0.0066,-0.0092,9.8066,0.0324,0.2086,-0.0339,-11.81,-41.87,32.25,345.17,-79.61,-170.79
1764,52.725132,-1.488389,180.75,7.96,4,294.28,23 / 23,176438,2019-11-08 10:00:14:049,0.7022,0.7053,9.0386,-0.0042,0.0049,9.8066,0.0874,0.1872,0.0925,-11.31,-40.25,30.13,346.28,-79.47,-170.25
1765,52.725132,-1.488389,180.75,7.96,4,294.28,23 / 23,176538,2019-11-08 10:00:14:149,-0.7806,-1.4287,10.946,-0.0284,-0.0587,9.8064,-0.0783,0.083,-0.1971,-11.19,-39.25,25.56,341.87,-79.5,-170.41
1766,52.725132,-1.488389,180.75,7.96,4,294.28,23 / 23,176638,2019-11-08 10:00:14:249,-0.6556,0.1799,9.7909,0.0128,0.0001,9.8066,0.0088,-0.1458,0.0196,-10.81,-37.19,24.88,342.06,-79.21,-169.4
1767,52.725132,-1.488389,180.75,7.96,4,294.28,23 / 23,176738,2019-11-08 10:00:14:349,0.1848,-0.609,9.6915,0.0019,-0.0018,9.8066,-0.0343,0.0522,0.0768,-11.06,-37.0,25.75,344.53,-79.09,-168.47
1768,52.725132,-1.488389,180.75,7.96,4,294.28,23 / 23,176838,2019-11-08 10:00:14:449,1.1043,0.8837,10.1784,0.0216,0.0121,9.8066,-0.1027,-0.1171,0.1108,-9.0,-35.87,27.69,352.72,-79.17,-167.66
1769,52.725132,-1.488389,180.75,7.96,4,294.28,23 / 23,176940,2019-11-08 10:00:14:551,-0.4959,-0.2965,9.252,-0.0004,0.0183,9.8065,-0.0146,-0.0474,0.0326,-5.25,-36.44,31.63,3.9,-79.41,-168.08
1770,52.725132,-1.488389,180.75,7.96,4,294.28,23 / 23,177039,2019-11-08 10:00:14:650,1.0443,0.4921,9.3588,0.0191,0.0058,9.8066,0.056,-0.0598,0.0909,-3.19,-37.94,33.69,9.17,-79.37,-167.82
1771,52.725132,-1.488389,180.75,7.96,4,294.28,23 / 23,177138,2019-11-08 10:00:14:749,0.0204,-0.9026,10.4239,-0.0058,-0.0018,9.8065,0.0404,-0.1393,0.0005,-2.12,-40.5,33.81,11.03,-79.31,-168.18
1772,52.725132,-1.488389,180.75,7.96,4,294.28,23 / 23,177239,2019-11-08 10:00:14:850,-0.9734,0.6924,10.275,-0.0102,-0.0066,9.8066,-0.0431,-0.0208,-0.0318,-2.94,-43.31,33.31,8.98,-79.22,-168.15
1773,52.725132,-1.488389,180.75,7.96,4,294.28,23 / 23,177339,2019-11-08 10:00:14:950,-0.98,0.2988,10.1024,0.0257,-0.0108,9.8065,-0.0188,-0.0483,0.1085,-6.75,-45.94,33.63,0.59,-79.09,-167.94
1774,52.725132,-1.488389,180.75,7.96,4,294.28,23 / 23,177438,2019-11-08 10:00:15:049,-0.0698,-0.2296,10.3445,-0.0043,-0.0172,9.8066,-0.0056,0.095,-0.086,-7.81,-45.44,35.44,359.43,-79.05,-167.55
1775,52.725956,-1.488379,180.9,14.91,6,3.0,23 / 24,177538,2019-11-08 10:00:15:149,1.4474,1.279,9.4676,0.0063,0.016,9.8066,-0.0127,0.0698,0.0154,-7.69,-44.62,36.5,0.46,-78.8,-167.46
1776,52.725956,-1.488379,180.9,14.91,6,3.0,23 / 24,177638,2019-11-08 10:00:15:249,-0.3824,0.8818,10.1708,0.0087,-0.0188,9.8066,0.0508,0.138,-0.0512,-7.69,-43.19,35.38,359.64,-78.87,-167.4
1777,52.725956,-1.488379,180.9,14.91,6,3.0,23 / 24,177738,2019-11-08 10:00:15:349,1.5441,1.4957,9.468,0.0272,-0.0051,9.8066,0.0026,0.1485,-0.1612,-8.81,-40.44,31.5,356.54,-78.67,-166.87
1778,52.725956,-1.488379,180.9,14.91,6,3.0,23 / 24,177838,2019-11-08 10:00:15:449,-1.6971,0.9667,9.9628,-0.0097,0.0103,9.8066,-0.0835,0.0885,-0.0703,-9.12,-38.62,29.06,354.93,-78.59,-166.44
1779,52.725956,-1.488379,180.9,14.91,6,3.0,23 / 24,177938,2019-11-08 10:00:15:549,-1.1735,-0.1384,10.1227,-0.0171,0.0,9.8065,-0.0517,0.1023,0.032,-10.81,-36.37,27.44,349.79,-78.56,-165.35
1780,52.725956,-1.488379,180.9,14.91,6,3.0,23 / 24,178039,2019-11-08 10:00:15:650,-0.3911,0.7867,10.2835,0.0069,0.0046,9.8065,0.0235,-0.0944,0.1016,-9.81,-34.94,27.69,353.47,-78.61,-165.23
1781,52.725956,-1.488379,180.9,14.91,6,3.0,23 / 24,178139,2019-11-08 10:00:15:750,-0.3567,0.5424,10.4155,0.0124,-0.0248,9.8066,0.046,0.0245,-0.0748,-7.75,-34.62,28.0,357.51,-78.39,-165.89
1782,52.725956,-1.488379,180.9,14.91,6,3.0,23 / 24,178238,2019-11-08 10:00:15:849,0.9262,1.3343,9.4583,0.019,-0.013,9.8065,0.0761,-0.0694,0.0317,-6.19,-35.69,29.38,2.69,-78.21,-166.35
1783,52.725956,-1.488379,180.9,14.91,6,3.0,23 / 24,178338,2019-11-08 10:00:15:949,-0.023,1.4535,9.5433,-0.0043,-0.009,9.8066,-0.0033,-0.0311,0.0195,-5.25,-38.56,30.44,5.13,-78.13,-166.87
1784,52.725956,-1.488379,180.9,14.91,6,3.0,23 / 24,178439,2019-11-08 10:00:16:050,0.5283,1.7982,10.0477,-0.0093,-0.002,9.8066,0.0079,0.0117,-0.0236,-5.94,-41.37,30.0,2.95,-78.07,-166.62
1785,52.725956,-1.488379,180.9,14.91,6,3.0,22 / 24,178540,2019-11-08 10:00:16:151,1.587,1.859,9.7985,0.0056,-0.0167,9.8066,0.0662,-0.0408,0.0496,-7.19,-44.06,30.63,0.39,-77.93,-167.01
1786,52.725956,-1.488379,180.9,14.91,6,3.0,22 / 24,178639,2019-11-08 10:00:16:250,-0.4299,2.0485,10.154,-0.0003,-0.0116,9.8065,0.01,0.1749,-0.0868,-8.94,-46.75,30.38,353.92,-77.78,-167.32
1787,52.725956,-1.488379,180.9,14.91,6,3.0,22 / 24,178739,2019-11-08 10:00:16:350,1.0994,1.8166,9.6983,-0.0039,-0.0069,9.8066,-0.0046,0.1252,-0.0685,-10.56,-47.0,29.44,347.73,-77.64,-167.26
1788,52.725956,-1.488379,180.9,14.91,6,3.0,22 / 24,178839,2019-11-08 10:00:16:450,-0.8453,1.7618,9.8019,-0.0116,0.0134,9.8065,-0.0955,0.0986,-0.1051,-11.75,-46.94,28.31,344.06,-77.85,-167.28
1789,52.725956,-1.488379,180.9,14.91,6,3.0,22 / 24,178939,2019-11-08 10:00:16:550,-0.2242,1.8608,9.4544,-0.0071,0.0161,9.8066,-0.0478,0.0804,0.0333,-12.19,-46.5,28.81,345.69,-77.96,-167.19
1790,52.725956,-1.488379,180.9,14.91,6,3.0,22 / 24,179039,2019-11-08 10:00:16:650,0.0076,1.5448,10.5867,-0.005,0.0037,9.8066,-0.0932,0.1443,-0.0693,-12.62,-46.56,28.25,341.77,-78.08,-167.3
1791,52.725956,-1.488379,180.9,14.91,6,3.0,22 / 24,179139,2019-11-08 10:00:16:750,0.0178,3.6956,8.9237,-0.0028,-0.0116,9.8066,0.0141,0.0829,-0.0021,-12.62,-45.5,28.13,342.28,-78.12,-167.21
1792,52.725956,-1.488379,180.9,14.91,6,3.0,22 / 24,179239,2019-11-08 10:00:16:850,-0.1102,3.4852,9.3066,-0.0134,0.0133,9.8066,-0.0107,0.2315,-0.0578,-12.56,-45.44,27.75,342.91,-78.43,-166.92
1793,52.725956,-1.488379,180.9,14.91,6,3.0,22 / 24,179339,2019-11-08 10:00:16:950,-0.0844,4.6322,8.7746,-0.0053,0.0271,9.8066,-0.0835,0.1376,-0.0391,-12.31,-45.62,27.5,345.39,-78.58,-166.81
1794,52.725956,-1.488379,180.9,14.91,6,3.0,22 / 24,179438,2019-11-08 10:00:17:049,0.5249,2.948,10.0552,-0.0177,0.0082,9.8066,-0.0062,0.0963,-0.0184,-11.62,-46.12,27.38,344.16,-78.78,-166.84
1795,52.725956,-1.488379,180.9,14.91,6,3.0,21 / 23,179539,2019-11-08 10:00:17:150,-1.0355,4.3517,10.122,0.0113,-0.0031,9.8066,0.0436,0.1155,0.046,-11.56,-44.62,27.38,344.03,-78.94,-167.11
1796,52.725956,-1.488379,180.9,14.91,6,3.0,21 / 23,179638,2019-11-08 10:00:17:249,1.7027,3.8753,9.9757,0.007,-0.0045,9.8065,0.0575,0.0852,0.0089,-11.31,-45.37,27.69,346.65,-78.77,-167.8
1797,52.725956,-1.488379,180.9,14.91,6,3.0,21 / 23,179739,2019-11-08 10:00:17:350,1.3196,4.0137,10.2511,0.0058,-0.0016,9.8066,-0.0223,-0.0142,-0.0322,-10.06,-45.31,27.63,348.36,-78.74,-168.35
1798,52.725956,-1.488379,180.9,14.91,6,3.0,21 / 23,179839,2019-11-08 10:00:17:450,1.4341,4.5216,9.4464,-0.014,0.0023,9.8065,-0.0538,0.4898,-0.222,-10.06,-45.62,27.25,346.84,-78.72,-168.51
1799,52.725956,-1.488379,180.9,14.91,6,3.0,21 / 23,179938,2019-11-08 10:00:17:549,4.2868,5.7845,9.7666,0.0266,0.02,9.8065,-0.0243,0.3547,-0.1673,-9.44,-45.75,28.56,352.76,-78.89,-167.76
1800,52.725956,-1.488379,180.9,14.91,6,3.0,21 / 23,180038,2019-11-08 10:00:17:649,1.3163,3.7641,9.9482,0.0249,0.0263,9.8065,0.0417,0.4455,-0.0931,-9.19,-45.62,28.5,352.46,-79.06,-168.0
1801,52.725956,-1.488379,180.9,14.91,6,3.0,21 / 23,180138,2019-11-08 10:00:17:749,7.1597,3.8792,8.8993,-0.0021,0.0043,9.8066,-0.0311,0.7923,-0.4219,-9.19,-45.5,28.56,353.96,-78.96,-166.98
1802,52.725956,-1.488379,180.9,14.91,6,3.0,21 / 23,180239,2019-11-08 10:00:17:850,4.4464,2.3455,9.198,0.0383,0.0175,9.8065,0.0762,-0.3198,0.2246,-9.0,-45.62,28.38,353.53,-78.84,-166.57
1803,52.725956,-1.488379,180.9,14.91,6,3.0,21 / 23,180338,2019-11-08 10:00:17:949,-2.6057,-0.7196,11.1258,-0.0491,-0.0581,9.8063,-0.133,0.8146,-0.4661,-8.44,-45.62,29.88,358.29,-78.79,-166.26
1804,52.725956,-1.488379,180.9,14.91,6,3.0,21 / 23,180439,2019-11-08 10:00:18:050,5.391,3.1309,8.7789,0.0008,-0.0079,9.8066,0.0226,0.6827,-0.2811,-8.12,-45.12,29.0,358.0,-78.64,-165.95
1805,52.725956,-1.488379,180.9,14.91,6,3.0,21 / 23,180539,2019-11-08 10:00:18:150,-2.2228,1.427,10.7449,0.029,0.0066,9.8066,0.0564,0.5855,-0.2332,-7.62,-45.75,29.5,357.62,-78.67,-166.71
1806,52.725956,-1.488379,180.9,14.91,6,3.0,21 / 23,180639,2019-11-08 10:00:18:250,5.5807,3.0373,9.1309,-0.0347,-0.0355,9.8064,-0.0614,0.7011,-0.408,-6.62,-44.62,28.94,359.78,-78.64,-166.58
1807,52.725956,-1.488379,180.9,14.91,6,3.0,21 / 23,180739,2019-11-08 10:00:18:350,4.9315,3.5118,10.1453,0.0054,-0.0306,9.8066,0.0778,0.2508,0.0051,-5.87,-44.94,29.06,0.35,-78.71,-168.07
1808,52.725956,-1.488379,180.9,14.91,6,3.0,21 / 23,180839,2019-11-08 10:00:18:450,5.8891,3.695,8.0693,-0.0296,-0.0572,9.8064,-0.087,0.6471,-0.2453,-5.69,-45.31,29.44,0.42,-78.18,-168.03
1809,52.725956,-1.488379,180.9,14.91,6,3.0,21 / 23,180939,2019-11-08 10:00:18:550,6.5448,2.4878,9.6888,0.0271,0.0155,9.8066,-0.0505,-0.1255,0.1995,-5.37,-45.56,30.19,3.89,-78.19,-167.93
1810,52.725956,-1.488379,180.9,14.91,6,3.0,21 / 23,181038,2019-11-08 10:00:18:649,-0.708,2.4944,10.0308,-0.0073,0.0337,9.8065,0.0082,0.1199,0.118,-4.37,-44.56,30.13,6.61,-78.35,-167.92
1811,52.725956,-1.488379,180.9,14.91,6,3.0,21 / 23,181138,2019-11-08 10:00:18:749,5.8378,1.0589,9.4297,-0.0529,0.0085,9.8064,-0.0492,0.5412,-0.1518,-4.06,-44.87,30.5,8.88,-78.69,-166.44
1812,52.725956,-1.488379,180.9,14.91,6,3.0,21 / 23,181238,2019-11-08 10:00:18:849,0.6123,1.9751,10.3846,0.0153,0.0191,9.8065,0.0219,0.5582,-0.1376,-4.12,-44.75,30.19,8.02,-78.97,-166.8
1813,52.725956,-1.488379,180.9,14.91,6,3.0,21 / 23,181338,2019-11-08 10:00:18:949,5.0455,1.1646,8.2505,0.0152,0.0279,9.8065,-0.1299,0.7368,-0.303,-3.12,-44.87,31.13,12.11,-78.87,-165.94
1814,52.725956,-1.488379,180.9,14.91,6,3.0,21 / 23,181438,2019-11-08 10:00:19:049,5.645,0.6237,8.6168,0.0369,0.0535,9.8063,-0.111,0.1736,0.0358,-2.56,-44.19,30.63,12.3,-79.44,-165.54
1815,52.725956,-1.488379,180.9,14.91,6,3.0,19 / 24,181539,2019-11-08 10:00:19:150,0.5332,1.9228,9.2108,0.0537,0.0432,9.8063,-0.0756,0.5221,-0.1752,-1.75,-44.69,30.75,14.82,-79.94,-165.42
1816,52.725956,-1.488379,180.9,14.91,6,3.0,19 / 24,181638,2019-11-08 10:00:19:249,2.8098,2.3855,9.2948,0.0438,0.0127,9.8064,0.0636,-0.1596,0.2287,-1.19,-45.37,31.13,17.84,-80.3,-164.85
1817,52.725956,-1.488379,180.9,14.91,6,3.0,19 / 24,181739,2019-11-08 10:00:19:350,-1.5341,1.0329,10.5523,0.0744,-0.0068,9.8063,0.096,0.1362,-0.0262,-0.69,-44.12,31.81,13.92,-80.48,-167.61
1818,52.725956,-1.488379,180.9,14.91,6,3.0,19 / 24,181839,2019-11-08 10:00:19:450,5.0894,0.9813,10.0912,0.0029,-0.0307,9.8065,0.0216,-0.175,0.2139,-0.06,-45.06,32.5,14.09,-80.1,-169.39
1819,52.725956,-1.488379,180.9,14.91,6,3.0,19 / 24,181939,2019-11-08 10:00:19:550,-1.4704,-0.2955,10.4844,-0.0834,0.0028,9.8062,0.0301,-0.1847,0.2914,-0.06,-44.75,32.06,12.91,-80.16,-170.36
1820,52.725956,-1.488379,180.9,14.91,6,3.0,19 / 24,182039,2019-11-08 10:00:19:650,1.1888,1.5277,9.3063,-0.0539,-0.0065,9.8065,-0.0334,0.532,-0.1802,-0.69,-44.87,32.44,15.88,-80.13,-166.34
1821,52.725956,-1.488379,180.9,14.91,6,3.0,19 / 24,182138,2019-11-08 10:00:19:749,0.7384,1.0923,9.8897,-0.0276,-0.0075,9.8065,-0.0117,0.0571,-0.0011,0.19,-44.44,33.25,19.57,-79.98,-165.17
1822,52.725956,-1.488379,180.9,14.91,6,3.0,19 / 24,182238,2019-11-08 10:00:19:849,2.3204,0.7317,9.7587,-0.0329,-0.0038,9.8065,0.0149,0.2992,-0.1909,-0.12,-44.69,32.94,20.1,-79.96,-164.88
1823,52.725956,-1.488379,180.9,14.91,6,3.0,19 / 24,182338,2019-11-08 10:00:19:949,0.0556,1.0416,9.3477,0.017,0.0116,9.8066,0.0401,-0.1366,0.0234,0.31,-45.12,33.25,19.98,-79.75,-165.08
1824,52.725956,-1.488379,180.9,14.91,6,3.0,19 / 24,182438,2019-11-08 10:00:20:049,-1.6386,0.3962,10.6952,0.0009,0.0093,9.8065,0.0603,-0.0293,-0.0701,0.0,-44.87,33.81,17.82,-79.93,-166.51
1825,52.725956,-1.488379,180.9,14.91,6,3.0,21 / 24,182538,2019-11-08 10:00:20:149,0.3359,1.0013,10.1525,0.015,0.0206,9.8065,0.0798,-0.1934,0.0068,-0.06,-44.87,34.25,16.33,-79.84,-167.68
1826,52.725956,-1.488379,180.9,14.91,6,3.0,21 / 24,182638,2019-11-08 10:00:20:249,-1.8455,0.8354,9.9915,0.0244,-0.0073,9.8066,0.0037,-0.2963,0.1637,0.13,-44.69,33.63,14.85,-79.95,-168.76
1827,52.725956,-1.488379,180.9,14.91,6,3.0,21 / 24,182739,2019-11-08 10:00:20:350,-2.9112,1.0137,9.4841,0.0031,-0.0224,9.8066,-0.0098,-0.1427,0.0334,0.06,-44.5,33.06,15.71,-79.77,-168.21
1828,52.725956,-1.488379,180.9,14.91,6,3.0,21 / 24,182839,2019-11-08 10:00:20:450,-4.5206,1.992,10.0273,0.0391,0.0179,9.8065,-0.0035,-0.478,0.2119,-0.44,-44.62,33.0,16.47,-79.79,-167.71
1829,52.725956,-1.488379,180.9,14.91,6,3.0,21 / 24,182939,2019-11-08 10:00:20:550,-3.3716,1.3816,10.8699,0.0427,0.019,9.8065,-0.106,0.0738,-0.1569,-0.56,-45.0,32.56,12.64,-79.94,-168.8
1830,52.725956,-1.488379,180.9,14.91,6,3.0,21 / 24,183039,2019-11-08 10:00:20:650,1.3187,1.6846,9.5577,0.0361,0.0035,9.8065,0.085,-0.2915,0.0572,-0.5,-44.31,32.75,13.22,-79.98,-170.02
1831,52.725956,-1.488379,180.9,14.91,6,3.0,21 / 24,183138,2019-11-08 10:00:20:749,-1.635,0.5382,10.2587,0.0541,-0.0149,9.8065,-0.0208,0.1673,-0.2752,-1.0,-45.62,32.88,9.16,-79.67,-171.53
1832,52.725956,-1.488379,180.9,14.91,6,3.0,21 / 24,183238,2019-11-08 10:00:20:849,2.1317,0.1275,9.4455,0.0149,-0.0073,9.8066,-0.0025,-0.064,-0.0472,-1.75,-45.19,32.44,5.88,-79.39,-172.16
1833,52.725956,-1.488379,180.9,14.91,6,3.0,21 / 24,183339,2019-11-08 10:00:20:950,-4.1234,1.3958,9.8269,-0.0427,-0.0121,9.8065,-0.0432,0.1717,-0.1728,-1.44,-45.25,32.5,7.7,-79.35,-172.63
1834,52.725956,-1.488379,180.9,14.91,6,3.0,21 / 24,183439,2019-11-08 10:00:21:050,1.2588,1.6227,9.0565,-0.031,-0.0198,9.8065,-0.1013,0.1671,-0.2047,-1.94,-45.25,31.56,6.73,-79.33,-171.55
1835,52.725956,-1.488379,180.9,14.91,6,3.0,22 / 22,183538,2019-11-08 10:00:21:149,-4.4654,0.817,10.3875,0.0178,-0.0015,9.8066,-0.0734,-0.1191,0.0181,-2.62,-45.0,32.0,3.24,-79.45,-172.29
1836,52.725956,-1.488379,180.9,14.91,6,3.0,22 / 22,183638,2019-11-08 10:00:21:249,-4.4724,0.3296,10.6416,-0.0307,-0.0491,9.8064,-0.0944,0.1495,-0.1144,-2.5,-44.94,31.69,5.53,-79.46,-172.41
1837,52.725956,-1.488379,180.9,14.91,6,3.0,22 / 22,183738,2019-11-08 10:00:21:349,0.7683,0.5399,9.735,-0.0311,-0.0113,9.8065,0.0039,-0.4035,0.2166,-2.87,-44.94,31.88,4.31,-79.21,-171.54
1838,52.725956,-1.488379,180.9,14.91,6,3.0,22 / 22,183838,2019-11-08 10:00:21:449,-0.8826,0.1487,9.4819,-0.0308,-0.0123,9.8066,-0.0342,-0.0892,-0.0421,-2.75,-45.25,32.19,4.1,-79.16,-171.7
1839,52.725956,-1.488379,180.9,14.91,6,3.0,22 / 22,183938,2019-11-08 10:00:21:549,0.4546,-0.2991,9.4876,0.0259,0.0182,9.8066,-0.0046,-0.628,0.2557,-3.19,-46.06,31.63,4.21,-79.23,-171.64
1840,52.725956,-1.488379,180.9,14.91,6,3.0,22 / 22,184039,2019-11-08 10:00:21:650,-5.298,0.3201,9.5781,-0.0015,0.0142,9.8066,0.0535,-0.4566,0.2131,-4.62,-45.69,31.5,359.04,-79.27,-171.81
1841,52.725956,-1.488379,180.9,14.91,6,3.0,22 / 22,184139,2019-11-08 10:00:21:750,-1.1769,1.2289,9.426,-0.0471,-0.0215,9.8064,0.0677,-0.6103,0.2656,-5.25,-45.44,31.5,0.9,-79.2,-170.47
1842,52.725956,-1.488379,180.9,14.91,6,3.0,22 / 22,184239,2019-11-08 10:00:21:850,-4.6267,-1.2703,10.0001,0.0242,0.0122,9.8066,0.0296,-0.565,0.1919,-5.62,-45.56,31.0,355.77,-79.21,-172.05
1843,52.725956,-1.488379,180.9,14.91,6,3.0,22 / 22,184338,2019-11-08 10:00:21:949,-3.8839,0.2329,9.6855,0.0039,0.0014,9.8066,-0.0069,-0.4017,0.0355,-5.75,-45.0,30.69,355.68,-79.23,-172.14
1844,52.725956,-1.488379,180.9,14.91,6,3.0,22 / 22,184439,2019-11-08 10:00:22:050,-3.8301,-0.5514,9.5855,0.0446,0.007,9.8064,-0.0541,-0.4049,0.1776,-5.69,-45.0,30.5,353.96,-79.37,-173.4
1845,52.725956,-1.488379,180.9,14.91,6,3.0,23 / 23,184539,2019-11-08 10:00:22:150,-2.5296,-0.4716,9.9717,0.015,-0.0114,9.8066,0.0106,-0.3007,0.0256,-6.69,-45.06,31.38,351.26,-79.41,-173.6
1846,52.725956,-1.488379,180.9,14.91,6,3.0,23 / 23,184638,2019-11-08 10:00:22:249,-1.9672,-0.8157,9.91,0.0198,0.0113,9.8065,0.0748,-0.3787,0.0784,-7.31,-45.06,30.88,350.18,-79.21,-174.33
1847,52.725956,-1.488379,180.9,14.91,6,3.0,23 / 23,184738,2019-11-08 10:00:22:349,-3.6539,-0.3076,9.6991,-0.0074,0.0109,9.8065,0.0781,-0.2774,0.0367,-7.62,-46.12,30.5,346.26,-79.06,-175.31
1848,52.725956,-1.488379,180.9,14.91,6,3.0,23 / 23,184838,2019-11-08 10:00:22:449,-2.0547,-1.1089,9.7135,0.0093,0.0199,9.8065,-0.0284,-0.3396,-0.0081,-9.0,-46.0,30.56,343.08,-79.18,-175.98
1849,52.725956,-1.488379,180.9,14.91,6,3.0,23 / 23,184938,2019-11-08 10:00:22:549,-3.4933,-0.0693,10.1033,-0.0099,0.013,9.8066,-0.0114,-0.3428,0.0936,-8.87,-45.69,31.19,342.54,-79.33,-176.44
1850,52.725956,-1.488379,180.9,14.91,6,3.0,23 / 23,185038,2019-11-08 10:00:22:649,-3.6009,-1.8777,10.3066,0.0025,-0.0131,9.8065,-0.0484,-0.37,0.0719,-9.5,-45.5,30.38,342.59,-79.46,-175.92
1851,52.725956,-1.488379,180.9,14.91,6,3.0,23 / 23,185138,2019-11-08 10:00:22:749,-2.7775,-0.094,10.3322,-0.0035,-0.0292,9.8065,-0.0112,-0.3475,-0.0376,-10.37,-44.69,31.13,340.64,-79.45,-176.36
1852,52.725956,-1.488379,180.9,14.91,6,3.0,23 / 23,185238,2019-11-08 10:00:22:849,-3.7241,-3.2317,10.1209,0.0266,0.0065,9.8066,0.033,-0.5903,0.1996,-10.87,-45.31,30.69,339.33,-79.26,-175.63
1853,52.725956,-1.488379,180.9,14.91,6,3.0,23 / 23,185338,2019-11-08 10:00:22:949,-6.7545,-1.909,9.5214,-0.0022,0.0067,9.8066,-0.0136,-0.1549,-0.0484,-11.94,-45.31,30.81,335.94,-79.23,-176.58
1854,52.725956,-1.488379,180.9,14.91,6,3.0,23 / 23,185438,2019-11-08 10:00:23:049,-4.8707,-0.5348,9.3041,0.0132,0.0088,9.8065,-0.0533,-0.4831,0.0238,-12.25,-45.69,30.81,335.65,-79.26,-176.68
1855,52.725956,-1.488379,180.9,14.91,6,3.0,22 / 24,185538,2019-11-08 10:00:23:149,-6.8967,-5.418,10.3277,0.0461,0.0461,9.8064,0.0354,-0.9174,0.412,-13.19,-45.19,31.0,332.66,-79.36,-177.65
1856,52.725956,-1.488379,180.9,14.91,6,3.0,22 / 24,185638,2019-11-08 10:00:23:249,-1.3711,1.717,8.8241,-0.0008,-0.0027,9.8066,-0.0846,-0.1186,-0.0874,-13.75,-44.87,31.0,331.38,-79.4,-177.18
1857,52.725956,-1.488379,180.9,14.91,6,3.0,22 / 24,185738,2019-11-08 10:00:23:349,-7.0425,-1.9866,10.2831,-0.0222,-0.045,9.8065,-0.099,-0.1156,-0.1816,-14.31,-45.87,31.38,330.81,-79.53,-177.57
1858,52.725956,-1.488379,180.9,14.91,6,3.0,22 / 24,185838,2019-11-08 10:00:23:449,0.0701,-1.2679,8.8846,-0.0049,-0.0228,9.8065,-0.0049,-0.0639,-0.2184,-15.06,-45.37,31.94,329.67,-79.41,-177.97
1859,52.725956,-1.488379,180.9,14.91,6,3.0,22 / 24,185938,2019-11-08 10:00:23:549,-2.9734,-2.7727,9.8773,-0.0144,-0.0316,9.8065,-0.0285,-0.1822,-0.0878,-16.12,-44.19,32.5,327.74,-79.22,-179.02
1860,52.725956,-1.488379,180.9,14.91,6,3.0,22 / 24,186038,2019-11-08 10:00:23:649,-0.6274,0.4357,9.5395,-0.0271,-0.026,9.8066,-0.0717,-0.0129,-0.2042,-16.75,-45.06,32.31,325.38,-79.17,-178.5
1861,52.725956,-1.488379,180.9,14.91,6,3.0,22 / 24,186139,2019-11-08 10:00:23:750,-4.0871,-3.5074,9.2776,-0.0181,-0.0104,9.8066,0.0593,-0.3682,0.0607,-17.0,-44.5,32.81,325.76,-79.23,-179.32
1862,52.725956,-1.488379,180.9,14.91,6,3.0,22 / 24,186239,2019-11-08 10:00:23:850,-4.1463,-5.4049,10.7595,-0.0232,-0.0309,9.8066,-0.0656,-0.1222,-0.1534,-17.87,-44.56,33.31,323.23,-79.24,-179.94
1863,52.725956,-1.488379,180.9,14.91,6,3.0,22 / 24,186338,2019-11-08 10:00:23:949,-4.8465,-2.3484,9.591,-0.0021,0.0118,9.8066,0.0264,-0.5579,0.1661,-18.81,-44.37,34.56,324.19,-79.33,-179.92
1864,52.725956,-1.488379,180.9,14.91,6,3.0,22 / 24,186438,2019-11-08 10:00:24:049,-1.8094,-5.6306,10.057,-0.0032,-0.0294,9.8065,0.0086,-0.3153,-0.0324,-18.69,-44.94,34.31,323.36,-79.26,-179.53
1865,52.726807,-1.48868,181.68,9.2,4,29.57,22 / 24,186538,2019-11-08 10:00:24:149,-1.3673,-4.5154,9.3048,0.0038,-0.0281,9.8065,0.0573,-0.7396,0.2439,-19.62,-44.75,33.88,321.2,-79.13,179.98
1866,52.726807,-1.48868,181.68,9.2,4,29.57,22 / 24,186639,2019-11-08 10:00:24:250,-5.2132,-2.9582,10.3505,0.0145,0.0163,9.8066,0.102,-0.635,0.1935,-20.37,-44.75,35.31,321.92,-79.02,179.77
1867,52.726807,-1.48868,181.68,9.2,4,29.57,22 / 24,186739,2019-11-08 10:00:24:350,0.2373,-1.1876,9.6858,0.0302,0.0176,9.8065,0.0896,-0.7263,0.1697,-20.94,-44.94,35.06,319.76,-78.82,179.26
1868,52.726807,-1.48868,181.68,9.2,4,29.57,22 / 24,186839,2019-11-08 10:00:24:450,-3.6144,-1.867,10.1169,0.057,0.0165,9.8064,0.1444,-0.911,0.4288,-21.0,-44.25,36.06,318.85,-78.47,177.74
1869,52.726807,-1.48868,181.68,9.2,4,29.57,22 / 24,186938,2019-11-08 10:00:24:549,0.6676,1.6971,9.3979,0.0265,-0.0286,9.8065,0.0589,-0.5284,0.1003,-21.94,-43.69,36.5,319.22,-78.09,178.56
1870,52.726807,-1.48868,181.68,9.2,4,29.57,22 / 24,187039,2019-11-08 10:00:24:650,-4.0539,-3.9511,9.7546,0.0539,0.052,9.8063,0.0772,-0.9466,0.4565,-21.94,-43.5,37.0,317.29,-77.88,176.94
1871,52.726807,-1.48868,181.68,9.2,4,29.57,22 / 24,187139,2019-11-08 10:00:24:750,-6.6481,-4.1716,9.7805,0.015,0.0244,9.8065,-0.0492,-0.1918,-0.0467,-22.44,-44.0,37.75,319.04,-77.88,177.75
1872,52.726807,-1.48868,181.68,9.2,4,29.57,22 / 24,187239,2019-11-08 10:00:24:850,-4.8325,-3.8116,9.4551,0.0197,0.0437,9.8065,-0.0742,-0.637,0.2095,-23.0,-43.81,37.25,316.76,-78.04,177.58
1873,52.726807,-1.48868,181.68,9.2,4,29.57,22 / 24,187340,2019-11-08 10:00:24:951,-7.2436,-2.8108,9.9658,-0.0312,-0.002,9.8065,-0.1282,-0.0111,-0.1806,-23.87,-43.37,37.88,315.61,-78.45,176.24
1874,52.726807,-1.48868,181.68,9.2,4,29.57,22 / 24,187440,2019-11-08 10:00:25:051,-1.5715,-0.8927,8.955,0.0022,0.023,9.8065,-0.0801,-0.1505,-0.0145,-24.31,-43.62,38.5,316.32,-78.87,175.9
1875,52.726807,-1.48868,181.68,9.2,4,29.57,23 / 24,187539,2019-11-08 10:00:25:150,-3.0183,-0.1326,9.8931,-0.0154,0.0285,9.8066,-0.0317,-0.4839,0.0163,-23.5,-42.56,38.88,317.56,-79.1,175.63
1876,52.726807,-1.48868,181.68,9.2,4,29.57,23 / 24,187639,2019-11-08 10:00:25:250,-1.4622,-0.4471,9.2303,-0.0497,-0.0028,9.8065,-0.0923,0.0528,-0.1943,-24.06,-42.5,39.81,318.25,-79.64,175.92
1877,52.726807,-1.48868,181.68,9.2,4,29.57,23 / 24,187739,2019-11-08 10:00:25:350,-2.9239,-0.4575,8.7395,-0.0128,-0.0017,9.8065,0.039,-0.4682,0.0358,-24.31,-42.56,40.94,318.55,-79.85,175.44
1878,52.726807,-1.48868,181.68,9.2,4,29.57,23 / 24,187839,2019-11-08 10:00:25:450,-2.6023,-1.4976,9.4668,-0.0156,-0.0057,9.8066,-0.0521,-0.2383,-0.0075,-24.62,-42.75,41.38,316.71,-80.11,174.6
1879,52.726807,-1.48868,181.68,9.2,4,29.57,23 / 24,187939,2019-11-08 10:00:25:550,-2.6494,-0.7157,8.9276,-0.0258,-0.0116,9.8066,-0.0088,-0.7223,0.305,-25.62,-43.25,41.56,317.45,-80.33,175.33
1880,52.726807,-1.48868,181.68,9.2,4,29.57,23 / 24,188039,2019-11-08 10:00:25:650,-6.6744,-3.8256,9.9289,-0.0301,-0.0024,9.8066,-0.0132,-0.4702,0.054,-25.44,-42.44,43.19,319.5,-80.63,175.2
1881,52.726807,-1.48868,181.68,9.2,4,29.57,23 / 24,188139,2019-11-08 10:00:25:750,-2.5664,-0.7455,9.0755,-0.025,-0.021,9.8065,0.0701,-0.8082,0.265,-25.75,-43.19,43.13,318.65,-80.7,175.45
1882,52.726807,-1.48868,181.68,9.2,4,29.57,23 / 24,188238,2019-11-08 10:00:25:849,-7.0968,-3.6714,10.1631,0.0134,0.0207,9.8066,0.0146,-0.7996,0.256,-26.06,-41.19,43.88,319.28,-80.84,175.03
1883,52.726807,-1.48868,181.68,9.2,4,29.57,23 / 24,188338,2019-11-08 10:00:25:949,-2.7017,-1.3898,9.9425,0.0155,0.0297,9.8065,-0.0569,-0.6033,0.1192,-26.12,-42.37,44.25,318.86,-80.99,174.67
1884,52.726807,-1.48868,181.68,9.2,4,29.57,23 / 24,188438,2019-11-08 10:00:26:049,-3.3626,-1.5742,9.0668,0.0211,0.0366,9.8065,0.0805,-0.7424,0.2564,-26.12,-41.5,45.94,318.71,-81.22,173.03
1885,52.726807,-1.48868,181.68,9.2,4,29.57,22 / 24,188538,2019-11-08 10:00:26:149,-4.0549,-1.5767,8.9665,-0.0029,0.0113,9.8066,-0.0748,-0.2269,-0.0887,-26.37,-41.37,46.56,319.97,-81.16,173.6
1886,52.726807,-1.48868,181.68,9.2,4,29.57,22 / 24,188639,2019-11-08 10:00:26:250,-2.6834,-0.9591,9.9336,-0.0077,0.0239,9.8066,0.0103,-0.4655,0.0255,-26.0,-42.25,47.44,318.96,-81.33,172.7
1887,52.726807,-1.48868,181.68,9.2,4,29.57,22 / 24,188739,2019-11-08 10:00:26:350,-5.685,-3.6301,10.021,-0.0309,-0.0159,9.8065,-0.0598,-0.1609,-0.1028,-26.12,-41.56,49.38,320.0,-81.49,172.41
1888,52.726807,-1.48868,181.68,9.2,4,29.57,22 / 24,188838,2019-11-08 10:00:26:449,-2.1903,0.3464,9.0994,-0.0111,-0.0113,9.8065,-0.0772,-0.1457,-0.165,-26.06,-41.75,49.88,320.86,-81.55,172.62
1889,52.726807,-1.48868,181.68,9.2,4,29.57,22 / 24,188939,2019-11-08 10:00:26:550,-6.048,-4.3303,10.275,-0.0217,-0.0299,9.8065,-0.0854,-0.2904,-0.0278,-25.81,-41.56,50.69,321.31,-81.57,172.49
1890,52.726807,-1.48868,181.68,9.2,4,29.57,22 / 24,189038,2019-11-08 10:00:26:649,-4.6373,-2.2439,9.7846,-0.0174,-0.0273,9.8065,-0.0522,-0.1316,-0.1469,-25.31,-40.62,51.5,324.12,-81.62,173.58
1891,52.726807,-1.48868,181.68,9.2,4,29.57,22 / 24,189139,2019-11-08 10:00:26:750,-7.2635,-4.4774,9.6444,-0.0227,-0.0223,9.8066,-0.0691,-0.3154,-0.0197,-25.75,-41.5,52.06,322.04,-81.57,172.57
1892,52.726807,-1.48868,181.68,9.2,4,29.57,22 / 24,189238,2019-11-08 10:00:26:849,-3.7753,-1.7511,9.5757,-0.0438,-0.0123,9.8064,-0.0778,-0.0635,-0.1804,-25.69,-40.56,52.75,323.69,-81.76,173.49
1893,52.726807,-1.48868,181.68,9.2,4,29.57,22 / 24,189338,2019-11-08 10:00:26:949,-1.8864,-1.5094,9.6328,-0.0112,0.0169,9.8066,-0.0492,-0.4403,0.0828,-26.0,-41.12,52.63,322.23,-82.01,172.04
1894,52.726807,-1.48868,181.68,9.2,4,29.57,22 / 24,189438,2019-11-08 10:00:27:049,-3.9403,-0.5982,9.4569,-0.017,-0.0344,9.8065,-0.0339,-0.2757,-0.0325,-25.06,-40.31,54.56,323.28,-82.27,171.03
1895,52.726807,-1.48868,181.68,9.2,4,29.57,23 / 24,189538,2019-11-08 10:00:27:149,-1.5585,-2.8942,8.9942,0.0334,0.0185,9.8065,0.0061,-0.5186,0.1315,-25.62,-39.81,54.25,322.72,-82.09,171.89
1896,52.726807,-1.48868,181.68,9.2,4,29.57,23 / 24,189638,2019-11-08 10:00:27:249,-2.8243,-4.3781,9.316,-0.0153,0.0149,9.8066,-0.1137,-0.3733,0.0027,-25.19,-40.31,55.25,322.15,-82.22,170.02
1897,52.726807,-1.48868,181.68,9.2,4,29.57,23 / 24,189738,2019-11-08 10:00:27:349,-3.0837,-4.3431,9.6515,-0.0243,0.0023,9.8066,-0.1094,-0.4837,0.1973,-24.75,-40.37,55.13,322.39,-82.52,170.09
1898,52.726807,-1.48868,181.68,9.2,4,29.57,23 / 24,189838,2019-11-08 10:00:27:449,-4.8102,-1.498,10.0891,-0.0264,0.0234,9.8065,-0.079,-0.2455,-0.0708,-25.12,-40.44,56.81,323.17,-83.05,169.73
1899,52.726807,-1.48868,181.68,9.2,4,29.57,23 / 24,189938,2019-11-08 10:00:27:549,0.934,-2.4414,9.6361,-0.0176,-0.0058,9.8066,0.0292,-0.5771,0.2008,-24.06,-40.44,56.81,322.24,-83.2,167.96
1900,52.726807,-1.48868,181.68,9.2,4,29.57,23 / 24,190039,2019-11-08 10:00:27:650,-1.681,-1.9613,9.733,0.0173,-0.0094,9.8066,0.0434,-0.2502,-0.0008,-23.87,-40.31,57.75,321.74,-83.15,167.12
1901,52.726807,-1.48868,181.68,9.2,4,29.57,23 / 24,190139,2019-11-08 10:00:27:750,0.1026,-2.0905,9.9555,0.0275,-0.0037,9.8066,-0.004,-0.3873,0.0172,-23.62,-40.62,57.69,319.75,-82.88,165.46
1902,52.726807,-1.48868,181.68,9.2,4,29.57,23 / 24,190239,2019-11-08 10:00:27:850,-1.8385,-1.514,9.838,0.0351,0.0019,9.8065,0.0362,-0.265,0.0786,-23.12,-40.81,58.94,318.59,-82.54,163.33
1903,52.726807,-1.48868,181.68,9.2,4,29.57,23 / 24,190338,2019-11-08 10:00:27:949,-1.6104,-1.8613,10.0999,0.0113,-0.0092,9.8066,0.0501,-0.1229,-0.0604,-22.75,-40.56,58.56,317.89,-82.43,162.73
1904,52.726807,-1.48868,181.68,9.2,4,29.57,23 / 24,190438,2019-11-08 10:00:28:049,0.3726,0.9824,9.5878,0.0286,0.0032,9.8065,0.0131,-0.1151,0.0502,-22.19,-40.06,58.81,316.57,-81.94,160.83
1905,52.726807,-1.48868,181.68,9.2,4,29.57,22 / 24,190538,2019-11-08 10:00:28:149,-1.161,-0.0911,10.0725,0.0308,-0.0094,9.8066,-0.0182,-0.011,-0.0163,-22.81,-40.12,58.75,315.59,-81.66,160.88
1906,52.726807,-1.48868,181.68,9.2,4,29.57,22 / 24,190639,2019-11-08 10:00:28:250,0.8863,-1.6753,10.3006,-0.005,-0.0121,9.8066,-0.0279,-0.0826,0.085,-22.56,-40.44,59.13,317.5,-81.53,162.73
1907,52.726807,-1.48868,181.68,9.2,4,29.57,22 / 24,190739,2019-11-08 10:00:28:350,0.915,-1.3504,10.1413,-0.019,-0.0055,9.8066,-0.0531,0.0325,0.0468,-22.56,-40.44,59.25,319.54,-81.66,164.57
1908,52.726807,-1.48868,181.68,9.2,4,29.57,22 / 24,190839,2019-11-08 10:00:28:450,-1.6786,2.0134,9.4088,-0.02,-0.0037,9.8066,-0.0979,-0.1189,0.1023,-22.06,-40.25,59.19,323.46,-81.93,167.24
1909,52.726807,-1.48868,181.68,9.2,4,29.57,22 / 24,190939,2019-11-08 10:00:28:550,-1.7797,-1.6963,10.926,-0.0079,0.0265,9.8066,-0.0989,0.1512,-0.115,-22.31,-39.56,58.38,324.64,-82.18,168.59
1910,52.726807,-1.48868,181.68,9.2,4,29.57,22 / 24,191038,2019-11-08 10:00:28:649,-0.0434,0.334,10.3743,0.0006,0.0191,9.8066,0.1066,0.0408,-0.0222,-22.75,-40.0,58.75,325.42,-82.08,169.81
1911,52.726807,-1.48868,181.68,9.2,4,29.57,22 / 24,191139,2019-11-08 10:00:28:750,0.443,0.0761,10.5992,0.0262,-0.0083,9.8065,0.025,0.0662,-0.0809,-23.25,-39.87,58.38,323.92,-81.91,168.88
1912,52.726807,-1.48868,181.68,9.2,4,29.57,22 / 24,191239,2019-11-08 10:00:28:850,1.4363,1.5854,9.7695,0.0113,-0.0059,9.8066,-0.0366,0.2049,-0.0678,-22.69,-40.62,58.56,322.16,-81.84,166.98
1913,52.726807,-1.48868,181.68,9.2,4,29.57,22 / 24,191339,2019-11-08 10:00:28:950,2.7581,2.6497,10.0365,0.02,-0.0177,9.8065,0.0112,0.0549,0.065,-23.62,-40.31,58.56,321.59,-81.66,167.28
1914,52.726807,-1.48868,181.68,9.2,4,29.57,22 / 24,191438,2019-11-08 10:00:29:049,1.4631,0.8812,9.4345,-0.0069,-0.0065,9.8066,-0.0016,0.1699,-0.0128,-23.87,-40.5,57.31,320.44,-81.44,167.12
1915,52.726807,-1.48868,181.68,9.2,4,29.57,21 / 24,191538,2019-11-08 10:00:29:149,2.159,2.8758,9.8528,-0.0121,0.0069,9.8066,0.0108,0.1004,0.1096,-23.87,-40.19,56.88,321.85,-81.48,168.4
1916,52.726807,-1.48868,181.68,9.2,4,29.57,21 / 24,191638,2019-11-08 10:00:29:249,0.1776,1.2186,10.2087,-0.0149,-0.0142,9.8066,-0.0255,0.0926,0.0718,-24.5,-40.44,56.69,324.96,-81.56,171.22
1917,52.726807,-1.48868,181.68,9.2,4,29.57,21 / 24,191738,2019-11-08 10:00:29:349,1.0966,0.5688,8.8964,-0.0163,-0.0068,9.8065,-0.0135,0.1664,0.0103,-24.31,-39.94,57.31,326.98,-81.53,173.09
1918,52.726807,-1.48868,181.68,9.2,4,29.57,21 / 24,191838,2019-11-08 10:00:29:449,1.2955,0.7078,9.3032,-0.009,0.0,9.8066,-0.1045,0.1903,0.0523,-25.12,-40.87,56.31,327.65,-81.63,174.98
1919,52.726807,-1.48868,181.68,9.2,4,29.57,21 / 24,191939,2019-11-08 10:00:29:550,-0.6204,1.9083,9.97,-0.0079,-0.0004,9.8066,0.0033,0.246,0.0582,-24.87,-39.94,55.88,330.49,-81.97,177.37
1920,52.726807,-1.48868,181.68,9.2,4,29.57,21 / 24,192038,2019-11-08 10:00:29:649,-1.9261,0.345,11.3231,-0.0381,-0.0305,9.8065,0.0739,0.5218,-0.2183,-26.06,-40.31,55.56,332.17,-81.93,179.75
1921,52.726807,-1.48868,181.68,9.2,4,29.57,21 / 24,192138,2019-11-08 10:00:29:749,-1.9096,0.2932,10.3344,-0.0211,-0.0741,9.8063,0.1448,-0.2283,0.1984,-25.62,-40.06,54.94,331.99,-81.58,-179.85
1922,52.726807,-1.48868,181.68,9.2,4,29.57,21 / 24,192239,2019-11-08 10:00:29:850,0.491,-0.908,9.3827,0.0005,-0.0527,9.8065,0.0159,0.1569,-0.0778,-26.12,-40.75,55.25,332.2,-80.85,-179.33
1923,52.726807,-1.48868,181.68,9.2,4,29.57,21 / 24,192339,2019-11-08 10:00:29:950,0.4659,1.769,10.0257,0.0103,-0.003,9.8066,0.0137,0.1659,0.0156,-25.0,-40.81,56.0,333.37,-80.56,-179.44
1924,52.726807,-1.48868,181.68,9.2,4,29.57,21 / 24,192438,2019-11-08 10:00:30:049,1.8243,0.4979,9.629,-0.0053,-0.0186,9.8066,-0.0376,0.2701,-0.076,-26.5,-40.5,54.56,331.79,-80.53,-179.64
1925,52.726807,-1.48868,181.68,9.2,4,29.57,21 / 23,192540,2019-11-08 10:00:30:151,1.5168,3.9717,10.1195,0.0144,-0.0176,9.8065,0.051,0.0851,0.0951,-26.37,-41.06,54.5,332.58,-80.28,-178.77
1926,52.726807,-1.48868,181.68,9.2,4,29.57,21 / 23,192639,2019-11-08 10:00:30:250,-0.7613,1.2086,10.4097,0.0033,-0.0309,9.8066,0.0305,0.291,-0.0415,-26.37,-40.56,53.81,332.88,-79.79,-177.86
1927,52.726807,-1.48868,181.68,9.2,4,29.57,21 / 23,192739,2019-11-08 10:00:30:350,2.6647,1.1194,9.9116,-0.0089,-0.0363,9.8065,0.0224,0.0323,0.0758,-26.62,-40.25,53.88,332.34,-79.59,-177.51
1928,52.726807,-1.48868,181.68,9.2,4,29.57,21 / 23,192838,2019-11-08 10:00:30:449,1.275,0.0036,10.2474,-0.0237,-0.0322,9.8065,-0.0256,0.3762,-0.1957,-27.5,-39.81,52.88,331.85,-79.6,-177.46
1929,52.726807,-1.48868,181.68,9.2,4,29.57,21 / 23,192938,2019-11-08 10:00:30:549,3.9596,1.5451,9.4743,-0.0057,-0.002,9.8066,0.0599,0.2438,0.0024,-27.19,-40.94,52.56,333.07,-79.45,-176.26
1930,52.726807,-1.48868,181.68,9.2,4,29.57,21 / 23,193039,2019-11-08 10:00:30:650,2.4083,2.4125,9.6176,0.0082,0.0073,9.8065,0.0429,0.2714,0.0513,-26.87,-40.87,52.75,332.81,-79.36,-176.44
1931,52.726807,-1.48868,181.68,9.2,4,29.57,21 / 23,193139,2019-11-08 10:00:30:750,3.132,2.8898,9.336,-0.0189,-0.0184,9.8065,-0.0554,0.4677,-0.1571,-27.06,-41.06,52.0,333.33,-79.26,-175.46
1932,52.726807,-1.48868,181.68,9.2,4,29.57,21 / 23,193239,2019-11-08 10:00:30:850,2.6797,2.6089,10.2357,-0.0274,-0.0273,9.8065,-0.004,0.3146,-0.133,-26.94,-41.06,51.38,333.13,-79.31,-175.14
1933,52.726807,-1.48868,181.68,9.2,4,29.57,21 / 23,193338,2019-11-08 10:00:30:949,1.8086,2.1039,10.9344,-0.0117,-0.0084,9.8066,0.1223,0.2739,0.0192,-27.37,-41.69,50.38,333.77,-79.18,-173.93
1934,52.726807,-1.48868,181.68,9.2,4,29.57,21 / 23,193438,2019-11-08 10:00:31:049,5.5862,2.4919,8.7713,-0.0113,-0.0403,9.8065,0.1187,0.1191,0.1994,-27.69,-41.12,50.0,334.79,-78.87,-172.16
1935,52.726807,-1.48868,181.68,9.2,4,29.57,22 / 24,193538,2019-11-08 10:00:31:149,2.5787,1.022,9.8008,-0.0121,-0.0171,9.8066,-0.1382,0.2066,-0.0112,-27.75,-41.19,49.44,336.35,-78.74,-170.23
1936,52.726807,-1.48868,181.68,9.2,4,29.57,22 / 24,193638,2019-11-08 10:00:31:249,1.4387,-0.0498,11.3127,-0.0159,-0.0399,9.8065,0.0268,0.3844,-0.2014,-27.81,-41.75,48.75,336.88,-78.83,-169.73
1937,52.726807,-1.48868,181.68,9.2,4,29.57,22 / 24,193738,2019-11-08 10:00:31:349,4.2955,2.7359,10.3644,0.0077,0.0287,9.8065,0.0586,0.1732,0.1299,-27.56,-41.06,48.25,337.92,-78.52,-168.25
1938,52.726807,-1.48868,181.68,9.2,4,29.57,22 / 24,193838,2019-11-08 10:00:31:449,5.0177,1.7298,10.8501,-0.0107,-0.0299,9.8065,-0.1883,0.3807,-0.1823,-28.12,-41.81,47.13,337.65,-78.52,-167.82
1939,52.726807,-1.48868,181.68,9.2,4,29.57,22 / 24,193939,2019-11-08 10:00:31:550,3.1767,2.1339,9.0342,0.014,0.034,9.8066,0.0675,0.236,0.2098,-27.56,-41.69,46.94,338.32,-78.67,-167.31
1940,52.726807,-1.48868,181.68,9.2,4,29.57,22 / 24,194039,2019-11-08 10:00:31:650,0.1103,1.9235,9.4445,-0.0237,-0.0085,9.8066,0.0456,0.6586,-0.1996,-27.5,-41.69,46.0,340.82,-78.58,-165.47
1941,52.726807,-1.48868,181.68,9.2,4,29.57,22 / 24,194139,2019-11-08 10:00:31:750,3.5307,2.9397,9.5869,-0.0379,-0.0601,9.8063,-0.0446,0.4546,-0.2449,-27.5,-41.25,45.5,342.54,-78.44,-164.06
1942,52.726807,-1.48868,181.68,9.2,4,29.57,22 / 24,194239,2019-11-08 10:00:31:850,1.1512,1.1939,9.504,-0.0171,-0.0321,9.8066,0.0776,0.1388,0.1589,-27.12,-41.44,45.56,343.26,-78.37,-163.44
1943,52.726807,-1.48868,181.68,9.2,4,29.57,22 / 24,194339,2019-11-08 10:00:31:950,0.3445,-1.2232,10.0857,-0.021,-0.0307,9.8066,-0.0132,0.1444,-0.0921,-27.75,-41.62,45.94,344.04,-77.96,-161.73
1944,52.726807,-1.48868,181.68,9.2,4,29.57,22 / 24,194439,2019-11-08 10:00:32:050,0.801,1.6217,9.9469,0.0064,-0.0257,9.8066,-0.075,0.0083,-0.1269,-27.5,-41.62,45.75,346.18,-77.79,-160.82
1945,52.726807,-1.48868,181.68,9.2,4,29.57,21 / 24,194538,2019-11-08 10:00:32:149,1.0379,-1.0109,10.5051,0.0201,0.0294,9.8065,-0.0155,0.152,-0.1004,-27.5,-41.06,44.75,344.71,-77.8,-161.5
1946,52.726807,-1.48868,181.68,9.2,4,29.57,21 / 24,194638,2019-11-08 10:00:32:249,1.9418,0.7469,9.9842,0.006,0.0199,9.8065,-0.0175,0.2486,-0.0389,-27.0,-42.12,44.81,345.26,-77.8,-160.99
1947,52.726807,-1.48868,181.68,9.2,4,29.57,21 / 24,194738,2019-11-08 10:00:32:349,1.7477,-2.0791,11.6883,-0.0069,0.0165,9.8066,-0.0613,0.2464,-0.0404,-27.12,-42.0,44.63,344.7,-77.92,-161.48
1948,52.726807,-1.48868,181.68,9.2,4,29.57,21 / 24,194839,2019-11-08 10:00:32:450,0.7921,3.1231,8.5295,-0.0122,0.0461,9.8065,-0.0836,0.181,-0.0455,-27.19,-41.69,44.88,345.73,-77.92,-160.63
1949,52.726807,-1.48868,181.68,9.2,4,29.57,21 / 24,194938,2019-11-08 10:00:32:549,1.035,-1.6345,10.8514,-0.0152,0.006,9.8065,-0.125,0.3659,-0.1222,-26.94,-42.0,44.75,346.64,-78.23,-159.96
1950,52.726807,-1.48868,181.68,9.2,4,29.57,21 / 24,195039,2019-11-08 10:00:32:650,1.9382,2.57,8.8066,0.003,0.0356,9.8065,-0.1278,0.3602,-0.1104,-27.0,-41.94,44.44,346.47,-78.44,-159.54
1951,52.726807,-1.48868,181.68,9.2,4,29.57,21 / 24,195139,2019-11-08 10:00:32:750,0.8503,-2.1004,10.5436,0.0091,0.0292,9.8066,-0.0219,0.2445,-0.1606,-27.12,-41.5,44.25,346.59,-78.49,-159.51
1952,52.726807,-1.48868,181.68,9.2,4,29.57,21 / 24,195239,2019-11-08 10:00:32:850,-1.1198,2.0885,9.9338,0.0243,-0.002,9.8066,0.0906,0.4424,-0.2473,-26.75,-42.0,43.81,346.11,-78.37,-159.82
1953,52.726807,-1.48868,181.68,9.2,4,29.57,21 / 24,195338,2019-11-08 10:00:32:949,-0.2436,-1.8734,9.0966,0.0488,0.0034,9.8065,-0.0027,-0.1501,0.0493,-27.19,-41.62,44.13,344.46,-78.14,-161.11
1954,52.726807,-1.48868,181.68,9.2,4,29.57,21 / 24,195439,2019-11-08 10:00:33:050,-0.775,0.3982,11.0266,-0.0012,0.03,9.8065,0.0837,0.1422,-0.1126,-27.06,-41.25,44.56,346.88,-78.29,-159.82
1955,52.726833,-1.487474,182.47,12.45,4,69.26,21 / 23,195539,2019-11-08 10:00:33:150,4.5249,0.6948,8.3564,0.0154,-0.0049,9.8066,0.2132,-0.5337,0.1728,-27.12,-42.06,44.38,347.05,-78.47,-159.07
1956,52.726833,-1.487474,182.47,12.45,4,69.26,21 / 23,195638,2019-11-08 10:00:33:249,-2.2253,-1.4105,11.3434,0.0016,-0.0785,9.8063,0.1413,-0.3796,0.1793,-26.75,-41.75,44.5,348.48,-78.8,-158.56
1957,52.726833,-1.487474,182.47,12.45,4,69.26,21 / 23,195738,2019-11-08 10:00:33:349,4.4717,3.2865,8.4045,-0.0028,-0.0705,9.8064,0.19,-0.3187,0.136,-27.87,-42.0,43.38,345.77,-78.69,-158.63
1958,52.726833,-1.487474,182.47,12.45,4,69.26,21 / 23,195839,2019-11-08 10:00:33:450,2.241,2.4352,9.6822,-0.0124,-0.0343,9.8065,0.0521,-0.6136,0.4304,-27.06,-41.5,43.56,346.89,-78.33,-159.22
1959,52.726833,-1.487474,182.47,12.45,4,69.26,21 / 23,195939,2019-11-08 10:00:33:550,3.515,5.0826,9.0185,-0.04,-0.0483,9.8064,-0.0577,0.3338,-0.2164,-27.06,-42.0,43.06,346.61,-78.2,-158.74
1960,52.726833,-1.487474,182.47,12.45,4,69.26,21 / 23,196039,2019-11-08 10:00:33:650,3.2381,3.5247,9.8713,0.0296,0.0348,9.8065,0.0502,-0.1678,0.1269,-27.06,-42.44,43.31,345.69,-78.41,-159.54
1961,52.726833,-1.487474,182.47,12.45,4,69.26,21 / 23,196139,2019-11-08 10:00:33:750,-4.3686,0.7526,9.7526,-0.0128,-0.003,9.8066,-0.0154,-0.476,0.334,-27.0,-42.75,42.5,344.4,-78.61,-160.6
1962,52.726833,-1.487474,182.47,12.45,4,69.26,21 / 23,196239,2019-11-08 10:00:33:850,-0.9606,2.7366,10.198,-0.0446,-0.0531,9.8064,-0.1125,0.4868,-0.2527,-26.87,-42.44,42.5,345.75,-78.52,-159.53
1963,52.726833,-1.487474,182.47,12.45,4,69.26,21 / 23,196339,2019-11-08 10:00:33:950,-4.8472,1.47,9.9391,0.0127,0.035,9.8065,-0.0041,0.3758,-0.0993,-26.75,-42.56,43.25,345.22,-78.8,-159.98
1964,52.726833,-1.487474,182.47,12.45,4,69.26,21 / 23,196439,2019-11-08 10:00:34:050,4.3363,6.8736,9.1593,0.0172,-0.011,9.8065,0.0319,0.7171,-0.4638,-26.37,-42.5,42.19,346.71,-78.7,-159.09
1965,52.726833,-1.487474,182.47,12.45,4,69.26,23 / 25,196539,2019-11-08 10:00:34:150,0.2318,2.8734,9.5054,0.0368,0.0384,9.8064,0.0412,-0.2689,0.101,-27.0,-42.44,41.75,345.7,-78.51,-158.91
1966,52.726833,-1.487474,182.47,12.45,4,69.26,23 / 25,196638,2019-11-08 10:00:34:249,-3.963,-0.1349,10.7983,-0.0433,-0.0511,9.8063,-0.0157,0.2603,-0.0008,-26.19,-42.31,41.56,346.83,-78.45,-158.93
1967,52.726833,-1.487474,182.47,12.45,4,69.26,23 / 25,196739,2019-11-08 10:00:34:350,-1.282,3.2873,9.635,0.0111,0.048,9.8065,-0.0783,-0.2319,-0.0325,-26.37,-42.12,41.31,347.27,-78.54,-157.93
1968,52.726833,-1.487474,182.47,12.45,4,69.26,23 / 25,196839,2019-11-08 10:00:34:450,-3.3992,1.0941,11.7015,-0.0148,-0.0435,9.8065,0.1451,0.0759,0.181,-25.94,-42.06,41.25,348.08,-78.58,-157.28
1969,52.726833,-1.487474,182.47,12.45,4,69.26,23 / 25,196938,2019-11-08 10:00:34:549,0.2319,5.0088,8.3502,0.0005,0.0306,9.8066,-0.051,-0.2149,0.0574,-27.0,-42.87,41.69,347.63,-78.78,-157.34
1970,52.726833,-1.487474,182.47,12.45,4,69.26,23 / 25,197038,2019-11-08 10:00:34:649,-3.4689,1.4182,10.6758,-0.0154,0.0064,9.8066,0.0379,-0.1706,0.234,-26.31,-42.19,41.69,349.26,-78.63,-156.99
1971,52.726833,-1.487474,182.47,12.45,4,69.26,23 / 25,197138,2019-11-08 10:00:34:749,-1.3345,5.6335,8.7777,-0.0193,-0.0285,9.8066,0.0574,0.0478,0.0593,-26.5,-42.37,41.25,347.51,-78.91,-157.82
1972,52.726833,-1.487474,182.47,12.45,4,69.26,23 / 25,197239,2019-11-08 10:00:34:850,0.5449,4.3497,9.6606,0.0198,0.0123,9.8065,-0.0181,-0.1611,0.0211,-26.0,-43.0,41.5,349.32,-78.99,-156.96
1973,52.726833,-1.487474,182.47,12.45,4,69.26,23 / 25,197339,2019-11-08 10:00:34:950,0.1808,4.4652,9.5476,-0.0276,-0.0208,9.8065,-0.0318,0.2507,-0.0299,-26.37,-42.56,41.25,348.63,-78.99,-156.88
1974,52.726833,-1.487474,182.47,12.45,4,69.26,23 / 25,197438,2019-11-08 10:00:35:049,-2.3723,4.0454,8.9733,0.0003,0.0269,9.8066,-0.0967,-0.0106,-0.0384,-26.44,-42.56,39.94,347.06,-79.08,-157.5
1975,52.726833,-1.487474,182.47,12.45,4,69.26,22 / 23,197538,2019-11-08 10:00:35:149,-2.6429,2.0408,10.2616,-0.0126,-0.0057,9.8066,-0.0085,0.0017,-0.0121,-26.06,-42.69,40.13,347.33,-79.11,-157.28
1976,52.726833,-1.487474,182.47,12.45,4,69.26,22 / 23,197638,2019-11-08 10:00:35:249,0.708,4.2609,9.4968,-0.0138,-0.0096,9.8066,0.0601,-0.151,0.1875,-26.81,-42.44,40.13,346.29,-79.17,-157.23
1977,52.726833,-1.487474,182.47,12.45,4,69.26,22 / 23,197738,2019-11-08 10:00:35:349,-2.7494,2.5942,9.7866,0.0034,0.0138,9.8066,-0.0146,-0.1302,0.0848,-25.62,-42.56,40.38,347.11,-79.23,-157.49
1978,52.726833,-1.487474,182.47,12.45,4,69.26,22 / 23,197838,2019-11-08 10:00:35:449,0.5704,5.5119,9.2806,0.0161,0.0285,9.8066,-0.0314,-0.0637,0.0735,-26.25,-42.31,39.69,347.33,-79.37,-157.39
1979,52.726833,-1.487474,182.47,12.45,4,69.26,22 / 23,197939,2019-11-08 10:00:35:550,-2.3464,2.8269,10.4948,0.0229,0.032,9.8065,0.063,-0.2207,0.1861,-26.06,-42.25,40.31,346.6,-79.54,-158.03
1980,52.726833,-1.487474,182.47,12.45,4,69.26,22 / 23,198038,2019-11-08 10:00:35:649,-3.633,2.2753,9.5613,-0.0072,-0.0031,9.8066,-0.0026,0.2832,-0.2103,-26.69,-42.25,40.06,345.37,-79.42,-158.06
1981,52.726833,-1.487474,182.47,12.45,4,69.26,22 / 23,198139,2019-11-08 10:00:35:750,-2.1394,3.5743,9.2939,0.033,0.0268,9.8065,-0.048,0.0594,0.0659,-25.75,-41.94,40.31,345.32,-79.58,-159.11
1982,52.726833,-1.487474,182.47,12.45,4,69.26,22 / 23,198238,2019-11-08 10:00:35:849,-2.3086,2.8716,10.215,-0.004,-0.0223,9.8066,-0.0704,0.491,-0.169,-25.56,-42.87,40.19,345.05,-79.7,-159.31
1983,52.726833,-1.487474,182.47,12.45,4,69.26,22 / 23,198338,2019-11-08 10:00:35:949,1.4959,4.626,9.2572,-0.0133,0.0094,9.8066,0.0139,0.3211,-0.1472,-25.06,-42.62,38.94,345.24,-79.69,-159.44
1984,52.726833,-1.487474,182.47,12.45,4,69.26,22 / 23,198438,2019-11-08 10:00:36:049,-1.9655,2.9372,10.3136,-0.0279,-0.0176,9.8065,0.0207,0.4177,-0.176,-24.31,-42.12,39.31,346.25,-79.83,-159.73
1985,52.726833,-1.487474,182.47,12.45,4,69.26,22 / 24,198540,2019-11-08 10:00:36:151,0.5738,4.3107,9.1107,-0.0059,-0.0292,9.8066,-0.0399,0.4201,-0.1415,-24.75,-42.75,38.5,346.05,-79.76,-158.79
1986,52.726833,-1.487474,182.47,12.45,4,69.26,22 / 24,198639,2019-11-08 10:00:36:250,-0.5212,2.9838,9.7381,-0.0152,-0.0145,9.8066,-0.0172,0.2772,-0.0515,-24.12,-43.0,38.0,346.41,-79.78,-158.82
1987,52.726833,-1.487474,182.47,12.45,4,69.26,22 / 24,198738,2019-11-08 10:00:36:349,0.4672,4.0361,9.3211,-0.0198,-0.0228,9.8066,-0.0227,0.4023,-0.1587,-24.0,-42.5,37.25,346.86,-79.76,-157.76
1988,52.726833,-1.487474,182.47,12.45,4,69.26,22 / 24,198838,2019-11-08 10:00:36:449,-0.9903,2.427,9.8548,-0.0039,0.0027,9.8066,0.0075,0.1007,0.0234,-23.94,-43.44,38.06,347.43,-79.85,-158.0
1989,52.726833,-1.487474,182.47,12.45,4,69.26,22 / 24,198938,2019-11-08 10:00:36:549,-1.993,1.3391,9.9032,-0.0076,-0.0185,9.8066,0.0134,0.2533,-0.0727,-24.37,-43.12,36.69,346.42,-79.93,-158.11
1990,52.726833,-1.487474,182.47,12.45,4,69.26,22 / 24,199038,2019-11-08 10:00:36:649,-0.6218,0.7354,9.801,-0.0014,0.0101,9.8066,0.0105,0.0321,0.0518,-24.25,-43.37,37.13,346.71,-79.85,-157.86
1991,52.726833,-1.487474,182.47,12.45,4,69.26,22 / 24,199138,2019-11-08 10:00:36:749,-1.0528,1.0996,9.7697,-0.0073,0.0024,9.8066,-0.0113,0.1473,-0.0088,-23.87,-43.25,37.25,346.98,-79.97,-157.66
1992,52.726833,-1.487474,182.47,12.45,4,69.26,22 / 24,199238,2019-11-08 10:00:36:849,-0.0795,2.2857,9.7377,-0.0145,-0.0093,9.8066,0.0283,-0.0626,0.0937,-23.31,-43.31,36.75,348.84,-80.0,-157.23
1993,52.726833,-1.487474,182.47,12.45,4,69.26,22 / 24,199338,2019-11-08 10:00:36:949,-1.9071,0.7357,9.983,0.0032,0.0047,9.8066,0.0057,-0.0368,0.0495,-24.0,-43.25,36.44,346.52,-80.05,-157.3
1994,52.726833,-1.487474,182.47,12.45,4,69.26,22 / 24,199438,2019-11-08 10:00:37:049,-0.8662,2.0933,9.8781,-0.0005,0.0133,9.8066,-0.0331,0.0135,0.0138,-24.12,-43.31,36.5,347.52,-80.16,-157.27
1995,52.726833,-1.487474,182.47,12.45,4,69.26,22 / 24,199539,2019-11-08 10:00:37:150,-0.916,1.7096,9.6445,0.0126,0.0198,9.8066,0.0151,-0.0546,0.0519,-23.75,-43.0,37.13,347.9,-80.24,-156.97
1996,52.726833,-1.487474,182.47,12.45,4,69.26,22 / 24,199639,2019-11-08 10:00:37:250,-0.9126,1.5286,9.6643,-0.0004,-0.0015,9.8066,-0.0148,0.0489,-0.0111,-23.37,-43.81,37.0,347.9,-80.31,-158.02
1997,52.726833,-1.487474,182.47,12.45,4,69.26,22 / 24,199739,2019-11-08 10:00:37:350,-0.5659,1.0409,9.6277,0.0097,0.0016,9.8066,0.0208,-0.0535,0.0176,-23.81,-43.19,36.31,345.42,-80.31,-158.28
1998,52.726833,-1.487474,182.47,12.45,4,69.26,22 / 24,199838,2019-11-08 10:00:37:449,-2.318,0.8023,9.947,0.0009,0.0012,9.8066,0.0191,0.0233,-0.0258,-24.62,-43.0,36.56,344.4,-80.31,-158.84
1999,52.726833,-1.487474,182.47,12.45,4,69.26,22 / 24,199938,2019-11-08 10:00:37:549,-1.4126,1.6752,9.7674,0.0063,-0.0029,9.8066,-0.0391,-0.0228,-0.0335,-24.75,-42.87,37.06,343.83,-80.31,-159.32
2000,52.726833,-1.487474,182.47,12.45,4,69.26,22 / 24,200039,2019-11-08 10:00:37:650,-1.1656,1.0828,9.7955,0.0111,0.0025,9.8065,-0.0021,-0.0517,-0.0226,-24.44,-43.19,37.06,343.85,-80.41,-160.38
2001,52.726833,-1.487474,182.47,12.45,4,69.26,22 / 24,200139,2019-11-08 10:00:37:750,-2.0699,2.1997,9.7845,0.0012,0.0069,9.8066,-0.0046,-0.0149,-0.029,-23.81,-43.25,36.63,342.68,-80.5,-161.38
2002,52.726833,-1.487474,182.47,12.45,4,69.26,22 / 24,200239,2019-11-08 10:00:37:850,-2.0839,2.0113,9.8328,0.0013,0.0067,9.8066,-0.0059,-0.0872,0.0056,-24.0,-43.37,36.88,341.73,-80.54,-162.18
2003,52.726833,-1.487474,182.47,12.45,4,69.26,22 / 24,200339,2019-11-08 10:00:37:950,-2.0151,2.0583,9.9691,0.0039,0.0001,9.8066,0.0155,-0.0257,-0.0124,-24.75,-43.56,36.69,339.78,-80.59,-162.72
2004,52.726833,-1.487474,182.47,12.45,4,69.26,22 / 24,200438,2019-11-08 10:00:38:049,-2.1814,2.7724,9.6109,0.0046,-0.0011,9.8066,0.0046,-0.096,-0.0025,-24.94,-43.31,37.19,339.38,-80.63,-163.15
2005,52.726833,-1.487474,182.47,12.45,4,69.26,23 / 25,200538,2019-11-08 10:00:38:149,-2.0373,2.2665,9.8121,0.0053,0.012,9.8066,0.0017,-0.0256,0.0103,-24.69,-43.19,37.38,338.73,-80.7,-163.72
2006,52.726833,-1.487474,182.47,12.45,4,69.26,23 / 25,200638,2019-11-08 10:00:38:249,-1.4952,1.9711,9.8698,0.0015,0.0096,9.8066,0.0143,-0.0279,-0.0207,-24.37,-42.94,36.81,339.06,-80.84,-164.54
2007,52.726833,-1.487474,182.47,12.45,4,69.26,23 / 25,200739,2019-11-08 10:00:38:350,-1.1763,1.7411,9.7883,0.0068,0.0059,9.8065,0.0101,-0.0319,0.011,-24.62,-43.31,37.44,336.78,-80.95,-165.49
2008,52.726833,-1.487474,182.47,12.45,4,69.26,23 / 25,200838,2019-11-08 10:00:38:449,-1.0928,1.4535,9.7215,0.0029,0.0,9.8066,-0.0189,0.0138,-0.01,-24.62,-42.87,37.25,336.44,-80.96,-165.78
2009,52.726833,-1.487474,182.47,12.45,4,69.26,23 / 25,200938,2019-11-08 10:00:38:549,-1.0245,1.5291,9.8224,-0.0013,0.0098,9.8066,0.0165,-0.0093,0.0068,-24.94,-42.69,37.69,337.08,-80.97,-166.01
2010,52.726833,-1.487474,182.47,12.45,4,69.26,23 / 25,201038,2019-11-08 10:00:38:649,-1.527,1.5,9.7844,0.0016,0.0063,9.8066,-0.032,-0.0429,0.0022,-24.69,-42.87,37.75,336.86,-81.08,-166.24
2011,52.726833,-1.487474,182.47,12.45,4,69.26,23 / 25,201138,2019-11-08 10:00:38:749,-1.4628,1.6908,9.6967,0.0029,0.0026,9.8066,-0.0139,0.0173,0.0009,-24.94,-43.0,36.94,335.52,-81.18,-166.66
2012,52.726833,-1.487474,182.47,12.45,4,69.26,23 / 25,201239,2019-11-08 10:00:38:850,-1.2284,1.7134,9.6736,0.0027,0.0101,9.8066,0.0041,0.0077,0.0111,-24.44,-42.87,37.81,337.63,-81.24,-166.68
2013,52.726833,-1.487474,182.47,12.45,4,69.26,23 / 25,201338,2019-11-08 10:00:38:949,-1.2103,1.43,9.8657,-0.0032,0.0073,9.8066,-0.0069,-0.0156,-0.0039,-24.94,-43.06,37.38,335.17,-81.33,-167.03
2014,52.726833,-1.487474,182.47,12.45,4,69.26,23 / 25,201439,2019-11-08 10:00:39:050,-1.5436,1.8069,9.6993,-0.0014,0.0099,9.8066,0.0061,0.0038,0.0083,-24.87,-43.19,37.38,335.16,-81.46,-167.1
2015,52.726833,-1.487474,182.47,12.45,4,69.26,23 / 23,201540,2019-11-08 10:00:39:151,-0.2791,0.2403,10.155,-0.0054,0.0081,9.8066,0.0178,0.0108,-0.0043,-24.69,-43.0,37.81,336.04,-81.6,-167.17
2016,52.726833,-1.487474,182.47,12.45,4,69.26,23 / 23,201639,2019-11-08 10:00:39:250,0.3164,-0.6664,9.8493,0.0026,0.0,9.8066,0.0328,0.0176,0.0041,-25.19,-42.56,37.5,335.82,-81.61,-167.36
2017,52.726833,-1.487474,182.47,12.45,4,69.26,23 / 23,201738,2019-11-08 10:00:39:349,0.1949,-0.5673,9.7852,0.0068,-0.0045,9.8066,0.0499,0.0098,-0.0137,-25.0,-42.81,38.25,335.3,-81.5,-167.77
2018,52.726833,-1.487474,182.47,12.45,4,69.26,23 / 23,201838,2019-11-08 10:00:39:449,-0.1181,-0.0234,9.6814,0.0033,0.0012,9.8066,-0.018,-0.0033,0.0058,-24.81,-43.0,38.13,334.65,-81.43,-168.3
2019,52.726833,-1.487474,182.47,12.45,4,69.26,23 / 23,201939,2019-11-08 10:00:39:550,-0.2969,0.026,9.9115,-0.0022,0.0109,9.8066,-0.0292,-0.0121,0.0032,-24.62,-43.31,38.44,334.69,-81.6,-168.34
2020,52.726833,-1.487474,182.47,12.45,4,69.26,23 / 23,202039,2019-11-08 10:00:39:650,-0.0607,0.1285,9.9898,-0.0004,0.0072,9.8066,-0.0057,0.0057,0.0054,-24.62,-43.37,38.25,334.79,-81.72,-168.31
2021,52.726833,-1.487474,182.47,12.45,4,69.26,23 / 23,202139,2019-11-08 10:00:39:750,-0.044,0.1052,9.7492,-0.0014,0.0069,9.8066,0.0006,-0.0101,0.0114,-24.5,-43.06,38.13,335.84,-81.84,-168.47
2022,52.726833,-1.487474,182.47,12.45,4,69.26,23 / 23,202238,2019-11-08 10:00:39:849,0.0343,-0.085,9.9409,-0.0027,0.0041,9.8066,0.0043,0.017,-0.0141,-24.87,-43.06,38.25,334.77,-81.9,-168.41
2023,52.726833,-1.487474,182.47,12.45,4,69.26,23 / 23,202338,2019-11-08 10:00:39:949,-0.0891,0.0787,9.7407,0.0002,0.0053,9.8066,-0.0177,-0.0239,0.0017,-24.69,-42.87,37.88,334.75,-81.99,-168.47
2024,52.726833,-1.487474,182.47,12.45,4,69.26,23 / 23,202438,2019-11-08 10:00:40:049,-0.2021,-0.2714,9.886,-0.0045,0.0051,9.8065,0.0037,0.0286,-0.0142,-24.56,-43.06,37.69,334.77,-82.07,-168.49
2025,52.726833,-1.487474,182.47,12.45,4,69.26,22 / 23,202538,2019-11-08 10:00:40:149,0.0038,-0.2651,9.9556,-0.002,0.005,9.8066,-0.0109,0.0237,-0.0114,-25.25,-43.81,38.38,334.68,-82.14,-168.52
2026,52.726833,-1.487474,182.47,12.45,4,69.26,22 / 23,202638,2019-11-08 10:00:40:249,-0.2038,-0.1608,9.7829,-0.006,0.0055,9.8066,-0.0154,-0.0188,0.0041,-24.75,-43.5,37.88,334.73,-82.26,-168.61
2027,52.726833,-1.487474,182.47,12.45,4,69.26,22 / 23,202738,2019-11-08 10:00:40:349,0.0256,-0.0809,9.8447,-0.0046,0.0049,9.8066,-0.002,-0.014,-0.0016,-24.81,-43.12,38.38,335.0,-82.38,-168.42
2028,52.726833,-1.487474,182.47,12.45,4,69.26,22 / 23,202838,2019-11-08 10:00:40:449,-0.1544,-0.0962,9.913,-0.0036,0.0062,9.8066,-0.0082,-0.0015,0.0062,-24.44,-43.44,38.25,336.17,-82.48,-168.47
2029,52.726833,-1.487474,182.47,12.45,4,69.26,22 / 23,202938,2019-11-08 10:00:40:549,-0.0687,-0.0305,9.745,-0.0029,0.0059,9.8066,0.002,0.0117,-0.0038,-24.69,-43.19,37.5,335.05,-82.62,-168.48
2030,52.726833,-1.487474,182.47,12.45,4,69.26,22 / 23,203038,2019-11-08 10:00:40:649,-0.0179,-0.3266,9.8694,-0.0048,0.0076,9.8066,0.0017,-0.0017,0.0068,-25.12,-43.25,37.94,335.04,-82.72,-168.54
2031,52.726833,-1.487474,182.47,12.45,4,69.26,22 / 23,203139,2019-11-08 10:00:40:750,-0.1014,-0.1167,9.8171,-0.0052,0.0058,9.8066,0.01,0.0035,-0.0025,-24.81,-43.69,37.44,334.2,-82.86,-168.52
2032,52.726833,-1.487474,182.47,12.45,4,69.26,22 / 23,203238,2019-11-08 10:00:40:849,0.1672,-0.2779,9.9851,-0.003,0.0075,9.8066,-0.0043,-0.0095,0.001,-24.69,-42.94,37.75,335.27,-82.96,-168.44
2033,52.726833,-1.487474,182.47,12.45,4,69.26,22 / 23,203338,2019-11-08 10:00:40:949,0.0593,-0.254,9.7836,-0.0044,0.006,9.8066,-0.0055,-0.0034,-0.0098,-24.19,-42.62,38.06,336.4,-83.05,-168.51
2034,52.726833,-1.487474,182.47,12.45,4,69.26,22 / 23,203438,2019-11-08 10:00:41:049,-0.0818,-0.1844,9.8953,-0.0015,0.0058,9.8066,0.0001,-0.0098,-0.0086,-24.0,-43.87,38.38,336.43,-83.19,-168.48
2035,52.726833,-1.487474,182.47,12.45,4,69.26,22 / 24,203539,2019-11-08 10:00:41:150,0.0404,-0.4408,9.978,-0.0051,0.0071,9.8066,-0.0231,0.001,-0.0031,-24.87,-42.75,37.88,335.51,-83.32,-168.39
2036,52.726833,-1.487474,182.47,12.45,4,69.26,22 / 24,203639,2019-11-08 10:00:41:250,-0.0754,-0.2223,9.9038,-0.0032,0.0056,9.8066,-0.0077,-0.0071,-0.009,-25.12,-42.81,37.56,335.62,-83.41,-168.32
2037,52.726833,-1.487474,182.47,12.45,4,69.26,22 / 24,203739,2019-11-08 10:00:41:350,-0.1424,-0.2634,9.8724,-0.0033,0.0072,9.8066,0.0169,-0.0098,0.0004,-25.12,-43.5,38.56,336.55,-83.53,-168.27
2038,52.726833,-1.487474,182.47,12.45,4,69.26,22 / 24,203838,2019-11-08 10:00:41:449,0.0673,-0.4046,9.958,-0.0017,0.005,9.8066,-0.011,-0.0069,-0.0077,-24.5,-43.75,38.5,337.73,-83.59,-168.21
2039,52.726833,-1.487474,182.47,12.45,4,69.26,22 / 24,203940,2019-11-08 10:00:41:551,0.2513,-0.4259,9.9113,-0.0026,0.0067,9.8066,-0.0039,-0.0129,-0.006,-24.94,-43.37,38.31,335.83,-83.7,-168.27
2040,52.726833,-1.487474,182.47,12.45,4,69.26,22 / 24,204038,2019-11-08 10:00:41:649,-0.0036,-0.4019,9.7927,-0.0024,0.0053,9.8066,-0.0131,0.0167,0.0086,-24.31,-43.56,38.06,336.96,-83.78,-168.26
2041,52.726833,-1.487474,182.47,12.45,4,69.26,22 / 24,204139,2019-11-08 10:00:41:750,0.1565,-0.4263,9.9467,-0.0071,0.0062,9.8066,0.0024,0.018,-0.0216,-24.62,-43.31,38.19,336.19,-83.9,-168.03
2042,52.726833,-1.487474,182.47,12.45,4,69.26,22 / 24,204239,2019-11-08 10:00:41:850,0.0643,-0.3328,9.8681,-0.0045,0.0056,9.8066,0.0038,0.0075,-0.001,-24.44,-42.94,37.81,337.36,-83.99,-168.04
2043,52.726833,-1.487474,182.47,12.45,4,69.26,22 / 24,204339,2019-11-08 10:00:41:950,0.0267,-0.5327,9.8875,-0.0035,0.0048,9.8066,-0.0014,-0.0142,-0.0051,-24.06,-43.5,38.31,337.57,-84.06,-167.87
2044,52.726833,-1.487474,182.47,12.45,4,69.26,22 / 24,204438,2019-11-08 10:00:42:049,0.0831,-0.3528,9.8613,0.001,0.001,9.8066,-0.0066,-0.0082,-0.0012,-24.62,-43.31,37.75,336.67,-84.17,-167.7
2045,52.72702,-1.48694,182.69,0.0,4,49.58,23 / 24,204541,2019-11-08 10:00:42:152,-0.0116,-0.4997,9.8608,-0.0013,0.007,9.8066,0.0024,0.0031,0.0135,-25.06,-42.94,37.88,336.66,-84.25,-167.74
2046,52.72702,-1.48694,182.69,0.0,4,49.58,23 / 24,204638,2019-11-08 10:00:42:249,0.0,-0.4374,9.8014,-0.0039,0.0056,9.8066,0.0084,-0.0164,-0.011,-24.56,-43.25,37.56,337.09,-84.32,-167.38
2047,52.72702,-1.48694,182.69,0.0,4,49.58,23 / 24,204738,2019-11-08 10:00:42:349,0.0035,-0.594,9.8693,-0.0007,0.0044,9.8066,-0.0153,-0.0034,0.0058,-25.31,-43.31,37.81,337.28,-84.42,-167.25
2048,52.72702,-1.48694,182.69,0.0,4,49.58,23 / 24,204838,2019-11-08 10:00:42:449,-0.0704,-0.4644,9.7224,-0.0052,0.0054,9.8066,0.0132,0.0337,-0.0087,-24.56,-43.37,38.0,337.59,-84.49,-166.99
2049,52.72702,-1.48694,182.69,0.0,4,49.58,23 / 24,204938,2019-11-08 10:00:42:549,0.3085,-0.4471,9.8963,-0.0045,0.002,9.8066,-0.0119,0.0174,-0.0259,-24.75,-43.19,37.75,337.8,-84.57,-166.84
2050,52.72702,-1.48694,182.69,0.0,4,49.58,23 / 24,205038,2019-11-08 10:00:42:649,-0.0416,-0.5204,9.7962,-0.0041,0.0029,9.8066,-0.0103,0.0285,-0.0004,-24.44,-43.19,37.81,339.17,-84.66,-166.66
2051,52.72702,-1.48694,182.69,0.0,4,49.58,23 / 24,205139,2019-11-08 10:00:42:750,0.2931,-0.5258,9.9037,-0.0069,0.003,9.8066,0.0021,0.0291,-0.0231,-24.25,-43.31,37.75,339.82,-84.75,-166.1
2052,52.72702,-1.48694,182.69,0.0,4,49.58,23 / 24,205239,2019-11-08 10:00:42:850,0.153,-0.4649,9.8771,-0.0035,0.0019,9.8066,-0.005,-0.0005,-0.0051,-24.44,-43.75,38.19,339.89,-84.81,-166.02
2053,52.72702,-1.48694,182.69,0.0,4,49.58,23 / 24,205338,2019-11-08 10:00:42:949,0.2486,-0.5758,9.8295,-0.0032,0.0033,9.8066,-0.0108,0.0182,-0.0068,-24.75,-42.62,37.56,339.15,-84.87,-165.71
2054,52.72702,-1.48694,182.69,0.0,4,49.58,23 / 24,205438,2019-11-08 10:00:43:049,0.1543,-0.5217,9.8742,-0.0011,-0.0011,9.8066,-0.0047,0.0091,-0.0026,-24.06,-43.0,37.81,340.59,-84.94,-165.45
