,GPS LATITUDE (degrees), GPS LONGITUDE (degrees), GPS ALTITUDE (m), GPS SPEED (Kmh), GPS ACCURACY (m), GPS ORIENTATION (Â°),GPS SATELLITES IN RANGE, TIME SINCE START (ms), DATE (YYYY-MO-DD HH-MI-SS_SSS), ACCELEROMETER X (m/s²) , ACCELEROMETER Y (m/s²), ACCELEROMETER Z (m/s²), GRAVITY X (m/s²), GRAVITY Y (m/s²), GRAVITY Z (m/s²), GYROSCOPE Yaw (rad/s), GYROSCOPE Pitch (rad/s), GYROSCOPE Roll (rad/s), MAGNETIC FIELD X (Î¼T), MAGNETIC FIELD Y (Î¼T), MAGNETIC FIELD Z (Î¼T), ORIENTATION (Yaw) (Â°), ORIENTATION (Pitch) (Â°), ORIENTATION (Roll ) (Â°)
32931,51.522,-2.629238,98,2.14,9,239.6,14 / 22,3293123,2019-08-16 13:44:06:903,0.013,-0.1539,9.5497,-0.0038,-0.0103,9.8066,-0.0288,0.0452,0.0005,-3.21,29.75,-2.22,263.66,8.93,0.71
32932,51.522,-2.629238,98,2.14,9,239.6,14 / 22,3293223,2019-08-16 13:44:07:003,0.026,0.0698,9.8487,0.0021,-0.0051,9.8066,-0.0288,0.0452,0.0005,-3.73,29.69,-2.18,261.8,8.87,0.72
32933,51.522,-2.629238,98,2.14,9,239.6,14 / 22,3293323,2019-08-16 13:44:07:103,0.1691,0.096,9.7592,0.0122,-0.0125,9.8066,-0.0096,0.0165,0.0037,-4.35,29.47,-3.56,260.94,8.81,0.64
32934,51.522,-2.629238,98,2.14,9,239.6,14 / 22,3293422,2019-08-16 13:44:07:202,0.0671,-0.1523,9.5815,0.0048,-0.011,9.8066,0.0128,0.008,-0.0059,-4.35,29.47,-3.56,260.94,8.81,0.64
32935,51.522,-2.629238,98,2.14,9,239.6,14 / 22,3293523,2019-08-16 13:44:07:303,-0.1194,0.2395,10.1277,0.0048,-0.024,9.8066,-0.0192,0.0388,0.0016,-4.51,29.43,-3.69,259.07,8.68,0.59
32936,51.522,-2.629238,98,2.14,9,239.6,14 / 22,3293623,2019-08-16 13:44:07:403,-0.1609,-0.0631,9.8936,-0.0022,0.0035,9.8066,0.0117,0.0016,-0.0016,-3.33,29.67,-2.91,263.4,8.7,0.62
32937,51.522,-2.629238,98,2.14,9,239.6,14 / 22,3293723,2019-08-16 13:44:07:503,-0.2683,-0.3115,9.9175,-0.0042,-0.0051,9.8066,0.0042,0.0154,-0.0112,-3.33,29.67,-2.91,263.4,8.7,0.62
32938,51.52199,-2.629267,98,2.29,9,239.6,14 / 22,3293823,2019-08-16 13:44:07:603,0.0362,-0.1021,9.2252,0.0039,-0.0112,9.8066,-0.0266,0.0356,-0.0037,-3.92,29.51,-3.7,263.4,8.7,0.62
32939,51.52199,-2.629267,98,2.29,9,239.6,14 / 22,3293922,2019-08-16 13:44:07:702,0.2657,0.0764,9.916,0.008,0.0036,9.8066,0.0074,0.0175,0.0005,-3.77,29.56,-3.46,261.55,8.63,0.59
32940,51.52199,-2.629267,98,2.29,9,239.6,14 / 22,3294023,2019-08-16 13:44:07:803,-0.0937,-0.1182,9.4651,-0.0051,-0.0065,9.8066,0.0138,-0.0123,-0.0005,-4.19,29.51,-3.43,261.56,8.66,0.55
32941,51.52199,-2.629267,98,2.29,9,239.6,14 / 22,3294123,2019-08-16 13:44:07:903,0.1433,0.092,9.7607,-0.0007,-0.0108,9.8066,0.0138,-0.0123,-0.0005,-4.84,29.48,-2.73,259.38,8.6,0.54
32942,51.52199,-2.629267,98,2.29,9,239.6,14 / 22,3294224,2019-08-16 13:44:08:004,0.2072,0.054,10.0321,-0.0045,0.001,9.8066,-0.0021,-0.0251,-0.0005,-4.29,29.61,-2.17,259.38,8.6,0.54
32943,51.52199,-2.629267,98,2.29,9,239.6,14 / 22,3294323,2019-08-16 13:44:08:103,-0.081,0.1577,9.6866,-0.0175,-0.0015,9.8066,0.0064,0.0069,-0.0037,-4.29,29.61,-2.17,259.38,8.6,0.54
32944,51.52199,-2.629267,98,2.29,9,239.6,14 / 22,3294423,2019-08-16 13:44:08:203,0.0975,0.1012,9.7571,-0.002,0.0064,9.8066,0.0117,0.0154,-0.0165,-4.91,29.4,-3.44,259.36,8.57,0.64
32945,51.52199,-2.629267,98,2.29,9,239.6,14 / 22,3294523,2019-08-16 13:44:08:303,-0.2144,0.183,10.2667,0.0032,0.0048,9.8066,0.0053,0.0037,-0.0048,-5.0,29.37,-3.51,259.07,8.6,0.63
32946,51.52199,-2.629267,98,2.29,9,239.6,14 / 22,3294623,2019-08-16 13:44:08:403,-0.0382,-0.0742,9.6155,0.0053,-0.0012,9.8066,-0.0128,-0.0091,0.0016,-3.85,29.54,-3.53,261.27,8.6,0.59
32947,51.52199,-2.629267,98,2.29,9,239.6,14 / 22,3294724,2019-08-16 13:44:08:504,0.0717,0.0284,9.971,0.0192,0.0133,9.8066,-0.0128,-0.0091,0.0016,-3.85,29.54,-3.53,261.27,8.6,0.59
32948,51.521976,-2.629295,98,2.16,9,239.5,14 / 22,3294822,2019-08-16 13:44:08:602,-0.0616,-0.0074,9.6329,-0.0028,0.0029,9.8066,-0.0096,0.0293,0.0026,-4.41,29.38,-4.19,260.98,8.69,0.49
32949,51.521976,-2.629295,98,2.16,9,239.5,14 / 22,3294922,2019-08-16 13:44:08:702,-0.1109,0.2105,9.9894,-0.0019,-0.0029,9.8066,0.0128,-0.0176,-0.0059,-4.28,29.57,-2.74,261.56,8.71,0.51
32950,51.521976,-2.629295,98,2.16,9,239.5,14 / 22,3295023,2019-08-16 13:44:08:803,0.0859,0.25,9.9631,-0.0028,0.0026,9.8066,-0.0096,-0.0176,-0.0037,-5.49,29.41,-2.19,259.66,8.72,0.53
32951,51.521976,-2.629295,98,2.16,9,239.5,14 / 22,3295123,2019-08-16 13:44:08:903,0.1068,-0.0357,9.7029,0.0068,-0.0012,9.8066,-0.0117,0.0101,0.0048,-4.83,29.54,-2.06,259.66,8.72,0.53
32952,51.521976,-2.629295,98,2.16,9,239.5,14 / 22,3295223,2019-08-16 13:44:09:003,-0.1783,0.1437,10.1383,0.0169,0.0019,9.8066,0.0053,-0.0112,0.0016,-4.83,29.54,-2.06,259.66,8.72,0.53
32953,51.521976,-2.629295,98,2.16,9,239.5,14 / 22,3295323,2019-08-16 13:44:09:103,0.119,0.2123,9.7275,0.0184,0.0073,9.8066,0.0,-0.0059,0.0005,-5.49,29.45,-1.52,259.68,8.78,0.43
32954,51.521976,-2.629295,98,2.16,9,239.5,14 / 22,3295423,2019-08-16 13:44:09:203,-0.014,0.0825,10.2855,0.0043,-0.0002,9.8066,0.0053,0.0005,-0.0016,-4.44,29.53,-2.84,259.68,8.78,0.43
32955,51.521976,-2.629295,98,2.16,9,239.5,14 / 22,3295523,2019-08-16 13:44:09:303,-0.0453,-0.1944,9.4263,-0.0018,0.005,9.8066,0.0149,-0.0283,-0.008,-4.83,29.4,-3.48,259.38,8.81,0.45
32956,51.521976,-2.629295,98,2.16,9,239.5,14 / 22,3295623,2019-08-16 13:44:09:403,-0.1363,0.2382,9.7375,-0.0084,0.013,9.8066,0.0149,-0.0283,-0.008,-4.26,29.42,-4.05,259.38,8.81,0.45
32957,51.521976,-2.629295,98,2.16,9,239.5,14 / 22,3295723,2019-08-16 13:44:09:503,-0.1219,-0.1479,10.0763,-0.0107,0.0126,9.8066,-0.0064,-0.0112,0.009,-4.26,29.42,-4.05,259.38,8.81,0.45
32958,51.52197,-2.629323,99,2.43,9,239.4,14 / 22,3295823,2019-08-16 13:44:09:603,0.1037,-0.1005,9.7478,0.0035,-0.0004,9.8066,0.0021,0.0133,-0.0016,-4.25,29.31,-4.79,260.66,8.87,0.52
32959,51.52197,-2.629323,99,2.43,9,239.4,14 / 22,3295922,2019-08-16 13:44:09:702,0.1967,-0.2184,9.3052,-0.0006,-0.0036,9.8067,0.0106,-0.0134,-0.0059,-3.86,29.53,-3.64,261.25,8.87,0.5
32960,51.52197,-2.629323,99,2.43,9,239.4,14 / 22,3296023,2019-08-16 13:44:09:803,0.1059,-0.0713,10.0139,-0.0074,0.001,9.8066,0.0053,-0.0166,0.0037,-3.86,29.53,-3.64,261.25,8.87,0.5
32961,51.52197,-2.629323,99,2.43,9,239.4,14 / 22,3296122,2019-08-16 13:44:09:902,0.0291,0.0911,9.9443,-0.0052,-0.0035,9.8066,0.0085,-0.0006,-0.0005,-4.34,29.38,-4.22,260.95,8.87,0.55
32962,51.52197,-2.629323,99,2.43,9,239.4,14 / 22,3296223,2019-08-16 13:44:10:003,-0.08,-0.0319,9.7002,-0.0141,-0.0059,9.8066,-0.0085,0.0207,-0.0005,-4.42,29.36,-4.3,260.94,8.82,0.62
32963,51.52197,-2.629323,99,2.43,9,239.4,14 / 22,3296323,2019-08-16 13:44:10:103,-0.1537,-0.0201,9.8509,-0.0022,-0.006,9.8066,-0.0064,-0.0166,0.0037,-4.42,29.36,-4.3,260.94,8.82,0.62
32964,51.52197,-2.629323,99,2.43,9,239.4,14 / 22,3296423,2019-08-16 13:44:10:203,0.1038,-0.1695,9.6436,0.0072,-0.0079,9.8066,0.0074,-0.0389,-0.0069,-4.83,29.39,-3.58,259.05,8.79,0.63
32965,51.52197,-2.629323,99,2.43,9,239.4,14 / 22,3296523,2019-08-16 13:44:10:303,0.1763,-0.1466,9.7814,0.0081,0.0075,9.8066,0.0074,-0.0389,-0.0069,-4.74,29.41,-3.51,259.07,8.8,0.54
32966,51.52197,-2.629323,99,2.43,9,239.4,14 / 22,3296623,2019-08-16 13:44:10:403,0.106,0.092,9.9317,0.0043,-0.0002,9.8067,0.0042,-0.0048,-0.0016,-4.18,29.41,-4.16,260.96,8.85,0.5
32967,51.52197,-2.629323,99,2.43,9,239.4,14 / 22,3296724,2019-08-16 13:44:10:504,0.0137,-0.3647,9.6499,0.0019,-0.0006,9.8067,-0.0011,0.0356,0.0037,-4.17,29.32,-4.8,260.67,8.85,0.49
32968,51.521954,-2.629355,100,2.49,9,239.4,14 / 22,3296823,2019-08-16 13:44:10:603,-0.1985,0.0546,9.8252,-0.0046,0.0007,9.8067,-0.0043,0.0079,-0.0016,-4.17,29.32,-4.8,260.67,8.85,0.49
32969,51.521954,-2.629355,100,2.49,9,239.4,14 / 22,3296924,2019-08-16 13:44:10:704,-0.1457,0.1773,10.3847,-0.0015,-0.0031,9.8067,0.0042,0.0037,-0.0048,-4.84,29.45,-3.01,259.36,8.84,0.51
32970,51.521954,-2.629355,100,2.49,9,239.4,14 / 22,3297023,2019-08-16 13:44:10:803,0.0346,-0.0083,9.661,-0.0019,0.0074,9.8066,-0.0032,0.0378,-0.0005,-3.79,29.6,-3.09,259.36,8.84,0.51
32971,51.521954,-2.629355,100,2.49,9,239.4,14 / 22,3297123,2019-08-16 13:44:10:903,0.0266,0.1639,9.6093,-0.0022,0.0203,9.8066,-0.0021,0.0218,0.0027,-4.35,29.46,-3.65,260.94,8.96,0.55
32972,51.521954,-2.629355,100,2.49,9,239.4,14 / 22,3297223,2019-08-16 13:44:11:003,-0.1574,0.3541,9.9314,-0.0006,0.0065,9.8066,0.0042,-0.0198,0.0016,-4.35,29.46,-3.65,260.94,8.96,0.55
32973,51.521954,-2.629355,100,2.49,9,239.4,14 / 22,3297323,2019-08-16 13:44:11:103,0.0054,-0.0428,10.1427,0.0042,0.0341,9.8066,0.0021,0.0016,0.0058,-3.13,29.69,-2.93,263.37,9.16,0.56
32974,51.521954,-2.629355,100,2.49,9,239.4,14 / 22,3297423,2019-08-16 13:44:11:203,0.2143,0.3644,9.5799,0.0075,0.0325,9.8066,0.0021,0.0016,0.0058,-3.52,29.66,-2.78,261.5,9.35,0.53
32975,51.521954,-2.629355,100,2.49,9,239.4,14 / 22,3297523,2019-08-16 13:44:11:303,0.049,0.4233,9.8251,0.0183,0.0362,9.8066,-0.0117,-0.0016,-0.0005,-3.52,29.66,-2.78,261.5,9.35,0.53
32976,51.521954,-2.629355,100,2.49,9,239.4,14 / 22,3297623,2019-08-16 13:44:11:403,0.2155,0.3406,9.7202,0.0266,0.0583,9.8064,-0.0096,0.0069,0.0005,-3.65,29.64,-2.88,261.5,9.35,0.53
32977,51.521954,-2.629355,100,2.49,9,239.4,14 / 22,3297724,2019-08-16 13:44:11:504,-0.0358,0.5264,9.9685,0.0324,0.0906,9.8062,-0.0032,0.0346,0.0069,-4.04,29.53,-3.4,261.47,9.9,0.42
32978,51.52194,-2.629387,100,2.47,9,239.4,14 / 22,3297823,2019-08-16 13:44:11:603,0.0194,0.2881,9.9573,0.0107,0.0432,9.8066,-0.0053,0.0303,0.008,-4.58,29.52,-2.77,261.47,9.9,0.42
32979,51.52194,-2.629387,100,2.47,9,239.4,14 / 22,3297923,2019-08-16 13:44:11:703,-0.0696,0.512,10.1319,0.0099,0.0632,9.8064,0.0032,-0.0176,-0.008,-4.58,29.52,-2.77,261.47,9.9,0.42
32980,51.52194,-2.629387,100,2.47,9,239.4,14 / 22,3298023,2019-08-16 13:44:11:803,-0.0118,0.0336,9.5201,0.0028,0.0247,9.8066,0.0085,-0.0038,-0.0048,-4.11,29.45,-4.0,260.81,10.28,0.42
32981,51.52194,-2.629387,100,2.47,9,239.4,14 / 22,3298122,2019-08-16 13:44:11:902,0.0388,0.1111,9.5809,0.0039,0.0236,9.8066,0.0085,-0.0038,-0.0048,-3.51,29.6,-3.4,261.43,10.42,0.43
32982,51.52194,-2.629387,100,2.47,9,239.4,14 / 22,3298223,2019-08-16 13:44:12:003,0.0476,0.4004,9.9944,0.0108,0.0337,9.8066,-0.0128,-0.0016,0.0027,-3.51,29.6,-3.4,261.43,10.42,0.43
32983,51.52194,-2.629387,100,2.47,9,239.4,14 / 22,3298323,2019-08-16 13:44:12:103,0.0229,0.0743,9.9924,-0.001,0.0191,9.8066,0.0256,-0.0475,-0.0069,-4.04,29.53,-3.4,261.42,10.63,0.39
32984,51.52194,-2.629387,100,2.47,9,239.4,14 / 22,3298423,2019-08-16 13:44:12:203,-0.0584,0.1941,9.9171,-0.0002,0.0288,9.8066,-0.0011,0.0516,-0.0037,-3.95,29.39,-4.55,261.42,10.63,0.39
32985,51.52194,-2.629387,100,2.47,9,239.4,14 / 22,3298523,2019-08-16 13:44:12:303,0.0836,-0.0338,10.0153,0.0005,0.0403,9.8066,-0.0107,0.0378,0.0027,-4.9,29.26,-4.45,258.86,10.86,0.43
32986,51.52194,-2.629387,100,2.47,9,239.4,14 / 22,3298623,2019-08-16 13:44:12:403,0.0527,-0.61,9.2716,-0.0006,-0.0174,9.8066,-0.0011,-0.0411,-0.0016,-5.53,29.36,-2.7,257.37,10.76,0.41
32987,51.52194,-2.629387,100,2.47,9,239.4,14 / 22,3298723,2019-08-16 13:44:12:503,-0.1261,-0.3276,9.7183,-0.0049,-0.0262,9.8066,0.0288,-0.0368,-0.0037,-5.02,29.45,-2.71,257.37,10.76,0.41
32988,51.521923,-2.629417,100,2.25,9,239.4,13 / 21,3298824,2019-08-16 13:44:12:604,0.0973,-0.2758,9.6987,-0.012,-0.0583,9.8065,-0.0011,0.0601,-0.0016,-5.02,29.45,-2.71,257.37,10.76,0.41
32989,51.521923,-2.629417,100,2.25,9,239.4,13 / 21,3298923,2019-08-16 13:44:12:703,-0.0306,-0.3378,9.5515,-0.01,-0.0113,9.8066,-0.0021,0.0069,0.0016,-5.43,29.33,-3.17,259.26,10.41,0.4
32990,51.521923,-2.629417,100,2.25,9,239.4,13 / 21,3299023,2019-08-16 13:44:12:803,-0.0353,-0.2429,9.854,-0.0132,-0.0218,9.8066,-0.0021,0.0069,0.0016,-6.63,29.07,-3.34,255.55,10.27,0.46
32991,51.521923,-2.629417,100,2.25,9,239.4,13 / 21,3299124,2019-08-16 13:44:12:904,-0.0703,-0.2683,9.7405,-0.0002,-0.0125,9.8066,-0.0064,-0.0038,0.0016,-4.98,29.25,-4.44,255.55,10.27,0.46
32992,51.521923,-2.629417,100,2.25,9,239.4,13 / 21,3299224,2019-08-16 13:44:13:004,-0.066,-0.3199,9.6947,-0.001,-0.0238,9.8066,-0.0021,0.0271,-0.0037,-6.22,29.08,-3.95,257.07,10.14,0.43
32993,51.521923,-2.629417,100,2.25,9,239.4,13 / 21,3299324,2019-08-16 13:44:13:104,-0.2235,-0.0085,10.363,-0.0046,-0.0206,9.8066,0.0043,0.0452,-0.0027,-6.22,29.08,-3.95,257.07,10.14,0.43
32994,51.521923,-2.629417,100,2.25,9,239.4,13 / 21,3299422,2019-08-16 13:44:13:202,-0.0127,-0.2781,9.6781,-0.0104,-0.0263,9.8066,0.0085,-0.0432,-0.0069,-6.2,29.0,-4.56,257.07,10.14,0.43
32995,51.521923,-2.629417,100,2.25,9,239.4,13 / 21,3299523,2019-08-16 13:44:13:303,-0.0623,-0.1806,9.6495,-0.0017,-0.0003,9.8066,0.0043,-0.0123,-0.0069,-6.51,29.04,-3.8,255.25,9.97,0.45
32996,51.521923,-2.629417,100,2.25,9,239.4,13 / 21,3299623,2019-08-16 13:44:13:403,-0.124,-0.1126,10.0124,-0.0036,-0.0094,9.8066,0.0,0.0431,-0.0027,-6.89,28.96,-3.72,255.25,9.91,0.46
32997,51.521923,-2.629417,100,2.25,9,239.4,13 / 21,3299724,2019-08-16 13:44:13:504,0.1166,-0.0727,10.1269,-0.0048,-0.0188,9.8066,0.0053,-0.0261,0.0048,-6.89,28.96,-3.72,255.25,9.91,0.46
32998,51.52191,-2.629446,100,2.26,9,239.3,14 / 22,3299822,2019-08-16 13:44:13:602,-0.1577,-0.2485,9.7204,-0.0046,-0.0072,9.8066,0.0053,-0.0261,0.0048,-7.42,28.88,-3.26,255.58,9.8,0.46
32999,51.52191,-2.629446,100,2.26,9,239.3,14 / 22,3299923,2019-08-16 13:44:13:703,-0.027,-0.275,9.6374,-0.0057,-0.0077,9.8066,-0.0128,0.0474,0.0005,-7.92,28.81,-2.65,253.77,9.75,0.47
33000,51.52191,-2.629446,100,2.26,9,239.3,14 / 22,3300023,2019-08-16 13:44:13:803,0.0533,-0.0488,9.4075,-0.0115,-0.0043,9.8066,0.0064,-0.0219,0.0048,-7.92,28.81,-2.65,253.77,9.75,0.47
33001,51.52191,-2.629446,100,2.26,9,239.3,14 / 22,3300123,2019-08-16 13:44:13:903,-0.0798,0.172,9.9188,0.0065,0.0102,9.8066,-0.0064,0.0207,0.0005,-7.39,28.73,-4.45,255.26,9.71,0.53
33002,51.52191,-2.629446,100,2.26,9,239.3,14 / 22,3300223,2019-08-16 13:44:14:003,-0.0894,0.3349,9.9016,0.0129,0.0228,9.8066,0.0011,0.0154,-0.008,-7.87,28.62,-4.34,255.26,9.71,0.53
33003,51.52191,-2.629446,100,2.26,9,239.3,14 / 22,3300322,2019-08-16 13:44:14:102,0.16,0.1693,9.9216,0.0062,0.0128,9.8066,0.0011,-0.0176,-0.0048,-7.51,28.7,-4.44,253.45,9.86,0.49
33004,51.52191,-2.629446,100,2.26,9,239.3,14 / 22,3300423,2019-08-16 13:44:14:203,0.1082,0.2344,9.6902,0.0151,0.0281,9.8066,0.0011,-0.0176,-0.0048,-7.64,28.66,-4.51,253.12,10.04,0.46
33005,51.52191,-2.629446,100,2.26,9,239.3,14 / 22,3300523,2019-08-16 13:44:14:303,0.1319,0.3069,9.8431,0.0053,0.0148,9.8066,-0.0064,0.0154,0.009,-7.64,28.66,-4.51,253.12,10.04,0.46
33006,51.52191,-2.629446,100,2.26,9,239.3,14 / 22,3300623,2019-08-16 13:44:14:403,-0.0898,0.4366,10.3018,0.0124,0.0426,9.8065,-0.0053,0.0069,-0.0005,-7.64,28.66,-4.51,253.12,10.04,0.46
33007,51.52191,-2.629446,100,2.26,9,239.3,14 / 22,3300723,2019-08-16 13:44:14:503,-0.0145,0.185,9.7961,0.014,0.0635,9.8064,0.0096,-0.0208,-0.0005,-8.11,28.43,-5.09,252.5,10.42,0.49
33008,51.521896,-2.629474,101,2.19,9,239.2,15 / 22,3300822,2019-08-16 13:44:14:602,0.11,0.0294,9.967,0.0045,0.0248,9.8066,0.0032,0.0229,-0.0005,-9.6,28.16,-3.82,249.22,10.56,0.5
33009,51.521896,-2.629474,101,2.19,9,239.2,15 / 22,3300923,2019-08-16 13:44:14:703,0.1159,0.3749,9.8205,0.0194,0.0341,9.8066,0.0011,-0.0091,-0.0005,-8.67,28.54,-3.25,249.22,10.56,0.5
33010,51.521896,-2.629474,101,2.19,9,239.2,15 / 22,3301023,2019-08-16 13:44:14:803,0.253,0.1654,9.7179,0.0099,0.0188,9.8066,-0.0139,-0.0006,0.0048,-8.97,28.43,-3.37,251.34,10.97,0.46
33011,51.521896,-2.629474,101,2.19,9,239.2,15 / 22,3301123,2019-08-16 13:44:14:903,0.1602,0.1127,9.4492,0.0253,0.0466,9.8065,-0.0139,-0.0006,0.0048,-8.97,28.43,-3.37,251.34,10.97,0.46
33012,51.521896,-2.629474,101,2.19,9,239.2,15 / 22,3301223,2019-08-16 13:44:15:003,0.0631,0.2263,9.8469,0.0036,0.0191,9.8066,0.0138,0.0015,-0.0027,-8.77,28.33,-4.54,250.61,11.27,0.41
33013,51.521896,-2.629474,101,2.19,9,239.2,15 / 22,3301323,2019-08-16 13:44:15:103,0.0631,0.2835,9.8059,0.0054,0.0245,9.8066,0.0021,-0.0155,0.0069,-8.92,28.27,-4.62,250.59,11.38,0.43
33014,51.521896,-2.629474,101,2.19,9,239.2,15 / 22,3301424,2019-08-16 13:44:15:204,0.1394,0.4081,9.7398,0.0165,0.0526,9.8065,0.0042,-0.0251,-0.0027,-8.53,28.26,-5.36,250.56,11.7,0.44
33015,51.521896,-2.629474,101,2.19,9,239.2,15 / 22,3301524,2019-08-16 13:44:15:304,0.2214,0.531,10.1287,0.0127,0.0329,9.8066,-0.0021,-0.0155,-0.0027,-8.53,28.26,-5.36,250.56,11.7,0.44
33016,51.521896,-2.629474,101,2.19,9,239.2,15 / 22,3301623,2019-08-16 13:44:15:403,0.2141,0.2438,9.6929,0.0277,0.0702,9.8064,-0.0021,0.0207,-0.0048,-8.17,28.47,-4.73,252.31,12.15,0.42
33017,51.521896,-2.629474,101,2.19,9,239.2,15 / 22,3301723,2019-08-16 13:44:15:503,0.1748,0.1919,10.0673,0.0132,0.0223,9.8066,0.0074,-0.0187,-0.0059,-8.67,28.22,-5.35,252.31,12.15,0.42
33018,51.521885,-2.629499,102,1.78,9,239.0,14 / 22,3301823,2019-08-16 13:44:15:603,0.3391,0.4052,9.5908,0.0221,0.052,9.8065,-0.0085,0.025,0.0037,-8.67,28.22,-5.35,252.31,12.15,0.42
33019,51.521885,-2.629499,102,1.78,9,239.0,14 / 22,3301923,2019-08-16 13:44:15:703,0.0599,0.3406,10.0094,0.0243,0.0683,9.8064,0.0,-0.0166,0.0005,-8.32,28.4,-4.91,252.29,12.47,0.39
33020,51.521885,-2.629499,102,1.78,9,239.0,14 / 22,3302023,2019-08-16 13:44:15:803,0.0918,0.3322,9.9284,0.0149,0.0324,9.8066,0.0,-0.0166,0.0005,-9.4,28.18,-4.2,250.86,12.9,0.38
33021,51.521885,-2.629499,102,1.78,9,239.0,14 / 22,3302123,2019-08-16 13:44:15:903,0.1564,0.1469,9.8687,0.0284,0.0743,9.8063,0.0106,-0.0453,-0.0016,-9.4,28.18,-4.2,250.86,12.9,0.38
33022,51.521885,-2.629499,102,1.78,9,239.0,14 / 22,3302223,2019-08-16 13:44:16:003,0.1363,0.1956,9.5702,0.0129,0.0327,9.8066,0.0064,-0.0166,0.0016,-9.1,28.44,-2.94,251.26,13.36,0.36
33023,51.521885,-2.629499,102,1.78,9,239.0,14 / 22,3302324,2019-08-16 13:44:16:104,-0.0075,0.1712,9.9691,0.0176,0.0584,9.8065,0.0032,0.025,0.0005,-8.19,28.45,-4.84,251.26,13.36,0.36
33024,51.521885,-2.629499,102,1.78,9,239.0,14 / 22,3302423,2019-08-16 13:44:16:203,0.0694,-0.2685,9.8252,-0.0001,-0.0011,9.8067,-0.0032,-0.0038,0.0005,-9.05,28.28,-4.3,250.81,13.72,0.37
33025,51.521885,-2.629499,102,1.78,9,239.0,14 / 22,3302524,2019-08-16 13:44:16:304,-0.0138,-0.3675,10.0905,-0.0095,-0.0231,9.8066,-0.0107,0.025,0.0016,-8.63,28.27,-5.1,250.39,13.57,0.38
33026,51.521885,-2.629499,102,1.78,9,239.0,14 / 22,3302623,2019-08-16 13:44:16:403,-0.2311,-0.2759,10.1273,-0.0029,-0.0131,9.8066,0.0,0.0452,0.0016,-8.63,28.27,-5.1,250.39,13.57,0.38
33027,51.521885,-2.629499,102,1.78,9,239.0,14 / 22,3302723,2019-08-16 13:44:16:503,-0.0475,-0.0179,10.2389,-0.0006,-0.007,9.8066,0.0085,-0.0411,-0.0016,-8.33,28.34,-5.22,252.18,13.5,0.37
33028,51.521877,-2.629516,102,1.36,9,238.9,14 / 22,3302822,2019-08-16 13:44:16:602,-0.127,-0.3601,9.7511,-0.0067,-0.0197,9.8066,0.0085,-0.0411,-0.0016,-8.26,28.1,-6.5,251.33,13.37,0.37
33029,51.521877,-2.629516,102,1.36,9,238.9,14 / 22,3302923,2019-08-16 13:44:16:703,-0.0464,-0.4637,9.4003,-0.0035,-0.0091,9.8066,-0.0139,0.0346,0.0026,-8.26,28.1,-6.5,251.33,13.37,0.37
33030,51.521877,-2.629516,102,1.36,9,238.9,14 / 22,3303022,2019-08-16 13:44:16:802,-0.0301,-0.1134,10.0114,-0.0046,-0.0247,9.8066,0.0074,-0.0155,-0.0048,-7.69,28.27,-6.44,251.78,13.26,0.37
33031,51.521877,-2.629516,102,1.36,9,238.9,14 / 22,3303124,2019-08-16 13:44:16:904,-0.0643,-0.2426,9.8408,-0.0096,-0.0418,9.8066,0.0032,-0.0006,-0.0037,-8.32,28.4,-4.91,252.24,13.01,0.35
33032,51.521877,-2.629516,102,1.36,9,238.9,14 / 22,3303223,2019-08-16 13:44:17:003,-0.0747,-0.4432,9.7283,-0.0041,-0.0168,9.8066,0.0032,-0.007,-0.0005,-8.32,28.4,-4.91,252.24,13.01,0.35
33033,51.521877,-2.629516,102,1.36,9,238.9,14 / 22,3303324,2019-08-16 13:44:17:104,-0.0481,-0.4381,9.4533,-0.0064,-0.0083,9.8066,-0.0011,-0.0208,0.0016,-8.53,28.53,-3.65,251.48,12.91,0.34
33034,51.521877,-2.629516,102,1.36,9,238.9,14 / 22,3303423,2019-08-16 13:44:17:203,-0.2102,0.0734,10.1092,-0.014,-0.0248,9.8066,-0.0011,0.0388,-0.0016,-8.23,28.61,-3.74,253.24,12.75,0.37
33035,51.521877,-2.629516,102,1.36,9,238.9,14 / 22,3303523,2019-08-16 13:44:17:303,-0.084,-0.3288,9.3121,-0.0086,-0.0206,9.8066,-0.0032,0.0314,-0.0005,-8.23,28.61,-3.74,253.24,12.75,0.37
33036,51.521877,-2.629516,102,1.36,9,238.9,14 / 22,3303622,2019-08-16 13:44:17:402,-0.1776,-0.2609,10.1274,-0.0046,-0.0215,9.8066,-0.0032,0.0314,-0.0005,-8.39,28.56,-3.71,253.24,12.62,0.38
33037,51.521877,-2.629516,102,1.36,9,238.9,14 / 22,3303723,2019-08-16 13:44:17:503,-0.0862,-0.1894,9.7998,-0.0109,-0.0409,9.8066,0.0021,-0.0357,0.0016,-7.04,28.72,-5.08,254.65,12.37,0.38
33038,51.52187,-2.629527,102,0.68,9,239.0,14 / 22,3303823,2019-08-16 13:44:17:603,-0.041,0.1802,10.035,-0.0012,-0.0028,9.8066,0.0106,-0.007,-0.0037,-7.04,28.72,-5.08,254.65,12.37,0.38
33039,51.52187,-2.629527,102,0.68,9,239.0,14 / 22,3303923,2019-08-16 13:44:17:703,-0.0504,0.1567,10.2774,0.0034,0.0082,9.8066,0.0021,0.0058,-0.0005,-7.2,28.76,-4.57,254.65,12.36,0.38
33040,51.52187,-2.629527,102,0.68,9,239.0,14 / 22,3304024,2019-08-16 13:44:17:804,0.0445,-0.0775,9.5805,0.0023,0.0068,9.8066,-0.0053,-0.0187,0.0027,-7.1,28.99,-3.07,255.45,12.41,0.37
33041,51.52187,-2.629527,102,0.68,9,239.0,14 / 22,3304123,2019-08-16 13:44:17:903,0.0064,-0.051,9.8315,0.0049,0.0048,9.8066,-0.0032,0.0346,0.0005,-6.11,28.88,-5.33,256.45,12.49,0.36
33042,51.52187,-2.629527,102,0.68,9,239.0,14 / 22,3304222,2019-08-16 13:44:18:002,0.057,-0.2606,9.9948,0.0061,0.0114,9.8066,0.0011,0.0335,0.0037,-6.11,28.88,-5.33,256.45,12.49,0.36
33043,51.52187,-2.629527,102,0.68,9,239.0,14 / 22,3304322,2019-08-16 13:44:18:102,0.0309,0.1341,9.6976,0.0025,0.0154,9.8066,0.0011,0.0335,0.0037,-8.02,28.48,-4.93,252.29,12.56,0.34
33044,51.52187,-2.629527,102,0.68,9,239.0,14 / 22,3304423,2019-08-16 13:44:18:203,-0.1659,-0.6752,9.8988,-0.0002,0.0115,9.8066,0.0096,-0.0379,-0.0048,-7.68,28.85,-2.95,253.65,12.62,0.37
33045,51.52187,-2.629527,102,0.68,9,239.0,14 / 22,3304522,2019-08-16 13:44:18:302,-0.2731,-0.8813,9.689,-0.0168,-0.0544,9.8065,-0.0085,0.0463,0.0037,-7.68,28.85,-2.95,253.65,12.62,0.37
33046,51.52187,-2.629527,102,0.68,9,239.0,14 / 22,3304623,2019-08-16 13:44:18:403,-0.2537,-0.46,9.9119,-0.0154,-0.0509,9.8065,0.0,-0.0166,-0.0005,-8.42,28.64,-2.99,253.66,12.29,0.37
33047,51.52187,-2.629527,102,0.68,9,239.0,14 / 22,3304723,2019-08-16 13:44:18:503,-0.1561,-0.3661,9.6074,-0.0222,-0.0846,9.8063,0.0085,0.0015,0.0005,-7.81,28.71,-3.83,253.66,12.29,0.37
33048,51.52187,-2.629527,102,0.68,9,239.0,14 / 22,3304823,2019-08-16 13:44:18:603,-0.0919,-0.2815,10.1235,-0.0248,-0.0928,9.8062,0.0021,-0.0144,0.0016,-7.51,28.81,-3.68,253.32,11.73,0.36
33049,51.52187,-2.629527,102,0.68,9,239.0,14 / 22,3304924,2019-08-16 13:44:18:704,-0.1139,-0.5125,9.5687,-0.0045,-0.0187,9.8066,0.0042,-0.0017,-0.0027,-7.51,28.81,-3.68,253.32,11.73,0.36
33050,51.52187,-2.629527,102,0.68,9,239.0,14 / 22,3305023,2019-08-16 13:44:18:803,-0.2689,-0.3617,10.0045,-0.0134,-0.0319,9.8066,0.0096,-0.0017,-0.0059,-7.61,28.58,-5.05,252.99,11.34,0.37
33051,51.52187,-2.629527,102,0.68,9,239.0,14 / 22,3305122,2019-08-16 13:44:18:902,-0.1358,-0.1136,9.8879,-0.0046,-0.0217,9.8066,0.0096,-0.0017,-0.0059,-7.79,28.63,-4.44,253.36,11.14,0.39
33052,51.52187,-2.629527,102,0.68,9,239.0,14 / 22,3305223,2019-08-16 13:44:19:003,-0.0631,-0.4307,9.9009,-0.0082,-0.0319,9.8066,-0.0075,0.0154,0.0048,-7.35,28.71,-4.66,254.82,10.95,0.38
33053,51.52187,-2.629527,102,0.68,9,239.0,14 / 22,3305323,2019-08-16 13:44:19:103,-0.168,0.0163,10.1121,-0.0063,-0.0131,9.8066,0.0074,-0.0155,-0.0016,-7.35,28.71,-4.66,254.82,10.95,0.38
33054,51.52187,-2.629527,102,0.68,9,239.0,14 / 22,3305423,2019-08-16 13:44:19:203,-0.0322,-0.2505,9.5855,-0.0083,-0.0242,9.8066,0.0053,-0.0123,-0.0016,-7.94,28.56,-4.64,253.03,10.87,0.39
33055,51.52187,-2.629527,102,0.68,9,239.0,14 / 22,3305523,2019-08-16 13:44:19:303,-0.0761,-0.2282,9.6708,-0.0144,-0.0411,9.8066,-0.0128,0.0143,0.0069,-7.79,28.63,-4.44,253.4,10.61,0.41
33056,51.52187,-2.629527,102,0.68,9,239.0,14 / 22,3305623,2019-08-16 13:44:19:403,0.0703,-0.1751,9.9437,-0.0004,-0.0175,9.8066,0.0011,-0.0112,0.0026,-7.79,28.63,-4.44,253.4,10.61,0.41
33057,51.52187,-2.629527,102,0.68,9,239.0,14 / 22,3305722,2019-08-16 13:44:19:502,0.0774,-0.2389,9.5399,-0.006,-0.0194,9.8066,0.0096,0.0218,-0.008,-7.66,28.77,-3.66,253.41,10.51,0.38
33058,51.521873,-2.629517,102,0.0,9,239.0,14 / 22,3305823,2019-08-16 13:44:19:603,-0.0701,0.0449,9.9682,-0.0148,-0.0309,9.8066,-0.0107,0.0196,0.0016,-6.93,28.3,7.16,253.41,10.51,0.38
33059,51.521873,-2.629517,102,0.0,9,239.0,14 / 22,3305923,2019-08-16 13:44:19:703,0.0044,-0.0961,9.7206,-0.0026,-0.0113,9.8066,-0.0107,0.0196,0.0016,-8.74,28.61,-2.31,252.3,10.22,0.41
33060,51.521873,-2.629517,102,0.0,9,239.0,14 / 22,3306023,2019-08-16 13:44:19:803,-0.0437,0.0494,10.012,-0.0047,-0.0184,9.8066,0.0074,-0.0059,-0.0016,-8.74,28.61,-2.31,252.3,10.22,0.41
33061,51.521873,-2.629517,102,0.0,9,239.0,14 / 22,3306123,2019-08-16 13:44:19:903,-0.178,-0.2251,9.766,-0.0081,-0.0191,9.8066,-0.0053,-0.0155,0.0037,-8.25,28.69,-2.93,253.77,10.11,0.4
33062,51.521873,-2.629517,102,0.0,9,239.0,14 / 22,3306223,2019-08-16 13:44:20:003,-0.1756,-0.0721,10.0408,-0.0077,-0.0186,9.8066,0.0149,-0.0166,-0.0048,-8.07,28.67,-3.57,253.45,9.99,0.42
33063,51.521873,-2.629517,102,0.0,9,239.0,14 / 22,3306322,2019-08-16 13:44:20:102,0.0345,-0.2372,10.047,-0.013,-0.0467,9.8065,-0.0128,0.0346,0.008,-8.45,28.74,-1.65,254.1,9.7,0.41
33064,51.521873,-2.629517,102,0.0,9,239.0,14 / 22,3306423,2019-08-16 13:44:20:203,0.0319,0.2958,10.2645,-0.0016,-0.0021,9.8067,-0.0043,0.0186,0.0048,-8.45,28.74,-1.65,254.1,9.7,0.41
33065,51.521873,-2.629517,102,0.0,9,239.0,14 / 22,3306524,2019-08-16 13:44:20:304,-0.0613,0.0784,10.0143,0.0008,-0.0008,9.8067,0.0096,-0.0304,-0.0059,-8.94,28.64,0.44,252.93,9.69,0.42
33066,51.521873,-2.629517,102,0.0,9,239.0,14 / 22,3306623,2019-08-16 13:44:20:403,-0.1043,0.009,9.9755,0.0,-0.0141,9.8066,-0.0043,0.0335,-0.0016,-8.56,28.5,-3.78,251.71,9.61,0.39
33067,51.521873,-2.629517,102,0.0,9,239.0,14 / 22,3306723,2019-08-16 13:44:20:503,-0.018,-0.3759,9.4401,-0.0026,-0.0105,9.8066,-0.0128,0.0399,0.0058,-8.56,28.5,-3.78,251.71,9.61,0.39
33068,51.521873,-2.629517,102,0.0,9,239.0,14 / 22,3306823,2019-08-16 13:44:20:603,-0.0887,0.0585,9.8717,-0.0039,0.0001,9.8066,-0.0128,0.0399,0.0058,-7.26,28.35,-6.6,253.87,9.47,0.38
33069,51.521873,-2.629517,102,0.0,9,239.0,14 / 22,3306922,2019-08-16 13:44:20:702,0.0235,0.036,10.0311,-0.006,0.0096,9.8066,0.0074,-0.0251,-0.0006,-7.58,28.47,-5.64,253.87,9.47,0.38
33070,51.521873,-2.629517,102,0.0,9,239.0,14 / 22,3307024,2019-08-16 13:44:20:804,0.0216,-0.0287,9.5045,-0.0057,0.0012,9.8066,0.0011,0.0101,-0.0016,-8.33,28.36,-5.12,252.63,9.47,0.41
33071,51.521873,-2.629517,102,0.0,9,239.0,14 / 22,3307123,2019-08-16 13:44:20:903,0.0914,-0.1064,9.9508,0.0005,-0.0082,9.8066,-0.016,0.0378,0.0058,-8.33,28.36,-5.12,252.63,9.47,0.41
33072,51.521873,-2.629517,102,0.0,9,239.0,14 / 22,3307223,2019-08-16 13:44:21:003,0.1793,-0.0566,9.3365,-0.0034,-0.0123,9.8066,0.0128,-0.0017,-0.0048,-8.47,28.18,-5.83,252.33,9.42,0.39
33073,51.521873,-2.629517,102,0.0,9,239.0,14 / 22,3307324,2019-08-16 13:44:21:104,-0.0812,0.1752,10.0565,-0.004,-0.0005,9.8066,0.0043,0.0122,-0.0006,-8.15,28.32,-5.61,252.34,9.35,0.39
33074,51.521873,-2.629517,102,0.0,9,239.0,14 / 22,3307423,2019-08-16 13:44:21:203,0.0744,-0.092,9.5766,-0.0055,-0.0043,9.8066,-0.0149,0.0346,0.0058,-8.15,28.32,-5.61,252.34,9.35,0.39
33075,51.521873,-2.629517,102,0.0,9,239.0,14 / 22,3307523,2019-08-16 13:44:21:303,-0.0408,0.0935,9.9235,-0.0014,-0.0084,9.8066,0.0085,-0.0059,-0.0059,-8.26,28.12,-6.41,252.34,9.31,0.41
33076,51.521873,-2.629517,102,0.0,9,239.0,14 / 22,3307623,2019-08-16 13:44:21:403,-0.0007,-0.1321,9.806,-0.0022,-0.0054,9.8066,0.0085,-0.0059,-0.0059,-6.66,28.49,-6.63,253.89,9.28,0.42
33077,51.521873,-2.629517,102,0.0,9,239.0,14 / 22,3307723,2019-08-16 13:44:21:503,0.0205,-0.0101,9.6304,0.0008,-0.001,9.8066,0.0032,0.0069,-0.0027,-8.0,28.13,-6.7,253.89,9.28,0.42
33078,51.521873,-2.629517,102,0.0,9,239.0,14 / 22,3307823,2019-08-16 13:44:21:603,-0.0195,0.245,10.0459,-0.001,-0.0077,9.8066,-0.0043,-0.0219,0.0037,-7.84,28.2,-6.57,252.06,9.23,0.41
33079,51.521873,-2.629517,102,0.0,9,239.0,14 / 22,3307923,2019-08-16 13:44:21:703,-0.026,-0.2127,9.5543,-0.0014,-0.0014,9.8067,-0.0075,0.0441,0.0016,-7.84,28.2,-6.57,252.06,9.23,0.41
33080,51.521873,-2.629517,102,0.0,9,239.0,14 / 22,3308023,2019-08-16 13:44:21:803,-0.0473,0.0376,10.0482,0.0009,-0.0084,9.8066,-0.0021,0.0239,0.0016,-7.56,28.21,-6.87,252.06,9.21,0.41
33081,51.521873,-2.629517,102,0.0,9,239.0,14 / 22,3308123,2019-08-16 13:44:21:903,0.0448,-0.0787,9.5815,-0.0016,0.0016,9.8067,-0.0043,-0.0144,0.008,-7.15,28.56,-5.78,254.75,9.16,0.39
33082,51.521873,-2.629517,102,0.0,9,239.0,14 / 22,3308223,2019-08-16 13:44:22:003,-0.0625,0.2434,9.916,-0.0029,0.0026,9.8066,0.017,-0.0304,-0.0048,-7.15,28.56,-5.78,254.75,9.16,0.39
33083,51.521873,-2.629517,102,0.0,9,239.0,14 / 22,3308322,2019-08-16 13:44:22:102,0.0193,0.2258,9.9391,-0.0012,-0.0068,9.8066,-0.0053,0.0378,0.0016,-8.81,28.24,-5.0,250.84,9.17,0.41
33084,51.521873,-2.629517,102,0.0,9,239.0,14 / 22,3308423,2019-08-16 13:44:22:203,0.0896,-0.0766,9.4583,0.0002,-0.0065,9.8066,-0.0053,0.0378,0.0016,-7.18,28.67,-5.18,255.04,9.13,0.4
33085,51.521873,-2.629517,102,0.0,9,239.0,14 / 22,3308523,2019-08-16 13:44:22:303,-0.0087,0.0258,9.739,0.0001,-0.001,9.8067,0.0064,-0.0475,-0.0027,-7.18,28.67,-5.18,255.04,9.13,0.4
33086,51.521873,-2.629517,102,0.0,9,239.0,14 / 22,3308623,2019-08-16 13:44:22:403,0.0403,-0.0792,9.9542,-0.0022,-0.0009,9.8067,-0.0128,0.0388,0.0069,-8.3,28.25,-5.72,252.38,9.13,0.4
33087,51.521873,-2.629517,102,0.0,9,239.0,14 / 22,3308723,2019-08-16 13:44:22:503,-0.0066,0.3576,10.1433,-0.001,0.003,9.8067,-0.0021,0.0228,0.0016,-8.73,27.98,-6.37,252.38,9.13,0.4
33088,51.521873,-2.629517,102,0.0,9,239.0,14 / 22,3308823,2019-08-16 13:44:22:603,0.0681,0.1087,10.0801,-0.001,-0.0023,9.8067,0.0096,-0.0123,-0.0037,-7.21,28.19,-7.3,253.93,9.11,0.4
33089,51.521873,-2.629517,102,0.0,9,239.0,14 / 22,3308923,2019-08-16 13:44:22:703,0.0766,0.0439,9.9181,-0.0004,0.0045,9.8066,-0.0085,0.0335,0.0037,-7.44,28.43,-6.02,254.24,9.11,0.4
33090,51.521873,-2.629517,102,0.0,9,239.0,14 / 22,3309023,2019-08-16 13:44:22:803,-0.0305,0.1053,9.8184,-0.0019,0.0006,9.8066,0.0,-0.0112,-0.0016,-7.44,28.43,-6.02,254.24,9.11,0.4
33091,51.521873,-2.629517,102,0.0,9,239.0,14 / 22,3309123,2019-08-16 13:44:22:903,-0.0709,0.1896,10.2169,-0.001,0.0008,9.8067,0.0,-0.0112,-0.0016,-8.0,28.13,-6.7,252.08,9.11,0.41
33092,51.521873,-2.629517,102,0.0,9,239.0,14 / 22,3309223,2019-08-16 13:44:23:003,-0.0344,-0.0927,9.5491,-0.0003,-0.0004,9.8067,-0.0011,0.0346,-0.0006,-8.0,28.13,-6.7,252.08,9.11,0.41
33093,51.521873,-2.629517,102,0.0,9,239.0,14 / 22,3309322,2019-08-16 13:44:23:102,-0.118,0.0151,9.9757,-0.0001,-0.0051,9.8066,-0.0064,-0.0123,0.0016,-8.0,28.13,-6.7,252.08,9.1,0.41
33094,51.521873,-2.629517,102,0.0,9,239.0,14 / 22,3309423,2019-08-16 13:44:23:203,-0.0984,0.0187,10.1722,-0.0008,0.0005,9.8066,-0.0011,0.0079,0.0005,-8.5,28.29,-5.22,252.67,9.11,0.42
33095,51.521873,-2.629517,102,0.0,9,239.0,14 / 22,3309523,2019-08-16 13:44:23:303,-0.0603,-0.075,9.4778,0.0017,-0.0033,9.8066,0.0032,0.026,-0.0037,-8.5,28.29,-5.22,252.67,9.11,0.42
33096,51.521873,-2.629517,102,0.0,9,239.0,14 / 22,3309623,2019-08-16 13:44:23:403,-0.0199,0.1544,9.972,0.0005,0.0023,9.8066,0.0,-0.0326,0.0026,-8.08,28.39,-5.36,252.68,9.09,0.4
33097,51.521873,-2.629517,102,0.0,9,239.0,14 / 22,3309723,2019-08-16 13:44:23:503,-0.005,-0.0541,9.6492,0.0004,0.0034,9.8066,0.0053,-0.0176,-0.0016,-8.11,28.51,-4.63,253.24,9.11,0.41
33098,51.521873,-2.629517,102,0.0,9,239.0,14 / 22,3309823,2019-08-16 13:44:23:603,0.1098,0.0826,10.1038,-0.0013,-0.002,9.8067,-0.0011,0.0484,0.0016,-8.11,28.51,-4.63,253.24,9.11,0.41
33099,51.521873,-2.629517,102,0.0,9,239.0,14 / 22,3309923,2019-08-16 13:44:23:703,0.1748,0.0257,9.4797,-0.0015,0.0056,9.8066,-0.0011,0.0484,0.0016,-7.18,28.67,-5.18,255.05,9.1,0.41
33100,51.521873,-2.629517,102,0.0,9,239.0,14 / 22,3310023,2019-08-16 13:44:23:803,-0.0233,0.2137,9.9835,-0.0011,0.0007,9.8066,-0.0075,0.0015,0.0037,-6.91,28.78,-4.88,255.05,9.1,0.41
33101,51.521873,-2.629517,102,0.0,9,239.0,14 / 22,3310123,2019-08-16 13:44:23:903,0.1451,-0.0305,9.7446,-0.0011,0.0006,9.8067,0.0,-0.0027,-0.0006,-5.46,28.89,-5.98,258.45,9.1,0.42
33102,51.521873,-2.629517,102,0.0,9,239.0,14 / 22,3310222,2019-08-16 13:44:24:002,-0.0144,0.0481,9.7478,0.0001,0.0009,9.8066,0.0032,0.0335,0.0005,-6.11,28.9,-5.23,256.88,9.1,0.42
33103,51.521873,-2.629517,102,0.0,9,239.0,14 / 22,3310323,2019-08-16 13:44:24:103,-0.0911,0.2461,10.2442,0.0001,-0.0012,9.8067,-0.0139,0.0303,0.0069,-6.11,28.9,-5.23,256.88,9.1,0.42
33104,51.521873,-2.629517,102,0.0,9,239.0,14 / 22,3310424,2019-08-16 13:44:24:204,0.0848,-0.1599,9.5977,-0.0004,0.0074,9.8066,-0.0021,0.0058,0.0016,-6.56,28.69,-5.81,254.75,9.1,0.42
33105,51.521873,-2.629517,102,0.0,9,239.0,14 / 22,3310523,2019-08-16 13:44:24:303,-0.0258,-0.1511,9.9692,-0.0009,0.0104,9.8066,0.0106,0.0026,-0.0069,-7.01,28.61,-5.67,254.74,9.16,0.44
33106,51.521873,-2.629517,102,0.0,9,239.0,14 / 22,3310623,2019-08-16 13:44:24:403,0.0152,-0.0418,9.4865,-0.0001,-0.0054,9.8066,0.0106,0.0026,-0.0069,-7.01,28.61,-5.67,254.74,9.16,0.44
33107,51.521873,-2.629517,102,0.0,9,239.0,14 / 22,3310722,2019-08-16 13:44:24:502,0.0375,-0.0876,9.9947,-0.0005,-0.0059,9.8066,0.0,-0.0102,0.0048,-8.05,28.6,-4.15,253.52,9.12,0.43
33108,51.521873,-2.629517,102,0.0,9,239.0,14 / 22,3310823,2019-08-16 13:44:24:603,0.0408,-0.185,9.3865,0.0011,0.001,9.8066,0.0,-0.0112,0.0005,-7.61,28.59,-4.95,253.23,9.13,0.43
33109,51.521873,-2.629517,102,0.0,9,239.0,14 / 22,3310923,2019-08-16 13:44:24:703,0.0342,0.2183,9.9454,0.0019,-0.0014,9.8067,0.0032,0.0282,0.0005,-7.61,28.59,-4.95,253.23,9.13,0.43
33110,51.521873,-2.629517,102,0.0,9,239.0,14 / 22,3311023,2019-08-16 13:44:24:803,0.0539,0.0752,9.8606,0.0007,0.0082,9.8066,0.0,-0.0027,0.0058,-7.99,28.39,-5.51,252.37,9.12,0.41
33111,51.521873,-2.629517,102,0.0,9,239.0,14 / 22,3311123,2019-08-16 13:44:24:903,-0.0654,0.1832,9.8222,0.0012,0.0023,9.8067,-0.0011,-0.0081,0.0005,-8.11,28.21,-6.19,252.37,9.14,0.41
33112,51.521873,-2.629517,102,0.0,9,239.0,14 / 22,3311223,2019-08-16 13:44:25:003,-0.0161,0.1121,10.1475,-0.0009,0.0012,9.8067,0.0011,0.0346,-0.0006,-8.11,28.21,-6.19,252.37,9.14,0.41
33113,51.521873,-2.629517,102,0.0,9,239.0,14 / 22,3311323,2019-08-16 13:44:25:103,-0.0057,0.1594,10.2617,0.0005,0.0045,9.8067,-0.0085,0.0196,0.0048,-7.55,28.36,-6.22,252.37,9.14,0.41
33114,51.521873,-2.629517,102,0.0,9,239.0,14 / 22,3311422,2019-08-16 13:44:25:202,-0.0156,-0.0027,9.6251,-0.001,-0.004,9.8067,0.0011,-0.007,0.0005,-8.0,28.13,-6.7,252.07,9.16,0.42
33115,51.521873,-2.629517,102,0.0,9,239.0,14 / 22,3311523,2019-08-16 13:44:25:303,-0.133,0.2229,9.978,-0.0019,0.0007,9.8067,0.0011,-0.007,0.0005,-6.72,28.77,-5.21,255.03,9.16,0.43
33116,51.521873,-2.629517,102,0.0,9,239.0,14 / 22,3311623,2019-08-16 13:44:25:403,-0.0138,-0.1177,9.9306,0.0025,-0.0022,9.8067,0.0043,0.0186,-0.0016,-6.72,28.77,-5.21,255.03,9.16,0.43
33117,51.521873,-2.629517,102,0.0,9,239.0,14 / 22,3311723,2019-08-16 13:44:25:503,-0.094,-0.0888,9.7628,-0.0011,-0.0024,9.8066,0.0,-0.0283,0.0016,-8.01,28.15,-6.6,252.07,9.16,0.41
33118,51.521873,-2.629517,102,0.0,9,239.0,14 / 22,3311823,2019-08-16 13:44:25:603,-0.1193,0.0843,10.1444,0.0002,0.0012,9.8067,-0.0053,0.0186,0.0026,-7.81,28.07,-7.16,252.07,9.16,0.41
33119,51.521873,-2.629517,102,0.0,9,239.0,14 / 22,3311924,2019-08-16 13:44:25:704,0.0609,-0.214,9.4402,-0.0016,0.0014,9.8067,-0.0043,0.0452,0.0016,-8.27,28.14,-6.31,252.36,9.17,0.42
33120,51.521873,-2.629517,102,0.0,9,239.0,14 / 22,3312024,2019-08-16 13:44:25:804,0.0575,-0.0795,9.5083,0.0018,-0.001,9.8066,-0.0085,0.0069,0.0058,-7.73,28.41,-5.75,252.36,9.17,0.42
33121,51.521873,-2.629517,102,0.0,9,239.0,14 / 22,3312123,2019-08-16 13:44:25:903,0.0119,0.0878,9.8822,0.0026,0.0024,9.8066,0.0011,-0.008,0.0005,-7.73,28.41,-5.75,252.36,9.17,0.42
33122,51.521873,-2.629517,102,0.0,9,239.0,14 / 22,3312223,2019-08-16 13:44:26:003,0.1528,-0.1112,9.8661,0.0026,0.0031,9.8066,0.0011,-0.008,0.0005,-7.79,28.64,-4.34,253.52,9.19,0.41
33123,51.521873,-2.629517,102,0.0,9,239.0,14 / 22,3312324,2019-08-16 13:44:26:104,0.1541,-0.1473,9.432,-0.0007,0.001,9.8067,-0.0043,0.0196,0.0026,-8.42,28.04,-6.53,252.06,9.21,0.4
33124,51.521873,-2.629517,102,0.0,9,239.0,14 / 22,3312423,2019-08-16 13:44:26:203,0.0801,0.2376,10.0333,0.0004,-0.0012,9.8067,0.0074,-0.0283,0.0005,-8.42,28.04,-6.53,252.06,9.21,0.4
33125,51.521873,-2.629517,102,0.0,9,239.0,14 / 22,3312523,2019-08-16 13:44:26:303,0.0846,0.0525,9.8865,0.0002,0.0014,9.8067,-0.0032,-0.0091,0.0005,-7.69,28.27,-6.44,252.36,9.2,0.4
33126,51.521873,-2.629517,102,0.0,9,239.0,14 / 22,3312623,2019-08-16 13:44:26:403,-0.0274,0.0644,9.8384,-0.0011,-0.0015,9.8067,0.0096,0.0143,-0.0037,-7.26,28.37,-6.5,253.91,9.21,0.4
33127,51.521873,-2.629517,102,0.0,9,239.0,14 / 22,3312727,2019-08-16 13:44:26:507,-0.0588,0.0289,10.1313,-0.0023,-0.0029,9.8067,0.0032,-0.023,0.0005,-7.26,28.37,-6.5,253.91,9.21,0.4
33128,51.521873,-2.629517,102,0.0,9,239.0,14 / 22,3312823,2019-08-16 13:44:26:603,0.0435,-0.1792,9.4341,0.0006,0.005,9.8066,-0.0096,0.0228,0.0037,-6.92,28.39,-6.78,253.91,9.19,0.41
33129,51.521873,-2.629517,102,0.0,9,239.0,14 / 22,3312923,2019-08-16 13:44:26:703,0.0493,-0.0231,9.9249,0.0025,0.0016,9.8067,-0.0053,0.042,0.0005,-7.89,27.83,-7.97,251.76,9.2,0.4
33130,51.521873,-2.629517,102,0.0,9,239.0,14 / 22,3313022,2019-08-16 13:44:26:802,0.0875,-0.1505,9.4694,-0.001,0.0027,9.8066,-0.0053,0.042,0.0005,-7.89,27.83,-7.97,251.76,9.2,0.4
33131,51.521873,-2.629517,102,0.0,9,239.0,14 / 22,3313123,2019-08-16 13:44:26:903,-0.0127,-0.1689,9.8096,0.0005,0.0,9.8066,0.016,-0.0368,-0.0037,-7.26,28.35,-6.6,253.91,9.2,0.4
33132,51.521873,-2.629517,102,0.0,9,239.0,14 / 22,3313223,2019-08-16 13:44:27:003,-0.0624,-0.0222,9.6834,-0.0005,0.0,9.8067,-0.0117,0.0367,0.0069,-8.03,28.5,-4.83,252.67,9.2,0.4
33133,51.521873,-2.629517,102,0.0,9,239.0,14 / 22,3313323,2019-08-16 13:44:27:103,0.0486,0.1677,10.0639,-0.0003,0.0067,9.8067,0.0011,-0.0357,-0.0016,-7.64,28.68,-4.36,252.67,9.2,0.4
33134,51.521873,-2.629517,102,0.0,9,239.0,14 / 22,3313422,2019-08-16 13:44:27:202,-0.0033,-0.0593,9.722,0.0002,0.0059,9.8067,0.0117,-0.0017,-0.0048,-7.64,28.68,-4.36,252.67,9.2,0.4
33135,51.521873,-2.629517,102,0.0,9,239.0,14 / 22,3313523,2019-08-16 13:44:27:303,-0.1137,0.0244,9.7966,-0.0014,0.0001,9.8066,-0.0096,0.0303,0.0026,-8.26,28.12,-6.41,252.36,9.24,0.41
33136,51.521873,-2.629517,102,0.0,9,239.0,14 / 22,3313623,2019-08-16 13:44:27:403,0.069,-0.1484,9.8475,-0.0008,-0.004,9.8066,-0.0096,0.0505,0.0069,-7.88,28.34,-5.86,252.36,9.23,0.42
33137,51.521873,-2.629517,102,0.0,9,239.0,14 / 22,3313723,2019-08-16 13:44:27:503,0.0764,-0.1793,9.3298,-0.0007,0.0027,9.8067,0.0011,-0.0208,0.0037,-7.26,28.37,-6.5,252.36,9.23,0.42
33138,51.521873,-2.629517,102,0.0,9,239.0,14 / 22,3313824,2019-08-16 13:44:27:604,0.0209,0.2955,9.9457,0.0001,0.0012,9.8067,0.0011,-0.0208,0.0037,-7.26,28.37,-6.5,252.36,9.23,0.42
33139,51.521873,-2.629517,102,0.0,9,239.0,14 / 22,3313923,2019-08-16 13:44:27:703,0.0397,0.1049,10.0206,0.0004,-0.0022,9.8067,-0.0043,0.0037,0.0005,-7.18,28.04,-7.88,253.59,9.24,0.42
33140,51.521873,-2.629517,102,0.0,9,239.0,14 / 22,3314023,2019-08-16 13:44:27:803,-0.0747,0.0532,9.8464,0.0014,0.0024,9.8066,-0.0043,0.0079,0.0048,-6.69,28.11,-8.05,253.59,9.26,0.41
33141,51.521873,-2.629517,102,0.0,9,239.0,14 / 22,3314123,2019-08-16 13:44:27:903,-0.0208,0.2091,10.0939,-0.0008,-0.0028,9.8066,0.0085,-0.0347,-0.0027,-6.69,28.11,-8.05,253.59,9.26,0.41
33142,51.521873,-2.629517,102,0.0,9,239.0,14 / 22,3314223,2019-08-16 13:44:28:003,-0.0467,-0.088,9.7202,-0.0005,0.0024,9.8067,-0.0075,0.0164,0.0058,-7.54,28.24,-6.75,252.05,9.27,0.42
33143,51.521873,-2.629517,102,0.0,9,239.0,14 / 22,3314323,2019-08-16 13:44:28:103,-0.2345,0.0183,9.9511,-0.0006,-0.0049,9.8067,-0.0021,0.0207,0.0026,-7.12,28.44,-6.37,254.2,9.29,0.43
33144,51.521873,-2.629517,102,0.0,9,239.0,14 / 22,3314424,2019-08-16 13:44:28:204,-0.0084,-0.1814,9.4877,0.0003,-0.0024,9.8067,0.0074,0.0058,-0.0027,-7.12,28.44,-6.37,254.2,9.29,0.43
33145,51.521873,-2.629517,102,0.0,9,239.0,14 / 22,3314523,2019-08-16 13:44:28:303,-0.0563,-0.0044,9.7825,-0.0006,-0.0018,9.8067,-0.0107,0.0164,0.0026,-7.7,28.29,-6.34,252.35,9.28,0.42
33146,51.521873,-2.629517,102,0.0,9,239.0,14 / 22,3314623,2019-08-16 13:44:28:403,0.1055,-0.2162,9.7043,-0.0013,-0.0009,9.8067,-0.0107,0.0164,0.0026,-7.98,28.16,-6.58,252.35,9.28,0.42
33147,51.521873,-2.629517,102,0.0,9,239.0,14 / 22,3314723,2019-08-16 13:44:28:503,0.0383,0.0217,9.7159,0.0002,0.0019,9.8067,0.0,0.0292,0.0026,-8.43,28.06,-6.43,252.35,9.29,0.42
33148,51.521873,-2.629517,102,0.0,9,239.0,14 / 22,3314823,2019-08-16 13:44:28:603,0.0498,0.1392,10.1139,-0.0004,-0.008,9.8066,0.0128,-0.0144,-0.0048,-7.55,28.36,-6.22,252.36,9.24,0.41
33149,51.521873,-2.629517,102,0.0,9,239.0,14 / 22,3314923,2019-08-16 13:44:28:703,0.1795,-0.1125,9.4236,-0.0002,0.0044,9.8066,-0.0075,0.0196,0.0026,-7.55,28.36,-6.22,252.36,9.24,0.41
33150,51.521873,-2.629517,102,0.0,9,239.0,14 / 22,3315023,2019-08-16 13:44:28:803,0.015,0.1769,9.8669,0.002,0.0047,9.8066,-0.0011,-0.0059,0.0016,-8.09,27.86,-7.66,251.75,9.27,0.41
33151,51.521873,-2.629517,102,0.0,9,239.0,14 / 22,3315123,2019-08-16 13:44:28:903,0.0829,-0.0833,9.8431,-0.0004,0.0008,9.8066,0.0074,0.0196,-0.0037,-7.22,28.21,-7.2,253.9,9.28,0.41
33152,51.521873,-2.629517,102,0.0,9,239.0,14 / 22,3315222,2019-08-16 13:44:29:002,-0.0331,0.0352,9.8744,0.0004,-0.0014,9.8067,0.0021,-0.0049,0.0016,-7.22,28.21,-7.2,253.9,9.28,0.41
33153,51.521873,-2.629517,102,0.0,9,239.0,14 / 22,3315323,2019-08-16 13:44:29:103,0.0435,-0.1297,9.4693,-0.0021,0.0034,9.8067,0.0021,-0.0049,0.0016,-7.34,28.15,-7.32,253.9,9.27,0.41
33154,51.521873,-2.629517,102,0.0,9,239.0,14 / 22,3315423,2019-08-16 13:44:29:203,-0.1084,-0.0347,9.7846,-0.0001,0.006,9.8066,0.0053,-0.0187,-0.0037,-6.69,28.11,-8.05,253.9,9.27,0.41
33155,51.521873,-2.629517,102,0.0,9,239.0,14 / 22,3315523,2019-08-16 13:44:29:303,-0.0447,-0.2103,10.0555,-0.0009,-0.0036,9.8066,-0.0064,0.0463,0.0005,-7.12,28.44,-6.37,254.2,9.3,0.42
33156,51.521873,-2.629517,102,0.0,9,239.0,14 / 22,3315623,2019-08-16 13:44:29:403,-0.0416,-0.1051,9.5062,-0.0007,0.0012,9.8067,-0.0043,0.0186,0.0069,-7.76,27.9,-7.84,251.73,9.31,0.43
33157,51.521873,-2.629517,102,0.0,9,239.0,14 / 22,3315723,2019-08-16 13:44:29:503,-0.0325,0.1802,9.978,0.0012,-0.004,9.8066,-0.0021,-0.0027,0.0058,-7.76,27.9,-7.84,251.73,9.31,0.43
33158,51.521873,-2.629517,102,0.0,9,239.0,14 / 22,3315823,2019-08-16 13:44:29:603,0.0578,-0.0372,9.737,-0.0007,0.0005,9.8067,0.0011,0.026,-0.0016,-7.73,28.41,-5.75,252.35,9.29,0.41
33159,51.521873,-2.629517,102,0.0,9,239.0,14 / 22,3315923,2019-08-16 13:44:29:703,-0.0034,0.017,9.7456,0.0007,0.0044,9.8066,-0.0139,0.0324,0.0058,-7.79,28.64,-4.34,253.51,9.31,0.42
33160,51.521873,-2.629517,102,0.0,9,239.0,14 / 22,3316023,2019-08-16 13:44:29:803,-0.0794,0.1414,10.1614,0.0006,-0.002,9.8067,0.0043,-0.0336,-0.0016,-7.79,28.64,-4.34,253.51,9.31,0.42
33161,51.521873,-2.629517,102,0.0,9,239.0,14 / 22,3316123,2019-08-16 13:44:29:903,-0.0479,0.0737,9.662,0.0005,-0.0006,9.8067,0.0043,-0.0336,-0.0016,-7.41,28.42,-6.11,254.2,9.32,0.42
33162,51.521873,-2.629517,102,0.0,9,239.0,14 / 22,3316223,2019-08-16 13:44:30:003,-0.0133,-0.1197,9.9428,-0.001,-0.0012,9.8066,0.0106,-0.0059,-0.0059,-7.07,28.84,-4.28,255.32,9.32,0.42
33163,51.521873,-2.629517,102,0.0,9,239.0,14 / 22,3316323,2019-08-16 13:44:30:103,-0.0062,-0.1967,9.5051,-0.0011,0.0055,9.8066,-0.0043,0.0047,0.0037,-7.07,28.84,-4.28,255.32,9.32,0.42
33164,51.521873,-2.629517,102,0.0,9,239.0,14 / 22,3316422,2019-08-16 13:44:30:202,-0.0535,0.0858,10.0373,0.0012,-0.0057,9.8066,0.0043,-0.0112,-0.0027,-5.84,28.86,-5.72,256.54,9.35,0.43
33165,51.521873,-2.629517,102,0.0,9,239.0,14 / 22,3316524,2019-08-16 13:44:30:304,0.1042,-0.1265,9.6028,0.0002,-0.0059,9.8066,-0.0032,0.0346,0.0016,-5.87,28.99,-5.02,256.85,9.31,0.42
33166,51.521873,-2.629517,102,0.0,9,239.0,14 / 22,3316623,2019-08-16 13:44:30:403,0.0387,-0.048,9.7554,0.0007,0.0016,9.8067,-0.0085,0.0154,0.0058,-5.87,28.99,-5.02,256.85,9.31,0.42
33167,51.521873,-2.629517,102,0.0,9,239.0,14 / 22,3316723,2019-08-16 13:44:30:503,0.091,-0.0573,9.9606,0.0008,-0.0037,9.8066,-0.0032,-0.0017,0.0037,-6.66,28.51,-6.53,254.41,9.32,0.42
33168,51.521873,-2.629517,102,0.0,9,239.0,14 / 22,3316823,2019-08-16 13:44:30:603,0.1012,-0.1596,9.5019,0.0011,0.0014,9.8067,0.0064,0.0271,0.0005,-6.95,28.35,-6.92,254.41,9.32,0.42
33169,51.521873,-2.629517,102,0.0,9,239.0,14 / 22,3316923,2019-08-16 13:44:30:703,-0.0135,0.2599,10.0098,0.0026,0.0002,9.8067,0.0064,0.0271,0.0005,-7.41,28.4,-6.2,254.2,9.33,0.41
33170,51.521873,-2.629517,102,0.0,9,239.0,14 / 22,3317022,2019-08-16 13:44:30:802,0.0395,0.02,10.0826,0.0003,0.0051,9.8066,0.0064,-0.023,0.0016,-6.6,28.64,-6.0,254.72,9.32,0.4
33171,51.521873,-2.629517,102,0.0,9,239.0,14 / 22,3317123,2019-08-16 13:44:30:903,-0.0821,0.0845,10.0207,0.0007,0.0022,9.8067,0.0021,0.009,-0.0027,-6.6,28.64,-6.0,254.72,9.32,0.4
33172,51.521873,-2.629517,102,0.0,9,239.0,14 / 22,3317223,2019-08-16 13:44:31:003,0.023,-0.2357,9.5686,-0.0019,0.0035,9.8066,-0.0085,0.041,0.0037,-8.29,28.31,-5.47,252.65,9.33,0.4
33173,51.521873,-2.629517,102,0.0,9,239.0,14 / 22,3317323,2019-08-16 13:44:31:103,-0.0383,-0.0361,9.6538,-0.0019,0.0061,9.8066,0.0128,-0.024,-0.0048,-8.29,28.31,-5.47,252.64,9.37,0.42
33174,51.521873,-2.629517,102,0.0,9,239.0,14 / 22,3317422,2019-08-16 13:44:31:202,-0.0178,-0.0386,10.1159,0.0001,-0.0051,9.8066,0.0021,-0.0049,-0.0027,-8.29,28.31,-5.47,252.64,9.37,0.42
33175,51.521873,-2.629517,102,0.0,9,239.0,14 / 22,3317523,2019-08-16 13:44:31:303,0.0746,-0.0259,9.4447,0.0004,-0.002,9.8066,-0.0053,0.0442,0.0016,-8.22,28.05,-6.76,252.03,9.35,0.42
33176,51.521873,-2.629517,102,0.0,9,239.0,14 / 22,3317623,2019-08-16 13:44:31:403,-0.0061,0.159,9.9067,0.0003,-0.0019,9.8067,0.0117,-0.0325,-0.0027,-8.22,28.05,-6.76,252.03,9.35,0.42
33177,51.521873,-2.629517,102,0.0,9,239.0,14 / 22,3317723,2019-08-16 13:44:31:503,0.0655,-0.017,9.7833,-0.0001,-0.0001,9.8067,0.0117,-0.0325,-0.0027,-7.54,28.32,-6.41,252.34,9.34,0.41
33178,51.521873,-2.629517,102,0.0,9,239.0,14 / 22,3317823,2019-08-16 13:44:31:603,-0.0576,0.0577,9.848,0.0003,0.005,9.8066,0.0085,-0.0347,-0.0037,-8.42,28.02,-6.63,252.03,9.37,0.42
33179,51.521873,-2.629517,102,0.0,9,239.0,14 / 22,3317923,2019-08-16 13:44:31:703,-0.0486,0.2618,10.3061,0.0002,-0.0016,9.8066,-0.0149,0.0452,0.0069,-8.42,28.02,-6.63,252.03,9.37,0.42
33180,51.521873,-2.629517,102,0.0,9,239.0,14 / 22,3318023,2019-08-16 13:44:31:803,-0.0177,0.1719,10.2274,0.0005,0.0028,9.8067,0.0117,-0.024,-0.008,-7.84,28.18,-6.67,252.03,9.36,0.42
33181,51.521873,-2.629517,102,0.0,9,239.0,14 / 22,3318123,2019-08-16 13:44:31:903,0.0056,0.034,9.5693,-0.0012,-0.0025,9.8067,0.0032,-0.0038,-0.0048,-8.89,27.88,-6.6,250.21,9.38,0.42
33182,51.521873,-2.629517,102,0.0,9,239.0,14 / 22,3318223,2019-08-16 13:44:32:003,-0.1081,0.1992,9.9637,-0.0016,0.001,9.8067,-0.0107,-0.0059,0.0058,-8.89,27.88,-6.6,250.21,9.38,0.42
33183,51.521873,-2.629517,102,0.0,9,239.0,14 / 22,3318323,2019-08-16 13:44:32:103,-0.0741,-0.1874,10.0256,0.0002,-0.0051,9.8066,0.0117,-0.0219,-0.0059,-8.14,28.29,-5.8,252.33,9.38,0.43
33184,51.521873,-2.629517,102,0.0,9,239.0,14 / 22,3318423,2019-08-16 13:44:32:203,-0.045,-0.2007,9.5233,0.0006,-0.0045,9.8066,0.0117,-0.0219,-0.0059,-8.6,28.15,-5.78,250.52,9.36,0.42
33185,51.521873,-2.629517,102,0.0,9,239.0,14 / 22,3318523,2019-08-16 13:44:32:303,-0.063,0.1064,9.9816,0.0011,0.0037,9.8067,-0.0011,0.0271,0.0005,-8.6,28.15,-5.78,250.52,9.36,0.42
33186,51.521873,-2.629517,102,0.0,9,239.0,14 / 22,3318623,2019-08-16 13:44:32:403,0.0896,-0.1986,9.7302,0.0012,-0.0014,9.8067,-0.0139,0.0015,0.008,-8.29,28.22,-5.92,252.34,9.35,0.41
33187,51.521873,-2.629517,102,0.0,9,239.0,14 / 22,3318723,2019-08-16 13:44:32:503,0.076,-0.0327,9.9899,0.0026,0.0034,9.8066,0.0128,-0.0283,-0.0037,-7.72,28.37,-5.95,252.34,9.35,0.41
33188,51.521873,-2.629517,102,0.0,9,239.0,14 / 22,3318823,2019-08-16 13:44:32:603,0.1402,-0.0501,9.5196,0.0002,-0.0011,9.8067,0.0011,0.0228,-0.0005,-8.73,27.96,-6.47,250.52,9.38,0.4
33189,51.521873,-2.629517,102,0.0,9,239.0,14 / 22,3318923,2019-08-16 13:44:32:703,-0.0183,0.2668,10.0263,-0.0008,0.0041,9.8066,-0.0011,-0.0379,0.0027,-7.25,28.33,-6.7,253.87,9.4,0.41
33190,51.521873,-2.629517,102,0.0,9,239.0,14 / 22,3319023,2019-08-16 13:44:32:803,0.0339,0.0138,10.0099,-0.0004,-0.0029,9.8066,-0.0053,0.0356,0.0016,-7.25,28.33,-6.7,253.87,9.4,0.41
33191,51.521873,-2.629517,102,0.0,9,239.0,14 / 22,3319123,2019-08-16 13:44:32:903,-0.0207,-0.0574,9.6544,-0.0014,-0.0003,9.8067,-0.0053,0.0356,0.0016,-7.95,27.94,-7.5,251.72,9.38,0.41
33192,51.521873,-2.629517,102,0.0,9,239.0,14 / 22,3319223,2019-08-16 13:44:33:003,-0.0534,0.0573,10.0337,0.0006,0.0016,9.8067,0.0043,-0.0102,0.0016,-7.4,28.26,-6.84,253.87,9.39,0.41
33193,51.521873,-2.629517,102,0.0,9,239.0,14 / 22,3319322,2019-08-16 13:44:33:102,0.063,-0.1507,9.5382,-0.0004,-0.0046,9.8066,0.0096,-0.0325,-0.0005,-7.4,28.26,-6.84,253.87,9.39,0.41
33194,51.521873,-2.629517,102,0.0,9,239.0,14 / 22,3319423,2019-08-16 13:44:33:203,-0.0537,0.0412,9.7613,-0.0009,-0.0006,9.8067,-0.0117,0.0282,0.0069,-7.03,28.07,-7.92,253.56,9.39,0.41
33195,51.521873,-2.629517,102,0.0,9,239.0,14 / 22,3319523,2019-08-16 13:44:33:303,-0.0035,-0.0562,10.0402,0.0009,-0.0013,9.8067,0.0,-0.0123,-0.0037,-7.03,28.07,-7.92,253.56,9.39,0.41
33196,51.521873,-2.629517,102,0.0,9,239.0,14 / 22,3319623,2019-08-16 13:44:33:403,0.0319,0.2087,9.8784,0.0018,0.0035,9.8067,0.0,0.0314,0.0016,-8.26,28.1,-6.5,252.03,9.38,0.41
33197,51.521873,-2.629517,102,0.0,9,239.0,14 / 22,3319723,2019-08-16 13:44:33:503,0.0565,0.023,9.8736,0.0001,-0.0029,9.8066,0.0,-0.0102,0.0037,-8.29,28.22,-5.92,252.33,9.4,0.4
33198,51.521873,-2.629517,102,0.0,9,239.0,14 / 22,3319822,2019-08-16 13:44:33:602,-0.0769,0.0546,9.839,-0.0019,-0.0008,9.8066,-0.0032,-0.0187,0.0016,-8.29,28.22,-5.92,252.33,9.4,0.4
33199,51.521873,-2.629517,102,0.0,9,239.0,14 / 22,3319923,2019-08-16 13:44:33:703,-0.0317,0.2376,10.1548,0.0009,0.0023,9.8066,-0.0032,-0.0187,0.0016,-8.29,28.22,-5.92,252.33,9.4,0.41
33200,51.521873,-2.629517,102,0.0,9,239.0,14 / 22,3320023,2019-08-16 13:44:33:803,0.0035,-0.0893,9.5692,0.0007,-0.0027,9.8067,0.0096,-0.0176,-0.0069,-7.65,28.1,-7.22,252.03,9.38,0.4
33201,51.521873,-2.629517,102,0.0,9,239.0,14 / 22,3320123,2019-08-16 13:44:33:903,-0.1325,0.1206,9.9782,-0.0009,0.0047,9.8066,-0.0064,0.0079,0.0048,-7.65,28.1,-7.22,252.03,9.38,0.4
33202,51.521873,-2.629517,102,0.0,9,239.0,14 / 22,3320223,2019-08-16 13:44:34:003,-0.0469,-0.0313,10.1549,0.0013,-0.0026,9.8067,0.0,-0.0017,-0.0016,-8.0,28.1,-6.8,252.02,9.41,0.42
33203,51.521873,-2.629517,102,0.0,9,239.0,14 / 22,3320323,2019-08-16 13:44:34:103,-0.0439,-0.099,9.587,-0.0002,-0.0042,9.8067,0.0032,0.0292,-0.0016,-8.15,28.0,-7.04,252.02,9.41,0.42
33204,51.521873,-2.629517,102,0.0,9,239.0,14 / 22,3320423,2019-08-16 13:44:34:203,-0.0402,-0.0034,9.8774,0.0007,-0.0021,9.8067,-0.0117,0.0292,0.0069,-7.4,28.26,-6.84,253.87,9.4,0.41
33205,51.521873,-2.629517,102,0.0,9,239.0,14 / 22,3320523,2019-08-16 13:44:34:303,-0.0263,-0.067,9.8117,-0.0004,0.0045,9.8067,0.0043,-0.0219,0.0016,-6.61,28.3,-7.43,253.88,9.37,0.4
33206,51.521873,-2.629517,102,0.0,9,239.0,14 / 22,3320623,2019-08-16 13:44:34:403,0.0378,0.0386,10.0979,0.0019,0.0036,9.8067,0.0043,-0.0219,0.0016,-6.61,28.3,-7.43,253.88,9.37,0.4
33207,51.521873,-2.629517,102,0.0,9,239.0,14 / 22,3320723,2019-08-16 13:44:34:503,0.1111,-0.1072,9.4473,-0.0008,-0.0035,9.8067,-0.0021,0.0452,-0.0005,-7.72,28.37,-5.95,252.34,9.4,0.39
33208,51.521873,-2.629517,102,0.0,9,239.0,14 / 22,3320822,2019-08-16 13:44:34:602,0.0081,0.1807,9.8444,0.0002,0.0021,9.8067,-0.0043,-0.0038,0.0037,-7.14,28.52,-5.98,254.7,9.41,0.39
33209,51.521873,-2.629517,102,0.0,9,239.0,14 / 22,3320922,2019-08-16 13:44:34:702,0.0379,-0.0207,10.0345,0.0011,-0.0021,9.8067,-0.0053,0.0037,-0.0027,-7.76,28.52,-5.15,254.7,9.41,0.39
33210,51.521873,-2.629517,102,0.0,9,239.0,14 / 22,3321022,2019-08-16 13:44:34:802,-0.0087,-0.0442,9.5901,-0.0004,-0.0019,9.8067,-0.0043,0.0133,0.0027,-8.46,28.16,-5.93,252.34,9.4,0.39
33211,51.521873,-2.629517,102,0.0,9,239.0,14 / 22,3321123,2019-08-16 13:44:34:903,-0.0905,0.1717,10.0864,-0.0001,0.0032,9.8067,0.0075,0.0122,-0.0037,-8.36,28.45,-4.52,252.34,9.4,0.39
33212,51.521873,-2.629517,102,0.0,9,239.0,14 / 22,3321223,2019-08-16 13:44:35:003,0.0025,-0.2327,9.6945,0.0,-0.0035,9.8067,-0.0011,-0.0048,0.0016,-8.36,28.45,-4.52,252.34,9.4,0.39
33213,51.521873,-2.629517,102,0.0,9,239.0,14 / 22,3321323,2019-08-16 13:44:35:103,-0.0237,-0.1556,9.6356,-0.001,-0.0019,9.8067,-0.0011,-0.0048,0.0016,-7.29,28.48,-6.0,254.19,9.39,0.4
33214,51.521873,-2.629517,102,0.0,9,239.0,14 / 22,3321423,2019-08-16 13:44:35:203,0.0515,-0.0221,9.5741,0.0002,-0.0001,9.8067,0.0021,-0.024,-0.0005,-6.86,28.7,-5.42,254.19,9.39,0.4
33215,51.521873,-2.629517,102,0.0,9,239.0,14 / 22,3321522,2019-08-16 13:44:35:302,0.0044,0.2558,9.869,-0.0002,0.0044,9.8066,0.0064,0.0026,-0.0037,-6.82,28.56,-6.15,254.71,9.39,0.39
33216,51.521873,-2.629517,102,0.0,9,239.0,14 / 22,3321623,2019-08-16 13:44:35:403,0.052,-0.0259,10.0827,0.001,0.0008,9.8067,-0.0107,0.0239,0.0005,-6.82,28.56,-6.15,254.71,9.39,0.39
33217,51.521873,-2.629517,102,0.0,9,239.0,14 / 22,3321723,2019-08-16 13:44:35:503,-0.0296,0.0148,9.6414,-0.0017,0.003,9.8066,0.0021,-0.0208,0.0037,-6.52,28.53,-6.6,254.41,9.39,0.39
33218,51.521873,-2.629517,102,0.0,9,239.0,14 / 22,3321824,2019-08-16 13:44:35:604,-0.0949,0.2653,10.1425,-0.0012,0.0061,9.8066,0.0117,-0.0283,-0.0059,-7.11,28.4,-6.57,253.87,9.42,0.41
33219,51.521873,-2.629517,102,0.0,9,239.0,14 / 22,3321923,2019-08-16 13:44:35:703,-0.0102,-0.0329,9.7288,-0.0006,-0.0061,9.8066,-0.0043,0.0101,-0.0027,-7.11,28.4,-6.57,253.87,9.42,0.41
33220,51.521873,-2.629517,102,0.0,9,239.0,14 / 22,3322023,2019-08-16 13:44:35:803,-0.1764,-0.0066,9.8858,-0.0014,0.0023,9.8067,-0.0011,0.009,0.0048,-7.04,28.72,-5.08,255.01,9.39,0.4
33221,51.521873,-2.629517,102,0.0,9,239.0,14 / 22,3322123,2019-08-16 13:44:35:903,-0.0138,-0.131,9.9922,0.0003,0.0004,9.8067,-0.0011,0.009,0.0048,-7.61,28.58,-5.05,253.21,9.39,0.4
33222,51.521873,-2.629517,102,0.0,9,239.0,14 / 22,3322223,2019-08-16 13:44:36:003,0.0067,-0.1625,9.4456,-0.0006,-0.0004,9.8067,0.0096,-0.0464,-0.0016,-7.58,28.45,-5.74,253.21,9.39,0.4
33223,51.521873,-2.629517,102,0.0,9,239.0,14 / 22,3322325,2019-08-16 13:44:36:105,-0.0136,-0.2468,9.438,0.0014,-0.0017,9.8067,-0.0128,0.0292,0.0048,-7.58,28.45,-5.74,253.21,9.39,0.4
33224,51.521873,-2.629517,102,0.0,9,239.0,14 / 22,3322423,2019-08-16 13:44:36:203,-0.0634,-0.0966,10.0281,0.0014,0.0007,9.8066,-0.0011,-0.0219,-0.0005,-7.36,28.24,-6.95,253.88,9.39,0.39
33225,51.521873,-2.629517,102,0.0,9,239.0,14 / 22,3322523,2019-08-16 13:44:36:303,-0.0947,-0.0433,9.6596,-0.0011,0.0034,9.8067,-0.0011,0.0356,0.0016,-7.69,28.25,-6.54,252.03,9.39,0.38
33226,51.521873,-2.629517,102,0.0,9,239.0,14 / 22,3322623,2019-08-16 13:44:36:403,-0.0329,0.0399,10.0122,-0.0009,0.0053,9.8066,0.0117,-0.0134,-0.0027,-6.65,28.47,-6.73,253.87,9.42,0.4
33227,51.521873,-2.629517,102,0.0,9,239.0,14 / 22,3322723,2019-08-16 13:44:36:503,0.1437,-0.2523,9.4366,-0.0011,-0.0015,9.8067,0.0064,-0.0176,-0.0016,-6.65,28.47,-6.73,253.87,9.42,0.4
33228,51.521873,-2.629517,102,0.0,9,239.0,14 / 22,3322823,2019-08-16 13:44:36:603,0.0913,-0.0508,9.5108,0.0004,-0.0014,9.8067,0.0064,-0.0176,-0.0016,-7.14,28.54,-5.88,254.7,9.41,0.4
33229,51.521873,-2.629517,102,0.0,9,239.0,14 / 22,3322923,2019-08-16 13:44:36:703,0.1611,0.1116,10.0682,0.0005,0.0039,9.8066,-0.0149,0.0218,0.0048,-7.65,28.1,-7.22,254.7,9.41,0.4
33230,51.521873,-2.629517,102,0.0,9,239.0,14 / 22,3323023,2019-08-16 13:44:36:803,0.0047,0.261,9.9981,0.0012,-0.002,9.8067,0.0064,-0.0144,-0.0005,-8.33,28.36,-5.12,252.64,9.4,0.39
33231,51.521873,-2.629517,102,0.0,9,239.0,14 / 22,3323123,2019-08-16 13:44:36:903,0.0848,-0.0927,9.7229,-0.0008,0.0033,9.8066,0.0021,0.0111,-0.0016,-8.33,28.36,-5.12,252.64,9.4,0.39
33232,51.521873,-2.629517,102,0.0,9,239.0,14 / 22,3323223,2019-08-16 13:44:37:003,-0.0309,-0.1021,9.6732,-0.0008,0.006,9.8066,0.0085,0.0122,-0.0027,-8.33,28.36,-5.12,252.64,9.43,0.41
33233,51.521873,-2.629517,102,0.0,9,239.0,14 / 22,3323322,2019-08-16 13:44:37:102,-0.1265,0.1171,10.3163,-0.0022,0.0001,9.8067,0.0138,-0.0272,-0.0048,-8.26,28.1,-6.5,252.64,9.43,0.41
33234,51.521873,-2.629517,102,0.0,9,239.0,14 / 22,3323423,2019-08-16 13:44:37:203,-0.0547,-0.0519,9.797,-0.0027,-0.002,9.8067,0.0043,-0.007,-0.0048,-8.26,28.1,-6.5,252.64,9.43,0.41
33235,51.521873,-2.629517,102,0.0,9,239.0,14 / 22,3323523,2019-08-16 13:44:37:303,-0.0318,0.0307,10.0285,-0.0006,-0.0008,9.8067,-0.0107,0.0079,0.008,-7.58,28.45,-5.74,252.33,9.42,0.42
33236,51.521873,-2.629517,102,0.0,9,239.0,14 / 22,3323623,2019-08-16 13:44:37:403,0.0337,-0.1334,9.4648,-0.0004,0.0033,9.8067,-0.0107,0.0079,0.008,-6.52,28.53,-6.6,254.4,9.41,0.42
33237,51.521873,-2.629517,102,0.0,9,239.0,14 / 22,3323723,2019-08-16 13:44:37:503,-0.0782,0.1412,9.9777,-0.0001,-0.0043,9.8066,0.0064,0.0015,-0.0027,-7.84,28.18,-6.67,252.01,9.43,0.43
33238,51.521873,-2.629517,102,0.0,9,239.0,14 / 22,3323822,2019-08-16 13:44:37:602,0.0202,-0.2689,9.5328,0.0008,-0.0008,9.8066,-0.0075,0.0228,0.0026,-7.84,28.18,-6.67,252.01,9.43,0.43
33239,51.521873,-2.629517,102,0.0,9,239.0,14 / 22,3323923,2019-08-16 13:44:37:703,0.0194,0.0158,9.8647,0.0023,-0.0018,9.8067,-0.0021,-0.0326,0.0037,-6.75,28.26,-7.48,253.86,9.43,0.42
33240,51.521873,-2.629517,102,0.0,9,239.0,14 / 22,3324023,2019-08-16 13:44:37:803,0.0301,-0.052,9.6924,0.0016,-0.0039,9.8066,0.0149,-0.0262,-0.0091,-7.55,28.34,-6.32,252.33,9.41,0.41
33241,51.521873,-2.629517,102,0.0,9,239.0,14 / 22,3324123,2019-08-16 13:44:37:903,-0.0827,0.1997,9.9504,0.0005,0.0068,9.8066,0.0053,-0.0017,-0.0059,-7.55,28.34,-6.32,252.33,9.41,0.41
33242,51.521873,-2.629517,102,0.0,9,239.0,14 / 22,3324223,2019-08-16 13:44:38:003,-0.0078,0.1699,10.2151,0.0015,0.004,9.8067,-0.0107,0.0495,0.0026,-7.73,28.39,-5.85,252.33,9.43,0.4
33243,51.521873,-2.629517,102,0.0,9,239.0,14 / 22,3324323,2019-08-16 13:44:38:103,0.0031,0.0968,9.7889,-0.0007,0.002,9.8067,0.0,0.0005,0.0026,-8.02,28.48,-4.93,252.64,9.43,0.41
33244,51.521873,-2.629517,102,0.0,9,239.0,14 / 22,3324423,2019-08-16 13:44:38:203,-0.0139,0.1449,10.1503,-0.001,-0.0033,9.8067,0.0,0.0005,0.0026,-8.15,28.32,-5.61,252.64,9.43,0.41
33245,51.521873,-2.629517,102,0.0,9,239.0,14 / 22,3324523,2019-08-16 13:44:38:303,0.0054,-0.0042,9.7802,-0.0009,0.0002,9.8067,0.0053,-0.0134,-0.0027,-8.15,28.32,-5.61,252.64,9.43,0.41
33246,51.521873,-2.629517,102,0.0,9,239.0,14 / 22,3324623,2019-08-16 13:44:38:403,-0.0596,-0.0774,9.9315,0.0017,0.0031,9.8067,-0.0085,0.0463,0.0016,-7.29,28.5,-5.9,254.18,9.43,0.42
33247,51.521873,-2.629517,102,0.0,9,239.0,14 / 22,3324723,2019-08-16 13:44:38:503,-0.1011,0.2731,10.0799,0.0008,0.0052,9.8067,0.0138,-0.0262,-0.0048,-6.66,28.49,-6.63,254.18,9.43,0.42
33248,51.521873,-2.629517,102,0.0,9,239.0,14 / 22,3324823,2019-08-16 13:44:38:603,-0.0319,-0.1224,9.8335,-0.0009,-0.0059,9.8066,0.0053,-0.0187,-0.0016,-6.66,28.49,-6.63,253.86,9.46,0.42
33249,51.521873,-2.629517,102,0.0,9,239.0,14 / 22,3324923,2019-08-16 13:44:38:703,-0.1034,-0.2108,9.6935,-0.0026,-0.0062,9.8066,-0.0139,0.0207,0.0069,-8.0,28.13,-6.7,252.02,9.42,0.43
33250,51.521873,-2.629517,102,0.0,9,239.0,14 / 22,3325023,2019-08-16 13:44:38:803,0.0462,0.113,9.7625,0.0007,0.0021,9.8067,0.0096,-0.0347,-0.0005,-8.0,28.13,-6.7,252.02,9.42,0.43
33251,51.521873,-2.629517,102,0.0,9,239.0,14 / 22,3325124,2019-08-16 13:44:38:904,-0.0718,0.1512,9.9201,0.001,-0.001,9.8067,0.0011,0.0207,0.0026,-7.88,28.34,-5.86,252.33,9.42,0.42
33252,51.521873,-2.629517,102,0.0,9,239.0,14 / 22,3325223,2019-08-16 13:44:39:003,-0.0377,-0.1084,10.0807,0.0006,0.0037,9.8067,0.0011,0.0207,0.0026,-7.58,28.47,-5.64,252.33,9.42,0.42
33253,51.521873,-2.629517,102,0.0,9,239.0,14 / 22,3325323,2019-08-16 13:44:39:103,0.0129,0.0244,9.7982,0.0029,-0.0001,9.8067,-0.016,0.0473,0.0101,-7.58,28.47,-5.64,252.33,9.42,0.42
33254,51.521873,-2.629517,102,0.0,9,239.0,14 / 22,3325423,2019-08-16 13:44:39:203,0.1018,-0.127,9.9656,0.0002,0.0006,9.8067,0.0149,-0.0283,-0.0059,-8.33,28.36,-5.12,252.64,9.42,0.4
33255,51.521873,-2.629517,102,0.0,9,239.0,14 / 22,3325523,2019-08-16 13:44:39:303,0.0901,-0.0033,9.7234,0.0014,0.0022,9.8067,0.0032,-0.0006,-0.0037,-7.76,28.53,-5.05,253.2,9.43,0.41
