,GPS LATITUDE (degrees),GPS LONGITUDE (degrees), GPS ALTITUDE (m),GPS SPEED (Kmh),GPS ACCURACY (m),GPS ORIENTATION (Â°), SATELLITES IN RANGE, TIME SINCE START (ms), DATE (YYYY-MO-DD HH-MI-SS_SSS),ACCELEROMETER X (m/s²) , ACCELEROMETER Y (m/s²), ACCELEROMETER Z (m/s²), GRAVITY X (m/s²), GRAVITY Y (m/s²), GRAVITY Z (m/s²), GYROSCOPE Yaw (rad/s), GYROSCOPE Pitch (rad/s), GYROSCOPE Roll (rad/s)
27570,47.177948,-1.601246,59.85,23.01,3.216,124.1,15 / 23,2757010,2019-08-09 21:00:05:748,-1.0353,-0.0615,9.3778,-0.6388,0.0442,9.7857,-0.0043,-0.0023,-0.0075
27571,47.177948,-1.601246,59.85,23.01,3.216,124.1,15 / 23,2757110,2019-08-09 21:00:05:848,-0.7283,0.2084,9.9518,-0.6349,0.0387,9.786,-0.0043,0.0027,-0.0211
27572,47.177948,-1.601246,59.85,23.01,3.216,124.1,15 / 23,2757210,2019-08-09 21:00:05:948,-1.9858,-0.0137,10.2947,-0.6456,0.0337,9.7853,-0.0008,0.0066,-0.0012
27573,47.177948,-1.601246,59.85,23.01,3.216,124.1,15 / 23,2757311,2019-08-09 21:00:06:049,-1.3131,-0.2339,9.6052,-0.6302,0.0366,9.7863,0.0146,0.0035,-0.0168
27574,47.177948,-1.601246,59.85,23.01,3.216,124.1,15 / 23,2757411,2019-08-09 21:00:06:149,-0.9019,0.3006,9.7997,-0.6385,0.0437,9.7857,0.0047,0.0391,-0.0257
27575,47.177948,-1.601246,59.85,23.01,3.216,124.1,15 / 23,2757511,2019-08-09 21:00:06:249,-0.5284,0.1204,10.1511,-0.6516,0.0408,9.7849,-0.0046,-0.0005,-0.0139
27576,47.177948,-1.601246,59.85,23.01,3.216,124.1,15 / 23,2757611,2019-08-09 21:00:06:349,-0.6828,-0.2112,9.6603,-0.6607,0.0395,9.7843,0.0005,0.0,-0.0077
27577,47.177948,-1.601246,59.85,23.01,3.216,124.1,15 / 23,2757710,2019-08-09 21:00:06:448,-0.3123,0.2407,9.6525,-0.6714,0.046,9.7835,0.0039,0.0174,-0.0026
27578,47.177948,-1.601246,59.85,23.01,3.216,124.1,15 / 23,2757811,2019-08-09 21:00:06:549,0.2348,0.0869,9.6561,-0.6674,0.0452,9.7838,-0.0077,-0.0182,-0.0114
27579,47.177948,-1.601246,59.85,23.01,3.216,124.1,15 / 23,2757910,2019-08-09 21:00:06:648,-1.7099,-0.0113,9.4394,-0.6506,0.0346,9.785,-0.0011,-0.0195,-0.0172
27580,47.177948,-1.601246,59.85,23.01,3.216,124.1,15 / 23,2758010,2019-08-09 21:00:06:748,0.8399,-0.2261,9.6782,-0.6325,0.0359,9.7862,0.0054,-0.0185,-0.0022
27581,47.177948,-1.601246,59.85,23.01,3.216,124.1,15 / 23,2758110,2019-08-09 21:00:06:848,0.0199,0.2527,9.5268,-0.6302,0.0376,9.7863,0.0071,-0.0461,-0.0056
27582,47.177948,-1.601246,59.85,23.01,3.216,124.1,15 / 23,2758211,2019-08-09 21:00:06:949,-0.5074,0.1887,9.6914,-0.6224,0.0449,9.7868,0.0221,-0.0126,0.004
27583,47.177948,-1.601246,59.85,23.01,3.216,124.1,15 / 23,2758310,2019-08-09 21:00:07:048,-0.781,0.1192,9.6603,-0.6189,0.06,9.7869,0.0045,0.0268,-0.0147
27584,47.177948,-1.601246,59.85,23.01,3.216,124.1,15 / 23,2758410,2019-08-09 21:00:07:148,-0.9372,0.0378,9.9266,-0.6274,0.0633,9.7864,0.0044,0.0102,-0.0119
27585,47.177948,-1.601246,59.85,23.01,3.216,124.1,15 / 23,2758510,2019-08-09 21:00:07:248,-0.195,-0.4332,10.0254,-0.651,0.077,9.7847,0.0415,0.0113,0.0113
27586,47.177948,-1.601246,59.85,23.01,3.216,124.1,14 / 22,2758610,2019-08-09 21:00:07:348,-2.1672,0.6142,8.9624,-0.6208,0.1005,9.7865,0.0314,-0.0448,-0.0559
27587,47.177948,-1.601246,59.85,23.01,3.216,124.1,14 / 22,2758710,2019-08-09 21:00:07:448,-0.6457,0.1695,10.196,-0.6155,0.0727,9.787,-0.0469,-0.0017,-0.0596
27588,47.177948,-1.601246,59.85,23.01,3.216,124.1,14 / 22,2758810,2019-08-09 21:00:07:548,-0.0088,-0.6768,9.8153,-0.6068,0.0424,9.7878,-0.0217,0.0502,0.0042
27589,47.177948,-1.601246,59.85,23.01,3.216,124.1,14 / 22,2758910,2019-08-09 21:00:07:648,-0.6912,0.0001,9.9919,-0.6435,0.0202,9.7855,0.0039,-0.0014,-0.0175
27590,47.177948,-1.601246,59.85,23.01,3.216,124.1,14 / 22,2759010,2019-08-09 21:00:07:748,-1.0641,0.0307,9.8578,-0.6314,0.0192,9.7863,0.0029,-0.0028,-0.0079
27591,47.177948,-1.601246,59.85,23.01,3.216,124.1,14 / 22,2759111,2019-08-09 21:00:07:849,-0.4541,-0.1322,9.9655,-0.6207,0.0033,9.787,0.0027,-0.0235,0.0165
27592,47.177948,-1.601246,59.85,23.01,3.216,124.1,14 / 22,2759211,2019-08-09 21:00:07:949,-0.1986,-0.0125,9.7411,-0.6195,0.0015,9.7871,0.0049,0.0095,0.0043
27593,47.177948,-1.601246,59.85,23.01,3.216,124.1,14 / 22,2759311,2019-08-09 21:00:08:049,-2.3456,0.0911,9.6764,-0.6079,0.0046,9.7878,-0.0232,-0.0646,-0.0424
27594,47.177948,-1.601246,59.85,23.01,3.216,124.1,14 / 22,2759410,2019-08-09 21:00:08:148,0.7513,-0.1483,9.4173,-0.6032,-0.0099,9.7881,0.0007,0.0789,0.082
27595,47.177948,-1.601246,59.85,23.01,3.216,124.1,14 / 22,2759510,2019-08-09 21:00:08:248,0.5305,-0.7104,10.1307,-0.6264,-0.0224,9.7866,0.0194,0.0235,0.0413
27596,47.176826,-1.59902,60.25,23.42,3.216,129.0,14 / 22,2759610,2019-08-09 21:00:08:348,-1.665,-0.4548,9.695,-0.6248,-0.028,9.7867,0.0071,-0.0102,-0.0406
27597,47.176826,-1.59902,60.25,23.42,3.216,129.0,14 / 22,2759710,2019-08-09 21:00:08:448,0.713,0.0606,9.5202,-0.6317,-0.008,9.7863,0.025,-0.0014,-0.003
27598,47.176826,-1.59902,60.25,23.42,3.216,129.0,14 / 22,2759810,2019-08-09 21:00:08:548,0.6275,0.2156,9.264,-0.6192,0.0179,9.7871,0.021,-0.0492,-0.0162
27599,47.176826,-1.59902,60.25,23.42,3.216,129.0,14 / 22,2759910,2019-08-09 21:00:08:648,0.9375,-0.2064,9.352,-0.6174,0.0251,9.7872,0.0037,-0.0264,0.0075
27600,47.176826,-1.59902,60.25,23.42,3.216,129.0,14 / 22,2760010,2019-08-09 21:00:08:748,-1.3071,0.0444,10.0116,-0.6217,0.0302,9.7869,0.0071,0.0285,-0.0128
27601,47.176826,-1.59902,60.25,23.42,3.216,129.0,14 / 22,2760111,2019-08-09 21:00:08:849,-0.9515,-0.0161,9.9224,-0.6127,0.0297,9.7874,-0.0024,0.0325,-0.0205
27602,47.176826,-1.59902,60.25,23.42,3.216,129.0,14 / 22,2760210,2019-08-09 21:00:08:948,0.2947,0.1288,10.3037,-0.6341,0.0287,9.7861,0.0005,-0.0082,-0.0089
27603,47.176826,-1.59902,60.25,23.42,3.216,129.0,14 / 22,2760310,2019-08-09 21:00:09:048,-1.5806,0.0007,9.8153,-0.6509,0.0277,9.785,0.0032,0.0359,-0.0005
27604,47.176826,-1.59902,60.25,23.42,3.216,129.0,14 / 22,2760410,2019-08-09 21:00:09:148,-0.368,0.133,9.8787,-0.6714,0.0253,9.7836,-0.0064,0.001,-0.0267
27605,47.176826,-1.59902,60.25,23.42,3.216,129.0,14 / 22,2760510,2019-08-09 21:00:09:248,0.491,0.2042,9.7147,-0.6876,0.0222,9.7825,-0.0079,-0.0177,-0.007
27606,47.176826,-1.59902,60.25,23.42,3.216,129.0,13 / 22,2760611,2019-08-09 21:00:09:349,-1.6698,-0.2214,9.8859,-0.6872,0.013,9.7825,0.0016,0.015,-0.0068
27607,47.176826,-1.59902,60.25,23.42,3.216,129.0,13 / 22,2760710,2019-08-09 21:00:09:448,-1.252,0.3449,9.5034,-0.6871,0.0152,9.7825,-0.0083,-0.0269,-0.0406
27608,47.176826,-1.59902,60.25,23.42,3.216,129.0,13 / 22,2760811,2019-08-09 21:00:09:549,-1.2873,0.0079,9.7052,-0.682,0.006,9.7829,0.0013,-0.0196,-0.0097
27609,47.176826,-1.59902,60.25,23.42,3.216,129.0,13 / 22,2760910,2019-08-09 21:00:09:648,-0.3793,-0.0699,9.5286,-0.6765,0.0084,9.7833,0.0051,0.0031,-0.003
27610,47.176826,-1.59902,60.25,23.42,3.216,129.0,13 / 22,2761011,2019-08-09 21:00:09:749,-1.8134,-0.1549,9.4179,-0.6716,0.0105,9.7836,0.0004,-0.013,0.008
27611,47.176826,-1.59902,60.25,23.42,3.216,129.0,13 / 22,2761110,2019-08-09 21:00:09:848,-0.8139,0.0127,9.759,-0.6616,0.0071,9.7843,0.0028,0.0093,-0.0152
27612,47.176826,-1.59902,60.25,23.42,3.216,129.0,13 / 22,2761211,2019-08-09 21:00:09:949,-0.6666,-0.0562,9.5543,-0.6654,0.0059,9.784,-0.0063,-0.0146,-0.0229
27613,47.176826,-1.59902,60.25,23.42,3.216,129.0,13 / 22,2761311,2019-08-09 21:00:10:049,-0.3213,0.1073,9.1868,-0.6437,0.0064,9.7855,-0.002,-0.0428,-0.0081
27614,47.176826,-1.59902,60.25,23.42,3.216,129.0,13 / 22,2761411,2019-08-09 21:00:10:149,0.2839,-0.0232,9.8398,-0.6448,0.0001,9.7854,-0.0042,0.0046,-0.008
27615,47.176826,-1.59902,60.25,23.42,3.216,129.0,13 / 22,2761510,2019-08-09 21:00:10:248,-1.6429,-0.0549,9.7572,-0.6415,-0.0074,9.7856,-0.0126,-0.0121,-0.0027
27616,47.176826,-1.59902,60.25,23.42,3.216,129.0,13 / 22,2761610,2019-08-09 21:00:10:348,-0.842,-0.4051,9.4975,-0.6481,-0.0246,9.7852,-0.0017,-0.0032,0.0058
27617,47.176826,-1.59902,60.25,23.42,3.216,129.0,13 / 22,2761710,2019-08-09 21:00:10:448,-1.0844,0.1222,9.7692,-0.6698,-0.028,9.7837,0.0018,-0.0282,0.0351
27618,47.176826,-1.59902,60.25,23.42,3.216,129.0,13 / 22,2761810,2019-08-09 21:00:10:548,-1.334,-0.3046,9.6483,-0.6734,-0.0311,9.7835,0.006,0.0467,-0.0385
27619,47.176826,-1.59902,60.25,23.42,3.216,129.0,13 / 22,2761910,2019-08-09 21:00:10:648,-1.4795,-0.3177,9.8219,-0.667,-0.0266,9.7839,0.0069,-0.0456,-0.0127
27620,47.176826,-1.59902,60.25,23.42,3.216,129.0,13 / 22,2762010,2019-08-09 21:00:10:748,-0.2548,-0.3818,9.7016,-0.6787,-0.0195,9.7831,0.0084,-0.0103,0.031
27621,47.176826,-1.59902,60.25,23.42,3.216,129.0,13 / 22,2762110,2019-08-09 21:00:10:848,-1.4567,0.0313,9.6884,-0.6889,-0.0194,9.7824,0.0062,0.0122,-0.0218
27622,47.176826,-1.59902,60.25,23.42,3.216,129.0,13 / 22,2762210,2019-08-09 21:00:10:948,-0.8085,0.048,9.9093,-0.6961,-0.02,9.7819,-0.0001,0.0231,0.013
27623,47.176826,-1.59902,60.25,23.42,3.216,129.0,13 / 22,2762312,2019-08-09 21:00:11:050,-0.1824,0.0426,9.7674,-0.7078,-0.0214,9.7811,-0.0034,-0.0059,0.0102
27624,47.176826,-1.59902,60.25,23.42,3.216,129.0,13 / 22,2762411,2019-08-09 21:00:11:149,-2.0379,-0.101,9.8039,-0.7147,-0.0249,9.7805,-0.0007,-0.0128,-0.0174
27625,47.176826,-1.59902,60.25,23.42,3.216,129.0,13 / 22,2762510,2019-08-09 21:00:11:248,-1.1562,-0.2237,10.1068,-0.7261,-0.0224,9.7797,-0.0017,0.0432,-0.0116
27626,47.176826,-1.59902,60.25,23.42,3.216,129.0,14 / 22,2762610,2019-08-09 21:00:11:348,-1.1335,-0.0639,9.5687,-0.7076,-0.0331,9.781,-0.0051,-0.0147,-0.014
27627,47.176826,-1.59902,60.25,23.42,3.216,129.0,14 / 22,2762710,2019-08-09 21:00:11:448,-0.8181,-0.4123,9.522,-0.7115,-0.033,9.7807,-0.0034,0.0011,-0.0011
27628,47.176826,-1.59902,60.25,23.42,3.216,129.0,14 / 22,2762810,2019-08-09 21:00:11:548,-0.6894,0.0073,9.6758,-0.7103,-0.038,9.7808,-0.0061,-0.0152,0.0182
27629,47.176826,-1.59902,60.25,23.42,3.216,129.0,14 / 22,2762910,2019-08-09 21:00:11:648,-0.6948,-0.1597,9.1449,-0.707,-0.0535,9.781,-0.0117,-0.0185,-0.0041
27630,47.176826,-1.59902,60.25,23.42,3.216,129.0,14 / 22,2763010,2019-08-09 21:00:11:748,-0.0112,-0.5673,9.6938,-0.6897,-0.0601,9.7822,0.0025,-0.0007,0.0164
27631,47.176826,-1.59902,60.25,23.42,3.216,129.0,14 / 22,2763110,2019-08-09 21:00:11:848,0.1779,-0.3818,9.9625,-0.6783,-0.0661,9.7829,0.0049,0.0194,-0.0122
27632,47.176826,-1.59902,60.25,23.42,3.216,129.0,14 / 22,2763210,2019-08-09 21:00:11:948,-1.4382,-0.6625,9.2377,-0.686,-0.0677,9.7824,0.019,-0.0037,0.0152
27633,47.176826,-1.59902,60.25,23.42,3.216,129.0,14 / 22,2763311,2019-08-09 21:00:12:049,-1.2849,0.0701,10.038,-0.6842,-0.0549,9.7826,0.006,0.0283,0.0059
27634,47.176826,-1.59902,60.25,23.42,3.216,129.0,14 / 22,2763410,2019-08-09 21:00:12:148,-0.3745,-0.3177,10.3259,-0.6955,-0.0499,9.7818,-0.004,0.0118,-0.0248
27635,47.176826,-1.59902,60.25,23.42,3.216,129.0,14 / 22,2763511,2019-08-09 21:00:12:249,-1.0042,-0.0849,9.6082,-0.7038,-0.0509,9.7812,0.0033,0.0005,0.0269
27636,47.176826,-1.59902,60.25,23.42,3.216,129.0,14 / 22,2763610,2019-08-09 21:00:12:348,-1.4058,-0.0651,9.6633,-0.7038,-0.0535,9.7812,-0.0041,0.0117,-0.0087
27637,47.176826,-1.59902,60.25,23.42,3.216,129.0,14 / 22,2763710,2019-08-09 21:00:12:448,0.5377,0.0725,9.9877,-0.7043,-0.0596,9.7811,-0.0041,0.0026,-0.0108
27638,47.176826,-1.59902,60.25,23.42,3.216,129.0,14 / 22,2763810,2019-08-09 21:00:12:548,-0.2668,-0.3979,9.7159,-0.687,-0.0629,9.7824,0.0057,0.0198,0.0167
27639,47.176826,-1.59902,60.25,23.42,3.216,129.0,14 / 22,2763910,2019-08-09 21:00:12:648,0.1271,0.1803,9.6363,-0.6852,-0.0585,9.7825,0.0047,0.0202,-0.0173
27640,47.176826,-1.59902,60.25,23.42,3.216,129.0,14 / 22,2764010,2019-08-09 21:00:12:748,-0.8719,0.045,9.8434,-0.6921,-0.0538,9.782,0.0003,-0.0073,-0.0143
27641,47.176826,-1.59902,60.25,23.42,3.216,129.0,14 / 22,2764110,2019-08-09 21:00:12:848,0.1881,-0.2178,9.1389,-0.6677,-0.0497,9.7838,0.0107,-0.0146,-0.0074
27642,47.176826,-1.59902,60.25,23.42,3.216,129.0,14 / 22,2764211,2019-08-09 21:00:12:949,-1.0234,0.0486,9.7429,-0.666,-0.0441,9.7839,0.0179,-0.0074,-0.0118
27643,47.176826,-1.59902,60.25,23.42,3.216,129.0,14 / 22,2764311,2019-08-09 21:00:13:049,0.1935,-0.0502,9.133,-0.6618,-0.0269,9.7843,0.0022,-0.0552,0.0006
27644,47.176826,-1.59902,60.25,23.42,3.216,129.0,14 / 22,2764410,2019-08-09 21:00:13:148,-1.662,0.0061,9.7584,-0.6627,-0.0258,9.7842,0.0026,0.0023,-0.0114
27645,47.176826,-1.59902,60.25,23.42,3.216,129.0,14 / 22,2764510,2019-08-09 21:00:13:248,-0.9426,0.3066,10.2899,-0.6688,-0.0274,9.7838,-0.0099,0.0081,0.0029
27646,47.176826,-1.59902,60.25,23.42,3.216,129.0,14 / 22,2764611,2019-08-09 21:00:13:349,-2.0439,-0.0262,9.6112,-0.6656,-0.0288,9.784,0.0136,0.011,-0.017
27647,47.176826,-1.59902,60.25,23.42,3.216,129.0,14 / 22,2764710,2019-08-09 21:00:13:448,0.1384,0.0193,9.4227,-0.6562,-0.0072,9.7847,0.0189,0.0025,-0.0142
27648,47.176826,-1.59902,60.25,23.42,3.216,129.0,14 / 22,2764811,2019-08-09 21:00:13:549,0.0121,0.0564,9.8877,-0.6622,0.0011,9.7843,0.0106,-0.0264,-0.0126
27649,47.176826,-1.59902,60.25,23.42,3.216,129.0,14 / 22,2764911,2019-08-09 21:00:13:649,-0.0483,0.0576,9.5112,-0.6377,-0.0019,9.7859,-0.0161,-0.0273,0.0084
27650,47.176826,-1.59902,60.25,23.42,3.216,129.0,14 / 22,2765010,2019-08-09 21:00:13:748,-0.5385,0.1498,9.4041,-0.65,-0.0087,9.7851,-0.0108,-0.0207,-0.0148
27651,47.176826,-1.59902,60.25,23.42,3.216,129.0,14 / 22,2765110,2019-08-09 21:00:13:848,0.494,0.2605,10.0404,-0.6452,-0.0151,9.7854,-0.0068,0.0224,-0.0216
27652,47.176826,-1.59902,60.25,23.42,3.216,129.0,14 / 22,2765210,2019-08-09 21:00:13:948,-0.2566,-0.2998,10.005,-0.6385,-0.0233,9.7858,-0.0145,0.0245,0.0118
27653,47.176826,-1.59902,60.25,23.42,3.216,129.0,14 / 22,2765310,2019-08-09 21:00:14:048,-0.8959,-0.7804,9.8931,-0.6397,-0.0399,9.7857,0.0104,-0.0124,-0.0016
27654,47.176826,-1.59902,60.25,23.42,3.216,129.0,14 / 22,2765411,2019-08-09 21:00:14:149,-1.188,-0.3441,9.6788,-0.6604,-0.0325,9.7843,-0.0041,-0.0041,-0.0466
27655,47.176826,-1.59902,60.25,23.42,3.216,129.0,14 / 22,2765511,2019-08-09 21:00:14:249,0.0217,-0.1214,10.0972,-0.6703,-0.0347,9.7837,-0.002,-0.0264,-0.0104
27656,47.176826,-1.59902,60.25,23.42,3.216,129.0,Dec-22,2765611,2019-08-09 21:00:14:349,-0.775,-0.0496,9.4179,-0.6543,-0.0345,9.7847,0.0316,0.0331,0.0369
27657,47.176826,-1.59902,60.25,23.42,3.216,129.0,Dec-22,2765711,2019-08-09 21:00:14:449,-1.2346,1.4313,10.102,-0.6831,-0.0177,9.7828,0.0016,0.0268,0.0787
27658,47.176826,-1.59902,60.25,23.42,3.216,129.0,Dec-22,2765811,2019-08-09 21:00:14:549,-0.6966,0.5466,9.6016,-0.6943,-0.0323,9.782,-0.0268,-0.0273,-0.0446
27659,47.176826,-1.59902,60.25,23.42,3.216,129.0,Dec-22,2765910,2019-08-09 21:00:14:648,0.3503,-0.702,9.3801,-0.6962,-0.0301,9.7819,-0.0067,0.0001,0.0147
27660,47.176826,-1.59902,60.25,23.42,3.216,129.0,Dec-22,2766010,2019-08-09 21:00:14:748,0.0947,-0.1459,9.4137,-0.659,-0.0595,9.7843,-0.0177,-0.0127,0.0015
27661,47.176826,-1.59902,60.25,23.42,3.216,129.0,Dec-22,2766110,2019-08-09 21:00:14:848,-0.4601,-0.3524,9.8482,-0.6603,-0.0769,9.7841,0.0071,-0.0051,0.0226
27662,47.176826,-1.59902,60.25,23.42,3.216,129.0,Dec-22,2766210,2019-08-09 21:00:14:948,-0.7534,-0.6026,9.2718,-0.6438,-0.0791,9.7852,0.0087,0.0219,0.0034
27663,47.176826,-1.59902,60.25,23.42,3.216,129.0,Dec-22,2766311,2019-08-09 21:00:15:049,-0.9533,-0.3704,9.2461,-0.652,-0.0774,9.7846,0.0113,-0.0323,0.0168
27664,47.176826,-1.59902,60.25,23.42,3.216,129.0,Dec-22,2766410,2019-08-09 21:00:15:148,-0.6666,-0.134,9.8578,-0.6547,-0.075,9.7845,0.0024,-0.0139,-0.003
27665,47.176826,-1.59902,60.25,23.42,3.216,129.0,Dec-22,2766510,2019-08-09 21:00:15:248,0.0145,-0.1585,9.7836,-0.6583,-0.0739,9.7843,0.0082,-0.0037,0.0089
27666,47.176826,-1.59902,60.25,23.42,3.216,129.0,13 / 23,2766610,2019-08-09 21:00:15:348,0.2959,0.1707,10.4138,-0.6704,-0.0719,9.7834,-0.0081,0.043,-0.0168
27667,47.176826,-1.59902,60.25,23.42,3.216,129.0,13 / 23,2766711,2019-08-09 21:00:15:449,-1.3442,-0.1352,9.7207,-0.6689,-0.0786,9.7835,-0.008,-0.006,0.0046
27668,47.176826,-1.59902,60.25,23.42,3.216,129.0,13 / 23,2766811,2019-08-09 21:00:15:549,-0.7474,0.1575,9.7447,-0.6624,-0.0849,9.7839,-0.0013,0.0163,-0.0065
27669,47.176826,-1.59902,60.25,23.42,3.216,129.0,13 / 23,2766911,2019-08-09 21:00:15:649,0.1923,-0.0579,9.9524,-0.6687,-0.0834,9.7835,-0.0097,-0.0105,0.0074
27670,47.176826,-1.59902,60.25,23.42,3.216,129.0,13 / 23,2767011,2019-08-09 21:00:15:749,0.4784,-0.4548,9.8297,-0.6674,-0.1003,9.7834,-0.0007,-0.0317,0.005
27671,47.176826,-1.59902,60.25,23.42,3.216,129.0,13 / 23,2767111,2019-08-09 21:00:15:849,-0.1034,-0.4434,9.5328,-0.6599,-0.1084,9.7838,0.0015,-0.0012,0.0088
27672,47.176826,-1.59902,60.25,23.42,3.216,129.0,13 / 23,2767210,2019-08-09 21:00:15:948,-0.2189,0.3042,10.3803,-0.6756,-0.1116,9.7827,-0.0038,0.0286,-0.032
27673,47.176826,-1.59902,60.25,23.42,3.216,129.0,13 / 23,2767310,2019-08-09 21:00:16:048,-1.0293,0.0815,9.7878,-0.6525,-0.1128,9.7843,-0.0068,0.0216,-0.035
27674,47.176826,-1.59902,60.25,23.42,3.216,129.0,13 / 23,2767410,2019-08-09 21:00:16:148,-0.28,-0.2465,9.9619,-0.6526,-0.1209,9.7842,0.003,0.0291,0.0051
27675,47.176826,-1.59902,60.25,23.42,3.216,129.0,13 / 23,2767511,2019-08-09 21:00:16:249,-1.0036,-0.0466,9.9129,-0.663,-0.1197,9.7835,-0.0044,-0.0096,-0.0162
27676,47.176826,-1.59902,60.25,23.42,3.216,129.0,13 / 23,2767611,2019-08-09 21:00:16:349,-1.161,-0.4249,9.5274,-0.6592,-0.1255,9.7837,-0.0031,0.0075,-0.0021
27677,47.176826,-1.59902,60.25,23.42,3.216,129.0,13 / 23,2767711,2019-08-09 21:00:16:449,-0.6876,-0.1926,9.871,-0.6552,-0.13,9.7839,0.0003,0.0179,-0.0107
27678,47.176826,-1.59902,60.25,23.42,3.216,129.0,13 / 23,2767810,2019-08-09 21:00:16:548,-1.4136,0.0378,10.1409,-0.6779,-0.1338,9.7823,-0.0082,-0.0099,-0.0012
27679,47.176826,-1.59902,60.25,23.42,3.216,129.0,13 / 23,2767910,2019-08-09 21:00:16:648,-0.7803,-0.0801,9.3167,-0.6587,-0.1367,9.7835,0.0019,-0.032,0.0001
27680,47.176826,-1.59902,60.25,23.42,3.216,129.0,13 / 23,2768010,2019-08-09 21:00:16:748,-1.2861,-0.0549,10.0248,-0.6511,-0.1379,9.784,-0.004,0.0256,-0.0102
27681,47.176826,-1.59902,60.25,23.42,3.216,129.0,13 / 23,2768110,2019-08-09 21:00:16:848,-0.2806,-0.1298,10.0613,-0.6629,-0.1456,9.7831,-0.0133,-0.0009,0.0158
27682,47.176826,-1.59902,60.25,23.42,3.216,129.0,13 / 23,2768210,2019-08-09 21:00:16:948,-0.3422,-0.359,9.5819,-0.6511,-0.1625,9.7837,-0.0043,-0.0081,-0.0088
27683,47.176826,-1.59902,60.25,23.42,3.216,129.0,13 / 23,2768310,2019-08-09 21:00:17:048,-0.0759,-0.198,10.0242,-0.6526,-0.1664,9.7835,-0.0052,0.0119,-0.0014
27684,47.176826,-1.59902,60.25,23.42,3.216,129.0,13 / 23,2768411,2019-08-09 21:00:17:149,-0.7546,0.0037,10.1122,-0.6406,-0.1798,9.7841,-0.0148,0.0013,0.0043
27685,47.176826,-1.59902,60.25,23.42,3.216,129.0,13 / 23,2768510,2019-08-09 21:00:17:248,0.5993,-0.6391,9.8422,-0.6281,-0.1875,9.7847,0.0077,-0.0056,-0.0268
27686,47.175545,-1.596878,60.51,23.58,3.216,131.8,13 / 22,2768611,2019-08-09 21:00:17:349,0.4784,-0.1723,10.4456,-0.6476,-0.1807,9.7836,0.0078,0.0466,0.0213
27687,47.175545,-1.596878,60.51,23.58,3.216,131.8,13 / 22,2768710,2019-08-09 21:00:17:448,-1.1006,-0.2375,9.9063,-0.6306,-0.1847,9.7846,-0.0084,-0.0133,-0.0243
27688,47.175545,-1.596878,60.51,23.58,3.216,131.8,13 / 22,2768810,2019-08-09 21:00:17:548,-0.5158,-0.1878,9.6166,-0.6278,-0.1879,9.7847,0.0011,0.0124,-0.0084
27689,47.175545,-1.596878,60.51,23.58,3.216,131.8,13 / 22,2768910,2019-08-09 21:00:17:648,-1.2724,-0.6331,9.8015,-0.6286,-0.1877,9.7847,0.0067,-0.0073,0.0222
27690,47.175545,-1.596878,60.51,23.58,3.216,131.8,13 / 22,2769011,2019-08-09 21:00:17:749,-0.7474,-0.055,9.7237,-0.6275,-0.1829,9.7848,0.0014,-0.0175,0.0174
27691,47.175545,-1.596878,60.51,23.58,3.216,131.8,13 / 22,2769110,2019-08-09 21:00:17:848,-1.4358,-0.283,9.8297,-0.614,-0.185,9.7857,-0.0058,0.0131,-0.0151
27692,47.175545,-1.596878,60.51,23.58,3.216,131.8,13 / 22,2769211,2019-08-09 21:00:17:949,-1.1197,-0.8804,10.2241,-0.6292,-0.188,9.7846,0.0303,0.0336,-0.0025
27693,47.175545,-1.596878,60.51,23.58,3.216,131.8,13 / 22,2769311,2019-08-09 21:00:18:049,-0.2171,0.8261,8.9223,-0.6071,-0.1788,9.7862,0.0051,-0.0206,-0.0048
27694,47.175545,-1.596878,60.51,23.58,3.216,131.8,13 / 22,2769410,2019-08-09 21:00:18:148,-0.4278,1.0877,9.7393,-0.6257,-0.1671,9.7852,0.0042,0.0027,0.041
27695,47.175545,-1.596878,60.51,23.58,3.216,131.8,13 / 22,2769510,2019-08-09 21:00:18:248,-0.0531,-0.2549,10.3127,-0.616,-0.172,9.7858,-0.0179,0.018,-0.0262
27696,47.175545,-1.596878,60.51,23.58,3.216,131.8,14 / 21,2769610,2019-08-09 21:00:18:348,-1.1407,-0.04,9.6705,-0.6265,-0.1799,9.785,-0.0041,0.039,0.0007
27697,47.175545,-1.596878,60.51,23.58,3.216,131.8,14 / 21,2769710,2019-08-09 21:00:18:448,-1.4465,-0.1226,9.8799,-0.6481,-0.1773,9.7836,0.006,-0.0145,-0.0164
27698,47.175545,-1.596878,60.51,23.58,3.216,131.8,14 / 21,2769810,2019-08-09 21:00:18:548,-1.6303,0.1162,10.0374,-0.6551,-0.1721,9.7832,0.0019,-0.0152,-0.0132
27699,47.175545,-1.596878,60.51,23.58,3.216,131.8,14 / 21,2769910,2019-08-09 21:00:18:648,0.0259,0.2982,10.3127,-0.6914,-0.1664,9.7808,-0.0049,0.0341,-0.03
27700,47.175545,-1.596878,60.51,23.58,3.216,131.8,14 / 21,2770010,2019-08-09 21:00:18:748,-0.8091,0.1539,9.8662,-0.6807,-0.1595,9.7817,0.0051,0.0197,-0.0181
27701,47.175545,-1.596878,60.51,23.58,3.216,131.8,14 / 21,2770110,2019-08-09 21:00:18:848,0.1055,0.2407,10.0445,-0.6898,-0.1507,9.7812,-0.0147,-0.0296,-0.0052
27702,47.175545,-1.596878,60.51,23.58,3.216,131.8,14 / 21,2770210,2019-08-09 21:00:18:948,-1.2185,-0.362,9.689,-0.6843,-0.1566,9.7815,-0.0147,-0.0296,-0.0052
27703,47.175545,-1.596878,60.51,23.58,3.216,131.8,14 / 21,2770310,2019-08-09 21:00:19:048,-0.4978,-0.0645,9.1335,-0.6715,-0.1755,9.7821,-0.0047,-0.0327,0.0115
27704,47.175545,-1.596878,60.51,23.58,3.216,131.8,14 / 21,2770410,2019-08-09 21:00:19:148,0.5406,-0.1423,9.4256,-0.6598,-0.1798,9.7828,-0.0099,-0.0604,-0.0071
27705,47.175545,-1.596878,60.51,23.58,3.216,131.8,14 / 21,2770510,2019-08-09 21:00:19:248,-1.0916,-0.1393,9.5633,-0.6354,-0.193,9.7841,-0.008,-0.0173,-0.0029
27706,47.175545,-1.596878,60.51,23.58,3.216,131.8,14 / 21,2770611,2019-08-09 21:00:19:349,-0.9881,-0.5877,9.5017,-0.6372,-0.1999,9.7839,0.0015,0.0014,0.0134
27707,47.175545,-1.596878,60.51,23.58,3.216,131.8,14 / 21,2770710,2019-08-09 21:00:19:448,-0.9432,-0.1848,9.8069,-0.6313,-0.2045,9.7842,-0.0076,-0.0004,-0.0183
27708,47.175545,-1.596878,60.51,23.58,3.216,131.8,14 / 21,2770811,2019-08-09 21:00:19:549,-0.9647,-0.3351,9.9805,-0.6554,-0.2085,9.7825,-0.0063,-0.0002,0.0223
27709,47.175545,-1.596878,60.51,23.58,3.216,131.8,14 / 21,2770911,2019-08-09 21:00:19:649,-0.347,-0.1884,9.4107,-0.6449,-0.2285,9.7828,-0.0036,0.0012,0.0181
27710,47.175545,-1.596878,60.51,23.58,3.216,131.8,14 / 21,2771011,2019-08-09 21:00:19:749,-0.6852,-0.2202,10.3354,-0.6434,-0.2293,9.7828,-0.0012,0.0217,-0.0101
27711,47.175545,-1.596878,60.51,23.58,3.216,131.8,14 / 21,2771110,2019-08-09 21:00:19:848,1.1554,-0.0927,9.8548,-0.6498,-0.2387,9.7822,0.0002,-0.0273,-0.0071
27712,47.175545,-1.596878,60.51,23.58,3.216,131.8,14 / 21,2771210,2019-08-09 21:00:19:948,-4.5327,-0.8055,9.422,-0.6608,-0.2405,9.7814,0.0137,0.0098,0.0303
27713,47.175545,-1.596878,60.51,23.58,3.216,131.8,14 / 21,2771310,2019-08-09 21:00:20:048,-2.6514,-0.3141,9.9452,-0.6693,-0.233,9.781,0.006,-0.0216,-0.0144
27714,47.175545,-1.596878,60.51,23.58,3.216,131.8,14 / 21,2771410,2019-08-09 21:00:20:148,-0.9144,-0.6403,10.0475,-0.6737,-0.2324,9.7807,0.0015,-0.0209,0.0147
27715,47.175545,-1.596878,60.51,23.58,3.216,131.8,14 / 21,2771510,2019-08-09 21:00:20:248,-0.684,-0.6619,9.361,-0.6718,-0.2352,9.7808,0.0202,0.0201,0.0168
27716,47.175545,-1.596878,60.51,23.58,3.216,131.8,14 / 20,2771610,2019-08-09 21:00:20:348,-0.0513,-0.5158,10.2223,-0.6789,-0.228,9.7805,0.001,0.0253,-0.0088
27717,47.175545,-1.596878,60.51,23.58,3.216,131.8,14 / 20,2771710,2019-08-09 21:00:20:448,-1.7799,-0.9025,9.7806,-0.6876,-0.2283,9.7799,0.0021,-0.0112,0.0385
27718,47.175545,-1.596878,60.51,23.58,3.216,131.8,14 / 20,2771810,2019-08-09 21:00:20:548,-0.3117,-0.5128,9.4675,-0.6812,-0.2252,9.7804,0.0199,-0.0047,0.0044
27719,47.175545,-1.596878,60.51,23.58,3.216,131.8,14 / 20,2771910,2019-08-09 21:00:20:648,-0.0471,0.1474,9.5891,-0.6674,-0.2013,9.7818,0.0131,-0.0244,-0.0186
27720,47.175545,-1.596878,60.51,23.58,3.216,131.8,14 / 20,2772010,2019-08-09 21:00:20:748,-0.6888,-0.6056,9.6788,-0.6517,-0.2025,9.7829,0.0093,-0.0031,0.0145
27721,47.175545,-1.596878,60.51,23.58,3.216,131.8,14 / 20,2772110,2019-08-09 21:00:20:848,0.1761,-0.6152,10.0266,-0.6686,-0.1899,9.782,0.0126,-0.0343,-0.0349
27722,47.175545,-1.596878,60.51,23.58,3.216,131.8,14 / 20,2772211,2019-08-09 21:00:20:949,1.0692,-0.3704,9.7985,-0.6434,-0.1901,9.7837,0.017,0.0559,0.0474
27723,47.175545,-1.596878,60.51,23.58,3.216,131.8,14 / 20,2772310,2019-08-09 21:00:21:048,1.9257,-0.1621,10.0308,-0.6585,-0.1967,9.7825,-0.0276,-0.0308,0.0238
27724,47.175545,-1.596878,60.51,23.58,3.216,131.8,14 / 20,2772410,2019-08-09 21:00:21:148,-2.9094,-0.5895,9.4705,-0.6666,-0.2164,9.7816,-0.0245,0.0041,0.0258
27725,47.175545,-1.596878,60.51,23.58,3.216,131.8,14 / 20,2772511,2019-08-09 21:00:21:249,-1.5812,-0.1771,10.0302,-0.6599,-0.2456,9.7813,-0.0211,-0.0358,0.0161
27726,47.175545,-1.596878,60.51,23.58,3.216,131.8,16 / 22,2772610,2019-08-09 21:00:21:348,-0.5721,-0.5793,9.7525,-0.642,-0.2633,9.7821,-0.0284,0.0135,0.0167
27727,47.175545,-1.596878,60.51,23.58,3.216,131.8,16 / 22,2772711,2019-08-09 21:00:21:449,-0.9815,-0.3357,9.6758,-0.6425,-0.2966,9.7811,-0.0158,0.0232,0.0045
27728,47.175545,-1.596878,60.51,23.58,3.216,131.8,16 / 22,2772811,2019-08-09 21:00:21:549,-0.7229,-0.5506,10.4516,-0.6664,-0.3077,9.7791,-0.0043,0.0315,-0.0013
27729,47.175545,-1.596878,60.51,23.58,3.216,131.8,16 / 22,2772910,2019-08-09 21:00:21:648,-0.8228,-0.3309,9.6854,-0.6792,-0.3078,9.7783,0.0083,0.0022,-0.0066
27730,47.175545,-1.596878,60.51,23.58,3.216,131.8,16 / 22,2773010,2019-08-09 21:00:21:748,-0.2764,-0.3327,9.2964,-0.676,-0.3002,9.7787,0.0124,-0.0257,-0.0079
27731,47.175545,-1.596878,60.51,23.58,3.216,131.8,16 / 22,2773110,2019-08-09 21:00:21:848,-0.1375,-0.043,9.5346,-0.6792,-0.2929,9.7787,-0.0138,-0.0072,-0.0048
27732,47.175545,-1.596878,60.51,23.58,3.216,131.8,16 / 22,2773210,2019-08-09 21:00:21:948,-0.3057,-0.3812,10.2983,-0.6805,-0.3093,9.7781,-0.0243,-0.0015,0.0178
27733,47.175545,-1.596878,60.51,23.58,3.216,131.8,16 / 22,2773310,2019-08-09 21:00:22:048,-0.9156,-0.8349,9.103,-0.6766,-0.3256,9.7779,0.0094,0.0057,0.0043
27734,47.175545,-1.596878,60.51,23.58,3.216,131.8,16 / 22,2773410,2019-08-09 21:00:22:148,-1.4573,-0.2872,9.4394,-0.681,-0.3201,9.7777,0.0199,0.0007,-0.0045
27735,47.175545,-1.596878,60.51,23.58,3.216,131.8,16 / 22,2773510,2019-08-09 21:00:22:248,0.145,-0.4201,10.0954,-0.6891,-0.3182,9.7772,-0.0108,-0.0089,0.0044
27736,47.175545,-1.596878,60.51,23.58,3.216,131.8,16 / 22,2773610,2019-08-09 21:00:22:348,-1.8446,-0.4835,9.1192,-0.6799,-0.3281,9.7775,-0.0005,-0.0185,-0.0009
27737,47.175545,-1.596878,60.51,23.58,3.216,131.8,16 / 22,2773710,2019-08-09 21:00:22:448,-2.2294,-0.3973,9.4173,-0.6886,-0.3172,9.7773,0.0178,-0.0168,-0.003
27738,47.175545,-1.596878,60.51,23.58,3.216,131.8,16 / 22,2773810,2019-08-09 21:00:22:548,-0.775,-0.5158,9.8734,-0.6953,-0.3013,9.7773,-0.0001,0.0052,-0.0247
27739,47.175545,-1.596878,60.51,23.58,3.216,131.8,16 / 22,2773910,2019-08-09 21:00:22:648,-1.8548,-0.1968,9.7495,-0.6959,-0.3048,9.7772,0.0051,0.0058,0.044
27740,47.175545,-1.596878,60.51,23.58,3.216,131.8,16 / 22,2774011,2019-08-09 21:00:22:749,-1.9984,0.06,9.8901,-0.711,-0.2996,9.7763,0.002,-0.0047,0.0167
27741,47.175545,-1.596878,60.51,23.58,3.216,131.8,16 / 22,2774111,2019-08-09 21:00:22:849,-0.2955,-0.1489,10.1481,-0.7026,-0.2983,9.7769,-0.0078,0.0165,-0.0175
27742,47.175545,-1.596878,60.51,23.58,3.216,131.8,16 / 22,2774211,2019-08-09 21:00:22:949,-0.5457,-0.793,8.7804,-0.7155,-0.2958,9.776,0.0115,0.0409,-0.025
27743,47.175545,-1.596878,60.51,23.58,3.216,131.8,16 / 22,2774311,2019-08-09 21:00:23:049,-0.8935,-0.6421,8.8175,-0.6842,-0.283,9.7787,0.0197,-0.0715,0.0163
27744,47.175545,-1.596878,60.51,23.58,3.216,131.8,16 / 22,2774411,2019-08-09 21:00:23:149,-0.438,-0.3423,9.4843,-0.6773,-0.2778,9.7793,0.0014,-0.0268,0.0112
27745,47.175545,-1.596878,60.51,23.58,3.216,131.8,16 / 22,2774510,2019-08-09 21:00:23:248,-1.2556,-0.3273,9.765,-0.6787,-0.2834,9.779,-0.0127,-0.0155,-0.022
27746,47.175545,-1.596878,60.51,23.58,3.216,131.8,16 / 22,2774610,2019-08-09 21:00:23:348,-0.5254,-0.2166,9.8997,-0.6906,-0.2857,9.7781,-0.0132,0.0408,-0.0109
27747,47.175545,-1.596878,60.51,23.58,3.216,131.8,16 / 22,2774710,2019-08-09 21:00:23:448,-0.2931,-0.2519,10.5641,-0.7089,-0.2917,9.7766,-0.0142,0.0336,0.0079
27748,47.175545,-1.596878,60.51,23.58,3.216,131.8,16 / 22,2774810,2019-08-09 21:00:23:548,-0.5733,0.0618,10.6144,-0.7648,-0.295,9.7723,-0.0045,0.0375,-0.0166
27749,47.175545,-1.596878,60.51,23.58,3.216,131.8,16 / 22,2774910,2019-08-09 21:00:23:648,-1.0545,-0.2399,9.1293,-0.7677,-0.2899,9.7723,0.0025,-0.0741,-0.0053
27750,47.175545,-1.596878,60.51,23.58,3.216,131.8,16 / 22,2775010,2019-08-09 21:00:23:748,0.8657,-0.2998,9.0402,-0.7124,-0.2824,9.7767,-0.0019,-0.0658,0.0143
27751,47.175545,-1.596878,60.51,23.58,3.216,131.8,16 / 22,2775110,2019-08-09 21:00:23:848,1.1422,-0.7068,9.6453,-0.725,-0.2905,9.7755,-0.0144,-0.0255,-0.0003
27752,47.175545,-1.596878,60.51,23.58,3.216,131.8,16 / 22,2775210,2019-08-09 21:00:23:948,-1.4196,0.1869,10.2199,-0.723,-0.3081,9.7751,-0.0244,0.0459,-0.0009
27753,47.175545,-1.596878,60.51,23.58,3.216,131.8,16 / 22,2775311,2019-08-09 21:00:24:049,0.3342,-0.3686,9.7441,-0.7194,-0.3209,9.775,0.0003,0.0469,-0.0125
27754,47.175545,-1.596878,60.51,23.58,3.216,131.8,16 / 22,2775410,2019-08-09 21:00:24:148,1.0021,-0.2896,9.4663,-0.7232,-0.3165,9.7748,0.0187,0.063,0.0027
27755,47.175545,-1.596878,60.51,23.58,3.216,131.8,16 / 22,2775510,2019-08-09 21:00:24:248,-1.2365,-0.265,10.005,-0.7391,-0.3046,9.774,0.0115,-0.0448,-0.0152
27756,47.175545,-1.596878,60.51,23.58,3.216,131.8,14 / 20,2775610,2019-08-09 21:00:24:348,0.8142,-0.4159,9.8434,-0.7042,-0.2868,9.7771,-0.0042,-0.0145,-0.0411
27757,47.175545,-1.596878,60.51,23.58,3.216,131.8,14 / 20,2775710,2019-08-09 21:00:24:448,1.7138,-0.541,9.7656,-0.7262,-0.2831,9.7756,-0.0008,-0.0008,0.0392
27758,47.175545,-1.596878,60.51,23.58,3.216,131.8,14 / 20,2775810,2019-08-09 21:00:24:548,-1.6111,-0.1471,9.5136,-0.7,-0.2865,9.7774,-0.0027,0.0069,0.0185
27759,47.175545,-1.596878,60.51,23.58,3.216,131.8,14 / 20,2775910,2019-08-09 21:00:24:648,-0.2889,-0.0897,9.8943,-0.6979,-0.2889,9.7775,-0.0102,0.0103,-0.0198
27760,47.175545,-1.596878,60.51,23.58,3.216,131.8,14 / 20,2776010,2019-08-09 21:00:24:748,-0.3985,-0.796,9.4245,-0.7109,-0.2926,9.7765,0.0211,0.0355,-0.0081
27761,47.175545,-1.596878,60.51,23.58,3.216,131.8,14 / 20,2776110,2019-08-09 21:00:24:848,-0.1076,-0.1028,9.9398,-0.7158,-0.2818,9.7764,0.0301,-0.008,0.011
27762,47.175545,-1.596878,60.51,23.58,3.216,131.8,14 / 20,2776211,2019-08-09 21:00:24:949,-0.9659,0.3036,10.8502,-0.7044,-0.2513,9.7781,0.0126,-0.0856,0.0391
27763,47.175545,-1.596878,60.51,23.58,3.216,131.8,14 / 20,2776311,2019-08-09 21:00:25:049,-1.7129,0.1581,9.5956,-0.7174,-0.2488,9.7772,0.0062,0.0368,-0.0252
27764,47.175545,-1.596878,60.51,23.58,3.216,131.8,14 / 20,2776410,2019-08-09 21:00:25:148,1.6145,-0.1639,9.6004,-0.7069,-0.2554,9.7778,-0.0105,-0.0055,0.0029
27765,47.175545,-1.596878,60.51,23.58,3.216,131.8,14 / 20,2776510,2019-08-09 21:00:25:248,0.5239,-0.3644,10.4001,-0.7211,-0.262,9.7766,-0.0064,0.0516,0.0027
27766,47.175545,-1.596878,60.51,23.58,3.216,131.8,17 / 23,2776612,2019-08-09 21:00:25:350,-0.514,-0.7074,9.2539,-0.7085,-0.2646,9.7774,0.0153,0.0294,0.0037
27767,47.175545,-1.596878,60.51,23.58,3.216,131.8,17 / 23,2776710,2019-08-09 21:00:25:448,0.2779,-0.1537,9.7932,-0.6981,-0.2551,9.7784,0.0108,-0.0387,-0.0113
27768,47.175545,-1.596878,60.51,23.58,3.216,131.8,17 / 23,2776810,2019-08-09 21:00:25:548,-0.0334,-0.8468,9.3975,-0.6557,-0.2633,9.7812,0.0032,0.0248,0.0098
27769,47.175545,-1.596878,60.51,23.58,3.216,131.8,17 / 23,2776911,2019-08-09 21:00:25:649,0.5754,-0.4087,9.9051,-0.6614,-0.2723,9.7805,-0.019,0.0058,0.0141
27770,47.175545,-1.596878,60.51,23.58,3.216,131.8,17 / 23,2777011,2019-08-09 21:00:25:749,0.1313,-0.4602,9.5615,-0.6566,-0.2881,9.7804,-0.0061,0.0005,0.0184
27771,47.175545,-1.596878,60.51,23.58,3.216,131.8,17 / 23,2777110,2019-08-09 21:00:25:848,-1.3418,-0.3853,9.9368,-0.6758,-0.2958,9.7789,0.0039,0.0185,0.0108
27772,47.175545,-1.596878,60.51,23.58,3.216,131.8,17 / 23,2777210,2019-08-09 21:00:25:948,-1.3735,-0.0119,9.2485,-0.686,-0.2909,9.7783,-0.0013,-0.0357,-0.0251
27773,47.175545,-1.596878,60.51,23.58,3.216,131.8,17 / 23,2777310,2019-08-09 21:00:26:048,-0.4164,-0.2573,9.6447,-0.6496,-0.2863,9.7809,0.0148,0.0343,-0.0098
27774,47.175545,-1.596878,60.51,23.58,3.216,131.8,17 / 23,2777410,2019-08-09 21:00:26:148,-1.015,-0.2225,10.0805,-0.6751,-0.2748,9.7795,0.0049,-0.0377,-0.0137
27775,47.175545,-1.596878,60.51,23.58,3.216,131.8,17 / 23,2777510,2019-08-09 21:00:26:248,-1.6985,0.0911,9.8315,-0.6705,-0.2686,9.78,-0.0054,0.0138,-0.0058
27776,47.174305,-1.594842,60.52,22.55,3.216,131.1,15 / 20,2777610,2019-08-09 21:00:26:348,-1.0683,-0.0597,9.3706,-0.6653,-0.2621,9.7806,0.0075,0.0141,-0.0039
27777,47.174305,-1.594842,60.52,22.55,3.216,131.1,15 / 20,2777710,2019-08-09 21:00:26:448,-0.7373,-0.6206,9.8093,-0.6486,-0.2566,9.7818,0.0042,-0.0216,-0.0191
27778,47.174305,-1.594842,60.52,22.55,3.216,131.1,15 / 20,2777810,2019-08-09 21:00:26:548,-2.4078,-0.4967,9.2353,-0.662,-0.25,9.7811,0.0067,0.0088,0.0185
27779,47.174305,-1.594842,60.52,22.55,3.216,131.1,15 / 20,2777911,2019-08-09 21:00:26:649,-2.3952,-0.0328,9.3311,-0.6362,-0.2486,9.7828,0.0015,-0.0204,-0.0118
27780,47.174305,-1.594842,60.52,22.55,3.216,131.1,15 / 20,2778010,2019-08-09 21:00:26:748,0.4533,-0.0897,9.8111,-0.6137,-0.2497,9.7842,-0.0138,0.0308,0.0106
27781,47.174305,-1.594842,60.52,22.55,3.216,131.1,15 / 20,2778110,2019-08-09 21:00:26:848,-1.0641,-0.4392,9.6776,-0.6193,-0.2799,9.7831,-0.0278,0.0053,0.0255
27782,47.174305,-1.594842,60.52,22.55,3.216,131.1,15 / 20,2778211,2019-08-09 21:00:26:949,-1.44,-0.5092,9.6208,-0.6093,-0.3019,9.783,-0.0185,0.0104,0.0016
27783,47.174305,-1.594842,60.52,22.55,3.216,131.1,15 / 20,2778310,2019-08-09 21:00:27:048,1.1943,-0.1537,8.5661,-0.5976,-0.3192,9.7832,-0.0006,-0.0521,0.0284
27784,47.174305,-1.594842,60.52,22.55,3.216,131.1,15 / 20,2778410,2019-08-09 21:00:27:148,0.8573,-0.0107,9.5334,-0.6285,-0.3227,9.7812,-0.0017,-0.0159,0.024
27785,47.174305,-1.594842,60.52,22.55,3.216,131.1,15 / 20,2778511,2019-08-09 21:00:27:249,-1.0916,-0.2632,10.1918,-0.6306,-0.3233,9.781,0.0331,0.0118,0.0275
27786,47.174305,-1.594842,60.52,22.55,3.216,131.1,15 / 21,2778611,2019-08-09 21:00:27:349,-0.356,-0.5338,10.002,-0.635,-0.3067,9.7813,0.0331,0.0118,0.0275
27787,47.174305,-1.594842,60.52,22.55,3.216,131.1,15 / 21,2778710,2019-08-09 21:00:27:448,-1.0012,-0.1088,10.0212,-0.6712,-0.2691,9.7799,0.0182,-0.037,0.0034
27788,47.174305,-1.594842,60.52,22.55,3.216,131.1,15 / 21,2778810,2019-08-09 21:00:27:548,-1.5285,-0.4853,9.5555,-0.6628,-0.2521,9.781,0.0226,0.0037,0.0089
27789,47.174305,-1.594842,60.52,22.55,3.216,131.1,15 / 21,2778911,2019-08-09 21:00:27:649,0.2839,-0.052,9.7848,-0.6623,-0.2299,9.7816,0.0126,-0.007,-0.0258
27790,47.174305,-1.594842,60.52,22.55,3.216,131.1,15 / 21,2779010,2019-08-09 21:00:27:748,0.74,-0.3004,10.2343,-0.6644,-0.2175,9.7817,0.0167,-0.0132,0.0194
27791,47.174305,-1.594842,60.52,22.55,3.216,131.1,15 / 21,2779110,2019-08-09 21:00:27:848,0.0109,-0.4057,9.4113,-0.6568,-0.199,9.7826,0.0173,-0.0337,-0.0114
27792,47.174305,-1.594842,60.52,22.55,3.216,131.1,15 / 21,2779211,2019-08-09 21:00:27:949,-1.1892,-0.1848,9.1838,-0.6424,-0.1892,9.7838,0.0153,-0.0322,0.0097
27793,47.174305,-1.594842,60.52,22.55,3.216,131.1,15 / 21,2779311,2019-08-09 21:00:28:049,1.8479,0.2491,9.2036,-0.6808,-0.1853,9.7812,-0.0121,0.07,-0.0065
27794,47.174305,-1.594842,60.52,22.55,3.216,131.1,15 / 21,2779411,2019-08-09 21:00:28:149,-1.2712,-0.3943,9.0539,-0.616,-0.193,9.7854,-0.0135,-0.0255,0.0082
27795,47.174305,-1.594842,60.52,22.55,3.216,131.1,15 / 21,2779511,2019-08-09 21:00:28:249,2.0454,-0.0897,9.6609,-0.6382,-0.1908,9.784,0.0191,-0.0654,0.0424
27796,47.174305,-1.594842,60.52,22.55,3.216,131.1,18 / 23,2779614,2019-08-09 21:00:28:352,-2.2648,-0.2716,10.0499,-0.638,-0.195,9.7839,-0.0077,0.0495,-0.0406
27797,47.174305,-1.594842,60.52,22.55,3.216,131.1,18 / 23,2779711,2019-08-09 21:00:28:449,-1.4423,-0.1735,10.3313,-0.6533,-0.1845,9.7831,0.006,0.0449,-0.0095
27798,47.174305,-1.594842,60.52,22.55,3.216,131.1,18 / 23,2779810,2019-08-09 21:00:28:548,-0.1944,-0.1681,9.4837,-0.6303,-0.1787,9.7847,0.0067,-0.0127,0.0026
27799,47.174305,-1.594842,60.52,22.55,3.216,131.1,18 / 23,2779910,2019-08-09 21:00:28:648,-0.1656,0.1037,9.34,-0.6448,-0.1706,9.7842,0.0055,0.0048,-0.0374
27800,47.174305,-1.594842,60.52,22.55,3.216,131.1,18 / 23,2780010,2019-08-09 21:00:28:748,-1.8063,-0.2848,9.6758,-0.6582,-0.1684,9.7831,-0.0121,-0.0044,0.0011
27801,47.174305,-1.594842,60.52,22.55,3.216,131.1,18 / 23,2780110,2019-08-09 21:00:28:848,0.5532,-0.201,9.6704,-0.6562,-0.1758,9.7831,-0.0025,-0.0333,0.0095
27802,47.174305,-1.594842,60.52,22.55,3.216,131.1,18 / 23,2780210,2019-08-09 21:00:28:948,0.3731,-0.0089,9.6806,-0.6498,-0.1754,9.7835,0.0011,-0.0199,-0.0202
27803,47.174305,-1.594842,60.52,22.55,3.216,131.1,18 / 23,2780310,2019-08-09 21:00:29:048,-0.3284,-0.1585,10.1475,-0.6434,-0.174,9.784,-0.0069,0.017,0.0101
27804,47.174305,-1.594842,60.52,22.55,3.216,131.1,18 / 23,2780410,2019-08-09 21:00:29:148,-1.5986,-0.4446,9.7112,-0.6454,-0.1745,9.7838,0.0106,-0.0173,-0.0259
27805,47.174305,-1.594842,60.52,22.55,3.216,131.1,18 / 23,2780510,2019-08-09 21:00:29:248,-1.3675,-0.4081,9.4837,-0.6463,-0.1711,9.7838,0.0298,-0.0105,0.0269
27806,47.174305,-1.594842,60.52,22.55,3.216,131.1,18 / 23,2780610,2019-08-09 21:00:29:348,0.5814,-0.1364,10.3414,-0.6574,-0.143,9.7835,0.0105,0.0239,0.0217
27807,47.174305,-1.594842,60.52,22.55,3.216,131.1,18 / 23,2780710,2019-08-09 21:00:29:448,-1.601,-0.1399,9.9296,-0.6789,-0.132,9.7822,0.0124,-0.0074,-0.0305
27808,47.174305,-1.594842,60.52,22.55,3.216,131.1,18 / 23,2780810,2019-08-09 21:00:29:548,-2.2468,-0.6942,9.944,-0.6964,-0.1172,9.7812,0.0179,0.0548,0.0165
27809,47.174305,-1.594842,60.52,22.55,3.216,131.1,18 / 23,2780910,2019-08-09 21:00:29:648,-1.2927,-0.2866,10.7682,-0.7097,-0.1059,9.7804,0.0153,-0.0047,0.0326
27810,47.174305,-1.594842,60.52,22.55,3.216,131.1,18 / 23,2781010,2019-08-09 21:00:29:748,0.4449,0.1162,9.2634,-0.7267,-0.0933,9.7792,0.011,0.0195,0.0116
27811,47.174305,-1.594842,60.52,22.55,3.216,131.1,18 / 23,2781111,2019-08-09 21:00:29:849,-3.9491,-0.3135,10.3564,-0.693,-0.086,9.7818,0.0011,-0.0214,-0.0057
27812,47.174305,-1.594842,60.52,22.55,3.216,131.1,18 / 23,2781211,2019-08-09 21:00:29:949,-6.302,-0.7164,9.0348,-0.6916,-0.0807,9.7819,0.007,0.0402,0.0386
27813,47.174305,-1.594842,60.52,22.55,3.216,131.1,18 / 23,2781310,2019-08-09 21:00:30:048,0.9698,0.321,9.2317,-0.73,-0.081,9.7791,0.007,-0.1254,-0.0339
27814,47.174305,-1.594842,60.52,22.55,3.216,131.1,18 / 23,2781410,2019-08-09 21:00:30:148,0.2593,-0.0328,9.3233,-0.6617,-0.0642,9.7841,0.0099,-0.0362,-0.0143
27815,47.174305,-1.594842,60.52,22.55,3.216,131.1,18 / 23,2781510,2019-08-09 21:00:30:248,0.2157,0.3233,9.9907,-0.6761,-0.055,9.7832,-0.0056,0.0168,-0.0163
27816,47.174305,-1.594842,60.52,22.55,3.216,131.1,18 / 23,2781610,2019-08-09 21:00:30:348,-0.9025,-0.3949,10.0751,-0.6822,-0.0606,9.7827,-0.0038,0.0088,0.0199
27817,47.174305,-1.594842,60.52,22.55,3.216,131.1,18 / 23,2781710,2019-08-09 21:00:30:448,-0.9019,-0.2668,9.7123,-0.6784,-0.0678,9.7829,-0.0115,0.0453,0.0022
27818,47.174305,-1.594842,60.52,22.55,3.216,131.1,18 / 23,2781810,2019-08-09 21:00:30:548,-1.164,-0.5356,9.9577,-0.6904,-0.0883,9.7819,-0.0261,-0.0293,0.009
27819,47.174305,-1.594842,60.52,22.55,3.216,131.1,18 / 23,2781910,2019-08-09 21:00:30:648,-0.5427,0.1534,9.5687,-0.6984,-0.1068,9.7812,-0.0226,0.0175,0.0026
27820,47.174305,-1.594842,60.52,22.55,3.216,131.1,18 / 23,2782011,2019-08-09 21:00:30:749,0.7735,-0.3219,9.5891,-0.6695,-0.1353,9.7828,-0.0268,-0.0034,-0.0127
27821,47.174305,-1.594842,60.52,22.55,3.216,131.1,18 / 23,2782111,2019-08-09 21:00:30:849,0.8735,-0.2608,9.8841,-0.6619,-0.1459,9.7832,-0.0245,-0.0033,0.003
27822,47.174305,-1.594842,60.52,22.55,3.216,131.1,18 / 23,2782211,2019-08-09 21:00:30:949,-1.8284,-0.1094,10.26,-0.6646,-0.1826,9.7824,-0.0182,0.0269,0.0047
27823,47.174305,-1.594842,60.52,22.55,3.216,131.1,18 / 23,2782311,2019-08-09 21:00:31:049,-0.7588,-0.5703,9.8225,-0.6821,-0.1946,9.781,0.0098,0.0108,0.0077
27824,47.174305,-1.594842,60.52,22.55,3.216,131.1,18 / 23,2782410,2019-08-09 21:00:31:148,0.3976,0.0965,9.792,-0.7021,-0.1804,9.7798,0.0124,0.0176,-0.0294
27825,47.174305,-1.594842,60.52,22.55,3.216,131.1,18 / 23,2782510,2019-08-09 21:00:31:248,-2.3492,-0.0364,10.1223,-0.7207,-0.1691,9.7787,0.002,0.0182,0.0095
27826,47.174305,-1.594842,60.52,22.55,3.216,131.1,17 / 22,2782610,2019-08-09 21:00:31:348,-2.6891,-0.1112,9.5615,-0.7128,-0.1637,9.7793,0.0042,-0.0125,-0.0072
27827,47.174305,-1.594842,60.52,22.55,3.216,131.1,17 / 22,2782710,2019-08-09 21:00:31:448,-2.8316,-0.1417,9.8398,-0.7061,-0.1599,9.7799,0.0056,0.0426,0.0083
27828,47.174305,-1.594842,60.52,22.55,3.216,131.1,17 / 22,2782811,2019-08-09 21:00:31:549,-2.321,-0.1836,10.2462,-0.7235,-0.1584,9.7786,-0.0099,0.0552,0.0096
27829,47.174305,-1.594842,60.52,22.55,3.216,131.1,17 / 22,2782910,2019-08-09 21:00:31:648,0.825,-0.0591,9.8291,-0.7236,-0.1645,9.7785,-0.011,-0.0074,0.0022
27830,47.174305,-1.594842,60.52,22.55,3.216,131.1,17 / 22,2783010,2019-08-09 21:00:31:748,-0.4116,-0.0484,9.3251,-0.7134,-0.1694,9.7792,0.0006,-0.0113,-0.0194
27831,47.174305,-1.594842,60.52,22.55,3.216,131.1,17 / 22,2783111,2019-08-09 21:00:31:849,-0.6217,-0.0047,10.0122,-0.7185,-0.1639,9.7789,0.0008,-0.0114,-0.0463
27832,47.174305,-1.594842,60.52,22.55,3.216,131.1,17 / 22,2783211,2019-08-09 21:00:31:949,0.2558,0.0354,9.5705,-0.7083,-0.1557,9.7798,0.006,-0.0193,0.0596
27833,47.174305,-1.594842,60.52,22.55,3.216,131.1,17 / 22,2783311,2019-08-09 21:00:32:049,-0.11,-0.0705,9.4286,-0.6935,-0.1611,9.7808,0.0142,0.023,0.0127
27834,47.174305,-1.594842,60.52,22.55,3.216,131.1,17 / 22,2783411,2019-08-09 21:00:32:149,-0.587,0.0121,10.2295,-0.6898,-0.1487,9.7812,-0.0004,-0.0046,-0.003
27835,47.174305,-1.594842,60.52,22.55,3.216,131.1,17 / 22,2783511,2019-08-09 21:00:32:249,-0.2919,0.0265,9.9003,-0.6967,-0.1526,9.7807,-0.0128,0.0093,-0.0061
27836,47.174305,-1.594842,60.52,22.55,3.216,131.1,17 / 22,2783611,2019-08-09 21:00:32:349,-0.3566,-0.6074,10.02,-0.6793,-0.1552,9.7819,0.0081,-0.0264,-0.0405
27837,47.174305,-1.594842,60.52,22.55,3.216,131.1,17 / 22,2783711,2019-08-09 21:00:32:449,-0.1429,-0.3716,10.5503,-0.6796,-0.1336,9.7822,-0.0012,0.0283,0.0339
27838,47.174305,-1.594842,60.52,22.55,3.216,131.1,17 / 22,2783810,2019-08-09 21:00:32:548,-1.2771,0.4772,10.0332,-0.6828,-0.139,9.7819,-0.0267,-0.0073,-0.022
27839,47.174305,-1.594842,60.52,22.55,3.216,131.1,17 / 22,2783910,2019-08-09 21:00:32:648,-1.2754,0.1354,9.1294,-0.6639,-0.1608,9.7828,-0.013,0.1122,-0.0337
27840,47.174305,-1.594842,60.52,22.55,3.216,131.1,17 / 22,2784010,2019-08-09 21:00:32:748,-1.3196,0.5831,9.6112,-0.6867,-0.1561,9.7813,-0.009,0.1138,-0.0521
27841,47.174305,-1.594842,60.52,22.55,3.216,131.1,17 / 22,2784110,2019-08-09 21:00:32:848,1.3894,-0.4889,9.8147,-0.662,-0.154,9.7831,-0.0009,-0.0691,0.0256
27842,47.174305,-1.594842,60.52,22.55,3.216,131.1,17 / 22,2784210,2019-08-09 21:00:32:948,0.5981,-0.3273,9.5472,-0.6721,-0.1591,9.7823,0.011,-0.0067,0.0052
27843,47.174305,-1.594842,60.52,22.55,3.216,131.1,17 / 22,2784310,2019-08-09 21:00:33:048,-0.915,-0.0903,10.7766,-0.6948,-0.1428,9.781,0.0066,0.0623,-0.0025
27844,47.174305,-1.594842,60.52,22.55,3.216,131.1,17 / 22,2784411,2019-08-09 21:00:33:149,-0.2267,0.224,9.3861,-0.6924,-0.1384,9.7812,-0.0062,-0.0586,-0.0094
27845,47.174305,-1.594842,60.52,22.55,3.216,131.1,17 / 22,2784510,2019-08-09 21:00:33:248,0.5047,0.136,9.3221,-0.7061,-0.1431,9.7801,-0.0105,-0.0197,-0.0064
27846,47.174305,-1.594842,60.52,22.55,3.216,131.1,17 / 22,2784610,2019-08-09 21:00:33:348,0.2324,-0.2142,8.8127,-0.7206,-0.1495,9.779,-0.0137,-0.0344,-0.013
27847,47.174305,-1.594842,60.52,22.55,3.216,131.1,17 / 22,2784711,2019-08-09 21:00:33:449,-2.1977,-0.1729,9.8015,-0.7055,-0.1584,9.78,-0.0066,0.0002,0.0147
27848,47.174305,-1.594842,60.52,22.55,3.216,131.1,17 / 22,2784810,2019-08-09 21:00:33:548,-0.2279,0.1863,9.9823,-0.6972,-0.1649,9.7804,-0.0214,-0.0071,-0.0079
27849,47.174305,-1.594842,60.52,22.55,3.216,131.1,17 / 22,2784911,2019-08-09 21:00:33:649,-1.4016,-0.3794,9.4999,-0.6999,-0.1832,9.7799,-0.0135,-0.0109,0.0138
27850,47.174305,-1.594842,60.52,22.55,3.216,131.1,17 / 22,2785010,2019-08-09 21:00:33:748,-0.4152,-0.0735,9.8309,-0.7076,-0.1822,9.7794,0.004,0.0244,-0.0293
27851,47.174305,-1.594842,60.52,22.55,3.216,131.1,17 / 22,2785111,2019-08-09 21:00:33:849,-0.8863,-0.2752,9.8728,-0.7295,-0.1786,9.7778,0.0047,-0.0141,0.0053
27852,47.174305,-1.594842,60.52,22.55,3.216,131.1,17 / 22,2785210,2019-08-09 21:00:33:948,-1.1167,-0.2309,9.3035,-0.728,-0.1789,9.778,0.0047,-0.0141,0.0053
27853,47.174305,-1.594842,60.52,22.55,3.216,131.1,17 / 22,2785310,2019-08-09 21:00:34:048,-2.0906,-0.0089,10.017,-0.7559,-0.1569,9.7762,0.0117,0.0056,-0.0115
27854,47.174305,-1.594842,60.52,22.55,3.216,131.1,17 / 22,2785410,2019-08-09 21:00:34:148,-1.1293,-0.1968,10.3947,-0.7637,-0.1481,9.7757,0.0042,0.0242,0.0145
27855,47.174305,-1.594842,60.52,22.55,3.216,131.1,17 / 22,2785510,2019-08-09 21:00:34:248,-1.9104,-0.1986,9.3891,-0.7975,-0.1337,9.7733,0.0228,0.0141,-0.0082
27856,47.174305,-1.594842,60.52,22.55,3.216,131.1,17 / 22,2785611,2019-08-09 21:00:34:349,-2.3893,-0.013,9.6016,-0.7997,-0.1225,9.7732,0.0196,-0.017,-0.0001
27857,47.174305,-1.594842,60.52,22.55,3.216,131.1,17 / 22,2785711,2019-08-09 21:00:34:449,-1.8272,0.1695,9.9889,-0.8202,-0.1106,9.7717,-0.0135,0.0079,-0.0042
27858,47.174305,-1.594842,60.52,22.55,3.216,131.1,17 / 22,2785811,2019-08-09 21:00:34:549,-0.0034,-0.1747,9.7153,-0.8134,-0.1131,9.7722,-0.0087,-0.0455,0.0206
27859,47.174305,-1.594842,60.52,22.55,3.216,131.1,17 / 22,2785910,2019-08-09 21:00:34:648,1.0363,-0.0555,9.2521,-0.821,-0.1225,9.7715,0.0004,0.0147,0.0033
27860,47.174305,-1.594842,60.52,22.55,3.216,131.1,17 / 22,2786010,2019-08-09 21:00:34:748,-0.5625,-0.1118,10.0445,-0.8325,-0.1255,9.7704,-0.0133,-0.0173,-0.0079
27861,47.174305,-1.594842,60.52,22.55,3.216,131.1,17 / 22,2786110,2019-08-09 21:00:34:848,-1.3472,-0.3584,9.7363,-0.8473,-0.1407,9.769,-0.005,0.0037,0.0156
27862,47.174305,-1.594842,60.52,22.55,3.216,131.1,17 / 22,2786211,2019-08-09 21:00:34:949,-0.0417,-0.4512,9.2748,-0.8395,-0.1428,9.7696,0.0077,-0.0356,0.0101
27863,47.174305,-1.594842,60.52,22.55,3.216,131.1,17 / 22,2786311,2019-08-09 21:00:35:049,-0.4398,-0.0891,10.0128,-0.8588,-0.1447,9.7679,-0.0041,0.0187,-0.0009
27864,47.174305,-1.594842,60.52,22.55,3.216,131.1,17 / 22,2786411,2019-08-09 21:00:35:149,-1.902,-0.3692,9.2569,-0.8443,-0.1457,9.7691,0.0022,-0.0545,0.0152
27865,47.174305,-1.594842,60.52,22.55,3.216,131.1,17 / 22,2786511,2019-08-09 21:00:35:249,-0.4332,-0.6721,9.2251,-0.849,-0.1497,9.7687,0.0125,0.0117,-0.0166
27866,47.173134,-1.592856,66.65,22.29,3.216,130.8,18 / 23,2786611,2019-08-09 21:00:35:349,0.7226,0.7956,9.6238,-0.8696,-0.1318,9.7671,-0.0127,-0.0242,-0.0196
27867,47.173134,-1.592856,66.65,22.29,3.216,130.8,18 / 23,2786711,2019-08-09 21:00:35:449,1.6953,0.5113,9.3053,-0.8539,-0.1507,9.7682,-0.0083,-0.0191,0.0041
27868,47.173134,-1.592856,66.65,22.29,3.216,130.8,18 / 23,2786810,2019-08-09 21:00:35:548,-3.4295,-1.3376,9.3879,-0.8694,-0.1463,9.7669,-0.0011,0.0209,0.0721
27869,47.173134,-1.592856,66.65,22.29,3.216,130.8,18 / 23,2786910,2019-08-09 21:00:35:648,-2.0104,-0.9743,9.4819,-0.874,-0.162,9.7663,-0.0133,-0.0072,-0.0046
27870,47.173134,-1.592856,66.65,22.29,3.216,130.8,18 / 23,2787010,2019-08-09 21:00:35:748,-0.1106,-0.596,9.6363,-0.863,-0.1817,9.7669,-0.0092,-0.0182,0.0243
27871,47.173134,-1.592856,66.65,22.29,3.216,130.8,18 / 23,2787110,2019-08-09 21:00:35:848,-1.082,-0.3842,10.2259,-0.8452,-0.1938,9.7682,-0.0128,0.0428,0.0002
27872,47.173134,-1.592856,66.65,22.29,3.216,130.8,18 / 23,2787210,2019-08-09 21:00:35:948,-1.4196,-0.6822,9.4209,-0.8606,-0.2188,9.7664,0.0014,-0.0029,0.0053
27873,47.173134,-1.592856,66.65,22.29,3.216,130.8,18 / 23,2787310,2019-08-09 21:00:36:048,-1.3496,-0.2184,9.8829,-0.8767,-0.2206,9.7649,-0.01,-0.0264,0.0136
27874,47.173134,-1.592856,66.65,22.29,3.216,130.8,18 / 23,2787410,2019-08-09 21:00:36:148,-0.7283,-0.3734,9.8165,-0.8807,-0.2311,9.7643,-0.0067,0.0114,0.0315
27875,47.173134,-1.592856,66.65,22.29,3.216,130.8,18 / 23,2787511,2019-08-09 21:00:36:249,-0.0022,-0.5242,9.8021,-0.8683,-0.2442,9.7651,-0.0112,-0.0039,-0.0022
27876,47.173134,-1.592856,66.65,22.29,3.216,130.8,16 / 21,2787610,2019-08-09 21:00:36:348,-0.0914,-0.268,10.2331,-0.8859,-0.2563,9.7632,-0.0109,0.0262,0.0002
27877,47.173134,-1.592856,66.65,22.29,3.216,130.8,16 / 21,2787710,2019-08-09 21:00:36:448,-1.6183,-0.939,9.0641,-0.858,-0.2607,9.7656,-0.0053,-0.0445,0.0462
27878,47.173134,-1.592856,66.65,22.29,3.216,130.8,16 / 21,2787810,2019-08-09 21:00:36:548,-1.0198,-1.4083,9.3526,-0.8508,-0.2734,9.7658,0.0222,-0.0303,0.0668
27879,47.173134,-1.592856,66.65,22.29,3.216,130.8,16 / 21,2787910,2019-08-09 21:00:36:648,-0.0394,-0.8103,9.7908,-0.8435,-0.281,9.7663,-0.0135,0.0009,0.0537
27880,47.173134,-1.592856,66.65,22.29,3.216,130.8,16 / 21,2788010,2019-08-09 21:00:36:748,-1.3705,0.0444,9.8847,-0.8459,-0.3045,9.7654,-0.0313,0.0178,-0.0179
27881,47.173134,-1.592856,66.65,22.29,3.216,130.8,16 / 21,2788110,2019-08-09 21:00:36:848,-2.986,-0.4278,8.8049,-0.8185,-0.314,9.7674,0.0023,0.0788,-0.0071
27882,47.173134,-1.592856,66.65,22.29,3.216,130.8,16 / 21,2788212,2019-08-09 21:00:36:950,-2.6831,-0.3069,10.527,-0.8208,-0.3146,9.7672,-0.0137,0.0722,0.0114
27883,47.173134,-1.592856,66.65,22.29,3.216,130.8,16 / 21,2788311,2019-08-09 21:00:37:049,-0.8438,-0.3435,10.3109,-0.8653,-0.3242,9.763,-0.0137,0.0722,0.0114
27884,47.173134,-1.592856,66.65,22.29,3.216,130.8,16 / 21,2788410,2019-08-09 21:00:37:148,-0.6876,-0.4374,9.3466,-0.8571,-0.3238,9.7638,0.0182,-0.0047,0.0086
27885,47.173134,-1.592856,66.65,22.29,3.216,130.8,16 / 21,2788510,2019-08-09 21:00:37:248,0.2833,-0.447,10.0535,-0.8568,-0.3091,9.7643,0.0157,-0.0154,0.0224
27886,47.173134,-1.592856,66.65,22.29,3.216,130.8,16 / 21,2788610,2019-08-09 21:00:37:348,-0.5128,-0.292,10.2002,-0.863,-0.2942,9.7642,0.016,0.0276,0.022
27887,47.173134,-1.592856,66.65,22.29,3.216,130.8,16 / 21,2788711,2019-08-09 21:00:37:449,-0.5475,-0.2417,9.7536,-0.8576,-0.2875,9.7648,0.0124,0.0154,0.0075
27888,47.173134,-1.592856,66.65,22.29,3.216,130.8,16 / 21,2788811,2019-08-09 21:00:37:549,1.1841,0.1504,10.3067,-0.8797,-0.278,9.7632,-0.0128,0.0063,0.0088
27889,47.173134,-1.592856,66.65,22.29,3.216,130.8,16 / 21,2788911,2019-08-09 21:00:37:649,-2.7741,-0.5901,9.7662,-0.8713,-0.2826,9.7638,-0.0179,0.027,0.017
27890,47.173134,-1.592856,66.65,22.29,3.216,130.8,16 / 21,2789010,2019-08-09 21:00:37:748,-1.7117,-0.7068,9.9093,-0.8535,-0.3119,9.7645,-0.0298,-0.0567,0.0033
27891,47.173134,-1.592856,66.65,22.29,3.216,130.8,16 / 21,2789111,2019-08-09 21:00:37:849,-0.2016,-0.6326,9.6214,-0.8573,-0.3346,9.7634,-0.0307,0.0385,0.0507
27892,47.173134,-1.592856,66.65,22.29,3.216,130.8,16 / 21,2789210,2019-08-09 21:00:37:948,-0.4033,-0.5613,9.9111,-0.8207,-0.3791,9.7649,-0.0183,-0.0224,0.0333
27893,47.173134,-1.592856,66.65,22.29,3.216,130.8,16 / 21,2789310,2019-08-09 21:00:38:048,0.081,-0.5464,9.8219,-0.8204,-0.396,9.7642,-0.0183,-0.0063,0.0048
27894,47.173134,-1.592856,66.65,22.29,3.216,130.8,16 / 21,2789412,2019-08-09 21:00:38:150,1.5337,-0.5105,10.2283,-0.7984,-0.4223,9.765,-0.0194,0.0277,0.0108
27895,47.173134,-1.592856,66.65,22.29,3.216,130.8,16 / 21,2789510,2019-08-09 21:00:38:248,-0.778,-0.4751,9.7453,-0.7846,-0.4403,9.7653,-0.0184,-0.0047,0.0253
27896,47.173134,-1.592856,66.65,22.29,3.216,130.8,16 / 21,2789611,2019-08-09 21:00:38:349,2.7619,-0.0897,10.831,-0.8042,-0.4528,9.7631,0.0017,-0.0085,0.0215
27897,47.173134,-1.592856,66.65,22.29,3.216,130.8,16 / 21,2789711,2019-08-09 21:00:38:449,3.5394,-0.1375,10.3684,-0.7789,-0.4489,9.7654,0.0181,-0.0998,-0.0027
27898,47.173134,-1.592856,66.65,22.29,3.216,130.8,16 / 21,2789811,2019-08-09 21:00:38:549,-3.1835,-1.094,8.8708,-0.7535,-0.4229,9.7685,0.0278,0.0444,0.0067
27899,47.173134,-1.592856,66.65,22.29,3.216,130.8,16 / 21,2789911,2019-08-09 21:00:38:649,-1.6447,-0.6774,9.3412,-0.7168,-0.4106,9.7718,0.0116,-0.0237,0.0188
27900,47.173134,-1.592856,66.65,22.29,3.216,130.8,16 / 21,2790011,2019-08-09 21:00:38:749,-0.5942,-0.2812,9.8015,-0.6775,-0.4054,9.7748,0.0038,-0.0116,0.0198
27901,47.173134,-1.592856,66.65,22.29,3.216,130.8,16 / 21,2790110,2019-08-09 21:00:38:848,-0.9342,-0.5637,9.5256,-0.677,-0.4075,9.7748,-0.0029,0.005,0.0051
27902,47.173134,-1.592856,66.65,22.29,3.216,130.8,16 / 21,2790210,2019-08-09 21:00:38:948,-1.0132,-0.4865,9.9129,-0.6552,-0.4016,9.7765,-0.0136,-0.0518,-0.0003
27903,47.173134,-1.592856,66.65,22.29,3.216,130.8,16 / 21,2790310,2019-08-09 21:00:39:048,0.8752,-0.2249,9.2557,-0.6412,-0.4071,9.7772,0.0018,0.0041,0.0546
27904,47.173134,-1.592856,66.65,22.29,3.216,130.8,16 / 21,2790410,2019-08-09 21:00:39:148,0.306,-0.1627,9.8775,-0.6337,-0.4172,9.7773,-0.0114,0.0287,-0.016
27905,47.173134,-1.592856,66.65,22.29,3.216,130.8,16 / 21,2790510,2019-08-09 21:00:39:248,-2.0044,-0.5194,9.9284,-0.629,-0.422,9.7774,-0.0027,0.0006,0.0212
27906,47.173134,-1.592856,66.65,22.29,3.216,130.8,18 / 23,2790611,2019-08-09 21:00:39:349,-1.5854,-0.8026,9.7967,-0.6309,-0.4271,9.777,-0.0001,-0.0053,0.0372
27907,47.173134,-1.592856,66.65,22.29,3.216,130.8,18 / 23,2790711,2019-08-09 21:00:39:449,0.227,-0.5595,10.0038,-0.6504,-0.4394,9.7752,-0.0053,-0.0123,0.0032
27908,47.173134,-1.592856,66.65,22.29,3.216,130.8,18 / 23,2790811,2019-08-09 21:00:39:549,0.2061,-0.9061,9.7782,-0.6553,-0.444,9.7747,-0.0003,-0.0366,0.0016
27909,47.173134,-1.592856,66.65,22.29,3.216,130.8,18 / 23,2790911,2019-08-09 21:00:39:649,0.9345,-0.7547,10.2223,-0.6672,-0.4517,9.7735,0.0051,0.0154,0.0264
27910,47.173134,-1.592856,66.65,22.29,3.216,130.8,18 / 23,2791011,2019-08-09 21:00:39:749,-2.5808,-0.4877,9.8189,-0.6693,-0.4545,9.7732,-0.0071,0.0224,0.0133
27911,47.173134,-1.592856,66.65,22.29,3.216,130.8,18 / 23,2791111,2019-08-09 21:00:39:849,-1.4471,-0.6727,9.6094,-0.688,-0.4689,9.7712,-0.0094,-0.0002,0.0121
27912,47.173134,-1.592856,66.65,22.29,3.216,130.8,18 / 23,2791211,2019-08-09 21:00:39:949,-0.3302,-0.5583,9.7369,-0.7008,-0.4708,9.7702,-0.008,0.0206,0.021
27913,47.173134,-1.592856,66.65,22.29,3.216,130.8,18 / 23,2791311,2019-08-09 21:00:40:049,-0.9587,-0.6954,9.8542,-0.7219,-0.4894,9.7678,-0.0094,-0.0178,0.008
27914,47.173134,-1.592856,66.65,22.29,3.216,130.8,18 / 23,2791410,2019-08-09 21:00:40:148,-1.015,-0.7151,9.5023,-0.7144,-0.4944,9.7681,-0.0058,-0.0126,0.0056
27915,47.173134,-1.592856,66.65,22.29,3.216,130.8,18 / 23,2791510,2019-08-09 21:00:40:248,-1.513,-0.6996,9.2551,-0.7168,-0.5025,9.7675,0.0009,-0.0105,0.0129
27916,47.173134,-1.592856,66.65,22.29,3.216,130.8,15 / 21,2791611,2019-08-09 21:00:40:349,0.4084,-0.7457,9.6441,-0.7181,-0.5064,9.7672,-0.0003,-0.0043,0.0103
27917,47.173134,-1.592856,66.65,22.29,3.216,130.8,15 / 21,2791711,2019-08-09 21:00:40:449,-0.1896,-0.784,9.85,-0.7168,-0.5075,9.7672,0.0041,-0.0102,0.0372
27918,47.173134,-1.592856,66.65,22.29,3.216,130.8,15 / 21,2791811,2019-08-09 21:00:40:549,-0.5828,-0.8654,9.7441,-0.7126,-0.5079,9.7675,0.0134,0.0154,0.0266
27919,47.173134,-1.592856,66.65,22.29,3.216,130.8,15 / 21,2791910,2019-08-09 21:00:40:648,-0.9922,-0.7547,9.604,-0.7214,-0.4971,9.7674,0.0302,0.042,0.0193
27920,47.173134,-1.592856,66.65,22.29,3.216,130.8,15 / 21,2792010,2019-08-09 21:00:40:748,-0.3685,-0.6613,9.7578,-0.7449,-0.4815,9.7665,0.0282,-0.0123,0.0269
27921,47.173134,-1.592856,66.65,22.29,3.216,130.8,15 / 21,2792110,2019-08-09 21:00:40:848,0.3342,-0.3542,9.4999,-0.7368,-0.4505,9.7686,0.0174,0.0267,0.0179
27922,47.173134,-1.592856,66.65,22.29,3.216,130.8,15 / 21,2792210,2019-08-09 21:00:40:948,-2.2414,-0.8043,9.4861,-0.7559,-0.4438,9.7674,0.0101,-0.0319,0.033
27923,47.173134,-1.592856,66.65,22.29,3.216,130.8,15 / 21,2792310,2019-08-09 21:00:41:048,-2.1151,0.0073,10.1726,-0.7646,-0.4326,9.7672,-0.009,0.0067,0.014
27924,47.173134,-1.592856,66.65,22.29,3.216,130.8,15 / 21,2792410,2019-08-09 21:00:41:148,-0.3691,-0.1046,9.5472,-0.797,-0.4356,9.7645,-0.0157,0.0615,0.0126
27925,47.173134,-1.592856,66.65,22.29,3.216,130.8,15 / 21,2792510,2019-08-09 21:00:41:248,-1.0838,-1.0497,10.2475,-0.8629,-0.4646,9.7576,-0.0246,0.0135,-0.0029
27926,47.173134,-1.592856,66.65,22.29,3.216,130.8,16 / 22,2792611,2019-08-09 21:00:41:349,-2.6742,-0.7768,9.7201,-0.8076,-0.4715,9.762,-0.0144,0.0097,0.0305
27927,47.173134,-1.592856,66.65,22.29,3.216,130.8,16 / 22,2792711,2019-08-09 21:00:41:449,-1.7829,-0.8654,9.0605,-0.8177,-0.5075,9.7593,-0.0211,-0.0252,0.0309
27928,47.173134,-1.592856,66.65,22.29,3.216,130.8,16 / 22,2792811,2019-08-09 21:00:41:549,-1.1712,-0.9288,9.607,-0.8365,-0.5186,9.7571,-0.0096,-0.0349,0.0266
27929,47.173134,-1.592856,66.65,22.29,3.216,130.8,16 / 22,2792910,2019-08-09 21:00:41:648,-1.1096,-1.0737,9.7973,-0.8435,-0.5413,9.7553,-0.0105,-0.054,0.0573
27930,47.173134,-1.592856,66.65,22.29,3.216,130.8,16 / 22,2793011,2019-08-09 21:00:41:749,-1.9595,-1.261,9.0288,-0.8559,-0.5552,9.7534,0.0113,-0.0477,0.0202
27931,47.173134,-1.592856,66.65,22.29,3.216,130.8,16 / 22,2793111,2019-08-09 21:00:41:849,-0.5403,-0.8169,9.1737,-0.8559,-0.5433,9.7541,0.0248,0.0106,0.051
27932,47.173134,-1.592856,66.65,22.29,3.216,130.8,16 / 22,2793211,2019-08-09 21:00:41:949,-1.17,-0.8552,9.9973,-0.8406,-0.5405,9.7556,0.0065,-0.0349,-0.0129
27933,47.173134,-1.592856,66.65,22.29,3.216,130.8,16 / 22,2793311,2019-08-09 21:00:42:049,-1.8476,-0.9402,9.7824,-0.873,-0.5386,9.7529,0.0043,-0.0064,0.028
27934,47.173134,-1.592856,66.65,22.29,3.216,130.8,16 / 22,2793410,2019-08-09 21:00:42:148,-1.1676,-0.7199,9.6567,-0.877,-0.5305,9.7529,0.0179,0.0009,0.0225
27935,47.173134,-1.592856,66.65,22.29,3.216,130.8,16 / 22,2793510,2019-08-09 21:00:42:248,-0.9402,-0.432,9.9015,-0.9227,-0.5112,9.7498,0.005,0.0198,0.0155
27936,47.173134,-1.592856,66.65,22.29,3.216,130.8,17 / 22,2793610,2019-08-09 21:00:42:348,-1.6093,-0.702,9.4274,-0.9204,-0.511,9.75,0.0075,-0.0256,0.0388
27937,47.173134,-1.592856,66.65,22.29,3.216,130.8,17 / 22,2793710,2019-08-09 21:00:42:448,-0.3368,-1.1192,9.1874,-0.9164,-0.5041,9.7507,0.006,0.0458,-0.0104
27938,47.173134,-1.592856,66.65,22.29,3.216,130.8,17 / 22,2793810,2019-08-09 21:00:42:548,-0.0687,-0.6218,10.0906,-0.9321,-0.4843,9.7502,0.0004,-0.0355,0.0386
27939,47.173134,-1.592856,66.65,22.29,3.216,130.8,17 / 22,2793910,2019-08-09 21:00:42:648,-1.2137,-0.8043,9.5041,-0.9401,-0.4899,9.7492,0.0039,-0.0334,0.0257
27940,47.173134,-1.592856,66.65,22.29,3.216,130.8,17 / 22,2794011,2019-08-09 21:00:42:749,-0.8204,-0.8133,9.2634,-0.9455,-0.4869,9.7488,0.0209,0.0146,0.016
27941,47.173134,-1.592856,66.65,22.29,3.216,130.8,17 / 22,2794110,2019-08-09 21:00:42:848,-0.8821,-0.1806,9.8572,-0.943,-0.471,9.7498,0.0214,-0.0142,0.0026
27942,47.173134,-1.592856,66.65,22.29,3.216,130.8,17 / 22,2794211,2019-08-09 21:00:42:949,-2.6305,-0.5996,9.6082,-0.9506,-0.4519,9.75,0.0175,0.0121,0.017
27943,47.173134,-1.592856,66.65,22.29,3.216,130.8,17 / 22,2794311,2019-08-09 21:00:43:049,0.2282,-0.0747,9.516,-0.9668,-0.4387,9.749,0.0179,-0.0155,0.0032
27944,47.173134,-1.592856,66.65,22.29,3.216,130.8,17 / 22,2794411,2019-08-09 21:00:43:149,-0.7498,0.6968,10.4168,-0.9908,-0.4003,9.7483,0.0018,0.0264,-0.0239
27945,47.173134,-1.592856,66.65,22.29,3.216,130.8,17 / 22,2794511,2019-08-09 21:00:43:249,-3.2141,-0.3135,9.5052,-0.9594,-0.3996,9.7514,-0.0145,-0.0388,0.004
27946,47.173134,-1.592856,66.65,22.29,3.216,130.8,18 / 23,2794613,2019-08-09 21:00:43:351,0.1366,-0.2579,9.13,-0.9694,-0.405,9.7502,-0.001,-0.0221,0.0006
27947,47.173134,-1.592856,66.65,22.29,3.216,130.8,18 / 23,2794710,2019-08-09 21:00:43:448,-1.5621,0.1007,9.7967,-0.976,-0.3985,9.7498,-0.0166,0.0323,-0.0152
27948,47.173134,-1.592856,66.65,22.29,3.216,130.8,18 / 23,2794811,2019-08-09 21:00:43:549,-3.1985,-0.5464,9.519,-0.9808,-0.4058,9.749,-0.0191,-0.0072,0.0166
