,GPS LATITUDE (degrees), GPS LONGITUDE (degrees), GPS ALTITUDE (m), GPS SPEED (Kmh), GPS ACCURACY (m), GPS ORIENTATION (Â°),GPS SATELLITES IN RANGE, TIME SINCE START (ms), DATE (YYYY-MO-DD HH-MI-SS_SSS), ACCELEROMETER X (m/s²) , ACCELEROMETER Y (m/s²), ACCELEROMETER Z (m/s²), GRAVITY X (m/s²), GRAVITY Y (m/s²), GRAVITY Z (m/s²), GYROSCOPE Yaw (rad/s), GYROSCOPE Pitch (rad/s), GYROSCOPE Roll (rad/s), MAGNETIC FIELD X (Î¼T), MAGNETIC FIELD Y (Î¼T), MAGNETIC FIELD Z (Î¼T), ORIENTATION (Yaw) (Â°), ORIENTATION (Pitch) (Â°), ORIENTATION (Roll ) (Â°)
1128,52.35572,-2.036919,190.97,28.19,4,79.56,22 / 24,426807,2020-01-08 16:28:21:783,0.2782,0.9319,10.3599,-0.0059,-0.0058,9.8066,-0.0203,0.0005,-0.0477,-18.0,-35.31,2.38,255.44,-84.92,168.61
1129,52.35572,-2.036919,190.97,28.19,4,79.56,23 / 24,426908,2020-01-08 16:28:21:884,-2.0663,-1.3886,8.8057,0.0371,0.0345,9.8064,0.012,-0.0571,-0.0245,-18.19,-35.37,2.0,254.58,-84.85,167.84
1130,52.356304,-2.033304,193.88,28.6,4,72.35,23 / 24,427008,2020-01-08 16:28:21:984,1.4118,1.1659,11.8626,0.0079,0.0121,9.8066,0.103,0.0975,-0.0699,-18.12,-35.62,2.5,258.38,-84.82,168.97
1131,52.356304,-2.033304,193.88,28.6,4,72.35,23 / 24,427108,2020-01-08 16:28:22:084,2.1184,-0.8464,9.241,0.0306,0.02,9.8065,0.0367,0.1659,-0.155,-18.06,-35.56,1.56,252.95,-84.76,166.58
1132,52.356304,-2.033304,193.88,28.6,4,72.35,23 / 24,427207,2020-01-08 16:28:22:183,0.7209,-1.4318,9.1801,-0.0043,-0.0161,9.8066,0.0947,0.3178,-0.208,-18.31,-35.25,1.75,252.24,-84.88,165.33
1133,52.356304,-2.033304,193.88,28.6,4,72.35,23 / 24,427308,2020-01-08 16:28:22:284,0.9669,-2.135,8.843,0.0294,0.0232,9.8065,0.1362,0.342,-0.2035,-18.19,-35.75,2.69,254.66,-84.69,165.32
1134,52.356304,-2.033304,193.88,28.6,4,72.35,23 / 24,427410,2020-01-08 16:28:22:386,-0.0726,2.4296,11.7669,-0.0684,-0.0415,9.8063,0.2239,0.4052,-0.2151,-18.19,-36.19,1.94,252.09,-84.9,165.4
1135,52.356304,-2.033304,193.88,28.6,4,72.35,23 / 24,427508,2020-01-08 16:28:22:484,1.7908,1.1186,10.4249,-0.0208,-0.0132,9.8066,0.1713,0.3268,-0.2084,-17.87,-36.19,2.19,249.95,-84.84,163.23
1136,52.356304,-2.033304,193.88,28.6,4,72.35,23 / 24,427608,2020-01-08 16:28:22:584,1.4048,-3.0037,8.4954,-0.0274,-0.0571,9.8064,-0.0665,0.3013,-0.2099,-17.62,-35.62,2.13,247.9,-84.69,161.32
1137,52.356304,-2.033304,193.88,28.6,4,72.35,23 / 24,427710,2020-01-08 16:28:22:686,-0.6881,-1.6123,9.0726,-0.0079,0.0114,9.8066,0.038,0.2155,-0.222,-18.0,-35.81,2.31,248.25,-84.75,161.59
1138,52.356304,-2.033304,193.88,28.6,4,72.35,23 / 24,427808,2020-01-08 16:28:22:784,1.0253,-1.3808,10.3786,-0.0284,-0.0481,9.8065,0.1662,0.0336,-0.0389,-17.37,-35.87,2.13,249.97,-84.98,163.18
1139,52.356304,-2.033304,193.88,28.6,4,72.35,23 / 24,427908,2020-01-08 16:28:22:884,2.6958,2.0979,11.6203,0.0193,-0.025,9.8065,0.169,0.0059,0.0188,-18.44,-35.87,1.94,250.53,-84.79,163.96
1140,52.356304,-2.033304,193.88,28.6,4,72.35,23 / 24,428008,2020-01-08 16:28:22:984,0.1521,-1.887,9.5996,-0.0194,-0.0296,9.8065,-0.0605,-0.1713,0.1301,-18.25,-35.62,2.19,250.27,-84.57,164.08
1141,52.356304,-2.033304,193.88,28.6,4,72.35,23 / 24,428108,2020-01-08 16:28:23:084,1.3493,1.7239,9.5713,-0.0354,-0.033,9.8065,-0.0816,-0.2604,0.1494,-17.75,-35.94,2.44,251.37,-84.84,164.76
1142,52.356304,-2.033304,193.88,28.6,4,72.35,23 / 24,428208,2020-01-08 16:28:23:184,-0.0772,-0.9666,10.1652,0.0135,0.0054,9.8066,0.0107,-0.191,0.12,-17.5,-35.81,2.19,249.65,-84.99,162.83
1143,52.356304,-2.033304,193.88,28.6,4,72.35,23 / 24,428307,2020-01-08 16:28:23:283,0.2313,1.9103,9.9059,0.0211,-0.0196,9.8065,0.0576,-0.2806,0.1462,-17.94,-35.56,1.69,249.31,-84.85,162.54
1144,52.356304,-2.033304,193.88,28.6,4,72.35,23 / 24,428408,2020-01-08 16:28:23:384,0.7218,-1.7406,10.4788,0.0119,0.0107,9.8066,0.0712,-0.1789,0.1046,-18.06,-36.0,2.13,248.25,-84.75,161.59
1145,52.356304,-2.033304,193.88,28.6,4,72.35,23 / 24,428508,2020-01-08 16:28:23:484,-1.0597,-2.8571,8.8063,-0.0055,-0.0095,9.8066,0.0419,-0.1232,-0.0126,-18.44,-35.12,1.69,248.86,-84.89,161.72
1146,52.356304,-2.033304,193.88,28.6,4,72.35,23 / 24,428607,2020-01-08 16:28:23:583,0.1778,-3.1369,8.5598,0.0254,0.051,9.8064,-0.0076,-0.0421,-0.0214,-17.5,-36.25,2.44,249.65,-85.0,162.81
1147,52.356304,-2.033304,193.88,28.6,4,72.35,23 / 24,428707,2020-01-08 16:28:23:683,-0.8218,-2.2266,9.6511,-0.0182,0.0018,9.8066,-0.0884,0.0743,-0.1384,-17.69,-35.5,2.38,249.05,-84.99,161.73
1148,52.356304,-2.033304,193.88,28.6,4,72.35,23 / 24,428808,2020-01-08 16:28:23:784,0.2219,1.819,10.3757,0.0198,0.0624,9.8063,-0.1018,0.128,-0.1371,-17.56,-35.56,1.69,249.41,-85.21,161.97
1149,52.356304,-2.033304,193.88,28.6,4,72.35,23 / 24,428908,2020-01-08 16:28:23:884,1.3725,0.7485,11.8625,-0.0469,0.0044,9.8065,-0.0808,-0.016,-0.0726,-17.75,-35.87,2.25,245.99,-85.23,158.29
1150,52.356304,-2.033304,193.88,28.6,4,72.35,23 / 24,429008,2020-01-08 16:28:23:984,0.6693,-0.1661,10.5586,0.0318,0.0323,9.8064,0.0163,0.1012,0.0062,-17.37,-36.19,2.31,244.31,-84.82,157.4
1151,52.356304,-2.033304,193.88,28.6,4,72.35,23 / 24,429107,2020-01-08 16:28:24:083,-0.1114,-2.214,9.0666,0.0208,0.0045,9.8066,0.0835,0.2241,-0.1178,-17.12,-35.87,1.69,244.23,-84.87,157.21
1152,52.356304,-2.033304,193.88,28.6,4,72.35,23 / 24,429208,2020-01-08 16:28:24:184,1.4131,0.7762,11.343,0.0147,0.0321,9.8065,0.1303,0.3474,-0.1824,-16.75,-36.12,2.06,244.02,-84.9,156.92
1153,52.356304,-2.033304,193.88,28.6,4,72.35,23 / 24,429307,2020-01-08 16:28:24:283,-1.9844,-4.4832,7.8594,0.0724,0.0678,9.8061,0.1176,0.4141,-0.206,-17.31,-35.37,1.75,241.69,-84.56,154.73
1154,52.356304,-2.033304,193.88,28.6,4,72.35,23 / 24,429408,2020-01-08 16:28:24:384,-0.7837,-0.9576,8.6557,-0.0256,0.0095,9.8066,-0.0519,0.0587,-0.156,-16.75,-36.19,2.5,244.59,-84.55,154.81
1155,52.356304,-2.033304,193.88,28.6,4,72.35,23 / 24,429508,2020-01-08 16:28:24:484,-2.9929,-1.909,7.9111,0.0161,0.0166,9.8066,-0.1843,-0.1088,0.1233,-17.12,-35.44,2.0,240.77,-84.58,153.7
1156,52.356304,-2.033304,193.88,28.6,4,72.35,23 / 24,429607,2020-01-08 16:28:24:583,0.2278,0.4122,10.296,-0.035,-0.0376,9.8065,-0.1548,-0.04,0.1367,-16.81,-36.44,1.81,241.39,-84.79,154.26
1157,52.356304,-2.033304,193.88,28.6,4,72.35,23 / 24,429707,2020-01-08 16:28:24:683,-1.0225,-0.6776,9.2954,0.0072,0.029,9.8066,0.0766,0.0668,-0.0239,-17.62,-35.81,2.94,242.82,-84.6,152.79
1158,52.356304,-2.033304,193.88,28.6,4,72.35,23 / 24,429808,2020-01-08 16:28:24:784,-0.7094,0.4404,9.4893,-0.0065,0.0191,9.8065,0.058,-0.0281,-0.1304,-17.5,-36.19,2.0,241.45,-84.68,154.53
1159,52.356304,-2.033304,193.88,28.6,4,72.35,23 / 23,429907,2020-01-08 16:28:24:883,-2.0157,-1.0371,9.179,0.0116,0.0133,9.8066,0.1866,0.0091,-0.0657,-17.31,-36.0,2.38,241.41,-84.78,154.3
1160,52.356304,-2.033304,193.88,28.6,4,72.35,23 / 23,430008,2020-01-08 16:28:24:984,0.4166,0.1525,11.4513,-0.0149,-0.0039,9.8066,0.1232,0.0753,0.0463,-17.56,-36.06,2.38,242.01,-84.59,155.12
1161,52.356304,-2.033304,193.88,28.6,4,72.35,23 / 23,430108,2020-01-08 16:28:25:084,-1.0761,-2.0695,9.1099,-0.0186,-0.0022,9.8065,0.1051,-0.0184,0.0052,-17.69,-35.12,2.06,241.89,-84.62,154.68
1162,52.356304,-2.033304,193.88,28.6,4,72.35,23 / 23,430208,2020-01-08 16:28:25:184,0.8131,1.6859,11.9285,-0.0503,-0.053,9.8063,0.0375,0.1057,-0.0038,-17.44,-35.87,2.13,242.08,-84.66,155.26
1163,52.356304,-2.033304,193.88,28.6,4,72.35,23 / 23,430308,2020-01-08 16:28:25:284,-0.6373,-2.6088,9.1372,-0.0243,-0.0306,9.8066,-0.0128,0.0949,-0.1074,-16.69,-35.56,2.0,239.96,-84.4,153.41
1164,52.356304,-2.033304,193.88,28.6,4,72.35,23 / 23,430408,2020-01-08 16:28:25:384,0.6795,-0.7334,10.0851,-0.0174,-0.0292,9.8065,0.0528,0.1859,-0.1385,-17.19,-35.5,2.06,240.4,-84.47,153.47
1165,52.356304,-2.033304,193.88,28.6,4,72.35,23 / 23,430508,2020-01-08 16:28:25:484,-0.0527,-3.5732,9.5659,-0.0306,-0.0386,9.8065,0.1116,0.129,-0.0245,-17.44,-34.94,2.69,244.01,-84.47,154.04
1166,52.356304,-2.033304,193.88,28.6,4,72.35,23 / 23,430608,2020-01-08 16:28:25:584,1.2199,1.6112,10.8544,0.0016,-0.0492,9.8064,0.1786,0.0661,-0.0827,-17.44,-34.94,2.31,241.45,-84.33,154.89
1167,52.356304,-2.033304,193.88,28.6,4,72.35,23 / 23,430708,2020-01-08 16:28:25:684,-1.1805,-1.8044,9.7399,-0.0603,-0.0413,9.8064,0.0679,0.0138,-0.006,-17.62,-34.87,3.13,244.03,-84.12,154.66
1168,52.356304,-2.033304,193.88,28.6,4,72.35,23 / 23,430808,2020-01-08 16:28:25:784,0.5828,0.6538,10.4874,-0.0376,-0.0386,9.8065,0.0591,-0.0032,0.0304,-17.0,-35.37,2.44,242.28,-84.55,155.4
1169,52.356304,-2.033304,193.88,28.6,4,72.35,23 / 23,430908,2020-01-08 16:28:25:884,-1.4256,-2.9137,8.8736,-0.0322,-0.0467,9.8065,0.0305,0.0874,-0.02,-17.75,-35.25,2.38,241.46,-84.24,154.84
1170,52.356304,-2.033304,193.88,28.6,4,72.35,23 / 23,431008,2020-01-08 16:28:25:984,0.1938,1.3813,8.9564,-0.0091,-0.0244,9.8066,0.0697,0.0292,-0.0936,-16.75,-36.25,3.13,244.91,-84.31,155.63
1171,52.356304,-2.033304,193.88,28.6,4,72.35,23 / 23,431108,2020-01-08 16:28:26:084,2.1086,-0.3984,11.5145,0.0088,-0.0295,9.8065,0.1469,-0.0285,-0.0752,-17.19,-36.06,3.06,246.24,-84.24,157.21
1172,52.356304,-2.033304,193.88,28.6,4,72.35,23 / 23,431208,2020-01-08 16:28:26:184,0.5671,0.1667,9.1539,0.0215,-0.0103,9.8066,0.0796,-0.0173,0.0247,-17.37,-35.19,3.19,246.74,-84.1,157.71
1173,52.356304,-2.033304,193.88,28.6,4,72.35,23 / 23,431308,2020-01-08 16:28:26:284,1.2548,-2.3929,9.81,-0.0241,-0.0494,9.8064,0.0999,0.0939,-0.0742,-17.81,-35.75,3.13,245.24,-84.06,156.4
1174,52.356304,-2.033304,193.88,28.6,4,72.35,23 / 23,431408,2020-01-08 16:28:26:384,-0.8997,-2.1287,8.9612,-0.0104,0.0219,9.8065,-0.0183,-0.1025,-0.1932,-17.56,-35.94,3.06,245.23,-84.44,155.7
1175,52.356304,-2.033304,193.88,28.6,4,72.35,23 / 23,431508,2020-01-08 16:28:26:484,-0.5018,-0.9986,10.964,0.007,0.0101,9.8066,0.1626,0.1623,0.0209,-17.69,-36.0,3.44,246.39,-84.46,156.91
1176,52.356304,-2.033304,193.88,28.6,4,72.35,23 / 23,431608,2020-01-08 16:28:26:584,0.4159,1.4039,10.7417,0.026,-0.0046,9.8065,0.2102,0.0185,0.0089,-17.06,-35.31,3.25,245.44,-84.27,155.97
1177,52.356304,-2.033304,193.88,28.6,4,72.35,23 / 23,431708,2020-01-08 16:28:26:684,0.6054,-2.7817,9.0056,-0.0353,-0.0483,9.8064,0.161,0.0333,-0.0451,-17.06,-35.81,3.5,246.79,-84.18,154.57
1178,52.356304,-2.033304,193.88,28.6,4,72.35,23 / 23,431808,2020-01-08 16:28:26:784,-0.7149,-1.5026,8.543,0.0114,0.015,9.8066,0.0543,-0.1284,-0.0959,-17.44,-36.0,2.94,244.15,-84.25,154.9
1179,52.356304,-2.033304,193.88,28.6,4,72.35,23 / 23,431908,2020-01-08 16:28:26:884,1.9078,-0.7265,11.3434,-0.0297,-0.0021,9.8065,0.1661,0.0527,0.0279,-17.37,-36.25,3.56,248.58,-84.31,156.26
1180,52.356304,-2.033304,193.88,28.6,4,72.35,23 / 23,432008,2020-01-08 16:28:26:984,-0.2936,-1.3668,9.1163,0.0551,0.0125,9.8064,0.2491,0.2059,-0.2422,-17.87,-35.62,3.69,247.23,-84.3,154.95
1181,52.356304,-2.033304,193.88,28.6,4,72.35,23 / 23,432107,2020-01-08 16:28:27:083,2.1884,1.754,12.0733,0.008,0.0044,9.8066,0.263,0.3365,-0.3548,-16.94,-36.19,3.25,243.19,-84.4,153.57
1182,52.356304,-2.033304,193.88,28.6,4,72.35,23 / 23,432208,2020-01-08 16:28:27:184,0.3821,-3.1647,8.8549,0.0554,0.0726,9.8062,0.1846,0.232,-0.2176,-16.81,-35.75,2.94,242.81,-84.2,153.53
1183,52.356304,-2.033304,193.88,28.6,4,72.35,23 / 23,432308,2020-01-08 16:28:27:284,0.8331,0.8079,11.553,0.0266,0.0097,9.8066,0.2501,0.4018,-0.1305,-17.44,-35.87,3.88,247.43,-84.52,154.62
1184,52.356304,-2.033304,193.88,28.6,4,72.35,23 / 23,432408,2020-01-08 16:28:27:384,-0.5374,-3.0187,8.6684,0.0632,0.0681,9.8062,0.371,0.2148,-0.3463,-17.81,-35.37,3.06,243.19,-84.32,153.4
1185,52.356304,-2.033304,193.88,28.6,4,72.35,23 / 23,432507,2020-01-08 16:28:27:483,2.7204,1.8359,11.6537,0.0277,0.0302,9.8065,0.277,0.2413,-0.2834,-17.62,-35.81,3.5,249.16,-84.72,156.26
1186,52.356304,-2.033304,193.88,28.6,4,72.35,23 / 23,432608,2020-01-08 16:28:27:584,0.0679,-3.0721,9.464,0.0399,0.0458,9.8064,0.0434,0.2579,-0.2224,-17.69,-35.94,3.56,248.48,-84.52,155.89
1187,52.356304,-2.033304,193.88,28.6,4,72.35,23 / 23,432707,2020-01-08 16:28:27:683,-1.2659,-0.94,9.3377,0.0014,0.0332,9.8066,-0.0357,0.0863,-0.1979,-17.81,-35.75,3.31,245.54,-84.53,155.88
1188,52.356304,-2.033304,193.88,28.6,4,72.35,23 / 23,432808,2020-01-08 16:28:27:784,2.8111,0.683,11.3076,-0.0367,-0.0174,9.8065,-0.2456,-0.2181,0.1478,-17.56,-36.25,3.5,250.95,-84.79,158.03
1189,52.356304,-2.033304,193.88,28.6,4,72.35,23 / 23,432908,2020-01-08 16:28:27:884,-1.2981,-3.8495,7.4648,0.0165,0.0029,9.8066,-0.1383,-0.1849,0.2028,-17.44,-35.5,3.44,246.37,-84.54,156.49
1190,52.356304,-2.033304,193.88,28.6,4,72.35,23 / 23,433008,2020-01-08 16:28:27:984,1.3941,-1.5402,11.2651,0.0234,-0.0101,9.8066,-0.1407,-0.0943,-0.1017,-17.75,-35.56,3.5,249.73,-84.78,156.75
1191,52.356304,-2.033304,193.88,28.6,4,72.35,23 / 23,433108,2020-01-08 16:28:28:084,1.897,-2.9075,10.3493,0.0615,0.0594,9.8063,-0.2442,0.0125,-0.0118,-16.87,-35.81,3.5,248.08,-84.5,155.35
1192,52.356304,-2.033304,193.88,28.6,4,72.35,23 / 23,433208,2020-01-08 16:28:28:184,2.7917,1.9086,12.0266,0.0411,0.0246,9.8065,-0.182,-0.0643,0.1164,-17.56,-36.12,3.38,245.0,-84.41,155.49
1193,52.356304,-2.033304,193.88,28.6,4,72.35,23 / 23,433307,2020-01-08 16:28:28:283,0.3916,-0.5805,8.7718,0.0921,0.0365,9.8061,-0.0812,0.0836,0.0062,-17.94,-36.06,3.38,245.69,-84.37,156.33
1194,52.356304,-2.033304,193.88,28.6,4,72.35,23 / 23,433408,2020-01-08 16:28:28:384,1.6692,2.5645,11.0012,0.0043,-0.0212,9.8065,0.0586,0.0799,-0.1699,-17.62,-36.19,4.06,248.41,-84.5,155.85
1195,52.356304,-2.033304,193.88,28.6,4,72.35,23 / 23,433508,2020-01-08 16:28:28:484,0.5039,-3.2201,9.3704,0.0401,0.0544,9.8063,0.0676,0.0975,-0.1112,-17.62,-36.12,4.25,248.44,-84.46,155.96
1196,52.356304,-2.033304,193.88,28.6,4,72.35,23 / 23,433608,2020-01-08 16:28:28:584,1.9606,-0.2238,8.9251,-0.0068,0.0158,9.8066,0.0254,0.1587,-0.0102,-17.31,-35.56,3.81,250.46,-84.63,157.66
1197,52.356304,-2.033304,193.88,28.6,4,72.35,23 / 23,433708,2020-01-08 16:28:28:684,1.2729,-2.0437,11.3106,-0.0161,0.0236,9.8065,-0.079,0.0569,-0.06,-17.56,-35.75,3.5,249.3,-84.62,156.58
1198,52.356304,-2.033304,193.88,28.6,4,72.35,23 / 23,433807,2020-01-08 16:28:28:783,3.0025,2.112,9.9438,0.0502,0.0197,9.8065,-0.2154,0.019,-0.0258,-17.62,-36.0,3.69,248.65,-84.62,155.9
1199,52.356304,-2.033304,193.88,28.6,4,72.35,23 / 23,433908,2020-01-08 16:28:28:884,-0.7842,-3.4722,10.2645,0.0096,0.0402,9.8065,-0.2637,-0.0329,0.0093,-17.12,-35.25,4.38,249.22,-84.8,155.7
1200,52.356304,-2.033304,193.88,28.6,4,72.35,23 / 23,434007,2020-01-08 16:28:28:983,2.304,2.928,11.4305,0.0903,0.0371,9.8061,-0.2115,0.1713,-0.0289,-17.31,-35.94,4.38,252.19,-84.98,158.8
1201,52.356304,-2.033304,193.88,28.6,4,72.35,23 / 23,434108,2020-01-08 16:28:29:084,-1.8247,0.1303,8.1421,0.0076,0.0492,9.8065,-0.2229,0.3133,-0.1576,-17.31,-35.62,3.56,250.11,-84.8,156.94
1202,52.356304,-2.033304,193.88,28.6,4,72.35,23 / 23,434208,2020-01-08 16:28:29:184,1.5247,-0.6867,9.5555,0.0379,-0.0033,9.8065,-0.0573,0.0257,0.0075,-16.87,-36.0,3.31,247.33,-84.93,157.08
1203,52.356304,-2.033304,193.88,28.6,4,72.35,23 / 23,434308,2020-01-08 16:28:29:284,-0.0591,0.2199,9.1901,-0.001,-0.0165,9.8066,-0.0317,0.0229,0.0495,-17.06,-36.25,4.38,251.25,-84.82,158.12
1204,52.356304,-2.033304,193.88,28.6,4,72.35,23 / 23,434408,2020-01-08 16:28:29:384,0.0887,-0.9766,10.6292,0.0237,-0.0161,9.8066,-0.0274,-0.0955,-0.005,-17.81,-35.94,4.0,251.57,-84.87,158.53
1205,52.356304,-2.033304,193.88,28.6,4,72.35,23 / 23,434508,2020-01-08 16:28:29:484,0.0048,-0.4133,9.0774,0.0268,-0.0077,9.8065,0.0528,-0.079,0.0206,-17.5,-36.12,3.94,252.88,-84.77,159.95
1206,52.356304,-2.033304,193.88,28.6,4,72.35,23 / 23,434607,2020-01-08 16:28:29:583,1.5039,-1.9516,11.1448,-0.0175,-0.016,9.8065,0.229,-0.0423,0.0696,-18.19,-35.87,4.63,256.19,-84.74,160.52
1207,52.356304,-2.033304,193.88,28.6,4,72.35,23 / 23,434708,2020-01-08 16:28:29:684,1.6877,-0.3555,10.8232,0.0222,-0.0162,9.8066,0.2007,-0.1172,0.0132,-17.81,-35.87,4.25,253.97,-84.77,161.26
1208,52.356304,-2.033304,193.88,28.6,4,72.35,23 / 23,434808,2020-01-08 16:28:29:784,3.0143,-0.5337,12.1413,-0.0387,-0.0093,9.8065,0.1809,0.058,-0.055,-17.5,-35.81,4.19,254.67,-84.69,162.01
1209,52.356304,-2.033304,193.88,28.6,4,72.35,23 / 23,434908,2020-01-08 16:28:29:884,0.9363,-2.0398,8.5044,0.0236,0.0071,9.8065,0.2203,0.0784,-0.066,-17.56,-35.87,5.0,258.25,-84.75,162.65
1210,52.356304,-2.033304,193.88,28.6,4,72.35,23 / 23,435008,2020-01-08 16:28:29:984,1.6338,0.4675,8.1929,-0.0396,-0.0084,9.8065,0.113,0.1877,-0.1613,-17.19,-35.25,4.31,256.95,-85.08,163.34
1211,52.356304,-2.033304,193.88,28.6,4,72.35,23 / 23,435108,2020-01-08 16:28:30:084,0.3554,-5.3566,10.879,-0.0346,0.0692,9.8062,-0.2019,0.3551,-0.3643,-18.31,-34.87,4.63,258.34,-85.07,161.89
1212,52.356304,-2.033304,193.88,28.6,4,72.35,23 / 23,435208,2020-01-08 16:28:30:184,-2.7831,-0.7185,8.3193,-0.0333,0.0071,9.8065,-0.208,0.1613,-0.0643,-17.75,-35.69,4.56,261.79,-85.01,165.81
1213,52.356304,-2.033304,193.88,28.6,4,72.35,23 / 23,435308,2020-01-08 16:28:30:284,1.7105,3.5067,10.3627,-0.0333,-0.0404,9.8064,-0.1661,-0.3658,0.3106,-18.0,-34.81,4.69,263.25,-85.05,166.97
1214,52.356304,-2.033304,193.88,28.6,4,72.35,23 / 23,435407,2020-01-08 16:28:30:383,-1.3023,-1.896,8.1912,-0.0266,-0.0709,9.8063,-0.2534,-0.4688,0.2308,-17.75,-34.5,4.19,256.92,-84.95,163.47
1215,52.356304,-2.033304,193.88,28.6,4,72.35,23 / 23,435507,2020-01-08 16:28:30:483,2.4892,1.9359,11.2085,-0.0709,-0.0299,9.8063,-0.1639,-0.4498,0.2117,-18.12,-34.56,4.75,263.44,-85.38,166.55
1216,52.356304,-2.033304,193.88,28.6,4,72.35,23 / 23,435607,2020-01-08 16:28:30:583,1.5954,-2.5932,10.3926,0.0165,-0.0089,9.8065,-0.094,-0.3822,0.29,-18.37,-35.06,3.63,259.71,-85.08,166.39
1217,52.356304,-2.033304,193.88,28.6,4,72.35,23 / 23,435708,2020-01-08 16:28:30:684,0.7961,0.1342,11.4289,-0.0255,-0.063,9.8063,0.1732,-0.2205,0.2137,-18.87,-34.62,3.13,257.42,-85.14,167.09
1218,52.356304,-2.033304,193.88,28.6,4,72.35,23 / 23,435807,2020-01-08 16:28:30:783,1.2061,-2.8076,11.2456,0.0629,-0.0112,9.8063,0.2229,-0.2677,0.0784,-18.81,-35.69,3.0,254.15,-85.3,163.63
1219,52.356304,-2.033304,193.88,28.6,4,72.35,23 / 23,435908,2020-01-08 16:28:30:884,0.7913,-0.4428,9.2814,0.026,-0.0267,9.8065,0.1151,-0.1684,0.0204,-18.81,-34.06,7.06,267.58,-85.01,165.77
1220,52.35693,-2.029674,197.39,28.85,4,80.45,23 / 23,436009,2020-01-08 16:28:30:985,0.7547,-0.3651,10.4334,-0.0096,0.0026,9.8066,0.0656,-0.0767,0.0766,-19.87,-26.19,6.81,265.9,-84.96,162.79
1221,52.35693,-2.029674,197.39,28.85,4,80.45,23 / 23,436108,2020-01-08 16:28:31:084,0.8734,-3.2161,9.9344,-0.0052,0.026,9.8065,0.065,0.0445,0.0152,-14.62,-27.25,0.19,246.56,-85.02,164.76
1222,52.35693,-2.029674,197.39,28.85,4,80.45,23 / 23,436208,2020-01-08 16:28:31:184,1.7705,-2.2008,11.2966,0.0094,0.0493,9.8065,-0.0208,0.0576,-0.1133,-9.44,-43.0,0.56,238.75,-84.94,163.34
1223,52.35693,-2.029674,197.39,28.85,4,80.45,23 / 23,436308,2020-01-08 16:28:31:284,0.324,1.3789,9.282,0.0138,-0.0301,9.8065,-0.2183,0.0177,0.0431,-12.44,-40.12,9.75,279.66,-84.87,163.0
1224,52.35693,-2.029674,197.39,28.85,4,80.45,23 / 23,436408,2020-01-08 16:28:31:384,-2.0586,-0.2088,8.1434,-0.0205,0.053,9.8064,-0.1895,0.0084,0.11,-15.12,-35.62,8.69,274.01,-85.14,163.12
1225,52.35693,-2.029674,197.39,28.85,4,80.45,23 / 23,436508,2020-01-08 16:28:31:484,0.9738,-0.3751,8.5387,0.1245,-0.0128,9.8058,-0.4285,-0.0372,0.1262,-14.62,-33.81,6.56,268.17,-84.96,163.58
1226,52.35693,-2.029674,197.39,28.85,4,80.45,23 / 23,436607,2020-01-08 16:28:31:583,-4.2556,-3.1263,7.5799,0.078,0.0275,9.8062,-0.2559,-0.3213,0.1131,-14.31,-33.37,6.19,265.12,-85.1,162.58
1227,52.35693,-2.029674,197.39,28.85,4,80.45,23 / 23,436708,2020-01-08 16:28:31:684,-0.7977,2.3518,11.6358,0.0476,0.0497,9.8063,-0.0409,-0.1672,0.1445,-14.81,-34.12,5.19,261.83,-85.39,163.26
1228,52.35693,-2.029674,197.39,28.85,4,80.45,23 / 23,436807,2020-01-08 16:28:31:783,0.0737,-3.0294,9.8283,0.0727,0.0533,9.8062,0.0422,-0.2035,0.0817,-15.87,-35.06,4.88,258.24,-84.98,161.19
1229,52.35693,-2.029674,197.39,28.85,4,80.45,23 / 23,436908,2020-01-08 16:28:31:884,-3.5278,-2.481,4.378,-0.074,0.0096,9.8063,0.7104,0.0242,-0.2039,-16.5,-35.0,5.69,265.69,-84.86,165.7
1230,52.35693,-2.029674,197.39,28.85,4,80.45,23 / 23,437008,2020-01-08 16:28:31:984,1.0311,-6.2162,14.4751,-0.081,0.0793,9.8059,0.3949,0.401,-0.3544,-17.44,-36.19,5.69,263.96,-85.47,163.56
1231,52.35693,-2.029674,197.39,28.85,4,80.45,23 / 23,437108,2020-01-08 16:28:32:084,0.1352,0.0383,9.0094,0.0815,-0.0032,9.8063,-0.4956,0.234,-0.0322,-17.94,-35.75,5.56,265.64,-85.43,165.88
1232,52.35693,-2.029674,197.39,28.85,4,80.45,23 / 23,437208,2020-01-08 16:28:32:184,-1.5817,0.2015,8.0279,-0.0126,0.0049,9.8066,-0.3043,0.0824,0.1012,-17.94,-36.69,5.19,262.75,-85.31,166.49
1233,52.35693,-2.029674,197.39,28.85,4,80.45,23 / 23,437308,2020-01-08 16:28:32:284,0.3938,-2.0258,10.2681,0.0591,-0.0056,9.8065,-0.0464,-0.1604,0.0515,-17.94,-36.0,5.81,265.28,-85.43,165.53
1234,52.35693,-2.029674,197.39,28.85,4,80.45,23 / 23,437407,2020-01-08 16:28:32:383,-0.3237,-0.113,8.8523,0.0282,-0.0074,9.8065,0.0567,-0.1028,0.0385,-17.87,-36.25,5.94,264.89,-85.16,165.64
1235,52.35693,-2.029674,197.39,28.85,4,80.45,23 / 23,437507,2020-01-08 16:28:32:483,-0.5333,-0.1993,8.751,-0.0189,0.009,9.8066,0.0782,-0.1309,0.0121,-17.69,-35.56,6.06,264.05,-85.3,164.53
1236,52.35693,-2.029674,197.39,28.85,4,80.45,23 / 23,437608,2020-01-08 16:28:32:584,-0.824,0.5344,8.6492,-0.0007,-0.0054,9.8066,0.0979,-0.1307,0.0636,-17.75,-35.94,6.0,264.33,-85.24,164.93
1237,52.35693,-2.029674,197.39,28.85,4,80.45,23 / 23,437707,2020-01-08 16:28:32:683,0.4762,-1.2076,10.729,-0.0094,0.0055,9.8066,0.1417,-0.1392,0.0555,-18.31,-35.56,5.44,260.75,-85.18,164.43
1238,52.35693,-2.029674,197.39,28.85,4,80.45,23 / 23,437807,2020-01-08 16:28:32:783,-0.6018,-4.1137,9.3603,0.0391,0.0068,9.8065,0.1343,-0.2514,-0.0384,-17.44,-35.81,5.44,260.03,-85.06,163.57
1239,52.35693,-2.029674,197.39,28.85,4,80.45,23 / 23,437908,2020-01-08 16:28:32:884,1.0613,-1.2928,10.3036,0.05,0.0744,9.8062,0.068,0.007,-0.0491,-17.62,-35.25,6.0,264.9,-85.17,165.38
1240,52.35693,-2.029674,197.39,28.85,4,80.45,23 / 23,438008,2020-01-08 16:28:32:984,-0.9318,-3.1106,8.1704,0.0489,0.0227,9.8065,0.1376,0.0781,-0.0082,-17.69,-35.69,5.56,262.05,-84.78,163.46
1241,52.35693,-2.029674,197.39,28.85,4,80.45,23 / 23,438108,2020-01-08 16:28:33:084,0.9267,2.5571,9.5133,-0.0053,0.0363,9.8066,0.014,0.2383,-0.2295,-17.5,-35.69,6.19,261.56,-85.01,162.03
1242,52.35693,-2.029674,197.39,28.85,4,80.45,23 / 23,438208,2020-01-08 16:28:33:184,-1.0449,-1.6293,9.774,0.0061,0.0565,9.8065,0.0442,0.2682,-0.211,-17.44,-36.06,6.0,261.37,-85.07,161.71
1243,52.35693,-2.029674,197.39,28.85,4,80.45,23 / 23,438308,2020-01-08 16:28:33:284,2.8069,1.1942,11.1658,0.0425,0.0198,9.8064,0.1007,0.2249,-0.142,-17.75,-35.44,6.56,266.49,-85.3,163.78
1244,52.35693,-2.029674,197.39,28.85,4,80.45,23 / 23,438408,2020-01-08 16:28:33:384,2.2048,-0.9086,8.7095,0.0826,0.0157,9.8062,0.1363,0.0571,-0.1434,-18.12,-35.31,5.69,262.87,-84.84,163.92
1245,52.35693,-2.029674,197.39,28.85,4,80.45,23 / 23,438508,2020-01-08 16:28:33:484,-0.4226,-0.1329,11.0355,-0.0162,-0.0049,9.8066,0.1338,-0.025,-0.0626,-18.0,-36.06,6.0,264.58,-85.0,165.64
1246,52.35693,-2.029674,197.39,28.85,4,80.45,23 / 23,438608,2020-01-08 16:28:33:584,-0.6063,0.6538,9.1001,0.0276,-0.0241,9.8066,0.0255,-0.0858,0.0962,-17.56,-35.94,6.31,267.76,-85.15,168.58
1247,52.35693,-2.029674,197.39,28.85,4,80.45,23 / 23,438708,2020-01-08 16:28:33:684,-0.9929,-0.2801,9.917,-0.0097,-0.0037,9.8066,-0.0691,-0.1525,0.0396,-18.12,-35.69,6.19,269.1,-85.25,169.74
1248,52.35693,-2.029674,197.39,28.85,4,80.45,23 / 23,438808,2020-01-08 16:28:33:784,-0.3771,0.2808,8.843,0.0149,-0.0087,9.8066,0.0881,0.0065,-0.0245,-18.44,-36.31,6.38,269.91,-85.18,170.68
1249,52.35693,-2.029674,197.39,28.85,4,80.45,22 / 23,438907,2020-01-08 16:28:33:883,1.8341,-1.3118,10.667,0.0387,0.017,9.8065,0.2611,-0.0078,-0.0705,-17.75,-35.19,6.44,269.7,-85.26,170.08
1250,52.35693,-2.029674,197.39,28.85,4,80.45,22 / 23,439008,2020-01-08 16:28:33:984,-2.8024,-2.3883,7.8411,0.0416,0.0274,9.8065,0.3107,-0.1026,-0.2735,-17.81,-36.31,6.19,268.3,-85.48,168.5
1251,52.35693,-2.029674,197.39,28.85,4,80.45,22 / 23,439108,2020-01-08 16:28:34:084,0.4351,-4.2974,12.0663,0.012,0.0476,9.8065,0.1814,0.0735,-0.0534,-17.62,-35.94,6.06,268.62,-85.23,165.81
1252,52.35693,-2.029674,197.39,28.85,4,80.45,22 / 23,439208,2020-01-08 16:28:34:184,-0.078,-2.7219,8.6578,0.0534,-0.0261,9.8064,0.0083,0.4085,-0.1588,-18.12,-36.5,6.13,267.44,-85.14,168.26
1253,52.35693,-2.029674,197.39,28.85,4,80.45,22 / 23,439307,2020-01-08 16:28:34:283,2.1071,2.4866,9.3222,0.0009,0.037,9.8066,-0.0477,0.3781,-0.2551,-17.75,-35.75,6.19,268.76,-85.3,169.3
1254,52.35693,-2.029674,197.39,28.85,4,80.45,22 / 23,439408,2020-01-08 16:28:34:384,-1.3346,-1.0467,9.1759,0.0059,0.0263,9.8065,-0.1797,0.0007,-0.1246,-18.62,-36.06,6.31,268.78,-85.29,169.82
1255,52.35693,-2.029674,197.39,28.85,4,80.45,22 / 23,439508,2020-01-08 16:28:34:484,-0.4345,-1.0453,10.1505,-0.0315,-0.0225,9.8065,-0.1493,-0.086,0.1544,-17.56,-35.56,6.06,272.24,-85.36,172.66
1256,52.35693,-2.029674,197.39,28.85,4,80.45,22 / 23,439608,2020-01-08 16:28:34:584,1.3411,1.5998,11.3186,-0.032,-0.0064,9.8066,-0.2151,-0.2846,0.2119,-17.81,-35.31,6.56,273.43,-85.23,170.88
1257,52.35693,-2.029674,197.39,28.85,4,80.45,22 / 23,439708,2020-01-08 16:28:34:684,0.202,-0.6732,9.0134,-0.038,-0.0171,9.8065,-0.1752,-0.2948,0.0992,-17.44,-35.5,6.63,273.89,-85.23,170.65
1258,52.35693,-2.029674,197.39,28.85,4,80.45,22 / 23,439807,2020-01-08 16:28:34:783,1.3685,0.6427,10.1696,-0.0398,-0.0249,9.8065,-0.0796,-0.2597,0.1684,-17.5,-35.62,6.5,275.52,-85.34,172.3
1259,52.35693,-2.029674,197.39,28.85,4,80.45,23 / 23,439908,2020-01-08 16:28:34:884,-1.6093,-2.3839,9.3114,-0.0374,-0.0545,9.8064,-0.0383,-0.3514,0.288,-17.81,-36.06,6.56,270.83,-85.2,168.58
1260,52.35693,-2.029674,197.39,28.85,4,80.45,23 / 23,440008,2020-01-08 16:28:34:984,0.6588,1.9937,10.5018,-0.0275,-0.0159,9.8066,0.0044,-0.4166,0.2624,-17.56,-36.0,6.88,271.93,-85.3,169.49
1261,52.35693,-2.029674,197.39,28.85,4,80.45,23 / 23,440108,2020-01-08 16:28:35:084,-1.0408,-4.59,10.8017,-0.0012,-0.061,9.8065,0.0821,-0.4896,0.2167,-17.69,-35.25,6.69,275.56,-85.35,172.77
1262,52.35693,-2.029674,197.39,28.85,4,80.45,23 / 23,440208,2020-01-08 16:28:35:184,-1.6515,-1.4352,8.7691,0.0162,-0.0641,9.8064,-0.1396,-0.2832,0.4164,-17.69,-35.87,6.63,275.78,-85.3,173.32
1263,52.35693,-2.029674,197.39,28.85,4,80.45,23 / 23,440308,2020-01-08 16:28:35:284,-2.1645,-4.2584,8.6658,-0.0489,-0.0451,9.8064,-0.1512,-0.201,0.2441,-17.44,-35.75,6.81,274.5,-85.45,171.08
1264,52.35693,-2.029674,197.39,28.85,4,80.45,23 / 23,440408,2020-01-08 16:28:35:384,-0.6132,1.1189,11.4442,-0.0265,-0.077,9.8062,-0.0177,-0.1404,-0.1018,-17.31,-35.56,6.63,282.0,-85.63,178.06
1265,52.35693,-2.029674,197.39,28.85,4,80.45,23 / 23,440508,2020-01-08 16:28:35:484,-2.5212,-1.704,8.2775,-0.0581,-0.0831,9.8061,0.0746,-0.4223,0.0571,-17.81,-35.69,6.75,275.42,-85.42,172.73
1266,52.35693,-2.029674,197.39,28.85,4,80.45,23 / 23,440608,2020-01-08 16:28:35:584,2.0049,7.7011,10.4723,-0.0864,-0.1044,9.8057,0.1583,-0.0227,-0.0704,-17.75,-35.81,6.69,280.12,-85.54,177.13
1267,52.35693,-2.029674,197.39,28.85,4,80.45,23 / 23,440708,2020-01-08 16:28:35:684,-1.2289,-4.7892,9.1654,-0.0266,-0.0613,9.8064,0.0957,0.3196,-0.1744,-17.94,-35.69,7.25,281.12,-85.56,178.07
1268,52.35693,-2.029674,197.39,28.85,4,80.45,23 / 23,440807,2020-01-08 16:28:35:783,2.173,5.631,10.8138,-0.0836,-0.1052,9.8057,0.2348,0.6206,-0.4978,-17.87,-36.12,6.69,284.39,-85.71,-179.05
1269,52.35693,-2.029674,197.39,28.85,4,80.45,23 / 23,440908,2020-01-08 16:28:35:884,-4.0256,-6.3576,9.2111,0.0056,0.0077,9.8066,0.1628,0.6411,-0.5646,-17.44,-35.75,6.94,282.68,-85.52,178.94
1270,52.35693,-2.029674,197.39,28.85,4,80.45,22 / 24,441008,2020-01-08 16:28:35:984,-0.9515,-0.3765,9.9412,-0.0472,-0.0915,9.8061,0.1573,0.5684,-0.4024,-17.87,-36.19,7.13,283.33,-85.52,-179.7
1271,52.35693,-2.029674,197.39,28.85,4,80.45,22 / 24,441108,2020-01-08 16:28:36:084,-4.5471,-4.9032,8.625,-0.0071,0.0155,9.8066,0.1587,0.5373,-0.3425,-17.19,-35.75,7.38,281.9,-85.47,178.28
1272,52.35693,-2.029674,197.39,28.85,4,80.45,22 / 24,441207,2020-01-08 16:28:36:183,0.3829,3.6106,10.9056,-0.0595,-0.0662,9.8062,0.1229,0.6199,-0.4928,-17.81,-35.06,6.81,285.55,-85.71,-178.13
1273,52.35693,-2.029674,197.39,28.85,4,80.45,22 / 24,441308,2020-01-08 16:28:36:284,-1.4703,0.9761,8.7339,-0.0261,0.0338,9.8065,0.2397,0.5348,-0.5361,-18.12,-35.44,7.06,282.47,-85.7,178.89
1274,52.35693,-2.029674,197.39,28.85,4,80.45,22 / 24,441408,2020-01-08 16:28:36:384,2.267,3.5132,11.1247,-0.0667,-0.0578,9.8062,0.2415,0.4209,-0.3688,-18.25,-35.5,7.31,285.37,-85.73,-178.34
1275,52.35693,-2.029674,197.39,28.85,4,80.45,22 / 24,441508,2020-01-08 16:28:36:484,-0.5978,-2.6662,9.0326,0.0187,0.0235,9.8065,0.1675,0.3843,-0.1984,-17.81,-35.25,7.63,286.8,-85.59,-179.58
1276,52.35693,-2.029674,197.39,28.85,4,80.45,22 / 24,441607,2020-01-08 16:28:36:583,-2.3308,-3.9556,8.6328,-0.0317,-0.024,9.8065,0.136,0.2524,-0.116,-18.37,-35.19,7.13,284.67,-85.67,-178.91
1277,52.35693,-2.029674,197.39,28.85,4,80.45,22 / 24,441708,2020-01-08 16:28:36:684,-1.2943,-3.3245,8.9881,0.0504,0.0697,9.8063,0.05,-0.1868,0.0195,-18.12,-35.25,7.31,287.31,-85.78,-176.57
1278,52.35693,-2.029674,197.39,28.85,4,80.45,22 / 24,441808,2020-01-08 16:28:36:784,-1.6815,-2.0458,9.673,-0.0014,0.0168,9.8066,0.0075,-0.1992,0.0722,-18.0,-35.62,7.5,285.74,-85.63,179.54
1279,52.35693,-2.029674,197.39,28.85,4,80.45,23 / 23,441907,2020-01-08 16:28:36:883,-0.142,2.2958,10.0979,0.0146,0.0419,9.8065,-0.0818,-0.2686,0.1285,-17.94,-35.44,7.56,282.75,-85.5,176.66
1280,52.35693,-2.029674,197.39,28.85,4,80.45,23 / 23,442009,2020-01-08 16:28:36:985,-2.5998,-1.5775,9.2223,0.0469,0.0178,9.8064,-0.1583,-0.2062,0.2005,-18.06,-35.0,7.63,283.06,-85.4,177.15
1281,52.35693,-2.029674,197.39,28.85,4,80.45,23 / 23,442107,2020-01-08 16:28:37:083,0.5571,2.8788,11.2303,0.0386,0.0228,9.8064,-0.2208,-0.4364,0.3069,-18.06,-35.31,7.44,283.24,-85.57,179.87
1282,52.35693,-2.029674,197.39,28.85,4,80.45,23 / 23,442207,2020-01-08 16:28:37:183,0.2927,-0.7177,10.6078,0.0489,0.0514,9.8063,-0.2464,-0.4224,0.462,-17.87,-35.62,7.5,283.69,-85.42,177.94
1283,52.35693,-2.029674,197.39,28.85,4,80.45,23 / 23,442307,2020-01-08 16:28:37:283,1.4496,4.6253,9.4512,0.0522,0.0723,9.8062,0.0645,-0.6143,0.361,-18.0,-35.56,7.69,289.32,-85.52,-176.83
1284,52.35693,-2.029674,197.39,28.85,4,80.45,23 / 23,442408,2020-01-08 16:28:37:384,-0.4016,-1.3597,9.7324,0.0058,0.0615,9.8064,0.0202,-0.3699,0.1936,-17.69,-35.56,7.38,281.06,-85.43,178.24
1285,52.35693,-2.029674,197.39,28.85,4,80.45,23 / 23,442507,2020-01-08 16:28:37:483,1.6901,3.3912,11.0662,-0.0008,-0.0213,9.8066,0.1135,-0.1953,0.0304,-17.94,-35.75,7.81,285.07,-85.35,179.4
1286,52.35693,-2.029674,197.39,28.85,4,80.45,23 / 23,442608,2020-01-08 16:28:37:584,0.6441,-4.4304,10.8071,0.0475,0.0534,9.8063,0.2656,-0.1455,0.1027,-17.62,-35.31,8.0,282.0,-85.14,176.58
1287,52.35693,-2.029674,197.39,28.85,4,80.45,23 / 23,442707,2020-01-08 16:28:37:683,-0.8374,-2.7524,8.8979,-0.0546,-0.0376,9.8064,0.1681,0.1504,-0.2084,-17.62,-36.19,7.88,282.47,-85.08,177.39
1288,52.35693,-2.029674,197.39,28.85,4,80.45,23 / 23,442808,2020-01-08 16:28:37:784,-1.623,-5.7322,10.2758,-0.0166,0.0386,9.8065,-0.0079,0.2433,-0.2524,-18.37,-35.81,8.19,282.49,-85.23,177.13
1289,52.35693,-2.029674,197.39,28.85,4,80.45,23 / 23,442908,2020-01-08 16:28:37:884,-0.4547,-0.1554,9.7782,0.0036,-0.0769,9.8063,-0.0829,0.5548,-0.297,-17.56,-35.44,8.06,282.08,-85.28,176.42
1290,52.35693,-2.029674,197.39,28.85,4,80.45,23 / 23,443008,2020-01-08 16:28:37:984,0.4968,4.8733,8.9729,0.0198,-0.0002,9.8066,-0.0796,0.611,-0.2894,-17.75,-35.56,7.94,284.62,-85.13,179.37
1291,52.35693,-2.029674,197.39,28.85,4,80.45,23 / 23,443108,2020-01-08 16:28:38:084,-0.4967,-2.3017,10.1939,0.0064,-0.0681,9.8064,-0.1016,0.5263,-0.3383,-17.5,-35.12,7.81,284.64,-85.21,178.17
1292,52.35693,-2.029674,197.39,28.85,4,80.45,23 / 23,443208,2020-01-08 16:28:38:184,1.2417,0.6444,10.5727,0.0193,-0.0512,9.8065,-0.1804,0.2381,-0.2657,-18.25,-35.44,8.0,285.46,-85.04,-179.9
1293,52.35693,-2.029674,197.39,28.85,4,80.45,23 / 23,443308,2020-01-08 16:28:38:284,0.0543,-3.7258,10.4808,0.012,-0.0169,9.8066,-0.0366,0.0587,0.0254,-17.87,-35.56,8.56,286.36,-85.23,178.07
1294,52.35693,-2.029674,197.39,28.85,4,80.45,23 / 23,443408,2020-01-08 16:28:38:384,0.6453,0.9445,9.3146,0.0004,-0.0587,9.8064,-0.0638,0.0176,0.131,-18.37,-35.62,8.06,286.0,-85.11,-179.27
1295,52.35693,-2.029674,197.39,28.85,4,80.45,23 / 23,443507,2020-01-08 16:28:38:483,-1.3701,-3.177,9.6597,0.0122,-0.0169,9.8066,-0.0959,-0.3102,0.0803,-17.69,-35.87,8.0,285.44,-85.12,-179.82
1296,52.35693,-2.029674,197.39,28.85,4,80.45,23 / 23,443607,2020-01-08 16:28:38:583,1.2254,0.9956,9.9864,-0.0176,-0.0267,9.8066,-0.1057,-0.3497,0.1278,-18.06,-35.44,8.44,286.45,-85.26,-179.34
1297,52.35693,-2.029674,197.39,28.85,4,80.45,23 / 23,443708,2020-01-08 16:28:38:684,0.3307,2.4117,8.7111,-0.0075,0.0482,9.8064,0.1253,-0.4174,0.3595,-18.31,-35.75,8.25,287.71,-85.15,-177.7
1298,52.35693,-2.029674,197.39,28.85,4,80.45,23 / 23,443807,2020-01-08 16:28:38:783,0.0116,1.5475,8.8653,0.0012,-0.0331,9.8066,0.1747,-0.3183,0.2295,-17.94,-35.62,7.88,286.95,-85.01,-178.17
1299,52.35693,-2.029674,197.39,28.85,4,80.45,23 / 23,443908,2020-01-08 16:28:38:884,0.3784,1.0148,10.2053,-0.0143,0.0065,9.8066,0.1203,-0.2117,-0.0417,-18.25,-35.31,8.19,286.36,-85.14,-179.21
1300,52.35693,-2.029674,197.39,28.85,4,80.45,22 / 23,444008,2020-01-08 16:28:38:984,0.2651,-2.8442,10.9656,0.0116,0.0331,9.8066,0.1139,-0.0869,-0.0485,-18.56,-35.19,8.25,284.78,-85.2,179.92
1301,52.35693,-2.029674,197.39,28.85,4,80.45,22 / 23,444108,2020-01-08 16:28:39:084,1.2354,0.9686,10.8797,-0.0462,0.0279,9.8065,0.1232,0.1476,-0.0058,-18.0,-34.94,7.38,284.98,-85.44,-178.21
1302,52.35693,-2.029674,197.39,28.85,4,80.45,22 / 23,444208,2020-01-08 16:28:39:184,0.7844,-1.576,11.3697,-0.0292,0.0082,9.8066,0.0194,0.1157,-0.0463,-17.56,-35.25,8.5,292.05,-85.35,-176.91
1303,52.35693,-2.029674,197.39,28.85,4,80.45,22 / 23,444308,2020-01-08 16:28:39:284,1.6875,-1.0429,9.9645,-0.0027,-0.0004,9.8066,-0.1492,0.1212,-0.1012,-17.56,-35.06,8.75,291.93,-85.27,-176.9
1304,52.35693,-2.029674,197.39,28.85,4,80.45,22 / 23,444408,2020-01-08 16:28:39:384,-0.1785,-1.8604,10.9613,-0.0252,0.0263,9.8065,-0.2713,0.2486,-0.0782,-17.75,-35.81,8.19,288.52,-85.47,-177.51
1305,52.35693,-2.029674,197.39,28.85,4,80.45,22 / 23,444508,2020-01-08 16:28:39:484,-0.5729,1.6642,9.2682,0.0127,-0.0192,9.8066,-0.0697,0.2469,-0.1967,-18.44,-35.5,8.19,288.05,-85.32,-177.91
1306,52.35693,-2.029674,197.39,28.85,4,80.45,22 / 23,444608,2020-01-08 16:28:39:584,3.1783,1.4469,8.7885,0.0152,0.007,9.8066,0.0126,0.0481,-0.0885,-18.06,-35.25,8.38,288.77,-85.25,-177.1
1307,52.35693,-2.029674,197.39,28.85,4,80.45,22 / 23,444707,2020-01-08 16:28:39:683,-1.0846,-1.9744,9.7913,0.0156,-0.0401,9.8065,0.0105,-0.3182,0.174,-18.0,-35.06,8.56,294.29,-85.0,-174.23
1308,52.35693,-2.029674,197.39,28.85,4,80.45,22 / 23,444808,2020-01-08 16:28:39:784,3.0317,2.1635,10.928,-0.0341,-0.0434,9.8065,-0.1301,-0.2968,0.3036,-17.94,-35.5,8.81,296.81,-85.18,-172.17
1309,52.35693,-2.029674,197.39,28.85,4,80.45,22 / 23,444908,2020-01-08 16:28:39:884,-0.3031,-2.9325,8.8645,-0.042,-0.0396,9.8065,0.0447,-0.2515,0.2453,-18.19,-35.19,8.38,291.0,-85.14,-174.79
1310,52.35713,-2.026069,202.46,26.25,4,90.25,22 / 22,445008,2020-01-08 16:28:39:984,1.0553,0.6861,9.2752,-0.0174,-0.0347,9.8065,-0.0344,-0.2415,0.0711,-17.37,-34.94,8.88,297.03,-85.2,-172.97
1311,52.35713,-2.026069,202.46,26.25,4,90.25,22 / 22,445108,2020-01-08 16:28:40:084,0.904,-1.5449,9.1395,-0.0387,0.021,9.8064,-0.0468,-0.2624,0.0256,-17.87,-35.69,8.69,294.69,-85.3,-174.13
1312,52.35713,-2.026069,202.46,26.25,4,90.25,22 / 22,445207,2020-01-08 16:28:40:183,-0.5224,-1.8276,10.0659,-0.0235,-0.0169,9.8066,-0.0702,-0.0302,0.0372,-18.06,-35.75,8.5,296.81,-85.28,-172.1
1313,52.35713,-2.026069,202.46,26.25,4,90.25,22 / 22,445307,2020-01-08 16:28:40:283,0.1638,-1.6929,9.0103,0.0172,0.0308,9.8065,-0.0591,0.0343,-0.0618,-17.94,-35.25,8.88,297.0,-85.15,-171.92
1314,52.35713,-2.026069,202.46,26.25,4,90.25,22 / 22,445407,2020-01-08 16:28:40:383,-0.0454,-1.847,10.7808,-0.0358,0.0156,9.8065,-0.0595,0.171,-0.128,-17.62,-34.81,8.5,295.98,-85.24,-173.02
1315,52.35713,-2.026069,202.46,26.25,4,90.25,22 / 22,445508,2020-01-08 16:28:40:484,1.3019,1.5722,9.787,0.0067,0.0202,9.8066,-0.1042,0.2965,-0.1345,-17.0,-35.56,8.63,298.11,-85.15,-171.65
1316,52.35713,-2.026069,202.46,26.25,4,90.25,22 / 22,445608,2020-01-08 16:28:40:584,0.1813,-3.3464,11.2756,-0.012,0.0411,9.8065,0.0313,0.3244,-0.2165,-17.87,-35.31,9.19,296.86,-85.29,-172.29
1317,52.35713,-2.026069,202.46,26.25,4,90.25,22 / 22,445708,2020-01-08 16:28:40:684,1.6602,1.5966,9.7886,0.0309,0.0054,9.8066,0.0851,0.1434,-0.1955,-18.19,-34.81,8.88,297.45,-85.13,-171.49
1318,52.35713,-2.026069,202.46,26.25,4,90.25,22 / 22,445808,2020-01-08 16:28:40:784,-0.1634,1.1608,9.2049,0.0063,0.0194,9.8066,0.1204,-0.1589,0.0928,-18.0,-35.31,9.19,297.98,-85.13,-170.98
1319,52.35713,-2.026069,202.46,26.25,4,90.25,22 / 22,445908,2020-01-08 16:28:40:884,0.8915,2.3249,7.93,0.0486,-0.0582,9.8063,0.2415,-0.1948,0.1448,-18.37,-35.0,8.81,298.92,-85.3,-170.38
1320,52.35713,-2.026069,202.46,26.25,4,90.25,22 / 22,446008,2020-01-08 16:28:40:984,-0.0186,1.1349,8.4007,0.0188,0.0079,9.8066,0.1543,-0.5353,0.1477,-18.25,-35.06,9.63,302.31,-85.22,-169.76
1321,52.35713,-2.026069,202.46,26.25,4,90.25,22 / 22,446108,2020-01-08 16:28:41:084,-0.9714,-3.3828,10.7623,0.0058,-0.0313,9.8066,0.1626,-0.4985,0.1727,-18.19,-35.12,9.63,303.12,-85.41,-169.29
1322,52.35713,-2.026069,202.46,26.25,4,90.25,22 / 22,446208,2020-01-08 16:28:41:184,1.6048,1.5358,9.7462,0.0015,-0.0602,9.8064,0.0309,-0.1572,0.1153,-18.12,-35.19,9.0,302.64,-85.32,-166.95
1323,52.35713,-2.026069,202.46,26.25,4,90.25,22 / 22,446308,2020-01-08 16:28:41:284,-0.1455,-3.5558,10.8158,0.0066,-0.0164,9.8066,-0.0376,-0.2108,0.0628,-17.69,-35.19,9.19,301.37,-85.28,-168.08
1324,52.35713,-2.026069,202.46,26.25,4,90.25,22 / 22,446408,2020-01-08 16:28:41:384,1.6984,1.4593,9.8903,0.0345,-0.0663,9.8064,-0.0867,-0.1202,0.1538,-18.0,-35.44,9.19,301.33,-85.05,-167.76
1325,52.35713,-2.026069,202.46,26.25,4,90.25,22 / 22,446509,2020-01-08 16:28:41:485,1.169,2.3458,7.3595,-0.0435,0.0134,9.8065,-0.268,0.0332,-0.0165,-18.44,-35.37,9.88,303.45,-85.32,-168.86
1326,52.35713,-2.026069,202.46,26.25,4,90.25,22 / 22,446608,2020-01-08 16:28:41:584,2.9475,3.5081,7.9736,-0.0309,-0.0522,9.8064,-0.2517,0.2204,-0.1927,-17.94,-34.94,9.31,301.83,-85.1,-167.37
1327,52.35713,-2.026069,202.46,26.25,4,90.25,22 / 22,446707,2020-01-08 16:28:41:683,-0.8947,-2.8694,9.0612,-0.0867,0.0309,9.8061,-0.312,0.3294,-0.1442,-19.37,-35.19,9.88,301.95,-84.91,-168.64
1328,52.35713,-2.026069,202.46,26.25,4,90.25,22 / 22,446808,2020-01-08 16:28:41:784,2.5133,-3.688,12.9388,-0.0073,-0.044,9.8065,-0.3664,0.386,-0.1127,-17.94,-35.0,9.31,301.57,-84.95,-167.38
1329,52.35713,-2.026069,202.46,26.25,4,90.25,22 / 22,446908,2020-01-08 16:28:41:884,-1.1824,1.2973,7.4164,-0.071,0.0392,9.8062,-0.2655,0.1712,-0.05,-18.44,-34.87,8.88,300.58,-85.27,-168.79
1330,52.35713,-2.026069,202.46,26.25,4,90.25,21 / 23,447008,2020-01-08 16:28:41:984,3.2695,-1.2547,10.4715,0.0858,-0.0095,9.8062,-0.2846,0.107,-0.0819,-18.12,-35.37,9.5,299.0,-84.44,-171.62
1331,52.35713,-2.026069,202.46,26.25,4,90.25,21 / 23,447108,2020-01-08 16:28:42:084,0.0404,2.5939,7.5702,0.0849,-0.0341,9.8061,-0.0548,-0.0859,0.0325,-18.56,-35.5,9.63,297.94,-84.69,-172.03
1332,52.35713,-2.026069,202.46,26.25,4,90.25,21 / 23,447207,2020-01-08 16:28:42:183,-0.3656,-3.0759,10.3802,-0.0216,0.0097,9.8065,0.0505,-0.3718,0.2177,-17.81,-35.5,9.81,299.14,-85.14,-172.58
1333,52.35713,-2.026069,202.46,26.25,4,90.25,21 / 23,447307,2020-01-08 16:28:42:283,-0.4363,-0.7965,10.0628,0.0006,-0.0142,9.8066,0.0406,-0.3412,0.1888,-18.69,-35.5,9.0,297.23,-85.14,-170.81
1334,52.35713,-2.026069,202.46,26.25,4,90.25,21 / 23,447408,2020-01-08 16:28:42:384,0.8798,-2.1726,9.5512,0.0215,0.0213,9.8065,-0.0706,-0.2097,0.1321,-18.44,-35.25,9.81,301.41,-85.19,-170.56
1335,52.35713,-2.026069,202.46,26.25,4,90.25,21 / 23,447508,2020-01-08 16:28:42:484,2.063,0.1369,10.8865,0.0178,-0.0134,9.8066,-0.0147,-0.2482,0.0724,-18.0,-35.56,9.38,298.5,-84.98,-170.05
1336,52.35713,-2.026069,202.46,26.25,4,90.25,21 / 23,447608,2020-01-08 16:28:42:584,2.2218,0.0684,9.3244,0.0436,0.008,9.8064,-0.1081,-0.1282,0.1745,-17.75,-35.19,9.44,296.62,-84.91,-171.9
1337,52.35713,-2.026069,202.46,26.25,4,90.25,21 / 23,447708,2020-01-08 16:28:42:684,2.0935,0.287,11.0585,-0.0094,-0.0072,9.8066,-0.1412,-0.1564,0.1317,-18.31,-34.94,9.31,298.5,-84.99,-170.28
1338,52.35713,-2.026069,202.46,26.25,4,90.25,21 / 23,447807,2020-01-08 16:28:42:783,-1.0925,-2.9452,9.5764,0.0329,0.0205,9.8065,-0.0741,-0.2998,0.2314,-17.94,-35.37,9.31,298.69,-84.88,-169.94
1339,52.35713,-2.026069,202.46,26.25,4,90.25,23 / 23,447910,2020-01-08 16:28:42:886,0.8354,-0.2411,8.8493,-0.0114,0.0022,9.8065,-0.0326,-0.3619,0.2706,-18.0,-35.37,10.13,303.48,-84.93,-168.25
1340,52.35713,-2.026069,202.46,26.25,4,90.25,23 / 23,448008,2020-01-08 16:28:42:984,-1.4461,-3.17,9.5049,0.0088,0.0306,9.8065,-0.0268,-0.3109,0.1571,-18.44,-35.44,9.75,303.11,-84.9,-168.54
1341,52.35713,-2.026069,202.46,26.25,4,90.25,23 / 23,448107,2020-01-08 16:28:43:083,0.2257,-0.2362,10.7726,-0.0062,-0.0278,9.8066,-0.1077,-0.1797,0.1324,-17.81,-35.0,9.31,302.03,-84.83,-166.78
1342,52.35713,-2.026069,202.46,26.25,4,90.25,23 / 23,448207,2020-01-08 16:28:43:183,-0.6053,-0.9114,10.0248,0.0299,0.0177,9.8066,-0.0994,-0.2593,0.2056,-18.31,-34.94,9.25,299.81,-84.73,-168.66
1343,52.35713,-2.026069,202.46,26.25,4,90.25,23 / 23,448307,2020-01-08 16:28:43:283,3.2927,2.5746,10.136,-0.0065,0.0019,9.8066,-0.0123,-0.5076,0.2756,-18.19,-34.25,9.25,300.69,-84.81,-168.19
1344,52.35713,-2.026069,202.46,26.25,4,90.25,23 / 23,448407,2020-01-08 16:28:43:383,0.6711,-3.8211,11.1069,0.0049,0.0615,9.8064,0.125,-0.4384,0.2533,-17.37,-35.12,9.44,299.17,-84.87,-170.44
1345,52.35713,-2.026069,202.46,26.25,4,90.25,23 / 23,448508,2020-01-08 16:28:43:484,-0.6456,-2.0047,8.9935,-0.0291,-0.0253,9.8066,0.1674,-0.1615,0.035,-17.31,-35.75,9.06,299.21,-84.83,-170.1
1346,52.35713,-2.026069,202.46,26.25,4,90.25,23 / 23,448607,2020-01-08 16:28:43:583,-0.9922,-3.0484,10.829,-0.0377,0.0121,9.8065,0.1497,-0.1445,-0.0271,-16.19,-35.87,10.31,305.77,-84.85,-168.11
1347,52.35713,-2.026069,202.46,26.25,4,90.25,23 / 23,448708,2020-01-08 16:28:43:684,-0.107,0.0176,8.3767,-0.0239,-0.0523,9.8065,0.0836,0.0189,0.0612,-16.44,-36.44,11.94,315.61,-84.8,-164.57
1348,52.35713,-2.026069,202.46,26.25,4,90.25,23 / 23,448808,2020-01-08 16:28:43:784,-0.1289,0.1642,9.6959,-0.0286,0.0304,9.8065,0.0482,-0.0545,0.0472,-17.62,-34.75,12.81,314.82,-84.94,-165.24
1349,52.35713,-2.026069,202.46,26.25,4,90.25,23 / 23,448908,2020-01-08 16:28:43:884,0.6071,1.4547,7.7552,0.0138,-0.0134,9.8066,0.044,-0.0861,-0.0434,-16.81,-33.87,12.19,314.61,-84.98,-164.65
1350,52.35713,-2.026069,202.46,26.25,4,90.25,23 / 23,449008,2020-01-08 16:28:43:984,-0.4707,-2.1543,10.3741,-0.0274,0.0228,9.8065,-0.1301,-0.2429,0.006,-17.56,-35.12,11.25,309.73,-84.87,-165.02
1351,52.35713,-2.026069,202.46,26.25,4,90.25,23 / 23,449107,2020-01-08 16:28:44:083,3.0359,0.3338,13.4771,0.1118,-0.0273,9.8059,-0.5434,-0.1782,0.3363,-17.87,-34.94,10.38,304.49,-84.7,-166.99
1352,52.35713,-2.026069,202.46,26.25,4,90.25,23 / 23,449207,2020-01-08 16:28:44:183,-0.5396,-4.7583,9.8177,0.0933,0.0544,9.806,-0.6047,-0.1098,0.2139,-17.12,-34.69,11.0,307.41,-84.82,-168.24
1353,52.35713,-2.026069,202.46,26.25,4,90.25,23 / 23,449307,2020-01-08 16:28:44:283,1.992,0.629,12.5602,0.02,-0.0342,9.8065,-0.1429,0.1076,-0.1123,-17.37,-35.19,11.69,312.0,-85.06,-166.92
1354,52.35713,-2.026069,202.46,26.25,4,90.25,23 / 23,449408,2020-01-08 16:28:44:384,1.7904,2.1815,9.9032,0.0675,-0.0039,9.8064,-0.0201,0.2191,-0.1724,-16.94,-35.0,10.88,308.25,-84.86,-167.54
1355,52.35713,-2.026069,202.46,26.25,4,90.25,23 / 23,449508,2020-01-08 16:28:44:484,3.256,-0.2761,12.1633,-0.0533,-0.0085,9.8064,0.2433,0.2049,-0.1596,-16.87,-35.0,11.5,312.42,-85.0,-166.46
1356,52.35713,-2.026069,202.46,26.25,4,90.25,23 / 23,449608,2020-01-08 16:28:44:584,1.1593,-1.7348,9.7798,0.0246,-0.0057,9.8065,0.3229,0.0313,-0.1944,-17.19,-34.56,10.94,310.26,-85.02,-165.95
1357,52.35713,-2.026069,202.46,26.25,4,90.25,23 / 23,449708,2020-01-08 16:28:44:684,-2.0697,-0.6667,7.7343,-0.0847,-0.0165,9.8063,0.3116,0.132,-0.2307,-16.94,-34.75,9.94,311.08,-85.25,-162.92
1358,52.35713,-2.026069,202.46,26.25,4,90.25,23 / 23,449808,2020-01-08 16:28:44:784,-2.1484,-3.7497,9.1349,-0.0105,0.023,9.8066,0.2085,0.4048,-0.2217,-17.19,-34.75,10.56,310.95,-85.08,-165.4
1359,52.35713,-2.026069,202.46,26.25,4,90.25,23 / 24,449908,2020-01-08 16:28:44:884,-0.0885,-1.3602,10.0955,-0.0541,-0.0459,9.8064,0.163,0.4165,-0.2991,-17.06,-35.44,11.19,310.21,-85.13,-166.15
1360,52.35713,-2.026069,202.46,26.25,4,90.25,23 / 24,450009,2020-01-08 16:28:44:985,3.2114,2.9895,10.5318,0.0063,-0.0158,9.8065,0.1244,0.3468,-0.2667,-17.06,-35.19,10.44,309.62,-85.02,-163.91
1361,52.35713,-2.026069,202.46,26.25,4,90.25,23 / 24,450108,2020-01-08 16:28:45:084,-1.2786,-1.5568,9.2594,-0.0361,-0.0384,9.8065,-0.0207,0.0769,-0.1016,-17.5,-35.06,10.69,311.51,-85.12,-164.95
1362,52.35713,-2.026069,202.46,26.25,4,90.25,23 / 24,450207,2020-01-08 16:28:45:183,0.4369,2.3746,9.3225,-0.0159,-0.036,9.8065,-0.0627,-0.0955,0.0812,-17.25,-35.12,10.75,315.67,-85.15,-161.26
1363,52.35713,-2.026069,202.46,26.25,4,90.25,23 / 24,450307,2020-01-08 16:28:45:283,1.0135,0.2615,10.196,0.0181,0.0016,9.8066,-0.043,-0.2178,0.1276,-17.19,-35.25,10.94,313.68,-85.12,-163.0
1364,52.35713,-2.026069,202.46,26.25,4,90.25,23 / 24,450407,2020-01-08 16:28:45:383,2.1794,1.0456,9.9215,0.0064,-0.0192,9.8065,-0.0576,-0.2573,0.136,-17.12,-34.94,10.81,314.67,-85.17,-162.18
1365,52.35713,-2.026069,202.46,26.25,4,90.25,23 / 24,450508,2020-01-08 16:28:45:484,0.9185,-0.592,9.6009,0.0318,0.0209,9.8065,-0.133,-0.2537,0.2145,-18.12,-34.87,10.88,313.56,-85.08,-161.83
1366,52.35713,-2.026069,202.46,26.25,4,90.25,23 / 24,450607,2020-01-08 16:28:45:583,-1.1165,-1.6512,8.8994,-0.0221,-0.0065,9.8065,-0.2384,-0.2491,0.1776,-17.19,-35.19,11.0,314.65,-85.13,-162.15
1367,52.35713,-2.026069,202.46,26.25,4,90.25,23 / 24,450708,2020-01-08 16:28:45:684,0.9498,-3.2732,9.9854,0.0453,0.025,9.8065,0.0041,-0.3873,0.2413,-17.75,-35.31,11.0,312.1,-84.99,-163.03
1368,52.35713,-2.026069,202.46,26.25,4,90.25,23 / 24,450807,2020-01-08 16:28:45:783,0.2759,0.7083,8.4611,0.0202,-0.0444,9.8065,0.0157,-0.2006,0.2994,-17.81,-35.25,10.31,309.08,-84.7,-162.84
1369,52.35713,-2.026069,202.46,26.25,4,90.25,23 / 23,450909,2020-01-08 16:28:45:885,1.1131,0.1482,9.2262,0.0249,0.0133,9.8065,-0.1388,-0.3811,0.0946,-17.94,-35.5,11.0,311.49,-84.93,-163.51
1370,52.35713,-2.026069,202.46,26.25,4,90.25,23 / 23,451007,2020-01-08 16:28:45:983,-0.5537,-5.5068,9.9014,0.0006,0.0231,9.8066,-0.1487,-0.3744,0.1423,-17.31,-34.94,11.44,313.95,-84.75,-162.28
1371,52.35713,-2.026069,202.46,26.25,4,90.25,23 / 23,451108,2020-01-08 16:28:46:084,-1.3268,-2.4333,11.4538,0.0082,0.0951,9.8061,0.1728,-0.1216,0.1951,-17.56,-35.5,11.25,315.05,-84.57,-159.87
1372,52.35713,-2.026069,202.46,26.25,4,90.25,23 / 23,451208,2020-01-08 16:28:46:184,-0.4538,-5.0761,11.2003,-0.0033,0.0333,9.8065,0.0677,0.2494,-0.0467,-18.19,-35.06,11.19,311.76,-84.97,-163.32
1373,52.35713,-2.026069,202.46,26.25,4,90.25,23 / 23,451308,2020-01-08 16:28:46:284,6.1031,3.5847,8.5252,0.0364,0.0596,9.8064,-0.3141,0.1882,-0.3686,-18.12,-35.06,10.56,314.05,-84.88,-161.14
1374,52.35713,-2.026069,202.46,26.25,4,90.25,23 / 23,451408,2020-01-08 16:28:46:384,-0.2653,-1.619,10.9663,-0.0323,0.1063,9.8059,-0.1078,0.6782,-0.2718,-18.0,-35.06,10.94,312.09,-85.03,-163.1
1375,52.35713,-2.026069,202.46,26.25,4,90.25,23 / 23,451508,2020-01-08 16:28:46:484,3.7172,4.4904,9.8293,0.0306,0.0238,9.8065,-0.0457,0.7747,-0.3126,-18.12,-35.12,10.88,311.65,-84.85,-163.27
1376,52.35713,-2.026069,202.46,26.25,4,90.25,23 / 23,451608,2020-01-08 16:28:46:584,0.8404,-1.464,9.9062,0.0218,0.0705,9.8063,-0.0528,0.6613,-0.4734,-18.0,-35.37,11.13,311.19,-84.87,-163.7
1377,52.35713,-2.026069,202.46,26.25,4,90.25,23 / 23,451708,2020-01-08 16:28:46:684,2.79,4.6322,10.2508,-0.0082,-0.01,9.8066,0.0316,0.5964,-0.4185,-18.12,-34.75,11.19,315.15,-84.69,-159.92
1378,52.35713,-2.026069,202.46,26.25,4,90.25,23 / 23,451807,2020-01-08 16:28:46:783,-1.3049,-4.0032,9.03,0.0374,0.0444,9.8064,0.1201,0.4209,-0.185,-18.06,-34.69,11.63,318.45,-84.65,-159.37
1379,52.35713,-2.026069,202.46,26.25,4,90.25,22 / 22,451908,2020-01-08 16:28:46:884,-0.7306,-2.8356,11.2493,0.0191,-0.054,9.8064,0.1543,0.2794,-0.1747,-17.94,-34.81,11.5,318.17,-84.78,-159.76
1380,52.35713,-2.026069,202.46,26.25,4,90.25,22 / 22,452008,2020-01-08 16:28:46:984,-2.8585,-5.2071,9.6644,0.0526,0.0459,9.8063,0.202,0.1108,-0.0922,-18.12,-35.37,11.5,314.99,-84.65,-162.43
1381,52.35713,-2.026069,202.46,26.25,4,90.25,22 / 22,452107,2020-01-08 16:28:47:083,1.9923,-0.9383,11.9585,0.0033,-0.0701,9.8064,0.2883,-0.1212,0.0025,-18.06,-35.69,11.63,317.1,-84.53,-160.24
1382,52.35713,-2.026069,202.46,26.25,4,90.25,22 / 22,452207,2020-01-08 16:28:47:183,3.308,3.5375,8.3598,0.0656,-0.0102,9.8063,0.2279,-0.3148,0.1569,-17.75,-35.69,11.69,314.12,-84.62,-163.0
1383,52.35713,-2.026069,202.46,26.25,4,90.25,22 / 22,452308,2020-01-08 16:28:47:284,0.5375,1.741,9.9177,-0.0136,-0.0468,9.8065,0.1332,-0.3504,0.1326,-18.06,-34.94,11.81,314.69,-84.91,-163.01
1384,52.35713,-2.026069,202.46,26.25,4,90.25,22 / 22,452407,2020-01-08 16:28:47:383,1.3228,0.6319,10.0196,0.0026,-0.0065,9.8066,0.0061,-0.3599,0.1329,-17.87,-34.81,11.69,316.76,-84.91,-161.16
1385,52.35713,-2.026069,202.46,26.25,4,90.25,22 / 22,452508,2020-01-08 16:28:47:484,0.2147,-2.9913,10.4865,0.0098,-0.046,9.8065,0.0339,-0.3778,0.2066,-18.19,-35.19,12.19,315.89,-84.83,-161.85
1386,52.35713,-2.026069,202.46,26.25,4,90.25,22 / 22,452607,2020-01-08 16:28:47:583,0.8467,0.688,10.449,-0.0389,-0.0145,9.8065,0.0289,-0.1347,0.0989,-18.25,-34.94,12.06,317.41,-84.75,-160.41
1387,52.35713,-2.026069,202.46,26.25,4,90.25,22 / 22,452708,2020-01-08 16:28:47:684,0.0836,-1.2226,9.6439,0.0093,-0.0041,9.8065,-0.0562,-0.0189,-0.0031,-18.44,-35.44,11.44,315.91,-84.84,-159.43
1388,52.35713,-2.026069,202.46,26.25,4,90.25,22 / 22,452808,2020-01-08 16:28:47:784,-1.1448,-1.4391,11.0489,-0.0059,-0.0092,9.8065,-0.0167,0.1745,-0.1662,-18.25,-35.75,11.88,319.0,-84.68,-158.74
1389,52.35713,-2.026069,202.46,26.25,4,90.25,22 / 23,452908,2020-01-08 16:28:47:884,-0.8948,-2.2283,8.4341,0.0049,0.052,9.8064,-0.0735,0.293,-0.218,-18.31,-35.37,12.06,317.66,-84.56,-159.96
1390,52.35713,-2.026069,202.46,26.25,4,90.25,22 / 23,453008,2020-01-08 16:28:47:984,-1.135,-1.1482,9.4498,0.0493,-0.0301,9.8064,-0.1197,0.1434,-0.2367,-18.62,-35.12,12.31,312.47,-84.43,-163.26
1391,52.35713,-2.026069,202.46,26.25,4,90.25,22 / 23,453108,2020-01-08 16:28:48:084,0.6611,1.261,11.9891,-0.0851,0.0197,9.8062,-0.3226,0.0447,0.1142,-18.0,-35.44,11.75,317.02,-84.96,-160.99
1392,52.35713,-2.026069,202.46,26.25,4,90.25,22 / 23,453208,2020-01-08 16:28:48:184,0.279,-1.769,9.0899,-0.013,0.0004,9.8066,-0.2101,-0.1652,0.164,-17.75,-35.12,11.81,313.17,-84.75,-164.19
1393,52.35713,-2.026069,202.46,26.25,4,90.25,22 / 23,453308,2020-01-08 16:28:48:284,-1.3877,-0.6252,8.7899,-0.0552,0.0007,9.8065,-0.2074,-0.2464,0.0845,-17.75,-34.87,11.75,312.35,-84.45,-164.55
1394,52.35713,-2.026069,202.46,26.25,4,90.25,22 / 23,453408,2020-01-08 16:28:48:384,2.047,1.9836,10.2294,-0.0386,-0.0285,9.8064,-0.0546,-0.2231,0.1782,-18.37,-34.56,11.94,315.71,-84.55,-161.68
1395,52.35713,-2.026069,202.46,26.25,4,90.25,22 / 23,453508,2020-01-08 16:28:48:484,-0.4762,1.7617,8.8294,-0.0441,-0.0371,9.8064,-0.0092,-0.1706,0.2458,-17.81,-34.44,12.81,321.02,-84.68,-159.56
1396,52.35713,-2.026069,202.46,26.25,4,90.25,22 / 23,453608,2020-01-08 16:28:48:584,0.8988,0.6439,10.5412,-0.041,0.0041,9.8066,0.1249,-0.1005,-0.0034,-18.12,-34.25,12.0,318.76,-84.84,-159.46
1397,52.35713,-2.026069,202.46,26.25,4,90.25,22 / 23,453707,2020-01-08 16:28:48:683,-1.912,-2.0733,8.8222,0.0023,-0.0086,9.8066,0.1007,0.0213,-0.108,-18.06,-34.12,12.19,317.77,-84.79,-160.28
1398,52.35713,-2.026069,202.46,26.25,4,90.25,22 / 23,453808,2020-01-08 16:28:48:784,1.5649,0.5688,10.5708,-0.0493,-0.0285,9.8064,0.1177,0.079,-0.1963,-18.44,-34.75,12.63,320.69,-84.75,-159.78
1399,52.35713,-2.026069,202.46,26.25,4,90.25,23 / 23,453908,2020-01-08 16:28:48:884,-2.2973,-1.6453,9.016,-0.0114,-0.0152,9.8066,0.1232,0.1013,-0.1702,-18.25,-35.0,12.75,318.4,-84.72,-161.78
1400,52.35688,-2.022406,208.52,29.47,4,101.56,23 / 23,454007,2020-01-08 16:28:48:983,3.2822,2.6071,10.6612,-0.0536,-0.0474,9.8063,0.0961,0.386,-0.2221,-18.37,-35.12,12.19,318.61,-84.68,-159.26
1401,52.35688,-2.022406,208.52,29.47,4,101.56,23 / 23,454108,2020-01-08 16:28:49:084,-1.0923,-3.5946,11.1904,0.0168,0.0019,9.8065,0.0441,0.3467,-0.3356,-18.37,-34.25,12.63,320.23,-84.59,-160.16
1402,52.35688,-2.022406,208.52,29.47,4,101.56,23 / 23,454208,2020-01-08 16:28:49:184,-0.1111,-0.0662,9.3676,0.0041,-0.0707,9.8064,-0.0816,0.3745,-0.1902,-18.0,-34.87,12.81,319.2,-84.32,-160.63
1403,52.35688,-2.022406,208.52,29.47,4,101.56,23 / 23,454308,2020-01-08 16:28:49:284,-0.6758,-2.7132,8.9505,0.0319,-0.0034,9.8066,-0.0626,0.3211,-0.1595,-17.56,-35.06,12.44,315.76,-84.4,-161.45
1404,52.35688,-2.022406,208.52,29.47,4,101.56,23 / 23,454408,2020-01-08 16:28:49:384,1.9524,1.3821,9.3141,-0.0202,-0.0233,9.8066,0.0125,0.2892,-0.2129,-17.94,-34.75,13.19,319.28,-84.38,-160.63
1405,52.35688,-2.022406,208.52,29.47,4,101.56,23 / 23,454508,2020-01-08 16:28:49:484,-1.1742,-0.0623,7.8402,-0.0299,0.025,9.8065,0.0799,0.43,-0.3045,-17.94,-34.56,12.94,320.27,-84.6,-159.99
1406,52.35688,-2.022406,208.52,29.47,4,101.56,23 / 23,454608,2020-01-08 16:28:49:584,5.2866,2.5906,12.3287,-0.0993,-0.0252,9.8061,0.35,0.4079,-0.278,-17.81,-34.37,12.56,323.52,-84.56,-157.24
1407,52.35688,-2.022406,208.52,29.47,4,101.56,23 / 23,454708,2020-01-08 16:28:49:684,-4.3446,-2.0657,6.4978,0.0863,0.0554,9.8061,0.2474,-0.0168,0.0882,-17.44,-34.62,12.88,325.19,-84.39,-156.84
1408,52.35688,-2.022406,208.52,29.47,4,101.56,23 / 23,454808,2020-01-08 16:28:49:784,-1.5744,-3.671,8.4322,0.0343,0.0269,9.8065,-0.0504,-0.3044,0.0623,-17.81,-34.25,13.13,320.33,-84.29,-159.77
1409,52.35688,-2.022406,208.52,29.47,4,101.56,22 / 23,454909,2020-01-08 16:28:49:885,-0.7644,1.2839,7.0212,-0.0671,0.0636,9.8061,0.0676,-0.2849,0.0097,-18.0,-34.44,13.5,322.2,-84.1,-160.13
1410,52.35688,-2.022406,208.52,29.47,4,101.56,22 / 23,455008,2020-01-08 16:28:49:984,-1.5741,-1.871,10.0993,-0.0244,0.0197,9.8066,0.1237,-0.1575,0.0884,-17.31,-33.94,13.25,322.09,-84.61,-159.92
1411,52.35688,-2.022406,208.52,29.47,4,101.56,22 / 23,455108,2020-01-08 16:28:50:084,1.7459,0.3854,9.9674,-0.0259,-0.0093,9.8066,-0.0313,-0.1839,0.0747,-17.69,-34.25,13.19,320.99,-84.45,-159.36
1412,52.35688,-2.022406,208.52,29.47,4,101.56,22 / 23,455208,2020-01-08 16:28:50:184,1.4832,1.6199,8.8031,0.0134,0.0047,9.8066,-0.0836,-0.1238,0.0212,-17.81,-34.12,12.94,319.73,-84.37,-160.38
1413,52.35688,-2.022406,208.52,29.47,4,101.56,22 / 23,455308,2020-01-08 16:28:50:284,2.4361,1.0917,9.8004,-0.0093,-0.0609,9.8064,-0.1339,0.0046,0.0445,-17.87,-34.44,13.0,319.79,-84.45,-160.42
1414,52.35688,-2.022406,208.52,29.47,4,101.56,22 / 23,455407,2020-01-08 16:28:50:383,-1.0868,-1.6184,9.8128,0.0275,0.0208,9.8065,-0.1163,-0.0475,0.0852,-17.25,-34.12,13.19,322.37,-84.35,-159.41
1415,52.35688,-2.022406,208.52,29.47,4,101.56,22 / 23,455508,2020-01-08 16:28:50:484,-0.0242,-0.5979,10.209,0.0091,-0.0061,9.8066,-0.0768,-0.1065,0.0512,-17.0,-34.62,13.06,322.86,-84.47,-158.95
1416,52.35688,-2.022406,208.52,29.47,4,101.56,22 / 23,455608,2020-01-08 16:28:50:584,-1.9092,-1.2295,10.0414,0.0007,0.0238,9.8065,-0.0385,-0.0183,0.0566,-17.06,-34.62,12.81,322.84,-84.64,-159.14
1417,52.35688,-2.022406,208.52,29.47,4,101.56,22 / 23,455708,2020-01-08 16:28:50:684,-0.0345,-0.5656,9.334,0.0202,-0.0272,9.8065,-0.0889,0.021,0.0378,-16.87,-34.0,13.31,324.57,-84.48,-157.61
1418,52.35688,-2.022406,208.52,29.47,4,101.56,22 / 23,455808,2020-01-08 16:28:50:784,-1.5691,0.2245,9.2929,0.0256,-0.0146,9.8066,-0.1479,-0.0435,0.0359,-16.94,-34.0,13.63,326.65,-84.34,-157.88
1419,52.35688,-2.022406,208.52,29.47,4,101.56,20 / 22,455909,2020-01-08 16:28:50:885,1.817,-1.7968,11.5517,0.0687,-0.0212,9.8063,-0.2037,0.0339,0.0589,-16.87,-34.31,13.31,324.11,-84.31,-157.86
1420,52.35688,-2.022406,208.52,29.47,4,101.56,20 / 22,456008,2020-01-08 16:28:50:984,0.3367,0.5965,9.2726,0.0368,-0.0458,9.8065,-0.1204,-0.0853,0.085,-17.44,-34.56,13.63,325.02,-83.98,-158.82
1421,52.35688,-2.022406,208.52,29.47,4,101.56,20 / 22,456108,2020-01-08 16:28:51:084,0.7692,-0.9328,10.3628,0.0012,-0.0013,9.8066,-0.1092,-0.209,-0.0218,-17.12,-34.44,13.75,326.02,-84.17,-158.28
1422,52.35688,-2.022406,208.52,29.47,4,101.56,20 / 22,456208,2020-01-08 16:28:51:184,-1.8892,-2.4929,10.0235,0.0181,0.0219,9.8066,-0.0136,-0.3604,0.0754,-17.81,-33.94,13.25,320.72,-84.27,-159.42
1423,52.35688,-2.022406,208.52,29.47,4,101.56,20 / 22,456307,2020-01-08 16:28:51:283,1.2206,1.8313,8.7925,0.0217,0.028,9.8066,-0.1257,-0.1933,0.1486,-17.25,-34.81,13.81,323.93,-84.22,-159.99
1424,52.35688,-2.022406,208.52,29.47,4,101.56,20 / 22,456408,2020-01-08 16:28:51:384,-3.5687,-3.8069,8.2654,0.0456,0.0494,9.8064,-0.2962,-0.2233,0.0007,-16.69,-34.5,14.0,323.69,-84.31,-160.43
1425,52.35688,-2.022406,208.52,29.47,4,101.56,20 / 22,456508,2020-01-08 16:28:51:484,1.8977,0.2434,11.2344,0.0535,0.0029,9.8064,-0.0574,-0.0857,0.1584,-16.81,-34.44,13.69,325.75,-84.36,-158.69
1426,52.35688,-2.022406,208.52,29.47,4,101.56,20 / 22,456608,2020-01-08 16:28:51:584,0.326,-0.0822,9.0427,0.0744,-0.0087,9.8063,-0.028,-0.2005,0.2139,-16.87,-34.37,13.69,323.54,-84.03,-160.3
1427,52.35688,-2.022406,208.52,29.47,4,101.56,20 / 22,456708,2020-01-08 16:28:51:684,0.3764,-1.9974,11.1071,0.041,0.0109,9.8065,0.006,-0.2419,0.1542,-16.62,-34.44,13.88,325.56,-83.98,-158.51
1428,52.35688,-2.022406,208.52,29.47,4,101.56,20 / 22,456808,2020-01-08 16:28:51:784,-1.5469,-0.1048,8.9475,0.03,-0.0066,9.8065,-0.0587,-0.1716,0.0883,-16.5,-33.87,13.81,325.95,-83.91,-159.63
1429,52.35688,-2.022406,208.52,29.47,4,101.56,20 / 22,456908,2020-01-08 16:28:51:884,0.5125,0.3298,9.4771,0.0108,0.0237,9.8066,-0.0561,-0.1114,0.0873,-16.81,-34.31,13.75,323.58,-84.15,-160.38
1430,52.35688,-2.022406,208.52,29.47,4,101.56,21 / 21,457008,2020-01-08 16:28:51:984,-0.6603,-0.917,9.6075,-0.0199,0.0126,9.8066,-0.1007,-0.1126,0.0573,-16.62,-34.5,13.94,324.52,-84.35,-159.75
1431,52.35688,-2.022406,208.52,29.47,4,101.56,21 / 21,457108,2020-01-08 16:28:52:084,-0.3504,-0.3297,9.7335,0.0362,0.0013,9.8065,-0.0799,-0.141,0.0867,-16.56,-34.75,14.31,324.91,-84.29,-159.21
1432,52.35688,-2.022406,208.52,29.47,4,101.56,21 / 21,457208,2020-01-08 16:28:52:184,-0.0446,-1.245,10.9414,0.011,0.0092,9.8066,-0.0259,-0.2192,0.1137,-17.0,-34.12,13.56,324.33,-84.09,-159.67
1433,52.35688,-2.022406,208.52,29.47,4,101.56,21 / 21,457308,2020-01-08 16:28:52:284,1.3528,1.9108,9.282,0.0075,0.0366,9.8065,0.0229,-0.1064,0.091,-16.75,-34.56,14.63,327.88,-83.92,-158.4
1434,52.35688,-2.022406,208.52,29.47,4,101.56,21 / 21,457408,2020-01-08 16:28:52:384,-0.5263,-0.9938,9.7794,0.0009,0.0114,9.8066,-0.03,0.0073,0.0446,-16.62,-34.25,14.25,324.83,-83.97,-159.12
1435,52.35688,-2.022406,208.52,29.47,4,101.56,21 / 21,457508,2020-01-08 16:28:52:484,0.4778,0.8676,9.9938,-0.0056,-0.0003,9.8066,0.0147,0.1609,-0.0237,-17.0,-34.56,14.75,327.48,-83.89,-158.73
1436,52.35688,-2.022406,208.52,29.47,4,101.56,21 / 21,457608,2020-01-08 16:28:52:584,0.0385,-1.5146,9.6514,-0.006,0.0109,9.8066,-0.0064,0.203,-0.1188,-16.94,-34.37,14.19,324.53,-83.95,-159.37
1437,52.35688,-2.022406,208.52,29.47,4,101.56,21 / 21,457709,2020-01-08 16:28:52:685,-1.3372,-0.5103,10.1898,-0.0173,-0.0251,9.8066,0.0389,0.339,-0.2811,-16.81,-34.31,14.06,324.09,-84.0,-159.79
1438,52.35688,-2.022406,208.52,29.47,4,101.56,21 / 21,457808,2020-01-08 16:28:52:784,-3.551,-3.1397,8.8349,0.0566,0.0169,9.8064,0.1261,0.5204,-0.2942,-16.37,-34.12,13.81,325.14,-83.84,-160.25
1439,52.35688,-2.022406,208.52,29.47,4,101.56,21 / 21,457907,2020-01-08 16:28:52:883,2.761,1.712,11.0693,-0.0055,-0.0199,9.8066,0.3106,0.3125,-0.3027,-16.56,-34.19,14.0,323.95,-83.81,-159.73
