,GPS LATITUDE (degrees), GPS LONGITUDE (degrees), GPS ALTITUDE (m), GPS SPEED (Kmh), GPS ACCURACY (m), GPS ORIENTATION (Â°),GPS SATELLITES IN RANGE, TIME SINCE START (ms), DATE (YYYY-MO-DD HH-MI-SS_SSS), ACCELEROMETER X (m/s²) , ACCELEROMETER Y (m/s²), ACCELEROMETER Z (m/s²), GRAVITY X (m/s²), GRAVITY Y (m/s²), GRAVITY Z (m/s²), GYROSCOPE Yaw (rad/s), GYROSCOPE Pitch (rad/s), GYROSCOPE Roll (rad/s), MAGNETIC FIELD X (Î¼T), MAGNETIC FIELD Y (Î¼T), MAGNETIC FIELD Z (Î¼T), ORIENTATION (Yaw) (Â°), ORIENTATION (Pitch) (Â°), ORIENTATION (Roll ) (Â°)
29303,50.7175,-3.799396,258,25.86,10.0,252.4,Sep-18,2930439,2019-08-17 08:09:19:806,-0.2459,0.1496,10.4164,-0.0239,0.0103,9.8066,0.0287,-0.0511,-0.0064,-9.91,24.23,-14.66,246.17,2.24,0.18
29304,50.717426,-3.799771,257,25.89,9.0,253.0,Sep-18,2930540,2019-08-17 08:09:19:907,-0.2723,0.1473,9.2112,-0.0244,0.0281,9.8066,-0.0139,-0.017,-0.0042,-9.43,23.96,-15.75,248.01,2.33,0.38
29305,50.717426,-3.799771,257,25.89,9.0,253.0,Sep-18,2930639,2019-08-17 08:09:20:006,-0.0637,0.0583,9.5086,0.001,0.0034,9.8067,-0.0213,-0.0064,-0.0138,-9.43,23.96,-15.75,248.01,2.33,0.38
29306,50.717426,-3.799771,257,25.89,9.0,253.0,Sep-18,2930739,2019-08-17 08:09:20:106,-0.2069,0.0179,9.9505,0.0147,0.0017,9.8066,0.0181,0.0298,-0.0053,-9.12,24.36,-14.95,248.09,2.35,0.38
29307,50.717426,-3.799771,257,25.89,9.0,253.0,Sep-18,2930840,2019-08-17 08:09:20:207,-0.4384,-0.1888,9.4929,-0.0084,0.004,9.8066,-0.0149,-0.0245,0.0256,-9.8,24.33,-14.87,246.05,2.39,0.3
29308,50.717426,-3.799771,257,25.89,9.0,253.0,Sep-18,2930941,2019-08-17 08:09:20:308,0.0244,0.1933,9.1953,-0.0103,-0.0048,9.8066,-0.0149,-0.0245,0.0256,-9.29,24.41,-14.77,248.07,2.4,0.36
29309,50.717426,-3.799771,257,25.89,9.0,253.0,Sep-18,2931040,2019-08-17 08:09:20:407,0.1041,-0.1272,10.4944,-0.0008,-0.023,9.8066,-0.016,0.081,-0.0064,-9.47,24.45,-14.57,248.15,2.27,0.31
29310,50.717426,-3.799771,257,25.89,9.0,253.0,Sep-18,2931139,2019-08-17 08:09:20:506,-0.1424,-0.1687,10.7092,0.0108,-0.0066,9.8066,-0.0181,-0.0021,-0.0373,-9.47,24.45,-14.57,248.15,2.27,0.31
29311,50.717426,-3.799771,257,25.89,9.0,253.0,Sep-18,2931239,2019-08-17 08:09:20:606,0.2157,-0.1025,10.6261,0.0086,-0.0042,9.8066,0.0074,0.0,-0.0042,-9.2,24.56,-14.57,248.97,2.26,0.24
29312,50.717426,-3.799771,257,25.89,9.0,253.0,Sep-18,2931339,2019-08-17 08:09:20:706,0.8286,-0.1411,9.0189,0.0021,-0.0166,9.8066,0.0671,0.0064,-0.0192,-9.74,24.37,-14.53,246.2,2.17,0.19
29313,50.717426,-3.799771,257,25.89,9.0,253.0,Sep-18,2931440,2019-08-17 08:09:20:807,-0.1076,-0.3023,9.6929,-0.0378,0.0021,9.8066,-0.0181,-0.0394,0.0171,-9.74,24.37,-14.53,246.2,2.17,0.19
29314,50.717426,-3.799771,257,25.89,9.0,253.0,Sep-18,2931539,2019-08-17 08:09:20:906,-0.2546,0.1832,9.8829,-0.0312,0.0345,9.8065,-0.0309,-0.0288,-0.016,-9.47,24.45,-14.57,248.11,2.28,0.44
29315,50.717365,-3.800127,258,25.91,9.0,253.4,Sep-18,2931639,2019-08-17 08:09:21:006,-0.3098,0.2652,9.3004,0.0287,0.0307,9.8066,0.0362,0.0362,-0.0287,-9.23,24.25,-15.05,248.01,2.51,0.35
29316,50.717365,-3.800127,258,25.91,9.0,253.4,Sep-18,2931740,2019-08-17 08:09:21:107,-0.3807,-0.124,10.1492,0.0157,-0.0046,9.8066,0.0362,0.0362,-0.0287,-9.23,24.25,-15.05,248.01,2.51,0.35
29317,50.717365,-3.800127,258,25.91,9.0,253.4,Sep-18,2931840,2019-08-17 08:09:21:207,-0.5571,-0.2532,9.8443,-0.019,-0.0162,9.8066,-0.0352,-0.0117,0.0171,-9.16,24.07,-15.38,248.16,2.32,0.17
29318,50.717365,-3.800127,258,25.91,9.0,253.4,Sep-18,2931940,2019-08-17 08:09:21:307,-0.4828,-0.1903,10.2819,-0.0256,-0.0042,9.8066,0.0436,-0.0224,-0.0213,-9.51,24.17,-15.0,248.16,2.32,0.17
29319,50.717365,-3.800127,258,25.91,9.0,253.4,Sep-18,2932039,2019-08-17 08:09:21:406,-0.2297,-0.0585,11.1276,-0.008,-0.0002,9.8066,-0.0171,-0.0043,-0.017,-9.2,24.56,-14.57,248.95,2.3,0.21
29320,50.717365,-3.800127,258,25.91,9.0,253.4,Sep-18,2932139,2019-08-17 08:09:21:506,-0.5453,-0.0145,9.9915,-0.0042,-0.0031,9.8066,-0.0458,-0.017,0.0245,-9.2,24.56,-14.57,248.95,2.3,0.21
29321,50.717365,-3.800127,258,25.91,9.0,253.4,Sep-18,2932240,2019-08-17 08:09:21:607,0.1221,-0.1077,10.0847,-0.0102,0.0074,9.8066,0.0543,0.0277,-0.0362,-9.23,24.25,-15.05,248.17,2.27,0.23
29322,50.717365,-3.800127,258,25.91,9.0,253.4,Sep-18,2932340,2019-08-17 08:09:21:707,0.5892,0.2401,9.593,0.0046,0.0271,9.8066,-0.0608,-0.0128,0.0266,-9.23,24.25,-15.05,248.17,2.27,0.23
29323,50.717365,-3.800127,258,25.91,9.0,253.4,Sep-18,2932440,2019-08-17 08:09:21:807,0.5025,-0.0833,10.1671,0.0131,0.0183,9.8066,0.001,-0.0138,-0.0032,-8.88,24.35,-15.11,248.07,2.43,0.26
29324,50.717365,-3.800127,258,25.91,9.0,253.4,Sep-18,2932539,2019-08-17 08:09:21:906,-0.0049,-0.1038,9.7771,0.0281,0.0125,9.8066,0.001,-0.0138,-0.0032,-9.0,24.68,-14.48,248.93,2.56,0.14
29325,50.717297,-3.800473,258,25.86,9.0,254.1,Sep-18,2932640,2019-08-17 08:09:22:007,-0.0846,0.0049,10.1141,0.0015,-0.027,9.8066,-0.0096,0.0096,-0.0074,-9.12,24.33,-15.31,248.93,2.56,0.14
29326,50.717297,-3.800473,258,25.86,9.0,254.1,Sep-18,2932740,2019-08-17 08:09:22:107,-0.2982,0.0412,9.6813,0.0076,-0.0463,9.8065,0.0106,0.0139,-0.0074,-9.12,24.33,-15.31,248.93,2.56,0.14
29327,50.717297,-3.800473,258,25.86,9.0,254.1,Sep-18,2932840,2019-08-17 08:09:22:207,-0.5759,-0.0576,9.7666,-0.0111,0.0012,9.8066,0.0287,0.0128,-0.0181,-9.58,24.35,-14.67,246.16,2.33,0.01
29328,50.717297,-3.800473,258,25.86,9.0,254.1,Sep-18,2932940,2019-08-17 08:09:22:307,-0.4657,-0.0544,10.5708,0.0078,0.0038,9.8066,-0.0352,-0.0266,0.0053,-9.14,24.41,-14.85,248.18,2.31,0.07
29329,50.717297,-3.800473,258,25.86,9.0,254.1,Sep-18,2933040,2019-08-17 08:09:22:407,-0.3126,0.1429,9.4767,0.0106,0.0256,9.8066,0.0373,-0.0352,-0.0256,-9.14,24.41,-14.85,248.18,2.31,0.07
29330,50.717297,-3.800473,258,25.86,9.0,254.1,Sep-18,2933139,2019-08-17 08:09:22:506,0.1437,0.0253,9.7307,0.0006,0.0235,9.8066,-0.0118,-0.065,-0.0085,-9.32,24.12,-15.21,248.1,2.48,0.07
29331,50.717297,-3.800473,258,25.86,9.0,254.1,Sep-18,2933239,2019-08-17 08:09:22:606,0.2736,0.0441,9.4567,0.0027,0.02,9.8066,0.0181,-0.0192,-0.0011,-9.17,24.1,-15.34,248.1,2.48,0.07
29332,50.717297,-3.800473,258,25.86,9.0,254.1,Sep-18,2933340,2019-08-17 08:09:22:707,0.3518,0.1205,9.8263,-0.0105,0.0171,9.8066,0.0181,-0.0192,-0.0011,-9.23,24.25,-15.05,248.04,2.55,0.16
29333,50.717297,-3.800473,258,25.86,9.0,254.1,Sep-18,2933440,2019-08-17 08:09:22:807,0.12,-0.0198,10.0054,0.0,0.0,9.8067,0.0458,-0.0075,-0.0224,-8.74,24.33,-15.25,248.04,2.55,0.16
29334,50.71723,-3.80082,258,25.86,9.0,254.7,Sep-18,2933539,2019-08-17 08:09:22:906,0.2802,0.1679,10.0416,-0.0031,-0.0023,9.8066,-0.0054,-0.0075,-0.0011,-9.3,24.43,-14.72,248.05,2.53,0.18
29335,50.71723,-3.80082,258,25.86,9.0,254.7,Sep-18,2933640,2019-08-17 08:09:23:007,0.3681,-0.1707,9.2646,-0.0178,-0.018,9.8066,0.0298,-0.0128,-0.0011,-9.3,24.43,-14.72,248.05,2.53,0.18
29336,50.71723,-3.80082,258,25.86,9.0,254.7,Sep-18,2933741,2019-08-17 08:09:23:108,0.1235,-0.1008,9.6127,-0.0131,0.0013,9.8066,0.0213,-0.0415,-0.0149,-8.76,24.77,-14.47,249.07,2.2,0.28
29337,50.71723,-3.80082,258,25.86,9.0,254.7,Sep-18,2933840,2019-08-17 08:09:23:207,0.1448,-0.0079,8.9619,-0.0059,0.0202,9.8066,-0.0277,0.0021,0.0107,-9.2,24.56,-14.57,248.92,2.29,0.35
29338,50.71723,-3.80082,258,25.86,9.0,254.7,Sep-18,2933939,2019-08-17 08:09:23:306,-0.5188,-0.0688,9.6747,0.0106,0.0098,9.8066,0.033,0.016,-0.0351,-8.8,24.5,-14.91,248.92,2.29,0.35
29339,50.71723,-3.80082,258,25.86,9.0,254.7,Sep-18,2934040,2019-08-17 08:09:23:407,-0.3874,0.2177,10.004,0.0134,0.0191,9.8066,0.033,0.016,-0.0351,-8.8,24.5,-14.91,248.92,2.29,0.35
29340,50.71723,-3.80082,258,25.86,9.0,254.7,Sep-18,2934140,2019-08-17 08:09:23:507,-0.1458,0.0929,9.8198,-0.0099,0.0133,9.8066,-0.0405,0.0011,0.0139,-8.83,24.95,-14.13,248.95,2.43,0.32
29341,50.71723,-3.80082,258,25.86,9.0,254.7,Sep-18,2934239,2019-08-17 08:09:23:606,-0.2631,0.2328,9.3488,-0.0186,0.0287,9.8066,0.0255,0.0,-0.0096,-8.88,24.35,-15.11,248.95,2.43,0.32
29342,50.71723,-3.80082,258,25.86,9.0,254.7,Sep-18,2934339,2019-08-17 08:09:23:706,-0.3288,-0.011,9.4471,-0.0311,0.023,9.8066,0.0064,-0.0021,-0.0096,-9.01,24.71,-14.43,248.87,2.49,0.54
29343,50.71723,-3.80082,258,25.86,9.0,254.7,Sep-18,2934440,2019-08-17 08:09:23:807,0.1123,-0.0524,10.2361,-0.0024,-0.02,9.8066,-0.0043,0.0043,-0.0021,-9.01,24.71,-14.43,248.87,2.49,0.54
29344,50.717175,-3.801175,259,25.98,9.0,255.3,Sep-18,2934539,2019-08-17 08:09:23:906,0.0702,0.0204,10.1499,-0.0108,-0.0267,9.8066,0.0234,0.0522,-0.0224,-9.01,24.71,-14.43,248.87,2.49,0.54
29345,50.717175,-3.801175,259,25.98,9.0,255.3,Sep-18,2934640,2019-08-17 08:09:24:007,0.3094,-0.1158,9.3329,-0.0004,0.0015,9.8067,-0.0373,0.0032,0.016,-9.12,24.71,-15.25,248.87,2.32,0.54
29346,50.717175,-3.801175,259,25.98,9.0,255.3,Sep-18,2934739,2019-08-17 08:09:24:106,0.4947,-0.3372,10.1632,0.0238,-0.0001,9.8066,0.0127,0.033,-0.0042,-8.74,24.33,-15.25,248.87,2.32,0.54
29347,50.717175,-3.801175,259,25.98,9.0,255.3,Sep-18,2934839,2019-08-17 08:09:24:206,0.4515,0.1737,9.5707,-0.0012,0.0104,9.8066,0.0085,0.0085,-0.0064,-8.97,24.26,-15.2,248.07,2.37,0.41
29348,50.717175,-3.801175,259,25.98,9.0,255.3,Sep-18,2934940,2019-08-17 08:09:24:307,-0.2959,0.0721,10.1864,0.002,0.0078,9.8066,0.0085,0.0085,-0.0064,-8.44,24.56,-15.01,250.86,2.42,0.44
29349,50.717175,-3.801175,259,25.98,9.0,255.3,Sep-18,2935039,2019-08-17 08:09:24:406,-0.0089,-0.0986,10.2516,0.0158,0.0062,9.8066,-0.0224,-0.0469,-0.0096,-8.44,24.56,-15.01,250.86,2.42,0.44
29350,50.717175,-3.801175,259,25.98,9.0,255.3,Sep-18,2935140,2019-08-17 08:09:24:507,-0.1331,0.2903,8.9318,0.0002,-0.0038,9.8066,0.0426,0.0479,-0.016,-8.51,24.74,-14.68,248.82,2.49,0.37
29351,50.717175,-3.801175,259,25.98,9.0,255.3,Sep-18,2935239,2019-08-17 08:09:24:606,-0.6586,-0.1268,11.1751,-0.004,-0.0073,9.8066,-0.0139,-0.0351,0.0267,-8.6,24.62,-14.83,248.84,2.44,0.37
29352,50.717175,-3.801175,259,25.98,9.0,255.3,Sep-18,2935339,2019-08-17 08:09:24:706,-0.2899,0.0695,8.9705,-0.0185,0.0052,9.8066,0.0287,0.016,-0.0266,-8.86,24.65,-14.62,248.82,2.43,0.48
29353,50.717175,-3.801175,259,25.98,9.0,255.3,Sep-18,2935439,2019-08-17 08:09:24:806,0.18,-0.0132,10.0406,-0.0044,0.0082,9.8066,0.0085,-0.0671,0.0022,-8.86,24.65,-14.62,248.82,2.43,0.48
29354,50.71712,-3.801525,259,25.85,9.0,255.8,Jul-18,2935540,2019-08-17 08:09:24:907,-0.0382,-0.0942,9.432,0.0015,0.0138,9.8066,-0.0363,-0.0064,-0.0053,-8.51,24.74,-14.68,248.78,2.51,0.51
29355,50.71712,-3.801525,259,25.85,9.0,255.8,Jul-18,2935639,2019-08-17 08:09:25:006,-0.2032,-0.4135,12.1401,-0.004,0.0031,9.8066,-0.0054,-0.0884,0.016,-8.37,24.71,-14.81,250.79,2.51,0.53
29356,50.71712,-3.801525,259,25.85,9.0,255.8,Jul-18,2935739,2019-08-17 08:09:25:106,0.533,-0.341,11.4591,-0.0166,-0.0647,9.8064,-0.0054,-0.0884,0.016,-8.6,24.62,-14.83,250.79,2.51,0.53
29357,50.71712,-3.801525,259,25.85,9.0,255.8,Jul-18,2935840,2019-08-17 08:09:25:207,0.7724,0.0226,9.5684,-0.0156,-0.0606,9.8065,-0.0075,0.0032,-0.0319,-8.6,24.62,-14.83,250.79,2.51,0.53
29358,50.71712,-3.801525,259,25.85,9.0,255.8,Jul-18,2935940,2019-08-17 08:09:25:307,0.4257,-0.2223,8.7183,0.0037,0.0028,9.8066,-0.0118,-0.0628,-0.0021,-8.76,24.77,-14.47,249.04,2.15,0.5
29359,50.71712,-3.801525,259,25.85,9.0,255.8,Jul-18,2936040,2019-08-17 08:09:25:407,0.3474,-0.1778,9.8893,-0.0019,0.0079,9.8066,0.0404,0.0341,-0.033,-8.74,24.33,-15.31,248.14,2.19,0.53
29360,50.71712,-3.801525,259,25.85,9.0,255.8,Jul-18,2936139,2019-08-17 08:09:25:506,-0.0463,-0.1433,10.5224,0.0033,0.0195,9.8066,-0.016,-0.0202,0.0213,-8.74,24.33,-15.31,248.14,2.19,0.53
29361,50.71712,-3.801525,259,25.85,9.0,255.8,Jul-18,2936239,2019-08-17 08:09:25:606,-0.516,0.1897,9.6456,0.0068,0.0316,9.8066,0.0564,0.0021,-0.0224,-8.44,24.56,-15.01,250.86,2.37,0.56
29362,50.71712,-3.801525,259,25.85,9.0,255.8,Jul-18,2936339,2019-08-17 08:09:25:706,-0.3644,-0.0071,9.86,-0.0024,0.0043,9.8066,-0.0086,0.0085,-0.0074,-8.44,24.56,-15.01,250.86,2.37,0.56
29363,50.71712,-3.801525,259,25.85,9.0,255.8,Jul-18,2936440,2019-08-17 08:09:25:807,-0.2438,0.0648,9.9904,-0.0151,-0.0077,9.8066,-0.0384,-0.0799,-0.0021,-8.44,24.56,-15.01,250.85,2.39,0.58
29364,50.717064,-3.80189,259,25.93,10.0,256.4,Aug-18,2936540,2019-08-17 08:09:25:907,-0.0772,-0.1036,10.2185,-0.0175,-0.0152,9.8066,-0.0384,-0.0799,-0.0021,-8.79,24.47,-14.96,248.06,2.28,0.65
29365,50.717064,-3.80189,259,25.93,10.0,256.4,Aug-18,2936639,2019-08-17 08:09:26:006,0.1099,-0.1283,9.6532,-0.0135,-0.0016,9.8066,0.0223,-0.0043,-0.0181,-8.79,24.47,-14.96,248.06,2.28,0.65
29366,50.717064,-3.80189,259,25.93,10.0,256.4,Aug-18,2936739,2019-08-17 08:09:26:106,-0.0153,-0.0332,10.0264,0.0027,0.0118,9.8066,0.0021,-0.0256,-0.0021,-8.5,24.72,-14.73,250.9,2.24,0.72
29367,50.717064,-3.80189,259,25.93,10.0,256.4,Aug-18,2936839,2019-08-17 08:09:26:206,0.3206,-0.0313,8.8736,0.0016,-0.0019,9.8067,-0.0384,0.0171,0.0096,-8.38,24.38,-15.34,250.12,2.31,0.73
29368,50.717064,-3.80189,259,25.93,10.0,256.4,Aug-18,2936939,2019-08-17 08:09:26:306,0.2828,0.1105,9.3267,0.0137,-0.0121,9.8066,0.0085,0.0,-0.0074,-8.38,24.38,-15.34,250.12,2.31,0.73
29369,50.717064,-3.80189,259,25.93,10.0,256.4,Aug-18,2937039,2019-08-17 08:09:26:406,-0.1985,-0.1018,9.5002,0.0129,-0.0057,9.8066,-0.0256,0.0181,-0.0202,-8.53,24.44,-15.17,248.07,2.27,0.63
29370,50.717064,-3.80189,259,25.93,10.0,256.4,Aug-18,2937140,2019-08-17 08:09:26:507,-0.361,-0.1069,9.8971,0.0318,-0.0124,9.8066,0.0053,-0.0181,0.0064,-8.07,24.95,-14.57,250.95,2.27,0.43
29371,50.717064,-3.80189,259,25.93,10.0,256.4,Aug-18,2937239,2019-08-17 08:09:26:606,-0.0658,0.1941,9.3784,0.0076,-0.0151,9.8066,0.0021,0.0224,0.0075,-8.07,24.95,-14.57,250.95,2.27,0.43
29372,50.717064,-3.80189,259,25.93,10.0,256.4,Aug-18,2937341,2019-08-17 08:09:26:708,-0.0515,0.2483,8.8871,0.0065,-0.0107,9.8066,0.0053,-0.0511,0.0054,-8.13,25.13,-14.23,251.07,2.23,0.37
29373,50.717064,-3.80189,259,25.93,10.0,256.4,Aug-18,2937440,2019-08-17 08:09:26:807,-0.4171,-0.1415,9.9024,-0.0056,0.0173,9.8066,0.0053,-0.0511,0.0054,-8.44,24.56,-15.01,251.07,2.23,0.37
29374,50.717007,-3.80224,259,25.74,10.0,256.9,Oct-18,2937539,2019-08-17 08:09:26:906,-0.3253,0.3845,9.5379,-0.0177,0.0004,9.8066,0.0532,-0.0692,-0.0181,-8.07,24.95,-14.57,250.92,2.29,0.52
29375,50.717007,-3.80224,259,25.74,10.0,256.9,Oct-18,2937641,2019-08-17 08:09:27:008,-0.6938,-0.3611,11.1761,-0.0163,0.0092,9.8066,-0.0501,-0.0298,0.0245,-8.07,24.95,-14.57,250.92,2.29,0.52
29376,50.717007,-3.80224,259,25.74,10.0,256.9,Oct-18,2937739,2019-08-17 08:09:27:106,0.0811,0.0094,8.161,0.0013,-0.0092,9.8066,-0.0011,0.0437,0.0043,-8.19,24.55,-15.17,250.88,2.31,0.63
29377,50.717007,-3.80224,259,25.74,10.0,256.9,Oct-18,2937840,2019-08-17 08:09:27:207,-0.4055,-0.172,11.0025,-0.0022,-0.0174,9.8066,0.0191,0.0277,-0.0181,-8.15,24.83,-14.73,250.91,2.26,0.6
29378,50.717007,-3.80224,259,25.74,10.0,256.9,Oct-18,2937940,2019-08-17 08:09:27:307,0.3963,-0.1912,9.9226,-0.0169,-0.0202,9.8066,-0.0373,0.0096,0.0085,-8.15,24.83,-14.73,250.98,2.12,0.66
29379,50.717007,-3.80224,259,25.74,10.0,256.9,Oct-18,2938041,2019-08-17 08:09:27:408,0.3627,0.0027,9.1811,-0.0013,0.0059,9.8066,0.0287,0.0256,-0.0096,-8.51,24.74,-14.68,248.92,2.15,0.68
29380,50.717007,-3.80224,259,25.74,10.0,256.9,Oct-18,2938139,2019-08-17 08:09:27:506,0.6886,0.1322,8.6093,0.0094,0.0126,9.8066,0.0287,0.0256,-0.0096,-8.51,24.74,-14.68,248.92,2.15,0.68
29381,50.717007,-3.80224,259,25.74,10.0,256.9,Oct-18,2938240,2019-08-17 08:09:27:607,0.674,-0.1567,9.7265,0.0196,0.0064,9.8066,-0.0235,0.0085,0.0181,-7.81,24.94,-14.73,248.92,2.15,0.68
29382,50.717007,-3.80224,259,25.74,10.0,256.9,Oct-18,2938340,2019-08-17 08:09:27:707,0.534,0.125,8.681,-0.0052,0.0057,9.8066,0.0181,0.0586,-0.0042,-8.02,24.8,-14.86,250.9,2.31,0.55
29383,50.717007,-3.80224,259,25.74,10.0,256.9,Oct-18,2938439,2019-08-17 08:09:27:806,-0.2215,-0.0228,10.3551,-0.0028,0.0017,9.8066,0.0096,0.0117,-0.0192,-8.02,24.8,-14.86,250.9,2.31,0.55
29384,50.71696,-3.802586,260,25.71,10.0,257.4,Oct-18,2938540,2019-08-17 08:09:27:907,-0.3323,0.1065,9.4448,0.0072,-0.019,9.8066,-0.0565,-0.0075,0.0064,-7.75,24.76,-15.07,250.89,2.31,0.57
29385,50.71696,-3.802586,260,25.71,10.0,257.4,Oct-18,2938641,2019-08-17 08:09:28:008,-0.4566,-0.0845,9.5578,0.0004,-0.0322,9.8066,0.0319,0.0384,-0.0192,-8.07,24.95,-14.57,250.89,2.31,0.57
29386,50.71696,-3.802586,260,25.71,10.0,257.4,Oct-18,2938739,2019-08-17 08:09:28:106,-0.1207,0.013,9.2432,-0.0016,-0.0052,9.8066,-0.0309,-0.0224,0.0064,-8.02,24.8,-14.86,251.0,2.14,0.5
29387,50.71696,-3.802586,260,25.71,10.0,257.4,Oct-18,2938840,2019-08-17 08:09:28:207,0.3194,0.1238,9.4367,0.0019,-0.004,9.8067,0.0127,-0.0021,0.0,-7.83,24.9,-14.79,251.02,2.12,0.49
29388,50.71696,-3.802586,260,25.71,10.0,257.4,Oct-18,2938940,2019-08-17 08:09:28:307,0.0775,-0.2891,10.2196,0.0104,0.0034,9.8066,0.0245,-0.0479,-0.0085,-7.83,24.9,-14.79,251.02,2.12,0.49
29389,50.71696,-3.802586,260,25.71,10.0,257.4,Oct-18,2939040,2019-08-17 08:09:28:407,0.5309,-0.1341,9.9453,0.0115,0.0131,9.8066,0.0245,-0.0479,-0.0085,-7.55,24.86,-14.99,251.01,2.16,0.43
29390,50.71696,-3.802586,260,25.71,10.0,257.4,Oct-18,2939140,2019-08-17 08:09:28:507,0.4798,0.2578,10.366,0.0129,0.014,9.8066,-0.0331,0.0,0.0075,-7.6,25.02,-14.7,250.96,2.26,0.39
29391,50.71696,-3.802586,260,25.71,10.0,257.4,Oct-18,2939240,2019-08-17 08:09:28:607,0.4756,-0.156,9.8004,-0.0061,-0.0165,9.8066,0.0213,-0.0043,-0.0042,-7.53,25.16,-14.5,250.96,2.26,0.39
29392,50.71696,-3.802586,260,25.71,10.0,257.4,Oct-18,2939339,2019-08-17 08:09:28:706,-0.5118,-0.0628,10.4539,-0.0247,-0.0165,9.8066,0.0,0.0767,0.0107,-7.53,25.16,-14.5,250.96,2.26,0.39
29393,50.71696,-3.802586,260,25.71,10.0,257.4,Oct-18,2939440,2019-08-17 08:09:28:807,-0.2389,-0.2239,11.105,-0.0171,-0.0034,9.8066,-0.0118,-0.1012,-0.0064,-7.57,25.32,-14.2,251.1,2.12,0.49
29394,50.716908,-3.802948,259,25.86,10.0,258.0,Oct-18,2939539,2019-08-17 08:09:28:906,-0.2772,-0.0254,9.9448,0.0059,-0.0006,9.8066,0.0138,0.049,0.0064,-7.63,24.74,-15.15,251.02,2.07,0.58
29395,50.716908,-3.802948,259,25.86,10.0,258.0,Oct-18,2939640,2019-08-17 08:09:29:007,-0.4651,0.1475,10.3341,0.0103,0.0104,9.8066,-0.0608,0.0298,0.0075,-7.63,24.74,-15.15,251.02,2.07,0.58
29396,50.716908,-3.802948,259,25.86,10.0,258.0,Oct-18,2939739,2019-08-17 08:09:29:106,-0.1223,-0.1455,9.923,0.0149,-0.0113,9.8066,0.0117,0.033,-0.0234,-7.5,24.7,-15.28,250.99,2.14,0.55
29397,50.716908,-3.802948,259,25.86,10.0,258.0,Oct-18,2939840,2019-08-17 08:09:29:207,0.16,0.1787,8.997,0.0227,-0.0088,9.8066,0.0117,0.033,-0.0234,-7.58,24.55,-15.49,251.02,2.14,0.4
29398,50.716908,-3.802948,259,25.86,10.0,258.0,Oct-18,2939941,2019-08-17 08:09:29:308,0.2529,0.0182,9.6836,0.0131,-0.0023,9.8066,-0.0213,0.0043,-0.0149,-7.58,24.55,-15.49,251.02,2.14,0.4
29399,50.716908,-3.802948,259,25.86,10.0,258.0,Oct-18,2940039,2019-08-17 08:09:29:406,0.2489,-0.246,10.2236,0.0346,-0.0196,9.8066,-0.0096,-0.0181,-0.0096,-7.55,24.86,-14.99,251.09,2.1,0.17
29400,50.716908,-3.802948,259,25.86,10.0,258.0,Oct-18,2940139,2019-08-17 08:09:29:506,0.1212,-0.2962,10.4281,0.0004,-0.01,9.8066,0.0351,-0.0085,-0.0032,-7.55,24.86,-14.99,251.13,2.04,0.15
29401,50.716908,-3.802948,259,25.86,10.0,258.0,Oct-18,2940239,2019-08-17 08:09:29:606,-0.3832,-0.011,10.1155,-0.0133,0.0093,9.8066,-0.0331,0.0394,0.0139,-7.63,24.74,-15.15,251.13,2.01,0.23
29402,50.716908,-3.802948,259,25.86,10.0,258.0,Oct-18,2940339,2019-08-17 08:09:29:706,0.3948,0.425,8.4268,-0.0088,0.0286,9.8066,0.0117,-0.0533,0.0085,-7.63,24.74,-15.15,251.13,2.01,0.23
29403,50.716908,-3.802948,259,25.86,10.0,258.0,Oct-18,2940439,2019-08-17 08:09:29:806,-0.5858,0.1038,10.2017,-0.0184,0.0105,9.8066,0.0106,0.0021,-0.0032,-7.91,24.78,-14.94,251.03,2.15,0.33
29404,50.716908,-3.802948,259,25.86,10.0,258.0,Oct-18,2940539,2019-08-17 08:09:29:906,-0.9823,-0.0227,10.5632,-0.0317,0.0192,9.8066,0.0106,0.0021,-0.0032,-7.91,24.78,-14.94,251.03,2.15,0.33
29405,50.71686,-3.803306,260,26.03,9.0,258.4,Sep-18,2940640,2019-08-17 08:09:30:007,-0.5687,0.0863,10.6839,0.0037,0.0123,9.8066,-0.0299,-0.0224,0.0043,-7.61,25.05,-14.65,250.96,2.2,0.54
29406,50.71686,-3.803306,260,26.03,9.0,258.4,Sep-18,2940740,2019-08-17 08:09:30:107,-0.4605,0.0183,9.916,0.0101,-0.003,9.8066,0.0149,0.0064,-0.0277,-7.5,24.68,-15.32,250.96,2.2,0.54
29407,50.71686,-3.803306,260,26.03,9.0,258.4,Sep-18,2940839,2019-08-17 08:09:30:206,-0.0928,-0.0055,10.3847,0.0175,-0.0265,9.8066,-0.0149,0.0096,0.016,-7.25,25.13,-14.7,253.13,2.09,0.39
29408,50.71686,-3.803306,260,26.03,9.0,258.4,Sep-18,2940939,2019-08-17 08:09:30:306,0.1042,-0.0219,10.5637,0.0148,0.0013,9.8066,0.0415,-0.0064,-0.0074,-7.27,24.82,-15.2,253.13,2.09,0.39
29409,50.71686,-3.803306,260,26.03,9.0,258.4,Sep-18,2941040,2019-08-17 08:09:30:407,0.1802,-0.08,8.8358,0.0083,0.0101,9.8066,0.0394,0.0245,-0.0426,-7.27,24.82,-15.2,253.13,2.09,0.39
29410,50.71686,-3.803306,260,26.03,9.0,258.4,Sep-18,2941140,2019-08-17 08:09:30:507,0.2361,0.1539,10.0935,0.0011,0.003,9.8067,0.0127,-0.0085,-0.0085,-7.47,24.98,-14.84,253.11,2.15,0.36
29411,50.71686,-3.803306,260,26.03,9.0,258.4,Sep-18,2941240,2019-08-17 08:09:30:607,0.3938,0.102,9.8574,-0.0045,-0.006,9.8066,0.0319,-0.032,-0.0266,-7.15,24.78,-15.32,253.1,2.16,0.36
29412,50.71686,-3.803306,260,26.03,9.0,258.4,Sep-18,2941340,2019-08-17 08:09:30:707,0.0256,0.1342,9.5661,-0.0116,0.001,9.8066,0.0319,-0.032,-0.0266,-7.16,25.22,-14.59,253.12,2.12,0.37
29413,50.71686,-3.803306,260,26.03,9.0,258.4,Sep-18,2941439,2019-08-17 08:09:30:806,-0.1961,0.0235,10.231,-0.0124,0.0055,9.8066,-0.0288,-0.0096,0.0117,-7.16,25.22,-14.59,253.12,2.12,0.37
29414,50.716812,-3.803663,261,25.82,10.0,259.3,Jun-18,2941539,2019-08-17 08:09:30:906,-0.1427,-0.0864,10.283,0.007,0.0053,9.8066,-0.0118,0.0139,0.0064,-7.24,25.1,-14.75,253.1,2.13,0.45
29415,50.716812,-3.803663,261,25.82,10.0,259.3,Jun-18,2941640,2019-08-17 08:09:31:007,-0.0539,0.1197,9.5153,0.0079,0.0148,9.8066,-0.016,-0.0245,-0.0213,-7.32,24.98,-14.91,253.1,2.13,0.45
29416,50.716812,-3.803663,261,25.82,10.0,259.3,Jun-18,2941740,2019-08-17 08:09:31:107,-0.3684,-0.095,9.7114,0.0061,0.0075,9.8066,0.001,-0.033,0.0,-7.29,25.29,-14.4,253.14,2.23,0.43
29417,50.716812,-3.803663,261,25.82,10.0,259.3,Jun-18,2941840,2019-08-17 08:09:31:207,-0.3969,-0.0372,9.6288,0.0008,0.0022,9.8067,0.0223,-0.0085,-0.0234,-6.88,25.2,-14.74,253.04,2.24,0.43
29418,50.716812,-3.803663,261,25.82,10.0,259.3,Jun-18,2941939,2019-08-17 08:09:31:306,-0.206,-0.0562,9.9569,0.0102,-0.0216,9.8066,0.0,0.0064,-0.016,-7.27,24.82,-15.2,253.12,2.14,0.34
29419,50.716812,-3.803663,261,25.82,10.0,259.3,Jun-18,2942039,2019-08-17 08:09:31:406,0.143,0.1291,10.2229,0.0234,-0.0019,9.8066,0.001,-0.0138,0.0022,-7.27,24.82,-15.2,253.12,2.14,0.34
29420,50.716812,-3.803663,261,25.82,10.0,259.3,Jun-18,2942139,2019-08-17 08:09:31:506,0.3928,-0.1762,10.0889,-0.0054,-0.0155,9.8066,0.001,-0.0138,0.0022,-6.96,25.09,-14.91,253.13,2.17,0.2
29421,50.716812,-3.803663,261,25.82,10.0,259.3,Jun-18,2942240,2019-08-17 08:09:31:607,0.3699,-0.0795,10.1234,-0.005,-0.0368,9.8066,-0.0054,0.0405,-0.0181,-6.87,25.18,-14.79,253.25,1.95,0.17
29422,50.716812,-3.803663,261,25.82,10.0,259.3,Jun-18,2942340,2019-08-17 08:09:31:707,0.488,-0.0243,9.6732,0.0001,0.0012,9.8067,-0.0288,-0.0362,0.0107,-7.19,24.94,-15.04,253.25,1.95,0.17
29423,50.716812,-3.803663,261,25.82,10.0,259.3,Jun-18,2942439,2019-08-17 08:09:31:806,0.2538,-0.0894,9.5127,-0.0083,0.0122,9.8066,0.0628,0.0075,-0.016,-7.19,24.94,-15.04,253.25,1.95,0.17
29424,50.716763,-3.80403,260,26.11,10.0,259.7,Jun-18,2942539,2019-08-17 08:09:31:906,-0.2594,-0.0602,10.6817,-0.0002,0.0095,9.8066,-0.0363,0.0202,0.0043,-7.55,24.86,-14.99,251.13,2.01,0.24
29425,50.716763,-3.80403,260,26.11,10.0,259.7,Jun-18,2942640,2019-08-17 08:09:32:007,-0.0385,0.0998,9.5363,0.0184,0.011,9.8066,-0.0064,0.0096,-0.0192,-7.19,24.94,-15.04,253.17,2.1,0.16
29426,50.716763,-3.80403,260,26.11,10.0,259.7,Jun-18,2942739,2019-08-17 08:09:32:106,-0.2076,0.073,9.1624,0.0287,0.007,9.8066,0.0,0.0021,-0.016,-7.19,24.94,-15.04,253.17,2.1,0.16
29427,50.716763,-3.80403,260,26.11,10.0,259.7,Jun-18,2942839,2019-08-17 08:09:32:206,0.0457,0.0659,9.1511,0.0267,-0.0003,9.8066,-0.016,-0.0149,-0.0106,-6.83,25.02,-15.08,253.16,2.19,0.01
29428,50.716763,-3.80403,260,26.11,10.0,259.7,Jun-18,2942939,2019-08-17 08:09:32:306,-0.3256,-0.2568,9.9116,0.0351,-0.0189,9.8066,-0.016,-0.0149,-0.0106,-6.84,24.75,-15.51,253.16,2.19,0.01
29429,50.716763,-3.80403,260,26.11,10.0,259.7,Jun-18,2943040,2019-08-17 08:09:32:407,-0.2678,-0.068,10.7501,0.0059,-0.0228,9.8066,0.0149,-0.0064,-0.0138,-6.78,24.85,-15.37,253.23,2.15,-0.22
29430,50.716763,-3.80403,260,26.11,10.0,259.7,Jun-18,2943139,2019-08-17 08:09:32:506,0.2534,-0.2239,10.5303,-0.0011,-0.0249,9.8066,0.0138,0.0021,-0.0255,-6.78,24.85,-15.37,253.23,2.15,-0.22
29431,50.716763,-3.80403,260,26.11,10.0,259.7,Jun-18,2943239,2019-08-17 08:09:32:606,0.108,-0.3757,10.4223,-0.0096,-0.0001,9.8066,0.0159,-0.0884,-0.0245,-7.19,24.94,-15.04,253.31,2.0,-0.26
29432,50.716763,-3.80403,260,26.11,10.0,259.7,Jun-18,2943340,2019-08-17 08:09:32:707,0.6792,0.2261,9.2434,-0.0241,0.0177,9.8066,0.0522,0.0362,-0.0202,-7.27,24.82,-15.2,253.31,2.0,-0.26
29433,50.716763,-3.80403,260,26.11,10.0,259.7,Jun-18,2943439,2019-08-17 08:09:32:806,-0.0536,0.1937,9.1557,0.0016,-0.0017,9.8067,-0.0149,-0.0416,0.0,-6.81,25.32,-14.59,253.24,2.06,-0.09
29434,50.716724,-3.804374,263,25.95,10.0,260.3,Jun-18,2943539,2019-08-17 08:09:32:906,-0.3955,-0.0167,10.6715,0.0067,-0.0011,9.8066,-0.0011,-0.0416,-0.0287,-6.88,25.2,-14.74,253.25,2.07,-0.13
29435,50.716724,-3.804374,263,25.95,10.0,260.3,Jun-18,2943639,2019-08-17 08:09:33:006,-0.1002,0.1016,10.3006,-0.001,0.0014,9.8067,0.0213,0.0128,-0.0181,-6.88,25.2,-14.74,253.25,2.07,-0.13
29436,50.716724,-3.804374,263,25.95,10.0,260.3,Jun-18,2943739,2019-08-17 08:09:33:106,0.0647,0.1584,9.8039,-0.01,0.0028,9.8066,-0.0352,0.0224,-0.0106,-7.26,24.84,-15.17,253.24,2.07,-0.07
29437,50.716724,-3.804374,263,25.95,10.0,260.3,Jun-18,2943839,2019-08-17 08:09:33:206,-0.5446,-0.0274,9.9503,-0.0102,-0.0165,9.8066,-0.0352,0.0224,-0.0106,-6.81,25.32,-14.59,253.29,1.97,-0.06
29438,50.716724,-3.804374,263,25.95,10.0,260.3,Jun-18,2943939,2019-08-17 08:09:33:306,-0.3653,-0.2106,9.8166,-0.0029,-0.0205,9.8066,0.0117,0.0043,-0.0287,-6.81,25.32,-14.59,253.29,1.97,-0.06
29439,50.716724,-3.804374,263,25.95,10.0,260.3,Jun-18,2944040,2019-08-17 08:09:33:407,-0.0315,-0.0851,9.5571,0.0022,-0.0094,9.8066,-0.0075,-0.0053,-0.0106,-6.51,25.28,-14.79,253.32,1.92,-0.08
29440,50.716724,-3.804374,263,25.95,10.0,260.3,Jun-18,2944139,2019-08-17 08:09:33:506,-0.5172,0.063,9.9223,-0.0031,0.0152,9.8066,-0.0022,-0.0288,0.0064,-6.55,25.44,-14.49,253.32,1.92,-0.08
29441,50.716724,-3.804374,263,25.95,10.0,260.3,Jun-18,2944240,2019-08-17 08:09:33:607,-0.2127,0.1122,10.9279,-0.0098,0.0213,9.8066,0.0202,0.0,-0.016,-6.55,25.44,-14.49,253.32,1.92,-0.08
29442,50.716724,-3.804374,263,25.95,10.0,260.3,Jun-18,2944339,2019-08-17 08:09:33:706,0.2295,-0.0762,9.0736,-0.0151,0.0357,9.8066,-0.0149,0.0202,0.0043,-6.37,25.5,-14.47,255.4,2.09,0.06
29443,50.716724,-3.804374,263,25.95,10.0,260.3,Jun-18,2944439,2019-08-17 08:09:33:806,0.2026,0.1591,9.3355,0.011,0.0034,9.8066,-0.0075,0.0256,-0.0064,-6.37,25.5,-14.47,255.4,2.09,0.06
29444,50.716724,-3.804374,262,26.09,10.0,261.2,Aug-18,2944539,2019-08-17 08:09:33:906,0.5593,0.1992,9.6996,0.0037,-0.0076,9.8066,0.0223,0.0437,-0.0149,-6.48,25.55,-14.33,255.93,2.13,0.0
29445,50.716686,-3.804753,262,26.09,10.0,261.2,Aug-18,2944640,2019-08-17 08:09:34:007,0.47,0.1008,9.9887,0.0025,-0.0214,9.8066,0.0223,0.0437,-0.0149,-6.53,24.97,-15.29,255.93,2.13,0.0
29446,50.716686,-3.804753,262,26.09,10.0,261.2,Aug-18,2944740,2019-08-17 08:09:34:107,0.5188,0.2249,9.2696,-0.003,-0.0211,9.8066,-0.0064,0.0021,0.0128,-6.76,25.13,-14.92,253.26,2.01,-0.01
29447,50.716686,-3.804753,262,26.09,10.0,261.2,Aug-18,2944840,2019-08-17 08:09:34:207,0.0272,-0.0404,10.451,-0.0243,-0.0049,9.8066,0.0298,0.017,-0.0224,-6.48,25.55,-14.33,256.0,1.98,0.05
29448,50.716686,-3.804753,262,26.09,10.0,261.2,Aug-18,2944939,2019-08-17 08:09:34:306,-0.634,0.0655,10.5239,-0.047,0.0045,9.8065,-0.0224,-0.0469,0.0011,-6.48,25.55,-14.33,256.0,1.98,0.05
29449,50.716686,-3.804753,262,26.09,10.0,261.2,Aug-18,2945039,2019-08-17 08:09:34:406,-0.301,0.1605,9.9234,0.0066,0.0178,9.8066,0.0298,-0.0085,-0.0192,-6.76,25.13,-14.92,253.23,1.94,0.33
29450,50.716686,-3.804753,262,26.09,10.0,261.2,Aug-18,2945140,2019-08-17 08:09:34:507,-0.1565,0.2685,9.1966,0.0064,0.0252,9.8066,-0.0139,-0.0277,0.0085,-6.51,25.28,-14.79,253.23,1.94,0.33
29451,50.716686,-3.804753,262,26.09,10.0,261.2,Aug-18,2945239,2019-08-17 08:09:34:606,-0.5964,0.0321,10.3585,-0.0187,0.0016,9.8066,0.0085,-0.032,0.0096,-6.34,25.01,-15.3,255.27,2.09,0.33
29452,50.716686,-3.804753,262,26.09,10.0,261.2,Aug-18,2945339,2019-08-17 08:09:34:706,-0.2451,0.2309,9.2691,-0.0282,0.0079,9.8066,0.0266,0.0437,-0.017,-6.44,25.39,-14.63,255.24,2.09,0.5
29453,50.716686,-3.804753,262,26.09,10.0,261.2,Aug-18,2945439,2019-08-17 08:09:34:806,-0.411,-0.1198,10.1905,0.0017,0.0084,9.8066,0.0266,0.0437,-0.017,-6.44,25.39,-14.63,255.24,2.09,0.5
29454,50.716652,-3.805132,263,26.2,10.0,261.6,Jul-18,2945540,2019-08-17 08:09:34:907,0.1199,0.2915,9.0135,-0.0057,0.0123,9.8066,-0.0171,-0.0053,0.0085,-6.81,25.32,-14.59,253.07,2.15,0.55
29455,50.716652,-3.805132,263,26.2,10.0,261.6,Jul-18,2945639,2019-08-17 08:09:35:006,0.2192,-0.2771,10.3948,0.0145,-0.0052,9.8066,0.0117,0.0149,-0.0128,-6.46,25.09,-15.13,255.17,2.22,0.52
29456,50.716652,-3.805132,263,26.2,10.0,261.6,Jul-18,2945739,2019-08-17 08:09:35:106,0.7888,-0.1021,10.5823,0.0196,-0.0033,9.8066,-0.0629,0.017,0.0021,-6.46,25.09,-15.13,255.17,2.22,0.52
29457,50.716652,-3.805132,263,26.2,10.0,261.6,Jul-18,2945840,2019-08-17 08:09:35:207,0.6336,-0.0316,9.4061,-0.01,-0.0048,9.8066,0.0607,0.0,0.0075,-6.2,25.34,-14.82,255.18,2.23,0.4
29458,50.716652,-3.805132,263,26.2,10.0,261.6,Jul-18,2945939,2019-08-17 08:09:35:306,0.6039,-0.1059,9.4017,-0.0239,0.0027,9.8066,0.0436,0.0383,-0.0085,-6.51,25.28,-14.79,255.18,2.23,0.4
29459,50.716652,-3.805132,263,26.2,10.0,261.6,Jul-18,2946039,2019-08-17 08:09:35:406,0.2378,0.0665,9.7599,-0.0278,0.0201,9.8066,0.0,0.0224,-0.016,-6.15,25.89,-13.85,255.8,2.21,0.54
29460,50.716652,-3.805132,263,26.2,10.0,261.6,Jul-18,2946139,2019-08-17 08:09:35:506,-0.3442,0.1039,9.6271,-0.0261,0.037,9.8065,0.0,0.0224,-0.016,-6.46,25.09,-15.13,255.03,2.38,0.74
29461,50.716652,-3.805132,263,26.2,10.0,261.6,Jul-18,2946239,2019-08-17 08:09:35:606,-0.4535,0.0535,10.7985,0.0072,-0.0102,9.8066,-0.0128,0.0181,-0.0032,-6.46,25.09,-15.13,255.03,2.38,0.74
29462,50.716652,-3.805132,263,26.2,10.0,261.6,Jul-18,2946340,2019-08-17 08:09:35:707,-0.1978,-0.0332,10.4123,0.0112,-0.011,9.8066,-0.049,0.0511,-0.0032,-6.37,24.73,-15.74,254.97,2.34,0.69
29463,50.716652,-3.805132,263,26.2,10.0,261.6,Jul-18,2946440,2019-08-17 08:09:35:807,0.0293,-0.212,10.6371,0.014,-0.0054,9.8066,-0.0011,-0.0373,-0.0191,-6.41,24.9,-15.46,255.11,2.29,0.61
29464,50.716614,-3.805498,264,26.03,10.0,262.1,Jul-18,2946540,2019-08-17 08:09:35:907,0.0239,0.0052,9.6226,0.021,0.0003,9.8066,0.0223,0.033,-0.0277,-6.41,24.9,-15.46,255.11,2.29,0.61
29465,50.716614,-3.805498,264,26.03,10.0,262.1,Jul-18,2946639,2019-08-17 08:09:36:006,-0.1667,-0.1762,10.2363,0.0082,-0.0117,9.8066,-0.0022,0.0277,-0.0128,-6.2,25.34,-14.82,255.11,2.32,0.49
29466,50.716614,-3.805498,264,26.03,10.0,262.1,Jul-18,2946740,2019-08-17 08:09:36:107,-0.0074,-0.3537,10.492,0.0158,-0.0224,9.8066,0.017,-0.0021,-0.0191,-6.45,25.06,-15.18,255.19,2.22,0.36
29467,50.716614,-3.805498,264,26.03,10.0,262.1,Jul-18,2946839,2019-08-17 08:09:36:206,-0.1436,-0.0299,9.831,0.0117,0.0089,9.8066,0.0159,-0.0085,0.0011,-6.08,25.23,-15.05,255.19,2.22,0.36
29468,50.716614,-3.805498,264,26.03,10.0,262.1,Jul-18,2946939,2019-08-17 08:09:36:306,0.4493,0.012,9.1997,0.0138,0.002,9.8066,0.0181,-0.0224,0.0064,-6.08,25.23,-15.05,255.19,2.22,0.36
29469,50.716614,-3.805498,264,26.03,10.0,262.1,Jul-18,2947040,2019-08-17 08:09:36:407,0.2712,-0.0843,9.7291,-0.0497,0.0202,9.8065,0.0181,-0.0224,0.0064,-6.57,25.11,-15.05,253.06,2.25,0.29
29470,50.716614,-3.805498,264,26.03,10.0,262.1,Jul-18,2947139,2019-08-17 08:09:36:506,0.0216,-0.0626,10.4003,-0.0381,-0.0056,9.8066,0.0586,0.0309,-0.0042,-6.88,25.6,-14.04,253.69,2.28,0.6
29471,50.716614,-3.805498,264,26.03,10.0,262.1,Jul-18,2947239,2019-08-17 08:09:36:606,0.3712,-0.1628,8.7183,-0.0605,-0.0294,9.8064,-0.0341,0.0107,0.0181,-6.88,25.6,-14.04,253.69,2.28,0.6
29472,50.716614,-3.805498,264,26.03,10.0,262.1,Jul-18,2947340,2019-08-17 08:09:36:707,0.2505,-0.1144,9.9203,-0.0046,-0.0219,9.8066,-0.0458,0.032,-0.001,-6.72,25.37,-14.53,253.07,2.02,0.89
29473,50.716614,-3.805498,264,26.03,10.0,262.1,Jul-18,2947439,2019-08-17 08:09:36:806,0.0207,-0.006,9.6144,-0.0039,-0.0136,9.8066,0.0181,-0.0085,-0.0138,-6.91,25.31,-14.55,253.12,1.93,0.89
29474,50.71659,-3.80584,265,25.71,10.0,263.4,Aug-18,2947540,2019-08-17 08:09:36:907,-0.3865,0.1439,9.6004,-0.0038,0.0238,9.8066,-0.0181,-0.049,0.0139,-6.4,25.63,-14.22,255.81,2.06,0.95
29475,50.71659,-3.80584,265,25.71,10.0,263.4,Aug-18,2947640,2019-08-17 08:09:37:007,-0.3231,0.0729,10.3365,-0.0009,0.0048,9.8066,0.0202,-0.0639,-0.0266,-6.4,25.63,-14.22,255.81,2.06,0.95
29476,50.71659,-3.80584,265,25.71,10.0,263.4,Aug-18,2947739,2019-08-17 08:09:37:106,0.2531,0.016,9.6051,0.0215,0.0038,9.8066,-0.016,-0.0192,-0.0074,-6.01,25.31,-14.93,255.16,2.09,0.97
29477,50.71659,-3.80584,265,25.71,10.0,263.4,Aug-18,2947840,2019-08-17 08:09:37:207,-0.0743,0.1764,8.5994,0.0372,0.0061,9.8066,-0.016,-0.0192,-0.0074,-6.43,25.34,-14.72,255.14,2.18,0.76
29478,50.71659,-3.80584,265,25.71,10.0,263.4,Aug-18,2947940,2019-08-17 08:09:37:307,-0.2744,-0.3294,10.6871,-0.0055,-0.0091,9.8066,0.0255,-0.0043,-0.0128,-5.79,25.62,-14.5,255.72,2.12,0.78
29479,50.71659,-3.80584,265,25.71,10.0,263.4,Aug-18,2948039,2019-08-17 08:09:37:406,0.4061,-0.0545,8.8019,-0.0069,-0.0491,9.8065,-0.0224,0.0245,0.0107,-5.79,25.62,-14.5,255.72,2.12,0.78
29480,50.71659,-3.80584,265,25.71,10.0,263.4,Aug-18,2948139,2019-08-17 08:09:37:506,-0.2769,-0.1381,11.2834,0.0042,-0.0057,9.8066,-0.0203,-0.0852,-0.0032,-6.23,25.44,-14.62,255.34,1.83,0.75
29481,50.71659,-3.80584,265,25.71,10.0,263.4,Aug-18,2948240,2019-08-17 08:09:37:607,0.2666,-0.373,10.4705,0.0047,-0.0024,9.8066,0.0191,-0.0128,0.0011,-6.49,25.2,-14.93,255.35,1.82,0.72
29482,50.71659,-3.80584,265,25.71,10.0,263.4,Aug-18,2948339,2019-08-17 08:09:37:706,0.6097,-0.1176,9.1221,0.0004,0.0058,9.8066,-0.0075,-0.0021,0.0224,-6.5,25.22,-14.89,255.35,1.82,0.72
29483,50.71659,-3.80584,265,25.71,10.0,263.4,Aug-18,2948439,2019-08-17 08:09:37:806,0.1887,-0.0483,9.319,0.0041,0.011,9.8066,0.0266,0.016,-0.0053,-6.5,25.22,-14.89,255.35,1.82,0.72
29484,50.716553,-3.806205,266,25.71,10.0,263.2,Aug-18,2948539,2019-08-17 08:09:37:906,0.2,0.1787,10.3855,-0.0085,-0.017,9.8066,0.0266,0.016,-0.0053,-6.38,25.15,-15.06,255.32,1.89,0.71
29485,50.716553,-3.806205,266,25.71,10.0,263.2,Jul-18,2948639,2019-08-17 08:09:38:006,-0.3378,0.1406,9.6251,-0.0149,-0.0296,9.8066,0.0213,0.0586,-0.0096,-6.21,24.97,-15.42,255.42,1.7,0.75
29486,50.716553,-3.806205,266,25.71,10.0,263.2,Jul-18,2948739,2019-08-17 08:09:38:106,-0.236,-0.0987,10.405,-0.0013,0.0011,9.8067,-0.0341,-0.0565,-0.0085,-6.21,24.97,-15.42,255.42,1.7,0.75
29487,50.716553,-3.806205,266,25.71,10.0,263.2,Jul-18,2948840,2019-08-17 08:09:38:207,-0.1331,0.2422,9.2823,0.0041,0.0002,9.8066,0.0149,-0.0192,-0.0255,-6.42,25.31,-14.77,255.41,1.71,0.76
29488,50.716553,-3.806205,266,25.71,10.0,263.2,Jul-18,2948939,2019-08-17 08:09:38:306,-0.1621,0.1548,8.5017,0.0137,0.0008,9.8066,-0.0203,-0.0394,-0.0106,-6.45,25.03,-15.22,255.44,1.69,0.68
29489,50.716553,-3.806205,266,25.71,10.0,263.2,Jul-18,2949039,2019-08-17 08:09:38:406,-0.3237,-0.0468,10.2069,0.0192,0.0009,9.8066,-0.0128,0.0224,-0.0138,-6.34,24.99,-15.34,255.44,1.69,0.68
29490,50.716553,-3.806205,266,25.71,10.0,263.2,Jul-18,2949139,2019-08-17 08:09:38:506,0.3279,-0.0555,9.7283,0.0305,-0.0077,9.8066,0.0159,-0.0053,-0.017,-6.34,24.99,-15.34,255.44,1.69,0.68
29491,50.716553,-3.806205,266,25.71,10.0,263.2,Jul-18,2949239,2019-08-17 08:09:38:606,0.4033,-0.154,10.6461,0.0112,-0.0111,9.8066,-0.0448,-0.0373,0.0022,-6.09,24.9,-15.59,255.4,1.69,0.49
29492,50.716553,-3.806205,266,25.71,10.0,263.2,Jul-18,2949339,2019-08-17 08:09:38:706,0.6849,-0.1434,9.3997,0.0276,-0.035,9.8066,-0.0448,-0.0373,0.0022,-6.14,25.09,-15.26,255.59,1.53,0.28
29493,50.716553,-3.806205,266,25.71,10.0,263.2,Jul-18,2949440,2019-08-17 08:09:38:807,0.4007,-0.1461,9.732,0.0145,-0.0099,9.8066,0.0394,0.0352,-0.0106,-6.07,25.2,-15.09,255.59,1.53,0.28
29494,50.71653,-3.806531,266,25.2,10.0,263.5,Jul-18,2949540,2019-08-17 08:09:38:907,0.1951,-0.054,9.6262,0.0195,-0.0184,9.8066,-0.0107,-0.081,0.0128,-6.03,25.01,-15.42,255.66,1.46,0.15
29495,50.71653,-3.806531,266,25.2,10.0,263.5,Jul-18,2949639,2019-08-17 08:09:39:006,0.0593,0.0692,9.5912,-0.0028,-0.001,9.8067,-0.0054,0.0075,-0.0021,-6.03,25.01,-15.42,255.66,1.46,0.15
29496,50.71653,-3.806531,266,25.2,10.0,263.5,Jul-18,2949739,2019-08-17 08:09:39:106,-0.4811,0.0634,10.9453,0.0007,0.0186,9.8066,0.017,0.0085,-0.033,-6.03,25.01,-15.42,255.6,1.56,0.17
29497,50.71653,-3.806531,266,25.2,10.0,263.5,Jul-18,2949839,2019-08-17 08:09:39:206,-0.4275,0.3045,9.4156,-0.0091,0.0116,9.8066,-0.0384,0.049,0.0085,-6.12,25.39,-14.76,255.55,1.62,0.24
29498,50.71653,-3.806531,266,25.2,10.0,263.5,Jul-18,2949940,2019-08-17 08:09:39:307,-0.371,-0.0856,10.3086,0.01,-0.0039,9.8066,0.0106,0.0064,-0.0138,-6.2,25.74,-14.11,256.19,1.54,0.26
29499,50.71653,-3.806531,266,25.2,10.0,263.5,Jul-18,2950039,2019-08-17 08:09:39:406,-0.3038,-0.0455,10.2712,0.017,-0.0114,9.8066,-0.0086,0.0341,-0.0191,-6.2,25.74,-14.11,256.19,1.54,0.26
29500,50.71653,-3.806531,266,25.2,10.0,263.5,Jul-18,2950139,2019-08-17 08:09:39:506,0.2512,0.0648,8.8546,0.0139,-0.0074,9.8066,-0.032,-0.0309,-0.0266,-5.72,25.72,-14.34,256.22,1.5,0.15
29501,50.71653,-3.806531,266,25.2,10.0,263.5,Jul-18,2950240,2019-08-17 08:09:39:607,0.2648,-0.0016,10.2828,0.0315,-0.0111,9.8066,-0.032,-0.0309,-0.0266,-5.47,25.57,-14.7,256.22,1.5,0.15
29502,50.71653,-3.806531,266,25.2,10.0,263.5,Jul-18,2950339,2019-08-17 08:09:39:706,0.2317,0.0354,8.5014,0.0021,0.0076,9.8066,0.0181,0.0266,-0.0223,-5.43,25.38,-15.04,257.85,1.48,-0.05
29503,50.71653,-3.806531,266,25.2,10.0,263.5,Jul-18,2950439,2019-08-17 08:09:39:806,0.397,-0.2631,9.8847,0.0118,0.0054,9.8066,-0.032,-0.0373,-0.0032,-5.85,25.51,-14.66,256.19,1.53,-0.11
29504,50.71652,-3.806832,263,24.88,10.0,264.7,Jun-18,2950541,2019-08-17 08:09:39:908,0.4119,0.0914,10.0927,0.0094,0.0012,9.8066,0.0191,-0.0064,0.0011,-5.85,25.51,-14.66,256.19,1.53,-0.11
29505,50.71652,-3.806832,263,24.88,10.0,264.7,Jun-18,2950640,2019-08-17 08:09:40:007,0.0937,-0.1974,10.2089,0.0075,0.0066,9.8066,0.0149,-0.0064,-0.0447,-6.07,25.2,-15.09,256.19,1.53,-0.11
29506,50.71652,-3.806832,263,24.88,10.0,264.7,Jun-18,2950740,2019-08-17 08:09:40:107,0.2999,0.3039,9.0653,0.0113,0.0111,9.8066,-0.0437,0.0298,0.0288,-5.72,25.72,-14.34,256.22,1.61,-0.16
29507,50.71652,-3.806832,263,24.88,10.0,264.7,Jun-18,2950840,2019-08-17 08:09:40:207,-0.3777,0.0198,10.2375,-0.0196,0.0138,9.8066,0.0362,0.0149,-0.0202,-5.72,25.72,-14.34,256.22,1.61,-0.16
29508,50.71652,-3.806832,263,24.88,10.0,264.7,Jun-18,2950940,2019-08-17 08:09:40:307,-0.3062,0.1694,10.3938,-0.0039,0.0035,9.8066,-0.0299,0.0298,0.0032,-5.85,25.51,-14.66,256.11,1.66,-0.03
29509,50.71652,-3.806832,263,24.88,10.0,264.7,Jun-18,2951039,2019-08-17 08:09:40:406,-0.3755,-0.1419,10.9876,-0.0089,-0.0106,9.8066,-0.0299,0.0298,0.0032,-5.79,25.62,-14.5,256.11,1.66,-0.03
29510,50.71652,-3.806832,263,24.88,10.0,264.7,Jun-18,2951140,2019-08-17 08:09:40:507,0.4025,0.0217,9.0631,0.0006,-0.0024,9.8067,0.0202,0.0597,-0.0138,-5.79,25.62,-14.5,256.14,1.58,0.01
29511,50.71652,-3.806832,263,24.88,10.0,264.7,Jun-18,2951239,2019-08-17 08:09:40:606,0.28,0.0276,10.3975,0.014,0.0116,9.8066,-0.0118,-0.0096,-0.0042,-5.79,25.62,-14.5,256.11,1.67,-0.06
29512,50.71652,-3.806832,263,24.88,10.0,264.7,Jun-18,2951339,2019-08-17 08:09:40:706,0.6236,-0.0883,9.6011,0.0159,-0.0186,9.8066,-0.0405,0.0032,0.0011,-5.79,25.62,-14.5,256.11,1.67,-0.06
29513,50.71652,-3.806832,263,24.88,10.0,264.7,Jun-18,2951440,2019-08-17 08:09:40:807,0.5223,0.1112,9.8128,0.0126,-0.0048,9.8066,0.0266,-0.0021,-0.0223,-5.81,25.35,-14.96,255.64,1.59,-0.17
29514,50.716515,-3.807154,262,24.95,10.0,265.7,Jun-18,2951539,2019-08-17 08:09:40:906,0.3549,-0.0566,9.7888,0.0134,-0.0084,9.8066,-0.016,0.017,0.0054,-5.41,25.68,-14.54,255.64,1.59,-0.17
29515,50.716515,-3.807154,262,24.95,10.0,265.7,Jul-18,2951640,2019-08-17 08:09:41:007,0.3386,0.2029,8.7283,0.0076,0.0041,9.8066,0.0042,0.0415,-0.0064,-5.79,25.62,-14.5,256.16,1.62,-0.21
29516,50.716515,-3.807154,262,24.95,10.0,265.7,Jul-18,2951739,2019-08-17 08:09:41:106,-0.0649,0.0567,9.9651,-0.0108,0.0169,9.8066,0.0042,0.0415,-0.0064,-5.81,25.35,-14.96,255.57,1.7,-0.12
29517,50.716515,-3.807154,262,24.95,10.0,265.7,Jul-18,2951840,2019-08-17 08:09:41:207,-0.0424,0.1771,10.5253,-0.0048,0.0134,9.8066,0.0074,0.0234,-0.0128,-5.03,25.74,-14.57,255.57,1.7,-0.12
29518,50.716515,-3.807154,262,24.95,10.0,265.7,Jul-18,2951939,2019-08-17 08:09:41:306,-0.1426,0.3814,8.8885,-0.0142,0.0335,9.8066,-0.0213,-0.0692,0.0075,-5.03,25.74,-14.57,255.57,1.7,-0.12
29519,50.716515,-3.807154,262,24.95,10.0,265.7,Jul-18,2952040,2019-08-17 08:09:41:407,-0.3869,0.0506,9.5934,-0.0071,-0.0126,9.8066,0.0479,-0.0064,-0.0383,-4.65,25.79,-14.6,258.08,1.87,0.01
29520,50.716515,-3.807154,262,24.95,10.0,265.7,Jul-18,2952139,2019-08-17 08:09:41:506,-0.5109,-0.1295,10.9896,-0.0053,-0.0384,9.8066,-0.0203,0.0724,-0.0106,-5.41,25.68,-14.54,258.21,1.64,-0.01
29521,50.716515,-3.807154,262,24.95,10.0,265.7,Jul-18,2952239,2019-08-17 08:09:41:606,-0.1818,0.076,9.785,0.0028,-0.012,9.8066,-0.0171,-0.0522,0.0128,-5.41,25.68,-14.54,258.21,1.64,-0.01
29522,50.716515,-3.807154,262,24.95,10.0,265.7,Jul-18,2952339,2019-08-17 08:09:41:706,-0.5233,0.0083,9.0104,0.0098,0.0016,9.8066,0.0458,0.0479,-0.0191,-4.76,25.61,-14.88,258.25,1.58,-0.04
29523,50.716515,-3.807154,262,24.95,10.0,265.7,Jul-18,2952440,2019-08-17 08:09:41:807,-0.51,0.3163,8.0308,0.0012,0.005,9.8066,0.0128,-0.0426,0.0171,-4.32,25.77,-14.74,258.25,1.58,-0.04
29524,50.7165,-3.80753,262,25.26,10.0,266.3,Jul-18,2952540,2019-08-17 08:09:41:907,-0.8206,-0.0212,10.9212,-0.0208,0.0138,9.8066,-0.0437,-0.0256,0.0171,-3.23,26.06,-14.51,262.48,1.63,0.09
29525,50.7165,-3.80753,262,25.26,10.0,266.3,Jul-18,2952639,2019-08-17 08:09:42:006,-0.4371,0.2259,9.3807,-0.0214,0.0056,9.8066,-0.0437,-0.0256,0.0171,-3.23,26.06,-14.51,262.48,1.63,0.09
29526,50.7165,-3.80753,262,25.26,10.0,266.3,Jul-18,2952740,2019-08-17 08:09:42:107,0.2274,-0.0171,9.9409,-0.0266,0.0066,9.8066,0.0117,-0.0011,-0.0128,-1.56,24.71,-16.94,264.29,1.65,0.22
29527,50.7165,-3.80753,262,25.26,10.0,266.3,Jul-18,2952839,2019-08-17 08:09:42:206,0.5161,-0.1254,10.1819,-0.0596,-0.0017,9.8065,-0.0256,-0.0224,0.0171,-3.33,23.96,-18.48,264.29,1.65,0.22
29528,50.7165,-3.80753,262,25.26,10.0,266.3,Jul-18,2952940,2019-08-17 08:09:42:307,0.4634,-0.0131,9.1703,-0.0019,0.0062,9.8066,0.0458,-0.0277,-0.0255,-5.58,23.27,-18.86,254.01,1.61,0.57
29529,50.7165,-3.80753,262,25.26,10.0,266.3,Jul-18,2953040,2019-08-17 08:09:42:407,0.4791,-0.0514,9.2234,0.0012,0.0176,9.8066,-0.0224,-0.0043,-0.0021,-5.58,23.27,-18.86,254.01,1.61,0.57
29530,50.7165,-3.80753,262,25.26,10.0,266.3,Jul-18,2953139,2019-08-17 08:09:42:506,0.2591,0.1073,9.0854,0.0084,-0.002,9.8066,-0.0288,-0.0458,0.0107,-8.92,24.03,-15.59,248.31,1.71,0.59
29531,50.7165,-3.80753,262,25.26,10.0,266.3,Jul-18,2953239,2019-08-17 08:09:42:606,-0.2127,-0.1149,10.4925,0.0232,-0.0028,9.8066,0.049,0.0245,-0.0159,-7.62,25.47,-13.9,251.29,1.74,0.46
29532,50.7165,-3.80753,262,25.26,10.0,266.3,Jul-18,2953340,2019-08-17 08:09:42:707,-0.4091,0.1304,10.4159,-0.0002,-0.0053,9.8067,-0.0192,0.0458,0.0245,-6.47,25.52,-14.38,251.29,1.74,0.46
29533,50.7165,-3.80753,262,25.26,10.0,266.3,Jul-18,2953440,2019-08-17 08:09:42:807,-0.6006,0.1956,10.3376,-0.0425,-0.0256,9.8065,-0.0192,0.0458,0.0245,-6.47,25.52,-14.38,251.29,1.74,0.46
29534,50.71648,-3.807938,261,26.0,10.0,266.4,Jul-18,2953540,2019-08-17 08:09:42:907,-0.6721,0.0589,9.5027,-0.0434,-0.0388,9.8065,0.0298,0.0682,-0.0074,-6.55,25.41,-14.54,253.4,1.52,0.64
29535,50.71648,-3.807938,261,26.0,10.0,266.4,Jul-18,2953640,2019-08-17 08:09:43:007,-0.6612,-0.0503,9.9722,-0.0677,-0.0547,9.8063,0.0128,-0.0064,-0.0032,-6.21,25.76,-14.06,256.31,1.1,0.93
29536,50.71648,-3.807938,261,26.0,10.0,266.4,Jul-18,2953740,2019-08-17 08:09:43:107,-0.2949,0.089,9.5115,-0.0083,0.0219,9.8066,-0.0437,-0.0202,0.0086,-5.73,25.75,-14.29,256.31,1.1,0.93
29537,50.71648,-3.807938,261,26.0,10.0,266.4,Jul-18,2953839,2019-08-17 08:09:43:206,0.1948,0.0567,8.5874,-0.0024,0.0102,9.8066,0.0511,-0.0618,-0.0298,-5.83,25.83,-14.1,256.15,1.37,1.11
29538,50.71648,-3.807938,261,26.0,10.0,266.4,Jul-18,2953939,2019-08-17 08:09:43:306,-0.005,-0.0819,10.1634,-0.0082,0.0303,9.8066,-0.0075,0.0128,-0.0096,-5.83,25.83,-14.1,256.15,1.37,1.11
29539,50.71648,-3.807938,261,26.0,10.0,266.4,Jul-18,2954040,2019-08-17 08:09:43:407,0.4586,0.1691,9.7374,-0.0061,0.0102,9.8066,0.0085,-0.0096,0.0107,-5.45,25.89,-14.13,258.17,1.53,1.19
29540,50.71648,-3.807938,261,26.0,10.0,266.4,Jul-18,2954140,2019-08-17 08:09:43:507,0.3988,-0.1306,9.8122,-0.0283,-0.0069,9.8066,0.0404,-0.017,-0.0096,-5.83,25.83,-14.1,258.17,1.53,1.19
29541,50.71648,-3.807938,261,26.0,10.0,266.4,Jul-18,2954239,2019-08-17 08:09:43:606,0.1971,-0.4236,10.7396,-0.0494,-0.0393,9.8064,0.0404,-0.017,-0.0096,-5.73,25.75,-14.29,256.16,1.24,1.43
29542,50.71648,-3.807938,261,26.0,10.0,266.4,Jul-18,2954340,2019-08-17 08:09:43:707,0.0539,-0.2358,9.7872,-0.0024,-0.0318,9.8066,-0.0394,-0.0309,0.0,-5.73,25.75,-14.29,256.16,1.24,1.43
29543,50.71648,-3.807938,261,26.0,10.0,266.4,Jul-18,2954440,2019-08-17 08:09:43:807,-0.0315,-0.121,10.1825,0.0087,-0.0516,9.8065,0.0426,-0.0075,-0.0234,-5.73,25.75,-14.29,256.33,0.96,1.31
29544,50.716465,-3.808302,263,25.83,11.0,267.0,Jul-18,2954539,2019-08-17 08:09:43:906,-0.2135,0.0315,10.8443,0.0076,-0.0036,9.8066,-0.0416,-0.0011,0.0213,-5.79,25.64,-14.45,256.33,0.96,1.31
29545,50.716465,-3.808302,263,25.83,11.0,267.0,Jun-18,2954639,2019-08-17 08:09:44:006,-0.5244,0.3673,9.6846,0.018,0.0206,9.8066,-0.0469,0.0107,-0.0149,-5.71,25.29,-15.09,255.79,0.95,1.15
29546,50.716465,-3.808302,263,25.83,11.0,267.0,Jun-18,2954739,2019-08-17 08:09:44:106,-0.5203,0.0405,11.0653,0.0325,0.0433,9.8065,0.0681,-0.0096,-0.0341,-5.4,25.24,-15.29,257.83,1.24,1.03
29547,50.716465,-3.808302,263,25.83,11.0,267.0,Jun-18,2954839,2019-08-17 08:09:44:206,0.0834,-0.0433,9.7339,0.0091,-0.0047,9.8066,-0.0011,0.065,0.0171,-5.4,25.24,-15.29,257.83,1.24,1.03
29548,50.716465,-3.808302,263,25.83,11.0,267.0,Jun-18,2954939,2019-08-17 08:09:44:306,0.1298,-0.2997,11.0346,-0.0149,-0.0381,9.8066,0.0351,-0.0394,-0.017,-5.73,25.75,-14.29,256.24,1.22,0.97
29549,50.716465,-3.808302,263,25.83,11.0,267.0,Jun-18,2955040,2019-08-17 08:09:44:407,0.2888,-0.2456,9.5511,-0.0296,-0.061,9.8064,0.0351,-0.0394,-0.017,-5.75,25.46,-14.8,256.24,1.22,0.97
29550,50.716465,-3.808302,263,25.83,11.0,267.0,Jun-18,2955139,2019-08-17 08:09:44:506,0.6339,-0.1504,9.0676,-0.0198,-0.049,9.8065,-0.0043,-0.0565,-0.0074,-5.75,25.46,-14.8,256.24,1.22,0.97
29551,50.716465,-3.808302,263,25.83,11.0,267.0,Jun-18,2955239,2019-08-17 08:09:44:606,0.18,0.0123,9.941,0.0236,0.0188,9.8066,-0.0458,-0.0692,0.0128,-5.69,25.56,-14.64,256.35,0.92,1.01
29552,50.716465,-3.808302,263,25.83,11.0,267.0,Jun-18,2955340,2019-08-17 08:09:44:707,0.621,-0.1161,9.4955,0.0194,0.0072,9.8066,0.0383,-0.0277,-0.0362,-5.26,25.75,-14.46,258.46,1.06,0.9
29553,50.716465,-3.808302,263,25.83,11.0,267.0,Jun-18,2955439,2019-08-17 08:09:44:806,0.1708,0.3663,9.8346,0.0125,0.0107,9.8066,-0.016,-0.0309,0.016,-5.38,25.52,-14.83,258.37,1.13,0.85
29554,50.71645,-3.80868,263,25.75,11.0,267.0,Jun-18,2955539,2019-08-17 08:09:44:906,-0.0573,-0.1541,9.9723,-0.0051,0.0047,9.8066,0.0074,0.0394,-0.0021,-5.38,25.52,-14.83,258.37,1.13,0.85
29555,50.71645,-3.80868,263,25.75,11.0,267.0,Jun-18,2955639,2019-08-17 08:09:45:006,-0.2057,-0.1855,10.6287,-0.0081,-0.029,9.8066,0.0202,0.0256,-0.0415,-4.97,25.41,-15.15,258.06,0.9,0.85
29556,50.71645,-3.80868,263,25.75,11.0,267.0,Jun-18,2955740,2019-08-17 08:09:45:107,-0.2931,-0.0004,9.8432,0.0189,-0.005,9.8066,-0.0352,0.0,-0.0096,-5.38,25.54,-14.78,258.6,0.73,0.86
29557,50.71645,-3.80868,263,25.75,11.0,267.0,Jun-18,2955839,2019-08-17 08:09:45:206,-0.3557,-0.0887,10.6949,0.0304,-0.0091,9.8066,-0.0352,0.0,-0.0096,-5.38,25.54,-14.78,258.6,0.73,0.86
29558,50.71645,-3.80868,263,25.75,11.0,267.0,Jun-18,2955939,2019-08-17 08:09:45:306,-0.2568,0.1499,8.6224,0.0041,0.0096,9.8066,0.0373,-0.0011,-0.0383,-5.75,25.48,-14.75,256.0,0.71,0.68
29559,50.71645,-3.80868,263,25.75,11.0,267.0,Jun-18,2956040,2019-08-17 08:09:45:407,0.1045,0.2367,9.1823,0.0255,0.0345,9.8066,-0.0128,-0.0288,-0.0074,-5.32,25.62,-14.67,258.52,0.94,0.58
29560,50.71645,-3.80868,263,25.75,11.0,267.0,Jun-18,2956139,2019-08-17 08:09:45:506,0.5307,0.0813,9.8077,0.0277,0.0162,9.8066,-0.032,-0.0256,-0.0128,-5.32,25.62,-14.67,258.52,0.94,0.58
29561,50.71645,-3.80868,263,25.75,11.0,267.0,Jun-18,2956240,2019-08-17 08:09:45:607,0.4852,-0.1416,9.5646,0.0115,-0.0093,9.8066,0.0309,0.0149,-0.0138,-5.42,25.71,-14.49,258.51,1.07,0.44
29562,50.71645,-3.80868,263,25.75,11.0,267.0,Jun-18,2956340,2019-08-17 08:09:45:707,0.214,-0.239,10.154,0.0045,-0.0406,9.8066,-0.0149,0.0543,-0.0096,-5.09,25.66,-14.68,258.51,1.07,0.44
29563,50.71645,-3.80868,263,25.75,11.0,267.0,Jun-18,2956439,2019-08-17 08:09:45:806,0.5052,0.0132,8.6128,-0.0047,-0.0655,9.8064,0.001,0.0202,-0.001,-5.28,25.46,-14.96,258.24,0.69,0.39
29564,50.716434,-3.809067,263,26.02,11.0,267.8,Jun-17,2956540,2019-08-17 08:09:45:907,0.1254,-0.2385,10.3116,0.0001,-0.0092,9.8066,0.0255,-0.0107,-0.0223,-5.32,25.62,-14.67,258.24,0.69,0.39
29565,50.716434,-3.809067,263,26.02,11.0,267.8,Jun-17,2956640,2019-08-17 08:09:46:007,0.3062,0.1702,9.586,-0.0056,0.0047,9.8066,0.0255,-0.0107,-0.0223,-5.32,25.62,-14.67,258.24,0.69,0.39
29566,50.716434,-3.809067,263,26.02,11.0,267.8,Jun-17,2956740,2019-08-17 08:09:46:107,-0.0494,-0.0423,9.2197,0.0132,0.0035,9.8066,-0.0597,0.0533,-0.0032,-5.23,25.59,-14.75,258.67,0.71,0.43
29567,50.716434,-3.809067,263,26.02,11.0,267.8,Jun-17,2956840,2019-08-17 08:09:46:207,0.1211,0.0009,8.9484,0.0196,0.014,9.8066,0.0053,0.0053,-0.0149,-4.88,25.33,-15.32,258.67,0.71,0.43
29568,50.716434,-3.809067,263,26.02,11.0,267.8,Jun-17,2956940,2019-08-17 08:09:46:307,-0.3725,-0.0379,9.9136,0.0183,0.0199,9.8066,0.0255,-0.0394,-0.0074,-4.64,25.35,-15.35,258.18,0.81,0.33
29569,50.716434,-3.809067,263,26.02,11.0,267.8,Jun-17,2957039,2019-08-17 08:09:46:406,-0.299,0.4128,9.749,0.0126,0.0164,9.8066,-0.0213,0.0064,0.0107,-4.64,25.35,-15.35,258.18,0.81,0.33
29570,50.716434,-3.809067,263,26.02,11.0,267.8,Jun-17,2957140,2019-08-17 08:09:46:507,-0.5952,0.0254,11.0318,-0.0001,-0.0121,9.8066,0.0255,-0.0309,-0.0372,-4.26,25.43,-15.33,260.34,0.92,0.28
29571,50.716434,-3.809067,263,26.02,11.0,267.8,Jun-17,2957240,2019-08-17 08:09:46:607,-0.5769,-0.1687,9.4091,0.0055,-0.0119,9.8066,-0.0299,-0.0085,-0.0127,-4.24,24.91,-16.17,260.35,0.85,0.24
29572,50.716434,-3.809067,263,26.02,11.0,267.8,Jun-17,2957339,2019-08-17 08:09:46:706,-0.2187,0.1858,10.1523,0.0064,-0.0111,9.8066,-0.048,0.0245,0.0118,-4.24,24.91,-16.17,260.35,0.85,0.24
29573,50.716434,-3.809067,263,26.02,11.0,267.8,Jun-17,2957440,2019-08-17 08:09:46:807,0.0255,0.0101,9.8044,-0.0213,-0.0102,9.8066,0.0458,-0.0043,-0.0213,-4.65,25.38,-15.3,258.24,0.73,0.24
29574,50.71644,-3.809433,264,26.03,12.0,268.7,Jun-18,2957541,2019-08-17 08:09:46:908,-0.0066,-0.2102,8.903,-0.0067,-0.0015,9.8066,0.0458,-0.0043,-0.0213,-4.92,25.54,-14.94,258.71,0.65,0.35
29575,50.71644,-3.809433,264,26.03,12.0,268.7,Jun-18,2957639,2019-08-17 08:09:47:006,-0.0971,0.0609,9.8972,-0.0074,0.0133,9.8066,-0.0203,-0.016,0.0096,-5.31,25.19,-15.4,258.71,0.65,0.35
29576,50.71644,-3.809433,264,26.03,12.0,268.7,Jun-18,2957739,2019-08-17 08:09:47:106,0.5818,0.009,9.915,0.0035,0.0274,9.8066,0.0415,-0.0447,-0.0138,-5.31,25.19,-15.4,258.71,0.65,0.35
29577,50.71644,-3.809433,264,26.03,12.0,268.7,Jun-18,2957840,2019-08-17 08:09:47:207,0.5552,-0.2113,9.5281,0.0165,0.0001,9.8066,-0.065,-0.0426,0.0192,-5.03,25.33,-15.27,258.18,0.81,0.36
29578,50.71644,-3.809433,264,26.03,12.0,268.7,Jun-18,2957940,2019-08-17 08:09:47:307,0.2877,-0.0721,9.702,0.0291,-0.0043,9.8066,0.0468,0.0064,-0.0202,-4.56,26.04,-14.18,258.67,0.82,0.19
29579,50.71644,-3.809433,264,26.03,12.0,268.7,Jun-18,2958040,2019-08-17 08:09:47:407,-0.0952,-0.061,10.2416,-0.0074,-0.0087,9.8066,-0.0128,-0.0096,0.0235,-4.95,25.71,-14.65,258.67,0.82,0.19
29580,50.71644,-3.809433,264,26.03,12.0,268.7,Jun-18,2958140,2019-08-17 08:09:47:507,-0.7293,0.1082,9.5311,-0.0153,-0.0392,9.8066,-0.0128,-0.0096,0.0235,-4.95,25.71,-14.65,258.67,0.82,0.19
29581,50.71644,-3.809433,264,26.03,12.0,268.7,Jun-18,2958239,2019-08-17 08:09:47:606,-0.8361,-0.0469,10.0534,-0.0255,-0.0566,9.8065,-0.0128,0.0309,-0.0277,-4.95,25.71,-14.65,258.82,0.47,0.27
29582,50.71644,-3.809433,264,26.03,12.0,268.7,Jun-18,2958339,2019-08-17 08:09:47:706,-0.5227,0.1594,10.4425,-0.0082,0.0047,9.8066,0.0436,-0.0256,-0.0106,-4.58,25.79,-14.63,258.82,0.47,0.27
29583,50.71644,-3.809433,264,26.03,12.0,268.7,Jun-18,2958439,2019-08-17 08:09:47:806,-0.7762,0.1684,9.1196,-0.0041,0.0079,9.8066,-0.0384,-0.032,0.0075,-5.42,25.73,-14.44,258.8,0.54,0.35
29584,50.716423,-3.809822,263,26.03,12.0,269.1,Jun-18,2958539,2019-08-17 08:09:47:906,-0.5244,0.1989,9.9257,-0.0005,0.0198,9.8066,-0.0022,-0.0043,0.0011,-5.42,25.73,-14.44,258.8,0.54,0.35
29585,50.716423,-3.809822,263,26.03,12.0,269.1,Jun-18,2958640,2019-08-17 08:09:48:007,0.1697,-0.1932,9.7,0.0059,-0.0103,9.8066,0.0159,0.0362,-0.0149,-4.56,26.04,-14.18,258.73,0.65,0.37
29586,50.716423,-3.809822,263,26.03,12.0,269.1,Jun-18,2958740,2019-08-17 08:09:48:107,0.4306,-0.0124,9.7053,0.0012,-0.0092,9.8066,0.0181,0.0426,-0.0117,-4.15,25.91,-14.55,260.88,0.6,0.33
29587,50.716423,-3.809822,263,26.03,12.0,269.1,Jun-18,2958840,2019-08-17 08:09:48:207,-0.0793,-0.1222,11.9183,-0.0089,-0.023,9.8066,0.0628,-0.0362,0.015,-4.15,25.91,-14.55,260.88,0.6,0.33
29588,50.716423,-3.809822,263,26.03,12.0,269.1,Jun-18,2958939,2019-08-17 08:09:48:306,0.3099,-0.1869,9.3891,-0.0199,0.0081,9.8066,0.0628,-0.0362,0.015,-4.57,25.76,-14.68,258.82,0.46,0.36
29589,50.716423,-3.809822,263,26.03,12.0,269.1,Jun-18,2959039,2019-08-17 08:09:48:406,0.3515,-0.0619,8.9192,-0.0296,0.0044,9.8066,-0.015,0.0053,0.0054,-4.6,25.92,-14.39,258.82,0.45,0.53
29590,50.716423,-3.809822,263,26.03,12.0,269.1,Jun-18,2959139,2019-08-17 08:09:48:506,-0.2047,-0.485,9.567,-0.0123,-0.0273,9.8066,0.0266,0.0096,-0.0426,-4.6,25.92,-14.39,258.82,0.45,0.53
29591,50.716423,-3.809822,263,26.03,12.0,269.1,Jun-18,2959239,2019-08-17 08:09:48:606,-0.3161,0.4186,11.3516,0.0114,0.0197,9.8066,-0.0288,-0.0756,-0.0127,-4.93,25.99,-14.15,258.91,0.28,0.57
29592,50.716423,-3.809822,263,26.03,12.0,269.1,Jun-18,2959339,2019-08-17 08:09:48:706,-0.4742,0.0607,9.838,0.0061,0.0199,9.8066,-0.0618,-0.0107,0.0139,-4.61,25.95,-14.34,258.72,0.66,0.45
29593,50.716423,-3.809822,263,26.03,12.0,269.1,Jun-18,2959440,2019-08-17 08:09:48:807,-0.2302,0.1743,9.7572,-0.0189,-0.0494,9.8065,0.0404,0.0309,-0.0308,-4.18,26.06,-14.25,260.8,0.78,0.43
29594,50.716423,-3.810144,263,25.58,11.0,269.8,Sep-18,2959540,2019-08-17 08:09:48:907,-0.2981,0.3656,9.9081,-0.0324,-0.041,9.8065,-0.0032,0.0266,0.0075,-4.18,26.06,-14.25,260.8,0.78,0.43
29595,50.716423,-3.810144,263,25.58,11.0,269.8,Sep-18,2959639,2019-08-17 08:09:49:006,0.0485,-0.0184,9.1768,-0.0116,0.0104,9.8066,-0.0032,0.0266,0.0075,-4.95,25.71,-14.65,258.76,0.52,0.58
29596,50.716423,-3.810144,263,25.58,11.0,269.8,Sep-18,2959739,2019-08-17 08:09:49:106,-0.1879,-0.0783,9.8561,0.0033,-0.0125,9.8066,0.0053,0.0053,-0.0149,-4.6,25.92,-14.39,258.76,0.52,0.58
29597,50.716423,-3.810144,263,25.58,11.0,269.8,Sep-18,2959840,2019-08-17 08:09:49:207,0.0533,-0.1722,9.6451,0.0217,-0.0401,9.8065,0.0064,0.0479,-0.0095,-4.61,25.95,-14.34,258.91,0.31,0.41
29598,50.716423,-3.810144,263,25.58,11.0,269.8,Sep-18,2959939,2019-08-17 08:09:49:306,0.3187,-0.0943,10.2505,0.0141,-0.0118,9.8066,-0.0426,-0.0096,0.0214,-4.6,25.49,-15.14,258.91,0.31,0.41
29599,50.716423,-3.810144,263,25.58,11.0,269.8,Sep-18,2960039,2019-08-17 08:09:49:406,0.6773,0.1018,9.2663,0.0141,0.0018,9.8066,0.0106,-0.0256,-0.017,-4.6,25.49,-15.14,258.91,0.31,0.41
29600,50.716423,-3.810144,263,25.58,11.0,269.8,Sep-18,2960140,2019-08-17 08:09:49:507,0.3955,-0.1354,9.7175,0.0126,0.0188,9.8066,-0.0086,0.0021,-0.0095,-4.63,25.66,-14.85,258.83,0.43,0.36
29601,50.716423,-3.810144,263,25.58,11.0,269.8,Sep-18,2960239,2019-08-17 08:09:49:606,-0.1287,0.1112,10.2716,0.004,0.0187,9.8066,-0.0554,0.0181,0.0118,-4.17,25.64,-15.0,260.94,0.51,0.31
29602,50.716423,-3.810144,263,25.58,11.0,269.8,Sep-18,2960339,2019-08-17 08:09:49:706,-0.2967,0.2442,9.1136,-0.0028,0.0382,9.8066,0.033,0.0234,-0.0266,-4.2,25.81,-14.71,260.81,0.72,0.36
29603,50.716423,-3.810144,263,25.58,11.0,269.8,Sep-18,2960439,2019-08-17 08:09:49:806,-0.5501,-0.0088,9.7875,-0.0022,-0.0055,9.8067,0.033,0.0234,-0.0266,-4.2,25.81,-14.71,260.81,0.72,0.36
29604,50.71643,-3.810528,262,25.63,11.0,270.4,Jul-18,2960540,2019-08-17 08:09:49:907,-0.6941,-0.0491,10.7232,-0.0029,-0.0291,9.8066,-0.0554,0.0511,0.0256,-3.48,25.79,-14.92,263.0,0.69,0.37
29605,50.71643,-3.810528,262,25.63,11.0,270.4,Jul-18,2960639,2019-08-17 08:09:50:006,-0.5626,-0.0358,10.7147,-0.0209,-0.0494,9.8065,0.0841,0.0053,-0.033,-4.91,25.52,-14.99,258.85,0.39,0.45
29606,50.71643,-3.810528,262,25.63,11.0,270.4,Jul-18,2960739,2019-08-17 08:09:50:106,-0.2428,-0.0312,10.79,-0.0176,-0.0117,9.8066,0.0372,0.0245,-0.0213,-4.61,25.95,-14.34,258.85,0.39,0.45
29607,50.71643,-3.810528,262,25.63,11.0,270.4,Jul-18,2960839,2019-08-17 08:09:50:206,0.3815,-0.0162,8.1205,-0.0238,-0.0199,9.8066,0.001,-0.0607,0.0064,-4.61,25.95,-14.34,258.85,0.39,0.45
29608,50.71643,-3.810528,262,25.63,11.0,270.4,Jul-18,2960940,2019-08-17 08:09:50:307,0.0768,0.0829,8.9843,-0.0102,0.0154,9.8066,0.0298,-0.0543,-0.0213,-4.64,26.11,-14.04,258.93,0.25,0.57
29609,50.71643,-3.810528,262,25.63,11.0,270.4,Jul-18,2961040,2019-08-17 08:09:50:407,0.5094,-0.0046,9.9128,-0.0064,0.0379,9.8066,-0.0597,-0.0202,0.0171,-4.57,25.76,-14.68,258.78,0.46,0.65
29610,50.71643,-3.810528,262,25.63,11.0,270.4,Jul-18,2961140,2019-08-17 08:09:50:507,0.4495,-0.0418,9.2033,0.0044,-0.0061,9.8066,0.0085,0.0202,-0.017,-4.17,25.64,-15.0,260.87,0.57,0.64
29611,50.71643,-3.810528,262,25.63,11.0,270.4,Jul-18,2961239,2019-08-17 08:09:50:606,0.393,-0.026,8.6683,0.0062,-0.0097,9.8066,0.0618,-0.0309,-0.0287,-4.17,25.64,-15.0,260.87,0.57,0.64
29612,50.71643,-3.810528,262,25.63,11.0,270.4,Jul-18,2961339,2019-08-17 08:09:50:706,-0.2218,-0.1469,11.0497,-0.0126,-0.0062,9.8066,0.0618,-0.0309,-0.0287,-4.3,26.06,-14.22,260.92,0.52,0.6
29613,50.71643,-3.810528,262,25.63,11.0,270.4,Jul-18,2961440,2019-08-17 08:09:50:807,-0.1947,0.1437,9.9773,-0.0053,-0.0124,9.8066,-0.0245,0.0213,0.0032,-4.28,26.34,-13.7,260.94,0.47,0.67
29614,50.71644,-3.810871,262,25.42,11.0,271.1,Sep-18,2961540,2019-08-17 08:09:50:907,-0.3766,-0.0132,10.1665,-0.0077,-0.045,9.8065,0.0255,0.0277,-0.0106,-4.23,26.0,-14.36,261.09,0.21,0.67
29615,50.71644,-3.810871,262,25.42,11.0,271.1,Sep-18,2961640,2019-08-17 08:09:51:007,-0.5493,-0.0376,8.8642,-0.0057,-0.0117,9.8066,0.0127,-0.0458,0.015,-4.23,26.0,-14.36,261.09,0.21,0.67
29616,50.71644,-3.810871,262,25.42,11.0,271.1,Sep-18,2961740,2019-08-17 08:09:51:107,-0.5663,0.0491,10.0501,-0.0073,0.0223,9.8066,-0.0469,0.016,0.0075,-3.82,25.85,-14.74,261.12,0.13,0.69
29617,50.71644,-3.810871,262,25.42,11.0,271.1,Sep-18,2961839,2019-08-17 08:09:51:206,-0.3221,0.0095,10.6097,0.0014,0.0349,9.8066,0.001,0.0149,-0.0234,-4.17,25.64,-15.0,261.0,0.34,0.72
29618,50.71644,-3.810871,262,25.42,11.0,271.1,Sep-18,2961940,2019-08-17 08:09:51:307,0.272,0.2286,8.7134,0.0228,0.0073,9.8066,-0.0799,0.0416,0.0245,-4.24,25.7,-14.87,260.96,0.42,0.6
29619,50.71644,-3.810871,262,25.42,11.0,271.1,Sep-18,2962040,2019-08-17 08:09:51:407,0.2836,0.2307,10.7944,0.0355,-0.0052,9.8066,0.0096,-0.017,0.0032,-4.55,25.6,-14.97,260.96,0.42,0.6
29620,50.71644,-3.810871,262,25.42,11.0,271.1,Sep-18,2962140,2019-08-17 08:09:51:507,0.1497,-0.4075,10.2542,0.02,-0.0527,9.8065,0.0735,0.0245,-0.0202,-4.55,25.6,-14.97,260.96,0.42,0.6
