,GPS LATITUDE (degrees), GPS LONGITUDE (degrees), GPS ALTITUDE (m), GPS SPEED (Kmh), GPS ACCURACY (m), GPS ORIENTATION (Â°),GPS SATELLITES IN RANGE, TIME SINCE START (ms), DATE (YYYY-MO-DD HH-MI-SS_SSS), ACCELEROMETER X (m/s²) , ACCELEROMETER Y (m/s²), ACCELEROMETER Z (m/s²), GRAVITY X (m/s²), GRAVITY Y (m/s²), GRAVITY Z (m/s²), GYROSCOPE Yaw (rad/s), GYROSCOPE Pitch (rad/s), GYROSCOPE Roll (rad/s), MAGNETIC FIELD X (Î¼T), MAGNETIC FIELD Y (Î¼T), MAGNETIC FIELD Z (Î¼T), ORIENTATION (Yaw) (Â°), ORIENTATION (Pitch) (Â°), ORIENTATION (Roll ) (Â°)
3611,53.181072,-1.663083,186.3,17.68,4,99.29,16 / 18,1833714,2019-11-06 16:36:54:176,1.9339,1.6485,8.9886,-0.0204,0.0411,9.8065,-0.1439,0.289,-0.1103,-25.62,-39.19,15.25,215.93,-87.39,97.91
3612,53.181072,-1.663083,186.3,17.68,4,99.29,16 / 18,1833814,2019-11-06 16:36:54:276,-3.4625,-2.1036,9.7851,0.0664,0.0149,9.8063,-0.0444,-0.0524,0.0651,-24.75,-38.69,15.06,223.61,-86.99,105.39
3613,53.181072,-1.663083,186.3,17.68,4,99.29,15 / 17,1833916,2019-11-06 16:36:54:378,1.1985,1.0864,10.0324,0.0148,0.0068,9.8066,0.0704,0.2852,-0.194,-25.56,-39.19,15.19,224.65,-86.86,107.5
3614,53.181072,-1.663083,186.3,17.68,4,99.29,15 / 17,1834014,2019-11-06 16:36:54:476,0.2902,-1.7806,9.2239,-0.0121,0.0419,9.8065,0.0288,-0.0424,0.0348,-29.87,-40.31,15.63,220.38,-86.83,104.69
3615,53.181072,-1.663083,186.3,17.68,4,99.29,15 / 17,1834114,2019-11-06 16:36:54:576,-0.4355,4.399,9.7108,-0.0088,0.006,9.8066,-0.0666,0.3642,-0.1126,-40.0,-42.37,39.31,238.8,-87.04,106.4
3616,53.181072,-1.663083,186.3,17.68,4,99.29,15 / 17,1834214,2019-11-06 16:36:54:676,-0.6685,0.0604,9.1935,0.013,0.0235,9.8066,0.1894,-0.2769,0.2851,-22.62,-36.37,30.13,245.35,-87.0,105.39
3617,53.181072,-1.663083,186.3,17.68,4,99.29,15 / 17,1834314,2019-11-06 16:36:54:776,6.5023,6.6067,9.2783,0.0017,-0.0617,9.8064,0.0104,0.5127,-0.293,-22.5,-37.94,18.44,237.41,-87.16,111.29
3618,53.181072,-1.663083,186.3,17.68,4,99.29,15 / 17,1834414,2019-11-06 16:36:54:876,0.8257,-2.3221,8.5518,0.0634,0.0504,9.8063,0.1585,-1.1271,0.6975,-23.37,-38.37,17.13,232.22,-86.85,109.02
3619,53.181072,-1.663083,186.3,17.68,4,99.29,15 / 17,1834514,2019-11-06 16:36:54:976,-3.9164,-6.5227,10.3677,-0.0457,-0.1058,9.806,0.0841,-0.2451,0.0201,-23.12,-38.12,16.88,226.06,-86.99,102.44
3620,53.181072,-1.663083,186.3,17.68,4,99.29,15 / 17,1834614,2019-11-06 16:36:55:076,-2.3637,-2.8588,9.9092,-0.0083,-0.0042,9.8066,0.0799,-0.8833,0.4731,-23.0,-38.31,17.31,223.83,-87.38,99.74
3621,53.181072,-1.663083,186.3,17.68,4,99.29,15 / 17,1834713,2019-11-06 16:36:55:175,-1.4637,-4.0937,9.9387,-0.0665,-0.0729,9.8061,-0.008,-0.5856,0.3359,-22.44,-38.06,17.81,223.28,-87.08,96.63
3622,53.181072,-1.663083,186.3,17.68,4,99.29,15 / 17,1834814,2019-11-06 16:36:55:276,4.374,4.612,9.4756,-0.0278,-0.0354,9.8065,0.1497,-0.5308,0.348,-22.56,-36.69,23.31,226.34,-87.32,93.52
3623,53.181072,-1.663083,186.3,17.68,4,99.29,16 / 17,1834914,2019-11-06 16:36:55:376,-3.0437,-0.8378,10.6664,-0.041,-0.0691,9.8063,0.1879,-0.4263,0.2265,-39.44,-42.44,40.0,232.52,-87.5,98.26
3624,53.181072,-1.663083,186.3,17.68,4,99.29,16 / 17,1835013,2019-11-06 16:36:55:475,-0.7409,-2.9195,10.5029,0.0202,-0.044,9.8065,0.2379,-0.7095,0.4046,-29.5,-39.44,15.69,218.75,-87.31,101.81
3625,53.181072,-1.663083,186.3,17.68,4,99.29,16 / 17,1835113,2019-11-06 16:36:55:575,-1.0153,-5.8879,9.2258,-0.0657,-0.0713,9.8062,-0.0739,-0.7521,0.4063,-25.44,-38.69,15.19,218.71,-87.1,100.14
3626,53.181072,-1.663083,186.3,17.68,4,99.29,16 / 17,1835213,2019-11-06 16:36:55:675,2.9252,5.2541,10.2255,-0.0565,-0.083,9.8061,-0.0151,-0.5777,0.3858,-25.06,-39.06,14.38,211.62,-87.66,94.02
3627,53.181072,-1.663083,186.3,17.68,4,99.29,16 / 17,1835313,2019-11-06 16:36:55:775,1.0736,-5.3753,10.7,-0.0659,-0.0409,9.8063,0.0158,-1.0069,0.4532,-25.5,-39.19,15.56,213.29,-87.67,92.33
3628,53.181072,-1.663083,186.3,17.68,4,99.29,16 / 17,1835414,2019-11-06 16:36:55:876,5.4745,6.3343,9.4275,-0.0285,-0.1197,9.8058,-0.0819,0.3178,0.0433,-28.56,-40.06,14.94,212.25,-87.7,96.38
3629,53.181072,-1.663083,186.3,17.68,4,99.29,16 / 17,1835514,2019-11-06 16:36:55:976,3.3172,1.4037,8.4872,0.0328,0.0625,9.8064,0.0007,-0.5041,0.052,-40.75,-43.69,30.69,219.11,-87.45,93.36
3630,53.181072,-1.663083,186.3,17.68,4,99.29,16 / 17,1835614,2019-11-06 16:36:56:076,3.2354,2.6228,8.8841,-0.0711,-0.0392,9.8062,-0.0463,0.7105,-0.2428,-22.87,-36.31,27.63,231.09,-87.3,92.55
3631,53.181072,-1.663083,186.3,17.68,4,99.29,16 / 17,1835714,2019-11-06 16:36:56:176,2.4677,2.8534,10.18,0.0714,0.0511,9.8062,0.0266,0.3224,-0.3223,-22.44,-37.62,20.31,225.72,-87.06,96.1
3632,53.181072,-1.663083,186.3,17.68,4,99.29,16 / 17,1835814,2019-11-06 16:36:56:276,-2.1308,-5.3835,10.4013,0.0265,0.028,9.8065,0.05,0.5251,-0.283,-22.44,-38.56,17.31,222.44,-86.79,97.74
3633,53.181072,-1.663083,186.3,17.68,4,99.29,16 / 17,1835915,2019-11-06 16:36:56:377,0.9582,-1.4081,9.7271,0.0299,0.0462,9.8064,-0.0798,0.4447,-0.2812,-22.94,-38.25,17.5,227.91,-86.45,103.24
3634,53.181072,-1.663083,186.3,17.68,4,99.29,16 / 17,1836021,2019-11-06 16:36:56:483,-2.8294,-0.8022,10.9793,0.0274,0.0459,9.8065,-0.103,0.5163,-0.2309,-22.81,-38.25,16.5,227.49,-86.44,104.45
3635,53.181072,-1.663083,186.3,17.68,4,99.29,16 / 17,1836113,2019-11-06 16:36:56:575,6.3162,4.0966,9.0017,0.0379,0.0637,9.8063,-0.1178,0.5165,-0.2639,-22.25,-37.81,17.56,231.75,-86.8,105.77
3636,53.181072,-1.663083,186.3,17.68,4,99.29,16 / 17,1836213,2019-11-06 16:36:56:675,0.8045,-2.4497,10.0395,0.0131,0.0524,9.8065,-0.0516,0.6417,-0.2576,-22.25,-36.69,24.06,239.15,-86.71,104.84
3637,53.181072,-1.663083,186.3,17.68,4,99.29,16 / 17,1836314,2019-11-06 16:36:56:776,5.9516,7.4739,8.8198,0.0835,0.052,9.8061,-0.0813,1.1825,-0.5882,-33.5,-40.75,43.94,253.08,-87.18,111.94
3638,53.181072,-1.663083,186.3,17.68,4,99.29,16 / 17,1836414,2019-11-06 16:36:56:876,-4.4581,-7.2481,9.643,0.0435,0.1233,9.8057,0.0232,0.4397,-0.347,-34.62,-40.44,19.19,225.69,-86.75,109.49
3639,53.181072,-1.663083,186.3,17.68,4,99.29,16 / 17,1836514,2019-11-06 16:36:56:976,1.3684,5.1121,8.2779,0.0625,0.0793,9.8061,-0.1023,1.1581,-0.5992,-25.37,-39.62,14.81,227.19,-86.49,109.71
3640,53.181072,-1.663083,186.3,17.68,4,99.29,16 / 17,1836614,2019-11-06 16:36:57:076,-1.619,-7.4853,10.6701,0.0174,0.1267,9.8058,-0.0169,0.1068,-0.1307,-24.69,-38.87,15.0,224.4,-86.47,106.69
3641,53.181072,-1.663083,186.3,17.68,4,99.29,16 / 17,1836714,2019-11-06 16:36:57:176,2.0872,1.1309,9.2976,-0.0026,0.0079,9.8065,-0.1087,0.8195,-0.2857,-24.69,-38.87,13.94,223.32,-86.76,107.05
3642,53.181072,-1.663083,186.3,17.68,4,99.29,16 / 17,1836814,2019-11-06 16:36:57:276,-5.4807,-7.7836,10.4908,0.0309,0.0854,9.8061,0.0582,-0.4767,0.3054,-28.12,-39.44,15.31,224.46,-86.52,109.22
3643,53.181072,-1.663083,186.3,17.68,4,99.29,15 / 16,1836914,2019-11-06 16:36:57:376,0.4253,4.7625,10.0908,0.022,-0.0603,9.8064,0.0348,0.5385,-0.3002,-40.81,-43.0,25.5,227.78,-86.79,107.46
3644,53.181072,-1.663083,186.3,17.68,4,99.29,15 / 16,1837014,2019-11-06 16:36:57:476,3.8248,4.7683,8.5394,0.0778,0.056,9.8061,0.1409,-0.9717,0.5388,-26.37,-37.81,42.31,257.04,-86.55,111.36
3645,53.181072,-1.663083,186.3,17.68,4,99.29,15 / 16,1837113,2019-11-06 16:36:57:575,4.5364,2.8031,8.9789,-0.0729,-0.1271,9.8055,0.0304,-0.2976,0.1355,-22.81,-37.31,19.5,244.26,-87.3,116.18
3646,53.181072,-1.663083,186.3,17.68,4,99.29,15 / 16,1837213,2019-11-06 16:36:57:675,1.0253,3.5787,10.1931,0.0383,0.0032,9.8065,0.2092,-0.8826,0.561,-23.87,-38.06,17.38,238.34,-86.83,116.48
3647,53.181072,-1.663083,186.3,17.68,4,99.29,15 / 16,1837313,2019-11-06 16:36:57:775,-1.405,-5.2333,10.7895,-0.0007,-0.0886,9.8062,0.1266,-0.371,0.192,-23.44,-37.81,16.81,240.15,-86.92,117.2
3648,53.181072,-1.663083,186.3,17.68,4,99.29,15 / 16,1837413,2019-11-06 16:36:57:875,1.6644,0.1153,10.1232,0.0042,-0.0231,9.8066,0.0691,-0.2809,0.1829,-23.31,-38.0,17.06,248.4,-86.89,125.75
3649,53.181072,-1.663083,186.3,17.68,4,99.29,15 / 16,1837513,2019-11-06 16:36:57:975,-2.3161,-1.4713,9.0127,-0.0023,0.0097,9.8066,-0.0724,-0.2844,0.025,-22.81,-37.62,17.44,248.17,-86.85,125.56
3650,53.181072,-1.663083,186.3,17.68,4,99.29,15 / 16,1837614,2019-11-06 16:36:58:076,-1.2646,-0.9789,11.067,-0.0422,-0.0315,9.8064,-0.1649,0.3368,-0.0327,-22.25,-37.12,20.94,256.07,-86.9,126.05
3651,53.181072,-1.663083,186.3,17.68,4,99.29,15 / 16,1837714,2019-11-06 16:36:58:176,-0.911,-0.9792,9.9681,0.0251,0.0306,9.8065,0.0103,0.0551,-0.146,-28.12,-39.5,42.75,264.94,-86.48,120.67
3652,53.181072,-1.663083,186.3,17.68,4,99.29,15 / 16,1837814,2019-11-06 16:36:58:276,0.2748,-1.6648,9.5426,-0.0094,0.0064,9.8065,0.0294,0.4868,-0.2131,-39.0,-41.0,22.13,238.78,-86.57,122.0
3653,53.181072,-1.663083,186.3,17.68,4,99.29,17 / 17,1837914,2019-11-06 16:36:58:376,1.3761,3.0263,9.2128,0.0045,0.0689,9.8064,-0.1436,0.2361,-0.1598,-27.44,-39.06,15.06,237.74,-86.7,122.17
3654,53.181072,-1.663083,186.3,17.68,4,99.29,17 / 17,1838014,2019-11-06 16:36:58:476,-0.466,-2.4576,8.7604,-0.0138,0.0053,9.8066,-0.0085,0.2774,-0.1529,-25.5,-38.69,14.88,232.5,-86.69,115.01
3655,53.181072,-1.663083,186.3,17.68,4,99.29,17 / 17,1838113,2019-11-06 16:36:58:575,-0.5047,-0.7259,9.236,-0.0251,0.022,9.8065,-0.13,0.1241,-0.0726,-25.06,-38.81,14.81,226.12,-86.75,108.25
3656,53.181072,-1.663083,186.3,17.68,4,99.29,17 / 17,1838213,2019-11-06 16:36:58:675,-0.6816,0.6683,10.3047,0.0248,-0.0189,9.8065,-0.0024,0.0821,0.0092,-26.62,-39.12,14.69,229.38,-86.87,113.29
3657,53.181072,-1.663083,186.3,17.68,4,99.29,17 / 17,1838313,2019-11-06 16:36:58:775,1.0581,0.1008,10.402,0.0016,0.0013,9.8066,-0.0333,0.017,-0.0531,-35.31,-40.31,18.69,229.2,-87.14,112.85
3658,53.181072,-1.663083,186.3,17.68,4,99.29,17 / 17,1838414,2019-11-06 16:36:58:876,-0.2966,-1.8849,9.2293,-0.0274,0.0205,9.8066,-0.0455,-0.0092,-0.0379,-33.62,-39.31,45.5,250.26,-87.42,108.37
3659,53.181072,-1.663083,186.3,17.68,4,99.29,17 / 17,1838514,2019-11-06 16:36:58:976,0.9473,1.2198,9.1814,0.0078,-0.004,9.8066,0.0391,0.1273,-0.1085,-23.31,-36.69,21.88,237.42,-87.38,106.23
3660,53.181072,-1.663083,186.3,17.68,4,99.29,17 / 17,1838613,2019-11-06 16:36:59:075,0.2415,-0.1063,9.8116,-0.0027,0.0253,9.8066,-0.091,-0.291,0.0997,-23.06,-38.37,17.81,230.64,-87.42,105.15
3661,53.181072,-1.663083,186.3,17.68,4,99.29,17 / 17,1838713,2019-11-06 16:36:59:175,-2.1633,-2.8966,9.9944,-0.0483,-0.0558,9.8063,0.0465,-0.0702,0.2228,-23.56,-38.37,16.56,228.85,-87.41,106.04
3662,53.181072,-1.663083,186.3,17.68,4,99.29,17 / 17,1838814,2019-11-06 16:36:59:276,0.8103,-0.1546,9.31,-0.0015,-0.0265,9.8066,-0.0687,-0.3605,0.1037,-23.87,-38.25,15.94,230.61,-87.73,109.21
3663,53.181072,-1.663083,186.3,17.68,4,99.29,14 / 17,1838914,2019-11-06 16:36:59:376,-1.0933,-4.2626,10.2498,-0.0313,-0.0552,9.8064,0.1515,-0.3865,0.3203,-23.44,-37.44,16.63,232.9,-87.67,108.81
3664,53.181072,-1.663083,186.3,17.68,4,99.29,14 / 17,1839014,2019-11-06 16:36:59:476,0.4963,-0.2743,10.5253,-0.0292,-0.0059,9.8065,-0.0147,0.0396,-0.1206,-23.56,-37.19,19.0,233.97,-87.85,107.69
3665,53.181072,-1.663083,186.3,17.68,4,99.29,14 / 17,1839113,2019-11-06 16:36:59:575,-0.3794,-0.9434,9.0042,0.024,-0.0264,9.8065,0.1149,-0.0447,0.1177,-22.87,-36.87,35.5,261.66,-87.81,116.11
3666,53.181072,-1.663083,186.3,17.68,4,99.29,14 / 17,1839214,2019-11-06 16:36:59:676,1.2572,-2.1269,9.4068,-0.0334,0.0263,9.8065,-0.1788,-0.0104,-0.0091,-42.69,-42.44,30.31,233.41,-87.96,109.8
3667,53.181072,-1.663083,186.3,17.68,4,99.29,14 / 17,1839314,2019-11-06 16:36:59:776,-1.346,-1.9217,9.6039,-0.0303,-0.0113,9.8065,0.0,0.0916,0.0546,-28.69,-39.0,14.19,218.99,-88.19,104.59
3668,53.181072,-1.663083,186.3,17.68,4,99.29,14 / 17,1839414,2019-11-06 16:36:59:876,0.1383,-3.5696,11.7714,-0.0209,0.0075,9.8066,-0.063,-0.3876,0.0545,-25.5,-40.81,14.25,207.35,-88.27,89.22
3669,53.181072,-1.663083,186.3,17.68,4,99.29,14 / 17,1839514,2019-11-06 16:36:59:976,-3.8387,-5.4396,11.641,0.0323,-0.0565,9.8064,0.3418,-0.8162,0.3207,-26.06,-40.5,15.25,200.6,-87.95,81.57
3670,53.181072,-1.663083,186.3,17.68,4,99.29,14 / 17,1839614,2019-11-06 16:37:00:076,4.7582,6.1372,9.452,0.0078,-0.0508,9.8065,0.3344,-0.6387,0.1746,-26.5,-39.37,15.38,217.86,-87.69,99.71
3671,53.181072,-1.663083,186.3,17.68,4,99.29,14 / 17,1839713,2019-11-06 16:37:00:175,-0.2285,-2.8187,8.5825,-0.0518,-0.082,9.8062,0.0467,-0.9314,0.5531,-33.06,-40.25,17.25,231.82,-87.57,116.6
3672,53.181072,-1.663083,186.3,17.68,4,99.29,14 / 17,1839813,2019-11-06 16:37:00:275,5.5356,4.0627,8.5214,-0.1054,-0.0416,9.8059,-0.2254,-0.2964,0.0549,-36.81,-41.31,44.5,241.78,-87.72,102.6
3673,53.181072,-1.663083,186.3,17.68,4,99.29,14 / 15,1839914,2019-11-06 16:37:00:376,-4.1143,-1.9976,7.1039,-0.0509,0.0126,9.8065,0.0082,-1.0252,0.4992,-22.87,-36.56,26.44,226.92,-87.28,90.5
3674,53.181072,-1.663083,186.3,17.68,4,99.29,14 / 15,1840014,2019-11-06 16:37:00:476,4.3966,4.7013,9.5967,-0.0664,-0.0793,9.806,0.003,0.1897,-0.1456,-22.19,-37.44,18.63,214.64,-87.19,85.82
3675,53.181072,-1.663083,186.3,17.68,4,99.29,14 / 15,1840114,2019-11-06 16:37:00:576,-1.192,-5.6278,10.9941,0.0061,-0.0151,9.8066,0.1755,-0.7086,0.4033,-22.69,-38.19,16.88,218.2,-86.67,94.42
3676,53.181072,-1.663083,186.3,17.68,4,99.29,14 / 15,1840214,2019-11-06 16:37:00:676,0.1281,1.6535,10.0426,-0.0258,-0.093,9.8061,-0.0926,0.0723,0.038,-22.94,-39.12,16.06,218.42,-86.77,96.35
3677,53.181072,-1.663083,186.3,17.68,4,99.29,14 / 15,1840313,2019-11-06 16:37:00:775,-3.4729,-5.7198,10.309,0.0097,0.01,9.8065,0.1206,-0.7647,0.2262,-22.94,-38.5,16.88,215.98,-86.85,91.93
3678,53.181072,-1.663083,186.3,17.68,4,99.29,14 / 15,1840414,2019-11-06 16:37:00:876,4.3788,4.8658,12.0692,-0.0568,-0.1205,9.8057,0.0564,0.4918,-0.3655,-21.94,-37.62,18.94,223.54,-87.08,95.32
3679,53.181072,-1.663083,186.3,17.68,4,99.29,14 / 15,1840514,2019-11-06 16:37:00:976,3.99,0.155,9.2763,0.0313,-0.0097,9.8065,0.0522,-0.7166,0.4439,-22.0,-35.69,27.0,236.33,-86.88,98.15
3680,53.181072,-1.663083,186.3,17.68,4,99.29,14 / 15,1840614,2019-11-06 16:37:01:076,3.3728,6.3764,7.9029,-0.1154,-0.0461,9.8058,-0.4677,0.8008,-0.2414,-37.37,-41.06,43.13,244.02,-87.3,106.46
3681,53.181072,-1.663083,186.3,17.68,4,99.29,14 / 15,1840714,2019-11-06 16:37:01:176,-0.0643,1.2371,8.858,-0.0597,0.0298,9.8063,-0.1223,0.2502,0.0845,-28.44,-39.19,16.06,218.35,-87.62,100.37
3682,53.181072,-1.663083,186.3,17.68,4,99.29,14 / 15,1840814,2019-11-06 16:37:01:276,-2.8997,-5.0869,10.6633,-0.0057,0.0254,9.8066,-0.2067,0.4874,-0.2106,-26.5,-39.25,15.38,221.03,-87.8,102.91
3683,53.18076,-1.660819,186.07,17.55,6,104.41,15 / 17,1840913,2019-11-06 16:37:01:375,-0.3032,0.9046,9.0629,0.0149,0.0535,9.8065,-0.0175,0.498,-0.2268,-25.94,-38.62,14.88,220.43,-88.23,101.93
3684,53.18076,-1.660819,186.07,17.55,6,104.41,15 / 17,1841014,2019-11-06 16:37:01:476,-2.2861,-3.5096,11.5547,0.0163,0.0352,9.8065,-0.0216,0.3835,-0.2032,-26.69,-38.62,15.63,219.54,-88.03,100.43
3685,53.18076,-1.660819,186.07,17.55,6,104.41,15 / 17,1841113,2019-11-06 16:37:01:575,1.0207,4.173,10.0544,0.007,0.0524,9.8065,-0.1241,0.3627,-0.1646,-30.44,-39.5,15.88,222.85,-88.27,106.11
3686,53.18076,-1.660819,186.07,17.55,6,104.41,15 / 17,1841213,2019-11-06 16:37:01:675,-0.0268,-0.5095,9.6656,0.0046,0.0323,9.8066,0.0766,0.4054,-0.1512,-42.62,-41.81,36.56,233.24,-88.21,103.58
3687,53.18076,-1.660819,186.07,17.55,6,104.41,15 / 17,1841313,2019-11-06 16:37:01:775,1.957,1.3575,9.2543,0.0359,0.03,9.8065,-0.0575,0.6787,-0.2943,-23.94,-35.56,27.0,250.17,-88.18,113.5
3688,53.18076,-1.660819,186.07,17.55,6,104.41,15 / 17,1841413,2019-11-06 16:37:01:875,-1.9823,-4.2263,9.3265,0.0348,0.0684,9.8063,-0.0066,0.1133,-0.0162,-23.62,-36.81,20.5,237.4,-88.34,107.83
3689,53.18076,-1.660819,186.07,17.55,6,104.41,15 / 17,1841513,2019-11-06 16:37:01:975,-0.502,0.5329,10.4375,0.0253,0.0087,9.8065,-0.0032,0.573,-0.2695,-24.12,-37.69,17.63,230.54,-88.77,104.87
3690,53.18076,-1.660819,186.07,17.55,6,104.41,15 / 17,1841614,2019-11-06 16:37:02:076,-0.6946,-3.6779,8.95,0.0269,0.0408,9.8064,0.0197,-0.298,0.0621,-24.5,-37.44,17.0,223.38,-88.66,99.22
3691,53.18076,-1.660819,186.07,17.55,6,104.41,15 / 17,1841714,2019-11-06 16:37:02:176,0.2264,-0.828,10.1674,-0.0202,-0.0507,9.8065,0.0487,-0.0364,0.1045,-24.56,-38.06,16.81,224.39,-88.67,101.34
3692,53.18076,-1.660819,186.07,17.55,6,104.41,15 / 17,1841814,2019-11-06 16:37:02:276,2.5827,3.9771,10.17,-0.0044,-0.0018,9.8066,0.1367,-0.6284,0.3364,-24.19,-37.37,17.56,225.6,-88.88,99.7
3693,53.18076,-1.660819,186.07,17.55,6,104.41,14 / 16,1841914,2019-11-06 16:37:02:376,1.3199,1.1111,9.7637,-0.0387,-0.0709,9.8063,-0.0019,-0.229,0.1603,-24.0,-35.87,24.75,268.46,-89.37,132.95
3694,53.18076,-1.660819,186.07,17.55,6,104.41,14 / 16,1842014,2019-11-06 16:37:02:476,0.6216,2.9948,11.6255,-0.0314,-0.0073,9.8065,0.0579,-0.5029,0.2853,-36.56,-39.69,45.44,273.36,-89.25,133.31
3695,53.18076,-1.660819,186.07,17.55,6,104.41,14 / 16,1842114,2019-11-06 16:37:02:576,-2.7092,-2.4421,10.701,-0.0216,-0.0511,9.8065,0.043,-0.4056,0.2403,-35.37,-39.25,19.44,263.34,-88.94,145.87
3696,53.18076,-1.660819,186.07,17.55,6,104.41,14 / 16,1842213,2019-11-06 16:37:02:675,-0.2541,1.5932,8.7373,-0.0054,-0.0543,9.8065,-0.0264,-0.204,0.1672,-27.94,-38.37,15.81,286.29,-89.09,167.58
3697,53.18076,-1.660819,186.07,17.55,6,104.41,14 / 16,1842313,2019-11-06 16:37:02:775,-4.0315,-1.8569,9.9513,-0.0131,-0.0442,9.8065,0.1262,-0.3981,0.2001,-26.56,-38.06,16.13,279.35,-89.12,159.75
3698,53.18076,-1.660819,186.07,17.55,6,104.41,14 / 16,1842413,2019-11-06 16:37:02:875,0.5264,2.7118,9.7123,-0.0132,-0.0396,9.8065,-0.0187,-0.2351,0.0862,-27.5,-38.31,15.56,297.11,-89.04,177.5
3699,53.18076,-1.660819,186.07,17.55,6,104.41,14 / 16,1842513,2019-11-06 16:37:02:975,-2.0237,-0.911,10.3165,-0.0243,-0.0395,9.8065,0.0342,-0.3854,0.2449,-30.06,-38.44,16.06,292.0,-89.24,174.72
3700,53.18076,-1.660819,186.07,17.55,6,104.41,14 / 16,1842613,2019-11-06 16:37:03:075,3.1797,2.16,11.3419,-0.0102,-0.0508,9.8065,-0.1308,-0.0611,0.1123,-43.94,-41.19,34.5,328.67,-89.1,-159.49
3701,53.18076,-1.660819,186.07,17.55,6,104.41,14 / 16,1842713,2019-11-06 16:37:03:175,-1.0418,-0.1343,10.057,-0.0194,-0.0162,9.8066,0.1148,-0.4218,0.2722,-26.56,-34.62,36.94,350.05,-88.81,-153.67
3702,53.18076,-1.660819,186.07,17.55,6,104.41,14 / 16,1842813,2019-11-06 16:37:03:275,0.6564,2.119,9.3244,0.0208,-0.0831,9.8062,-0.0435,0.2687,0.0156,-25.81,-35.44,23.13,338.03,-88.25,-152.79
3703,53.18076,-1.660819,186.07,17.55,6,104.41,14 / 17,1842913,2019-11-06 16:37:03:375,0.9478,-0.2841,11.6548,0.0433,0.0364,9.8065,0.2228,-0.0626,-0.158,-25.31,-36.37,19.19,323.82,-88.22,-162.2
3704,53.18076,-1.660819,186.07,17.55,6,104.41,14 / 17,1843014,2019-11-06 16:37:03:476,-4.6804,-4.1484,8.8618,0.0331,-0.0127,9.8065,0.019,0.4688,-0.1056,-26.25,-36.87,18.63,328.23,-88.01,-156.71
3705,53.18076,-1.660819,186.07,17.55,6,104.41,14 / 17,1843114,2019-11-06 16:37:03:576,1.9697,3.8036,8.6652,0.017,0.0546,9.8064,-0.0024,0.8368,-0.5566,-27.19,-36.44,17.44,334.47,-88.26,-146.87
3706,53.18076,-1.660819,186.07,17.55,6,104.41,14 / 17,1843213,2019-11-06 16:37:03:675,-7.4552,-5.7426,10.0908,0.063,0.0975,9.8059,0.1292,-0.0796,-0.0275,-25.56,-36.06,18.81,335.38,-88.47,-150.05
3707,53.18076,-1.660819,186.07,17.55,6,104.41,14 / 17,1843313,2019-11-06 16:37:03:775,1.4697,-0.4461,10.5308,0.031,-0.0153,9.8065,0.0079,0.9051,-0.4742,-25.56,-35.62,22.38,345.98,-88.24,-143.8
3708,53.18076,-1.660819,186.07,17.55,6,104.41,14 / 17,1843413,2019-11-06 16:37:03:875,-9.6365,-3.779,12.0988,0.0812,0.1097,9.8056,0.1303,-0.6289,0.3146,-25.81,-35.62,39.56,349.61,-88.48,-157.16
3709,53.18076,-1.660819,186.07,17.55,6,104.41,14 / 17,1843514,2019-11-06 16:37:03:976,3.0966,5.519,10.5355,0.0142,-0.0579,9.8064,0.0517,0.7132,-0.3548,-38.5,-39.56,20.25,325.46,-88.12,-151.29
3710,53.18076,-1.660819,186.07,17.55,6,104.41,14 / 17,1843614,2019-11-06 16:37:04:076,3.849,6.7774,8.3234,0.0498,0.064,9.8062,0.1565,-1.214,0.6813,-30.0,-37.5,17.13,316.06,-88.14,-162.08
3711,53.18076,-1.660819,186.07,17.55,6,104.41,14 / 17,1843713,2019-11-06 16:37:04:175,4.9069,6.2255,8.6443,-0.0197,-0.152,9.8054,0.2476,-0.1472,-0.0083,-28.5,-37.12,17.13,315.02,-88.29,-164.86
3712,53.18076,-1.660819,186.07,17.55,6,104.41,14 / 17,1843813,2019-11-06 16:37:04:275,-0.6674,5.6917,8.4434,0.04,-0.0003,9.8065,0.2977,-1.1121,0.5093,-28.25,-37.12,16.88,325.74,-87.98,-154.22
3713,53.18076,-1.660819,186.07,17.55,6,104.41,14 / 18,1843913,2019-11-06 16:37:04:375,-4.8751,-6.3431,11.0542,-0.0109,-0.1165,9.8059,0.1252,-0.6928,0.332,-29.44,-38.31,16.38,320.64,-88.29,-156.98
3714,53.18076,-1.660819,186.07,17.55,6,104.41,14 / 18,1844014,2019-11-06 16:37:04:476,-0.9798,3.544,10.376,0.0089,-0.0563,9.8065,0.1753,-0.2581,0.237,-36.87,-39.94,18.81,325.78,-87.96,-150.28
3715,53.18076,-1.660819,186.07,17.55,6,104.41,14 / 18,1844114,2019-11-06 16:37:04:576,-4.6427,-5.0606,10.5337,-0.0065,-0.0211,9.8066,0.0898,-0.9695,0.2752,-29.5,-35.69,44.0,359.4,-88.07,-147.19
3716,53.18076,-1.660819,186.07,17.55,6,104.41,14 / 18,1844214,2019-11-06 16:37:04:676,2.4759,-0.5071,8.9814,-0.1006,-0.1112,9.8054,-0.0242,0.5096,-0.3933,-25.5,-35.19,23.44,3.06,-87.73,-129.68
3717,53.18076,-1.660819,186.07,17.55,6,104.41,14 / 18,1844313,2019-11-06 16:37:04:775,-11.513,-9.6419,11.055,0.0175,0.083,9.8062,-0.1551,-0.9024,0.4045,-25.56,-36.25,19.81,359.73,-87.78,-127.82
3718,53.18076,-1.660819,186.07,17.55,6,104.41,14 / 18,1844413,2019-11-06 16:37:04:875,5.5148,3.4397,9.5411,-0.0731,-0.1123,9.8057,-0.2955,1.3977,-0.7889,-25.87,-37.0,17.44,359.73,-87.58,-123.43
3719,53.18076,-1.660819,186.07,17.55,6,104.41,14 / 18,1844513,2019-11-06 16:37:04:975,1.9693,9.4252,5.5946,-0.0436,0.1451,9.8054,-0.312,0.2695,0.1721,-26.94,-36.94,17.31,347.72,-87.77,-133.92
3720,53.18076,-1.660819,186.07,17.55,6,104.41,14 / 18,1844613,2019-11-06 16:37:05:075,1.0123,-1.5752,9.4839,-0.0655,0.006,9.8064,-0.2716,0.5912,-0.1959,-27.12,-38.06,18.81,359.29,-88.25,-125.82
3721,53.18076,-1.660819,186.07,17.55,6,104.41,14 / 18,1844713,2019-11-06 16:37:05:175,-0.1158,5.0546,9.7,0.0304,0.0149,9.8066,-0.0476,0.6492,-0.2057,-25.87,-35.81,22.38,350.3,-88.2,-139.61
3722,53.18076,-1.660819,186.07,17.55,6,104.41,14 / 18,1844813,2019-11-06 16:37:05:275,0.3197,0.5157,9.4988,0.015,0.0581,9.8065,0.0021,-0.3631,0.1309,-24.62,-34.87,34.94,4.64,-88.28,-139.94
3723,53.18076,-1.660819,186.07,17.55,6,104.41,13 / 19,1844914,2019-11-06 16:37:05:376,-0.1231,4.4386,9.3361,-0.0231,-0.0061,9.8065,-0.0684,0.1836,-0.0669,-45.37,-41.19,37.38,0.68,-88.39,-128.76
3724,53.18076,-1.660819,186.07,17.55,6,104.41,13 / 19,1845013,2019-11-06 16:37:05:475,-3.3923,-3.3933,9.0102,0.0056,0.0384,9.8065,-0.0108,-0.4376,0.3127,-30.31,-37.25,17.31,356.42,-88.55,-123.02
3725,53.18076,-1.660819,186.07,17.55,6,104.41,13 / 19,1845113,2019-11-06 16:37:05:575,1.0741,1.8414,9.2096,-0.039,-0.0297,9.8065,-0.0104,0.217,-0.1196,-28.31,-37.81,16.69,5.11,-88.67,-116.29
3726,53.18076,-1.660819,186.07,17.55,6,104.41,13 / 19,1845214,2019-11-06 16:37:05:676,0.6649,0.9454,10.5995,0.0047,0.0578,9.8064,-0.0366,-0.3299,0.1491,-27.69,-37.44,16.25,14.75,-88.74,-105.37
3727,53.18076,-1.660819,186.07,17.55,6,104.41,13 / 19,1845314,2019-11-06 16:37:05:776,1.6219,4.2256,9.4671,0.0049,0.0023,9.8066,-0.0799,0.3917,-0.1856,-29.12,-37.69,16.44,10.8,-88.67,-108.38
3728,53.18076,-1.660819,186.07,17.55,6,104.41,13 / 19,1845414,2019-11-06 16:37:05:876,-3.0771,-5.6368,10.0002,0.0469,0.0771,9.8062,0.0594,-0.2489,0.1967,-34.69,-38.5,18.5,355.81,-89.03,-122.61
3729,53.18076,-1.660819,186.07,17.55,6,104.41,13 / 19,1845514,2019-11-06 16:37:05:976,0.8487,-0.6796,10.1573,0.0216,0.0038,9.8066,-0.0055,0.6825,-0.4841,-41.25,-40.44,44.81,4.3,-89.15,-133.4
3730,53.18076,-1.660819,186.07,17.55,6,104.41,13 / 19,1845614,2019-11-06 16:37:06:076,-4.1238,-5.3371,10.2737,0.0919,0.0931,9.8057,0.1427,-0.5591,0.1092,-25.06,-35.06,25.25,313.35,-89.47,178.73
3731,53.18076,-1.660819,186.07,17.55,6,104.41,13 / 19,1845714,2019-11-06 16:37:06:176,-0.9399,2.3579,9.8024,0.0199,-0.0572,9.8064,0.0325,0.1858,-0.1175,-24.75,-36.25,19.75,273.21,-89.37,145.26
3732,53.18076,-1.660819,186.07,17.55,6,104.41,13 / 19,1845814,2019-11-06 16:37:06:276,3.4886,6.7892,9.9094,-0.018,0.0125,9.8066,0.1091,-0.8794,0.3315,-25.0,-36.94,18.0,270.65,-89.21,145.84
3733,53.18076,-1.660819,186.07,17.55,6,104.41,14 / 17,1845914,2019-11-06 16:37:06:376,-5.3791,-5.8642,9.8995,-0.0549,-0.0855,9.8061,-0.1596,-0.9422,0.4806,-25.25,-37.0,17.56,281.6,-89.54,156.39
3734,53.18076,-1.660819,186.07,17.55,6,104.41,14 / 17,1846013,2019-11-06 16:37:06:475,3.0077,2.983,9.277,-0.0809,-0.0875,9.8059,-0.0148,-0.2723,0.0841,-24.69,-36.87,17.88,274.0,-89.61,148.71
3735,53.18076,-1.660819,186.07,17.55,6,104.41,14 / 17,1846113,2019-11-06 16:37:06:575,-3.5181,-4.8458,11.5656,-0.0484,-0.0554,9.8063,0.051,-0.9898,0.6537,-24.31,-36.06,20.06,244.45,-89.29,115.38
3736,53.18076,-1.660819,186.07,17.55,6,104.41,14 / 17,1846214,2019-11-06 16:37:06:676,5.1451,4.4756,10.8842,-0.0451,-0.1171,9.8058,-0.067,0.0436,-0.0088,-24.19,-35.25,27.5,295.28,-89.28,156.5
3737,53.18076,-1.660819,186.07,17.55,6,104.41,14 / 17,1846314,2019-11-06 16:37:06:776,-0.7439,0.0701,9.6903,0.0027,0.0083,9.8065,0.0975,-0.6775,0.2811,-43.75,-41.0,36.81,255.26,-88.98,125.9
3738,53.18076,-1.660819,186.07,17.55,6,104.41,14 / 17,1846414,2019-11-06 16:37:06:876,2.3766,5.322,8.9417,-0.0265,-0.0336,9.8065,-0.0459,0.3379,-0.2537,-30.69,-39.12,16.38,229.45,-88.96,113.03
3739,53.18076,-1.660819,186.07,17.55,6,104.41,14 / 17,1846513,2019-11-06 16:37:06:975,-0.8902,-2.1602,9.5862,0.0113,0.0164,9.8065,0.0237,-0.3434,0.2157,-26.69,-38.12,16.5,222.84,-88.68,101.7
3740,53.18076,-1.660819,186.07,17.55,6,104.41,14 / 17,1846613,2019-11-06 16:37:07:075,0.8481,-1.0511,10.0914,-0.0302,-0.05,9.8065,-0.0093,0.1761,-0.1083,-26.5,-38.25,16.75,226.23,-88.83,104.08
3741,53.18076,-1.660819,186.07,17.55,6,104.41,14 / 17,1846713,2019-11-06 16:37:07:175,-0.8987,-3.4963,10.9429,0.0123,0.0109,9.8065,0.0983,-0.1577,0.0859,-27.25,-38.5,16.75,235.02,-88.76,114.03
3742,53.18076,-1.660819,186.07,17.55,6,104.41,14 / 17,1846813,2019-11-06 16:37:07:275,1.3667,-0.4543,9.8027,-0.0083,0.0062,9.8066,-0.1938,0.3688,-0.2207,-30.87,-39.12,16.88,231.97,-88.7,114.35
3743,53.18076,-1.660819,186.07,17.55,6,104.41,16 / 19,1846913,2019-11-06 16:37:07:375,2.1725,1.812,9.7152,0.0613,0.0617,9.8062,0.0689,-0.12,-0.0956,-37.75,-40.5,46.31,239.24,-88.24,99.8
3744,53.18076,-1.660819,186.07,17.55,6,104.41,16 / 19,1847014,2019-11-06 16:37:07:476,-1.7137,-1.6628,10.3756,0.0415,-0.0339,9.8065,0.0212,-0.0554,-0.0998,-24.0,-35.81,27.94,250.1,-87.91,112.61
3745,53.18076,-1.660819,186.07,17.55,6,104.41,16 / 19,1847114,2019-11-06 16:37:07:576,1.4332,2.2749,11.4775,0.0222,0.0554,9.8064,0.2541,-0.0867,-0.0061,-23.25,-37.37,21.19,247.85,-87.51,118.18
3746,53.18076,-1.660819,186.07,17.55,6,104.41,16 / 19,1847214,2019-11-06 16:37:07:676,-2.4408,-2.1374,10.3767,0.0017,0.0286,9.8066,0.2363,-0.5807,0.067,-23.75,-37.37,19.13,241.25,-87.14,115.88
3747,53.18076,-1.660819,186.07,17.55,6,104.41,16 / 19,1847314,2019-11-06 16:37:07:776,-4.0124,-0.6423,6.5102,-0.1344,-0.0589,9.8055,-0.033,0.5873,-0.2268,-24.25,-37.56,17.25,240.35,-87.28,118.07
3748,53.18076,-1.660819,186.07,17.55,6,104.41,16 / 19,1847413,2019-11-06 16:37:07:875,-4.7308,-3.6123,10.4482,-0.0106,0.0195,9.8066,-0.0102,0.0158,0.0482,-24.62,-38.12,18.13,241.0,-88.36,117.0
3749,53.18076,-1.660819,186.07,17.55,6,104.41,16 / 19,1847513,2019-11-06 16:37:07:975,-1.6034,0.5332,10.1099,0.0501,-0.0668,9.8062,-0.1077,0.3671,-0.0268,-24.19,-36.5,19.63,263.03,-88.15,135.33
3750,53.18076,-1.660819,186.07,17.55,6,104.41,16 / 19,1847613,2019-11-06 16:37:08:075,-1.776,3.1544,11.2868,-0.0239,-0.0491,9.8065,-0.2455,0.7784,-0.2449,-24.19,-36.12,26.94,283.49,-88.3,146.78
3751,53.18076,-1.660819,186.07,17.55,6,104.41,16 / 19,1847713,2019-11-06 16:37:08:175,-2.3342,-1.831,9.0711,-0.063,-0.1117,9.8058,-0.1731,0.5544,-0.275,-38.37,-40.69,45.25,259.03,-88.45,120.27
3752,53.18076,-1.660819,186.07,17.55,6,104.41,16 / 19,1847813,2019-11-06 16:37:08:275,3.6232,8.8368,9.0765,-0.0814,-0.0798,9.8059,0.0006,1.1604,-0.5268,-30.87,-38.12,17.19,257.59,-88.98,139.92
3753,53.18076,-1.660819,186.07,17.55,6,104.41,15 / 19,1847913,2019-11-06 16:37:08:375,-4.7128,-5.7518,10.4157,-0.0511,-0.1041,9.8059,0.0556,0.364,-0.297,-27.37,-37.56,16.81,251.25,-88.61,130.61
3754,53.18076,-1.660819,186.07,17.55,6,104.41,15 / 19,1848013,2019-11-06 16:37:08:475,0.2869,5.6882,9.3593,-0.0284,-0.1339,9.8056,-0.0815,1.0951,-0.5004,-27.19,-37.56,17.25,275.49,-88.77,154.75
3755,53.18076,-1.660819,186.07,17.55,6,104.41,15 / 19,1848114,2019-11-06 16:37:08:576,-1.7848,-5.529,11.5702,-0.0013,-0.0708,9.8064,-0.1333,0.189,-0.0903,-28.62,-37.81,16.5,290.05,-88.62,171.14
3756,53.18076,-1.660819,186.07,17.55,6,104.41,15 / 19,1848214,2019-11-06 16:37:08:676,-1.0616,2.3817,8.3578,-0.042,-0.0777,9.8062,-0.174,0.5257,-0.1513,-31.69,-39.0,17.38,293.25,-88.9,176.36
3757,53.18076,-1.660819,186.07,17.55,6,104.41,15 / 19,1848314,2019-11-06 16:37:08:776,-0.9349,-1.2566,9.3102,-0.0189,-0.0372,9.8065,-0.0873,0.1944,-0.0263,-43.44,-40.94,38.63,316.48,-89.24,-175.35
3758,53.18076,-1.660819,186.07,17.55,6,104.41,15 / 19,1848413,2019-11-06 16:37:08:875,2.6414,2.3193,9.1976,-0.0467,-0.0374,9.8064,-0.0836,0.5121,-0.2321,-25.19,-34.44,27.38,347.06,-89.15,-149.97
3759,53.18076,-1.660819,186.07,17.55,6,104.41,15 / 19,1848513,2019-11-06 16:37:08:975,-0.4658,-3.5392,8.3461,-0.036,-0.0256,9.8065,0.077,0.1469,-0.0876,-25.37,-36.06,20.75,337.67,-89.3,-152.06
3760,53.18076,-1.660819,186.07,17.55,6,104.41,15 / 19,1848613,2019-11-06 16:37:09:075,1.5695,1.2971,9.7891,-0.0506,-0.0465,9.8064,-0.0721,0.459,-0.2848,-25.19,-36.69,18.13,355.73,-89.25,-129.96
3761,53.18076,-1.660819,186.07,17.55,6,104.41,15 / 19,1848714,2019-11-06 16:37:09:176,-1.9396,-1.9054,9.6115,-0.0152,0.013,9.8066,0.0333,0.0087,-0.0411,-25.81,-37.0,17.38,7.39,-89.71,-115.83
3762,53.18076,-1.660819,186.07,17.55,6,104.41,15 / 19,1848814,2019-11-06 16:37:09:276,-1.2566,0.9568,10.3186,-0.0081,-0.0431,9.8065,-0.0039,0.228,-0.1972,-25.19,-36.62,17.38,340.58,-89.71,-143.52
3763,53.18076,-1.660819,186.07,17.55,6,104.41,14 / 17,1848918,2019-11-06 16:37:09:380,-0.2084,-0.9213,10.3141,0.0155,-0.0102,9.8066,-0.013,-0.0378,-0.0099,-24.75,-36.0,20.19,296.83,-89.54,168.63
3764,53.18076,-1.660819,186.07,17.55,6,104.41,14 / 17,1849014,2019-11-06 16:37:09:476,-0.9623,-0.3498,9.3071,0.0173,-0.0075,9.8066,0.0411,-0.1302,-0.0362,-25.0,-35.12,27.13,294.9,-89.42,158.2
3765,53.18076,-1.660819,186.07,17.55,6,104.41,14 / 17,1849114,2019-11-06 16:37:09:576,0.8558,-0.8698,8.7052,0.0041,0.0196,9.8066,-0.102,0.2334,-0.0988,-39.44,-40.87,44.44,291.52,-89.34,153.5
3766,53.18076,-1.660819,186.07,17.55,6,104.41,14 / 17,1849214,2019-11-06 16:37:09:676,-2.5048,-4.7651,9.5396,0.0223,0.0416,9.8065,-0.0693,-0.3964,0.152,-33.94,-39.0,17.81,240.4,-89.3,123.12
3767,53.18076,-1.660819,186.07,17.55,6,104.41,14 / 17,1849313,2019-11-06 16:37:09:775,0.4465,1.1944,10.0929,0.0127,-0.05,9.8065,-0.0524,0.5509,-0.1805,-27.5,-37.69,16.19,278.22,-89.43,158.25
3768,53.18076,-1.660819,186.07,17.55,6,104.41,14 / 17,1849413,2019-11-06 16:37:09:875,-0.8871,4.3961,10.4939,0.0085,-0.0341,9.8066,-0.0087,0.2241,-0.0185,-27.37,-37.19,16.81,294.64,-89.21,173.29
3769,53.18076,-1.660819,186.07,17.55,6,104.41,14 / 17,1849513,2019-11-06 16:37:09:975,1.8739,-2.349,11.0099,0.0474,-0.1242,9.8057,-0.0394,0.4258,-0.0955,-28.12,-36.81,16.75,310.42,-89.03,-170.0
3770,53.18076,-1.660819,186.07,17.55,6,104.41,14 / 17,1849613,2019-11-06 16:37:10:075,0.2307,3.0646,8.8276,-0.0305,-0.038,9.8065,-0.1105,0.4309,-0.0687,-32.25,-38.0,16.88,331.48,-88.57,-145.78
3771,53.18076,-1.660819,186.07,17.55,6,104.41,14 / 17,1849713,2019-11-06 16:37:10:175,-0.9094,-3.8777,9.4703,-0.0205,-0.0461,9.8064,-0.0449,0.211,-0.0931,-44.75,-40.87,37.56,345.16,-88.57,-144.76
3772,53.18076,-1.660819,186.07,17.55,6,104.41,14 / 17,1849813,2019-11-06 16:37:10:275,3.4226,2.1467,9.4843,-0.0385,-0.0566,9.8064,0.079,0.7099,-0.3103,-26.37,-34.75,34.5,3.69,-88.32,-139.79
3773,53.18033,-1.658378,184.87,17.92,4,107.24,15 / 17,1849914,2019-11-06 16:37:10:376,2.6329,0.5677,10.3611,0.0458,0.0412,9.8064,0.0552,-0.5018,0.3514,-25.94,-35.56,21.19,325.44,-88.43,-162.52
3774,53.18033,-1.658378,184.87,17.92,4,107.24,15 / 17,1850013,2019-11-06 16:37:10:475,0.4824,3.0401,10.8931,-0.0321,-0.0322,9.8065,0.0936,0.5462,-0.2882,-25.56,-36.69,18.38,319.42,-88.22,-163.9
3775,53.18033,-1.658378,184.87,17.92,4,107.24,15 / 17,1850114,2019-11-06 16:37:10:576,-0.8226,-4.9385,11.0123,0.0059,-0.0843,9.8062,0.0523,0.4039,0.0135,-25.81,-36.62,18.56,309.13,-88.0,-175.23
3776,53.18033,-1.658378,184.87,17.92,4,107.24,15 / 17,1850214,2019-11-06 16:37:10:676,5.2636,11.2237,7.6827,-0.0463,-0.2018,9.8044,-0.2601,1.5361,-0.519,-25.56,-36.62,18.31,324.05,-87.15,-158.65
3777,53.18033,-1.658378,184.87,17.92,4,107.24,15 / 17,1850314,2019-11-06 16:37:10:776,-1.5085,0.0447,7.7763,-0.0786,-0.0059,9.8063,0.3525,-0.7747,0.3335,-25.87,-35.56,21.19,338.62,-87.31,-149.22
3778,53.18033,-1.658378,184.87,17.92,4,107.24,15 / 17,1850413,2019-11-06 16:37:10:875,4.8211,7.8847,7.0702,-0.0538,-0.144,9.8054,-0.1088,0.5567,-0.1537,-26.19,-34.81,24.63,358.54,-86.94,-135.26
3779,53.18033,-1.658378,184.87,17.92,4,107.24,15 / 17,1850513,2019-11-06 16:37:10:975,-0.2471,-1.5581,10.7869,0.0768,0.1044,9.8057,0.1643,-1.1352,0.5959,-40.37,-38.87,46.44,357.6,-87.59,-141.33
3780,53.18033,-1.658378,184.87,17.92,4,107.24,15 / 17,1850613,2019-11-06 16:37:11:075,-4.2111,-6.1944,9.3944,0.0192,-0.0203,9.8066,-0.1201,-0.1288,0.1097,-35.62,-39.0,18.81,338.49,-87.36,-138.39
3781,53.18033,-1.658378,184.87,17.92,4,107.24,15 / 17,1850713,2019-11-06 16:37:11:175,-2.4749,-4.8009,9.7421,0.0393,0.1507,9.8053,0.0885,-1.262,0.7218,-29.5,-37.56,16.56,348.76,-87.38,-131.03
3782,53.18033,-1.658378,184.87,17.92,4,107.24,15 / 17,1850813,2019-11-06 16:37:11:275,-2.309,-4.6542,10.9734,-0.0031,0.0197,9.8065,0.0701,-0.6873,0.3462,-28.62,-36.87,16.56,347.28,-87.71,-132.53
3783,53.18033,-1.658378,184.87,17.92,4,107.24,14 / 17,1850913,2019-11-06 16:37:11:375,4.0472,6.4482,9.229,0.0575,0.1323,9.8055,0.1074,-1.0345,0.5715,-29.06,-37.12,16.06,347.75,-87.4,-130.51
3784,53.18033,-1.658378,184.87,17.92,4,107.24,14 / 17,1851014,2019-11-06 16:37:11:476,-3.3437,-7.9401,11.6799,0.0209,0.0883,9.8062,0.1847,-1.0679,0.5198,-30.69,-37.0,16.81,337.34,-87.69,-140.45
3785,53.18033,-1.658378,184.87,17.92,4,107.24,14 / 17,1851114,2019-11-06 16:37:11:576,3.3046,5.389,9.0589,0.0209,0.0974,9.8061,-0.0098,-0.3818,0.1605,-44.87,-40.44,37.31,342.51,-87.78,-146.44
3786,53.18033,-1.658378,184.87,17.92,4,107.24,14 / 17,1851214,2019-11-06 16:37:11:676,-4.7029,-4.6695,11.0926,0.0763,0.1151,9.8057,0.1048,-1.0961,0.492,-26.06,-34.44,34.31,354.36,-87.96,-148.07
3787,53.18033,-1.658378,184.87,17.92,4,107.24,14 / 17,1851314,2019-11-06 16:37:11:776,5.89,6.3257,8.942,0.0501,0.063,9.8062,0.0231,-0.1196,0.001,-26.31,-36.81,21.19,341.54,-87.76,-146.59
3788,53.18033,-1.658378,184.87,17.92,4,107.24,14 / 17,1851414,2019-11-06 16:37:11:876,-2.3814,-1.6743,10.2481,0.0533,0.1385,9.8054,0.1027,-0.91,0.462,-26.81,-38.19,19.5,318.14,-88.16,-166.99
3789,53.18033,-1.658378,184.87,17.92,4,107.24,14 / 17,1851514,2019-11-06 16:37:11:976,3.0113,5.2723,8.323,0.0329,0.0478,9.8064,-0.0361,0.0028,-0.0483,-26.75,-37.62,18.69,319.79,-88.14,-163.95
3790,53.18033,-1.658378,184.87,17.92,4,107.24,14 / 17,1851614,2019-11-06 16:37:12:076,-3.9993,-6.1792,10.9527,0.0577,0.118,9.8057,0.0762,-0.8643,0.427,-26.5,-37.44,18.63,298.94,-88.09,174.72
3791,53.18033,-1.658378,184.87,17.92,4,107.24,14 / 17,1851714,2019-11-06 16:37:12:176,-1.7154,1.1269,9.1037,-0.0131,0.0213,9.8065,0.1426,0.3963,-0.2804,-25.69,-37.37,20.38,302.08,-88.29,176.16
3792,53.18033,-1.658378,184.87,17.92,4,107.24,14 / 17,1851814,2019-11-06 16:37:12:276,-7.4205,-5.8265,8.4411,0.0478,0.101,9.8059,0.205,-0.7904,0.0389,-24.5,-35.5,24.56,292.8,-88.0,158.5
3793,53.18033,-1.658378,184.87,17.92,4,107.24,15 / 17,1851915,2019-11-06 16:37:12:377,8.7629,7.2493,6.1852,-0.0798,0.0211,9.8062,-0.066,1.2874,-0.7771,-31.31,-38.37,44.81,293.17,-87.68,149.23
3794,53.18033,-1.658378,184.87,17.92,4,107.24,15 / 17,1852014,2019-11-06 16:37:12:476,-1.4744,-2.5548,7.7702,0.0321,0.1075,9.806,-0.1605,-0.3323,0.2624,-37.56,-39.5,20.5,255.06,-88.05,137.82
3795,53.18033,-1.658378,184.87,17.92,4,107.24,15 / 17,1852113,2019-11-06 16:37:12:575,-5.758,-14.6414,13.3805,0.0011,-0.2363,9.8037,-0.5089,1.9582,-0.8304,-27.87,-38.25,16.06,301.79,-88.32,-176.26
3796,53.18033,-1.658378,184.87,17.92,4,107.24,15 / 17,1852213,2019-11-06 16:37:12:675,-0.1775,-2.2321,11.3472,0.0162,-0.0909,9.8062,-0.1847,1.1604,-0.5852,-27.31,-37.56,15.63,287.63,-88.57,168.63
3797,53.18033,-1.658378,184.87,17.92,4,107.24,15 / 17,1852313,2019-11-06 16:37:12:775,-3.8007,-8.3273,11.1948,-0.0255,-0.1341,9.8057,-0.1104,1.0681,-0.5168,-27.87,-37.12,16.38,268.14,-88.48,150.14
3798,53.18033,-1.658378,184.87,17.92,4,107.24,15 / 17,1852413,2019-11-06 16:37:12:875,4.502,9.0302,10.3197,-0.0355,-0.1096,9.8059,-0.0735,1.2071,-0.7382,-29.81,-38.87,15.94,280.48,-88.5,164.11
3799,53.18033,-1.658378,184.87,17.92,4,107.24,15 / 17,1852513,2019-11-06 16:37:12:975,-0.0463,-2.7997,11.6295,-0.0524,-0.0997,9.806,0.1265,0.6815,-0.3849,-42.31,-41.56,27.38,266.64,-88.14,145.46
3800,53.18033,-1.658378,184.87,17.92,4,107.24,15 / 17,1852613,2019-11-06 16:37:13:075,6.9498,6.0386,8.6145,-0.0428,-0.0803,9.8062,-0.2268,1.076,-0.7097,-28.19,-37.5,42.13,299.3,-88.07,154.24
3801,53.18033,-1.658378,184.87,17.92,4,107.24,15 / 17,1852713,2019-11-06 16:37:13:175,-3.4673,-2.1903,9.3707,-0.0341,-0.029,9.8065,0.11,0.4681,-0.1691,-24.44,-36.75,21.5,268.5,-87.88,138.39
3802,53.18033,-1.658378,184.87,17.92,4,107.24,15 / 17,1852813,2019-11-06 16:37:13:275,1.9343,3.2849,10.4037,-0.0186,-0.0742,9.8063,-0.2014,0.7673,-0.4502,-24.44,-37.56,18.25,257.75,-87.58,133.86
3803,53.18033,-1.658378,184.87,17.92,4,107.24,15 / 17,1852915,2019-11-06 16:37:13:377,-3.3235,-2.4477,9.0187,-0.0119,-0.0223,9.8066,-0.0556,0.1858,0.11,-24.62,-37.37,17.56,249.01,-87.62,125.91
3804,53.18033,-1.658378,184.87,17.92,4,107.24,15 / 17,1853013,2019-11-06 16:37:13:475,0.0577,4.5007,9.7083,-0.0502,-0.0669,9.8063,-0.075,0.6533,-0.425,-25.19,-38.12,16.56,250.88,-87.92,129.12
3805,53.18033,-1.658378,184.87,17.92,4,107.24,15 / 17,1853113,2019-11-06 16:37:13:575,-1.8081,-2.8807,10.2575,-0.001,-0.0183,9.8065,0.0383,0.0645,0.0352,-24.5,-37.31,18.44,248.39,-87.78,124.06
3806,53.18033,-1.658378,184.87,17.92,4,107.24,15 / 17,1853213,2019-11-06 16:37:13:675,0.2107,6.0975,9.0907,0.016,-0.0813,9.8063,-0.1132,0.562,-0.3279,-23.69,-36.31,21.25,260.02,-87.6,131.5
3807,53.18033,-1.658378,184.87,17.92,4,107.24,15 / 17,1853315,2019-11-06 16:37:13:777,0.1374,1.3587,10.208,0.0299,-0.0215,9.8065,0.0459,-0.23,0.2328,-25.87,-37.19,39.75,277.39,-87.21,132.58
3808,53.18033,-1.658378,184.87,17.92,4,107.24,15 / 17,1853414,2019-11-06 16:37:13:876,-0.4522,6.4266,8.5523,-0.021,-0.0792,9.8063,-0.1087,0.3877,-0.3129,-35.62,-40.56,18.44,256.38,-87.1,142.68
3809,53.18033,-1.658378,184.87,17.92,4,107.24,15 / 17,1853514,2019-11-06 16:37:13:976,-3.2013,-0.6504,9.6217,-0.0082,0.0278,9.8065,0.0714,-0.0145,0.1131,-27.56,-38.87,15.88,253.04,-87.12,136.62
3810,53.18033,-1.658378,184.87,17.92,4,107.24,15 / 17,1853614,2019-11-06 16:37:14:076,-1.095,2.4584,10.1738,-0.024,-0.0718,9.8063,-0.0552,0.5922,-0.2856,-26.56,-38.81,15.25,253.05,-87.3,137.24
3811,53.18033,-1.658378,184.87,17.92,4,107.24,15 / 17,1853714,2019-11-06 16:37:14:176,-2.7822,-4.1608,10.3031,0.0103,-0.0222,9.8065,0.0419,-0.2168,0.1552,-27.0,-38.31,15.44,255.79,-87.15,140.12
3812,53.18033,-1.658378,184.87,17.92,4,107.24,15 / 17,1853814,2019-11-06 16:37:14:276,0.8481,4.1503,9.7442,-0.0187,-0.0686,9.8064,-0.0958,0.4545,-0.184,-28.44,-38.69,15.25,259.08,-87.31,144.14
3813,53.18033,-1.658378,184.87,17.92,4,107.24,15 / 18,1853920,2019-11-06 16:37:14:382,-2.359,-2.3699,10.7161,0.0059,0.0251,9.8065,0.1369,-0.2249,0.0216,-39.25,-41.19,21.13,257.72,-87.41,141.75
3814,53.18033,-1.658378,184.87,17.92,4,107.24,15 / 18,1854013,2019-11-06 16:37:14:475,-0.6199,-0.6168,8.6712,0.0031,0.0044,9.8066,0.0804,0.343,-0.1989,-26.56,-36.87,38.69,279.75,-87.13,136.67
3815,53.18033,-1.658378,184.87,17.92,4,107.24,15 / 18,1854113,2019-11-06 16:37:14:575,-2.505,-1.9481,9.6159,0.0258,0.0186,9.8065,-0.0503,-0.1236,0.0017,-24.31,-36.19,22.25,262.52,-86.75,133.56
3816,53.18033,-1.658378,184.87,17.92,4,107.24,15 / 18,1854213,2019-11-06 16:37:14:675,-0.0258,1.8195,10.0309,0.0112,-0.0211,9.8066,-0.1149,0.3007,-0.032,-24.31,-37.69,18.19,253.79,-86.77,130.83
3817,53.18033,-1.658378,184.87,17.92,4,107.24,15 / 18,1854314,2019-11-06 16:37:14:776,2.0847,0.8142,9.9309,-0.0164,0.0113,9.8065,0.1129,-0.1315,-0.0763,-24.69,-37.37,17.13,252.18,-86.94,131.51
3818,53.18033,-1.658378,184.87,17.92,4,107.24,15 / 18,1854414,2019-11-06 16:37:14:876,1.4355,3.2446,9.5367,-0.0354,-0.0379,9.8064,0.0065,0.2661,-0.2526,-24.81,-38.19,15.81,250.61,-86.7,131.95
3819,53.18033,-1.658378,184.87,17.92,4,107.24,15 / 18,1854514,2019-11-06 16:37:14:976,-1.9884,0.4158,9.2543,0.0031,0.0212,9.8065,-0.0394,-0.0113,0.1384,-24.31,-37.25,16.81,253.81,-86.89,132.24
3820,53.18033,-1.658378,184.87,17.92,4,107.24,15 / 18,1854614,2019-11-06 16:37:15:076,-1.2584,-2.0966,10.6452,0.0107,-0.0278,9.8066,-0.1212,0.3438,-0.1379,-24.25,-36.25,20.56,265.49,-86.96,137.73
3821,53.18033,-1.658378,184.87,17.92,4,107.24,15 / 18,1854714,2019-11-06 16:37:15:176,-1.9727,1.6762,10.1783,-0.0145,-0.0017,9.8066,-0.0887,0.2221,-0.137,-24.81,-36.81,36.31,276.09,-86.99,133.4
3822,53.18033,-1.658378,184.87,17.92,4,107.24,15 / 18,1854814,2019-11-06 16:37:15:276,-3.2653,2.9721,9.8598,0.0097,-0.0069,9.8065,0.0835,0.1331,-0.1497,-44.25,-42.25,29.25,248.89,-87.0,127.71
3823,53.18033,-1.658378,184.87,17.92,4,107.24,13 / 16,1854921,2019-11-06 16:37:15:383,-1.1586,1.9961,10.6386,0.0066,0.0013,9.8066,-0.0055,0.0985,-0.0153,-30.25,-38.31,15.31,244.15,-86.74,130.88
3824,53.18033,-1.658378,184.87,17.92,4,107.24,13 / 16,1855014,2019-11-06 16:37:15:476,-3.3635,1.327,10.9498,-0.0101,-0.0394,9.8065,-0.0056,0.1139,-0.0202,-27.19,-37.37,14.75,244.73,-86.74,129.18
3825,53.18033,-1.658378,184.87,17.92,4,107.24,13 / 16,1855113,2019-11-06 16:37:15:575,-0.6334,1.2597,10.6467,0.0009,-0.0528,9.8064,0.0077,0.087,0.048,-27.0,-38.06,15.0,253.02,-87.01,137.46
3826,53.18033,-1.658378,184.87,17.92,4,107.24,13 / 16,1855214,2019-11-06 16:37:15:676,-1.4203,-0.0266,10.1945,-0.0194,-0.0451,9.8065,-0.104,0.0978,0.0813,-28.06,-38.5,15.0,257.71,-87.48,142.48
3827,53.18033,-1.658378,184.87,17.92,4,107.24,13 / 16,1855315,2019-11-06 16:37:15:777,-3.5612,-0.9419,8.7416,-0.0061,-0.0192,9.8066,-0.1822,0.0328,0.0321,-34.94,-39.44,16.13,265.66,-88.05,153.06
3828,53.18033,-1.658378,184.87,17.92,4,107.24,13 / 16,1855413,2019-11-06 16:37:15:875,-3.4307,1.8977,8.4369,-0.0371,-0.0292,9.8065,-0.1516,0.2128,-0.0716,-33.0,-37.94,43.88,305.17,-88.78,162.73
3829,53.18033,-1.658378,184.87,17.92,4,107.24,13 / 16,1855513,2019-11-06 16:37:15:975,-0.1547,0.5152,8.9892,-0.0148,0.0064,9.8066,0.0352,0.1133,-0.061,-25.81,-35.44,22.31,289.67,-88.98,160.43
3830,53.18033,-1.658378,184.87,17.92,4,107.24,13 / 16,1855614,2019-11-06 16:37:16:076,-1.9007,0.4093,10.2816,-0.0138,0.0045,9.8066,0.0864,0.0805,-0.113,-25.81,-36.81,17.88,274.59,-88.89,151.19
3831,53.18033,-1.658378,184.87,17.92,4,107.24,13 / 16,1855713,2019-11-06 16:37:16:175,-1.9774,2.7433,10.6479,-0.0061,-0.0037,9.8065,0.0255,0.187,-0.1009,-25.94,-36.31,15.0,260.9,-88.77,142.37
3832,53.18033,-1.658378,184.87,17.92,4,107.24,13 / 16,1855813,2019-11-06 16:37:16:275,-1.3235,-0.0109,10.1465,0.0059,-0.002,9.8066,0.0785,0.1213,-0.0755,-26.37,-36.87,15.06,260.43,-88.44,142.34
3833,53.18033,-1.658378,184.87,17.92,4,107.24,13 / 16,1855913,2019-11-06 16:37:16:375,-1.1516,2.9234,10.1975,-0.0076,-0.0229,9.8065,-0.0704,0.2743,-0.1414,-25.5,-36.94,16.06,262.38,-88.31,141.85
3834,53.18033,-1.658378,184.87,17.92,4,107.24,13 / 16,1856014,2019-11-06 16:37:16:476,-1.193,-0.463,9.4828,0.0043,0.0179,9.8066,0.0009,-0.1397,0.0927,-24.81,-36.37,18.19,260.39,-88.34,136.54
3835,53.18033,-1.658378,184.87,17.92,4,107.24,13 / 16,1856114,2019-11-06 16:37:16:576,0.0068,-0.0204,10.2498,-0.0093,-0.0137,9.8066,0.1082,0.1864,-0.0615,-24.37,-35.31,26.81,269.98,-88.32,133.24
3836,53.18033,-1.658378,184.87,17.92,4,107.24,13 / 16,1856214,2019-11-06 16:37:16:676,1.2042,3.5781,9.2802,0.0099,0.0114,9.8066,0.1143,-0.0947,0.1221,-45.19,-42.44,28.56,257.89,-88.05,136.58
3837,53.18033,-1.658378,184.87,17.92,4,107.24,13 / 16,1856313,2019-11-06 16:37:16:775,-2.5376,-1.0713,10.5825,0.0031,-0.0597,9.8064,0.0691,0.3341,-0.1741,-30.44,-38.44,15.13,260.85,-87.92,146.6
3838,53.18033,-1.658378,184.87,17.92,4,107.24,13 / 16,1856413,2019-11-06 16:37:16:875,-2.8532,-1.7223,10.4631,-0.0234,-0.0044,9.8066,0.0943,-0.0491,0.1032,-28.19,-37.81,13.88,263.29,-87.71,149.49
3839,53.18033,-1.658378,184.87,17.92,4,107.24,13 / 16,1856514,2019-11-06 16:37:16:976,1.4147,2.4836,9.2365,-0.0319,-0.038,9.8065,-0.0457,0.3056,-0.1685,-27.75,-38.5,13.19,265.0,-88.01,152.54
3840,53.18033,-1.658378,184.87,17.92,4,107.24,13 / 16,1856614,2019-11-06 16:37:17:076,-0.6566,1.2592,9.755,0.0071,0.0168,9.8065,0.0774,-0.1406,0.1109,-28.81,-37.81,13.63,264.61,-88.0,151.18
3841,53.18033,-1.658378,184.87,17.92,4,107.24,13 / 16,1856714,2019-11-06 16:37:17:176,0.741,3.8064,9.4208,0.014,-0.0314,9.8065,-0.0142,0.2365,-0.1023,-34.19,-39.62,14.5,264.17,-87.84,152.67
3842,53.18033,-1.658378,184.87,17.92,4,107.24,13 / 16,1856814,2019-11-06 16:37:17:276,-0.0495,-1.2735,9.9948,0.0064,0.022,9.8066,0.0042,-0.264,0.1778,-42.25,-40.87,40.81,286.03,-87.79,153.22
3843,53.18033,-1.658378,184.87,17.92,4,107.24,Dec-14,1856914,2019-11-06 16:37:17:376,-2.7564,-0.9128,10.1567,-0.0154,-0.0208,9.8066,0.0017,0.1492,-0.022,-26.31,-35.56,23.56,283.73,-87.94,153.06
3844,53.18033,-1.658378,184.87,17.92,4,107.24,Dec-14,1857014,2019-11-06 16:37:17:476,-1.7862,-2.3757,9.9516,0.0484,0.062,9.8063,0.0517,-0.5289,0.3201,-25.75,-35.87,16.81,278.21,-87.83,157.53
3845,53.18033,-1.658378,184.87,17.92,4,107.24,Dec-14,1857114,2019-11-06 16:37:17:576,-0.2692,-0.5473,10.2925,-0.0059,0.0054,9.8066,0.0545,-0.0765,0.0922,-25.81,-36.19,15.5,270.69,-87.63,151.88
3846,53.18033,-1.658378,184.87,17.92,4,107.24,Dec-14,1857214,2019-11-06 16:37:17:676,0.4041,5.6786,9.659,-0.0039,0.0714,9.8064,0.0657,-0.5389,0.2362,-26.12,-36.87,14.63,260.93,-87.67,143.79
3847,53.18033,-1.658378,184.87,17.92,4,107.24,Dec-14,1857313,2019-11-06 16:37:17:775,0.7169,0.3523,9.7007,0.0127,0.0151,9.8066,0.0267,-0.3929,0.3174,-25.06,-34.56,15.06,266.17,-87.79,147.86
3848,53.18033,-1.658378,184.87,17.92,4,107.24,Dec-14,1857413,2019-11-06 16:37:17:875,2.5166,3.409,9.3718,0.0106,0.0593,9.8064,-0.005,-0.3958,0.2993,-25.0,-34.87,17.5,279.35,-87.96,155.9
3849,53.18033,-1.658378,184.87,17.92,4,107.24,Dec-14,1857513,2019-11-06 16:37:17:975,-3.2321,-2.4199,10.3534,-0.0017,0.0104,9.8066,0.0592,-0.4865,0.3095,-25.56,-34.12,27.44,290.44,-88.23,155.87
3850,53.18033,-1.658378,184.87,17.92,4,107.24,Dec-14,1857613,2019-11-06 16:37:18:075,2.9941,2.9245,9.7889,0.0222,0.0201,9.8066,0.1249,-0.2667,0.2106,-44.31,-40.62,37.63,299.24,-88.28,169.49
3851,53.18033,-1.658378,184.87,17.92,4,107.24,Dec-14,1857714,2019-11-06 16:37:18:176,-1.3641,-0.8489,10.7798,0.0205,0.036,9.8065,0.0608,-0.5016,0.3023,-32.37,-37.56,14.44,284.47,-88.01,172.95
3852,53.18033,-1.658378,184.87,17.92,4,107.24,Dec-14,1857814,2019-11-06 16:37:18:276,1.3987,3.7242,9.6819,0.0293,0.0324,9.8065,0.0341,-0.21,0.217,-29.56,-37.25,13.5,297.14,-87.82,-175.69
3853,53.18033,-1.658378,184.87,17.92,4,107.24,Dec-14,1857914,2019-11-06 16:37:18:376,-1.0876,-2.2497,9.8967,0.003,0.0484,9.8065,0.0156,-0.4842,0.1903,-28.69,-36.87,14.13,294.18,-87.73,-179.19
3854,53.18033,-1.658378,184.87,17.92,4,107.24,Dec-14,1858013,2019-11-06 16:37:18:475,1.4481,2.7556,9.625,-0.0093,0.0464,9.8065,0.0632,-0.0896,0.0344,-29.25,-37.31,13.69,295.82,-87.8,-177.66
3855,53.18033,-1.658378,184.87,17.92,4,107.24,Dec-14,1858113,2019-11-06 16:37:18:575,-1.16,-3.366,10.0541,0.0133,0.0571,9.8064,0.0771,-0.4469,0.2284,-32.19,-38.0,13.69,285.24,-87.91,173.82
3856,53.18033,-1.658378,184.87,17.92,4,107.24,Dec-14,1858213,2019-11-06 16:37:18:675,2.2781,0.8661,9.5865,0.0089,0.0017,9.8066,0.0049,0.1059,-0.0528,-41.56,-39.87,41.69,309.7,-87.82,175.85
3857,53.18033,-1.658378,184.87,17.92,4,107.24,Dec-14,1858314,2019-11-06 16:37:18:776,-1.6088,-1.6369,9.9772,-0.0332,-0.0174,9.8065,0.0458,-0.1194,0.0709,-26.87,-34.12,25.88,306.62,-87.82,174.31
3858,53.18033,-1.658378,184.87,17.92,4,107.24,Dec-14,1858414,2019-11-06 16:37:18:876,0.4631,0.6296,9.9962,-0.0207,-0.0427,9.8065,-0.0114,0.3511,-0.1564,-26.5,-35.25,17.88,306.42,-87.9,-176.39
3859,53.18033,-1.658378,184.87,17.92,4,107.24,Dec-14,1858514,2019-11-06 16:37:18:976,-0.2208,-1.7897,10.2445,-0.0067,-0.0012,9.8066,0.0655,-0.1462,0.1174,-26.87,-36.0,15.5,302.7,-87.93,-175.93
3860,53.18033,-1.658378,184.87,17.92,4,107.24,Dec-14,1858614,2019-11-06 16:37:19:076,-1.4608,1.2689,9.5192,-0.0046,-0.0247,9.8065,-0.0145,0.075,-0.0701,-27.25,-36.19,14.31,303.65,-87.84,-171.61
3861,53.18033,-1.658378,184.87,17.92,4,107.24,Dec-14,1858714,2019-11-06 16:37:19:176,1.3922,1.5125,10.1998,-0.0028,0.0159,9.8066,-0.0922,-0.0259,0.0528,-27.19,-36.25,14.31,303.13,-87.94,-172.22
3862,53.18033,-1.658378,184.87,17.92,4,107.24,Dec-14,1858814,2019-11-06 16:37:19:276,-1.2051,-0.9573,10.2015,0.007,0.0216,9.8066,0.11,-0.1898,0.1454,-26.19,-35.94,16.5,310.8,-88.04,-170.64
3863,53.180042,-1.656302,184.03,12.97,6,91.63,14 / 14,1858914,2019-11-06 16:37:19:376,0.7785,-1.1031,10.881,0.0023,-0.0198,9.8066,0.0023,0.4141,-0.1534,-26.5,-34.87,20.5,319.05,-87.91,-168.42
3864,53.180042,-1.656302,184.03,12.97,6,91.63,14 / 14,1859014,2019-11-06 16:37:19:476,-0.3307,-1.3131,9.9514,-0.005,0.0562,9.8064,0.068,-0.2784,0.1972,-41.12,-39.5,41.19,326.7,-88.05,-167.56
3865,53.180042,-1.656302,184.03,12.97,6,91.63,14 / 14,1859114,2019-11-06 16:37:19:576,0.0078,1.3471,9.2005,0.0061,0.0168,9.8066,-0.0301,0.0315,0.0297,-35.87,-38.69,14.88,307.94,-88.0,-163.09
3866,53.180042,-1.656302,184.03,12.97,6,91.63,14 / 14,1859214,2019-11-06 16:37:19:676,-0.3139,-0.773,10.9077,-0.0171,0.034,9.8065,0.1537,-0.1763,0.0358,-30.0,-37.62,12.63,303.64,-88.16,-167.99
3867,53.180042,-1.656302,184.03,12.97,6,91.63,14 / 14,1859314,2019-11-06 16:37:19:776,0.0733,1.3056,9.3906,-0.016,0.0268,9.8066,0.0998,0.3027,-0.1159,-29.12,-36.81,12.25,297.72,-87.96,-172.62
3868,53.180042,-1.656302,184.03,12.97,6,91.63,14 / 14,1859414,2019-11-06 16:37:19:876,-2.8419,-3.0448,9.4574,0.027,0.0347,9.8065,-0.0812,-0.212,0.0259,-29.5,-37.25,12.38,286.61,-88.03,176.36
3869,53.180042,-1.656302,184.03,12.97,6,91.63,14 / 14,1859514,2019-11-06 16:37:19:976,3.19,4.9658,10.928,0.0023,-0.0101,9.8066,-0.12,0.4138,-0.1728,-33.5,-38.31,12.25,281.98,-88.25,173.86
3870,53.180042,-1.656302,184.03,12.97,6,91.63,14 / 14,1859614,2019-11-06 16:37:20:076,0.8214,1.7701,8.8047,0.0432,0.0847,9.8061,-0.0596,-0.3778,0.2832,-44.75,-41.25,33.63,290.55,-88.33,164.62
3871,53.180042,-1.656302,184.03,12.97,6,91.63,14 / 14,1859714,2019-11-06 16:37:20:176,5.7897,3.6053,8.0133,0.0306,-0.0182,9.8066,-0.0998,0.4307,-0.1285,-27.56,-34.94,30.0,306.08,-88.45,170.19
3872,53.180042,-1.656302,184.03,12.97,6,91.63,14 / 14,1859814,2019-11-06 16:37:20:276,0.6551,-1.3684,10.5388,-0.0004,0.0766,9.8063,0.0567,-0.1632,0.1223,-26.87,-35.56,15.63,279.38,-88.3,160.65
3873,53.180042,-1.656302,184.03,12.97,6,91.63,14 / 15,1859914,2019-11-06 16:37:20:376,0.1947,-0.0684,9.2448,-0.0088,-0.0214,9.8066,0.0356,0.4514,-0.2426,-26.75,-36.87,13.19,269.71,-88.26,156.16
3874,53.180042,-1.656302,184.03,12.97,6,91.63,14 / 15,1860013,2019-11-06 16:37:20:475,-1.8711,-1.9595,9.712,-0.0026,0.0479,9.8064,-0.0012,-0.1248,0.0771,-27.12,-36.62,11.63,262.99,-88.11,151.38
3875,53.180042,-1.656302,184.03,12.97,6,91.63,14 / 15,1860114,2019-11-06 16:37:20:576,1.4556,4.4913,9.8404,-0.0336,-0.0362,9.8065,-0.0315,0.7088,-0.3351,-26.75,-36.81,11.88,268.29,-88.39,156.34
3876,53.180042,-1.656302,184.03,12.97,6,91.63,14 / 15,1860214,2019-11-06 16:37:20:676,0.2433,4.7099,9.1501,-0.0025,0.0446,9.8065,-0.1146,-0.0124,0.1629,-26.19,-36.87,12.56,259.76,-88.48,145.1
3877,53.180042,-1.656302,184.03,12.97,6,91.63,14 / 15,1860314,2019-11-06 16:37:20:776,4.0855,5.9306,9.3934,-0.0097,-0.0408,9.8065,-0.0829,0.6065,-0.2188,-26.12,-35.44,16.5,265.56,-88.68,143.86
3878,53.180042,-1.656302,184.03,12.97,6,91.63,14 / 15,1860414,2019-11-06 16:37:20:876,0.9392,-0.5255,9.4663,0.0315,0.0358,9.8065,-0.0616,-0.0448,0.1099,-40.37,-40.19,37.25,277.78,-88.73,145.94
3879,53.180042,-1.656302,184.03,12.97,6,91.63,14 / 15,1860514,2019-11-06 16:37:20:976,-0.6175,-1.9265,10.6048,0.0026,-0.0648,9.8064,-0.0453,0.7779,-0.2782,-35.5,-38.44,10.56,251.89,-88.88,145.54
3880,53.180042,-1.656302,184.03,12.97,6,91.63,14 / 15,1860614,2019-11-06 16:37:21:076,-0.7665,-1.6799,10.6874,0.0091,0.0118,9.8066,-0.0802,0.2414,-0.0402,-29.37,-37.62,9.06,259.88,-88.93,153.95
3881,53.180042,-1.656302,184.03,12.97,6,91.63,14 / 15,1860714,2019-11-06 16:37:21:176,0.5518,1.821,9.2475,-0.0048,-0.0441,9.8065,-0.1149,0.7799,-0.2728,-28.5,-36.75,7.88,260.03,-89.1,155.21
3882,53.180042,-1.656302,184.03,12.97,6,91.63,14 / 15,1860814,2019-11-06 16:37:21:276,-0.5681,5.1133,10.1233,-0.0202,0.0073,9.8066,0.0038,0.4225,-0.2017,-28.5,-36.56,7.5,239.93,-89.06,135.03
3883,53.180042,-1.656302,184.03,12.97,6,91.63,Dec-13,1860914,2019-11-06 16:37:21:376,-1.2088,0.0899,9.6936,-0.0339,-0.0385,9.8064,-0.046,0.5962,-0.2484,-30.12,-37.19,5.81,222.42,-88.86,122.03
3884,53.180042,-1.656302,184.03,12.97,6,91.63,Dec-13,1861013,2019-11-06 16:37:21:475,-0.7612,3.6917,10.0982,-0.0249,-0.0018,9.8065,-0.1027,0.446,-0.1072,-45.0,-41.56,22.0,213.44,-89.04,97.82
3885,53.180042,-1.656302,184.03,12.97,6,91.63,Dec-13,1861114,2019-11-06 16:37:21:576,-0.9588,1.745,10.2149,0.0061,-0.0285,9.8066,-0.014,0.3462,0.0326,-27.12,-35.31,27.06,223.89,-88.97,89.55
3886,53.180042,-1.656302,184.03,12.97,6,91.63,Dec-13,1861214,2019-11-06 16:37:21:676,1.9013,3.8737,10.0643,-0.0279,-0.0327,9.8065,0.0385,0.6223,-0.2072,-26.62,-36.06,11.56,209.19,-89.15,95.73
3887,53.180042,-1.656302,184.03,12.97,6,91.63,Dec-13,1861314,2019-11-06 16:37:21:776,-0.6748,-0.9197,10.8366,-0.0264,-0.0155,9.8066,0.0873,0.2254,-0.0008,-25.69,-36.37,7.25,201.62,-89.1,96.99
3888,53.180042,-1.656302,184.03,12.97,6,91.63,Dec-13,1861414,2019-11-06 16:37:21:876,-0.7673,7.4112,9.2001,0.0172,-0.0727,9.8063,-0.1072,0.8367,-0.2364,-26.31,-37.12,6.31,208.74,-89.08,106.35
3889,53.180042,-1.656302,184.03,12.97,6,91.63,Dec-13,1861513,2019-11-06 16:37:21:975,1.8689,2.2516,10.5928,0.0259,0.0051,9.8066,-0.0726,0.0439,0.1479,-25.81,-37.06,5.25,201.66,-88.99,101.29
3890,53.180042,-1.656302,184.03,12.97,6,91.63,Dec-13,1861613,2019-11-06 16:37:22:075,0.6689,7.9531,10.4555,-0.0024,-0.0596,9.8064,-0.0737,0.7056,-0.2029,-25.25,-36.87,5.5,206.81,-89.05,103.93
3891,53.180042,-1.656302,184.03,12.97,6,91.63,Dec-13,1861713,2019-11-06 16:37:22:175,-0.1286,0.2406,9.7106,0.0133,0.0281,9.8065,-0.0743,-0.136,0.2468,-26.12,-35.81,9.88,208.81,-88.92,98.44
3892,53.180042,-1.656302,184.03,12.97,6,91.63,Dec-13,1861813,2019-11-06 16:37:22:275,0.1171,0.9465,10.4799,-0.0287,-0.0465,9.8064,0.0828,0.3778,-0.1245,-27.44,-36.44,27.06,233.64,-88.98,99.41
3893,53.180042,-1.656302,184.03,12.97,6,91.63,Dec-15,1861914,2019-11-06 16:37:22:376,0.0342,-0.0985,10.235,0.0071,0.0216,9.8066,0.1114,-0.0168,0.1418,-36.56,-39.25,5.25,201.18,-88.76,103.95
3894,53.180042,-1.656302,184.03,12.97,6,91.63,Dec-15,1862013,2019-11-06 16:37:22:475,-0.8325,2.9425,9.471,0.0102,-0.0249,9.8065,-0.086,0.276,-0.0405,-28.56,-37.94,2.0,205.2,-88.83,111.91
3895,53.180042,-1.656302,184.03,12.97,6,91.63,Dec-15,1862113,2019-11-06 16:37:22:575,-0.0189,3.3497,9.667,0.0046,0.0209,9.8065,-0.011,0.1212,0.095,-27.06,-37.56,1.69,205.33,-88.76,111.83
3896,53.180042,-1.656302,184.03,12.97,6,91.63,Dec-15,1862213,2019-11-06 16:37:22:675,-0.0681,2.6744,10.257,0.0191,-0.0067,9.8066,0.0115,0.1444,0.0226,-26.87,-37.75,0.69,205.25,-88.66,113.93
3897,53.180042,-1.656302,184.03,12.97,6,91.63,Dec-15,1862314,2019-11-06 16:37:22:776,-0.311,3.2358,9.9235,-0.0041,0.0092,9.8066,0.0747,0.1231,0.0502,-29.19,-38.31,0.19,204.6,-88.63,115.34
3898,53.180042,-1.656302,184.03,12.97,6,91.63,Dec-15,1862414,2019-11-06 16:37:22:876,-1.2072,0.6629,9.8327,0.0007,0.008,9.8066,0.0104,-0.0302,0.0922,-38.44,-40.44,4.38,214.73,-88.64,119.52
3899,53.180042,-1.656302,184.03,12.97,6,91.63,Dec-15,1862514,2019-11-06 16:37:22:976,0.018,1.5699,9.894,0.0032,0.0503,9.8065,0.1222,0.0353,0.062,-31.75,-39.0,29.38,246.93,-88.63,115.88
3900,53.180042,-1.656302,184.03,12.97,6,91.63,Dec-15,1862614,2019-11-06 16:37:23:076,-1.2695,1.8611,10.7106,-0.016,0.004,9.8066,0.0924,0.0623,0.0511,-23.94,-35.87,5.5,210.93,-88.44,108.05
3901,53.180042,-1.656302,184.03,12.97,6,91.63,Dec-15,1862714,2019-11-06 16:37:23:176,1.4647,6.8583,9.4981,0.0107,0.0669,9.8063,0.0182,-0.4477,0.3977,-23.12,-37.25,2.38,213.4,-88.6,119.66
3902,53.180042,-1.656302,184.03,12.97,6,91.63,Dec-15,1862814,2019-11-06 16:37:23:276,-0.7015,2.8066,9.9911,-0.0091,0.0196,9.8065,0.0568,-0.2921,0.1693,-23.87,-36.94,0.63,212.54,-88.41,121.46
3903,53.180042,-1.656302,184.03,12.97,6,91.63,16 / 17,1862914,2019-11-06 16:37:23:376,-1.3971,6.31,9.715,-0.02,0.0567,9.8064,0.0012,-0.2898,0.167,-24.25,-36.94,0.56,201.44,-88.41,109.94
3904,53.180042,-1.656302,184.03,12.97,6,91.63,16 / 17,1863013,2019-11-06 16:37:23:475,-1.4537,-2.9504,10.6441,-0.03,0.0668,9.8064,0.0722,-0.4459,0.3323,-23.37,-36.5,0.31,194.84,-88.57,105.4
3905,53.180042,-1.656302,184.03,12.97,6,91.63,16 / 17,1863113,2019-11-06 16:37:23:575,-0.2732,3.3807,9.6497,0.0032,0.0337,9.8066,0.0392,-0.0616,0.0227,-22.94,-36.62,3.5,212.94,-88.67,114.22
3906,53.180042,-1.656302,184.03,12.97,6,91.63,16 / 17,1863214,2019-11-06 16:37:23:676,-2.5754,-2.0336,10.1534,0.0285,0.0582,9.8064,0.0779,-0.2946,0.2882,-24.81,-37.0,21.75,242.18,-88.43,112.36
3907,53.180042,-1.656302,184.03,12.97,6,91.63,16 / 17,1863314,2019-11-06 16:37:23:776,-0.0356,2.1371,9.2581,-0.0175,0.0282,9.8065,0.0247,0.1396,-0.0518,-41.81,-41.62,9.38,217.36,-88.58,116.1
3908,53.180042,-1.656302,184.03,12.97,6,91.63,16 / 17,1863414,2019-11-06 16:37:23:876,-0.4744,-2.9073,9.4068,-0.0187,0.0433,9.8065,0.0442,-0.1398,0.0983,-28.0,-38.81,-2.81,191.99,-88.37,108.57
3909,53.180042,-1.656302,184.03,12.97,6,91.63,16 / 17,1863514,2019-11-06 16:37:23:976,-1.2284,0.3661,10.2954,0.0011,-0.005,9.8066,0.0094,0.3838,-0.164,-24.75,-38.62,-2.12,193.95,-88.27,109.17
3910,53.180042,-1.656302,184.03,12.97,6,91.63,16 / 17,1863614,2019-11-06 16:37:24:076,-1.5479,1.5061,9.3688,0.0161,0.02,9.8066,-0.0604,0.1843,-0.044,-24.37,-38.06,-2.37,195.08,-87.98,110.67
3911,53.180042,-1.656302,184.03,12.97,6,91.63,16 / 17,1863714,2019-11-06 16:37:24:176,-3.0558,0.2432,10.1204,0.0071,0.0119,9.8066,-0.0513,0.1156,-0.0067,-25.5,-38.69,-3.19,192.57,-87.83,110.14
3912,53.180042,-1.656302,184.03,12.97,6,91.63,16 / 17,1863814,2019-11-06 16:37:24:276,-1.273,-0.9176,10.4746,-0.0005,0.0233,9.8066,0.0266,-0.0271,0.0179,-34.75,-40.87,0.63,200.15,-87.61,109.46
3913,53.180042,-1.656302,184.03,12.97,6,91.63,14 / 15,1863914,2019-11-06 16:37:24:376,-0.8719,0.5172,9.8307,0.0055,-0.0056,9.8066,-0.0513,0.1136,0.0045,-32.56,-39.56,27.44,236.81,-87.46,109.49
3914,53.180042,-1.656302,184.03,12.97,6,91.63,14 / 15,1864013,2019-11-06 16:37:24:475,0.2694,2.7672,9.0409,0.0166,-0.0144,9.8066,-0.0083,0.1955,-0.0005,-22.0,-35.44,7.19,217.5,-87.49,112.14
3915,53.180042,-1.656302,184.03,12.97,6,91.63,14 / 15,1864114,2019-11-06 16:37:24:576,-1.6093,2.5987,10.3805,-0.0064,0.0453,9.8065,0.0294,-0.4042,0.1607,-22.06,-37.06,0.13,198.88,-87.26,110.35
3916,53.180042,-1.656302,184.03,12.97,6,91.63,14 / 15,1864214,2019-11-06 16:37:24:676,-1.1321,-4.1607,9.3678,-0.0002,0.0525,9.8064,-0.0061,-0.4437,0.3854,-22.0,-37.5,-1.75,192.92,-87.29,109.12
3917,53.180042,-1.656302,184.03,12.97,6,91.63,14 / 15,1864313,2019-11-06 16:37:24:775,-1.748,0.6856,8.8737,0.0074,0.0616,9.8064,-0.092,-0.155,0.2107,-21.75,-37.75,-2.0,195.44,-87.62,111.7
3918,53.180042,-1.656302,184.03,12.97,6,91.63,14 / 15,1864414,2019-11-06 16:37:24:876,1.8621,-3.6619,11.9238,-0.0547,0.0239,9.8064,0.19,-0.5269,0.1542,-21.5,-37.12,-2.19,189.69,-87.48,105.87
3919,53.180042,-1.656302,184.03,12.97,6,91.63,14 / 15,1864514,2019-11-06 16:37:24:976,-2.6719,0.5108,9.0949,-0.0387,-0.0019,9.8065,0.1503,0.2177,-0.212,-21.19,-37.12,0.13,196.42,-87.43,107.69
