,GPS LATITUDE (degrees), GPS LONGITUDE (degrees), GPS ALTITUDE (m), GPS SPEED (Kmh), GPS ACCURACY (m), GPS ORIENTATION (Â°),GPS SATELLITES IN RANGE, TIME SINCE START (ms), DATE (YYYY-MO-DD HH-MI-SS_SSS), ACCELEROMETER X (m/s²) , ACCELEROMETER Y (m/s²), ACCELEROMETER Z (m/s²), GRAVITY X (m/s²), GRAVITY Y (m/s²), GRAVITY Z (m/s²), GYROSCOPE Yaw (rad/s), GYROSCOPE Pitch (rad/s), GYROSCOPE Roll (rad/s), MAGNETIC FIELD X (Î¼T), MAGNETIC FIELD Y (Î¼T), MAGNETIC FIELD Z (Î¼T), ORIENTATION (Yaw) (Â°), ORIENTATION (Pitch) (Â°), ORIENTATION (Roll ) (Â°)
92682,52.557674,-1.479738,141.14,20.71,3,115.88,26 / 26,9081810,2019-09-08 14:38:21:049,0.1493,0.4087,10.2371,-0.0416,-0.0021,9.8065,0.1067,0.0242,-0.0398,-21.44,-34.25,17.06,310.81,-76.64,-164.48
92683,52.557674,-1.479738,141.14,20.71,3,115.88,26 / 26,9081910,2019-09-08 14:38:21:149,-0.5378,-1.3649,11.3167,0.0441,-0.0254,9.8065,0.0264,0.0162,-0.0665,-20.5,-33.5,17.19,312.41,-76.62,-164.58
92684,52.557674,-1.479738,141.14,20.71,3,115.88,26 / 26,9082010,2019-09-08 14:38:21:249,-1.7843,0.9326,9.2616,0.0488,-0.036,9.8064,0.0357,0.0527,-0.0352,-21.19,-33.81,17.5,312.39,-76.46,-164.94
92685,52.557674,-1.479738,141.14,20.71,3,115.88,26 / 26,9082111,2019-09-08 14:38:21:350,-1.6904,1.5983,9.3099,-0.0237,0.0163,9.8065,-0.0626,-0.0752,0.0117,-21.06,-34.56,17.5,312.33,-76.59,-164.76
92686,52.557674,-1.479738,141.14,20.71,3,115.88,26 / 26,9082210,2019-09-08 14:38:21:449,-2.3608,1.318,8.5522,-0.0046,0.01,9.8066,-0.1207,-0.0095,-0.0196,-21.19,-34.0,16.88,310.43,-76.72,-164.88
92687,52.557674,-1.479738,141.14,20.71,3,115.88,26 / 26,9082310,2019-09-08 14:38:21:549,0.7296,-1.1976,9.8516,-0.0242,0.0244,9.8065,0.2626,-0.0919,0.0418,-21.0,-34.37,16.88,310.2,-76.88,-165.24
92688,52.557674,-1.479738,141.14,20.71,3,115.88,26 / 26,9082410,2019-09-08 14:38:21:649,1.5116,-0.7125,10.1647,-0.0082,-0.0101,9.8065,0.0997,0.0516,-0.0719,-20.75,-33.81,17.63,312.38,-76.78,-165.29
92689,52.557674,-1.479738,141.14,20.71,3,115.88,26 / 26,9082510,2019-09-08 14:38:21:749,-0.9029,-0.0956,10.9071,0.0014,-0.023,9.8065,0.0811,-0.0101,-0.0316,-21.31,-34.12,17.31,309.94,-76.85,-165.42
92690,52.557674,-1.479738,141.14,20.71,3,115.88,26 / 26,9082610,2019-09-08 14:38:21:849,-0.51,0.4517,10.2678,0.0182,-0.0106,9.8065,0.0682,-0.0493,0.0004,-21.56,-33.87,16.88,309.72,-76.83,-164.64
92691,52.557674,-1.479738,141.14,20.71,3,115.88,26 / 26,9082710,2019-09-08 14:38:21:949,0.2404,-0.5508,10.48,0.0151,-0.0057,9.8066,0.0767,0.0228,0.0157,-21.25,-33.81,17.19,311.21,-76.99,-164.56
92692,52.557674,-1.479738,141.14,20.71,3,115.88,26 / 26,9082810,2019-09-08 14:38:22:049,0.0001,1.6395,8.7816,0.0549,-0.0162,9.8065,-0.228,0.0547,-0.0153,-20.62,-33.87,17.25,310.11,-76.77,-165.19
92693,52.557674,-1.479738,141.14,20.71,3,115.88,26 / 26,9082910,2019-09-08 14:38:22:149,0.4011,0.9005,9.8138,-0.035,0.0309,9.8065,0.2221,-0.0225,-0.0168,-20.37,-34.0,18.06,313.62,-77.04,-165.63
92694,52.557674,-1.479738,141.14,20.71,3,115.88,26 / 26,9083010,2019-09-08 14:38:22:249,-0.0429,-0.1822,9.8831,-0.0468,0.0481,9.8063,0.0352,-0.086,0.072,-20.62,-33.81,17.44,309.34,-76.99,-166.07
92695,52.557674,-1.479738,141.14,20.71,3,115.88,26 / 26,9083110,2019-09-08 14:38:22:349,0.3161,0.1027,9.9483,0.0324,-0.0149,9.8066,0.019,-0.0446,0.0145,-20.87,-33.75,16.88,309.37,-76.91,-165.95
92696,52.557674,-1.479738,141.14,20.71,3,115.88,26 / 26,9083210,2019-09-08 14:38:22:449,-0.8933,1.1274,9.2271,0.0274,-0.0282,9.8065,-0.0364,0.0518,-0.0366,-20.69,-34.37,17.56,311.66,-76.68,-165.77
92697,52.557674,-1.479738,141.14,20.71,3,115.88,26 / 26,9083310,2019-09-08 14:38:22:549,-0.1373,0.4435,9.6353,0.0037,-0.0073,9.8066,-0.1057,0.0041,0.0105,-20.56,-34.19,17.19,309.71,-76.89,-165.65
92698,52.557674,-1.479738,141.14,20.71,3,115.88,26 / 26,9083410,2019-09-08 14:38:22:649,-1.1042,1.0683,9.28,0.0446,-0.0204,9.8065,-0.3085,0.0356,0.0,-20.87,-34.31,17.38,309.39,-76.76,-165.76
92699,52.557674,-1.479738,141.14,20.71,3,115.88,26 / 26,9083511,2019-09-08 14:38:22:750,0.1496,-0.4223,10.0283,-0.0411,0.0252,9.8065,0.254,-0.0956,0.0639,-21.12,-34.19,17.25,309.99,-77.06,-165.62
92700,52.557674,-1.479738,141.14,20.71,3,115.88,26 / 26,9083610,2019-09-08 14:38:22:849,0.9194,0.7828,10.397,-0.0354,-0.002,9.8066,0.1549,0.1128,-0.1067,-20.69,-34.06,16.81,310.53,-76.94,-165.05
92701,52.557674,-1.479738,141.14,20.71,3,115.88,23 / 23,9083710,2019-09-08 14:38:22:949,0.4267,0.6354,10.0017,0.0381,-0.021,9.8065,-0.184,0.0644,0.0183,-21.12,-33.75,16.63,310.49,-77.1,-165.25
92702,52.557674,-1.479738,141.14,20.71,3,115.88,23 / 23,9083810,2019-09-08 14:38:23:049,-0.7321,1.0335,10.1961,0.0325,-0.0238,9.8065,-0.1569,0.1202,-0.0641,-20.75,-34.0,17.44,310.29,-76.83,-165.11
92703,52.557674,-1.479738,141.14,20.71,3,115.88,23 / 23,9083910,2019-09-08 14:38:23:149,-0.3369,0.7394,9.0695,-0.0098,0.0043,9.8066,-0.0643,0.0065,-0.025,-20.87,-34.19,16.81,310.41,-77.0,-165.21
92704,52.557674,-1.479738,141.14,20.71,3,115.88,23 / 23,9084010,2019-09-08 14:38:23:249,-1.5097,0.1672,9.7715,0.0147,-0.0031,9.8065,-0.2025,-0.0204,-0.0263,-20.87,-33.87,17.44,310.13,-76.98,-165.42
92705,52.557674,-1.479738,141.14,20.71,3,115.88,23 / 23,9084109,2019-09-08 14:38:23:348,-0.9987,0.4174,9.9686,0.0071,-0.0053,9.8066,0.2741,0.0227,-0.0127,-20.62,-33.75,17.5,311.96,-76.94,-165.79
92706,52.557674,-1.479738,141.14,20.71,3,115.88,23 / 23,9084209,2019-09-08 14:38:23:448,1.4873,-1.5324,10.3918,0.004,-0.0048,9.8065,0.1159,-0.0441,0.0181,-19.87,-33.94,17.69,313.45,-76.97,-165.69
92707,52.557674,-1.479738,141.14,20.71,3,115.88,23 / 23,9084310,2019-09-08 14:38:23:549,-0.1159,0.4065,10.1847,0.032,-0.003,9.8065,-0.1375,-0.0213,0.0247,-20.75,-33.87,17.5,312.12,-77.08,-165.82
92708,52.557674,-1.479738,141.14,20.71,3,115.88,23 / 23,9084410,2019-09-08 14:38:23:649,0.4318,0.7825,9.3378,0.0627,-0.0438,9.8063,-0.2579,0.0296,-0.0425,-20.0,-35.06,17.38,309.24,-76.78,-166.48
92709,52.557674,-1.479738,141.14,20.71,3,115.88,23 / 23,9084510,2019-09-08 14:38:23:749,-0.068,-0.5,9.2736,-0.0628,0.0206,9.8064,0.289,0.0146,0.0617,-19.81,-34.31,17.44,309.51,-76.81,-166.72
92710,52.557674,-1.479738,141.14,20.71,3,115.88,23 / 23,9084610,2019-09-08 14:38:23:849,-0.1675,-0.9224,10.3709,-0.0704,0.0369,9.8063,0.1656,-0.066,0.0395,-20.25,-34.5,16.69,311.04,-77.17,-165.89
92711,52.557674,-1.479738,141.14,20.71,3,115.88,26 / 26,9084710,2019-09-08 14:38:23:949,1.0721,-0.2799,10.6737,0.0692,-0.0361,9.8063,-0.1061,-0.0449,-0.0064,-21.19,-34.31,17.06,309.17,-76.78,-165.96
92712,52.557674,-1.479738,141.14,20.71,3,115.88,26 / 26,9084810,2019-09-08 14:38:24:049,-0.656,0.1583,8.6027,0.0597,-0.0343,9.8064,-0.0391,-0.0555,-0.021,-20.75,-33.56,17.25,309.58,-76.88,-165.75
92713,52.557674,-1.479738,141.14,20.71,3,115.88,26 / 26,9084910,2019-09-08 14:38:24:149,-0.5645,-0.2199,8.7241,-0.0498,0.0402,9.8064,-0.051,-0.0517,-0.0147,-20.25,-34.31,17.44,310.56,-76.91,-165.98
92714,52.557674,-1.479738,141.14,20.71,3,115.88,26 / 26,9085010,2019-09-08 14:38:24:249,-0.8284,1.9755,9.1836,-0.027,0.0145,9.8065,-0.0345,-0.0314,-0.1215,-21.25,-33.81,16.81,309.36,-77.26,-166.36
92715,52.557674,-1.479738,141.14,20.71,3,115.88,26 / 26,9085110,2019-09-08 14:38:24:349,0.3106,-0.1973,11.2875,0.029,-0.0046,9.8065,0.0997,-0.0333,-0.0041,-20.81,-34.37,17.0,308.67,-77.13,-166.77
92716,52.557674,-1.479738,141.14,20.71,3,115.88,26 / 26,9085210,2019-09-08 14:38:24:449,0.756,-0.8837,10.5671,-0.0042,-0.0051,9.8066,0.268,-0.021,0.0213,-20.62,-33.69,17.0,308.07,-77.04,-167.16
92717,52.557674,-1.479738,141.14,20.71,3,115.88,26 / 26,9085310,2019-09-08 14:38:24:549,0.8837,-0.1984,9.6573,0.0022,0.0078,9.8066,-0.3069,-0.0029,-0.0083,-20.81,-34.44,17.0,308.7,-77.02,-166.62
92718,52.557674,-1.479738,141.14,20.71,3,115.88,26 / 26,9085410,2019-09-08 14:38:24:649,-1.4761,0.57,8.8384,-0.0012,0.0135,9.8066,-0.2656,0.0094,0.0047,-21.19,-34.31,17.25,308.34,-77.11,-167.01
92719,52.557674,-1.479738,141.14,20.71,3,115.88,26 / 26,9085510,2019-09-08 14:38:24:749,0.0264,-0.0487,9.715,-0.0294,0.0136,9.8066,0.1957,-0.0145,-0.0244,-20.87,-34.19,16.81,307.79,-77.11,-167.46
92720,52.557674,-1.479738,141.14,20.71,3,115.88,26 / 26,9085610,2019-09-08 14:38:24:849,0.5098,-0.0894,10.3507,-0.0381,0.0172,9.8065,0.3269,0.0119,-0.067,-20.44,-34.12,17.38,309.41,-77.35,-167.41
92721,52.557674,-1.479738,141.14,20.71,3,115.88,26 / 26,9085710,2019-09-08 14:38:24:949,1.2307,1.4148,9.3366,0.0548,-0.0367,9.8064,-0.2044,0.0431,-0.0312,-20.19,-34.37,17.25,309.15,-77.45,-167.74
92722,52.557674,-1.479738,141.14,20.71,3,115.88,26 / 26,9085810,2019-09-08 14:38:25:049,-0.5774,0.4824,9.0095,0.0534,-0.021,9.8064,-0.2271,-0.036,0.1497,-20.75,-34.06,17.0,307.5,-77.05,-167.63
92723,52.557674,-1.479738,141.14,20.71,3,115.88,26 / 26,9085910,2019-09-08 14:38:25:149,-2.4722,1.9663,9.1345,-0.0666,0.0336,9.8063,0.2386,-0.068,0.163,-21.12,-33.81,17.25,309.37,-77.55,-166.67
92724,52.557674,-1.479738,141.14,20.71,3,115.88,26 / 26,9086010,2019-09-08 14:38:25:249,-0.205,-0.0634,10.9636,-0.0826,0.0285,9.8062,0.2759,0.0205,-0.0443,-20.5,-33.37,16.94,311.7,-77.57,-166.17
92725,52.557674,-1.479738,141.14,20.71,3,115.88,26 / 26,9086110,2019-09-08 14:38:25:349,-0.2123,-0.4016,11.0888,0.0451,-0.0143,9.8065,0.0884,0.0277,0.0212,-21.06,-33.06,16.44,307.27,-77.44,-166.67
92726,52.557674,-1.479738,141.14,20.71,3,115.88,26 / 26,9086210,2019-09-08 14:38:25:449,2.2666,0.6351,10.5978,0.0691,-0.0455,9.8062,0.0053,0.1483,-0.0258,-22.56,-32.75,16.25,303.98,-76.98,-167.21
92727,52.557674,-1.479738,141.14,20.71,3,115.88,26 / 26,9086310,2019-09-08 14:38:25:549,-1.726,1.6596,8.6128,-0.1008,0.0262,9.8061,-0.0097,0.0633,0.0447,-22.5,-33.37,17.19,306.94,-76.93,-167.43
92728,52.557674,-1.479738,141.14,20.71,3,115.88,26 / 26,9086410,2019-09-08 14:38:25:649,-0.1215,-2.1516,9.4437,-0.0796,0.0525,9.8061,-0.0284,-0.1506,0.1043,-21.94,-33.69,17.81,311.17,-77.62,-166.17
92729,52.557674,-1.479738,141.14,20.71,3,115.88,26 / 26,9086510,2019-09-08 14:38:25:749,-0.3897,-1.8682,10.4584,0.0516,-0.0224,9.8065,0.0221,0.091,-0.136,-21.56,-33.81,17.56,310.35,-77.28,-166.49
92730,52.557674,-1.479738,141.14,20.71,3,115.88,26 / 26,9086610,2019-09-08 14:38:25:849,-1.063,1.2384,9.5974,0.0614,-0.0183,9.8064,-0.0743,0.009,0.0529,-21.12,-33.81,16.75,308.43,-77.34,-167.2
92731,52.557674,-1.479738,141.14,20.71,3,115.88,26 / 26,9086710,2019-09-08 14:38:25:949,-1.0235,1.1523,9.3404,-0.0315,0.0151,9.8065,-0.0351,-0.033,-0.0828,-20.87,-34.06,17.75,311.0,-77.4,-167.07
92732,52.557674,-1.479738,141.14,20.71,3,115.88,26 / 26,9086810,2019-09-08 14:38:26:049,-1.6721,-0.6453,9.449,-0.0319,0.0484,9.8064,0.0308,-0.0466,0.0196,-20.62,-34.31,17.25,308.39,-77.69,-167.64
92733,52.557674,-1.479738,141.14,20.71,3,115.88,26 / 26,9086910,2019-09-08 14:38:26:149,1.1894,1.3111,10.4844,0.041,-0.0286,9.8064,0.0568,0.1211,-0.1054,-21.19,-34.19,17.06,307.29,-77.82,-168.69
92734,52.557674,-1.479738,141.14,20.71,3,115.88,26 / 26,9087010,2019-09-08 14:38:26:249,0.2016,-1.7051,9.8645,0.0049,0.0036,9.8066,0.0822,-0.1061,0.1254,-20.75,-34.44,16.75,306.71,-77.65,-168.99
92735,52.557674,-1.479738,141.14,20.71,3,115.88,26 / 26,9087110,2019-09-08 14:38:26:349,1.1939,1.5313,8.9371,-0.0407,0.0381,9.8064,0.0166,-0.2005,0.1679,-20.25,-34.5,17.31,308.88,-77.9,-168.48
92736,52.557674,-1.479738,141.14,20.71,3,115.88,26 / 26,9087210,2019-09-08 14:38:26:449,0.4714,-1.0615,10.2772,-0.0407,-0.0102,9.8065,-0.1119,-0.0114,-0.0709,-20.81,-34.69,16.94,308.67,-77.94,-167.34
92737,52.557674,-1.479738,141.14,20.71,3,115.88,26 / 26,9087310,2019-09-08 14:38:26:549,-0.291,-1.6157,11.8584,0.0401,-0.0601,9.8064,0.032,0.0761,-0.099,-20.69,-34.19,16.75,310.54,-78.05,-166.26
92738,52.557674,-1.479738,141.14,20.71,3,115.88,26 / 26,9087410,2019-09-08 14:38:26:649,-0.0814,-1.317,11.8901,0.0447,-0.0365,9.8064,0.2454,-0.0757,0.0679,-21.19,-33.5,17.31,311.01,-77.5,-165.63
92739,52.557674,-1.479738,141.14,20.71,3,115.88,26 / 26,9087510,2019-09-08 14:38:26:749,-1.5919,0.3242,9.7929,0.0185,-0.0035,9.8066,-0.2544,0.0199,0.0008,-21.19,-34.0,17.13,310.78,-77.36,-165.31
92740,52.557674,-1.479738,141.14,20.71,3,115.88,26 / 26,9087610,2019-09-08 14:38:26:849,-1.9179,0.1106,10.4002,-0.0037,0.0118,9.8066,-0.1167,-0.026,0.0994,-21.0,-33.87,17.25,309.9,-77.31,-165.97
92741,52.557674,-1.479738,141.14,20.71,3,115.88,25 / 25,9087710,2019-09-08 14:38:26:949,0.1771,-0.4519,9.8943,-0.0139,0.0065,9.8066,0.223,0.0064,0.0211,-20.62,-34.06,17.5,312.62,-77.42,-165.77
92742,52.557674,-1.479738,141.14,20.71,3,115.88,25 / 25,9087810,2019-09-08 14:38:27:049,1.0135,0.2129,9.8964,0.0043,-0.0105,9.8066,0.1255,0.0385,-0.0999,-20.75,-34.62,17.88,312.18,-77.39,-165.75
92743,52.557674,-1.479738,141.14,20.71,3,115.88,25 / 25,9087910,2019-09-08 14:38:27:149,0.3232,-0.1606,8.7022,0.0,0.006,9.8065,-0.0264,-0.0434,0.0367,-20.0,-34.37,17.94,313.65,-77.49,-166.08
92744,52.557674,-1.479738,141.14,20.71,3,115.88,25 / 25,9088010,2019-09-08 14:38:27:249,-0.8517,0.4732,9.5325,0.0119,-0.0085,9.8065,-0.1194,-0.0082,0.0613,-19.94,-34.87,16.69,310.71,-77.41,-166.05
92745,52.557674,-1.479738,141.14,20.71,3,115.88,25 / 25,9088110,2019-09-08 14:38:27:349,-1.281,0.5883,10.1765,-0.0109,-0.0099,9.8066,0.1148,0.0475,0.0726,-20.25,-33.87,16.06,308.46,-77.42,-166.24
92746,52.557674,-1.479738,141.14,20.71,3,115.88,25 / 25,9088210,2019-09-08 14:38:27:449,-1.6384,1.1411,9.9851,0.0188,-0.0203,9.8066,0.0426,-0.016,0.008,-21.0,-33.75,17.13,310.47,-77.31,-165.51
92747,52.557674,-1.479738,141.14,20.71,3,115.88,25 / 25,9088310,2019-09-08 14:38:27:549,-1.8987,-0.3648,10.276,-0.0048,0.0004,9.8065,-0.0114,-0.0103,-0.1213,-20.87,-33.87,17.44,311.02,-77.31,-165.06
92748,52.557674,-1.479738,141.14,20.71,3,115.88,25 / 25,9088410,2019-09-08 14:38:27:649,-1.4291,-0.8184,9.9603,-0.0282,0.0327,9.8065,0.1118,-0.071,0.069,-20.75,-34.0,17.19,310.37,-77.46,-165.75
92749,52.557674,-1.479738,141.14,20.71,3,115.88,25 / 25,9088510,2019-09-08 14:38:27:749,1.4048,-0.5168,10.9121,0.0468,-0.0312,9.8064,-0.0552,0.0627,0.0176,-21.31,-34.0,17.31,309.94,-77.66,-166.32
92750,52.557674,-1.479738,141.14,20.71,3,115.88,25 / 25,9088610,2019-09-08 14:38:27:849,0.7978,0.491,10.344,0.0378,-0.0234,9.8065,-0.0422,0.0405,-0.0258,-21.0,-33.81,16.75,309.3,-77.35,-166.5
92751,52.557674,-1.479738,141.14,20.71,3,115.88,23 / 23,9088710,2019-09-08 14:38:27:949,-1.0561,1.3276,8.5137,-0.0623,0.0334,9.8063,0.0156,-0.067,0.0683,-21.5,-34.56,17.25,308.62,-77.35,-166.68
92752,52.557674,-1.479738,141.14,20.71,3,115.88,23 / 23,9088809,2019-09-08 14:38:28:048,-0.3764,-0.6168,10.1742,-0.0624,0.0105,9.8064,0.0576,-0.0543,-0.0644,-21.87,-35.37,17.06,309.29,-77.76,-165.67
92753,52.557674,-1.479738,141.14,20.71,3,115.88,23 / 23,9088910,2019-09-08 14:38:28:149,-0.5919,0.0098,10.5169,0.0132,0.0051,9.8066,0.0254,0.0258,-0.0123,-21.37,-34.75,17.75,312.3,-77.59,-165.87
92754,52.557674,-1.479738,141.14,20.71,3,115.88,23 / 23,9089010,2019-09-08 14:38:28:249,2.4546,-0.467,10.3385,0.0184,-0.0159,9.8065,0.0972,0.0518,-0.018,-20.94,-34.06,18.56,314.69,-77.5,-165.99
92755,52.557674,-1.479738,141.14,20.71,3,115.88,23 / 23,9089110,2019-09-08 14:38:28:349,-0.7497,0.2365,9.9086,-0.0443,0.0224,9.8065,-0.0446,-0.0442,-0.0002,-21.12,-34.12,17.56,312.13,-77.31,-166.06
92756,52.557674,-1.479738,141.14,20.71,3,115.88,23 / 23,9089210,2019-09-08 14:38:28:449,-0.317,-0.319,9.5963,-0.0511,0.0259,9.8065,0.0086,-0.0544,0.0553,-20.87,-33.87,18.13,313.08,-77.68,-165.67
92757,52.557674,-1.479738,141.14,20.71,3,115.88,23 / 23,9089310,2019-09-08 14:38:28:549,1.1341,0.4343,11.0461,0.0853,-0.0185,9.8062,-0.2198,-0.0143,0.0985,-21.0,-33.5,18.0,314.1,-77.77,-165.27
92758,52.557674,-1.479738,141.14,20.71,3,115.88,23 / 23,9089410,2019-09-08 14:38:28:649,-0.9942,-0.5147,8.0255,0.1414,-0.1025,9.805,-0.4568,0.0607,-0.1577,-21.0,-33.69,18.19,311.26,-77.11,-166.55
92759,52.557674,-1.479738,141.14,20.71,3,115.88,23 / 23,9089510,2019-09-08 14:38:28:749,-1.6903,1.2218,8.8109,-0.0977,0.0508,9.8059,0.1884,-0.0625,0.0459,-20.75,-34.31,17.38,310.86,-77.96,-165.9
92760,52.557674,-1.479738,141.14,20.71,3,115.88,23 / 23,9089610,2019-09-08 14:38:28:849,-0.7921,-0.8748,10.013,-0.065,0.0417,9.8063,0.1632,-0.0703,0.0513,-20.75,-34.12,17.75,313.18,-77.93,-165.85
92761,52.55689,-1.47709,141.95,23.27,2,115.99,25 / 25,9089710,2019-09-08 14:38:28:949,-0.0711,0.8632,10.3365,0.0469,-0.0168,9.8064,-0.083,0.0303,-0.0635,-20.69,-33.81,17.94,313.02,-77.79,-165.84
92762,52.55689,-1.47709,141.95,23.27,2,115.99,25 / 25,9089809,2019-09-08 14:38:29:048,-0.5427,-0.4324,10.8224,0.0136,0.0135,9.8066,0.0255,0.0327,-0.0511,-20.75,-33.44,18.0,311.8,-77.52,-166.89
92763,52.55689,-1.47709,141.95,23.27,2,115.99,25 / 25,9089910,2019-09-08 14:38:29:149,-0.2001,0.8228,9.7607,0.0083,-0.0213,9.8066,0.0086,-0.0336,0.1646,-20.56,-33.94,18.25,311.94,-77.45,-166.36
92764,52.55689,-1.47709,141.95,23.27,2,115.99,25 / 25,9090009,2019-09-08 14:38:29:248,1.1875,-0.5119,9.8264,-0.0021,0.0021,9.8065,-0.1495,0.1265,-0.0884,-21.12,-34.06,18.56,314.08,-77.56,-166.54
92765,52.55689,-1.47709,141.95,23.27,2,115.99,25 / 25,9090110,2019-09-08 14:38:29:349,-1.7626,-0.2895,10.5563,0.0024,-0.0103,9.8066,-0.1208,-0.0474,0.1241,-20.94,-33.75,17.5,312.3,-77.61,-166.24
92766,52.55689,-1.47709,141.95,23.27,2,115.99,25 / 25,9090210,2019-09-08 14:38:29:449,0.2343,-1.1242,9.7277,0.0073,0.0,9.8066,-0.0316,-0.0352,0.0494,-21.37,-34.25,17.63,312.18,-77.59,-166.3
92767,52.55689,-1.47709,141.95,23.27,2,115.99,25 / 25,9090310,2019-09-08 14:38:29:549,-1.424,0.2484,9.5943,-0.0195,0.0169,9.8066,0.1227,0.005,0.0146,-20.87,-33.56,18.0,311.93,-77.44,-166.35
92768,52.55689,-1.47709,141.95,23.27,2,115.99,25 / 25,9090410,2019-09-08 14:38:29:649,1.9155,1.0677,9.8152,-0.0195,0.0004,9.8066,-0.19,-0.0609,0.0691,-21.0,-33.75,17.44,309.98,-77.68,-166.31
92769,52.55689,-1.47709,141.95,23.27,2,115.99,25 / 25,9090510,2019-09-08 14:38:29:749,-0.8562,1.7134,8.7545,0.0004,-0.0024,9.8066,-0.1836,0.0197,-0.0448,-20.56,-33.94,17.44,309.48,-77.77,-166.83
92770,52.55689,-1.47709,141.95,23.27,2,115.99,25 / 25,9090610,2019-09-08 14:38:29:849,-0.6148,-0.2075,9.4651,-0.0144,0.0245,9.8066,0.1659,-0.0366,-0.0571,-20.56,-33.94,17.5,311.98,-77.93,-166.82
92771,52.55689,-1.47709,141.95,23.27,2,115.99,26 / 26,9090710,2019-09-08 14:38:29:949,1.0658,-0.238,10.3221,0.0174,-0.0042,9.8066,0.0652,0.006,-0.0848,-20.5,-33.31,17.88,313.35,-77.81,-166.99
92772,52.55689,-1.47709,141.95,23.27,2,115.99,26 / 26,9090810,2019-09-08 14:38:30:049,0.0316,0.3383,9.4336,0.0065,-0.018,9.8066,-0.0045,0.0096,0.0326,-21.37,-33.94,17.44,309.52,-77.71,-166.73
92773,52.55689,-1.47709,141.95,23.27,2,115.99,26 / 26,9090910,2019-09-08 14:38:30:149,-0.6145,-0.6195,10.0712,-0.0205,0.0016,9.8065,0.0427,-0.0506,0.0705,-20.75,-33.75,17.25,309.62,-77.71,-166.64
92774,52.55689,-1.47709,141.95,23.27,2,115.99,26 / 26,9091010,2019-09-08 14:38:30:249,1.1904,-0.1641,9.4729,-0.0215,0.0146,9.8065,-0.0017,-0.0904,0.076,-20.81,-33.94,17.25,310.16,-77.91,-166.43
92775,52.55689,-1.47709,141.95,23.27,2,115.99,26 / 26,9091110,2019-09-08 14:38:30:349,0.0572,0.5595,10.11,0.0284,-0.0134,9.8065,0.1338,0.0606,-0.1278,-20.75,-33.69,17.44,309.51,-77.76,-166.79
92776,52.55689,-1.47709,141.95,23.27,2,115.99,26 / 26,9091210,2019-09-08 14:38:30:449,-1.8978,1.146,10.346,0.025,-0.0128,9.8066,-0.0622,0.0289,-0.0051,-20.62,-33.75,17.44,309.91,-77.71,-166.4
92777,52.55689,-1.47709,141.95,23.27,2,115.99,26 / 26,9091310,2019-09-08 14:38:30:549,-1.6981,1.8287,9.5302,-0.042,0.0413,9.8064,-0.2267,0.0347,-0.0211,-20.75,-33.87,17.13,309.64,-77.68,-166.59
92778,52.55689,-1.47709,141.95,23.27,2,115.99,26 / 26,9091410,2019-09-08 14:38:30:649,1.3959,-0.5213,9.0121,-0.0465,0.0343,9.8064,0.1587,-0.02,-0.0103,-20.5,-34.19,17.56,312.97,-78.05,-167.23
92779,52.55689,-1.47709,141.95,23.27,2,115.99,26 / 26,9091510,2019-09-08 14:38:30:749,1.0715,-0.0463,9.0067,0.0438,-0.0193,9.8064,0.0952,0.0243,-0.0022,-21.0,-33.94,17.19,309.08,-78.09,-167.51
92780,52.55689,-1.47709,141.95,23.27,2,115.99,26 / 26,9091610,2019-09-08 14:38:30:849,-0.3611,-0.1285,9.7775,0.0179,-0.02,9.8066,-0.0239,0.0531,-0.0108,-21.06,-34.37,17.5,311.54,-77.92,-167.18
92781,52.55689,-1.47709,141.95,23.27,2,115.99,25 / 25,9091710,2019-09-08 14:38:30:949,-0.4168,-0.5311,10.0915,-0.0404,0.0122,9.8065,0.0475,-0.1584,0.116,-20.44,-34.12,17.69,313.6,-78.14,-166.81
92782,52.55689,-1.47709,141.95,23.27,2,115.99,25 / 25,9091810,2019-09-08 14:38:31:049,0.7529,-1.6303,10.5547,-0.0274,0.0135,9.8065,0.0744,-0.0464,0.0291,-21.19,-33.94,18.5,314.2,-78.19,-167.07
92783,52.55689,-1.47709,141.95,23.27,2,115.99,25 / 25,9091910,2019-09-08 14:38:31:149,1.5282,0.3288,10.202,0.0635,-0.0159,9.8064,0.0647,0.0156,-0.1108,-21.12,-34.12,17.31,310.15,-78.32,-166.88
92784,52.55689,-1.47709,141.95,23.27,2,115.99,25 / 25,9092010,2019-09-08 14:38:31:249,-0.9364,-1.0342,10.418,0.0098,-0.0007,9.8065,0.0596,-0.07,0.0303,-20.37,-33.37,17.06,310.7,-78.19,-167.67
92785,52.55689,-1.47709,141.95,23.27,2,115.99,25 / 25,9092110,2019-09-08 14:38:31:349,-0.75,0.7614,10.0952,0.0186,-0.0164,9.8065,-0.0074,0.0078,0.052,-20.81,-33.94,17.63,311.43,-78.23,-167.6
92786,52.55689,-1.47709,141.95,23.27,2,115.99,25 / 25,9092210,2019-09-08 14:38:31:449,1.7385,-0.9816,9.4017,-0.0136,0.0025,9.8065,-0.1274,-0.0241,0.019,-20.81,-33.5,17.25,310.07,-78.17,-167.12
92787,52.55689,-1.47709,141.95,23.27,2,115.99,25 / 25,9092310,2019-09-08 14:38:31:549,0.0898,-1.0771,10.2698,-0.0099,0.0132,9.8066,-0.1038,-0.0204,-0.0756,-20.44,-33.81,17.44,311.34,-78.24,-166.85
92788,52.55689,-1.47709,141.95,23.27,2,115.99,25 / 25,9092410,2019-09-08 14:38:31:649,-0.5847,-0.0412,10.5641,-0.0229,0.0218,9.8066,0.2271,-0.0617,-0.0152,-21.12,-34.12,17.69,312.24,-78.24,-166.94
92789,52.55689,-1.47709,141.95,23.27,2,115.99,25 / 25,9092510,2019-09-08 14:38:31:749,0.3378,0.7615,10.0143,0.0187,-0.0038,9.8066,0.0767,0.0615,-0.0331,-20.69,-34.12,17.81,312.21,-78.27,-167.0
92790,52.55689,-1.47709,141.95,23.27,2,115.99,25 / 25,9092610,2019-09-08 14:38:31:849,-1.9123,0.2739,8.9617,0.0324,-0.0331,9.8065,-0.1796,-0.1279,0.1109,-21.37,-34.25,17.44,309.98,-78.15,-166.83
92791,52.55689,-1.47709,141.95,23.27,2,115.99,25 / 25,9092710,2019-09-08 14:38:31:949,-0.8205,0.6566,8.9992,-0.0465,0.0163,9.8065,-0.0105,-0.0036,-0.0125,-21.0,-33.87,17.38,310.16,-78.24,-166.78
92792,52.55689,-1.47709,141.95,23.27,2,115.99,25 / 25,9092810,2019-09-08 14:38:32:049,-0.027,-0.3387,9.589,-0.0584,0.0363,9.8064,0.1026,0.0104,0.0204,-20.81,-33.56,18.0,313.65,-78.61,-166.16
92793,52.55689,-1.47709,141.95,23.27,2,115.99,25 / 25,9092910,2019-09-08 14:38:32:149,-0.2731,1.3805,9.5539,0.036,-0.0267,9.8065,0.0074,0.149,-0.1097,-20.75,-33.62,17.88,313.02,-78.35,-166.41
92794,52.55689,-1.47709,141.95,23.27,2,115.99,25 / 25,9093009,2019-09-08 14:38:32:248,-0.8211,0.628,9.7867,0.0276,-0.0137,9.8066,0.0121,0.0468,0.0646,-21.5,-34.19,17.5,313.74,-78.28,-165.75
92795,52.55689,-1.47709,141.95,23.27,2,115.99,25 / 25,9093110,2019-09-08 14:38:32:349,0.3337,-0.3736,9.2349,-0.0127,0.0077,9.8066,0.0415,-0.0049,0.0262,-20.5,-34.12,17.63,315.29,-78.32,-165.62
92796,52.55689,-1.47709,141.95,23.27,2,115.99,25 / 25,9093210,2019-09-08 14:38:32:449,-0.6024,0.5839,9.9039,-0.0331,0.0086,9.8065,-0.0989,0.0153,0.0246,-20.62,-33.56,17.56,315.0,-78.53,-164.97
92797,52.55689,-1.47709,141.95,23.27,2,115.99,25 / 25,9093310,2019-09-08 14:38:32:549,-0.8719,-0.1154,9.818,-0.0183,0.0127,9.8065,-0.0656,-0.0653,0.0312,-20.75,-33.69,17.5,315.08,-78.5,-164.87
92798,52.55689,-1.47709,141.95,23.27,2,115.99,25 / 25,9093410,2019-09-08 14:38:32:649,-0.7868,-0.1749,9.5449,-0.0313,0.0259,9.8065,0.046,0.0161,0.0101,-21.0,-33.87,17.81,315.09,-78.7,-165.07
92799,52.55689,-1.47709,141.95,23.27,2,115.99,25 / 25,9093510,2019-09-08 14:38:32:749,-0.7795,-0.9906,9.5178,0.0338,-0.0002,9.8065,-0.002,0.0234,-0.0558,-20.62,-33.25,17.81,314.83,-78.66,-165.53
92800,52.55689,-1.47709,141.95,23.27,2,115.99,25 / 25,9093610,2019-09-08 14:38:32:849,-1.2983,2.2133,9.1669,0.0341,-0.0167,9.8065,0.022,-0.098,0.0851,-21.06,-33.12,16.94,312.15,-78.61,-165.86
92801,52.55689,-1.47709,141.95,23.27,2,115.99,24 / 25,9093710,2019-09-08 14:38:32:949,-1.3571,0.5516,8.6439,-0.0444,0.0222,9.8065,0.1269,0.0005,-0.0089,-21.0,-33.62,16.88,311.01,-78.62,-166.49
92802,52.55689,-1.47709,141.95,23.27,2,115.99,24 / 25,9093809,2019-09-08 14:38:33:048,0.6084,-0.4749,9.5327,-0.027,0.0277,9.8065,0.0418,0.082,0.0117,-20.25,-34.06,17.25,313.27,-79.01,-166.1
92803,52.55689,-1.47709,141.95,23.27,2,115.99,24 / 25,9093910,2019-09-08 14:38:33:149,0.2291,-1.0905,9.6493,0.0263,-0.0279,9.8065,0.1479,-0.0489,0.1359,-20.56,-33.81,16.75,312.9,-79.08,-165.41
92804,52.55689,-1.47709,141.95,23.27,2,115.99,24 / 25,9094010,2019-09-08 14:38:33:249,-1.0779,-0.2352,9.6687,0.01,-0.0115,9.8066,0.0257,-0.0019,-0.0345,-20.87,-33.75,17.0,313.8,-79.07,-164.65
92805,52.55689,-1.47709,141.95,23.27,2,115.99,24 / 25,9094109,2019-09-08 14:38:33:348,0.8438,-1.586,9.4194,-0.0026,-0.0058,9.8066,0.0535,-0.0767,0.0248,-21.25,-34.06,16.81,314.9,-79.15,-163.82
92806,52.55689,-1.47709,141.95,23.27,2,115.99,24 / 25,9094209,2019-09-08 14:38:33:448,-0.4798,-0.4329,9.6076,0.003,-0.0024,9.8065,-0.1296,-0.0193,0.0657,-21.31,-34.0,17.25,315.0,-79.27,-163.86
92807,52.55689,-1.47709,141.95,23.27,2,115.99,24 / 25,9094310,2019-09-08 14:38:33:549,-0.7877,1.4246,9.0328,-0.0329,0.023,9.8065,-0.0973,0.0606,0.0191,-21.5,-33.31,16.56,315.9,-79.21,-163.35
92808,52.55689,-1.47709,141.95,23.27,2,115.99,24 / 25,9094410,2019-09-08 14:38:33:649,0.4635,0.2604,10.3392,-0.0411,0.026,9.8065,0.1656,0.0335,-0.0826,-20.81,-34.19,16.19,314.29,-79.55,-162.82
92809,52.55689,-1.47709,141.95,23.27,2,115.99,24 / 25,9094510,2019-09-08 14:38:33:749,1.0487,-0.5098,10.0405,0.0263,-0.026,9.8065,0.2884,-0.0275,0.048,-20.69,-33.94,16.75,316.84,-79.52,-162.59
92810,52.55689,-1.47709,141.95,23.27,2,115.99,24 / 25,9094610,2019-09-08 14:38:33:849,-1.658,1.3524,10.177,0.0276,-0.0124,9.8065,0.0439,-0.0261,0.043,-20.5,-34.0,17.31,318.26,-79.4,-162.42
92811,52.55689,-1.47709,141.95,23.27,2,115.99,23 / 24,9094710,2019-09-08 14:38:33:949,-1.0453,-0.3485,10.3911,-0.0044,0.0167,9.8065,-0.0049,0.0734,-0.0515,-20.5,-33.56,16.75,318.7,-79.63,-162.28
92812,52.55689,-1.47709,141.95,23.27,2,115.99,23 / 24,9094810,2019-09-08 14:38:34:049,-0.0331,-0.4549,9.7144,-0.0166,0.0221,9.8065,0.2017,0.0501,-0.0435,-21.25,-34.25,17.44,317.67,-79.7,-162.07
92813,52.55689,-1.47709,141.95,23.27,2,115.99,23 / 24,9094910,2019-09-08 14:38:34:149,2.0626,0.5399,10.7902,0.0372,-0.0019,9.8065,0.1304,-0.0066,-0.0679,-20.69,-33.94,16.75,317.43,-79.66,-162.24
92814,52.55689,-1.47709,141.95,23.27,2,115.99,23 / 24,9095010,2019-09-08 14:38:34:249,-3.1532,1.2199,10.4995,0.0346,-0.0495,9.8064,-0.1823,-0.2242,0.2612,-21.0,-34.19,16.38,314.73,-79.37,-162.28
92815,52.55689,-1.47709,141.95,23.27,2,115.99,23 / 24,9095110,2019-09-08 14:38:34:349,0.9979,1.6849,8.4233,-0.0292,0.013,9.8066,-0.0798,0.0933,-0.1701,-20.87,-33.69,16.88,316.03,-79.5,-163.24
92816,52.55689,-1.47709,141.95,23.27,2,115.99,23 / 24,9095210,2019-09-08 14:38:34:449,-0.1924,-2.4018,10.2058,-0.0173,0.0181,9.8065,0.0733,0.0884,-0.1507,-21.06,-33.81,16.75,317.33,-79.71,-162.37
92817,52.55689,-1.47709,141.95,23.27,2,115.99,23 / 24,9095310,2019-09-08 14:38:34:549,-1.3566,0.4246,10.0231,0.0208,-0.0175,9.8065,0.1298,-0.0313,0.0576,-21.25,-33.87,16.69,318.07,-79.65,-161.71
92818,52.55689,-1.47709,141.95,23.27,2,115.99,23 / 24,9095410,2019-09-08 14:38:34:649,-1.4988,1.3849,9.4343,0.0146,-0.0169,9.8065,-0.124,-0.0205,0.101,-21.44,-34.31,16.94,318.77,-79.72,-161.19
92819,52.55689,-1.47709,141.95,23.27,2,115.99,23 / 24,9095510,2019-09-08 14:38:34:749,-0.0314,0.1761,9.5757,-0.0025,0.004,9.8066,0.1267,-0.0339,0.0452,-21.19,-33.87,16.0,316.79,-79.82,-161.03
92820,52.55689,-1.47709,141.95,23.27,2,115.99,23 / 24,9095610,2019-09-08 14:38:34:849,-0.0977,1.275,9.8519,-0.0043,0.0007,9.8066,-0.0722,0.0118,-0.0309,-21.19,-34.25,17.19,318.77,-79.8,-161.26
92821,52.55689,-1.47709,141.95,23.27,2,115.99,23 / 24,9095710,2019-09-08 14:38:34:949,-0.2666,1.4344,10.1269,-0.0032,0.0003,9.8066,0.0275,0.0831,-0.037,-21.06,-33.87,16.75,318.08,-79.73,-161.77
92822,52.55689,-1.47709,141.95,23.27,2,115.99,23 / 24,9095809,2019-09-08 14:38:35:048,-0.8114,-0.0123,9.3838,0.0112,0.0142,9.8065,-0.0141,0.008,-0.0752,-20.87,-34.5,17.06,317.6,-79.77,-162.21
92823,52.55689,-1.47709,141.95,23.27,2,115.99,23 / 24,9095910,2019-09-08 14:38:35:149,0.9964,0.2568,9.5277,-0.0138,0.0122,9.8066,0.0662,-0.0279,0.0289,-20.62,-33.87,16.44,314.99,-79.99,-162.69
92824,52.55689,-1.47709,141.95,23.27,2,115.99,23 / 24,9096010,2019-09-08 14:38:35:249,1.5364,-1.2976,9.381,-0.0145,0.0343,9.8065,-0.0795,0.05,-0.0659,-20.37,-34.0,16.81,317.76,-80.26,-163.66
92825,52.55689,-1.47709,141.95,23.27,2,115.99,23 / 24,9096110,2019-09-08 14:38:35:349,-0.3364,0.8076,9.441,-0.0029,0.0041,9.8066,-0.1338,-0.0407,0.0327,-20.75,-35.25,16.19,314.06,-80.35,-163.57
92826,52.55689,-1.47709,141.95,23.27,2,115.99,23 / 24,9096210,2019-09-08 14:38:35:449,-0.7216,-1.3232,10.9429,-0.0262,0.0034,9.8066,0.1979,-0.12,0.1087,-20.69,-34.69,16.63,316.58,-80.42,-163.43
92827,52.55689,-1.47709,141.95,23.27,2,115.99,23 / 24,9096310,2019-09-08 14:38:35:549,0.515,-0.321,10.9875,0.0318,-0.011,9.8065,0.0663,-0.0147,-0.0424,-20.75,-34.19,16.44,314.27,-80.32,-163.63
92828,52.55689,-1.47709,141.95,23.27,2,115.99,23 / 24,9096410,2019-09-08 14:38:35:649,1.9694,0.4699,8.9945,0.039,-0.0314,9.8065,-0.3343,-0.1351,0.0708,-21.06,-34.5,16.06,313.55,-80.03,-163.94
92829,52.55689,-1.47709,141.95,23.27,2,115.99,23 / 24,9096510,2019-09-08 14:38:35:749,0.0209,-0.0167,9.0359,-0.0601,0.0237,9.8064,-0.2901,-0.0371,-0.0992,-20.81,-34.44,16.94,317.45,-80.48,-163.0
92830,52.55689,-1.47709,141.95,23.27,2,115.99,23 / 24,9096610,2019-09-08 14:38:35:849,-1.146,-0.1948,10.543,-0.0588,0.0387,9.8063,0.2891,-0.012,-0.094,-20.56,-34.5,16.31,315.67,-80.59,-162.73
92831,52.55689,-1.47709,141.95,23.27,2,115.99,26 / 26,9096710,2019-09-08 14:38:35:949,0.9366,-0.8381,10.8686,0.1075,-0.0618,9.8058,0.3892,-0.0359,-0.0299,-20.5,-34.0,16.31,317.47,-80.74,-162.46
92832,52.55689,-1.47709,141.95,23.27,2,115.99,26 / 26,9096810,2019-09-08 14:38:36:049,-1.9285,1.6253,9.8024,0.0675,-0.0251,9.8063,-0.2292,-0.0188,-0.1176,-20.75,-33.75,16.25,314.09,-80.25,-163.72
92833,52.55689,-1.47709,141.95,23.27,2,115.99,26 / 26,9096910,2019-09-08 14:38:36:149,-0.3526,1.539,9.9836,-0.0238,0.0137,9.8066,-0.1607,0.0641,-0.1078,-21.25,-34.5,16.5,317.02,-80.51,-163.39
92834,52.55689,-1.47709,141.95,23.27,2,115.99,26 / 26,9097010,2019-09-08 14:38:36:249,-1.1008,-0.3571,9.8543,-0.022,0.0169,9.8066,0.043,0.0941,-0.1307,-21.06,-34.69,16.88,316.42,-80.4,-163.54
92835,52.55689,-1.47709,141.95,23.27,2,115.99,26 / 26,9097110,2019-09-08 14:38:36:349,0.3091,0.7708,9.6924,0.0126,-0.0098,9.8066,0.0479,-0.0099,-0.0002,-20.81,-34.56,16.81,315.17,-80.36,-164.55
92836,52.55689,-1.47709,141.95,23.27,2,115.99,26 / 26,9097210,2019-09-08 14:38:36:449,0.0208,0.5004,7.7988,0.0209,-0.0021,9.8066,-0.1333,0.006,0.0359,-20.25,-34.75,15.81,313.37,-80.23,-165.1
92837,52.55689,-1.47709,141.95,23.27,2,115.99,26 / 26,9097310,2019-09-08 14:38:36:549,-0.985,0.7393,8.886,-0.0801,0.0304,9.8062,-0.1197,-0.0135,0.052,-20.81,-34.19,15.75,313.07,-80.22,-164.55
92838,52.55689,-1.47709,141.95,23.27,2,115.99,26 / 26,9097410,2019-09-08 14:38:36:649,-1.2204,-0.826,10.074,-0.0379,0.0011,9.8065,0.055,-0.0667,0.134,-20.81,-34.62,15.81,315.91,-80.65,-162.33
92839,52.55689,-1.47709,141.95,23.27,2,115.99,26 / 26,9097510,2019-09-08 14:38:36:749,1.4462,-0.2006,9.6611,0.0232,-0.0128,9.8066,0.1027,0.057,-0.0171,-21.12,-34.5,15.5,316.68,-80.5,-161.79
92840,52.55689,-1.47709,141.95,23.27,2,115.99,26 / 26,9097610,2019-09-08 14:38:36:849,-0.2477,-0.3163,9.5682,0.01,0.0084,9.8066,0.1558,-0.0645,0.0219,-20.62,-34.5,16.38,317.01,-80.63,-161.64
92841,52.55689,-1.47709,141.95,23.27,2,115.99,26 / 26,9097710,2019-09-08 14:38:36:949,-0.4552,1.3824,9.7785,0.0312,0.006,9.8065,0.1794,-0.0266,-0.0817,-21.25,-34.19,16.0,317.06,-80.69,-161.65
92842,52.55689,-1.47709,141.95,23.27,2,115.99,26 / 26,9097810,2019-09-08 14:38:37:049,1.4481,-0.687,9.7599,0.0091,-0.003,9.8066,-0.1867,0.0287,-0.1066,-20.81,-34.19,16.0,315.56,-80.69,-162.92
92843,52.55689,-1.47709,141.95,23.27,2,115.99,26 / 26,9097910,2019-09-08 14:38:37:149,-1.2792,0.4065,10.1846,-0.0182,0.0189,9.8066,-0.0658,-0.1174,0.0188,-20.75,-34.31,16.0,314.3,-80.59,-163.88
92844,52.55689,-1.47709,141.95,23.27,2,115.99,26 / 26,9098010,2019-09-08 14:38:37:249,0.283,-1.2279,10.6093,-0.0557,0.0321,9.8064,0.0471,-0.0141,-0.0079,-21.25,-34.44,16.13,314.3,-80.9,-164.2
92845,52.55689,-1.47709,141.95,23.27,2,115.99,26 / 26,9098110,2019-09-08 14:38:37:349,0.2905,-0.764,9.7456,0.0161,-0.0115,9.8066,0.0015,0.0011,0.0716,-20.69,-34.87,15.81,314.98,-80.73,-163.2
92846,52.55689,-1.47709,141.95,23.27,2,115.99,26 / 26,9098210,2019-09-08 14:38:37:449,0.3737,1.1399,8.2798,-0.0272,-0.0027,9.8066,0.0843,-0.1013,0.0536,-20.75,-34.75,15.56,316.88,-80.97,-161.85
92847,52.55689,-1.47709,141.95,23.27,2,115.99,26 / 26,9098310,2019-09-08 14:38:37:549,-0.7221,-0.5341,9.7854,-0.0063,-0.0153,9.8066,-0.0249,-0.0553,-0.0433,-20.69,-34.44,16.25,317.62,-80.99,-161.48
92848,52.55689,-1.47709,141.95,23.27,2,115.99,26 / 26,9098410,2019-09-08 14:38:37:649,-0.8215,-0.0715,10.3823,-0.0054,0.0011,9.8066,-0.0087,0.0704,-0.0372,-21.06,-34.44,16.13,318.32,-80.89,-160.78
92849,52.55689,-1.47709,141.95,23.27,2,115.99,26 / 26,9098510,2019-09-08 14:38:37:749,0.1963,0.0649,9.9286,0.0363,-0.004,9.8065,0.137,-0.0203,-0.0163,-20.94,-34.56,16.69,319.75,-80.93,-161.26
92850,52.55689,-1.47709,141.95,23.27,2,115.99,26 / 26,9098610,2019-09-08 14:38:37:849,1.6707,-0.2546,9.2695,0.0322,-0.0166,9.8066,0.0217,-0.0316,0.0609,-21.0,-34.56,16.25,316.26,-80.91,-162.31
92851,52.556053,-1.47428,143.51,23.63,3,115.62,25 / 25,9098710,2019-09-08 14:38:37:949,1.024,-0.5413,9.8841,-0.0344,0.0145,9.8065,0.0097,-0.0057,-0.0143,-20.75,-34.25,15.94,316.83,-81.1,-162.25
92852,52.556053,-1.47428,143.51,23.63,3,115.62,25 / 25,9098810,2019-09-08 14:38:38:049,0.0313,1.1989,10.2079,0.001,-0.0031,9.8065,-0.1823,0.0103,-0.0408,-20.87,-34.12,15.75,317.57,-81.13,-161.65
92853,52.556053,-1.47428,143.51,23.63,3,115.62,25 / 25,9098910,2019-09-08 14:38:38:149,0.2646,-0.1196,9.3898,-0.0077,-0.0013,9.8065,-0.0884,0.0093,0.0275,-20.87,-34.87,16.19,317.15,-81.08,-161.72
92854,52.556053,-1.47428,143.51,23.63,3,115.62,25 / 25,9099010,2019-09-08 14:38:38:249,0.9587,-0.7414,9.5005,-0.0213,0.0209,9.8065,0.1599,-0.0546,-0.0393,-20.81,-34.69,16.13,317.23,-81.06,-161.63
92855,52.556053,-1.47428,143.51,23.63,3,115.62,25 / 25,9099110,2019-09-08 14:38:38:349,-0.2143,0.8429,10.4033,-0.0106,0.0126,9.8065,0.0581,-0.0212,-0.0718,-20.37,-34.37,16.38,318.33,-80.95,-161.95
92856,52.556053,-1.47428,143.51,23.63,3,115.62,25 / 25,9099211,2019-09-08 14:38:38:450,1.7437,-1.9393,10.1243,0.0233,-0.0162,9.8066,-0.5861,0.0404,-0.0911,-21.06,-34.56,15.56,316.49,-81.01,-162.21
92857,52.556053,-1.47428,143.51,23.63,3,115.62,25 / 25,9099309,2019-09-08 14:38:38:548,-1.1703,1.1225,8.562,-0.0464,-0.0004,9.8064,-0.3937,-0.121,0.1384,-20.69,-34.81,15.75,318.54,-81.29,-160.75
92858,52.556053,-1.47428,143.51,23.63,3,115.62,25 / 25,9099410,2019-09-08 14:38:38:649,-1.0885,-0.3387,9.2327,-0.0422,0.0202,9.8065,0.1405,0.043,-0.0427,-20.87,-34.56,15.81,318.44,-81.37,-160.92
92859,52.556053,-1.47428,143.51,23.63,3,115.62,25 / 25,9099510,2019-09-08 14:38:38:749,-0.6435,0.3136,10.4301,0.0113,-0.0118,9.8065,-0.0253,-0.0805,0.0374,-20.31,-34.25,15.81,321.05,-81.28,-159.98
92860,52.556053,-1.47428,143.51,23.63,3,115.62,25 / 25,9099610,2019-09-08 14:38:38:849,-0.9798,-0.2726,10.3128,0.0132,-0.0132,9.8065,-0.0749,-0.1564,0.0154,-21.06,-34.81,16.06,319.09,-81.05,-160.07
92861,52.556053,-1.47428,143.51,23.63,3,115.62,25 / 25,9099710,2019-09-08 14:38:38:949,0.5828,-1.2086,9.7289,-0.0212,0.0086,9.8066,-0.0157,-0.0677,-0.0168,-20.69,-34.06,15.88,318.86,-81.11,-160.53
92862,52.556053,-1.47428,143.51,23.63,3,115.62,25 / 25,9099810,2019-09-08 14:38:39:049,-0.0097,-1.0619,9.8575,-0.024,0.0464,9.8064,0.0139,0.003,-0.1153,-20.81,-34.5,16.13,317.02,-81.28,-162.26
92863,52.556053,-1.47428,143.51,23.63,3,115.62,25 / 25,9099910,2019-09-08 14:38:39:149,-0.9864,-0.4646,8.8277,0.0185,0.0256,9.8065,-0.1132,0.0169,-0.0704,-20.75,-34.44,15.81,315.75,-81.38,-163.45
92864,52.556053,-1.47428,143.51,23.63,3,115.62,25 / 25,9100010,2019-09-08 14:38:39:249,0.0687,0.2576,8.304,-0.0158,0.0108,9.8066,0.0769,-0.0838,0.0859,-20.31,-34.75,15.81,315.76,-81.66,-164.6
92865,52.556053,-1.47428,143.51,23.63,3,115.62,25 / 25,9100111,2019-09-08 14:38:39:350,-0.1092,-0.7798,9.6222,0.004,-0.0282,9.8066,0.1132,-0.0113,0.0224,-20.62,-34.5,15.38,313.2,-81.88,-164.21
92866,52.556053,-1.47428,143.51,23.63,3,115.62,25 / 25,9100210,2019-09-08 14:38:39:449,-0.5203,0.948,10.4279,0.0112,-0.0124,9.8066,-0.0707,0.0357,-0.0461,-21.0,-34.12,16.38,317.01,-81.68,-162.66
92867,52.556053,-1.47428,143.51,23.63,3,115.62,25 / 25,9100309,2019-09-08 14:38:39:548,0.1672,-0.9832,10.2647,0.0059,-0.0116,9.8066,0.0169,-0.0275,0.0597,-20.87,-34.25,15.81,318.27,-81.38,-161.29
92868,52.556053,-1.47428,143.51,23.63,3,115.62,25 / 25,9100410,2019-09-08 14:38:39:649,-0.5256,-2.3788,11.7342,-0.0308,-0.0159,9.8065,-0.1041,0.128,-0.0864,-20.94,-34.31,15.81,319.92,-81.39,-159.9
92869,52.556053,-1.47428,143.51,23.63,3,115.62,25 / 25,9100510,2019-09-08 14:38:39:749,-0.5927,-0.4843,9.6567,0.0621,-0.0417,9.8063,-0.0071,-0.1057,0.062,-20.87,-34.37,15.94,321.09,-81.56,-159.07
92870,52.556053,-1.47428,143.51,23.63,3,115.62,25 / 25,9100610,2019-09-08 14:38:39:849,-0.7011,-0.497,8.8979,0.0412,-0.0321,9.8065,-0.1385,-0.0334,0.052,-20.75,-34.37,15.06,317.68,-81.39,-159.87
92871,52.556053,-1.47428,143.51,23.63,3,115.62,26 / 26,9100710,2019-09-08 14:38:39:949,-0.1705,-0.5026,8.884,-0.0225,0.0051,9.8065,0.0642,-0.0671,0.0806,-20.56,-34.69,16.38,320.16,-81.62,-159.7
92872,52.556053,-1.47428,143.51,23.63,3,115.62,26 / 26,9100810,2019-09-08 14:38:40:049,0.158,-0.5475,9.2091,-0.0012,0.0141,9.8066,-0.0522,-0.0322,0.0125,-21.06,-34.75,15.75,320.39,-81.87,-159.74
92873,52.556053,-1.47428,143.51,23.63,3,115.62,26 / 26,9100910,2019-09-08 14:38:40:149,0.2247,-0.8797,10.9021,-0.0331,0.0222,9.8065,0.0685,-0.0125,0.0598,-21.0,-34.69,15.56,321.41,-81.92,-158.92
92874,52.556053,-1.47428,143.51,23.63,3,115.62,26 / 26,9101010,2019-09-08 14:38:40:249,1.0212,-0.983,10.3276,-0.0359,0.03,9.8065,-0.0732,-0.0615,0.112,-21.0,-34.25,16.38,321.62,-81.98,-158.98
92875,52.556053,-1.47428,143.51,23.63,3,115.62,26 / 26,9101110,2019-09-08 14:38:40:349,2.457,1.0114,9.5023,0.0275,0.0028,9.8066,-0.083,0.1054,-0.1559,-20.87,-34.56,15.5,321.33,-81.93,-158.99
92876,52.556053,-1.47428,143.51,23.63,3,115.62,26 / 26,9101210,2019-09-08 14:38:40:449,-1.5399,1.3787,9.7531,0.0177,-0.0178,9.8065,0.0638,0.013,-0.0327,-21.25,-34.0,15.25,319.58,-81.76,-158.6
92877,52.556053,-1.47428,143.51,23.63,3,115.62,26 / 26,9101310,2019-09-08 14:38:40:549,-0.6024,-1.477,10.9033,-0.034,-0.001,9.8065,0.3283,-0.1779,0.0848,-20.87,-34.81,16.0,320.81,-81.84,-159.35
92878,52.556053,-1.47428,143.51,23.63,3,115.62,26 / 26,9101410,2019-09-08 14:38:40:649,1.7434,-1.4021,11.2535,-0.0375,0.0179,9.8065,-0.1108,-0.0553,0.074,-21.19,-34.75,15.19,319.91,-82.13,-158.47
92879,52.556053,-1.47428,143.51,23.63,3,115.62,26 / 26,9101510,2019-09-08 14:38:40:749,-0.9965,-0.6747,9.7407,0.0475,-0.0336,9.8064,-0.0693,0.0195,0.0382,-20.62,-35.12,15.38,320.35,-81.77,-157.76
92880,52.556053,-1.47428,143.51,23.63,3,115.62,26 / 26,9101610,2019-09-08 14:38:40:849,-0.944,0.2451,10.1837,0.0433,-0.0304,9.8065,0.0938,-0.0063,-0.027,-20.81,-34.87,15.81,322.89,-81.64,-157.41
92881,52.556053,-1.47428,143.51,23.63,3,115.62,26 / 26,9101710,2019-09-08 14:38:40:949,0.026,0.1308,9.4006,0.028,-0.0083,9.8066,0.022,-0.0311,-0.08,-20.81,-34.12,15.5,323.5,-81.81,-157.24
92882,52.556053,-1.47428,143.51,23.63,3,115.62,26 / 26,9101810,2019-09-08 14:38:41:049,0.7161,0.703,9.6352,0.0427,-0.0307,9.8064,-0.1075,-0.0463,0.0712,-20.87,-34.69,15.56,322.22,-81.66,-158.0
92883,52.556053,-1.47428,143.51,23.63,3,115.62,26 / 26,9101909,2019-09-08 14:38:41:148,-0.8651,1.4382,8.3923,-0.0422,0.0175,9.8065,0.0294,-0.1171,0.0206,-20.69,-34.56,15.0,320.39,-81.98,-157.91
92884,52.556053,-1.47428,143.51,23.63,3,115.62,26 / 26,9102010,2019-09-08 14:38:41:249,-3.757,1.4476,11.2395,-0.0203,0.0217,9.8066,0.3759,-0.0642,-0.0284,-21.37,-34.94,15.44,320.97,-82.29,-157.71
92885,52.556053,-1.47428,143.51,23.63,3,115.62,26 / 26,9102110,2019-09-08 14:38:41:349,-1.9149,2.863,9.1002,0.0068,0.0038,9.8066,0.1689,0.0637,0.0979,-21.12,-34.12,15.69,324.15,-82.0,-156.84
92886,52.556053,-1.47428,143.51,23.63,3,115.62,26 / 26,9102210,2019-09-08 14:38:41:449,2.9751,-1.0628,11.2921,-0.0744,0.0478,9.8062,0.2261,0.0451,-0.075,-20.56,-34.19,16.25,324.99,-81.93,-156.08
92887,52.556053,-1.47428,143.51,23.63,3,115.62,26 / 26,9102311,2019-09-08 14:38:41:550,0.9455,-0.7755,10.3902,0.0716,-0.0438,9.8062,0.1107,-0.0377,0.0066,-20.81,-34.06,15.63,324.93,-81.91,-156.11
92888,52.556053,-1.47428,143.51,23.63,3,115.62,26 / 26,9102410,2019-09-08 14:38:41:649,0.8825,0.4521,9.4018,0.0767,-0.0243,9.8063,-0.1514,-0.0592,0.0669,-20.94,-34.62,15.5,321.69,-81.49,-158.29
92889,52.556053,-1.47428,143.51,23.63,3,115.62,26 / 26,9102510,2019-09-08 14:38:41:749,-0.3415,-0.8212,10.8303,-0.0903,0.0502,9.8061,-0.0551,-0.0313,0.008,-20.81,-34.31,15.69,320.64,-81.42,-159.32
92890,52.556053,-1.47428,143.51,23.63,3,115.62,26 / 26,9102610,2019-09-08 14:38:41:849,1.855,-1.4753,11.1233,-0.0524,0.0335,9.8064,-0.1563,-0.2093,0.2536,-20.62,-34.69,15.75,321.51,-81.9,-158.81
92891,52.556053,-1.47428,143.51,23.63,3,115.62,26 / 26,9102710,2019-09-08 14:38:41:949,2.5458,1.0868,10.4384,0.076,-0.0203,9.8062,-0.113,0.1342,-0.1405,-20.69,-34.75,15.56,319.72,-81.62,-160.07
92892,52.556053,-1.47428,143.51,23.63,3,115.62,26 / 26,9102810,2019-09-08 14:38:42:049,-1.9462,1.2405,9.3569,0.066,-0.045,9.8063,0.0318,0.0074,0.0089,-20.81,-34.37,15.5,320.65,-81.46,-159.35
92893,52.556053,-1.47428,143.51,23.63,3,115.62,26 / 26,9102910,2019-09-08 14:38:42:149,0.4537,-0.0217,10.2244,-0.0223,0.0102,9.8066,-0.0285,0.0333,0.0224,-21.19,-34.81,16.0,322.02,-81.59,-158.09
92894,52.556053,-1.47428,143.51,23.63,3,115.62,26 / 26,9103010,2019-09-08 14:38:42:249,-0.1278,0.2389,9.8197,-0.0222,0.0145,9.8065,-0.0539,-0.0496,0.0186,-21.56,-34.69,15.38,318.97,-81.64,-157.77
92895,52.556053,-1.47428,143.51,23.63,3,115.62,26 / 26,9103110,2019-09-08 14:38:42:349,-0.5464,0.3057,9.8489,-0.0026,-0.0237,9.8065,0.1848,-0.0389,0.0197,-20.81,-33.87,16.13,322.7,-81.65,-157.77
92896,52.556053,-1.47428,143.51,23.63,3,115.62,26 / 26,9103210,2019-09-08 14:38:42:449,1.8634,-0.7434,9.2014,0.0242,-0.0164,9.8065,-0.2775,0.072,-0.0353,-20.94,-34.56,16.06,323.4,-81.56,-156.92
92897,52.556053,-1.47428,143.51,23.63,3,115.62,26 / 26,9103310,2019-09-08 14:38:42:549,-0.8683,1.1774,8.9753,-0.07,0.0462,9.8062,-0.3415,0.042,-0.0232,-20.69,-34.62,15.5,324.09,-81.91,-156.64
92898,52.556053,-1.47428,143.51,23.63,3,115.62,26 / 26,9103410,2019-09-08 14:38:42:649,-0.2535,1.0122,10.2707,-0.0412,0.0217,9.8065,-0.1096,0.0161,-0.0317,-20.87,-34.56,15.63,323.88,-81.82,-156.74
92899,52.556053,-1.47428,143.51,23.63,3,115.62,26 / 26,9103510,2019-09-08 14:38:42:749,1.5347,0.1316,10.7195,0.0591,-0.007,9.8065,-0.0342,-0.0855,-0.0253,-21.0,-35.0,15.44,321.17,-81.86,-157.15
92900,52.556053,-1.47428,143.51,23.63,3,115.62,26 / 26,9103610,2019-09-08 14:38:42:849,-0.4148,1.264,10.5076,0.063,-0.0234,9.8064,-0.1821,0.013,-0.0994,-20.87,-34.25,15.94,320.17,-81.45,-159.74
92901,52.556053,-1.47428,143.51,23.63,3,115.62,26 / 26,9103710,2019-09-08 14:38:42:949,0.9245,-0.1614,10.4375,-0.0057,-0.0053,9.8066,0.1057,0.0261,0.0068,-20.87,-34.62,16.44,319.02,-81.54,-160.58
92902,52.556053,-1.47428,143.51,23.63,3,115.62,26 / 26,9103810,2019-09-08 14:38:43:049,0.0306,0.2444,10.1652,0.0015,-0.0042,9.8066,-0.1087,0.0112,0.0464,-21.0,-34.75,15.81,319.11,-81.47,-160.45
92903,52.556053,-1.47428,143.51,23.63,3,115.62,26 / 26,9103910,2019-09-08 14:38:43:149,-0.7797,1.7776,9.1494,-0.0469,0.0328,9.8065,0.0854,-0.0993,0.0992,-21.12,-34.81,16.0,320.01,-81.5,-159.72
92904,52.556053,-1.47428,143.51,23.63,3,115.62,26 / 26,9104010,2019-09-08 14:38:43:249,0.1164,1.45,9.1849,-0.0191,0.0026,9.8066,-0.0039,0.0271,-0.0436,-21.19,-34.56,15.38,319.4,-81.74,-158.52
92905,52.556053,-1.47428,143.51,23.63,3,115.62,26 / 26,9104111,2019-09-08 14:38:43:350,-0.1733,0.6948,9.5509,0.0057,-0.0033,9.8065,-0.103,0.0122,-0.0149,-20.31,-34.81,16.25,322.69,-81.84,-158.91
92906,52.556053,-1.47428,143.51,23.63,3,115.62,26 / 26,9104210,2019-09-08 14:38:43:449,-1.0308,-0.0704,9.9901,0.0023,0.0049,9.8066,-0.0549,-0.0547,0.0533,-20.69,-34.5,15.44,318.8,-81.74,-159.25
92907,52.556053,-1.47428,143.51,23.63,3,115.62,26 / 26,9104310,2019-09-08 14:38:43:549,0.5764,0.455,9.7291,0.0141,-0.0194,9.8066,-0.0186,0.0472,-0.0626,-21.0,-34.5,15.75,320.78,-81.54,-159.31
92908,52.556053,-1.47428,143.51,23.63,3,115.62,26 / 26,9104410,2019-09-08 14:38:43:649,0.2483,0.498,9.0452,0.0176,-0.0185,9.8066,-0.0182,0.0066,-0.0219,-20.75,-34.37,15.38,318.85,-81.54,-159.01
92909,52.556053,-1.47428,143.51,23.63,3,115.62,26 / 26,9104510,2019-09-08 14:38:43:749,-1.0492,0.0456,9.7276,-0.0394,0.0226,9.8065,0.146,-0.02,0.0519,-20.44,-34.81,15.31,319.96,-81.63,-159.04
92910,52.556053,-1.47428,143.51,23.63,3,115.62,26 / 26,9104610,2019-09-08 14:38:43:849,-0.4241,-0.5356,9.9544,-0.0148,0.0174,9.8066,0.1183,0.0194,0.0458,-20.31,-34.62,15.69,322.77,-81.93,-158.93
92911,52.556053,-1.47428,143.51,23.63,3,115.62,26 / 26,9104710,2019-09-08 14:38:43:949,-0.259,-0.11,9.9648,0.008,0.0121,9.8066,-0.004,-0.0055,0.0199,-21.5,-34.37,15.88,320.11,-81.79,-160.1
92912,52.556053,-1.47428,143.51,23.63,3,115.62,26 / 26,9104810,2019-09-08 14:38:44:049,0.4693,-0.8638,9.8586,0.0007,0.0176,9.8066,0.057,-0.0284,0.0305,-21.19,-34.62,15.69,318.83,-81.78,-160.98
92913,52.556053,-1.47428,143.51,23.63,3,115.62,26 / 26,9104910,2019-09-08 14:38:44:149,0.5132,-0.791,10.0827,0.0371,-0.0084,9.8065,-0.256,0.0095,-0.0223,-20.31,-34.56,15.69,320.33,-81.88,-160.94
92914,52.556053,-1.47428,143.51,23.63,3,115.62,26 / 26,9105010,2019-09-08 14:38:44:249,-0.3766,0.7578,10.4717,0.0479,-0.0209,9.8064,-0.1401,0.0328,0.0051,-20.87,-34.56,15.44,315.06,-81.87,-162.36
92915,52.556053,-1.47428,143.51,23.63,3,115.62,26 / 26,9105110,2019-09-08 14:38:44:349,-1.0524,0.1176,10.3926,-0.0606,0.0208,9.8064,0.3179,0.0154,-0.0145,-20.94,-34.5,15.5,317.38,-81.75,-162.41
92916,52.556053,-1.47428,143.51,23.63,3,115.62,26 / 26,9105210,2019-09-08 14:38:44:449,-0.446,-0.7083,10.7317,-0.0083,0.0092,9.8066,0.0995,-0.0479,0.0813,-20.37,-34.5,15.88,319.48,-81.93,-161.91
92917,52.556053,-1.47428,143.51,23.63,3,115.62,26 / 26,9105311,2019-09-08 14:38:44:550,-3.1864,1.4157,10.9034,0.0215,-0.003,9.8065,-0.1133,-0.0132,-0.0073,-20.12,-35.19,15.31,316.72,-81.81,-161.97
92918,52.556053,-1.47428,143.51,23.63,3,115.62,26 / 26,9105410,2019-09-08 14:38:44:649,-3.2227,1.0634,10.9655,-0.0546,0.0232,9.8064,-0.1644,-0.0807,-0.0015,-20.62,-34.5,15.56,318.4,-81.87,-161.64
92919,52.556053,-1.47428,143.51,23.63,3,115.62,26 / 26,9105510,2019-09-08 14:38:44:749,0.0787,-0.5881,9.8237,0.0261,-0.0125,9.8065,0.4192,-0.1012,-0.0641,-20.87,-34.5,16.06,318.61,-81.63,-161.24
92920,52.556053,-1.47428,143.51,23.63,3,115.62,26 / 26,9105610,2019-09-08 14:38:44:849,1.5297,-1.2368,9.7181,-0.0471,0.0375,9.8064,0.4452,0.0271,-0.0516,-20.62,-34.87,15.5,318.15,-81.89,-161.67
92921,52.556053,-1.47428,143.51,23.63,3,115.62,24 / 24,9105710,2019-09-08 14:38:44:949,0.194,-1.1329,10.2669,0.0959,-0.0379,9.806,-0.4305,-0.0096,-0.0537,-20.56,-35.25,15.44,315.81,-82.38,-162.24
92922,52.556053,-1.47428,143.51,23.63,3,115.62,24 / 24,9105810,2019-09-08 14:38:45:049,-0.045,1.5571,8.3195,0.1298,-0.0629,9.8055,-0.5971,0.0686,-0.0915,-20.5,-34.75,15.38,312.84,-81.97,-165.46
92923,52.556053,-1.47428,143.51,23.63,3,115.62,24 / 24,9105910,2019-09-08 14:38:45:149,-0.7115,1.0025,10.1734,-0.1159,0.0827,9.8055,0.4013,-0.0707,0.0412,-20.06,-34.69,15.75,316.63,-82.87,-165.09
92924,52.556053,-1.47428,143.51,23.63,3,115.62,24 / 24,9106010,2019-09-08 14:38:45:249,0.1624,0.8895,10.9019,-0.0751,0.0516,9.8061,0.1986,0.0006,-0.0749,-20.06,-35.31,15.81,315.18,-82.44,-165.92
92925,52.556053,-1.47428,143.51,23.63,3,115.62,24 / 24,9106110,2019-09-08 14:38:45:349,0.8798,0.4483,11.1015,0.0424,-0.0218,9.8064,-0.0657,-0.0122,0.0127,-20.06,-34.81,15.81,313.35,-82.19,-167.25
92926,52.556053,-1.47428,143.51,23.63,3,115.62,24 / 24,9106210,2019-09-08 14:38:45:449,-0.6966,-1.0064,9.9625,0.0075,-0.0197,9.8066,0.0282,-0.074,0.0886,-20.5,-35.25,16.0,314.12,-81.98,-166.35
92927,52.556053,-1.47428,143.51,23.63,3,115.62,24 / 24,9106310,2019-09-08 14:38:45:549,-0.837,-0.5583,9.425,-0.0254,-0.014,9.8065,-0.1242,0.0239,-0.0087,-20.19,-35.69,16.19,316.46,-82.0,-164.15
92928,52.556053,-1.47428,143.51,23.63,3,115.62,24 / 24,9106410,2019-09-08 14:38:45:649,-0.7532,1.1164,9.4945,-0.0101,-0.0168,9.8065,-0.1167,0.0412,-0.0378,-20.75,-34.87,15.69,318.34,-82.12,-161.72
92929,52.556053,-1.47428,143.51,23.63,3,115.62,24 / 24,9106510,2019-09-08 14:38:45:749,-0.4947,0.0883,9.6534,0.0088,-0.013,9.8066,0.0163,-0.0225,0.0195,-20.75,-34.56,15.44,317.12,-82.22,-160.94
92930,52.556053,-1.47428,143.51,23.63,3,115.62,24 / 24,9106610,2019-09-08 14:38:45:849,-0.9294,0.369,10.4811,-0.008,0.0022,9.8066,0.0256,-0.0424,0.049,-20.81,-34.56,15.63,319.94,-82.26,-160.48
92931,52.556053,-1.47428,143.51,23.63,3,115.62,25 / 25,9106711,2019-09-08 14:38:45:950,0.1925,-0.0048,10.0598,0.0352,-0.014,9.8065,-0.0958,-0.0122,0.0024,-20.25,-35.0,15.75,321.58,-82.29,-160.27
92932,52.556053,-1.47428,143.51,23.63,3,115.62,25 / 25,9106810,2019-09-08 14:38:46:049,-0.4848,-0.6016,9.9566,0.0117,0.0,9.8066,-0.0402,-0.0441,0.0065,-20.62,-34.37,16.0,318.98,-82.16,-161.42
92933,52.556053,-1.47428,143.51,23.63,3,115.62,25 / 25,9106910,2019-09-08 14:38:46:149,-0.6166,0.355,9.9327,-0.016,0.0127,9.8065,0.1103,-0.0283,0.0576,-20.06,-34.56,15.75,319.99,-82.13,-161.47
92934,52.556053,-1.47428,143.51,23.63,3,115.62,25 / 25,9107010,2019-09-08 14:38:46:249,0.4661,1.3312,9.072,-0.021,-0.0006,9.8066,0.0207,0.1014,-0.0663,-20.25,-34.69,15.75,321.02,-82.27,-160.72
92935,52.556053,-1.47428,143.51,23.63,3,115.62,25 / 25,9107110,2019-09-08 14:38:46:349,0.2663,0.204,9.6718,0.008,-0.0057,9.8066,-0.0395,-0.0197,-0.006,-19.87,-34.56,15.81,321.17,-82.31,-160.63
92936,52.556053,-1.47428,143.51,23.63,3,115.62,25 / 25,9107210,2019-09-08 14:38:46:449,-0.7389,-0.4905,10.158,-0.0015,0.0071,9.8066,0.052,-0.08,0.018,-20.62,-34.69,15.63,320.11,-82.35,-160.42
92937,52.556053,-1.47428,143.51,23.63,3,115.62,25 / 25,9107310,2019-09-08 14:38:46:549,-0.72,0.7343,9.9579,-0.0039,0.0186,9.8066,0.0016,-0.0196,-0.0273,-20.56,-35.0,15.75,319.86,-82.27,-160.56
92938,52.556053,-1.47428,143.51,23.63,3,115.62,25 / 25,9107413,2019-09-08 14:38:46:652,-0.1689,-0.3491,9.7597,0.0065,0.0104,9.8066,-0.1267,-0.0067,-0.0297,-20.37,-35.25,16.06,319.63,-82.41,-162.05
92939,52.556053,-1.47428,143.51,23.63,3,115.62,25 / 25,9107510,2019-09-08 14:38:46:749,0.0414,0.9675,10.1297,0.0176,0.0025,9.8066,0.0818,0.0134,0.0173,-20.12,-35.0,15.75,317.65,-82.53,-163.87
92940,52.556053,-1.47428,143.51,23.63,3,115.62,25 / 25,9107610,2019-09-08 14:38:46:849,-0.0074,-0.0094,10.9196,0.0222,-0.0167,9.8066,0.0978,-0.0251,0.0602,-20.69,-35.31,16.06,316.13,-82.44,-163.95
92941,52.556053,-1.47428,143.51,23.63,3,115.62,25 / 25,9107710,2019-09-08 14:38:46:949,0.0252,-0.7806,10.1707,-0.0068,0.0007,9.8066,0.0341,-0.0218,0.0679,-20.62,-35.0,15.75,316.45,-82.18,-163.42
92942,52.555176,-1.471378,143.69,24.17,3,116.74,25 / 25,9107810,2019-09-08 14:38:47:049,0.0252,-0.7806,10.1707,-0.0068,0.0007,9.8066,0.0341,-0.0218,0.0679,-20.81,-34.62,15.81,316.7,-82.21,-163.22
92943,52.555176,-1.471378,143.69,24.17,3,116.74,25 / 25,9107910,2019-09-08 14:38:47:149,0.2062,-0.0807,10.2775,0.007,-0.0163,9.8066,0.1582,0.0315,-0.0605,-20.56,-34.94,15.75,316.52,-81.96,-163.13
92944,52.555176,-1.471378,143.69,24.17,3,116.74,25 / 25,9108010,2019-09-08 14:38:47:249,-0.3394,0.7839,9.2851,0.0022,0.0094,9.8066,-0.132,0.0276,-0.0434,-20.12,-35.44,16.13,316.32,-81.96,-164.43
92945,52.555176,-1.471378,143.69,24.17,3,116.74,25 / 25,9108110,2019-09-08 14:38:47:349,-1.3332,0.7011,9.6281,-0.0059,0.0139,9.8066,-0.036,-0.0727,0.0361,-20.19,-35.12,16.0,315.76,-82.12,-165.09
92946,52.555176,-1.471378,143.69,24.17,3,116.74,25 / 25,9108210,2019-09-08 14:38:47:449,-0.3685,0.2182,10.3994,0.0302,-0.0317,9.8065,0.0347,-0.0434,0.0249,-20.19,-34.87,16.0,316.68,-82.27,-164.44
92947,52.555176,-1.471378,143.69,24.17,3,116.74,25 / 25,9108310,2019-09-08 14:38:47:549,-0.3809,0.7357,10.2493,0.0147,-0.0147,9.8065,0.013,0.0054,-0.0249,-20.75,-34.62,16.06,315.79,-82.01,-163.81
92948,52.555176,-1.471378,143.69,24.17,3,116.74,25 / 25,9108410,2019-09-08 14:38:47:649,-1.4436,-0.2861,10.0494,-0.0007,-0.0026,9.8066,0.0194,0.0401,-0.0665,-20.81,-35.12,16.25,315.31,-81.96,-164.18
92949,52.555176,-1.471378,143.69,24.17,3,116.74,25 / 25,9108510,2019-09-08 14:38:47:749,-1.0604,0.3842,11.0335,-0.0184,0.0212,9.8066,0.1332,-0.045,0.0064,-20.12,-35.12,16.06,315.72,-82.06,-165.05
92950,52.555176,-1.471378,143.69,24.17,3,116.74,25 / 25,9108610,2019-09-08 14:38:47:849,-0.4698,0.5387,10.0962,0.0409,-0.0209,9.8064,-0.0842,-0.0207,-0.028,-20.0,-34.75,16.25,314.46,-81.84,-165.91
92951,52.555176,-1.471378,143.69,24.17,3,116.74,25 / 25,9108709,2019-09-08 14:38:47:948,-0.6916,0.0108,10.3514,0.027,-0.0288,9.8065,-0.0901,-0.0258,-0.0079,-20.31,-34.5,15.75,315.09,-81.81,-165.57
92952,52.555176,-1.471378,143.69,24.17,3,116.74,25 / 25,9108810,2019-09-08 14:38:48:049,0.0465,-0.3584,10.1906,0.0013,-0.0067,9.8066,-0.0031,0.0322,0.0241,-20.37,-34.62,16.31,315.39,-81.94,-165.21
92953,52.555176,-1.471378,143.69,24.17,3,116.74,25 / 25,9108910,2019-09-08 14:38:48:149,-0.2574,0.5637,9.3483,0.0095,-0.0098,9.8066,0.0801,0.0305,0.0233,-20.12,-34.75,15.88,315.47,-81.93,-165.14
92954,52.555176,-1.471378,143.69,24.17,3,116.74,25 / 25,9109010,2019-09-08 14:38:48:249,-0.8171,0.9767,9.513,-0.0271,0.016,9.8065,0.0048,-0.0237,0.0921,-20.5,-35.25,16.06,315.75,-82.01,-164.98
92955,52.555176,-1.471378,143.69,24.17,3,116.74,25 / 25,9109110,2019-09-08 14:38:48:349,-0.4722,0.8819,8.911,-0.0176,0.0072,9.8066,-0.0974,0.055,0.022,-20.25,-34.56,16.0,316.29,-81.96,-164.45
92956,52.555176,-1.471378,143.69,24.17,3,116.74,25 / 25,9109210,2019-09-08 14:38:48:449,1.3114,0.0773,9.4789,0.0077,-0.0088,9.8066,0.0005,0.0494,-0.0098,-20.5,-34.62,15.94,316.73,-82.01,-164.14
92957,52.555176,-1.471378,143.69,24.17,3,116.74,25 / 25,9109310,2019-09-08 14:38:48:549,-1.0157,0.3924,9.5191,0.0352,-0.0075,9.8065,-0.0733,-0.0374,0.0022,-20.37,-35.19,15.88,316.22,-81.93,-164.49
92958,52.555176,-1.471378,143.69,24.17,3,116.74,25 / 25,9109410,2019-09-08 14:38:48:649,-0.014,0.897,9.0632,-0.0179,0.0286,9.8065,0.0488,-0.0604,0.0221,-20.37,-34.75,16.0,315.57,-81.97,-165.09
92959,52.555176,-1.471378,143.69,24.17,3,116.74,25 / 25,9109510,2019-09-08 14:38:48:749,0.4481,0.0664,10.143,-0.0155,0.005,9.8066,-0.0409,-0.0007,-0.0232,-20.19,-34.94,16.63,317.62,-82.14,-165.39
92960,52.555176,-1.471378,143.69,24.17,3,116.74,25 / 25,9109610,2019-09-08 14:38:48:849,0.8399,0.1416,10.1337,0.0282,-0.0183,9.8065,-0.0669,-0.0172,0.0183,-20.19,-34.75,15.81,314.9,-82.01,-165.71
92961,52.555176,-1.471378,143.69,24.17,3,116.74,26 / 26,9109710,2019-09-08 14:38:48:949,-0.6165,0.2737,9.9789,0.0239,-0.0109,9.8066,-0.0404,-0.0348,0.0491,-20.19,-34.75,16.31,315.05,-82.01,-165.58
92962,52.555176,-1.471378,143.69,24.17,3,116.74,26 / 26,9109810,2019-09-08 14:38:49:049,-0.4118,-0.3647,9.7608,-0.0196,-0.0004,9.8066,0.0496,-0.0095,-0.0088,-20.81,-35.12,16.19,314.54,-81.97,-164.86
92963,52.555176,-1.471378,143.69,24.17,3,116.74,26 / 26,9109910,2019-09-08 14:38:49:149,0.5412,-0.3946,9.4087,0.0064,-0.0151,9.8066,-0.0461,0.0308,-0.0482,-20.5,-35.0,16.38,316.84,-81.99,-164.02
92964,52.555176,-1.471378,143.69,24.17,3,116.74,26 / 26,9110009,2019-09-08 14:38:49:248,-1.3418,1.5758,10.0336,-0.0244,0.0149,9.8065,0.0873,-0.0183,-0.0094,-20.56,-35.19,15.75,315.16,-81.99,-164.35
92965,52.555176,-1.471378,143.69,24.17,3,116.74,26 / 26,9110110,2019-09-08 14:38:49:349,0.4591,-1.0871,10.0832,-0.0119,0.0165,9.8065,0.1059,-0.0491,0.0488,-20.31,-34.56,16.44,316.83,-82.16,-164.21
92966,52.555176,-1.471378,143.69,24.17,3,116.74,26 / 26,9110210,2019-09-08 14:38:49:449,-0.218,0.6981,9.6659,0.0225,-0.0108,9.8066,-0.0639,0.0842,-0.035,-20.06,-34.44,16.25,316.37,-82.12,-164.77
92967,52.555176,-1.471378,143.69,24.17,3,116.74,26 / 26,9110310,2019-09-08 14:38:49:549,-0.1684,0.2454,10.2714,0.0285,-0.0152,9.8066,-0.0748,0.0047,0.0033,-20.56,-34.37,16.13,314.37,-82.14,-165.4
92968,52.555176,-1.471378,143.69,24.17,3,116.74,26 / 26,9110409,2019-09-08 14:38:49:648,-0.805,0.7503,10.098,-0.0124,0.0045,9.8066,0.0729,-0.0526,0.0146,-19.87,-34.87,15.81,315.86,-82.1,-164.98
92969,52.555176,-1.471378,143.69,24.17,3,116.74,26 / 26,9110510,2019-09-08 14:38:49:749,-0.3228,-0.1099,9.8018,-0.0202,0.0078,9.8066,0.0663,-0.0497,0.022,-20.0,-34.94,15.94,316.63,-82.13,-164.34
92970,52.555176,-1.471378,143.69,24.17,3,116.74,26 / 26,9110610,2019-09-08 14:38:49:849,0.1646,-0.1839,9.7149,0.0191,-0.0086,9.8066,-0.0808,0.0038,0.0283,-20.75,-34.94,16.19,315.75,-82.09,-163.93
92971,52.555176,-1.471378,143.69,24.17,3,116.74,26 / 26,9110710,2019-09-08 14:38:49:949,-0.5812,0.2721,9.6573,0.0103,-0.0039,9.8066,-0.0423,-0.0173,0.0266,-20.62,-34.5,16.31,315.56,-82.04,-164.26
92972,52.555176,-1.471378,143.69,24.17,3,116.74,26 / 26,9110810,2019-09-08 14:38:50:049,-1.5489,0.1077,9.8492,-0.0305,0.0102,9.8066,0.1576,-0.0064,-0.0677,-20.62,-34.5,15.88,316.02,-82.04,-163.86
92973,52.555176,-1.471378,143.69,24.17,3,116.74,26 / 26,9110910,2019-09-08 14:38:50:149,0.3964,0.2057,9.5129,-0.0096,0.0018,9.8066,0.0411,0.0522,-0.0515,-20.87,-34.62,16.06,316.46,-82.13,-163.36
92974,52.555176,-1.471378,143.69,24.17,3,116.74,26 / 26,9111010,2019-09-08 14:38:50:249,0.6399,0.8063,8.7824,-0.0071,0.0023,9.8066,-0.1019,0.0406,0.0188,-20.19,-35.0,16.13,317.26,-82.19,-163.86
92975,52.555176,-1.471378,143.69,24.17,3,116.74,26 / 26,9111110,2019-09-08 14:38:50:349,-1.3238,-0.0489,9.5054,-0.0175,0.0241,9.8066,0.0393,-0.0561,0.0798,-20.62,-35.0,15.94,316.94,-82.44,-163.25
92976,52.555176,-1.471378,143.69,24.17,3,116.74,26 / 26,9111209,2019-09-08 14:38:50:448,0.048,-0.451,10.4773,0.0188,-0.0089,9.8066,0.0288,-0.0184,0.0292,-20.37,-35.44,15.94,318.15,-82.31,-163.22
92977,52.555176,-1.471378,143.69,24.17,3,116.74,26 / 26,9111310,2019-09-08 14:38:50:549,-0.5044,1.4591,10.2976,0.0387,-0.0334,9.8065,-0.0545,0.0705,-0.0351,-20.44,-34.25,16.31,317.86,-82.05,-163.41
92978,52.555176,-1.471378,143.69,24.17,3,116.74,26 / 26,9111410,2019-09-08 14:38:50:649,0.6104,-0.5382,9.7093,-0.0141,0.0035,9.8066,0.0233,0.0577,-0.006,-20.69,-34.5,16.19,315.7,-81.98,-164.08
92979,52.555176,-1.471378,143.69,24.17,3,116.74,26 / 26,9111510,2019-09-08 14:38:50:749,0.1098,-0.8189,9.8646,-0.0299,0.0127,9.8066,0.0815,-0.031,0.0573,-20.62,-34.12,16.25,317.02,-82.21,-163.16
92980,52.555176,-1.471378,143.69,24.17,3,116.74,26 / 26,9111610,2019-09-08 14:38:50:849,0.6591,-1.1548,9.9442,0.0412,-0.0149,9.8065,-0.1711,0.0662,-0.0132,-20.19,-34.94,16.25,318.93,-82.3,-162.54
92981,52.555176,-1.471378,143.69,24.17,3,116.74,24 / 24,9111710,2019-09-08 14:38:50:949,0.5079,0.7459,10.3574,0.0787,-0.0628,9.8061,-0.2146,0.0398,-0.0819,-20.37,-34.75,16.38,316.63,-81.97,-164.18
92982,52.555176,-1.471378,143.69,24.17,3,116.74,24 / 24,9111809,2019-09-08 14:38:51:048,-0.6978,-0.4561,10.1632,-0.0108,0.0242,9.8066,0.115,-0.1248,0.0872,-20.44,-35.25,15.94,315.82,-82.25,-165.17
92983,52.555176,-1.471378,143.69,24.17,3,116.74,24 / 24,9111910,2019-09-08 14:38:51:149,1.8936,-1.5569,10.315,-0.0176,0.0036,9.8066,0.1428,-0.0217,-0.0066,-20.56,-34.62,16.13,315.04,-82.22,-164.68
92984,52.555176,-1.471378,143.69,24.17,3,116.74,24 / 24,9112010,2019-09-08 14:38:51:249,1.2252,-1.1359,10.4074,0.0287,-0.0152,9.8066,-0.2405,0.0022,-0.0115,-20.37,-35.31,16.19,316.46,-82.28,-164.64
92985,52.555176,-1.471378,143.69,24.17,3,116.74,24 / 24,9112110,2019-09-08 14:38:51:349,0.6373,-1.3095,10.2795,0.0372,-0.0233,9.8065,-0.1917,0.0132,-0.0591,-20.62,-34.5,16.31,314.7,-82.18,-165.15
92986,52.555176,-1.471378,143.69,24.17,3,116.74,24 / 24,9112210,2019-09-08 14:38:51:449,-0.4786,1.029,10.1147,0.0129,0.0054,9.8066,0.0165,-0.0424,0.0105,-20.31,-34.81,15.88,315.31,-82.29,-165.65
