,GPS LATITUDE (degrees), GPS LONGITUDE (degrees), GPS ALTITUDE (m), GPS SPEED (Kmh), GPS ACCURACY (m), GPS ORIENTATION (Â°),GPS SATELLITES IN RANGE, TIME SINCE START (ms), DATE (YYYY-MO-DD HH-MI-SS_SSS), ACCELEROMETER X (m/s²) , ACCELEROMETER Y (m/s²), ACCELEROMETER Z (m/s²), GRAVITY X (m/s²), GRAVITY Y (m/s²), GRAVITY Z (m/s²), GYROSCOPE Yaw (rad/s), GYROSCOPE Pitch (rad/s), GYROSCOPE Roll (rad/s), MAGNETIC FIELD X (Î¼T), MAGNETIC FIELD Y (Î¼T), MAGNETIC FIELD Z (Î¼T), ORIENTATION (Yaw) (Â°), ORIENTATION (Pitch) (Â°), ORIENTATION (Roll ) (Â°)
10819,52.672024,-1.541129,180.96,22.76,12,337.8,24 / 24,1081920,2019-11-06 10:59:49:263,-0.2013,-0.759,9.8327,0.0168,-0.0352,9.8065,0.0651,0.0935,-0.117,-10.62,-35.19,-5.62,138.61,-81.38,56.12
10820,52.672215,-1.541247,180.88,22.64,12,340.68,24 / 24,1082020,2019-11-06 10:59:49:363,1.2268,-1.1992,9.7702,0.009,0.004,9.8066,-0.0228,-0.1519,0.0073,-10.19,-35.62,-4.81,137.45,-81.6,55.69
10821,52.672215,-1.541247,180.88,22.64,12,340.68,24 / 24,1082120,2019-11-06 10:59:49:463,2.1297,-1.0616,8.7377,-0.0108,0.062,9.8064,-0.2343,0.0521,0.0167,-10.44,-35.31,-5.19,137.45,-81.6,55.69
10822,52.672215,-1.541247,180.88,22.64,12,340.68,24 / 24,1082219,2019-11-06 10:59:49:562,0.0959,-0.6586,8.7387,-0.0047,0.0135,9.8065,-0.0002,-0.0618,-0.123,-10.44,-36.0,-5.06,138.8,-81.11,56.46
10823,52.672215,-1.541247,180.88,22.64,12,340.68,24 / 24,1082319,2019-11-06 10:59:49:662,0.4859,-2.7873,10.3479,0.0148,0.0077,9.8066,0.0992,-0.0399,0.1462,-10.06,-35.5,-5.06,137.89,-81.05,55.64
10824,52.672215,-1.541247,180.88,22.64,12,340.68,24 / 24,1082419,2019-11-06 10:59:49:762,0.2954,-2.0508,10.0126,0.0246,0.0255,9.8065,-0.0001,-0.1218,-0.0923,-10.25,-35.25,-4.87,138.87,-81.03,56.96
10825,52.672215,-1.541247,180.88,22.64,12,340.68,24 / 24,1082520,2019-11-06 10:59:49:863,-1.6179,-2.8997,10.2955,0.0859,0.0218,9.8062,0.0929,0.0341,-0.1312,-10.5,-35.69,-4.81,138.87,-81.03,56.96
10826,52.672215,-1.541247,180.88,22.64,12,340.68,24 / 24,1082620,2019-11-06 10:59:49:963,0.0939,-0.1207,8.3413,-0.0117,-0.0029,9.8066,-0.1131,0.2079,0.0116,-11.37,-35.56,-5.37,142.42,-81.33,61.21
10827,52.672215,-1.541247,180.88,22.64,12,340.68,24 / 24,1082720,2019-11-06 10:59:50:063,1.0572,-1.0581,7.7106,-0.0346,-0.0446,9.8064,-0.037,0.2346,-0.2779,-10.75,-35.5,-5.31,140.4,-81.41,59.07
10828,52.672215,-1.541247,180.88,22.64,12,340.68,24 / 24,1082820,2019-11-06 10:59:50:163,-1.8222,-2.0393,6.6942,-0.0782,-0.1172,9.8056,0.0949,-0.2935,0.1574,-11.19,-35.5,-5.75,140.4,-81.41,59.07
10829,52.672215,-1.541247,180.88,22.64,12,340.68,24 / 24,1082920,2019-11-06 10:59:50:263,-1.8059,-5.9495,9.3106,-0.0143,-0.1014,9.806,0.3408,0.2272,-0.489,-11.62,-35.87,-4.75,136.51,-81.61,53.66
10830,52.67241,-1.541348,180.66,22.65,6,344.27,21 / 22,1083020,2019-11-06 10:59:50:363,-1.3172,-5.0459,9.7457,0.0122,-0.0611,9.8064,-0.0859,-0.0227,-0.0391,-11.5,-35.94,-5.37,134.91,-81.91,52.28
10831,52.67241,-1.541348,180.66,22.65,6,344.27,21 / 22,1083120,2019-11-06 10:59:50:463,1.0878,-3.1811,10.0999,0.0633,0.0801,9.8061,-0.0675,-0.1944,0.1457,-11.31,-35.62,-4.81,138.2,-81.82,56.46
10832,52.67241,-1.541348,180.66,22.65,6,344.27,21 / 22,1083220,2019-11-06 10:59:50:563,0.2403,-2.6724,10.8885,0.0396,0.0681,9.8063,0.2055,-0.0016,-0.06,-11.19,-36.06,-5.31,138.2,-81.82,56.46
10833,52.67241,-1.541348,180.66,22.65,6,344.27,21 / 22,1083320,2019-11-06 10:59:50:663,0.1436,-0.9075,10.2404,0.0075,-0.0144,9.8066,0.1132,-0.0276,0.0413,-11.25,-35.94,-4.62,140.68,-81.67,59.48
10834,52.67241,-1.541348,180.66,22.65,6,344.27,21 / 22,1083420,2019-11-06 10:59:50:763,1.7059,-2.2305,9.3226,-0.0221,-0.1056,9.806,-0.0765,0.0952,-0.0837,-12.44,-35.31,-5.25,137.63,-82.05,55.93
10835,52.67241,-1.541348,180.66,22.65,6,344.27,21 / 22,1083520,2019-11-06 10:59:50:863,0.9235,-2.5692,9.345,-0.0419,-0.0182,9.8065,-0.0233,-0.0903,-0.0403,-12.0,-35.69,-5.44,137.63,-82.05,55.93
10836,52.67241,-1.541348,180.66,22.65,6,344.27,21 / 22,1083620,2019-11-06 10:59:50:963,1.0052,-3.0171,9.2536,-0.0108,0.011,9.8066,0.0162,-0.1178,0.0793,-12.0,-36.0,-6.06,136.7,-81.96,54.12
10837,52.67241,-1.541348,180.66,22.65,6,344.27,21 / 22,1083720,2019-11-06 10:59:51:063,0.195,-1.421,9.2663,-0.0071,0.0391,9.8065,0.0993,-0.1022,0.0365,-11.56,-35.81,-6.0,134.09,-81.66,54.64
10838,52.67241,-1.541348,180.66,22.65,6,344.27,21 / 22,1083820,2019-11-06 10:59:51:163,-0.2251,-2.217,10.6213,0.033,0.0961,9.8061,0.0094,-0.1992,-0.0083,-11.5,-36.06,-4.94,140.15,-81.39,58.23
10839,52.67241,-1.541348,180.66,22.65,6,344.27,21 / 22,1083920,2019-11-06 10:59:51:263,2.2125,-3.1915,10.9428,0.0118,-0.0095,9.8066,-0.0369,0.1924,-0.0453,-12.0,-35.5,-5.62,140.15,-81.39,58.23
10840,52.672592,-1.54143,180.39,22.28,6,347.77,22 / 24,1084020,2019-11-06 10:59:51:363,2.0488,-2.6512,9.5161,-0.0341,-0.0033,9.8065,-0.0161,0.145,-0.2144,-12.12,-35.0,-5.75,136.28,-81.43,57.49
10841,52.672592,-1.54143,180.39,22.28,6,347.77,22 / 24,1084120,2019-11-06 10:59:51:463,-0.7323,-0.3684,9.1915,0.0036,-0.0019,9.8066,0.0289,-0.2255,0.1326,-11.69,-35.5,-5.56,135.65,-81.07,56.03
10842,52.672592,-1.54143,180.39,22.28,6,347.77,22 / 24,1084220,2019-11-06 10:59:51:563,-1.6076,3.6761,8.0143,0.0045,0.0088,9.8066,0.1683,-0.6751,0.2425,-11.19,-35.5,-5.87,135.65,-81.07,56.03
10843,52.672592,-1.54143,180.39,22.28,6,347.77,22 / 24,1084320,2019-11-06 10:59:51:663,-0.1597,-4.1825,8.4967,-0.0081,-0.0686,9.8063,-0.0039,-0.3333,0.3605,-12.19,-35.81,-5.62,133.86,-81.59,54.67
10844,52.672592,-1.54143,180.39,22.28,6,347.77,22 / 24,1084419,2019-11-06 10:59:51:762,1.418,-4.9103,9.533,-0.0152,0.008,9.8066,-0.1089,0.1613,-0.209,-12.31,-35.75,-5.75,131.1,-82.02,51.55
10845,52.672592,-1.54143,180.39,22.28,6,347.77,22 / 24,1084519,2019-11-06 10:59:51:862,0.6206,-3.6491,10.0889,-0.0265,0.0504,9.8064,0.0474,0.1503,-0.2036,-12.56,-35.87,-5.62,132.82,-81.71,52.38
10846,52.672592,-1.54143,180.39,22.28,6,347.77,22 / 24,1084620,2019-11-06 10:59:51:963,1.2214,2.3855,10.0759,0.0158,0.1031,9.806,0.0139,-0.4265,0.1367,-12.56,-35.37,-6.19,132.82,-81.71,52.38
10847,52.672592,-1.54143,180.39,22.28,6,347.77,22 / 24,1084720,2019-11-06 10:59:52:063,1.5952,0.0374,10.188,0.0048,-0.0058,9.8066,0.0019,-0.3574,0.1773,-12.87,-35.81,-6.12,136.75,-81.23,56.54
10848,52.672592,-1.54143,180.39,22.28,6,347.77,22 / 24,1084820,2019-11-06 10:59:52:163,1.0266,-1.2263,10.0728,0.0091,-0.0047,9.8066,0.0617,-0.1046,-0.069,-12.37,-35.56,-5.69,136.21,-81.28,56.67
10849,52.672592,-1.54143,180.39,22.28,6,347.77,22 / 24,1084920,2019-11-06 10:59:52:263,2.0366,-3.4987,9.7633,0.0173,0.0143,9.8066,-0.0728,0.3667,-0.1662,-11.87,-35.94,-5.56,136.21,-81.28,56.67
10850,52.672783,-1.541499,180.07,22.15,6,350.06,24 / 24,1085020,2019-11-06 10:59:52:363,0.9647,0.3977,9.5121,-0.033,0.0332,9.8065,0.0146,0.135,-0.2056,-12.0,-35.56,-5.62,136.86,-81.29,57.54
10851,52.672783,-1.541499,180.07,22.15,6,350.06,24 / 24,1085120,2019-11-06 10:59:52:463,1.6724,-0.9219,10.9463,-0.0552,0.0097,9.8064,-0.0508,-0.2475,0.1083,-12.06,-35.06,-6.06,135.9,-81.03,56.27
10852,52.672783,-1.541499,180.07,22.15,6,350.06,24 / 24,1085220,2019-11-06 10:59:52:563,1.8965,-3.2053,10.4963,-0.0051,-0.0681,9.8064,0.1923,-0.0345,-0.0677,-12.37,-35.5,-6.25,134.02,-81.29,54.3
10853,52.672783,-1.541499,180.07,22.15,6,350.06,24 / 24,1085320,2019-11-06 10:59:52:663,2.9219,-2.2456,9.6552,0.0336,-0.0239,9.8065,-0.0062,0.1506,-0.0367,-12.25,-35.44,-5.62,134.02,-81.29,54.3
10854,52.672783,-1.541499,180.07,22.15,6,350.06,24 / 24,1085420,2019-11-06 10:59:52:763,1.7869,-0.2577,10.0268,0.0199,-0.0018,9.8065,0.2082,-0.2835,0.0285,-12.5,-35.5,-5.75,133.86,-81.53,54.55
10855,52.672783,-1.541499,180.07,22.15,6,350.06,24 / 24,1085520,2019-11-06 10:59:52:863,0.4344,-0.0688,10.8494,0.0586,0.0051,9.8064,-0.0066,-0.1607,0.1088,-12.94,-35.44,-6.12,135.57,-81.75,56.35
10856,52.672783,-1.541499,180.07,22.15,6,350.06,24 / 24,1085620,2019-11-06 10:59:52:963,1.9425,-1.197,9.9748,0.0107,-0.0218,9.8066,-0.013,-0.0145,-0.0388,-12.56,-35.31,-6.44,135.57,-81.75,56.35
10857,52.672783,-1.541499,180.07,22.15,6,350.06,24 / 24,1085720,2019-11-06 10:59:53:063,-1.6116,-0.4506,10.2976,-0.0013,-0.0039,9.8066,-0.0073,-0.0871,-0.011,-13.12,-35.37,-6.31,135.14,-81.88,56.04
10858,52.672783,-1.541499,180.07,22.15,6,350.06,24 / 24,1085820,2019-11-06 10:59:53:163,-0.8713,-2.9491,10.5034,-0.0048,-0.047,9.8065,0.0218,-0.0597,-0.0368,-13.25,-35.94,-5.75,134.59,-81.93,55.02
10859,52.672783,-1.541499,180.07,22.15,6,350.06,24 / 24,1085920,2019-11-06 10:59:53:263,1.6104,-3.2766,9.0083,-0.0038,-0.1033,9.806,0.0268,-0.0906,0.1386,-13.25,-36.12,-6.5,131.33,-82.32,51.68
10860,52.67298,-1.541548,179.82,21.9,6,352.66,24 / 25,1086020,2019-11-06 10:59:53:363,1.4436,-1.4891,9.0619,0.0042,-0.0223,9.8066,0.1141,0.1005,-0.1328,-13.69,-35.69,-6.25,131.23,-82.43,51.06
10861,52.67298,-1.541548,179.82,21.9,6,352.66,24 / 25,1086119,2019-11-06 10:59:53:462,1.5157,0.5282,8.7765,0.0396,0.0309,9.8065,0.0125,0.2665,-0.0957,-13.62,-36.0,-5.87,131.23,-82.43,51.06
10862,52.67298,-1.541548,179.82,21.9,6,352.66,24 / 25,1086219,2019-11-06 10:59:53:562,0.79,0.8407,10.2973,0.048,0.0016,9.8065,-0.0394,-0.2269,0.172,-13.5,-35.5,-6.06,132.38,-82.48,53.27
10863,52.67298,-1.541548,179.82,21.9,6,352.66,24 / 25,1086320,2019-11-06 10:59:53:663,1.8121,-0.7989,10.8409,0.0545,-0.0171,9.8064,0.1012,-0.2995,0.1553,-14.31,-36.19,-6.19,133.46,-82.78,54.39
10864,52.67298,-1.541548,179.82,21.9,6,352.66,24 / 25,1086420,2019-11-06 10:59:53:763,2.5815,-1.4079,10.9287,0.0558,-0.0495,9.8063,0.1429,-0.0326,-0.1152,-14.12,-35.25,-6.75,129.55,-83.21,54.51
10865,52.67298,-1.541548,179.82,21.9,6,352.66,24 / 25,1086520,2019-11-06 10:59:53:863,1.2314,-0.6729,11.4379,0.042,-0.0003,9.8065,-0.0802,-0.0318,0.0364,-14.62,-35.5,-6.31,129.55,-83.21,54.51
10866,52.67298,-1.541548,179.82,21.9,6,352.66,24 / 25,1086620,2019-11-06 10:59:53:963,0.4718,-0.7534,12.1689,0.0159,0.0079,9.8065,0.1684,0.0459,-0.1973,-14.31,-36.0,-6.81,130.7,-83.4,55.86
10867,52.67298,-1.541548,179.82,21.9,6,352.66,24 / 25,1086720,2019-11-06 10:59:54:063,0.9745,0.9864,10.1977,0.0368,0.0056,9.8065,-0.0839,-0.0495,0.1558,-14.37,-36.0,-5.94,134.84,-83.54,57.32
10868,52.67298,-1.541548,179.82,21.9,6,352.66,24 / 25,1086820,2019-11-06 10:59:54:163,0.7948,-2.6478,10.2634,-0.0001,-0.0913,9.8062,-0.0164,-0.275,-0.0161,-14.75,-35.94,-5.94,134.84,-83.54,57.32
10869,52.67298,-1.541548,179.82,21.9,6,352.66,24 / 25,1086920,2019-11-06 10:59:54:263,2.7113,-1.9038,10.0837,0.0063,-0.0245,9.8066,0.0523,0.1238,0.137,-14.37,-35.25,-5.56,131.96,-83.91,53.76
10870,52.673176,-1.541576,179.58,21.77,4,354.8,22 / 23,1087019,2019-11-06 10:59:54:362,0.9109,-1.0163,8.17,0.0237,0.023,9.8065,-0.1101,0.0031,0.143,-14.62,-35.75,-5.44,134.89,-84.08,53.88
10871,52.673176,-1.541576,179.58,21.77,4,354.8,22 / 23,1087120,2019-11-06 10:59:54:463,1.0673,-0.3293,9.1199,0.072,0.0209,9.8063,0.0741,-0.0707,-0.0709,-14.19,-35.81,-5.87,134.15,-84.28,57.73
10872,52.673176,-1.541576,179.58,21.77,4,354.8,22 / 23,1087220,2019-11-06 10:59:54:563,-0.952,-1.1172,9.5476,-0.016,0.0039,9.8065,0.152,-0.2139,0.0633,-14.81,-36.31,-6.44,134.15,-84.28,57.73
10873,52.673176,-1.541576,179.58,21.77,4,354.8,22 / 23,1087320,2019-11-06 10:59:54:663,-0.832,0.0029,9.8386,-0.0011,0.0029,9.8066,-0.2311,-0.0088,0.1025,-15.0,-36.06,-6.31,134.08,-84.24,56.76
10874,52.673176,-1.541576,179.58,21.77,4,354.8,22 / 23,1087420,2019-11-06 10:59:54:763,1.8182,-2.1808,8.7704,0.0404,-0.0118,9.8065,0.2297,0.3448,-0.3294,-14.87,-35.62,-6.31,134.79,-84.37,57.78
10875,52.673176,-1.541576,179.58,21.77,4,354.8,22 / 23,1087520,2019-11-06 10:59:54:863,0.323,-3.6441,8.4293,0.0627,-0.0269,9.8063,-0.278,-0.0063,0.1286,-14.62,-35.69,-5.87,134.79,-84.37,57.78
10876,52.673176,-1.541576,179.58,21.77,4,354.8,22 / 23,1087620,2019-11-06 10:59:54:963,-1.1547,-2.5973,8.5011,-0.0132,-0.0009,9.8066,-0.0137,-0.3015,0.2297,-14.87,-35.62,-5.81,134.64,-84.76,59.11
10877,52.673176,-1.541576,179.58,21.77,4,354.8,22 / 23,1087720,2019-11-06 10:59:55:063,-2.9774,0.2922,10.0795,-0.0151,-0.0081,9.8065,0.1253,-0.0537,0.0712,-15.0,-35.75,-6.5,134.73,-84.67,58.18
10878,52.673176,-1.541576,179.58,21.77,4,354.8,22 / 23,1087821,2019-11-06 10:59:55:164,0.7478,2.0144,10.5534,-0.0099,-0.0123,9.8066,0.0884,0.1906,-0.0306,-14.94,-36.37,-6.12,133.85,-84.68,57.19
10879,52.673176,-1.541576,179.58,21.77,4,354.8,22 / 23,1087919,2019-11-06 10:59:55:262,1.3077,0.5234,10.767,0.0639,-0.0656,9.8062,-0.015,0.2379,0.0078,-15.06,-36.0,-5.81,133.85,-84.68,57.19
10880,52.67337,-1.541613,179.24,22.02,4,354.82,22 / 24,1088019,2019-11-06 10:59:55:362,0.9411,0.129,10.5521,0.0199,0.0145,9.8066,0.1531,-0.0519,-0.0018,-15.25,-35.62,-5.81,131.79,-85.62,56.38
10881,52.67337,-1.541613,179.24,22.02,4,354.82,22 / 24,1088121,2019-11-06 10:59:55:464,0.2264,-4.7583,9.7733,0.0541,-0.1387,9.8054,-0.0778,-0.3411,0.5275,-15.94,-35.62,-5.12,128.81,-86.38,50.14
10882,52.67337,-1.541613,179.24,22.02,4,354.82,22 / 24,1088220,2019-11-06 10:59:55:563,0.0721,-3.2886,8.7129,0.0267,-0.0709,9.8064,0.1244,0.2484,-0.0237,-16.75,-35.56,-5.25,128.81,-86.38,50.14
10883,52.67337,-1.541613,179.24,22.02,4,354.82,22 / 24,1088320,2019-11-06 10:59:55:663,-0.3367,-0.0196,7.9133,0.0078,-0.0476,9.8064,-0.2571,0.1248,0.1052,-16.19,-36.44,-5.44,125.14,-86.75,46.17
10884,52.67337,-1.541613,179.24,22.02,4,354.82,22 / 24,1088420,2019-11-06 10:59:55:763,0.0097,0.1602,8.6145,0.0012,-0.073,9.8063,0.0222,0.0615,-0.124,-16.19,-36.5,-5.06,117.94,-86.98,39.6
10885,52.67337,-1.541613,179.24,22.02,4,354.82,22 / 24,1088521,2019-11-06 10:59:55:864,-1.2838,-0.5062,9.4078,0.0009,0.0147,9.8066,0.0007,-0.1592,0.1292,-16.12,-36.5,-5.44,119.4,-86.95,41.07
10886,52.67337,-1.541613,179.24,22.02,4,354.82,22 / 24,1088620,2019-11-06 10:59:55:963,0.1756,-1.4807,9.972,0.0516,0.0575,9.8063,0.1539,0.0825,-0.0715,-15.87,-36.5,-5.0,119.4,-86.95,41.07
10887,52.67337,-1.541613,179.24,22.02,4,354.82,22 / 24,1088720,2019-11-06 10:59:56:063,-0.0947,-0.2331,10.207,0.0438,0.0384,9.8065,0.0907,0.2156,-0.1313,-15.75,-36.44,-5.56,124.19,-87.01,49.56
10888,52.67337,-1.541613,179.24,22.02,4,354.82,22 / 24,1088820,2019-11-06 10:59:56:163,-2.1923,1.8179,8.7704,0.1117,0.0907,9.8056,-0.1606,0.2467,-0.1155,-15.62,-36.69,-5.0,142.38,-87.14,65.91
10889,52.67337,-1.541613,179.24,22.02,4,354.82,22 / 24,1088920,2019-11-06 10:59:56:263,-1.4526,2.1605,7.5141,0.0088,-0.023,9.8065,0.1016,-0.0908,0.0733,-16.06,-36.19,-5.12,142.38,-87.14,65.91
10890,52.673573,-1.541657,178.92,22.6,4,352.29,22 / 22,1089020,2019-11-06 10:59:56:363,-1.8415,1.467,8.2851,0.0295,-0.0167,9.8066,0.1651,-0.1293,0.1173,-15.5,-36.87,-4.69,140.63,-87.28,65.05
10891,52.673573,-1.541657,178.92,22.6,4,352.29,22 / 22,1089119,2019-11-06 10:59:56:462,-0.6589,-0.652,10.3138,0.0699,-0.0203,9.8063,0.2064,-0.1159,0.0031,-15.5,-36.12,-5.69,145.8,-87.46,66.66
10892,52.673573,-1.541657,178.92,22.6,4,352.29,22 / 22,1089220,2019-11-06 10:59:56:563,-2.4052,2.0978,9.8391,0.0131,-0.0152,9.8065,-0.0203,0.2534,0.0649,-15.87,-36.69,-4.75,148.82,-87.77,73.65
10893,52.673573,-1.541657,178.92,22.6,4,352.29,22 / 22,1089320,2019-11-06 10:59:56:663,-3.0473,2.7595,10.0289,0.0109,-0.025,9.8066,-0.0436,0.3578,-0.2888,-15.06,-36.69,-5.19,147.23,-87.93,73.06
10894,52.673573,-1.541657,178.92,22.6,4,352.29,22 / 22,1089420,2019-11-06 10:59:56:763,-0.0794,0.5061,10.1587,0.0096,-0.0332,9.8065,0.0491,-0.1475,0.0306,-15.75,-36.94,-4.87,147.23,-87.93,73.06
10895,52.673573,-1.541657,178.92,22.6,4,352.29,22 / 22,1089520,2019-11-06 10:59:56:863,1.848,-1.6069,12.068,-0.0146,-0.0204,9.8066,0.1547,-0.2652,0.2718,-16.56,-36.69,-5.06,146.18,-88.12,71.3
10896,52.673573,-1.541657,178.92,22.6,4,352.29,22 / 22,1089620,2019-11-06 10:59:56:963,2.3916,-1.4114,11.1457,0.0073,-0.0412,9.8065,-0.0948,-0.0184,0.031,-15.87,-36.62,-4.5,144.46,-88.37,66.38
10897,52.673573,-1.541657,178.92,22.6,4,352.29,22 / 22,1089720,2019-11-06 10:59:57:063,0.6468,1.846,10.9696,0.0205,-0.055,9.8065,-0.0483,0.187,0.0298,-15.75,-36.69,-4.25,140.27,-88.7,62.45
10898,52.673573,-1.541657,178.92,22.6,4,352.29,22 / 22,1089820,2019-11-06 10:59:57:163,0.665,2.0941,10.7126,-0.019,0.0218,9.8066,-0.0359,0.2066,-0.1246,-15.75,-36.31,-4.44,140.27,-88.7,62.45
10899,52.673573,-1.541657,178.92,22.6,4,352.29,22 / 22,1089920,2019-11-06 10:59:57:263,-1.5154,2.247,10.3239,0.0116,-0.0054,9.8066,-0.0213,-0.2207,0.1585,-15.94,-36.44,-4.81,136.52,-88.59,61.8
10900,52.673775,-1.54171,178.45,22.72,4,349.07,21 / 21,1090019,2019-11-06 10:59:57:362,1.7345,-0.4393,12.6875,0.0739,0.0566,9.8061,0.4943,-0.4131,-0.036,-16.12,-36.75,-4.56,157.48,-88.54,83.61
10901,52.673775,-1.54171,178.45,22.72,4,349.07,21 / 21,1090120,2019-11-06 10:59:57:463,1.2694,1.5556,13.0057,-0.026,-0.0425,9.8065,-0.406,-0.0086,0.3224,-15.5,-36.94,-5.25,157.48,-88.54,83.61
10902,52.673775,-1.54171,178.45,22.72,4,349.07,21 / 21,1090220,2019-11-06 10:59:57:563,0.3769,4.5599,12.1789,0.0094,0.0166,9.8066,0.376,0.3628,-0.4192,-15.56,-36.87,-4.37,152.47,-88.76,79.57
10903,52.673775,-1.54171,178.45,22.72,4,349.07,21 / 21,1090320,2019-11-06 10:59:57:663,1.1625,3.5583,11.8344,0.0002,-0.0159,9.8066,-0.4343,0.1224,0.2318,-15.19,-36.56,-4.12,164.64,-88.51,88.63
10904,52.673775,-1.54171,178.45,22.72,4,349.07,21 / 21,1090420,2019-11-06 10:59:57:763,1.6225,0.8932,11.4438,-0.004,-0.0424,9.8065,0.0126,0.1007,0.0664,-15.44,-36.87,-4.06,164.64,-88.51,88.63
10905,52.673775,-1.54171,178.45,22.72,4,349.07,21 / 21,1090520,2019-11-06 10:59:57:863,2.5897,0.6418,11.4812,0.0206,-0.0764,9.8062,0.2737,-0.1381,-0.0517,-15.31,-36.62,-4.31,161.46,-88.74,84.63
10906,52.673775,-1.54171,178.45,22.72,4,349.07,21 / 21,1090619,2019-11-06 10:59:57:962,-0.4574,1.0777,9.2871,-0.0089,0.0155,9.8066,0.1318,0.3659,-0.3725,-15.0,-36.75,-4.37,157.41,-89.32,81.72
10907,52.673775,-1.54171,178.45,22.72,4,349.07,21 / 21,1090720,2019-11-06 10:59:58:063,-1.5815,1.3807,8.209,-0.0252,0.0303,9.8065,-0.1876,0.1235,0.0012,-15.44,-36.62,-4.37,153.45,-89.1,77.42
10908,52.673775,-1.54171,178.45,22.72,4,349.07,21 / 21,1090820,2019-11-06 10:59:58:163,-1.4064,0.7696,7.7195,-0.0654,-0.0715,9.8061,-0.1558,0.1159,0.2322,-15.19,-36.44,-5.0,153.45,-89.1,77.42
10909,52.673775,-1.54171,178.45,22.72,4,349.07,21 / 21,1090920,2019-11-06 10:59:58:263,-2.0115,-1.3014,9.9459,0.035,-0.0238,9.8065,0.186,-0.024,-0.1404,-15.0,-35.69,-4.44,117.29,-89.12,40.41
10910,52.673973,-1.541786,177.84,22.43,4,344.47,21 / 22,1091019,2019-11-06 10:59:58:362,-1.0106,1.4667,9.7472,0.0579,-0.0324,9.8063,0.0415,-0.0585,0.0876,-14.62,-36.44,-3.94,114.96,-89.51,38.86
10911,52.673973,-1.541786,177.84,22.43,4,344.47,21 / 22,1091120,2019-11-06 10:59:58:463,0.2249,0.0968,12.2165,0.057,-0.0492,9.8063,0.2937,0.1295,-0.1916,-13.62,-36.56,-4.69,114.96,-89.51,38.86
10912,52.673973,-1.541786,177.84,22.43,4,344.47,21 / 22,1091220,2019-11-06 10:59:58:563,-1.517,4.0659,10.485,0.0556,0.1252,9.8056,0.0905,0.0514,-0.1164,-13.25,-36.31,-4.44,48.94,-89.86,-21.67
10913,52.673973,-1.541786,177.84,22.43,4,344.47,21 / 22,1091320,2019-11-06 10:59:58:663,-0.5492,-0.4243,10.3426,-0.0675,0.086,9.806,-0.2203,0.1502,-0.0753,-12.62,-35.19,-2.25,208.81,-89.32,128.42
10914,52.673973,-1.541786,177.84,22.43,4,344.47,21 / 22,1091419,2019-11-06 10:59:58:762,-2.1446,1.5499,10.0786,-0.1392,0.1332,9.8047,-0.0746,0.0626,-0.0298,-16.0,-34.94,-3.81,157.24,-88.54,80.09
10915,52.673973,-1.541786,177.84,22.43,4,344.47,21 / 22,1091520,2019-11-06 10:59:58:863,-1.8293,2.2112,10.6747,-0.0106,-0.0002,9.8066,-0.0314,0.0014,0.1,-14.81,-35.69,-4.44,157.24,-88.54,80.09
10916,52.673973,-1.541786,177.84,22.43,4,344.47,21 / 22,1091620,2019-11-06 10:59:58:963,-0.8837,4.2549,10.2785,0.0071,-0.0097,9.8066,0.1359,0.1041,0.0282,-13.31,-36.69,-4.06,153.53,-88.52,77.86
10917,52.673973,-1.541786,177.84,22.43,4,344.47,21 / 22,1091720,2019-11-06 10:59:59:063,-0.3529,1.1053,9.1583,0.0379,-0.0515,9.8064,-0.0974,0.3194,-0.1696,-13.5,-36.62,-3.75,152.16,-88.72,77.64
10918,52.673973,-1.541786,177.84,22.43,4,344.47,21 / 22,1091820,2019-11-06 10:59:59:163,-1.3998,-0.1921,9.6955,0.0014,-0.0714,9.8063,0.08,0.2196,-0.1616,-13.37,-36.5,-3.44,152.16,-88.72,77.64
10919,52.673973,-1.541786,177.84,22.43,4,344.47,21 / 22,1091920,2019-11-06 10:59:59:263,-0.1168,3.9632,9.9696,-0.0446,-0.0685,9.8063,0.1031,-0.0729,0.0648,-13.81,-36.62,-3.81,144.39,-89.08,65.9
10920,52.674164,-1.541888,177.37,22.04,4,339.75,22 / 24,1092020,2019-11-06 10:59:59:363,-0.0847,4.7324,10.5281,0.0143,-0.0846,9.8062,-0.041,-0.5097,0.5208,-14.0,-36.5,-4.37,68.12,-89.27,-7.6
10921,52.674164,-1.541888,177.37,22.04,4,339.75,22 / 24,1092120,2019-11-06 10:59:59:463,-0.9153,1.9422,10.4631,0.0716,-0.1085,9.8058,0.0534,-0.1881,0.1317,-14.25,-36.44,-3.5,18.85,-89.06,-59.82
10922,52.674164,-1.541888,177.37,22.04,4,339.75,22 / 24,1092220,2019-11-06 10:59:59:563,-2.7899,-1.7658,11.0649,-0.005,0.0251,9.8066,-0.1651,0.2901,-0.098,-14.25,-36.56,-3.69,18.85,-89.06,-59.82
10923,52.674164,-1.541888,177.37,22.04,4,339.75,22 / 24,1092320,2019-11-06 10:59:59:663,0.5153,-1.2583,10.4959,-0.0729,0.054,9.8062,0.0586,0.169,-0.2249,-13.62,-36.75,-3.37,24.24,-89.18,-54.53
10924,52.674164,-1.541888,177.37,22.04,4,339.75,22 / 24,1092420,2019-11-06 10:59:59:763,2.9061,1.8561,10.4154,-0.0426,0.0959,9.806,-0.0578,-0.1538,0.1785,-14.0,-36.56,-4.25,69.32,-89.39,-6.2
10925,52.674164,-1.541888,177.37,22.04,4,339.75,22 / 24,1092519,2019-11-06 10:59:59:862,-3.4675,3.9268,9.2196,0.0103,0.0641,9.8064,-0.087,-0.2049,0.1966,-13.56,-36.19,-3.19,69.32,-89.39,-6.2
10926,52.674164,-1.541888,177.37,22.04,4,339.75,22 / 24,1092619,2019-11-06 10:59:59:962,-0.0921,0.2353,9.4352,-0.0788,0.0681,9.806,-0.1341,0.2483,0.0427,-12.37,-36.31,-3.37,110.08,-89.46,31.68
10927,52.674164,-1.541888,177.37,22.04,4,339.75,22 / 24,1092721,2019-11-06 11:00:00:064,0.5415,-1.8644,9.4505,-0.0224,0.0092,9.8066,-0.0581,0.4506,-0.2827,-12.37,-36.31,-3.75,117.14,-88.87,42.73
10928,52.674164,-1.541888,177.37,22.04,4,339.75,22 / 24,1092820,2019-11-06 11:00:00:163,-0.4319,1.2789,9.2368,-0.0278,-0.0088,9.8066,-0.0016,0.3912,-0.0675,-12.56,-36.75,-2.81,117.34,-88.75,37.25
10929,52.674164,-1.541888,177.37,22.04,4,339.75,22 / 24,1092919,2019-11-06 11:00:00:262,-1.4156,3.1532,9.366,0.0191,-0.0755,9.8063,-0.0516,0.0418,0.0499,-12.56,-36.12,-3.12,117.34,-88.75,37.25
10930,52.674343,-1.542007,176.96,21.57,4,335.47,21 / 23,1093021,2019-11-06 11:00:00:364,-2.024,2.5919,9.7978,0.0161,-0.0293,9.8066,0.0512,-0.1811,0.1119,-13.06,-37.06,-3.12,97.24,-88.99,17.53
10931,52.674343,-1.542007,176.96,21.57,4,335.47,21 / 23,1093119,2019-11-06 11:00:00:462,0.3857,-0.9172,11.1021,0.0076,0.013,9.8066,-0.0095,0.0513,0.0417,-13.06,-36.94,-2.69,81.78,-89.16,2.46
10932,52.674343,-1.542007,176.96,21.57,4,335.47,21 / 23,1093220,2019-11-06 11:00:00:563,-0.5267,2.9039,10.7253,0.021,0.0628,9.8063,-0.037,0.2095,-0.0924,-12.81,-37.19,-3.12,81.78,-89.16,2.46
10933,52.674343,-1.542007,176.96,21.57,4,335.47,21 / 23,1093320,2019-11-06 11:00:00:663,-0.4717,3.18,10.6041,-0.0041,0.0025,9.8066,0.083,0.3281,-0.1856,-12.81,-37.31,-2.69,108.69,-89.25,29.7
10934,52.674343,-1.542007,176.96,21.57,4,335.47,21 / 23,1093420,2019-11-06 11:00:00:763,-0.3717,0.6133,10.1933,-0.0101,-0.0143,9.8066,-0.3547,0.1491,0.1528,-12.19,-36.75,-2.87,101.61,-89.1,23.01
10935,52.674343,-1.542007,176.96,21.57,4,335.47,21 / 23,1093520,2019-11-06 11:00:00:863,-1.4639,1.8338,10.1033,-0.0158,-0.043,9.8065,-0.0027,0.257,0.0145,-12.44,-36.94,-3.44,86.14,-89.03,7.27
10936,52.674343,-1.542007,176.96,21.57,4,335.47,21 / 23,1093620,2019-11-06 11:00:00:963,-1.3166,1.6446,11.8067,0.0222,-0.0642,9.8063,0.2973,-0.1512,-0.0126,-12.19,-37.0,-3.06,86.14,-89.03,7.27
10937,52.674343,-1.542007,176.96,21.57,4,335.47,21 / 23,1093719,2019-11-06 11:00:01:062,-0.1451,2.9676,10.9615,0.0349,0.0423,9.8064,-0.1489,-0.1542,0.318,-12.75,-37.5,-3.0,67.24,-89.05,-16.49
10938,52.674343,-1.542007,176.96,21.57,4,335.47,21 / 23,1093820,2019-11-06 11:00:01:163,0.4788,0.8549,11.0082,0.0432,0.0749,9.8062,-0.0167,0.2997,-0.2328,-12.19,-36.94,-2.62,90.46,-89.37,12.62
10939,52.674343,-1.542007,176.96,21.57,4,335.47,21 / 23,1093920,2019-11-06 11:00:01:263,1.5087,-0.2275,9.8481,-0.0369,0.0024,9.8065,-0.1945,0.296,-0.0382,-11.69,-36.69,-2.37,90.46,-89.37,12.62
10940,52.67452,-1.542147,176.63,21.03,4,331.88,24 / 25,1094020,2019-11-06 11:00:01:363,0.5826,0.5528,9.2145,-0.0764,-0.0144,9.8063,0.0493,0.0108,-0.0345,-11.87,-36.19,-2.31,95.92,-89.16,13.44
10941,52.67452,-1.542147,176.63,21.03,4,331.88,24 / 25,1094120,2019-11-06 11:00:01:463,0.1662,3.4067,10.1027,-0.0346,0.0112,9.8066,-0.0502,-0.1432,0.1663,-12.5,-35.81,-1.62,91.99,-88.71,7.65
10942,52.67452,-1.542147,176.63,21.03,4,331.88,24 / 25,1094220,2019-11-06 11:00:01:563,0.3559,2.8866,10.6942,-0.0385,0.0215,9.8065,0.1405,0.1311,-0.0209,-12.87,-36.12,-3.12,93.2,-88.48,12.09
10943,52.67452,-1.542147,176.63,21.03,4,331.88,24 / 25,1094320,2019-11-06 11:00:01:663,2.3085,-2.7014,10.401,0.0391,-0.0618,9.8063,-0.1813,0.3917,-0.1416,-12.44,-36.87,-2.75,93.2,-88.48,12.09
10944,52.67452,-1.542147,176.63,21.03,4,331.88,24 / 25,1094420,2019-11-06 11:00:01:763,-0.2629,-3.233,9.9072,0.0081,-0.0329,9.8065,0.0699,0.4558,-0.3218,-11.81,-36.25,-2.25,76.5,-88.68,-3.2
10945,52.67452,-1.542147,176.63,21.03,4,331.88,24 / 25,1094520,2019-11-06 11:00:01:863,-1.196,0.7959,9.6108,0.0028,0.0229,9.8065,-0.0258,0.1049,-0.019,-11.81,-36.31,-2.75,62.52,-88.7,-16.82
10946,52.67452,-1.542147,176.63,21.03,4,331.88,24 / 25,1094620,2019-11-06 11:00:01:963,-5.6067,3.6987,8.7289,0.0029,0.13,9.8057,0.4472,-0.5228,0.1204,-11.25,-35.87,-2.5,62.52,-88.7,-16.82
10947,52.67452,-1.542147,176.63,21.03,4,331.88,24 / 25,1094720,2019-11-06 11:00:02:063,-1.9849,-0.8404,8.6464,0.0312,0.0385,9.8065,-0.1101,-0.1285,0.1087,-11.31,-36.81,-2.81,101.9,-88.85,18.58
10948,52.67452,-1.542147,176.63,21.03,4,331.88,24 / 25,1094820,2019-11-06 11:00:02:163,-0.1026,-2.2096,9.1049,0.0009,-0.0137,9.8066,-0.1274,0.4426,-0.1063,-11.31,-36.69,-2.37,113.16,-89.05,30.59
10949,52.67452,-1.542147,176.63,21.03,4,331.88,24 / 25,1094920,2019-11-06 11:00:02:263,-2.3018,-0.8496,9.437,0.0134,0.0053,9.8066,0.0898,0.6163,-0.406,-10.81,-36.75,-2.37,95.17,-89.16,12.71
10950,52.67468,-1.5423,176.36,20.45,4,327.73,24 / 24,1095020,2019-11-06 11:00:02:363,-1.1005,0.8764,9.5211,0.0137,0.0085,9.8066,-0.0779,0.1022,0.1177,-10.69,-36.81,-2.44,95.17,-89.16,12.71
10951,52.67468,-1.5423,176.36,20.45,4,327.73,24 / 24,1095120,2019-11-06 11:00:02:463,-1.0964,1.6841,9.4274,-0.0206,0.0141,9.8065,0.0345,0.2447,-0.031,-11.0,-36.94,-2.37,115.45,-89.12,33.14
10952,52.67468,-1.5423,176.36,20.45,4,327.73,24 / 24,1095220,2019-11-06 11:00:02:563,-0.2543,3.9078,8.6295,-0.0068,-0.0298,9.8065,-0.1736,0.4602,-0.2706,-11.37,-37.25,-2.0,125.72,-88.8,42.79
10953,52.67468,-1.5423,176.36,20.45,4,327.73,24 / 24,1095320,2019-11-06 11:00:02:663,0.1847,2.7939,8.2455,-0.0155,-0.0469,9.8065,-0.1333,0.389,-0.1724,-10.94,-37.12,-1.81,125.72,-88.8,42.79
10954,52.67468,-1.5423,176.36,20.45,4,327.73,24 / 24,1095420,2019-11-06 11:00:02:763,-0.2507,-4.0324,11.0721,-0.0058,-0.0278,9.8065,0.0489,0.057,-0.0678,-10.12,-37.0,-2.0,107.24,-88.85,28.94
10955,52.67468,-1.5423,176.36,20.45,4,327.73,24 / 24,1095520,2019-11-06 11:00:02:863,-1.5527,-0.988,12.0979,0.0274,0.0102,9.8065,0.121,-0.2432,0.1784,-10.06,-37.56,-2.06,108.77,-88.69,25.46
10956,52.67468,-1.5423,176.36,20.45,4,327.73,24 / 24,1095620,2019-11-06 11:00:02:963,0.489,3.938,10.3032,0.0661,-0.0089,9.8064,-0.1689,-0.0194,0.1624,-10.19,-36.94,-1.94,111.91,-89.07,30.09
10957,52.67468,-1.5423,176.36,20.45,4,327.73,24 / 24,1095720,2019-11-06 11:00:03:063,-0.3625,3.7145,9.5007,-0.0459,0.0181,9.8065,-0.0783,0.3278,-0.3024,-10.37,-37.37,-1.81,111.91,-89.07,30.09
10958,52.67468,-1.5423,176.36,20.45,4,327.73,24 / 24,1095820,2019-11-06 11:00:03:163,-0.631,-0.2466,11.2057,-0.0339,-0.0019,9.8066,0.0763,0.0847,-0.0575,-10.44,-37.0,-1.56,112.75,-88.78,29.98
10959,52.67468,-1.5423,176.36,20.45,4,327.73,24 / 24,1095920,2019-11-06 11:00:03:263,0.1803,-0.8116,11.3787,0.0436,-0.0153,9.8065,0.0348,0.0203,-0.1245,-10.62,-37.19,-1.37,113.68,-88.47,24.17
10960,52.67483,-1.542468,176.15,20.16,6,323.64,23 / 23,1096020,2019-11-06 11:00:03:363,0.8483,0.9905,11.322,0.039,0.0275,9.8065,0.0645,-0.137,0.0829,-9.5,-37.19,-1.75,116.46,-88.59,33.92
10961,52.67483,-1.542468,176.15,20.16,6,323.64,23 / 23,1096120,2019-11-06 11:00:03:463,0.2228,3.4221,10.5445,-0.0046,0.045,9.8065,-0.0965,-0.1718,0.0634,-10.0,-36.87,-1.44,116.46,-88.59,33.92
10962,52.67483,-1.542468,176.15,20.16,6,323.64,23 / 23,1096220,2019-11-06 11:00:03:563,0.2144,-0.6226,11.5026,0.013,0.0101,9.8066,0.1847,-0.0804,0.0051,-9.69,-37.0,-0.87,139.15,-88.16,50.42
10963,52.67483,-1.542468,176.15,20.16,6,323.64,23 / 23,1096320,2019-11-06 11:00:03:663,1.5703,0.6636,10.6464,-0.0034,0.0052,9.8066,-0.1425,0.3923,-0.1508,-9.12,-36.12,-1.31,143.07,-88.14,54.97
10964,52.67483,-1.542468,176.15,20.16,6,323.64,23 / 23,1096420,2019-11-06 11:00:03:763,3.9523,5.0843,10.0031,-0.0238,-0.0018,9.8066,0.1307,0.3191,-0.4054,-8.75,-36.75,-1.19,143.07,-88.14,54.97
10965,52.67483,-1.542468,176.15,20.16,6,323.64,23 / 23,1096520,2019-11-06 11:00:03:863,1.8082,-0.9036,9.1571,-0.0285,0.0437,9.8065,0.1354,0.4672,-0.4111,-8.87,-37.06,-1.0,141.24,-87.76,45.5
10966,52.67483,-1.542468,176.15,20.16,6,323.64,23 / 23,1096620,2019-11-06 11:00:03:963,1.5165,2.7349,8.9608,-0.0077,0.0139,9.8066,0.2008,-0.0206,-0.0885,-8.37,-37.12,-0.44,142.35,-87.31,44.75
10967,52.67483,-1.542468,176.15,20.16,6,323.64,23 / 23,1096720,2019-11-06 11:00:04:063,1.4373,2.1114,9.838,-0.0322,0.0138,9.8066,0.0565,0.2034,-0.0323,-8.56,-37.19,-0.75,134.76,-87.13,42.76
10968,52.67483,-1.542468,176.15,20.16,6,323.64,23 / 23,1096820,2019-11-06 11:00:04:163,-0.1112,-0.7784,9.5856,-0.0324,0.0037,9.8065,-0.0028,0.2221,-0.1152,-8.62,-36.69,-0.87,134.76,-87.13,42.76
10969,52.67483,-1.542468,176.15,20.16,6,323.64,23 / 23,1096920,2019-11-06 11:00:04:263,-0.8998,0.2431,10.3398,0.0095,0.0376,9.8065,0.029,0.007,-0.0427,-8.44,-36.81,-0.44,141.15,-86.94,42.27
10970,52.67497,-1.542652,175.94,19.74,6,319.19,23 / 23,1097020,2019-11-06 11:00:04:363,-0.6902,0.705,9.579,0.012,0.0848,9.8062,0.1436,-0.384,0.2138,-7.75,-36.56,-0.81,141.13,-86.58,48.4
10971,52.67497,-1.542652,175.94,19.74,6,319.19,23 / 23,1097120,2019-11-06 11:00:04:463,-1.4603,3.748,9.347,0.0434,0.0769,9.8062,0.0864,-0.09,0.0379,-8.06,-36.81,-0.5,141.13,-86.58,48.4
10972,52.67497,-1.542652,175.94,19.74,6,319.19,23 / 23,1097220,2019-11-06 11:00:04:563,2.1497,0.7688,8.7967,0.0208,0.0265,9.8066,-0.2068,0.5131,-0.2648,-6.94,-36.37,-0.31,147.73,-86.36,55.96
10973,52.67497,-1.542652,175.94,19.74,6,319.19,23 / 23,1097320,2019-11-06 11:00:04:663,1.5698,-3.8895,9.4154,0.0191,0.0226,9.8065,-0.0767,0.2971,-0.1829,-7.25,-36.37,-0.5,156.18,-86.3,58.51
10974,52.67497,-1.542652,175.94,19.74,6,319.19,23 / 23,1097420,2019-11-06 11:00:04:763,-0.4456,-1.6304,9.4328,-0.0518,0.0807,9.8062,0.0882,-0.1905,0.0752,-6.31,-36.0,-1.0,150.37,-85.74,57.35
10975,52.67497,-1.542652,175.94,19.74,6,319.19,23 / 23,1097520,2019-11-06 11:00:04:863,-0.5594,2.8081,7.9614,-0.0148,0.0507,9.8064,0.1068,-0.5009,0.3541,-6.94,-36.69,-0.5,150.37,-85.74,57.35
10976,52.67497,-1.542652,175.94,19.74,6,319.19,23 / 23,1097620,2019-11-06 11:00:04:963,-2.2773,5.1277,8.0816,0.0217,0.0124,9.8065,-0.0513,0.6809,-0.407,-7.0,-36.44,-0.69,151.26,-85.44,58.24
10977,52.67497,-1.542652,175.94,19.74,6,319.19,23 / 23,1097720,2019-11-06 11:00:05:063,0.0174,4.1343,9.635,0.1113,-0.0209,9.806,-0.3263,0.3237,-0.175,-6.69,-36.44,-0.37,161.92,-85.83,65.3
10978,52.67497,-1.542652,175.94,19.74,6,319.19,23 / 23,1097820,2019-11-06 11:00:05:163,1.4178,-4.0452,10.9879,-0.0038,-0.062,9.8064,-0.0178,-0.5767,0.35,-6.25,-36.25,-0.06,161.92,-85.83,65.3
10979,52.67497,-1.542652,175.94,19.74,6,319.19,23 / 23,1097920,2019-11-06 11:00:05:263,0.953,-7.1348,11.0311,-0.0305,0.0098,9.8065,0.2222,-0.7924,0.4713,-7.12,-36.37,-0.06,160.01,-86.17,63.3
10980,52.6751,-1.542845,175.76,19.49,6,316.76,23 / 24,1098020,2019-11-06 11:00:05:363,-0.4902,4.1145,10.0148,-0.0111,0.0488,9.8064,-0.0565,0.6692,-0.3047,-6.69,-37.37,0.0,159.2,-85.68,61.13
10981,52.6751,-1.542845,175.76,19.49,6,316.76,23 / 24,1098120,2019-11-06 11:00:05:463,1.868,4.7736,9.569,-0.0287,-0.0049,9.8065,-0.0923,0.8386,-0.5107,-6.56,-36.31,0.38,159.2,-85.68,61.13
10982,52.6751,-1.542845,175.76,19.49,6,316.76,23 / 24,1098220,2019-11-06 11:00:05:563,0.0795,-3.8661,9.3091,-0.0177,0.1002,9.806,-0.2376,0.5905,-0.1987,-6.81,-36.62,-0.25,158.49,-85.65,58.93
10983,52.6751,-1.542845,175.76,19.49,6,316.76,23 / 24,1098320,2019-11-06 11:00:05:663,-0.785,-6.0101,10.0152,-0.0387,-0.0002,9.8066,0.0956,-0.1746,-0.0789,-6.31,-36.56,-0.06,158.81,-85.24,58.22
10984,52.6751,-1.542845,175.76,19.49,6,316.76,23 / 24,1098420,2019-11-06 11:00:05:763,-0.5166,1.4054,11.8559,-0.055,-0.0312,9.8064,-0.0668,-0.3342,0.1509,-6.31,-36.0,-0.19,155.51,-85.28,53.77
10985,52.6751,-1.542845,175.76,19.49,6,316.76,23 / 24,1098520,2019-11-06 11:00:05:863,1.203,1.7408,9.5612,0.0634,0.0746,9.8061,-0.0463,-0.2589,0.2617,-6.44,-36.37,-0.75,155.51,-85.28,53.77
10986,52.6751,-1.542845,175.76,19.49,6,316.76,23 / 24,1098620,2019-11-06 11:00:05:963,-1.1775,-3.0251,8.6743,0.0414,0.0384,9.8064,-0.1263,0.3515,-0.0997,-6.56,-36.62,-0.19,153.09,-85.01,59.73
10987,52.6751,-1.542845,175.76,19.49,6,316.76,23 / 24,1098720,2019-11-06 11:00:06:063,-3.5469,-6.9634,10.0145,0.0289,-0.002,9.8066,0.1622,0.6989,-0.6075,-6.31,-36.94,-0.06,161.17,-85.09,61.43
10988,52.6751,-1.542845,175.76,19.49,6,316.76,23 / 24,1098820,2019-11-06 11:00:06:163,0.6414,1.637,8.8877,0.012,-0.1306,9.8057,-0.0336,-0.1562,0.0157,-6.81,-36.75,0.0,161.17,-85.09,61.43
10989,52.6751,-1.542845,175.76,19.49,6,316.76,23 / 24,1098920,2019-11-06 11:00:06:263,1.4242,3.6222,9.2377,0.0619,0.0673,9.8062,0.1269,-0.4801,0.2176,-6.19,-36.62,0.5,158.21,-85.84,58.95
10990,52.67523,-1.543047,175.11,19.23,6,315.04,24 / 24,1099020,2019-11-06 11:00:06:363,1.05,-3.3606,9.8021,-0.0277,0.0467,9.8065,0.0323,-0.4441,0.1558,-6.87,-36.69,0.25,162.28,-85.58,65.21
10991,52.67523,-1.543047,175.11,19.23,6,315.04,24 / 24,1099120,2019-11-06 11:00:06:463,0.4021,-3.9091,8.3119,-0.0536,0.0163,9.8064,0.0457,-0.1245,0.245,-6.62,-36.62,0.38,160.12,-85.38,61.86
10992,52.67523,-1.543047,175.11,19.23,6,315.04,24 / 24,1099220,2019-11-06 11:00:06:563,2.1966,1.331,6.7645,-0.1992,-0.1502,9.8035,-0.0639,0.5225,-0.3904,-6.81,-37.19,0.13,160.12,-85.38,61.86
10993,52.67523,-1.543047,175.11,19.23,6,315.04,24 / 24,1099319,2019-11-06 11:00:06:662,1.0715,4.3272,9.5362,-0.0713,-0.0384,9.8062,-0.2004,-0.1043,0.1184,-7.25,-36.25,-0.56,146.37,-85.59,43.43
10994,52.67523,-1.543047,175.11,19.23,6,315.04,24 / 24,1099420,2019-11-06 11:00:06:763,0.6196,-5.2853,9.8834,0.0465,0.0705,9.8062,0.2469,-0.6461,0.3,-6.69,-36.44,-0.94,134.01,-85.52,35.59
10995,52.67523,-1.543047,175.11,19.23,6,315.04,24 / 24,1099520,2019-11-06 11:00:06:863,1.7082,-0.9158,10.5375,0.1129,0.2584,9.8025,0.1418,-0.1477,-0.0289,-6.56,-36.12,-0.56,134.01,-85.52,35.59
10996,52.67523,-1.543047,175.11,19.23,6,315.04,24 / 24,1099620,2019-11-06 11:00:06:963,0.9088,3.5838,12.3905,0.0141,-0.002,9.8066,-0.1022,-0.0342,0.2927,-6.19,-36.25,-0.5,154.35,-84.72,52.61
10997,52.67523,-1.543047,175.11,19.23,6,315.04,24 / 24,1099719,2019-11-06 11:00:07:062,-0.4259,1.3366,10.5543,-0.0072,-0.0302,9.8066,0.0864,0.2087,-0.3209,-6.69,-36.0,-0.12,154.74,-84.95,53.69
10998,52.67523,-1.543047,175.11,19.23,6,315.04,24 / 24,1099820,2019-11-06 11:00:07:163,-0.4183,-1.4322,10.7303,0.0141,0.0273,9.8066,0.0366,0.2964,-0.0874,-6.12,-36.25,-0.62,149.98,-85.08,54.8
10999,52.67523,-1.543047,175.11,19.23,6,315.04,24 / 24,1099920,2019-11-06 11:00:07:263,-1.7461,-3.5525,10.1939,0.0164,0.0498,9.8065,-0.0529,0.1425,-0.1057,-6.62,-35.81,-0.31,149.98,-85.08,54.8
11000,52.67535,-1.543251,174.18,18.89,6,315.3,21 / 22,1100019,2019-11-06 11:00:07:362,-0.6243,0.35,10.9102,0.023,-0.0066,9.8066,0.0064,0.1416,-0.1697,-5.94,-36.0,0.13,158.81,-84.87,59.32
11001,52.67535,-1.543251,174.18,18.89,6,315.3,21 / 22,1100120,2019-11-06 11:00:07:463,-1.3931,1.0968,10.0339,0.0412,0.0436,9.8064,0.0143,-0.1401,0.0218,-6.44,-36.19,-0.12,162.34,-84.71,62.76
11002,52.67535,-1.543251,174.18,18.89,6,315.3,21 / 22,1100220,2019-11-06 11:00:07:563,0.9338,0.3088,9.3419,-0.0194,0.0266,9.8065,-0.0657,0.0181,-0.0116,-5.87,-36.06,-0.94,162.34,-84.71,62.76
11003,52.67535,-1.543251,174.18,18.89,6,315.3,21 / 22,1100320,2019-11-06 11:00:07:663,-2.136,-1.2887,10.1832,-0.0037,0.001,9.8066,-0.0156,0.1101,-0.0649,-7.0,-36.19,-0.31,161.16,-84.53,62.12
11004,52.67535,-1.543251,174.18,18.89,6,315.3,21 / 22,1100420,2019-11-06 11:00:07:763,-0.7215,-1.5483,9.9693,0.0072,-0.0019,9.8066,-0.0281,0.0758,-0.0576,-6.19,-35.87,-1.0,155.67,-84.44,61.56
11005,52.67535,-1.543251,174.18,18.89,6,315.3,21 / 22,1100520,2019-11-06 11:00:07:863,-0.79,0.5474,10.0245,0.0068,0.0104,9.8066,0.0749,-0.0482,0.0111,-6.0,-36.12,0.0,163.17,-84.54,63.73
11006,52.67535,-1.543251,174.18,18.89,6,315.3,21 / 22,1100620,2019-11-06 11:00:07:963,0.298,1.733,9.3406,0.0132,0.0054,9.8066,0.0058,-0.2521,0.125,-5.81,-36.12,-0.37,163.17,-84.54,63.73
11007,52.67535,-1.543251,174.18,18.89,6,315.3,21 / 22,1100720,2019-11-06 11:00:08:063,0.1636,0.3624,9.9292,0.0027,-0.0096,9.8066,0.0247,-0.185,0.1675,-5.81,-36.06,0.0,163.52,-84.5,64.19
11008,52.67535,-1.543251,174.18,18.89,6,315.3,21 / 22,1100820,2019-11-06 11:00:08:163,1.5907,-1.2899,11.0739,0.0209,0.0622,9.8063,-0.2185,-0.0021,0.1896,-5.75,-35.75,0.19,163.67,-84.74,64.83
11009,52.67535,-1.543251,174.18,18.89,6,315.3,21 / 22,1100920,2019-11-06 11:00:08:263,2.8265,7.1893,9.9574,0.0377,0.1016,9.806,-0.1567,0.8449,-0.4838,-5.12,-35.69,-0.12,163.67,-84.74,64.83
11010,52.67548,-1.543458,173.14,18.66,6,315.14,24 / 24,1101020,2019-11-06 11:00:08:363,2.9849,5.5772,10.8292,0.0641,0.095,9.8059,0.1263,0.7485,-0.5639,-6.87,-36.19,-0.94,166.73,-84.22,68.59
11011,52.67548,-1.543458,173.14,18.66,6,315.14,24 / 24,1101121,2019-11-06 11:00:08:464,0.7411,-5.4872,11.0755,0.023,-0.042,9.8065,-0.1921,0.2443,-0.1084,-6.12,-36.12,-0.12,170.1,-83.9,73.85
11012,52.67548,-1.543458,173.14,18.66,6,315.14,24 / 24,1101220,2019-11-06 11:00:08:563,0.373,-4.293,10.113,0.0173,-0.06,9.8064,0.2236,-0.8534,0.3972,-5.31,-36.5,-0.56,164.05,-84.26,74.25
11013,52.67548,-1.543458,173.14,18.66,6,315.14,24 / 24,1101319,2019-11-06 11:00:08:662,-1.7629,-0.5474,10.815,-0.0418,0.0854,9.8061,-0.0363,-0.3485,0.2519,-5.19,-36.56,-0.06,164.05,-84.26,74.25
11014,52.67548,-1.543458,173.14,18.66,6,315.14,24 / 24,1101420,2019-11-06 11:00:08:763,1.5605,1.4772,10.9887,0.0425,0.033,9.8065,0.0734,-0.1242,-0.0122,-5.44,-35.31,0.13,170.65,-83.71,73.35
11015,52.67548,-1.543458,173.14,18.66,6,315.14,24 / 24,1101520,2019-11-06 11:00:08:863,-1.3605,-5.9518,9.9346,0.062,0.0162,9.8064,0.0834,0.6121,-0.2873,-5.19,-35.87,0.0,172.58,-83.67,76.74
11016,52.67548,-1.543458,173.14,18.66,6,315.14,24 / 24,1101620,2019-11-06 11:00:08:963,-1.5689,-5.8944,9.4447,-0.1028,-0.0784,9.8058,-0.2581,0.1282,0.0224,-5.31,-35.87,-0.19,172.58,-83.67,76.74
11017,52.67548,-1.543458,173.14,18.66,6,315.14,24 / 24,1101720,2019-11-06 11:00:09:063,-0.2429,-0.8686,9.1457,-0.0281,0.0459,9.8064,0.0732,-0.2885,0.159,-5.81,-35.62,-0.62,167.92,-84.01,70.45
11018,52.67548,-1.543458,173.14,18.66,6,315.14,24 / 24,1101820,2019-11-06 11:00:09:163,-0.5373,0.0307,9.6353,0.0138,0.0428,9.8065,0.1111,-0.2929,0.0215,-5.62,-36.19,-0.69,161.69,-83.71,69.49
11019,52.67548,-1.543458,173.14,18.66,6,315.14,24 / 24,1101920,2019-11-06 11:00:09:263,0.0949,-0.7805,9.4691,0.0338,0.0797,9.8062,0.067,-0.1025,0.0711,-5.44,-35.56,-0.44,170.36,-83.32,72.37
11020,52.67561,-1.543658,172.11,18.58,6,316.29,21 / 22,1102020,2019-11-06 11:00:09:363,0.7303,-2.4539,9.8941,0.025,0.0192,9.8066,-0.0121,0.1544,-0.0933,-5.31,-35.75,-0.25,170.36,-83.32,72.37
11021,52.67561,-1.543658,172.11,18.58,6,316.29,21 / 22,1102120,2019-11-06 11:00:09:463,-0.1163,-2.017,9.9268,0.0016,0.0238,9.8066,-0.017,0.0486,-0.0666,-4.94,-35.75,-0.31,171.17,-83.24,73.75
11022,52.67561,-1.543658,172.11,18.58,6,316.29,21 / 22,1102220,2019-11-06 11:00:09:563,1.3843,-2.6733,10.1493,-0.0051,0.0043,9.8066,0.0686,-0.0856,0.0448,-5.0,-35.81,-0.25,171.47,-83.03,74.08
11023,52.67561,-1.543658,172.11,18.58,6,316.29,21 / 22,1102320,2019-11-06 11:00:09:663,0.4279,-4.7103,9.7746,-0.043,0.0423,9.8064,-0.0637,0.0894,-0.0544,-5.69,-35.87,-0.75,171.47,-83.03,74.08
11024,52.67561,-1.543658,172.11,18.58,6,316.29,21 / 22,1102419,2019-11-06 11:00:09:762,-1.0649,-2.2205,9.6437,-0.0379,0.0503,9.8064,-0.0775,0.4595,-0.3359,-5.0,-35.69,-1.06,164.43,-82.75,72.4
11025,52.67561,-1.543658,172.11,18.58,6,316.29,21 / 22,1102519,2019-11-06 11:00:09:862,-0.6757,5.11,10.4013,0.0274,-0.0346,9.8065,0.0513,0.0205,-0.1035,-4.94,-35.37,-0.5,170.8,-82.11,72.05
11026,52.67561,-1.543658,172.11,18.58,6,316.29,21 / 22,1102620,2019-11-06 11:00:09:963,1.1848,-3.8571,10.8878,-0.0077,-0.0695,9.8064,0.0484,-0.9678,0.5792,-5.0,-35.44,-0.56,165.83,-82.61,74.78
11027,52.67561,-1.543658,172.11,18.58,6,316.29,21 / 22,1102720,2019-11-06 11:00:10:063,2.5971,-9.874,11.0414,0.0084,-0.0625,9.8064,0.2415,-1.0484,0.5241,-5.06,-35.75,-0.5,165.83,-82.61,74.78
11028,52.67561,-1.543658,172.11,18.58,6,316.29,21 / 22,1102820,2019-11-06 11:00:10:163,-0.3543,-4.5365,9.55,-0.0075,0.0968,9.8061,-0.0753,0.6475,-0.4352,-4.87,-36.0,-0.37,165.61,-82.56,73.88
11029,52.67561,-1.543658,172.11,18.58,6,316.29,21 / 22,1102920,2019-11-06 11:00:10:263,0.4325,3.5376,9.4408,-0.0179,0.0188,9.8065,-0.1222,0.6019,-0.3952,-4.5,-35.75,-0.12,173.79,-81.5,75.58
11030,52.67573,-1.543859,171.04,18.57,4,318.22,22 / 23,1103022,2019-11-06 11:00:10:365,0.7734,0.4602,10.1372,-0.0031,0.0009,9.8066,-0.0198,0.1551,-0.2089,-4.5,-35.81,-0.5,173.79,-81.5,75.58
11031,52.67573,-1.543859,171.04,18.57,4,318.22,22 / 23,1103120,2019-11-06 11:00:10:463,1.9082,-4.9453,10.8825,-0.0097,-0.0183,9.8065,0.0505,-0.2549,0.2105,-4.44,-35.81,-0.19,167.3,-81.49,75.46
11032,52.67573,-1.543859,171.04,18.57,4,318.22,22 / 23,1103220,2019-11-06 11:00:10:563,-0.6494,-2.9221,11.4601,0.0138,0.0329,9.8065,0.2139,-0.5387,0.2297,-4.19,-35.44,-0.25,172.85,-81.35,73.51
11033,52.67573,-1.543859,171.04,18.57,4,318.22,22 / 23,1103320,2019-11-06 11:00:10:663,-1.2551,0.8706,11.2582,0.0572,0.0662,9.8062,-0.079,-0.085,0.1042,-4.31,-35.0,-0.62,167.91,-81.0,75.93
11034,52.67573,-1.543859,171.04,18.57,4,318.22,22 / 23,1103420,2019-11-06 11:00:10:763,4.0463,1.0653,11.6566,0.0396,0.013,9.8065,0.1137,0.2789,-0.3595,-4.12,-34.62,-0.19,167.91,-81.0,75.93
11035,52.67573,-1.543859,171.04,18.57,4,318.22,22 / 23,1103520,2019-11-06 11:00:10:863,-1.1675,-4.173,9.9326,-0.0909,0.0225,9.8062,0.103,0.334,-0.3693,-4.31,-34.87,-0.44,174.61,-80.97,77.48
11036,52.67573,-1.543859,171.04,18.57,4,318.22,22 / 23,1103620,2019-11-06 11:00:10:963,-5.0619,-4.7304,9.9395,-0.0769,0.0831,9.8059,0.084,-0.1284,-0.0936,-4.12,-34.62,-1.25,167.96,-80.44,75.06
11037,52.67573,-1.543859,171.04,18.57,4,318.22,22 / 23,1103720,2019-11-06 11:00:11:063,-0.6508,0.6518,10.4885,0.1147,0.1085,9.8053,0.0952,-0.4035,0.2676,-4.31,-34.19,-1.0,167.96,-80.44,75.06
11038,52.67573,-1.543859,171.04,18.57,4,318.22,22 / 23,1103821,2019-11-06 11:00:11:164,1.1203,0.4778,10.3783,-0.0109,-0.0463,9.8064,-0.0378,-0.4868,0.2186,-3.87,-34.94,-1.25,170.13,-79.93,79.56
11039,52.67573,-1.543859,171.04,18.57,4,318.22,22 / 23,1103920,2019-11-06 11:00:11:263,1.4332,-1.85,9.6848,-0.012,-0.0316,9.8065,0.0482,-0.0491,0.0419,-4.12,-34.94,-1.12,169.72,-80.18,78.92
11040,52.67586,-1.544049,169.98,17.94,4,320.32,23 / 23,1104020,2019-11-06 11:00:11:363,1.2877,-4.8141,9.9196,-0.1146,-0.0392,9.8059,-0.1909,0.1808,-0.2665,-4.31,-35.62,-1.56,162.37,-80.26,74.78
11041,52.67586,-1.544049,169.98,17.94,4,320.32,23 / 23,1104120,2019-11-06 11:00:11:463,-1.6409,-2.4112,10.6722,0.0187,0.0159,9.8065,0.1597,0.0202,0.1359,-4.06,-35.12,-1.37,162.37,-80.26,74.78
11042,52.67586,-1.544049,169.98,17.94,4,320.32,23 / 23,1104220,2019-11-06 11:00:11:563,-0.4838,-0.9139,9.3086,0.0165,0.0118,9.8066,-0.0636,-0.2439,-0.0111,-4.44,-35.25,-1.56,168.34,-80.21,75.56
11043,52.67586,-1.544049,169.98,17.94,4,320.32,23 / 23,1104320,2019-11-06 11:00:11:663,1.2612,0.3498,9.4588,-0.0159,0.0034,9.8065,0.0587,-0.0754,0.083,-4.5,-35.37,-0.69,168.73,-80.04,76.26
11044,52.67586,-1.544049,169.98,17.94,4,320.32,23 / 23,1104420,2019-11-06 11:00:11:763,-0.7243,-3.7421,10.7678,-0.0791,-0.0649,9.8061,-0.0856,0.2726,-0.2326,-4.5,-34.81,-1.5,168.73,-80.04,76.26
11045,52.67586,-1.544049,169.98,17.94,4,320.32,23 / 23,1104520,2019-11-06 11:00:11:863,-2.4729,-5.9432,9.9833,-0.0312,-0.0266,9.8066,-0.1011,0.2512,-0.0757,-4.37,-35.69,-1.12,161.32,-80.31,73.12
11046,52.67586,-1.544049,169.98,17.94,4,320.32,23 / 23,1104620,2019-11-06 11:00:11:963,-6.5024,-0.6493,9.4414,-0.0195,0.0493,9.8064,-0.0617,0.05,-0.179,-4.19,-35.25,-1.31,166.85,-80.2,71.86
11047,52.67586,-1.544049,169.98,17.94,4,320.32,23 / 23,1104720,2019-11-06 11:00:12:063,-2.6311,0.2206,10.4351,0.0122,-0.004,9.8065,0.1257,-0.2334,0.2689,-5.06,-35.19,-1.25,166.75,-79.71,71.92
11048,52.67586,-1.544049,169.98,17.94,4,320.32,23 / 23,1104820,2019-11-06 11:00:12:163,-1.7184,-2.2682,10.7516,0.0336,-0.026,9.8065,0.0458,-0.0378,0.2476,-4.75,-35.12,-1.19,166.75,-79.71,71.92
11049,52.67586,-1.544049,169.98,17.94,4,320.32,23 / 23,1104920,2019-11-06 11:00:12:263,0.3242,-3.2988,10.758,-0.0046,-0.0204,9.8066,-0.0029,0.0604,-0.3867,-4.62,-34.5,-1.25,167.09,-80.09,73.26
11050,52.675987,-1.544218,168.91,16.61,4,323.29,22 / 22,1105023,2019-11-06 11:00:12:366,1.5106,-3.5562,9.6521,-0.0459,0.0203,9.8064,-0.0431,-0.0255,0.2919,-4.69,-35.25,-1.19,166.51,-80.13,72.07
11051,52.675987,-1.544218,168.91,16.61,4,323.29,22 / 22,1105120,2019-11-06 11:00:12:463,-1.5075,-1.6116,8.3948,-0.0975,0.0611,9.8059,-0.0874,-0.2234,-0.1434,-4.62,-35.44,-1.44,166.51,-80.13,72.07
11052,52.675987,-1.544218,168.91,16.61,4,323.29,22 / 22,1105220,2019-11-06 11:00:12:563,0.6779,-0.5958,9.1173,-0.0297,0.0688,9.8063,-0.0426,0.0669,-0.2666,-4.62,-34.87,-1.69,160.43,-79.64,69.45
11053,52.675987,-1.544218,168.91,16.61,4,323.29,22 / 22,1105320,2019-11-06 11:00:12:663,2.2219,-0.0016,9.5145,0.0206,-0.0141,9.8066,-0.0494,0.2532,-0.0213,-4.25,-35.25,-1.31,166.79,-79.08,69.47
11054,52.675987,-1.544218,168.91,16.61,4,323.29,22 / 22,1105420,2019-11-06 11:00:12:763,0.6655,-1.1805,9.4754,0.0304,-0.0271,9.8066,0.0211,0.3029,-0.2862,-4.19,-35.25,-1.31,166.92,-79.27,70.21
11055,52.675987,-1.544218,168.91,16.61,4,323.29,22 / 22,1105521,2019-11-06 11:00:12:864,-0.1698,-3.3633,10.1773,-0.0171,0.0151,9.8066,-0.0867,0.1945,-0.0644,-3.87,-35.94,-1.37,166.92,-79.27,70.21
11056,52.675987,-1.544218,168.91,16.61,4,323.29,22 / 22,1105620,2019-11-06 11:00:12:963,0.5655,2.1588,10.3632,0.0088,0.0293,9.8065,0.0301,-0.2731,0.1035,-4.37,-35.12,-1.31,166.85,-79.16,69.8
11057,52.675987,-1.544218,168.91,16.61,4,323.29,22 / 22,1105720,2019-11-06 11:00:13:063,2.08,1.3519,9.7445,0.0067,0.0025,9.8066,0.0316,-0.411,0.2544,-4.62,-35.31,-1.12,166.3,-79.16,70.02
11058,52.675987,-1.544218,168.91,16.61,4,323.29,22 / 22,1105820,2019-11-06 11:00:13:163,-0.8097,-2.3476,9.8162,-0.0332,-0.0498,9.8064,0.0171,-0.1722,0.0688,-4.5,-35.0,-1.06,166.3,-79.16,70.02
11059,52.675987,-1.544218,168.91,16.61,4,323.29,22 / 22,1105920,2019-11-06 11:00:13:263,-0.0046,-3.4833,9.0041,0.0079,-0.0164,9.8065,-0.0167,0.1408,0.0046,-4.31,-34.62,-1.56,160.52,-79.39,68.62
11060,52.67611,-1.544375,167.96,16.09,4,324.38,22 / 22,1106020,2019-11-06 11:00:13:363,0.251,-0.9948,9.0779,-0.0075,0.0067,9.8066,-0.1518,0.2523,-0.1797,-4.25,-34.5,-0.87,165.91,-79.5,68.68
11061,52.67611,-1.544375,167.96,16.09,4,324.38,22 / 22,1106121,2019-11-06 11:00:13:464,0.5443,0.4064,9.808,-0.0095,-0.0228,9.8065,0.1021,-0.18,0.1789,-4.31,-35.12,-1.06,165.22,-79.44,68.03
11062,52.67611,-1.544375,167.96,16.09,4,324.38,22 / 22,1106220,2019-11-06 11:00:13:563,3.5677,-2.5674,10.0085,-0.0077,-0.0401,9.8065,-0.0199,-0.2812,0.0272,-4.81,-35.69,-1.5,164.69,-79.76,66.85
11063,52.67611,-1.544375,167.96,16.09,4,324.38,22 / 22,1106320,2019-11-06 11:00:13:663,3.1143,-3.8518,9.9982,-0.0278,-0.0618,9.8064,0.0485,-0.2349,0.2327,-4.81,-35.69,-1.69,164.69,-79.76,66.85
11064,52.67611,-1.544375,167.96,16.09,4,324.38,22 / 22,1106420,2019-11-06 11:00:13:763,-0.1321,-1.2429,9.9978,-0.0089,0.0081,9.8066,0.0271,-0.0345,0.1313,-4.56,-35.12,-1.75,163.77,-80.06,65.39
11065,52.67611,-1.544375,167.96,16.09,4,324.38,22 / 22,1106520,2019-11-06 11:00:13:863,0.3864,-1.7803,10.6545,0.01,-0.0288,9.8065,0.0897,-0.0326,-0.0926,-5.0,-35.37,-1.31,163.62,-80.08,65.66
11066,52.67611,-1.544375,167.96,16.09,4,324.38,22 / 22,1106620,2019-11-06 11:00:13:963,0.3029,-1.5615,9.4518,0.0144,-0.0403,9.8065,0.0737,-0.0553,0.0286,-5.44,-36.0,-1.0,163.69,-80.33,65.74
11067,52.67611,-1.544375,167.96,16.09,4,324.38,22 / 22,1106720,2019-11-06 11:00:14:063,0.6447,-3.4898,9.3765,0.0085,-0.1004,9.8061,-0.008,-0.2162,0.0589,-6.31,-35.81,-0.94,163.69,-80.33,65.74
11068,52.67611,-1.544375,167.96,16.09,4,324.38,22 / 22,1106820,2019-11-06 11:00:14:163,3.7252,0.2218,9.0492,-0.0696,-0.0995,9.8058,-0.2305,-0.1637,0.045,-5.94,-35.37,-0.62,156.64,-80.9,65.0
11069,52.67611,-1.544375,167.96,16.09,4,324.38,22 / 22,1106920,2019-11-06 11:00:14:263,2.4003,0.9198,10.3142,-0.1012,-0.1614,9.8047,0.0857,-0.861,0.4246,-6.62,-35.69,-1.44,157.35,-81.49,58.8
11070,52.676228,-1.544512,167.11,15.92,4,328.74,20 / 23,1107020,2019-11-06 11:00:14:363,-1.6122,-9.7085,10.9758,-0.0438,-0.1212,9.8058,0.3253,-0.8837,0.3814,-7.19,-35.81,-1.25,157.35,-81.49,58.8
11071,52.676228,-1.544512,167.11,15.92,4,328.74,20 / 23,1107120,2019-11-06 11:00:14:463,2.7272,0.3634,9.1552,0.0834,0.1582,9.8049,-0.0171,-0.6824,0.2791,-7.06,-36.12,-1.44,154.51,-82.03,55.12
11072,52.676228,-1.544512,167.11,15.92,4,328.74,20 / 23,1107220,2019-11-06 11:00:14:563,2.9108,6.6185,9.7086,0.005,0.0288,9.8065,-0.143,0.8194,-0.6087,-7.31,-36.44,-1.75,153.74,-81.36,60.71
11073,52.676228,-1.544512,167.11,15.92,4,328.74,20 / 23,1107320,2019-11-06 11:00:14:663,2.2363,-1.5554,9.7546,-0.0599,-0.098,9.8059,-0.1737,0.9019,-0.4509,-7.94,-36.19,-1.75,150.57,-81.7,56.78
11074,52.676228,-1.544512,167.11,15.92,4,328.74,20 / 23,1107420,2019-11-06 11:00:14:763,-1.1139,-11.8948,9.7614,-0.0403,-0.0424,9.8064,-0.062,0.233,-0.327,-7.81,-36.75,-1.81,150.57,-81.7,56.78
11075,52.676228,-1.544512,167.11,15.92,4,328.74,20 / 23,1107520,2019-11-06 11:00:14:863,0.4823,-6.598,10.2476,0.024,0.0629,9.8064,0.0979,-0.5598,0.4221,-7.94,-35.75,-0.69,148.62,-81.79,54.49
11076,52.676228,-1.544512,167.11,15.92,4,328.74,20 / 23,1107621,2019-11-06 11:00:14:964,2.2545,4.6221,9.8485,0.0368,0.0116,9.8065,0.1317,-0.6378,0.2654,-8.06,-35.56,-0.44,161.23,-81.24,58.68
11077,52.676228,-1.544512,167.11,15.92,4,328.74,20 / 23,1107720,2019-11-06 11:00:15:063,2.1298,-1.4295,10.6986,0.0978,-0.0487,9.806,0.167,0.015,-0.0897,-8.0,-34.69,-1.12,161.23,-81.24,58.68
11078,52.676228,-1.544512,167.11,15.92,4,328.74,20 / 23,1107819,2019-11-06 11:00:15:162,2.3261,-5.864,8.6184,-0.0103,-0.0088,9.8065,-0.2523,0.2853,-0.412,-7.87,-35.06,-2.0,158.05,-81.69,61.79
11079,52.676228,-1.544512,167.11,15.92,4,328.74,20 / 23,1107920,2019-11-06 11:00:15:263,1.579,1.7328,8.2512,-0.0094,0.0437,9.8064,0.1661,0.4802,-0.2092,-7.19,-35.37,-2.25,154.01,-81.12,61.22
11080,52.676357,-1.544631,166.28,16.15,4,333.42,22 / 23,1108021,2019-11-06 11:00:15:364,1.2707,-2.389,9.5995,-0.0521,-0.0752,9.8061,-0.0059,0.2656,-0.0125,-8.12,-35.56,-2.12,153.9,-80.92,60.55
11081,52.676357,-1.544631,166.28,16.15,4,333.42,22 / 23,1108120,2019-11-06 11:00:15:463,4.3695,-5.0832,9.0891,-0.0662,-0.1206,9.8056,-0.0647,-0.0939,-0.1675,-7.44,-36.44,-2.31,153.9,-80.92,60.55
11082,52.676357,-1.544631,166.28,16.15,4,333.42,22 / 23,1108220,2019-11-06 11:00:15:563,-0.1954,-2.2653,9.3208,-0.0366,0.0182,9.8065,-0.057,-0.0621,0.1885,-7.37,-36.0,-2.06,145.43,-81.3,54.92
11083,52.676357,-1.544631,166.28,16.15,4,333.42,22 / 23,1108320,2019-11-06 11:00:15:663,-1.0917,-0.3424,9.7947,0.0008,0.0644,9.8064,0.0349,-0.1452,-0.0567,-6.81,-35.94,-2.0,151.01,-80.86,54.83
11084,52.676357,-1.544631,166.28,16.15,4,333.42,22 / 23,1108420,2019-11-06 11:00:15:763,0.6292,2.6266,11.1316,0.0425,0.112,9.8059,0.1825,0.4681,-0.2287,-7.25,-35.69,-2.06,151.01,-80.86,54.83
11085,52.676357,-1.544631,166.28,16.15,4,333.42,22 / 23,1108520,2019-11-06 11:00:15:863,1.6543,0.5875,11.6491,0.1013,0.0009,9.8061,-0.1643,0.5945,-0.4845,-6.69,-35.75,-1.94,153.1,-80.4,58.04
11086,52.676357,-1.544631,166.28,16.15,4,333.42,22 / 23,1108620,2019-11-06 11:00:15:963,3.6357,-2.4558,10.1442,-0.0014,0.0245,9.8066,-0.0145,0.2322,0.0231,-6.44,-35.5,-1.44,160.83,-80.67,62.67
11087,52.676357,-1.544631,166.28,16.15,4,333.42,22 / 23,1108719,2019-11-06 11:00:16:062,3.8433,-1.3053,9.4023,-0.0249,0.0328,9.8065,0.0203,-0.2454,-0.0274,-6.94,-35.37,-1.19,160.1,-80.44,62.22
11088,52.676357,-1.544631,166.28,16.15,4,333.42,22 / 23,1108820,2019-11-06 11:00:16:163,2.6185,1.5136,11.6303,-0.0169,-0.0616,9.8064,-0.0624,-0.5844,0.1514,-7.19,-35.37,-1.44,160.1,-80.44,62.22
11089,52.676357,-1.544631,166.28,16.15,4,333.42,22 / 23,1108920,2019-11-06 11:00:16:263,1.8224,-4.6911,9.8006,-0.0271,-0.0754,9.8063,0.1455,-0.4089,0.3583,-6.94,-34.19,-0.81,159.06,-80.74,60.88
11090,52.67648,-1.544734,165.51,16.22,4,333.49,21 / 22,1109020,2019-11-06 11:00:16:363,0.7148,-3.5378,9.9675,-0.004,-0.0338,9.8065,-0.0154,-0.0521,-0.2113,-6.87,-33.75,-0.62,158.27,-80.92,60.3
11091,52.67648,-1.544734,165.51,16.22,4,333.49,21 / 22,1109119,2019-11-06 11:00:16:462,5.1241,1.4589,10.6375,-0.0006,0.081,9.8063,-0.0297,0.2357,0.1643,-6.44,-33.87,-0.81,158.27,-80.92,60.3
11092,52.67648,-1.544734,165.51,16.22,4,333.49,21 / 22,1109219,2019-11-06 11:00:16:562,0.4486,-0.8168,12.1349,0.0064,-0.0731,9.8063,0.0092,0.2486,-0.1398,-7.12,-34.12,-1.75,160.05,-80.48,61.34
11093,52.67648,-1.544734,165.51,16.22,4,333.49,21 / 22,1109319,2019-11-06 11:00:16:662,5.2187,-3.6473,10.4681,0.0287,-0.1363,9.8056,-0.0125,0.1121,0.0201,-7.0,-35.25,-1.37,158.33,-81.28,60.59
11094,52.67648,-1.544734,165.51,16.22,4,333.49,21 / 22,1109420,2019-11-06 11:00:16:763,3.0907,-1.8115,9.804,-0.0254,-0.0107,9.8066,0.0087,-0.1673,0.1247,-8.0,-35.87,-1.0,157.32,-81.29,59.52
11095,52.67648,-1.544734,165.51,16.22,4,333.49,21 / 22,1109520,2019-11-06 11:00:16:863,1.3838,1.0491,10.0606,0.0526,-0.0465,9.8064,0.0326,-0.4073,0.3002,-7.81,-36.69,-0.5,157.32,-81.29,59.52
11096,52.67648,-1.544734,165.51,16.22,4,333.49,21 / 22,1109620,2019-11-06 11:00:16:963,-0.0177,2.6954,10.8635,0.0273,-0.0146,9.8066,0.167,0.0726,0.0051,-7.06,-36.44,-1.12,158.3,-81.65,60.76
11097,52.67648,-1.544734,165.51,16.22,4,333.49,21 / 22,1109720,2019-11-06 11:00:17:063,-1.5364,-3.0369,10.6496,0.0816,-0.0464,9.8062,0.0227,0.4503,-0.2772,-7.87,-35.81,-1.19,158.81,-82.07,63.24
11098,52.67648,-1.544734,165.51,16.22,4,333.49,21 / 22,1109820,2019-11-06 11:00:17:163,5.5401,-2.7439,9.8937,-0.0022,0.0223,9.8066,-0.1376,0.3902,-0.2588,-7.62,-36.19,-0.87,158.81,-82.07,63.24
11099,52.67648,-1.544734,165.51,16.22,4,333.49,21 / 22,1109920,2019-11-06 11:00:17:263,1.8559,-1.2601,10.2053,-0.0172,-0.001,9.8066,0.0515,0.0927,-0.0018,-7.5,-36.69,-0.62,164.47,-81.95,63.49
11100,52.676613,-1.544841,164.81,16.31,4,334.59,23 / 23,1110020,2019-11-06 11:00:17:363,-0.428,0.4963,11.4651,0.0489,-0.0358,9.8064,-0.1444,-0.3858,0.0852,-7.25,-36.25,-0.62,160.28,-81.79,64.36
11101,52.676613,-1.544841,164.81,16.31,4,334.59,23 / 23,1110120,2019-11-06 11:00:17:463,2.9177,-4.4684,10.5922,0.1035,-0.1151,9.8053,0.2122,-0.2949,0.19,-8.0,-36.62,-0.75,160.9,-82.62,67.03
11102,52.676613,-1.544841,164.81,16.31,4,334.59,23 / 23,1110220,2019-11-06 11:00:17:563,0.9411,-2.1479,10.8512,-0.0252,0.0282,9.8065,-0.0896,-0.0281,-0.0546,-7.69,-36.69,-1.56,160.9,-82.62,67.03
11103,52.676613,-1.544841,164.81,16.31,4,334.59,23 / 23,1110319,2019-11-06 11:00:17:662,2.9538,-0.1478,10.1788,-0.0233,0.0205,9.8065,-0.0818,0.0782,-0.098,-7.62,-36.87,-1.0,160.48,-82.24,65.81
11104,52.676613,-1.544841,164.81,16.31,4,334.59,23 / 23,1110420,2019-11-06 11:00:17:763,-0.6692,-0.8933,10.3871,0.001,0.0423,9.8065,0.2008,-0.1137,0.0035,-6.94,-37.0,-0.69,160.44,-82.0,64.62
11105,52.676613,-1.544841,164.81,16.31,4,334.59,23 / 23,1110520,2019-11-06 11:00:17:863,-0.4395,2.5717,11.4417,0.0091,0.094,9.8061,-0.137,-0.1543,0.1992,-7.0,-36.37,-0.56,160.44,-82.0,64.62
11106,52.676613,-1.544841,164.81,16.31,4,334.59,23 / 23,1110620,2019-11-06 11:00:17:963,1.319,3.1057,10.6942,0.0253,-0.0549,9.8064,0.0402,0.4447,-0.069,-7.37,-36.75,-1.19,161.52,-81.73,66.4
11107,52.676613,-1.544841,164.81,16.31,4,334.59,23 / 23,1110721,2019-11-06 11:00:18:064,-0.6799,-10.4907,11.8944,0.0201,-0.0159,9.8065,-0.0252,1.0208,-0.4734,-7.56,-36.62,-0.31,164.24,-82.63,65.09
11108,52.676613,-1.544841,164.81,16.31,4,334.59,23 / 23,1110822,2019-11-06 11:00:18:165,1.5092,-8.4295,10.8634,0.0597,-0.0022,9.8065,-0.0338,0.383,-0.1996,-8.19,-36.56,-1.25,161.23,-82.73,67.72
11109,52.676613,-1.544841,164.81,16.31,4,334.59,23 / 23,1110920,2019-11-06 11:00:18:263,4.2933,8.8048,8.2422,-0.0388,0.0446,9.8064,-0.2025,-0.6492,0.2233,-8.0,-36.94,-1.5,161.23,-82.73,67.72
11110,52.676743,-1.54494,164.15,16.36,4,335.87,25 / 25,1111020,2019-11-06 11:00:18:363,1.0155,6.8802,8.5005,-0.0847,0.0155,9.8062,0.2404,-0.788,0.6324,-8.0,-37.19,-1.56,154.7,-82.47,64.36
11111,52.676743,-1.54494,164.15,16.36,4,335.87,25 / 25,1111120,2019-11-06 11:00:18:463,4.5569,3.6404,9.8295,-0.0379,-0.0515,9.8063,-0.0213,-0.6355,0.1418,-8.12,-36.31,-1.37,157.28,-82.64,61.79
11112,52.676743,-1.54494,164.15,16.36,4,335.87,25 / 25,1111223,2019-11-06 11:00:18:566,1.3348,-2.4951,9.4918,-0.0399,-0.0905,9.8061,-0.0138,0.7256,-0.5349,-8.5,-36.87,-0.94,157.28,-82.64,61.79
11113,52.676743,-1.54494,164.15,16.36,4,335.87,25 / 25,1111320,2019-11-06 11:00:18:663,0.6225,-6.5214,9.9355,-0.0137,-0.0128,9.8065,-0.1751,0.2916,-0.213,-8.75,-36.69,-0.87,154.28,-83.03,58.34
11114,52.676743,-1.54494,164.15,16.36,4,335.87,25 / 25,1111421,2019-11-06 11:00:18:764,0.9423,-3.6977,9.9301,0.008,0.0315,9.8065,-0.0082,-0.2824,0.2395,-8.5,-37.37,-0.81,154.52,-82.93,57.73
11115,52.676743,-1.54494,164.15,16.36,4,335.87,25 / 25,1111520,2019-11-06 11:00:18:863,2.7653,3.2207,8.6958,0.0057,0.0793,9.8062,0.1915,-0.5784,0.1548,-8.69,-36.69,-1.37,155.65,-82.52,59.5
11116,52.676743,-1.54494,164.15,16.36,4,335.87,25 / 25,1111620,2019-11-06 11:00:18:963,0.2166,3.2746,9.8115,-0.0317,-0.0143,9.8066,-0.0683,0.0494,-0.0723,-8.75,-36.56,-1.31,155.65,-82.52,59.5
11117,52.676743,-1.54494,164.15,16.36,4,335.87,25 / 25,1111720,2019-11-06 11:00:19:063,0.0118,-2.3285,9.6415,0.0053,-0.0262,9.8066,0.0625,0.2804,-0.1969,-8.94,-36.56,-1.19,153.86,-82.7,57.14
11118,52.676743,-1.54494,164.15,16.36,4,335.87,25 / 25,1111820,2019-11-06 11:00:19:163,0.9369,-4.3191,9.3442,0.0048,0.0023,9.8066,0.0112,0.2752,-0.1338,-8.37,-36.5,-0.94,153.59,-83.0,56.87
11119,52.676743,-1.54494,164.15,16.36,4,335.87,25 / 25,1111920,2019-11-06 11:00:19:263,1.9385,-2.3057,9.356,-0.018,0.0084,9.8066,-0.0546,-0.2013,0.1065,-8.81,-36.31,-1.0,153.59,-83.0,56.87
11120,52.67688,-1.545035,163.61,16.37,4,338.15,23 / 23,1112020,2019-11-06 11:00:19:363,2.2361,2.1363,9.7055,-0.0212,-0.0198,9.8066,0.0123,-0.351,0.3709,-9.06,-36.37,-0.56,152.47,-82.87,55.43
11121,52.67688,-1.545035,163.61,16.37,4,338.15,23 / 23,1112120,2019-11-06 11:00:19:463,2.3451,-0.7969,9.6879,-0.033,0.023,9.8066,-0.0057,-0.101,-0.1567,-9.37,-35.56,-0.81,151.89,-82.67,54.57
11122,52.67688,-1.545035,163.61,16.37,4,338.15,23 / 23,1112220,2019-11-06 11:00:19:563,1.4532,-3.9718,10.1914,-0.0189,-0.0456,9.8064,-0.0256,0.3231,-0.1038,-10.0,-36.25,-1.06,149.85,-82.85,52.78
11123,52.67688,-1.545035,163.61,16.37,4,338.15,23 / 23,1112322,2019-11-06 11:00:19:665,2.4464,-2.8513,10.1239,0.0052,-0.037,9.8065,-0.1473,0.4056,-0.2639,-9.06,-36.56,-1.81,149.85,-82.85,52.78
11124,52.67688,-1.545035,163.61,16.37,4,338.15,23 / 23,1112420,2019-11-06 11:00:19:763,3.2475,1.7718,9.8687,0.0086,0.0145,9.8066,-0.0664,-0.129,0.0214,-9.31,-36.81,-1.44,149.95,-83.05,52.1
11125,52.67688,-1.545035,163.61,16.37,4,338.15,23 / 23,1112520,2019-11-06 11:00:19:863,1.1944,0.5494,9.7802,0.0209,0.0605,9.8064,0.0706,-0.249,0.1926,-9.44,-37.0,-1.5,151.84,-82.8,54.36
11126,52.67688,-1.545035,163.61,16.37,4,338.15,23 / 23,1112620,2019-11-06 11:00:19:963,1.5023,-2.46,10.4244,0.0278,-0.0319,9.8065,0.0985,-0.2466,0.0746,-9.44,-37.31,-1.37,151.84,-82.8,54.36
11127,52.67688,-1.545035,163.61,16.37,4,338.15,23 / 23,1112720,2019-11-06 11:00:20:063,1.3374,-2.3747,10.4804,0.0073,-0.0315,9.8065,-0.0501,0.0434,0.0745,-10.0,-36.75,-1.25,151.31,-83.04,54.81
