,GPS LATITUDE (degrees), GPS LONGITUDE (degrees), GPS ALTITUDE (m), GPS SPEED (Kmh), GPS ACCURACY (m), GPS ORIENTATION (Â°),GPS SATELLITES IN RANGE, TIME SINCE START (ms), DATE (YYYY-MO-DD HH-MI-SS_SSS), ACCELEROMETER X (m/s²) , ACCELEROMETER Y (m/s²), ACCELEROMETER Z (m/s²), GRAVITY X (m/s²), GRAVITY Y (m/s²), GRAVITY Z (m/s²), GYROSCOPE Yaw (rad/s), GYROSCOPE Pitch (rad/s), GYROSCOPE Roll (rad/s), MAGNETIC FIELD X (Î¼T), MAGNETIC FIELD Y (Î¼T), MAGNETIC FIELD Z (Î¼T), ORIENTATION (Yaw) (Â°), ORIENTATION (Pitch) (Â°), ORIENTATION (Roll ) (Â°)
57915,52.409397,-1.437235,117,15.93,11.0,350.9,Nov-26,5791541,2019-08-31 11:26:51:620,-1.1283,-0.0741,10.2189,-0.1384,-0.0158,9.8057,-0.0171,0.0623,-0.0017,19.12,-0.97,-23.1,7.1,3.65,2.95
57916,52.409397,-1.437235,117,15.93,11.0,350.9,Nov-26,5791642,2019-08-31 11:26:51:721,-0.9956,-0.2129,10.6066,-0.2523,-0.0262,9.8034,-0.0544,-0.0869,0.0132,19.12,-0.97,-23.1,7.32,5.14,2.92
57917,52.409397,-1.437235,117,15.93,11.0,350.9,Nov-26,5791741,2019-08-31 11:26:51:820,-1.4916,0.0363,11.7595,-0.0746,0.0128,9.8064,-0.0576,0.0143,0.0452,19.59,-0.98,-22.7,6.82,5.56,2.79
57918,52.409397,-1.437235,117,15.93,11.0,350.9,Nov-26,5791841,2019-08-31 11:26:51:920,-0.9042,-0.0505,10.6664,0.0301,-0.0054,9.8066,-0.0309,0.0228,0.0399,19.58,-1.38,-22.69,6.68,5.63,2.66
57919,52.409397,-1.437235,117,15.93,11.0,350.9,Nov-26,5791941,2019-08-31 11:26:52:020,-0.3477,0.5151,11.1146,0.114,-0.0101,9.806,-0.0309,0.0228,0.0399,19.58,-1.38,-22.69,6.68,5.63,2.66
57920,52.409397,-1.437235,117,15.93,11.0,350.9,Nov-26,5792041,2019-08-31 11:26:52:120,-0.6958,0.3492,9.7243,0.1025,-0.003,9.8061,-0.0075,0.0974,0.0292,18.62,-1.33,-23.49,7.14,4.97,2.8
57921,52.40952,-1.437268,117,14.63,11.0,350.1,Nov-26,5792141,2019-08-31 11:26:52:220,0.6358,-0.5516,10.3131,0.153,-0.0025,9.8055,-0.0118,0.0378,0.0505,18.85,-1.35,-23.3,7.15,4.09,2.92
57922,52.40952,-1.437268,117,14.63,11.0,350.1,Nov-26,5792241,2019-08-31 11:26:52:320,-0.771,-0.41,10.144,-0.0635,-0.0314,9.8064,0.0063,-0.0443,0.0292,18.65,-1.34,-23.46,7.39,4.48,3.06
57923,52.40952,-1.437268,117,14.63,11.0,350.1,Nov-26,5792341,2019-08-31 11:26:52:420,-0.1229,-0.6259,7.5905,-0.1833,-0.0189,9.8049,-0.065,-0.1742,0.0441,18.65,-1.34,-23.46,7.39,4.48,3.06
57924,52.40952,-1.437268,117,14.63,11.0,350.1,Nov-26,5792441,2019-08-31 11:26:52:520,-0.0597,-0.1735,9.3087,-0.1455,-0.0223,9.8055,-0.0331,-0.0421,0.0431,19.16,-0.95,-23.06,7.56,5.55,3.03
57925,52.40952,-1.437268,117,14.63,11.0,350.1,Nov-26,5792542,2019-08-31 11:26:52:621,-0.6113,0.1639,10.0744,-0.2574,-0.0489,9.8032,-0.016,-0.0262,0.0196,19.99,-1.27,-22.33,7.29,7.08,3.12
57926,52.40952,-1.437268,117,14.63,11.0,350.1,Nov-26,5792641,2019-08-31 11:26:52:720,-0.0658,-0.0018,9.4899,-0.0626,-0.0078,9.8064,-0.0118,-0.0741,0.0516,19.99,-1.27,-22.33,7.29,7.08,3.12
57927,52.40952,-1.437268,117,14.63,11.0,350.1,Nov-26,5792741,2019-08-31 11:26:52:820,-0.1253,0.207,10.2419,-0.0238,-0.0031,9.8066,0.0181,0.1059,0.0473,19.56,-1.63,-22.68,10.9,7.45,3.12
57928,52.40952,-1.437268,117,14.63,11.0,350.1,Nov-26,5792841,2019-08-31 11:26:52:920,0.4501,-0.1463,9.4166,0.1359,-0.0066,9.8057,0.0181,0.1059,0.0473,19.19,-1.62,-23.0,11.67,7.4,3.2
57929,52.40952,-1.437268,117,14.63,11.0,350.1,Nov-26,5792941,2019-08-31 11:26:53:020,0.6651,-0.2538,9.8959,0.2456,0.001,9.8036,-0.0054,0.1272,0.0537,17.77,-1.34,-24.13,11.67,7.4,3.2
57930,52.409657,-1.437314,118,14.48,11.0,348.2,Nov-26,5793042,2019-08-31 11:26:53:121,1.0419,0.0588,11.0204,0.2594,-0.0294,9.8032,0.0127,0.0442,0.042,17.77,-1.34,-24.13,11.67,7.4,3.2
57931,52.409657,-1.437314,118,14.48,11.0,348.2,Nov-26,5793141,2019-08-31 11:26:53:220,-0.1229,0.2817,9.957,-0.0051,-0.0356,9.8066,0.0053,-0.0102,0.0697,16.28,-1.8,-25.14,15.11,5.95,3.68
57932,52.409657,-1.437314,118,14.48,11.0,348.2,Nov-26,5793241,2019-08-31 11:26:53:320,-0.4336,-0.0102,8.9797,-0.0091,-0.0609,9.8065,0.0053,-0.0954,0.0527,16.18,-2.28,-25.16,15.11,5.95,3.68
57933,52.409657,-1.437314,118,14.48,11.0,348.2,Nov-26,5793341,2019-08-31 11:26:53:420,0.241,-0.3864,10.9161,-0.0335,-0.0541,9.8064,0.0522,-0.0432,0.0377,17.13,-2.35,-24.51,14.7,6.1,4.01
57934,52.409657,-1.437314,118,14.48,11.0,348.2,Nov-26,5793442,2019-08-31 11:26:53:521,-0.2932,-0.3833,9.2281,-0.1126,-0.1211,9.8053,-0.0224,0.0399,0.0484,18.47,-1.56,-23.58,14.53,6.91,4.53
57935,52.409657,-1.437314,118,14.48,11.0,348.2,Nov-26,5793541,2019-08-31 11:26:53:620,0.0683,-0.156,8.0874,-0.014,-0.0036,9.8066,0.0159,-0.186,0.0633,18.49,-1.9,-23.55,14.57,7.0,4.53
57936,52.409657,-1.437314,118,14.48,11.0,348.2,Nov-26,5793641,2019-08-31 11:26:53:720,0.359,0.051,7.9749,0.0549,-0.0047,9.8065,0.0159,-0.186,0.0633,18.26,-1.06,-23.78,14.57,7.0,4.53
57937,52.409657,-1.437314,118,14.48,11.0,348.2,Nov-26,5793742,2019-08-31 11:26:53:821,1.1763,0.4291,11.0579,0.1131,-0.0335,9.8059,0.0064,0.1688,0.0484,18.26,-1.06,-23.78,14.57,7.0,4.53
57938,52.409657,-1.437314,118,14.48,11.0,348.2,Nov-26,5793841,2019-08-31 11:26:53:920,0.6566,0.1569,10.5389,0.04,0.0068,9.8066,0.0064,0.0921,0.0441,19.03,-0.17,-23.19,6.85,6.41,4.89
57939,52.409657,-1.437314,118,14.48,11.0,348.2,Nov-26,5793941,2019-08-31 11:26:54:020,0.0791,0.1423,10.6175,0.0221,-0.0246,9.8066,0.034,-0.0943,0.0718,18.52,-0.17,-23.6,7.14,5.88,4.93
57940,52.409657,-1.437314,118,14.48,11.0,348.2,Nov-26,5794041,2019-08-31 11:26:54:120,-0.4016,0.168,10.5552,-0.0028,-0.0605,9.8065,0.0213,-0.0219,0.0633,18.52,-0.17,-23.6,7.14,5.88,4.93
57941,52.409744,-1.437349,118,12.92,11.0,345.5,Nov-26,5794141,2019-08-31 11:26:54:220,-0.6812,-0.0207,9.4725,-0.0586,-0.0203,9.8065,-0.0054,-0.0166,0.0431,18.58,-0.17,-23.55,7.66,5.94,5.28
57942,52.409744,-1.437349,118,12.92,11.0,345.5,Nov-26,5794241,2019-08-31 11:26:54:320,-0.462,0.0061,9.5775,-0.0975,-0.0499,9.806,-0.0192,0.0463,0.0665,18.54,0.68,-23.57,4.61,6.54,5.49
57943,52.409744,-1.437349,118,12.92,11.0,345.5,Nov-26,5794341,2019-08-31 11:26:54:420,-0.29,0.1115,10.5996,-0.0297,-0.0054,9.8066,-0.0054,-0.1007,0.0367,18.54,0.68,-23.57,4.61,6.54,5.49
57944,52.409744,-1.437349,118,12.92,11.0,345.5,Nov-26,5794441,2019-08-31 11:26:54:520,-0.6873,0.4876,10.1495,-0.0758,-0.003,9.8064,-0.0054,-0.1007,0.0367,18.8,0.6,-23.37,4.29,6.72,5.51
57945,52.409744,-1.437349,118,12.92,11.0,345.5,Nov-26,5794541,2019-08-31 11:26:54:620,-0.4217,0.2061,10.1609,-0.1458,-0.0221,9.8055,0.0159,-0.0581,0.0644,19.29,0.6,-22.97,4.49,7.58,5.58
57946,52.409744,-1.437349,118,12.92,11.0,345.5,Nov-26,5794641,2019-08-31 11:26:54:720,-0.2218,0.203,10.2553,0.0084,-0.0094,9.8066,-0.0075,0.0825,0.0708,18.3,1.02,-23.75,5.29,7.53,5.64
57947,52.409744,-1.437349,118,12.92,11.0,345.5,Nov-26,5794741,2019-08-31 11:26:54:820,-0.339,0.0345,10.883,0.0257,0.0109,9.8066,-0.0118,0.0921,0.0559,18.3,1.02,-23.75,5.29,7.53,5.64
57948,52.409744,-1.437349,118,12.92,11.0,345.5,Nov-26,5794842,2019-08-31 11:26:54:921,-0.3448,0.0423,10.102,0.0456,0.021,9.8065,0.034,-0.0698,0.0505,18.78,1.44,-23.35,5.29,7.53,5.64
57949,52.409744,-1.437349,118,12.92,11.0,345.5,Nov-26,5794941,2019-08-31 11:26:55:020,-0.3281,-0.5676,9.4504,0.0607,0.0237,9.8064,-0.0363,0.1294,0.0601,18.77,1.47,-23.36,4.37,7.16,5.53
57950,52.409744,-1.437349,118,12.92,11.0,345.5,Nov-26,5795041,2019-08-31 11:26:55:120,-0.2153,-0.2124,9.3767,0.0257,0.0013,9.8066,-0.0118,0.0921,0.0793,18.77,1.47,-23.36,4.37,7.16,5.53
57951,52.409855,-1.437415,118,12.79,11.0,342.6,Oct-26,5795141,2019-08-31 11:26:55:220,-0.5209,0.2968,9.705,0.0197,0.0278,9.8066,-0.0107,-0.0294,0.0452,18.52,1.45,-23.55,4.73,7.01,5.53
57952,52.409855,-1.437415,118,12.79,11.0,342.6,Oct-26,5795241,2019-08-31 11:26:55:320,-0.1763,0.6236,7.5442,-0.0086,0.0001,9.8066,-0.0107,-0.0294,0.0452,18.73,1.47,-23.39,4.12,6.89,5.38
57953,52.409855,-1.437415,118,12.79,11.0,342.6,Oct-26,5795341,2019-08-31 11:26:55:420,0.8996,0.6857,11.568,0.0278,0.0156,9.8066,0.0255,-0.0656,0.0314,18.26,1.46,-23.76,4.78,6.94,5.38
57954,52.409855,-1.437415,118,12.79,11.0,342.6,Oct-26,5795443,2019-08-31 11:26:55:522,0.0062,0.5243,9.8765,0.0927,0.0105,9.8062,0.0181,0.0655,0.0804,17.97,1.5,-23.98,4.78,6.94,5.38
57955,52.409855,-1.437415,118,12.79,11.0,342.6,Oct-26,5795542,2019-08-31 11:26:55:621,0.2008,0.5606,10.929,0.1754,-0.0065,9.8051,-0.0256,-0.0411,0.0867,18.23,1.92,-23.75,1.15,5.92,5.5
57956,52.409855,-1.437415,118,12.79,11.0,342.6,Oct-26,5795642,2019-08-31 11:26:55:721,1.0597,-0.0471,11.5319,0.071,-0.0234,9.8064,0.0287,0.1038,0.0761,18.23,1.92,-23.75,1.15,5.92,5.5
57957,52.409855,-1.437415,118,12.79,11.0,342.6,Oct-26,5795741,2019-08-31 11:26:55:820,0.052,0.5303,8.9848,0.0399,-0.0031,9.8066,0.0223,-0.1103,0.0836,18.47,2.34,-23.53,1.36,5.51,5.65
57958,52.409855,-1.437415,118,12.79,11.0,342.6,Oct-26,5795842,2019-08-31 11:26:55:921,-0.0332,0.2535,10.5848,0.0534,-0.0259,9.8065,0.0138,-0.0262,0.0825,17.93,2.37,-23.93,1.59,5.2,5.81
57959,52.409855,-1.437415,118,12.79,11.0,342.6,Oct-26,5795942,2019-08-31 11:26:56:021,0.5837,-0.147,11.2799,0.0067,-0.0389,9.8066,0.0127,0.0356,0.0772,17.4,3.22,-24.23,358.21,5.17,6.03
57960,52.409855,-1.437415,118,12.79,11.0,342.6,Dec-26,5796042,2019-08-31 11:26:56:121,0.3982,-0.2997,9.2517,0.0289,-0.0283,9.8066,0.0127,0.0356,0.0772,17.4,3.22,-24.23,358.21,5.17,6.03
57961,52.409943,-1.437467,118,11.61,11.0,339.2,Dec-26,5796141,2019-08-31 11:26:56:220,1.1048,-0.1263,10.289,0.0466,-0.0396,9.8065,-0.032,-0.04,0.1219,17.68,3.2,-24.03,358.68,4.89,6.26
57962,52.409943,-1.437467,118,11.61,11.0,339.2,Dec-26,5796241,2019-08-31 11:26:56:320,1.2261,-0.1495,11.1425,0.0719,-0.0445,9.8063,0.0447,0.0782,0.075,17.62,4.07,-23.94,355.38,4.39,6.4
57963,52.409943,-1.437467,118,11.61,11.0,339.2,Dec-26,5796341,2019-08-31 11:26:56:420,0.3284,-0.6028,8.5758,0.107,-0.0806,9.8057,0.033,0.0889,0.0857,17.83,4.12,-23.77,355.38,4.39,6.4
57964,52.409943,-1.437467,118,11.61,11.0,339.2,Dec-26,5796441,2019-08-31 11:26:56:520,0.9322,-0.3924,7.7904,0.1684,-0.1143,9.8045,0.0607,-0.0134,0.0995,17.83,4.12,-23.77,355.38,4.39,6.4
57965,52.409943,-1.437467,118,11.61,11.0,339.2,Dec-26,5796542,2019-08-31 11:26:56:621,0.925,-0.4025,11.1992,0.112,-0.0605,9.8058,-0.0022,0.0484,0.1187,17.59,4.07,-23.96,356.37,3.36,6.99
57966,52.409943,-1.437467,118,11.61,11.0,339.2,Dec-26,5796641,2019-08-31 11:26:56:720,0.5166,0.2976,11.1444,0.2237,-0.1231,9.8033,0.0042,-0.0496,0.1389,16.97,4.5,-24.33,356.37,3.36,6.99
57967,52.409943,-1.437467,118,11.61,11.0,339.2,Dec-26,5796742,2019-08-31 11:26:56:821,0.7877,0.4712,10.494,0.0744,-0.0522,9.8062,0.0404,-0.0208,0.1113,17.66,5.14,-23.7,354.09,2.01,7.62
57968,52.409943,-1.437467,118,11.61,11.0,339.2,Dec-26,5796841,2019-08-31 11:26:56:920,1.2663,-0.6748,9.9107,0.1634,-0.0785,9.805,0.0404,-0.0208,0.1113,17.01,4.51,-24.3,354.09,2.01,7.62
57969,52.409943,-1.437467,118,11.61,11.0,339.2,Dec-26,5796941,2019-08-31 11:26:57:020,1.0681,-0.5732,9.1374,0.2367,-0.1254,9.803,0.0479,0.0111,0.1315,17.11,5.11,-24.11,354.81,0.56,8.21
57970,52.41,-1.437543,117,9.72,11.0,332.7,Dec-26,5797043,2019-08-31 11:26:57:122,0.408,0.013,9.5696,0.0586,-0.048,9.8064,0.0085,-0.0006,0.1379,17.11,5.11,-24.11,354.81,0.56,8.21
57971,52.41,-1.437543,117,9.72,11.0,332.7,Dec-26,5797141,2019-08-31 11:26:57:220,0.9426,-0.1203,10.0294,0.0576,-0.0405,9.8064,-0.0182,-0.0198,0.1496,17.31,5.63,-23.85,351.91,0.19,8.46
57972,52.41,-1.437543,117,9.72,11.0,332.7,Dec-26,5797241,2019-08-31 11:26:57:320,1.0542,-0.3945,10.266,0.0556,0.0067,9.8065,-0.016,-0.0304,0.1315,17.37,5.5,-23.84,352.31,-0.49,8.65
57973,52.41,-1.437543,117,9.72,11.0,332.7,Dec-26,5797342,2019-08-31 11:26:57:421,0.7914,0.2876,10.4613,0.1102,0.0129,9.806,0.0127,-0.0006,0.1091,17.37,5.5,-23.84,352.31,-0.49,8.65
57974,52.41,-1.437543,117,9.72,11.0,332.7,Dec-26,5797441,2019-08-31 11:26:57:520,0.5856,0.0293,10.3739,0.0604,0.0031,9.8065,-0.0086,0.0015,0.124,16.81,5.92,-24.13,352.2,-1.12,8.49
57975,52.41,-1.437543,117,9.72,11.0,332.7,Dec-26,5797541,2019-08-31 11:26:57:620,0.5856,0.0293,10.3739,0.1028,0.0241,9.8061,-0.0086,0.0015,0.124,16.7,6.04,-24.18,352.18,-1.47,8.42
57976,52.41,-1.437543,117,9.72,11.0,332.7,Dec-26,5797641,2019-08-31 11:26:57:720,0.481,-0.2619,8.9519,0.1152,-0.0034,9.806,0.0,0.1027,0.1081,16.09,6.44,-24.49,351.52,-2.04,8.2
57977,52.41,-1.437543,117,9.72,11.0,332.7,Dec-26,5797742,2019-08-31 11:26:57:821,0.6352,0.4265,9.8331,0.2229,-0.0151,9.8041,0.0202,0.0868,0.1219,15.49,6.53,-24.85,351.52,-2.04,8.2
57978,52.41,-1.437543,117,9.72,11.0,332.7,Dec-26,5797841,2019-08-31 11:26:57:920,1.1512,0.4211,11.2719,0.3174,-0.0164,9.8015,-0.0341,0.0303,0.1123,15.49,6.53,-24.85,351.52,-2.04,8.2
57979,52.41,-1.437543,117,9.72,11.0,332.7,Dec-26,5797941,2019-08-31 11:26:58:020,0.3789,0.0384,7.3883,0.0885,0.026,9.8062,0.017,0.0143,0.1038,15.47,6.98,-24.74,348.36,-3.89,8.02
57980,52.410088,-1.437616,117,9.25,11.0,325.9,Dec-26,5798041,2019-08-31 11:26:58:120,0.9055,0.3305,11.5316,0.0812,0.026,9.8063,0.0095,-0.0123,0.0889,14.77,7.7,-24.95,344.96,-4.37,7.77
57981,52.410088,-1.437616,117,9.25,11.0,325.9,13 / 26,5798140,2019-08-31 11:26:58:219,-0.1856,0.9414,7.5536,0.1046,0.0382,9.806,0.0021,0.0292,0.0622,15.13,7.64,-24.76,344.62,-4.9,7.39
57982,52.410088,-1.437616,117,9.25,11.0,325.9,13 / 26,5798241,2019-08-31 11:26:58:320,-0.2643,0.6209,10.612,0.0072,0.0484,9.8065,0.0277,-0.0283,0.0271,15.13,7.64,-24.76,344.39,-4.95,7.21
57983,52.410088,-1.437616,117,9.25,11.0,325.9,13 / 26,5798341,2019-08-31 11:26:58:420,0.1297,0.7203,10.6561,-0.0259,0.0972,9.8061,0.0277,-0.0283,0.0271,15.13,7.64,-24.76,344.39,-4.95,7.21
57984,52.410088,-1.437616,117,9.25,11.0,325.9,13 / 26,5798440,2019-08-31 11:26:58:519,0.0347,0.7283,10.6233,-0.0092,0.0211,9.8066,0.0298,-0.0304,0.0569,15.71,7.69,-24.37,344.02,-4.66,6.71
57985,52.410088,-1.437616,117,9.25,11.0,325.9,13 / 26,5798541,2019-08-31 11:26:58:620,-0.0611,1.0462,10.8002,0.0035,0.0292,9.8066,0.0277,-0.0144,0.0484,15.58,8.57,-24.16,340.92,-4.63,6.54
57986,52.410088,-1.437616,117,9.25,11.0,325.9,13 / 26,5798642,2019-08-31 11:26:58:721,-0.0812,0.6257,9.0663,0.0581,0.0304,9.8064,-0.0309,0.009,0.0697,14.56,8.92,-24.67,340.92,-4.63,6.54
57987,52.410088,-1.437616,117,9.25,11.0,325.9,13 / 26,5798741,2019-08-31 11:26:58:820,0.1537,0.7208,9.9564,0.1071,0.0575,9.8059,0.0117,0.0175,0.0569,14.96,8.96,-24.41,339.43,-5.11,6.01
57988,52.410088,-1.437616,117,9.25,11.0,325.9,13 / 26,5798841,2019-08-31 11:26:58:920,-0.1148,0.7047,8.9194,0.0348,0.0253,9.8066,0.0117,0.0324,0.0377,14.96,8.96,-24.41,339.43,-5.11,6.01
57989,52.410088,-1.437616,117,9.25,11.0,325.9,13 / 26,5798941,2019-08-31 11:26:59:020,0.2251,0.5624,8.6215,0.0748,0.0581,9.8062,-0.0054,0.0101,0.0292,14.87,7.97,-24.8,342.26,-5.4,5.54
57990,52.410088,-1.437616,117,9.25,11.0,325.9,13 / 26,5799041,2019-08-31 11:26:59:120,-0.1047,0.8949,10.4546,0.0124,0.0596,9.8065,0.0255,-0.0677,0.0292,14.87,7.97,-24.8,341.77,-5.36,5.18
57991,52.410133,-1.43769,116,9.36,10.0,322.7,13 / 26,5799141,2019-08-31 11:26:59:220,-0.4627,0.9272,9.3005,-0.0385,0.044,9.8065,0.0255,-0.0677,0.0292,14.87,7.97,-24.8,341.77,-5.36,5.18
57992,52.410133,-1.43769,116,9.36,10.0,322.7,13 / 26,5799241,2019-08-31 11:26:59:320,-0.4388,0.9375,9.1456,-0.0871,0.0303,9.8062,0.0319,-0.0645,0.0026,15.1,8.09,-24.63,341.41,-5.07,5.01
57993,52.410133,-1.43769,116,9.36,10.0,322.7,13 / 26,5799341,2019-08-31 11:26:59:420,-1.0299,0.9889,9.3448,-0.2493,0.1136,9.8028,0.0426,-0.0485,0.0058,15.92,8.5,-23.96,341.41,-5.07,5.01
57994,52.410133,-1.43769,116,9.36,10.0,322.7,13 / 26,5799442,2019-08-31 11:26:59:521,-0.5485,0.7331,9.7147,-0.0444,0.0397,9.8065,0.0255,-0.0134,0.0015,16.13,8.87,-23.69,338.33,-3.48,4.84
57995,52.410133,-1.43769,116,9.36,10.0,322.7,13 / 26,5799541,2019-08-31 11:26:59:620,-0.2182,0.9078,10.0126,-0.0143,0.0452,9.8065,0.0223,0.0037,-0.0123,15.88,8.95,-23.83,338.02,-3.15,4.72
57996,52.410133,-1.43769,116,9.36,10.0,322.7,13 / 26,5799641,2019-08-31 11:26:59:720,-0.0529,0.7027,9.4936,0.0085,0.0937,9.8062,0.0234,0.0761,-0.0262,15.88,8.95,-23.83,338.02,-3.15,4.72
57997,52.410133,-1.43769,116,9.36,10.0,322.7,13 / 26,5799741,2019-08-31 11:26:59:820,-0.0571,0.7424,9.0764,0.0345,0.0469,9.8065,0.0127,0.0591,-0.04,16.06,9.22,-23.6,337.3,-2.99,4.2
57998,52.410133,-1.43769,116,9.36,10.0,322.7,13 / 26,5799841,2019-08-31 11:26:59:920,-0.0069,0.7926,9.7306,0.0744,0.0947,9.8059,-0.0022,0.0335,-0.0635,15.67,9.5,-23.75,337.3,-2.99,4.2
57999,52.410133,-1.43769,116,9.36,10.0,322.7,13 / 26,5799943,2019-08-31 11:27:00:022,-0.0665,1.1222,9.5145,0.054,0.0735,9.8062,-0.0022,0.0335,-0.0635,15.54,9.02,-24.02,336.57,-3.18,3.52
58000,52.410133,-1.43769,116,9.36,10.0,322.7,13 / 26,5800042,2019-08-31 11:27:00:121,0.1698,1.2009,9.9695,0.0887,0.1703,9.8048,-0.015,0.0101,-0.0741,15.78,9.28,-23.76,335.29,-3.26,2.4
58001,52.4102,-1.437773,117,9.38,10.0,323.8,13 / 26,5800142,2019-08-31 11:27:00:221,0.2276,1.425,9.8923,0.0166,0.1221,9.8059,-0.0245,-0.0262,-0.1029,15.78,9.28,-23.76,335.29,-3.26,2.4
58002,52.4102,-1.437773,117,9.38,10.0,323.8,13 / 26,5800241,2019-08-31 11:27:00:320,0.0807,1.484,10.0909,0.0249,0.2508,9.8034,-0.0384,-0.056,-0.122,15.88,8.95,-23.83,333.43,-2.77,1.0
58003,52.4102,-1.437773,117,9.38,10.0,323.8,13 / 26,5800341,2019-08-31 11:27:00:420,0.0499,1.4406,9.505,0.0028,0.1268,9.8058,-0.0213,-0.0208,-0.1327,15.74,8.66,-24.03,332.41,-2.46,0.25
58004,52.4102,-1.437773,117,9.38,10.0,323.8,13 / 26,5800441,2019-08-31 11:27:00:520,0.0635,1.2782,9.9899,0.02,0.2559,9.8033,-0.0363,0.0026,-0.1476,15.74,8.66,-24.03,332.41,-2.46,0.25
58005,52.4102,-1.437773,117,9.38,10.0,323.8,13 / 26,5800541,2019-08-31 11:27:00:620,0.0062,1.1012,9.7722,0.0403,0.1267,9.8058,-0.0373,0.026,-0.1625,16.45,8.1,-23.74,333.2,-1.87,-1.13
58006,52.4102,-1.437773,117,9.38,10.0,323.8,13 / 26,5800641,2019-08-31 11:27:00:720,0.1154,1.3257,10.0881,0.0915,0.2423,9.8032,-0.0373,0.026,-0.1625,16.71,7.78,-23.67,332.8,-1.71,-2.63
58007,52.4102,-1.437773,117,9.38,10.0,323.8,13 / 26,5800741,2019-08-31 11:27:00:820,0.2904,1.1847,9.8614,0.0608,0.1062,9.8059,-0.0245,0.0431,-0.1764,16.95,8.13,-23.38,332.17,-1.74,-3.35
58008,52.4102,-1.437773,117,9.38,10.0,323.8,13 / 26,5800841,2019-08-31 11:27:00:920,0.2042,1.1163,10.0665,0.0661,0.1021,9.8059,-0.0224,0.0324,-0.1934,16.95,8.13,-23.38,332.17,-1.74,-3.35
58009,52.4102,-1.437773,117,9.38,10.0,323.8,13 / 26,5800941,2019-08-31 11:27:01:020,0.1428,1.1831,10.2848,0.1531,0.2009,9.8034,-0.0544,0.0644,-0.2105,16.84,6.92,-23.85,333.21,-1.99,-4.81
58010,52.410255,-1.437838,117,9.18,10.0,332.8,13 / 26,5801041,2019-08-31 11:27:01:120,0.2811,1.2711,10.3611,0.0813,0.1226,9.8055,-0.0405,0.0175,-0.2201,17.0,6.35,-23.89,333.21,-1.99,-4.81
58011,52.410255,-1.437838,117,9.18,10.0,332.8,14 / 26,5801141,2019-08-31 11:27:01:220,0.434,1.4266,9.6817,0.1437,0.2511,9.8024,-0.0437,0.0367,-0.2467,17.0,6.35,-23.89,333.21,-1.99,-4.81
58012,52.410255,-1.437838,117,9.18,10.0,332.8,14 / 26,5801241,2019-08-31 11:27:01:320,0.0,1.4364,10.1684,0.1008,0.2805,9.8021,-0.0544,-0.0123,-0.2584,17.69,5.46,-23.61,337.8,-2.07,-6.5
58013,52.410255,-1.437838,117,9.18,10.0,332.8,14 / 26,5801342,2019-08-31 11:27:01:421,-0.1009,1.3262,9.7652,0.0484,0.1424,9.8055,-0.0544,-0.0123,-0.2584,17.57,4.09,-23.97,338.52,-2.0,-8.24
58014,52.410255,-1.437838,117,9.18,10.0,332.8,14 / 26,5801441,2019-08-31 11:27:01:520,0.0114,1.4464,10.5039,0.1002,0.2919,9.8018,-0.0331,0.0122,-0.2808,17.57,4.09,-23.97,338.52,-2.0,-8.24
58015,52.410255,-1.437838,117,9.18,10.0,332.8,14 / 26,5801542,2019-08-31 11:27:01:621,-0.2265,1.3073,10.3706,0.0496,0.1289,9.8057,-0.0554,0.0239,-0.3,18.72,4.23,-23.06,338.05,-1.92,-10.04
58016,52.410255,-1.437838,117,9.18,10.0,332.8,14 / 26,5801641,2019-08-31 11:27:01:720,-0.0676,1.3467,10.9283,0.1189,0.2454,9.8029,0.0127,0.0825,-0.334,18.84,2.88,-23.17,338.05,-1.92,-10.04
58017,52.410255,-1.437838,117,9.18,10.0,332.8,14 / 26,5801742,2019-08-31 11:27:01:821,-0.3932,0.8168,10.4836,0.2064,0.3574,9.798,-0.0341,0.0399,-0.3372,19.09,2.92,-22.96,338.34,-2.26,-12.43
58018,52.410255,-1.437838,117,9.18,10.0,332.8,14 / 26,5801841,2019-08-31 11:27:01:920,0.0067,0.9688,10.6101,0.0842,0.0938,9.8058,-0.0618,-0.0208,-0.3394,19.09,2.92,-22.96,338.34,-2.26,-12.43
58019,52.410255,-1.437838,117,9.18,10.0,332.8,14 / 26,5801941,2019-08-31 11:27:02:020,0.0466,1.034,10.1594,0.0739,0.1085,9.8058,-0.0363,0.0069,-0.3447,18.88,1.98,-23.23,340.23,-2.51,-13.12
58020,52.410255,-1.437838,117,9.18,10.0,332.8,14 / 26,5802041,2019-08-31 11:27:02:120,0.2939,0.9577,10.0806,0.1517,0.201,9.8034,-0.0608,0.0271,-0.3511,19.19,0.62,-23.05,341.47,-2.95,-14.53
58021,52.41034,-1.437882,117,9.19,10.0,349.7,14 / 26,5802141,2019-08-31 11:27:02:220,0.3216,0.2329,10.9893,0.1212,0.088,9.8055,-0.0608,0.0271,-0.3511,19.19,0.62,-23.05,341.47,-2.95,-14.53
58022,52.41034,-1.437882,117,9.19,10.0,349.7,14 / 26,5802241,2019-08-31 11:27:02:320,0.0499,0.6352,10.5876,0.1012,0.0667,9.8059,-0.0426,0.0399,-0.3745,19.8,0.25,-22.53,343.56,-3.66,-15.92
58023,52.41034,-1.437882,117,9.19,10.0,349.7,14 / 26,5802341,2019-08-31 11:27:02:420,0.1288,0.5034,10.4604,0.0815,0.0668,9.8061,-0.0384,-0.0091,-0.3713,19.78,-1.13,-22.52,345.54,-4.12,-16.46
58024,52.41034,-1.437882,117,9.19,10.0,349.7,14 / 26,5802441,2019-08-31 11:27:02:520,-0.3911,0.9574,11.1037,0.1422,0.1226,9.8049,-0.0299,0.0154,-0.3649,19.72,-2.09,-22.51,345.54,-4.12,-16.46
58025,52.41034,-1.437882,117,9.19,10.0,349.7,14 / 26,5802541,2019-08-31 11:27:02:620,-0.2826,0.7268,10.7868,0.1994,0.1741,9.8031,-0.032,-0.0198,-0.366,20.5,-2.07,-21.8,348.11,-4.99,-17.74
58026,52.41034,-1.437882,117,9.19,10.0,349.7,14 / 26,5802641,2019-08-31 11:27:02:720,-0.1207,0.3989,9.3733,0.0943,0.0518,9.8061,-0.0192,0.1049,-0.3553,19.91,-3.45,-22.18,348.11,-4.99,-17.74
58027,52.41034,-1.437882,117,9.19,10.0,349.7,14 / 26,5802743,2019-08-31 11:27:02:822,-0.2923,0.3496,9.7663,0.1972,0.0838,9.8043,-0.0245,0.0047,-0.3372,19.91,-3.45,-22.18,348.11,-4.99,-17.74
58028,52.41034,-1.437882,117,9.19,10.0,349.7,14 / 26,5802841,2019-08-31 11:27:02:920,-0.247,-0.2046,10.9207,0.0634,0.0282,9.8064,-0.0352,-0.0219,-0.3575,20.35,-4.04,-21.67,351.87,-6.02,-18.46
58029,52.41034,-1.437882,117,9.19,10.0,349.7,14 / 26,5802942,2019-08-31 11:27:03:021,-0.3705,0.5921,9.5432,0.1211,0.0837,9.8055,-0.032,-0.0027,-0.3522,19.92,-5.52,-21.74,356.17,-6.65,-19.05
58030,52.41034,-1.437882,117,9.19,10.0,10.0,14 / 26,5803041,2019-08-31 11:27:03:120,-0.6061,-0.0975,10.5091,0.0475,0.0362,9.8065,-0.032,-0.0027,-0.3522,19.69,-5.45,-21.97,356.17,-6.65,-19.05
58031,52.4104,-1.437841,114,9.13,10.0,10.0,14 / 26,5803141,2019-08-31 11:27:03:220,-0.6148,0.0649,9.9972,0.0867,0.0718,9.806,-0.0458,-0.0059,-0.3511,19.69,-5.45,-21.97,356.17,-6.65,-19.05
58032,52.4104,-1.437841,114,9.13,10.0,10.0,14 / 26,5803242,2019-08-31 11:27:03:321,-0.5621,0.2038,10.3996,0.0281,0.0386,9.8065,-0.0288,0.0047,-0.3415,19.93,-7.39,-21.17,358.73,-7.18,-19.73
58033,52.4104,-1.437841,114,9.13,10.0,10.0,14 / 26,5803340,2019-08-31 11:27:03:419,-0.6461,0.2544,9.1521,0.0768,0.0744,9.8061,-0.0448,0.0239,-0.3585,19.53,-8.37,-21.18,358.73,-7.18,-19.73
58034,52.4104,-1.437841,114,9.13,10.0,10.0,14 / 26,5803441,2019-08-31 11:27:03:520,-0.3876,-0.1201,10.4703,0.1309,0.1185,9.8051,-0.0277,0.0037,-0.3617,19.53,-8.37,-21.18,358.73,-7.18,-19.73
58035,52.4104,-1.437841,114,9.13,10.0,10.0,14 / 26,5803541,2019-08-31 11:27:03:620,-0.6597,-0.5473,10.9164,0.0448,0.0197,9.8065,-0.0448,-0.0411,-0.3458,19.52,-9.16,-20.86,2.74,-7.93,-20.45
58036,52.4104,-1.437841,114,9.13,10.0,10.0,14 / 26,5803641,2019-08-31 11:27:03:720,-0.3532,-0.365,10.0243,0.0907,0.048,9.8061,-0.0586,0.0026,-0.3532,18.25,-10.94,-21.15,7.67,-8.48,-20.7
58037,52.4104,-1.437841,114,9.13,10.0,10.0,14 / 26,5803741,2019-08-31 11:27:03:820,-0.7233,-0.2752,11.0755,0.0489,0.0312,9.8065,-0.0586,0.0026,-0.3532,18.25,-10.94,-21.15,7.67,-8.48,-20.7
58038,52.4104,-1.437841,114,9.13,10.0,10.0,14 / 26,5803841,2019-08-31 11:27:03:920,-0.7529,-0.119,10.6178,0.0441,0.0158,9.8065,-0.0277,-0.0294,-0.3362,18.17,-12.04,-20.61,9.9,-8.78,-20.85
58039,52.4104,-1.437841,114,9.13,10.0,10.0,14 / 26,5803941,2019-08-31 11:27:04:020,-0.3972,0.049,9.1392,0.0792,0.028,9.8063,-0.065,0.0207,-0.3479,16.81,-12.85,-21.27,12.64,-9.27,-20.93
58040,52.410473,-1.437792,114,9.66,10.0,29.2,14 / 26,5804040,2019-08-31 11:27:04:119,-0.3342,-0.2032,10.0785,0.0428,0.035,9.8065,-0.0384,0.0346,-0.3234,16.58,-13.61,-20.98,14.8,-9.56,-21.08
58041,52.410473,-1.437792,114,9.66,10.0,29.2,14 / 26,5804141,2019-08-31 11:27:04:220,-0.5267,-0.118,9.8175,0.0819,0.0384,9.8062,-0.0267,0.0324,-0.3127,16.58,-13.61,-20.98,14.8,-9.56,-21.08
58042,52.410473,-1.437792,114,9.66,10.0,29.2,14 / 26,5804241,2019-08-31 11:27:04:320,-0.7857,-0.2438,9.7067,0.0337,0.0065,9.8066,-0.0224,0.0516,-0.3479,16.05,-15.24,-20.26,18.72,-10.08,-21.17
58043,52.410473,-1.437792,114,9.66,10.0,29.2,14 / 26,5804341,2019-08-31 11:27:04:420,-0.2998,-1.1612,11.4877,0.0356,0.0157,9.8066,-0.0405,0.0207,-0.3234,15.75,-16.02,-19.88,20.98,-10.28,-21.14
58044,52.410473,-1.437792,114,9.66,10.0,29.2,14 / 26,5804441,2019-08-31 11:27:04:520,-0.6855,-0.5688,10.458,0.0758,0.0371,9.8063,-0.0405,0.0207,-0.3234,14.6,-16.46,-20.39,21.72,-10.77,-21.19
58045,52.410473,-1.437792,114,9.66,10.0,29.2,14 / 26,5804541,2019-08-31 11:27:04:620,-0.7832,-0.459,9.9294,0.0339,0.0035,9.8066,-0.0554,0.0111,-0.3127,13.86,-17.38,-20.14,21.72,-10.77,-21.19
58046,52.410473,-1.437792,114,9.66,10.0,29.2,14 / 26,5804641,2019-08-31 11:27:04:720,0.0817,-1.0777,11.3569,0.0469,-0.0042,9.8065,-0.0128,-0.0485,-0.3138,13.76,-18.23,-19.45,28.49,-11.01,-21.06
58047,52.410473,-1.437792,114,9.66,10.0,29.2,14 / 26,5804741,2019-08-31 11:27:04:820,-0.0137,-0.6408,9.4408,0.014,0.0052,9.8066,-0.0448,0.0782,-0.2808,13.76,-18.23,-19.45,28.49,-11.01,-21.06
58048,52.410473,-1.437792,114,9.66,10.0,29.2,14 / 26,5804841,2019-08-31 11:27:04:920,0.2184,-1.2374,11.215,0.0568,-0.0093,9.8065,-0.0043,-0.0272,-0.2872,12.82,-18.83,-19.52,30.96,-11.28,-20.85
58049,52.410473,-1.437792,114,9.66,10.0,29.2,14 / 26,5804941,2019-08-31 11:27:05:020,-0.3754,-1.0115,10.9116,0.0427,-0.0074,9.8066,-0.0437,0.0399,-0.2754,11.66,-19.43,-19.66,32.5,-11.47,-20.68
58050,52.410534,-1.437688,114,10.36,9.0,46.0,16 / 26,5805041,2019-08-31 11:27:05:120,0.0527,-0.8264,9.3382,0.1153,-0.0455,9.8059,-0.0107,0.1113,-0.2467,11.48,-20.1,-19.08,32.5,-11.47,-20.68
58051,52.410534,-1.437688,114,10.36,9.0,46.0,16 / 26,5805142,2019-08-31 11:27:05:221,0.1365,-1.2387,11.1985,0.182,-0.0648,9.8047,-0.0107,-0.0347,-0.2041,11.48,-20.1,-19.08,32.5,-11.47,-20.68
58052,52.410534,-1.437688,114,10.36,9.0,46.0,16 / 26,5805241,2019-08-31 11:27:05:320,0.7485,-1.7735,12.0147,0.0779,-0.0389,9.8063,-0.0107,-0.0347,-0.2041,10.06,-20.75,-19.19,41.56,-12.16,-19.77
58053,52.410534,-1.437688,114,10.36,9.0,46.0,16 / 26,5805341,2019-08-31 11:27:05:420,0.4161,-1.182,9.3135,0.1215,-0.0936,9.8055,-0.0469,0.1113,-0.1423,9.11,-20.99,-19.4,44.27,-12.33,-18.87
58054,52.410534,-1.437688,114,10.36,9.0,46.0,16 / 26,5805440,2019-08-31 11:27:05:519,1.2661,-0.4937,8.6356,0.039,-0.0725,9.8063,0.0053,0.0356,-0.1849,9.11,-20.99,-19.4,44.27,-12.33,-18.87
58055,52.410534,-1.437688,114,10.36,9.0,46.0,16 / 26,5805543,2019-08-31 11:27:05:622,0.0205,-0.2567,7.9718,0.0406,-0.0697,9.8063,-0.0213,0.0665,-0.1434,8.89,-21.6,-18.83,46.59,-12.2,-18.4
58056,52.410534,-1.437688,114,10.36,9.0,46.0,16 / 26,5805641,2019-08-31 11:27:05:720,0.6935,-1.1226,9.6978,0.1025,-0.1436,9.8051,-0.0267,-0.0869,-0.1529,8.35,-21.67,-18.99,49.78,-12.0,-17.37
58057,52.410534,-1.437688,114,10.36,9.0,46.0,16 / 26,5805741,2019-08-31 11:27:05:820,0.5714,-1.3275,9.6323,0.0437,-0.0585,9.8064,0.0064,0.0228,-0.1327,8.35,-21.67,-18.99,49.78,-12.0,-17.37
58058,52.410534,-1.437688,114,10.36,9.0,46.0,16 / 26,5805842,2019-08-31 11:27:05:921,0.8993,-0.6546,8.6666,0.0495,-0.0697,9.8063,-0.0181,0.0431,-0.1029,8.35,-21.67,-18.99,50.25,-11.9,-16.94
58059,52.410534,-1.437688,114,10.36,9.0,46.0,16 / 26,5805941,2019-08-31 11:27:06:020,1.0339,-1.1852,10.2241,0.0534,-0.0603,9.8063,-0.0746,-0.0283,-0.0922,7.02,-22.6,-18.44,55.4,-11.77,-16.45
58060,52.410534,-1.437688,114,10.36,9.0,46.0,16 / 26,5806042,2019-08-31 11:27:06:121,1.136,-0.6629,10.1257,0.0002,-0.0653,9.8064,-0.0235,-0.0091,-0.1082,6.5,-22.69,-18.52,57.74,-11.51,-15.57
58061,52.410603,-1.437557,114,11.59,9.0,55.5,16 / 26,5806141,2019-08-31 11:27:06:220,0.791,-0.7543,9.622,0.0367,-0.1447,9.8055,-0.0235,-0.0091,-0.1082,6.5,-22.69,-18.52,57.74,-11.51,-15.57
58062,52.410603,-1.437557,114,11.59,9.0,55.5,16 / 26,5806241,2019-08-31 11:27:06:320,1.1953,-0.3403,9.0528,0.0651,-0.0575,9.8063,-0.0277,0.025,-0.0784,6.58,-22.99,-18.11,57.31,-10.91,-14.93
58063,52.410603,-1.437557,114,11.59,9.0,55.5,16 / 26,5806341,2019-08-31 11:27:06:420,0.9901,-0.3176,9.8945,0.0856,-0.0269,9.8062,-0.0128,-0.0059,-0.0794,6.58,-22.99,-18.11,57.75,-10.83,-14.42
58064,52.410603,-1.437557,114,11.59,9.0,55.5,16 / 26,5806441,2019-08-31 11:27:06:520,1.3744,-0.8523,9.3667,0.1551,-0.0744,9.8051,-0.0043,0.0548,-0.0549,5.52,-23.37,-17.98,60.67,-10.95,-13.4
58065,52.410603,-1.437557,114,11.59,9.0,55.5,16 / 26,5806541,2019-08-31 11:27:06:620,1.5926,-0.2896,10.245,0.0873,-0.0358,9.8062,0.0032,0.0324,-0.0656,5.52,-23.37,-17.98,60.67,-10.95,-13.4
58066,52.410603,-1.437557,114,11.59,9.0,55.5,16 / 26,5806641,2019-08-31 11:27:06:720,1.7288,-0.5217,9.3629,0.08,-0.0273,9.8063,-0.049,-0.0059,-0.0155,5.65,-23.81,-17.35,62.82,-11.01,-12.84
58067,52.410603,-1.437557,114,11.59,9.0,55.5,16 / 26,5806741,2019-08-31 11:27:06:820,0.3591,-0.2912,9.4412,0.1528,-0.0727,9.8052,0.0447,-0.0198,-0.0816,5.65,-23.81,-17.35,63.4,-11.04,-11.84
58068,52.410603,-1.437557,114,11.59,9.0,55.5,16 / 26,5806841,2019-08-31 11:27:06:920,0.7715,-0.7125,8.7248,0.0603,-0.1046,9.8059,0.0341,0.0101,-0.0549,5.65,-23.81,-17.35,63.4,-11.04,-11.84
58069,52.410603,-1.437557,114,11.59,9.0,55.5,16 / 26,5806941,2019-08-31 11:27:07:020,0.9789,-0.6198,9.937,0.1189,-0.2065,9.8038,0.0351,0.0101,-0.024,5.65,-23.81,-17.35,63.4,-11.04,-11.84
58070,52.410603,-1.437557,114,11.59,9.0,55.5,16 / 26,5807041,2019-08-31 11:27:07:120,1.0357,-0.6422,10.0554,0.2236,-0.2981,9.7996,0.0351,0.0101,-0.024,5.6,-23.02,-18.4,63.66,-10.06,-9.86
58071,52.41065,-1.437382,113,12.73,9.0,59.8,16 / 26,5807141,2019-08-31 11:27:07:220,2.4589,-0.5535,10.0482,0.3095,-0.1794,9.8001,0.05,-0.0134,-0.0027,5.12,-23.41,-18.05,63.66,-10.06,-9.86
58072,52.41065,-1.437382,113,12.73,9.0,59.8,16 / 26,5807241,2019-08-31 11:27:07:320,1.6675,-0.4418,10.4156,0.1101,-0.0456,9.8059,-0.0363,-0.0411,0.0633,5.26,-23.46,-17.95,67.27,-9.92,-7.74
58073,52.41065,-1.437382,113,12.73,9.0,59.8,16 / 26,5807341,2019-08-31 11:27:07:420,0.5432,0.0785,8.169,0.2137,-0.0685,9.8041,-0.0181,0.0505,0.0367,4.56,-23.48,-18.1,67.85,-10.03,-6.41
58074,52.41065,-1.437382,113,12.73,9.0,59.8,16 / 26,5807441,2019-08-31 11:27:07:520,1.1873,-0.2804,10.0098,0.1103,-0.0278,9.806,0.0021,0.0537,0.0143,4.56,-23.48,-18.1,67.85,-10.03,-6.41
58075,52.41065,-1.437382,113,12.73,9.0,59.8,16 / 26,5807541,2019-08-31 11:27:07:620,1.4919,0.3748,9.2005,0.1057,-0.0583,9.8059,-0.0086,-0.057,0.0143,4.54,-23.97,-17.46,69.44,-10.12,-5.74
58076,52.41065,-1.437382,113,12.73,9.0,59.8,16 / 26,5807641,2019-08-31 11:27:07:720,1.1944,-0.3124,8.7771,0.1868,-0.1355,9.8039,0.0,0.0026,0.0154,5.59,-23.55,-17.72,67.64,-9.76,-4.43
58077,52.41065,-1.437382,113,12.73,9.0,59.8,16 / 26,5807741,2019-08-31 11:27:07:820,1.6813,0.2996,8.7973,0.0699,-0.0527,9.8063,-0.0075,-0.024,0.0591,5.59,-23.55,-17.72,67.64,-9.76,-4.43
58078,52.41065,-1.437382,113,12.73,9.0,59.8,16 / 26,5807841,2019-08-31 11:27:07:920,0.966,-0.4072,9.3341,0.0708,-0.0547,9.8062,-0.0075,-0.024,0.0591,5.66,-23.29,-18.05,67.08,-9.63,-3.92
58079,52.41065,-1.437382,113,12.73,9.0,59.8,16 / 26,5807942,2019-08-31 11:27:08:021,0.6993,0.0178,9.5162,0.1804,-0.0939,9.8045,0.0426,0.0356,0.0122,6.13,-23.26,-17.93,67.69,-9.53,-2.72
58080,52.4107,-1.437201,113,13.93,9.0,59.1,17 / 26,5808041,2019-08-31 11:27:08:120,1.0377,-0.2606,9.9212,0.0968,-0.0503,9.806,0.0266,-0.0528,0.0463,6.5,-22.56,-18.68,67.69,-9.53,-2.72
58081,52.4107,-1.437201,113,13.93,9.0,59.1,17 / 26,5808141,2019-08-31 11:27:08:220,1.0466,-0.4527,9.7865,0.2467,-0.2315,9.8008,-0.0043,-0.0539,0.0409,6.5,-22.56,-18.68,67.69,-9.53,-2.72
58082,52.4107,-1.437201,113,13.93,9.0,59.1,17 / 26,5808242,2019-08-31 11:27:08:321,0.9774,0.1422,9.9196,0.0982,-0.0037,9.8062,0.0053,0.0473,0.0537,6.49,-23.09,-18.02,68.96,-8.83,-0.85
58083,52.4107,-1.437201,113,13.93,9.0,59.1,17 / 26,5808341,2019-08-31 11:27:08:420,1.1602,-0.0448,10.7513,0.104,-0.015,9.8061,0.0085,0.0431,0.0772,5.52,-23.25,-18.14,69.06,-9.01,-0.3
58084,52.4107,-1.437201,113,13.93,9.0,59.1,17 / 26,5808441,2019-08-31 11:27:08:520,0.3848,-0.1691,9.2765,0.2328,-0.0553,9.8037,-0.0171,-0.04,0.1091,5.66,-23.29,-18.05,69.5,-9.19,1.1
58085,52.4107,-1.437201,113,13.93,9.0,59.1,17 / 26,5808541,2019-08-31 11:27:08:620,0.4308,-0.4104,9.4193,0.0709,-0.0307,9.8063,0.0404,0.042,0.0591,5.66,-23.29,-18.05,69.5,-9.19,1.1
58086,52.4107,-1.437201,113,13.93,9.0,59.1,17 / 26,5808641,2019-08-31 11:27:08:720,0.8417,0.4436,9.7547,0.1058,-0.0268,9.806,0.0404,0.042,0.0591,5.96,-23.18,-18.09,69.69,-9.17,1.56
58087,52.4107,-1.437201,113,13.93,9.0,59.1,17 / 26,5808741,2019-08-31 11:27:08:820,0.8429,-0.4353,10.0433,0.2102,-0.0324,9.8043,0.05,0.0165,0.0995,6.28,-23.25,-17.89,69.69,-9.17,1.56
58088,52.4107,-1.437201,113,13.93,9.0,59.1,17 / 26,5808841,2019-08-31 11:27:08:920,0.592,-0.3725,9.1368,0.2917,-0.1271,9.8015,0.0085,-0.056,0.075,6.59,-22.31,-18.94,67.24,-9.06,3.44
58089,52.4107,-1.437201,113,13.93,9.0,59.1,17 / 26,5808942,2019-08-31 11:27:09:021,0.2803,0.0447,9.4419,0.0362,-0.0806,9.8063,0.0106,0.0292,0.0772,7.32,-22.27,-18.72,67.6,-8.71,3.82
58090,52.410755,-1.436991,112,15.22,9.0,56.1,17 / 26,5809041,2019-08-31 11:27:09:120,0.5538,0.1803,9.3402,0.0811,0.0177,9.8063,-0.0043,-0.0049,0.0846,7.32,-22.27,-18.72,67.6,-8.71,3.82
58091,52.410755,-1.436991,112,15.22,9.0,56.1,17 / 26,5809140,2019-08-31 11:27:09:219,-0.2453,0.067,8.8758,0.0738,-0.0583,9.8062,-0.0341,-0.0517,0.0441,8.6,-22.13,-18.33,63.82,-8.98,4.22
58092,52.410755,-1.436991,112,15.22,9.0,56.1,17 / 26,5809241,2019-08-31 11:27:09:320,-0.0545,-0.4381,9.8499,0.0417,-0.0206,9.8065,0.0053,0.0537,0.0804,7.94,-22.98,-17.58,66.98,-8.87,4.77
58093,52.410755,-1.436991,112,15.22,9.0,56.1,17 / 26,5809341,2019-08-31 11:27:09:420,0.1374,0.0795,9.204,0.0733,-0.0108,9.8064,-0.0426,0.0559,0.0836,7.85,-22.72,-17.95,67.08,-8.98,5.19
58094,52.410755,-1.436991,112,15.22,9.0,56.1,17 / 26,5809440,2019-08-31 11:27:09:519,0.3956,0.3782,9.369,0.0469,0.0409,9.8065,-0.0426,0.0559,0.0836,8.38,-22.6,-17.86,67.08,-8.98,5.19
58095,52.410755,-1.436991,112,15.22,9.0,56.1,17 / 26,5809542,2019-08-31 11:27:09:621,-0.0384,0.4919,9.4546,0.0903,0.0242,9.8062,0.0266,0.0122,0.0495,8.38,-22.6,-17.86,67.08,-8.98,5.19
58096,52.410755,-1.436991,112,15.22,9.0,56.1,17 / 26,5809641,2019-08-31 11:27:09:720,0.3838,-0.0772,9.8524,0.0505,-0.0159,9.8065,0.0042,-0.0805,0.0399,8.38,-22.6,-17.86,67.07,-9.31,5.63
58097,52.410755,-1.436991,112,15.22,9.0,56.1,17 / 26,5809741,2019-08-31 11:27:09:820,-0.1717,0.089,10.0417,0.0923,-0.0682,9.806,0.0319,0.0101,0.0346,8.89,-22.48,-17.76,64.54,-9.15,6.29
58098,52.410755,-1.436991,112,15.22,9.0,56.1,17 / 26,5809841,2019-08-31 11:27:09:920,-0.9215,-0.6075,8.8407,-0.0146,-0.0352,9.8066,0.0159,-0.0038,0.0292,8.89,-22.48,-17.76,64.54,-9.15,6.29
58099,52.410755,-1.436991,112,15.22,9.0,56.1,17 / 26,5809943,2019-08-31 11:27:10:022,-0.2196,0.0454,10.2343,0.0137,-0.0359,9.8066,-0.0118,-0.0794,0.0804,8.48,-21.83,-18.75,66.41,-8.93,6.3
58100,52.41083,-1.436793,112,15.91,10.0,53.0,17 / 26,5810042,2019-08-31 11:27:10:121,0.6217,0.3449,10.1434,0.0394,-0.0644,9.8064,0.0064,0.0942,0.0463,9.13,-22.01,-18.23,66.41,-8.93,6.3
58101,52.41083,-1.436793,112,15.91,10.0,53.0,15 / 26,5810140,2019-08-31 11:27:10:219,-0.2628,0.0395,9.6863,0.0853,-0.0124,9.8063,0.0064,0.0942,0.0463,9.0,-21.71,-18.65,64.58,-9.07,6.79
58102,52.41083,-1.436793,112,15.91,10.0,53.0,15 / 26,5810241,2019-08-31 11:27:10:320,-0.1748,0.1267,9.9982,0.0052,0.0157,9.8066,0.0127,0.0399,0.0548,9.0,-21.71,-18.65,64.58,-9.07,6.79
58103,52.41083,-1.436793,112,15.91,10.0,53.0,15 / 26,5810341,2019-08-31 11:27:10:420,-0.0769,0.3961,8.8513,0.0156,-0.0017,9.8066,0.001,-0.0411,0.0452,8.27,-22.31,-18.28,66.69,-9.16,6.78
58104,52.41083,-1.436793,112,15.91,10.0,53.0,15 / 26,5810441,2019-08-31 11:27:10:520,-0.3063,-0.0676,9.9575,-0.0148,0.0133,9.8066,-0.0395,0.042,0.0591,9.28,-22.06,-18.08,64.75,-9.19,6.87
58105,52.41083,-1.436793,112,15.91,10.0,53.0,15 / 26,5810541,2019-08-31 11:27:10:620,-1.1058,0.1781,8.4945,-0.0562,0.0097,9.8065,-0.032,-0.073,0.0431,9.28,-22.06,-18.08,64.75,-9.19,6.87
58106,52.41083,-1.436793,112,15.91,10.0,53.0,15 / 26,5810642,2019-08-31 11:27:10:721,-0.8808,-0.0006,9.2992,-0.1398,-0.0612,9.8055,-0.0086,-0.0602,0.0377,9.16,-21.78,-18.48,64.84,-8.52,6.27
58107,52.41083,-1.436793,112,15.91,10.0,53.0,15 / 26,5810741,2019-08-31 11:27:10:820,-1.0684,-0.2961,10.5675,-0.0488,-0.0602,9.8063,-0.0096,0.0399,0.042,9.82,-22.24,-17.57,64.84,-8.52,6.27
58108,52.41083,-1.436793,112,15.91,10.0,53.0,15 / 26,5810841,2019-08-31 11:27:10:920,-1.627,-0.0936,10.2424,-0.0719,-0.0618,9.8062,-0.0096,0.0399,0.042,9.3,-21.56,-18.67,64.83,-8.01,6.05
58109,52.41083,-1.436793,112,15.91,10.0,53.0,15 / 26,5810941,2019-08-31 11:27:11:020,-0.5818,0.5613,10.2046,-0.0208,0.0153,9.8066,0.0138,0.0804,0.0388,9.3,-21.56,-18.67,64.83,-8.01,6.05
58110,52.410927,-1.436593,112,16.83,10.0,50.9,15 / 26,5811041,2019-08-31 11:27:11:120,-0.4756,0.5854,9.043,-0.0296,0.0113,9.8066,0.0202,-0.007,0.0431,9.54,-22.1,-17.91,63.01,-8.0,5.86
58111,52.410927,-1.436593,112,16.83,10.0,50.9,15 / 26,5811140,2019-08-31 11:27:11:219,-0.5495,0.2899,9.7593,0.0351,0.0215,9.8066,0.0149,0.0431,0.0601,10.46,-21.84,-17.7,63.01,-8.0,5.86
58112,52.410927,-1.436593,112,16.83,10.0,50.9,15 / 26,5811241,2019-08-31 11:27:11:320,-0.3024,-0.0377,10.3623,0.0125,0.0122,9.8066,-0.0096,0.0292,0.0473,9.83,-21.22,-18.79,61.76,-8.2,5.99
58113,52.410927,-1.436593,112,16.83,10.0,50.9,15 / 26,5811341,2019-08-31 11:27:11:420,-0.3995,-0.0306,10.4321,-0.0126,-0.0088,9.8066,-0.0192,-0.0091,0.0282,9.83,-21.22,-18.79,61.76,-8.2,5.99
58114,52.410927,-1.436593,112,16.83,10.0,50.9,15 / 26,5811441,2019-08-31 11:27:11:520,-0.232,0.0335,9.3197,-0.042,-0.024,9.8065,-0.0086,0.0218,0.0718,9.83,-21.7,-18.24,62.99,-8.12,5.95
58115,52.410927,-1.436593,112,16.83,10.0,50.9,15 / 26,5811541,2019-08-31 11:27:11:620,0.2604,-0.2091,10.4109,-0.0474,-0.0237,9.8065,-0.0086,0.0218,0.0718,10.58,-21.62,-17.91,61.16,-7.87,5.76
58116,52.410927,-1.436593,112,16.83,10.0,50.9,15 / 26,5811641,2019-08-31 11:27:11:720,-1.1742,-0.311,10.3996,-0.0197,0.0357,9.8066,-0.0288,0.0697,0.0537,10.08,-21.76,-18.02,62.9,-8.0,5.56
58117,52.410927,-1.436593,112,16.83,10.0,50.9,15 / 26,5811741,2019-08-31 11:27:11:820,-0.0589,-0.0051,9.961,-0.0272,-0.0221,9.8066,-0.0395,-0.0709,0.0676,10.84,-22.15,-17.08,62.9,-8.0,5.56
58118,52.410927,-1.436593,112,16.83,10.0,50.9,15 / 26,5811841,2019-08-31 11:27:11:920,-0.1091,0.0135,9.9854,-0.0552,-0.067,9.8063,0.0362,-0.0017,0.0101,10.84,-22.15,-17.08,62.9,-8.0,5.56
58119,52.410927,-1.436593,112,16.83,10.0,50.9,15 / 26,5811941,2019-08-31 11:27:12:020,-0.6747,0.3401,9.5141,0.003,0.0139,9.8066,-0.0288,-0.0326,0.0548,11.61,-22.51,-16.08,60.72,-7.5,5.45
58120,52.411015,-1.436381,112,18.02,10.0,48.9,15 / 26,5812046,2019-08-31 11:27:12:125,0.0364,0.5552,9.3243,-0.0105,0.015,9.8066,-0.015,0.0175,0.0559,11.46,-22.23,-16.56,61.3,-7.55,5.35
58121,52.411015,-1.436381,112,18.02,10.0,48.9,15 / 26,5812141,2019-08-31 11:27:12:220,-1.1307,-0.2168,10.1994,-0.0335,0.0188,9.8066,0.0319,0.091,0.0239,11.46,-22.23,-16.56,61.3,-7.55,5.35
58122,52.411015,-1.436381,112,18.02,10.0,48.9,15 / 26,5812241,2019-08-31 11:27:12:320,-0.0054,0.3351,9.9368,-0.0361,-0.0032,9.8066,0.0064,-0.0198,0.0452,11.2,-21.71,-17.41,61.22,-7.55,5.12
58123,52.411015,-1.436381,112,18.02,10.0,48.9,15 / 26,5812341,2019-08-31 11:27:12:420,0.1483,0.0651,9.7439,0.002,0.0214,9.8066,0.0064,-0.0198,0.0452,11.45,-22.66,-15.98,62.41,-7.33,4.93
58124,52.411015,-1.436381,112,18.02,10.0,48.9,15 / 26,5812441,2019-08-31 11:27:12:520,-0.0628,0.1861,9.8993,-0.0066,0.0489,9.8065,-0.0139,0.0548,0.0612,10.94,-22.33,-16.79,62.41,-7.33,4.93
58125,52.411015,-1.436381,112,18.02,10.0,48.9,15 / 26,5812541,2019-08-31 11:27:12:620,0.0249,0.3267,8.9607,-0.0229,0.0522,9.8065,-0.0075,-0.0017,0.0186,10.94,-22.33,-16.79,62.41,-7.33,4.93
58126,52.411015,-1.436381,112,18.02,10.0,48.9,15 / 26,5812641,2019-08-31 11:27:12:720,-0.0132,-0.1295,9.5131,-0.0394,-0.0552,9.8064,-0.0096,-0.0645,0.026,11.06,-22.57,-16.37,62.24,-7.54,4.67
58127,52.411015,-1.436381,112,18.02,10.0,48.9,15 / 26,5812741,2019-08-31 11:27:12:820,-0.3733,0.1955,9.6117,-0.029,-0.0114,9.8066,-0.0011,0.0463,0.0367,11.23,-22.31,-16.62,61.21,-7.15,4.62
58128,52.411015,-1.436381,112,18.02,10.0,48.9,15 / 26,5812842,2019-08-31 11:27:12:921,-0.1947,-0.1348,10.16,-0.0065,0.0281,9.8066,0.0213,-0.0091,0.0314,12.76,-21.21,-16.94,61.21,-7.15,4.62
58129,52.411015,-1.436381,112,18.02,10.0,48.9,15 / 26,5812941,2019-08-31 11:27:13:020,-0.7211,0.4022,9.122,0.0111,0.0339,9.8066,-0.0086,-0.0091,0.0548,12.27,-21.39,-17.08,58.13,-7.35,4.58
58130,52.41112,-1.436171,112,18.83,10.0,46.8,15 / 26,5813041,2019-08-31 11:27:13:120,-0.2332,-0.4941,9.2788,-0.0021,-0.0492,9.8065,0.0021,-0.0176,0.0676,12.27,-21.39,-17.08,58.13,-7.35,4.58
58131,52.41112,-1.436171,112,18.83,10.0,46.8,15 / 26,5813141,2019-08-31 11:27:13:220,0.1566,0.4518,9.3065,0.0058,-0.0661,9.8064,0.0021,-0.0176,0.0676,12.26,-21.52,-16.94,59.49,-7.04,4.81
58132,52.41112,-1.436171,112,18.83,10.0,46.8,15 / 26,5813241,2019-08-31 11:27:13:320,-0.0895,-0.2411,9.0233,0.0037,-0.0202,9.8066,0.0053,-0.0219,0.0665,12.43,-21.23,-17.17,59.49,-7.04,4.81
58133,52.41112,-1.436171,112,18.83,10.0,46.8,15 / 26,5813341,2019-08-31 11:27:13:420,0.0539,0.1522,9.7,-0.007,-0.0099,9.8066,-0.0043,-0.0123,0.0569,13.22,-21.0,-16.87,56.63,-6.95,4.89
58134,52.41112,-1.436171,112,18.83,10.0,46.8,15 / 26,5813441,2019-08-31 11:27:13:520,-0.2985,-0.0768,10.2004,-0.0209,-0.0296,9.8066,-0.0022,-0.0613,0.0431,13.22,-21.0,-16.87,56.63,-6.95,4.89
58135,52.41112,-1.436171,112,18.83,10.0,46.8,15 / 26,5813541,2019-08-31 11:27:13:620,-0.1012,0.5697,9.6943,0.0195,0.0078,9.8066,-0.0075,0.0601,0.0718,12.9,-21.06,-17.03,56.71,-6.74,4.89
58136,52.41112,-1.436171,112,18.83,10.0,46.8,15 / 26,5813641,2019-08-31 11:27:13:720,-0.19,0.2861,9.6491,0.0314,0.0331,9.8065,0.0159,0.0292,0.0228,12.43,-21.23,-17.17,56.71,-6.74,4.89
58137,52.41112,-1.436171,112,18.83,10.0,46.8,15 / 26,5813741,2019-08-31 11:27:13:820,0.0773,0.2023,9.1818,0.0221,0.0337,9.8066,-0.0096,-0.0357,0.0559,13.05,-20.73,-17.33,56.61,-6.98,4.89
58138,52.41112,-1.436171,112,18.83,10.0,46.8,15 / 26,5813841,2019-08-31 11:27:13:920,-0.1267,0.255,9.896,-0.0125,-0.0113,9.8066,-0.0267,0.0047,0.0708,13.05,-20.73,-17.33,56.61,-6.98,4.89
58139,52.41112,-1.436171,112,18.83,10.0,46.8,15 / 26,5813941,2019-08-31 11:27:14:020,0.1667,0.0464,9.9597,-0.0229,-0.0409,9.8065,-0.0267,0.0047,0.0708,13.07,-20.76,-17.26,56.74,-6.7,4.91
58140,52.411247,-1.435966,113,19.39,10.0,44.5,15 / 26,5814041,2019-08-31 11:27:14:120,-0.6865,0.0251,10.3328,0.0015,-0.0001,9.8067,-0.0054,0.0463,0.0388,13.07,-20.76,-17.26,56.74,-6.7,4.91
58141,52.411247,-1.435966,113,19.39,10.0,44.5,15 / 26,5814141,2019-08-31 11:27:14:220,-0.3281,0.4132,9.3515,-0.0301,-0.0106,9.8066,-0.0139,-0.0347,0.0463,13.54,-20.59,-17.11,55.0,-6.71,4.91
58142,52.411247,-1.435966,113,19.39,10.0,44.5,15 / 26,5814242,2019-08-31 11:27:14:321,-0.0036,-0.1308,9.6145,-0.0003,0.0095,9.8066,0.001,0.0047,0.0495,13.35,-20.7,-17.13,56.76,-6.56,4.8
58143,52.411247,-1.435966,113,19.39,10.0,44.5,15 / 26,5814342,2019-08-31 11:27:14:421,0.0083,-0.0597,8.3977,0.0005,0.0293,9.8066,-0.0011,0.058,0.0537,13.88,-20.96,-16.37,56.76,-6.56,4.8
58144,52.411247,-1.435966,113,19.39,10.0,44.5,15 / 26,5814442,2019-08-31 11:27:14:521,0.1603,0.3494,9.7574,-0.0187,-0.0002,9.8066,0.0106,-0.0315,0.0409,13.17,-20.59,-17.4,56.66,-6.7,4.71
58145,52.411247,-1.435966,113,19.39,10.0,44.5,15 / 26,5814541,2019-08-31 11:27:14:620,-1.135,-0.1663,9.1757,-0.0184,-0.0102,9.8066,0.0053,-0.0571,0.0537,13.17,-20.59,-17.4,56.66,-6.7,4.71
58146,52.411247,-1.435966,113,19.39,10.0,44.5,15 / 26,5814641,2019-08-31 11:27:14:720,0.2934,0.2452,8.8717,-0.0118,-0.0102,9.8066,-0.0032,0.0708,0.0473,13.89,-20.4,-17.05,53.68,-6.59,4.65
58147,52.411247,-1.435966,113,19.39,10.0,44.5,15 / 26,5814742,2019-08-31 11:27:14:821,0.5671,0.1766,9.448,-0.0136,0.0109,9.8066,-0.0032,0.0708,0.0473,13.51,-20.55,-17.18,54.97,-6.5,4.63
58148,52.411247,-1.435966,113,19.39,10.0,44.5,15 / 26,5814841,2019-08-31 11:27:14:920,-0.298,-0.1095,10.132,-0.0281,0.0129,9.8066,-0.0171,-0.0304,0.0473,13.57,-20.48,-17.21,53.65,-6.47,4.46
58149,52.411247,-1.435966,113,19.39,10.0,44.5,15 / 26,5814942,2019-08-31 11:27:15:021,0.0233,0.1796,10.0753,-0.023,-0.014,9.8066,-0.0064,0.0314,0.0527,13.57,-20.48,-17.21,53.65,-6.47,4.46
58150,52.411247,-1.435966,113,19.39,10.0,44.5,15 / 26,5815041,2019-08-31 11:27:15:120,-0.297,0.158,10.5533,-0.0034,0.02,9.8066,-0.0309,-0.0549,0.0537,13.88,-20.96,-16.37,55.02,-6.22,4.22
58151,52.411377,-1.435773,113,19.77,10.0,42.3,15 / 26,5815141,2019-08-31 11:27:15:220,-0.4921,0.1612,9.8036,-0.0058,0.0272,9.8066,0.0096,0.026,0.0335,14.07,-20.66,-16.59,55.02,-6.22,4.22
58152,52.411377,-1.435773,113,19.77,10.0,42.3,15 / 26,5815241,2019-08-31 11:27:15:320,-0.3349,-0.0416,9.7642,0.0264,0.0174,9.8066,0.001,0.0175,0.0388,13.89,-20.4,-17.05,53.56,-6.33,4.1
58153,52.411377,-1.435773,113,19.77,10.0,42.3,15 / 26,5815342,2019-08-31 11:27:15:421,0.1633,0.5142,8.861,0.0017,0.0297,9.8066,0.0053,0.0633,0.042,14.1,-20.12,-17.21,53.56,-6.33,4.1
58154,52.411377,-1.435773,113,19.77,10.0,42.3,15 / 26,5815441,2019-08-31 11:27:15:520,-0.2623,0.2817,9.4254,-0.0065,0.0358,9.8066,0.0053,0.0633,0.042,13.89,-20.4,-17.05,53.43,-6.48,3.95
58155,52.411377,-1.435773,113,19.77,10.0,42.3,15 / 26,5815541,2019-08-31 11:27:15:620,-0.3978,-0.1829,9.4509,-0.0303,0.0079,9.8066,-0.0629,-0.0176,0.0782,13.89,-20.4,-17.05,53.43,-6.48,3.95
58156,52.411377,-1.435773,113,19.77,10.0,42.3,15 / 26,5815640,2019-08-31 11:27:15:719,0.1281,0.474,9.4549,-0.0306,-0.0236,9.8066,-0.0256,-0.0432,0.0441,14.1,-20.12,-17.21,53.39,-6.41,3.78
58157,52.411377,-1.435773,113,19.77,10.0,42.3,15 / 26,5815741,2019-08-31 11:27:15:820,-0.2564,0.2559,9.0483,-0.0536,-0.0401,9.8064,-0.016,-0.024,0.0207,14.79,-20.07,-16.68,51.79,-6.03,3.67
58158,52.411377,-1.435773,113,19.77,10.0,42.3,15 / 26,5815841,2019-08-31 11:27:15:920,0.1448,0.6433,9.879,-0.0165,0.0219,9.8066,0.0245,0.0335,0.0686,14.79,-20.07,-16.68,51.79,-6.03,3.67
58159,52.411377,-1.435773,113,19.77,10.0,42.3,15 / 26,5815941,2019-08-31 11:27:16:020,-0.9552,-0.3314,11.2188,-0.011,0.0082,9.8066,0.0064,-0.0049,0.0175,14.79,-19.51,-17.34,51.71,-6.07,3.51
58160,52.411377,-1.435773,113,19.77,10.0,42.3,15 / 26,5816041,2019-08-31 11:27:16:120,-0.0225,0.2675,8.9238,0.0,0.0214,9.8066,0.0223,0.0239,0.026,14.18,-20.56,-16.62,54.58,-6.01,3.16
58161,52.411503,-1.435574,112,20.16,10.0,40.4,15 / 26,5816141,2019-08-31 11:27:16:220,-0.21,0.3037,11.1697,0.0011,0.0649,9.8064,0.0255,0.041,0.0303,14.18,-20.56,-16.62,54.58,-6.01,3.16
58162,52.411503,-1.435574,112,20.16,10.0,40.4,15 / 26,5816241,2019-08-31 11:27:16:320,0.5287,0.5441,10.3523,0.0053,0.0063,9.8066,0.0255,0.041,0.0303,14.79,-20.07,-16.68,51.36,-6.32,2.94
58163,52.411503,-1.435574,112,20.16,10.0,40.4,15 / 26,5816341,2019-08-31 11:27:16:420,-0.5269,0.2392,10.4186,-0.0169,-0.0054,9.8066,0.0053,-0.0464,0.0218,14.36,-20.26,-16.84,53.04,-6.37,2.94
58164,52.411503,-1.435574,112,20.16,10.0,40.4,15 / 26,5816441,2019-08-31 11:27:16:520,-0.1848,0.1303,9.2014,-0.0186,-0.0146,9.8066,0.001,-0.0294,0.0388,14.77,-20.04,-16.75,51.35,-6.29,2.88
58165,52.411503,-1.435574,112,20.16,10.0,40.4,15 / 26,5816541,2019-08-31 11:27:16:620,0.1658,0.0792,9.9747,-0.0437,-0.0459,9.8064,0.0362,0.0101,0.0303,14.77,-20.04,-16.75,51.35,-6.29,2.88
58166,52.411503,-1.435574,112,20.16,10.0,40.4,15 / 26,5816640,2019-08-31 11:27:16:719,0.5272,0.6077,8.7463,-0.0058,-0.0161,9.8066,-0.0139,-0.0613,0.0463,14.36,-20.26,-16.84,53.2,-5.92,2.85
58167,52.411503,-1.435574,112,20.16,10.0,40.4,15 / 26,5816740,2019-08-31 11:27:16:819,0.1452,-0.3929,10.1588,-0.0069,0.005,9.8066,-0.0075,0.025,0.0207,14.7,-20.16,-16.66,51.54,-5.82,2.88
58168,52.411503,-1.435574,112,20.16,10.0,40.4,15 / 26,5816841,2019-08-31 11:27:16:920,-0.0204,0.1032,10.4155,-0.0154,0.0198,9.8066,-0.0213,-0.0262,0.0239,14.7,-19.67,-17.24,51.46,-5.86,2.74
58169,52.411503,-1.435574,112,20.16,10.0,40.4,15 / 26,5816940,2019-08-31 11:27:17:019,-0.2517,0.6807,9.4358,-0.0211,0.0328,9.8066,-0.0576,-0.0794,0.0633,15.14,-19.97,-16.5,51.46,-5.86,2.74
58170,52.411667,-1.435382,111,21.35,10.0,38.4,15 / 26,5817041,2019-08-31 11:27:17:120,-0.928,-0.0224,10.6343,-0.0596,0.0418,9.8064,-0.0576,-0.0794,0.0633,15.14,-19.97,-16.5,51.46,-5.86,2.74
58171,52.411667,-1.435382,111,21.35,10.0,38.4,15 / 26,5817141,2019-08-31 11:27:17:220,-1.0167,-0.1369,10.3746,-0.0286,0.0237,9.8066,0.0,0.0218,0.0282,15.3,-19.69,-16.68,51.19,-5.92,2.18
58172,52.411667,-1.435382,111,21.35,10.0,38.4,15 / 26,5817241,2019-08-31 11:27:17:320,0.4441,0.3124,8.8008,-0.0339,0.0075,9.8066,-0.0416,-0.0677,0.0591,15.4,-19.57,-16.73,51.09,-5.93,1.96
58173,52.411667,-1.435382,111,21.35,10.0,38.4,15 / 26,5817341,2019-08-31 11:27:17:420,-0.9775,-0.2672,9.9964,-0.0808,0.0081,9.8063,-0.0107,-0.0272,0.0388,15.4,-19.57,-16.73,51.09,-5.93,1.96
58174,52.411667,-1.435382,111,21.35,10.0,38.4,15 / 26,5817441,2019-08-31 11:27:17:520,-0.172,0.3125,9.752,-0.025,0.0168,9.8066,0.0085,-0.023,0.0164,15.53,-19.26,-16.97,47.95,-5.67,1.56
58175,52.411667,-1.435382,111,21.35,10.0,38.4,15 / 26,5817541,2019-08-31 11:27:17:620,-0.5975,0.217,9.8053,-0.058,0.0023,9.8065,0.0255,0.0005,-0.0059,15.37,-20.09,-16.14,47.95,-5.67,1.56
58176,52.411667,-1.435382,111,21.35,10.0,38.4,15 / 26,5817641,2019-08-31 11:27:17:720,-0.3574,-0.1278,9.4331,-0.0815,0.0008,9.8063,0.0181,0.0143,0.0164,15.17,-19.43,-17.11,49.58,-5.35,1.2
58177,52.411667,-1.435382,111,21.35,10.0,38.4,15 / 26,5817742,2019-08-31 11:27:17:821,0.0957,-0.0682,10.618,0.0002,0.0099,9.8066,0.0234,0.0729,0.0196,15.56,-19.77,-16.34,49.58,-5.35,1.2
58178,52.411667,-1.435382,111,21.35,10.0,38.4,15 / 26,5817841,2019-08-31 11:27:17:920,0.4737,0.1385,9.1969,-0.0154,0.021,9.8066,-0.0203,-0.0368,0.0367,15.56,-19.77,-16.34,49.58,-5.35,1.2
58179,52.411667,-1.435382,111,21.35,10.0,38.4,15 / 26,5817941,2019-08-31 11:27:18:020,0.1136,0.163,8.9445,-0.0215,0.0263,9.8066,-0.0203,-0.0368,0.0367,15.31,-20.08,-16.2,51.03,-5.38,1.0
58180,52.411667,-1.435382,111,21.35,10.0,38.4,15 / 26,5818041,2019-08-31 11:27:18:120,0.8635,-0.2939,9.6589,-0.0235,-0.0226,9.8066,0.0735,0.0164,-0.0272,15.31,-20.08,-16.2,51.03,-5.38,1.0
58181,52.411804,-1.435172,111,21.52,11.0,37.6,15 / 26,5818141,2019-08-31 11:27:18:220,-0.0849,0.076,8.7611,-0.0376,-0.0214,9.8066,0.0127,-0.0006,0.0101,16.22,-20.14,-15.21,49.55,-5.15,0.91
58182,52.411804,-1.435172,111,21.52,11.0,37.6,15 / 26,5818241,2019-08-31 11:27:18:320,-0.1883,0.0684,10.2525,0.012,-0.0062,9.8066,-0.0203,0.0058,0.0335,17.32,-19.44,-14.9,46.53,-5.17,0.99
58183,52.411804,-1.435172,111,21.52,11.0,37.6,15 / 26,5818341,2019-08-31 11:27:18:420,0.7237,0.1747,9.3523,-0.0043,-0.0011,9.8066,0.0159,0.0346,0.0303,16.68,-19.95,-14.96,47.98,-5.15,0.98
58184,52.411804,-1.435172,111,21.52,11.0,37.6,15 / 26,5818441,2019-08-31 11:27:18:520,-0.2275,0.2665,10.6894,-0.0154,-0.0089,9.8066,-0.0416,0.0292,0.0708,16.26,-20.05,-15.28,47.98,-5.15,0.98
58185,52.411804,-1.435172,111,21.52,11.0,37.6,15 / 26,5818541,2019-08-31 11:27:18:620,0.8424,0.4603,10.3519,-0.0205,0.024,9.8066,-0.0096,0.0175,0.0559,16.26,-20.05,-15.28,47.98,-5.15,0.98
58186,52.411804,-1.435172,111,21.52,11.0,37.6,15 / 26,5818641,2019-08-31 11:27:18:720,0.097,0.0976,9.9967,0.009,0.0038,9.8066,0.0351,-0.0198,-0.0006,16.87,-19.46,-15.39,46.45,-5.17,0.79
58187,52.411804,-1.435172,111,21.52,11.0,37.6,15 / 26,5818741,2019-08-31 11:27:18:820,-0.6563,-0.3398,10.6664,-0.0045,-0.0207,9.8066,0.0351,-0.0198,-0.0006,16.07,-19.81,-15.79,49.35,-5.22,0.81
58188,52.411804,-1.435172,111,21.52,11.0,37.6,15 / 26,5818842,2019-08-31 11:27:18:921,0.2626,0.3794,8.5774,0.0349,-0.0256,9.8066,0.0202,-0.0336,0.0804,16.49,-19.02,-16.31,47.98,-5.11,0.87
58189,52.411804,-1.435172,111,21.52,11.0,37.6,15 / 26,5818942,2019-08-31 11:27:19:021,0.5197,0.1761,9.5917,0.0556,-0.0599,9.8063,0.0586,0.09,0.0196,16.49,-19.02,-16.31,47.98,-5.11,0.87
58190,52.411804,-1.435172,111,21.52,11.0,37.6,15 / 26,5819041,2019-08-31 11:27:19:120,1.3227,0.1486,9.7145,0.0322,-0.0168,9.8066,0.0277,0.0655,0.0079,15.87,-18.98,-16.96,48.1,-5.07,1.35
58191,52.411957,-1.434975,111,21.74,11.0,36.2,15 / 26,5819141,2019-08-31 11:27:19:220,-0.3293,-0.2087,9.0899,-0.015,-0.0212,9.8066,-0.0458,-0.0326,0.0708,15.65,-19.43,-16.66,48.18,-5.12,1.56
58192,52.411957,-1.434975,111,21.74,11.0,36.2,15 / 26,5819241,2019-08-31 11:27:19:320,-0.1597,-0.169,8.6082,-0.0085,-0.0048,9.8066,-0.0139,-0.0155,0.0452,15.64,-18.82,-17.35,48.19,-5.07,1.54
58193,52.411957,-1.434975,111,21.74,11.0,36.2,15 / 26,5819341,2019-08-31 11:27:19:420,-0.6476,0.0106,9.5857,0.0033,-0.0188,9.8066,0.0383,-0.0219,0.0154,15.64,-18.82,-17.35,48.19,-5.07,1.54
58194,52.411957,-1.434975,111,21.74,11.0,36.2,15 / 26,5819441,2019-08-31 11:27:19:520,0.0923,-0.2136,10.331,-0.0008,-0.0225,9.8066,0.0383,-0.0219,0.0154,16.67,-18.63,-16.58,46.75,-4.93,1.73
58195,52.411957,-1.434975,111,21.74,11.0,36.2,15 / 26,5819541,2019-08-31 11:27:19:620,0.2408,-0.446,11.2639,0.0191,0.0012,9.8066,-0.0064,0.0868,0.0431,16.46,-18.99,-16.38,46.75,-4.93,1.73
58196,52.411957,-1.434975,111,21.74,11.0,36.2,15 / 26,5819641,2019-08-31 11:27:19:720,1.1572,0.1162,10.2497,0.0274,0.0098,9.8066,-0.015,0.0825,0.0633,16.86,-18.79,-16.21,46.82,-5.08,1.81
58197,52.411957,-1.434975,111,21.74,11.0,36.2,15 / 26,5819741,2019-08-31 11:27:19:820,-0.4738,0.1218,11.4424,0.0302,-0.006,9.8066,0.0,-0.0645,0.0804,16.86,-18.79,-16.21,46.82,-5.08,1.81
58198,52.411957,-1.434975,111,21.74,11.0,36.2,15 / 26,5819841,2019-08-31 11:27:19:920,-0.1339,-0.1623,9.3185,-0.0059,-0.0172,9.8066,0.001,-0.0187,0.0335,16.66,-18.56,-16.68,46.76,-5.17,1.96
58199,52.411957,-1.434975,111,21.74,11.0,36.2,15 / 26,5819941,2019-08-31 11:27:20:020,0.5058,0.1797,8.7183,-0.0014,-0.0277,9.8066,0.0255,0.0228,0.0218,16.85,-18.2,-16.87,45.32,-5.08,2.01
58200,52.412125,-1.434788,112,22.24,11.0,34.3,15 / 26,5820041,2019-08-31 11:27:20:120,-0.0088,-0.0786,9.417,-0.0043,-0.0419,9.8066,0.0064,-0.0006,0.0569,16.87,-18.26,-16.79,45.47,-4.88,2.16
58201,52.412125,-1.434788,112,22.24,11.0,34.3,15 / 26,5820141,2019-08-31 11:27:20:220,0.7918,0.1546,9.7769,0.0117,-0.0086,9.8066,0.0064,-0.0006,0.0569,16.87,-18.26,-16.79,45.47,-4.88,2.16
58202,52.412125,-1.434788,112,22.24,11.0,34.3,15 / 26,5820241,2019-08-31 11:27:20:320,0.5655,0.2677,9.4729,0.0259,-0.0242,9.8066,0.0159,-0.0123,0.0346,17.22,-17.41,-17.33,43.99,-4.89,2.37
58203,52.412125,-1.434788,112,22.24,11.0,34.3,15 / 26,5820341,2019-08-31 11:27:20:420,-0.2621,-0.3331,10.3075,0.0228,0.0053,9.8066,0.001,0.0793,0.0644,17.05,-17.83,-17.07,45.59,-4.94,2.47
58204,52.412125,-1.434788,112,22.24,11.0,34.3,15 / 26,5820442,2019-08-31 11:27:20:521,0.9847,0.7849,9.0122,0.002,-0.0093,9.8066,0.0213,0.0516,0.0154,17.05,-17.83,-17.07,45.59,-4.94,2.47
58205,52.412125,-1.434788,112,22.24,11.0,34.3,15 / 26,5820541,2019-08-31 11:27:20:620,0.1476,-0.4045,9.5205,-0.0133,-0.0204,9.8066,0.0245,0.0015,0.0367,17.85,-18.04,-15.99,44.17,-4.91,2.52
58206,52.412125,-1.434788,112,22.24,11.0,34.3,15 / 26,5820642,2019-08-31 11:27:20:721,0.6208,0.5108,9.6287,-0.0156,-0.0158,9.8066,-0.0054,-0.0666,0.0218,17.49,-18.29,-16.11,45.76,-4.77,2.55
58207,52.412125,-1.434788,112,22.24,11.0,34.3,15 / 26,5820741,2019-08-31 11:27:20:820,-0.0674,0.2254,9.9298,0.0003,0.0193,9.8066,0.0,0.0686,0.0314,17.75,-17.47,-16.72,42.66,-4.64,2.55
58208,52.412125,-1.434788,112,22.24,11.0,34.3,15 / 26,5820841,2019-08-31 11:27:20:920,0.1837,0.3856,10.3573,0.0208,0.0497,9.8065,0.0,0.0686,0.0314,17.75,-17.47,-16.72,42.66,-4.64,2.55
58209,52.412125,-1.434788,112,22.24,11.0,34.3,15 / 26,5820942,2019-08-31 11:27:21:021,-0.0909,0.4924,9.9692,0.0121,-0.0121,9.8066,0.033,-0.0294,0.0484,17.05,-17.83,-17.07,45.57,-4.93,2.42
58210,52.412125,-1.434788,112,22.24,11.0,34.3,15 / 26,5821043,2019-08-31 11:27:21:122,-0.2651,-0.179,9.11,0.0192,-0.0173,9.8066,0.017,-0.0453,0.0388,18.08,-17.77,-16.04,45.57,-4.93,2.42
58211,52.4123,-1.43459,112,22.6,11.0,32.4,15 / 26,5821141,2019-08-31 11:27:21:220,0.4007,-0.0593,10.6576,0.0259,-0.0274,9.8066,0.0149,-0.0432,0.0314,17.65,-17.35,-16.96,42.59,-4.92,2.64
58212,52.4123,-1.43459,112,22.6,11.0,32.4,15 / 26,5821241,2019-08-31 11:27:21:320,-0.2502,-0.0639,10.6648,0.0041,-0.0151,9.8066,0.0,0.0292,0.0356,17.87,-17.47,-16.6,42.65,-4.88,2.72
58213,52.4123,-1.43459,112,22.6,11.0,32.4,15 / 26,5821342,2019-08-31 11:27:21:421,0.1428,0.4382,8.9764,-0.0365,-0.0066,9.8066,-0.0086,-0.0102,0.0377,17.87,-17.47,-16.6,42.65,-4.88,2.72
58214,52.4123,-1.43459,112,22.6,11.0,32.4,15 / 26,5821441,2019-08-31 11:27:21:520,-0.3314,0.37,9.8617,0.0105,0.0212,9.8066,0.0,0.0175,0.0335,17.87,-17.47,-16.6,42.66,-4.69,2.6
58215,52.4123,-1.43459,112,22.6,11.0,32.4,15 / 26,5821541,2019-08-31 11:27:21:620,0.0791,0.2906,9.9152,0.0157,0.0226,9.8066,0.0021,0.0207,0.0196,17.48,-17.68,-16.8,45.68,-4.82,2.55
58216,52.4123,-1.43459,112,22.6,11.0,32.4,15 / 26,5821642,2019-08-31 11:27:21:721,-0.596,-0.1364,10.308,0.0108,0.0184,9.8066,0.0021,0.0207,0.0196,17.65,-17.35,-16.96,42.53,-4.94,2.52
58217,52.4123,-1.43459,112,22.6,11.0,32.4,15 / 26,5821742,2019-08-31 11:27:21:821,0.145,0.1495,9.1914,-0.0454,-0.0167,9.8065,0.0064,-0.007,0.0026,17.65,-17.35,-16.96,42.53,-4.94,2.52
58218,52.4123,-1.43459,112,22.6,11.0,32.4,15 / 26,5821841,2019-08-31 11:27:21:920,-0.9133,0.1292,10.1015,0.0048,0.0374,9.8066,-0.0299,-0.024,0.0228,18.24,-17.33,-16.34,42.63,-4.68,2.42
58219,52.4123,-1.43459,112,22.6,11.0,32.4,15 / 26,5821941,2019-08-31 11:27:22:020,0.2737,0.5961,9.0074,-0.0248,0.0571,9.8065,0.0309,0.0399,-0.0091,17.87,-16.88,-17.2,42.36,-4.8,2.07
58220,52.4123,-1.43459,112,22.6,11.0,32.4,15 / 26,5822041,2019-08-31 11:27:22:120,-0.6608,-0.0765,9.8597,-0.0499,-0.0124,9.8065,-0.0086,-0.0762,0.0346,18.07,-17.07,-16.79,42.39,-4.54,1.93
58221,52.41249,-1.434403,113,23.03,11.0,30.8,15 / 26,5822140,2019-08-31 11:27:22:219,0.0526,0.5466,9.1346,-0.0171,-0.0022,9.8066,0.0106,-0.0123,0.0143,18.07,-17.07,-16.79,42.39,-4.54,1.93
58222,52.41249,-1.434403,113,23.03,11.0,30.8,15 / 26,5822242,2019-08-31 11:27:22:321,-0.5219,-0.0559,9.8853,0.0042,0.0286,9.8066,-0.0341,-0.0059,0.0836,18.62,-17.12,-16.14,40.91,-4.67,1.82
58223,52.41249,-1.434403,113,23.03,11.0,30.8,15 / 26,5822341,2019-08-31 11:27:22:420,1.0387,0.1532,10.888,-0.0004,-0.0006,9.8067,0.0681,0.0271,0.0356,17.8,-16.92,-17.23,42.28,-4.66,1.82
58224,52.41249,-1.434403,113,23.03,11.0,30.8,15 / 26,5822442,2019-08-31 11:27:22:521,-0.2399,0.4212,9.8789,0.0311,-0.0162,9.8066,0.0458,0.0207,0.0207,17.8,-16.92,-17.23,42.28,-4.66,1.82
58225,52.41249,-1.434403,113,23.03,11.0,30.8,15 / 26,5822542,2019-08-31 11:27:22:621,0.221,0.0429,9.3407,0.0146,0.0064,9.8066,0.0458,0.0207,0.0207,18.55,-16.56,-16.78,40.92,-4.73,2.01
58226,52.41249,-1.434403,113,23.03,11.0,30.8,15 / 26,5822641,2019-08-31 11:27:22:720,-0.6007,-0.0183,9.8674,0.0047,-0.0106,9.8066,0.0287,0.0015,0.0239,18.24,-16.73,-16.95,42.33,-4.82,2.04
58227,52.41249,-1.434403,113,23.03,11.0,30.8,15 / 26,5822742,2019-08-31 11:27:22:821,0.5263,-0.0987,8.6703,-0.0125,-0.036,9.8066,0.0074,0.0079,0.0516,18.24,-16.73,-16.95,42.33,-4.82,2.04
58228,52.41249,-1.434403,113,23.03,11.0,30.8,15 / 26,5822841,2019-08-31 11:27:22:920,-0.1723,0.2388,8.7689,-0.0127,-0.0097,9.8066,0.0415,0.0378,0.0186,18.43,-15.68,-17.73,40.74,-4.63,2.15
58229,52.41249,-1.434403,113,23.03,11.0,30.8,15 / 26,5822941,2019-08-31 11:27:23:020,-0.3707,0.0738,9.283,-0.002,-0.0206,9.8066,0.0213,0.0367,0.0239,18.31,-16.34,-17.25,40.74,-4.63,2.15
58230,52.41249,-1.434403,113,23.03,11.0,30.8,15 / 26,5823040,2019-08-31 11:27:23:119,0.3643,-0.2949,9.6103,-0.0042,-0.0346,9.8066,-0.016,-0.0549,0.0537,18.76,-16.14,-16.96,39.5,-4.48,2.29
58231,52.4127,-1.434228,114,23.82,11.0,29.3,15 / 26,5823141,2019-08-31 11:27:23:220,0.6375,0.407,8.549,-0.0013,-0.0006,9.8066,0.0404,0.1134,0.0015,19.12,-15.93,-16.75,39.5,-4.48,2.29
58232,52.4127,-1.434228,114,23.82,11.0,29.3,15 / 26,5823242,2019-08-31 11:27:23:321,-0.8155,0.3383,9.5162,0.0081,-0.0001,9.8066,0.0351,0.0005,0.0537,19.12,-15.93,-16.75,39.5,-4.48,2.29
