,GPS LATITUDE (degrees),GPS LONGITUDE (degrees), GPS ALTITUDE (m),GPS SPEED (Kmh),GPS ACCURACY (m),GPS ORIENTATION (Â°), SATELLITES IN RANGE, TIME SINCE START (ms), DATE (YYYY-MO-DD HH-MI-SS_SSS),ACCELEROMETER X (m/s²) , ACCELEROMETER Y (m/s²), ACCELEROMETER Z (m/s²), GRAVITY X (m/s²), GRAVITY Y (m/s²), GRAVITY Z (m/s²), GYROSCOPE Yaw (rad/s), GYROSCOPE Pitch (rad/s), GYROSCOPE Roll (rad/s)
14184,45.677353,0.135646,117.66,25.97,16.08,315.0,0 / 18,757315,2019-08-12 10:37:19:805,0.1013,0.2618,9.7113,0.0155,0.2685,9.803,-0.0025,-0.004,0.0324
14185,45.677353,0.135646,117.66,25.97,16.08,315.0,0 / 18,757316,2019-08-12 10:37:19:806,0.1013,0.2618,9.7113,0.0155,0.2685,9.803,-0.0025,-0.004,0.0324
14186,45.677353,0.135646,117.66,25.97,16.08,315.0,0 / 18,757317,2019-08-12 10:37:19:807,0.1013,0.2618,9.7113,0.0155,0.2685,9.803,-0.0025,-0.004,0.0324
14187,45.677353,0.135646,117.66,25.97,16.08,315.0,0 / 18,757317,2019-08-12 10:37:19:807,0.1013,0.2618,9.7113,0.0155,0.2685,9.803,-0.0025,-0.004,0.0324
14188,45.677353,0.135646,117.66,25.97,16.08,315.0,0 / 18,757321,2019-08-12 10:37:19:811,0.1013,0.2618,9.7113,0.0155,0.2685,9.803,-0.0025,-0.004,0.0324
14189,45.677353,0.135646,117.66,25.97,16.08,315.0,0 / 18,757322,2019-08-12 10:37:19:812,0.1013,0.2618,9.7113,0.0155,0.2685,9.803,-0.0025,-0.004,0.0324
14190,45.677353,0.135646,117.66,25.97,16.08,315.0,0 / 18,757323,2019-08-12 10:37:19:813,0.1013,0.2618,9.7113,0.0155,0.2685,9.803,-0.0025,-0.004,0.0324
14191,45.677353,0.135646,117.66,25.97,16.08,315.0,0 / 18,757325,2019-08-12 10:37:19:815,0.1013,0.2618,9.7113,0.0155,0.2685,9.803,-0.0025,-0.004,0.0324
14192,45.677353,0.135646,117.66,25.97,16.08,315.0,0 / 18,757325,2019-08-12 10:37:19:815,0.1013,0.2618,9.7113,0.0155,0.2685,9.803,-0.0025,-0.004,0.0324
14193,45.677353,0.135646,117.66,25.97,16.08,315.0,0 / 18,757331,2019-08-12 10:37:19:821,0.1013,0.2618,9.7113,0.0155,0.2685,9.803,-0.0025,-0.004,0.0324
14194,45.677353,0.135646,117.66,25.97,16.08,315.0,0 / 18,757333,2019-08-12 10:37:19:823,0.1013,0.2618,9.7113,0.0155,0.2685,9.803,-0.0025,-0.004,0.0324
14195,45.677353,0.135646,117.66,25.97,16.08,315.0,0 / 18,757334,2019-08-12 10:37:19:824,0.1013,0.2618,9.7113,0.0155,0.2685,9.803,-0.0025,-0.004,0.0324
14196,45.677353,0.135646,117.66,25.97,16.08,315.0,0 / 18,757337,2019-08-12 10:37:19:827,0.1013,0.2618,9.7113,0.0155,0.2685,9.803,-0.0025,-0.004,0.0324
14197,45.677353,0.135646,117.66,25.97,16.08,315.0,0 / 18,757338,2019-08-12 10:37:19:828,0.1013,0.2618,9.7113,0.0155,0.2685,9.803,-0.0025,-0.004,0.0324
14198,45.677353,0.135646,117.66,25.97,16.08,315.0,0 / 18,757338,2019-08-12 10:37:19:828,0.1013,0.2618,9.7113,0.0155,0.2685,9.803,-0.0025,-0.004,0.0324
14199,45.677353,0.135646,117.66,25.97,16.08,315.0,0 / 18,757339,2019-08-12 10:37:19:829,0.1013,0.2618,9.7113,0.0155,0.2685,9.803,-0.0025,-0.004,0.0324
14200,45.677353,0.135646,117.66,25.97,16.08,315.0,0 / 18,757341,2019-08-12 10:37:19:831,0.1013,0.2618,9.7113,0.0155,0.2685,9.803,-0.0025,-0.004,0.0324
14201,45.677353,0.135646,117.66,25.97,16.08,315.0,0 / 18,757342,2019-08-12 10:37:19:832,0.1013,0.2618,9.7113,0.0155,0.2685,9.803,-0.0025,-0.004,0.0324
14202,45.677353,0.135646,117.66,25.97,16.08,315.0,0 / 18,757343,2019-08-12 10:37:19:833,0.1013,0.2618,9.7113,0.0155,0.2685,9.803,-0.0025,-0.004,0.0324
14203,45.677353,0.135646,117.66,25.97,16.08,315.0,0 / 18,757343,2019-08-12 10:37:19:833,0.1013,0.2618,9.7113,0.0155,0.2685,9.803,-0.0025,-0.004,0.0324
14204,45.677353,0.135646,117.66,25.97,16.08,315.0,0 / 18,757344,2019-08-12 10:37:19:834,0.1013,0.2618,9.7113,0.0155,0.2685,9.803,-0.0025,-0.004,0.0324
14205,45.677353,0.135646,117.66,25.97,16.08,315.0,0 / 18,757345,2019-08-12 10:37:19:835,0.1013,0.2618,9.7113,0.0155,0.2685,9.803,-0.0025,-0.004,0.0324
14206,45.677353,0.135646,117.66,25.97,16.08,315.0,0 / 18,757345,2019-08-12 10:37:19:835,0.1013,0.2618,9.7113,0.0155,0.2685,9.803,-0.0025,-0.004,0.0324
14207,45.677353,0.135646,117.66,25.97,16.08,315.0,0 / 18,757345,2019-08-12 10:37:19:835,0.1013,0.2618,9.7113,0.0155,0.2685,9.803,-0.0025,-0.004,0.0324
14208,45.677353,0.135646,117.66,25.97,16.08,315.0,0 / 18,757346,2019-08-12 10:37:19:836,0.1013,0.2618,9.7113,0.0155,0.2685,9.803,-0.0025,-0.004,0.0324
14209,45.677353,0.135646,117.66,25.97,16.08,315.0,0 / 18,757346,2019-08-12 10:37:19:836,0.1013,0.2618,9.7113,0.0155,0.2685,9.803,-0.0025,-0.004,0.0324
14210,45.677353,0.135646,117.66,25.97,16.08,315.0,0 / 18,757347,2019-08-12 10:37:19:837,0.1013,0.2618,9.7113,0.0155,0.2685,9.803,-0.0025,-0.004,0.0324
14211,45.677353,0.135646,117.66,25.97,16.08,315.0,0 / 18,757347,2019-08-12 10:37:19:837,0.1013,0.2618,9.7113,0.0155,0.2685,9.803,-0.0025,-0.004,0.0324
14212,45.677353,0.135646,117.66,25.97,16.08,315.0,0 / 18,757347,2019-08-12 10:37:19:837,0.1013,0.2618,9.7113,0.0155,0.2685,9.803,-0.0025,-0.004,0.0324
14213,45.677353,0.135646,117.66,25.97,16.08,315.0,0 / 18,757348,2019-08-12 10:37:19:838,0.1013,0.2618,9.7113,0.0155,0.2685,9.803,-0.0025,-0.004,0.0324
14214,45.677353,0.135646,117.66,25.97,16.08,315.0,0 / 18,757348,2019-08-12 10:37:19:838,0.1013,0.2618,9.7113,0.0155,0.2685,9.803,-0.0025,-0.004,0.0324
14215,45.677353,0.135646,117.66,25.97,16.08,315.0,0 / 18,757349,2019-08-12 10:37:19:839,0.1013,0.2618,9.7113,0.0155,0.2685,9.803,-0.0025,-0.004,0.0324
14216,45.677353,0.135646,117.66,25.97,16.08,315.0,0 / 18,757371,2019-08-12 10:37:19:861,0.1013,0.2618,9.7113,0.0155,0.2685,9.803,-0.0025,-0.004,0.0324
14217,45.677353,0.135646,117.66,25.97,16.08,315.0,0 / 18,757470,2019-08-12 10:37:19:960,0.1013,0.2618,9.7113,0.0155,0.2685,9.803,-0.0025,-0.004,0.0324
14218,45.677353,0.135646,117.66,25.97,16.08,315.0,0 / 18,757570,2019-08-12 10:37:20:060,0.1259,0.415,10.1453,0.0121,0.2288,9.804,-0.0025,0.0056,0.0324
14219,45.677353,0.135646,117.66,25.97,16.08,315.0,0 / 18,757670,2019-08-12 10:37:20:160,0.1486,0.3701,10.0142,0.0055,0.2322,9.8039,-0.0068,-0.005,0.0345
14220,45.677353,0.135646,117.66,25.97,16.08,315.0,0 / 18,757770,2019-08-12 10:37:20:260,0.0499,0.4503,10.6487,0.0172,0.2284,9.804,-0.0099,-0.0178,0.0313
14221,45.677353,0.135646,117.66,25.97,16.08,315.0,0 / 18,757870,2019-08-12 10:37:20:360,-0.2488,0.4521,10.611,0.0386,0.2172,9.8042,-0.011,-0.0157,0.0302
14222,45.677353,0.135646,117.66,25.97,16.08,315.0,0 / 18,757970,2019-08-12 10:37:20:460,0.145,0.1947,10.0411,0.0375,0.2118,9.8043,-0.0099,0.0046,0.0313
14223,45.677353,0.135646,117.66,25.97,16.08,315.0,0 / 18,758070,2019-08-12 10:37:20:560,-0.0531,0.2127,9.7311,0.0299,0.2084,9.8044,-0.0046,0.0046,0.0334
14224,45.677353,0.135646,117.66,25.97,16.08,315.0,0 / 18,758170,2019-08-12 10:37:20:660,0.0606,0.4204,9.8795,0.027,0.2081,9.8044,-0.0004,-0.0029,0.0334
14225,45.677353,0.135646,117.66,25.97,16.08,315.0,0 / 18,758271,2019-08-12 10:37:20:761,-0.1554,0.2157,9.7879,0.0261,0.2163,9.8042,-0.0068,-0.0008,0.0324
14226,45.677353,0.135646,117.66,25.97,16.08,315.0,0 / 18,758371,2019-08-12 10:37:20:861,-0.262,0.3234,9.4516,0.017,0.2409,9.8037,-0.0004,0.0035,0.0324
14227,45.677353,0.135646,117.66,25.97,16.08,315.0,0 / 18,758470,2019-08-12 10:37:20:960,-0.0238,0.2043,9.6706,-0.0255,0.2588,9.8032,0.0028,0.0078,0.0324
14228,45.677353,0.135646,117.66,25.97,16.08,315.0,0 / 18,758571,2019-08-12 10:37:21:061,0.0295,0.2031,9.7951,-0.0423,0.2667,9.8029,0.0028,0.0035,0.0334
14229,45.677353,0.135646,117.66,25.97,16.08,315.0,0 / 18,758671,2019-08-12 10:37:21:161,-0.0208,0.3498,9.9502,-0.0512,0.2753,9.8027,-0.0025,-0.0114,0.0313
14230,45.677353,0.135646,117.66,25.97,16.08,315.0,0 / 18,758771,2019-08-12 10:37:21:261,-0.153,0.3019,9.6096,-0.0513,0.2877,9.8023,0.006,-0.0029,0.0334
14231,45.677353,0.135646,117.66,25.97,16.08,315.0,0 / 18,758871,2019-08-12 10:37:21:361,-0.3254,0.509,9.4683,-0.0759,0.293,9.802,0.0007,0.0035,0.0345
14232,45.677353,0.135646,117.66,25.97,16.08,315.0,0 / 18,758970,2019-08-12 10:37:21:460,-0.0459,0.327,9.8694,-0.101,0.319,9.8009,0.0156,0.0046,0.0345
14233,45.677353,0.135646,117.66,25.97,16.08,315.0,0 / 18,759071,2019-08-12 10:37:21:561,-0.2416,0.2223,9.7676,-0.1414,0.3458,9.7995,0.0071,0.0067,0.0334
14234,45.677353,0.135646,117.66,25.97,16.08,315.0,0 / 18,759170,2019-08-12 10:37:21:660,0.072,0.3713,9.7395,-0.1461,0.3431,9.7996,-0.0089,-0.0029,0.0313
14235,45.677353,0.135646,117.66,25.97,16.08,315.0,0 / 18,759270,2019-08-12 10:37:21:760,-0.3332,0.5868,9.3331,-0.147,0.334,9.7999,0.0007,0.0035,0.0302
14236,45.677353,0.135646,117.66,25.97,16.08,315.0,0 / 18,759370,2019-08-12 10:37:21:860,-0.2135,0.4527,9.755,-0.1561,0.3345,9.7997,-0.0036,0.0141,0.0302
14237,45.677353,0.135646,117.66,25.97,16.08,315.0,0 / 18,759471,2019-08-12 10:37:21:961,-0.347,0.0721,9.8466,-0.1611,0.3319,9.7997,0.0018,-0.0018,0.027
14238,45.677353,0.135646,117.66,25.97,16.08,315.0,0 / 18,759570,2019-08-12 10:37:22:060,-0.1728,0.0517,10.2644,-0.1547,0.3282,9.7999,0.005,-0.0146,0.026
14239,45.677353,0.135646,117.66,25.97,16.08,315.0,0 / 18,759670,2019-08-12 10:37:22:160,-0.1626,0.2534,10.1644,-0.1515,0.3222,9.8002,0.0007,-0.0061,0.026
14240,45.677353,0.135646,117.66,25.97,16.08,315.0,0 / 18,759771,2019-08-12 10:37:22:261,-0.241,0.1636,9.9053,-0.1728,0.2779,9.8012,0.005,0.0014,0.026
14241,45.677353,0.135646,117.66,25.97,16.08,315.0,0 / 18,759871,2019-08-12 10:37:22:361,-0.0824,0.1822,9.7042,-0.19,0.27,9.8011,-0.0057,-0.005,0.027
14242,45.677353,0.135646,117.66,25.97,16.08,315.0,0 / 18,759970,2019-08-12 10:37:22:460,-0.3697,0.0673,9.3037,-0.2022,0.2658,9.801,-0.0025,0.012,0.026
14243,45.677353,0.135646,117.66,25.97,16.08,315.0,0 / 18,760070,2019-08-12 10:37:22:560,-0.1459,0.0715,9.782,-0.2118,0.2636,9.8008,0.0007,0.0035,0.0249
14244,45.677353,0.135646,117.66,25.97,16.08,315.0,0 / 18,760171,2019-08-12 10:37:22:661,-0.2548,0.254,10.0202,-0.2146,0.2576,9.8009,-0.0014,-0.0029,0.0249
14245,45.677353,0.135646,117.66,25.97,16.08,315.0,0 / 18,760271,2019-08-12 10:37:22:761,-0.5122,0.1511,9.9723,-0.2084,0.2595,9.801,0.0082,-0.0135,0.026
14246,45.677353,0.135646,117.66,25.97,16.08,315.0,0 / 18,760371,2019-08-12 10:37:22:861,-0.6373,0.1858,9.515,-0.2204,0.2502,9.801,0.0028,0.0141,0.027
14247,45.679634,0.131373,122.98,28.88,9.648001,296.8,Nov-18,760470,2019-08-12 10:37:22:960,-0.502,0.2714,9.3702,-0.2422,0.2612,9.8002,0.0145,0.0248,0.0313
14248,45.679634,0.131373,122.98,28.88,9.648001,296.8,Nov-18,760571,2019-08-12 10:37:23:061,-0.1273,0.1277,9.8119,-0.2758,0.2802,9.7988,0.0018,0.0046,0.0324
14249,45.679634,0.131373,122.98,28.88,9.648001,296.8,Nov-18,760670,2019-08-12 10:37:23:160,-0.2039,0.4413,9.8382,-0.3081,0.2954,9.7974,-0.0014,0.0003,0.0302
14250,45.679634,0.131373,122.98,28.88,9.648001,296.8,Nov-18,760770,2019-08-12 10:37:23:260,-0.5714,0.591,10.4625,-0.2954,0.3003,9.7976,0.0007,-0.0221,0.0313
14251,45.679634,0.131373,122.98,28.88,9.648001,296.8,Nov-18,760871,2019-08-12 10:37:23:361,-0.6624,0.4593,10.2704,-0.2792,0.2953,9.7982,-0.0099,-0.0253,0.0302
14252,45.679634,0.131373,122.98,28.88,9.648001,296.8,Nov-18,760970,2019-08-12 10:37:23:460,-0.4003,0.5036,10.1764,-0.2756,0.2801,9.7988,-0.0206,-0.0008,0.0292
14253,45.679634,0.131373,122.98,28.88,9.648001,296.8,Nov-18,761070,2019-08-12 10:37:23:560,-0.2602,0.2361,9.9071,-0.2871,0.2668,9.7988,-0.0249,0.0078,0.0302
14254,45.679634,0.131373,122.98,28.88,9.648001,296.8,Nov-18,761171,2019-08-12 10:37:23:661,-0.4146,0.2564,9.7012,-0.3057,0.2553,9.7986,-0.0142,0.0078,0.0334
14255,45.679634,0.131373,122.98,28.88,9.648001,296.8,Nov-18,761270,2019-08-12 10:37:23:760,-0.4655,0.3276,9.9184,-0.329,0.2577,9.7977,-0.0132,-0.0082,0.0334
14256,45.679634,0.131373,122.98,28.88,9.648001,296.8,Nov-18,761371,2019-08-12 10:37:23:861,-0.6235,0.3366,9.3809,-0.359,0.2753,9.7962,-0.0089,0.0024,0.0345
14257,45.679634,0.131373,122.98,28.88,9.648001,296.8,Nov-18,761471,2019-08-12 10:37:23:961,-0.6211,0.4791,9.7676,-0.3748,0.2846,9.7954,-0.0078,0.0099,0.0334
14258,45.679634,0.131373,122.98,28.88,9.648001,296.8,Nov-18,761571,2019-08-12 10:37:24:061,-0.608,0.2947,9.6617,-0.3975,0.3102,9.7937,0.0018,0.0056,0.0366
14259,45.679634,0.131373,122.98,28.88,9.648001,296.8,Nov-18,761670,2019-08-12 10:37:24:160,-0.1722,0.2983,9.6359,-0.4159,0.3356,9.7921,0.005,0.0014,0.0366
14260,45.679634,0.131373,122.98,28.88,9.648001,296.8,Nov-18,761770,2019-08-12 10:37:24:260,-0.2883,0.3641,9.4557,-0.4342,0.3526,9.7907,0.0071,0.0195,0.0345
14261,45.679634,0.131373,122.98,28.88,9.648001,296.8,Nov-18,762220,2019-08-12 10:37:24:710,-0.3949,0.2546,9.3935,-0.4404,0.3608,9.7901,0.0092,0.0046,0.0324
14262,45.679634,0.131373,122.98,28.88,9.648001,296.8,Nov-18,762221,2019-08-12 10:37:24:711,-0.3949,0.2546,9.3935,-0.4404,0.3608,9.7901,0.0092,0.0046,0.0324
14263,45.679634,0.131373,122.98,28.88,9.648001,296.8,Nov-18,762221,2019-08-12 10:37:24:711,-0.3949,0.2546,9.3935,-0.4404,0.3608,9.7901,0.0092,0.0046,0.0324
14264,45.679634,0.131373,122.98,28.88,9.648001,296.8,Nov-18,762222,2019-08-12 10:37:24:712,-0.3949,0.2546,9.3935,-0.4404,0.3608,9.7901,0.0092,0.0046,0.0324
14265,45.679634,0.131373,122.98,28.88,9.648001,296.8,Nov-18,762222,2019-08-12 10:37:24:712,-0.3949,0.2546,9.3935,-0.4404,0.3608,9.7901,0.0092,0.0046,0.0324
14266,45.679634,0.131373,122.98,28.88,9.648001,296.8,Nov-18,762222,2019-08-12 10:37:24:712,-0.3949,0.2546,9.3935,-0.4404,0.3608,9.7901,0.0092,0.0046,0.0324
14267,45.679634,0.131373,122.98,28.88,9.648001,296.8,Nov-18,762223,2019-08-12 10:37:24:713,-0.3949,0.2546,9.3935,-0.4404,0.3608,9.7901,0.0092,0.0046,0.0324
14268,45.679634,0.131373,122.98,28.88,9.648001,296.8,Nov-18,762223,2019-08-12 10:37:24:713,-0.3949,0.2546,9.3935,-0.4404,0.3608,9.7901,0.0092,0.0046,0.0324
14269,45.679634,0.131373,122.98,28.88,9.648001,296.8,Nov-18,762223,2019-08-12 10:37:24:713,-0.3949,0.2546,9.3935,-0.4404,0.3608,9.7901,0.0092,0.0046,0.0324
14270,45.679634,0.131373,122.98,28.88,9.648001,296.8,Nov-18,762224,2019-08-12 10:37:24:714,-0.3949,0.2546,9.3935,-0.4404,0.3608,9.7901,0.0092,0.0046,0.0324
14271,45.679634,0.131373,122.98,28.88,9.648001,296.8,Nov-18,762225,2019-08-12 10:37:24:715,-0.3949,0.2546,9.3935,-0.4404,0.3608,9.7901,0.0092,0.0046,0.0324
14272,45.679634,0.131373,122.98,28.88,9.648001,296.8,Nov-18,762225,2019-08-12 10:37:24:715,-0.3949,0.2546,9.3935,-0.4404,0.3608,9.7901,0.0092,0.0046,0.0324
14273,45.679634,0.131373,122.98,28.88,9.648001,296.8,Nov-18,762226,2019-08-12 10:37:24:716,-0.3949,0.2546,9.3935,-0.4404,0.3608,9.7901,0.0092,0.0046,0.0324
14274,45.679634,0.131373,122.98,28.88,9.648001,296.8,Nov-18,762226,2019-08-12 10:37:24:716,-0.3949,0.2546,9.3935,-0.4404,0.3608,9.7901,0.0092,0.0046,0.0324
14275,45.679634,0.131373,122.98,28.88,9.648001,296.8,Nov-18,762226,2019-08-12 10:37:24:716,-0.3949,0.2546,9.3935,-0.4404,0.3608,9.7901,0.0092,0.0046,0.0324
14276,45.679634,0.131373,122.98,28.88,9.648001,296.8,Nov-18,762227,2019-08-12 10:37:24:717,-0.3949,0.2546,9.3935,-0.4404,0.3608,9.7901,0.0092,0.0046,0.0324
14277,45.679634,0.131373,122.98,28.88,9.648001,296.8,Nov-18,762227,2019-08-12 10:37:24:717,-0.3949,0.2546,9.3935,-0.4404,0.3608,9.7901,0.0092,0.0046,0.0324
14278,45.679634,0.131373,122.98,28.88,9.648001,296.8,Nov-18,762227,2019-08-12 10:37:24:717,-0.3949,0.2546,9.3935,-0.4404,0.3608,9.7901,0.0092,0.0046,0.0324
14279,45.679634,0.131373,122.98,28.88,9.648001,296.8,Nov-18,762228,2019-08-12 10:37:24:718,-0.3949,0.2546,9.3935,-0.4404,0.3608,9.7901,0.0092,0.0046,0.0324
14280,45.679634,0.131373,122.98,28.88,9.648001,296.8,Nov-18,762228,2019-08-12 10:37:24:718,-0.3949,0.2546,9.3935,-0.4404,0.3608,9.7901,0.0092,0.0046,0.0324
14281,45.679634,0.131373,122.98,28.88,9.648001,296.8,Nov-18,762228,2019-08-12 10:37:24:718,-0.3949,0.2546,9.3935,-0.4404,0.3608,9.7901,0.0092,0.0046,0.0324
14282,45.679634,0.131373,122.98,28.88,9.648001,296.8,Nov-18,762231,2019-08-12 10:37:24:721,-0.3949,0.2546,9.3935,-0.4404,0.3608,9.7901,0.0092,0.0046,0.0324
14283,45.679634,0.131373,122.98,28.88,9.648001,296.8,Nov-18,762232,2019-08-12 10:37:24:722,-0.3949,0.2546,9.3935,-0.4404,0.3608,9.7901,0.0092,0.0046,0.0324
14284,45.679634,0.131373,122.98,28.88,9.648001,296.8,Nov-18,762233,2019-08-12 10:37:24:723,-0.3949,0.2546,9.3935,-0.4404,0.3608,9.7901,0.0092,0.0046,0.0324
14285,45.679634,0.131373,122.98,28.88,9.648001,296.8,Nov-18,762234,2019-08-12 10:37:24:724,-0.3949,0.2546,9.3935,-0.4404,0.3608,9.7901,0.0092,0.0046,0.0324
14286,45.679634,0.131373,122.98,28.88,9.648001,296.8,Nov-18,762236,2019-08-12 10:37:24:726,-0.3949,0.2546,9.3935,-0.4404,0.3608,9.7901,0.0092,0.0046,0.0324
14287,45.679634,0.131373,122.98,28.88,9.648001,296.8,Nov-18,762237,2019-08-12 10:37:24:727,-0.3949,0.2546,9.3935,-0.4404,0.3608,9.7901,0.0092,0.0046,0.0324
14288,45.679634,0.131373,122.98,28.88,9.648001,296.8,Nov-18,762238,2019-08-12 10:37:24:728,-0.3949,0.2546,9.3935,-0.4404,0.3608,9.7901,0.0092,0.0046,0.0324
14289,45.679634,0.131373,122.98,28.88,9.648001,296.8,Nov-18,762238,2019-08-12 10:37:24:728,-0.3949,0.2546,9.3935,-0.4404,0.3608,9.7901,0.0092,0.0046,0.0324
14290,45.679634,0.131373,122.98,28.88,9.648001,296.8,Nov-18,762239,2019-08-12 10:37:24:729,-0.3949,0.2546,9.3935,-0.4404,0.3608,9.7901,0.0092,0.0046,0.0324
14291,45.679634,0.131373,122.98,28.88,9.648001,296.8,Nov-18,762239,2019-08-12 10:37:24:729,-0.3949,0.2546,9.3935,-0.4404,0.3608,9.7901,0.0092,0.0046,0.0324
14292,45.679634,0.131373,122.98,28.88,9.648001,296.8,Nov-18,762240,2019-08-12 10:37:24:730,-0.3949,0.2546,9.3935,-0.4404,0.3608,9.7901,0.0092,0.0046,0.0324
14293,45.679634,0.131373,122.98,28.88,9.648001,296.8,Nov-18,762240,2019-08-12 10:37:24:730,-0.3949,0.2546,9.3935,-0.4404,0.3608,9.7901,0.0092,0.0046,0.0324
14294,45.679634,0.131373,122.98,28.88,9.648001,296.8,Nov-18,762241,2019-08-12 10:37:24:731,-0.3949,0.2546,9.3935,-0.4404,0.3608,9.7901,0.0092,0.0046,0.0324
14295,45.679634,0.131373,122.98,28.88,9.648001,296.8,Nov-18,762241,2019-08-12 10:37:24:731,-0.3949,0.2546,9.3935,-0.4404,0.3608,9.7901,0.0092,0.0046,0.0324
14296,45.679634,0.131373,122.98,28.88,9.648001,296.8,Nov-18,762242,2019-08-12 10:37:24:732,-0.3949,0.2546,9.3935,-0.4404,0.3608,9.7901,0.0092,0.0046,0.0324
14297,45.679634,0.131373,122.98,28.88,9.648001,296.8,Nov-18,762242,2019-08-12 10:37:24:732,-0.3949,0.2546,9.3935,-0.4404,0.3608,9.7901,0.0092,0.0046,0.0324
14298,45.679634,0.131373,122.98,28.88,9.648001,296.8,Nov-18,762243,2019-08-12 10:37:24:733,-0.3949,0.2546,9.3935,-0.4404,0.3608,9.7901,0.0092,0.0046,0.0324
14299,45.679634,0.131373,122.98,28.88,9.648001,296.8,Nov-18,762243,2019-08-12 10:37:24:733,-0.3949,0.2546,9.3935,-0.4404,0.3608,9.7901,0.0092,0.0046,0.0324
14300,45.679634,0.131373,122.98,28.88,9.648001,296.8,Nov-18,762246,2019-08-12 10:37:24:736,-0.3949,0.2546,9.3935,-0.4404,0.3608,9.7901,0.0092,0.0046,0.0324
14301,45.679634,0.131373,122.98,28.88,9.648001,296.8,Nov-18,762247,2019-08-12 10:37:24:737,-0.3949,0.2546,9.3935,-0.4404,0.3608,9.7901,0.0092,0.0046,0.0324
14302,45.679634,0.131373,122.98,28.88,9.648001,296.8,Nov-18,762248,2019-08-12 10:37:24:738,-0.3949,0.2546,9.3935,-0.4404,0.3608,9.7901,0.0092,0.0046,0.0324
14303,45.679634,0.131373,122.98,28.88,9.648001,296.8,Nov-18,762248,2019-08-12 10:37:24:738,-0.3949,0.2546,9.3935,-0.4404,0.3608,9.7901,0.0092,0.0046,0.0324
14304,45.679634,0.131373,122.98,28.88,9.648001,296.8,Nov-18,762249,2019-08-12 10:37:24:739,-0.3949,0.2546,9.3935,-0.4404,0.3608,9.7901,0.0092,0.0046,0.0324
14305,45.679634,0.131373,122.98,28.88,9.648001,296.8,Nov-18,762249,2019-08-12 10:37:24:739,-0.3949,0.2546,9.3935,-0.4404,0.3608,9.7901,0.0092,0.0046,0.0324
14306,45.679634,0.131373,122.98,28.88,9.648001,296.8,Nov-18,762323,2019-08-12 10:37:24:813,-0.3949,0.2546,9.3935,-0.4404,0.3608,9.7901,0.0092,0.0046,0.0324
14307,45.679634,0.131373,122.98,28.88,9.648001,296.8,Nov-18,762423,2019-08-12 10:37:24:913,-0.3949,0.2546,9.3935,-0.4404,0.3608,9.7901,0.0092,0.0046,0.0324
14308,45.679634,0.131373,122.98,28.88,9.648001,296.8,Nov-18,762523,2019-08-12 10:37:25:013,-0.2333,0.5868,9.7999,-0.3197,0.2123,9.7991,0.0028,0.0046,0.0334
14309,45.679634,0.131373,122.98,28.88,9.648001,296.8,Nov-18,762628,2019-08-12 10:37:25:118,-0.2853,0.5425,9.6724,-0.3213,0.2402,9.7984,0.0188,0.0035,0.0409
14310,45.679634,0.131373,122.98,28.88,9.648001,296.8,Nov-18,762723,2019-08-12 10:37:25:213,-0.6211,0.9088,9.5396,-0.3283,0.2612,9.7977,0.0071,0.0109,0.043
14311,45.679634,0.131373,122.98,28.88,9.648001,296.8,Nov-18,762823,2019-08-12 10:37:25:313,-0.4841,0.585,9.6748,-0.3322,0.2921,9.7967,0.006,0.0088,0.043
14312,45.679634,0.131373,122.98,28.88,9.648001,296.8,Nov-18,762924,2019-08-12 10:37:25:414,-0.2578,0.7981,9.2876,-0.3371,0.3141,9.7958,0.0114,0.0099,0.0452
14313,45.679634,0.131373,122.98,28.88,9.648001,296.8,Nov-18,763023,2019-08-12 10:37:25:513,-0.2105,0.8472,9.6838,-0.3337,0.3884,9.7933,0.0124,-0.0114,0.042
14314,45.679634,0.131373,122.98,28.88,9.648001,296.8,Nov-18,763124,2019-08-12 10:37:25:614,-0.2782,0.749,9.9657,-0.3227,0.4047,9.793,0.0039,-0.0114,0.042
14315,45.679634,0.131373,122.98,28.88,9.648001,296.8,Nov-18,763223,2019-08-12 10:37:25:713,-0.4056,0.825,9.8999,-0.3091,0.4225,9.7927,0.0007,-0.0082,0.0388
14316,45.679634,0.131373,122.98,28.88,9.648001,296.8,Nov-18,763323,2019-08-12 10:37:25:813,-0.4014,0.6652,10.1722,-0.3078,0.4569,9.7912,0.0018,0.0024,0.0398
14317,45.679634,0.131373,122.98,28.88,9.648001,296.8,Nov-18,763424,2019-08-12 10:37:25:914,-0.3925,0.5114,10.5894,-0.3048,0.5175,9.7882,0.0028,-0.0114,0.0409
14318,45.679634,0.131373,122.98,28.88,9.648001,296.8,Nov-18,763523,2019-08-12 10:37:26:013,-0.1722,0.7107,9.9029,-0.3093,0.5552,9.786,-0.0036,-0.005,0.0398
14319,45.679634,0.131373,122.98,28.88,9.648001,296.8,Nov-18,763623,2019-08-12 10:37:26:113,-0.3967,0.7496,9.8101,-0.305,0.6016,9.7834,-0.0068,-0.0072,0.0409
14320,45.679634,0.131373,122.98,28.88,9.648001,296.8,Nov-18,763723,2019-08-12 10:37:26:213,-0.3709,0.6622,10.0286,-0.3028,0.6131,9.7828,-0.0163,-0.0146,0.0409
14321,45.679634,0.131373,122.98,28.88,9.648001,296.8,Nov-18,763823,2019-08-12 10:37:26:313,-0.6696,0.7646,9.9322,-0.2958,0.6275,9.7821,-0.0121,-0.0125,0.0388
14322,45.679634,0.131373,122.98,28.88,9.648001,296.8,Nov-18,763923,2019-08-12 10:37:26:413,-0.3398,0.6209,10.0435,-0.3035,0.6163,9.7826,-0.0195,0.0067,0.0377
14323,45.679634,0.131373,122.98,28.88,9.648001,296.8,Nov-18,764025,2019-08-12 10:37:26:515,-0.1973,0.5515,9.7772,-0.3102,0.6076,9.7829,-0.0099,0.0088,0.0366
14324,45.679634,0.131373,122.98,28.88,9.648001,296.8,Nov-18,764123,2019-08-12 10:37:26:613,-0.2853,0.5706,9.5557,-0.3231,0.5946,9.7833,-0.0057,0.0088,0.0345
14325,45.679634,0.131373,122.98,28.88,9.648001,296.8,Nov-18,764223,2019-08-12 10:37:26:713,-0.2416,0.4659,9.284,-0.3498,0.5523,9.7848,-0.0099,0.0056,0.0324
14326,45.679634,0.131373,122.98,28.88,9.648001,296.8,Nov-18,764323,2019-08-12 10:37:26:813,-0.4828,0.3432,9.5653,-0.3656,0.5002,9.7871,-0.0004,0.0046,0.0281
14327,45.679634,0.131373,122.98,28.88,9.648001,296.8,Nov-18,764424,2019-08-12 10:37:26:914,-0.4828,0.239,9.7024,-0.3825,0.4754,9.7876,-0.0025,0.0056,0.0292
14328,45.679634,0.131373,122.98,28.88,9.648001,296.8,Nov-18,764523,2019-08-12 10:37:27:013,-0.4685,0.2133,9.7802,-0.4096,0.4326,9.7885,-0.0078,0.0078,0.0281
14329,45.679634,0.131373,122.98,28.88,9.648001,296.8,Nov-18,764623,2019-08-12 10:37:27:113,-0.274,0.2295,9.9855,-0.4177,0.4192,9.7888,-0.0004,-0.0018,0.0281
14330,45.679634,0.131373,122.98,28.88,9.648001,296.8,Nov-18,764723,2019-08-12 10:37:27:213,-0.4152,0.3354,10.1201,-0.4107,0.3995,9.7899,0.0028,-0.0082,0.0281
14331,45.679634,0.131373,122.98,28.88,9.648001,296.8,Nov-18,764823,2019-08-12 10:37:27:313,-0.3655,0.169,9.5,-0.4081,0.3724,9.7911,0.0114,-0.0008,0.027
14332,45.679634,0.131373,122.98,28.88,9.648001,296.8,Nov-18,764923,2019-08-12 10:37:27:413,-0.6313,0.0703,9.7622,-0.4021,0.3431,9.7924,0.0103,-0.004,0.0281
14333,45.679634,0.131373,122.98,28.88,9.648001,296.8,Nov-18,765023,2019-08-12 10:37:27:513,-0.6049,0.2169,9.8873,-0.4007,0.335,9.7927,0.0156,-0.0061,0.0292
14334,45.679634,0.131373,122.98,28.88,9.648001,296.8,Nov-18,765123,2019-08-12 10:37:27:613,-0.344,0.3743,10.0579,-0.4105,0.3353,9.7923,0.0082,0.0003,0.0281
14335,45.679634,0.131373,122.98,28.88,9.648001,296.8,Nov-18,765223,2019-08-12 10:37:27:713,-0.1465,0.2917,10.0016,-0.4106,0.3396,9.7922,0.0156,-0.005,0.0302
14336,45.679634,0.131373,122.98,28.88,9.648001,296.8,Nov-18,765323,2019-08-12 10:37:27:813,-0.1668,0.5048,9.7502,-0.4072,0.3518,9.7919,0.0135,-0.0018,0.0292
14337,45.680347,0.128144,111.92,28.59,8.576,281.3,Sep-17,765423,2019-08-12 10:37:27:913,-0.5182,0.2438,9.7293,-0.4019,0.3576,9.7919,0.0177,-0.005,0.0281
14338,45.680347,0.128144,111.92,28.59,8.576,281.3,Sep-17,765523,2019-08-12 10:37:28:013,-0.6265,0.3809,10.007,-0.3938,0.3547,9.7923,0.0135,-0.0072,0.026
14339,45.680347,0.128144,111.92,28.59,8.576,281.3,Sep-17,765622,2019-08-12 10:37:28:112,-0.323,0.2301,10.2943,-0.3844,0.3515,9.7928,0.0092,-0.0189,0.0238
14340,45.680347,0.128144,111.92,28.59,8.576,281.3,Sep-17,765723,2019-08-12 10:37:28:213,-0.1722,0.0571,9.8771,-0.3796,0.3486,9.7931,0.0071,0.0078,0.0228
14341,45.680347,0.128144,111.92,28.59,8.576,281.3,Sep-17,765823,2019-08-12 10:37:28:313,-0.1842,0.175,9.442,-0.3916,0.3521,9.7925,0.0114,0.0195,0.0228
14342,45.680347,0.128144,111.92,28.59,8.576,281.3,Sep-17,765923,2019-08-12 10:37:28:413,-0.4038,0.0655,9.7891,-0.3981,0.3582,9.792,0.0156,-0.0008,0.0175
14343,45.680347,0.128144,111.92,28.59,8.576,281.3,Sep-17,766023,2019-08-12 10:37:28:513,-0.5266,-0.0231,9.6593,-0.3904,0.3607,9.7922,0.0156,-0.0114,0.0132
14344,45.680347,0.128144,111.92,28.59,8.576,281.3,Sep-17,766124,2019-08-12 10:37:28:614,-0.487,-0.0166,9.2558,-0.3942,0.3591,9.7921,0.0114,0.0109,0.01
14345,45.680347,0.128144,111.92,28.59,8.576,281.3,Sep-17,766225,2019-08-12 10:37:28:715,-0.4236,-0.1393,9.9005,-0.4027,0.3613,9.7917,0.0209,0.0078,0.0111
14346,45.680347,0.128144,111.92,28.59,8.576,281.3,Sep-17,766324,2019-08-12 10:37:28:814,-0.274,-0.1782,10.0208,-0.4185,0.2829,9.7936,0.0209,0.0088,0.0111
14347,45.680347,0.128144,111.92,28.59,8.576,281.3,Sep-17,766423,2019-08-12 10:37:28:913,-0.0591,-0.0159,9.5868,-0.4265,0.224,9.7948,0.0199,0.0067,0.0111
14348,45.680347,0.128144,111.92,28.59,8.576,281.3,Sep-17,766522,2019-08-12 10:37:29:012,-0.4571,0.1558,9.688,-0.4291,0.1877,9.7955,0.0263,0.0088,0.0111
14349,45.680347,0.128144,111.92,28.59,8.576,281.3,Sep-17,766623,2019-08-12 10:37:29:113,-0.8156,-0.0632,9.7676,-0.4466,0.1511,9.7953,0.0199,-0.0008,0.01
14350,45.680347,0.128144,111.92,28.59,8.576,281.3,Sep-17,766724,2019-08-12 10:37:29:214,-0.766,0.166,9.5838,-0.445,0.165,9.7952,0.0145,-0.0072,0.01
14351,45.680347,0.128144,111.92,28.59,8.576,281.3,Sep-17,766823,2019-08-12 10:37:29:313,-0.6989,-0.062,10.684,-0.474,0.1575,9.7939,0.0167,0.0035,0.01
14352,45.680347,0.128144,111.92,28.59,8.576,281.3,Sep-17,767181,2019-08-12 10:37:29:671,-0.6989,-0.062,10.684,-0.4801,0.1619,9.7936,0.0167,0.0035,0.01
14353,45.680347,0.128144,111.92,28.59,8.576,281.3,Sep-17,767182,2019-08-12 10:37:29:672,-0.6989,-0.062,10.684,-0.4801,0.1619,9.7936,0.0167,0.0035,0.01
14354,45.680347,0.128144,111.92,28.59,8.576,281.3,Sep-17,767183,2019-08-12 10:37:29:673,-0.6989,-0.062,10.684,-0.4801,0.1619,9.7936,0.0167,0.0035,0.01
14355,45.680347,0.128144,111.92,28.59,8.576,281.3,Sep-17,767183,2019-08-12 10:37:29:673,-0.6989,-0.062,10.684,-0.4801,0.1619,9.7936,0.0167,0.0035,0.01
14356,45.680347,0.128144,111.92,28.59,8.576,281.3,Sep-17,767184,2019-08-12 10:37:29:674,-0.6989,-0.062,10.684,-0.4801,0.1619,9.7936,0.0167,0.0035,0.01
14357,45.680347,0.128144,111.92,28.59,8.576,281.3,Sep-17,767184,2019-08-12 10:37:29:674,-0.6989,-0.062,10.684,-0.4801,0.1619,9.7936,0.0167,0.0035,0.01
14358,45.680347,0.128144,111.92,28.59,8.576,281.3,Sep-17,767185,2019-08-12 10:37:29:675,-0.6989,-0.062,10.684,-0.4801,0.1619,9.7936,0.0167,0.0035,0.01
14359,45.680347,0.128144,111.92,28.59,8.576,281.3,Sep-17,767186,2019-08-12 10:37:29:676,-0.6989,-0.062,10.684,-0.4801,0.1619,9.7936,0.0167,0.0035,0.01
14360,45.680347,0.128144,111.92,28.59,8.576,281.3,Sep-17,767187,2019-08-12 10:37:29:677,-0.6989,-0.062,10.684,-0.4801,0.1619,9.7936,0.0167,0.0035,0.01
14361,45.680347,0.128144,111.92,28.59,8.576,281.3,Sep-17,767187,2019-08-12 10:37:29:677,-0.6989,-0.062,10.684,-0.4801,0.1619,9.7936,0.0167,0.0035,0.01
14362,45.680347,0.128144,111.92,28.59,8.576,281.3,Sep-17,767187,2019-08-12 10:37:29:677,-0.6989,-0.062,10.684,-0.4801,0.1619,9.7936,0.0167,0.0035,0.01
14363,45.680347,0.128144,111.92,28.59,8.576,281.3,Sep-17,767188,2019-08-12 10:37:29:678,-0.6989,-0.062,10.684,-0.4801,0.1619,9.7936,0.0167,0.0035,0.01
14364,45.680347,0.128144,111.92,28.59,8.576,281.3,Sep-17,767188,2019-08-12 10:37:29:678,-0.6989,-0.062,10.684,-0.4801,0.1619,9.7936,0.0167,0.0035,0.01
14365,45.680347,0.128144,111.92,28.59,8.576,281.3,Sep-17,767188,2019-08-12 10:37:29:678,-0.6989,-0.062,10.684,-0.4801,0.1619,9.7936,0.0167,0.0035,0.01
14366,45.680347,0.128144,111.92,28.59,8.576,281.3,Sep-17,767189,2019-08-12 10:37:29:679,-0.6989,-0.062,10.684,-0.4801,0.1619,9.7936,0.0167,0.0035,0.01
14367,45.680347,0.128144,111.92,28.59,8.576,281.3,Sep-17,767189,2019-08-12 10:37:29:679,-0.6989,-0.062,10.684,-0.4801,0.1619,9.7936,0.0167,0.0035,0.01
14368,45.680347,0.128144,111.92,28.59,8.576,281.3,Sep-17,767189,2019-08-12 10:37:29:679,-0.6989,-0.062,10.684,-0.4801,0.1619,9.7936,0.0167,0.0035,0.01
14369,45.680347,0.128144,111.92,28.59,8.576,281.3,Sep-17,767190,2019-08-12 10:37:29:680,-0.6989,-0.062,10.684,-0.4801,0.1619,9.7936,0.0167,0.0035,0.01
14370,45.680347,0.128144,111.92,28.59,8.576,281.3,Sep-17,767190,2019-08-12 10:37:29:680,-0.6989,-0.062,10.684,-0.4801,0.1619,9.7936,0.0167,0.0035,0.01
14371,45.680347,0.128144,111.92,28.59,8.576,281.3,Sep-17,767190,2019-08-12 10:37:29:680,-0.6989,-0.062,10.684,-0.4801,0.1619,9.7936,0.0167,0.0035,0.01
14372,45.680347,0.128144,111.92,28.59,8.576,281.3,Sep-17,767191,2019-08-12 10:37:29:681,-0.6989,-0.062,10.684,-0.4801,0.1619,9.7936,0.0167,0.0035,0.01
14373,45.680347,0.128144,111.92,28.59,8.576,281.3,Sep-17,767192,2019-08-12 10:37:29:682,-0.6989,-0.062,10.684,-0.4801,0.1619,9.7936,0.0167,0.0035,0.01
14374,45.680347,0.128144,111.92,28.59,8.576,281.3,Sep-17,767193,2019-08-12 10:37:29:683,-0.6989,-0.062,10.684,-0.4801,0.1619,9.7936,0.0167,0.0035,0.01
14375,45.680347,0.128144,111.92,28.59,8.576,281.3,Sep-17,767193,2019-08-12 10:37:29:683,-0.6989,-0.062,10.684,-0.4801,0.1619,9.7936,0.0167,0.0035,0.01
14376,45.680347,0.128144,111.92,28.59,8.576,281.3,Sep-17,767195,2019-08-12 10:37:29:685,-0.6989,-0.062,10.684,-0.4801,0.1619,9.7936,0.0167,0.0035,0.01
14377,45.680347,0.128144,111.92,28.59,8.576,281.3,Sep-17,767195,2019-08-12 10:37:29:685,-0.6989,-0.062,10.684,-0.4801,0.1619,9.7936,0.0167,0.0035,0.01
14378,45.680347,0.128144,111.92,28.59,8.576,281.3,Sep-17,767196,2019-08-12 10:37:29:686,-0.6989,-0.062,10.684,-0.4801,0.1619,9.7936,0.0167,0.0035,0.01
14379,45.680347,0.128144,111.92,28.59,8.576,281.3,Sep-17,767198,2019-08-12 10:37:29:688,-0.6989,-0.062,10.684,-0.4801,0.1619,9.7936,0.0167,0.0035,0.01
14380,45.680347,0.128144,111.92,28.59,8.576,281.3,Sep-17,767199,2019-08-12 10:37:29:689,-0.6989,-0.062,10.684,-0.4801,0.1619,9.7936,0.0167,0.0035,0.01
14381,45.680347,0.128144,111.92,28.59,8.576,281.3,Sep-17,767200,2019-08-12 10:37:29:690,-0.6989,-0.062,10.684,-0.4801,0.1619,9.7936,0.0167,0.0035,0.01
14382,45.680347,0.128144,111.92,28.59,8.576,281.3,Sep-17,767200,2019-08-12 10:37:29:690,-0.6989,-0.062,10.684,-0.4801,0.1619,9.7936,0.0167,0.0035,0.01
14383,45.680347,0.128144,111.92,28.59,8.576,281.3,Sep-17,767201,2019-08-12 10:37:29:691,-0.6989,-0.062,10.684,-0.4801,0.1619,9.7936,0.0167,0.0035,0.01
14384,45.680347,0.128144,111.92,28.59,8.576,281.3,Sep-17,767201,2019-08-12 10:37:29:691,-0.6989,-0.062,10.684,-0.4801,0.1619,9.7936,0.0167,0.0035,0.01
14385,45.680347,0.128144,111.92,28.59,8.576,281.3,Sep-17,767202,2019-08-12 10:37:29:692,-0.6989,-0.062,10.684,-0.4801,0.1619,9.7936,0.0167,0.0035,0.01
14386,45.680347,0.128144,111.92,28.59,8.576,281.3,Sep-17,767202,2019-08-12 10:37:29:692,-0.6989,-0.062,10.684,-0.4801,0.1619,9.7936,0.0167,0.0035,0.01
14387,45.680347,0.128144,111.92,28.59,8.576,281.3,Sep-17,767203,2019-08-12 10:37:29:693,-0.6989,-0.062,10.684,-0.4801,0.1619,9.7936,0.0167,0.0035,0.01
14388,45.680347,0.128144,111.92,28.59,8.576,281.3,Sep-17,767203,2019-08-12 10:37:29:693,-0.6989,-0.062,10.684,-0.4801,0.1619,9.7936,0.0167,0.0035,0.01
14389,45.680347,0.128144,111.92,28.59,8.576,281.3,Sep-17,767204,2019-08-12 10:37:29:694,-0.6989,-0.062,10.684,-0.4801,0.1619,9.7936,0.0167,0.0035,0.01
14390,45.680347,0.128144,111.92,28.59,8.576,281.3,Sep-17,767204,2019-08-12 10:37:29:694,-0.6989,-0.062,10.684,-0.4801,0.1619,9.7936,0.0167,0.0035,0.01
14391,45.680347,0.128144,111.92,28.59,8.576,281.3,Sep-17,767205,2019-08-12 10:37:29:695,-0.6989,-0.062,10.684,-0.4801,0.1619,9.7936,0.0167,0.0035,0.01
14392,45.680347,0.128144,111.92,28.59,8.576,281.3,Sep-17,767205,2019-08-12 10:37:29:695,-0.6989,-0.062,10.684,-0.4801,0.1619,9.7936,0.0167,0.0035,0.01
14393,45.680347,0.128144,111.92,28.59,8.576,281.3,Sep-17,767206,2019-08-12 10:37:29:696,-0.6989,-0.062,10.684,-0.4801,0.1619,9.7936,0.0167,0.0035,0.01
14394,45.680347,0.128144,111.92,28.59,8.576,281.3,Sep-17,767207,2019-08-12 10:37:29:697,-0.6989,-0.062,10.684,-0.4801,0.1619,9.7936,0.0167,0.0035,0.01
14395,45.680347,0.128144,111.92,28.59,8.576,281.3,Sep-17,767207,2019-08-12 10:37:29:697,-0.6989,-0.062,10.684,-0.4801,0.1619,9.7936,0.0167,0.0035,0.01
14396,45.680347,0.128144,111.92,28.59,8.576,281.3,Sep-17,767208,2019-08-12 10:37:29:698,-0.6989,-0.062,10.684,-0.4801,0.1619,9.7936,0.0167,0.0035,0.01
14397,45.680347,0.128144,111.92,28.59,8.576,281.3,Sep-17,767208,2019-08-12 10:37:29:698,-0.6989,-0.062,10.684,-0.4801,0.1619,9.7936,0.0167,0.0035,0.01
14398,45.680347,0.128144,111.92,28.59,8.576,281.3,Sep-17,767208,2019-08-12 10:37:29:698,-0.6989,-0.062,10.684,-0.4801,0.1619,9.7936,0.0167,0.0035,0.01
14399,45.680347,0.128144,111.92,28.59,8.576,281.3,Sep-17,767209,2019-08-12 10:37:29:699,-0.6989,-0.062,10.684,-0.4801,0.1619,9.7936,0.0167,0.0035,0.01
14400,45.680347,0.128144,111.92,28.59,8.576,281.3,Sep-17,767212,2019-08-12 10:37:29:702,-0.6989,-0.062,10.684,-0.4801,0.1619,9.7936,0.0167,0.0035,0.01
14401,45.680347,0.128144,111.92,28.59,8.576,281.3,Sep-17,767212,2019-08-12 10:37:29:702,-0.6989,-0.062,10.684,-0.4801,0.1619,9.7936,0.0167,0.0035,0.01
14402,45.680347,0.128144,111.92,28.59,8.576,281.3,Sep-17,767213,2019-08-12 10:37:29:703,-0.6989,-0.062,10.684,-0.4801,0.1619,9.7936,0.0167,0.0035,0.01
14403,45.680347,0.128144,111.92,28.59,8.576,281.3,Sep-17,767214,2019-08-12 10:37:29:704,-0.6989,-0.062,10.684,-0.4801,0.1619,9.7936,0.0167,0.0035,0.01
14404,45.680347,0.128144,111.92,28.59,8.576,281.3,Sep-17,767214,2019-08-12 10:37:29:704,-0.6989,-0.062,10.684,-0.4801,0.1619,9.7936,0.0167,0.0035,0.01
14405,45.680347,0.128144,111.92,28.59,8.576,281.3,Sep-17,767214,2019-08-12 10:37:29:704,-0.6989,-0.062,10.684,-0.4801,0.1619,9.7936,0.0167,0.0035,0.01
14406,45.680347,0.128144,111.92,28.59,8.576,281.3,Sep-17,767215,2019-08-12 10:37:29:705,-0.6989,-0.062,10.684,-0.4801,0.1619,9.7936,0.0167,0.0035,0.01
14407,45.680347,0.128144,111.92,28.59,8.576,281.3,Sep-17,767215,2019-08-12 10:37:29:705,-0.6989,-0.062,10.684,-0.4801,0.1619,9.7936,0.0167,0.0035,0.01
14408,45.680347,0.128144,111.92,28.59,8.576,281.3,Sep-17,767215,2019-08-12 10:37:29:705,-0.6989,-0.062,10.684,-0.4801,0.1619,9.7936,0.0167,0.0035,0.01
14409,45.680347,0.128144,111.92,28.59,8.576,281.3,Sep-17,767216,2019-08-12 10:37:29:706,-0.6989,-0.062,10.684,-0.4801,0.1619,9.7936,0.0167,0.0035,0.01
14410,45.680347,0.128144,111.92,28.59,8.576,281.3,Sep-17,767216,2019-08-12 10:37:29:706,-0.6989,-0.062,10.684,-0.4801,0.1619,9.7936,0.0167,0.0035,0.01
14411,45.680347,0.128144,111.92,28.59,8.576,281.3,Sep-17,767216,2019-08-12 10:37:29:706,-0.6989,-0.062,10.684,-0.4801,0.1619,9.7936,0.0167,0.0035,0.01
14412,45.680347,0.128144,111.92,28.59,8.576,281.3,Sep-17,767217,2019-08-12 10:37:29:707,-0.6989,-0.062,10.684,-0.4801,0.1619,9.7936,0.0167,0.0035,0.01
14413,45.680347,0.128144,111.92,28.59,8.576,281.3,Sep-17,767217,2019-08-12 10:37:29:707,-0.6989,-0.062,10.684,-0.4801,0.1619,9.7936,0.0167,0.0035,0.01
14414,45.680347,0.128144,111.92,28.59,8.576,281.3,Sep-17,767218,2019-08-12 10:37:29:708,-0.6989,-0.062,10.684,-0.4801,0.1619,9.7936,0.0167,0.0035,0.01
14415,45.680347,0.128144,111.92,28.59,8.576,281.3,Sep-17,767218,2019-08-12 10:37:29:708,-0.6989,-0.062,10.684,-0.4801,0.1619,9.7936,0.0167,0.0035,0.01
14416,45.680347,0.128144,111.92,28.59,8.576,281.3,Sep-17,767218,2019-08-12 10:37:29:708,-0.6989,-0.062,10.684,-0.4801,0.1619,9.7936,0.0167,0.0035,0.01
14417,45.680347,0.128144,111.92,28.59,8.576,281.3,Sep-17,767219,2019-08-12 10:37:29:709,-0.6989,-0.062,10.684,-0.4801,0.1619,9.7936,0.0167,0.0035,0.01
14418,45.680347,0.128144,111.92,28.59,8.576,281.3,Sep-17,767278,2019-08-12 10:37:29:768,-0.6989,-0.062,10.684,-0.4801,0.1619,9.7936,0.0167,0.0035,0.01
14419,45.680347,0.128144,111.92,28.59,8.576,281.3,Sep-17,767642,2019-08-12 10:37:30:132,-0.6989,-0.062,10.684,-0.4801,0.1619,9.7936,0.0167,0.0035,0.01
14420,45.680347,0.128144,111.92,28.59,8.576,281.3,Sep-17,767643,2019-08-12 10:37:30:133,-0.6989,-0.062,10.684,-0.4801,0.1619,9.7936,0.0167,0.0035,0.01
14421,45.680347,0.128144,111.92,28.59,8.576,281.3,Sep-17,767644,2019-08-12 10:37:30:134,-0.6989,-0.062,10.684,-0.4801,0.1619,9.7936,0.0167,0.0035,0.01
14422,45.680347,0.128144,111.92,28.59,8.576,281.3,Sep-17,767644,2019-08-12 10:37:30:134,-0.6989,-0.062,10.684,-0.4801,0.1619,9.7936,0.0167,0.0035,0.01
14423,45.680347,0.128144,111.92,28.59,8.576,281.3,Sep-17,767644,2019-08-12 10:37:30:134,-0.6989,-0.062,10.684,-0.4801,0.1619,9.7936,0.0167,0.0035,0.01
14424,45.680347,0.128144,111.92,28.59,8.576,281.3,Sep-17,767745,2019-08-12 10:37:30:235,-0.6989,-0.062,10.684,-0.4801,0.1619,9.7936,0.0167,0.0035,0.01
14425,45.680347,0.128144,111.92,28.59,8.576,281.3,Sep-17,767845,2019-08-12 10:37:30:335,-0.6989,-0.062,10.684,-0.4801,0.1619,9.7936,0.0167,0.0035,0.01
14426,45.680347,0.128144,111.92,28.59,8.576,281.3,Sep-17,767945,2019-08-12 10:37:30:435,-0.7181,-0.9904,9.3875,-0.5326,-0.9275,9.7481,0.0007,-0.0093,-0.0273
14427,45.680347,0.128144,111.92,28.59,8.576,281.3,Aug-17,768047,2019-08-12 10:37:30:537,-0.3536,-0.8988,9.6581,-0.5292,-0.9257,9.7485,-0.0004,-0.0018,-0.0251
14428,45.680347,0.128144,111.92,28.59,8.576,281.3,Aug-17,768145,2019-08-12 10:37:30:635,-0.5559,-0.8665,10.0477,-0.527,-0.9143,9.7497,0.0103,0.0056,-0.0251
14429,45.680347,0.128144,111.92,28.59,8.576,281.3,Aug-17,768245,2019-08-12 10:37:30:735,-0.6086,-0.7941,9.7718,-0.5266,-0.901,9.751,0.0124,0.0014,-0.0241
14430,45.680347,0.128144,111.92,28.59,8.576,281.3,Aug-17,768345,2019-08-12 10:37:30:835,-0.66,-0.8641,10.1321,-0.5212,-0.8619,9.7548,-0.0004,-0.0104,-0.0273
14431,45.680347,0.128144,111.92,28.59,8.576,281.3,Aug-17,768445,2019-08-12 10:37:30:935,-0.4559,-0.675,9.9968,-0.5074,-0.8481,9.7567,-0.0057,0.0014,-0.0284
14432,45.680347,0.128144,111.92,28.59,8.576,281.3,Aug-17,768545,2019-08-12 10:37:31:035,-0.6319,-0.6342,9.2768,-0.513,-0.8488,9.7564,0.0028,0.0152,-0.0284
14433,45.680347,0.128144,111.92,28.59,8.576,281.3,Aug-17,768645,2019-08-12 10:37:31:135,-0.5978,-0.7647,9.1619,-0.5261,-0.847,9.7558,0.0028,0.0099,-0.0273
14434,45.680347,0.128144,111.92,28.59,8.576,281.3,Aug-17,768745,2019-08-12 10:37:31:235,-0.6606,-0.6959,9.7892,-0.525,-0.8487,9.7557,-0.0004,-0.0029,-0.0284
14435,45.680347,0.128144,111.92,28.59,8.576,281.3,Aug-17,768845,2019-08-12 10:37:31:335,-0.2524,-0.9192,10.0274,-0.5164,-0.8589,9.7553,-0.0025,-0.0029,-0.0305
14436,45.680347,0.128144,111.92,28.59,8.576,281.3,Aug-17,768945,2019-08-12 10:37:31:435,-0.5565,-1.0006,9.9645,-0.5147,-0.8608,9.7552,0.0018,0.0046,-0.0305
14437,45.68098,0.124475,122.29,27.71,11.792,286.3,0 / 17,769045,2019-08-12 10:37:31:535,-0.4936,-0.7989,9.6341,-0.5069,-0.8669,9.7551,0.0018,0.0099,-0.0284
14438,45.68098,0.124475,122.29,27.71,11.792,286.3,0 / 17,769146,2019-08-12 10:37:31:636,-0.6367,-0.9874,9.5587,-0.5109,-0.8744,9.7542,0.005,0.0046,-0.0294
14439,45.68098,0.124475,122.29,27.71,11.792,286.3,0 / 17,769245,2019-08-12 10:37:31:735,-0.5523,-0.9622,10.0573,-0.5133,-0.8925,9.7524,-0.0004,-0.004,-0.0305
14440,45.68098,0.124475,122.29,27.71,11.792,286.3,0 / 17,769345,2019-08-12 10:37:31:835,-0.4912,-1.0359,10.3488,-0.5098,-0.8956,9.7524,0.0039,-0.0146,-0.0305
14441,45.68098,0.124475,122.29,27.71,11.792,286.3,0 / 17,769444,2019-08-12 10:37:31:934,-0.5445,-0.8276,9.7634,-0.482,-0.9055,9.7529,0.0007,-0.0072,-0.0305
14442,45.68098,0.124475,122.29,27.71,11.792,286.3,0 / 17,769544,2019-08-12 10:37:32:034,-0.5194,-0.7581,9.8765,-0.4757,-0.9052,9.7532,0.006,-0.0018,-0.0305
14443,45.68098,0.124475,122.29,27.71,11.792,286.3,0 / 17,769644,2019-08-12 10:37:32:134,-0.5685,-1.055,9.8328,-0.4741,-0.9044,9.7533,0.0018,0.0014,-0.0305
14444,45.68098,0.124475,122.29,27.71,11.792,286.3,0 / 17,769746,2019-08-12 10:37:32:236,-0.3835,-0.8491,9.6545,-0.4784,-0.9043,9.7531,0.0007,0.0078,-0.0294
14445,45.68098,0.124475,122.29,27.71,11.792,286.3,0 / 17,769845,2019-08-12 10:37:32:335,-0.4715,-0.982,9.6126,-0.4777,-0.9112,9.7525,-0.0004,0.0067,-0.0294
14446,45.68098,0.124475,122.29,27.71,11.792,286.3,0 / 17,769947,2019-08-12 10:37:32:437,-0.6415,-0.7935,9.7568,-0.4752,-0.9155,9.7523,0.0007,0.0014,-0.0305
14447,45.68098,0.124475,122.29,27.71,11.792,286.3,0 / 17,770045,2019-08-12 10:37:32:535,-0.2811,-1.243,9.5647,-0.4816,-0.9012,9.7533,-0.0036,-0.0029,-0.0294
14448,45.68098,0.124475,122.29,27.71,11.792,286.3,0 / 17,770145,2019-08-12 10:37:32:635,-0.5523,-0.8204,10.2973,-0.4716,-0.8932,9.7545,-0.0004,-0.0072,-0.0294
14449,45.68098,0.124475,122.29,27.71,11.792,286.3,0 / 17,770245,2019-08-12 10:37:32:735,-0.6959,-0.9186,10.1303,-0.4695,-0.8946,9.7545,-0.0014,-0.0018,-0.0284
14450,45.68098,0.124475,122.29,27.71,11.792,286.3,0 / 17,770345,2019-08-12 10:37:32:835,-0.499,-0.7917,9.9292,-0.4621,-0.8939,9.7549,0.0018,0.0035,-0.0284
14451,45.68098,0.124475,122.29,27.71,11.792,286.3,0 / 17,770444,2019-08-12 10:37:32:934,-0.4691,-0.9018,9.7269,-0.46,-0.8873,9.7556,-0.0078,0.0056,-0.0284
14452,45.68098,0.124475,122.29,27.71,11.792,286.3,0 / 17,770545,2019-08-12 10:37:33:035,-0.3607,-0.9132,9.7281,-0.4582,-0.8865,9.7557,-0.0014,-0.0029,-0.0305
14453,45.68098,0.124475,122.29,27.71,11.792,286.3,0 / 17,770645,2019-08-12 10:37:33:135,-0.4272,-0.8952,9.8712,-0.4381,-0.9031,9.7551,-0.0036,0.0003,-0.0294
14454,45.68098,0.124475,122.29,27.71,11.792,286.3,0 / 17,770745,2019-08-12 10:37:33:235,-0.4912,-0.8629,9.8286,-0.4238,-0.9111,9.755,0.0039,-0.0018,-0.0284
14455,45.68098,0.124475,122.29,27.71,11.792,286.3,0 / 17,770845,2019-08-12 10:37:33:335,-0.4763,-0.8366,9.8065,-0.4167,-0.9002,9.7564,0.0071,-0.0008,-0.0284
14456,45.68098,0.124475,122.29,27.71,11.792,286.3,0 / 17,770944,2019-08-12 10:37:33:434,-0.2081,-0.9383,9.7975,-0.4159,-0.8976,9.7566,-0.0014,-0.0008,-0.0262
14457,45.68098,0.124475,122.29,27.71,11.792,286.3,0 / 17,771045,2019-08-12 10:37:33:535,-0.2895,-0.9862,9.7281,-0.4041,-0.8881,9.758,0.0039,0.0141,-0.0273
14458,45.68098,0.124475,122.29,27.71,11.792,286.3,0 / 17,771145,2019-08-12 10:37:33:635,-0.4577,-0.8282,9.5934,-0.4014,-0.8841,9.7585,-0.0004,0.0099,-0.0284
14459,45.68098,0.124475,122.29,27.71,11.792,286.3,0 / 17,771245,2019-08-12 10:37:33:735,-0.4278,-0.8396,9.7826,-0.3737,-0.8842,9.7596,-0.0057,-0.0082,-0.0294
14460,45.68098,0.124475,122.29,27.71,11.792,286.3,0 / 17,771345,2019-08-12 10:37:33:835,-0.0854,-0.5977,10.0022,-0.3628,-0.8912,9.7593,-0.0046,-0.0061,-0.0284
14461,45.68098,0.124475,122.29,27.71,11.792,286.3,0 / 17,771445,2019-08-12 10:37:33:935,-0.3685,-0.8461,10.2009,-0.3483,-0.8752,9.7613,-0.0025,-0.005,-0.0273
14462,45.68098,0.124475,122.29,27.71,11.792,286.3,0 / 17,771546,2019-08-12 10:37:34:036,-0.3206,-0.8629,9.7377,-0.3359,-0.8823,9.7611,0.0007,0.0014,-0.0294
14463,45.68098,0.124475,122.29,27.71,11.792,286.3,0 / 17,771647,2019-08-12 10:37:34:137,-0.2907,-0.9455,9.4923,-0.3217,-0.8814,9.7617,0.0082,0.0035,-0.0284
14464,45.68098,0.124475,122.29,27.71,11.792,286.3,0 / 17,771745,2019-08-12 10:37:34:235,-0.0926,-0.9425,9.6449,-0.3236,-0.8799,9.7617,0.0124,0.0099,-0.0273
14465,45.68098,0.124475,122.29,27.71,11.792,286.3,0 / 17,771845,2019-08-12 10:37:34:335,-0.1866,-0.8443,9.8957,-0.3003,-0.872,9.7632,0.0039,-0.0061,-0.0294
14466,45.68098,0.124475,122.29,27.71,11.792,286.3,0 / 17,771945,2019-08-12 10:37:34:435,-0.174,-0.8886,9.7041,-0.2832,-0.8844,9.7626,-0.0025,-0.0072,-0.0284
14467,45.68098,0.124475,122.29,27.71,11.792,286.3,0 / 17,772044,2019-08-12 10:37:34:534,-0.3889,-0.8282,9.8382,-0.2502,-0.8778,9.7641,0.0039,-0.0061,-0.0284
14468,45.68098,0.124475,122.29,27.71,11.792,286.3,0 / 17,772145,2019-08-12 10:37:34:635,-0.2129,-0.9108,9.5132,-0.2388,-0.8776,9.7644,0.0018,0.0014,-0.0284
14469,45.68098,0.124475,122.29,27.71,11.792,286.3,0 / 17,772544,2019-08-12 10:37:35:034,-0.2979,-0.9599,9.6629,-0.2363,-0.8744,9.7647,0.0082,0.0046,-0.0284
14470,45.68098,0.124475,122.29,27.71,11.792,286.3,0 / 17,772545,2019-08-12 10:37:35:035,-0.2979,-0.9599,9.6629,-0.2363,-0.8744,9.7647,0.0082,0.0046,-0.0284
14471,45.68098,0.124475,122.29,27.71,11.792,286.3,0 / 17,772545,2019-08-12 10:37:35:035,-0.2979,-0.9599,9.6629,-0.2363,-0.8744,9.7647,0.0082,0.0046,-0.0284
14472,45.68098,0.124475,122.29,27.71,11.792,286.3,0 / 17,772546,2019-08-12 10:37:35:036,-0.2979,-0.9599,9.6629,-0.2363,-0.8744,9.7647,0.0082,0.0046,-0.0284
14473,45.68098,0.124475,122.29,27.71,11.792,286.3,0 / 17,772546,2019-08-12 10:37:35:036,-0.2979,-0.9599,9.6629,-0.2363,-0.8744,9.7647,0.0082,0.0046,-0.0284
14474,45.68098,0.124475,122.29,27.71,11.792,286.3,0 / 17,772547,2019-08-12 10:37:35:037,-0.2979,-0.9599,9.6629,-0.2363,-0.8744,9.7647,0.0082,0.0046,-0.0284
14475,45.68098,0.124475,122.29,27.71,11.792,286.3,0 / 17,772551,2019-08-12 10:37:35:041,-0.2979,-0.9599,9.6629,-0.2363,-0.8744,9.7647,0.0082,0.0046,-0.0284
14476,45.68098,0.124475,122.29,27.71,11.792,286.3,0 / 17,772552,2019-08-12 10:37:35:042,-0.2979,-0.9599,9.6629,-0.2363,-0.8744,9.7647,0.0082,0.0046,-0.0284
14477,45.68098,0.124475,122.29,27.71,11.792,286.3,0 / 17,772553,2019-08-12 10:37:35:043,-0.2979,-0.9599,9.6629,-0.2363,-0.8744,9.7647,0.0082,0.0046,-0.0284
14478,45.68098,0.124475,122.29,27.71,11.792,286.3,0 / 17,772553,2019-08-12 10:37:35:043,-0.2979,-0.9599,9.6629,-0.2363,-0.8744,9.7647,0.0082,0.0046,-0.0284
14479,45.68098,0.124475,122.29,27.71,11.792,286.3,0 / 17,772555,2019-08-12 10:37:35:045,-0.2979,-0.9599,9.6629,-0.2363,-0.8744,9.7647,0.0082,0.0046,-0.0284
14480,45.68098,0.124475,122.29,27.71,11.792,286.3,0 / 17,772557,2019-08-12 10:37:35:047,-0.2979,-0.9599,9.6629,-0.2363,-0.8744,9.7647,0.0082,0.0046,-0.0284
14481,45.68098,0.124475,122.29,27.71,11.792,286.3,0 / 17,772558,2019-08-12 10:37:35:048,-0.2979,-0.9599,9.6629,-0.2363,-0.8744,9.7647,0.0082,0.0046,-0.0284
14482,45.68098,0.124475,122.29,27.71,11.792,286.3,0 / 17,772559,2019-08-12 10:37:35:049,-0.2979,-0.9599,9.6629,-0.2363,-0.8744,9.7647,0.0082,0.0046,-0.0284
14483,45.68098,0.124475,122.29,27.71,11.792,286.3,0 / 17,772560,2019-08-12 10:37:35:050,-0.2979,-0.9599,9.6629,-0.2363,-0.8744,9.7647,0.0082,0.0046,-0.0284
14484,45.68098,0.124475,122.29,27.71,11.792,286.3,0 / 17,772562,2019-08-12 10:37:35:052,-0.2979,-0.9599,9.6629,-0.2363,-0.8744,9.7647,0.0082,0.0046,-0.0284
14485,45.68098,0.124475,122.29,27.71,11.792,286.3,0 / 17,772563,2019-08-12 10:37:35:053,-0.2979,-0.9599,9.6629,-0.2363,-0.8744,9.7647,0.0082,0.0046,-0.0284
14486,45.68098,0.124475,122.29,27.71,11.792,286.3,0 / 17,772563,2019-08-12 10:37:35:053,-0.2979,-0.9599,9.6629,-0.2363,-0.8744,9.7647,0.0082,0.0046,-0.0284
14487,45.68098,0.124475,122.29,27.71,11.792,286.3,0 / 17,772617,2019-08-12 10:37:35:107,-0.2979,-0.9599,9.6629,-0.2363,-0.8744,9.7647,0.0082,0.0046,-0.0284
14488,45.68098,0.124475,122.29,27.71,11.792,286.3,0 / 17,772717,2019-08-12 10:37:35:207,-0.2979,-0.9599,9.6629,-0.2363,-0.8744,9.7647,0.0082,0.0046,-0.0284
14489,45.68098,0.124475,122.29,27.71,11.792,286.3,0 / 17,773081,2019-08-12 10:37:35:571,-0.0878,-1.0598,10.1423,-0.3222,-0.9501,9.7552,0.0007,-0.004,-0.0305
14490,45.68098,0.124475,122.29,27.71,11.792,286.3,0 / 17,773082,2019-08-12 10:37:35:572,-0.0878,-1.0598,10.1423,-0.3222,-0.9501,9.7552,0.0007,-0.004,-0.0305
14491,45.68098,0.124475,122.29,27.71,11.792,286.3,0 / 17,773083,2019-08-12 10:37:35:573,-0.0878,-1.0598,10.1423,-0.3222,-0.9501,9.7552,0.0007,-0.004,-0.0305
14492,45.68098,0.124475,122.29,27.71,11.792,286.3,0 / 17,773083,2019-08-12 10:37:35:573,-0.0878,-1.0598,10.1423,-0.3222,-0.9501,9.7552,0.0007,-0.004,-0.0305
14493,45.68098,0.124475,122.29,27.71,11.792,286.3,0 / 17,773084,2019-08-12 10:37:35:574,-0.0878,-1.0598,10.1423,-0.3222,-0.9501,9.7552,0.0007,-0.004,-0.0305
14494,45.68098,0.124475,122.29,27.71,11.792,286.3,0 / 17,773084,2019-08-12 10:37:35:574,-0.0878,-1.0598,10.1423,-0.3222,-0.9501,9.7552,0.0007,-0.004,-0.0305
14495,45.68098,0.124475,122.29,27.71,11.792,286.3,0 / 17,773104,2019-08-12 10:37:35:594,-0.0878,-1.0598,10.1423,-0.3222,-0.9501,9.7552,0.0007,-0.004,-0.0305
14496,45.68098,0.124475,122.29,27.71,11.792,286.3,0 / 17,773204,2019-08-12 10:37:35:694,-0.0878,-1.0598,10.1423,-0.3222,-0.9501,9.7552,0.0007,-0.004,-0.0305
14497,45.68098,0.124475,122.29,27.71,11.792,286.3,0 / 17,773304,2019-08-12 10:37:35:794,-0.4008,-0.982,10.0956,-0.4092,-0.7538,9.7691,0.0039,-0.0018,-0.0273
14498,45.68098,0.124475,122.29,27.71,11.792,286.3,0 / 17,773404,2019-08-12 10:37:35:894,-0.4224,-0.0968,10.4236,-0.4108,-0.5976,9.7798,0.0018,-0.004,-0.0017
14499,45.68098,0.124475,122.29,27.71,11.792,286.3,0 / 17,773504,2019-08-12 10:37:35:994,-0.5307,-0.001,9.4557,-0.4053,-0.5329,9.7838,-0.0014,0.0003,-0.0017
14500,45.68098,0.124475,122.29,27.71,11.792,286.3,0 / 17,773604,2019-08-12 10:37:36:094,-0.5948,-0.2614,9.8077,-0.4045,-0.4772,9.7867,0.0071,-0.0029,-0.0038
14501,45.68098,0.124475,122.29,27.71,11.792,286.3,0 / 17,773704,2019-08-12 10:37:36:194,-0.5295,-0.1794,9.2433,-0.4002,-0.4661,9.7874,0.0018,-0.004,-0.0049
14502,45.68098,0.124475,122.29,27.71,11.792,286.3,0 / 17,773804,2019-08-12 10:37:36:294,-0.2297,-0.3416,9.5629,-0.4129,-0.4506,9.7876,-0.0004,0.0163,-0.0081
14503,45.68098,0.124475,122.29,27.71,11.792,286.3,0 / 17,773906,2019-08-12 10:37:36:396,-0.3218,-0.3062,9.9304,-0.4283,-0.4449,9.7872,0.006,0.0184,-0.0113
14504,45.68098,0.124475,122.29,27.71,11.792,286.3,0 / 17,774005,2019-08-12 10:37:36:495,-0.5996,-0.2177,9.7287,-0.4341,-0.4364,9.7873,0.0071,0.0014,-0.0134
14505,45.68098,0.124475,122.29,27.71,11.792,286.3,0 / 17,774106,2019-08-12 10:37:36:596,-0.4439,-0.3326,9.9538,-0.4241,-0.4323,9.7879,0.0092,-0.0146,-0.0156
14506,45.68098,0.124475,122.29,27.71,11.792,286.3,0 / 17,774206,2019-08-12 10:37:36:696,-0.235,-0.3529,9.8322,-0.4037,-0.4277,9.789,0.0028,-0.0146,-0.0145
14507,45.68098,0.124475,122.29,27.71,11.792,286.3,0 / 17,774305,2019-08-12 10:37:36:795,-0.3889,-0.2805,9.9986,-0.3959,-0.4213,9.7896,0.0018,0.0046,-0.0134
14508,45.68098,0.124475,122.29,27.71,11.792,286.3,0 / 17,774405,2019-08-12 10:37:36:895,-0.3111,-0.5451,9.9939,-0.4142,-0.4111,9.7893,-0.0004,0.0109,-0.0134
14509,45.68098,0.124475,122.29,27.71,11.792,286.3,0 / 17,774504,2019-08-12 10:37:36:994,-0.4655,-0.4307,9.9424,-0.4014,-0.3916,9.7906,-0.0078,-0.0018,-0.0134
14510,45.68098,0.124475,122.29,27.71,11.792,286.3,0 / 17,774604,2019-08-12 10:37:37:094,-0.672,-0.5259,10.1525,-0.39,-0.4007,9.7907,-0.0089,-0.0104,-0.0124
14511,45.68098,0.124475,122.29,27.71,11.792,286.3,0 / 17,774704,2019-08-12 10:37:37:194,-0.1399,-0.3577,9.5264,-0.3798,-0.398,9.7912,-0.0121,-0.0061,-0.0113
14512,45.68098,0.124475,122.29,27.71,11.792,286.3,0 / 17,774806,2019-08-12 10:37:37:296,-0.3799,-0.3116,9.8304,-0.376,-0.3922,9.7916,-0.0057,0.0067,-0.0102
14513,45.68098,0.124475,122.29,27.71,11.792,286.3,0 / 17,774904,2019-08-12 10:37:37:394,-0.2602,-0.2637,10.2596,-0.3793,-0.3633,9.7926,0.0071,0.0003,-0.0049
14514,45.68098,0.124475,122.29,27.71,11.792,286.3,0 / 17,775005,2019-08-12 10:37:37:495,-0.3697,-0.095,9.8424,-0.3624,-0.318,9.7948,0.006,-0.0082,0.0004
14515,45.68098,0.124475,122.29,27.71,11.792,286.3,0 / 17,775105,2019-08-12 10:37:37:595,-0.2608,0.0738,9.5252,-0.3617,-0.2979,9.7954,0.005,0.0056,0.0036
14516,45.68098,0.124475,122.29,27.71,11.792,286.3,0 / 17,775205,2019-08-12 10:37:37:695,-0.2871,-0.2039,9.8562,-0.3646,-0.2809,9.7958,0.0071,0.0099,0.0025
14517,45.68098,0.124475,122.29,27.71,11.792,286.3,Oct-18,775304,2019-08-12 10:37:37:794,-0.4661,-0.0536,10.2602,-0.3707,-0.2649,9.7961,-0.0078,-0.0018,0.0015
14518,45.68098,0.124475,122.29,27.71,11.792,286.3,Oct-18,775404,2019-08-12 10:37:37:894,-0.408,-0.1847,9.9992,-0.3721,-0.2658,9.796,-0.0174,0.0046,-0.0007
14519,45.68098,0.124475,122.29,27.71,11.792,286.3,Oct-18,775504,2019-08-12 10:37:37:994,-0.414,-0.0974,9.5425,-0.382,-0.2447,9.7962,-0.0089,0.0067,0.0015
14520,45.68098,0.124475,122.29,27.71,11.792,286.3,Oct-18,775604,2019-08-12 10:37:38:094,-0.1411,-0.0836,9.4037,-0.3946,-0.2088,9.7965,0.0071,0.0078,0.0025
14521,45.68098,0.124475,122.29,27.71,11.792,286.3,Oct-18,775704,2019-08-12 10:37:38:194,-0.4834,-0.1411,9.5396,-0.4012,-0.1428,9.7974,0.0028,0.0003,0.0025
14522,45.68098,0.124475,122.29,27.71,11.792,286.3,Oct-18,775804,2019-08-12 10:37:38:294,-0.3248,0.2839,10.1225,-0.4092,-0.1273,9.7973,0.006,0.0046,0.0004
14523,45.68098,0.124475,122.29,27.71,11.792,286.3,Oct-18,775904,2019-08-12 10:37:38:394,-0.5212,-0.1536,9.785,-0.4046,-0.119,9.7976,-0.0014,-0.005,0.0025
14524,45.68098,0.124475,122.29,27.71,11.792,286.3,Oct-18,776004,2019-08-12 10:37:38:494,-0.3769,0.3336,9.7431,-0.4018,-0.1104,9.7978,-0.0014,-0.004,0.0036
14525,45.68098,0.124475,122.29,27.71,11.792,286.3,Oct-18,776104,2019-08-12 10:37:38:594,-0.2847,0.3725,9.9855,-0.403,-0.074,9.7981,0.005,-0.0061,0.0047
14526,45.68098,0.124475,122.29,27.71,11.792,286.3,Oct-18,776204,2019-08-12 10:37:38:694,-0.3853,0.2654,10.1118,-0.4065,-0.0288,9.7982,0.005,-0.004,0.0057
14527,45.681767,0.121597,134.93,28.29,7.504,297.0,0 / 18,776305,2019-08-12 10:37:38:795,-0.408,0.0708,10.2536,-0.4067,0.0055,9.7982,0.0018,-0.0082,0.0047
14528,45.681767,0.121597,134.93,28.29,7.504,297.0,0 / 18,776405,2019-08-12 10:37:38:895,-0.587,0.1451,9.8442,-0.4033,0.009,9.7984,0.0007,-0.0104,0.0036
14529,45.681767,0.121597,134.93,28.29,7.504,297.0,0 / 18,776504,2019-08-12 10:37:38:994,-0.2674,0.2935,9.9172,-0.4095,0.0373,9.798,0.0071,-0.005,0.0047
14530,45.681767,0.121597,134.93,28.29,7.504,297.0,0 / 18,776605,2019-08-12 10:37:39:095,-0.3111,0.0786,9.5934,-0.3991,0.05,9.7984,0.0039,0.0035,0.0057
14531,45.681767,0.121597,134.93,28.29,7.504,297.0,0 / 18,776704,2019-08-12 10:37:39:194,0.4204,-0.1494,9.5635,-0.4154,0.0605,9.7977,0.0124,0.0152,0.0036
14532,45.681767,0.121597,134.93,28.29,7.504,297.0,0 / 18,776804,2019-08-12 10:37:39:294,-0.0298,-0.0866,9.9352,-0.4193,0.0683,9.7974,0.0092,0.0024,0.0036
14533,45.681767,0.121597,134.93,28.29,7.504,297.0,0 / 18,776905,2019-08-12 10:37:39:395,-0.186,0.1391,9.6778,-0.4189,0.0698,9.7975,-0.0057,0.0024,0.0015
14534,45.681767,0.121597,134.93,28.29,7.504,297.0,0 / 18,777005,2019-08-12 10:37:39:495,-0.4697,-0.2135,10.0711,-0.4208,0.0723,9.7974,0.0007,-0.0029,0.0025
14535,45.681767,0.121597,134.93,28.29,7.504,297.0,0 / 18,777104,2019-08-12 10:37:39:594,-0.2249,0.3845,9.7185,-0.4182,0.0697,9.7975,-0.0046,-0.004,0.0047
14536,45.681767,0.121597,134.93,28.29,7.504,297.0,0 / 18,777204,2019-08-12 10:37:39:694,-0.1512,-0.0997,10.3458,-0.4094,0.0676,9.7979,-0.0036,-0.0157,0.0025
14537,45.681767,0.121597,134.93,28.29,7.504,297.0,0 / 18,777305,2019-08-12 10:37:39:795,-0.7606,0.2025,10.4493,-0.3898,0.0539,9.7988,-0.0132,-0.0093,0.0025
14538,45.681767,0.121597,134.93,28.29,7.504,297.0,0 / 18,777405,2019-08-12 10:37:39:895,-0.0675,0.2456,9.8406,-0.3997,0.0386,9.7984,-0.0206,0.0184,0.0004
14539,45.681767,0.121597,134.93,28.29,7.504,297.0,0 / 18,777505,2019-08-12 10:37:39:995,-0.329,-0.0668,9.2684,-0.4137,0.0199,9.7979,-0.0142,0.0131,0.0015
14540,45.681767,0.121597,134.93,28.29,7.504,297.0,0 / 18,777604,2019-08-12 10:37:40:094,-0.262,0.1098,9.7329,-0.416,0.0113,9.7978,-0.0068,-0.0061,0.0004
14541,45.681767,0.121597,134.93,28.29,7.504,297.0,0 / 18,777954,2019-08-12 10:37:40:444,-0.262,0.1098,9.7329,-0.4118,0.0079,9.798,-0.0036,-0.0114,0.0004
14542,45.681767,0.121597,134.93,28.29,7.504,297.0,0 / 18,777955,2019-08-12 10:37:40:445,-0.262,0.1098,9.7329,-0.4118,0.0079,9.798,-0.0036,-0.0114,0.0004
14543,45.681767,0.121597,134.93,28.29,7.504,297.0,0 / 18,777956,2019-08-12 10:37:40:446,-0.262,0.1098,9.7329,-0.4118,0.0079,9.798,-0.0036,-0.0114,0.0004
14544,45.681767,0.121597,134.93,28.29,7.504,297.0,0 / 18,777957,2019-08-12 10:37:40:447,-0.262,0.1098,9.7329,-0.4118,0.0079,9.798,-0.0036,-0.0114,0.0004
14545,45.681767,0.121597,134.93,28.29,7.504,297.0,0 / 18,777960,2019-08-12 10:37:40:450,-0.262,0.1098,9.7329,-0.4118,0.0079,9.798,-0.0036,-0.0114,0.0004
14546,45.681767,0.121597,134.93,28.29,7.504,297.0,0 / 18,777960,2019-08-12 10:37:40:450,-0.262,0.1098,9.7329,-0.4118,0.0079,9.798,-0.0036,-0.0114,0.0004
14547,45.681767,0.121597,134.93,28.29,7.504,297.0,0 / 18,777960,2019-08-12 10:37:40:450,-0.262,0.1098,9.7329,-0.4118,0.0079,9.798,-0.0036,-0.0114,0.0004
14548,45.681767,0.121597,134.93,28.29,7.504,297.0,0 / 18,777961,2019-08-12 10:37:40:451,-0.262,0.1098,9.7329,-0.4118,0.0079,9.798,-0.0036,-0.0114,0.0004
14549,45.681767,0.121597,134.93,28.29,7.504,297.0,0 / 18,777961,2019-08-12 10:37:40:451,-0.262,0.1098,9.7329,-0.4118,0.0079,9.798,-0.0036,-0.0114,0.0004
14550,45.681767,0.121597,134.93,28.29,7.504,297.0,0 / 18,777961,2019-08-12 10:37:40:451,-0.262,0.1098,9.7329,-0.4118,0.0079,9.798,-0.0036,-0.0114,0.0004
14551,45.681767,0.121597,134.93,28.29,7.504,297.0,0 / 18,777962,2019-08-12 10:37:40:452,-0.262,0.1098,9.7329,-0.4118,0.0079,9.798,-0.0036,-0.0114,0.0004
14552,45.681767,0.121597,134.93,28.29,7.504,297.0,0 / 18,777962,2019-08-12 10:37:40:452,-0.262,0.1098,9.7329,-0.4118,0.0079,9.798,-0.0036,-0.0114,0.0004
14553,45.681767,0.121597,134.93,28.29,7.504,297.0,0 / 18,777962,2019-08-12 10:37:40:452,-0.262,0.1098,9.7329,-0.4118,0.0079,9.798,-0.0036,-0.0114,0.0004
14554,45.681767,0.121597,134.93,28.29,7.504,297.0,0 / 18,777963,2019-08-12 10:37:40:453,-0.262,0.1098,9.7329,-0.4118,0.0079,9.798,-0.0036,-0.0114,0.0004
14555,45.681767,0.121597,134.93,28.29,7.504,297.0,0 / 18,777963,2019-08-12 10:37:40:453,-0.262,0.1098,9.7329,-0.4118,0.0079,9.798,-0.0036,-0.0114,0.0004
14556,45.681767,0.121597,134.93,28.29,7.504,297.0,0 / 18,777964,2019-08-12 10:37:40:454,-0.262,0.1098,9.7329,-0.4118,0.0079,9.798,-0.0036,-0.0114,0.0004
14557,45.681767,0.121597,134.93,28.29,7.504,297.0,0 / 18,777964,2019-08-12 10:37:40:454,-0.262,0.1098,9.7329,-0.4118,0.0079,9.798,-0.0036,-0.0114,0.0004
14558,45.681767,0.121597,134.93,28.29,7.504,297.0,0 / 18,777968,2019-08-12 10:37:40:458,-0.262,0.1098,9.7329,-0.4118,0.0079,9.798,-0.0036,-0.0114,0.0004
14559,45.681767,0.121597,134.93,28.29,7.504,297.0,0 / 18,777970,2019-08-12 10:37:40:460,-0.262,0.1098,9.7329,-0.4118,0.0079,9.798,-0.0036,-0.0114,0.0004
14560,45.681767,0.121597,134.93,28.29,7.504,297.0,0 / 18,777974,2019-08-12 10:37:40:464,-0.262,0.1098,9.7329,-0.4118,0.0079,9.798,-0.0036,-0.0114,0.0004
14561,45.681767,0.121597,134.93,28.29,7.504,297.0,0 / 18,777991,2019-08-12 10:37:40:481,-0.262,0.1098,9.7329,-0.4118,0.0079,9.798,-0.0036,-0.0114,0.0004
14562,45.681767,0.121597,134.93,28.29,7.504,297.0,0 / 18,777992,2019-08-12 10:37:40:482,-0.262,0.1098,9.7329,-0.4118,0.0079,9.798,-0.0036,-0.0114,0.0004
14563,45.681767,0.121597,134.93,28.29,7.504,297.0,0 / 18,777992,2019-08-12 10:37:40:482,-0.262,0.1098,9.7329,-0.4118,0.0079,9.798,-0.0036,-0.0114,0.0004
14564,45.681767,0.121597,134.93,28.29,7.504,297.0,0 / 18,777993,2019-08-12 10:37:40:483,-0.262,0.1098,9.7329,-0.4118,0.0079,9.798,-0.0036,-0.0114,0.0004
14565,45.681767,0.121597,134.93,28.29,7.504,297.0,0 / 18,777993,2019-08-12 10:37:40:483,-0.262,0.1098,9.7329,-0.4118,0.0079,9.798,-0.0036,-0.0114,0.0004
14566,45.681767,0.121597,134.93,28.29,7.504,297.0,0 / 18,777993,2019-08-12 10:37:40:483,-0.262,0.1098,9.7329,-0.4118,0.0079,9.798,-0.0036,-0.0114,0.0004
14567,45.681767,0.121597,134.93,28.29,7.504,297.0,0 / 18,777994,2019-08-12 10:37:40:484,-0.262,0.1098,9.7329,-0.4118,0.0079,9.798,-0.0036,-0.0114,0.0004
14568,45.681767,0.121597,134.93,28.29,7.504,297.0,0 / 18,777994,2019-08-12 10:37:40:484,-0.262,0.1098,9.7329,-0.4118,0.0079,9.798,-0.0036,-0.0114,0.0004
14569,45.681767,0.121597,134.93,28.29,7.504,297.0,0 / 18,777994,2019-08-12 10:37:40:484,-0.262,0.1098,9.7329,-0.4118,0.0079,9.798,-0.0036,-0.0114,0.0004
14570,45.681767,0.121597,134.93,28.29,7.504,297.0,0 / 18,777995,2019-08-12 10:37:40:485,-0.262,0.1098,9.7329,-0.4118,0.0079,9.798,-0.0036,-0.0114,0.0004
