,GPS LATITUDE (degrees),GPS LONGITUDE (degrees), GPS ALTITUDE (m),GPS SPEED (Kmh),GPS ACCURACY (m),GPS ORIENTATION (Â°), SATELLITES IN RANGE, TIME SINCE START (ms), DATE (YYYY-MO-DD HH-MI-SS_SSS),ACCELEROMETER X (m/s²) , ACCELEROMETER Y (m/s²), ACCELEROMETER Z (m/s²), GRAVITY X (m/s²), GRAVITY Y (m/s²), GRAVITY Z (m/s²), GYROSCOPE Yaw (rad/s), GYROSCOPE Pitch (rad/s), GYROSCOPE Roll (rad/s)
11037,46.279716,-0.399344,83.21,34.94,3.216,204.9,Dec-17,1103711,2019-08-09 22:53:40:938,0.5783,-1.9996,10.3875,0.82,-0.6246,9.7523,-0.101,0.054,0.1058
11038,46.279716,-0.399344,83.21,34.94,3.216,204.9,Dec-17,1103810,2019-08-09 22:53:41:037,0.9554,0.3964,9.2772,0.7708,-0.6499,9.7547,-0.1064,-0.0418,0.0083
11039,46.279716,-0.399344,83.21,34.94,3.216,204.9,Dec-17,1103911,2019-08-09 22:53:41:138,0.7417,-0.9258,9.0282,0.7542,-0.6407,9.7566,-0.0179,-0.0155,-0.005
11040,46.279716,-0.399344,83.21,34.94,3.216,204.9,Dec-17,1104011,2019-08-09 22:53:41:238,0.7537,-0.5481,10.1505,0.7402,-0.6327,9.7582,0.0572,-0.0062,-0.0101
11041,46.279716,-0.399344,83.21,34.94,3.216,204.9,Dec-17,1104110,2019-08-09 22:53:41:337,0.6974,-0.4906,10.6467,0.7349,-0.6627,9.7566,0.0381,-0.0013,-0.0075
11042,46.279716,-0.399344,83.21,34.94,3.216,204.9,Dec-17,1104210,2019-08-09 22:53:41:437,0.8638,-1.3023,10.1834,0.7385,-0.6911,9.7544,-0.0118,0.0108,0.0005
11043,46.279716,-0.399344,83.21,34.94,3.216,204.9,Dec-17,1104310,2019-08-09 22:53:41:537,1.0003,-1.2652,9.9278,0.7468,-0.6784,9.7546,-0.0105,0.0065,-0.0126
11044,46.279716,-0.399344,83.21,34.94,3.216,204.9,Dec-17,1104410,2019-08-09 22:53:41:637,0.7304,-0.1351,9.5723,0.7673,-0.6764,9.7532,-0.0428,-0.0044,-0.0266
11045,46.279716,-0.399344,83.21,34.94,3.216,204.9,Dec-17,1104511,2019-08-09 22:53:41:738,0.5304,0.4898,9.856,0.7671,-0.6351,9.7559,0.0159,0.0079,0.027
11046,46.279716,-0.399344,83.21,34.94,3.216,204.9,Dec-17,1104611,2019-08-09 22:53:41:838,0.7148,-0.3973,9.1749,0.7746,-0.6224,9.7562,0.0057,0.013,0.0085
11047,46.279716,-0.399344,83.21,34.94,3.216,204.9,Dec-17,1104711,2019-08-09 22:53:41:938,0.7705,0.3491,9.1629,0.7823,-0.5958,9.7572,-0.0177,0.0027,-0.0032
11048,46.279716,-0.399344,83.21,34.94,3.216,204.9,Dec-17,1104811,2019-08-09 22:53:42:038,1.1314,-0.3099,9.7225,0.7801,-0.5814,9.7583,0.0013,-0.0148,-0.0081
11049,46.279716,-0.399344,83.21,34.94,3.216,204.9,Dec-17,1104911,2019-08-09 22:53:42:138,0.7525,-0.8929,9.8159,0.7713,-0.567,9.7598,-0.0014,-0.0095,0.01
11050,46.279716,-0.399344,83.21,34.94,3.216,204.9,Dec-17,1105011,2019-08-09 22:53:42:238,0.6747,-0.6104,9.8315,0.7547,-0.5748,9.7607,0.0457,-0.0052,-0.0177
11051,46.279716,-0.399344,83.21,34.94,3.216,204.9,Dec-17,1105110,2019-08-09 22:53:42:337,0.8489,-0.7941,9.923,0.7592,-0.5735,9.7604,0.0495,0.0093,-0.0011
11052,46.279716,-0.399344,83.21,34.94,3.216,204.9,Dec-17,1105210,2019-08-09 22:53:42:437,0.9758,-0.7642,9.6842,0.7653,-0.5909,9.7589,-0.0188,0.0073,-0.0323
11053,46.279716,-0.399344,83.21,34.94,3.216,204.9,Dec-17,1105310,2019-08-09 22:53:42:537,0.5562,-0.5673,9.2981,0.7803,-0.5832,9.7581,-0.0227,0.0242,0.0254
11054,46.279716,-0.399344,83.21,34.94,3.216,204.9,Dec-17,1105410,2019-08-09 22:53:42:637,0.9141,-0.6678,9.2574,0.7803,-0.5575,9.7597,-0.0184,-0.0058,-0.0141
11055,46.279716,-0.399344,83.21,34.94,3.216,204.9,Dec-17,1105510,2019-08-09 22:53:42:737,0.8525,-0.7953,9.9003,0.7771,-0.5537,9.7601,0.0183,-0.0076,-0.0014
11056,46.279716,-0.399344,83.21,34.94,3.216,204.9,13 / 20,1105610,2019-08-09 22:53:42:837,0.8501,-0.2375,9.6998,0.7707,-0.5585,9.7604,0.0037,-0.0006,-0.0041
11057,46.279716,-0.399344,83.21,34.94,3.216,204.9,13 / 20,1105710,2019-08-09 22:53:42:937,0.6071,-0.0435,9.7261,0.7688,-0.5598,9.7604,-0.012,0.0016,-0.009
11058,46.279716,-0.399344,83.21,34.94,3.216,204.9,13 / 20,1105811,2019-08-09 22:53:43:038,0.859,-0.1058,10.0601,0.7697,-0.5686,9.7599,-0.0107,0.006,0.0056
11059,46.279716,-0.399344,83.21,34.94,3.216,204.9,13 / 20,1105911,2019-08-09 22:53:43:138,0.9829,-0.8624,9.7393,0.7697,-0.5647,9.7601,0.025,0.0032,-0.0022
11060,46.279716,-0.399344,83.21,34.94,3.216,204.9,13 / 20,1106010,2019-08-09 22:53:43:237,0.8285,-0.3733,9.759,0.7753,-0.5704,9.7593,0.0121,0.0016,-0.0205
11061,46.279716,-0.399344,83.21,34.94,3.216,204.9,13 / 20,1106110,2019-08-09 22:53:43:337,0.8985,-0.3566,9.613,0.7792,-0.5738,9.7588,-0.0022,0.0038,0.0096
11062,46.279716,-0.399344,83.21,34.94,3.216,204.9,13 / 20,1106210,2019-08-09 22:53:43:437,0.4502,-0.1028,9.6836,0.781,-0.5693,9.7589,-0.003,0.009,-0.009
11063,46.279716,-0.399344,83.21,34.94,3.216,204.9,13 / 20,1106310,2019-08-09 22:53:43:537,0.7501,-0.3332,9.7369,0.7825,-0.575,9.7585,0.0061,-0.0019,-0.0119
11064,46.279716,-0.399344,83.21,34.94,3.216,204.9,13 / 20,1106410,2019-08-09 22:53:43:637,0.9231,-0.6259,9.7333,0.785,-0.5542,9.7595,0.0018,-0.0117,-0.0045
11065,46.279716,-0.399344,83.21,34.94,3.216,204.9,13 / 20,1106511,2019-08-09 22:53:43:738,0.6873,-0.8157,9.6441,0.7624,-0.5513,9.7614,0.0001,-0.0028,-0.0121
11066,46.279716,-0.399344,83.21,34.94,3.216,204.9,Nov-19,1106611,2019-08-09 22:53:43:838,0.777,-0.7462,9.5974,0.7687,-0.5404,9.7615,0.0087,0.0046,-0.0117
11067,46.279716,-0.399344,83.21,34.94,3.216,204.9,Nov-19,1106710,2019-08-09 22:53:43:937,0.4149,-0.3781,9.0132,0.7712,-0.5204,9.7624,-0.0387,0.0008,0.0115
11068,46.279716,-0.399344,83.21,34.94,3.216,204.9,Nov-19,1106810,2019-08-09 22:53:44:037,0.5801,-0.8462,9.7297,0.7648,-0.531,9.7623,-0.0086,-0.0219,-0.0376
11069,46.279716,-0.399344,83.21,34.94,3.216,204.9,Nov-19,1106910,2019-08-09 22:53:44:137,0.938,-0.2488,10.084,0.749,-0.5434,9.7629,0.0291,-0.0121,-0.0144
11070,46.279716,-0.399344,83.21,34.94,3.216,204.9,Nov-19,1107010,2019-08-09 22:53:44:237,0.6741,-0.9108,10.4701,0.7383,-0.5629,9.7626,0.0023,-0.0186,-0.0191
11071,46.279716,-0.399344,83.21,34.94,3.216,204.9,Nov-19,1107110,2019-08-09 22:53:44:337,0.5137,-0.8181,10.0242,0.722,-0.5643,9.7637,0.0025,-0.0073,0.02
11072,46.279716,-0.399344,83.21,34.94,3.216,204.9,Nov-19,1107210,2019-08-09 22:53:44:437,0.9165,-1.7183,9.7752,0.7152,-0.5766,9.7635,-0.0031,-0.0037,-0.0118
11073,46.279716,-0.399344,83.21,34.94,3.216,204.9,Nov-19,1107310,2019-08-09 22:53:44:537,0.4317,-0.6684,8.9893,0.711,-0.5558,9.765,-0.0066,-0.0066,-0.0281
11074,46.279716,-0.399344,83.21,34.94,3.216,204.9,Nov-19,1107410,2019-08-09 22:53:44:637,0.4712,-0.1046,8.8325,0.7112,-0.5372,9.7661,-0.0199,-0.0039,0.0054
11075,46.279716,-0.399344,83.21,34.94,3.216,204.9,Nov-19,1107511,2019-08-09 22:53:44:738,0.9123,0.2025,9.6704,0.6977,-0.5365,9.7671,0.0094,-0.0141,-0.0141
11076,46.279716,-0.399344,83.21,34.94,3.216,204.9,Nov-18,1107611,2019-08-09 22:53:44:838,0.9279,-1.188,10.0116,0.6955,-0.5615,9.7658,0.0323,-0.0158,-0.0111
11077,46.279716,-0.399344,83.21,34.94,3.216,204.9,Nov-18,1107710,2019-08-09 22:53:44:937,0.7717,-0.5589,10.3672,0.6898,-0.5957,9.7642,0.0128,0.0056,0.0054
11078,46.279716,-0.399344,83.21,34.94,3.216,204.9,Nov-18,1107810,2019-08-09 22:53:45:037,0.9369,-0.1297,10.2457,0.6927,-0.6024,9.7636,0.0052,0.0063,-0.0261
11079,46.279716,-0.399344,83.21,34.94,3.216,204.9,Nov-18,1107911,2019-08-09 22:53:45:138,0.5562,-1.3155,9.6878,0.7133,-0.6101,9.7616,0.0021,0.0196,-0.0218
11080,46.279716,-0.399344,83.21,34.94,3.216,204.9,Nov-18,1108010,2019-08-09 22:53:45:237,0.8447,-0.5439,9.3323,0.7263,-0.6042,9.761,-0.0181,0.0169,-0.0065
11081,46.279716,-0.399344,83.21,34.94,3.216,204.9,Nov-18,1108110,2019-08-09 22:53:45:337,0.6944,-0.5308,9.5657,0.7445,-0.5883,9.7606,0.0114,0.0083,-0.0074
11082,46.279716,-0.399344,83.21,34.94,3.216,204.9,Nov-18,1108211,2019-08-09 22:53:45:438,1.2643,-0.754,9.6573,0.749,-0.604,9.7593,-0.0128,-0.005,-0.0186
11083,46.279716,-0.399344,83.21,34.94,3.216,204.9,Nov-18,1108310,2019-08-09 22:53:45:537,0.6633,-1.6225,9.3329,0.7549,-0.5964,9.7593,-0.0421,0.0114,0.0124
11084,46.279716,-0.399344,83.21,34.94,3.216,204.9,Nov-18,1108410,2019-08-09 22:53:45:637,0.8058,-0.8713,9.3562,0.7599,-0.595,9.759,-0.0077,0.001,-0.0045
11085,46.279716,-0.399344,83.21,34.94,3.216,204.9,Nov-18,1108510,2019-08-09 22:53:45:737,1.0542,-0.8827,9.6842,0.7635,-0.5968,9.7587,0.0022,-0.0052,-0.011
11086,46.277252,-0.401117,82.29,33.06,3.216,208.1,Dec-18,1108611,2019-08-09 22:53:45:838,0.7088,-0.5493,9.9236,0.763,-0.6002,9.7585,0.0024,-0.0028,0.0081
11087,46.277252,-0.401117,82.29,33.06,3.216,208.1,Dec-18,1108710,2019-08-09 22:53:45:937,0.382,-1.0419,9.8093,0.7597,-0.6217,9.7574,0.0101,0.0023,0.012
11088,46.277252,-0.401117,82.29,33.06,3.216,208.1,Dec-18,1108810,2019-08-09 22:53:46:037,0.6747,-1.0904,10.1924,0.7565,-0.613,9.7582,0.0313,0.0128,0.0148
11089,46.277252,-0.401117,82.29,33.06,3.216,208.1,Dec-18,1108910,2019-08-09 22:53:46:137,0.8758,-1.1778,10.0038,0.7608,-0.6422,9.756,-0.0183,-0.0037,0.0094
11090,46.277252,-0.401117,82.29,33.06,3.216,208.1,Dec-18,1109010,2019-08-09 22:53:46:237,0.7764,-1.8548,9.4753,0.7591,-0.6333,9.7567,-0.0092,-0.0062,-0.0246
11091,46.277252,-0.401117,82.29,33.06,3.216,208.1,Dec-18,1109110,2019-08-09 22:53:46:337,0.8273,-1.1293,9.7644,0.7544,-0.6446,9.7563,-0.0063,0.0104,0.0158
11092,46.277252,-0.401117,82.29,33.06,3.216,208.1,Dec-18,1109211,2019-08-09 22:53:46:438,0.8944,-1.1646,9.5089,0.7587,-0.6374,9.7565,0.0156,-0.0044,-0.0286
11093,46.277252,-0.401117,82.29,33.06,3.216,208.1,Dec-18,1109310,2019-08-09 22:53:46:537,1.0015,-2.1397,9.704,0.766,-0.667,9.7539,0.0308,0.0146,0.0098
11094,46.277252,-0.401117,82.29,33.06,3.216,208.1,Dec-18,1109410,2019-08-09 22:53:46:637,0.9913,-1.7793,9.9093,0.7722,-0.6556,9.7542,0.0087,-0.0001,-0.031
11095,46.277252,-0.401117,82.29,33.06,3.216,208.1,Dec-18,1109510,2019-08-09 22:53:46:737,0.9045,-0.4057,9.6884,0.7779,-0.6647,9.7531,0.0331,0.0087,-0.0052
11096,46.277252,-0.401117,82.29,33.06,3.216,208.1,Dec-19,1109610,2019-08-09 22:53:46:837,0.8477,-0.4685,9.5801,0.7838,-0.6817,9.7515,-0.0045,0.004,-0.0124
11097,46.277252,-0.401117,82.29,33.06,3.216,208.1,Dec-19,1109710,2019-08-09 22:53:46:937,0.9093,-1.1269,9.5537,0.7918,-0.6829,9.7508,0.0147,0.0092,-0.0091
11098,46.277252,-0.401117,82.29,33.06,3.216,208.1,Dec-19,1109810,2019-08-09 22:53:47:037,1.3014,-0.8701,9.7919,0.8009,-0.6955,9.7491,-0.0171,-0.0107,-0.0147
11099,46.277252,-0.401117,82.29,33.06,3.216,208.1,Dec-19,1109910,2019-08-09 22:53:47:137,0.9063,-0.3907,9.5394,0.8032,-0.693,9.7491,-0.0067,0.0062,-0.005
11100,46.277252,-0.401117,82.29,33.06,3.216,208.1,Dec-19,1110011,2019-08-09 22:53:47:238,0.6244,-0.5074,10.2217,0.802,-0.716,9.7475,-0.0021,-0.012,-0.0277
11101,46.277252,-0.401117,82.29,33.06,3.216,208.1,Dec-19,1110110,2019-08-09 22:53:47:337,1.3953,-2.324,10.0134,0.8027,-0.7157,9.7475,-0.0021,-0.012,-0.0277
11102,46.277252,-0.401117,82.29,33.06,3.216,208.1,Dec-19,1110211,2019-08-09 22:53:47:438,0.7645,-1.3179,9.7692,0.7944,-0.7287,9.7472,0.0023,-0.0065,-0.0395
11103,46.277252,-0.401117,82.29,33.06,3.216,208.1,Dec-19,1110310,2019-08-09 22:53:47:537,0.5861,-0.8079,9.8578,0.8019,-0.7344,9.7462,0.0008,0.0008,0.0105
11104,46.277252,-0.401117,82.29,33.06,3.216,208.1,Dec-19,1110410,2019-08-09 22:53:47:637,0.8662,-1.647,9.601,0.7966,-0.7456,9.7458,-0.0049,-0.0067,-0.0127
11105,46.277252,-0.401117,82.29,33.06,3.216,208.1,Dec-19,1110511,2019-08-09 22:53:47:738,0.6106,-1.1508,9.2724,0.791,-0.7322,9.7472,-0.0019,-0.0094,-0.0081
11106,46.277252,-0.401117,82.29,33.06,3.216,208.1,13 / 18,1110611,2019-08-09 22:53:47:838,0.7369,-0.8929,9.9482,0.7793,-0.7405,9.7475,0.0286,0.0036,0.0168
11107,46.277252,-0.401117,82.29,33.06,3.216,208.1,13 / 18,1110711,2019-08-09 22:53:47:938,0.4604,-1.7698,9.8255,0.7807,-0.7592,9.746,-0.0304,-0.0072,-0.0322
11108,46.277252,-0.401117,82.29,33.06,3.216,208.1,13 / 18,1110810,2019-08-09 22:53:48:037,0.7345,-1.8865,9.5657,0.7755,-0.7611,9.7463,0.0123,0.0003,-0.0171
11109,46.277252,-0.401117,82.29,33.06,3.216,208.1,13 / 18,1110911,2019-08-09 22:53:48:138,1.1553,-1.4196,9.3855,0.79,-0.7789,9.7437,-0.0096,0.0099,-0.0094
11110,46.277252,-0.401117,82.29,33.06,3.216,208.1,13 / 18,1111010,2019-08-09 22:53:48:237,0.1228,-2.069,9.5298,0.7841,-0.7487,9.7465,-0.004,-0.0085,-0.0318
11111,46.277252,-0.401117,82.29,33.06,3.216,208.1,13 / 18,1111110,2019-08-09 22:53:48:337,0.5089,-2.6502,9.6902,0.7827,-0.7682,9.7451,-0.025,-0.0006,0.0245
11112,46.277252,-0.401117,82.29,33.06,3.216,208.1,13 / 18,1111210,2019-08-09 22:53:48:437,0.649,-1.4825,9.4789,0.7625,-0.7968,9.7444,-0.0318,-0.0158,-0.0112
11113,46.277252,-0.401117,82.29,33.06,3.216,208.1,13 / 18,1111310,2019-08-09 22:53:48:537,0.051,-0.8653,10.1942,0.7619,-0.8025,9.744,0.0504,0.0083,0.0114
11114,46.277252,-0.401117,82.29,33.06,3.216,208.1,13 / 18,1111411,2019-08-09 22:53:48:638,0.8453,-1.0377,9.7932,0.7528,-0.8097,9.7441,0.0043,0.0005,0.0034
11115,46.277252,-0.401117,82.29,33.06,3.216,208.1,13 / 18,1111511,2019-08-09 22:53:48:738,0.4742,-1.2897,9.2736,0.7513,-0.8256,9.7429,0.0177,0.0023,0.0045
11116,46.277252,-0.401117,82.29,33.06,3.216,208.1,13 / 18,1111610,2019-08-09 22:53:48:837,0.6771,0.1049,10.2427,0.7466,-0.8368,9.7423,-0.0368,-0.0107,0.0018
11117,46.277252,-0.401117,82.29,33.06,3.216,208.1,13 / 18,1111710,2019-08-09 22:53:48:937,0.2383,-1.2628,10.0194,0.7331,-0.8378,9.7433,0.0255,-0.0114,0.0326
11118,46.277252,-0.401117,82.29,33.06,3.216,208.1,13 / 18,1111811,2019-08-09 22:53:49:038,0.631,-1.2951,9.8015,0.7199,-0.8486,9.7433,0.0075,0.0048,-0.0004
11119,46.277252,-0.401117,82.29,33.06,3.216,208.1,13 / 18,1111911,2019-08-09 22:53:49:138,0.2886,-1.2346,9.7088,0.7159,-0.8509,9.7434,-0.0206,0.0011,0.0234
11120,46.277252,-0.401117,82.29,33.06,3.216,208.1,13 / 18,1112010,2019-08-09 22:53:49:237,1.1033,-1.8488,9.6824,0.7041,-0.8585,9.7436,0.0026,-0.0117,-0.0343
11121,46.277252,-0.401117,82.29,33.06,3.216,208.1,13 / 18,1112110,2019-08-09 22:53:49:337,0.628,-2.2318,9.6908,0.7055,-0.8494,9.7443,0.0239,0.0119,0.0049
11122,46.277252,-0.401117,82.29,33.06,3.216,208.1,13 / 18,1112211,2019-08-09 22:53:49:438,0.9728,-1.3699,9.2179,0.7146,-0.8749,9.7414,0.004,0.0024,-0.013
11123,46.277252,-0.401117,82.29,33.06,3.216,208.1,13 / 18,1112311,2019-08-09 22:53:49:538,0.6723,-1.422,9.6238,0.713,-0.8725,9.7417,0.0158,0.0083,-0.0059
11124,46.277252,-0.401117,82.29,33.06,3.216,208.1,13 / 18,1112411,2019-08-09 22:53:49:638,0.9225,-1.0916,9.7363,0.7222,-0.8846,9.7399,0.0128,0.001,-0.0159
11125,46.277252,-0.401117,82.29,33.06,3.216,208.1,13 / 18,1112511,2019-08-09 22:53:49:738,0.8411,-1.0389,9.6543,0.7273,-0.8961,9.7385,-0.0217,0.0032,-0.0044
11126,46.277252,-0.401117,82.29,33.06,3.216,208.1,13 / 19,1112610,2019-08-09 22:53:49:837,1.0745,-0.9982,9.9506,0.7398,-0.9078,9.7365,0.0206,0.002,-0.0121
11127,46.277252,-0.401117,82.29,33.06,3.216,208.1,13 / 19,1112711,2019-08-09 22:53:49:938,0.7142,-1.4088,9.4729,0.7415,-0.9013,9.7369,-0.0281,-0.0025,0.0078
11128,46.277252,-0.401117,82.29,33.06,3.216,208.1,13 / 19,1112811,2019-08-09 22:53:50:038,0.7974,-0.7744,9.5136,0.7419,-0.9179,9.7354,0.0135,-0.0015,-0.0324
11129,46.277252,-0.401117,82.29,33.06,3.216,208.1,13 / 19,1112911,2019-08-09 22:53:50:138,1.029,-1.2891,9.7261,0.7501,-0.9029,9.7361,-0.0126,-0.0065,-0.012
11130,46.277252,-0.401117,82.29,33.06,3.216,208.1,13 / 19,1113010,2019-08-09 22:53:50:237,0.9183,-1.1401,9.8225,0.7504,-0.9354,9.7331,0.0304,-0.0008,-0.0207
11131,46.277252,-0.401117,82.29,33.06,3.216,208.1,13 / 19,1113110,2019-08-09 22:53:50:337,1.047,-0.523,10.008,0.7574,-0.9466,9.7314,0.0105,0.0062,-0.0201
11132,46.277252,-0.401117,82.29,33.06,3.216,208.1,13 / 19,1113210,2019-08-09 22:53:50:437,1.0452,-0.8001,9.9877,0.7648,-0.9453,9.731,-0.0141,0.0069,0.0166
11133,46.277252,-0.401117,82.29,33.06,3.216,208.1,13 / 19,1113311,2019-08-09 22:53:50:538,0.707,-1.2233,9.537,0.77,-0.9609,9.729,0.0193,-0.0029,-0.0003
11134,46.277252,-0.401117,82.29,33.06,3.216,208.1,13 / 19,1113411,2019-08-09 22:53:50:638,0.7214,-1.4406,9.4993,0.7658,-0.9407,9.7313,0.0072,-0.0102,0.0015
11135,46.277252,-0.401117,82.29,33.06,3.216,208.1,13 / 19,1113510,2019-08-09 22:53:50:737,0.8788,-0.8977,10.0092,0.7523,-0.9359,9.7329,0.0189,-0.01,0.0126
11136,46.277252,-0.401117,82.29,33.06,3.216,208.1,Nov-17,1113610,2019-08-09 22:53:50:837,0.4323,-0.8845,9.4909,0.7475,-0.9503,9.7318,0.0156,-0.0144,-0.0064
11137,46.277252,-0.401117,82.29,33.06,3.216,208.1,Nov-17,1113710,2019-08-09 22:53:50:937,0.4855,-1.258,9.9685,0.7283,-0.973,9.7311,0.0082,-0.0033,-0.0061
11138,46.277252,-0.401117,82.29,33.06,3.216,208.1,Nov-17,1113810,2019-08-09 22:53:51:037,0.6777,-1.0838,9.4532,0.7316,-0.9782,9.7303,0.0027,0.0152,0.0102
11139,46.277252,-0.401117,82.29,33.06,3.216,208.1,Nov-17,1113911,2019-08-09 22:53:51:138,0.4652,-1.5812,9.5597,0.7479,-0.9914,9.7277,0.0032,0.0043,-0.0242
11140,46.277252,-0.401117,82.29,33.06,3.216,208.1,Nov-17,1114010,2019-08-09 22:53:51:237,0.7746,-1.5501,9.6782,0.749,-0.9916,9.7276,-0.012,-0.0031,0.0018
11141,46.277252,-0.401117,82.29,33.06,3.216,208.1,Nov-17,1114110,2019-08-09 22:53:51:337,0.7776,-1.3131,9.6238,0.7477,-0.9894,9.7279,-0.0159,0.0023,-0.0186
11142,46.277252,-0.401117,82.29,33.06,3.216,208.1,Nov-17,1114211,2019-08-09 22:53:51:438,0.725,-1.3831,9.6375,0.7486,-0.9875,9.728,0.0027,0.004,0.0155
11143,46.277252,-0.401117,82.29,33.06,3.216,208.1,Nov-17,1114310,2019-08-09 22:53:51:537,0.4377,-0.6983,9.3353,0.7365,-0.9884,9.7289,0.0209,-0.0112,0.0045
11144,46.277252,-0.401117,82.29,33.06,3.216,208.1,Nov-17,1114410,2019-08-09 22:53:51:637,0.4035,-1.3651,9.9625,0.7216,-1.0172,9.727,0.0244,-0.0039,0.0167
11145,46.277252,-0.401117,82.29,33.06,3.216,208.1,Nov-17,1114510,2019-08-09 22:53:51:737,0.0235,-1.6668,9.7004,0.7092,-1.0223,9.7274,-0.0176,0.0065,-0.0015
11146,46.277252,-0.401117,82.29,33.06,3.216,208.1,13 / 18,1114610,2019-08-09 22:53:51:837,0.4598,-0.1363,9.5585,0.7118,-1.0344,9.7259,-0.0181,0.0097,0.0014
11147,46.277252,-0.401117,82.29,33.06,3.216,208.1,13 / 18,1114711,2019-08-09 22:53:51:938,0.23,-1.2448,9.7596,0.7111,-1.0265,9.7268,0.0183,0.0099,0.0229
11148,46.277252,-0.401117,82.29,33.06,3.216,208.1,13 / 18,1114811,2019-08-09 22:53:52:038,0.6705,-1.4076,10.0882,0.7032,-1.0524,9.7246,-0.0032,-0.003,-0.0059
11149,46.277252,-0.401117,82.29,33.06,3.216,208.1,13 / 18,1114910,2019-08-09 22:53:52:137,0.2832,-0.2782,9.2563,0.7024,-1.0334,9.7267,-0.0226,0.0038,0.0109
11150,46.277252,-0.401117,82.29,33.06,3.216,208.1,13 / 18,1115010,2019-08-09 22:53:52:237,0.7836,-1.6889,9.504,0.7051,-1.066,9.723,-0.0034,0.0011,0.0132
11151,46.277252,-0.401117,82.29,33.06,3.216,208.1,13 / 18,1115111,2019-08-09 22:53:52:338,0.5723,-1.3568,10.1074,0.6961,-1.0553,9.7248,-0.0017,-0.0029,-0.0137
11152,46.277252,-0.401117,82.29,33.06,3.216,208.1,13 / 18,1115210,2019-08-09 22:53:52:437,0.8644,-1.4555,10.0589,0.7002,-1.0729,9.7226,0.0106,0.0035,-0.0053
11153,46.277252,-0.401117,82.29,33.06,3.216,208.1,13 / 18,1115310,2019-08-09 22:53:52:537,0.5975,-2.0786,9.4759,0.7,-1.0798,9.7218,-0.0011,-0.0018,0.0039
11154,46.277252,-0.401117,82.29,33.06,3.216,208.1,13 / 18,1115410,2019-08-09 22:53:52:637,0.537,-1.1437,9.7064,0.6961,-1.0723,9.723,-0.0082,0.0004,0.0002
11155,46.277252,-0.401117,82.29,33.06,3.216,208.1,13 / 18,1115510,2019-08-09 22:53:52:737,0.7854,-1.0784,9.704,0.6872,-1.0757,9.7232,-0.0229,-0.015,0.013
11156,46.277252,-0.401117,82.29,33.06,3.216,208.1,13 / 19,1115610,2019-08-09 22:53:52:837,0.6501,-0.7576,9.4238,0.6773,-1.0666,9.7249,-0.0004,-0.0074,-0.0078
11157,46.277252,-0.401117,82.29,33.06,3.216,208.1,13 / 19,1115711,2019-08-09 22:53:52:938,0.3682,-1.3023,9.4903,0.6717,-1.072,9.7247,0.0123,0.0066,-0.0135
11158,46.277252,-0.401117,82.29,33.06,3.216,208.1,13 / 19,1115810,2019-08-09 22:53:53:037,0.6717,-1.7105,10.0637,0.6774,-1.0757,9.7239,0.0127,0.0083,-0.0061
11159,46.277252,-0.401117,82.29,33.06,3.216,208.1,13 / 19,1115910,2019-08-09 22:53:53:137,0.6382,-0.2578,9.458,0.69,-1.0853,9.722,0.0155,0.0145,0.0002
11160,46.277252,-0.401117,82.29,33.06,3.216,208.1,13 / 19,1116010,2019-08-09 22:53:53:237,0.8764,-1.1957,10.2061,0.6947,-1.0878,9.7213,0.0026,0.0047,-0.0193
11161,46.277252,-0.401117,82.29,33.06,3.216,208.1,13 / 19,1116111,2019-08-09 22:53:53:338,1.0392,-1.8021,9.4897,0.6922,-1.0848,9.7219,-0.013,-0.0134,-0.0048
11162,46.277252,-0.401117,82.29,33.06,3.216,208.1,13 / 19,1116211,2019-08-09 22:53:53:438,0.725,-0.1411,9.3849,0.6906,-1.0912,9.7213,-0.0163,-0.0102,0.0062
11163,46.277252,-0.401117,82.29,33.06,3.216,208.1,13 / 19,1116310,2019-08-09 22:53:53:537,1.0697,-0.177,9.6669,0.6849,-1.0926,9.7215,-0.01,-0.0103,-0.0032
11164,46.277252,-0.401117,82.29,33.06,3.216,208.1,13 / 19,1116411,2019-08-09 22:53:53:638,0.9572,-0.8761,9.6471,0.6799,-1.0881,9.7224,0.0182,-0.0067,-0.0267
11165,46.277252,-0.401117,82.29,33.06,3.216,208.1,13 / 19,1116510,2019-08-09 22:53:53:737,1.0488,-0.6128,10.0727,0.6756,-1.0789,9.7237,-0.042,0.0006,0.0206
11166,46.277252,-0.401117,82.29,33.06,3.216,208.1,13 / 19,1116610,2019-08-09 22:53:53:837,1.1068,-0.918,9.8207,0.6782,-1.0687,9.7246,0.0186,-0.0023,-0.0396
11167,46.277252,-0.401117,82.29,33.06,3.216,208.1,13 / 19,1116710,2019-08-09 22:53:53:937,0.8028,-0.5619,9.8081,0.6896,-1.0657,9.7242,-0.0036,-0.0018,-0.0118
11168,46.277252,-0.401117,82.29,33.06,3.216,208.1,13 / 19,1116810,2019-08-09 22:53:54:037,0.6837,-0.362,9.8087,0.6923,-1.0684,9.7237,0.0089,0.0039,-0.0038
11169,46.277252,-0.401117,82.29,33.06,3.216,208.1,13 / 19,1116910,2019-08-09 22:53:54:137,0.9847,-1.7147,9.959,0.6977,-1.0668,9.7235,0.0087,-0.0002,-0.0092
11170,46.277252,-0.401117,82.29,33.06,3.216,208.1,13 / 19,1117010,2019-08-09 22:53:54:237,0.8004,-1.003,9.8135,0.7028,-1.0609,9.7237,-0.0031,0.0033,-0.0143
11171,46.277252,-0.401117,82.29,33.06,3.216,208.1,13 / 19,1117110,2019-08-09 22:53:54:337,0.716,-1.4214,9.3113,0.7056,-1.0573,9.7239,-0.0117,0.0099,-0.0261
11172,46.277252,-0.401117,82.29,33.06,3.216,208.1,13 / 19,1117210,2019-08-09 22:53:54:437,0.9841,-1.0521,9.8297,0.7239,-1.0654,9.7217,0.0164,0.0017,-0.0132
11173,46.277252,-0.401117,82.29,33.06,3.216,208.1,13 / 19,1117310,2019-08-09 22:53:54:537,1.1068,-0.9725,9.7219,0.7277,-1.0705,9.7209,-0.0147,-0.0061,-0.0234
11174,46.277252,-0.401117,82.29,33.06,3.216,208.1,13 / 19,1117410,2019-08-09 22:53:54:637,0.7639,-1.6632,9.4681,0.7335,-1.0594,9.7216,0.0206,0.0088,-0.0279
11175,46.277252,-0.401117,82.29,33.06,3.216,208.1,13 / 19,1117510,2019-08-09 22:53:54:737,1.2044,-0.6762,9.8297,0.746,-1.0806,9.7183,0.0021,0.0051,-0.0169
11176,46.27483,-0.403047,81.0,35.38,3.216,209.8,Dec-18,1117611,2019-08-09 22:53:54:838,1.1062,-1.2005,9.4304,0.7536,-1.066,9.7194,-0.0091,0.0031,-0.0249
11177,46.27483,-0.403047,81.0,35.38,3.216,209.8,Dec-18,1117710,2019-08-09 22:53:54:937,1.0667,-0.8743,9.692,0.762,-1.0699,9.7183,0.0078,0.0047,-0.0057
11178,46.27483,-0.403047,81.0,35.38,3.216,209.8,Dec-18,1117810,2019-08-09 22:53:55:037,0.9991,-1.1694,9.4418,0.7664,-1.0494,9.7202,-0.0157,-0.0049,-0.012
11179,46.27483,-0.403047,81.0,35.38,3.216,209.8,Dec-18,1117910,2019-08-09 22:53:55:137,0.6908,-0.9863,9.8057,0.7687,-1.0559,9.7193,0.0445,-0.0033,0.0033
11180,46.27483,-0.403047,81.0,35.38,3.216,209.8,Dec-18,1118010,2019-08-09 22:53:55:237,0.6478,-0.4948,10.0434,0.7605,-1.0495,9.7206,-0.0317,-0.0012,-0.0037
11181,46.27483,-0.403047,81.0,35.38,3.216,209.8,Dec-18,1118110,2019-08-09 22:53:55:337,0.8614,-1.7829,9.5687,0.7643,-1.0499,9.7203,0.0062,0.0078,-0.0044
11182,46.27483,-0.403047,81.0,35.38,3.216,209.8,Dec-18,1118210,2019-08-09 22:53:55:437,0.9237,-0.438,9.8626,0.7797,-1.0468,9.7194,0.0086,0.0059,-0.0209
11183,46.27483,-0.403047,81.0,35.38,3.216,209.8,Dec-18,1118311,2019-08-09 22:53:55:538,0.9638,-0.7959,9.9446,0.7829,-1.044,9.7194,0.0114,0.0039,-0.0117
11184,46.27483,-0.403047,81.0,35.38,3.216,209.8,Dec-18,1118411,2019-08-09 22:53:55:638,0.8165,-1.6548,9.5334,0.7907,-1.0357,9.7197,-0.0189,0.0115,-0.005
11185,46.27483,-0.403047,81.0,35.38,3.216,209.8,Dec-18,1118510,2019-08-09 22:53:55:737,0.9949,-1.0772,9.5657,0.7993,-1.0369,9.7189,-0.018,0.003,-0.0019
11186,46.27483,-0.403047,81.0,35.38,3.216,209.8,13 / 19,1118610,2019-08-09 22:53:55:837,0.9781,-0.1848,9.9973,0.8008,-1.0418,9.7182,0.0384,-0.0089,-0.0209
11187,46.27483,-0.403047,81.0,35.38,3.216,209.8,13 / 19,1118710,2019-08-09 22:53:55:937,0.5274,0.142,9.6716,0.7993,-1.0085,9.7219,0.0141,-0.0094,-0.0081
11188,46.27483,-0.403047,81.0,35.38,3.216,209.8,13 / 19,1118811,2019-08-09 22:53:56:038,0.7872,-0.9048,9.9853,0.7866,-1.0092,9.7228,-0.0104,-0.0013,-0.0136
11189,46.27483,-0.403047,81.0,35.38,3.216,209.8,13 / 19,1118911,2019-08-09 22:53:56:138,0.7028,-1.3597,9.4232,0.7889,-0.9939,9.7242,0.0205,-0.0019,0.0065
11190,46.27483,-0.403047,81.0,35.38,3.216,209.8,13 / 19,1119010,2019-08-09 22:53:56:237,0.713,-0.9785,9.6693,0.7808,-0.9921,9.725,0.0213,0.0078,-0.0108
11191,46.27483,-0.403047,81.0,35.38,3.216,209.8,13 / 19,1119110,2019-08-09 22:53:56:337,0.9967,-1.3149,9.4005,0.7848,-0.9906,9.7249,-0.0284,0.0056,-0.0227
11192,46.27483,-0.403047,81.0,35.38,3.216,209.8,13 / 19,1119210,2019-08-09 22:53:56:437,0.8668,-1.0132,9.4586,0.7997,-0.996,9.7231,0.0059,0.0068,-0.0185
11193,46.27483,-0.403047,81.0,35.38,3.216,209.8,13 / 19,1119310,2019-08-09 22:53:56:537,1.2152,-1.4789,9.9727,0.806,-0.9967,9.7225,0.029,0.0001,-0.024
11194,46.27483,-0.403047,81.0,35.38,3.216,209.8,13 / 19,1119410,2019-08-09 22:53:56:637,0.7639,-0.5571,9.8345,0.8089,-1.0008,9.7219,0.0096,-0.0006,-0.0051
11195,46.27483,-0.403047,81.0,35.38,3.216,209.8,13 / 19,1119510,2019-08-09 22:53:56:737,0.859,-0.353,9.6716,0.8133,-1.0137,9.7202,0.011,0.0034,-0.0267
11196,46.27483,-0.403047,81.0,35.38,3.216,209.8,13 / 19,1119610,2019-08-09 22:53:56:837,0.8961,-0.6319,9.5729,0.818,-1.0131,9.7198,0.0171,-0.0034,-0.0126
11197,46.27483,-0.403047,81.0,35.38,3.216,209.8,13 / 19,1119710,2019-08-09 22:53:56:937,1.0889,-0.1381,9.6711,0.8195,-0.9991,9.7211,-0.0163,-0.0004,-0.0106
11198,46.27483,-0.403047,81.0,35.38,3.216,209.8,13 / 19,1119810,2019-08-09 22:53:57:037,1.1481,-0.9043,10.1517,0.8231,-0.9968,9.7211,0.0221,-0.0034,-0.019
11199,46.27483,-0.403047,81.0,35.38,3.216,209.8,13 / 19,1119910,2019-08-09 22:53:57:137,0.8141,-1.3981,9.6124,0.826,-1.006,9.7199,-0.0071,-0.0029,0.0042
11200,46.27483,-0.403047,81.0,35.38,3.216,209.8,13 / 19,1120010,2019-08-09 22:53:57:237,0.8513,-1.4364,9.3855,0.8239,-1.0093,9.7197,-0.0251,0.0121,0.0025
11201,46.27483,-0.403047,81.0,35.38,3.216,209.8,13 / 19,1120110,2019-08-09 22:53:57:337,1.2122,-0.5852,9.6621,0.8366,-1.0079,9.7188,-0.0152,-0.003,-0.0121
11202,46.27483,-0.403047,81.0,35.38,3.216,209.8,13 / 19,1120210,2019-08-09 22:53:57:437,1.0302,-1.176,9.9224,0.8433,-0.9908,9.72,0.009,-0.0053,-0.0085
11203,46.27483,-0.403047,81.0,35.38,3.216,209.8,13 / 19,1120310,2019-08-09 22:53:57:537,1.1787,-1.2346,9.7201,0.8442,-0.9932,9.7196,0.002,0.0109,-0.0059
11204,46.27483,-0.403047,81.0,35.38,3.216,209.8,13 / 19,1120411,2019-08-09 22:53:57:638,1.5731,-0.8582,10.0739,0.8586,-0.9832,9.7194,0.0388,-0.0003,-0.0515
11205,46.27483,-0.403047,81.0,35.38,3.216,209.8,13 / 19,1120511,2019-08-09 22:53:57:738,0.9494,-0.4673,9.4286,0.8698,-0.9773,9.719,0.0229,0.0074,-0.0247
11206,46.27483,-0.403047,81.0,35.38,3.216,209.8,Dec-18,1120610,2019-08-09 22:53:57:837,1.5821,-0.5308,10.1385,0.876,-0.9867,9.7175,0.0109,-0.0007,-0.0315
11207,46.27483,-0.403047,81.0,35.38,3.216,209.8,Dec-18,1120710,2019-08-09 22:53:57:937,0.9991,-1.6871,9.3089,0.8837,-0.9619,9.7193,-0.0112,-0.0008,-0.016
11208,46.27483,-0.403047,81.0,35.38,3.216,209.8,Dec-18,1120811,2019-08-09 22:53:58:038,1.3175,-0.9108,9.7722,0.8864,-0.9771,9.7175,0.0018,0.0021,-0.0199
11209,46.27483,-0.403047,81.0,35.38,3.216,209.8,Dec-18,1120911,2019-08-09 22:53:58:138,0.9877,-0.7833,9.874,0.8909,-0.9804,9.7168,-0.0047,0.0008,-0.0018
11210,46.27483,-0.403047,81.0,35.38,3.216,209.8,Dec-18,1121011,2019-08-09 22:53:58:238,0.8231,-1.586,9.4424,0.8904,-0.9786,9.717,0.0088,0.0008,-0.0046
11211,46.27483,-0.403047,81.0,35.38,3.216,209.8,Dec-18,1121110,2019-08-09 22:53:58:337,1.3062,-1.0138,9.9153,0.9001,-0.9892,9.715,-0.0075,0.001,-0.0135
11212,46.27483,-0.403047,81.0,35.38,3.216,209.8,Dec-18,1121210,2019-08-09 22:53:58:437,1.3038,-1.1969,9.5783,0.9061,-0.9779,9.7156,-0.0119,0.0049,-0.0234
11213,46.27483,-0.403047,81.0,35.38,3.216,209.8,Dec-18,1121310,2019-08-09 22:53:58:537,1.3678,-0.5936,9.6926,0.9209,-0.9754,9.7145,-0.0023,0.0088,-0.0266
11214,46.27483,-0.403047,81.0,35.38,3.216,209.8,Dec-18,1121410,2019-08-09 22:53:58:637,1.5534,-0.2722,9.695,0.9344,-0.9747,9.7132,-0.0071,0.0005,-0.0316
11215,46.27483,-0.403047,81.0,35.38,3.216,209.8,Dec-18,1121510,2019-08-09 22:53:58:737,1.2786,-1.4884,9.5448,0.9462,-0.9743,9.7122,-0.0155,-0.0006,-0.0133
11216,46.27483,-0.403047,81.0,35.38,3.216,209.8,Dec-18,1121611,2019-08-09 22:53:58:838,1.2972,-0.7708,9.6681,0.9507,-0.9874,9.7104,0.0045,-0.0002,-0.0198
11217,46.27483,-0.403047,81.0,35.38,3.216,209.8,Dec-18,1121710,2019-08-09 22:53:58:937,1.1924,-1.0389,9.8835,0.9575,-0.9879,9.7097,0.009,-0.0055,-0.0038
11218,46.27483,-0.403047,81.0,35.38,3.216,209.8,Dec-18,1121811,2019-08-09 22:53:59:038,1.1398,-0.6786,9.8889,0.9516,-0.9814,9.7109,0.0102,-0.0132,-0.0063
11219,46.27483,-0.403047,81.0,35.38,3.216,209.8,Dec-18,1121911,2019-08-09 22:53:59:138,1.0236,-0.9138,9.8075,0.9401,-0.9788,9.7123,-0.0072,-0.0012,-0.0081
11220,46.27483,-0.403047,81.0,35.38,3.216,209.8,Dec-18,1122010,2019-08-09 22:53:59:237,0.9069,-1.5627,9.443,0.9419,-0.9717,9.7128,0.0168,0.0062,-0.0104
11221,46.27483,-0.403047,81.0,35.38,3.216,209.8,Dec-18,1122110,2019-08-09 22:53:59:337,0.9584,0.084,9.5878,0.9479,-0.9669,9.7127,0.0122,0.0047,-0.0099
11222,46.27483,-0.403047,81.0,35.38,3.216,209.8,Dec-18,1122211,2019-08-09 22:53:59:438,0.9644,-1.3753,9.6154,0.9506,-0.9711,9.712,-0.0053,0.004,-0.0155
11223,46.27483,-0.403047,81.0,35.38,3.216,209.8,Dec-18,1122310,2019-08-09 22:53:59:537,1.3151,-1.0904,9.8506,0.9543,-0.9828,9.7105,0.0106,-0.0017,-0.0034
11224,46.27483,-0.403047,81.0,35.38,3.216,209.8,Dec-18,1122410,2019-08-09 22:53:59:637,0.8596,-0.8959,9.7076,0.9547,-0.9728,9.7115,-0.01,0.0035,0.0026
11225,46.27483,-0.403047,81.0,35.38,3.216,209.8,Dec-18,1122510,2019-08-09 22:53:59:737,1.2697,-0.6044,9.9009,0.9535,-0.9848,9.7104,-0.0082,0.0009,0.0045
11226,46.27483,-0.403047,81.0,35.38,3.216,209.8,13 / 18,1122610,2019-08-09 22:53:59:837,0.9434,-0.4553,9.6992,0.9554,-0.9641,9.7123,-0.0131,0.0011,-0.0041
11227,46.27483,-0.403047,81.0,35.38,3.216,209.8,13 / 18,1122710,2019-08-09 22:53:59:937,0.8028,-0.341,9.4286,0.9531,-0.9678,9.7121,0.0239,-0.009,-0.0153
11228,46.27483,-0.403047,81.0,35.38,3.216,209.8,13 / 18,1122811,2019-08-09 22:54:00:038,0.7525,-1.9888,9.7267,0.946,-0.9632,9.7133,-0.0073,-0.0017,0.0069
11229,46.27483,-0.403047,81.0,35.38,3.216,209.8,13 / 18,1122911,2019-08-09 22:54:00:138,0.6681,0.0091,9.9978,0.9372,-0.9769,9.7128,0.0186,0.0046,0.0027
11230,46.27483,-0.403047,81.0,35.38,3.216,209.8,13 / 18,1123010,2019-08-09 22:54:00:237,0.8004,-1.8811,9.4963,0.9364,-0.9677,9.7138,-0.0235,0.0048,-0.0015
11231,46.27483,-0.403047,81.0,35.38,3.216,209.8,13 / 18,1123110,2019-08-09 22:54:00:337,0.8734,-1.17,9.8081,0.9381,-0.9693,9.7134,0.0474,-0.0004,-0.0209
11232,46.27483,-0.403047,81.0,35.38,3.216,209.8,13 / 18,1123210,2019-08-09 22:54:00:437,0.5358,-1.8506,9.4675,0.9309,-0.9686,9.7142,0.0022,0.001,0.0109
11233,46.27483,-0.403047,81.0,35.38,3.216,209.8,13 / 18,1123310,2019-08-09 22:54:00:537,0.6005,-1.908,9.4334,0.9272,-0.9622,9.7152,0.0145,0.0038,0.0013
11234,46.27483,-0.403047,81.0,35.38,3.216,209.8,13 / 18,1123410,2019-08-09 22:54:00:637,0.9201,-0.6134,9.9117,0.919,-0.9744,9.7147,-0.0127,-0.0022,-0.0077
11235,46.27483,-0.403047,81.0,35.38,3.216,209.8,13 / 18,1123510,2019-08-09 22:54:00:737,0.4335,-1.4262,9.7249,0.9063,-0.9816,9.7152,0.0056,-0.013,0.0114
11236,46.27483,-0.403047,81.0,35.38,3.216,209.8,Oct-16,1123611,2019-08-09 22:54:00:838,0.1839,-0.5661,9.5262,0.8871,-0.9749,9.7177,0.0354,-0.0037,-0.0065
11237,46.27483,-0.403047,81.0,35.38,3.216,209.8,Oct-16,1123711,2019-08-09 22:54:00:938,0.4778,-1.1544,9.7513,0.879,-0.9906,9.7168,-0.0193,-0.0055,0.0199
11238,46.27483,-0.403047,81.0,35.38,3.216,209.8,Oct-16,1123811,2019-08-09 22:54:01:038,0.209,-1.1233,9.5849,0.853,-0.9884,9.7194,-0.0005,-0.0025,0.0062
11239,46.27483,-0.403047,81.0,35.38,3.216,209.8,Oct-16,1123910,2019-08-09 22:54:01:137,0.2868,-1.6075,9.7207,0.8449,-0.9898,9.7199,0.0161,0.0037,-0.0038
11240,46.27483,-0.403047,81.0,35.38,3.216,209.8,Oct-16,1124010,2019-08-09 22:54:01:237,0.5807,-1.3023,9.8632,0.8443,-0.9988,9.7191,-0.0151,0.0124,0.028
11241,46.27483,-0.403047,81.0,35.38,3.216,209.8,Oct-16,1124110,2019-08-09 22:54:01:337,0.8273,-0.1992,9.7088,0.8435,-0.9942,9.7196,0.0027,0.0069,-0.0263
11242,46.27483,-0.403047,81.0,35.38,3.216,209.8,Oct-16,1124210,2019-08-09 22:54:01:437,0.5981,-1.2305,9.768,0.8422,-1.0127,9.7178,-0.0029,-0.0035,0.0031
11243,46.27483,-0.403047,81.0,35.38,3.216,209.8,Oct-16,1124311,2019-08-09 22:54:01:538,0.792,-1.1526,9.707,0.8408,-1.0143,9.7177,-0.0001,0.001,-0.0171
11244,46.27483,-0.403047,81.0,35.38,3.216,209.8,Oct-16,1124411,2019-08-09 22:54:01:638,1.047,-1.0641,9.5376,0.8429,-1.0038,9.7187,0.0047,0.0039,-0.0091
11245,46.27483,-0.403047,81.0,35.38,3.216,209.8,Oct-16,1124510,2019-08-09 22:54:01:737,0.8596,-0.3404,9.8147,0.8439,-1.01,9.7179,-0.0013,-0.0071,-0.0196
11246,46.27483,-0.403047,81.0,35.38,3.216,209.8,Dec-19,1124610,2019-08-09 22:54:01:837,0.719,-0.7899,9.9757,0.8453,-1.0103,9.7178,-0.0045,0.0017,0.0108
11247,46.27483,-0.403047,81.0,35.38,3.216,209.8,Dec-19,1124710,2019-08-09 22:54:01:937,0.8884,-1.3591,9.5232,0.8402,-1.0009,9.7192,0.0265,0.0021,-0.021
11248,46.27483,-0.403047,81.0,35.38,3.216,209.8,Dec-19,1124810,2019-08-09 22:54:02:037,0.9123,0.1187,9.7806,0.8461,-1.0062,9.7181,-0.0224,0.0042,0.0151
11249,46.27483,-0.403047,81.0,35.38,3.216,209.8,Dec-19,1124910,2019-08-09 22:54:02:137,0.9351,-0.6062,9.8285,0.847,-0.9984,9.7189,0.0077,-0.0013,-0.0148
11250,46.27483,-0.403047,81.0,35.38,3.216,209.8,Dec-19,1125011,2019-08-09 22:54:02:238,0.8842,0.5317,9.6836,0.8511,-0.9824,9.7201,-0.0072,0.0071,-0.0122
11251,46.27483,-0.403047,81.0,35.38,3.216,209.8,Dec-19,1125110,2019-08-09 22:54:02:337,1.2954,-1.3167,9.1707,0.852,-0.9973,9.7185,-0.0468,-0.0162,-0.0148
11252,46.27483,-0.403047,81.0,35.38,3.216,209.8,Dec-19,1125211,2019-08-09 22:54:02:438,0.282,-1.2831,10.5485,0.8436,-0.9855,9.7205,-0.0162,0.0171,0.0141
11253,46.27483,-0.403047,81.0,35.38,3.216,209.8,Dec-19,1125311,2019-08-09 22:54:02:538,0.6304,-0.3668,9.5376,0.8589,-0.9855,9.7191,0.0148,0.0096,-0.0482
11254,46.27483,-0.403047,81.0,35.38,3.216,209.8,Dec-19,1125410,2019-08-09 22:54:02:637,0.9303,-0.866,9.8171,0.8609,-1.002,9.7173,0.0188,-0.0126,-0.0053
11255,46.27483,-0.403047,81.0,35.38,3.216,209.8,Dec-19,1125510,2019-08-09 22:54:02:737,0.4879,-0.7726,9.7189,0.8584,-0.9993,9.7178,-0.0301,-0.0028,-0.0054
11256,46.27483,-0.403047,81.0,35.38,3.216,209.8,Dec-19,1125611,2019-08-09 22:54:02:838,0.8584,-0.9641,9.6471,0.8579,-0.9915,9.7186,-0.0009,0.0069,-0.0159
11257,46.27483,-0.403047,81.0,35.38,3.216,209.8,Dec-19,1125710,2019-08-09 22:54:02:937,0.813,-0.6457,9.5711,0.8597,-0.9981,9.7178,-0.0105,0.0021,0.0025
11258,46.27483,-0.403047,81.0,35.38,3.216,209.8,Dec-19,1125810,2019-08-09 22:54:03:037,0.8866,-0.7193,9.6106,0.8636,-0.9925,9.718,-0.0045,-0.0003,-0.0138
11259,46.27483,-0.403047,81.0,35.38,3.216,209.8,Dec-19,1125911,2019-08-09 22:54:03:138,0.9255,-1.1736,9.8931,0.8663,-0.987,9.7183,0.018,0.0057,-0.011
11260,46.27483,-0.403047,81.0,35.38,3.216,209.8,Dec-19,1126010,2019-08-09 22:54:03:237,0.9458,-1.2771,9.6698,0.8659,-0.9994,9.7171,-0.0129,0.0026,-0.0036
11261,46.27483,-0.403047,81.0,35.38,3.216,209.8,Dec-19,1126110,2019-08-09 22:54:03:337,0.8542,-1.3693,9.3861,0.8749,-0.9949,9.7168,0.0258,0.0074,-0.0124
11262,46.27483,-0.403047,81.0,35.38,3.216,209.8,Dec-19,1126211,2019-08-09 22:54:03:438,1.144,-0.2728,9.8614,0.886,-1.0115,9.714,-0.0036,0.004,-0.0032
11263,46.27483,-0.403047,81.0,35.38,3.216,209.8,Dec-19,1126310,2019-08-09 22:54:03:537,1.0871,-1.5872,9.9081,0.8852,-1.0168,9.7135,-0.009,0.0049,0.0004
11264,46.27483,-0.403047,81.0,35.38,3.216,209.8,Dec-19,1126411,2019-08-09 22:54:03:638,0.9393,-0.7947,9.5232,0.8915,-1.0122,9.7134,-0.0084,-0.0032,-0.0135
11265,46.27483,-0.403047,81.0,35.38,3.216,209.8,Dec-19,1126510,2019-08-09 22:54:03:737,0.9039,-0.8324,9.7249,0.8927,-1.0018,9.7144,-0.0108,-0.0013,0.0037
11266,46.272396,-0.405265,81.23,35.69,3.216,214.0,Nov-18,1126610,2019-08-09 22:54:03:837,0.7501,-0.9318,9.4849,0.8889,-1.0204,9.7128,-0.0219,0.0031,0.0046
11267,46.272396,-0.405265,81.23,35.69,3.216,214.0,Nov-18,1126710,2019-08-09 22:54:03:937,0.9979,-0.529,9.5148,0.8897,-1.0131,9.7135,0.0044,0.0059,-0.0203
11268,46.272396,-0.405265,81.23,35.69,3.216,214.0,Nov-18,1126811,2019-08-09 22:54:04:038,1.0931,-1.6057,9.6818,0.8966,-1.0261,9.7115,-0.0103,-0.003,-0.0123
11269,46.272396,-0.405265,81.23,35.69,3.216,214.0,Nov-18,1126910,2019-08-09 22:54:04:137,1.0476,0.4138,9.7123,0.896,-1.0327,9.7109,-0.0009,0.0058,-0.0185
11270,46.272396,-0.405265,81.23,35.69,3.216,214.0,Nov-18,1127010,2019-08-09 22:54:04:237,1.3499,-1.5878,9.9871,0.9048,-1.0371,9.7096,-0.0092,0.0029,-0.0167
11271,46.272396,-0.405265,81.23,35.69,3.216,214.0,Nov-18,1127110,2019-08-09 22:54:04:337,1.0811,-1.2891,9.4963,0.9118,-1.0301,9.7097,-0.0254,0.0057,-0.0059
11272,46.272396,-0.405265,81.23,35.69,3.216,214.0,Nov-18,1127211,2019-08-09 22:54:04:438,1.105,-2.1762,9.7531,0.9156,-1.0288,9.7095,0.0235,0.0094,-0.0132
11273,46.272396,-0.405265,81.23,35.69,3.216,214.0,Nov-18,1127310,2019-08-09 22:54:04:537,1.114,-1.6554,9.8811,0.9259,-1.0329,9.7081,-0.019,-0.0005,-0.0086
11274,46.272396,-0.405265,81.23,35.69,3.216,214.0,Nov-18,1127410,2019-08-09 22:54:04:637,1.1015,-0.6229,9.6345,0.9298,-1.0484,9.706,0.0078,-0.0004,-0.0183
11275,46.272396,-0.405265,81.23,35.69,3.216,214.0,Nov-18,1127510,2019-08-09 22:54:04:737,1.2104,-0.918,9.9763,0.9315,-1.0564,9.705,-0.0034,-0.0021,-0.0141
11276,46.272396,-0.405265,81.23,35.69,3.216,214.0,Dec-18,1127610,2019-08-09 22:54:04:837,1.126,-0.5134,9.4508,0.9313,-1.0376,9.707,-0.0187,-0.0026,-0.0243
11277,46.272396,-0.405265,81.23,35.69,3.216,214.0,Dec-18,1127711,2019-08-09 22:54:04:938,1.0667,0.2007,9.7854,0.9373,-1.0486,9.7053,-0.0013,0.0025,-0.0217
11278,46.272396,-0.405265,81.23,35.69,3.216,214.0,Dec-18,1127810,2019-08-09 22:54:05:037,0.9566,-1.3065,9.3574,0.9373,-1.0378,9.7064,-0.0027,0.0034,-0.0003
11279,46.272396,-0.405265,81.23,35.69,3.216,214.0,Dec-18,1127911,2019-08-09 22:54:05:138,1.3756,-0.5403,9.8081,0.9484,-1.0464,9.7044,-0.0062,0.0057,-0.0241
11280,46.272396,-0.405265,81.23,35.69,3.216,214.0,Dec-18,1128011,2019-08-09 22:54:05:238,1.1739,-1.5106,9.8907,0.9556,-1.0444,9.7039,0.0093,0.0026,-0.0061
11281,46.272396,-0.405265,81.23,35.69,3.216,214.0,Dec-18,1128110,2019-08-09 22:54:05:337,0.8171,-0.5038,9.4508,0.9604,-1.0308,9.7049,-0.0131,0.0124,-0.0117
11282,46.272396,-0.405265,81.23,35.69,3.216,214.0,Dec-18,1128211,2019-08-09 22:54:05:438,1.1422,-2.014,9.4903,0.9657,-1.0594,9.7013,-0.0259,-0.0094,0.0068
11283,46.272396,-0.405265,81.23,35.69,3.216,214.0,Dec-18,1128310,2019-08-09 22:54:05:537,1.0596,-1.2023,9.9368,0.9594,-1.0483,9.7031,0.023,-0.0136,-0.0011
11284,46.272396,-0.405265,81.23,35.69,3.216,214.0,Dec-18,1128410,2019-08-09 22:54:05:637,0.9464,-1.3053,9.9153,0.9496,-1.0599,9.7029,-0.0168,-0.0114,-0.0172
11285,46.272396,-0.405265,81.23,35.69,3.216,214.0,Dec-18,1128512,2019-08-09 22:54:05:739,0.8662,-0.8618,9.1503,0.9397,-1.0508,9.7048,-0.0163,0.003,-0.0015
11286,46.272396,-0.405265,81.23,35.69,3.216,214.0,Dec-19,1128610,2019-08-09 22:54:05:837,0.7752,-0.3249,9.5442,0.9396,-1.047,9.7052,-0.0025,0.0057,-0.0159
11287,46.272396,-0.405265,81.23,35.69,3.216,214.0,Dec-19,1128711,2019-08-09 22:54:05:938,0.9931,-1.738,9.7076,0.9441,-1.0408,9.7055,-0.001,0.0007,-0.0217
11288,46.272396,-0.405265,81.23,35.69,3.216,214.0,Dec-19,1128811,2019-08-09 22:54:06:038,1.0745,-1.4202,10.0858,0.9442,-1.0474,9.7047,0.028,-0.0004,-0.0059
11289,46.272396,-0.405265,81.23,35.69,3.216,214.0,Dec-19,1128911,2019-08-09 22:54:06:138,0.8914,-1.3891,9.4975,0.9442,-1.067,9.7026,0.0004,0.0051,-0.0059
11290,46.272396,-0.405265,81.23,35.69,3.216,214.0,Dec-19,1129011,2019-08-09 22:54:06:238,0.9261,-0.0537,9.9141,0.943,-1.0553,9.704,0.0365,0.0078,-0.0133
11291,46.272396,-0.405265,81.23,35.69,3.216,214.0,Dec-19,1129110,2019-08-09 22:54:06:337,1.1805,-1.7015,9.8195,0.9451,-1.0635,9.7029,0.0003,-0.0085,-0.0126
11292,46.272396,-0.405265,81.23,35.69,3.216,214.0,Dec-19,1129212,2019-08-09 22:54:06:439,0.7345,0.1253,9.6196,0.9437,-1.0404,9.7055,-0.0004,0.0013,-0.022
11293,46.272396,-0.405265,81.23,35.69,3.216,214.0,Dec-19,1129310,2019-08-09 22:54:06:537,1.2702,-1.0311,9.8315,0.9393,-1.0561,9.7043,0.0238,-0.0019,0.0008
11294,46.272396,-0.405265,81.23,35.69,3.216,214.0,Dec-19,1129410,2019-08-09 22:54:06:637,0.6394,-1.0287,9.2718,0.9372,-1.0475,9.7054,-0.0443,-0.0022,0.0074
11295,46.272396,-0.405265,81.23,35.69,3.216,214.0,Dec-19,1129511,2019-08-09 22:54:06:738,0.9087,-0.0926,9.5148,0.9453,-1.0275,9.7068,0.0102,0.0056,-0.019
11296,46.272396,-0.405265,81.23,35.69,3.216,214.0,Dec-19,1129610,2019-08-09 22:54:06:837,1.0296,-1.2909,9.8147,0.9447,-1.036,9.7059,0.0052,-0.0017,-0.0051
11297,46.272396,-0.405265,81.23,35.69,3.216,214.0,Dec-19,1129711,2019-08-09 22:54:06:938,0.9716,0.3395,9.8734,0.941,-1.0379,9.7061,0.015,0.0007,-0.0063
11298,46.272396,-0.405265,81.23,35.69,3.216,214.0,Dec-19,1129811,2019-08-09 22:54:07:038,1.0171,-1.103,9.7112,0.9405,-1.0174,9.7083,0.018,-0.005,-0.0106
11299,46.272396,-0.405265,81.23,35.69,3.216,214.0,Dec-19,1129910,2019-08-09 22:54:07:137,0.7519,-0.4236,9.6698,0.9389,-1.0213,9.708,-0.01,-0.0016,0.0046
11300,46.272396,-0.405265,81.23,35.69,3.216,214.0,Dec-19,1130011,2019-08-09 22:54:07:238,1.0123,-1.3137,9.7824,0.9335,-1.0107,9.7097,-0.0059,-0.0002,0.0018
11301,46.272396,-0.405265,81.23,35.69,3.216,214.0,Dec-19,1130110,2019-08-09 22:54:07:337,0.7166,0.0534,9.7297,0.9329,-1.0022,9.7106,-0.016,0.0014,0.0002
11302,46.272396,-0.405265,81.23,35.69,3.216,214.0,Dec-19,1130210,2019-08-09 22:54:07:437,0.9895,-0.8977,10.026,0.9272,-0.9981,9.7116,0.0228,0.0013,-0.0215
11303,46.272396,-0.405265,81.23,35.69,3.216,214.0,Dec-19,1130311,2019-08-09 22:54:07:538,0.9231,-0.8055,9.8518,0.9254,-0.9817,9.7134,0.0123,-0.0059,-0.0104
11304,46.272396,-0.405265,81.23,35.69,3.216,214.0,Dec-19,1130410,2019-08-09 22:54:07:637,0.6891,-1.1754,9.8865,0.9165,-0.9655,9.7159,0.0058,-0.0037,-0.0002
11305,46.272396,-0.405265,81.23,35.69,3.216,214.0,Dec-19,1130510,2019-08-09 22:54:07:737,0.637,-0.7025,9.7267,0.9046,-0.9684,9.7167,-0.0086,-0.0085,0.0006
11306,46.272396,-0.405265,81.23,35.69,3.216,214.0,Dec-17,1130610,2019-08-09 22:54:07:837,0.6501,0.1929,9.464,0.8914,-0.9483,9.7199,-0.0113,-0.0014,-0.0025
11307,46.272396,-0.405265,81.23,35.69,3.216,214.0,Dec-17,1130710,2019-08-09 22:54:07:937,0.6268,-0.4913,9.8338,0.8878,-0.9564,9.7194,0.0088,-0.0007,-0.0041
11308,46.272396,-0.405265,81.23,35.69,3.216,214.0,Dec-17,1130810,2019-08-09 22:54:08:037,0.9303,-0.4164,9.9907,0.8842,-0.9495,9.7204,-0.0163,0.0078,-0.0033
11309,46.272396,-0.405265,81.23,35.69,3.216,214.0,Dec-17,1130910,2019-08-09 22:54:08:137,1.129,-0.9294,9.8775,0.8866,-0.942,9.721,0.0221,0.0059,-0.0231
11310,46.272396,-0.405265,81.23,35.69,3.216,214.0,Dec-17,1131011,2019-08-09 22:54:08:238,1.062,-1.4765,9.7399,0.8963,-0.9439,9.7199,0.0112,0.0035,-0.0193
11311,46.272396,-0.405265,81.23,35.69,3.216,214.0,Dec-17,1131111,2019-08-09 22:54:08:338,0.9512,-0.3709,9.622,0.8991,-0.9349,9.7205,-0.0029,0.0067,-0.0061
11312,46.272396,-0.405265,81.23,35.69,3.216,214.0,Dec-17,1131210,2019-08-09 22:54:08:437,0.7028,-1.3262,9.543,0.9011,-0.9391,9.7199,0.0113,0.0005,-0.015
11313,46.272396,-0.405265,81.23,35.69,3.216,214.0,Dec-17,1131310,2019-08-09 22:54:08:537,0.7806,-0.1836,9.7052,0.9018,-0.9243,9.7213,0.0327,-0.0057,-0.0123
11314,46.272396,-0.405265,81.23,35.69,3.216,214.0,Dec-17,1131411,2019-08-09 22:54:08:638,0.4658,-0.4733,9.7022,0.8889,-0.929,9.722,-0.0272,-0.006,0.0115
11315,46.272396,-0.405265,81.23,35.69,3.216,214.0,Dec-17,1131511,2019-08-09 22:54:08:738,0.6514,-0.0854,9.5896,0.8868,-0.9344,9.7217,0.0007,0.0077,0.0006
11316,46.272396,-0.405265,81.23,35.69,3.216,214.0,Dec-19,1131610,2019-08-09 22:54:08:837,0.6184,-1.0719,9.3718,0.8867,-0.9199,9.7231,-0.0018,0.0065,-0.002
11317,46.272396,-0.405265,81.23,35.69,3.216,214.0,Dec-19,1131710,2019-08-09 22:54:08:937,0.807,-1.1443,9.4514,0.8864,-0.9158,9.7235,-0.0018,0.0065,-0.002
11318,46.272396,-0.405265,81.23,35.69,3.216,214.0,Dec-19,1131810,2019-08-09 22:54:09:037,0.9261,-0.8151,9.8536,0.8782,-0.9244,9.7234,-0.0004,-0.0098,-0.0095
11319,46.272396,-0.405265,81.23,35.69,3.216,214.0,Dec-19,1131911,2019-08-09 22:54:09:138,0.449,-1.1305,9.5489,0.8742,-0.9068,9.7254,-0.009,0.0097,0.0109
11320,46.272396,-0.405265,81.23,35.69,3.216,214.0,Dec-19,1132011,2019-08-09 22:54:09:238,0.6717,-0.9066,9.5914,0.8751,-0.904,9.7256,0.0407,-0.0032,-0.0102
11321,46.272396,-0.405265,81.23,35.69,3.216,214.0,Dec-19,1132110,2019-08-09 22:54:09:337,0.6346,-0.7516,9.7848,0.8681,-0.912,9.7255,-0.0358,-0.0112,0.003
11322,46.272396,-0.405265,81.23,35.69,3.216,214.0,Dec-19,1132210,2019-08-09 22:54:09:437,0.5765,-0.198,9.3514,0.8581,-0.8917,9.7283,0.0078,0.0012,-0.0033
11323,46.272396,-0.405265,81.23,35.69,3.216,214.0,Dec-19,1132310,2019-08-09 22:54:09:537,0.4957,-0.1716,9.9811,0.8583,-0.9078,9.7267,-0.0173,0.003,0.0027
11324,46.272396,-0.405265,81.23,35.69,3.216,214.0,Dec-19,1132410,2019-08-09 22:54:09:637,0.54,-0.8755,9.8165,0.848,-0.8937,9.729,-0.0236,0.0042,0.0043
11325,46.272396,-0.405265,81.23,35.69,3.216,214.0,Dec-19,1132511,2019-08-09 22:54:09:738,0.6531,-0.4254,9.4598,0.8475,-0.9008,9.7283,-0.0063,0.0038,-0.0082
11326,46.272396,-0.405265,81.23,35.69,3.216,214.0,13 / 19,1132610,2019-08-09 22:54:09:837,0.6573,-0.5786,9.7746,0.8495,-0.8767,9.7304,-0.0213,0.0038,0.0043
11327,46.272396,-0.405265,81.23,35.69,3.216,214.0,13 / 19,1132711,2019-08-09 22:54:09:938,0.7453,-1.416,10.0733,0.8471,-0.8933,9.7291,0.0168,0.0017,-0.0108
11328,46.272396,-0.405265,81.23,35.69,3.216,214.0,13 / 19,1132810,2019-08-09 22:54:10:037,0.7076,-0.8983,9.85,0.8394,-0.886,9.7304,0.023,-0.0057,-0.0152
11329,46.272396,-0.405265,81.23,35.69,3.216,214.0,13 / 19,1132910,2019-08-09 22:54:10:137,0.452,-0.9054,9.9063,0.8417,-0.8831,9.7305,-0.0139,0.0023,0.01
11330,46.272396,-0.405265,81.23,35.69,3.216,214.0,13 / 19,1133010,2019-08-09 22:54:10:237,0.6346,0.0834,9.5436,0.8386,-0.8804,9.731,-0.0009,0.0034,-0.0152
11331,46.272396,-0.405265,81.23,35.69,3.216,214.0,13 / 19,1133111,2019-08-09 22:54:10:338,0.6843,-0.2147,9.8129,0.8401,-0.8771,9.7312,-0.0041,0.0084,-0.0004
11332,46.272396,-0.405265,81.23,35.69,3.216,214.0,13 / 19,1133210,2019-08-09 22:54:10:437,0.8291,-0.7241,9.783,0.8464,-0.8622,9.7319,-0.0122,0.0058,-0.0024
11333,46.272396,-0.405265,81.23,35.69,3.216,214.0,13 / 19,1133310,2019-08-09 22:54:10:537,0.9584,0.0115,9.8386,0.8424,-0.8707,9.7315,0.0137,-0.0041,-0.0176
11334,46.272396,-0.405265,81.23,35.69,3.216,214.0,13 / 19,1133410,2019-08-09 22:54:10:637,0.88,-1.0174,10.0134,0.8409,-0.8568,9.7329,0.0345,-0.0022,-0.013
11335,46.272396,-0.405265,81.23,35.69,3.216,214.0,13 / 19,1133510,2019-08-09 22:54:10:737,0.7094,-0.7887,9.4699,0.844,-0.8614,9.7322,0.0043,0.0088,-0.0009
11336,46.272396,-0.405265,81.23,35.69,3.216,214.0,13 / 19,1133610,2019-08-09 22:54:10:837,0.7854,-1.0252,9.5573,0.8478,-0.8516,9.7327,-0.0006,0.0098,-0.0004
11337,46.272396,-0.405265,81.23,35.69,3.216,214.0,13 / 19,1133710,2019-08-09 22:54:10:937,0.9225,-1.1568,9.4771,0.8542,-0.8436,9.7329,0.0247,0.0037,-0.0061
11338,46.272396,-0.405265,81.23,35.69,3.216,214.0,13 / 19,1133810,2019-08-09 22:54:11:037,0.9129,-0.5056,9.9045,0.8565,-0.8588,9.7314,0.016,-0.0035,0.0
11339,46.272396,-0.405265,81.23,35.69,3.216,214.0,13 / 19,1133911,2019-08-09 22:54:11:138,0.8357,-1.1748,9.8434,0.8543,-0.8474,9.7326,0.0106,0.0019,-0.0033
11340,46.272396,-0.405265,81.23,35.69,3.216,214.0,13 / 19,1134011,2019-08-09 22:54:11:238,0.7555,-0.684,9.5184,0.8564,-0.8444,9.7326,-0.0197,0.0061,-0.0042
11341,46.272396,-0.405265,81.23,35.69,3.216,214.0,13 / 19,1134110,2019-08-09 22:54:11:337,0.8028,-1.0982,9.5058,0.8609,-0.8412,9.7325,0.0214,0.0058,0.0023
11342,46.272396,-0.405265,81.23,35.69,3.216,214.0,13 / 19,1134210,2019-08-09 22:54:11:437,0.7375,-0.9072,9.7513,0.8618,-0.8398,9.7325,-0.004,-0.0055,-0.0074
11343,46.272396,-0.405265,81.23,35.69,3.216,214.0,13 / 19,1134310,2019-08-09 22:54:11:537,0.7902,-1.3148,9.2227,0.8573,-0.8242,9.7343,-0.014,-0.0013,0.0025
11344,46.272396,-0.405265,81.23,35.69,3.216,214.0,13 / 19,1134410,2019-08-09 22:54:11:637,0.8369,-1.1275,9.9476,0.8513,-0.8384,9.7336,0.0195,-0.0037,0.0014
11345,46.272396,-0.405265,81.23,35.69,3.216,214.0,13 / 19,1134510,2019-08-09 22:54:11:737,0.8417,-0.8354,10.0565,0.8368,-0.8361,9.735,0.0074,-0.0092,0.0003
11346,46.272396,-0.405265,81.23,35.69,3.216,214.0,Dec-16,1134611,2019-08-09 22:54:11:838,0.643,-1.5681,9.4424,0.8325,-0.8336,9.7356,-0.0149,0.001,-0.0016
11347,46.272396,-0.405265,81.23,35.69,3.216,214.0,Dec-16,1134711,2019-08-09 22:54:11:938,0.6735,-0.9198,9.3568,0.8303,-0.8275,9.7363,0.016,0.0061,-0.018
11348,46.272396,-0.405265,81.23,35.69,3.216,214.0,Dec-16,1134811,2019-08-09 22:54:12:038,0.7645,-0.6169,9.4987,0.8325,-0.8344,9.7356,0.0014,-0.0006,0.0133
11349,46.272396,-0.405265,81.23,35.69,3.216,214.0,Dec-16,1134910,2019-08-09 22:54:12:137,0.5759,-0.1908,9.7159,0.8275,-0.8211,9.7371,0.0027,-0.0058,-0.0089
11350,46.272396,-0.405265,81.23,35.69,3.216,214.0,Dec-16,1135010,2019-08-09 22:54:12:237,0.9021,0.1247,9.8704,0.8202,-0.8268,9.7373,0.0136,-0.0028,0.0094
11351,46.272396,-0.405265,81.23,35.69,3.216,214.0,Dec-16,1135113,2019-08-09 22:54:12:340,0.8608,-0.933,9.4077,0.8094,-0.8326,9.7377,-0.0086,-0.008,-0.0112
11352,46.272396,-0.405265,81.23,35.69,3.216,214.0,Dec-16,1135210,2019-08-09 22:54:12:437,0.883,-1.0252,9.9996,0.8068,-0.8339,9.7378,0.0175,-0.008,-0.0119
11353,46.272396,-0.405265,81.23,35.69,3.216,214.0,Dec-16,1135310,2019-08-09 22:54:12:537,0.6938,-0.2967,10.002,0.8053,-0.8448,9.7369,-0.025,0.0148,0.0063
11354,46.272396,-0.405265,81.23,35.69,3.216,214.0,Dec-16,1135412,2019-08-09 22:54:12:639,0.7591,-1.6405,9.3784,0.8119,-0.8303,9.7376,-0.0011,0.019,-0.012
11355,46.272396,-0.405265,81.23,35.69,3.216,214.0,Dec-16,1135510,2019-08-09 22:54:12:737,1.1667,-0.502,9.7872,0.8247,-0.8345,9.7362,0.0204,-0.0023,-0.0054
11356,46.27008,-0.407705,84.58,34.68,3.216,217.2,14 / 19,1135610,2019-08-09 22:54:12:837,0.971,-0.8611,9.7848,0.8219,-0.8318,9.7367,-0.0152,-0.019,-0.0047
11357,46.27008,-0.407705,84.58,34.68,3.216,217.2,14 / 19,1135711,2019-08-09 22:54:12:938,0.8064,-1.3633,9.6495,0.8093,-0.8269,9.7382,0.0027,-0.0061,-0.0096
11358,46.27008,-0.407705,84.58,34.68,3.216,217.2,14 / 19,1135810,2019-08-09 22:54:13:037,0.6783,-0.3727,9.6112,0.8076,-0.8287,9.7381,-0.0186,0.0008,0.0037
11359,46.27008,-0.407705,84.58,34.68,3.216,217.2,14 / 19,1135910,2019-08-09 22:54:13:137,0.6388,-0.4745,9.786,0.8007,-0.8216,9.7393,0.0094,-0.0006,-0.0108
11360,46.27008,-0.407705,84.58,34.68,3.216,217.2,14 / 19,1136010,2019-08-09 22:54:13:237,0.9183,-0.5918,9.7638,0.8034,-0.8297,9.7384,-0.0024,-0.0005,-0.0148
11361,46.27008,-0.407705,84.58,34.68,3.216,217.2,14 / 19,1136110,2019-08-09 22:54:13:337,0.9135,-0.2728,9.777,0.8064,-0.8276,9.7383,0.0033,-0.0037,-0.012
11362,46.27008,-0.407705,84.58,34.68,3.216,217.2,14 / 19,1136210,2019-08-09 22:54:13:437,0.859,-0.3757,10.1511,0.8045,-0.848,9.7367,0.0311,-0.0037,-0.0184
11363,46.27008,-0.407705,84.58,34.68,3.216,217.2,14 / 19,1136310,2019-08-09 22:54:13:537,0.9369,-0.5888,9.5633,0.806,-0.8385,9.7374,-0.0003,0.0042,-0.0139
11364,46.27008,-0.407705,84.58,34.68,3.216,217.2,14 / 19,1136411,2019-08-09 22:54:13:638,1.0386,-0.7337,9.5424,0.8128,-0.8294,9.7377,-0.0039,0.0055,-0.0163
11365,46.27008,-0.407705,84.58,34.68,3.216,217.2,14 / 19,1136515,2019-08-09 22:54:13:742,0.9458,-1.2568,9.6573,0.8239,-0.8366,9.7361,0.0328,0.0023,-0.009
11366,46.27008,-0.407705,84.58,34.68,3.216,217.2,14 / 19,1136610,2019-08-09 22:54:13:837,1.2834,-1.4812,9.8572,0.8212,-0.843,9.7358,0.0078,-0.0112,-0.0257
11367,46.27008,-0.407705,84.58,34.68,3.216,217.2,14 / 19,1136710,2019-08-09 22:54:13:937,0.7609,-1.1934,9.8177,0.8159,-0.8458,9.736,0.0109,-0.0032,-0.0018
11368,46.27008,-0.407705,84.58,34.68,3.216,217.2,14 / 19,1136811,2019-08-09 22:54:14:038,0.9674,-1.6566,9.7375,0.8154,-0.8346,9.737,-0.0154,-0.0022,0.0082
11369,46.27008,-0.407705,84.58,34.68,3.216,217.2,14 / 19,1136910,2019-08-09 22:54:14:137,0.5687,0.0319,9.7674,0.8181,-0.8325,9.7369,0.0003,-0.0012,0.0034
11370,46.27008,-0.407705,84.58,34.68,3.216,217.2,14 / 19,1137010,2019-08-09 22:54:14:237,0.5987,-1.1485,9.5466,0.8083,-0.8498,9.7363,0.0107,-0.0042,-0.0138
11371,46.27008,-0.407705,84.58,34.68,3.216,217.2,14 / 19,1137110,2019-08-09 22:54:14:337,0.5658,-0.5421,9.9338,0.8071,-0.8556,9.7359,0.0069,0.0011,0.0079
11372,46.27008,-0.407705,84.58,34.68,3.216,217.2,14 / 19,1137210,2019-08-09 22:54:14:437,0.6537,-1.1515,9.6824,0.8135,-0.84,9.7367,-0.0199,0.0142,0.0002
11373,46.27008,-0.407705,84.58,34.68,3.216,217.2,14 / 19,1137310,2019-08-09 22:54:14:537,0.944,-1.2586,9.6597,0.815,-0.8402,9.7365,0.0343,0.0031,-0.0067
11374,46.27008,-0.407705,84.58,34.68,3.216,217.2,14 / 19,1137411,2019-08-09 22:54:14:638,0.9207,-1.1958,9.7896,0.803,-0.8605,9.7358,0.0,-0.007,0.0081
11375,46.27008,-0.407705,84.58,34.68,3.216,217.2,14 / 19,1137511,2019-08-09 22:54:14:738,0.9542,-2.6676,9.6818,0.8028,-0.8668,9.7352,0.0198,-0.0013,-0.0092
11376,46.27008,-0.407705,84.58,34.68,3.216,217.2,Nov-15,1137610,2019-08-09 22:54:14:837,0.6597,-1.5327,9.3383,0.798,-0.8403,9.7379,-0.0261,-0.009,-0.0031
11377,46.27008,-0.407705,84.58,34.68,3.216,217.2,Nov-15,1137710,2019-08-09 22:54:14:937,0.4664,-1.1437,9.7644,0.7941,-0.8587,9.7367,0.004,0.0047,0.0078
11378,46.27008,-0.407705,84.58,34.68,3.216,217.2,Nov-15,1137810,2019-08-09 22:54:15:037,0.6214,-1.8117,9.5322,0.8007,-0.8439,9.7374,-0.025,0.0136,0.0117
11379,46.27008,-0.407705,84.58,34.68,3.216,217.2,Nov-15,1137910,2019-08-09 22:54:15:137,0.7962,-0.7732,9.428,0.8047,-0.8249,9.7387,-0.0086,0.0024,0.0
11380,46.27008,-0.407705,84.58,34.68,3.216,217.2,Nov-15,1138010,2019-08-09 22:54:15:237,0.8375,-0.6403,9.4574,0.7961,-0.8063,9.741,0.0208,-0.011,-0.0132
11381,46.27008,-0.407705,84.58,34.68,3.216,217.2,Nov-15,1138110,2019-08-09 22:54:15:337,0.9117,-0.8204,10.0044,0.7853,-0.8306,9.7398,0.0197,-0.0127,-0.0112
11382,46.27008,-0.407705,84.58,34.68,3.216,217.2,Nov-15,1138210,2019-08-09 22:54:15:437,0.5005,-2.1492,9.7728,0.771,-0.8498,9.7393,0.005,-0.0175,-0.0018
11383,46.27008,-0.407705,84.58,34.68,3.216,217.2,Nov-15,1138310,2019-08-09 22:54:15:537,0.9686,-0.3901,9.947,0.7775,-0.833,9.7402,0.0261,0.0129,-0.0231
11384,46.27008,-0.407705,84.58,34.68,3.216,217.2,Nov-15,1138410,2019-08-09 22:54:15:637,0.6226,-1.0533,9.592,0.7854,-0.8388,9.7391,0.0038,-0.0022,-0.0036
11385,46.27008,-0.407705,84.58,34.68,3.216,217.2,Nov-15,1138511,2019-08-09 22:54:15:738,0.8112,-1.4854,9.5926,0.7844,-0.8324,9.7397,0.0038,-0.0039,-0.0078
11386,46.27008,-0.407705,84.58,34.68,3.216,217.2,15 / 19,1138610,2019-08-09 22:54:15:837,0.6579,-0.5762,9.9961,0.7755,-0.8489,9.739,0.0214,-0.0046,0.0138
11387,46.27008,-0.407705,84.58,34.68,3.216,217.2,15 / 19,1138710,2019-08-09 22:54:15:937,0.5592,-0.3781,9.9985,0.7708,-0.8579,9.7386,0.0097,-0.0071,-0.0027
11388,46.27008,-0.407705,84.58,34.68,3.216,217.2,15 / 19,1138811,2019-08-09 22:54:16:038,0.2348,-0.9695,9.3371,0.7734,-0.841,9.7399,-0.0033,0.0098,-0.0192
11389,46.27008,-0.407705,84.58,34.68,3.216,217.2,15 / 19,1138911,2019-08-09 22:54:16:138,0.8136,0.0043,9.4957,0.7767,-0.8422,9.7395,-0.0295,0.0122,0.0057
11390,46.27008,-0.407705,84.58,34.68,3.216,217.2,15 / 19,1139010,2019-08-09 22:54:16:237,0.5646,-0.0046,9.8452,0.7738,-0.846,9.7394,0.0113,-0.0097,-0.0212
11391,46.27008,-0.407705,84.58,34.68,3.216,217.2,15 / 19,1139110,2019-08-09 22:54:16:337,0.4969,0.0618,9.5208,0.7758,-0.8359,9.7401,-0.009,0.0058,0.0073
11392,46.27008,-0.407705,84.58,34.68,3.216,217.2,15 / 19,1139210,2019-08-09 22:54:16:437,0.4628,0.4676,9.4502,0.7718,-0.8314,9.7408,-0.0133,-0.0057,-0.0016
11393,46.27008,-0.407705,84.58,34.68,3.216,217.2,15 / 19,1139310,2019-08-09 22:54:16:537,0.7621,-1.9044,10.1846,0.7638,-0.866,9.7384,-0.0065,0.0011,0.0161
11394,46.27008,-0.407705,84.58,34.68,3.216,217.2,15 / 19,1139410,2019-08-09 22:54:16:637,0.4323,-1.9918,9.6501,0.7604,-0.8286,9.7419,-0.0202,0.0056,-0.0039
11395,46.27008,-0.407705,84.58,34.68,3.216,217.2,15 / 19,1139510,2019-08-09 22:54:16:737,0.8836,-0.5762,10.0218,0.7654,-0.867,9.7382,-0.0195,-0.0082,0.0049
11396,46.27008,-0.407705,84.58,34.68,3.216,217.2,15 / 19,1139611,2019-08-09 22:54:16:838,0.4628,-1.568,9.6531,0.7537,-0.849,9.7407,0.0087,-0.004,-0.0175
11397,46.27008,-0.407705,84.58,34.68,3.216,217.2,15 / 19,1139711,2019-08-09 22:54:16:938,0.8381,-1.4813,9.8398,0.7601,-0.8535,9.7398,0.0139,0.0123,-0.0014
11398,46.27008,-0.407705,84.58,34.68,3.216,217.2,15 / 19,1139810,2019-08-09 22:54:17:037,0.6501,-0.499,9.628,0.7716,-0.8447,9.7397,-0.0095,0.0063,-0.0035
11399,46.27008,-0.407705,84.58,34.68,3.216,217.2,15 / 19,1139911,2019-08-09 22:54:17:138,1.0105,-1.3358,9.8572,0.7711,-0.8581,9.7386,0.0195,0.0054,-0.0217
11400,46.27008,-0.407705,84.58,34.68,3.216,217.2,15 / 19,1140010,2019-08-09 22:54:17:237,1.1649,-1.911,9.6345,0.7805,-0.8389,9.7395,0.0095,0.0198,-0.0011
11401,46.27008,-0.407705,84.58,34.68,3.216,217.2,15 / 19,1140110,2019-08-09 22:54:17:337,1.5097,-1.5519,10.0194,0.788,-0.8453,9.7383,0.0429,0.0073,-0.0382
11402,46.27008,-0.407705,84.58,34.68,3.216,217.2,15 / 19,1140210,2019-08-09 22:54:17:437,0.9057,-0.3805,9.8063,0.8011,-0.8673,9.7353,0.0105,0.012,-0.0097
11403,46.27008,-0.407705,84.58,34.68,3.216,217.2,15 / 19,1140311,2019-08-09 22:54:17:538,0.953,-1.0683,9.3843,0.8254,-0.8462,9.7351,0.0,0.016,-0.0226
11404,46.27008,-0.407705,84.58,34.68,3.216,217.2,15 / 19,1140411,2019-08-09 22:54:17:638,1.0386,0.5891,9.4286,0.8349,-0.8537,9.7337,0.0077,0.0051,-0.0042
11405,46.27008,-0.407705,84.58,34.68,3.216,217.2,15 / 19,1140510,2019-08-09 22:54:17:737,1.2732,-0.9132,9.4687,0.8468,-0.8584,9.7322,-0.0076,0.0045,0.0034
11406,46.27008,-0.407705,84.58,34.68,3.216,217.2,14 / 19,1140610,2019-08-09 22:54:17:837,1.0973,-1.516,9.6728,0.8488,-0.8367,9.734,-0.0009,-0.0046,-0.0153
11407,46.27008,-0.407705,84.58,34.68,3.216,217.2,14 / 19,1140710,2019-08-09 22:54:17:937,1.3295,0.1468,9.8339,0.8541,-0.8576,9.7317,0.0236,-0.0113,-0.029
11408,46.27008,-0.407705,84.58,34.68,3.216,217.2,14 / 19,1140810,2019-08-09 22:54:18:037,0.8255,-0.11,9.261,0.8577,-0.8365,9.7332,-0.0068,0.0001,-0.0003
11409,46.27008,-0.407705,84.58,34.68,3.216,217.2,14 / 19,1140910,2019-08-09 22:54:18:137,1.1003,-0.8773,9.5453,0.8609,-0.8624,9.7306,0.0304,-0.0003,-0.0286
11410,46.27008,-0.407705,84.58,34.68,3.216,217.2,14 / 19,1141010,2019-08-09 22:54:18:237,1.0272,0.3731,10.0763,0.8635,-0.8639,9.7303,-0.0095,0.002,0.0009
11411,46.27008,-0.407705,84.58,34.68,3.216,217.2,14 / 19,1141110,2019-08-09 22:54:18:337,0.4855,0.6771,8.2184,0.8717,-0.8322,9.7323,-0.0524,0.0137,-0.0195
11412,46.27008,-0.407705,84.58,34.68,3.216,217.2,14 / 19,1141211,2019-08-09 22:54:18:438,1.4791,1.5247,9.777,0.8905,-0.838,9.7301,0.0473,0.0017,-0.0047
11413,46.27008,-0.407705,84.58,34.68,3.216,217.2,14 / 19,1141311,2019-08-09 22:54:18:538,1.2373,0.3784,10.3827,0.898,-0.8626,9.7273,0.025,-0.0086,-0.0304
11414,46.27008,-0.407705,84.58,34.68,3.216,217.2,14 / 19,1141411,2019-08-09 22:54:18:638,1.2182,-1.7925,11.0232,0.8912,-0.9137,9.7232,0.0427,-0.0138,-0.0118
11415,46.27008,-0.407705,84.58,34.68,3.216,217.2,14 / 19,1141510,2019-08-09 22:54:18:737,0.6681,-2.1271,9.8261,0.8869,-0.9209,9.723,-0.0443,0.0074,0.0129
11416,46.27008,-0.407705,84.58,34.68,3.216,217.2,14 / 19,1141610,2019-08-09 22:54:18:837,0.9015,-0.8731,8.3387,0.8994,-0.8791,9.7257,-0.0446,-0.0076,-0.0103
11417,46.27008,-0.407705,84.58,34.68,3.216,217.2,14 / 19,1141710,2019-08-09 22:54:18:937,1.0326,-1.1987,8.8385,0.8757,-0.8251,9.7326,0.0354,-0.0288,-0.0085
11418,46.27008,-0.407705,84.58,34.68,3.216,217.2,14 / 19,1141810,2019-08-09 22:54:19:037,0.5849,-1.9242,9.4209,0.8644,-0.8542,9.7311,-0.0294,-0.0285,0.0033
11419,46.27008,-0.407705,84.58,34.68,3.216,217.2,14 / 19,1141910,2019-08-09 22:54:19:137,0.1342,-0.4739,10.008,0.8273,-0.8577,9.734,0.0162,-0.0119,-0.0215
11420,46.27008,-0.407705,84.58,34.68,3.216,217.2,14 / 19,1142010,2019-08-09 22:54:19:237,0.4239,-1.2466,9.4843,0.8224,-0.8969,9.7309,-0.0236,0.0063,0.0063
11421,46.27008,-0.407705,84.58,34.68,3.216,217.2,14 / 19,1142110,2019-08-09 22:54:19:337,1.1619,-1.9685,10.3947,0.8206,-0.8807,9.7325,-0.0314,0.0078,0.0281
