,GPS LATITUDE (degrees),GPS LONGITUDE (degrees), GPS ALTITUDE (m),GPS SPEED (Kmh),GPS ACCURACY (m),GPS ORIENTATION (Â°), SATELLITES IN RANGE, TIME SINCE START (ms), DATE (YYYY-MO-DD HH-MI-SS_SSS),ACCELEROMETER X (m/s²) , ACCELEROMETER Y (m/s²), ACCELEROMETER Z (m/s²), GRAVITY X (m/s²), GRAVITY Y (m/s²), GRAVITY Z (m/s²), GYROSCOPE Yaw (rad/s), GYROSCOPE Pitch (rad/s), GYROSCOPE Roll (rad/s)
16483,46.429314,-0.516398,109.46,35.37,9.648001,83.9,13 / 17,1648245,2019-08-18 22:47:17:778,-0.443,0.0446,9.8092,-0.4612,0.27,9.7921,0.0028,-0.003,-0.0096
16484,46.429314,-0.516398,109.46,35.37,9.648001,83.9,13 / 17,1648345,2019-08-18 22:47:17:878,-0.5945,0.2397,9.5105,-0.4631,0.2573,9.7923,0.0007,0.0013,-0.0096
16485,46.429314,-0.516398,109.46,35.37,9.648001,83.9,13 / 17,1648446,2019-08-18 22:47:17:979,-0.4802,-0.3954,9.6889,-0.4631,0.2514,9.7925,0.0113,-0.0051,-0.0106
16486,46.429314,-0.516398,109.46,35.37,9.648001,83.9,13 / 17,1648546,2019-08-18 22:47:18:079,-0.5687,0.1254,9.6972,-0.4718,0.2009,9.7932,0.006,0.0045,-0.0085
16487,46.429314,-0.516398,109.46,35.37,9.648001,83.9,13 / 17,1648646,2019-08-18 22:47:18:179,-0.4413,0.2211,9.699,-0.4787,0.1627,9.7936,-0.0046,-0.0019,-0.0085
16488,46.429314,-0.516398,109.46,35.37,9.648001,83.9,13 / 17,1648745,2019-08-18 22:47:18:278,-0.4407,0.2888,10.1689,-0.4804,0.1462,9.7938,0.0156,-0.003,-0.0074
16489,46.429314,-0.516398,109.46,35.37,9.648001,83.9,13 / 17,1648846,2019-08-18 22:47:18:379,-0.7842,0.2223,9.9953,-0.4836,0.14,9.7937,0.0135,0.0087,-0.0053
16490,46.429314,-0.516398,109.46,35.37,9.648001,83.9,13 / 17,1648946,2019-08-18 22:47:18:479,-0.3832,-0.0357,9.2495,-0.494,0.1412,9.7932,0.0049,0.0098,-0.0074
16491,46.429314,-0.516398,109.46,35.37,9.648001,83.9,13 / 17,1649045,2019-08-18 22:47:18:578,-0.1348,-0.2703,9.3686,-0.4944,0.1442,9.7931,0.0028,-0.0019,-0.0064
16492,46.429314,-0.516398,109.46,35.37,9.648001,83.9,13 / 17,1649146,2019-08-18 22:47:18:679,-0.5131,0.4127,9.7038,-0.4912,0.1495,9.7932,0.0007,-0.0062,-0.0011
16493,46.429314,-0.516398,109.46,35.37,9.648001,83.9,13 / 17,1649245,2019-08-18 22:47:18:778,-0.561,0.2271,9.6003,-0.4876,0.1611,9.7932,0.0177,-0.0062,0.0011
16494,46.429314,-0.516398,109.46,35.37,9.648001,83.9,13 / 17,1649345,2019-08-18 22:47:18:878,-0.4347,0.2636,9.3381,-0.506,0.2036,9.7915,0.0039,-0.0051,0.0053
16495,46.429314,-0.516398,109.46,35.37,9.648001,83.9,13 / 17,1649446,2019-08-18 22:47:18:979,-0.1091,0.3211,9.5033,-0.5112,0.21,9.7911,-0.0036,0.0045,0.0032
16496,46.429314,-0.516398,109.46,35.37,9.648001,83.9,13 / 17,1649546,2019-08-18 22:47:19:079,-0.7238,0.5192,9.6829,-0.5123,0.2102,9.791,-0.0132,-0.0019,0.0011
16497,46.429314,-0.516398,109.46,35.37,9.648001,83.9,13 / 17,1649646,2019-08-18 22:47:19:179,-0.5292,0.6168,10.0199,-0.5136,0.2234,9.7906,0.0039,-0.003,0.0043
16498,46.429314,-0.516398,109.46,35.37,9.648001,83.9,13 / 17,1649745,2019-08-18 22:47:19:278,-0.2198,0.3349,9.8565,-0.5076,0.275,9.7896,0.0018,0.0002,0.0043
16499,46.429314,-0.516398,109.46,35.37,9.648001,83.9,13 / 17,1649846,2019-08-18 22:47:19:379,-0.4311,0.5222,9.4189,-0.505,0.326,9.7882,-0.0036,0.0013,0.0064
16500,46.429314,-0.516398,109.46,35.37,9.648001,83.9,13 / 17,1649946,2019-08-18 22:47:19:479,-0.3102,0.2822,10.1515,-0.4823,0.391,9.787,0.0039,-0.003,0.0075
16501,46.429314,-0.516398,109.46,35.37,9.648001,83.9,13 / 17,1650046,2019-08-18 22:47:19:579,-0.5771,0.6269,9.2471,-0.4794,0.4758,9.7834,0.0124,0.0098,0.0128
16502,46.429314,-0.516398,109.46,35.37,9.648001,83.9,13 / 17,1650145,2019-08-18 22:47:19:678,-0.3401,0.6521,9.5446,-0.481,0.4924,9.7825,0.0049,0.0013,0.0139
16503,46.429314,-0.516398,109.46,35.37,9.648001,83.9,13 / 17,1650245,2019-08-18 22:47:19:778,-0.3263,0.9166,9.5608,-0.4716,0.543,9.7802,0.0145,-0.0019,0.0128
16504,46.429314,-0.516398,109.46,35.37,9.648001,83.9,13 / 17,1650346,2019-08-18 22:47:19:879,-0.358,0.8436,9.6458,-0.4607,0.5865,9.7783,0.0081,-0.0062,0.0117
16505,46.429314,-0.516398,109.46,35.37,9.648001,83.9,13 / 17,1650445,2019-08-18 22:47:19:978,-0.2228,1.0914,9.8966,-0.4438,0.6321,9.7762,0.0028,0.0002,0.0085
16506,46.429314,-0.516398,109.46,35.37,9.648001,83.9,13 / 17,1650545,2019-08-18 22:47:20:078,-0.3586,1.2913,9.8211,-0.4177,0.6434,9.7766,-0.0153,0.0002,0.0011
16507,46.429314,-0.516398,109.46,35.37,9.648001,83.9,13 / 17,1650645,2019-08-18 22:47:20:178,-0.0911,0.2205,10.1246,-0.3924,0.6299,9.7785,-0.0121,0.0002,-0.0011
16508,46.429314,-0.516398,109.46,35.37,9.648001,83.9,13 / 17,1650746,2019-08-18 22:47:20:279,-0.2336,0.4941,9.8553,-0.3899,0.6171,9.7794,-0.0078,0.0002,-0.0011
16509,46.429314,-0.516398,109.46,35.37,9.648001,83.9,13 / 17,1650845,2019-08-18 22:47:20:378,-0.3724,0.2511,9.6565,-0.374,0.5944,9.7815,-0.01,-0.0083,-0.0011
16510,46.429314,-0.516398,109.46,35.37,9.648001,83.9,13 / 17,1650946,2019-08-18 22:47:20:479,-0.2946,0.3295,9.3633,-0.3709,0.5809,9.7824,-0.0036,0.0013,-0.0032
16511,46.429314,-0.516398,109.46,35.37,9.648001,83.9,13 / 17,1651045,2019-08-18 22:47:20:578,-0.2946,0.351,9.2052,-0.3721,0.5745,9.7827,0.0081,0.0087,-0.0021
16512,46.429314,-0.516398,109.46,35.37,9.648001,83.9,13 / 17,1651145,2019-08-18 22:47:20:678,-0.5352,0.4073,10.024,-0.3648,0.5636,9.7836,-0.0014,-0.0051,-0.0032
16513,46.429314,-0.516398,109.46,35.37,9.648001,83.9,13 / 17,1651245,2019-08-18 22:47:20:778,-0.3712,0.7251,9.3662,-0.3514,0.5511,9.7848,-0.0014,-0.0051,-0.0032
16514,46.429314,-0.516398,109.46,35.37,9.648001,83.9,13 / 17,1651346,2019-08-18 22:47:20:879,-0.2808,0.6413,10.2162,-0.3469,0.5372,9.7858,-0.01,0.0045,-0.0032
16515,46.42963,-0.508773,111.4,34.63,9.648001,88.7,Nov-17,1651446,2019-08-18 22:47:20:979,-0.1755,0.3875,9.9947,-0.3317,0.509,9.7878,-0.0004,0.0023,-0.0011
16516,46.42963,-0.508773,111.4,34.63,9.648001,88.7,Nov-17,1651546,2019-08-18 22:47:21:079,-0.0863,0.3588,10.3024,-0.314,0.487,9.7895,-0.0036,-0.0009,0.0
16517,46.42963,-0.508773,111.4,34.63,9.648001,88.7,Nov-17,1651646,2019-08-18 22:47:21:179,-0.2246,0.1768,10.1378,-0.2889,0.4635,9.7914,0.0018,-0.0051,0.0
16518,46.42963,-0.508773,111.4,34.63,9.648001,88.7,Nov-17,1651746,2019-08-18 22:47:21:279,-0.0444,0.3869,9.3525,-0.2851,0.4556,9.7919,0.0028,0.0045,-0.0011
16519,46.42963,-0.508773,111.4,34.63,9.648001,88.7,Nov-17,1651846,2019-08-18 22:47:21:379,-0.1845,0.3929,9.2256,-0.2955,0.4507,9.7918,-0.0004,0.0076,0.0
16520,46.42963,-0.508773,111.4,34.63,9.648001,88.7,Nov-17,1651946,2019-08-18 22:47:21:479,-0.1803,0.2576,9.2519,-0.2999,0.4565,9.7914,0.0156,0.0045,-0.0011
16521,46.42963,-0.508773,111.4,34.63,9.648001,88.7,Nov-17,1652046,2019-08-18 22:47:21:579,-0.3251,0.6144,9.9103,-0.3178,0.4198,9.7925,-0.0057,-0.0009,0.0011
16522,46.42963,-0.508773,111.4,34.63,9.648001,88.7,Nov-17,1652145,2019-08-18 22:47:21:678,-0.4514,0.7724,9.6996,-0.3163,0.4126,9.7929,-0.0078,-0.003,-0.0021
16523,46.42963,-0.508773,111.4,34.63,9.648001,88.7,Nov-17,1652245,2019-08-18 22:47:21:778,-0.376,0.4462,10.1228,-0.3155,0.4117,9.7929,0.0007,-0.0019,-0.0042
16524,46.42963,-0.508773,111.4,34.63,9.648001,88.7,Nov-17,1652345,2019-08-18 22:47:21:878,-0.3203,-0.0015,10.1527,-0.3162,0.4084,9.793,-0.0004,0.0002,-0.0032
16525,46.42963,-0.508773,111.4,34.63,9.648001,88.7,Nov-17,1652446,2019-08-18 22:47:21:979,-0.4556,0.4001,10.218,-0.3243,0.3841,9.7938,-0.0068,0.0013,-0.0032
16526,46.42963,-0.508773,111.4,34.63,9.648001,88.7,Nov-17,1652546,2019-08-18 22:47:22:079,-0.3269,0.2295,9.638,-0.336,0.388,9.7932,0.0124,0.0023,-0.0032
16527,46.42963,-0.508773,111.4,34.63,9.648001,88.7,Nov-17,1652645,2019-08-18 22:47:22:178,-0.2695,0.0511,9.5458,-0.3463,0.3639,9.7938,-0.0004,0.0045,-0.0021
16528,46.42963,-0.508773,111.4,34.63,9.648001,88.7,Nov-17,1652745,2019-08-18 22:47:22:278,-0.3126,0.2086,9.6871,-0.3442,0.36,9.794,0.0018,-0.003,-0.0032
16529,46.42963,-0.508773,111.4,34.63,9.648001,88.7,Nov-17,1652846,2019-08-18 22:47:22:379,-0.3413,0.688,9.9444,-0.3345,0.3342,9.7952,0.0039,-0.0062,-0.0032
16530,46.42963,-0.508773,111.4,34.63,9.648001,88.7,Nov-17,1652946,2019-08-18 22:47:22:479,-0.4053,0.4037,9.7493,-0.3236,0.3149,9.7963,0.0018,-0.003,-0.0021
16531,46.42963,-0.508773,111.4,34.63,9.648001,88.7,Nov-17,1653046,2019-08-18 22:47:22:579,-0.2042,0.0296,9.7379,-0.3163,0.3124,9.7966,-0.0132,0.0002,-0.0021
16532,46.42963,-0.508773,111.4,34.63,9.648001,88.7,Nov-17,1653146,2019-08-18 22:47:22:679,-0.0007,0.1254,9.4704,-0.2944,0.3019,9.7976,0.0049,-0.0009,-0.0011
16533,46.42963,-0.508773,111.4,34.63,9.648001,88.7,Nov-17,1653246,2019-08-18 22:47:22:779,-0.3527,-0.1159,9.9834,-0.2855,0.3414,9.7965,0.0156,-0.003,0.0
16534,46.42963,-0.508773,111.4,34.63,9.648001,88.7,Nov-17,1653346,2019-08-18 22:47:22:879,-0.5867,-0.0213,9.5452,-0.2728,0.3297,9.7973,0.0028,-0.0062,0.0
16535,46.42963,-0.508773,111.4,34.63,9.648001,88.7,Nov-17,1653445,2019-08-18 22:47:22:978,-0.1252,0.2864,9.7086,-0.2692,0.3356,9.7972,0.0092,-0.0041,0.0
16536,46.42963,-0.508773,111.4,34.63,9.648001,88.7,Nov-17,1653545,2019-08-18 22:47:23:078,-0.1474,0.3923,9.4979,-0.2696,0.3417,9.797,-0.0014,0.0066,0.0032
16537,46.42963,-0.508773,111.4,34.63,9.648001,88.7,Nov-17,1653645,2019-08-18 22:47:23:178,-0.1898,0.6335,9.5416,-0.2697,0.3345,9.7972,-0.0174,0.0045,0.0053
16538,46.42963,-0.508773,111.4,34.63,9.648001,88.7,Nov-17,1653746,2019-08-18 22:47:23:279,-0.2431,0.5802,10.0845,-0.253,0.3654,9.7966,0.0071,-0.003,0.0053
16539,46.42963,-0.508773,111.4,34.63,9.648001,88.7,Nov-17,1653845,2019-08-18 22:47:23:378,-0.2371,0.5222,9.6254,-0.2472,0.3743,9.7964,0.0018,-0.0041,0.0064
16540,46.42963,-0.508773,111.4,34.63,9.648001,88.7,Nov-17,1653945,2019-08-18 22:47:23:478,-0.063,0.418,9.6015,-0.2228,0.4188,9.7952,-0.0004,0.0002,0.0075
16541,46.42963,-0.508773,111.4,34.63,9.648001,88.7,Nov-17,1654046,2019-08-18 22:47:23:579,-0.2078,0.3887,9.9373,-0.2129,0.4509,9.794,-0.0036,-0.0009,0.0053
16542,46.42963,-0.508773,111.4,34.63,9.648001,88.7,Nov-17,1654146,2019-08-18 22:47:23:679,-0.0324,0.5156,9.1927,-0.2133,0.4775,9.7927,0.006,0.0076,0.0053
16543,46.42963,-0.508773,111.4,34.63,9.648001,88.7,Nov-17,1654245,2019-08-18 22:47:23:778,0.1884,1.0064,10.2192,-0.2096,0.4881,9.7923,-0.0046,-0.0062,0.0053
16544,46.42963,-0.508773,111.4,34.63,9.648001,88.7,Nov-17,1654345,2019-08-18 22:47:23:878,-0.1138,0.846,10.0049,-0.1973,0.4875,9.7925,-0.0068,-0.0073,0.0043
16545,46.42963,-0.508773,111.4,34.63,9.648001,88.7,Nov-17,1654445,2019-08-18 22:47:23:978,0.0747,0.6114,10.1414,-0.1937,0.4916,9.7924,0.0018,-0.003,0.0032
16546,46.42963,-0.508773,111.4,34.63,9.648001,88.7,Nov-17,1654545,2019-08-18 22:47:24:078,-0.2377,0.4683,10.0935,-0.1558,0.5209,9.7916,0.0039,0.0076,0.0032
16547,46.42963,-0.508773,111.4,34.63,9.648001,88.7,Nov-17,1654645,2019-08-18 22:47:24:178,-0.364,0.8759,9.2669,-0.1572,0.5268,9.7912,-0.0014,0.0002,0.0053
16548,46.42963,-0.508773,111.4,34.63,9.648001,88.7,Nov-17,1654745,2019-08-18 22:47:24:278,-0.1294,0.7473,9.2908,-0.1619,0.5354,9.7907,-0.0132,0.0045,0.0043
16549,46.42963,-0.508773,111.4,34.63,9.648001,88.7,Nov-17,1654845,2019-08-18 22:47:24:378,-0.0223,0.7018,9.9456,-0.1651,0.5434,9.7902,-0.0014,0.0055,0.0
16550,46.42963,-0.508773,111.4,34.63,9.648001,88.7,Nov-17,1654945,2019-08-18 22:47:24:478,-0.3221,0.515,9.1268,-0.1968,0.5218,9.7908,0.0007,-0.0105,0.0011
16551,46.42963,-0.508773,111.4,34.63,9.648001,88.7,Nov-17,1655045,2019-08-18 22:47:24:578,0.0179,0.3307,9.7314,-0.1942,0.5188,9.791,0.0018,0.0013,0.0
16552,46.42963,-0.508773,111.4,34.63,9.648001,88.7,Nov-17,1655145,2019-08-18 22:47:24:678,-0.2826,0.2876,9.8804,-0.2032,0.5072,9.7914,-0.0014,0.0076,-0.0021
16553,46.42963,-0.508773,111.4,34.63,9.648001,88.7,Nov-17,1655245,2019-08-18 22:47:24:778,-0.1552,0.3007,9.6242,-0.1922,0.4736,9.7933,-0.0132,-0.0051,-0.0021
16554,46.42963,-0.508773,111.4,34.63,9.648001,88.7,Nov-17,1655345,2019-08-18 22:47:24:878,-0.2527,0.19,9.4872,-0.1775,0.4505,9.7947,0.0028,-0.003,-0.0021
16555,46.42963,-0.508773,111.4,34.63,9.648001,88.7,Nov-17,1655445,2019-08-18 22:47:24:978,-0.0163,0.3522,9.6787,-0.1652,0.4028,9.797,0.0049,-0.0051,-0.0011
16556,46.42963,-0.508773,111.4,34.63,9.648001,88.7,Nov-17,1655546,2019-08-18 22:47:25:079,0.1621,0.5485,9.8666,-0.1466,0.3834,9.7981,0.006,-0.0009,-0.0011
16557,46.42963,-0.508773,111.4,34.63,9.648001,88.7,Nov-17,1655645,2019-08-18 22:47:25:178,-0.2449,0.4965,9.9061,-0.1439,0.3947,9.7976,0.0113,0.0045,0.0
16558,46.42963,-0.508773,111.4,34.63,9.648001,88.7,Nov-17,1655745,2019-08-18 22:47:25:278,-0.4185,0.342,9.6111,-0.1418,0.3868,9.798,-0.0004,0.0045,0.0
16559,46.42963,-0.508773,111.4,34.63,9.648001,88.7,Nov-17,1655846,2019-08-18 22:47:25:379,-0.1803,0.2816,8.6312,-0.127,0.3856,9.7982,-0.0036,0.0013,-0.0032
16560,46.42963,-0.508773,111.4,34.63,9.648001,88.7,Nov-17,1655946,2019-08-18 22:47:25:479,0.1735,0.1248,9.6936,-0.1183,0.3858,9.7983,-0.0046,-0.003,-0.0032
16561,46.42963,-0.508773,111.4,34.63,9.648001,88.7,Nov-17,1656046,2019-08-18 22:47:25:579,-0.1815,0.3462,10.2294,-0.1185,0.3847,9.7984,0.0039,0.0023,-0.0032
16562,46.42963,-0.508773,111.4,34.63,9.648001,88.7,Nov-17,1656146,2019-08-18 22:47:25:679,-0.2862,0.4246,10.2407,-0.1259,0.378,9.7986,0.0028,0.0076,-0.0032
16563,46.42963,-0.508773,111.4,34.63,9.648001,88.7,Nov-17,1656245,2019-08-18 22:47:25:778,-0.1468,0.3235,9.9229,-0.126,0.3792,9.7985,0.0071,-0.0009,-0.0032
16564,46.42963,-0.508773,111.4,34.63,9.648001,88.7,Nov-17,1656346,2019-08-18 22:47:25:879,-0.3598,0.2391,9.8912,-0.1376,0.3512,9.7994,0.0049,-0.003,-0.0042
16565,46.42963,-0.508773,111.4,34.63,9.648001,88.7,Nov-17,1656446,2019-08-18 22:47:25:979,-0.3712,0.2014,9.3429,-0.1427,0.3326,9.8,-0.0068,-0.0019,-0.0053
16566,46.42963,-0.508773,111.4,34.63,9.648001,88.7,Nov-17,1656546,2019-08-18 22:47:26:079,-0.1737,0.3606,9.7715,-0.1495,0.3137,9.8005,-0.0025,0.0055,-0.0032
16567,46.42963,-0.508773,111.4,34.63,9.648001,88.7,Nov-17,1656646,2019-08-18 22:47:26:179,-0.2162,0.2361,9.8325,-0.1477,0.3136,9.8005,0.0028,-0.0009,-0.0032
16568,46.42963,-0.508773,111.4,34.63,9.648001,88.7,Nov-17,1656746,2019-08-18 22:47:26:279,-0.2282,0.3055,10.1426,-0.1605,0.3089,9.8005,-0.0057,0.0045,-0.0053
16569,46.42963,-0.508773,111.4,34.63,9.648001,88.7,Nov-17,1656845,2019-08-18 22:47:26:378,-0.728,0.0864,10.1031,-0.1724,0.2978,9.8006,-0.0057,0.0076,-0.0064
16570,46.42963,-0.508773,111.4,34.63,9.648001,88.7,Nov-17,1656946,2019-08-18 22:47:26:479,-0.2689,0.0972,9.1705,-0.191,0.2868,9.8006,-0.0068,0.0055,-0.0064
16571,46.42963,-0.508773,111.4,34.63,9.648001,88.7,Nov-17,1657046,2019-08-18 22:47:26:579,-0.1929,0.2295,8.6582,-0.2091,0.2902,9.8001,0.0092,0.0034,-0.0053
16572,46.42963,-0.508773,111.4,34.63,9.648001,88.7,Nov-17,1657146,2019-08-18 22:47:26:679,-0.3054,0.4258,9.7715,-0.2174,0.2829,9.8002,-0.0089,-0.0051,-0.0042
16573,46.42963,-0.508773,111.4,34.63,9.648001,88.7,Nov-17,1657246,2019-08-18 22:47:26:779,-0.3209,0.1894,8.9592,-0.2594,0.2637,9.7997,-0.0089,-0.0009,-0.0053
16574,46.42963,-0.508773,111.4,34.63,9.648001,88.7,Nov-17,1657345,2019-08-18 22:47:26:878,-0.0923,0.0703,9.3339,-0.2725,0.2595,9.7994,0.006,-0.0019,-0.0064
16575,46.42963,-0.508773,111.4,34.63,9.648001,88.7,Nov-17,1657445,2019-08-18 22:47:26:978,-0.6765,-0.0141,10.3945,-0.2885,0.2685,9.7987,0.0209,0.0034,-0.0074
16576,46.42963,-0.508773,111.4,34.63,9.648001,88.7,Nov-17,1657545,2019-08-18 22:47:27:078,-0.8453,0.014,9.3243,-0.3094,0.2679,9.7981,0.0007,0.0066,-0.0064
16577,46.42963,-0.508773,111.4,34.63,9.648001,88.7,Nov-17,1657646,2019-08-18 22:47:27:179,-0.7399,0.1026,9.1017,-0.34,0.258,9.7974,-0.0025,0.0023,-0.0085
16578,46.42963,-0.508773,111.4,34.63,9.648001,88.7,Nov-17,1657746,2019-08-18 22:47:27:279,-0.6412,0.3366,10.0767,-0.4028,0.2292,9.7957,-0.0046,-0.0009,-0.0085
16579,46.42963,-0.508773,111.4,34.63,9.648001,88.7,Nov-17,1657846,2019-08-18 22:47:27:379,-0.5675,0.0841,9.9361,-0.5087,0.1894,9.7916,-0.0057,0.0013,-0.0085
16580,46.42963,-0.508773,111.4,34.63,9.648001,88.7,Nov-17,1657945,2019-08-18 22:47:27:478,-0.6082,-0.0608,10.0636,-0.5273,0.1788,9.7908,0.0007,-0.0019,-0.0042
16581,46.42963,-0.508773,111.4,34.63,9.648001,88.7,Nov-17,1658045,2019-08-18 22:47:27:578,-1.0188,-0.162,8.8641,-0.554,0.1747,9.7894,-0.0036,0.0076,-0.0021
16582,46.42963,-0.508773,111.4,34.63,9.648001,88.7,Nov-17,1658146,2019-08-18 22:47:27:679,-1.0332,0.293,9.5955,-0.5663,0.1805,9.7886,0.006,0.0013,0.0022
16583,46.42963,-0.508773,111.4,34.63,9.648001,88.7,Nov-17,1658246,2019-08-18 22:47:27:779,-1.0757,0.3594,9.0245,-0.5767,0.1946,9.7877,0.0092,-0.0041,0.0053
16584,46.42963,-0.508773,111.4,34.63,9.648001,88.7,Nov-17,1658345,2019-08-18 22:47:27:878,-0.7136,0.4935,10.3916,-0.5835,0.2136,9.7869,0.0156,-0.0009,0.0043
16585,46.42963,-0.508773,111.4,34.63,9.648001,88.7,Nov-17,1658446,2019-08-18 22:47:27:979,-0.853,0.4797,9.7284,-0.5929,0.2223,9.7862,0.0018,0.0002,0.0022
16586,46.42963,-0.508773,111.4,34.63,9.648001,88.7,Nov-17,1658545,2019-08-18 22:47:28:078,-0.6358,0.1864,10.212,-0.6055,0.2376,9.7851,0.0018,-0.0009,0.0011
16587,46.42963,-0.508773,111.4,34.63,9.648001,88.7,Nov-17,1658645,2019-08-18 22:47:28:178,-1.0727,0.5737,10.1575,-0.6067,0.2478,9.7847,-0.0046,-0.0062,0.0011
16588,46.42963,-0.508773,111.4,34.63,9.648001,88.7,Nov-17,1658746,2019-08-18 22:47:28:279,-0.5029,0.6479,9.5129,-0.6252,0.2936,9.7823,-0.011,-0.0009,0.0032
16589,46.42963,-0.508773,111.4,34.63,9.648001,88.7,Nov-17,1658845,2019-08-18 22:47:28:378,-0.6879,0.8053,9.5967,-0.6318,0.3273,9.7808,-0.0014,-0.0062,0.0043
16590,46.42963,-0.508773,111.4,34.63,9.648001,88.7,Nov-17,1658946,2019-08-18 22:47:28:479,-0.3676,0.594,9.8648,-0.6435,0.354,9.7791,0.0018,0.0002,0.0032
16591,46.42963,-0.508773,111.4,34.63,9.648001,88.7,Nov-17,1659046,2019-08-18 22:47:28:579,-0.5083,0.5282,9.978,-0.6284,0.3945,9.7785,-0.0046,0.0013,0.0011
16592,46.42963,-0.508773,111.4,34.63,9.648001,88.7,Nov-17,1659145,2019-08-18 22:47:28:678,-0.443,0.3995,9.5775,-0.6217,0.4192,9.7779,-0.0014,-0.0073,0.0022
16593,46.42963,-0.508773,111.4,34.63,9.648001,88.7,Nov-17,1659246,2019-08-18 22:47:28:779,-0.3527,0.5749,9.5416,-0.5628,0.4339,9.7809,-0.0089,-0.0019,0.0043
16594,46.42963,-0.508773,111.4,34.63,9.648001,88.7,Nov-17,1659345,2019-08-18 22:47:28:878,-0.5658,0.4522,10.1982,-0.5601,0.4333,9.781,-0.0057,-0.0009,0.0032
16595,46.42963,-0.508773,111.4,34.63,9.648001,88.7,Nov-17,1659446,2019-08-18 22:47:28:979,-0.1497,0.2301,9.875,-0.5521,0.4281,9.7817,-0.0164,0.0002,0.0
16596,46.42963,-0.508773,111.4,34.63,9.648001,88.7,Nov-17,1659546,2019-08-18 22:47:29:079,-0.3527,0.2816,9.6116,-0.5518,0.4212,9.782,-0.0057,0.0034,-0.0053
16597,46.42963,-0.508773,111.4,34.63,9.648001,88.7,Nov-17,1659645,2019-08-18 22:47:29:178,-0.3964,0.6491,10.4293,-0.5456,0.4133,9.7827,-0.0078,0.0002,-0.0021
16598,46.42963,-0.508773,111.4,34.63,9.648001,88.7,Nov-17,1659746,2019-08-18 22:47:29:279,-0.3395,0.0511,10.0276,-0.5435,0.4001,9.7834,-0.0078,0.0045,-0.0021
16599,46.42963,-0.508773,111.4,34.63,9.648001,88.7,Nov-17,1659845,2019-08-18 22:47:29:378,-0.5819,-0.0321,10.4496,-0.5138,0.3577,9.7866,0.0028,0.0055,-0.0011
16600,46.42963,-0.508773,111.4,34.63,9.648001,88.7,Nov-17,1659945,2019-08-18 22:47:29:478,-0.6873,0.2516,9.708,-0.5106,0.356,9.7869,0.006,0.0013,-0.0011
16601,46.42963,-0.508773,111.4,34.63,9.648001,88.7,Nov-17,1660046,2019-08-18 22:47:29:579,-0.4059,0.5264,9.3968,-0.477,0.3286,9.7895,-0.0014,-0.0062,-0.0021
16602,46.42963,-0.508773,111.4,34.63,9.648001,88.7,Nov-17,1660146,2019-08-18 22:47:29:679,-0.3084,0.7431,9.6254,-0.4731,0.3192,9.79,-0.01,0.0013,-0.0032
16603,46.42963,-0.508773,111.4,34.63,9.648001,88.7,Nov-17,1660245,2019-08-18 22:47:29:778,-0.4496,0.2499,10.1839,-0.4608,0.3182,9.7906,-0.0014,-0.0105,0.0
16604,46.42963,-0.508773,111.4,34.63,9.648001,88.7,Nov-17,1660345,2019-08-18 22:47:29:878,-0.0941,0.5545,9.0664,-0.4636,0.3176,9.7905,-0.0004,0.0055,0.0022
16605,46.42963,-0.508773,111.4,34.63,9.648001,88.7,Oct-18,1660445,2019-08-18 22:47:29:978,-0.1881,0.1822,9.3531,-0.4657,0.3407,9.7897,0.022,0.0055,0.0085
16606,46.42963,-0.508773,111.4,34.63,9.648001,88.7,Oct-18,1660545,2019-08-18 22:47:30:078,-0.6424,0.5587,9.6182,-0.4667,0.3656,9.7887,0.0231,0.0055,0.0117
16607,46.42963,-0.508773,111.4,34.63,9.648001,88.7,Oct-18,1660646,2019-08-18 22:47:30:179,-0.2461,0.667,9.4458,-0.4692,0.3882,9.7877,-0.0078,0.0034,0.0117
16608,46.42963,-0.508773,111.4,34.63,9.648001,88.7,Oct-18,1660746,2019-08-18 22:47:30:279,0.0202,1.1369,9.9259,-0.4638,0.3913,9.7879,-0.0185,-0.0019,0.0107
16609,46.42963,-0.508773,111.4,34.63,9.648001,88.7,Oct-18,1660845,2019-08-18 22:47:30:378,-0.297,1.1046,10.0133,-0.4649,0.4112,9.787,0.0081,0.0034,0.0117
16610,46.42963,-0.508773,111.4,34.63,9.648001,88.7,Oct-18,1660946,2019-08-18 22:47:30:479,-0.4592,0.5886,10.1581,-0.4633,0.4269,9.7864,0.0007,-0.0009,0.0128
16611,46.42963,-0.508773,111.4,34.63,9.648001,88.7,Oct-18,1661046,2019-08-18 22:47:30:579,-0.4831,0.9388,10.218,-0.4622,0.4469,9.7855,0.0018,0.0013,0.0096
16612,46.42963,-0.508773,111.4,34.63,9.648001,88.7,Oct-18,1661145,2019-08-18 22:47:30:678,-0.7399,0.7802,9.213,-0.454,0.4554,9.7855,-0.0132,-0.0041,0.0075
16613,46.42963,-0.508773,111.4,34.63,9.648001,88.7,Oct-18,1661245,2019-08-18 22:47:30:778,-0.5149,0.7772,10.1396,-0.4482,0.4561,9.7858,-0.0142,-0.0073,0.0064
16614,46.42963,-0.508773,111.4,34.63,9.648001,88.7,Oct-18,1661346,2019-08-18 22:47:30:879,-0.5101,0.6287,10.2641,-0.4395,0.4541,9.7863,-0.0132,0.0002,0.0053
16615,46.429623,-0.504182,119.86,35.13,7.504,88.3,0 / 18,1661445,2019-08-18 22:47:30:978,-0.0612,0.8634,9.7715,-0.4374,0.4561,9.7863,-0.0046,-0.0009,0.0053
16616,46.429623,-0.504182,119.86,35.13,7.504,88.3,0 / 18,1661546,2019-08-18 22:47:31:079,-0.0833,0.6742,10.1695,-0.4411,0.4573,9.786,-0.0089,0.0076,0.0064
16617,46.429623,-0.504182,119.86,35.13,7.504,88.3,0 / 18,1661646,2019-08-18 22:47:31:179,-0.3598,0.4498,9.799,-0.4607,0.4637,9.7848,0.0018,0.014,0.0096
16618,46.429623,-0.504182,119.86,35.13,7.504,88.3,0 / 18,1661746,2019-08-18 22:47:31:279,-0.9093,0.7036,9.4267,-0.4669,0.4694,9.7843,-0.0046,-0.003,0.0085
16619,46.429623,-0.504182,119.86,35.13,7.504,88.3,0 / 18,1661845,2019-08-18 22:47:31:378,-0.607,0.6072,10.3503,-0.4656,0.4791,9.7839,0.0028,-0.0094,0.0053
16620,46.429623,-0.504182,119.86,35.13,7.504,88.3,0 / 18,1661945,2019-08-18 22:47:31:478,-0.7088,0.7041,9.6859,-0.4662,0.4925,9.7832,0.0135,0.0013,0.0032
16621,46.429623,-0.504182,119.86,35.13,7.504,88.3,0 / 18,1662046,2019-08-18 22:47:31:579,-0.3251,0.3684,9.5979,-0.4695,0.4931,9.783,-0.0025,0.0023,0.0011
16622,46.429623,-0.504182,119.86,35.13,7.504,88.3,0 / 18,1662145,2019-08-18 22:47:31:678,-0.4586,0.5605,9.538,-0.4739,0.49,9.7829,-0.0057,0.0002,0.0
16623,46.429623,-0.504182,119.86,35.13,7.504,88.3,0 / 18,1662246,2019-08-18 22:47:31:779,-0.5202,0.5359,9.3944,-0.479,0.4828,9.783,0.0039,0.0013,-0.0021
16624,46.429623,-0.504182,119.86,35.13,7.504,88.3,0 / 18,1662346,2019-08-18 22:47:31:879,-0.5753,0.0356,9.2178,-0.4864,0.4761,9.783,-0.0057,-0.0051,0.0022
16625,46.429623,-0.504182,119.86,35.13,7.504,88.3,0 / 18,1662446,2019-08-18 22:47:31:979,-0.2509,0.3366,9.9349,-0.4846,0.4688,9.7834,-0.0004,0.0013,0.0
16626,46.429623,-0.504182,119.86,35.13,7.504,88.3,0 / 18,1662546,2019-08-18 22:47:32:079,-0.604,0.2259,9.9055,-0.49,0.4682,9.7832,0.0081,0.0034,0.0
16627,46.429623,-0.504182,119.86,35.13,7.504,88.3,0 / 18,1662646,2019-08-18 22:47:32:179,-0.5544,0.3492,9.5883,-0.4868,0.4463,9.7844,-0.0068,-0.0009,-0.0021
16628,46.429623,-0.504182,119.86,35.13,7.504,88.3,0 / 18,1662745,2019-08-18 22:47:32:278,-0.0504,0.5803,10.4287,-0.4805,0.4282,9.7855,0.0092,-0.0009,-0.0042
16629,46.429623,-0.504182,119.86,35.13,7.504,88.3,0 / 18,1662846,2019-08-18 22:47:32:379,-0.0175,0.4875,9.7936,-0.475,0.4311,9.7856,0.0028,0.0002,-0.0011
16630,46.429623,-0.504182,119.86,35.13,7.504,88.3,0 / 18,1662946,2019-08-18 22:47:32:479,-0.3892,0.3923,10.4227,-0.4727,0.429,9.7858,-0.0036,-0.0019,-0.0042
16631,46.429623,-0.504182,119.86,35.13,7.504,88.3,0 / 18,1663046,2019-08-18 22:47:32:579,-0.7675,0.0188,9.8098,-0.4663,0.4217,9.7865,-0.0025,-0.0019,-0.0042
16632,46.429623,-0.504182,119.86,35.13,7.504,88.3,0 / 18,1663146,2019-08-18 22:47:32:679,-0.6304,0.4815,9.5201,-0.4601,0.4071,9.7874,-0.0046,-0.003,-0.0032
16633,46.429623,-0.504182,119.86,35.13,7.504,88.3,0 / 18,1663245,2019-08-18 22:47:32:778,-0.4371,0.3169,9.5135,-0.4587,0.3777,9.7886,-0.0014,0.0023,-0.0032
16634,46.429623,-0.504182,119.86,35.13,7.504,88.3,0 / 18,1663346,2019-08-18 22:47:32:879,-0.0079,0.0721,10.206,-0.485,0.3508,9.7884,-0.0025,0.0023,-0.0064
16635,46.429623,-0.504182,119.86,35.13,7.504,88.3,0 / 18,1663446,2019-08-18 22:47:32:979,0.0059,0.1062,10.4849,-0.4898,0.3305,9.7888,-0.0164,-0.0041,-0.0074
16636,46.429623,-0.504182,119.86,35.13,7.504,88.3,0 / 18,1663546,2019-08-18 22:47:33:079,-0.6053,0.4456,10.6256,-0.5109,0.2857,9.7892,0.0007,0.0108,-0.0096
16637,46.429623,-0.504182,119.86,35.13,7.504,88.3,0 / 18,1663645,2019-08-18 22:47:33:178,-0.8303,-0.2978,9.7691,-0.5227,0.2812,9.7887,0.006,0.0023,-0.0064
16638,46.429623,-0.504182,119.86,35.13,7.504,88.3,0 / 18,1663745,2019-08-18 22:47:33:278,-0.7351,-0.1015,8.9203,-0.5305,0.2661,9.7887,-0.0036,0.0055,-0.0074
16639,46.429623,-0.504182,119.86,35.13,7.504,88.3,0 / 18,1663846,2019-08-18 22:47:33:379,-0.5867,-0.0285,9.8469,-0.5552,0.2483,9.7878,-0.0025,0.0013,-0.0074
16640,46.429623,-0.504182,119.86,35.13,7.504,88.3,0 / 18,1663946,2019-08-18 22:47:33:479,-0.7938,0.0374,10.1982,-0.5634,0.2289,9.7878,-0.0014,-0.0137,-0.0074
16641,46.429623,-0.504182,119.86,35.13,7.504,88.3,0 / 18,1664045,2019-08-18 22:47:33:578,-0.3323,0.1307,10.0049,-0.5674,0.2216,9.7877,-0.0004,0.0034,-0.0064
16642,46.429623,-0.504182,119.86,35.13,7.504,88.3,0 / 18,1664145,2019-08-18 22:47:33:678,-0.3844,0.105,10.306,-0.5778,0.2106,9.7873,0.0007,0.0066,-0.0032
16643,46.429623,-0.504182,119.86,35.13,7.504,88.3,0 / 18,1664245,2019-08-18 22:47:33:778,-0.6908,0.284,9.6966,-0.5874,0.2114,9.7868,0.0039,0.0066,-0.0021
16644,46.429623,-0.504182,119.86,35.13,7.504,88.3,0 / 18,1664346,2019-08-18 22:47:33:879,-1.0045,0.3187,10.1402,-0.5947,0.2058,9.7864,0.0028,-0.0062,-0.0011
16645,46.429623,-0.504182,119.86,35.13,7.504,88.3,0 / 18,1664446,2019-08-18 22:47:33:979,-0.9309,0.1301,9.7032,-0.5912,0.2115,9.7865,0.006,-0.0041,-0.0011
16646,46.429623,-0.504182,119.86,35.13,7.504,88.3,0 / 18,1664545,2019-08-18 22:47:34:078,-0.7106,0.1044,9.5787,-0.5856,0.2094,9.7869,-0.0121,-0.0051,0.0011
16647,46.429623,-0.504182,119.86,35.13,7.504,88.3,0 / 18,1664645,2019-08-18 22:47:34:178,-0.288,0.0936,9.6308,-0.5898,0.2117,9.7866,-0.0004,0.0076,-0.0011
16648,46.429623,-0.504182,119.86,35.13,7.504,88.3,0 / 18,1664746,2019-08-18 22:47:34:279,-0.3491,0.3971,9.8235,-0.6018,0.2191,9.7857,0.0007,0.0055,0.0
16649,46.429623,-0.504182,119.86,35.13,7.504,88.3,0 / 18,1664846,2019-08-18 22:47:34:379,-0.7549,0.5994,10.0468,-0.5986,0.2454,9.7853,0.0028,0.0002,0.0011
16650,46.429623,-0.504182,119.86,35.13,7.504,88.3,0 / 18,1664945,2019-08-18 22:47:34:478,-0.7082,0.0649,9.6039,-0.6027,0.2722,9.7843,0.0156,0.0002,0.0022
16651,46.429623,-0.504182,119.86,35.13,7.504,88.3,0 / 18,1665045,2019-08-18 22:47:34:578,-0.4478,0.1924,9.1011,-0.5795,0.3112,9.7846,-0.0014,-0.0051,0.0032
16652,46.429623,-0.504182,119.86,35.13,7.504,88.3,0 / 18,1665146,2019-08-18 22:47:34:679,-0.7663,0.5557,9.477,-0.5683,0.3282,9.7847,-0.0014,-0.0009,0.0
16653,46.429623,-0.504182,119.86,35.13,7.504,88.3,0 / 18,1665246,2019-08-18 22:47:34:779,-0.6651,0.105,9.8439,-0.5673,0.3423,9.7842,0.0007,0.0066,-0.0011
16654,46.429623,-0.504182,119.86,35.13,7.504,88.3,0 / 18,1665345,2019-08-18 22:47:34:878,-0.3826,0.3732,9.7607,-0.5884,0.3533,9.7826,0.0081,0.0108,0.0
16655,46.429623,-0.504182,119.86,35.13,7.504,88.3,0 / 18,1665446,2019-08-18 22:47:34:979,-0.7124,0.6443,9.6003,-0.5881,0.3599,9.7824,0.0103,-0.0073,-0.0011
16656,46.429623,-0.504182,119.86,35.13,7.504,88.3,0 / 18,1665546,2019-08-18 22:47:35:079,-0.373,0.12,10.1174,-0.5832,0.3647,9.7825,0.0092,-0.0147,-0.0011
16657,46.429623,-0.504182,119.86,35.13,7.504,88.3,0 / 18,1665646,2019-08-18 22:47:35:179,-0.6418,-0.0087,10.2647,-0.5731,0.3544,9.7835,-0.0089,-0.0041,0.0011
16658,46.429623,-0.504182,119.86,35.13,7.504,88.3,0 / 18,1665745,2019-08-18 22:47:35:278,-0.4185,0.2642,9.9887,-0.5773,0.3457,9.7835,-0.0142,0.0076,-0.0021
16659,46.429623,-0.504182,119.86,35.13,7.504,88.3,0 / 18,1665846,2019-08-18 22:47:35:379,-0.9895,0.3265,9.1125,-0.5843,0.3393,9.7834,-0.01,0.0087,-0.0011
16660,46.429623,-0.504182,119.86,35.13,7.504,88.3,0 / 18,1665946,2019-08-18 22:47:35:479,-0.6603,0.1379,9.2046,-0.5832,0.3305,9.7837,-0.0078,-0.0041,-0.0011
16661,46.429623,-0.504182,119.86,35.13,7.504,88.3,0 / 18,1666046,2019-08-18 22:47:35:579,-0.5035,0.1649,9.7517,-0.5696,0.3148,9.785,-0.0089,-0.003,0.0
16662,46.429623,-0.504182,119.86,35.13,7.504,88.3,0 / 18,1666146,2019-08-18 22:47:35:679,-0.3209,0.2858,9.7356,-0.583,0.3108,9.7844,0.0028,0.0002,0.0022
16663,46.429623,-0.504182,119.86,35.13,7.504,88.3,0 / 18,1666245,2019-08-18 22:47:35:778,-0.2599,0.4863,9.4788,-0.5942,0.3301,9.7831,0.0018,0.0055,0.0022
16664,46.429623,-0.504182,119.86,35.13,7.504,88.3,0 / 18,1666346,2019-08-18 22:47:35:879,-0.531,0.4839,10.3461,-0.5789,0.328,9.7841,0.006,-0.0009,0.0011
16665,46.429623,-0.504182,119.86,35.13,7.504,88.3,0 / 18,1666446,2019-08-18 22:47:35:979,-0.6382,0.2511,9.62,-0.5744,0.3321,9.7842,0.0028,-0.0041,0.0
16666,46.429623,-0.504182,119.86,35.13,7.504,88.3,0 / 18,1666546,2019-08-18 22:47:36:079,-0.5873,0.4815,9.1418,-0.5681,0.3334,9.7845,-0.0036,-0.0009,0.0
16667,46.429623,-0.504182,119.86,35.13,7.504,88.3,0 / 18,1666645,2019-08-18 22:47:36:178,-0.3072,0.588,9.8331,-0.5631,0.3407,9.7845,-0.0014,-0.0019,-0.0021
16668,46.429623,-0.504182,119.86,35.13,7.504,88.3,0 / 18,1666746,2019-08-18 22:47:36:279,-0.4688,0.3325,9.2495,-0.5429,0.3371,9.7858,-0.0036,-0.0019,0.0011
16669,46.429623,-0.504182,119.86,35.13,7.504,88.3,0 / 18,1666846,2019-08-18 22:47:36:379,-0.2018,0.2271,9.7194,-0.5349,0.3422,9.7861,-0.0046,0.0013,0.0011
16670,46.429623,-0.504182,119.86,35.13,7.504,88.3,0 / 18,1666946,2019-08-18 22:47:36:479,-0.4137,0.5132,9.9522,-0.5285,0.3308,9.7868,-0.0089,0.0045,0.0
16671,46.429623,-0.504182,119.86,35.13,7.504,88.3,0 / 18,1667045,2019-08-18 22:47:36:578,-0.555,0.3857,9.5494,-0.5438,0.3389,9.7857,0.0081,0.0098,-0.0011
16672,46.429623,-0.504182,119.86,35.13,7.504,88.3,0 / 18,1667146,2019-08-18 22:47:36:679,-0.8686,0.3342,9.8176,-0.5434,0.3331,9.7859,-0.0078,-0.003,0.0
16673,46.429623,-0.504182,119.86,35.13,7.504,88.3,0 / 18,1667246,2019-08-18 22:47:36:779,-0.5963,0.1571,9.7906,-0.5348,0.3279,9.7866,0.0007,-0.003,-0.0011
16674,46.429623,-0.504182,119.86,35.13,7.504,88.3,0 / 18,1667345,2019-08-18 22:47:36:878,-0.7196,0.339,10.3634,-0.5303,0.328,9.7868,0.0028,-0.0041,-0.0021
16675,46.429623,-0.504182,119.86,35.13,7.504,88.3,0 / 18,1667446,2019-08-18 22:47:36:979,-0.7735,0.3181,9.6069,-0.5322,0.3256,9.7868,-0.0004,0.0066,0.0
16676,46.429623,-0.504182,119.86,35.13,7.504,88.3,0 / 18,1667546,2019-08-18 22:47:37:079,-0.4718,0.208,9.8187,-0.5368,0.3196,9.7867,-0.0068,0.0034,-0.0011
16677,46.429623,-0.504182,119.86,35.13,7.504,88.3,0 / 18,1667645,2019-08-18 22:47:37:178,-0.3533,0.4025,9.4153,-0.5382,0.31,9.787,0.0018,-0.0094,0.0
16678,46.429623,-0.504182,119.86,35.13,7.504,88.3,0 / 18,1667745,2019-08-18 22:47:37:278,-0.452,0.2193,9.6152,-0.537,0.3046,9.7872,0.0018,-0.0051,-0.0011
16679,46.429623,-0.504182,119.86,35.13,7.504,88.3,0 / 18,1667845,2019-08-18 22:47:37:378,-0.6711,0.1457,10.1671,-0.5232,0.2918,9.7883,-0.0089,0.0023,-0.0021
16680,46.429623,-0.504182,119.86,35.13,7.504,88.3,0 / 18,1667946,2019-08-18 22:47:37:479,-0.6944,0.2469,9.7888,-0.5276,0.2889,9.7882,-0.0014,0.0055,-0.0011
16681,46.429623,-0.504182,119.86,35.13,7.504,88.3,0 / 18,1668045,2019-08-18 22:47:37:578,-0.4718,0.0942,9.7798,-0.5088,0.2854,9.7893,0.0028,-0.0019,0.0011
16682,46.429623,-0.504182,119.86,35.13,7.504,88.3,0 / 18,1668146,2019-08-18 22:47:37:679,-0.4951,0.2056,9.5805,-0.4979,0.2858,9.7898,0.0018,0.0002,-0.0011
16683,46.429623,-0.504182,119.86,35.13,7.504,88.3,0 / 18,1668246,2019-08-18 22:47:37:779,-0.0211,0.3965,9.7332,-0.4846,0.2862,9.7905,0.0018,-0.0041,-0.0011
16684,46.429623,-0.504182,119.86,35.13,7.504,88.3,0 / 18,1668345,2019-08-18 22:47:37:878,-0.2904,0.5282,10.1641,-0.4759,0.2938,9.7907,-0.0004,-0.0051,0.0
16685,46.429623,-0.504182,119.86,35.13,7.504,88.3,0 / 18,1668445,2019-08-18 22:47:37:978,-0.3443,0.4264,10.1013,-0.4822,0.2941,9.7904,-0.0014,0.0055,-0.0011
16686,46.429623,-0.504182,119.86,35.13,7.504,88.3,0 / 18,1668546,2019-08-18 22:47:38:079,-0.4029,0.3067,10.0013,-0.4643,0.2947,9.7912,0.0071,0.0002,-0.0011
16687,46.429623,-0.504182,119.86,35.13,7.504,88.3,0 / 18,1668645,2019-08-18 22:47:38:178,-0.6047,0.2014,9.3201,-0.454,0.2892,9.7919,0.0018,0.0023,-0.0021
16688,46.429623,-0.504182,119.86,35.13,7.504,88.3,0 / 18,1668745,2019-08-18 22:47:38:278,-0.5903,0.1481,9.8762,-0.4452,0.2841,9.7924,-0.0068,0.0013,-0.0032
16689,46.429623,-0.504182,119.86,35.13,7.504,88.3,0 / 18,1668846,2019-08-18 22:47:38:379,-0.4472,0.1254,9.4147,-0.4363,0.2885,9.7927,-0.0025,0.0002,0.0
16690,46.429623,-0.504182,119.86,35.13,7.504,88.3,0 / 18,1668945,2019-08-18 22:47:38:478,-0.3862,0.4468,10.1258,-0.4322,0.2799,9.7931,-0.0121,-0.0019,0.0
16691,46.429623,-0.504182,119.86,35.13,7.504,88.3,0 / 18,1669045,2019-08-18 22:47:38:578,-0.1647,0.2199,9.8475,-0.4143,0.2775,9.794,0.0028,0.0002,0.0
16692,46.429623,-0.504182,119.86,35.13,7.504,88.3,0 / 18,1669145,2019-08-18 22:47:38:678,-0.1521,0.5204,9.72,-0.4073,0.2791,9.7942,-0.0025,0.0002,0.0
16693,46.429623,-0.504182,119.86,35.13,7.504,88.3,0 / 18,1669245,2019-08-18 22:47:38:778,-0.4335,0.1295,10.2216,-0.3892,0.2796,9.7949,-0.0025,0.0076,-0.0011
16694,46.429623,-0.504182,119.86,35.13,7.504,88.3,0 / 18,1669345,2019-08-18 22:47:38:878,-0.6765,0.3013,10.0851,-0.391,0.2822,9.7948,0.0018,-0.0041,0.0
16695,46.429623,-0.504182,119.86,35.13,7.504,88.3,Nov-18,1669446,2019-08-18 22:47:38:979,-0.5119,0.4007,9.9756,-0.3631,0.284,9.7958,0.0039,-0.0019,-0.0021
16696,46.429623,-0.504182,119.86,35.13,7.504,88.3,Nov-18,1669546,2019-08-18 22:47:39:079,-0.6645,0.2451,9.5249,-0.3407,0.2942,9.7963,0.0124,0.0002,-0.0021
16697,46.429623,-0.504182,119.86,35.13,7.504,88.3,Nov-18,1669645,2019-08-18 22:47:39:178,-0.4227,0.1816,9.4165,-0.3139,0.297,9.7971,0.0018,-0.0051,0.0
16698,46.429623,-0.504182,119.86,35.13,7.504,88.3,Nov-18,1669746,2019-08-18 22:47:39:279,0.3985,0.4168,9.3417,-0.2915,0.3041,9.7976,0.0018,0.0013,0.0
16699,46.429623,-0.504182,119.86,35.13,7.504,88.3,Nov-18,1669845,2019-08-18 22:47:39:378,0.046,0.5096,9.7038,-0.2923,0.3017,9.7977,-0.0025,0.013,0.0
16700,46.429623,-0.504182,119.86,35.13,7.504,88.3,Nov-18,1669945,2019-08-18 22:47:39:478,0.0777,0.5677,9.8738,-0.2907,0.2996,9.7978,0.0018,-0.0083,-0.0032
16701,46.429623,-0.504182,119.86,35.13,7.504,88.3,Nov-18,1670046,2019-08-18 22:47:39:579,-0.2455,0.4534,10.0258,-0.2794,0.3035,9.798,0.006,-0.0073,-0.0011
16702,46.429623,-0.504182,119.86,35.13,7.504,88.3,Nov-18,1670145,2019-08-18 22:47:39:678,-0.2389,-0.0033,9.6554,-0.2739,0.3054,9.7981,0.0028,0.0002,-0.0021
16703,46.429623,-0.504182,119.86,35.13,7.504,88.3,Nov-18,1670245,2019-08-18 22:47:39:778,-0.3862,0.2175,9.4752,-0.2224,0.2941,9.7997,0.0039,-0.0009,-0.0011
16704,46.429623,-0.504182,119.86,35.13,7.504,88.3,Nov-18,1670345,2019-08-18 22:47:39:878,-0.3192,0.3079,9.2441,-0.1893,0.2976,9.8003,0.0039,0.0066,-0.0011
16705,46.42972,-0.500124,118.91,34.4,11.792,89.7,0 / 18,1670446,2019-08-18 22:47:39:979,-0.0061,0.433,9.9612,-0.1932,0.3141,9.7997,-0.0036,-0.0009,-0.0011
16706,46.42972,-0.500124,118.91,34.4,11.792,89.7,0 / 18,1670546,2019-08-18 22:47:40:079,0.298,0.4617,9.9839,-0.1709,0.3044,9.8004,-0.0068,-0.0019,-0.0021
16707,46.42972,-0.500124,118.91,34.4,11.792,89.7,0 / 18,1670645,2019-08-18 22:47:40:178,0.1178,0.1858,9.5793,-0.1727,0.3069,9.8003,0.0049,-0.0019,-0.0011
16708,46.42972,-0.500124,118.91,34.4,11.792,89.7,0 / 18,1670745,2019-08-18 22:47:40:278,0.2465,0.4971,9.8044,-0.183,0.3084,9.8001,0.0071,0.0087,-0.0011
16709,46.42972,-0.500124,118.91,34.4,11.792,89.7,0 / 18,1670846,2019-08-18 22:47:40:379,-0.3311,0.266,9.2058,-0.1765,0.3114,9.8001,0.0007,-0.0051,0.0011
16710,46.42972,-0.500124,118.91,34.4,11.792,89.7,0 / 18,1670946,2019-08-18 22:47:40:479,-0.212,0.3378,9.8846,-0.1653,0.3159,9.8002,0.0028,-0.0041,0.0011
16711,46.42972,-0.500124,118.91,34.4,11.792,89.7,0 / 18,1671046,2019-08-18 22:47:40:579,-0.2988,0.4809,9.6248,-0.1613,0.3196,9.8001,0.0028,-0.0009,0.0
16712,46.42972,-0.500124,118.91,34.4,11.792,89.7,0 / 18,1671145,2019-08-18 22:47:40:678,0.3051,0.4013,9.5356,-0.1639,0.314,9.8003,-0.0078,0.0087,-0.0011
16713,46.42972,-0.500124,118.91,34.4,11.792,89.7,0 / 18,1671245,2019-08-18 22:47:40:778,0.3016,0.3803,9.9648,-0.1661,0.3123,9.8003,-0.0036,0.0045,-0.0021
16714,46.42972,-0.500124,118.91,34.4,11.792,89.7,0 / 18,1671345,2019-08-18 22:47:40:878,-0.1318,0.4127,9.7427,-0.155,0.3108,9.8005,-0.0046,-0.0051,-0.0011
16715,46.42972,-0.500124,118.91,34.4,11.792,89.7,0 / 18,1671445,2019-08-18 22:47:40:978,-0.479,0.2337,9.2878,-0.1465,0.3175,9.8004,0.0049,-0.003,-0.0011
16716,46.42972,-0.500124,118.91,34.4,11.792,89.7,0 / 18,1671546,2019-08-18 22:47:41:079,-0.3778,0.2319,9.8792,-0.1462,0.3202,9.8003,0.0081,-0.0019,-0.0011
16717,46.42972,-0.500124,118.91,34.4,11.792,89.7,0 / 18,1671645,2019-08-18 22:47:41:178,0.0274,0.1403,9.6075,-0.1511,0.3084,9.8006,-0.0046,-0.0009,-0.0011
16718,46.42972,-0.500124,118.91,34.4,11.792,89.7,0 / 18,1671746,2019-08-18 22:47:41:279,-0.0348,0.5976,9.7762,-0.1631,0.2993,9.8007,-0.0046,0.0108,-0.0011
16719,46.42972,-0.500124,118.91,34.4,11.792,89.7,0 / 18,1671845,2019-08-18 22:47:41:378,-0.1839,0.1667,9.5356,-0.1715,0.3021,9.8005,0.0071,0.0013,-0.0021
16720,46.42972,-0.500124,118.91,34.4,11.792,89.7,0 / 18,1671946,2019-08-18 22:47:41:479,-0.4616,0.339,10.1366,-0.1737,0.3039,9.8004,0.0039,-0.0051,0.0011
16721,46.42972,-0.500124,118.91,34.4,11.792,89.7,0 / 18,1672045,2019-08-18 22:47:41:578,-0.5969,0.2367,9.034,-0.1698,0.3056,9.8004,-0.0036,-0.0051,-0.0011
16722,46.42972,-0.500124,118.91,34.4,11.792,89.7,0 / 18,1672145,2019-08-18 22:47:41:678,-0.2006,0.536,10.0624,-0.1695,0.3053,9.8004,-0.0004,0.0034,-0.0011
16723,46.42972,-0.500124,118.91,34.4,11.792,89.7,0 / 18,1672246,2019-08-18 22:47:41:779,-0.1462,0.4863,9.8038,-0.1793,0.3087,9.8001,-0.0014,-0.0019,-0.0011
16724,46.42972,-0.500124,118.91,34.4,11.792,89.7,0 / 18,1672345,2019-08-18 22:47:41:878,0.3973,0.284,10.1767,-0.1974,0.3166,9.7995,0.0081,0.0013,0.0
16725,46.42972,-0.500124,118.91,34.4,11.792,89.7,0 / 18,1672445,2019-08-18 22:47:41:978,-0.1061,0.2445,9.8457,-0.1975,0.3172,9.7995,0.0039,0.0045,0.0
16726,46.42972,-0.500124,118.91,34.4,11.792,89.7,0 / 18,1672546,2019-08-18 22:47:42:079,-0.3503,0.3001,10.1073,-0.1935,0.3221,9.7994,0.0007,-0.0009,0.0011
16727,46.42972,-0.500124,118.91,34.4,11.792,89.7,0 / 18,1672645,2019-08-18 22:47:42:178,-0.4951,0.4552,9.6709,-0.1945,0.3268,9.7993,0.0081,0.0002,0.0
16728,46.42972,-0.500124,118.91,34.4,11.792,89.7,0 / 18,1672745,2019-08-18 22:47:42:278,-0.2066,0.3474,9.7523,-0.2046,0.3253,9.7991,-0.0068,0.0034,-0.0011
16729,46.42972,-0.500124,118.91,34.4,11.792,89.7,0 / 18,1672846,2019-08-18 22:47:42:379,-0.2425,0.3318,8.7683,-0.2129,0.3207,9.7991,-0.0089,0.0066,0.0
16730,46.42972,-0.500124,118.91,34.4,11.792,89.7,0 / 18,1672945,2019-08-18 22:47:42:478,-0.0235,0.3516,10.1653,-0.2177,0.3214,9.799,0.0049,-0.0051,0.0
16731,46.42972,-0.500124,118.91,34.4,11.792,89.7,0 / 18,1673046,2019-08-18 22:47:42:579,-0.6879,0.3606,9.5913,-0.2294,0.3131,9.799,-0.0068,0.0108,0.0
16732,46.42972,-0.500124,118.91,34.4,11.792,89.7,0 / 18,1673145,2019-08-18 22:47:42:678,-0.5825,0.1523,9.2896,-0.2478,0.3193,9.7983,0.0081,0.0055,0.0011
16733,46.42972,-0.500124,118.91,34.4,11.792,89.7,0 / 18,1673246,2019-08-18 22:47:42:779,-0.0318,0.2169,9.4889,-0.2655,0.3318,9.7974,-0.0057,-0.0083,0.0022
16734,46.42972,-0.500124,118.91,34.4,11.792,89.7,0 / 18,1673346,2019-08-18 22:47:42:879,0.1962,0.5174,10.209,-0.307,0.3314,9.7962,0.0007,-0.0126,0.0011
16735,46.42972,-0.500124,118.91,34.4,11.792,89.7,0 / 18,1673446,2019-08-18 22:47:42:979,-0.0833,0.2343,10.0689,-0.3103,0.3365,9.796,0.0049,0.0055,0.0032
16736,46.42972,-0.500124,118.91,34.4,11.792,89.7,0 / 18,1673546,2019-08-18 22:47:43:079,-0.2563,0.4935,9.0969,-0.321,0.3417,9.7954,0.0049,0.0162,0.0022
16737,46.42972,-0.500124,118.91,34.4,11.792,89.7,0 / 18,1673645,2019-08-18 22:47:43:178,-0.4227,0.3821,9.2669,-0.3331,0.3501,9.7947,0.0124,0.0013,0.0022
16738,46.42972,-0.500124,118.91,34.4,11.792,89.7,0 / 18,1673745,2019-08-18 22:47:43:278,-0.5394,0.4791,10.048,-0.3315,0.3557,9.7946,0.0018,-0.0062,0.0011
16739,46.42972,-0.500124,118.91,34.4,11.792,89.7,0 / 18,1673845,2019-08-18 22:47:43:378,-0.4275,0.3672,10.0815,-0.3196,0.3565,9.795,-0.0014,-0.0179,0.0
16740,46.42972,-0.500124,118.91,34.4,11.792,89.7,0 / 18,1673945,2019-08-18 22:47:43:478,-0.2288,0.2935,9.966,-0.3194,0.3569,9.7949,0.0028,-0.0019,0.0022
16741,46.42972,-0.500124,118.91,34.4,11.792,89.7,0 / 18,1674046,2019-08-18 22:47:43:579,-0.5125,0.3863,10.0336,-0.3193,0.3575,9.7949,-0.0057,0.0098,0.0011
16742,46.42972,-0.500124,118.91,34.4,11.792,89.7,0 / 18,1674146,2019-08-18 22:47:43:679,-0.5244,0.4528,10.0372,-0.3233,0.3538,9.7949,-0.01,0.0045,-0.0011
16743,46.42972,-0.500124,118.91,34.4,11.792,89.7,0 / 18,1674246,2019-08-18 22:47:43:779,-0.6029,0.2211,9.7655,-0.3211,0.3479,9.7952,-0.0036,-0.0062,-0.0011
16744,46.42972,-0.500124,118.91,34.4,11.792,89.7,0 / 18,1674345,2019-08-18 22:47:43:878,-0.1809,0.5898,9.2753,-0.319,0.3448,9.7954,-0.0046,-0.0062,0.0
16745,46.42972,-0.500124,118.91,34.4,11.792,89.7,0 / 18,1674446,2019-08-18 22:47:43:979,-0.1773,-0.0381,9.3345,-0.3176,0.3402,9.7956,-0.0004,-0.0062,0.0011
16746,46.42972,-0.500124,118.91,34.4,11.792,89.7,0 / 18,1674545,2019-08-18 22:47:44:078,-0.1743,0.2038,9.8756,-0.316,0.3444,9.7955,0.0049,0.0023,0.0022
16747,46.42972,-0.500124,118.91,34.4,11.792,89.7,0 / 18,1674646,2019-08-18 22:47:44:179,-0.3688,0.4982,9.0765,-0.303,0.3379,9.7961,0.0018,0.0055,0.0011
16748,46.42972,-0.500124,118.91,34.4,11.792,89.7,0 / 18,1674746,2019-08-18 22:47:44:279,0.1741,0.3468,10.1294,-0.2954,0.3417,9.7962,-0.0025,-0.0041,0.0
16749,46.42972,-0.500124,118.91,34.4,11.792,89.7,0 / 18,1674845,2019-08-18 22:47:44:378,-0.0917,0.436,9.8589,-0.2999,0.3414,9.7961,-0.0078,0.0013,0.0011
16750,46.42972,-0.500124,118.91,34.4,11.792,89.7,0 / 18,1674946,2019-08-18 22:47:44:479,-0.1773,0.4923,10.0689,-0.3063,0.3352,9.7961,-0.011,0.0034,0.0022
16751,46.42972,-0.500124,118.91,34.4,11.792,89.7,0 / 18,1675045,2019-08-18 22:47:44:578,-0.8572,0.4378,10.0779,-0.3079,0.3291,9.7963,-0.0046,0.0002,0.0032
16752,46.42972,-0.500124,118.91,34.4,11.792,89.7,0 / 18,1675145,2019-08-18 22:47:44:678,-0.2024,0.0853,9.2423,-0.3188,0.329,9.7959,-0.0025,0.0034,0.0022
16753,46.42972,-0.500124,118.91,34.4,11.792,89.7,0 / 18,1675246,2019-08-18 22:47:44:779,0.0436,0.193,9.7553,-0.332,0.325,9.7956,-0.0004,0.0055,-0.0042
16754,46.42972,-0.500124,118.91,34.4,11.792,89.7,0 / 18,1675346,2019-08-18 22:47:44:879,-0.4095,0.1499,10.4131,-0.3398,0.321,9.7955,0.0049,-0.0019,-0.0074
16755,46.42972,-0.500124,118.91,34.4,11.792,89.7,0 / 18,1675446,2019-08-18 22:47:44:979,-0.6932,0.2211,10.3018,-0.3717,0.2726,9.7958,-0.0004,-0.0009,-0.0053
16756,46.42972,-0.500124,118.91,34.4,11.792,89.7,0 / 18,1675546,2019-08-18 22:47:45:079,-0.8596,0.1732,9.401,-0.3874,0.2552,9.7957,0.0081,-0.003,-0.0042
16757,46.42972,-0.500124,118.91,34.4,11.792,89.7,0 / 18,1675646,2019-08-18 22:47:45:179,-0.4233,0.2056,9.6535,-0.4095,0.2211,9.7956,-0.0004,0.0013,-0.0021
16758,46.42972,-0.500124,118.91,34.4,11.792,89.7,0 / 18,1675745,2019-08-18 22:47:45:278,0.2764,0.2313,10.042,-0.4152,0.2111,9.7956,-0.0089,0.0066,-0.0032
16759,46.42972,-0.500124,118.91,34.4,11.792,89.7,0 / 18,1675846,2019-08-18 22:47:45:379,0.1549,0.2678,10.5771,-0.4221,0.1986,9.7956,-0.01,0.0002,-0.0053
16760,46.42972,-0.500124,118.91,34.4,11.792,89.7,0 / 18,1675945,2019-08-18 22:47:45:478,-0.6801,0.1403,9.9905,-0.4134,0.1846,9.7962,-0.0121,-0.0115,-0.0053
16761,46.42972,-0.500124,118.91,34.4,11.792,89.7,0 / 18,1676046,2019-08-18 22:47:45:579,-0.4688,0.3277,8.8682,-0.4048,0.1822,9.7966,0.0049,0.0023,-0.0011
16762,46.42972,-0.500124,118.91,34.4,11.792,89.7,0 / 18,1676145,2019-08-18 22:47:45:678,-0.1623,0.5539,9.7308,-0.406,0.1852,9.7965,-0.0025,0.013,0.0
16763,46.42972,-0.500124,118.91,34.4,11.792,89.7,0 / 18,1676245,2019-08-18 22:47:45:778,0.1064,0.3761,9.7972,-0.4001,0.1918,9.7966,0.0081,-0.0051,-0.0032
16764,46.42972,-0.500124,118.91,34.4,11.792,89.7,0 / 18,1676345,2019-08-18 22:47:45:878,-0.1414,0.2576,10.6172,-0.3909,0.1906,9.797,0.0007,-0.0041,-0.0053
16765,46.42972,-0.500124,118.91,34.4,11.792,89.7,0 / 18,1676445,2019-08-18 22:47:45:978,-0.5951,0.1487,10.1689,-0.3859,0.1949,9.7971,0.0039,0.0002,-0.0032
16766,46.42972,-0.500124,118.91,34.4,11.792,89.7,0 / 18,1676545,2019-08-18 22:47:46:078,-0.7327,-0.0213,9.7936,-0.3301,0.1977,9.7991,-0.0036,-0.0051,-0.0032
16767,46.42972,-0.500124,118.91,34.4,11.792,89.7,0 / 18,1676646,2019-08-18 22:47:46:179,-0.2988,-0.0093,8.882,-0.3063,0.1893,9.8,-0.0004,0.0055,-0.0042
16768,46.42972,-0.500124,118.91,34.4,11.792,89.7,0 / 18,1676745,2019-08-18 22:47:46:278,0.0759,0.0841,10.221,-0.3147,0.1944,9.7997,0.0028,0.0034,-0.0021
16769,46.42972,-0.500124,118.91,34.4,11.792,89.7,0 / 18,1676846,2019-08-18 22:47:46:379,-0.5699,0.1984,10.6052,-0.3434,0.193,9.7987,0.0007,0.013,-0.0042
16770,46.42972,-0.500124,118.91,34.4,11.792,89.7,0 / 18,1676946,2019-08-18 22:47:46:479,-1.2924,0.2487,9.222,-0.3853,0.1794,9.7974,-0.0068,0.0055,-0.0053
16771,46.42972,-0.500124,118.91,34.4,11.792,89.7,0 / 18,1677045,2019-08-18 22:47:46:578,-1.1823,0.017,9.4327,-0.4702,0.179,9.7937,-0.0068,-0.0051,-0.0053
16772,46.42972,-0.500124,118.91,34.4,11.792,89.7,0 / 18,1677145,2019-08-18 22:47:46:678,-0.4712,-0.0009,9.7451,-0.5386,0.1549,9.7906,0.0039,-0.0009,-0.0042
16773,46.42972,-0.500124,118.91,34.4,11.792,89.7,0 / 18,1677245,2019-08-18 22:47:46:778,0.0538,0.1978,9.8738,-0.5924,0.1559,9.7875,-0.0004,0.0066,-0.0021
16774,46.42972,-0.500124,118.91,34.4,11.792,89.7,0 / 18,1677346,2019-08-18 22:47:46:879,-0.3144,0.1571,9.7499,-0.6332,0.1592,9.7849,-0.0057,-0.0062,-0.0011
16775,46.42972,-0.500124,118.91,34.4,11.792,89.7,0 / 18,1677445,2019-08-18 22:47:46:978,-1.1368,0.1882,9.538,-0.6306,0.1718,9.7848,0.0241,0.0002,-0.0011
16776,46.42972,-0.500124,118.91,34.4,11.792,89.7,0 / 18,1677546,2019-08-18 22:47:47:079,-0.6699,0.3307,9.5458,-0.634,0.1846,9.7844,0.0135,0.0045,0.0
16777,46.42972,-0.500124,118.91,34.4,11.792,89.7,0 / 18,1677646,2019-08-18 22:47:47:179,-0.5011,0.2678,10.4065,-0.6302,0.1813,9.7847,-0.0089,-0.0009,-0.0042
16778,46.42972,-0.500124,118.91,34.4,11.792,89.7,0 / 18,1677746,2019-08-18 22:47:47:279,-0.0235,0.2427,10.4059,-0.6216,0.1897,9.7851,0.0145,-0.0051,-0.0032
16779,46.42972,-0.500124,118.91,34.4,11.792,89.7,0 / 18,1677845,2019-08-18 22:47:47:378,-1.0033,0.4306,9.483,-0.6213,0.1969,9.785,0.0113,0.0055,-0.0021
16780,46.42972,-0.500124,118.91,34.4,11.792,89.7,0 / 18,1677945,2019-08-18 22:47:47:478,-0.9075,0.0493,9.6182,-0.612,0.1978,9.7855,-0.0057,-0.0062,0.0
16781,46.42972,-0.500124,118.91,34.4,11.792,89.7,0 / 18,1678046,2019-08-18 22:47:47:579,-0.4436,0.5449,10.288,-0.5867,0.2198,9.7866,0.006,0.0002,0.0011
16782,46.42972,-0.500124,118.91,34.4,11.792,89.7,0 / 18,1678145,2019-08-18 22:47:47:678,-0.4353,0.1134,10.2174,-0.5678,0.2483,9.7871,0.0135,0.0002,0.0032
16783,46.42972,-0.500124,118.91,34.4,11.792,89.7,0 / 18,1678245,2019-08-18 22:47:47:778,-0.2443,0.6401,9.4877,-0.5582,0.2598,9.7873,-0.0004,-0.0083,0.0043
16784,46.42972,-0.500124,118.91,34.4,11.792,89.7,0 / 18,1678346,2019-08-18 22:47:47:879,-0.7196,0.5665,10.051,-0.5645,0.2742,9.7865,0.006,0.0098,0.0032
16785,46.42972,-0.500124,118.91,34.4,11.792,89.7,13 / 18,1678445,2019-08-18 22:47:47:978,-1.3588,0.4462,9.3567,-0.577,0.283,9.7856,0.006,0.0108,0.0032
16786,46.42972,-0.500124,118.91,34.4,11.792,89.7,13 / 18,1678545,2019-08-18 22:47:48:078,-1.1918,0.4318,9.0358,-0.5966,0.289,9.7842,-0.0004,0.0023,0.0011
16787,46.42972,-0.500124,118.91,34.4,11.792,89.7,13 / 18,1678646,2019-08-18 22:47:48:179,-0.8943,0.5054,8.903,-0.6197,0.2879,9.7828,-0.0068,0.0215,0.0
16788,46.42972,-0.500124,118.91,34.4,11.792,89.7,13 / 18,1678745,2019-08-18 22:47:48:278,-0.4766,0.035,10.3808,-0.6657,0.2976,9.7795,-0.0014,-0.0041,0.0
16789,46.42972,-0.500124,118.91,34.4,11.792,89.7,13 / 18,1678846,2019-08-18 22:47:48:379,-0.6501,0.4528,10.1509,-0.6688,0.3029,9.7791,0.0018,-0.0051,0.0022
16790,46.42972,-0.500124,118.91,34.4,11.792,89.7,13 / 18,1678945,2019-08-18 22:47:48:478,-1.3971,-0.0099,9.6631,-0.6862,0.3107,9.7777,0.0071,0.0013,0.0011
16791,46.42972,-0.500124,118.91,34.4,11.792,89.7,13 / 18,1679046,2019-08-18 22:47:48:579,-1.0368,0.1206,9.459,-0.6918,0.3096,9.7773,-0.0014,-0.0041,0.0
16792,46.42972,-0.500124,118.91,34.4,11.792,89.7,13 / 18,1679145,2019-08-18 22:47:48:678,-0.8537,0.2068,9.9708,-0.7451,0.305,9.7735,0.0028,0.0013,-0.0042
16793,46.42972,-0.500124,118.91,34.4,11.792,89.7,13 / 18,1679245,2019-08-18 22:47:48:778,-0.5083,0.4019,10.2204,-0.7918,0.2839,9.7705,-0.0078,-0.003,-0.0042
16794,46.42972,-0.500124,118.91,34.4,11.792,89.7,13 / 18,1679346,2019-08-18 22:47:48:879,-1.2457,0.0128,9.0951,-0.8034,0.2721,9.7699,0.0049,-0.0009,-0.0053
16795,46.429752,-0.49589,122.83,36.58,11.792,88.2,0 / 18,1679445,2019-08-18 22:47:48:978,-0.9674,0.2062,9.6434,-0.808,0.2736,9.7695,0.0113,-0.0009,-0.0042
16796,46.429752,-0.49589,122.83,36.58,11.792,88.2,0 / 18,1679546,2019-08-18 22:47:49:079,-1.12,0.2205,10.0085,-0.8004,0.2695,9.7702,-0.0036,-0.0019,0.0
16797,46.429752,-0.49589,122.83,36.58,11.792,88.2,0 / 18,1679646,2019-08-18 22:47:49:179,-0.4424,-0.0339,9.7775,-0.8008,0.2666,9.7703,0.0007,-0.0062,-0.0021
16798,46.429752,-0.49589,122.83,36.58,11.792,88.2,0 / 18,1679746,2019-08-18 22:47:49:279,-0.6597,0.2121,9.9983,-0.7883,0.2702,9.7712,0.0007,-0.0083,-0.0011
16799,46.429752,-0.49589,122.83,36.58,11.792,88.2,0 / 18,1679846,2019-08-18 22:47:49:379,-0.71,0.3995,9.9642,-0.7836,0.2623,9.7718,-0.0132,-0.003,-0.0021
16800,46.429752,-0.49589,122.83,36.58,11.792,88.2,0 / 18,1679945,2019-08-18 22:47:49:478,-0.9973,0.1978,9.8146,-0.7772,0.2647,9.7722,0.006,0.0045,-0.0021
16801,46.429752,-0.49589,122.83,36.58,11.792,88.2,0 / 18,1680045,2019-08-18 22:47:49:578,-0.6071,0.2301,9.5111,-0.77,0.2688,9.7727,0.0071,-0.0009,-0.0011
16802,46.429752,-0.49589,122.83,36.58,11.792,88.2,0 / 18,1680145,2019-08-18 22:47:49:678,-0.2413,0.3887,9.5811,-0.7492,0.2694,9.7743,-0.0014,-0.0041,-0.0011
16803,46.429752,-0.49589,122.83,36.58,11.792,88.2,0 / 18,1680246,2019-08-18 22:47:49:779,0.0801,0.1942,10.2521,-0.7363,0.2622,9.7755,-0.011,-0.0051,-0.0011
16804,46.429752,-0.49589,122.83,36.58,11.792,88.2,0 / 18,1680345,2019-08-18 22:47:49:878,-0.5262,0.2786,9.1777,-0.7235,0.2577,9.7765,-0.0089,0.0045,-0.0011
16805,46.429752,-0.49589,122.83,36.58,11.792,88.2,0 / 18,1680445,2019-08-18 22:47:49:978,-0.3688,0.4689,9.7044,-0.7153,0.2636,9.777,0.0071,0.0034,0.0011
16806,46.429752,-0.49589,122.83,36.58,11.792,88.2,0 / 18,1680545,2019-08-18 22:47:50:078,-0.7609,0.0439,9.3214,-0.6916,0.2785,9.7783,0.006,-0.0041,0.0
16807,46.429752,-0.49589,122.83,36.58,11.792,88.2,0 / 18,1680646,2019-08-18 22:47:50:179,0.0813,0.5587,9.6775,-0.6729,0.2804,9.7795,-0.0004,-0.0073,-0.0011
16808,46.429752,-0.49589,122.83,36.58,11.792,88.2,0 / 18,1680746,2019-08-18 22:47:50:279,-0.1845,0.5384,9.644,-0.6434,0.2738,9.7817,-0.011,-0.0094,-0.0021
16809,46.429752,-0.49589,122.83,36.58,11.792,88.2,0 / 18,1680846,2019-08-18 22:47:50:379,0.1639,0.275,9.9612,-0.6316,0.2755,9.7824,0.0018,0.0023,-0.0011
16810,46.429752,-0.49589,122.83,36.58,11.792,88.2,0 / 18,1680946,2019-08-18 22:47:50:479,-0.4897,0.3911,9.2375,-0.6191,0.2741,9.7832,-0.0121,0.0045,-0.0021
16811,46.429752,-0.49589,122.83,36.58,11.792,88.2,0 / 18,1681045,2019-08-18 22:47:50:578,-0.3569,0.1164,10.2,-0.6045,0.2711,9.7842,0.0113,0.0023,-0.0053
16812,46.429752,-0.49589,122.83,36.58,11.792,88.2,0 / 18,1681146,2019-08-18 22:47:50:679,-0.282,-0.0357,9.5907,-0.5897,0.2816,9.7849,0.0124,0.0034,-0.0042
16813,46.429752,-0.49589,122.83,36.58,11.792,88.2,0 / 18,1681246,2019-08-18 22:47:50:779,-0.1887,0.2337,9.5674,-0.5786,0.278,9.7856,-0.0068,-0.0051,-0.0064
16814,46.429752,-0.49589,122.83,36.58,11.792,88.2,0 / 18,1681346,2019-08-18 22:47:50:879,-0.3168,0.3187,10.1306,-0.5741,0.2646,9.7863,-0.0068,0.0034,-0.0074
16815,46.429752,-0.49589,122.83,36.58,11.792,88.2,0 / 18,1681445,2019-08-18 22:47:50:978,-0.8614,0.0362,9.5123,-0.5868,0.2455,9.786,-0.0057,0.0162,-0.0074
16816,46.429752,-0.49589,122.83,36.58,11.792,88.2,0 / 18,1681546,2019-08-18 22:47:51:079,-0.8608,-0.0794,9.3106,-0.5961,0.2372,9.7856,-0.0025,0.0066,-0.0064
16817,46.429752,-0.49589,122.83,36.58,11.792,88.2,0 / 18,1681646,2019-08-18 22:47:51:179,-0.619,0.1756,9.8116,-0.6015,0.2371,9.7853,0.0124,-0.0019,-0.0053
16818,46.429752,-0.49589,122.83,36.58,11.792,88.2,0 / 18,1681745,2019-08-18 22:47:51:278,-0.5915,0.0218,9.4381,-0.6019,0.2317,9.7854,-0.0014,-0.003,-0.0064
16819,46.429752,-0.49589,122.83,36.58,11.792,88.2,0 / 18,1681846,2019-08-18 22:47:51:379,-0.6525,0.1164,10.4718,-0.6154,0.2193,9.7849,0.0028,0.0013,-0.0074
16820,46.429752,-0.49589,122.83,36.58,11.792,88.2,0 / 18,1681945,2019-08-18 22:47:51:478,-0.9063,0.0619,9.2531,-0.6594,0.1689,9.783,0.0071,-0.0009,-0.0064
16821,46.429752,-0.49589,122.83,36.58,11.792,88.2,0 / 18,1682045,2019-08-18 22:47:51:578,-0.689,-0.1907,9.9103,-0.6534,0.1628,9.7835,-0.0068,-0.0019,-0.0064
16822,46.429752,-0.49589,122.83,36.58,11.792,88.2,0 / 18,1682145,2019-08-18 22:47:51:678,-0.725,0.2876,9.5967,-0.656,0.1568,9.7834,-0.0036,0.0076,-0.0074
16823,46.429752,-0.49589,122.83,36.58,11.792,88.2,0 / 18,1682246,2019-08-18 22:47:51:779,-0.4556,0.0344,9.1083,-0.6453,0.126,9.7846,0.0071,-0.0051,-0.0074
16824,46.429752,-0.49589,122.83,36.58,11.792,88.2,0 / 18,1682345,2019-08-18 22:47:51:878,-0.1521,-0.0315,10.6376,-0.6384,0.1311,9.785,0.0081,-0.0115,-0.0074
16825,46.429752,-0.49589,122.83,36.58,11.792,88.2,0 / 18,1682445,2019-08-18 22:47:51:978,-0.2982,0.0314,9.9211,-0.6316,0.1306,9.7854,-0.0014,-0.0115,-0.0074
16826,46.429752,-0.49589,122.83,36.58,11.792,88.2,0 / 18,1682546,2019-08-18 22:47:52:079,-0.1312,0.1649,10.4939,-0.6168,0.1191,9.7865,-0.0142,-0.003,-0.0085
16827,46.429752,-0.49589,122.83,36.58,11.792,88.2,0 / 18,1682645,2019-08-18 22:47:52:178,-0.9674,0.3067,9.1089,-0.6133,0.1057,9.7869,-0.0036,0.0045,-0.0064
16828,46.429752,-0.49589,122.83,36.58,11.792,88.2,0 / 18,1682745,2019-08-18 22:47:52:278,-0.2347,0.1918,9.0364,-0.6106,0.1061,9.787,0.0018,0.0023,-0.0064
16829,46.429752,-0.49589,122.83,36.58,11.792,88.2,0 / 18,1682846,2019-08-18 22:47:52:379,-0.0695,-0.0985,9.3633,-0.6015,0.0971,9.7877,-0.011,0.0013,-0.0053
16830,46.429752,-0.49589,122.83,36.58,11.792,88.2,0 / 18,1682945,2019-08-18 22:47:52:478,-0.1342,0.178,10.4023,-0.5925,0.106,9.7882,0.0018,0.0013,-0.0032
16831,46.429752,-0.49589,122.83,36.58,11.792,88.2,0 / 18,1683045,2019-08-18 22:47:52:578,-0.8866,-0.0524,9.7326,-0.5715,0.1196,9.7893,0.0145,0.0023,-0.0032
16832,46.429752,-0.49589,122.83,36.58,11.792,88.2,0 / 18,1683146,2019-08-18 22:47:52:679,-0.8285,0.0523,9.5626,-0.5574,0.1277,9.79,-0.0014,-0.0051,-0.0032
16833,46.429752,-0.49589,122.83,36.58,11.792,88.2,0 / 18,1683245,2019-08-18 22:47:52:778,-0.5562,0.6126,9.1807,-0.5256,0.1428,9.7915,-0.0068,0.0034,-0.0021
16834,46.429752,-0.49589,122.83,36.58,11.792,88.2,0 / 18,1683345,2019-08-18 22:47:52:878,-0.0612,0.4779,9.6098,-0.5227,0.1501,9.7916,0.006,0.0002,-0.0011
16835,46.429752,-0.49589,122.83,36.58,11.792,88.2,0 / 18,1683445,2019-08-18 22:47:52:978,-0.1635,0.2834,10.1222,-0.5159,0.1588,9.7918,-0.0014,-0.0041,-0.0011
16836,46.429752,-0.49589,122.83,36.58,11.792,88.2,0 / 18,1683546,2019-08-18 22:47:53:079,-0.3006,0.0338,10.3149,-0.5062,0.1589,9.7923,0.0028,-0.0094,-0.0064
16837,46.429752,-0.49589,122.83,36.58,11.792,88.2,0 / 18,1683645,2019-08-18 22:47:53:178,-0.8279,0.2864,9.5632,-0.4989,0.1562,9.7927,-0.0078,0.0045,-0.0074
16838,46.429752,-0.49589,122.83,36.58,11.792,88.2,0 / 18,1683746,2019-08-18 22:47:53:279,-0.7842,0.3079,9.7619,-0.4972,0.1476,9.7929,-0.01,0.0066,-0.0064
16839,46.429752,-0.49589,122.83,36.58,11.792,88.2,0 / 18,1683846,2019-08-18 22:47:53:379,-0.6513,-0.1967,9.644,-0.5003,0.1424,9.7928,0.006,0.0055,-0.0074
16840,46.429752,-0.49589,122.83,36.58,11.792,88.2,0 / 18,1683945,2019-08-18 22:47:53:478,0.1256,-0.0512,9.796,-0.5095,0.1449,9.7923,0.0039,0.0087,-0.0074
16841,46.429752,-0.49589,122.83,36.58,11.792,88.2,0 / 18,1684046,2019-08-18 22:47:53:579,-0.2677,0.0254,10.273,-0.5116,0.1465,9.7922,0.0028,-0.0062,-0.0064
16842,46.429752,-0.49589,122.83,36.58,11.792,88.2,0 / 18,1684146,2019-08-18 22:47:53:679,-0.5771,0.2439,10.3125,-0.5101,0.1474,9.7923,0.0039,-0.003,-0.0064
16843,46.429752,-0.49589,122.83,36.58,11.792,88.2,0 / 18,1684245,2019-08-18 22:47:53:778,-1.2098,-0.0961,9.7349,-0.5212,0.1367,9.7918,0.0092,0.0034,-0.0064
16844,46.429752,-0.49589,122.83,36.58,11.792,88.2,0 / 18,1684346,2019-08-18 22:47:53:879,-0.6292,0.1756,9.4728,-0.5326,0.1165,9.7915,0.0018,0.0066,-0.0074
16845,46.429752,-0.49589,122.83,36.58,11.792,88.2,0 / 18,1684446,2019-08-18 22:47:53:979,-0.3981,0.1086,9.0299,-0.5366,0.1149,9.7913,-0.0057,-0.0019,-0.0085
16846,46.429752,-0.49589,122.83,36.58,11.792,88.2,0 / 18,1684545,2019-08-18 22:47:54:078,0.0615,0.1601,10.47,-0.536,0.1092,9.7914,-0.0014,-0.0083,-0.0106
16847,46.429752,-0.49589,122.83,36.58,11.792,88.2,0 / 18,1684646,2019-08-18 22:47:54:179,-0.7872,0.0266,9.6033,-0.5328,0.109,9.7916,0.0028,-0.0009,-0.0074
16848,46.429752,-0.49589,122.83,36.58,11.792,88.2,0 / 18,1684746,2019-08-18 22:47:54:279,-0.9692,0.0242,10.024,-0.5372,0.1026,9.7914,-0.0078,0.0002,-0.0074
16849,46.429752,-0.49589,122.83,36.58,11.792,88.2,0 / 18,1684846,2019-08-18 22:47:54:379,-1.0691,0.0116,8.8587,-0.5407,0.0981,9.7912,0.0081,0.0066,-0.0085
16850,46.429752,-0.49589,122.83,36.58,11.792,88.2,0 / 18,1684946,2019-08-18 22:47:54:479,-0.4556,-0.1464,10.0683,-0.5467,0.1017,9.7909,0.0081,0.0087,-0.0064
16851,46.429752,-0.49589,122.83,36.58,11.792,88.2,0 / 18,1685046,2019-08-18 22:47:54:579,-0.2755,0.0302,9.7326,-0.5534,0.0966,9.7905,-0.0004,-0.0019,-0.0096
16852,46.429752,-0.49589,122.83,36.58,11.792,88.2,0 / 18,1685146,2019-08-18 22:47:54:679,-0.397,0.0038,9.368,-0.573,0.1,9.7894,0.0049,0.0066,-0.0085
16853,46.429752,-0.49589,122.83,36.58,11.792,88.2,0 / 18,1685245,2019-08-18 22:47:54:778,-0.5658,-0.2422,10.1067,-0.5835,0.0967,9.7888,-0.0014,0.0013,-0.0106
16854,46.429752,-0.49589,122.83,36.58,11.792,88.2,0 / 18,1685346,2019-08-18 22:47:54:879,-1.287,-0.0081,10.0282,-0.639,0.0605,9.7856,0.0039,-0.0051,-0.0106
16855,46.429752,-0.49589,122.83,36.58,11.792,88.2,0 / 18,1685445,2019-08-18 22:47:54:978,-1.1817,0.0685,9.4872,-0.6748,0.0501,9.7833,-0.0004,-0.0009,-0.0074
16856,46.429752,-0.49589,122.83,36.58,11.792,88.2,0 / 18,1685546,2019-08-18 22:47:55:079,-0.877,-0.0776,9.6625,-0.6967,0.0445,9.7818,0.0103,-0.003,-0.0064
16857,46.429752,-0.49589,122.83,36.58,11.792,88.2,0 / 18,1685646,2019-08-18 22:47:55:179,-0.522,-0.0656,9.4171,-0.7474,0.0227,9.7781,-0.0014,0.0076,-0.0074
16858,46.429752,-0.49589,122.83,36.58,11.792,88.2,0 / 18,1685745,2019-08-18 22:47:55:278,-0.3784,0.0362,10.0785,-0.7525,0.0267,9.7777,0.0018,-0.0073,-0.0074
16859,46.429752,-0.49589,122.83,36.58,11.792,88.2,0 / 18,1685846,2019-08-18 22:47:55:379,-0.892,-0.0686,9.8487,-0.7523,0.033,9.7777,0.0039,-0.003,-0.0064
16860,46.429752,-0.49589,122.83,36.58,11.792,88.2,0 / 18,1685945,2019-08-18 22:47:55:478,-1.6378,-0.1248,8.8617,-0.7502,0.0284,9.7779,-0.0025,-0.0041,-0.0053
16861,46.429752,-0.49589,122.83,36.58,11.792,88.2,0 / 18,1686045,2019-08-18 22:47:55:578,-0.7142,0.1553,9.3273,-0.7498,0.0306,9.7779,0.0007,0.0013,-0.0053
16862,46.429752,-0.49589,122.83,36.58,11.792,88.2,0 / 18,1686146,2019-08-18 22:47:55:679,-0.5574,-0.0153,9.6404,-0.7499,0.0331,9.7779,-0.0036,0.0002,-0.0042
16863,46.429752,-0.49589,122.83,36.58,11.792,88.2,0 / 18,1686246,2019-08-18 22:47:55:779,-0.2491,0.044,10.2294,-0.7495,0.0455,9.7779,0.006,-0.0041,-0.0053
16864,46.429752,-0.49589,122.83,36.58,11.792,88.2,0 / 18,1686345,2019-08-18 22:47:55:878,-0.6807,-0.1566,9.7649,-0.7539,0.058,9.7775,0.0071,0.0045,-0.0064
16865,46.429752,-0.49589,122.83,36.58,11.792,88.2,0 / 18,1686446,2019-08-18 22:47:55:979,-0.5819,0.29,9.538,-0.7507,0.067,9.7776,0.0007,-0.0019,-0.0074
16866,46.429752,-0.49589,122.83,36.58,11.792,88.2,0 / 18,1686545,2019-08-18 22:47:56:078,-0.971,0.1457,9.6206,-0.7364,0.0745,9.7787,0.0039,-0.0051,-0.0032
