,GPS LATITUDE (degrees), GPS LONGITUDE (degrees), GPS ALTITUDE (m), GPS SPEED (Kmh), GPS ACCURACY (m), GPS ORIENTATION (Â°),GPS SATELLITES IN RANGE, TIME SINCE START (ms), DATE (YYYY-MO-DD HH-MI-SS_SSS), ACCELEROMETER X (m/s²) , ACCELEROMETER Y (m/s²), ACCELEROMETER Z (m/s²), GRAVITY X (m/s²), GRAVITY Y (m/s²), GRAVITY Z (m/s²), GYROSCOPE Yaw (rad/s), GYROSCOPE Pitch (rad/s), GYROSCOPE Roll (rad/s), MAGNETIC FIELD X (Î¼T), MAGNETIC FIELD Y (Î¼T), MAGNETIC FIELD Z (Î¼T), ORIENTATION (Yaw) (Â°), ORIENTATION (Pitch) (Â°), ORIENTATION (Roll ) (Â°)
4932,52.772896,-1.422961,180.56,26.04,4,22.18,24 / 24,493239,2019-11-08 10:05:30:850,4.9327,0.803,9.6422,0.0269,-0.016,9.8065,0.0647,0.2764,-0.2854,-19.56,-43.12,30.75,346.17,-82.24,-158.72
4933,52.772896,-1.422961,180.56,26.04,4,22.18,24 / 24,493339,2019-11-08 10:05:30:950,2.2,2.8783,8.4695,0.0239,0.0391,9.8065,0.0376,0.0105,-0.0292,-19.12,-43.5,29.75,347.19,-82.28,-158.28
4934,52.772896,-1.422961,180.56,26.04,4,22.18,24 / 24,493439,2019-11-08 10:05:31:050,-3.9788,-2.4324,11.5895,-0.024,-0.0876,9.8062,0.1443,-0.4357,0.2516,-19.0,-43.25,30.63,348.01,-82.32,-158.5
4935,52.772896,-1.422961,180.56,26.04,4,22.18,25 / 25,493539,2019-11-08 10:05:31:150,1.4383,1.8519,9.7984,0.0124,-0.0288,9.8065,0.0798,-0.2902,0.1446,-18.81,-44.0,30.94,348.58,-81.87,-157.86
4936,52.772896,-1.422961,180.56,26.04,4,22.18,25 / 25,493639,2019-11-08 10:05:31:250,-1.2091,-1.6053,11.2138,0.0028,-0.0152,9.8065,0.0517,-0.1476,0.0559,-18.37,-43.56,31.56,349.1,-81.86,-159.6
4937,52.772896,-1.422961,180.56,26.04,4,22.18,25 / 25,493738,2019-11-08 10:05:31:349,-1.4358,-1.0213,8.584,-0.0149,-0.0188,9.8066,-0.0095,0.1637,-0.1088,-19.12,-44.19,30.69,348.17,-81.95,-158.22
4938,52.772896,-1.422961,180.56,26.04,4,22.18,25 / 25,493838,2019-11-08 10:05:31:449,2.541,1.1323,8.5873,0.043,0.0207,9.8065,0.0316,0.2319,-0.2252,-18.5,-44.19,30.56,351.15,-82.12,-157.15
4939,52.772896,-1.422961,180.56,26.04,4,22.18,25 / 25,493938,2019-11-08 10:05:31:549,-0.3323,-0.8075,9.2468,-0.0033,0.0089,9.8066,0.0257,0.3682,-0.2539,-18.62,-43.94,30.63,349.04,-82.31,-157.6
4940,52.772896,-1.422961,180.56,26.04,4,22.18,25 / 25,494038,2019-11-08 10:05:31:649,3.1976,1.7696,9.8409,0.0496,0.0184,9.8064,-0.037,0.3604,-0.2502,-18.87,-44.19,30.31,348.55,-82.2,-157.09
4941,52.772896,-1.422961,180.56,26.04,4,22.18,25 / 25,494139,2019-11-08 10:05:31:750,-0.5077,-1.2198,10.621,0.0254,0.0183,9.8066,0.0482,0.3024,-0.2122,-19.06,-44.12,30.63,348.05,-82.03,-158.34
4942,52.772896,-1.422961,180.56,26.04,4,22.18,25 / 25,494239,2019-11-08 10:05:31:850,2.2821,1.569,9.9627,0.0481,0.0216,9.8064,-0.0078,0.1577,-0.1838,-19.06,-43.81,30.38,346.1,-82.02,-159.05
4943,52.772896,-1.422961,180.56,26.04,4,22.18,25 / 25,494339,2019-11-08 10:05:31:950,-1.9684,-0.0052,8.7899,0.0286,0.0326,9.8065,0.0385,0.1302,-0.1106,-18.94,-43.81,30.44,342.88,-82.11,-161.75
4944,52.772896,-1.422961,180.56,26.04,4,22.18,25 / 25,494439,2019-11-08 10:05:32:050,2.7211,0.3976,9.1803,0.0225,0.0143,9.8066,-0.0475,0.1552,-0.1057,-18.94,-44.56,30.63,346.14,-82.2,-159.92
4945,52.774895,-1.421546,179.57,27.82,4,24.75,23 / 25,494540,2019-11-08 10:05:32:151,-0.6384,0.1759,8.7397,0.0209,0.0113,9.8065,0.0424,0.0492,-0.0579,-19.25,-44.75,30.56,346.49,-82.14,-159.62
4946,52.774895,-1.421546,179.57,27.82,4,24.75,23 / 25,494639,2019-11-08 10:05:32:250,0.4094,1.0157,9.715,0.0098,0.0055,9.8066,-0.0219,-0.0317,-0.0123,-18.69,-43.94,30.5,346.86,-82.2,-159.38
4947,52.774895,-1.421546,179.57,27.82,4,24.75,23 / 25,494739,2019-11-08 10:05:32:350,0.4688,-0.4277,9.8213,0.0062,-0.0037,9.8066,0.0161,-0.0809,0.0084,-18.87,-44.12,29.5,345.67,-82.1,-159.44
4948,52.774895,-1.421546,179.57,27.82,4,24.75,23 / 25,494839,2019-11-08 10:05:32:450,0.7041,-0.4577,11.106,0.0034,-0.0171,9.8066,0.0544,0.0185,-0.0316,-19.31,-44.25,30.44,346.59,-82.11,-158.68
4949,52.774895,-1.421546,179.57,27.82,4,24.75,23 / 25,494939,2019-11-08 10:05:32:550,0.5699,3.1036,10.7882,-0.0148,-0.034,9.8065,-0.0399,0.3103,-0.1858,-19.12,-45.19,30.75,348.52,-81.88,-157.86
4950,52.774895,-1.421546,179.57,27.82,4,24.75,23 / 25,495038,2019-11-08 10:05:32:649,1.1669,0.9166,9.5971,0.0178,0.0088,9.8065,0.059,0.2655,-0.19,-19.37,-43.62,31.06,348.0,-81.65,-158.27
4951,52.774895,-1.421546,179.57,27.82,4,24.75,23 / 25,495138,2019-11-08 10:05:32:749,-2.3083,-1.3738,9.1706,-0.0177,0.0069,9.8066,-0.007,0.1244,-0.0723,-19.69,-44.12,30.69,346.16,-81.6,-158.48
4952,52.774895,-1.421546,179.57,27.82,4,24.75,23 / 25,495239,2019-11-08 10:05:32:850,-0.297,-0.0314,8.2867,0.0064,0.0104,9.8066,0.0709,-0.1395,-0.0425,-19.06,-44.31,30.13,347.07,-81.63,-158.13
4953,52.774895,-1.421546,179.57,27.82,4,24.75,23 / 25,495338,2019-11-08 10:05:32:949,0.7112,0.7278,9.8886,-0.0301,0.0181,9.8066,0.0836,-0.0053,-0.0713,-19.62,-43.81,30.69,346.85,-81.89,-158.0
4954,52.774895,-1.421546,179.57,27.82,4,24.75,23 / 25,495441,2019-11-08 10:05:33:052,-2.4943,-0.5828,9.1739,-0.0238,-0.0103,9.8065,0.069,-0.0508,-0.0853,-19.12,-44.37,30.5,347.02,-81.88,-159.15
4955,52.774895,-1.421546,179.57,27.82,4,24.75,24 / 25,495538,2019-11-08 10:05:33:149,1.8211,-0.6921,9.9132,-0.0231,0.0057,9.8065,0.0354,0.0489,-0.0686,-19.19,-44.62,30.5,346.32,-81.9,-159.68
4956,52.774895,-1.421546,179.57,27.82,4,24.75,24 / 25,495638,2019-11-08 10:05:33:249,-1.2686,-0.5987,9.2297,0.0243,0.0108,9.8065,-0.003,0.072,-0.1003,-18.75,-44.37,30.94,346.39,-82.07,-159.73
4957,52.774895,-1.421546,179.57,27.82,4,24.75,24 / 25,495739,2019-11-08 10:05:33:350,2.4747,1.4716,9.3957,-0.0222,-0.0297,9.8066,-0.0333,0.2078,-0.1979,-19.25,-44.5,30.75,348.53,-82.01,-157.94
4958,52.774895,-1.421546,179.57,27.82,4,24.75,24 / 25,495839,2019-11-08 10:05:33:450,-1.2225,-0.9236,9.1699,-0.0347,-0.0032,9.8066,-0.0821,0.3053,-0.1737,-19.0,-44.69,30.69,347.16,-82.05,-159.03
4959,52.774895,-1.421546,179.57,27.82,4,24.75,24 / 25,495938,2019-11-08 10:05:33:549,0.0748,-0.8057,10.4242,-0.0068,-0.0067,9.8066,-0.0612,0.1032,-0.084,-19.0,-44.56,30.44,346.38,-82.12,-158.8
4960,52.774895,-1.421546,179.57,27.82,4,24.75,24 / 25,496038,2019-11-08 10:05:33:649,1.5035,0.1502,9.6251,-0.0083,0.021,9.8066,-0.0246,0.0246,-0.0219,-19.44,-44.44,31.38,347.47,-82.27,-158.89
4961,52.774895,-1.421546,179.57,27.82,4,24.75,24 / 25,496139,2019-11-08 10:05:33:750,0.7364,0.6535,9.8029,0.0221,0.0013,9.8066,-0.0664,-0.1011,0.0653,-18.69,-43.94,30.38,345.5,-82.4,-159.68
4962,52.774895,-1.421546,179.57,27.82,4,24.75,24 / 25,496238,2019-11-08 10:05:33:849,-0.5848,-0.584,9.8024,-0.0021,-0.0055,9.8066,-0.0177,-0.0691,0.1131,-19.12,-44.62,30.56,346.33,-82.37,-159.82
4963,52.774895,-1.421546,179.57,27.82,4,24.75,24 / 25,496338,2019-11-08 10:05:33:949,-0.5631,0.0482,9.3585,0.0224,0.0007,9.8065,-0.0466,-0.0698,0.1134,-19.06,-44.37,30.38,345.03,-82.28,-160.03
4964,52.774895,-1.421546,179.57,27.82,4,24.75,24 / 25,496438,2019-11-08 10:05:34:049,0.5409,0.1251,9.9322,-0.0201,-0.0019,9.8065,0.0074,-0.1244,0.1058,-19.25,-44.44,30.19,346.86,-82.16,-158.47
4965,52.774895,-1.421546,179.57,27.82,4,24.75,24 / 24,496538,2019-11-08 10:05:34:149,1.1528,0.5922,9.6578,0.0193,0.0229,9.8065,0.0048,-0.1729,0.1093,-20.12,-44.06,29.94,347.94,-82.15,-156.26
4966,52.774895,-1.421546,179.57,27.82,4,24.75,24 / 24,496638,2019-11-08 10:05:34:249,0.7756,-0.1223,10.9696,0.018,-0.0188,9.8066,-0.0572,-0.0334,0.0549,-19.0,-44.06,31.06,349.5,-82.22,-157.19
4967,52.774895,-1.421546,179.57,27.82,4,24.75,24 / 24,496739,2019-11-08 10:05:34:350,0.8211,1.1348,9.3904,0.0053,-0.0053,9.8066,-0.0691,0.0723,-0.0472,-19.37,-44.25,30.19,347.6,-82.05,-157.82
4968,52.774895,-1.421546,179.57,27.82,4,24.75,24 / 24,496838,2019-11-08 10:05:34:449,0.2563,0.7659,10.8899,-0.0001,-0.0186,9.8066,-0.0395,0.0791,0.0054,-19.31,-44.5,30.38,349.08,-82.17,-156.64
4969,52.774895,-1.421546,179.57,27.82,4,24.75,24 / 24,496938,2019-11-08 10:05:34:549,0.6132,0.6125,9.4117,-0.0082,-0.0243,9.8066,-0.0693,0.0013,0.0525,-19.94,-43.81,30.5,349.89,-82.05,-155.53
4970,52.774895,-1.421546,179.57,27.82,4,24.75,24 / 24,497039,2019-11-08 10:05:34:650,-0.1175,0.3375,9.7476,0.0151,-0.0003,9.8066,-0.0379,-0.0249,0.0474,-19.37,-44.25,30.06,351.96,-82.15,-154.26
4971,52.774895,-1.421546,179.57,27.82,4,24.75,24 / 24,497139,2019-11-08 10:05:34:750,-1.0757,-1.1916,9.2563,-0.0278,-0.005,9.8065,0.0162,0.0206,0.0192,-20.0,-44.12,30.81,350.54,-82.16,-155.01
4972,52.774895,-1.421546,179.57,27.82,4,24.75,24 / 24,497239,2019-11-08 10:05:34:850,-2.0103,-0.164,8.3373,-0.0031,0.0061,9.8066,0.0493,-0.003,-0.0475,-19.62,-44.37,30.63,350.7,-82.23,-154.89
4973,52.774895,-1.421546,179.57,27.82,4,24.75,24 / 24,497339,2019-11-08 10:05:34:950,0.794,0.1273,11.6718,-0.03,0.0043,9.8066,0.1906,-0.0518,0.0335,-19.31,-44.25,30.94,352.02,-82.28,-155.11
4974,52.774895,-1.421546,179.57,27.82,4,24.75,24 / 24,497439,2019-11-08 10:05:35:050,-2.5489,0.9333,9.3268,-0.0492,0.0202,9.8064,0.0807,0.1548,-0.2108,-19.12,-43.75,31.25,349.25,-82.22,-157.39
4975,52.774895,-1.421546,179.57,27.82,4,24.75,24 / 24,497539,2019-11-08 10:05:35:150,2.4758,0.8183,11.3413,-0.0029,0.0019,9.8066,0.153,0.2191,-0.2893,-19.44,-44.12,30.06,348.55,-82.39,-157.14
4976,52.774895,-1.421546,179.57,27.82,4,24.75,24 / 24,497638,2019-11-08 10:05:35:249,-0.6714,-1.0224,11.9497,-0.0413,-0.0328,9.8064,0.1176,0.2921,-0.3263,-19.25,-44.12,31.13,347.76,-82.33,-158.66
4977,52.774895,-1.421546,179.57,27.82,4,24.75,24 / 24,497738,2019-11-08 10:05:35:349,0.638,2.6914,8.4737,0.0257,-0.0326,9.8065,0.0077,0.1895,-0.2427,-19.12,-44.5,29.94,347.2,-82.2,-158.2
4978,52.774895,-1.421546,179.57,27.82,4,24.75,24 / 24,497839,2019-11-08 10:05:35:450,0.3439,0.9767,9.0464,0.017,-0.0053,9.8066,0.0759,-0.0575,0.0449,-19.5,-44.25,30.31,349.03,-82.35,-156.73
4979,52.774895,-1.421546,179.57,27.82,4,24.75,24 / 24,497939,2019-11-08 10:05:35:550,-1.5955,1.5996,8.6434,0.0342,-0.0296,9.8065,-0.0051,0.0156,-0.0145,-18.87,-43.94,30.44,347.44,-82.19,-158.0
4980,52.774895,-1.421546,179.57,27.82,4,24.75,24 / 24,498038,2019-11-08 10:05:35:649,0.2953,0.182,10.8599,0.0125,0.0032,9.8066,-0.1178,-0.0352,0.0149,-19.19,-44.44,30.25,347.15,-82.21,-158.24
4981,52.774895,-1.421546,179.57,27.82,4,24.75,24 / 24,498139,2019-11-08 10:05:35:750,0.1457,-1.6242,9.8581,-0.0017,0.0064,9.8066,-0.0511,-0.0501,0.1113,-19.12,-44.37,30.94,348.7,-82.19,-157.85
4982,52.774895,-1.421546,179.57,27.82,4,24.75,24 / 24,498238,2019-11-08 10:05:35:849,-2.4849,1.1144,8.153,0.0452,-0.0095,9.8065,-0.3116,-0.375,0.3024,-19.12,-45.0,31.13,349.46,-82.32,-157.21
4983,52.774895,-1.421546,179.57,27.82,4,24.75,24 / 24,498338,2019-11-08 10:05:35:949,-5.2595,-1.7965,9.5485,-0.0158,-0.0029,9.8066,-0.1898,-0.3999,0.3487,-19.25,-44.12,30.44,348.12,-82.13,-157.42
4984,52.774895,-1.421546,179.57,27.82,4,24.75,24 / 24,498438,2019-11-08 10:05:36:049,3.5146,0.5387,10.5172,-0.059,-0.0362,9.8063,-0.0556,-0.0319,0.1149,-19.0,-44.56,30.88,349.87,-82.02,-156.8
4985,52.774895,-1.421546,179.57,27.82,4,24.75,25 / 25,498538,2019-11-08 10:05:36:149,-1.6976,1.2984,9.6718,0.0124,0.0179,9.8066,-0.04,0.0661,-0.0003,-19.37,-44.62,30.81,347.7,-81.93,-158.56
4986,52.774895,-1.421546,179.57,27.82,4,24.75,25 / 25,498638,2019-11-08 10:05:36:249,2.3785,0.5816,8.6587,-0.0119,-0.0009,9.8065,-0.0335,0.2122,-0.112,-18.94,-43.94,30.81,346.71,-81.79,-159.38
4987,52.774895,-1.421546,179.57,27.82,4,24.75,25 / 25,498738,2019-11-08 10:05:36:349,0.2862,1.0203,10.2234,-0.0292,0.0396,9.8065,-0.0788,0.1863,-0.0482,-19.12,-43.87,30.38,347.93,-82.18,-157.59
4988,52.774895,-1.421546,179.57,27.82,4,24.75,25 / 25,498838,2019-11-08 10:05:36:449,-2.2556,-1.2867,9.5964,0.0157,0.0164,9.8065,-0.1114,0.1785,-0.0877,-18.62,-44.81,30.5,348.7,-82.17,-157.8
4989,52.774895,-1.421546,179.57,27.82,4,24.75,25 / 25,498938,2019-11-08 10:05:36:549,1.4091,0.3073,10.5287,-0.0032,0.0005,9.8066,-0.0806,0.0601,-0.0179,-19.12,-44.44,30.5,348.63,-81.96,-157.84
4990,52.774895,-1.421546,179.57,27.82,4,24.75,25 / 25,499039,2019-11-08 10:05:36:650,-2.1804,0.9887,9.0429,-0.0421,0.0169,9.8065,-0.0335,-0.0575,0.1883,-19.62,-44.25,30.0,345.34,-81.93,-158.34
4991,52.774895,-1.421546,179.57,27.82,4,24.75,25 / 25,499139,2019-11-08 10:05:36:750,1.8742,-0.1126,11.25,-0.0134,-0.0133,9.8066,0.1013,-0.0404,0.0591,-18.75,-44.19,31.06,347.94,-82.04,-158.44
4992,52.774895,-1.421546,179.57,27.82,4,24.75,25 / 25,499240,2019-11-08 10:05:36:851,0.7538,-0.7098,11.4528,-0.029,-0.0042,9.8065,0.1086,0.0229,-0.0517,-19.19,-44.62,31.25,348.29,-81.97,-158.08
4993,52.774895,-1.421546,179.57,27.82,4,24.75,25 / 25,499339,2019-11-08 10:05:36:950,-1.6,0.9841,9.3042,0.013,0.0047,9.8066,0.182,0.0438,-0.0982,-19.75,-44.06,30.56,348.63,-82.13,-156.59
4994,52.774895,-1.421546,179.57,27.82,4,24.75,25 / 25,499439,2019-11-08 10:05:37:050,-1.018,-1.5882,10.0596,0.0049,0.0239,9.8066,0.1635,0.0702,-0.1409,-19.62,-44.19,30.31,349.54,-82.38,-155.0
4995,52.774895,-1.421546,179.57,27.82,4,24.75,23 / 24,499540,2019-11-08 10:05:37:151,-0.8002,1.5871,8.6697,0.0301,-0.0302,9.8065,0.1032,-0.0809,-0.0094,-19.5,-44.81,30.25,352.18,-82.33,-154.09
4996,52.774895,-1.421546,179.57,27.82,4,24.75,23 / 24,499638,2019-11-08 10:05:37:249,-1.1473,0.8223,7.8047,-0.0115,0.021,9.8065,-0.2153,-0.0324,0.035,-19.25,-44.5,30.31,350.84,-82.11,-155.18
4997,52.774895,-1.421546,179.57,27.82,4,24.75,23 / 24,499738,2019-11-08 10:05:37:349,2.2135,1.4198,8.8571,-0.0381,0.0296,9.8065,-0.0971,-0.1393,0.1705,-19.37,-45.06,30.75,352.19,-82.46,-154.97
4998,52.774895,-1.421546,179.57,27.82,4,24.75,23 / 24,499839,2019-11-08 10:05:37:450,-3.866,-1.0303,10.6427,-0.0128,-0.0533,9.8064,0.109,-0.4931,0.2566,-18.69,-44.31,30.75,350.52,-82.57,-156.42
4999,52.774895,-1.421546,179.57,27.82,4,24.75,23 / 24,499939,2019-11-08 10:05:37:550,2.9501,-0.0353,9.7002,-0.0327,-0.0527,9.8064,0.0822,-0.4811,0.2241,-19.19,-44.5,31.0,351.38,-82.11,-155.61
5000,52.774895,-1.421546,179.57,27.82,4,24.75,23 / 24,500038,2019-11-08 10:05:37:649,2.9882,1.287,9.3929,-0.0285,0.0089,9.8066,-0.0527,-0.2344,0.2446,-19.06,-44.25,30.38,348.25,-82.09,-157.3
5001,52.774895,-1.421546,179.57,27.82,4,24.75,23 / 24,500138,2019-11-08 10:05:37:749,2.9363,0.5952,9.5786,-0.0641,-0.0242,9.8063,-0.1474,-0.1368,0.1698,-19.06,-43.75,31.38,348.54,-82.29,-158.0
5002,52.774895,-1.421546,179.57,27.82,4,24.75,23 / 24,500238,2019-11-08 10:05:37:849,3.1319,1.3674,9.1914,0.0269,0.0153,9.8065,-0.0889,0.2859,-0.1157,-19.31,-43.69,30.44,349.73,-82.09,-156.08
5003,52.774895,-1.421546,179.57,27.82,4,24.75,23 / 24,500339,2019-11-08 10:05:37:950,1.5538,0.3575,11.1837,0.076,-0.016,9.8063,0.038,0.2562,-0.1429,-20.0,-44.12,30.75,345.88,-81.89,-158.8
5004,52.774895,-1.421546,179.57,27.82,4,24.75,23 / 24,500438,2019-11-08 10:05:38:049,4.6208,1.3571,10.514,0.0065,-0.0113,9.8066,0.1028,0.0798,-0.0748,-19.37,-44.25,31.75,351.19,-81.82,-156.54
5005,52.774895,-1.421546,179.57,27.82,4,24.75,23 / 24,500538,2019-11-08 10:05:38:149,0.7773,0.9468,9.8458,0.0551,0.032,9.8064,-0.0107,-0.222,0.1727,-19.87,-43.94,31.0,347.21,-81.75,-157.66
5006,52.774895,-1.421546,179.57,27.82,4,24.75,23 / 24,500638,2019-11-08 10:05:38:249,-0.3582,-2.3526,10.5623,-0.0085,-0.0343,9.8065,0.0332,-0.3221,0.2196,-19.19,-45.06,30.56,349.1,-81.8,-157.37
5007,52.774895,-1.421546,179.57,27.82,4,24.75,23 / 24,500739,2019-11-08 10:05:38:350,4.227,2.2542,8.5096,0.0323,0.0141,9.8065,0.0749,-0.5041,0.31,-19.75,-44.69,30.06,347.62,-81.7,-156.35
5008,52.774895,-1.421546,179.57,27.82,4,24.75,23 / 24,500839,2019-11-08 10:05:38:450,-0.0957,-0.1246,11.2495,-0.0182,-0.0611,9.8064,0.2303,-0.4012,0.3167,-19.37,-43.69,30.75,348.44,-81.98,-158.0
5009,52.774895,-1.421546,179.57,27.82,4,24.75,23 / 24,500939,2019-11-08 10:05:38:550,1.2708,3.4012,8.5108,0.0097,0.0029,9.8066,0.0543,-0.3094,0.0595,-19.0,-44.19,30.44,347.99,-81.88,-157.46
5010,52.774895,-1.421546,179.57,27.82,4,24.75,23 / 24,501039,2019-11-08 10:05:38:650,2.1624,-1.1614,11.2337,-0.0005,-0.0354,9.8065,0.1073,-0.0597,-0.0348,-18.87,-44.19,30.81,351.68,-82.13,-155.36
5011,52.774895,-1.421546,179.57,27.82,4,24.75,23 / 24,501139,2019-11-08 10:05:38:750,2.9205,0.5839,10.8552,-0.0344,-0.0145,9.8065,0.1343,-0.0441,-0.0512,-20.0,-44.0,30.25,350.19,-82.07,-154.38
5012,52.774895,-1.421546,179.57,27.82,4,24.75,23 / 24,501238,2019-11-08 10:05:38:849,-0.6373,-1.6664,9.7478,-0.0098,0.0149,9.8065,0.0298,0.1035,-0.138,-19.12,-44.31,30.38,350.81,-82.1,-155.2
5013,52.774895,-1.421546,179.57,27.82,4,24.75,23 / 24,501338,2019-11-08 10:05:38:949,-1.6668,-0.357,10.5927,-0.0827,0.0018,9.8063,-0.0585,0.1739,-0.14,-19.37,-44.19,30.5,349.8,-82.28,-156.96
5014,52.774895,-1.421546,179.57,27.82,4,24.75,23 / 24,501438,2019-11-08 10:05:39:049,-1.0598,-0.8339,9.729,-0.0617,0.0192,9.8064,-0.0726,0.1515,-0.0304,-19.0,-44.87,30.5,350.33,-82.31,-156.48
5015,52.774895,-1.421546,179.57,27.82,4,24.75,23 / 24,501538,2019-11-08 10:05:39:149,1.5272,-0.3423,11.4429,-0.0101,-0.0129,9.8066,-0.1786,0.0464,0.0273,-19.5,-43.87,31.25,351.72,-82.29,-155.36
5016,52.774895,-1.421546,179.57,27.82,4,24.75,23 / 24,501638,2019-11-08 10:05:39:249,-0.152,2.1893,8.151,-0.0112,-0.0103,9.8066,-0.2196,0.1741,0.0317,-19.31,-44.56,31.0,350.66,-82.16,-156.18
5017,52.774895,-1.421546,179.57,27.82,4,24.75,23 / 24,501738,2019-11-08 10:05:39:349,-3.7975,0.7162,8.0541,0.0621,-0.0269,9.8063,-0.1809,0.1089,0.0473,-19.06,-44.06,30.63,349.99,-81.97,-156.72
5018,52.774895,-1.421546,179.57,27.82,4,24.75,23 / 24,501839,2019-11-08 10:05:39:450,2.1312,4.1813,9.69,0.0416,0.045,9.8064,-0.1179,0.0339,0.0908,-19.81,-44.31,30.19,349.89,-82.05,-154.62
5019,52.774895,-1.421546,179.57,27.82,4,24.75,23 / 24,501939,2019-11-08 10:05:39:550,1.6638,0.598,9.8527,0.0227,0.0452,9.8064,-0.016,-0.3118,0.2148,-18.62,-44.25,31.06,353.9,-82.17,-153.54
5020,52.774895,-1.421546,179.57,27.82,4,24.75,23 / 24,502039,2019-11-08 10:05:39:650,0.6799,3.4703,9.7838,0.045,-0.0402,9.8064,0.1747,-0.3108,0.194,-19.31,-43.75,30.81,353.41,-82.18,-153.94
5021,52.774895,-1.421546,179.57,27.82,4,24.75,23 / 24,502138,2019-11-08 10:05:39:749,0.8401,1.4244,9.3156,0.016,0.0076,9.8066,0.2049,-0.1744,-0.0164,-19.69,-43.94,30.69,349.32,-81.7,-155.91
5022,52.774895,-1.421546,179.57,27.82,4,24.75,23 / 24,502239,2019-11-08 10:05:39:850,1.7445,-2.9003,10.926,-0.0316,-0.0026,9.8066,0.2385,0.0375,-0.1539,-19.06,-43.69,31.5,352.77,-81.85,-155.25
5023,52.774895,-1.421546,179.57,27.82,4,24.75,23 / 24,502339,2019-11-08 10:05:39:950,6.2993,0.3383,10.542,-0.0991,0.0047,9.8061,0.1275,0.3948,-0.3913,-19.62,-44.19,30.81,355.33,-82.2,-151.04
5024,52.774895,-1.421546,179.57,27.82,4,24.75,23 / 24,502439,2019-11-08 10:05:40:050,-2.1446,1.1788,8.283,-0.0374,0.0154,9.8065,0.1062,0.4297,-0.3948,-20.12,-44.0,31.0,353.97,-82.4,-152.2
5025,52.774895,-1.421546,179.57,27.82,4,24.75,25 / 25,502538,2019-11-08 10:05:40:149,-2.0474,0.2626,10.8332,-0.033,-0.0422,9.8065,-0.0092,0.2948,-0.2441,-19.87,-43.56,31.0,352.4,-82.5,-153.53
5026,52.774895,-1.421546,179.57,27.82,4,24.75,25 / 25,502638,2019-11-08 10:05:40:249,0.4829,-1.8162,11.2532,-0.0242,0.0207,9.8065,-0.0613,0.2695,-0.1435,-19.75,-44.06,30.88,351.99,-82.21,-153.82
5027,52.774895,-1.421546,179.57,27.82,4,24.75,25 / 25,502739,2019-11-08 10:05:40:350,-4.1261,0.5445,10.4071,0.0076,-0.007,9.8066,-0.1678,-0.0868,0.168,-19.31,-44.19,31.19,355.38,-82.41,-152.34
5028,52.774895,-1.421546,179.57,27.82,4,24.75,25 / 25,502838,2019-11-08 10:05:40:449,3.7304,-1.029,9.8925,0.0331,0.0447,9.8064,-0.0526,-0.2935,0.2351,-19.69,-43.69,31.13,358.62,-82.61,-148.33
5029,52.774895,-1.421546,179.57,27.82,4,24.75,25 / 25,502938,2019-11-08 10:05:40:549,-3.2916,0.7236,11.4594,0.0274,0.0125,9.8066,0.1367,-0.3077,0.184,-19.81,-44.37,30.25,356.65,-82.67,-149.11
5030,52.774895,-1.421546,179.57,27.82,4,24.75,25 / 25,503039,2019-11-08 10:05:40:650,1.725,0.9778,9.1679,0.029,0.0336,9.8065,0.1141,-0.2279,0.1274,-19.37,-44.12,30.69,357.28,-82.31,-150.76
5031,52.774895,-1.421546,179.57,27.82,4,24.75,25 / 25,503139,2019-11-08 10:05:40:750,-0.0255,0.6435,8.954,-0.0146,0.0357,9.8065,-0.0789,-0.0997,0.0529,-19.62,-44.12,30.75,354.86,-82.43,-151.46
5032,52.774895,-1.421546,179.57,27.82,4,24.75,25 / 25,503238,2019-11-08 10:05:40:849,1.5039,-1.6022,8.2629,-0.0048,-0.0096,9.8066,-0.0229,-0.0403,-0.0322,-19.44,-44.0,30.44,357.14,-82.93,-150.05
5033,52.774895,-1.421546,179.57,27.82,4,24.75,25 / 25,503338,2019-11-08 10:05:40:949,1.9119,3.2526,10.7895,-0.0396,0.0189,9.8065,0.1515,0.3973,-0.2512,-19.44,-43.75,30.13,358.64,-83.05,-148.8
5034,52.774895,-1.421546,179.57,27.82,4,24.75,25 / 25,503438,2019-11-08 10:05:41:049,-1.1804,-0.8958,9.5535,-0.073,-0.0321,9.8063,0.1037,0.5826,-0.3944,-19.0,-43.87,30.81,356.95,-83.11,-151.08
5035,52.776997,-1.419895,178.43,29.39,4,25.77,23 / 24,503540,2019-11-08 10:05:41:151,2.3995,4.5385,8.8756,-0.0269,-0.0637,9.8063,0.1232,0.3806,-0.4148,-19.37,-44.5,30.63,357.93,-82.66,-150.23
5036,52.776997,-1.419895,178.43,29.39,4,25.77,23 / 24,503638,2019-11-08 10:05:41:249,0.8706,-0.0913,9.1664,-0.0197,0.0056,9.8066,0.0825,0.1345,-0.202,-19.37,-43.56,31.06,354.78,-82.49,-152.85
5037,52.776997,-1.419895,178.43,29.39,4,25.77,23 / 24,503738,2019-11-08 10:05:41:349,-0.9433,-4.2015,11.6449,0.0079,-0.0308,9.8066,0.1113,-0.1398,0.1798,-19.5,-43.87,31.94,357.4,-82.6,-151.48
5038,52.776997,-1.419895,178.43,29.39,4,25.77,23 / 24,503839,2019-11-08 10:05:41:450,4.3606,-1.0897,9.993,0.0476,0.0455,9.8064,-0.1904,-0.6376,0.3857,-19.81,-44.0,31.25,357.47,-82.6,-149.29
5039,52.776997,-1.419895,178.43,29.39,4,25.77,23 / 24,503939,2019-11-08 10:05:41:550,-5.8599,-3.0163,8.4891,0.0436,0.0398,9.8064,-0.2568,-0.5917,0.4991,-20.0,-43.5,31.06,357.25,-83.02,-149.51
5040,52.776997,-1.419895,178.43,29.39,4,25.77,23 / 24,504039,2019-11-08 10:05:41:650,-0.0688,2.7022,10.894,0.1066,0.0041,9.806,-0.088,-0.2606,0.3212,-20.06,-43.37,30.69,358.91,-82.7,-148.09
5041,52.776997,-1.419895,178.43,29.39,4,25.77,23 / 24,504139,2019-11-08 10:05:41:750,-2.9753,-2.2382,12.1891,0.0253,0.0326,9.8065,-0.0485,-0.1651,0.1801,-20.0,-43.94,30.75,354.04,-82.49,-152.15
5042,52.776997,-1.419895,178.43,29.39,4,25.77,23 / 24,504239,2019-11-08 10:05:41:850,-1.4473,-0.6986,10.0342,-0.0131,0.0011,9.8066,-0.1934,0.3574,-0.1489,-20.19,-43.62,30.94,354.56,-82.41,-151.71
5043,52.776997,-1.419895,178.43,29.39,4,25.77,23 / 24,504339,2019-11-08 10:05:41:950,4.1583,-0.5394,9.8545,-0.0537,0.0398,9.8064,-0.0184,0.3569,-0.194,-19.87,-43.69,31.69,354.8,-82.46,-152.36
5044,52.776997,-1.419895,178.43,29.39,4,25.77,23 / 24,504439,2019-11-08 10:05:42:050,-2.1375,-1.2301,11.0059,-0.0437,-0.0417,9.8064,0.0842,0.0702,-0.146,-20.31,-43.31,31.63,355.52,-82.67,-151.79
5045,52.776997,-1.419895,178.43,29.39,4,25.77,23 / 24,504539,2019-11-08 10:05:42:150,1.1084,-2.0198,8.7685,0.0043,-0.0478,9.8065,0.1034,-0.1985,-0.0015,-19.69,-43.69,31.56,356.03,-82.3,-151.31
5046,52.776997,-1.419895,178.43,29.39,4,25.77,23 / 24,504638,2019-11-08 10:05:42:249,3.3023,1.7327,8.7647,0.0413,0.0456,9.8064,0.0761,-0.3462,0.2276,-19.94,-43.69,31.75,357.64,-82.43,-149.98
5047,52.776997,-1.419895,178.43,29.39,4,25.77,23 / 24,504739,2019-11-08 10:05:42:350,-1.6534,-1.2688,10.018,0.0312,-0.0072,9.8065,0.0579,-0.2892,0.123,-18.94,-43.69,30.88,355.48,-82.5,-152.26
5048,52.776997,-1.419895,178.43,29.39,4,25.77,23 / 24,504839,2019-11-08 10:05:42:450,5.2901,0.7189,10.5637,0.0491,0.0368,9.8064,0.0941,-0.0789,-0.0671,-19.37,-43.81,31.19,356.82,-82.52,-151.15
5049,52.776997,-1.419895,178.43,29.39,4,25.77,23 / 24,504938,2019-11-08 10:05:42:549,-0.7951,-1.9797,10.0657,0.0722,0.0176,9.8063,0.0361,0.161,-0.1205,-19.06,-43.62,31.31,358.17,-82.56,-150.02
5050,52.776997,-1.419895,178.43,29.39,4,25.77,23 / 24,505038,2019-11-08 10:05:42:649,-1.0058,-0.5954,11.1745,0.0181,0.0025,9.8065,0.0546,0.366,-0.1763,-19.12,-44.19,31.56,355.0,-82.34,-153.47
5051,52.776997,-1.419895,178.43,29.39,4,25.77,23 / 24,505138,2019-11-08 10:05:42:749,-1.7339,-2.0081,11.3146,0.0122,0.0504,9.8064,-0.1099,0.5098,-0.3086,-19.69,-44.06,31.19,351.13,-82.54,-154.6
5052,52.776997,-1.419895,178.43,29.39,4,25.77,23 / 24,505239,2019-11-08 10:05:42:850,-3.0431,-1.9503,9.7104,-0.051,-0.0478,9.8063,0.02,0.5095,-0.3359,-19.44,-43.5,31.38,350.31,-82.17,-156.54
5053,52.776997,-1.419895,178.43,29.39,4,25.77,23 / 24,505338,2019-11-08 10:05:42:949,5.3097,1.9357,9.8336,0.0139,0.004,9.8066,0.0302,0.3737,-0.2506,-18.56,-43.0,31.75,351.85,-82.03,-156.07
5054,52.776997,-1.419895,178.43,29.39,4,25.77,23 / 24,505438,2019-11-08 10:05:43:049,-2.2226,-1.0481,9.876,-0.0382,-0.0417,9.8064,0.0661,-0.0991,0.0322,-18.81,-43.12,31.56,351.59,-82.11,-156.3
5055,52.776997,-1.419895,178.43,29.39,4,25.77,25 / 25,505538,2019-11-08 10:05:43:149,1.8361,2.7012,7.0506,-0.0163,-0.0388,9.8065,0.096,-0.2577,0.1307,-18.44,-43.19,30.56,353.43,-82.21,-155.3
5056,52.776997,-1.419895,178.43,29.39,4,25.77,25 / 25,505639,2019-11-08 10:05:43:250,2.5656,2.3988,9.0046,0.0185,-0.0062,9.8066,0.0813,-0.449,0.1839,-18.12,-43.0,30.94,355.64,-82.18,-153.47
5057,52.776997,-1.419895,178.43,29.39,4,25.77,25 / 25,505739,2019-11-08 10:05:43:350,-0.0053,2.099,9.2753,0.0086,-0.0358,9.8065,0.0016,-0.3638,0.1125,-19.25,-43.25,30.63,352.36,-82.0,-154.81
5058,52.776997,-1.419895,178.43,29.39,4,25.77,25 / 25,505839,2019-11-08 10:05:43:450,3.0688,2.3939,10.146,0.0322,0.0454,9.8065,-0.0584,-0.005,-0.0398,-18.31,-43.81,30.81,352.57,-82.02,-155.96
5059,52.776997,-1.419895,178.43,29.39,4,25.77,25 / 25,505938,2019-11-08 10:05:43:549,-0.8754,-0.8871,11.0689,-0.0216,0.0323,9.8065,-0.1911,0.2207,-0.0732,-18.62,-43.62,31.0,350.84,-82.24,-156.09
5060,52.776997,-1.419895,178.43,29.39,4,25.77,25 / 25,506039,2019-11-08 10:05:43:650,0.5258,2.4093,9.0694,0.0098,0.0091,9.8066,-0.1273,0.204,-0.031,-19.31,-43.69,30.5,350.72,-81.91,-156.11
5061,52.776997,-1.419895,178.43,29.39,4,25.77,25 / 25,506138,2019-11-08 10:05:43:749,-0.2182,-0.3056,9.7614,-0.0081,0.024,9.8065,0.0259,0.2684,-0.0738,-18.81,-43.87,30.94,350.41,-81.7,-156.32
5062,52.776997,-1.419895,178.43,29.39,4,25.77,25 / 25,506238,2019-11-08 10:05:43:849,-2.1371,-1.675,8.4873,-0.0201,-0.0165,9.8066,0.1902,0.0115,-0.0749,-19.0,-44.06,30.75,351.54,-81.81,-155.42
5063,52.776997,-1.419895,178.43,29.39,4,25.77,25 / 25,506338,2019-11-08 10:05:43:949,-1.326,1.2998,7.7591,0.0315,-0.0146,9.8066,0.0996,-0.1136,-0.0604,-18.87,-43.44,30.94,352.96,-81.86,-154.29
5064,52.776997,-1.419895,178.43,29.39,4,25.77,25 / 25,506439,2019-11-08 10:05:44:050,2.3466,-2.6374,10.1103,0.042,-0.0195,9.8065,0.0648,-0.0974,-0.0347,-18.62,-44.12,30.88,353.24,-81.77,-154.02
5065,52.776997,-1.419895,178.43,29.39,4,25.77,25 / 25,506544,2019-11-08 10:05:44:155,-2.5912,0.4269,8.2415,-0.0353,0.0056,9.8066,0.1238,-0.1448,0.0282,-18.56,-43.69,30.75,350.59,-81.64,-156.16
5066,52.776997,-1.419895,178.43,29.39,4,25.77,25 / 25,506638,2019-11-08 10:05:44:249,-1.7397,-1.5162,9.8516,-0.0094,0.0486,9.8065,-0.0078,-0.0957,0.0413,-19.12,-43.62,30.31,350.48,-82.08,-155.47
5067,52.776997,-1.419895,178.43,29.39,4,25.77,25 / 25,506738,2019-11-08 10:05:44:349,-2.383,-0.0012,11.9161,-0.0064,-0.0261,9.8065,-0.1767,0.0513,-0.0077,-19.12,-44.0,30.5,353.38,-82.35,-153.99
5068,52.776997,-1.419895,178.43,29.39,4,25.77,25 / 25,506838,2019-11-08 10:05:44:449,2.0901,0.5988,8.7591,0.0016,-0.0104,9.8066,-0.1314,0.3486,-0.1719,-19.12,-43.69,30.56,354.52,-82.45,-153.06
5069,52.776997,-1.419895,178.43,29.39,4,25.77,25 / 25,506938,2019-11-08 10:05:44:549,-2.264,-1.1966,9.9969,0.0116,-0.0313,9.8065,-0.0942,0.2264,-0.0651,-19.56,-43.75,30.44,352.25,-82.46,-152.75
5070,52.776997,-1.419895,178.43,29.39,4,25.77,25 / 25,507038,2019-11-08 10:05:44:649,1.7902,-0.0811,9.3453,-0.0299,-0.0289,9.8065,-0.1255,0.1345,-0.0597,-19.62,-43.31,30.88,352.37,-82.14,-153.52
5071,52.776997,-1.419895,178.43,29.39,4,25.77,25 / 25,507138,2019-11-08 10:05:44:749,-0.2981,3.4382,9.443,-0.0026,-0.0165,9.8066,0.0133,0.021,-0.0472,-19.31,-44.62,29.69,349.61,-81.99,-156.12
5072,52.776997,-1.419895,178.43,29.39,4,25.77,25 / 25,507238,2019-11-08 10:05:44:849,-0.4308,0.3558,9.8927,-0.015,-0.0176,9.8065,0.1869,-0.2358,0.0946,-19.5,-43.56,30.69,350.04,-81.73,-156.63
5073,52.776997,-1.419895,178.43,29.39,4,25.77,25 / 25,507339,2019-11-08 10:05:44:950,0.918,3.9453,8.8926,-0.0125,0.0688,9.8064,-0.0014,-0.2256,0.1037,-19.44,-43.62,31.13,350.7,-81.9,-156.12
5074,52.776997,-1.419895,178.43,29.39,4,25.77,25 / 25,507438,2019-11-08 10:05:45:049,2.037,-0.4885,9.4149,-0.0048,0.0518,9.8065,-0.0532,-0.0835,0.0623,-19.37,-44.0,30.69,353.31,-82.24,-154.03
5075,52.776997,-1.419895,178.43,29.39,4,25.77,24 / 24,507538,2019-11-08 10:05:45:149,2.5821,-0.0521,10.7903,0.0016,0.0067,9.8066,-0.0143,0.202,-0.1304,-19.12,-44.5,30.81,355.34,-82.55,-152.39
5076,52.776997,-1.419895,178.43,29.39,4,25.77,24 / 24,507638,2019-11-08 10:05:45:249,1.8805,0.805,9.2467,0.0552,-0.0031,9.8064,-0.1161,0.2803,-0.2008,-18.75,-44.25,31.31,353.16,-82.49,-154.19
5077,52.776997,-1.419895,178.43,29.39,4,25.77,24 / 24,507738,2019-11-08 10:05:45:349,-2.9487,1.4556,10.3878,0.0212,-0.0616,9.8063,-0.186,0.1995,-0.0697,-19.37,-44.19,30.44,350.22,-82.43,-155.75
5078,52.776997,-1.419895,178.43,29.39,4,25.77,24 / 24,507838,2019-11-08 10:05:45:449,1.236,2.597,8.9447,-0.0145,-0.0258,9.8065,-0.105,0.0694,0.0338,-19.06,-44.37,30.94,351.4,-82.13,-155.6
5079,52.776997,-1.419895,178.43,29.39,4,25.77,24 / 24,507939,2019-11-08 10:05:45:550,-1.6512,1.9918,10.3086,-0.0633,0.03,9.8064,-0.0716,-0.2594,0.2328,-19.44,-44.19,30.94,353.84,-82.41,-153.61
5080,52.776997,-1.419895,178.43,29.39,4,25.77,24 / 24,508038,2019-11-08 10:05:45:649,-1.528,-2.8546,10.2658,-0.059,0.0003,9.8064,-0.0485,-0.321,0.2685,-19.37,-43.94,31.0,353.82,-82.55,-153.65
5081,52.776997,-1.419895,178.43,29.39,4,25.77,24 / 24,508138,2019-11-08 10:05:45:749,-0.418,1.32,9.6405,-0.0101,0.0467,9.8065,0.0298,-0.1098,0.0318,-19.75,-44.5,30.94,354.24,-82.49,-151.99
5082,52.776997,-1.419895,178.43,29.39,4,25.77,24 / 24,508239,2019-11-08 10:05:45:850,-0.0155,-1.018,12.2554,-0.0044,0.0062,9.8066,0.1372,-0.0656,0.0352,-18.69,-43.81,30.81,354.5,-82.55,-153.08
5083,52.776997,-1.419895,178.43,29.39,4,25.77,24 / 24,508338,2019-11-08 10:05:45:949,0.8699,1.3978,8.1333,0.0016,0.0456,9.8065,0.152,-0.0774,-0.0181,-19.06,-43.87,30.5,354.79,-82.52,-152.84
5084,52.776997,-1.419895,178.43,29.39,4,25.77,24 / 24,508438,2019-11-08 10:05:46:049,-1.2499,-0.5347,7.8493,0.01,0.0274,9.8066,0.0606,0.0675,-0.0403,-19.44,-44.19,31.13,356.23,-82.88,-151.67
5085,52.776997,-1.419895,178.43,29.39,4,25.77,22 / 23,508540,2019-11-08 10:05:46:151,1.3139,1.8577,10.2958,0.0194,0.002,9.8066,0.0369,0.0105,-0.0515,-19.75,-43.75,30.94,356.98,-82.88,-149.73
5086,52.776997,-1.419895,178.43,29.39,4,25.77,22 / 23,508638,2019-11-08 10:05:46:249,-1.3572,1.7248,8.7477,0.0117,0.0049,9.8066,-0.0848,0.0692,-0.0151,-19.69,-43.56,30.75,357.61,-82.83,-149.19
5087,52.776997,-1.419895,178.43,29.39,4,25.77,22 / 23,508739,2019-11-08 10:05:46:350,-1.6961,0.3794,10.0382,0.0209,-0.0239,9.8066,-0.0566,-0.1239,0.0931,-20.0,-43.75,30.81,356.97,-82.7,-149.72
5088,52.776997,-1.419895,178.43,29.39,4,25.77,22 / 23,508839,2019-11-08 10:05:46:450,-0.2814,0.6055,10.357,-0.029,-0.0249,9.8066,-0.0312,-0.2336,0.2057,-19.5,-44.31,30.69,358.3,-82.43,-149.91
5089,52.776997,-1.419895,178.43,29.39,4,25.77,22 / 23,508939,2019-11-08 10:05:46:550,3.3,0.5833,10.8468,0.0169,0.0137,9.8066,-0.1318,-0.2618,0.173,-19.5,-44.0,31.0,358.16,-82.52,-150.03
5090,52.776997,-1.419895,178.43,29.39,4,25.77,22 / 23,509038,2019-11-08 10:05:46:649,1.9409,-0.9135,11.1779,-0.0494,0.0039,9.8065,-0.0846,-0.2554,0.1752,-19.5,-43.56,31.31,356.25,-82.63,-151.63
5091,52.776997,-1.419895,178.43,29.39,4,25.77,22 / 23,509139,2019-11-08 10:05:46:750,3.0489,2.931,8.0189,0.0367,0.0381,9.8064,-0.0159,0.1087,-0.0107,-19.37,-44.75,31.06,357.26,-82.4,-150.76
5092,52.776997,-1.419895,178.43,29.39,4,25.77,22 / 23,509239,2019-11-08 10:05:46:850,-1.0745,1.5145,11.4106,0.0452,0.0117,9.8065,-0.1405,0.3982,-0.2008,-19.56,-44.25,31.06,353.56,-82.27,-152.52
5093,52.776997,-1.419895,178.43,29.39,4,25.77,22 / 23,509338,2019-11-08 10:05:46:949,4.1507,1.5102,10.0821,0.0076,0.0165,9.8065,0.0432,0.4206,-0.3076,-19.37,-44.12,30.88,352.01,-82.0,-155.07
5094,52.776997,-1.419895,178.43,29.39,4,25.77,22 / 23,509438,2019-11-08 10:05:47:049,0.0958,-0.637,9.3145,0.0452,0.017,9.8065,0.0782,0.3495,-0.2538,-19.56,-43.75,30.69,350.75,-82.11,-154.83
5095,52.776997,-1.419895,178.43,29.39,4,25.77,24 / 24,509538,2019-11-08 10:05:47:149,-4.1505,-0.0246,10.024,0.0201,0.0114,9.8065,0.0643,0.2712,-0.2269,-19.69,-43.81,31.0,352.41,-82.0,-153.43
5096,52.776997,-1.419895,178.43,29.39,4,25.77,24 / 24,509639,2019-11-08 10:05:47:250,-2.4411,-0.7156,9.585,0.0524,0.0321,9.8064,0.1336,0.2203,-0.174,-19.56,-43.81,30.94,350.06,-81.89,-155.35
5097,52.776997,-1.419895,178.43,29.39,4,25.77,24 / 24,509738,2019-11-08 10:05:47:349,-2.3605,-2.2281,12.7584,0.0121,-0.0595,9.8064,0.2769,-0.2243,0.0248,-20.25,-44.06,31.5,352.97,-82.03,-153.83
5098,52.776997,-1.419895,178.43,29.39,4,25.77,24 / 24,509838,2019-11-08 10:05:47:449,-0.6501,1.0418,8.393,0.006,-0.0163,9.8066,0.2114,-0.3587,0.0698,-20.0,-44.0,30.88,353.36,-82.07,-152.65
5099,52.776997,-1.419895,178.43,29.39,4,25.77,24 / 24,509939,2019-11-08 10:05:47:550,-2.6583,-1.8164,10.1034,0.0334,-0.0292,9.8064,0.1551,-0.1948,0.0633,-19.56,-44.5,31.19,353.51,-82.02,-152.53
5100,52.776997,-1.419895,178.43,29.39,4,25.77,24 / 24,510039,2019-11-08 10:05:47:650,-0.659,0.0496,9.1554,-0.0391,0.0001,9.8065,0.0335,-0.0064,0.0143,-20.06,-44.12,31.38,352.69,-82.02,-153.2
5101,52.776997,-1.419895,178.43,29.39,4,25.77,24 / 24,510138,2019-11-08 10:05:47:749,-0.154,-0.0527,9.6342,-0.0161,0.0006,9.8066,-0.0609,-0.0753,0.0634,-20.06,-44.25,31.38,352.23,-82.24,-153.63
5102,52.776997,-1.419895,178.43,29.39,4,25.77,24 / 24,510239,2019-11-08 10:05:47:850,0.6796,0.6421,10.562,-0.03,-0.0066,9.8065,-0.017,-0.1603,0.0859,-20.0,-44.0,31.75,354.7,-82.18,-152.41
5103,52.776997,-1.419895,178.43,29.39,4,25.77,24 / 24,510338,2019-11-08 10:05:47:949,-0.6796,0.2226,9.8155,-0.0167,-0.0066,9.8066,-0.0597,0.0156,0.0751,-20.19,-44.06,31.81,354.17,-81.92,-152.82
5104,52.776997,-1.419895,178.43,29.39,4,25.77,24 / 24,510439,2019-11-08 10:05:48:050,-0.8305,-0.1944,10.947,-0.0069,-0.0003,9.8066,-0.1216,0.094,0.028,-20.31,-44.19,31.69,354.0,-81.7,-152.93
5105,52.776997,-1.419895,178.43,29.39,4,25.77,22 / 24,510539,2019-11-08 10:05:48:150,0.9361,1.2427,9.1162,0.018,-0.0242,9.8066,-0.1037,0.1675,-0.0292,-20.06,-44.06,31.69,353.46,-81.57,-153.35
5106,52.776997,-1.419895,178.43,29.39,4,25.77,22 / 24,510638,2019-11-08 10:05:48:249,-0.2637,-0.4951,10.5537,0.0174,0.0422,9.8065,-0.1785,-0.1463,0.1237,-19.87,-43.94,31.44,352.42,-81.88,-153.41
5107,52.776997,-1.419895,178.43,29.39,4,25.77,22 / 24,510738,2019-11-08 10:05:48:349,-5.3812,0.2156,8.3299,-0.0283,-0.0197,9.8065,-0.1822,-0.3402,0.2448,-19.69,-43.5,31.5,352.69,-81.83,-154.05
5108,52.776997,-1.419895,178.43,29.39,4,25.77,22 / 24,510838,2019-11-08 10:05:48:449,-1.0485,2.6743,8.4762,0.0456,-0.0265,9.8065,0.065,-0.3358,0.2164,-20.56,-44.31,31.25,348.98,-81.73,-154.94
5109,52.776997,-1.419895,178.43,29.39,4,25.77,22 / 24,510938,2019-11-08 10:05:48:549,-3.4859,-1.6998,12.3123,0.0084,-0.059,9.8064,0.1156,-0.3323,0.009,-20.19,-43.62,32.31,351.94,-81.75,-154.63
5110,52.776997,-1.419895,178.43,29.39,4,25.77,22 / 24,511038,2019-11-08 10:05:48:649,-4.0682,-2.8782,10.5416,-0.0253,-0.0799,9.8062,0.0939,0.4304,-0.3664,-20.31,-43.94,32.25,352.32,-82.04,-154.36
5111,52.776997,-1.419895,178.43,29.39,4,25.77,22 / 24,511139,2019-11-08 10:05:48:750,-3.1796,-1.5237,10.6268,-0.0658,-0.0429,9.8063,0.004,0.55,-0.4194,-20.0,-43.75,32.13,354.74,-81.77,-152.32
5112,52.776997,-1.419895,178.43,29.39,4,25.77,22 / 24,511239,2019-11-08 10:05:48:850,-4.4053,-1.2909,9.7819,-0.0433,-0.0488,9.8064,-0.0219,0.7265,-0.4259,-20.12,-43.44,31.75,355.32,-81.7,-151.86
5113,52.776997,-1.419895,178.43,29.39,4,25.77,22 / 24,511339,2019-11-08 10:05:48:950,4.4128,3.256,9.4588,0.0677,0.0573,9.8062,-0.0068,0.6658,-0.3597,-20.12,-44.5,31.5,356.42,-81.69,-150.93
5114,52.776997,-1.419895,178.43,29.39,4,25.77,22 / 24,511439,2019-11-08 10:05:49:050,-5.5867,-3.3852,10.0246,0.0323,0.0036,9.8066,0.0384,-0.1242,0.0832,-20.44,-44.25,32.25,353.59,-81.61,-153.25
5115,52.776997,-1.419895,178.43,29.39,4,25.77,20 / 21,511539,2019-11-08 10:05:49:150,-0.2776,0.7064,10.5364,0.0441,-0.0149,9.8064,0.2322,-0.4145,0.2842,-20.31,-44.37,31.5,355.9,-81.79,-151.37
5116,52.776997,-1.419895,178.43,29.39,4,25.77,20 / 21,511639,2019-11-08 10:05:49:250,1.8935,5.9443,8.4397,0.0437,0.0256,9.8065,-0.0252,-0.5408,0.1891,-19.94,-45.19,31.81,354.02,-81.45,-152.85
5117,52.776997,-1.419895,178.43,29.39,4,25.77,20 / 21,511739,2019-11-08 10:05:49:350,-2.5099,-0.5609,9.9968,-0.0361,-0.0713,9.8063,0.0923,-0.3387,0.1361,-20.06,-44.12,31.81,347.52,-81.58,-158.22
5118,52.776997,-1.419895,178.43,29.39,4,25.77,20 / 21,511839,2019-11-08 10:05:49:450,1.1167,4.5421,9.5675,-0.0356,-0.0151,9.8065,0.1051,0.1642,-0.1595,-20.06,-43.94,31.19,348.51,-81.42,-156.5
5119,52.776997,-1.419895,178.43,29.39,4,25.77,20 / 21,511939,2019-11-08 10:05:49:550,0.8626,1.3583,9.1321,-0.0215,-0.022,9.8065,-0.0179,0.3549,-0.2505,-20.0,-43.94,31.69,349.13,-81.48,-156.88
5120,52.776997,-1.419895,178.43,29.39,4,25.77,20 / 21,512038,2019-11-08 10:05:49:649,1.7332,1.3217,10.1083,-0.018,-0.0467,9.8065,0.0294,0.3716,-0.1868,-19.87,-43.62,31.5,349.79,-81.23,-156.28
5121,52.776997,-1.419895,178.43,29.39,4,25.77,20 / 21,512138,2019-11-08 10:05:49:749,0.2912,4.1067,8.4638,-0.0064,0.061,9.8064,0.0482,0.2625,-0.1061,-19.94,-43.5,31.5,349.77,-81.19,-156.33
5122,52.776997,-1.419895,178.43,29.39,4,25.77,20 / 21,512238,2019-11-08 10:05:49:849,-1.2755,-0.9597,11.0194,0.0119,-0.005,9.8066,-0.0504,-0.0428,-0.0171,-19.94,-43.31,32.06,349.4,-81.37,-156.67
5123,52.776997,-1.419895,178.43,29.39,4,25.77,20 / 21,512338,2019-11-08 10:05:49:949,2.8966,2.519,8.5536,0.029,0.0567,9.8063,0.0022,-0.1219,0.1369,-19.75,-44.5,31.19,347.13,-81.32,-157.6
5124,52.776997,-1.419895,178.43,29.39,4,25.77,20 / 21,512438,2019-11-08 10:05:50:049,-1.5751,-1.8169,10.6321,0.0262,0.0565,9.8064,0.0732,-0.3996,0.2208,-19.69,-44.12,31.81,346.31,-81.64,-159.25
5125,52.779102,-1.418125,176.04,28.3,4,29.25,21 / 23,512539,2019-11-08 10:05:50:150,1.2062,0.1138,10.462,0.0192,-0.0195,9.8066,0.0127,-0.3132,0.1102,-19.62,-44.37,32.0,346.01,-81.48,-159.44
5126,52.779102,-1.418125,176.04,28.3,4,29.25,21 / 23,512639,2019-11-08 10:05:50:250,1.3658,-0.3338,10.295,0.0189,0.0086,9.8065,-0.058,-0.1846,0.1945,-19.62,-43.81,31.81,345.98,-81.2,-159.38
5127,52.779102,-1.418125,176.04,28.3,4,29.25,21 / 23,512738,2019-11-08 10:05:50:349,-1.4324,1.7076,8.9977,0.0081,0.0052,9.8066,-0.0254,-0.2485,0.169,-20.37,-44.0,31.5,346.81,-81.07,-158.66
5128,52.779102,-1.418125,176.04,28.3,4,29.25,21 / 23,512838,2019-11-08 10:05:50:449,-0.9773,-0.9629,9.0839,0.0375,0.007,9.8066,-0.1503,-0.2072,0.1994,-19.94,-43.87,31.5,346.43,-81.21,-159.01
5129,52.779102,-1.418125,176.04,28.3,4,29.25,21 / 23,512938,2019-11-08 10:05:50:549,3.0625,2.2886,9.7319,-0.0082,0.0042,9.8066,-0.1587,-0.2502,0.1863,-19.75,-44.06,31.0,346.21,-81.41,-158.38
5130,52.779102,-1.418125,176.04,28.3,4,29.25,21 / 23,513039,2019-11-08 10:05:50:650,-0.2546,1.2463,9.492,0.0407,0.0007,9.8065,0.0456,-0.2897,0.2063,-19.69,-43.62,31.5,346.39,-81.39,-159.1
5131,52.779102,-1.418125,176.04,28.3,4,29.25,21 / 23,513139,2019-11-08 10:05:50:750,2.7995,3.5238,9.6523,0.0432,0.0081,9.8065,0.0499,-0.3679,0.2504,-19.62,-44.31,31.56,344.91,-81.08,-160.21
5132,52.779102,-1.418125,176.04,28.3,4,29.25,21 / 23,513238,2019-11-08 10:05:50:849,0.3412,0.1215,9.3949,0.0291,0.0337,9.8065,-0.014,-0.2067,0.1204,-19.0,-44.44,31.44,343.37,-81.07,-161.85
5133,52.779102,-1.418125,176.04,28.3,4,29.25,21 / 23,513338,2019-11-08 10:05:50:949,-2.6044,-1.9259,11.8106,0.0013,-0.0477,9.8065,-0.0963,0.0548,0.0136,-19.75,-43.56,32.13,343.15,-81.06,-161.64
5134,52.779102,-1.418125,176.04,28.3,4,29.25,21 / 23,513438,2019-11-08 10:05:51:049,2.4396,0.4595,10.0679,0.0024,0.0155,9.8066,-0.1061,0.3972,-0.1289,-19.5,-43.87,31.31,343.83,-80.82,-161.38
5135,52.779102,-1.418125,176.04,28.3,4,29.25,20 / 22,513538,2019-11-08 10:05:51:149,-0.8624,0.8238,9.8087,0.0024,-0.013,9.8066,0.0189,0.305,-0.1822,-19.56,-43.69,31.94,343.21,-80.83,-161.51
5136,52.779102,-1.418125,176.04,28.3,4,29.25,20 / 22,513638,2019-11-08 10:05:51:249,0.3997,1.0209,7.0648,0.0001,-0.0329,9.8065,-0.1854,0.2354,-0.0562,-19.75,-43.94,32.19,343.72,-80.57,-160.99
5137,52.779102,-1.418125,176.04,28.3,4,29.25,20 / 22,513738,2019-11-08 10:05:51:349,-1.0044,-0.1467,9.2081,0.0066,0.0033,9.8066,0.0521,0.1344,0.0308,-19.44,-44.56,31.44,345.56,-80.92,-159.97
5138,52.779102,-1.418125,176.04,28.3,4,29.25,20 / 22,513838,2019-11-08 10:05:51:449,1.6584,0.952,10.9464,0.0204,-0.0009,9.8066,-0.0134,0.0134,-0.0759,-19.44,-43.94,31.38,345.4,-80.82,-160.13
5139,52.779102,-1.418125,176.04,28.3,4,29.25,20 / 22,513939,2019-11-08 10:05:51:550,1.3034,0.4422,10.4743,0.0217,0.0028,9.8066,-0.0578,0.0215,0.0474,-19.62,-44.25,31.94,343.86,-80.74,-160.94
5140,52.779102,-1.418125,176.04,28.3,4,29.25,20 / 22,514039,2019-11-08 10:05:51:650,0.2687,-0.8549,9.7607,-0.0163,0.0005,9.8066,0.0761,-0.1575,0.037,-19.56,-44.12,31.63,344.62,-80.89,-160.38
5141,52.779102,-1.418125,176.04,28.3,4,29.25,20 / 22,514138,2019-11-08 10:05:51:749,0.4206,1.7145,8.823,-0.0138,-0.0058,9.8066,0.0375,0.0285,-0.0093,-18.87,-44.0,31.44,346.12,-81.0,-159.61
5142,52.779102,-1.418125,176.04,28.3,4,29.25,20 / 22,514238,2019-11-08 10:05:51:849,2.3394,1.0497,9.6416,0.0172,0.004,9.8066,-0.0122,0.1972,-0.1185,-18.56,-44.06,31.63,347.67,-81.07,-159.24
5143,52.779102,-1.418125,176.04,28.3,4,29.25,20 / 22,514339,2019-11-08 10:05:51:950,3.8954,0.1654,9.2704,-0.0112,-0.0352,9.8065,-0.1213,0.0678,-0.1247,-19.94,-43.94,32.13,345.56,-81.1,-159.69
5144,52.779102,-1.418125,176.04,28.3,4,29.25,20 / 22,514439,2019-11-08 10:05:52:050,-0.0071,-1.7988,9.5286,-0.0576,-0.0057,9.8064,-0.1611,0.1733,0.0109,-19.12,-44.06,31.5,347.47,-80.83,-159.33
5145,52.779102,-1.418125,176.04,28.3,4,29.25,19 / 22,514539,2019-11-08 10:05:52:150,3.1348,2.1766,10.8204,0.0184,0.0138,9.8066,0.0962,0.3344,-0.1318,-19.44,-44.19,31.06,349.05,-80.86,-157.21
5146,52.779102,-1.418125,176.04,28.3,4,29.25,19 / 22,514638,2019-11-08 10:05:52:249,4.2525,2.8193,9.3951,0.0645,0.0527,9.8063,0.0008,0.5089,-0.5067,-19.75,-44.31,31.44,348.03,-80.7,-156.7
5147,52.779102,-1.418125,176.04,28.3,4,29.25,19 / 22,514738,2019-11-08 10:05:52:349,-2.5178,-1.217,9.9954,0.0482,0.0311,9.8065,0.0306,0.3633,-0.1764,-19.19,-43.94,32.06,347.77,-80.84,-159.09
5148,52.779102,-1.418125,176.04,28.3,4,29.25,19 / 22,514839,2019-11-08 10:05:52:450,-0.9729,1.3206,9.1525,0.0144,-0.0067,9.8065,-0.0255,0.0594,-0.1348,-19.25,-44.25,31.19,346.16,-80.68,-159.47
5149,52.779102,-1.418125,176.04,28.3,4,29.25,19 / 22,514939,2019-11-08 10:05:52:550,-0.3024,-0.6766,10.1559,0.0055,-0.0115,9.8066,-0.0442,0.1365,-0.0044,-19.5,-44.0,31.81,347.76,-80.71,-159.07
5150,52.779102,-1.418125,176.04,28.3,4,29.25,19 / 22,515038,2019-11-08 10:05:52:649,1.1979,-0.3463,10.0202,0.0168,-0.0185,9.8066,0.0123,-0.0147,-0.0366,-19.19,-44.69,31.5,346.95,-80.7,-159.65
5151,52.779102,-1.418125,176.04,28.3,4,29.25,19 / 22,515138,2019-11-08 10:05:52:749,-3.3088,0.4992,5.4126,-0.0811,0.058,9.8061,-0.3714,-0.06,0.2226,-19.37,-44.37,30.94,345.79,-80.75,-159.79
5152,52.779102,-1.418125,176.04,28.3,4,29.25,19 / 22,515238,2019-11-08 10:05:52:849,6.2559,2.5403,10.7089,-0.1146,0.0072,9.8059,-0.3802,-0.1461,0.4485,-18.75,-44.37,30.94,344.76,-80.91,-160.67
5153,52.779102,-1.418125,176.04,28.3,4,29.25,19 / 22,515339,2019-11-08 10:05:52:950,-3.6843,-0.0617,10.3859,-0.0655,-0.031,9.8063,0.098,-1.0428,0.571,-18.94,-44.12,31.44,346.11,-81.34,-159.72
5154,52.779102,-1.418125,176.04,28.3,4,29.25,19 / 22,515438,2019-11-08 10:05:53:049,-4.7035,-2.8967,11.8998,-0.0334,-0.0924,9.806,0.2014,-0.8132,0.4382,-19.06,-44.31,31.31,348.65,-81.1,-157.6
5155,52.779102,-1.418125,176.04,28.3,4,29.25,19 / 22,515538,2019-11-08 10:05:53:149,5.5545,-0.1985,9.6221,0.0486,0.0502,9.8063,0.126,-0.3579,0.3164,-19.06,-44.62,31.88,347.9,-80.84,-158.94
5156,52.779102,-1.418125,176.04,28.3,4,29.25,19 / 22,515639,2019-11-08 10:05:53:250,-2.711,-0.9526,10.0391,-0.0415,-0.0144,9.8065,0.0233,-0.2332,0.1417,-19.19,-44.31,31.69,345.32,-80.87,-161.08
5157,52.779102,-1.418125,176.04,28.3,4,29.25,19 / 22,515739,2019-11-08 10:05:53:350,4.9598,1.5601,9.5837,0.0008,-0.0191,9.8066,-0.2,0.2518,-0.1162,-19.31,-44.19,31.56,346.96,-81.08,-159.82
5158,52.779102,-1.418125,176.04,28.3,4,29.25,19 / 22,515840,2019-11-08 10:05:53:451,-4.3365,-1.889,10.7107,-0.0206,-0.0642,9.8063,-0.0784,0.4468,-0.2317,-19.19,-44.12,31.44,346.19,-81.08,-159.58
5159,52.779102,-1.418125,176.04,28.3,4,29.25,19 / 22,515938,2019-11-08 10:05:53:549,5.8678,3.9125,8.9097,-0.0334,-0.0585,9.8063,-0.0481,0.7105,-0.492,-19.0,-44.31,30.88,347.48,-80.66,-158.41
5160,52.779102,-1.418125,176.04,28.3,4,29.25,19 / 22,516039,2019-11-08 10:05:53:650,-0.5764,-0.6014,10.2211,-0.0038,-0.0259,9.8066,-0.1483,0.6789,-0.4725,-19.69,-43.81,30.94,344.04,-80.91,-159.97
5161,52.779102,-1.418125,176.04,28.3,4,29.25,19 / 22,516139,2019-11-08 10:05:53:750,-3.1515,-3.0199,10.708,-0.0556,-0.0292,9.8063,0.1162,0.3175,-0.1431,-19.5,-43.37,31.25,344.75,-80.85,-160.72
5162,52.779102,-1.418125,176.04,28.3,4,29.25,19 / 22,516239,2019-11-08 10:05:53:850,-2.025,0.1169,9.588,0.0032,0.0172,9.8066,0.0713,0.1069,-0.2202,-19.06,-44.0,31.81,348.02,-80.6,-158.83
5163,52.779102,-1.418125,176.04,28.3,4,29.25,19 / 22,516338,2019-11-08 10:05:53:949,-1.1059,-1.3581,10.922,-0.0172,-0.0033,9.8066,0.0608,-0.2762,0.0977,-18.94,-43.81,31.25,346.11,-80.56,-159.48
5164,52.779102,-1.418125,176.04,28.3,4,29.25,19 / 22,516438,2019-11-08 10:05:54:049,-0.5405,1.1748,9.635,-0.0241,0.0392,9.8065,0.1154,-0.2042,0.1086,-19.31,-43.81,31.25,346.28,-80.47,-159.31
5165,52.779102,-1.418125,176.04,28.3,4,29.25,18 / 20,516538,2019-11-08 10:05:54:149,-0.4436,-1.3044,10.6392,-0.0005,-0.0017,9.8066,0.0256,-0.2045,0.0929,-19.25,-44.37,31.56,349.1,-80.78,-158.01
5166,52.779102,-1.418125,176.04,28.3,4,29.25,18 / 20,516638,2019-11-08 10:05:54:249,2.136,2.0931,9.292,0.0208,0.0255,9.8065,0.0243,-0.3299,0.2414,-19.75,-43.75,31.44,347.88,-80.72,-156.83
5167,52.779102,-1.418125,176.04,28.3,4,29.25,18 / 20,516739,2019-11-08 10:05:54:350,-0.1922,-1.7716,9.5594,0.0401,-0.0093,9.8065,-0.0575,-0.1645,0.1582,-19.12,-44.12,31.44,349.94,-80.55,-156.43
5168,52.779102,-1.418125,176.04,28.3,4,29.25,18 / 20,516839,2019-11-08 10:05:54:450,-0.298,0.588,11.1127,0.0343,-0.016,9.8065,-0.1095,-0.0357,0.1225,-19.5,-43.62,32.38,348.53,-80.25,-158.33
5169,52.779102,-1.418125,176.04,28.3,4,29.25,18 / 20,516939,2019-11-08 10:05:54:550,-1.246,0.5165,8.5549,-0.0287,0.0321,9.8065,-0.088,-0.0648,0.2328,-19.31,-43.69,31.63,349.48,-80.48,-157.63
5170,52.779102,-1.418125,176.04,28.3,4,29.25,18 / 20,517038,2019-11-08 10:05:54:649,-2.3554,1.7564,9.9187,-0.0178,0.0121,9.8065,-0.025,0.023,-0.0686,-18.75,-43.94,31.5,351.01,-80.67,-156.45
5171,52.779102,-1.418125,176.04,28.3,4,29.25,18 / 20,517138,2019-11-08 10:05:54:749,0.4875,-0.5001,10.6889,-0.0385,0.0016,9.8065,0.0688,0.1418,-0.1353,-19.44,-43.69,31.75,351.86,-80.79,-155.8
5172,52.779102,-1.418125,176.04,28.3,4,29.25,18 / 20,517239,2019-11-08 10:05:54:850,-3.4022,0.1456,9.9554,-0.0089,-0.0109,9.8066,0.1818,0.0578,-0.1509,-19.81,-44.19,31.25,346.38,-80.65,-158.0
5173,52.779102,-1.418125,176.04,28.3,4,29.25,18 / 20,517338,2019-11-08 10:05:54:949,1.3212,-1.6482,9.9644,0.0045,-0.0428,9.8065,0.1609,-0.0875,-0.0794,-19.37,-44.19,31.88,346.95,-80.55,-159.67
5174,52.779102,-1.418125,176.04,28.3,4,29.25,18 / 20,517438,2019-11-08 10:05:55:049,0.4068,0.7384,8.5624,-0.005,0.0268,9.8065,-0.0538,-0.2176,0.0554,-19.25,-44.06,31.94,346.61,-80.37,-159.88
5175,52.779102,-1.418125,176.04,28.3,4,29.25,19 / 22,517538,2019-11-08 10:05:55:149,-0.9611,-0.9726,8.9363,0.0188,0.019,9.8065,-0.0732,-0.1508,0.141,-19.31,-44.62,31.63,347.32,-80.76,-159.38
5176,52.779102,-1.418125,176.04,28.3,4,29.25,19 / 22,517638,2019-11-08 10:05:55:249,2.4394,2.4326,10.739,0.0504,0.0193,9.8065,-0.0751,-0.2551,0.1788,-20.06,-44.25,31.44,346.62,-80.96,-157.91
5177,52.779102,-1.418125,176.04,28.3,4,29.25,19 / 22,517739,2019-11-08 10:05:55:350,-0.952,-0.7591,9.2318,0.023,0.023,9.8065,-0.1123,-0.1761,0.1685,-19.25,-44.19,31.5,347.18,-81.09,-159.64
5178,52.779102,-1.418125,176.04,28.3,4,29.25,19 / 22,517839,2019-11-08 10:05:55:450,-1.9298,1.9064,11.0508,0.0375,-0.0008,9.8065,-0.1798,0.1655,-0.0834,-19.5,-43.87,31.38,345.69,-80.94,-159.94
5179,52.779102,-1.418125,176.04,28.3,4,29.25,19 / 22,517939,2019-11-08 10:05:55:550,-1.5222,1.5861,10.3064,0.0258,0.0231,9.8066,-0.0661,0.2972,-0.1534,-18.94,-44.31,31.13,344.32,-80.72,-160.95
5180,52.779102,-1.418125,176.04,28.3,4,29.25,19 / 22,518038,2019-11-08 10:05:55:649,-1.0265,0.5157,8.7102,-0.0312,0.0049,9.8066,-0.0156,0.2008,-0.0612,-19.87,-44.5,31.0,341.15,-80.7,-162.21
5181,52.779102,-1.418125,176.04,28.3,4,29.25,19 / 22,518138,2019-11-08 10:05:55:749,4.3795,-1.0894,10.6204,-0.0471,0.0293,9.8064,-0.1101,0.2237,-0.0489,-18.69,-44.31,31.13,345.14,-81.0,-160.4
5182,52.779102,-1.418125,176.04,28.3,4,29.25,19 / 22,518238,2019-11-08 10:05:55:849,1.0805,-1.4494,10.94,0.0527,-0.0124,9.8064,0.153,0.1285,-0.1971,-18.69,-43.69,31.31,344.46,-80.95,-160.93
5183,52.779102,-1.418125,176.04,28.3,4,29.25,19 / 22,518338,2019-11-08 10:05:55:949,-0.1673,0.6826,9.1763,0.0332,-0.0231,9.8065,0.1848,-0.0261,-0.1495,-19.75,-44.0,31.94,345.24,-80.86,-159.87
5184,52.779102,-1.418125,176.04,28.3,4,29.25,19 / 22,518438,2019-11-08 10:05:56:049,1.2432,-0.8472,10.3829,0.005,-0.0041,9.8066,-0.1011,0.0429,0.0003,-19.19,-43.87,31.81,348.43,-80.97,-158.59
5185,52.779102,-1.418125,176.04,28.3,4,29.25,19 / 22,518539,2019-11-08 10:05:56:150,-0.3854,3.7063,9.9813,0.0034,-0.023,9.8065,-0.0865,-0.0223,0.1098,-18.87,-44.06,31.19,346.36,-80.61,-159.29
5186,52.779102,-1.418125,176.04,28.3,4,29.25,19 / 22,518639,2019-11-08 10:05:56:250,1.4233,-1.4816,9.7632,0.011,-0.0246,9.8066,-0.0802,-0.1983,0.1978,-19.44,-44.06,31.31,345.2,-80.51,-160.18
5187,52.779102,-1.418125,176.04,28.3,4,29.25,19 / 22,518739,2019-11-08 10:05:56:350,-1.4253,1.3572,9.9144,-0.0169,-0.0044,9.8065,-0.1075,-0.0711,0.1043,-19.12,-44.06,31.88,345.96,-80.34,-160.39
5188,52.779102,-1.418125,176.04,28.3,4,29.25,19 / 22,518838,2019-11-08 10:05:56:449,-0.5295,0.8846,10.0967,-0.0276,-0.0075,9.8065,0.0125,0.1258,-0.0392,-19.44,-44.69,32.44,344.2,-80.18,-161.66
5189,52.779102,-1.418125,176.04,28.3,4,29.25,19 / 22,518938,2019-11-08 10:05:56:549,0.8552,1.7681,10.0688,-0.0033,0.0109,9.8066,-0.0502,0.0788,-0.0417,-19.25,-44.0,31.63,344.51,-80.17,-161.48
5190,52.779102,-1.418125,176.04,28.3,4,29.25,19 / 22,519038,2019-11-08 10:05:56:649,0.7948,0.0386,9.7489,-0.0008,0.0128,9.8066,0.0563,0.1115,-0.0273,-19.06,-44.25,32.06,345.25,-80.2,-160.91
5191,52.779102,-1.418125,176.04,28.3,4,29.25,19 / 22,519138,2019-11-08 10:05:56:749,0.4938,2.3456,8.1898,0.005,-0.0043,9.8066,0.0728,0.1105,-0.0022,-19.5,-43.81,32.25,345.62,-80.31,-160.65
5192,52.779102,-1.418125,176.04,28.3,4,29.25,19 / 22,519238,2019-11-08 10:05:56:849,-2.0085,-0.8708,10.5549,-0.004,-0.0296,9.8066,0.1382,-0.2603,0.1188,-19.25,-43.0,31.88,347.07,-80.32,-159.56
5193,52.779102,-1.418125,176.04,28.3,4,29.25,19 / 22,519339,2019-11-08 10:05:56:950,2.0883,1.6799,8.933,-0.0096,-0.039,9.8065,0.094,-0.2236,0.1948,-19.5,-43.5,31.63,347.88,-80.04,-158.84
5194,52.779102,-1.418125,176.04,28.3,4,29.25,19 / 22,519439,2019-11-08 10:05:57:050,0.3473,1.1968,11.3894,0.0162,0.0106,9.8065,0.1191,-0.5706,0.2733,-19.56,-44.31,32.19,344.03,-79.92,-160.51
5195,52.779102,-1.418125,176.04,28.3,4,29.25,18 / 22,519539,2019-11-08 10:05:57:150,-2.7173,-3.0657,10.1882,-0.0513,-0.0266,9.8064,0.0049,-0.5248,0.2466,-18.81,-43.69,31.75,343.81,-79.94,-161.95
5196,52.779102,-1.418125,176.04,28.3,4,29.25,18 / 22,519639,2019-11-08 10:05:57:250,-3.7641,0.1755,8.3075,-0.0099,0.0283,9.8066,-0.1204,-0.0892,0.1462,-19.5,-43.81,31.63,345.16,-80.08,-160.94
5197,52.779102,-1.418125,176.04,28.3,4,29.25,18 / 22,519738,2019-11-08 10:05:57:349,-2.9949,-2.4312,11.8919,-0.0391,-0.002,9.8065,-0.1918,0.1316,-0.0297,-18.37,-43.5,32.31,345.91,-80.09,-161.71
5198,52.779102,-1.418125,176.04,28.3,4,29.25,18 / 22,519838,2019-11-08 10:05:57:449,0.1864,0.5077,7.8453,-0.024,0.0501,9.8064,-0.1191,0.3234,-0.101,-19.0,-43.12,32.38,345.33,-79.93,-160.82
5199,52.779102,-1.418125,176.04,28.3,4,29.25,18 / 22,519939,2019-11-08 10:05:57:550,-3.5366,-0.6132,10.4124,0.0178,0.0131,9.8065,0.0426,0.1396,-0.1539,-19.0,-43.56,32.94,346.59,-80.08,-160.64
5200,52.779102,-1.418125,176.04,28.3,4,29.25,18 / 22,520039,2019-11-08 10:05:57:650,-1.639,-1.3024,12.48,0.0359,-0.0235,9.8065,0.1942,-0.1917,-0.0455,-18.69,-43.37,33.0,347.95,-80.2,-159.65
5201,52.779102,-1.418125,176.04,28.3,4,29.25,18 / 22,520139,2019-11-08 10:05:57:750,1.7723,-0.8032,9.1476,0.0034,-0.0066,9.8066,0.2048,-0.2062,0.0435,-18.0,-43.0,33.19,348.47,-80.41,-160.58
5202,52.779102,-1.418125,176.04,28.3,4,29.25,18 / 22,520238,2019-11-08 10:05:57:849,-1.3557,-1.4367,9.6605,0.0006,-0.022,9.8066,0.161,-0.2389,0.0406,-17.06,-43.06,32.63,350.51,-80.64,-160.33
5203,52.779102,-1.418125,176.04,28.3,4,29.25,18 / 22,520338,2019-11-08 10:05:57:949,0.463,1.101,9.4735,-0.0445,-0.0003,9.8065,-0.0201,-0.1377,0.1129,-17.31,-43.31,32.0,350.95,-80.66,-159.21
5204,52.779102,-1.418125,176.04,28.3,4,29.25,18 / 22,520438,2019-11-08 10:05:58:049,-2.4566,0.5555,9.2466,-0.0103,-0.0254,9.8065,-0.1161,-0.1614,0.1761,-16.56,-43.06,32.13,349.59,-80.66,-160.3
5205,52.779102,-1.418125,176.04,28.3,4,29.25,19 / 21,520538,2019-11-08 10:05:58:149,-0.7653,2.149,9.9025,0.0218,-0.0244,9.8065,-0.0377,-0.1383,0.1285,-15.75,-43.12,31.56,349.21,-80.24,-161.89
5206,52.779102,-1.418125,176.04,28.3,4,29.25,19 / 21,520638,2019-11-08 10:05:58:249,-0.3357,-2.7588,10.5886,0.0026,-0.0387,9.8065,0.0469,-0.1562,0.1003,-15.69,-43.19,30.69,346.83,-79.98,-162.87
5207,52.779102,-1.418125,176.04,28.3,4,29.25,19 / 21,520739,2019-11-08 10:05:58:350,-2.6493,-0.2677,9.4106,-0.0088,-0.0278,9.8065,0.0479,0.2854,-0.168,-16.12,-43.56,30.5,347.6,-79.79,-162.16
5208,52.779102,-1.418125,176.04,28.3,4,29.25,19 / 21,520839,2019-11-08 10:05:58:450,-0.7217,0.4454,8.9493,0.0262,0.0381,9.8065,0.0577,0.3498,-0.3404,-16.81,-42.75,29.81,345.94,-79.84,-161.24
5209,52.779102,-1.418125,176.04,28.3,4,29.25,19 / 21,520938,2019-11-08 10:05:58:549,-2.4091,0.061,10.0279,-0.0282,0.0147,9.8065,-0.0131,0.1455,-0.0819,-17.37,-43.0,29.44,344.39,-80.0,-161.57
5210,52.779102,-1.418125,176.04,28.3,4,29.25,19 / 21,521038,2019-11-08 10:05:58:649,0.0997,-1.8797,10.5924,-0.0256,0.0358,9.8065,-0.0189,-0.0364,0.0615,-17.75,-42.81,29.38,342.48,-80.25,-161.77
5211,52.779102,-1.418125,176.04,28.3,4,29.25,19 / 21,521138,2019-11-08 10:05:58:749,-0.5645,0.4777,10.9848,-0.0177,0.0489,9.8065,0.0409,-0.2965,0.1797,-17.62,-43.56,29.69,344.34,-80.45,-161.26
5212,52.779102,-1.418125,176.04,28.3,4,29.25,19 / 21,521238,2019-11-08 10:05:58:849,-2.1509,-0.9096,9.1927,-0.0216,-0.0322,9.8065,0.0651,-0.2841,0.1572,-17.69,-43.44,29.13,341.99,-80.47,-162.24
5213,52.779102,-1.418125,176.04,28.3,4,29.25,19 / 21,521338,2019-11-08 10:05:58:949,1.8187,-1.7362,11.1101,0.0444,-0.034,9.8064,-0.2066,-0.0404,0.1337,-18.0,-43.75,29.0,339.4,-79.87,-163.89
5214,52.779102,-1.418125,176.04,28.3,4,29.25,19 / 21,521438,2019-11-08 10:05:59:049,1.5522,2.0562,10.0233,0.0245,0.0258,9.8066,-0.0469,0.0131,0.0247,-18.87,-43.56,28.25,335.05,-79.63,-164.75
5215,52.781197,-1.416319,172.87,29.76,4,28.23,21 / 22,521538,2019-11-08 10:05:59:149,2.4129,1.0402,9.6289,0.0248,0.0232,9.8066,0.0115,-0.365,0.1681,-20.25,-44.0,28.69,333.85,-79.5,-165.4
5216,52.781197,-1.416319,172.87,29.76,4,28.23,21 / 22,521638,2019-11-08 10:05:59:249,-2.1444,-2.6793,10.8889,-0.0081,-0.0181,9.8065,0.0386,-0.3408,0.3056,-20.56,-44.12,28.31,330.51,-79.8,-165.91
5217,52.781197,-1.416319,172.87,29.76,4,28.23,21 / 22,521738,2019-11-08 10:05:59:349,2.2436,-1.4257,9.3113,-0.0101,0.0457,9.8065,0.0499,-0.1983,0.1099,-21.94,-44.0,28.63,332.77,-79.9,-164.1
5218,52.781197,-1.416319,172.87,29.76,4,28.23,21 / 22,521839,2019-11-08 10:05:59:450,-1.9343,-1.1554,10.8798,0.0044,-0.0405,9.8065,0.1789,-0.1426,-0.0072,-22.56,-43.69,28.88,332.57,-80.46,-163.46
5219,52.781197,-1.416319,172.87,29.76,4,28.23,21 / 22,521939,2019-11-08 10:05:59:550,0.2935,2.8085,9.5797,0.0016,0.0054,9.8066,0.0599,-0.1381,0.0466,-23.06,-43.87,29.81,332.92,-80.24,-164.1
5220,52.781197,-1.416319,172.87,29.76,4,28.23,21 / 22,522038,2019-11-08 10:05:59:649,-2.7291,1.8442,10.6247,-0.0128,-0.0416,9.8065,-0.0454,-0.0506,0.0474,-22.94,-43.44,30.44,331.42,-79.86,-165.21
5221,52.781197,-1.416319,172.87,29.76,4,28.23,21 / 22,522138,2019-11-08 10:05:59:749,2.2371,0.0743,9.1703,0.0244,-0.0005,9.8066,-0.0413,0.0025,0.1209,-23.31,-43.37,31.13,332.13,-79.56,-165.47
5222,52.781197,-1.416319,172.87,29.76,4,28.23,21 / 22,522238,2019-11-08 10:05:59:849,-1.2654,1.5685,9.7161,0.0164,-0.0135,9.8065,-0.1095,0.106,0.0062,-23.31,-43.0,31.13,332.67,-79.55,-165.02
5223,52.781197,-1.416319,172.87,29.76,4,28.23,21 / 22,522339,2019-11-08 10:05:59:950,1.3437,1.5458,9.0674,0.0046,-0.0153,9.8065,-0.0839,0.2545,-0.0923,-22.75,-43.12,32.56,334.72,-79.51,-165.25
5224,52.781197,-1.416319,172.87,29.76,4,28.23,21 / 22,522439,2019-11-08 10:06:00:050,1.1547,-0.5175,10.2002,0.0145,0.0472,9.8065,-0.0288,0.1548,-0.057,-22.44,-42.5,33.13,337.79,-79.74,-164.1
5225,52.781197,-1.416319,172.87,29.76,4,28.23,19 / 22,522540,2019-11-08 10:06:00:151,-2.7209,0.4049,9.393,-0.0176,0.0152,9.8066,-0.0075,-0.1262,0.0347,-22.25,-42.25,32.88,338.18,-80.09,-163.94
5226,52.781197,-1.416319,172.87,29.76,4,28.23,19 / 22,522638,2019-11-08 10:06:00:249,0.0049,1.0768,10.464,-0.0267,0.0085,9.8066,0.0227,-0.0684,0.0436,-21.44,-42.25,32.94,339.71,-80.11,-163.87
5227,52.781197,-1.416319,172.87,29.76,4,28.23,19 / 22,522739,2019-11-08 10:06:00:350,-0.612,0.0303,11.3868,-0.0192,0.0169,9.8066,0.1808,-0.1034,-0.0254,-20.12,-41.62,33.25,341.25,-80.02,-163.78
5228,52.781197,-1.416319,172.87,29.76,4,28.23,19 / 22,522839,2019-11-08 10:06:00:450,-1.8134,-0.3278,8.4193,-0.0339,0.0017,9.8065,0.2107,-0.0107,-0.1418,-20.19,-41.81,32.56,339.95,-79.79,-164.74
5229,52.781197,-1.416319,172.87,29.76,4,28.23,19 / 22,522939,2019-11-08 10:06:00:550,1.0297,1.1917,10.879,-0.0131,0.0125,9.8066,0.086,0.1015,-0.1624,-20.69,-41.75,33.31,337.95,-79.72,-165.12
5230,52.781197,-1.416319,172.87,29.76,4,28.23,19 / 22,523038,2019-11-08 10:06:00:649,-0.1051,0.1246,11.2936,-0.0286,0.0107,9.8066,0.0053,0.0846,-0.0337,-20.5,-42.12,32.75,339.75,-79.85,-164.93
5231,52.781197,-1.416319,172.87,29.76,4,28.23,19 / 22,523138,2019-11-08 10:06:00:749,-0.6796,-0.4339,11.3036,0.0354,-0.0157,9.8065,0.0607,-0.0861,0.0219,-19.62,-42.0,32.75,339.71,-79.73,-164.91
5232,52.781197,-1.416319,172.87,29.76,4,28.23,19 / 22,523238,2019-11-08 10:06:00:849,-0.052,-0.1039,9.9939,0.0094,-0.0038,9.8066,-0.1907,-0.1085,0.1002,-19.87,-42.25,33.0,339.51,-79.81,-165.1
5233,52.781197,-1.416319,172.87,29.76,4,28.23,19 / 22,523338,2019-11-08 10:06:00:949,-0.6328,0.0057,8.5789,0.0206,0.0074,9.8065,-0.0672,-0.0525,0.1989,-20.06,-42.5,32.25,339.79,-79.94,-164.06
5234,52.781197,-1.416319,172.87,29.76,4,28.23,19 / 22,523439,2019-11-08 10:06:01:050,1.2032,-0.2309,11.68,0.0237,0.0002,9.8066,-0.0491,-0.0716,0.0401,-19.94,-42.5,32.81,341.88,-80.15,-163.33
5235,52.781197,-1.416319,172.87,29.76,4,28.23,21 / 21,523539,2019-11-08 10:06:01:150,0.3438,0.0587,10.6285,-0.0319,0.0155,9.8065,0.0589,-0.0375,-0.0631,-19.69,-43.12,33.19,341.87,-80.27,-163.3
5236,52.781197,-1.416319,172.87,29.76,4,28.23,21 / 21,523639,2019-11-08 10:06:01:250,2.1903,3.5132,8.8279,0.0123,0.0097,9.8065,-0.0644,-0.0324,-0.132,-19.5,-43.37,32.56,342.14,-80.23,-164.31
5237,52.781197,-1.416319,172.87,29.76,4,28.23,21 / 21,523739,2019-11-08 10:06:01:350,1.3349,1.5939,9.9101,0.0391,0.041,9.8065,-0.0153,0.3575,-0.1408,-19.94,-43.81,31.94,338.87,-80.17,-164.72
5238,52.781197,-1.416319,172.87,29.76,4,28.23,21 / 21,523839,2019-11-08 10:06:01:450,-3.935,-1.4203,9.88,-0.0364,-0.0335,9.8065,-0.0706,0.3731,-0.3339,-19.62,-44.06,32.0,339.07,-80.13,-164.54
5239,52.781197,-1.416319,172.87,29.76,4,28.23,21 / 21,523939,2019-11-08 10:06:01:550,0.5625,0.7795,8.8702,0.0086,0.0155,9.8066,0.0893,0.3471,-0.2961,-19.12,-43.81,32.44,341.6,-80.1,-163.76
5240,52.781197,-1.416319,172.87,29.76,4,28.23,21 / 21,524038,2019-11-08 10:06:01:649,-2.3431,-1.3709,10.4529,-0.0168,-0.0257,9.8065,0.053,0.1736,-0.1549,-19.69,-43.06,32.63,340.76,-80.25,-164.19
