,GPS LATITUDE (degrees),GPS LONGITUDE (degrees), GPS ALTITUDE (m),GPS SPEED (Kmh),GPS ACCURACY (m),GPS ORIENTATION (Â°), SATELLITES IN RANGE, TIME SINCE START (ms), DATE (YYYY-MO-DD HH-MI-SS_SSS),ACCELEROMETER X (m/s²) , ACCELEROMETER Y (m/s²), ACCELEROMETER Z (m/s²), GRAVITY X (m/s²), GRAVITY Y (m/s²), GRAVITY Z (m/s²), GYROSCOPE Yaw (rad/s), GYROSCOPE Pitch (rad/s), GYROSCOPE Roll (rad/s)
34051,48.11128,-1.718387,70.36,27.26,7.504,171.3,14 / 21,3405843,2019-08-18 16:10:28:380,-0.1933,-0.0395,9.8787,-0.2258,-0.3508,9.7978,-0.0107,-0.0102,-0.0025
34052,48.11128,-1.718387,70.36,27.26,7.504,171.3,14 / 21,3405943,2019-08-18 16:10:28:480,-0.3722,-0.1909,9.6471,-0.2189,-0.353,9.7979,-0.0065,-0.0085,-0.0023
34053,48.11128,-1.718387,70.36,27.26,7.504,171.3,14 / 21,3406043,2019-08-18 16:10:28:580,0.1126,-0.0916,9.4957,-0.2104,-0.3563,9.7979,-0.0034,0.007,-0.0013
34054,48.11128,-1.718387,70.36,27.26,7.504,171.3,14 / 21,3406143,2019-08-18 16:10:28:680,-0.1867,0.1227,10.0966,-0.2086,-0.3583,9.7979,-0.0164,-0.0031,-0.0009
34055,48.11128,-1.718387,70.36,27.26,7.504,171.3,14 / 21,3406243,2019-08-18 16:10:28:780,-0.0059,-0.1173,10.5557,-0.2066,-0.363,9.7978,-0.001,-0.0154,-0.0007
34056,48.11128,-1.718387,70.36,27.26,7.504,171.3,14 / 21,3406344,2019-08-18 16:10:28:881,-0.0245,-0.5483,9.6692,-0.1981,-0.359,9.7981,0.0039,-0.0085,-0.0005
34057,48.11128,-1.718387,70.36,27.26,7.504,171.3,14 / 21,3406443,2019-08-18 16:10:28:980,-0.3232,-0.1436,10.1391,-0.1912,-0.3464,9.7987,0.0024,-0.0032,-0.0004
34058,48.11128,-1.718387,70.36,27.26,7.504,171.3,14 / 21,3406544,2019-08-18 16:10:29:081,0.0569,0.0796,9.8434,-0.1877,-0.342,9.7989,0.002,-0.0076,0.0008
34059,48.11128,-1.718387,70.36,27.26,7.504,171.3,14 / 21,3406643,2019-08-18 16:10:29:180,-0.0999,-0.0281,9.6267,-0.1906,-0.3428,9.7988,-0.017,0.007,-0.0006
34060,48.11128,-1.718387,70.36,27.26,7.504,171.3,14 / 21,3406743,2019-08-18 16:10:29:280,-0.3543,-0.0503,10.0493,-0.1905,-0.3519,9.7985,0.0057,-0.0112,-0.0004
34061,48.11128,-1.718387,70.36,27.26,7.504,171.3,14 / 21,3406844,2019-08-18 16:10:29:381,-0.4297,-0.3615,9.8374,-0.1899,-0.3432,9.7988,0.0076,-0.0046,-0.0004
34062,48.11128,-1.718387,70.36,27.26,7.504,171.3,14 / 21,3406943,2019-08-18 16:10:29:480,-0.3776,-0.3873,9.7997,-0.198,-0.343,9.7987,-0.0143,0.0084,-0.0006
34063,48.11128,-1.718387,70.36,27.26,7.504,171.3,14 / 21,3407043,2019-08-18 16:10:29:580,-0.4123,-0.0341,9.2161,-0.2183,-0.3562,9.7977,-0.0097,0.0042,-0.0008
34064,48.11128,-1.718387,70.36,27.26,7.504,171.3,14 / 21,3407144,2019-08-18 16:10:29:681,-0.3758,-0.3897,9.5292,-0.218,-0.3611,9.7976,-0.0079,-0.0116,0.0009
34065,48.11128,-1.718387,70.36,27.26,7.504,171.3,14 / 21,3407244,2019-08-18 16:10:29:781,-0.7918,-0.1903,10.0942,-0.2295,-0.354,9.7976,0.0134,0.0074,0.0035
34066,48.11128,-1.718387,70.36,27.26,7.504,171.3,14 / 21,3407343,2019-08-18 16:10:29:880,-0.9379,0.1221,10.0212,-0.2358,-0.3447,9.7978,0.0088,0.0039,0.0111
34067,48.11128,-1.718387,70.36,27.26,7.504,171.3,14 / 21,3407444,2019-08-18 16:10:29:981,-0.966,0.091,9.9679,-0.2479,-0.343,9.7975,-0.0243,-0.0035,0.0124
34068,48.11128,-1.718387,70.36,27.26,7.504,171.3,14 / 21,3407543,2019-08-18 16:10:30:080,-0.392,0.0569,10.4348,-0.2531,-0.3388,9.7975,-0.0036,-0.018,0.0114
34069,48.11128,-1.718387,70.36,27.26,7.504,171.3,14 / 21,3407643,2019-08-18 16:10:30:180,-0.8277,0.3059,9.4903,-0.2519,-0.3337,9.7977,-0.0097,0.0125,0.0106
34070,48.11128,-1.718387,70.36,27.26,7.504,171.3,14 / 21,3407743,2019-08-18 16:10:30:280,-0.6464,0.0904,9.7255,-0.2639,-0.3336,9.7974,-0.0109,0.0108,0.0119
34071,48.11128,-1.718387,70.36,27.26,7.504,171.3,14 / 21,3407843,2019-08-18 16:10:30:380,-0.6069,-0.2089,9.8302,-0.277,-0.338,9.7969,-0.0088,-0.0086,0.0085
34072,48.11128,-1.718387,70.36,27.26,7.504,171.3,14 / 21,3407943,2019-08-18 16:10:30:480,-0.817,-0.0892,9.9404,-0.2829,-0.334,9.7969,-0.0059,-0.0101,0.0065
34073,48.11128,-1.718387,70.36,27.26,7.504,171.3,14 / 21,3408043,2019-08-18 16:10:30:580,-0.2885,-0.0898,9.8757,-0.2716,-0.3291,9.7974,0.0081,-0.0184,0.0025
34074,48.109016,-1.71785,70.46,28.26,5.36,171.0,13 / 21,3408144,2019-08-18 16:10:30:681,-0.2448,-0.2945,10.1577,-0.2604,-0.321,9.7979,-0.0002,-0.0139,-0.0007
34075,48.109016,-1.71785,70.46,28.26,5.36,171.0,13 / 21,3408243,2019-08-18 16:10:30:780,-0.3381,-0.3076,10.0876,-0.2571,-0.3208,9.798,-0.0075,0.0003,-0.0036
34076,48.109016,-1.71785,70.46,28.26,5.36,171.0,13 / 21,3408344,2019-08-18 16:10:30:881,-0.4788,-0.3035,9.9374,-0.2569,-0.3287,9.7978,-0.0077,-0.0035,-0.0032
34077,48.109016,-1.71785,70.46,28.26,5.36,171.0,13 / 21,3408444,2019-08-18 16:10:30:981,-0.2609,-0.2083,9.747,-0.2533,-0.3323,9.7977,-0.01,0.0001,-0.0014
34078,48.109016,-1.71785,70.46,28.26,5.36,171.0,13 / 21,3408543,2019-08-18 16:10:31:080,-0.4692,-0.3466,9.6698,-0.2647,-0.3414,9.7971,-0.0079,0.0069,-0.0011
34079,48.109016,-1.71785,70.46,28.26,5.36,171.0,13 / 21,3408643,2019-08-18 16:10:31:180,-0.5081,-0.0634,10.1948,-0.267,-0.3422,9.797,-0.0023,-0.0064,-0.0012
34080,48.109016,-1.71785,70.46,28.26,5.36,171.0,13 / 21,3408743,2019-08-18 16:10:31:280,-0.289,-0.5315,10.0092,-0.2654,-0.3423,9.7971,-0.0049,-0.0032,-0.0019
34081,48.109016,-1.71785,70.46,28.26,5.36,171.0,13 / 21,3408843,2019-08-18 16:10:31:380,-0.6655,-0.0605,9.6836,-0.2696,-0.3464,9.7968,-0.0119,0.0024,-0.003
34082,48.109016,-1.71785,70.46,28.26,5.36,171.0,13 / 21,3408943,2019-08-18 16:10:31:480,-0.5734,-0.2652,10.0954,-0.2753,-0.3603,9.7962,-0.0126,-0.0102,-0.0051
34083,48.109016,-1.71785,70.46,28.26,5.36,171.0,13 / 21,3409043,2019-08-18 16:10:31:580,-0.468,-0.3376,9.525,-0.2664,-0.369,9.7961,-0.0094,-0.012,-0.0039
34084,48.109016,-1.71785,70.46,28.26,5.36,171.0,13 / 21,3409143,2019-08-18 16:10:31:680,-0.5045,-0.2903,10.1235,-0.2546,-0.3808,9.7959,-0.0003,-0.0075,-0.0013
34085,48.109016,-1.71785,70.46,28.26,5.36,171.0,13 / 21,3409243,2019-08-18 16:10:31:780,-0.4525,-0.5908,10.3025,-0.2593,-0.3804,9.7958,-0.001,0.013,-0.0007
34086,48.109016,-1.71785,70.46,28.26,5.36,171.0,13 / 21,3409343,2019-08-18 16:10:31:880,-0.5811,-0.4483,9.78,-0.2788,-0.3929,9.7948,-0.0106,-0.0034,-0.0016
34087,48.109016,-1.71785,70.46,28.26,5.36,171.0,13 / 21,3409443,2019-08-18 16:10:31:980,-0.5901,-0.5309,9.7602,-0.2817,-0.396,9.7946,-0.0019,-0.0119,-0.0013
34088,48.109016,-1.71785,70.46,28.26,5.36,171.0,13 / 21,3409543,2019-08-18 16:10:32:080,-0.559,-0.5219,9.4125,-0.2848,-0.3968,9.7945,-0.0059,0.0066,-0.0012
34089,48.109016,-1.71785,70.46,28.26,5.36,171.0,13 / 21,3409643,2019-08-18 16:10:32:180,-0.6602,-0.425,9.7728,-0.2891,-0.4015,9.7942,-0.005,0.0018,-0.0012
34090,48.109016,-1.71785,70.46,28.26,5.36,171.0,13 / 21,3409744,2019-08-18 16:10:32:281,-0.6601,-0.5441,9.7464,-0.2957,-0.4008,9.794,0.0087,-0.0077,-0.0015
34091,48.109016,-1.71785,70.46,28.26,5.36,171.0,13 / 21,3409843,2019-08-18 16:10:32:380,-0.5608,-0.2532,10.1313,-0.3019,-0.3948,9.794,-0.0007,-0.0008,-0.0006
34092,48.109016,-1.71785,70.46,28.26,5.36,171.0,13 / 21,3409944,2019-08-18 16:10:32:481,-0.5901,-0.7075,10.1104,-0.3109,-0.4085,9.7932,-0.0137,-0.0006,-0.0008
34093,48.109016,-1.71785,70.46,28.26,5.36,171.0,13 / 21,3410043,2019-08-18 16:10:32:580,-0.6991,-0.6339,9.9302,-0.3122,-0.4167,9.7928,-0.0083,-0.0117,-0.0009
34094,48.109016,-1.71785,70.46,28.26,5.36,171.0,14 / 22,3410144,2019-08-18 16:10:32:681,-0.7188,-0.1933,9.4376,-0.3068,-0.426,9.7926,-0.0039,-0.0135,-0.0008
34095,48.109016,-1.71785,70.46,28.26,5.36,171.0,14 / 22,3410243,2019-08-18 16:10:32:780,-0.5775,-0.5166,9.5388,-0.3058,-0.4254,9.7926,-0.0016,0.0004,0.0002
34096,48.109016,-1.71785,70.46,28.26,5.36,171.0,14 / 22,3410343,2019-08-18 16:10:32:880,-0.5584,-0.4519,10.1517,-0.3102,-0.4287,9.7924,-0.019,-0.0057,-0.0007
34097,48.109016,-1.71785,70.46,28.26,5.36,171.0,14 / 22,3410444,2019-08-18 16:10:32:981,-0.3669,-0.3382,10.1451,-0.315,-0.434,9.792,0.0039,-0.0099,0.0002
34098,48.109016,-1.71785,70.46,28.26,5.36,171.0,14 / 22,3410543,2019-08-18 16:10:33:080,-0.544,-0.398,9.6303,-0.3057,-0.4333,9.7923,-0.0049,-0.0098,-0.0008
34099,48.109016,-1.71785,70.46,28.26,5.36,171.0,14 / 22,3410644,2019-08-18 16:10:33:181,-0.6129,-0.2478,9.5016,-0.3114,-0.4366,9.792,-0.0084,0.0009,-0.0007
34100,48.109016,-1.71785,70.46,28.26,5.36,171.0,14 / 22,3410743,2019-08-18 16:10:33:280,-0.4183,-0.17,9.9775,-0.3062,-0.4414,9.7919,-0.0049,-0.0187,-0.0003
34101,48.109016,-1.71785,70.46,28.26,5.36,171.0,14 / 22,3410844,2019-08-18 16:10:33:381,-0.3489,-0.4106,9.3759,-0.3038,-0.4417,9.792,-0.011,0.005,-0.0005
34102,48.109016,-1.71785,70.46,28.26,5.36,171.0,14 / 22,3410943,2019-08-18 16:10:33:480,-0.4536,-0.3478,9.4861,-0.3081,-0.4464,9.7916,-0.0092,-0.0012,0.0003
34103,48.109016,-1.71785,70.46,28.26,5.36,171.0,14 / 22,3411043,2019-08-18 16:10:33:580,-0.4997,-0.3484,9.513,-0.3198,-0.4521,9.791,-0.0061,-0.0009,0.0016
34104,48.109016,-1.71785,70.46,28.26,5.36,171.0,Dec-20,3411143,2019-08-18 16:10:33:680,-0.4494,-0.3047,9.7614,-0.3218,-0.4578,9.7907,-0.0093,0.0013,0.0009
34105,48.109016,-1.71785,70.46,28.26,5.36,171.0,Dec-20,3411243,2019-08-18 16:10:33:780,-0.5823,-0.3861,9.7141,-0.3226,-0.4612,9.7905,-0.005,-0.0071,0.0007
34106,48.109016,-1.71785,70.46,28.26,5.36,171.0,Dec-20,3411344,2019-08-18 16:10:33:881,-0.4692,-0.3795,10.099,-0.3124,-0.4551,9.7911,-0.0033,-0.0111,0.001
34107,48.109016,-1.71785,70.46,28.26,5.36,171.0,Dec-20,3411444,2019-08-18 16:10:33:981,-0.6434,-0.6859,10.2534,-0.3138,-0.4553,9.7911,-0.0086,0.0035,0.0006
34108,48.109016,-1.71785,70.46,28.26,5.36,171.0,Dec-20,3411544,2019-08-18 16:10:34:081,-0.8966,-0.6566,10.1134,-0.3226,-0.4595,9.7906,0.0012,-0.0068,-0.0009
34109,48.109016,-1.71785,70.46,28.26,5.36,171.0,Dec-20,3411643,2019-08-18 16:10:34:180,-0.7781,-0.7051,9.8877,-0.3255,-0.4644,9.7902,-0.0081,-0.004,-0.0037
34110,48.109016,-1.71785,70.46,28.26,5.36,171.0,Dec-20,3411743,2019-08-18 16:10:34:280,-0.8547,-0.9134,9.6884,-0.3375,-0.4744,9.7893,-0.0215,0.01,-0.0109
34111,48.109016,-1.71785,70.46,28.26,5.36,171.0,Dec-20,3411843,2019-08-18 16:10:34:380,-0.7691,-1.0529,10.4617,-0.3607,-0.5089,9.7868,-0.0135,-0.0089,-0.0126
34112,48.109016,-1.71785,70.46,28.26,5.36,171.0,Dec-20,3411944,2019-08-18 16:10:34:481,-0.7709,-1.0187,9.2808,-0.3607,-0.5159,9.7864,0.0018,-0.0053,-0.0112
34113,48.109016,-1.71785,70.46,28.26,5.36,171.0,Dec-20,3412043,2019-08-18 16:10:34:580,-0.632,-0.8876,10.2684,-0.3638,-0.5226,9.786,0.0092,-0.0076,-0.0118
34114,48.109016,-1.71785,70.46,28.26,5.36,171.0,14 / 22,3412143,2019-08-18 16:10:34:680,-0.7858,-0.7661,9.6776,-0.3639,-0.5214,9.786,0.0034,-0.0022,-0.0092
34115,48.109016,-1.71785,70.46,28.26,5.36,171.0,14 / 22,3412243,2019-08-18 16:10:34:780,-0.7888,-0.738,9.7985,-0.3803,-0.5277,9.7851,0.0035,0.0096,-0.0075
34116,48.109016,-1.71785,70.46,28.26,5.36,171.0,14 / 22,3412344,2019-08-18 16:10:34:881,-0.9319,-0.9762,10.0481,-0.3944,-0.5299,9.7844,0.0038,0.0043,-0.0093
34117,48.109016,-1.71785,70.46,28.26,5.36,171.0,14 / 22,3412443,2019-08-18 16:10:34:980,-0.7457,-0.8068,10.2169,-0.4008,-0.5383,9.7837,0.0008,-0.0148,-0.0137
34118,48.109016,-1.71785,70.46,28.26,5.36,171.0,14 / 22,3412543,2019-08-18 16:10:35:080,-0.6207,-0.8428,10.4222,-0.3938,-0.5444,9.7836,-0.0014,-0.0091,-0.0124
34119,48.109016,-1.71785,70.46,28.26,5.36,171.0,14 / 22,3412643,2019-08-18 16:10:35:180,-0.5788,-0.4842,9.9853,-0.396,-0.5507,9.7832,0.0073,-0.0004,-0.0104
34120,48.109016,-1.71785,70.46,28.26,5.36,171.0,14 / 22,3412744,2019-08-18 16:10:35:281,-0.6745,-0.6746,9.9577,-0.4011,-0.5511,9.7829,0.0028,0.0074,-0.0107
34121,48.109016,-1.71785,70.46,28.26,5.36,171.0,14 / 22,3412843,2019-08-18 16:10:35:380,-0.5111,-0.5531,9.7093,-0.4147,-0.555,9.7821,0.001,-0.0031,-0.0104
34122,48.109016,-1.71785,70.46,28.26,5.36,171.0,14 / 22,3412943,2019-08-18 16:10:35:480,-0.5925,-0.7811,9.4975,-0.4173,-0.556,9.782,-0.0062,-0.0138,-0.011
34123,48.109016,-1.71785,70.46,28.26,5.36,171.0,14 / 22,3413044,2019-08-18 16:10:35:581,-0.6829,-0.4663,9.1419,-0.4179,-0.5826,9.7804,-0.0165,0.0093,-0.0088
34124,48.109016,-1.71785,70.46,28.26,5.36,171.0,Nov-18,3413143,2019-08-18 16:10:35:680,-0.6308,-0.7488,9.604,-0.4299,-0.5863,9.7797,0.0021,0.018,-0.0069
34125,48.109016,-1.71785,70.46,28.26,5.36,171.0,Nov-18,3413243,2019-08-18 16:10:35:780,-0.6721,-0.5525,9.8284,-0.4328,-0.5945,9.779,-0.0139,-0.014,-0.0084
34126,48.109016,-1.71785,70.46,28.26,5.36,171.0,Nov-18,3413344,2019-08-18 16:10:35:881,-0.7272,-0.5141,9.7285,-0.4242,-0.6036,9.7789,-0.0171,-0.0191,-0.0093
34127,48.109016,-1.71785,70.46,28.26,5.36,171.0,Nov-18,3413443,2019-08-18 16:10:35:980,-0.3663,-0.3208,9.9577,-0.4122,-0.6138,9.7787,-0.0089,-0.0062,-0.006
34128,48.109016,-1.71785,70.46,28.26,5.36,171.0,Nov-18,3413543,2019-08-18 16:10:36:080,-0.4842,-0.6434,9.4627,-0.4105,-0.6199,9.7784,-0.03,0.0023,-0.005
34129,48.109016,-1.71785,70.46,28.26,5.36,171.0,Nov-18,3413643,2019-08-18 16:10:36:180,-0.4997,-0.5195,9.583,-0.416,-0.6497,9.7763,-0.0094,0.0086,-0.0061
34130,48.109016,-1.71785,70.46,28.26,5.36,171.0,Nov-18,3413744,2019-08-18 16:10:36:281,-0.635,-0.7895,9.9972,-0.4238,-0.6472,9.7761,0.0099,0.0015,-0.0055
34131,48.109016,-1.71785,70.46,28.26,5.36,171.0,Nov-18,3413843,2019-08-18 16:10:36:380,-0.817,-0.7236,10.3025,-0.4332,-0.6354,9.7765,0.0073,-0.0094,-0.0057
34132,48.109016,-1.71785,70.46,28.26,5.36,171.0,Nov-18,3413943,2019-08-18 16:10:36:480,-0.6967,-0.7332,10.0679,-0.4336,-0.6366,9.7764,0.0007,-0.0023,-0.0055
34133,48.109016,-1.71785,70.46,28.26,5.36,171.0,Nov-18,3414043,2019-08-18 16:10:36:580,-0.6206,0.0928,9.2024,-0.4673,-0.6424,9.7744,-0.0095,0.0168,-0.0036
34134,48.109016,-1.71785,70.46,28.26,5.36,171.0,15 / 22,3414144,2019-08-18 16:10:36:681,-0.541,-0.5776,8.8157,-0.4894,-0.6583,9.7723,-0.0147,0.0188,-0.0067
34135,48.109016,-1.71785,70.46,28.26,5.36,171.0,15 / 22,3414244,2019-08-18 16:10:36:781,-1.1312,-0.7841,9.8799,-0.4977,-0.6808,9.7703,-0.0022,-0.0085,-0.002
34136,48.109016,-1.71785,70.46,28.26,5.36,171.0,15 / 22,3414343,2019-08-18 16:10:36:880,-1.2072,-0.8188,9.6417,-0.4989,-0.6823,9.7702,0.0025,-0.0079,-0.0017
34137,48.109016,-1.71785,70.46,28.26,5.36,171.0,15 / 22,3414443,2019-08-18 16:10:36:980,-1.1516,-0.8134,9.334,-0.5218,-0.6837,9.7689,-0.0127,0.0119,0.0019
34138,48.109016,-1.71785,70.46,28.26,5.36,171.0,15 / 22,3414543,2019-08-18 16:10:37:080,-1.0067,-0.9092,9.7722,-0.5351,-0.6933,9.7675,-0.0143,0.0096,0.0022
34139,48.109016,-1.71785,70.46,28.26,5.36,171.0,15 / 22,3414643,2019-08-18 16:10:37:180,-1.2623,-0.659,10.0254,-0.5506,-0.6977,9.7663,-0.0099,0.0065,-0.0019
34140,48.109016,-1.71785,70.46,28.26,5.36,171.0,15 / 22,3414744,2019-08-18 16:10:37:281,-0.8343,-0.7691,9.3801,-0.5719,-0.7127,9.764,-0.0157,0.0011,-0.0035
34141,48.109016,-1.71785,70.46,28.26,5.36,171.0,15 / 22,3414843,2019-08-18 16:10:37:380,-1.0414,-0.6267,9.197,-0.587,-0.7273,9.762,-0.0183,0.0004,-0.0067
34142,48.109016,-1.71785,70.46,28.26,5.36,171.0,15 / 22,3414943,2019-08-18 16:10:37:480,-1.2198,-1.0265,10.0146,-0.6053,-0.7539,9.7589,-0.0125,-0.0028,-0.0068
34143,48.109016,-1.71785,70.46,28.26,5.36,171.0,15 / 22,3415044,2019-08-18 16:10:37:581,-1.0923,-0.8344,10.3318,-0.616,-0.7618,9.7576,-0.0059,-0.0166,-0.0035
34144,48.109016,-1.71785,70.46,28.26,5.36,171.0,16 / 22,3415143,2019-08-18 16:10:37:680,-0.954,-0.8074,10.0715,-0.6159,-0.7666,9.7572,0.006,-0.0194,-0.0039
34145,48.109016,-1.71785,70.46,28.26,5.36,171.0,16 / 22,3415243,2019-08-18 16:10:37:780,-0.948,-0.6081,10.1343,-0.6052,-0.7527,9.759,0.0196,0.0036,-0.0008
34146,48.109016,-1.71785,70.46,28.26,5.36,171.0,16 / 22,3415344,2019-08-18 16:10:37:881,-0.5991,-0.5782,8.4913,-0.6178,-0.7451,9.7588,-0.0374,0.0346,-0.006
34147,48.109016,-1.71785,70.46,28.26,5.36,171.0,16 / 22,3415444,2019-08-18 16:10:37:981,-0.8744,-0.6375,8.6128,-0.6359,-0.7642,9.7561,-0.0318,0.029,-0.0053
34148,48.109016,-1.71785,70.46,28.26,5.36,171.0,16 / 22,3415543,2019-08-18 16:10:38:080,-0.7787,-0.8386,9.4681,-0.6774,-0.8001,9.7505,-0.0165,-0.0098,-0.0064
34149,48.109016,-1.71785,70.46,28.26,5.36,171.0,16 / 22,3415644,2019-08-18 16:10:38:181,-0.9463,-0.7596,10.6359,-0.6751,-0.8091,9.7499,-0.0108,-0.0139,-0.0059
34150,48.109016,-1.71785,70.46,28.26,5.36,171.0,16 / 22,3415743,2019-08-18 16:10:38:280,-0.8654,-0.8062,10.1229,-0.6802,-0.8095,9.7495,0.015,0.0214,0.0045
34151,48.109016,-1.71785,70.46,28.26,5.36,171.0,16 / 22,3415844,2019-08-18 16:10:38:381,-1.157,-0.2849,9.2329,-0.6974,-0.8009,9.749,0.0044,0.0162,0.005
34152,48.109016,-1.71785,70.46,28.26,5.36,171.0,16 / 22,3415943,2019-08-18 16:10:38:480,-1.0732,-0.513,9.4855,-0.7265,-0.8009,9.7469,-0.0221,-0.0067,-0.0013
34153,48.109016,-1.71785,70.46,28.26,5.36,171.0,16 / 22,3416044,2019-08-18 16:10:38:581,-0.8822,-0.4381,9.0294,-0.7252,-0.8094,9.7462,-0.0318,-0.0126,-0.001
34154,48.109016,-1.71785,70.46,28.26,5.36,171.0,13 / 19,3416143,2019-08-18 16:10:38:680,-0.9672,-0.5279,9.0378,-0.7378,-0.8394,9.7428,-0.0207,0.0287,0.002
34155,48.109016,-1.71785,70.46,28.26,5.36,171.0,13 / 19,3416243,2019-08-18 16:10:38:780,-1.2868,-0.6488,10.0146,-0.7591,-0.8486,9.7403,-0.0048,0.0252,0.0032
34156,48.109016,-1.71785,70.46,28.26,5.36,171.0,13 / 19,3416343,2019-08-18 16:10:38:880,-1.048,-0.4902,10.7215,-0.7733,-0.8342,9.7405,0.0154,-0.0058,0.0053
34157,48.109016,-1.71785,70.46,28.26,5.36,171.0,13 / 19,3416443,2019-08-18 16:10:38:980,-1.2719,-0.5656,10.4916,-0.7702,-0.8174,9.7421,0.0154,-0.0117,0.0037
34158,48.109016,-1.71785,70.46,28.26,5.36,171.0,13 / 19,3416543,2019-08-18 16:10:39:080,-1.0767,-0.6536,9.5741,-0.7756,-0.7994,9.7432,-0.0024,0.006,0.0056
34159,48.109016,-1.71785,70.46,28.26,5.36,171.0,13 / 19,3416643,2019-08-18 16:10:39:180,-1.0276,-0.6009,9.1545,-0.787,-0.7992,9.7423,-0.0246,0.0003,0.0043
34160,48.109016,-1.71785,70.46,28.26,5.36,171.0,13 / 19,3416743,2019-08-18 16:10:39:280,-1.1887,-0.3675,9.8721,-0.7937,-0.8151,9.7404,-0.0232,-0.0183,0.001
34161,48.109016,-1.71785,70.46,28.26,5.36,171.0,13 / 19,3416843,2019-08-18 16:10:39:380,-0.9762,-0.2077,10.3276,-0.7858,-0.8222,9.7405,0.0034,-0.0166,0.0
34162,48.109016,-1.71785,70.46,28.26,5.36,171.0,13 / 19,3416944,2019-08-18 16:10:39:481,-0.9893,-0.7392,10.245,-0.7714,-0.8165,9.7421,-0.0002,-0.0044,0.0024
34163,48.109016,-1.71785,70.46,28.26,5.36,171.0,13 / 19,3417043,2019-08-18 16:10:39:580,-1.2312,-0.5968,9.8099,-0.775,-0.8166,9.7418,-0.0143,0.0057,0.0048
34164,48.10677,-1.717364,73.91,26.11,4.288,172.4,16 / 22,3417143,2019-08-18 16:10:39:680,-1.0953,-0.5746,10.0212,-0.7901,-0.8213,9.7402,-0.0117,-0.0044,0.0037
34165,48.10677,-1.717364,73.91,26.11,4.288,172.4,16 / 22,3417243,2019-08-18 16:10:39:780,-1.1378,-0.6171,9.7991,-0.7932,-0.8219,9.7399,-0.0168,0.0047,0.0028
34166,48.10677,-1.717364,73.91,26.11,4.288,172.4,16 / 22,3417344,2019-08-18 16:10:39:881,-0.8529,-0.5028,9.4544,-0.8006,-0.8347,9.7382,-0.0194,-0.0028,0.0013
34167,48.10677,-1.717364,73.91,26.11,4.288,172.4,16 / 22,3417444,2019-08-18 16:10:39:981,-0.9774,-0.6357,9.8069,-0.8042,-0.83,9.7383,0.0024,0.0029,0.0022
34168,48.10677,-1.717364,73.91,26.11,4.288,172.4,16 / 22,3417543,2019-08-18 16:10:40:080,-1.1713,-0.4184,10.0942,-0.811,-0.8221,9.7384,-0.0007,-0.0007,0.0032
34169,48.10677,-1.717364,73.91,26.11,4.288,172.4,16 / 22,3417643,2019-08-18 16:10:40:180,-1.1731,-0.419,9.9338,-0.8202,-0.8148,9.7383,0.0021,0.002,0.0032
34170,48.10677,-1.717364,73.91,26.11,4.288,172.4,16 / 22,3417743,2019-08-18 16:10:40:280,-0.969,-0.5997,10.5647,-0.8179,-0.8093,9.7389,-0.0105,-0.001,0.0013
34171,48.10677,-1.717364,73.91,26.11,4.288,172.4,16 / 22,3417843,2019-08-18 16:10:40:380,-0.7302,-0.6099,9.9104,-0.8212,-0.8144,9.7382,-0.0094,0.0098,0.0002
34172,48.10677,-1.717364,73.91,26.11,4.288,172.4,16 / 22,3417944,2019-08-18 16:10:40:481,-0.9612,-0.5567,9.7806,-0.8299,-0.809,9.7379,0.0024,-0.0101,0.0015
34173,48.10677,-1.717364,73.91,26.11,4.288,172.4,16 / 22,3418043,2019-08-18 16:10:40:580,-0.9026,-0.5914,10.0667,-0.8282,-0.803,9.7386,0.0034,-0.0108,0.0011
34174,48.10677,-1.717364,73.91,26.11,4.288,172.4,16 / 21,3418144,2019-08-18 16:10:40:681,-1.0145,-0.5046,9.7883,-0.8229,-0.8001,9.7393,0.0048,-0.0005,0.0034
34175,48.10677,-1.717364,73.91,26.11,4.288,172.4,16 / 21,3418244,2019-08-18 16:10:40:781,-0.9959,-0.4902,9.619,-0.8286,-0.784,9.7401,0.0051,-0.0014,0.0051
34176,48.10677,-1.717364,73.91,26.11,4.288,172.4,16 / 21,3418343,2019-08-18 16:10:40:880,-1.1228,-0.4848,10.2809,-0.8273,-0.7754,9.7409,-0.0031,-0.0192,0.0043
34177,48.10677,-1.717364,73.91,26.11,4.288,172.4,16 / 21,3418443,2019-08-18 16:10:40:980,-1.1276,-0.4615,9.4155,-0.8189,-0.769,9.7421,-0.0078,-0.0157,0.0028
34178,48.10677,-1.717364,73.91,26.11,4.288,172.4,16 / 21,3418543,2019-08-18 16:10:41:080,-1.2174,-0.7428,9.3831,-0.8138,-0.771,9.7424,-0.0121,-0.015,0.0036
34179,48.10677,-1.717364,73.91,26.11,4.288,172.4,16 / 21,3418643,2019-08-18 16:10:41:180,-0.9828,-0.6279,9.2766,-0.8423,-0.7822,9.7391,-0.0097,0.0259,0.0078
34180,48.10677,-1.717364,73.91,26.11,4.288,172.4,16 / 21,3418744,2019-08-18 16:10:41:281,-1.13,-0.5363,9.4406,-0.8625,-0.784,9.7371,-0.0128,0.0004,0.0089
34181,48.10677,-1.717364,73.91,26.11,4.288,172.4,16 / 21,3418843,2019-08-18 16:10:41:380,-1.1049,-0.489,9.9254,-0.8674,-0.7898,9.7362,-0.0058,-0.0109,0.0035
34182,48.10677,-1.717364,73.91,26.11,4.288,172.4,16 / 21,3418943,2019-08-18 16:10:41:480,-1.0821,-0.3849,9.8081,-0.8652,-0.7874,9.7366,-0.0037,-0.01,0.0055
34183,48.10677,-1.717364,73.91,26.11,4.288,172.4,16 / 21,3419044,2019-08-18 16:10:41:581,-0.887,-0.6542,10.0762,-0.8571,-0.7855,9.7375,-0.0048,-0.0031,0.0065
34184,48.10677,-1.717364,73.91,26.11,4.288,172.4,16 / 21,3419143,2019-08-18 16:10:41:680,-1.051,-0.5135,9.9051,-0.8576,-0.7843,9.7375,-0.0019,-0.0109,0.0056
34185,48.10677,-1.717364,73.91,26.11,4.288,172.4,16 / 21,3419243,2019-08-18 16:10:41:780,-0.8846,-0.647,9.1623,-0.8594,-0.7735,9.7382,0.0057,0.0179,0.0054
34186,48.10677,-1.717364,73.91,26.11,4.288,172.4,16 / 21,3419344,2019-08-18 16:10:41:881,-1.1605,-0.2765,9.8297,-0.8695,-0.7681,9.7378,0.0096,0.0194,0.0069
34187,48.10677,-1.717364,73.91,26.11,4.288,172.4,16 / 21,3419444,2019-08-18 16:10:41:981,-1.0743,-0.2586,9.4466,-0.8944,-0.7483,9.7371,0.0058,-0.0054,0.0055
34188,48.10677,-1.717364,73.91,26.11,4.288,172.4,16 / 21,3419543,2019-08-18 16:10:42:080,-1.1695,-0.504,10.0218,-0.8931,-0.7396,9.7378,0.0092,-0.0171,0.006
34189,48.10677,-1.717364,73.91,26.11,4.288,172.4,16 / 21,3419643,2019-08-18 16:10:42:180,-1.306,-0.322,9.6094,-0.8797,-0.7185,9.7406,0.0072,-0.0077,0.0056
34190,48.10677,-1.717364,73.91,26.11,4.288,172.4,16 / 21,3419743,2019-08-18 16:10:42:280,-0.9822,-0.3406,9.8081,-0.8821,-0.7084,9.7412,-0.0019,0.0005,0.0058
34191,48.10677,-1.717364,73.91,26.11,4.288,172.4,16 / 21,3419843,2019-08-18 16:10:42:380,-1.0887,-0.3352,9.7967,-0.8932,-0.7025,9.7406,-0.0054,0.0004,0.0043
34192,48.10677,-1.717364,73.91,26.11,4.288,172.4,16 / 21,3419943,2019-08-18 16:10:42:480,-1.2324,-0.2777,9.2784,-0.8978,-0.7049,9.74,-0.021,-0.0113,0.0038
34193,48.10677,-1.717364,73.91,26.11,4.288,172.4,16 / 21,3420043,2019-08-18 16:10:42:580,-1.2288,-0.4627,9.0838,-0.8926,-0.7171,9.7396,-0.016,-0.0117,0.004
34194,48.10677,-1.717364,73.91,26.11,4.288,172.4,16 / 21,3420144,2019-08-18 16:10:42:681,-0.9463,-0.2616,9.8027,-0.8843,-0.7235,9.7399,-0.0081,-0.0105,0.0059
34195,48.10677,-1.717364,73.91,26.11,4.288,172.4,16 / 21,3420243,2019-08-18 16:10:42:780,-1.0151,-0.158,10.1618,-0.8819,-0.7259,9.7399,-0.0161,-0.0062,0.0082
34196,48.10677,-1.717364,73.91,26.11,4.288,172.4,16 / 21,3420343,2019-08-18 16:10:42:880,-1.0749,-0.5285,9.5226,-0.8766,-0.7314,9.74,-0.0177,-0.0239,0.0057
34197,48.10677,-1.717364,73.91,26.11,4.288,172.4,16 / 21,3420443,2019-08-18 16:10:42:980,-0.8152,-0.3705,10.3246,-0.8658,-0.7318,9.7409,-0.0061,-0.0071,0.0055
34198,48.10677,-1.717364,73.91,26.11,4.288,172.4,16 / 21,3420543,2019-08-18 16:10:43:080,-0.9385,-0.3885,10.1445,-0.8561,-0.7316,9.7418,-0.0149,-0.009,0.0065
34199,48.10677,-1.717364,73.91,26.11,4.288,172.4,16 / 21,3420643,2019-08-18 16:10:43:180,-1.0725,-0.562,9.8721,-0.8593,-0.7406,9.7408,-0.0179,0.005,0.0069
34200,48.10677,-1.717364,73.91,26.11,4.288,172.4,16 / 21,3420744,2019-08-18 16:10:43:281,-1.0169,-0.4962,9.4765,-0.8536,-0.74,9.7414,-0.0004,-0.0016,0.0045
34201,48.10677,-1.717364,73.91,26.11,4.288,172.4,16 / 21,3420843,2019-08-18 16:10:43:380,-0.9139,-0.5135,10.1259,-0.8446,-0.7417,9.742,-0.0098,-0.0071,0.0056
34202,48.10677,-1.717364,73.91,26.11,4.288,172.4,16 / 21,3420944,2019-08-18 16:10:43:481,-0.9331,-0.647,9.8332,-0.8433,-0.7406,9.7422,-0.0027,-0.0017,0.0041
34203,48.10677,-1.717364,73.91,26.11,4.288,172.4,16 / 21,3421043,2019-08-18 16:10:43:580,-0.7523,-0.4531,9.6255,-0.8472,-0.7277,9.7429,-0.0061,-0.0057,0.0025
34204,48.10677,-1.717364,73.91,26.11,4.288,172.4,15 / 20,3421144,2019-08-18 16:10:43:681,-0.8349,-0.7099,8.8229,-0.834,-0.7304,9.7438,-0.0092,-0.0104,0.0011
34205,48.10677,-1.717364,73.91,26.11,4.288,172.4,15 / 20,3421243,2019-08-18 16:10:43:780,-0.4519,-0.8691,10.1846,-0.8281,-0.7319,9.7442,0.0043,0.0049,-0.0038
34206,48.10677,-1.717364,73.91,26.11,4.288,172.4,15 / 20,3421344,2019-08-18 16:10:43:881,-0.3321,-0.4297,9.4514,-0.8238,-0.7231,9.7452,-0.0015,0.0081,-0.0035
34207,48.10677,-1.717364,73.91,26.11,4.288,172.4,15 / 20,3421443,2019-08-18 16:10:43:980,-0.6242,-0.2227,9.6794,-0.829,-0.7198,9.745,-0.0052,0.016,-0.0071
34208,48.10677,-1.717364,73.91,26.11,4.288,172.4,15 / 20,3421543,2019-08-18 16:10:44:080,-0.3657,-0.1915,10.1014,-0.8358,-0.719,9.7445,0.0003,0.0119,-0.0059
34209,48.10677,-1.717364,73.91,26.11,4.288,172.4,15 / 20,3421644,2019-08-18 16:10:44:181,-0.4483,-0.3076,10.0463,-0.8366,-0.7079,9.7452,-0.0011,-0.0045,-0.0084
34210,48.10677,-1.717364,73.91,26.11,4.288,172.4,15 / 20,3421743,2019-08-18 16:10:44:280,-0.2501,-0.5794,10.1547,-0.8083,-0.6998,9.7482,0.0075,-0.0072,-0.0091
34211,48.10677,-1.717364,73.91,26.11,4.288,172.4,15 / 20,3421844,2019-08-18 16:10:44:381,-0.2813,-0.4387,9.8895,-0.7959,-0.689,9.75,0.0034,-0.0061,-0.008
34212,48.10677,-1.717364,73.91,26.11,4.288,172.4,15 / 20,3421943,2019-08-18 16:10:44:480,-0.2118,-0.231,9.8895,-0.773,-0.6752,9.7528,0.0012,0.0086,-0.0058
34213,48.10677,-1.717364,73.91,26.11,4.288,172.4,15 / 20,3422043,2019-08-18 16:10:44:580,-0.4584,-0.328,9.9488,-0.7671,-0.6682,9.7537,0.012,-0.0001,-0.004
34214,48.10677,-1.717364,73.91,26.11,4.288,172.4,16 / 22,3422143,2019-08-18 16:10:44:680,-0.0849,-0.2215,10.6766,-0.7467,-0.6356,9.7575,0.0211,-0.0182,0.0001
34215,48.10677,-1.717364,73.91,26.11,4.288,172.4,16 / 22,3422243,2019-08-18 16:10:44:780,-0.5404,0.2065,10.342,-0.722,-0.5979,9.7617,0.0348,-0.0192,0.0151
34216,48.10677,-1.717364,73.91,26.11,4.288,172.4,16 / 22,3422343,2019-08-18 16:10:44:880,-0.3657,0.1012,10.9843,-0.6857,-0.5367,9.7679,0.0219,-0.0158,0.0174
34217,48.10677,-1.717364,73.91,26.11,4.288,172.4,16 / 22,3422443,2019-08-18 16:10:44:980,-0.2005,0.1891,9.868,-0.6812,-0.5216,9.7691,-0.02,-0.0014,0.0117
34218,48.10677,-1.717364,73.91,26.11,4.288,172.4,16 / 22,3422543,2019-08-18 16:10:45:080,-0.225,0.7111,8.863,-0.675,-0.5395,9.7685,-0.0406,0.0112,0.0056
34219,48.10677,-1.717364,73.91,26.11,4.288,172.4,16 / 22,3422643,2019-08-18 16:10:45:180,-0.4746,0.3382,8.9204,-0.6788,-0.5477,9.7678,-0.0284,0.0035,0.0049
34220,48.10677,-1.717364,73.91,26.11,4.288,172.4,16 / 22,3422743,2019-08-18 16:10:45:280,-0.0837,-0.182,8.9749,-0.6744,-0.5461,9.7682,-0.0012,0.0134,0.0063
34221,48.10677,-1.717364,73.91,26.11,4.288,172.4,16 / 22,3422843,2019-08-18 16:10:45:380,-0.3453,-0.0048,10.1834,-0.6752,-0.534,9.7688,0.0074,0.0057,0.0063
34222,48.10677,-1.717364,73.91,26.11,4.288,172.4,16 / 22,3422943,2019-08-18 16:10:45:480,-0.2364,0.0401,10.4731,-0.6676,-0.5076,9.7707,-0.0036,0.002,0.0035
34223,48.10677,-1.717364,73.91,26.11,4.288,172.4,16 / 22,3423043,2019-08-18 16:10:45:580,-0.4572,0.0012,10.2618,-0.6625,-0.5,9.7715,-0.0085,-0.0118,0.002
34224,48.10677,-1.717364,73.91,26.11,4.288,172.4,15 / 21,3423143,2019-08-18 16:10:45:680,-0.6566,-0.2053,9.5268,-0.637,-0.4982,9.7733,-0.012,-0.0132,0.0013
34225,48.10677,-1.717364,73.91,26.11,4.288,172.4,15 / 21,3423243,2019-08-18 16:10:45:780,-0.6937,-0.4435,9.4639,-0.6352,-0.4991,9.7733,-0.0159,0.0033,0.0011
34226,48.10677,-1.717364,73.91,26.11,4.288,172.4,15 / 21,3423343,2019-08-18 16:10:45:880,-0.793,-0.3717,10.4653,-0.6374,-0.5124,9.7725,-0.0074,0.0005,0.0016
34227,48.10677,-1.717364,73.91,26.11,4.288,172.4,15 / 21,3423443,2019-08-18 16:10:45:980,-1.0384,-0.3687,9.2945,-0.6403,-0.5077,9.7725,-0.0017,-0.0108,0.0043
34228,48.10677,-1.717364,73.91,26.11,4.288,172.4,15 / 21,3423543,2019-08-18 16:10:46:080,-0.5512,-0.4076,9.7129,-0.6381,-0.5057,9.7728,-0.0065,-0.0051,0.0017
34229,48.10677,-1.717364,73.91,26.11,4.288,172.4,15 / 21,3423644,2019-08-18 16:10:46:181,-0.8391,-0.2304,9.9512,-0.6441,-0.51,9.7722,-0.0217,-0.0083,0.0015
34230,48.10677,-1.717364,73.91,26.11,4.288,172.4,15 / 21,3423743,2019-08-18 16:10:46:280,-0.9714,-0.6656,9.6387,-0.6361,-0.5303,9.7716,-0.0145,-0.0174,-0.0007
34231,48.10677,-1.717364,73.91,26.11,4.288,172.4,15 / 21,3423843,2019-08-18 16:10:46:380,-0.5494,-0.7596,10.3013,-0.6374,-0.5315,9.7715,-0.0065,-0.001,0.002
34232,48.10677,-1.717364,73.91,26.11,4.288,172.4,15 / 21,3423943,2019-08-18 16:10:46:480,-0.878,-0.5088,9.5298,-0.6444,-0.5382,9.7706,-0.0079,-0.0011,0.0021
34233,48.10677,-1.717364,73.91,26.11,4.288,172.4,15 / 21,3424044,2019-08-18 16:10:46:581,-1.1366,-0.4872,9.6926,-0.6491,-0.5404,9.7702,-0.004,0.0024,0.0009
34234,48.10677,-1.717364,73.91,26.11,4.288,172.4,14 / 21,3424144,2019-08-18 16:10:46:681,-0.884,-0.3208,9.8542,-0.6637,-0.5355,9.7695,-0.002,-0.0069,0.0013
34235,48.10677,-1.717364,73.91,26.11,4.288,172.4,14 / 21,3424243,2019-08-18 16:10:46:780,-0.8822,-0.4387,9.6752,-0.6609,-0.5377,9.7696,-0.0043,-0.0162,0.0012
34236,48.10677,-1.717364,73.91,26.11,4.288,172.4,14 / 21,3424343,2019-08-18 16:10:46:880,-1.1109,-0.4393,9.8392,-0.6502,-0.528,9.7708,0.0016,-0.0198,0.0024
34237,48.10677,-1.717364,73.91,26.11,4.288,172.4,14 / 21,3424443,2019-08-18 16:10:46:980,-0.902,-0.4764,9.4101,-0.642,-0.5261,9.7715,0.0016,-0.0083,0.0013
34238,48.10677,-1.717364,73.91,26.11,4.288,172.4,14 / 21,3424543,2019-08-18 16:10:47:080,-0.5398,-0.0928,9.3263,-0.6372,-0.5243,9.7719,-0.0106,0.0067,0.0027
34239,48.10677,-1.717364,73.91,26.11,4.288,172.4,14 / 21,3424644,2019-08-18 16:10:47:181,-0.805,-0.3053,9.6974,-0.6434,-0.5322,9.771,-0.0187,0.0009,0.0035
34240,48.10677,-1.717364,73.91,26.11,4.288,172.4,14 / 21,3424743,2019-08-18 16:10:47:280,-0.6661,-0.3609,9.9811,-0.6446,-0.5379,9.7706,-0.0111,-0.0073,0.0016
34241,48.10677,-1.717364,73.91,26.11,4.288,172.4,14 / 21,3424843,2019-08-18 16:10:47:380,-0.4489,-0.3394,9.8727,-0.6347,-0.543,9.771,-0.0046,-0.0108,0.0026
34242,48.10677,-1.717364,73.91,26.11,4.288,172.4,14 / 21,3424943,2019-08-18 16:10:47:480,-0.6578,-0.2191,9.4651,-0.6327,-0.5417,9.7712,-0.0228,0.0003,0.0023
34243,48.10677,-1.717364,73.91,26.11,4.288,172.4,14 / 21,3425043,2019-08-18 16:10:47:580,-0.6374,-0.1927,8.6559,-0.635,-0.5621,9.7699,-0.0308,0.0065,0.0033
34244,48.10677,-1.717364,73.91,26.11,4.288,172.4,Dec-19,3425143,2019-08-18 16:10:47:680,-0.5476,-0.2412,9.5136,-0.6415,-0.579,9.7685,-0.0549,-0.0019,0.0029
34245,48.10677,-1.717364,73.91,26.11,4.288,172.4,Dec-19,3425243,2019-08-18 16:10:47:780,-0.4728,0.1431,10.1325,-0.6475,-0.6186,9.7657,0.0057,-0.0021,0.0057
34246,48.10677,-1.717364,73.91,26.11,4.288,172.4,Dec-19,3425343,2019-08-18 16:10:47:880,-0.213,-0.5979,11.274,-0.6421,-0.6163,9.7662,0.0358,-0.0165,0.0116
34247,48.10677,-1.717364,73.91,26.11,4.288,172.4,Dec-19,3425444,2019-08-18 16:10:47:981,-0.3088,0.4519,10.6748,-0.6181,-0.5484,9.7718,0.0397,-0.0107,0.0082
34248,48.10677,-1.717364,73.91,26.11,4.288,172.4,Dec-19,3425543,2019-08-18 16:10:48:080,-0.468,-0.0078,10.0367,-0.6081,-0.51,9.7745,0.0061,-0.0007,0.0046
34249,48.10677,-1.717364,73.91,26.11,4.288,172.4,Dec-19,3425644,2019-08-18 16:10:48:181,-0.2112,-0.3262,10.0158,-0.6129,-0.4929,9.7751,0.0076,-0.0013,0.0033
34250,48.10677,-1.717364,73.91,26.11,4.288,172.4,Dec-19,3425744,2019-08-18 16:10:48:281,-0.325,-0.2747,9.677,-0.6052,-0.4806,9.7762,0.011,-0.0126,0.0056
34251,48.10677,-1.717364,73.91,26.11,4.288,172.4,Dec-19,3425843,2019-08-18 16:10:48:380,-0.5937,0.0467,9.3927,-0.5873,-0.4584,9.7783,-0.0025,-0.0049,0.0053
34252,48.10677,-1.717364,73.91,26.11,4.288,172.4,Dec-19,3425943,2019-08-18 16:10:48:480,-0.4782,-0.2376,9.7536,-0.5829,-0.4522,9.7789,-0.0103,0.0007,0.0051
34253,48.10677,-1.717364,73.91,26.11,4.288,172.4,Dec-19,3426043,2019-08-18 16:10:48:580,-0.6075,-0.3914,9.8919,-0.5869,-0.4635,9.7781,-0.033,-0.0041,0.0051
34254,48.10477,-1.71693,72.32,25.5,5.36,170.9,15 / 22,3426143,2019-08-18 16:10:48:680,-0.9774,-0.2274,10.2642,-0.5863,-0.4796,9.7774,-0.0363,-0.0115,0.003
34255,48.10477,-1.71693,72.32,25.5,5.36,170.9,15 / 22,3426243,2019-08-18 16:10:48:780,-0.8708,-0.5668,10.2456,-0.5737,-0.5094,9.7766,-0.015,-0.0163,0.0055
34256,48.10477,-1.71693,72.32,25.5,5.36,170.9,15 / 22,3426344,2019-08-18 16:10:48:881,-0.887,-0.3741,9.4651,-0.5744,-0.5108,9.7765,0.0127,0.0233,0.0106
34257,48.10477,-1.71693,72.32,25.5,5.36,170.9,15 / 22,3426444,2019-08-18 16:10:48:981,-0.9965,-0.2556,9.9146,-0.6133,-0.49,9.7752,0.0153,0.0258,0.0163
34258,48.10477,-1.71693,72.32,25.5,5.36,170.9,15 / 22,3426543,2019-08-18 16:10:49:080,-1.0145,-0.1119,9.4951,-0.6289,-0.4778,9.7748,0.0093,0.006,0.0182
34259,48.10477,-1.71693,72.32,25.5,5.36,170.9,15 / 22,3426643,2019-08-18 16:10:49:180,-1.036,-0.1718,10.4043,-0.6286,-0.4508,9.7761,0.0062,-0.0224,0.0163
34260,48.10477,-1.71693,72.32,25.5,5.36,170.9,15 / 22,3426743,2019-08-18 16:10:49:280,-1.2461,-0.2077,10.3079,-0.6234,-0.4427,9.7768,-0.0052,-0.0095,0.0164
34261,48.10477,-1.71693,72.32,25.5,5.36,170.9,15 / 22,3426843,2019-08-18 16:10:49:380,-1.0498,-0.0958,10.6072,-0.6331,-0.4394,9.7763,-0.018,-0.0072,0.0137
34262,48.10477,-1.71693,72.32,25.5,5.36,170.9,15 / 22,3426943,2019-08-18 16:10:49:480,-0.8667,-0.1347,9.8745,-0.6313,-0.4507,9.7759,-0.0212,-0.007,0.0137
34263,48.10477,-1.71693,72.32,25.5,5.36,170.9,15 / 22,3427043,2019-08-18 16:10:49:580,-0.8936,-0.176,9.698,-0.6381,-0.4603,9.775,-0.0165,-0.0025,0.0099
34264,48.10477,-1.71693,72.32,25.5,5.36,170.9,15 / 21,3427143,2019-08-18 16:10:49:680,-0.8457,-0.3196,9.4603,-0.6429,-0.4603,9.7747,-0.0079,-0.0014,0.0095
34265,48.10477,-1.71693,72.32,25.5,5.36,170.9,15 / 21,3427243,2019-08-18 16:10:49:780,-0.7487,-0.0598,9.8554,-0.6529,-0.4557,9.7743,-0.0051,-0.0037,0.0104
34266,48.10477,-1.71693,72.32,25.5,5.36,170.9,15 / 21,3427343,2019-08-18 16:10:49:880,-0.7709,-0.0682,10.2516,-0.6523,-0.4493,9.7746,-0.0052,-0.0067,0.011
34267,48.10477,-1.71693,72.32,25.5,5.36,170.9,15 / 21,3427444,2019-08-18 16:10:49:981,-0.8984,-0.0329,10.5018,-0.6557,-0.4538,9.7742,-0.0128,-0.001,0.0102
34268,48.10477,-1.71693,72.32,25.5,5.36,170.9,15 / 21,3427544,2019-08-18 16:10:50:081,-0.6045,0.0634,9.5358,-0.6609,-0.4536,9.7738,-0.0043,0.0095,0.0111
34269,48.10477,-1.71693,72.32,25.5,5.36,170.9,15 / 21,3427643,2019-08-18 16:10:50:180,-0.7954,-0.0916,9.4591,-0.6681,-0.454,9.7733,-0.0122,0.0005,0.0102
34270,48.10477,-1.71693,72.32,25.5,5.36,170.9,15 / 21,3427743,2019-08-18 16:10:50:280,-0.5937,0.1101,9.6716,-0.6826,-0.4557,9.7722,-0.0126,-0.0001,0.0097
34271,48.10477,-1.71693,72.32,25.5,5.36,170.9,15 / 21,3427843,2019-08-18 16:10:50:380,-0.8325,-0.2197,9.7153,-0.6781,-0.4589,9.7724,0.003,-0.0036,0.0074
34272,48.10477,-1.71693,72.32,25.5,5.36,170.9,15 / 21,3427943,2019-08-18 16:10:50:480,-0.8936,-0.4423,10.2564,-0.6793,-0.4514,9.7727,0.001,-0.0058,0.0073
34273,48.10477,-1.71693,72.32,25.5,5.36,170.9,15 / 21,3428043,2019-08-18 16:10:50:580,-0.8571,-0.2741,10.2947,-0.677,-0.4486,9.773,-0.0006,-0.0144,0.0026
34274,48.10477,-1.71693,72.32,25.5,5.36,170.9,15 / 21,3428143,2019-08-18 16:10:50:680,-0.902,-0.4603,9.2443,-0.669,-0.4454,9.7737,-0.0008,-0.0044,0.0
34275,48.10477,-1.71693,72.32,25.5,5.36,170.9,15 / 21,3428243,2019-08-18 16:10:50:780,-0.7673,-0.3651,9.9236,-0.6678,-0.4507,9.7735,-0.0083,-0.0004,0.001
34276,48.10477,-1.71693,72.32,25.5,5.36,170.9,15 / 21,3428343,2019-08-18 16:10:50:880,-0.7062,-0.3897,10.1852,-0.6727,-0.4574,9.7729,0.0009,-0.0076,0.0018
34277,48.10477,-1.71693,72.32,25.5,5.36,170.9,15 / 21,3428444,2019-08-18 16:10:50:981,-0.9337,-0.5172,10.0619,-0.6728,-0.451,9.7731,0.0055,-0.0131,0.0016
34278,48.10477,-1.71693,72.32,25.5,5.36,170.9,15 / 21,3428543,2019-08-18 16:10:51:080,-0.8002,-0.337,9.2772,-0.6691,-0.4451,9.7737,-0.0043,0.0002,0.0023
34279,48.10477,-1.71693,72.32,25.5,5.36,170.9,15 / 21,3428643,2019-08-18 16:10:51:180,-0.6338,-0.395,9.6722,-0.6718,-0.4472,9.7734,-0.0109,0.0099,0.002
34280,48.10477,-1.71693,72.32,25.5,5.36,170.9,15 / 21,3428744,2019-08-18 16:10:51:281,-0.8894,-0.4046,9.841,-0.6825,-0.4573,9.7722,-0.008,-0.0187,0.0021
34281,48.10477,-1.71693,72.32,25.5,5.36,170.9,15 / 21,3428843,2019-08-18 16:10:51:380,-1.1204,-0.5441,9.4591,-0.6744,-0.4588,9.7727,-0.0027,-0.0083,0.0025
34282,48.10477,-1.71693,72.32,25.5,5.36,170.9,15 / 21,3428943,2019-08-18 16:10:51:480,-0.7038,-0.404,10.5557,-0.6685,-0.4596,9.773,-0.0003,-0.0143,0.0035
34283,48.10477,-1.71693,72.32,25.5,5.36,170.9,15 / 21,3429043,2019-08-18 16:10:51:580,-1.0199,-0.4465,10.3228,-0.6638,-0.4606,9.7733,0.0043,-0.0146,0.0038
34284,48.10477,-1.71693,72.32,25.5,5.36,170.9,15 / 21,3429144,2019-08-18 16:10:51:681,-1.0223,-0.4369,9.8237,-0.6543,-0.4512,9.7744,0.0007,-0.0044,0.0022
34285,48.10477,-1.71693,72.32,25.5,5.36,170.9,15 / 21,3429245,2019-08-18 16:10:51:782,-0.9474,-0.3005,9.5992,-0.6619,-0.4473,9.7741,0.0009,0.0051,0.0016
34286,48.10477,-1.71693,72.32,25.5,5.36,170.9,15 / 21,3429343,2019-08-18 16:10:51:880,-1.1701,-0.501,10.1978,-0.6667,-0.446,9.7738,0.0057,-0.0121,0.004
34287,48.10477,-1.71693,72.32,25.5,5.36,170.9,15 / 21,3429443,2019-08-18 16:10:51:980,-0.9762,-0.3424,10.0685,-0.6629,-0.4387,9.7744,0.007,-0.0176,0.0053
34288,48.10477,-1.71693,72.32,25.5,5.36,170.9,15 / 21,3429545,2019-08-18 16:10:52:082,-1.1264,-0.4196,9.8033,-0.6477,-0.4403,9.7753,-0.0101,-0.0101,0.0034
34289,48.10477,-1.71693,72.32,25.5,5.36,170.9,15 / 21,3429643,2019-08-18 16:10:52:180,-0.9893,-0.6794,9.7123,-0.6521,-0.4462,9.7748,-0.0142,0.0102,0.0043
34290,48.10477,-1.71693,72.32,25.5,5.36,170.9,15 / 21,3429743,2019-08-18 16:10:52:280,-1.1701,-0.5549,9.9242,-0.6686,-0.4622,9.7729,-0.012,0.0044,0.0039
34291,48.10477,-1.71693,72.32,25.5,5.36,170.9,15 / 21,3429843,2019-08-18 16:10:52:380,-1.0169,-0.337,9.7848,-0.6768,-0.4661,9.7722,-0.0073,-0.0059,0.0042
34292,48.10477,-1.71693,72.32,25.5,5.36,170.9,15 / 21,3429943,2019-08-18 16:10:52:480,-1.0887,-0.1993,9.5711,-0.6826,-0.4652,9.7718,0.0125,0.0076,0.0056
34293,48.10477,-1.71693,72.32,25.5,5.36,170.9,15 / 21,3430043,2019-08-18 16:10:52:580,-1.3293,-0.1772,9.4681,-0.6932,-0.4572,9.7714,-0.0004,0.01,0.0051
34294,48.10477,-1.71693,72.32,25.5,5.36,170.9,15 / 22,3430143,2019-08-18 16:10:52:680,-0.9265,-0.4405,10.3276,-0.7048,-0.4617,9.7704,-0.008,-0.0056,0.0047
34295,48.10477,-1.71693,72.32,25.5,5.36,170.9,15 / 22,3430243,2019-08-18 16:10:52:780,-1.0612,-0.2837,9.9356,-0.7037,-0.4577,9.7707,0.0041,-0.024,0.0074
34296,48.10477,-1.71693,72.32,25.5,5.36,170.9,15 / 22,3430343,2019-08-18 16:10:52:880,-0.9319,-0.2287,10.3217,-0.6922,-0.4438,9.7721,0.005,-0.0095,0.0118
34297,48.10477,-1.71693,72.32,25.5,5.36,170.9,15 / 22,3430443,2019-08-18 16:10:52:980,-1.1767,-0.182,9.4699,-0.7036,-0.4437,9.7713,-0.017,0.0038,0.0131
34298,48.10477,-1.71693,72.32,25.5,5.36,170.9,15 / 22,3430543,2019-08-18 16:10:53:080,-1.1456,-0.2005,9.9236,-0.7173,-0.4575,9.7697,-0.0215,-0.0017,0.0137
34299,48.10477,-1.71693,72.32,25.5,5.36,170.9,15 / 22,3430644,2019-08-18 16:10:53:181,-1.1629,-0.0886,10.2582,-0.7223,-0.4596,9.7692,0.0013,-0.0035,0.0147
34300,48.10477,-1.71693,72.32,25.5,5.36,170.9,15 / 22,3430744,2019-08-18 16:10:53:281,-1.0462,-0.3765,9.765,-0.7248,-0.4461,9.7697,0.002,-0.0245,0.0127
34301,48.10477,-1.71693,72.32,25.5,5.36,170.9,15 / 22,3430843,2019-08-18 16:10:53:380,-1.2623,-0.0425,9.6357,-0.7169,-0.4398,9.7705,-0.0233,-0.0257,0.0128
34302,48.10477,-1.71693,72.32,25.5,5.36,170.9,15 / 22,3430943,2019-08-18 16:10:53:480,-0.9505,-0.3986,10.1271,-0.7086,-0.4533,9.7705,-0.0214,-0.0106,0.008
34303,48.10477,-1.71693,72.32,25.5,5.36,170.9,15 / 22,3431044,2019-08-18 16:10:53:581,-0.8672,-0.1371,9.446,-0.7116,-0.4721,9.7694,-0.0124,-0.0146,0.012
34304,48.10477,-1.71693,72.32,25.5,5.36,170.9,15 / 22,3431143,2019-08-18 16:10:53:680,-1.0887,-0.3268,9.4011,-0.7113,-0.4768,9.7692,-0.0139,-0.0053,0.0129
34305,48.10477,-1.71693,72.32,25.5,5.36,170.9,15 / 22,3431243,2019-08-18 16:10:53:780,-1.1504,-0.3214,9.7722,-0.7173,-0.4878,9.7682,-0.0061,0.0024,0.0106
34306,48.10477,-1.71693,72.32,25.5,5.36,170.9,15 / 22,3431343,2019-08-18 16:10:53:880,-0.9774,-0.568,9.5459,-0.7305,-0.4849,9.7674,-0.0024,0.0005,0.0115
34307,48.10477,-1.71693,72.32,25.5,5.36,170.9,15 / 22,3431443,2019-08-18 16:10:53:980,-1.1067,-0.319,10.1427,-0.7399,-0.4819,9.7668,-0.0029,-0.0088,0.0105
34308,48.10477,-1.71693,72.32,25.5,5.36,170.9,15 / 22,3431543,2019-08-18 16:10:54:080,-1.1396,-0.1646,10.3869,-0.7343,-0.4814,9.7673,-0.0008,-0.0099,0.0094
34309,48.10477,-1.71693,72.32,25.5,5.36,170.9,15 / 22,3431644,2019-08-18 16:10:54:181,-1.0486,-0.2969,9.6776,-0.7308,-0.4771,9.7677,-0.0021,-0.0132,0.0107
34310,48.10477,-1.71693,72.32,25.5,5.36,170.9,15 / 22,3431743,2019-08-18 16:10:54:280,-1.0259,-0.3358,9.2694,-0.7336,-0.4739,9.7677,-0.003,0.0005,0.0107
34311,48.10477,-1.71693,72.32,25.5,5.36,170.9,15 / 22,3431843,2019-08-18 16:10:54:380,-1.1611,-0.4974,9.5729,-0.7509,-0.48,9.7661,-0.007,0.0063,0.0113
34312,48.10477,-1.71693,72.32,25.5,5.36,170.9,15 / 22,3431944,2019-08-18 16:10:54:481,-0.9983,-0.3651,9.9248,-0.7533,-0.4805,9.7659,-0.0026,-0.0127,0.0106
34313,48.10477,-1.71693,72.32,25.5,5.36,170.9,15 / 22,3432043,2019-08-18 16:10:54:580,-1.0061,-0.3178,10.0691,-0.7464,-0.4764,9.7666,-0.0029,-0.0131,0.0099
34314,48.10477,-1.71693,72.32,25.5,5.36,170.9,15 / 23,3432143,2019-08-18 16:10:54:680,-1.0881,-0.3992,9.6094,-0.7439,-0.4772,9.7667,-0.0125,-0.0037,0.0082
34315,48.10477,-1.71693,72.32,25.5,5.36,170.9,15 / 23,3432243,2019-08-18 16:10:54:780,-0.9875,-0.2221,9.8458,-0.7519,-0.4802,9.766,-0.0074,0.0015,0.011
34316,48.10477,-1.71693,72.32,25.5,5.36,170.9,15 / 23,3432344,2019-08-18 16:10:54:881,-0.9008,-0.2508,10.0589,-0.7543,-0.4818,9.7657,-0.0097,-0.0067,0.0115
34317,48.10477,-1.71693,72.32,25.5,5.36,170.9,15 / 23,3432443,2019-08-18 16:10:54:980,-0.899,-0.2029,9.7045,-0.7493,-0.4838,9.766,-0.0072,-0.0017,0.011
34318,48.10477,-1.71693,72.32,25.5,5.36,170.9,15 / 23,3432543,2019-08-18 16:10:55:080,-0.9774,-0.2945,9.8847,-0.7535,-0.4831,9.7657,0.0012,0.0091,0.0113
34319,48.10477,-1.71693,72.32,25.5,5.36,170.9,15 / 23,3432643,2019-08-18 16:10:55:180,-0.574,-0.2418,9.5394,-0.773,-0.4699,9.7648,0.0084,0.015,0.0107
34320,48.10477,-1.71693,72.32,25.5,5.36,170.9,15 / 23,3432744,2019-08-18 16:10:55:281,-0.9941,-0.2173,10.2444,-0.7806,-0.4552,9.7649,0.0194,-0.0022,0.0115
34321,48.10477,-1.71693,72.32,25.5,5.36,170.9,15 / 23,3432843,2019-08-18 16:10:55:380,-1.0773,-0.267,10.9214,-0.7626,-0.4167,9.7681,0.025,-0.0268,0.0121
34322,48.10477,-1.71693,72.32,25.5,5.36,170.9,15 / 23,3432944,2019-08-18 16:10:55:481,-1.1767,0.0287,10.19,-0.7407,-0.398,9.7705,0.0081,-0.0303,0.0097
34323,48.10477,-1.71693,72.32,25.5,5.36,170.9,15 / 23,3433043,2019-08-18 16:10:55:580,-0.7182,-0.3735,9.9793,-0.7403,-0.3883,9.771,-0.0056,0.0096,0.0107
34324,48.10477,-1.71693,72.32,25.5,5.36,170.9,14 / 23,3433143,2019-08-18 16:10:55:680,-0.7374,0.0688,8.7678,-0.7502,-0.3882,9.7702,-0.007,0.0157,0.0125
34325,48.10477,-1.71693,72.32,25.5,5.36,170.9,14 / 23,3433243,2019-08-18 16:10:55:780,-0.6775,0.1784,9.4759,-0.749,-0.3833,9.7705,-0.0023,-0.0074,0.0094
34326,48.10477,-1.71693,72.32,25.5,5.36,170.9,14 / 23,3433343,2019-08-18 16:10:55:880,-0.5728,-0.3106,9.9924,-0.7446,-0.3754,9.7711,0.002,-0.0126,0.0094
34327,48.10477,-1.71693,72.32,25.5,5.36,170.9,14 / 23,3433443,2019-08-18 16:10:55:980,-0.6452,0.1933,9.5783,-0.7296,-0.372,9.7724,-0.016,-0.0116,0.0084
34328,48.10477,-1.71693,72.32,25.5,5.36,170.9,14 / 23,3433543,2019-08-18 16:10:56:080,-0.7541,0.0623,10.0583,-0.7296,-0.3761,9.7722,-0.0173,0.0007,0.0092
34329,48.10477,-1.71693,72.32,25.5,5.36,170.9,14 / 23,3433643,2019-08-18 16:10:56:180,-0.7356,0.0048,10.1989,-0.725,-0.3843,9.7723,-0.011,-0.0051,0.0105
34330,48.10477,-1.71693,72.32,25.5,5.36,170.9,14 / 23,3433743,2019-08-18 16:10:56:280,-0.8056,0.1862,10.1152,-0.7216,-0.3816,9.7726,-0.0088,-0.006,0.012
34331,48.10477,-1.71693,72.32,25.5,5.36,170.9,14 / 23,3433843,2019-08-18 16:10:56:380,-0.5686,-0.0449,9.926,-0.7092,-0.3828,9.7735,-0.0085,-0.0038,0.0101
34332,48.10477,-1.71693,72.32,25.5,5.36,170.9,14 / 23,3433943,2019-08-18 16:10:56:480,-0.6572,0.0323,9.8781,-0.7065,-0.3834,9.7737,-0.0101,-0.0007,0.0106
34333,48.10477,-1.71693,72.32,25.5,5.36,170.9,14 / 23,3434044,2019-08-18 16:10:56:581,-0.5117,-0.0557,9.7824,-0.6976,-0.3784,9.7745,-0.0056,-0.0086,0.0133
34334,48.10477,-1.71693,72.32,25.5,5.36,170.9,14 / 23,3434143,2019-08-18 16:10:56:680,-0.5764,-0.0389,9.7411,-0.6923,-0.3702,9.7752,-0.0094,-0.0191,0.0111
34335,48.10477,-1.71693,72.32,25.5,5.36,170.9,14 / 23,3434244,2019-08-18 16:10:56:781,-0.7894,0.258,9.6992,-0.6823,-0.3671,9.776,-0.0074,-0.0075,0.0096
34336,48.10477,-1.71693,72.32,25.5,5.36,170.9,14 / 23,3434343,2019-08-18 16:10:56:880,-0.3752,-0.1167,9.9703,-0.6638,-0.3602,9.7775,-0.0109,-0.005,0.0101
34337,48.10477,-1.71693,72.32,25.5,5.36,170.9,14 / 23,3434443,2019-08-18 16:10:56:980,-0.4692,-0.0431,9.9763,-0.6566,-0.363,9.7779,-0.0053,-0.0047,0.0095
34338,48.10477,-1.71693,72.32,25.5,5.36,170.9,14 / 23,3434544,2019-08-18 16:10:57:081,-0.7009,0.2562,9.8668,-0.6478,-0.3526,9.7789,0.0066,-0.0121,0.009
34339,48.10477,-1.71693,72.32,25.5,5.36,170.9,14 / 23,3434643,2019-08-18 16:10:57:180,-0.7368,0.161,10.1056,-0.6382,-0.3402,9.7799,0.0185,-0.0177,0.0101
34340,48.10477,-1.71693,72.32,25.5,5.36,170.9,14 / 23,3434743,2019-08-18 16:10:57:280,-0.456,0.0222,10.0038,-0.6074,-0.304,9.7831,0.0162,-0.0165,0.0102
34341,48.10477,-1.71693,72.32,25.5,5.36,170.9,14 / 23,3434843,2019-08-18 16:10:57:380,-0.5925,0.0048,9.4729,-0.5981,-0.296,9.7839,-0.004,0.0017,0.0091
34342,48.10477,-1.71693,72.32,25.5,5.36,170.9,14 / 23,3434943,2019-08-18 16:10:57:480,-0.0796,-0.0006,9.1862,-0.6161,-0.3084,9.7824,-0.0202,0.0158,0.0034
34343,48.10477,-1.71693,72.32,25.5,5.36,170.9,14 / 23,3435043,2019-08-18 16:10:57:580,-0.4554,0.1,9.9853,-0.6161,-0.3121,9.7823,-0.0028,-0.014,-0.0006
34344,48.10279,-1.716346,68.14,25.05,4.288,166.1,15 / 23,3435143,2019-08-18 16:10:57:680,-0.4842,-0.0281,10.4366,-0.5919,-0.3076,9.7839,-0.0056,-0.0244,-0.0015
34345,48.10279,-1.716346,68.14,25.05,4.288,166.1,15 / 23,3435244,2019-08-18 16:10:57:781,-0.1131,-0.3579,10.5264,-0.566,-0.3088,9.7854,0.0017,-0.0135,-0.0003
34346,48.10279,-1.716346,68.14,25.05,4.288,166.1,15 / 23,3435343,2019-08-18 16:10:57:880,-0.6021,-0.1353,9.8422,-0.5447,-0.3013,9.7869,-0.0123,-0.0079,0.0011
34347,48.10279,-1.716346,68.14,25.05,4.288,166.1,15 / 23,3435443,2019-08-18 16:10:57:980,-0.3609,0.1149,9.9057,-0.5358,-0.3071,9.7872,-0.0151,-0.0068,0.0011
34348,48.10279,-1.716346,68.14,25.05,4.288,166.1,15 / 23,3435543,2019-08-18 16:10:58:080,-0.5297,-0.0311,10.2175,-0.5212,-0.3146,9.7877,-0.0115,-0.007,0.0019
34349,48.10279,-1.716346,68.14,25.05,4.288,166.1,15 / 23,3435644,2019-08-18 16:10:58:181,-0.2196,-0.2346,9.9751,-0.5144,-0.3181,9.788,-0.0071,-0.0085,0.0072
34350,48.10279,-1.716346,68.14,25.05,4.288,166.1,15 / 23,3435743,2019-08-18 16:10:58:280,-0.3232,0.0886,9.7901,-0.5001,-0.3101,9.789,0.004,-0.0119,0.0087
34351,48.10279,-1.716346,68.14,25.05,4.288,166.1,15 / 23,3435844,2019-08-18 16:10:58:381,-0.9516,-0.0066,10.348,-0.4912,-0.3035,9.7896,-0.0016,-0.0103,0.0096
34352,48.10279,-1.716346,68.14,25.05,4.288,166.1,15 / 23,3435943,2019-08-18 16:10:58:480,-0.8636,-0.1281,9.6627,-0.4836,-0.3158,9.7896,-0.0273,-0.008,0.0077
34353,48.10279,-1.716346,68.14,25.05,4.288,166.1,15 / 23,3436043,2019-08-18 16:10:58:580,-1.0737,-0.334,10.0188,-0.4857,-0.3301,9.789,-0.0293,-0.0134,0.0083
34354,48.10279,-1.716346,68.14,25.05,4.288,166.1,16 / 23,3436143,2019-08-18 16:10:58:680,-0.9121,-0.1425,9.9727,-0.4853,-0.3613,9.788,-0.022,-0.0075,0.0115
34355,48.10279,-1.716346,68.14,25.05,4.288,166.1,16 / 23,3436243,2019-08-18 16:10:58:780,-0.902,-0.3041,9.0874,-0.4952,-0.3712,9.7871,-0.0133,0.0027,0.0129
34356,48.10279,-1.716346,68.14,25.05,4.288,166.1,16 / 23,3436343,2019-08-18 16:10:58:880,-1.133,-0.1963,9.5034,-0.5085,-0.3716,9.7864,-0.0003,-0.0074,0.0136
34357,48.10279,-1.716346,68.14,25.05,4.288,166.1,16 / 23,3436443,2019-08-18 16:10:58:980,-0.8212,-0.4764,10.0858,-0.5116,-0.3676,9.7864,0.0015,-0.0099,0.0124
34358,48.10279,-1.716346,68.14,25.05,4.288,166.1,16 / 23,3436543,2019-08-18 16:10:59:080,-1.0522,-0.3094,10.257,-0.5192,-0.3649,9.7861,-0.0066,-0.0046,0.0132
34359,48.10279,-1.716346,68.14,25.05,4.288,166.1,16 / 23,3436643,2019-08-18 16:10:59:180,-0.9648,-0.3053,10.4354,-0.5232,-0.3702,9.7857,-0.0093,-0.0058,0.0125
34360,48.10279,-1.716346,68.14,25.05,4.288,166.1,16 / 23,3436743,2019-08-18 16:10:59:280,-1.209,-0.3615,9.6423,-0.5478,-0.3749,9.7842,-0.0069,0.0164,0.0137
34361,48.10279,-1.716346,68.14,25.05,4.288,166.1,16 / 23,3436843,2019-08-18 16:10:59:380,-0.9271,-0.1838,10.2881,-0.5587,-0.3792,9.7834,0.0087,-0.0014,0.0153
34362,48.10279,-1.716346,68.14,25.05,4.288,166.1,16 / 23,3436943,2019-08-18 16:10:59:480,-1.157,-0.2119,10.4623,-0.5713,-0.3702,9.783,-0.0011,-0.0085,0.0151
34363,48.10279,-1.716346,68.14,25.05,4.288,166.1,16 / 23,3437044,2019-08-18 16:10:59:581,-1.1665,-0.313,10.3187,-0.5785,-0.3675,9.7827,0.0016,-0.0047,0.0149
34364,48.10279,-1.716346,68.14,25.05,4.288,166.1,14 / 21,3437143,2019-08-18 16:10:59:680,-1.297,0.0485,9.9422,-0.5788,-0.3656,9.7827,-0.0023,0.0071,0.0139
34365,48.10279,-1.716346,68.14,25.05,4.288,166.1,14 / 21,3437243,2019-08-18 16:10:59:780,-1.039,-0.2179,9.999,-0.6034,-0.3716,9.781,-0.0068,-0.0059,0.0148
34366,48.10279,-1.716346,68.14,25.05,4.288,166.1,14 / 21,3437343,2019-08-18 16:10:59:880,-1.1067,-0.6339,10.084,-0.6154,-0.3726,9.7802,0.004,-0.0035,0.0142
34367,48.10279,-1.716346,68.14,25.05,4.288,166.1,14 / 21,3437443,2019-08-18 16:10:59:980,-0.9983,0.0742,10.0379,-0.6181,-0.3683,9.7802,0.0031,-0.0123,0.0146
34368,48.10279,-1.716346,68.14,25.05,4.288,166.1,14 / 21,3437543,2019-08-18 16:11:00:080,-1.0145,-0.1137,9.8171,-0.6148,-0.3666,9.7805,0.0002,-0.0159,0.0127
34369,48.10279,-1.716346,68.14,25.05,4.288,166.1,14 / 21,3437643,2019-08-18 16:11:00:180,-0.9127,-0.5536,10.0661,-0.6136,-0.3759,9.7802,-0.0153,-0.0117,0.0069
34370,48.10279,-1.716346,68.14,25.05,4.288,166.1,14 / 21,3437743,2019-08-18 16:11:00:280,-0.9223,-0.495,10.0511,-0.6119,-0.381,9.7801,-0.0061,-0.0243,0.003
34371,48.10279,-1.716346,68.14,25.05,4.288,166.1,14 / 21,3437843,2019-08-18 16:11:00:380,-1.0851,-0.2406,9.5986,-0.5963,-0.3917,9.7807,-0.0088,-0.0163,0.0004
34372,48.10279,-1.716346,68.14,25.05,4.288,166.1,14 / 21,3437943,2019-08-18 16:11:00:480,-0.3746,-0.2274,9.8464,-0.5923,-0.3991,9.7806,-0.008,-0.0001,0.0013
34373,48.10279,-1.716346,68.14,25.05,4.288,166.1,14 / 21,3438044,2019-08-18 16:11:00:581,-0.4536,-0.392,7.4845,-0.6083,-0.4061,9.7793,0.0013,-0.0189,0.0022
34374,48.10279,-1.716346,68.14,25.05,4.288,166.1,Dec-20,3438143,2019-08-18 16:11:00:680,-0.7966,-0.51,9.1718,-0.6036,-0.4068,9.7796,-0.0013,0.0183,0.002
34375,48.10279,-1.716346,68.14,25.05,4.288,166.1,Dec-20,3438243,2019-08-18 16:11:00:780,-0.7811,-0.495,8.5104,-0.6306,-0.4392,9.7765,-0.0272,0.0135,0.0015
34376,48.10279,-1.716346,68.14,25.05,4.288,166.1,Dec-20,3438343,2019-08-18 16:11:00:880,-0.7739,-0.3675,9.8189,-0.6346,-0.4459,9.7759,0.0089,-0.0062,0.0029
34377,48.10279,-1.716346,68.14,25.05,4.288,166.1,Dec-20,3438443,2019-08-18 16:11:00:980,-0.4704,-0.2095,9.6866,-0.6223,-0.4303,9.7774,0.0185,-0.0131,0.0058
34378,48.10279,-1.716346,68.14,25.05,4.288,166.1,Dec-20,3438543,2019-08-18 16:11:01:080,-0.7206,-0.2185,9.9853,-0.611,-0.413,9.7789,0.0134,-0.0049,0.0069
34379,48.10279,-1.716346,68.14,25.05,4.288,166.1,Dec-20,3438643,2019-08-18 16:11:01:180,-0.5626,-0.0108,9.7788,-0.605,-0.3981,9.7799,0.0019,-0.0017,0.0082
34380,48.10279,-1.716346,68.14,25.05,4.288,166.1,Dec-20,3438743,2019-08-18 16:11:01:280,-0.6703,-0.0742,9.4472,-0.606,-0.396,9.7799,-0.0092,-0.0003,0.0092
34381,48.10279,-1.716346,68.14,25.05,4.288,166.1,Dec-20,3438843,2019-08-18 16:11:01:380,-0.5003,-0.0916,9.7506,-0.6007,-0.3918,9.7804,-0.002,-0.0171,0.0112
34382,48.10279,-1.716346,68.14,25.05,4.288,166.1,Dec-20,3438943,2019-08-18 16:11:01:480,-0.5081,-0.1083,9.3604,-0.5895,-0.3845,9.7814,0.0018,-0.0049,0.0117
34383,48.10279,-1.716346,68.14,25.05,4.288,166.1,Dec-20,3439043,2019-08-18 16:11:01:580,-0.4064,0.0503,9.8715,-0.5775,-0.376,9.7824,0.0058,0.0001,0.0101
34384,48.10279,-1.716346,68.14,25.05,4.288,166.1,05-Dec,3439143,2019-08-18 16:11:01:680,-0.1526,0.0659,9.8602,-0.5739,-0.3659,9.783,0.0116,0.0008,0.0088
34385,48.10279,-1.716346,68.14,25.05,4.288,166.1,05-Dec,3439244,2019-08-18 16:11:01:781,-0.5027,-0.0263,9.8111,-0.5721,-0.3413,9.784,-0.0004,-0.0049,0.0082
34386,48.10279,-1.716346,68.14,25.05,4.288,166.1,05-Dec,3439343,2019-08-18 16:11:01:880,-0.2885,0.0838,10.111,-0.5645,-0.3382,9.7845,-0.0011,0.0015,0.0073
34387,48.10279,-1.716346,68.14,25.05,4.288,166.1,05-Dec,3439443,2019-08-18 16:11:01:980,-0.2938,0.1299,10.0463,-0.5562,-0.325,9.7855,0.0072,0.003,0.0071
34388,48.10279,-1.716346,68.14,25.05,4.288,166.1,05-Dec,3439544,2019-08-18 16:11:02:081,-0.0951,0.1856,9.9224,-0.5545,-0.3179,9.7858,0.0007,0.0013,0.0091
34389,48.10279,-1.716346,68.14,25.05,4.288,166.1,05-Dec,3439644,2019-08-18 16:11:02:181,-0.2837,0.2508,10.0122,-0.5441,-0.3024,9.7869,0.0015,-0.0053,0.0077
34390,48.10279,-1.716346,68.14,25.05,4.288,166.1,05-Dec,3439743,2019-08-18 16:11:02:280,-0.3806,0.094,10.5162,-0.5382,-0.2955,9.7874,0.0018,-0.0067,0.0094
34391,48.10279,-1.716346,68.14,25.05,4.288,166.1,05-Dec,3439844,2019-08-18 16:11:02:381,-0.2274,0.0407,10.1283,-0.5205,-0.2826,9.7888,-0.0042,-0.0093,0.0076
34392,48.10279,-1.716346,68.14,25.05,4.288,166.1,05-Dec,3439943,2019-08-18 16:11:02:480,-0.5698,0.0581,9.2706,-0.5126,-0.2791,9.7893,-0.0067,-0.0053,0.0067
34393,48.10279,-1.716346,68.14,25.05,4.288,166.1,05-Dec,3440043,2019-08-18 16:11:02:580,-0.4016,0.3484,9.4627,-0.501,-0.2786,9.7899,-0.0119,-0.0023,0.0073
34394,48.10279,-1.716346,68.14,25.05,4.288,166.1,16 / 22,3440143,2019-08-18 16:11:02:680,-0.5267,0.1024,10.09,-0.495,-0.2844,9.79,-0.018,-0.0081,0.0081
34395,48.10279,-1.716346,68.14,25.05,4.288,166.1,16 / 22,3440243,2019-08-18 16:11:02:780,-0.2932,-0.1574,9.3077,-0.4931,-0.2708,9.7905,0.0059,0.006,0.0108
34396,48.10279,-1.716346,68.14,25.05,4.288,166.1,16 / 22,3440343,2019-08-18 16:11:02:880,-0.4614,-0.0186,9.832,-0.4953,-0.2633,9.7906,0.0038,0.0042,0.0103
34397,48.10279,-1.716346,68.14,25.05,4.288,166.1,16 / 22,3440443,2019-08-18 16:11:02:980,-0.5392,0.2179,9.9889,-0.4837,-0.265,9.7911,-0.0094,-0.0101,0.0084
34398,48.10279,-1.716346,68.14,25.05,4.288,166.1,16 / 22,3440544,2019-08-18 16:11:03:081,-0.4387,-0.1484,9.6261,-0.4765,-0.2668,9.7914,-0.0161,-0.0077,0.0088
34399,48.10279,-1.716346,68.14,25.05,4.288,166.1,16 / 22,3440644,2019-08-18 16:11:03:181,-0.4321,-0.0257,9.6399,-0.4665,-0.2696,9.7918,-0.0004,-0.0045,0.0086
34400,48.10279,-1.716346,68.14,25.05,4.288,166.1,16 / 22,3440744,2019-08-18 16:11:03:281,-0.5775,-0.0275,9.5441,-0.4634,-0.2655,9.7921,-0.011,-0.0031,0.0095
34401,48.10279,-1.716346,68.14,25.05,4.288,166.1,16 / 22,3440843,2019-08-18 16:11:03:380,-0.2567,-0.0766,9.9829,-0.4614,-0.2673,9.7921,-0.0037,0.0045,0.0092
34402,48.10279,-1.716346,68.14,25.05,4.288,166.1,16 / 22,3440943,2019-08-18 16:11:03:480,-0.3016,-0.0413,9.5681,-0.4656,-0.265,9.792,-0.0061,-0.0015,0.0101
34403,48.10279,-1.716346,68.14,25.05,4.288,166.1,16 / 22,3441043,2019-08-18 16:11:03:580,-0.538,-0.0563,9.6794,-0.463,-0.2642,9.7921,-0.0116,-0.0153,0.011
34404,48.10279,-1.716346,68.14,25.05,4.288,166.1,16 / 22,3441143,2019-08-18 16:11:03:680,-0.4542,0.0497,10.4234,-0.4466,-0.2606,9.793,-0.0038,-0.0137,0.0127
34405,48.10279,-1.716346,68.14,25.05,4.288,166.1,16 / 22,3441243,2019-08-18 16:11:03:780,-0.5656,-0.0228,10.5156,-0.4441,-0.2548,9.7933,0.0001,0.0034,0.0143
34406,48.10279,-1.716346,68.14,25.05,4.288,166.1,16 / 22,3441343,2019-08-18 16:11:03:880,-0.5177,0.2867,9.7087,-0.4561,-0.2385,9.7931,0.0007,0.0007,0.0165
34407,48.10279,-1.716346,68.14,25.05,4.288,166.1,16 / 22,3441443,2019-08-18 16:11:03:980,-0.7553,0.1718,9.8835,-0.4557,-0.2406,9.7931,-0.0142,-0.0002,0.0159
34408,48.10279,-1.716346,68.14,25.05,4.288,166.1,16 / 22,3441544,2019-08-18 16:11:04:081,-0.8259,0.1263,9.5848,-0.4658,-0.2432,9.7926,-0.0084,-0.0009,0.0155
34409,48.10279,-1.716346,68.14,25.05,4.288,166.1,16 / 22,3441643,2019-08-18 16:11:04:180,-0.5452,-0.0054,9.7105,-0.4724,-0.2398,9.7923,-0.0092,-0.006,0.017
34410,48.10279,-1.716346,68.14,25.05,4.288,166.1,16 / 22,3441744,2019-08-18 16:11:04:281,-0.9576,0.152,10.0415,-0.4706,-0.2333,9.7926,0.002,-0.0042,0.017
34411,48.10279,-1.716346,68.14,25.05,4.288,166.1,16 / 22,3441843,2019-08-18 16:11:04:380,-0.6865,0.0036,10.1996,-0.4698,-0.2299,9.7927,-0.0056,-0.0126,0.0178
34412,48.10279,-1.716346,68.14,25.05,4.288,166.1,16 / 22,3441944,2019-08-18 16:11:04:481,-0.5841,0.2083,9.6345,-0.4681,-0.2262,9.7929,-0.0132,-0.0004,0.0174
34413,48.10279,-1.716346,68.14,25.05,4.288,166.1,16 / 22,3442043,2019-08-18 16:11:04:580,-1.0037,-0.0371,9.8895,-0.4787,-0.2334,9.7922,-0.0132,0.0035,0.017
34414,48.10279,-1.716346,68.14,25.05,4.288,166.1,16 / 22,3442143,2019-08-18 16:11:04:680,-1.1264,-0.1885,9.9625,-0.4925,-0.24,9.7913,-0.0035,0.0008,0.0177
34415,48.10279,-1.716346,68.14,25.05,4.288,166.1,16 / 22,3442243,2019-08-18 16:11:04:780,-1.0672,-0.1796,10.0685,-0.5054,-0.2377,9.7907,-0.0083,0.0002,0.0179
34416,48.10279,-1.716346,68.14,25.05,4.288,166.1,16 / 22,3442344,2019-08-18 16:11:04:881,-0.7667,-0.2532,9.7207,-0.5178,-0.2467,9.7899,-0.0132,-0.0066,0.0123
34417,48.10279,-1.716346,68.14,25.05,4.288,166.1,16 / 22,3442444,2019-08-18 16:11:04:981,-0.9301,-0.2358,9.6561,-0.5226,-0.2558,9.7894,-0.0145,-0.0051,0.011
34418,48.10279,-1.716346,68.14,25.05,4.288,166.1,16 / 22,3442543,2019-08-18 16:11:05:080,-0.5889,-0.3513,10.0906,-0.5279,-0.2579,9.789,-0.001,-0.0103,0.0112
34419,48.10279,-1.716346,68.14,25.05,4.288,166.1,16 / 22,3442644,2019-08-18 16:11:05:181,-0.9349,-0.1604,9.7123,-0.5327,-0.2572,9.7888,0.0001,0.0004,0.0107
34420,48.10279,-1.716346,68.14,25.05,4.288,166.1,16 / 22,3442743,2019-08-18 16:11:05:280,-1.0737,-0.2053,10.1319,-0.5455,-0.2637,9.7879,-0.0079,-0.0072,0.0088
34421,48.10279,-1.716346,68.14,25.05,4.288,166.1,16 / 22,3442844,2019-08-18 16:11:05:381,-0.9774,-0.1957,10.0355,-0.5429,-0.2681,9.7879,-0.0029,-0.0045,0.0083
34422,48.10279,-1.716346,68.14,25.05,4.288,166.1,16 / 22,3442943,2019-08-18 16:11:05:480,-0.878,-0.182,9.58,-0.5508,-0.277,9.7873,-0.016,-0.0078,0.0083
34423,48.10279,-1.716346,68.14,25.05,4.288,166.1,16 / 22,3443043,2019-08-18 16:11:05:580,-0.6715,-0.2783,10.4665,-0.5538,-0.285,9.7869,-0.0098,-0.0095,0.0077
34424,48.10279,-1.716346,68.14,25.05,4.288,166.1,16 / 22,3443143,2019-08-18 16:11:05:680,-0.8289,-0.1155,9.9302,-0.5506,-0.2992,9.7866,-0.011,-0.0166,0.0079
34425,48.10279,-1.716346,68.14,25.05,4.288,166.1,16 / 22,3443243,2019-08-18 16:11:05:780,-0.4614,0.0024,9.7758,-0.5494,-0.3021,9.7866,-0.005,-0.0084,0.0064
34426,48.10279,-1.716346,68.14,25.05,4.288,166.1,16 / 22,3443343,2019-08-18 16:11:05:880,-0.9726,-0.3938,9.4579,-0.5573,-0.3053,9.786,-0.0043,0.0055,0.01
34427,48.10279,-1.716346,68.14,25.05,4.288,166.1,16 / 22,3443444,2019-08-18 16:11:05:981,-0.7374,-0.0592,9.3754,-0.5632,-0.308,9.7856,-0.0092,0.011,0.0103
34428,48.10279,-1.716346,68.14,25.05,4.288,166.1,16 / 22,3443543,2019-08-18 16:11:06:080,-0.7882,-0.3089,9.865,-0.5762,-0.3216,9.7844,-0.0099,-0.0103,0.0083
34429,48.10279,-1.716346,68.14,25.05,4.288,166.1,16 / 22,3443643,2019-08-18 16:11:06:180,-0.8547,-0.1826,9.832,-0.5621,-0.321,9.7853,0.0043,-0.0176,0.008
34430,48.10279,-1.716346,68.14,25.05,4.288,166.1,16 / 22,3443743,2019-08-18 16:11:06:280,-0.7972,0.0024,9.4801,-0.5611,-0.3136,9.7856,0.0012,0.0048,0.0084
34431,48.10279,-1.716346,68.14,25.05,4.288,166.1,16 / 22,3443844,2019-08-18 16:11:06:381,-1.048,-0.2436,9.7716,-0.5647,-0.3119,9.7854,-0.0079,-0.008,0.0092
34432,48.10279,-1.716346,68.14,25.05,4.288,166.1,16 / 22,3443943,2019-08-18 16:11:06:480,-0.8038,-0.1814,10.0302,-0.5653,-0.3135,9.7853,-0.0052,-0.0079,0.0083
