,GPS LATITUDE (degrees), GPS LONGITUDE (degrees), GPS ALTITUDE (m), GPS SPEED (Kmh), GPS ACCURACY (m), GPS ORIENTATION (Â°),GPS SATELLITES IN RANGE, TIME SINCE START (ms), DATE (YYYY-MO-DD HH-MI-SS_SSS), ACCELEROMETER X (m/s²) , ACCELEROMETER Y (m/s²), ACCELEROMETER Z (m/s²), GRAVITY X (m/s²), GRAVITY Y (m/s²), GRAVITY Z (m/s²), GYROSCOPE Yaw (rad/s), GYROSCOPE Pitch (rad/s), GYROSCOPE Roll (rad/s), MAGNETIC FIELD X (Î¼T), MAGNETIC FIELD Y (Î¼T), MAGNETIC FIELD Z (Î¼T), ORIENTATION (Yaw) (Â°), ORIENTATION (Pitch) (Â°), ORIENTATION (Roll ) (Â°)
3518,52.403606,-1.544366,161.63,14.88,3,283.34,26 / 27,354721,2019-09-08 10:13:41:345,-1.2374,0.1263,9.2643,-0.0048,0.0027,9.8065,0.0068,-0.1848,0.0614,-3.81,-28.19,12.63,14.1,-79.7,-154.16
3519,52.403606,-1.544366,161.63,14.88,3,283.34,26 / 27,354821,2019-09-08 10:13:41:445,-3.0912,2.3477,10.1329,-0.0244,0.0325,9.8065,0.0371,-0.0428,-0.1134,-3.0,-28.69,12.88,21.26,-79.61,-154.26
3520,52.403606,-1.544366,161.63,14.88,3,283.34,26 / 27,354921,2019-09-08 10:13:41:545,-0.2522,-1.025,9.7892,0.0084,-0.0325,9.8066,-0.1013,-0.1413,-0.0121,-3.87,-28.5,13.0,14.69,-79.82,-153.72
3521,52.403606,-1.544366,161.63,14.88,3,283.34,26 / 27,355022,2019-09-08 10:13:41:646,-0.9925,0.0063,8.4974,-0.0055,-0.0018,9.8066,-0.0702,-0.0524,-0.048,-3.56,-29.12,12.25,13.72,-79.82,-153.57
3522,52.403606,-1.544366,161.63,14.88,3,283.34,26 / 27,355121,2019-09-08 10:13:41:745,-0.354,0.8936,9.5037,-0.0144,0.0419,9.8065,0.0437,-0.1246,0.0174,-3.94,-29.06,11.75,15.07,-80.1,-152.6
3523,52.403606,-1.544366,161.63,14.88,3,283.34,26 / 27,355221,2019-09-08 10:13:41:845,-2.3291,0.3257,9.7976,-0.0129,0.0151,9.8066,-0.0002,-0.1888,0.0789,-4.69,-29.25,11.19,5.99,-80.08,-152.13
3524,52.403606,-1.544366,161.63,14.88,3,283.34,26 / 27,355321,2019-09-08 10:13:41:945,-1.4795,0.1823,9.0921,-0.0201,0.0111,9.8065,-0.0044,-0.0994,0.0527,-4.37,-29.37,11.19,15.62,-80.0,-151.28
3525,52.403606,-1.544366,161.63,14.88,3,283.34,26 / 27,355421,2019-09-08 10:13:42:045,-2.6452,-0.0385,9.6087,-0.0189,0.0095,9.8066,-0.0275,-0.1953,0.1147,-5.37,-29.62,11.06,11.16,-80.03,-149.34
3526,52.403606,-1.544366,161.63,14.88,3,283.34,26 / 27,355521,2019-09-08 10:13:42:145,-1.6391,1.1562,10.0969,-0.0082,0.0047,9.8066,-0.0305,-0.1415,0.0226,-5.44,-29.44,11.13,12.08,-80.11,-148.6
3527,52.403606,-1.544366,161.63,14.88,3,283.34,26 / 27,355621,2019-09-08 10:13:42:245,-1.5347,0.6801,10.0277,-0.0015,0.0026,9.8066,0.073,-0.1735,-0.0124,-5.44,-29.06,11.19,12.71,-80.08,-148.25
3528,52.403606,-1.544366,161.63,14.88,3,283.34,26 / 27,355721,2019-09-08 10:13:42:345,-1.24,-0.4689,9.892,0.0097,-0.0082,9.8066,-0.0173,-0.1292,0.0114,-5.56,-28.94,10.44,359.93,-79.89,-149.08
3529,52.403606,-1.544366,161.63,14.88,3,283.34,26 / 27,355821,2019-09-08 10:13:42:445,-1.0795,0.1278,10.1868,-0.0007,0.0053,9.8066,0.0038,-0.0946,0.0097,-5.94,-29.0,10.25,359.29,-79.89,-149.42
3530,52.403606,-1.544366,161.63,14.88,3,283.34,26 / 29,355921,2019-09-08 10:13:42:545,-1.7742,0.0461,9.6474,-0.0015,0.0008,9.8066,-0.0306,-0.1301,0.0123,-6.06,-29.0,10.31,359.29,-79.9,-149.43
3531,52.403606,-1.544366,161.63,14.88,3,283.34,26 / 29,356021,2019-09-08 10:13:42:645,-0.9329,0.1032,9.9349,-0.0033,0.0094,9.8066,0.0434,-0.0769,-0.0395,-5.94,-28.94,10.13,359.08,-79.89,-149.54
3532,52.403606,-1.544366,161.63,14.88,3,283.34,26 / 29,356122,2019-09-08 10:13:42:746,-1.6248,-0.1314,10.0142,0.0103,-0.0029,9.8066,-0.0876,-0.1137,-0.0422,-6.06,-29.37,9.13,352.63,-79.79,-150.07
3533,52.403606,-1.544366,161.63,14.88,3,283.34,26 / 29,356222,2019-09-08 10:13:42:846,-1.2586,0.4895,9.4968,0.0068,-0.0037,9.8066,-0.0229,-0.0986,-0.0124,-6.25,-29.31,9.63,356.29,-79.74,-151.05
3534,52.403606,-1.544366,161.63,14.88,3,283.34,26 / 29,356322,2019-09-08 10:13:42:946,-0.7204,0.3854,8.9389,-0.0026,0.014,9.8066,-0.0131,-0.1299,0.0484,-6.56,-29.19,10.44,349.03,-79.76,-151.2
3535,52.403606,-1.544366,161.63,14.88,3,283.34,26 / 29,356422,2019-09-08 10:13:43:046,-1.3108,0.6013,9.0707,-0.0143,0.0039,9.8066,-0.0769,-0.1037,0.0441,-6.12,-29.06,9.19,352.33,-79.87,-150.25
3536,52.403606,-1.544366,161.63,14.88,3,283.34,26 / 29,356522,2019-09-08 10:13:43:146,-1.6301,0.8758,10.3078,-0.0015,0.0025,9.8066,0.0928,-0.0861,0.0083,-6.56,-28.44,8.88,346.97,-79.99,-149.43
3537,52.403606,-1.544366,161.63,14.88,3,283.34,26 / 29,356622,2019-09-08 10:13:43:246,-0.254,0.1844,10.0809,0.0193,-0.0195,9.8066,0.0115,-0.0391,-0.0408,-6.5,-28.87,8.31,345.47,-79.88,-150.09
3538,52.403606,-1.544366,161.63,14.88,3,283.34,26 / 29,356721,2019-09-08 10:13:43:345,-0.9103,2.1393,10.0807,-0.0156,0.032,9.8066,0.1295,-0.0149,0.0043,-6.31,-29.56,8.63,350.74,-79.84,-150.91
3539,52.403606,-1.544366,161.63,14.88,3,283.34,25 / 26,356821,2019-09-08 10:13:43:445,-0.2404,0.6468,10.0445,-0.014,0.013,9.8066,0.0822,-0.0307,0.0245,-6.37,-29.44,8.06,344.12,-80.02,-150.87
3540,52.403606,-1.544366,161.63,14.88,3,283.34,25 / 26,356921,2019-09-08 10:13:43:545,-0.4525,1.3004,9.6535,-0.0274,0.0136,9.8065,0.0691,-0.0259,0.0409,-6.87,-28.62,8.13,338.91,-80.11,-149.89
3541,52.403606,-1.544366,161.63,14.88,3,283.34,25 / 26,357021,2019-09-08 10:13:43:645,-0.0039,0.4755,9.412,-0.0346,0.0121,9.8065,0.083,-0.0009,0.0358,-6.37,-29.25,8.31,347.03,-80.04,-149.44
3542,52.403606,-1.544366,161.63,14.88,3,283.34,25 / 26,357122,2019-09-08 10:13:43:746,-0.2783,0.3984,10.1429,0.0031,-0.0099,9.8066,-0.0708,0.0144,-0.0193,-7.19,-29.5,8.38,340.57,-79.91,-148.8
3543,52.403606,-1.544366,161.63,14.88,3,283.34,25 / 26,357222,2019-09-08 10:13:43:846,0.3477,1.306,9.9549,-0.0003,-0.0034,9.8066,-0.0567,-0.0145,-0.0009,-7.56,-29.19,8.19,335.2,-79.9,-148.56
3544,52.403606,-1.544366,161.63,14.88,3,283.34,25 / 26,357322,2019-09-08 10:13:43:946,0.5845,1.1656,9.6595,0.0083,-0.002,9.8066,0.0346,0.0342,-0.0534,-6.62,-29.81,8.75,348.2,-79.88,-148.32
3545,52.403606,-1.544366,161.63,14.88,3,283.34,25 / 26,357422,2019-09-08 10:13:44:046,0.3696,0.775,9.7642,0.0055,-0.0056,9.8066,-0.01,0.0177,-0.0099,-6.5,-29.25,8.69,355.39,-79.86,-148.68
3546,52.403606,-1.544366,161.63,14.88,3,283.34,25 / 26,357521,2019-09-08 10:13:44:145,-0.2097,2.0309,10.1732,-0.02,0.0229,9.8065,0.0633,0.0665,-0.0754,-6.69,-30.0,8.63,348.7,-80.04,-148.14
3547,52.403606,-1.544366,161.63,14.88,3,283.34,25 / 26,357621,2019-09-08 10:13:44:245,0.7231,1.1081,9.8671,-0.0086,0.0181,9.8065,0.1337,0.0416,0.006,-6.31,-29.37,8.69,356.47,-80.12,-148.17
3548,52.403606,-1.544366,161.63,14.88,3,283.34,25 / 26,357721,2019-09-08 10:13:44:345,0.0206,2.521,10.4061,-0.0086,0.0028,9.8066,0.0758,0.1014,-0.0299,-5.94,-29.37,8.94,355.98,-80.03,-148.4
3549,52.403606,-1.544366,161.63,14.88,3,283.34,25 / 26,357822,2019-09-08 10:13:44:446,0.8194,1.7067,9.7994,-0.0008,0.0127,9.8066,0.076,0.0792,0.0025,-5.94,-29.94,9.13,356.08,-79.98,-148.28
3550,52.403606,-1.544366,161.63,14.88,3,283.34,25 / 26,357921,2019-09-08 10:13:44:545,1.3833,2.0356,10.3283,0.0012,-0.0103,9.8066,0.0711,0.1403,-0.0408,-6.06,-29.81,9.44,354.93,-79.82,-148.82
3551,52.403606,-1.544366,161.63,14.88,3,283.34,25 / 26,358022,2019-09-08 10:13:44:646,1.919,2.649,10.0991,0.0062,-0.0083,9.8066,0.0837,0.0672,-0.0253,-5.5,-29.87,10.5,11.85,-79.69,-149.13
3552,52.403606,-1.544366,161.63,14.88,3,283.34,25 / 26,358122,2019-09-08 10:13:44:746,1.5772,1.4001,10.9476,-0.0075,-0.0271,9.8066,-0.016,0.1319,0.0093,-5.19,-29.69,10.63,12.82,-79.46,-148.74
3553,52.403606,-1.544366,161.63,14.88,3,283.34,25 / 26,358221,2019-09-08 10:13:44:845,3.1196,1.0575,8.8924,0.0037,-0.0033,9.8066,0.0199,0.2172,-0.0786,-5.31,-29.62,11.19,13.45,-79.24,-148.53
3554,52.403606,-1.544366,161.63,14.88,3,283.34,25 / 26,358321,2019-09-08 10:13:44:945,2.0437,0.7543,10.0081,-0.0037,-0.0158,9.8066,-0.1175,0.1573,-0.0737,-5.44,-29.44,10.69,12.92,-79.32,-148.56
3555,52.403606,-1.544366,161.63,14.88,3,283.34,25 / 26,358422,2019-09-08 10:13:45:046,1.1778,2.9217,10.2206,-0.0042,0.009,9.8066,-0.0125,0.2147,-0.0595,-5.75,-29.75,10.5,6.88,-79.54,-147.61
3556,52.403606,-1.544366,161.63,14.88,3,283.34,25 / 26,358522,2019-09-08 10:13:45:146,2.3193,2.0185,9.9374,0.0085,0.0096,9.8066,0.0552,0.1496,-0.0073,-5.5,-29.81,10.69,14.56,-79.72,-147.62
3557,52.403606,-1.544366,161.63,14.88,3,283.34,25 / 26,358621,2019-09-08 10:13:45:245,2.5398,1.8561,9.7926,-0.0047,0.0032,9.8066,0.1006,0.2065,-0.0199,-5.5,-30.37,11.19,14.22,-79.67,-147.84
3558,52.403606,-1.544366,161.63,14.88,3,283.34,25 / 26,358721,2019-09-08 10:13:45:345,2.9343,1.2044,9.9027,0.0005,-0.0035,9.8066,-0.0422,0.2069,0.0152,-5.12,-31.37,12.38,16.87,-79.61,-147.95
3559,52.403606,-1.544366,161.63,14.88,3,283.34,25 / 26,358822,2019-09-08 10:13:45:446,2.1036,1.401,9.8327,-0.0107,-0.0104,9.8066,-0.0558,0.1879,-0.012,-4.56,-29.81,13.38,19.43,-79.57,-147.3
3560,52.403606,-1.544366,161.63,14.88,3,283.34,25 / 26,358921,2019-09-08 10:13:45:545,3.1556,1.3077,9.4185,-0.003,-0.0067,9.8066,-0.0244,0.187,0.0346,-5.12,-29.81,13.94,21.82,-79.69,-146.58
3561,52.403606,-1.544366,161.63,14.88,3,283.34,25 / 26,359022,2019-09-08 10:13:45:646,2.8684,1.4693,9.9703,-0.0084,-0.0059,9.8066,0.0206,0.2017,-0.0319,-4.75,-29.25,13.31,21.44,-79.64,-145.73
3562,52.403606,-1.544366,161.63,14.88,3,283.34,25 / 26,359121,2019-09-08 10:13:45:745,2.4156,2.0548,9.8937,-0.0077,0.0195,9.8065,0.032,0.1919,-0.0175,-4.12,-28.62,14.0,29.74,-79.77,-144.85
3563,52.403606,-1.544366,161.63,14.88,3,283.34,25 / 26,359221,2019-09-08 10:13:45:845,2.9668,0.4392,8.8378,-0.0027,0.0364,9.8065,0.0892,0.2258,-0.0299,-4.75,-29.75,14.25,24.88,-79.89,-144.4
3564,52.403606,-1.544366,161.63,14.88,3,283.34,25 / 26,359321,2019-09-08 10:13:45:945,2.8006,0.4985,10.1095,0.0026,0.0017,9.8066,-0.0699,0.1533,-0.0217,-4.62,-29.94,13.69,25.56,-79.92,-143.93
3565,52.403606,-1.544366,161.63,14.88,3,283.34,25 / 26,359421,2019-09-08 10:13:46:045,2.5759,2.0566,10.3324,0.0042,-0.0005,9.8066,-0.0525,0.1775,-0.015,-4.56,-30.0,15.63,27.37,-80.0,-143.87
3566,52.403606,-1.544366,161.63,14.88,3,283.34,25 / 26,359521,2019-09-08 10:13:46:145,2.0877,1.113,9.4736,-0.008,-0.0058,9.8066,0.0307,0.2523,-0.0612,-4.19,-28.94,15.38,31.83,-80.01,-143.52
3567,52.403606,-1.544366,161.63,14.88,3,283.34,25 / 26,359621,2019-09-08 10:13:46:245,2.7478,0.1276,10.3214,-0.0057,-0.0124,9.8066,0.0415,0.1899,-0.0435,-3.56,-28.87,16.0,32.79,-79.87,-143.27
3568,52.403606,-1.544366,161.63,14.88,3,283.34,25 / 26,359721,2019-09-08 10:13:46:345,2.9169,1.1082,9.3795,-0.0024,0.0231,9.8065,0.0742,0.1961,-0.0503,-3.81,-28.31,16.44,33.01,-80.03,-142.6
3569,52.403606,-1.544366,161.63,14.88,3,283.34,25 / 26,359821,2019-09-08 10:13:46:445,2.5549,0.8384,9.3742,0.0031,0.023,9.8066,0.0687,0.1499,-0.0116,-4.06,-28.69,16.19,33.44,-80.07,-142.58
3570,52.403606,-1.544366,161.63,14.88,3,283.34,26 / 27,359922,2019-09-08 10:13:46:546,2.9862,1.5139,9.9966,-0.0026,-0.0017,9.8065,-0.0272,0.1958,-0.0075,-4.31,-28.56,16.63,34.08,-80.12,-142.3
3571,52.403606,-1.544366,161.63,14.88,3,283.34,26 / 27,360022,2019-09-08 10:13:46:646,2.4944,0.3272,9.9821,0.0023,0.0062,9.8065,0.0361,0.1906,-0.0804,-4.19,-28.94,17.31,34.17,-80.2,-142.15
3572,52.403606,-1.544366,161.63,14.88,3,283.34,26 / 27,360122,2019-09-08 10:13:46:746,2.8886,-0.2371,9.1732,0.0108,-0.0053,9.8066,-0.0115,0.184,-0.0273,-4.37,-29.12,17.19,33.35,-80.22,-142.76
3573,52.403606,-1.544366,161.63,14.88,3,283.34,26 / 27,360221,2019-09-08 10:13:46:845,2.6744,0.973,9.7097,-0.0158,0.0051,9.8066,0.0298,0.1505,0.0381,-4.12,-28.81,18.06,33.85,-80.19,-142.63
3574,52.403606,-1.544366,161.63,14.88,3,283.34,26 / 27,360322,2019-09-08 10:13:46:946,1.8337,0.3464,8.3541,0.0609,0.026,9.8063,-0.2177,0.1517,-0.0678,-3.31,-28.25,18.31,35.51,-80.64,-143.76
3575,52.403606,-1.544366,161.63,14.88,3,283.34,26 / 27,360422,2019-09-08 10:13:47:046,3.0573,0.384,8.3464,0.0364,0.0562,9.8064,-0.1316,0.2526,-0.1281,-3.75,-29.12,17.94,30.39,-81.45,-144.17
3576,52.403606,-1.544366,161.63,14.88,3,283.34,26 / 27,360522,2019-09-08 10:13:47:146,1.9118,0.8107,8.8217,0.0406,0.0569,9.8063,-0.0536,0.1486,-0.1329,-3.0,-28.25,17.75,33.59,-82.23,-143.8
3577,52.403606,-1.544366,161.63,14.88,3,283.34,26 / 27,360621,2019-09-08 10:13:47:245,1.2796,2.2452,10.6582,0.0189,0.0303,9.8066,-0.0023,0.0483,-0.0538,-2.87,-28.62,17.31,32.54,-83.06,-143.93
3578,52.403606,-1.544366,161.63,14.88,3,283.34,26 / 27,360721,2019-09-08 10:13:47:345,2.4355,0.2611,9.7369,0.0148,-0.0433,9.8065,0.0545,0.0742,-0.0359,-2.31,-27.81,18.38,34.74,-83.02,-145.28
3579,52.404022,-1.545924,161.25,10.59,2,273.52,26 / 27,360821,2019-09-08 10:13:47:445,1.371,-0.9397,9.9897,0.0123,-0.0361,9.8065,0.0162,0.0857,-0.032,-2.06,-28.31,18.63,30.86,-82.62,-148.9
3580,52.404022,-1.545924,161.25,10.59,2,273.52,26 / 27,360922,2019-09-08 10:13:47:546,1.5394,-0.2768,9.6402,0.0092,0.0088,9.8065,-0.074,0.055,0.0308,-2.44,-29.06,17.81,30.08,-82.71,-149.64
3581,52.404022,-1.545924,161.25,10.59,2,273.52,26 / 27,361021,2019-09-08 10:13:47:645,1.6345,0.6612,9.0441,0.0203,0.03,9.8066,-0.1425,0.164,-0.0375,-2.87,-28.62,17.81,27.65,-82.9,-148.31
3582,52.404022,-1.545924,161.25,10.59,2,273.52,26 / 27,361122,2019-09-08 10:13:47:746,0.9204,-0.5057,9.8502,-0.0408,-0.0729,9.8063,-0.2179,0.1409,-0.0227,-4.0,-30.19,18.44,25.2,-82.95,-147.32
3583,52.404022,-1.545924,161.25,10.59,2,273.52,26 / 27,361222,2019-09-08 10:13:47:846,0.3513,2.5702,9.4905,0.0041,0.0874,9.8062,0.3768,0.0753,-0.0315,-4.19,-30.19,20.06,27.68,-83.42,-145.67
3584,52.404022,-1.545924,161.25,10.59,2,273.52,26 / 27,361322,2019-09-08 10:13:47:946,0.6904,-0.7672,10.4362,-0.0131,0.0379,9.8066,0.2431,0.0462,0.0955,-3.62,-29.62,20.63,25.59,-83.19,-147.91
3585,52.404022,-1.545924,161.25,10.59,2,273.52,26 / 27,361421,2019-09-08 10:13:48:045,-0.8148,0.359,10.2183,-0.0226,-0.0668,9.8064,-0.0557,0.0387,0.0137,-3.19,-28.0,21.19,29.19,-82.69,-147.58
3586,52.404022,-1.545924,161.25,10.59,2,273.52,26 / 27,361521,2019-09-08 10:13:48:145,-0.1905,-0.8688,11.1228,0.0111,-0.0483,9.8064,-0.1227,-0.0701,0.0059,-2.75,-28.19,19.56,29.12,-82.32,-147.75
3587,52.404022,-1.545924,161.25,10.59,2,273.52,26 / 27,361621,2019-09-08 10:13:48:245,0.6793,1.0672,9.7549,0.0179,0.0232,9.8066,-0.0213,-0.0865,0.0344,-2.06,-27.75,19.75,32.62,-82.47,-147.56
3588,52.404022,-1.545924,161.25,10.59,2,273.52,26 / 27,361721,2019-09-08 10:13:48:345,0.3493,1.2066,9.3964,0.0024,0.0048,9.8066,-0.012,-0.103,-0.0162,-2.25,-27.81,19.44,32.23,-82.62,-147.75
3589,52.404022,-1.545924,161.25,10.59,2,273.52,26 / 27,361822,2019-09-08 10:13:48:446,-0.9342,1.0747,9.8692,0.0099,-0.0103,9.8065,0.0804,-0.0746,-0.0245,-2.56,-28.25,19.75,27.42,-82.55,-149.0
3590,52.404022,-1.545924,161.25,10.59,2,273.52,26 / 27,361921,2019-09-08 10:13:48:545,-0.2045,0.5295,10.0778,-0.0001,-0.0292,9.8065,0.0372,-0.0852,0.018,-2.12,-27.81,19.0,30.15,-82.4,-149.66
3591,52.404022,-1.545924,161.25,10.59,2,273.52,26 / 27,362021,2019-09-08 10:13:48:645,-0.6769,1.1217,10.044,-0.0101,-0.0093,9.8066,0.0446,-0.1721,0.0701,-1.94,-28.5,19.44,29.78,-82.18,-150.14
3592,52.404022,-1.545924,161.25,10.59,2,273.52,26 / 27,362122,2019-09-08 10:13:48:746,-1.1009,1.0309,10.0354,-0.023,-0.014,9.8065,0.0006,-0.1458,0.0508,-2.94,-28.56,18.69,27.77,-81.82,-149.25
3593,52.404022,-1.545924,161.25,10.59,2,273.52,26 / 27,362222,2019-09-08 10:13:48:846,-2.3425,0.2577,9.9895,-0.0127,0.0121,9.8066,-0.0127,-0.2021,0.0346,-3.19,-28.19,19.81,30.31,-81.64,-147.27
3594,52.404022,-1.545924,161.25,10.59,2,273.52,26 / 27,362321,2019-09-08 10:13:48:945,-2.1044,1.6871,9.8148,-0.0101,0.0068,9.8066,-0.0763,-0.24,0.0205,-2.94,-27.94,19.06,31.17,-81.63,-146.45
3595,52.404022,-1.545924,161.25,10.59,2,273.52,26 / 27,362422,2019-09-08 10:13:49:046,-2.5878,1.079,9.6387,-0.0019,0.0218,9.8066,0.0601,-0.2543,0.0413,-2.81,-28.75,18.25,32.07,-81.58,-145.86
3596,52.404022,-1.545924,161.25,10.59,2,273.52,26 / 27,362521,2019-09-08 10:13:49:145,-1.9337,0.8551,9.6622,0.0044,0.017,9.8066,0.0838,-0.2479,0.0387,-3.31,-28.69,17.75,32.05,-81.66,-145.81
3597,52.404022,-1.545924,161.25,10.59,2,273.52,26 / 27,362622,2019-09-08 10:13:49:246,-2.6048,0.8956,10.0877,-0.0012,-0.0179,9.8066,-0.017,-0.2585,0.0061,-3.12,-29.5,18.44,31.35,-81.48,-146.52
3598,52.404022,-1.545924,161.25,10.59,2,273.52,26 / 27,362722,2019-09-08 10:13:49:346,-2.5642,1.4196,9.4862,0.0078,-0.0159,9.8066,-0.0729,-0.3266,0.0744,-3.12,-29.06,17.06,29.8,-81.36,-147.69
3599,52.404022,-1.545924,161.25,10.59,2,273.52,27 / 28,362822,2019-09-08 10:13:49:446,-2.5153,1.5497,10.1818,-0.0135,-0.0148,9.8065,0.043,-0.3238,0.0486,-3.5,-29.06,16.75,30.27,-81.29,-147.39
3600,52.404022,-1.545924,161.25,10.59,2,273.52,27 / 28,362921,2019-09-08 10:13:49:545,-2.9297,0.4796,10.1835,0.0039,-0.0149,9.8065,0.0039,-0.3456,0.0505,-3.56,-28.62,16.19,25.65,-81.15,-147.32
3601,52.404022,-1.545924,161.25,10.59,2,273.52,27 / 28,363021,2019-09-08 10:13:49:645,-3.0819,0.3197,9.8582,-0.0147,0.0003,9.8066,-0.0186,-0.3265,0.0761,-4.44,-29.94,14.94,26.39,-81.09,-146.62
3602,52.404022,-1.545924,161.25,10.59,2,273.52,27 / 28,363121,2019-09-08 10:13:49:745,-2.399,1.0183,9.0805,-0.0188,0.0415,9.8065,0.0668,-0.3803,0.0806,-3.44,-29.44,14.63,32.4,-81.06,-145.72
3603,52.404022,-1.545924,161.25,10.59,2,273.52,27 / 28,363221,2019-09-08 10:13:49:845,-2.727,-0.6487,10.4215,0.0,-0.0414,9.8065,-0.0807,-0.3496,0.0468,-4.69,-29.81,13.75,21.74,-80.89,-145.66
3604,52.404022,-1.545924,161.25,10.59,2,273.52,27 / 28,363321,2019-09-08 10:13:49:945,-2.9935,1.6004,10.1233,0.0001,-0.0397,9.8065,-0.1369,-0.3359,0.0553,-4.5,-29.75,13.94,27.19,-80.63,-146.03
3605,52.404022,-1.545924,161.25,10.59,2,273.52,27 / 28,363421,2019-09-08 10:13:50:045,-3.6222,0.1454,9.3385,-0.0094,0.0108,9.8066,0.1825,-0.2606,-0.0112,-4.94,-30.25,13.19,20.21,-80.62,-145.98
3606,52.404022,-1.545924,161.25,10.59,2,273.52,27 / 28,363521,2019-09-08 10:13:50:145,-4.7188,-1.813,10.1323,0.0068,0.009,9.8066,0.1821,-0.4728,0.1257,-5.0,-29.62,13.0,18.84,-80.55,-146.93
3607,52.404022,-1.545924,161.25,10.59,2,273.52,27 / 28,363621,2019-09-08 10:13:50:245,-1.5348,0.2572,9.8081,0.0124,-0.0072,9.8066,-0.0188,-0.4185,0.1603,-6.06,-29.75,12.63,10.84,-80.33,-148.33
3608,52.404022,-1.545924,161.25,10.59,2,273.52,27 / 28,363721,2019-09-08 10:13:50:345,-3.5437,0.1135,9.6812,-0.0058,-0.0013,9.8065,-0.0673,-0.3337,0.0119,-5.56,-29.5,11.56,8.86,-80.25,-147.93
3609,52.404022,-1.545924,161.25,10.59,2,273.52,28 / 29,363822,2019-09-08 10:13:50:446,-2.7353,-0.8668,10.2723,-0.006,-0.0061,9.8066,-0.0398,-0.3482,0.038,-6.0,-29.62,11.25,5.59,-80.32,-148.12
3610,52.404022,-1.545924,161.25,10.59,2,273.52,28 / 29,363922,2019-09-08 10:13:50:546,-2.7274,-0.7166,10.1994,0.0069,-0.0197,9.8066,-0.059,-0.4486,0.0753,-7.0,-29.81,10.5,359.59,-80.27,-147.77
3611,52.404022,-1.545924,161.25,10.59,2,273.52,28 / 29,364021,2019-09-08 10:13:50:645,-3.072,-0.5012,10.3146,0.0071,-0.0041,9.8066,-0.0238,-0.4443,0.0478,-6.75,-29.25,9.69,356.22,-80.14,-147.19
3612,52.404022,-1.545924,161.25,10.59,2,273.52,28 / 29,364121,2019-09-08 10:13:50:745,-2.6139,-2.0151,9.7806,0.0116,-0.0157,9.8066,-0.0122,-0.4143,0.04,-7.62,-30.0,8.94,342.87,-79.95,-147.88
3613,52.404022,-1.545924,161.25,10.59,2,273.52,28 / 29,364221,2019-09-08 10:13:50:845,-2.5588,-1.8625,9.6819,-0.0036,-0.0083,9.8066,0.0366,-0.4147,0.0529,-7.69,-29.37,8.81,342.56,-79.79,-148.18
3614,52.404022,-1.545924,161.25,10.59,2,273.52,28 / 29,364321,2019-09-08 10:13:50:945,-2.4007,-1.9802,9.9826,-0.0026,0.0058,9.8066,0.0358,-0.4521,0.0666,-8.69,-29.75,7.38,322.55,-79.74,-148.23
3615,52.404022,-1.545924,161.25,10.59,2,273.52,28 / 29,364421,2019-09-08 10:13:51:045,-2.1834,-2.4443,10.6181,-0.0099,0.0054,9.8066,-0.0061,-0.5092,0.0966,-8.94,-29.56,7.44,322.29,-79.63,-148.18
3616,52.404022,-1.545924,161.25,10.59,2,273.52,28 / 29,364521,2019-09-08 10:13:51:145,-0.8844,-2.9705,10.2003,0.0027,-0.0024,9.8066,0.0056,-0.3843,0.0349,-10.25,-29.94,6.5,320.04,-79.65,-147.89
3617,52.404022,-1.545924,161.25,10.59,2,273.52,28 / 29,364622,2019-09-08 10:13:51:246,-1.0921,-3.0095,9.7338,0.0077,-0.0019,9.8066,0.0266,-0.3631,0.0825,-9.94,-30.31,6.19,312.0,-79.61,-148.13
3618,52.404022,-1.545924,161.25,10.59,2,273.52,28 / 29,364722,2019-09-08 10:13:51:346,-0.1295,-2.9992,10.074,0.0068,-0.0003,9.8066,-0.0062,-0.3921,0.0654,-10.81,-29.94,5.38,302.82,-79.45,-148.44
3619,52.404022,-1.545924,161.25,10.59,2,273.52,27 / 28,364821,2019-09-08 10:13:51:445,-0.5229,-3.0166,10.8298,0.0246,-0.0074,9.8065,0.055,-0.4752,0.1186,-11.19,-29.5,5.06,302.81,-79.33,-148.96
3620,52.404022,-1.545924,161.25,10.59,2,273.52,27 / 28,364922,2019-09-08 10:13:51:546,-1.221,-2.7009,9.8313,-0.0165,-0.0047,9.8065,0.0966,-0.3916,0.0536,-11.87,-29.94,5.31,301.1,-79.08,-148.77
3621,52.404022,-1.545924,161.25,10.59,2,273.52,27 / 28,365021,2019-09-08 10:13:51:645,-0.3604,-3.4484,10.126,-0.0163,0.0014,9.8066,0.1182,-0.4224,0.1137,-12.75,-30.19,5.38,300.68,-79.04,-148.99
3622,52.404022,-1.545924,161.25,10.59,2,273.52,27 / 28,365122,2019-09-08 10:13:51:746,0.2159,-2.7624,10.02,0.0209,-0.0052,9.8066,-0.0877,-0.3938,0.1026,-12.94,-30.12,4.5,298.73,-78.75,-149.86
3623,52.404022,-1.545924,161.25,10.59,2,273.52,27 / 28,365221,2019-09-08 10:13:51:845,0.6313,-2.9263,9.7644,0.015,-0.0009,9.8066,-0.0518,-0.3245,0.0579,-14.0,-30.37,4.06,293.11,-78.6,-150.04
3624,52.404022,-1.545924,161.25,10.59,2,273.52,27 / 28,365321,2019-09-08 10:13:51:945,0.502,-3.5479,10.2682,0.022,-0.009,9.8066,-0.0126,-0.3139,0.0397,-14.44,-30.25,4.0,292.41,-78.51,-150.4
3625,52.404022,-1.545924,161.25,10.59,2,273.52,27 / 28,365421,2019-09-08 10:13:52:045,1.5658,-3.1988,9.7644,0.0109,0.0144,9.8066,0.0383,-0.3419,0.1239,-15.44,-30.75,3.31,286.6,-78.41,-150.94
3626,52.404022,-1.545924,161.25,10.59,2,273.52,27 / 28,365521,2019-09-08 10:13:52:145,1.1007,-2.6823,9.8335,-0.0037,0.0131,9.8066,-0.0247,-0.3546,0.1122,-15.5,-30.31,3.38,287.09,-78.44,-151.39
3627,52.404022,-1.545924,161.25,10.59,2,273.52,27 / 28,365622,2019-09-08 10:13:52:246,2.1587,-3.3434,9.6303,0.0259,-0.0047,9.8066,-0.0184,-0.4359,0.1242,-16.19,-29.87,3.44,287.57,-78.43,-151.67
3628,52.404022,-1.545924,161.25,10.59,2,273.52,27 / 28,365722,2019-09-08 10:13:52:346,-0.0313,-2.7324,10.123,-0.0129,-0.0071,9.8065,-0.0051,-0.3681,0.0671,-16.94,-30.31,3.0,288.87,-78.53,-151.33
3629,52.404022,-1.545924,161.25,10.59,2,273.52,27 / 28,365822,2019-09-08 10:13:52:446,-0.0452,-2.517,9.4357,-0.0198,0.0076,9.8065,-0.0157,-0.4184,0.0931,-17.5,-30.31,2.88,288.18,-78.5,-151.9
3630,52.404022,-1.545924,161.25,10.59,2,273.52,26 / 27,365922,2019-09-08 10:13:52:546,0.2283,-1.3789,10.0756,0.0467,0.019,9.8065,-0.097,-0.306,-0.0445,-17.75,-29.25,2.75,288.84,-78.48,-152.45
3631,52.404022,-1.545924,161.25,10.59,2,273.52,26 / 27,366021,2019-09-08 10:13:52:645,1.0633,-1.1986,9.9452,0.0419,0.0128,9.8065,-0.0983,-0.2743,-0.0656,-18.81,-30.0,3.13,286.45,-78.21,-154.02
3632,52.404022,-1.545924,161.25,10.59,2,273.52,26 / 27,366121,2019-09-08 10:13:52:745,0.576,-2.8688,9.6855,-0.0263,-0.0062,9.8065,0.1222,-0.2701,0.0099,-19.12,-29.37,2.5,286.36,-78.28,-154.84
3633,52.404022,-1.545924,161.25,10.59,2,273.52,26 / 27,366222,2019-09-08 10:13:52:846,0.2765,-1.4674,10.3161,-0.0199,0.015,9.8066,0.0684,-0.2658,0.0169,-19.56,-30.0,2.44,282.7,-78.44,-155.45
3634,52.404022,-1.545924,161.25,10.59,2,273.52,26 / 27,366322,2019-09-08 10:13:52:946,1.1597,-2.541,9.6359,0.0004,0.0156,9.8066,0.0188,-0.1477,-0.1119,-19.81,-29.5,1.5,282.33,-78.48,-156.45
3635,52.404022,-1.545924,161.25,10.59,2,273.52,26 / 27,366421,2019-09-08 10:13:53:045,-0.2035,-0.6253,10.1294,-0.0173,0.0215,9.8065,0.0666,-0.2356,0.0593,-20.06,-30.12,2.38,279.79,-78.57,-158.45
3636,52.404022,-1.545924,161.25,10.59,2,273.52,26 / 27,366521,2019-09-08 10:13:53:145,0.3795,-0.7078,10.4586,0.0183,0.0201,9.8065,-0.0707,-0.1039,-0.0267,-19.94,-29.25,1.81,279.54,-78.66,-159.42
3637,52.404022,-1.545924,161.25,10.59,2,273.52,26 / 27,366621,2019-09-08 10:13:53:245,0.1489,1.1397,9.304,0.0302,0.0127,9.8065,-0.1268,-0.0589,-0.0483,-19.62,-29.81,1.94,277.35,-78.69,-161.0
3638,52.404022,-1.545924,161.25,10.59,2,273.52,26 / 27,366721,2019-09-08 10:13:53:345,-0.7676,0.0578,9.7889,-0.0262,-0.0063,9.8065,0.0968,-0.1086,-0.0028,-19.81,-29.69,2.19,277.84,-78.85,-160.8
3639,52.404022,-1.545924,161.25,10.59,2,273.52,27 / 28,366821,2019-09-08 10:13:53:445,1.3633,1.2984,9.5609,-0.0106,0.0054,9.8066,0.0704,-0.008,-0.0808,-20.31,-29.81,2.56,280.31,-78.72,-161.12
3640,52.404022,-1.545924,161.25,10.59,2,273.52,27 / 28,366922,2019-09-08 10:13:53:546,-0.1855,0.6341,9.2775,0.0002,0.0086,9.8066,-0.0323,-0.0666,-0.0074,-19.81,-29.5,1.81,277.05,-78.61,-161.76
3641,52.404022,-1.545924,161.25,10.59,2,273.52,27 / 28,367021,2019-09-08 10:13:53:645,-1.1833,1.0633,9.1768,-0.0275,-0.0237,9.8065,-0.0696,0.0733,-0.0212,-20.5,-30.19,2.13,277.51,-78.71,-160.88
3642,52.404022,-1.545924,161.25,10.59,2,273.52,27 / 28,367121,2019-09-08 10:13:53:745,0.9194,-0.0237,9.8182,-0.0241,-0.0389,9.8064,-0.0191,-0.0398,0.0867,-19.62,-29.56,1.56,279.78,-78.73,-158.71
3643,52.404022,-1.545924,161.25,10.59,2,273.52,27 / 28,367222,2019-09-08 10:13:53:846,0.1964,0.8187,9.2115,-0.0091,-0.0279,9.8065,-0.0798,0.0329,0.0511,-20.19,-29.75,1.5,281.33,-78.69,-157.16
3644,52.404022,-1.545924,161.25,10.59,2,273.52,27 / 28,367321,2019-09-08 10:13:53:945,-0.6327,0.7707,9.3647,-0.0178,-0.048,9.8064,0.0142,0.0026,0.0988,-20.12,-29.56,1.5,284.41,-78.63,-154.14
3645,52.404022,-1.545924,161.25,10.59,2,273.52,27 / 28,367421,2019-09-08 10:13:54:045,-0.9837,0.7581,9.6289,0.0062,-0.0053,9.8066,0.0015,0.1258,-0.0632,-20.94,-29.56,1.38,283.37,-78.55,-152.78
3646,52.404022,-1.545924,161.25,10.59,2,273.52,27 / 28,367521,2019-09-08 10:13:54:145,0.5866,0.7833,9.6653,-0.0042,-0.0048,9.8066,-0.0325,0.1266,-0.0589,-20.81,-29.44,1.38,284.81,-78.59,-152.04
3647,52.404022,-1.545924,161.25,10.59,2,273.52,27 / 28,367621,2019-09-08 10:13:54:245,-0.6948,1.7239,9.7616,-0.0012,-0.0083,9.8066,-0.0033,-0.0015,-0.0158,-20.37,-29.69,1.13,284.46,-78.66,-151.24
3648,52.404022,-1.545924,161.25,10.59,2,273.52,27 / 28,367721,2019-09-08 10:13:54:345,0.2046,1.5111,9.8441,0.0381,0.0064,9.8065,-0.0352,0.0738,-0.1379,-20.0,-29.81,1.13,283.89,-78.52,-151.54
3649,52.404022,-1.545924,161.25,10.59,2,273.52,28 / 29,367822,2019-09-08 10:13:54:446,-0.5014,2.2901,9.2414,-0.0234,-0.0081,9.8066,-0.0109,0.0707,-0.0945,-19.75,-29.62,0.88,283.77,-78.5,-151.62
3650,52.404022,-1.545924,161.25,10.59,2,273.52,28 / 29,367921,2019-09-08 10:13:54:545,-0.3015,2.6241,9.4418,-0.0144,-0.0169,9.8066,-0.1006,0.014,0.0414,-19.75,-29.62,1.13,284.89,-78.55,-150.65
3651,52.404022,-1.545924,161.25,10.59,2,273.52,28 / 29,368022,2019-09-08 10:13:54:646,-1.6582,1.6403,9.5514,-0.0003,-0.023,9.8066,-0.1168,0.1343,-0.073,-19.5,-29.87,0.75,284.85,-78.64,-150.07
3652,52.404022,-1.545924,161.25,10.59,2,273.52,28 / 29,368121,2019-09-08 10:13:54:745,0.2287,2.0891,9.3677,-0.0004,-0.0175,9.8066,0.0132,0.0685,-0.0077,-19.69,-29.0,0.94,288.32,-78.63,-148.19
3653,52.404022,-1.545924,161.25,10.59,2,273.52,28 / 29,368221,2019-09-08 10:13:54:845,-1.0984,0.6011,10.2781,0.0055,-0.009,9.8066,0.0745,0.2279,-0.0631,-18.62,-29.12,0.88,287.75,-78.48,-147.74
3654,52.404022,-1.545924,161.25,10.59,2,273.52,28 / 29,368321,2019-09-08 10:13:54:945,-0.5759,1.539,9.6835,-0.0054,0.0023,9.8066,0.0136,0.228,-0.0212,-18.81,-30.31,1.0,286.93,-78.44,-147.81
3655,52.404022,-1.545924,161.25,10.59,2,273.52,28 / 29,368422,2019-09-08 10:13:55:046,0.2221,2.3659,8.6513,-0.0124,-0.0037,9.8066,-0.0522,0.0749,0.0291,-19.37,-29.87,0.94,286.92,-78.2,-147.41
3656,52.404022,-1.545924,161.25,10.59,2,273.52,28 / 29,368521,2019-09-08 10:13:55:145,-1.0957,2.1901,9.1877,-0.0209,-0.0203,9.8066,0.0733,0.1019,0.0134,-18.44,-30.06,1.25,287.18,-78.31,-146.49
3657,52.404022,-1.545924,161.25,10.59,2,273.52,28 / 29,368621,2019-09-08 10:13:55:245,-0.5609,3.1914,10.1645,0.0076,-0.0098,9.8066,0.0356,0.1703,-0.0093,-18.31,-29.19,1.31,288.91,-78.44,-145.8
3658,52.404022,-1.545924,161.25,10.59,2,273.52,28 / 29,368722,2019-09-08 10:13:55:346,-0.7654,1.0265,10.5663,0.0155,0.002,9.8065,0.0015,0.2673,-0.0123,-18.0,-29.87,0.88,288.48,-78.31,-145.33
3659,52.404022,-1.545924,161.25,10.59,2,273.52,28 / 29,368822,2019-09-08 10:13:55:446,-0.7496,4.553,9.7367,0.0188,0.0088,9.8066,0.0552,0.1495,0.0025,-18.44,-29.94,1.69,291.27,-77.93,-145.41
3660,52.404022,-1.545924,161.25,10.59,2,273.52,24 / 27,368921,2019-09-08 10:13:55:545,0.4909,4.522,9.2453,0.036,-0.0267,9.8065,-0.0767,0.0527,0.0575,-17.0,-28.81,2.31,291.14,-77.58,-144.82
3661,52.404022,-1.545924,161.25,10.59,2,273.52,24 / 27,369022,2019-09-08 10:13:55:646,-1.4399,2.8164,10.1298,-0.0223,-0.0257,9.8065,-0.0666,0.2124,-0.0352,-17.5,-29.44,1.81,290.37,-77.43,-145.2
3662,52.404022,-1.545924,161.25,10.59,2,273.52,24 / 27,369122,2019-09-08 10:13:55:746,-1.3429,0.1105,10.3148,-0.0074,0.0067,9.8066,0.1603,0.2514,-0.202,-17.25,-29.5,2.38,290.86,-77.26,-144.47
3663,52.404022,-1.545924,161.25,10.59,2,273.52,24 / 27,369221,2019-09-08 10:13:55:845,0.419,1.65,9.0604,0.039,0.0205,9.8065,0.0605,0.0644,-0.0502,-16.06,-29.94,2.56,291.19,-77.04,-145.71
3664,52.404022,-1.545924,161.25,10.59,2,273.52,24 / 27,369322,2019-09-08 10:13:55:946,1.3935,2.6918,8.987,0.0239,-0.0048,9.8066,0.0149,0.1276,-0.0115,-16.25,-29.87,2.31,287.35,-77.17,-145.57
3665,52.404022,-1.545924,161.25,10.59,2,273.52,24 / 27,369422,2019-09-08 10:13:56:046,-0.0182,1.7419,10.081,-0.0134,-0.0009,9.8066,0.0983,0.1801,-0.1082,-15.37,-30.06,1.75,288.21,-77.41,-144.16
3666,52.404022,-1.545924,161.25,10.59,2,273.52,24 / 27,369522,2019-09-08 10:13:56:146,-1.4188,3.2633,9.5892,-0.0096,0.0068,9.8066,0.0635,0.0674,0.0282,-15.37,-29.94,1.25,285.25,-77.76,-143.57
3667,52.404022,-1.545924,161.25,10.59,2,273.52,24 / 27,369622,2019-09-08 10:13:56:246,-0.661,3.3221,9.6833,0.0278,-0.0245,9.8065,0.0475,0.1598,0.0596,-14.94,-30.12,2.31,289.12,-77.67,-143.96
3668,52.404022,-1.545924,161.25,10.59,2,273.52,24 / 27,369722,2019-09-08 10:13:56:346,0.7875,1.1623,10.5663,-0.0026,-0.0106,9.8066,0.0162,0.2908,-0.0705,-14.69,-29.75,2.19,288.39,-77.12,-143.35
3669,52.404022,-1.545924,161.25,10.59,2,273.52,26 / 28,369821,2019-09-08 10:13:56:445,0.4336,2.8415,9.9342,-0.0014,-0.0124,9.8066,-0.1367,0.1678,0.0516,-15.0,-30.37,2.5,293.47,-77.07,-143.01
3670,52.40452,-1.546526,161.2,11.05,3,342.23,26 / 28,369921,2019-09-08 10:13:56:545,-1.5896,0.3599,9.3482,0.0028,-0.0095,9.8066,-0.1244,0.1634,-0.0905,-15.12,-29.69,2.75,294.86,-77.23,-142.24
3671,52.40452,-1.546526,161.2,11.05,3,342.23,26 / 28,370021,2019-09-08 10:13:56:645,0.8854,2.3054,11.5083,0.0703,0.0036,9.8063,0.0267,0.2359,-0.1458,-14.75,-30.12,2.0,290.54,-77.5,-142.38
3672,52.40452,-1.546526,161.2,11.05,3,342.23,26 / 28,370121,2019-09-08 10:13:56:745,-0.1056,2.3196,10.2309,0.066,0.026,9.8063,-0.0742,0.1256,-0.0012,-14.56,-30.06,3.13,292.66,-77.15,-143.84
3673,52.40452,-1.546526,161.2,11.05,3,342.23,26 / 28,370221,2019-09-08 10:13:56:845,-0.5932,4.3945,8.6622,-0.0533,-0.0136,9.8064,0.0994,0.0188,0.101,-14.0,-29.69,3.5,298.96,-77.34,-142.65
3674,52.40452,-1.546526,161.2,11.05,3,342.23,26 / 28,370321,2019-09-08 10:13:56:945,-0.208,3.5834,9.5588,-0.0505,-0.0413,9.8064,0.1247,0.2673,-0.1499,-14.25,-30.0,3.31,294.28,-77.18,-141.64
3675,52.40452,-1.546526,161.2,11.05,3,342.23,26 / 28,370421,2019-09-08 10:13:57:045,0.7275,2.4037,10.1049,0.0408,-0.0014,9.8065,-0.2074,0.1711,-0.0389,-14.0,-30.12,3.75,299.93,-77.46,-142.16
3676,52.40452,-1.546526,161.2,11.05,3,342.23,26 / 28,370522,2019-09-08 10:13:57:146,-0.567,-1.0158,10.6448,0.0661,0.0119,9.8063,-0.1977,0.1857,0.0122,-13.69,-29.94,3.44,293.47,-77.2,-142.32
3677,52.40452,-1.546526,161.2,11.05,3,342.23,26 / 28,370621,2019-09-08 10:13:57:245,0.1301,0.8675,9.6964,-0.0334,-0.0031,9.8065,0.2202,0.119,0.0709,-13.37,-30.44,3.75,298.19,-77.4,-142.71
3678,52.40452,-1.546526,161.2,11.05,3,342.23,26 / 28,370721,2019-09-08 10:13:57:345,-0.4087,2.3512,10.3687,-0.0093,-0.0021,9.8066,0.1736,0.0712,0.027,-13.0,-29.62,3.5,298.0,-77.41,-142.88
3679,52.40452,-1.546526,161.2,11.05,3,342.23,27 / 28,370821,2019-09-08 10:13:57:445,1.3463,2.7592,10.7242,0.035,0.0071,9.8065,-0.1393,0.0827,-0.0002,-13.12,-30.62,4.13,295.49,-77.16,-143.23
3680,52.40452,-1.546526,161.2,11.05,3,342.23,27 / 28,370922,2019-09-08 10:13:57:546,-0.8087,0.704,9.3106,0.0429,-0.0095,9.8065,-0.1478,0.0552,-0.0205,-12.44,-30.37,4.44,295.74,-77.07,-142.89
3681,52.40452,-1.546526,161.2,11.05,3,342.23,27 / 28,371021,2019-09-08 10:13:57:645,0.1205,3.4633,9.1948,0.0011,0.015,9.8066,0.0165,0.0654,0.1297,-12.56,-30.0,4.75,303.89,-77.02,-142.34
3682,52.40452,-1.546526,161.2,11.05,3,342.23,27 / 28,371121,2019-09-08 10:13:57:745,1.1419,2.2562,8.955,0.0056,-0.0304,9.8066,-0.0538,0.1043,-0.0387,-12.44,-29.81,4.75,304.72,-77.0,-141.48
3683,52.40452,-1.546526,161.2,11.05,3,342.23,27 / 28,371221,2019-09-08 10:13:57:845,-0.0739,0.3713,8.8727,-0.0115,0.0019,9.8066,-0.1697,0.2087,-0.0441,-12.12,-30.12,4.5,306.8,-77.08,-140.29
3684,52.40452,-1.546526,161.2,11.05,3,342.23,27 / 28,371321,2019-09-08 10:13:57:945,-0.0024,1.6999,9.4203,0.034,-0.0145,9.8066,-0.2262,0.1349,0.012,-12.44,-30.19,4.31,300.14,-77.11,-139.87
3685,52.40452,-1.546526,161.2,11.05,3,342.23,27 / 28,371421,2019-09-08 10:13:58:045,-1.3988,0.3953,9.825,0.0244,-0.0175,9.8065,0.1021,0.3189,-0.1671,-12.5,-29.56,4.5,307.28,-76.94,-139.68
3686,52.40452,-1.546526,161.2,11.05,3,342.23,27 / 28,371521,2019-09-08 10:13:58:145,1.5919,0.4773,9.1117,0.0427,-0.0053,9.8066,0.0103,0.0767,0.1178,-12.06,-30.19,4.44,297.72,-76.84,-140.86
3687,52.40452,-1.546526,161.2,11.05,3,342.23,27 / 28,371621,2019-09-08 10:13:58:245,-1.5704,0.4317,10.4201,-0.014,-0.0091,9.8066,0.1778,0.2167,-0.0174,-12.56,-30.31,4.56,305.6,-76.88,-140.86
3688,52.40452,-1.546526,161.2,11.05,3,342.23,27 / 28,371721,2019-09-08 10:13:58:345,-0.125,1.9704,9.1434,-0.0301,0.0025,9.8065,0.0946,-0.001,0.1658,-12.0,-29.44,5.13,306.99,-76.96,-140.79
3689,52.40452,-1.546526,161.2,11.05,3,342.23,26 / 28,371821,2019-09-08 10:13:58:445,-0.6739,1.3595,10.2437,0.0014,-0.0056,9.8065,0.0417,0.0944,-0.0662,-12.0,-30.12,4.69,306.28,-76.91,-140.24
3690,52.40452,-1.546526,161.2,11.05,3,342.23,26 / 28,371921,2019-09-08 10:13:58:545,0.0094,2.1684,10.1189,0.0049,0.0115,9.8066,0.0612,0.0704,-0.0228,-11.81,-30.19,5.25,305.83,-76.94,-140.61
3691,52.40452,-1.546526,161.2,11.05,3,342.23,26 / 28,372022,2019-09-08 10:13:58:646,-0.768,1.2706,9.1438,-0.074,-0.016,9.8063,0.1631,0.1702,-0.0613,-11.56,-30.12,4.56,307.57,-77.16,-139.96
3692,52.40452,-1.546526,161.2,11.05,3,342.23,26 / 28,372121,2019-09-08 10:13:58:745,-0.6141,2.029,10.2242,-0.0911,-0.0014,9.8061,0.1403,0.122,0.0129,-11.5,-30.0,4.94,307.55,-77.18,-139.85
3693,52.40452,-1.546526,161.2,11.05,3,342.23,26 / 28,372221,2019-09-08 10:13:58:845,0.9342,1.5005,8.9036,0.0396,-0.0045,9.8065,-0.2722,0.158,-0.0905,-11.31,-29.81,5.0,308.14,-77.23,-139.62
3694,52.40452,-1.546526,161.2,11.05,3,342.23,26 / 28,372321,2019-09-08 10:13:58:945,-1.8134,3.5266,9.1181,-0.0489,0.0116,9.8064,0.0588,0.1616,-0.0376,-11.19,-30.06,4.81,307.79,-77.16,-139.66
3695,52.40452,-1.546526,161.2,11.05,3,342.23,26 / 28,372422,2019-09-08 10:13:59:046,0.7278,3.266,10.2325,0.046,-0.0059,9.8065,-0.0831,0.118,-0.0308,-11.5,-30.06,5.19,309.55,-77.51,-139.39
3696,52.40452,-1.546526,161.2,11.05,3,342.23,26 / 28,372522,2019-09-08 10:13:59:146,-0.4944,3.343,9.6498,0.0385,-0.0055,9.8065,-0.0223,0.0565,-0.1111,-11.5,-29.94,5.44,308.04,-77.31,-139.85
3697,52.40452,-1.546526,161.2,11.05,3,342.23,26 / 28,372621,2019-09-08 10:13:59:245,1.1895,2.6696,8.5732,-0.0086,0.0129,9.8065,0.0742,0.1499,-0.0663,-11.75,-29.31,5.19,309.08,-77.36,-140.24
3698,52.40452,-1.546526,161.2,11.05,3,342.23,26 / 28,372722,2019-09-08 10:13:59:346,0.8537,1.408,9.909,-0.0234,0.0085,9.8065,0.1202,0.091,0.0694,-11.62,-29.56,6.19,314.99,-77.46,-140.56
3699,52.40452,-1.546526,161.2,11.05,3,342.23,26 / 28,372822,2019-09-08 10:13:59:446,-0.6206,2.0245,9.7525,-0.0004,0.0044,9.8066,-0.0649,0.1575,-0.0546,-10.87,-29.56,6.31,316.25,-77.56,-140.55
3700,52.40452,-1.546526,161.2,11.05,3,342.23,26 / 27,372921,2019-09-08 10:13:59:545,-0.6725,2.3659,9.8023,-0.0242,0.0105,9.8066,0.0923,0.0504,0.052,-10.25,-29.56,6.31,317.63,-77.69,-140.74
3701,52.40452,-1.546526,161.2,11.05,3,342.23,26 / 27,373021,2019-09-08 10:13:59:645,1.9938,2.5827,9.3691,0.0309,-0.0006,9.8065,-0.0809,0.1049,-0.0044,-10.06,-30.06,6.63,326.29,-77.69,-141.06
3702,52.40452,-1.546526,161.2,11.05,3,342.23,26 / 27,373121,2019-09-08 10:13:59:745,0.5093,2.5411,9.8713,0.0157,-0.0122,9.8066,-0.0464,0.1219,-0.0609,-10.06,-29.19,6.44,317.46,-77.6,-141.43
3703,52.40452,-1.546526,161.2,11.05,3,342.23,26 / 27,373221,2019-09-08 10:13:59:845,0.5568,2.2138,9.6566,-0.0201,0.0056,9.8066,0.0857,0.147,-0.0365,-10.0,-30.19,6.5,326.67,-77.8,-141.02
3704,52.40452,-1.546526,161.2,11.05,3,342.23,26 / 27,373321,2019-09-08 10:13:59:945,0.3134,2.8916,9.5385,-0.0021,0.0041,9.8066,0.0397,0.1402,-0.0896,-8.44,-29.94,6.81,334.51,-77.83,-141.28
3705,52.40452,-1.546526,161.2,11.05,3,342.23,26 / 27,373421,2019-09-08 10:14:00:045,0.0852,1.3411,9.4234,-0.0339,0.0266,9.8065,0.1162,0.2,-0.0244,-9.31,-30.37,6.81,328.83,-77.72,-141.52
3706,52.40452,-1.546526,161.2,11.05,3,342.23,26 / 27,373521,2019-09-08 10:14:00:145,2.2395,2.9171,9.3378,-0.0354,0.0045,9.8065,0.2081,0.2081,-0.0372,-8.44,-30.12,7.13,331.4,-77.73,-142.46
3707,52.40452,-1.546526,161.2,11.05,3,342.23,26 / 27,373621,2019-09-08 10:14:00:245,-0.9448,2.1349,9.7884,-0.0258,-0.0102,9.8065,0.1292,0.279,-0.195,-9.06,-29.44,7.56,337.27,-77.59,-142.31
3708,52.40452,-1.546526,161.2,11.05,3,342.23,26 / 27,373721,2019-09-08 10:14:00:345,2.2954,3.1568,9.4361,-0.0195,0.0027,9.8066,0.0174,0.1651,-0.0898,-9.12,-29.69,7.13,327.55,-77.57,-141.9
3709,52.40452,-1.546526,161.2,11.05,3,342.23,26 / 27,373821,2019-09-08 10:14:00:445,0.5019,1.6521,9.8638,-0.0485,0.0153,9.8065,0.0253,0.0655,0.0547,-8.56,-30.19,6.94,327.83,-77.66,-141.9
3710,52.40452,-1.546526,161.2,11.05,3,342.23,26 / 28,373921,2019-09-08 10:14:00:545,0.5482,1.4877,9.3387,-0.0141,0.0113,9.8066,-0.0268,0.0487,-0.0479,-8.75,-29.62,7.63,340.59,-77.87,-140.59
3711,52.40452,-1.546526,161.2,11.05,3,342.23,26 / 28,374021,2019-09-08 10:14:00:645,1.4881,2.1747,9.7104,0.0221,0.0025,9.8066,0.0391,0.0252,-0.0421,-9.37,-29.69,7.06,332.29,-77.97,-140.22
3712,52.40452,-1.546526,161.2,11.05,3,342.23,26 / 28,374121,2019-09-08 10:14:00:745,-0.2912,1.5504,10.2934,0.0209,0.0025,9.8066,0.0004,0.071,-0.0086,-8.75,-29.69,7.38,330.18,-77.94,-141.2
3713,52.40452,-1.546526,161.2,11.05,3,342.23,26 / 28,374221,2019-09-08 10:14:00:845,2.1146,1.2617,9.3694,0.0164,-0.021,9.8065,-0.0482,0.071,0.0041,-8.19,-29.37,7.5,346.18,-78.07,-141.25
3714,52.40452,-1.546526,161.2,11.05,3,342.23,26 / 28,374321,2019-09-08 10:14:00:945,1.0459,3.1684,10.0911,-0.0034,0.0138,9.8066,-0.0147,0.171,-0.0636,-8.0,-29.56,7.06,335.19,-78.04,-141.26
3715,52.40452,-1.546526,161.2,11.05,3,342.23,26 / 28,374421,2019-09-08 10:14:01:045,1.0434,1.2366,9.6892,0.0112,-0.0032,9.8065,-0.0627,0.0617,0.0214,-7.12,-29.56,7.31,341.8,-78.07,-141.53
3716,52.40452,-1.546526,161.2,11.05,3,342.23,26 / 28,374521,2019-09-08 10:14:01:145,3.9486,1.1194,9.1639,0.0021,0.0156,9.8066,0.0299,0.2847,-0.1869,-7.31,-30.19,8.63,0.9,-78.14,-141.73
3717,52.40452,-1.546526,161.2,11.05,3,342.23,26 / 28,374622,2019-09-08 10:14:01:246,2.8604,1.0934,8.7498,-0.0028,-0.0119,9.8066,-0.0254,-0.1297,0.1914,-6.94,-30.0,8.81,357.31,-78.31,-143.32
3718,52.40452,-1.546526,161.2,11.05,3,342.23,26 / 28,374722,2019-09-08 10:14:01:346,-1.0665,4.9482,9.1727,-0.0536,0.0229,9.8064,0.2262,0.3167,-0.3066,-7.25,-29.0,8.63,359.93,-78.21,-142.16
3719,52.40452,-1.546526,161.2,11.05,3,342.23,26 / 28,374822,2019-09-08 10:14:01:446,-1.5562,-0.6701,10.6842,0.004,-0.0507,9.8064,-0.0501,0.2364,-0.1008,-8.06,-29.75,8.63,349.67,-78.3,-143.28
3720,52.40452,-1.546526,161.2,11.05,3,342.23,24 / 26,374923,2019-09-08 10:14:01:547,-0.0354,1.162,9.8889,0.0055,-0.0097,9.8066,-0.0474,0.2344,-0.1179,-7.56,-29.19,9.25,349.7,-78.15,-143.38
3721,52.40452,-1.546526,161.2,11.05,3,342.23,24 / 26,375022,2019-09-08 10:14:01:646,2.8966,2.4053,9.7601,-0.0095,-0.0082,9.8066,0.144,0.1488,-0.0228,-7.62,-28.44,9.06,348.0,-78.3,-144.49
3722,52.40452,-1.546526,161.2,11.05,3,342.23,24 / 26,375122,2019-09-08 10:14:01:746,2.4502,2.2986,11.0182,-0.0223,0.0279,9.8066,0.277,0.132,-0.086,-6.75,-28.81,9.5,3.14,-78.35,-143.44
3723,52.40452,-1.546526,161.2,11.05,3,342.23,24 / 26,375221,2019-09-08 10:14:01:845,1.3671,-1.1019,9.9646,0.025,-0.0404,9.8064,-0.1368,0.2647,-0.0377,-6.56,-29.25,9.19,358.11,-78.66,-143.03
3724,52.40452,-1.546526,161.2,11.05,3,342.23,24 / 26,375321,2019-09-08 10:14:01:945,0.0421,1.2419,10.0355,0.0204,-0.0573,9.8064,-0.0998,0.0675,0.0924,-6.62,-28.81,9.5,1.9,-78.39,-144.06
3725,52.40452,-1.546526,161.2,11.05,3,342.23,24 / 26,375421,2019-09-08 10:14:02:045,2.2762,2.3155,8.7157,-0.0069,0.0331,9.8065,0.0838,0.0631,0.0312,-6.25,-29.25,9.94,10.24,-78.47,-144.08
3726,52.40452,-1.546526,161.2,11.05,3,342.23,24 / 26,375521,2019-09-08 10:14:02:145,1.0516,0.086,10.1757,-0.0064,0.0297,9.8065,0.0549,0.049,-0.0042,-6.87,-29.19,9.94,1.82,-78.43,-144.09
3727,52.40452,-1.546526,161.2,11.05,3,342.23,24 / 26,375621,2019-09-08 10:14:02:245,-0.1593,1.7813,10.0693,-0.0003,0.0139,9.8066,-0.0242,0.0587,0.0609,-6.69,-29.12,9.06,356.39,-78.58,-143.85
3728,52.40452,-1.546526,161.2,11.05,3,342.23,24 / 26,375721,2019-09-08 10:14:02:345,2.0518,0.7102,10.1411,-0.0067,0.0141,9.8065,0.0743,0.1419,-0.0667,-5.87,-28.87,10.13,10.76,-78.81,-143.65
3729,52.40452,-1.546526,161.2,11.05,3,342.23,24 / 26,375821,2019-09-08 10:14:02:445,0.7441,1.9364,10.0759,-0.0135,0.0021,9.8066,-0.12,0.0382,-0.0497,-6.06,-28.44,9.81,10.29,-78.76,-143.74
3730,52.40452,-1.546526,161.2,11.05,3,342.23,23 / 27,375921,2019-09-08 10:14:02:545,1.4219,-0.5225,8.8355,-0.02,0.0501,9.8064,0.1214,0.0358,0.0037,-6.0,-28.37,10.19,12.08,-78.84,-142.76
3731,52.40452,-1.546526,161.2,11.05,3,342.23,23 / 27,376022,2019-09-08 10:14:02:646,1.4054,0.7832,10.1465,0.0148,-0.0389,9.8065,-0.1385,-0.0038,0.0136,-5.94,-29.06,10.0,12.11,-78.46,-143.16
3732,52.40452,-1.546526,161.2,11.05,3,342.23,23 / 27,376121,2019-09-08 10:14:02:745,0.4229,0.2415,10.4638,0.0088,-0.0248,9.8065,-0.1036,0.0194,0.0307,-6.0,-29.19,10.56,15.42,-78.49,-143.32
3733,52.40452,-1.546526,161.2,11.05,3,342.23,23 / 27,376222,2019-09-08 10:14:02:846,0.111,1.5562,8.4996,0.0214,0.0248,9.8065,-0.1344,0.1149,-0.0247,-6.12,-28.87,11.19,16.17,-78.48,-142.94
3734,52.40452,-1.546526,161.2,11.05,3,342.23,23 / 27,376322,2019-09-08 10:14:02:946,0.3193,-0.6153,9.1058,-0.0015,0.0022,9.8066,-0.0569,0.0323,0.0938,-6.37,-29.06,10.63,15.03,-78.81,-143.33
3735,52.40452,-1.546526,161.2,11.05,3,342.23,23 / 27,376421,2019-09-08 10:14:03:045,0.9116,1.2906,10.0261,-0.0009,0.023,9.8065,0.0758,0.0098,0.0471,-5.81,-29.31,10.69,14.71,-78.8,-143.51
3736,52.40452,-1.546526,161.2,11.05,3,342.23,23 / 27,376521,2019-09-08 10:14:03:145,1.0568,-2.0063,10.6091,-0.0055,0.0132,9.8066,0.2325,-0.0197,0.0363,-6.25,-29.19,10.88,14.81,-78.84,-143.43
3737,52.40452,-1.546526,161.2,11.05,3,342.23,23 / 27,376622,2019-09-08 10:14:03:246,0.3349,-0.3586,10.9949,0.011,-0.0495,9.8065,-0.0617,0.0502,-0.1034,-6.06,-29.75,10.69,13.98,-78.43,-144.35
3738,52.40452,-1.546526,161.2,11.05,3,342.23,23 / 27,376722,2019-09-08 10:14:03:346,0.0335,1.3116,10.6154,0.0063,-0.0079,9.8066,0.0315,-0.0023,0.0882,-6.0,-29.0,11.44,13.24,-78.51,-144.47
3739,52.40452,-1.546526,161.2,11.05,3,342.23,23 / 27,376822,2019-09-08 10:14:03:446,0.8173,0.9319,8.7093,0.0038,0.0576,9.8064,-0.1985,-0.0322,0.0638,-5.87,-29.69,10.88,15.54,-78.35,-143.61
3740,52.40452,-1.546526,161.2,11.05,3,342.23,24 / 26,376921,2019-09-08 10:14:03:545,1.9226,2.2049,8.2938,-0.0136,0.016,9.8066,-0.0467,0.1397,-0.0985,-6.12,-29.0,11.63,18.14,-78.75,-143.18
3741,52.40452,-1.546526,161.2,11.05,3,342.23,24 / 26,377021,2019-09-08 10:14:03:645,0.549,-1.2854,8.5294,0.0029,0.0372,9.8065,0.1476,0.1215,-0.0821,-6.44,-29.44,11.0,13.93,-78.57,-144.07
3742,52.40452,-1.546526,161.2,11.05,3,342.23,24 / 26,377121,2019-09-08 10:14:03:745,-0.6815,1.9211,10.4321,-0.0049,0.0288,9.8065,0.0381,-0.0389,0.0353,-6.75,-29.5,11.13,5.17,-78.72,-144.71
3743,52.40452,-1.546526,161.2,11.05,3,342.23,24 / 26,377221,2019-09-08 10:14:03:845,0.6719,-1.1276,10.3599,0.0241,-0.052,9.8064,-0.1691,0.1066,-0.0098,-5.81,-29.31,11.13,10.53,-78.5,-145.91
3744,52.40452,-1.546526,161.2,11.05,3,342.23,24 / 26,377321,2019-09-08 10:14:03:945,0.6479,0.2096,11.0098,0.0269,-0.1074,9.8059,-0.2793,0.191,-0.0678,-5.94,-29.62,10.75,10.41,-78.38,-146.19
3745,52.40452,-1.546526,161.2,11.05,3,342.23,24 / 26,377421,2019-09-08 10:14:04:045,0.2279,0.8038,8.6303,-0.0323,0.0734,9.8063,0.1416,0.2009,-0.0659,-5.69,-29.19,11.75,12.85,-78.5,-146.34
3746,52.40452,-1.546526,161.2,11.05,3,342.23,24 / 26,377521,2019-09-08 10:14:04:145,1.8851,0.1969,8.9497,-0.0063,0.0213,9.8065,-0.028,0.0988,0.013,-5.94,-29.12,11.56,13.94,-78.82,-145.55
3747,52.40452,-1.546526,161.2,11.05,3,342.23,24 / 26,377621,2019-09-08 10:14:04:245,0.4669,-0.2485,9.2236,-0.0102,0.0192,9.8066,0.1109,0.0815,0.0308,-5.81,-28.5,11.44,10.76,-78.85,-145.46
3748,52.40452,-1.546526,161.2,11.05,3,342.23,24 / 26,377721,2019-09-08 10:14:04:345,1.7784,0.6937,9.6593,-0.0078,0.0058,9.8066,0.0727,0.1445,-0.0449,-6.69,-28.06,10.5,4.83,-78.87,-144.79
3749,52.40452,-1.546526,161.2,11.05,3,342.23,24 / 26,377821,2019-09-08 10:14:04:445,0.6126,1.3854,9.206,-0.0039,0.0133,9.8066,-0.0379,0.0757,-0.0123,-5.81,-28.56,10.75,12.36,-78.73,-144.82
3750,52.40452,-1.546526,161.2,11.05,3,342.23,23 / 25,377922,2019-09-08 10:14:04:546,1.8244,3.7956,9.1761,-0.0078,0.0,9.8066,-0.128,-0.033,-0.0542,-5.69,-29.19,11.31,12.26,-78.63,-144.93
3751,52.40452,-1.546526,161.2,11.05,3,342.23,23 / 25,378021,2019-09-08 10:14:04:645,2.4954,0.9419,8.7789,-0.0053,0.0342,9.8065,0.0749,0.0368,0.066,-6.19,-28.87,11.81,16.03,-78.52,-144.54
3752,52.40452,-1.546526,161.2,11.05,3,342.23,23 / 25,378122,2019-09-08 10:14:04:746,0.5745,3.2859,8.8689,-0.0047,0.0332,9.8065,-0.0641,0.158,0.1687,-5.81,-29.19,11.56,16.62,-78.47,-144.25
3753,52.40452,-1.546526,161.2,11.05,3,342.23,23 / 25,378222,2019-09-08 10:14:04:846,1.4454,-1.2044,7.8835,-0.0252,0.0796,9.8062,-0.0005,0.0123,-0.1509,-6.19,-29.62,11.88,16.8,-78.16,-144.6
3754,52.40452,-1.546526,161.2,11.05,3,342.23,23 / 25,378322,2019-09-08 10:14:04:946,0.5229,2.2736,10.0916,-0.0049,0.036,9.8066,-0.0025,-0.0405,-0.1703,-6.5,-29.69,12.0,19.25,-78.56,-142.97
3755,52.40452,-1.546526,161.2,11.05,3,342.23,23 / 25,378421,2019-09-08 10:14:05:045,1.9256,-1.5643,9.0602,0.0052,0.0501,9.8064,0.2057,-0.1407,0.046,-5.81,-29.12,12.63,18.35,-78.44,-144.58
3756,52.40452,-1.546526,161.2,11.05,3,342.23,23 / 25,378522,2019-09-08 10:14:05:146,-0.0681,4.2424,9.4181,0.0251,-0.0171,9.8065,-0.3141,0.1124,-0.1116,-5.81,-29.37,12.5,16.87,-78.33,-145.53
3757,52.40452,-1.546526,161.2,11.05,3,342.23,23 / 25,378622,2019-09-08 10:14:05:246,0.7925,1.7663,9.3005,-0.0147,0.0049,9.8066,0.3037,0.1172,-0.0326,-5.0,-28.87,13.0,22.66,-78.54,-145.91
3758,52.40452,-1.546526,161.2,11.05,3,342.23,23 / 25,378722,2019-09-08 10:14:05:346,0.8616,2.628,9.5034,-0.0051,0.0247,9.8066,0.0573,0.1153,-0.0478,-6.0,-29.19,12.56,14.8,-78.61,-146.58
3759,52.40452,-1.546526,161.2,11.05,3,342.23,23 / 25,378822,2019-09-08 10:14:05:446,0.6206,0.5406,9.5023,0.0007,0.0015,9.8066,-0.0452,0.1075,-0.0014,-5.69,-29.19,12.56,14.76,-78.75,-146.52
3760,52.40522,-1.547738,161.15,13.63,4,295.83,25 / 27,378921,2019-09-08 10:14:05:545,0.0259,2.072,10.0131,-0.0225,0.0088,9.8065,0.0802,0.0098,0.0927,-5.81,-29.56,12.25,14.25,-78.87,-145.54
3761,52.40522,-1.547738,161.15,13.63,4,295.83,25 / 27,379022,2019-09-08 10:14:05:646,0.462,-0.3488,10.3793,0.0029,-0.0529,9.8064,-0.0485,-0.0067,-0.0044,-5.37,-29.25,13.25,24.36,-78.82,-144.63
3762,52.40522,-1.547738,161.15,13.63,4,295.83,25 / 27,379122,2019-09-08 10:14:05:746,1.3436,0.2544,10.1439,-0.0014,-0.036,9.8065,0.0069,0.1412,-0.0109,-5.44,-29.19,12.69,23.96,-78.47,-145.19
3763,52.40522,-1.547738,161.15,13.63,4,295.83,25 / 27,379221,2019-09-08 10:14:05:845,0.6882,-0.3611,10.0977,-0.0047,0.0036,9.8066,-0.0322,0.0468,0.0223,-5.44,-28.25,12.88,23.83,-78.41,-144.99
3764,52.40522,-1.547738,161.15,13.63,4,295.83,25 / 27,379321,2019-09-08 10:14:05:945,0.3297,-0.2056,9.945,-0.0059,0.0061,9.8066,0.0241,0.0213,-0.0058,-5.12,-29.56,12.56,25.8,-78.48,-144.44
3765,52.40522,-1.547738,161.15,13.63,4,295.83,25 / 27,379421,2019-09-08 10:14:06:045,0.8078,-0.0118,9.7115,0.004,-0.0157,9.8066,-0.0638,0.0805,-0.0428,-5.87,-29.06,13.0,19.12,-78.63,-143.98
3766,52.40522,-1.547738,161.15,13.63,4,295.83,25 / 27,379521,2019-09-08 10:14:06:145,0.5869,0.8098,9.8996,0.0068,0.0003,9.8066,-0.0114,0.0002,0.0771,-5.75,-29.12,13.25,18.93,-78.64,-144.09
3767,52.40522,-1.547738,161.15,13.63,4,295.83,25 / 27,379621,2019-09-08 10:14:06:245,2.6619,1.46,9.2923,0.018,-0.0137,9.8065,-0.0676,-0.0558,0.0782,-5.25,-29.69,13.25,25.52,-78.75,-144.34
3768,52.40522,-1.547738,161.15,13.63,4,295.83,25 / 27,379721,2019-09-08 10:14:06:345,0.6937,-0.5868,9.7197,-0.0032,-0.0125,9.8066,0.028,0.0797,-0.0598,-6.0,-29.44,13.31,17.94,-78.67,-144.67
3769,52.40522,-1.547738,161.15,13.63,4,295.83,25 / 27,379821,2019-09-08 10:14:06:445,1.9341,1.0735,8.9702,0.0111,0.016,9.8065,0.0825,0.0144,-0.0108,-5.06,-29.31,13.19,22.6,-78.89,-145.64
3770,52.40522,-1.547738,161.15,13.63,4,295.83,24 / 27,379921,2019-09-08 10:14:06:545,0.5817,-0.0094,10.0936,0.0083,0.013,9.8065,-0.0084,0.0091,0.0079,-4.62,-29.19,14.0,23.03,-78.92,-146.16
3771,52.40522,-1.547738,161.15,13.63,4,295.83,24 / 27,380021,2019-09-08 10:14:06:645,1.6825,-0.1846,9.7041,0.018,-0.0023,9.8066,-0.0766,-0.0162,0.0053,-4.87,-29.25,13.31,21.06,-78.99,-146.49
3772,52.40522,-1.547738,161.15,13.63,4,295.83,24 / 27,380122,2019-09-08 10:14:06:746,-0.5112,0.3531,9.8263,0.0034,0.0086,9.8066,-0.0245,0.099,-0.0365,-5.37,-29.37,13.75,20.74,-79.04,-147.51
3773,52.40522,-1.547738,161.15,13.63,4,295.83,24 / 27,380221,2019-09-08 10:14:06:845,0.1487,1.065,9.9808,0.0033,-0.029,9.8066,-0.0388,0.0484,0.0602,-4.94,-29.5,14.25,19.53,-79.08,-148.26
3774,52.40522,-1.547738,161.15,13.63,4,295.83,24 / 27,380321,2019-09-08 10:14:06:945,0.4083,0.8295,9.8748,0.0087,-0.0058,9.8066,-0.0023,0.0469,0.0388,-4.81,-29.62,13.44,17.53,-78.95,-148.89
3775,52.40522,-1.547738,161.15,13.63,4,295.83,24 / 27,380421,2019-09-08 10:14:07:045,0.77,-0.2478,10.164,0.0057,-0.0352,9.8065,-0.0725,0.0451,-0.0288,-4.94,-29.06,14.5,19.5,-78.81,-149.24
3776,52.40522,-1.547738,161.15,13.63,4,295.83,24 / 27,380521,2019-09-08 10:14:07:145,1.2042,0.7726,10.0113,0.0086,-0.0403,9.8065,-0.1057,0.0476,-0.0409,-5.06,-29.12,14.13,18.27,-78.82,-149.22
3777,52.40522,-1.547738,161.15,13.63,4,295.83,24 / 27,380621,2019-09-08 10:14:07:245,1.198,0.5361,9.8895,0.0093,-0.014,9.8066,0.0046,0.0093,0.0546,-4.5,-28.75,14.44,23.92,-78.98,-149.44
3778,52.40522,-1.547738,161.15,13.63,4,295.83,24 / 27,380721,2019-09-08 10:14:07:345,0.4462,-0.2657,9.7211,0.0092,-0.0221,9.8066,-0.09,0.0237,0.0142,-4.62,-29.69,14.38,16.82,-78.99,-150.23
3779,52.40522,-1.547738,161.15,13.63,4,295.83,27 / 29,380822,2019-09-08 10:14:07:446,-0.1482,0.4741,10.1783,0.0118,0.0027,9.8066,-0.0093,0.0736,-0.0958,-4.62,-29.5,14.06,16.02,-79.17,-150.41
3780,52.40522,-1.547738,161.15,13.63,4,295.83,27 / 29,380922,2019-09-08 10:14:07:546,0.9168,0.8445,10.1645,0.0052,-0.0338,9.8065,-0.0073,0.054,-0.0052,-4.56,-28.56,14.13,14.89,-79.21,-151.1
3781,52.40522,-1.547738,161.15,13.63,4,295.83,27 / 29,381021,2019-09-08 10:14:07:645,1.4171,-0.6282,9.8157,0.0129,-0.0133,9.8066,0.0272,0.0337,0.0338,-4.31,-28.69,14.75,20.55,-79.22,-151.91
3782,52.40522,-1.547738,161.15,13.63,4,295.83,27 / 29,381122,2019-09-08 10:14:07:746,1.0674,0.0101,9.4426,-0.0031,-0.0171,9.8066,-0.0278,0.0653,0.015,-4.44,-29.12,14.5,19.39,-79.1,-152.75
3783,52.40522,-1.547738,161.15,13.63,4,295.83,27 / 29,381221,2019-09-08 10:14:07:845,0.6603,0.2419,9.5173,0.0096,0.0152,9.8066,-0.0096,0.0519,-0.1045,-4.25,-28.62,14.63,19.54,-79.08,-152.67
3784,52.40522,-1.547738,161.15,13.63,4,295.83,27 / 29,381321,2019-09-08 10:14:07:945,0.5267,0.3848,9.9918,0.0064,-0.009,9.8065,-0.0415,0.0364,-0.029,-4.69,-29.12,14.31,11.69,-79.28,-153.08
3785,52.40522,-1.547738,161.15,13.63,4,295.83,27 / 29,381421,2019-09-08 10:14:08:045,0.5961,0.3524,9.5394,0.0014,0.007,9.8066,0.0171,0.0375,0.0057,-4.75,-28.94,15.25,12.75,-79.48,-153.27
3786,52.40522,-1.547738,161.15,13.63,4,295.83,27 / 29,381521,2019-09-08 10:14:08:145,0.9573,0.4752,10.0041,0.0114,0.0095,9.8065,0.0523,0.0431,0.0304,-3.94,-28.62,15.06,17.34,-79.51,-153.82
3787,52.40522,-1.547738,161.15,13.63,4,295.83,27 / 29,381621,2019-09-08 10:14:08:245,0.949,-0.3008,9.4018,0.0035,-0.0077,9.8065,-0.1088,-0.0167,0.0009,-4.12,-29.25,15.31,17.48,-79.49,-153.74
3788,52.40522,-1.547738,161.15,13.63,4,295.83,27 / 29,381721,2019-09-08 10:14:08:345,0.5608,0.3117,9.8302,0.0075,0.0131,9.8065,-0.0644,-0.0089,-0.0205,-4.5,-28.81,14.88,17.33,-79.52,-153.83
3789,52.40522,-1.547738,161.15,13.63,4,295.83,24 / 27,381822,2019-09-08 10:14:08:446,-1.1005,-2.0429,10.7174,-0.0074,0.0204,9.8065,0.0384,-0.0295,0.0607,-4.31,-28.37,14.81,17.54,-79.73,-153.36
3790,52.40522,-1.547738,161.15,13.63,4,295.83,24 / 27,381921,2019-09-08 10:14:08:545,0.8792,-0.4962,10.3675,0.0102,-0.0271,9.8066,0.0056,0.0212,0.0016,-4.44,-28.62,14.69,18.81,-79.61,-152.8
3791,52.40522,-1.547738,161.15,13.63,4,295.83,24 / 27,382021,2019-09-08 10:14:08:645,-1.5241,-0.8569,10.2993,-0.0002,-0.0168,9.8066,-0.0793,0.0865,-0.0948,-4.69,-28.5,14.5,12.18,-79.39,-153.53
3792,52.40522,-1.547738,161.15,13.63,4,295.83,24 / 27,382122,2019-09-08 10:14:08:746,-1.3079,-0.9102,10.1521,-0.0228,0.0149,9.8065,-0.1786,-0.0596,0.0394,-4.69,-28.81,14.94,12.24,-79.26,-153.69
3793,52.40522,-1.547738,161.15,13.63,4,295.83,24 / 27,382221,2019-09-08 10:14:08:845,-0.1295,1.3839,9.0938,0.0085,0.0339,9.8065,0.0472,-0.0143,0.0278,-4.12,-29.12,15.06,17.78,-79.5,-153.55
3794,52.40522,-1.547738,161.15,13.63,4,295.83,24 / 27,382322,2019-09-08 10:14:08:946,0.7415,-0.8847,10.1633,0.024,-0.0324,9.8065,0.1623,0.056,-0.1125,-4.75,-28.56,15.69,12.35,-79.37,-154.42
3795,52.40522,-1.547738,161.15,13.63,4,295.83,24 / 27,382421,2019-09-08 10:14:09:045,0.9552,2.9431,11.4687,-0.0029,-0.0293,9.8065,0.0498,0.0499,-0.1193,-4.25,-28.87,15.44,16.07,-79.31,-154.78
3796,52.40522,-1.547738,161.15,13.63,4,295.83,24 / 27,382521,2019-09-08 10:14:09:145,1.7642,0.2472,9.6435,0.004,-0.0086,9.8066,-0.0276,0.0763,-0.0617,-4.12,-28.87,14.88,15.43,-79.34,-155.17
3797,52.40522,-1.547738,161.15,13.63,4,295.83,24 / 27,382621,2019-09-08 10:14:09:245,0.9824,0.0982,10.0505,-0.0093,0.0027,9.8066,-0.0109,-0.0324,0.1256,-4.25,-29.5,15.5,17.74,-79.29,-154.24
3798,52.40522,-1.547738,161.15,13.63,4,295.83,24 / 27,382722,2019-09-08 10:14:09:346,-0.1933,0.8118,10.5194,-0.0117,-0.0114,9.8066,-0.1912,-0.0193,0.0922,-4.5,-28.94,16.06,17.91,-79.48,-154.01
3799,52.40522,-1.547738,161.15,13.63,4,295.83,23 / 25,382822,2019-09-08 10:14:09:446,-0.5531,0.858,9.5547,0.0201,-0.0097,9.8065,-0.0211,-0.1222,0.2086,-4.56,-29.06,15.69,12.24,-79.39,-154.48
3800,52.40522,-1.547738,161.15,13.63,4,295.83,23 / 25,382921,2019-09-08 10:14:09:545,1.3269,0.639,10.8261,0.0221,0.0162,9.8065,-0.1893,0.0503,0.0799,-4.0,-28.37,15.25,16.03,-79.24,-154.65
3801,52.40522,-1.547738,161.15,13.63,4,295.83,23 / 25,383021,2019-09-08 10:14:09:645,0.2082,1.5907,10.2034,-0.0167,0.0295,9.8065,-0.0191,-0.0219,-0.0283,-3.37,-28.44,14.88,22.39,-79.4,-154.04
3802,52.40522,-1.547738,161.15,13.63,4,295.83,23 / 25,383121,2019-09-08 10:14:09:745,0.9913,-0.2338,10.2665,-0.0005,-0.0202,9.8066,0.0166,-0.0523,0.0132,-4.06,-28.44,14.81,18.47,-79.43,-152.92
3803,52.40522,-1.547738,161.15,13.63,4,295.83,23 / 25,383221,2019-09-08 10:14:09:845,0.0162,-0.81,9.8446,0.0116,0.0073,9.8066,0.0352,-0.0018,0.0381,-4.37,-29.31,15.06,18.82,-79.45,-152.89
3804,52.40522,-1.547738,161.15,13.63,4,295.83,23 / 25,383322,2019-09-08 10:14:09:946,-0.5036,-0.1422,9.9452,0.0054,0.0145,9.8065,-0.0456,-0.0297,0.0857,-4.19,-29.06,15.0,20.07,-79.33,-152.15
3805,52.40522,-1.547738,161.15,13.63,4,295.83,23 / 25,383421,2019-09-08 10:14:10:045,1.1114,-0.4625,9.4547,-0.0075,0.0028,9.8066,0.0405,0.0725,0.0432,-4.62,-28.81,15.06,14.74,-79.45,-151.98
3806,52.40522,-1.547738,161.15,13.63,4,295.83,23 / 25,383521,2019-09-08 10:14:10:145,-0.4884,1.1266,10.5571,-0.0204,0.0117,9.8066,0.087,0.0315,-0.0479,-4.0,-28.37,15.31,21.69,-79.33,-150.83
3807,52.40522,-1.547738,161.15,13.63,4,295.83,23 / 25,383621,2019-09-08 10:14:10:245,0.4982,1.0148,10.5341,0.0113,-0.0244,9.8065,0.0143,-0.0295,0.0352,-4.31,-28.87,15.25,21.65,-79.11,-151.27
3808,52.40522,-1.547738,161.15,13.63,4,295.83,23 / 25,383721,2019-09-08 10:14:10:345,0.2812,-0.2321,8.8415,-0.0119,0.0116,9.8066,0.0247,-0.0027,-0.0178,-4.62,-29.37,15.56,17.75,-78.87,-151.06
3809,52.40522,-1.547738,161.15,13.63,4,295.83,24 / 26,383821,2019-09-08 10:14:10:445,0.6434,1.0943,10.198,-0.0011,0.0077,9.8066,-0.0861,-0.0739,0.017,-4.69,-28.44,15.38,17.52,-78.84,-150.29
3810,52.40522,-1.547738,161.15,13.63,4,295.83,24 / 26,383921,2019-09-08 10:14:10:545,1.7116,1.0941,9.0208,0.0181,0.0271,9.8065,0.108,-0.0901,0.1802,-5.37,-28.75,15.25,18.05,-79.1,-150.0
3811,52.40522,-1.547738,161.15,13.63,4,295.83,24 / 26,384022,2019-09-08 10:14:10:646,-0.3695,0.2239,9.4973,0.0024,0.041,9.8065,0.1449,-0.0093,0.1147,-5.0,-28.44,15.69,18.63,-79.08,-150.14
3812,52.40522,-1.547738,161.15,13.63,4,295.83,24 / 26,384121,2019-09-08 10:14:10:745,1.519,0.4317,9.387,-0.0043,0.0235,9.8065,0.042,-0.0879,0.0705,-4.94,-29.31,15.13,17.77,-79.06,-150.2
3813,52.40522,-1.547738,161.15,13.63,4,295.83,24 / 26,384221,2019-09-08 10:14:10:845,-1.2247,2.4378,10.2786,-0.0295,-0.0122,9.8066,-0.0212,0.0789,-0.018,-4.62,-29.19,14.94,20.28,-79.02,-148.59
3814,52.40522,-1.547738,161.15,13.63,4,295.83,24 / 26,384321,2019-09-08 10:14:10:945,0.7606,0.1707,9.6071,0.0082,-0.0675,9.8064,-0.1366,0.1165,-0.1234,-4.81,-28.81,15.25,20.16,-79.34,-148.46
3815,52.40522,-1.547738,161.15,13.63,4,295.83,24 / 26,384422,2019-09-08 10:14:11:046,-1.9265,0.8481,10.6208,0.0217,-0.0602,9.8064,-0.0921,-0.0173,0.1372,-5.06,-28.94,15.56,18.9,-78.78,-150.36
3816,52.40522,-1.547738,161.15,13.63,4,295.83,24 / 26,384521,2019-09-08 10:14:11:145,0.2464,0.2952,10.0919,0.0192,0.0251,9.8066,-0.0237,0.001,0.0163,-5.06,-29.19,16.19,17.29,-78.88,-151.36
3817,52.40522,-1.547738,161.15,13.63,4,295.83,24 / 26,384621,2019-09-08 10:14:11:245,-0.0413,1.1041,9.337,-0.0037,0.0322,9.8065,-0.0357,0.0037,-0.0763,-4.81,-28.75,16.19,16.99,-78.91,-151.55
3818,52.40522,-1.547738,161.15,13.63,4,295.83,24 / 26,384721,2019-09-08 10:14:11:345,0.0695,-1.0518,10.0621,0.0137,-0.0162,9.8066,-0.0364,0.0225,-0.0623,-4.12,-28.25,15.56,21.47,-78.97,-151.7
3819,52.40522,-1.547738,161.15,13.63,4,295.83,24 / 26,384821,2019-09-08 10:14:11:445,-0.039,1.2154,9.359,0.0159,-0.0168,9.8066,-0.09,-0.046,0.0241,-4.75,-28.81,14.94,15.01,-79.1,-151.98
3820,52.40522,-1.547738,161.15,13.63,4,295.83,22 / 25,384922,2019-09-08 10:14:11:546,-0.1637,-0.5803,9.8948,-0.0057,0.0168,9.8066,0.0889,-0.0584,0.0189,-4.5,-28.75,15.44,19.57,-79.03,-152.68
3821,52.40522,-1.547738,161.15,13.63,4,295.83,22 / 25,385022,2019-09-08 10:14:11:646,-0.8917,-0.1866,10.2304,-0.0087,-0.0098,9.8066,0.1171,-0.0328,0.0718,-4.0,-28.37,15.56,20.78,-79.05,-152.12
3822,52.40522,-1.547738,161.15,13.63,4,295.83,22 / 25,385122,2019-09-08 10:14:11:746,0.0103,0.093,9.8001,-0.0167,-0.0272,9.8066,-0.1249,0.0301,0.0102,-3.69,-27.75,15.69,22.02,-78.95,-151.34
3823,52.40522,-1.547738,161.15,13.63,4,295.83,22 / 25,385222,2019-09-08 10:14:11:846,-0.3548,0.5339,10.2718,0.0039,0.003,9.8066,-0.0144,-0.0067,0.0381,-4.31,-28.37,15.25,21.74,-79.05,-151.0
3824,52.40522,-1.547738,161.15,13.63,4,295.83,22 / 25,385321,2019-09-08 10:14:11:945,0.1207,1.7756,9.2154,0.0087,-0.0112,9.8065,-0.193,-0.0172,0.0432,-4.94,-28.81,15.0,17.0,-79.08,-150.7
3825,52.40522,-1.547738,161.15,13.63,4,295.83,22 / 25,385421,2019-09-08 10:14:12:045,1.0142,-1.2225,9.9105,0.0104,0.0012,9.8066,-0.2149,0.0391,-0.103,-5.0,-29.0,14.81,16.29,-79.04,-151.17
3826,52.40522,-1.547738,161.15,13.63,4,295.83,22 / 25,385521,2019-09-08 10:14:12:145,0.401,2.6635,9.2562,-0.0022,0.048,9.8065,0.0649,-0.0208,0.0461,-5.19,-29.25,14.56,15.18,-79.23,-151.8
3827,52.40522,-1.547738,161.15,13.63,4,295.83,22 / 25,385622,2019-09-08 10:14:12:246,1.0251,-0.5109,8.8664,-0.0167,0.0255,9.8065,0.1277,0.0385,-0.0106,-5.69,-29.56,15.81,12.99,-79.53,-150.78
3828,52.40522,-1.547738,161.15,13.63,4,295.83,22 / 25,385722,2019-09-08 10:14:12:346,0.2236,1.1213,10.018,-0.0233,0.0451,9.8065,0.162,-0.0594,0.05,-5.56,-28.69,15.0,13.67,-79.49,-149.19
3829,52.40522,-1.547738,161.15,13.63,4,295.83,22 / 26,385822,2019-09-08 10:14:12:446,0.8379,1.608,10.1044,-0.0192,0.0422,9.8065,0.2528,-0.001,-0.0592,-4.06,-28.44,14.75,24.63,-79.29,-148.87
