,GPS LATITUDE (degrees),GPS LONGITUDE (degrees), GPS ALTITUDE (m),GPS SPEED (Kmh),GPS ACCURACY (m),GPS ORIENTATION (Â°), SATELLITES IN RANGE, TIME SINCE START (ms), DATE (YYYY-MO-DD HH-MI-SS_SSS),ACCELEROMETER X (m/s²) , ACCELEROMETER Y (m/s²), ACCELEROMETER Z (m/s²), GRAVITY X (m/s²), GRAVITY Y (m/s²), GRAVITY Z (m/s²), GYROSCOPE Yaw (rad/s), GYROSCOPE Pitch (rad/s), GYROSCOPE Roll (rad/s)
23040,47.57228,-1.631852,137.59,29.38,16.08,16.8,0 / 23,634655,2019-08-12 16:43:15:097,-0.0219,0.2042,9.9561,0.0294,0.1399,9.8056,0.0069,-0.0064,-0.002
23041,47.57228,-1.631852,137.59,29.38,16.08,16.8,0 / 23,634750,2019-08-12 16:43:15:192,-0.0219,0.2042,9.9561,0.0294,0.1399,9.8056,0.0069,-0.0064,-0.002
23042,47.57228,-1.631852,137.59,29.38,16.08,16.8,0 / 23,635126,2019-08-12 16:43:15:568,-0.0219,0.2042,9.9561,0.0294,0.1399,9.8056,0.0069,-0.0064,-0.002
23043,47.57228,-1.631852,137.59,29.38,16.08,16.8,0 / 23,635127,2019-08-12 16:43:15:569,-0.0219,0.2042,9.9561,0.0294,0.1399,9.8056,0.0069,-0.0064,-0.002
23044,47.57228,-1.631852,137.59,29.38,16.08,16.8,0 / 23,635127,2019-08-12 16:43:15:569,-0.0219,0.2042,9.9561,0.0294,0.1399,9.8056,0.0069,-0.0064,-0.002
23045,47.57228,-1.631852,137.59,29.38,16.08,16.8,0 / 23,635128,2019-08-12 16:43:15:570,-0.0219,0.2042,9.9561,0.0294,0.1399,9.8056,0.0069,-0.0064,-0.002
23046,47.57228,-1.631852,137.59,29.38,16.08,16.8,0 / 23,635128,2019-08-12 16:43:15:570,-0.0219,0.2042,9.9561,0.0294,0.1399,9.8056,0.0069,-0.0064,-0.002
23047,47.57228,-1.631852,137.59,29.38,16.08,16.8,0 / 23,635129,2019-08-12 16:43:15:571,-0.0219,0.2042,9.9561,0.0294,0.1399,9.8056,0.0069,-0.0064,-0.002
23048,47.57228,-1.631852,137.59,29.38,16.08,16.8,0 / 23,635129,2019-08-12 16:43:15:571,-0.0219,0.2042,9.9561,0.0294,0.1399,9.8056,0.0069,-0.0064,-0.002
23049,47.57228,-1.631852,137.59,29.38,16.08,16.8,0 / 23,635129,2019-08-12 16:43:15:571,-0.0219,0.2042,9.9561,0.0294,0.1399,9.8056,0.0069,-0.0064,-0.002
23050,47.57228,-1.631852,137.59,29.38,16.08,16.8,0 / 23,635147,2019-08-12 16:43:15:589,-0.0219,0.2042,9.9561,0.0294,0.1399,9.8056,0.0069,-0.0064,-0.002
23051,47.57228,-1.631852,137.59,29.38,16.08,16.8,13 / 23,635247,2019-08-12 16:43:15:689,-0.0219,0.2042,9.9561,0.0294,0.1399,9.8056,0.0069,-0.0064,-0.002
23052,47.57228,-1.631852,137.59,29.38,16.08,16.8,0 / 23,635612,2019-08-12 16:43:16:054,-0.0219,0.2042,9.9561,0.0294,0.1399,9.8056,0.0069,-0.0064,-0.002
23053,47.57228,-1.631852,137.59,29.38,16.08,16.8,0 / 23,635613,2019-08-12 16:43:16:055,-0.0219,0.2042,9.9561,0.0294,0.1399,9.8056,0.0069,-0.0064,-0.002
23054,47.57228,-1.631852,137.59,29.38,16.08,16.8,0 / 23,635613,2019-08-12 16:43:16:055,-0.0219,0.2042,9.9561,0.0294,0.1399,9.8056,0.0069,-0.0064,-0.002
23055,47.57228,-1.631852,137.59,29.38,16.08,16.8,0 / 23,635613,2019-08-12 16:43:16:055,-0.0219,0.2042,9.9561,0.0294,0.1399,9.8056,0.0069,-0.0064,-0.002
23056,47.57228,-1.631852,137.59,29.38,16.08,16.8,0 / 23,635614,2019-08-12 16:43:16:056,-0.0219,0.2042,9.9561,0.0294,0.1399,9.8056,0.0069,-0.0064,-0.002
23057,47.57228,-1.631852,137.59,29.38,16.08,16.8,0 / 23,635614,2019-08-12 16:43:16:056,-0.0219,0.2042,9.9561,0.0294,0.1399,9.8056,0.0069,-0.0064,-0.002
23058,47.57228,-1.631852,137.59,29.38,16.08,16.8,0 / 23,635614,2019-08-12 16:43:16:056,-0.0219,0.2042,9.9561,0.0294,0.1399,9.8056,0.0069,-0.0064,-0.002
23059,47.57228,-1.631852,137.59,29.38,16.08,16.8,0 / 23,635615,2019-08-12 16:43:16:057,-0.0219,0.2042,9.9561,0.0294,0.1399,9.8056,0.0069,-0.0064,-0.002
23060,47.57228,-1.631852,137.59,29.38,16.08,16.8,0 / 23,635630,2019-08-12 16:43:16:072,-0.0219,0.2042,9.9561,0.0294,0.1399,9.8056,0.0069,-0.0064,-0.002
23061,47.57476,-1.630889,131.62,30.26,13.936001,16.0,0 / 23,635728,2019-08-12 16:43:16:170,-0.0219,0.2042,9.9561,0.0294,0.1399,9.8056,0.0069,-0.0064,-0.002
23062,47.57476,-1.630889,131.62,30.26,13.936001,16.0,0 / 23,636076,2019-08-12 16:43:16:518,-0.0219,0.2042,9.9561,0.0294,0.1399,9.8056,0.0069,-0.0064,-0.002
23063,47.57476,-1.630889,131.62,30.26,13.936001,16.0,0 / 23,636077,2019-08-12 16:43:16:519,-0.0219,0.2042,9.9561,0.0294,0.1399,9.8056,0.0069,-0.0064,-0.002
23064,47.57476,-1.630889,131.62,30.26,13.936001,16.0,0 / 23,636077,2019-08-12 16:43:16:519,-0.0219,0.2042,9.9561,0.0294,0.1399,9.8056,0.0069,-0.0064,-0.002
23065,47.57476,-1.630889,131.62,30.26,13.936001,16.0,0 / 23,636078,2019-08-12 16:43:16:520,-0.0219,0.2042,9.9561,0.0294,0.1399,9.8056,0.0069,-0.0064,-0.002
23066,47.57476,-1.630889,131.62,30.26,13.936001,16.0,0 / 23,636078,2019-08-12 16:43:16:520,-0.0219,0.2042,9.9561,0.0294,0.1399,9.8056,0.0069,-0.0064,-0.002
23067,47.57476,-1.630889,131.62,30.26,13.936001,16.0,0 / 23,636078,2019-08-12 16:43:16:520,-0.0219,0.2042,9.9561,0.0294,0.1399,9.8056,0.0069,-0.0064,-0.002
23068,47.57476,-1.630889,131.62,30.26,13.936001,16.0,0 / 23,636079,2019-08-12 16:43:16:521,-0.0219,0.2042,9.9561,0.0294,0.1399,9.8056,0.0069,-0.0064,-0.002
23069,47.57476,-1.630889,131.62,30.26,13.936001,16.0,0 / 23,636079,2019-08-12 16:43:16:521,-0.0219,0.2042,9.9561,0.0294,0.1399,9.8056,0.0069,-0.0064,-0.002
23070,47.57476,-1.630889,131.62,30.26,13.936001,16.0,0 / 23,636079,2019-08-12 16:43:16:521,-0.0219,0.2042,9.9561,0.0294,0.1399,9.8056,0.0069,-0.0064,-0.002
23071,47.57476,-1.630889,131.62,30.26,13.936001,16.0,0 / 23,636080,2019-08-12 16:43:16:522,-0.0219,0.2042,9.9561,0.0294,0.1399,9.8056,0.0069,-0.0064,-0.002
23072,47.57476,-1.630889,131.62,30.26,13.936001,16.0,0 / 23,636080,2019-08-12 16:43:16:522,-0.0219,0.2042,9.9561,0.0294,0.1399,9.8056,0.0069,-0.0064,-0.002
23073,47.57476,-1.630889,131.62,30.26,13.936001,16.0,0 / 23,636080,2019-08-12 16:43:16:522,-0.0219,0.2042,9.9561,0.0294,0.1399,9.8056,0.0069,-0.0064,-0.002
23074,47.57476,-1.630889,131.62,30.26,13.936001,16.0,0 / 23,636081,2019-08-12 16:43:16:523,-0.0219,0.2042,9.9561,0.0294,0.1399,9.8056,0.0069,-0.0064,-0.002
23075,47.57476,-1.630889,131.62,30.26,13.936001,16.0,0 / 23,636082,2019-08-12 16:43:16:524,-0.0219,0.2042,9.9561,0.0294,0.1399,9.8056,0.0069,-0.0064,-0.002
23076,47.57476,-1.630889,131.62,30.26,13.936001,16.0,0 / 23,636082,2019-08-12 16:43:16:524,-0.0219,0.2042,9.9561,0.0294,0.1399,9.8056,0.0069,-0.0064,-0.002
23077,47.57476,-1.630889,131.62,30.26,13.936001,16.0,0 / 23,636083,2019-08-12 16:43:16:525,-0.0219,0.2042,9.9561,0.0294,0.1399,9.8056,0.0069,-0.0064,-0.002
23078,47.57476,-1.630889,131.62,30.26,13.936001,16.0,0 / 23,636083,2019-08-12 16:43:16:525,-0.0219,0.2042,9.9561,0.0294,0.1399,9.8056,0.0069,-0.0064,-0.002
23079,47.57476,-1.630889,131.62,30.26,13.936001,16.0,0 / 23,636084,2019-08-12 16:43:16:526,-0.0219,0.2042,9.9561,0.0294,0.1399,9.8056,0.0069,-0.0064,-0.002
23080,47.57476,-1.630889,131.62,30.26,13.936001,16.0,0 / 23,636084,2019-08-12 16:43:16:526,-0.0219,0.2042,9.9561,0.0294,0.1399,9.8056,0.0069,-0.0064,-0.002
23081,47.57476,-1.630889,131.62,30.26,13.936001,16.0,0 / 23,636084,2019-08-12 16:43:16:526,-0.0219,0.2042,9.9561,0.0294,0.1399,9.8056,0.0069,-0.0064,-0.002
23082,47.57476,-1.630889,131.62,30.26,13.936001,16.0,0 / 23,636085,2019-08-12 16:43:16:527,-0.0219,0.2042,9.9561,0.0294,0.1399,9.8056,0.0069,-0.0064,-0.002
23083,47.57476,-1.630889,131.62,30.26,13.936001,16.0,0 / 23,636085,2019-08-12 16:43:16:527,-0.0219,0.2042,9.9561,0.0294,0.1399,9.8056,0.0069,-0.0064,-0.002
23084,47.57476,-1.630889,131.62,30.26,13.936001,16.0,0 / 23,636086,2019-08-12 16:43:16:528,-0.0219,0.2042,9.9561,0.0294,0.1399,9.8056,0.0069,-0.0064,-0.002
23085,47.57476,-1.630889,131.62,30.26,13.936001,16.0,0 / 23,636087,2019-08-12 16:43:16:529,-0.0219,0.2042,9.9561,0.0294,0.1399,9.8056,0.0069,-0.0064,-0.002
23086,47.57476,-1.630889,131.62,30.26,13.936001,16.0,0 / 23,636087,2019-08-12 16:43:16:529,-0.0219,0.2042,9.9561,0.0294,0.1399,9.8056,0.0069,-0.0064,-0.002
23087,47.57476,-1.630889,131.62,30.26,13.936001,16.0,0 / 23,636088,2019-08-12 16:43:16:530,-0.0219,0.2042,9.9561,0.0294,0.1399,9.8056,0.0069,-0.0064,-0.002
23088,47.57476,-1.630889,131.62,30.26,13.936001,16.0,0 / 23,636089,2019-08-12 16:43:16:531,-0.0219,0.2042,9.9561,0.0294,0.1399,9.8056,0.0069,-0.0064,-0.002
23089,47.57476,-1.630889,131.62,30.26,13.936001,16.0,0 / 23,636089,2019-08-12 16:43:16:531,-0.0219,0.2042,9.9561,0.0294,0.1399,9.8056,0.0069,-0.0064,-0.002
23090,47.57476,-1.630889,131.62,30.26,13.936001,16.0,0 / 23,636091,2019-08-12 16:43:16:533,-0.0219,0.2042,9.9561,0.0294,0.1399,9.8056,0.0069,-0.0064,-0.002
23091,47.57476,-1.630889,131.62,30.26,13.936001,16.0,0 / 23,636091,2019-08-12 16:43:16:533,-0.0219,0.2042,9.9561,0.0294,0.1399,9.8056,0.0069,-0.0064,-0.002
23092,47.57476,-1.630889,131.62,30.26,13.936001,16.0,0 / 23,636093,2019-08-12 16:43:16:535,-0.0219,0.2042,9.9561,0.0294,0.1399,9.8056,0.0069,-0.0064,-0.002
23093,47.57476,-1.630889,131.62,30.26,13.936001,16.0,0 / 23,636093,2019-08-12 16:43:16:535,-0.0219,0.2042,9.9561,0.0294,0.1399,9.8056,0.0069,-0.0064,-0.002
23094,47.57476,-1.630889,131.62,30.26,13.936001,16.0,0 / 23,636094,2019-08-12 16:43:16:536,-0.0219,0.2042,9.9561,0.0294,0.1399,9.8056,0.0069,-0.0064,-0.002
23095,47.57476,-1.630889,131.62,30.26,13.936001,16.0,0 / 23,636094,2019-08-12 16:43:16:536,-0.0219,0.2042,9.9561,0.0294,0.1399,9.8056,0.0069,-0.0064,-0.002
23096,47.57476,-1.630889,131.62,30.26,13.936001,16.0,0 / 23,636095,2019-08-12 16:43:16:537,-0.0219,0.2042,9.9561,0.0294,0.1399,9.8056,0.0069,-0.0064,-0.002
23097,47.57476,-1.630889,131.62,30.26,13.936001,16.0,0 / 23,636095,2019-08-12 16:43:16:537,-0.0219,0.2042,9.9561,0.0294,0.1399,9.8056,0.0069,-0.0064,-0.002
23098,47.57476,-1.630889,131.62,30.26,13.936001,16.0,0 / 23,636096,2019-08-12 16:43:16:538,-0.0219,0.2042,9.9561,0.0294,0.1399,9.8056,0.0069,-0.0064,-0.002
23099,47.57476,-1.630889,131.62,30.26,13.936001,16.0,0 / 23,636096,2019-08-12 16:43:16:538,-0.0219,0.2042,9.9561,0.0294,0.1399,9.8056,0.0069,-0.0064,-0.002
23100,47.57476,-1.630889,131.62,30.26,13.936001,16.0,0 / 23,636098,2019-08-12 16:43:16:540,-0.0219,0.2042,9.9561,0.0294,0.1399,9.8056,0.0069,-0.0064,-0.002
23101,47.57476,-1.630889,131.62,30.26,13.936001,16.0,0 / 23,636099,2019-08-12 16:43:16:541,-0.0219,0.2042,9.9561,0.0294,0.1399,9.8056,0.0069,-0.0064,-0.002
23102,47.57476,-1.630889,131.62,30.26,13.936001,16.0,0 / 23,636099,2019-08-12 16:43:16:541,-0.0219,0.2042,9.9561,0.0294,0.1399,9.8056,0.0069,-0.0064,-0.002
23103,47.57476,-1.630889,131.62,30.26,13.936001,16.0,0 / 23,636100,2019-08-12 16:43:16:542,-0.0219,0.2042,9.9561,0.0294,0.1399,9.8056,0.0069,-0.0064,-0.002
23104,47.57476,-1.630889,131.62,30.26,13.936001,16.0,0 / 23,636100,2019-08-12 16:43:16:542,-0.0219,0.2042,9.9561,0.0294,0.1399,9.8056,0.0069,-0.0064,-0.002
23105,47.57476,-1.630889,131.62,30.26,13.936001,16.0,0 / 23,636101,2019-08-12 16:43:16:543,-0.0219,0.2042,9.9561,0.0294,0.1399,9.8056,0.0069,-0.0064,-0.002
23106,47.57476,-1.630889,131.62,30.26,13.936001,16.0,0 / 23,636101,2019-08-12 16:43:16:543,-0.0219,0.2042,9.9561,0.0294,0.1399,9.8056,0.0069,-0.0064,-0.002
23107,47.57476,-1.630889,131.62,30.26,13.936001,16.0,0 / 23,636102,2019-08-12 16:43:16:544,-0.0219,0.2042,9.9561,0.0294,0.1399,9.8056,0.0069,-0.0064,-0.002
23108,47.57476,-1.630889,131.62,30.26,13.936001,16.0,0 / 23,636102,2019-08-12 16:43:16:544,-0.0219,0.2042,9.9561,0.0294,0.1399,9.8056,0.0069,-0.0064,-0.002
23109,47.57476,-1.630889,131.62,30.26,13.936001,16.0,0 / 23,636103,2019-08-12 16:43:16:545,-0.0219,0.2042,9.9561,0.0294,0.1399,9.8056,0.0069,-0.0064,-0.002
23110,47.57476,-1.630889,131.62,30.26,13.936001,16.0,0 / 23,636103,2019-08-12 16:43:16:545,-0.0219,0.2042,9.9561,0.0294,0.1399,9.8056,0.0069,-0.0064,-0.002
23111,47.57476,-1.630889,131.62,30.26,13.936001,16.0,0 / 23,636103,2019-08-12 16:43:16:545,-0.0219,0.2042,9.9561,0.0294,0.1399,9.8056,0.0069,-0.0064,-0.002
23112,47.57476,-1.630889,131.62,30.26,13.936001,16.0,0 / 23,636104,2019-08-12 16:43:16:546,-0.0219,0.2042,9.9561,0.0294,0.1399,9.8056,0.0069,-0.0064,-0.002
23113,47.57476,-1.630889,131.62,30.26,13.936001,16.0,0 / 23,636104,2019-08-12 16:43:16:546,-0.0219,0.2042,9.9561,0.0294,0.1399,9.8056,0.0069,-0.0064,-0.002
23114,47.57476,-1.630889,131.62,30.26,13.936001,16.0,0 / 23,636104,2019-08-12 16:43:16:546,-0.0219,0.2042,9.9561,0.0294,0.1399,9.8056,0.0069,-0.0064,-0.002
23115,47.57476,-1.630889,131.62,30.26,13.936001,16.0,0 / 23,636105,2019-08-12 16:43:16:547,-0.0219,0.2042,9.9561,0.0294,0.1399,9.8056,0.0069,-0.0064,-0.002
23116,47.57476,-1.630889,131.62,30.26,13.936001,16.0,0 / 23,636105,2019-08-12 16:43:16:547,-0.0219,0.2042,9.9561,0.0294,0.1399,9.8056,0.0069,-0.0064,-0.002
23117,47.57476,-1.630889,131.62,30.26,13.936001,16.0,0 / 23,636106,2019-08-12 16:43:16:548,-0.0219,0.2042,9.9561,0.0294,0.1399,9.8056,0.0069,-0.0064,-0.002
23118,47.57476,-1.630889,131.62,30.26,13.936001,16.0,0 / 23,636106,2019-08-12 16:43:16:548,-0.0219,0.2042,9.9561,0.0294,0.1399,9.8056,0.0069,-0.0064,-0.002
23119,47.57476,-1.630889,131.62,30.26,13.936001,16.0,0 / 23,636106,2019-08-12 16:43:16:548,-0.0219,0.2042,9.9561,0.0294,0.1399,9.8056,0.0069,-0.0064,-0.002
23120,47.57476,-1.630889,131.62,30.26,13.936001,16.0,0 / 23,636107,2019-08-12 16:43:16:549,-0.0219,0.2042,9.9561,0.0294,0.1399,9.8056,0.0069,-0.0064,-0.002
23121,47.57476,-1.630889,131.62,30.26,13.936001,16.0,0 / 23,636107,2019-08-12 16:43:16:549,-0.0219,0.2042,9.9561,0.0294,0.1399,9.8056,0.0069,-0.0064,-0.002
23122,47.57476,-1.630889,131.62,30.26,13.936001,16.0,0 / 23,636107,2019-08-12 16:43:16:549,-0.0219,0.2042,9.9561,0.0294,0.1399,9.8056,0.0069,-0.0064,-0.002
23123,47.57476,-1.630889,131.62,30.26,13.936001,16.0,0 / 23,636108,2019-08-12 16:43:16:550,-0.0219,0.2042,9.9561,0.0294,0.1399,9.8056,0.0069,-0.0064,-0.002
23124,47.57476,-1.630889,131.62,30.26,13.936001,16.0,0 / 23,636108,2019-08-12 16:43:16:550,-0.0219,0.2042,9.9561,0.0294,0.1399,9.8056,0.0069,-0.0064,-0.002
23125,47.57476,-1.630889,131.62,30.26,13.936001,16.0,0 / 23,636108,2019-08-12 16:43:16:550,-0.0219,0.2042,9.9561,0.0294,0.1399,9.8056,0.0069,-0.0064,-0.002
23126,47.57476,-1.630889,131.62,30.26,13.936001,16.0,0 / 23,636109,2019-08-12 16:43:16:551,-0.0219,0.2042,9.9561,0.0294,0.1399,9.8056,0.0069,-0.0064,-0.002
23127,47.57476,-1.630889,131.62,30.26,13.936001,16.0,0 / 23,636109,2019-08-12 16:43:16:551,-0.0219,0.2042,9.9561,0.0294,0.1399,9.8056,0.0069,-0.0064,-0.002
23128,47.57476,-1.630889,131.62,30.26,13.936001,16.0,0 / 23,636109,2019-08-12 16:43:16:551,-0.0219,0.2042,9.9561,0.0294,0.1399,9.8056,0.0069,-0.0064,-0.002
23129,47.57476,-1.630889,131.62,30.26,13.936001,16.0,0 / 23,636110,2019-08-12 16:43:16:552,-0.0219,0.2042,9.9561,0.0294,0.1399,9.8056,0.0069,-0.0064,-0.002
23130,47.57476,-1.630889,131.62,30.26,13.936001,16.0,0 / 23,636110,2019-08-12 16:43:16:552,-0.0219,0.2042,9.9561,0.0294,0.1399,9.8056,0.0069,-0.0064,-0.002
23131,47.57476,-1.630889,131.62,30.26,13.936001,16.0,0 / 23,636210,2019-08-12 16:43:16:652,-0.0219,0.2042,9.9561,0.0294,0.1399,9.8056,0.0069,-0.0064,-0.002
23132,47.57476,-1.630889,131.62,30.26,13.936001,16.0,13 / 23,636541,2019-08-12 16:43:16:983,-0.0219,0.2042,9.9561,0.0294,0.1399,9.8056,0.0069,-0.0064,-0.002
23133,47.57476,-1.630889,131.62,30.26,13.936001,16.0,13 / 23,636542,2019-08-12 16:43:16:984,-0.0219,0.2042,9.9561,0.0294,0.1399,9.8056,0.0069,-0.0064,-0.002
23134,47.57476,-1.630889,131.62,30.26,13.936001,16.0,13 / 23,636542,2019-08-12 16:43:16:984,-0.0219,0.2042,9.9561,0.0294,0.1399,9.8056,0.0069,-0.0064,-0.002
23135,47.57476,-1.630889,131.62,30.26,13.936001,16.0,13 / 23,636543,2019-08-12 16:43:16:985,-0.0219,0.2042,9.9561,0.0294,0.1399,9.8056,0.0069,-0.0064,-0.002
23136,47.57476,-1.630889,131.62,30.26,13.936001,16.0,13 / 23,636543,2019-08-12 16:43:16:985,-0.0219,0.2042,9.9561,0.0294,0.1399,9.8056,0.0069,-0.0064,-0.002
23137,47.57476,-1.630889,131.62,30.26,13.936001,16.0,13 / 23,636543,2019-08-12 16:43:16:985,-0.0219,0.2042,9.9561,0.0294,0.1399,9.8056,0.0069,-0.0064,-0.002
23138,47.57476,-1.630889,131.62,30.26,13.936001,16.0,13 / 23,636544,2019-08-12 16:43:16:986,-0.0219,0.2042,9.9561,0.0294,0.1399,9.8056,0.0069,-0.0064,-0.002
23139,47.57476,-1.630889,131.62,30.26,13.936001,16.0,13 / 23,636544,2019-08-12 16:43:16:986,-0.0219,0.2042,9.9561,0.0294,0.1399,9.8056,0.0069,-0.0064,-0.002
23140,47.57476,-1.630889,131.62,30.26,13.936001,16.0,13 / 23,636569,2019-08-12 16:43:17:011,-0.0219,0.2042,9.9561,0.0294,0.1399,9.8056,0.0069,-0.0064,-0.002
23141,47.57476,-1.630889,131.62,30.26,13.936001,16.0,13 / 23,636669,2019-08-12 16:43:17:111,-0.0219,0.2042,9.9561,0.0294,0.1399,9.8056,0.0069,-0.0064,-0.002
23142,47.57476,-1.630889,131.62,30.26,13.936001,16.0,0 / 23,637011,2019-08-12 16:43:17:453,-0.0219,0.2042,9.9561,0.0294,0.1399,9.8056,0.0069,-0.0064,-0.002
23143,47.57476,-1.630889,131.62,30.26,13.936001,16.0,0 / 23,637012,2019-08-12 16:43:17:454,-0.0219,0.2042,9.9561,0.0294,0.1399,9.8056,0.0069,-0.0064,-0.002
23144,47.57476,-1.630889,131.62,30.26,13.936001,16.0,0 / 23,637013,2019-08-12 16:43:17:455,-0.0219,0.2042,9.9561,0.0294,0.1399,9.8056,0.0069,-0.0064,-0.002
23145,47.57476,-1.630889,131.62,30.26,13.936001,16.0,0 / 23,637013,2019-08-12 16:43:17:455,-0.0219,0.2042,9.9561,0.0294,0.1399,9.8056,0.0069,-0.0064,-0.002
23146,47.57476,-1.630889,131.62,30.26,13.936001,16.0,0 / 23,637013,2019-08-12 16:43:17:455,-0.0219,0.2042,9.9561,0.0294,0.1399,9.8056,0.0069,-0.0064,-0.002
23147,47.57476,-1.630889,131.62,30.26,13.936001,16.0,0 / 23,637013,2019-08-12 16:43:17:455,-0.0219,0.2042,9.9561,0.0294,0.1399,9.8056,0.0069,-0.0064,-0.002
23148,47.57476,-1.630889,131.62,30.26,13.936001,16.0,0 / 23,637014,2019-08-12 16:43:17:456,-0.0219,0.2042,9.9561,0.0294,0.1399,9.8056,0.0069,-0.0064,-0.002
23149,47.57476,-1.630889,131.62,30.26,13.936001,16.0,0 / 23,637014,2019-08-12 16:43:17:456,-0.0219,0.2042,9.9561,0.0294,0.1399,9.8056,0.0069,-0.0064,-0.002
23150,47.576824,-1.629861,102.42,29.45,15.008,15.6,0 / 23,637039,2019-08-12 16:43:17:481,-0.0219,0.2042,9.9561,0.0294,0.1399,9.8056,0.0069,-0.0064,-0.002
23151,47.576824,-1.629861,102.42,29.45,15.008,15.6,0 / 23,637139,2019-08-12 16:43:17:581,-0.0219,0.2042,9.9561,0.0294,0.1399,9.8056,0.0069,-0.0064,-0.002
23152,47.576824,-1.629861,102.42,29.45,15.008,15.6,0 / 23,637484,2019-08-12 16:43:17:926,-0.0219,0.2042,9.9561,0.0294,0.1399,9.8056,0.0069,-0.0064,-0.002
23153,47.576824,-1.629861,102.42,29.45,15.008,15.6,0 / 23,637485,2019-08-12 16:43:17:927,-0.0219,0.2042,9.9561,0.0294,0.1399,9.8056,0.0069,-0.0064,-0.002
23154,47.576824,-1.629861,102.42,29.45,15.008,15.6,0 / 23,637486,2019-08-12 16:43:17:928,-0.0219,0.2042,9.9561,0.0294,0.1399,9.8056,0.0069,-0.0064,-0.002
23155,47.576824,-1.629861,102.42,29.45,15.008,15.6,0 / 23,637486,2019-08-12 16:43:17:928,-0.0219,0.2042,9.9561,0.0294,0.1399,9.8056,0.0069,-0.0064,-0.002
23156,47.576824,-1.629861,102.42,29.45,15.008,15.6,0 / 23,637487,2019-08-12 16:43:17:929,-0.0219,0.2042,9.9561,0.0294,0.1399,9.8056,0.0069,-0.0064,-0.002
23157,47.576824,-1.629861,102.42,29.45,15.008,15.6,0 / 23,637487,2019-08-12 16:43:17:929,-0.0219,0.2042,9.9561,0.0294,0.1399,9.8056,0.0069,-0.0064,-0.002
23158,47.576824,-1.629861,102.42,29.45,15.008,15.6,0 / 23,637488,2019-08-12 16:43:17:930,-0.0219,0.2042,9.9561,0.0294,0.1399,9.8056,0.0069,-0.0064,-0.002
23159,47.576824,-1.629861,102.42,29.45,15.008,15.6,0 / 23,637488,2019-08-12 16:43:17:930,-0.0219,0.2042,9.9561,0.0294,0.1399,9.8056,0.0069,-0.0064,-0.002
23160,47.576824,-1.629861,102.42,29.45,15.008,15.6,0 / 23,637489,2019-08-12 16:43:17:931,-0.0219,0.2042,9.9561,0.0294,0.1399,9.8056,0.0069,-0.0064,-0.002
23161,47.576824,-1.629861,102.42,29.45,15.008,15.6,0 / 23,637490,2019-08-12 16:43:17:932,-0.0219,0.2042,9.9561,0.0294,0.1399,9.8056,0.0069,-0.0064,-0.002
23162,47.576824,-1.629861,102.42,29.45,15.008,15.6,0 / 23,637490,2019-08-12 16:43:17:932,-0.0219,0.2042,9.9561,0.0294,0.1399,9.8056,0.0069,-0.0064,-0.002
23163,47.576824,-1.629861,102.42,29.45,15.008,15.6,0 / 23,637493,2019-08-12 16:43:17:935,-0.0219,0.2042,9.9561,0.0294,0.1399,9.8056,0.0069,-0.0064,-0.002
23164,47.576824,-1.629861,102.42,29.45,15.008,15.6,0 / 23,637493,2019-08-12 16:43:17:935,-0.0219,0.2042,9.9561,0.0294,0.1399,9.8056,0.0069,-0.0064,-0.002
23165,47.576824,-1.629861,102.42,29.45,15.008,15.6,0 / 23,637493,2019-08-12 16:43:17:935,-0.0219,0.2042,9.9561,0.0294,0.1399,9.8056,0.0069,-0.0064,-0.002
23166,47.576824,-1.629861,102.42,29.45,15.008,15.6,0 / 23,637494,2019-08-12 16:43:17:936,-0.0219,0.2042,9.9561,0.0294,0.1399,9.8056,0.0069,-0.0064,-0.002
23167,47.576824,-1.629861,102.42,29.45,15.008,15.6,0 / 23,637494,2019-08-12 16:43:17:936,-0.0219,0.2042,9.9561,0.0294,0.1399,9.8056,0.0069,-0.0064,-0.002
23168,47.576824,-1.629861,102.42,29.45,15.008,15.6,0 / 23,637495,2019-08-12 16:43:17:937,-0.0219,0.2042,9.9561,0.0294,0.1399,9.8056,0.0069,-0.0064,-0.002
23169,47.576824,-1.629861,102.42,29.45,15.008,15.6,0 / 23,637495,2019-08-12 16:43:17:937,-0.0219,0.2042,9.9561,0.0294,0.1399,9.8056,0.0069,-0.0064,-0.002
23170,47.576824,-1.629861,102.42,29.45,15.008,15.6,0 / 23,637496,2019-08-12 16:43:17:938,-0.0219,0.2042,9.9561,0.0294,0.1399,9.8056,0.0069,-0.0064,-0.002
23171,47.576824,-1.629861,102.42,29.45,15.008,15.6,0 / 23,637496,2019-08-12 16:43:17:938,-0.0219,0.2042,9.9561,0.0294,0.1399,9.8056,0.0069,-0.0064,-0.002
23172,47.576824,-1.629861,102.42,29.45,15.008,15.6,0 / 23,637496,2019-08-12 16:43:17:938,-0.0219,0.2042,9.9561,0.0294,0.1399,9.8056,0.0069,-0.0064,-0.002
23173,47.576824,-1.629861,102.42,29.45,15.008,15.6,0 / 23,637497,2019-08-12 16:43:17:939,-0.0219,0.2042,9.9561,0.0294,0.1399,9.8056,0.0069,-0.0064,-0.002
23174,47.576824,-1.629861,102.42,29.45,15.008,15.6,0 / 23,637497,2019-08-12 16:43:17:939,-0.0219,0.2042,9.9561,0.0294,0.1399,9.8056,0.0069,-0.0064,-0.002
23175,47.576824,-1.629861,102.42,29.45,15.008,15.6,0 / 23,637498,2019-08-12 16:43:17:940,-0.0219,0.2042,9.9561,0.0294,0.1399,9.8056,0.0069,-0.0064,-0.002
23176,47.576824,-1.629861,102.42,29.45,15.008,15.6,0 / 23,637498,2019-08-12 16:43:17:940,-0.0219,0.2042,9.9561,0.0294,0.1399,9.8056,0.0069,-0.0064,-0.002
23177,47.576824,-1.629861,102.42,29.45,15.008,15.6,0 / 23,637499,2019-08-12 16:43:17:941,-0.0219,0.2042,9.9561,0.0294,0.1399,9.8056,0.0069,-0.0064,-0.002
23178,47.576824,-1.629861,102.42,29.45,15.008,15.6,0 / 23,637499,2019-08-12 16:43:17:941,-0.0219,0.2042,9.9561,0.0294,0.1399,9.8056,0.0069,-0.0064,-0.002
23179,47.576824,-1.629861,102.42,29.45,15.008,15.6,0 / 23,637499,2019-08-12 16:43:17:941,-0.0219,0.2042,9.9561,0.0294,0.1399,9.8056,0.0069,-0.0064,-0.002
23180,47.576824,-1.629861,102.42,29.45,15.008,15.6,0 / 23,637500,2019-08-12 16:43:17:942,-0.0219,0.2042,9.9561,0.0294,0.1399,9.8056,0.0069,-0.0064,-0.002
23181,47.576824,-1.629861,102.42,29.45,15.008,15.6,0 / 23,637500,2019-08-12 16:43:17:942,-0.0219,0.2042,9.9561,0.0294,0.1399,9.8056,0.0069,-0.0064,-0.002
23182,47.576824,-1.629861,102.42,29.45,15.008,15.6,0 / 23,637501,2019-08-12 16:43:17:943,-0.0219,0.2042,9.9561,0.0294,0.1399,9.8056,0.0069,-0.0064,-0.002
23183,47.576824,-1.629861,102.42,29.45,15.008,15.6,0 / 23,637501,2019-08-12 16:43:17:943,-0.0219,0.2042,9.9561,0.0294,0.1399,9.8056,0.0069,-0.0064,-0.002
23184,47.576824,-1.629861,102.42,29.45,15.008,15.6,0 / 23,637501,2019-08-12 16:43:17:943,-0.0219,0.2042,9.9561,0.0294,0.1399,9.8056,0.0069,-0.0064,-0.002
23185,47.576824,-1.629861,102.42,29.45,15.008,15.6,0 / 23,637504,2019-08-12 16:43:17:946,-0.0219,0.2042,9.9561,0.0294,0.1399,9.8056,0.0069,-0.0064,-0.002
23186,47.576824,-1.629861,102.42,29.45,15.008,15.6,0 / 23,637504,2019-08-12 16:43:17:946,-0.0219,0.2042,9.9561,0.0294,0.1399,9.8056,0.0069,-0.0064,-0.002
23187,47.576824,-1.629861,102.42,29.45,15.008,15.6,0 / 23,637505,2019-08-12 16:43:17:947,-0.0219,0.2042,9.9561,0.0294,0.1399,9.8056,0.0069,-0.0064,-0.002
23188,47.576824,-1.629861,102.42,29.45,15.008,15.6,0 / 23,637505,2019-08-12 16:43:17:947,-0.0219,0.2042,9.9561,0.0294,0.1399,9.8056,0.0069,-0.0064,-0.002
23189,47.576824,-1.629861,102.42,29.45,15.008,15.6,0 / 23,637506,2019-08-12 16:43:17:948,-0.0219,0.2042,9.9561,0.0294,0.1399,9.8056,0.0069,-0.0064,-0.002
23190,47.576824,-1.629861,102.42,29.45,15.008,15.6,0 / 23,637506,2019-08-12 16:43:17:948,-0.0219,0.2042,9.9561,0.0294,0.1399,9.8056,0.0069,-0.0064,-0.002
23191,47.576824,-1.629861,102.42,29.45,15.008,15.6,0 / 23,637507,2019-08-12 16:43:17:949,-0.0219,0.2042,9.9561,0.0294,0.1399,9.8056,0.0069,-0.0064,-0.002
23192,47.576824,-1.629861,102.42,29.45,15.008,15.6,0 / 23,637507,2019-08-12 16:43:17:949,-0.0219,0.2042,9.9561,0.0294,0.1399,9.8056,0.0069,-0.0064,-0.002
23193,47.576824,-1.629861,102.42,29.45,15.008,15.6,0 / 23,637507,2019-08-12 16:43:17:949,-0.0219,0.2042,9.9561,0.0294,0.1399,9.8056,0.0069,-0.0064,-0.002
23194,47.576824,-1.629861,102.42,29.45,15.008,15.6,0 / 23,637508,2019-08-12 16:43:17:950,-0.0219,0.2042,9.9561,0.0294,0.1399,9.8056,0.0069,-0.0064,-0.002
23195,47.576824,-1.629861,102.42,29.45,15.008,15.6,0 / 23,637508,2019-08-12 16:43:17:950,-0.0219,0.2042,9.9561,0.0294,0.1399,9.8056,0.0069,-0.0064,-0.002
23196,47.576824,-1.629861,102.42,29.45,15.008,15.6,0 / 23,637509,2019-08-12 16:43:17:951,-0.0219,0.2042,9.9561,0.0294,0.1399,9.8056,0.0069,-0.0064,-0.002
23197,47.576824,-1.629861,102.42,29.45,15.008,15.6,0 / 23,637509,2019-08-12 16:43:17:951,-0.0219,0.2042,9.9561,0.0294,0.1399,9.8056,0.0069,-0.0064,-0.002
23198,47.576824,-1.629861,102.42,29.45,15.008,15.6,0 / 23,637509,2019-08-12 16:43:17:951,-0.0219,0.2042,9.9561,0.0294,0.1399,9.8056,0.0069,-0.0064,-0.002
23199,47.576824,-1.629861,102.42,29.45,15.008,15.6,0 / 23,637510,2019-08-12 16:43:17:952,-0.0219,0.2042,9.9561,0.0294,0.1399,9.8056,0.0069,-0.0064,-0.002
23200,47.576824,-1.629861,102.42,29.45,15.008,15.6,0 / 23,637512,2019-08-12 16:43:17:954,-0.0219,0.2042,9.9561,0.0294,0.1399,9.8056,0.0069,-0.0064,-0.002
23201,47.576824,-1.629861,102.42,29.45,15.008,15.6,0 / 23,637513,2019-08-12 16:43:17:955,-0.0219,0.2042,9.9561,0.0294,0.1399,9.8056,0.0069,-0.0064,-0.002
23202,47.576824,-1.629861,102.42,29.45,15.008,15.6,0 / 23,637513,2019-08-12 16:43:17:955,-0.0219,0.2042,9.9561,0.0294,0.1399,9.8056,0.0069,-0.0064,-0.002
23203,47.576824,-1.629861,102.42,29.45,15.008,15.6,0 / 23,637514,2019-08-12 16:43:17:956,-0.0219,0.2042,9.9561,0.0294,0.1399,9.8056,0.0069,-0.0064,-0.002
23204,47.576824,-1.629861,102.42,29.45,15.008,15.6,0 / 23,637515,2019-08-12 16:43:17:957,-0.0219,0.2042,9.9561,0.0294,0.1399,9.8056,0.0069,-0.0064,-0.002
23205,47.576824,-1.629861,102.42,29.45,15.008,15.6,0 / 23,637516,2019-08-12 16:43:17:958,-0.0219,0.2042,9.9561,0.0294,0.1399,9.8056,0.0069,-0.0064,-0.002
23206,47.576824,-1.629861,102.42,29.45,15.008,15.6,0 / 23,637517,2019-08-12 16:43:17:959,-0.0219,0.2042,9.9561,0.0294,0.1399,9.8056,0.0069,-0.0064,-0.002
23207,47.576824,-1.629861,102.42,29.45,15.008,15.6,0 / 23,637517,2019-08-12 16:43:17:959,-0.0219,0.2042,9.9561,0.0294,0.1399,9.8056,0.0069,-0.0064,-0.002
23208,47.576824,-1.629861,102.42,29.45,15.008,15.6,0 / 23,637517,2019-08-12 16:43:17:959,-0.0219,0.2042,9.9561,0.0294,0.1399,9.8056,0.0069,-0.0064,-0.002
23209,47.576824,-1.629861,102.42,29.45,15.008,15.6,0 / 23,637518,2019-08-12 16:43:17:960,-0.0219,0.2042,9.9561,0.0294,0.1399,9.8056,0.0069,-0.0064,-0.002
23210,47.576824,-1.629861,102.42,29.45,15.008,15.6,0 / 23,637518,2019-08-12 16:43:17:960,-0.0219,0.2042,9.9561,0.0294,0.1399,9.8056,0.0069,-0.0064,-0.002
23211,47.576824,-1.629861,102.42,29.45,15.008,15.6,0 / 23,637518,2019-08-12 16:43:17:960,-0.0219,0.2042,9.9561,0.0294,0.1399,9.8056,0.0069,-0.0064,-0.002
23212,47.576824,-1.629861,102.42,29.45,15.008,15.6,0 / 23,637519,2019-08-12 16:43:17:961,-0.0219,0.2042,9.9561,0.0294,0.1399,9.8056,0.0069,-0.0064,-0.002
23213,47.576824,-1.629861,102.42,29.45,15.008,15.6,0 / 23,637519,2019-08-12 16:43:17:961,-0.0219,0.2042,9.9561,0.0294,0.1399,9.8056,0.0069,-0.0064,-0.002
23214,47.576824,-1.629861,102.42,29.45,15.008,15.6,0 / 23,637519,2019-08-12 16:43:17:961,-0.0219,0.2042,9.9561,0.0294,0.1399,9.8056,0.0069,-0.0064,-0.002
23215,47.576824,-1.629861,102.42,29.45,15.008,15.6,0 / 23,637520,2019-08-12 16:43:17:962,-0.0219,0.2042,9.9561,0.0294,0.1399,9.8056,0.0069,-0.0064,-0.002
23216,47.576824,-1.629861,102.42,29.45,15.008,15.6,0 / 23,637520,2019-08-12 16:43:17:962,-0.0219,0.2042,9.9561,0.0294,0.1399,9.8056,0.0069,-0.0064,-0.002
23217,47.576824,-1.629861,102.42,29.45,15.008,15.6,0 / 23,637520,2019-08-12 16:43:17:962,-0.0219,0.2042,9.9561,0.0294,0.1399,9.8056,0.0069,-0.0064,-0.002
23218,47.576824,-1.629861,102.42,29.45,15.008,15.6,0 / 23,637521,2019-08-12 16:43:17:963,-0.0219,0.2042,9.9561,0.0294,0.1399,9.8056,0.0069,-0.0064,-0.002
23219,47.576824,-1.629861,102.42,29.45,15.008,15.6,0 / 23,637521,2019-08-12 16:43:17:963,-0.0219,0.2042,9.9561,0.0294,0.1399,9.8056,0.0069,-0.0064,-0.002
23220,47.576824,-1.629861,102.42,29.45,15.008,15.6,0 / 23,637521,2019-08-12 16:43:17:963,-0.0219,0.2042,9.9561,0.0294,0.1399,9.8056,0.0069,-0.0064,-0.002
23221,47.576824,-1.629861,102.42,29.45,15.008,15.6,0 / 23,637618,2019-08-12 16:43:18:060,0.1696,0.142,10.423,0.0294,0.1399,9.8056,-0.0197,0.0074,0.0012
23222,47.576824,-1.629861,102.42,29.45,15.008,15.6,0 / 23,637718,2019-08-12 16:43:18:160,0.0403,0.1192,9.8484,0.0602,0.3319,9.8008,0.0239,-0.0011,-0.002
23223,47.576824,-1.629861,102.42,29.45,15.008,15.6,Dec-23,638088,2019-08-12 16:43:18:530,-0.0219,0.3814,9.6796,0.0577,0.3176,9.8013,0.0079,-0.0021,-0.0009
23224,47.576824,-1.629861,102.42,29.45,15.008,15.6,Dec-23,638088,2019-08-12 16:43:18:530,-0.0219,0.3814,9.6796,0.0577,0.3176,9.8013,0.0079,-0.0021,-0.0009
23225,47.576824,-1.629861,102.42,29.45,15.008,15.6,Dec-23,638089,2019-08-12 16:43:18:531,-0.0219,0.3814,9.6796,0.0577,0.3176,9.8013,0.0079,-0.0021,-0.0009
23226,47.576824,-1.629861,102.42,29.45,15.008,15.6,Dec-23,638089,2019-08-12 16:43:18:531,-0.0219,0.3814,9.6796,0.0577,0.3176,9.8013,0.0079,-0.0021,-0.0009
23227,47.576824,-1.629861,102.42,29.45,15.008,15.6,Dec-23,638090,2019-08-12 16:43:18:532,-0.0219,0.3814,9.6796,0.0577,0.3176,9.8013,0.0079,-0.0021,-0.0009
23228,47.576824,-1.629861,102.42,29.45,15.008,15.6,Dec-23,638090,2019-08-12 16:43:18:532,-0.0219,0.3814,9.6796,0.0577,0.3176,9.8013,0.0079,-0.0021,-0.0009
23229,47.576824,-1.629861,102.42,29.45,15.008,15.6,Dec-23,638091,2019-08-12 16:43:18:533,-0.0219,0.3814,9.6796,0.0577,0.3176,9.8013,0.0079,-0.0021,-0.0009
23230,47.576824,-1.629861,102.42,29.45,15.008,15.6,Dec-23,638118,2019-08-12 16:43:18:560,-0.0219,0.3814,9.6796,0.0577,0.3176,9.8013,0.0079,-0.0021,-0.0009
23231,47.576824,-1.629861,102.42,29.45,15.008,15.6,Dec-23,638218,2019-08-12 16:43:18:660,-0.0219,0.3814,9.6796,0.0577,0.3176,9.8013,0.0079,-0.0021,-0.0009
23232,47.576824,-1.629861,102.42,29.45,15.008,15.6,0 / 23,638556,2019-08-12 16:43:18:998,-0.0219,0.3814,9.6796,0.0577,0.3176,9.8013,0.0079,-0.0021,-0.0009
23233,47.576824,-1.629861,102.42,29.45,15.008,15.6,0 / 23,638556,2019-08-12 16:43:18:998,-0.0219,0.3814,9.6796,0.0577,0.3176,9.8013,0.0079,-0.0021,-0.0009
23234,47.576824,-1.629861,102.42,29.45,15.008,15.6,0 / 23,638557,2019-08-12 16:43:18:999,-0.0219,0.3814,9.6796,0.0577,0.3176,9.8013,0.0079,-0.0021,-0.0009
23235,47.576824,-1.629861,102.42,29.45,15.008,15.6,0 / 23,638557,2019-08-12 16:43:18:999,-0.0219,0.3814,9.6796,0.0577,0.3176,9.8013,0.0079,-0.0021,-0.0009
23236,47.576824,-1.629861,102.42,29.45,15.008,15.6,0 / 23,638558,2019-08-12 16:43:19:000,-0.0219,0.3814,9.6796,0.0577,0.3176,9.8013,0.0079,-0.0021,-0.0009
23237,47.576824,-1.629861,102.42,29.45,15.008,15.6,0 / 23,638558,2019-08-12 16:43:19:000,-0.0219,0.3814,9.6796,0.0577,0.3176,9.8013,0.0079,-0.0021,-0.0009
23238,47.576824,-1.629861,102.42,29.45,15.008,15.6,0 / 23,638559,2019-08-12 16:43:19:001,-0.0219,0.3814,9.6796,0.0577,0.3176,9.8013,0.0079,-0.0021,-0.0009
23239,47.576824,-1.629861,102.42,29.45,15.008,15.6,0 / 23,638559,2019-08-12 16:43:19:001,-0.0219,0.3814,9.6796,0.0577,0.3176,9.8013,0.0079,-0.0021,-0.0009
23240,47.576824,-1.629861,102.42,29.45,15.008,15.6,0 / 23,638581,2019-08-12 16:43:19:023,-0.0219,0.3814,9.6796,0.0577,0.3176,9.8013,0.0079,-0.0021,-0.0009
23241,47.579334,-1.62891,89.03,30.31,15.008,15.5,0 / 23,638682,2019-08-12 16:43:19:124,-0.0219,0.3814,9.6796,0.0577,0.3176,9.8013,0.0079,-0.0021,-0.0009
23242,47.579334,-1.62891,89.03,30.31,15.008,15.5,0 / 23,638782,2019-08-12 16:43:19:224,-0.0219,0.3814,9.6796,0.0577,0.3176,9.8013,0.0079,-0.0021,-0.0009
23243,47.579334,-1.62891,89.03,30.31,15.008,15.5,0 / 23,638882,2019-08-12 16:43:19:324,-0.0219,0.3814,9.6796,0.0577,0.3176,9.8013,0.0079,-0.0021,-0.0009
23244,47.579334,-1.62891,89.03,30.31,15.008,15.5,0 / 23,638981,2019-08-12 16:43:19:423,0.1265,0.4449,9.8448,0.0028,0.2527,9.8034,0.0016,-0.0096,-0.0009
23245,47.579334,-1.62891,89.03,30.31,15.008,15.5,0 / 23,639081,2019-08-12 16:43:19:523,-0.077,0.2402,9.7083,-0.0104,0.2582,9.8032,0.0079,0.0043,0.0012
23246,47.579334,-1.62891,89.03,30.31,15.008,15.5,0 / 23,639181,2019-08-12 16:43:19:623,-0.1285,0.1803,9.9753,-0.0197,0.2572,9.8033,0.0079,0.0096,0.0023
23247,47.579334,-1.62891,89.03,30.31,15.008,15.5,0 / 23,639282,2019-08-12 16:43:19:724,-0.132,0.1851,9.4749,-0.0575,0.2649,9.8029,0.0058,0.0309,-0.0009
23248,47.579334,-1.62891,89.03,30.31,15.008,15.5,0 / 23,639382,2019-08-12 16:43:19:824,0.0583,0.2832,9.3384,-0.0801,0.2716,9.8026,0.0101,0.0234,-0.002
23249,47.579334,-1.62891,89.03,30.31,15.008,15.5,0 / 23,639482,2019-08-12 16:43:19:924,-0.0758,0.2821,9.8999,-0.0757,0.2845,9.8022,0.0186,-0.0128,-0.002
23250,47.579334,-1.62891,89.03,30.31,15.008,15.5,0 / 23,639581,2019-08-12 16:43:20:023,-0.0925,0.2509,9.8891,-0.0691,0.2931,9.802,0.0165,-0.0096,-0.002
23251,47.579334,-1.62891,89.03,30.31,15.008,15.5,0 / 23,639681,2019-08-12 16:43:20:123,0.0212,0.2378,10.0806,-0.0617,0.2952,9.802,-0.0059,-0.0107,-0.0031
23252,47.579334,-1.62891,89.03,30.31,15.008,15.5,0 / 23,639782,2019-08-12 16:43:20:224,-0.2218,0.3144,10.2123,-0.0568,0.2855,9.8023,-0.0134,-0.0096,-0.0031
23253,47.579334,-1.62891,89.03,30.31,15.008,15.5,0 / 23,639882,2019-08-12 16:43:20:324,-0.2673,0.2713,10.1716,-0.0892,0.2604,9.8028,-0.0155,0.0107,-0.002
23254,47.579334,-1.62891,89.03,30.31,15.008,15.5,0 / 23,639982,2019-08-12 16:43:20:424,-0.0171,0.1276,9.907,-0.101,0.2483,9.803,-0.0123,0.016,-0.0009
23255,47.579334,-1.62891,89.03,30.31,15.008,15.5,0 / 23,640082,2019-08-12 16:43:20:524,-0.2302,0.0055,9.3372,-0.109,0.2281,9.8034,-0.0166,0.0011,-0.002
23256,47.579334,-1.62891,89.03,30.31,15.008,15.5,0 / 23,640181,2019-08-12 16:43:20:623,-0.083,0.0977,9.5084,-0.1183,0.2229,9.8034,-0.0059,-0.0085,-0.0009
23257,47.579334,-1.62891,89.03,30.31,15.008,15.5,0 / 23,640282,2019-08-12 16:43:20:724,-0.3032,0.2868,10.095,-0.1067,0.2223,9.8036,0.0069,-0.0192,-0.0031
23258,47.579334,-1.62891,89.03,30.31,15.008,15.5,0 / 23,640382,2019-08-12 16:43:20:824,-0.2314,0.233,8.9398,-0.1102,0.2127,9.8037,-0.0123,0.0287,-0.0041
23259,47.579334,-1.62891,89.03,30.31,15.008,15.5,0 / 23,640481,2019-08-12 16:43:20:923,-0.2326,0.0127,9.6161,-0.139,0.203,9.8036,-0.0112,0.0298,-0.0052
23260,47.579334,-1.62891,89.03,30.31,15.008,15.5,0 / 23,640581,2019-08-12 16:43:21:023,-0.1692,0.0007,10.0758,-0.1449,0.1834,9.8039,-0.0091,-0.0096,-0.0052
23261,47.579334,-1.62891,89.03,30.31,15.008,15.5,0 / 23,640682,2019-08-12 16:43:21:124,-0.168,0.045,10.2446,-0.1319,0.1862,9.804,0.0111,-0.0224,-0.0041
23262,47.579334,-1.62891,89.03,30.31,15.008,15.5,0 / 23,640781,2019-08-12 16:43:21:223,-0.1656,0.0881,9.6521,-0.1211,0.1911,9.804,0.0079,-0.0075,-0.002
23263,47.579334,-1.62891,89.03,30.31,15.008,15.5,0 / 23,640881,2019-08-12 16:43:21:323,-0.1057,0.0762,9.0619,-0.1414,0.1964,9.8037,0.009,0.0213,-0.0031
23264,47.579334,-1.62891,89.03,30.31,15.008,15.5,0 / 23,641294,2019-08-12 16:43:21:736,-0.1608,0.1348,9.2163,-0.1633,0.2031,9.8032,0.0133,0.0266,-0.002
23265,47.579334,-1.62891,89.03,30.31,15.008,15.5,0 / 23,641294,2019-08-12 16:43:21:736,-0.1608,0.1348,9.2163,-0.1633,0.2031,9.8032,0.0133,0.0266,-0.002
23266,47.579334,-1.62891,89.03,30.31,15.008,15.5,0 / 23,641295,2019-08-12 16:43:21:737,-0.1608,0.1348,9.2163,-0.1633,0.2031,9.8032,0.0133,0.0266,-0.002
23267,47.579334,-1.62891,89.03,30.31,15.008,15.5,0 / 23,641295,2019-08-12 16:43:21:737,-0.1608,0.1348,9.2163,-0.1633,0.2031,9.8032,0.0133,0.0266,-0.002
23268,47.579334,-1.62891,89.03,30.31,15.008,15.5,0 / 23,641296,2019-08-12 16:43:21:738,-0.1608,0.1348,9.2163,-0.1633,0.2031,9.8032,0.0133,0.0266,-0.002
23269,47.579334,-1.62891,89.03,30.31,15.008,15.5,0 / 23,641296,2019-08-12 16:43:21:738,-0.1608,0.1348,9.2163,-0.1633,0.2031,9.8032,0.0133,0.0266,-0.002
23270,47.579334,-1.62891,89.03,30.31,15.008,15.5,0 / 23,641297,2019-08-12 16:43:21:739,-0.1608,0.1348,9.2163,-0.1633,0.2031,9.8032,0.0133,0.0266,-0.002
23271,47.579334,-1.62891,89.03,30.31,15.008,15.5,0 / 23,641297,2019-08-12 16:43:21:739,-0.1608,0.1348,9.2163,-0.1633,0.2031,9.8032,0.0133,0.0266,-0.002
23272,47.579334,-1.62891,89.03,30.31,15.008,15.5,0 / 23,641297,2019-08-12 16:43:21:739,-0.1608,0.1348,9.2163,-0.1633,0.2031,9.8032,0.0133,0.0266,-0.002
23273,47.579334,-1.62891,89.03,30.31,15.008,15.5,0 / 23,641297,2019-08-12 16:43:21:739,-0.1608,0.1348,9.2163,-0.1633,0.2031,9.8032,0.0133,0.0266,-0.002
23274,47.579334,-1.62891,89.03,30.31,15.008,15.5,0 / 23,641298,2019-08-12 16:43:21:740,-0.1608,0.1348,9.2163,-0.1633,0.2031,9.8032,0.0133,0.0266,-0.002
23275,47.579334,-1.62891,89.03,30.31,15.008,15.5,0 / 23,641298,2019-08-12 16:43:21:740,-0.1608,0.1348,9.2163,-0.1633,0.2031,9.8032,0.0133,0.0266,-0.002
23276,47.579334,-1.62891,89.03,30.31,15.008,15.5,0 / 23,641299,2019-08-12 16:43:21:741,-0.1608,0.1348,9.2163,-0.1633,0.2031,9.8032,0.0133,0.0266,-0.002
23277,47.579334,-1.62891,89.03,30.31,15.008,15.5,0 / 23,641299,2019-08-12 16:43:21:741,-0.1608,0.1348,9.2163,-0.1633,0.2031,9.8032,0.0133,0.0266,-0.002
23278,47.579334,-1.62891,89.03,30.31,15.008,15.5,0 / 23,641302,2019-08-12 16:43:21:744,-0.1608,0.1348,9.2163,-0.1633,0.2031,9.8032,0.0133,0.0266,-0.002
23279,47.579334,-1.62891,89.03,30.31,15.008,15.5,0 / 23,641303,2019-08-12 16:43:21:745,-0.1608,0.1348,9.2163,-0.1633,0.2031,9.8032,0.0133,0.0266,-0.002
23280,47.579334,-1.62891,89.03,30.31,15.008,15.5,0 / 23,641303,2019-08-12 16:43:21:745,-0.1608,0.1348,9.2163,-0.1633,0.2031,9.8032,0.0133,0.0266,-0.002
23281,47.579334,-1.62891,89.03,30.31,15.008,15.5,0 / 23,641303,2019-08-12 16:43:21:745,-0.1608,0.1348,9.2163,-0.1633,0.2031,9.8032,0.0133,0.0266,-0.002
23282,47.579334,-1.62891,89.03,30.31,15.008,15.5,0 / 23,641304,2019-08-12 16:43:21:746,-0.1608,0.1348,9.2163,-0.1633,0.2031,9.8032,0.0133,0.0266,-0.002
23283,47.579334,-1.62891,89.03,30.31,15.008,15.5,0 / 23,641304,2019-08-12 16:43:21:746,-0.1608,0.1348,9.2163,-0.1633,0.2031,9.8032,0.0133,0.0266,-0.002
23284,47.579334,-1.62891,89.03,30.31,15.008,15.5,0 / 23,641306,2019-08-12 16:43:21:748,-0.1608,0.1348,9.2163,-0.1633,0.2031,9.8032,0.0133,0.0266,-0.002
23285,47.579334,-1.62891,89.03,30.31,15.008,15.5,0 / 23,641307,2019-08-12 16:43:21:749,-0.1608,0.1348,9.2163,-0.1633,0.2031,9.8032,0.0133,0.0266,-0.002
23286,47.579334,-1.62891,89.03,30.31,15.008,15.5,0 / 23,641307,2019-08-12 16:43:21:749,-0.1608,0.1348,9.2163,-0.1633,0.2031,9.8032,0.0133,0.0266,-0.002
23287,47.579334,-1.62891,89.03,30.31,15.008,15.5,0 / 23,641308,2019-08-12 16:43:21:750,-0.1608,0.1348,9.2163,-0.1633,0.2031,9.8032,0.0133,0.0266,-0.002
23288,47.579334,-1.62891,89.03,30.31,15.008,15.5,0 / 23,641309,2019-08-12 16:43:21:751,-0.1608,0.1348,9.2163,-0.1633,0.2031,9.8032,0.0133,0.0266,-0.002
23289,47.579334,-1.62891,89.03,30.31,15.008,15.5,0 / 23,641310,2019-08-12 16:43:21:752,-0.1608,0.1348,9.2163,-0.1633,0.2031,9.8032,0.0133,0.0266,-0.002
23290,47.579334,-1.62891,89.03,30.31,15.008,15.5,0 / 23,641311,2019-08-12 16:43:21:753,-0.1608,0.1348,9.2163,-0.1633,0.2031,9.8032,0.0133,0.0266,-0.002
23291,47.579334,-1.62891,89.03,30.31,15.008,15.5,0 / 23,641312,2019-08-12 16:43:21:754,-0.1608,0.1348,9.2163,-0.1633,0.2031,9.8032,0.0133,0.0266,-0.002
23292,47.579334,-1.62891,89.03,30.31,15.008,15.5,0 / 23,641312,2019-08-12 16:43:21:754,-0.1608,0.1348,9.2163,-0.1633,0.2031,9.8032,0.0133,0.0266,-0.002
23293,47.579334,-1.62891,89.03,30.31,15.008,15.5,0 / 23,641313,2019-08-12 16:43:21:755,-0.1608,0.1348,9.2163,-0.1633,0.2031,9.8032,0.0133,0.0266,-0.002
23294,47.579334,-1.62891,89.03,30.31,15.008,15.5,0 / 23,641313,2019-08-12 16:43:21:755,-0.1608,0.1348,9.2163,-0.1633,0.2031,9.8032,0.0133,0.0266,-0.002
23295,47.579334,-1.62891,89.03,30.31,15.008,15.5,0 / 23,641314,2019-08-12 16:43:21:756,-0.1608,0.1348,9.2163,-0.1633,0.2031,9.8032,0.0133,0.0266,-0.002
23296,47.579334,-1.62891,89.03,30.31,15.008,15.5,0 / 23,641314,2019-08-12 16:43:21:756,-0.1608,0.1348,9.2163,-0.1633,0.2031,9.8032,0.0133,0.0266,-0.002
23297,47.579334,-1.62891,89.03,30.31,15.008,15.5,0 / 23,641315,2019-08-12 16:43:21:757,-0.1608,0.1348,9.2163,-0.1633,0.2031,9.8032,0.0133,0.0266,-0.002
23298,47.579334,-1.62891,89.03,30.31,15.008,15.5,0 / 23,641315,2019-08-12 16:43:21:757,-0.1608,0.1348,9.2163,-0.1633,0.2031,9.8032,0.0133,0.0266,-0.002
23299,47.579334,-1.62891,89.03,30.31,15.008,15.5,0 / 23,641315,2019-08-12 16:43:21:757,-0.1608,0.1348,9.2163,-0.1633,0.2031,9.8032,0.0133,0.0266,-0.002
23300,47.579334,-1.62891,89.03,30.31,15.008,15.5,0 / 23,641318,2019-08-12 16:43:21:760,-0.1608,0.1348,9.2163,-0.1633,0.2031,9.8032,0.0133,0.0266,-0.002
23301,47.579334,-1.62891,89.03,30.31,15.008,15.5,0 / 23,641318,2019-08-12 16:43:21:760,-0.1608,0.1348,9.2163,-0.1633,0.2031,9.8032,0.0133,0.0266,-0.002
23302,47.579334,-1.62891,89.03,30.31,15.008,15.5,0 / 23,641319,2019-08-12 16:43:21:761,-0.1608,0.1348,9.2163,-0.1633,0.2031,9.8032,0.0133,0.0266,-0.002
23303,47.579334,-1.62891,89.03,30.31,15.008,15.5,0 / 23,641319,2019-08-12 16:43:21:761,-0.1608,0.1348,9.2163,-0.1633,0.2031,9.8032,0.0133,0.0266,-0.002
23304,47.579334,-1.62891,89.03,30.31,15.008,15.5,0 / 23,641320,2019-08-12 16:43:21:762,-0.1608,0.1348,9.2163,-0.1633,0.2031,9.8032,0.0133,0.0266,-0.002
23305,47.579334,-1.62891,89.03,30.31,15.008,15.5,0 / 23,641320,2019-08-12 16:43:21:762,-0.1608,0.1348,9.2163,-0.1633,0.2031,9.8032,0.0133,0.0266,-0.002
23306,47.579334,-1.62891,89.03,30.31,15.008,15.5,0 / 23,641321,2019-08-12 16:43:21:763,-0.1608,0.1348,9.2163,-0.1633,0.2031,9.8032,0.0133,0.0266,-0.002
23307,47.579334,-1.62891,89.03,30.31,15.008,15.5,0 / 23,641321,2019-08-12 16:43:21:763,-0.1608,0.1348,9.2163,-0.1633,0.2031,9.8032,0.0133,0.0266,-0.002
23308,47.579334,-1.62891,89.03,30.31,15.008,15.5,0 / 23,641321,2019-08-12 16:43:21:763,-0.1608,0.1348,9.2163,-0.1633,0.2031,9.8032,0.0133,0.0266,-0.002
23309,47.579334,-1.62891,89.03,30.31,15.008,15.5,0 / 23,641322,2019-08-12 16:43:21:764,-0.1608,0.1348,9.2163,-0.1633,0.2031,9.8032,0.0133,0.0266,-0.002
23310,47.579334,-1.62891,89.03,30.31,15.008,15.5,0 / 23,641322,2019-08-12 16:43:21:764,-0.1608,0.1348,9.2163,-0.1633,0.2031,9.8032,0.0133,0.0266,-0.002
23311,47.579334,-1.62891,89.03,30.31,15.008,15.5,0 / 23,641420,2019-08-12 16:43:21:862,-0.1608,0.1348,9.2163,-0.1633,0.2031,9.8032,0.0133,0.0266,-0.002
23312,47.579334,-1.62891,89.03,30.31,15.008,15.5,0 / 23,641763,2019-08-12 16:43:22:205,-0.1608,0.1348,9.2163,-0.1633,0.2031,9.8032,0.0133,0.0266,-0.002
23313,47.579334,-1.62891,89.03,30.31,15.008,15.5,0 / 23,641763,2019-08-12 16:43:22:205,-0.1608,0.1348,9.2163,-0.1633,0.2031,9.8032,0.0133,0.0266,-0.002
23314,47.579334,-1.62891,89.03,30.31,15.008,15.5,0 / 23,641764,2019-08-12 16:43:22:206,-0.1608,0.1348,9.2163,-0.1633,0.2031,9.8032,0.0133,0.0266,-0.002
23315,47.579334,-1.62891,89.03,30.31,15.008,15.5,0 / 23,641764,2019-08-12 16:43:22:206,-0.1608,0.1348,9.2163,-0.1633,0.2031,9.8032,0.0133,0.0266,-0.002
23316,47.579334,-1.62891,89.03,30.31,15.008,15.5,0 / 23,641765,2019-08-12 16:43:22:207,-0.1608,0.1348,9.2163,-0.1633,0.2031,9.8032,0.0133,0.0266,-0.002
23317,47.579334,-1.62891,89.03,30.31,15.008,15.5,0 / 23,641765,2019-08-12 16:43:22:207,-0.1608,0.1348,9.2163,-0.1633,0.2031,9.8032,0.0133,0.0266,-0.002
23318,47.579334,-1.62891,89.03,30.31,15.008,15.5,Nov-23,641766,2019-08-12 16:43:22:208,-0.1608,0.1348,9.2163,-0.1633,0.2031,9.8032,0.0133,0.0266,-0.002
23319,47.579334,-1.62891,89.03,30.31,15.008,15.5,Nov-23,641766,2019-08-12 16:43:22:208,-0.1608,0.1348,9.2163,-0.1633,0.2031,9.8032,0.0133,0.0266,-0.002
23320,47.579334,-1.62891,89.03,30.31,15.008,15.5,Nov-23,641792,2019-08-12 16:43:22:234,-0.1608,0.1348,9.2163,-0.1633,0.2031,9.8032,0.0133,0.0266,-0.002
23321,47.579334,-1.62891,89.03,30.31,15.008,15.5,Nov-23,641892,2019-08-12 16:43:22:334,-0.1608,0.1348,9.2163,-0.1633,0.2031,9.8032,0.0133,0.0266,-0.002
23322,47.579334,-1.62891,89.03,30.31,15.008,15.5,0 / 23,642238,2019-08-12 16:43:22:680,-0.1608,0.1348,9.2163,-0.1633,0.2031,9.8032,0.0133,0.0266,-0.002
23323,47.579334,-1.62891,89.03,30.31,15.008,15.5,0 / 23,642239,2019-08-12 16:43:22:681,-0.1608,0.1348,9.2163,-0.1633,0.2031,9.8032,0.0133,0.0266,-0.002
23324,47.579334,-1.62891,89.03,30.31,15.008,15.5,0 / 23,642239,2019-08-12 16:43:22:681,-0.1608,0.1348,9.2163,-0.1633,0.2031,9.8032,0.0133,0.0266,-0.002
23325,47.579334,-1.62891,89.03,30.31,15.008,15.5,0 / 23,642239,2019-08-12 16:43:22:681,-0.1608,0.1348,9.2163,-0.1633,0.2031,9.8032,0.0133,0.0266,-0.002
23326,47.579334,-1.62891,89.03,30.31,15.008,15.5,0 / 23,642240,2019-08-12 16:43:22:682,-0.1608,0.1348,9.2163,-0.1633,0.2031,9.8032,0.0133,0.0266,-0.002
23327,47.579334,-1.62891,89.03,30.31,15.008,15.5,0 / 23,642240,2019-08-12 16:43:22:682,-0.1608,0.1348,9.2163,-0.1633,0.2031,9.8032,0.0133,0.0266,-0.002
23328,47.579334,-1.62891,89.03,30.31,15.008,15.5,0 / 23,642240,2019-08-12 16:43:22:682,-0.1608,0.1348,9.2163,-0.1633,0.2031,9.8032,0.0133,0.0266,-0.002
23329,47.579334,-1.62891,89.03,30.31,15.008,15.5,0 / 23,642241,2019-08-12 16:43:22:683,-0.1608,0.1348,9.2163,-0.1633,0.2031,9.8032,0.0133,0.0266,-0.002
23330,47.58185,-1.627991,98.97,30.3,15.008,14.6,0 / 23,642261,2019-08-12 16:43:22:703,-0.1608,0.1348,9.2163,-0.1633,0.2031,9.8032,0.0133,0.0266,-0.002
23331,47.58185,-1.627991,98.97,30.3,15.008,14.6,0 / 23,642361,2019-08-12 16:43:22:803,-0.1608,0.1348,9.2163,-0.1633,0.2031,9.8032,0.0133,0.0266,-0.002
23332,47.58185,-1.627991,98.97,30.3,15.008,14.6,0 / 23,642706,2019-08-12 16:43:23:148,-0.1608,0.1348,9.2163,-0.1633,0.2031,9.8032,0.0133,0.0266,-0.002
23333,47.58185,-1.627991,98.97,30.3,15.008,14.6,0 / 23,642706,2019-08-12 16:43:23:148,-0.1608,0.1348,9.2163,-0.1633,0.2031,9.8032,0.0133,0.0266,-0.002
23334,47.58185,-1.627991,98.97,30.3,15.008,14.6,0 / 23,642707,2019-08-12 16:43:23:149,-0.1608,0.1348,9.2163,-0.1633,0.2031,9.8032,0.0133,0.0266,-0.002
23335,47.58185,-1.627991,98.97,30.3,15.008,14.6,0 / 23,642707,2019-08-12 16:43:23:149,-0.1608,0.1348,9.2163,-0.1633,0.2031,9.8032,0.0133,0.0266,-0.002
23336,47.58185,-1.627991,98.97,30.3,15.008,14.6,0 / 23,642708,2019-08-12 16:43:23:150,-0.1608,0.1348,9.2163,-0.1633,0.2031,9.8032,0.0133,0.0266,-0.002
23337,47.58185,-1.627991,98.97,30.3,15.008,14.6,0 / 23,642708,2019-08-12 16:43:23:150,-0.1608,0.1348,9.2163,-0.1633,0.2031,9.8032,0.0133,0.0266,-0.002
23338,47.58185,-1.627991,98.97,30.3,15.008,14.6,0 / 23,642709,2019-08-12 16:43:23:151,-0.1608,0.1348,9.2163,-0.1633,0.2031,9.8032,0.0133,0.0266,-0.002
23339,47.58185,-1.627991,98.97,30.3,15.008,14.6,0 / 23,642709,2019-08-12 16:43:23:151,-0.1608,0.1348,9.2163,-0.1633,0.2031,9.8032,0.0133,0.0266,-0.002
23340,47.58185,-1.627991,98.97,30.3,15.008,14.6,0 / 23,642709,2019-08-12 16:43:23:151,-0.1608,0.1348,9.2163,-0.1633,0.2031,9.8032,0.0133,0.0266,-0.002
23341,47.58185,-1.627991,98.97,30.3,15.008,14.6,0 / 23,642710,2019-08-12 16:43:23:152,-0.1608,0.1348,9.2163,-0.1633,0.2031,9.8032,0.0133,0.0266,-0.002
23342,47.58185,-1.627991,98.97,30.3,15.008,14.6,0 / 23,642710,2019-08-12 16:43:23:152,-0.1608,0.1348,9.2163,-0.1633,0.2031,9.8032,0.0133,0.0266,-0.002
23343,47.58185,-1.627991,98.97,30.3,15.008,14.6,0 / 23,642711,2019-08-12 16:43:23:153,-0.1608,0.1348,9.2163,-0.1633,0.2031,9.8032,0.0133,0.0266,-0.002
23344,47.58185,-1.627991,98.97,30.3,15.008,14.6,0 / 23,642711,2019-08-12 16:43:23:153,-0.1608,0.1348,9.2163,-0.1633,0.2031,9.8032,0.0133,0.0266,-0.002
23345,47.58185,-1.627991,98.97,30.3,15.008,14.6,0 / 23,642711,2019-08-12 16:43:23:153,-0.1608,0.1348,9.2163,-0.1633,0.2031,9.8032,0.0133,0.0266,-0.002
23346,47.58185,-1.627991,98.97,30.3,15.008,14.6,0 / 23,642713,2019-08-12 16:43:23:155,-0.1608,0.1348,9.2163,-0.1633,0.2031,9.8032,0.0133,0.0266,-0.002
23347,47.58185,-1.627991,98.97,30.3,15.008,14.6,0 / 23,642714,2019-08-12 16:43:23:156,-0.1608,0.1348,9.2163,-0.1633,0.2031,9.8032,0.0133,0.0266,-0.002
23348,47.58185,-1.627991,98.97,30.3,15.008,14.6,0 / 23,642716,2019-08-12 16:43:23:158,-0.1608,0.1348,9.2163,-0.1633,0.2031,9.8032,0.0133,0.0266,-0.002
23349,47.58185,-1.627991,98.97,30.3,15.008,14.6,0 / 23,642716,2019-08-12 16:43:23:158,-0.1608,0.1348,9.2163,-0.1633,0.2031,9.8032,0.0133,0.0266,-0.002
23350,47.58185,-1.627991,98.97,30.3,15.008,14.6,0 / 23,642716,2019-08-12 16:43:23:158,-0.1608,0.1348,9.2163,-0.1633,0.2031,9.8032,0.0133,0.0266,-0.002
23351,47.58185,-1.627991,98.97,30.3,15.008,14.6,0 / 23,642717,2019-08-12 16:43:23:159,-0.1608,0.1348,9.2163,-0.1633,0.2031,9.8032,0.0133,0.0266,-0.002
23352,47.58185,-1.627991,98.97,30.3,15.008,14.6,0 / 23,642717,2019-08-12 16:43:23:159,-0.1608,0.1348,9.2163,-0.1633,0.2031,9.8032,0.0133,0.0266,-0.002
23353,47.58185,-1.627991,98.97,30.3,15.008,14.6,0 / 23,642718,2019-08-12 16:43:23:160,-0.1608,0.1348,9.2163,-0.1633,0.2031,9.8032,0.0133,0.0266,-0.002
23354,47.58185,-1.627991,98.97,30.3,15.008,14.6,0 / 23,642718,2019-08-12 16:43:23:160,-0.1608,0.1348,9.2163,-0.1633,0.2031,9.8032,0.0133,0.0266,-0.002
23355,47.58185,-1.627991,98.97,30.3,15.008,14.6,0 / 23,642719,2019-08-12 16:43:23:161,-0.1608,0.1348,9.2163,-0.1633,0.2031,9.8032,0.0133,0.0266,-0.002
23356,47.58185,-1.627991,98.97,30.3,15.008,14.6,0 / 23,642720,2019-08-12 16:43:23:162,-0.1608,0.1348,9.2163,-0.1633,0.2031,9.8032,0.0133,0.0266,-0.002
23357,47.58185,-1.627991,98.97,30.3,15.008,14.6,0 / 23,642720,2019-08-12 16:43:23:162,-0.1608,0.1348,9.2163,-0.1633,0.2031,9.8032,0.0133,0.0266,-0.002
23358,47.58185,-1.627991,98.97,30.3,15.008,14.6,0 / 23,642721,2019-08-12 16:43:23:163,-0.1608,0.1348,9.2163,-0.1633,0.2031,9.8032,0.0133,0.0266,-0.002
23359,47.58185,-1.627991,98.97,30.3,15.008,14.6,0 / 23,642722,2019-08-12 16:43:23:164,-0.1608,0.1348,9.2163,-0.1633,0.2031,9.8032,0.0133,0.0266,-0.002
23360,47.58185,-1.627991,98.97,30.3,15.008,14.6,0 / 23,642723,2019-08-12 16:43:23:165,-0.1608,0.1348,9.2163,-0.1633,0.2031,9.8032,0.0133,0.0266,-0.002
23361,47.58185,-1.627991,98.97,30.3,15.008,14.6,0 / 23,642724,2019-08-12 16:43:23:166,-0.1608,0.1348,9.2163,-0.1633,0.2031,9.8032,0.0133,0.0266,-0.002
23362,47.58185,-1.627991,98.97,30.3,15.008,14.6,0 / 23,642725,2019-08-12 16:43:23:167,-0.1608,0.1348,9.2163,-0.1633,0.2031,9.8032,0.0133,0.0266,-0.002
23363,47.58185,-1.627991,98.97,30.3,15.008,14.6,0 / 23,642725,2019-08-12 16:43:23:167,-0.1608,0.1348,9.2163,-0.1633,0.2031,9.8032,0.0133,0.0266,-0.002
23364,47.58185,-1.627991,98.97,30.3,15.008,14.6,0 / 23,642726,2019-08-12 16:43:23:168,-0.1608,0.1348,9.2163,-0.1633,0.2031,9.8032,0.0133,0.0266,-0.002
23365,47.58185,-1.627991,98.97,30.3,15.008,14.6,0 / 23,642727,2019-08-12 16:43:23:169,-0.1608,0.1348,9.2163,-0.1633,0.2031,9.8032,0.0133,0.0266,-0.002
23366,47.58185,-1.627991,98.97,30.3,15.008,14.6,0 / 23,642727,2019-08-12 16:43:23:169,-0.1608,0.1348,9.2163,-0.1633,0.2031,9.8032,0.0133,0.0266,-0.002
23367,47.58185,-1.627991,98.97,30.3,15.008,14.6,0 / 23,642727,2019-08-12 16:43:23:169,-0.1608,0.1348,9.2163,-0.1633,0.2031,9.8032,0.0133,0.0266,-0.002
23368,47.58185,-1.627991,98.97,30.3,15.008,14.6,0 / 23,642728,2019-08-12 16:43:23:170,-0.1608,0.1348,9.2163,-0.1633,0.2031,9.8032,0.0133,0.0266,-0.002
23369,47.58185,-1.627991,98.97,30.3,15.008,14.6,0 / 23,642728,2019-08-12 16:43:23:170,-0.1608,0.1348,9.2163,-0.1633,0.2031,9.8032,0.0133,0.0266,-0.002
23370,47.58185,-1.627991,98.97,30.3,15.008,14.6,0 / 23,642728,2019-08-12 16:43:23:170,-0.1608,0.1348,9.2163,-0.1633,0.2031,9.8032,0.0133,0.0266,-0.002
23371,47.58185,-1.627991,98.97,30.3,15.008,14.6,0 / 23,642729,2019-08-12 16:43:23:171,-0.1608,0.1348,9.2163,-0.1633,0.2031,9.8032,0.0133,0.0266,-0.002
23372,47.58185,-1.627991,98.97,30.3,15.008,14.6,0 / 23,642729,2019-08-12 16:43:23:171,-0.1608,0.1348,9.2163,-0.1633,0.2031,9.8032,0.0133,0.0266,-0.002
23373,47.58185,-1.627991,98.97,30.3,15.008,14.6,0 / 23,642730,2019-08-12 16:43:23:172,-0.1608,0.1348,9.2163,-0.1633,0.2031,9.8032,0.0133,0.0266,-0.002
23374,47.58185,-1.627991,98.97,30.3,15.008,14.6,0 / 23,642731,2019-08-12 16:43:23:173,-0.1608,0.1348,9.2163,-0.1633,0.2031,9.8032,0.0133,0.0266,-0.002
23375,47.58185,-1.627991,98.97,30.3,15.008,14.6,0 / 23,642732,2019-08-12 16:43:23:174,-0.1608,0.1348,9.2163,-0.1633,0.2031,9.8032,0.0133,0.0266,-0.002
23376,47.58185,-1.627991,98.97,30.3,15.008,14.6,0 / 23,642732,2019-08-12 16:43:23:174,-0.1608,0.1348,9.2163,-0.1633,0.2031,9.8032,0.0133,0.0266,-0.002
23377,47.58185,-1.627991,98.97,30.3,15.008,14.6,0 / 23,642733,2019-08-12 16:43:23:175,-0.1608,0.1348,9.2163,-0.1633,0.2031,9.8032,0.0133,0.0266,-0.002
23378,47.58185,-1.627991,98.97,30.3,15.008,14.6,0 / 23,642733,2019-08-12 16:43:23:175,-0.1608,0.1348,9.2163,-0.1633,0.2031,9.8032,0.0133,0.0266,-0.002
23379,47.58185,-1.627991,98.97,30.3,15.008,14.6,0 / 23,642734,2019-08-12 16:43:23:176,-0.1608,0.1348,9.2163,-0.1633,0.2031,9.8032,0.0133,0.0266,-0.002
23380,47.58185,-1.627991,98.97,30.3,15.008,14.6,0 / 23,642734,2019-08-12 16:43:23:176,-0.1608,0.1348,9.2163,-0.1633,0.2031,9.8032,0.0133,0.0266,-0.002
23381,47.58185,-1.627991,98.97,30.3,15.008,14.6,0 / 23,642734,2019-08-12 16:43:23:176,-0.1608,0.1348,9.2163,-0.1633,0.2031,9.8032,0.0133,0.0266,-0.002
23382,47.58185,-1.627991,98.97,30.3,15.008,14.6,0 / 23,642735,2019-08-12 16:43:23:177,-0.1608,0.1348,9.2163,-0.1633,0.2031,9.8032,0.0133,0.0266,-0.002
23383,47.58185,-1.627991,98.97,30.3,15.008,14.6,0 / 23,642735,2019-08-12 16:43:23:177,-0.1608,0.1348,9.2163,-0.1633,0.2031,9.8032,0.0133,0.0266,-0.002
23384,47.58185,-1.627991,98.97,30.3,15.008,14.6,0 / 23,642736,2019-08-12 16:43:23:178,-0.1608,0.1348,9.2163,-0.1633,0.2031,9.8032,0.0133,0.0266,-0.002
23385,47.58185,-1.627991,98.97,30.3,15.008,14.6,0 / 23,642736,2019-08-12 16:43:23:178,-0.1608,0.1348,9.2163,-0.1633,0.2031,9.8032,0.0133,0.0266,-0.002
23386,47.58185,-1.627991,98.97,30.3,15.008,14.6,0 / 23,642736,2019-08-12 16:43:23:178,-0.1608,0.1348,9.2163,-0.1633,0.2031,9.8032,0.0133,0.0266,-0.002
23387,47.58185,-1.627991,98.97,30.3,15.008,14.6,0 / 23,642737,2019-08-12 16:43:23:179,-0.1608,0.1348,9.2163,-0.1633,0.2031,9.8032,0.0133,0.0266,-0.002
23388,47.58185,-1.627991,98.97,30.3,15.008,14.6,0 / 23,642737,2019-08-12 16:43:23:179,-0.1608,0.1348,9.2163,-0.1633,0.2031,9.8032,0.0133,0.0266,-0.002
23389,47.58185,-1.627991,98.97,30.3,15.008,14.6,0 / 23,642737,2019-08-12 16:43:23:179,-0.1608,0.1348,9.2163,-0.1633,0.2031,9.8032,0.0133,0.0266,-0.002
23390,47.58185,-1.627991,98.97,30.3,15.008,14.6,0 / 23,642738,2019-08-12 16:43:23:180,-0.1608,0.1348,9.2163,-0.1633,0.2031,9.8032,0.0133,0.0266,-0.002
23391,47.58185,-1.627991,98.97,30.3,15.008,14.6,0 / 23,642738,2019-08-12 16:43:23:180,-0.1608,0.1348,9.2163,-0.1633,0.2031,9.8032,0.0133,0.0266,-0.002
23392,47.58185,-1.627991,98.97,30.3,15.008,14.6,0 / 23,642738,2019-08-12 16:43:23:180,-0.1608,0.1348,9.2163,-0.1633,0.2031,9.8032,0.0133,0.0266,-0.002
23393,47.58185,-1.627991,98.97,30.3,15.008,14.6,0 / 23,642739,2019-08-12 16:43:23:181,-0.1608,0.1348,9.2163,-0.1633,0.2031,9.8032,0.0133,0.0266,-0.002
23394,47.58185,-1.627991,98.97,30.3,15.008,14.6,0 / 23,642739,2019-08-12 16:43:23:181,-0.1608,0.1348,9.2163,-0.1633,0.2031,9.8032,0.0133,0.0266,-0.002
23395,47.58185,-1.627991,98.97,30.3,15.008,14.6,0 / 23,642739,2019-08-12 16:43:23:181,-0.1608,0.1348,9.2163,-0.1633,0.2031,9.8032,0.0133,0.0266,-0.002
23396,47.58185,-1.627991,98.97,30.3,15.008,14.6,0 / 23,642740,2019-08-12 16:43:23:182,-0.1608,0.1348,9.2163,-0.1633,0.2031,9.8032,0.0133,0.0266,-0.002
23397,47.58185,-1.627991,98.97,30.3,15.008,14.6,0 / 23,642740,2019-08-12 16:43:23:182,-0.1608,0.1348,9.2163,-0.1633,0.2031,9.8032,0.0133,0.0266,-0.002
23398,47.58185,-1.627991,98.97,30.3,15.008,14.6,0 / 23,642740,2019-08-12 16:43:23:182,-0.1608,0.1348,9.2163,-0.1633,0.2031,9.8032,0.0133,0.0266,-0.002
23399,47.58185,-1.627991,98.97,30.3,15.008,14.6,0 / 23,642741,2019-08-12 16:43:23:183,-0.1608,0.1348,9.2163,-0.1633,0.2031,9.8032,0.0133,0.0266,-0.002
23400,47.58185,-1.627991,98.97,30.3,15.008,14.6,0 / 23,642743,2019-08-12 16:43:23:185,-0.1608,0.1348,9.2163,-0.1633,0.2031,9.8032,0.0133,0.0266,-0.002
23401,47.58185,-1.627991,98.97,30.3,15.008,14.6,0 / 23,642838,2019-08-12 16:43:23:280,-0.1608,0.1348,9.2163,-0.1633,0.2031,9.8032,0.0133,0.0266,-0.002
23402,47.58185,-1.627991,98.97,30.3,15.008,14.6,0 / 23,642938,2019-08-12 16:43:23:380,-0.1608,0.1348,9.2163,-0.1633,0.2031,9.8032,0.0133,0.0266,-0.002
23403,47.58185,-1.627991,98.97,30.3,15.008,14.6,0 / 23,643038,2019-08-12 16:43:23:480,-0.1608,0.1348,9.2163,-0.1633,0.2031,9.8032,0.0133,0.0266,-0.002
23404,47.58185,-1.627991,98.97,30.3,15.008,14.6,0 / 23,643138,2019-08-12 16:43:23:580,-0.2637,0.5143,10.0507,-0.1633,0.2031,9.8032,0.0133,0.0266,-0.002
23405,47.58185,-1.627991,98.97,30.3,15.008,14.6,0 / 23,643238,2019-08-12 16:43:23:680,-0.4014,0.6292,9.682,-0.4721,0.7742,9.7646,-0.0016,0.016,0.0204
23406,47.58185,-1.627991,98.97,30.3,15.008,14.6,0 / 23,643338,2019-08-12 16:43:23:780,-0.575,0.7238,9.9453,-0.4827,0.8028,9.7618,0.0069,0.0074,0.0225
23407,47.58185,-1.627991,98.97,30.3,15.008,14.6,0 / 23,643438,2019-08-12 16:43:23:880,-0.4792,1.1416,10.1441,-0.4788,0.8233,9.7603,0.0133,-0.0032,0.0246
23408,47.58185,-1.627991,98.97,30.3,15.008,14.6,0 / 23,643539,2019-08-12 16:43:23:981,-0.5498,1.1476,9.7921,-0.4752,0.8364,9.7594,0.0026,-0.0021,0.0268
23409,47.58185,-1.627991,98.97,30.3,15.008,14.6,0 / 23,643639,2019-08-12 16:43:24:081,-0.6672,1.1679,9.7658,-0.481,0.92,9.7515,0.0005,0.0,0.0268
23410,47.58185,-1.627991,98.97,30.3,15.008,14.6,Sep-23,643738,2019-08-12 16:43:24:180,-0.4517,1.3331,8.8249,-0.4819,0.9539,9.7482,-0.0123,0.0074,0.0257
23411,47.58185,-1.627991,98.97,30.3,15.008,14.6,Sep-23,643838,2019-08-12 16:43:24:280,-0.5008,1.1488,9.0715,-0.5044,0.9454,9.7479,-0.0176,0.0266,0.0225
23412,47.58185,-1.627991,98.97,30.3,15.008,14.6,Sep-23,643940,2019-08-12 16:43:24:382,-0.4517,0.8878,8.9086,-0.5191,0.9472,9.747,0.0005,0.017,0.0257
23413,47.58185,-1.627991,98.97,30.3,15.008,14.6,Sep-23,644038,2019-08-12 16:43:24:480,-0.3834,0.816,9.6736,-0.5237,0.9543,9.746,-0.0006,0.0021,0.0246
23414,47.58185,-1.627991,98.97,30.3,15.008,14.6,Sep-23,644139,2019-08-12 16:43:24:581,-0.4708,0.9859,10.3332,-0.5163,0.9529,9.7466,-0.0027,-0.0107,0.0225
23415,47.58185,-1.627991,98.97,30.3,15.008,14.6,Sep-23,644238,2019-08-12 16:43:24:680,-0.4864,0.8483,10.7223,-0.4901,0.9477,9.7484,0.0026,-0.0224,0.015
23416,47.58185,-1.627991,98.97,30.3,15.008,14.6,Sep-23,644338,2019-08-12 16:43:24:780,-0.642,0.81,10.2829,-0.4777,0.9412,9.7497,-0.0048,-0.0117,0.0129
23417,47.58185,-1.627991,98.97,30.3,15.008,14.6,Sep-23,644438,2019-08-12 16:43:24:880,-0.6492,0.8375,10.3308,-0.4847,0.9037,9.7529,-0.0293,0.0107,0.0076
23418,47.58185,-1.627991,98.97,30.3,15.008,14.6,Sep-23,644538,2019-08-12 16:43:24:980,-0.5008,0.5873,9.2295,-0.4907,0.8795,9.7548,-0.0123,0.0107,0.0055
23419,47.58185,-1.627991,98.97,30.3,15.008,14.6,Sep-23,644639,2019-08-12 16:43:25:081,-0.5905,0.8279,9.3288,-0.4989,0.8564,9.7564,-0.008,-0.0096,0.0087
23420,47.584328,-1.627337,99.31,30.54,12.864,6.7,0 / 23,644738,2019-08-12 16:43:25:180,-0.6588,0.5263,8.9146,-0.4845,0.8409,9.7585,-0.0134,-0.0202,0.0076
23421,47.584328,-1.627337,99.31,30.54,12.864,6.7,0 / 23,644838,2019-08-12 16:43:25:280,0.0487,0.4377,9.4378,-0.495,0.8169,9.76,-0.0102,0.0181,0.0065
23422,47.584328,-1.627337,99.31,30.54,12.864,6.7,0 / 23,644938,2019-08-12 16:43:25:380,-0.5199,0.3623,9.8891,-0.5173,0.7961,9.7606,-0.008,0.0213,0.0076
23423,47.584328,-1.627337,99.31,30.54,12.864,6.7,0 / 23,645346,2019-08-12 16:43:25:788,-0.4541,0.1899,9.4438,-0.5231,0.7934,9.7605,0.0069,0.016,0.0087
23424,47.584328,-1.627337,99.31,30.54,12.864,6.7,0 / 23,645347,2019-08-12 16:43:25:789,-0.4541,0.1899,9.4438,-0.5231,0.7934,9.7605,0.0069,0.016,0.0087
23425,47.584328,-1.627337,99.31,30.54,12.864,6.7,0 / 23,645347,2019-08-12 16:43:25:789,-0.4541,0.1899,9.4438,-0.5231,0.7934,9.7605,0.0069,0.016,0.0087
23426,47.584328,-1.627337,99.31,30.54,12.864,6.7,0 / 23,645347,2019-08-12 16:43:25:789,-0.4541,0.1899,9.4438,-0.5231,0.7934,9.7605,0.0069,0.016,0.0087
23427,47.584328,-1.627337,99.31,30.54,12.864,6.7,0 / 23,645348,2019-08-12 16:43:25:790,-0.4541,0.1899,9.4438,-0.5231,0.7934,9.7605,0.0069,0.016,0.0087
