,GPS LATITUDE (degrees), GPS LONGITUDE (degrees), GPS ALTITUDE (m), GPS SPEED (Kmh), GPS ACCURACY (m), GPS ORIENTATION (Â°),GPS SATELLITES IN RANGE, TIME SINCE START (ms), DATE (YYYY-MO-DD HH-MI-SS_SSS), ACCELEROMETER X (m/s²) , ACCELEROMETER Y (m/s²), ACCELEROMETER Z (m/s²), GRAVITY X (m/s²), GRAVITY Y (m/s²), GRAVITY Z (m/s²), GYROSCOPE Yaw (rad/s), GYROSCOPE Pitch (rad/s), GYROSCOPE Roll (rad/s), MAGNETIC FIELD X (Î¼T), MAGNETIC FIELD Y (Î¼T), MAGNETIC FIELD Z (Î¼T), ORIENTATION (Yaw) (Â°), ORIENTATION (Pitch) (Â°), ORIENTATION (Roll ) (Â°)
91092,52.474182,-1.399764,173.14,19.35,3.0,112.0,22 / 22,4687875,2019-09-07 11:45:21:029,0.1517,0.2782,10.4017,-0.0025,0.0095,9.8066,-0.0197,0.0044,0.0039,-42.19,-27.25,18.19,326.92,-81.54,-143.27
91093,52.474182,-1.399764,173.14,19.35,3.0,112.0,22 / 22,4687975,2019-09-07 11:45:21:129,0.3622,-0.1277,9.7895,-0.0035,-0.0133,9.8066,0.0018,0.0505,0.0293,-42.56,-26.56,17.81,327.1,-81.5,-142.66
91094,52.474182,-1.399764,173.14,19.35,3.0,112.0,22 / 22,4688075,2019-09-07 11:45:21:229,-0.5631,-0.0864,8.9862,0.0002,0.0013,9.8066,0.0327,0.0616,0.021,-42.69,-26.5,18.38,327.57,-81.56,-142.34
91095,52.474182,-1.399764,173.14,19.35,3.0,112.0,22 / 22,4688175,2019-09-07 11:45:21:329,-0.1222,-0.0803,10.9869,-0.0021,0.0084,9.8066,-0.0027,-0.0187,-0.0353,-42.87,-26.62,18.63,328.27,-81.61,-142.76
91096,52.474182,-1.399764,173.14,19.35,3.0,112.0,21 / 22,4688276,2019-09-07 11:45:21:430,0.5705,0.1013,10.6583,-0.0052,-0.0054,9.8066,-0.0227,-0.0001,-0.0059,-42.37,-26.75,17.94,327.26,-81.55,-142.96
91097,52.474182,-1.399764,173.14,19.35,3.0,112.0,21 / 22,4688375,2019-09-07 11:45:21:529,0.7646,0.6497,10.3411,0.0026,0.0075,9.8066,0.0136,0.079,0.0294,-42.94,-27.06,18.19,327.07,-81.59,-142.72
91098,52.474182,-1.399764,173.14,19.35,3.0,112.0,21 / 22,4688475,2019-09-07 11:45:21:629,-0.3583,-0.5134,9.3314,-0.0055,0.0139,9.8066,-0.0208,-0.0261,-0.0429,-43.19,-27.06,17.94,327.22,-81.74,-142.64
91099,52.474182,-1.399764,173.14,19.35,3.0,112.0,21 / 22,4688575,2019-09-07 11:45:21:729,-0.8899,-0.1198,9.4949,0.0005,0.0134,9.8065,0.0171,0.0556,-0.0138,-42.37,-26.56,18.38,327.49,-81.78,-142.84
91100,52.474182,-1.399764,173.14,19.35,3.0,112.0,21 / 22,4688675,2019-09-07 11:45:21:829,-0.0373,-0.0969,9.4207,-0.0063,0.0121,9.8066,-0.0409,-0.0169,-0.061,-42.12,-27.06,17.81,326.09,-81.98,-144.21
91101,52.474182,-1.399764,173.14,19.35,3.0,112.0,21 / 22,4688775,2019-09-07 11:45:21:929,0.234,1.1959,9.5408,-0.0096,0.0216,9.8066,0.0589,0.0681,0.0043,-42.25,-26.94,18.06,325.4,-82.31,-144.98
91102,52.474182,-1.399764,173.14,19.35,3.0,112.0,21 / 22,4688875,2019-09-07 11:45:22:029,1.3049,-0.4016,12.7826,0.0263,-0.001,9.8066,0.063,-0.012,-0.0106,-42.25,-27.5,18.25,324.02,-82.17,-146.21
91103,52.474182,-1.399764,173.14,19.35,3.0,112.0,21 / 22,4688975,2019-09-07 11:45:22:129,-0.403,0.2733,10.3602,0.0195,-0.018,9.8066,-0.0089,-0.0345,-0.013,-42.81,-27.06,18.19,321.69,-81.73,-147.76
91104,52.474182,-1.399764,173.14,19.35,3.0,112.0,21 / 22,4689075,2019-09-07 11:45:22:229,-0.1908,-0.3347,9.9333,-0.0158,-0.0046,9.8066,-0.0554,0.0011,-0.0027,-42.62,-26.5,17.94,322.96,-81.66,-146.66
91105,52.474182,-1.399764,173.14,19.35,3.0,112.0,21 / 22,4689176,2019-09-07 11:45:22:330,-0.1967,0.1412,9.2315,0.0008,0.0306,9.8065,0.0073,0.0569,-0.0728,-41.87,-27.0,17.94,322.71,-81.86,-147.29
91106,52.474182,-1.399764,173.14,19.35,3.0,112.0,22 / 22,4689276,2019-09-07 11:45:22:430,0.6634,-0.368,10.0276,0.0077,0.0278,9.8065,-0.0259,0.0149,-0.1073,-42.19,-26.69,17.63,320.68,-82.05,-149.27
91107,52.474182,-1.399764,173.14,19.35,3.0,112.0,22 / 22,4689375,2019-09-07 11:45:22:529,0.8544,1.5945,8.8126,0.0025,0.0149,9.8065,-0.0187,0.0346,0.0012,-41.56,-26.44,18.06,318.26,-82.29,-151.75
91108,52.474182,-1.399764,173.14,19.35,3.0,112.0,22 / 22,4689476,2019-09-07 11:45:22:630,0.1061,1.3962,10.4128,-0.0109,-0.0108,9.8066,-0.0005,0.0649,0.0555,-42.12,-26.94,17.88,319.88,-82.29,-150.12
91109,52.474182,-1.399764,173.14,19.35,3.0,112.0,22 / 22,4689575,2019-09-07 11:45:22:729,0.1205,0.3292,10.9694,-0.0098,-0.0337,9.8065,0.0495,0.0694,0.0862,-42.75,-27.06,17.25,320.33,-82.12,-148.04
91110,52.474182,-1.399764,173.14,19.35,3.0,112.0,22 / 22,4689675,2019-09-07 11:45:22:829,-0.3022,-0.2579,10.6599,-0.004,-0.0134,9.8066,-0.0003,0.0352,0.0248,-42.81,-27.12,17.5,322.55,-81.9,-147.03
91111,52.474182,-1.399764,173.14,19.35,3.0,112.0,22 / 22,4689775,2019-09-07 11:45:22:929,-0.3104,0.7035,10.1229,-0.0072,-0.0043,9.8066,-0.0372,0.0705,0.0435,-42.81,-26.62,17.19,322.54,-81.82,-145.84
91112,52.474182,-1.399764,173.14,19.35,3.0,112.0,22 / 22,4689875,2019-09-07 11:45:23:029,0.3512,0.1198,9.991,-0.021,-0.0087,9.8066,-0.0298,0.0763,0.0608,-42.69,-27.12,17.0,324.21,-81.9,-144.32
91113,52.474182,-1.399764,173.14,19.35,3.0,112.0,22 / 22,4689975,2019-09-07 11:45:23:129,-0.0963,0.1976,10.7541,0.007,-0.0122,9.8066,0.031,0.0013,-0.031,-42.5,-26.69,16.75,325.88,-81.89,-143.18
91114,52.474182,-1.399764,173.14,19.35,3.0,112.0,22 / 22,4690075,2019-09-07 11:45:23:229,-0.1482,1.0024,9.8566,0.0188,0.0034,9.8065,0.0561,0.0868,-0.0166,-43.19,-26.62,17.5,324.87,-81.78,-144.83
91115,52.474182,-1.399764,173.14,19.35,3.0,112.0,22 / 22,4690175,2019-09-07 11:45:23:329,-0.1512,0.5524,9.9405,0.0125,0.0192,9.8066,0.0303,0.0752,-0.0286,-42.5,-27.12,17.06,322.53,-81.8,-146.25
91116,52.474182,-1.399764,173.14,19.35,3.0,112.0,21 / 22,4690275,2019-09-07 11:45:23:429,0.3414,0.1398,11.4395,0.0197,0.0092,9.8065,0.038,0.067,-0.0414,-42.31,-27.5,17.38,320.31,-81.85,-148.33
91117,52.474182,-1.399764,173.14,19.35,3.0,112.0,21 / 22,4690375,2019-09-07 11:45:23:529,1.124,0.9933,9.179,0.0142,0.0146,9.8066,0.0217,0.0928,0.0085,-42.19,-26.56,17.69,318.54,-81.91,-151.2
91118,52.474182,-1.399764,173.14,19.35,3.0,112.0,21 / 22,4690476,2019-09-07 11:45:23:630,0.0892,1.7256,9.2598,-0.0069,0.0004,9.8066,-0.0006,0.0476,0.0002,-41.69,-27.31,16.69,316.91,-82.01,-151.59
91119,52.474182,-1.399764,173.14,19.35,3.0,112.0,21 / 22,4690575,2019-09-07 11:45:23:729,0.3906,0.9527,10.4027,-0.0149,-0.0154,9.8066,-0.0175,0.0881,0.0573,-42.81,-26.69,16.5,317.84,-82.1,-150.36
91120,52.474182,-1.399764,173.14,19.35,3.0,112.0,21 / 22,4690675,2019-09-07 11:45:23:829,0.1819,0.6779,9.8889,-0.0001,-0.0101,9.8066,0.0305,0.0913,0.0527,-42.56,-26.75,16.25,318.17,-82.0,-148.81
91121,52.474182,-1.399764,173.14,19.35,3.0,112.0,21 / 22,4690775,2019-09-07 11:45:23:929,-0.0514,0.2427,11.0712,0.006,-0.0025,9.8066,0.0494,0.086,0.0035,-42.37,-27.0,16.75,319.8,-81.94,-148.85
91122,52.474182,-1.399764,173.14,19.35,3.0,112.0,21 / 22,4690875,2019-09-07 11:45:24:029,0.1314,0.1807,10.5426,0.0172,0.0101,9.8066,0.0437,0.0519,-0.0319,-42.56,-27.06,16.94,318.54,-81.83,-149.58
91123,52.474182,-1.399764,173.14,19.35,3.0,112.0,21 / 22,4690975,2019-09-07 11:45:24:129,-0.5253,0.3738,9.8273,0.014,0.0107,9.8066,0.0517,0.1047,-0.0228,-42.87,-27.19,17.0,316.39,-81.76,-151.56
91124,52.474182,-1.399764,173.14,19.35,3.0,112.0,21 / 22,4691075,2019-09-07 11:45:24:229,0.0355,1.0632,8.5754,-0.0024,0.0214,9.8065,-0.0348,0.0157,-0.0766,-42.19,-26.87,16.69,314.7,-81.81,-153.56
91125,52.474182,-1.399764,173.14,19.35,3.0,112.0,21 / 22,4691175,2019-09-07 11:45:24:329,0.1405,1.2277,10.1979,-0.0019,0.0176,9.8066,-0.0203,0.0501,-0.0061,-41.87,-27.5,16.75,313.35,-82.05,-154.95
91126,52.47373,-1.397314,174.14,19.33,3.0,100.4,22 / 22,4691276,2019-09-07 11:45:24:430,-0.5761,1.4424,9.2646,-0.0014,-0.0021,9.8066,-0.0294,-0.0328,-0.0541,-42.31,-26.87,16.63,313.13,-82.21,-155.25
91127,52.47373,-1.397314,174.14,19.33,3.0,100.4,22 / 22,4691375,2019-09-07 11:45:24:529,0.3467,0.9854,8.8346,0.0089,-0.0067,9.8066,0.0761,0.0866,0.0265,-42.12,-27.56,16.5,312.95,-82.12,-155.24
91128,52.47373,-1.397314,174.14,19.33,3.0,100.4,22 / 22,4691476,2019-09-07 11:45:24:630,0.4044,0.3834,10.1555,0.0106,0.0069,9.8066,0.0493,0.1087,0.0373,-42.12,-26.81,16.75,311.53,-81.93,-156.61
91129,52.47373,-1.397314,174.14,19.33,3.0,100.4,22 / 22,4691575,2019-09-07 11:45:24:729,-0.8026,-0.2217,9.7013,-0.0001,0.0167,9.8066,-0.0618,-0.0208,-0.0905,-41.62,-27.56,16.38,309.12,-82.03,-157.6
91130,52.47373,-1.397314,174.14,19.33,3.0,100.4,22 / 22,4691675,2019-09-07 11:45:24:829,0.0836,0.5419,8.5767,-0.0001,0.0291,9.8065,-0.014,-0.0326,-0.0903,-41.81,-27.75,16.63,309.4,-82.19,-158.64
91131,52.47373,-1.397314,174.14,19.33,3.0,100.4,22 / 22,4691775,2019-09-07 11:45:24:929,0.7475,1.1328,9.5093,-0.0071,0.0007,9.8066,-0.0392,-0.0154,-0.0194,-41.5,-27.31,16.81,309.28,-82.35,-159.37
91132,52.47373,-1.397314,174.14,19.33,3.0,100.4,22 / 22,4691875,2019-09-07 11:45:25:029,0.5428,0.009,10.2942,-0.0153,-0.0195,9.8065,-0.0429,0.0007,0.0441,-42.12,-27.25,16.13,308.95,-82.39,-158.09
91133,52.47373,-1.397314,174.14,19.33,3.0,100.4,22 / 22,4691975,2019-09-07 11:45:25:129,-0.0723,0.6967,10.03,-0.024,-0.0195,9.8065,-0.0265,-0.0002,0.0637,-42.75,-26.87,16.19,312.78,-82.43,-154.11
91134,52.47373,-1.397314,174.14,19.33,3.0,100.4,22 / 22,4692075,2019-09-07 11:45:25:229,0.1165,-0.6022,10.0184,-0.0027,-0.0148,9.8066,0.0033,-0.0155,0.0252,-42.62,-27.06,16.06,316.16,-82.21,-150.81
91135,52.47373,-1.397314,174.14,19.33,3.0,100.4,22 / 22,4692175,2019-09-07 11:45:25:329,-0.253,0.3732,9.9277,0.0024,-0.0193,9.8065,0.0004,0.0279,0.0233,-42.37,-27.31,16.0,317.46,-82.1,-149.91
91136,52.47373,-1.397314,174.14,19.33,3.0,100.4,22 / 22,4692275,2019-09-07 11:45:25:429,0.4936,1.1147,8.9438,0.0023,-0.0104,9.8066,0.0159,0.0653,0.0407,-42.81,-26.94,15.56,317.66,-82.02,-149.3
91137,52.47373,-1.397314,174.14,19.33,3.0,100.4,22 / 22,4692375,2019-09-07 11:45:25:529,-1.2211,0.0055,8.3617,-0.0048,-0.0154,9.8066,0.0267,0.168,0.1212,-43.19,-26.69,16.06,318.73,-81.91,-148.25
91138,52.47373,-1.397314,174.14,19.33,3.0,100.4,22 / 22,4692476,2019-09-07 11:45:25:630,0.3228,-0.6226,9.0318,0.0001,-0.0031,9.8066,-0.0179,-0.0105,-0.0373,-42.81,-26.81,15.81,319.58,-81.98,-147.49
91139,52.47373,-1.397314,174.14,19.33,3.0,100.4,22 / 22,4692575,2019-09-07 11:45:25:729,0.3134,0.348,8.3979,-0.0001,-0.0017,9.8066,-0.0007,0.0787,0.0102,-43.12,-26.62,15.38,318.61,-81.95,-147.18
91140,52.47373,-1.397314,174.14,19.33,3.0,100.4,22 / 22,4692675,2019-09-07 11:45:25:829,0.3599,0.9769,9.3244,0.0026,0.0062,9.8066,-0.0046,0.0349,-0.04,-42.94,-26.94,15.75,318.71,-82.09,-148.35
91141,52.47373,-1.397314,174.14,19.33,3.0,100.4,22 / 22,4692775,2019-09-07 11:45:25:929,-0.4337,1.6974,9.0441,0.0068,0.0096,9.8066,0.0113,-0.0156,-0.0635,-42.75,-26.81,15.56,317.46,-82.18,-149.57
91142,52.47373,-1.397314,174.14,19.33,3.0,100.4,22 / 22,4692875,2019-09-07 11:45:26:029,-1.1451,-0.5073,10.3554,-0.001,-0.0055,9.8066,-0.0196,-0.0549,-0.0289,-42.25,-27.0,15.5,317.44,-82.11,-149.94
91143,52.47373,-1.397314,174.14,19.33,3.0,100.4,22 / 22,4692976,2019-09-07 11:45:26:130,1.1926,-0.1045,9.5766,0.0092,0.011,9.8066,-0.0134,0.0238,-0.0036,-42.87,-27.56,15.31,314.79,-82.1,-150.71
91144,52.47373,-1.397314,174.14,19.33,3.0,100.4,22 / 22,4693075,2019-09-07 11:45:26:229,-0.0416,0.0371,9.6102,0.0,0.0215,9.8066,-0.0339,-0.003,-0.0663,-42.75,-27.25,16.0,315.45,-82.23,-151.48
91145,52.47373,-1.397314,174.14,19.33,3.0,100.4,22 / 22,4693176,2019-09-07 11:45:26:330,-1.6782,-0.8189,9.4246,0.0099,0.0114,9.8066,0.0171,-0.0618,-0.087,-42.5,-26.81,15.63,313.61,-82.36,-153.66
91146,52.47373,-1.397314,174.14,19.33,3.0,100.4,23 / 23,4693276,2019-09-07 11:45:26:430,0.0676,-0.174,10.6024,0.0013,0.0022,9.8065,-0.0119,-0.0395,-0.0293,-42.94,-27.12,15.44,310.27,-82.28,-155.2
91147,52.47373,-1.397314,174.14,19.33,3.0,100.4,23 / 23,4693375,2019-09-07 11:45:26:529,-0.2565,-0.29,10.215,0.0085,0.0125,9.8066,0.0223,0.0357,-0.0221,-42.12,-27.31,15.81,310.84,-82.31,-156.26
91148,52.47373,-1.397314,174.14,19.33,3.0,100.4,23 / 23,4693475,2019-09-07 11:45:26:629,-1.3384,0.8856,10.0469,0.0005,0.0116,9.8065,-0.0191,-0.0579,-0.0559,-42.69,-27.12,15.63,308.95,-82.4,-157.72
91149,52.47373,-1.397314,174.14,19.33,3.0,100.4,23 / 23,4693576,2019-09-07 11:45:26:730,-0.4213,-0.5324,10.4235,-0.001,0.0118,9.8066,0.0137,-0.0483,-0.0365,-42.44,-27.12,15.19,306.38,-82.49,-159.36
91150,52.47373,-1.397314,174.14,19.33,3.0,100.4,23 / 23,4693675,2019-09-07 11:45:26:829,0.4272,-0.8046,7.5871,-0.0068,-0.0267,9.8066,0.1004,0.2418,0.2671,-42.62,-27.75,16.5,310.39,-82.3,-157.36
91151,52.47373,-1.397314,174.14,19.33,3.0,100.4,23 / 23,4693775,2019-09-07 11:45:26:929,-0.7858,-0.8579,8.9478,0.0026,0.0069,9.8065,-0.0477,-0.1262,-0.0928,-42.31,-27.75,15.63,309.49,-82.29,-157.39
91152,52.47373,-1.397314,174.14,19.33,3.0,100.4,23 / 23,4693876,2019-09-07 11:45:27:030,-0.6639,0.0165,9.4968,-0.0067,0.0049,9.8066,-0.0299,-0.0262,-0.0239,-42.12,-27.37,16.0,309.29,-82.46,-157.81
91153,52.47373,-1.397314,174.14,19.33,3.0,100.4,23 / 23,4693975,2019-09-07 11:45:27:129,-1.0873,-0.534,10.8325,0.0048,0.0194,9.8066,0.0417,0.0399,-0.0088,-41.81,-27.31,16.31,308.25,-82.65,-158.9
91154,52.47373,-1.397314,174.14,19.33,3.0,100.4,23 / 23,4694076,2019-09-07 11:45:27:230,-0.7745,0.0257,9.4051,0.0241,0.0018,9.8066,0.0251,-0.0594,-0.0874,-42.19,-27.37,16.13,306.49,-82.65,-160.57
91155,52.47373,-1.397314,174.14,19.33,3.0,100.4,23 / 23,4694175,2019-09-07 11:45:27:329,0.5896,-1.3563,11.1342,0.0042,0.0075,9.8066,-0.0384,-0.0636,-0.0866,-41.94,-27.31,15.63,304.76,-82.5,-162.15
91156,52.47373,-1.397314,174.14,19.33,3.0,100.4,23 / 23,4694275,2019-09-07 11:45:27:429,1.5182,-0.211,9.3208,-0.001,0.0336,9.8065,-0.0267,-0.0006,-0.0732,-41.56,-28.12,16.06,302.01,-82.72,-164.77
91157,52.47373,-1.397314,174.14,19.33,3.0,100.4,23 / 23,4694375,2019-09-07 11:45:27:529,0.0142,0.5926,9.2094,0.0071,0.0264,9.8065,0.0062,-0.0348,-0.091,-41.0,-27.69,16.19,300.05,-82.86,-167.12
91158,52.47373,-1.397314,174.14,19.33,3.0,100.4,23 / 23,4694475,2019-09-07 11:45:27:629,0.486,1.9408,10.9436,0.02,-0.0057,9.8065,0.0741,0.0829,-0.0096,-41.25,-28.06,16.25,298.43,-82.78,-168.64
91159,52.47373,-1.397314,174.14,19.33,3.0,100.4,23 / 23,4694576,2019-09-07 11:45:27:730,-6.0994,1.1248,5.9157,-0.0131,-0.0081,9.8066,0.1679,0.2589,0.1043,-41.44,-28.06,15.94,298.1,-82.66,-168.88
91160,52.47373,-1.397314,174.14,19.33,3.0,100.4,23 / 23,4694675,2019-09-07 11:45:27:829,0.3315,0.1075,12.544,-0.0072,0.01,9.8066,-0.0379,-0.0028,-0.0103,-41.5,-27.5,15.94,297.41,-82.35,-169.51
91161,52.47373,-1.397314,174.14,19.33,3.0,100.4,23 / 23,4694775,2019-09-07 11:45:27:929,-0.0173,0.1763,9.5018,0.0029,-0.0077,9.8066,0.0231,0.0478,0.0208,-41.75,-28.0,15.81,296.52,-82.4,-169.88
91162,52.47373,-1.397314,174.14,19.33,3.0,100.4,23 / 23,4694876,2019-09-07 11:45:28:030,1.0797,0.9458,8.5439,-0.0013,-0.0098,9.8066,0.0259,0.0999,0.0704,-41.75,-27.81,16.25,297.03,-82.39,-169.37
91163,52.47373,-1.397314,174.14,19.33,3.0,100.4,23 / 23,4694975,2019-09-07 11:45:28:129,0.1301,0.4406,10.2154,-0.003,-0.0005,9.8066,0.0132,0.0367,0.0361,-41.56,-26.94,16.19,297.06,-82.4,-169.5
91164,52.47373,-1.397314,174.14,19.33,3.0,100.4,23 / 23,4695076,2019-09-07 11:45:28:230,0.6041,0.1137,10.1878,-0.008,0.0047,9.8065,-0.0233,-0.0249,-0.0151,-41.75,-27.62,15.81,297.63,-82.41,-168.81
91165,52.47373,-1.397314,174.14,19.33,3.0,100.4,23 / 23,4695176,2019-09-07 11:45:28:330,-0.3264,-0.2825,10.4517,-0.0083,-0.0074,9.8065,0.0038,0.0375,0.0217,-41.25,-28.12,15.88,298.46,-82.5,-168.44
91166,52.47373,-1.397314,174.14,19.33,3.0,100.4,23 / 23,4695275,2019-09-07 11:45:28:429,0.4598,-0.1571,8.3146,-0.0099,0.0176,9.8066,-0.0297,-0.0142,-0.0322,-40.94,-28.06,15.94,298.5,-82.55,-168.43
91167,52.47373,-1.397314,174.14,19.33,3.0,100.4,23 / 23,4695376,2019-09-07 11:45:28:530,-2.2601,-1.3465,10.7121,-0.0072,-0.0103,9.8065,-0.0753,-0.0311,0.0528,-41.56,-27.94,15.63,298.6,-82.72,-168.06
91168,52.47373,-1.397314,174.14,19.33,3.0,100.4,23 / 23,4695475,2019-09-07 11:45:28:629,1.2988,-0.1297,13.3694,-0.0061,-0.0408,9.8065,0.0034,0.008,0.0866,-42.0,-27.69,15.44,301.39,-82.73,-164.14
91169,52.47373,-1.397314,174.14,19.33,3.0,100.4,23 / 23,4695575,2019-09-07 11:45:28:729,-0.2041,-0.5593,11.371,0.0512,-0.0228,9.8064,0.0055,-0.0921,-0.0468,-42.25,-27.62,15.69,302.22,-82.49,-164.44
91170,52.47373,-1.397314,174.14,19.33,3.0,100.4,23 / 23,4695675,2019-09-07 11:45:28:829,0.7671,-1.5421,12.0799,0.007,0.0144,9.8066,0.0038,0.004,-0.0231,-41.81,-27.62,15.75,302.2,-82.2,-164.29
91171,52.47373,-1.397314,174.14,19.33,3.0,100.4,23 / 23,4695775,2019-09-07 11:45:28:929,-0.3055,-0.3458,8.3116,-0.0005,0.0215,9.8066,-0.0195,-0.0445,-0.0468,-41.75,-27.75,15.75,300.09,-82.17,-166.29
91172,52.47373,-1.397314,174.14,19.33,3.0,100.4,23 / 23,4695875,2019-09-07 11:45:29:029,0.3137,1.0045,7.2356,-0.0047,-0.0092,9.8066,-0.0347,-0.0429,-0.0115,-42.37,-27.5,15.31,299.34,-82.18,-165.94
91173,52.47373,-1.397314,174.14,19.33,3.0,100.4,23 / 23,4695975,2019-09-07 11:45:29:129,-1.3306,-0.3213,11.4605,-0.0044,-0.003,9.8066,-0.0648,-0.0417,-0.0238,-42.0,-27.56,16.0,301.01,-82.23,-165.44
91174,52.47373,-1.397314,174.14,19.33,3.0,100.4,23 / 23,4696075,2019-09-07 11:45:29:229,0.2484,0.0181,9.8271,0.0065,0.0049,9.8066,0.0175,0.0185,-0.0119,-42.25,-26.87,16.19,300.9,-82.37,-165.78
91175,52.47373,-1.397314,174.14,19.33,3.0,100.4,23 / 23,4696175,2019-09-07 11:45:29:329,-0.5666,-0.9473,10.9244,0.0173,-0.0028,9.8066,0.0371,0.0488,0.0048,-41.5,-27.75,15.75,300.2,-82.2,-166.58
91176,52.47373,-1.397314,174.14,19.33,3.0,100.4,23 / 23,4696277,2019-09-07 11:45:29:431,-0.1769,0.281,11.1788,-0.0043,-0.0099,9.8066,0.0245,0.0819,0.0831,-41.75,-28.0,16.5,300.05,-82.17,-167.54
91177,52.47373,-1.397314,174.14,19.33,3.0,100.4,23 / 23,4696375,2019-09-07 11:45:29:529,0.1883,-0.2757,9.0807,-0.0033,-0.0073,9.8066,-0.0311,-0.0416,-0.0323,-42.0,-27.5,15.88,299.48,-82.19,-167.04
91178,52.47373,-1.397314,174.14,19.33,3.0,100.4,23 / 23,4696476,2019-09-07 11:45:29:630,-1.02,-0.8018,10.6887,-0.0082,-0.0268,9.8065,-0.0647,-0.1442,-0.0621,-42.44,-27.56,15.88,299.03,-82.44,-167.47
91179,52.47373,-1.397314,174.14,19.33,3.0,100.4,23 / 23,4696575,2019-09-07 11:45:29:729,-0.5016,-0.0794,9.7286,0.0086,-0.0149,9.8066,0.0491,0.0407,0.0431,-41.87,-28.31,15.81,301.2,-82.25,-165.27
91180,52.47373,-1.397314,174.14,19.33,3.0,100.4,23 / 23,4696675,2019-09-07 11:45:29:829,-0.0628,-0.4665,10.0805,0.0095,-0.0179,9.8066,0.0219,0.0185,0.033,-42.37,-27.75,16.38,300.97,-81.94,-165.31
91181,52.47373,-1.397314,174.14,19.33,3.0,100.4,23 / 23,4696775,2019-09-07 11:45:29:929,0.235,-0.2618,9.6136,0.0034,-0.0165,9.8066,-0.0181,0.0382,0.0686,-42.12,-27.81,16.06,301.68,-81.82,-164.56
91182,52.47373,-1.397314,174.14,19.33,3.0,100.4,23 / 23,4696875,2019-09-07 11:45:30:029,0.1141,-0.7364,9.0193,-0.0056,0.0045,9.8066,-0.0278,-0.0204,-0.0278,-41.87,-27.81,16.44,302.68,-81.92,-163.66
91183,52.47373,-1.397314,174.14,19.33,3.0,100.4,23 / 23,4696975,2019-09-07 11:45:30:129,-0.0915,-0.8301,11.4045,-0.0016,0.0108,9.8066,0.0231,0.0009,-0.049,-41.81,-27.0,16.25,302.85,-82.05,-163.72
91184,52.47373,-1.397314,174.14,19.33,3.0,100.4,23 / 23,4697075,2019-09-07 11:45:30:229,-0.7139,-1.0106,10.5452,0.0155,0.0205,9.8066,0.0303,-0.0373,-0.0693,-42.06,-27.5,16.0,301.11,-82.0,-165.37
91185,52.47373,-1.397314,174.14,19.33,3.0,100.4,23 / 23,4697175,2019-09-07 11:45:30:329,-0.3504,0.6482,9.3684,0.015,0.0175,9.8065,0.0025,-0.0193,-0.0351,-42.06,-27.25,16.13,297.99,-81.88,-168.29
91186,52.47373,-1.397314,174.14,19.33,3.0,100.4,23 / 23,4697275,2019-09-07 11:45:30:429,-1.187,-0.1018,10.4984,-0.019,-0.0002,9.8066,-0.0419,0.0413,0.0473,-41.81,-27.62,16.56,299.16,-81.9,-168.23
91187,52.47373,-1.397314,174.14,19.33,3.0,100.4,23 / 23,4697376,2019-09-07 11:45:30:530,-0.4017,-0.3029,9.177,-0.0115,-0.0076,9.8065,-0.04,-0.0745,-0.001,-41.81,-27.75,16.25,298.94,-82.02,-167.3
91188,52.47373,-1.397314,174.14,19.33,3.0,100.4,23 / 23,4697476,2019-09-07 11:45:30:630,-0.2542,-0.4251,9.0084,0.0011,-0.0102,9.8066,0.003,-0.0378,-0.0153,-41.75,-27.87,15.94,300.54,-82.06,-165.79
91189,52.47373,-1.397314,174.14,19.33,3.0,100.4,23 / 23,4697575,2019-09-07 11:45:30:729,-0.1137,0.056,8.6066,0.0019,-0.0032,9.8066,0.0147,0.0392,0.0335,-42.06,-27.37,16.38,302.11,-81.94,-164.37
91190,52.47373,-1.397314,174.14,19.33,3.0,100.4,23 / 23,4697676,2019-09-07 11:45:30:830,-0.6337,-0.2737,10.2156,0.0036,0.0032,9.8066,0.0135,0.0555,0.0159,-42.5,-27.69,15.56,302.58,-81.92,-163.76
91191,52.47373,-1.397314,174.14,19.33,3.0,100.4,23 / 23,4697776,2019-09-07 11:45:30:930,-0.1662,-0.9184,10.2236,-0.0026,-0.0017,9.8065,0.0051,-0.0018,-0.0325,-42.19,-27.25,15.63,302.39,-81.96,-164.12
91192,52.47373,-1.397314,174.14,19.33,3.0,100.4,23 / 23,4697876,2019-09-07 11:45:31:030,0.3903,-0.3768,9.675,0.0029,0.0118,9.8065,0.0185,0.0237,-0.005,-41.87,-28.06,15.38,299.98,-81.99,-165.05
91193,52.47373,-1.397314,174.14,19.33,3.0,100.4,23 / 23,4697975,2019-09-07 11:45:31:129,-0.5202,-0.9084,10.3332,0.003,0.0067,9.8066,-0.0202,-0.0299,-0.0355,-42.25,-27.37,16.44,300.68,-81.99,-165.77
91194,52.47373,-1.397314,174.14,19.33,3.0,100.4,23 / 23,4698075,2019-09-07 11:45:31:229,-0.275,0.5976,9.2796,-0.0041,-0.008,9.8066,-0.0132,0.0238,0.031,-41.87,-28.0,15.88,300.36,-82.1,-165.98
91195,52.47373,-1.397314,174.14,19.33,3.0,100.4,23 / 23,4698175,2019-09-07 11:45:31:329,-0.4917,-0.4337,9.9738,-0.0039,0.0013,9.8066,-0.0188,-0.0359,-0.0134,-42.0,-28.0,15.81,300.92,-82.16,-165.49
91196,52.47373,-1.397314,174.14,19.33,3.0,100.4,23 / 23,4698275,2019-09-07 11:45:31:429,-0.8494,0.3681,9.4939,0.0086,-0.001,9.8066,0.0438,0.022,0.0177,-41.87,-27.62,16.38,301.18,-82.13,-165.21
91197,52.47373,-1.397314,174.14,19.33,3.0,100.4,23 / 23,4698375,2019-09-07 11:45:31:529,0.1332,-0.4995,10.0984,0.0065,-0.0078,9.8066,0.0084,0.0435,0.0176,-41.69,-27.75,15.81,300.9,-82.01,-165.42
91198,52.47373,-1.397314,174.14,19.33,3.0,100.4,23 / 23,4698476,2019-09-07 11:45:31:630,-0.1943,0.1939,9.1605,-0.0005,-0.0074,9.8066,0.0068,0.0221,0.0231,-42.0,-27.62,16.5,302.67,-81.93,-164.89
91199,52.47373,-1.397314,174.14,19.33,3.0,100.4,23 / 23,4698575,2019-09-07 11:45:31:729,-0.9664,-0.4632,10.5347,-0.0082,-0.0094,9.8065,-0.0043,-0.0174,-0.0022,-42.5,-27.69,16.06,302.27,-81.97,-164.08
91200,52.47373,-1.397314,174.14,19.33,3.0,100.4,23 / 23,4698675,2019-09-07 11:45:31:829,-0.7642,-0.2064,9.8835,0.0037,0.0027,9.8066,0.0339,0.0419,0.0239,-41.75,-27.62,16.31,302.78,-81.96,-163.59
91201,52.47373,-1.397314,174.14,19.33,3.0,100.4,23 / 23,4698775,2019-09-07 11:45:31:929,-0.854,-0.4337,10.8472,-0.0033,-0.0045,9.8066,0.0008,-0.0321,-0.0114,-42.31,-27.37,16.63,304.29,-81.97,-163.51
91202,52.47373,-1.397314,174.14,19.33,3.0,100.4,23 / 23,4698875,2019-09-07 11:45:32:029,-0.7087,-1.6215,10.6596,0.0004,-0.0075,9.8066,0.002,-0.0162,0.014,-42.25,-27.5,16.19,303.15,-81.88,-163.34
91203,52.47373,-1.397314,174.14,19.33,3.0,100.4,23 / 23,4698975,2019-09-07 11:45:32:129,-0.4487,0.3956,9.478,-0.0004,0.0063,9.8066,-0.0107,-0.0254,-0.0009,-42.19,-27.31,15.69,303.48,-81.79,-162.97
91204,52.47373,-1.397314,174.14,19.33,3.0,100.4,23 / 23,4699075,2019-09-07 11:45:32:229,-0.3432,0.0761,9.1126,0.0,-0.0086,9.8066,0.0269,0.0715,0.0589,-42.75,-27.19,16.19,304.12,-81.68,-161.93
91205,52.47373,-1.397314,174.14,19.33,3.0,100.4,23 / 23,4699175,2019-09-07 11:45:32:329,0.4437,-0.2775,9.0485,-0.0094,-0.009,9.8066,-0.0241,-0.0169,0.0211,-42.31,-27.5,16.44,305.29,-81.71,-161.2
91206,52.47373,-1.397314,174.14,19.33,3.0,100.4,23 / 23,4699276,2019-09-07 11:45:32:430,-0.6084,-0.7785,9.922,-0.0101,-0.0043,9.8066,-0.0341,-0.039,-0.0339,-42.44,-27.75,16.31,305.96,-81.78,-160.45
91207,52.47373,-1.397314,174.14,19.33,3.0,100.4,23 / 23,4699375,2019-09-07 11:45:32:529,1.0762,-0.7804,9.9355,0.0014,-0.0085,9.8066,0.0056,0.0109,-0.0021,-42.25,-27.06,16.06,307.03,-81.77,-159.57
91208,52.47373,-1.397314,174.14,19.33,3.0,100.4,23 / 23,4699475,2019-09-07 11:45:32:629,0.1641,-0.1114,8.5032,0.0113,0.0051,9.8066,-0.0021,-0.032,-0.0504,-42.44,-27.31,16.31,306.42,-81.74,-160.14
91209,52.47373,-1.397314,174.14,19.33,3.0,100.4,23 / 23,4699576,2019-09-07 11:45:32:730,0.1192,-0.5213,10.6928,0.0025,0.0031,9.8066,0.0032,0.0042,0.0022,-41.87,-27.06,15.69,306.17,-81.73,-160.37
91210,52.47373,-1.397314,174.14,19.33,3.0,100.4,23 / 23,4699676,2019-09-07 11:45:32:830,-2.0114,0.4876,10.936,-0.0044,0.0116,9.8066,-0.0153,-0.0571,-0.0296,-42.37,-27.44,16.44,306.58,-81.68,-159.95
91211,52.47373,-1.397314,174.14,19.33,3.0,100.4,23 / 23,4699776,2019-09-07 11:45:32:930,-1.1642,-0.2226,8.4592,-0.0108,-0.014,9.8066,-0.0148,0.0004,0.0036,-42.5,-27.44,16.94,308.42,-81.74,-159.46
91212,52.47373,-1.397314,174.14,19.33,3.0,100.4,23 / 23,4699875,2019-09-07 11:45:33:029,0.4086,0.2069,8.1657,0.0013,-0.0027,9.8066,-0.0034,0.0302,0.012,-42.75,-27.37,16.13,307.24,-81.88,-159.07
91213,52.47373,-1.397314,174.14,19.33,3.0,100.4,23 / 23,4699975,2019-09-07 11:45:33:129,-0.7668,0.8377,8.3046,0.0031,-0.0054,9.8066,0.0051,-0.0461,-0.0199,-42.69,-27.75,16.38,307.76,-81.85,-158.42
91214,52.47373,-1.397314,174.14,19.33,3.0,100.4,23 / 23,4700076,2019-09-07 11:45:33:230,-0.1662,-0.7187,12.1974,-0.009,-0.0241,9.8066,0.004,0.048,0.0832,-43.0,-27.31,15.44,308.48,-81.68,-156.58
91215,52.47373,-1.397314,174.14,19.33,3.0,100.4,23 / 23,4700175,2019-09-07 11:45:33:329,1.3295,0.0539,10.1788,0.0142,0.0031,9.8066,0.034,-0.0484,-0.1132,-42.31,-27.62,16.5,310.85,-81.68,-156.98
91216,52.47349,-1.394789,174.51,19.31,3.0,98.75,23 / 23,4700277,2019-09-07 11:45:33:431,-0.2081,-0.352,10.1901,0.016,0.0308,9.8065,-0.0148,-0.016,-0.1076,-42.87,-27.75,16.19,307.42,-81.69,-158.65
91217,52.47349,-1.394789,174.51,19.31,3.0,98.75,23 / 23,4700376,2019-09-07 11:45:33:530,0.4807,0.3877,10.88,-0.0231,-0.0085,9.8066,-0.0017,0.1095,0.1183,-42.06,-27.25,15.88,306.53,-81.96,-160.16
91218,52.47349,-1.394789,174.51,19.31,3.0,98.75,23 / 23,4700475,2019-09-07 11:45:33:629,0.5207,-0.351,10.8439,-0.0129,-0.0384,9.8065,-0.0023,-0.0057,0.1097,-42.62,-26.94,16.0,308.89,-81.88,-157.5
91219,52.47349,-1.394789,174.51,19.31,3.0,98.75,23 / 23,4700575,2019-09-07 11:45:33:729,-1.2274,-1.4279,11.3519,0.0155,-0.016,9.8065,0.0485,-0.0226,-0.0041,-43.44,-26.81,16.13,311.13,-81.62,-155.24
91220,52.47349,-1.394789,174.51,19.31,3.0,98.75,23 / 23,4700676,2019-09-07 11:45:33:830,-0.2098,-0.9067,9.9703,0.0105,0.0081,9.8066,0.0395,0.0357,-0.0214,-42.56,-26.69,16.25,310.5,-81.34,-155.7
91221,52.47349,-1.394789,174.51,19.31,3.0,98.75,23 / 23,4700776,2019-09-07 11:45:33:930,-0.4447,-0.4594,9.0364,0.0011,0.0332,9.8066,-0.0182,0.0024,-0.0912,-42.75,-26.87,16.38,308.89,-81.41,-157.26
91222,52.47349,-1.394789,174.51,19.31,3.0,98.75,23 / 23,4700876,2019-09-07 11:45:34:030,0.3734,0.6367,9.8077,-0.008,0.0272,9.8065,-0.0311,0.0291,-0.0182,-41.81,-27.37,16.19,306.6,-81.76,-159.98
91223,52.47349,-1.394789,174.51,19.31,3.0,98.75,23 / 23,4700975,2019-09-07 11:45:34:129,-0.1758,-0.1763,9.7652,-0.0084,-0.0043,9.8066,0.0188,0.0245,0.0326,-42.56,-27.44,16.06,306.38,-81.98,-159.95
91224,52.47349,-1.394789,174.51,19.31,3.0,98.75,23 / 23,4701076,2019-09-07 11:45:34:230,-0.7427,0.0937,10.0471,-0.0001,-0.007,9.8066,0.0267,-0.0099,0.0187,-42.56,-27.06,16.38,306.9,-81.9,-159.41
91225,52.47349,-1.394789,174.51,19.31,3.0,98.75,23 / 23,4701175,2019-09-07 11:45:34:329,-1.123,-0.8933,10.5532,0.0049,-0.0052,9.8066,0.0035,0.0424,0.0291,-42.19,-26.56,16.63,309.23,-81.76,-158.7
91226,52.47349,-1.394789,174.51,19.31,3.0,98.75,22 / 23,4701276,2019-09-07 11:45:34:430,-0.1362,-0.8542,9.1694,-0.0081,-0.0058,9.8066,-0.0551,-0.0295,-0.0064,-43.12,-27.37,16.63,309.19,-81.75,-158.34
91227,52.47349,-1.394789,174.51,19.31,3.0,98.75,22 / 23,4701375,2019-09-07 11:45:34:529,0.0398,0.613,9.4779,-0.0139,-0.0071,9.8065,-0.0382,-0.0116,0.021,-42.75,-26.94,16.06,309.58,-81.93,-156.88
91228,52.47349,-1.394789,174.51,19.31,3.0,98.75,22 / 23,4701475,2019-09-07 11:45:34:629,-0.8876,0.1432,9.965,0.0032,-0.0217,9.8066,0.0227,0.0004,0.0377,-42.94,-27.31,15.69,310.83,-81.86,-155.66
91229,52.47349,-1.394789,174.51,19.31,3.0,98.75,22 / 23,4701575,2019-09-07 11:45:34:729,-0.4194,-0.5551,10.4332,0.0061,-0.0091,9.8066,-0.0112,-0.0572,-0.0166,-43.06,-26.75,15.88,311.94,-81.63,-154.49
91230,52.47349,-1.394789,174.51,19.31,3.0,98.75,22 / 23,4701675,2019-09-07 11:45:34:829,-0.6965,-1.0924,9.8653,-0.0039,-0.0092,9.8066,-0.0256,-0.0013,0.0138,-42.94,-26.62,16.38,312.42,-81.55,-154.0
91231,52.47349,-1.394789,174.51,19.31,3.0,98.75,22 / 23,4701775,2019-09-07 11:45:34:929,0.1781,-0.0458,9.5817,0.0064,0.0122,9.8066,0.0302,0.0533,-0.0317,-42.56,-27.12,16.63,313.7,-81.71,-154.07
91232,52.47349,-1.394789,174.51,19.31,3.0,98.75,22 / 23,4701875,2019-09-07 11:45:35:029,-0.1152,0.0091,8.6375,0.0069,0.0192,9.8066,-0.0112,0.0179,-0.0526,-42.12,-27.19,16.19,310.4,-81.83,-156.41
91233,52.47349,-1.394789,174.51,19.31,3.0,98.75,22 / 23,4701975,2019-09-07 11:45:35:129,-0.8711,-0.0211,9.8404,-0.0046,0.0186,9.8066,0.0086,0.0375,-0.0115,-41.94,-27.19,16.31,309.23,-82.06,-157.65
91234,52.47349,-1.394789,174.51,19.31,3.0,98.75,22 / 23,4702075,2019-09-07 11:45:35:229,-0.0125,-0.6884,10.1506,0.0091,0.0039,9.8066,0.0113,-0.0469,-0.0537,-42.0,-26.75,16.06,308.42,-82.08,-158.42
91235,52.47349,-1.394789,174.51,19.31,3.0,98.75,22 / 23,4702175,2019-09-07 11:45:35:329,0.308,-0.25,9.0883,-0.0007,0.0093,9.8066,-0.038,-0.0409,-0.0345,-42.25,-27.44,16.75,308.44,-82.08,-159.62
91236,52.47349,-1.394789,174.51,19.31,3.0,98.75,23 / 23,4702275,2019-09-07 11:45:35:429,0.555,-0.091,8.7291,-0.0029,-0.0016,9.8066,-0.0016,-0.0314,-0.0225,-42.19,-26.94,16.0,307.02,-82.17,-159.8
91237,52.47349,-1.394789,174.51,19.31,3.0,98.75,23 / 23,4702381,2019-09-07 11:45:35:535,-0.577,0.1858,9.7443,-0.0107,-0.0145,9.8065,-0.0516,-0.0297,0.0342,-42.75,-27.25,16.13,307.1,-82.18,-159.37
91238,52.47349,-1.394789,174.51,19.31,3.0,98.75,23 / 23,4702475,2019-09-07 11:45:35:629,-0.0806,0.7636,9.1702,-0.0037,-0.0201,9.8065,0.0188,0.0234,0.0568,-42.69,-27.0,16.63,310.49,-82.19,-157.34
91239,52.47349,-1.394789,174.51,19.31,3.0,98.75,23 / 23,4702575,2019-09-07 11:45:35:729,0.005,0.2919,8.9141,0.0022,-0.0206,9.8065,0.0262,0.0296,0.0564,-42.06,-27.12,15.63,312.05,-82.02,-154.96
91240,52.47349,-1.394789,174.51,19.31,3.0,98.75,23 / 23,4702675,2019-09-07 11:45:35:829,0.0807,-0.5288,9.8659,0.0034,-0.0135,9.8066,0.0302,0.0312,0.0321,-42.81,-26.87,16.88,313.63,-81.9,-154.22
91241,52.47349,-1.394789,174.51,19.31,3.0,98.75,23 / 23,4702775,2019-09-07 11:45:35:929,0.0084,-0.2668,9.2251,0.0001,0.0,9.8066,0.0037,-0.0056,-0.0161,-42.81,-26.94,16.63,314.11,-81.78,-153.71
91242,52.47349,-1.394789,174.51,19.31,3.0,98.75,23 / 23,4702875,2019-09-07 11:45:36:029,-0.1515,-0.4274,9.25,-0.0049,0.0073,9.8066,-0.0072,-0.005,-0.0064,-42.94,-27.75,16.31,312.77,-81.81,-153.66
91243,52.47349,-1.394789,174.51,19.31,3.0,98.75,23 / 23,4702975,2019-09-07 11:45:36:129,-0.1678,-0.5566,9.0889,-0.0101,0.0064,9.8066,-0.0128,0.046,0.0528,-42.5,-26.69,16.44,313.52,-81.89,-153.5
91244,52.47349,-1.394789,174.51,19.31,3.0,98.75,23 / 23,4703075,2019-09-07 11:45:36:229,0.5197,0.0541,10.342,-0.0053,-0.0065,9.8066,-0.0151,-0.0578,-0.0344,-43.12,-27.0,15.81,314.34,-81.95,-152.4
91245,52.47349,-1.394789,174.51,19.31,3.0,98.75,23 / 23,4703175,2019-09-07 11:45:36:329,-0.8547,-1.0328,10.156,0.0022,-0.0261,9.8066,0.0071,-0.0503,-0.0337,-43.37,-27.0,15.81,315.48,-81.8,-151.24
91246,52.47349,-1.394789,174.51,19.31,3.0,98.75,22 / 22,4703275,2019-09-07 11:45:36:429,-0.7667,-0.7829,10.9227,0.0114,-0.0064,9.8065,0.0375,0.0357,0.027,-42.75,-26.75,16.94,316.59,-81.75,-151.36
91247,52.47349,-1.394789,174.51,19.31,3.0,98.75,22 / 22,4703375,2019-09-07 11:45:36:529,-0.3471,0.232,9.2672,-0.0089,0.0089,9.8066,0.0131,0.0491,0.0036,-43.37,-26.75,16.69,316.3,-81.74,-151.63
91248,52.47349,-1.394789,174.51,19.31,3.0,98.75,22 / 22,4703476,2019-09-07 11:45:36:630,-0.4087,0.0853,9.3395,-0.0117,0.0022,9.8066,-0.0271,0.0306,0.019,-42.44,-26.81,16.5,316.89,-81.86,-151.54
91249,52.47349,-1.394789,174.51,19.31,3.0,98.75,22 / 22,4703576,2019-09-07 11:45:36:730,-0.2244,0.4114,9.6643,-0.0051,0.0074,9.8066,-0.0132,0.0401,0.0265,-43.0,-26.75,16.56,316.05,-82.01,-151.99
91250,52.47349,-1.394789,174.51,19.31,3.0,98.75,22 / 22,4703675,2019-09-07 11:45:36:829,-0.0968,0.1829,10.0828,-0.0027,-0.0113,9.8065,0.0233,0.0717,0.061,-42.81,-26.81,16.31,315.93,-81.97,-150.9
91251,52.47349,-1.394789,174.51,19.31,3.0,98.75,22 / 22,4703776,2019-09-07 11:45:36:930,-0.3367,-1.2527,10.9461,0.001,-0.0048,9.8066,0.0016,-0.0276,-0.0509,-43.06,-27.31,16.31,316.68,-81.87,-150.15
91252,52.47349,-1.394789,174.51,19.31,3.0,98.75,22 / 22,4703875,2019-09-07 11:45:37:029,-0.4697,-0.984,10.42,0.0026,0.018,9.8066,-0.0337,-0.0737,-0.0843,-43.44,-26.69,16.13,315.2,-81.92,-151.57
91253,52.47349,-1.394789,174.51,19.31,3.0,98.75,22 / 22,4703975,2019-09-07 11:45:37:129,0.0558,-0.7126,10.8309,-0.0027,0.0008,9.8066,-0.0226,0.0081,-0.004,-43.31,-26.94,16.81,316.46,-81.95,-151.58
91254,52.47349,-1.394789,174.51,19.31,3.0,98.75,22 / 22,4704075,2019-09-07 11:45:37:229,0.3008,1.1528,9.5259,-0.0051,-0.0093,9.8065,0.0058,0.051,0.0602,-42.94,-26.81,15.63,315.46,-82.03,-151.37
91255,52.47349,-1.394789,174.51,19.31,3.0,98.75,22 / 22,4704175,2019-09-07 11:45:37:329,-0.4824,0.1294,9.5086,-0.0078,-0.0321,9.8065,-0.0287,0.0155,0.0854,-43.25,-26.87,16.06,317.85,-81.87,-149.06
91256,52.47349,-1.394789,174.51,19.31,3.0,98.75,23 / 23,4704276,2019-09-07 11:45:37:430,0.1986,-0.5162,10.7721,-0.0053,-0.0035,9.8066,-0.0074,-0.0374,-0.0077,-43.5,-26.94,16.19,320.31,-81.74,-146.69
91257,52.47349,-1.394789,174.51,19.31,3.0,98.75,23 / 23,4704375,2019-09-07 11:45:37:529,-0.243,-0.5095,9.1984,-0.0024,-0.0067,9.8066,-0.0144,-0.0204,-0.0043,-43.31,-26.75,15.88,321.22,-81.5,-145.74
91258,52.47349,-1.394789,174.51,19.31,3.0,98.75,23 / 23,4704476,2019-09-07 11:45:37:630,-1.5298,-1.5139,9.9982,-0.0013,-0.0021,9.8066,-0.0187,0.0377,0.0556,-43.94,-26.87,16.0,321.21,-81.49,-145.39
91259,52.47349,-1.394789,174.51,19.31,3.0,98.75,23 / 23,4704575,2019-09-07 11:45:37:729,0.0072,-1.2742,10.4082,0.0048,-0.0063,9.8065,-0.0298,-0.1219,-0.0738,-42.81,-26.12,16.13,322.05,-81.5,-145.09
91260,52.47349,-1.394789,174.51,19.31,3.0,98.75,23 / 23,4704676,2019-09-07 11:45:37:830,0.4884,0.7172,9.7387,0.0063,0.0146,9.8066,0.0365,0.0636,0.0195,-43.31,-26.0,16.06,321.17,-81.51,-145.91
91261,52.47349,-1.394789,174.51,19.31,3.0,98.75,23 / 23,4704775,2019-09-07 11:45:37:929,0.5035,-0.8837,10.1615,-0.0084,0.002,9.8066,-0.0391,-0.0386,-0.0473,-42.81,-26.0,16.44,321.31,-81.53,-145.79
91262,52.47349,-1.394789,174.51,19.31,3.0,98.75,23 / 23,4704875,2019-09-07 11:45:38:029,-0.7633,-0.3145,9.8896,-0.0114,0.008,9.8066,-0.0111,0.01,0.0348,-43.37,-25.81,16.38,321.66,-81.62,-145.5
91263,52.47349,-1.394789,174.51,19.31,3.0,98.75,23 / 23,4704976,2019-09-07 11:45:38:130,-0.9357,-0.768,10.12,0.0185,0.0117,9.8065,0.0446,0.0082,-0.036,-43.62,-26.5,15.44,319.76,-81.6,-145.72
91264,52.47349,-1.394789,174.51,19.31,3.0,98.75,23 / 23,4705075,2019-09-07 11:45:38:229,0.4387,0.6764,9.1031,0.0288,0.0128,9.8065,0.0326,0.0075,-0.0441,-43.31,-25.87,16.69,319.05,-81.52,-149.08
91265,52.47349,-1.394789,174.51,19.31,3.0,98.75,23 / 23,4705176,2019-09-07 11:45:38:330,0.3849,0.5801,9.0664,-0.0144,0.0016,9.8066,-0.0461,-0.0202,0.0245,-43.44,-26.87,16.5,318.22,-81.5,-149.72
91266,52.47349,-1.394789,174.51,19.31,3.0,98.75,23 / 23,4705275,2019-09-07 11:45:38:429,-0.0163,0.1515,8.4597,-0.0204,-0.002,9.8065,0.01,0.0467,0.0299,-43.19,-26.69,16.38,318.95,-81.69,-147.94
91267,52.47349,-1.394789,174.51,19.31,3.0,98.75,23 / 23,4705375,2019-09-07 11:45:38:529,-0.2532,-0.1825,9.1149,0.0145,0.0115,9.8066,0.0272,0.0506,-0.0205,-43.31,-26.87,16.94,319.07,-81.61,-148.98
91268,52.47349,-1.394789,174.51,19.31,3.0,98.75,23 / 23,4705476,2019-09-07 11:45:38:630,-0.0156,-1.3672,10.2173,0.0092,0.0126,9.8066,-0.0138,-0.0054,-0.0618,-43.06,-27.12,16.44,316.41,-81.63,-150.29
91269,52.47349,-1.394789,174.51,19.31,3.0,98.75,23 / 23,4705576,2019-09-07 11:45:38:730,0.4081,-0.2921,9.3259,0.0019,0.0191,9.8066,-0.0179,-0.0335,-0.0645,-42.5,-26.69,16.44,314.77,-81.87,-152.32
91270,52.47349,-1.394789,174.51,19.31,3.0,98.75,23 / 23,4705675,2019-09-07 11:45:38:829,0.7919,0.508,9.4049,-0.0025,0.0195,9.8065,-0.0125,-0.0676,-0.095,-42.44,-27.31,16.69,314.28,-82.15,-154.13
91271,52.47349,-1.394789,174.51,19.31,3.0,98.75,23 / 23,4705775,2019-09-07 11:45:38:929,-0.5455,0.3427,9.5823,-0.002,-0.0019,9.8066,0.034,0.0545,0.065,-42.75,-26.44,16.19,312.3,-82.19,-154.56
91272,52.47349,-1.394789,174.51,19.31,3.0,98.75,23 / 23,4705875,2019-09-07 11:45:39:029,-0.2954,0.2991,9.4826,0.0077,-0.0154,9.8066,0.0133,0.0034,0.0475,-42.56,-27.12,16.56,313.87,-82.03,-154.06
91273,52.47349,-1.394789,174.51,19.31,3.0,98.75,23 / 23,4705976,2019-09-07 11:45:39:130,-0.2308,-0.0676,9.6114,-0.0094,-0.0031,9.8066,-0.0332,-0.0264,0.0086,-42.31,-26.81,16.69,315.64,-81.98,-152.76
91274,52.47349,-1.394789,174.51,19.31,3.0,98.75,23 / 23,4706075,2019-09-07 11:45:39:229,-0.7885,-0.9604,10.0858,-0.0152,-0.0012,9.8066,-0.0379,-0.0199,-0.0199,-43.06,-26.87,16.94,316.18,-82.11,-151.92
91275,52.47349,-1.394789,174.51,19.31,3.0,98.75,23 / 23,4706175,2019-09-07 11:45:39:329,0.5221,0.5633,9.7813,0.0073,-0.0119,9.8066,-0.0306,-0.0822,-0.0628,-42.94,-27.31,16.25,314.83,-82.17,-152.03
91276,52.47349,-1.394789,174.51,19.31,3.0,98.75,23 / 23,4706276,2019-09-07 11:45:39:430,-0.2549,-0.6576,11.403,0.0038,-0.008,9.8066,0.0139,-0.0176,0.0136,-42.69,-26.81,16.63,316.42,-81.99,-151.64
91277,52.47349,-1.394789,174.51,19.31,3.0,98.75,23 / 23,4706375,2019-09-07 11:45:39:529,-0.5518,-0.1238,10.8522,-0.0009,-0.0295,9.8065,0.0083,-0.0133,0.0509,-43.37,-26.31,16.94,316.97,-81.83,-151.17
91278,52.47349,-1.394789,174.51,19.31,3.0,98.75,23 / 23,4706475,2019-09-07 11:45:39:629,-0.3306,-0.0386,9.883,0.0009,-0.0178,9.8066,0.0245,0.0005,0.0048,-42.69,-26.31,16.69,319.0,-81.53,-149.13
91279,52.47349,-1.394789,174.51,19.31,3.0,98.75,23 / 23,4706576,2019-09-07 11:45:39:730,-0.645,-0.7131,9.9998,0.0111,0.021,9.8066,0.0054,0.0196,-0.0846,-42.69,-26.62,16.69,318.69,-81.43,-149.26
91280,52.47349,-1.394789,174.51,19.31,3.0,98.75,23 / 23,4706675,2019-09-07 11:45:39:829,-0.9289,-0.3116,9.6745,0.0214,0.0356,9.8065,-0.0045,-0.1015,-0.2101,-42.62,-26.62,16.81,315.12,-81.57,-152.66
91281,52.47349,-1.394789,174.51,19.31,3.0,98.75,23 / 23,4706776,2019-09-07 11:45:39:930,0.2883,0.422,9.2239,-0.0011,0.0363,9.8065,-0.0032,0.0719,-0.0016,-42.19,-26.94,16.69,310.68,-81.88,-157.39
91282,52.47349,-1.394789,174.51,19.31,3.0,98.75,23 / 23,4706875,2019-09-07 11:45:40:029,-0.4962,0.9038,9.3887,-0.0073,0.0029,9.8066,-0.0203,0.0115,0.0281,-41.94,-27.12,15.94,309.34,-81.97,-157.49
91283,52.47349,-1.394789,174.51,19.31,3.0,98.75,23 / 23,4706975,2019-09-07 11:45:40:129,-0.4852,-0.172,10.2026,-0.0088,-0.0212,9.8066,0.0084,0.0046,0.0386,-43.12,-26.56,16.69,311.7,-81.95,-156.07
91284,52.47349,-1.394789,174.51,19.31,3.0,98.75,23 / 23,4707075,2019-09-07 11:45:40:229,0.4202,-0.1723,9.9456,0.0,-0.0176,9.8066,0.0112,0.0334,0.0497,-42.87,-26.94,16.88,313.89,-81.76,-153.91
91285,52.47349,-1.394789,174.51,19.31,3.0,98.75,23 / 23,4707175,2019-09-07 11:45:40:329,-0.1338,-0.2088,10.8997,-0.0005,0.0005,9.8066,-0.0138,0.0338,0.0109,-42.37,-26.56,16.75,315.46,-81.65,-152.77
91286,52.47349,-1.394789,174.51,19.31,3.0,98.75,22 / 23,4707276,2019-09-07 11:45:40:430,0.5449,-0.3268,9.7787,-0.0063,-0.0007,9.8066,-0.021,-0.002,-0.0299,-42.75,-26.69,16.63,315.42,-81.72,-152.45
91287,52.47349,-1.394789,174.51,19.31,3.0,98.75,22 / 23,4707375,2019-09-07 11:45:40:529,-0.4709,-0.1746,10.7606,0.002,-0.0031,9.8066,-0.0202,-0.0358,-0.0445,-42.19,-26.5,16.25,315.04,-81.73,-152.13
91288,52.47349,-1.394789,174.51,19.31,3.0,98.75,22 / 23,4707475,2019-09-07 11:45:40:629,-0.4942,0.1931,11.8242,0.016,-0.0005,9.8066,0.0313,-0.0365,-0.0318,-42.5,-26.94,16.38,314.49,-81.63,-152.47
91289,52.47349,-1.394789,174.51,19.31,3.0,98.75,22 / 23,4707575,2019-09-07 11:45:40:729,0.5776,0.6902,8.7481,0.0031,0.0052,9.8066,0.0014,0.0303,0.0126,-42.75,-26.5,16.5,314.66,-81.54,-153.21
91290,52.47349,-1.394789,174.51,19.31,3.0,98.75,22 / 23,4707675,2019-09-07 11:45:40:829,0.0836,0.2762,9.0574,-0.0228,-0.0113,9.8066,-0.0503,0.062,0.0773,-43.0,-26.69,16.38,314.43,-81.62,-152.14
91291,52.47349,-1.394789,174.51,19.31,3.0,98.75,22 / 23,4707775,2019-09-07 11:45:40:929,-0.6572,-0.3268,10.6007,-0.0064,-0.0218,9.8066,-0.0287,-0.0707,-0.0168,-43.06,-26.75,16.63,317.78,-81.59,-150.18
91292,52.47349,-1.394789,174.51,19.31,3.0,98.75,22 / 23,4707875,2019-09-07 11:45:41:029,-0.0102,0.0052,10.9384,0.0029,-0.0196,9.8066,0.0205,0.0345,0.0748,-42.56,-26.37,16.75,319.25,-81.4,-148.84
91293,52.47349,-1.394789,174.51,19.31,3.0,98.75,22 / 23,4707975,2019-09-07 11:45:41:129,-0.5474,-0.0172,10.4127,0.0016,-0.0104,9.8066,-0.003,-0.0303,-0.0202,-43.5,-26.44,16.25,319.43,-81.2,-147.39
91294,52.47349,-1.394789,174.51,19.31,3.0,98.75,22 / 23,4708075,2019-09-07 11:45:41:229,-0.2762,-0.981,10.4005,0.0043,-0.0052,9.8066,-0.0151,-0.0092,-0.0289,-43.31,-26.44,17.06,320.66,-81.14,-147.41
91295,52.47349,-1.394789,174.51,19.31,3.0,98.75,22 / 23,4708176,2019-09-07 11:45:41:330,-1.106,-0.2735,10.0241,0.0025,0.0116,9.8066,-0.0092,0.0017,-0.0609,-43.0,-26.81,16.25,318.21,-81.21,-148.41
91296,52.47349,-1.394789,174.51,19.31,3.0,98.75,22 / 23,4708275,2019-09-07 11:45:41:429,0.2298,0.4961,10.3,0.0125,0.0207,9.8066,-0.0005,0.0299,-0.0378,-42.94,-26.56,16.69,317.61,-81.34,-150.22
91297,52.47349,-1.394789,174.51,19.31,3.0,98.75,23 / 23,4708375,2019-09-07 11:45:41:529,0.4806,0.4034,9.0543,0.017,0.024,9.8065,0.0546,0.0659,-0.0408,-42.81,-27.0,16.88,316.23,-81.44,-151.56
91298,52.47349,-1.394789,174.51,19.31,3.0,98.75,23 / 23,4708476,2019-09-07 11:45:41:630,1.0271,0.7296,10.2001,-0.0037,-0.0017,9.8066,-0.0388,0.0036,0.0073,-42.69,-26.25,16.0,313.42,-81.44,-153.13
91299,52.47349,-1.394789,174.51,19.31,3.0,98.75,23 / 23,4708575,2019-09-07 11:45:41:729,0.6819,0.8258,10.1108,-0.0172,-0.0268,9.8066,-0.0391,0.0362,0.0932,-43.56,-26.87,15.69,315.82,-81.47,-150.41
91300,52.47349,-1.394789,174.51,19.31,3.0,98.75,23 / 23,4708675,2019-09-07 11:45:41:829,-1.1544,-0.3822,9.7533,-0.0145,-0.0291,9.8066,0.0004,0.0011,0.0035,-43.69,-26.44,16.0,318.68,-81.36,-147.8
91301,52.47349,-1.394789,174.51,19.31,3.0,98.75,23 / 23,4708775,2019-09-07 11:45:41:929,0.4242,-0.132,10.7327,0.0139,-0.0138,9.8066,-0.0383,-0.0434,-0.049,-43.56,-26.5,15.94,319.17,-81.22,-147.29
91302,52.47349,-1.394789,174.51,19.31,3.0,98.75,23 / 23,4708875,2019-09-07 11:45:42:029,0.4966,0.8838,9.4751,-0.0035,0.008,9.8066,-0.004,0.0763,-0.0318,-43.87,-26.94,15.5,318.75,-81.21,-147.54
91303,52.47349,-1.394789,174.51,19.31,3.0,98.75,23 / 23,4708975,2019-09-07 11:45:42:129,0.4591,0.742,9.2815,0.0007,-0.0023,9.8066,-0.0262,-0.028,-0.0603,-43.5,-27.5,15.81,318.68,-81.32,-148.02
91304,52.47349,-1.394789,174.51,19.31,3.0,98.75,23 / 23,4709075,2019-09-07 11:45:42:229,0.6075,1.5058,9.173,-0.0018,0.0077,9.8066,0.0183,0.0545,0.0131,-43.5,-26.75,15.81,318.61,-81.38,-148.12
91305,52.47349,-1.394789,174.51,19.31,3.0,98.75,23 / 23,4709176,2019-09-07 11:45:42:330,-0.6432,0.4277,9.997,-0.0078,-0.0158,9.8065,0.0196,0.1302,0.1052,-44.0,-26.44,15.31,318.65,-81.24,-146.6
91306,52.473263,-1.392261,174.57,19.25,3.0,96.62,22 / 22,4709276,2019-09-07 11:45:42:430,-0.4213,-0.5222,10.5433,-0.0001,-0.0328,9.8065,-0.0303,-0.0744,-0.0286,-43.62,-26.19,15.38,320.36,-81.04,-144.92
91307,52.473263,-1.392261,174.57,19.25,3.0,96.62,22 / 22,4709375,2019-09-07 11:45:42:529,0.8508,0.2448,11.9591,0.0058,-0.0025,9.8066,0.0107,-0.0019,-0.021,-44.0,-26.56,15.44,320.7,-80.93,-144.43
91308,52.473263,-1.392261,174.57,19.25,3.0,96.62,22 / 22,4709475,2019-09-07 11:45:42:629,0.0012,0.5671,9.054,0.0031,0.0001,9.8065,-0.0301,0.0201,-0.0387,-43.75,-26.5,15.69,321.32,-80.88,-145.14
91309,52.473263,-1.392261,174.57,19.25,3.0,96.62,22 / 22,4709578,2019-09-07 11:45:42:732,-0.1139,1.7844,8.7487,-0.0009,0.005,9.8066,-0.036,0.0118,-0.0085,-43.25,-26.5,15.44,320.03,-81.07,-145.58
91310,52.473263,-1.392261,174.57,19.25,3.0,96.62,22 / 22,4709675,2019-09-07 11:45:42:829,-0.6808,0.4495,9.8387,-0.0045,-0.0071,9.8066,-0.0108,-0.0107,-0.0467,-43.69,-26.69,14.94,320.02,-81.1,-145.14
91311,52.473263,-1.392261,174.57,19.25,3.0,96.62,22 / 22,4709775,2019-09-07 11:45:42:929,0.0364,0.1645,9.6582,0.0056,0.003,9.8066,0.0187,0.057,0.0031,-43.94,-26.5,15.19,319.56,-81.12,-145.7
91312,52.473263,-1.392261,174.57,19.25,3.0,96.62,22 / 22,4709875,2019-09-07 11:45:43:029,-0.2685,0.777,8.3843,0.0022,0.0019,9.8066,-0.0362,0.012,-0.0389,-43.37,-26.31,15.13,319.24,-81.11,-146.33
91313,52.473263,-1.392261,174.57,19.25,3.0,96.62,22 / 22,4709975,2019-09-07 11:45:43:129,-1.0109,-0.1664,9.2644,-0.0259,0.0084,9.8066,-0.0587,0.035,-0.0021,-43.5,-27.19,14.75,319.36,-81.34,-146.2
91314,52.473263,-1.392261,174.57,19.25,3.0,96.62,22 / 22,4710076,2019-09-07 11:45:43:230,-0.715,0.3,10.0706,-0.0106,-0.0066,9.8066,-0.0209,0.0056,0.0102,-43.44,-26.5,14.63,321.29,-81.59,-144.63
91315,52.473263,-1.392261,174.57,19.25,3.0,96.62,22 / 22,4710175,2019-09-07 11:45:43:329,-0.2305,0.6686,11.1402,0.0077,-0.0175,9.8065,0.0586,0.0234,0.0351,-44.0,-26.69,14.81,321.49,-81.42,-143.91
91316,52.473263,-1.392261,174.57,19.25,3.0,96.62,22 / 23,4710276,2019-09-07 11:45:43:430,0.6804,0.3551,11.495,0.0152,-0.0269,9.8065,0.0162,-0.017,-0.0217,-44.12,-26.44,15.06,321.61,-81.08,-143.77
91317,52.473263,-1.392261,174.57,19.25,3.0,96.62,22 / 23,4710376,2019-09-07 11:45:43:530,-1.6371,-0.0512,11.4526,0.0205,0.0133,9.8065,0.0494,0.0843,-0.028,-43.31,-26.37,15.25,320.99,-80.95,-144.63
91318,52.473263,-1.392261,174.57,19.25,3.0,96.62,22 / 23,4710476,2019-09-07 11:45:43:630,0.099,-0.0041,10.0325,0.0208,0.0184,9.8065,0.0255,0.0308,-0.0643,-43.37,-26.69,15.5,319.27,-80.93,-147.3
91319,52.473263,-1.392261,174.57,19.25,3.0,96.62,22 / 23,4710575,2019-09-07 11:45:43:729,0.5997,0.545,8.9207,-0.0096,0.019,9.8066,-0.0461,0.0154,-0.0244,-43.37,-26.81,15.0,316.57,-81.05,-148.66
91320,52.473263,-1.392261,174.57,19.25,3.0,96.62,22 / 23,4710676,2019-09-07 11:45:43:830,0.0311,0.516,8.9499,-0.02,0.0052,9.8066,-0.045,0.0279,0.0286,-43.12,-27.0,14.94,317.03,-81.39,-148.39
91321,52.473263,-1.392261,174.57,19.25,3.0,96.62,22 / 23,4710775,2019-09-07 11:45:43:929,-0.4612,0.7254,9.6512,-0.0162,-0.016,9.8066,-0.0176,-0.0019,0.029,-43.25,-26.75,13.94,318.11,-81.46,-146.2
91322,52.473263,-1.392261,174.57,19.25,3.0,96.62,22 / 23,4710876,2019-09-07 11:45:44:030,-0.5814,-0.0129,10.7272,0.0094,0.0018,9.8066,0.0493,0.0291,-0.0087,-43.62,-26.81,14.94,319.23,-81.35,-145.98
91323,52.473263,-1.392261,174.57,19.25,3.0,96.62,22 / 23,4710976,2019-09-07 11:45:44:130,0.2057,0.3871,10.8852,0.0171,0.0013,9.8065,0.0341,0.026,-0.0244,-43.37,-26.75,15.13,318.36,-81.19,-147.06
91324,52.473263,-1.392261,174.57,19.25,3.0,96.62,22 / 23,4711076,2019-09-07 11:45:44:230,0.7339,1.5012,8.8699,0.0043,0.013,9.8066,0.0081,0.0543,0.0243,-43.75,-27.12,15.19,316.42,-81.15,-148.51
91325,52.473263,-1.392261,174.57,19.25,3.0,96.62,22 / 23,4711176,2019-09-07 11:45:44:330,-0.285,0.7165,8.9959,-0.0086,-0.0058,9.8066,0.0374,0.1352,0.0973,-43.31,-27.56,14.94,316.81,-81.16,-148.35
91326,52.473263,-1.392261,174.57,19.25,3.0,96.62,23 / 23,4711276,2019-09-07 11:45:44:430,-0.4134,0.8056,11.1402,0.0015,-0.005,9.8066,0.0448,0.0376,0.0023,-43.19,-26.94,14.31,316.69,-81.08,-147.34
91327,52.473263,-1.392261,174.57,19.25,3.0,96.62,23 / 23,4711376,2019-09-07 11:45:44:530,-0.2231,0.0477,9.2375,0.0115,0.0048,9.8065,0.0427,0.0529,0.0002,-43.56,-26.5,15.25,316.72,-80.92,-148.25
91328,52.473263,-1.392261,174.57,19.25,3.0,96.62,23 / 23,4711475,2019-09-07 11:45:44:629,0.1435,0.2197,10.0753,0.0007,-0.006,9.8066,-0.0592,-0.0287,-0.044,-43.31,-27.12,15.06,316.44,-80.87,-148.69
91329,52.473263,-1.392261,174.57,19.25,3.0,96.62,23 / 23,4711576,2019-09-07 11:45:44:730,0.069,0.4675,10.7801,0.0019,-0.0029,9.8066,-0.0567,-0.0862,-0.062,-43.87,-26.69,14.88,316.16,-80.94,-148.65
91330,52.473263,-1.392261,174.57,19.25,3.0,96.62,23 / 23,4711675,2019-09-07 11:45:44:829,0.1983,0.375,10.0473,0.0129,-0.0047,9.8066,0.0345,0.0139,-0.0149,-43.5,-26.75,14.88,315.93,-80.92,-149.18
91331,52.473263,-1.392261,174.57,19.25,3.0,96.62,23 / 23,4711775,2019-09-07 11:45:44:929,0.1255,0.2167,10.8943,-0.0003,0.0111,9.8066,0.0082,0.0611,-0.0002,-43.31,-26.62,15.19,315.59,-80.86,-149.48
91332,52.473263,-1.392261,174.57,19.25,3.0,96.62,23 / 23,4711875,2019-09-07 11:45:45:029,-0.4694,-0.4201,9.8647,0.0008,-0.0001,9.8066,-0.0123,-0.0648,-0.065,-43.37,-26.75,15.5,316.3,-80.94,-150.06
91333,52.473263,-1.392261,174.57,19.25,3.0,96.62,23 / 23,4711975,2019-09-07 11:45:45:129,0.1907,0.2564,9.5273,0.0015,0.0018,9.8066,0.0314,0.0283,0.0062,-43.37,-27.44,14.38,312.89,-80.99,-150.83
91334,52.473263,-1.392261,174.57,19.25,3.0,96.62,23 / 23,4712075,2019-09-07 11:45:45:229,0.0498,-0.4065,9.7017,0.0013,0.0009,9.8066,-0.0027,0.0202,-0.0027,-42.87,-26.94,14.88,313.87,-80.93,-151.11
91335,52.473263,-1.392261,174.57,19.25,3.0,96.62,23 / 23,4712175,2019-09-07 11:45:45:329,-0.9251,-0.7909,10.4222,0.0003,0.0074,9.8066,0.0193,0.0199,-0.0157,-42.87,-27.19,15.0,313.13,-80.87,-151.77
91336,52.473263,-1.392261,174.57,19.25,3.0,96.62,23 / 23,4712275,2019-09-07 11:45:45:429,-1.528,-0.2069,9.3858,0.0017,0.0019,9.8066,-0.0184,-0.0659,-0.064,-43.25,-27.12,15.31,312.65,-80.86,-152.22
91337,52.473263,-1.392261,174.57,19.25,3.0,96.62,23 / 23,4712376,2019-09-07 11:45:45:530,0.8253,0.5515,9.8177,-0.0046,0.0071,9.8066,-0.0172,0.0114,0.0028,-42.69,-27.12,15.0,312.2,-80.94,-152.68
91338,52.473263,-1.392261,174.57,19.25,3.0,96.62,23 / 23,4712475,2019-09-07 11:45:45:629,0.429,-0.4903,10.8463,0.0017,-0.0131,9.8066,-0.0069,-0.0193,-0.0205,-43.19,-26.94,14.88,312.3,-80.95,-152.59
91339,52.473263,-1.392261,174.57,19.25,3.0,96.62,23 / 23,4712575,2019-09-07 11:45:45:729,1.2214,0.408,11.268,0.0076,-0.0111,9.8066,-0.0143,-0.1057,-0.0886,-43.12,-27.37,14.88,312.4,-80.94,-152.49
91340,52.473263,-1.392261,174.57,19.25,3.0,96.62,23 / 23,4712675,2019-09-07 11:45:45:829,-0.365,0.2461,10.6209,0.0023,0.0126,9.8066,0.0347,0.0409,-0.015,-42.94,-26.81,14.88,311.57,-80.93,-153.26
91341,52.473263,-1.392261,174.57,19.25,3.0,96.62,23 / 23,4712775,2019-09-07 11:45:45:929,0.06,0.4467,9.4284,0.0018,0.0066,9.8066,-0.0132,0.0003,-0.0266,-42.69,-26.62,15.13,310.62,-80.94,-154.16
91342,52.473263,-1.392261,174.57,19.25,3.0,96.62,23 / 23,4712875,2019-09-07 11:45:46:029,-0.2062,0.4308,9.1992,-0.002,-0.0026,9.8066,-0.0135,0.0175,-0.0029,-43.06,-26.94,14.5,310.55,-80.94,-154.23
91343,52.473263,-1.392261,174.57,19.25,3.0,96.62,23 / 23,4712975,2019-09-07 11:45:46:129,-0.8153,-0.3124,9.7652,-0.0022,-0.0123,9.8066,-0.0015,-0.0271,-0.0045,-42.81,-26.94,15.25,312.08,-80.87,-152.76
91344,52.473263,-1.392261,174.57,19.25,3.0,96.62,23 / 23,4713076,2019-09-07 11:45:46:230,-0.3267,-0.1807,10.4426,0.0011,-0.0067,9.8066,-0.008,0.0137,0.0153,-43.31,-26.37,14.94,312.51,-80.78,-152.46
91345,52.473263,-1.392261,174.57,19.25,3.0,96.62,23 / 23,4713176,2019-09-07 11:45:46:330,-0.8962,0.7843,8.9684,-0.0027,0.0183,9.8066,0.0394,0.1389,0.0651,-43.12,-27.56,15.0,311.86,-80.85,-152.8
91346,52.473263,-1.392261,174.57,19.25,3.0,96.62,23 / 23,4713276,2019-09-07 11:45:46:430,-0.4072,0.7224,9.0227,-0.0036,0.0063,9.8066,-0.0056,0.0555,-0.0142,-42.87,-27.12,14.63,311.34,-81.04,-153.54
91347,52.473263,-1.392261,174.57,19.25,3.0,96.62,23 / 23,4713375,2019-09-07 11:45:46:529,0.2808,0.4208,9.0206,-0.004,-0.0037,9.8066,-0.0406,-0.0616,-0.0301,-42.81,-26.81,14.75,311.34,-81.14,-153.59
91348,52.473263,-1.392261,174.57,19.25,3.0,96.62,23 / 23,4713475,2019-09-07 11:45:46:629,-1.1133,0.0061,9.4649,-0.001,-0.017,9.8066,-0.0333,-0.0825,-0.0126,-43.19,-27.37,15.06,312.19,-81.11,-152.78
91349,52.473263,-1.392261,174.57,19.25,3.0,96.62,23 / 23,4713575,2019-09-07 11:45:46:729,1.1818,0.3823,10.863,0.0028,-0.013,9.8066,0.0065,-0.0415,0.0099,-43.87,-27.06,14.44,311.55,-81.01,-151.8
91350,52.473263,-1.392261,174.57,19.25,3.0,96.62,23 / 23,4713675,2019-09-07 11:45:46:829,-0.6292,-0.499,9.3052,0.0017,-0.0165,9.8066,0.0356,0.1065,0.1146,-42.87,-26.44,14.63,314.19,-80.83,-150.91
91351,52.473263,-1.392261,174.57,19.25,3.0,96.62,23 / 23,4713775,2019-09-07 11:45:46:929,0.8498,-0.4214,9.7947,0.006,-0.027,9.8066,-0.0749,-0.1011,-0.0313,-43.37,-26.81,14.88,314.61,-80.74,-150.32
91352,52.473263,-1.392261,174.57,19.25,3.0,96.62,23 / 23,4713875,2019-09-07 11:45:47:029,-1.1036,-1.1188,9.2631,-0.0016,0.012,9.8066,-0.0197,-0.0516,-0.0838,-43.25,-26.87,15.44,315.75,-80.66,-149.23
91353,52.473263,-1.392261,174.57,19.25,3.0,96.62,23 / 23,4713975,2019-09-07 11:45:47:129,-0.0109,-0.4544,9.3831,-0.0119,0.0114,9.8066,-0.0632,-0.0045,-0.003,-43.31,-27.19,15.13,315.18,-80.88,-149.86
91354,52.473263,-1.392261,174.57,19.25,3.0,96.62,23 / 23,4714075,2019-09-07 11:45:47:229,-0.0225,-0.0159,8.7967,-0.0167,-0.0024,9.8066,-0.0338,0.0022,-0.0157,-43.31,-26.75,14.25,314.93,-81.06,-148.97
91355,52.473263,-1.392261,174.57,19.25,3.0,96.62,23 / 23,4714179,2019-09-07 11:45:47:333,-1.3013,0.0209,8.6868,0.0071,0.0053,9.8066,0.0351,0.0645,0.0495,-43.37,-26.81,14.19,315.21,-81.16,-148.75
91356,52.473263,-1.392261,174.57,19.25,3.0,96.62,23 / 23,4714276,2019-09-07 11:45:47:430,-0.2286,-0.5116,10.6697,0.0075,0.0046,9.8066,0.0303,0.0546,0.0019,-43.44,-27.37,14.81,315.53,-81.15,-149.67
91357,52.473263,-1.392261,174.57,19.25,3.0,96.62,23 / 23,4714375,2019-09-07 11:45:47:529,0.5641,0.4466,10.1406,0.0102,0.0089,9.8065,0.008,0.0024,-0.0292,-43.25,-27.75,15.13,314.55,-81.14,-150.44
91358,52.473263,-1.392261,174.57,19.25,3.0,96.62,23 / 23,4714475,2019-09-07 11:45:47:629,0.6893,-0.4386,9.0802,0.0027,0.003,9.8066,0.0098,0.0095,-0.0163,-43.75,-27.19,14.25,312.27,-81.14,-151.19
91359,52.473263,-1.392261,174.57,19.25,3.0,96.62,23 / 23,4714576,2019-09-07 11:45:47:730,-0.4799,-0.2917,9.3569,-0.019,-0.0115,9.8066,-0.043,-0.0293,0.0018,-43.44,-27.19,14.81,315.6,-81.25,-149.66
91360,52.473263,-1.392261,174.57,19.25,3.0,96.62,23 / 23,4714675,2019-09-07 11:45:47:829,0.1449,0.6658,10.6666,0.0086,-0.0067,9.8066,0.0197,-0.0135,0.005,-43.25,-27.0,14.25,314.53,-81.19,-149.41
91361,52.473263,-1.392261,174.57,19.25,3.0,96.62,23 / 23,4714775,2019-09-07 11:45:47:929,-0.2009,0.1191,10.7807,0.0037,-0.0026,9.8066,-0.0278,-0.0289,-0.0357,-43.06,-27.06,14.13,314.17,-81.07,-149.68
91362,52.473263,-1.392261,174.57,19.25,3.0,96.62,23 / 23,4714875,2019-09-07 11:45:48:029,0.3556,0.7036,9.3592,-0.0037,0.0064,9.8066,-0.049,-0.0213,-0.0348,-43.44,-26.5,14.25,314.04,-81.13,-149.98
91363,52.473263,-1.392261,174.57,19.25,3.0,96.62,23 / 23,4714975,2019-09-07 11:45:48:129,-1.0939,0.2592,11.0216,-0.0074,0.003,9.8066,0.0159,0.0684,0.0241,-43.81,-26.5,14.0,314.46,-81.29,-149.35
91364,52.473263,-1.392261,174.57,19.25,3.0,96.62,23 / 23,4715075,2019-09-07 11:45:48:229,1.1878,0.049,9.8407,0.0031,0.0022,9.8066,0.0416,0.1026,0.0728,-43.5,-27.0,14.63,315.89,-81.35,-149.43
91365,52.473263,-1.392261,174.57,19.25,3.0,96.62,23 / 23,4715176,2019-09-07 11:45:48:330,0.6319,-0.0828,9.6524,0.0055,0.0039,9.8066,0.023,0.0612,0.0253,-43.62,-27.5,14.25,313.63,-81.27,-149.98
91366,52.473263,-1.392261,174.57,19.25,3.0,96.62,23 / 23,4715275,2019-09-07 11:45:48:429,-0.4828,0.3219,10.7235,0.0008,0.0038,9.8066,0.0409,0.0803,0.066,-43.25,-26.31,14.0,314.24,-81.21,-149.83
91367,52.473263,-1.392261,174.57,19.25,3.0,96.62,23 / 23,4715375,2019-09-07 11:45:48:529,-0.3775,-1.2116,11.4197,0.0034,-0.0006,9.8066,0.0217,0.0311,-0.0159,-43.62,-27.0,14.81,315.34,-81.09,-149.49
91368,52.473263,-1.392261,174.57,19.25,3.0,96.62,23 / 23,4715476,2019-09-07 11:45:48:630,-0.0728,-1.0222,11.1586,0.0159,0.0061,9.8066,0.0004,-0.0495,-0.0628,-42.94,-26.75,14.44,313.35,-80.99,-150.4
91369,52.473263,-1.392261,174.57,19.25,3.0,96.62,23 / 23,4715576,2019-09-07 11:45:48:730,-0.4882,-0.8721,9.3766,0.004,0.0228,9.8065,0.0046,0.0648,-0.0094,-43.19,-27.0,15.19,313.16,-81.06,-151.84
91370,52.473263,-1.392261,174.57,19.25,3.0,96.62,23 / 23,4715676,2019-09-07 11:45:48:830,0.1349,0.671,9.3898,-0.0042,0.0197,9.8066,-0.0112,0.0469,0.0232,-42.94,-27.5,14.38,310.32,-81.29,-153.41
91371,52.473263,-1.392261,174.57,19.25,3.0,96.62,23 / 23,4715776,2019-09-07 11:45:48:930,0.4479,0.1972,9.0545,-0.004,-0.0025,9.8066,-0.0344,-0.0272,0.0067,-43.0,-27.31,14.63,312.44,-81.36,-152.67
91372,52.473263,-1.392261,174.57,19.25,3.0,96.62,23 / 23,4715876,2019-09-07 11:45:49:030,0.1043,-0.1763,9.0257,0.0,-0.0153,9.8066,-0.0179,-0.0083,0.0149,-42.62,-27.44,14.88,312.99,-81.33,-152.14
91373,52.473263,-1.392261,174.57,19.25,3.0,96.62,23 / 23,4715976,2019-09-07 11:45:49:130,-0.2927,-0.9815,11.3382,0.0018,-0.0062,9.8066,-0.0037,0.0172,0.0048,-43.25,-26.31,14.81,313.24,-81.3,-152.03
91374,52.473263,-1.392261,174.57,19.25,3.0,96.62,23 / 23,4716075,2019-09-07 11:45:49:229,-0.1876,-0.0752,9.2386,0.0135,0.0065,9.8066,0.0304,-0.013,-0.0154,-43.44,-26.94,14.63,312.74,-81.14,-152.28
91375,52.473263,-1.392261,174.57,19.25,3.0,96.62,23 / 23,4716175,2019-09-07 11:45:49:329,-0.1058,-0.1903,9.2954,0.0025,-0.0017,9.8066,-0.015,-0.0473,-0.0534,-42.87,-27.06,14.56,311.76,-81.06,-153.16
91376,52.473263,-1.392261,174.57,19.25,3.0,96.62,23 / 23,4716275,2019-09-07 11:45:49:429,0.5008,-0.314,8.7227,0.0006,0.0076,9.8066,-0.013,-0.0919,-0.0776,-43.31,-26.87,14.38,310.07,-81.05,-153.51
91377,52.473263,-1.392261,174.57,19.25,3.0,96.62,23 / 23,4716375,2019-09-07 11:45:49:529,0.0863,0.0527,9.1704,-0.0066,0.0138,9.8066,-0.0063,0.0164,0.0111,-42.56,-27.12,15.06,310.16,-81.23,-154.75
91378,52.473263,-1.392261,174.57,19.25,3.0,96.62,23 / 23,4716476,2019-09-07 11:45:49:630,-0.8773,-0.9262,10.6451,-0.0089,0.0051,9.8066,0.0587,0.1166,0.0682,-42.94,-27.12,14.63,310.22,-81.38,-154.77
91379,52.473263,-1.392261,174.57,19.25,3.0,96.62,23 / 23,4716575,2019-09-07 11:45:49:729,-0.4883,-0.5136,10.5033,0.0161,-0.0029,9.8066,0.0297,0.0052,-0.0038,-42.87,-27.06,15.13,309.56,-81.27,-155.33
91380,52.473263,-1.392261,174.57,19.25,3.0,96.62,23 / 23,4716676,2019-09-07 11:45:49:830,-0.8047,-0.2254,10.495,0.0067,0.0085,9.8066,0.0278,-0.0175,-0.051,-42.81,-27.56,15.0,308.31,-81.14,-156.29
91381,52.473263,-1.392261,174.57,19.25,3.0,96.62,23 / 23,4716776,2019-09-07 11:45:49:930,-0.0523,-0.1266,9.0733,-0.0021,0.0034,9.8066,-0.0009,0.0213,0.0156,-42.5,-27.37,15.13,307.82,-81.06,-157.2
91382,52.473263,-1.392261,174.57,19.25,3.0,96.62,23 / 23,4716875,2019-09-07 11:45:50:029,0.2319,0.5785,9.1645,-0.0065,-0.0074,9.8066,-0.0068,-0.0213,-0.0081,-43.12,-28.06,15.31,307.76,-81.12,-156.8
91383,52.473263,-1.392261,174.57,19.25,3.0,96.62,23 / 23,4716975,2019-09-07 11:45:50:129,-1.5614,0.2774,9.2782,-0.0102,-0.0023,9.8066,-0.0236,0.0119,0.0421,-42.5,-27.06,15.25,309.47,-81.18,-155.71
91384,52.473263,-1.392261,174.57,19.25,3.0,96.62,23 / 23,4717075,2019-09-07 11:45:50:229,-0.7257,-0.846,8.8389,0.0012,-0.0192,9.8066,-0.0027,0.0024,0.0375,-42.87,-27.44,14.63,310.04,-81.14,-154.82
91385,52.473263,-1.392261,174.57,19.25,3.0,96.62,23 / 23,4717175,2019-09-07 11:45:50:329,0.3737,-0.52,10.1111,0.0133,-0.0004,9.8066,0.0307,0.0008,-0.0185,-42.81,-27.0,15.13,310.43,-80.97,-154.36
91386,52.473263,-1.392261,174.57,19.25,3.0,96.62,23 / 23,4717275,2019-09-07 11:45:50:429,0.3027,-0.5713,9.8597,0.0072,0.0168,9.8066,-0.0493,-0.0037,-0.0365,-42.75,-27.37,15.31,308.77,-80.91,-155.89
91387,52.473263,-1.392261,174.57,19.25,3.0,96.62,23 / 23,4717375,2019-09-07 11:45:50:529,-0.1923,0.0464,8.3304,0.0007,0.027,9.8066,-0.0107,0.006,-0.0889,-42.06,-27.56,14.75,308.08,-81.08,-156.81
91388,52.473263,-1.392261,174.57,19.25,3.0,96.62,23 / 23,4717476,2019-09-07 11:45:50:630,-0.869,0.6117,8.9151,-0.004,0.0159,9.8066,-0.0372,-0.0623,-0.089,-42.37,-27.56,14.88,306.2,-81.31,-158.72
91389,52.473263,-1.392261,174.57,19.25,3.0,96.62,23 / 23,4717575,2019-09-07 11:45:50:729,0.1719,0.7395,8.3098,-0.0072,-0.0004,9.8066,-0.0051,0.0404,0.0766,-42.44,-27.69,14.44,304.41,-81.43,-159.23
91390,52.473263,-1.392261,174.57,19.25,3.0,96.62,23 / 23,4717676,2019-09-07 11:45:50:830,0.6736,-0.7464,9.7997,-0.0174,-0.0096,9.8066,0.0402,0.1345,0.1482,-42.75,-27.37,14.06,305.58,-81.55,-158.04
91391,52.473263,-1.392261,174.57,19.25,3.0,96.62,23 / 23,4717776,2019-09-07 11:45:50:930,-0.2952,-0.5931,10.1988,-0.0101,-0.0194,9.8065,-0.0519,-0.0927,-0.0299,-42.62,-27.0,14.56,308.75,-81.43,-156.18
91392,52.473263,-1.392261,174.57,19.25,3.0,96.62,23 / 23,4717876,2019-09-07 11:45:51:030,-0.1957,-0.443,10.5492,0.0067,-0.0062,9.8066,0.0153,0.0077,0.012,-42.56,-27.44,14.94,310.02,-81.37,-154.96
91393,52.473263,-1.392261,174.57,19.25,3.0,96.62,23 / 23,4717976,2019-09-07 11:45:51:130,0.6488,0.2295,10.6246,-0.003,0.0021,9.8066,0.0365,0.0784,0.0634,-42.62,-26.75,14.38,308.48,-81.34,-155.17
91394,52.473263,-1.392261,174.57,19.25,3.0,96.62,23 / 23,4718075,2019-09-07 11:45:51:229,-0.0678,-0.1488,8.2062,-0.0141,-0.0119,9.8066,-0.0653,-0.0454,-0.0131,-42.56,-27.56,14.5,310.35,-81.35,-154.49
