,GPS LATITUDE (degrees), GPS LONGITUDE (degrees), GPS ALTITUDE (m), GPS SPEED (Kmh), GPS ACCURACY (m), GPS ORIENTATION (Â°),GPS SATELLITES IN RANGE, TIME SINCE START (ms), DATE (YYYY-MO-DD HH-MI-SS_SSS), ACCELEROMETER X (m/s²) , ACCELEROMETER Y (m/s²), ACCELEROMETER Z (m/s²), GRAVITY X (m/s²), GRAVITY Y (m/s²), GRAVITY Z (m/s²), GYROSCOPE Yaw (rad/s), GYROSCOPE Pitch (rad/s), GYROSCOPE Roll (rad/s), MAGNETIC FIELD X (Î¼T), MAGNETIC FIELD Y (Î¼T), MAGNETIC FIELD Z (Î¼T), ORIENTATION (Yaw) (Â°), ORIENTATION (Pitch) (Â°), ORIENTATION (Roll ) (Â°)
16768,52.554695,-1.463064,0,0,6,0,22 / 23,1676818,2020-01-08 10:05:52:615,0.3526,-0.048,9.8878,-0.0045,0.0012,9.8066,0.0135,0.0278,-0.0147,0.0,-27.94,32.44,337.4,-86.6,158.58
16769,52.554695,-1.463064,0,0,6,0,22 / 23,1676919,2020-01-08 10:05:52:716,-0.1704,-0.04,9.9169,0.0005,-0.0021,9.8066,-0.0119,-0.0502,0.0331,0.0,-28.19,32.5,337.29,-86.6,158.43
16770,52.554695,-1.463064,0,0,6,0,22 / 23,1677019,2020-01-08 10:05:52:816,-0.3486,-0.3267,9.8336,-0.0094,-0.0001,9.8066,0.0061,0.0392,0.0,0.25,-28.12,32.5,337.58,-86.61,158.71
16771,52.554695,-1.463064,0,0,6,0,22 / 23,1677119,2020-01-08 10:05:52:916,0.3031,-0.2203,9.9334,0.0019,-0.0012,9.8065,0.006,0.0007,-0.0036,0.44,-27.87,32.63,337.29,-86.59,158.44
16772,52.554695,-1.463064,0,0,6,0,22 / 23,1677218,2020-01-08 10:05:53:015,-0.0784,0.0474,9.8355,0.0014,0.0,9.8066,0.0019,0.0382,-0.062,0.38,-28.31,33.0,337.28,-86.61,158.43
16773,52.554695,-1.463064,0,0,6,0,22 / 23,1677318,2020-01-08 10:05:53:115,0.3919,-0.3994,9.9401,0.0083,-0.0044,9.8065,0.0083,0.0208,0.0034,0.5,-27.94,32.63,339.57,-86.61,158.87
16774,52.554695,-1.463064,0,0,6,0,22 / 23,1677419,2020-01-08 10:05:53:216,-0.3047,0.3117,9.7944,-0.0027,-0.0001,9.8066,-0.0034,0.0511,-0.0107,0.69,-28.69,32.75,339.22,-86.6,158.58
16775,52.554695,-1.463064,0,0,6,0,22 / 23,1677519,2020-01-08 10:05:53:316,0.4782,-0.5381,9.9253,0.0057,-0.0023,9.8066,0.0053,0.0457,-0.0496,0.13,-28.44,32.88,336.83,-86.58,158.01
16776,52.554695,-1.463064,0,0,6,0,22 / 23,1677619,2020-01-08 10:05:53:416,-0.6071,0.3218,9.7787,0.0078,-0.003,9.8066,0.0055,0.0533,-0.0444,-0.31,-29.0,32.94,337.18,-86.59,158.38
16777,52.554695,-1.463064,0,0,6,0,22 / 23,1677718,2020-01-08 10:05:53:515,-0.04,-0.1145,9.7877,0.0062,0.0005,9.8066,-0.006,0.0516,-0.0327,0.0,-28.37,33.06,337.51,-86.62,158.65
16778,52.554695,-1.463064,0,0,6,0,22 / 23,1677819,2020-01-08 10:05:53:616,-0.4183,0.0054,9.7937,0.0049,-0.0032,9.8066,-0.0045,0.0086,0.0115,0.38,-28.25,32.94,337.02,-86.59,158.19
16779,52.554695,-1.463064,0,0,6,0,22 / 23,1677918,2020-01-08 10:05:53:715,-0.0818,0.1332,9.8327,-0.003,0.0017,9.8066,0.0014,0.0528,-0.0388,0.19,-28.06,32.56,336.96,-86.59,158.12
16780,52.554695,-1.463064,0,0,6,0,22 / 23,1678019,2020-01-08 10:05:53:816,0.3885,-0.4401,9.9232,0.0106,-0.0027,9.8066,-0.0047,-0.0037,-0.0032,-0.06,-29.06,32.88,336.79,-86.59,158.01
16781,52.554695,-1.463064,0,0,6,0,22 / 24,1678119,2020-01-08 10:05:53:916,-0.2692,-0.2563,9.7633,-0.0057,0.0014,9.8066,0.0033,0.0365,-0.0124,-0.06,-28.5,32.75,337.06,-86.61,158.22
16782,52.554695,-1.463064,0,0,6,0,22 / 24,1678218,2020-01-08 10:05:54:015,0.4507,-0.3786,10.0093,0.0107,-0.0028,9.8066,-0.0212,-0.0427,0.0551,0.38,-28.56,32.81,336.94,-86.59,158.15
16783,52.554695,-1.463064,0,0,6,0,22 / 24,1678319,2020-01-08 10:05:54:116,-0.7163,-0.0042,9.7833,-0.0065,0.0032,9.8066,0.0022,0.0305,-0.0248,0.13,-28.37,32.88,338.03,-86.64,159.13
16784,52.554695,-1.463064,0,0,6,0,22 / 24,1678419,2020-01-08 10:05:54:216,-0.015,-0.3415,9.9851,-0.0001,-0.0065,9.8066,-0.0315,-0.05,-0.0186,-0.12,-28.62,32.56,337.56,-86.63,158.73
16785,52.554695,-1.463064,0,0,6,0,22 / 24,1678519,2020-01-08 10:05:54:316,-0.6108,-0.1713,9.7682,0.0081,-0.0019,9.8066,-0.0138,-0.0099,0.0594,-0.44,-29.06,32.44,337.05,-86.59,158.29
16786,52.554695,-1.463064,0,0,6,0,22 / 24,1678619,2020-01-08 10:05:54:416,0.3587,0.2027,9.7243,0.0166,-0.0027,9.8066,-0.0082,-0.0471,0.0646,-0.19,-29.12,32.06,338.34,-86.64,159.49
16787,52.554695,-1.463064,0,0,6,0,22 / 24,1678718,2020-01-08 10:05:54:515,-0.3361,-0.2061,9.7256,-0.0006,-0.0041,9.8066,-0.026,-0.0607,-0.0059,-0.69,-29.31,32.63,335.99,-86.6,158.97
16788,52.554695,-1.463064,0,0,6,0,22 / 24,1678819,2020-01-08 10:05:54:616,0.2023,0.2944,9.7904,0.0024,0.0003,9.8066,0.0112,0.0055,-0.0035,-0.37,-28.62,32.44,337.01,-86.61,158.25
16789,52.554695,-1.463064,0,0,6,0,22 / 24,1678919,2020-01-08 10:05:54:716,0.2215,-0.6451,10.0157,0.0105,-0.0029,9.8066,-0.0168,-0.0473,0.0421,-0.56,-28.69,32.75,335.25,-86.6,158.28
16790,52.554695,-1.463064,0,0,6,0,22 / 24,1679019,2020-01-08 10:05:54:816,0.3328,0.1764,9.8384,-0.0016,0.001,9.8066,-0.0057,0.0207,-0.033,-0.12,-28.19,32.88,337.35,-86.62,158.49
16791,52.554695,-1.463064,0,0,6,0,22 / 24,1679118,2020-01-08 10:05:54:915,0.0794,-0.5359,9.9522,0.0015,-0.0008,9.8066,0.0093,-0.0112,0.0336,-0.69,-27.87,33.31,336.05,-86.62,158.98
16792,52.554695,-1.463064,0,0,6,0,22 / 23,1679219,2020-01-08 10:05:55:016,-0.4698,0.4153,9.7202,-0.0026,-0.0008,9.8066,0.0051,0.0571,-0.0193,-0.5,-28.19,32.81,337.53,-86.62,158.66
16793,52.554695,-1.463064,0,0,6,0,22 / 23,1679318,2020-01-08 10:05:55:115,0.2148,-0.5421,9.8288,0.0125,-0.0035,9.8066,-0.0071,0.0098,-0.049,-0.37,-27.69,33.25,337.83,-86.62,158.94
16794,52.554695,-1.463064,0,0,6,0,22 / 23,1679419,2020-01-08 10:05:55:216,-0.6518,0.3243,9.7797,-0.0018,-0.0003,9.8066,0.006,0.0776,-0.0565,-0.94,-28.25,32.94,336.16,-86.6,159.1
16795,52.554695,-1.463064,0,0,6,0,22 / 23,1679519,2020-01-08 10:05:55:316,0.1117,-0.4368,9.9001,-0.0001,-0.0011,9.8066,-0.0061,0.041,0.0071,-1.0,-28.06,32.81,335.9,-86.59,158.86
16796,52.554695,-1.463064,0,0,6,0,22 / 23,1679618,2020-01-08 10:05:55:415,-0.7013,0.3444,9.8506,0.0085,0.0,9.8066,-0.0032,0.0232,-0.0174,-0.5,-27.69,32.75,337.04,-86.57,158.21
16797,52.554695,-1.463064,0,0,6,0,22 / 23,1679719,2020-01-08 10:05:55:516,0.3507,0.1993,9.8292,0.0054,0.0023,9.8066,-0.0024,0.0812,-0.0311,-0.44,-28.0,32.75,337.97,-86.58,159.1
16798,52.554695,-1.463064,0,0,6,0,22 / 23,1679818,2020-01-08 10:05:55:615,0.0466,-0.4705,9.8785,0.0039,0.0011,9.8066,-0.0009,-0.0261,0.0131,-0.5,-28.19,32.94,337.35,-86.59,158.5
16799,52.554695,-1.463064,0,0,6,0,22 / 23,1679919,2020-01-08 10:05:55:716,-0.4563,0.0994,9.8469,-0.0031,0.0007,9.8066,-0.0004,0.0295,-0.0107,-0.56,-27.87,32.75,335.74,-86.57,158.71
16800,52.554695,-1.463064,0,0,6,0,22 / 23,1680019,2020-01-08 10:05:55:816,0.0531,-0.1971,9.8078,0.0002,0.0005,9.8066,-0.0103,-0.0431,0.0347,-0.19,-28.31,33.06,337.67,-86.58,158.81
16801,52.554695,-1.463064,0,0,6,0,22 / 24,1680119,2020-01-08 10:05:55:916,-0.0404,-0.3841,9.8396,-0.0073,-0.0017,9.8066,0.0031,0.0013,-0.0097,-0.31,-28.12,32.88,336.99,-86.57,158.16
16802,52.554695,-1.463064,0,0,6,0,22 / 24,1680219,2020-01-08 10:05:56:016,0.1232,-0.0661,9.9421,-0.0001,0.0026,9.8066,-0.0129,-0.032,-0.0188,-0.37,-28.94,33.31,337.57,-86.59,158.75
16803,52.554695,-1.463064,0,0,6,0,22 / 24,1680319,2020-01-08 10:05:56:116,-0.0851,0.114,9.7611,-0.0067,0.0009,9.8065,-0.0109,-0.0369,0.0581,-0.31,-28.25,32.63,337.56,-86.58,158.7
16804,52.554695,-1.463064,0,0,6,0,22 / 24,1680419,2020-01-08 10:05:56:216,0.2459,-0.1629,9.9087,-0.0064,0.0021,9.8066,0.0105,0.0168,0.0267,-0.06,-27.37,32.13,337.59,-86.59,158.72
16805,52.554695,-1.463064,0,0,6,0,22 / 24,1680519,2020-01-08 10:05:56:316,-0.0306,0.1858,9.8094,0.0054,0.0002,9.8066,-0.0191,-0.0448,-0.0193,0.19,-28.31,32.81,337.6,-86.59,158.74
16806,52.554695,-1.463064,0,0,6,0,22 / 24,1680619,2020-01-08 10:05:56:416,-0.0955,0.0247,9.7736,-0.0092,-0.0003,9.8066,0.0104,0.0402,-0.0249,0.06,-28.19,32.81,338.04,-86.59,159.16
16807,52.554695,-1.463064,0,0,6,0,22 / 24,1680719,2020-01-08 10:05:56:516,0.3089,-0.3119,9.935,-0.0012,-0.0014,9.8066,-0.0082,-0.0128,0.0325,0.06,-27.87,32.44,337.27,-86.58,158.47
16808,52.554695,-1.463064,0,0,6,0,22 / 24,1680818,2020-01-08 10:05:56:615,-0.0917,0.265,9.7754,-0.0018,-0.0012,9.8066,0.0011,0.0368,-0.0199,-0.44,-28.0,32.88,337.25,-86.57,158.41
16809,52.554695,-1.463064,0,0,6,0,22 / 24,1680919,2020-01-08 10:05:56:716,0.4481,-0.4824,9.9881,0.0074,-0.003,9.8066,0.0195,0.0266,-0.0308,-0.75,-27.81,32.25,335.54,-86.57,158.61
16810,52.554695,-1.463064,0,0,6,0,22 / 24,1681018,2020-01-08 10:05:56:815,-0.5703,0.4124,9.7876,0.0012,-0.0009,9.8066,-0.0101,0.0439,-0.0584,-0.44,-28.0,33.19,337.52,-86.57,158.67
16811,52.554695,-1.463064,0,0,6,0,22 / 24,1681119,2020-01-08 10:05:56:916,0.19,0.3817,9.797,0.003,-0.0023,9.8066,0.0037,0.04,0.0111,-0.5,-27.75,32.88,337.75,-86.58,158.89
16812,52.554695,-1.463064,0,0,6,0,22 / 24,1681218,2020-01-08 10:05:57:015,-0.4599,-0.2802,9.8257,0.004,0.0001,9.8066,0.0032,0.0509,-0.0046,-0.25,-27.94,32.81,337.25,-86.56,158.42
16813,52.554695,-1.463064,0,0,6,0,22 / 24,1681319,2020-01-08 10:05:57:116,0.3903,0.38,9.8245,0.0083,-0.0009,9.8066,-0.002,0.0452,-0.0644,0.13,-28.37,32.38,336.82,-86.55,158.05
16814,52.554695,-1.463064,0,0,6,0,22 / 24,1681419,2020-01-08 10:05:57:216,-0.0491,-0.3387,9.9004,0.0071,-0.0049,9.8066,0.0102,0.037,-0.0292,-0.37,-28.19,32.63,337.59,-86.54,158.75
16815,52.554695,-1.463064,0,0,6,0,22 / 24,1681520,2020-01-08 10:05:57:317,0.1217,0.3464,9.8482,0.0,0.0011,9.8066,-0.0005,0.0424,-0.0096,-0.56,-27.69,32.13,335.91,-86.56,158.97
16816,52.554695,-1.463064,0,0,6,0,22 / 24,1681619,2020-01-08 10:05:57:416,-0.3965,0.1774,9.7843,0.0046,-0.0015,9.8066,-0.0223,-0.014,0.0345,-0.06,-27.87,32.75,337.5,-86.55,158.66
16817,52.554695,-1.463064,0,0,6,0,22 / 24,1681719,2020-01-08 10:05:57:516,-0.1517,-0.5055,9.8042,-0.0031,0.0009,9.8066,0.0058,0.0483,-0.038,-0.19,-28.12,32.19,337.55,-86.55,158.74
16818,52.554695,-1.463064,0,0,6,0,22 / 24,1681818,2020-01-08 10:05:57:615,0.2563,0.1713,9.8199,0.0043,0.0024,9.8066,-0.0059,-0.0459,0.0054,-0.37,-28.25,32.31,337.61,-86.57,158.78
16819,52.554695,-1.463064,0,0,6,0,22 / 24,1681919,2020-01-08 10:05:57:716,-0.3107,-0.4548,9.7966,-0.006,0.001,9.8066,-0.0186,-0.0099,0.0272,-0.12,-28.25,33.06,338.33,-86.58,159.44
16820,52.554695,-1.463064,0,0,6,0,22 / 24,1682019,2020-01-08 10:05:57:816,0.6032,-0.0398,9.8537,-0.0062,0.001,9.8066,0.005,0.0587,-0.0279,-0.19,-28.31,32.88,338.13,-86.56,159.25
16821,52.554695,-1.463064,0,0,6,0,22 / 24,1682118,2020-01-08 10:05:57:915,-0.6096,0.4272,9.77,-0.0112,0.0025,9.8066,0.0149,0.0642,-0.0463,-0.06,-27.94,32.56,337.33,-86.54,158.5
16822,52.554695,-1.463064,0,0,6,0,22 / 24,1682219,2020-01-08 10:05:58:016,-0.0254,-0.47,9.9137,-0.0009,-0.0002,9.8066,-0.0042,0.0565,-0.0135,-0.5,-28.31,32.75,338.01,-86.55,159.14
16823,52.554695,-1.463064,0,0,6,0,22 / 24,1682319,2020-01-08 10:05:58:116,0.427,0.2439,9.8409,-0.0018,0.0008,9.8066,-0.0197,0.0027,-0.0017,0.19,-28.62,32.38,338.06,-86.55,159.26
16824,52.554695,-1.463064,0,0,6,0,22 / 24,1682419,2020-01-08 10:05:58:216,0.4911,-0.3867,9.9778,-0.0107,0.0057,9.8066,0.0161,0.0806,-0.0478,-0.56,-28.19,32.69,336.55,-86.59,159.48
16825,52.554695,-1.463064,0,0,6,0,22 / 24,1682519,2020-01-08 10:05:58:316,-0.0672,0.1742,9.8394,-0.0002,-0.0002,9.8066,-0.0068,-0.0139,0.0093,0.0,-28.31,32.75,338.14,-86.57,159.26
16826,52.554695,-1.463064,0,0,6,0,22 / 24,1682618,2020-01-08 10:05:58:415,-0.3159,-0.2431,9.8969,-0.0055,-0.002,9.8066,-0.0192,0.0106,-0.023,-0.37,-28.19,33.06,338.53,-86.56,159.63
16827,52.554695,-1.463064,0,0,6,0,22 / 24,1682719,2020-01-08 10:05:58:516,0.1263,0.1703,9.8192,0.0049,0.0014,9.8066,0.0108,-0.0246,0.0208,-0.12,-28.19,32.63,338.3,-86.56,159.42
16828,52.554695,-1.463064,0,0,6,0,22 / 24,1682819,2020-01-08 10:05:58:616,-0.5025,-0.3655,9.9372,0.0051,-0.0009,9.8066,0.005,-0.0004,0.0236,-0.44,-27.69,32.56,338.04,-86.55,159.17
16829,52.554695,-1.463064,0,0,6,0,22 / 24,1682918,2020-01-08 10:05:58:715,0.1496,0.0945,9.8308,0.0043,0.0009,9.8066,-0.0103,-0.0278,0.0001,-0.25,-28.19,32.63,338.48,-86.56,159.58
16830,52.554695,-1.463064,0,0,6,0,22 / 24,1683019,2020-01-08 10:05:58:816,-0.1567,-0.6323,10.0069,-0.0005,0.0056,9.8066,0.0135,-0.0068,0.0027,-0.19,-28.62,32.56,337.84,-86.57,159.01
16831,52.554695,-1.463064,0,0,6,0,22 / 23,1683119,2020-01-08 10:05:58:916,-0.138,0.0357,9.8699,-0.0014,-0.0022,9.8066,-0.0135,0.0264,-0.0091,-0.31,-28.0,32.63,338.14,-86.56,159.26
16832,52.554695,-1.463064,0,0,6,0,22 / 23,1683219,2020-01-08 10:05:59:016,-0.146,-0.5891,9.9764,0.0032,0.0001,9.8066,-0.0107,-0.0121,0.0023,-0.5,-28.19,32.75,338.16,-86.55,159.28
16833,52.554695,-1.463064,0,0,6,0,22 / 23,1683319,2020-01-08 10:05:59:116,-0.1142,0.1575,9.8492,0.0017,-0.0025,9.8066,-0.0227,0.0312,0.0071,-0.37,-28.56,32.38,338.2,-86.55,159.4
16834,52.554695,-1.463064,0,0,6,0,22 / 23,1683419,2020-01-08 10:05:59:216,0.0414,-0.56,9.8501,-0.0027,-0.0026,9.8066,-0.0009,0.0479,-0.0109,-0.37,-28.0,33.31,338.48,-86.56,159.59
16835,52.554695,-1.463064,0,0,6,0,22 / 23,1683519,2020-01-08 10:05:59:316,0.0411,0.2339,9.7562,-0.0024,-0.0001,9.8066,-0.0061,-0.0113,-0.0244,-0.19,-27.19,32.56,338.54,-86.56,159.61
16836,52.554695,-1.463064,0,0,6,0,22 / 23,1683619,2020-01-08 10:05:59:416,0.0243,-0.6086,9.9389,-0.0022,-0.0025,9.8066,-0.018,0.0168,-0.0049,-0.56,-28.12,32.69,336.66,-86.54,159.59
16837,52.554695,-1.463064,0,0,6,0,22 / 23,1683718,2020-01-08 10:05:59:515,0.1095,0.2708,9.6888,0.003,0.0004,9.8066,0.0143,-0.0007,0.0169,-0.19,-27.69,32.94,338.1,-86.56,159.22
16838,52.554695,-1.463064,0,0,6,0,22 / 23,1683819,2020-01-08 10:05:59:616,-0.3451,-0.0017,9.8717,0.0026,-0.0022,9.8066,-0.0114,-0.0088,0.0096,0.0,-28.44,32.5,338.32,-86.55,159.44
16839,52.554695,-1.463064,0,0,6,0,22 / 23,1683918,2020-01-08 10:05:59:715,0.2322,-0.4327,9.8072,0.0045,0.0022,9.8066,-0.0099,-0.0262,0.0103,0.06,-28.62,32.38,338.64,-86.53,159.82
16840,52.554695,-1.463064,0,0,6,0,22 / 23,1684020,2020-01-08 10:05:59:817,-0.0533,-0.3639,10.0002,0.0,0.0026,9.8066,0.025,0.0003,-0.0102,-0.37,-28.19,32.88,338.51,-86.53,159.62
16841,52.554695,-1.463064,0,0,6,0,22 / 23,1684118,2020-01-08 10:05:59:915,-0.1273,-0.4981,9.9654,-0.0041,0.0023,9.8066,0.001,0.0088,0.0094,0.0,-27.81,32.63,338.2,-86.52,159.33
16842,52.554695,-1.463064,0,0,6,0,22 / 23,1684218,2020-01-08 10:06:00:015,0.202,-0.3142,9.779,0.0031,-0.0011,9.8066,0.0071,0.0019,0.0047,-0.19,-28.06,32.94,338.39,-86.53,159.51
16843,52.554695,-1.463064,0,0,6,0,22 / 23,1684319,2020-01-08 10:06:00:116,-0.1286,0.1762,9.9099,0.0016,-0.0044,9.8066,0.0256,0.0182,-0.002,0.06,-28.31,33.25,338.51,-86.54,159.62
16844,52.554695,-1.463064,0,0,6,0,22 / 23,1684418,2020-01-08 10:06:00:215,0.0784,-0.2039,9.8229,-0.002,-0.0015,9.8066,-0.0067,-0.0055,-0.0008,-0.12,-27.87,33.0,338.53,-86.53,159.64
16845,52.554695,-1.463064,0,0,6,0,22 / 23,1684519,2020-01-08 10:06:00:316,0.0444,0.4123,9.7741,0.0016,-0.0026,9.8066,-0.0017,-0.0083,-0.004,-0.81,-28.69,32.94,336.64,-86.52,159.62
16846,52.554695,-1.463064,0,0,6,0,22 / 23,1684619,2020-01-08 10:06:00:416,0.0777,-0.0779,9.8058,-0.0047,-0.0009,9.8066,-0.0104,0.0299,-0.0055,-0.12,-28.06,33.38,339.12,-86.52,160.21
16847,52.554695,-1.463064,0,0,6,0,22 / 23,1684719,2020-01-08 10:06:00:516,-0.087,0.2667,9.7424,-0.0039,0.006,9.8066,-0.014,0.0178,0.004,-0.75,-28.37,33.06,336.93,-86.49,159.87
16848,52.554695,-1.463064,0,0,6,0,22 / 23,1684819,2020-01-08 10:06:00:616,0.1176,-0.2145,9.8952,0.0054,-0.0009,9.8066,-0.0053,-0.0008,-0.0084,-0.56,-28.0,33.31,336.67,-86.5,159.62
16849,52.554695,-1.463064,0,0,6,0,22 / 23,1684919,2020-01-08 10:06:00:716,-0.2798,0.2953,9.9105,0.004,0.0017,9.8066,-0.0074,0.0458,-0.0158,0.06,-27.75,33.25,339.28,-86.49,160.37
16850,52.554695,-1.463064,0,0,6,0,22 / 23,1685019,2020-01-08 10:06:00:816,0.0778,-0.6485,9.9809,0.0011,-0.0006,9.8065,-0.0078,-0.0177,0.01,-0.56,-28.19,33.19,337.2,-86.48,160.13
16851,52.554695,-1.463064,0,0,6,0,22 / 24,1685119,2020-01-08 10:06:00:916,-0.3641,0.2394,9.7745,0.0001,-0.0032,9.8065,-0.0157,-0.0045,0.0044,0.0,-28.5,32.88,339.24,-86.48,160.33
16852,52.554695,-1.463064,0,0,6,0,22 / 24,1685219,2020-01-08 10:06:01:016,0.2385,-0.3841,9.8916,0.0065,-0.0001,9.8066,-0.0061,-0.0053,0.0277,-0.69,-28.25,32.94,337.66,-86.5,160.56
16853,52.554695,-1.463064,0,0,6,0,22 / 24,1685319,2020-01-08 10:06:01:116,-0.2141,0.2553,9.8144,0.0,-0.0012,9.8066,0.0027,-0.0147,0.003,-0.37,-28.31,33.0,339.21,-86.48,160.3
16854,52.554695,-1.463064,0,0,6,0,22 / 24,1685419,2020-01-08 10:06:01:216,0.124,-0.3693,9.8257,0.0012,0.0009,9.8066,0.0066,-0.0012,-0.0139,-0.62,-27.87,33.31,337.37,-86.48,160.29
16855,52.554695,-1.463064,0,0,6,0,22 / 24,1685519,2020-01-08 10:06:01:316,-0.1379,-0.2814,9.9067,0.0052,-0.002,9.8066,-0.0081,-0.0171,0.0278,-0.56,-28.25,32.56,337.04,-86.46,159.99
16856,52.554695,-1.463064,0,0,6,0,22 / 24,1685618,2020-01-08 10:06:01:415,0.1443,0.0307,9.7603,0.0036,-0.001,9.8066,-0.0047,0.0208,0.0086,-0.25,-28.25,33.19,339.35,-86.48,160.44
16857,52.554695,-1.463064,0,0,6,0,22 / 24,1685719,2020-01-08 10:06:01:516,-0.0217,0.4895,9.7986,0.0015,0.0016,9.8066,-0.0133,-0.0188,-0.006,-0.44,-28.44,33.0,339.67,-86.48,160.74
16858,52.554695,-1.463064,0,0,6,0,22 / 24,1685819,2020-01-08 10:06:01:616,-0.2682,-0.5599,9.9717,-0.006,0.0014,9.8065,-0.0057,0.0523,-0.0319,-0.69,-28.94,32.94,337.61,-86.47,160.56
16859,52.554695,-1.463064,0,0,6,0,22 / 24,1685919,2020-01-08 10:06:01:716,0.1656,0.2207,9.8547,-0.0015,0.0023,9.8066,0.0197,0.0525,-0.0205,-0.06,-28.5,32.38,339.63,-86.5,160.73
16860,52.554695,-1.463064,0,0,6,0,22 / 24,1686018,2020-01-08 10:06:01:815,-0.2021,-0.622,10.0362,0.0031,0.0025,9.8066,0.0113,-0.0067,0.0228,-0.19,-28.44,33.25,339.59,-86.49,160.67
16861,52.554695,-1.463064,0,0,6,0,23 / 24,1686118,2020-01-08 10:06:01:915,0.0662,0.0829,9.7799,0.0039,0.0003,9.8066,-0.0147,0.0014,0.0107,0.0,-28.87,32.81,340.15,-86.48,161.24
16862,52.554695,-1.463064,0,0,6,0,23 / 24,1686219,2020-01-08 10:06:02:016,-0.1832,-0.5719,9.9703,-0.0038,0.0037,9.8066,0.0031,-0.0159,-0.0276,-0.5,-28.31,32.88,340.03,-86.49,161.08
16863,52.554695,-1.463064,0,0,6,0,23 / 24,1686318,2020-01-08 10:06:02:115,0.1047,-0.0142,9.8688,-0.0033,-0.001,9.8066,-0.0183,0.0332,-0.0231,-0.37,-28.81,32.88,339.55,-86.47,160.67
16864,52.554695,-1.463064,0,0,6,0,23 / 24,1686419,2020-01-08 10:06:02:216,-0.1978,0.5016,9.7359,0.007,-0.0057,9.8066,0.013,0.0071,-0.0399,-0.25,-28.25,32.94,339.57,-86.46,160.66
16865,52.554695,-1.463064,0,0,6,0,23 / 24,1686519,2020-01-08 10:06:02:316,0.0769,-0.4933,9.9694,0.0046,-0.0031,9.8066,0.0183,0.0195,0.0151,-0.19,-27.87,32.5,340.3,-86.48,161.34
16866,52.554695,-1.463064,0,0,6,0,23 / 24,1686619,2020-01-08 10:06:02:416,-0.1924,0.1851,9.8458,-0.0059,-0.0038,9.8066,-0.0199,0.0051,0.0088,-0.44,-28.0,33.13,339.69,-86.46,160.77
16867,52.554695,-1.463064,0,0,6,0,23 / 24,1686719,2020-01-08 10:06:02:516,-0.0642,0.571,9.7041,-0.0016,0.0015,9.8066,0.0042,0.0323,-0.0252,0.38,-28.5,32.81,339.79,-86.44,160.87
16868,52.554695,-1.463064,0,0,6,0,23 / 24,1686819,2020-01-08 10:06:02:616,-0.0979,-0.0344,9.9296,0.0056,-0.0007,9.8066,-0.0148,0.036,-0.0229,0.0,-28.06,32.94,339.71,-86.44,160.79
16869,52.554695,-1.463064,0,0,6,0,23 / 24,1686919,2020-01-08 10:06:02:716,0.243,-0.2695,9.8449,0.0039,0.0014,9.8066,-0.0123,0.0249,-0.0238,-0.37,-28.44,32.25,340.13,-86.45,161.22
16870,52.554695,-1.463064,0,0,6,0,23 / 24,1687018,2020-01-08 10:06:02:815,-0.1752,0.0776,9.8987,0.0018,0.0004,9.8066,-0.0015,0.0245,-0.0078,-0.19,-28.12,33.13,340.02,-86.46,161.08
16871,52.554695,-1.463064,0,0,6,0,23 / 24,1687119,2020-01-08 10:06:02:916,-0.2343,-0.4662,9.8519,-0.0003,-0.0015,9.8066,-0.0157,0.0309,0.0089,-0.37,-27.87,33.19,340.24,-86.45,161.3
16872,52.554695,-1.463064,0,0,6,0,23 / 24,1687218,2020-01-08 10:06:03:015,-0.2795,0.2767,9.8506,0.0059,-0.002,9.8066,-0.0108,-0.0185,0.0278,0.25,-28.25,32.88,340.25,-86.43,161.31
16873,52.554695,-1.463064,0,0,6,0,23 / 24,1687319,2020-01-08 10:06:03:116,-0.1068,-0.4204,9.8408,-0.0073,0.0002,9.8066,0.0021,0.0375,-0.0228,-0.56,-28.06,32.81,338.73,-86.46,161.6
16874,52.554695,-1.463064,0,0,6,0,23 / 24,1687419,2020-01-08 10:06:03:216,0.0552,0.3098,9.8033,0.0022,-0.0009,9.8066,-0.0136,-0.0313,0.0033,-0.25,-28.37,32.88,340.32,-86.43,161.37
16875,52.554695,-1.463064,0,0,6,0,23 / 24,1687519,2020-01-08 10:06:03:316,-0.2956,-0.2286,9.8816,0.0064,-0.0018,9.8066,-0.0125,-0.012,0.0343,-0.06,-28.44,33.19,340.56,-86.45,161.59
16876,52.554695,-1.463064,0,0,6,0,23 / 24,1687619,2020-01-08 10:06:03:416,0.1734,-0.2771,9.8949,0.0101,-0.0014,9.8066,0.0012,-0.0115,0.0466,-0.37,-28.06,33.31,340.97,-86.46,161.98
16877,52.554695,-1.463064,0,0,6,0,23 / 24,1687718,2020-01-08 10:06:03:515,-0.2594,0.2554,9.7855,-0.0016,-0.0021,9.8066,-0.0177,-0.0384,-0.0143,0.0,-27.37,32.94,340.9,-86.42,161.89
16878,52.554695,-1.463064,0,0,6,0,23 / 24,1687819,2020-01-08 10:06:03:616,-0.2098,-0.2702,9.9065,-0.0008,-0.0005,9.8066,0.0104,0.0112,-0.0243,-0.12,-27.87,32.75,340.32,-86.42,161.38
16879,52.554695,-1.463064,0,0,6,0,23 / 24,1687919,2020-01-08 10:06:03:716,-0.4506,0.2048,9.8318,0.0081,-0.0008,9.8066,-0.0051,-0.0175,0.0337,-0.06,-28.31,32.94,340.07,-86.41,161.15
16880,52.554695,-1.463064,0,0,6,0,23 / 24,1688019,2020-01-08 10:06:03:816,0.1784,-0.0252,9.8257,0.0003,-0.0001,9.8066,-0.0134,0.009,-0.0224,-0.06,-28.56,32.63,340.56,-86.39,161.65
16881,52.554695,-1.463064,0,0,6,0,23 / 24,1688119,2020-01-08 10:06:03:916,0.1469,-0.3109,9.9136,0.002,0.0019,9.8066,0.0158,0.0066,0.0007,-0.19,-28.25,33.13,340.36,-86.4,161.42
16882,52.554695,-1.463064,0,0,6,0,23 / 24,1688219,2020-01-08 10:06:04:016,-0.394,0.2429,9.7947,-0.0065,0.0027,9.8066,-0.0024,0.056,-0.0382,-0.31,-27.94,33.31,340.36,-86.37,161.43
16883,52.554695,-1.463064,0,0,6,0,23 / 24,1688319,2020-01-08 10:06:04:116,0.4034,0.1601,9.7848,-0.0019,-0.0012,9.8066,-0.0079,0.0136,-0.0199,-0.37,-28.37,33.06,340.68,-86.37,161.74
16884,52.554695,-1.463064,0,0,6,0,23 / 24,1688419,2020-01-08 10:06:04:216,-0.2918,-0.5121,9.9327,-0.0037,-0.0001,9.8066,0.0002,0.0593,-0.0118,-0.5,-28.44,32.69,340.92,-86.39,161.95
16885,52.554695,-1.463064,0,0,6,0,23 / 24,1688519,2020-01-08 10:06:04:316,0.33,0.2512,9.824,-0.0025,-0.0008,9.8066,-0.006,0.0483,-0.0205,0.06,-28.37,32.81,341.03,-86.38,162.07
16886,52.554695,-1.463064,0,0,6,0,23 / 24,1688619,2020-01-08 10:06:04:416,-0.5684,0.3823,9.8291,-0.0024,-0.0009,9.8066,-0.0046,-0.0047,-0.0029,-0.62,-28.19,32.5,339.19,-86.38,162.05
16887,52.554695,-1.463064,0,0,6,0,23 / 24,1688719,2020-01-08 10:06:04:516,0.1051,-0.3188,9.9132,-0.0081,-0.0007,9.8066,-0.004,0.0666,-0.0358,-0.62,-28.75,32.19,339.46,-86.38,162.44
16888,52.554695,-1.463064,0,0,6,0,23 / 24,1688819,2020-01-08 10:06:04:616,0.1842,0.4394,9.7694,0.0005,0.0001,9.8066,-0.0106,-0.0371,0.0089,0.13,-28.44,33.25,341.11,-86.37,162.14
16889,52.554695,-1.463064,0,0,6,0,23 / 24,1688919,2020-01-08 10:06:04:716,-0.0884,-0.2723,9.9626,-0.0005,-0.0006,9.8066,-0.0002,-0.0068,0.0107,-0.37,-28.37,33.25,341.46,-86.38,162.47
16890,52.554695,-1.463064,0,0,6,0,23 / 24,1689018,2020-01-08 10:06:04:815,0.2156,0.5147,9.775,0.0065,0.0022,9.8066,0.0036,-0.0109,0.0218,-0.25,-28.5,33.19,341.96,-86.39,162.94
16891,52.554695,-1.463064,0,0,6,0,22 / 24,1689118,2020-01-08 10:06:04:915,-0.145,-0.1775,9.8938,-0.0009,0.0001,9.8066,0.0035,-0.0242,-0.0051,0.0,-28.25,33.31,341.42,-86.37,162.43
16892,52.554695,-1.463064,0,0,6,0,22 / 24,1689219,2020-01-08 10:06:05:016,0.281,0.4148,9.7854,0.0005,0.0022,9.8066,0.0083,0.0125,-0.0084,-0.31,-27.94,32.88,341.27,-86.37,162.29
16893,52.554695,-1.463064,0,0,6,0,22 / 24,1689318,2020-01-08 10:06:05:115,-0.1257,-0.3787,9.9366,0.0063,0.0012,9.8066,0.0029,-0.0113,0.0253,-0.69,-28.5,33.06,339.27,-86.37,162.13
16894,52.554695,-1.463064,0,0,6,0,22 / 24,1689419,2020-01-08 10:06:05:216,0.0193,-0.3916,9.8713,0.0012,-0.0047,9.8066,-0.0176,0.0146,-0.0127,-0.31,-28.31,32.63,341.39,-86.36,162.41
16895,52.554695,-1.463064,0,0,6,0,22 / 24,1689519,2020-01-08 10:06:05:316,0.1903,0.2552,9.7617,0.0013,0.0043,9.8066,0.0029,-0.0021,-0.0046,0.0,-27.31,32.88,341.37,-86.38,162.35
16896,52.554695,-1.463064,0,0,6,0,22 / 24,1689619,2020-01-08 10:06:05:416,-0.1696,-0.3467,9.8749,-0.0058,0.0009,9.8066,-0.0029,0.0484,-0.0334,-0.44,-28.19,32.81,341.25,-86.36,162.28
16897,52.554695,-1.463064,0,0,6,0,22 / 24,1689719,2020-01-08 10:06:05:516,0.2942,0.2178,9.7611,-0.0022,-0.002,9.8066,-0.012,0.0165,-0.0165,-0.25,-28.62,33.13,341.54,-86.36,162.59
16898,52.554695,-1.463064,0,0,6,0,22 / 24,1689819,2020-01-08 10:06:05:616,-0.0511,-0.5611,9.9376,-0.0025,-0.0004,9.8066,-0.0081,0.0445,-0.0099,0.06,-27.81,32.44,341.68,-86.37,162.71
16899,52.554695,-1.463064,0,0,6,0,22 / 24,1689919,2020-01-08 10:06:05:716,-0.3226,0.1432,9.7825,-0.0029,-0.0005,9.8066,-0.0005,0.0438,-0.0148,-0.56,-29.06,32.81,339.86,-86.37,162.74
16900,52.554695,-1.463064,0,0,6,0,22 / 24,1690018,2020-01-08 10:06:05:815,-0.4153,0.1854,9.8664,-0.0008,0.0,9.8066,0.0013,-0.009,-0.0021,0.06,-28.19,32.69,341.76,-86.37,162.76
16901,52.554695,-1.463064,0,0,6,0,22 / 23,1690118,2020-01-08 10:06:05:915,-0.2819,0.0041,9.9219,-0.0049,-0.0012,9.8066,-0.0152,0.0108,0.0071,-1.0,-27.87,32.88,339.91,-86.36,162.74
16902,52.554695,-1.463064,0,0,6,0,22 / 23,1690219,2020-01-08 10:06:06:016,0.2014,-0.4033,9.9739,0.0027,-0.0028,9.8066,-0.0143,0.0348,-0.0145,-0.75,-28.62,33.13,339.46,-86.34,162.37
16903,52.554695,-1.463064,0,0,6,0,22 / 23,1690319,2020-01-08 10:06:06:116,-0.4763,0.3926,9.8467,0.0028,-0.0009,9.8066,-0.0007,0.0554,-0.0408,0.19,-28.56,33.0,341.8,-86.35,162.83
16904,52.554695,-1.463064,0,0,6,0,22 / 23,1690420,2020-01-08 10:06:06:217,0.1429,-0.2462,9.8476,0.0026,0.0021,9.8066,0.0036,0.0578,-0.0167,-0.44,-28.56,32.94,341.96,-86.35,162.99
16905,52.554695,-1.463064,0,0,6,0,22 / 23,1690518,2020-01-08 10:06:06:315,-0.3681,0.403,9.9013,0.0022,0.0024,9.8066,-0.0149,0.0041,0.0044,-0.25,-28.25,32.69,341.95,-86.36,162.94
16906,52.554695,-1.463064,0,0,6,0,22 / 23,1690619,2020-01-08 10:06:06:416,0.0323,-0.1405,9.8647,-0.0006,0.0018,9.8066,-0.0148,-0.0186,0.0069,0.19,-28.0,32.94,341.96,-86.34,162.95
16907,52.554695,-1.463064,0,0,6,0,22 / 23,1690719,2020-01-08 10:06:06:516,0.3326,0.1827,9.7891,0.0071,-0.0006,9.8066,-0.0097,-0.0265,0.0191,-0.12,-28.44,32.75,341.61,-86.35,162.62
16908,52.554695,-1.463064,0,0,6,0,22 / 23,1690819,2020-01-08 10:06:06:616,0.1085,-0.1397,9.8693,0.0034,-0.0027,9.8066,-0.0021,-0.0408,-0.0083,0.0,-28.5,33.06,342.05,-86.37,163.03
16909,52.554695,-1.463064,0,0,6,0,22 / 23,1690919,2020-01-08 10:06:06:716,0.28,0.2577,9.8695,-0.0028,0.0019,9.8066,0.0153,-0.0092,0.0059,-0.5,-28.5,32.69,341.83,-86.34,162.83
16910,52.554695,-1.463064,0,0,6,0,22 / 23,1691019,2020-01-08 10:06:06:816,-0.3789,0.2408,9.818,-0.0087,-0.0003,9.8066,0.0028,-0.0007,0.0208,-0.62,-28.5,32.56,339.69,-86.34,162.54
16911,52.554695,-1.463064,0,0,6,0,22 / 23,1691118,2020-01-08 10:06:06:915,0.236,-0.3484,9.8342,-0.0001,-0.0004,9.8066,-0.0063,0.0094,0.0243,-0.62,-28.25,33.06,340.13,-86.33,162.96
16912,52.554695,-1.463064,0,0,6,0,22 / 23,1691219,2020-01-08 10:06:07:016,-0.2744,0.2229,9.8208,0.0024,-0.0015,9.8066,-0.0097,0.0141,-0.0086,-0.19,-28.5,33.31,341.97,-86.32,162.98
16913,52.554695,-1.463064,0,0,6,0,22 / 23,1691319,2020-01-08 10:06:07:116,0.1024,-0.38,9.8501,-0.0076,-0.0013,9.8066,-0.014,0.0423,-0.0568,-0.12,-28.06,32.94,342.59,-86.34,163.55
16914,52.554695,-1.463064,0,0,6,0,22 / 23,1691419,2020-01-08 10:06:07:216,0.1896,0.049,9.8554,-0.0046,0.0017,9.8066,-0.0028,0.0314,-0.0434,-0.69,-28.81,33.13,340.36,-86.31,163.22
16915,52.554695,-1.463064,0,0,6,0,22 / 23,1691518,2020-01-08 10:06:07:315,0.0016,-0.3536,9.9044,-0.0015,-0.0012,9.8066,0.0041,0.0539,0.0141,-0.44,-28.25,32.44,342.11,-86.31,163.14
16916,52.554695,-1.463064,0,0,6,0,22 / 23,1691619,2020-01-08 10:06:07:416,0.298,0.168,9.8022,0.0062,-0.0007,9.8066,-0.0002,0.0439,-0.0008,-0.5,-27.87,32.75,342.66,-86.33,163.62
16917,52.554695,-1.463064,0,0,6,0,22 / 23,1691719,2020-01-08 10:06:07:516,-0.2305,-0.1067,9.8809,-0.0006,-0.001,9.8066,-0.0075,-0.0004,-0.008,-0.12,-28.44,32.75,342.5,-86.31,163.47
16918,52.554695,-1.463064,0,0,6,0,22 / 23,1691819,2020-01-08 10:06:07:616,0.2025,0.3057,9.7512,0.0045,0.0016,9.8066,-0.0086,-0.0127,0.0036,0.31,-28.69,32.88,342.04,-86.33,163.06
16919,52.554695,-1.463064,0,0,6,0,22 / 23,1691919,2020-01-08 10:06:07:716,-0.144,-0.1953,9.9422,0.0001,0.0032,9.8066,-0.0068,-0.031,-0.0046,-0.25,-27.62,32.88,342.41,-86.34,163.38
16920,52.554695,-1.463064,0,0,6,0,22 / 23,1692019,2020-01-08 10:06:07:816,-0.3474,-0.0984,9.8722,-0.0039,0.0019,9.8066,-0.0062,-0.0263,0.0057,-0.5,-28.06,33.13,342.37,-86.32,163.35
16921,52.554695,-1.463064,0,0,6,0,22 / 24,1692118,2020-01-08 10:06:07:915,0.3004,0.2599,9.803,0.0081,0.0007,9.8066,0.0113,-0.0002,0.0406,-0.62,-28.12,33.31,341.09,-86.35,163.86
16922,52.554695,-1.463064,0,0,6,0,22 / 24,1692219,2020-01-08 10:06:08:016,-0.1843,0.2182,9.7692,0.0014,0.0011,9.8066,0.0059,0.0048,0.0171,-0.31,-28.62,32.94,342.81,-86.34,163.79
16923,52.554695,-1.463064,0,0,6,0,22 / 24,1692319,2020-01-08 10:06:08:116,0.2552,-0.4889,9.9388,-0.0034,-0.0001,9.8066,-0.0027,0.0199,-0.0349,0.0,-28.5,32.56,342.9,-86.34,163.84
16924,52.554695,-1.463064,0,0,6,0,22 / 24,1692419,2020-01-08 10:06:08:216,-0.4564,0.3375,9.8251,-0.008,0.0009,9.8066,-0.0118,0.0179,-0.0335,0.0,-28.44,32.75,342.21,-86.35,163.19
16925,52.554695,-1.463064,0,0,6,0,22 / 24,1692519,2020-01-08 10:06:08:316,0.1199,-0.3338,9.8247,-0.0003,-0.0001,9.8066,-0.0094,0.0287,-0.0079,-0.12,-28.37,32.63,342.69,-86.36,163.65
16926,52.554695,-1.463064,0,0,6,0,22 / 24,1692619,2020-01-08 10:06:08:416,-0.4353,0.4235,9.803,-0.0003,-0.0009,9.8066,-0.0017,0.0552,-0.0153,-0.31,-28.06,32.88,342.99,-86.36,163.92
16927,52.554695,-1.463064,0,0,6,0,22 / 24,1692718,2020-01-08 10:06:08:515,0.243,-0.3236,9.8782,-0.008,0.0024,9.8066,0.015,0.0523,-0.0357,-0.31,-27.62,32.5,343.08,-86.38,164.01
16928,52.554695,-1.463064,0,0,6,0,22 / 24,1692819,2020-01-08 10:06:08:616,0.2046,0.0825,9.8443,-0.0014,0.0009,9.8066,0.0017,0.0231,-0.016,0.0,-28.12,32.63,342.97,-86.35,163.91
16929,52.554695,-1.463064,0,0,6,0,22 / 24,1692919,2020-01-08 10:06:08:716,0.068,0.0177,9.8179,-0.0026,-0.0022,9.8066,-0.0189,0.0068,-0.0043,-0.44,-28.5,32.75,342.99,-86.35,163.93
16930,52.554695,-1.463064,0,0,6,0,22 / 24,1693019,2020-01-08 10:06:08:816,0.3507,0.0741,9.8572,0.0054,-0.0016,9.8065,-0.0252,-0.0266,0.0312,-0.44,-28.44,33.0,342.95,-86.36,163.89
16931,52.554695,-1.463064,0,0,6,0,22 / 24,1693119,2020-01-08 10:06:08:916,-0.1159,-0.4552,9.8468,-0.0015,-0.0003,9.8065,-0.0134,-0.0258,0.0379,-0.5,-28.75,33.38,343.15,-86.34,164.12
16932,52.554695,-1.463064,0,0,6,0,22 / 24,1693219,2020-01-08 10:06:09:016,0.0482,-0.0158,9.9071,0.0021,-0.0014,9.8066,-0.0007,-0.0174,-0.0181,-0.25,-28.19,32.94,343.19,-86.36,164.12
16933,52.554695,-1.463064,0,0,6,0,22 / 24,1693319,2020-01-08 10:06:09:116,-0.4556,0.167,9.8341,0.0044,0.0,9.8066,0.0089,-0.0132,-0.0043,-0.31,-28.06,33.31,342.61,-86.32,163.57
16934,52.554695,-1.463064,0,0,6,0,22 / 24,1693418,2020-01-08 10:06:09:215,0.353,0.3799,9.8322,0.0088,-0.0005,9.8066,0.0034,-0.004,0.0357,-0.31,-28.56,32.75,342.57,-86.31,163.57
16935,52.554695,-1.463064,0,0,6,0,22 / 24,1693519,2020-01-08 10:06:09:316,-0.148,-0.2454,9.8484,0.0041,-0.0012,9.8066,-0.0125,-0.0106,0.0068,0.0,-28.62,32.63,342.8,-86.33,163.79
16936,52.554695,-1.463064,0,0,6,0,22 / 24,1693619,2020-01-08 10:06:09:416,-0.0004,-0.2304,9.8691,-0.0012,0.0023,9.8066,-0.0026,0.0158,-0.0197,-0.12,-27.94,32.75,343.02,-86.31,163.96
16937,52.554695,-1.463064,0,0,6,0,22 / 24,1693719,2020-01-08 10:06:09:516,0.341,0.4101,9.8515,0.0026,-0.0019,9.8066,-0.0096,0.0381,-0.0366,0.31,-28.0,32.44,342.9,-86.31,163.88
16938,52.554695,-1.463064,0,0,6,0,22 / 24,1693819,2020-01-08 10:06:09:616,0.2001,-0.4954,9.8632,-0.0041,0.0,9.8066,-0.0046,0.0577,-0.0297,-0.56,-28.12,32.44,340.84,-86.32,163.72
16939,52.554695,-1.463064,0,0,6,0,22 / 24,1693919,2020-01-08 10:06:09:716,0.1285,0.276,9.8204,0.0021,0.0007,9.8066,-0.0064,0.0552,-0.0039,0.0,-27.87,32.69,343.21,-86.32,164.15
16940,52.554695,-1.463064,0,0,6,0,22 / 24,1694019,2020-01-08 10:06:09:816,-0.3896,0.1767,9.8786,-0.005,-0.0026,9.8066,-0.0058,0.0406,-0.0023,-0.69,-28.37,32.63,341.35,-86.33,164.12
16941,52.554695,-1.463064,0,0,6,0,23 / 24,1694119,2020-01-08 10:06:09:916,0.2127,0.3891,9.7396,-0.0051,0.0,9.8066,-0.0076,0.0156,-0.0191,-0.37,-28.5,32.75,343.08,-86.31,164.02
16942,52.554695,-1.463064,0,0,6,0,23 / 24,1694219,2020-01-08 10:06:10:016,0.2001,-0.2683,9.8974,-0.0001,0.0007,9.8066,-0.0092,-0.0212,0.0118,0.0,-28.25,33.06,343.5,-86.32,164.42
16943,52.554695,-1.463064,0,0,6,0,23 / 24,1694318,2020-01-08 10:06:10:115,0.1763,0.3259,9.7765,-0.0039,-0.0018,9.8066,-0.0151,-0.0397,0.0164,0.06,-27.87,32.81,343.6,-86.32,164.52
16944,52.554695,-1.463064,0,0,6,0,23 / 24,1694419,2020-01-08 10:06:10:216,0.2731,-0.3244,9.9088,0.0036,0.0021,9.8066,-0.0053,-0.0415,0.0246,-0.62,-28.19,32.44,341.82,-86.3,164.65
16945,52.554695,-1.463064,0,0,6,0,23 / 24,1694519,2020-01-08 10:06:10:316,-0.4075,0.4099,9.8641,-0.0037,-0.0003,9.8066,0.0061,-0.0207,0.0282,0.0,-28.12,32.38,343.67,-86.31,164.61
16946,52.554695,-1.463064,0,0,6,0,23 / 24,1694619,2020-01-08 10:06:10:416,-0.0442,-0.0438,9.8344,0.001,-0.0013,9.8066,0.0079,0.0092,-0.0095,0.06,-28.37,32.69,343.41,-86.3,164.34
16947,52.554695,-1.463064,0,0,6,0,23 / 24,1694719,2020-01-08 10:06:10:516,-0.3713,-0.1629,9.8861,0.0064,-0.001,9.8066,-0.0017,0.016,-0.0283,0.25,-28.31,32.75,343.23,-86.29,164.17
16948,52.554695,-1.463064,0,0,6,0,23 / 24,1694818,2020-01-08 10:06:10:615,0.4453,0.3213,9.8805,0.01,-0.0031,9.8066,-0.0065,0.0177,0.0091,0.0,-28.5,32.63,344.01,-86.33,164.9
16949,52.554695,-1.463064,0,0,6,0,23 / 24,1694919,2020-01-08 10:06:10:716,-0.0472,-0.3397,9.9298,0.0002,-0.0036,9.8066,-0.0015,0.0147,0.0012,0.25,-28.69,32.44,343.6,-86.3,164.58
16950,52.554695,-1.463064,0,0,6,0,23 / 24,1695019,2020-01-08 10:06:10:816,0.4162,0.1806,9.879,-0.0018,0.0021,9.8066,0.008,0.0427,-0.0468,0.0,-28.69,32.81,343.41,-86.3,164.37
16951,52.554695,-1.463064,0,0,6,0,22 / 24,1695119,2020-01-08 10:06:10:916,0.5423,0.2012,9.8383,0.0114,-0.0027,9.8066,-0.0029,0.0453,-0.0601,0.0,-28.25,32.69,343.15,-86.3,164.09
16952,52.554695,-1.463064,0,0,6,0,22 / 24,1695218,2020-01-08 10:06:11:015,0.158,0.2902,9.7184,0.0014,0.0031,9.8066,-0.0139,0.0547,-0.0132,-0.12,-28.75,32.69,343.79,-86.3,164.73
16953,52.554695,-1.463064,0,0,6,0,22 / 24,1695319,2020-01-08 10:06:11:116,0.4593,-0.3689,9.9797,-0.002,0.0045,9.8066,-0.0119,0.0522,0.0088,0.0,-28.25,32.19,343.74,-86.32,164.67
16954,52.554695,-1.463064,0,0,6,0,22 / 24,1695419,2020-01-08 10:06:11:216,-0.6568,0.4301,9.8162,-0.0128,0.0007,9.8066,-0.0031,0.03,-0.0098,0.0,-29.12,32.94,344.28,-86.33,165.18
16955,52.554695,-1.463064,0,0,6,0,22 / 24,1695518,2020-01-08 10:06:11:315,-0.0133,-0.1973,9.902,0.0076,-0.0011,9.8066,0.0016,0.0007,-0.0312,-0.06,-28.19,32.75,343.35,-86.3,164.28
16956,52.554695,-1.463064,0,0,6,0,22 / 24,1695619,2020-01-08 10:06:11:416,-0.2912,0.2323,9.8336,-0.0006,-0.0011,9.8066,-0.0032,-0.0397,0.0092,-0.25,-28.12,32.81,343.67,-86.32,164.58
16957,52.554695,-1.463064,0,0,6,0,22 / 24,1695718,2020-01-08 10:06:11:515,-0.0709,-0.2328,9.8288,-0.0091,0.0006,9.8066,-0.0034,-0.04,0.0426,0.31,-28.69,32.75,344.0,-86.34,164.91
16958,52.554695,-1.463064,0,0,6,0,22 / 24,1695819,2020-01-08 10:06:11:616,-0.5335,0.1521,9.7643,-0.0071,0.0021,9.8066,-0.0055,-0.0364,0.0404,-0.19,-28.69,32.75,343.26,-86.32,164.22
16959,52.554695,-1.463064,0,0,6,0,22 / 24,1695919,2020-01-08 10:06:11:716,0.1365,-0.3224,9.9581,-0.0069,0.002,9.8065,-0.011,-0.0232,0.0319,0.0,-28.56,32.94,343.84,-86.34,164.76
16960,52.554695,-1.463064,0,0,6,0,22 / 24,1696019,2020-01-08 10:06:11:816,0.0956,0.0786,9.8858,0.0006,-0.0012,9.8066,-0.0042,-0.0136,-0.0037,0.0,-28.25,32.44,343.59,-86.33,164.53
16961,52.554695,-1.463064,0,0,6,0,22 / 24,1696119,2020-01-08 10:06:11:916,-0.416,0.0091,9.806,-0.0005,-0.0003,9.8066,-0.0005,0.0145,-0.0406,0.0,-28.44,32.75,343.71,-86.33,164.61
16962,52.554695,-1.463064,0,0,6,0,22 / 24,1696218,2020-01-08 10:06:12:015,-0.0461,0.2837,9.8244,0.0081,-0.0005,9.8066,0.0067,0.0456,-0.0271,0.0,-27.94,32.69,344.1,-86.34,164.98
16963,52.554695,-1.463064,0,0,6,0,22 / 24,1696318,2020-01-08 10:06:12:115,-0.1376,0.2585,9.8301,-0.0036,-0.0002,9.8066,-0.0055,0.0483,-0.0045,0.19,-28.62,32.44,343.8,-86.34,164.76
16964,52.554695,-1.463064,0,0,6,0,22 / 24,1696419,2020-01-08 10:06:12:216,0.2012,-0.3187,9.8334,0.0011,0.0018,9.8066,-0.0168,0.0428,-0.0036,-0.31,-28.69,32.94,343.63,-86.33,164.57
16965,52.554695,-1.463064,0,0,6,0,22 / 24,1696519,2020-01-08 10:06:12:316,0.1039,0.3464,9.7762,0.0085,0.0005,9.8066,-0.009,0.0285,-0.0346,0.0,-28.69,32.69,343.06,-86.33,164.03
16966,52.554695,-1.463064,0,0,6,0,22 / 24,1696619,2020-01-08 10:06:12:416,0.3483,-0.251,9.8958,0.005,-0.001,9.8066,0.0046,0.0168,-0.0338,0.44,-28.56,32.69,343.59,-86.34,164.53
16967,52.554695,-1.463064,0,0,6,0,22 / 24,1696718,2020-01-08 10:06:12:515,-0.0477,0.2132,9.7734,0.0001,0.0012,9.8066,0.0112,0.0105,-0.0051,0.19,-28.31,32.19,343.59,-86.35,164.52
16968,52.554695,-1.463064,0,0,6,0,22 / 24,1696819,2020-01-08 10:06:12:616,-0.1355,-0.3276,9.9165,-0.0015,-0.0001,9.8066,0.0102,-0.0092,0.0061,0.06,-28.81,33.44,343.41,-86.34,164.36
16969,52.554695,-1.463064,0,0,6,0,22 / 24,1696918,2020-01-08 10:06:12:715,0.0595,0.088,9.8046,-0.0007,-0.0026,9.8066,-0.0186,-0.0253,0.0277,-0.12,-28.87,32.31,343.04,-86.32,164.05
16970,52.554695,-1.463064,0,0,6,0,22 / 24,1697019,2020-01-08 10:06:12:816,-0.1602,0.395,9.7501,-0.0023,-0.0006,9.8066,-0.0131,-0.0165,0.0096,0.63,-28.37,32.69,344.94,-86.33,164.04
16971,52.554695,-1.463064,0,0,6,0,22 / 24,1697118,2020-01-08 10:06:12:915,0.0612,-0.3598,9.8047,0.0003,-0.0039,9.8065,0.0041,0.0221,-0.0187,-0.31,-28.5,32.69,343.55,-86.33,164.46
16972,52.554695,-1.463064,0,0,6,0,22 / 24,1697219,2020-01-08 10:06:13:016,0.0034,0.4057,9.7504,0.0019,0.0031,9.8066,-0.0006,0.0359,-0.0175,-0.31,-28.12,33.5,343.69,-86.34,164.56
16973,52.554695,-1.463064,0,0,6,0,22 / 24,1697319,2020-01-08 10:06:13:116,-0.0326,-0.2708,9.9417,-0.002,-0.0001,9.8066,-0.0069,0.0185,-0.0043,-0.37,-28.0,32.69,343.48,-86.36,164.39
16974,52.554695,-1.463064,0,0,6,0,22 / 24,1697419,2020-01-08 10:06:13:216,0.0201,0.3251,9.7187,-0.0012,0.0053,9.8066,-0.0273,0.0072,-0.0043,0.25,-29.0,32.81,343.48,-86.33,164.43
16975,52.554695,-1.463064,0,0,6,0,22 / 24,1697519,2020-01-08 10:06:13:316,-0.0511,-0.3748,10.0118,0.001,0.0013,9.8066,-0.0113,-0.0035,0.0138,0.44,-28.06,32.38,343.46,-86.34,164.41
16976,52.554695,-1.463064,0,0,6,0,22 / 24,1697618,2020-01-08 10:06:13:415,-0.1742,0.2751,9.8579,0.0019,0.0,9.8066,0.0032,-0.0026,0.0095,0.5,-28.12,32.56,345.12,-86.34,164.21
16977,52.554695,-1.463064,0,0,6,0,22 / 24,1697719,2020-01-08 10:06:13:516,0.2663,-0.5006,9.9625,-0.001,0.0044,9.8066,0.0169,0.0132,-0.0263,0.19,-28.69,32.69,343.52,-86.35,164.46
16978,52.554695,-1.463064,0,0,6,0,22 / 24,1697818,2020-01-08 10:06:13:615,-0.3344,-0.026,9.8599,-0.0074,-0.0006,9.8065,0.0149,0.0027,-0.0191,-0.44,-28.62,32.06,343.16,-86.35,164.15
16979,52.554695,-1.463064,0,0,6,0,22 / 24,1697918,2020-01-08 10:06:13:715,0.2153,0.225,9.7809,-0.0015,-0.0005,9.8066,-0.0089,0.0067,0.0142,-0.12,-27.75,32.56,343.43,-86.35,164.35
16980,52.554695,-1.463064,0,0,6,0,22 / 24,1698019,2020-01-08 10:06:13:816,0.0344,-0.2205,9.8918,0.001,-0.0007,9.8066,-0.017,0.0077,-0.0044,0.31,-28.25,32.69,343.62,-86.35,164.53
16981,52.554695,-1.463064,0,0,6,0,22 / 24,1698118,2020-01-08 10:06:13:915,-0.2954,0.1053,9.8172,-0.0018,-0.002,9.8066,-0.0053,0.0432,-0.027,0.13,-28.31,32.81,343.49,-86.36,164.4
16982,52.554695,-1.463064,0,0,6,0,22 / 24,1698219,2020-01-08 10:06:14:016,-0.1492,-0.3044,9.9396,0.0022,-0.0015,9.8066,-0.0076,0.052,-0.0295,0.38,-28.5,33.06,343.55,-86.34,164.46
16983,52.554695,-1.463064,0,0,6,0,22 / 24,1698319,2020-01-08 10:06:14:116,-0.1569,-0.0626,9.8844,-0.0027,-0.0032,9.8066,0.0006,0.0423,-0.01,0.13,-28.31,32.94,343.7,-86.34,164.61
16984,52.554695,-1.463064,0,0,6,0,22 / 24,1698419,2020-01-08 10:06:14:216,0.1333,0.1098,9.7552,0.0034,0.0006,9.8066,-0.0119,0.024,-0.0023,0.06,-28.75,32.88,343.72,-86.34,164.65
16985,52.554695,-1.463064,0,0,6,0,22 / 24,1698519,2020-01-08 10:06:14:316,-0.4026,0.1583,9.8475,0.0045,-0.0024,9.8066,-0.021,-0.0231,0.0274,-0.12,-28.56,32.75,343.38,-86.32,164.34
16986,52.554695,-1.463064,0,0,6,0,22 / 24,1698618,2020-01-08 10:06:14:415,0.4374,0.0371,9.7847,0.0106,-0.0001,9.8066,-0.0136,-0.0194,0.0323,0.13,-27.87,32.5,342.94,-86.34,163.88
16987,52.554695,-1.463064,0,0,6,0,22 / 24,1698719,2020-01-08 10:06:14:516,-0.056,-0.3831,9.9275,0.003,-0.0007,9.8066,0.0,-0.0239,-0.0222,0.13,-28.19,33.13,343.64,-86.35,164.55
16988,52.554695,-1.463064,0,0,6,0,22 / 24,1698818,2020-01-08 10:06:14:615,-0.1695,-0.2886,9.9008,0.0001,0.0025,9.8066,0.0065,-0.02,-0.0129,0.0,-27.81,32.38,343.53,-86.36,164.47
16989,52.554695,-1.463064,0,0,6,0,22 / 24,1698919,2020-01-08 10:06:14:716,0.3774,0.3187,9.8389,-0.0001,-0.0023,9.8066,0.0047,-0.0102,0.0464,-0.19,-28.31,32.56,343.59,-86.34,164.49
16990,52.554695,-1.463064,0,0,6,0,22 / 24,1699019,2020-01-08 10:06:14:816,0.0702,-0.3981,9.9098,-0.0041,0.0014,9.8066,-0.0027,-0.0073,0.0211,0.25,-27.87,32.94,343.33,-86.35,164.25
16991,52.554695,-1.463064,0,0,6,0,23 / 24,1699118,2020-01-08 10:06:14:915,0.151,-0.1627,9.8985,-0.0018,0.0016,9.8066,-0.0065,0.0133,-0.031,-0.31,-28.69,32.63,343.19,-86.34,164.16
16992,52.554695,-1.463064,0,0,6,0,23 / 24,1699219,2020-01-08 10:06:15:016,-0.3268,0.1727,9.8577,-0.0038,-0.0007,9.8066,-0.0058,0.0305,-0.0182,0.13,-28.37,33.13,342.91,-86.34,163.85
16993,52.554695,-1.463064,0,0,6,0,23 / 24,1699319,2020-01-08 10:06:15:116,0.0318,-0.3668,9.8981,-0.0033,-0.0015,9.8066,-0.0057,0.0597,-0.0253,0.06,-28.75,32.94,343.26,-86.34,164.22
16994,52.554695,-1.463064,0,0,6,0,23 / 24,1699419,2020-01-08 10:06:15:216,-0.2713,-0.0472,9.8981,-0.0029,-0.0027,9.8066,-0.0113,0.0335,-0.0146,0.31,-28.37,33.31,343.35,-86.33,164.27
16995,52.554695,-1.463064,0,0,6,0,23 / 24,1699518,2020-01-08 10:06:15:315,-0.1316,-0.0523,9.8701,-0.0006,-0.0008,9.8066,-0.0178,0.0195,0.0091,0.13,-28.5,32.81,343.13,-86.34,164.07
16996,52.554695,-1.463064,0,0,6,0,23 / 24,1699619,2020-01-08 10:06:15:416,0.1665,0.2697,9.7989,0.0032,0.0011,9.8066,-0.011,-0.0121,-0.0021,-0.12,-28.37,33.44,343.43,-86.34,164.34
16997,52.554695,-1.463064,0,0,6,0,23 / 24,1699719,2020-01-08 10:06:15:516,-0.2332,0.3158,9.8533,-0.0066,-0.0007,9.8066,0.0008,-0.0138,-0.005,-0.12,-28.62,33.0,343.56,-86.35,164.5
16998,52.554695,-1.463064,0,0,6,0,23 / 24,1699819,2020-01-08 10:06:15:616,0.1409,-0.2955,9.7869,0.0041,0.0023,9.8066,0.0031,-0.0142,0.0164,0.13,-28.87,32.25,343.44,-86.34,164.42
16999,52.554695,-1.463064,0,0,6,0,23 / 24,1699918,2020-01-08 10:06:15:715,-0.3535,0.0598,9.8517,0.0039,-0.0002,9.8066,0.0006,-0.0292,0.017,-0.5,-27.87,32.81,343.03,-86.35,163.96
17000,52.554695,-1.463064,0,0,6,0,23 / 24,1700018,2020-01-08 10:06:15:815,0.2751,-0.3976,9.8687,0.0052,0.0005,9.8066,-0.0109,-0.0236,0.0175,0.19,-28.94,33.0,343.53,-86.37,164.46
17001,52.554695,-1.463064,0,0,6,0,22 / 24,1700119,2020-01-08 10:06:15:916,-0.0155,-0.0754,9.895,0.0021,0.0047,9.8066,-0.0075,-0.0022,-0.0018,-0.12,-28.25,33.06,343.14,-86.38,164.07
17002,52.554695,-1.463064,0,0,6,0,22 / 24,1700219,2020-01-08 10:06:16:016,-0.2845,0.0626,9.8986,-0.0026,-0.0012,9.8066,-0.0077,0.0505,-0.0264,0.69,-28.75,32.75,345.0,-86.37,164.12
17003,52.554695,-1.463064,0,0,6,0,22 / 24,1700319,2020-01-08 10:06:16:116,-0.0782,-0.0795,9.8275,0.0015,-0.0012,9.8066,-0.0078,0.0506,-0.0295,-0.31,-28.19,32.75,342.97,-86.36,163.91
17004,52.554695,-1.463064,0,0,6,0,22 / 24,1700418,2020-01-08 10:06:16:215,-0.0408,-0.0853,9.9065,0.0003,-0.0031,9.8066,-0.0052,0.0424,-0.0026,0.5,-28.37,33.25,344.72,-86.37,163.82
17005,52.554695,-1.463064,0,0,6,0,22 / 24,1700519,2020-01-08 10:06:16:316,0.0701,0.1299,9.7953,-0.0017,-0.0015,9.8066,-0.0103,0.0307,0.0103,0.0,-28.5,33.38,343.2,-86.37,164.12
17006,52.554695,-1.463064,0,0,6,0,22 / 24,1700619,2020-01-08 10:06:16:416,0.1031,-0.2901,9.8647,-0.0034,-0.0005,9.8066,-0.0025,-0.0003,-0.007,0.19,-28.0,33.06,343.01,-86.37,163.95
17007,52.554695,-1.463064,0,0,6,0,22 / 24,1700718,2020-01-08 10:06:16:515,0.0106,0.37,9.7181,-0.0019,-0.0037,9.8066,-0.0018,-0.0164,-0.0161,0.13,-28.25,32.88,343.02,-86.36,163.95
17008,52.554695,-1.463064,0,0,6,0,22 / 24,1700818,2020-01-08 10:06:16:615,0.3129,-0.449,9.9055,0.0054,-0.0022,9.8066,-0.0095,-0.0312,0.0139,-0.12,-28.5,32.69,343.3,-86.37,164.22
17009,52.554695,-1.463064,0,0,6,0,22 / 24,1700919,2020-01-08 10:06:16:716,-0.4286,0.193,9.8928,-0.0013,-0.0002,9.8066,-0.0073,-0.0343,0.0324,-0.12,-28.31,33.0,343.4,-86.37,164.31
17010,52.554695,-1.463064,0,0,6,0,22 / 24,1701019,2020-01-08 10:06:16:816,0.0307,-0.3099,9.9116,0.001,0.0003,9.8066,0.0014,-0.0055,0.0,0.5,-28.06,32.75,345.22,-86.36,164.3
17011,52.554695,-1.463064,0,0,6,0,22 / 24,1701119,2020-01-08 10:06:16:916,-0.2195,0.0276,9.8352,0.0041,-0.0006,9.8066,0.0076,0.0164,-0.0171,0.44,-28.19,32.88,342.96,-86.35,163.9
17012,52.554695,-1.463064,0,0,6,0,22 / 24,1701219,2020-01-08 10:06:17:016,0.0959,0.1803,9.8738,0.0063,-0.0047,9.8066,-0.0002,0.0199,-0.0143,0.5,-28.31,33.0,345.12,-86.37,164.2
17013,52.554695,-1.463064,0,0,6,0,22 / 24,1701319,2020-01-08 10:06:17:116,-0.3577,-0.1479,9.8012,0.0026,-0.0018,9.8066,-0.0064,0.0153,-0.0017,-0.06,-27.94,32.38,343.43,-86.35,164.37
17014,52.554695,-1.463064,0,0,6,0,22 / 24,1701419,2020-01-08 10:06:17:216,-0.0023,0.3224,9.8692,0.0011,-0.0014,9.8066,0.0079,0.0297,0.0024,0.13,-28.25,33.0,343.61,-86.36,164.51
17015,52.554695,-1.463064,0,0,6,0,22 / 24,1701519,2020-01-08 10:06:17:316,0.3997,-0.4608,9.9253,0.0045,-0.0022,9.8066,-0.0022,0.0311,-0.0414,0.0,-28.44,32.69,343.26,-86.36,164.18
17016,52.554695,-1.463064,0,0,6,0,22 / 24,1701619,2020-01-08 10:06:17:416,0.3381,0.2947,9.7339,0.0013,0.0045,9.8066,-0.0038,0.0226,-0.038,0.19,-28.56,32.31,343.3,-86.34,164.28
17017,52.554695,-1.463064,0,0,6,0,22 / 24,1701719,2020-01-08 10:06:17:516,-0.0996,0.2278,9.9428,0.001,0.0009,9.8066,-0.0129,0.0412,-0.0045,0.56,-28.5,32.56,345.37,-86.36,164.44
17018,52.554695,-1.463064,0,0,6,0,22 / 24,1701819,2020-01-08 10:06:17:616,-0.3877,-0.2539,9.8238,-0.0076,0.0029,9.8066,-0.0172,0.0324,-0.0052,-0.06,-28.87,32.88,343.05,-86.33,164.02
17019,52.554695,-1.463064,0,0,6,0,22 / 24,1701919,2020-01-08 10:06:17:716,0.4152,0.0039,9.7993,0.0022,0.0033,9.8066,-0.0051,0.0232,-0.011,-0.06,-28.25,32.63,343.0,-86.35,163.93
17020,52.554695,-1.463064,0,0,6,0,22 / 24,1702019,2020-01-08 10:06:17:816,-0.2224,-0.0856,9.9063,-0.0047,-0.0021,9.8066,0.0069,0.0032,0.0004,0.19,-28.19,32.5,343.09,-86.34,164.02
17021,52.554695,-1.463064,0,0,6,0,22 / 23,1702118,2020-01-08 10:06:17:915,0.3504,-0.4717,9.9809,-0.0022,0.0034,9.8065,-0.0024,-0.0172,0.006,0.19,-28.12,32.38,343.4,-86.35,164.34
17022,52.554695,-1.463064,0,0,6,0,22 / 23,1702219,2020-01-08 10:06:18:016,-0.3883,0.0034,9.7891,-0.0071,0.0015,9.8065,-0.0131,-0.0345,0.0548,0.19,-28.62,32.63,343.75,-86.34,164.68
17023,52.554695,-1.463064,0,0,6,0,22 / 23,1702319,2020-01-08 10:06:18:116,0.0653,0.3337,9.7459,-0.0071,0.0044,9.8066,-0.0194,-0.0285,0.0498,0.0,-28.62,32.81,343.25,-86.34,164.21
17024,52.554695,-1.463064,0,0,6,0,22 / 23,1702419,2020-01-08 10:06:18:216,-0.1687,-0.2344,9.7047,0.0027,-0.0011,9.8066,-0.0292,-0.0316,-0.0199,0.31,-28.62,32.19,343.02,-86.34,164.02
17025,52.554695,-1.463064,0,0,6,0,22 / 23,1702519,2020-01-08 10:06:18:316,-0.0938,0.3224,9.7918,-0.0096,0.0037,9.8066,-0.0206,-0.0396,0.0029,0.06,-27.69,32.5,343.81,-86.36,164.7
17026,52.554695,-1.463064,0,0,6,0,22 / 23,1702619,2020-01-08 10:06:18:416,-0.2323,0.2939,9.9635,-0.0059,-0.0024,9.8066,-0.0073,-0.0112,0.05,0.44,-28.37,33.06,343.56,-86.34,164.47
17027,52.554695,-1.463064,0,0,6,0,22 / 23,1702719,2020-01-08 10:06:18:516,-0.1723,-0.2,9.7282,-0.0014,0.0007,9.8066,0.0049,0.012,-0.0379,0.19,-28.19,32.38,342.87,-86.34,163.85
17028,52.554695,-1.463064,0,0,6,0,22 / 23,1702818,2020-01-08 10:06:18:615,-0.0863,0.2611,9.8362,0.011,-0.0028,9.8066,0.012,0.0286,-0.0493,0.88,-28.69,33.19,345.45,-86.36,164.55
17029,52.554695,-1.463064,0,0,6,0,22 / 23,1702919,2020-01-08 10:06:18:716,-0.2996,-0.033,9.7763,-0.0063,0.0004,9.8066,0.0102,0.0457,-0.007,0.13,-28.19,32.94,343.45,-86.36,164.36
17030,52.554695,-1.463064,0,0,6,0,22 / 23,1703019,2020-01-08 10:06:18:816,0.2374,-0.4,9.9667,0.0013,-0.0025,9.8066,0.0095,0.0593,-0.0031,-0.25,-28.94,32.06,342.95,-86.35,163.95
17031,52.554695,-1.463064,0,0,6,0,22 / 24,1703119,2020-01-08 10:06:18:916,0.021,0.328,9.799,0.0048,-0.0014,9.8066,0.0077,0.0489,-0.0467,0.0,-27.87,32.0,342.76,-86.34,163.74
17032,52.554695,-1.463064,0,0,6,0,22 / 24,1703219,2020-01-08 10:06:19:016,0.3986,-0.2814,9.9773,0.0097,-0.0049,9.8066,0.0054,0.0566,-0.055,0.13,-28.56,33.06,342.58,-86.31,163.58
17033,52.554695,-1.463064,0,0,6,0,22 / 24,1703318,2020-01-08 10:06:19:115,-0.4131,-0.0913,9.8376,0.0033,-0.0021,9.8066,-0.0127,0.0393,-0.0337,-0.06,-28.31,33.19,343.18,-86.34,164.11
17034,52.554695,-1.463064,0,0,6,0,22 / 24,1703418,2020-01-08 10:06:19:215,-0.1292,0.2421,9.7722,0.0005,-0.0014,9.8066,-0.0073,0.0291,-0.0066,0.0,-28.5,33.06,343.09,-86.36,164.02
17035,52.554695,-1.463064,0,0,6,0,22 / 24,1703519,2020-01-08 10:06:19:316,0.535,-0.4821,9.9546,0.009,-0.0035,9.8065,-0.0041,0.0187,-0.0073,0.38,-28.5,33.0,342.73,-86.32,163.69
17036,52.554695,-1.463064,0,0,6,0,22 / 24,1703619,2020-01-08 10:06:19:416,0.434,-0.1721,9.9467,0.0048,0.0003,9.8066,-0.0056,0.0115,-0.0143,-0.31,-28.06,33.06,343.1,-86.34,164.03
17037,52.554695,-1.463064,0,0,6,0,22 / 24,1703718,2020-01-08 10:06:19:515,-0.2794,-0.0237,9.7989,0.0065,-0.0027,9.8066,-0.0054,0.0015,0.0061,0.25,-28.25,32.69,342.64,-86.33,163.6
17038,52.554695,-1.463064,0,0,6,0,22 / 24,1703819,2020-01-08 10:06:19:616,0.1373,0.0977,9.8978,-0.0033,0.0033,9.8066,-0.0151,-0.0149,0.0171,-0.19,-27.81,32.75,342.78,-86.33,163.74
17039,52.554695,-1.463064,0,0,6,0,22 / 24,1703919,2020-01-08 10:06:19:716,0.258,-0.0596,9.9081,0.0043,-0.0018,9.8066,-0.021,-0.0255,0.0504,0.13,-27.87,32.56,342.43,-86.34,163.4
17040,52.554695,-1.463064,0,0,6,0,22 / 24,1704019,2020-01-08 10:06:19:816,-0.3511,-0.28,9.8567,-0.0023,0.0043,9.8066,-0.0102,-0.0247,0.0359,0.0,-28.37,32.5,342.45,-86.33,163.42
17041,52.554695,-1.463064,0,0,6,0,22 / 24,1704119,2020-01-08 10:06:19:916,0.1829,-0.3473,10.0111,0.001,-0.0004,9.8066,-0.0181,-0.0385,-0.0116,0.13,-28.87,33.0,342.79,-86.35,163.77
17042,52.554695,-1.463064,0,0,6,0,22 / 24,1704219,2020-01-08 10:06:20:016,-0.2706,0.2861,9.8129,-0.0139,0.0049,9.8066,-0.0282,-0.0359,0.0188,0.06,-27.75,32.69,342.41,-86.32,163.39
17043,52.554695,-1.463064,0,0,6,0,22 / 24,1704319,2020-01-08 10:06:20:116,0.3242,-0.4592,9.9651,0.0083,-0.0026,9.8066,-0.0142,-0.0157,0.0465,-0.25,-28.37,32.5,342.89,-86.34,163.83
17044,52.554695,-1.463064,0,0,6,0,22 / 24,1704419,2020-01-08 10:06:20:216,-0.0505,0.0324,9.7653,-0.0029,-0.0015,9.8065,-0.0139,-0.0103,-0.0024,0.25,-27.87,32.63,342.88,-86.35,163.83
17045,52.554695,-1.463064,0,0,6,0,22 / 24,1704519,2020-01-08 10:06:20:316,0.4702,-0.1552,9.8782,0.0076,-0.0039,9.8066,-0.0037,0.0188,-0.0304,0.25,-28.19,32.75,342.88,-86.36,163.82
17046,52.554695,-1.463064,0,0,6,0,22 / 24,1704619,2020-01-08 10:06:20:416,-0.4206,-0.1176,9.8239,0.0061,-0.0021,9.8066,0.0079,0.0186,-0.0017,0.0,-28.5,33.06,342.76,-86.34,163.72
17047,52.554695,-1.463064,0,0,6,0,22 / 24,1704718,2020-01-08 10:06:20:515,-0.1071,0.354,9.6942,-0.0006,-0.0006,9.8066,0.0298,0.0445,-0.0109,0.19,-28.56,32.81,342.91,-86.35,163.88
17048,52.554695,-1.463064,0,0,6,0,22 / 24,1704819,2020-01-08 10:06:20:616,-0.4796,-0.2022,9.8323,0.007,-0.004,9.8066,0.0164,0.0527,-0.0524,0.44,-27.87,32.25,342.49,-86.33,163.49
17049,52.554695,-1.463064,0,0,6,0,22 / 24,1704919,2020-01-08 10:06:20:716,0.1735,0.3485,9.7219,0.005,0.0034,9.8066,0.0048,0.0512,-0.0401,0.0,-28.62,32.44,342.41,-86.37,163.44
17050,52.554695,-1.463064,0,0,6,0,22 / 24,1705019,2020-01-08 10:06:20:816,0.3024,-0.419,9.9931,0.0024,-0.0034,9.8066,-0.0088,0.0451,-0.0195,0.0,-28.56,32.19,342.92,-86.37,163.92
17051,52.554695,-1.463064,0,0,6,0,22 / 23,1705119,2020-01-08 10:06:20:916,-0.4327,-0.2865,9.8598,-0.004,-0.0019,9.8066,-0.0178,0.0405,-0.0267,0.13,-28.69,32.94,343.13,-86.35,164.09
17052,52.554695,-1.463064,0,0,6,0,22 / 23,1705218,2020-01-08 10:06:21:015,0.4738,-0.2458,9.92,0.0059,-0.003,9.8066,-0.0088,0.0338,-0.0163,0.0,-28.5,32.63,343.24,-86.36,164.16
17053,52.554695,-1.463064,0,0,6,0,22 / 23,1705319,2020-01-08 10:06:21:116,-0.0605,0.0804,9.8249,-0.0013,-0.0002,9.8066,0.0028,0.0254,-0.0084,-0.37,-29.0,32.5,343.18,-86.35,164.14
17054,52.554695,-1.463064,0,0,6,0,22 / 23,1705419,2020-01-08 10:06:21:216,0.3348,-0.3397,9.9405,0.004,-0.0026,9.8066,0.0011,0.0085,-0.0139,0.13,-28.12,32.5,343.17,-86.34,164.1
17055,52.554695,-1.463064,0,0,6,0,22 / 23,1705519,2020-01-08 10:06:21:316,-0.0641,0.3525,9.7493,0.0046,-0.0016,9.8066,-0.0131,-0.0235,0.0298,-0.44,-28.75,33.06,342.53,-86.32,163.53
17056,52.554695,-1.463064,0,0,6,0,22 / 23,1705618,2020-01-08 10:06:21:415,0.5313,-0.4016,9.9064,0.0105,-0.0029,9.8066,-0.0165,-0.043,0.0629,0.13,-28.06,32.94,343.26,-86.35,164.18
17057,52.554695,-1.463064,0,0,6,0,22 / 23,1705718,2020-01-08 10:06:21:515,-0.3125,0.1821,9.8002,0.0029,-0.0029,9.8066,-0.0195,-0.0369,0.0072,0.25,-28.31,32.63,343.28,-86.31,164.22
17058,52.554695,-1.463064,0,0,6,0,22 / 23,1705818,2020-01-08 10:06:21:615,-0.352,0.163,9.791,-0.0042,-0.0007,9.8066,-0.0239,-0.0485,-0.0167,0.06,-28.25,32.69,342.81,-86.32,163.76
17059,52.554695,-1.463064,0,0,6,0,22 / 23,1705918,2020-01-08 10:06:21:715,-0.623,-0.1089,9.867,0.0144,-0.0036,9.8065,-0.0143,-0.0317,0.0506,0.31,-28.44,32.63,342.31,-86.3,163.29
17060,52.554695,-1.463064,0,0,6,0,22 / 23,1706019,2020-01-08 10:06:21:816,0.0877,0.3319,9.8016,-0.0002,-0.0016,9.8066,-0.0077,-0.0195,0.0441,-0.5,-28.5,32.88,343.34,-86.32,164.27
17061,52.554695,-1.463064,0,0,6,0,22 / 24,1706119,2020-01-08 10:06:21:916,0.3839,-0.4246,9.9512,-0.0006,-0.0021,9.8066,0.0027,0.0096,-0.0343,0.38,-28.5,32.25,342.9,-86.31,163.88
17062,52.554695,-1.463064,0,0,6,0,22 / 24,1706219,2020-01-08 10:06:22:016,0.173,0.2834,9.8057,-0.0061,0.0033,9.8066,0.018,0.0388,-0.0124,-0.25,-28.75,33.19,343.17,-86.33,164.14
17063,52.554695,-1.463064,0,0,6,0,22 / 24,1706319,2020-01-08 10:06:22:116,-0.1098,0.2956,9.8209,0.0055,-0.0009,9.8066,0.0113,0.047,-0.0036,0.0,-28.5,32.81,342.8,-86.3,163.76
17064,52.554695,-1.463064,0,0,6,0,22 / 24,1706419,2020-01-08 10:06:22:216,-0.2164,0.3684,9.7558,-0.0059,0.0036,9.8066,0.0155,0.0598,-0.0376,0.0,-28.56,32.75,342.83,-86.29,163.83
17065,52.554695,-1.463064,0,0,6,0,22 / 24,1706519,2020-01-08 10:06:22:316,0.2491,0.0408,9.9321,-0.0025,0.0035,9.8066,0.016,0.0635,-0.0478,-0.12,-28.56,33.38,342.89,-86.31,163.88
17066,52.554695,-1.463064,0,0,6,0,22 / 24,1706618,2020-01-08 10:06:22:415,-0.3372,0.0896,9.7707,-0.0097,0.0025,9.8066,-0.0037,0.0554,-0.0505,0.0,-28.31,32.69,342.55,-86.28,163.53
17067,52.554695,-1.463064,0,0,6,0,22 / 24,1706719,2020-01-08 10:06:22:516,0.3372,-0.2771,9.8936,-0.0011,0.0039,9.8066,-0.0119,0.0283,-0.0424,-0.06,-28.19,32.94,342.7,-86.3,163.67
17068,52.554695,-1.463064,0,0,6,0,22 / 24,1706819,2020-01-08 10:06:22:616,0.1643,0.1989,9.8902,-0.0005,0.0017,9.8066,-0.0102,0.0167,0.0122,-0.5,-28.25,33.38,342.86,-86.3,163.82
17069,52.554695,-1.463064,0,0,6,0,22 / 24,1706919,2020-01-08 10:06:22:716,0.6376,-0.4653,9.934,-0.0135,0.0041,9.8066,-0.012,0.0204,-0.0042,0.5,-28.31,33.44,345.17,-86.32,164.26
17070,52.554695,-1.463064,0,0,6,0,22 / 24,1707019,2020-01-08 10:06:22:816,-0.2413,0.0822,9.9253,-0.0068,-0.0033,9.8066,-0.0174,0.0025,-0.0166,0.13,-27.87,32.63,342.34,-86.3,163.33
17071,52.554695,-1.463064,0,0,6,0,22 / 23,1707119,2020-01-08 10:06:22:916,-0.1382,0.2792,9.8109,-0.0028,0.0027,9.8066,-0.0122,-0.0074,0.0266,-0.06,-28.44,32.88,343.04,-86.3,163.99
17072,52.554695,-1.463064,0,0,6,0,22 / 23,1707219,2020-01-08 10:06:23:016,0.4642,-0.1871,9.8789,0.0026,-0.0011,9.8066,-0.0038,-0.0143,0.0384,0.06,-28.0,32.75,343.34,-86.3,164.27
17073,52.554695,-1.463064,0,0,6,0,22 / 23,1707319,2020-01-08 10:06:23:116,0.1265,-0.0324,9.874,-0.0081,0.0027,9.8066,-0.0194,-0.021,0.0017,0.63,-28.12,32.69,345.01,-86.3,164.11
17074,52.554695,-1.463064,0,0,6,0,22 / 23,1707419,2020-01-08 10:06:23:216,0.3764,0.1057,9.9168,0.0058,-0.0044,9.8066,-0.0131,-0.0319,0.0078,0.69,-28.06,32.44,344.45,-86.27,163.56
17075,52.554695,-1.463064,0,0,6,0,22 / 23,1707518,2020-01-08 10:06:23:315,-0.5018,-0.2009,9.7674,0.0004,-0.0002,9.8066,-0.0243,-0.0326,0.0437,0.25,-28.19,32.75,343.28,-86.3,164.21
17076,52.554695,-1.463064,0,0,6,0,22 / 23,1707619,2020-01-08 10:06:23:416,-0.1251,0.2492,9.8869,0.0043,-0.002,9.8066,-0.0231,-0.0237,0.027,0.0,-28.5,32.56,343.6,-86.31,164.51
17077,52.554695,-1.463064,0,0,6,0,22 / 23,1707719,2020-01-08 10:06:23:516,-0.1677,-0.1381,9.7643,0.0001,0.0002,9.8066,-0.0189,-0.0058,-0.0089,0.0,-28.12,32.88,342.94,-86.31,163.9
17078,52.554695,-1.463064,0,0,6,0,22 / 23,1707819,2020-01-08 10:06:23:616,0.12,-0.1182,9.9206,0.0079,-0.0034,9.8066,-0.0028,-0.0072,-0.0127,0.13,-28.25,32.5,343.32,-86.31,164.25
17079,52.554695,-1.463064,0,0,6,0,22 / 23,1707919,2020-01-08 10:06:23:716,-0.2155,0.0888,9.75,0.004,-0.0028,9.8066,-0.0018,0.008,0.0048,0.88,-28.0,33.19,344.93,-86.3,164.04
17080,52.554695,-1.463064,0,0,6,0,22 / 23,1708018,2020-01-08 10:06:23:815,0.219,-0.2504,9.9731,0.0019,-0.0024,9.8066,0.0123,0.0279,-0.0015,0.0,-28.06,32.88,343.22,-86.29,164.16
17081,52.554695,-1.463064,0,0,6,0,22 / 23,1708119,2020-01-08 10:06:23:916,-0.1363,-0.1435,9.8335,0.0031,-0.0026,9.8066,0.0122,0.0378,-0.0208,0.38,-28.31,33.0,342.98,-86.28,163.94
17082,52.554695,-1.463064,0,0,6,0,22 / 23,1708219,2020-01-08 10:06:24:016,-0.2217,0.3216,9.7149,0.0023,-0.0007,9.8066,0.0163,0.0636,-0.0413,0.38,-28.37,32.63,343.1,-86.28,164.05
17083,52.554695,-1.463064,0,0,6,0,22 / 23,1708319,2020-01-08 10:06:24:116,0.4016,-0.4828,9.9937,0.009,-0.0048,9.8066,0.0076,0.0453,-0.0479,0.0,-28.81,33.19,342.9,-86.25,163.9
17084,52.554695,-1.463064,0,0,6,0,22 / 23,1708419,2020-01-08 10:06:24:216,-0.0682,-0.1016,9.7448,0.0017,0.0017,9.8066,-0.0095,0.0345,-0.0107,0.13,-28.25,33.19,343.15,-86.28,164.1
17085,52.554695,-1.463064,0,0,6,0,22 / 23,1708518,2020-01-08 10:06:24:315,-0.1706,0.1968,9.8134,0.0017,-0.0018,9.8066,-0.0034,0.0263,-0.0106,0.0,-28.5,32.75,343.08,-86.27,164.04
17086,52.554695,-1.463064,0,0,6,0,22 / 23,1708619,2020-01-08 10:06:24:416,-0.1774,0.0964,9.7894,-0.0053,0.0027,9.8066,0.0006,0.0272,-0.0343,-0.19,-28.5,33.13,342.8,-86.25,163.77
17087,52.554695,-1.463064,0,0,6,0,22 / 23,1708719,2020-01-08 10:06:24:516,0.0421,-0.337,9.9243,0.008,-0.0003,9.8066,-0.0035,0.0252,-0.0387,0.25,-28.31,32.63,342.75,-86.26,163.73
17088,52.554695,-1.463064,0,0,6,0,22 / 23,1708818,2020-01-08 10:06:24:615,-0.1492,-0.0597,9.8212,-0.0025,0.0031,9.8066,-0.0025,0.0176,0.0118,0.19,-28.44,33.31,343.17,-86.28,164.12
17089,52.554695,-1.463064,0,0,6,0,22 / 23,1708919,2020-01-08 10:06:24:716,0.0927,0.132,9.8249,-0.0019,0.0017,9.8066,-0.0036,0.0067,0.0232,0.06,-28.06,32.69,342.87,-86.29,163.83
17090,52.554695,-1.463064,0,0,6,0,22 / 23,1709020,2020-01-08 10:06:24:817,-0.3724,-0.2606,9.8295,-0.0088,0.0031,9.8066,-0.0061,0.0055,0.0093,0.63,-27.81,32.88,344.58,-86.27,163.72
17091,52.554695,-1.463064,0,0,6,0,22 / 23,1709119,2020-01-08 10:06:24:916,0.1793,-0.2567,10.006,0.0021,0.0039,9.8066,-0.0069,-0.0081,-0.0111,0.75,-28.5,32.19,344.98,-86.32,164.05
17092,52.554695,-1.463064,0,0,6,0,22 / 23,1709219,2020-01-08 10:06:25:016,-0.3981,-0.2234,9.8158,-0.0058,0.0012,9.8066,-0.0123,-0.0366,0.0385,0.0,-28.75,32.5,343.41,-86.3,164.37
17093,52.554695,-1.463064,0,0,6,0,22 / 23,1709320,2020-01-08 10:06:25:117,-0.135,0.1912,9.9331,-0.0094,0.0034,9.8066,-0.0085,-0.0275,0.0411,0.19,-28.62,32.69,343.56,-86.31,164.51
17094,52.554695,-1.463064,0,0,6,0,22 / 23,1709419,2020-01-08 10:06:25:216,-0.1263,-0.2395,9.7411,-0.0023,0.0003,9.8066,-0.0217,-0.0309,-0.0082,-0.19,-28.75,32.94,343.2,-86.31,164.17
17095,52.554695,-1.463064,0,0,6,0,22 / 23,1709520,2020-01-08 10:06:25:317,0.044,0.0387,9.9143,-0.0044,0.0034,9.8066,-0.0221,-0.0311,-0.0274,0.63,-28.5,32.75,345.7,-86.33,164.76
17096,52.554695,-1.463064,0,0,6,0,22 / 23,1709618,2020-01-08 10:06:25:415,0.1461,0.0403,9.9746,-0.0078,-0.0008,9.8066,-0.0105,-0.0211,0.0462,0.25,-27.94,32.88,343.3,-86.32,164.23
17097,52.554695,-1.463064,0,0,6,0,22 / 23,1709719,2020-01-08 10:06:25:516,0.1772,-0.1954,9.8941,-0.0047,0.0062,9.8065,0.0042,0.0081,-0.012,0.31,-28.25,33.06,343.36,-86.34,164.28
17098,52.554695,-1.463064,0,0,6,0,22 / 23,1709818,2020-01-08 10:06:25:615,0.1773,0.1193,9.952,0.0055,-0.0037,9.8066,0.013,0.0175,-0.0426,0.13,-28.62,33.31,343.44,-86.33,164.39
17099,52.554695,-1.463064,0,0,6,0,22 / 23,1709919,2020-01-08 10:06:25:716,-0.5871,-0.0926,9.725,-0.0073,0.0004,9.8066,0.0309,0.0437,-0.0326,0.13,-28.37,33.19,343.21,-86.3,164.14
